{"displayFieldName":"TOWNNAME","fieldAliases":{"ID":"ID","DIS_CODE":"DIS_CODE","TOWNNAME":"TOWNNAME","LI":"LI","LIN":"LIN","STREET":"STREET","SECT":"SECT","MAREA":"MAREA","LANE":"LANE","ALLEY":"ALLEY","HOUSE_NO":"HOUSE_NO","E_COORD97":"E_COORD97","N_COORD97":"N_COORD97","ADDRESS":"ADDRESS","OBJECTID":"OBJECTID"},"geometryType":"esriGeometryPoint","spatialReference":{"wkid":102443,"latestWkid":3826},"fields":[{"name":"ID","type":"esriFieldTypeDouble","alias":"ID"},{"name":"DIS_CODE","type":"esriFieldTypeInteger","alias":"DIS_CODE"},{"name":"TOWNNAME","type":"esriFieldTypeString","alias":"TOWNNAME","length":8},{"name":"LI","type":"esriFieldTypeString","alias":"LI","length":8},{"name":"LIN","type":"esriFieldTypeString","alias":"LIN","length":12},{"name":"STREET","type":"esriFieldTypeString","alias":"STREET","length":20},{"name":"SECT","type":"esriFieldTypeString","alias":"SECT","length":8},{"name":"MAREA","type":"esriFieldTypeString","alias":"MAREA","length":12},{"name":"LANE","type":"esriFieldTypeString","alias":"LANE","length":10},{"name":"ALLEY","type":"esriFieldTypeString","alias":"ALLEY","length":10},{"name":"HOUSE_NO","type":"esriFieldTypeString","alias":"HOUSE_NO","length":20},{"name":"E_COORD97","type":"esriFieldTypeDouble","alias":"E_COORD97"},{"name":"N_COORD97","type":"esriFieldTypeDouble","alias":"N_COORD97"},{"name":"ADDRESS","type":"esriFieldTypeString","alias":"ADDRESS","length":50},{"name":"OBJECTID","type":"esriFieldTypeOID","alias":"OBJECTID"}],"features":[{"attributes":{"ID":266005,"DIS_CODE":0,"TOWNNAME":"永康區","LI":"西灣里","LIN":"47鄰","STREET":"大灣路","SECT":" ","MAREA":" ","LANE":"９４２巷","ALLEY":" ","HOUSE_NO":"５８５號","E_COORD97":173936.84,"N_COORD97":2545659.4900000002,"ADDRESS":"大灣路９４２巷５８５號","OBJECTID":266001},"geometry":{"x":173936.83999999985,"y":2545659.4900000021}},{"attributes":{"ID":266006,"DIS_CODE":0,"TOWNNAME":"永康區","LI":"西灣里","LIN":"47鄰","STREET":"大灣路","SECT":" ","MAREA":" ","LANE":"９４２巷","ALLEY":" ","HOUSE_NO":"５８３號","E_COORD97":173938.03,"N_COORD97":2545655.9900000002,"ADDRESS":"大灣路９４２巷５８３號","OBJECTID":266002},"geometry":{"x":173938.03000000212,"y":2545655.9900000021}},{"attributes":{"ID":266007,"DIS_CODE":0,"TOWNNAME":"仁德區","LI":"太子里","LIN":"47鄰","STREET":"太子路","SECT":" ","MAREA":" ","LANE":"９巷","ALLEY":" ","HOUSE_NO":"２０號","E_COORD97":175456.87,"N_COORD97":2543489.75,"ADDRESS":"太子路９巷２０號","OBJECTID":266003},"geometry":{"x":175456.87000000104,"y":2543489.75}},{"attributes":{"ID":266008,"DIS_CODE":0,"TOWNNAME":"永康區","LI":"西灣里","LIN":"47鄰","STREET":"大灣路","SECT":" ","MAREA":" ","LANE":"９４２巷","ALLEY":" ","HOUSE_NO":"５９３號","E_COORD97":173930.23999999999,"N_COORD97":2545682.25,"ADDRESS":"大灣路９４２巷５９３號","OBJECTID":266004},"geometry":{"x":173930.24000000115,"y":2545682.25}},{"attributes":{"ID":266009,"DIS_CODE":0,"TOWNNAME":"永康區","LI":"\u25A0行里","LIN":"47鄰","STREET":"新行街","SECT":" ","MAREA":" ","LANE":"４巷","ALLEY":" ","HOUSE_NO":"５３號","E_COORD97":172334.03,"N_COORD97":2548859.7999999998,"ADDRESS":"新行街４巷５３號","OBJECTID":266005},"geometry":{"x":172334.03000000026,"y":2548859.8000000007}},{"attributes":{"ID":266010,"DIS_CODE":0,"TOWNNAME":"永康區","LI":"\u25A0行里","LIN":"47鄰","STREET":"新行街","SECT":" ","MAREA":" ","LANE":"４巷","ALLEY":" ","HOUSE_NO":"３１號","E_COORD97":172303.64000000001,"N_COORD97":2548800.5699999998,"ADDRESS":"新行街４巷３１號","OBJECTID":266006},"geometry":{"x":172303.63999999966,"y":2548800.5700000003}},{"attributes":{"ID":266011,"DIS_CODE":0,"TOWNNAME":"南區","LI":"永寧里","LIN":"3鄰","STREET":"灣裡路","SECT":" ","MAREA":" ","LANE":" ","ALLEY":" ","HOUSE_NO":"１５０號","E_COORD97":166022.42000000001,"N_COORD97":2536711.9900000002,"ADDRESS":"灣裡路１５０號","OBJECTID":266007},"geometry":{"x":166022.42000000086,"y":2536711.9900000021}},{"attributes":{"ID":266012,"DIS_CODE":0,"TOWNNAME":"南區","LI":"永寧里","LIN":"3鄰","STREET":"灣裡路","SECT":" ","MAREA":" ","LANE":" ","ALLEY":" ","HOUSE_NO":"１５４號","E_COORD97":166023.45999999999,"N_COORD97":2536686.3599999999,"ADDRESS":"灣裡路１５４號","OBJECTID":266008},"geometry":{"x":166023.46000000183,"y":2536686.3599999994}},{"attributes":{"ID":266013,"DIS_CODE":0,"TOWNNAME":"南區","LI":"永寧里","LIN":"3鄰","STREET":"灣裡路","SECT":" ","MAREA":" ","LANE":" ","ALLEY":" ","HOUSE_NO":"１５４號之１","E_COORD97":166026.69,"N_COORD97":2536690.6299999999,"ADDRESS":"灣裡路１５４號之１","OBJECTID":266009},"geometry":{"x":166026.69000000041,"y":2536690.629999999}},{"attributes":{"ID":266014,"DIS_CODE":0,"TOWNNAME":"南區","LI":"永寧里","LIN":"3鄰","STREET":"灣裡路","SECT":" ","MAREA":" ","LANE":" ","ALLEY":" ","HOUSE_NO":"１５６之１號","E_COORD97":166021.81,"N_COORD97":2536680.5299999998,"ADDRESS":"灣裡路１５６之１號","OBJECTID":266010},"geometry":{"x":166021.80999999959,"y":2536680.5300000012}},{"attributes":{"ID":266015,"DIS_CODE":0,"TOWNNAME":"永康區","LI":"\u25A0行里","LIN":"47鄰","STREET":"新行街","SECT":" ","MAREA":" ","LANE":"４巷","ALLEY":" ","HOUSE_NO":"５１號","E_COORD97":172328.69,"N_COORD97":2548853.7200000002,"ADDRESS":"新行街４巷５１號","OBJECTID":266011},"geometry":{"x":172328.69000000134,"y":2548853.7200000007}},{"attributes":{"ID":266016,"DIS_CODE":0,"TOWNNAME":"永康區","LI":"\u25A0行里","LIN":"47鄰","STREET":"新行街","SECT":" ","MAREA":" ","LANE":"４巷","ALLEY":" ","HOUSE_NO":"３３號","E_COORD97":172305.62,"N_COORD97":2548804.3199999998,"ADDRESS":"新行街４巷３３號","OBJECTID":266012},"geometry":{"x":172305.62000000104,"y":2548804.3200000022}},{"attributes":{"ID":266017,"DIS_CODE":0,"TOWNNAME":"仁德區","LI":"太子里","LIN":"47鄰","STREET":"太子路","SECT":" ","MAREA":" ","LANE":"９巷","ALLEY":" ","HOUSE_NO":"１６號","E_COORD97":175450.06,"N_COORD97":2543501,"ADDRESS":"太子路９巷１６號","OBJECTID":266013},"geometry":{"x":175450.06000000052,"y":2543501}},{"attributes":{"ID":266018,"DIS_CODE":0,"TOWNNAME":"永康區","LI":"復國里","LIN":"14鄰","STREET":"復國二路","SECT":" ","MAREA":" ","LANE":"１７８巷","ALLEY":" ","HOUSE_NO":"２號","E_COORD97":172942.85999999999,"N_COORD97":2545691.2799999998,"ADDRESS":"復國二路１７８巷２號","OBJECTID":266014},"geometry":{"x":172942.86000000127,"y":2545691.2800000012}},{"attributes":{"ID":266019,"DIS_CODE":0,"TOWNNAME":"安南區","LI":"安慶里","LIN":"14鄰","STREET":"安中路","SECT":"一段","MAREA":" ","LANE":"１１３巷","ALLEY":" ","HOUSE_NO":"３４號","E_COORD97":168964.89999999999,"N_COORD97":2548269.9500000002,"ADDRESS":"安中路一段１１３巷３４號","OBJECTID":266015},"geometry":{"x":168964.90000000037,"y":2548269.9500000011}},{"attributes":{"ID":266020,"DIS_CODE":0,"TOWNNAME":"楠西區","LI":"龜丹里","LIN":"3鄰","STREET":" ","SECT":" ","MAREA":"龜丹","LANE":" ","ALLEY":" ","HOUSE_NO":"３９號之４","E_COORD97":198169.10000000001,"N_COORD97":2559303.2999999998,"ADDRESS":"龜丹３９號之４","OBJECTID":266016},"geometry":{"x":198169.09999999963,"y":2559303.2999999989}},{"attributes":{"ID":266021,"DIS_CODE":0,"TOWNNAME":"安南區","LI":"佃東里","LIN":"14鄰","STREET":"公學路","SECT":"四段","MAREA":" ","LANE":"１０巷","ALLEY":" ","HOUSE_NO":"１９號","E_COORD97":165917.94,"N_COORD97":2552121.25,"ADDRESS":"公學路四段１０巷１９號","OBJECTID":266017},"geometry":{"x":165917.94000000134,"y":2552121.25}},{"attributes":{"ID":266022,"DIS_CODE":0,"TOWNNAME":"安南區","LI":"佃東里","LIN":"14鄰","STREET":"公學路","SECT":"四段","MAREA":" ","LANE":"１０巷","ALLEY":" ","HOUSE_NO":"２０號","E_COORD97":165940.97,"N_COORD97":2552129.6499999999,"ADDRESS":"公學路四段１０巷２０號","OBJECTID":266018},"geometry":{"x":165940.96999999974,"y":2552129.6500000004}},{"attributes":{"ID":266023,"DIS_CODE":0,"TOWNNAME":"安南區","LI":"幸福里","LIN":"14鄰","STREET":"府安路","SECT":"六段","MAREA":" ","LANE":"４５巷","ALLEY":" ","HOUSE_NO":"１６號","E_COORD97":166967.53,"N_COORD97":2546704.7999999998,"ADDRESS":"府安路六段４５巷１６號","OBJECTID":266019},"geometry":{"x":166967.53000000212,"y":2546704.8000000045}},{"attributes":{"ID":266024,"DIS_CODE":0,"TOWNNAME":"安南區","LI":"幸福里","LIN":"14鄰","STREET":"府安路","SECT":"六段","MAREA":" ","LANE":"４５巷","ALLEY":" ","HOUSE_NO":"１８號","E_COORD97":166968.17000000001,"N_COORD97":2546710.6600000001,"ADDRESS":"府安路六段４５巷１８號","OBJECTID":266020},"geometry":{"x":166968.17000000086,"y":2546710.6600000001}},{"attributes":{"ID":266025,"DIS_CODE":0,"TOWNNAME":"安南區","LI":"幸福里","LIN":"14鄰","STREET":"府安路","SECT":"六段","MAREA":" ","LANE":"４５巷","ALLEY":" ","HOUSE_NO":"２２號","E_COORD97":166964.95999999999,"N_COORD97":2546721.5,"ADDRESS":"府安路六段４５巷２２號","OBJECTID":266021},"geometry":{"x":166964.96000000089,"y":2546721.5}},{"attributes":{"ID":266026,"DIS_CODE":0,"TOWNNAME":"安南區","LI":"幸福里","LIN":"14鄰","STREET":"府安路","SECT":"六段","MAREA":" ","LANE":"４５巷","ALLEY":" ","HOUSE_NO":"３０號","E_COORD97":166961.01000000001,"N_COORD97":2546742.21,"ADDRESS":"府安路六段４５巷３０號","OBJECTID":266022},"geometry":{"x":166961.01000000071,"y":2546742.2100000009}},{"attributes":{"ID":266027,"DIS_CODE":0,"TOWNNAME":"安南區","LI":"幸福里","LIN":"14鄰","STREET":"府安路","SECT":"六段","MAREA":" ","LANE":"４５巷","ALLEY":" ","HOUSE_NO":"３８號","E_COORD97":166956.57999999999,"N_COORD97":2546762.9300000002,"ADDRESS":"府安路六段４５巷３８號","OBJECTID":266023},"geometry":{"x":166956.57999999914,"y":2546762.9299999997}},{"attributes":{"ID":266028,"DIS_CODE":0,"TOWNNAME":"永康區","LI":"二王里","LIN":"14鄰","STREET":"永二街","SECT":" ","MAREA":" ","LANE":"４６１巷","ALLEY":" ","HOUSE_NO":"１號","E_COORD97":172584.20999999999,"N_COORD97":2546656.48,"ADDRESS":"永二街４６１巷１號","OBJECTID":266024},"geometry":{"x":172584.21000000089,"y":2546656.4800000023}},{"attributes":{"ID":266029,"DIS_CODE":0,"TOWNNAME":"永康區","LI":"二王里","LIN":"14鄰","STREET":"永二街","SECT":" ","MAREA":" ","LANE":"４５９巷","ALLEY":" ","HOUSE_NO":"２０號之１１","E_COORD97":172583.42999999999,"N_COORD97":2546594.29,"ADDRESS":"永二街４５９巷２０號之１１","OBJECTID":266025},"geometry":{"x":172583.4299999997,"y":2546594.2899999991}},{"attributes":{"ID":266030,"DIS_CODE":0,"TOWNNAME":"中西區","LI":"西湖里","LIN":"14鄰","STREET":"湖美一街","SECT":" ","MAREA":" ","LANE":"１０３巷","ALLEY":" ","HOUSE_NO":"１０號","E_COORD97":166034.59,"N_COORD97":2544771.0699999998,"ADDRESS":"湖美一街１０３巷１０號","OBJECTID":266026},"geometry":{"x":166034.59000000078,"y":2544771.0700000022}},{"attributes":{"ID":266031,"DIS_CODE":0,"TOWNNAME":"仁德區","LI":"仁義里","LIN":"14鄰","STREET":"義林路","SECT":" ","MAREA":" ","LANE":"２００巷","ALLEY":" ","HOUSE_NO":"５３號","E_COORD97":174675.26999999999,"N_COORD97":2541305.6400000001,"ADDRESS":"義林路２００巷５３號","OBJECTID":266027},"geometry":{"x":174675.27000000048,"y":2541305.6400000025}},{"attributes":{"ID":266032,"DIS_CODE":0,"TOWNNAME":"仁德區","LI":"仁德里","LIN":"14鄰","STREET":"四維街","SECT":" ","MAREA":" ","LANE":"８巷","ALLEY":" ","HOUSE_NO":"９號","E_COORD97":173310.54000000001,"N_COORD97":2541573.75,"ADDRESS":"四維街８巷９號","OBJECTID":266028},"geometry":{"x":173310.5400000019,"y":2541573.75}},{"attributes":{"ID":266033,"DIS_CODE":0,"TOWNNAME":"安南區","LI":"溪東里","LIN":"14鄰","STREET":"北安路","SECT":"二段","MAREA":" ","LANE":"９３巷","ALLEY":" ","HOUSE_NO":"１０號","E_COORD97":168435.42000000001,"N_COORD97":2547456.7400000002,"ADDRESS":"北安路二段９３巷１０號","OBJECTID":266029},"geometry":{"x":168435.41999999993,"y":2547456.7400000002}},{"attributes":{"ID":266034,"DIS_CODE":0,"TOWNNAME":"安南區","LI":"溪東里","LIN":"14鄰","STREET":"北安路","SECT":"二段","MAREA":" ","LANE":"９３巷","ALLEY":" ","HOUSE_NO":"１３號","E_COORD97":168426.06,"N_COORD97":2547433.8500000001,"ADDRESS":"北安路二段９３巷１３號","OBJECTID":266030},"geometry":{"x":168426.06000000145,"y":2547433.8500000015}},{"attributes":{"ID":266035,"DIS_CODE":0,"TOWNNAME":"安南區","LI":"溪東里","LIN":"14鄰","STREET":"北安路","SECT":"二段","MAREA":" ","LANE":"９３巷","ALLEY":" ","HOUSE_NO":"５０號","E_COORD97":168298.79999999999,"N_COORD97":2547440.5,"ADDRESS":"北安路二段９３巷５０號","OBJECTID":266031},"geometry":{"x":168298.79999999981,"y":2547440.5}},{"attributes":{"ID":266036,"DIS_CODE":0,"TOWNNAME":"安南區","LI":"淵西里","LIN":"14鄰","STREET":"安中路","SECT":"四段","MAREA":" ","LANE":"２９７巷","ALLEY":" ","HOUSE_NO":"１７號","E_COORD97":164496.78,"N_COORD97":2550091.3399999999,"ADDRESS":"安中路四段２９７巷１７號","OBJECTID":266032},"geometry":{"x":164496.78000000026,"y":2550091.3400000017}},{"attributes":{"ID":266037,"DIS_CODE":0,"TOWNNAME":"安南區","LI":"淵西里","LIN":"14鄰","STREET":"安中路","SECT":"四段","MAREA":" ","LANE":"２９７巷","ALLEY":" ","HOUSE_NO":"１８號","E_COORD97":164487.85000000001,"N_COORD97":2550113.3199999998,"ADDRESS":"安中路四段２９７巷１８號","OBJECTID":266033},"geometry":{"x":164487.85000000149,"y":2550113.3200000003}},{"attributes":{"ID":266038,"DIS_CODE":0,"TOWNNAME":"安南區","LI":"淵西里","LIN":"14鄰","STREET":"安中路","SECT":"四段","MAREA":" ","LANE":"２９７巷","ALLEY":" ","HOUSE_NO":"２號","E_COORD97":164494.07999999999,"N_COORD97":2550186.04,"ADDRESS":"安中路四段２９７巷２號","OBJECTID":266034},"geometry":{"x":164494.08000000101,"y":2550186.0399999991}},{"attributes":{"ID":266039,"DIS_CODE":0,"TOWNNAME":"安南區","LI":"淵西里","LIN":"14鄰","STREET":"安中路","SECT":"四段","MAREA":" ","LANE":"２９７巷","ALLEY":" ","HOUSE_NO":"３號","E_COORD97":164509.54999999999,"N_COORD97":2550174.4500000002,"ADDRESS":"安中路四段２９７巷３號","OBJECTID":266035},"geometry":{"x":164509.55000000075,"y":2550174.4500000011}},{"attributes":{"ID":266040,"DIS_CODE":0,"TOWNNAME":"安南區","LI":"淵西里","LIN":"14鄰","STREET":"安中路","SECT":"四段","MAREA":" ","LANE":"２９７巷","ALLEY":" ","HOUSE_NO":"４號","E_COORD97":164490.70000000001,"N_COORD97":2550181.6899999999,"ADDRESS":"安中路四段２９７巷４號","OBJECTID":266036},"geometry":{"x":164490.70000000019,"y":2550181.6899999995}},{"attributes":{"ID":266041,"DIS_CODE":0,"TOWNNAME":"安南區","LI":"淵西里","LIN":"14鄰","STREET":"安中路","SECT":"四段","MAREA":" ","LANE":"２９７巷","ALLEY":" ","HOUSE_NO":"５號","E_COORD97":164507.13,"N_COORD97":2550169.1400000001,"ADDRESS":"安中路四段２９７巷５號","OBJECTID":266037},"geometry":{"x":164507.13000000082,"y":2550169.1400000006}},{"attributes":{"ID":266042,"DIS_CODE":0,"TOWNNAME":"安南區","LI":"淵西里","LIN":"14鄰","STREET":"安中路","SECT":"四段","MAREA":" ","LANE":"２９７巷","ALLEY":" ","HOUSE_NO":"６號","E_COORD97":164486.35000000001,"N_COORD97":2550177.8300000001,"ADDRESS":"安中路四段２９７巷６號","OBJECTID":266038},"geometry":{"x":164486.35000000056,"y":2550177.8300000001}},{"attributes":{"ID":266043,"DIS_CODE":0,"TOWNNAME":"安南區","LI":"淵西里","LIN":"14鄰","STREET":"安中路","SECT":"四段","MAREA":" ","LANE":"２９７巷","ALLEY":" ","HOUSE_NO":"９號","E_COORD97":164503.84,"N_COORD97":2550114.3599999999,"ADDRESS":"安中路四段２９７巷９號","OBJECTID":266039},"geometry":{"x":164503.84000000078,"y":2550114.3600000013}},{"attributes":{"ID":266044,"DIS_CODE":0,"TOWNNAME":"安南區","LI":"淵西里","LIN":"14鄰","STREET":"安中路","SECT":"四段","MAREA":" ","LANE":"３１３巷","ALLEY":" ","HOUSE_NO":"１１號","E_COORD97":164450.67000000001,"N_COORD97":2550180.6499999999,"ADDRESS":"安中路四段３１３巷１１號","OBJECTID":266040},"geometry":{"x":164450.67000000086,"y":2550180.6500000041}},{"attributes":{"ID":266045,"DIS_CODE":0,"TOWNNAME":"安南區","LI":"淵西里","LIN":"14鄰","STREET":"安中路","SECT":"四段","MAREA":" ","LANE":"３１３巷","ALLEY":" ","HOUSE_NO":"１３號","E_COORD97":164449.22,"N_COORD97":2550177.9500000002,"ADDRESS":"安中路四段３１３巷１３號","OBJECTID":266041},"geometry":{"x":164449.21999999974,"y":2550177.9500000011}},{"attributes":{"ID":266046,"DIS_CODE":0,"TOWNNAME":"善化區","LI":"坐駕里","LIN":"14鄰","STREET":"大成路","SECT":" ","MAREA":" ","LANE":"３６７巷","ALLEY":" ","HOUSE_NO":"４６號","E_COORD97":178252.97,"N_COORD97":2558618.25,"ADDRESS":"大成路３６７巷４６號","OBJECTID":266042},"geometry":{"x":178252.97000000067,"y":2558618.2500000037}},{"attributes":{"ID":266047,"DIS_CODE":0,"TOWNNAME":"永康區","LI":"三民里","LIN":"14鄰","STREET":"和平東路","SECT":" ","MAREA":" ","LANE":"３０巷","ALLEY":" ","HOUSE_NO":"５號","E_COORD97":175229.14000000001,"N_COORD97":2550688.25,"ADDRESS":"和平東路３０巷５號","OBJECTID":266043},"geometry":{"x":175229.1400000006,"y":2550688.2500000037}},{"attributes":{"ID":266048,"DIS_CODE":0,"TOWNNAME":"永康區","LI":"三民里","LIN":"14鄰","STREET":"和平東路","SECT":" ","MAREA":" ","LANE":"２１巷","ALLEY":" ","HOUSE_NO":"７號","E_COORD97":175188.95999999999,"N_COORD97":2550513.9900000002,"ADDRESS":"和平東路２１巷７號","OBJECTID":266044},"geometry":{"x":175188.95999999996,"y":2550513.9900000039}},{"attributes":{"ID":266049,"DIS_CODE":0,"TOWNNAME":"永康區","LI":"二王里","LIN":"14鄰","STREET":"永二街","SECT":" ","MAREA":" ","LANE":"４５９巷","ALLEY":" ","HOUSE_NO":"２８號","E_COORD97":172615.51000000001,"N_COORD97":2546606.8900000001,"ADDRESS":"永二街４５９巷２８號","OBJECTID":266045},"geometry":{"x":172615.51000000164,"y":2546606.8900000025}},{"attributes":{"ID":266050,"DIS_CODE":0,"TOWNNAME":"永康區","LI":"復國里","LIN":"14鄰","STREET":"復國二路","SECT":" ","MAREA":" ","LANE":"１３４巷","ALLEY":" ","HOUSE_NO":"１號","E_COORD97":172911.03,"N_COORD97":2545580.7799999998,"ADDRESS":"復國二路１３４巷１號","OBJECTID":266046},"geometry":{"x":172911.03000000119,"y":2545580.7799999993}},{"attributes":{"ID":266051,"DIS_CODE":0,"TOWNNAME":"永康區","LI":"二王里","LIN":"14鄰","STREET":"永二街","SECT":" ","MAREA":" ","LANE":"４５９巷","ALLEY":" ","HOUSE_NO":"２０號之１０","E_COORD97":172588.32000000001,"N_COORD97":2546595.29,"ADDRESS":"永二街４５９巷２０號之１０","OBJECTID":266047},"geometry":{"x":172588.31999999937,"y":2546595.290000001}},{"attributes":{"ID":266052,"DIS_CODE":0,"TOWNNAME":"永康區","LI":"三合里","LIN":"14鄰","STREET":"南工街","SECT":" ","MAREA":" ","LANE":"２０８巷","ALLEY":" ","HOUSE_NO":"２號","E_COORD97":172048.29999999999,"N_COORD97":2545940.9900000002,"ADDRESS":"南工街２０８巷２號","OBJECTID":266048},"geometry":{"x":172048.29999999981,"y":2545940.9900000021}},{"attributes":{"ID":266053,"DIS_CODE":0,"TOWNNAME":"永康區","LI":"西橋里","LIN":"14鄰","STREET":"大橋一街","SECT":" ","MAREA":" ","LANE":"３１巷","ALLEY":" ","HOUSE_NO":"３６號","E_COORD97":170577.23999999999,"N_COORD97":2546334.75,"ADDRESS":"大橋一街３１巷３６號","OBJECTID":266049},"geometry":{"x":170577.24000000115,"y":2546334.7500000037}},{"attributes":{"ID":266054,"DIS_CODE":0,"TOWNNAME":"永康區","LI":"三民里","LIN":"14鄰","STREET":"和平路","SECT":" ","MAREA":" ","LANE":"１８６巷","ALLEY":" ","HOUSE_NO":"１６號","E_COORD97":174879.73999999999,"N_COORD97":2550475.25,"ADDRESS":"和平路１８６巷１６號","OBJECTID":266050},"geometry":{"x":174879.74000000115,"y":2550475.2500000019}},{"attributes":{"ID":266055,"DIS_CODE":0,"TOWNNAME":"南區","LI":"大林里","LIN":"3鄰","STREET":"大同路","SECT":"二段","MAREA":" ","LANE":" ","ALLEY":" ","HOUSE_NO":"４３４號","E_COORD97":169430.92999999999,"N_COORD97":2541609.7000000002,"ADDRESS":"大同路二段４３４號","OBJECTID":266051},"geometry":{"x":169430.93000000063,"y":2541609.7000000011}},{"attributes":{"ID":266056,"DIS_CODE":0,"TOWNNAME":"南區","LI":"大林里","LIN":"3鄰","STREET":"大同路","SECT":"二段","MAREA":" ","LANE":" ","ALLEY":" ","HOUSE_NO":"４３８號","E_COORD97":169433.32000000001,"N_COORD97":2541601.6899999999,"ADDRESS":"大同路二段４３８號","OBJECTID":266052},"geometry":{"x":169433.3200000003,"y":2541601.6900000032}},{"attributes":{"ID":266057,"DIS_CODE":0,"TOWNNAME":"南區","LI":"大林里","LIN":"3鄰","STREET":"大同路","SECT":"二段","MAREA":" ","LANE":" ","ALLEY":" ","HOUSE_NO":"４４０號","E_COORD97":169433.67000000001,"N_COORD97":2541600.5299999998,"ADDRESS":"大同路二段４４０號","OBJECTID":266053},"geometry":{"x":169433.66999999993,"y":2541600.5300000012}},{"attributes":{"ID":266058,"DIS_CODE":0,"TOWNNAME":"南區","LI":"大林里","LIN":"3鄰","STREET":"大同路","SECT":"二段","MAREA":" ","LANE":" ","ALLEY":" ","HOUSE_NO":"４４２號","E_COORD97":169433.79999999999,"N_COORD97":2541593.3500000001,"ADDRESS":"大同路二段４４２號","OBJECTID":266054},"geometry":{"x":169433.80000000075,"y":2541593.3499999996}},{"attributes":{"ID":266059,"DIS_CODE":0,"TOWNNAME":"楠西區","LI":"鹿田里","LIN":"3鄰","STREET":" ","SECT":" ","MAREA":"鹿陶洋","LANE":" ","ALLEY":" ","HOUSE_NO":"３９號","E_COORD97":197747.62,"N_COORD97":2561582.25,"ADDRESS":"鹿陶洋３９號","OBJECTID":266055},"geometry":{"x":197747.62000000011,"y":2561582.2500000019}},{"attributes":{"ID":266060,"DIS_CODE":0,"TOWNNAME":"楠西區","LI":"鹿田里","LIN":"3鄰","STREET":" ","SECT":" ","MAREA":"鹿陶洋","LANE":" ","ALLEY":" ","HOUSE_NO":"８４號","E_COORD97":197775.51999999999,"N_COORD97":2561610.25,"ADDRESS":"鹿陶洋８４號","OBJECTID":266056},"geometry":{"x":197775.52000000048,"y":2561610.25}},{"attributes":{"ID":266061,"DIS_CODE":0,"TOWNNAME":"楠西區","LI":"密枝里","LIN":"3鄰","STREET":" ","SECT":" ","MAREA":"密枝","LANE":" ","ALLEY":" ","HOUSE_NO":"３５號","E_COORD97":200069.17000000001,"N_COORD97":2567651.2799999998,"ADDRESS":"密枝３５號","OBJECTID":266057},"geometry":{"x":200069.16999999993,"y":2567651.2799999993}},{"attributes":{"ID":266062,"DIS_CODE":0,"TOWNNAME":"楠西區","LI":"鹿田里","LIN":"3鄰","STREET":" ","SECT":" ","MAREA":"鹿陶洋","LANE":" ","ALLEY":" ","HOUSE_NO":"３５號","E_COORD97":197772.12,"N_COORD97":2561545.25,"ADDRESS":"鹿陶洋３５號","OBJECTID":266058},"geometry":{"x":197772.12000000104,"y":2561545.2500000019}},{"attributes":{"ID":266063,"DIS_CODE":0,"TOWNNAME":"楠西區","LI":"密枝里","LIN":"3鄰","STREET":" ","SECT":" ","MAREA":"密枝","LANE":" ","ALLEY":" ","HOUSE_NO":"３３號","E_COORD97":199922.57000000001,"N_COORD97":2567729.2799999998,"ADDRESS":"密枝３３號","OBJECTID":266059},"geometry":{"x":199922.5700000003,"y":2567729.2799999993}},{"attributes":{"ID":266064,"DIS_CODE":0,"TOWNNAME":"楠西區","LI":"密枝里","LIN":"3鄰","STREET":" ","SECT":" ","MAREA":"密枝","LANE":" ","ALLEY":" ","HOUSE_NO":"３５號之２","E_COORD97":199993.84,"N_COORD97":2567621.2999999998,"ADDRESS":"密枝３５號之２","OBJECTID":266060},"geometry":{"x":199993.83999999892,"y":2567621.3000000026}},{"attributes":{"ID":266065,"DIS_CODE":0,"TOWNNAME":"楠西區","LI":"鹿田里","LIN":"3鄰","STREET":" ","SECT":" ","MAREA":"鹿陶洋","LANE":" ","ALLEY":" ","HOUSE_NO":"３３號之１","E_COORD97":197755.25,"N_COORD97":2561526.2999999998,"ADDRESS":"鹿陶洋３３號之１","OBJECTID":266061},"geometry":{"x":197755.24999999907,"y":2561526.3000000007}},{"attributes":{"ID":266066,"DIS_CODE":0,"TOWNNAME":"楠西區","LI":"照興里","LIN":"3鄰","STREET":" ","SECT":" ","MAREA":"興北","LANE":" ","ALLEY":" ","HOUSE_NO":"３９號之２","E_COORD97":197227.44,"N_COORD97":2567476.2999999998,"ADDRESS":"興北３９號之２","OBJECTID":266062},"geometry":{"x":197227.44000000227,"y":2567476.3000000007}},{"attributes":{"ID":266067,"DIS_CODE":0,"TOWNNAME":"永康區","LI":"三民里","LIN":"14鄰","STREET":"和平路","SECT":" ","MAREA":" ","LANE":"２０６巷","ALLEY":" ","HOUSE_NO":"２１號","E_COORD97":174909.31,"N_COORD97":2550611.7400000002,"ADDRESS":"和平路２０６巷２１號","OBJECTID":266063},"geometry":{"x":174909.30999999959,"y":2550611.7400000021}},{"attributes":{"ID":266068,"DIS_CODE":0,"TOWNNAME":"永康區","LI":"二王里","LIN":"14鄰","STREET":"永二街","SECT":" ","MAREA":" ","LANE":"４５９巷","ALLEY":" ","HOUSE_NO":"１０號","E_COORD97":172588.85999999999,"N_COORD97":2546631.8700000001,"ADDRESS":"永二街４５９巷１０號","OBJECTID":266064},"geometry":{"x":172588.86000000127,"y":2546631.870000001}},{"attributes":{"ID":266069,"DIS_CODE":0,"TOWNNAME":"安南區","LI":"幸福里","LIN":"14鄰","STREET":"府安路","SECT":"六段","MAREA":" ","LANE":"４５巷","ALLEY":" ","HOUSE_NO":"１０號","E_COORD97":166970.01000000001,"N_COORD97":2546689.5800000001,"ADDRESS":"府安路六段４５巷１０號","OBJECTID":266065},"geometry":{"x":166970.00999999978,"y":2546689.5800000019}},{"attributes":{"ID":266070,"DIS_CODE":0,"TOWNNAME":"安南區","LI":"幸福里","LIN":"14鄰","STREET":"府安路","SECT":"六段","MAREA":" ","LANE":"４５巷","ALLEY":" ","HOUSE_NO":"１１號","E_COORD97":166948.91,"N_COORD97":2546685.3599999999,"ADDRESS":"府安路六段４５巷１１號","OBJECTID":266066},"geometry":{"x":166948.91000000015,"y":2546685.3599999994}},{"attributes":{"ID":266071,"DIS_CODE":0,"TOWNNAME":"安南區","LI":"幸福里","LIN":"14鄰","STREET":"府安路","SECT":"六段","MAREA":" ","LANE":"４５巷","ALLEY":" ","HOUSE_NO":"２４號","E_COORD97":166963.85999999999,"N_COORD97":2546726.71,"ADDRESS":"府安路六段４５巷２４號","OBJECTID":266067},"geometry":{"x":166963.86000000127,"y":2546726.7100000028}},{"attributes":{"ID":266072,"DIS_CODE":0,"TOWNNAME":"安南區","LI":"幸福里","LIN":"14鄰","STREET":"府安路","SECT":"六段","MAREA":" ","LANE":"４５巷","ALLEY":" ","HOUSE_NO":"２５號","E_COORD97":166936.14999999999,"N_COORD97":2546721.3599999999,"ADDRESS":"府安路六段４５巷２５號","OBJECTID":266068},"geometry":{"x":166936.15000000224,"y":2546721.3600000013}},{"attributes":{"ID":266073,"DIS_CODE":0,"TOWNNAME":"安南區","LI":"幸福里","LIN":"14鄰","STREET":"府安路","SECT":"六段","MAREA":" ","LANE":"４５巷","ALLEY":" ","HOUSE_NO":"２６號","E_COORD97":166962.94,"N_COORD97":2546731.4700000002,"ADDRESS":"府安路六段４５巷２６號","OBJECTID":266069},"geometry":{"x":166962.94000000041,"y":2546731.4700000025}},{"attributes":{"ID":266074,"DIS_CODE":0,"TOWNNAME":"安南區","LI":"幸福里","LIN":"14鄰","STREET":"府安路","SECT":"六段","MAREA":" ","LANE":"４５巷","ALLEY":" ","HOUSE_NO":"２７號","E_COORD97":166934.84,"N_COORD97":2546726.46,"ADDRESS":"府安路六段４５巷２７號","OBJECTID":266070},"geometry":{"x":166934.84000000078,"y":2546726.4600000009}},{"attributes":{"ID":266075,"DIS_CODE":0,"TOWNNAME":"安南區","LI":"幸福里","LIN":"14鄰","STREET":"府安路","SECT":"六段","MAREA":" ","LANE":"４５巷","ALLEY":" ","HOUSE_NO":"２號","E_COORD97":166974.51000000001,"N_COORD97":2546669.0800000001,"ADDRESS":"府安路六段４５巷２號","OBJECTID":266071},"geometry":{"x":166974.51000000071,"y":2546669.0800000019}},{"attributes":{"ID":266076,"DIS_CODE":0,"TOWNNAME":"安南區","LI":"幸福里","LIN":"14鄰","STREET":"府安路","SECT":"六段","MAREA":" ","LANE":"４５巷","ALLEY":" ","HOUSE_NO":"３１號","E_COORD97":166932.91,"N_COORD97":2546738.0299999998,"ADDRESS":"府安路六段４５巷３１號","OBJECTID":266072},"geometry":{"x":166932.91000000108,"y":2546738.0299999993}},{"attributes":{"ID":266077,"DIS_CODE":0,"TOWNNAME":"安南區","LI":"幸福里","LIN":"14鄰","STREET":"府安路","SECT":"六段","MAREA":" ","LANE":"４５巷","ALLEY":" ","HOUSE_NO":"３２號","E_COORD97":166959.26999999999,"N_COORD97":2546747.0600000001,"ADDRESS":"府安路六段４５巷３２號","OBJECTID":266073},"geometry":{"x":166959.26999999955,"y":2546747.0600000042}},{"attributes":{"ID":266078,"DIS_CODE":0,"TOWNNAME":"安南區","LI":"幸福里","LIN":"14鄰","STREET":"府安路","SECT":"六段","MAREA":" ","LANE":"４５巷","ALLEY":" ","HOUSE_NO":"３４號","E_COORD97":166958.17000000001,"N_COORD97":2546752.4500000002,"ADDRESS":"府安路六段４５巷３４號","OBJECTID":266074},"geometry":{"x":166958.17000000086,"y":2546752.4499999993}},{"attributes":{"ID":266079,"DIS_CODE":0,"TOWNNAME":"安南區","LI":"幸福里","LIN":"14鄰","STREET":"府安路","SECT":"六段","MAREA":" ","LANE":"４５巷","ALLEY":" ","HOUSE_NO":"３５號","E_COORD97":166932.19,"N_COORD97":2546747.6899999999,"ADDRESS":"府安路六段４５巷３５號","OBJECTID":266075},"geometry":{"x":166932.19000000041,"y":2546747.6899999995}},{"attributes":{"ID":266080,"DIS_CODE":0,"TOWNNAME":"永康區","LI":"埔園里","LIN":"34鄰","STREET":"龍中街","SECT":" ","MAREA":" ","LANE":" ","ALLEY":" ","HOUSE_NO":"６８３號","E_COORD97":174274.35999999999,"N_COORD97":2549002.6099999999,"ADDRESS":"龍中街６８３號","OBJECTID":266076},"geometry":{"x":174274.36000000034,"y":2549002.6099999994}},{"attributes":{"ID":266081,"DIS_CODE":0,"TOWNNAME":"白河區","LI":"汴頭里","LIN":"8鄰","STREET":" ","SECT":" ","MAREA":"內枋林","LANE":" ","ALLEY":" ","HOUSE_NO":"８號","E_COORD97":194124.57999999999,"N_COORD97":2585022.29,"ADDRESS":"內枋林８號","OBJECTID":266077},"geometry":{"x":194124.58000000101,"y":2585022.290000001}},{"attributes":{"ID":266082,"DIS_CODE":0,"TOWNNAME":"楠西區","LI":"龜丹里","LIN":"3鄰","STREET":" ","SECT":" ","MAREA":"龜丹","LANE":" ","ALLEY":" ","HOUSE_NO":"３９號之３","E_COORD97":198139.87,"N_COORD97":2559309.2999999998,"ADDRESS":"龜丹３９號之３","OBJECTID":266078},"geometry":{"x":198139.87000000104,"y":2559309.3000000007}},{"attributes":{"ID":266083,"DIS_CODE":0,"TOWNNAME":"安南區","LI":"幸福里","LIN":"14鄰","STREET":"府安路","SECT":"六段","MAREA":" ","LANE":"４５巷","ALLEY":" ","HOUSE_NO":"３６號","E_COORD97":166957.26000000001,"N_COORD97":2546758.2400000002,"ADDRESS":"府安路六段４５巷３６號","OBJECTID":266079},"geometry":{"x":166957.26000000071,"y":2546758.2400000002}},{"attributes":{"ID":266084,"DIS_CODE":0,"TOWNNAME":"楠西區","LI":"龜丹里","LIN":"3鄰","STREET":" ","SECT":" ","MAREA":"龜丹","LANE":" ","ALLEY":" ","HOUSE_NO":"３９號之６","E_COORD97":198136.57999999999,"N_COORD97":2559339.2999999998,"ADDRESS":"龜丹３９號之６","OBJECTID":266080},"geometry":{"x":198136.58000000101,"y":2559339.3000000007}},{"attributes":{"ID":266085,"DIS_CODE":0,"TOWNNAME":"楠西區","LI":"灣丘里","LIN":"3鄰","STREET":" ","SECT":" ","MAREA":"灣丘","LANE":" ","ALLEY":" ","HOUSE_NO":"３０號","E_COORD97":199938.57000000001,"N_COORD97":2563979.25,"ADDRESS":"灣丘３０號","OBJECTID":266081},"geometry":{"x":199938.57000000216,"y":2563979.2500000019}},{"attributes":{"ID":266086,"DIS_CODE":0,"TOWNNAME":"楠西區","LI":"龜丹里","LIN":"3鄰","STREET":" ","SECT":" ","MAREA":"龜丹","LANE":" ","ALLEY":" ","HOUSE_NO":"３９號之９","E_COORD97":198192.95999999999,"N_COORD97":2559297.2999999998,"ADDRESS":"龜丹３９號之９","OBJECTID":266082},"geometry":{"x":198192.96000000183,"y":2559297.3000000026}},{"attributes":{"ID":266087,"DIS_CODE":0,"TOWNNAME":"安南區","LI":"幸福里","LIN":"14鄰","STREET":"府安路","SECT":"六段","MAREA":" ","LANE":"４５巷","ALLEY":" ","HOUSE_NO":"３７號","E_COORD97":166930.73999999999,"N_COORD97":2546752.6499999999,"ADDRESS":"府安路六段４５巷３７號","OBJECTID":266083},"geometry":{"x":166930.74000000115,"y":2546752.6499999985}},{"attributes":{"ID":266088,"DIS_CODE":0,"TOWNNAME":"安南區","LI":"幸福里","LIN":"14鄰","STREET":"府安路","SECT":"六段","MAREA":" ","LANE":"４５巷","ALLEY":" ","HOUSE_NO":"３９號","E_COORD97":166929.38,"N_COORD97":2546758.3399999999,"ADDRESS":"府安路六段４５巷３９號","OBJECTID":266084},"geometry":{"x":166929.38000000082,"y":2546758.3400000017}},{"attributes":{"ID":266089,"DIS_CODE":0,"TOWNNAME":"安南區","LI":"海南里","LIN":"14鄰","STREET":"府安路","SECT":"七段","MAREA":" ","LANE":"６６巷","ALLEY":" ","HOUSE_NO":"１１號","E_COORD97":165883.85000000001,"N_COORD97":2545925.3700000001,"ADDRESS":"府安路七段６６巷１１號","OBJECTID":266085},"geometry":{"x":165883.85000000056,"y":2545925.3700000029}},{"attributes":{"ID":266090,"DIS_CODE":0,"TOWNNAME":"中西區","LI":"永華里","LIN":"14鄰","STREET":"府中街","SECT":" ","MAREA":" ","LANE":"９８巷","ALLEY":" ","HOUSE_NO":"１０號","E_COORD97":168601.44,"N_COORD97":2543440.5800000001,"ADDRESS":"府中街９８巷１０號","OBJECTID":266086},"geometry":{"x":168601.44000000134,"y":2543440.5800000038}},{"attributes":{"ID":266091,"DIS_CODE":0,"TOWNNAME":"中西區","LI":"永華里","LIN":"14鄰","STREET":"府中街","SECT":" ","MAREA":" ","LANE":"９８巷","ALLEY":" ","HOUSE_NO":"１６號","E_COORD97":168607.53,"N_COORD97":2543447.9199999999,"ADDRESS":"府中街９８巷１６號","OBJECTID":266087},"geometry":{"x":168607.53000000026,"y":2543447.9199999999}},{"attributes":{"ID":266092,"DIS_CODE":0,"TOWNNAME":"楠西區","LI":"龜丹里","LIN":"3鄰","STREET":" ","SECT":" ","MAREA":"龜丹","LANE":" ","ALLEY":" ","HOUSE_NO":"３２號","E_COORD97":198066.34,"N_COORD97":2559201.25,"ADDRESS":"龜丹３２號","OBJECTID":266088},"geometry":{"x":198066.33999999985,"y":2559201.2500000037}},{"attributes":{"ID":266093,"DIS_CODE":0,"TOWNNAME":"楠西區","LI":"照興里","LIN":"3鄰","STREET":" ","SECT":" ","MAREA":"興北","LANE":" ","ALLEY":" ","HOUSE_NO":"３３號","E_COORD97":195571.57000000001,"N_COORD97":2563246.25,"ADDRESS":"興北３３號","OBJECTID":266089},"geometry":{"x":195571.5700000003,"y":2563246.2500000037}},{"attributes":{"ID":266094,"DIS_CODE":0,"TOWNNAME":"楠西區","LI":"龜丹里","LIN":"3鄰","STREET":" ","SECT":" ","MAREA":"龜丹","LANE":" ","ALLEY":" ","HOUSE_NO":"３５號","E_COORD97":198059.73999999999,"N_COORD97":2559178.25,"ADDRESS":"龜丹３５號","OBJECTID":266090},"geometry":{"x":198059.74000000115,"y":2559178.2500000019}},{"attributes":{"ID":266095,"DIS_CODE":0,"TOWNNAME":"楠西區","LI":"龜丹里","LIN":"3鄰","STREET":" ","SECT":" ","MAREA":"龜丹","LANE":" ","ALLEY":" ","HOUSE_NO":"３７號","E_COORD97":198157.94,"N_COORD97":2559185.25,"ADDRESS":"龜丹３７號","OBJECTID":266091},"geometry":{"x":198157.94000000227,"y":2559185.2500000019}},{"attributes":{"ID":266096,"DIS_CODE":0,"TOWNNAME":"楠西區","LI":"灣丘里","LIN":"3鄰","STREET":" ","SECT":" ","MAREA":"灣丘","LANE":" ","ALLEY":" ","HOUSE_NO":"２８號之６","E_COORD97":199890.10999999999,"N_COORD97":2564000.2999999998,"ADDRESS":"灣丘２８號之６","OBJECTID":266092},"geometry":{"x":199890.11000000034,"y":2564000.3000000026}},{"attributes":{"ID":266097,"DIS_CODE":0,"TOWNNAME":"楠西區","LI":"灣丘里","LIN":"3鄰","STREET":" ","SECT":" ","MAREA":"灣丘","LANE":" ","ALLEY":" ","HOUSE_NO":"２６號之１","E_COORD97":199653.60000000001,"N_COORD97":2564012.2999999998,"ADDRESS":"灣丘２６號之１","OBJECTID":266093},"geometry":{"x":199653.60000000056,"y":2564012.3000000007}},{"attributes":{"ID":266098,"DIS_CODE":0,"TOWNNAME":"楠西區","LI":"灣丘里","LIN":"3鄰","STREET":" ","SECT":" ","MAREA":"灣丘","LANE":" ","ALLEY":" ","HOUSE_NO":"２８號之２","E_COORD97":199862.64000000001,"N_COORD97":2563998.2999999998,"ADDRESS":"灣丘２８號之２","OBJECTID":266094},"geometry":{"x":199862.63999999966,"y":2563998.3000000007}},{"attributes":{"ID":266099,"DIS_CODE":0,"TOWNNAME":"楠西區","LI":"灣丘里","LIN":"3鄰","STREET":" ","SECT":" ","MAREA":"灣丘","LANE":" ","ALLEY":" ","HOUSE_NO":"２６號","E_COORD97":199648.57000000001,"N_COORD97":2564046.25,"ADDRESS":"灣丘２６號","OBJECTID":266095},"geometry":{"x":199648.5700000003,"y":2564046.2500000037}},{"attributes":{"ID":266100,"DIS_CODE":0,"TOWNNAME":"仁德區","LI":"後壁里","LIN":"14鄰","STREET":"德南路","SECT":" ","MAREA":" ","LANE":"１３７巷","ALLEY":" ","HOUSE_NO":"３５號","E_COORD97":173578.84,"N_COORD97":2538699.0099999998,"ADDRESS":"德南路１３７巷３５號","OBJECTID":266096},"geometry":{"x":173578.83999999985,"y":2538699.0100000016}},{"attributes":{"ID":266101,"DIS_CODE":0,"TOWNNAME":"楠西區","LI":"灣丘里","LIN":"3鄰","STREET":" ","SECT":" ","MAREA":"灣丘","LANE":" ","ALLEY":" ","HOUSE_NO":"３２號","E_COORD97":199989.87,"N_COORD97":2563939.25,"ADDRESS":"灣丘３２號","OBJECTID":266097},"geometry":{"x":199989.87000000011,"y":2563939.2500000019}},{"attributes":{"ID":266102,"DIS_CODE":0,"TOWNNAME":"楠西區","LI":"龜丹里","LIN":"3鄰","STREET":" ","SECT":" ","MAREA":"龜丹","LANE":" ","ALLEY":" ","HOUSE_NO":"３６號","E_COORD97":198068.84,"N_COORD97":2559150.25,"ADDRESS":"龜丹３６號","OBJECTID":266098},"geometry":{"x":198068.84000000078,"y":2559150.2499999981}},{"attributes":{"ID":266103,"DIS_CODE":0,"TOWNNAME":"楠西區","LI":"灣丘里","LIN":"3鄰","STREET":" ","SECT":" ","MAREA":"灣丘","LANE":" ","ALLEY":" ","HOUSE_NO":"２８號之１","E_COORD97":199868.60000000001,"N_COORD97":2563993.2999999998,"ADDRESS":"灣丘２８號之１","OBJECTID":266099},"geometry":{"x":199868.60000000056,"y":2563993.3000000026}},{"attributes":{"ID":266104,"DIS_CODE":0,"TOWNNAME":"柳營區","LI":"八翁里","LIN":"3鄰","STREET":" ","SECT":" ","MAREA":"八老爺","LANE":" ","ALLEY":" ","HOUSE_NO":"２３號","E_COORD97":178213.37,"N_COORD97":2574889.04,"ADDRESS":"八老爺２３號","OBJECTID":266100},"geometry":{"x":178213.37000000104,"y":2574889.0400000028}},{"attributes":{"ID":266105,"DIS_CODE":0,"TOWNNAME":"楠西區","LI":"龜丹里","LIN":"3鄰","STREET":" ","SECT":" ","MAREA":"龜丹","LANE":" ","ALLEY":" ","HOUSE_NO":"３８號","E_COORD97":198205.34,"N_COORD97":2559178.25,"ADDRESS":"龜丹３８號","OBJECTID":266101},"geometry":{"x":198205.33999999985,"y":2559178.2500000019}},{"attributes":{"ID":266106,"DIS_CODE":0,"TOWNNAME":"仁德區","LI":"後壁里","LIN":"14鄰","STREET":"德南路","SECT":" ","MAREA":" ","LANE":"１３７巷","ALLEY":" ","HOUSE_NO":"２７號","E_COORD97":173592.73000000001,"N_COORD97":2538677.77,"ADDRESS":"德南路１３７巷２７號","OBJECTID":266102},"geometry":{"x":173592.73000000231,"y":2538677.7699999996}},{"attributes":{"ID":266107,"DIS_CODE":0,"TOWNNAME":"仁德區","LI":"後壁里","LIN":"14鄰","STREET":"德善路","SECT":" ","MAREA":" ","LANE":"１９８巷","ALLEY":" ","HOUSE_NO":"２之８號","E_COORD97":173689.39999999999,"N_COORD97":2538738.79,"ADDRESS":"德善路１９８巷２之８號","OBJECTID":266103},"geometry":{"x":173689.40000000037,"y":2538738.7899999991}},{"attributes":{"ID":266108,"DIS_CODE":0,"TOWNNAME":"仁德區","LI":"後壁里","LIN":"14鄰","STREET":"德善路","SECT":" ","MAREA":" ","LANE":"１９８巷","ALLEY":" ","HOUSE_NO":"２之１號","E_COORD97":173714.79000000001,"N_COORD97":2538724.54,"ADDRESS":"德善路１９８巷２之１號","OBJECTID":266104},"geometry":{"x":173714.79000000097,"y":2538724.540000001}},{"attributes":{"ID":266109,"DIS_CODE":0,"TOWNNAME":"仁德區","LI":"成功里","LIN":"14鄰","STREET":"全福路","SECT":" ","MAREA":" ","LANE":"７５巷","ALLEY":" ","HOUSE_NO":"１號","E_COORD97":171019.76000000001,"N_COORD97":2539318.2400000002,"ADDRESS":"全福路７５巷１號","OBJECTID":266105},"geometry":{"x":171019.75999999978,"y":2539318.2400000021}},{"attributes":{"ID":266110,"DIS_CODE":0,"TOWNNAME":"仁德區","LI":"後壁里","LIN":"14鄰","STREET":"德善路","SECT":" ","MAREA":" ","LANE":"１９８巷","ALLEY":" ","HOUSE_NO":"１２之５號","E_COORD97":173668.19,"N_COORD97":2538683.9399999999,"ADDRESS":"德善路１９８巷１２之５號","OBJECTID":266106},"geometry":{"x":173668.19000000134,"y":2538683.9399999995}},{"attributes":{"ID":266111,"DIS_CODE":0,"TOWNNAME":"仁德區","LI":"後壁里","LIN":"14鄰","STREET":"德南路","SECT":" ","MAREA":" ","LANE":"１３７巷","ALLEY":" ","HOUSE_NO":"２９號","E_COORD97":173595.51999999999,"N_COORD97":2538680.77,"ADDRESS":"德南路１３７巷２９號","OBJECTID":266107},"geometry":{"x":173595.52000000048,"y":2538680.7699999996}},{"attributes":{"ID":266112,"DIS_CODE":0,"TOWNNAME":"仁德區","LI":"太子里","LIN":"14鄰","STREET":"長興路","SECT":" ","MAREA":" ","LANE":"８７巷","ALLEY":" ","HOUSE_NO":"２９之１號","E_COORD97":173997.09,"N_COORD97":2543742.2999999998,"ADDRESS":"長興路８７巷２９之１號","OBJECTID":266108},"geometry":{"x":173997.09000000078,"y":2543742.3000000026}},{"attributes":{"ID":266113,"DIS_CODE":0,"TOWNNAME":"柳營區","LI":"士林里","LIN":"3鄰","STREET":"士林街","SECT":" ","MAREA":" ","LANE":" ","ALLEY":" ","HOUSE_NO":"３０號","E_COORD97":179299.17000000001,"N_COORD97":2575149.3999999999,"ADDRESS":"士林街３０號","OBJECTID":266109},"geometry":{"x":179299.17000000086,"y":2575149.4000000022}},{"attributes":{"ID":266114,"DIS_CODE":0,"TOWNNAME":"柳營區","LI":"士林里","LIN":"3鄰","STREET":"士林街","SECT":" ","MAREA":" ","LANE":" ","ALLEY":" ","HOUSE_NO":"３８號","E_COORD97":179286.88,"N_COORD97":2575165.3799999999,"ADDRESS":"士林街３８號","OBJECTID":266110},"geometry":{"x":179286.87999999896,"y":2575165.3800000008}},{"attributes":{"ID":266115,"DIS_CODE":0,"TOWNNAME":"柳營區","LI":"士林里","LIN":"3鄰","STREET":"士林街","SECT":" ","MAREA":" ","LANE":" ","ALLEY":" ","HOUSE_NO":"５２號","E_COORD97":179274.88,"N_COORD97":2575181.1899999999,"ADDRESS":"士林街５２號","OBJECTID":266111},"geometry":{"x":179274.87999999989,"y":2575181.1900000013}},{"attributes":{"ID":266116,"DIS_CODE":0,"TOWNNAME":"柳營區","LI":"士林里","LIN":"3鄰","STREET":"士賢街","SECT":" ","MAREA":" ","LANE":" ","ALLEY":" ","HOUSE_NO":"７３號","E_COORD97":179305.45000000001,"N_COORD97":2575226.1000000001,"ADDRESS":"士賢街７３號","OBJECTID":266112},"geometry":{"x":179305.45000000205,"y":2575226.1000000015}},{"attributes":{"ID":266117,"DIS_CODE":0,"TOWNNAME":"柳營區","LI":"士林里","LIN":"3鄰","STREET":"士賢街","SECT":" ","MAREA":" ","LANE":" ","ALLEY":" ","HOUSE_NO":"８９號","E_COORD97":179283.73999999999,"N_COORD97":2575226.7200000002,"ADDRESS":"士賢街８９號","OBJECTID":266113},"geometry":{"x":179283.74000000115,"y":2575226.7200000025}},{"attributes":{"ID":266118,"DIS_CODE":0,"TOWNNAME":"南區","LI":"文南里","LIN":"18鄰","STREET":"中華西路","SECT":"一段","MAREA":" ","LANE":" ","ALLEY":" ","HOUSE_NO":"３０８之１號","E_COORD97":166582.12,"N_COORD97":2542618.3199999998,"ADDRESS":"中華西路一段３０８之１號","OBJECTID":266114},"geometry":{"x":166582.12000000104,"y":2542618.3200000003}},{"attributes":{"ID":266119,"DIS_CODE":0,"TOWNNAME":"南區","LI":"田寮里","LIN":"26鄰","STREET":"大成路","SECT":"二段","MAREA":" ","LANE":" ","ALLEY":" ","HOUSE_NO":"１４２號","E_COORD97":167343.17999999999,"N_COORD97":2541754.7400000002,"ADDRESS":"大成路二段１４２號","OBJECTID":266115},"geometry":{"x":167343.1799999997,"y":2541754.7400000039}},{"attributes":{"ID":266120,"DIS_CODE":0,"TOWNNAME":"南區","LI":"文南里","LIN":"13鄰","STREET":"長南街","SECT":" ","MAREA":" ","LANE":" ","ALLEY":" ","HOUSE_NO":"５８號","E_COORD97":166889.73000000001,"N_COORD97":2542636.0600000001,"ADDRESS":"長南街５８號","OBJECTID":266116},"geometry":{"x":166889.73000000045,"y":2542636.0600000005}},{"attributes":{"ID":266121,"DIS_CODE":0,"TOWNNAME":"南區","LI":"文南里","LIN":"13鄰","STREET":"長南街","SECT":" ","MAREA":" ","LANE":" ","ALLEY":" ","HOUSE_NO":"６０號","E_COORD97":166884.48999999999,"N_COORD97":2542636.5299999998,"ADDRESS":"長南街６０號","OBJECTID":266117},"geometry":{"x":166884.48999999929,"y":2542636.5299999975}},{"attributes":{"ID":266122,"DIS_CODE":0,"TOWNNAME":"仁德區","LI":"太子里","LIN":"14鄰","STREET":"長興路","SECT":" ","MAREA":" ","LANE":"８７巷","ALLEY":" ","HOUSE_NO":"４６號","E_COORD97":173985.79000000001,"N_COORD97":2543793.25,"ADDRESS":"長興路８７巷４６號","OBJECTID":266118},"geometry":{"x":173985.79000000097,"y":2543793.2500000019}},{"attributes":{"ID":266123,"DIS_CODE":0,"TOWNNAME":"仁德區","LI":"後壁里","LIN":"14鄰","STREET":"德善路","SECT":" ","MAREA":" ","LANE":"１３４巷","ALLEY":" ","HOUSE_NO":"１號","E_COORD97":173556.37,"N_COORD97":2538804.2599999998,"ADDRESS":"德善路１３４巷１號","OBJECTID":266119},"geometry":{"x":173556.37000000104,"y":2538804.2599999979}},{"attributes":{"ID":266124,"DIS_CODE":0,"TOWNNAME":"仁德區","LI":"後壁里","LIN":"14鄰","STREET":"德善路","SECT":" ","MAREA":" ","LANE":"１０８巷","ALLEY":" ","HOUSE_NO":"３３號","E_COORD97":173554.20999999999,"N_COORD97":2538737.7599999998,"ADDRESS":"德善路１０８巷３３號","OBJECTID":266120},"geometry":{"x":173554.21000000089,"y":2538737.7600000016}},{"attributes":{"ID":266125,"DIS_CODE":0,"TOWNNAME":"永康區","LI":"北灣里","LIN":"14鄰","STREET":"大灣路","SECT":" ","MAREA":" ","LANE":"４４巷","ALLEY":" ","HOUSE_NO":"３２號","E_COORD97":175135.29000000001,"N_COORD97":2545900,"ADDRESS":"大灣路４４巷３２號","OBJECTID":266121},"geometry":{"x":175135.29000000097,"y":2545900.0000000019}},{"attributes":{"ID":266126,"DIS_CODE":0,"TOWNNAME":"永康區","LI":"北灣里","LIN":"14鄰","STREET":"大灣路","SECT":" ","MAREA":" ","LANE":"４４巷","ALLEY":" ","HOUSE_NO":"５２號","E_COORD97":175076.60999999999,"N_COORD97":2545901.29,"ADDRESS":"大灣路４４巷５２號","OBJECTID":266122},"geometry":{"x":175076.6099999994,"y":2545901.290000001}},{"attributes":{"ID":266127,"DIS_CODE":0,"TOWNNAME":"永康區","LI":"北灣里","LIN":"14鄰","STREET":"大灣七街","SECT":" ","MAREA":" ","LANE":"１１１巷","ALLEY":" ","HOUSE_NO":"８號","E_COORD97":175042.38,"N_COORD97":2545916.4900000002,"ADDRESS":"大灣七街１１１巷８號","OBJECTID":266123},"geometry":{"x":175042.38000000082,"y":2545916.4900000039}},{"attributes":{"ID":266128,"DIS_CODE":0,"TOWNNAME":"永康區","LI":"北灣里","LIN":"14鄰","STREET":"大灣七街","SECT":" ","MAREA":" ","LANE":"１１１巷","ALLEY":" ","HOUSE_NO":"１２號","E_COORD97":175036.38,"N_COORD97":2545917.9900000002,"ADDRESS":"大灣七街１１１巷１２號","OBJECTID":266124},"geometry":{"x":175036.37999999989,"y":2545917.9900000021}},{"attributes":{"ID":266129,"DIS_CODE":0,"TOWNNAME":"永康區","LI":"北灣里","LIN":"14鄰","STREET":"大灣七街","SECT":" ","MAREA":" ","LANE":"１１１巷","ALLEY":" ","HOUSE_NO":"２０號","E_COORD97":175019.66,"N_COORD97":2545926.7599999998,"ADDRESS":"大灣七街１１１巷２０號","OBJECTID":266125},"geometry":{"x":175019.66000000015,"y":2545926.7599999998}},{"attributes":{"ID":266130,"DIS_CODE":0,"TOWNNAME":"永康區","LI":"北灣里","LIN":"14鄰","STREET":"大灣路","SECT":" ","MAREA":" ","LANE":"４４巷","ALLEY":" ","HOUSE_NO":"２８號","E_COORD97":175171.17999999999,"N_COORD97":2545889,"ADDRESS":"大灣路４４巷２８號","OBJECTID":266126},"geometry":{"x":175171.18000000063,"y":2545889.0000000037}},{"attributes":{"ID":266131,"DIS_CODE":0,"TOWNNAME":"永康區","LI":"網寮里","LIN":"18鄰","STREET":"永二街","SECT":" ","MAREA":" ","LANE":" ","ALLEY":" ","HOUSE_NO":"１８３號","E_COORD97":173438.92000000001,"N_COORD97":2546350.6899999999,"ADDRESS":"永二街１８３號","OBJECTID":266127},"geometry":{"x":173438.92000000086,"y":2546350.6899999995}},{"attributes":{"ID":266132,"DIS_CODE":0,"TOWNNAME":"柳營區","LI":"八翁里","LIN":"3鄰","STREET":" ","SECT":" ","MAREA":"八老爺","LANE":" ","ALLEY":" ","HOUSE_NO":"２７號","E_COORD97":178150.76000000001,"N_COORD97":2574850.5600000001,"ADDRESS":"八老爺２７號","OBJECTID":266128},"geometry":{"x":178150.76000000071,"y":2574850.5600000024}},{"attributes":{"ID":266133,"DIS_CODE":0,"TOWNNAME":"柳營區","LI":"八翁里","LIN":"3鄰","STREET":" ","SECT":" ","MAREA":"八老爺","LANE":" ","ALLEY":" ","HOUSE_NO":"２２號","E_COORD97":178235.67000000001,"N_COORD97":2574877.6000000001,"ADDRESS":"八老爺２２號","OBJECTID":266129},"geometry":{"x":178235.67000000179,"y":2574877.5999999996}},{"attributes":{"ID":266134,"DIS_CODE":0,"TOWNNAME":"柳營區","LI":"八翁里","LIN":"3鄰","STREET":" ","SECT":" ","MAREA":"八老爺","LANE":" ","ALLEY":" ","HOUSE_NO":"２６之１號","E_COORD97":178177.97,"N_COORD97":2574880.2400000002,"ADDRESS":"八老爺２６之１號","OBJECTID":266130},"geometry":{"x":178177.97000000067,"y":2574880.2400000021}},{"attributes":{"ID":266135,"DIS_CODE":0,"TOWNNAME":"柳營區","LI":"八翁里","LIN":"3鄰","STREET":" ","SECT":" ","MAREA":"八老爺","LANE":" ","ALLEY":" ","HOUSE_NO":"２７號之１","E_COORD97":178140.79999999999,"N_COORD97":2574837.04,"ADDRESS":"八老爺２７號之１","OBJECTID":266131},"geometry":{"x":178140.79999999981,"y":2574837.0399999991}},{"attributes":{"ID":266136,"DIS_CODE":0,"TOWNNAME":"永康區","LI":"北灣里","LIN":"14鄰","STREET":"大灣路","SECT":" ","MAREA":" ","LANE":"４４巷","ALLEY":" ","HOUSE_NO":"１２號之１","E_COORD97":175240.69,"N_COORD97":2545904.0699999998,"ADDRESS":"大灣路４４巷１２號之１","OBJECTID":266132},"geometry":{"x":175240.69000000227,"y":2545904.0700000003}},{"attributes":{"ID":266137,"DIS_CODE":0,"TOWNNAME":"永康區","LI":"北灣里","LIN":"14鄰","STREET":"大灣路","SECT":" ","MAREA":" ","LANE":"４４巷","ALLEY":" ","HOUSE_NO":"３０號","E_COORD97":175150.87,"N_COORD97":2545896.25,"ADDRESS":"大灣路４４巷３０號","OBJECTID":266133},"geometry":{"x":175150.87000000011,"y":2545896.25}},{"attributes":{"ID":266138,"DIS_CODE":0,"TOWNNAME":"永康區","LI":"北灣里","LIN":"14鄰","STREET":"大灣路","SECT":" ","MAREA":" ","LANE":"４４巷","ALLEY":" ","HOUSE_NO":"５６號","E_COORD97":175078.37,"N_COORD97":2545932.6800000002,"ADDRESS":"大灣路４４巷５６號","OBJECTID":266134},"geometry":{"x":175078.37000000104,"y":2545932.6800000016}},{"attributes":{"ID":266139,"DIS_CODE":0,"TOWNNAME":"永康區","LI":"北灣里","LIN":"14鄰","STREET":"大灣七街","SECT":" ","MAREA":" ","LANE":"９３巷","ALLEY":" ","HOUSE_NO":"５號","E_COORD97":175048.34,"N_COORD97":2545786.0099999998,"ADDRESS":"大灣七街９３巷５號","OBJECTID":266135},"geometry":{"x":175048.34000000078,"y":2545786.0099999998}},{"attributes":{"ID":266140,"DIS_CODE":0,"TOWNNAME":"永康區","LI":"北灣里","LIN":"14鄰","STREET":"大灣路","SECT":" ","MAREA":" ","LANE":"４４巷","ALLEY":" ","HOUSE_NO":"１２號之２","E_COORD97":175247.48999999999,"N_COORD97":2545903.0699999998,"ADDRESS":"大灣路４４巷１２號之２","OBJECTID":266136},"geometry":{"x":175247.49000000115,"y":2545903.0700000022}},{"attributes":{"ID":266141,"DIS_CODE":0,"TOWNNAME":"永康區","LI":"北灣里","LIN":"14鄰","STREET":"大灣路","SECT":" ","MAREA":" ","LANE":"４４巷","ALLEY":" ","HOUSE_NO":"２６號","E_COORD97":175175.26999999999,"N_COORD97":2545882.9900000002,"ADDRESS":"大灣路４４巷２６號","OBJECTID":266137},"geometry":{"x":175175.27000000048,"y":2545882.9900000021}},{"attributes":{"ID":266142,"DIS_CODE":0,"TOWNNAME":"永康區","LI":"北灣里","LIN":"14鄰","STREET":"大灣七街","SECT":" ","MAREA":" ","LANE":"９３巷","ALLEY":" ","HOUSE_NO":"２０號","E_COORD97":175001.81,"N_COORD97":2545784.3199999998,"ADDRESS":"大灣七街９３巷２０號","OBJECTID":266138},"geometry":{"x":175001.81000000145,"y":2545784.3200000003}},{"attributes":{"ID":266143,"DIS_CODE":0,"TOWNNAME":"北區","LI":"國姓里","LIN":"13鄰","STREET":"西門路","SECT":"四段","MAREA":" ","LANE":"７０巷","ALLEY":" ","HOUSE_NO":"２０號","E_COORD97":168712.22,"N_COORD97":2545264.6400000001,"ADDRESS":"西門路四段７０巷２０號","OBJECTID":266139},"geometry":{"x":168712.22000000067,"y":2545264.6399999987}},{"attributes":{"ID":266144,"DIS_CODE":0,"TOWNNAME":"北區","LI":"國姓里","LIN":"13鄰","STREET":"西門路","SECT":"四段","MAREA":" ","LANE":"７０巷","ALLEY":" ","HOUSE_NO":"２２號","E_COORD97":168714.17000000001,"N_COORD97":2545259.6499999999,"ADDRESS":"西門路四段７０巷２２號","OBJECTID":266140},"geometry":{"x":168714.17000000086,"y":2545259.6500000004}},{"attributes":{"ID":266145,"DIS_CODE":0,"TOWNNAME":"永康區","LI":"東橋里","LIN":"14鄰","STREET":"東橋三路","SECT":" ","MAREA":" ","LANE":"１２９巷","ALLEY":" ","HOUSE_NO":"２２號","E_COORD97":171444.51999999999,"N_COORD97":2546730.0099999998,"ADDRESS":"東橋三路１２９巷２２號","OBJECTID":266141},"geometry":{"x":171444.52000000048,"y":2546730.0100000016}},{"attributes":{"ID":266146,"DIS_CODE":0,"TOWNNAME":"永康區","LI":"東橋里","LIN":"14鄰","STREET":"東橋三路","SECT":" ","MAREA":" ","LANE":"１２９巷","ALLEY":" ","HOUSE_NO":"１９號","E_COORD97":171452.28,"N_COORD97":2546707.5099999998,"ADDRESS":"東橋三路１２９巷１９號","OBJECTID":266142},"geometry":{"x":171452.28000000026,"y":2546707.5099999998}},{"attributes":{"ID":266147,"DIS_CODE":0,"TOWNNAME":"安南區","LI":"溪頂里","LIN":"14鄰","STREET":"惠安街","SECT":" ","MAREA":" ","LANE":"１６１巷","ALLEY":" ","HOUSE_NO":"４５號","E_COORD97":168930.13,"N_COORD97":2547350.79,"ADDRESS":"惠安街１６１巷４５號","OBJECTID":266143},"geometry":{"x":168930.13000000082,"y":2547350.7900000028}},{"attributes":{"ID":266148,"DIS_CODE":0,"TOWNNAME":"安南區","LI":"溪頂里","LIN":"14鄰","STREET":"惠安街","SECT":" ","MAREA":" ","LANE":"１６１巷","ALLEY":" ","HOUSE_NO":"３號","E_COORD97":168750.95000000001,"N_COORD97":2547349.4100000001,"ADDRESS":"惠安街１６１巷３號","OBJECTID":266144},"geometry":{"x":168750.95000000019,"y":2547349.4100000001}},{"attributes":{"ID":266149,"DIS_CODE":0,"TOWNNAME":"安南區","LI":"溪頂里","LIN":"14鄰","STREET":"惠安街","SECT":" ","MAREA":" ","LANE":"１６１巷","ALLEY":" ","HOUSE_NO":"４０號","E_COORD97":168868.20000000001,"N_COORD97":2547334.5499999998,"ADDRESS":"惠安街１６１巷４０號","OBJECTID":266145},"geometry":{"x":168868.20000000205,"y":2547334.5500000026}},{"attributes":{"ID":266150,"DIS_CODE":0,"TOWNNAME":"永康區","LI":"西橋里","LIN":"14鄰","STREET":"大橋一街","SECT":" ","MAREA":" ","LANE":"３１巷","ALLEY":" ","HOUSE_NO":"２６號","E_COORD97":170592.20999999999,"N_COORD97":2546308.25,"ADDRESS":"大橋一街３１巷２６號","OBJECTID":266146},"geometry":{"x":170592.21000000089,"y":2546308.2500000019}},{"attributes":{"ID":266151,"DIS_CODE":0,"TOWNNAME":"東區","LI":"仁和里","LIN":"14鄰","STREET":"仁和路","SECT":" ","MAREA":" ","LANE":"１３９巷","ALLEY":" ","HOUSE_NO":"７３號","E_COORD97":171798.28,"N_COORD97":2541064.4500000002,"ADDRESS":"仁和路１３９巷７３號","OBJECTID":266147},"geometry":{"x":171798.28000000026,"y":2541064.4500000011}},{"attributes":{"ID":266152,"DIS_CODE":0,"TOWNNAME":"東區","LI":"仁和里","LIN":"14鄰","STREET":"仁和路","SECT":" ","MAREA":" ","LANE":"１３９巷","ALLEY":" ","HOUSE_NO":"７５號","E_COORD97":171803.5,"N_COORD97":2541062.71,"ADDRESS":"仁和路１３９巷７５號","OBJECTID":266148},"geometry":{"x":171803.5,"y":2541062.7100000009}},{"attributes":{"ID":266153,"DIS_CODE":0,"TOWNNAME":"東區","LI":"仁和里","LIN":"14鄰","STREET":"仁和路","SECT":" ","MAREA":" ","LANE":"１３９巷","ALLEY":" ","HOUSE_NO":"７７號","E_COORD97":171808.14000000001,"N_COORD97":2541060.7799999998,"ADDRESS":"仁和路１３９巷７７號","OBJECTID":266149},"geometry":{"x":171808.1400000006,"y":2541060.7799999993}},{"attributes":{"ID":266154,"DIS_CODE":0,"TOWNNAME":"永康區","LI":"正強里","LIN":"14鄰","STREET":"自強路","SECT":" ","MAREA":" ","LANE":"１８８巷","ALLEY":" ","HOUSE_NO":"４９號","E_COORD97":173227.32999999999,"N_COORD97":2547343.8399999999,"ADDRESS":"自強路１８８巷４９號","OBJECTID":266150},"geometry":{"x":173227.33000000194,"y":2547343.8399999999}},{"attributes":{"ID":266155,"DIS_CODE":0,"TOWNNAME":"永康區","LI":"二王里","LIN":"14鄰","STREET":"永二街","SECT":" ","MAREA":" ","LANE":"４５９巷","ALLEY":" ","HOUSE_NO":"２號","E_COORD97":172598.85999999999,"N_COORD97":2546657.0800000001,"ADDRESS":"永二街４５９巷２號","OBJECTID":266151},"geometry":{"x":172598.86000000127,"y":2546657.0800000001}},{"attributes":{"ID":266156,"DIS_CODE":0,"TOWNNAME":"永康區","LI":"永康里","LIN":"14鄰","STREET":"永中街","SECT":" ","MAREA":" ","LANE":"６０巷","ALLEY":" ","HOUSE_NO":"１０號","E_COORD97":173955.39000000001,"N_COORD97":2547122.2400000002,"ADDRESS":"永中街６０巷１０號","OBJECTID":266152},"geometry":{"x":173955.39000000153,"y":2547122.2400000021}},{"attributes":{"ID":266157,"DIS_CODE":0,"TOWNNAME":"永康區","LI":"西橋里","LIN":"14鄰","STREET":"大橋一街","SECT":" ","MAREA":" ","LANE":"３１巷","ALLEY":" ","HOUSE_NO":"１８號","E_COORD97":170577.79000000001,"N_COORD97":2546285.9900000002,"ADDRESS":"大橋一街３１巷１８號","OBJECTID":266153},"geometry":{"x":170577.78999999911,"y":2546285.9900000039}},{"attributes":{"ID":266158,"DIS_CODE":0,"TOWNNAME":"永康區","LI":"北灣里","LIN":"14鄰","STREET":"大灣路","SECT":" ","MAREA":" ","LANE":"４０巷","ALLEY":" ","HOUSE_NO":"８１號","E_COORD97":175063.59,"N_COORD97":2546050.21,"ADDRESS":"大灣路４０巷８１號","OBJECTID":266154},"geometry":{"x":175063.59000000078,"y":2546050.2100000009}},{"attributes":{"ID":266159,"DIS_CODE":0,"TOWNNAME":"安南區","LI":"溪頂里","LIN":"14鄰","STREET":"惠安街","SECT":" ","MAREA":" ","LANE":"１６１巷","ALLEY":" ","HOUSE_NO":"４９號","E_COORD97":168947.59,"N_COORD97":2547351.29,"ADDRESS":"惠安街１６１巷４９號","OBJECTID":266155},"geometry":{"x":168947.58999999985,"y":2547351.290000001}},{"attributes":{"ID":266160,"DIS_CODE":0,"TOWNNAME":"安南區","LI":"溪頂里","LIN":"14鄰","STREET":"惠安街","SECT":" ","MAREA":" ","LANE":"１６１巷","ALLEY":" ","HOUSE_NO":"４號","E_COORD97":168752.92999999999,"N_COORD97":2547333.4900000002,"ADDRESS":"惠安街１６１巷４號","OBJECTID":266156},"geometry":{"x":168752.93000000063,"y":2547333.4900000039}},{"attributes":{"ID":266161,"DIS_CODE":0,"TOWNNAME":"安南區","LI":"溪頂里","LIN":"14鄰","STREET":"惠安街","SECT":" ","MAREA":" ","LANE":"１６１巷","ALLEY":" ","HOUSE_NO":"５０號","E_COORD97":168910.94,"N_COORD97":2547335.6400000001,"ADDRESS":"惠安街１６１巷５０號","OBJECTID":266157},"geometry":{"x":168910.94000000227,"y":2547335.6400000006}},{"attributes":{"ID":266162,"DIS_CODE":0,"TOWNNAME":"安南區","LI":"溪頂里","LIN":"14鄰","STREET":"惠安街","SECT":" ","MAREA":" ","LANE":"１６１巷","ALLEY":" ","HOUSE_NO":"５１號","E_COORD97":168955.85999999999,"N_COORD97":2547351.29,"ADDRESS":"惠安街１６１巷５１號","OBJECTID":266158},"geometry":{"x":168955.86000000127,"y":2547351.290000001}},{"attributes":{"ID":266163,"DIS_CODE":0,"TOWNNAME":"安南區","LI":"溪頂里","LIN":"14鄰","STREET":"惠安街","SECT":" ","MAREA":" ","LANE":"１６１巷","ALLEY":" ","HOUSE_NO":"５３號","E_COORD97":168964.13,"N_COORD97":2547351.6200000001,"ADDRESS":"惠安街１６１巷５３號","OBJECTID":266159},"geometry":{"x":168964.12999999989,"y":2547351.6200000029}},{"attributes":{"ID":266164,"DIS_CODE":0,"TOWNNAME":"安南區","LI":"溪頂里","LIN":"14鄰","STREET":"惠安街","SECT":" ","MAREA":" ","LANE":"１６１巷","ALLEY":" ","HOUSE_NO":"５５號","E_COORD97":168972.89999999999,"N_COORD97":2547352.4500000002,"ADDRESS":"惠安街１６１巷５５號","OBJECTID":266160},"geometry":{"x":168972.9000000013,"y":2547352.4499999993}},{"attributes":{"ID":266165,"DIS_CODE":0,"TOWNNAME":"安南區","LI":"溪頂里","LIN":"14鄰","STREET":"惠安街","SECT":" ","MAREA":" ","LANE":"１６１巷","ALLEY":" ","HOUSE_NO":"５７號","E_COORD97":168981.01000000001,"N_COORD97":2547351.9500000002,"ADDRESS":"惠安街１６１巷５７號","OBJECTID":266161},"geometry":{"x":168981.01000000164,"y":2547351.9499999993}},{"attributes":{"ID":266166,"DIS_CODE":0,"TOWNNAME":"安南區","LI":"溪頂里","LIN":"14鄰","STREET":"惠安街","SECT":" ","MAREA":" ","LANE":"１６１巷","ALLEY":" ","HOUSE_NO":"５９號","E_COORD97":168989.94,"N_COORD97":2547352.2799999998,"ADDRESS":"惠安街１６１巷５９號","OBJECTID":266162},"geometry":{"x":168989.94000000041,"y":2547352.2800000012}},{"attributes":{"ID":266167,"DIS_CODE":0,"TOWNNAME":"仁德區","LI":"仁義里","LIN":"1鄰","STREET":"義林五街","SECT":" ","MAREA":" ","LANE":" ","ALLEY":" ","HOUSE_NO":"１０７號","E_COORD97":174159.5294,"N_COORD97":2541031.1907199998,"ADDRESS":"義林五街１０７號","OBJECTID":266163},"geometry":{"x":174159.52940000128,"y":2541031.1907200012}},{"attributes":{"ID":266168,"DIS_CODE":0,"TOWNNAME":"安南區","LI":"溪頂里","LIN":"14鄰","STREET":"惠安街","SECT":" ","MAREA":" ","LANE":"１６１巷","ALLEY":" ","HOUSE_NO":"５號","E_COORD97":168759.39999999999,"N_COORD97":2547349.2799999998,"ADDRESS":"惠安街１６１巷５號","OBJECTID":266164},"geometry":{"x":168759.40000000037,"y":2547349.2800000012}},{"attributes":{"ID":266169,"DIS_CODE":0,"TOWNNAME":"安南區","LI":"溪頂里","LIN":"14鄰","STREET":"惠安街","SECT":" ","MAREA":" ","LANE":"１６１巷","ALLEY":" ","HOUSE_NO":"６１號","E_COORD97":168997.72,"N_COORD97":2547352.6099999999,"ADDRESS":"惠安街１６１巷６１號","OBJECTID":266165},"geometry":{"x":168997.71999999974,"y":2547352.6100000013}},{"attributes":{"ID":266170,"DIS_CODE":0,"TOWNNAME":"安南區","LI":"溪頂里","LIN":"14鄰","STREET":"惠安街","SECT":" ","MAREA":" ","LANE":"１６１巷","ALLEY":" ","HOUSE_NO":"６號","E_COORD97":168754.37,"N_COORD97":2547323.2999999998,"ADDRESS":"惠安街１６１巷６號","OBJECTID":266166},"geometry":{"x":168754.37000000011,"y":2547323.3000000026}},{"attributes":{"ID":266171,"DIS_CODE":0,"TOWNNAME":"安南區","LI":"溪頂里","LIN":"14鄰","STREET":"惠安街","SECT":" ","MAREA":" ","LANE":"１６１巷","ALLEY":" ","HOUSE_NO":"７號","E_COORD97":168767.98000000001,"N_COORD97":2547349.1600000001,"ADDRESS":"惠安街１６１巷７號","OBJECTID":266167},"geometry":{"x":168767.98000000045,"y":2547349.1600000039}},{"attributes":{"ID":266172,"DIS_CODE":0,"TOWNNAME":"安南區","LI":"溪頂里","LIN":"14鄰","STREET":"惠安街","SECT":" ","MAREA":" ","LANE":"１６１巷","ALLEY":" ","HOUSE_NO":"９號","E_COORD97":168776.69,"N_COORD97":2547348.7799999998,"ADDRESS":"惠安街１６１巷９號","OBJECTID":266168},"geometry":{"x":168776.69000000041,"y":2547348.7800000012}},{"attributes":{"ID":266173,"DIS_CODE":0,"TOWNNAME":"安南區","LI":"溪頂里","LIN":"14鄰","STREET":"惠安街","SECT":" ","MAREA":" ","LANE":"１６１巷","ALLEY":" ","HOUSE_NO":"４１號","E_COORD97":168913.09,"N_COORD97":2547349.4700000002,"ADDRESS":"惠安街１６１巷４１號","OBJECTID":266169},"geometry":{"x":168913.09000000078,"y":2547349.4700000007}},{"attributes":{"ID":266174,"DIS_CODE":0,"TOWNNAME":"安南區","LI":"安東里","LIN":"14鄰","STREET":"安和路","SECT":"一段","MAREA":" ","LANE":"２２０巷","ALLEY":" ","HOUSE_NO":"２號","E_COORD97":169368.22,"N_COORD97":2547911.25,"ADDRESS":"安和路一段２２０巷２號","OBJECTID":266170},"geometry":{"x":169368.22000000067,"y":2547911.2500000037}},{"attributes":{"ID":266175,"DIS_CODE":0,"TOWNNAME":"中西區","LI":"天后里","LIN":"14鄰","STREET":"赤嵌街","SECT":" ","MAREA":" ","LANE":"１５巷","ALLEY":" ","HOUSE_NO":"２號","E_COORD97":168200.89999999999,"N_COORD97":2544257.3700000001,"ADDRESS":"赤嵌街１５巷２號","OBJECTID":266171},"geometry":{"x":168200.90000000224,"y":2544257.3700000029}},{"attributes":{"ID":266176,"DIS_CODE":0,"TOWNNAME":"安南區","LI":"學東里","LIN":"14鄰","STREET":"公學路","SECT":"七段","MAREA":" ","LANE":"１１３巷","ALLEY":" ","HOUSE_NO":"１０號之１","E_COORD97":161687.95999999999,"N_COORD97":2553393.5899999999,"ADDRESS":"公學路七段１１３巷１０號之１","OBJECTID":266172},"geometry":{"x":161687.95999999996,"y":2553393.5899999999}},{"attributes":{"ID":266177,"DIS_CODE":0,"TOWNNAME":"中西區","LI":"銀同里","LIN":"14鄰","STREET":"開山路","SECT":" ","MAREA":" ","LANE":"３巷","ALLEY":" ","HOUSE_NO":"４９號","E_COORD97":168710.48000000001,"N_COORD97":2543604.0299999998,"ADDRESS":"開山路３巷４９號","OBJECTID":266173},"geometry":{"x":168710.47999999952,"y":2543604.0300000012}},{"attributes":{"ID":266178,"DIS_CODE":0,"TOWNNAME":"仁德區","LI":"後壁里","LIN":"14鄰","STREET":"德善路","SECT":" ","MAREA":" ","LANE":"１３４巷","ALLEY":" ","HOUSE_NO":"９號","E_COORD97":173572.70999999999,"N_COORD97":2538789.52,"ADDRESS":"德善路１３４巷９號","OBJECTID":266174},"geometry":{"x":173572.71000000089,"y":2538789.5200000014}},{"attributes":{"ID":266179,"DIS_CODE":0,"TOWNNAME":"中西區","LI":"銀同里","LIN":"14鄰","STREET":"開山路","SECT":" ","MAREA":" ","LANE":"３巷","ALLEY":" ","HOUSE_NO":"５１號","E_COORD97":168718.14000000001,"N_COORD97":2543602.79,"ADDRESS":"開山路３巷５１號","OBJECTID":266175},"geometry":{"x":168718.13999999966,"y":2543602.7899999991}},{"attributes":{"ID":266180,"DIS_CODE":0,"TOWNNAME":"中西區","LI":"天后里","LIN":"14鄰","STREET":"赤嵌街","SECT":" ","MAREA":" ","LANE":"１５巷","ALLEY":" ","HOUSE_NO":"１０號","E_COORD97":168182.26000000001,"N_COORD97":2544259.46,"ADDRESS":"赤嵌街１５巷１０號","OBJECTID":266176},"geometry":{"x":168182.25999999978,"y":2544259.4600000046}},{"attributes":{"ID":266181,"DIS_CODE":0,"TOWNNAME":"中西區","LI":"天后里","LIN":"14鄰","STREET":"赤嵌街","SECT":" ","MAREA":" ","LANE":"１５巷","ALLEY":" ","HOUSE_NO":"１２號","E_COORD97":168178.17999999999,"N_COORD97":2544261.9100000001,"ADDRESS":"赤嵌街１５巷１２號","OBJECTID":266177},"geometry":{"x":168178.18000000063,"y":2544261.9100000001}},{"attributes":{"ID":266182,"DIS_CODE":0,"TOWNNAME":"中西區","LI":"天后里","LIN":"14鄰","STREET":"赤嵌街","SECT":" ","MAREA":" ","LANE":"１５巷","ALLEY":" ","HOUSE_NO":"１４號","E_COORD97":168173.98999999999,"N_COORD97":2544263.8900000001,"ADDRESS":"赤嵌街１５巷１４號","OBJECTID":266178},"geometry":{"x":168173.99000000022,"y":2544263.8900000025}},{"attributes":{"ID":266183,"DIS_CODE":0,"TOWNNAME":"中西區","LI":"天后里","LIN":"14鄰","STREET":"赤嵌街","SECT":" ","MAREA":" ","LANE":"１５巷","ALLEY":" ","HOUSE_NO":"１６號","E_COORD97":168169.10000000001,"N_COORD97":2544265.6299999999,"ADDRESS":"赤嵌街１５巷１６號","OBJECTID":266179},"geometry":{"x":168169.09999999963,"y":2544265.629999999}},{"attributes":{"ID":266184,"DIS_CODE":0,"TOWNNAME":"中西區","LI":"進學里","LIN":"14鄰","STREET":"永福路","SECT":"一段","MAREA":" ","LANE":"１０２巷","ALLEY":" ","HOUSE_NO":"２５號","E_COORD97":168122.95999999999,"N_COORD97":2543235.7999999998,"ADDRESS":"永福路一段１０２巷２５號","OBJECTID":266180},"geometry":{"x":168122.95999999996,"y":2543235.8000000007}},{"attributes":{"ID":266185,"DIS_CODE":0,"TOWNNAME":"永康區","LI":"埔園里","LIN":"34鄰","STREET":"龍中街","SECT":" ","MAREA":" ","LANE":" ","ALLEY":" ","HOUSE_NO":"６８５號","E_COORD97":174274.23999999999,"N_COORD97":2549006.8599999999,"ADDRESS":"龍中街６８５號","OBJECTID":266181},"geometry":{"x":174274.24000000115,"y":2549006.8599999994}},{"attributes":{"ID":266186,"DIS_CODE":0,"TOWNNAME":"學甲區","LI":"平和里","LIN":"3鄰","STREET":" ","SECT":" ","MAREA":"學甲寮","LANE":" ","ALLEY":" ","HOUSE_NO":"１號之１","E_COORD97":169931.59,"N_COORD97":2573456.96,"ADDRESS":"學甲寮１號之１","OBJECTID":266182},"geometry":{"x":169931.59000000171,"y":2573456.9600000009}},{"attributes":{"ID":266187,"DIS_CODE":0,"TOWNNAME":"新營區","LI":"太南里","LIN":"3鄰","STREET":" ","SECT":" ","MAREA":"太子宮","LANE":" ","ALLEY":" ","HOUSE_NO":"１５７之１０號","E_COORD97":176274.16,"N_COORD97":2577072.5499999998,"ADDRESS":"太子宮１５７之１０號","OBJECTID":266183},"geometry":{"x":176274.16000000015,"y":2577072.5500000007}},{"attributes":{"ID":266188,"DIS_CODE":0,"TOWNNAME":"新營區","LI":"土庫里","LIN":"3鄰","STREET":" ","SECT":" ","MAREA":"土庫","LANE":" ","ALLEY":" ","HOUSE_NO":"２３之７號","E_COORD97":183152.60000000001,"N_COORD97":2579889.3599999999,"ADDRESS":"土庫２３之７號","OBJECTID":266184},"geometry":{"x":183152.60000000056,"y":2579889.3600000013}},{"attributes":{"ID":266189,"DIS_CODE":0,"TOWNNAME":"新營區","LI":"土庫里","LIN":"3鄰","STREET":" ","SECT":" ","MAREA":"土庫","LANE":" ","ALLEY":" ","HOUSE_NO":"２６號","E_COORD97":183194.04999999999,"N_COORD97":2579884.6899999999,"ADDRESS":"土庫２６號","OBJECTID":266185},"geometry":{"x":183194.04999999981,"y":2579884.6899999995}},{"attributes":{"ID":266190,"DIS_CODE":0,"TOWNNAME":"新營區","LI":"太南里","LIN":"3鄰","STREET":" ","SECT":" ","MAREA":"太子宮","LANE":" ","ALLEY":" ","HOUSE_NO":"１５７之９號","E_COORD97":176260.70000000001,"N_COORD97":2577083.6800000002,"ADDRESS":"太子宮１５７之９號","OBJECTID":266186},"geometry":{"x":176260.70000000019,"y":2577083.6800000016}},{"attributes":{"ID":266191,"DIS_CODE":0,"TOWNNAME":"新營區","LI":"太南里","LIN":"3鄰","STREET":" ","SECT":" ","MAREA":"太子宮","LANE":" ","ALLEY":" ","HOUSE_NO":"１５７之１１號","E_COORD97":176276.19,"N_COORD97":2577069.21,"ADDRESS":"太子宮１５７之１１號","OBJECTID":266187},"geometry":{"x":176276.19000000041,"y":2577069.2100000009}},{"attributes":{"ID":266192,"DIS_CODE":0,"TOWNNAME":"新營區","LI":"大宏里","LIN":"3鄰","STREET":"民族路","SECT":" ","MAREA":" ","LANE":" ","ALLEY":" ","HOUSE_NO":"４２號之４","E_COORD97":180289.78,"N_COORD97":2578777.3999999999,"ADDRESS":"民族路４２號之４","OBJECTID":266188},"geometry":{"x":180289.77999999933,"y":2578777.4000000022}},{"attributes":{"ID":266193,"DIS_CODE":0,"TOWNNAME":"東區","LI":"小東里","LIN":"7鄰","STREET":"光明街","SECT":" ","MAREA":" ","LANE":" ","ALLEY":" ","HOUSE_NO":"１９１號","E_COORD97":171002.95000000001,"N_COORD97":2544110.0600000001,"ADDRESS":"光明街１９１號","OBJECTID":266189},"geometry":{"x":171002.95000000112,"y":2544110.0600000024}},{"attributes":{"ID":266194,"DIS_CODE":0,"TOWNNAME":"東區","LI":"德高里","LIN":"16鄰","STREET":"城東街","SECT":" ","MAREA":" ","LANE":" ","ALLEY":" ","HOUSE_NO":"２２號","E_COORD97":171543.67000000001,"N_COORD97":2540669.5699999998,"ADDRESS":"城東街２２號","OBJECTID":266190},"geometry":{"x":171543.67000000086,"y":2540669.5700000003}},{"attributes":{"ID":266195,"DIS_CODE":0,"TOWNNAME":"新營區","LI":"太北里","LIN":"3鄰","STREET":" ","SECT":" ","MAREA":"太子宮","LANE":" ","ALLEY":" ","HOUSE_NO":"２３之５號","E_COORD97":176115.14999999999,"N_COORD97":2577262.6899999999,"ADDRESS":"太子宮２３之５號","OBJECTID":266191},"geometry":{"x":176115.15000000037,"y":2577262.6900000013}},{"attributes":{"ID":266196,"DIS_CODE":0,"TOWNNAME":"新營區","LI":"太南里","LIN":"3鄰","STREET":" ","SECT":" ","MAREA":"太子宮","LANE":" ","ALLEY":" ","HOUSE_NO":"１８４之１號","E_COORD97":176219.45999999999,"N_COORD97":2577018.54,"ADDRESS":"太子宮１８４之１號","OBJECTID":266192},"geometry":{"x":176219.45999999996,"y":2577018.540000001}},{"attributes":{"ID":266197,"DIS_CODE":0,"TOWNNAME":"新營區","LI":"太南里","LIN":"3鄰","STREET":" ","SECT":" ","MAREA":"太子宮","LANE":" ","ALLEY":" ","HOUSE_NO":"１５６之１號","E_COORD97":176280.98000000001,"N_COORD97":2577049.2400000002,"ADDRESS":"太子宮１５６之１號","OBJECTID":266193},"geometry":{"x":176280.98000000045,"y":2577049.2400000021}},{"attributes":{"ID":266198,"DIS_CODE":0,"TOWNNAME":"東區","LI":"德高里","LIN":"16鄰","STREET":"城東街","SECT":" ","MAREA":" ","LANE":" ","ALLEY":" ","HOUSE_NO":"２２之１號","E_COORD97":171546.39999999999,"N_COORD97":2540665.9199999999,"ADDRESS":"城東街２２之１號","OBJECTID":266194},"geometry":{"x":171546.40000000037,"y":2540665.9200000018}},{"attributes":{"ID":266199,"DIS_CODE":0,"TOWNNAME":"仁德區","LI":"仁和里","LIN":"15鄰","STREET":"和愛街","SECT":" ","MAREA":" ","LANE":" ","ALLEY":" ","HOUSE_NO":"２２號一樓之１","E_COORD97":170453.64999999999,"N_COORD97":2540084.0899999999,"ADDRESS":"和愛街２２號一樓之１","OBJECTID":266195},"geometry":{"x":170453.64999999944,"y":2540084.0900000036}},{"attributes":{"ID":266200,"DIS_CODE":0,"TOWNNAME":"東區","LI":"德高里","LIN":"16鄰","STREET":"城東街","SECT":" ","MAREA":" ","LANE":" ","ALLEY":" ","HOUSE_NO":"２２之２號","E_COORD97":171547.85999999999,"N_COORD97":2540661.9100000001,"ADDRESS":"城東街２２之２號","OBJECTID":266196},"geometry":{"x":171547.86000000127,"y":2540661.9100000039}},{"attributes":{"ID":266201,"DIS_CODE":0,"TOWNNAME":"新營區","LI":"民榮里","LIN":"14鄰","STREET":"復興路","SECT":" ","MAREA":" ","LANE":" ","ALLEY":" ","HOUSE_NO":"１５９之１６號","E_COORD97":178891.862127,"N_COORD97":2577949.6992799998,"ADDRESS":"復興路１５９之１６號","OBJECTID":266197},"geometry":{"x":178891.86212700047,"y":2577949.699275}},{"attributes":{"ID":266202,"DIS_CODE":0,"TOWNNAME":"中西區","LI":"福安里","LIN":"14鄰","STREET":"永福路","SECT":"二段","MAREA":" ","LANE":"３５巷","ALLEY":" ","HOUSE_NO":"５８號","E_COORD97":167948.98000000001,"N_COORD97":2543447.2799999998,"ADDRESS":"永福路二段３５巷５８號","OBJECTID":266198},"geometry":{"x":167948.98000000045,"y":2543447.2799999993}},{"attributes":{"ID":266203,"DIS_CODE":0,"TOWNNAME":"中西區","LI":"西湖里","LIN":"14鄰","STREET":"湖美一街","SECT":" ","MAREA":" ","LANE":"８６巷","ALLEY":" ","HOUSE_NO":"１１號","E_COORD97":166102.04999999999,"N_COORD97":2544726.4199999999,"ADDRESS":"湖美一街８６巷１１號","OBJECTID":266199},"geometry":{"x":166102.04999999981,"y":2544726.4200000037}},{"attributes":{"ID":266204,"DIS_CODE":0,"TOWNNAME":"中西區","LI":"西湖里","LIN":"14鄰","STREET":"湖美一街","SECT":" ","MAREA":" ","LANE":"８６巷","ALLEY":" ","HOUSE_NO":"１３號","E_COORD97":166109.34,"N_COORD97":2544726.7599999998,"ADDRESS":"湖美一街８６巷１３號","OBJECTID":266200},"geometry":{"x":166109.34000000078,"y":2544726.7599999998}}]}