{"displayFieldName":"TOWNNAME","fieldAliases":{"ID":"ID","DIS_CODE":"DIS_CODE","TOWNNAME":"TOWNNAME","LI":"LI","LIN":"LIN","STREET":"STREET","SECT":"SECT","MAREA":"MAREA","LANE":"LANE","ALLEY":"ALLEY","HOUSE_NO":"HOUSE_NO","E_COORD97":"E_COORD97","N_COORD97":"N_COORD97","ADDRESS":"ADDRESS","OBJECTID":"OBJECTID"},"geometryType":"esriGeometryPoint","spatialReference":{"wkid":102443,"latestWkid":3826},"fields":[{"name":"ID","type":"esriFieldTypeDouble","alias":"ID"},{"name":"DIS_CODE","type":"esriFieldTypeInteger","alias":"DIS_CODE"},{"name":"TOWNNAME","type":"esriFieldTypeString","alias":"TOWNNAME","length":8},{"name":"LI","type":"esriFieldTypeString","alias":"LI","length":8},{"name":"LIN","type":"esriFieldTypeString","alias":"LIN","length":12},{"name":"STREET","type":"esriFieldTypeString","alias":"STREET","length":20},{"name":"SECT","type":"esriFieldTypeString","alias":"SECT","length":8},{"name":"MAREA","type":"esriFieldTypeString","alias":"MAREA","length":12},{"name":"LANE","type":"esriFieldTypeString","alias":"LANE","length":10},{"name":"ALLEY","type":"esriFieldTypeString","alias":"ALLEY","length":10},{"name":"HOUSE_NO","type":"esriFieldTypeString","alias":"HOUSE_NO","length":20},{"name":"E_COORD97","type":"esriFieldTypeDouble","alias":"E_COORD97"},{"name":"N_COORD97","type":"esriFieldTypeDouble","alias":"N_COORD97"},{"name":"ADDRESS","type":"esriFieldTypeString","alias":"ADDRESS","length":50},{"name":"OBJECTID","type":"esriFieldTypeOID","alias":"OBJECTID"}],"features":[{"attributes":{"ID":370811,"DIS_CODE":0,"TOWNNAME":"安南區","LI":"溪北里","LIN":"12鄰","STREET":"文安街","SECT":" ","MAREA":" ","LANE":"４５巷","ALLEY":" ","HOUSE_NO":"３號","E_COORD97":169402.95999999999,"N_COORD97":2547482.5,"ADDRESS":"文安街４５巷３號","OBJECTID":370801},"geometry":{"x":169402.95999999996,"y":2547482.5000000037}},{"attributes":{"ID":370812,"DIS_CODE":0,"TOWNNAME":"安南區","LI":"州北里","LIN":"12鄰","STREET":"安和路","SECT":"五段","MAREA":" ","LANE":"１７１巷","ALLEY":" ","HOUSE_NO":"７４號之１","E_COORD97":169670.97,"N_COORD97":2551811.6299999999,"ADDRESS":"安和路五段１７１巷７４號之１","OBJECTID":370802},"geometry":{"x":169670.96999999881,"y":2551811.6300000008}},{"attributes":{"ID":370813,"DIS_CODE":0,"TOWNNAME":"安南區","LI":"安順里","LIN":"12鄰","STREET":"安和路","SECT":"三段","MAREA":" ","LANE":"１９０巷","ALLEY":" ","HOUSE_NO":"１８號","E_COORD97":169982.48000000001,"N_COORD97":2549778.8300000001,"ADDRESS":"安和路三段１９０巷１８號","OBJECTID":370803},"geometry":{"x":169982.48000000138,"y":2549778.8300000038}},{"attributes":{"ID":370814,"DIS_CODE":0,"TOWNNAME":"安南區","LI":"新順里","LIN":"12鄰","STREET":"安生街","SECT":" ","MAREA":" ","LANE":"１０巷","ALLEY":" ","HOUSE_NO":"４號","E_COORD97":169737.17999999999,"N_COORD97":2549486.1499999999,"ADDRESS":"安生街１０巷４號","OBJECTID":370804},"geometry":{"x":169737.1799999997,"y":2549486.1500000022}},{"attributes":{"ID":370815,"DIS_CODE":0,"TOWNNAME":"安南區","LI":"新順里","LIN":"12鄰","STREET":"安生街","SECT":" ","MAREA":" ","LANE":"１０巷","ALLEY":" ","HOUSE_NO":"６號","E_COORD97":169737.39000000001,"N_COORD97":2549490.2200000002,"ADDRESS":"安生街１０巷６號","OBJECTID":370805},"geometry":{"x":169737.38999999966,"y":2549490.2200000025}},{"attributes":{"ID":370816,"DIS_CODE":0,"TOWNNAME":"安南區","LI":"新順里","LIN":"12鄰","STREET":"安生街","SECT":" ","MAREA":" ","LANE":"１０巷","ALLEY":" ","HOUSE_NO":"７號","E_COORD97":169723.34,"N_COORD97":2549500.1899999999,"ADDRESS":"安生街１０巷７號","OBJECTID":370806},"geometry":{"x":169723.34000000078,"y":2549500.1899999995}},{"attributes":{"ID":370817,"DIS_CODE":0,"TOWNNAME":"安南區","LI":"新順里","LIN":"12鄰","STREET":"安生街","SECT":" ","MAREA":" ","LANE":"１０巷","ALLEY":" ","HOUSE_NO":"８號","E_COORD97":169738,"N_COORD97":2549494.8999999999,"ADDRESS":"安生街１０巷８號","OBJECTID":370807},"geometry":{"x":169738.00000000093,"y":2549494.9000000022}},{"attributes":{"ID":370818,"DIS_CODE":0,"TOWNNAME":"安南區","LI":"新順里","LIN":"12鄰","STREET":"安生街","SECT":" ","MAREA":" ","LANE":"１０巷","ALLEY":" ","HOUSE_NO":"９號","E_COORD97":169723.54000000001,"N_COORD97":2549504.46,"ADDRESS":"安生街１０巷９號","OBJECTID":370808},"geometry":{"x":169723.5400000019,"y":2549504.4600000046}},{"attributes":{"ID":370819,"DIS_CODE":0,"TOWNNAME":"安南區","LI":"新順里","LIN":"12鄰","STREET":"安和路","SECT":"三段","MAREA":" ","LANE":"７３巷","ALLEY":" ","HOUSE_NO":"１６號","E_COORD97":169745.97,"N_COORD97":2549528.6699999999,"ADDRESS":"安和路三段７３巷１６號","OBJECTID":370809},"geometry":{"x":169745.97000000067,"y":2549528.6699999999}},{"attributes":{"ID":370820,"DIS_CODE":0,"TOWNNAME":"安南區","LI":"新順里","LIN":"12鄰","STREET":"安和路","SECT":"三段","MAREA":" ","LANE":"７３巷","ALLEY":" ","HOUSE_NO":"１８號","E_COORD97":169742.66,"N_COORD97":2549530.0600000001,"ADDRESS":"安和路三段７３巷１８號","OBJECTID":370810},"geometry":{"x":169742.66000000015,"y":2549530.0600000005}},{"attributes":{"ID":370821,"DIS_CODE":0,"TOWNNAME":"安南區","LI":"新順里","LIN":"12鄰","STREET":"安和路","SECT":"三段","MAREA":" ","LANE":"７３巷","ALLEY":" ","HOUSE_NO":"２０號","E_COORD97":169738.47,"N_COORD97":2549531.46,"ADDRESS":"安和路三段７３巷２０號","OBJECTID":370811},"geometry":{"x":169738.46999999974,"y":2549531.4600000046}},{"attributes":{"ID":370822,"DIS_CODE":0,"TOWNNAME":"安南區","LI":"新順里","LIN":"12鄰","STREET":"安和路","SECT":"三段","MAREA":" ","LANE":"７３巷","ALLEY":" ","HOUSE_NO":"２２號","E_COORD97":169734.47,"N_COORD97":2549532.8500000001,"ADDRESS":"安和路三段７３巷２２號","OBJECTID":370812},"geometry":{"x":169734.47000000067,"y":2549532.8499999996}},{"attributes":{"ID":370823,"DIS_CODE":0,"TOWNNAME":"安南區","LI":"新順里","LIN":"12鄰","STREET":"安和路","SECT":"三段","MAREA":" ","LANE":"７３巷","ALLEY":" ","HOUSE_NO":"３６號","E_COORD97":169704.66,"N_COORD97":2549543.8199999998,"ADDRESS":"安和路三段７３巷３６號","OBJECTID":370813},"geometry":{"x":169704.66000000108,"y":2549543.8200000003}},{"attributes":{"ID":370824,"DIS_CODE":0,"TOWNNAME":"安南區","LI":"新順里","LIN":"12鄰","STREET":"安和路","SECT":"三段","MAREA":" ","LANE":"７３巷","ALLEY":" ","HOUSE_NO":"３８號","E_COORD97":169700.64999999999,"N_COORD97":2549545.5600000001,"ADDRESS":"安和路三段７３巷３８號","OBJECTID":370814},"geometry":{"x":169700.65000000037,"y":2549545.5600000024}},{"attributes":{"ID":370825,"DIS_CODE":0,"TOWNNAME":"安南區","LI":"新順里","LIN":"12鄰","STREET":"安和路","SECT":"三段","MAREA":" ","LANE":"７３巷","ALLEY":" ","HOUSE_NO":"４０號","E_COORD97":169696.98999999999,"N_COORD97":2549546.6099999999,"ADDRESS":"安和路三段７３巷４０號","OBJECTID":370815},"geometry":{"x":169696.99000000209,"y":2549546.6100000013}},{"attributes":{"ID":370826,"DIS_CODE":0,"TOWNNAME":"新化區","LI":"協興里","LIN":"12鄰","STREET":"太平街","SECT":" ","MAREA":" ","LANE":"１５０巷","ALLEY":" ","HOUSE_NO":"１９９號","E_COORD97":178272.01999999999,"N_COORD97":2548900.25,"ADDRESS":"太平街１５０巷１９９號","OBJECTID":370816},"geometry":{"x":178272.02000000142,"y":2548900.25}},{"attributes":{"ID":370827,"DIS_CODE":0,"TOWNNAME":"新化區","LI":"協興里","LIN":"12鄰","STREET":"太平街","SECT":" ","MAREA":" ","LANE":"１５０巷","ALLEY":" ","HOUSE_NO":"２０３號","E_COORD97":178292.32000000001,"N_COORD97":2548905.25,"ADDRESS":"太平街１５０巷２０３號","OBJECTID":370817},"geometry":{"x":178292.3200000003,"y":2548905.2500000019}},{"attributes":{"ID":370828,"DIS_CODE":0,"TOWNNAME":"新化區","LI":"協興里","LIN":"12鄰","STREET":"太平街","SECT":" ","MAREA":" ","LANE":"１５０巷","ALLEY":" ","HOUSE_NO":"２３１號","E_COORD97":178231.72,"N_COORD97":2548918.25,"ADDRESS":"太平街１５０巷２３１號","OBJECTID":370818},"geometry":{"x":178231.71999999881,"y":2548918.2500000037}},{"attributes":{"ID":370829,"DIS_CODE":0,"TOWNNAME":"新化區","LI":"協興里","LIN":"12鄰","STREET":"太平街","SECT":" ","MAREA":" ","LANE":"１５０巷","ALLEY":" ","HOUSE_NO":"２２９號","E_COORD97":178239.12,"N_COORD97":2548922.25,"ADDRESS":"太平街１５０巷２２９號","OBJECTID":370819},"geometry":{"x":178239.12000000011,"y":2548922.2500000019}},{"attributes":{"ID":370830,"DIS_CODE":0,"TOWNNAME":"新化區","LI":"協興里","LIN":"12鄰","STREET":"太平街","SECT":" ","MAREA":" ","LANE":"１５０巷","ALLEY":" ","HOUSE_NO":"１９３號","E_COORD97":178260.51999999999,"N_COORD97":2548897.25,"ADDRESS":"太平街１５０巷１９３號","OBJECTID":370820},"geometry":{"x":178260.52000000048,"y":2548897.25}},{"attributes":{"ID":370831,"DIS_CODE":0,"TOWNNAME":"新化區","LI":"協興里","LIN":"12鄰","STREET":"太平街","SECT":" ","MAREA":" ","LANE":"１５０巷","ALLEY":" ","HOUSE_NO":"２２７號","E_COORD97":178245.72,"N_COORD97":2548925.25,"ADDRESS":"太平街１５０巷２２７號","OBJECTID":370821},"geometry":{"x":178245.72000000067,"y":2548925.2500000037}},{"attributes":{"ID":370832,"DIS_CODE":0,"TOWNNAME":"新化區","LI":"協興里","LIN":"12鄰","STREET":"太平街","SECT":" ","MAREA":" ","LANE":"１５０巷","ALLEY":" ","HOUSE_NO":"１５５號","E_COORD97":178229.01999999999,"N_COORD97":2548876.25,"ADDRESS":"太平街１５０巷１５５號","OBJECTID":370822},"geometry":{"x":178229.01999999955,"y":2548876.25}},{"attributes":{"ID":370833,"DIS_CODE":0,"TOWNNAME":"新化區","LI":"協興里","LIN":"12鄰","STREET":"太平街","SECT":" ","MAREA":" ","LANE":"１５０巷","ALLEY":" ","HOUSE_NO":"２１９號","E_COORD97":178263.82000000001,"N_COORD97":2548935.25,"ADDRESS":"太平街１５０巷２１９號","OBJECTID":370823},"geometry":{"x":178263.81999999937,"y":2548935.2500000037}},{"attributes":{"ID":370834,"DIS_CODE":0,"TOWNNAME":"新化區","LI":"協興里","LIN":"12鄰","STREET":"太平街","SECT":" ","MAREA":" ","LANE":"１５０巷","ALLEY":" ","HOUSE_NO":"１４５號","E_COORD97":178243.92000000001,"N_COORD97":2548860.25,"ADDRESS":"太平街１５０巷１４５號","OBJECTID":370824},"geometry":{"x":178243.91999999993,"y":2548860.25}},{"attributes":{"ID":370835,"DIS_CODE":0,"TOWNNAME":"新化區","LI":"協興里","LIN":"12鄰","STREET":"太平街","SECT":" ","MAREA":" ","LANE":"１５０巷","ALLEY":" ","HOUSE_NO":"１７５號","E_COORD97":178220.92000000001,"N_COORD97":2548887.25,"ADDRESS":"太平街１５０巷１７５號","OBJECTID":370825},"geometry":{"x":178220.92000000086,"y":2548887.25}},{"attributes":{"ID":370836,"DIS_CODE":0,"TOWNNAME":"新化區","LI":"協興里","LIN":"12鄰","STREET":"太平街","SECT":" ","MAREA":" ","LANE":"１５０巷","ALLEY":" ","HOUSE_NO":"１３７號","E_COORD97":178272.42000000001,"N_COORD97":2548865.25,"ADDRESS":"太平街１５０巷１３７號","OBJECTID":370826},"geometry":{"x":178272.41999999993,"y":2548865.2500000019}},{"attributes":{"ID":370837,"DIS_CODE":0,"TOWNNAME":"新化區","LI":"協興里","LIN":"12鄰","STREET":"太平街","SECT":" ","MAREA":" ","LANE":"１５０巷","ALLEY":" ","HOUSE_NO":"１２１號","E_COORD97":178300.51999999999,"N_COORD97":2548874.25,"ADDRESS":"太平街１５０巷１２１號","OBJECTID":370827},"geometry":{"x":178300.51999999955,"y":2548874.2500000037}},{"attributes":{"ID":370838,"DIS_CODE":0,"TOWNNAME":"新化區","LI":"協興里","LIN":"12鄰","STREET":"太平街","SECT":" ","MAREA":" ","LANE":"１５０巷","ALLEY":" ","HOUSE_NO":"２１７號","E_COORD97":178267.42000000001,"N_COORD97":2548937.25,"ADDRESS":"太平街１５０巷２１７號","OBJECTID":370828},"geometry":{"x":178267.41999999993,"y":2548937.25}},{"attributes":{"ID":370839,"DIS_CODE":0,"TOWNNAME":"新化區","LI":"協興里","LIN":"12鄰","STREET":"太平街","SECT":" ","MAREA":" ","LANE":"１５０巷","ALLEY":" ","HOUSE_NO":"１２５號","E_COORD97":178298.32000000001,"N_COORD97":2548882.25,"ADDRESS":"太平街１５０巷１２５號","OBJECTID":370829},"geometry":{"x":178298.32000000123,"y":2548882.2500000019}},{"attributes":{"ID":370840,"DIS_CODE":0,"TOWNNAME":"新化區","LI":"協興里","LIN":"12鄰","STREET":"太平街","SECT":" ","MAREA":" ","LANE":"１５０巷","ALLEY":" ","HOUSE_NO":"１８７號","E_COORD97":178248.01999999999,"N_COORD97":2548894.25,"ADDRESS":"太平街１５０巷１８７號","OBJECTID":370830},"geometry":{"x":178248.01999999955,"y":2548894.25}},{"attributes":{"ID":370841,"DIS_CODE":0,"TOWNNAME":"新化區","LI":"協興里","LIN":"12鄰","STREET":"太平街","SECT":" ","MAREA":" ","LANE":"１５０巷","ALLEY":" ","HOUSE_NO":"１８１號","E_COORD97":178235.51999999999,"N_COORD97":2548891.25,"ADDRESS":"太平街１５０巷１８１號","OBJECTID":370831},"geometry":{"x":178235.51999999955,"y":2548891.2500000037}},{"attributes":{"ID":370842,"DIS_CODE":0,"TOWNNAME":"安南區","LI":"長安里","LIN":"12鄰","STREET":"公學路","SECT":"二段","MAREA":" ","LANE":"１２５巷","ALLEY":" ","HOUSE_NO":"７２號","E_COORD97":167777.34,"N_COORD97":2552140.0299999998,"ADDRESS":"公學路二段１２５巷７２號","OBJECTID":370832},"geometry":{"x":167777.34000000078,"y":2552140.0300000031}},{"attributes":{"ID":370843,"DIS_CODE":0,"TOWNNAME":"南區","LI":"同安里","LIN":"12鄰","STREET":"明興路","SECT":" ","MAREA":" ","LANE":"１２０９巷","ALLEY":" ","HOUSE_NO":"４號","E_COORD97":166462.57999999999,"N_COORD97":2536205.5499999998,"ADDRESS":"明興路１２０９巷４號","OBJECTID":370833},"geometry":{"x":166462.58000000007,"y":2536205.5500000007}},{"attributes":{"ID":370844,"DIS_CODE":0,"TOWNNAME":"南區","LI":"同安里","LIN":"12鄰","STREET":"明興路","SECT":" ","MAREA":" ","LANE":"１２３１巷","ALLEY":" ","HOUSE_NO":"１號","E_COORD97":166459.04999999999,"N_COORD97":2536161.79,"ADDRESS":"明興路１２３１巷１號","OBJECTID":370834},"geometry":{"x":166459.05000000075,"y":2536161.7899999991}},{"attributes":{"ID":370845,"DIS_CODE":0,"TOWNNAME":"南區","LI":"同安里","LIN":"12鄰","STREET":"明興路","SECT":" ","MAREA":" ","LANE":"１２３１巷","ALLEY":" ","HOUSE_NO":"３號","E_COORD97":166465.39000000001,"N_COORD97":2536161.1099999999,"ADDRESS":"明興路１２３１巷３號","OBJECTID":370835},"geometry":{"x":166465.38999999966,"y":2536161.1100000013}},{"attributes":{"ID":370846,"DIS_CODE":0,"TOWNNAME":"南區","LI":"同安里","LIN":"12鄰","STREET":"明興路","SECT":" ","MAREA":" ","LANE":"１２３１巷","ALLEY":" ","HOUSE_NO":"５號","E_COORD97":166471.72,"N_COORD97":2536160.0800000001,"ADDRESS":"明興路１２３１巷５號","OBJECTID":370836},"geometry":{"x":166471.71999999974,"y":2536160.0800000001}},{"attributes":{"ID":370847,"DIS_CODE":0,"TOWNNAME":"南區","LI":"同安里","LIN":"12鄰","STREET":"明興路","SECT":" ","MAREA":" ","LANE":"１２３１巷","ALLEY":" ","HOUSE_NO":"７號","E_COORD97":166477.20000000001,"N_COORD97":2536159.0600000001,"ADDRESS":"明興路１２３１巷７號","OBJECTID":370837},"geometry":{"x":166477.20000000019,"y":2536159.0600000024}},{"attributes":{"ID":370848,"DIS_CODE":0,"TOWNNAME":"南區","LI":"同安里","LIN":"12鄰","STREET":"明興路","SECT":" ","MAREA":" ","LANE":"１２５３巷","ALLEY":" ","HOUSE_NO":"１號","E_COORD97":166448.82999999999,"N_COORD97":2536118.73,"ADDRESS":"明興路１２５３巷１號","OBJECTID":370838},"geometry":{"x":166448.83000000101,"y":2536118.7300000004}},{"attributes":{"ID":370849,"DIS_CODE":0,"TOWNNAME":"南區","LI":"同安里","LIN":"12鄰","STREET":"明興路","SECT":" ","MAREA":" ","LANE":"１２５３巷","ALLEY":" ","HOUSE_NO":"３號","E_COORD97":166452.94,"N_COORD97":2536114.6299999999,"ADDRESS":"明興路１２５３巷３號","OBJECTID":370839},"geometry":{"x":166452.94000000227,"y":2536114.629999999}},{"attributes":{"ID":370850,"DIS_CODE":0,"TOWNNAME":"南區","LI":"同安里","LIN":"12鄰","STREET":"明興路","SECT":" ","MAREA":" ","LANE":"１２５３巷","ALLEY":" ","HOUSE_NO":"５號","E_COORD97":166456.88,"N_COORD97":2536111.5499999998,"ADDRESS":"明興路１２５３巷５號","OBJECTID":370840},"geometry":{"x":166456.88000000082,"y":2536111.5500000045}},{"attributes":{"ID":370851,"DIS_CODE":0,"TOWNNAME":"南區","LI":"同安里","LIN":"12鄰","STREET":"明興路","SECT":" ","MAREA":" ","LANE":"１２５３巷","ALLEY":" ","HOUSE_NO":"７號","E_COORD97":166461.16,"N_COORD97":2536114.7999999998,"ADDRESS":"明興路１２５３巷７號","OBJECTID":370841},"geometry":{"x":166461.15999999922,"y":2536114.8000000026}},{"attributes":{"ID":370852,"DIS_CODE":0,"TOWNNAME":"南區","LI":"同安里","LIN":"12鄰","STREET":"明興路","SECT":" ","MAREA":" ","LANE":"１２５３巷","ALLEY":" ","HOUSE_NO":"９號","E_COORD97":166464.57999999999,"N_COORD97":2536110.8700000001,"ADDRESS":"明興路１２５３巷９號","OBJECTID":370842},"geometry":{"x":166464.58000000007,"y":2536110.8700000029}},{"attributes":{"ID":370853,"DIS_CODE":0,"TOWNNAME":"南區","LI":"同安里","LIN":"12鄰","STREET":"明興路","SECT":" ","MAREA":" ","LANE":"１２５３巷","ALLEY":" ","HOUSE_NO":"１１號","E_COORD97":166469.72,"N_COORD97":2536114.29,"ADDRESS":"明興路１２５３巷１１號","OBJECTID":370843},"geometry":{"x":166469.72000000067,"y":2536114.2899999991}},{"attributes":{"ID":370854,"DIS_CODE":0,"TOWNNAME":"南區","LI":"同安里","LIN":"12鄰","STREET":"明興路","SECT":" ","MAREA":" ","LANE":"１２５３巷","ALLEY":" ","HOUSE_NO":"１３號","E_COORD97":166472.79999999999,"N_COORD97":2536110.02,"ADDRESS":"明興路１２５３巷１３號","OBJECTID":370844},"geometry":{"x":166472.79999999981,"y":2536110.0199999996}},{"attributes":{"ID":370855,"DIS_CODE":0,"TOWNNAME":"南區","LI":"同安里","LIN":"12鄰","STREET":"明興路","SECT":" ","MAREA":" ","LANE":"１２５３巷","ALLEY":" ","HOUSE_NO":"１５號","E_COORD97":166477.25,"N_COORD97":2536113.2599999998,"ADDRESS":"明興路１２５３巷１５號","OBJECTID":370845},"geometry":{"x":166477.25,"y":2536113.2600000016}},{"attributes":{"ID":370856,"DIS_CODE":0,"TOWNNAME":"南區","LI":"同安里","LIN":"12鄰","STREET":"明興路","SECT":" ","MAREA":" ","LANE":"１２５３巷","ALLEY":" ","HOUSE_NO":"１７號","E_COORD97":166481.53,"N_COORD97":2536111.21,"ADDRESS":"明興路１２５３巷１７號","OBJECTID":370846},"geometry":{"x":166481.53000000119,"y":2536111.2100000028}},{"attributes":{"ID":370857,"DIS_CODE":0,"TOWNNAME":"南區","LI":"同安里","LIN":"12鄰","STREET":"明興路","SECT":" ","MAREA":" ","LANE":"１２５３巷","ALLEY":" ","HOUSE_NO":"１９號","E_COORD97":166484.95000000001,"N_COORD97":2536106.0800000001,"ADDRESS":"明興路１２５３巷１９號","OBJECTID":370847},"geometry":{"x":166484.95000000112,"y":2536106.0800000001}},{"attributes":{"ID":370858,"DIS_CODE":0,"TOWNNAME":"南區","LI":"同安里","LIN":"12鄰","STREET":"明興路","SECT":" ","MAREA":" ","LANE":"１２５３巷","ALLEY":" ","HOUSE_NO":"２１號","E_COORD97":166491.45000000001,"N_COORD97":2536105.0600000001,"ADDRESS":"明興路１２５３巷２１號","OBJECTID":370848},"geometry":{"x":166491.44999999925,"y":2536105.0600000024}},{"attributes":{"ID":370859,"DIS_CODE":0,"TOWNNAME":"南區","LI":"同安里","LIN":"12鄰","STREET":"明興路","SECT":" ","MAREA":" ","LANE":"１２５３巷","ALLEY":" ","HOUSE_NO":"２３號","E_COORD97":166497.62,"N_COORD97":2536101.8100000001,"ADDRESS":"明興路１２５３巷２３號","OBJECTID":370849},"geometry":{"x":166497.62000000104,"y":2536101.8100000005}},{"attributes":{"ID":370860,"DIS_CODE":0,"TOWNNAME":"南區","LI":"竹溪里","LIN":"12鄰","STREET":"體育路","SECT":" ","MAREA":" ","LANE":"４３巷","ALLEY":" ","HOUSE_NO":"６７號","E_COORD97":168805.76999999999,"N_COORD97":2542132.8799999999,"ADDRESS":"體育路４３巷６７號","OBJECTID":370850},"geometry":{"x":168805.76999999955,"y":2542132.8800000008}},{"attributes":{"ID":370861,"DIS_CODE":0,"TOWNNAME":"南區","LI":"竹溪里","LIN":"12鄰","STREET":"體育路","SECT":" ","MAREA":" ","LANE":"４３巷","ALLEY":" ","HOUSE_NO":"６９號","E_COORD97":168813.04999999999,"N_COORD97":2542133.9199999999,"ADDRESS":"體育路４３巷６９號","OBJECTID":370851},"geometry":{"x":168813.05000000075,"y":2542133.9200000018}},{"attributes":{"ID":370862,"DIS_CODE":0,"TOWNNAME":"南區","LI":"竹溪里","LIN":"12鄰","STREET":"體育路","SECT":" ","MAREA":" ","LANE":"４３巷","ALLEY":" ","HOUSE_NO":"７１號","E_COORD97":168817.22,"N_COORD97":2542133.9199999999,"ADDRESS":"體育路４３巷７１號","OBJECTID":370852},"geometry":{"x":168817.22000000067,"y":2542133.9200000018}},{"attributes":{"ID":370863,"DIS_CODE":0,"TOWNNAME":"南區","LI":"竹溪里","LIN":"12鄰","STREET":"體育路","SECT":" ","MAREA":" ","LANE":"４３巷","ALLEY":" ","HOUSE_NO":"７３號","E_COORD97":168821.03,"N_COORD97":2542133.23,"ADDRESS":"體育路４３巷７３號","OBJECTID":370853},"geometry":{"x":168821.03000000119,"y":2542133.2300000004}},{"attributes":{"ID":370864,"DIS_CODE":0,"TOWNNAME":"南區","LI":"竹溪里","LIN":"12鄰","STREET":"體育路","SECT":" ","MAREA":" ","LANE":"４３巷","ALLEY":" ","HOUSE_NO":"５９號","E_COORD97":168805.76999999999,"N_COORD97":2542154.3599999999,"ADDRESS":"體育路４３巷５９號","OBJECTID":370854},"geometry":{"x":168805.76999999955,"y":2542154.3600000013}},{"attributes":{"ID":370865,"DIS_CODE":0,"TOWNNAME":"南區","LI":"竹溪里","LIN":"12鄰","STREET":"體育路","SECT":" ","MAREA":" ","LANE":"４３巷","ALLEY":" ","HOUSE_NO":"６１號","E_COORD97":168809.92999999999,"N_COORD97":2542153.6699999999,"ADDRESS":"體育路４３巷６１號","OBJECTID":370855},"geometry":{"x":168809.9299999997,"y":2542153.6699999999}},{"attributes":{"ID":370866,"DIS_CODE":0,"TOWNNAME":"南區","LI":"竹溪里","LIN":"12鄰","STREET":"體育路","SECT":" ","MAREA":" ","LANE":"４３巷","ALLEY":" ","HOUSE_NO":"６３號","E_COORD97":168812.35999999999,"N_COORD97":2542153.3199999998,"ADDRESS":"體育路４３巷６３號","OBJECTID":370856},"geometry":{"x":168812.36000000034,"y":2542153.3200000003}},{"attributes":{"ID":370867,"DIS_CODE":0,"TOWNNAME":"南區","LI":"竹溪里","LIN":"12鄰","STREET":"體育路","SECT":" ","MAREA":" ","LANE":"４３巷","ALLEY":" ","HOUSE_NO":"６５號","E_COORD97":168817.91,"N_COORD97":2542152.6299999999,"ADDRESS":"體育路４３巷６５號","OBJECTID":370857},"geometry":{"x":168817.91000000108,"y":2542152.629999999}},{"attributes":{"ID":370868,"DIS_CODE":0,"TOWNNAME":"南區","LI":"竹溪里","LIN":"12鄰","STREET":"體育路","SECT":" ","MAREA":" ","LANE":"４３巷","ALLEY":" ","HOUSE_NO":"５１號","E_COORD97":168809.92999999999,"N_COORD97":2542168.9100000001,"ADDRESS":"體育路４３巷５１號","OBJECTID":370858},"geometry":{"x":168809.9299999997,"y":2542168.9100000001}},{"attributes":{"ID":370869,"DIS_CODE":0,"TOWNNAME":"南區","LI":"竹溪里","LIN":"12鄰","STREET":"體育路","SECT":" ","MAREA":" ","LANE":"４３巷","ALLEY":" ","HOUSE_NO":"５３號","E_COORD97":168817.22,"N_COORD97":2542169.2599999998,"ADDRESS":"體育路４３巷５３號","OBJECTID":370859},"geometry":{"x":168817.22000000067,"y":2542169.2600000016}},{"attributes":{"ID":370870,"DIS_CODE":0,"TOWNNAME":"南區","LI":"竹溪里","LIN":"12鄰","STREET":"體育路","SECT":" ","MAREA":" ","LANE":"４３巷","ALLEY":" ","HOUSE_NO":"５５號","E_COORD97":168820.69,"N_COORD97":2542169.2599999998,"ADDRESS":"體育路４３巷５５號","OBJECTID":370860},"geometry":{"x":168820.69000000041,"y":2542169.2600000016}},{"attributes":{"ID":370871,"DIS_CODE":0,"TOWNNAME":"南區","LI":"竹溪里","LIN":"12鄰","STREET":"體育路","SECT":" ","MAREA":" ","LANE":"４３巷","ALLEY":" ","HOUSE_NO":"５７號","E_COORD97":168825.54000000001,"N_COORD97":2542168.5699999998,"ADDRESS":"體育路４３巷５７號","OBJECTID":370861},"geometry":{"x":168825.54000000097,"y":2542168.5700000003}},{"attributes":{"ID":370872,"DIS_CODE":0,"TOWNNAME":"南區","LI":"佛壇里","LIN":"12鄰","STREET":"灣裡路","SECT":" ","MAREA":" ","LANE":"５０６巷","ALLEY":" ","HOUSE_NO":"６號","E_COORD97":166228.84,"N_COORD97":2535872.1299999999,"ADDRESS":"灣裡路５０６巷６號","OBJECTID":370862},"geometry":{"x":166228.83999999985,"y":2535872.1300000008}},{"attributes":{"ID":370873,"DIS_CODE":0,"TOWNNAME":"南區","LI":"佛壇里","LIN":"12鄰","STREET":"灣裡路","SECT":" ","MAREA":" ","LANE":"５０６巷","ALLEY":" ","HOUSE_NO":"８號","E_COORD97":166223.26999999999,"N_COORD97":2535870.71,"ADDRESS":"灣裡路５０６巷８號","OBJECTID":370863},"geometry":{"x":166223.27000000048,"y":2535870.7100000028}},{"attributes":{"ID":370874,"DIS_CODE":0,"TOWNNAME":"南區","LI":"佛壇里","LIN":"12鄰","STREET":"灣裡路","SECT":" ","MAREA":" ","LANE":"５０６巷","ALLEY":" ","HOUSE_NO":"１０號","E_COORD97":166203.85999999999,"N_COORD97":2535868.79,"ADDRESS":"灣裡路５０６巷１０號","OBJECTID":370864},"geometry":{"x":166203.86000000034,"y":2535868.790000001}},{"attributes":{"ID":370875,"DIS_CODE":0,"TOWNNAME":"南區","LI":"佛壇里","LIN":"12鄰","STREET":"灣裡路","SECT":" ","MAREA":" ","LANE":"４７６巷","ALLEY":" ","HOUSE_NO":"１號","E_COORD97":166217.51000000001,"N_COORD97":2535933.9700000002,"ADDRESS":"灣裡路４７６巷１號","OBJECTID":370865},"geometry":{"x":166217.50999999978,"y":2535933.9700000025}},{"attributes":{"ID":370876,"DIS_CODE":0,"TOWNNAME":"南區","LI":"佛壇里","LIN":"12鄰","STREET":"灣裡路","SECT":" ","MAREA":" ","LANE":"４７６巷","ALLEY":" ","HOUSE_NO":"４號","E_COORD97":166205.07000000001,"N_COORD97":2535938.1600000001,"ADDRESS":"灣裡路４７６巷４號","OBJECTID":370866},"geometry":{"x":166205.07000000123,"y":2535938.160000002}},{"attributes":{"ID":370877,"DIS_CODE":0,"TOWNNAME":"南區","LI":"佛壇里","LIN":"12鄰","STREET":"灣裡路","SECT":" ","MAREA":" ","LANE":"４７６巷","ALLEY":" ","HOUSE_NO":"８號","E_COORD97":166213.45999999999,"N_COORD97":2535953.8300000001,"ADDRESS":"灣裡路４７６巷８號","OBJECTID":370867},"geometry":{"x":166213.46000000089,"y":2535953.8300000019}},{"attributes":{"ID":370878,"DIS_CODE":0,"TOWNNAME":"南區","LI":"佛壇里","LIN":"12鄰","STREET":"灣裡路","SECT":" ","MAREA":" ","LANE":"４９６巷","ALLEY":" ","HOUSE_NO":"５號","E_COORD97":166219.64000000001,"N_COORD97":2535884.3399999999,"ADDRESS":"灣裡路４９６巷５號","OBJECTID":370868},"geometry":{"x":166219.63999999966,"y":2535884.3399999999}},{"attributes":{"ID":370879,"DIS_CODE":0,"TOWNNAME":"南區","LI":"佛壇里","LIN":"12鄰","STREET":"灣裡路","SECT":" ","MAREA":" ","LANE":"４９６巷","ALLEY":" ","HOUSE_NO":"６號","E_COORD97":166217.94,"N_COORD97":2535904.1499999999,"ADDRESS":"灣裡路４９６巷６號","OBJECTID":370869},"geometry":{"x":166217.94000000134,"y":2535904.1500000022}},{"attributes":{"ID":370880,"DIS_CODE":0,"TOWNNAME":"南區","LI":"佛壇里","LIN":"12鄰","STREET":"灣裡路","SECT":" ","MAREA":" ","LANE":"４９６巷","ALLEY":" ","HOUSE_NO":"７號","E_COORD97":166206.85000000001,"N_COORD97":2535889.23,"ADDRESS":"灣裡路４９６巷７號","OBJECTID":370870},"geometry":{"x":166206.85000000149,"y":2535889.2300000004}},{"attributes":{"ID":370881,"DIS_CODE":0,"TOWNNAME":"南區","LI":"佛壇里","LIN":"12鄰","STREET":"灣裡路","SECT":" ","MAREA":" ","LANE":"４９６巷","ALLEY":" ","HOUSE_NO":"１０號","E_COORD97":166201.73000000001,"N_COORD97":2535903.9300000002,"ADDRESS":"灣裡路４９６巷１０號","OBJECTID":370871},"geometry":{"x":166201.73000000231,"y":2535903.9299999997}},{"attributes":{"ID":370882,"DIS_CODE":0,"TOWNNAME":"南區","LI":"府南里","LIN":"12鄰","STREET":"永成路","SECT":"三段","MAREA":" ","LANE":"４１６巷","ALLEY":" ","HOUSE_NO":"１３號","E_COORD97":167560.57999999999,"N_COORD97":2541078.3700000001,"ADDRESS":"永成路三段４１６巷１３號","OBJECTID":370872},"geometry":{"x":167560.58000000101,"y":2541078.370000001}},{"attributes":{"ID":370883,"DIS_CODE":0,"TOWNNAME":"南區","LI":"府南里","LIN":"12鄰","STREET":"永成路","SECT":"三段","MAREA":" ","LANE":"４１６巷","ALLEY":" ","HOUSE_NO":"１５號","E_COORD97":167566.48999999999,"N_COORD97":2541080.0699999998,"ADDRESS":"永成路三段４１６巷１５號","OBJECTID":370873},"geometry":{"x":167566.49000000115,"y":2541080.0700000003}},{"attributes":{"ID":370884,"DIS_CODE":0,"TOWNNAME":"南區","LI":"府南里","LIN":"12鄰","STREET":"永成路","SECT":"三段","MAREA":" ","LANE":"４１６巷","ALLEY":" ","HOUSE_NO":"１７號","E_COORD97":167572.39999999999,"N_COORD97":2541081.5699999998,"ADDRESS":"永成路三段４１６巷１７號","OBJECTID":370874},"geometry":{"x":167572.4000000013,"y":2541081.5700000022}},{"attributes":{"ID":370885,"DIS_CODE":0,"TOWNNAME":"南區","LI":"府南里","LIN":"12鄰","STREET":"永成路","SECT":"三段","MAREA":" ","LANE":"４１６巷","ALLEY":" ","HOUSE_NO":"１９號","E_COORD97":167578.20000000001,"N_COORD97":2541083.77,"ADDRESS":"永成路三段４１６巷１９號","OBJECTID":370875},"geometry":{"x":167578.20000000205,"y":2541083.7700000014}},{"attributes":{"ID":370886,"DIS_CODE":0,"TOWNNAME":"南區","LI":"府南里","LIN":"12鄰","STREET":"永成路","SECT":"三段","MAREA":" ","LANE":"４１６巷","ALLEY":" ","HOUSE_NO":"１號","E_COORD97":167526.17000000001,"N_COORD97":2541071.27,"ADDRESS":"永成路三段４１６巷１號","OBJECTID":370876},"geometry":{"x":167526.17000000086,"y":2541071.2699999996}},{"attributes":{"ID":370887,"DIS_CODE":0,"TOWNNAME":"南區","LI":"府南里","LIN":"12鄰","STREET":"永成路","SECT":"三段","MAREA":" ","LANE":"４１６巷","ALLEY":" ","HOUSE_NO":"２１號","E_COORD97":167583.41,"N_COORD97":2541086.1699999999,"ADDRESS":"永成路三段４１６巷２１號","OBJECTID":370877},"geometry":{"x":167583.41000000201,"y":2541086.1699999999}},{"attributes":{"ID":370888,"DIS_CODE":0,"TOWNNAME":"南區","LI":"府南里","LIN":"12鄰","STREET":"永成路","SECT":"三段","MAREA":" ","LANE":"４１６巷","ALLEY":" ","HOUSE_NO":"２３號","E_COORD97":167589.51999999999,"N_COORD97":2541086.8700000001,"ADDRESS":"永成路三段４１６巷２３號","OBJECTID":370878},"geometry":{"x":167589.52000000048,"y":2541086.8700000048}},{"attributes":{"ID":370889,"DIS_CODE":0,"TOWNNAME":"南區","LI":"府南里","LIN":"12鄰","STREET":"永成路","SECT":"三段","MAREA":" ","LANE":"４１６巷","ALLEY":" ","HOUSE_NO":"２號","E_COORD97":167530.54000000001,"N_COORD97":2541056.4199999999,"ADDRESS":"永成路三段４１６巷２號","OBJECTID":370879},"geometry":{"x":167530.54000000097,"y":2541056.4200000018}},{"attributes":{"ID":370890,"DIS_CODE":0,"TOWNNAME":"仁德區","LI":"仁德里","LIN":"12鄰","STREET":"四維街","SECT":" ","MAREA":" ","LANE":"３１巷","ALLEY":" ","HOUSE_NO":"６號","E_COORD97":173213.59,"N_COORD97":2541495.4900000002,"ADDRESS":"四維街３１巷６號","OBJECTID":370880},"geometry":{"x":173213.59000000078,"y":2541495.4900000039}},{"attributes":{"ID":370891,"DIS_CODE":0,"TOWNNAME":"南區","LI":"府南里","LIN":"12鄰","STREET":"永成路","SECT":"三段","MAREA":" ","LANE":"４１６巷","ALLEY":" ","HOUSE_NO":"３號","E_COORD97":167530.54000000001,"N_COORD97":2541071.9700000002,"ADDRESS":"永成路三段４１６巷３號","OBJECTID":370881},"geometry":{"x":167530.54000000097,"y":2541071.9699999988}},{"attributes":{"ID":370892,"DIS_CODE":0,"TOWNNAME":"南區","LI":"府南里","LIN":"12鄰","STREET":"永成路","SECT":"三段","MAREA":" ","LANE":"４１６巷","ALLEY":" ","HOUSE_NO":"５號","E_COORD97":167536.85000000001,"N_COORD97":2541073.5699999998,"ADDRESS":"永成路三段４１６巷５號","OBJECTID":370882},"geometry":{"x":167536.84999999963,"y":2541073.5700000003}},{"attributes":{"ID":370893,"DIS_CODE":0,"TOWNNAME":"南區","LI":"府南里","LIN":"12鄰","STREET":"永成路","SECT":"三段","MAREA":" ","LANE":"４１６巷","ALLEY":" ","HOUSE_NO":"７號","E_COORD97":167543.35999999999,"N_COORD97":2541074.77,"ADDRESS":"永成路三段４１６巷７號","OBJECTID":370883},"geometry":{"x":167543.3600000022,"y":2541074.7699999996}},{"attributes":{"ID":370894,"DIS_CODE":0,"TOWNNAME":"南區","LI":"府南里","LIN":"12鄰","STREET":"永成路","SECT":"三段","MAREA":" ","LANE":"４１６巷","ALLEY":" ","HOUSE_NO":"９號","E_COORD97":167548.47,"N_COORD97":2541076.4700000002,"ADDRESS":"永成路三段４１６巷９號","OBJECTID":370884},"geometry":{"x":167548.46999999974,"y":2541076.4700000025}},{"attributes":{"ID":370895,"DIS_CODE":0,"TOWNNAME":"南區","LI":"府南里","LIN":"12鄰","STREET":"永成路","SECT":"三段","MAREA":" ","LANE":"３９８巷","ALLEY":" ","HOUSE_NO":"１１號","E_COORD97":167555.12,"N_COORD97":2541042.3100000001,"ADDRESS":"永成路三段３９８巷１１號","OBJECTID":370885},"geometry":{"x":167555.12000000104,"y":2541042.3099999987}},{"attributes":{"ID":370896,"DIS_CODE":0,"TOWNNAME":"南區","LI":"府南里","LIN":"12鄰","STREET":"永成路","SECT":"三段","MAREA":" ","LANE":"３９８巷","ALLEY":" ","HOUSE_NO":"１３號","E_COORD97":167561.85999999999,"N_COORD97":2541043.9500000002,"ADDRESS":"永成路三段３９８巷１３號","OBJECTID":370886},"geometry":{"x":167561.8599999994,"y":2541043.9500000011}},{"attributes":{"ID":370897,"DIS_CODE":0,"TOWNNAME":"南區","LI":"府南里","LIN":"12鄰","STREET":"永成路","SECT":"三段","MAREA":" ","LANE":"３９８巷","ALLEY":" ","HOUSE_NO":"１５號","E_COORD97":167567.04999999999,"N_COORD97":2541046.2200000002,"ADDRESS":"永成路三段３９８巷１５號","OBJECTID":370887},"geometry":{"x":167567.05000000075,"y":2541046.2200000007}},{"attributes":{"ID":370898,"DIS_CODE":0,"TOWNNAME":"南區","LI":"府南里","LIN":"12鄰","STREET":"永成路","SECT":"三段","MAREA":" ","LANE":"３９８巷","ALLEY":" ","HOUSE_NO":"１７號","E_COORD97":167573.42000000001,"N_COORD97":2541048.4900000002,"ADDRESS":"永成路三段３９８巷１７號","OBJECTID":370888},"geometry":{"x":167573.42000000086,"y":2541048.4900000021}},{"attributes":{"ID":370899,"DIS_CODE":0,"TOWNNAME":"南區","LI":"府南里","LIN":"12鄰","STREET":"永成路","SECT":"三段","MAREA":" ","LANE":"３９８巷","ALLEY":" ","HOUSE_NO":"１９號","E_COORD97":167579.01000000001,"N_COORD97":2541049.8700000001,"ADDRESS":"永成路三段３９８巷１９號","OBJECTID":370889},"geometry":{"x":167579.01000000164,"y":2541049.8700000029}},{"attributes":{"ID":370900,"DIS_CODE":0,"TOWNNAME":"南區","LI":"府南里","LIN":"12鄰","STREET":"永成路","SECT":"三段","MAREA":" ","LANE":"３９８巷","ALLEY":" ","HOUSE_NO":"１號","E_COORD97":167525.89999999999,"N_COORD97":2541036.5800000001,"ADDRESS":"永成路三段３９８巷１號","OBJECTID":370890},"geometry":{"x":167525.90000000037,"y":2541036.5800000001}},{"attributes":{"ID":370901,"DIS_CODE":0,"TOWNNAME":"南區","LI":"府南里","LIN":"12鄰","STREET":"永成路","SECT":"三段","MAREA":" ","LANE":"３９８巷","ALLEY":" ","HOUSE_NO":"２號","E_COORD97":167523.54000000001,"N_COORD97":2541020.25,"ADDRESS":"永成路三段３９８巷２號","OBJECTID":370891},"geometry":{"x":167523.54000000097,"y":2541020.2500000019}},{"attributes":{"ID":370902,"DIS_CODE":0,"TOWNNAME":"南區","LI":"府南里","LIN":"12鄰","STREET":"永成路","SECT":"三段","MAREA":" ","LANE":"３９８巷","ALLEY":" ","HOUSE_NO":"３號","E_COORD97":167532.09,"N_COORD97":2541037.9399999999,"ADDRESS":"永成路三段３９８巷３號","OBJECTID":370892},"geometry":{"x":167532.08999999985,"y":2541037.9400000013}},{"attributes":{"ID":370903,"DIS_CODE":0,"TOWNNAME":"南區","LI":"府南里","LIN":"12鄰","STREET":"永成路","SECT":"三段","MAREA":" ","LANE":"３９８巷","ALLEY":" ","HOUSE_NO":"５號","E_COORD97":167537.45999999999,"N_COORD97":2541040.9399999999,"ADDRESS":"永成路三段３９８巷５號","OBJECTID":370893},"geometry":{"x":167537.46000000089,"y":2541040.9400000013}},{"attributes":{"ID":370904,"DIS_CODE":0,"TOWNNAME":"南區","LI":"府南里","LIN":"12鄰","STREET":"永成路","SECT":"三段","MAREA":" ","LANE":"３９８巷","ALLEY":" ","HOUSE_NO":"７號","E_COORD97":167543.56,"N_COORD97":2541040.2200000002,"ADDRESS":"永成路三段３９８巷７號","OBJECTID":370894},"geometry":{"x":167543.56000000052,"y":2541040.2200000025}},{"attributes":{"ID":370905,"DIS_CODE":0,"TOWNNAME":"南區","LI":"府南里","LIN":"12鄰","STREET":"永成路","SECT":"三段","MAREA":" ","LANE":"３９８巷","ALLEY":" ","HOUSE_NO":"９號","E_COORD97":167549.10999999999,"N_COORD97":2541040.7599999998,"ADDRESS":"永成路三段３９８巷９號","OBJECTID":370895},"geometry":{"x":167549.11000000127,"y":2541040.7599999998}},{"attributes":{"ID":370906,"DIS_CODE":0,"TOWNNAME":"仁德區","LI":"成功里","LIN":"12鄰","STREET":"成功二街","SECT":" ","MAREA":" ","LANE":"６巷","ALLEY":" ","HOUSE_NO":"９號","E_COORD97":170871.84,"N_COORD97":2539978.0099999998,"ADDRESS":"成功二街６巷９號","OBJECTID":370896},"geometry":{"x":170871.83999999985,"y":2539978.0099999998}},{"attributes":{"ID":370907,"DIS_CODE":0,"TOWNNAME":"仁德區","LI":"仁德里","LIN":"12鄰","STREET":"四維街","SECT":" ","MAREA":" ","LANE":"３１巷","ALLEY":" ","HOUSE_NO":"２號","E_COORD97":173212.04000000001,"N_COORD97":2541504.7400000002,"ADDRESS":"四維街３１巷２號","OBJECTID":370897},"geometry":{"x":173212.04000000004,"y":2541504.7400000021}},{"attributes":{"ID":370908,"DIS_CODE":0,"TOWNNAME":"仁德區","LI":"田厝里","LIN":"12鄰","STREET":"田厝二街","SECT":" ","MAREA":" ","LANE":"１２５巷","ALLEY":" ","HOUSE_NO":"１號","E_COORD97":172192.63,"N_COORD97":2537685.4900000002,"ADDRESS":"田厝二街１２５巷１號","OBJECTID":370898},"geometry":{"x":172192.63000000175,"y":2537685.4900000021}},{"attributes":{"ID":370909,"DIS_CODE":0,"TOWNNAME":"仁德區","LI":"仁義里","LIN":"12鄰","STREET":"中山路","SECT":" ","MAREA":" ","LANE":"１０巷","ALLEY":" ","HOUSE_NO":"５３號","E_COORD97":175135.84,"N_COORD97":2541207.4900000002,"ADDRESS":"中山路１０巷５３號","OBJECTID":370899},"geometry":{"x":175135.84000000078,"y":2541207.4900000021}},{"attributes":{"ID":370910,"DIS_CODE":0,"TOWNNAME":"仁德區","LI":"仁義里","LIN":"12鄰","STREET":"中山路","SECT":" ","MAREA":" ","LANE":"１０巷","ALLEY":" ","HOUSE_NO":"６５號","E_COORD97":175109.57000000001,"N_COORD97":2541339.5,"ADDRESS":"中山路１０巷６５號","OBJECTID":370900},"geometry":{"x":175109.57000000123,"y":2541339.5000000019}},{"attributes":{"ID":370911,"DIS_CODE":0,"TOWNNAME":"仁德區","LI":"二行里","LIN":"12鄰","STREET":"中正西路","SECT":" ","MAREA":" ","LANE":"３５３巷","ALLEY":" ","HOUSE_NO":"８０號","E_COORD97":169938.44,"N_COORD97":2535285.2400000002,"ADDRESS":"中正西路３５３巷８０號","OBJECTID":370901},"geometry":{"x":169938.44000000134,"y":2535285.2400000002}},{"attributes":{"ID":370912,"DIS_CODE":0,"TOWNNAME":"仁德區","LI":"成功里","LIN":"12鄰","STREET":"成功二街","SECT":" ","MAREA":" ","LANE":"６巷","ALLEY":" ","HOUSE_NO":"８號","E_COORD97":170896.70999999999,"N_COORD97":2539993.27,"ADDRESS":"成功二街６巷８號","OBJECTID":370902},"geometry":{"x":170896.70999999996,"y":2539993.2699999996}},{"attributes":{"ID":370913,"DIS_CODE":0,"TOWNNAME":"仁德區","LI":"後壁里","LIN":"12鄰","STREET":"德南路","SECT":" ","MAREA":" ","LANE":"１９４巷","ALLEY":" ","HOUSE_NO":"７號","E_COORD97":173715.04000000001,"N_COORD97":2538454.27,"ADDRESS":"德南路１９４巷７號","OBJECTID":370903},"geometry":{"x":173715.04000000004,"y":2538454.2699999996}},{"attributes":{"ID":370914,"DIS_CODE":0,"TOWNNAME":"仁德區","LI":"後壁里","LIN":"12鄰","STREET":"德南路","SECT":" ","MAREA":" ","LANE":"１８７巷","ALLEY":" ","HOUSE_NO":"５號","E_COORD97":173679.54000000001,"N_COORD97":2538562.52,"ADDRESS":"德南路１８７巷５號","OBJECTID":370904},"geometry":{"x":173679.54000000004,"y":2538562.5200000014}},{"attributes":{"ID":370915,"DIS_CODE":0,"TOWNNAME":"仁德區","LI":"新田里","LIN":"12鄰","STREET":"民安路","SECT":"一段","MAREA":" ","LANE":"３９３巷","ALLEY":" ","HOUSE_NO":"７號","E_COORD97":172989.63,"N_COORD97":2539830.3100000001,"ADDRESS":"民安路一段３９３巷７號","OBJECTID":370905},"geometry":{"x":172989.63000000082,"y":2539830.3100000024}},{"attributes":{"ID":370916,"DIS_CODE":0,"TOWNNAME":"仁德區","LI":"後壁里","LIN":"12鄰","STREET":"德善路","SECT":" ","MAREA":" ","LANE":"２８０巷","ALLEY":" ","HOUSE_NO":"１６號","E_COORD97":173919,"N_COORD97":2538478.02,"ADDRESS":"德善路２８０巷１６號","OBJECTID":370906},"geometry":{"x":173919,"y":2538478.0200000014}},{"attributes":{"ID":370917,"DIS_CODE":0,"TOWNNAME":"仁德區","LI":"成功里","LIN":"12鄰","STREET":"成功二街","SECT":" ","MAREA":" ","LANE":"３２巷","ALLEY":" ","HOUSE_NO":"５號","E_COORD97":170880.39999999999,"N_COORD97":2539909.27,"ADDRESS":"成功二街３２巷５號","OBJECTID":370907},"geometry":{"x":170880.40000000037,"y":2539909.2699999977}},{"attributes":{"ID":370918,"DIS_CODE":0,"TOWNNAME":"仁德區","LI":"一甲里","LIN":"12鄰","STREET":"忠義三街","SECT":" ","MAREA":" ","LANE":"３７巷","ALLEY":" ","HOUSE_NO":"７號","E_COORD97":173612.85999999999,"N_COORD97":2541775.3900000001,"ADDRESS":"忠義三街３７巷７號","OBJECTID":370908},"geometry":{"x":173612.86000000127,"y":2541775.3900000025}},{"attributes":{"ID":370919,"DIS_CODE":0,"TOWNNAME":"佳里區","LI":"建南里","LIN":"12鄰","STREET":"新生路","SECT":" ","MAREA":" ","LANE":"３７５巷","ALLEY":" ","HOUSE_NO":"１號","E_COORD97":165373.95999999999,"N_COORD97":2562172.2000000002,"ADDRESS":"新生路３７５巷１號","OBJECTID":370909},"geometry":{"x":165373.95999999903,"y":2562172.2000000011}},{"attributes":{"ID":370920,"DIS_CODE":0,"TOWNNAME":"佳里區","LI":"建南里","LIN":"12鄰","STREET":"新生路","SECT":" ","MAREA":" ","LANE":"３７５巷","ALLEY":" ","HOUSE_NO":"２號","E_COORD97":165357.22,"N_COORD97":2562172.3999999999,"ADDRESS":"新生路３７５巷２號","OBJECTID":370910},"geometry":{"x":165357.22000000067,"y":2562172.4000000004}},{"attributes":{"ID":370921,"DIS_CODE":0,"TOWNNAME":"佳里區","LI":"建南里","LIN":"12鄰","STREET":"新生路","SECT":" ","MAREA":" ","LANE":"３７５巷","ALLEY":" ","HOUSE_NO":"３號","E_COORD97":165358.13,"N_COORD97":2562167.1899999999,"ADDRESS":"新生路３７５巷３號","OBJECTID":370911},"geometry":{"x":165358.13000000082,"y":2562167.1899999995}},{"attributes":{"ID":370922,"DIS_CODE":0,"TOWNNAME":"佳里區","LI":"建南里","LIN":"12鄰","STREET":"新生路","SECT":" ","MAREA":" ","LANE":"３７５巷","ALLEY":" ","HOUSE_NO":"４號之１","E_COORD97":165356.09,"N_COORD97":2562160.6099999999,"ADDRESS":"新生路３７５巷４號之１","OBJECTID":370912},"geometry":{"x":165356.09000000171,"y":2562160.6099999994}},{"attributes":{"ID":370923,"DIS_CODE":0,"TOWNNAME":"佳里區","LI":"建南里","LIN":"12鄰","STREET":"新生路","SECT":" ","MAREA":" ","LANE":"３７５巷","ALLEY":" ","HOUSE_NO":"４號","E_COORD97":165366.01000000001,"N_COORD97":2562162.6200000001,"ADDRESS":"新生路３７５巷４號","OBJECTID":370913},"geometry":{"x":165366.00999999978,"y":2562162.620000001}},{"attributes":{"ID":370924,"DIS_CODE":0,"TOWNNAME":"佳里區","LI":"建南里","LIN":"12鄰","STREET":"新生路","SECT":" ","MAREA":" ","LANE":"３９５巷","ALLEY":" ","HOUSE_NO":"３號","E_COORD97":165323.62,"N_COORD97":2562147.2599999998,"ADDRESS":"新生路３９５巷３號","OBJECTID":370914},"geometry":{"x":165323.62000000011,"y":2562147.2600000035}},{"attributes":{"ID":370925,"DIS_CODE":0,"TOWNNAME":"佳里區","LI":"建南里","LIN":"12鄰","STREET":"新生路","SECT":" ","MAREA":" ","LANE":"３９５巷","ALLEY":" ","HOUSE_NO":"４號","E_COORD97":165321.57000000001,"N_COORD97":2562161.1499999999,"ADDRESS":"新生路３９５巷４號","OBJECTID":370915},"geometry":{"x":165321.57000000123,"y":2562161.1500000004}},{"attributes":{"ID":370926,"DIS_CODE":0,"TOWNNAME":"佳里區","LI":"建南里","LIN":"12鄰","STREET":"新生路","SECT":" ","MAREA":" ","LANE":"３９５巷","ALLEY":" ","HOUSE_NO":"５號","E_COORD97":165319.53,"N_COORD97":2562146.4199999999,"ADDRESS":"新生路３９５巷５號","OBJECTID":370916},"geometry":{"x":165319.53000000026,"y":2562146.4200000037}},{"attributes":{"ID":370927,"DIS_CODE":0,"TOWNNAME":"佳里區","LI":"建南里","LIN":"12鄰","STREET":"新生路","SECT":" ","MAREA":" ","LANE":"３９５巷","ALLEY":" ","HOUSE_NO":"６號","E_COORD97":165317.66,"N_COORD97":2562160.1400000001,"ADDRESS":"新生路３９５巷６號","OBJECTID":370917},"geometry":{"x":165317.66000000108,"y":2562160.1400000025}},{"attributes":{"ID":370928,"DIS_CODE":0,"TOWNNAME":"佳里區","LI":"建南里","LIN":"12鄰","STREET":"新生路","SECT":" ","MAREA":" ","LANE":"３９５巷","ALLEY":" ","HOUSE_NO":"７號","E_COORD97":165316.03,"N_COORD97":2562145.6600000001,"ADDRESS":"新生路３９５巷７號","OBJECTID":370918},"geometry":{"x":165316.03000000026,"y":2562145.660000002}},{"attributes":{"ID":370929,"DIS_CODE":0,"TOWNNAME":"南區","LI":"郡南里","LIN":"15鄰","STREET":"德興路","SECT":" ","MAREA":" ","LANE":"１３９巷","ALLEY":" ","HOUSE_NO":"４２號","E_COORD97":167349.45000000001,"N_COORD97":2540460.2599999998,"ADDRESS":"德興路１３９巷４２號","OBJECTID":370919},"geometry":{"x":167349.45000000112,"y":2540460.2600000016}},{"attributes":{"ID":370930,"DIS_CODE":0,"TOWNNAME":"永康區","LI":"正強里","LIN":"12鄰","STREET":"正強街","SECT":" ","MAREA":" ","LANE":"１２２巷","ALLEY":" ","HOUSE_NO":"８號","E_COORD97":173373.04999999999,"N_COORD97":2547412.4900000002,"ADDRESS":"正強街１２２巷８號","OBJECTID":370920},"geometry":{"x":173373.05000000168,"y":2547412.4900000021}},{"attributes":{"ID":370931,"DIS_CODE":0,"TOWNNAME":"永康區","LI":"網寮里","LIN":"12鄰","STREET":"永二街","SECT":" ","MAREA":" ","LANE":"２４４巷","ALLEY":" ","HOUSE_NO":"１５號","E_COORD97":173271.44,"N_COORD97":2546489.71,"ADDRESS":"永二街２４４巷１５號","OBJECTID":370921},"geometry":{"x":173271.44000000134,"y":2546489.7100000028}},{"attributes":{"ID":370932,"DIS_CODE":0,"TOWNNAME":"永康區","LI":"永康里","LIN":"12鄰","STREET":"永康街","SECT":" ","MAREA":" ","LANE":"１３６巷","ALLEY":" ","HOUSE_NO":"２２號","E_COORD97":173894.28,"N_COORD97":2547034.1299999999,"ADDRESS":"永康街１３６巷２２號","OBJECTID":370922},"geometry":{"x":173894.28000000119,"y":2547034.1300000008}},{"attributes":{"ID":370933,"DIS_CODE":0,"TOWNNAME":"永康區","LI":"復華里","LIN":"12鄰","STREET":"國華街","SECT":" ","MAREA":" ","LANE":"１００巷","ALLEY":" ","HOUSE_NO":"１１號","E_COORD97":172880.59,"N_COORD97":2545996,"ADDRESS":"國華街１００巷１１號","OBJECTID":370923},"geometry":{"x":172880.58999999985,"y":2545996}},{"attributes":{"ID":370934,"DIS_CODE":0,"TOWNNAME":"永康區","LI":"復華里","LIN":"12鄰","STREET":"國華街","SECT":" ","MAREA":" ","LANE":"１００巷","ALLEY":" ","HOUSE_NO":"２８號","E_COORD97":172896.82000000001,"N_COORD97":2546044.4900000002,"ADDRESS":"國華街１００巷２８號","OBJECTID":370924},"geometry":{"x":172896.81999999937,"y":2546044.4900000002}},{"attributes":{"ID":370935,"DIS_CODE":0,"TOWNNAME":"永康區","LI":"埔園里","LIN":"12鄰","STREET":"中山路","SECT":" ","MAREA":" ","LANE":"１７１巷","ALLEY":" ","HOUSE_NO":"２號之１","E_COORD97":173673.26000000001,"N_COORD97":2547990.2999999998,"ADDRESS":"中山路１７１巷２號之１","OBJECTID":370925},"geometry":{"x":173673.26000000164,"y":2547990.3000000026}},{"attributes":{"ID":370936,"DIS_CODE":0,"TOWNNAME":"永康區","LI":"埔園里","LIN":"12鄰","STREET":"中山路","SECT":" ","MAREA":" ","LANE":"１７１巷","ALLEY":" ","HOUSE_NO":"２２號","E_COORD97":173618.13,"N_COORD97":2547975,"ADDRESS":"中山路１７１巷２２號","OBJECTID":370926},"geometry":{"x":173618.12999999896,"y":2547975.0000000019}},{"attributes":{"ID":370937,"DIS_CODE":0,"TOWNNAME":"永康區","LI":"埔園里","LIN":"12鄰","STREET":"中山路","SECT":" ","MAREA":" ","LANE":"１７１巷","ALLEY":" ","HOUSE_NO":"１４號","E_COORD97":173648.32999999999,"N_COORD97":2547979.75,"ADDRESS":"中山路１７１巷１４號","OBJECTID":370927},"geometry":{"x":173648.33000000101,"y":2547979.7500000019}},{"attributes":{"ID":370938,"DIS_CODE":0,"TOWNNAME":"永康區","LI":"埔園里","LIN":"12鄰","STREET":"四維街","SECT":" ","MAREA":" ","LANE":"５８巷","ALLEY":" ","HOUSE_NO":"２４號","E_COORD97":173508.16,"N_COORD97":2548082.5,"ADDRESS":"四維街５８巷２４號","OBJECTID":370928},"geometry":{"x":173508.16000000201,"y":2548082.5000000037}},{"attributes":{"ID":370939,"DIS_CODE":0,"TOWNNAME":"永康區","LI":"埔園里","LIN":"12鄰","STREET":"中山路","SECT":" ","MAREA":" ","LANE":"１７１巷","ALLEY":" ","HOUSE_NO":"６號","E_COORD97":173663.13,"N_COORD97":2547986.25,"ADDRESS":"中山路１７１巷６號","OBJECTID":370929},"geometry":{"x":173663.13000000082,"y":2547986.2500000019}},{"attributes":{"ID":370940,"DIS_CODE":0,"TOWNNAME":"永康區","LI":"神洲里","LIN":"12鄰","STREET":"忠孝路","SECT":" ","MAREA":" ","LANE":"１５２巷","ALLEY":" ","HOUSE_NO":"２０號","E_COORD97":172171.84,"N_COORD97":2545072.25,"ADDRESS":"忠孝路１５２巷２０號","OBJECTID":370930},"geometry":{"x":172171.83999999985,"y":2545072.25}},{"attributes":{"ID":370941,"DIS_CODE":0,"TOWNNAME":"永康區","LI":"埔園里","LIN":"12鄰","STREET":"四維街","SECT":" ","MAREA":" ","LANE":"５８巷","ALLEY":" ","HOUSE_NO":"８號之２","E_COORD97":173467.32999999999,"N_COORD97":2548067.3999999999,"ADDRESS":"四維街５８巷８號之２","OBJECTID":370931},"geometry":{"x":173467.33000000007,"y":2548067.4000000022}},{"attributes":{"ID":370942,"DIS_CODE":0,"TOWNNAME":"永康區","LI":"埔園里","LIN":"12鄰","STREET":"中山路","SECT":" ","MAREA":" ","LANE":"１７１巷","ALLEY":" ","HOUSE_NO":"４號","E_COORD97":173667.09,"N_COORD97":2547988.75,"ADDRESS":"中山路１７１巷４號","OBJECTID":370932},"geometry":{"x":173667.08999999985,"y":2547988.75}},{"attributes":{"ID":370943,"DIS_CODE":0,"TOWNNAME":"永康區","LI":"埔園里","LIN":"12鄰","STREET":"中山路","SECT":" ","MAREA":" ","LANE":"１７１巷","ALLEY":" ","HOUSE_NO":"８號","E_COORD97":173658.70999999999,"N_COORD97":2547985,"ADDRESS":"中山路１７１巷８號","OBJECTID":370933},"geometry":{"x":173658.71000000089,"y":2547985.0000000019}},{"attributes":{"ID":370944,"DIS_CODE":0,"TOWNNAME":"安南區","LI":"海西里","LIN":"12鄰","STREET":"海環街","SECT":" ","MAREA":" ","LANE":"２８１巷","ALLEY":" ","HOUSE_NO":"２１之６號","E_COORD97":165977.85999999999,"N_COORD97":2548668.7799999998,"ADDRESS":"海環街２８１巷２１之６號","OBJECTID":370934},"geometry":{"x":165977.86000000034,"y":2548668.7799999993}},{"attributes":{"ID":370945,"DIS_CODE":0,"TOWNNAME":"安南區","LI":"海西里","LIN":"12鄰","STREET":"海環街","SECT":" ","MAREA":" ","LANE":"２８１巷","ALLEY":" ","HOUSE_NO":"２１之１０號","E_COORD97":166063.10999999999,"N_COORD97":2548544.5099999998,"ADDRESS":"海環街２８１巷２１之１０號","OBJECTID":370935},"geometry":{"x":166063.11000000034,"y":2548544.5100000016}},{"attributes":{"ID":370946,"DIS_CODE":0,"TOWNNAME":"安南區","LI":"安順里","LIN":"12鄰","STREET":"安和路","SECT":"三段","MAREA":" ","LANE":"１９０巷","ALLEY":" ","HOUSE_NO":"５７之１號","E_COORD97":170009.19,"N_COORD97":2549821.8799999999,"ADDRESS":"安和路三段１９０巷５７之１號","OBJECTID":370936},"geometry":{"x":170009.19000000041,"y":2549821.8800000008}},{"attributes":{"ID":370947,"DIS_CODE":0,"TOWNNAME":"安南區","LI":"安順里","LIN":"12鄰","STREET":"安和路","SECT":"三段","MAREA":" ","LANE":"１９０巷","ALLEY":" ","HOUSE_NO":"２８號","E_COORD97":170065.31,"N_COORD97":2549788.1800000002,"ADDRESS":"安和路三段１９０巷２８號","OBJECTID":370937},"geometry":{"x":170065.31000000145,"y":2549788.1799999997}},{"attributes":{"ID":370948,"DIS_CODE":0,"TOWNNAME":"南區","LI":"明興里","LIN":"12鄰","STREET":"金華路","SECT":"一段","MAREA":" ","LANE":"１００巷","ALLEY":" ","HOUSE_NO":"３號","E_COORD97":166935.47,"N_COORD97":2540461.8399999999,"ADDRESS":"金華路一段１００巷３號","OBJECTID":370938},"geometry":{"x":166935.47000000067,"y":2540461.8400000036}},{"attributes":{"ID":370949,"DIS_CODE":0,"TOWNNAME":"南區","LI":"明興里","LIN":"12鄰","STREET":"金華路","SECT":"一段","MAREA":" ","LANE":"１００巷","ALLEY":" ","HOUSE_NO":"４號","E_COORD97":166939.26999999999,"N_COORD97":2540462.6600000001,"ADDRESS":"金華路一段１００巷４號","OBJECTID":370939},"geometry":{"x":166939.26999999955,"y":2540462.6600000001}},{"attributes":{"ID":370950,"DIS_CODE":0,"TOWNNAME":"南區","LI":" ","LIN":" ","STREET":"大同路","SECT":"一段","MAREA":" ","LANE":"２５６巷","ALLEY":" ","HOUSE_NO":"１２５號","E_COORD97":165045.95999999999,"N_COORD97":2544064,"ADDRESS":"大同路一段２５６巷１２５號","OBJECTID":370940},"geometry":{"x":165045.96000000089,"y":2544064}},{"attributes":{"ID":370951,"DIS_CODE":0,"TOWNNAME":"南區","LI":"明興里","LIN":"12鄰","STREET":"金華路","SECT":"一段","MAREA":" ","LANE":"１００巷","ALLEY":" ","HOUSE_NO":"１１號","E_COORD97":166967.26999999999,"N_COORD97":2540465.96,"ADDRESS":"金華路一段１００巷１１號","OBJECTID":370941},"geometry":{"x":166967.27000000048,"y":2540465.9600000028}},{"attributes":{"ID":370952,"DIS_CODE":0,"TOWNNAME":"南區","LI":"明興里","LIN":"12鄰","STREET":"金華路","SECT":"一段","MAREA":" ","LANE":"１００巷","ALLEY":" ","HOUSE_NO":"１４號","E_COORD97":167008.32000000001,"N_COORD97":2540468.77,"ADDRESS":"金華路一段１００巷１４號","OBJECTID":370942},"geometry":{"x":167008.32000000123,"y":2540468.7700000033}},{"attributes":{"ID":370953,"DIS_CODE":0,"TOWNNAME":"南區","LI":"明興里","LIN":"12鄰","STREET":"金華路","SECT":"一段","MAREA":" ","LANE":"１００巷","ALLEY":" ","HOUSE_NO":"１５號","E_COORD97":167012.29000000001,"N_COORD97":2540468.02,"ADDRESS":"金華路一段１００巷１５號","OBJECTID":370943},"geometry":{"x":167012.29000000004,"y":2540468.0200000014}},{"attributes":{"ID":370954,"DIS_CODE":0,"TOWNNAME":"南區","LI":"明興里","LIN":"12鄰","STREET":"金華路","SECT":"一段","MAREA":" ","LANE":"１００巷","ALLEY":" ","HOUSE_NO":"１６號","E_COORD97":167016.42000000001,"N_COORD97":2540467.3599999999,"ADDRESS":"金華路一段１００巷１６號","OBJECTID":370944},"geometry":{"x":167016.41999999993,"y":2540467.3599999994}},{"attributes":{"ID":370955,"DIS_CODE":0,"TOWNNAME":"南區","LI":"明興里","LIN":"12鄰","STREET":"金華路","SECT":"一段","MAREA":" ","LANE":"１００巷","ALLEY":" ","HOUSE_NO":"１７號","E_COORD97":167021.23999999999,"N_COORD97":2540468.1899999999,"ADDRESS":"金華路一段１００巷１７號","OBJECTID":370945},"geometry":{"x":167021.24000000022,"y":2540468.1899999995}},{"attributes":{"ID":370956,"DIS_CODE":0,"TOWNNAME":"南區","LI":"明興里","LIN":"12鄰","STREET":"金華路","SECT":"一段","MAREA":" ","LANE":"１００巷","ALLEY":" ","HOUSE_NO":"１８號","E_COORD97":167025.12,"N_COORD97":2540467.6899999999,"ADDRESS":"金華路一段１００巷１８號","OBJECTID":370946},"geometry":{"x":167025.12000000104,"y":2540467.6899999995}},{"attributes":{"ID":370957,"DIS_CODE":0,"TOWNNAME":"南區","LI":"明興里","LIN":"12鄰","STREET":"金華路","SECT":"一段","MAREA":" ","LANE":"１００巷","ALLEY":" ","HOUSE_NO":"１９號","E_COORD97":167029.91,"N_COORD97":2540468.77,"ADDRESS":"金華路一段１００巷１９號","OBJECTID":370947},"geometry":{"x":167029.91000000108,"y":2540468.7700000033}},{"attributes":{"ID":370958,"DIS_CODE":0,"TOWNNAME":"南區","LI":"明興里","LIN":"12鄰","STREET":"金華路","SECT":"一段","MAREA":" ","LANE":"１００巷","ALLEY":" ","HOUSE_NO":"２０號","E_COORD97":167033.79999999999,"N_COORD97":2540468.52,"ADDRESS":"金華路一段１００巷２０號","OBJECTID":370948},"geometry":{"x":167033.79999999981,"y":2540468.5200000014}},{"attributes":{"ID":370959,"DIS_CODE":0,"TOWNNAME":"南區","LI":"明興里","LIN":"12鄰","STREET":"金華路","SECT":"一段","MAREA":" ","LANE":"１００巷","ALLEY":" ","HOUSE_NO":"２１號","E_COORD97":167038.34,"N_COORD97":2540469.5099999998,"ADDRESS":"金華路一段１００巷２１號","OBJECTID":370949},"geometry":{"x":167038.34000000078,"y":2540469.5099999998}},{"attributes":{"ID":370960,"DIS_CODE":0,"TOWNNAME":"南區","LI":"明興里","LIN":"12鄰","STREET":"金華路","SECT":"一段","MAREA":" ","LANE":"１００巷","ALLEY":" ","HOUSE_NO":"２２號","E_COORD97":167042.79999999999,"N_COORD97":2540469.6699999999,"ADDRESS":"金華路一段１００巷２２號","OBJECTID":370950},"geometry":{"x":167042.79999999981,"y":2540469.6699999981}},{"attributes":{"ID":370961,"DIS_CODE":0,"TOWNNAME":"南區","LI":"明興里","LIN":"12鄰","STREET":"金華路","SECT":"一段","MAREA":" ","LANE":"１００巷","ALLEY":" ","HOUSE_NO":"２３號","E_COORD97":167046.60000000001,"N_COORD97":2540468.8500000001,"ADDRESS":"金華路一段１００巷２３號","OBJECTID":370951},"geometry":{"x":167046.60000000056,"y":2540468.8500000015}},{"attributes":{"ID":370962,"DIS_CODE":0,"TOWNNAME":"南區","LI":"明興里","LIN":"12鄰","STREET":"金華路","SECT":"一段","MAREA":" ","LANE":"１００巷","ALLEY":" ","HOUSE_NO":"２４號","E_COORD97":167051.37,"N_COORD97":2540470.0899999999,"ADDRESS":"金華路一段１００巷２４號","OBJECTID":370952},"geometry":{"x":167051.37000000197,"y":2540470.089999998}},{"attributes":{"ID":370963,"DIS_CODE":0,"TOWNNAME":"南區","LI":"明興里","LIN":"12鄰","STREET":"金華路","SECT":"一段","MAREA":" ","LANE":"１００巷","ALLEY":" ","HOUSE_NO":"２５號","E_COORD97":167056.32999999999,"N_COORD97":2540470.0899999999,"ADDRESS":"金華路一段１００巷２５號","OBJECTID":370953},"geometry":{"x":167056.33000000007,"y":2540470.089999998}},{"attributes":{"ID":370964,"DIS_CODE":0,"TOWNNAME":"善化區","LI":"文昌里","LIN":"12鄰","STREET":"中和街","SECT":" ","MAREA":" ","LANE":"４０巷","ALLEY":" ","HOUSE_NO":"９號","E_COORD97":177441.16,"N_COORD97":2558900.75,"ADDRESS":"中和街４０巷９號","OBJECTID":370954},"geometry":{"x":177441.16000000108,"y":2558900.7500000019}},{"attributes":{"ID":370965,"DIS_CODE":0,"TOWNNAME":"南區","LI":"明興里","LIN":"12鄰","STREET":"金華路","SECT":"一段","MAREA":" ","LANE":"１００巷","ALLEY":" ","HOUSE_NO":"２６號","E_COORD97":167061.37,"N_COORD97":2540471.6499999999,"ADDRESS":"金華路一段１００巷２６號","OBJECTID":370955},"geometry":{"x":167061.37000000011,"y":2540471.6500000022}},{"attributes":{"ID":370966,"DIS_CODE":0,"TOWNNAME":"南區","LI":"明興里","LIN":"12鄰","STREET":"金華路","SECT":"一段","MAREA":" ","LANE":"１００巷","ALLEY":" ","HOUSE_NO":"２７號","E_COORD97":167066.57999999999,"N_COORD97":2540472.9700000002,"ADDRESS":"金華路一段１００巷２７號","OBJECTID":370956},"geometry":{"x":167066.58000000007,"y":2540472.9700000025}},{"attributes":{"ID":370967,"DIS_CODE":0,"TOWNNAME":"南區","LI":"明興里","LIN":"12鄰","STREET":"金華路","SECT":"一段","MAREA":" ","LANE":"１００巷","ALLEY":" ","HOUSE_NO":"２８號","E_COORD97":167071.14999999999,"N_COORD97":2540473.7999999998,"ADDRESS":"金華路一段１００巷２８號","OBJECTID":370957},"geometry":{"x":167071.15000000037,"y":2540473.8000000026}},{"attributes":{"ID":370968,"DIS_CODE":0,"TOWNNAME":"南區","LI":"明興里","LIN":"12鄰","STREET":"金華路","SECT":"一段","MAREA":" ","LANE":"１００巷","ALLEY":" ","HOUSE_NO":"２９號","E_COORD97":167075.94,"N_COORD97":2540473.3900000001,"ADDRESS":"金華路一段１００巷２９號","OBJECTID":370958},"geometry":{"x":167075.94000000041,"y":2540473.3900000025}},{"attributes":{"ID":370969,"DIS_CODE":0,"TOWNNAME":"南區","LI":"明興里","LIN":"12鄰","STREET":"金華路","SECT":"一段","MAREA":" ","LANE":"１００巷","ALLEY":" ","HOUSE_NO":"３０號","E_COORD97":167081.39000000001,"N_COORD97":2540473.6299999999,"ADDRESS":"金華路一段１００巷３０號","OBJECTID":370959},"geometry":{"x":167081.39000000153,"y":2540473.6300000008}},{"attributes":{"ID":370970,"DIS_CODE":0,"TOWNNAME":"南區","LI":"明興里","LIN":"12鄰","STREET":"金華路","SECT":"一段","MAREA":" ","LANE":"１００巷","ALLEY":" ","HOUSE_NO":"３１號","E_COORD97":167085.60000000001,"N_COORD97":2540474.6200000001,"ADDRESS":"金華路一段１００巷３１號","OBJECTID":370960},"geometry":{"x":167085.60000000056,"y":2540474.6199999992}},{"attributes":{"ID":370971,"DIS_CODE":0,"TOWNNAME":"南區","LI":"明興里","LIN":"12鄰","STREET":"金華路","SECT":"一段","MAREA":" ","LANE":"１００巷","ALLEY":" ","HOUSE_NO":"３２號","E_COORD97":167090.73000000001,"N_COORD97":2540475.04,"ADDRESS":"金華路一段１００巷３２號","OBJECTID":370961},"geometry":{"x":167090.73000000138,"y":2540475.0399999991}},{"attributes":{"ID":370972,"DIS_CODE":0,"TOWNNAME":"南區","LI":"明興里","LIN":"12鄰","STREET":"金華路","SECT":"一段","MAREA":" ","LANE":"１００巷","ALLEY":" ","HOUSE_NO":"３６號","E_COORD97":167111.10999999999,"N_COORD97":2540476.8500000001,"ADDRESS":"金華路一段１００巷３６號","OBJECTID":370962},"geometry":{"x":167111.1100000022,"y":2540476.8499999996}},{"attributes":{"ID":370973,"DIS_CODE":0,"TOWNNAME":"南區","LI":"明興里","LIN":"12鄰","STREET":"金華路","SECT":"一段","MAREA":" ","LANE":"１００巷","ALLEY":" ","HOUSE_NO":"３７號","E_COORD97":167115.41,"N_COORD97":2540478.0099999998,"ADDRESS":"金華路一段１００巷３７號","OBJECTID":370963},"geometry":{"x":167115.41000000015,"y":2540478.0100000016}},{"attributes":{"ID":370974,"DIS_CODE":0,"TOWNNAME":"南區","LI":"明興里","LIN":"12鄰","STREET":"金華路","SECT":"一段","MAREA":" ","LANE":"１００巷","ALLEY":" ","HOUSE_NO":"３８號","E_COORD97":167120.78,"N_COORD97":2540477.4300000002,"ADDRESS":"金華路一段１００巷３８號","OBJECTID":370964},"geometry":{"x":167120.78000000119,"y":2540477.4299999997}},{"attributes":{"ID":370975,"DIS_CODE":0,"TOWNNAME":"南區","LI":"明興里","LIN":"12鄰","STREET":"金華路","SECT":"一段","MAREA":" ","LANE":"１００巷","ALLEY":" ","HOUSE_NO":"３９號","E_COORD97":167125.48999999999,"N_COORD97":2540478.0099999998,"ADDRESS":"金華路一段１００巷３９號","OBJECTID":370965},"geometry":{"x":167125.49000000115,"y":2540478.0100000016}},{"attributes":{"ID":370976,"DIS_CODE":0,"TOWNNAME":"南區","LI":"明興里","LIN":"12鄰","STREET":"金華路","SECT":"一段","MAREA":" ","LANE":"１００巷","ALLEY":" ","HOUSE_NO":"４０號","E_COORD97":167130.53,"N_COORD97":2540478.5899999999,"ADDRESS":"金華路一段１００巷４０號","OBJECTID":370966},"geometry":{"x":167130.53000000119,"y":2540478.5900000017}},{"attributes":{"ID":370977,"DIS_CODE":0,"TOWNNAME":"南區","LI":"明興里","LIN":"12鄰","STREET":"金華路","SECT":"一段","MAREA":" ","LANE":"１００巷","ALLEY":" ","HOUSE_NO":"４１號","E_COORD97":167135.70999999999,"N_COORD97":2540479.1699999999,"ADDRESS":"金華路一段１００巷４１號","OBJECTID":370967},"geometry":{"x":167135.71000000089,"y":2540479.1699999999}},{"attributes":{"ID":370978,"DIS_CODE":0,"TOWNNAME":"南區","LI":"明興里","LIN":"12鄰","STREET":"金華路","SECT":"一段","MAREA":" ","LANE":"１００巷","ALLEY":" ","HOUSE_NO":"４２號","E_COORD97":167141.82999999999,"N_COORD97":2540475.04,"ADDRESS":"金華路一段１００巷４２號","OBJECTID":370968},"geometry":{"x":167141.83000000101,"y":2540475.0399999991}},{"attributes":{"ID":370979,"DIS_CODE":0,"TOWNNAME":"南區","LI":"明興里","LIN":"12鄰","STREET":"金華路","SECT":"一段","MAREA":" ","LANE":"１００巷","ALLEY":" ","HOUSE_NO":"４３號","E_COORD97":167150.57999999999,"N_COORD97":2540476.0299999998,"ADDRESS":"金華路一段１００巷４３號","OBJECTID":370969},"geometry":{"x":167150.58000000101,"y":2540476.0299999993}},{"attributes":{"ID":370980,"DIS_CODE":0,"TOWNNAME":"南區","LI":"明興里","LIN":"12鄰","STREET":"金華路","SECT":"一段","MAREA":" ","LANE":"１００巷","ALLEY":" ","HOUSE_NO":"４４號","E_COORD97":167156.42000000001,"N_COORD97":2540476.2799999998,"ADDRESS":"金華路一段１００巷４４號","OBJECTID":370970},"geometry":{"x":167156.42000000086,"y":2540476.2800000012}},{"attributes":{"ID":370981,"DIS_CODE":0,"TOWNNAME":"南區","LI":"明興里","LIN":"12鄰","STREET":"金華路","SECT":"一段","MAREA":" ","LANE":"１００巷","ALLEY":" ","HOUSE_NO":"４５號","E_COORD97":167164.60000000001,"N_COORD97":2540477.02,"ADDRESS":"金華路一段１００巷４５號","OBJECTID":370971},"geometry":{"x":167164.60000000149,"y":2540477.0199999996}},{"attributes":{"ID":370982,"DIS_CODE":0,"TOWNNAME":"南區","LI":"永寧里","LIN":"12鄰","STREET":"灣裡路","SECT":" ","MAREA":" ","LANE":"８８巷","ALLEY":" ","HOUSE_NO":"１７６號之１","E_COORD97":165925.48000000001,"N_COORD97":2536412.3599999999,"ADDRESS":"灣裡路８８巷１７６號之１","OBJECTID":370972},"geometry":{"x":165925.48000000231,"y":2536412.3599999994}},{"attributes":{"ID":370983,"DIS_CODE":0,"TOWNNAME":"南區","LI":"建南里","LIN":"12鄰","STREET":"中華南路","SECT":"二段","MAREA":" ","LANE":"１７７巷","ALLEY":" ","HOUSE_NO":"２號","E_COORD97":167044.73999999999,"N_COORD97":2540215.29,"ADDRESS":"中華南路二段１７７巷２號","OBJECTID":370973},"geometry":{"x":167044.74000000115,"y":2540215.290000001}},{"attributes":{"ID":370984,"DIS_CODE":0,"TOWNNAME":"南區","LI":"建南里","LIN":"12鄰","STREET":"中華南路","SECT":"二段","MAREA":" ","LANE":"１７７巷","ALLEY":" ","HOUSE_NO":"６號之１","E_COORD97":167042.25,"N_COORD97":2540198.2000000002,"ADDRESS":"中華南路二段１７７巷６號之１","OBJECTID":370974},"geometry":{"x":167042.25000000093,"y":2540198.2000000011}},{"attributes":{"ID":370985,"DIS_CODE":0,"TOWNNAME":"南區","LI":"建南里","LIN":"12鄰","STREET":"中華南路","SECT":"二段","MAREA":" ","LANE":"１７７巷","ALLEY":" ","HOUSE_NO":"３１號","E_COORD97":167108.35000000001,"N_COORD97":2540186.1099999999,"ADDRESS":"中華南路二段１７７巷３１號","OBJECTID":370975},"geometry":{"x":167108.34999999963,"y":2540186.1100000013}},{"attributes":{"ID":370986,"DIS_CODE":0,"TOWNNAME":"南區","LI":"建南里","LIN":"12鄰","STREET":"中華南路","SECT":"二段","MAREA":" ","LANE":"１７７巷","ALLEY":" ","HOUSE_NO":"３３號","E_COORD97":167107,"N_COORD97":2540180.4399999999,"ADDRESS":"中華南路二段１７７巷３３號","OBJECTID":370976},"geometry":{"x":167107.00000000093,"y":2540180.4400000013}},{"attributes":{"ID":370987,"DIS_CODE":0,"TOWNNAME":"南區","LI":"建南里","LIN":"12鄰","STREET":"中華南路","SECT":"二段","MAREA":" ","LANE":"１７７巷","ALLEY":" ","HOUSE_NO":"３５號","E_COORD97":167107.54000000001,"N_COORD97":2540174.5099999998,"ADDRESS":"中華南路二段１７７巷３５號","OBJECTID":370977},"geometry":{"x":167107.54000000004,"y":2540174.5099999998}},{"attributes":{"ID":370988,"DIS_CODE":0,"TOWNNAME":"南區","LI":"建南里","LIN":"12鄰","STREET":"中華南路","SECT":"二段","MAREA":" ","LANE":"１７７巷","ALLEY":" ","HOUSE_NO":"３７號","E_COORD97":167108.07999999999,"N_COORD97":2540169.3799999999,"ADDRESS":"中華南路二段１７７巷３７號","OBJECTID":370978},"geometry":{"x":167108.08000000101,"y":2540169.3800000008}},{"attributes":{"ID":370989,"DIS_CODE":0,"TOWNNAME":"南區","LI":"建南里","LIN":"12鄰","STREET":"中華南路","SECT":"二段","MAREA":" ","LANE":"１７７巷","ALLEY":" ","HOUSE_NO":"３９號","E_COORD97":167108.14999999999,"N_COORD97":2540156.5499999998,"ADDRESS":"中華南路二段１７７巷３９號","OBJECTID":370979},"geometry":{"x":167108.1500000013,"y":2540156.5500000026}},{"attributes":{"ID":370990,"DIS_CODE":0,"TOWNNAME":"南區","LI":"建南里","LIN":"12鄰","STREET":"中華南路","SECT":"二段","MAREA":" ","LANE":"１７７巷","ALLEY":" ","HOUSE_NO":"４１號","E_COORD97":167106.89999999999,"N_COORD97":2540152.3700000001,"ADDRESS":"中華南路二段１７７巷４１號","OBJECTID":370980},"geometry":{"x":167106.90000000037,"y":2540152.3700000029}},{"attributes":{"ID":370991,"DIS_CODE":0,"TOWNNAME":"南區","LI":"建南里","LIN":"12鄰","STREET":"中華南路","SECT":"二段","MAREA":" ","LANE":"１７７巷","ALLEY":" ","HOUSE_NO":"４２號","E_COORD97":167081.70000000001,"N_COORD97":2540084.48,"ADDRESS":"中華南路二段１７７巷４２號","OBJECTID":370981},"geometry":{"x":167081.70000000112,"y":2540084.4800000004}},{"attributes":{"ID":370992,"DIS_CODE":0,"TOWNNAME":"南區","LI":"建南里","LIN":"12鄰","STREET":"中華南路","SECT":"二段","MAREA":" ","LANE":"１７７巷","ALLEY":" ","HOUSE_NO":"４２號之１","E_COORD97":167080.39000000001,"N_COORD97":2540080.73,"ADDRESS":"中華南路二段１７７巷４２號之１","OBJECTID":370982},"geometry":{"x":167080.3900000006,"y":2540080.7300000023}},{"attributes":{"ID":370993,"DIS_CODE":0,"TOWNNAME":"南區","LI":"建南里","LIN":"12鄰","STREET":"中華南路","SECT":"二段","MAREA":" ","LANE":"１７７巷","ALLEY":" ","HOUSE_NO":"４３號","E_COORD97":167107.31,"N_COORD97":2540147.7599999998,"ADDRESS":"中華南路二段１７７巷４３號","OBJECTID":370983},"geometry":{"x":167107.31000000145,"y":2540147.7600000016}},{"attributes":{"ID":370994,"DIS_CODE":0,"TOWNNAME":"南區","LI":"建南里","LIN":"12鄰","STREET":"中華南路","SECT":"二段","MAREA":" ","LANE":"１７７巷","ALLEY":" ","HOUSE_NO":"４５號","E_COORD97":167107.17999999999,"N_COORD97":2540144.1299999999,"ADDRESS":"中華南路二段１７７巷４５號","OBJECTID":370984},"geometry":{"x":167107.18000000063,"y":2540144.1300000008}},{"attributes":{"ID":370995,"DIS_CODE":0,"TOWNNAME":"永康區","LI":"中華里","LIN":"12鄰","STREET":"小東路","SECT":" ","MAREA":" ","LANE":"５９１巷","ALLEY":" ","HOUSE_NO":"４號","E_COORD97":171840.85999999999,"N_COORD97":2544388.0600000001,"ADDRESS":"小東路５９１巷４號","OBJECTID":370985},"geometry":{"x":171840.86000000127,"y":2544388.0600000024}},{"attributes":{"ID":370996,"DIS_CODE":0,"TOWNNAME":"南區","LI":"建南里","LIN":"12鄰","STREET":"中華南路","SECT":"二段","MAREA":" ","LANE":"１７７巷","ALLEY":" ","HOUSE_NO":"４６號","E_COORD97":167080.07000000001,"N_COORD97":2540077.1400000001,"ADDRESS":"中華南路二段１７７巷４６號","OBJECTID":370986},"geometry":{"x":167080.0700000003,"y":2540077.1400000006}},{"attributes":{"ID":370997,"DIS_CODE":0,"TOWNNAME":"東區","LI":"和平里","LIN":"1鄰","STREET":"文化一街","SECT":" ","MAREA":" ","LANE":" ","ALLEY":" ","HOUSE_NO":"６號二樓","E_COORD97":171099.45000000001,"N_COORD97":2542097.2200000002,"ADDRESS":"文化一街６號二樓","OBJECTID":370987},"geometry":{"x":171099.45000000112,"y":2542097.2200000007}},{"attributes":{"ID":370998,"DIS_CODE":0,"TOWNNAME":"南區","LI":"建南里","LIN":"12鄰","STREET":"中華南路","SECT":"二段","MAREA":" ","LANE":"１７７巷","ALLEY":" ","HOUSE_NO":"４７號","E_COORD97":167106.62,"N_COORD97":2540140.5099999998,"ADDRESS":"中華南路二段１７７巷４７號","OBJECTID":370988},"geometry":{"x":167106.62000000011,"y":2540140.5099999998}},{"attributes":{"ID":370999,"DIS_CODE":0,"TOWNNAME":"南區","LI":"建南里","LIN":"12鄰","STREET":"中華南路","SECT":"二段","MAREA":" ","LANE":"１７７巷","ALLEY":" ","HOUSE_NO":"４８號","E_COORD97":167078.76000000001,"N_COORD97":2540072.3999999999,"ADDRESS":"中華南路二段１７７巷４８號","OBJECTID":370989},"geometry":{"x":167078.75999999978,"y":2540072.4000000041}},{"attributes":{"ID":371000,"DIS_CODE":0,"TOWNNAME":"南區","LI":"建南里","LIN":"12鄰","STREET":"中華南路","SECT":"二段","MAREA":" ","LANE":"１７７巷","ALLEY":" ","HOUSE_NO":"４９號","E_COORD97":167105.5,"N_COORD97":2540135.6299999999,"ADDRESS":"中華南路二段１７７巷４９號","OBJECTID":370990},"geometry":{"x":167105.5,"y":2540135.629999999}},{"attributes":{"ID":371001,"DIS_CODE":0,"TOWNNAME":"南區","LI":"建南里","LIN":"12鄰","STREET":"中華南路","SECT":"二段","MAREA":" ","LANE":"１７７巷","ALLEY":" ","HOUSE_NO":"５０號","E_COORD97":167078.60000000001,"N_COORD97":2540068.3199999998,"ADDRESS":"中華南路二段１７７巷５０號","OBJECTID":370991},"geometry":{"x":167078.60000000056,"y":2540068.3200000003}},{"attributes":{"ID":371002,"DIS_CODE":0,"TOWNNAME":"南區","LI":"建南里","LIN":"12鄰","STREET":"中華南路","SECT":"二段","MAREA":" ","LANE":"１７７巷","ALLEY":" ","HOUSE_NO":"５２號","E_COORD97":167077.94,"N_COORD97":2540063.9100000001,"ADDRESS":"中華南路二段１７７巷５２號","OBJECTID":370992},"geometry":{"x":167077.94000000041,"y":2540063.9100000001}},{"attributes":{"ID":371003,"DIS_CODE":0,"TOWNNAME":"新化區","LI":"東榮里","LIN":"12鄰","STREET":"中興路","SECT":" ","MAREA":" ","LANE":"５５４巷","ALLEY":" ","HOUSE_NO":"２號","E_COORD97":179920.10999999999,"N_COORD97":2547949.25,"ADDRESS":"中興路５５４巷２號","OBJECTID":370993},"geometry":{"x":179920.11000000127,"y":2547949.2500000019}},{"attributes":{"ID":371004,"DIS_CODE":0,"TOWNNAME":"新化區","LI":"太平里","LIN":"12鄰","STREET":"中正路","SECT":" ","MAREA":" ","LANE":"６３３巷","ALLEY":" ","HOUSE_NO":"２８號","E_COORD97":178757.56,"N_COORD97":2548921.25,"ADDRESS":"中正路６３３巷２８號","OBJECTID":370994},"geometry":{"x":178757.55999999959,"y":2548921.25}},{"attributes":{"ID":371005,"DIS_CODE":0,"TOWNNAME":"新化區","LI":"太平里","LIN":"12鄰","STREET":"中正路","SECT":" ","MAREA":" ","LANE":"６９１巷","ALLEY":" ","HOUSE_NO":"２１號","E_COORD97":178783.76000000001,"N_COORD97":2548998.25,"ADDRESS":"中正路６９１巷２１號","OBJECTID":370995},"geometry":{"x":178783.75999999978,"y":2548998.25}},{"attributes":{"ID":371006,"DIS_CODE":0,"TOWNNAME":"新化區","LI":"東榮里","LIN":"12鄰","STREET":"中興路","SECT":" ","MAREA":" ","LANE":"５５４巷","ALLEY":" ","HOUSE_NO":"３０號","E_COORD97":179921.16,"N_COORD97":2548010.25,"ADDRESS":"中興路５５４巷３０號","OBJECTID":370996},"geometry":{"x":179921.16000000201,"y":2548010.2500000019}},{"attributes":{"ID":371007,"DIS_CODE":0,"TOWNNAME":"新化區","LI":"太平里","LIN":"12鄰","STREET":"中正路","SECT":" ","MAREA":" ","LANE":"６３３巷","ALLEY":" ","HOUSE_NO":"２４號","E_COORD97":178766.45999999999,"N_COORD97":2548922.25,"ADDRESS":"中正路６３３巷２４號","OBJECTID":370997},"geometry":{"x":178766.46000000089,"y":2548922.2500000019}},{"attributes":{"ID":371008,"DIS_CODE":0,"TOWNNAME":"新化區","LI":"武安里","LIN":"12鄰","STREET":"正新南路","SECT":" ","MAREA":" ","LANE":"１３３巷","ALLEY":" ","HOUSE_NO":"１號","E_COORD97":178831.07000000001,"N_COORD97":2547938.25,"ADDRESS":"正新南路１３３巷１號","OBJECTID":370998},"geometry":{"x":178831.0700000003,"y":2547938.2499999981}},{"attributes":{"ID":371009,"DIS_CODE":0,"TOWNNAME":"新化區","LI":"太平里","LIN":"12鄰","STREET":"中正路","SECT":" ","MAREA":" ","LANE":"６３３巷","ALLEY":" ","HOUSE_NO":"６號之１","E_COORD97":178878.34,"N_COORD97":2548925.2599999998,"ADDRESS":"中正路６３３巷６號之１","OBJECTID":370999},"geometry":{"x":178878.33999999985,"y":2548925.2600000016}},{"attributes":{"ID":371010,"DIS_CODE":0,"TOWNNAME":"新化區","LI":"太平里","LIN":"12鄰","STREET":"中正路","SECT":" ","MAREA":" ","LANE":"６３３巷","ALLEY":" ","HOUSE_NO":"１２號","E_COORD97":178815.45999999999,"N_COORD97":2548920.25,"ADDRESS":"中正路６３３巷１２號","OBJECTID":371000},"geometry":{"x":178815.46000000089,"y":2548920.25}}]}