{"displayFieldName":"TOWNNAME","fieldAliases":{"ID":"ID","DIS_CODE":"DIS_CODE","TOWNNAME":"TOWNNAME","LI":"LI","LIN":"LIN","STREET":"STREET","SECT":"SECT","MAREA":"MAREA","LANE":"LANE","ALLEY":"ALLEY","HOUSE_NO":"HOUSE_NO","E_COORD97":"E_COORD97","N_COORD97":"N_COORD97","ADDRESS":"ADDRESS","OBJECTID":"OBJECTID"},"geometryType":"esriGeometryPoint","spatialReference":{"wkid":102443,"latestWkid":3826},"fields":[{"name":"ID","type":"esriFieldTypeDouble","alias":"ID"},{"name":"DIS_CODE","type":"esriFieldTypeInteger","alias":"DIS_CODE"},{"name":"TOWNNAME","type":"esriFieldTypeString","alias":"TOWNNAME","length":8},{"name":"LI","type":"esriFieldTypeString","alias":"LI","length":8},{"name":"LIN","type":"esriFieldTypeString","alias":"LIN","length":12},{"name":"STREET","type":"esriFieldTypeString","alias":"STREET","length":20},{"name":"SECT","type":"esriFieldTypeString","alias":"SECT","length":8},{"name":"MAREA","type":"esriFieldTypeString","alias":"MAREA","length":12},{"name":"LANE","type":"esriFieldTypeString","alias":"LANE","length":10},{"name":"ALLEY","type":"esriFieldTypeString","alias":"ALLEY","length":10},{"name":"HOUSE_NO","type":"esriFieldTypeString","alias":"HOUSE_NO","length":20},{"name":"E_COORD97","type":"esriFieldTypeDouble","alias":"E_COORD97"},{"name":"N_COORD97","type":"esriFieldTypeDouble","alias":"N_COORD97"},{"name":"ADDRESS","type":"esriFieldTypeString","alias":"ADDRESS","length":50},{"name":"OBJECTID","type":"esriFieldTypeOID","alias":"OBJECTID"}],"features":[{"attributes":{"ID":536228,"DIS_CODE":0,"TOWNNAME":"玉井區","LI":"玉田里","LIN":"19鄰","STREET":"民族路","SECT":" ","MAREA":" ","LANE":" ","ALLEY":" ","HOUSE_NO":"６８號","E_COORD97":195133.34,"N_COORD97":2558093.2799999998,"ADDRESS":"民族路６８號","OBJECTID":536201},"geometry":{"x":195133.33999999985,"y":2558093.2800000012}},{"attributes":{"ID":536229,"DIS_CODE":0,"TOWNNAME":"玉井區","LI":"玉田里","LIN":"19鄰","STREET":"民族路","SECT":" ","MAREA":" ","LANE":" ","ALLEY":" ","HOUSE_NO":"７６號","E_COORD97":195128.23999999999,"N_COORD97":2558055.29,"ADDRESS":"民族路７６號","OBJECTID":536202},"geometry":{"x":195128.24000000209,"y":2558055.290000001}},{"attributes":{"ID":536230,"DIS_CODE":0,"TOWNNAME":"玉井區","LI":"玉田里","LIN":"19鄰","STREET":"民生路","SECT":" ","MAREA":" ","LANE":" ","ALLEY":" ","HOUSE_NO":"４０２號","E_COORD97":195060.88,"N_COORD97":2557967.2799999998,"ADDRESS":"民生路４０２號","OBJECTID":536203},"geometry":{"x":195060.88000000082,"y":2557967.2800000012}},{"attributes":{"ID":536231,"DIS_CODE":0,"TOWNNAME":"玉井區","LI":"玉田里","LIN":"19鄰","STREET":"民生路","SECT":" ","MAREA":" ","LANE":" ","ALLEY":" ","HOUSE_NO":"４０６號","E_COORD97":195054.29000000001,"N_COORD97":2557969.2799999998,"ADDRESS":"民生路４０６號","OBJECTID":536204},"geometry":{"x":195054.29000000004,"y":2557969.2799999993}},{"attributes":{"ID":536232,"DIS_CODE":0,"TOWNNAME":"玉井區","LI":"玉田里","LIN":"19鄰","STREET":"民族路","SECT":" ","MAREA":" ","LANE":" ","ALLEY":" ","HOUSE_NO":"５０號","E_COORD97":195088.14000000001,"N_COORD97":2558060.2799999998,"ADDRESS":"民族路５０號","OBJECTID":536205},"geometry":{"x":195088.1400000006,"y":2558060.2799999993}},{"attributes":{"ID":536233,"DIS_CODE":0,"TOWNNAME":"玉井區","LI":"玉田里","LIN":"19鄰","STREET":"民生路","SECT":" ","MAREA":" ","LANE":" ","ALLEY":" ","HOUSE_NO":"４０８號","E_COORD97":195051.79000000001,"N_COORD97":2557971.2799999998,"ADDRESS":"民生路４０８號","OBJECTID":536206},"geometry":{"x":195051.79000000097,"y":2557971.2800000012}},{"attributes":{"ID":536234,"DIS_CODE":0,"TOWNNAME":"玉井區","LI":"玉井里","LIN":"19鄰","STREET":"太子街","SECT":" ","MAREA":" ","LANE":" ","ALLEY":" ","HOUSE_NO":"３６號","E_COORD97":194793.98000000001,"N_COORD97":2558053.2599999998,"ADDRESS":"太子街３６號","OBJECTID":536207},"geometry":{"x":194793.98000000045,"y":2558053.2600000016}},{"attributes":{"ID":536235,"DIS_CODE":0,"TOWNNAME":"玉井區","LI":"玉井里","LIN":"19鄰","STREET":"太子街","SECT":" ","MAREA":" ","LANE":" ","ALLEY":" ","HOUSE_NO":"４６號","E_COORD97":194781.17999999999,"N_COORD97":2558070.25,"ADDRESS":"太子街４６號","OBJECTID":536208},"geometry":{"x":194781.18000000063,"y":2558070.2500000019}},{"attributes":{"ID":536236,"DIS_CODE":0,"TOWNNAME":"玉井區","LI":"玉井里","LIN":"19鄰","STREET":"太子街","SECT":" ","MAREA":" ","LANE":" ","ALLEY":" ","HOUSE_NO":"３２號","E_COORD97":194797.89000000001,"N_COORD97":2558050.2599999998,"ADDRESS":"太子街３２號","OBJECTID":536209},"geometry":{"x":194797.8900000006,"y":2558050.2599999998}},{"attributes":{"ID":536237,"DIS_CODE":0,"TOWNNAME":"玉井區","LI":"玉井里","LIN":"19鄰","STREET":"太子街","SECT":" ","MAREA":" ","LANE":" ","ALLEY":" ","HOUSE_NO":"４２號","E_COORD97":194785.38,"N_COORD97":2558065.25,"ADDRESS":"太子街４２號","OBJECTID":536210},"geometry":{"x":194785.37999999989,"y":2558065.2499999981}},{"attributes":{"ID":536238,"DIS_CODE":0,"TOWNNAME":"玉井區","LI":"玉井里","LIN":"19鄰","STREET":"中正路","SECT":" ","MAREA":" ","LANE":" ","ALLEY":" ","HOUSE_NO":"５４號","E_COORD97":194754.60000000001,"N_COORD97":2558108.2400000002,"ADDRESS":"中正路５４號","OBJECTID":536211},"geometry":{"x":194754.60000000056,"y":2558108.2400000002}},{"attributes":{"ID":536239,"DIS_CODE":0,"TOWNNAME":"玉井區","LI":"玉井里","LIN":"19鄰","STREET":"中正路","SECT":" ","MAREA":" ","LANE":" ","ALLEY":" ","HOUSE_NO":"７４號","E_COORD97":194795.60000000001,"N_COORD97":2558135.25,"ADDRESS":"中正路７４號","OBJECTID":536212},"geometry":{"x":194795.59999999963,"y":2558135.25}},{"attributes":{"ID":536240,"DIS_CODE":0,"TOWNNAME":"玉井區","LI":"玉井里","LIN":"19鄰","STREET":"中正路","SECT":" ","MAREA":" ","LANE":" ","ALLEY":" ","HOUSE_NO":"６０號","E_COORD97":194766.10000000001,"N_COORD97":2558126.25,"ADDRESS":"中正路６０號","OBJECTID":536213},"geometry":{"x":194766.10000000056,"y":2558126.25}},{"attributes":{"ID":536241,"DIS_CODE":0,"TOWNNAME":"玉井區","LI":"玉田里","LIN":"19鄰","STREET":"民族路","SECT":" ","MAREA":" ","LANE":" ","ALLEY":" ","HOUSE_NO":"６４號","E_COORD97":195121.23999999999,"N_COORD97":2558094.2799999998,"ADDRESS":"民族路６４號","OBJECTID":536214},"geometry":{"x":195121.23999999929,"y":2558094.2799999993}},{"attributes":{"ID":536242,"DIS_CODE":0,"TOWNNAME":"玉井區","LI":"玉井里","LIN":"19鄰","STREET":"太子街","SECT":" ","MAREA":" ","LANE":" ","ALLEY":" ","HOUSE_NO":"５０號","E_COORD97":194780.89000000001,"N_COORD97":2558086.25,"ADDRESS":"太子街５０號","OBJECTID":536215},"geometry":{"x":194780.8900000006,"y":2558086.2500000019}},{"attributes":{"ID":536243,"DIS_CODE":0,"TOWNNAME":"玉井區","LI":"玉井里","LIN":"19鄰","STREET":"中正路","SECT":" ","MAREA":" ","LANE":" ","ALLEY":" ","HOUSE_NO":"６４號","E_COORD97":194772.89999999999,"N_COORD97":2558135.25,"ADDRESS":"中正路６４號","OBJECTID":536216},"geometry":{"x":194772.90000000224,"y":2558135.25}},{"attributes":{"ID":536244,"DIS_CODE":0,"TOWNNAME":"玉井區","LI":"玉井里","LIN":"19鄰","STREET":"太子街","SECT":" ","MAREA":" ","LANE":" ","ALLEY":" ","HOUSE_NO":"４０號","E_COORD97":194788.67999999999,"N_COORD97":2558056.2599999998,"ADDRESS":"太子街４０號","OBJECTID":536217},"geometry":{"x":194788.6799999997,"y":2558056.2600000016}},{"attributes":{"ID":536245,"DIS_CODE":0,"TOWNNAME":"玉井區","LI":"玉井里","LIN":"19鄰","STREET":"太子街","SECT":" ","MAREA":" ","LANE":" ","ALLEY":" ","HOUSE_NO":"３４號","E_COORD97":194795.79000000001,"N_COORD97":2558052.2599999998,"ADDRESS":"太子街３４號","OBJECTID":536218},"geometry":{"x":194795.79000000097,"y":2558052.2600000016}},{"attributes":{"ID":536246,"DIS_CODE":0,"TOWNNAME":"玉井區","LI":"玉井里","LIN":"19鄰","STREET":"太子街","SECT":" ","MAREA":" ","LANE":" ","ALLEY":" ","HOUSE_NO":"５２號","E_COORD97":194783.98000000001,"N_COORD97":2558090.25,"ADDRESS":"太子街５２號","OBJECTID":536219},"geometry":{"x":194783.98000000045,"y":2558090.2500000019}},{"attributes":{"ID":536247,"DIS_CODE":0,"TOWNNAME":"玉井區","LI":"玉井里","LIN":"19鄰","STREET":"中正路","SECT":" ","MAREA":" ","LANE":" ","ALLEY":" ","HOUSE_NO":"７０號","E_COORD97":194788.20999999999,"N_COORD97":2558136.25,"ADDRESS":"中正路７０號","OBJECTID":536220},"geometry":{"x":194788.20999999996,"y":2558136.25}},{"attributes":{"ID":536248,"DIS_CODE":0,"TOWNNAME":"玉井區","LI":"玉井里","LIN":"19鄰","STREET":"中正路","SECT":" ","MAREA":" ","LANE":" ","ALLEY":" ","HOUSE_NO":"７６號","E_COORD97":194800.01000000001,"N_COORD97":2558135.25,"ADDRESS":"中正路７６號","OBJECTID":536221},"geometry":{"x":194800.00999999978,"y":2558135.25}},{"attributes":{"ID":536249,"DIS_CODE":0,"TOWNNAME":"玉井區","LI":"玉井里","LIN":"19鄰","STREET":"中正路","SECT":" ","MAREA":" ","LANE":" ","ALLEY":" ","HOUSE_NO":"６８號","E_COORD97":194785.51000000001,"N_COORD97":2558137.25,"ADDRESS":"中正路６８號","OBJECTID":536222},"geometry":{"x":194785.51000000071,"y":2558137.2500000019}},{"attributes":{"ID":536250,"DIS_CODE":0,"TOWNNAME":"玉井區","LI":"玉井里","LIN":"19鄰","STREET":"中正路","SECT":" ","MAREA":" ","LANE":" ","ALLEY":" ","HOUSE_NO":"５８號","E_COORD97":194763.20999999999,"N_COORD97":2558122.25,"ADDRESS":"中正路５８號","OBJECTID":536223},"geometry":{"x":194763.20999999996,"y":2558122.25}},{"attributes":{"ID":536251,"DIS_CODE":0,"TOWNNAME":"玉井區","LI":"玉井里","LIN":"19鄰","STREET":"太子街","SECT":" ","MAREA":" ","LANE":" ","ALLEY":" ","HOUSE_NO":"３８號","E_COORD97":194791.39000000001,"N_COORD97":2558055.2599999998,"ADDRESS":"太子街３８號","OBJECTID":536224},"geometry":{"x":194791.3900000006,"y":2558055.2600000035}},{"attributes":{"ID":536252,"DIS_CODE":0,"TOWNNAME":"玉井區","LI":"玉井里","LIN":"19鄰","STREET":"中正路","SECT":" ","MAREA":" ","LANE":" ","ALLEY":" ","HOUSE_NO":"６６號","E_COORD97":194778.89999999999,"N_COORD97":2558137.25,"ADDRESS":"中正路６６號","OBJECTID":536225},"geometry":{"x":194778.90000000037,"y":2558137.2500000019}},{"attributes":{"ID":536253,"DIS_CODE":0,"TOWNNAME":"玉井區","LI":"玉井里","LIN":"19鄰","STREET":"中正路","SECT":" ","MAREA":" ","LANE":" ","ALLEY":" ","HOUSE_NO":"７８號","E_COORD97":194803.60000000001,"N_COORD97":2558135.25,"ADDRESS":"中正路７８號","OBJECTID":536226},"geometry":{"x":194803.60000000056,"y":2558135.25}},{"attributes":{"ID":536254,"DIS_CODE":0,"TOWNNAME":"玉井區","LI":"玉井里","LIN":"19鄰","STREET":"太子街","SECT":" ","MAREA":" ","LANE":" ","ALLEY":" ","HOUSE_NO":"４８號","E_COORD97":194778.88,"N_COORD97":2558076.25,"ADDRESS":"太子街４８號","OBJECTID":536227},"geometry":{"x":194778.87999999989,"y":2558076.2500000019}},{"attributes":{"ID":536255,"DIS_CODE":0,"TOWNNAME":"東區","LI":"泉南里","LIN":"24鄰","STREET":"長榮路","SECT":"一段","MAREA":" ","LANE":" ","ALLEY":" ","HOUSE_NO":"１號","E_COORD97":169592.67999999999,"N_COORD97":2542569.48,"ADDRESS":"長榮路一段１號","OBJECTID":536228},"geometry":{"x":169592.6799999997,"y":2542569.4800000004}},{"attributes":{"ID":536256,"DIS_CODE":0,"TOWNNAME":"玉井區","LI":"玉井里","LIN":"19鄰","STREET":"中正路","SECT":" ","MAREA":" ","LANE":" ","ALLEY":" ","HOUSE_NO":"５６號","E_COORD97":194760.79999999999,"N_COORD97":2558118.25,"ADDRESS":"中正路５６號","OBJECTID":536229},"geometry":{"x":194760.79999999981,"y":2558118.25}},{"attributes":{"ID":536257,"DIS_CODE":0,"TOWNNAME":"歸仁區","LI":"新厝里","LIN":"19鄰","STREET":"大成六街","SECT":" ","MAREA":" ","LANE":" ","ALLEY":" ","HOUSE_NO":"２２號","E_COORD97":177611.94,"N_COORD97":2540308.1800000002,"ADDRESS":"大成六街２２號","OBJECTID":536230},"geometry":{"x":177611.94000000041,"y":2540308.1800000016}},{"attributes":{"ID":536258,"DIS_CODE":0,"TOWNNAME":"歸仁區","LI":"許厝里","LIN":"19鄰","STREET":"忠孝北路","SECT":" ","MAREA":" ","LANE":" ","ALLEY":" ","HOUSE_NO":"８１號","E_COORD97":178341.82000000001,"N_COORD97":2540859.25,"ADDRESS":"忠孝北路８１號","OBJECTID":536231},"geometry":{"x":178341.81999999937,"y":2540859.2500000037}},{"attributes":{"ID":536259,"DIS_CODE":0,"TOWNNAME":"歸仁區","LI":"歸仁里","LIN":"19鄰","STREET":"忠孝北路","SECT":" ","MAREA":" ","LANE":" ","ALLEY":" ","HOUSE_NO":"１５５號","E_COORD97":178180.98999999999,"N_COORD97":2541102.1099999999,"ADDRESS":"忠孝北路１５５號","OBJECTID":536232},"geometry":{"x":178180.99000000022,"y":2541102.1099999994}},{"attributes":{"ID":536260,"DIS_CODE":0,"TOWNNAME":"歸仁區","LI":"新厝里","LIN":"19鄰","STREET":"大成六街","SECT":" ","MAREA":" ","LANE":" ","ALLEY":" ","HOUSE_NO":"３０號","E_COORD97":177598.54000000001,"N_COORD97":2540300.1800000002,"ADDRESS":"大成六街３０號","OBJECTID":536233},"geometry":{"x":177598.54000000004,"y":2540300.1800000034}},{"attributes":{"ID":536261,"DIS_CODE":0,"TOWNNAME":"歸仁區","LI":"六甲里","LIN":"19鄰","STREET":"六甲路","SECT":" ","MAREA":" ","LANE":" ","ALLEY":" ","HOUSE_NO":"５０７號","E_COORD97":175188.13,"N_COORD97":2539313.25,"ADDRESS":"六甲路５０７號","OBJECTID":536234},"geometry":{"x":175188.13000000175,"y":2539313.2500000037}},{"attributes":{"ID":536262,"DIS_CODE":0,"TOWNNAME":"歸仁區","LI":"新厝里","LIN":"19鄰","STREET":"大成二街","SECT":" ","MAREA":" ","LANE":" ","ALLEY":" ","HOUSE_NO":"２３號","E_COORD97":177575.14000000001,"N_COORD97":2540334.1800000002,"ADDRESS":"大成二街２３號","OBJECTID":536235},"geometry":{"x":177575.1400000006,"y":2540334.1800000034}},{"attributes":{"ID":536263,"DIS_CODE":0,"TOWNNAME":"歸仁區","LI":"新厝里","LIN":"19鄰","STREET":"大成二街","SECT":" ","MAREA":" ","LANE":" ","ALLEY":" ","HOUSE_NO":"２９號","E_COORD97":177563.84,"N_COORD97":2540327.1800000002,"ADDRESS":"大成二街２９號","OBJECTID":536236},"geometry":{"x":177563.84000000078,"y":2540327.1800000034}},{"attributes":{"ID":536264,"DIS_CODE":0,"TOWNNAME":"歸仁區","LI":"歸仁里","LIN":"19鄰","STREET":"忠孝北路","SECT":" ","MAREA":" ","LANE":" ","ALLEY":" ","HOUSE_NO":"１５１號","E_COORD97":178185.09,"N_COORD97":2541095.1099999999,"ADDRESS":"忠孝北路１５１號","OBJECTID":536237},"geometry":{"x":178185.08999999985,"y":2541095.1100000013}},{"attributes":{"ID":536265,"DIS_CODE":0,"TOWNNAME":"歸仁區","LI":"歸仁里","LIN":"19鄰","STREET":"忠孝北路","SECT":" ","MAREA":" ","LANE":" ","ALLEY":" ","HOUSE_NO":"１３５號","E_COORD97":178211.92000000001,"N_COORD97":2541056.1099999999,"ADDRESS":"忠孝北路１３５號","OBJECTID":536238},"geometry":{"x":178211.91999999899,"y":2541056.1099999975}},{"attributes":{"ID":536266,"DIS_CODE":0,"TOWNNAME":"歸仁區","LI":"新厝里","LIN":"19鄰","STREET":"大成二街","SECT":" ","MAREA":" ","LANE":" ","ALLEY":" ","HOUSE_NO":"１９號","E_COORD97":177582.34,"N_COORD97":2540339.1800000002,"ADDRESS":"大成二街１９號","OBJECTID":536239},"geometry":{"x":177582.34000000078,"y":2540339.1799999997}},{"attributes":{"ID":536267,"DIS_CODE":0,"TOWNNAME":"歸仁區","LI":"新厝里","LIN":"19鄰","STREET":"大成六街","SECT":" ","MAREA":" ","LANE":" ","ALLEY":" ","HOUSE_NO":"４０號","E_COORD97":177579.04000000001,"N_COORD97":2540291.1800000002,"ADDRESS":"大成六街４０號","OBJECTID":536240},"geometry":{"x":177579.0400000019,"y":2540291.1800000016}},{"attributes":{"ID":536268,"DIS_CODE":0,"TOWNNAME":"歸仁區","LI":"歸仁里","LIN":"19鄰","STREET":"大仁街","SECT":" ","MAREA":" ","LANE":" ","ALLEY":" ","HOUSE_NO":"１２５號","E_COORD97":178180.76999999999,"N_COORD97":2541026.1099999999,"ADDRESS":"大仁街１２５號","OBJECTID":536241},"geometry":{"x":178180.77000000048,"y":2541026.1100000013}},{"attributes":{"ID":536269,"DIS_CODE":0,"TOWNNAME":"麻豆區","LI":"\u25A0江里","LIN":"19鄰","STREET":"民生路","SECT":" ","MAREA":" ","LANE":" ","ALLEY":" ","HOUSE_NO":"１０號之１","E_COORD97":173559.79999999999,"N_COORD97":2564769.9300000002,"ADDRESS":"民生路１０號之１","OBJECTID":536242},"geometry":{"x":173559.80000000075,"y":2564769.9299999978}},{"attributes":{"ID":536270,"DIS_CODE":0,"TOWNNAME":"麻豆區","LI":"\u25A0江里","LIN":"19鄰","STREET":"民生路","SECT":" ","MAREA":" ","LANE":" ","ALLEY":" ","HOUSE_NO":"１０號之２","E_COORD97":173558.38,"N_COORD97":2564773.8999999999,"ADDRESS":"民生路１０號之２","OBJECTID":536243},"geometry":{"x":173558.37999999989,"y":2564773.9000000004}},{"attributes":{"ID":536271,"DIS_CODE":0,"TOWNNAME":"麻豆區","LI":"\u25A0江里","LIN":"19鄰","STREET":"民生路","SECT":" ","MAREA":" ","LANE":" ","ALLEY":" ","HOUSE_NO":"１０號之３","E_COORD97":173557.25,"N_COORD97":2564777.5299999998,"ADDRESS":"民生路１０號之３","OBJECTID":536244},"geometry":{"x":173557.25000000093,"y":2564777.5300000012}},{"attributes":{"ID":536272,"DIS_CODE":0,"TOWNNAME":"北區","LI":"中樓里","LIN":"19鄰","STREET":"勝利路","SECT":" ","MAREA":" ","LANE":" ","ALLEY":" ","HOUSE_NO":"３８７號","E_COORD97":169909.44,"N_COORD97":2544944.3999999999,"ADDRESS":"勝利路３８７號","OBJECTID":536245},"geometry":{"x":169909.44000000227,"y":2544944.4000000022}},{"attributes":{"ID":536273,"DIS_CODE":0,"TOWNNAME":"北區","LI":"中樓里","LIN":"19鄰","STREET":"勝利路","SECT":" ","MAREA":" ","LANE":" ","ALLEY":" ","HOUSE_NO":"３８９號","E_COORD97":169909.23000000001,"N_COORD97":2544948.7200000002,"ADDRESS":"勝利路３８９號","OBJECTID":536246},"geometry":{"x":169909.23000000231,"y":2544948.7200000007}},{"attributes":{"ID":536274,"DIS_CODE":0,"TOWNNAME":"北區","LI":"中樓里","LIN":"19鄰","STREET":"勝利路","SECT":" ","MAREA":" ","LANE":" ","ALLEY":" ","HOUSE_NO":"３９１號","E_COORD97":169909.85999999999,"N_COORD97":2544953.6400000001,"ADDRESS":"勝利路３９１號","OBJECTID":536247},"geometry":{"x":169909.8600000022,"y":2544953.6400000025}},{"attributes":{"ID":536275,"DIS_CODE":0,"TOWNNAME":"北區","LI":"中樓里","LIN":"19鄰","STREET":"勝利路","SECT":" ","MAREA":" ","LANE":" ","ALLEY":" ","HOUSE_NO":"３９３號","E_COORD97":169909.76000000001,"N_COORD97":2544958.0600000001,"ADDRESS":"勝利路３９３號","OBJECTID":536248},"geometry":{"x":169909.75999999885,"y":2544958.0600000024}},{"attributes":{"ID":536276,"DIS_CODE":0,"TOWNNAME":"北區","LI":"中樓里","LIN":"19鄰","STREET":"勝利路","SECT":" ","MAREA":" ","LANE":" ","ALLEY":" ","HOUSE_NO":"３９５號","E_COORD97":169910.17999999999,"N_COORD97":2544963.54,"ADDRESS":"勝利路３９５號","OBJECTID":536249},"geometry":{"x":169910.1799999997,"y":2544963.540000001}},{"attributes":{"ID":536277,"DIS_CODE":0,"TOWNNAME":"北區","LI":"中樓里","LIN":"19鄰","STREET":"勝利路","SECT":" ","MAREA":" ","LANE":" ","ALLEY":" ","HOUSE_NO":"３９７號","E_COORD97":169910.92000000001,"N_COORD97":2544968.8100000001,"ADDRESS":"勝利路３９７號","OBJECTID":536250},"geometry":{"x":169910.92000000086,"y":2544968.8100000042}},{"attributes":{"ID":536278,"DIS_CODE":0,"TOWNNAME":"北區","LI":"中樓里","LIN":"19鄰","STREET":"勝利路","SECT":" ","MAREA":" ","LANE":" ","ALLEY":" ","HOUSE_NO":"３９９號","E_COORD97":169911.23000000001,"N_COORD97":2544972.3900000001,"ADDRESS":"勝利路３９９號","OBJECTID":536251},"geometry":{"x":169911.23000000138,"y":2544972.3900000025}},{"attributes":{"ID":536279,"DIS_CODE":0,"TOWNNAME":"北區","LI":"中樓里","LIN":"19鄰","STREET":"勝利路","SECT":" ","MAREA":" ","LANE":" ","ALLEY":" ","HOUSE_NO":"４０３號","E_COORD97":169911.76000000001,"N_COORD97":2544980.6099999999,"ADDRESS":"勝利路４０３號","OBJECTID":536252},"geometry":{"x":169911.76000000071,"y":2544980.6100000013}},{"attributes":{"ID":536280,"DIS_CODE":0,"TOWNNAME":"北區","LI":"中樓里","LIN":"19鄰","STREET":"勝利路","SECT":" ","MAREA":" ","LANE":" ","ALLEY":" ","HOUSE_NO":"４０５號","E_COORD97":169913.03,"N_COORD97":2544985.46,"ADDRESS":"勝利路４０５號","OBJECTID":536253},"geometry":{"x":169913.03000000026,"y":2544985.4600000028}},{"attributes":{"ID":536281,"DIS_CODE":0,"TOWNNAME":"北區","LI":"中樓里","LIN":"19鄰","STREET":"勝利路","SECT":" ","MAREA":" ","LANE":" ","ALLEY":" ","HOUSE_NO":"４０９號","E_COORD97":169913.67999999999,"N_COORD97":2544995.8700000001,"ADDRESS":"勝利路４０９號","OBJECTID":536254},"geometry":{"x":169913.68000000156,"y":2544995.8700000048}},{"attributes":{"ID":536282,"DIS_CODE":0,"TOWNNAME":"北區","LI":"中樓里","LIN":"19鄰","STREET":"勝利路","SECT":" ","MAREA":" ","LANE":" ","ALLEY":" ","HOUSE_NO":"４１１號","E_COORD97":169913.92000000001,"N_COORD97":2545000.5099999998,"ADDRESS":"勝利路４１１號","OBJECTID":536255},"geometry":{"x":169913.91999999899,"y":2545000.5100000035}},{"attributes":{"ID":536283,"DIS_CODE":0,"TOWNNAME":"北區","LI":"中樓里","LIN":"19鄰","STREET":"勝利路","SECT":" ","MAREA":" ","LANE":" ","ALLEY":" ","HOUSE_NO":"４１３號","E_COORD97":169914.07999999999,"N_COORD97":2545004.5099999998,"ADDRESS":"勝利路４１３號","OBJECTID":536256},"geometry":{"x":169914.08000000007,"y":2545004.5100000016}},{"attributes":{"ID":536284,"DIS_CODE":0,"TOWNNAME":"北區","LI":"中樓里","LIN":"19鄰","STREET":"勝利路","SECT":" ","MAREA":" ","LANE":" ","ALLEY":" ","HOUSE_NO":"４１５號","E_COORD97":169914.32000000001,"N_COORD97":2545008.9399999999,"ADDRESS":"勝利路４１５號","OBJECTID":536257},"geometry":{"x":169914.3200000003,"y":2545008.9400000013}},{"attributes":{"ID":536285,"DIS_CODE":0,"TOWNNAME":"北區","LI":"中樓里","LIN":"19鄰","STREET":"勝利路","SECT":" ","MAREA":" ","LANE":" ","ALLEY":" ","HOUSE_NO":"４１７號","E_COORD97":169914.88,"N_COORD97":2545013.7400000002,"ADDRESS":"勝利路４１７號","OBJECTID":536258},"geometry":{"x":169914.88000000082,"y":2545013.7400000021}},{"attributes":{"ID":536286,"DIS_CODE":0,"TOWNNAME":"北區","LI":"中樓里","LIN":"19鄰","STREET":"勝利路","SECT":" ","MAREA":" ","LANE":" ","ALLEY":" ","HOUSE_NO":"４１９號","E_COORD97":169915.60000000001,"N_COORD97":2545018.23,"ADDRESS":"勝利路４１９號","OBJECTID":536259},"geometry":{"x":169915.59999999963,"y":2545018.2300000023}},{"attributes":{"ID":536287,"DIS_CODE":0,"TOWNNAME":"北區","LI":"中樓里","LIN":"19鄰","STREET":"勝利路","SECT":" ","MAREA":" ","LANE":" ","ALLEY":" ","HOUSE_NO":"４２１號","E_COORD97":169916.17000000001,"N_COORD97":2545021.9900000002,"ADDRESS":"勝利路４２１號","OBJECTID":536260},"geometry":{"x":169916.17000000086,"y":2545021.9900000021}},{"attributes":{"ID":536288,"DIS_CODE":0,"TOWNNAME":"北區","LI":"中樓里","LIN":"19鄰","STREET":"勝利路","SECT":" ","MAREA":" ","LANE":" ","ALLEY":" ","HOUSE_NO":"４２３號","E_COORD97":169916.17000000001,"N_COORD97":2545025.9199999999,"ADDRESS":"勝利路４２３號","OBJECTID":536261},"geometry":{"x":169916.17000000086,"y":2545025.9200000018}},{"attributes":{"ID":536289,"DIS_CODE":0,"TOWNNAME":"北區","LI":"中樓里","LIN":"19鄰","STREET":"勝利路","SECT":" ","MAREA":" ","LANE":" ","ALLEY":" ","HOUSE_NO":"４２５號","E_COORD97":169916.32999999999,"N_COORD97":2545030.7200000002,"ADDRESS":"勝利路４２５號","OBJECTID":536262},"geometry":{"x":169916.33000000007,"y":2545030.7200000025}},{"attributes":{"ID":536290,"DIS_CODE":0,"TOWNNAME":"北區","LI":"中樓里","LIN":"19鄰","STREET":"勝利路","SECT":" ","MAREA":" ","LANE":" ","ALLEY":" ","HOUSE_NO":"４３５號","E_COORD97":169917.35999999999,"N_COORD97":2545048.4300000002,"ADDRESS":"勝利路４３５號","OBJECTID":536263},"geometry":{"x":169917.36000000127,"y":2545048.4300000034}},{"attributes":{"ID":536291,"DIS_CODE":0,"TOWNNAME":"北區","LI":"中樓里","LIN":"19鄰","STREET":"勝利路","SECT":" ","MAREA":" ","LANE":" ","ALLEY":" ","HOUSE_NO":"４３７號","E_COORD97":169917.47,"N_COORD97":2545052.3399999999,"ADDRESS":"勝利路４３７號","OBJECTID":536264},"geometry":{"x":169917.47000000067,"y":2545052.3400000036}},{"attributes":{"ID":536292,"DIS_CODE":0,"TOWNNAME":"北區","LI":"中樓里","LIN":"19鄰","STREET":"勝利路","SECT":" ","MAREA":" ","LANE":" ","ALLEY":" ","HOUSE_NO":"４３９號","E_COORD97":169917.67000000001,"N_COORD97":2545056.7599999998,"ADDRESS":"勝利路４３９號","OBJECTID":536265},"geometry":{"x":169917.67000000086,"y":2545056.7600000016}},{"attributes":{"ID":536293,"DIS_CODE":0,"TOWNNAME":"北區","LI":"中樓里","LIN":"19鄰","STREET":"勝利路","SECT":" ","MAREA":" ","LANE":" ","ALLEY":" ","HOUSE_NO":"４４１號","E_COORD97":169917.78,"N_COORD97":2545063.3700000001,"ADDRESS":"勝利路４４１號","OBJECTID":536266},"geometry":{"x":169917.78000000119,"y":2545063.370000001}},{"attributes":{"ID":536294,"DIS_CODE":0,"TOWNNAME":"安平區","LI":"港仔里","LIN":"19鄰","STREET":"古堡街","SECT":" ","MAREA":" ","LANE":" ","ALLEY":" ","HOUSE_NO":"３１號","E_COORD97":164034.35000000001,"N_COORD97":2544531.6200000001,"ADDRESS":"古堡街３１號","OBJECTID":536267},"geometry":{"x":164034.35000000056,"y":2544531.620000001}},{"attributes":{"ID":536295,"DIS_CODE":0,"TOWNNAME":"六甲區","LI":"甲南里","LIN":"19鄰","STREET":"永安街","SECT":" ","MAREA":" ","LANE":" ","ALLEY":" ","HOUSE_NO":"２０號","E_COORD97":183886.47,"N_COORD97":2569852.96,"ADDRESS":"永安街２０號","OBJECTID":536268},"geometry":{"x":183886.46999999974,"y":2569852.9600000009}},{"attributes":{"ID":536296,"DIS_CODE":0,"TOWNNAME":"安平區","LI":"港仔里","LIN":"19鄰","STREET":"古堡街","SECT":" ","MAREA":" ","LANE":" ","ALLEY":" ","HOUSE_NO":"４號","E_COORD97":164059.28,"N_COORD97":2544523.8900000001,"ADDRESS":"古堡街４號","OBJECTID":536269},"geometry":{"x":164059.28000000119,"y":2544523.8900000043}},{"attributes":{"ID":536297,"DIS_CODE":0,"TOWNNAME":"安平區","LI":"港仔里","LIN":"19鄰","STREET":"古堡街","SECT":" ","MAREA":" ","LANE":" ","ALLEY":" ","HOUSE_NO":"８號","E_COORD97":164060.09,"N_COORD97":2544536.6899999999,"ADDRESS":"古堡街８號","OBJECTID":536270},"geometry":{"x":164060.09000000078,"y":2544536.6899999995}},{"attributes":{"ID":536298,"DIS_CODE":0,"TOWNNAME":"安平區","LI":"港仔里","LIN":"19鄰","STREET":"安平路","SECT":" ","MAREA":" ","LANE":" ","ALLEY":" ","HOUSE_NO":"１６１號","E_COORD97":164084.98999999999,"N_COORD97":2544536.6899999999,"ADDRESS":"安平路１６１號","OBJECTID":536271},"geometry":{"x":164084.99000000022,"y":2544536.6899999995}},{"attributes":{"ID":536299,"DIS_CODE":0,"TOWNNAME":"安平區","LI":"港仔里","LIN":"19鄰","STREET":"安平路","SECT":" ","MAREA":" ","LANE":" ","ALLEY":" ","HOUSE_NO":"１６３號","E_COORD97":164081.16,"N_COORD97":2544537.0899999999,"ADDRESS":"安平路１６３號","OBJECTID":536272},"geometry":{"x":164081.16000000201,"y":2544537.0900000017}},{"attributes":{"ID":536300,"DIS_CODE":0,"TOWNNAME":"安平區","LI":"港仔里","LIN":"19鄰","STREET":"安平路","SECT":" ","MAREA":" ","LANE":" ","ALLEY":" ","HOUSE_NO":"１６５號","E_COORD97":164076.51999999999,"N_COORD97":2544537.4900000002,"ADDRESS":"安平路１６５號","OBJECTID":536273},"geometry":{"x":164076.52000000142,"y":2544537.4900000021}},{"attributes":{"ID":536301,"DIS_CODE":0,"TOWNNAME":"安平區","LI":"港仔里","LIN":"19鄰","STREET":"安平路","SECT":" ","MAREA":" ","LANE":" ","ALLEY":" ","HOUSE_NO":"１６７號","E_COORD97":164072.39000000001,"N_COORD97":2544539,"ADDRESS":"安平路１６７號","OBJECTID":536274},"geometry":{"x":164072.39000000153,"y":2544539}},{"attributes":{"ID":536302,"DIS_CODE":0,"TOWNNAME":"安平區","LI":"港仔里","LIN":"19鄰","STREET":"國勝路","SECT":" ","MAREA":" ","LANE":" ","ALLEY":" ","HOUSE_NO":"３４號","E_COORD97":164018.22,"N_COORD97":2544511.96,"ADDRESS":"國勝路３４號","OBJECTID":536275},"geometry":{"x":164018.22000000067,"y":2544511.9600000028}},{"attributes":{"ID":536303,"DIS_CODE":0,"TOWNNAME":"六甲區","LI":"甲南里","LIN":"19鄰","STREET":"永安街","SECT":" ","MAREA":" ","LANE":" ","ALLEY":" ","HOUSE_NO":"２２號","E_COORD97":183875.76999999999,"N_COORD97":2569849.3199999998,"ADDRESS":"永安街２２號","OBJECTID":536276},"geometry":{"x":183875.76999999955,"y":2569849.3200000003}},{"attributes":{"ID":536304,"DIS_CODE":0,"TOWNNAME":"六甲區","LI":"二甲里","LIN":"19鄰","STREET":"光明街","SECT":" ","MAREA":" ","LANE":" ","ALLEY":" ","HOUSE_NO":"１０２號","E_COORD97":183239.57000000001,"N_COORD97":2569958.3500000001,"ADDRESS":"光明街１０２號","OBJECTID":536277},"geometry":{"x":183239.57000000123,"y":2569958.3500000015}},{"attributes":{"ID":536305,"DIS_CODE":0,"TOWNNAME":"六甲區","LI":"二甲里","LIN":"19鄰","STREET":"光明街","SECT":" ","MAREA":" ","LANE":" ","ALLEY":" ","HOUSE_NO":"１０８號","E_COORD97":183240.76999999999,"N_COORD97":2569960.9399999999,"ADDRESS":"光明街１０８號","OBJECTID":536278},"geometry":{"x":183240.77000000048,"y":2569960.9400000013}},{"attributes":{"ID":536306,"DIS_CODE":0,"TOWNNAME":"六甲區","LI":"二甲里","LIN":"19鄰","STREET":"光明街","SECT":" ","MAREA":" ","LANE":" ","ALLEY":" ","HOUSE_NO":"１１２號","E_COORD97":183243.47,"N_COORD97":2569967.02,"ADDRESS":"光明街１１２號","OBJECTID":536279},"geometry":{"x":183243.47000000067,"y":2569967.0200000033}},{"attributes":{"ID":536307,"DIS_CODE":0,"TOWNNAME":"六甲區","LI":"二甲里","LIN":"19鄰","STREET":"光明街","SECT":" ","MAREA":" ","LANE":" ","ALLEY":" ","HOUSE_NO":"１１８號","E_COORD97":183250.16,"N_COORD97":2569977.2200000002,"ADDRESS":"光明街１１８號","OBJECTID":536280},"geometry":{"x":183250.16000000015,"y":2569977.2200000025}},{"attributes":{"ID":536308,"DIS_CODE":0,"TOWNNAME":"六甲區","LI":"二甲里","LIN":"19鄰","STREET":"光明街","SECT":" ","MAREA":" ","LANE":" ","ALLEY":" ","HOUSE_NO":"１２２號","E_COORD97":183252.76000000001,"N_COORD97":2569987.6899999999,"ADDRESS":"光明街１２２號","OBJECTID":536281},"geometry":{"x":183252.76000000164,"y":2569987.6899999995}},{"attributes":{"ID":536309,"DIS_CODE":0,"TOWNNAME":"六甲區","LI":"二甲里","LIN":"19鄰","STREET":"光明街","SECT":" ","MAREA":" ","LANE":" ","ALLEY":" ","HOUSE_NO":"１３０號","E_COORD97":183257.54000000001,"N_COORD97":2570020.2200000002,"ADDRESS":"光明街１３０號","OBJECTID":536282},"geometry":{"x":183257.54000000004,"y":2570020.2200000007}},{"attributes":{"ID":536310,"DIS_CODE":0,"TOWNNAME":"六甲區","LI":"二甲里","LIN":"19鄰","STREET":"光明街","SECT":" ","MAREA":" ","LANE":" ","ALLEY":" ","HOUSE_NO":"１３４號","E_COORD97":183260.81,"N_COORD97":2570029.4300000002,"ADDRESS":"光明街１３４號","OBJECTID":536283},"geometry":{"x":183260.81000000052,"y":2570029.4300000016}},{"attributes":{"ID":536311,"DIS_CODE":0,"TOWNNAME":"六甲區","LI":"二甲里","LIN":"19鄰","STREET":"光明街","SECT":" ","MAREA":" ","LANE":" ","ALLEY":" ","HOUSE_NO":"１３６號","E_COORD97":183262.45999999999,"N_COORD97":2570033.4500000002,"ADDRESS":"光明街１３６號","OBJECTID":536284},"geometry":{"x":183262.46000000089,"y":2570033.4499999993}},{"attributes":{"ID":536312,"DIS_CODE":0,"TOWNNAME":"六甲區","LI":"二甲里","LIN":"19鄰","STREET":"光明街","SECT":" ","MAREA":" ","LANE":" ","ALLEY":" ","HOUSE_NO":"１３８號","E_COORD97":183263.91,"N_COORD97":2570036.4399999999,"ADDRESS":"光明街１３８號","OBJECTID":536285},"geometry":{"x":183263.91000000201,"y":2570036.4400000013}},{"attributes":{"ID":536313,"DIS_CODE":0,"TOWNNAME":"六甲區","LI":"二甲里","LIN":"19鄰","STREET":"光明街","SECT":" ","MAREA":" ","LANE":" ","ALLEY":" ","HOUSE_NO":"１４０號","E_COORD97":183266.42999999999,"N_COORD97":2570040.23,"ADDRESS":"光明街１４０號","OBJECTID":536286},"geometry":{"x":183266.4299999997,"y":2570040.2300000004}},{"attributes":{"ID":536314,"DIS_CODE":0,"TOWNNAME":"六甲區","LI":"二甲里","LIN":"19鄰","STREET":"光明街","SECT":" ","MAREA":" ","LANE":" ","ALLEY":" ","HOUSE_NO":"７６號","E_COORD97":183229.89000000001,"N_COORD97":2569890.0299999998,"ADDRESS":"光明街７６號","OBJECTID":536287},"geometry":{"x":183229.8900000006,"y":2569890.0300000012}},{"attributes":{"ID":536315,"DIS_CODE":0,"TOWNNAME":"六甲區","LI":"二甲里","LIN":"19鄰","STREET":"光明街","SECT":" ","MAREA":" ","LANE":" ","ALLEY":" ","HOUSE_NO":"８４號","E_COORD97":183226.16,"N_COORD97":2569908.2799999998,"ADDRESS":"光明街８４號","OBJECTID":536288},"geometry":{"x":183226.16000000015,"y":2569908.2800000012}},{"attributes":{"ID":536316,"DIS_CODE":0,"TOWNNAME":"六甲區","LI":"二甲里","LIN":"19鄰","STREET":"光明街","SECT":" ","MAREA":" ","LANE":" ","ALLEY":" ","HOUSE_NO":"８６號","E_COORD97":183227.81,"N_COORD97":2569916.1099999999,"ADDRESS":"光明街８６號","OBJECTID":536289},"geometry":{"x":183227.80999999959,"y":2569916.1100000013}},{"attributes":{"ID":536317,"DIS_CODE":0,"TOWNNAME":"六甲區","LI":"二甲里","LIN":"19鄰","STREET":"光明街","SECT":" ","MAREA":" ","LANE":" ","ALLEY":" ","HOUSE_NO":"９０號","E_COORD97":183233.76000000001,"N_COORD97":2569923.8999999999,"ADDRESS":"光明街９０號","OBJECTID":536290},"geometry":{"x":183233.75999999978,"y":2569923.9000000004}},{"attributes":{"ID":536318,"DIS_CODE":0,"TOWNNAME":"六甲區","LI":"二甲里","LIN":"19鄰","STREET":"光明街","SECT":" ","MAREA":" ","LANE":" ","ALLEY":" ","HOUSE_NO":"９４號","E_COORD97":183234.41,"N_COORD97":2569930.8900000001,"ADDRESS":"光明街９４號","OBJECTID":536291},"geometry":{"x":183234.41000000015,"y":2569930.8900000006}},{"attributes":{"ID":536319,"DIS_CODE":0,"TOWNNAME":"六甲區","LI":"二甲里","LIN":"19鄰","STREET":"光明街","SECT":" ","MAREA":" ","LANE":" ","ALLEY":" ","HOUSE_NO":"９６號","E_COORD97":183235.85999999999,"N_COORD97":2569934.6000000001,"ADDRESS":"光明街９６號","OBJECTID":536292},"geometry":{"x":183235.86000000127,"y":2569934.5999999996}},{"attributes":{"ID":536320,"DIS_CODE":0,"TOWNNAME":"六甲區","LI":"二甲里","LIN":"19鄰","STREET":"光復街","SECT":" ","MAREA":" ","LANE":" ","ALLEY":" ","HOUSE_NO":"３２號","E_COORD97":183238.67000000001,"N_COORD97":2569849.29,"ADDRESS":"光復街３２號","OBJECTID":536293},"geometry":{"x":183238.67000000086,"y":2569849.2900000028}},{"attributes":{"ID":536321,"DIS_CODE":0,"TOWNNAME":"六甲區","LI":"二甲里","LIN":"19鄰","STREET":"光復街","SECT":" ","MAREA":" ","LANE":" ","ALLEY":" ","HOUSE_NO":"３６號","E_COORD97":183234.94,"N_COORD97":2569850.8100000001,"ADDRESS":"光復街３６號","OBJECTID":536294},"geometry":{"x":183234.94000000041,"y":2569850.8100000042}},{"attributes":{"ID":536322,"DIS_CODE":0,"TOWNNAME":"六甲區","LI":"六甲里","LIN":"19鄰","STREET":"建國街","SECT":" ","MAREA":" ","LANE":" ","ALLEY":" ","HOUSE_NO":"１００之２號","E_COORD97":183724.81,"N_COORD97":2570077.7999999998,"ADDRESS":"建國街１００之２號","OBJECTID":536295},"geometry":{"x":183724.80999999959,"y":2570077.7999999989}},{"attributes":{"ID":536323,"DIS_CODE":0,"TOWNNAME":"六甲區","LI":"六甲里","LIN":"19鄰","STREET":"建國街","SECT":" ","MAREA":" ","LANE":" ","ALLEY":" ","HOUSE_NO":"１１０號","E_COORD97":183753.48000000001,"N_COORD97":2570120.4100000001,"ADDRESS":"建國街１１０號","OBJECTID":536296},"geometry":{"x":183753.48000000045,"y":2570120.4100000001}},{"attributes":{"ID":536324,"DIS_CODE":0,"TOWNNAME":"六甲區","LI":"六甲里","LIN":"19鄰","STREET":"建國街","SECT":" ","MAREA":" ","LANE":" ","ALLEY":" ","HOUSE_NO":"１３８號","E_COORD97":183782.75,"N_COORD97":2570126.8300000001,"ADDRESS":"建國街１３８號","OBJECTID":536297},"geometry":{"x":183782.75000000093,"y":2570126.8300000001}},{"attributes":{"ID":536325,"DIS_CODE":0,"TOWNNAME":"六甲區","LI":"六甲里","LIN":"19鄰","STREET":"建國街","SECT":" ","MAREA":" ","LANE":" ","ALLEY":" ","HOUSE_NO":"１４４號","E_COORD97":183782.64999999999,"N_COORD97":2570115.6600000001,"ADDRESS":"建國街１４４號","OBJECTID":536298},"geometry":{"x":183782.65000000037,"y":2570115.6600000039}},{"attributes":{"ID":536326,"DIS_CODE":0,"TOWNNAME":"六甲區","LI":"六甲里","LIN":"19鄰","STREET":"建國街","SECT":" ","MAREA":" ","LANE":" ","ALLEY":" ","HOUSE_NO":"１５０號","E_COORD97":183797.23000000001,"N_COORD97":2570114.0499999998,"ADDRESS":"建國街１５０號","OBJECTID":536299},"geometry":{"x":183797.23000000045,"y":2570114.0500000026}},{"attributes":{"ID":536327,"DIS_CODE":0,"TOWNNAME":"六甲區","LI":"六甲里","LIN":"19鄰","STREET":"建國街","SECT":" ","MAREA":" ","LANE":" ","ALLEY":" ","HOUSE_NO":"１５２號","E_COORD97":183810.07999999999,"N_COORD97":2570121.3399999999,"ADDRESS":"建國街１５２號","OBJECTID":536300},"geometry":{"x":183810.08000000007,"y":2570121.3400000017}},{"attributes":{"ID":536328,"DIS_CODE":0,"TOWNNAME":"六甲區","LI":"六甲里","LIN":"19鄰","STREET":"建國街","SECT":" ","MAREA":" ","LANE":" ","ALLEY":" ","HOUSE_NO":"１５４號","E_COORD97":183813.98999999999,"N_COORD97":2570121.3900000001,"ADDRESS":"建國街１５４號","OBJECTID":536301},"geometry":{"x":183813.99000000022,"y":2570121.3900000043}},{"attributes":{"ID":536329,"DIS_CODE":0,"TOWNNAME":"六甲區","LI":"六甲里","LIN":"19鄰","STREET":"建國街","SECT":" ","MAREA":" ","LANE":" ","ALLEY":" ","HOUSE_NO":"１５６號","E_COORD97":183824.32000000001,"N_COORD97":2570124.29,"ADDRESS":"建國街１５６號","OBJECTID":536302},"geometry":{"x":183824.32000000123,"y":2570124.290000001}},{"attributes":{"ID":536330,"DIS_CODE":0,"TOWNNAME":"六甲區","LI":"六甲里","LIN":"19鄰","STREET":"建國街","SECT":" ","MAREA":" ","LANE":" ","ALLEY":" ","HOUSE_NO":"１５８號","E_COORD97":183830.28,"N_COORD97":2570124.1099999999,"ADDRESS":"建國街１５８號","OBJECTID":536303},"geometry":{"x":183830.28000000119,"y":2570124.1099999994}},{"attributes":{"ID":536331,"DIS_CODE":0,"TOWNNAME":"六甲區","LI":"六甲里","LIN":"19鄰","STREET":"建國街","SECT":" ","MAREA":" ","LANE":" ","ALLEY":" ","HOUSE_NO":"１６２號","E_COORD97":183840.87,"N_COORD97":2570124.6000000001,"ADDRESS":"建國街１６２號","OBJECTID":536304},"geometry":{"x":183840.87000000104,"y":2570124.5999999996}},{"attributes":{"ID":536332,"DIS_CODE":0,"TOWNNAME":"六甲區","LI":"六甲里","LIN":"19鄰","STREET":"建國街","SECT":" ","MAREA":" ","LANE":" ","ALLEY":" ","HOUSE_NO":"１６４號","E_COORD97":183846,"N_COORD97":2570124.9900000002,"ADDRESS":"建國街１６４號","OBJECTID":536305},"geometry":{"x":183846,"y":2570124.9900000021}},{"attributes":{"ID":536333,"DIS_CODE":0,"TOWNNAME":"六甲區","LI":"六甲里","LIN":"19鄰","STREET":"建國街","SECT":" ","MAREA":" ","LANE":" ","ALLEY":" ","HOUSE_NO":"１６６號","E_COORD97":183849.60000000001,"N_COORD97":2570125.4700000002,"ADDRESS":"建國街１６６號","OBJECTID":536306},"geometry":{"x":183849.59999999963,"y":2570125.4700000025}},{"attributes":{"ID":536334,"DIS_CODE":0,"TOWNNAME":"六甲區","LI":"六甲里","LIN":"19鄰","STREET":"建國街","SECT":" ","MAREA":" ","LANE":" ","ALLEY":" ","HOUSE_NO":"１６８號","E_COORD97":183853.48999999999,"N_COORD97":2570125.7999999998,"ADDRESS":"建國街１６８號","OBJECTID":536307},"geometry":{"x":183853.49000000209,"y":2570125.8000000026}},{"attributes":{"ID":536335,"DIS_CODE":0,"TOWNNAME":"麻豆區","LI":"油車里","LIN":"19鄰","STREET":"自由路","SECT":" ","MAREA":" ","LANE":" ","ALLEY":" ","HOUSE_NO":"４７號之２０","E_COORD97":172466.76999999999,"N_COORD97":2565133.2999999998,"ADDRESS":"自由路４７號之２０","OBJECTID":536308},"geometry":{"x":172466.77000000048,"y":2565133.3000000007}},{"attributes":{"ID":536336,"DIS_CODE":0,"TOWNNAME":"麻豆區","LI":"油車里","LIN":"19鄰","STREET":"自由路","SECT":" ","MAREA":" ","LANE":" ","ALLEY":" ","HOUSE_NO":"４７號之２１","E_COORD97":172461.64000000001,"N_COORD97":2565135.6600000001,"ADDRESS":"自由路４７號之２１","OBJECTID":536309},"geometry":{"x":172461.63999999966,"y":2565135.660000002}},{"attributes":{"ID":536337,"DIS_CODE":0,"TOWNNAME":"麻豆區","LI":"油車里","LIN":"19鄰","STREET":"自由路","SECT":" ","MAREA":" ","LANE":" ","ALLEY":" ","HOUSE_NO":"４７號之２","E_COORD97":172528.73000000001,"N_COORD97":2565116.5699999998,"ADDRESS":"自由路４７號之２","OBJECTID":536310},"geometry":{"x":172528.73000000138,"y":2565116.5700000022}},{"attributes":{"ID":536338,"DIS_CODE":0,"TOWNNAME":"麻豆區","LI":"油車里","LIN":"19鄰","STREET":"自由路","SECT":" ","MAREA":" ","LANE":" ","ALLEY":" ","HOUSE_NO":"４７號之３","E_COORD97":172522.57000000001,"N_COORD97":2565116.4199999999,"ADDRESS":"自由路４７號之３","OBJECTID":536311},"geometry":{"x":172522.57000000123,"y":2565116.4200000037}},{"attributes":{"ID":536339,"DIS_CODE":0,"TOWNNAME":"麻豆區","LI":"油車里","LIN":"19鄰","STREET":"自由路","SECT":" ","MAREA":" ","LANE":" ","ALLEY":" ","HOUSE_NO":"４７號之４","E_COORD97":172523.48000000001,"N_COORD97":2565122.02,"ADDRESS":"自由路４７號之４","OBJECTID":536312},"geometry":{"x":172523.48000000138,"y":2565122.0200000033}},{"attributes":{"ID":536340,"DIS_CODE":0,"TOWNNAME":"麻豆區","LI":"油車里","LIN":"19鄰","STREET":"自由路","SECT":" ","MAREA":" ","LANE":" ","ALLEY":" ","HOUSE_NO":"４７號之５","E_COORD97":172523.35000000001,"N_COORD97":2565126.52,"ADDRESS":"自由路４７號之５","OBJECTID":536313},"geometry":{"x":172523.35000000056,"y":2565126.5200000014}},{"attributes":{"ID":536341,"DIS_CODE":0,"TOWNNAME":"麻豆區","LI":"油車里","LIN":"19鄰","STREET":"自由路","SECT":" ","MAREA":" ","LANE":" ","ALLEY":" ","HOUSE_NO":"４７號之６","E_COORD97":172523.23000000001,"N_COORD97":2565131.3999999999,"ADDRESS":"自由路４７號之６","OBJECTID":536314},"geometry":{"x":172523.23000000138,"y":2565131.4000000022}},{"attributes":{"ID":536342,"DIS_CODE":0,"TOWNNAME":"麻豆區","LI":"油車里","LIN":"19鄰","STREET":"自由路","SECT":" ","MAREA":" ","LANE":" ","ALLEY":" ","HOUSE_NO":"４７號之７","E_COORD97":172523.10000000001,"N_COORD97":2565135.9700000002,"ADDRESS":"自由路４７號之７","OBJECTID":536315},"geometry":{"x":172523.10000000149,"y":2565135.9700000007}},{"attributes":{"ID":536343,"DIS_CODE":0,"TOWNNAME":"麻豆區","LI":"油車里","LIN":"19鄰","STREET":"自由路","SECT":" ","MAREA":" ","LANE":" ","ALLEY":" ","HOUSE_NO":"４７號之８","E_COORD97":172503.32000000001,"N_COORD97":2565134.8500000001,"ADDRESS":"自由路４７號之８","OBJECTID":536316},"geometry":{"x":172503.3200000003,"y":2565134.8500000015}},{"attributes":{"ID":536344,"DIS_CODE":0,"TOWNNAME":"麻豆區","LI":"油車里","LIN":"19鄰","STREET":"自由路","SECT":" ","MAREA":" ","LANE":" ","ALLEY":" ","HOUSE_NO":"４７號之９","E_COORD97":172503.60000000001,"N_COORD97":2565129.9199999999,"ADDRESS":"自由路４７號之９","OBJECTID":536317},"geometry":{"x":172503.60000000056,"y":2565129.9200000037}},{"attributes":{"ID":536345,"DIS_CODE":0,"TOWNNAME":"麻豆區","LI":"油車里","LIN":"19鄰","STREET":"自由路","SECT":" ","MAREA":" ","LANE":" ","ALLEY":" ","HOUSE_NO":"４７號","E_COORD97":172551.53,"N_COORD97":2565116.9700000002,"ADDRESS":"自由路４７號","OBJECTID":536318},"geometry":{"x":172551.53000000119,"y":2565116.9700000044}},{"attributes":{"ID":536346,"DIS_CODE":0,"TOWNNAME":"麻豆區","LI":"油車里","LIN":"19鄰","STREET":"自由路","SECT":" ","MAREA":" ","LANE":" ","ALLEY":" ","HOUSE_NO":"４９號","E_COORD97":172549.98000000001,"N_COORD97":2565120.8700000001,"ADDRESS":"自由路４９號","OBJECTID":536319},"geometry":{"x":172549.98000000045,"y":2565120.870000001}},{"attributes":{"ID":536347,"DIS_CODE":0,"TOWNNAME":"麻豆區","LI":"油車里","LIN":"19鄰","STREET":"自由路","SECT":" ","MAREA":" ","LANE":" ","ALLEY":" ","HOUSE_NO":"５１號","E_COORD97":172548.42999999999,"N_COORD97":2565124.7599999998,"ADDRESS":"自由路５１號","OBJECTID":536320},"geometry":{"x":172548.43000000063,"y":2565124.7600000016}},{"attributes":{"ID":536348,"DIS_CODE":0,"TOWNNAME":"東區","LI":"復興里","LIN":"17鄰","STREET":"東成街","SECT":" ","MAREA":" ","LANE":" ","ALLEY":" ","HOUSE_NO":"１８１號","E_COORD97":171803.07999999999,"N_COORD97":2542319.7999999998,"ADDRESS":"東成街１８１號","OBJECTID":536321},"geometry":{"x":171803.08000000007,"y":2542319.8000000007}},{"attributes":{"ID":536349,"DIS_CODE":0,"TOWNNAME":"東區","LI":"崇文里","LIN":"6鄰","STREET":"崇德十七街","SECT":" ","MAREA":" ","LANE":" ","ALLEY":" ","HOUSE_NO":"２７號","E_COORD97":170861.01999999999,"N_COORD97":2541090.5800000001,"ADDRESS":"崇德十七街２７號","OBJECTID":536322},"geometry":{"x":170861.02000000048,"y":2541090.5800000001}},{"attributes":{"ID":536350,"DIS_CODE":0,"TOWNNAME":"東區","LI":"崇文里","LIN":"6鄰","STREET":"崇德十七街","SECT":" ","MAREA":" ","LANE":" ","ALLEY":" ","HOUSE_NO":"２５號","E_COORD97":170855.35000000001,"N_COORD97":2541090.5800000001,"ADDRESS":"崇德十七街２５號","OBJECTID":536323},"geometry":{"x":170855.35000000056,"y":2541090.5800000001}},{"attributes":{"ID":536351,"DIS_CODE":0,"TOWNNAME":"東區","LI":"崇文里","LIN":"30鄰","STREET":"崇德二十五街","SECT":" ","MAREA":" ","LANE":" ","ALLEY":" ","HOUSE_NO":"６６號","E_COORD97":170970.54999999999,"N_COORD97":2540645.4199999999,"ADDRESS":"崇德二十五街６６號","OBJECTID":536324},"geometry":{"x":170970.54999999981,"y":2540645.4200000018}},{"attributes":{"ID":536352,"DIS_CODE":0,"TOWNNAME":"麻豆區","LI":"油車里","LIN":"19鄰","STREET":"自由路","SECT":" ","MAREA":" ","LANE":" ","ALLEY":" ","HOUSE_NO":"５３號","E_COORD97":172546.88,"N_COORD97":2565128.6499999999,"ADDRESS":"自由路５３號","OBJECTID":536325},"geometry":{"x":172546.88000000175,"y":2565128.6500000041}},{"attributes":{"ID":536353,"DIS_CODE":0,"TOWNNAME":"麻豆區","LI":"油車里","LIN":"19鄰","STREET":"自由路","SECT":" ","MAREA":" ","LANE":" ","ALLEY":" ","HOUSE_NO":"５５號","E_COORD97":172545.32999999999,"N_COORD97":2565132.54,"ADDRESS":"自由路５５號","OBJECTID":536326},"geometry":{"x":172545.33000000007,"y":2565132.540000001}},{"attributes":{"ID":536354,"DIS_CODE":0,"TOWNNAME":"麻豆區","LI":"油車里","LIN":"19鄰","STREET":"自由路","SECT":" ","MAREA":" ","LANE":" ","ALLEY":" ","HOUSE_NO":"５７號","E_COORD97":172543.78,"N_COORD97":2565136.4300000002,"ADDRESS":"自由路５７號","OBJECTID":536327},"geometry":{"x":172543.78000000026,"y":2565136.4300000034}},{"attributes":{"ID":536355,"DIS_CODE":0,"TOWNNAME":"麻豆區","LI":"油車里","LIN":"19鄰","STREET":"自由路","SECT":" ","MAREA":" ","LANE":" ","ALLEY":" ","HOUSE_NO":"５９號","E_COORD97":172542.23999999999,"N_COORD97":2565140.3199999998,"ADDRESS":"自由路５９號","OBJECTID":536328},"geometry":{"x":172542.24000000115,"y":2565140.3200000003}},{"attributes":{"ID":536356,"DIS_CODE":0,"TOWNNAME":"麻豆區","LI":"油車里","LIN":"19鄰","STREET":"自由路","SECT":" ","MAREA":" ","LANE":" ","ALLEY":" ","HOUSE_NO":"６１號","E_COORD97":172540.69,"N_COORD97":2565144.21,"ADDRESS":"自由路６１號","OBJECTID":536329},"geometry":{"x":172540.69000000134,"y":2565144.2100000009}},{"attributes":{"ID":536357,"DIS_CODE":0,"TOWNNAME":"東區","LI":"裕聖里","LIN":"7鄰","STREET":"裕敬路","SECT":" ","MAREA":" ","LANE":" ","ALLEY":" ","HOUSE_NO":"４１６號","E_COORD97":172809.78,"N_COORD97":2542238.2599999998,"ADDRESS":"裕敬路４１６號","OBJECTID":536330},"geometry":{"x":172809.78000000119,"y":2542238.2599999998}},{"attributes":{"ID":536358,"DIS_CODE":0,"TOWNNAME":"東區","LI":"裕聖里","LIN":"7鄰","STREET":"裕敬路","SECT":" ","MAREA":" ","LANE":" ","ALLEY":" ","HOUSE_NO":"４１２號","E_COORD97":172806.41,"N_COORD97":2542240.4500000002,"ADDRESS":"裕敬路４１２號","OBJECTID":536331},"geometry":{"x":172806.41000000201,"y":2542240.450000003}},{"attributes":{"ID":536359,"DIS_CODE":0,"TOWNNAME":"麻豆區","LI":"油車里","LIN":"19鄰","STREET":"自由路","SECT":" ","MAREA":" ","LANE":" ","ALLEY":" ","HOUSE_NO":"６３號之１","E_COORD97":172527.5,"N_COORD97":2565147.2200000002,"ADDRESS":"自由路６３號之１","OBJECTID":536332},"geometry":{"x":172527.50000000186,"y":2565147.2200000007}},{"attributes":{"ID":536360,"DIS_CODE":0,"TOWNNAME":"麻豆區","LI":"油車里","LIN":"19鄰","STREET":"自由路","SECT":" ","MAREA":" ","LANE":" ","ALLEY":" ","HOUSE_NO":"６３號之２","E_COORD97":172519.57999999999,"N_COORD97":2565146.77,"ADDRESS":"自由路６３號之２","OBJECTID":536333},"geometry":{"x":172519.58000000007,"y":2565146.7699999996}},{"attributes":{"ID":536361,"DIS_CODE":0,"TOWNNAME":"麻豆區","LI":"油車里","LIN":"19鄰","STREET":"自由路","SECT":" ","MAREA":" ","LANE":" ","ALLEY":" ","HOUSE_NO":"６３號之３","E_COORD97":172512.17000000001,"N_COORD97":2565146.4900000002,"ADDRESS":"自由路６３號之３","OBJECTID":536334},"geometry":{"x":172512.16999999993,"y":2565146.4900000039}},{"attributes":{"ID":536362,"DIS_CODE":0,"TOWNNAME":"麻豆區","LI":"油車里","LIN":"19鄰","STREET":"自由路","SECT":" ","MAREA":" ","LANE":" ","ALLEY":" ","HOUSE_NO":"６３號之４","E_COORD97":172506.47,"N_COORD97":2565146.3100000001,"ADDRESS":"自由路６３號之４","OBJECTID":536335},"geometry":{"x":172506.46999999974,"y":2565146.3100000024}},{"attributes":{"ID":536363,"DIS_CODE":0,"TOWNNAME":"麻豆區","LI":"油車里","LIN":"19鄰","STREET":"自由路","SECT":" ","MAREA":" ","LANE":" ","ALLEY":" ","HOUSE_NO":"６３號之５","E_COORD97":172500.82000000001,"N_COORD97":2565145.9700000002,"ADDRESS":"自由路６３號之５","OBJECTID":536336},"geometry":{"x":172500.82000000123,"y":2565145.9700000007}},{"attributes":{"ID":536364,"DIS_CODE":0,"TOWNNAME":"麻豆區","LI":"油車里","LIN":"19鄰","STREET":"自由路","SECT":" ","MAREA":" ","LANE":" ","ALLEY":" ","HOUSE_NO":"６３號之６","E_COORD97":172494.14000000001,"N_COORD97":2565145.6600000001,"ADDRESS":"自由路６３號之６","OBJECTID":536337},"geometry":{"x":172494.14000000153,"y":2565145.660000002}},{"attributes":{"ID":536365,"DIS_CODE":0,"TOWNNAME":"麻豆區","LI":"油車里","LIN":"19鄰","STREET":"自由路","SECT":" ","MAREA":" ","LANE":" ","ALLEY":" ","HOUSE_NO":"６３號之７","E_COORD97":172477.98000000001,"N_COORD97":2565144.3199999998,"ADDRESS":"自由路６３號之７","OBJECTID":536338},"geometry":{"x":172477.98000000138,"y":2565144.320000004}},{"attributes":{"ID":536366,"DIS_CODE":0,"TOWNNAME":"麻豆區","LI":"油車里","LIN":"19鄰","STREET":"自由路","SECT":" ","MAREA":" ","LANE":" ","ALLEY":" ","HOUSE_NO":"６３號","E_COORD97":172539.14000000001,"N_COORD97":2565148.1000000001,"ADDRESS":"自由路６３號","OBJECTID":536339},"geometry":{"x":172539.13999999966,"y":2565148.0999999996}},{"attributes":{"ID":536367,"DIS_CODE":0,"TOWNNAME":"麻豆區","LI":"油車里","LIN":"19鄰","STREET":"自由路","SECT":" ","MAREA":" ","LANE":" ","ALLEY":" ","HOUSE_NO":"６５號之１","E_COORD97":172523.87,"N_COORD97":2565164.7000000002,"ADDRESS":"自由路６５號之１","OBJECTID":536340},"geometry":{"x":172523.87000000104,"y":2565164.700000003}},{"attributes":{"ID":536368,"DIS_CODE":0,"TOWNNAME":"新營區","LI":"民權里","LIN":"19鄰","STREET":"博愛街","SECT":" ","MAREA":" ","LANE":" ","ALLEY":" ","HOUSE_NO":"５０號","E_COORD97":179814.73999999999,"N_COORD97":2578145.0099999998,"ADDRESS":"博愛街５０號","OBJECTID":536341},"geometry":{"x":179814.74000000022,"y":2578145.0100000016}},{"attributes":{"ID":536369,"DIS_CODE":0,"TOWNNAME":"新營區","LI":"民權里","LIN":"19鄰","STREET":"博愛街","SECT":" ","MAREA":" ","LANE":" ","ALLEY":" ","HOUSE_NO":"４６號","E_COORD97":179820.95000000001,"N_COORD97":2578146.0899999999,"ADDRESS":"博愛街４６號","OBJECTID":536342},"geometry":{"x":179820.95000000112,"y":2578146.0899999999}},{"attributes":{"ID":536370,"DIS_CODE":0,"TOWNNAME":"新營區","LI":"王公里","LIN":"19鄰","STREET":"民族路","SECT":" ","MAREA":" ","LANE":" ","ALLEY":" ","HOUSE_NO":"１１８號","E_COORD97":180364.19,"N_COORD97":2579224.3999999999,"ADDRESS":"民族路１１８號","OBJECTID":536343},"geometry":{"x":180364.19000000134,"y":2579224.4000000041}},{"attributes":{"ID":536371,"DIS_CODE":0,"TOWNNAME":"新營區","LI":"新東里","LIN":"19鄰","STREET":"東學路","SECT":" ","MAREA":" ","LANE":" ","ALLEY":" ","HOUSE_NO":"９２號","E_COORD97":180920.98000000001,"N_COORD97":2579359.1099999999,"ADDRESS":"東學路９２號","OBJECTID":536344},"geometry":{"x":180920.97999999952,"y":2579359.1099999994}},{"attributes":{"ID":536372,"DIS_CODE":0,"TOWNNAME":"歸仁區","LI":"大廟里","LIN":"19鄰","STREET":"大廟一街","SECT":" ","MAREA":" ","LANE":" ","ALLEY":" ","HOUSE_NO":"１８號","E_COORD97":175846.26999999999,"N_COORD97":2544106.25,"ADDRESS":"大廟一街１８號","OBJECTID":536345},"geometry":{"x":175846.27000000048,"y":2544106.25}},{"attributes":{"ID":536373,"DIS_CODE":0,"TOWNNAME":"歸仁區","LI":"大廟里","LIN":"19鄰","STREET":"大廟一街","SECT":" ","MAREA":" ","LANE":" ","ALLEY":" ","HOUSE_NO":"３６號","E_COORD97":175824.57000000001,"N_COORD97":2544060.25,"ADDRESS":"大廟一街３６號","OBJECTID":536346},"geometry":{"x":175824.57000000216,"y":2544060.2500000019}},{"attributes":{"ID":536374,"DIS_CODE":0,"TOWNNAME":"歸仁區","LI":"八甲里","LIN":"19鄰","STREET":"大仁五街","SECT":" ","MAREA":" ","LANE":" ","ALLEY":" ","HOUSE_NO":"５６號","E_COORD97":178071.98999999999,"N_COORD97":2541452.25,"ADDRESS":"大仁五街５６號","OBJECTID":536347},"geometry":{"x":178071.99000000022,"y":2541452.25}},{"attributes":{"ID":536375,"DIS_CODE":0,"TOWNNAME":"歸仁區","LI":"文化里","LIN":"19鄰","STREET":"文化北二街","SECT":" ","MAREA":" ","LANE":" ","ALLEY":" ","HOUSE_NO":"７６號","E_COORD97":177106.01000000001,"N_COORD97":2541478.3399999999,"ADDRESS":"文化北二街７６號","OBJECTID":536348},"geometry":{"x":177106.01000000164,"y":2541478.3399999999}},{"attributes":{"ID":536376,"DIS_CODE":0,"TOWNNAME":"歸仁區","LI":"大廟里","LIN":"19鄰","STREET":"大廟一街","SECT":" ","MAREA":" ","LANE":" ","ALLEY":" ","HOUSE_NO":"１２號","E_COORD97":175866.97,"N_COORD97":2544134.25,"ADDRESS":"大廟一街１２號","OBJECTID":536349},"geometry":{"x":175866.9700000016,"y":2544134.2499999981}},{"attributes":{"ID":536377,"DIS_CODE":0,"TOWNNAME":"歸仁區","LI":"大廟里","LIN":"19鄰","STREET":"大廟一街","SECT":" ","MAREA":" ","LANE":" ","ALLEY":" ","HOUSE_NO":"３２號","E_COORD97":175829.67000000001,"N_COORD97":2544070.25,"ADDRESS":"大廟一街３２號","OBJECTID":536350},"geometry":{"x":175829.66999999993,"y":2544070.2500000037}},{"attributes":{"ID":536378,"DIS_CODE":0,"TOWNNAME":"歸仁區","LI":"七甲里","LIN":"19鄰","STREET":"南潭三街","SECT":" ","MAREA":" ","LANE":" ","ALLEY":" ","HOUSE_NO":"１８２號","E_COORD97":176484.92999999999,"N_COORD97":2543210.8100000001,"ADDRESS":"南潭三街１８２號","OBJECTID":536351},"geometry":{"x":176484.93000000063,"y":2543210.8100000005}},{"attributes":{"ID":536379,"DIS_CODE":0,"TOWNNAME":"北區","LI":"華興里","LIN":"19鄰","STREET":"開南街","SECT":" ","MAREA":" ","LANE":" ","ALLEY":" ","HOUSE_NO":"１３５號","E_COORD97":170616.89999999999,"N_COORD97":2545135.6400000001,"ADDRESS":"開南街１３５號","OBJECTID":536352},"geometry":{"x":170616.9000000013,"y":2545135.6400000006}},{"attributes":{"ID":536380,"DIS_CODE":0,"TOWNNAME":"歸仁區","LI":"七甲里","LIN":"19鄰","STREET":"南潭三街","SECT":" ","MAREA":" ","LANE":" ","ALLEY":" ","HOUSE_NO":"１７２之１號","E_COORD97":176471.03,"N_COORD97":2543210.8599999999,"ADDRESS":"南潭三街１７２之１號","OBJECTID":536353},"geometry":{"x":176471.03000000119,"y":2543210.8600000031}},{"attributes":{"ID":536381,"DIS_CODE":0,"TOWNNAME":"歸仁區","LI":"七甲里","LIN":"19鄰","STREET":"南潭三街","SECT":" ","MAREA":" ","LANE":" ","ALLEY":" ","HOUSE_NO":"１７０號","E_COORD97":176459.32999999999,"N_COORD97":2543210.8100000001,"ADDRESS":"南潭三街１７０號","OBJECTID":536354},"geometry":{"x":176459.33000000007,"y":2543210.8100000005}},{"attributes":{"ID":536382,"DIS_CODE":0,"TOWNNAME":"歸仁區","LI":"八甲里","LIN":"19鄰","STREET":"大仁街","SECT":" ","MAREA":" ","LANE":" ","ALLEY":" ","HOUSE_NO":"３６１號","E_COORD97":178120.48999999999,"N_COORD97":2541515.25,"ADDRESS":"大仁街３６１號","OBJECTID":536355},"geometry":{"x":178120.49000000115,"y":2541515.2500000019}},{"attributes":{"ID":536383,"DIS_CODE":0,"TOWNNAME":"歸仁區","LI":"七甲里","LIN":"19鄰","STREET":"南潭三街","SECT":" ","MAREA":" ","LANE":" ","ALLEY":" ","HOUSE_NO":"１５０號","E_COORD97":176407.03,"N_COORD97":2543208.8100000001,"ADDRESS":"南潭三街１５０號","OBJECTID":536356},"geometry":{"x":176407.03000000119,"y":2543208.8099999987}},{"attributes":{"ID":536384,"DIS_CODE":0,"TOWNNAME":"歸仁區","LI":"八甲里","LIN":"19鄰","STREET":"大仁五街","SECT":" ","MAREA":" ","LANE":" ","ALLEY":" ","HOUSE_NO":"６６號","E_COORD97":178047.39000000001,"N_COORD97":2541451.25,"ADDRESS":"大仁五街６６號","OBJECTID":536357},"geometry":{"x":178047.38999999873,"y":2541451.25}},{"attributes":{"ID":536385,"DIS_CODE":0,"TOWNNAME":"歸仁區","LI":"八甲里","LIN":"19鄰","STREET":"大仁五街","SECT":" ","MAREA":" ","LANE":" ","ALLEY":" ","HOUSE_NO":"１８號","E_COORD97":178125.39000000001,"N_COORD97":2541470.25,"ADDRESS":"大仁五街１８號","OBJECTID":536358},"geometry":{"x":178125.38999999873,"y":2541470.2500000019}},{"attributes":{"ID":536386,"DIS_CODE":0,"TOWNNAME":"歸仁區","LI":"大廟里","LIN":"19鄰","STREET":"大廟一街","SECT":" ","MAREA":" ","LANE":" ","ALLEY":" ","HOUSE_NO":"１４號","E_COORD97":175859.76999999999,"N_COORD97":2544128.25,"ADDRESS":"大廟一街１４號","OBJECTID":536359},"geometry":{"x":175859.77000000142,"y":2544128.2500000019}},{"attributes":{"ID":536387,"DIS_CODE":0,"TOWNNAME":"歸仁區","LI":"文化里","LIN":"19鄰","STREET":"文化北二街","SECT":" ","MAREA":" ","LANE":" ","ALLEY":" ","HOUSE_NO":"８２號","E_COORD97":177093.70999999999,"N_COORD97":2541479.3399999999,"ADDRESS":"文化北二街８２號","OBJECTID":536360},"geometry":{"x":177093.71000000089,"y":2541479.3400000017}},{"attributes":{"ID":536388,"DIS_CODE":0,"TOWNNAME":"歸仁區","LI":"八甲里","LIN":"19鄰","STREET":"大仁五街","SECT":" ","MAREA":" ","LANE":" ","ALLEY":" ","HOUSE_NO":"６０號","E_COORD97":178062.79000000001,"N_COORD97":2541454.25,"ADDRESS":"大仁五街６０號","OBJECTID":536361},"geometry":{"x":178062.79000000097,"y":2541454.2500000019}},{"attributes":{"ID":536389,"DIS_CODE":0,"TOWNNAME":"歸仁區","LI":"大廟里","LIN":"19鄰","STREET":"大廟一街","SECT":" ","MAREA":" ","LANE":" ","ALLEY":" ","HOUSE_NO":"３４號","E_COORD97":175828.67000000001,"N_COORD97":2544064.25,"ADDRESS":"大廟一街３４號","OBJECTID":536362},"geometry":{"x":175828.67000000179,"y":2544064.2500000019}},{"attributes":{"ID":536390,"DIS_CODE":0,"TOWNNAME":"歸仁區","LI":"大廟里","LIN":"19鄰","STREET":"保大路","SECT":"三段","MAREA":" ","LANE":" ","ALLEY":" ","HOUSE_NO":"２１３號","E_COORD97":175875.76999999999,"N_COORD97":2544164.2799999998,"ADDRESS":"保大路三段２１３號","OBJECTID":536363},"geometry":{"x":175875.77000000048,"y":2544164.2800000031}},{"attributes":{"ID":536391,"DIS_CODE":0,"TOWNNAME":"歸仁區","LI":"八甲里","LIN":"19鄰","STREET":"大仁街","SECT":" ","MAREA":" ","LANE":" ","ALLEY":" ","HOUSE_NO":"３５７號","E_COORD97":178129.69,"N_COORD97":2541506.25,"ADDRESS":"大仁街３５７號","OBJECTID":536364},"geometry":{"x":178129.69000000134,"y":2541506.25}},{"attributes":{"ID":536392,"DIS_CODE":0,"TOWNNAME":"歸仁區","LI":"六甲里","LIN":"19鄰","STREET":"六甲路","SECT":" ","MAREA":" ","LANE":" ","ALLEY":" ","HOUSE_NO":"４６９號","E_COORD97":175330.26999999999,"N_COORD97":2539275.25,"ADDRESS":"六甲路４６９號","OBJECTID":536365},"geometry":{"x":175330.26999999955,"y":2539275.25}},{"attributes":{"ID":536393,"DIS_CODE":0,"TOWNNAME":"歸仁區","LI":"大廟里","LIN":"19鄰","STREET":"保大路","SECT":"三段","MAREA":" ","LANE":" ","ALLEY":" ","HOUSE_NO":"２１７號","E_COORD97":175863.47,"N_COORD97":2544177.27,"ADDRESS":"保大路三段２１７號","OBJECTID":536366},"geometry":{"x":175863.46999999974,"y":2544177.2699999996}},{"attributes":{"ID":536394,"DIS_CODE":0,"TOWNNAME":"歸仁區","LI":"七甲里","LIN":"19鄰","STREET":"南潭三街","SECT":" ","MAREA":" ","LANE":" ","ALLEY":" ","HOUSE_NO":"１６６號","E_COORD97":176450.03,"N_COORD97":2543210.8100000001,"ADDRESS":"南潭三街１６６號","OBJECTID":536367},"geometry":{"x":176450.03000000026,"y":2543210.8100000005}},{"attributes":{"ID":536395,"DIS_CODE":0,"TOWNNAME":"歸仁區","LI":"大廟里","LIN":"19鄰","STREET":"保大路","SECT":"三段","MAREA":" ","LANE":" ","ALLEY":" ","HOUSE_NO":"２５３號","E_COORD97":175757.47,"N_COORD97":2544302.2799999998,"ADDRESS":"保大路三段２５３號","OBJECTID":536368},"geometry":{"x":175757.47000000067,"y":2544302.2799999993}},{"attributes":{"ID":536396,"DIS_CODE":0,"TOWNNAME":"歸仁區","LI":"七甲里","LIN":"19鄰","STREET":"南潭三街","SECT":" ","MAREA":" ","LANE":" ","ALLEY":" ","HOUSE_NO":"１５６號","E_COORD97":176422.32999999999,"N_COORD97":2543208.8100000001,"ADDRESS":"南潭三街１５６號","OBJECTID":536369},"geometry":{"x":176422.33000000007,"y":2543208.8099999987}},{"attributes":{"ID":536397,"DIS_CODE":0,"TOWNNAME":"歸仁區","LI":"大廟里","LIN":"19鄰","STREET":"保大路","SECT":"三段","MAREA":" ","LANE":" ","ALLEY":" ","HOUSE_NO":"２９１號","E_COORD97":175721.76999999999,"N_COORD97":2544335.2799999998,"ADDRESS":"保大路三段２９１號","OBJECTID":536370},"geometry":{"x":175721.76999999955,"y":2544335.2799999993}},{"attributes":{"ID":536398,"DIS_CODE":0,"TOWNNAME":"歸仁區","LI":"八甲里","LIN":"19鄰","STREET":"大仁五街","SECT":" ","MAREA":" ","LANE":" ","ALLEY":" ","HOUSE_NO":"２０號","E_COORD97":178118.29000000001,"N_COORD97":2541473.25,"ADDRESS":"大仁五街２０號","OBJECTID":536371},"geometry":{"x":178118.29000000097,"y":2541473.2500000037}},{"attributes":{"ID":536399,"DIS_CODE":0,"TOWNNAME":"歸仁區","LI":"大廟里","LIN":"19鄰","STREET":"保大路","SECT":"三段","MAREA":" ","LANE":" ","ALLEY":" ","HOUSE_NO":"２１５之１號","E_COORD97":175871.07000000001,"N_COORD97":2544171.2999999998,"ADDRESS":"保大路三段２１５之１號","OBJECTID":536372},"geometry":{"x":175871.07000000123,"y":2544171.3000000007}},{"attributes":{"ID":536400,"DIS_CODE":0,"TOWNNAME":"歸仁區","LI":"大廟里","LIN":"19鄰","STREET":"大廟一街","SECT":" ","MAREA":" ","LANE":" ","ALLEY":" ","HOUSE_NO":"２０號","E_COORD97":175846.26999999999,"N_COORD97":2544106.25,"ADDRESS":"大廟一街２０號","OBJECTID":536373},"geometry":{"x":175846.27000000048,"y":2544106.25}},{"attributes":{"ID":536401,"DIS_CODE":0,"TOWNNAME":"歸仁區","LI":"八甲里","LIN":"19鄰","STREET":"大仁五街","SECT":" ","MAREA":" ","LANE":" ","ALLEY":" ","HOUSE_NO":"６８號","E_COORD97":178043.29000000001,"N_COORD97":2541451.25,"ADDRESS":"大仁五街６８號","OBJECTID":536374},"geometry":{"x":178043.29000000004,"y":2541451.25}},{"attributes":{"ID":536402,"DIS_CODE":0,"TOWNNAME":"歸仁區","LI":"八甲里","LIN":"19鄰","STREET":"大仁五街","SECT":" ","MAREA":" ","LANE":" ","ALLEY":" ","HOUSE_NO":"５８號","E_COORD97":178066.89000000001,"N_COORD97":2541453.25,"ADDRESS":"大仁五街５８號","OBJECTID":536375},"geometry":{"x":178066.8900000006,"y":2541453.2500000019}},{"attributes":{"ID":536403,"DIS_CODE":0,"TOWNNAME":"歸仁區","LI":"七甲里","LIN":"19鄰","STREET":"南潭三街","SECT":" ","MAREA":" ","LANE":" ","ALLEY":" ","HOUSE_NO":"１６４號","E_COORD97":176445.92999999999,"N_COORD97":2543209.8100000001,"ADDRESS":"南潭三街１６４號","OBJECTID":536376},"geometry":{"x":176445.93000000063,"y":2543209.8100000024}},{"attributes":{"ID":536404,"DIS_CODE":0,"TOWNNAME":"歸仁區","LI":"大廟里","LIN":"19鄰","STREET":"大廟一街","SECT":" ","MAREA":" ","LANE":" ","ALLEY":" ","HOUSE_NO":"２６號","E_COORD97":175835.97,"N_COORD97":2544091.25,"ADDRESS":"大廟一街２６號","OBJECTID":536377},"geometry":{"x":175835.96999999974,"y":2544091.2500000019}},{"attributes":{"ID":536405,"DIS_CODE":0,"TOWNNAME":"歸仁區","LI":"七甲里","LIN":"19鄰","STREET":"南潭三街","SECT":" ","MAREA":" ","LANE":" ","ALLEY":" ","HOUSE_NO":"１６０號","E_COORD97":176431.63,"N_COORD97":2543208.8100000001,"ADDRESS":"南潭三街１６０號","OBJECTID":536378},"geometry":{"x":176431.62999999989,"y":2543208.8099999987}},{"attributes":{"ID":536406,"DIS_CODE":0,"TOWNNAME":"歸仁區","LI":"八甲里","LIN":"19鄰","STREET":"大仁街","SECT":" ","MAREA":" ","LANE":" ","ALLEY":" ","HOUSE_NO":"３６３號","E_COORD97":178116.39000000001,"N_COORD97":2541518.25,"ADDRESS":"大仁街３６３號","OBJECTID":536379},"geometry":{"x":178116.38999999966,"y":2541518.2500000019}},{"attributes":{"ID":536407,"DIS_CODE":0,"TOWNNAME":"歸仁區","LI":"八甲里","LIN":"19鄰","STREET":"大仁五街","SECT":" ","MAREA":" ","LANE":" ","ALLEY":" ","HOUSE_NO":"３８號","E_COORD97":178078.29000000001,"N_COORD97":2541476.25,"ADDRESS":"大仁五街３８號","OBJECTID":536380},"geometry":{"x":178078.29000000004,"y":2541476.2500000037}},{"attributes":{"ID":536408,"DIS_CODE":0,"TOWNNAME":"歸仁區","LI":"大廟里","LIN":"19鄰","STREET":"保大路","SECT":"三段","MAREA":" ","LANE":" ","ALLEY":" ","HOUSE_NO":"２５１號","E_COORD97":175815.67000000001,"N_COORD97":2544236.2799999998,"ADDRESS":"保大路三段２５１號","OBJECTID":536381},"geometry":{"x":175815.67000000086,"y":2544236.2800000012}},{"attributes":{"ID":536409,"DIS_CODE":0,"TOWNNAME":"歸仁區","LI":"七甲里","LIN":"19鄰","STREET":"南潭三街","SECT":" ","MAREA":" ","LANE":" ","ALLEY":" ","HOUSE_NO":"１７６號","E_COORD97":176472.63,"N_COORD97":2543210.8100000001,"ADDRESS":"南潭三街１７６號","OBJECTID":536382},"geometry":{"x":176472.62999999989,"y":2543210.8100000005}},{"attributes":{"ID":536410,"DIS_CODE":0,"TOWNNAME":"歸仁區","LI":"大廟里","LIN":"19鄰","STREET":"保大路","SECT":"三段","MAREA":" ","LANE":" ","ALLEY":" ","HOUSE_NO":"２３３號","E_COORD97":175839.07000000001,"N_COORD97":2544206.2799999998,"ADDRESS":"保大路三段２３３號","OBJECTID":536383},"geometry":{"x":175839.0700000003,"y":2544206.2800000012}},{"attributes":{"ID":536411,"DIS_CODE":0,"TOWNNAME":"歸仁區","LI":"大廟里","LIN":"19鄰","STREET":"大廟一街","SECT":" ","MAREA":" ","LANE":" ","ALLEY":" ","HOUSE_NO":"１６號","E_COORD97":175852.47,"N_COORD97":2544116.25,"ADDRESS":"大廟一街１６號","OBJECTID":536384},"geometry":{"x":175852.47000000067,"y":2544116.25}},{"attributes":{"ID":536412,"DIS_CODE":0,"TOWNNAME":"歸仁區","LI":"大廟里","LIN":"19鄰","STREET":"大廟一街","SECT":" ","MAREA":" ","LANE":" ","ALLEY":" ","HOUSE_NO":"２４號","E_COORD97":175839.07000000001,"N_COORD97":2544096.25,"ADDRESS":"大廟一街２４號","OBJECTID":536385},"geometry":{"x":175839.0700000003,"y":2544096.25}},{"attributes":{"ID":536413,"DIS_CODE":0,"TOWNNAME":"歸仁區","LI":"大廟里","LIN":"19鄰","STREET":"保大路","SECT":"三段","MAREA":" ","LANE":" ","ALLEY":" ","HOUSE_NO":"２０９號","E_COORD97":175884.87,"N_COORD97":2544149.2799999998,"ADDRESS":"保大路三段２０９號","OBJECTID":536386},"geometry":{"x":175884.87000000011,"y":2544149.2799999993}},{"attributes":{"ID":536414,"DIS_CODE":0,"TOWNNAME":"歸仁區","LI":"大潭里","LIN":"19鄰","STREET":"中正南路","SECT":"三段","MAREA":" ","LANE":" ","ALLEY":" ","HOUSE_NO":"１１６號","E_COORD97":175238.60999999999,"N_COORD97":2534963.2799999998,"ADDRESS":"中正南路三段１１６號","OBJECTID":536387},"geometry":{"x":175238.61000000127,"y":2534963.2800000012}},{"attributes":{"ID":536415,"DIS_CODE":0,"TOWNNAME":"歸仁區","LI":"大潭里","LIN":"19鄰","STREET":"中正南路","SECT":"三段","MAREA":" ","LANE":" ","ALLEY":" ","HOUSE_NO":"１２０號","E_COORD97":175234.51000000001,"N_COORD97":2534954.2799999998,"ADDRESS":"中正南路三段１２０號","OBJECTID":536388},"geometry":{"x":175234.51000000164,"y":2534954.2799999993}},{"attributes":{"ID":536416,"DIS_CODE":0,"TOWNNAME":"歸仁區","LI":"大潭里","LIN":"19鄰","STREET":"中正南路","SECT":"三段","MAREA":" ","LANE":" ","ALLEY":" ","HOUSE_NO":"５８號","E_COORD97":175272.85999999999,"N_COORD97":2535079.2799999998,"ADDRESS":"中正南路三段５８號","OBJECTID":536389},"geometry":{"x":175272.86000000034,"y":2535079.2800000012}},{"attributes":{"ID":536417,"DIS_CODE":0,"TOWNNAME":"歸仁區","LI":"大潭里","LIN":"19鄰","STREET":"中正南路","SECT":"三段","MAREA":" ","LANE":" ","ALLEY":" ","HOUSE_NO":"４２號","E_COORD97":175301.76000000001,"N_COORD97":2535105.2799999998,"ADDRESS":"中正南路三段４２號","OBJECTID":536390},"geometry":{"x":175301.75999999978,"y":2535105.2800000012}},{"attributes":{"ID":536418,"DIS_CODE":0,"TOWNNAME":"歸仁區","LI":"大潭里","LIN":"19鄰","STREET":"中正南路","SECT":"三段","MAREA":" ","LANE":" ","ALLEY":" ","HOUSE_NO":"１３８號","E_COORD97":175215.91,"N_COORD97":2534926.2799999998,"ADDRESS":"中正南路三段１３８號","OBJECTID":536391},"geometry":{"x":175215.91000000108,"y":2534926.2800000012}},{"attributes":{"ID":536419,"DIS_CODE":0,"TOWNNAME":"歸仁區","LI":"大潭里","LIN":"19鄰","STREET":"中正南路","SECT":"三段","MAREA":" ","LANE":" ","ALLEY":" ","HOUSE_NO":"８８號","E_COORD97":175262.26000000001,"N_COORD97":2535015.2799999998,"ADDRESS":"中正南路三段８８號","OBJECTID":536392},"geometry":{"x":175262.26000000071,"y":2535015.2799999993}},{"attributes":{"ID":536420,"DIS_CODE":0,"TOWNNAME":"歸仁區","LI":"大潭里","LIN":"19鄰","STREET":"中正南路","SECT":"三段","MAREA":" ","LANE":" ","ALLEY":" ","HOUSE_NO":"１００號","E_COORD97":175245.91,"N_COORD97":2534975.2799999998,"ADDRESS":"中正南路三段１００號","OBJECTID":536393},"geometry":{"x":175245.91000000108,"y":2534975.2799999993}},{"attributes":{"ID":536421,"DIS_CODE":0,"TOWNNAME":"柳營區","LI":"光福里","LIN":"19鄰","STREET":"柳營路","SECT":"二段","MAREA":" ","LANE":" ","ALLEY":" ","HOUSE_NO":"２２０號","E_COORD97":179630.89000000001,"N_COORD97":2575557.2599999998,"ADDRESS":"柳營路二段２２０號","OBJECTID":536394},"geometry":{"x":179630.89000000153,"y":2575557.2600000016}},{"attributes":{"ID":536422,"DIS_CODE":0,"TOWNNAME":"柳營區","LI":"光福里","LIN":"19鄰","STREET":"柳營路","SECT":"二段","MAREA":" ","LANE":" ","ALLEY":" ","HOUSE_NO":"２２２號","E_COORD97":179629.92000000001,"N_COORD97":2575563.8300000001,"ADDRESS":"柳營路二段２２２號","OBJECTID":536395},"geometry":{"x":179629.92000000086,"y":2575563.8300000019}},{"attributes":{"ID":536423,"DIS_CODE":0,"TOWNNAME":"柳營區","LI":"光福里","LIN":"19鄰","STREET":"柳營路","SECT":"二段","MAREA":" ","LANE":" ","ALLEY":" ","HOUSE_NO":"２２８號","E_COORD97":179630.45000000001,"N_COORD97":2575570.0600000001,"ADDRESS":"柳營路二段２２８號","OBJECTID":536396},"geometry":{"x":179630.45000000019,"y":2575570.0600000024}},{"attributes":{"ID":536424,"DIS_CODE":0,"TOWNNAME":"柳營區","LI":"光福里","LIN":"19鄰","STREET":"柳營路","SECT":"二段","MAREA":" ","LANE":" ","ALLEY":" ","HOUSE_NO":"２３０號","E_COORD97":179628.53,"N_COORD97":2575578.5499999998,"ADDRESS":"柳營路二段２３０號","OBJECTID":536397},"geometry":{"x":179628.53000000026,"y":2575578.5500000007}},{"attributes":{"ID":536425,"DIS_CODE":0,"TOWNNAME":"柳營區","LI":"光福里","LIN":"19鄰","STREET":"柳營路","SECT":"二段","MAREA":" ","LANE":" ","ALLEY":" ","HOUSE_NO":"２３８號","E_COORD97":179625.54000000001,"N_COORD97":2575590.2799999998,"ADDRESS":"柳營路二段２３８號","OBJECTID":536398},"geometry":{"x":179625.54000000097,"y":2575590.2800000012}},{"attributes":{"ID":536426,"DIS_CODE":0,"TOWNNAME":"柳營區","LI":"光福里","LIN":"19鄰","STREET":"柳營路","SECT":"二段","MAREA":" ","LANE":" ","ALLEY":" ","HOUSE_NO":"２５６號","E_COORD97":179618.56,"N_COORD97":2575616.6200000001,"ADDRESS":"柳營路二段２５６號","OBJECTID":536399},"geometry":{"x":179618.55999999959,"y":2575616.6200000029}},{"attributes":{"ID":536427,"DIS_CODE":0,"TOWNNAME":"柳營區","LI":"光福里","LIN":"19鄰","STREET":"柳營路","SECT":"二段","MAREA":" ","LANE":" ","ALLEY":" ","HOUSE_NO":"２５８號","E_COORD97":179618.54000000001,"N_COORD97":2575620.6899999999,"ADDRESS":"柳營路二段２５８號","OBJECTID":536400},"geometry":{"x":179618.54000000097,"y":2575620.6900000032}}]}