{"displayFieldName":"TOWNNAME","fieldAliases":{"ID":"ID","DIS_CODE":"DIS_CODE","TOWNNAME":"TOWNNAME","LI":"LI","LIN":"LIN","STREET":"STREET","SECT":"SECT","MAREA":"MAREA","LANE":"LANE","ALLEY":"ALLEY","HOUSE_NO":"HOUSE_NO","E_COORD97":"E_COORD97","N_COORD97":"N_COORD97","ADDRESS":"ADDRESS","OBJECTID":"OBJECTID"},"geometryType":"esriGeometryPoint","spatialReference":{"wkid":102443,"latestWkid":3826},"fields":[{"name":"ID","type":"esriFieldTypeDouble","alias":"ID"},{"name":"DIS_CODE","type":"esriFieldTypeInteger","alias":"DIS_CODE"},{"name":"TOWNNAME","type":"esriFieldTypeString","alias":"TOWNNAME","length":8},{"name":"LI","type":"esriFieldTypeString","alias":"LI","length":8},{"name":"LIN","type":"esriFieldTypeString","alias":"LIN","length":12},{"name":"STREET","type":"esriFieldTypeString","alias":"STREET","length":20},{"name":"SECT","type":"esriFieldTypeString","alias":"SECT","length":8},{"name":"MAREA","type":"esriFieldTypeString","alias":"MAREA","length":12},{"name":"LANE","type":"esriFieldTypeString","alias":"LANE","length":10},{"name":"ALLEY","type":"esriFieldTypeString","alias":"ALLEY","length":10},{"name":"HOUSE_NO","type":"esriFieldTypeString","alias":"HOUSE_NO","length":20},{"name":"E_COORD97","type":"esriFieldTypeDouble","alias":"E_COORD97"},{"name":"N_COORD97","type":"esriFieldTypeDouble","alias":"N_COORD97"},{"name":"ADDRESS","type":"esriFieldTypeString","alias":"ADDRESS","length":50},{"name":"OBJECTID","type":"esriFieldTypeOID","alias":"OBJECTID"}],"features":[{"attributes":{"ID":25201,"DIS_CODE":0,"TOWNNAME":"善化區","LI":"文正里","LIN":"14鄰","STREET":"陽明路","SECT":" ","MAREA":" ","LANE":"２２３巷","ALLEY":"２弄","HOUSE_NO":"５號","E_COORD97":176087.20000000001,"N_COORD97":2559630.7599999998,"ADDRESS":"陽明路２２３巷２弄５號","OBJECTID":25201},"geometry":{"x":176087.20000000019,"y":2559630.7599999998}},{"attributes":{"ID":25202,"DIS_CODE":0,"TOWNNAME":"善化區","LI":"文正里","LIN":"14鄰","STREET":"陽明路","SECT":" ","MAREA":" ","LANE":"２２３巷","ALLEY":"３弄","HOUSE_NO":"３３號","E_COORD97":176153.76000000001,"N_COORD97":2559595.7599999998,"ADDRESS":"陽明路２２３巷３弄３３號","OBJECTID":25202},"geometry":{"x":176153.76000000071,"y":2559595.7600000016}},{"attributes":{"ID":25203,"DIS_CODE":0,"TOWNNAME":"善化區","LI":"文正里","LIN":"14鄰","STREET":"陽明路","SECT":" ","MAREA":" ","LANE":"２２３巷","ALLEY":"２弄","HOUSE_NO":"２０號","E_COORD97":176126.70999999999,"N_COORD97":2559617.5099999998,"ADDRESS":"陽明路２２３巷２弄２０號","OBJECTID":25203},"geometry":{"x":176126.71000000183,"y":2559617.5100000016}},{"attributes":{"ID":25204,"DIS_CODE":0,"TOWNNAME":"善化區","LI":"文正里","LIN":"14鄰","STREET":"陽明路","SECT":" ","MAREA":" ","LANE":"２２３巷","ALLEY":"３弄","HOUSE_NO":"５號","E_COORD97":176081.22,"N_COORD97":2559597.0099999998,"ADDRESS":"陽明路２２３巷３弄５號","OBJECTID":25204},"geometry":{"x":176081.22000000067,"y":2559597.0100000016}},{"attributes":{"ID":25205,"DIS_CODE":0,"TOWNNAME":"善化區","LI":"文正里","LIN":"14鄰","STREET":"陽明路","SECT":" ","MAREA":" ","LANE":"２２３巷","ALLEY":"２弄","HOUSE_NO":"１３號","E_COORD97":176107.06,"N_COORD97":2559630.5099999998,"ADDRESS":"陽明路２２３巷２弄１３號","OBJECTID":25205},"geometry":{"x":176107.06000000145,"y":2559630.5100000016}},{"attributes":{"ID":25206,"DIS_CODE":0,"TOWNNAME":"中西區","LI":"西湖里","LIN":"34鄰","STREET":"西湖街","SECT":" ","MAREA":" ","LANE":" ","ALLEY":" ","HOUSE_NO":"９１號","E_COORD97":166358.14999999999,"N_COORD97":2544896.1899999999,"ADDRESS":"西湖街９１號","OBJECTID":25206},"geometry":{"x":166358.15000000224,"y":2544896.1899999995}},{"attributes":{"ID":25207,"DIS_CODE":0,"TOWNNAME":"東區","LI":"和平里","LIN":"20鄰","STREET":"文化三街","SECT":" ","MAREA":" ","LANE":" ","ALLEY":" ","HOUSE_NO":"１０號","E_COORD97":171189.62,"N_COORD97":2541822.9700000002,"ADDRESS":"文化三街１０號","OBJECTID":25207},"geometry":{"x":171189.62000000104,"y":2541822.9700000025}},{"attributes":{"ID":25208,"DIS_CODE":0,"TOWNNAME":"東區","LI":"和平里","LIN":"20鄰","STREET":"文化三街","SECT":" ","MAREA":" ","LANE":" ","ALLEY":" ","HOUSE_NO":"１０之３號","E_COORD97":171196.78,"N_COORD97":2541806.5899999999,"ADDRESS":"文化三街１０之３號","OBJECTID":25208},"geometry":{"x":171196.77999999933,"y":2541806.5900000017}},{"attributes":{"ID":25209,"DIS_CODE":0,"TOWNNAME":"東區","LI":"和平里","LIN":"20鄰","STREET":"文化三街","SECT":" ","MAREA":" ","LANE":" ","ALLEY":" ","HOUSE_NO":"８之３號","E_COORD97":171184.53,"N_COORD97":2541802.1400000001,"ADDRESS":"文化三街８之３號","OBJECTID":25209},"geometry":{"x":171184.53000000026,"y":2541802.1400000006}},{"attributes":{"ID":25210,"DIS_CODE":0,"TOWNNAME":"東區","LI":"和平里","LIN":"20鄰","STREET":"文化三街","SECT":" ","MAREA":" ","LANE":" ","ALLEY":" ","HOUSE_NO":"１０之５號","E_COORD97":171198.04999999999,"N_COORD97":2541801.98,"ADDRESS":"文化三街１０之５號","OBJECTID":25210},"geometry":{"x":171198.05000000168,"y":2541801.9800000023}},{"attributes":{"ID":25211,"DIS_CODE":0,"TOWNNAME":"東區","LI":"文聖里","LIN":"20鄰","STREET":"裕信二街","SECT":" ","MAREA":" ","LANE":" ","ALLEY":" ","HOUSE_NO":"１０３號","E_COORD97":172819.51999999999,"N_COORD97":2542653.3999999999,"ADDRESS":"裕信二街１０３號","OBJECTID":25211},"geometry":{"x":172819.51999999955,"y":2542653.4000000022}},{"attributes":{"ID":25212,"DIS_CODE":0,"TOWNNAME":"東區","LI":"文聖里","LIN":"20鄰","STREET":"裕信二街","SECT":" ","MAREA":" ","LANE":" ","ALLEY":" ","HOUSE_NO":"１０５號","E_COORD97":172825.79000000001,"N_COORD97":2542655.23,"ADDRESS":"裕信二街１０５號","OBJECTID":25212},"geometry":{"x":172825.7900000019,"y":2542655.2300000004}},{"attributes":{"ID":25213,"DIS_CODE":0,"TOWNNAME":"東區","LI":"文聖里","LIN":"20鄰","STREET":"裕信二街","SECT":" ","MAREA":" ","LANE":" ","ALLEY":" ","HOUSE_NO":"１０７號","E_COORD97":172832.41,"N_COORD97":2542654.8900000001,"ADDRESS":"裕信二街１０７號","OBJECTID":25213},"geometry":{"x":172832.41000000108,"y":2542654.8900000006}},{"attributes":{"ID":25214,"DIS_CODE":0,"TOWNNAME":"東區","LI":"文聖里","LIN":"20鄰","STREET":"裕信二街","SECT":" ","MAREA":" ","LANE":" ","ALLEY":" ","HOUSE_NO":"１０９號","E_COORD97":172838.69,"N_COORD97":2542655.46,"ADDRESS":"裕信二街１０９號","OBJECTID":25214},"geometry":{"x":172838.69000000227,"y":2542655.4600000009}},{"attributes":{"ID":25215,"DIS_CODE":0,"TOWNNAME":"東區","LI":"文聖里","LIN":"20鄰","STREET":"裕信二街","SECT":" ","MAREA":" ","LANE":" ","ALLEY":" ","HOUSE_NO":"１１１號","E_COORD97":172844.85000000001,"N_COORD97":2542655.1099999999,"ADDRESS":"裕信二街１１１號","OBJECTID":25215},"geometry":{"x":172844.84999999963,"y":2542655.1099999994}},{"attributes":{"ID":25216,"DIS_CODE":0,"TOWNNAME":"善化區","LI":"文正里","LIN":"14鄰","STREET":"陽明路","SECT":" ","MAREA":" ","LANE":"２２３巷","ALLEY":"２弄","HOUSE_NO":"２３號","E_COORD97":176137.06,"N_COORD97":2559630.0099999998,"ADDRESS":"陽明路２２３巷２弄２３號","OBJECTID":25216},"geometry":{"x":176137.05999999959,"y":2559630.0100000035}},{"attributes":{"ID":25217,"DIS_CODE":0,"TOWNNAME":"善化區","LI":"文正里","LIN":"14鄰","STREET":"陽明路","SECT":" ","MAREA":" ","LANE":"２２３巷","ALLEY":"２弄","HOUSE_NO":"２５號","E_COORD97":176141.85999999999,"N_COORD97":2559629.7599999998,"ADDRESS":"陽明路２２３巷２弄２５號","OBJECTID":25217},"geometry":{"x":176141.86000000127,"y":2559629.7600000016}},{"attributes":{"ID":25218,"DIS_CODE":0,"TOWNNAME":"善化區","LI":"文正里","LIN":"14鄰","STREET":"陽明路","SECT":" ","MAREA":" ","LANE":"２２３巷","ALLEY":"２弄","HOUSE_NO":"１５號","E_COORD97":176111.72,"N_COORD97":2559630.5099999998,"ADDRESS":"陽明路２２３巷２弄１５號","OBJECTID":25218},"geometry":{"x":176111.72000000067,"y":2559630.5100000016}},{"attributes":{"ID":25219,"DIS_CODE":0,"TOWNNAME":"善化區","LI":"文正里","LIN":"14鄰","STREET":"陽明路","SECT":" ","MAREA":" ","LANE":"２２３巷","ALLEY":"１弄","HOUSE_NO":"６號","E_COORD97":176103.32000000001,"N_COORD97":2559652.5099999998,"ADDRESS":"陽明路２２３巷１弄６號","OBJECTID":25219},"geometry":{"x":176103.32000000123,"y":2559652.5099999998}},{"attributes":{"ID":25220,"DIS_CODE":0,"TOWNNAME":"新營區","LI":"新南里","LIN":"25鄰","STREET":"隋唐街","SECT":" ","MAREA":" ","LANE":" ","ALLEY":" ","HOUSE_NO":"２９７號","E_COORD97":178175.39000000001,"N_COORD97":2578579.2400000002,"ADDRESS":"隋唐街２９７號","OBJECTID":25220},"geometry":{"x":178175.3900000006,"y":2578579.2400000021}},{"attributes":{"ID":25221,"DIS_CODE":0,"TOWNNAME":"新營區","LI":"延平里","LIN":"15鄰","STREET":"中原街","SECT":" ","MAREA":" ","LANE":" ","ALLEY":" ","HOUSE_NO":"５號之３","E_COORD97":179529.78,"N_COORD97":2577972.54,"ADDRESS":"中原街５號之３","OBJECTID":25221},"geometry":{"x":179529.78000000026,"y":2577972.540000001}},{"attributes":{"ID":25222,"DIS_CODE":0,"TOWNNAME":"新營區","LI":"民生里","LIN":" ","STREET":"民生路","SECT":" ","MAREA":" ","LANE":" ","ALLEY":" ","HOUSE_NO":"１０３之９號","E_COORD97":179154.34,"N_COORD97":2578514.79,"ADDRESS":"民生路１０３之９號","OBJECTID":25222},"geometry":{"x":179154.33999999985,"y":2578514.7899999972}},{"attributes":{"ID":25223,"DIS_CODE":0,"TOWNNAME":"新營區","LI":"延平里","LIN":"15鄰","STREET":"中原街","SECT":" ","MAREA":" ","LANE":" ","ALLEY":" ","HOUSE_NO":"３號之２","E_COORD97":179518.18393299999,"N_COORD97":2577993.7764699999,"ADDRESS":"中原街３號之２","OBJECTID":25223},"geometry":{"x":179518.18393300008,"y":2577993.776473999}},{"attributes":{"ID":25224,"DIS_CODE":0,"TOWNNAME":"新營區","LI":"新南里","LIN":"20鄰","STREET":"復興路","SECT":" ","MAREA":" ","LANE":" ","ALLEY":" ","HOUSE_NO":"４０６號","E_COORD97":178455.94,"N_COORD97":2578213.54,"ADDRESS":"復興路４０６號","OBJECTID":25224},"geometry":{"x":178455.94000000041,"y":2578213.5399999991}},{"attributes":{"ID":25225,"DIS_CODE":0,"TOWNNAME":"新營區","LI":"民榮里","LIN":"17鄰","STREET":"新進路","SECT":"二段","MAREA":" ","LANE":" ","ALLEY":" ","HOUSE_NO":"３１４號地下室","E_COORD97":178794.07000000001,"N_COORD97":2577767.8300000001,"ADDRESS":"新進路二段３１４號地下室","OBJECTID":25225},"geometry":{"x":178794.0700000003,"y":2577767.8300000019}},{"attributes":{"ID":25226,"DIS_CODE":0,"TOWNNAME":"善化區","LI":"文正里","LIN":"14鄰","STREET":"陽明路","SECT":" ","MAREA":" ","LANE":"２２３巷","ALLEY":"２弄","HOUSE_NO":"１６號","E_COORD97":176111.34,"N_COORD97":2559617.7599999998,"ADDRESS":"陽明路２２３巷２弄１６號","OBJECTID":25226},"geometry":{"x":176111.33999999985,"y":2559617.7599999979}},{"attributes":{"ID":25227,"DIS_CODE":0,"TOWNNAME":"善化區","LI":"文正里","LIN":"14鄰","STREET":"陽明路","SECT":" ","MAREA":" ","LANE":"２２３巷","ALLEY":"３弄","HOUSE_NO":"１１號","E_COORD97":176096.10000000001,"N_COORD97":2559596.5099999998,"ADDRESS":"陽明路２２３巷３弄１１號","OBJECTID":25227},"geometry":{"x":176096.09999999963,"y":2559596.5100000016}},{"attributes":{"ID":25228,"DIS_CODE":0,"TOWNNAME":"善化區","LI":"文正里","LIN":"14鄰","STREET":"陽明路","SECT":" ","MAREA":" ","LANE":"２２３巷","ALLEY":"３弄","HOUSE_NO":"２１號","E_COORD97":176126.06,"N_COORD97":2559596.2599999998,"ADDRESS":"陽明路２２３巷３弄２１號","OBJECTID":25228},"geometry":{"x":176126.06000000052,"y":2559596.2599999998}},{"attributes":{"ID":25229,"DIS_CODE":0,"TOWNNAME":"善化區","LI":"文正里","LIN":"14鄰","STREET":"陽明路","SECT":" ","MAREA":" ","LANE":"２２３巷","ALLEY":"２弄","HOUSE_NO":"９號","E_COORD97":176096.85999999999,"N_COORD97":2559630.7599999998,"ADDRESS":"陽明路２２３巷２弄９號","OBJECTID":25229},"geometry":{"x":176096.86000000034,"y":2559630.7599999998}},{"attributes":{"ID":25230,"DIS_CODE":0,"TOWNNAME":"善化區","LI":"文正里","LIN":"14鄰","STREET":"陽明路","SECT":" ","MAREA":" ","LANE":"２２３巷","ALLEY":"３弄","HOUSE_NO":"１０號","E_COORD97":176090.35999999999,"N_COORD97":2559582.7599999998,"ADDRESS":"陽明路２２３巷３弄１０號","OBJECTID":25230},"geometry":{"x":176090.3599999994,"y":2559582.7599999998}},{"attributes":{"ID":25231,"DIS_CODE":0,"TOWNNAME":"善化區","LI":"文正里","LIN":"14鄰","STREET":"陽明路","SECT":" ","MAREA":" ","LANE":"２２３巷","ALLEY":"３弄","HOUSE_NO":"３１號","E_COORD97":176149.31,"N_COORD97":2559595.7599999998,"ADDRESS":"陽明路２２３巷３弄３１號","OBJECTID":25231},"geometry":{"x":176149.31000000145,"y":2559595.7600000016}},{"attributes":{"ID":25232,"DIS_CODE":0,"TOWNNAME":"善化區","LI":"文正里","LIN":"14鄰","STREET":"陽明路","SECT":" ","MAREA":" ","LANE":"２２３巷","ALLEY":"２弄","HOUSE_NO":"１８號","E_COORD97":176121.95999999999,"N_COORD97":2559617.5099999998,"ADDRESS":"陽明路２２３巷２弄１８號","OBJECTID":25232},"geometry":{"x":176121.96000000089,"y":2559617.5100000016}},{"attributes":{"ID":25233,"DIS_CODE":0,"TOWNNAME":"善化區","LI":"文正里","LIN":"14鄰","STREET":"陽明路","SECT":" ","MAREA":" ","LANE":"２２３巷","ALLEY":"３弄","HOUSE_NO":"４號","E_COORD97":176076.35000000001,"N_COORD97":2559582.2599999998,"ADDRESS":"陽明路２２３巷３弄４號","OBJECTID":25233},"geometry":{"x":176076.35000000149,"y":2559582.2600000016}},{"attributes":{"ID":25234,"DIS_CODE":0,"TOWNNAME":"善化區","LI":"文正里","LIN":"14鄰","STREET":"陽明路","SECT":" ","MAREA":" ","LANE":"２２３巷","ALLEY":"３弄","HOUSE_NO":"２２號","E_COORD97":176120.26000000001,"N_COORD97":2559582.7599999998,"ADDRESS":"陽明路２２３巷３弄２２號","OBJECTID":25234},"geometry":{"x":176120.25999999978,"y":2559582.7599999998}},{"attributes":{"ID":25235,"DIS_CODE":0,"TOWNNAME":"善化區","LI":"文正里","LIN":"14鄰","STREET":"陽明路","SECT":" ","MAREA":" ","LANE":"２２３巷","ALLEY":"３弄","HOUSE_NO":"１９號","E_COORD97":176121.17000000001,"N_COORD97":2559596.2599999998,"ADDRESS":"陽明路２２３巷３弄１９號","OBJECTID":25235},"geometry":{"x":176121.16999999993,"y":2559596.2599999998}},{"attributes":{"ID":25236,"DIS_CODE":0,"TOWNNAME":"善化區","LI":"文正里","LIN":"14鄰","STREET":"陽明路","SECT":" ","MAREA":" ","LANE":"２２３巷","ALLEY":"２弄","HOUSE_NO":"２之１號","E_COORD97":176082.60999999999,"N_COORD97":2559619.52,"ADDRESS":"陽明路２２３巷２弄２之１號","OBJECTID":25236},"geometry":{"x":176082.61000000127,"y":2559619.5200000033}},{"attributes":{"ID":25237,"DIS_CODE":0,"TOWNNAME":"永康區","LI":"復華里","LIN":"24鄰","STREET":"國華街","SECT":" ","MAREA":" ","LANE":"１３２巷","ALLEY":"５弄","HOUSE_NO":"３號","E_COORD97":172836.26325399999,"N_COORD97":2546345.70315,"ADDRESS":"國華街１３２巷５弄３號","OBJECTID":25237},"geometry":{"x":172836.26325400081,"y":2546345.7031529993}},{"attributes":{"ID":25238,"DIS_CODE":0,"TOWNNAME":"善化區","LI":"文正里","LIN":"14鄰","STREET":"陽明路","SECT":" ","MAREA":" ","LANE":"２２３巷","ALLEY":"３弄","HOUSE_NO":"３０號","E_COORD97":176145.85999999999,"N_COORD97":2559582.5099999998,"ADDRESS":"陽明路２２３巷３弄３０號","OBJECTID":25238},"geometry":{"x":176145.86000000034,"y":2559582.5100000035}},{"attributes":{"ID":25239,"DIS_CODE":0,"TOWNNAME":"善化區","LI":"文正里","LIN":"14鄰","STREET":"陽明路","SECT":" ","MAREA":" ","LANE":"２２３巷","ALLEY":"３弄","HOUSE_NO":"１８號","E_COORD97":176110.10999999999,"N_COORD97":2559582.7599999998,"ADDRESS":"陽明路２２３巷３弄１８號","OBJECTID":25239},"geometry":{"x":176110.11000000034,"y":2559582.7599999998}},{"attributes":{"ID":25240,"DIS_CODE":0,"TOWNNAME":"善化區","LI":"文正里","LIN":"14鄰","STREET":"陽明路","SECT":" ","MAREA":" ","LANE":"２２３巷","ALLEY":"３弄","HOUSE_NO":"３２號","E_COORD97":176154.10999999999,"N_COORD97":2559581.7599999998,"ADDRESS":"陽明路２２３巷３弄３２號","OBJECTID":25240},"geometry":{"x":176154.11000000034,"y":2559581.7600000016}},{"attributes":{"ID":25241,"DIS_CODE":0,"TOWNNAME":"善化區","LI":"文正里","LIN":"14鄰","STREET":"陽明路","SECT":" ","MAREA":" ","LANE":"２２３巷","ALLEY":"３弄","HOUSE_NO":"７號","E_COORD97":176086.01000000001,"N_COORD97":2559596.7599999998,"ADDRESS":"陽明路２２３巷３弄７號","OBJECTID":25241},"geometry":{"x":176086.01000000071,"y":2559596.7599999998}},{"attributes":{"ID":25242,"DIS_CODE":0,"TOWNNAME":"安南區","LI":"溪心里","LIN":"14鄰","STREET":"本原街","SECT":"二段","MAREA":" ","LANE":"５１０巷","ALLEY":"８弄","HOUSE_NO":"１２號","E_COORD97":165907.07000000001,"N_COORD97":2550592.04,"ADDRESS":"本原街二段５１０巷８弄１２號","OBJECTID":25242},"geometry":{"x":165907.0700000003,"y":2550592.0399999991}},{"attributes":{"ID":25243,"DIS_CODE":0,"TOWNNAME":"安南區","LI":"溪心里","LIN":"14鄰","STREET":"本原街","SECT":"二段","MAREA":" ","LANE":"５１０巷","ALLEY":"８弄","HOUSE_NO":"１３號","E_COORD97":165889.79999999999,"N_COORD97":2550616.75,"ADDRESS":"本原街二段５１０巷８弄１３號","OBJECTID":25243},"geometry":{"x":165889.79999999981,"y":2550616.7500000037}},{"attributes":{"ID":25244,"DIS_CODE":0,"TOWNNAME":"安南區","LI":"溪心里","LIN":"14鄰","STREET":"本原街","SECT":"二段","MAREA":" ","LANE":"５１０巷","ALLEY":"８弄","HOUSE_NO":"１４號","E_COORD97":165909.63,"N_COORD97":2550588.1600000001,"ADDRESS":"本原街二段５１０巷８弄１４號","OBJECTID":25244},"geometry":{"x":165909.62999999989,"y":2550588.160000002}},{"attributes":{"ID":25245,"DIS_CODE":0,"TOWNNAME":"安南區","LI":"溪心里","LIN":"14鄰","STREET":"本原街","SECT":"二段","MAREA":" ","LANE":"５１０巷","ALLEY":"８弄","HOUSE_NO":"１５號","E_COORD97":165887.31,"N_COORD97":2550620.8399999999,"ADDRESS":"本原街二段５１０巷８弄１５號","OBJECTID":25245},"geometry":{"x":165887.31000000052,"y":2550620.8400000017}},{"attributes":{"ID":25246,"DIS_CODE":0,"TOWNNAME":"新營區","LI":"民生里","LIN":" ","STREET":"民生路","SECT":" ","MAREA":" ","LANE":" ","ALLEY":" ","HOUSE_NO":"２２之１號","E_COORD97":179376.76000000001,"N_COORD97":2578215.8199999998,"ADDRESS":"民生路２２之１號","OBJECTID":25246},"geometry":{"x":179376.75999999978,"y":2578215.8200000022}},{"attributes":{"ID":25247,"DIS_CODE":0,"TOWNNAME":"新營區","LI":"王公里","LIN":"20鄰","STREET":"樂利街","SECT":" ","MAREA":" ","LANE":" ","ALLEY":" ","HOUSE_NO":"１３７號","E_COORD97":180502.57000000001,"N_COORD97":2579285.77,"ADDRESS":"樂利街１３７號","OBJECTID":25247},"geometry":{"x":180502.5700000003,"y":2579285.7700000014}},{"attributes":{"ID":25248,"DIS_CODE":0,"TOWNNAME":"新營區","LI":"民生里","LIN":"25鄰","STREET":"民生路","SECT":" ","MAREA":" ","LANE":" ","ALLEY":" ","HOUSE_NO":"１５５號","E_COORD97":179224.06,"N_COORD97":2578645.0699999998,"ADDRESS":"民生路１５５號","OBJECTID":25248},"geometry":{"x":179224.05999999959,"y":2578645.0700000003}},{"attributes":{"ID":25249,"DIS_CODE":0,"TOWNNAME":"安南區","LI":"溪心里","LIN":"14鄰","STREET":"本原街","SECT":"二段","MAREA":" ","LANE":"５１０巷","ALLEY":"８弄","HOUSE_NO":"１６號","E_COORD97":165913.51999999999,"N_COORD97":2550585.6000000001,"ADDRESS":"本原街二段５１０巷８弄１６號","OBJECTID":25249},"geometry":{"x":165913.51999999955,"y":2550585.5999999996}},{"attributes":{"ID":25250,"DIS_CODE":0,"TOWNNAME":"安南區","LI":"溪心里","LIN":"14鄰","STREET":"本原街","SECT":"二段","MAREA":" ","LANE":"５１０巷","ALLEY":"８弄","HOUSE_NO":"１７號","E_COORD97":165885.38,"N_COORD97":2550625.02,"ADDRESS":"本原街二段５１０巷８弄１７號","OBJECTID":25250},"geometry":{"x":165885.38000000082,"y":2550625.0200000014}},{"attributes":{"ID":25251,"DIS_CODE":0,"TOWNNAME":"安南區","LI":"溪心里","LIN":"14鄰","STREET":"本原街","SECT":"二段","MAREA":" ","LANE":"５１０巷","ALLEY":"８弄","HOUSE_NO":"１８號","E_COORD97":165915.45999999999,"N_COORD97":2550582.0800000001,"ADDRESS":"本原街二段５１０巷８弄１８號","OBJECTID":25251},"geometry":{"x":165915.46000000089,"y":2550582.0800000019}},{"attributes":{"ID":25252,"DIS_CODE":0,"TOWNNAME":"新營區","LI":"延平里","LIN":"4鄰","STREET":"成功街","SECT":" ","MAREA":" ","LANE":" ","ALLEY":" ","HOUSE_NO":"１號","E_COORD97":179699.63162999999,"N_COORD97":2577805.5636399998,"ADDRESS":"成功街１號","OBJECTID":25252},"geometry":{"x":179699.63163000066,"y":2577805.5636370014}},{"attributes":{"ID":25253,"DIS_CODE":0,"TOWNNAME":"新營區","LI":"三仙里","LIN":" ","STREET":"民權路","SECT":" ","MAREA":" ","LANE":" ","ALLEY":" ","HOUSE_NO":"２９之５號","E_COORD97":179714.23999999999,"N_COORD97":2578200.9100000001,"ADDRESS":"民權路２９之５號","OBJECTID":25253},"geometry":{"x":179714.24000000115,"y":2578200.910000002}},{"attributes":{"ID":25254,"DIS_CODE":0,"TOWNNAME":"新營區","LI":"興業里","LIN":" ","STREET":"中山路","SECT":" ","MAREA":" ","LANE":" ","ALLEY":" ","HOUSE_NO":"９１之２２號","E_COORD97":180482.57999999999,"N_COORD97":2578206.1600000001,"ADDRESS":"中山路９１之２２號","OBJECTID":25254},"geometry":{"x":180482.58000000194,"y":2578206.160000002}},{"attributes":{"ID":25255,"DIS_CODE":0,"TOWNNAME":"安南區","LI":"溪心里","LIN":"14鄰","STREET":"本原街","SECT":"二段","MAREA":" ","LANE":"５１０巷","ALLEY":"８弄","HOUSE_NO":"２０號","E_COORD97":165918.26000000001,"N_COORD97":2550579.1699999999,"ADDRESS":"本原街二段５１０巷８弄２０號","OBJECTID":25255},"geometry":{"x":165918.26000000071,"y":2550579.1699999999}},{"attributes":{"ID":25256,"DIS_CODE":0,"TOWNNAME":"安南區","LI":"溪心里","LIN":"14鄰","STREET":"本原街","SECT":"二段","MAREA":" ","LANE":"５１０巷","ALLEY":"８弄","HOUSE_NO":"２２號","E_COORD97":165920.32999999999,"N_COORD97":2550574.8799999999,"ADDRESS":"本原街二段５１０巷８弄２２號","OBJECTID":25256},"geometry":{"x":165920.33000000007,"y":2550574.8800000008}},{"attributes":{"ID":25257,"DIS_CODE":0,"TOWNNAME":"新營區","LI":"延平里","LIN":" ","STREET":"中原街","SECT":" ","MAREA":" ","LANE":" ","ALLEY":" ","HOUSE_NO":"１１之１號","E_COORD97":179508.62,"N_COORD97":2577994.7999999998,"ADDRESS":"中原街１１之１號","OBJECTID":25257},"geometry":{"x":179508.62000000011,"y":2577994.8000000045}},{"attributes":{"ID":25258,"DIS_CODE":0,"TOWNNAME":"新營區","LI":"民權里","LIN":"20鄰","STREET":"中華路","SECT":" ","MAREA":" ","LANE":" ","ALLEY":" ","HOUSE_NO":"３０號","E_COORD97":179760.97,"N_COORD97":2578223.8999999999,"ADDRESS":"中華路３０號","OBJECTID":25258},"geometry":{"x":179760.9700000016,"y":2578223.8999999985}},{"attributes":{"ID":25259,"DIS_CODE":0,"TOWNNAME":"新營區","LI":"民生里","LIN":"2鄰","STREET":"民生路","SECT":" ","MAREA":" ","LANE":" ","ALLEY":" ","HOUSE_NO":"１６號之１","E_COORD97":179398.79999999999,"N_COORD97":2578132.6499999999,"ADDRESS":"民生路１６號之１","OBJECTID":25259},"geometry":{"x":179398.79999999981,"y":2578132.6500000004}},{"attributes":{"ID":25260,"DIS_CODE":0,"TOWNNAME":"新營區","LI":"王公里","LIN":"20鄰","STREET":"樂利街","SECT":" ","MAREA":" ","LANE":" ","ALLEY":" ","HOUSE_NO":"１２１號","E_COORD97":180472.85999999999,"N_COORD97":2579277.0499999998,"ADDRESS":"樂利街１２１號","OBJECTID":25260},"geometry":{"x":180472.86000000127,"y":2579277.0500000007}},{"attributes":{"ID":25261,"DIS_CODE":0,"TOWNNAME":"新營區","LI":"新南里","LIN":"25鄰","STREET":"隋唐街","SECT":" ","MAREA":" ","LANE":" ","ALLEY":" ","HOUSE_NO":"３０５號","E_COORD97":178155.98000000001,"N_COORD97":2578580.4399999999,"ADDRESS":"隋唐街３０５號","OBJECTID":25261},"geometry":{"x":178155.98000000045,"y":2578580.4400000013}},{"attributes":{"ID":25262,"DIS_CODE":0,"TOWNNAME":"新營區","LI":"嘉芳里","LIN":"4鄰","STREET":"嘉芳街","SECT":" ","MAREA":" ","LANE":" ","ALLEY":" ","HOUSE_NO":"１２４號","E_COORD97":176973.48000000001,"N_COORD97":2578376.9199999999,"ADDRESS":"嘉芳街１２４號","OBJECTID":25262},"geometry":{"x":176973.48000000138,"y":2578376.9200000018}},{"attributes":{"ID":25263,"DIS_CODE":0,"TOWNNAME":"安南區","LI":"溪心里","LIN":"14鄰","STREET":"本原街","SECT":"二段","MAREA":" ","LANE":"５１０巷","ALLEY":"８弄","HOUSE_NO":"２４號","E_COORD97":165923.60999999999,"N_COORD97":2550571.8399999999,"ADDRESS":"本原街二段５１０巷８弄２４號","OBJECTID":25263},"geometry":{"x":165923.61000000034,"y":2550571.839999998}},{"attributes":{"ID":25264,"DIS_CODE":0,"TOWNNAME":"安南區","LI":"溪心里","LIN":"14鄰","STREET":"本原街","SECT":"二段","MAREA":" ","LANE":"５１０巷","ALLEY":"８弄","HOUSE_NO":"２６號","E_COORD97":165926.29000000001,"N_COORD97":2550568.8100000001,"ADDRESS":"本原街二段５１０巷８弄２６號","OBJECTID":25264},"geometry":{"x":165926.2900000019,"y":2550568.8100000005}},{"attributes":{"ID":25265,"DIS_CODE":0,"TOWNNAME":"安南區","LI":"溪心里","LIN":"14鄰","STREET":"本原街","SECT":"二段","MAREA":" ","LANE":"５１０巷","ALLEY":"８弄","HOUSE_NO":"２８號","E_COORD97":165928.47,"N_COORD97":2550565.3999999999,"ADDRESS":"本原街二段５１０巷８弄２８號","OBJECTID":25265},"geometry":{"x":165928.47000000067,"y":2550565.4000000041}},{"attributes":{"ID":25266,"DIS_CODE":0,"TOWNNAME":"安南區","LI":"溪心里","LIN":"14鄰","STREET":"本原街","SECT":"二段","MAREA":" ","LANE":"５１０巷","ALLEY":"８弄","HOUSE_NO":"３０號","E_COORD97":165931.26999999999,"N_COORD97":2550561.8799999999,"ADDRESS":"本原街二段５１０巷８弄３０號","OBJECTID":25266},"geometry":{"x":165931.27000000048,"y":2550561.8800000008}},{"attributes":{"ID":25267,"DIS_CODE":0,"TOWNNAME":"安南區","LI":"溪心里","LIN":"14鄰","STREET":"本原街","SECT":"二段","MAREA":" ","LANE":"５１０巷","ALLEY":"８弄","HOUSE_NO":"７號","E_COORD97":165897.42000000001,"N_COORD97":2550606.4199999999,"ADDRESS":"本原街二段５１０巷８弄７號","OBJECTID":25267},"geometry":{"x":165897.41999999993,"y":2550606.4200000018}},{"attributes":{"ID":25268,"DIS_CODE":0,"TOWNNAME":"安南區","LI":"溪心里","LIN":"14鄰","STREET":"本原街","SECT":"二段","MAREA":" ","LANE":"５１０巷","ALLEY":"８弄","HOUSE_NO":"９號","E_COORD97":165894.78,"N_COORD97":2550610.0299999998,"ADDRESS":"本原街二段５１０巷８弄９號","OBJECTID":25268},"geometry":{"x":165894.78000000119,"y":2550610.0299999993}},{"attributes":{"ID":25269,"DIS_CODE":0,"TOWNNAME":"安南區","LI":"溪心里","LIN":"14鄰","STREET":"本原街","SECT":"二段","MAREA":" ","LANE":"５１０巷","ALLEY":"８弄","HOUSE_NO":"３號","E_COORD97":165882.73999999999,"N_COORD97":2550601.1800000002,"ADDRESS":"本原街二段５１０巷８弄３號","OBJECTID":25269},"geometry":{"x":165882.74000000209,"y":2550601.1800000016}},{"attributes":{"ID":25270,"DIS_CODE":0,"TOWNNAME":"仁德區","LI":"上崙里","LIN":"14鄰","STREET":"德崙路","SECT":" ","MAREA":" ","LANE":"４５０巷","ALLEY":"３０弄","HOUSE_NO":"１２號","E_COORD97":174120.64999999999,"N_COORD97":2537985.5099999998,"ADDRESS":"德崙路４５０巷３０弄１２號","OBJECTID":25270},"geometry":{"x":174120.6500000013,"y":2537985.5099999979}},{"attributes":{"ID":25271,"DIS_CODE":0,"TOWNNAME":"永康區","LI":"正強里","LIN":"34鄰","STREET":"四維街","SECT":" ","MAREA":" ","LANE":" ","ALLEY":" ","HOUSE_NO":"１４７號","E_COORD97":173307.64000000001,"N_COORD97":2548307.3199999998,"ADDRESS":"四維街１４７號","OBJECTID":25271},"geometry":{"x":173307.63999999873,"y":2548307.3200000003}},{"attributes":{"ID":25272,"DIS_CODE":0,"TOWNNAME":"仁德區","LI":"後壁里","LIN":"34鄰","STREET":"德洋路","SECT":" ","MAREA":" ","LANE":" ","ALLEY":" ","HOUSE_NO":"８５號","E_COORD97":172687.26999999999,"N_COORD97":2539242.0099999998,"ADDRESS":"德洋路８５號","OBJECTID":25272},"geometry":{"x":172687.26999999955,"y":2539242.0099999998}},{"attributes":{"ID":25273,"DIS_CODE":0,"TOWNNAME":"仁德區","LI":"後壁里","LIN":"34鄰","STREET":"德洋路","SECT":" ","MAREA":" ","LANE":" ","ALLEY":" ","HOUSE_NO":"８３號","E_COORD97":172831.82999999999,"N_COORD97":2539185.02,"ADDRESS":"德洋路８３號","OBJECTID":25273},"geometry":{"x":172831.83000000007,"y":2539185.0199999996}},{"attributes":{"ID":25274,"DIS_CODE":0,"TOWNNAME":"新營區","LI":"大宏里","LIN":"20鄰","STREET":"民族路","SECT":" ","MAREA":" ","LANE":" ","ALLEY":" ","HOUSE_NO":"１０之１０號","E_COORD97":180347.72,"N_COORD97":2578451.54,"ADDRESS":"民族路１０之１０號","OBJECTID":25274},"geometry":{"x":180347.72000000067,"y":2578451.5399999991}},{"attributes":{"ID":25275,"DIS_CODE":0,"TOWNNAME":"新營區","LI":"民權里","LIN":"20鄰","STREET":"中華路","SECT":" ","MAREA":" ","LANE":" ","ALLEY":" ","HOUSE_NO":"２４號","E_COORD97":179800.87,"N_COORD97":2578229.2400000002,"ADDRESS":"中華路２４號","OBJECTID":25275},"geometry":{"x":179800.87000000197,"y":2578229.2400000021}},{"attributes":{"ID":25276,"DIS_CODE":0,"TOWNNAME":"新營區","LI":"民榮里","LIN":"13鄰","STREET":"南昌街","SECT":" ","MAREA":" ","LANE":" ","ALLEY":" ","HOUSE_NO":"６０之４號","E_COORD97":179236.98999999999,"N_COORD97":2577662.75,"ADDRESS":"南昌街６０之４號","OBJECTID":25276},"geometry":{"x":179236.99000000022,"y":2577662.7500000019}},{"attributes":{"ID":25277,"DIS_CODE":0,"TOWNNAME":"新營區","LI":"嘉芳里","LIN":"4鄰","STREET":"嘉芳街","SECT":" ","MAREA":" ","LANE":" ","ALLEY":" ","HOUSE_NO":"１２２號","E_COORD97":176972.5,"N_COORD97":2578384.6699999999,"ADDRESS":"嘉芳街１２２號","OBJECTID":25277},"geometry":{"x":176972.50000000093,"y":2578384.6700000037}},{"attributes":{"ID":25278,"DIS_CODE":0,"TOWNNAME":"北門區","LI":"保吉里","LIN":"8鄰","STREET":" ","SECT":" ","MAREA":"蚵寮","LANE":" ","ALLEY":" ","HOUSE_NO":"２３７號","E_COORD97":161519.45000000001,"N_COORD97":2576147.0600000001,"ADDRESS":"蚵寮２３７號","OBJECTID":25278},"geometry":{"x":161519.44999999925,"y":2576147.0600000005}},{"attributes":{"ID":25279,"DIS_CODE":0,"TOWNNAME":"北門區","LI":"保吉里","LIN":"8鄰","STREET":" ","SECT":" ","MAREA":"蚵寮","LANE":" ","ALLEY":" ","HOUSE_NO":"２３８號","E_COORD97":161547.89000000001,"N_COORD97":2576140.46,"ADDRESS":"蚵寮２３８號","OBJECTID":25279},"geometry":{"x":161547.88999999966,"y":2576140.4600000028}},{"attributes":{"ID":25280,"DIS_CODE":0,"TOWNNAME":"北門區","LI":"東壁里","LIN":"8鄰","STREET":" ","SECT":" ","MAREA":"蚵寮","LANE":" ","ALLEY":" ","HOUSE_NO":"６３８號","E_COORD97":161693.45000000001,"N_COORD97":2576361.6099999999,"ADDRESS":"蚵寮６３８號","OBJECTID":25280},"geometry":{"x":161693.45000000019,"y":2576361.6100000013}},{"attributes":{"ID":25281,"DIS_CODE":0,"TOWNNAME":"北門區","LI":"東壁里","LIN":"8鄰","STREET":" ","SECT":" ","MAREA":"蚵寮","LANE":" ","ALLEY":" ","HOUSE_NO":"６４３號","E_COORD97":161673.41,"N_COORD97":2576415.27,"ADDRESS":"蚵寮６４３號","OBJECTID":25281},"geometry":{"x":161673.41000000015,"y":2576415.2700000014}},{"attributes":{"ID":25282,"DIS_CODE":0,"TOWNNAME":"北門區","LI":"東壁里","LIN":"8鄰","STREET":" ","SECT":" ","MAREA":"蚵寮","LANE":" ","ALLEY":" ","HOUSE_NO":"６４４號","E_COORD97":161670.76000000001,"N_COORD97":2576423.0099999998,"ADDRESS":"蚵寮６４４號","OBJECTID":25282},"geometry":{"x":161670.75999999978,"y":2576423.0100000016}},{"attributes":{"ID":25283,"DIS_CODE":0,"TOWNNAME":"北門區","LI":"東壁里","LIN":"8鄰","STREET":" ","SECT":" ","MAREA":"蚵寮","LANE":" ","ALLEY":" ","HOUSE_NO":"６４５號","E_COORD97":161689.85999999999,"N_COORD97":2576449.3300000001,"ADDRESS":"蚵寮６４５號","OBJECTID":25283},"geometry":{"x":161689.8600000022,"y":2576449.3300000019}},{"attributes":{"ID":25284,"DIS_CODE":0,"TOWNNAME":"北門區","LI":"東壁里","LIN":"8鄰","STREET":" ","SECT":" ","MAREA":"蚵寮","LANE":" ","ALLEY":" ","HOUSE_NO":"６４６號","E_COORD97":161689.45000000001,"N_COORD97":2576409.1899999999,"ADDRESS":"蚵寮６４６號","OBJECTID":25284},"geometry":{"x":161689.45000000112,"y":2576409.1899999995}},{"attributes":{"ID":25285,"DIS_CODE":0,"TOWNNAME":"北門區","LI":"東壁里","LIN":"8鄰","STREET":" ","SECT":" ","MAREA":"蚵寮","LANE":" ","ALLEY":" ","HOUSE_NO":"６４７號","E_COORD97":161693.07000000001,"N_COORD97":2576399.5,"ADDRESS":"蚵寮６４７號","OBJECTID":25285},"geometry":{"x":161693.0700000003,"y":2576399.5000000019}},{"attributes":{"ID":25286,"DIS_CODE":0,"TOWNNAME":"北門區","LI":"東壁里","LIN":"8鄰","STREET":" ","SECT":" ","MAREA":"蚵寮","LANE":" ","ALLEY":" ","HOUSE_NO":"６４９號","E_COORD97":161696.88,"N_COORD97":2576391.6299999999,"ADDRESS":"蚵寮６４９號","OBJECTID":25286},"geometry":{"x":161696.87999999989,"y":2576391.6300000008}},{"attributes":{"ID":25287,"DIS_CODE":0,"TOWNNAME":"北門區","LI":"東壁里","LIN":"8鄰","STREET":" ","SECT":" ","MAREA":"蚵寮","LANE":" ","ALLEY":" ","HOUSE_NO":"６５１號","E_COORD97":161683.85999999999,"N_COORD97":2576427.3999999999,"ADDRESS":"蚵寮６５１號","OBJECTID":25287},"geometry":{"x":161683.86000000127,"y":2576427.4000000041}},{"attributes":{"ID":25288,"DIS_CODE":0,"TOWNNAME":"新市區","LI":"大社里","LIN":"8鄰","STREET":" ","SECT":" ","MAREA":"大社","LANE":" ","ALLEY":" ","HOUSE_NO":"２７９號","E_COORD97":180362.92999999999,"N_COORD97":2554533,"ADDRESS":"大社２７９號","OBJECTID":25288},"geometry":{"x":180362.93000000156,"y":2554533}},{"attributes":{"ID":25289,"DIS_CODE":0,"TOWNNAME":"新市區","LI":"大社里","LIN":"8鄰","STREET":" ","SECT":" ","MAREA":"大社","LANE":" ","ALLEY":" ","HOUSE_NO":"２７７號","E_COORD97":180375.14999999999,"N_COORD97":2554496.75,"ADDRESS":"大社２７７號","OBJECTID":25289},"geometry":{"x":180375.15000000037,"y":2554496.7500000019}},{"attributes":{"ID":25290,"DIS_CODE":0,"TOWNNAME":"新市區","LI":"三舍里","LIN":"8鄰","STREET":" ","SECT":" ","MAREA":"三舍","LANE":" ","ALLEY":" ","HOUSE_NO":"１８２之６號","E_COORD97":177405.42999999999,"N_COORD97":2554894.2999999998,"ADDRESS":"三舍１８２之６號","OBJECTID":25290},"geometry":{"x":177405.43000000063,"y":2554894.3000000007}},{"attributes":{"ID":25291,"DIS_CODE":0,"TOWNNAME":"新市區","LI":"三舍里","LIN":"8鄰","STREET":" ","SECT":" ","MAREA":"三舍","LANE":" ","ALLEY":" ","HOUSE_NO":"１８２之１１號","E_COORD97":177403.48000000001,"N_COORD97":2554932.5499999998,"ADDRESS":"三舍１８２之１１號","OBJECTID":25291},"geometry":{"x":177403.48000000231,"y":2554932.5500000026}},{"attributes":{"ID":25292,"DIS_CODE":0,"TOWNNAME":"新市區","LI":"三舍里","LIN":"8鄰","STREET":" ","SECT":" ","MAREA":"三舍","LANE":" ","ALLEY":" ","HOUSE_NO":"１８２之１２號","E_COORD97":177398.54000000001,"N_COORD97":2554930.5499999998,"ADDRESS":"三舍１８２之１２號","OBJECTID":25292},"geometry":{"x":177398.54000000004,"y":2554930.5500000007}},{"attributes":{"ID":25293,"DIS_CODE":0,"TOWNNAME":"新市區","LI":"三舍里","LIN":"8鄰","STREET":" ","SECT":" ","MAREA":"三舍","LANE":" ","ALLEY":" ","HOUSE_NO":"１８２號","E_COORD97":177424.98000000001,"N_COORD97":2554902.5,"ADDRESS":"三舍１８２號","OBJECTID":25293},"geometry":{"x":177424.98000000045,"y":2554902.5}},{"attributes":{"ID":25294,"DIS_CODE":0,"TOWNNAME":"北門區","LI":"錦湖里","LIN":"8鄰","STREET":" ","SECT":" ","MAREA":"渡子頭","LANE":" ","ALLEY":" ","HOUSE_NO":"７２號之１","E_COORD97":164952.54000000001,"N_COORD97":2577517.04,"ADDRESS":"渡子頭７２號之１","OBJECTID":25294},"geometry":{"x":164952.54000000004,"y":2577517.040000001}},{"attributes":{"ID":25295,"DIS_CODE":0,"TOWNNAME":"北門區","LI":"錦湖里","LIN":"8鄰","STREET":" ","SECT":" ","MAREA":"渡子頭","LANE":" ","ALLEY":" ","HOUSE_NO":"７２號","E_COORD97":164957.81,"N_COORD97":2577516.29,"ADDRESS":"渡子頭７２號","OBJECTID":25295},"geometry":{"x":164957.81000000145,"y":2577516.290000001}},{"attributes":{"ID":25296,"DIS_CODE":0,"TOWNNAME":"北門區","LI":"錦湖里","LIN":"8鄰","STREET":" ","SECT":" ","MAREA":"渡子頭","LANE":" ","ALLEY":" ","HOUSE_NO":"７３號之１","E_COORD97":164946.17000000001,"N_COORD97":2577520.9700000002,"ADDRESS":"渡子頭７３號之１","OBJECTID":25296},"geometry":{"x":164946.17000000086,"y":2577520.9700000007}},{"attributes":{"ID":25297,"DIS_CODE":0,"TOWNNAME":"北門區","LI":"錦湖里","LIN":"8鄰","STREET":" ","SECT":" ","MAREA":"渡子頭","LANE":" ","ALLEY":" ","HOUSE_NO":"７３號之３","E_COORD97":164932.87,"N_COORD97":2577531.7999999998,"ADDRESS":"渡子頭７３號之３","OBJECTID":25297},"geometry":{"x":164932.87000000104,"y":2577531.8000000026}},{"attributes":{"ID":25298,"DIS_CODE":0,"TOWNNAME":"仁德區","LI":"上崙里","LIN":"14鄰","STREET":"德崙路","SECT":" ","MAREA":" ","LANE":"４５０巷","ALLEY":"３０弄","HOUSE_NO":"２０號","E_COORD97":174100.26999999999,"N_COORD97":2537986.0099999998,"ADDRESS":"德崙路４５０巷３０弄２０號","OBJECTID":25298},"geometry":{"x":174100.27000000048,"y":2537986.0100000016}},{"attributes":{"ID":25299,"DIS_CODE":0,"TOWNNAME":"仁德區","LI":"上崙里","LIN":"14鄰","STREET":"德崙路","SECT":" ","MAREA":" ","LANE":"４５０巷","ALLEY":"３０弄","HOUSE_NO":"１１號","E_COORD97":174144.92999999999,"N_COORD97":2537957.52,"ADDRESS":"德崙路４５０巷３０弄１１號","OBJECTID":25299},"geometry":{"x":174144.93000000156,"y":2537957.5199999996}},{"attributes":{"ID":25300,"DIS_CODE":0,"TOWNNAME":"仁德區","LI":"仁義里","LIN":"14鄰","STREET":"義林路","SECT":" ","MAREA":" ","LANE":"２００巷","ALLEY":"４６弄","HOUSE_NO":"２３號","E_COORD97":174720.92999999999,"N_COORD97":2541263.8399999999,"ADDRESS":"義林路２００巷４６弄２３號","OBJECTID":25300},"geometry":{"x":174720.9299999997,"y":2541263.8399999999}},{"attributes":{"ID":25301,"DIS_CODE":0,"TOWNNAME":"新營區","LI":"民生里","LIN":"25鄰","STREET":"民生路","SECT":" ","MAREA":" ","LANE":" ","ALLEY":" ","HOUSE_NO":"１４３號","E_COORD97":179232.12,"N_COORD97":2578618.46,"ADDRESS":"民生路１４３號","OBJECTID":25301},"geometry":{"x":179232.12000000104,"y":2578618.4600000028}},{"attributes":{"ID":25302,"DIS_CODE":0,"TOWNNAME":"仁德區","LI":"上崙里","LIN":"14鄰","STREET":"德崙路","SECT":" ","MAREA":" ","LANE":"４５０巷","ALLEY":"３０弄","HOUSE_NO":"１８號","E_COORD97":174110.53,"N_COORD97":2537986.75,"ADDRESS":"德崙路４５０巷３０弄１８號","OBJECTID":25302},"geometry":{"x":174110.53000000026,"y":2537986.75}},{"attributes":{"ID":25303,"DIS_CODE":0,"TOWNNAME":"仁德區","LI":"上崙里","LIN":"14鄰","STREET":"德崙路","SECT":" ","MAREA":" ","LANE":"４５０巷","ALLEY":"３０弄","HOUSE_NO":"２２號","E_COORD97":174091.63,"N_COORD97":2537987.5099999998,"ADDRESS":"德崙路４５０巷３０弄２２號","OBJECTID":25303},"geometry":{"x":174091.63000000082,"y":2537987.5099999998}},{"attributes":{"ID":25304,"DIS_CODE":0,"TOWNNAME":"仁德區","LI":"上崙里","LIN":"14鄰","STREET":"德崙路","SECT":" ","MAREA":" ","LANE":"３７０巷","ALLEY":"２１弄","HOUSE_NO":"３９號","E_COORD97":174150.32000000001,"N_COORD97":2538042.27,"ADDRESS":"德崙路３７０巷２１弄３９號","OBJECTID":25304},"geometry":{"x":174150.32000000123,"y":2538042.2700000014}},{"attributes":{"ID":25305,"DIS_CODE":0,"TOWNNAME":"仁德區","LI":"仁義里","LIN":"14鄰","STREET":"義林路","SECT":" ","MAREA":" ","LANE":"２００巷","ALLEY":"４６弄","HOUSE_NO":"１９號","E_COORD97":174718.35999999999,"N_COORD97":2541240.29,"ADDRESS":"義林路２００巷４６弄１９號","OBJECTID":25305},"geometry":{"x":174718.36000000034,"y":2541240.2899999991}},{"attributes":{"ID":25306,"DIS_CODE":0,"TOWNNAME":"仁德區","LI":"仁義里","LIN":"14鄰","STREET":"義林路","SECT":" ","MAREA":" ","LANE":"２００巷","ALLEY":"４６弄","HOUSE_NO":"１６號","E_COORD97":174703.95000000001,"N_COORD97":2541230.29,"ADDRESS":"義林路２００巷４６弄１６號","OBJECTID":25306},"geometry":{"x":174703.95000000019,"y":2541230.2899999991}},{"attributes":{"ID":25307,"DIS_CODE":0,"TOWNNAME":"仁德區","LI":"仁義里","LIN":"14鄰","STREET":"義林路","SECT":" ","MAREA":" ","LANE":"２００巷","ALLEY":"４６弄","HOUSE_NO":"３號","E_COORD97":174684.51999999999,"N_COORD97":2541244.79,"ADDRESS":"義林路２００巷４６弄３號","OBJECTID":25307},"geometry":{"x":174684.51999999955,"y":2541244.7900000028}},{"attributes":{"ID":25308,"DIS_CODE":0,"TOWNNAME":"仁德區","LI":"上崙里","LIN":"14鄰","STREET":"德崙路","SECT":" ","MAREA":" ","LANE":"３７０巷","ALLEY":"２１弄","HOUSE_NO":"２４號","E_COORD97":174102.01999999999,"N_COORD97":2537998.5099999998,"ADDRESS":"德崙路３７０巷２１弄２４號","OBJECTID":25308},"geometry":{"x":174102.02000000048,"y":2537998.5099999998}},{"attributes":{"ID":25309,"DIS_CODE":0,"TOWNNAME":"仁德區","LI":"仁義里","LIN":"14鄰","STREET":"義林路","SECT":" ","MAREA":" ","LANE":"２００巷","ALLEY":"４６弄","HOUSE_NO":"２５號","E_COORD97":174721.45999999999,"N_COORD97":2541267.5899999999,"ADDRESS":"義林路２００巷４６弄２５號","OBJECTID":25309},"geometry":{"x":174721.46000000183,"y":2541267.5900000017}},{"attributes":{"ID":25310,"DIS_CODE":0,"TOWNNAME":"仁德區","LI":"仁義里","LIN":"14鄰","STREET":"義林路","SECT":" ","MAREA":" ","LANE":"２００巷","ALLEY":"４６弄","HOUSE_NO":"８之１號","E_COORD97":174692.92000000001,"N_COORD97":2541212.04,"ADDRESS":"義林路２００巷４６弄８之１號","OBJECTID":25310},"geometry":{"x":174692.92000000086,"y":2541212.0399999991}},{"attributes":{"ID":25311,"DIS_CODE":0,"TOWNNAME":"仁德區","LI":"仁義里","LIN":"14鄰","STREET":"義林路","SECT":" ","MAREA":" ","LANE":"２００巷","ALLEY":"４６弄","HOUSE_NO":"１３號","E_COORD97":174705.42000000001,"N_COORD97":2541242.29,"ADDRESS":"義林路２００巷４６弄１３號","OBJECTID":25311},"geometry":{"x":174705.42000000086,"y":2541242.290000001}},{"attributes":{"ID":25312,"DIS_CODE":0,"TOWNNAME":"中西區","LI":"西湖里","LIN":"34鄰","STREET":"西湖街","SECT":" ","MAREA":" ","LANE":" ","ALLEY":" ","HOUSE_NO":"６１號","E_COORD97":166433.32999999999,"N_COORD97":2544889.8399999999,"ADDRESS":"西湖街６１號","OBJECTID":25312},"geometry":{"x":166433.33000000101,"y":2544889.8400000036}},{"attributes":{"ID":25313,"DIS_CODE":0,"TOWNNAME":"中西區","LI":"西湖里","LIN":"34鄰","STREET":"西湖街","SECT":" ","MAREA":" ","LANE":" ","ALLEY":" ","HOUSE_NO":"６３號","E_COORD97":166426.98000000001,"N_COORD97":2544890.6000000001,"ADDRESS":"西湖街６３號","OBJECTID":25313},"geometry":{"x":166426.98000000045,"y":2544890.5999999996}},{"attributes":{"ID":25314,"DIS_CODE":0,"TOWNNAME":"仁德區","LI":"仁義里","LIN":"14鄰","STREET":"義林路","SECT":" ","MAREA":" ","LANE":"２００巷","ALLEY":"４６弄","HOUSE_NO":"５號","E_COORD97":174688.59,"N_COORD97":2541244.29,"ADDRESS":"義林路２００巷４６弄５號","OBJECTID":25314},"geometry":{"x":174688.59000000078,"y":2541244.2899999991}},{"attributes":{"ID":25315,"DIS_CODE":0,"TOWNNAME":"仁德區","LI":"仁義里","LIN":"14鄰","STREET":"義林路","SECT":" ","MAREA":" ","LANE":"２００巷","ALLEY":"４６弄","HOUSE_NO":"１５號","E_COORD97":174709.72,"N_COORD97":2541241.54,"ADDRESS":"義林路２００巷４６弄１５號","OBJECTID":25315},"geometry":{"x":174709.72000000067,"y":2541241.5399999991}},{"attributes":{"ID":25316,"DIS_CODE":0,"TOWNNAME":"仁德區","LI":"仁義里","LIN":"14鄰","STREET":"義林路","SECT":" ","MAREA":" ","LANE":"２００巷","ALLEY":"４６弄","HOUSE_NO":"１０號","E_COORD97":174692.22,"N_COORD97":2541231.79,"ADDRESS":"義林路２００巷４６弄１０號","OBJECTID":25316},"geometry":{"x":174692.2200000016,"y":2541231.790000001}},{"attributes":{"ID":25317,"DIS_CODE":0,"TOWNNAME":"北門區","LI":"錦湖里","LIN":"8鄰","STREET":" ","SECT":" ","MAREA":"渡子頭","LANE":" ","ALLEY":" ","HOUSE_NO":"７３號","E_COORD97":164949.10999999999,"N_COORD97":2577533.2999999998,"ADDRESS":"渡子頭７３號","OBJECTID":25317},"geometry":{"x":164949.11000000034,"y":2577533.2999999989}},{"attributes":{"ID":25318,"DIS_CODE":0,"TOWNNAME":"北門區","LI":"錦湖里","LIN":"8鄰","STREET":" ","SECT":" ","MAREA":"渡子頭","LANE":" ","ALLEY":" ","HOUSE_NO":"７６號之２","E_COORD97":164971.60999999999,"N_COORD97":2577477.9700000002,"ADDRESS":"渡子頭７６號之２","OBJECTID":25318},"geometry":{"x":164971.6099999994,"y":2577477.9700000044}},{"attributes":{"ID":25319,"DIS_CODE":0,"TOWNNAME":"北門區","LI":"錦湖里","LIN":"8鄰","STREET":" ","SECT":" ","MAREA":"渡子頭","LANE":" ","ALLEY":" ","HOUSE_NO":"７７號之１","E_COORD97":164936.41,"N_COORD97":2577498.54,"ADDRESS":"渡子頭７７號之１","OBJECTID":25319},"geometry":{"x":164936.41000000108,"y":2577498.5399999991}},{"attributes":{"ID":25320,"DIS_CODE":0,"TOWNNAME":"北門區","LI":"錦湖里","LIN":"8鄰","STREET":" ","SECT":" ","MAREA":"渡子頭","LANE":" ","ALLEY":" ","HOUSE_NO":"７７號","E_COORD97":164933.37,"N_COORD97":2577486.7000000002,"ADDRESS":"渡子頭７７號","OBJECTID":25320},"geometry":{"x":164933.37000000011,"y":2577486.7000000011}},{"attributes":{"ID":25321,"DIS_CODE":0,"TOWNNAME":"仁德區","LI":"仁義里","LIN":"14鄰","STREET":"義林路","SECT":" ","MAREA":" ","LANE":"２００巷","ALLEY":"４６弄","HOUSE_NO":"８號","E_COORD97":174686.87,"N_COORD97":2541232.29,"ADDRESS":"義林路２００巷４６弄８號","OBJECTID":25321},"geometry":{"x":174686.87000000104,"y":2541232.290000001}},{"attributes":{"ID":25322,"DIS_CODE":0,"TOWNNAME":"仁德區","LI":"上崙里","LIN":"14鄰","STREET":"德崙路","SECT":" ","MAREA":" ","LANE":"３７０巷","ALLEY":"２１弄","HOUSE_NO":"３４號","E_COORD97":174116.76999999999,"N_COORD97":2538021.27,"ADDRESS":"德崙路３７０巷２１弄３４號","OBJECTID":25322},"geometry":{"x":174116.76999999955,"y":2538021.2700000014}},{"attributes":{"ID":25323,"DIS_CODE":0,"TOWNNAME":"仁德區","LI":"上崙里","LIN":"14鄰","STREET":"德崙路","SECT":" ","MAREA":" ","LANE":"３７０巷","ALLEY":"２１弄","HOUSE_NO":"３０號","E_COORD97":174102.20999999999,"N_COORD97":2538019.77,"ADDRESS":"德崙路３７０巷２１弄３０號","OBJECTID":25323},"geometry":{"x":174102.20999999996,"y":2538019.7699999996}},{"attributes":{"ID":25324,"DIS_CODE":0,"TOWNNAME":"仁德區","LI":"仁義里","LIN":"14鄰","STREET":"義林路","SECT":" ","MAREA":" ","LANE":"２００巷","ALLEY":"４６弄","HOUSE_NO":"２０號","E_COORD97":174712.22,"N_COORD97":2541229.04,"ADDRESS":"義林路２００巷４６弄２０號","OBJECTID":25324},"geometry":{"x":174712.21999999974,"y":2541229.0399999991}},{"attributes":{"ID":25325,"DIS_CODE":0,"TOWNNAME":"仁德區","LI":"仁義里","LIN":"14鄰","STREET":"義林路","SECT":" ","MAREA":" ","LANE":"２００巷","ALLEY":"４６弄","HOUSE_NO":"２４號","E_COORD97":174712.19,"N_COORD97":2541211.2799999998,"ADDRESS":"義林路２００巷４６弄２４號","OBJECTID":25325},"geometry":{"x":174712.19000000134,"y":2541211.2800000031}},{"attributes":{"ID":25326,"DIS_CODE":0,"TOWNNAME":"仁德區","LI":"仁義里","LIN":"14鄰","STREET":"義林路","SECT":" ","MAREA":" ","LANE":"２００巷","ALLEY":"６５弄","HOUSE_NO":"９號","E_COORD97":174646.44,"N_COORD97":2541322.2599999998,"ADDRESS":"義林路２００巷６５弄９號","OBJECTID":25326},"geometry":{"x":174646.44000000134,"y":2541322.2599999998}},{"attributes":{"ID":25327,"DIS_CODE":0,"TOWNNAME":"仁德區","LI":"仁義里","LIN":"14鄰","STREET":"義林路","SECT":" ","MAREA":" ","LANE":"２００巷","ALLEY":"５６弄","HOUSE_NO":"５號","E_COORD97":174698.06,"N_COORD97":2541316.9700000002,"ADDRESS":"義林路２００巷５６弄５號","OBJECTID":25327},"geometry":{"x":174698.05999999959,"y":2541316.9700000025}},{"attributes":{"ID":25328,"DIS_CODE":0,"TOWNNAME":"仁德區","LI":"仁義里","LIN":"14鄰","STREET":"義林路","SECT":" ","MAREA":" ","LANE":"２００巷","ALLEY":"４６弄","HOUSE_NO":"１２之１號","E_COORD97":174700,"N_COORD97":2541230.79,"ADDRESS":"義林路２００巷４６弄１２之１號","OBJECTID":25328},"geometry":{"x":174700,"y":2541230.7899999972}},{"attributes":{"ID":25329,"DIS_CODE":0,"TOWNNAME":"仁德區","LI":"仁義里","LIN":"14鄰","STREET":"義林路","SECT":" ","MAREA":" ","LANE":"２００巷","ALLEY":"４６弄","HOUSE_NO":"２８號","E_COORD97":174710.95999999999,"N_COORD97":2541203.2799999998,"ADDRESS":"義林路２００巷４６弄２８號","OBJECTID":25329},"geometry":{"x":174710.95999999996,"y":2541203.2799999993}},{"attributes":{"ID":25330,"DIS_CODE":0,"TOWNNAME":"仁德區","LI":"仁義里","LIN":"14鄰","STREET":"義林路","SECT":" ","MAREA":" ","LANE":"２００巷","ALLEY":"４６弄","HOUSE_NO":"１號","E_COORD97":174681.17000000001,"N_COORD97":2541245.29,"ADDRESS":"義林路２００巷４６弄１號","OBJECTID":25330},"geometry":{"x":174681.17000000086,"y":2541245.290000001}},{"attributes":{"ID":25331,"DIS_CODE":0,"TOWNNAME":"仁德區","LI":"仁義里","LIN":"14鄰","STREET":"義林路","SECT":" ","MAREA":" ","LANE":"２００巷","ALLEY":"６５弄","HOUSE_NO":"１５號","E_COORD97":174645.42000000001,"N_COORD97":2541310.7599999998,"ADDRESS":"義林路２００巷６５弄１５號","OBJECTID":25331},"geometry":{"x":174645.42000000179,"y":2541310.7600000016}},{"attributes":{"ID":25332,"DIS_CODE":0,"TOWNNAME":"仁德區","LI":"仁義里","LIN":"14鄰","STREET":"義林路","SECT":" ","MAREA":" ","LANE":"２００巷","ALLEY":"４６弄","HOUSE_NO":"１８號","E_COORD97":174708.29999999999,"N_COORD97":2541229.54,"ADDRESS":"義林路２００巷４６弄１８號","OBJECTID":25332},"geometry":{"x":174708.29999999981,"y":2541229.5400000028}},{"attributes":{"ID":25333,"DIS_CODE":0,"TOWNNAME":"官田區","LI":"社子里","LIN":"8鄰","STREET":" ","SECT":" ","MAREA":"社子","LANE":" ","ALLEY":" ","HOUSE_NO":"６０號","E_COORD97":184458.97,"N_COORD97":2564373.6899999999,"ADDRESS":"社子６０號","OBJECTID":25333},"geometry":{"x":184458.97000000067,"y":2564373.6899999995}},{"attributes":{"ID":25334,"DIS_CODE":0,"TOWNNAME":"仁德區","LI":"仁義里","LIN":"14鄰","STREET":"義林路","SECT":" ","MAREA":" ","LANE":"２００巷","ALLEY":"６５弄","HOUSE_NO":"７號","E_COORD97":174647.12,"N_COORD97":2541326.5099999998,"ADDRESS":"義林路２００巷６５弄７號","OBJECTID":25334},"geometry":{"x":174647.12000000011,"y":2541326.5100000016}},{"attributes":{"ID":25335,"DIS_CODE":0,"TOWNNAME":"北門區","LI":"錦湖里","LIN":"8鄰","STREET":" ","SECT":" ","MAREA":"渡子頭","LANE":" ","ALLEY":" ","HOUSE_NO":"７８號之１","E_COORD97":164909.62,"N_COORD97":2577515.3700000001,"ADDRESS":"渡子頭７８號之１","OBJECTID":25335},"geometry":{"x":164909.62000000011,"y":2577515.370000001}},{"attributes":{"ID":25336,"DIS_CODE":0,"TOWNNAME":"北門區","LI":"錦湖里","LIN":"8鄰","STREET":" ","SECT":" ","MAREA":"渡子頭","LANE":" ","ALLEY":" ","HOUSE_NO":"７８號之４","E_COORD97":164939.98999999999,"N_COORD97":2577447.8599999999,"ADDRESS":"渡子頭７８號之４","OBJECTID":25336},"geometry":{"x":164939.99000000022,"y":2577447.8600000013}},{"attributes":{"ID":25337,"DIS_CODE":0,"TOWNNAME":"北門區","LI":"錦湖里","LIN":"8鄰","STREET":" ","SECT":" ","MAREA":"渡子頭","LANE":" ","ALLEY":" ","HOUSE_NO":"７８號之５","E_COORD97":164946.26000000001,"N_COORD97":2577468.9300000002,"ADDRESS":"渡子頭７８號之５","OBJECTID":25337},"geometry":{"x":164946.25999999885,"y":2577468.9299999997}},{"attributes":{"ID":25338,"DIS_CODE":0,"TOWNNAME":"北門區","LI":"錦湖里","LIN":"8鄰","STREET":" ","SECT":" ","MAREA":"渡子頭","LANE":" ","ALLEY":" ","HOUSE_NO":"７８號","E_COORD97":164916.20999999999,"N_COORD97":2577496.21,"ADDRESS":"渡子頭７８號","OBJECTID":25338},"geometry":{"x":164916.20999999996,"y":2577496.2100000009}},{"attributes":{"ID":25339,"DIS_CODE":0,"TOWNNAME":"仁德區","LI":"仁義里","LIN":"14鄰","STREET":"義林路","SECT":" ","MAREA":" ","LANE":"２００巷","ALLEY":"５６弄","HOUSE_NO":"６號","E_COORD97":174701.29000000001,"N_COORD97":2541307.7200000002,"ADDRESS":"義林路２００巷５６弄６號","OBJECTID":25339},"geometry":{"x":174701.29000000097,"y":2541307.7200000044}},{"attributes":{"ID":25340,"DIS_CODE":0,"TOWNNAME":"仁德區","LI":"上崙里","LIN":"14鄰","STREET":"德崙路","SECT":" ","MAREA":" ","LANE":"３７０巷","ALLEY":"２１弄","HOUSE_NO":"３５號","E_COORD97":174140.29999999999,"N_COORD97":2538039.02,"ADDRESS":"德崙路３７０巷２１弄３５號","OBJECTID":25340},"geometry":{"x":174140.29999999981,"y":2538039.0199999996}},{"attributes":{"ID":25341,"DIS_CODE":0,"TOWNNAME":"仁德區","LI":"上崙里","LIN":"14鄰","STREET":"德崙路","SECT":" ","MAREA":" ","LANE":"３７０巷","ALLEY":"２１弄","HOUSE_NO":"３２號","E_COORD97":174112.87,"N_COORD97":2538020.27,"ADDRESS":"德崙路３７０巷２１弄３２號","OBJECTID":25341},"geometry":{"x":174112.87000000011,"y":2538020.2699999996}},{"attributes":{"ID":25342,"DIS_CODE":0,"TOWNNAME":"仁德區","LI":"仁義里","LIN":"14鄰","STREET":"義林路","SECT":" ","MAREA":" ","LANE":"２００巷","ALLEY":"４６弄","HOUSE_NO":"２６號","E_COORD97":174711.53,"N_COORD97":2541207.5299999998,"ADDRESS":"義林路２００巷４６弄２６號","OBJECTID":25342},"geometry":{"x":174711.53000000119,"y":2541207.5300000012}},{"attributes":{"ID":25343,"DIS_CODE":0,"TOWNNAME":"新市區","LI":"新和里","LIN":"34鄰","STREET":"仁愛街","SECT":" ","MAREA":" ","LANE":" ","ALLEY":" ","HOUSE_NO":"２０３號","E_COORD97":177595.25,"N_COORD97":2552799.7799999998,"ADDRESS":"仁愛街２０３號","OBJECTID":25343},"geometry":{"x":177595.25000000093,"y":2552799.7800000012}},{"attributes":{"ID":25344,"DIS_CODE":0,"TOWNNAME":"新市區","LI":"新和里","LIN":"34鄰","STREET":"仁愛街","SECT":" ","MAREA":" ","LANE":" ","ALLEY":" ","HOUSE_NO":"２０１號","E_COORD97":177594.39000000001,"N_COORD97":2552795.0299999998,"ADDRESS":"仁愛街２０１號","OBJECTID":25344},"geometry":{"x":177594.38999999966,"y":2552795.0300000012}},{"attributes":{"ID":25345,"DIS_CODE":0,"TOWNNAME":"新市區","LI":"新市里","LIN":"34鄰","STREET":"復興路","SECT":" ","MAREA":" ","LANE":" ","ALLEY":" ","HOUSE_NO":"１２８號","E_COORD97":177841.42000000001,"N_COORD97":2553717.0299999998,"ADDRESS":"復興路１２８號","OBJECTID":25345},"geometry":{"x":177841.42000000086,"y":2553717.0300000012}},{"attributes":{"ID":25346,"DIS_CODE":0,"TOWNNAME":"安南區","LI":"安富里","LIN":"34鄰","STREET":"府安路","SECT":"五段","MAREA":" ","LANE":" ","ALLEY":" ","HOUSE_NO":"２２４號","E_COORD97":167508.63,"N_COORD97":2546916.5099999998,"ADDRESS":"府安路五段２２４號","OBJECTID":25346},"geometry":{"x":167508.62999999989,"y":2546916.5100000016}},{"attributes":{"ID":25347,"DIS_CODE":0,"TOWNNAME":"新營區","LI":"中營里","LIN":"14鄰","STREET":"東山路","SECT":" ","MAREA":" ","LANE":" ","ALLEY":" ","HOUSE_NO":"１５號","E_COORD97":181159.29999999999,"N_COORD97":2578694.6400000001,"ADDRESS":"東山路１５號","OBJECTID":25347},"geometry":{"x":181159.30000000075,"y":2578694.6400000025}},{"attributes":{"ID":25348,"DIS_CODE":0,"TOWNNAME":"新營區","LI":"中營里","LIN":"14鄰","STREET":"東山路","SECT":" ","MAREA":" ","LANE":" ","ALLEY":" ","HOUSE_NO":"１２７號","E_COORD97":181545.26000000001,"N_COORD97":2578721.6499999999,"ADDRESS":"東山路１２７號","OBJECTID":25348},"geometry":{"x":181545.25999999978,"y":2578721.6500000022}},{"attributes":{"ID":25349,"DIS_CODE":0,"TOWNNAME":"新營區","LI":"民生里","LIN":" ","STREET":"民生路","SECT":" ","MAREA":" ","LANE":" ","ALLEY":" ","HOUSE_NO":"３０之４號","E_COORD97":179386.17000000001,"N_COORD97":2578253.4199999999,"ADDRESS":"民生路３０之４號","OBJECTID":25349},"geometry":{"x":179386.16999999993,"y":2578253.4199999999}},{"attributes":{"ID":25350,"DIS_CODE":0,"TOWNNAME":"新營區","LI":"民生里","LIN":"6鄰","STREET":"民生路","SECT":" ","MAREA":" ","LANE":" ","ALLEY":" ","HOUSE_NO":"３４號之１","E_COORD97":179390.34,"N_COORD97":2578268.9100000001,"ADDRESS":"民生路３４號之１","OBJECTID":25350},"geometry":{"x":179390.33999999985,"y":2578268.910000002}},{"attributes":{"ID":25351,"DIS_CODE":0,"TOWNNAME":"新營區","LI":"大宏里","LIN":"20鄰","STREET":"民族路","SECT":" ","MAREA":" ","LANE":" ","ALLEY":" ","HOUSE_NO":"１０之２號","E_COORD97":180337.17999999999,"N_COORD97":2578433.8700000001,"ADDRESS":"民族路１０之２號","OBJECTID":25351},"geometry":{"x":180337.1799999997,"y":2578433.870000001}},{"attributes":{"ID":25352,"DIS_CODE":0,"TOWNNAME":"仁德區","LI":"土庫里","LIN":"14鄰","STREET":"土庫路","SECT":" ","MAREA":" ","LANE":"１８５巷","ALLEY":"３２弄","HOUSE_NO":"５１號","E_COORD97":174446.38,"N_COORD97":2542775.4900000002,"ADDRESS":"土庫路１８５巷３２弄５１號","OBJECTID":25352},"geometry":{"x":174446.37999999989,"y":2542775.4900000002}},{"attributes":{"ID":25353,"DIS_CODE":0,"TOWNNAME":"仁德區","LI":"仁義里","LIN":"14鄰","STREET":"義林路","SECT":" ","MAREA":" ","LANE":"２００巷","ALLEY":"６５弄","HOUSE_NO":"１號","E_COORD97":174648.84,"N_COORD97":2541338.52,"ADDRESS":"義林路２００巷６５弄１號","OBJECTID":25353},"geometry":{"x":174648.83999999985,"y":2541338.5200000033}},{"attributes":{"ID":25354,"DIS_CODE":0,"TOWNNAME":"仁德區","LI":"仁義里","LIN":"14鄰","STREET":"義林路","SECT":" ","MAREA":" ","LANE":"２００巷","ALLEY":"５６弄","HOUSE_NO":"２號","E_COORD97":174690.98000000001,"N_COORD97":2541304.9700000002,"ADDRESS":"義林路２００巷５６弄２號","OBJECTID":25354},"geometry":{"x":174690.98000000045,"y":2541304.9700000007}},{"attributes":{"ID":25355,"DIS_CODE":0,"TOWNNAME":"仁德區","LI":"仁義里","LIN":"14鄰","STREET":"義林路","SECT":" ","MAREA":" ","LANE":"２００巷","ALLEY":"５６弄","HOUSE_NO":"７號","E_COORD97":174703.48999999999,"N_COORD97":2541318.7200000002,"ADDRESS":"義林路２００巷５６弄７號","OBJECTID":25355},"geometry":{"x":174703.49000000115,"y":2541318.7200000025}},{"attributes":{"ID":25356,"DIS_CODE":0,"TOWNNAME":"仁德區","LI":"土庫里","LIN":"14鄰","STREET":"土庫路","SECT":" ","MAREA":" ","LANE":"１８５巷","ALLEY":"３２弄","HOUSE_NO":"１６２號","E_COORD97":174380.89999999999,"N_COORD97":2542712.25,"ADDRESS":"土庫路１８５巷３２弄１６２號","OBJECTID":25356},"geometry":{"x":174380.90000000037,"y":2542712.25}},{"attributes":{"ID":25357,"DIS_CODE":0,"TOWNNAME":"仁德區","LI":"仁義里","LIN":"14鄰","STREET":"義林路","SECT":" ","MAREA":" ","LANE":"２００巷","ALLEY":"５６弄","HOUSE_NO":"１號","E_COORD97":174686.76000000001,"N_COORD97":2541313.9700000002,"ADDRESS":"義林路２００巷５６弄１號","OBJECTID":25357},"geometry":{"x":174686.75999999978,"y":2541313.9700000025}},{"attributes":{"ID":25358,"DIS_CODE":0,"TOWNNAME":"仁德區","LI":"仁義里","LIN":"14鄰","STREET":"義林路","SECT":" ","MAREA":" ","LANE":"２００巷","ALLEY":"６５弄","HOUSE_NO":"６號","E_COORD97":174627.47,"N_COORD97":2541327.4100000001,"ADDRESS":"義林路２００巷６５弄６號","OBJECTID":25358},"geometry":{"x":174627.46999999974,"y":2541327.410000002}},{"attributes":{"ID":25359,"DIS_CODE":0,"TOWNNAME":"仁德區","LI":"仁義里","LIN":"14鄰","STREET":"義林路","SECT":" ","MAREA":" ","LANE":"２００巷","ALLEY":"５６弄","HOUSE_NO":"３號","E_COORD97":174692.47,"N_COORD97":2541315.4700000002,"ADDRESS":"義林路２００巷５６弄３號","OBJECTID":25359},"geometry":{"x":174692.47000000067,"y":2541315.4700000007}},{"attributes":{"ID":25360,"DIS_CODE":0,"TOWNNAME":"仁德區","LI":"仁義里","LIN":"14鄰","STREET":"義林路","SECT":" ","MAREA":" ","LANE":"２００巷","ALLEY":"５６弄","HOUSE_NO":"８號","E_COORD97":174705.97,"N_COORD97":2541308.9700000002,"ADDRESS":"義林路２００巷５６弄８號","OBJECTID":25360},"geometry":{"x":174705.97000000067,"y":2541308.9700000007}},{"attributes":{"ID":25361,"DIS_CODE":0,"TOWNNAME":"仁德區","LI":"仁義里","LIN":"14鄰","STREET":"義林路","SECT":" ","MAREA":" ","LANE":"２００巷","ALLEY":"６５弄","HOUSE_NO":"２號","E_COORD97":174628.5,"N_COORD97":2541334.9199999999,"ADDRESS":"義林路２００巷６５弄２號","OBJECTID":25361},"geometry":{"x":174628.50000000093,"y":2541334.9199999999}},{"attributes":{"ID":25362,"DIS_CODE":0,"TOWNNAME":"仁德區","LI":"土庫里","LIN":"14鄰","STREET":"土庫路","SECT":" ","MAREA":" ","LANE":"１８５巷","ALLEY":"７弄","HOUSE_NO":"４號","E_COORD97":174383.34,"N_COORD97":2542972.9900000002,"ADDRESS":"土庫路１８５巷７弄４號","OBJECTID":25362},"geometry":{"x":174383.34000000078,"y":2542972.9900000002}},{"attributes":{"ID":25363,"DIS_CODE":0,"TOWNNAME":"仁德區","LI":"上崙里","LIN":"14鄰","STREET":"德崙路","SECT":" ","MAREA":" ","LANE":"４５０巷","ALLEY":"３０弄","HOUSE_NO":"９號","E_COORD97":174148.98999999999,"N_COORD97":2537959.77,"ADDRESS":"德崙路４５０巷３０弄９號","OBJECTID":25363},"geometry":{"x":174148.99000000115,"y":2537959.7699999977}},{"attributes":{"ID":25364,"DIS_CODE":0,"TOWNNAME":"新營區","LI":"民生里","LIN":" ","STREET":"中華路","SECT":" ","MAREA":" ","LANE":" ","ALLEY":" ","HOUSE_NO":"１００之２號","E_COORD97":179248.78,"N_COORD97":2578157.73,"ADDRESS":"中華路１００之２號","OBJECTID":25364},"geometry":{"x":179248.78000000026,"y":2578157.7300000042}},{"attributes":{"ID":25365,"DIS_CODE":0,"TOWNNAME":"中西區","LI":"開山里","LIN":"14鄰","STREET":"大同路","SECT":"一段","MAREA":" ","LANE":"４６巷","ALLEY":"１弄","HOUSE_NO":"１號","E_COORD97":169099.79999999999,"N_COORD97":2543120.4199999999,"ADDRESS":"大同路一段４６巷１弄１號","OBJECTID":25365},"geometry":{"x":169099.80000000075,"y":2543120.4200000018}},{"attributes":{"ID":25366,"DIS_CODE":0,"TOWNNAME":"中西區","LI":"開山里","LIN":"14鄰","STREET":"大同路","SECT":"一段","MAREA":" ","LANE":"４６巷","ALLEY":"１弄","HOUSE_NO":"２號","E_COORD97":169098.54000000001,"N_COORD97":2543116.54,"ADDRESS":"大同路一段４６巷１弄２號","OBJECTID":25366},"geometry":{"x":169098.54000000097,"y":2543116.5399999991}},{"attributes":{"ID":25367,"DIS_CODE":0,"TOWNNAME":"中西區","LI":"開山里","LIN":"14鄰","STREET":"大同路","SECT":"一段","MAREA":" ","LANE":"４６巷","ALLEY":"１弄","HOUSE_NO":"３號","E_COORD97":169096.59,"N_COORD97":2543113.5699999998,"ADDRESS":"大同路一段４６巷１弄３號","OBJECTID":25367},"geometry":{"x":169096.58999999985,"y":2543113.5700000022}},{"attributes":{"ID":25368,"DIS_CODE":0,"TOWNNAME":"中西區","LI":"開山里","LIN":"14鄰","STREET":"大同路","SECT":"一段","MAREA":" ","LANE":"４６巷","ALLEY":"１弄","HOUSE_NO":"４號","E_COORD97":169095.45000000001,"N_COORD97":2543109.7999999998,"ADDRESS":"大同路一段４６巷１弄４號","OBJECTID":25368},"geometry":{"x":169095.45000000205,"y":2543109.8000000007}},{"attributes":{"ID":25369,"DIS_CODE":0,"TOWNNAME":"中西區","LI":"開山里","LIN":"14鄰","STREET":"大同路","SECT":"一段","MAREA":" ","LANE":"４６巷","ALLEY":"１弄","HOUSE_NO":"５號","E_COORD97":169093.04999999999,"N_COORD97":2543106.9399999999,"ADDRESS":"大同路一段４６巷１弄５號","OBJECTID":25369},"geometry":{"x":169093.05000000075,"y":2543106.9400000013}},{"attributes":{"ID":25370,"DIS_CODE":0,"TOWNNAME":"中西區","LI":"開山里","LIN":"14鄰","STREET":"大同路","SECT":"一段","MAREA":" ","LANE":"４６巷","ALLEY":"１弄","HOUSE_NO":"６號","E_COORD97":169091.79000000001,"N_COORD97":2543103.3999999999,"ADDRESS":"大同路一段４６巷１弄６號","OBJECTID":25370},"geometry":{"x":169091.79000000097,"y":2543103.4000000041}},{"attributes":{"ID":25371,"DIS_CODE":0,"TOWNNAME":"中西區","LI":"開山里","LIN":"14鄰","STREET":"大同路","SECT":"一段","MAREA":" ","LANE":"４６巷","ALLEY":"１弄","HOUSE_NO":"７號","E_COORD97":169089.95999999999,"N_COORD97":2543099.9700000002,"ADDRESS":"大同路一段４６巷１弄７號","OBJECTID":25371},"geometry":{"x":169089.96000000183,"y":2543099.9700000025}},{"attributes":{"ID":25372,"DIS_CODE":0,"TOWNNAME":"中西區","LI":"開山里","LIN":"14鄰","STREET":"大同路","SECT":"一段","MAREA":" ","LANE":"４６巷","ALLEY":"２１弄","HOUSE_NO":"１０號","E_COORD97":169062.57000000001,"N_COORD97":2543124.6499999999,"ADDRESS":"大同路一段４６巷２１弄１０號","OBJECTID":25372},"geometry":{"x":169062.57000000123,"y":2543124.6500000004}},{"attributes":{"ID":25373,"DIS_CODE":0,"TOWNNAME":"中西區","LI":"開山里","LIN":"14鄰","STREET":"大同路","SECT":"一段","MAREA":" ","LANE":"４６巷","ALLEY":"２１弄","HOUSE_NO":"１２號","E_COORD97":169060.54999999999,"N_COORD97":2543121.9900000002,"ADDRESS":"大同路一段４６巷２１弄１２號","OBJECTID":25373},"geometry":{"x":169060.55000000075,"y":2543121.9900000002}},{"attributes":{"ID":25374,"DIS_CODE":0,"TOWNNAME":"中西區","LI":"開山里","LIN":"14鄰","STREET":"大同路","SECT":"一段","MAREA":" ","LANE":"４６巷","ALLEY":"２１弄","HOUSE_NO":"１４號","E_COORD97":169058.95000000001,"N_COORD97":2543118.4900000002,"ADDRESS":"大同路一段４６巷２１弄１４號","OBJECTID":25374},"geometry":{"x":169058.95000000019,"y":2543118.4900000002}},{"attributes":{"ID":25375,"DIS_CODE":0,"TOWNNAME":"中西區","LI":"開山里","LIN":"14鄰","STREET":"大同路","SECT":"一段","MAREA":" ","LANE":"４６巷","ALLEY":"２１弄","HOUSE_NO":"１６號","E_COORD97":169057.04000000001,"N_COORD97":2543115.4100000001,"ADDRESS":"大同路一段４６巷２１弄１６號","OBJECTID":25375},"geometry":{"x":169057.04000000004,"y":2543115.4100000001}},{"attributes":{"ID":25376,"DIS_CODE":0,"TOWNNAME":"永康區","LI":"埔園里","LIN":"34鄰","STREET":"八德街","SECT":" ","MAREA":" ","LANE":" ","ALLEY":" ","HOUSE_NO":"８６之１號","E_COORD97":174189.17999999999,"N_COORD97":2548527.54,"ADDRESS":"八德街８６之１號","OBJECTID":25376},"geometry":{"x":174189.18000000063,"y":2548527.5399999991}},{"attributes":{"ID":25377,"DIS_CODE":0,"TOWNNAME":"中西區","LI":"開山里","LIN":"14鄰","STREET":"大同路","SECT":"一段","MAREA":" ","LANE":"４６巷","ALLEY":"２１弄","HOUSE_NO":"１８號","E_COORD97":169055.66,"N_COORD97":2543112.0099999998,"ADDRESS":"大同路一段４６巷２１弄１８號","OBJECTID":25377},"geometry":{"x":169055.66000000108,"y":2543112.0100000035}},{"attributes":{"ID":25378,"DIS_CODE":0,"TOWNNAME":"北門區","LI":"錦湖里","LIN":"8鄰","STREET":" ","SECT":" ","MAREA":"渡子頭","LANE":" ","ALLEY":" ","HOUSE_NO":"７９號","E_COORD97":164985.25,"N_COORD97":2577584.4199999999,"ADDRESS":"渡子頭７９號","OBJECTID":25378},"geometry":{"x":164985.25,"y":2577584.4199999999}},{"attributes":{"ID":25379,"DIS_CODE":0,"TOWNNAME":"新營區","LI":"民生里","LIN":" ","STREET":"民生路","SECT":" ","MAREA":" ","LANE":" ","ALLEY":" ","HOUSE_NO":"１０５之３號","E_COORD97":179141.07999999999,"N_COORD97":2578522.6099999999,"ADDRESS":"民生路１０５之３號","OBJECTID":25379},"geometry":{"x":179141.08000000007,"y":2578522.6099999994}},{"attributes":{"ID":25380,"DIS_CODE":0,"TOWNNAME":"新營區","LI":"新南里","LIN":"20鄰","STREET":"復興路","SECT":" ","MAREA":" ","LANE":" ","ALLEY":" ","HOUSE_NO":"３９２號","E_COORD97":178490.67999999999,"N_COORD97":2578203.3999999999,"ADDRESS":"復興路３９２號","OBJECTID":25380},"geometry":{"x":178490.6799999997,"y":2578203.4000000004}},{"attributes":{"ID":25381,"DIS_CODE":0,"TOWNNAME":"新營區","LI":"王公里","LIN":"20鄰","STREET":"樂利街","SECT":" ","MAREA":" ","LANE":" ","ALLEY":" ","HOUSE_NO":"１０３號","E_COORD97":180428.88,"N_COORD97":2579276.1499999999,"ADDRESS":"樂利街１０３號","OBJECTID":25381},"geometry":{"x":180428.87999999989,"y":2579276.1500000004}},{"attributes":{"ID":25382,"DIS_CODE":0,"TOWNNAME":"中西區","LI":"開山里","LIN":"14鄰","STREET":"大同路","SECT":"一段","MAREA":" ","LANE":"４６巷","ALLEY":"２１弄","HOUSE_NO":"１號","E_COORD97":169071.42999999999,"N_COORD97":2543116.3100000001,"ADDRESS":"大同路一段４６巷２１弄１號","OBJECTID":25382},"geometry":{"x":169071.43000000063,"y":2543116.3100000005}},{"attributes":{"ID":25383,"DIS_CODE":0,"TOWNNAME":"中西區","LI":"開山里","LIN":"14鄰","STREET":"大同路","SECT":"一段","MAREA":" ","LANE":"４６巷","ALLEY":"２１弄","HOUSE_NO":"２０號","E_COORD97":169053.39999999999,"N_COORD97":2543108.7599999998,"ADDRESS":"大同路一段４６巷２１弄２０號","OBJECTID":25383},"geometry":{"x":169053.39999999944,"y":2543108.7599999998}},{"attributes":{"ID":25384,"DIS_CODE":0,"TOWNNAME":"中西區","LI":"開山里","LIN":"14鄰","STREET":"大同路","SECT":"一段","MAREA":" ","LANE":"４６巷","ALLEY":"２１弄","HOUSE_NO":"２２號","E_COORD97":169051.70000000001,"N_COORD97":2543105.4700000002,"ADDRESS":"大同路一段４６巷２１弄２２號","OBJECTID":25384},"geometry":{"x":169051.70000000112,"y":2543105.4700000007}},{"attributes":{"ID":25385,"DIS_CODE":0,"TOWNNAME":"中西區","LI":"開山里","LIN":"14鄰","STREET":"大同路","SECT":"一段","MAREA":" ","LANE":"４６巷","ALLEY":"２１弄","HOUSE_NO":"２４號","E_COORD97":169049.14999999999,"N_COORD97":2543102.2799999998,"ADDRESS":"大同路一段４６巷２１弄２４號","OBJECTID":25385},"geometry":{"x":169049.1500000013,"y":2543102.2799999993}},{"attributes":{"ID":25386,"DIS_CODE":0,"TOWNNAME":"中西區","LI":"開山里","LIN":"14鄰","STREET":"大同路","SECT":"一段","MAREA":" ","LANE":"４６巷","ALLEY":"２１弄","HOUSE_NO":"２６號","E_COORD97":169047.23000000001,"N_COORD97":2543100.0499999998,"ADDRESS":"大同路一段４６巷２１弄２６號","OBJECTID":25386},"geometry":{"x":169047.23000000045,"y":2543100.0500000026}},{"attributes":{"ID":25387,"DIS_CODE":0,"TOWNNAME":"中西區","LI":"開山里","LIN":"14鄰","STREET":"大同路","SECT":"一段","MAREA":" ","LANE":"４６巷","ALLEY":"２１弄","HOUSE_NO":"２８號","E_COORD97":169046.06,"N_COORD97":2543096.54,"ADDRESS":"大同路一段４６巷２１弄２８號","OBJECTID":25387},"geometry":{"x":169046.05999999959,"y":2543096.5399999991}},{"attributes":{"ID":25388,"DIS_CODE":0,"TOWNNAME":"中西區","LI":"開山里","LIN":"14鄰","STREET":"大同路","SECT":"一段","MAREA":" ","LANE":"４６巷","ALLEY":"２１弄","HOUSE_NO":"２號","E_COORD97":169068.63,"N_COORD97":2543138.9900000002,"ADDRESS":"大同路一段４６巷２１弄２號","OBJECTID":25388},"geometry":{"x":169068.63000000082,"y":2543138.9900000002}},{"attributes":{"ID":25389,"DIS_CODE":0,"TOWNNAME":"中西區","LI":"開山里","LIN":"14鄰","STREET":"大同路","SECT":"一段","MAREA":" ","LANE":"４６巷","ALLEY":"２１弄","HOUSE_NO":"３號","E_COORD97":169069.70999999999,"N_COORD97":2543112.3100000001,"ADDRESS":"大同路一段４６巷２１弄３號","OBJECTID":25389},"geometry":{"x":169069.71000000183,"y":2543112.3100000024}},{"attributes":{"ID":25390,"DIS_CODE":0,"TOWNNAME":"中西區","LI":"開山里","LIN":"14鄰","STREET":"大同路","SECT":"一段","MAREA":" ","LANE":"４６巷","ALLEY":"２１弄","HOUSE_NO":"４號","E_COORD97":169067.14000000001,"N_COORD97":2543135.0600000001,"ADDRESS":"大同路一段４６巷２１弄４號","OBJECTID":25390},"geometry":{"x":169067.1400000006,"y":2543135.0600000005}},{"attributes":{"ID":25391,"DIS_CODE":0,"TOWNNAME":"中西區","LI":"開山里","LIN":"14鄰","STREET":"大同路","SECT":"一段","MAREA":" ","LANE":"４６巷","ALLEY":"２１弄","HOUSE_NO":"５號","E_COORD97":169068.45000000001,"N_COORD97":2543109.3399999999,"ADDRESS":"大同路一段４６巷２１弄５號","OBJECTID":25391},"geometry":{"x":169068.45000000112,"y":2543109.3399999999}},{"attributes":{"ID":25392,"DIS_CODE":0,"TOWNNAME":"中西區","LI":"開山里","LIN":"14鄰","STREET":"大同路","SECT":"一段","MAREA":" ","LANE":"４６巷","ALLEY":"２１弄","HOUSE_NO":"６號","E_COORD97":169066.5,"N_COORD97":2543131.23,"ADDRESS":"大同路一段４６巷２１弄６號","OBJECTID":25392},"geometry":{"x":169066.50000000093,"y":2543131.2299999986}},{"attributes":{"ID":25393,"DIS_CODE":0,"TOWNNAME":"中西區","LI":"開山里","LIN":"14鄰","STREET":"大同路","SECT":"一段","MAREA":" ","LANE":"４６巷","ALLEY":"２１弄","HOUSE_NO":"７號","E_COORD97":169066.85000000001,"N_COORD97":2543106.3700000001,"ADDRESS":"大同路一段４６巷２１弄７號","OBJECTID":25393},"geometry":{"x":169066.85000000056,"y":2543106.370000001}},{"attributes":{"ID":25394,"DIS_CODE":0,"TOWNNAME":"中西區","LI":"開山里","LIN":"14鄰","STREET":"大同路","SECT":"一段","MAREA":" ","LANE":"４６巷","ALLEY":"２１弄","HOUSE_NO":"８號","E_COORD97":169064.16,"N_COORD97":2543128.2599999998,"ADDRESS":"大同路一段４６巷２１弄８號","OBJECTID":25394},"geometry":{"x":169064.16000000108,"y":2543128.2600000016}},{"attributes":{"ID":25395,"DIS_CODE":0,"TOWNNAME":"中西區","LI":"開山里","LIN":"14鄰","STREET":"大同路","SECT":"一段","MAREA":" ","LANE":"４６巷","ALLEY":"２１弄","HOUSE_NO":"９號","E_COORD97":169064.56,"N_COORD97":2543103.1699999999,"ADDRESS":"大同路一段４６巷２１弄９號","OBJECTID":25395},"geometry":{"x":169064.55999999959,"y":2543103.1699999999}},{"attributes":{"ID":25396,"DIS_CODE":0,"TOWNNAME":"東區","LI":"仁和里","LIN":"14鄰","STREET":"仁和路","SECT":" ","MAREA":" ","LANE":"１３９巷","ALLEY":"７１弄","HOUSE_NO":"６號","E_COORD97":171802,"N_COORD97":2541087.0499999998,"ADDRESS":"仁和路１３９巷７１弄６號","OBJECTID":25396},"geometry":{"x":171802.00000000186,"y":2541087.0500000007}},{"attributes":{"ID":25397,"DIS_CODE":0,"TOWNNAME":"東區","LI":"後甲里","LIN":"14鄰","STREET":"裕農路","SECT":" ","MAREA":" ","LANE":"６２１巷","ALLEY":"４１弄","HOUSE_NO":"３號","E_COORD97":171595.12,"N_COORD97":2543431.9199999999,"ADDRESS":"裕農路６２１巷４１弄３號","OBJECTID":25397},"geometry":{"x":171595.12000000104,"y":2543431.9200000018}},{"attributes":{"ID":25398,"DIS_CODE":0,"TOWNNAME":"東區","LI":"後甲里","LIN":"14鄰","STREET":"裕農路","SECT":" ","MAREA":" ","LANE":"６２１巷","ALLEY":"４１弄","HOUSE_NO":"７號","E_COORD97":171586.92000000001,"N_COORD97":2543431.6699999999,"ADDRESS":"裕農路６２１巷４１弄７號","OBJECTID":25398},"geometry":{"x":171586.91999999993,"y":2543431.6699999999}},{"attributes":{"ID":25399,"DIS_CODE":0,"TOWNNAME":"東區","LI":"後甲里","LIN":"14鄰","STREET":"裕農路","SECT":" ","MAREA":" ","LANE":"６２１巷","ALLEY":"４１弄","HOUSE_NO":"１號","E_COORD97":171598.98000000001,"N_COORD97":2543430.9500000002,"ADDRESS":"裕農路６２１巷４１弄１號","OBJECTID":25399},"geometry":{"x":171598.98000000045,"y":2543430.9500000011}},{"attributes":{"ID":25400,"DIS_CODE":0,"TOWNNAME":"東區","LI":"後甲里","LIN":"14鄰","STREET":"裕農路","SECT":" ","MAREA":" ","LANE":"６２１巷","ALLEY":"４１弄","HOUSE_NO":"５號","E_COORD97":171591.01999999999,"N_COORD97":2543432.3999999999,"ADDRESS":"裕農路６２１巷４１弄５號","OBJECTID":25400},"geometry":{"x":171591.01999999955,"y":2543432.4000000022}}]}