{"displayFieldName":"TOWNNAME","fieldAliases":{"ID":"ID","DIS_CODE":"DIS_CODE","TOWNNAME":"TOWNNAME","LI":"LI","LIN":"LIN","STREET":"STREET","SECT":"SECT","MAREA":"MAREA","LANE":"LANE","ALLEY":"ALLEY","HOUSE_NO":"HOUSE_NO","E_COORD97":"E_COORD97","N_COORD97":"N_COORD97","ADDRESS":"ADDRESS","OBJECTID":"OBJECTID"},"geometryType":"esriGeometryPoint","spatialReference":{"wkid":102443,"latestWkid":3826},"fields":[{"name":"ID","type":"esriFieldTypeDouble","alias":"ID"},{"name":"DIS_CODE","type":"esriFieldTypeInteger","alias":"DIS_CODE"},{"name":"TOWNNAME","type":"esriFieldTypeString","alias":"TOWNNAME","length":8},{"name":"LI","type":"esriFieldTypeString","alias":"LI","length":8},{"name":"LIN","type":"esriFieldTypeString","alias":"LIN","length":12},{"name":"STREET","type":"esriFieldTypeString","alias":"STREET","length":20},{"name":"SECT","type":"esriFieldTypeString","alias":"SECT","length":8},{"name":"MAREA","type":"esriFieldTypeString","alias":"MAREA","length":12},{"name":"LANE","type":"esriFieldTypeString","alias":"LANE","length":10},{"name":"ALLEY","type":"esriFieldTypeString","alias":"ALLEY","length":10},{"name":"HOUSE_NO","type":"esriFieldTypeString","alias":"HOUSE_NO","length":20},{"name":"E_COORD97","type":"esriFieldTypeDouble","alias":"E_COORD97"},{"name":"N_COORD97","type":"esriFieldTypeDouble","alias":"N_COORD97"},{"name":"ADDRESS","type":"esriFieldTypeString","alias":"ADDRESS","length":50},{"name":"OBJECTID","type":"esriFieldTypeOID","alias":"OBJECTID"}],"features":[{"attributes":{"ID":533628,"DIS_CODE":0,"TOWNNAME":"安南區","LI":"安順里","LIN":"19鄰","STREET":"安豐四街","SECT":" ","MAREA":" ","LANE":" ","ALLEY":" ","HOUSE_NO":"１３９號","E_COORD97":169666.01999999999,"N_COORD97":2549860.3700000001,"ADDRESS":"安豐四街１３９號","OBJECTID":533601},"geometry":{"x":169666.02000000048,"y":2549860.370000001}},{"attributes":{"ID":533629,"DIS_CODE":0,"TOWNNAME":"安南區","LI":"安順里","LIN":"19鄰","STREET":"安豐四街","SECT":" ","MAREA":" ","LANE":" ","ALLEY":" ","HOUSE_NO":"１５８號","E_COORD97":169697.14000000001,"N_COORD97":2549845.9199999999,"ADDRESS":"安豐四街１５８號","OBJECTID":533602},"geometry":{"x":169697.1400000006,"y":2549845.9200000037}},{"attributes":{"ID":533630,"DIS_CODE":0,"TOWNNAME":"安南區","LI":"安順里","LIN":"19鄰","STREET":"安豐四街","SECT":" ","MAREA":" ","LANE":" ","ALLEY":" ","HOUSE_NO":"１５１號","E_COORD97":169690.31,"N_COORD97":2549858.9399999999,"ADDRESS":"安豐四街１５１號","OBJECTID":533603},"geometry":{"x":169690.30999999959,"y":2549858.9400000032}},{"attributes":{"ID":533631,"DIS_CODE":0,"TOWNNAME":"安南區","LI":"安順里","LIN":"19鄰","STREET":"安豐四街","SECT":" ","MAREA":" ","LANE":" ","ALLEY":" ","HOUSE_NO":"１４９號","E_COORD97":169686.03,"N_COORD97":2549859.4100000001,"ADDRESS":"安豐四街１４９號","OBJECTID":533604},"geometry":{"x":169686.03000000026,"y":2549859.4100000001}},{"attributes":{"ID":533632,"DIS_CODE":0,"TOWNNAME":"安南區","LI":"安順里","LIN":"19鄰","STREET":"安豐四街","SECT":" ","MAREA":" ","LANE":" ","ALLEY":" ","HOUSE_NO":"１４７號","E_COORD97":169682.06,"N_COORD97":2549859.73,"ADDRESS":"安豐四街１４７號","OBJECTID":533605},"geometry":{"x":169682.05999999866,"y":2549859.7300000004}},{"attributes":{"ID":533633,"DIS_CODE":0,"TOWNNAME":"安南區","LI":"安順里","LIN":"19鄰","STREET":"安豐四街","SECT":" ","MAREA":" ","LANE":" ","ALLEY":" ","HOUSE_NO":"１４５號","E_COORD97":169678.09,"N_COORD97":2549860.0499999998,"ADDRESS":"安豐四街１４５號","OBJECTID":533606},"geometry":{"x":169678.08999999985,"y":2549860.0500000026}},{"attributes":{"ID":533634,"DIS_CODE":0,"TOWNNAME":"安南區","LI":"安順里","LIN":"19鄰","STREET":"安豐四街","SECT":" ","MAREA":" ","LANE":" ","ALLEY":" ","HOUSE_NO":"１４３號","E_COORD97":169673.95999999999,"N_COORD97":2549860.21,"ADDRESS":"安豐四街１４３號","OBJECTID":533607},"geometry":{"x":169673.95999999996,"y":2549860.2100000028}},{"attributes":{"ID":533635,"DIS_CODE":0,"TOWNNAME":"安南區","LI":"安順里","LIN":"19鄰","STREET":"安豐四街","SECT":" ","MAREA":" ","LANE":" ","ALLEY":" ","HOUSE_NO":"１４１號","E_COORD97":169669.67999999999,"N_COORD97":2549860.3700000001,"ADDRESS":"安豐四街１４１號","OBJECTID":533608},"geometry":{"x":169669.68000000156,"y":2549860.370000001}},{"attributes":{"ID":533636,"DIS_CODE":0,"TOWNNAME":"安南區","LI":"安順里","LIN":"19鄰","STREET":"安豐四街","SECT":" ","MAREA":" ","LANE":" ","ALLEY":" ","HOUSE_NO":"１５０號","E_COORD97":169685.39000000001,"N_COORD97":2549846.3999999999,"ADDRESS":"安豐四街１５０號","OBJECTID":533609},"geometry":{"x":169685.3900000006,"y":2549846.3999999985}},{"attributes":{"ID":533637,"DIS_CODE":0,"TOWNNAME":"安南區","LI":"安順里","LIN":"19鄰","STREET":"安豐四街","SECT":" ","MAREA":" ","LANE":" ","ALLEY":" ","HOUSE_NO":"１５２號","E_COORD97":169689.35999999999,"N_COORD97":2549846.3999999999,"ADDRESS":"安豐四街１５２號","OBJECTID":533610},"geometry":{"x":169689.3600000022,"y":2549846.3999999985}},{"attributes":{"ID":533638,"DIS_CODE":0,"TOWNNAME":"安南區","LI":"安順里","LIN":"19鄰","STREET":"安豐四街","SECT":" ","MAREA":" ","LANE":" ","ALLEY":" ","HOUSE_NO":"１５６號","E_COORD97":169693.32999999999,"N_COORD97":2549846.3999999999,"ADDRESS":"安豐四街１５６號","OBJECTID":533611},"geometry":{"x":169693.33000000101,"y":2549846.3999999985}},{"attributes":{"ID":533639,"DIS_CODE":0,"TOWNNAME":"安南區","LI":"安順里","LIN":"19鄰","STREET":"安豐四街","SECT":" ","MAREA":" ","LANE":" ","ALLEY":" ","HOUSE_NO":"１４６號","E_COORD97":169673.79999999999,"N_COORD97":2549847.0299999998,"ADDRESS":"安豐四街１４６號","OBJECTID":533612},"geometry":{"x":169673.79999999981,"y":2549847.0299999993}},{"attributes":{"ID":533640,"DIS_CODE":0,"TOWNNAME":"安南區","LI":"安順里","LIN":"19鄰","STREET":"安豐四街","SECT":" ","MAREA":" ","LANE":" ","ALLEY":" ","HOUSE_NO":"１４２號","E_COORD97":169669.51999999999,"N_COORD97":2549847.3500000001,"ADDRESS":"安豐四街１４２號","OBJECTID":533613},"geometry":{"x":169669.52000000048,"y":2549847.3500000015}},{"attributes":{"ID":533641,"DIS_CODE":0,"TOWNNAME":"安南區","LI":"安順里","LIN":"19鄰","STREET":"安豐四街","SECT":" ","MAREA":" ","LANE":" ","ALLEY":" ","HOUSE_NO":"１４０號","E_COORD97":169666.17999999999,"N_COORD97":2549847.3500000001,"ADDRESS":"安豐四街１４０號","OBJECTID":533614},"geometry":{"x":169666.18000000156,"y":2549847.3500000015}},{"attributes":{"ID":533642,"DIS_CODE":0,"TOWNNAME":"安南區","LI":"安順里","LIN":"19鄰","STREET":"安豐四街","SECT":" ","MAREA":" ","LANE":" ","ALLEY":" ","HOUSE_NO":"１３８號","E_COORD97":169663.17000000001,"N_COORD97":2549847.6699999999,"ADDRESS":"安豐四街１３８號","OBJECTID":533615},"geometry":{"x":169663.17000000179,"y":2549847.6700000037}},{"attributes":{"ID":533643,"DIS_CODE":0,"TOWNNAME":"安南區","LI":"安順里","LIN":"19鄰","STREET":"安豐四街","SECT":" ","MAREA":" ","LANE":" ","ALLEY":" ","HOUSE_NO":"１３６號","E_COORD97":169659.51999999999,"N_COORD97":2549847.8300000001,"ADDRESS":"安豐四街１３６號","OBJECTID":533616},"geometry":{"x":169659.52000000048,"y":2549847.8300000019}},{"attributes":{"ID":533644,"DIS_CODE":0,"TOWNNAME":"安南區","LI":"安順里","LIN":"19鄰","STREET":"安豐四街","SECT":" ","MAREA":" ","LANE":" ","ALLEY":" ","HOUSE_NO":"１３２號","E_COORD97":169656.01999999999,"N_COORD97":2549848.1400000001,"ADDRESS":"安豐四街１３２號","OBJECTID":533617},"geometry":{"x":169656.02000000048,"y":2549848.1400000006}},{"attributes":{"ID":533645,"DIS_CODE":0,"TOWNNAME":"安南區","LI":"安順里","LIN":"19鄰","STREET":"安豐四街","SECT":" ","MAREA":" ","LANE":" ","ALLEY":" ","HOUSE_NO":"１１８號","E_COORD97":169636.17999999999,"N_COORD97":2549849.1000000001,"ADDRESS":"安豐四街１１８號","OBJECTID":533618},"geometry":{"x":169636.18000000063,"y":2549849.1000000015}},{"attributes":{"ID":533646,"DIS_CODE":0,"TOWNNAME":"安南區","LI":"安順里","LIN":"19鄰","STREET":"安豐四街","SECT":" ","MAREA":" ","LANE":" ","ALLEY":" ","HOUSE_NO":"１２０號","E_COORD97":169639.67000000001,"N_COORD97":2549849.1000000001,"ADDRESS":"安豐四街１２０號","OBJECTID":533619},"geometry":{"x":169639.67000000086,"y":2549849.1000000015}},{"attributes":{"ID":533647,"DIS_CODE":0,"TOWNNAME":"安南區","LI":"安順里","LIN":"19鄰","STREET":"安豐四街","SECT":" ","MAREA":" ","LANE":" ","ALLEY":" ","HOUSE_NO":"１２２號","E_COORD97":169643.01000000001,"N_COORD97":2549848.7799999998,"ADDRESS":"安豐四街１２２號","OBJECTID":533620},"geometry":{"x":169643.00999999978,"y":2549848.7799999993}},{"attributes":{"ID":533648,"DIS_CODE":0,"TOWNNAME":"安南區","LI":"安順里","LIN":"19鄰","STREET":"安豐四街","SECT":" ","MAREA":" ","LANE":" ","ALLEY":" ","HOUSE_NO":"１２６號","E_COORD97":169646.01999999999,"N_COORD97":2549848.46,"ADDRESS":"安豐四街１２６號","OBJECTID":533621},"geometry":{"x":169646.01999999955,"y":2549848.4600000009}},{"attributes":{"ID":533649,"DIS_CODE":0,"TOWNNAME":"安南區","LI":"安順里","LIN":"19鄰","STREET":"安豐四街","SECT":" ","MAREA":" ","LANE":" ","ALLEY":" ","HOUSE_NO":"１２８號","E_COORD97":169649.20000000001,"N_COORD97":2549848.2999999998,"ADDRESS":"安豐四街１２８號","OBJECTID":533622},"geometry":{"x":169649.20000000019,"y":2549848.3000000026}},{"attributes":{"ID":533650,"DIS_CODE":0,"TOWNNAME":"安南區","LI":"安順里","LIN":"19鄰","STREET":"育安二街","SECT":" ","MAREA":" ","LANE":" ","ALLEY":" ","HOUSE_NO":"８５號","E_COORD97":169697.78,"N_COORD97":2549872.1099999999,"ADDRESS":"育安二街８５號","OBJECTID":533623},"geometry":{"x":169697.78000000026,"y":2549872.1100000013}},{"attributes":{"ID":533651,"DIS_CODE":0,"TOWNNAME":"安南區","LI":"安順里","LIN":"19鄰","STREET":"育安二街","SECT":" ","MAREA":" ","LANE":" ","ALLEY":" ","HOUSE_NO":"９３號","E_COORD97":169696.19,"N_COORD97":2549902.6000000001,"ADDRESS":"育安二街９３號","OBJECTID":533624},"geometry":{"x":169696.19000000134,"y":2549902.6000000015}},{"attributes":{"ID":533652,"DIS_CODE":0,"TOWNNAME":"安南區","LI":"安順里","LIN":"19鄰","STREET":"育安二街","SECT":" ","MAREA":" ","LANE":" ","ALLEY":" ","HOUSE_NO":"９１號","E_COORD97":169696.51000000001,"N_COORD97":2549896.0899999999,"ADDRESS":"育安二街９１號","OBJECTID":533625},"geometry":{"x":169696.51000000071,"y":2549896.0900000017}},{"attributes":{"ID":533653,"DIS_CODE":0,"TOWNNAME":"安南區","LI":"安順里","LIN":"19鄰","STREET":"育安街","SECT":" ","MAREA":" ","LANE":" ","ALLEY":" ","HOUSE_NO":"１６２號","E_COORD97":169601.41,"N_COORD97":2549865.9199999999,"ADDRESS":"育安街１６２號","OBJECTID":533626},"geometry":{"x":169601.41000000108,"y":2549865.9199999999}},{"attributes":{"ID":533654,"DIS_CODE":0,"TOWNNAME":"安南區","LI":"安順里","LIN":"19鄰","STREET":"育安街","SECT":" ","MAREA":" ","LANE":" ","ALLEY":" ","HOUSE_NO":"１８０號","E_COORD97":169594.26999999999,"N_COORD97":2549911.6400000001,"ADDRESS":"育安街１８０號","OBJECTID":533627},"geometry":{"x":169594.27000000142,"y":2549911.6400000006}},{"attributes":{"ID":533655,"DIS_CODE":0,"TOWNNAME":"安南區","LI":"安順里","LIN":"19鄰","STREET":"育安街","SECT":" ","MAREA":" ","LANE":" ","ALLEY":" ","HOUSE_NO":"１７８號","E_COORD97":169594.75,"N_COORD97":2549905.6099999999,"ADDRESS":"育安街１７８號","OBJECTID":533628},"geometry":{"x":169594.74999999907,"y":2549905.6100000013}},{"attributes":{"ID":533656,"DIS_CODE":0,"TOWNNAME":"安南區","LI":"安順里","LIN":"19鄰","STREET":"育安街","SECT":" ","MAREA":" ","LANE":" ","ALLEY":" ","HOUSE_NO":"１７６號","E_COORD97":169596.17999999999,"N_COORD97":2549898.6299999999,"ADDRESS":"育安街１７６號","OBJECTID":533629},"geometry":{"x":169596.1799999997,"y":2549898.6300000008}},{"attributes":{"ID":533657,"DIS_CODE":0,"TOWNNAME":"安南區","LI":"安順里","LIN":"19鄰","STREET":"育安街","SECT":" ","MAREA":" ","LANE":" ","ALLEY":" ","HOUSE_NO":"１６６號","E_COORD97":169600.14000000001,"N_COORD97":2549873.8500000001,"ADDRESS":"育安街１６６號","OBJECTID":533630},"geometry":{"x":169600.13999999966,"y":2549873.8500000015}},{"attributes":{"ID":533658,"DIS_CODE":0,"TOWNNAME":"安南區","LI":"安順里","LIN":"19鄰","STREET":"育安街","SECT":" ","MAREA":" ","LANE":" ","ALLEY":" ","HOUSE_NO":"１６８號","E_COORD97":169599.03,"N_COORD97":2549880.3700000001,"ADDRESS":"育安街１６８號","OBJECTID":533631},"geometry":{"x":169599.03000000119,"y":2549880.370000001}},{"attributes":{"ID":533659,"DIS_CODE":0,"TOWNNAME":"安南區","LI":"安順里","LIN":"19鄰","STREET":"育安街","SECT":" ","MAREA":" ","LANE":" ","ALLEY":" ","HOUSE_NO":"１７０號","E_COORD97":169597.92000000001,"N_COORD97":2549887.04,"ADDRESS":"育安街１７０號","OBJECTID":533632},"geometry":{"x":169597.91999999993,"y":2549887.0399999991}},{"attributes":{"ID":533660,"DIS_CODE":0,"TOWNNAME":"安南區","LI":"安順里","LIN":"19鄰","STREET":"育安街","SECT":" ","MAREA":" ","LANE":" ","ALLEY":" ","HOUSE_NO":"１７２號","E_COORD97":169596.97,"N_COORD97":2549893.0699999998,"ADDRESS":"育安街１７２號","OBJECTID":533633},"geometry":{"x":169596.97000000067,"y":2549893.070000004}},{"attributes":{"ID":533661,"DIS_CODE":0,"TOWNNAME":"安南區","LI":"長安里","LIN":"19鄰","STREET":"公學路","SECT":"二段","MAREA":" ","LANE":" ","ALLEY":" ","HOUSE_NO":"１３４之６號","E_COORD97":167649.23999999999,"N_COORD97":2552246.1400000001,"ADDRESS":"公學路二段１３４之６號","OBJECTID":533634},"geometry":{"x":167649.24000000209,"y":2552246.1400000025}},{"attributes":{"ID":533662,"DIS_CODE":0,"TOWNNAME":"安南區","LI":"溪心里","LIN":"19鄰","STREET":"功安一街","SECT":" ","MAREA":" ","LANE":" ","ALLEY":" ","HOUSE_NO":"１０１號","E_COORD97":165993.70000000001,"N_COORD97":2549988.6400000001,"ADDRESS":"功安一街１０１號","OBJECTID":533635},"geometry":{"x":165993.70000000112,"y":2549988.6400000025}},{"attributes":{"ID":533663,"DIS_CODE":0,"TOWNNAME":"安南區","LI":"溪心里","LIN":"19鄰","STREET":"功安一街","SECT":" ","MAREA":" ","LANE":" ","ALLEY":" ","HOUSE_NO":"９９號","E_COORD97":165996.62,"N_COORD97":2549985.3399999999,"ADDRESS":"功安一街９９號","OBJECTID":533636},"geometry":{"x":165996.62000000011,"y":2549985.3400000036}},{"attributes":{"ID":533664,"DIS_CODE":0,"TOWNNAME":"安南區","LI":"溪心里","LIN":"19鄰","STREET":"功安一街","SECT":" ","MAREA":" ","LANE":" ","ALLEY":" ","HOUSE_NO":"１０３號","E_COORD97":165991.03,"N_COORD97":2549992.0699999998,"ADDRESS":"功安一街１０３號","OBJECTID":533637},"geometry":{"x":165991.03000000212,"y":2549992.0700000022}},{"attributes":{"ID":533665,"DIS_CODE":0,"TOWNNAME":"安南區","LI":"溪心里","LIN":"19鄰","STREET":"功安一街","SECT":" ","MAREA":" ","LANE":" ","ALLEY":" ","HOUSE_NO":"１０５號","E_COORD97":165987.60000000001,"N_COORD97":2549996.1400000001,"ADDRESS":"功安一街１０５號","OBJECTID":533638},"geometry":{"x":165987.59999999963,"y":2549996.1400000006}},{"attributes":{"ID":533666,"DIS_CODE":0,"TOWNNAME":"安南區","LI":"溪心里","LIN":"19鄰","STREET":"功安一街","SECT":" ","MAREA":" ","LANE":" ","ALLEY":" ","HOUSE_NO":"１０７號","E_COORD97":165984.92999999999,"N_COORD97":2549999.4399999999,"ADDRESS":"功安一街１０７號","OBJECTID":533639},"geometry":{"x":165984.93000000063,"y":2549999.4400000013}},{"attributes":{"ID":533667,"DIS_CODE":0,"TOWNNAME":"安南區","LI":"溪心里","LIN":"19鄰","STREET":"海中街","SECT":" ","MAREA":" ","LANE":" ","ALLEY":" ","HOUSE_NO":"７９２號","E_COORD97":165940.54999999999,"N_COORD97":2549948.2599999998,"ADDRESS":"海中街７９２號","OBJECTID":533640},"geometry":{"x":165940.54999999981,"y":2549948.2599999998}},{"attributes":{"ID":533668,"DIS_CODE":0,"TOWNNAME":"安南區","LI":"溪心里","LIN":"19鄰","STREET":"海中街","SECT":" ","MAREA":" ","LANE":" ","ALLEY":" ","HOUSE_NO":"７９０號","E_COORD97":165939.01999999999,"N_COORD97":2549945.4700000002,"ADDRESS":"海中街７９０號","OBJECTID":533641},"geometry":{"x":165939.01999999955,"y":2549945.4700000025}},{"attributes":{"ID":533669,"DIS_CODE":0,"TOWNNAME":"安南區","LI":"溪心里","LIN":"19鄰","STREET":"海中街","SECT":" ","MAREA":" ","LANE":" ","ALLEY":" ","HOUSE_NO":"７８８號","E_COORD97":165937.88,"N_COORD97":2549941.5299999998,"ADDRESS":"海中街７８８號","OBJECTID":533642},"geometry":{"x":165937.88000000082,"y":2549941.5299999993}},{"attributes":{"ID":533670,"DIS_CODE":0,"TOWNNAME":"安南區","LI":"溪心里","LIN":"19鄰","STREET":"海中街","SECT":" ","MAREA":" ","LANE":" ","ALLEY":" ","HOUSE_NO":"７８６號","E_COORD97":165936.48000000001,"N_COORD97":2549937.8500000001,"ADDRESS":"海中街７８６號","OBJECTID":533643},"geometry":{"x":165936.48000000045,"y":2549937.8500000034}},{"attributes":{"ID":533671,"DIS_CODE":0,"TOWNNAME":"東區","LI":"裕聖里","LIN":"19鄰","STREET":"裕信路","SECT":" ","MAREA":" ","LANE":" ","ALLEY":" ","HOUSE_NO":"３８３號","E_COORD97":172617.81,"N_COORD97":2542058.3500000001,"ADDRESS":"裕信路３８３號","OBJECTID":533644},"geometry":{"x":172617.80999999959,"y":2542058.3500000034}},{"attributes":{"ID":533672,"DIS_CODE":0,"TOWNNAME":"東區","LI":"裕聖里","LIN":"19鄰","STREET":"裕信路","SECT":" ","MAREA":" ","LANE":" ","ALLEY":" ","HOUSE_NO":"３８５號","E_COORD97":172611.39999999999,"N_COORD97":2542038.6800000002,"ADDRESS":"裕信路３８５號","OBJECTID":533645},"geometry":{"x":172611.40000000037,"y":2542038.6799999997}},{"attributes":{"ID":533673,"DIS_CODE":0,"TOWNNAME":"東區","LI":"裕聖里","LIN":"19鄰","STREET":"裕信路","SECT":" ","MAREA":" ","LANE":" ","ALLEY":" ","HOUSE_NO":"３９５號","E_COORD97":172606.79000000001,"N_COORD97":2542024.8599999999,"ADDRESS":"裕信路３９５號","OBJECTID":533646},"geometry":{"x":172606.79000000004,"y":2542024.8600000013}},{"attributes":{"ID":533674,"DIS_CODE":0,"TOWNNAME":"東區","LI":"裕聖里","LIN":"19鄰","STREET":"裕信路","SECT":" ","MAREA":" ","LANE":" ","ALLEY":" ","HOUSE_NO":"３９７號","E_COORD97":172607,"N_COORD97":2542020.6400000001,"ADDRESS":"裕信路３９７號","OBJECTID":533647},"geometry":{"x":172607,"y":2542020.6400000025}},{"attributes":{"ID":533675,"DIS_CODE":0,"TOWNNAME":"東區","LI":"裕聖里","LIN":"19鄰","STREET":"裕信路","SECT":" ","MAREA":" ","LANE":" ","ALLEY":" ","HOUSE_NO":"３９９號","E_COORD97":172603.54000000001,"N_COORD97":2542009.5600000001,"ADDRESS":"裕信路３９９號","OBJECTID":533648},"geometry":{"x":172603.53999999911,"y":2542009.5600000005}},{"attributes":{"ID":533676,"DIS_CODE":0,"TOWNNAME":"東區","LI":"裕聖里","LIN":"19鄰","STREET":"裕敬二街","SECT":" ","MAREA":" ","LANE":" ","ALLEY":" ","HOUSE_NO":"１０６號","E_COORD97":172650.45000000001,"N_COORD97":2541992.0899999999,"ADDRESS":"裕敬二街１０６號","OBJECTID":533649},"geometry":{"x":172650.45000000112,"y":2541992.0899999999}},{"attributes":{"ID":533677,"DIS_CODE":0,"TOWNNAME":"東區","LI":"裕聖里","LIN":"19鄰","STREET":"裕敬二街","SECT":" ","MAREA":" ","LANE":" ","ALLEY":" ","HOUSE_NO":"１０８號","E_COORD97":172645.64000000001,"N_COORD97":2541992.0899999999,"ADDRESS":"裕敬二街１０８號","OBJECTID":533650},"geometry":{"x":172645.6400000006,"y":2541992.0899999999}},{"attributes":{"ID":533678,"DIS_CODE":0,"TOWNNAME":"東區","LI":"裕聖里","LIN":"19鄰","STREET":"裕敬二街","SECT":" ","MAREA":" ","LANE":" ","ALLEY":" ","HOUSE_NO":"１１０號","E_COORD97":172640.57999999999,"N_COORD97":2541992.0899999999,"ADDRESS":"裕敬二街１１０號","OBJECTID":533651},"geometry":{"x":172640.57999999914,"y":2541992.0899999999}},{"attributes":{"ID":533679,"DIS_CODE":0,"TOWNNAME":"東區","LI":"裕聖里","LIN":"19鄰","STREET":"裕敬二街","SECT":" ","MAREA":" ","LANE":" ","ALLEY":" ","HOUSE_NO":"１１２號","E_COORD97":172636.01000000001,"N_COORD97":2541992.0899999999,"ADDRESS":"裕敬二街１１２號","OBJECTID":533652},"geometry":{"x":172636.01000000071,"y":2541992.0899999999}},{"attributes":{"ID":533680,"DIS_CODE":0,"TOWNNAME":"東區","LI":"裕聖里","LIN":"19鄰","STREET":"裕敬二街","SECT":" ","MAREA":" ","LANE":" ","ALLEY":" ","HOUSE_NO":"１１４號","E_COORD97":172630.59,"N_COORD97":2541991.8500000001,"ADDRESS":"裕敬二街１１４號","OBJECTID":533653},"geometry":{"x":172630.59000000078,"y":2541991.8500000015}},{"attributes":{"ID":533681,"DIS_CODE":0,"TOWNNAME":"東區","LI":"裕聖里","LIN":"19鄰","STREET":"裕敬二街","SECT":" ","MAREA":" ","LANE":" ","ALLEY":" ","HOUSE_NO":"１１６號","E_COORD97":172627.14000000001,"N_COORD97":2541991.7599999998,"ADDRESS":"裕敬二街１１６號","OBJECTID":533654},"geometry":{"x":172627.13999999966,"y":2541991.7600000016}},{"attributes":{"ID":533682,"DIS_CODE":0,"TOWNNAME":"東區","LI":"裕聖里","LIN":"19鄰","STREET":"裕敬二街","SECT":" ","MAREA":" ","LANE":" ","ALLEY":" ","HOUSE_NO":"１１８號","E_COORD97":172625.32999999999,"N_COORD97":2541981.8799999999,"ADDRESS":"裕敬二街１１８號","OBJECTID":533655},"geometry":{"x":172625.32999999914,"y":2541981.879999999}},{"attributes":{"ID":533683,"DIS_CODE":0,"TOWNNAME":"東區","LI":"裕聖里","LIN":"19鄰","STREET":"裕敬二街","SECT":" ","MAREA":" ","LANE":" ","ALLEY":" ","HOUSE_NO":"１２０號","E_COORD97":172630.39000000001,"N_COORD97":2541982.2000000002,"ADDRESS":"裕敬二街１２０號","OBJECTID":533656},"geometry":{"x":172630.3900000006,"y":2541982.2000000011}},{"attributes":{"ID":533684,"DIS_CODE":0,"TOWNNAME":"東區","LI":"裕聖里","LIN":"19鄰","STREET":"裕敬二街","SECT":" ","MAREA":" ","LANE":" ","ALLEY":" ","HOUSE_NO":"１２２號","E_COORD97":172635.78,"N_COORD97":2541982.4199999999,"ADDRESS":"裕敬二街１２２號","OBJECTID":533657},"geometry":{"x":172635.78000000026,"y":2541982.4199999999}},{"attributes":{"ID":533685,"DIS_CODE":0,"TOWNNAME":"東區","LI":"裕聖里","LIN":"19鄰","STREET":"裕敬二街","SECT":" ","MAREA":" ","LANE":" ","ALLEY":" ","HOUSE_NO":"１２４號","E_COORD97":172640.31,"N_COORD97":2541982.2000000002,"ADDRESS":"裕敬二街１２４號","OBJECTID":533658},"geometry":{"x":172640.31000000145,"y":2541982.2000000011}},{"attributes":{"ID":533686,"DIS_CODE":0,"TOWNNAME":"東區","LI":"裕聖里","LIN":"19鄰","STREET":"裕敬二街","SECT":" ","MAREA":" ","LANE":" ","ALLEY":" ","HOUSE_NO":"１２６號","E_COORD97":172645.48000000001,"N_COORD97":2541982.96,"ADDRESS":"裕敬二街１２６號","OBJECTID":533659},"geometry":{"x":172645.48000000138,"y":2541982.9600000009}},{"attributes":{"ID":533687,"DIS_CODE":0,"TOWNNAME":"東區","LI":"裕聖里","LIN":"19鄰","STREET":"裕敬二街","SECT":" ","MAREA":" ","LANE":" ","ALLEY":" ","HOUSE_NO":"１２８號","E_COORD97":172650.87,"N_COORD97":2541982.6299999999,"ADDRESS":"裕敬二街１２８號","OBJECTID":533660},"geometry":{"x":172650.87000000104,"y":2541982.6300000008}},{"attributes":{"ID":533688,"DIS_CODE":0,"TOWNNAME":"東區","LI":"裕聖里","LIN":"19鄰","STREET":"裕敬二街","SECT":" ","MAREA":" ","LANE":" ","ALLEY":" ","HOUSE_NO":"１３０號","E_COORD97":172625.87,"N_COORD97":2541972.4100000001,"ADDRESS":"裕敬二街１３０號","OBJECTID":533661},"geometry":{"x":172625.87000000104,"y":2541972.4100000001}},{"attributes":{"ID":533689,"DIS_CODE":0,"TOWNNAME":"東區","LI":"裕聖里","LIN":"19鄰","STREET":"裕敬二街","SECT":" ","MAREA":" ","LANE":" ","ALLEY":" ","HOUSE_NO":"１３２號","E_COORD97":172630.39000000001,"N_COORD97":2541972.73,"ADDRESS":"裕敬二街１３２號","OBJECTID":533662},"geometry":{"x":172630.3900000006,"y":2541972.7300000023}},{"attributes":{"ID":533690,"DIS_CODE":0,"TOWNNAME":"東區","LI":"裕聖里","LIN":"19鄰","STREET":"裕敬二街","SECT":" ","MAREA":" ","LANE":" ","ALLEY":" ","HOUSE_NO":"１３４號","E_COORD97":172635.78,"N_COORD97":2541972.5099999998,"ADDRESS":"裕敬二街１３４號","OBJECTID":533663},"geometry":{"x":172635.78000000026,"y":2541972.5099999979}},{"attributes":{"ID":533691,"DIS_CODE":0,"TOWNNAME":"東區","LI":"裕聖里","LIN":"19鄰","STREET":"裕敬二街","SECT":" ","MAREA":" ","LANE":" ","ALLEY":" ","HOUSE_NO":"１３６號","E_COORD97":172639.87,"N_COORD97":2541972.73,"ADDRESS":"裕敬二街１３６號","OBJECTID":533664},"geometry":{"x":172639.87000000011,"y":2541972.7300000023}},{"attributes":{"ID":533692,"DIS_CODE":0,"TOWNNAME":"東區","LI":"裕聖里","LIN":"19鄰","STREET":"裕敬二街","SECT":" ","MAREA":" ","LANE":" ","ALLEY":" ","HOUSE_NO":"１３８號","E_COORD97":172645.48000000001,"N_COORD97":2541972.4100000001,"ADDRESS":"裕敬二街１３８號","OBJECTID":533665},"geometry":{"x":172645.48000000138,"y":2541972.4100000001}},{"attributes":{"ID":533693,"DIS_CODE":0,"TOWNNAME":"東區","LI":"裕聖里","LIN":"19鄰","STREET":"裕敬二街","SECT":" ","MAREA":" ","LANE":" ","ALLEY":" ","HOUSE_NO":"１４０號","E_COORD97":172650.32999999999,"N_COORD97":2541972.73,"ADDRESS":"裕敬二街１４０號","OBJECTID":533666},"geometry":{"x":172650.33000000007,"y":2541972.7300000023}},{"attributes":{"ID":533694,"DIS_CODE":0,"TOWNNAME":"東區","LI":"裕聖里","LIN":"19鄰","STREET":"裕敬二街","SECT":" ","MAREA":" ","LANE":" ","ALLEY":" ","HOUSE_NO":"１４２號","E_COORD97":172650.22,"N_COORD97":2541963.0899999999,"ADDRESS":"裕敬二街１４２號","OBJECTID":533667},"geometry":{"x":172650.22000000067,"y":2541963.0900000017}},{"attributes":{"ID":533695,"DIS_CODE":0,"TOWNNAME":"東區","LI":"裕聖里","LIN":"19鄰","STREET":"裕敬二街","SECT":" ","MAREA":" ","LANE":" ","ALLEY":" ","HOUSE_NO":"１４６號","E_COORD97":172645.76000000001,"N_COORD97":2541962.8100000001,"ADDRESS":"裕敬二街１４６號","OBJECTID":533668},"geometry":{"x":172645.75999999978,"y":2541962.8100000024}},{"attributes":{"ID":533696,"DIS_CODE":0,"TOWNNAME":"東區","LI":"裕聖里","LIN":"19鄰","STREET":"裕敬二街","SECT":" ","MAREA":" ","LANE":" ","ALLEY":" ","HOUSE_NO":"１４８號","E_COORD97":172640.04999999999,"N_COORD97":2541963.0899999999,"ADDRESS":"裕敬二街１４８號","OBJECTID":533669},"geometry":{"x":172640.04999999981,"y":2541963.0900000017}},{"attributes":{"ID":533697,"DIS_CODE":0,"TOWNNAME":"東區","LI":"裕聖里","LIN":"19鄰","STREET":"裕敬二街","SECT":" ","MAREA":" ","LANE":" ","ALLEY":" ","HOUSE_NO":"１５０號","E_COORD97":172635.57000000001,"N_COORD97":2541963.0899999999,"ADDRESS":"裕敬二街１５０號","OBJECTID":533670},"geometry":{"x":172635.5700000003,"y":2541963.0900000017}},{"attributes":{"ID":533698,"DIS_CODE":0,"TOWNNAME":"東區","LI":"裕聖里","LIN":"19鄰","STREET":"裕敬二街","SECT":" ","MAREA":" ","LANE":" ","ALLEY":" ","HOUSE_NO":"１５２號","E_COORD97":172630.14000000001,"N_COORD97":2541962.7000000002,"ADDRESS":"裕敬二街１５２號","OBJECTID":533671},"geometry":{"x":172630.1400000006,"y":2541962.6999999993}},{"attributes":{"ID":533699,"DIS_CODE":0,"TOWNNAME":"東區","LI":"裕聖里","LIN":"19鄰","STREET":"裕敬二街","SECT":" ","MAREA":" ","LANE":" ","ALLEY":" ","HOUSE_NO":"１５４號","E_COORD97":172626.09,"N_COORD97":2541962.9199999999,"ADDRESS":"裕敬二街１５４號","OBJECTID":533672},"geometry":{"x":172626.08999999985,"y":2541962.9199999999}},{"attributes":{"ID":533700,"DIS_CODE":0,"TOWNNAME":"東區","LI":"裕聖里","LIN":"19鄰","STREET":"裕敬二街","SECT":" ","MAREA":" ","LANE":" ","ALLEY":" ","HOUSE_NO":"１５６號","E_COORD97":172626.04000000001,"N_COORD97":2541952.5600000001,"ADDRESS":"裕敬二街１５６號","OBJECTID":533673},"geometry":{"x":172626.04000000097,"y":2541952.5600000005}},{"attributes":{"ID":533701,"DIS_CODE":0,"TOWNNAME":"東區","LI":"裕聖里","LIN":"19鄰","STREET":"裕敬二街","SECT":" ","MAREA":" ","LANE":" ","ALLEY":" ","HOUSE_NO":"１５８號","E_COORD97":172630.60999999999,"N_COORD97":2541952.5899999999,"ADDRESS":"裕敬二街１５８號","OBJECTID":533674},"geometry":{"x":172630.6100000022,"y":2541952.5900000017}},{"attributes":{"ID":533702,"DIS_CODE":0,"TOWNNAME":"東區","LI":"裕聖里","LIN":"19鄰","STREET":"裕敬二街","SECT":" ","MAREA":" ","LANE":" ","ALLEY":" ","HOUSE_NO":"１６０號","E_COORD97":172635.37,"N_COORD97":2541952.4100000001,"ADDRESS":"裕敬二街１６０號","OBJECTID":533675},"geometry":{"x":172635.37000000197,"y":2541952.4100000001}},{"attributes":{"ID":533703,"DIS_CODE":0,"TOWNNAME":"東區","LI":"裕聖里","LIN":"19鄰","STREET":"裕敬二街","SECT":" ","MAREA":" ","LANE":" ","ALLEY":" ","HOUSE_NO":"１６２號","E_COORD97":172640.37,"N_COORD97":2541952.3700000001,"ADDRESS":"裕敬二街１６２號","OBJECTID":533676},"geometry":{"x":172640.36999999918,"y":2541952.3700000029}},{"attributes":{"ID":533704,"DIS_CODE":0,"TOWNNAME":"東區","LI":"裕聖里","LIN":"19鄰","STREET":"裕敬二街","SECT":" ","MAREA":" ","LANE":" ","ALLEY":" ","HOUSE_NO":"１６４號","E_COORD97":172646.04000000001,"N_COORD97":2541952.52,"ADDRESS":"裕敬二街１６４號","OBJECTID":533677},"geometry":{"x":172646.0400000019,"y":2541952.5200000014}},{"attributes":{"ID":533705,"DIS_CODE":0,"TOWNNAME":"東區","LI":"裕聖里","LIN":"19鄰","STREET":"裕敬二街","SECT":" ","MAREA":" ","LANE":" ","ALLEY":" ","HOUSE_NO":"１６６號","E_COORD97":172650.39000000001,"N_COORD97":2541952.3500000001,"ADDRESS":"裕敬二街１６６號","OBJECTID":533678},"geometry":{"x":172650.3900000006,"y":2541952.3499999996}},{"attributes":{"ID":533706,"DIS_CODE":0,"TOWNNAME":"東區","LI":"裕聖里","LIN":"19鄰","STREET":"裕敬二街","SECT":" ","MAREA":" ","LANE":" ","ALLEY":" ","HOUSE_NO":"８２號","E_COORD97":172641.92000000001,"N_COORD97":2542053.77,"ADDRESS":"裕敬二街８２號","OBJECTID":533679},"geometry":{"x":172641.92000000086,"y":2542053.7700000014}},{"attributes":{"ID":533707,"DIS_CODE":0,"TOWNNAME":"東區","LI":"東門里","LIN":"19鄰","STREET":"東門路","SECT":"一段","MAREA":" ","LANE":" ","ALLEY":" ","HOUSE_NO":"５７號","E_COORD97":169294.84,"N_COORD97":2543299.0800000001,"ADDRESS":"東門路一段５７號","OBJECTID":533680},"geometry":{"x":169294.84000000078,"y":2543299.0800000019}},{"attributes":{"ID":533708,"DIS_CODE":0,"TOWNNAME":"東區","LI":"東門里","LIN":"19鄰","STREET":"東門路","SECT":"一段","MAREA":" ","LANE":" ","ALLEY":" ","HOUSE_NO":"６１號","E_COORD97":169285.25,"N_COORD97":2543252.6000000001,"ADDRESS":"東門路一段６１號","OBJECTID":533681},"geometry":{"x":169285.25000000093,"y":2543252.5999999996}},{"attributes":{"ID":533709,"DIS_CODE":0,"TOWNNAME":"東區","LI":"東門里","LIN":"19鄰","STREET":"東門路","SECT":"一段","MAREA":" ","LANE":" ","ALLEY":" ","HOUSE_NO":"７９號","E_COORD97":169331.42999999999,"N_COORD97":2543256.9500000002,"ADDRESS":"東門路一段７９號","OBJECTID":533682},"geometry":{"x":169331.43000000063,"y":2543256.9499999993}},{"attributes":{"ID":533710,"DIS_CODE":0,"TOWNNAME":"東區","LI":"東門里","LIN":"19鄰","STREET":"東門路","SECT":"一段","MAREA":" ","LANE":" ","ALLEY":" ","HOUSE_NO":"８１號","E_COORD97":169326.73000000001,"N_COORD97":2543230.8900000001,"ADDRESS":"東門路一段８１號","OBJECTID":533683},"geometry":{"x":169326.73000000138,"y":2543230.8900000006}},{"attributes":{"ID":533711,"DIS_CODE":0,"TOWNNAME":"東區","LI":"東門里","LIN":"19鄰","STREET":"東門路","SECT":"一段","MAREA":" ","LANE":" ","ALLEY":" ","HOUSE_NO":"８３號","E_COORD97":169330.66,"N_COORD97":2543229.4300000002,"ADDRESS":"東門路一段８３號","OBJECTID":533684},"geometry":{"x":169330.66000000015,"y":2543229.4299999997}},{"attributes":{"ID":533712,"DIS_CODE":0,"TOWNNAME":"東區","LI":"東門里","LIN":"19鄰","STREET":"東門路","SECT":"一段","MAREA":" ","LANE":" ","ALLEY":" ","HOUSE_NO":"８５號","E_COORD97":169343.01999999999,"N_COORD97":2543224.2400000002,"ADDRESS":"東門路一段８５號","OBJECTID":533685},"geometry":{"x":169343.01999999955,"y":2543224.2400000021}},{"attributes":{"ID":533713,"DIS_CODE":0,"TOWNNAME":"東區","LI":"東門里","LIN":"19鄰","STREET":"東門路","SECT":"一段","MAREA":" ","LANE":" ","ALLEY":" ","HOUSE_NO":"８７號","E_COORD97":169350.59,"N_COORD97":2543218.8300000001,"ADDRESS":"東門路一段８７號","OBJECTID":533686},"geometry":{"x":169350.59000000078,"y":2543218.8300000038}},{"attributes":{"ID":533714,"DIS_CODE":0,"TOWNNAME":"東區","LI":"東門里","LIN":"19鄰","STREET":"東門路","SECT":"一段","MAREA":" ","LANE":" ","ALLEY":" ","HOUSE_NO":"９１號","E_COORD97":169371.57000000001,"N_COORD97":2543211.4300000002,"ADDRESS":"東門路一段９１號","OBJECTID":533687},"geometry":{"x":169371.57000000123,"y":2543211.4300000016}},{"attributes":{"ID":533715,"DIS_CODE":0,"TOWNNAME":"東區","LI":"東門里","LIN":"19鄰","STREET":"東門路","SECT":"一段","MAREA":" ","LANE":" ","ALLEY":" ","HOUSE_NO":"９３號","E_COORD97":169375.20000000001,"N_COORD97":2543210.4300000002,"ADDRESS":"東門路一段９３號","OBJECTID":533688},"geometry":{"x":169375.20000000112,"y":2543210.4299999997}},{"attributes":{"ID":533716,"DIS_CODE":0,"TOWNNAME":"東區","LI":"東門里","LIN":"19鄰","STREET":"東門路","SECT":"一段","MAREA":" ","LANE":" ","ALLEY":" ","HOUSE_NO":"９５號","E_COORD97":169378.59,"N_COORD97":2543209.3500000001,"ADDRESS":"東門路一段９５號","OBJECTID":533689},"geometry":{"x":169378.58999999985,"y":2543209.3500000015}},{"attributes":{"ID":533717,"DIS_CODE":0,"TOWNNAME":"東區","LI":"東門里","LIN":"19鄰","STREET":"東門路","SECT":"一段","MAREA":" ","LANE":" ","ALLEY":" ","HOUSE_NO":"９７號","E_COORD97":169382.01000000001,"N_COORD97":2543207.7999999998,"ADDRESS":"東門路一段９７號","OBJECTID":533690},"geometry":{"x":169382.00999999978,"y":2543207.8000000007}},{"attributes":{"ID":533718,"DIS_CODE":0,"TOWNNAME":"官田區","LI":"二鎮里","LIN":"19鄰","STREET":"工社西街","SECT":" ","MAREA":" ","LANE":" ","ALLEY":" ","HOUSE_NO":"１５號","E_COORD97":180838.01999999999,"N_COORD97":2568643.1299999999,"ADDRESS":"工社西街１５號","OBJECTID":533691},"geometry":{"x":180838.01999999955,"y":2568643.1300000027}},{"attributes":{"ID":533719,"DIS_CODE":0,"TOWNNAME":"官田區","LI":"二鎮里","LIN":"19鄰","STREET":"工社西街","SECT":" ","MAREA":" ","LANE":" ","ALLEY":" ","HOUSE_NO":"１６號","E_COORD97":180814.42000000001,"N_COORD97":2568630.1699999999,"ADDRESS":"工社西街１６號","OBJECTID":533692},"geometry":{"x":180814.42000000086,"y":2568630.1699999981}},{"attributes":{"ID":533720,"DIS_CODE":0,"TOWNNAME":"官田區","LI":"二鎮里","LIN":"19鄰","STREET":"工社西街","SECT":" ","MAREA":" ","LANE":" ","ALLEY":" ","HOUSE_NO":"２８號","E_COORD97":180815.17000000001,"N_COORD97":2568676.21,"ADDRESS":"工社西街２８號","OBJECTID":533693},"geometry":{"x":180815.16999999993,"y":2568676.2100000028}},{"attributes":{"ID":533721,"DIS_CODE":0,"TOWNNAME":"官田區","LI":"二鎮里","LIN":"19鄰","STREET":"工業路","SECT":" ","MAREA":" ","LANE":" ","ALLEY":" ","HOUSE_NO":"１２１號","E_COORD97":180788.87,"N_COORD97":2568697.2000000002,"ADDRESS":"工業路１２１號","OBJECTID":533694},"geometry":{"x":180788.87000000011,"y":2568697.200000003}},{"attributes":{"ID":533722,"DIS_CODE":0,"TOWNNAME":"官田區","LI":"二鎮里","LIN":"19鄰","STREET":"工業路","SECT":" ","MAREA":" ","LANE":" ","ALLEY":" ","HOUSE_NO":"５３號","E_COORD97":180773.79000000001,"N_COORD97":2568533.5099999998,"ADDRESS":"工業路５３號","OBJECTID":533695},"geometry":{"x":180773.79000000004,"y":2568533.5100000016}},{"attributes":{"ID":533723,"DIS_CODE":0,"TOWNNAME":"官田區","LI":"二鎮里","LIN":"19鄰","STREET":"工業路","SECT":" ","MAREA":" ","LANE":" ","ALLEY":" ","HOUSE_NO":"６９號","E_COORD97":180778.37,"N_COORD97":2568577.98,"ADDRESS":"工業路６９號","OBJECTID":533696},"geometry":{"x":180778.37000000011,"y":2568577.9800000042}},{"attributes":{"ID":533724,"DIS_CODE":0,"TOWNNAME":"官田區","LI":"二鎮里","LIN":"19鄰","STREET":"工業路","SECT":" ","MAREA":" ","LANE":" ","ALLEY":" ","HOUSE_NO":"８１號","E_COORD97":180780.54999999999,"N_COORD97":2568606.71,"ADDRESS":"工業路８１號","OBJECTID":533697},"geometry":{"x":180780.54999999981,"y":2568606.7100000009}},{"attributes":{"ID":533725,"DIS_CODE":0,"TOWNNAME":"官田區","LI":"二鎮里","LIN":"19鄰","STREET":"工業路","SECT":" ","MAREA":" ","LANE":" ","ALLEY":" ","HOUSE_NO":"８３號","E_COORD97":180780.87,"N_COORD97":2568610.4100000001,"ADDRESS":"工業路８３號","OBJECTID":533698},"geometry":{"x":180780.87000000197,"y":2568610.4100000001}},{"attributes":{"ID":533726,"DIS_CODE":0,"TOWNNAME":"官田區","LI":"二鎮里","LIN":"19鄰","STREET":"工業路","SECT":" ","MAREA":" ","LANE":" ","ALLEY":" ","HOUSE_NO":"８５號","E_COORD97":180781.51000000001,"N_COORD97":2568615.0600000001,"ADDRESS":"工業路８５號","OBJECTID":533699},"geometry":{"x":180781.51000000071,"y":2568615.0600000042}},{"attributes":{"ID":533727,"DIS_CODE":0,"TOWNNAME":"官田區","LI":"二鎮里","LIN":"19鄰","STREET":"工業路","SECT":" ","MAREA":" ","LANE":" ","ALLEY":" ","HOUSE_NO":"８７號","E_COORD97":180781.39999999999,"N_COORD97":2568618.3599999999,"ADDRESS":"工業路８７號","OBJECTID":533700},"geometry":{"x":180781.4000000013,"y":2568618.3600000031}},{"attributes":{"ID":533728,"DIS_CODE":0,"TOWNNAME":"官田區","LI":"二鎮里","LIN":"19鄰","STREET":"工業路","SECT":" ","MAREA":" ","LANE":" ","ALLEY":" ","HOUSE_NO":"８９號","E_COORD97":180782.04000000001,"N_COORD97":2568623.1200000001,"ADDRESS":"工業路８９號","OBJECTID":533701},"geometry":{"x":180782.04000000097,"y":2568623.1200000029}},{"attributes":{"ID":533729,"DIS_CODE":0,"TOWNNAME":"官田區","LI":"二鎮里","LIN":"19鄰","STREET":"工業路","SECT":" ","MAREA":" ","LANE":" ","ALLEY":" ","HOUSE_NO":"９１號","E_COORD97":180782.01000000001,"N_COORD97":2568626.9700000002,"ADDRESS":"工業路９１號","OBJECTID":533702},"geometry":{"x":180782.00999999978,"y":2568626.9700000025}},{"attributes":{"ID":533730,"DIS_CODE":0,"TOWNNAME":"官田區","LI":"二鎮里","LIN":"19鄰","STREET":"工業路","SECT":" ","MAREA":" ","LANE":" ","ALLEY":" ","HOUSE_NO":"９３號","E_COORD97":180781.98000000001,"N_COORD97":2568630.6200000001,"ADDRESS":"工業路９３號","OBJECTID":533703},"geometry":{"x":180781.98000000231,"y":2568630.620000001}},{"attributes":{"ID":533731,"DIS_CODE":0,"TOWNNAME":"安南區","LI":"溪心里","LIN":"19鄰","STREET":"安中路","SECT":"三段","MAREA":" ","LANE":" ","ALLEY":" ","HOUSE_NO":"１３２號","E_COORD97":166047.29999999999,"N_COORD97":2549828.0499999998,"ADDRESS":"安中路三段１３２號","OBJECTID":533704},"geometry":{"x":166047.29999999981,"y":2549828.0500000007}},{"attributes":{"ID":533732,"DIS_CODE":0,"TOWNNAME":"安南區","LI":"安順里","LIN":"19鄰","STREET":"安豐三街","SECT":" ","MAREA":" ","LANE":" ","ALLEY":" ","HOUSE_NO":"１８８號","E_COORD97":169673.98000000001,"N_COORD97":2549907.8500000001,"ADDRESS":"安豐三街１８８號","OBJECTID":533705},"geometry":{"x":169673.98000000138,"y":2549907.8500000015}},{"attributes":{"ID":533733,"DIS_CODE":0,"TOWNNAME":"麻豆區","LI":"\u25A0江里","LIN":"19鄰","STREET":"興南路","SECT":" ","MAREA":" ","LANE":" ","ALLEY":" ","HOUSE_NO":"１６２號","E_COORD97":173501.39999999999,"N_COORD97":2564738.2599999998,"ADDRESS":"興南路１６２號","OBJECTID":533706},"geometry":{"x":173501.40000000037,"y":2564738.2600000016}},{"attributes":{"ID":533734,"DIS_CODE":0,"TOWNNAME":"麻豆區","LI":"\u25A0江里","LIN":"19鄰","STREET":"興南路","SECT":" ","MAREA":" ","LANE":" ","ALLEY":" ","HOUSE_NO":"１６７號","E_COORD97":173491.73999999999,"N_COORD97":2564764.6899999999,"ADDRESS":"興南路１６７號","OBJECTID":533707},"geometry":{"x":173491.74000000022,"y":2564764.6900000032}},{"attributes":{"ID":533735,"DIS_CODE":0,"TOWNNAME":"麻豆區","LI":"\u25A0江里","LIN":"19鄰","STREET":"興南路","SECT":" ","MAREA":" ","LANE":" ","ALLEY":" ","HOUSE_NO":"１６９號","E_COORD97":173496.42000000001,"N_COORD97":2564764.0600000001,"ADDRESS":"興南路１６９號","OBJECTID":533708},"geometry":{"x":173496.42000000086,"y":2564764.0600000024}},{"attributes":{"ID":533736,"DIS_CODE":0,"TOWNNAME":"麻豆區","LI":"\u25A0江里","LIN":"19鄰","STREET":"興南路","SECT":" ","MAREA":" ","LANE":" ","ALLEY":" ","HOUSE_NO":"１８１號","E_COORD97":173523.17000000001,"N_COORD97":2564766.8100000001,"ADDRESS":"興南路１８１號","OBJECTID":533709},"geometry":{"x":173523.17000000179,"y":2564766.8100000005}},{"attributes":{"ID":533737,"DIS_CODE":0,"TOWNNAME":"麻豆區","LI":"\u25A0江里","LIN":"19鄰","STREET":"興南路","SECT":" ","MAREA":" ","LANE":" ","ALLEY":" ","HOUSE_NO":"１８３號","E_COORD97":173527.72,"N_COORD97":2564767.48,"ADDRESS":"興南路１８３號","OBJECTID":533710},"geometry":{"x":173527.7200000016,"y":2564767.4800000023}},{"attributes":{"ID":533738,"DIS_CODE":0,"TOWNNAME":"麻豆區","LI":"\u25A0江里","LIN":"19鄰","STREET":"興南路","SECT":" ","MAREA":" ","LANE":" ","ALLEY":" ","HOUSE_NO":"１８７號","E_COORD97":173541.32999999999,"N_COORD97":2564766.6000000001,"ADDRESS":"興南路１８７號","OBJECTID":533711},"geometry":{"x":173541.33000000101,"y":2564766.6000000015}},{"attributes":{"ID":533739,"DIS_CODE":0,"TOWNNAME":"麻豆區","LI":"\u25A0江里","LIN":"19鄰","STREET":"興南路","SECT":" ","MAREA":" ","LANE":" ","ALLEY":" ","HOUSE_NO":"１９１號","E_COORD97":173547.45000000001,"N_COORD97":2564767.0299999998,"ADDRESS":"興南路１９１號","OBJECTID":533712},"geometry":{"x":173547.45000000112,"y":2564767.0300000012}},{"attributes":{"ID":533740,"DIS_CODE":0,"TOWNNAME":"麻豆區","LI":"\u25A0江里","LIN":"19鄰","STREET":"興南路","SECT":" ","MAREA":" ","LANE":" ","ALLEY":" ","HOUSE_NO":"１９６號","E_COORD97":173570.87,"N_COORD97":2564742.5299999998,"ADDRESS":"興南路１９６號","OBJECTID":533713},"geometry":{"x":173570.87000000011,"y":2564742.5300000012}},{"attributes":{"ID":533741,"DIS_CODE":0,"TOWNNAME":"南區","LI":"文南里","LIN":"19鄰","STREET":"建南路","SECT":" ","MAREA":" ","LANE":" ","ALLEY":" ","HOUSE_NO":"３０１號七樓之１０","E_COORD97":166496.54999999999,"N_COORD97":2542870.9900000002,"ADDRESS":"建南路３０１號七樓之１０","OBJECTID":533714},"geometry":{"x":166496.54999999981,"y":2542870.9900000002}},{"attributes":{"ID":533742,"DIS_CODE":0,"TOWNNAME":"南區","LI":"文南里","LIN":"19鄰","STREET":"建南路","SECT":" ","MAREA":" ","LANE":" ","ALLEY":" ","HOUSE_NO":"３０１號七樓之５","E_COORD97":166496.54999999999,"N_COORD97":2542870.9900000002,"ADDRESS":"建南路３０１號七樓之５","OBJECTID":533715},"geometry":{"x":166496.54999999981,"y":2542870.9900000002}},{"attributes":{"ID":533743,"DIS_CODE":0,"TOWNNAME":"南區","LI":"文南里","LIN":"19鄰","STREET":"建南路","SECT":" ","MAREA":" ","LANE":" ","ALLEY":" ","HOUSE_NO":"３０１號七樓之６","E_COORD97":166496.54999999999,"N_COORD97":2542870.9900000002,"ADDRESS":"建南路３０１號七樓之６","OBJECTID":533716},"geometry":{"x":166496.54999999981,"y":2542870.9900000002}},{"attributes":{"ID":533744,"DIS_CODE":0,"TOWNNAME":"南區","LI":"文南里","LIN":"19鄰","STREET":"建南路","SECT":" ","MAREA":" ","LANE":" ","ALLEY":" ","HOUSE_NO":"３０１號七樓之８","E_COORD97":166496.54999999999,"N_COORD97":2542870.9900000002,"ADDRESS":"建南路３０１號七樓之８","OBJECTID":533717},"geometry":{"x":166496.54999999981,"y":2542870.9900000002}},{"attributes":{"ID":533745,"DIS_CODE":0,"TOWNNAME":"南區","LI":"文南里","LIN":"19鄰","STREET":"建南路","SECT":" ","MAREA":" ","LANE":" ","ALLEY":" ","HOUSE_NO":"３０１號二樓之５","E_COORD97":166496.54999999999,"N_COORD97":2542870.9900000002,"ADDRESS":"建南路３０１號二樓之５","OBJECTID":533718},"geometry":{"x":166496.54999999981,"y":2542870.9900000002}},{"attributes":{"ID":533746,"DIS_CODE":0,"TOWNNAME":"南區","LI":"文南里","LIN":"19鄰","STREET":"建南路","SECT":" ","MAREA":" ","LANE":" ","ALLEY":" ","HOUSE_NO":"３０１號七樓之１","E_COORD97":166496.54999999999,"N_COORD97":2542870.9900000002,"ADDRESS":"建南路３０１號七樓之１","OBJECTID":533719},"geometry":{"x":166496.54999999981,"y":2542870.9900000002}},{"attributes":{"ID":533747,"DIS_CODE":0,"TOWNNAME":"南區","LI":"文南里","LIN":"19鄰","STREET":"建南路","SECT":" ","MAREA":" ","LANE":" ","ALLEY":" ","HOUSE_NO":"３０１號七樓之２","E_COORD97":166496.54999999999,"N_COORD97":2542870.9900000002,"ADDRESS":"建南路３０１號七樓之２","OBJECTID":533720},"geometry":{"x":166496.54999999981,"y":2542870.9900000002}},{"attributes":{"ID":533748,"DIS_CODE":0,"TOWNNAME":"南區","LI":"文南里","LIN":"19鄰","STREET":"建南路","SECT":" ","MAREA":" ","LANE":" ","ALLEY":" ","HOUSE_NO":"３０１號七樓之４","E_COORD97":166496.54999999999,"N_COORD97":2542870.9900000002,"ADDRESS":"建南路３０１號七樓之４","OBJECTID":533721},"geometry":{"x":166496.54999999981,"y":2542870.9900000002}},{"attributes":{"ID":533749,"DIS_CODE":0,"TOWNNAME":"南區","LI":"文南里","LIN":"19鄰","STREET":"建南路","SECT":" ","MAREA":" ","LANE":" ","ALLEY":" ","HOUSE_NO":"３０１號七樓之７","E_COORD97":166496.54999999999,"N_COORD97":2542870.9900000002,"ADDRESS":"建南路３０１號七樓之７","OBJECTID":533722},"geometry":{"x":166496.54999999981,"y":2542870.9900000002}},{"attributes":{"ID":533750,"DIS_CODE":0,"TOWNNAME":"南區","LI":"文南里","LIN":"19鄰","STREET":"建南路","SECT":" ","MAREA":" ","LANE":" ","ALLEY":" ","HOUSE_NO":"３０１號七樓之９","E_COORD97":166496.54999999999,"N_COORD97":2542870.9900000002,"ADDRESS":"建南路３０１號七樓之９","OBJECTID":533723},"geometry":{"x":166496.54999999981,"y":2542870.9900000002}},{"attributes":{"ID":533751,"DIS_CODE":0,"TOWNNAME":"南區","LI":"文南里","LIN":"19鄰","STREET":"建南路","SECT":" ","MAREA":" ","LANE":" ","ALLEY":" ","HOUSE_NO":"３０１號二樓之１","E_COORD97":166496.54999999999,"N_COORD97":2542870.9900000002,"ADDRESS":"建南路３０１號二樓之１","OBJECTID":533724},"geometry":{"x":166496.54999999981,"y":2542870.9900000002}},{"attributes":{"ID":533752,"DIS_CODE":0,"TOWNNAME":"南區","LI":"文南里","LIN":"19鄰","STREET":"建南路","SECT":" ","MAREA":" ","LANE":" ","ALLEY":" ","HOUSE_NO":"３０１號二樓之３","E_COORD97":166496.54999999999,"N_COORD97":2542870.9900000002,"ADDRESS":"建南路３０１號二樓之３","OBJECTID":533725},"geometry":{"x":166496.54999999981,"y":2542870.9900000002}},{"attributes":{"ID":533753,"DIS_CODE":0,"TOWNNAME":"南區","LI":"文南里","LIN":"19鄰","STREET":"建南路","SECT":" ","MAREA":" ","LANE":" ","ALLEY":" ","HOUSE_NO":"３０１號二樓之４","E_COORD97":166496.54999999999,"N_COORD97":2542870.9900000002,"ADDRESS":"建南路３０１號二樓之４","OBJECTID":533726},"geometry":{"x":166496.54999999981,"y":2542870.9900000002}},{"attributes":{"ID":533754,"DIS_CODE":0,"TOWNNAME":"南區","LI":"文南里","LIN":"19鄰","STREET":"建南路","SECT":" ","MAREA":" ","LANE":" ","ALLEY":" ","HOUSE_NO":"３０１號二樓之６","E_COORD97":166496.54999999999,"N_COORD97":2542870.9900000002,"ADDRESS":"建南路３０１號二樓之６","OBJECTID":533727},"geometry":{"x":166496.54999999981,"y":2542870.9900000002}},{"attributes":{"ID":533755,"DIS_CODE":0,"TOWNNAME":"中西區","LI":"光賢里","LIN":"19鄰","STREET":"武聖路","SECT":" ","MAREA":" ","LANE":" ","ALLEY":" ","HOUSE_NO":"２３１號","E_COORD97":166863.14999999999,"N_COORD97":2545272.98,"ADDRESS":"武聖路２３１號","OBJECTID":533728},"geometry":{"x":166863.15000000037,"y":2545272.9800000023}},{"attributes":{"ID":533756,"DIS_CODE":0,"TOWNNAME":"南區","LI":"文南里","LIN":"19鄰","STREET":"建南路","SECT":" ","MAREA":" ","LANE":" ","ALLEY":" ","HOUSE_NO":"３０１號二樓之７","E_COORD97":166496.54999999999,"N_COORD97":2542870.9900000002,"ADDRESS":"建南路３０１號二樓之７","OBJECTID":533729},"geometry":{"x":166496.54999999981,"y":2542870.9900000002}},{"attributes":{"ID":533757,"DIS_CODE":0,"TOWNNAME":"南區","LI":"文南里","LIN":"19鄰","STREET":"建南路","SECT":" ","MAREA":" ","LANE":" ","ALLEY":" ","HOUSE_NO":"３０１號二樓之８","E_COORD97":166496.54999999999,"N_COORD97":2542870.9900000002,"ADDRESS":"建南路３０１號二樓之８","OBJECTID":533730},"geometry":{"x":166496.54999999981,"y":2542870.9900000002}},{"attributes":{"ID":533758,"DIS_CODE":0,"TOWNNAME":"南區","LI":"文南里","LIN":"19鄰","STREET":"建南路","SECT":" ","MAREA":" ","LANE":" ","ALLEY":" ","HOUSE_NO":"３０１號二樓之９","E_COORD97":166496.54999999999,"N_COORD97":2542870.9900000002,"ADDRESS":"建南路３０１號二樓之９","OBJECTID":533731},"geometry":{"x":166496.54999999981,"y":2542870.9900000002}},{"attributes":{"ID":533759,"DIS_CODE":0,"TOWNNAME":"南區","LI":"文南里","LIN":"19鄰","STREET":"建南路","SECT":" ","MAREA":" ","LANE":" ","ALLEY":" ","HOUSE_NO":"３０１號八樓之１","E_COORD97":166496.54999999999,"N_COORD97":2542870.9900000002,"ADDRESS":"建南路３０１號八樓之１","OBJECTID":533732},"geometry":{"x":166496.54999999981,"y":2542870.9900000002}},{"attributes":{"ID":533760,"DIS_CODE":0,"TOWNNAME":"南區","LI":"文南里","LIN":"19鄰","STREET":"建南路","SECT":" ","MAREA":" ","LANE":" ","ALLEY":" ","HOUSE_NO":"３０１號八樓之１０","E_COORD97":166496.54999999999,"N_COORD97":2542870.9900000002,"ADDRESS":"建南路３０１號八樓之１０","OBJECTID":533733},"geometry":{"x":166496.54999999981,"y":2542870.9900000002}},{"attributes":{"ID":533761,"DIS_CODE":0,"TOWNNAME":"南區","LI":"文南里","LIN":"19鄰","STREET":"建南路","SECT":" ","MAREA":" ","LANE":" ","ALLEY":" ","HOUSE_NO":"３０１號八樓之２","E_COORD97":166496.54999999999,"N_COORD97":2542870.9900000002,"ADDRESS":"建南路３０１號八樓之２","OBJECTID":533734},"geometry":{"x":166496.54999999981,"y":2542870.9900000002}},{"attributes":{"ID":533762,"DIS_CODE":0,"TOWNNAME":"南區","LI":"文南里","LIN":"19鄰","STREET":"建南路","SECT":" ","MAREA":" ","LANE":" ","ALLEY":" ","HOUSE_NO":"３０１號八樓之３","E_COORD97":166496.54999999999,"N_COORD97":2542870.9900000002,"ADDRESS":"建南路３０１號八樓之３","OBJECTID":533735},"geometry":{"x":166496.54999999981,"y":2542870.9900000002}},{"attributes":{"ID":533763,"DIS_CODE":0,"TOWNNAME":"南區","LI":"文南里","LIN":"19鄰","STREET":"建南路","SECT":" ","MAREA":" ","LANE":" ","ALLEY":" ","HOUSE_NO":"３０１號八樓之４","E_COORD97":166496.54999999999,"N_COORD97":2542870.9900000002,"ADDRESS":"建南路３０１號八樓之４","OBJECTID":533736},"geometry":{"x":166496.54999999981,"y":2542870.9900000002}},{"attributes":{"ID":533764,"DIS_CODE":0,"TOWNNAME":"南區","LI":"文南里","LIN":"19鄰","STREET":"建南路","SECT":" ","MAREA":" ","LANE":" ","ALLEY":" ","HOUSE_NO":"３０１號八樓之５","E_COORD97":166496.54999999999,"N_COORD97":2542870.9900000002,"ADDRESS":"建南路３０１號八樓之５","OBJECTID":533737},"geometry":{"x":166496.54999999981,"y":2542870.9900000002}},{"attributes":{"ID":533765,"DIS_CODE":0,"TOWNNAME":"南區","LI":"文南里","LIN":"19鄰","STREET":"建南路","SECT":" ","MAREA":" ","LANE":" ","ALLEY":" ","HOUSE_NO":"３０１號八樓之６","E_COORD97":166496.54999999999,"N_COORD97":2542870.9900000002,"ADDRESS":"建南路３０１號八樓之６","OBJECTID":533738},"geometry":{"x":166496.54999999981,"y":2542870.9900000002}},{"attributes":{"ID":533766,"DIS_CODE":0,"TOWNNAME":"南區","LI":"文南里","LIN":"19鄰","STREET":"建南路","SECT":" ","MAREA":" ","LANE":" ","ALLEY":" ","HOUSE_NO":"３０１號八樓之７","E_COORD97":166496.54999999999,"N_COORD97":2542870.9900000002,"ADDRESS":"建南路３０１號八樓之７","OBJECTID":533739},"geometry":{"x":166496.54999999981,"y":2542870.9900000002}},{"attributes":{"ID":533767,"DIS_CODE":0,"TOWNNAME":"南區","LI":"文南里","LIN":"19鄰","STREET":"建南路","SECT":" ","MAREA":" ","LANE":" ","ALLEY":" ","HOUSE_NO":"３０１號八樓之８","E_COORD97":166496.54999999999,"N_COORD97":2542870.9900000002,"ADDRESS":"建南路３０１號八樓之８","OBJECTID":533740},"geometry":{"x":166496.54999999981,"y":2542870.9900000002}},{"attributes":{"ID":533768,"DIS_CODE":0,"TOWNNAME":"南區","LI":"文南里","LIN":"19鄰","STREET":"建南路","SECT":" ","MAREA":" ","LANE":" ","ALLEY":" ","HOUSE_NO":"３０１號八樓之９","E_COORD97":166496.54999999999,"N_COORD97":2542870.9900000002,"ADDRESS":"建南路３０１號八樓之９","OBJECTID":533741},"geometry":{"x":166496.54999999981,"y":2542870.9900000002}},{"attributes":{"ID":533769,"DIS_CODE":0,"TOWNNAME":"南區","LI":"文南里","LIN":"19鄰","STREET":"建南路","SECT":" ","MAREA":" ","LANE":" ","ALLEY":" ","HOUSE_NO":"３０１號三樓之１","E_COORD97":166496.54999999999,"N_COORD97":2542870.9900000002,"ADDRESS":"建南路３０１號三樓之１","OBJECTID":533742},"geometry":{"x":166496.54999999981,"y":2542870.9900000002}},{"attributes":{"ID":533770,"DIS_CODE":0,"TOWNNAME":"南區","LI":"文南里","LIN":"19鄰","STREET":"建南路","SECT":" ","MAREA":" ","LANE":" ","ALLEY":" ","HOUSE_NO":"３０１號三樓之１０","E_COORD97":166496.54999999999,"N_COORD97":2542870.9900000002,"ADDRESS":"建南路３０１號三樓之１０","OBJECTID":533743},"geometry":{"x":166496.54999999981,"y":2542870.9900000002}},{"attributes":{"ID":533771,"DIS_CODE":0,"TOWNNAME":"南區","LI":"文南里","LIN":"19鄰","STREET":"建南路","SECT":" ","MAREA":" ","LANE":" ","ALLEY":" ","HOUSE_NO":"３０１號三樓之２","E_COORD97":166496.54999999999,"N_COORD97":2542870.9900000002,"ADDRESS":"建南路３０１號三樓之２","OBJECTID":533744},"geometry":{"x":166496.54999999981,"y":2542870.9900000002}},{"attributes":{"ID":533772,"DIS_CODE":0,"TOWNNAME":"南區","LI":"文南里","LIN":"19鄰","STREET":"建南路","SECT":" ","MAREA":" ","LANE":" ","ALLEY":" ","HOUSE_NO":"３０１號三樓之３","E_COORD97":166496.54999999999,"N_COORD97":2542870.9900000002,"ADDRESS":"建南路３０１號三樓之３","OBJECTID":533745},"geometry":{"x":166496.54999999981,"y":2542870.9900000002}},{"attributes":{"ID":533773,"DIS_CODE":0,"TOWNNAME":"南區","LI":"文南里","LIN":"19鄰","STREET":"建南路","SECT":" ","MAREA":" ","LANE":" ","ALLEY":" ","HOUSE_NO":"３０１號三樓之４","E_COORD97":166496.54999999999,"N_COORD97":2542870.9900000002,"ADDRESS":"建南路３０１號三樓之４","OBJECTID":533746},"geometry":{"x":166496.54999999981,"y":2542870.9900000002}},{"attributes":{"ID":533774,"DIS_CODE":0,"TOWNNAME":"南區","LI":"文南里","LIN":"19鄰","STREET":"建南路","SECT":" ","MAREA":" ","LANE":" ","ALLEY":" ","HOUSE_NO":"３０１號三樓之５","E_COORD97":166496.54999999999,"N_COORD97":2542870.9900000002,"ADDRESS":"建南路３０１號三樓之５","OBJECTID":533747},"geometry":{"x":166496.54999999981,"y":2542870.9900000002}},{"attributes":{"ID":533775,"DIS_CODE":0,"TOWNNAME":"南區","LI":"文南里","LIN":"19鄰","STREET":"建南路","SECT":" ","MAREA":" ","LANE":" ","ALLEY":" ","HOUSE_NO":"３０１號三樓之６","E_COORD97":166496.54999999999,"N_COORD97":2542870.9900000002,"ADDRESS":"建南路３０１號三樓之６","OBJECTID":533748},"geometry":{"x":166496.54999999981,"y":2542870.9900000002}},{"attributes":{"ID":533776,"DIS_CODE":0,"TOWNNAME":"南區","LI":"文南里","LIN":"19鄰","STREET":"建南路","SECT":" ","MAREA":" ","LANE":" ","ALLEY":" ","HOUSE_NO":"３０１號三樓之７","E_COORD97":166496.54999999999,"N_COORD97":2542870.9900000002,"ADDRESS":"建南路３０１號三樓之７","OBJECTID":533749},"geometry":{"x":166496.54999999981,"y":2542870.9900000002}},{"attributes":{"ID":533777,"DIS_CODE":0,"TOWNNAME":"南區","LI":"文南里","LIN":"19鄰","STREET":"建南路","SECT":" ","MAREA":" ","LANE":" ","ALLEY":" ","HOUSE_NO":"３０１號三樓之８","E_COORD97":166496.54999999999,"N_COORD97":2542870.9900000002,"ADDRESS":"建南路３０１號三樓之８","OBJECTID":533750},"geometry":{"x":166496.54999999981,"y":2542870.9900000002}},{"attributes":{"ID":533778,"DIS_CODE":0,"TOWNNAME":"南區","LI":"文南里","LIN":"19鄰","STREET":"建南路","SECT":" ","MAREA":" ","LANE":" ","ALLEY":" ","HOUSE_NO":"３０１號三樓之９","E_COORD97":166496.54999999999,"N_COORD97":2542870.9900000002,"ADDRESS":"建南路３０１號三樓之９","OBJECTID":533751},"geometry":{"x":166496.54999999981,"y":2542870.9900000002}},{"attributes":{"ID":533779,"DIS_CODE":0,"TOWNNAME":"南區","LI":"文南里","LIN":"19鄰","STREET":"建南路","SECT":" ","MAREA":" ","LANE":" ","ALLEY":" ","HOUSE_NO":"３０１號五樓之１","E_COORD97":166496.54999999999,"N_COORD97":2542870.9900000002,"ADDRESS":"建南路３０１號五樓之１","OBJECTID":533752},"geometry":{"x":166496.54999999981,"y":2542870.9900000002}},{"attributes":{"ID":533780,"DIS_CODE":0,"TOWNNAME":"南區","LI":"文南里","LIN":"19鄰","STREET":"建南路","SECT":" ","MAREA":" ","LANE":" ","ALLEY":" ","HOUSE_NO":"３０１號五樓之１０","E_COORD97":166496.54999999999,"N_COORD97":2542870.9900000002,"ADDRESS":"建南路３０１號五樓之１０","OBJECTID":533753},"geometry":{"x":166496.54999999981,"y":2542870.9900000002}},{"attributes":{"ID":533781,"DIS_CODE":0,"TOWNNAME":"南區","LI":"文南里","LIN":"19鄰","STREET":"建南路","SECT":" ","MAREA":" ","LANE":" ","ALLEY":" ","HOUSE_NO":"３０１號五樓之２","E_COORD97":166496.54999999999,"N_COORD97":2542870.9900000002,"ADDRESS":"建南路３０１號五樓之２","OBJECTID":533754},"geometry":{"x":166496.54999999981,"y":2542870.9900000002}},{"attributes":{"ID":533782,"DIS_CODE":0,"TOWNNAME":"南區","LI":"文南里","LIN":"19鄰","STREET":"建南路","SECT":" ","MAREA":" ","LANE":" ","ALLEY":" ","HOUSE_NO":"３０１號五樓之３","E_COORD97":166496.54999999999,"N_COORD97":2542870.9900000002,"ADDRESS":"建南路３０１號五樓之３","OBJECTID":533755},"geometry":{"x":166496.54999999981,"y":2542870.9900000002}},{"attributes":{"ID":533783,"DIS_CODE":0,"TOWNNAME":"南區","LI":"文南里","LIN":"19鄰","STREET":"建南路","SECT":" ","MAREA":" ","LANE":" ","ALLEY":" ","HOUSE_NO":"３０１號五樓之４","E_COORD97":166496.54999999999,"N_COORD97":2542870.9900000002,"ADDRESS":"建南路３０１號五樓之４","OBJECTID":533756},"geometry":{"x":166496.54999999981,"y":2542870.9900000002}},{"attributes":{"ID":533784,"DIS_CODE":0,"TOWNNAME":"南區","LI":"文南里","LIN":"19鄰","STREET":"建南路","SECT":" ","MAREA":" ","LANE":" ","ALLEY":" ","HOUSE_NO":"３０１號五樓之５","E_COORD97":166496.54999999999,"N_COORD97":2542870.9900000002,"ADDRESS":"建南路３０１號五樓之５","OBJECTID":533757},"geometry":{"x":166496.54999999981,"y":2542870.9900000002}},{"attributes":{"ID":533785,"DIS_CODE":0,"TOWNNAME":"南區","LI":"文南里","LIN":"19鄰","STREET":"建南路","SECT":" ","MAREA":" ","LANE":" ","ALLEY":" ","HOUSE_NO":"３０１號五樓之６","E_COORD97":166496.54999999999,"N_COORD97":2542870.9900000002,"ADDRESS":"建南路３０１號五樓之６","OBJECTID":533758},"geometry":{"x":166496.54999999981,"y":2542870.9900000002}},{"attributes":{"ID":533786,"DIS_CODE":0,"TOWNNAME":"南區","LI":"文南里","LIN":"19鄰","STREET":"建南路","SECT":" ","MAREA":" ","LANE":" ","ALLEY":" ","HOUSE_NO":"３０１號五樓之７","E_COORD97":166496.54999999999,"N_COORD97":2542870.9900000002,"ADDRESS":"建南路３０１號五樓之７","OBJECTID":533759},"geometry":{"x":166496.54999999981,"y":2542870.9900000002}},{"attributes":{"ID":533787,"DIS_CODE":0,"TOWNNAME":"南區","LI":"文南里","LIN":"19鄰","STREET":"建南路","SECT":" ","MAREA":" ","LANE":" ","ALLEY":" ","HOUSE_NO":"３０１號五樓之８","E_COORD97":166496.54999999999,"N_COORD97":2542870.9900000002,"ADDRESS":"建南路３０１號五樓之８","OBJECTID":533760},"geometry":{"x":166496.54999999981,"y":2542870.9900000002}},{"attributes":{"ID":533788,"DIS_CODE":0,"TOWNNAME":"南區","LI":"文南里","LIN":"19鄰","STREET":"建南路","SECT":" ","MAREA":" ","LANE":" ","ALLEY":" ","HOUSE_NO":"３０１號五樓之９","E_COORD97":166496.54999999999,"N_COORD97":2542870.9900000002,"ADDRESS":"建南路３０１號五樓之９","OBJECTID":533761},"geometry":{"x":166496.54999999981,"y":2542870.9900000002}},{"attributes":{"ID":533789,"DIS_CODE":0,"TOWNNAME":"南區","LI":"文南里","LIN":"19鄰","STREET":"建南路","SECT":" ","MAREA":" ","LANE":" ","ALLEY":" ","HOUSE_NO":"３０１號六樓之１","E_COORD97":166496.54999999999,"N_COORD97":2542870.9900000002,"ADDRESS":"建南路３０１號六樓之１","OBJECTID":533762},"geometry":{"x":166496.54999999981,"y":2542870.9900000002}},{"attributes":{"ID":533790,"DIS_CODE":0,"TOWNNAME":"南區","LI":"文南里","LIN":"19鄰","STREET":"建南路","SECT":" ","MAREA":" ","LANE":" ","ALLEY":" ","HOUSE_NO":"３０１號六樓之１０","E_COORD97":166496.54999999999,"N_COORD97":2542870.9900000002,"ADDRESS":"建南路３０１號六樓之１０","OBJECTID":533763},"geometry":{"x":166496.54999999981,"y":2542870.9900000002}},{"attributes":{"ID":533791,"DIS_CODE":0,"TOWNNAME":"南區","LI":"文南里","LIN":"19鄰","STREET":"建南路","SECT":" ","MAREA":" ","LANE":" ","ALLEY":" ","HOUSE_NO":"３０１號六樓之２","E_COORD97":166496.54999999999,"N_COORD97":2542870.9900000002,"ADDRESS":"建南路３０１號六樓之２","OBJECTID":533764},"geometry":{"x":166496.54999999981,"y":2542870.9900000002}},{"attributes":{"ID":533792,"DIS_CODE":0,"TOWNNAME":"南區","LI":"文南里","LIN":"19鄰","STREET":"建南路","SECT":" ","MAREA":" ","LANE":" ","ALLEY":" ","HOUSE_NO":"３０１號六樓之３","E_COORD97":166496.54999999999,"N_COORD97":2542870.9900000002,"ADDRESS":"建南路３０１號六樓之３","OBJECTID":533765},"geometry":{"x":166496.54999999981,"y":2542870.9900000002}},{"attributes":{"ID":533793,"DIS_CODE":0,"TOWNNAME":"南區","LI":"文南里","LIN":"19鄰","STREET":"建南路","SECT":" ","MAREA":" ","LANE":" ","ALLEY":" ","HOUSE_NO":"３０１號六樓之４","E_COORD97":166496.54999999999,"N_COORD97":2542870.9900000002,"ADDRESS":"建南路３０１號六樓之４","OBJECTID":533766},"geometry":{"x":166496.54999999981,"y":2542870.9900000002}},{"attributes":{"ID":533794,"DIS_CODE":0,"TOWNNAME":"南區","LI":"文南里","LIN":"19鄰","STREET":"建南路","SECT":" ","MAREA":" ","LANE":" ","ALLEY":" ","HOUSE_NO":"３０１號六樓之５","E_COORD97":166496.54999999999,"N_COORD97":2542870.9900000002,"ADDRESS":"建南路３０１號六樓之５","OBJECTID":533767},"geometry":{"x":166496.54999999981,"y":2542870.9900000002}},{"attributes":{"ID":533795,"DIS_CODE":0,"TOWNNAME":"南區","LI":"文南里","LIN":"19鄰","STREET":"建南路","SECT":" ","MAREA":" ","LANE":" ","ALLEY":" ","HOUSE_NO":"３０１號六樓之６","E_COORD97":166496.54999999999,"N_COORD97":2542870.9900000002,"ADDRESS":"建南路３０１號六樓之６","OBJECTID":533768},"geometry":{"x":166496.54999999981,"y":2542870.9900000002}},{"attributes":{"ID":533796,"DIS_CODE":0,"TOWNNAME":"南區","LI":"文南里","LIN":"19鄰","STREET":"建南路","SECT":" ","MAREA":" ","LANE":" ","ALLEY":" ","HOUSE_NO":"３０１號六樓之７","E_COORD97":166496.54999999999,"N_COORD97":2542870.9900000002,"ADDRESS":"建南路３０１號六樓之７","OBJECTID":533769},"geometry":{"x":166496.54999999981,"y":2542870.9900000002}},{"attributes":{"ID":533797,"DIS_CODE":0,"TOWNNAME":"南區","LI":"文南里","LIN":"19鄰","STREET":"建南路","SECT":" ","MAREA":" ","LANE":" ","ALLEY":" ","HOUSE_NO":"３０１號六樓之８","E_COORD97":166496.54999999999,"N_COORD97":2542870.9900000002,"ADDRESS":"建南路３０１號六樓之８","OBJECTID":533770},"geometry":{"x":166496.54999999981,"y":2542870.9900000002}},{"attributes":{"ID":533798,"DIS_CODE":0,"TOWNNAME":"南區","LI":"文南里","LIN":"19鄰","STREET":"建南路","SECT":" ","MAREA":" ","LANE":" ","ALLEY":" ","HOUSE_NO":"３０１號六樓之９","E_COORD97":166496.54999999999,"N_COORD97":2542870.9900000002,"ADDRESS":"建南路３０１號六樓之９","OBJECTID":533771},"geometry":{"x":166496.54999999981,"y":2542870.9900000002}},{"attributes":{"ID":533799,"DIS_CODE":0,"TOWNNAME":"南區","LI":"文南里","LIN":"19鄰","STREET":"建南路","SECT":" ","MAREA":" ","LANE":" ","ALLEY":" ","HOUSE_NO":"３０１號四樓之１","E_COORD97":166496.54999999999,"N_COORD97":2542870.9900000002,"ADDRESS":"建南路３０１號四樓之１","OBJECTID":533772},"geometry":{"x":166496.54999999981,"y":2542870.9900000002}},{"attributes":{"ID":533800,"DIS_CODE":0,"TOWNNAME":"南區","LI":"文南里","LIN":"19鄰","STREET":"建南路","SECT":" ","MAREA":" ","LANE":" ","ALLEY":" ","HOUSE_NO":"３０１號四樓之１０","E_COORD97":166496.54999999999,"N_COORD97":2542870.9900000002,"ADDRESS":"建南路３０１號四樓之１０","OBJECTID":533773},"geometry":{"x":166496.54999999981,"y":2542870.9900000002}},{"attributes":{"ID":533801,"DIS_CODE":0,"TOWNNAME":"北區","LI":"成德里","LIN":"19鄰","STREET":"西門路","SECT":"四段","MAREA":" ","LANE":" ","ALLEY":" ","HOUSE_NO":"３６７號十樓","E_COORD97":169052.76999999999,"N_COORD97":2546294.5299999998,"ADDRESS":"西門路四段３６７號十樓","OBJECTID":533774},"geometry":{"x":169052.76999999955,"y":2546294.5299999993}},{"attributes":{"ID":533802,"DIS_CODE":0,"TOWNNAME":"北區","LI":"成德里","LIN":"19鄰","STREET":"西門路","SECT":"四段","MAREA":" ","LANE":" ","ALLEY":" ","HOUSE_NO":"３６７號三樓","E_COORD97":169052.76999999999,"N_COORD97":2546294.5299999998,"ADDRESS":"西門路四段３６７號三樓","OBJECTID":533775},"geometry":{"x":169052.76999999955,"y":2546294.5299999993}},{"attributes":{"ID":533803,"DIS_CODE":0,"TOWNNAME":"北區","LI":"成德里","LIN":"19鄰","STREET":"西門路","SECT":"四段","MAREA":" ","LANE":" ","ALLEY":" ","HOUSE_NO":"３６７號五樓","E_COORD97":169052.76999999999,"N_COORD97":2546294.5299999998,"ADDRESS":"西門路四段３６７號五樓","OBJECTID":533776},"geometry":{"x":169052.76999999955,"y":2546294.5299999993}},{"attributes":{"ID":533804,"DIS_CODE":0,"TOWNNAME":"北區","LI":"成德里","LIN":"19鄰","STREET":"西門路","SECT":"四段","MAREA":" ","LANE":" ","ALLEY":" ","HOUSE_NO":"３６７號六樓","E_COORD97":169052.76999999999,"N_COORD97":2546294.5299999998,"ADDRESS":"西門路四段３６７號六樓","OBJECTID":533777},"geometry":{"x":169052.76999999955,"y":2546294.5299999993}},{"attributes":{"ID":533805,"DIS_CODE":0,"TOWNNAME":"北區","LI":"成德里","LIN":"19鄰","STREET":"西門路","SECT":"四段","MAREA":" ","LANE":" ","ALLEY":" ","HOUSE_NO":"３６７號四樓","E_COORD97":169052.76999999999,"N_COORD97":2546294.5299999998,"ADDRESS":"西門路四段３６７號四樓","OBJECTID":533778},"geometry":{"x":169052.76999999955,"y":2546294.5299999993}},{"attributes":{"ID":533806,"DIS_CODE":0,"TOWNNAME":"北區","LI":"公園里","LIN":"19鄰","STREET":"公園路","SECT":" ","MAREA":" ","LANE":" ","ALLEY":" ","HOUSE_NO":"１２８號二樓之１","E_COORD97":168771.01999999999,"N_COORD97":2544380.0600000001,"ADDRESS":"公園路１２８號二樓之１","OBJECTID":533779},"geometry":{"x":168771.02000000048,"y":2544380.0600000005}},{"attributes":{"ID":533807,"DIS_CODE":0,"TOWNNAME":"北區","LI":"公園里","LIN":"19鄰","STREET":"公園路","SECT":" ","MAREA":" ","LANE":" ","ALLEY":" ","HOUSE_NO":"１２８號二樓之１０","E_COORD97":168771.01999999999,"N_COORD97":2544380.0600000001,"ADDRESS":"公園路１２８號二樓之１０","OBJECTID":533780},"geometry":{"x":168771.02000000048,"y":2544380.0600000005}},{"attributes":{"ID":533808,"DIS_CODE":0,"TOWNNAME":"北區","LI":"公園里","LIN":"19鄰","STREET":"公園路","SECT":" ","MAREA":" ","LANE":" ","ALLEY":" ","HOUSE_NO":"１２８號二樓之１１","E_COORD97":168771.01999999999,"N_COORD97":2544380.0600000001,"ADDRESS":"公園路１２８號二樓之１１","OBJECTID":533781},"geometry":{"x":168771.02000000048,"y":2544380.0600000005}},{"attributes":{"ID":533809,"DIS_CODE":0,"TOWNNAME":"北區","LI":"公園里","LIN":"19鄰","STREET":"公園路","SECT":" ","MAREA":" ","LANE":" ","ALLEY":" ","HOUSE_NO":"１２８號二樓之１２","E_COORD97":168771.01999999999,"N_COORD97":2544380.0600000001,"ADDRESS":"公園路１２８號二樓之１２","OBJECTID":533782},"geometry":{"x":168771.02000000048,"y":2544380.0600000005}},{"attributes":{"ID":533810,"DIS_CODE":0,"TOWNNAME":"北區","LI":"公園里","LIN":"19鄰","STREET":"公園路","SECT":" ","MAREA":" ","LANE":" ","ALLEY":" ","HOUSE_NO":"１２８號二樓之１３","E_COORD97":168771.01999999999,"N_COORD97":2544380.0600000001,"ADDRESS":"公園路１２８號二樓之１３","OBJECTID":533783},"geometry":{"x":168771.02000000048,"y":2544380.0600000005}},{"attributes":{"ID":533811,"DIS_CODE":0,"TOWNNAME":"北區","LI":"公園里","LIN":"19鄰","STREET":"公園路","SECT":" ","MAREA":" ","LANE":" ","ALLEY":" ","HOUSE_NO":"１２８號二樓之１４","E_COORD97":168771.01999999999,"N_COORD97":2544380.0600000001,"ADDRESS":"公園路１２８號二樓之１４","OBJECTID":533784},"geometry":{"x":168771.02000000048,"y":2544380.0600000005}},{"attributes":{"ID":533812,"DIS_CODE":0,"TOWNNAME":"北區","LI":"公園里","LIN":"19鄰","STREET":"公園路","SECT":" ","MAREA":" ","LANE":" ","ALLEY":" ","HOUSE_NO":"１２８號二樓之１５","E_COORD97":168771.01999999999,"N_COORD97":2544380.0600000001,"ADDRESS":"公園路１２８號二樓之１５","OBJECTID":533785},"geometry":{"x":168771.02000000048,"y":2544380.0600000005}},{"attributes":{"ID":533813,"DIS_CODE":0,"TOWNNAME":"北區","LI":"公園里","LIN":"19鄰","STREET":"公園路","SECT":" ","MAREA":" ","LANE":" ","ALLEY":" ","HOUSE_NO":"１２８號二樓之１６","E_COORD97":168771.01999999999,"N_COORD97":2544380.0600000001,"ADDRESS":"公園路１２８號二樓之１６","OBJECTID":533786},"geometry":{"x":168771.02000000048,"y":2544380.0600000005}},{"attributes":{"ID":533814,"DIS_CODE":0,"TOWNNAME":"北區","LI":"公園里","LIN":"19鄰","STREET":"公園路","SECT":" ","MAREA":" ","LANE":" ","ALLEY":" ","HOUSE_NO":"１２８號二樓之１７","E_COORD97":168771.01999999999,"N_COORD97":2544380.0600000001,"ADDRESS":"公園路１２８號二樓之１７","OBJECTID":533787},"geometry":{"x":168771.02000000048,"y":2544380.0600000005}},{"attributes":{"ID":533815,"DIS_CODE":0,"TOWNNAME":"北區","LI":"公園里","LIN":"19鄰","STREET":"公園路","SECT":" ","MAREA":" ","LANE":" ","ALLEY":" ","HOUSE_NO":"１２８號二樓之１８","E_COORD97":168771.01999999999,"N_COORD97":2544380.0600000001,"ADDRESS":"公園路１２８號二樓之１８","OBJECTID":533788},"geometry":{"x":168771.02000000048,"y":2544380.0600000005}},{"attributes":{"ID":533816,"DIS_CODE":0,"TOWNNAME":"北區","LI":"公園里","LIN":"19鄰","STREET":"公園路","SECT":" ","MAREA":" ","LANE":" ","ALLEY":" ","HOUSE_NO":"１２８號二樓之１９","E_COORD97":168771.01999999999,"N_COORD97":2544380.0600000001,"ADDRESS":"公園路１２８號二樓之１９","OBJECTID":533789},"geometry":{"x":168771.02000000048,"y":2544380.0600000005}},{"attributes":{"ID":533817,"DIS_CODE":0,"TOWNNAME":"北區","LI":"公園里","LIN":"19鄰","STREET":"公園路","SECT":" ","MAREA":" ","LANE":" ","ALLEY":" ","HOUSE_NO":"１２８號二樓之２","E_COORD97":168771.01999999999,"N_COORD97":2544380.0600000001,"ADDRESS":"公園路１２８號二樓之２","OBJECTID":533790},"geometry":{"x":168771.02000000048,"y":2544380.0600000005}},{"attributes":{"ID":533818,"DIS_CODE":0,"TOWNNAME":"北區","LI":"公園里","LIN":"19鄰","STREET":"公園路","SECT":" ","MAREA":" ","LANE":" ","ALLEY":" ","HOUSE_NO":"１２８號二樓之２０","E_COORD97":168771.01999999999,"N_COORD97":2544380.0600000001,"ADDRESS":"公園路１２８號二樓之２０","OBJECTID":533791},"geometry":{"x":168771.02000000048,"y":2544380.0600000005}},{"attributes":{"ID":533819,"DIS_CODE":0,"TOWNNAME":"北區","LI":"公園里","LIN":"19鄰","STREET":"公園路","SECT":" ","MAREA":" ","LANE":" ","ALLEY":" ","HOUSE_NO":"１２８號二樓之２１","E_COORD97":168771.01999999999,"N_COORD97":2544380.0600000001,"ADDRESS":"公園路１２８號二樓之２１","OBJECTID":533792},"geometry":{"x":168771.02000000048,"y":2544380.0600000005}},{"attributes":{"ID":533820,"DIS_CODE":0,"TOWNNAME":"北區","LI":"公園里","LIN":"19鄰","STREET":"公園路","SECT":" ","MAREA":" ","LANE":" ","ALLEY":" ","HOUSE_NO":"１２８號二樓之２２","E_COORD97":168771.01999999999,"N_COORD97":2544380.0600000001,"ADDRESS":"公園路１２８號二樓之２２","OBJECTID":533793},"geometry":{"x":168771.02000000048,"y":2544380.0600000005}},{"attributes":{"ID":533821,"DIS_CODE":0,"TOWNNAME":"北區","LI":"公園里","LIN":"19鄰","STREET":"公園路","SECT":" ","MAREA":" ","LANE":" ","ALLEY":" ","HOUSE_NO":"１２８號二樓之２３","E_COORD97":168771.01999999999,"N_COORD97":2544380.0600000001,"ADDRESS":"公園路１２８號二樓之２３","OBJECTID":533794},"geometry":{"x":168771.02000000048,"y":2544380.0600000005}},{"attributes":{"ID":533822,"DIS_CODE":0,"TOWNNAME":"北區","LI":"公園里","LIN":"19鄰","STREET":"公園路","SECT":" ","MAREA":" ","LANE":" ","ALLEY":" ","HOUSE_NO":"１２８號二樓之２４","E_COORD97":168771.01999999999,"N_COORD97":2544380.0600000001,"ADDRESS":"公園路１２８號二樓之２４","OBJECTID":533795},"geometry":{"x":168771.02000000048,"y":2544380.0600000005}},{"attributes":{"ID":533823,"DIS_CODE":0,"TOWNNAME":"北區","LI":"公園里","LIN":"19鄰","STREET":"公園路","SECT":" ","MAREA":" ","LANE":" ","ALLEY":" ","HOUSE_NO":"１２８號二樓之２５","E_COORD97":168771.01999999999,"N_COORD97":2544380.0600000001,"ADDRESS":"公園路１２８號二樓之２５","OBJECTID":533796},"geometry":{"x":168771.02000000048,"y":2544380.0600000005}},{"attributes":{"ID":533824,"DIS_CODE":0,"TOWNNAME":"北區","LI":"公園里","LIN":"19鄰","STREET":"公園路","SECT":" ","MAREA":" ","LANE":" ","ALLEY":" ","HOUSE_NO":"１２８號二樓之２６","E_COORD97":168771.01999999999,"N_COORD97":2544380.0600000001,"ADDRESS":"公園路１２８號二樓之２６","OBJECTID":533797},"geometry":{"x":168771.02000000048,"y":2544380.0600000005}},{"attributes":{"ID":533825,"DIS_CODE":0,"TOWNNAME":"北區","LI":"公園里","LIN":"19鄰","STREET":"公園路","SECT":" ","MAREA":" ","LANE":" ","ALLEY":" ","HOUSE_NO":"１２８號二樓之２７","E_COORD97":168771.01999999999,"N_COORD97":2544380.0600000001,"ADDRESS":"公園路１２８號二樓之２７","OBJECTID":533798},"geometry":{"x":168771.02000000048,"y":2544380.0600000005}},{"attributes":{"ID":533826,"DIS_CODE":0,"TOWNNAME":"北區","LI":"公園里","LIN":"19鄰","STREET":"公園路","SECT":" ","MAREA":" ","LANE":" ","ALLEY":" ","HOUSE_NO":"１２８號二樓之２８","E_COORD97":168771.01999999999,"N_COORD97":2544380.0600000001,"ADDRESS":"公園路１２８號二樓之２８","OBJECTID":533799},"geometry":{"x":168771.02000000048,"y":2544380.0600000005}},{"attributes":{"ID":533827,"DIS_CODE":0,"TOWNNAME":"北區","LI":"公園里","LIN":"19鄰","STREET":"公園路","SECT":" ","MAREA":" ","LANE":" ","ALLEY":" ","HOUSE_NO":"１２８號二樓之２９","E_COORD97":168771.01999999999,"N_COORD97":2544380.0600000001,"ADDRESS":"公園路１２８號二樓之２９","OBJECTID":533800},"geometry":{"x":168771.02000000048,"y":2544380.0600000005}}]}