{"displayFieldName":"TOWNNAME","fieldAliases":{"ID":"ID","DIS_CODE":"DIS_CODE","TOWNNAME":"TOWNNAME","LI":"LI","LIN":"LIN","STREET":"STREET","SECT":"SECT","MAREA":"MAREA","LANE":"LANE","ALLEY":"ALLEY","HOUSE_NO":"HOUSE_NO","E_COORD97":"E_COORD97","N_COORD97":"N_COORD97","ADDRESS":"ADDRESS","OBJECTID":"OBJECTID"},"geometryType":"esriGeometryPoint","spatialReference":{"wkid":102443,"latestWkid":3826},"fields":[{"name":"ID","type":"esriFieldTypeDouble","alias":"ID"},{"name":"DIS_CODE","type":"esriFieldTypeInteger","alias":"DIS_CODE"},{"name":"TOWNNAME","type":"esriFieldTypeString","alias":"TOWNNAME","length":8},{"name":"LI","type":"esriFieldTypeString","alias":"LI","length":8},{"name":"LIN","type":"esriFieldTypeString","alias":"LIN","length":12},{"name":"STREET","type":"esriFieldTypeString","alias":"STREET","length":20},{"name":"SECT","type":"esriFieldTypeString","alias":"SECT","length":8},{"name":"MAREA","type":"esriFieldTypeString","alias":"MAREA","length":12},{"name":"LANE","type":"esriFieldTypeString","alias":"LANE","length":10},{"name":"ALLEY","type":"esriFieldTypeString","alias":"ALLEY","length":10},{"name":"HOUSE_NO","type":"esriFieldTypeString","alias":"HOUSE_NO","length":20},{"name":"E_COORD97","type":"esriFieldTypeDouble","alias":"E_COORD97"},{"name":"N_COORD97","type":"esriFieldTypeDouble","alias":"N_COORD97"},{"name":"ADDRESS","type":"esriFieldTypeString","alias":"ADDRESS","length":50},{"name":"OBJECTID","type":"esriFieldTypeOID","alias":"OBJECTID"}],"features":[{"attributes":{"ID":153402,"DIS_CODE":0,"TOWNNAME":"安南區","LI":"安東里","LIN":"2鄰","STREET":"安和路","SECT":"一段","MAREA":" ","LANE":"４７８巷","ALLEY":"４６弄","HOUSE_NO":"７號四樓","E_COORD97":169506.26999999999,"N_COORD97":2548307.0699999998,"ADDRESS":"安和路一段４７８巷４６弄７號四樓","OBJECTID":153401},"geometry":{"x":169506.27000000048,"y":2548307.0700000022}},{"attributes":{"ID":153403,"DIS_CODE":0,"TOWNNAME":"安南區","LI":"安東里","LIN":"2鄰","STREET":"安和路","SECT":"一段","MAREA":" ","LANE":"４７８巷","ALLEY":"４６弄","HOUSE_NO":"８號二樓","E_COORD97":169518.29000000001,"N_COORD97":2548322.4300000002,"ADDRESS":"安和路一段４７８巷４６弄８號二樓","OBJECTID":153402},"geometry":{"x":169518.28999999911,"y":2548322.4299999997}},{"attributes":{"ID":153404,"DIS_CODE":0,"TOWNNAME":"安南區","LI":"安東里","LIN":"2鄰","STREET":"安和路","SECT":"一段","MAREA":" ","LANE":"４７８巷","ALLEY":"４６弄","HOUSE_NO":"８號四樓","E_COORD97":169518.29000000001,"N_COORD97":2548322.4300000002,"ADDRESS":"安和路一段４７８巷４６弄８號四樓","OBJECTID":153403},"geometry":{"x":169518.28999999911,"y":2548322.4299999997}},{"attributes":{"ID":153405,"DIS_CODE":0,"TOWNNAME":"安南區","LI":"安東里","LIN":"2鄰","STREET":"安和路","SECT":"一段","MAREA":" ","LANE":"４７８巷","ALLEY":"４６弄","HOUSE_NO":"９號二樓","E_COORD97":169501.94,"N_COORD97":2548306.9300000002,"ADDRESS":"安和路一段４７８巷４６弄９號二樓","OBJECTID":153404},"geometry":{"x":169501.94000000041,"y":2548306.9300000016}},{"attributes":{"ID":153406,"DIS_CODE":0,"TOWNNAME":"中西區","LI":"民生里","LIN":"15鄰","STREET":"大仁街","SECT":" ","MAREA":" ","LANE":" ","ALLEY":" ","HOUSE_NO":"１５７號","E_COORD97":167130.57999999999,"N_COORD97":2543482.48,"ADDRESS":"大仁街１５７號","OBJECTID":153405},"geometry":{"x":167130.58000000007,"y":2543482.4800000042}},{"attributes":{"ID":153407,"DIS_CODE":0,"TOWNNAME":"中西區","LI":"民生里","LIN":"15鄰","STREET":"南華街","SECT":" ","MAREA":" ","LANE":" ","ALLEY":" ","HOUSE_NO":"７２號","E_COORD97":167119.87,"N_COORD97":2543466.9100000001,"ADDRESS":"南華街７２號","OBJECTID":153406},"geometry":{"x":167119.87000000104,"y":2543466.910000002}},{"attributes":{"ID":153408,"DIS_CODE":0,"TOWNNAME":"中西區","LI":"民生里","LIN":"15鄰","STREET":"南華街","SECT":" ","MAREA":" ","LANE":" ","ALLEY":" ","HOUSE_NO":"７４號","E_COORD97":167120.78,"N_COORD97":2543470.7799999998,"ADDRESS":"南華街７４號","OBJECTID":153407},"geometry":{"x":167120.78000000119,"y":2543470.7799999993}},{"attributes":{"ID":153409,"DIS_CODE":0,"TOWNNAME":"後壁區","LI":"崁頂里","LIN":"5鄰","STREET":" ","SECT":" ","MAREA":"崁頂","LANE":" ","ALLEY":" ","HOUSE_NO":"５０號","E_COORD97":183113.07000000001,"N_COORD97":2586678.1600000001,"ADDRESS":"崁頂５０號","OBJECTID":153408},"geometry":{"x":183113.0700000003,"y":2586678.160000002}},{"attributes":{"ID":153410,"DIS_CODE":0,"TOWNNAME":"後壁區","LI":"崁頂里","LIN":"5鄰","STREET":" ","SECT":" ","MAREA":"崁頂","LANE":" ","ALLEY":" ","HOUSE_NO":"５１號之２","E_COORD97":183109.85000000001,"N_COORD97":2586617.1000000001,"ADDRESS":"崁頂５１號之２","OBJECTID":153409},"geometry":{"x":183109.85000000056,"y":2586617.1000000015}},{"attributes":{"ID":153411,"DIS_CODE":0,"TOWNNAME":"後壁區","LI":"崁頂里","LIN":"5鄰","STREET":" ","SECT":" ","MAREA":"崁頂","LANE":" ","ALLEY":" ","HOUSE_NO":"５１號","E_COORD97":183112.04000000001,"N_COORD97":2586645.9199999999,"ADDRESS":"崁頂５１號","OBJECTID":153410},"geometry":{"x":183112.0400000019,"y":2586645.9200000018}},{"attributes":{"ID":153412,"DIS_CODE":0,"TOWNNAME":"後壁區","LI":"崁頂里","LIN":"5鄰","STREET":" ","SECT":" ","MAREA":"崁頂","LANE":" ","ALLEY":" ","HOUSE_NO":"５２號之５","E_COORD97":183140.88,"N_COORD97":2586647.5299999998,"ADDRESS":"崁頂５２號之５","OBJECTID":153411},"geometry":{"x":183140.88000000082,"y":2586647.5300000012}},{"attributes":{"ID":153413,"DIS_CODE":0,"TOWNNAME":"後壁區","LI":"崁頂里","LIN":"5鄰","STREET":" ","SECT":" ","MAREA":"崁頂","LANE":" ","ALLEY":" ","HOUSE_NO":"５２號之６","E_COORD97":183136.64999999999,"N_COORD97":2586647.8999999999,"ADDRESS":"崁頂５２號之６","OBJECTID":153412},"geometry":{"x":183136.65000000037,"y":2586647.9000000004}},{"attributes":{"ID":153414,"DIS_CODE":0,"TOWNNAME":"後壁區","LI":"崁頂里","LIN":"5鄰","STREET":" ","SECT":" ","MAREA":"崁頂","LANE":" ","ALLEY":" ","HOUSE_NO":"５２號","E_COORD97":183123.10999999999,"N_COORD97":2586629.21,"ADDRESS":"崁頂５２號","OBJECTID":153413},"geometry":{"x":183123.11000000034,"y":2586629.2100000009}},{"attributes":{"ID":153415,"DIS_CODE":0,"TOWNNAME":"後壁區","LI":"崁頂里","LIN":"5鄰","STREET":" ","SECT":" ","MAREA":"崁頂","LANE":" ","ALLEY":" ","HOUSE_NO":"５４號","E_COORD97":183116.95000000001,"N_COORD97":2586587.9900000002,"ADDRESS":"崁頂５４號","OBJECTID":153414},"geometry":{"x":183116.95000000112,"y":2586587.9900000021}},{"attributes":{"ID":153416,"DIS_CODE":0,"TOWNNAME":"後壁區","LI":"崁頂里","LIN":"5鄰","STREET":" ","SECT":" ","MAREA":"崁頂","LANE":" ","ALLEY":" ","HOUSE_NO":"５５號","E_COORD97":183127.04000000001,"N_COORD97":2586563.3700000001,"ADDRESS":"崁頂５５號","OBJECTID":153415},"geometry":{"x":183127.04000000004,"y":2586563.3700000029}},{"attributes":{"ID":153417,"DIS_CODE":0,"TOWNNAME":"後壁區","LI":"崁頂里","LIN":"5鄰","STREET":" ","SECT":" ","MAREA":"崁頂","LANE":" ","ALLEY":" ","HOUSE_NO":"５６號","E_COORD97":183085.81,"N_COORD97":2586584.8999999999,"ADDRESS":"崁頂５６號","OBJECTID":153416},"geometry":{"x":183085.80999999959,"y":2586584.9000000041}},{"attributes":{"ID":153418,"DIS_CODE":0,"TOWNNAME":"後壁區","LI":"崁頂里","LIN":"5鄰","STREET":" ","SECT":" ","MAREA":"崁頂","LANE":" ","ALLEY":" ","HOUSE_NO":"５７號之１","E_COORD97":183060.01999999999,"N_COORD97":2586605.79,"ADDRESS":"崁頂５７號之１","OBJECTID":153417},"geometry":{"x":183060.01999999955,"y":2586605.790000001}},{"attributes":{"ID":153419,"DIS_CODE":0,"TOWNNAME":"後壁區","LI":"崁頂里","LIN":"5鄰","STREET":" ","SECT":" ","MAREA":"崁頂","LANE":" ","ALLEY":" ","HOUSE_NO":"５７號","E_COORD97":183088.87,"N_COORD97":2586603.3500000001,"ADDRESS":"崁頂５７號","OBJECTID":153418},"geometry":{"x":183088.87000000011,"y":2586603.3499999996}},{"attributes":{"ID":153420,"DIS_CODE":0,"TOWNNAME":"後壁區","LI":"崁頂里","LIN":"5鄰","STREET":" ","SECT":" ","MAREA":"崁頂","LANE":" ","ALLEY":" ","HOUSE_NO":"５８號","E_COORD97":183065.94,"N_COORD97":2586621.6800000002,"ADDRESS":"崁頂５８號","OBJECTID":153419},"geometry":{"x":183065.94000000134,"y":2586621.6799999997}},{"attributes":{"ID":153421,"DIS_CODE":0,"TOWNNAME":"後壁區","LI":"崁頂里","LIN":"5鄰","STREET":" ","SECT":" ","MAREA":"崁頂","LANE":" ","ALLEY":" ","HOUSE_NO":"５９號","E_COORD97":183088.54999999999,"N_COORD97":2586622.4399999999,"ADDRESS":"崁頂５９號","OBJECTID":153420},"geometry":{"x":183088.55000000075,"y":2586622.4400000013}},{"attributes":{"ID":153422,"DIS_CODE":0,"TOWNNAME":"安南區","LI":"長安里","LIN":"19鄰","STREET":"公學路","SECT":"二段","MAREA":" ","LANE":" ","ALLEY":" ","HOUSE_NO":"１１６號","E_COORD97":167683.25,"N_COORD97":2552321.2799999998,"ADDRESS":"公學路二段１１６號","OBJECTID":153421},"geometry":{"x":167683.25000000093,"y":2552321.2800000031}},{"attributes":{"ID":153423,"DIS_CODE":0,"TOWNNAME":"安南區","LI":"長安里","LIN":"19鄰","STREET":"公學路","SECT":"二段","MAREA":" ","LANE":" ","ALLEY":" ","HOUSE_NO":"１１８號","E_COORD97":167682.23000000001,"N_COORD97":2552316.9700000002,"ADDRESS":"公學路二段１１８號","OBJECTID":153422},"geometry":{"x":167682.23000000138,"y":2552316.9700000007}},{"attributes":{"ID":153424,"DIS_CODE":0,"TOWNNAME":"安南區","LI":"長安里","LIN":"19鄰","STREET":"公學路","SECT":"二段","MAREA":" ","LANE":" ","ALLEY":" ","HOUSE_NO":"１２２號","E_COORD97":167679,"N_COORD97":2552308.5800000001,"ADDRESS":"公學路二段１２２號","OBJECTID":153423},"geometry":{"x":167679,"y":2552308.5800000001}},{"attributes":{"ID":153425,"DIS_CODE":0,"TOWNNAME":"安南區","LI":"安東里","LIN":"2鄰","STREET":"安和路","SECT":"一段","MAREA":" ","LANE":"４７８巷","ALLEY":"４６弄","HOUSE_NO":"９號四樓","E_COORD97":169501.94,"N_COORD97":2548306.9300000002,"ADDRESS":"安和路一段４７８巷４６弄９號四樓","OBJECTID":153424},"geometry":{"x":169501.94000000041,"y":2548306.9300000016}},{"attributes":{"ID":153426,"DIS_CODE":0,"TOWNNAME":"永康區","LI":"東灣里","LIN":"34鄰","STREET":"民族路","SECT":" ","MAREA":" ","LANE":"１８１巷","ALLEY":"３弄","HOUSE_NO":"１９號","E_COORD97":175235.82999999999,"N_COORD97":2544796.52,"ADDRESS":"民族路１８１巷３弄１９號","OBJECTID":153425},"geometry":{"x":175235.83000000007,"y":2544796.5200000033}},{"attributes":{"ID":153427,"DIS_CODE":0,"TOWNNAME":"永康區","LI":"龍潭里","LIN":"23鄰","STREET":"自強路","SECT":" ","MAREA":" ","LANE":"７５０巷","ALLEY":"１８弄","HOUSE_NO":"３８之２號","E_COORD97":174431.82000000001,"N_COORD97":2548412.54,"ADDRESS":"自強路７５０巷１８弄３８之２號","OBJECTID":153426},"geometry":{"x":174431.82000000123,"y":2548412.5399999991}},{"attributes":{"ID":153428,"DIS_CODE":0,"TOWNNAME":"永康區","LI":"蔦松里","LIN":"3鄰","STREET":"蔦松二街","SECT":" ","MAREA":" ","LANE":"１２４巷","ALLEY":"３５弄","HOUSE_NO":"１８號","E_COORD97":173938.26999999999,"N_COORD97":2549264.7400000002,"ADDRESS":"蔦松二街１２４巷３５弄１８號","OBJECTID":153427},"geometry":{"x":173938.26999999955,"y":2549264.7400000021}},{"attributes":{"ID":153429,"DIS_CODE":0,"TOWNNAME":"永康區","LI":"龍潭里","LIN":"36鄰","STREET":"中山北路","SECT":" ","MAREA":" ","LANE":"１６４巷","ALLEY":"１６０弄","HOUSE_NO":"４５號","E_COORD97":174699.70999999999,"N_COORD97":2547318.2400000002,"ADDRESS":"中山北路１６４巷１６０弄４５號","OBJECTID":153428},"geometry":{"x":174699.71000000089,"y":2547318.2400000039}},{"attributes":{"ID":153430,"DIS_CODE":0,"TOWNNAME":"永康區","LI":"建國里","LIN":"32鄰","STREET":"復興路","SECT":" ","MAREA":" ","LANE":"１巷","ALLEY":"３０弄","HOUSE_NO":"２４號","E_COORD97":173065.98000000001,"N_COORD97":2544017.27,"ADDRESS":"復興路１巷３０弄２４號","OBJECTID":153429},"geometry":{"x":173065.98000000138,"y":2544017.2699999996}},{"attributes":{"ID":153431,"DIS_CODE":0,"TOWNNAME":"永康區","LI":"埔園里","LIN":"2鄰","STREET":"永埔街","SECT":" ","MAREA":" ","LANE":"１１６巷","ALLEY":"９弄","HOUSE_NO":"２６號四樓之３","E_COORD97":173997.73999999999,"N_COORD97":2547740.9700000002,"ADDRESS":"永埔街１１６巷９弄２６號四樓之３","OBJECTID":153430},"geometry":{"x":173997.74000000115,"y":2547740.9700000044}},{"attributes":{"ID":153432,"DIS_CODE":0,"TOWNNAME":"永康區","LI":"北灣里","LIN":"24鄰","STREET":"大灣路","SECT":" ","MAREA":" ","LANE":"３７巷","ALLEY":"３０弄","HOUSE_NO":"１號","E_COORD97":175431.26000000001,"N_COORD97":2545857.46,"ADDRESS":"大灣路３７巷３０弄１號","OBJECTID":153431},"geometry":{"x":175431.26000000071,"y":2545857.4600000028}},{"attributes":{"ID":153433,"DIS_CODE":0,"TOWNNAME":"永康區","LI":"西灣里","LIN":"44鄰","STREET":"大灣路","SECT":" ","MAREA":" ","LANE":"９４２巷","ALLEY":"４１８弄","HOUSE_NO":"７號","E_COORD97":173999.79000000001,"N_COORD97":2545574.4500000002,"ADDRESS":"大灣路９４２巷４１８弄７號","OBJECTID":153432},"geometry":{"x":173999.79000000004,"y":2545574.4500000011}},{"attributes":{"ID":153434,"DIS_CODE":0,"TOWNNAME":"永康區","LI":"西勢里","LIN":"21鄰","STREET":"富強路","SECT":"一段","MAREA":" ","LANE":"９８巷","ALLEY":"５６弄","HOUSE_NO":"２３號","E_COORD97":175567.69,"N_COORD97":2546011.6499999999,"ADDRESS":"富強路一段９８巷５６弄２３號","OBJECTID":153433},"geometry":{"x":175567.69000000041,"y":2546011.6500000022}},{"attributes":{"ID":153435,"DIS_CODE":0,"TOWNNAME":"永康區","LI":"北灣里","LIN":"37鄰","STREET":"大同街","SECT":" ","MAREA":" ","LANE":"３８０巷","ALLEY":"１１弄","HOUSE_NO":"１６號","E_COORD97":174798.66,"N_COORD97":2546152.21,"ADDRESS":"大同街３８０巷１１弄１６號","OBJECTID":153434},"geometry":{"x":174798.66000000108,"y":2546152.2100000009}},{"attributes":{"ID":153436,"DIS_CODE":0,"TOWNNAME":"永康區","LI":"甲頂里","LIN":"2鄰","STREET":"南台街","SECT":" ","MAREA":" ","LANE":"１３５巷","ALLEY":"７弄","HOUSE_NO":"３號四樓","E_COORD97":170055.54000000001,"N_COORD97":2546817.2200000002,"ADDRESS":"南台街１３５巷７弄３號四樓","OBJECTID":153435},"geometry":{"x":170055.54000000004,"y":2546817.2200000044}},{"attributes":{"ID":153437,"DIS_CODE":0,"TOWNNAME":"永康區","LI":"埔園里","LIN":"2鄰","STREET":"永埔街","SECT":" ","MAREA":" ","LANE":"１１６巷","ALLEY":"９弄","HOUSE_NO":"２６號五樓之２","E_COORD97":173997.78,"N_COORD97":2547740.9700000002,"ADDRESS":"永埔街１１６巷９弄２６號五樓之２","OBJECTID":153436},"geometry":{"x":173997.78000000119,"y":2547740.9700000044}},{"attributes":{"ID":153438,"DIS_CODE":0,"TOWNNAME":"永康區","LI":"埔園里","LIN":"2鄰","STREET":"永埔街","SECT":" ","MAREA":" ","LANE":"１１６巷","ALLEY":"９弄","HOUSE_NO":"１６號四樓之１","E_COORD97":174005.59,"N_COORD97":2547723.8799999999,"ADDRESS":"永埔街１１６巷９弄１６號四樓之１","OBJECTID":153437},"geometry":{"x":174005.59000000078,"y":2547723.8800000008}},{"attributes":{"ID":153439,"DIS_CODE":0,"TOWNNAME":"永康區","LI":"埔園里","LIN":"2鄰","STREET":"永埔街","SECT":" ","MAREA":" ","LANE":"１１６巷","ALLEY":"９弄","HOUSE_NO":"１６號七樓之１","E_COORD97":174005.59,"N_COORD97":2547723.8799999999,"ADDRESS":"永埔街１１６巷９弄１６號七樓之１","OBJECTID":153438},"geometry":{"x":174005.59000000078,"y":2547723.8800000008}},{"attributes":{"ID":153440,"DIS_CODE":0,"TOWNNAME":"永康區","LI":"北灣里","LIN":"27鄰","STREET":"文賢街","SECT":" ","MAREA":" ","LANE":"１０８巷","ALLEY":"８弄","HOUSE_NO":"１０號","E_COORD97":175398.60000000001,"N_COORD97":2545417.3300000001,"ADDRESS":"文賢街１０８巷８弄１０號","OBJECTID":153439},"geometry":{"x":175398.60000000056,"y":2545417.3300000001}},{"attributes":{"ID":153441,"DIS_CODE":0,"TOWNNAME":"後壁區","LI":"烏樹里","LIN":"5鄰","STREET":" ","SECT":" ","MAREA":"烏樹林","LANE":" ","ALLEY":" ","HOUSE_NO":"４９號之１","E_COORD97":186157.01000000001,"N_COORD97":2581507.5800000001,"ADDRESS":"烏樹林４９號之１","OBJECTID":153440},"geometry":{"x":186157.01000000071,"y":2581507.5799999982}},{"attributes":{"ID":153442,"DIS_CODE":0,"TOWNNAME":"後壁區","LI":"烏樹里","LIN":"5鄰","STREET":" ","SECT":" ","MAREA":"烏樹林","LANE":" ","ALLEY":" ","HOUSE_NO":"４９號之２","E_COORD97":186152.70999999999,"N_COORD97":2581507.1099999999,"ADDRESS":"烏樹林４９號之２","OBJECTID":153441},"geometry":{"x":186152.71000000089,"y":2581507.1100000031}},{"attributes":{"ID":153443,"DIS_CODE":0,"TOWNNAME":"後壁區","LI":"烏樹里","LIN":"5鄰","STREET":" ","SECT":" ","MAREA":"烏樹林","LANE":" ","ALLEY":" ","HOUSE_NO":"４９號之６","E_COORD97":186047.48999999999,"N_COORD97":2581472.5699999998,"ADDRESS":"烏樹林４９號之６","OBJECTID":153442},"geometry":{"x":186047.49000000115,"y":2581472.5700000003}},{"attributes":{"ID":153444,"DIS_CODE":0,"TOWNNAME":"後壁區","LI":"烏樹里","LIN":"5鄰","STREET":" ","SECT":" ","MAREA":"烏樹林","LANE":" ","ALLEY":" ","HOUSE_NO":"４９號之７","E_COORD97":186025.01000000001,"N_COORD97":2581506.8599999999,"ADDRESS":"烏樹林４９號之７","OBJECTID":153443},"geometry":{"x":186025.01000000071,"y":2581506.8600000013}},{"attributes":{"ID":153445,"DIS_CODE":0,"TOWNNAME":"後壁區","LI":"烏樹里","LIN":"5鄰","STREET":" ","SECT":" ","MAREA":"烏樹林","LANE":" ","ALLEY":" ","HOUSE_NO":"４９號","E_COORD97":186169.79000000001,"N_COORD97":2581496.8100000001,"ADDRESS":"烏樹林４９號","OBJECTID":153444},"geometry":{"x":186169.79000000004,"y":2581496.8100000042}},{"attributes":{"ID":153446,"DIS_CODE":0,"TOWNNAME":"後壁區","LI":"烏樹里","LIN":"5鄰","STREET":" ","SECT":" ","MAREA":"烏樹林","LANE":" ","ALLEY":" ","HOUSE_NO":"５０號之１","E_COORD97":186206.79000000001,"N_COORD97":2581504.9700000002,"ADDRESS":"烏樹林５０號之１","OBJECTID":153445},"geometry":{"x":186206.79000000004,"y":2581504.9700000007}},{"attributes":{"ID":153447,"DIS_CODE":0,"TOWNNAME":"後壁區","LI":"烏樹里","LIN":"5鄰","STREET":" ","SECT":" ","MAREA":"烏樹林","LANE":" ","ALLEY":" ","HOUSE_NO":"５０號之３","E_COORD97":186192.32999999999,"N_COORD97":2581486.3900000001,"ADDRESS":"烏樹林５０號之３","OBJECTID":153446},"geometry":{"x":186192.33000000101,"y":2581486.3900000025}},{"attributes":{"ID":153448,"DIS_CODE":0,"TOWNNAME":"佳里區","LI":"佳化里","LIN":"19鄰","STREET":" ","SECT":" ","MAREA":"佳里興","LANE":" ","ALLEY":" ","HOUSE_NO":"１８６號","E_COORD97":167162.64000000001,"N_COORD97":2565139.6400000001,"ADDRESS":"佳里興１８６號","OBJECTID":153447},"geometry":{"x":167162.64000000153,"y":2565139.6400000025}},{"attributes":{"ID":153449,"DIS_CODE":0,"TOWNNAME":"佳里區","LI":"佳化里","LIN":"19鄰","STREET":" ","SECT":" ","MAREA":"佳里興","LANE":" ","ALLEY":" ","HOUSE_NO":"１８７號","E_COORD97":167172.45000000001,"N_COORD97":2565150.75,"ADDRESS":"佳里興１８７號","OBJECTID":153448},"geometry":{"x":167172.45000000019,"y":2565150.75}},{"attributes":{"ID":153450,"DIS_CODE":0,"TOWNNAME":"佳里區","LI":"佳化里","LIN":"19鄰","STREET":" ","SECT":" ","MAREA":"佳里興","LANE":" ","ALLEY":" ","HOUSE_NO":"１８８號","E_COORD97":167152.38,"N_COORD97":2565169.8700000001,"ADDRESS":"佳里興１８８號","OBJECTID":153449},"geometry":{"x":167152.37999999989,"y":2565169.8700000029}},{"attributes":{"ID":153451,"DIS_CODE":0,"TOWNNAME":"佳里區","LI":"佳化里","LIN":"19鄰","STREET":" ","SECT":" ","MAREA":"佳里興","LANE":" ","ALLEY":" ","HOUSE_NO":"１８９號","E_COORD97":167164.66,"N_COORD97":2565166.02,"ADDRESS":"佳里興１８９號","OBJECTID":153450},"geometry":{"x":167164.65999999922,"y":2565166.0200000033}},{"attributes":{"ID":153452,"DIS_CODE":0,"TOWNNAME":"後壁區","LI":"烏樹里","LIN":"5鄰","STREET":" ","SECT":" ","MAREA":"烏樹林","LANE":" ","ALLEY":" ","HOUSE_NO":"５０號之５","E_COORD97":186184.17000000001,"N_COORD97":2581492.4700000002,"ADDRESS":"烏樹林５０號之５","OBJECTID":153451},"geometry":{"x":186184.16999999993,"y":2581492.4700000044}},{"attributes":{"ID":153453,"DIS_CODE":0,"TOWNNAME":"後壁區","LI":"烏樹里","LIN":"5鄰","STREET":" ","SECT":" ","MAREA":"烏樹林","LANE":" ","ALLEY":" ","HOUSE_NO":"５０號","E_COORD97":186218.35000000001,"N_COORD97":2581497.7400000002,"ADDRESS":"烏樹林５０號","OBJECTID":153452},"geometry":{"x":186218.34999999963,"y":2581497.7400000021}},{"attributes":{"ID":153454,"DIS_CODE":0,"TOWNNAME":"後壁區","LI":"烏樹里","LIN":"5鄰","STREET":" ","SECT":" ","MAREA":"烏樹林","LANE":" ","ALLEY":" ","HOUSE_NO":"５１號之１","E_COORD97":186232.19,"N_COORD97":2581473.2999999998,"ADDRESS":"烏樹林５１號之１","OBJECTID":153453},"geometry":{"x":186232.18999999948,"y":2581473.3000000045}},{"attributes":{"ID":153455,"DIS_CODE":0,"TOWNNAME":"後壁區","LI":"烏樹里","LIN":"5鄰","STREET":" ","SECT":" ","MAREA":"烏樹林","LANE":" ","ALLEY":" ","HOUSE_NO":"５１號之２","E_COORD97":186250.75,"N_COORD97":2581451.8599999999,"ADDRESS":"烏樹林５１號之２","OBJECTID":153454},"geometry":{"x":186250.75000000093,"y":2581451.8600000013}},{"attributes":{"ID":153456,"DIS_CODE":0,"TOWNNAME":"後壁區","LI":"烏樹里","LIN":"5鄰","STREET":" ","SECT":" ","MAREA":"烏樹林","LANE":" ","ALLEY":" ","HOUSE_NO":"５１號","E_COORD97":186242.92000000001,"N_COORD97":2581464.2999999998,"ADDRESS":"烏樹林５１號","OBJECTID":153455},"geometry":{"x":186242.92000000086,"y":2581464.3000000026}},{"attributes":{"ID":153457,"DIS_CODE":0,"TOWNNAME":"後壁區","LI":"烏樹里","LIN":"5鄰","STREET":" ","SECT":" ","MAREA":"烏樹林","LANE":" ","ALLEY":" ","HOUSE_NO":"５２號之１０","E_COORD97":186028.64999999999,"N_COORD97":2581423.3900000001,"ADDRESS":"烏樹林５２號之１０","OBJECTID":153456},"geometry":{"x":186028.65000000037,"y":2581423.3900000006}},{"attributes":{"ID":153458,"DIS_CODE":0,"TOWNNAME":"後壁區","LI":"烏樹里","LIN":"5鄰","STREET":" ","SECT":" ","MAREA":"烏樹林","LANE":" ","ALLEY":" ","HOUSE_NO":"５２號之１１","E_COORD97":186036.31,"N_COORD97":2581406.5299999998,"ADDRESS":"烏樹林５２號之１１","OBJECTID":153457},"geometry":{"x":186036.31000000052,"y":2581406.5300000012}},{"attributes":{"ID":153459,"DIS_CODE":0,"TOWNNAME":"後壁區","LI":"烏樹里","LIN":"5鄰","STREET":" ","SECT":" ","MAREA":"烏樹林","LANE":" ","ALLEY":" ","HOUSE_NO":"５２號之１","E_COORD97":186232.09,"N_COORD97":2581433.6099999999,"ADDRESS":"烏樹林５２號之１","OBJECTID":153458},"geometry":{"x":186232.08999999985,"y":2581433.6100000013}},{"attributes":{"ID":153460,"DIS_CODE":0,"TOWNNAME":"後壁區","LI":"烏樹里","LIN":"5鄰","STREET":" ","SECT":" ","MAREA":"烏樹林","LANE":" ","ALLEY":" ","HOUSE_NO":"５２號之２","E_COORD97":186198.35999999999,"N_COORD97":2581427.9900000002,"ADDRESS":"烏樹林５２號之２","OBJECTID":153459},"geometry":{"x":186198.36000000034,"y":2581427.9900000021}},{"attributes":{"ID":153461,"DIS_CODE":0,"TOWNNAME":"後壁區","LI":"烏樹里","LIN":"5鄰","STREET":" ","SECT":" ","MAREA":"烏樹林","LANE":" ","ALLEY":" ","HOUSE_NO":"５２號之４","E_COORD97":186124.32000000001,"N_COORD97":2581409.0899999999,"ADDRESS":"烏樹林５２號之４","OBJECTID":153460},"geometry":{"x":186124.3200000003,"y":2581409.0900000036}},{"attributes":{"ID":153462,"DIS_CODE":0,"TOWNNAME":"永康區","LI":"五王里","LIN":"2鄰","STREET":"成功路","SECT":" ","MAREA":" ","LANE":"１７２巷","ALLEY":"８弄","HOUSE_NO":"１０號二樓之２","E_COORD97":171493.98000000001,"N_COORD97":2545595.2000000002,"ADDRESS":"成功路１７２巷８弄１０號二樓之２","OBJECTID":153461},"geometry":{"x":171493.97999999952,"y":2545595.200000003}},{"attributes":{"ID":153463,"DIS_CODE":0,"TOWNNAME":"永康區","LI":"甲頂里","LIN":"2鄰","STREET":"南台街","SECT":" ","MAREA":" ","LANE":"１３５巷","ALLEY":"７弄","HOUSE_NO":"５號三樓","E_COORD97":170072.20000000001,"N_COORD97":2546817.4700000002,"ADDRESS":"南台街１３５巷７弄５號三樓","OBJECTID":153462},"geometry":{"x":170072.20000000112,"y":2546817.4700000007}},{"attributes":{"ID":153464,"DIS_CODE":0,"TOWNNAME":"永康區","LI":"甲頂里","LIN":"2鄰","STREET":"南台街","SECT":" ","MAREA":" ","LANE":"１３５巷","ALLEY":"７弄","HOUSE_NO":"１號四樓","E_COORD97":170034.06,"N_COORD97":2546816.4700000002,"ADDRESS":"南台街１３５巷７弄１號四樓","OBJECTID":153463},"geometry":{"x":170034.05999999959,"y":2546816.4700000025}},{"attributes":{"ID":153465,"DIS_CODE":0,"TOWNNAME":"永康區","LI":"甲頂里","LIN":"2鄰","STREET":"南台街","SECT":" ","MAREA":" ","LANE":"１３５巷","ALLEY":"７弄","HOUSE_NO":"７號四樓","E_COORD97":170089.73000000001,"N_COORD97":2546819.73,"ADDRESS":"南台街１３５巷７弄７號四樓","OBJECTID":153464},"geometry":{"x":170089.73000000045,"y":2546819.7300000004}},{"attributes":{"ID":153466,"DIS_CODE":0,"TOWNNAME":"永康區","LI":"甲頂里","LIN":"2鄰","STREET":"南台街","SECT":" ","MAREA":" ","LANE":"１３５巷","ALLEY":"７弄","HOUSE_NO":"１０號三樓","E_COORD97":170119.60999999999,"N_COORD97":2546818.4700000002,"ADDRESS":"南台街１３５巷７弄１０號三樓","OBJECTID":153465},"geometry":{"x":170119.61000000034,"y":2546818.4700000007}},{"attributes":{"ID":153467,"DIS_CODE":0,"TOWNNAME":"永康區","LI":"龍潭里","LIN":"23鄰","STREET":"自強路","SECT":" ","MAREA":" ","LANE":"７５０巷","ALLEY":"６８弄","HOUSE_NO":"５７號","E_COORD97":174581.88,"N_COORD97":2548337.3999999999,"ADDRESS":"自強路７５０巷６８弄５７號","OBJECTID":153466},"geometry":{"x":174581.88000000082,"y":2548337.4000000004}},{"attributes":{"ID":153468,"DIS_CODE":0,"TOWNNAME":"永康區","LI":"龍潭里","LIN":"26鄰","STREET":"中山北路","SECT":" ","MAREA":" ","LANE":"４６１巷","ALLEY":"８弄","HOUSE_NO":"１１號","E_COORD97":175146.85000000001,"N_COORD97":2547792.6099999999,"ADDRESS":"中山北路４６１巷８弄１１號","OBJECTID":153467},"geometry":{"x":175146.84999999963,"y":2547792.6099999994}},{"attributes":{"ID":153469,"DIS_CODE":0,"TOWNNAME":"永康區","LI":"東灣里","LIN":"34鄰","STREET":"民族路","SECT":" ","MAREA":" ","LANE":"１８１巷","ALLEY":"３弄","HOUSE_NO":"９號","E_COORD97":175220.69,"N_COORD97":2544814.6400000001,"ADDRESS":"民族路１８１巷３弄９號","OBJECTID":153468},"geometry":{"x":175220.69000000134,"y":2544814.6400000025}},{"attributes":{"ID":153470,"DIS_CODE":0,"TOWNNAME":"後壁區","LI":"烏樹里","LIN":"5鄰","STREET":" ","SECT":" ","MAREA":"烏樹林","LANE":" ","ALLEY":" ","HOUSE_NO":"５２號","E_COORD97":186272.94,"N_COORD97":2581467.7799999998,"ADDRESS":"烏樹林５２號","OBJECTID":153469},"geometry":{"x":186272.94000000227,"y":2581467.7799999993}},{"attributes":{"ID":153471,"DIS_CODE":0,"TOWNNAME":"永康區","LI":"網寮里","LIN":"9鄰","STREET":"永二街","SECT":" ","MAREA":" ","LANE":"２４４巷","ALLEY":"６弄","HOUSE_NO":"１９號","E_COORD97":173315.45000000001,"N_COORD97":2546368.1699999999,"ADDRESS":"永二街２４４巷６弄１９號","OBJECTID":153470},"geometry":{"x":173315.45000000112,"y":2546368.1699999999}},{"attributes":{"ID":153472,"DIS_CODE":0,"TOWNNAME":"後壁區","LI":"烏樹里","LIN":"5鄰","STREET":" ","SECT":" ","MAREA":"烏樹林","LANE":" ","ALLEY":" ","HOUSE_NO":"５３號","E_COORD97":186282.51999999999,"N_COORD97":2581421.73,"ADDRESS":"烏樹林５３號","OBJECTID":153471},"geometry":{"x":186282.52000000048,"y":2581421.7300000004}},{"attributes":{"ID":153473,"DIS_CODE":0,"TOWNNAME":"後壁區","LI":"烏樹里","LIN":"5鄰","STREET":" ","SECT":" ","MAREA":"烏樹林","LANE":" ","ALLEY":" ","HOUSE_NO":"５４號","E_COORD97":186265.34,"N_COORD97":2581493.7200000002,"ADDRESS":"烏樹林５４號","OBJECTID":153472},"geometry":{"x":186265.34000000078,"y":2581493.7199999988}},{"attributes":{"ID":153474,"DIS_CODE":0,"TOWNNAME":"後壁區","LI":"烏樹里","LIN":"5鄰","STREET":" ","SECT":" ","MAREA":"烏樹林","LANE":" ","ALLEY":" ","HOUSE_NO":"５５號","E_COORD97":186278.39000000001,"N_COORD97":2581498.1400000001,"ADDRESS":"烏樹林５５號","OBJECTID":153473},"geometry":{"x":186278.3900000006,"y":2581498.1400000025}},{"attributes":{"ID":153475,"DIS_CODE":0,"TOWNNAME":"後壁區","LI":"烏樹里","LIN":"5鄰","STREET":" ","SECT":" ","MAREA":"烏樹林","LANE":" ","ALLEY":" ","HOUSE_NO":"５６號之１","E_COORD97":186287.10000000001,"N_COORD97":2581500,"ADDRESS":"烏樹林５６號之１","OBJECTID":153474},"geometry":{"x":186287.10000000056,"y":2581500}},{"attributes":{"ID":153476,"DIS_CODE":0,"TOWNNAME":"後壁區","LI":"烏樹里","LIN":"5鄰","STREET":" ","SECT":" ","MAREA":"烏樹林","LANE":" ","ALLEY":" ","HOUSE_NO":"５６號","E_COORD97":186283.70999999999,"N_COORD97":2581510.75,"ADDRESS":"烏樹林５６號","OBJECTID":153475},"geometry":{"x":186283.70999999996,"y":2581510.7500000019}},{"attributes":{"ID":153477,"DIS_CODE":0,"TOWNNAME":"後壁區","LI":"烏樹里","LIN":"5鄰","STREET":" ","SECT":" ","MAREA":"烏樹林","LANE":" ","ALLEY":" ","HOUSE_NO":"５７號之２","E_COORD97":186276.79999999999,"N_COORD97":2581534.52,"ADDRESS":"烏樹林５７號之２","OBJECTID":153476},"geometry":{"x":186276.80000000168,"y":2581534.5199999977}},{"attributes":{"ID":153478,"DIS_CODE":0,"TOWNNAME":"後壁區","LI":"烏樹里","LIN":"5鄰","STREET":" ","SECT":" ","MAREA":"烏樹林","LANE":" ","ALLEY":" ","HOUSE_NO":"５７號","E_COORD97":186294.19,"N_COORD97":2581509,"ADDRESS":"烏樹林５７號","OBJECTID":153477},"geometry":{"x":186294.19000000041,"y":2581509.0000000019}},{"attributes":{"ID":153479,"DIS_CODE":0,"TOWNNAME":"將軍區","LI":"西和里","LIN":"19鄰","STREET":" ","SECT":" ","MAREA":"西湖","LANE":" ","ALLEY":" ","HOUSE_NO":"４５之３號","E_COORD97":163095.38,"N_COORD97":2566077.6800000002,"ADDRESS":"西湖４５之３號","OBJECTID":153478},"geometry":{"x":163095.37999999989,"y":2566077.6800000016}},{"attributes":{"ID":153480,"DIS_CODE":0,"TOWNNAME":"將軍區","LI":"西和里","LIN":"19鄰","STREET":" ","SECT":" ","MAREA":"西湖","LANE":" ","ALLEY":" ","HOUSE_NO":"４５之６號","E_COORD97":163076.70999999999,"N_COORD97":2566074.6499999999,"ADDRESS":"西湖４５之６號","OBJECTID":153479},"geometry":{"x":163076.70999999996,"y":2566074.6500000041}},{"attributes":{"ID":153481,"DIS_CODE":0,"TOWNNAME":"將軍區","LI":"西和里","LIN":"19鄰","STREET":" ","SECT":" ","MAREA":"西湖","LANE":" ","ALLEY":" ","HOUSE_NO":"４５之７號","E_COORD97":163071,"N_COORD97":2566074.8399999999,"ADDRESS":"西湖４５之７號","OBJECTID":153480},"geometry":{"x":163071,"y":2566074.8399999999}},{"attributes":{"ID":153482,"DIS_CODE":0,"TOWNNAME":"將軍區","LI":"西和里","LIN":"19鄰","STREET":" ","SECT":" ","MAREA":"西湖","LANE":" ","ALLEY":" ","HOUSE_NO":"４５之８號","E_COORD97":163065.82000000001,"N_COORD97":2566074.9500000002,"ADDRESS":"西湖４５之８號","OBJECTID":153481},"geometry":{"x":163065.8200000003,"y":2566074.950000003}},{"attributes":{"ID":153483,"DIS_CODE":0,"TOWNNAME":"東區","LI":"崇信里","LIN":"24鄰","STREET":"崇善一街","SECT":" ","MAREA":" ","LANE":" ","ALLEY":" ","HOUSE_NO":"７８號十七樓之２","E_COORD97":170831.85999999999,"N_COORD97":2542290.75,"ADDRESS":"崇善一街７８號十七樓之２","OBJECTID":153482},"geometry":{"x":170831.8599999994,"y":2542290.7500000019}},{"attributes":{"ID":153484,"DIS_CODE":0,"TOWNNAME":"永康區","LI":"永康里","LIN":"32鄰","STREET":"永大路","SECT":"二段","MAREA":" ","LANE":"１５２６巷","ALLEY":"２弄","HOUSE_NO":"１號","E_COORD97":174298.5,"N_COORD97":2547277.8599999999,"ADDRESS":"永大路二段１５２６巷２弄１號","OBJECTID":153483},"geometry":{"x":174298.5,"y":2547277.8599999994}},{"attributes":{"ID":153485,"DIS_CODE":0,"TOWNNAME":"將軍區","LI":"苓和里","LIN":"19鄰","STREET":" ","SECT":" ","MAREA":"忠寮","LANE":" ","ALLEY":" ","HOUSE_NO":"７１之８號","E_COORD97":164110.63,"N_COORD97":2568844.96,"ADDRESS":"忠寮７１之８號","OBJECTID":153484},"geometry":{"x":164110.63000000082,"y":2568844.9600000009}},{"attributes":{"ID":153486,"DIS_CODE":0,"TOWNNAME":"將軍區","LI":"苓和里","LIN":"19鄰","STREET":" ","SECT":" ","MAREA":"忠寮","LANE":" ","ALLEY":" ","HOUSE_NO":"７１之９號","E_COORD97":164109.85000000001,"N_COORD97":2568839.02,"ADDRESS":"忠寮７１之９號","OBJECTID":153485},"geometry":{"x":164109.85000000149,"y":2568839.0200000014}},{"attributes":{"ID":153487,"DIS_CODE":0,"TOWNNAME":"將軍區","LI":"苓和里","LIN":"19鄰","STREET":" ","SECT":" ","MAREA":"忠寮","LANE":" ","ALLEY":" ","HOUSE_NO":"７１號","E_COORD97":164106.45000000001,"N_COORD97":2568818.6699999999,"ADDRESS":"忠寮７１號","OBJECTID":153486},"geometry":{"x":164106.45000000205,"y":2568818.6699999999}},{"attributes":{"ID":153488,"DIS_CODE":0,"TOWNNAME":"將軍區","LI":"苓和里","LIN":"19鄰","STREET":" ","SECT":" ","MAREA":"忠寮","LANE":" ","ALLEY":" ","HOUSE_NO":"７２之１號","E_COORD97":164092.13,"N_COORD97":2568846.8300000001,"ADDRESS":"忠寮７２之１號","OBJECTID":153487},"geometry":{"x":164092.13000000082,"y":2568846.8300000019}},{"attributes":{"ID":153489,"DIS_CODE":0,"TOWNNAME":"中西區","LI":"民生里","LIN":"15鄰","STREET":"南華街","SECT":" ","MAREA":" ","LANE":" ","ALLEY":" ","HOUSE_NO":"７６號","E_COORD97":167121.70000000001,"N_COORD97":2543474.4199999999,"ADDRESS":"南華街７６號","OBJECTID":153488},"geometry":{"x":167121.70000000019,"y":2543474.4199999999}},{"attributes":{"ID":153490,"DIS_CODE":0,"TOWNNAME":"將軍區","LI":"苓和里","LIN":"19鄰","STREET":" ","SECT":" ","MAREA":"忠寮","LANE":" ","ALLEY":" ","HOUSE_NO":"７２之２號","E_COORD97":164068.12,"N_COORD97":2568829.9399999999,"ADDRESS":"忠寮７２之２號","OBJECTID":153489},"geometry":{"x":164068.12000000104,"y":2568829.9399999995}},{"attributes":{"ID":153491,"DIS_CODE":0,"TOWNNAME":"將軍區","LI":"苓和里","LIN":"19鄰","STREET":" ","SECT":" ","MAREA":"忠寮","LANE":" ","ALLEY":" ","HOUSE_NO":"７２之３號","E_COORD97":164070.89999999999,"N_COORD97":2568856.0699999998,"ADDRESS":"忠寮７２之３號","OBJECTID":153490},"geometry":{"x":164070.90000000037,"y":2568856.0700000022}},{"attributes":{"ID":153492,"DIS_CODE":0,"TOWNNAME":"永康區","LI":"復國里","LIN":"19鄰","STREET":"復國一路","SECT":" ","MAREA":" ","LANE":" ","ALLEY":" ","HOUSE_NO":"３６０號之２","E_COORD97":172775.67000000001,"N_COORD97":2545752.4199999999,"ADDRESS":"復國一路３６０號之２","OBJECTID":153491},"geometry":{"x":172775.67000000086,"y":2545752.4199999999}},{"attributes":{"ID":153493,"DIS_CODE":0,"TOWNNAME":"永康區","LI":"崑山里","LIN":"19鄰","STREET":"大灣路","SECT":" ","MAREA":" ","LANE":" ","ALLEY":" ","HOUSE_NO":"７８０號","E_COORD97":174044.70999999999,"N_COORD97":2544516.7799999998,"ADDRESS":"大灣路７８０號","OBJECTID":153492},"geometry":{"x":174044.70999999996,"y":2544516.7800000031}},{"attributes":{"ID":153494,"DIS_CODE":0,"TOWNNAME":"永康區","LI":"烏竹里","LIN":"19鄰","STREET":"自強路","SECT":" ","MAREA":" ","LANE":" ","ALLEY":" ","HOUSE_NO":"７５１號","E_COORD97":174439.04000000001,"N_COORD97":2548536.7999999998,"ADDRESS":"自強路７５１號","OBJECTID":153493},"geometry":{"x":174439.04000000004,"y":2548536.8000000026}},{"attributes":{"ID":153495,"DIS_CODE":0,"TOWNNAME":"永康區","LI":"崑山里","LIN":"7鄰","STREET":"崑大路","SECT":" ","MAREA":" ","LANE":"１５５巷","ALLEY":"５８弄","HOUSE_NO":"１０１號","E_COORD97":173308.35999999999,"N_COORD97":2543764.9700000002,"ADDRESS":"崑大路１５５巷５８弄１０１號","OBJECTID":153494},"geometry":{"x":173308.36000000034,"y":2543764.9700000025}},{"attributes":{"ID":153496,"DIS_CODE":0,"TOWNNAME":"將軍區","LI":"忠興里","LIN":"19鄰","STREET":" ","SECT":" ","MAREA":"忠興","LANE":" ","ALLEY":" ","HOUSE_NO":"１８７之７號","E_COORD97":163849.32999999999,"N_COORD97":2566688.46,"ADDRESS":"忠興１８７之７號","OBJECTID":153495},"geometry":{"x":163849.32999999914,"y":2566688.4600000009}},{"attributes":{"ID":153497,"DIS_CODE":0,"TOWNNAME":"將軍區","LI":"忠興里","LIN":"19鄰","STREET":" ","SECT":" ","MAREA":"忠興","LANE":" ","ALLEY":" ","HOUSE_NO":"１８７號","E_COORD97":163868.35999999999,"N_COORD97":2566723.2799999998,"ADDRESS":"忠興１８７號","OBJECTID":153496},"geometry":{"x":163868.36000000127,"y":2566723.2799999993}},{"attributes":{"ID":153498,"DIS_CODE":0,"TOWNNAME":"永康區","LI":"永康里","LIN":"31鄰","STREET":"聖龍街","SECT":" ","MAREA":" ","LANE":"１８６巷","ALLEY":"３弄","HOUSE_NO":"１號","E_COORD97":174242.35999999999,"N_COORD97":2547814.1600000001,"ADDRESS":"聖龍街１８６巷３弄１號","OBJECTID":153497},"geometry":{"x":174242.36000000034,"y":2547814.160000002}},{"attributes":{"ID":153499,"DIS_CODE":0,"TOWNNAME":"永康區","LI":"正強里","LIN":"6鄰","STREET":"自強路","SECT":" ","MAREA":" ","LANE":"３６８巷","ALLEY":"３弄","HOUSE_NO":"５號","E_COORD97":173525.81,"N_COORD97":2547736.7400000002,"ADDRESS":"自強路３６８巷３弄５號","OBJECTID":153498},"geometry":{"x":173525.81000000052,"y":2547736.7400000021}},{"attributes":{"ID":153500,"DIS_CODE":0,"TOWNNAME":"將軍區","LI":"忠興里","LIN":"19鄰","STREET":" ","SECT":" ","MAREA":"忠興","LANE":" ","ALLEY":" ","HOUSE_NO":"１８９之３號","E_COORD97":163865.72,"N_COORD97":2566658.25,"ADDRESS":"忠興１８９之３號","OBJECTID":153499},"geometry":{"x":163865.72000000067,"y":2566658.2500000019}},{"attributes":{"ID":153501,"DIS_CODE":0,"TOWNNAME":"將軍區","LI":"忠興里","LIN":"19鄰","STREET":" ","SECT":" ","MAREA":"忠興","LANE":" ","ALLEY":" ","HOUSE_NO":"１８９號","E_COORD97":163869.29000000001,"N_COORD97":2566617.3300000001,"ADDRESS":"忠興１８９號","OBJECTID":153500},"geometry":{"x":163869.29000000004,"y":2566617.3300000001}},{"attributes":{"ID":153502,"DIS_CODE":0,"TOWNNAME":"將軍區","LI":"忠興里","LIN":"19鄰","STREET":" ","SECT":" ","MAREA":"忠興","LANE":" ","ALLEY":" ","HOUSE_NO":"１９０之１號","E_COORD97":163910.45999999999,"N_COORD97":2566575.8399999999,"ADDRESS":"忠興１９０之１號","OBJECTID":153501},"geometry":{"x":163910.45999999996,"y":2566575.8400000017}},{"attributes":{"ID":153503,"DIS_CODE":0,"TOWNNAME":"將軍區","LI":"忠興里","LIN":"19鄰","STREET":" ","SECT":" ","MAREA":"忠興","LANE":" ","ALLEY":" ","HOUSE_NO":"１９０之２號","E_COORD97":163891.95000000001,"N_COORD97":2566579.48,"ADDRESS":"忠興１９０之２號","OBJECTID":153502},"geometry":{"x":163891.95000000112,"y":2566579.4800000004}},{"attributes":{"ID":153504,"DIS_CODE":0,"TOWNNAME":"將軍區","LI":"忠興里","LIN":"19鄰","STREET":" ","SECT":" ","MAREA":"忠興","LANE":" ","ALLEY":" ","HOUSE_NO":"１９０之３號","E_COORD97":163915.64999999999,"N_COORD97":2566575.7599999998,"ADDRESS":"忠興１９０之３號","OBJECTID":153503},"geometry":{"x":163915.6500000013,"y":2566575.7600000016}},{"attributes":{"ID":153505,"DIS_CODE":0,"TOWNNAME":"將軍區","LI":"忠興里","LIN":"19鄰","STREET":" ","SECT":" ","MAREA":"忠興","LANE":" ","ALLEY":" ","HOUSE_NO":"１９０之４號","E_COORD97":163921.26999999999,"N_COORD97":2566575.8300000001,"ADDRESS":"忠興１９０之４號","OBJECTID":153504},"geometry":{"x":163921.27000000048,"y":2566575.8300000019}},{"attributes":{"ID":153506,"DIS_CODE":0,"TOWNNAME":"將軍區","LI":"忠興里","LIN":"19鄰","STREET":" ","SECT":" ","MAREA":"忠興","LANE":" ","ALLEY":" ","HOUSE_NO":"１９０之５號","E_COORD97":163926.19,"N_COORD97":2566575.1200000001,"ADDRESS":"忠興１９０之５號","OBJECTID":153505},"geometry":{"x":163926.19000000041,"y":2566575.1200000029}},{"attributes":{"ID":153507,"DIS_CODE":0,"TOWNNAME":"將軍區","LI":"忠興里","LIN":"19鄰","STREET":" ","SECT":" ","MAREA":"忠興","LANE":" ","ALLEY":" ","HOUSE_NO":"１９０號","E_COORD97":163891.12,"N_COORD97":2566562.52,"ADDRESS":"忠興１９０號","OBJECTID":153506},"geometry":{"x":163891.12000000011,"y":2566562.5199999996}},{"attributes":{"ID":153508,"DIS_CODE":0,"TOWNNAME":"永康區","LI":"西橋里","LIN":"4鄰","STREET":"中山南路","SECT":" ","MAREA":" ","LANE":"４３巷","ALLEY":"１０弄","HOUSE_NO":"１７號","E_COORD97":170791.82000000001,"N_COORD97":2545904.5,"ADDRESS":"中山南路４３巷１０弄１７號","OBJECTID":153507},"geometry":{"x":170791.82000000123,"y":2545904.5}},{"attributes":{"ID":153509,"DIS_CODE":0,"TOWNNAME":"將軍區","LI":"忠興里","LIN":"19鄰","STREET":" ","SECT":" ","MAREA":"忠興","LANE":" ","ALLEY":" ","HOUSE_NO":"１９６號","E_COORD97":163861.51000000001,"N_COORD97":2566536.6499999999,"ADDRESS":"忠興１９６號","OBJECTID":153508},"geometry":{"x":163861.51000000164,"y":2566536.6500000022}},{"attributes":{"ID":153510,"DIS_CODE":0,"TOWNNAME":"將軍區","LI":"忠興里","LIN":"19鄰","STREET":" ","SECT":" ","MAREA":"忠興","LANE":" ","ALLEY":" ","HOUSE_NO":"１９９號","E_COORD97":163928.62162600001,"N_COORD97":2566541.4909799998,"ADDRESS":"忠興１９９號","OBJECTID":153509},"geometry":{"x":163928.62162599992,"y":2566541.4909790009}},{"attributes":{"ID":153511,"DIS_CODE":0,"TOWNNAME":"永康區","LI":"龍潭里","LIN":"34鄰","STREET":"龍埔街","SECT":" ","MAREA":" ","LANE":"１７５巷","ALLEY":"１弄","HOUSE_NO":"１４號","E_COORD97":174492.26000000001,"N_COORD97":2548194.1200000001,"ADDRESS":"龍埔街１７５巷１弄１４號","OBJECTID":153510},"geometry":{"x":174492.26000000071,"y":2548194.120000001}},{"attributes":{"ID":153512,"DIS_CODE":0,"TOWNNAME":"永康區","LI":"尚頂里","LIN":"9鄰","STREET":"正南一街","SECT":" ","MAREA":" ","LANE":"１２９巷","ALLEY":"４６弄","HOUSE_NO":"８號","E_COORD97":170685.10000000001,"N_COORD97":2547163.5600000001,"ADDRESS":"正南一街１２９巷４６弄８號","OBJECTID":153511},"geometry":{"x":170685.09999999963,"y":2547163.5600000005}},{"attributes":{"ID":153513,"DIS_CODE":0,"TOWNNAME":"永康區","LI":"北灣里","LIN":"36鄰","STREET":"大灣路","SECT":" ","MAREA":" ","LANE":"４０巷","ALLEY":"１８２弄","HOUSE_NO":"１０號","E_COORD97":174844.88,"N_COORD97":2546361.0800000001,"ADDRESS":"大灣路４０巷１８２弄１０號","OBJECTID":153512},"geometry":{"x":174844.87999999989,"y":2546361.0800000019}},{"attributes":{"ID":153514,"DIS_CODE":0,"TOWNNAME":"永康區","LI":"西勢里","LIN":"28鄰","STREET":"廣興街","SECT":" ","MAREA":" ","LANE":"３８巷","ALLEY":"３４弄","HOUSE_NO":"２１號","E_COORD97":176038.14999999999,"N_COORD97":2546381.23,"ADDRESS":"廣興街３８巷３４弄２１號","OBJECTID":153513},"geometry":{"x":176038.1500000013,"y":2546381.2300000004}},{"attributes":{"ID":153515,"DIS_CODE":0,"TOWNNAME":"永康區","LI":"正強里","LIN":"29鄰","STREET":"中正路","SECT":" ","MAREA":" ","LANE":"１５５巷","ALLEY":"１０弄","HOUSE_NO":"２０號","E_COORD97":173188.20999999999,"N_COORD97":2547751.25,"ADDRESS":"中正路１５５巷１０弄２０號","OBJECTID":153514},"geometry":{"x":173188.20999999996,"y":2547751.25}},{"attributes":{"ID":153516,"DIS_CODE":0,"TOWNNAME":"永康區","LI":"正強里","LIN":"18鄰","STREET":"自強路","SECT":" ","MAREA":" ","LANE":"１８８巷","ALLEY":"６２弄","HOUSE_NO":"８號","E_COORD97":173185.88,"N_COORD97":2547283.25,"ADDRESS":"自強路１８８巷６２弄８號","OBJECTID":153515},"geometry":{"x":173185.87999999896,"y":2547283.25}},{"attributes":{"ID":153517,"DIS_CODE":0,"TOWNNAME":"永康區","LI":"東橋里","LIN":"27鄰","STREET":"中正路","SECT":" ","MAREA":" ","LANE":"２７９巷","ALLEY":"２弄","HOUSE_NO":"４３號","E_COORD97":172631.10000000001,"N_COORD97":2547924.2400000002,"ADDRESS":"中正路２７９巷２弄４３號","OBJECTID":153516},"geometry":{"x":172631.09999999963,"y":2547924.2400000002}},{"attributes":{"ID":153518,"DIS_CODE":0,"TOWNNAME":"永康區","LI":"北灣里","LIN":"26鄰","STREET":"文賢街","SECT":" ","MAREA":" ","LANE":"７８巷","ALLEY":"１９弄","HOUSE_NO":"３１號","E_COORD97":175437.98999999999,"N_COORD97":2545376.1200000001,"ADDRESS":"文賢街７８巷１９弄３１號","OBJECTID":153517},"geometry":{"x":175437.99000000022,"y":2545376.120000001}},{"attributes":{"ID":153519,"DIS_CODE":0,"TOWNNAME":"永康區","LI":"尚頂里","LIN":"27鄰","STREET":"南台街","SECT":" ","MAREA":" ","LANE":"５４巷","ALLEY":"３９弄","HOUSE_NO":"２５號","E_COORD97":170288.89000000001,"N_COORD97":2547031.25,"ADDRESS":"南台街５４巷３９弄２５號","OBJECTID":153518},"geometry":{"x":170288.8900000006,"y":2547031.2500000019}},{"attributes":{"ID":153520,"DIS_CODE":0,"TOWNNAME":"永康區","LI":"東灣里","LIN":"34鄰","STREET":"民族路","SECT":" ","MAREA":" ","LANE":"１８１巷","ALLEY":"３弄","HOUSE_NO":"２９號","E_COORD97":175250.17999999999,"N_COORD97":2544779.52,"ADDRESS":"民族路１８１巷３弄２９號","OBJECTID":153519},"geometry":{"x":175250.18000000156,"y":2544779.5199999977}},{"attributes":{"ID":153521,"DIS_CODE":0,"TOWNNAME":"永康區","LI":"甲頂里","LIN":"4鄰","STREET":"中正南路","SECT":" ","MAREA":" ","LANE":"１６８巷","ALLEY":"１６弄","HOUSE_NO":"１號","E_COORD97":169889.64999999999,"N_COORD97":2546941.75,"ADDRESS":"中正南路１６８巷１６弄１號","OBJECTID":153520},"geometry":{"x":169889.6500000013,"y":2546941.7500000037}},{"attributes":{"ID":153522,"DIS_CODE":0,"TOWNNAME":"永康區","LI":"北灣里","LIN":"36鄰","STREET":"大灣路","SECT":" ","MAREA":" ","LANE":"４０巷","ALLEY":"１２０弄","HOUSE_NO":"２０號","E_COORD97":174965,"N_COORD97":2546290.2999999998,"ADDRESS":"大灣路４０巷１２０弄２０號","OBJECTID":153521},"geometry":{"x":174965,"y":2546290.3000000007}},{"attributes":{"ID":153523,"DIS_CODE":0,"TOWNNAME":"永康區","LI":"新樹里","LIN":"1鄰","STREET":"富強路","SECT":"二段","MAREA":" ","LANE":"２７５巷","ALLEY":"２弄","HOUSE_NO":"６號","E_COORD97":175570.10999999999,"N_COORD97":2547472.73,"ADDRESS":"富強路二段２７５巷２弄６號","OBJECTID":153522},"geometry":{"x":175570.1100000022,"y":2547472.7300000023}},{"attributes":{"ID":153524,"DIS_CODE":0,"TOWNNAME":"永康區","LI":"復興里","LIN":"21鄰","STREET":"復興路","SECT":" ","MAREA":" ","LANE":"２９６巷","ALLEY":"１３弄","HOUSE_NO":"２１號","E_COORD97":172329.76000000001,"N_COORD97":2544424.02,"ADDRESS":"復興路２９６巷１３弄２１號","OBJECTID":153523},"geometry":{"x":172329.76000000071,"y":2544424.0200000014}},{"attributes":{"ID":153525,"DIS_CODE":0,"TOWNNAME":"永康區","LI":"復華里","LIN":"13鄰","STREET":"國華街","SECT":" ","MAREA":" ","LANE":"９６巷","ALLEY":"１５弄","HOUSE_NO":"１號","E_COORD97":172901.37,"N_COORD97":2545931.4399999999,"ADDRESS":"國華街９６巷１５弄１號","OBJECTID":153524},"geometry":{"x":172901.36999999918,"y":2545931.4399999995}},{"attributes":{"ID":153526,"DIS_CODE":0,"TOWNNAME":"永康區","LI":"復華里","LIN":"13鄰","STREET":"國華街","SECT":" ","MAREA":" ","LANE":"９６巷","ALLEY":"１５弄","HOUSE_NO":"２２號","E_COORD97":172933.20999999999,"N_COORD97":2546012.71,"ADDRESS":"國華街９６巷１５弄２２號","OBJECTID":153525},"geometry":{"x":172933.21000000089,"y":2546012.7100000009}},{"attributes":{"ID":153527,"DIS_CODE":0,"TOWNNAME":"永康區","LI":"北灣里","LIN":"24鄰","STREET":"大灣路","SECT":" ","MAREA":" ","LANE":"３７巷","ALLEY":"３０弄","HOUSE_NO":"７號","E_COORD97":175432.60999999999,"N_COORD97":2545841.21,"ADDRESS":"大灣路３７巷３０弄７號","OBJECTID":153526},"geometry":{"x":175432.6099999994,"y":2545841.2100000046}},{"attributes":{"ID":153528,"DIS_CODE":0,"TOWNNAME":"後壁區","LI":"烏樹里","LIN":"5鄰","STREET":" ","SECT":" ","MAREA":"烏樹林","LANE":" ","ALLEY":" ","HOUSE_NO":"５８號","E_COORD97":186310.62,"N_COORD97":2581503.0800000001,"ADDRESS":"烏樹林５８號","OBJECTID":153527},"geometry":{"x":186310.62000000104,"y":2581503.0800000001}},{"attributes":{"ID":153529,"DIS_CODE":0,"TOWNNAME":"後壁區","LI":"烏樹里","LIN":"5鄰","STREET":" ","SECT":" ","MAREA":"烏樹林","LANE":" ","ALLEY":" ","HOUSE_NO":"６０號之１","E_COORD97":186320.37,"N_COORD97":2581449.5800000001,"ADDRESS":"烏樹林６０號之１","OBJECTID":153528},"geometry":{"x":186320.37000000011,"y":2581449.5800000001}},{"attributes":{"ID":153530,"DIS_CODE":0,"TOWNNAME":"後壁區","LI":"烏樹里","LIN":"5鄰","STREET":" ","SECT":" ","MAREA":"烏樹林","LANE":" ","ALLEY":" ","HOUSE_NO":"６０號","E_COORD97":186297.35000000001,"N_COORD97":2581464.7000000002,"ADDRESS":"烏樹林６０號","OBJECTID":153529},"geometry":{"x":186297.35000000056,"y":2581464.6999999993}},{"attributes":{"ID":153531,"DIS_CODE":0,"TOWNNAME":"後壁區","LI":"烏樹里","LIN":"5鄰","STREET":" ","SECT":" ","MAREA":"烏樹林","LANE":" ","ALLEY":" ","HOUSE_NO":"６１號","E_COORD97":186294.42000000001,"N_COORD97":2581427.3599999999,"ADDRESS":"烏樹林６１號","OBJECTID":153530},"geometry":{"x":186294.41999999993,"y":2581427.3600000031}},{"attributes":{"ID":153532,"DIS_CODE":0,"TOWNNAME":"後壁區","LI":"頂安里","LIN":"5鄰","STREET":" ","SECT":" ","MAREA":"頂寮","LANE":" ","ALLEY":" ","HOUSE_NO":"４８號","E_COORD97":183961.78,"N_COORD97":2581529.52,"ADDRESS":"頂寮４８號","OBJECTID":153531},"geometry":{"x":183961.78000000212,"y":2581529.5200000014}},{"attributes":{"ID":153533,"DIS_CODE":0,"TOWNNAME":"後壁區","LI":"頂安里","LIN":"5鄰","STREET":" ","SECT":" ","MAREA":"頂寮","LANE":" ","ALLEY":" ","HOUSE_NO":"５０號","E_COORD97":183936.48999999999,"N_COORD97":2581552.6699999999,"ADDRESS":"頂寮５０號","OBJECTID":153532},"geometry":{"x":183936.49000000209,"y":2581552.6700000018}},{"attributes":{"ID":153534,"DIS_CODE":0,"TOWNNAME":"後壁區","LI":"頂安里","LIN":"5鄰","STREET":" ","SECT":" ","MAREA":"頂寮","LANE":" ","ALLEY":" ","HOUSE_NO":"５１號","E_COORD97":183932.48999999999,"N_COORD97":2581590.1000000001,"ADDRESS":"頂寮５１號","OBJECTID":153533},"geometry":{"x":183932.49000000022,"y":2581590.1000000015}},{"attributes":{"ID":153535,"DIS_CODE":0,"TOWNNAME":"後壁區","LI":"頂安里","LIN":"5鄰","STREET":" ","SECT":" ","MAREA":"頂寮","LANE":" ","ALLEY":" ","HOUSE_NO":"５２號之１","E_COORD97":183924.35000000001,"N_COORD97":2581538.04,"ADDRESS":"頂寮５２號之１","OBJECTID":153534},"geometry":{"x":183924.34999999963,"y":2581538.040000001}},{"attributes":{"ID":153536,"DIS_CODE":0,"TOWNNAME":"後壁區","LI":"頂安里","LIN":"5鄰","STREET":" ","SECT":" ","MAREA":"頂寮","LANE":" ","ALLEY":" ","HOUSE_NO":"５２號","E_COORD97":183937.73000000001,"N_COORD97":2581513.3999999999,"ADDRESS":"頂寮５２號","OBJECTID":153535},"geometry":{"x":183937.73000000045,"y":2581513.4000000022}},{"attributes":{"ID":153537,"DIS_CODE":0,"TOWNNAME":"後壁區","LI":"頂安里","LIN":"5鄰","STREET":" ","SECT":" ","MAREA":"頂寮","LANE":" ","ALLEY":" ","HOUSE_NO":"５３號之２","E_COORD97":183910.81,"N_COORD97":2581576.0699999998,"ADDRESS":"頂寮５３號之２","OBJECTID":153536},"geometry":{"x":183910.80999999959,"y":2581576.070000004}},{"attributes":{"ID":153538,"DIS_CODE":0,"TOWNNAME":"後壁區","LI":"頂安里","LIN":"5鄰","STREET":" ","SECT":" ","MAREA":"頂寮","LANE":" ","ALLEY":" ","HOUSE_NO":"５３號","E_COORD97":183907.14999999999,"N_COORD97":2581594.5699999998,"ADDRESS":"頂寮５３號","OBJECTID":153537},"geometry":{"x":183907.1500000013,"y":2581594.5700000003}},{"attributes":{"ID":153539,"DIS_CODE":0,"TOWNNAME":"後壁區","LI":"頂安里","LIN":"5鄰","STREET":" ","SECT":" ","MAREA":"頂寮","LANE":" ","ALLEY":" ","HOUSE_NO":"５４號之１０","E_COORD97":183789.70999999999,"N_COORD97":2582091.1200000001,"ADDRESS":"頂寮５４號之１０","OBJECTID":153538},"geometry":{"x":183789.71000000089,"y":2582091.120000001}},{"attributes":{"ID":153540,"DIS_CODE":0,"TOWNNAME":"後壁區","LI":"頂安里","LIN":"5鄰","STREET":" ","SECT":" ","MAREA":"頂寮","LANE":" ","ALLEY":" ","HOUSE_NO":"５４號之２附６","E_COORD97":183889.78,"N_COORD97":2581608.0299999998,"ADDRESS":"頂寮５４號之２附６","OBJECTID":153539},"geometry":{"x":183889.78000000026,"y":2581608.0299999993}},{"attributes":{"ID":153541,"DIS_CODE":0,"TOWNNAME":"後壁區","LI":"頂安里","LIN":"5鄰","STREET":" ","SECT":" ","MAREA":"頂寮","LANE":" ","ALLEY":" ","HOUSE_NO":"５４號之２","E_COORD97":183883.17999999999,"N_COORD97":2581658.2000000002,"ADDRESS":"頂寮５４號之２","OBJECTID":153540},"geometry":{"x":183883.1799999997,"y":2581658.1999999993}},{"attributes":{"ID":153542,"DIS_CODE":0,"TOWNNAME":"後壁區","LI":"頂安里","LIN":"5鄰","STREET":" ","SECT":" ","MAREA":"頂寮","LANE":" ","ALLEY":" ","HOUSE_NO":"５４號之３０","E_COORD97":183790.04999999999,"N_COORD97":2581899.5800000001,"ADDRESS":"頂寮５４號之３０","OBJECTID":153541},"geometry":{"x":183790.05000000075,"y":2581899.5800000001}},{"attributes":{"ID":153543,"DIS_CODE":0,"TOWNNAME":"後壁區","LI":"頂安里","LIN":"5鄰","STREET":" ","SECT":" ","MAREA":"頂寮","LANE":" ","ALLEY":" ","HOUSE_NO":"５４號之３附２","E_COORD97":183914.39999999999,"N_COORD97":2581635.9300000002,"ADDRESS":"頂寮５４號之３附２","OBJECTID":153542},"geometry":{"x":183914.40000000037,"y":2581635.9299999997}},{"attributes":{"ID":153544,"DIS_CODE":0,"TOWNNAME":"後壁區","LI":"頂安里","LIN":"5鄰","STREET":" ","SECT":" ","MAREA":"頂寮","LANE":" ","ALLEY":" ","HOUSE_NO":"５４號之３","E_COORD97":183918.60999999999,"N_COORD97":2581624.6499999999,"ADDRESS":"頂寮５４號之３","OBJECTID":153543},"geometry":{"x":183918.61000000034,"y":2581624.6500000004}},{"attributes":{"ID":153545,"DIS_CODE":0,"TOWNNAME":"後壁區","LI":"頂安里","LIN":"5鄰","STREET":" ","SECT":" ","MAREA":"頂寮","LANE":" ","ALLEY":" ","HOUSE_NO":"５４號之４","E_COORD97":183921.39999999999,"N_COORD97":2581631.73,"ADDRESS":"頂寮５４號之４","OBJECTID":153544},"geometry":{"x":183921.40000000037,"y":2581631.7300000004}},{"attributes":{"ID":153546,"DIS_CODE":0,"TOWNNAME":"後壁區","LI":"頂安里","LIN":"5鄰","STREET":" ","SECT":" ","MAREA":"頂寮","LANE":" ","ALLEY":" ","HOUSE_NO":"５４號之５附１","E_COORD97":183906.32000000001,"N_COORD97":2581645.21,"ADDRESS":"頂寮５４號之５附１","OBJECTID":153545},"geometry":{"x":183906.32000000123,"y":2581645.2100000009}},{"attributes":{"ID":153547,"DIS_CODE":0,"TOWNNAME":"後壁區","LI":"頂安里","LIN":"5鄰","STREET":" ","SECT":" ","MAREA":"頂寮","LANE":" ","ALLEY":" ","HOUSE_NO":"５４號之５附２","E_COORD97":183901.64999999999,"N_COORD97":2581650.5800000001,"ADDRESS":"頂寮５４號之５附２","OBJECTID":153546},"geometry":{"x":183901.65000000224,"y":2581650.5800000019}},{"attributes":{"ID":153548,"DIS_CODE":0,"TOWNNAME":"後壁區","LI":"頂安里","LIN":"5鄰","STREET":" ","SECT":" ","MAREA":"頂寮","LANE":" ","ALLEY":" ","HOUSE_NO":"５４號之５","E_COORD97":183908.59,"N_COORD97":2581640.7400000002,"ADDRESS":"頂寮５４號之５","OBJECTID":153547},"geometry":{"x":183908.59000000078,"y":2581640.7400000021}},{"attributes":{"ID":153549,"DIS_CODE":0,"TOWNNAME":"後壁區","LI":"頂安里","LIN":"5鄰","STREET":" ","SECT":" ","MAREA":"頂寮","LANE":" ","ALLEY":" ","HOUSE_NO":"５４號之６","E_COORD97":183901.34,"N_COORD97":2581678.0600000001,"ADDRESS":"頂寮５４號之６","OBJECTID":153548},"geometry":{"x":183901.33999999985,"y":2581678.0600000042}},{"attributes":{"ID":153550,"DIS_CODE":0,"TOWNNAME":"後壁區","LI":"頂安里","LIN":"5鄰","STREET":" ","SECT":" ","MAREA":"頂寮","LANE":" ","ALLEY":" ","HOUSE_NO":"５４號之７","E_COORD97":183896.31,"N_COORD97":2581695.96,"ADDRESS":"頂寮５４號之７","OBJECTID":153549},"geometry":{"x":183896.31000000145,"y":2581695.9600000046}},{"attributes":{"ID":153551,"DIS_CODE":0,"TOWNNAME":"後壁區","LI":"頂安里","LIN":"5鄰","STREET":" ","SECT":" ","MAREA":"頂寮","LANE":" ","ALLEY":" ","HOUSE_NO":"５４號","E_COORD97":183903.23999999999,"N_COORD97":2581614.1600000001,"ADDRESS":"頂寮５４號","OBJECTID":153550},"geometry":{"x":183903.24000000115,"y":2581614.1600000001}},{"attributes":{"ID":153552,"DIS_CODE":0,"TOWNNAME":"後壁區","LI":"頂安里","LIN":"5鄰","STREET":" ","SECT":" ","MAREA":"頂寮","LANE":" ","ALLEY":" ","HOUSE_NO":"５５號之２","E_COORD97":183883.26999999999,"N_COORD97":2581568.6899999999,"ADDRESS":"頂寮５５號之２","OBJECTID":153551},"geometry":{"x":183883.27000000048,"y":2581568.6900000013}},{"attributes":{"ID":153553,"DIS_CODE":0,"TOWNNAME":"後壁區","LI":"頂安里","LIN":"5鄰","STREET":" ","SECT":" ","MAREA":"頂寮","LANE":" ","ALLEY":" ","HOUSE_NO":"５５號之６","E_COORD97":183895.56,"N_COORD97":2581556.1800000002,"ADDRESS":"頂寮５５號之６","OBJECTID":153552},"geometry":{"x":183895.55999999959,"y":2581556.1799999997}},{"attributes":{"ID":153554,"DIS_CODE":0,"TOWNNAME":"白河區","LI":"內角里","LIN":"5鄰","STREET":" ","SECT":" ","MAREA":"內角","LANE":" ","ALLEY":" ","HOUSE_NO":"６８號","E_COORD97":192535.89000000001,"N_COORD97":2588562.8799999999,"ADDRESS":"內角６８號","OBJECTID":153553},"geometry":{"x":192535.88999999966,"y":2588562.879999999}},{"attributes":{"ID":153555,"DIS_CODE":0,"TOWNNAME":"白河區","LI":"崎內里","LIN":"5鄰","STREET":" ","SECT":" ","MAREA":"內崎內","LANE":" ","ALLEY":" ","HOUSE_NO":"３５號","E_COORD97":195450.51000000001,"N_COORD97":2587160.3300000001,"ADDRESS":"內崎內３５號","OBJECTID":153554},"geometry":{"x":195450.50999999978,"y":2587160.3300000001}},{"attributes":{"ID":153556,"DIS_CODE":0,"TOWNNAME":"白河區","LI":"崎內里","LIN":"5鄰","STREET":" ","SECT":" ","MAREA":"內崎內","LANE":" ","ALLEY":" ","HOUSE_NO":"３８之８號","E_COORD97":195552.39999999999,"N_COORD97":2587084.1400000001,"ADDRESS":"內崎內３８之８號","OBJECTID":153555},"geometry":{"x":195552.40000000037,"y":2587084.1400000006}},{"attributes":{"ID":153557,"DIS_CODE":0,"TOWNNAME":"白河區","LI":"崎內里","LIN":"5鄰","STREET":" ","SECT":" ","MAREA":"內崎內","LANE":" ","ALLEY":" ","HOUSE_NO":"３８之９號","E_COORD97":195562.32999999999,"N_COORD97":2587065.1899999999,"ADDRESS":"內崎內３８之９號","OBJECTID":153556},"geometry":{"x":195562.33000000007,"y":2587065.1899999995}},{"attributes":{"ID":153558,"DIS_CODE":0,"TOWNNAME":"白河區","LI":"崎內里","LIN":"5鄰","STREET":" ","SECT":" ","MAREA":"內崎內","LANE":" ","ALLEY":" ","HOUSE_NO":"３８號","E_COORD97":195528.45000000001,"N_COORD97":2587122.7200000002,"ADDRESS":"內崎內３８號","OBJECTID":153557},"geometry":{"x":195528.45000000205,"y":2587122.7200000025}},{"attributes":{"ID":153559,"DIS_CODE":0,"TOWNNAME":"將軍區","LI":"苓和里","LIN":"5鄰","STREET":" ","SECT":" ","MAREA":"苓和","LANE":" ","ALLEY":" ","HOUSE_NO":"４９號","E_COORD97":164573.16,"N_COORD97":2569002.9900000002,"ADDRESS":"苓和４９號","OBJECTID":153558},"geometry":{"x":164573.16000000108,"y":2569002.9900000021}},{"attributes":{"ID":153560,"DIS_CODE":0,"TOWNNAME":"白河區","LI":"崎內里","LIN":"5鄰","STREET":" ","SECT":" ","MAREA":"內崎內","LANE":" ","ALLEY":" ","HOUSE_NO":"３９號","E_COORD97":195517.95999999999,"N_COORD97":2587147.8999999999,"ADDRESS":"內崎內３９號","OBJECTID":153559},"geometry":{"x":195517.96000000183,"y":2587147.9000000022}},{"attributes":{"ID":153561,"DIS_CODE":0,"TOWNNAME":"白河區","LI":"崎內里","LIN":"5鄰","STREET":" ","SECT":" ","MAREA":"內崎內","LANE":" ","ALLEY":" ","HOUSE_NO":"４０號","E_COORD97":195594.5,"N_COORD97":2587114.2599999998,"ADDRESS":"內崎內４０號","OBJECTID":153560},"geometry":{"x":195594.50000000093,"y":2587114.2600000016}},{"attributes":{"ID":153562,"DIS_CODE":0,"TOWNNAME":"白河區","LI":"崎內里","LIN":"5鄰","STREET":" ","SECT":" ","MAREA":"內崎內","LANE":" ","ALLEY":" ","HOUSE_NO":"４２號","E_COORD97":195629.45000000001,"N_COORD97":2587105.1099999999,"ADDRESS":"內崎內４２號","OBJECTID":153561},"geometry":{"x":195629.45000000019,"y":2587105.1100000013}},{"attributes":{"ID":153563,"DIS_CODE":0,"TOWNNAME":"白河區","LI":"崎內里","LIN":"5鄰","STREET":" ","SECT":" ","MAREA":"內崎內","LANE":" ","ALLEY":" ","HOUSE_NO":"４３之１號","E_COORD97":195657.41,"N_COORD97":2587092.0099999998,"ADDRESS":"內崎內４３之１號","OBJECTID":153562},"geometry":{"x":195657.40999999922,"y":2587092.0100000035}},{"attributes":{"ID":153564,"DIS_CODE":0,"TOWNNAME":"白河區","LI":"崎內里","LIN":"5鄰","STREET":" ","SECT":" ","MAREA":"內崎內","LANE":" ","ALLEY":" ","HOUSE_NO":"４３之２號","E_COORD97":195663.62,"N_COORD97":2587092.4700000002,"ADDRESS":"內崎內４３之２號","OBJECTID":153563},"geometry":{"x":195663.62000000104,"y":2587092.4700000007}},{"attributes":{"ID":153565,"DIS_CODE":0,"TOWNNAME":"白河區","LI":"崎內里","LIN":"5鄰","STREET":" ","SECT":" ","MAREA":"內崎內","LANE":" ","ALLEY":" ","HOUSE_NO":"４３號","E_COORD97":195646.76999999999,"N_COORD97":2587107.6099999999,"ADDRESS":"內崎內４３號","OBJECTID":153564},"geometry":{"x":195646.77000000048,"y":2587107.6099999975}},{"attributes":{"ID":153566,"DIS_CODE":0,"TOWNNAME":"白河區","LI":"六溪里","LIN":"5鄰","STREET":" ","SECT":" ","MAREA":"六重溪","LANE":" ","ALLEY":" ","HOUSE_NO":"２０號","E_COORD97":194635.32999999999,"N_COORD97":2578734.7400000002,"ADDRESS":"六重溪２０號","OBJECTID":153565},"geometry":{"x":194635.33000000007,"y":2578734.7400000021}},{"attributes":{"ID":153567,"DIS_CODE":0,"TOWNNAME":"白河區","LI":"六溪里","LIN":"5鄰","STREET":" ","SECT":" ","MAREA":"六重溪","LANE":" ","ALLEY":" ","HOUSE_NO":"２１號","E_COORD97":194654.26999999999,"N_COORD97":2578737.8700000001,"ADDRESS":"六重溪２１號","OBJECTID":153566},"geometry":{"x":194654.27000000142,"y":2578737.8700000029}},{"attributes":{"ID":153568,"DIS_CODE":0,"TOWNNAME":"白河區","LI":"六溪里","LIN":"5鄰","STREET":" ","SECT":" ","MAREA":"六重溪","LANE":" ","ALLEY":" ","HOUSE_NO":"２２號","E_COORD97":194655.73000000001,"N_COORD97":2578713.3799999999,"ADDRESS":"六重溪２２號","OBJECTID":153567},"geometry":{"x":194655.73000000138,"y":2578713.379999999}},{"attributes":{"ID":153569,"DIS_CODE":0,"TOWNNAME":"白河區","LI":"六溪里","LIN":"5鄰","STREET":" ","SECT":" ","MAREA":"六重溪","LANE":" ","ALLEY":" ","HOUSE_NO":"２４號","E_COORD97":194699.26999999999,"N_COORD97":2578728.5600000001,"ADDRESS":"六重溪２４號","OBJECTID":153568},"geometry":{"x":194699.26999999955,"y":2578728.5600000042}},{"attributes":{"ID":153570,"DIS_CODE":0,"TOWNNAME":"白河區","LI":"六溪里","LIN":"5鄰","STREET":" ","SECT":" ","MAREA":"六重溪","LANE":" ","ALLEY":" ","HOUSE_NO":"２５號","E_COORD97":194720.56,"N_COORD97":2578736.6200000001,"ADDRESS":"六重溪２５號","OBJECTID":153569},"geometry":{"x":194720.56000000052,"y":2578736.6200000029}},{"attributes":{"ID":153571,"DIS_CODE":0,"TOWNNAME":"白河區","LI":"六溪里","LIN":"5鄰","STREET":" ","SECT":" ","MAREA":"六重溪","LANE":" ","ALLEY":" ","HOUSE_NO":"３０之１號","E_COORD97":194743.78,"N_COORD97":2578649.6400000001,"ADDRESS":"六重溪３０之１號","OBJECTID":153570},"geometry":{"x":194743.78000000119,"y":2578649.6399999987}},{"attributes":{"ID":153572,"DIS_CODE":0,"TOWNNAME":"白河區","LI":"六溪里","LIN":"5鄰","STREET":" ","SECT":" ","MAREA":"六重溪","LANE":" ","ALLEY":" ","HOUSE_NO":"３０號","E_COORD97":194738.35000000001,"N_COORD97":2578636.1899999999,"ADDRESS":"六重溪３０號","OBJECTID":153571},"geometry":{"x":194738.34999999963,"y":2578636.1900000013}},{"attributes":{"ID":153573,"DIS_CODE":0,"TOWNNAME":"白河區","LI":"六溪里","LIN":"5鄰","STREET":" ","SECT":" ","MAREA":"六重溪","LANE":" ","ALLEY":" ","HOUSE_NO":"３３之１號","E_COORD97":194761.35000000001,"N_COORD97":2578721.5099999998,"ADDRESS":"六重溪３３之１號","OBJECTID":153572},"geometry":{"x":194761.35000000056,"y":2578721.5100000016}},{"attributes":{"ID":153574,"DIS_CODE":0,"TOWNNAME":"白河區","LI":"六溪里","LIN":"5鄰","STREET":" ","SECT":" ","MAREA":"六重溪","LANE":" ","ALLEY":" ","HOUSE_NO":"３３號","E_COORD97":194737.89000000001,"N_COORD97":2578709.73,"ADDRESS":"六重溪３３號","OBJECTID":153573},"geometry":{"x":194737.88999999966,"y":2578709.7300000004}},{"attributes":{"ID":153575,"DIS_CODE":0,"TOWNNAME":"白河區","LI":"虎山里","LIN":"5鄰","STREET":" ","SECT":" ","MAREA":"木屐寮","LANE":" ","ALLEY":" ","HOUSE_NO":"６４之３號","E_COORD97":194467.32000000001,"N_COORD97":2583354.3999999999,"ADDRESS":"木屐寮６４之３號","OBJECTID":153574},"geometry":{"x":194467.32000000123,"y":2583354.4000000022}},{"attributes":{"ID":153576,"DIS_CODE":0,"TOWNNAME":"白河區","LI":"虎山里","LIN":"5鄰","STREET":" ","SECT":" ","MAREA":"木屐寮","LANE":" ","ALLEY":" ","HOUSE_NO":"６４之６號","E_COORD97":194773.66,"N_COORD97":2583635.0699999998,"ADDRESS":"木屐寮６４之６號","OBJECTID":153575},"geometry":{"x":194773.66000000015,"y":2583635.0700000022}},{"attributes":{"ID":153577,"DIS_CODE":0,"TOWNNAME":"白河區","LI":"虎山里","LIN":"5鄰","STREET":" ","SECT":" ","MAREA":"木屐寮","LANE":" ","ALLEY":" ","HOUSE_NO":"６５之１號","E_COORD97":195003.45000000001,"N_COORD97":2583495.96,"ADDRESS":"木屐寮６５之１號","OBJECTID":153576},"geometry":{"x":195003.45000000112,"y":2583495.9600000009}},{"attributes":{"ID":153578,"DIS_CODE":0,"TOWNNAME":"白河區","LI":"虎山里","LIN":"5鄰","STREET":" ","SECT":" ","MAREA":"木屐寮","LANE":" ","ALLEY":" ","HOUSE_NO":"６５之２號","E_COORD97":194859.84,"N_COORD97":2583600.8100000001,"ADDRESS":"木屐寮６５之２號","OBJECTID":153577},"geometry":{"x":194859.84000000078,"y":2583600.8100000005}},{"attributes":{"ID":153579,"DIS_CODE":0,"TOWNNAME":"白河區","LI":"虎山里","LIN":"5鄰","STREET":" ","SECT":" ","MAREA":"木屐寮","LANE":" ","ALLEY":" ","HOUSE_NO":"６５之３號","E_COORD97":194830.64000000001,"N_COORD97":2583655.3900000001,"ADDRESS":"木屐寮６５之３號","OBJECTID":153578},"geometry":{"x":194830.6400000006,"y":2583655.3900000006}},{"attributes":{"ID":153580,"DIS_CODE":0,"TOWNNAME":"白河區","LI":"虎山里","LIN":"5鄰","STREET":" ","SECT":" ","MAREA":"木屐寮","LANE":" ","ALLEY":" ","HOUSE_NO":"６７之１號","E_COORD97":195078.23000000001,"N_COORD97":2583426.1200000001,"ADDRESS":"木屐寮６７之１號","OBJECTID":153579},"geometry":{"x":195078.23000000138,"y":2583426.120000001}},{"attributes":{"ID":153581,"DIS_CODE":0,"TOWNNAME":"白河區","LI":"虎山里","LIN":"5鄰","STREET":" ","SECT":" ","MAREA":"木屐寮","LANE":" ","ALLEY":" ","HOUSE_NO":"６７號","E_COORD97":195071.60000000001,"N_COORD97":2583500.98,"ADDRESS":"木屐寮６７號","OBJECTID":153580},"geometry":{"x":195071.60000000056,"y":2583500.9800000004}},{"attributes":{"ID":153582,"DIS_CODE":0,"TOWNNAME":"將軍區","LI":"嘉昌里","LIN":"19鄰","STREET":" ","SECT":" ","MAREA":"昌平","LANE":" ","ALLEY":" ","HOUSE_NO":"６０之１號","E_COORD97":163492.51000000001,"N_COORD97":2567299.3100000001,"ADDRESS":"昌平６０之１號","OBJECTID":153581},"geometry":{"x":163492.51000000071,"y":2567299.3100000024}},{"attributes":{"ID":153583,"DIS_CODE":0,"TOWNNAME":"將軍區","LI":"嘉昌里","LIN":"19鄰","STREET":" ","SECT":" ","MAREA":"昌平","LANE":" ","ALLEY":" ","HOUSE_NO":"６０之４號","E_COORD97":163468.64000000001,"N_COORD97":2567295.75,"ADDRESS":"昌平６０之４號","OBJECTID":153582},"geometry":{"x":163468.63999999966,"y":2567295.7500000019}},{"attributes":{"ID":153584,"DIS_CODE":0,"TOWNNAME":"將軍區","LI":"嘉昌里","LIN":"19鄰","STREET":" ","SECT":" ","MAREA":"昌平","LANE":" ","ALLEY":" ","HOUSE_NO":"６０之５號","E_COORD97":163464.39000000001,"N_COORD97":2567296.3599999999,"ADDRESS":"昌平６０之５號","OBJECTID":153583},"geometry":{"x":163464.3900000006,"y":2567296.3600000031}},{"attributes":{"ID":153585,"DIS_CODE":0,"TOWNNAME":"將軍區","LI":"嘉昌里","LIN":"19鄰","STREET":" ","SECT":" ","MAREA":"昌平","LANE":" ","ALLEY":" ","HOUSE_NO":"６０號","E_COORD97":163512.51999999999,"N_COORD97":2567313.2200000002,"ADDRESS":"昌平６０號","OBJECTID":153584},"geometry":{"x":163512.52000000048,"y":2567313.2200000025}},{"attributes":{"ID":153586,"DIS_CODE":0,"TOWNNAME":"將軍區","LI":"嘉昌里","LIN":"19鄰","STREET":" ","SECT":" ","MAREA":"昌平","LANE":" ","ALLEY":" ","HOUSE_NO":"６１號","E_COORD97":163469.92999999999,"N_COORD97":2567324.5099999998,"ADDRESS":"昌平６１號","OBJECTID":153585},"geometry":{"x":163469.9299999997,"y":2567324.5099999998}},{"attributes":{"ID":153587,"DIS_CODE":0,"TOWNNAME":"將軍區","LI":"嘉昌里","LIN":"19鄰","STREET":" ","SECT":" ","MAREA":"昌平","LANE":" ","ALLEY":" ","HOUSE_NO":"６２之１號","E_COORD97":163458.48999999999,"N_COORD97":2567369.4100000001,"ADDRESS":"昌平６２之１號","OBJECTID":153586},"geometry":{"x":163458.48999999929,"y":2567369.410000002}},{"attributes":{"ID":153588,"DIS_CODE":0,"TOWNNAME":"將軍區","LI":"嘉昌里","LIN":"19鄰","STREET":" ","SECT":" ","MAREA":"昌平","LANE":" ","ALLEY":" ","HOUSE_NO":"６２之２號","E_COORD97":163424.85000000001,"N_COORD97":2567380.54,"ADDRESS":"昌平６２之２號","OBJECTID":153587},"geometry":{"x":163424.84999999963,"y":2567380.540000001}},{"attributes":{"ID":153589,"DIS_CODE":0,"TOWNNAME":"將軍區","LI":"嘉昌里","LIN":"19鄰","STREET":" ","SECT":" ","MAREA":"昌平","LANE":" ","ALLEY":" ","HOUSE_NO":"６２號","E_COORD97":163453.94,"N_COORD97":2567380.7200000002,"ADDRESS":"昌平６２號","OBJECTID":153588},"geometry":{"x":163453.93999999948,"y":2567380.7200000025}},{"attributes":{"ID":153590,"DIS_CODE":0,"TOWNNAME":"將軍區","LI":"嘉昌里","LIN":"19鄰","STREET":" ","SECT":" ","MAREA":"昌平","LANE":" ","ALLEY":" ","HOUSE_NO":"６３號","E_COORD97":163445.45999999999,"N_COORD97":2567346.2799999998,"ADDRESS":"昌平６３號","OBJECTID":153589},"geometry":{"x":163445.46000000089,"y":2567346.2799999993}},{"attributes":{"ID":153591,"DIS_CODE":0,"TOWNNAME":"將軍區","LI":"嘉昌里","LIN":"19鄰","STREET":" ","SECT":" ","MAREA":"昌平","LANE":" ","ALLEY":" ","HOUSE_NO":"６６之１號","E_COORD97":163389.32000000001,"N_COORD97":2567301.5800000001,"ADDRESS":"昌平６６之１號","OBJECTID":153590},"geometry":{"x":163389.32000000123,"y":2567301.5800000001}},{"attributes":{"ID":153592,"DIS_CODE":0,"TOWNNAME":"將軍區","LI":"嘉昌里","LIN":"19鄰","STREET":" ","SECT":" ","MAREA":"昌平","LANE":" ","ALLEY":" ","HOUSE_NO":"６６號","E_COORD97":163390.16,"N_COORD97":2567312.6800000002,"ADDRESS":"昌平６６號","OBJECTID":153591},"geometry":{"x":163390.16000000108,"y":2567312.6800000016}},{"attributes":{"ID":153593,"DIS_CODE":0,"TOWNNAME":"將軍區","LI":"嘉昌里","LIN":"19鄰","STREET":" ","SECT":" ","MAREA":"昌平","LANE":" ","ALLEY":" ","HOUSE_NO":"６８之２號","E_COORD97":163445.07999999999,"N_COORD97":2567320.9700000002,"ADDRESS":"昌平６８之２號","OBJECTID":153592},"geometry":{"x":163445.08000000101,"y":2567320.9700000025}},{"attributes":{"ID":153594,"DIS_CODE":0,"TOWNNAME":"將軍區","LI":"嘉昌里","LIN":"19鄰","STREET":" ","SECT":" ","MAREA":"昌平","LANE":" ","ALLEY":" ","HOUSE_NO":"６８號","E_COORD97":163454.97,"N_COORD97":2567321.23,"ADDRESS":"昌平６８號","OBJECTID":153593},"geometry":{"x":163454.9700000016,"y":2567321.2300000004}},{"attributes":{"ID":153595,"DIS_CODE":0,"TOWNNAME":"將軍區","LI":"嘉昌里","LIN":"19鄰","STREET":" ","SECT":" ","MAREA":"昌平","LANE":" ","ALLEY":" ","HOUSE_NO":"６９號","E_COORD97":163469.60000000001,"N_COORD97":2567257.7200000002,"ADDRESS":"昌平６９號","OBJECTID":153594},"geometry":{"x":163469.60000000056,"y":2567257.7200000044}},{"attributes":{"ID":153596,"DIS_CODE":0,"TOWNNAME":"將軍區","LI":"嘉昌里","LIN":"19鄰","STREET":" ","SECT":" ","MAREA":"昌平","LANE":" ","ALLEY":" ","HOUSE_NO":"７０號","E_COORD97":163452.45999999999,"N_COORD97":2567260.6800000002,"ADDRESS":"昌平７０號","OBJECTID":153595},"geometry":{"x":163452.46000000089,"y":2567260.6800000016}},{"attributes":{"ID":153597,"DIS_CODE":0,"TOWNNAME":"白河區","LI":"虎山里","LIN":"5鄰","STREET":" ","SECT":" ","MAREA":"木屐寮","LANE":" ","ALLEY":" ","HOUSE_NO":"６８之１號","E_COORD97":195138.89000000001,"N_COORD97":2583527.7200000002,"ADDRESS":"木屐寮６８之１號","OBJECTID":153596},"geometry":{"x":195138.8900000006,"y":2583527.7200000007}},{"attributes":{"ID":153598,"DIS_CODE":0,"TOWNNAME":"白河區","LI":"虎山里","LIN":"5鄰","STREET":" ","SECT":" ","MAREA":"木屐寮","LANE":" ","ALLEY":" ","HOUSE_NO":"６８之２號","E_COORD97":195090.22,"N_COORD97":2583685.9199999999,"ADDRESS":"木屐寮６８之２號","OBJECTID":153597},"geometry":{"x":195090.21999999974,"y":2583685.9200000018}},{"attributes":{"ID":153599,"DIS_CODE":0,"TOWNNAME":"白河區","LI":"虎山里","LIN":"5鄰","STREET":" ","SECT":" ","MAREA":"木屐寮","LANE":" ","ALLEY":" ","HOUSE_NO":"６８之３號","E_COORD97":195169.37,"N_COORD97":2583412.3399999999,"ADDRESS":"木屐寮６８之３號","OBJECTID":153598},"geometry":{"x":195169.37000000011,"y":2583412.3400000017}},{"attributes":{"ID":153600,"DIS_CODE":0,"TOWNNAME":"白河區","LI":"虎山里","LIN":"5鄰","STREET":" ","SECT":" ","MAREA":"木屐寮","LANE":" ","ALLEY":" ","HOUSE_NO":"６８號","E_COORD97":195097.72,"N_COORD97":2583498.0600000001,"ADDRESS":"木屐寮６８號","OBJECTID":153599},"geometry":{"x":195097.72000000067,"y":2583498.0600000005}},{"attributes":{"ID":153601,"DIS_CODE":0,"TOWNNAME":"將軍區","LI":"苓和里","LIN":"5鄰","STREET":" ","SECT":" ","MAREA":"苓和","LANE":" ","ALLEY":" ","HOUSE_NO":"４３號","E_COORD97":164613.26999999999,"N_COORD97":2569043.8999999999,"ADDRESS":"苓和４３號","OBJECTID":153600},"geometry":{"x":164613.26999999955,"y":2569043.9000000022}}]}