{"displayFieldName":"TOWNNAME","fieldAliases":{"ID":"ID","DIS_CODE":"DIS_CODE","TOWNNAME":"TOWNNAME","LI":"LI","LIN":"LIN","STREET":"STREET","SECT":"SECT","MAREA":"MAREA","LANE":"LANE","ALLEY":"ALLEY","HOUSE_NO":"HOUSE_NO","E_COORD97":"E_COORD97","N_COORD97":"N_COORD97","ADDRESS":"ADDRESS","OBJECTID":"OBJECTID"},"geometryType":"esriGeometryPoint","spatialReference":{"wkid":102443,"latestWkid":3826},"fields":[{"name":"ID","type":"esriFieldTypeDouble","alias":"ID"},{"name":"DIS_CODE","type":"esriFieldTypeInteger","alias":"DIS_CODE"},{"name":"TOWNNAME","type":"esriFieldTypeString","alias":"TOWNNAME","length":8},{"name":"LI","type":"esriFieldTypeString","alias":"LI","length":8},{"name":"LIN","type":"esriFieldTypeString","alias":"LIN","length":12},{"name":"STREET","type":"esriFieldTypeString","alias":"STREET","length":20},{"name":"SECT","type":"esriFieldTypeString","alias":"SECT","length":8},{"name":"MAREA","type":"esriFieldTypeString","alias":"MAREA","length":12},{"name":"LANE","type":"esriFieldTypeString","alias":"LANE","length":10},{"name":"ALLEY","type":"esriFieldTypeString","alias":"ALLEY","length":10},{"name":"HOUSE_NO","type":"esriFieldTypeString","alias":"HOUSE_NO","length":20},{"name":"E_COORD97","type":"esriFieldTypeDouble","alias":"E_COORD97"},{"name":"N_COORD97","type":"esriFieldTypeDouble","alias":"N_COORD97"},{"name":"ADDRESS","type":"esriFieldTypeString","alias":"ADDRESS","length":50},{"name":"OBJECTID","type":"esriFieldTypeOID","alias":"OBJECTID"}],"features":[{"attributes":{"ID":168202,"DIS_CODE":0,"TOWNNAME":"安南區","LI":"安富里","LIN":"4鄰","STREET":"郡安路","SECT":"五段","MAREA":" ","LANE":"１８４巷","ALLEY":"３８弄","HOUSE_NO":"１３號","E_COORD97":167435.60000000001,"N_COORD97":2547631.9399999999,"ADDRESS":"郡安路五段１８４巷３８弄１３號","OBJECTID":168201},"geometry":{"x":167435.59999999963,"y":2547631.9400000013}},{"attributes":{"ID":168203,"DIS_CODE":0,"TOWNNAME":"安南區","LI":"安富里","LIN":"4鄰","STREET":"郡安路","SECT":"五段","MAREA":" ","LANE":"１８４巷","ALLEY":"３８弄","HOUSE_NO":"１４號","E_COORD97":167432.10999999999,"N_COORD97":2547651.79,"ADDRESS":"郡安路五段１８４巷３８弄１４號","OBJECTID":168202},"geometry":{"x":167432.11000000127,"y":2547651.7899999991}},{"attributes":{"ID":168204,"DIS_CODE":0,"TOWNNAME":"柳營區","LI":"太康里","LIN":"12鄰","STREET":" ","SECT":" ","MAREA":"太康","LANE":" ","ALLEY":" ","HOUSE_NO":"１１０號之１","E_COORD97":181674.54000000001,"N_COORD97":2576378.23,"ADDRESS":"太康１１０號之１","OBJECTID":168203},"geometry":{"x":181674.5400000019,"y":2576378.2300000023}},{"attributes":{"ID":168205,"DIS_CODE":0,"TOWNNAME":"柳營區","LI":"太康里","LIN":"12鄰","STREET":" ","SECT":" ","MAREA":"太康","LANE":" ","ALLEY":" ","HOUSE_NO":"１１０號之２","E_COORD97":181668.28,"N_COORD97":2576408.98,"ADDRESS":"太康１１０號之２","OBJECTID":168204},"geometry":{"x":181668.28000000119,"y":2576408.9800000004}},{"attributes":{"ID":168206,"DIS_CODE":0,"TOWNNAME":"柳營區","LI":"太康里","LIN":"12鄰","STREET":" ","SECT":" ","MAREA":"太康","LANE":" ","ALLEY":" ","HOUSE_NO":"１１１號","E_COORD97":181688.78,"N_COORD97":2576361.2000000002,"ADDRESS":"太康１１１號","OBJECTID":168205},"geometry":{"x":181688.78000000119,"y":2576361.2000000011}},{"attributes":{"ID":168207,"DIS_CODE":0,"TOWNNAME":"仁德區","LI":"三甲里","LIN":"1鄰","STREET":" ","SECT":" ","MAREA":"三甲子","LANE":" ","ALLEY":" ","HOUSE_NO":"３號之５","E_COORD97":171901.54999999999,"N_COORD97":2537237.79,"ADDRESS":"三甲子３號之５","OBJECTID":168206},"geometry":{"x":171901.55000000168,"y":2537237.790000001}},{"attributes":{"ID":168208,"DIS_CODE":0,"TOWNNAME":"柳營區","LI":"太康里","LIN":"12鄰","STREET":" ","SECT":" ","MAREA":"太康","LANE":" ","ALLEY":" ","HOUSE_NO":"１１２之１號","E_COORD97":181678.16,"N_COORD97":2576360.8700000001,"ADDRESS":"太康１１２之１號","OBJECTID":168207},"geometry":{"x":181678.16000000015,"y":2576360.8700000029}},{"attributes":{"ID":168209,"DIS_CODE":0,"TOWNNAME":"柳營區","LI":"太康里","LIN":"12鄰","STREET":" ","SECT":" ","MAREA":"太康","LANE":" ","ALLEY":" ","HOUSE_NO":"１１２之２號","E_COORD97":181673.70000000001,"N_COORD97":2576360.21,"ADDRESS":"太康１１２之２號","OBJECTID":168208},"geometry":{"x":181673.70000000205,"y":2576360.2100000009}},{"attributes":{"ID":168210,"DIS_CODE":0,"TOWNNAME":"七股區","LI":"十份里","LIN":"13鄰","STREET":" ","SECT":" ","MAREA":"十份","LANE":" ","ALLEY":" ","HOUSE_NO":"５８號","E_COORD97":157688.45999999999,"N_COORD97":2554747.77,"ADDRESS":"十份５８號","OBJECTID":168209},"geometry":{"x":157688.46000000089,"y":2554747.7699999996}},{"attributes":{"ID":168211,"DIS_CODE":0,"TOWNNAME":"七股區","LI":"十份里","LIN":"13鄰","STREET":" ","SECT":" ","MAREA":"十份","LANE":" ","ALLEY":" ","HOUSE_NO":"５９號之１０","E_COORD97":157670.28,"N_COORD97":2554755.7000000002,"ADDRESS":"十份５９號之１０","OBJECTID":168210},"geometry":{"x":157670.28000000026,"y":2554755.6999999993}},{"attributes":{"ID":168212,"DIS_CODE":0,"TOWNNAME":"七股區","LI":"十份里","LIN":"13鄰","STREET":" ","SECT":" ","MAREA":"十份","LANE":" ","ALLEY":" ","HOUSE_NO":"５９號之１５","E_COORD97":157640.25,"N_COORD97":2554800,"ADDRESS":"十份５９號之１５","OBJECTID":168211},"geometry":{"x":157640.25,"y":2554800.0000000019}},{"attributes":{"ID":168213,"DIS_CODE":0,"TOWNNAME":"七股區","LI":"十份里","LIN":"13鄰","STREET":" ","SECT":" ","MAREA":"十份","LANE":" ","ALLEY":" ","HOUSE_NO":"５９號之３","E_COORD97":157703.82000000001,"N_COORD97":2554790.29,"ADDRESS":"十份５９號之３","OBJECTID":168212},"geometry":{"x":157703.8200000003,"y":2554790.290000001}},{"attributes":{"ID":168214,"DIS_CODE":0,"TOWNNAME":"安南區","LI":"安富里","LIN":"4鄰","STREET":"郡安路","SECT":"五段","MAREA":" ","LANE":"１８４巷","ALLEY":"３８弄","HOUSE_NO":"１５號","E_COORD97":167429.95999999999,"N_COORD97":2547629.9900000002,"ADDRESS":"郡安路五段１８４巷３８弄１５號","OBJECTID":168213},"geometry":{"x":167429.95999999996,"y":2547629.9900000021}},{"attributes":{"ID":168215,"DIS_CODE":0,"TOWNNAME":"安南區","LI":"安富里","LIN":"4鄰","STREET":"郡安路","SECT":"五段","MAREA":" ","LANE":"１８４巷","ALLEY":"３８弄","HOUSE_NO":"１６號","E_COORD97":167425.60000000001,"N_COORD97":2547649.8399999999,"ADDRESS":"郡安路五段１８４巷３８弄１６號","OBJECTID":168214},"geometry":{"x":167425.60000000149,"y":2547649.8400000017}},{"attributes":{"ID":168216,"DIS_CODE":0,"TOWNNAME":"安南區","LI":"安富里","LIN":"4鄰","STREET":"郡安路","SECT":"五段","MAREA":" ","LANE":"１８４巷","ALLEY":"３８弄","HOUSE_NO":"１７號","E_COORD97":167419.76999999999,"N_COORD97":2547628.04,"ADDRESS":"郡安路五段１８４巷３８弄１７號","OBJECTID":168215},"geometry":{"x":167419.77000000048,"y":2547628.040000001}},{"attributes":{"ID":168217,"DIS_CODE":0,"TOWNNAME":"安南區","LI":"安富里","LIN":"4鄰","STREET":"郡安路","SECT":"五段","MAREA":" ","LANE":"１８４巷","ALLEY":"３８弄","HOUSE_NO":"１９號","E_COORD97":167414.57000000001,"N_COORD97":2547626.3100000001,"ADDRESS":"郡安路五段１８４巷３８弄１９號","OBJECTID":168216},"geometry":{"x":167414.5700000003,"y":2547626.3100000005}},{"attributes":{"ID":168218,"DIS_CODE":0,"TOWNNAME":"安南區","LI":"安富里","LIN":"4鄰","STREET":"郡安路","SECT":"五段","MAREA":" ","LANE":"１８４巷","ALLEY":"３８弄","HOUSE_NO":"１號","E_COORD97":167465.5,"N_COORD97":2547636.7000000002,"ADDRESS":"郡安路五段１８４巷３８弄１號","OBJECTID":168217},"geometry":{"x":167465.5,"y":2547636.7000000011}},{"attributes":{"ID":168219,"DIS_CODE":0,"TOWNNAME":"安南區","LI":"安富里","LIN":"4鄰","STREET":"郡安路","SECT":"五段","MAREA":" ","LANE":"１８４巷","ALLEY":"３８弄","HOUSE_NO":"２０號","E_COORD97":167410,"N_COORD97":2547647.8999999999,"ADDRESS":"郡安路五段１８４巷３８弄２０號","OBJECTID":168218},"geometry":{"x":167410.00000000093,"y":2547647.9000000022}},{"attributes":{"ID":168220,"DIS_CODE":0,"TOWNNAME":"安南區","LI":"安富里","LIN":"4鄰","STREET":"郡安路","SECT":"五段","MAREA":" ","LANE":"１８４巷","ALLEY":"３８弄","HOUSE_NO":"２１號","E_COORD97":167409.37,"N_COORD97":2547627.1800000002,"ADDRESS":"郡安路五段１８４巷３８弄２１號","OBJECTID":168219},"geometry":{"x":167409.37000000104,"y":2547627.1800000016}},{"attributes":{"ID":168221,"DIS_CODE":0,"TOWNNAME":"安南區","LI":"安富里","LIN":"4鄰","STREET":"郡安路","SECT":"五段","MAREA":" ","LANE":"１８４巷","ALLEY":"３８弄","HOUSE_NO":"２２號","E_COORD97":167405.23999999999,"N_COORD97":2547646.6000000001,"ADDRESS":"郡安路五段１８４巷３８弄２２號","OBJECTID":168220},"geometry":{"x":167405.24000000115,"y":2547646.5999999996}},{"attributes":{"ID":168222,"DIS_CODE":0,"TOWNNAME":"安南區","LI":"安富里","LIN":"4鄰","STREET":"郡安路","SECT":"五段","MAREA":" ","LANE":"１８４巷","ALLEY":"３８弄","HOUSE_NO":"２３號","E_COORD97":167403.95000000001,"N_COORD97":2547625.6600000001,"ADDRESS":"郡安路五段１８４巷３８弄２３號","OBJECTID":168221},"geometry":{"x":167403.95000000112,"y":2547625.6600000001}},{"attributes":{"ID":168223,"DIS_CODE":0,"TOWNNAME":"安南區","LI":"安富里","LIN":"4鄰","STREET":"郡安路","SECT":"五段","MAREA":" ","LANE":"１８４巷","ALLEY":"３８弄","HOUSE_NO":"２４號","E_COORD97":167400.25,"N_COORD97":2547645.73,"ADDRESS":"郡安路五段１８４巷３８弄２４號","OBJECTID":168222},"geometry":{"x":167400.25000000093,"y":2547645.7300000023}},{"attributes":{"ID":168224,"DIS_CODE":0,"TOWNNAME":"安南區","LI":"安富里","LIN":"4鄰","STREET":"郡安路","SECT":"五段","MAREA":" ","LANE":"１８４巷","ALLEY":"３８弄","HOUSE_NO":"８號","E_COORD97":167447.26999999999,"N_COORD97":2547653.7400000002,"ADDRESS":"郡安路五段１８４巷３８弄８號","OBJECTID":168223},"geometry":{"x":167447.27000000048,"y":2547653.7399999984}},{"attributes":{"ID":168225,"DIS_CODE":0,"TOWNNAME":"安南區","LI":"安富里","LIN":"4鄰","STREET":"郡安路","SECT":"五段","MAREA":" ","LANE":"１８４巷","ALLEY":"３８弄","HOUSE_NO":"９號","E_COORD97":167445.13,"N_COORD97":2547633.2400000002,"ADDRESS":"郡安路五段１８４巷３８弄９號","OBJECTID":168224},"geometry":{"x":167445.13000000082,"y":2547633.2400000002}},{"attributes":{"ID":168226,"DIS_CODE":0,"TOWNNAME":"七股區","LI":"十份里","LIN":"13鄰","STREET":" ","SECT":" ","MAREA":"十份","LANE":" ","ALLEY":" ","HOUSE_NO":"５９號之５","E_COORD97":157695.85000000001,"N_COORD97":2554774.0899999999,"ADDRESS":"十份５９號之５","OBJECTID":168225},"geometry":{"x":157695.85000000056,"y":2554774.0899999999}},{"attributes":{"ID":168227,"DIS_CODE":0,"TOWNNAME":"七股區","LI":"十份里","LIN":"13鄰","STREET":" ","SECT":" ","MAREA":"十份","LANE":" ","ALLEY":" ","HOUSE_NO":"５９號之６","E_COORD97":157695.54000000001,"N_COORD97":2554768.27,"ADDRESS":"十份５９號之６","OBJECTID":168226},"geometry":{"x":157695.54000000004,"y":2554768.2699999996}},{"attributes":{"ID":168228,"DIS_CODE":0,"TOWNNAME":"七股區","LI":"十份里","LIN":"13鄰","STREET":" ","SECT":" ","MAREA":"十份","LANE":" ","ALLEY":" ","HOUSE_NO":"６７號之１","E_COORD97":157705.32999999999,"N_COORD97":2554884.1400000001,"ADDRESS":"十份６７號之１","OBJECTID":168227},"geometry":{"x":157705.33000000007,"y":2554884.1400000025}},{"attributes":{"ID":168229,"DIS_CODE":0,"TOWNNAME":"七股區","LI":"十份里","LIN":"13鄰","STREET":" ","SECT":" ","MAREA":"十份","LANE":" ","ALLEY":" ","HOUSE_NO":"６７號之２","E_COORD97":157705.89999999999,"N_COORD97":2554891.3300000001,"ADDRESS":"十份６７號之２","OBJECTID":168228},"geometry":{"x":157705.90000000224,"y":2554891.3300000001}},{"attributes":{"ID":168230,"DIS_CODE":0,"TOWNNAME":"七股區","LI":"十份里","LIN":"13鄰","STREET":" ","SECT":" ","MAREA":"十份","LANE":" ","ALLEY":" ","HOUSE_NO":"６７號","E_COORD97":157711.82000000001,"N_COORD97":2554863.3399999999,"ADDRESS":"十份６７號","OBJECTID":168229},"geometry":{"x":157711.82000000123,"y":2554863.3399999999}},{"attributes":{"ID":168231,"DIS_CODE":0,"TOWNNAME":"柳營區","LI":"太康里","LIN":"12鄰","STREET":" ","SECT":" ","MAREA":"太康","LANE":" ","ALLEY":" ","HOUSE_NO":"１１２號","E_COORD97":181683.59,"N_COORD97":2576360.5299999998,"ADDRESS":"太康１１２號","OBJECTID":168230},"geometry":{"x":181683.58999999985,"y":2576360.5299999975}},{"attributes":{"ID":168232,"DIS_CODE":0,"TOWNNAME":"柳營區","LI":"太康里","LIN":"12鄰","STREET":" ","SECT":" ","MAREA":"太康","LANE":" ","ALLEY":" ","HOUSE_NO":"１１３之２號","E_COORD97":181678.84,"N_COORD97":2576267.2999999998,"ADDRESS":"太康１１３之２號","OBJECTID":168231},"geometry":{"x":181678.83999999985,"y":2576267.3000000007}},{"attributes":{"ID":168233,"DIS_CODE":0,"TOWNNAME":"柳營區","LI":"太康里","LIN":"12鄰","STREET":" ","SECT":" ","MAREA":"太康","LANE":" ","ALLEY":" ","HOUSE_NO":"１１７之１號","E_COORD97":181698.62,"N_COORD97":2576375.7200000002,"ADDRESS":"太康１１７之１號","OBJECTID":168232},"geometry":{"x":181698.62000000104,"y":2576375.7200000025}},{"attributes":{"ID":168234,"DIS_CODE":0,"TOWNNAME":"柳營區","LI":"太康里","LIN":"12鄰","STREET":" ","SECT":" ","MAREA":"太康","LANE":" ","ALLEY":" ","HOUSE_NO":"１１７之２號","E_COORD97":181698.42999999999,"N_COORD97":2576379.79,"ADDRESS":"太康１１７之２號","OBJECTID":168233},"geometry":{"x":181698.4299999997,"y":2576379.790000001}},{"attributes":{"ID":168235,"DIS_CODE":0,"TOWNNAME":"柳營區","LI":"東昇里","LIN":"12鄰","STREET":"成功街","SECT":" ","MAREA":" ","LANE":" ","ALLEY":" ","HOUSE_NO":"１０號","E_COORD97":180180.29000000001,"N_COORD97":2575346.27,"ADDRESS":"成功街１０號","OBJECTID":168234},"geometry":{"x":180180.29000000004,"y":2575346.2700000014}},{"attributes":{"ID":168236,"DIS_CODE":0,"TOWNNAME":"柳營區","LI":"太康里","LIN":"12鄰","STREET":" ","SECT":" ","MAREA":"太康","LANE":" ","ALLEY":" ","HOUSE_NO":"１１７號之２","E_COORD97":181698.42999999999,"N_COORD97":2576379.79,"ADDRESS":"太康１１７號之２","OBJECTID":168235},"geometry":{"x":181698.4299999997,"y":2576379.790000001}},{"attributes":{"ID":168237,"DIS_CODE":0,"TOWNNAME":"柳營區","LI":"太康里","LIN":"12鄰","STREET":" ","SECT":" ","MAREA":"太康","LANE":" ","ALLEY":" ","HOUSE_NO":"１１７之３號","E_COORD97":181698.03,"N_COORD97":2576383.5299999998,"ADDRESS":"太康１１７之３號","OBJECTID":168236},"geometry":{"x":181698.03000000026,"y":2576383.5299999993}},{"attributes":{"ID":168238,"DIS_CODE":0,"TOWNNAME":"柳營區","LI":"果毅里","LIN":"12鄰","STREET":" ","SECT":" ","MAREA":"果毅後","LANE":" ","ALLEY":" ","HOUSE_NO":"１４９號","E_COORD97":185558.13,"N_COORD97":2572841.8300000001,"ADDRESS":"果毅後１４９號","OBJECTID":168237},"geometry":{"x":185558.13000000082,"y":2572841.8300000019}},{"attributes":{"ID":168239,"DIS_CODE":0,"TOWNNAME":"安南區","LI":"安富里","LIN":"7鄰","STREET":"郡安路","SECT":"五段","MAREA":" ","LANE":"１８４巷","ALLEY":"８０弄","HOUSE_NO":"１０號","E_COORD97":167458.37,"N_COORD97":2547552.4199999999,"ADDRESS":"郡安路五段１８４巷８０弄１０號","OBJECTID":168238},"geometry":{"x":167458.37000000197,"y":2547552.4199999999}},{"attributes":{"ID":168240,"DIS_CODE":0,"TOWNNAME":"柳營區","LI":"神農里","LIN":"12鄰","STREET":" ","SECT":" ","MAREA":"果毅後","LANE":" ","ALLEY":" ","HOUSE_NO":"３５１之８號","E_COORD97":185425.57000000001,"N_COORD97":2573051.4399999999,"ADDRESS":"果毅後３５１之８號","OBJECTID":168239},"geometry":{"x":185425.5700000003,"y":2573051.4399999995}},{"attributes":{"ID":168241,"DIS_CODE":0,"TOWNNAME":"仁德區","LI":"上崙里","LIN":"4鄰","STREET":"德南路","SECT":" ","MAREA":" ","LANE":" ","ALLEY":" ","HOUSE_NO":"２８０號","E_COORD97":173879.98999999999,"N_COORD97":2538303.2599999998,"ADDRESS":"德南路２８０號","OBJECTID":168240},"geometry":{"x":173879.99000000022,"y":2538303.2600000016}},{"attributes":{"ID":168242,"DIS_CODE":0,"TOWNNAME":"南區","LI":"郡南里","LIN":" ","STREET":"德興路","SECT":" ","MAREA":" ","LANE":" ","ALLEY":" ","HOUSE_NO":"１４３號","E_COORD97":167219.12,"N_COORD97":2540442.48,"ADDRESS":"德興路１４３號","OBJECTID":168241},"geometry":{"x":167219.11999999918,"y":2540442.4800000023}},{"attributes":{"ID":168243,"DIS_CODE":0,"TOWNNAME":"南區","LI":"郡南里","LIN":"14鄰","STREET":"永興三街","SECT":" ","MAREA":" ","LANE":" ","ALLEY":" ","HOUSE_NO":"５７號","E_COORD97":167349.76000000001,"N_COORD97":2540587.3399999999,"ADDRESS":"永興三街５７號","OBJECTID":168242},"geometry":{"x":167349.75999999978,"y":2540587.3400000036}},{"attributes":{"ID":168244,"DIS_CODE":0,"TOWNNAME":"南區","LI":"國宅里","LIN":"7鄰","STREET":"新孝路","SECT":" ","MAREA":" ","LANE":" ","ALLEY":" ","HOUSE_NO":"３１號","E_COORD97":166973.03,"N_COORD97":2542034.75,"ADDRESS":"新孝路３１號","OBJECTID":168243},"geometry":{"x":166973.03000000119,"y":2542034.75}},{"attributes":{"ID":168245,"DIS_CODE":0,"TOWNNAME":"南區","LI":"國宅里","LIN":"17鄰","STREET":"新孝路","SECT":" ","MAREA":" ","LANE":" ","ALLEY":" ","HOUSE_NO":"７３號","E_COORD97":166785.84,"N_COORD97":2542047.3100000001,"ADDRESS":"新孝路７３號","OBJECTID":168244},"geometry":{"x":166785.84000000078,"y":2542047.3100000024}},{"attributes":{"ID":168246,"DIS_CODE":0,"TOWNNAME":"南區","LI":"國宅里","LIN":"17鄰","STREET":"新孝路","SECT":" ","MAREA":" ","LANE":" ","ALLEY":" ","HOUSE_NO":"７５號","E_COORD97":166775.92000000001,"N_COORD97":2542049.4199999999,"ADDRESS":"新孝路７５號","OBJECTID":168245},"geometry":{"x":166775.91999999993,"y":2542049.4200000018}},{"attributes":{"ID":168247,"DIS_CODE":0,"TOWNNAME":"南區","LI":"國宅里","LIN":"17鄰","STREET":"新孝路","SECT":" ","MAREA":" ","LANE":" ","ALLEY":" ","HOUSE_NO":"７７號","E_COORD97":166767.26999999999,"N_COORD97":2542050.48,"ADDRESS":"新孝路７７號","OBJECTID":168246},"geometry":{"x":166767.27000000048,"y":2542050.4800000004}},{"attributes":{"ID":168248,"DIS_CODE":0,"TOWNNAME":"南區","LI":"國宅里","LIN":"17鄰","STREET":"新孝路","SECT":" ","MAREA":" ","LANE":" ","ALLEY":" ","HOUSE_NO":"７９號","E_COORD97":166739.19,"N_COORD97":2542050.6899999999,"ADDRESS":"新孝路７９號","OBJECTID":168247},"geometry":{"x":166739.19000000041,"y":2542050.6900000013}},{"attributes":{"ID":168249,"DIS_CODE":0,"TOWNNAME":"安南區","LI":"安富里","LIN":"7鄰","STREET":"郡安路","SECT":"五段","MAREA":" ","LANE":"１８４巷","ALLEY":"８０弄","HOUSE_NO":"１１號","E_COORD97":167456.64000000001,"N_COORD97":2547531.6600000001,"ADDRESS":"郡安路五段１８４巷８０弄１１號","OBJECTID":168248},"geometry":{"x":167456.6400000006,"y":2547531.6600000001}},{"attributes":{"ID":168250,"DIS_CODE":0,"TOWNNAME":"安南區","LI":"安富里","LIN":"7鄰","STREET":"郡安路","SECT":"五段","MAREA":" ","LANE":"１８４巷","ALLEY":"８０弄","HOUSE_NO":"１４號","E_COORD97":167446.01999999999,"N_COORD97":2547550.04,"ADDRESS":"郡安路五段１８４巷８０弄１４號","OBJECTID":168249},"geometry":{"x":167446.01999999955,"y":2547550.040000001}},{"attributes":{"ID":168251,"DIS_CODE":0,"TOWNNAME":"安南區","LI":"安富里","LIN":"7鄰","STREET":"郡安路","SECT":"五段","MAREA":" ","LANE":"１８４巷","ALLEY":"８０弄","HOUSE_NO":"１６號","E_COORD97":167436.04999999999,"N_COORD97":2547548.5299999998,"ADDRESS":"郡安路五段１８４巷８０弄１６號","OBJECTID":168250},"geometry":{"x":167436.04999999981,"y":2547548.5299999993}},{"attributes":{"ID":168252,"DIS_CODE":0,"TOWNNAME":"安南區","LI":"州北里","LIN":"4鄰","STREET":"安和路","SECT":"五段","MAREA":" ","LANE":"１７１巷","ALLEY":"４７弄","HOUSE_NO":"６１號","E_COORD97":169666.98999999999,"N_COORD97":2551678.4500000002,"ADDRESS":"安和路五段１７１巷４７弄６１號","OBJECTID":168251},"geometry":{"x":169666.99000000115,"y":2551678.4499999993}},{"attributes":{"ID":168253,"DIS_CODE":0,"TOWNNAME":"安南區","LI":"州北里","LIN":"4鄰","STREET":"安和路","SECT":"五段","MAREA":" ","LANE":"１７１巷","ALLEY":"４７弄","HOUSE_NO":"６１號之１","E_COORD97":169663.19,"N_COORD97":2551682.1200000001,"ADDRESS":"安和路五段１７１巷４７弄６１號之１","OBJECTID":168252},"geometry":{"x":169663.19000000041,"y":2551682.120000001}},{"attributes":{"ID":168254,"DIS_CODE":0,"TOWNNAME":"安南區","LI":"州北里","LIN":"4鄰","STREET":"安和路","SECT":"五段","MAREA":" ","LANE":"１７１巷","ALLEY":"４７弄","HOUSE_NO":"６１號之２","E_COORD97":169659.28,"N_COORD97":2551685.1899999999,"ADDRESS":"安和路五段１７１巷４７弄６１號之２","OBJECTID":168253},"geometry":{"x":169659.27999999933,"y":2551685.1900000013}},{"attributes":{"ID":168255,"DIS_CODE":0,"TOWNNAME":"安南區","LI":"理想里","LIN":"4鄰","STREET":"海佃路","SECT":"二段","MAREA":" ","LANE":"３４２巷","ALLEY":"２１弄","HOUSE_NO":"３號","E_COORD97":166928.04999999999,"N_COORD97":2548598.0800000001,"ADDRESS":"海佃路二段３４２巷２１弄３號","OBJECTID":168254},"geometry":{"x":166928.05000000075,"y":2548598.0800000019}},{"attributes":{"ID":168256,"DIS_CODE":0,"TOWNNAME":"安南區","LI":"州北里","LIN":"25鄰","STREET":"安和路","SECT":"五段","MAREA":" ","LANE":"１７１巷","ALLEY":"１７弄","HOUSE_NO":"２７號","E_COORD97":169826.54999999999,"N_COORD97":2551772.75,"ADDRESS":"安和路五段１７１巷１７弄２７號","OBJECTID":168255},"geometry":{"x":169826.55000000168,"y":2551772.7499999981}},{"attributes":{"ID":168257,"DIS_CODE":0,"TOWNNAME":"安南區","LI":"理想里","LIN":"4鄰","STREET":"海佃路","SECT":"二段","MAREA":" ","LANE":"３４２巷","ALLEY":"２１弄","HOUSE_NO":"８號","E_COORD97":166955.06,"N_COORD97":2548589,"ADDRESS":"海佃路二段３４２巷２１弄８號","OBJECTID":168256},"geometry":{"x":166955.06000000052,"y":2548589.0000000019}},{"attributes":{"ID":168258,"DIS_CODE":0,"TOWNNAME":"安南區","LI":"州北里","LIN":"19鄰","STREET":"安昌街","SECT":" ","MAREA":" ","LANE":"８５巷","ALLEY":"７５弄","HOUSE_NO":"８號","E_COORD97":169884.73000000001,"N_COORD97":2552357.8700000001,"ADDRESS":"安昌街８５巷７５弄８號","OBJECTID":168257},"geometry":{"x":169884.73000000045,"y":2552357.8700000029}},{"attributes":{"ID":168259,"DIS_CODE":0,"TOWNNAME":"安南區","LI":"梅花里","LIN":"1鄰","STREET":"安中路","SECT":"一段","MAREA":" ","LANE":"５５７巷","ALLEY":"１９弄","HOUSE_NO":"１７之１０號","E_COORD97":167987.32999999999,"N_COORD97":2548823.0299999998,"ADDRESS":"安中路一段５５７巷１９弄１７之１０號","OBJECTID":168258},"geometry":{"x":167987.33000000194,"y":2548823.0299999993}},{"attributes":{"ID":168260,"DIS_CODE":0,"TOWNNAME":"後壁區","LI":"竹新里","LIN":"16鄰","STREET":" ","SECT":" ","MAREA":"新厝","LANE":" ","ALLEY":" ","HOUSE_NO":"７３號","E_COORD97":179483.20000000001,"N_COORD97":2582090.27,"ADDRESS":"新厝７３號","OBJECTID":168259},"geometry":{"x":179483.20000000019,"y":2582090.2700000014}},{"attributes":{"ID":168261,"DIS_CODE":0,"TOWNNAME":"安南區","LI":"梅花里","LIN":"1鄰","STREET":"安中路","SECT":"一段","MAREA":" ","LANE":"６１９巷","ALLEY":"３０弄","HOUSE_NO":"１２號","E_COORD97":167758.26000000001,"N_COORD97":2549048.4300000002,"ADDRESS":"安中路一段６１９巷３０弄１２號","OBJECTID":168260},"geometry":{"x":167758.25999999978,"y":2549048.4299999997}},{"attributes":{"ID":168262,"DIS_CODE":0,"TOWNNAME":"安南區","LI":"梅花里","LIN":"1鄰","STREET":"安中路","SECT":"一段","MAREA":" ","LANE":"６１９巷","ALLEY":"３０弄","HOUSE_NO":"１號","E_COORD97":167768.64000000001,"N_COORD97":2549028.5499999998,"ADDRESS":"安中路一段６１９巷３０弄１號","OBJECTID":168261},"geometry":{"x":167768.6400000006,"y":2549028.5500000007}},{"attributes":{"ID":168263,"DIS_CODE":0,"TOWNNAME":"安南區","LI":"梅花里","LIN":"1鄰","STREET":"安中路","SECT":"一段","MAREA":" ","LANE":"６１９巷","ALLEY":"３０弄","HOUSE_NO":"２號","E_COORD97":167775.89000000001,"N_COORD97":2549044.0099999998,"ADDRESS":"安中路一段６１９巷３０弄２號","OBJECTID":168262},"geometry":{"x":167775.88999999966,"y":2549044.0099999998}},{"attributes":{"ID":168264,"DIS_CODE":0,"TOWNNAME":"安南區","LI":"梅花里","LIN":"1鄰","STREET":"安中路","SECT":"一段","MAREA":" ","LANE":"６１９巷","ALLEY":"３０弄","HOUSE_NO":"３號","E_COORD97":167759.64000000001,"N_COORD97":2549030.3100000001,"ADDRESS":"安中路一段６１９巷３０弄３號","OBJECTID":168263},"geometry":{"x":167759.6400000006,"y":2549030.3100000042}},{"attributes":{"ID":168265,"DIS_CODE":0,"TOWNNAME":"仁德區","LI":"保安里","LIN":"4鄰","STREET":"文賢路","SECT":"一段","MAREA":" ","LANE":"８７４巷","ALLEY":"１弄","HOUSE_NO":"６號","E_COORD97":171600.48999999999,"N_COORD97":2535987.5800000001,"ADDRESS":"文賢路一段８７４巷１弄６號","OBJECTID":168264},"geometry":{"x":171600.48999999929,"y":2535987.5800000001}},{"attributes":{"ID":168266,"DIS_CODE":0,"TOWNNAME":"仁德區","LI":"仁德里","LIN":"18鄰","STREET":"文華路","SECT":"三段","MAREA":" ","LANE":"１８９巷","ALLEY":"９２弄","HOUSE_NO":"８５號","E_COORD97":172133.85000000001,"N_COORD97":2540593.5299999998,"ADDRESS":"文華路三段１８９巷９２弄８５號","OBJECTID":168265},"geometry":{"x":172133.85000000056,"y":2540593.5300000012}},{"attributes":{"ID":168267,"DIS_CODE":0,"TOWNNAME":"仁德區","LI":"成功里","LIN":"4鄰","STREET":"成功三街","SECT":" ","MAREA":" ","LANE":"８６巷","ALLEY":"１弄","HOUSE_NO":"１８號","E_COORD97":171151.39999999999,"N_COORD97":2539775.2000000002,"ADDRESS":"成功三街８６巷１弄１８號","OBJECTID":168266},"geometry":{"x":171151.40000000037,"y":2539775.2000000011}},{"attributes":{"ID":168268,"DIS_CODE":0,"TOWNNAME":"仁德區","LI":"太子里","LIN":"5鄰","STREET":"太子路","SECT":" ","MAREA":" ","LANE":"１９０巷","ALLEY":"３３弄","HOUSE_NO":"１２號","E_COORD97":174280.28,"N_COORD97":2543647.54,"ADDRESS":"太子路１９０巷３３弄１２號","OBJECTID":168267},"geometry":{"x":174280.28000000026,"y":2543647.540000001}},{"attributes":{"ID":168269,"DIS_CODE":0,"TOWNNAME":"仁德區","LI":"仁德里","LIN":"5鄰","STREET":"仁德四街","SECT":" ","MAREA":" ","LANE":"１２巷","ALLEY":"１弄","HOUSE_NO":"１６號","E_COORD97":173201.07999999999,"N_COORD97":2540849.7999999998,"ADDRESS":"仁德四街１２巷１弄１６號","OBJECTID":168268},"geometry":{"x":173201.08000000007,"y":2540849.8000000045}},{"attributes":{"ID":168270,"DIS_CODE":0,"TOWNNAME":"仁德區","LI":"太子里","LIN":"46鄰","STREET":"太子一街","SECT":" ","MAREA":" ","LANE":"４３巷","ALLEY":"１０弄","HOUSE_NO":"８號","E_COORD97":174772.32000000001,"N_COORD97":2543307.1299999999,"ADDRESS":"太子一街４３巷１０弄８號","OBJECTID":168269},"geometry":{"x":174772.32000000123,"y":2543307.1300000027}},{"attributes":{"ID":168271,"DIS_CODE":0,"TOWNNAME":"南區","LI":"喜北里","LIN":" ","STREET":"喜樹路","SECT":" ","MAREA":" ","LANE":" ","ALLEY":" ","HOUSE_NO":"１４４號","E_COORD97":165870.53,"N_COORD97":2538279.5899999999,"ADDRESS":"喜樹路１４４號","OBJECTID":168270},"geometry":{"x":165870.52999999933,"y":2538279.5899999999}},{"attributes":{"ID":168272,"DIS_CODE":0,"TOWNNAME":"七股區","LI":"十份里","LIN":"13鄰","STREET":" ","SECT":" ","MAREA":"十份","LANE":" ","ALLEY":" ","HOUSE_NO":"７４號之１","E_COORD97":157696.17000000001,"N_COORD97":2554969.79,"ADDRESS":"十份７４號之１","OBJECTID":168271},"geometry":{"x":157696.16999999993,"y":2554969.790000001}},{"attributes":{"ID":168273,"DIS_CODE":0,"TOWNNAME":"南區","LI":"田寮里","LIN":"12鄰","STREET":"西門路","SECT":"一段","MAREA":" ","LANE":" ","ALLEY":" ","HOUSE_NO":"３９１號","E_COORD97":167718.89000000001,"N_COORD97":2542228.7599999998,"ADDRESS":"西門路一段３９１號","OBJECTID":168272},"geometry":{"x":167718.8900000006,"y":2542228.7600000035}},{"attributes":{"ID":168274,"DIS_CODE":0,"TOWNNAME":"仁德區","LI":"仁義里","LIN":"46鄰","STREET":"仁義路","SECT":" ","MAREA":" ","LANE":"９８巷","ALLEY":"１３弄","HOUSE_NO":"２號","E_COORD97":173643.12,"N_COORD97":2540907.2799999998,"ADDRESS":"仁義路９８巷１３弄２號","OBJECTID":168273},"geometry":{"x":173643.12000000104,"y":2540907.2800000012}},{"attributes":{"ID":168275,"DIS_CODE":0,"TOWNNAME":"仁德區","LI":"仁德里","LIN":"43鄰","STREET":"中山路","SECT":" ","MAREA":" ","LANE":"９１０巷","ALLEY":"２０弄","HOUSE_NO":"１３號","E_COORD97":172065.48999999999,"N_COORD97":2541752,"ADDRESS":"中山路９１０巷２０弄１３號","OBJECTID":168274},"geometry":{"x":172065.49000000115,"y":2541752}},{"attributes":{"ID":168276,"DIS_CODE":0,"TOWNNAME":"七股區","LI":"十份里","LIN":"13鄰","STREET":" ","SECT":" ","MAREA":"十份","LANE":" ","ALLEY":" ","HOUSE_NO":"７４號","E_COORD97":157696.17000000001,"N_COORD97":2554966.1099999999,"ADDRESS":"十份７４號","OBJECTID":168275},"geometry":{"x":157696.16999999993,"y":2554966.1099999994}},{"attributes":{"ID":168277,"DIS_CODE":0,"TOWNNAME":"佳里區","LI":"六安里","LIN":"13鄰","STREET":" ","SECT":" ","MAREA":"六安","LANE":" ","ALLEY":" ","HOUSE_NO":"１０４號之１６","E_COORD97":166180.03,"N_COORD97":2563997.9900000002,"ADDRESS":"六安１０４號之１６","OBJECTID":168276},"geometry":{"x":166180.03000000026,"y":2563997.9900000021}},{"attributes":{"ID":168278,"DIS_CODE":0,"TOWNNAME":"仁德區","LI":"仁義里","LIN":"20鄰","STREET":"中山路","SECT":" ","MAREA":" ","LANE":"３２８巷","ALLEY":"１１弄","HOUSE_NO":"３號","E_COORD97":173927.78,"N_COORD97":2541321.7400000002,"ADDRESS":"中山路３２８巷１１弄３號","OBJECTID":168277},"geometry":{"x":173927.77999999933,"y":2541321.7400000021}},{"attributes":{"ID":168279,"DIS_CODE":0,"TOWNNAME":"佳里區","LI":"六安里","LIN":"13鄰","STREET":" ","SECT":" ","MAREA":"六安","LANE":" ","ALLEY":" ","HOUSE_NO":"１０４號之１７","E_COORD97":166178.82000000001,"N_COORD97":2563993.6299999999,"ADDRESS":"六安１０４號之１７","OBJECTID":168278},"geometry":{"x":166178.81999999937,"y":2563993.629999999}},{"attributes":{"ID":168280,"DIS_CODE":0,"TOWNNAME":"仁德區","LI":"成功里","LIN":"38鄰","STREET":"保華路","SECT":" ","MAREA":" ","LANE":"２巷","ALLEY":"５弄","HOUSE_NO":"３２號","E_COORD97":170691.5,"N_COORD97":2540046.9900000002,"ADDRESS":"保華路２巷５弄３２號","OBJECTID":168279},"geometry":{"x":170691.5,"y":2540046.9900000002}},{"attributes":{"ID":168281,"DIS_CODE":0,"TOWNNAME":"佳里區","LI":"六安里","LIN":"13鄰","STREET":" ","SECT":" ","MAREA":"六安","LANE":" ","ALLEY":" ","HOUSE_NO":"１０４號之２２","E_COORD97":166176.54999999999,"N_COORD97":2563943.1000000001,"ADDRESS":"六安１０４號之２２","OBJECTID":168280},"geometry":{"x":166176.54999999981,"y":2563943.1000000015}},{"attributes":{"ID":168282,"DIS_CODE":0,"TOWNNAME":"佳里區","LI":"六安里","LIN":"13鄰","STREET":" ","SECT":" ","MAREA":"六安","LANE":" ","ALLEY":" ","HOUSE_NO":"１０４號之２３","E_COORD97":166182.64000000001,"N_COORD97":2564010.9700000002,"ADDRESS":"六安１０４號之２３","OBJECTID":168281},"geometry":{"x":166182.63999999966,"y":2564010.9700000007}},{"attributes":{"ID":168283,"DIS_CODE":0,"TOWNNAME":"佳里區","LI":"六安里","LIN":"13鄰","STREET":" ","SECT":" ","MAREA":"六安","LANE":" ","ALLEY":" ","HOUSE_NO":"１０４號之２６","E_COORD97":166188.13,"N_COORD97":2564020.3199999998,"ADDRESS":"六安１０４號之２６","OBJECTID":168282},"geometry":{"x":166188.12999999896,"y":2564020.3200000022}},{"attributes":{"ID":168284,"DIS_CODE":0,"TOWNNAME":"佳里區","LI":"六安里","LIN":"13鄰","STREET":" ","SECT":" ","MAREA":"六安","LANE":" ","ALLEY":" ","HOUSE_NO":"１０４號之２７","E_COORD97":166120.81,"N_COORD97":2563894.4500000002,"ADDRESS":"六安１０４號之２７","OBJECTID":168283},"geometry":{"x":166120.81000000052,"y":2563894.4499999993}},{"attributes":{"ID":168285,"DIS_CODE":0,"TOWNNAME":"佳里區","LI":"六安里","LIN":"13鄰","STREET":" ","SECT":" ","MAREA":"六安","LANE":" ","ALLEY":" ","HOUSE_NO":"１０４號之２８","E_COORD97":166192.25,"N_COORD97":2564027.6200000001,"ADDRESS":"六安１０４號之２８","OBJECTID":168284},"geometry":{"x":166192.25,"y":2564027.6199999992}},{"attributes":{"ID":168286,"DIS_CODE":0,"TOWNNAME":"仁德區","LI":"仁德里","LIN":"26鄰","STREET":"淨修街","SECT":" ","MAREA":" ","LANE":"１７５巷","ALLEY":"３０弄","HOUSE_NO":"２４號","E_COORD97":171979.23999999999,"N_COORD97":2541182.1800000002,"ADDRESS":"淨修街１７５巷３０弄２４號","OBJECTID":168285},"geometry":{"x":171979.24000000115,"y":2541182.1800000016}},{"attributes":{"ID":168287,"DIS_CODE":0,"TOWNNAME":"佳里區","LI":"六安里","LIN":"13鄰","STREET":" ","SECT":" ","MAREA":"六安","LANE":" ","ALLEY":" ","HOUSE_NO":"１０４號之２９","E_COORD97":166193.32000000001,"N_COORD97":2564034.3199999998,"ADDRESS":"六安１０４號之２９","OBJECTID":168286},"geometry":{"x":166193.32000000123,"y":2564034.3200000003}},{"attributes":{"ID":168288,"DIS_CODE":0,"TOWNNAME":"佳里區","LI":"六安里","LIN":"13鄰","STREET":" ","SECT":" ","MAREA":"六安","LANE":" ","ALLEY":" ","HOUSE_NO":"１０４號之４３","E_COORD97":166179.35000000001,"N_COORD97":2563872.4199999999,"ADDRESS":"六安１０４號之４３","OBJECTID":168287},"geometry":{"x":166179.34999999963,"y":2563872.4200000018}},{"attributes":{"ID":168289,"DIS_CODE":0,"TOWNNAME":"佳里區","LI":"六安里","LIN":"13鄰","STREET":" ","SECT":" ","MAREA":"六安","LANE":" ","ALLEY":" ","HOUSE_NO":"１０４號之４４","E_COORD97":166177.76999999999,"N_COORD97":2563880.0600000001,"ADDRESS":"六安１０４號之４４","OBJECTID":168288},"geometry":{"x":166177.76999999955,"y":2563880.0600000024}},{"attributes":{"ID":168290,"DIS_CODE":0,"TOWNNAME":"佳里區","LI":"六安里","LIN":"13鄰","STREET":" ","SECT":" ","MAREA":"六安","LANE":" ","ALLEY":" ","HOUSE_NO":"１０４號之４５","E_COORD97":166178.67999999999,"N_COORD97":2563886.5299999998,"ADDRESS":"六安１０４號之４５","OBJECTID":168289},"geometry":{"x":166178.6799999997,"y":2563886.5299999993}},{"attributes":{"ID":168291,"DIS_CODE":0,"TOWNNAME":"佳里區","LI":"六安里","LIN":"13鄰","STREET":" ","SECT":" ","MAREA":"六安","LANE":" ","ALLEY":" ","HOUSE_NO":"１０４號之４６","E_COORD97":166179.10000000001,"N_COORD97":2563892.8500000001,"ADDRESS":"六安１０４號之４６","OBJECTID":168290},"geometry":{"x":166179.09999999963,"y":2563892.8500000015}},{"attributes":{"ID":168292,"DIS_CODE":0,"TOWNNAME":"佳里區","LI":"六安里","LIN":"13鄰","STREET":" ","SECT":" ","MAREA":"六安","LANE":" ","ALLEY":" ","HOUSE_NO":"１０４號之４７","E_COORD97":166179.07000000001,"N_COORD97":2563897.8700000001,"ADDRESS":"六安１０４號之４７","OBJECTID":168291},"geometry":{"x":166179.07000000123,"y":2563897.8700000029}},{"attributes":{"ID":168293,"DIS_CODE":0,"TOWNNAME":"佳里區","LI":"六安里","LIN":"13鄰","STREET":" ","SECT":" ","MAREA":"六安","LANE":" ","ALLEY":" ","HOUSE_NO":"１０４號之４８","E_COORD97":166179.03,"N_COORD97":2563903.1499999999,"ADDRESS":"六安１０４號之４８","OBJECTID":168292},"geometry":{"x":166179.02999999933,"y":2563903.1500000004}},{"attributes":{"ID":168294,"DIS_CODE":0,"TOWNNAME":"佳里區","LI":"六安里","LIN":"13鄰","STREET":" ","SECT":" ","MAREA":"六安","LANE":" ","ALLEY":" ","HOUSE_NO":"１０４號之４９","E_COORD97":166178.64999999999,"N_COORD97":2563909.02,"ADDRESS":"六安１０４號之４９","OBJECTID":168293},"geometry":{"x":166178.6500000013,"y":2563909.0200000014}},{"attributes":{"ID":168295,"DIS_CODE":0,"TOWNNAME":"佳里區","LI":"六安里","LIN":"13鄰","STREET":" ","SECT":" ","MAREA":"六安","LANE":" ","ALLEY":" ","HOUSE_NO":"１０４號之５０","E_COORD97":166180.04000000001,"N_COORD97":2564006.1800000002,"ADDRESS":"六安１０４號之５０","OBJECTID":168294},"geometry":{"x":166180.04000000004,"y":2564006.1800000016}},{"attributes":{"ID":168296,"DIS_CODE":0,"TOWNNAME":"七股區","LI":"玉成里","LIN":"13鄰","STREET":" ","SECT":" ","MAREA":"玉成","LANE":" ","ALLEY":" ","HOUSE_NO":"１４７號","E_COORD97":161951.14999999999,"N_COORD97":2560251.9900000002,"ADDRESS":"玉成１４７號","OBJECTID":168295},"geometry":{"x":161951.1500000013,"y":2560251.9900000021}},{"attributes":{"ID":168297,"DIS_CODE":0,"TOWNNAME":"佳里區","LI":"六安里","LIN":"13鄰","STREET":" ","SECT":" ","MAREA":"六安","LANE":" ","ALLEY":" ","HOUSE_NO":"１０４號之５１","E_COORD97":166179.29000000001,"N_COORD97":2564001.98,"ADDRESS":"六安１０４號之５１","OBJECTID":168296},"geometry":{"x":166179.29000000097,"y":2564001.9800000023}},{"attributes":{"ID":168298,"DIS_CODE":0,"TOWNNAME":"佳里區","LI":"六安里","LIN":"13鄰","STREET":" ","SECT":" ","MAREA":"六安","LANE":" ","ALLEY":" ","HOUSE_NO":"１０４號之５２","E_COORD97":166178.44,"N_COORD97":2563958.7999999998,"ADDRESS":"六安１０４號之５２","OBJECTID":168297},"geometry":{"x":166178.44000000134,"y":2563958.8000000026}},{"attributes":{"ID":168299,"DIS_CODE":0,"TOWNNAME":"佳里區","LI":"六安里","LIN":"13鄰","STREET":" ","SECT":" ","MAREA":"六安","LANE":" ","ALLEY":" ","HOUSE_NO":"１０４號之５３","E_COORD97":166142.73999999999,"N_COORD97":2563937.1299999999,"ADDRESS":"六安１０４號之５３","OBJECTID":168298},"geometry":{"x":166142.74000000115,"y":2563937.1299999971}},{"attributes":{"ID":168300,"DIS_CODE":0,"TOWNNAME":"七股區","LI":"大潭里","LIN":"13鄰","STREET":" ","SECT":" ","MAREA":"台潭","LANE":" ","ALLEY":" ","HOUSE_NO":"１３５號","E_COORD97":160862.66,"N_COORD97":2565465.4399999999,"ADDRESS":"台潭１３５號","OBJECTID":168299},"geometry":{"x":160862.66000000108,"y":2565465.4400000013}},{"attributes":{"ID":168301,"DIS_CODE":0,"TOWNNAME":"七股區","LI":"大潭里","LIN":"13鄰","STREET":" ","SECT":" ","MAREA":"台潭","LANE":" ","ALLEY":" ","HOUSE_NO":"１３８號","E_COORD97":160817.04000000001,"N_COORD97":2565497.54,"ADDRESS":"台潭１３８號","OBJECTID":168300},"geometry":{"x":160817.0400000019,"y":2565497.5399999972}},{"attributes":{"ID":168302,"DIS_CODE":0,"TOWNNAME":"七股區","LI":"大潭里","LIN":"13鄰","STREET":" ","SECT":" ","MAREA":"台潭","LANE":" ","ALLEY":" ","HOUSE_NO":"１３９號之１","E_COORD97":160816.98999999999,"N_COORD97":2565411.6699999999,"ADDRESS":"台潭１３９號之１","OBJECTID":168301},"geometry":{"x":160816.99000000022,"y":2565411.6699999999}},{"attributes":{"ID":168303,"DIS_CODE":0,"TOWNNAME":"七股區","LI":"玉成里","LIN":"13鄰","STREET":" ","SECT":" ","MAREA":"玉成","LANE":" ","ALLEY":" ","HOUSE_NO":"１７０號之８","E_COORD97":161893.67000000001,"N_COORD97":2560293.3700000001,"ADDRESS":"玉成１７０號之８","OBJECTID":168302},"geometry":{"x":161893.66999999993,"y":2560293.3700000048}},{"attributes":{"ID":168304,"DIS_CODE":0,"TOWNNAME":"七股區","LI":"玉成里","LIN":"13鄰","STREET":" ","SECT":" ","MAREA":"玉成","LANE":" ","ALLEY":" ","HOUSE_NO":"１７０號之９","E_COORD97":161890.97,"N_COORD97":2560296.3999999999,"ADDRESS":"玉成１７０號之９","OBJECTID":168303},"geometry":{"x":161890.97000000067,"y":2560296.4000000022}},{"attributes":{"ID":168305,"DIS_CODE":0,"TOWNNAME":"七股區","LI":"玉成里","LIN":"13鄰","STREET":" ","SECT":" ","MAREA":"玉成","LANE":" ","ALLEY":" ","HOUSE_NO":"１７０號","E_COORD97":161915.26000000001,"N_COORD97":2560269.0899999999,"ADDRESS":"玉成１７０號","OBJECTID":168304},"geometry":{"x":161915.25999999885,"y":2560269.0899999999}},{"attributes":{"ID":168306,"DIS_CODE":0,"TOWNNAME":"七股區","LI":"玉成里","LIN":"13鄰","STREET":" ","SECT":" ","MAREA":"玉成","LANE":" ","ALLEY":" ","HOUSE_NO":"１７３號","E_COORD97":161896.16,"N_COORD97":2560254.29,"ADDRESS":"玉成１７３號","OBJECTID":168305},"geometry":{"x":161896.16000000201,"y":2560254.2899999972}},{"attributes":{"ID":168307,"DIS_CODE":0,"TOWNNAME":"七股區","LI":"玉成里","LIN":"13鄰","STREET":" ","SECT":" ","MAREA":"玉成","LANE":" ","ALLEY":" ","HOUSE_NO":"１７４號","E_COORD97":161893.32999999999,"N_COORD97":2560257.6800000002,"ADDRESS":"玉成１７４號","OBJECTID":168306},"geometry":{"x":161893.33000000101,"y":2560257.6799999997}},{"attributes":{"ID":168308,"DIS_CODE":0,"TOWNNAME":"仁德區","LI":"仁德里","LIN":"5鄰","STREET":"仁德四街","SECT":" ","MAREA":" ","LANE":"１２巷","ALLEY":"１弄","HOUSE_NO":"２４號","E_COORD97":173180.63,"N_COORD97":2540847.5499999998,"ADDRESS":"仁德四街１２巷１弄２４號","OBJECTID":168307},"geometry":{"x":173180.62999999989,"y":2540847.5500000007}},{"attributes":{"ID":168309,"DIS_CODE":0,"TOWNNAME":"仁德區","LI":"仁德里","LIN":"43鄰","STREET":"中山路","SECT":" ","MAREA":" ","LANE":"９１０巷","ALLEY":"１１弄","HOUSE_NO":"１１號","E_COORD97":171983.98999999999,"N_COORD97":2541755.5,"ADDRESS":"中山路９１０巷１１弄１１號","OBJECTID":168308},"geometry":{"x":171983.99000000115,"y":2541755.5}},{"attributes":{"ID":168310,"DIS_CODE":0,"TOWNNAME":"東區","LI":"東聖里","LIN":"18鄰","STREET":"中華東路","SECT":"二段","MAREA":" ","LANE":"１３３巷","ALLEY":"１７弄","HOUSE_NO":"２０號","E_COORD97":171460.59,"N_COORD97":2542909.96,"ADDRESS":"中華東路二段１３３巷１７弄２０號","OBJECTID":168309},"geometry":{"x":171460.59000000171,"y":2542909.9600000046}},{"attributes":{"ID":168311,"DIS_CODE":0,"TOWNNAME":"東區","LI":"東聖里","LIN":"18鄰","STREET":"中華東路","SECT":"二段","MAREA":" ","LANE":"１３３巷","ALLEY":"１７弄","HOUSE_NO":"２２號","E_COORD97":171460.97,"N_COORD97":2542914.4199999999,"ADDRESS":"中華東路二段１３３巷１７弄２２號","OBJECTID":168310},"geometry":{"x":171460.96999999974,"y":2542914.4199999999}},{"attributes":{"ID":168312,"DIS_CODE":0,"TOWNNAME":"東區","LI":"東聖里","LIN":"18鄰","STREET":"中華東路","SECT":"二段","MAREA":" ","LANE":"１３３巷","ALLEY":"１７弄","HOUSE_NO":"２號","E_COORD97":171454.73000000001,"N_COORD97":2542874.77,"ADDRESS":"中華東路二段１３３巷１７弄２號","OBJECTID":168311},"geometry":{"x":171454.73000000045,"y":2542874.7699999996}},{"attributes":{"ID":168313,"DIS_CODE":0,"TOWNNAME":"東區","LI":"東聖里","LIN":"18鄰","STREET":"中華東路","SECT":"二段","MAREA":" ","LANE":"１３３巷","ALLEY":"１７弄","HOUSE_NO":"４號","E_COORD97":171455.23000000001,"N_COORD97":2542879.1099999999,"ADDRESS":"中華東路二段１３３巷１７弄４號","OBJECTID":168312},"geometry":{"x":171455.23000000231,"y":2542879.1099999994}},{"attributes":{"ID":168314,"DIS_CODE":0,"TOWNNAME":"東區","LI":"東聖里","LIN":"18鄰","STREET":"中華東路","SECT":"二段","MAREA":" ","LANE":"１３３巷","ALLEY":"１７弄","HOUSE_NO":"８號","E_COORD97":171458.16,"N_COORD97":2542886.3799999999,"ADDRESS":"中華東路二段１３３巷１７弄８號","OBJECTID":168313},"geometry":{"x":171458.16000000015,"y":2542886.3800000008}},{"attributes":{"ID":168315,"DIS_CODE":0,"TOWNNAME":"東區","LI":"東聖里","LIN":"18鄰","STREET":"中華東路","SECT":"二段","MAREA":" ","LANE":"１３３巷","ALLEY":"３９弄","HOUSE_NO":"１３號","E_COORD97":171466.45000000001,"N_COORD97":2542874.5,"ADDRESS":"中華東路二段１３３巷３９弄１３號","OBJECTID":168314},"geometry":{"x":171466.45000000019,"y":2542874.5}},{"attributes":{"ID":168316,"DIS_CODE":0,"TOWNNAME":"東區","LI":"東聖里","LIN":"18鄰","STREET":"中華東路","SECT":"二段","MAREA":" ","LANE":"１３３巷","ALLEY":"３９弄","HOUSE_NO":"１５號","E_COORD97":171468.88,"N_COORD97":2542893.23,"ADDRESS":"中華東路二段１３３巷３９弄１５號","OBJECTID":168315},"geometry":{"x":171468.88000000175,"y":2542893.2300000004}},{"attributes":{"ID":168317,"DIS_CODE":0,"TOWNNAME":"東區","LI":"東聖里","LIN":"18鄰","STREET":"中華東路","SECT":"二段","MAREA":" ","LANE":"１３３巷","ALLEY":"３９弄","HOUSE_NO":"１７號","E_COORD97":171473.06,"N_COORD97":2542892.48,"ADDRESS":"中華東路二段１３３巷３９弄１７號","OBJECTID":168316},"geometry":{"x":171473.06000000052,"y":2542892.4800000042}},{"attributes":{"ID":168318,"DIS_CODE":0,"TOWNNAME":"東區","LI":"崇善里","LIN":"24鄰","STREET":"崇善十二街","SECT":" ","MAREA":" ","LANE":"６巷","ALLEY":"１５弄","HOUSE_NO":"８號","E_COORD97":171271.66473300001,"N_COORD97":2541050.4275799999,"ADDRESS":"崇善十二街６巷１５弄８號","OBJECTID":168317},"geometry":{"x":171271.66473299917,"y":2541050.4275839999}},{"attributes":{"ID":168319,"DIS_CODE":0,"TOWNNAME":"歸仁區","LI":"武東里","LIN":"12鄰","STREET":" ","SECT":" ","MAREA":"明德新村","LANE":" ","ALLEY":" ","HOUSE_NO":"９３號","E_COORD97":175213.09,"N_COORD97":2536137.27,"ADDRESS":"明德新村９３號","OBJECTID":168318},"geometry":{"x":175213.08999999985,"y":2536137.2700000014}},{"attributes":{"ID":168320,"DIS_CODE":0,"TOWNNAME":"七股區","LI":"玉成里","LIN":"13鄰","STREET":" ","SECT":" ","MAREA":"玉成","LANE":" ","ALLEY":" ","HOUSE_NO":"１７５號","E_COORD97":161890.5,"N_COORD97":2560261.0600000001,"ADDRESS":"玉成１７５號","OBJECTID":168319},"geometry":{"x":161890.50000000093,"y":2560261.0600000042}},{"attributes":{"ID":168321,"DIS_CODE":0,"TOWNNAME":"七股區","LI":"玉成里","LIN":"13鄰","STREET":" ","SECT":" ","MAREA":"玉成","LANE":" ","ALLEY":" ","HOUSE_NO":"１７６號","E_COORD97":161887.66,"N_COORD97":2560264.4500000002,"ADDRESS":"玉成１７６號","OBJECTID":168320},"geometry":{"x":161887.66000000201,"y":2560264.4500000011}},{"attributes":{"ID":168322,"DIS_CODE":0,"TOWNNAME":"七股區","LI":"玉成里","LIN":"13鄰","STREET":" ","SECT":" ","MAREA":"玉成","LANE":" ","ALLEY":" ","HOUSE_NO":"１７７號","E_COORD97":161884.82999999999,"N_COORD97":2560267.8300000001,"ADDRESS":"玉成１７７號","OBJECTID":168321},"geometry":{"x":161884.83000000194,"y":2560267.8300000001}},{"attributes":{"ID":168323,"DIS_CODE":0,"TOWNNAME":"東區","LI":"崇善里","LIN":"24鄰","STREET":"崇善十二街","SECT":" ","MAREA":" ","LANE":"６巷","ALLEY":"１５弄","HOUSE_NO":"２０號","E_COORD97":171294.67000000001,"N_COORD97":2541063.1800000002,"ADDRESS":"崇善十二街６巷１５弄２０號","OBJECTID":168322},"geometry":{"x":171294.67000000086,"y":2541063.1800000034}},{"attributes":{"ID":168324,"DIS_CODE":0,"TOWNNAME":"七股區","LI":"玉成里","LIN":"13鄰","STREET":" ","SECT":" ","MAREA":"玉成","LANE":" ","ALLEY":" ","HOUSE_NO":"１７８號","E_COORD97":161882,"N_COORD97":2560271.2200000002,"ADDRESS":"玉成１７８號","OBJECTID":168323},"geometry":{"x":161882.00000000093,"y":2560271.2200000025}},{"attributes":{"ID":168325,"DIS_CODE":0,"TOWNNAME":"七股區","LI":"玉成里","LIN":"13鄰","STREET":" ","SECT":" ","MAREA":"玉成","LANE":" ","ALLEY":" ","HOUSE_NO":"１７９號","E_COORD97":161879.16,"N_COORD97":2560274.6099999999,"ADDRESS":"玉成１７９號","OBJECTID":168324},"geometry":{"x":161879.16000000201,"y":2560274.6100000013}},{"attributes":{"ID":168326,"DIS_CODE":0,"TOWNNAME":"後壁區","LI":"竹新里","LIN":"16鄰","STREET":" ","SECT":" ","MAREA":"新厝","LANE":" ","ALLEY":" ","HOUSE_NO":"７４號","E_COORD97":179473.70999999999,"N_COORD97":2582075.1099999999,"ADDRESS":"新厝７４號","OBJECTID":168325},"geometry":{"x":179473.71000000089,"y":2582075.1099999994}},{"attributes":{"ID":168327,"DIS_CODE":0,"TOWNNAME":"七股區","LI":"玉成里","LIN":"13鄰","STREET":" ","SECT":" ","MAREA":"玉成","LANE":" ","ALLEY":" ","HOUSE_NO":"１８０號之１","E_COORD97":161873.5,"N_COORD97":2560281.3799999999,"ADDRESS":"玉成１８０號之１","OBJECTID":168326},"geometry":{"x":161873.50000000093,"y":2560281.3800000008}},{"attributes":{"ID":168328,"DIS_CODE":0,"TOWNNAME":"七股區","LI":"玉成里","LIN":"13鄰","STREET":" ","SECT":" ","MAREA":"玉成","LANE":" ","ALLEY":" ","HOUSE_NO":"１８０號","E_COORD97":161876.32999999999,"N_COORD97":2560277.9900000002,"ADDRESS":"玉成１８０號","OBJECTID":168327},"geometry":{"x":161876.33000000194,"y":2560277.9900000039}},{"attributes":{"ID":168329,"DIS_CODE":0,"TOWNNAME":"北門區","LI":"北門里","LIN":"13鄰","STREET":" ","SECT":" ","MAREA":"舊埕","LANE":" ","ALLEY":" ","HOUSE_NO":"１號","E_COORD97":160721.42999999999,"N_COORD97":2573506.54,"ADDRESS":"舊埕１號","OBJECTID":168328},"geometry":{"x":160721.43000000063,"y":2573506.540000001}},{"attributes":{"ID":168330,"DIS_CODE":0,"TOWNNAME":"七股區","LI":"玉成里","LIN":"13鄰","STREET":" ","SECT":" ","MAREA":"玉成","LANE":" ","ALLEY":" ","HOUSE_NO":"１３８號之１","E_COORD97":161914.41,"N_COORD97":2560233.5699999998,"ADDRESS":"玉成１３８號之１","OBJECTID":168329},"geometry":{"x":161914.41000000015,"y":2560233.570000004}},{"attributes":{"ID":168331,"DIS_CODE":0,"TOWNNAME":"七股區","LI":"玉成里","LIN":"13鄰","STREET":" ","SECT":" ","MAREA":"玉成","LANE":" ","ALLEY":" ","HOUSE_NO":"１３８號之２","E_COORD97":161911.62,"N_COORD97":2560236.25,"ADDRESS":"玉成１３８號之２","OBJECTID":168330},"geometry":{"x":161911.62000000197,"y":2560236.2500000019}},{"attributes":{"ID":168332,"DIS_CODE":0,"TOWNNAME":"七股區","LI":"玉成里","LIN":"13鄰","STREET":" ","SECT":" ","MAREA":"玉成","LANE":" ","ALLEY":" ","HOUSE_NO":"１３８號之３","E_COORD97":161908.82999999999,"N_COORD97":2560238.9199999999,"ADDRESS":"玉成１３８號之３","OBJECTID":168331},"geometry":{"x":161908.83000000101,"y":2560238.9200000018}},{"attributes":{"ID":168333,"DIS_CODE":0,"TOWNNAME":"七股區","LI":"玉成里","LIN":"13鄰","STREET":" ","SECT":" ","MAREA":"玉成","LANE":" ","ALLEY":" ","HOUSE_NO":"１３８號之４","E_COORD97":161905.60000000001,"N_COORD97":2560243.0099999998,"ADDRESS":"玉成１３８號之４","OBJECTID":168332},"geometry":{"x":161905.59999999963,"y":2560243.0099999998}},{"attributes":{"ID":168334,"DIS_CODE":0,"TOWNNAME":"七股區","LI":"玉成里","LIN":"13鄰","STREET":" ","SECT":" ","MAREA":"玉成","LANE":" ","ALLEY":" ","HOUSE_NO":"１３８號之５","E_COORD97":161902.66,"N_COORD97":2560246.1600000001,"ADDRESS":"玉成１３８號之５","OBJECTID":168333},"geometry":{"x":161902.66000000015,"y":2560246.1600000039}},{"attributes":{"ID":168335,"DIS_CODE":0,"TOWNNAME":"七股區","LI":"玉成里","LIN":"13鄰","STREET":" ","SECT":" ","MAREA":"玉成","LANE":" ","ALLEY":" ","HOUSE_NO":"１３８號","E_COORD97":161919.88,"N_COORD97":2560224.8599999999,"ADDRESS":"玉成１３８號","OBJECTID":168334},"geometry":{"x":161919.88000000175,"y":2560224.8600000013}},{"attributes":{"ID":168336,"DIS_CODE":0,"TOWNNAME":"七股區","LI":"玉成里","LIN":"13鄰","STREET":" ","SECT":" ","MAREA":"玉成","LANE":" ","ALLEY":" ","HOUSE_NO":"１３９號","E_COORD97":161922.62,"N_COORD97":2560227.3500000001,"ADDRESS":"玉成１３９號","OBJECTID":168335},"geometry":{"x":161922.62000000011,"y":2560227.3499999978}},{"attributes":{"ID":168337,"DIS_CODE":0,"TOWNNAME":"七股區","LI":"玉成里","LIN":"13鄰","STREET":" ","SECT":" ","MAREA":"玉成","LANE":" ","ALLEY":" ","HOUSE_NO":"１４０號","E_COORD97":161925.35999999999,"N_COORD97":2560229.8500000001,"ADDRESS":"玉成１４０號","OBJECTID":168336},"geometry":{"x":161925.3599999994,"y":2560229.8499999996}},{"attributes":{"ID":168338,"DIS_CODE":0,"TOWNNAME":"七股區","LI":"玉成里","LIN":"13鄰","STREET":" ","SECT":" ","MAREA":"玉成","LANE":" ","ALLEY":" ","HOUSE_NO":"１４１號","E_COORD97":161928.10000000001,"N_COORD97":2560232.3399999999,"ADDRESS":"玉成１４１號","OBJECTID":168337},"geometry":{"x":161928.10000000149,"y":2560232.3400000017}},{"attributes":{"ID":168339,"DIS_CODE":0,"TOWNNAME":"七股區","LI":"玉成里","LIN":"13鄰","STREET":" ","SECT":" ","MAREA":"玉成","LANE":" ","ALLEY":" ","HOUSE_NO":"１４２號","E_COORD97":161930.84,"N_COORD97":2560234.8300000001,"ADDRESS":"玉成１４２號","OBJECTID":168338},"geometry":{"x":161930.84000000078,"y":2560234.8300000038}},{"attributes":{"ID":168340,"DIS_CODE":0,"TOWNNAME":"歸仁區","LI":"武東里","LIN":"12鄰","STREET":" ","SECT":" ","MAREA":"明德新村","LANE":" ","ALLEY":" ","HOUSE_NO":"５４號","E_COORD97":175140.39000000001,"N_COORD97":2536161.27,"ADDRESS":"明德新村５４號","OBJECTID":168339},"geometry":{"x":175140.3900000006,"y":2536161.2700000014}},{"attributes":{"ID":168341,"DIS_CODE":0,"TOWNNAME":"歸仁區","LI":"武東里","LIN":"12鄰","STREET":" ","SECT":" ","MAREA":"明德新村","LANE":" ","ALLEY":" ","HOUSE_NO":"５０號","E_COORD97":175169.09,"N_COORD97":2536158.27,"ADDRESS":"明德新村５０號","OBJECTID":168340},"geometry":{"x":175169.08999999985,"y":2536158.2699999996}},{"attributes":{"ID":168342,"DIS_CODE":0,"TOWNNAME":"歸仁區","LI":"武東里","LIN":"12鄰","STREET":" ","SECT":" ","MAREA":"明德新村","LANE":" ","ALLEY":" ","HOUSE_NO":"４８號","E_COORD97":175183.39000000001,"N_COORD97":2536157.27,"ADDRESS":"明德新村４８號","OBJECTID":168341},"geometry":{"x":175183.3900000006,"y":2536157.2700000014}},{"attributes":{"ID":168343,"DIS_CODE":0,"TOWNNAME":"歸仁區","LI":"武東里","LIN":"12鄰","STREET":" ","SECT":" ","MAREA":"明德新村","LANE":" ","ALLEY":" ","HOUSE_NO":"１４４號","E_COORD97":175160.94,"N_COORD97":2536123.27,"ADDRESS":"明德新村１４４號","OBJECTID":168342},"geometry":{"x":175160.93999999948,"y":2536123.2700000014}},{"attributes":{"ID":168344,"DIS_CODE":0,"TOWNNAME":"歸仁區","LI":"武東里","LIN":"12鄰","STREET":" ","SECT":" ","MAREA":"明德新村","LANE":" ","ALLEY":" ","HOUSE_NO":"１４３號","E_COORD97":175167.04000000001,"N_COORD97":2536123.27,"ADDRESS":"明德新村１４３號","OBJECTID":168343},"geometry":{"x":175167.04000000097,"y":2536123.2700000014}},{"attributes":{"ID":168345,"DIS_CODE":0,"TOWNNAME":"歸仁區","LI":"武東里","LIN":"12鄰","STREET":" ","SECT":" ","MAREA":"明德新村","LANE":" ","ALLEY":" ","HOUSE_NO":"９５號","E_COORD97":175195.59,"N_COORD97":2536141.27,"ADDRESS":"明德新村９５號","OBJECTID":168344},"geometry":{"x":175195.59000000078,"y":2536141.2699999996}},{"attributes":{"ID":168346,"DIS_CODE":0,"TOWNNAME":"歸仁區","LI":"武東里","LIN":"12鄰","STREET":" ","SECT":" ","MAREA":"明德新村","LANE":" ","ALLEY":" ","HOUSE_NO":"４４號","E_COORD97":175215.19,"N_COORD97":2536153.27,"ADDRESS":"明德新村４４號","OBJECTID":168345},"geometry":{"x":175215.18999999948,"y":2536153.2700000014}},{"attributes":{"ID":168347,"DIS_CODE":0,"TOWNNAME":"歸仁區","LI":"武東里","LIN":"12鄰","STREET":" ","SECT":" ","MAREA":"明德新村","LANE":" ","ALLEY":" ","HOUSE_NO":"８８號","E_COORD97":175248.98999999999,"N_COORD97":2536134.27,"ADDRESS":"明德新村８８號","OBJECTID":168346},"geometry":{"x":175248.99000000115,"y":2536134.2699999996}},{"attributes":{"ID":168348,"DIS_CODE":0,"TOWNNAME":"歸仁區","LI":"武東里","LIN":"12鄰","STREET":" ","SECT":" ","MAREA":"明德新村","LANE":" ","ALLEY":" ","HOUSE_NO":"１９１號","E_COORD97":175137.23999999999,"N_COORD97":2536110.27,"ADDRESS":"明德新村１９１號","OBJECTID":168347},"geometry":{"x":175137.24000000115,"y":2536110.2700000014}},{"attributes":{"ID":168349,"DIS_CODE":0,"TOWNNAME":"歸仁區","LI":"武東里","LIN":"12鄰","STREET":" ","SECT":" ","MAREA":"明德新村","LANE":" ","ALLEY":" ","HOUSE_NO":"１８８號","E_COORD97":175159.84,"N_COORD97":2536107.27,"ADDRESS":"明德新村１８８號","OBJECTID":168348},"geometry":{"x":175159.84000000078,"y":2536107.2699999996}},{"attributes":{"ID":168350,"DIS_CODE":0,"TOWNNAME":"歸仁區","LI":"武東里","LIN":"12鄰","STREET":" ","SECT":" ","MAREA":"明德新村","LANE":" ","ALLEY":" ","HOUSE_NO":"５２號","E_COORD97":175157.79000000001,"N_COORD97":2536160.27,"ADDRESS":"明德新村５２號","OBJECTID":168349},"geometry":{"x":175157.79000000004,"y":2536160.2700000014}},{"attributes":{"ID":168351,"DIS_CODE":0,"TOWNNAME":"七股區","LI":"玉成里","LIN":"13鄰","STREET":" ","SECT":" ","MAREA":"玉成","LANE":" ","ALLEY":" ","HOUSE_NO":"１４３號","E_COORD97":161933.57999999999,"N_COORD97":2560237.3300000001,"ADDRESS":"玉成１４３號","OBJECTID":168350},"geometry":{"x":161933.58000000007,"y":2560237.3300000001}},{"attributes":{"ID":168352,"DIS_CODE":0,"TOWNNAME":"七股區","LI":"玉成里","LIN":"13鄰","STREET":" ","SECT":" ","MAREA":"玉成","LANE":" ","ALLEY":" ","HOUSE_NO":"１４４號之１","E_COORD97":161926.19,"N_COORD97":2560243.7400000002,"ADDRESS":"玉成１４４號之１","OBJECTID":168351},"geometry":{"x":161926.19000000041,"y":2560243.7400000021}},{"attributes":{"ID":168353,"DIS_CODE":0,"TOWNNAME":"七股區","LI":"玉成里","LIN":"13鄰","STREET":" ","SECT":" ","MAREA":"玉成","LANE":" ","ALLEY":" ","HOUSE_NO":"１４４號之２","E_COORD97":161923.26000000001,"N_COORD97":2560246.9900000002,"ADDRESS":"玉成１４４號之２","OBJECTID":168352},"geometry":{"x":161923.25999999978,"y":2560246.9900000002}},{"attributes":{"ID":168354,"DIS_CODE":0,"TOWNNAME":"七股區","LI":"玉成里","LIN":"13鄰","STREET":" ","SECT":" ","MAREA":"玉成","LANE":" ","ALLEY":" ","HOUSE_NO":"１４４號之３","E_COORD97":161920.32000000001,"N_COORD97":2560250.2400000002,"ADDRESS":"玉成１４４號之３","OBJECTID":168353},"geometry":{"x":161920.3200000003,"y":2560250.2400000021}},{"attributes":{"ID":168355,"DIS_CODE":0,"TOWNNAME":"東區","LI":"崇善里","LIN":"24鄰","STREET":"崇善十二街","SECT":" ","MAREA":" ","LANE":"６巷","ALLEY":"１５弄","HOUSE_NO":"６號","E_COORD97":171269.33380299999,"N_COORD97":2541047.2525900002,"ADDRESS":"崇善十二街６巷１５弄６號","OBJECTID":168354},"geometry":{"x":171269.33380299993,"y":2541047.2525859997}},{"attributes":{"ID":168356,"DIS_CODE":0,"TOWNNAME":"七股區","LI":"玉成里","LIN":"13鄰","STREET":" ","SECT":" ","MAREA":"玉成","LANE":" ","ALLEY":" ","HOUSE_NO":"１４４號之４","E_COORD97":161917.39000000001,"N_COORD97":2560253.4900000002,"ADDRESS":"玉成１４４號之４","OBJECTID":168355},"geometry":{"x":161917.38999999966,"y":2560253.4900000002}},{"attributes":{"ID":168357,"DIS_CODE":0,"TOWNNAME":"七股區","LI":"玉成里","LIN":"13鄰","STREET":" ","SECT":" ","MAREA":"玉成","LANE":" ","ALLEY":" ","HOUSE_NO":"１４４號之５","E_COORD97":161914.45999999999,"N_COORD97":2560256.73,"ADDRESS":"玉成１４４號之５","OBJECTID":168356},"geometry":{"x":161914.46000000089,"y":2560256.7300000023}},{"attributes":{"ID":168358,"DIS_CODE":0,"TOWNNAME":"東區","LI":"崇善里","LIN":"24鄰","STREET":"崇善十二街","SECT":" ","MAREA":" ","LANE":"６巷","ALLEY":"１５弄","HOUSE_NO":"１８號","E_COORD97":171290.39999999999,"N_COORD97":2541061.9900000002,"ADDRESS":"崇善十二街６巷１５弄１８號","OBJECTID":168357},"geometry":{"x":171290.40000000037,"y":2541061.9900000021}},{"attributes":{"ID":168359,"DIS_CODE":0,"TOWNNAME":"七股區","LI":"玉成里","LIN":"13鄰","STREET":" ","SECT":" ","MAREA":"玉成","LANE":" ","ALLEY":" ","HOUSE_NO":"１４５號之２","E_COORD97":161935.10000000001,"N_COORD97":2560258.0299999998,"ADDRESS":"玉成１４５號之２","OBJECTID":168358},"geometry":{"x":161935.10000000056,"y":2560258.0300000012}},{"attributes":{"ID":168360,"DIS_CODE":0,"TOWNNAME":"東區","LI":"大智里","LIN":"17鄰","STREET":"德東街","SECT":" ","MAREA":" ","LANE":"１５１巷","ALLEY":"３７弄","HOUSE_NO":"１號","E_COORD97":171166.64999999999,"N_COORD97":2540359.71,"ADDRESS":"德東街１５１巷３７弄１號","OBJECTID":168359},"geometry":{"x":171166.65000000037,"y":2540359.7100000028}},{"attributes":{"ID":168361,"DIS_CODE":0,"TOWNNAME":"七股區","LI":"玉成里","LIN":"13鄰","STREET":" ","SECT":" ","MAREA":"玉成","LANE":" ","ALLEY":" ","HOUSE_NO":"１４５號之３","E_COORD97":161932.23000000001,"N_COORD97":2560261.1699999999,"ADDRESS":"玉成１４５號之３","OBJECTID":168360},"geometry":{"x":161932.23000000138,"y":2560261.1700000018}},{"attributes":{"ID":168362,"DIS_CODE":0,"TOWNNAME":"七股區","LI":"玉成里","LIN":"13鄰","STREET":" ","SECT":" ","MAREA":"玉成","LANE":" ","ALLEY":" ","HOUSE_NO":"１４５號之４","E_COORD97":161929.35000000001,"N_COORD97":2560264.3100000001,"ADDRESS":"玉成１４５號之４","OBJECTID":168361},"geometry":{"x":161929.34999999963,"y":2560264.3100000005}},{"attributes":{"ID":168363,"DIS_CODE":0,"TOWNNAME":"七股區","LI":"玉成里","LIN":"13鄰","STREET":" ","SECT":" ","MAREA":"玉成","LANE":" ","ALLEY":" ","HOUSE_NO":"１４５號之５","E_COORD97":161926.48000000001,"N_COORD97":2560267.4500000002,"ADDRESS":"玉成１４５號之５","OBJECTID":168362},"geometry":{"x":161926.48000000231,"y":2560267.4500000011}},{"attributes":{"ID":168364,"DIS_CODE":0,"TOWNNAME":"七股區","LI":"玉成里","LIN":"13鄰","STREET":" ","SECT":" ","MAREA":"玉成","LANE":" ","ALLEY":" ","HOUSE_NO":"１４５號","E_COORD97":161943.66,"N_COORD97":2560246.73,"ADDRESS":"玉成１４５號","OBJECTID":168363},"geometry":{"x":161943.66000000201,"y":2560246.7300000023}},{"attributes":{"ID":168365,"DIS_CODE":0,"TOWNNAME":"七股區","LI":"玉成里","LIN":"13鄰","STREET":" ","SECT":" ","MAREA":"玉成","LANE":" ","ALLEY":" ","HOUSE_NO":"１４６號","E_COORD97":161947.01999999999,"N_COORD97":2560249.0899999999,"ADDRESS":"玉成１４６號","OBJECTID":168364},"geometry":{"x":161947.01999999955,"y":2560249.0899999999}},{"attributes":{"ID":168366,"DIS_CODE":0,"TOWNNAME":"歸仁區","LI":"武東里","LIN":"12鄰","STREET":" ","SECT":" ","MAREA":"明德新村","LANE":" ","ALLEY":" ","HOUSE_NO":"９９號","E_COORD97":175167.98999999999,"N_COORD97":2536143.27,"ADDRESS":"明德新村９９號","OBJECTID":168365},"geometry":{"x":175167.99000000115,"y":2536143.2700000014}},{"attributes":{"ID":168367,"DIS_CODE":0,"TOWNNAME":"歸仁區","LI":"武東里","LIN":"12鄰","STREET":" ","SECT":" ","MAREA":"明德新村","LANE":" ","ALLEY":" ","HOUSE_NO":"２７號","E_COORD97":175334.09,"N_COORD97":2536142.27,"ADDRESS":"明德新村２７號","OBJECTID":168366},"geometry":{"x":175334.09000000171,"y":2536142.2699999996}},{"attributes":{"ID":168368,"DIS_CODE":0,"TOWNNAME":"仁德區","LI":"仁義里","LIN":"38鄰","STREET":"仁義五街","SECT":" ","MAREA":" ","LANE":"２４巷","ALLEY":"２弄","HOUSE_NO":"２１號","E_COORD97":173510.63,"N_COORD97":2540382.5800000001,"ADDRESS":"仁義五街２４巷２弄２１號","OBJECTID":168367},"geometry":{"x":173510.62999999989,"y":2540382.5800000038}},{"attributes":{"ID":168369,"DIS_CODE":0,"TOWNNAME":"歸仁區","LI":"武東里","LIN":"12鄰","STREET":" ","SECT":" ","MAREA":"明德新村","LANE":" ","ALLEY":" ","HOUSE_NO":"１６５號","E_COORD97":175014.23999999999,"N_COORD97":2536124.27,"ADDRESS":"明德新村１６５號","OBJECTID":168368},"geometry":{"x":175014.24000000022,"y":2536124.2699999996}},{"attributes":{"ID":168370,"DIS_CODE":0,"TOWNNAME":"歸仁區","LI":"武東里","LIN":"12鄰","STREET":" ","SECT":" ","MAREA":"明德新村","LANE":" ","ALLEY":" ","HOUSE_NO":"５６號","E_COORD97":175130.09,"N_COORD97":2536163.27,"ADDRESS":"明德新村５６號","OBJECTID":168369},"geometry":{"x":175130.08999999985,"y":2536163.2700000033}},{"attributes":{"ID":168371,"DIS_CODE":0,"TOWNNAME":"仁德區","LI":"太子里","LIN":"25鄰","STREET":"長興五街","SECT":" ","MAREA":" ","LANE":"１４巷","ALLEY":"９弄","HOUSE_NO":"９號","E_COORD97":173630.59707700001,"N_COORD97":2543633.7411799999,"ADDRESS":"長興五街１４巷９弄９號","OBJECTID":168370},"geometry":{"x":173630.59707700089,"y":2543633.7411829997}},{"attributes":{"ID":168372,"DIS_CODE":0,"TOWNNAME":"仁德區","LI":"仁德里","LIN":"18鄰","STREET":"文華路","SECT":"三段","MAREA":" ","LANE":"１８９巷","ALLEY":"２７弄","HOUSE_NO":"２號","E_COORD97":172157.14999999999,"N_COORD97":2540436.0800000001,"ADDRESS":"文華路三段１８９巷２７弄２號","OBJECTID":168371},"geometry":{"x":172157.15000000037,"y":2540436.0800000001}},{"attributes":{"ID":168373,"DIS_CODE":0,"TOWNNAME":"歸仁區","LI":"武東里","LIN":"12鄰","STREET":" ","SECT":" ","MAREA":"明德新村","LANE":" ","ALLEY":" ","HOUSE_NO":"１４５號","E_COORD97":175154.73999999999,"N_COORD97":2536123.27,"ADDRESS":"明德新村１４５號","OBJECTID":168372},"geometry":{"x":175154.74000000022,"y":2536123.2700000014}},{"attributes":{"ID":168374,"DIS_CODE":0,"TOWNNAME":"歸仁區","LI":"武東里","LIN":"12鄰","STREET":" ","SECT":" ","MAREA":"明德新村","LANE":" ","ALLEY":" ","HOUSE_NO":"８４號","E_COORD97":175277.69,"N_COORD97":2536131.27,"ADDRESS":"明德新村８４號","OBJECTID":168373},"geometry":{"x":175277.69000000041,"y":2536131.2699999996}},{"attributes":{"ID":168375,"DIS_CODE":0,"TOWNNAME":"仁德區","LI":"保安里","LIN":"4鄰","STREET":"文賢路","SECT":"一段","MAREA":" ","LANE":"８６２巷","ALLEY":"７弄","HOUSE_NO":"４號","E_COORD97":171519.09,"N_COORD97":2536041.0699999998,"ADDRESS":"文賢路一段８６２巷７弄４號","OBJECTID":168374},"geometry":{"x":171519.08999999985,"y":2536041.0700000022}},{"attributes":{"ID":168376,"DIS_CODE":0,"TOWNNAME":"歸仁區","LI":"武東里","LIN":"12鄰","STREET":" ","SECT":" ","MAREA":"明德新村","LANE":" ","ALLEY":" ","HOUSE_NO":"１６６號","E_COORD97":175009.14000000001,"N_COORD97":2536125.27,"ADDRESS":"明德新村１６６號","OBJECTID":168375},"geometry":{"x":175009.13999999966,"y":2536125.2699999996}},{"attributes":{"ID":168377,"DIS_CODE":0,"TOWNNAME":"歸仁區","LI":"武東里","LIN":"12鄰","STREET":" ","SECT":" ","MAREA":"明德新村","LANE":" ","ALLEY":" ","HOUSE_NO":"４１號","E_COORD97":175238.79000000001,"N_COORD97":2536150.27,"ADDRESS":"明德新村４１號","OBJECTID":168376},"geometry":{"x":175238.79000000004,"y":2536150.2700000014}},{"attributes":{"ID":168378,"DIS_CODE":0,"TOWNNAME":"歸仁區","LI":"武東里","LIN":"12鄰","STREET":" ","SECT":" ","MAREA":"明德新村","LANE":" ","ALLEY":" ","HOUSE_NO":"１３２號","E_COORD97":175247.04000000001,"N_COORD97":2536118.27,"ADDRESS":"明德新村１３２號","OBJECTID":168377},"geometry":{"x":175247.04000000097,"y":2536118.2699999996}},{"attributes":{"ID":168379,"DIS_CODE":0,"TOWNNAME":"歸仁區","LI":"武東里","LIN":"12鄰","STREET":" ","SECT":" ","MAREA":"明德新村","LANE":" ","ALLEY":" ","HOUSE_NO":"１３３號","E_COORD97":175240.84,"N_COORD97":2536118.27,"ADDRESS":"明德新村１３３號","OBJECTID":168378},"geometry":{"x":175240.84000000171,"y":2536118.2699999996}},{"attributes":{"ID":168380,"DIS_CODE":0,"TOWNNAME":"仁德區","LI":"後壁里","LIN":"20鄰","STREET":"中正路","SECT":"二段","MAREA":" ","LANE":"１０６巷","ALLEY":"１弄","HOUSE_NO":"１０號","E_COORD97":173231.06,"N_COORD97":2538529.1299999999,"ADDRESS":"中正路二段１０６巷１弄１０號","OBJECTID":168379},"geometry":{"x":173231.06000000052,"y":2538529.129999999}},{"attributes":{"ID":168381,"DIS_CODE":0,"TOWNNAME":"歸仁區","LI":"武東里","LIN":"12鄰","STREET":" ","SECT":" ","MAREA":"明德新村","LANE":" ","ALLEY":" ","HOUSE_NO":"１９０號","E_COORD97":175147.54000000001,"N_COORD97":2536109.27,"ADDRESS":"明德新村１９０號","OBJECTID":168380},"geometry":{"x":175147.54000000004,"y":2536109.2700000014}},{"attributes":{"ID":168382,"DIS_CODE":0,"TOWNNAME":"歸仁區","LI":"武東里","LIN":"12鄰","STREET":" ","SECT":" ","MAREA":"明德新村","LANE":" ","ALLEY":" ","HOUSE_NO":"１００號","E_COORD97":175163.04000000001,"N_COORD97":2536143.27,"ADDRESS":"明德新村１００號","OBJECTID":168381},"geometry":{"x":175163.04000000004,"y":2536143.2700000014}},{"attributes":{"ID":168383,"DIS_CODE":0,"TOWNNAME":"歸仁區","LI":"武東里","LIN":"12鄰","STREET":" ","SECT":" ","MAREA":"明德新村","LANE":" ","ALLEY":" ","HOUSE_NO":"１６８號","E_COORD97":174991.64000000001,"N_COORD97":2536128.27,"ADDRESS":"明德新村１６８號","OBJECTID":168382},"geometry":{"x":174991.6400000006,"y":2536128.2699999996}},{"attributes":{"ID":168384,"DIS_CODE":0,"TOWNNAME":"歸仁區","LI":"武東里","LIN":"12鄰","STREET":" ","SECT":" ","MAREA":"明德新村","LANE":" ","ALLEY":" ","HOUSE_NO":"５１號","E_COORD97":175163.89000000001,"N_COORD97":2536159.27,"ADDRESS":"明德新村５１號","OBJECTID":168383},"geometry":{"x":175163.88999999873,"y":2536159.2699999996}},{"attributes":{"ID":168385,"DIS_CODE":0,"TOWNNAME":"歸仁區","LI":"武東里","LIN":"12鄰","STREET":" ","SECT":" ","MAREA":"明德新村","LANE":" ","ALLEY":" ","HOUSE_NO":"１９４號","E_COORD97":175120.84,"N_COORD97":2536111.27,"ADDRESS":"明德新村１９４號","OBJECTID":168384},"geometry":{"x":175120.84000000078,"y":2536111.2699999996}},{"attributes":{"ID":168386,"DIS_CODE":0,"TOWNNAME":"歸仁區","LI":"武東里","LIN":"12鄰","STREET":" ","SECT":" ","MAREA":"明德新村","LANE":" ","ALLEY":" ","HOUSE_NO":"１６９號","E_COORD97":174986.54000000001,"N_COORD97":2536128.27,"ADDRESS":"明德新村１６９號","OBJECTID":168385},"geometry":{"x":174986.54000000004,"y":2536128.2699999996}},{"attributes":{"ID":168387,"DIS_CODE":0,"TOWNNAME":"仁德區","LI":"太子里","LIN":"25鄰","STREET":"長興五街","SECT":" ","MAREA":" ","LANE":"１４巷","ALLEY":"９弄","HOUSE_NO":"１９號","E_COORD97":173652.40959200001,"N_COORD97":2543634.2703499999,"ADDRESS":"長興五街１４巷９弄１９號","OBJECTID":168386},"geometry":{"x":173652.40959200077,"y":2543634.2703489996}},{"attributes":{"ID":168388,"DIS_CODE":0,"TOWNNAME":"歸仁區","LI":"武東里","LIN":"12鄰","STREET":" ","SECT":" ","MAREA":"明德新村","LANE":" ","ALLEY":" ","HOUSE_NO":"１３號","E_COORD97":175163.09,"N_COORD97":2536192.27,"ADDRESS":"明德新村１３號","OBJECTID":168387},"geometry":{"x":175163.09000000078,"y":2536192.2699999996}},{"attributes":{"ID":168389,"DIS_CODE":0,"TOWNNAME":"歸仁區","LI":"武東里","LIN":"12鄰","STREET":" ","SECT":" ","MAREA":"明德新村","LANE":" ","ALLEY":" ","HOUSE_NO":"９７號","E_COORD97":175183.29000000001,"N_COORD97":2536142.27,"ADDRESS":"明德新村９７號","OBJECTID":168388},"geometry":{"x":175183.29000000004,"y":2536142.2699999996}},{"attributes":{"ID":168390,"DIS_CODE":0,"TOWNNAME":"歸仁區","LI":"武東里","LIN":"12鄰","STREET":" ","SECT":" ","MAREA":"明德新村","LANE":" ","ALLEY":" ","HOUSE_NO":"９８號","E_COORD97":175177.19,"N_COORD97":2536142.27,"ADDRESS":"明德新村９８號","OBJECTID":168389},"geometry":{"x":175177.19000000041,"y":2536142.2699999996}},{"attributes":{"ID":168391,"DIS_CODE":0,"TOWNNAME":"歸仁區","LI":"武東里","LIN":"12鄰","STREET":" ","SECT":" ","MAREA":"明德新村","LANE":" ","ALLEY":" ","HOUSE_NO":"９０號","E_COORD97":175237.69,"N_COORD97":2536135.27,"ADDRESS":"明德新村９０號","OBJECTID":168390},"geometry":{"x":175237.69000000134,"y":2536135.2699999996}},{"attributes":{"ID":168392,"DIS_CODE":0,"TOWNNAME":"歸仁區","LI":"武東里","LIN":"12鄰","STREET":" ","SECT":" ","MAREA":"明德新村","LANE":" ","ALLEY":" ","HOUSE_NO":"４７號","E_COORD97":175189.59,"N_COORD97":2536156.27,"ADDRESS":"明德新村４７號","OBJECTID":168391},"geometry":{"x":175189.58999999985,"y":2536156.2700000033}},{"attributes":{"ID":168393,"DIS_CODE":0,"TOWNNAME":"歸仁區","LI":"武東里","LIN":"12鄰","STREET":" ","SECT":" ","MAREA":"明德新村","LANE":" ","ALLEY":" ","HOUSE_NO":"９號","E_COORD97":175200.73999999999,"N_COORD97":2536186.27,"ADDRESS":"明德新村９號","OBJECTID":168392},"geometry":{"x":175200.74000000022,"y":2536186.2699999996}},{"attributes":{"ID":168394,"DIS_CODE":0,"TOWNNAME":"歸仁區","LI":"武東里","LIN":"12鄰","STREET":" ","SECT":" ","MAREA":"明德新村","LANE":" ","ALLEY":" ","HOUSE_NO":"５５號","E_COORD97":175135.19,"N_COORD97":2536162.27,"ADDRESS":"明德新村５５號","OBJECTID":168393},"geometry":{"x":175135.19000000041,"y":2536162.2699999996}},{"attributes":{"ID":168395,"DIS_CODE":0,"TOWNNAME":"歸仁區","LI":"武東里","LIN":"12鄰","STREET":" ","SECT":" ","MAREA":"明德新村","LANE":" ","ALLEY":" ","HOUSE_NO":"８５號","E_COORD97":175271.48999999999,"N_COORD97":2536131.27,"ADDRESS":"明德新村８５號","OBJECTID":168394},"geometry":{"x":175271.49000000115,"y":2536131.2699999996}},{"attributes":{"ID":168396,"DIS_CODE":0,"TOWNNAME":"歸仁區","LI":"武東里","LIN":"12鄰","STREET":" ","SECT":" ","MAREA":"明德新村","LANE":" ","ALLEY":" ","HOUSE_NO":"１３１號","E_COORD97":175253.14000000001,"N_COORD97":2536117.27,"ADDRESS":"明德新村１３１號","OBJECTID":168395},"geometry":{"x":175253.13999999966,"y":2536117.2700000014}},{"attributes":{"ID":168397,"DIS_CODE":0,"TOWNNAME":"麻豆區","LI":"磚井里","LIN":"13鄰","STREET":" ","SECT":" ","MAREA":"磚子井","LANE":" ","ALLEY":" ","HOUSE_NO":"１３２號","E_COORD97":172827.97,"N_COORD97":2563247.2400000002,"ADDRESS":"磚子井１３２號","OBJECTID":168396},"geometry":{"x":172827.97000000067,"y":2563247.2400000021}},{"attributes":{"ID":168398,"DIS_CODE":0,"TOWNNAME":"仁德區","LI":"後壁里","LIN":"43鄰","STREET":"德崙路","SECT":" ","MAREA":" ","LANE":"２１巷","ALLEY":"１０弄","HOUSE_NO":"１２號","E_COORD97":173313.01999999999,"N_COORD97":2538633.8999999999,"ADDRESS":"德崙路２１巷１０弄１２號","OBJECTID":168397},"geometry":{"x":173313.01999999955,"y":2538633.9000000004}},{"attributes":{"ID":168399,"DIS_CODE":0,"TOWNNAME":"歸仁區","LI":"武東里","LIN":"12鄰","STREET":" ","SECT":" ","MAREA":"明德新村","LANE":" ","ALLEY":" ","HOUSE_NO":"１９２號","E_COORD97":175131.04000000001,"N_COORD97":2536110.27,"ADDRESS":"明德新村１９２號","OBJECTID":168398},"geometry":{"x":175131.03999999911,"y":2536110.2700000014}},{"attributes":{"ID":168400,"DIS_CODE":0,"TOWNNAME":"歸仁區","LI":"武東里","LIN":"12鄰","STREET":" ","SECT":" ","MAREA":"明德新村","LANE":" ","ALLEY":" ","HOUSE_NO":"３２號","E_COORD97":175301.29000000001,"N_COORD97":2536146.27,"ADDRESS":"明德新村３２號","OBJECTID":168399},"geometry":{"x":175301.29000000097,"y":2536146.2700000033}},{"attributes":{"ID":168401,"DIS_CODE":0,"TOWNNAME":"歸仁區","LI":"武東里","LIN":"12鄰","STREET":" ","SECT":" ","MAREA":"明德新村","LANE":" ","ALLEY":" ","HOUSE_NO":"６號","E_COORD97":175224.34,"N_COORD97":2536184.27,"ADDRESS":"明德新村６號","OBJECTID":168400},"geometry":{"x":175224.34000000078,"y":2536184.2700000014}}]}