{"displayFieldName":"TOWNNAME","fieldAliases":{"ID":"ID","DIS_CODE":"DIS_CODE","TOWNNAME":"TOWNNAME","LI":"LI","LIN":"LIN","STREET":"STREET","SECT":"SECT","MAREA":"MAREA","LANE":"LANE","ALLEY":"ALLEY","HOUSE_NO":"HOUSE_NO","E_COORD97":"E_COORD97","N_COORD97":"N_COORD97","ADDRESS":"ADDRESS","OBJECTID":"OBJECTID"},"geometryType":"esriGeometryPoint","spatialReference":{"wkid":102443,"latestWkid":3826},"fields":[{"name":"ID","type":"esriFieldTypeDouble","alias":"ID"},{"name":"DIS_CODE","type":"esriFieldTypeInteger","alias":"DIS_CODE"},{"name":"TOWNNAME","type":"esriFieldTypeString","alias":"TOWNNAME","length":8},{"name":"LI","type":"esriFieldTypeString","alias":"LI","length":8},{"name":"LIN","type":"esriFieldTypeString","alias":"LIN","length":12},{"name":"STREET","type":"esriFieldTypeString","alias":"STREET","length":20},{"name":"SECT","type":"esriFieldTypeString","alias":"SECT","length":8},{"name":"MAREA","type":"esriFieldTypeString","alias":"MAREA","length":12},{"name":"LANE","type":"esriFieldTypeString","alias":"LANE","length":10},{"name":"ALLEY","type":"esriFieldTypeString","alias":"ALLEY","length":10},{"name":"HOUSE_NO","type":"esriFieldTypeString","alias":"HOUSE_NO","length":20},{"name":"E_COORD97","type":"esriFieldTypeDouble","alias":"E_COORD97"},{"name":"N_COORD97","type":"esriFieldTypeDouble","alias":"N_COORD97"},{"name":"ADDRESS","type":"esriFieldTypeString","alias":"ADDRESS","length":50},{"name":"OBJECTID","type":"esriFieldTypeOID","alias":"OBJECTID"}],"features":[{"attributes":{"ID":571828,"DIS_CODE":0,"TOWNNAME":"新市區","LI":"新和里","LIN":"29鄰","STREET":"光華街","SECT":" ","MAREA":" ","LANE":" ","ALLEY":" ","HOUSE_NO":"１７０之３號","E_COORD97":177867.14000000001,"N_COORD97":2552929.5499999998,"ADDRESS":"光華街１７０之３號","OBJECTID":571801},"geometry":{"x":177867.13999999966,"y":2552929.5500000007}},{"attributes":{"ID":571829,"DIS_CODE":0,"TOWNNAME":"新市區","LI":"新和里","LIN":"29鄰","STREET":"光華街","SECT":" ","MAREA":" ","LANE":" ","ALLEY":" ","HOUSE_NO":"１９０號","E_COORD97":177852.92000000001,"N_COORD97":2552967.5,"ADDRESS":"光華街１９０號","OBJECTID":571802},"geometry":{"x":177852.92000000086,"y":2552967.5}},{"attributes":{"ID":571830,"DIS_CODE":0,"TOWNNAME":"新市區","LI":"新和里","LIN":"29鄰","STREET":"光華街","SECT":" ","MAREA":" ","LANE":" ","ALLEY":" ","HOUSE_NO":"１９８號","E_COORD97":177847.20999999999,"N_COORD97":2552987,"ADDRESS":"光華街１９８號","OBJECTID":571803},"geometry":{"x":177847.20999999903,"y":2552987}},{"attributes":{"ID":571831,"DIS_CODE":0,"TOWNNAME":"新市區","LI":"新和里","LIN":"29鄰","STREET":"光華街","SECT":" ","MAREA":" ","LANE":" ","ALLEY":" ","HOUSE_NO":"１７０之１號","E_COORD97":177866.56,"N_COORD97":2552923.2999999998,"ADDRESS":"光華街１７０之１號","OBJECTID":571804},"geometry":{"x":177866.56000000145,"y":2552923.3000000026}},{"attributes":{"ID":571832,"DIS_CODE":0,"TOWNNAME":"永康區","LI":"東灣里","LIN":"29鄰","STREET":"民族路","SECT":" ","MAREA":" ","LANE":" ","ALLEY":" ","HOUSE_NO":"２６９號","E_COORD97":175126.42999999999,"N_COORD97":2545039.9500000002,"ADDRESS":"民族路２６９號","OBJECTID":571805},"geometry":{"x":175126.43000000156,"y":2545039.9499999993}},{"attributes":{"ID":571833,"DIS_CODE":0,"TOWNNAME":"永康區","LI":"東灣里","LIN":"29鄰","STREET":"民族路","SECT":" ","MAREA":" ","LANE":" ","ALLEY":" ","HOUSE_NO":"２５３號","E_COORD97":175150,"N_COORD97":2545012.9500000002,"ADDRESS":"民族路２５３號","OBJECTID":571806},"geometry":{"x":175150.00000000186,"y":2545012.9499999993}},{"attributes":{"ID":571834,"DIS_CODE":0,"TOWNNAME":"永康區","LI":"東灣里","LIN":"29鄰","STREET":"民族路","SECT":" ","MAREA":" ","LANE":" ","ALLEY":" ","HOUSE_NO":"２３９號","E_COORD97":175169.26999999999,"N_COORD97":2544989.96,"ADDRESS":"民族路２３９號","OBJECTID":571807},"geometry":{"x":175169.26999999955,"y":2544989.9600000028}},{"attributes":{"ID":571835,"DIS_CODE":0,"TOWNNAME":"永康區","LI":"東灣里","LIN":"29鄰","STREET":"民族路","SECT":" ","MAREA":" ","LANE":" ","ALLEY":" ","HOUSE_NO":"２４９號","E_COORD97":175155.35999999999,"N_COORD97":2545006.4500000002,"ADDRESS":"民族路２４９號","OBJECTID":571808},"geometry":{"x":175155.36000000127,"y":2545006.4499999993}},{"attributes":{"ID":571836,"DIS_CODE":0,"TOWNNAME":"永康區","LI":"東灣里","LIN":"29鄰","STREET":"民族路","SECT":" ","MAREA":" ","LANE":" ","ALLEY":" ","HOUSE_NO":"２３３號","E_COORD97":175179.48000000001,"N_COORD97":2544976.8300000001,"ADDRESS":"民族路２３３號","OBJECTID":571809},"geometry":{"x":175179.48000000231,"y":2544976.8300000001}},{"attributes":{"ID":571837,"DIS_CODE":0,"TOWNNAME":"永康區","LI":"尚頂里","LIN":"29鄰","STREET":"南台街","SECT":" ","MAREA":" ","LANE":" ","ALLEY":" ","HOUSE_NO":"９５號","E_COORD97":170179.94,"N_COORD97":2547014.0099999998,"ADDRESS":"南台街９５號","OBJECTID":571810},"geometry":{"x":170179.94000000041,"y":2547014.0099999979}},{"attributes":{"ID":571838,"DIS_CODE":0,"TOWNNAME":"永康區","LI":"尚頂里","LIN":"29鄰","STREET":"南台街","SECT":" ","MAREA":" ","LANE":" ","ALLEY":" ","HOUSE_NO":"１１３號","E_COORD97":170113.42999999999,"N_COORD97":2547033.8599999999,"ADDRESS":"南台街１１３號","OBJECTID":571811},"geometry":{"x":170113.4299999997,"y":2547033.8599999994}},{"attributes":{"ID":571839,"DIS_CODE":0,"TOWNNAME":"永康區","LI":"尚頂里","LIN":"29鄰","STREET":"中華路","SECT":" ","MAREA":" ","LANE":" ","ALLEY":" ","HOUSE_NO":"１０００號","E_COORD97":170194.95000000001,"N_COORD97":2546908.4900000002,"ADDRESS":"中華路１０００號","OBJECTID":571812},"geometry":{"x":170194.95000000019,"y":2546908.4900000002}},{"attributes":{"ID":571840,"DIS_CODE":0,"TOWNNAME":"永康區","LI":"南灣里","LIN":"29鄰","STREET":"大安街","SECT":" ","MAREA":" ","LANE":" ","ALLEY":" ","HOUSE_NO":"６２號","E_COORD97":174488.14999999999,"N_COORD97":2544892.5499999998,"ADDRESS":"大安街６２號","OBJECTID":571813},"geometry":{"x":174488.14999999944,"y":2544892.5500000045}},{"attributes":{"ID":571841,"DIS_CODE":0,"TOWNNAME":"永康區","LI":"南灣里","LIN":"29鄰","STREET":"南灣街","SECT":" ","MAREA":" ","LANE":" ","ALLEY":" ","HOUSE_NO":"４７號","E_COORD97":174514.92999999999,"N_COORD97":2544921.23,"ADDRESS":"南灣街４７號","OBJECTID":571814},"geometry":{"x":174514.93000000063,"y":2544921.2300000004}},{"attributes":{"ID":571842,"DIS_CODE":0,"TOWNNAME":"永康區","LI":"尚頂里","LIN":"29鄰","STREET":"中華路","SECT":" ","MAREA":" ","LANE":" ","ALLEY":" ","HOUSE_NO":"１０１０號","E_COORD97":170161.70999999999,"N_COORD97":2546930.75,"ADDRESS":"中華路１０１０號","OBJECTID":571815},"geometry":{"x":170161.71000000089,"y":2546930.75}},{"attributes":{"ID":571843,"DIS_CODE":0,"TOWNNAME":"永康區","LI":"尚頂里","LIN":"29鄰","STREET":"中華路","SECT":" ","MAREA":" ","LANE":" ","ALLEY":" ","HOUSE_NO":"９９６號","E_COORD97":170211.23999999999,"N_COORD97":2546896.7400000002,"ADDRESS":"中華路９９６號","OBJECTID":571816},"geometry":{"x":170211.24000000115,"y":2546896.7400000002}},{"attributes":{"ID":571844,"DIS_CODE":0,"TOWNNAME":"永康區","LI":"尚頂里","LIN":"29鄰","STREET":"南台街","SECT":" ","MAREA":" ","LANE":" ","ALLEY":" ","HOUSE_NO":"１２９號","E_COORD97":170033.32000000001,"N_COORD97":2547032,"ADDRESS":"南台街１２９號","OBJECTID":571817},"geometry":{"x":170033.3200000003,"y":2547032.0000000019}},{"attributes":{"ID":571845,"DIS_CODE":0,"TOWNNAME":"永康區","LI":"南灣里","LIN":"29鄰","STREET":"大安街","SECT":" ","MAREA":" ","LANE":" ","ALLEY":" ","HOUSE_NO":"３０號","E_COORD97":174449.56,"N_COORD97":2544808.1499999999,"ADDRESS":"大安街３０號","OBJECTID":571818},"geometry":{"x":174449.56000000052,"y":2544808.1500000022}},{"attributes":{"ID":571846,"DIS_CODE":0,"TOWNNAME":"永康區","LI":"尚頂里","LIN":"29鄰","STREET":"南台街","SECT":" ","MAREA":" ","LANE":" ","ALLEY":" ","HOUSE_NO":"１２５號","E_COORD97":170056.09,"N_COORD97":2547013.4900000002,"ADDRESS":"南台街１２５號","OBJECTID":571819},"geometry":{"x":170056.08999999985,"y":2547013.4900000002}},{"attributes":{"ID":571847,"DIS_CODE":0,"TOWNNAME":"永康區","LI":"甲頂里","LIN":"29鄰","STREET":"中華路","SECT":" ","MAREA":" ","LANE":" ","ALLEY":" ","HOUSE_NO":"１０５０號","E_COORD97":169441.79000000001,"N_COORD97":2547070.73,"ADDRESS":"中華路１０５０號","OBJECTID":571820},"geometry":{"x":169441.79000000004,"y":2547070.7300000004}},{"attributes":{"ID":571848,"DIS_CODE":0,"TOWNNAME":"安南區","LI":"\u25A0南里","LIN":"29鄰","STREET":"安昌街","SECT":" ","MAREA":" ","LANE":" ","ALLEY":" ","HOUSE_NO":"３０６號","E_COORD97":170177.63,"N_COORD97":2552784.6000000001,"ADDRESS":"安昌街３０６號","OBJECTID":571821},"geometry":{"x":170177.63000000082,"y":2552784.6000000015}},{"attributes":{"ID":571849,"DIS_CODE":0,"TOWNNAME":"官田區","LI":"隆本里","LIN":"29鄰","STREET":"中山路","SECT":"一段","MAREA":" ","LANE":" ","ALLEY":" ","HOUSE_NO":"２５０號","E_COORD97":179572.16,"N_COORD97":2565868.1000000001,"ADDRESS":"中山路一段２５０號","OBJECTID":571822},"geometry":{"x":179572.16000000108,"y":2565868.1000000015}},{"attributes":{"ID":571850,"DIS_CODE":0,"TOWNNAME":"官田區","LI":"隆本里","LIN":"29鄰","STREET":"中山路","SECT":"一段","MAREA":" ","LANE":" ","ALLEY":" ","HOUSE_NO":"２５８號","E_COORD97":179554.45000000001,"N_COORD97":2565869.4700000002,"ADDRESS":"中山路一段２５８號","OBJECTID":571823},"geometry":{"x":179554.45000000019,"y":2565869.4700000044}},{"attributes":{"ID":571851,"DIS_CODE":0,"TOWNNAME":"官田區","LI":"隆本里","LIN":"29鄰","STREET":"中山路","SECT":"一段","MAREA":" ","LANE":" ","ALLEY":" ","HOUSE_NO":"２６０號","E_COORD97":179550.73999999999,"N_COORD97":2565869.3999999999,"ADDRESS":"中山路一段２６０號","OBJECTID":571824},"geometry":{"x":179550.74000000022,"y":2565869.4000000041}},{"attributes":{"ID":571852,"DIS_CODE":0,"TOWNNAME":"官田區","LI":"隆本里","LIN":"29鄰","STREET":"中山路","SECT":"一段","MAREA":" ","LANE":" ","ALLEY":" ","HOUSE_NO":"２６２號","E_COORD97":179546.82000000001,"N_COORD97":2565869.2000000002,"ADDRESS":"中山路一段２６２號","OBJECTID":571825},"geometry":{"x":179546.8200000003,"y":2565869.1999999993}},{"attributes":{"ID":571853,"DIS_CODE":0,"TOWNNAME":"官田區","LI":"隆本里","LIN":"29鄰","STREET":"中山路","SECT":"一段","MAREA":" ","LANE":" ","ALLEY":" ","HOUSE_NO":"２６６號","E_COORD97":179541.95000000001,"N_COORD97":2565868.9100000001,"ADDRESS":"中山路一段２６６號","OBJECTID":571826},"geometry":{"x":179541.95000000019,"y":2565868.9100000001}},{"attributes":{"ID":571854,"DIS_CODE":0,"TOWNNAME":"官田區","LI":"隆本里","LIN":"29鄰","STREET":"中山路","SECT":"一段","MAREA":" ","LANE":" ","ALLEY":" ","HOUSE_NO":"２７０號","E_COORD97":179528.07000000001,"N_COORD97":2565883.6299999999,"ADDRESS":"中山路一段２７０號","OBJECTID":571827},"geometry":{"x":179528.0700000003,"y":2565883.6300000027}},{"attributes":{"ID":571855,"DIS_CODE":0,"TOWNNAME":"官田區","LI":"隆本里","LIN":"29鄰","STREET":"中山路","SECT":"一段","MAREA":" ","LANE":" ","ALLEY":" ","HOUSE_NO":"２８２號","E_COORD97":179513.82999999999,"N_COORD97":2565879.1899999999,"ADDRESS":"中山路一段２８２號","OBJECTID":571828},"geometry":{"x":179513.83000000007,"y":2565879.1899999995}},{"attributes":{"ID":571856,"DIS_CODE":0,"TOWNNAME":"官田區","LI":"隆本里","LIN":"29鄰","STREET":"中山路","SECT":"一段","MAREA":" ","LANE":" ","ALLEY":" ","HOUSE_NO":"２８６號","E_COORD97":179509.39999999999,"N_COORD97":2565879.75,"ADDRESS":"中山路一段２８６號","OBJECTID":571829},"geometry":{"x":179509.40000000224,"y":2565879.75}},{"attributes":{"ID":571857,"DIS_CODE":0,"TOWNNAME":"官田區","LI":"隆本里","LIN":"29鄰","STREET":"中山路","SECT":"一段","MAREA":" ","LANE":" ","ALLEY":" ","HOUSE_NO":"２８８號","E_COORD97":179504.85000000001,"N_COORD97":2565880.6600000001,"ADDRESS":"中山路一段２８８號","OBJECTID":571830},"geometry":{"x":179504.84999999963,"y":2565880.6600000001}},{"attributes":{"ID":571858,"DIS_CODE":0,"TOWNNAME":"官田區","LI":"隆本里","LIN":"29鄰","STREET":"中山路","SECT":"一段","MAREA":" ","LANE":" ","ALLEY":" ","HOUSE_NO":"２９０號","E_COORD97":179500.60000000001,"N_COORD97":2565881.6499999999,"ADDRESS":"中山路一段２９０號","OBJECTID":571831},"geometry":{"x":179500.60000000149,"y":2565881.6500000041}},{"attributes":{"ID":571859,"DIS_CODE":0,"TOWNNAME":"官田區","LI":"隆本里","LIN":"29鄰","STREET":"中山路","SECT":"一段","MAREA":" ","LANE":" ","ALLEY":" ","HOUSE_NO":"２９２號","E_COORD97":179491.20999999999,"N_COORD97":2565886.3500000001,"ADDRESS":"中山路一段２９２號","OBJECTID":571832},"geometry":{"x":179491.20999999996,"y":2565886.3500000015}},{"attributes":{"ID":571860,"DIS_CODE":0,"TOWNNAME":"官田區","LI":"隆本里","LIN":"29鄰","STREET":"中山路","SECT":"一段","MAREA":" ","LANE":" ","ALLEY":" ","HOUSE_NO":"２９８號","E_COORD97":179480.53,"N_COORD97":2565881.6099999999,"ADDRESS":"中山路一段２９８號","OBJECTID":571833},"geometry":{"x":179480.53000000026,"y":2565881.6100000013}},{"attributes":{"ID":571861,"DIS_CODE":0,"TOWNNAME":"官田區","LI":"隆本里","LIN":"29鄰","STREET":"中山路","SECT":"一段","MAREA":" ","LANE":" ","ALLEY":" ","HOUSE_NO":"３０２號","E_COORD97":179461.41,"N_COORD97":2565885.8700000001,"ADDRESS":"中山路一段３０２號","OBJECTID":571834},"geometry":{"x":179461.41000000015,"y":2565885.870000001}},{"attributes":{"ID":571862,"DIS_CODE":0,"TOWNNAME":"官田區","LI":"隆田里","LIN":"29鄰","STREET":"中山路","SECT":"二段","MAREA":" ","LANE":" ","ALLEY":" ","HOUSE_NO":"１０１號","E_COORD97":178906.89999999999,"N_COORD97":2566009.0600000001,"ADDRESS":"中山路二段１０１號","OBJECTID":571835},"geometry":{"x":178906.90000000037,"y":2566009.0600000024}},{"attributes":{"ID":571863,"DIS_CODE":0,"TOWNNAME":"官田區","LI":"隆田里","LIN":"29鄰","STREET":"中山路","SECT":"二段","MAREA":" ","LANE":" ","ALLEY":" ","HOUSE_NO":"１０３號之１","E_COORD97":178888.29000000001,"N_COORD97":2566002.4900000002,"ADDRESS":"中山路二段１０３號之１","OBJECTID":571836},"geometry":{"x":178888.29000000097,"y":2566002.4900000021}},{"attributes":{"ID":571864,"DIS_CODE":0,"TOWNNAME":"官田區","LI":"隆田里","LIN":"29鄰","STREET":"中山路","SECT":"二段","MAREA":" ","LANE":" ","ALLEY":" ","HOUSE_NO":"１０３號之２","E_COORD97":178886.25,"N_COORD97":2565988.6699999999,"ADDRESS":"中山路二段１０３號之２","OBJECTID":571837},"geometry":{"x":178886.25000000186,"y":2565988.6699999999}},{"attributes":{"ID":571865,"DIS_CODE":0,"TOWNNAME":"官田區","LI":"隆田里","LIN":"29鄰","STREET":"中山路","SECT":"二段","MAREA":" ","LANE":" ","ALLEY":" ","HOUSE_NO":"１０３號之３","E_COORD97":178889.63,"N_COORD97":2565973.3500000001,"ADDRESS":"中山路二段１０３號之３","OBJECTID":571838},"geometry":{"x":178889.62999999989,"y":2565973.3499999996}},{"attributes":{"ID":571866,"DIS_CODE":0,"TOWNNAME":"官田區","LI":"隆田里","LIN":"29鄰","STREET":"中山路","SECT":"二段","MAREA":" ","LANE":" ","ALLEY":" ","HOUSE_NO":"１０３號","E_COORD97":178882.57999999999,"N_COORD97":2566019.6800000002,"ADDRESS":"中山路二段１０３號","OBJECTID":571839},"geometry":{"x":178882.58000000101,"y":2566019.6800000034}},{"attributes":{"ID":571867,"DIS_CODE":0,"TOWNNAME":"官田區","LI":"隆田里","LIN":"29鄰","STREET":"中山路","SECT":"二段","MAREA":" ","LANE":" ","ALLEY":" ","HOUSE_NO":"１０５號","E_COORD97":178819.82000000001,"N_COORD97":2566047.3100000001,"ADDRESS":"中山路二段１０５號","OBJECTID":571840},"geometry":{"x":178819.81999999937,"y":2566047.3100000024}},{"attributes":{"ID":571868,"DIS_CODE":0,"TOWNNAME":"官田區","LI":"隆田里","LIN":"29鄰","STREET":"中山路","SECT":"二段","MAREA":" ","LANE":" ","ALLEY":" ","HOUSE_NO":"１０７號","E_COORD97":178809.39000000001,"N_COORD97":2566050.5899999999,"ADDRESS":"中山路二段１０７號","OBJECTID":571841},"geometry":{"x":178809.3900000006,"y":2566050.589999998}},{"attributes":{"ID":571869,"DIS_CODE":0,"TOWNNAME":"官田區","LI":"隆田里","LIN":"29鄰","STREET":"中山路","SECT":"二段","MAREA":" ","LANE":" ","ALLEY":" ","HOUSE_NO":"１０９號","E_COORD97":178803.45000000001,"N_COORD97":2566053,"ADDRESS":"中山路二段１０９號","OBJECTID":571842},"geometry":{"x":178803.45000000019,"y":2566053.0000000019}},{"attributes":{"ID":571870,"DIS_CODE":0,"TOWNNAME":"官田區","LI":"隆本里","LIN":"29鄰","STREET":"中山路","SECT":"二段","MAREA":" ","LANE":" ","ALLEY":" ","HOUSE_NO":"１０號","E_COORD97":179124.75,"N_COORD97":2565954,"ADDRESS":"中山路二段１０號","OBJECTID":571843},"geometry":{"x":179124.75,"y":2565954.0000000019}},{"attributes":{"ID":571871,"DIS_CODE":0,"TOWNNAME":"善化區","LI":"光文里","LIN":"29鄰","STREET":"中正路","SECT":" ","MAREA":" ","LANE":" ","ALLEY":" ","HOUSE_NO":"４９８號","E_COORD97":177688.45999999999,"N_COORD97":2559135.6699999999,"ADDRESS":"中正路４９８號","OBJECTID":571844},"geometry":{"x":177688.46000000089,"y":2559135.6699999999}},{"attributes":{"ID":571872,"DIS_CODE":0,"TOWNNAME":"官田區","LI":"隆田里","LIN":"29鄰","STREET":"中山路","SECT":"二段","MAREA":" ","LANE":" ","ALLEY":" ","HOUSE_NO":"１１１號","E_COORD97":178797.41,"N_COORD97":2566055.0299999998,"ADDRESS":"中山路二段１１１號","OBJECTID":571845},"geometry":{"x":178797.41000000108,"y":2566055.0300000012}},{"attributes":{"ID":571873,"DIS_CODE":0,"TOWNNAME":"官田區","LI":"隆田里","LIN":"29鄰","STREET":"中山路","SECT":"二段","MAREA":" ","LANE":" ","ALLEY":" ","HOUSE_NO":"１１３號","E_COORD97":178791.56,"N_COORD97":2566057.2599999998,"ADDRESS":"中山路二段１１３號","OBJECTID":571846},"geometry":{"x":178791.55999999959,"y":2566057.2600000016}},{"attributes":{"ID":571874,"DIS_CODE":0,"TOWNNAME":"官田區","LI":"隆田里","LIN":"29鄰","STREET":"中山路","SECT":"二段","MAREA":" ","LANE":" ","ALLEY":" ","HOUSE_NO":"１１５號","E_COORD97":178786.59,"N_COORD97":2566059.5099999998,"ADDRESS":"中山路二段１１５號","OBJECTID":571847},"geometry":{"x":178786.58999999985,"y":2566059.5100000016}},{"attributes":{"ID":571875,"DIS_CODE":0,"TOWNNAME":"官田區","LI":"隆田里","LIN":"29鄰","STREET":"中山路","SECT":"二段","MAREA":" ","LANE":" ","ALLEY":" ","HOUSE_NO":"１１７號","E_COORD97":178782.04000000001,"N_COORD97":2566061.9700000002,"ADDRESS":"中山路二段１１７號","OBJECTID":571848},"geometry":{"x":178782.04000000004,"y":2566061.9700000007}},{"attributes":{"ID":571876,"DIS_CODE":0,"TOWNNAME":"官田區","LI":"隆田里","LIN":"29鄰","STREET":"中山路","SECT":"二段","MAREA":" ","LANE":" ","ALLEY":" ","HOUSE_NO":"１１９號","E_COORD97":178776.92999999999,"N_COORD97":2566064.4100000001,"ADDRESS":"中山路二段１１９號","OBJECTID":571849},"geometry":{"x":178776.93000000063,"y":2566064.4100000001}},{"attributes":{"ID":571877,"DIS_CODE":0,"TOWNNAME":"官田區","LI":"隆田里","LIN":"29鄰","STREET":"中山路","SECT":"二段","MAREA":" ","LANE":" ","ALLEY":" ","HOUSE_NO":"１２１號","E_COORD97":178772.29000000001,"N_COORD97":2566066.54,"ADDRESS":"中山路二段１２１號","OBJECTID":571850},"geometry":{"x":178772.28999999911,"y":2566066.5399999991}},{"attributes":{"ID":571878,"DIS_CODE":0,"TOWNNAME":"官田區","LI":"隆田里","LIN":"29鄰","STREET":"中山路","SECT":"二段","MAREA":" ","LANE":" ","ALLEY":" ","HOUSE_NO":"１２３號","E_COORD97":178767.17999999999,"N_COORD97":2566068.8799999999,"ADDRESS":"中山路二段１２３號","OBJECTID":571851},"geometry":{"x":178767.1799999997,"y":2566068.8800000008}},{"attributes":{"ID":571879,"DIS_CODE":0,"TOWNNAME":"官田區","LI":"隆田里","LIN":"29鄰","STREET":"中山路","SECT":"二段","MAREA":" ","LANE":" ","ALLEY":" ","HOUSE_NO":"１２５號","E_COORD97":178762.06,"N_COORD97":2566070.54,"ADDRESS":"中山路二段１２５號","OBJECTID":571852},"geometry":{"x":178762.06000000052,"y":2566070.5400000028}},{"attributes":{"ID":571880,"DIS_CODE":0,"TOWNNAME":"官田區","LI":"隆田里","LIN":"29鄰","STREET":"中山路","SECT":"二段","MAREA":" ","LANE":" ","ALLEY":" ","HOUSE_NO":"１２７號","E_COORD97":178757.29999999999,"N_COORD97":2566072.7599999998,"ADDRESS":"中山路二段１２７號","OBJECTID":571853},"geometry":{"x":178757.30000000075,"y":2566072.7599999998}},{"attributes":{"ID":571881,"DIS_CODE":0,"TOWNNAME":"東區","LI":"小東里","LIN":"33鄰","STREET":"東平路","SECT":" ","MAREA":" ","LANE":" ","ALLEY":" ","HOUSE_NO":"８６號","E_COORD97":171176.62,"N_COORD97":2543963.46,"ADDRESS":"東平路８６號","OBJECTID":571854},"geometry":{"x":171176.62000000104,"y":2543963.4600000009}},{"attributes":{"ID":571882,"DIS_CODE":0,"TOWNNAME":"官田區","LI":"隆田里","LIN":"29鄰","STREET":"中山路","SECT":"二段","MAREA":" ","LANE":" ","ALLEY":" ","HOUSE_NO":"１２９號","E_COORD97":178752.85000000001,"N_COORD97":2566074.7999999998,"ADDRESS":"中山路二段１２９號","OBJECTID":571855},"geometry":{"x":178752.8499999987,"y":2566074.8000000026}},{"attributes":{"ID":571883,"DIS_CODE":0,"TOWNNAME":"官田區","LI":"隆本里","LIN":"29鄰","STREET":"中山路","SECT":"二段","MAREA":" ","LANE":" ","ALLEY":" ","HOUSE_NO":"１２號","E_COORD97":179120.76999999999,"N_COORD97":2565955.7000000002,"ADDRESS":"中山路二段１２號","OBJECTID":571856},"geometry":{"x":179120.76999999955,"y":2565955.7000000011}},{"attributes":{"ID":571884,"DIS_CODE":0,"TOWNNAME":"官田區","LI":"隆田里","LIN":"29鄰","STREET":"中山路","SECT":"二段","MAREA":" ","LANE":" ","ALLEY":" ","HOUSE_NO":"１３１號","E_COORD97":178747.64000000001,"N_COORD97":2566077.4700000002,"ADDRESS":"中山路二段１３１號","OBJECTID":571857},"geometry":{"x":178747.64000000153,"y":2566077.4700000025}},{"attributes":{"ID":571885,"DIS_CODE":0,"TOWNNAME":"官田區","LI":"隆田里","LIN":"29鄰","STREET":"中山路","SECT":"二段","MAREA":" ","LANE":" ","ALLEY":" ","HOUSE_NO":"１３３號","E_COORD97":178741.60000000001,"N_COORD97":2566079.3500000001,"ADDRESS":"中山路二段１３３號","OBJECTID":571858},"geometry":{"x":178741.60000000056,"y":2566079.3500000034}},{"attributes":{"ID":571886,"DIS_CODE":0,"TOWNNAME":"官田區","LI":"隆田里","LIN":"29鄰","STREET":"中山路","SECT":"二段","MAREA":" ","LANE":" ","ALLEY":" ","HOUSE_NO":"１３５號","E_COORD97":178736.07000000001,"N_COORD97":2566081.48,"ADDRESS":"中山路二段１３５號","OBJECTID":571859},"geometry":{"x":178736.0700000003,"y":2566081.4800000004}},{"attributes":{"ID":571887,"DIS_CODE":0,"TOWNNAME":"官田區","LI":"隆本里","LIN":"29鄰","STREET":"中山路","SECT":"二段","MAREA":" ","LANE":" ","ALLEY":" ","HOUSE_NO":"３２號","E_COORD97":179087.47,"N_COORD97":2565970.0800000001,"ADDRESS":"中山路二段３２號","OBJECTID":571860},"geometry":{"x":179087.46999999974,"y":2565970.0800000019}},{"attributes":{"ID":571888,"DIS_CODE":0,"TOWNNAME":"官田區","LI":"隆本里","LIN":"29鄰","STREET":"中山路","SECT":"二段","MAREA":" ","LANE":" ","ALLEY":" ","HOUSE_NO":"３６號","E_COORD97":179082.98999999999,"N_COORD97":2565971.6200000001,"ADDRESS":"中山路二段３６號","OBJECTID":571861},"geometry":{"x":179082.99000000022,"y":2565971.6200000029}},{"attributes":{"ID":571889,"DIS_CODE":0,"TOWNNAME":"官田區","LI":"隆本里","LIN":"29鄰","STREET":"中山路","SECT":"二段","MAREA":" ","LANE":" ","ALLEY":" ","HOUSE_NO":"３８號","E_COORD97":179078.5,"N_COORD97":2565973.5,"ADDRESS":"中山路二段３８號","OBJECTID":571862},"geometry":{"x":179078.50000000093,"y":2565973.5000000037}},{"attributes":{"ID":571890,"DIS_CODE":0,"TOWNNAME":"官田區","LI":"隆本里","LIN":"29鄰","STREET":"中山路","SECT":"二段","MAREA":" ","LANE":" ","ALLEY":" ","HOUSE_NO":"４０號","E_COORD97":179074.57000000001,"N_COORD97":2565975.3199999998,"ADDRESS":"中山路二段４０號","OBJECTID":571863},"geometry":{"x":179074.57000000123,"y":2565975.320000004}},{"attributes":{"ID":571891,"DIS_CODE":0,"TOWNNAME":"官田區","LI":"隆本里","LIN":"29鄰","STREET":"中山路","SECT":"二段","MAREA":" ","LANE":" ","ALLEY":" ","HOUSE_NO":"４２號","E_COORD97":179070.34,"N_COORD97":2565977.2400000002,"ADDRESS":"中山路二段４２號","OBJECTID":571864},"geometry":{"x":179070.34000000171,"y":2565977.2400000021}},{"attributes":{"ID":571892,"DIS_CODE":0,"TOWNNAME":"官田區","LI":"隆本里","LIN":"29鄰","STREET":"中山路","SECT":"二段","MAREA":" ","LANE":" ","ALLEY":" ","HOUSE_NO":"４６號","E_COORD97":179066.12,"N_COORD97":2565979.23,"ADDRESS":"中山路二段４６號","OBJECTID":571865},"geometry":{"x":179066.12000000011,"y":2565979.2300000042}},{"attributes":{"ID":571893,"DIS_CODE":0,"TOWNNAME":"官田區","LI":"隆本里","LIN":"29鄰","STREET":"中山路","SECT":"二段","MAREA":" ","LANE":" ","ALLEY":" ","HOUSE_NO":"４８號","E_COORD97":179061.75,"N_COORD97":2565981.0899999999,"ADDRESS":"中山路二段４８號","OBJECTID":571866},"geometry":{"x":179061.75,"y":2565981.0900000017}},{"attributes":{"ID":571894,"DIS_CODE":0,"TOWNNAME":"官田區","LI":"隆本里","LIN":"29鄰","STREET":"中山路","SECT":"二段","MAREA":" ","LANE":" ","ALLEY":" ","HOUSE_NO":"５０號","E_COORD97":179057.82999999999,"N_COORD97":2565983.1200000001,"ADDRESS":"中山路二段５０號","OBJECTID":571867},"geometry":{"x":179057.83000000007,"y":2565983.120000001}},{"attributes":{"ID":571895,"DIS_CODE":0,"TOWNNAME":"永康區","LI":"甲頂里","LIN":"29鄰","STREET":"中華路","SECT":" ","MAREA":" ","LANE":" ","ALLEY":" ","HOUSE_NO":"１０７６號","E_COORD97":169339.04000000001,"N_COORD97":2547053.75,"ADDRESS":"中華路１０７６號","OBJECTID":571868},"geometry":{"x":169339.04000000097,"y":2547053.7500000037}},{"attributes":{"ID":571896,"DIS_CODE":0,"TOWNNAME":"南區","LI":"府南里","LIN":"29鄰","STREET":"西門路","SECT":"一段","MAREA":" ","LANE":" ","ALLEY":" ","HOUSE_NO":"１９９號四樓之１","E_COORD97":167719.32999999999,"N_COORD97":2541692.4100000001,"ADDRESS":"西門路一段１９９號四樓之１","OBJECTID":571869},"geometry":{"x":167719.33000000007,"y":2541692.4100000039}},{"attributes":{"ID":571897,"DIS_CODE":0,"TOWNNAME":"南區","LI":"府南里","LIN":"29鄰","STREET":"西門路","SECT":"一段","MAREA":" ","LANE":" ","ALLEY":" ","HOUSE_NO":"１９９號一樓之１１","E_COORD97":167674.09,"N_COORD97":2541691.9100000001,"ADDRESS":"西門路一段１９９號一樓之１１","OBJECTID":571870},"geometry":{"x":167674.09000000078,"y":2541691.9100000001}},{"attributes":{"ID":571898,"DIS_CODE":0,"TOWNNAME":"南區","LI":"府南里","LIN":"29鄰","STREET":"西門路","SECT":"一段","MAREA":" ","LANE":" ","ALLEY":" ","HOUSE_NO":"１９９號二樓之１１","E_COORD97":167674.09,"N_COORD97":2541691.9100000001,"ADDRESS":"西門路一段１９９號二樓之１１","OBJECTID":571871},"geometry":{"x":167674.09000000078,"y":2541691.9100000001}},{"attributes":{"ID":571899,"DIS_CODE":0,"TOWNNAME":"永康區","LI":"尚頂里","LIN":"29鄰","STREET":"南台街","SECT":" ","MAREA":" ","LANE":" ","ALLEY":" ","HOUSE_NO":"９９號四樓之７","E_COORD97":170170.57999999999,"N_COORD97":2547012.1400000001,"ADDRESS":"南台街９９號四樓之７","OBJECTID":571872},"geometry":{"x":170170.58000000007,"y":2547012.1400000025}},{"attributes":{"ID":571900,"DIS_CODE":0,"TOWNNAME":"南區","LI":"府南里","LIN":"29鄰","STREET":"西門路","SECT":"一段","MAREA":" ","LANE":" ","ALLEY":" ","HOUSE_NO":"１９９號三樓之１１","E_COORD97":167674.09,"N_COORD97":2541691.9100000001,"ADDRESS":"西門路一段１９９號三樓之１１","OBJECTID":571873},"geometry":{"x":167674.09000000078,"y":2541691.9100000001}},{"attributes":{"ID":571901,"DIS_CODE":0,"TOWNNAME":"南區","LI":"府南里","LIN":"29鄰","STREET":"西門路","SECT":"一段","MAREA":" ","LANE":" ","ALLEY":" ","HOUSE_NO":"１９９號一樓之１４","E_COORD97":167676.57000000001,"N_COORD97":2541708.3900000001,"ADDRESS":"西門路一段１９９號一樓之１４","OBJECTID":571874},"geometry":{"x":167676.57000000123,"y":2541708.3900000006}},{"attributes":{"ID":571902,"DIS_CODE":0,"TOWNNAME":"南區","LI":"府南里","LIN":"29鄰","STREET":"西門路","SECT":"一段","MAREA":" ","LANE":" ","ALLEY":" ","HOUSE_NO":"１９９號二樓之１４","E_COORD97":167676.57000000001,"N_COORD97":2541708.3900000001,"ADDRESS":"西門路一段１９９號二樓之１４","OBJECTID":571875},"geometry":{"x":167676.57000000123,"y":2541708.3900000006}},{"attributes":{"ID":571903,"DIS_CODE":0,"TOWNNAME":"永康區","LI":"尚頂里","LIN":"29鄰","STREET":"南台街","SECT":" ","MAREA":" ","LANE":" ","ALLEY":" ","HOUSE_NO":"９９號五樓之６","E_COORD97":170170.60999999999,"N_COORD97":2547012.1400000001,"ADDRESS":"南台街９９號五樓之６","OBJECTID":571876},"geometry":{"x":170170.61000000034,"y":2547012.1400000025}},{"attributes":{"ID":571904,"DIS_CODE":0,"TOWNNAME":"南區","LI":"府南里","LIN":"29鄰","STREET":"西門路","SECT":"一段","MAREA":" ","LANE":" ","ALLEY":" ","HOUSE_NO":"１９９號三樓之１４","E_COORD97":167676.57000000001,"N_COORD97":2541708.3900000001,"ADDRESS":"西門路一段１９９號三樓之１４","OBJECTID":571877},"geometry":{"x":167676.57000000123,"y":2541708.3900000006}},{"attributes":{"ID":571905,"DIS_CODE":0,"TOWNNAME":"南區","LI":"府南里","LIN":"29鄰","STREET":"西門路","SECT":"一段","MAREA":" ","LANE":" ","ALLEY":" ","HOUSE_NO":"１９９號四樓之１４","E_COORD97":167676.57000000001,"N_COORD97":2541708.3900000001,"ADDRESS":"西門路一段１９９號四樓之１４","OBJECTID":571878},"geometry":{"x":167676.57000000123,"y":2541708.3900000006}},{"attributes":{"ID":571906,"DIS_CODE":0,"TOWNNAME":"南區","LI":"府南里","LIN":"29鄰","STREET":"西門路","SECT":"一段","MAREA":" ","LANE":" ","ALLEY":" ","HOUSE_NO":"１９９號一樓之２","E_COORD97":167718.07999999999,"N_COORD97":2541707.8999999999,"ADDRESS":"西門路一段１９９號一樓之２","OBJECTID":571879},"geometry":{"x":167718.08000000101,"y":2541707.9000000022}},{"attributes":{"ID":571907,"DIS_CODE":0,"TOWNNAME":"南區","LI":"府南里","LIN":"29鄰","STREET":"西門路","SECT":"一段","MAREA":" ","LANE":" ","ALLEY":" ","HOUSE_NO":"１９９號二樓之２","E_COORD97":167718.07999999999,"N_COORD97":2541707.8999999999,"ADDRESS":"西門路一段１９９號二樓之２","OBJECTID":571880},"geometry":{"x":167718.08000000101,"y":2541707.9000000022}},{"attributes":{"ID":571908,"DIS_CODE":0,"TOWNNAME":"南區","LI":"府南里","LIN":"29鄰","STREET":"西門路","SECT":"一段","MAREA":" ","LANE":" ","ALLEY":" ","HOUSE_NO":"１９９號三樓之２","E_COORD97":167718.07999999999,"N_COORD97":2541707.8999999999,"ADDRESS":"西門路一段１９９號三樓之２","OBJECTID":571881},"geometry":{"x":167718.08000000101,"y":2541707.9000000022}},{"attributes":{"ID":571909,"DIS_CODE":0,"TOWNNAME":"南區","LI":"府南里","LIN":"29鄰","STREET":"西門路","SECT":"一段","MAREA":" ","LANE":" ","ALLEY":" ","HOUSE_NO":"１９９號四樓之２","E_COORD97":167718.07999999999,"N_COORD97":2541707.8999999999,"ADDRESS":"西門路一段１９９號四樓之２","OBJECTID":571882},"geometry":{"x":167718.08000000101,"y":2541707.9000000022}},{"attributes":{"ID":571910,"DIS_CODE":0,"TOWNNAME":"南區","LI":"府南里","LIN":"29鄰","STREET":"西門路","SECT":"一段","MAREA":" ","LANE":" ","ALLEY":" ","HOUSE_NO":"１９９號一樓之５","E_COORD97":167701.04999999999,"N_COORD97":2541692.4100000001,"ADDRESS":"西門路一段１９９號一樓之５","OBJECTID":571883},"geometry":{"x":167701.05000000075,"y":2541692.4100000039}},{"attributes":{"ID":571911,"DIS_CODE":0,"TOWNNAME":"南區","LI":"府南里","LIN":"29鄰","STREET":"西門路","SECT":"一段","MAREA":" ","LANE":" ","ALLEY":" ","HOUSE_NO":"１９９號二樓之５","E_COORD97":167701.04999999999,"N_COORD97":2541692.4100000001,"ADDRESS":"西門路一段１９９號二樓之５","OBJECTID":571884},"geometry":{"x":167701.05000000075,"y":2541692.4100000039}},{"attributes":{"ID":571912,"DIS_CODE":0,"TOWNNAME":"南區","LI":"府南里","LIN":"29鄰","STREET":"西門路","SECT":"一段","MAREA":" ","LANE":" ","ALLEY":" ","HOUSE_NO":"１９９號三樓之５","E_COORD97":167701.04999999999,"N_COORD97":2541692.4100000001,"ADDRESS":"西門路一段１９９號三樓之５","OBJECTID":571885},"geometry":{"x":167701.05000000075,"y":2541692.4100000039}},{"attributes":{"ID":571913,"DIS_CODE":0,"TOWNNAME":"南區","LI":"府南里","LIN":"29鄰","STREET":"西門路","SECT":"一段","MAREA":" ","LANE":" ","ALLEY":" ","HOUSE_NO":"１９９號四樓之５","E_COORD97":167701.04999999999,"N_COORD97":2541692.4100000001,"ADDRESS":"西門路一段１９９號四樓之５","OBJECTID":571886},"geometry":{"x":167701.05000000075,"y":2541692.4100000039}},{"attributes":{"ID":571914,"DIS_CODE":0,"TOWNNAME":"南區","LI":"府南里","LIN":"29鄰","STREET":"西門路","SECT":"一段","MAREA":" ","LANE":" ","ALLEY":" ","HOUSE_NO":"１９９號一樓之６","E_COORD97":167703.44,"N_COORD97":2541708.0600000001,"ADDRESS":"西門路一段１９９號一樓之６","OBJECTID":571887},"geometry":{"x":167703.44000000041,"y":2541708.0600000005}},{"attributes":{"ID":571915,"DIS_CODE":0,"TOWNNAME":"南區","LI":"府南里","LIN":"29鄰","STREET":"西門路","SECT":"一段","MAREA":" ","LANE":" ","ALLEY":" ","HOUSE_NO":"１９９號三樓之６","E_COORD97":167703.44,"N_COORD97":2541708.0600000001,"ADDRESS":"西門路一段１９９號三樓之６","OBJECTID":571888},"geometry":{"x":167703.44000000041,"y":2541708.0600000005}},{"attributes":{"ID":571916,"DIS_CODE":0,"TOWNNAME":"南區","LI":"府南里","LIN":"29鄰","STREET":"西門路","SECT":"一段","MAREA":" ","LANE":" ","ALLEY":" ","HOUSE_NO":"１９９號四樓之６","E_COORD97":167703.44,"N_COORD97":2541708.0600000001,"ADDRESS":"西門路一段１９９號四樓之６","OBJECTID":571889},"geometry":{"x":167703.44000000041,"y":2541708.0600000005}},{"attributes":{"ID":571917,"DIS_CODE":0,"TOWNNAME":"南區","LI":"府南里","LIN":"29鄰","STREET":"西門路","SECT":"一段","MAREA":" ","LANE":" ","ALLEY":" ","HOUSE_NO":"１９９號二樓之６","E_COORD97":167703.44,"N_COORD97":2541708.0600000001,"ADDRESS":"西門路一段１９９號二樓之６","OBJECTID":571890},"geometry":{"x":167703.44000000041,"y":2541708.0600000005}},{"attributes":{"ID":571918,"DIS_CODE":0,"TOWNNAME":"南區","LI":"府南里","LIN":"29鄰","STREET":"西門路","SECT":"一段","MAREA":" ","LANE":" ","ALLEY":" ","HOUSE_NO":"１９９號一樓之７","E_COORD97":167691.13,"N_COORD97":2541692.2400000002,"ADDRESS":"西門路一段１９９號一樓之７","OBJECTID":571891},"geometry":{"x":167691.12999999989,"y":2541692.2400000002}},{"attributes":{"ID":571919,"DIS_CODE":0,"TOWNNAME":"南區","LI":"府南里","LIN":"29鄰","STREET":"西門路","SECT":"一段","MAREA":" ","LANE":" ","ALLEY":" ","HOUSE_NO":"１９９號二樓之７","E_COORD97":167691.13,"N_COORD97":2541692.2400000002,"ADDRESS":"西門路一段１９９號二樓之７","OBJECTID":571892},"geometry":{"x":167691.12999999989,"y":2541692.2400000002}},{"attributes":{"ID":571920,"DIS_CODE":0,"TOWNNAME":"南區","LI":"府南里","LIN":"29鄰","STREET":"西門路","SECT":"一段","MAREA":" ","LANE":" ","ALLEY":" ","HOUSE_NO":"１９９號三樓之７","E_COORD97":167691.13,"N_COORD97":2541692.2400000002,"ADDRESS":"西門路一段１９９號三樓之７","OBJECTID":571893},"geometry":{"x":167691.12999999989,"y":2541692.2400000002}},{"attributes":{"ID":571921,"DIS_CODE":0,"TOWNNAME":"南區","LI":"府南里","LIN":"29鄰","STREET":"西門路","SECT":"一段","MAREA":" ","LANE":" ","ALLEY":" ","HOUSE_NO":"１９９號一樓之８","E_COORD97":167696.5,"N_COORD97":2541708.1499999999,"ADDRESS":"西門路一段１９９號一樓之８","OBJECTID":571894},"geometry":{"x":167696.50000000093,"y":2541708.1500000041}},{"attributes":{"ID":571922,"DIS_CODE":0,"TOWNNAME":"南區","LI":"府南里","LIN":"29鄰","STREET":"西門路","SECT":"一段","MAREA":" ","LANE":" ","ALLEY":" ","HOUSE_NO":"１９９號二樓之８","E_COORD97":167696.5,"N_COORD97":2541708.1499999999,"ADDRESS":"西門路一段１９９號二樓之８","OBJECTID":571895},"geometry":{"x":167696.50000000093,"y":2541708.1500000041}},{"attributes":{"ID":571923,"DIS_CODE":0,"TOWNNAME":"南區","LI":"府南里","LIN":"29鄰","STREET":"西門路","SECT":"一段","MAREA":" ","LANE":" ","ALLEY":" ","HOUSE_NO":"１９９號三樓之８","E_COORD97":167696.5,"N_COORD97":2541708.1499999999,"ADDRESS":"西門路一段１９９號三樓之８","OBJECTID":571896},"geometry":{"x":167696.50000000093,"y":2541708.1500000041}},{"attributes":{"ID":571924,"DIS_CODE":0,"TOWNNAME":"南區","LI":"府南里","LIN":"29鄰","STREET":"西門路","SECT":"一段","MAREA":" ","LANE":" ","ALLEY":" ","HOUSE_NO":"１９９號四樓之８","E_COORD97":167696.5,"N_COORD97":2541708.1499999999,"ADDRESS":"西門路一段１９９號四樓之８","OBJECTID":571897},"geometry":{"x":167696.50000000093,"y":2541708.1500000041}},{"attributes":{"ID":571925,"DIS_CODE":0,"TOWNNAME":"南區","LI":"府南里","LIN":"29鄰","STREET":"西門路","SECT":"一段","MAREA":" ","LANE":" ","ALLEY":" ","HOUSE_NO":"１９９號一樓之９","E_COORD97":167682.78,"N_COORD97":2541692.2400000002,"ADDRESS":"西門路一段１９９號一樓之９","OBJECTID":571898},"geometry":{"x":167682.78000000212,"y":2541692.2400000002}},{"attributes":{"ID":571926,"DIS_CODE":0,"TOWNNAME":"東區","LI":"小東里","LIN":"30鄰","STREET":"東平路","SECT":" ","MAREA":" ","LANE":" ","ALLEY":" ","HOUSE_NO":"２４６號","E_COORD97":170748.39999999999,"N_COORD97":2544019.5800000001,"ADDRESS":"東平路２４６號","OBJECTID":571899},"geometry":{"x":170748.40000000037,"y":2544019.5800000001}},{"attributes":{"ID":571927,"DIS_CODE":0,"TOWNNAME":"東區","LI":"中西里","LIN":"3鄰","STREET":"勝利路","SECT":" ","MAREA":" ","LANE":" ","ALLEY":" ","HOUSE_NO":"２號","E_COORD97":169779.81,"N_COORD97":2543111.9199999999,"ADDRESS":"勝利路２號","OBJECTID":571900},"geometry":{"x":169779.80999999959,"y":2543111.9199999999}},{"attributes":{"ID":571928,"DIS_CODE":0,"TOWNNAME":"南區","LI":"府南里","LIN":"29鄰","STREET":"西門路","SECT":"一段","MAREA":" ","LANE":" ","ALLEY":" ","HOUSE_NO":"１９９號二樓之９","E_COORD97":167682.78,"N_COORD97":2541692.2400000002,"ADDRESS":"西門路一段１９９號二樓之９","OBJECTID":571901},"geometry":{"x":167682.78000000212,"y":2541692.2400000002}},{"attributes":{"ID":571929,"DIS_CODE":0,"TOWNNAME":"南區","LI":"府南里","LIN":"29鄰","STREET":"西門路","SECT":"一段","MAREA":" ","LANE":" ","ALLEY":" ","HOUSE_NO":"１９９號三樓之９","E_COORD97":167682.78,"N_COORD97":2541692.2400000002,"ADDRESS":"西門路一段１９９號三樓之９","OBJECTID":571902},"geometry":{"x":167682.78000000212,"y":2541692.2400000002}},{"attributes":{"ID":571930,"DIS_CODE":0,"TOWNNAME":"南區","LI":"府南里","LIN":"29鄰","STREET":"西門路","SECT":"一段","MAREA":" ","LANE":" ","ALLEY":" ","HOUSE_NO":"１９９號二樓之３","E_COORD97":167709.98999999999,"N_COORD97":2541692.4100000001,"ADDRESS":"西門路一段１９９號二樓之３","OBJECTID":571903},"geometry":{"x":167709.99000000022,"y":2541692.4100000039}},{"attributes":{"ID":571931,"DIS_CODE":0,"TOWNNAME":"南區","LI":"府南里","LIN":"29鄰","STREET":"西門路","SECT":"一段","MAREA":" ","LANE":" ","ALLEY":" ","HOUSE_NO":"１９９號三樓之３","E_COORD97":167709.98999999999,"N_COORD97":2541692.4100000001,"ADDRESS":"西門路一段１９９號三樓之３","OBJECTID":571904},"geometry":{"x":167709.99000000022,"y":2541692.4100000039}},{"attributes":{"ID":571932,"DIS_CODE":0,"TOWNNAME":"南區","LI":"府南里","LIN":"29鄰","STREET":"西門路","SECT":"一段","MAREA":" ","LANE":" ","ALLEY":" ","HOUSE_NO":"１９９號四樓之３","E_COORD97":167709.98999999999,"N_COORD97":2541692.4100000001,"ADDRESS":"西門路一段１９９號四樓之３","OBJECTID":571905},"geometry":{"x":167709.99000000022,"y":2541692.4100000039}},{"attributes":{"ID":571933,"DIS_CODE":0,"TOWNNAME":"南區","LI":"府南里","LIN":"29鄰","STREET":"西門路","SECT":"一段","MAREA":" ","LANE":" ","ALLEY":" ","HOUSE_NO":"１９９號一樓之３","E_COORD97":167709.98999999999,"N_COORD97":2541692.4100000001,"ADDRESS":"西門路一段１９９號一樓之３","OBJECTID":571906},"geometry":{"x":167709.99000000022,"y":2541692.4100000039}},{"attributes":{"ID":571934,"DIS_CODE":0,"TOWNNAME":"東區","LI":"大智里","LIN":"29鄰","STREET":"德東街","SECT":" ","MAREA":" ","LANE":" ","ALLEY":" ","HOUSE_NO":"２６４號七樓","E_COORD97":171474.26999999999,"N_COORD97":2540218,"ADDRESS":"德東街２６４號七樓","OBJECTID":571907},"geometry":{"x":171474.27000000142,"y":2540218.0000000019}},{"attributes":{"ID":571935,"DIS_CODE":0,"TOWNNAME":"東區","LI":"大智里","LIN":"29鄰","STREET":"德東街","SECT":" ","MAREA":" ","LANE":" ","ALLEY":" ","HOUSE_NO":"２７０號五樓","E_COORD97":171495.31,"N_COORD97":2540225.71,"ADDRESS":"德東街２７０號五樓","OBJECTID":571908},"geometry":{"x":171495.30999999959,"y":2540225.7100000009}},{"attributes":{"ID":571936,"DIS_CODE":0,"TOWNNAME":"仁德區","LI":"仁義里","LIN":"29鄰","STREET":"中清一街","SECT":" ","MAREA":" ","LANE":" ","ALLEY":" ","HOUSE_NO":"５２號一樓之１","E_COORD97":173662.97,"N_COORD97":2541540.0699999998,"ADDRESS":"中清一街５２號一樓之１","OBJECTID":571909},"geometry":{"x":173662.96999999974,"y":2541540.0700000022}},{"attributes":{"ID":571937,"DIS_CODE":0,"TOWNNAME":"仁德區","LI":"仁義里","LIN":"29鄰","STREET":"中清一街","SECT":" ","MAREA":" ","LANE":" ","ALLEY":" ","HOUSE_NO":"５２號三樓之３","E_COORD97":173663.07000000001,"N_COORD97":2541540.0699999998,"ADDRESS":"中清一街５２號三樓之３","OBJECTID":571910},"geometry":{"x":173663.06999999937,"y":2541540.0700000022}},{"attributes":{"ID":571938,"DIS_CODE":0,"TOWNNAME":"仁德區","LI":"仁義里","LIN":"29鄰","STREET":"中清一街","SECT":" ","MAREA":" ","LANE":" ","ALLEY":" ","HOUSE_NO":"５２號五樓之３","E_COORD97":173663.07000000001,"N_COORD97":2541540.0699999998,"ADDRESS":"中清一街５２號五樓之３","OBJECTID":571911},"geometry":{"x":173663.06999999937,"y":2541540.0700000022}},{"attributes":{"ID":571939,"DIS_CODE":0,"TOWNNAME":"仁德區","LI":"仁義里","LIN":"29鄰","STREET":"中清一街","SECT":" ","MAREA":" ","LANE":" ","ALLEY":" ","HOUSE_NO":"５２號一樓之２","E_COORD97":173663.10000000001,"N_COORD97":2541540.0699999998,"ADDRESS":"中清一街５２號一樓之２","OBJECTID":571912},"geometry":{"x":173663.10000000056,"y":2541540.0700000022}},{"attributes":{"ID":571940,"DIS_CODE":0,"TOWNNAME":"仁德區","LI":"仁義里","LIN":"29鄰","STREET":"中清一街","SECT":" ","MAREA":" ","LANE":" ","ALLEY":" ","HOUSE_NO":"５２號六樓之１","E_COORD97":173662.97,"N_COORD97":2541540.0699999998,"ADDRESS":"中清一街５２號六樓之１","OBJECTID":571913},"geometry":{"x":173662.96999999974,"y":2541540.0700000022}},{"attributes":{"ID":571941,"DIS_CODE":0,"TOWNNAME":"東區","LI":"小東里","LIN":"33鄰","STREET":"東平路","SECT":" ","MAREA":" ","LANE":" ","ALLEY":" ","HOUSE_NO":"９０號","E_COORD97":171168.60000000001,"N_COORD97":2543964.75,"ADDRESS":"東平路９０號","OBJECTID":571914},"geometry":{"x":171168.60000000149,"y":2543964.7499999981}},{"attributes":{"ID":571942,"DIS_CODE":0,"TOWNNAME":"安南區","LI":"安富里","LIN":"19鄰","STREET":"安富街","SECT":" ","MAREA":" ","LANE":" ","ALLEY":" ","HOUSE_NO":"２０３號","E_COORD97":167684.26999999999,"N_COORD97":2547460.4399999999,"ADDRESS":"安富街２０３號","OBJECTID":571915},"geometry":{"x":167684.27000000048,"y":2547460.4399999995}},{"attributes":{"ID":571943,"DIS_CODE":0,"TOWNNAME":"安南區","LI":"鳳凰里","LIN":"21鄰","STREET":"安中路","SECT":"一段","MAREA":" ","LANE":" ","ALLEY":" ","HOUSE_NO":"９６２號","E_COORD97":167229.87284900001,"N_COORD97":2549502.8728499999,"ADDRESS":"安中路一段９６２號","OBJECTID":571916},"geometry":{"x":167229.87284900062,"y":2549502.8728510011}},{"attributes":{"ID":571944,"DIS_CODE":0,"TOWNNAME":"仁德區","LI":"仁義里","LIN":"29鄰","STREET":"中清一街","SECT":" ","MAREA":" ","LANE":" ","ALLEY":" ","HOUSE_NO":"５２號二樓之４","E_COORD97":173662.98999999999,"N_COORD97":2541540.0699999998,"ADDRESS":"中清一街５２號二樓之４","OBJECTID":571917},"geometry":{"x":173662.99000000022,"y":2541540.0700000022}},{"attributes":{"ID":571945,"DIS_CODE":0,"TOWNNAME":"仁德區","LI":"仁義里","LIN":"29鄰","STREET":"中清一街","SECT":" ","MAREA":" ","LANE":" ","ALLEY":" ","HOUSE_NO":"５２號四樓之５","E_COORD97":173663.12,"N_COORD97":2541540.0699999998,"ADDRESS":"中清一街５２號四樓之５","OBJECTID":571918},"geometry":{"x":173663.12000000104,"y":2541540.0700000022}},{"attributes":{"ID":571946,"DIS_CODE":0,"TOWNNAME":"仁德區","LI":"仁義里","LIN":"29鄰","STREET":"中清一街","SECT":" ","MAREA":" ","LANE":" ","ALLEY":" ","HOUSE_NO":"５２號四樓之１","E_COORD97":173662.97,"N_COORD97":2541540.0699999998,"ADDRESS":"中清一街５２號四樓之１","OBJECTID":571919},"geometry":{"x":173662.96999999974,"y":2541540.0700000022}},{"attributes":{"ID":571947,"DIS_CODE":0,"TOWNNAME":"仁德區","LI":"仁義里","LIN":"29鄰","STREET":"中清一街","SECT":" ","MAREA":" ","LANE":" ","ALLEY":" ","HOUSE_NO":"５２號二樓之１","E_COORD97":173662.97,"N_COORD97":2541540.0699999998,"ADDRESS":"中清一街５２號二樓之１","OBJECTID":571920},"geometry":{"x":173662.96999999974,"y":2541540.0700000022}},{"attributes":{"ID":571948,"DIS_CODE":0,"TOWNNAME":"仁德區","LI":"仁義里","LIN":"29鄰","STREET":"中清一街","SECT":" ","MAREA":" ","LANE":" ","ALLEY":" ","HOUSE_NO":"５２號三樓之２","E_COORD97":173663.10000000001,"N_COORD97":2541540.0699999998,"ADDRESS":"中清一街５２號三樓之２","OBJECTID":571921},"geometry":{"x":173663.10000000056,"y":2541540.0700000022}},{"attributes":{"ID":571949,"DIS_CODE":0,"TOWNNAME":"南區","LI":"府南里","LIN":"29鄰","STREET":"西門路","SECT":"一段","MAREA":" ","LANE":" ","ALLEY":" ","HOUSE_NO":"１９９號二樓之１２","E_COORD97":167683.17999999999,"N_COORD97":2541708.48,"ADDRESS":"西門路一段１９９號二樓之１２","OBJECTID":571922},"geometry":{"x":167683.18000000063,"y":2541708.4800000004}},{"attributes":{"ID":571950,"DIS_CODE":0,"TOWNNAME":"南區","LI":"府南里","LIN":"29鄰","STREET":"西門路","SECT":"一段","MAREA":" ","LANE":" ","ALLEY":" ","HOUSE_NO":"１９９號三樓之１２","E_COORD97":167683.17999999999,"N_COORD97":2541708.48,"ADDRESS":"西門路一段１９９號三樓之１２","OBJECTID":571923},"geometry":{"x":167683.18000000063,"y":2541708.4800000004}},{"attributes":{"ID":571951,"DIS_CODE":0,"TOWNNAME":"南區","LI":"府南里","LIN":"29鄰","STREET":"西門路","SECT":"一段","MAREA":" ","LANE":" ","ALLEY":" ","HOUSE_NO":"１９９號四樓之１２","E_COORD97":167683.17999999999,"N_COORD97":2541708.48,"ADDRESS":"西門路一段１９９號四樓之１２","OBJECTID":571924},"geometry":{"x":167683.18000000063,"y":2541708.4800000004}},{"attributes":{"ID":571952,"DIS_CODE":0,"TOWNNAME":"安南區","LI":"溪北里","LIN":"23鄰","STREET":"敦安街","SECT":" ","MAREA":" ","LANE":" ","ALLEY":" ","HOUSE_NO":"４６號","E_COORD97":169248.62,"N_COORD97":2547562.6000000001,"ADDRESS":"敦安街４６號","OBJECTID":571925},"geometry":{"x":169248.62000000104,"y":2547562.6000000034}},{"attributes":{"ID":571953,"DIS_CODE":0,"TOWNNAME":"安南區","LI":"鳳凰里","LIN":"21鄰","STREET":"怡安路","SECT":"二段","MAREA":" ","LANE":" ","ALLEY":" ","HOUSE_NO":"６２９號","E_COORD97":167254.857349,"N_COORD97":2549514.9378399998,"ADDRESS":"怡安路二段６２９號","OBJECTID":571926},"geometry":{"x":167254.85734899994,"y":2549514.9378440026}},{"attributes":{"ID":571954,"DIS_CODE":0,"TOWNNAME":"永康區","LI":"尚頂里","LIN":"29鄰","STREET":"南台街","SECT":" ","MAREA":" ","LANE":" ","ALLEY":" ","HOUSE_NO":"９９號五樓之５","E_COORD97":170170.66,"N_COORD97":2547012.1400000001,"ADDRESS":"南台街９９號五樓之５","OBJECTID":571927},"geometry":{"x":170170.66000000108,"y":2547012.1400000025}},{"attributes":{"ID":571955,"DIS_CODE":0,"TOWNNAME":"永康區","LI":"尚頂里","LIN":"29鄰","STREET":"南台街","SECT":" ","MAREA":" ","LANE":" ","ALLEY":" ","HOUSE_NO":"９９號六樓之５","E_COORD97":170170.66,"N_COORD97":2547012.1400000001,"ADDRESS":"南台街９９號六樓之５","OBJECTID":571928},"geometry":{"x":170170.66000000108,"y":2547012.1400000025}},{"attributes":{"ID":571956,"DIS_CODE":0,"TOWNNAME":"永康區","LI":"尚頂里","LIN":"29鄰","STREET":"南台街","SECT":" ","MAREA":" ","LANE":" ","ALLEY":" ","HOUSE_NO":"９９號六樓之１","E_COORD97":170170.5,"N_COORD97":2547012.1400000001,"ADDRESS":"南台街９９號六樓之１","OBJECTID":571929},"geometry":{"x":170170.5,"y":2547012.1400000025}},{"attributes":{"ID":571957,"DIS_CODE":0,"TOWNNAME":"永康區","LI":"尚頂里","LIN":"29鄰","STREET":"南台街","SECT":" ","MAREA":" ","LANE":" ","ALLEY":" ","HOUSE_NO":"９９號六樓之４","E_COORD97":170170.53,"N_COORD97":2547012.1400000001,"ADDRESS":"南台街９９號六樓之４","OBJECTID":571930},"geometry":{"x":170170.53000000026,"y":2547012.1400000025}},{"attributes":{"ID":571958,"DIS_CODE":0,"TOWNNAME":"永康區","LI":"尚頂里","LIN":"29鄰","STREET":"南台街","SECT":" ","MAREA":" ","LANE":" ","ALLEY":" ","HOUSE_NO":"９９號六樓之６","E_COORD97":170170.60999999999,"N_COORD97":2547012.1400000001,"ADDRESS":"南台街９９號六樓之６","OBJECTID":571931},"geometry":{"x":170170.61000000034,"y":2547012.1400000025}},{"attributes":{"ID":571959,"DIS_CODE":0,"TOWNNAME":"永康區","LI":"尚頂里","LIN":"29鄰","STREET":"南台街","SECT":" ","MAREA":" ","LANE":" ","ALLEY":" ","HOUSE_NO":"９９號四樓之８","E_COORD97":170170.64999999999,"N_COORD97":2547012.1400000001,"ADDRESS":"南台街９９號四樓之８","OBJECTID":571932},"geometry":{"x":170170.65000000224,"y":2547012.1400000025}},{"attributes":{"ID":571960,"DIS_CODE":0,"TOWNNAME":"永康區","LI":"尚頂里","LIN":"29鄰","STREET":"南台街","SECT":" ","MAREA":" ","LANE":" ","ALLEY":" ","HOUSE_NO":"９９號二樓之４","E_COORD97":170170.53,"N_COORD97":2547012.1400000001,"ADDRESS":"南台街９９號二樓之４","OBJECTID":571933},"geometry":{"x":170170.53000000026,"y":2547012.1400000025}},{"attributes":{"ID":571961,"DIS_CODE":0,"TOWNNAME":"永康區","LI":"尚頂里","LIN":"29鄰","STREET":"南台街","SECT":" ","MAREA":" ","LANE":" ","ALLEY":" ","HOUSE_NO":"９９號三樓之７","E_COORD97":170170.57999999999,"N_COORD97":2547012.1400000001,"ADDRESS":"南台街９９號三樓之７","OBJECTID":571934},"geometry":{"x":170170.58000000007,"y":2547012.1400000025}},{"attributes":{"ID":571962,"DIS_CODE":0,"TOWNNAME":"永康區","LI":"尚頂里","LIN":"29鄰","STREET":"南台街","SECT":" ","MAREA":" ","LANE":" ","ALLEY":" ","HOUSE_NO":"９９號六樓之３","E_COORD97":170170.60000000001,"N_COORD97":2547012.1400000001,"ADDRESS":"南台街９９號六樓之３","OBJECTID":571935},"geometry":{"x":170170.60000000056,"y":2547012.1400000025}},{"attributes":{"ID":571963,"DIS_CODE":0,"TOWNNAME":"永康區","LI":"尚頂里","LIN":"29鄰","STREET":"南台街","SECT":" ","MAREA":" ","LANE":" ","ALLEY":" ","HOUSE_NO":"９９號三樓之３","E_COORD97":170170.60000000001,"N_COORD97":2547012.1400000001,"ADDRESS":"南台街９９號三樓之３","OBJECTID":571936},"geometry":{"x":170170.60000000056,"y":2547012.1400000025}},{"attributes":{"ID":571964,"DIS_CODE":0,"TOWNNAME":"永康區","LI":"尚頂里","LIN":"29鄰","STREET":"南台街","SECT":" ","MAREA":" ","LANE":" ","ALLEY":" ","HOUSE_NO":"９９號三樓之２","E_COORD97":170170.64000000001,"N_COORD97":2547012.1400000001,"ADDRESS":"南台街９９號三樓之２","OBJECTID":571937},"geometry":{"x":170170.6400000006,"y":2547012.1400000025}},{"attributes":{"ID":571965,"DIS_CODE":0,"TOWNNAME":"永康區","LI":"尚頂里","LIN":"29鄰","STREET":"南台街","SECT":" ","MAREA":" ","LANE":" ","ALLEY":" ","HOUSE_NO":"９９號三樓之１","E_COORD97":170170.5,"N_COORD97":2547012.1400000001,"ADDRESS":"南台街９９號三樓之１","OBJECTID":571938},"geometry":{"x":170170.5,"y":2547012.1400000025}},{"attributes":{"ID":571966,"DIS_CODE":0,"TOWNNAME":"永康區","LI":"尚頂里","LIN":"29鄰","STREET":"南台街","SECT":" ","MAREA":" ","LANE":" ","ALLEY":" ","HOUSE_NO":"９９號五樓之４","E_COORD97":170170.53,"N_COORD97":2547012.1400000001,"ADDRESS":"南台街９９號五樓之４","OBJECTID":571939},"geometry":{"x":170170.53000000026,"y":2547012.1400000025}},{"attributes":{"ID":571967,"DIS_CODE":0,"TOWNNAME":"永康區","LI":"尚頂里","LIN":"29鄰","STREET":"南台街","SECT":" ","MAREA":" ","LANE":" ","ALLEY":" ","HOUSE_NO":"９９號六樓之２","E_COORD97":170170.64000000001,"N_COORD97":2547012.1400000001,"ADDRESS":"南台街９９號六樓之２","OBJECTID":571940},"geometry":{"x":170170.6400000006,"y":2547012.1400000025}},{"attributes":{"ID":571968,"DIS_CODE":0,"TOWNNAME":"永康區","LI":"尚頂里","LIN":"29鄰","STREET":"南台街","SECT":" ","MAREA":" ","LANE":" ","ALLEY":" ","HOUSE_NO":"９９號三樓之８","E_COORD97":170170.64999999999,"N_COORD97":2547012.1400000001,"ADDRESS":"南台街９９號三樓之８","OBJECTID":571941},"geometry":{"x":170170.65000000224,"y":2547012.1400000025}},{"attributes":{"ID":571969,"DIS_CODE":0,"TOWNNAME":"永康區","LI":"尚頂里","LIN":"29鄰","STREET":"南台街","SECT":" ","MAREA":" ","LANE":" ","ALLEY":" ","HOUSE_NO":"９９號五樓之２","E_COORD97":170170.64000000001,"N_COORD97":2547012.1400000001,"ADDRESS":"南台街９９號五樓之２","OBJECTID":571942},"geometry":{"x":170170.6400000006,"y":2547012.1400000025}},{"attributes":{"ID":571970,"DIS_CODE":0,"TOWNNAME":"永康區","LI":"尚頂里","LIN":"29鄰","STREET":"南台街","SECT":" ","MAREA":" ","LANE":" ","ALLEY":" ","HOUSE_NO":"９９號三樓之４","E_COORD97":170170.53,"N_COORD97":2547012.1400000001,"ADDRESS":"南台街９９號三樓之４","OBJECTID":571943},"geometry":{"x":170170.53000000026,"y":2547012.1400000025}},{"attributes":{"ID":571971,"DIS_CODE":0,"TOWNNAME":"永康區","LI":"尚頂里","LIN":"29鄰","STREET":"南台街","SECT":" ","MAREA":" ","LANE":" ","ALLEY":" ","HOUSE_NO":"９９號三樓之６","E_COORD97":170170.60999999999,"N_COORD97":2547012.1400000001,"ADDRESS":"南台街９９號三樓之６","OBJECTID":571944},"geometry":{"x":170170.61000000034,"y":2547012.1400000025}},{"attributes":{"ID":571972,"DIS_CODE":0,"TOWNNAME":"永康區","LI":"尚頂里","LIN":"29鄰","STREET":"南台街","SECT":" ","MAREA":" ","LANE":" ","ALLEY":" ","HOUSE_NO":"９９號七樓之２","E_COORD97":170170.64000000001,"N_COORD97":2547012.1400000001,"ADDRESS":"南台街９９號七樓之２","OBJECTID":571945},"geometry":{"x":170170.6400000006,"y":2547012.1400000025}},{"attributes":{"ID":571973,"DIS_CODE":0,"TOWNNAME":"永康區","LI":"尚頂里","LIN":"29鄰","STREET":"南台街","SECT":" ","MAREA":" ","LANE":" ","ALLEY":" ","HOUSE_NO":"９９號七樓之７","E_COORD97":170170.57999999999,"N_COORD97":2547012.1400000001,"ADDRESS":"南台街９９號七樓之７","OBJECTID":571946},"geometry":{"x":170170.58000000007,"y":2547012.1400000025}},{"attributes":{"ID":571974,"DIS_CODE":0,"TOWNNAME":"永康區","LI":"尚頂里","LIN":"29鄰","STREET":"南台街","SECT":" ","MAREA":" ","LANE":" ","ALLEY":" ","HOUSE_NO":"９９號四樓之９","E_COORD97":170170.59,"N_COORD97":2547012.1400000001,"ADDRESS":"南台街９９號四樓之９","OBJECTID":571947},"geometry":{"x":170170.59000000171,"y":2547012.1400000025}},{"attributes":{"ID":571975,"DIS_CODE":0,"TOWNNAME":"永康區","LI":"尚頂里","LIN":"29鄰","STREET":"南台街","SECT":" ","MAREA":" ","LANE":" ","ALLEY":" ","HOUSE_NO":"９９號二樓之１","E_COORD97":170170.5,"N_COORD97":2547012.1400000001,"ADDRESS":"南台街９９號二樓之１","OBJECTID":571948},"geometry":{"x":170170.5,"y":2547012.1400000025}},{"attributes":{"ID":571976,"DIS_CODE":0,"TOWNNAME":"永康區","LI":"尚頂里","LIN":"29鄰","STREET":"南台街","SECT":" ","MAREA":" ","LANE":" ","ALLEY":" ","HOUSE_NO":"９９號六樓之９","E_COORD97":170170.59,"N_COORD97":2547012.1400000001,"ADDRESS":"南台街９９號六樓之９","OBJECTID":571949},"geometry":{"x":170170.59000000171,"y":2547012.1400000025}},{"attributes":{"ID":571977,"DIS_CODE":0,"TOWNNAME":"永康區","LI":"尚頂里","LIN":"29鄰","STREET":"南台街","SECT":" ","MAREA":" ","LANE":" ","ALLEY":" ","HOUSE_NO":"９９號七樓之４","E_COORD97":170170.53,"N_COORD97":2547012.1400000001,"ADDRESS":"南台街９９號七樓之４","OBJECTID":571950},"geometry":{"x":170170.53000000026,"y":2547012.1400000025}},{"attributes":{"ID":571978,"DIS_CODE":0,"TOWNNAME":"永康區","LI":"尚頂里","LIN":"29鄰","STREET":"南台街","SECT":" ","MAREA":" ","LANE":" ","ALLEY":" ","HOUSE_NO":"９９號四樓之１１","E_COORD97":170170.53,"N_COORD97":2547012.1400000001,"ADDRESS":"南台街９９號四樓之１１","OBJECTID":571951},"geometry":{"x":170170.53000000026,"y":2547012.1400000025}},{"attributes":{"ID":571979,"DIS_CODE":0,"TOWNNAME":"永康區","LI":"尚頂里","LIN":"29鄰","STREET":"南台街","SECT":" ","MAREA":" ","LANE":" ","ALLEY":" ","HOUSE_NO":"９９號四樓之１","E_COORD97":170170.5,"N_COORD97":2547012.1400000001,"ADDRESS":"南台街９９號四樓之１","OBJECTID":571952},"geometry":{"x":170170.5,"y":2547012.1400000025}},{"attributes":{"ID":571980,"DIS_CODE":0,"TOWNNAME":"永康區","LI":"尚頂里","LIN":"29鄰","STREET":"南台街","SECT":" ","MAREA":" ","LANE":" ","ALLEY":" ","HOUSE_NO":"９９號四樓之５","E_COORD97":170170.66,"N_COORD97":2547012.1400000001,"ADDRESS":"南台街９９號四樓之５","OBJECTID":571953},"geometry":{"x":170170.66000000108,"y":2547012.1400000025}},{"attributes":{"ID":571981,"DIS_CODE":0,"TOWNNAME":"永康區","LI":"尚頂里","LIN":"29鄰","STREET":"南台街","SECT":" ","MAREA":" ","LANE":" ","ALLEY":" ","HOUSE_NO":"９９號七樓之５","E_COORD97":170170.66,"N_COORD97":2547012.1400000001,"ADDRESS":"南台街９９號七樓之５","OBJECTID":571954},"geometry":{"x":170170.66000000108,"y":2547012.1400000025}},{"attributes":{"ID":571982,"DIS_CODE":0,"TOWNNAME":"永康區","LI":"尚頂里","LIN":"29鄰","STREET":"南台街","SECT":" ","MAREA":" ","LANE":" ","ALLEY":" ","HOUSE_NO":"９９號五樓之１","E_COORD97":170170.5,"N_COORD97":2547012.1400000001,"ADDRESS":"南台街９９號五樓之１","OBJECTID":571955},"geometry":{"x":170170.5,"y":2547012.1400000025}},{"attributes":{"ID":571983,"DIS_CODE":0,"TOWNNAME":"仁德區","LI":"仁義里","LIN":"29鄰","STREET":"中清一街","SECT":" ","MAREA":" ","LANE":" ","ALLEY":" ","HOUSE_NO":"５２號三樓之５","E_COORD97":173663.12,"N_COORD97":2541540.0699999998,"ADDRESS":"中清一街５２號三樓之５","OBJECTID":571956},"geometry":{"x":173663.12000000104,"y":2541540.0700000022}},{"attributes":{"ID":571984,"DIS_CODE":0,"TOWNNAME":"仁德區","LI":"仁義里","LIN":"29鄰","STREET":"中清一街","SECT":" ","MAREA":" ","LANE":" ","ALLEY":" ","HOUSE_NO":"５２號五樓之７","E_COORD97":173663.04999999999,"N_COORD97":2541540.0699999998,"ADDRESS":"中清一街５２號五樓之７","OBJECTID":571957},"geometry":{"x":173663.05000000075,"y":2541540.0700000022}},{"attributes":{"ID":571985,"DIS_CODE":0,"TOWNNAME":"仁德區","LI":"仁義里","LIN":"29鄰","STREET":"中清一街","SECT":" ","MAREA":" ","LANE":" ","ALLEY":" ","HOUSE_NO":"５２號一樓之８","E_COORD97":173663.12,"N_COORD97":2541540.0699999998,"ADDRESS":"中清一街５２號一樓之８","OBJECTID":571958},"geometry":{"x":173663.12000000104,"y":2541540.0700000022}},{"attributes":{"ID":571986,"DIS_CODE":0,"TOWNNAME":"仁德區","LI":"仁義里","LIN":"29鄰","STREET":"中清一街","SECT":" ","MAREA":" ","LANE":" ","ALLEY":" ","HOUSE_NO":"５２號五樓之１","E_COORD97":173662.97,"N_COORD97":2541540.0699999998,"ADDRESS":"中清一街５２號五樓之１","OBJECTID":571959},"geometry":{"x":173662.96999999974,"y":2541540.0700000022}},{"attributes":{"ID":571987,"DIS_CODE":0,"TOWNNAME":"仁德區","LI":"仁義里","LIN":"29鄰","STREET":"中清一街","SECT":" ","MAREA":" ","LANE":" ","ALLEY":" ","HOUSE_NO":"５２號四樓之４","E_COORD97":173662.98999999999,"N_COORD97":2541540.0699999998,"ADDRESS":"中清一街５２號四樓之４","OBJECTID":571960},"geometry":{"x":173662.99000000022,"y":2541540.0700000022}},{"attributes":{"ID":571988,"DIS_CODE":0,"TOWNNAME":"仁德區","LI":"仁義里","LIN":"29鄰","STREET":"中清一街","SECT":" ","MAREA":" ","LANE":" ","ALLEY":" ","HOUSE_NO":"５２號三樓之１","E_COORD97":173662.97,"N_COORD97":2541540.0699999998,"ADDRESS":"中清一街５２號三樓之１","OBJECTID":571961},"geometry":{"x":173662.96999999974,"y":2541540.0700000022}},{"attributes":{"ID":571989,"DIS_CODE":0,"TOWNNAME":"仁德區","LI":"仁義里","LIN":"29鄰","STREET":"中清一街","SECT":" ","MAREA":" ","LANE":" ","ALLEY":" ","HOUSE_NO":"５２號六樓之５","E_COORD97":173663.12,"N_COORD97":2541540.0699999998,"ADDRESS":"中清一街５２號六樓之５","OBJECTID":571962},"geometry":{"x":173663.12000000104,"y":2541540.0700000022}},{"attributes":{"ID":571990,"DIS_CODE":0,"TOWNNAME":"仁德區","LI":"仁義里","LIN":"29鄰","STREET":"中清一街","SECT":" ","MAREA":" ","LANE":" ","ALLEY":" ","HOUSE_NO":"５２號五樓之４","E_COORD97":173662.98999999999,"N_COORD97":2541540.0699999998,"ADDRESS":"中清一街５２號五樓之４","OBJECTID":571963},"geometry":{"x":173662.99000000022,"y":2541540.0700000022}},{"attributes":{"ID":571991,"DIS_CODE":0,"TOWNNAME":"仁德區","LI":"仁義里","LIN":"29鄰","STREET":"中清一街","SECT":" ","MAREA":" ","LANE":" ","ALLEY":" ","HOUSE_NO":"５２號七樓之１","E_COORD97":173662.97,"N_COORD97":2541540.0699999998,"ADDRESS":"中清一街５２號七樓之１","OBJECTID":571964},"geometry":{"x":173662.96999999974,"y":2541540.0700000022}},{"attributes":{"ID":571992,"DIS_CODE":0,"TOWNNAME":"仁德區","LI":"仁義里","LIN":"29鄰","STREET":"中清一街","SECT":" ","MAREA":" ","LANE":" ","ALLEY":" ","HOUSE_NO":"５２號七樓之３","E_COORD97":173663.07000000001,"N_COORD97":2541540.0699999998,"ADDRESS":"中清一街５２號七樓之３","OBJECTID":571965},"geometry":{"x":173663.06999999937,"y":2541540.0700000022}},{"attributes":{"ID":571993,"DIS_CODE":0,"TOWNNAME":"仁德區","LI":"仁義里","LIN":"29鄰","STREET":"中清一街","SECT":" ","MAREA":" ","LANE":" ","ALLEY":" ","HOUSE_NO":"５２號三樓之４","E_COORD97":173662.98999999999,"N_COORD97":2541540.0699999998,"ADDRESS":"中清一街５２號三樓之４","OBJECTID":571966},"geometry":{"x":173662.99000000022,"y":2541540.0700000022}},{"attributes":{"ID":571994,"DIS_CODE":0,"TOWNNAME":"仁德區","LI":"仁義里","LIN":"29鄰","STREET":"中清一街","SECT":" ","MAREA":" ","LANE":" ","ALLEY":" ","HOUSE_NO":"５２號一樓之４","E_COORD97":173662.98999999999,"N_COORD97":2541540.0699999998,"ADDRESS":"中清一街５２號一樓之４","OBJECTID":571967},"geometry":{"x":173662.99000000022,"y":2541540.0700000022}},{"attributes":{"ID":571995,"DIS_CODE":0,"TOWNNAME":"仁德區","LI":"仁義里","LIN":"29鄰","STREET":"中清一街","SECT":" ","MAREA":" ","LANE":" ","ALLEY":" ","HOUSE_NO":"５２號一樓之３","E_COORD97":173663.07000000001,"N_COORD97":2541540.0699999998,"ADDRESS":"中清一街５２號一樓之３","OBJECTID":571968},"geometry":{"x":173663.06999999937,"y":2541540.0700000022}},{"attributes":{"ID":571996,"DIS_CODE":0,"TOWNNAME":"仁德區","LI":"仁義里","LIN":"29鄰","STREET":"中清一街","SECT":" ","MAREA":" ","LANE":" ","ALLEY":" ","HOUSE_NO":"５２號七樓之４","E_COORD97":173662.98999999999,"N_COORD97":2541540.0699999998,"ADDRESS":"中清一街５２號七樓之４","OBJECTID":571969},"geometry":{"x":173662.99000000022,"y":2541540.0700000022}},{"attributes":{"ID":571997,"DIS_CODE":0,"TOWNNAME":"仁德區","LI":"仁義里","LIN":"29鄰","STREET":"中清一街","SECT":" ","MAREA":" ","LANE":" ","ALLEY":" ","HOUSE_NO":"５２號二樓之３","E_COORD97":173663.07000000001,"N_COORD97":2541540.0699999998,"ADDRESS":"中清一街５２號二樓之３","OBJECTID":571970},"geometry":{"x":173663.06999999937,"y":2541540.0700000022}},{"attributes":{"ID":571998,"DIS_CODE":0,"TOWNNAME":"仁德區","LI":"仁義里","LIN":"29鄰","STREET":"中清一街","SECT":" ","MAREA":" ","LANE":" ","ALLEY":" ","HOUSE_NO":"５２號五樓之５","E_COORD97":173663.12,"N_COORD97":2541540.0699999998,"ADDRESS":"中清一街５２號五樓之５","OBJECTID":571971},"geometry":{"x":173663.12000000104,"y":2541540.0700000022}},{"attributes":{"ID":571999,"DIS_CODE":0,"TOWNNAME":"仁德區","LI":"仁義里","LIN":"29鄰","STREET":"中清一街","SECT":" ","MAREA":" ","LANE":" ","ALLEY":" ","HOUSE_NO":"５２號二樓之２","E_COORD97":173663.10000000001,"N_COORD97":2541540.0699999998,"ADDRESS":"中清一街５２號二樓之２","OBJECTID":571972},"geometry":{"x":173663.10000000056,"y":2541540.0700000022}},{"attributes":{"ID":572000,"DIS_CODE":0,"TOWNNAME":"仁德區","LI":"仁義里","LIN":"29鄰","STREET":"中清一街","SECT":" ","MAREA":" ","LANE":" ","ALLEY":" ","HOUSE_NO":"５２號六樓之２","E_COORD97":173663.10000000001,"N_COORD97":2541540.0699999998,"ADDRESS":"中清一街５２號六樓之２","OBJECTID":571973},"geometry":{"x":173663.10000000056,"y":2541540.0700000022}},{"attributes":{"ID":572001,"DIS_CODE":0,"TOWNNAME":"仁德區","LI":"仁義里","LIN":"29鄰","STREET":"中清一街","SECT":" ","MAREA":" ","LANE":" ","ALLEY":" ","HOUSE_NO":"５２號四樓之３","E_COORD97":173663.07000000001,"N_COORD97":2541540.0699999998,"ADDRESS":"中清一街５２號四樓之３","OBJECTID":571974},"geometry":{"x":173663.06999999937,"y":2541540.0700000022}},{"attributes":{"ID":572002,"DIS_CODE":0,"TOWNNAME":"仁德區","LI":"仁義里","LIN":"29鄰","STREET":"中清一街","SECT":" ","MAREA":" ","LANE":" ","ALLEY":" ","HOUSE_NO":"５２號四樓之７","E_COORD97":173663.04999999999,"N_COORD97":2541540.0699999998,"ADDRESS":"中清一街５２號四樓之７","OBJECTID":571975},"geometry":{"x":173663.05000000075,"y":2541540.0700000022}},{"attributes":{"ID":572003,"DIS_CODE":0,"TOWNNAME":"仁德區","LI":"仁義里","LIN":"29鄰","STREET":"中清一街","SECT":" ","MAREA":" ","LANE":" ","ALLEY":" ","HOUSE_NO":"５２號一樓之５","E_COORD97":173663.12,"N_COORD97":2541540.0699999998,"ADDRESS":"中清一街５２號一樓之５","OBJECTID":571976},"geometry":{"x":173663.12000000104,"y":2541540.0700000022}},{"attributes":{"ID":572004,"DIS_CODE":0,"TOWNNAME":"仁德區","LI":"仁義里","LIN":"29鄰","STREET":"中清一街","SECT":" ","MAREA":" ","LANE":" ","ALLEY":" ","HOUSE_NO":"５２號四樓之２","E_COORD97":173663.10000000001,"N_COORD97":2541540.0699999998,"ADDRESS":"中清一街５２號四樓之２","OBJECTID":571977},"geometry":{"x":173663.10000000056,"y":2541540.0700000022}},{"attributes":{"ID":572005,"DIS_CODE":0,"TOWNNAME":"仁德區","LI":"仁義里","LIN":"29鄰","STREET":"中清一街","SECT":" ","MAREA":" ","LANE":" ","ALLEY":" ","HOUSE_NO":"５２號四樓之６","E_COORD97":173663.07000000001,"N_COORD97":2541540.0699999998,"ADDRESS":"中清一街５２號四樓之６","OBJECTID":571978},"geometry":{"x":173663.06999999937,"y":2541540.0700000022}},{"attributes":{"ID":572006,"DIS_CODE":0,"TOWNNAME":"仁德區","LI":"仁義里","LIN":"29鄰","STREET":"中清一街","SECT":" ","MAREA":" ","LANE":" ","ALLEY":" ","HOUSE_NO":"５２號一樓之６","E_COORD97":173663.07000000001,"N_COORD97":2541540.0699999998,"ADDRESS":"中清一街５２號一樓之６","OBJECTID":571979},"geometry":{"x":173663.06999999937,"y":2541540.0700000022}},{"attributes":{"ID":572007,"DIS_CODE":0,"TOWNNAME":"仁德區","LI":"仁義里","LIN":"29鄰","STREET":"中清一街","SECT":" ","MAREA":" ","LANE":" ","ALLEY":" ","HOUSE_NO":"５２號七樓之２","E_COORD97":173663.10000000001,"N_COORD97":2541540.0699999998,"ADDRESS":"中清一街５２號七樓之２","OBJECTID":571980},"geometry":{"x":173663.10000000056,"y":2541540.0700000022}},{"attributes":{"ID":572008,"DIS_CODE":0,"TOWNNAME":"仁德區","LI":"仁義里","LIN":"29鄰","STREET":"中清一街","SECT":" ","MAREA":" ","LANE":" ","ALLEY":" ","HOUSE_NO":"５２號六樓之４","E_COORD97":173662.98999999999,"N_COORD97":2541540.0699999998,"ADDRESS":"中清一街５２號六樓之４","OBJECTID":571981},"geometry":{"x":173662.99000000022,"y":2541540.0700000022}},{"attributes":{"ID":572009,"DIS_CODE":0,"TOWNNAME":"仁德區","LI":"仁義里","LIN":"29鄰","STREET":"中清一街","SECT":" ","MAREA":" ","LANE":" ","ALLEY":" ","HOUSE_NO":"５２號五樓之６","E_COORD97":173663.07000000001,"N_COORD97":2541540.0699999998,"ADDRESS":"中清一街５２號五樓之６","OBJECTID":571982},"geometry":{"x":173663.06999999937,"y":2541540.0700000022}},{"attributes":{"ID":572010,"DIS_CODE":0,"TOWNNAME":"仁德區","LI":"仁義里","LIN":"29鄰","STREET":"中清一街","SECT":" ","MAREA":" ","LANE":" ","ALLEY":" ","HOUSE_NO":"５２號一樓之７","E_COORD97":173663.04999999999,"N_COORD97":2541540.0699999998,"ADDRESS":"中清一街５２號一樓之７","OBJECTID":571983},"geometry":{"x":173663.05000000075,"y":2541540.0700000022}},{"attributes":{"ID":572011,"DIS_CODE":0,"TOWNNAME":"仁德區","LI":"仁義里","LIN":"29鄰","STREET":"中清一街","SECT":" ","MAREA":" ","LANE":" ","ALLEY":" ","HOUSE_NO":"５２號五樓之２","E_COORD97":173663.10000000001,"N_COORD97":2541540.0699999998,"ADDRESS":"中清一街５２號五樓之２","OBJECTID":571984},"geometry":{"x":173663.10000000056,"y":2541540.0700000022}},{"attributes":{"ID":572012,"DIS_CODE":0,"TOWNNAME":"仁德區","LI":"仁義里","LIN":"29鄰","STREET":"中清一街","SECT":" ","MAREA":" ","LANE":" ","ALLEY":" ","HOUSE_NO":"５２號六樓之３","E_COORD97":173663.07000000001,"N_COORD97":2541540.0699999998,"ADDRESS":"中清一街５２號六樓之３","OBJECTID":571985},"geometry":{"x":173663.06999999937,"y":2541540.0700000022}},{"attributes":{"ID":572013,"DIS_CODE":0,"TOWNNAME":"永康區","LI":"復華里","LIN":"29鄰","STREET":"復華八街","SECT":" ","MAREA":" ","LANE":" ","ALLEY":" ","HOUSE_NO":"３５號","E_COORD97":172702.88,"N_COORD97":2546219.7799999998,"ADDRESS":"復華八街３５號","OBJECTID":571986},"geometry":{"x":172702.88000000175,"y":2546219.7800000012}},{"attributes":{"ID":572014,"DIS_CODE":0,"TOWNNAME":"永康區","LI":"龍潭里","LIN":"29鄰","STREET":"中山北路","SECT":" ","MAREA":" ","LANE":" ","ALLEY":" ","HOUSE_NO":"３３５號","E_COORD97":174723.89999999999,"N_COORD97":2547692.6800000002,"ADDRESS":"中山北路３３５號","OBJECTID":571987},"geometry":{"x":174723.90000000224,"y":2547692.6800000016}},{"attributes":{"ID":572015,"DIS_CODE":0,"TOWNNAME":"永康區","LI":"復華里","LIN":"29鄰","STREET":"復國一路","SECT":" ","MAREA":" ","LANE":" ","ALLEY":" ","HOUSE_NO":"５２４號","E_COORD97":172570.26999999999,"N_COORD97":2546212.7000000002,"ADDRESS":"復國一路５２４號","OBJECTID":571988},"geometry":{"x":172570.26999999955,"y":2546212.7000000011}},{"attributes":{"ID":572016,"DIS_CODE":0,"TOWNNAME":"永康區","LI":"復華里","LIN":"29鄰","STREET":"復國一路","SECT":" ","MAREA":" ","LANE":" ","ALLEY":" ","HOUSE_NO":"４７６號","E_COORD97":172643.97,"N_COORD97":2546120.7000000002,"ADDRESS":"復國一路４７６號","OBJECTID":571989},"geometry":{"x":172643.96999999974,"y":2546120.700000003}},{"attributes":{"ID":572017,"DIS_CODE":0,"TOWNNAME":"永康區","LI":"復華里","LIN":"29鄰","STREET":"復國一路","SECT":" ","MAREA":" ","LANE":" ","ALLEY":" ","HOUSE_NO":"４８２號","E_COORD97":172635.37,"N_COORD97":2546130.9500000002,"ADDRESS":"復國一路４８２號","OBJECTID":571990},"geometry":{"x":172635.37000000197,"y":2546130.9499999993}},{"attributes":{"ID":572018,"DIS_CODE":0,"TOWNNAME":"永康區","LI":"復國里","LIN":"29鄰","STREET":"復華二街","SECT":" ","MAREA":" ","LANE":" ","ALLEY":" ","HOUSE_NO":"５號","E_COORD97":172646.17999999999,"N_COORD97":2545343.02,"ADDRESS":"復華二街５號","OBJECTID":571991},"geometry":{"x":172646.1799999997,"y":2545343.0200000014}},{"attributes":{"ID":572019,"DIS_CODE":0,"TOWNNAME":"東區","LI":"小東里","LIN":"30鄰","STREET":"東平路","SECT":" ","MAREA":" ","LANE":" ","ALLEY":" ","HOUSE_NO":"２４８號","E_COORD97":170743.56,"N_COORD97":2544020.3999999999,"ADDRESS":"東平路２４８號","OBJECTID":571992},"geometry":{"x":170743.56000000052,"y":2544020.4000000004}},{"attributes":{"ID":572020,"DIS_CODE":0,"TOWNNAME":"東區","LI":"小東里","LIN":"30鄰","STREET":"東平路","SECT":" ","MAREA":" ","LANE":" ","ALLEY":" ","HOUSE_NO":"２５０號","E_COORD97":170738.82999999999,"N_COORD97":2544019.8100000001,"ADDRESS":"東平路２５０號","OBJECTID":571993},"geometry":{"x":170738.83000000101,"y":2544019.8100000024}},{"attributes":{"ID":572021,"DIS_CODE":0,"TOWNNAME":"東區","LI":"小東里","LIN":"30鄰","STREET":"東平路","SECT":" ","MAREA":" ","LANE":" ","ALLEY":" ","HOUSE_NO":"２５０號之１","E_COORD97":170734.92999999999,"N_COORD97":2544020.3999999999,"ADDRESS":"東平路２５０號之１","OBJECTID":571994},"geometry":{"x":170734.93000000063,"y":2544020.4000000004}},{"attributes":{"ID":572022,"DIS_CODE":0,"TOWNNAME":"東區","LI":"小東里","LIN":"30鄰","STREET":"東平路","SECT":" ","MAREA":" ","LANE":" ","ALLEY":" ","HOUSE_NO":"２５０號之２","E_COORD97":170730.20999999999,"N_COORD97":2544020.2799999998,"ADDRESS":"東平路２５０號之２","OBJECTID":571995},"geometry":{"x":170730.20999999996,"y":2544020.2799999993}},{"attributes":{"ID":572023,"DIS_CODE":0,"TOWNNAME":"東區","LI":"小東里","LIN":"30鄰","STREET":"東平路","SECT":" ","MAREA":" ","LANE":" ","ALLEY":" ","HOUSE_NO":"２５０號之３","E_COORD97":170726.42999999999,"N_COORD97":2544021.46,"ADDRESS":"東平路２５０號之３","OBJECTID":571996},"geometry":{"x":170726.43000000063,"y":2544021.4600000009}},{"attributes":{"ID":572024,"DIS_CODE":0,"TOWNNAME":"東區","LI":"小東里","LIN":"30鄰","STREET":"東平路","SECT":" ","MAREA":" ","LANE":" ","ALLEY":" ","HOUSE_NO":"２５０號之４","E_COORD97":170721.47,"N_COORD97":2544023,"ADDRESS":"東平路２５０號之４","OBJECTID":571997},"geometry":{"x":170721.46999999974,"y":2544023}},{"attributes":{"ID":572025,"DIS_CODE":0,"TOWNNAME":"永康區","LI":"復華里","LIN":"29鄰","STREET":"復國一路","SECT":" ","MAREA":" ","LANE":" ","ALLEY":" ","HOUSE_NO":"５０６號","E_COORD97":172597.63,"N_COORD97":2546177.6899999999,"ADDRESS":"復國一路５０６號","OBJECTID":571998},"geometry":{"x":172597.62999999896,"y":2546177.6899999995}},{"attributes":{"ID":572026,"DIS_CODE":0,"TOWNNAME":"永康區","LI":"復華里","LIN":"29鄰","STREET":"復國一路","SECT":" ","MAREA":" ","LANE":" ","ALLEY":" ","HOUSE_NO":"４７８號","E_COORD97":172641.26000000001,"N_COORD97":2546123.9500000002,"ADDRESS":"復國一路４７８號","OBJECTID":571999},"geometry":{"x":172641.26000000071,"y":2546123.9500000011}},{"attributes":{"ID":572027,"DIS_CODE":0,"TOWNNAME":"永康區","LI":"崑山里","LIN":"29鄰","STREET":"大仁街","SECT":" ","MAREA":" ","LANE":" ","ALLEY":" ","HOUSE_NO":"１０３號","E_COORD97":173828.19,"N_COORD97":2544788.2599999998,"ADDRESS":"大仁街１０３號","OBJECTID":572000},"geometry":{"x":173828.19000000041,"y":2544788.2599999979}}]}