{"displayFieldName":"TOWNNAME","fieldAliases":{"ID":"ID","DIS_CODE":"DIS_CODE","TOWNNAME":"TOWNNAME","LI":"LI","LIN":"LIN","STREET":"STREET","SECT":"SECT","MAREA":"MAREA","LANE":"LANE","ALLEY":"ALLEY","HOUSE_NO":"HOUSE_NO","E_COORD97":"E_COORD97","N_COORD97":"N_COORD97","ADDRESS":"ADDRESS","OBJECTID":"OBJECTID"},"geometryType":"esriGeometryPoint","spatialReference":{"wkid":102443,"latestWkid":3826},"fields":[{"name":"ID","type":"esriFieldTypeDouble","alias":"ID"},{"name":"DIS_CODE","type":"esriFieldTypeInteger","alias":"DIS_CODE"},{"name":"TOWNNAME","type":"esriFieldTypeString","alias":"TOWNNAME","length":8},{"name":"LI","type":"esriFieldTypeString","alias":"LI","length":8},{"name":"LIN","type":"esriFieldTypeString","alias":"LIN","length":12},{"name":"STREET","type":"esriFieldTypeString","alias":"STREET","length":20},{"name":"SECT","type":"esriFieldTypeString","alias":"SECT","length":8},{"name":"MAREA","type":"esriFieldTypeString","alias":"MAREA","length":12},{"name":"LANE","type":"esriFieldTypeString","alias":"LANE","length":10},{"name":"ALLEY","type":"esriFieldTypeString","alias":"ALLEY","length":10},{"name":"HOUSE_NO","type":"esriFieldTypeString","alias":"HOUSE_NO","length":20},{"name":"E_COORD97","type":"esriFieldTypeDouble","alias":"E_COORD97"},{"name":"N_COORD97","type":"esriFieldTypeDouble","alias":"N_COORD97"},{"name":"ADDRESS","type":"esriFieldTypeString","alias":"ADDRESS","length":50},{"name":"OBJECTID","type":"esriFieldTypeOID","alias":"OBJECTID"}],"features":[{"attributes":{"ID":493228,"DIS_CODE":0,"TOWNNAME":"玉井區","LI":"中正里","LIN":"1鄰","STREET":"後旦街","SECT":" ","MAREA":" ","LANE":" ","ALLEY":" ","HOUSE_NO":"１１號","E_COORD97":195348.32000000001,"N_COORD97":2558549.3199999998,"ADDRESS":"後旦街１１號","OBJECTID":493201},"geometry":{"x":195348.32000000123,"y":2558549.3200000003}},{"attributes":{"ID":493229,"DIS_CODE":0,"TOWNNAME":"玉井區","LI":"竹圍里","LIN":"1鄰","STREET":"中正路","SECT":" ","MAREA":" ","LANE":" ","ALLEY":" ","HOUSE_NO":"２８０號","E_COORD97":195172.82999999999,"N_COORD97":2558299.23,"ADDRESS":"中正路２８０號","OBJECTID":493202},"geometry":{"x":195172.83000000007,"y":2558299.2300000004}},{"attributes":{"ID":493230,"DIS_CODE":0,"TOWNNAME":"玉井區","LI":"玉田里","LIN":"1鄰","STREET":"中正路","SECT":" ","MAREA":" ","LANE":" ","ALLEY":" ","HOUSE_NO":"１４３號","E_COORD97":194947.95999999999,"N_COORD97":2558227.25,"ADDRESS":"中正路１４３號","OBJECTID":493203},"geometry":{"x":194947.95999999996,"y":2558227.25}},{"attributes":{"ID":493231,"DIS_CODE":0,"TOWNNAME":"玉井區","LI":"竹圍里","LIN":"1鄰","STREET":"中正路","SECT":" ","MAREA":" ","LANE":" ","ALLEY":" ","HOUSE_NO":"２９８號","E_COORD97":195198.42999999999,"N_COORD97":2558323.0699999998,"ADDRESS":"中正路２９８號","OBJECTID":493204},"geometry":{"x":195198.4299999997,"y":2558323.0700000003}},{"attributes":{"ID":493232,"DIS_CODE":0,"TOWNNAME":"玉井區","LI":"中正里","LIN":"1鄰","STREET":"後旦街","SECT":" ","MAREA":" ","LANE":" ","ALLEY":" ","HOUSE_NO":"９號","E_COORD97":195348.17000000001,"N_COORD97":2558544.3199999998,"ADDRESS":"後旦街９號","OBJECTID":493205},"geometry":{"x":195348.16999999993,"y":2558544.3200000022}},{"attributes":{"ID":493233,"DIS_CODE":0,"TOWNNAME":"玉井區","LI":"竹圍里","LIN":"1鄰","STREET":"中正路","SECT":" ","MAREA":" ","LANE":" ","ALLEY":" ","HOUSE_NO":"２８２號","E_COORD97":195176.42999999999,"N_COORD97":2558301.8799999999,"ADDRESS":"中正路２８２號","OBJECTID":493206},"geometry":{"x":195176.4299999997,"y":2558301.8800000008}},{"attributes":{"ID":493234,"DIS_CODE":0,"TOWNNAME":"玉井區","LI":"玉井里","LIN":"1鄰","STREET":"憲政街","SECT":" ","MAREA":" ","LANE":" ","ALLEY":" ","HOUSE_NO":"１號","E_COORD97":194691.45999999999,"N_COORD97":2558099.2599999998,"ADDRESS":"憲政街１號","OBJECTID":493207},"geometry":{"x":194691.46000000089,"y":2558099.2600000035}},{"attributes":{"ID":493235,"DIS_CODE":0,"TOWNNAME":"玉井區","LI":"玉田里","LIN":"1鄰","STREET":"中正路","SECT":" ","MAREA":" ","LANE":" ","ALLEY":" ","HOUSE_NO":"１７９號","E_COORD97":195024.95999999999,"N_COORD97":2558240.25,"ADDRESS":"中正路１７９號","OBJECTID":493208},"geometry":{"x":195024.96000000089,"y":2558240.25}},{"attributes":{"ID":493236,"DIS_CODE":0,"TOWNNAME":"玉井區","LI":"竹圍里","LIN":"1鄰","STREET":"中正路","SECT":" ","MAREA":" ","LANE":" ","ALLEY":" ","HOUSE_NO":"３０８號","E_COORD97":195220.34,"N_COORD97":2558346.5699999998,"ADDRESS":"中正路３０８號","OBJECTID":493209},"geometry":{"x":195220.34000000171,"y":2558346.5700000022}},{"attributes":{"ID":493237,"DIS_CODE":0,"TOWNNAME":"玉井區","LI":"竹圍里","LIN":"1鄰","STREET":"中正路","SECT":" ","MAREA":" ","LANE":" ","ALLEY":" ","HOUSE_NO":"２８６號","E_COORD97":195179.92999999999,"N_COORD97":2558305.0800000001,"ADDRESS":"中正路２８６號","OBJECTID":493210},"geometry":{"x":195179.9299999997,"y":2558305.0800000019}},{"attributes":{"ID":493238,"DIS_CODE":0,"TOWNNAME":"玉井區","LI":"竹圍里","LIN":"1鄰","STREET":"中正路","SECT":" ","MAREA":" ","LANE":" ","ALLEY":" ","HOUSE_NO":"２７０號","E_COORD97":195157.10999999999,"N_COORD97":2558284.0099999998,"ADDRESS":"中正路２７０號","OBJECTID":493211},"geometry":{"x":195157.11000000034,"y":2558284.0100000035}},{"attributes":{"ID":493239,"DIS_CODE":0,"TOWNNAME":"玉井區","LI":"竹圍里","LIN":"1鄰","STREET":"中正路","SECT":" ","MAREA":" ","LANE":" ","ALLEY":" ","HOUSE_NO":"２７６號","E_COORD97":195165.13,"N_COORD97":2558291.73,"ADDRESS":"中正路２７６號","OBJECTID":493212},"geometry":{"x":195165.12999999989,"y":2558291.7300000004}},{"attributes":{"ID":493240,"DIS_CODE":0,"TOWNNAME":"玉井區","LI":"竹圍里","LIN":"1鄰","STREET":"中正路","SECT":" ","MAREA":" ","LANE":" ","ALLEY":" ","HOUSE_NO":"２８８號","E_COORD97":195183.63,"N_COORD97":2558309.8300000001,"ADDRESS":"中正路２８８號","OBJECTID":493213},"geometry":{"x":195183.62999999989,"y":2558309.8300000019}},{"attributes":{"ID":493241,"DIS_CODE":0,"TOWNNAME":"玉井區","LI":"竹圍里","LIN":"1鄰","STREET":"中正路","SECT":" ","MAREA":" ","LANE":" ","ALLEY":" ","HOUSE_NO":"２７４號","E_COORD97":195162.04999999999,"N_COORD97":2558288.5299999998,"ADDRESS":"中正路２７４號","OBJECTID":493214},"geometry":{"x":195162.04999999981,"y":2558288.5299999993}},{"attributes":{"ID":493242,"DIS_CODE":0,"TOWNNAME":"玉井區","LI":"竹圍里","LIN":"1鄰","STREET":"中正路","SECT":" ","MAREA":" ","LANE":" ","ALLEY":" ","HOUSE_NO":"２９０號","E_COORD97":195187.23999999999,"N_COORD97":2558314.3599999999,"ADDRESS":"中正路２９０號","OBJECTID":493215},"geometry":{"x":195187.24000000022,"y":2558314.3599999994}},{"attributes":{"ID":493243,"DIS_CODE":0,"TOWNNAME":"玉井區","LI":"竹圍里","LIN":"1鄰","STREET":"中正路","SECT":" ","MAREA":" ","LANE":" ","ALLEY":" ","HOUSE_NO":"３０４號","E_COORD97":195220.70000000001,"N_COORD97":2558335.27,"ADDRESS":"中正路３０４號","OBJECTID":493216},"geometry":{"x":195220.70000000112,"y":2558335.2699999996}},{"attributes":{"ID":493244,"DIS_CODE":0,"TOWNNAME":"玉井區","LI":"竹圍里","LIN":"1鄰","STREET":"中正路","SECT":" ","MAREA":" ","LANE":" ","ALLEY":" ","HOUSE_NO":"３２２號","E_COORD97":195268.19,"N_COORD97":2558352.1499999999,"ADDRESS":"中正路３２２號","OBJECTID":493217},"geometry":{"x":195268.19000000134,"y":2558352.1500000022}},{"attributes":{"ID":493245,"DIS_CODE":0,"TOWNNAME":"玉井區","LI":"竹圍里","LIN":"1鄰","STREET":"中山路","SECT":" ","MAREA":" ","LANE":" ","ALLEY":" ","HOUSE_NO":"３５３號","E_COORD97":195285.19,"N_COORD97":2558382.7599999998,"ADDRESS":"中山路３５３號","OBJECTID":493218},"geometry":{"x":195285.19000000134,"y":2558382.7599999998}},{"attributes":{"ID":493246,"DIS_CODE":0,"TOWNNAME":"玉井區","LI":"竹圍里","LIN":"1鄰","STREET":"中正路","SECT":" ","MAREA":" ","LANE":" ","ALLEY":" ","HOUSE_NO":"３００號","E_COORD97":195207.81,"N_COORD97":2558329.54,"ADDRESS":"中正路３００號","OBJECTID":493219},"geometry":{"x":195207.80999999959,"y":2558329.5399999991}},{"attributes":{"ID":493247,"DIS_CODE":0,"TOWNNAME":"玉井區","LI":"竹圍里","LIN":"1鄰","STREET":"中正路","SECT":" ","MAREA":" ","LANE":" ","ALLEY":" ","HOUSE_NO":"３１６號","E_COORD97":195240.26000000001,"N_COORD97":2558363.6600000001,"ADDRESS":"中正路３１６號","OBJECTID":493220},"geometry":{"x":195240.25999999978,"y":2558363.6600000001}},{"attributes":{"ID":493248,"DIS_CODE":0,"TOWNNAME":"玉井區","LI":"竹圍里","LIN":"1鄰","STREET":"中正路","SECT":" ","MAREA":" ","LANE":" ","ALLEY":" ","HOUSE_NO":"３１４號","E_COORD97":195235.54000000001,"N_COORD97":2558359.9100000001,"ADDRESS":"中正路３１４號","OBJECTID":493221},"geometry":{"x":195235.54000000004,"y":2558359.910000002}},{"attributes":{"ID":493249,"DIS_CODE":0,"TOWNNAME":"玉井區","LI":"竹圍里","LIN":"1鄰","STREET":"中正路","SECT":" ","MAREA":" ","LANE":" ","ALLEY":" ","HOUSE_NO":"３１０號","E_COORD97":195225.06,"N_COORD97":2558351.7599999998,"ADDRESS":"中正路３１０號","OBJECTID":493222},"geometry":{"x":195225.05999999959,"y":2558351.7599999998}},{"attributes":{"ID":493250,"DIS_CODE":0,"TOWNNAME":"玉井區","LI":"竹圍里","LIN":"1鄰","STREET":"中正路","SECT":" ","MAREA":" ","LANE":" ","ALLEY":" ","HOUSE_NO":"３０２號","E_COORD97":195219.54999999999,"N_COORD97":2558331.0699999998,"ADDRESS":"中正路３０２號","OBJECTID":493223},"geometry":{"x":195219.55000000075,"y":2558331.0700000003}},{"attributes":{"ID":493251,"DIS_CODE":0,"TOWNNAME":"玉井區","LI":"竹圍里","LIN":"1鄰","STREET":"中正路","SECT":" ","MAREA":" ","LANE":" ","ALLEY":" ","HOUSE_NO":"２７８號","E_COORD97":195169.14000000001,"N_COORD97":2558295.5899999999,"ADDRESS":"中正路２７８號","OBJECTID":493224},"geometry":{"x":195169.1400000006,"y":2558295.5899999999}},{"attributes":{"ID":493252,"DIS_CODE":0,"TOWNNAME":"玉井區","LI":"竹圍里","LIN":"1鄰","STREET":"中正路","SECT":" ","MAREA":" ","LANE":" ","ALLEY":" ","HOUSE_NO":"３１２號","E_COORD97":195230.19,"N_COORD97":2558355.9500000002,"ADDRESS":"中正路３１２號","OBJECTID":493225},"geometry":{"x":195230.19000000041,"y":2558355.9500000011}},{"attributes":{"ID":493253,"DIS_CODE":0,"TOWNNAME":"北區","LI":"大豐里","LIN":"1鄰","STREET":"文賢路","SECT":" ","MAREA":" ","LANE":" ","ALLEY":" ","HOUSE_NO":"２６１號","E_COORD97":167322.66,"N_COORD97":2545119.8900000001,"ADDRESS":"文賢路２６１號","OBJECTID":493226},"geometry":{"x":167322.66000000108,"y":2545119.8900000006}},{"attributes":{"ID":493254,"DIS_CODE":0,"TOWNNAME":"北區","LI":"大豐里","LIN":"1鄰","STREET":"文賢路","SECT":" ","MAREA":" ","LANE":" ","ALLEY":" ","HOUSE_NO":"２６３號","E_COORD97":167322.35999999999,"N_COORD97":2545124,"ADDRESS":"文賢路２６３號","OBJECTID":493227},"geometry":{"x":167322.36000000034,"y":2545124.0000000019}},{"attributes":{"ID":493255,"DIS_CODE":0,"TOWNNAME":"北區","LI":"大豐里","LIN":"1鄰","STREET":"文賢路","SECT":" ","MAREA":" ","LANE":" ","ALLEY":" ","HOUSE_NO":"２６５號","E_COORD97":167321.76000000001,"N_COORD97":2545128.52,"ADDRESS":"文賢路２６５號","OBJECTID":493228},"geometry":{"x":167321.76000000071,"y":2545128.5199999996}},{"attributes":{"ID":493256,"DIS_CODE":0,"TOWNNAME":"永康區","LI":"龍潭里","LIN":"39鄰","STREET":"永明街","SECT":" ","MAREA":" ","LANE":"２３１巷","ALLEY":"４２弄","HOUSE_NO":"１６號","E_COORD97":174621.94886199999,"N_COORD97":2547297.6406299998,"ADDRESS":"永明街２３１巷４２弄１６號","OBJECTID":493229},"geometry":{"x":174621.94886200223,"y":2547297.6406260002}},{"attributes":{"ID":493257,"DIS_CODE":0,"TOWNNAME":"北區","LI":"大豐里","LIN":"1鄰","STREET":"文賢路","SECT":" ","MAREA":" ","LANE":" ","ALLEY":" ","HOUSE_NO":"２６９號","E_COORD97":167321.66,"N_COORD97":2545137.8500000001,"ADDRESS":"文賢路２６９號","OBJECTID":493230},"geometry":{"x":167321.66000000015,"y":2545137.8500000015}},{"attributes":{"ID":493258,"DIS_CODE":0,"TOWNNAME":"北區","LI":"大豐里","LIN":"1鄰","STREET":"文賢路","SECT":" ","MAREA":" ","LANE":" ","ALLEY":" ","HOUSE_NO":"２７１號","E_COORD97":167321.66,"N_COORD97":2545142.5600000001,"ADDRESS":"文賢路２７１號","OBJECTID":493231},"geometry":{"x":167321.66000000015,"y":2545142.5600000005}},{"attributes":{"ID":493259,"DIS_CODE":0,"TOWNNAME":"北區","LI":"大豐里","LIN":"1鄰","STREET":"文賢路","SECT":" ","MAREA":" ","LANE":" ","ALLEY":" ","HOUSE_NO":"２７３號","E_COORD97":167321.66,"N_COORD97":2545147.7400000002,"ADDRESS":"文賢路２７３號","OBJECTID":493232},"geometry":{"x":167321.66000000015,"y":2545147.7400000002}},{"attributes":{"ID":493260,"DIS_CODE":0,"TOWNNAME":"北區","LI":"大豐里","LIN":"1鄰","STREET":"文賢路","SECT":" ","MAREA":" ","LANE":" ","ALLEY":" ","HOUSE_NO":"２７５號","E_COORD97":167321.14999999999,"N_COORD97":2545152.1499999999,"ADDRESS":"文賢路２７５號","OBJECTID":493233},"geometry":{"x":167321.1500000013,"y":2545152.1500000004}},{"attributes":{"ID":493261,"DIS_CODE":0,"TOWNNAME":"北區","LI":"大豐里","LIN":"1鄰","STREET":"文賢路","SECT":" ","MAREA":" ","LANE":" ","ALLEY":" ","HOUSE_NO":"２７７號","E_COORD97":167320.85000000001,"N_COORD97":2545155.96,"ADDRESS":"文賢路２７７號","OBJECTID":493234},"geometry":{"x":167320.85000000056,"y":2545155.9600000028}},{"attributes":{"ID":493262,"DIS_CODE":0,"TOWNNAME":"北區","LI":"大豐里","LIN":"1鄰","STREET":"文賢路","SECT":" ","MAREA":" ","LANE":" ","ALLEY":" ","HOUSE_NO":"２８１號","E_COORD97":167320.04999999999,"N_COORD97":2545164.3900000001,"ADDRESS":"文賢路２８１號","OBJECTID":493235},"geometry":{"x":167320.05000000075,"y":2545164.3900000006}},{"attributes":{"ID":493263,"DIS_CODE":0,"TOWNNAME":"北區","LI":"大豐里","LIN":"1鄰","STREET":"文賢路","SECT":" ","MAREA":" ","LANE":" ","ALLEY":" ","HOUSE_NO":"２８３號","E_COORD97":167320.85000000001,"N_COORD97":2545169.4100000001,"ADDRESS":"文賢路２８３號","OBJECTID":493236},"geometry":{"x":167320.85000000056,"y":2545169.4100000001}},{"attributes":{"ID":493264,"DIS_CODE":0,"TOWNNAME":"北區","LI":"大豐里","LIN":"1鄰","STREET":"文賢路","SECT":" ","MAREA":" ","LANE":" ","ALLEY":" ","HOUSE_NO":"２８７號","E_COORD97":167318.54000000001,"N_COORD97":2545180.1099999999,"ADDRESS":"文賢路２８７號","OBJECTID":493237},"geometry":{"x":167318.54000000097,"y":2545180.1100000013}},{"attributes":{"ID":493265,"DIS_CODE":0,"TOWNNAME":"北區","LI":"大豐里","LIN":"1鄰","STREET":"文賢路","SECT":" ","MAREA":" ","LANE":" ","ALLEY":" ","HOUSE_NO":"２８９號","E_COORD97":167318.94,"N_COORD97":2545185.1200000001,"ADDRESS":"文賢路２８９號","OBJECTID":493238},"geometry":{"x":167318.94000000041,"y":2545185.1200000029}},{"attributes":{"ID":493266,"DIS_CODE":0,"TOWNNAME":"北區","LI":"大豐里","LIN":"1鄰","STREET":"文賢路","SECT":" ","MAREA":" ","LANE":" ","ALLEY":" ","HOUSE_NO":"２９５號","E_COORD97":167320.64000000001,"N_COORD97":2545199.77,"ADDRESS":"文賢路２９５號","OBJECTID":493239},"geometry":{"x":167320.6400000006,"y":2545199.7700000014}},{"attributes":{"ID":493267,"DIS_CODE":0,"TOWNNAME":"北區","LI":"大豐里","LIN":"1鄰","STREET":"文賢路","SECT":" ","MAREA":" ","LANE":" ","ALLEY":" ","HOUSE_NO":"２９７號","E_COORD97":167320.64000000001,"N_COORD97":2545203.7799999998,"ADDRESS":"文賢路２９７號","OBJECTID":493240},"geometry":{"x":167320.6400000006,"y":2545203.7799999993}},{"attributes":{"ID":493268,"DIS_CODE":0,"TOWNNAME":"北區","LI":"大豐里","LIN":"1鄰","STREET":"文賢路","SECT":" ","MAREA":" ","LANE":" ","ALLEY":" ","HOUSE_NO":"２９９號","E_COORD97":167321.95000000001,"N_COORD97":2545208.8399999999,"ADDRESS":"文賢路２９９號","OBJECTID":493241},"geometry":{"x":167321.95000000019,"y":2545208.8400000017}},{"attributes":{"ID":493269,"DIS_CODE":0,"TOWNNAME":"北區","LI":"大豐里","LIN":"1鄰","STREET":"文賢路","SECT":" ","MAREA":" ","LANE":" ","ALLEY":" ","HOUSE_NO":"３０１號","E_COORD97":167323.10999999999,"N_COORD97":2545218.5899999999,"ADDRESS":"文賢路３０１號","OBJECTID":493242},"geometry":{"x":167323.11000000127,"y":2545218.5899999999}},{"attributes":{"ID":493270,"DIS_CODE":0,"TOWNNAME":"北區","LI":"大豐里","LIN":"1鄰","STREET":"文賢路","SECT":" ","MAREA":" ","LANE":" ","ALLEY":" ","HOUSE_NO":"３０３號","E_COORD97":167322.76000000001,"N_COORD97":2545214.5699999998,"ADDRESS":"文賢路３０３號","OBJECTID":493243},"geometry":{"x":167322.75999999978,"y":2545214.5700000022}},{"attributes":{"ID":493271,"DIS_CODE":0,"TOWNNAME":"北區","LI":"大豐里","LIN":"1鄰","STREET":"文賢路","SECT":" ","MAREA":" ","LANE":" ","ALLEY":" ","HOUSE_NO":"３０５號","E_COORD97":167323.89999999999,"N_COORD97":2545222.9100000001,"ADDRESS":"文賢路３０５號","OBJECTID":493244},"geometry":{"x":167323.90000000037,"y":2545222.910000002}},{"attributes":{"ID":493272,"DIS_CODE":0,"TOWNNAME":"北區","LI":"大豐里","LIN":"1鄰","STREET":"文賢路","SECT":" ","MAREA":" ","LANE":" ","ALLEY":" ","HOUSE_NO":"３０７號","E_COORD97":167323.85999999999,"N_COORD97":2545228.21,"ADDRESS":"文賢路３０７號","OBJECTID":493245},"geometry":{"x":167323.86000000034,"y":2545228.2100000028}},{"attributes":{"ID":493273,"DIS_CODE":0,"TOWNNAME":"北區","LI":"大豐里","LIN":"1鄰","STREET":"文賢路","SECT":" ","MAREA":" ","LANE":" ","ALLEY":" ","HOUSE_NO":"３０９號","E_COORD97":167324.45999999999,"N_COORD97":2545232.4199999999,"ADDRESS":"文賢路３０９號","OBJECTID":493246},"geometry":{"x":167324.45999999996,"y":2545232.4200000018}},{"attributes":{"ID":493274,"DIS_CODE":0,"TOWNNAME":"學甲區","LI":"仁得里","LIN":"1鄰","STREET":"四維街","SECT":" ","MAREA":" ","LANE":" ","ALLEY":" ","HOUSE_NO":"９號","E_COORD97":166265.79999999999,"N_COORD97":2569743.0600000001,"ADDRESS":"四維街９號","OBJECTID":493247},"geometry":{"x":166265.80000000075,"y":2569743.0600000005}},{"attributes":{"ID":493275,"DIS_CODE":0,"TOWNNAME":"學甲區","LI":"慈福里","LIN":"1鄰","STREET":"民生路","SECT":" ","MAREA":" ","LANE":" ","ALLEY":" ","HOUSE_NO":"７號之１","E_COORD97":166442.03,"N_COORD97":2570049.5899999999,"ADDRESS":"民生路７號之１","OBJECTID":493248},"geometry":{"x":166442.03000000212,"y":2570049.5900000017}},{"attributes":{"ID":493276,"DIS_CODE":0,"TOWNNAME":"學甲區","LI":"慈福里","LIN":"1鄰","STREET":"民生路","SECT":" ","MAREA":" ","LANE":" ","ALLEY":" ","HOUSE_NO":"７號之２","E_COORD97":166434.38,"N_COORD97":2570047.7000000002,"ADDRESS":"民生路７號之２","OBJECTID":493249},"geometry":{"x":166434.38000000082,"y":2570047.7000000011}},{"attributes":{"ID":493277,"DIS_CODE":0,"TOWNNAME":"學甲區","LI":"慈福里","LIN":"1鄰","STREET":"民生路","SECT":" ","MAREA":" ","LANE":" ","ALLEY":" ","HOUSE_NO":"７號之３","E_COORD97":166429.03,"N_COORD97":2570047.2999999998,"ADDRESS":"民生路７號之３","OBJECTID":493250},"geometry":{"x":166429.03000000119,"y":2570047.2999999989}},{"attributes":{"ID":493278,"DIS_CODE":0,"TOWNNAME":"學甲區","LI":"慈福里","LIN":"1鄰","STREET":"民生路","SECT":" ","MAREA":" ","LANE":" ","ALLEY":" ","HOUSE_NO":"７號之４","E_COORD97":166422.95000000001,"N_COORD97":2570046.8900000001,"ADDRESS":"民生路７號之４","OBJECTID":493251},"geometry":{"x":166422.95000000019,"y":2570046.8900000043}},{"attributes":{"ID":493279,"DIS_CODE":0,"TOWNNAME":"學甲區","LI":"慈福里","LIN":"1鄰","STREET":"民生路","SECT":" ","MAREA":" ","LANE":" ","ALLEY":" ","HOUSE_NO":"７號之５","E_COORD97":166418.14000000001,"N_COORD97":2570046.6600000001,"ADDRESS":"民生路７號之５","OBJECTID":493252},"geometry":{"x":166418.13999999966,"y":2570046.6600000001}},{"attributes":{"ID":493280,"DIS_CODE":0,"TOWNNAME":"學甲區","LI":"慈福里","LIN":"1鄰","STREET":"民生路","SECT":" ","MAREA":" ","LANE":" ","ALLEY":" ","HOUSE_NO":"７號之６","E_COORD97":166412.06,"N_COORD97":2570046.2599999998,"ADDRESS":"民生路７號之６","OBJECTID":493253},"geometry":{"x":166412.05999999866,"y":2570046.2599999998}},{"attributes":{"ID":493281,"DIS_CODE":0,"TOWNNAME":"學甲區","LI":"慈福里","LIN":"1鄰","STREET":"民生路","SECT":" ","MAREA":" ","LANE":" ","ALLEY":" ","HOUSE_NO":"７號","E_COORD97":166442.60000000001,"N_COORD97":2570043.04,"ADDRESS":"民生路７號","OBJECTID":493254},"geometry":{"x":166442.60000000056,"y":2570043.0399999991}},{"attributes":{"ID":493282,"DIS_CODE":0,"TOWNNAME":"學甲區","LI":"慈福里","LIN":"1鄰","STREET":"民生路","SECT":" ","MAREA":" ","LANE":" ","ALLEY":" ","HOUSE_NO":"９號之１","E_COORD97":166436.70000000001,"N_COORD97":2570066.5299999998,"ADDRESS":"民生路９號之１","OBJECTID":493255},"geometry":{"x":166436.70000000019,"y":2570066.5299999993}},{"attributes":{"ID":493283,"DIS_CODE":0,"TOWNNAME":"學甲區","LI":"慈福里","LIN":"1鄰","STREET":"民生路","SECT":" ","MAREA":" ","LANE":" ","ALLEY":" ","HOUSE_NO":"９號之２","E_COORD97":166432.10999999999,"N_COORD97":2570066.02,"ADDRESS":"民生路９號之２","OBJECTID":493256},"geometry":{"x":166432.11000000127,"y":2570066.0200000014}},{"attributes":{"ID":493284,"DIS_CODE":0,"TOWNNAME":"學甲區","LI":"慈福里","LIN":"1鄰","STREET":"民生路","SECT":" ","MAREA":" ","LANE":" ","ALLEY":" ","HOUSE_NO":"９號之３","E_COORD97":166426.29999999999,"N_COORD97":2570065.4500000002,"ADDRESS":"民生路９號之３","OBJECTID":493257},"geometry":{"x":166426.30000000075,"y":2570065.450000003}},{"attributes":{"ID":493285,"DIS_CODE":0,"TOWNNAME":"學甲區","LI":"慈福里","LIN":"1鄰","STREET":"民生路","SECT":" ","MAREA":" ","LANE":" ","ALLEY":" ","HOUSE_NO":"９號之４","E_COORD97":166421.63,"N_COORD97":2570065.29,"ADDRESS":"民生路９號之４","OBJECTID":493258},"geometry":{"x":166421.62999999989,"y":2570065.2899999991}},{"attributes":{"ID":493286,"DIS_CODE":0,"TOWNNAME":"學甲區","LI":"慈福里","LIN":"1鄰","STREET":"民生路","SECT":" ","MAREA":" ","LANE":" ","ALLEY":" ","HOUSE_NO":"９號之５","E_COORD97":166417.45999999999,"N_COORD97":2570065.2200000002,"ADDRESS":"民生路９號之５","OBJECTID":493259},"geometry":{"x":166417.46000000089,"y":2570065.2200000044}},{"attributes":{"ID":493287,"DIS_CODE":0,"TOWNNAME":"學甲區","LI":"慈福里","LIN":"1鄰","STREET":"民生路","SECT":" ","MAREA":" ","LANE":" ","ALLEY":" ","HOUSE_NO":"９號之６","E_COORD97":166413.45000000001,"N_COORD97":2570064.8799999999,"ADDRESS":"民生路９號之６","OBJECTID":493260},"geometry":{"x":166413.44999999925,"y":2570064.879999999}},{"attributes":{"ID":493288,"DIS_CODE":0,"TOWNNAME":"學甲區","LI":"慈福里","LIN":"1鄰","STREET":"民生路","SECT":" ","MAREA":" ","LANE":" ","ALLEY":" ","HOUSE_NO":"９號之７","E_COORD97":166409.51999999999,"N_COORD97":2570064.5899999999,"ADDRESS":"民生路９號之７","OBJECTID":493261},"geometry":{"x":166409.52000000048,"y":2570064.5899999999}},{"attributes":{"ID":493289,"DIS_CODE":0,"TOWNNAME":"學甲區","LI":"慈福里","LIN":"1鄰","STREET":"民生路","SECT":" ","MAREA":" ","LANE":" ","ALLEY":" ","HOUSE_NO":"９號","E_COORD97":166444.91,"N_COORD97":2570066.9100000001,"ADDRESS":"民生路９號","OBJECTID":493262},"geometry":{"x":166444.91000000108,"y":2570066.910000002}},{"attributes":{"ID":493290,"DIS_CODE":0,"TOWNNAME":"學甲區","LI":"仁得里","LIN":"1鄰","STREET":"民權路","SECT":" ","MAREA":" ","LANE":" ","ALLEY":" ","HOUSE_NO":"５３號之１","E_COORD97":166163.23000000001,"N_COORD97":2570109.6800000002,"ADDRESS":"民權路５３號之１","OBJECTID":493263},"geometry":{"x":166163.23000000138,"y":2570109.6800000016}},{"attributes":{"ID":493291,"DIS_CODE":0,"TOWNNAME":"學甲區","LI":"仁得里","LIN":"1鄰","STREET":"民權路","SECT":" ","MAREA":" ","LANE":" ","ALLEY":" ","HOUSE_NO":"５３號之２","E_COORD97":166167.23999999999,"N_COORD97":2570108.5699999998,"ADDRESS":"民權路５３號之２","OBJECTID":493264},"geometry":{"x":166167.24000000022,"y":2570108.5700000003}},{"attributes":{"ID":493292,"DIS_CODE":0,"TOWNNAME":"學甲區","LI":"仁得里","LIN":"1鄰","STREET":"民權路","SECT":" ","MAREA":" ","LANE":" ","ALLEY":" ","HOUSE_NO":"５３號之３","E_COORD97":166158.89000000001,"N_COORD97":2570091.5499999998,"ADDRESS":"民權路５３號之３","OBJECTID":493265},"geometry":{"x":166158.88999999966,"y":2570091.5500000026}},{"attributes":{"ID":493293,"DIS_CODE":0,"TOWNNAME":"學甲區","LI":"仁得里","LIN":"1鄰","STREET":"民權路","SECT":" ","MAREA":" ","LANE":" ","ALLEY":" ","HOUSE_NO":"５３號之４","E_COORD97":166158.13,"N_COORD97":2570087.7999999998,"ADDRESS":"民權路５３號之４","OBJECTID":493266},"geometry":{"x":166158.13000000082,"y":2570087.8000000007}},{"attributes":{"ID":493294,"DIS_CODE":0,"TOWNNAME":"永康區","LI":"復華里","LIN":"31鄰","STREET":"復華八街","SECT":" ","MAREA":" ","LANE":"５１巷","ALLEY":"６１弄","HOUSE_NO":"２號","E_COORD97":172597.87504700001,"N_COORD97":2546429.6289400002,"ADDRESS":"復華八街５１巷６１弄２號","OBJECTID":493267},"geometry":{"x":172597.87504700013,"y":2546429.6289409995}},{"attributes":{"ID":493295,"DIS_CODE":0,"TOWNNAME":"新營區","LI":"新南里","LIN":"17鄰","STREET":"隋唐街","SECT":" ","MAREA":" ","LANE":"３１巷","ALLEY":"６弄","HOUSE_NO":"９號","E_COORD97":178672.31,"N_COORD97":2578442.8300000001,"ADDRESS":"隋唐街３１巷６弄９號","OBJECTID":493268},"geometry":{"x":178672.31000000052,"y":2578442.8300000019}},{"attributes":{"ID":493296,"DIS_CODE":0,"TOWNNAME":"學甲區","LI":"仁得里","LIN":"1鄰","STREET":"民權路","SECT":" ","MAREA":" ","LANE":" ","ALLEY":" ","HOUSE_NO":"５３號之５","E_COORD97":166157.38,"N_COORD97":2570083.5600000001,"ADDRESS":"民權路５３號之５","OBJECTID":493269},"geometry":{"x":166157.37999999989,"y":2570083.5600000024}},{"attributes":{"ID":493297,"DIS_CODE":0,"TOWNNAME":"學甲區","LI":"仁得里","LIN":"1鄰","STREET":"民權路","SECT":" ","MAREA":" ","LANE":" ","ALLEY":" ","HOUSE_NO":"５３號之６","E_COORD97":166156.56,"N_COORD97":2570079.3399999999,"ADDRESS":"民權路５３號之６","OBJECTID":493270},"geometry":{"x":166156.56000000052,"y":2570079.3399999999}},{"attributes":{"ID":493298,"DIS_CODE":0,"TOWNNAME":"學甲區","LI":"仁得里","LIN":"1鄰","STREET":"民權路","SECT":" ","MAREA":" ","LANE":" ","ALLEY":" ","HOUSE_NO":"５３號之７","E_COORD97":166155.87,"N_COORD97":2570075.79,"ADDRESS":"民權路５３號之７","OBJECTID":493271},"geometry":{"x":166155.87000000011,"y":2570075.7899999991}},{"attributes":{"ID":493299,"DIS_CODE":0,"TOWNNAME":"學甲區","LI":"仁得里","LIN":"1鄰","STREET":"民權路","SECT":" ","MAREA":" ","LANE":" ","ALLEY":" ","HOUSE_NO":"５３號之８","E_COORD97":166155.17000000001,"N_COORD97":2570071.7200000002,"ADDRESS":"民權路５３號之８","OBJECTID":493272},"geometry":{"x":166155.16999999993,"y":2570071.7200000044}},{"attributes":{"ID":493300,"DIS_CODE":0,"TOWNNAME":"學甲區","LI":"仁得里","LIN":"1鄰","STREET":"民權路","SECT":" ","MAREA":" ","LANE":" ","ALLEY":" ","HOUSE_NO":"５３號","E_COORD97":166159.78,"N_COORD97":2570096.8300000001,"ADDRESS":"民權路５３號","OBJECTID":493273},"geometry":{"x":166159.78000000026,"y":2570096.8300000001}},{"attributes":{"ID":493301,"DIS_CODE":0,"TOWNNAME":"學甲區","LI":"仁得里","LIN":"1鄰","STREET":"民權路","SECT":" ","MAREA":" ","LANE":" ","ALLEY":" ","HOUSE_NO":"５５號之１０","E_COORD97":166142.17999999999,"N_COORD97":2570074.3300000001,"ADDRESS":"民權路５５號之１０","OBJECTID":493274},"geometry":{"x":166142.18000000063,"y":2570074.3300000019}},{"attributes":{"ID":493302,"DIS_CODE":0,"TOWNNAME":"學甲區","LI":"仁得里","LIN":"1鄰","STREET":"民權路","SECT":" ","MAREA":" ","LANE":" ","ALLEY":" ","HOUSE_NO":"５５號之１","E_COORD97":166159.10000000001,"N_COORD97":2570110.4399999999,"ADDRESS":"民權路５５號之１","OBJECTID":493275},"geometry":{"x":166159.09999999963,"y":2570110.4400000013}},{"attributes":{"ID":493303,"DIS_CODE":0,"TOWNNAME":"學甲區","LI":"仁得里","LIN":"1鄰","STREET":"民權路","SECT":" ","MAREA":" ","LANE":" ","ALLEY":" ","HOUSE_NO":"５５號之２","E_COORD97":166154.97,"N_COORD97":2570111.3100000001,"ADDRESS":"民權路５５號之２","OBJECTID":493276},"geometry":{"x":166154.96999999974,"y":2570111.3100000005}},{"attributes":{"ID":493304,"DIS_CODE":0,"TOWNNAME":"學甲區","LI":"仁得里","LIN":"1鄰","STREET":"民權路","SECT":" ","MAREA":" ","LANE":" ","ALLEY":" ","HOUSE_NO":"５５號之３","E_COORD97":166150.98999999999,"N_COORD97":2570112.48,"ADDRESS":"民權路５５號之３","OBJECTID":493277},"geometry":{"x":166150.99000000115,"y":2570112.4800000004}},{"attributes":{"ID":493305,"DIS_CODE":0,"TOWNNAME":"學甲區","LI":"仁得里","LIN":"1鄰","STREET":"民權路","SECT":" ","MAREA":" ","LANE":" ","ALLEY":" ","HOUSE_NO":"５５號之４","E_COORD97":166146,"N_COORD97":2570113.52,"ADDRESS":"民權路５５號之４","OBJECTID":493278},"geometry":{"x":166146.00000000093,"y":2570113.5200000014}},{"attributes":{"ID":493306,"DIS_CODE":0,"TOWNNAME":"學甲區","LI":"仁得里","LIN":"1鄰","STREET":"民權路","SECT":" ","MAREA":" ","LANE":" ","ALLEY":" ","HOUSE_NO":"５５號之５","E_COORD97":166145.07000000001,"N_COORD97":2570101.0899999999,"ADDRESS":"民權路５５號之５","OBJECTID":493279},"geometry":{"x":166145.07000000216,"y":2570101.0899999999}},{"attributes":{"ID":493307,"DIS_CODE":0,"TOWNNAME":"學甲區","LI":"仁得里","LIN":"1鄰","STREET":"民權路","SECT":" ","MAREA":" ","LANE":" ","ALLEY":" ","HOUSE_NO":"５５號之６","E_COORD97":166143.91,"N_COORD97":2570096.52,"ADDRESS":"民權路５５號之６","OBJECTID":493280},"geometry":{"x":166143.91000000015,"y":2570096.5200000014}},{"attributes":{"ID":493308,"DIS_CODE":0,"TOWNNAME":"學甲區","LI":"仁得里","LIN":"1鄰","STREET":"民權路","SECT":" ","MAREA":" ","LANE":" ","ALLEY":" ","HOUSE_NO":"５５號之７","E_COORD97":166142.92999999999,"N_COORD97":2570091.71,"ADDRESS":"民權路５５號之７","OBJECTID":493281},"geometry":{"x":166142.9299999997,"y":2570091.7100000009}},{"attributes":{"ID":493309,"DIS_CODE":0,"TOWNNAME":"學甲區","LI":"仁得里","LIN":"1鄰","STREET":"民權路","SECT":" ","MAREA":" ","LANE":" ","ALLEY":" ","HOUSE_NO":"５５號之８","E_COORD97":166142.26000000001,"N_COORD97":2570087.48,"ADDRESS":"民權路５５號之８","OBJECTID":493282},"geometry":{"x":166142.26000000071,"y":2570087.4800000023}},{"attributes":{"ID":493310,"DIS_CODE":0,"TOWNNAME":"學甲區","LI":"仁得里","LIN":"1鄰","STREET":"民權路","SECT":" ","MAREA":" ","LANE":" ","ALLEY":" ","HOUSE_NO":"５５號之９","E_COORD97":166143.66,"N_COORD97":2570081.4900000002,"ADDRESS":"民權路５５號之９","OBJECTID":493283},"geometry":{"x":166143.66000000015,"y":2570081.4900000002}},{"attributes":{"ID":493311,"DIS_CODE":0,"TOWNNAME":"學甲區","LI":"仁得里","LIN":"1鄰","STREET":"自立街","SECT":" ","MAREA":" ","LANE":" ","ALLEY":" ","HOUSE_NO":"４號","E_COORD97":166168.62,"N_COORD97":2569933.3199999998,"ADDRESS":"自立街４號","OBJECTID":493284},"geometry":{"x":166168.62000000104,"y":2569933.3200000022}},{"attributes":{"ID":493312,"DIS_CODE":0,"TOWNNAME":"學甲區","LI":"仁得里","LIN":"1鄰","STREET":"自立街","SECT":" ","MAREA":" ","LANE":" ","ALLEY":" ","HOUSE_NO":"１０號","E_COORD97":166155.28,"N_COORD97":2569935.1800000002,"ADDRESS":"自立街１０號","OBJECTID":493285},"geometry":{"x":166155.27999999933,"y":2569935.1799999978}},{"attributes":{"ID":493313,"DIS_CODE":0,"TOWNNAME":"學甲區","LI":"仁得里","LIN":"1鄰","STREET":"自立街","SECT":" ","MAREA":" ","LANE":" ","ALLEY":" ","HOUSE_NO":"１１號","E_COORD97":166147.20999999999,"N_COORD97":2569912.1800000002,"ADDRESS":"自立街１１號","OBJECTID":493286},"geometry":{"x":166147.21000000183,"y":2569912.1800000016}},{"attributes":{"ID":493314,"DIS_CODE":0,"TOWNNAME":"學甲區","LI":"仁得里","LIN":"1鄰","STREET":"自立街","SECT":" ","MAREA":" ","LANE":" ","ALLEY":" ","HOUSE_NO":"１２號","E_COORD97":166151.10000000001,"N_COORD97":2569935.7999999998,"ADDRESS":"自立街１２號","OBJECTID":493287},"geometry":{"x":166151.10000000056,"y":2569935.8000000045}},{"attributes":{"ID":493315,"DIS_CODE":0,"TOWNNAME":"學甲區","LI":"仁得里","LIN":"1鄰","STREET":"自立街","SECT":" ","MAREA":" ","LANE":" ","ALLEY":" ","HOUSE_NO":"１３號","E_COORD97":166142.85999999999,"N_COORD97":2569912.6800000002,"ADDRESS":"自立街１３號","OBJECTID":493288},"geometry":{"x":166142.86000000034,"y":2569912.6800000016}},{"attributes":{"ID":493316,"DIS_CODE":0,"TOWNNAME":"學甲區","LI":"仁得里","LIN":"1鄰","STREET":"自立街","SECT":" ","MAREA":" ","LANE":" ","ALLEY":" ","HOUSE_NO":"１４號","E_COORD97":166146.92000000001,"N_COORD97":2569936.4300000002,"ADDRESS":"自立街１４號","OBJECTID":493289},"geometry":{"x":166146.91999999993,"y":2569936.4299999997}},{"attributes":{"ID":493317,"DIS_CODE":0,"TOWNNAME":"學甲區","LI":"仁得里","LIN":"1鄰","STREET":"自立街","SECT":" ","MAREA":" ","LANE":" ","ALLEY":" ","HOUSE_NO":"１５號","E_COORD97":166138.78,"N_COORD97":2569913.29,"ADDRESS":"自立街１５號","OBJECTID":493290},"geometry":{"x":166138.78000000119,"y":2569913.2899999991}},{"attributes":{"ID":493318,"DIS_CODE":0,"TOWNNAME":"學甲區","LI":"仁得里","LIN":"1鄰","STREET":"自立街","SECT":" ","MAREA":" ","LANE":" ","ALLEY":" ","HOUSE_NO":"１６號","E_COORD97":166142.73999999999,"N_COORD97":2569937.0499999998,"ADDRESS":"自立街１６號","OBJECTID":493291},"geometry":{"x":166142.74000000115,"y":2569937.0500000007}},{"attributes":{"ID":493319,"DIS_CODE":0,"TOWNNAME":"學甲區","LI":"仁得里","LIN":"1鄰","STREET":"自立街","SECT":" ","MAREA":" ","LANE":" ","ALLEY":" ","HOUSE_NO":"１７號","E_COORD97":166134.42000000001,"N_COORD97":2569913.9300000002,"ADDRESS":"自立街１７號","OBJECTID":493292},"geometry":{"x":166134.42000000086,"y":2569913.9300000016}},{"attributes":{"ID":493320,"DIS_CODE":0,"TOWNNAME":"學甲區","LI":"仁得里","LIN":"1鄰","STREET":"自立街","SECT":" ","MAREA":" ","LANE":" ","ALLEY":" ","HOUSE_NO":"１８號","E_COORD97":166138.57000000001,"N_COORD97":2569937.6699999999,"ADDRESS":"自立街１８號","OBJECTID":493293},"geometry":{"x":166138.57000000123,"y":2569937.6699999999}},{"attributes":{"ID":493321,"DIS_CODE":0,"TOWNNAME":"學甲區","LI":"仁得里","LIN":"1鄰","STREET":"自立街","SECT":" ","MAREA":" ","LANE":" ","ALLEY":" ","HOUSE_NO":"１９號","E_COORD97":166129.98000000001,"N_COORD97":2569914.5,"ADDRESS":"自立街１９號","OBJECTID":493294},"geometry":{"x":166129.98000000045,"y":2569914.5000000019}},{"attributes":{"ID":493322,"DIS_CODE":0,"TOWNNAME":"學甲區","LI":"仁得里","LIN":"1鄰","STREET":"自立街","SECT":" ","MAREA":" ","LANE":" ","ALLEY":" ","HOUSE_NO":"１號","E_COORD97":166169.53,"N_COORD97":2569907.96,"ADDRESS":"自立街１號","OBJECTID":493295},"geometry":{"x":166169.53000000119,"y":2569907.9600000028}},{"attributes":{"ID":493323,"DIS_CODE":0,"TOWNNAME":"學甲區","LI":"仁得里","LIN":"1鄰","STREET":"自立街","SECT":" ","MAREA":" ","LANE":" ","ALLEY":" ","HOUSE_NO":"２０號","E_COORD97":166134.39000000001,"N_COORD97":2569938.29,"ADDRESS":"自立街２０號","OBJECTID":493296},"geometry":{"x":166134.3900000006,"y":2569938.290000001}},{"attributes":{"ID":493324,"DIS_CODE":0,"TOWNNAME":"學甲區","LI":"仁得里","LIN":"1鄰","STREET":"自立街","SECT":" ","MAREA":" ","LANE":" ","ALLEY":" ","HOUSE_NO":"２１號","E_COORD97":166125.89999999999,"N_COORD97":2569915.25,"ADDRESS":"自立街２１號","OBJECTID":493297},"geometry":{"x":166125.90000000224,"y":2569915.2500000019}},{"attributes":{"ID":493325,"DIS_CODE":0,"TOWNNAME":"學甲區","LI":"仁得里","LIN":"1鄰","STREET":"自立街","SECT":" ","MAREA":" ","LANE":" ","ALLEY":" ","HOUSE_NO":"２２號","E_COORD97":166130.20999999999,"N_COORD97":2569938.9100000001,"ADDRESS":"自立街２２號","OBJECTID":493298},"geometry":{"x":166130.21000000183,"y":2569938.910000002}},{"attributes":{"ID":493326,"DIS_CODE":0,"TOWNNAME":"學甲區","LI":"仁得里","LIN":"1鄰","STREET":"自立街","SECT":" ","MAREA":" ","LANE":" ","ALLEY":" ","HOUSE_NO":"２４號","E_COORD97":166125.12,"N_COORD97":2569944.0499999998,"ADDRESS":"自立街２４號","OBJECTID":493299},"geometry":{"x":166125.12000000011,"y":2569944.0500000045}},{"attributes":{"ID":493327,"DIS_CODE":0,"TOWNNAME":"學甲區","LI":"仁得里","LIN":"1鄰","STREET":"自立街","SECT":" ","MAREA":" ","LANE":" ","ALLEY":" ","HOUSE_NO":"２號","E_COORD97":166172.79000000001,"N_COORD97":2569932.7000000002,"ADDRESS":"自立街２號","OBJECTID":493300},"geometry":{"x":166172.79000000097,"y":2569932.7000000011}},{"attributes":{"ID":493328,"DIS_CODE":0,"TOWNNAME":"學甲區","LI":"仁得里","LIN":"1鄰","STREET":"自立街","SECT":" ","MAREA":" ","LANE":" ","ALLEY":" ","HOUSE_NO":"３４號","E_COORD97":166101.04999999999,"N_COORD97":2569945.98,"ADDRESS":"自立街３４號","OBJECTID":493301},"geometry":{"x":166101.05000000075,"y":2569945.9800000023}},{"attributes":{"ID":493329,"DIS_CODE":0,"TOWNNAME":"學甲區","LI":"仁得里","LIN":"1鄰","STREET":"自立街","SECT":" ","MAREA":" ","LANE":" ","ALLEY":" ","HOUSE_NO":"３６號","E_COORD97":166096.85000000001,"N_COORD97":2569947.3100000001,"ADDRESS":"自立街３６號","OBJECTID":493302},"geometry":{"x":166096.85000000056,"y":2569947.3100000005}},{"attributes":{"ID":493330,"DIS_CODE":0,"TOWNNAME":"學甲區","LI":"仁得里","LIN":"1鄰","STREET":"自立街","SECT":" ","MAREA":" ","LANE":" ","ALLEY":" ","HOUSE_NO":"３號","E_COORD97":166165.39999999999,"N_COORD97":2569908.77,"ADDRESS":"自立街３號","OBJECTID":493303},"geometry":{"x":166165.4000000013,"y":2569908.7700000014}},{"attributes":{"ID":493331,"DIS_CODE":0,"TOWNNAME":"學甲區","LI":"仁得里","LIN":"1鄰","STREET":"自立街","SECT":" ","MAREA":" ","LANE":" ","ALLEY":" ","HOUSE_NO":"４１號","E_COORD97":166061.92999999999,"N_COORD97":2569916.5699999998,"ADDRESS":"自立街４１號","OBJECTID":493304},"geometry":{"x":166061.9299999997,"y":2569916.570000004}},{"attributes":{"ID":493332,"DIS_CODE":0,"TOWNNAME":"永康區","LI":"復華里","LIN":"31鄰","STREET":"復華八街","SECT":" ","MAREA":" ","LANE":"５１巷","ALLEY":"６１弄","HOUSE_NO":"１６號","E_COORD97":172595.33223900001,"N_COORD97":2546408.9914500001,"ADDRESS":"復華八街５１巷６１弄１６號","OBJECTID":493305},"geometry":{"x":172595.33223900106,"y":2546408.991452001}},{"attributes":{"ID":493333,"DIS_CODE":0,"TOWNNAME":"學甲區","LI":"仁得里","LIN":"1鄰","STREET":"自立街","SECT":" ","MAREA":" ","LANE":" ","ALLEY":" ","HOUSE_NO":"５號","E_COORD97":166160.97,"N_COORD97":2569909.79,"ADDRESS":"自立街５號","OBJECTID":493306},"geometry":{"x":166160.97000000067,"y":2569909.7899999991}},{"attributes":{"ID":493334,"DIS_CODE":0,"TOWNNAME":"學甲區","LI":"仁得里","LIN":"1鄰","STREET":"自立街","SECT":" ","MAREA":" ","LANE":" ","ALLEY":" ","HOUSE_NO":"９號","E_COORD97":166151.82000000001,"N_COORD97":2569911.5099999998,"ADDRESS":"自立街９號","OBJECTID":493307},"geometry":{"x":166151.82000000216,"y":2569911.5099999998}},{"attributes":{"ID":493335,"DIS_CODE":0,"TOWNNAME":"學甲區","LI":"仁得里","LIN":"1鄰","STREET":"自強路","SECT":" ","MAREA":" ","LANE":" ","ALLEY":" ","HOUSE_NO":"１２號","E_COORD97":166313.45000000001,"N_COORD97":2569850.2200000002,"ADDRESS":"自強路１２號","OBJECTID":493308},"geometry":{"x":166313.44999999925,"y":2569850.2200000007}},{"attributes":{"ID":493336,"DIS_CODE":0,"TOWNNAME":"學甲區","LI":"仁得里","LIN":"1鄰","STREET":"自強路","SECT":" ","MAREA":" ","LANE":" ","ALLEY":" ","HOUSE_NO":"１８號","E_COORD97":166294.82000000001,"N_COORD97":2569853.0099999998,"ADDRESS":"自強路１８號","OBJECTID":493309},"geometry":{"x":166294.82000000123,"y":2569853.0100000016}},{"attributes":{"ID":493337,"DIS_CODE":0,"TOWNNAME":"學甲區","LI":"仁得里","LIN":"1鄰","STREET":"自強路","SECT":" ","MAREA":" ","LANE":" ","ALLEY":" ","HOUSE_NO":"１９號","E_COORD97":166281.79000000001,"N_COORD97":2569820.3799999999,"ADDRESS":"自強路１９號","OBJECTID":493310},"geometry":{"x":166281.79000000004,"y":2569820.379999999}},{"attributes":{"ID":493338,"DIS_CODE":0,"TOWNNAME":"學甲區","LI":"仁得里","LIN":"1鄰","STREET":"自強路","SECT":" ","MAREA":" ","LANE":" ","ALLEY":" ","HOUSE_NO":"１號","E_COORD97":166355.87,"N_COORD97":2569820.5499999998,"ADDRESS":"自強路１號","OBJECTID":493311},"geometry":{"x":166355.87000000011,"y":2569820.5500000007}},{"attributes":{"ID":493339,"DIS_CODE":0,"TOWNNAME":"學甲區","LI":"仁得里","LIN":"1鄰","STREET":"自強路","SECT":" ","MAREA":" ","LANE":" ","ALLEY":" ","HOUSE_NO":"２３號","E_COORD97":166271.16,"N_COORD97":2569820.6499999999,"ADDRESS":"自強路２３號","OBJECTID":493312},"geometry":{"x":166271.16000000015,"y":2569820.6500000004}},{"attributes":{"ID":493340,"DIS_CODE":0,"TOWNNAME":"學甲區","LI":"仁得里","LIN":"1鄰","STREET":"自強路","SECT":" ","MAREA":" ","LANE":" ","ALLEY":" ","HOUSE_NO":"２６號","E_COORD97":166169.60999999999,"N_COORD97":2569863.1600000001,"ADDRESS":"自強路２６號","OBJECTID":493313},"geometry":{"x":166169.61000000034,"y":2569863.1600000001}},{"attributes":{"ID":493341,"DIS_CODE":0,"TOWNNAME":"學甲區","LI":"仁得里","LIN":"1鄰","STREET":"自強路","SECT":" ","MAREA":" ","LANE":" ","ALLEY":" ","HOUSE_NO":"２８號","E_COORD97":166149.81,"N_COORD97":2569866.0699999998,"ADDRESS":"自強路２８號","OBJECTID":493314},"geometry":{"x":166149.81000000052,"y":2569866.0700000022}},{"attributes":{"ID":493342,"DIS_CODE":0,"TOWNNAME":"學甲區","LI":"仁得里","LIN":"1鄰","STREET":"自強路","SECT":" ","MAREA":" ","LANE":" ","ALLEY":" ","HOUSE_NO":"２號","E_COORD97":166349.48999999999,"N_COORD97":2569846.5099999998,"ADDRESS":"自強路２號","OBJECTID":493315},"geometry":{"x":166349.49000000115,"y":2569846.5100000016}},{"attributes":{"ID":493343,"DIS_CODE":0,"TOWNNAME":"學甲區","LI":"仁得里","LIN":"1鄰","STREET":"自強路","SECT":" ","MAREA":" ","LANE":" ","ALLEY":" ","HOUSE_NO":"３９號","E_COORD97":166229.01999999999,"N_COORD97":2569821.5099999998,"ADDRESS":"自強路３９號","OBJECTID":493316},"geometry":{"x":166229.01999999955,"y":2569821.5100000035}},{"attributes":{"ID":493344,"DIS_CODE":0,"TOWNNAME":"學甲區","LI":"仁得里","LIN":"1鄰","STREET":"自強路","SECT":" ","MAREA":" ","LANE":" ","ALLEY":" ","HOUSE_NO":"３號","E_COORD97":166351.14999999999,"N_COORD97":2569819.9300000002,"ADDRESS":"自強路３號","OBJECTID":493317},"geometry":{"x":166351.15000000037,"y":2569819.9300000016}},{"attributes":{"ID":493345,"DIS_CODE":0,"TOWNNAME":"學甲區","LI":"仁得里","LIN":"1鄰","STREET":"自強路","SECT":" ","MAREA":" ","LANE":" ","ALLEY":" ","HOUSE_NO":"４７號","E_COORD97":166205.73000000001,"N_COORD97":2569824.9500000002,"ADDRESS":"自強路４７號","OBJECTID":493318},"geometry":{"x":166205.73000000138,"y":2569824.9500000011}},{"attributes":{"ID":493346,"DIS_CODE":0,"TOWNNAME":"學甲區","LI":"仁得里","LIN":"1鄰","STREET":"自強路","SECT":" ","MAREA":" ","LANE":" ","ALLEY":" ","HOUSE_NO":"５０號","E_COORD97":166090.76999999999,"N_COORD97":2569872.4100000001,"ADDRESS":"自強路５０號","OBJECTID":493319},"geometry":{"x":166090.77000000048,"y":2569872.4100000001}},{"attributes":{"ID":493347,"DIS_CODE":0,"TOWNNAME":"學甲區","LI":"仁得里","LIN":"1鄰","STREET":"自強路","SECT":" ","MAREA":" ","LANE":" ","ALLEY":" ","HOUSE_NO":"５號","E_COORD97":166346.54999999999,"N_COORD97":2569819.6000000001,"ADDRESS":"自強路５號","OBJECTID":493320},"geometry":{"x":166346.55000000075,"y":2569819.5999999996}},{"attributes":{"ID":493348,"DIS_CODE":0,"TOWNNAME":"學甲區","LI":"仁得里","LIN":"1鄰","STREET":"自強路","SECT":" ","MAREA":" ","LANE":" ","ALLEY":" ","HOUSE_NO":"６１號","E_COORD97":166158.47,"N_COORD97":2569828.8900000001,"ADDRESS":"自強路６１號","OBJECTID":493321},"geometry":{"x":166158.46999999974,"y":2569828.8900000006}},{"attributes":{"ID":493349,"DIS_CODE":0,"TOWNNAME":"學甲區","LI":"仁得里","LIN":"1鄰","STREET":"自強路","SECT":" ","MAREA":" ","LANE":" ","ALLEY":" ","HOUSE_NO":"６３號","E_COORD97":166149.35999999999,"N_COORD97":2569830.0600000001,"ADDRESS":"自強路６３號","OBJECTID":493322},"geometry":{"x":166149.36000000034,"y":2569830.0600000024}},{"attributes":{"ID":493350,"DIS_CODE":0,"TOWNNAME":"學甲區","LI":"仁得里","LIN":"1鄰","STREET":"自強路","SECT":" ","MAREA":" ","LANE":" ","ALLEY":" ","HOUSE_NO":"７號","E_COORD97":166341.20999999999,"N_COORD97":2569818.48,"ADDRESS":"自強路７號","OBJECTID":493323},"geometry":{"x":166341.20999999996,"y":2569818.4800000004}},{"attributes":{"ID":493351,"DIS_CODE":0,"TOWNNAME":"學甲區","LI":"仁得里","LIN":"1鄰","STREET":"自強路","SECT":" ","MAREA":" ","LANE":" ","ALLEY":" ","HOUSE_NO":"８號之１","E_COORD97":166326.95000000001,"N_COORD97":2569849.6400000001,"ADDRESS":"自強路８號之１","OBJECTID":493324},"geometry":{"x":166326.95000000019,"y":2569849.6400000025}},{"attributes":{"ID":493352,"DIS_CODE":0,"TOWNNAME":"學甲區","LI":"仁得里","LIN":"1鄰","STREET":"自強路","SECT":" ","MAREA":" ","LANE":" ","ALLEY":" ","HOUSE_NO":"８號","E_COORD97":166335.01000000001,"N_COORD97":2569850.3399999999,"ADDRESS":"自強路８號","OBJECTID":493325},"geometry":{"x":166335.01000000071,"y":2569850.3400000017}},{"attributes":{"ID":493353,"DIS_CODE":0,"TOWNNAME":"學甲區","LI":"仁得里","LIN":"1鄰","STREET":"建國路","SECT":" ","MAREA":" ","LANE":" ","ALLEY":" ","HOUSE_NO":"３９號","E_COORD97":166184.45000000001,"N_COORD97":2569989.52,"ADDRESS":"建國路３９號","OBJECTID":493326},"geometry":{"x":166184.45000000019,"y":2569989.5199999996}},{"attributes":{"ID":493354,"DIS_CODE":0,"TOWNNAME":"學甲區","LI":"仁得里","LIN":"1鄰","STREET":"建國路","SECT":" ","MAREA":" ","LANE":" ","ALLEY":" ","HOUSE_NO":"２７號之１","E_COORD97":166333.32000000001,"N_COORD97":2569966.77,"ADDRESS":"建國路２７號之１","OBJECTID":493327},"geometry":{"x":166333.32000000123,"y":2569966.7700000014}},{"attributes":{"ID":493355,"DIS_CODE":0,"TOWNNAME":"學甲區","LI":"仁得里","LIN":"1鄰","STREET":"建國路","SECT":" ","MAREA":" ","LANE":" ","ALLEY":" ","HOUSE_NO":"２７號之２","E_COORD97":166328.94,"N_COORD97":2569967.48,"ADDRESS":"建國路２７號之２","OBJECTID":493328},"geometry":{"x":166328.94000000041,"y":2569967.4800000004}},{"attributes":{"ID":493356,"DIS_CODE":0,"TOWNNAME":"學甲區","LI":"仁得里","LIN":"1鄰","STREET":"建國路","SECT":" ","MAREA":" ","LANE":" ","ALLEY":" ","HOUSE_NO":"２７號之３","E_COORD97":166324.31,"N_COORD97":2569968.1699999999,"ADDRESS":"建國路２７號之３","OBJECTID":493329},"geometry":{"x":166324.31000000052,"y":2569968.1699999999}},{"attributes":{"ID":493357,"DIS_CODE":0,"TOWNNAME":"學甲區","LI":"仁得里","LIN":"1鄰","STREET":"建國路","SECT":" ","MAREA":" ","LANE":" ","ALLEY":" ","HOUSE_NO":"３１號","E_COORD97":166313.45999999999,"N_COORD97":2569971.5600000001,"ADDRESS":"建國路３１號","OBJECTID":493330},"geometry":{"x":166313.46000000089,"y":2569971.5600000024}},{"attributes":{"ID":493358,"DIS_CODE":0,"TOWNNAME":"學甲區","LI":"仁得里","LIN":"1鄰","STREET":"建國路","SECT":" ","MAREA":" ","LANE":" ","ALLEY":" ","HOUSE_NO":"３３號","E_COORD97":166308.48000000001,"N_COORD97":2569972.8999999999,"ADDRESS":"建國路３３號","OBJECTID":493331},"geometry":{"x":166308.48000000231,"y":2569972.9000000022}},{"attributes":{"ID":493359,"DIS_CODE":0,"TOWNNAME":"學甲區","LI":"仁得里","LIN":"1鄰","STREET":"建國路","SECT":" ","MAREA":" ","LANE":" ","ALLEY":" ","HOUSE_NO":"３５號之１","E_COORD97":166299.07999999999,"N_COORD97":2569973.98,"ADDRESS":"建國路３５號之１","OBJECTID":493332},"geometry":{"x":166299.08000000194,"y":2569973.9800000004}},{"attributes":{"ID":493360,"DIS_CODE":0,"TOWNNAME":"學甲區","LI":"仁得里","LIN":"1鄰","STREET":"建國路","SECT":" ","MAREA":" ","LANE":" ","ALLEY":" ","HOUSE_NO":"３５號","E_COORD97":166303.72,"N_COORD97":2569973.71,"ADDRESS":"建國路３５號","OBJECTID":493333},"geometry":{"x":166303.71999999974,"y":2569973.7100000046}},{"attributes":{"ID":493361,"DIS_CODE":0,"TOWNNAME":"學甲區","LI":"仁得里","LIN":"1鄰","STREET":"建國路","SECT":" ","MAREA":" ","LANE":" ","ALLEY":" ","HOUSE_NO":"３６號","E_COORD97":166303.10999999999,"N_COORD97":2570007.48,"ADDRESS":"建國路３６號","OBJECTID":493334},"geometry":{"x":166303.11000000127,"y":2570007.4800000004}},{"attributes":{"ID":493362,"DIS_CODE":0,"TOWNNAME":"學甲區","LI":"仁得里","LIN":"1鄰","STREET":"建國路","SECT":" ","MAREA":" ","LANE":" ","ALLEY":" ","HOUSE_NO":"３７號之１","E_COORD97":166288.20000000001,"N_COORD97":2569974.8300000001,"ADDRESS":"建國路３７號之１","OBJECTID":493335},"geometry":{"x":166288.20000000205,"y":2569974.8300000001}},{"attributes":{"ID":493363,"DIS_CODE":0,"TOWNNAME":"學甲區","LI":"仁得里","LIN":"1鄰","STREET":"建國路","SECT":" ","MAREA":" ","LANE":" ","ALLEY":" ","HOUSE_NO":"３７號之４","E_COORD97":166225.87,"N_COORD97":2569959.98,"ADDRESS":"建國路３７號之４","OBJECTID":493336},"geometry":{"x":166225.87000000197,"y":2569959.9800000004}},{"attributes":{"ID":493364,"DIS_CODE":0,"TOWNNAME":"學甲區","LI":"仁得里","LIN":"1鄰","STREET":"建國路","SECT":" ","MAREA":" ","LANE":" ","ALLEY":" ","HOUSE_NO":"３７號","E_COORD97":166293.48999999999,"N_COORD97":2569974.4100000001,"ADDRESS":"建國路３７號","OBJECTID":493337},"geometry":{"x":166293.49000000115,"y":2569974.4100000001}},{"attributes":{"ID":493365,"DIS_CODE":0,"TOWNNAME":"學甲區","LI":"仁得里","LIN":"1鄰","STREET":"建國路","SECT":" ","MAREA":" ","LANE":" ","ALLEY":" ","HOUSE_NO":"３８號","E_COORD97":166277.97,"N_COORD97":2570018.5099999998,"ADDRESS":"建國路３８號","OBJECTID":493338},"geometry":{"x":166277.97000000067,"y":2570018.5100000016}},{"attributes":{"ID":493366,"DIS_CODE":0,"TOWNNAME":"學甲區","LI":"仁得里","LIN":"1鄰","STREET":"建國路","SECT":" ","MAREA":" ","LANE":" ","ALLEY":" ","HOUSE_NO":"４１號","E_COORD97":166177.73000000001,"N_COORD97":2569990.7400000002,"ADDRESS":"建國路４１號","OBJECTID":493339},"geometry":{"x":166177.73000000045,"y":2569990.7400000021}},{"attributes":{"ID":493367,"DIS_CODE":0,"TOWNNAME":"學甲區","LI":"仁得里","LIN":"1鄰","STREET":"建國路","SECT":" ","MAREA":" ","LANE":" ","ALLEY":" ","HOUSE_NO":"４３號","E_COORD97":166172.92999999999,"N_COORD97":2569991.1400000001,"ADDRESS":"建國路４３號","OBJECTID":493340},"geometry":{"x":166172.93000000063,"y":2569991.1400000025}},{"attributes":{"ID":493368,"DIS_CODE":0,"TOWNNAME":"學甲區","LI":"仁得里","LIN":"1鄰","STREET":"建國路","SECT":" ","MAREA":" ","LANE":" ","ALLEY":" ","HOUSE_NO":"４５號","E_COORD97":166167.72,"N_COORD97":2569991.9300000002,"ADDRESS":"建國路４５號","OBJECTID":493341},"geometry":{"x":166167.72000000067,"y":2569991.9300000016}},{"attributes":{"ID":493369,"DIS_CODE":0,"TOWNNAME":"學甲區","LI":"仁得里","LIN":"1鄰","STREET":"建國路","SECT":" ","MAREA":" ","LANE":" ","ALLEY":" ","HOUSE_NO":"４６號","E_COORD97":166260.69,"N_COORD97":2570009.6899999999,"ADDRESS":"建國路４６號","OBJECTID":493342},"geometry":{"x":166260.69000000041,"y":2570009.6900000032}},{"attributes":{"ID":493370,"DIS_CODE":0,"TOWNNAME":"安南區","LI":"砂崙里","LIN":"8鄰","STREET":"青砂街","SECT":"一段","MAREA":" ","LANE":" ","ALLEY":" ","HOUSE_NO":"６７７號","E_COORD97":159932.32999999999,"N_COORD97":2552800.4500000002,"ADDRESS":"青砂街一段６７７號","OBJECTID":493343},"geometry":{"x":159932.33000000101,"y":2552800.4499999993}},{"attributes":{"ID":493371,"DIS_CODE":0,"TOWNNAME":"北區","LI":"振興里","LIN":"4鄰","STREET":"開元路","SECT":" ","MAREA":" ","LANE":" ","ALLEY":" ","HOUSE_NO":"１９０之１號","E_COORD97":170078.28,"N_COORD97":2545302.7799999998,"ADDRESS":"開元路１９０之１號","OBJECTID":493344},"geometry":{"x":170078.28000000119,"y":2545302.7799999993}},{"attributes":{"ID":493372,"DIS_CODE":0,"TOWNNAME":"北區","LI":"裕民里","LIN":"8鄰","STREET":"金華路","SECT":"五段","MAREA":" ","LANE":" ","ALLEY":" ","HOUSE_NO":"２９之２號","E_COORD97":167618.35999999999,"N_COORD97":2544786,"ADDRESS":"金華路五段２９之２號","OBJECTID":493345},"geometry":{"x":167618.36000000127,"y":2544786}},{"attributes":{"ID":493373,"DIS_CODE":0,"TOWNNAME":"中西區","LI":"公正里","LIN":"15鄰","STREET":"衛民街","SECT":" ","MAREA":" ","LANE":" ","ALLEY":" ","HOUSE_NO":"１０６號之３６","E_COORD97":168888.79000000001,"N_COORD97":2543753.27,"ADDRESS":"衛民街１０６號之３６","OBJECTID":493346},"geometry":{"x":168888.79000000004,"y":2543753.2699999996}},{"attributes":{"ID":493374,"DIS_CODE":0,"TOWNNAME":"北區","LI":"正風里","LIN":"5鄰","STREET":"公園路","SECT":" ","MAREA":" ","LANE":" ","ALLEY":" ","HOUSE_NO":"９４８號之７","E_COORD97":169453.67999999999,"N_COORD97":2546231.1000000001,"ADDRESS":"公園路９４８號之７","OBJECTID":493347},"geometry":{"x":169453.6799999997,"y":2546231.1000000015}},{"attributes":{"ID":493375,"DIS_CODE":0,"TOWNNAME":"仁德區","LI":"仁德里","LIN":"39鄰","STREET":"文宏二街","SECT":" ","MAREA":" ","LANE":" ","ALLEY":" ","HOUSE_NO":"９０號","E_COORD97":172473.75,"N_COORD97":2541765.8300000001,"ADDRESS":"文宏二街９０號","OBJECTID":493348},"geometry":{"x":172473.75000000093,"y":2541765.8300000001}},{"attributes":{"ID":493376,"DIS_CODE":0,"TOWNNAME":"北區","LI":"大豐里","LIN":"3鄰","STREET":"武聖路","SECT":" ","MAREA":" ","LANE":" ","ALLEY":" ","HOUSE_NO":"８２號","E_COORD97":167127.59,"N_COORD97":2545168.71,"ADDRESS":"武聖路８２號","OBJECTID":493349},"geometry":{"x":167127.59000000171,"y":2545168.7100000009}},{"attributes":{"ID":493377,"DIS_CODE":0,"TOWNNAME":"東區","LI":"崇文里","LIN":"22鄰","STREET":"崇德二十一街","SECT":" ","MAREA":" ","LANE":" ","ALLEY":" ","HOUSE_NO":"４２之７號","E_COORD97":170933.20999999999,"N_COORD97":2540853.1400000001,"ADDRESS":"崇德二十一街４２之７號","OBJECTID":493350},"geometry":{"x":170933.21000000089,"y":2540853.1400000006}},{"attributes":{"ID":493378,"DIS_CODE":0,"TOWNNAME":"安南區","LI":"溪北里","LIN":"22鄰","STREET":"敬安街","SECT":" ","MAREA":" ","LANE":" ","ALLEY":" ","HOUSE_NO":"１９之１號","E_COORD97":169166.87,"N_COORD97":2547511.8599999999,"ADDRESS":"敬安街１９之１號","OBJECTID":493351},"geometry":{"x":169166.86999999918,"y":2547511.8599999994}},{"attributes":{"ID":493379,"DIS_CODE":0,"TOWNNAME":"佳里區","LI":"安西里","LIN":"39鄰","STREET":"育善街","SECT":" ","MAREA":" ","LANE":" ","ALLEY":" ","HOUSE_NO":"２４６號","E_COORD97":164962.91,"N_COORD97":2562642.7799999998,"ADDRESS":"育善街２４６號","OBJECTID":493352},"geometry":{"x":164962.91000000108,"y":2562642.7800000012}},{"attributes":{"ID":493380,"DIS_CODE":0,"TOWNNAME":"北區","LI":"正風里","LIN":"5鄰","STREET":"公園路","SECT":" ","MAREA":" ","LANE":" ","ALLEY":" ","HOUSE_NO":"９４８號之１０","E_COORD97":169439.39000000001,"N_COORD97":2546239.5899999999,"ADDRESS":"公園路９４８號之１０","OBJECTID":493353},"geometry":{"x":169439.39000000153,"y":2546239.5899999999}},{"attributes":{"ID":493381,"DIS_CODE":0,"TOWNNAME":"北區","LI":"正風里","LIN":"5鄰","STREET":"公園路","SECT":" ","MAREA":" ","LANE":" ","ALLEY":" ","HOUSE_NO":"９４８號之２","E_COORD97":169453.60000000001,"N_COORD97":2546222.7999999998,"ADDRESS":"公園路９４８號之２","OBJECTID":493354},"geometry":{"x":169453.60000000056,"y":2546222.8000000007}},{"attributes":{"ID":493382,"DIS_CODE":0,"TOWNNAME":"北區","LI":"正風里","LIN":"5鄰","STREET":"公園路","SECT":" ","MAREA":" ","LANE":" ","ALLEY":" ","HOUSE_NO":"９４８號之３","E_COORD97":169461.47,"N_COORD97":2546217.9300000002,"ADDRESS":"公園路９４８號之３","OBJECTID":493355},"geometry":{"x":169461.47000000067,"y":2546217.9300000034}},{"attributes":{"ID":493383,"DIS_CODE":0,"TOWNNAME":"安南區","LI":"布袋里","LIN":"8鄰","STREET":"長和路","SECT":"四段","MAREA":" ","LANE":" ","ALLEY":" ","HOUSE_NO":"１９０之１號","E_COORD97":168850.01999999999,"N_COORD97":2551685.2400000002,"ADDRESS":"長和路四段１９０之１號","OBJECTID":493356},"geometry":{"x":168850.02000000142,"y":2551685.2400000039}},{"attributes":{"ID":493384,"DIS_CODE":0,"TOWNNAME":"安南區","LI":"海東里","LIN":"23鄰","STREET":"大安街","SECT":" ","MAREA":" ","LANE":" ","ALLEY":" ","HOUSE_NO":"７３０之１號","E_COORD97":167011.26000000001,"N_COORD97":2549028.1000000001,"ADDRESS":"大安街７３０之１號","OBJECTID":493357},"geometry":{"x":167011.26000000071,"y":2549028.1000000015}},{"attributes":{"ID":493385,"DIS_CODE":0,"TOWNNAME":"北區","LI":"正風里","LIN":"5鄰","STREET":"公園路","SECT":" ","MAREA":" ","LANE":" ","ALLEY":" ","HOUSE_NO":"９４８號之４","E_COORD97":169470.95000000001,"N_COORD97":2546215.6699999999,"ADDRESS":"公園路９４８號之４","OBJECTID":493358},"geometry":{"x":169470.95000000019,"y":2546215.6699999999}},{"attributes":{"ID":493386,"DIS_CODE":0,"TOWNNAME":"北區","LI":"正風里","LIN":"5鄰","STREET":"公園路","SECT":" ","MAREA":" ","LANE":" ","ALLEY":" ","HOUSE_NO":"９４８號之５","E_COORD97":169474.67999999999,"N_COORD97":2546224.9399999999,"ADDRESS":"公園路９４８號之５","OBJECTID":493359},"geometry":{"x":169474.68000000156,"y":2546224.9400000013}},{"attributes":{"ID":493387,"DIS_CODE":0,"TOWNNAME":"北區","LI":"正風里","LIN":"5鄰","STREET":"公園路","SECT":" ","MAREA":" ","LANE":" ","ALLEY":" ","HOUSE_NO":"９４８號之６","E_COORD97":169464.54999999999,"N_COORD97":2546228.8300000001,"ADDRESS":"公園路９４８號之６","OBJECTID":493360},"geometry":{"x":169464.55000000075,"y":2546228.8300000001}},{"attributes":{"ID":493388,"DIS_CODE":0,"TOWNNAME":"北區","LI":"正風里","LIN":"5鄰","STREET":"公園路","SECT":" ","MAREA":" ","LANE":" ","ALLEY":" ","HOUSE_NO":"９４８號之９","E_COORD97":169437.04000000001,"N_COORD97":2546234.1600000001,"ADDRESS":"公園路９４８號之９","OBJECTID":493361},"geometry":{"x":169437.0400000019,"y":2546234.160000002}},{"attributes":{"ID":493389,"DIS_CODE":0,"TOWNNAME":"北區","LI":"實踐里","LIN":"17鄰","STREET":"大武街","SECT":" ","MAREA":" ","LANE":" ","ALLEY":" ","HOUSE_NO":"１６８號","E_COORD97":169658.91,"N_COORD97":2546116.5800000001,"ADDRESS":"大武街１６８號","OBJECTID":493362},"geometry":{"x":169658.91000000108,"y":2546116.5800000019}},{"attributes":{"ID":493390,"DIS_CODE":0,"TOWNNAME":"北區","LI":"實踐里","LIN":"17鄰","STREET":"大武街","SECT":" ","MAREA":" ","LANE":" ","ALLEY":" ","HOUSE_NO":"１７０號","E_COORD97":169660.09,"N_COORD97":2546121.2000000002,"ADDRESS":"大武街１７０號","OBJECTID":493363},"geometry":{"x":169660.08999999985,"y":2546121.2000000011}},{"attributes":{"ID":493391,"DIS_CODE":0,"TOWNNAME":"北區","LI":"實踐里","LIN":"17鄰","STREET":"大武街","SECT":" ","MAREA":" ","LANE":" ","ALLEY":" ","HOUSE_NO":"１７２號","E_COORD97":169661.37,"N_COORD97":2546126.7000000002,"ADDRESS":"大武街１７２號","OBJECTID":493364},"geometry":{"x":169661.37000000011,"y":2546126.6999999993}},{"attributes":{"ID":493392,"DIS_CODE":0,"TOWNNAME":"學甲區","LI":"仁得里","LIN":"1鄰","STREET":"四維街","SECT":" ","MAREA":" ","LANE":" ","ALLEY":" ","HOUSE_NO":"８號","E_COORD97":166269.32999999999,"N_COORD97":2569770.52,"ADDRESS":"四維街８號","OBJECTID":493365},"geometry":{"x":166269.33000000007,"y":2569770.5200000014}},{"attributes":{"ID":493393,"DIS_CODE":0,"TOWNNAME":"學甲區","LI":"仁得里","LIN":"11鄰","STREET":"四維街","SECT":" ","MAREA":" ","LANE":" ","ALLEY":" ","HOUSE_NO":"９８號","E_COORD97":165949.23000000001,"N_COORD97":2569824.3700000001,"ADDRESS":"四維街９８號","OBJECTID":493366},"geometry":{"x":165949.23000000231,"y":2569824.3700000029}},{"attributes":{"ID":493394,"DIS_CODE":0,"TOWNNAME":"永康區","LI":"永康里","LIN":"39鄰","STREET":"永大一路","SECT":" ","MAREA":" ","LANE":" ","ALLEY":" ","HOUSE_NO":"６２號五樓之９","E_COORD97":174180.62,"N_COORD97":2546456.7200000002,"ADDRESS":"永大一路６２號五樓之９","OBJECTID":493367},"geometry":{"x":174180.62000000011,"y":2546456.7200000007}},{"attributes":{"ID":493395,"DIS_CODE":0,"TOWNNAME":"永康區","LI":"永康里","LIN":"39鄰","STREET":"永大一路","SECT":" ","MAREA":" ","LANE":" ","ALLEY":" ","HOUSE_NO":"６２號五樓之３","E_COORD97":174180.64000000001,"N_COORD97":2546456.7200000002,"ADDRESS":"永大一路６２號五樓之３","OBJECTID":493368},"geometry":{"x":174180.63999999873,"y":2546456.7200000007}},{"attributes":{"ID":493396,"DIS_CODE":0,"TOWNNAME":"永康區","LI":"永康里","LIN":"39鄰","STREET":"永大一路","SECT":" ","MAREA":" ","LANE":" ","ALLEY":" ","HOUSE_NO":"６２號四樓之３","E_COORD97":174180.64000000001,"N_COORD97":2546456.7200000002,"ADDRESS":"永大一路６２號四樓之３","OBJECTID":493369},"geometry":{"x":174180.63999999873,"y":2546456.7200000007}},{"attributes":{"ID":493397,"DIS_CODE":0,"TOWNNAME":"永康區","LI":"永康里","LIN":"39鄰","STREET":"永大一路","SECT":" ","MAREA":" ","LANE":" ","ALLEY":" ","HOUSE_NO":"６２號十一樓之６","E_COORD97":174181.89000000001,"N_COORD97":2546456.7200000002,"ADDRESS":"永大一路６２號十一樓之６","OBJECTID":493370},"geometry":{"x":174181.88999999966,"y":2546456.7200000007}},{"attributes":{"ID":493398,"DIS_CODE":0,"TOWNNAME":"永康區","LI":"永康里","LIN":"39鄰","STREET":"永大一路","SECT":" ","MAREA":" ","LANE":" ","ALLEY":" ","HOUSE_NO":"６２號五樓之８","E_COORD97":174180.69,"N_COORD97":2546456.7200000002,"ADDRESS":"永大一路６２號五樓之８","OBJECTID":493371},"geometry":{"x":174180.69000000041,"y":2546456.7200000007}},{"attributes":{"ID":493399,"DIS_CODE":0,"TOWNNAME":"永康區","LI":"永康里","LIN":"39鄰","STREET":"永大一路","SECT":" ","MAREA":" ","LANE":" ","ALLEY":" ","HOUSE_NO":"６２號八樓之４","E_COORD97":174180.57000000001,"N_COORD97":2546456.7200000002,"ADDRESS":"永大一路６２號八樓之４","OBJECTID":493372},"geometry":{"x":174180.57000000123,"y":2546456.7200000007}},{"attributes":{"ID":493400,"DIS_CODE":0,"TOWNNAME":"永康區","LI":"永康里","LIN":"39鄰","STREET":"永大一路","SECT":" ","MAREA":" ","LANE":" ","ALLEY":" ","HOUSE_NO":"６２號十二樓之３","E_COORD97":174181.89000000001,"N_COORD97":2546456.7200000002,"ADDRESS":"永大一路６２號十二樓之３","OBJECTID":493373},"geometry":{"x":174181.88999999966,"y":2546456.7200000007}},{"attributes":{"ID":493401,"DIS_CODE":0,"TOWNNAME":"永康區","LI":"永康里","LIN":"39鄰","STREET":"永大一路","SECT":" ","MAREA":" ","LANE":" ","ALLEY":" ","HOUSE_NO":"６２號五樓之１","E_COORD97":174180.54000000001,"N_COORD97":2546456.7200000002,"ADDRESS":"永大一路６２號五樓之１","OBJECTID":493374},"geometry":{"x":174180.54000000097,"y":2546456.7200000007}},{"attributes":{"ID":493402,"DIS_CODE":0,"TOWNNAME":"永康區","LI":"永康里","LIN":"39鄰","STREET":"永大一路","SECT":" ","MAREA":" ","LANE":" ","ALLEY":" ","HOUSE_NO":"６２號十樓之９","E_COORD97":174180.62,"N_COORD97":2546456.7200000002,"ADDRESS":"永大一路６２號十樓之９","OBJECTID":493375},"geometry":{"x":174180.62000000011,"y":2546456.7200000007}},{"attributes":{"ID":493403,"DIS_CODE":0,"TOWNNAME":"永康區","LI":"永康里","LIN":"39鄰","STREET":"永大一路","SECT":" ","MAREA":" ","LANE":" ","ALLEY":" ","HOUSE_NO":"６２號六樓之４","E_COORD97":174180.57000000001,"N_COORD97":2546456.7200000002,"ADDRESS":"永大一路６２號六樓之４","OBJECTID":493376},"geometry":{"x":174180.57000000123,"y":2546456.7200000007}},{"attributes":{"ID":493404,"DIS_CODE":0,"TOWNNAME":"永康區","LI":"永康里","LIN":"39鄰","STREET":"永大一路","SECT":" ","MAREA":" ","LANE":" ","ALLEY":" ","HOUSE_NO":"６２號八樓之２","E_COORD97":174180.67000000001,"N_COORD97":2546456.7200000002,"ADDRESS":"永大一路６２號八樓之２","OBJECTID":493377},"geometry":{"x":174180.66999999993,"y":2546456.7200000007}},{"attributes":{"ID":493405,"DIS_CODE":0,"TOWNNAME":"永康區","LI":"永康里","LIN":"39鄰","STREET":"永大一路","SECT":" ","MAREA":" ","LANE":" ","ALLEY":" ","HOUSE_NO":"６２號十一樓之３","E_COORD97":174181.89000000001,"N_COORD97":2546456.7200000002,"ADDRESS":"永大一路６２號十一樓之３","OBJECTID":493378},"geometry":{"x":174181.88999999966,"y":2546456.7200000007}},{"attributes":{"ID":493406,"DIS_CODE":0,"TOWNNAME":"北區","LI":"和順里","LIN":"39鄰","STREET":"公園南路","SECT":" ","MAREA":" ","LANE":" ","ALLEY":" ","HOUSE_NO":"３７６號二樓","E_COORD97":168163.20999999999,"N_COORD97":2544877.04,"ADDRESS":"公園南路３７６號二樓","OBJECTID":493379},"geometry":{"x":168163.21000000089,"y":2544877.0399999991}},{"attributes":{"ID":493407,"DIS_CODE":0,"TOWNNAME":"北區","LI":"和順里","LIN":"39鄰","STREET":"公園南路","SECT":" ","MAREA":" ","LANE":" ","ALLEY":" ","HOUSE_NO":"３７８號七樓之１","E_COORD97":168147.82999999999,"N_COORD97":2544880.5499999998,"ADDRESS":"公園南路３７８號七樓之１","OBJECTID":493380},"geometry":{"x":168147.83000000007,"y":2544880.5500000026}},{"attributes":{"ID":493408,"DIS_CODE":0,"TOWNNAME":"北區","LI":"和順里","LIN":"39鄰","STREET":"公園南路","SECT":" ","MAREA":" ","LANE":" ","ALLEY":" ","HOUSE_NO":"３７８號七樓之２","E_COORD97":168147.82999999999,"N_COORD97":2544880.5499999998,"ADDRESS":"公園南路３７８號七樓之２","OBJECTID":493381},"geometry":{"x":168147.83000000007,"y":2544880.5500000026}},{"attributes":{"ID":493409,"DIS_CODE":0,"TOWNNAME":"北區","LI":"和順里","LIN":"39鄰","STREET":"公園南路","SECT":" ","MAREA":" ","LANE":" ","ALLEY":" ","HOUSE_NO":"３７８號七樓之３","E_COORD97":168147.82999999999,"N_COORD97":2544880.5499999998,"ADDRESS":"公園南路３７８號七樓之３","OBJECTID":493382},"geometry":{"x":168147.83000000007,"y":2544880.5500000026}},{"attributes":{"ID":493410,"DIS_CODE":0,"TOWNNAME":"北區","LI":"和順里","LIN":"39鄰","STREET":"公園南路","SECT":" ","MAREA":" ","LANE":" ","ALLEY":" ","HOUSE_NO":"３７８號九樓之１","E_COORD97":168147.82999999999,"N_COORD97":2544880.5499999998,"ADDRESS":"公園南路３７８號九樓之１","OBJECTID":493383},"geometry":{"x":168147.83000000007,"y":2544880.5500000026}},{"attributes":{"ID":493411,"DIS_CODE":0,"TOWNNAME":"北區","LI":"和順里","LIN":"39鄰","STREET":"公園南路","SECT":" ","MAREA":" ","LANE":" ","ALLEY":" ","HOUSE_NO":"３７８號九樓之２","E_COORD97":168147.82999999999,"N_COORD97":2544880.5499999998,"ADDRESS":"公園南路３７８號九樓之２","OBJECTID":493384},"geometry":{"x":168147.83000000007,"y":2544880.5500000026}},{"attributes":{"ID":493412,"DIS_CODE":0,"TOWNNAME":"北區","LI":"和順里","LIN":"39鄰","STREET":"公園南路","SECT":" ","MAREA":" ","LANE":" ","ALLEY":" ","HOUSE_NO":"３７８號九樓之３","E_COORD97":168147.82999999999,"N_COORD97":2544880.5499999998,"ADDRESS":"公園南路３７８號九樓之３","OBJECTID":493385},"geometry":{"x":168147.83000000007,"y":2544880.5500000026}},{"attributes":{"ID":493413,"DIS_CODE":0,"TOWNNAME":"北區","LI":"和順里","LIN":"39鄰","STREET":"公園南路","SECT":" ","MAREA":" ","LANE":" ","ALLEY":" ","HOUSE_NO":"３７８號二十一樓之１","E_COORD97":168147.82999999999,"N_COORD97":2544880.5499999998,"ADDRESS":"公園南路３７８號二十一樓之１","OBJECTID":493386},"geometry":{"x":168147.83000000007,"y":2544880.5500000026}},{"attributes":{"ID":493414,"DIS_CODE":0,"TOWNNAME":"北區","LI":"和順里","LIN":"39鄰","STREET":"公園南路","SECT":" ","MAREA":" ","LANE":" ","ALLEY":" ","HOUSE_NO":"３７８號二十一樓之２","E_COORD97":168147.82999999999,"N_COORD97":2544880.5499999998,"ADDRESS":"公園南路３７８號二十一樓之２","OBJECTID":493387},"geometry":{"x":168147.83000000007,"y":2544880.5500000026}},{"attributes":{"ID":493415,"DIS_CODE":0,"TOWNNAME":"北區","LI":"和順里","LIN":"39鄰","STREET":"公園南路","SECT":" ","MAREA":" ","LANE":" ","ALLEY":" ","HOUSE_NO":"３７８號二十一樓之３","E_COORD97":168147.82999999999,"N_COORD97":2544880.5499999998,"ADDRESS":"公園南路３７８號二十一樓之３","OBJECTID":493388},"geometry":{"x":168147.83000000007,"y":2544880.5500000026}},{"attributes":{"ID":493416,"DIS_CODE":0,"TOWNNAME":"北區","LI":"和順里","LIN":"39鄰","STREET":"公園南路","SECT":" ","MAREA":" ","LANE":" ","ALLEY":" ","HOUSE_NO":"３７８號二十二樓之１","E_COORD97":168147.82999999999,"N_COORD97":2544880.5499999998,"ADDRESS":"公園南路３７８號二十二樓之１","OBJECTID":493389},"geometry":{"x":168147.83000000007,"y":2544880.5500000026}},{"attributes":{"ID":493417,"DIS_CODE":0,"TOWNNAME":"北區","LI":"成德里","LIN":"39鄰","STREET":"北成路","SECT":" ","MAREA":" ","LANE":" ","ALLEY":" ","HOUSE_NO":"３４３號二樓","E_COORD97":168292.25,"N_COORD97":2546630.3500000001,"ADDRESS":"北成路３４３號二樓","OBJECTID":493390},"geometry":{"x":168292.25,"y":2546630.3500000015}},{"attributes":{"ID":493418,"DIS_CODE":0,"TOWNNAME":"北區","LI":"和順里","LIN":"39鄰","STREET":"公園南路","SECT":" ","MAREA":" ","LANE":" ","ALLEY":" ","HOUSE_NO":"３７８號二十二樓之２","E_COORD97":168147.82999999999,"N_COORD97":2544880.5499999998,"ADDRESS":"公園南路３７８號二十二樓之２","OBJECTID":493391},"geometry":{"x":168147.83000000007,"y":2544880.5500000026}},{"attributes":{"ID":493419,"DIS_CODE":0,"TOWNNAME":"北區","LI":"和順里","LIN":"39鄰","STREET":"公園南路","SECT":" ","MAREA":" ","LANE":" ","ALLEY":" ","HOUSE_NO":"３７８號二十二樓之３","E_COORD97":168147.82999999999,"N_COORD97":2544880.5499999998,"ADDRESS":"公園南路３７８號二十二樓之３","OBJECTID":493392},"geometry":{"x":168147.83000000007,"y":2544880.5500000026}},{"attributes":{"ID":493420,"DIS_CODE":0,"TOWNNAME":"北區","LI":"和順里","LIN":"39鄰","STREET":"公園南路","SECT":" ","MAREA":" ","LANE":" ","ALLEY":" ","HOUSE_NO":"３７８號二十三樓之１","E_COORD97":168147.82999999999,"N_COORD97":2544880.5499999998,"ADDRESS":"公園南路３７８號二十三樓之１","OBJECTID":493393},"geometry":{"x":168147.83000000007,"y":2544880.5500000026}},{"attributes":{"ID":493421,"DIS_CODE":0,"TOWNNAME":"北區","LI":"和順里","LIN":"39鄰","STREET":"公園南路","SECT":" ","MAREA":" ","LANE":" ","ALLEY":" ","HOUSE_NO":"３７８號二十三樓之２","E_COORD97":168147.82999999999,"N_COORD97":2544880.5499999998,"ADDRESS":"公園南路３７８號二十三樓之２","OBJECTID":493394},"geometry":{"x":168147.83000000007,"y":2544880.5500000026}},{"attributes":{"ID":493422,"DIS_CODE":0,"TOWNNAME":"北區","LI":"和順里","LIN":"39鄰","STREET":"公園南路","SECT":" ","MAREA":" ","LANE":" ","ALLEY":" ","HOUSE_NO":"３７８號二十三樓之３","E_COORD97":168147.82999999999,"N_COORD97":2544880.5499999998,"ADDRESS":"公園南路３７８號二十三樓之３","OBJECTID":493395},"geometry":{"x":168147.83000000007,"y":2544880.5500000026}},{"attributes":{"ID":493423,"DIS_CODE":0,"TOWNNAME":"北區","LI":"和順里","LIN":"39鄰","STREET":"公園南路","SECT":" ","MAREA":" ","LANE":" ","ALLEY":" ","HOUSE_NO":"３７８號二十樓之１","E_COORD97":168147.82999999999,"N_COORD97":2544880.5499999998,"ADDRESS":"公園南路３７８號二十樓之１","OBJECTID":493396},"geometry":{"x":168147.83000000007,"y":2544880.5500000026}},{"attributes":{"ID":493424,"DIS_CODE":0,"TOWNNAME":"北區","LI":"和順里","LIN":"39鄰","STREET":"公園南路","SECT":" ","MAREA":" ","LANE":" ","ALLEY":" ","HOUSE_NO":"３７８號二十樓之２","E_COORD97":168147.82999999999,"N_COORD97":2544880.5499999998,"ADDRESS":"公園南路３７８號二十樓之２","OBJECTID":493397},"geometry":{"x":168147.83000000007,"y":2544880.5500000026}},{"attributes":{"ID":493425,"DIS_CODE":0,"TOWNNAME":"北區","LI":"和順里","LIN":"39鄰","STREET":"公園南路","SECT":" ","MAREA":" ","LANE":" ","ALLEY":" ","HOUSE_NO":"３７８號二十樓之３","E_COORD97":168147.82999999999,"N_COORD97":2544880.5499999998,"ADDRESS":"公園南路３７８號二十樓之３","OBJECTID":493398},"geometry":{"x":168147.83000000007,"y":2544880.5500000026}},{"attributes":{"ID":493426,"DIS_CODE":0,"TOWNNAME":"北區","LI":"和順里","LIN":"39鄰","STREET":"公園南路","SECT":" ","MAREA":" ","LANE":" ","ALLEY":" ","HOUSE_NO":"３７８號二樓","E_COORD97":168147.82999999999,"N_COORD97":2544880.5499999998,"ADDRESS":"公園南路３７８號二樓","OBJECTID":493399},"geometry":{"x":168147.83000000007,"y":2544880.5500000026}},{"attributes":{"ID":493427,"DIS_CODE":0,"TOWNNAME":"北區","LI":"和順里","LIN":"39鄰","STREET":"公園南路","SECT":" ","MAREA":" ","LANE":" ","ALLEY":" ","HOUSE_NO":"３７８號八樓之１","E_COORD97":168147.82999999999,"N_COORD97":2544880.5499999998,"ADDRESS":"公園南路３７８號八樓之１","OBJECTID":493400},"geometry":{"x":168147.83000000007,"y":2544880.5500000026}}]}