{"displayFieldName":"TOWNNAME","fieldAliases":{"ID":"ID","DIS_CODE":"DIS_CODE","TOWNNAME":"TOWNNAME","LI":"LI","LIN":"LIN","STREET":"STREET","SECT":"SECT","MAREA":"MAREA","LANE":"LANE","ALLEY":"ALLEY","HOUSE_NO":"HOUSE_NO","E_COORD97":"E_COORD97","N_COORD97":"N_COORD97","ADDRESS":"ADDRESS","OBJECTID":"OBJECTID"},"geometryType":"esriGeometryPoint","spatialReference":{"wkid":102443,"latestWkid":3826},"fields":[{"name":"ID","type":"esriFieldTypeDouble","alias":"ID"},{"name":"DIS_CODE","type":"esriFieldTypeInteger","alias":"DIS_CODE"},{"name":"TOWNNAME","type":"esriFieldTypeString","alias":"TOWNNAME","length":8},{"name":"LI","type":"esriFieldTypeString","alias":"LI","length":8},{"name":"LIN","type":"esriFieldTypeString","alias":"LIN","length":12},{"name":"STREET","type":"esriFieldTypeString","alias":"STREET","length":20},{"name":"SECT","type":"esriFieldTypeString","alias":"SECT","length":8},{"name":"MAREA","type":"esriFieldTypeString","alias":"MAREA","length":12},{"name":"LANE","type":"esriFieldTypeString","alias":"LANE","length":10},{"name":"ALLEY","type":"esriFieldTypeString","alias":"ALLEY","length":10},{"name":"HOUSE_NO","type":"esriFieldTypeString","alias":"HOUSE_NO","length":20},{"name":"E_COORD97","type":"esriFieldTypeDouble","alias":"E_COORD97"},{"name":"N_COORD97","type":"esriFieldTypeDouble","alias":"N_COORD97"},{"name":"ADDRESS","type":"esriFieldTypeString","alias":"ADDRESS","length":50},{"name":"OBJECTID","type":"esriFieldTypeOID","alias":"OBJECTID"}],"features":[{"attributes":{"ID":529228,"DIS_CODE":0,"TOWNNAME":"白河區","LI":"庄內里","LIN":"6鄰","STREET":"裕民街","SECT":" ","MAREA":" ","LANE":" ","ALLEY":" ","HOUSE_NO":"７１號","E_COORD97":190841.82000000001,"N_COORD97":2583606.6000000001,"ADDRESS":"裕民街７１號","OBJECTID":529201},"geometry":{"x":190841.8200000003,"y":2583606.6000000015}},{"attributes":{"ID":529229,"DIS_CODE":0,"TOWNNAME":"白河區","LI":"庄內里","LIN":"6鄰","STREET":"裕民街","SECT":" ","MAREA":" ","LANE":" ","ALLEY":" ","HOUSE_NO":"７３號","E_COORD97":190841.89999999999,"N_COORD97":2583613.98,"ADDRESS":"裕民街７３號","OBJECTID":529202},"geometry":{"x":190841.9000000013,"y":2583613.9800000004}},{"attributes":{"ID":529230,"DIS_CODE":0,"TOWNNAME":"永康區","LI":"西勢里","LIN":"6鄰","STREET":"富強路","SECT":"一段","MAREA":" ","LANE":" ","ALLEY":" ","HOUSE_NO":"３３１號","E_COORD97":175705.51000000001,"N_COORD97":2546710.1400000001,"ADDRESS":"富強路一段３３１號","OBJECTID":529203},"geometry":{"x":175705.50999999978,"y":2546710.1400000025}},{"attributes":{"ID":529231,"DIS_CODE":0,"TOWNNAME":"東區","LI":"裕聖里","LIN":"6鄰","STREET":"裕敬一街","SECT":" ","MAREA":" ","LANE":" ","ALLEY":" ","HOUSE_NO":"１號","E_COORD97":172553.98000000001,"N_COORD97":2542224.4199999999,"ADDRESS":"裕敬一街１號","OBJECTID":529204},"geometry":{"x":172553.98000000138,"y":2542224.4200000037}},{"attributes":{"ID":529232,"DIS_CODE":0,"TOWNNAME":"永康區","LI":"西灣里","LIN":"6鄰","STREET":"大安街","SECT":" ","MAREA":" ","LANE":" ","ALLEY":" ","HOUSE_NO":"１７６號","E_COORD97":174630.20000000001,"N_COORD97":2545200.8199999998,"ADDRESS":"大安街１７６號","OBJECTID":529205},"geometry":{"x":174630.20000000205,"y":2545200.8200000003}},{"attributes":{"ID":529233,"DIS_CODE":0,"TOWNNAME":"東區","LI":"裕聖里","LIN":"6鄰","STREET":"裕敬一街","SECT":" ","MAREA":" ","LANE":" ","ALLEY":" ","HOUSE_NO":"３號","E_COORD97":172553.82000000001,"N_COORD97":2542218.1899999999,"ADDRESS":"裕敬一街３號","OBJECTID":529206},"geometry":{"x":172553.8200000003,"y":2542218.1899999995}},{"attributes":{"ID":529234,"DIS_CODE":0,"TOWNNAME":"永康區","LI":"西勢里","LIN":"6鄰","STREET":"富強路","SECT":"一段","MAREA":" ","LANE":" ","ALLEY":" ","HOUSE_NO":"３２３號","E_COORD97":175709.42000000001,"N_COORD97":2546694.3300000001,"ADDRESS":"富強路一段３２３號","OBJECTID":529207},"geometry":{"x":175709.41999999993,"y":2546694.3300000019}},{"attributes":{"ID":529235,"DIS_CODE":0,"TOWNNAME":"南區","LI":"竹溪里","LIN":" ","STREET":"體育路","SECT":" ","MAREA":" ","LANE":" ","ALLEY":" ","HOUSE_NO":"３３號","E_COORD97":168723.95000000001,"N_COORD97":2542290.8999999999,"ADDRESS":"體育路３３號","OBJECTID":529208},"geometry":{"x":168723.95000000019,"y":2542290.9000000022}},{"attributes":{"ID":529236,"DIS_CODE":0,"TOWNNAME":"永康區","LI":"西勢里","LIN":"6鄰","STREET":"富強路","SECT":"一段","MAREA":" ","LANE":" ","ALLEY":" ","HOUSE_NO":"３３７號之１","E_COORD97":175706.26999999999,"N_COORD97":2546730.2200000002,"ADDRESS":"富強路一段３３７號之１","OBJECTID":529209},"geometry":{"x":175706.27000000048,"y":2546730.2200000025}},{"attributes":{"ID":529237,"DIS_CODE":0,"TOWNNAME":"永康區","LI":"西勢里","LIN":"6鄰","STREET":"富強路","SECT":"一段","MAREA":" ","LANE":" ","ALLEY":" ","HOUSE_NO":"３２９號","E_COORD97":175703.25,"N_COORD97":2546704.3300000001,"ADDRESS":"富強路一段３２９號","OBJECTID":529210},"geometry":{"x":175703.25000000093,"y":2546704.3300000019}},{"attributes":{"ID":529238,"DIS_CODE":0,"TOWNNAME":"永康區","LI":"西灣里","LIN":"6鄰","STREET":"大安街","SECT":" ","MAREA":" ","LANE":" ","ALLEY":" ","HOUSE_NO":"１９２號","E_COORD97":174633.48000000001,"N_COORD97":2545229.9700000002,"ADDRESS":"大安街１９２號","OBJECTID":529211},"geometry":{"x":174633.47999999952,"y":2545229.9700000025}},{"attributes":{"ID":529239,"DIS_CODE":0,"TOWNNAME":"永康區","LI":"西勢里","LIN":"6鄰","STREET":"富強路","SECT":"一段","MAREA":" ","LANE":" ","ALLEY":" ","HOUSE_NO":"３３７號","E_COORD97":175704.63,"N_COORD97":2546723.3399999999,"ADDRESS":"富強路一段３３７號","OBJECTID":529212},"geometry":{"x":175704.62999999989,"y":2546723.3399999999}},{"attributes":{"ID":529240,"DIS_CODE":0,"TOWNNAME":"永康區","LI":"西灣里","LIN":"6鄰","STREET":"大安街","SECT":" ","MAREA":" ","LANE":" ","ALLEY":" ","HOUSE_NO":"１５３號","E_COORD97":174601.51000000001,"N_COORD97":2545190.4199999999,"ADDRESS":"大安街１５３號","OBJECTID":529213},"geometry":{"x":174601.50999999978,"y":2545190.4199999999}},{"attributes":{"ID":529241,"DIS_CODE":0,"TOWNNAME":"永康區","LI":"西灣里","LIN":"6鄰","STREET":"大安街","SECT":" ","MAREA":" ","LANE":" ","ALLEY":" ","HOUSE_NO":"１６０號","E_COORD97":174618.29000000001,"N_COORD97":2545179.7799999998,"ADDRESS":"大安街１６０號","OBJECTID":529214},"geometry":{"x":174618.29000000097,"y":2545179.7799999993}},{"attributes":{"ID":529242,"DIS_CODE":0,"TOWNNAME":"永康區","LI":"西灣里","LIN":"6鄰","STREET":"大安街","SECT":" ","MAREA":" ","LANE":" ","ALLEY":" ","HOUSE_NO":"１８１號","E_COORD97":174616.42000000001,"N_COORD97":2545236.0600000001,"ADDRESS":"大安街１８１號","OBJECTID":529215},"geometry":{"x":174616.41999999899,"y":2545236.0600000024}},{"attributes":{"ID":529243,"DIS_CODE":0,"TOWNNAME":"東區","LI":"裕聖里","LIN":"6鄰","STREET":"裕敬一街","SECT":" ","MAREA":" ","LANE":" ","ALLEY":" ","HOUSE_NO":"２３號","E_COORD97":172554.14999999999,"N_COORD97":2542179.3900000001,"ADDRESS":"裕敬一街２３號","OBJECTID":529216},"geometry":{"x":172554.15000000224,"y":2542179.3900000025}},{"attributes":{"ID":529244,"DIS_CODE":0,"TOWNNAME":"東區","LI":"裕聖里","LIN":"6鄰","STREET":"裕敬一街","SECT":" ","MAREA":" ","LANE":" ","ALLEY":" ","HOUSE_NO":"２５號","E_COORD97":172554.14999999999,"N_COORD97":2542172.8399999999,"ADDRESS":"裕敬一街２５號","OBJECTID":529217},"geometry":{"x":172554.15000000224,"y":2542172.8399999999}},{"attributes":{"ID":529245,"DIS_CODE":0,"TOWNNAME":"東區","LI":"裕聖里","LIN":"6鄰","STREET":"裕敬路","SECT":" ","MAREA":" ","LANE":" ","ALLEY":" ","HOUSE_NO":"２９２號","E_COORD97":172492.35999999999,"N_COORD97":2542239.9100000001,"ADDRESS":"裕敬路２９２號","OBJECTID":529218},"geometry":{"x":172492.36000000127,"y":2542239.910000002}},{"attributes":{"ID":529246,"DIS_CODE":0,"TOWNNAME":"東區","LI":"裕聖里","LIN":"6鄰","STREET":"裕敬路","SECT":" ","MAREA":" ","LANE":" ","ALLEY":" ","HOUSE_NO":"２９６號","E_COORD97":172498.70000000001,"N_COORD97":2542239.6000000001,"ADDRESS":"裕敬路２９６號","OBJECTID":529219},"geometry":{"x":172498.70000000019,"y":2542239.5999999978}},{"attributes":{"ID":529247,"DIS_CODE":0,"TOWNNAME":"東區","LI":"裕聖里","LIN":"6鄰","STREET":"裕敬路","SECT":" ","MAREA":" ","LANE":" ","ALLEY":" ","HOUSE_NO":"２９８號","E_COORD97":172506.10999999999,"N_COORD97":2542239.4500000002,"ADDRESS":"裕敬路２９８號","OBJECTID":529220},"geometry":{"x":172506.11000000034,"y":2542239.4499999993}},{"attributes":{"ID":529248,"DIS_CODE":0,"TOWNNAME":"東區","LI":"裕聖里","LIN":"6鄰","STREET":"裕敬路","SECT":" ","MAREA":" ","LANE":" ","ALLEY":" ","HOUSE_NO":"３００號","E_COORD97":172513.53,"N_COORD97":2542239.7599999998,"ADDRESS":"裕敬路３００號","OBJECTID":529221},"geometry":{"x":172513.53000000026,"y":2542239.7600000016}},{"attributes":{"ID":529249,"DIS_CODE":0,"TOWNNAME":"東區","LI":"裕聖里","LIN":"6鄰","STREET":"裕敬路","SECT":" ","MAREA":" ","LANE":" ","ALLEY":" ","HOUSE_NO":"３０２號","E_COORD97":172521.57000000001,"N_COORD97":2542239.7599999998,"ADDRESS":"裕敬路３０２號","OBJECTID":529222},"geometry":{"x":172521.5700000003,"y":2542239.7600000016}},{"attributes":{"ID":529250,"DIS_CODE":0,"TOWNNAME":"東區","LI":"裕聖里","LIN":"6鄰","STREET":"裕敬路","SECT":" ","MAREA":" ","LANE":" ","ALLEY":" ","HOUSE_NO":"３０６號","E_COORD97":172530.06,"N_COORD97":2542239.4500000002,"ADDRESS":"裕敬路３０６號","OBJECTID":529223},"geometry":{"x":172530.06000000145,"y":2542239.4499999993}},{"attributes":{"ID":529251,"DIS_CODE":0,"TOWNNAME":"東區","LI":"裕聖里","LIN":"6鄰","STREET":"裕敬路","SECT":" ","MAREA":" ","LANE":" ","ALLEY":" ","HOUSE_NO":"３０８號","E_COORD97":172552.31,"N_COORD97":2542239.6000000001,"ADDRESS":"裕敬路３０８號","OBJECTID":529224},"geometry":{"x":172552.31000000052,"y":2542239.5999999978}},{"attributes":{"ID":529252,"DIS_CODE":0,"TOWNNAME":"東區","LI":"裕聖里","LIN":"6鄰","STREET":"裕敬路","SECT":" ","MAREA":" ","LANE":" ","ALLEY":" ","HOUSE_NO":"３１０號","E_COORD97":172562.51000000001,"N_COORD97":2542239.2999999998,"ADDRESS":"裕敬路３１０號","OBJECTID":529225},"geometry":{"x":172562.50999999978,"y":2542239.3000000007}},{"attributes":{"ID":529253,"DIS_CODE":0,"TOWNNAME":"東區","LI":"裕聖里","LIN":"6鄰","STREET":"裕信路","SECT":" ","MAREA":" ","LANE":" ","ALLEY":" ","HOUSE_NO":"３５８號","E_COORD97":172582.20000000001,"N_COORD97":2542211.7999999998,"ADDRESS":"裕信路３５８號","OBJECTID":529226},"geometry":{"x":172582.20000000019,"y":2542211.8000000007}},{"attributes":{"ID":529254,"DIS_CODE":0,"TOWNNAME":"東區","LI":"東智里","LIN":"6鄰","STREET":"德東街","SECT":" ","MAREA":" ","LANE":" ","ALLEY":" ","HOUSE_NO":"８３號","E_COORD97":171010.39000000001,"N_COORD97":2540258.71,"ADDRESS":"德東街８３號","OBJECTID":529227},"geometry":{"x":171010.38999999966,"y":2540258.7100000028}},{"attributes":{"ID":529255,"DIS_CODE":0,"TOWNNAME":"東區","LI":"裕聖里","LIN":"6鄰","STREET":"裕信路","SECT":" ","MAREA":" ","LANE":" ","ALLEY":" ","HOUSE_NO":"３６６號","E_COORD97":172584.32000000001,"N_COORD97":2542187.23,"ADDRESS":"裕信路３６６號","OBJECTID":529228},"geometry":{"x":172584.3200000003,"y":2542187.2300000023}},{"attributes":{"ID":529256,"DIS_CODE":0,"TOWNNAME":"東區","LI":"裕聖里","LIN":"6鄰","STREET":"裕信路","SECT":" ","MAREA":" ","LANE":" ","ALLEY":" ","HOUSE_NO":"３６８號","E_COORD97":172584.19,"N_COORD97":2542182.02,"ADDRESS":"裕信路３６８號","OBJECTID":529229},"geometry":{"x":172584.19000000041,"y":2542182.0199999996}},{"attributes":{"ID":529257,"DIS_CODE":0,"TOWNNAME":"東區","LI":"崇文里","LIN":"6鄰","STREET":"崇德十七街","SECT":" ","MAREA":" ","LANE":" ","ALLEY":" ","HOUSE_NO":"３９號","E_COORD97":170889.70999999999,"N_COORD97":2541091.6000000001,"ADDRESS":"崇德十七街３９號","OBJECTID":529230},"geometry":{"x":170889.70999999996,"y":2541091.6000000015}},{"attributes":{"ID":529258,"DIS_CODE":0,"TOWNNAME":"麻豆區","LI":"大埕里","LIN":"6鄰","STREET":"文昌路","SECT":" ","MAREA":" ","LANE":" ","ALLEY":" ","HOUSE_NO":"３１號之５","E_COORD97":173523.38,"N_COORD97":2565135.7400000002,"ADDRESS":"文昌路３１號之５","OBJECTID":529231},"geometry":{"x":173523.38000000175,"y":2565135.7400000021}},{"attributes":{"ID":529259,"DIS_CODE":0,"TOWNNAME":"東區","LI":"文聖里","LIN":"6鄰","STREET":"裕農一街","SECT":" ","MAREA":" ","LANE":" ","ALLEY":" ","HOUSE_NO":"１９０號","E_COORD97":171906.69,"N_COORD97":2542628.1899999999,"ADDRESS":"裕農一街１９０號","OBJECTID":529232},"geometry":{"x":171906.69000000134,"y":2542628.1899999995}},{"attributes":{"ID":529260,"DIS_CODE":0,"TOWNNAME":"東區","LI":"文聖里","LIN":"6鄰","STREET":"裕農一街","SECT":" ","MAREA":" ","LANE":" ","ALLEY":" ","HOUSE_NO":"１９２之１號","E_COORD97":171901.29000000001,"N_COORD97":2542620.1899999999,"ADDRESS":"裕農一街１９２之１號","OBJECTID":529233},"geometry":{"x":171901.29000000004,"y":2542620.1900000013}},{"attributes":{"ID":529261,"DIS_CODE":0,"TOWNNAME":"東區","LI":"文聖里","LIN":"6鄰","STREET":"裕農一街","SECT":" ","MAREA":" ","LANE":" ","ALLEY":" ","HOUSE_NO":"１９２號","E_COORD97":171906.57999999999,"N_COORD97":2542623.1000000001,"ADDRESS":"裕農一街１９２號","OBJECTID":529234},"geometry":{"x":171906.57999999914,"y":2542623.1000000034}},{"attributes":{"ID":529262,"DIS_CODE":0,"TOWNNAME":"東區","LI":"文聖里","LIN":"6鄰","STREET":"裕農一街","SECT":" ","MAREA":" ","LANE":" ","ALLEY":" ","HOUSE_NO":"１９６號","E_COORD97":171907.62,"N_COORD97":2542618.5299999998,"ADDRESS":"裕農一街１９６號","OBJECTID":529235},"geometry":{"x":171907.62000000011,"y":2542618.5299999993}},{"attributes":{"ID":529263,"DIS_CODE":0,"TOWNNAME":"東區","LI":"文聖里","LIN":"6鄰","STREET":"裕農一街","SECT":" ","MAREA":" ","LANE":" ","ALLEY":" ","HOUSE_NO":"１９８號","E_COORD97":171909.91,"N_COORD97":2542614.48,"ADDRESS":"裕農一街１９８號","OBJECTID":529236},"geometry":{"x":171909.91000000108,"y":2542614.4800000042}},{"attributes":{"ID":529264,"DIS_CODE":0,"TOWNNAME":"東區","LI":"裕聖里","LIN":"6鄰","STREET":"裕信路","SECT":" ","MAREA":" ","LANE":" ","ALLEY":" ","HOUSE_NO":"３５２號","E_COORD97":172583.98999999999,"N_COORD97":2542239.2400000002,"ADDRESS":"裕信路３５２號","OBJECTID":529237},"geometry":{"x":172583.99000000115,"y":2542239.2400000002}},{"attributes":{"ID":529265,"DIS_CODE":0,"TOWNNAME":"東區","LI":"成大里","LIN":"6鄰","STREET":"育樂街","SECT":" ","MAREA":" ","LANE":" ","ALLEY":" ","HOUSE_NO":"１９２號","E_COORD97":169480.41,"N_COORD97":2543820.8100000001,"ADDRESS":"育樂街１９２號","OBJECTID":529238},"geometry":{"x":169480.41000000201,"y":2543820.8100000024}},{"attributes":{"ID":529266,"DIS_CODE":0,"TOWNNAME":"東區","LI":"東光里","LIN":"6鄰","STREET":"東光路","SECT":"一段","MAREA":" ","LANE":" ","ALLEY":" ","HOUSE_NO":"５７號","E_COORD97":171163.03,"N_COORD97":2543687.2799999998,"ADDRESS":"東光路一段５７號","OBJECTID":529239},"geometry":{"x":171163.03000000212,"y":2543687.2800000012}},{"attributes":{"ID":529267,"DIS_CODE":0,"TOWNNAME":"白河區","LI":"外角里","LIN":"6鄰","STREET":"三民路","SECT":" ","MAREA":" ","LANE":" ","ALLEY":" ","HOUSE_NO":"３３４號","E_COORD97":190548.01999999999,"N_COORD97":2583261.4500000002,"ADDRESS":"三民路３３４號","OBJECTID":529240},"geometry":{"x":190548.01999999955,"y":2583261.4500000011}},{"attributes":{"ID":529268,"DIS_CODE":0,"TOWNNAME":"白河區","LI":"白河里","LIN":"6鄰","STREET":"中山路","SECT":" ","MAREA":" ","LANE":" ","ALLEY":" ","HOUSE_NO":"５６之４號","E_COORD97":190188.64999999999,"N_COORD97":2583064.3500000001,"ADDRESS":"中山路５６之４號","OBJECTID":529241},"geometry":{"x":190188.65000000037,"y":2583064.3499999996}},{"attributes":{"ID":529269,"DIS_CODE":0,"TOWNNAME":"白河區","LI":"永安里","LIN":"6鄰","STREET":"中正路","SECT":" ","MAREA":" ","LANE":" ","ALLEY":" ","HOUSE_NO":"１０３號","E_COORD97":189901.42000000001,"N_COORD97":2583098.02,"ADDRESS":"中正路１０３號","OBJECTID":529242},"geometry":{"x":189901.41999999993,"y":2583098.0200000033}},{"attributes":{"ID":529270,"DIS_CODE":0,"TOWNNAME":"白河區","LI":"永安里","LIN":"6鄰","STREET":"五福街","SECT":" ","MAREA":" ","LANE":" ","ALLEY":" ","HOUSE_NO":"６２號","E_COORD97":189894.01999999999,"N_COORD97":2583061.4300000002,"ADDRESS":"五福街６２號","OBJECTID":529243},"geometry":{"x":189894.01999999955,"y":2583061.4300000034}},{"attributes":{"ID":529271,"DIS_CODE":0,"TOWNNAME":"白河區","LI":"白河里","LIN":"6鄰","STREET":"文明街","SECT":" ","MAREA":" ","LANE":" ","ALLEY":" ","HOUSE_NO":"５８號","E_COORD97":190236.60999999999,"N_COORD97":2583006.4399999999,"ADDRESS":"文明街５８號","OBJECTID":529244},"geometry":{"x":190236.61000000034,"y":2583006.4399999976}},{"attributes":{"ID":529272,"DIS_CODE":0,"TOWNNAME":"麻豆區","LI":"大埕里","LIN":"6鄰","STREET":"文昌路","SECT":" ","MAREA":" ","LANE":" ","ALLEY":" ","HOUSE_NO":"３１號之７","E_COORD97":173527.48000000001,"N_COORD97":2565146.71,"ADDRESS":"文昌路３１號之７","OBJECTID":529245},"geometry":{"x":173527.48000000138,"y":2565146.7100000028}},{"attributes":{"ID":529273,"DIS_CODE":0,"TOWNNAME":"南區","LI":"郡南里","LIN":"6鄰","STREET":"永興四街","SECT":" ","MAREA":" ","LANE":" ","ALLEY":" ","HOUSE_NO":"１４號","E_COORD97":167250.25,"N_COORD97":2540577.6600000001,"ADDRESS":"永興四街１４號","OBJECTID":529246},"geometry":{"x":167250.25,"y":2540577.6600000001}},{"attributes":{"ID":529274,"DIS_CODE":0,"TOWNNAME":"南區","LI":"喜北里","LIN":"6鄰","STREET":"喜樹路","SECT":" ","MAREA":" ","LANE":" ","ALLEY":" ","HOUSE_NO":"９０之２號","E_COORD97":165872.60000000001,"N_COORD97":2538399.6400000001,"ADDRESS":"喜樹路９０之２號","OBJECTID":529247},"geometry":{"x":165872.59999999963,"y":2538399.6400000025}},{"attributes":{"ID":529275,"DIS_CODE":0,"TOWNNAME":"麻豆區","LI":"大埕里","LIN":"6鄰","STREET":"文昌路","SECT":" ","MAREA":" ","LANE":" ","ALLEY":" ","HOUSE_NO":"３１號之８","E_COORD97":173535.38,"N_COORD97":2565162.6499999999,"ADDRESS":"文昌路３１號之８","OBJECTID":529248},"geometry":{"x":173535.38000000082,"y":2565162.6500000041}},{"attributes":{"ID":529276,"DIS_CODE":0,"TOWNNAME":"南區","LI":"同安里","LIN":"6鄰","STREET":"興南街","SECT":" ","MAREA":" ","LANE":" ","ALLEY":" ","HOUSE_NO":"３８號","E_COORD97":166330.51000000001,"N_COORD97":2536144.0099999998,"ADDRESS":"興南街３８號","OBJECTID":529249},"geometry":{"x":166330.50999999978,"y":2536144.0099999998}},{"attributes":{"ID":529277,"DIS_CODE":0,"TOWNNAME":"南區","LI":"同安里","LIN":"6鄰","STREET":"興南街","SECT":" ","MAREA":" ","LANE":" ","ALLEY":" ","HOUSE_NO":"３８之１號","E_COORD97":166327.32999999999,"N_COORD97":2536139.8799999999,"ADDRESS":"興南街３８之１號","OBJECTID":529250},"geometry":{"x":166327.33000000007,"y":2536139.879999999}},{"attributes":{"ID":529278,"DIS_CODE":0,"TOWNNAME":"南區","LI":"同安里","LIN":"6鄰","STREET":"興南街","SECT":" ","MAREA":" ","LANE":" ","ALLEY":" ","HOUSE_NO":"３８之２號","E_COORD97":166325.89999999999,"N_COORD97":2536136.0699999998,"ADDRESS":"興南街３８之２號","OBJECTID":529251},"geometry":{"x":166325.90000000224,"y":2536136.0700000022}},{"attributes":{"ID":529279,"DIS_CODE":0,"TOWNNAME":"麻豆區","LI":"大埕里","LIN":"6鄰","STREET":"文昌路","SECT":" ","MAREA":" ","LANE":" ","ALLEY":" ","HOUSE_NO":"３５號","E_COORD97":173554.45999999999,"N_COORD97":2565282.4399999999,"ADDRESS":"文昌路３５號","OBJECTID":529252},"geometry":{"x":173554.45999999996,"y":2565282.4400000013}},{"attributes":{"ID":529280,"DIS_CODE":0,"TOWNNAME":"麻豆區","LI":"大埕里","LIN":"6鄰","STREET":"文昌路","SECT":" ","MAREA":" ","LANE":" ","ALLEY":" ","HOUSE_NO":"３９號之１","E_COORD97":173556,"N_COORD97":2565356.0600000001,"ADDRESS":"文昌路３９號之１","OBJECTID":529253},"geometry":{"x":173556,"y":2565356.0600000005}},{"attributes":{"ID":529281,"DIS_CODE":0,"TOWNNAME":"南區","LI":"新昌里","LIN":"6鄰","STREET":"國華街","SECT":"一段","MAREA":" ","LANE":" ","ALLEY":" ","HOUSE_NO":"５０號","E_COORD97":167618.14000000001,"N_COORD97":2542652.5600000001,"ADDRESS":"國華街一段５０號","OBJECTID":529254},"geometry":{"x":167618.13999999966,"y":2542652.5600000024}},{"attributes":{"ID":529282,"DIS_CODE":0,"TOWNNAME":"南區","LI":"金華里","LIN":"6鄰","STREET":"慶南街","SECT":" ","MAREA":" ","LANE":" ","ALLEY":" ","HOUSE_NO":"１８８號","E_COORD97":166978.20000000001,"N_COORD97":2542268.4199999999,"ADDRESS":"慶南街１８８號","OBJECTID":529255},"geometry":{"x":166978.20000000112,"y":2542268.4200000037}},{"attributes":{"ID":529283,"DIS_CODE":0,"TOWNNAME":"南區","LI":"金華里","LIN":"6鄰","STREET":"慶南街","SECT":" ","MAREA":" ","LANE":" ","ALLEY":" ","HOUSE_NO":"１９８號","E_COORD97":166976.91,"N_COORD97":2542295.5299999998,"ADDRESS":"慶南街１９８號","OBJECTID":529256},"geometry":{"x":166976.91000000108,"y":2542295.5300000012}},{"attributes":{"ID":529284,"DIS_CODE":0,"TOWNNAME":"南區","LI":"金華里","LIN":"6鄰","STREET":"慶南街","SECT":" ","MAREA":" ","LANE":" ","ALLEY":" ","HOUSE_NO":"２３２號","E_COORD97":167005.16,"N_COORD97":2542349.1800000002,"ADDRESS":"慶南街２３２號","OBJECTID":529257},"geometry":{"x":167005.16000000015,"y":2542349.1800000016}},{"attributes":{"ID":529285,"DIS_CODE":0,"TOWNNAME":"南區","LI":"金華里","LIN":"6鄰","STREET":"聖南街","SECT":" ","MAREA":" ","LANE":" ","ALLEY":" ","HOUSE_NO":"１８號","E_COORD97":167031.60999999999,"N_COORD97":2542414.5099999998,"ADDRESS":"聖南街１８號","OBJECTID":529258},"geometry":{"x":167031.61000000127,"y":2542414.5100000016}},{"attributes":{"ID":529286,"DIS_CODE":0,"TOWNNAME":"東區","LI":"裕農里","LIN":"6鄰","STREET":"裕農路","SECT":" ","MAREA":" ","LANE":" ","ALLEY":" ","HOUSE_NO":"３５１號","E_COORD97":171021.82000000001,"N_COORD97":2543075.5,"ADDRESS":"裕農路３５１號","OBJECTID":529259},"geometry":{"x":171021.8200000003,"y":2543075.5000000019}},{"attributes":{"ID":529287,"DIS_CODE":0,"TOWNNAME":"善化區","LI":"坐駕里","LIN":"6鄰","STREET":"建國路","SECT":" ","MAREA":" ","LANE":" ","ALLEY":" ","HOUSE_NO":"１４９號","E_COORD97":177957.07000000001,"N_COORD97":2558992.0299999998,"ADDRESS":"建國路１４９號","OBJECTID":529260},"geometry":{"x":177957.07000000216,"y":2558992.0300000031}},{"attributes":{"ID":529288,"DIS_CODE":0,"TOWNNAME":"善化區","LI":"南關里","LIN":"6鄰","STREET":"永安路","SECT":" ","MAREA":" ","LANE":" ","ALLEY":" ","HOUSE_NO":"２６號","E_COORD97":177122.76000000001,"N_COORD97":2558612.02,"ADDRESS":"永安路２６號","OBJECTID":529261},"geometry":{"x":177122.75999999978,"y":2558612.0199999996}},{"attributes":{"ID":529289,"DIS_CODE":0,"TOWNNAME":"善化區","LI":"坐駕里","LIN":"6鄰","STREET":"建國路","SECT":" ","MAREA":" ","LANE":" ","ALLEY":" ","HOUSE_NO":"１４５號","E_COORD97":177955.75,"N_COORD97":2558977.2799999998,"ADDRESS":"建國路１４５號","OBJECTID":529262},"geometry":{"x":177955.75000000093,"y":2558977.2800000012}},{"attributes":{"ID":529290,"DIS_CODE":0,"TOWNNAME":"善化區","LI":"南關里","LIN":"6鄰","STREET":"永安路","SECT":" ","MAREA":" ","LANE":" ","ALLEY":" ","HOUSE_NO":"３１號","E_COORD97":177139.31,"N_COORD97":2558612.02,"ADDRESS":"永安路３１號","OBJECTID":529263},"geometry":{"x":177139.31000000145,"y":2558612.0199999996}},{"attributes":{"ID":529291,"DIS_CODE":0,"TOWNNAME":"善化區","LI":"南關里","LIN":"6鄰","STREET":"永安路","SECT":" ","MAREA":" ","LANE":" ","ALLEY":" ","HOUSE_NO":"３２號","E_COORD97":177118.57000000001,"N_COORD97":2558623.52,"ADDRESS":"永安路３２號","OBJECTID":529264},"geometry":{"x":177118.57000000123,"y":2558623.5200000014}},{"attributes":{"ID":529292,"DIS_CODE":0,"TOWNNAME":"善化區","LI":"西關里","LIN":"6鄰","STREET":"三民路","SECT":" ","MAREA":" ","LANE":" ","ALLEY":" ","HOUSE_NO":"６５號之６","E_COORD97":177099.04999999999,"N_COORD97":2559077.27,"ADDRESS":"三民路６５號之６","OBJECTID":529265},"geometry":{"x":177099.05000000168,"y":2559077.2699999996}},{"attributes":{"ID":529293,"DIS_CODE":0,"TOWNNAME":"善化區","LI":"坐駕里","LIN":"6鄰","STREET":"建國路","SECT":" ","MAREA":" ","LANE":" ","ALLEY":" ","HOUSE_NO":"１２３號","E_COORD97":177969.62,"N_COORD97":2558914.7799999998,"ADDRESS":"建國路１２３號","OBJECTID":529266},"geometry":{"x":177969.62000000011,"y":2558914.7799999993}},{"attributes":{"ID":529294,"DIS_CODE":0,"TOWNNAME":"善化區","LI":"南關里","LIN":"6鄰","STREET":"永安路","SECT":" ","MAREA":" ","LANE":" ","ALLEY":" ","HOUSE_NO":"４５號","E_COORD97":177129.94,"N_COORD97":2558639.77,"ADDRESS":"永安路４５號","OBJECTID":529267},"geometry":{"x":177129.94000000134,"y":2558639.7699999996}},{"attributes":{"ID":529295,"DIS_CODE":0,"TOWNNAME":"善化區","LI":"坐駕里","LIN":"6鄰","STREET":"建國路","SECT":" ","MAREA":" ","LANE":" ","ALLEY":" ","HOUSE_NO":"１３３號","E_COORD97":177966.29999999999,"N_COORD97":2558937.0299999998,"ADDRESS":"建國路１３３號","OBJECTID":529268},"geometry":{"x":177966.29999999981,"y":2558937.0299999993}},{"attributes":{"ID":529296,"DIS_CODE":0,"TOWNNAME":"善化區","LI":"南關里","LIN":"6鄰","STREET":"永安路","SECT":" ","MAREA":" ","LANE":" ","ALLEY":" ","HOUSE_NO":"３７號","E_COORD97":177135.29000000001,"N_COORD97":2558624.02,"ADDRESS":"永安路３７號","OBJECTID":529269},"geometry":{"x":177135.29000000097,"y":2558624.0200000014}},{"attributes":{"ID":529297,"DIS_CODE":0,"TOWNNAME":"善化區","LI":"南關里","LIN":"6鄰","STREET":"永安路","SECT":" ","MAREA":" ","LANE":" ","ALLEY":" ","HOUSE_NO":"２２號","E_COORD97":177125.20999999999,"N_COORD97":2558604.52,"ADDRESS":"永安路２２號","OBJECTID":529270},"geometry":{"x":177125.21000000183,"y":2558604.5199999996}},{"attributes":{"ID":529298,"DIS_CODE":0,"TOWNNAME":"善化區","LI":"文昌里","LIN":"6鄰","STREET":"永福路","SECT":" ","MAREA":" ","LANE":" ","ALLEY":" ","HOUSE_NO":"１６５號","E_COORD97":177190.54999999999,"N_COORD97":2558747.75,"ADDRESS":"永福路１６５號","OBJECTID":529271},"geometry":{"x":177190.55000000168,"y":2558747.7500000019}},{"attributes":{"ID":529299,"DIS_CODE":0,"TOWNNAME":"善化區","LI":"坐駕里","LIN":"6鄰","STREET":"民權路","SECT":" ","MAREA":" ","LANE":" ","ALLEY":" ","HOUSE_NO":"２８３號","E_COORD97":177940.26000000001,"N_COORD97":2558950.5099999998,"ADDRESS":"民權路２８３號","OBJECTID":529272},"geometry":{"x":177940.26000000071,"y":2558950.5099999998}},{"attributes":{"ID":529300,"DIS_CODE":0,"TOWNNAME":"善化區","LI":"文昌里","LIN":"6鄰","STREET":"文昌路","SECT":" ","MAREA":" ","LANE":" ","ALLEY":" ","HOUSE_NO":"４０號","E_COORD97":177249.98000000001,"N_COORD97":2558724.0299999998,"ADDRESS":"文昌路４０號","OBJECTID":529273},"geometry":{"x":177249.98000000138,"y":2558724.0300000031}},{"attributes":{"ID":529301,"DIS_CODE":0,"TOWNNAME":"善化區","LI":"坐駕里","LIN":"6鄰","STREET":"民權路","SECT":" ","MAREA":" ","LANE":" ","ALLEY":" ","HOUSE_NO":"２９７號","E_COORD97":177904.06,"N_COORD97":2558946.2599999998,"ADDRESS":"民權路２９７號","OBJECTID":529274},"geometry":{"x":177904.06000000052,"y":2558946.2599999998}},{"attributes":{"ID":529302,"DIS_CODE":0,"TOWNNAME":"麻豆區","LI":"大埕里","LIN":"6鄰","STREET":"文昌路","SECT":" ","MAREA":" ","LANE":" ","ALLEY":" ","HOUSE_NO":"４１號","E_COORD97":173555.57999999999,"N_COORD97":2565390.1400000001,"ADDRESS":"文昌路４１號","OBJECTID":529275},"geometry":{"x":173555.58000000007,"y":2565390.1400000043}},{"attributes":{"ID":529303,"DIS_CODE":0,"TOWNNAME":"麻豆區","LI":"大埕里","LIN":"6鄰","STREET":"文昌路","SECT":" ","MAREA":" ","LANE":" ","ALLEY":" ","HOUSE_NO":"４３號","E_COORD97":173554.23000000001,"N_COORD97":2565394.54,"ADDRESS":"文昌路４３號","OBJECTID":529276},"geometry":{"x":173554.23000000138,"y":2565394.5399999991}},{"attributes":{"ID":529304,"DIS_CODE":0,"TOWNNAME":"善化區","LI":"文昌里","LIN":"6鄰","STREET":"文昌路","SECT":" ","MAREA":" ","LANE":" ","ALLEY":" ","HOUSE_NO":"４８之１號","E_COORD97":177166,"N_COORD97":2558696.2799999998,"ADDRESS":"文昌路４８之１號","OBJECTID":529277},"geometry":{"x":177166.00000000093,"y":2558696.2800000012}},{"attributes":{"ID":529305,"DIS_CODE":0,"TOWNNAME":"善化區","LI":"坐駕里","LIN":"6鄰","STREET":"民權路","SECT":" ","MAREA":" ","LANE":" ","ALLEY":" ","HOUSE_NO":"３００號","E_COORD97":177868.82000000001,"N_COORD97":2558964.0099999998,"ADDRESS":"民權路３００號","OBJECTID":529278},"geometry":{"x":177868.81999999937,"y":2558964.0099999998}},{"attributes":{"ID":529306,"DIS_CODE":0,"TOWNNAME":"善化區","LI":"文昌里","LIN":"6鄰","STREET":"中華路","SECT":" ","MAREA":" ","LANE":" ","ALLEY":" ","HOUSE_NO":"７９號","E_COORD97":177229.51000000001,"N_COORD97":2558816.25,"ADDRESS":"中華路７９號","OBJECTID":529279},"geometry":{"x":177229.50999999978,"y":2558816.2500000019}},{"attributes":{"ID":529307,"DIS_CODE":0,"TOWNNAME":"麻豆區","LI":"大埕里","LIN":"6鄰","STREET":"文昌路","SECT":" ","MAREA":" ","LANE":" ","ALLEY":" ","HOUSE_NO":"４５號","E_COORD97":173553.98000000001,"N_COORD97":2565399.25,"ADDRESS":"文昌路４５號","OBJECTID":529280},"geometry":{"x":173553.98000000138,"y":2565399.2500000019}},{"attributes":{"ID":529308,"DIS_CODE":0,"TOWNNAME":"善化區","LI":"文昌里","LIN":"6鄰","STREET":"中華路","SECT":" ","MAREA":" ","LANE":" ","ALLEY":" ","HOUSE_NO":"８０號","E_COORD97":177244.64999999999,"N_COORD97":2558825,"ADDRESS":"中華路８０號","OBJECTID":529281},"geometry":{"x":177244.65000000224,"y":2558825}},{"attributes":{"ID":529309,"DIS_CODE":0,"TOWNNAME":"善化區","LI":"文昌里","LIN":"6鄰","STREET":"中華路","SECT":" ","MAREA":" ","LANE":" ","ALLEY":" ","HOUSE_NO":"７７號","E_COORD97":177232.73999999999,"N_COORD97":2558806.25,"ADDRESS":"中華路７７號","OBJECTID":529282},"geometry":{"x":177232.74000000115,"y":2558806.2500000019}},{"attributes":{"ID":529310,"DIS_CODE":0,"TOWNNAME":"善化區","LI":"西關里","LIN":"6鄰","STREET":"三民路","SECT":" ","MAREA":" ","LANE":" ","ALLEY":" ","HOUSE_NO":"８３號","E_COORD97":177105.92000000001,"N_COORD97":2559140.2599999998,"ADDRESS":"三民路８３號","OBJECTID":529283},"geometry":{"x":177105.91999999993,"y":2559140.2600000016}},{"attributes":{"ID":529311,"DIS_CODE":0,"TOWNNAME":"善化區","LI":"文昌里","LIN":"6鄰","STREET":"永福路","SECT":" ","MAREA":" ","LANE":" ","ALLEY":" ","HOUSE_NO":"１５７號","E_COORD97":177203.04999999999,"N_COORD97":2558747.25,"ADDRESS":"永福路１５７號","OBJECTID":529284},"geometry":{"x":177203.05000000075,"y":2558747.2500000019}},{"attributes":{"ID":529312,"DIS_CODE":0,"TOWNNAME":"善化區","LI":"西關里","LIN":"6鄰","STREET":"三民路","SECT":" ","MAREA":" ","LANE":" ","ALLEY":" ","HOUSE_NO":"７５號之２","E_COORD97":177105.09,"N_COORD97":2559108.02,"ADDRESS":"三民路７５號之２","OBJECTID":529285},"geometry":{"x":177105.08999999985,"y":2559108.0200000014}},{"attributes":{"ID":529313,"DIS_CODE":0,"TOWNNAME":"仁德區","LI":"二行里","LIN":"6鄰","STREET":"二仁路","SECT":"一段","MAREA":" ","LANE":" ","ALLEY":" ","HOUSE_NO":"５１號","E_COORD97":170562.91,"N_COORD97":2535353.0299999998,"ADDRESS":"二仁路一段５１號","OBJECTID":529286},"geometry":{"x":170562.91000000015,"y":2535353.0299999993}},{"attributes":{"ID":529314,"DIS_CODE":0,"TOWNNAME":"仁德區","LI":"土庫里","LIN":"6鄰","STREET":"土庫三街","SECT":" ","MAREA":" ","LANE":" ","ALLEY":" ","HOUSE_NO":"６７號","E_COORD97":174278.25,"N_COORD97":2543083.7400000002,"ADDRESS":"土庫三街６７號","OBJECTID":529287},"geometry":{"x":174278.25,"y":2543083.7400000039}},{"attributes":{"ID":529315,"DIS_CODE":0,"TOWNNAME":"仁德區","LI":"土庫里","LIN":"6鄰","STREET":"土庫三街","SECT":" ","MAREA":" ","LANE":" ","ALLEY":" ","HOUSE_NO":"６９號","E_COORD97":174289.04999999999,"N_COORD97":2543083.4900000002,"ADDRESS":"土庫三街６９號","OBJECTID":529288},"geometry":{"x":174289.05000000075,"y":2543083.4900000021}},{"attributes":{"ID":529316,"DIS_CODE":0,"TOWNNAME":"仁德區","LI":"土庫里","LIN":"6鄰","STREET":"土庫三街","SECT":" ","MAREA":" ","LANE":" ","ALLEY":" ","HOUSE_NO":"８３號","E_COORD97":174323.03,"N_COORD97":2543078.9900000002,"ADDRESS":"土庫三街８３號","OBJECTID":529289},"geometry":{"x":174323.03000000119,"y":2543078.9900000021}},{"attributes":{"ID":529317,"DIS_CODE":0,"TOWNNAME":"仁德區","LI":"大甲里","LIN":"6鄰","STREET":"行大街","SECT":" ","MAREA":" ","LANE":" ","ALLEY":" ","HOUSE_NO":"２９９號","E_COORD97":169727.20000000001,"N_COORD97":2535156.5,"ADDRESS":"行大街２９９號","OBJECTID":529290},"geometry":{"x":169727.20000000019,"y":2535156.5000000019}},{"attributes":{"ID":529318,"DIS_CODE":0,"TOWNNAME":"麻豆區","LI":"大埕里","LIN":"6鄰","STREET":"文昌路","SECT":" ","MAREA":" ","LANE":" ","ALLEY":" ","HOUSE_NO":"５１號","E_COORD97":173554.57999999999,"N_COORD97":2565411.27,"ADDRESS":"文昌路５１號","OBJECTID":529291},"geometry":{"x":173554.58000000101,"y":2565411.2699999996}},{"attributes":{"ID":529319,"DIS_CODE":0,"TOWNNAME":"仁德區","LI":"土庫里","LIN":"6鄰","STREET":"土庫三街","SECT":" ","MAREA":" ","LANE":" ","ALLEY":" ","HOUSE_NO":"５３號","E_COORD97":174246.91,"N_COORD97":2543084.4900000002,"ADDRESS":"土庫三街５３號","OBJECTID":529292},"geometry":{"x":174246.91000000015,"y":2543084.4900000002}},{"attributes":{"ID":529320,"DIS_CODE":0,"TOWNNAME":"東區","LI":"德光里","LIN":"4鄰","STREET":"崇明路","SECT":" ","MAREA":" ","LANE":" ","ALLEY":" ","HOUSE_NO":"９１號","E_COORD97":169767.01000000001,"N_COORD97":2542300.2799999998,"ADDRESS":"崇明路９１號","OBJECTID":529293},"geometry":{"x":169767.00999999978,"y":2542300.2800000012}},{"attributes":{"ID":529321,"DIS_CODE":0,"TOWNNAME":"麻豆區","LI":"大埕里","LIN":"6鄰","STREET":"文昌路","SECT":" ","MAREA":" ","LANE":" ","ALLEY":" ","HOUSE_NO":"５３號","E_COORD97":173552.53,"N_COORD97":2565427.5899999999,"ADDRESS":"文昌路５３號","OBJECTID":529294},"geometry":{"x":173552.53000000026,"y":2565427.5900000017}},{"attributes":{"ID":529322,"DIS_CODE":0,"TOWNNAME":"仁德區","LI":"土庫里","LIN":"6鄰","STREET":"土庫三街","SECT":" ","MAREA":" ","LANE":" ","ALLEY":" ","HOUSE_NO":"５９號","E_COORD97":174256.07999999999,"N_COORD97":2543082.2400000002,"ADDRESS":"土庫三街５９號","OBJECTID":529295},"geometry":{"x":174256.07999999914,"y":2543082.2400000002}},{"attributes":{"ID":529323,"DIS_CODE":0,"TOWNNAME":"東區","LI":"德高里","LIN":"6鄰","STREET":"自由路","SECT":"一段","MAREA":" ","LANE":" ","ALLEY":" ","HOUSE_NO":"７２號","E_COORD97":171512.67999999999,"N_COORD97":2540870.9900000002,"ADDRESS":"自由路一段７２號","OBJECTID":529296},"geometry":{"x":171512.68000000063,"y":2540870.9900000002}},{"attributes":{"ID":529324,"DIS_CODE":0,"TOWNNAME":"東區","LI":"小東里","LIN":"6鄰","STREET":"光明街","SECT":" ","MAREA":" ","LANE":" ","ALLEY":" ","HOUSE_NO":"７１號","E_COORD97":170898.85999999999,"N_COORD97":2544384.8799999999,"ADDRESS":"光明街７１號","OBJECTID":529297},"geometry":{"x":170898.86000000127,"y":2544384.8800000008}},{"attributes":{"ID":529325,"DIS_CODE":0,"TOWNNAME":"東區","LI":"裕聖里","LIN":"6鄰","STREET":"裕敬路","SECT":" ","MAREA":" ","LANE":" ","ALLEY":" ","HOUSE_NO":"２６８號","E_COORD97":172451.17000000001,"N_COORD97":2542236.4300000002,"ADDRESS":"裕敬路２６８號","OBJECTID":529298},"geometry":{"x":172451.16999999993,"y":2542236.4299999997}},{"attributes":{"ID":529326,"DIS_CODE":0,"TOWNNAME":"麻豆區","LI":"大埕里","LIN":"6鄰","STREET":"文昌路","SECT":" ","MAREA":" ","LANE":" ","ALLEY":" ","HOUSE_NO":"５５號","E_COORD97":173552.48000000001,"N_COORD97":2565432.2599999998,"ADDRESS":"文昌路５５號","OBJECTID":529299},"geometry":{"x":173552.48000000138,"y":2565432.2599999979}},{"attributes":{"ID":529327,"DIS_CODE":0,"TOWNNAME":"東區","LI":"莊敬里","LIN":"6鄰","STREET":"小東路","SECT":" ","MAREA":" ","LANE":" ","ALLEY":" ","HOUSE_NO":"３６８號","E_COORD97":171467.20000000001,"N_COORD97":2544298.71,"ADDRESS":"小東路３６８號","OBJECTID":529300},"geometry":{"x":171467.20000000112,"y":2544298.7100000028}},{"attributes":{"ID":529328,"DIS_CODE":0,"TOWNNAME":"東區","LI":"莊敬里","LIN":"6鄰","STREET":"小東路","SECT":" ","MAREA":" ","LANE":" ","ALLEY":" ","HOUSE_NO":"３７４號","E_COORD97":171479.5,"N_COORD97":2544299.1699999999,"ADDRESS":"小東路３７４號","OBJECTID":529301},"geometry":{"x":171479.5,"y":2544299.1700000018}},{"attributes":{"ID":529329,"DIS_CODE":0,"TOWNNAME":"東區","LI":"莊敬里","LIN":"6鄰","STREET":"小東路","SECT":" ","MAREA":" ","LANE":" ","ALLEY":" ","HOUSE_NO":"３５６號","E_COORD97":171442.17000000001,"N_COORD97":2544302.1499999999,"ADDRESS":"小東路３５６號","OBJECTID":529302},"geometry":{"x":171442.17000000086,"y":2544302.1500000022}},{"attributes":{"ID":529330,"DIS_CODE":0,"TOWNNAME":"東區","LI":"莊敬里","LIN":"6鄰","STREET":"小東路","SECT":" ","MAREA":" ","LANE":" ","ALLEY":" ","HOUSE_NO":"３６０號","E_COORD97":171450.45000000001,"N_COORD97":2544301.1299999999,"ADDRESS":"小東路３６０號","OBJECTID":529303},"geometry":{"x":171450.45000000112,"y":2544301.1300000008}},{"attributes":{"ID":529331,"DIS_CODE":0,"TOWNNAME":"東區","LI":"莊敬里","LIN":"6鄰","STREET":"小東路","SECT":" ","MAREA":" ","LANE":" ","ALLEY":" ","HOUSE_NO":"３６２號","E_COORD97":171455.01000000001,"N_COORD97":2544301.6000000001,"ADDRESS":"小東路３６２號","OBJECTID":529304},"geometry":{"x":171455.01000000071,"y":2544301.6000000015}},{"attributes":{"ID":529332,"DIS_CODE":0,"TOWNNAME":"東區","LI":"莊敬里","LIN":"6鄰","STREET":"小東路","SECT":" ","MAREA":" ","LANE":" ","ALLEY":" ","HOUSE_NO":"３６４號","E_COORD97":171458.54999999999,"N_COORD97":2544300.0099999998,"ADDRESS":"小東路３６４號","OBJECTID":529305},"geometry":{"x":171458.54999999981,"y":2544300.0100000016}},{"attributes":{"ID":529333,"DIS_CODE":0,"TOWNNAME":"東區","LI":"莊敬里","LIN":"6鄰","STREET":"小東路","SECT":" ","MAREA":" ","LANE":" ","ALLEY":" ","HOUSE_NO":"３５８號","E_COORD97":171446.54000000001,"N_COORD97":2544302.71,"ADDRESS":"小東路３５８號","OBJECTID":529306},"geometry":{"x":171446.54000000097,"y":2544302.7100000028}},{"attributes":{"ID":529334,"DIS_CODE":0,"TOWNNAME":"東區","LI":"莊敬里","LIN":"6鄰","STREET":"小東路","SECT":" ","MAREA":" ","LANE":" ","ALLEY":" ","HOUSE_NO":"３６６號","E_COORD97":171463.29000000001,"N_COORD97":2544300.8500000001,"ADDRESS":"小東路３６６號","OBJECTID":529307},"geometry":{"x":171463.29000000097,"y":2544300.8500000015}},{"attributes":{"ID":529335,"DIS_CODE":0,"TOWNNAME":"東區","LI":"莊敬里","LIN":"6鄰","STREET":"小東路","SECT":" ","MAREA":" ","LANE":" ","ALLEY":" ","HOUSE_NO":"３７０號","E_COORD97":171471.38,"N_COORD97":2544299.6400000001,"ADDRESS":"小東路３７０號","OBJECTID":529308},"geometry":{"x":171471.37999999989,"y":2544299.6400000025}},{"attributes":{"ID":529336,"DIS_CODE":0,"TOWNNAME":"東區","LI":"莊敬里","LIN":"6鄰","STREET":"小東路","SECT":" ","MAREA":" ","LANE":" ","ALLEY":" ","HOUSE_NO":"３７２號","E_COORD97":171475.31,"N_COORD97":2544297.8700000001,"ADDRESS":"小東路３７２號","OBJECTID":529309},"geometry":{"x":171475.30999999959,"y":2544297.8700000029}},{"attributes":{"ID":529337,"DIS_CODE":0,"TOWNNAME":"東區","LI":"莊敬里","LIN":"6鄰","STREET":"小東路","SECT":" ","MAREA":" ","LANE":" ","ALLEY":" ","HOUSE_NO":"３７８號","E_COORD97":171487.31,"N_COORD97":2544297.77,"ADDRESS":"小東路３７８號","OBJECTID":529310},"geometry":{"x":171487.30999999959,"y":2544297.7700000014}},{"attributes":{"ID":529338,"DIS_CODE":0,"TOWNNAME":"東區","LI":"莊敬里","LIN":"6鄰","STREET":"小東路","SECT":" ","MAREA":" ","LANE":" ","ALLEY":" ","HOUSE_NO":"３８０號","E_COORD97":171491.57999999999,"N_COORD97":2544294.9900000002,"ADDRESS":"小東路３８０號","OBJECTID":529311},"geometry":{"x":171491.58000000101,"y":2544294.9900000002}},{"attributes":{"ID":529339,"DIS_CODE":0,"TOWNNAME":"東區","LI":"莊敬里","LIN":"6鄰","STREET":"小東路","SECT":" ","MAREA":" ","LANE":" ","ALLEY":" ","HOUSE_NO":"３８４號","E_COORD97":171499.57999999999,"N_COORD97":2544294.3300000001,"ADDRESS":"小東路３８４號","OBJECTID":529312},"geometry":{"x":171499.58000000007,"y":2544294.3300000019}},{"attributes":{"ID":529340,"DIS_CODE":0,"TOWNNAME":"東區","LI":"莊敬里","LIN":"6鄰","STREET":"小東路","SECT":" ","MAREA":" ","LANE":" ","ALLEY":" ","HOUSE_NO":"３８６號","E_COORD97":171503.95000000001,"N_COORD97":2544295.3599999999,"ADDRESS":"小東路３８６號","OBJECTID":529313},"geometry":{"x":171503.95000000019,"y":2544295.3599999994}},{"attributes":{"ID":529341,"DIS_CODE":0,"TOWNNAME":"東區","LI":"莊敬里","LIN":"6鄰","STREET":"小東路","SECT":" ","MAREA":" ","LANE":" ","ALLEY":" ","HOUSE_NO":"３８２號","E_COORD97":171495.92000000001,"N_COORD97":2544296.6499999999,"ADDRESS":"小東路３８２號","OBJECTID":529314},"geometry":{"x":171495.92000000086,"y":2544296.6500000004}},{"attributes":{"ID":529342,"DIS_CODE":0,"TOWNNAME":"東區","LI":"莊敬里","LIN":"6鄰","STREET":"小東路","SECT":" ","MAREA":" ","LANE":" ","ALLEY":" ","HOUSE_NO":"３９０號","E_COORD97":171512.13,"N_COORD97":2544294.98,"ADDRESS":"小東路３９０號","OBJECTID":529315},"geometry":{"x":171512.12999999989,"y":2544294.9800000004}},{"attributes":{"ID":529343,"DIS_CODE":0,"TOWNNAME":"東區","LI":"莊敬里","LIN":"6鄰","STREET":"小東路","SECT":" ","MAREA":" ","LANE":" ","ALLEY":" ","HOUSE_NO":"３９４號","E_COORD97":171520.5,"N_COORD97":2544293.5899999999,"ADDRESS":"小東路３９４號","OBJECTID":529316},"geometry":{"x":171520.49999999907,"y":2544293.5899999999}},{"attributes":{"ID":529344,"DIS_CODE":0,"TOWNNAME":"東區","LI":"莊敬里","LIN":"6鄰","STREET":"小東路","SECT":" ","MAREA":" ","LANE":" ","ALLEY":" ","HOUSE_NO":"３８８號","E_COORD97":171507.39000000001,"N_COORD97":2544293.6800000002,"ADDRESS":"小東路３８８號","OBJECTID":529317},"geometry":{"x":171507.39000000153,"y":2544293.6799999978}},{"attributes":{"ID":529345,"DIS_CODE":0,"TOWNNAME":"東區","LI":"小東里","LIN":"6鄰","STREET":"光明街","SECT":" ","MAREA":" ","LANE":" ","ALLEY":" ","HOUSE_NO":"７５號","E_COORD97":170905.87,"N_COORD97":2544376.8799999999,"ADDRESS":"光明街７５號","OBJECTID":529318},"geometry":{"x":170905.87000000011,"y":2544376.8800000008}},{"attributes":{"ID":529346,"DIS_CODE":0,"TOWNNAME":"東區","LI":"裕農里","LIN":"6鄰","STREET":"裕農路","SECT":" ","MAREA":" ","LANE":" ","ALLEY":" ","HOUSE_NO":"３４３號之３","E_COORD97":170985.48000000001,"N_COORD97":2543057.2999999998,"ADDRESS":"裕農路３４３號之３","OBJECTID":529319},"geometry":{"x":170985.48000000231,"y":2543057.3000000026}},{"attributes":{"ID":529347,"DIS_CODE":0,"TOWNNAME":"東區","LI":"裕農里","LIN":"6鄰","STREET":"裕農路","SECT":" ","MAREA":" ","LANE":" ","ALLEY":" ","HOUSE_NO":"３４３號之４","E_COORD97":170988.78,"N_COORD97":2543059.6099999999,"ADDRESS":"裕農路３４３號之４","OBJECTID":529320},"geometry":{"x":170988.78000000119,"y":2543059.6099999994}},{"attributes":{"ID":529348,"DIS_CODE":0,"TOWNNAME":"東區","LI":"裕農里","LIN":"6鄰","STREET":"裕農路","SECT":" ","MAREA":" ","LANE":" ","ALLEY":" ","HOUSE_NO":"３４７號","E_COORD97":171003.67000000001,"N_COORD97":2543066.71,"ADDRESS":"裕農路３４７號","OBJECTID":529321},"geometry":{"x":171003.66999999993,"y":2543066.7100000009}},{"attributes":{"ID":529349,"DIS_CODE":0,"TOWNNAME":"東區","LI":"裕農里","LIN":"6鄰","STREET":"裕農路","SECT":" ","MAREA":" ","LANE":" ","ALLEY":" ","HOUSE_NO":"３４９號","E_COORD97":171009.23000000001,"N_COORD97":2543066.29,"ADDRESS":"裕農路３４９號","OBJECTID":529322},"geometry":{"x":171009.23000000231,"y":2543066.290000001}},{"attributes":{"ID":529350,"DIS_CODE":0,"TOWNNAME":"東區","LI":"裕農里","LIN":"6鄰","STREET":"裕農路","SECT":" ","MAREA":" ","LANE":" ","ALLEY":" ","HOUSE_NO":"３４３號之２","E_COORD97":170980.85999999999,"N_COORD97":2543054.3399999999,"ADDRESS":"裕農路３４３號之２","OBJECTID":529323},"geometry":{"x":170980.86000000034,"y":2543054.3399999999}},{"attributes":{"ID":529351,"DIS_CODE":0,"TOWNNAME":"東區","LI":"小東里","LIN":"6鄰","STREET":"光明街","SECT":" ","MAREA":" ","LANE":" ","ALLEY":" ","HOUSE_NO":"７３號","E_COORD97":170905.37,"N_COORD97":2544380.5499999998,"ADDRESS":"光明街７３號","OBJECTID":529324},"geometry":{"x":170905.37000000104,"y":2544380.5500000045}},{"attributes":{"ID":529352,"DIS_CODE":0,"TOWNNAME":"東區","LI":"小東里","LIN":"6鄰","STREET":"光明街","SECT":" ","MAREA":" ","LANE":" ","ALLEY":" ","HOUSE_NO":"９３號","E_COORD97":170907.20999999999,"N_COORD97":2544352.8799999999,"ADDRESS":"光明街９３號","OBJECTID":529325},"geometry":{"x":170907.21000000183,"y":2544352.8800000027}},{"attributes":{"ID":529353,"DIS_CODE":0,"TOWNNAME":"東區","LI":"小東里","LIN":"6鄰","STREET":"光明街","SECT":" ","MAREA":" ","LANE":" ","ALLEY":" ","HOUSE_NO":"９５號","E_COORD97":170907.20999999999,"N_COORD97":2544349.71,"ADDRESS":"光明街９５號","OBJECTID":529326},"geometry":{"x":170907.21000000183,"y":2544349.7100000028}},{"attributes":{"ID":529354,"DIS_CODE":0,"TOWNNAME":"麻豆區","LI":"大埕里","LIN":"6鄰","STREET":"文昌路","SECT":" ","MAREA":" ","LANE":" ","ALLEY":" ","HOUSE_NO":"６１號","E_COORD97":173553.26999999999,"N_COORD97":2565445.7000000002,"ADDRESS":"文昌路６１號","OBJECTID":529327},"geometry":{"x":173553.27000000048,"y":2565445.6999999974}},{"attributes":{"ID":529355,"DIS_CODE":0,"TOWNNAME":"麻豆區","LI":"大埕里","LIN":"6鄰","STREET":"文昌路","SECT":" ","MAREA":" ","LANE":" ","ALLEY":" ","HOUSE_NO":"６３號","E_COORD97":173553.32999999999,"N_COORD97":2565450.9199999999,"ADDRESS":"文昌路６３號","OBJECTID":529328},"geometry":{"x":173553.33000000101,"y":2565450.9199999999}},{"attributes":{"ID":529356,"DIS_CODE":0,"TOWNNAME":"東區","LI":"裕農里","LIN":"6鄰","STREET":"裕農路","SECT":" ","MAREA":" ","LANE":" ","ALLEY":" ","HOUSE_NO":"３１９號","E_COORD97":170953.44,"N_COORD97":2543042.9900000002,"ADDRESS":"裕農路３１９號","OBJECTID":529329},"geometry":{"x":170953.43999999948,"y":2543042.9900000021}},{"attributes":{"ID":529357,"DIS_CODE":0,"TOWNNAME":"東區","LI":"裕農里","LIN":"6鄰","STREET":"裕農路","SECT":" ","MAREA":" ","LANE":" ","ALLEY":" ","HOUSE_NO":"３２１號","E_COORD97":170958.72,"N_COORD97":2543044.9700000002,"ADDRESS":"裕農路３２１號","OBJECTID":529330},"geometry":{"x":170958.71999999974,"y":2543044.9700000007}},{"attributes":{"ID":529358,"DIS_CODE":0,"TOWNNAME":"東區","LI":"裕農里","LIN":"6鄰","STREET":"裕農路","SECT":" ","MAREA":" ","LANE":" ","ALLEY":" ","HOUSE_NO":"３２３號","E_COORD97":170963.35000000001,"N_COORD97":2543045.4300000002,"ADDRESS":"裕農路３２３號","OBJECTID":529331},"geometry":{"x":170963.34999999963,"y":2543045.4300000016}},{"attributes":{"ID":529359,"DIS_CODE":0,"TOWNNAME":"東區","LI":"裕農里","LIN":"6鄰","STREET":"裕農路","SECT":" ","MAREA":" ","LANE":" ","ALLEY":" ","HOUSE_NO":"３２５號","E_COORD97":170968.29999999999,"N_COORD97":2543047.7400000002,"ADDRESS":"裕農路３２５號","OBJECTID":529332},"geometry":{"x":170968.29999999981,"y":2543047.7400000021}},{"attributes":{"ID":529360,"DIS_CODE":0,"TOWNNAME":"中西區","LI":"公正里","LIN":"6鄰","STREET":"西華南街","SECT":" ","MAREA":" ","LANE":" ","ALLEY":" ","HOUSE_NO":"６７號","E_COORD97":168961.57999999999,"N_COORD97":2543920.04,"ADDRESS":"西華南街６７號","OBJECTID":529333},"geometry":{"x":168961.58000000007,"y":2543920.0399999991}},{"attributes":{"ID":529361,"DIS_CODE":0,"TOWNNAME":"東區","LI":"南聖里","LIN":"9鄰","STREET":"裕忠路","SECT":" ","MAREA":" ","LANE":" ","ALLEY":" ","HOUSE_NO":"６０號","E_COORD97":172181.57000000001,"N_COORD97":2543182.2999999998,"ADDRESS":"裕忠路６０號","OBJECTID":529334},"geometry":{"x":172181.57000000216,"y":2543182.3000000045}},{"attributes":{"ID":529362,"DIS_CODE":0,"TOWNNAME":"中西區","LI":"公正里","LIN":"6鄰","STREET":"中山路","SECT":" ","MAREA":" ","LANE":" ","ALLEY":" ","HOUSE_NO":"１５４號","E_COORD97":168974.42000000001,"N_COORD97":2543980.3799999999,"ADDRESS":"中山路１５４號","OBJECTID":529335},"geometry":{"x":168974.41999999993,"y":2543980.3800000008}},{"attributes":{"ID":529363,"DIS_CODE":0,"TOWNNAME":"中西區","LI":"公正里","LIN":"6鄰","STREET":"中山路","SECT":" ","MAREA":" ","LANE":" ","ALLEY":" ","HOUSE_NO":"１５６號","E_COORD97":168976.59,"N_COORD97":2543983.6299999999,"ADDRESS":"中山路１５６號","OBJECTID":529336},"geometry":{"x":168976.58999999985,"y":2543983.629999999}},{"attributes":{"ID":529364,"DIS_CODE":0,"TOWNNAME":"中西區","LI":"公正里","LIN":"6鄰","STREET":"中山路","SECT":" ","MAREA":" ","LANE":" ","ALLEY":" ","HOUSE_NO":"１５８號","E_COORD97":168978.51000000001,"N_COORD97":2543987.8700000001,"ADDRESS":"中山路１５８號","OBJECTID":529337},"geometry":{"x":168978.50999999978,"y":2543987.870000001}},{"attributes":{"ID":529365,"DIS_CODE":0,"TOWNNAME":"中西區","LI":"公正里","LIN":"6鄰","STREET":"西華南街","SECT":" ","MAREA":" ","LANE":" ","ALLEY":" ","HOUSE_NO":"６５號","E_COORD97":168961.17999999999,"N_COORD97":2543912.8199999998,"ADDRESS":"西華南街６５號","OBJECTID":529338},"geometry":{"x":168961.18000000063,"y":2543912.8200000003}},{"attributes":{"ID":529366,"DIS_CODE":0,"TOWNNAME":"中西區","LI":"公正里","LIN":"6鄰","STREET":"中山路","SECT":" ","MAREA":" ","LANE":" ","ALLEY":" ","HOUSE_NO":"１１０號","E_COORD97":168909.04999999999,"N_COORD97":2543935.3700000001,"ADDRESS":"中山路１１０號","OBJECTID":529339},"geometry":{"x":168909.04999999981,"y":2543935.3700000029}},{"attributes":{"ID":529367,"DIS_CODE":0,"TOWNNAME":"中西區","LI":"公正里","LIN":"6鄰","STREET":"中山路","SECT":" ","MAREA":" ","LANE":" ","ALLEY":" ","HOUSE_NO":"１１２號","E_COORD97":168911.85000000001,"N_COORD97":2543936.8799999999,"ADDRESS":"中山路１１２號","OBJECTID":529340},"geometry":{"x":168911.84999999963,"y":2543936.8800000008}},{"attributes":{"ID":529368,"DIS_CODE":0,"TOWNNAME":"中西區","LI":"公正里","LIN":"6鄰","STREET":"中山路","SECT":" ","MAREA":" ","LANE":" ","ALLEY":" ","HOUSE_NO":"１１４號","E_COORD97":168914.17999999999,"N_COORD97":2543938.5499999998,"ADDRESS":"中山路１１４號","OBJECTID":529341},"geometry":{"x":168914.18000000063,"y":2543938.5500000007}},{"attributes":{"ID":529369,"DIS_CODE":0,"TOWNNAME":"中西區","LI":"公正里","LIN":"6鄰","STREET":"中山路","SECT":" ","MAREA":" ","LANE":" ","ALLEY":" ","HOUSE_NO":"１１６號","E_COORD97":168917.20999999999,"N_COORD97":2543940.1000000001,"ADDRESS":"中山路１１６號","OBJECTID":529342},"geometry":{"x":168917.21000000089,"y":2543940.1000000015}},{"attributes":{"ID":529370,"DIS_CODE":0,"TOWNNAME":"中西區","LI":"公正里","LIN":"6鄰","STREET":"中山路","SECT":" ","MAREA":" ","LANE":" ","ALLEY":" ","HOUSE_NO":"１１８號","E_COORD97":168922.53,"N_COORD97":2543942.7400000002,"ADDRESS":"中山路１１８號","OBJECTID":529343},"geometry":{"x":168922.53000000119,"y":2543942.7400000021}},{"attributes":{"ID":529371,"DIS_CODE":0,"TOWNNAME":"中西區","LI":"公正里","LIN":"6鄰","STREET":"中山路","SECT":" ","MAREA":" ","LANE":" ","ALLEY":" ","HOUSE_NO":"１２０號","E_COORD97":168927.35999999999,"N_COORD97":2543946.3999999999,"ADDRESS":"中山路１２０號","OBJECTID":529344},"geometry":{"x":168927.36000000127,"y":2543946.4000000004}},{"attributes":{"ID":529372,"DIS_CODE":0,"TOWNNAME":"中西區","LI":"公正里","LIN":"6鄰","STREET":"中山路","SECT":" ","MAREA":" ","LANE":" ","ALLEY":" ","HOUSE_NO":"１２２號","E_COORD97":168929.5,"N_COORD97":2543949.0800000001,"ADDRESS":"中山路１２２號","OBJECTID":529345},"geometry":{"x":168929.50000000093,"y":2543949.0800000038}},{"attributes":{"ID":529373,"DIS_CODE":0,"TOWNNAME":"中西區","LI":"公正里","LIN":"6鄰","STREET":"中山路","SECT":" ","MAREA":" ","LANE":" ","ALLEY":" ","HOUSE_NO":"１２４號","E_COORD97":168932.32999999999,"N_COORD97":2543951.3599999999,"ADDRESS":"中山路１２４號","OBJECTID":529346},"geometry":{"x":168932.33000000101,"y":2543951.3600000013}},{"attributes":{"ID":529374,"DIS_CODE":0,"TOWNNAME":"中西區","LI":"公正里","LIN":"6鄰","STREET":"中山路","SECT":" ","MAREA":" ","LANE":" ","ALLEY":" ","HOUSE_NO":"１２６號","E_COORD97":168934.82000000001,"N_COORD97":2543952.9399999999,"ADDRESS":"中山路１２６號","OBJECTID":529347},"geometry":{"x":168934.8200000003,"y":2543952.9400000032}},{"attributes":{"ID":529375,"DIS_CODE":0,"TOWNNAME":"中西區","LI":"公正里","LIN":"6鄰","STREET":"中山路","SECT":" ","MAREA":" ","LANE":" ","ALLEY":" ","HOUSE_NO":"１２８號","E_COORD97":168937.01999999999,"N_COORD97":2543954.9399999999,"ADDRESS":"中山路１２８號","OBJECTID":529348},"geometry":{"x":168937.02000000048,"y":2543954.9399999995}},{"attributes":{"ID":529376,"DIS_CODE":0,"TOWNNAME":"中西區","LI":"公正里","LIN":"6鄰","STREET":"中山路","SECT":" ","MAREA":" ","LANE":" ","ALLEY":" ","HOUSE_NO":"１３０號","E_COORD97":168939.44,"N_COORD97":2543956.5299999998,"ADDRESS":"中山路１３０號","OBJECTID":529349},"geometry":{"x":168939.44000000041,"y":2543956.5300000012}},{"attributes":{"ID":529377,"DIS_CODE":0,"TOWNNAME":"中西區","LI":"公正里","LIN":"6鄰","STREET":"中山路","SECT":" ","MAREA":" ","LANE":" ","ALLEY":" ","HOUSE_NO":"１３２號","E_COORD97":168942.62,"N_COORD97":2543957.6299999999,"ADDRESS":"中山路１３２號","OBJECTID":529350},"geometry":{"x":168942.62000000011,"y":2543957.6299999971}},{"attributes":{"ID":529378,"DIS_CODE":0,"TOWNNAME":"中西區","LI":"公正里","LIN":"6鄰","STREET":"中山路","SECT":" ","MAREA":" ","LANE":" ","ALLEY":" ","HOUSE_NO":"１３４號","E_COORD97":168946.26999999999,"N_COORD97":2543959.6299999999,"ADDRESS":"中山路１３４號","OBJECTID":529351},"geometry":{"x":168946.26999999955,"y":2543959.629999999}},{"attributes":{"ID":529379,"DIS_CODE":0,"TOWNNAME":"中西區","LI":"公正里","LIN":"6鄰","STREET":"中山路","SECT":" ","MAREA":" ","LANE":" ","ALLEY":" ","HOUSE_NO":"１３６號","E_COORD97":168951.04000000001,"N_COORD97":2543962.8399999999,"ADDRESS":"中山路１３６號","OBJECTID":529352},"geometry":{"x":168951.04000000097,"y":2543962.8399999999}},{"attributes":{"ID":529380,"DIS_CODE":0,"TOWNNAME":"中西區","LI":"公正里","LIN":"6鄰","STREET":"民族路","SECT":"二段","MAREA":" ","LANE":" ","ALLEY":" ","HOUSE_NO":"７２號","E_COORD97":168956.92999999999,"N_COORD97":2543909.6200000001,"ADDRESS":"民族路二段７２號","OBJECTID":529353},"geometry":{"x":168956.9299999997,"y":2543909.6200000029}},{"attributes":{"ID":529381,"DIS_CODE":0,"TOWNNAME":"中西區","LI":"公正里","LIN":"6鄰","STREET":"民族路","SECT":"二段","MAREA":" ","LANE":" ","ALLEY":" ","HOUSE_NO":"７６號","E_COORD97":168933.5,"N_COORD97":2543917.6699999999,"ADDRESS":"民族路二段７６號","OBJECTID":529354},"geometry":{"x":168933.5,"y":2543917.6699999981}},{"attributes":{"ID":529382,"DIS_CODE":0,"TOWNNAME":"中西區","LI":"公正里","LIN":"6鄰","STREET":"民族路","SECT":"二段","MAREA":" ","LANE":" ","ALLEY":" ","HOUSE_NO":"７６號之１","E_COORD97":168927.07999999999,"N_COORD97":2543920.5600000001,"ADDRESS":"民族路二段７６號之１","OBJECTID":529355},"geometry":{"x":168927.08000000101,"y":2543920.5600000024}},{"attributes":{"ID":529383,"DIS_CODE":0,"TOWNNAME":"中西區","LI":"公正里","LIN":"6鄰","STREET":"民族路","SECT":"二段","MAREA":" ","LANE":" ","ALLEY":" ","HOUSE_NO":"７６號之２","E_COORD97":168921.70000000001,"N_COORD97":2543922.48,"ADDRESS":"民族路二段７６號之２","OBJECTID":529356},"geometry":{"x":168921.70000000019,"y":2543922.4800000004}},{"attributes":{"ID":529384,"DIS_CODE":0,"TOWNNAME":"中西區","LI":"公正里","LIN":"6鄰","STREET":"民族路","SECT":"二段","MAREA":" ","LANE":" ","ALLEY":" ","HOUSE_NO":"７６號之５","E_COORD97":168916.39999999999,"N_COORD97":2543924.48,"ADDRESS":"民族路二段７６號之５","OBJECTID":529357},"geometry":{"x":168916.4000000013,"y":2543924.4800000023}},{"attributes":{"ID":529385,"DIS_CODE":0,"TOWNNAME":"中西區","LI":"公正里","LIN":"6鄰","STREET":"民族路","SECT":"二段","MAREA":" ","LANE":" ","ALLEY":" ","HOUSE_NO":"７６號之６","E_COORD97":168912.79000000001,"N_COORD97":2543924.1600000001,"ADDRESS":"民族路二段７６號之６","OBJECTID":529358},"geometry":{"x":168912.79000000004,"y":2543924.1600000001}},{"attributes":{"ID":529386,"DIS_CODE":0,"TOWNNAME":"中西區","LI":"三民里","LIN":"6鄰","STREET":"民權路","SECT":"二段","MAREA":" ","LANE":" ","ALLEY":" ","HOUSE_NO":"６５號","E_COORD97":168511.85000000001,"N_COORD97":2543872.4700000002,"ADDRESS":"民權路二段６５號","OBJECTID":529359},"geometry":{"x":168511.84999999963,"y":2543872.4700000044}},{"attributes":{"ID":529387,"DIS_CODE":0,"TOWNNAME":"中西區","LI":"三民里","LIN":"6鄰","STREET":"民權路","SECT":"二段","MAREA":" ","LANE":" ","ALLEY":" ","HOUSE_NO":"６９號","E_COORD97":168504.37,"N_COORD97":2543874.6099999999,"ADDRESS":"民權路二段６９號","OBJECTID":529360},"geometry":{"x":168504.37000000104,"y":2543874.6100000013}},{"attributes":{"ID":529388,"DIS_CODE":0,"TOWNNAME":"中西區","LI":"三民里","LIN":"6鄰","STREET":"民權路","SECT":"二段","MAREA":" ","LANE":" ","ALLEY":" ","HOUSE_NO":"７１號","E_COORD97":168500.29999999999,"N_COORD97":2543876.02,"ADDRESS":"民權路二段７１號","OBJECTID":529361},"geometry":{"x":168500.29999999981,"y":2543876.0200000014}},{"attributes":{"ID":529389,"DIS_CODE":0,"TOWNNAME":"中西區","LI":"三民里","LIN":"6鄰","STREET":"民權路","SECT":"二段","MAREA":" ","LANE":" ","ALLEY":" ","HOUSE_NO":"７３號","E_COORD97":168496.85000000001,"N_COORD97":2543878.3599999999,"ADDRESS":"民權路二段７３號","OBJECTID":529362},"geometry":{"x":168496.84999999963,"y":2543878.3599999994}},{"attributes":{"ID":529390,"DIS_CODE":0,"TOWNNAME":"中西區","LI":"三民里","LIN":"6鄰","STREET":"民權路","SECT":"二段","MAREA":" ","LANE":" ","ALLEY":" ","HOUSE_NO":"７５號","E_COORD97":168492.62,"N_COORD97":2543879.2999999998,"ADDRESS":"民權路二段７５號","OBJECTID":529363},"geometry":{"x":168492.62000000104,"y":2543879.3000000007}},{"attributes":{"ID":529391,"DIS_CODE":0,"TOWNNAME":"中西區","LI":"三民里","LIN":"6鄰","STREET":"民權路","SECT":"二段","MAREA":" ","LANE":" ","ALLEY":" ","HOUSE_NO":"７７號","E_COORD97":168487.76999999999,"N_COORD97":2543880.0800000001,"ADDRESS":"民權路二段７７號","OBJECTID":529364},"geometry":{"x":168487.77000000048,"y":2543880.0800000001}},{"attributes":{"ID":529392,"DIS_CODE":0,"TOWNNAME":"中西區","LI":"三民里","LIN":"6鄰","STREET":"民權路","SECT":"二段","MAREA":" ","LANE":" ","ALLEY":" ","HOUSE_NO":"７９號","E_COORD97":168484.01000000001,"N_COORD97":2543881.1800000002,"ADDRESS":"民權路二段７９號","OBJECTID":529365},"geometry":{"x":168484.00999999978,"y":2543881.1800000016}},{"attributes":{"ID":529393,"DIS_CODE":0,"TOWNNAME":"中西區","LI":"三民里","LIN":"6鄰","STREET":"民權路","SECT":"二段","MAREA":" ","LANE":" ","ALLEY":" ","HOUSE_NO":"８１號","E_COORD97":168481.82000000001,"N_COORD97":2543883.21,"ADDRESS":"民權路二段８１號","OBJECTID":529366},"geometry":{"x":168481.82000000123,"y":2543883.2100000009}},{"attributes":{"ID":529394,"DIS_CODE":0,"TOWNNAME":"中西區","LI":"萬昌里","LIN":"6鄰","STREET":"民權路","SECT":"一段","MAREA":" ","LANE":" ","ALLEY":" ","HOUSE_NO":"６１號","E_COORD97":169003.10000000001,"N_COORD97":2543377.1200000001,"ADDRESS":"民權路一段６１號","OBJECTID":529367},"geometry":{"x":169003.09999999963,"y":2543377.1200000048}},{"attributes":{"ID":529395,"DIS_CODE":0,"TOWNNAME":"中西區","LI":"萬昌里","LIN":"6鄰","STREET":"民權路","SECT":"一段","MAREA":" ","LANE":" ","ALLEY":" ","HOUSE_NO":"６３號","E_COORD97":169000.41,"N_COORD97":2543379.4100000001,"ADDRESS":"民權路一段６３號","OBJECTID":529368},"geometry":{"x":169000.41000000015,"y":2543379.4100000001}},{"attributes":{"ID":529396,"DIS_CODE":0,"TOWNNAME":"中西區","LI":"萬昌里","LIN":"6鄰","STREET":"民權路","SECT":"一段","MAREA":" ","LANE":" ","ALLEY":" ","HOUSE_NO":"６５號","E_COORD97":168996.09,"N_COORD97":2543381.8300000001,"ADDRESS":"民權路一段６５號","OBJECTID":529369},"geometry":{"x":168996.09000000078,"y":2543381.8300000019}},{"attributes":{"ID":529397,"DIS_CODE":0,"TOWNNAME":"中西區","LI":"萬昌里","LIN":"6鄰","STREET":"民權路","SECT":"一段","MAREA":" ","LANE":" ","ALLEY":" ","HOUSE_NO":"６７號","E_COORD97":168992.04000000001,"N_COORD97":2543382.6400000001,"ADDRESS":"民權路一段６７號","OBJECTID":529370},"geometry":{"x":168992.04000000004,"y":2543382.6400000006}},{"attributes":{"ID":529398,"DIS_CODE":0,"TOWNNAME":"中西區","LI":"萬昌里","LIN":"6鄰","STREET":"民權路","SECT":"一段","MAREA":" ","LANE":" ","ALLEY":" ","HOUSE_NO":"６９號","E_COORD97":168987.72,"N_COORD97":2543384.6600000001,"ADDRESS":"民權路一段６９號","OBJECTID":529371},"geometry":{"x":168987.71999999974,"y":2543384.6600000001}},{"attributes":{"ID":529399,"DIS_CODE":0,"TOWNNAME":"中西區","LI":"萬昌里","LIN":"6鄰","STREET":"民權路","SECT":"一段","MAREA":" ","LANE":" ","ALLEY":" ","HOUSE_NO":"７１號","E_COORD97":168984.62,"N_COORD97":2543387.4900000002,"ADDRESS":"民權路一段７１號","OBJECTID":529372},"geometry":{"x":168984.62000000104,"y":2543387.4900000021}},{"attributes":{"ID":529400,"DIS_CODE":0,"TOWNNAME":"中西區","LI":"萬昌里","LIN":"6鄰","STREET":"民權路","SECT":"一段","MAREA":" ","LANE":" ","ALLEY":" ","HOUSE_NO":"７３號","E_COORD97":168982.06,"N_COORD97":2543389.4399999999,"ADDRESS":"民權路一段７３號","OBJECTID":529373},"geometry":{"x":168982.06000000145,"y":2543389.4399999995}},{"attributes":{"ID":529401,"DIS_CODE":0,"TOWNNAME":"中西區","LI":"萬昌里","LIN":"6鄰","STREET":"民權路","SECT":"一段","MAREA":" ","LANE":" ","ALLEY":" ","HOUSE_NO":"７５號","E_COORD97":168977.20000000001,"N_COORD97":2543391.3300000001,"ADDRESS":"民權路一段７５號","OBJECTID":529374},"geometry":{"x":168977.20000000112,"y":2543391.3299999982}},{"attributes":{"ID":529402,"DIS_CODE":0,"TOWNNAME":"中西區","LI":"萬昌里","LIN":"6鄰","STREET":"民權路","SECT":"一段","MAREA":" ","LANE":" ","ALLEY":" ","HOUSE_NO":"７７號","E_COORD97":168972.48000000001,"N_COORD97":2543393.7599999998,"ADDRESS":"民權路一段７７號","OBJECTID":529375},"geometry":{"x":168972.48000000138,"y":2543393.7599999998}},{"attributes":{"ID":529403,"DIS_CODE":0,"TOWNNAME":"中西區","LI":"萬昌里","LIN":"6鄰","STREET":"民權路","SECT":"一段","MAREA":" ","LANE":" ","ALLEY":" ","HOUSE_NO":"７９號","E_COORD97":168971.81,"N_COORD97":2543398.4700000002,"ADDRESS":"民權路一段７９號","OBJECTID":529376},"geometry":{"x":168971.80999999866,"y":2543398.4700000025}},{"attributes":{"ID":529404,"DIS_CODE":0,"TOWNNAME":"中西區","LI":"萬昌里","LIN":"6鄰","STREET":"民權路","SECT":"一段","MAREA":" ","LANE":" ","ALLEY":" ","HOUSE_NO":"８１號","E_COORD97":168970.19,"N_COORD97":2543400.7599999998,"ADDRESS":"民權路一段８１號","OBJECTID":529377},"geometry":{"x":168970.19000000227,"y":2543400.7599999998}},{"attributes":{"ID":529405,"DIS_CODE":0,"TOWNNAME":"中西區","LI":"萬昌里","LIN":"6鄰","STREET":"民權路","SECT":"一段","MAREA":" ","LANE":" ","ALLEY":" ","HOUSE_NO":"８３號","E_COORD97":168964.66,"N_COORD97":2543403.5899999999,"ADDRESS":"民權路一段８３號","OBJECTID":529378},"geometry":{"x":168964.66000000015,"y":2543403.5900000017}},{"attributes":{"ID":529406,"DIS_CODE":0,"TOWNNAME":"中西區","LI":"萬昌里","LIN":"6鄰","STREET":"民權路","SECT":"一段","MAREA":" ","LANE":" ","ALLEY":" ","HOUSE_NO":"８５號","E_COORD97":168961.69,"N_COORD97":2543405.48,"ADDRESS":"民權路一段８５號","OBJECTID":529379},"geometry":{"x":168961.69000000227,"y":2543405.4800000023}},{"attributes":{"ID":529407,"DIS_CODE":0,"TOWNNAME":"中西區","LI":"萬昌里","LIN":"6鄰","STREET":"民權路","SECT":"一段","MAREA":" ","LANE":" ","ALLEY":" ","HOUSE_NO":"８７號","E_COORD97":168958.10999999999,"N_COORD97":2543408.9100000001,"ADDRESS":"民權路一段８７號","OBJECTID":529380},"geometry":{"x":168958.11000000034,"y":2543408.910000002}},{"attributes":{"ID":529408,"DIS_CODE":0,"TOWNNAME":"中西區","LI":"萬昌里","LIN":"6鄰","STREET":"民權路","SECT":"一段","MAREA":" ","LANE":" ","ALLEY":" ","HOUSE_NO":"８９號","E_COORD97":168955.67999999999,"N_COORD97":2543412.5499999998,"ADDRESS":"民權路一段８９號","OBJECTID":529381},"geometry":{"x":168955.6799999997,"y":2543412.5500000026}},{"attributes":{"ID":529409,"DIS_CODE":0,"TOWNNAME":"中西區","LI":"萬昌里","LIN":"6鄰","STREET":"民權路","SECT":"一段","MAREA":" ","LANE":" ","ALLEY":" ","HOUSE_NO":"９１號","E_COORD97":168952.45000000001,"N_COORD97":2543415.7799999998,"ADDRESS":"民權路一段９１號","OBJECTID":529382},"geometry":{"x":168952.45000000019,"y":2543415.7800000012}},{"attributes":{"ID":529410,"DIS_CODE":0,"TOWNNAME":"中西區","LI":"萬昌里","LIN":"6鄰","STREET":"民權路","SECT":"一段","MAREA":" ","LANE":" ","ALLEY":" ","HOUSE_NO":"９３號","E_COORD97":168949.20999999999,"N_COORD97":2543417.7999999998,"ADDRESS":"民權路一段９３號","OBJECTID":529383},"geometry":{"x":168949.21000000183,"y":2543417.8000000026}},{"attributes":{"ID":529411,"DIS_CODE":0,"TOWNNAME":"新化區","LI":"武安里","LIN":"6鄰","STREET":"信義路","SECT":" ","MAREA":" ","LANE":" ","ALLEY":" ","HOUSE_NO":"２４５號","E_COORD97":179064.42999999999,"N_COORD97":2548309.25,"ADDRESS":"信義路２４５號","OBJECTID":529384},"geometry":{"x":179064.43000000156,"y":2548309.2500000019}},{"attributes":{"ID":529412,"DIS_CODE":0,"TOWNNAME":"新化區","LI":"東榮里","LIN":"6鄰","STREET":"信義路","SECT":" ","MAREA":" ","LANE":" ","ALLEY":" ","HOUSE_NO":"１１５號之５","E_COORD97":179692.19,"N_COORD97":2548485.2599999998,"ADDRESS":"信義路１１５號之５","OBJECTID":529385},"geometry":{"x":179692.18999999948,"y":2548485.2600000016}},{"attributes":{"ID":529413,"DIS_CODE":0,"TOWNNAME":"新化區","LI":"武安里","LIN":"6鄰","STREET":"信義路","SECT":" ","MAREA":" ","LANE":" ","ALLEY":" ","HOUSE_NO":"２４７號之２","E_COORD97":179056.38,"N_COORD97":2548307.2599999998,"ADDRESS":"信義路２４７號之２","OBJECTID":529386},"geometry":{"x":179056.38000000175,"y":2548307.2599999998}},{"attributes":{"ID":529414,"DIS_CODE":0,"TOWNNAME":"新化區","LI":"武安里","LIN":"6鄰","STREET":"信義路","SECT":" ","MAREA":" ","LANE":" ","ALLEY":" ","HOUSE_NO":"２２７號","E_COORD97":179088.42999999999,"N_COORD97":2548312.25,"ADDRESS":"信義路２２７號","OBJECTID":529387},"geometry":{"x":179088.43000000063,"y":2548312.2500000019}},{"attributes":{"ID":529415,"DIS_CODE":0,"TOWNNAME":"新化區","LI":"竹林里","LIN":"6鄰","STREET":"民族街","SECT":" ","MAREA":" ","LANE":" ","ALLEY":" ","HOUSE_NO":"６１號","E_COORD97":178877.56,"N_COORD97":2548647.25,"ADDRESS":"民族街６１號","OBJECTID":529388},"geometry":{"x":178877.56000000052,"y":2548647.2500000037}},{"attributes":{"ID":529416,"DIS_CODE":0,"TOWNNAME":"新化區","LI":"武安里","LIN":"6鄰","STREET":"信義路","SECT":" ","MAREA":" ","LANE":" ","ALLEY":" ","HOUSE_NO":"２３９號","E_COORD97":179070.82999999999,"N_COORD97":2548310.25,"ADDRESS":"信義路２３９號","OBJECTID":529389},"geometry":{"x":179070.83000000101,"y":2548310.25}},{"attributes":{"ID":529417,"DIS_CODE":0,"TOWNNAME":"新化區","LI":"中央里","LIN":"6鄰","STREET":"信義路","SECT":" ","MAREA":" ","LANE":" ","ALLEY":" ","HOUSE_NO":"３３６號之１","E_COORD97":178874.54999999999,"N_COORD97":2548308.9500000002,"ADDRESS":"信義路３３６號之１","OBJECTID":529390},"geometry":{"x":178874.55000000075,"y":2548308.9499999993}},{"attributes":{"ID":529418,"DIS_CODE":0,"TOWNNAME":"新化區","LI":"中央里","LIN":"6鄰","STREET":"信義路","SECT":" ","MAREA":" ","LANE":" ","ALLEY":" ","HOUSE_NO":"３３８號","E_COORD97":178882.94,"N_COORD97":2548309.96,"ADDRESS":"信義路３３８號","OBJECTID":529391},"geometry":{"x":178882.94000000041,"y":2548309.9600000009}},{"attributes":{"ID":529419,"DIS_CODE":0,"TOWNNAME":"新化區","LI":"護國里","LIN":"6鄰","STREET":"中山路","SECT":" ","MAREA":" ","LANE":" ","ALLEY":" ","HOUSE_NO":"１７８號","E_COORD97":179261.57999999999,"N_COORD97":2548505.8700000001,"ADDRESS":"中山路１７８號","OBJECTID":529392},"geometry":{"x":179261.58000000007,"y":2548505.8700000029}},{"attributes":{"ID":529420,"DIS_CODE":0,"TOWNNAME":"安南區","LI":"青草里","LIN":"6鄰","STREET":"青砂街","SECT":"二段","MAREA":" ","LANE":" ","ALLEY":" ","HOUSE_NO":"４３０號","E_COORD97":158883.57999999999,"N_COORD97":2552976.79,"ADDRESS":"青砂街二段４３０號","OBJECTID":529393},"geometry":{"x":158883.58000000007,"y":2552976.790000001}},{"attributes":{"ID":529421,"DIS_CODE":0,"TOWNNAME":"安南區","LI":"\u25A0南里","LIN":"6鄰","STREET":"安昌街","SECT":" ","MAREA":" ","LANE":" ","ALLEY":" ","HOUSE_NO":"２０３號","E_COORD97":170110.85000000001,"N_COORD97":2552501.3100000001,"ADDRESS":"安昌街２０３號","OBJECTID":529394},"geometry":{"x":170110.85000000149,"y":2552501.3100000005}},{"attributes":{"ID":529422,"DIS_CODE":0,"TOWNNAME":"安南區","LI":"淵中里","LIN":"6鄰","STREET":"安中路","SECT":"四段","MAREA":" ","LANE":" ","ALLEY":" ","HOUSE_NO":"１０４號","E_COORD97":165094.98000000001,"N_COORD97":2549991.2599999998,"ADDRESS":"安中路四段１０４號","OBJECTID":529395},"geometry":{"x":165094.98000000138,"y":2549991.2599999998}},{"attributes":{"ID":529423,"DIS_CODE":0,"TOWNNAME":"安南區","LI":"淵中里","LIN":"6鄰","STREET":"安中路","SECT":"四段","MAREA":" ","LANE":" ","ALLEY":" ","HOUSE_NO":"１０６號","E_COORD97":165092.57999999999,"N_COORD97":2549988.96,"ADDRESS":"安中路四段１０６號","OBJECTID":529396},"geometry":{"x":165092.58000000101,"y":2549988.959999999}},{"attributes":{"ID":529424,"DIS_CODE":0,"TOWNNAME":"安南區","LI":"淵中里","LIN":"6鄰","STREET":"安中路","SECT":"四段","MAREA":" ","LANE":" ","ALLEY":" ","HOUSE_NO":"１０８號","E_COORD97":165089.97,"N_COORD97":2549986.1600000001,"ADDRESS":"安中路四段１０８號","OBJECTID":529397},"geometry":{"x":165089.96999999974,"y":2549986.1600000001}},{"attributes":{"ID":529425,"DIS_CODE":0,"TOWNNAME":"安南區","LI":"淵中里","LIN":"6鄰","STREET":"安中路","SECT":"四段","MAREA":" ","LANE":" ","ALLEY":" ","HOUSE_NO":"１１０號","E_COORD97":165085.97,"N_COORD97":2549983.46,"ADDRESS":"安中路四段１１０號","OBJECTID":529398},"geometry":{"x":165085.97000000067,"y":2549983.4600000028}},{"attributes":{"ID":529426,"DIS_CODE":0,"TOWNNAME":"安南區","LI":"淵中里","LIN":"6鄰","STREET":"安中路","SECT":"四段","MAREA":" ","LANE":" ","ALLEY":" ","HOUSE_NO":"１１２號","E_COORD97":165083.85000000001,"N_COORD97":2549981.1200000001,"ADDRESS":"安中路四段１１２號","OBJECTID":529399},"geometry":{"x":165083.84999999963,"y":2549981.120000001}},{"attributes":{"ID":529427,"DIS_CODE":0,"TOWNNAME":"安南區","LI":"淵中里","LIN":"6鄰","STREET":"安中路","SECT":"四段","MAREA":" ","LANE":" ","ALLEY":" ","HOUSE_NO":"１１４號","E_COORD97":165079.35000000001,"N_COORD97":2549978.02,"ADDRESS":"安中路四段１１４號","OBJECTID":529400},"geometry":{"x":165079.34999999963,"y":2549978.0200000014}}]}