{"displayFieldName":"TOWNNAME","fieldAliases":{"ID":"ID","DIS_CODE":"DIS_CODE","TOWNNAME":"TOWNNAME","LI":"LI","LIN":"LIN","STREET":"STREET","SECT":"SECT","MAREA":"MAREA","LANE":"LANE","ALLEY":"ALLEY","HOUSE_NO":"HOUSE_NO","E_COORD97":"E_COORD97","N_COORD97":"N_COORD97","ADDRESS":"ADDRESS","OBJECTID":"OBJECTID"},"geometryType":"esriGeometryPoint","spatialReference":{"wkid":102443,"latestWkid":3826},"fields":[{"name":"ID","type":"esriFieldTypeDouble","alias":"ID"},{"name":"DIS_CODE","type":"esriFieldTypeInteger","alias":"DIS_CODE"},{"name":"TOWNNAME","type":"esriFieldTypeString","alias":"TOWNNAME","length":8},{"name":"LI","type":"esriFieldTypeString","alias":"LI","length":8},{"name":"LIN","type":"esriFieldTypeString","alias":"LIN","length":12},{"name":"STREET","type":"esriFieldTypeString","alias":"STREET","length":20},{"name":"SECT","type":"esriFieldTypeString","alias":"SECT","length":8},{"name":"MAREA","type":"esriFieldTypeString","alias":"MAREA","length":12},{"name":"LANE","type":"esriFieldTypeString","alias":"LANE","length":10},{"name":"ALLEY","type":"esriFieldTypeString","alias":"ALLEY","length":10},{"name":"HOUSE_NO","type":"esriFieldTypeString","alias":"HOUSE_NO","length":20},{"name":"E_COORD97","type":"esriFieldTypeDouble","alias":"E_COORD97"},{"name":"N_COORD97","type":"esriFieldTypeDouble","alias":"N_COORD97"},{"name":"ADDRESS","type":"esriFieldTypeString","alias":"ADDRESS","length":50},{"name":"OBJECTID","type":"esriFieldTypeOID","alias":"OBJECTID"}],"features":[{"attributes":{"ID":457426,"DIS_CODE":0,"TOWNNAME":"永康區","LI":"網寮里","LIN":"13鄰","STREET":"永和街","SECT":" ","MAREA":" ","LANE":"２４９巷","ALLEY":" ","HOUSE_NO":"１１號","E_COORD97":173314.47,"N_COORD97":2546561.1800000002,"ADDRESS":"永和街２４９巷１１號","OBJECTID":457401},"geometry":{"x":173314.47000000067,"y":2546561.1799999997}},{"attributes":{"ID":457427,"DIS_CODE":0,"TOWNNAME":"中西區","LI":"法華里","LIN":"13鄰","STREET":"法華街","SECT":" ","MAREA":" ","LANE":"１４７巷","ALLEY":" ","HOUSE_NO":"１０號","E_COORD97":168914.87,"N_COORD97":2542512.2400000002,"ADDRESS":"法華街１４７巷１０號","OBJECTID":457402},"geometry":{"x":168914.87000000104,"y":2542512.2400000021}},{"attributes":{"ID":457428,"DIS_CODE":0,"TOWNNAME":"中西區","LI":"法華里","LIN":"13鄰","STREET":"法華街","SECT":" ","MAREA":" ","LANE":"１４７巷","ALLEY":" ","HOUSE_NO":"１２號","E_COORD97":168919.20000000001,"N_COORD97":2542514.9900000002,"ADDRESS":"法華街１４７巷１２號","OBJECTID":457403},"geometry":{"x":168919.20000000112,"y":2542514.9900000002}},{"attributes":{"ID":457429,"DIS_CODE":0,"TOWNNAME":"中西區","LI":"法華里","LIN":"13鄰","STREET":"法華街","SECT":" ","MAREA":" ","LANE":"１４７巷","ALLEY":" ","HOUSE_NO":"１４號","E_COORD97":168925.89000000001,"N_COORD97":2542513.8100000001,"ADDRESS":"法華街１４７巷１４號","OBJECTID":457404},"geometry":{"x":168925.8900000006,"y":2542513.8099999987}},{"attributes":{"ID":457430,"DIS_CODE":0,"TOWNNAME":"中西區","LI":"法華里","LIN":"13鄰","STREET":"法華街","SECT":" ","MAREA":" ","LANE":"１４７巷","ALLEY":" ","HOUSE_NO":"１６號","E_COORD97":168934.16,"N_COORD97":2542512.2400000002,"ADDRESS":"法華街１４７巷１６號","OBJECTID":457405},"geometry":{"x":168934.16000000015,"y":2542512.2400000021}},{"attributes":{"ID":457431,"DIS_CODE":0,"TOWNNAME":"中西區","LI":"法華里","LIN":"13鄰","STREET":"法華街","SECT":" ","MAREA":" ","LANE":"１４７巷","ALLEY":" ","HOUSE_NO":"１７號","E_COORD97":168912.51000000001,"N_COORD97":2542525.1099999999,"ADDRESS":"法華街１４７巷１７號","OBJECTID":457406},"geometry":{"x":168912.50999999978,"y":2542525.1100000013}},{"attributes":{"ID":457432,"DIS_CODE":0,"TOWNNAME":"中西區","LI":"法華里","LIN":"13鄰","STREET":"法華街","SECT":" ","MAREA":" ","LANE":"１４７巷","ALLEY":" ","HOUSE_NO":"１９號","E_COORD97":168921.56,"N_COORD97":2542528.25,"ADDRESS":"法華街１４７巷１９號","OBJECTID":457407},"geometry":{"x":168921.56000000052,"y":2542528.2500000019}},{"attributes":{"ID":457433,"DIS_CODE":0,"TOWNNAME":"中西區","LI":"法華里","LIN":"13鄰","STREET":"法華街","SECT":" ","MAREA":" ","LANE":"１４７巷","ALLEY":" ","HOUSE_NO":"２１號","E_COORD97":168933.76999999999,"N_COORD97":2542526.29,"ADDRESS":"法華街１４７巷２１號","OBJECTID":457408},"geometry":{"x":168933.77000000048,"y":2542526.2900000028}},{"attributes":{"ID":457434,"DIS_CODE":0,"TOWNNAME":"中西區","LI":"法華里","LIN":"13鄰","STREET":"法華街","SECT":" ","MAREA":" ","LANE":"１４７巷","ALLEY":" ","HOUSE_NO":"２３號","E_COORD97":168942.82000000001,"N_COORD97":2542515.7799999998,"ADDRESS":"法華街１４７巷２３號","OBJECTID":457409},"geometry":{"x":168942.82000000123,"y":2542515.7799999993}},{"attributes":{"ID":457435,"DIS_CODE":0,"TOWNNAME":"中西區","LI":"法華里","LIN":"13鄰","STREET":"法華街","SECT":" ","MAREA":" ","LANE":"１４７巷","ALLEY":" ","HOUSE_NO":"２號","E_COORD97":168885.35000000001,"N_COORD97":2542506.7400000002,"ADDRESS":"法華街１４７巷２號","OBJECTID":457410},"geometry":{"x":168885.35000000149,"y":2542506.7400000002}},{"attributes":{"ID":457436,"DIS_CODE":0,"TOWNNAME":"中西區","LI":"法華里","LIN":"13鄰","STREET":"法華街","SECT":" ","MAREA":" ","LANE":"１４７巷","ALLEY":" ","HOUSE_NO":"４號","E_COORD97":168892.42999999999,"N_COORD97":2542506.7400000002,"ADDRESS":"法華街１４７巷４號","OBJECTID":457411},"geometry":{"x":168892.4299999997,"y":2542506.7400000002}},{"attributes":{"ID":457437,"DIS_CODE":0,"TOWNNAME":"中西區","LI":"法華里","LIN":"13鄰","STREET":"法華街","SECT":" ","MAREA":" ","LANE":"１４７巷","ALLEY":" ","HOUSE_NO":"５號","E_COORD97":168879.04999999999,"N_COORD97":2542519.6000000001,"ADDRESS":"法華街１４７巷５號","OBJECTID":457412},"geometry":{"x":168879.05000000168,"y":2542519.5999999996}},{"attributes":{"ID":457438,"DIS_CODE":0,"TOWNNAME":"中西區","LI":"法華里","LIN":"13鄰","STREET":"法華街","SECT":" ","MAREA":" ","LANE":"１４７巷","ALLEY":" ","HOUSE_NO":"５號之１","E_COORD97":168884.62,"N_COORD97":2542521.8300000001,"ADDRESS":"法華街１４７巷５號之１","OBJECTID":457413},"geometry":{"x":168884.62000000104,"y":2542521.8300000019}},{"attributes":{"ID":457439,"DIS_CODE":0,"TOWNNAME":"中西區","LI":"法華里","LIN":"13鄰","STREET":"法華街","SECT":" ","MAREA":" ","LANE":"１４７巷","ALLEY":" ","HOUSE_NO":"６號","E_COORD97":168905.03,"N_COORD97":2542505.9500000002,"ADDRESS":"法華街１４７巷６號","OBJECTID":457414},"geometry":{"x":168905.03000000212,"y":2542505.9500000011}},{"attributes":{"ID":457440,"DIS_CODE":0,"TOWNNAME":"中西區","LI":"法華里","LIN":"13鄰","STREET":"法華街","SECT":" ","MAREA":" ","LANE":"１４７巷","ALLEY":" ","HOUSE_NO":"７號","E_COORD97":168887.70999999999,"N_COORD97":2542519.21,"ADDRESS":"法華街１４７巷７號","OBJECTID":457415},"geometry":{"x":168887.70999999996,"y":2542519.2100000028}},{"attributes":{"ID":457441,"DIS_CODE":0,"TOWNNAME":"中西區","LI":"法華里","LIN":"13鄰","STREET":"法華街","SECT":" ","MAREA":" ","LANE":"１４７巷","ALLEY":" ","HOUSE_NO":"７號之１","E_COORD97":168893.62,"N_COORD97":2542521.5699999998,"ADDRESS":"法華街１４７巷７號之１","OBJECTID":457416},"geometry":{"x":168893.62000000011,"y":2542521.5700000003}},{"attributes":{"ID":457442,"DIS_CODE":0,"TOWNNAME":"中西區","LI":"法華里","LIN":"13鄰","STREET":"法華街","SECT":" ","MAREA":" ","LANE":"１４７巷","ALLEY":" ","HOUSE_NO":"９號","E_COORD97":168899.51999999999,"N_COORD97":2542537.6899999999,"ADDRESS":"法華街１４７巷９號","OBJECTID":457417},"geometry":{"x":168899.52000000048,"y":2542537.6900000032}},{"attributes":{"ID":457443,"DIS_CODE":0,"TOWNNAME":"安南區","LI":"城南里","LIN":"13鄰","STREET":"城西街","SECT":"二段","MAREA":" ","LANE":"７５１巷","ALLEY":" ","HOUSE_NO":"７號","E_COORD97":158643.56,"N_COORD97":2550992.8399999999,"ADDRESS":"城西街二段７５１巷７號","OBJECTID":457418},"geometry":{"x":158643.56000000052,"y":2550992.8400000017}},{"attributes":{"ID":457444,"DIS_CODE":0,"TOWNNAME":"安南區","LI":"長安里","LIN":"13鄰","STREET":"長溪路","SECT":"三段","MAREA":" ","LANE":"３８０巷","ALLEY":" ","HOUSE_NO":"７２號之１","E_COORD97":167926.07999999999,"N_COORD97":2552073.1000000001,"ADDRESS":"長溪路三段３８０巷７２號之１","OBJECTID":457419},"geometry":{"x":167926.08000000007,"y":2552073.1000000015}},{"attributes":{"ID":457445,"DIS_CODE":0,"TOWNNAME":"安南區","LI":"安富里","LIN":"13鄰","STREET":"安富街","SECT":" ","MAREA":" ","LANE":"２５１巷","ALLEY":" ","HOUSE_NO":"４８號","E_COORD97":167544.31,"N_COORD97":2547319.2000000002,"ADDRESS":"安富街２５１巷４８號","OBJECTID":457420},"geometry":{"x":167544.30999999959,"y":2547319.2000000011}},{"attributes":{"ID":457446,"DIS_CODE":0,"TOWNNAME":"永康區","LI":"中華里","LIN":"13鄰","STREET":"小東路","SECT":" ","MAREA":" ","LANE":"５９１巷","ALLEY":" ","HOUSE_NO":"１５號","E_COORD97":171822.76000000001,"N_COORD97":2544445.0899999999,"ADDRESS":"小東路５９１巷１５號","OBJECTID":457421},"geometry":{"x":171822.76000000071,"y":2544445.0900000017}},{"attributes":{"ID":457447,"DIS_CODE":0,"TOWNNAME":"永康區","LI":"中華里","LIN":"13鄰","STREET":"忠義街","SECT":" ","MAREA":" ","LANE":"１０巷","ALLEY":" ","HOUSE_NO":"７號之１１","E_COORD97":171813.14999999999,"N_COORD97":2544437.5299999998,"ADDRESS":"忠義街１０巷７號之１１","OBJECTID":457422},"geometry":{"x":171813.14999999944,"y":2544437.5300000012}},{"attributes":{"ID":457448,"DIS_CODE":0,"TOWNNAME":"永康區","LI":"中華里","LIN":"13鄰","STREET":"忠義街","SECT":" ","MAREA":" ","LANE":"１０巷","ALLEY":" ","HOUSE_NO":"５號之２","E_COORD97":171799.13,"N_COORD97":2544398.7999999998,"ADDRESS":"忠義街１０巷５號之２","OBJECTID":457423},"geometry":{"x":171799.12999999989,"y":2544398.8000000007}},{"attributes":{"ID":457449,"DIS_CODE":0,"TOWNNAME":"永康區","LI":"中華里","LIN":"13鄰","STREET":"忠義街","SECT":" ","MAREA":" ","LANE":"４４巷","ALLEY":" ","HOUSE_NO":"２６號","E_COORD97":171797.95999999999,"N_COORD97":2544463.8900000001,"ADDRESS":"忠義街４４巷２６號","OBJECTID":457424},"geometry":{"x":171797.96000000089,"y":2544463.8900000025}},{"attributes":{"ID":457450,"DIS_CODE":0,"TOWNNAME":"永康區","LI":"中華里","LIN":"13鄰","STREET":"忠義街","SECT":" ","MAREA":" ","LANE":"１０巷","ALLEY":" ","HOUSE_NO":"７號之４","E_COORD97":171811.92000000001,"N_COORD97":2544407.4900000002,"ADDRESS":"忠義街１０巷７號之４","OBJECTID":457425},"geometry":{"x":171811.91999999993,"y":2544407.4899999984}},{"attributes":{"ID":457451,"DIS_CODE":0,"TOWNNAME":"永康區","LI":"中華里","LIN":"13鄰","STREET":"小東路","SECT":" ","MAREA":" ","LANE":"５９１巷","ALLEY":" ","HOUSE_NO":"１３號","E_COORD97":171823.09,"N_COORD97":2544438.1400000001,"ADDRESS":"小東路５９１巷１３號","OBJECTID":457426},"geometry":{"x":171823.08999999985,"y":2544438.1400000025}},{"attributes":{"ID":457452,"DIS_CODE":0,"TOWNNAME":"永康區","LI":"中華里","LIN":"13鄰","STREET":"忠義街","SECT":" ","MAREA":" ","LANE":"１０巷","ALLEY":" ","HOUSE_NO":"７號之７","E_COORD97":171811.97,"N_COORD97":2544419.5899999999,"ADDRESS":"忠義街１０巷７號之７","OBJECTID":457427},"geometry":{"x":171811.96999999974,"y":2544419.5899999999}},{"attributes":{"ID":457453,"DIS_CODE":0,"TOWNNAME":"永康區","LI":"中華里","LIN":"13鄰","STREET":"忠義街","SECT":" ","MAREA":" ","LANE":"４４巷","ALLEY":" ","HOUSE_NO":"２０號","E_COORD97":171784.94,"N_COORD97":2544464.3500000001,"ADDRESS":"忠義街４４巷２０號","OBJECTID":457428},"geometry":{"x":171784.94000000134,"y":2544464.3499999996}},{"attributes":{"ID":457454,"DIS_CODE":0,"TOWNNAME":"永康區","LI":"中華里","LIN":"13鄰","STREET":"忠義街","SECT":" ","MAREA":" ","LANE":"１０巷","ALLEY":" ","HOUSE_NO":"５號之４","E_COORD97":171799.01999999999,"N_COORD97":2544407.0600000001,"ADDRESS":"忠義街１０巷５號之４","OBJECTID":457429},"geometry":{"x":171799.01999999955,"y":2544407.0600000005}},{"attributes":{"ID":457455,"DIS_CODE":0,"TOWNNAME":"永康區","LI":"二王里","LIN":"13鄰","STREET":"永二街","SECT":" ","MAREA":" ","LANE":"４５９巷","ALLEY":" ","HOUSE_NO":"２１號","E_COORD97":172651.25,"N_COORD97":2546615.23,"ADDRESS":"永二街４５９巷２１號","OBJECTID":457430},"geometry":{"x":172651.25000000186,"y":2546615.2300000004}},{"attributes":{"ID":457456,"DIS_CODE":0,"TOWNNAME":"中西區","LI":"西湖里","LIN":"13鄰","STREET":"湖美一街","SECT":" ","MAREA":" ","LANE":"４２巷","ALLEY":" ","HOUSE_NO":"１０號","E_COORD97":166087.14000000001,"N_COORD97":2544624.7999999998,"ADDRESS":"湖美一街４２巷１０號","OBJECTID":457431},"geometry":{"x":166087.13999999966,"y":2544624.8000000007}},{"attributes":{"ID":457457,"DIS_CODE":0,"TOWNNAME":"中西區","LI":"西湖里","LIN":"13鄰","STREET":"湖美一街","SECT":" ","MAREA":" ","LANE":"４２巷","ALLEY":" ","HOUSE_NO":"１２號","E_COORD97":166091.28,"N_COORD97":2544625.77,"ADDRESS":"湖美一街４２巷１２號","OBJECTID":457432},"geometry":{"x":166091.28000000119,"y":2544625.7700000014}},{"attributes":{"ID":457458,"DIS_CODE":0,"TOWNNAME":"中西區","LI":"西湖里","LIN":"13鄰","STREET":"湖美一街","SECT":" ","MAREA":" ","LANE":"４２巷","ALLEY":" ","HOUSE_NO":"１４號","E_COORD97":166095.42000000001,"N_COORD97":2544625.04,"ADDRESS":"湖美一街４２巷１４號","OBJECTID":457433},"geometry":{"x":166095.42000000086,"y":2544625.0399999991}},{"attributes":{"ID":457459,"DIS_CODE":0,"TOWNNAME":"中西區","LI":"西湖里","LIN":"13鄰","STREET":"湖美一街","SECT":" ","MAREA":" ","LANE":"４２巷","ALLEY":" ","HOUSE_NO":"１６號","E_COORD97":166099.54999999999,"N_COORD97":2544625.77,"ADDRESS":"湖美一街４２巷１６號","OBJECTID":457434},"geometry":{"x":166099.55000000075,"y":2544625.7700000014}},{"attributes":{"ID":457460,"DIS_CODE":0,"TOWNNAME":"中西區","LI":"西湖里","LIN":"13鄰","STREET":"湖美一街","SECT":" ","MAREA":" ","LANE":"４２巷","ALLEY":" ","HOUSE_NO":"１８號","E_COORD97":166103.69,"N_COORD97":2544624.7999999998,"ADDRESS":"湖美一街４２巷１８號","OBJECTID":457435},"geometry":{"x":166103.69000000227,"y":2544624.8000000007}},{"attributes":{"ID":457461,"DIS_CODE":0,"TOWNNAME":"中西區","LI":"西湖里","LIN":"13鄰","STREET":"湖美一街","SECT":" ","MAREA":" ","LANE":"４２巷","ALLEY":" ","HOUSE_NO":"２０號","E_COORD97":166107.82999999999,"N_COORD97":2544625.77,"ADDRESS":"湖美一街４２巷２０號","OBJECTID":457436},"geometry":{"x":166107.83000000101,"y":2544625.7700000014}},{"attributes":{"ID":457462,"DIS_CODE":0,"TOWNNAME":"中西區","LI":"西湖里","LIN":"13鄰","STREET":"湖美一街","SECT":" ","MAREA":" ","LANE":"４２巷","ALLEY":" ","HOUSE_NO":"２２號","E_COORD97":166111.72,"N_COORD97":2544625.04,"ADDRESS":"湖美一街４２巷２２號","OBJECTID":457437},"geometry":{"x":166111.72000000067,"y":2544625.0399999991}},{"attributes":{"ID":457463,"DIS_CODE":0,"TOWNNAME":"中西區","LI":"西湖里","LIN":"13鄰","STREET":"湖美一街","SECT":" ","MAREA":" ","LANE":"４２巷","ALLEY":" ","HOUSE_NO":"２４號","E_COORD97":166115.85999999999,"N_COORD97":2544626.2599999998,"ADDRESS":"湖美一街４２巷２４號","OBJECTID":457438},"geometry":{"x":166115.8599999994,"y":2544626.2600000016}},{"attributes":{"ID":457464,"DIS_CODE":0,"TOWNNAME":"中西區","LI":"西湖里","LIN":"13鄰","STREET":"湖美一街","SECT":" ","MAREA":" ","LANE":"４２巷","ALLEY":" ","HOUSE_NO":"２６號","E_COORD97":166120.23999999999,"N_COORD97":2544625.77,"ADDRESS":"湖美一街４２巷２６號","OBJECTID":457439},"geometry":{"x":166120.24000000115,"y":2544625.7700000014}},{"attributes":{"ID":457465,"DIS_CODE":0,"TOWNNAME":"中西區","LI":"西湖里","LIN":"13鄰","STREET":"湖美一街","SECT":" ","MAREA":" ","LANE":"４２巷","ALLEY":" ","HOUSE_NO":"２８號","E_COORD97":166125.82999999999,"N_COORD97":2544626.2599999998,"ADDRESS":"湖美一街４２巷２８號","OBJECTID":457440},"geometry":{"x":166125.83000000007,"y":2544626.2600000016}},{"attributes":{"ID":457466,"DIS_CODE":0,"TOWNNAME":"中西區","LI":"西湖里","LIN":"13鄰","STREET":"湖美一街","SECT":" ","MAREA":" ","LANE":"４２巷","ALLEY":" ","HOUSE_NO":"２號","E_COORD97":166070.35000000001,"N_COORD97":2544624.0699999998,"ADDRESS":"湖美一街４２巷２號","OBJECTID":457441},"geometry":{"x":166070.35000000056,"y":2544624.070000004}},{"attributes":{"ID":457467,"DIS_CODE":0,"TOWNNAME":"中西區","LI":"西湖里","LIN":"13鄰","STREET":"湖美一街","SECT":" ","MAREA":" ","LANE":"４２巷","ALLEY":" ","HOUSE_NO":"４號","E_COORD97":166074.73000000001,"N_COORD97":2544624.3100000001,"ADDRESS":"湖美一街４２巷４號","OBJECTID":457442},"geometry":{"x":166074.73000000138,"y":2544624.3100000024}},{"attributes":{"ID":457468,"DIS_CODE":0,"TOWNNAME":"中西區","LI":"西湖里","LIN":"13鄰","STREET":"湖美一街","SECT":" ","MAREA":" ","LANE":"４２巷","ALLEY":" ","HOUSE_NO":"６號","E_COORD97":166078.63,"N_COORD97":2544625.29,"ADDRESS":"湖美一街４２巷６號","OBJECTID":457443},"geometry":{"x":166078.63000000082,"y":2544625.290000001}},{"attributes":{"ID":457469,"DIS_CODE":0,"TOWNNAME":"中西區","LI":"西湖里","LIN":"13鄰","STREET":"湖美一街","SECT":" ","MAREA":" ","LANE":"４２巷","ALLEY":" ","HOUSE_NO":"８號","E_COORD97":166082.76000000001,"N_COORD97":2544624.5600000001,"ADDRESS":"湖美一街４２巷８號","OBJECTID":457444},"geometry":{"x":166082.76000000071,"y":2544624.5600000042}},{"attributes":{"ID":457470,"DIS_CODE":0,"TOWNNAME":"中西區","LI":"西湖里","LIN":"13鄰","STREET":"湖美一街","SECT":" ","MAREA":" ","LANE":"４９巷","ALLEY":" ","HOUSE_NO":"３號","E_COORD97":166050.64000000001,"N_COORD97":2544624.5600000001,"ADDRESS":"湖美一街４９巷３號","OBJECTID":457445},"geometry":{"x":166050.64000000153,"y":2544624.5600000042}},{"attributes":{"ID":457471,"DIS_CODE":0,"TOWNNAME":"中西區","LI":"西湖里","LIN":"13鄰","STREET":"湖美一街","SECT":" ","MAREA":" ","LANE":"４９巷","ALLEY":" ","HOUSE_NO":"５號","E_COORD97":166046.26000000001,"N_COORD97":2544624.7999999998,"ADDRESS":"湖美一街４９巷５號","OBJECTID":457446},"geometry":{"x":166046.25999999978,"y":2544624.8000000007}},{"attributes":{"ID":457472,"DIS_CODE":0,"TOWNNAME":"中西區","LI":"西湖里","LIN":"13鄰","STREET":"湖美一街","SECT":" ","MAREA":" ","LANE":"４９巷","ALLEY":" ","HOUSE_NO":"７號","E_COORD97":166042.60999999999,"N_COORD97":2544624.3100000001,"ADDRESS":"湖美一街４９巷７號","OBJECTID":457447},"geometry":{"x":166042.61000000034,"y":2544624.3100000024}},{"attributes":{"ID":457473,"DIS_CODE":0,"TOWNNAME":"中西區","LI":"西湖里","LIN":"13鄰","STREET":"湖美一街","SECT":" ","MAREA":" ","LANE":"４９巷","ALLEY":" ","HOUSE_NO":"９號","E_COORD97":166038.23000000001,"N_COORD97":2544624.5600000001,"ADDRESS":"湖美一街４９巷９號","OBJECTID":457448},"geometry":{"x":166038.23000000045,"y":2544624.5600000042}},{"attributes":{"ID":457474,"DIS_CODE":0,"TOWNNAME":"中西區","LI":"西湖里","LIN":"13鄰","STREET":"湖美二街","SECT":" ","MAREA":" ","LANE":"４２巷","ALLEY":" ","HOUSE_NO":"１０號","E_COORD97":166160.14000000001,"N_COORD97":2544626.77,"ADDRESS":"湖美二街４２巷１０號","OBJECTID":457449},"geometry":{"x":166160.13999999966,"y":2544626.7700000014}},{"attributes":{"ID":457475,"DIS_CODE":0,"TOWNNAME":"中西區","LI":"西湖里","LIN":"13鄰","STREET":"湖美二街","SECT":" ","MAREA":" ","LANE":"４２巷","ALLEY":" ","HOUSE_NO":"１２號","E_COORD97":166164.51999999999,"N_COORD97":2544626.5299999998,"ADDRESS":"湖美二街４２巷１２號","OBJECTID":457450},"geometry":{"x":166164.51999999955,"y":2544626.5299999993}},{"attributes":{"ID":457476,"DIS_CODE":0,"TOWNNAME":"中西區","LI":"西湖里","LIN":"13鄰","STREET":"湖美二街","SECT":" ","MAREA":" ","LANE":"４２巷","ALLEY":" ","HOUSE_NO":"１４號","E_COORD97":166168.89999999999,"N_COORD97":2544627.25,"ADDRESS":"湖美二街４２巷１４號","OBJECTID":457451},"geometry":{"x":166168.9000000013,"y":2544627.2500000019}},{"attributes":{"ID":457477,"DIS_CODE":0,"TOWNNAME":"中西區","LI":"西湖里","LIN":"13鄰","STREET":"湖美二街","SECT":" ","MAREA":" ","LANE":"４２巷","ALLEY":" ","HOUSE_NO":"２號","E_COORD97":166141.89000000001,"N_COORD97":2544627.7400000002,"ADDRESS":"湖美二街４２巷２號","OBJECTID":457452},"geometry":{"x":166141.88999999966,"y":2544627.7400000021}},{"attributes":{"ID":457478,"DIS_CODE":0,"TOWNNAME":"中西區","LI":"西湖里","LIN":"13鄰","STREET":"湖美二街","SECT":" ","MAREA":" ","LANE":"４２巷","ALLEY":" ","HOUSE_NO":"４號","E_COORD97":166146.76000000001,"N_COORD97":2544627.7400000002,"ADDRESS":"湖美二街４２巷４號","OBJECTID":457453},"geometry":{"x":166146.76000000071,"y":2544627.7400000021}},{"attributes":{"ID":457479,"DIS_CODE":0,"TOWNNAME":"中西區","LI":"西湖里","LIN":"13鄰","STREET":"湖美二街","SECT":" ","MAREA":" ","LANE":"４２巷","ALLEY":" ","HOUSE_NO":"６號","E_COORD97":166151.63,"N_COORD97":2544627.5,"ADDRESS":"湖美二街４２巷６號","OBJECTID":457454},"geometry":{"x":166151.63000000082,"y":2544627.4999999981}},{"attributes":{"ID":457480,"DIS_CODE":0,"TOWNNAME":"中西區","LI":"西湖里","LIN":"13鄰","STREET":"湖美二街","SECT":" ","MAREA":" ","LANE":"４２巷","ALLEY":" ","HOUSE_NO":"８號","E_COORD97":166155.28,"N_COORD97":2544627.0099999998,"ADDRESS":"湖美二街４２巷８號","OBJECTID":457455},"geometry":{"x":166155.27999999933,"y":2544627.0099999998}},{"attributes":{"ID":457481,"DIS_CODE":0,"TOWNNAME":"仁德區","LI":"太子里","LIN":"13鄰","STREET":"長興二街","SECT":" ","MAREA":" ","LANE":"２６巷","ALLEY":" ","HOUSE_NO":"１０號","E_COORD97":174427.48000000001,"N_COORD97":2543727.0099999998,"ADDRESS":"長興二街２６巷１０號","OBJECTID":457456},"geometry":{"x":174427.48000000138,"y":2543727.0100000016}},{"attributes":{"ID":457482,"DIS_CODE":0,"TOWNNAME":"仁德區","LI":"仁義里","LIN":"13鄰","STREET":"中山路","SECT":" ","MAREA":" ","LANE":"１２４巷","ALLEY":" ","HOUSE_NO":"５號","E_COORD97":174638.60999999999,"N_COORD97":2541204.9900000002,"ADDRESS":"中山路１２４巷５號","OBJECTID":457457},"geometry":{"x":174638.61000000034,"y":2541204.9900000021}},{"attributes":{"ID":457483,"DIS_CODE":0,"TOWNNAME":"仁德區","LI":"仁義里","LIN":"13鄰","STREET":"中山路","SECT":" ","MAREA":" ","LANE":"１２４巷","ALLEY":" ","HOUSE_NO":"１３號","E_COORD97":174618.06,"N_COORD97":2541214.4900000002,"ADDRESS":"中山路１２４巷１３號","OBJECTID":457458},"geometry":{"x":174618.05999999959,"y":2541214.4900000021}},{"attributes":{"ID":457484,"DIS_CODE":0,"TOWNNAME":"仁德區","LI":"太子里","LIN":"13鄰","STREET":"長興二街","SECT":" ","MAREA":" ","LANE":"２６巷","ALLEY":" ","HOUSE_NO":"１號","E_COORD97":174397.01999999999,"N_COORD97":2543731.0099999998,"ADDRESS":"長興二街２６巷１號","OBJECTID":457459},"geometry":{"x":174397.02000000048,"y":2543731.0099999998}},{"attributes":{"ID":457485,"DIS_CODE":0,"TOWNNAME":"仁德區","LI":"一甲里","LIN":"13鄰","STREET":"忠義三街","SECT":" ","MAREA":" ","LANE":"２４巷","ALLEY":" ","HOUSE_NO":"９號","E_COORD97":173669.19,"N_COORD97":2541744.02,"ADDRESS":"忠義三街２４巷９號","OBJECTID":457460},"geometry":{"x":173669.18999999948,"y":2541744.0199999996}},{"attributes":{"ID":457486,"DIS_CODE":0,"TOWNNAME":"東區","LI":"東明里","LIN":"13鄰","STREET":"東安路","SECT":" ","MAREA":" ","LANE":"９２巷","ALLEY":" ","HOUSE_NO":"３７號","E_COORD97":170788.37,"N_COORD97":2543732.46,"ADDRESS":"東安路９２巷３７號","OBJECTID":457461},"geometry":{"x":170788.37000000104,"y":2543732.4600000009}},{"attributes":{"ID":457487,"DIS_CODE":0,"TOWNNAME":"東區","LI":"東明里","LIN":"13鄰","STREET":"東安路","SECT":" ","MAREA":" ","LANE":"９２巷","ALLEY":" ","HOUSE_NO":"３９號","E_COORD97":170788.37,"N_COORD97":2543739.6499999999,"ADDRESS":"東安路９２巷３９號","OBJECTID":457462},"geometry":{"x":170788.37000000104,"y":2543739.6500000022}},{"attributes":{"ID":457488,"DIS_CODE":0,"TOWNNAME":"東區","LI":"東明里","LIN":"13鄰","STREET":"東安路","SECT":" ","MAREA":" ","LANE":"９２巷","ALLEY":" ","HOUSE_NO":"４１號","E_COORD97":170798.22,"N_COORD97":2543739.0800000001,"ADDRESS":"東安路９２巷４１號","OBJECTID":457463},"geometry":{"x":170798.21999999974,"y":2543739.0800000038}},{"attributes":{"ID":457489,"DIS_CODE":0,"TOWNNAME":"東區","LI":"東明里","LIN":"13鄰","STREET":"東安路","SECT":" ","MAREA":" ","LANE":"９２巷","ALLEY":" ","HOUSE_NO":"４３號","E_COORD97":170798.41,"N_COORD97":2543733.98,"ADDRESS":"東安路９２巷４３號","OBJECTID":457464},"geometry":{"x":170798.41000000015,"y":2543733.9800000023}},{"attributes":{"ID":457490,"DIS_CODE":0,"TOWNNAME":"東區","LI":"東明里","LIN":"13鄰","STREET":"東安路","SECT":" ","MAREA":" ","LANE":"９２巷","ALLEY":" ","HOUSE_NO":"４７號","E_COORD97":170798.79000000001,"N_COORD97":2543726.0299999998,"ADDRESS":"東安路９２巷４７號","OBJECTID":457465},"geometry":{"x":170798.79000000097,"y":2543726.0300000012}},{"attributes":{"ID":457491,"DIS_CODE":0,"TOWNNAME":"東區","LI":"東明里","LIN":"13鄰","STREET":"東安路","SECT":" ","MAREA":" ","LANE":"９２巷","ALLEY":" ","HOUSE_NO":"４９號","E_COORD97":170797.84,"N_COORD97":2543716.9500000002,"ADDRESS":"東安路９２巷４９號","OBJECTID":457466},"geometry":{"x":170797.84000000078,"y":2543716.9500000011}},{"attributes":{"ID":457492,"DIS_CODE":0,"TOWNNAME":"東區","LI":"東明里","LIN":"13鄰","STREET":"東安路","SECT":" ","MAREA":" ","LANE":"９２巷","ALLEY":" ","HOUSE_NO":"５１號","E_COORD97":170804.47,"N_COORD97":2543715.0600000001,"ADDRESS":"東安路９２巷５１號","OBJECTID":457467},"geometry":{"x":170804.46999999974,"y":2543715.0600000005}},{"attributes":{"ID":457493,"DIS_CODE":0,"TOWNNAME":"東區","LI":"東明里","LIN":"13鄰","STREET":"東安路","SECT":" ","MAREA":" ","LANE":"９２巷","ALLEY":" ","HOUSE_NO":"５３號","E_COORD97":170812.04000000001,"N_COORD97":2543714.6800000002,"ADDRESS":"東安路９２巷５３號","OBJECTID":457468},"geometry":{"x":170812.04000000097,"y":2543714.6800000016}},{"attributes":{"ID":457494,"DIS_CODE":0,"TOWNNAME":"東區","LI":"東明里","LIN":"13鄰","STREET":"東安路","SECT":" ","MAREA":" ","LANE":"９２巷","ALLEY":" ","HOUSE_NO":"５５號","E_COORD97":170820.17999999999,"N_COORD97":2543713.73,"ADDRESS":"東安路９２巷５５號","OBJECTID":457469},"geometry":{"x":170820.1799999997,"y":2543713.7300000004}},{"attributes":{"ID":457495,"DIS_CODE":0,"TOWNNAME":"東區","LI":"東明里","LIN":"13鄰","STREET":"東安路","SECT":" ","MAREA":" ","LANE":"９２巷","ALLEY":" ","HOUSE_NO":"５７號","E_COORD97":170820.56,"N_COORD97":2543726.79,"ADDRESS":"東安路９２巷５７號","OBJECTID":457470},"geometry":{"x":170820.55999999959,"y":2543726.790000001}},{"attributes":{"ID":457496,"DIS_CODE":0,"TOWNNAME":"東區","LI":"東明里","LIN":"13鄰","STREET":"東安路","SECT":" ","MAREA":" ","LANE":"９２巷","ALLEY":" ","HOUSE_NO":"５９號","E_COORD97":170822.82999999999,"N_COORD97":2543733.4100000001,"ADDRESS":"東安路９２巷５９號","OBJECTID":457471},"geometry":{"x":170822.83000000007,"y":2543733.4100000039}},{"attributes":{"ID":457497,"DIS_CODE":0,"TOWNNAME":"東區","LI":"東明里","LIN":"13鄰","STREET":"東安路","SECT":" ","MAREA":" ","LANE":"９２巷","ALLEY":" ","HOUSE_NO":"６３號","E_COORD97":170835.5,"N_COORD97":2543726.4700000002,"ADDRESS":"東安路９２巷６３號","OBJECTID":457472},"geometry":{"x":170835.5,"y":2543726.4700000007}},{"attributes":{"ID":457498,"DIS_CODE":0,"TOWNNAME":"東區","LI":"東明里","LIN":"13鄰","STREET":"東安路","SECT":" ","MAREA":" ","LANE":"９２巷","ALLEY":" ","HOUSE_NO":"６５號","E_COORD97":170831.10999999999,"N_COORD97":2543713.3199999998,"ADDRESS":"東安路９２巷６５號","OBJECTID":457473},"geometry":{"x":170831.11000000127,"y":2543713.3200000003}},{"attributes":{"ID":457499,"DIS_CODE":0,"TOWNNAME":"東區","LI":"東明里","LIN":"13鄰","STREET":"東安路","SECT":" ","MAREA":" ","LANE":"９２巷","ALLEY":" ","HOUSE_NO":"６７號","E_COORD97":170836.09,"N_COORD97":2543711.8599999999,"ADDRESS":"東安路９２巷６７號","OBJECTID":457474},"geometry":{"x":170836.08999999985,"y":2543711.8599999994}},{"attributes":{"ID":457500,"DIS_CODE":0,"TOWNNAME":"安南區","LI":"溪心里","LIN":"13鄰","STREET":"安中路","SECT":"三段","MAREA":" ","LANE":"５９巷","ALLEY":" ","HOUSE_NO":"４３號","E_COORD97":166221.10000000001,"N_COORD97":2549645.8599999999,"ADDRESS":"安中路三段５９巷４３號","OBJECTID":457475},"geometry":{"x":166221.10000000056,"y":2549645.8600000031}},{"attributes":{"ID":457501,"DIS_CODE":0,"TOWNNAME":"楠西區","LI":"楠西里","LIN":"4鄰","STREET":"民族路","SECT":" ","MAREA":" ","LANE":"１１７巷","ALLEY":" ","HOUSE_NO":"１１號","E_COORD97":197111.84,"N_COORD97":2564259.29,"ADDRESS":"民族路１１７巷１１號","OBJECTID":457476},"geometry":{"x":197111.83999999985,"y":2564259.290000001}},{"attributes":{"ID":457502,"DIS_CODE":0,"TOWNNAME":"新化區","LI":"護國里","LIN":"8鄰","STREET":"信義路","SECT":" ","MAREA":" ","LANE":"８６巷","ALLEY":" ","HOUSE_NO":"８號","E_COORD97":179839.78,"N_COORD97":2548768.25,"ADDRESS":"信義路８６巷８號","OBJECTID":457477},"geometry":{"x":179839.78000000119,"y":2548768.25}},{"attributes":{"ID":457503,"DIS_CODE":0,"TOWNNAME":"安南區","LI":"溪心里","LIN":"13鄰","STREET":"樂安一街","SECT":" ","MAREA":" ","LANE":"６５巷","ALLEY":" ","HOUSE_NO":"７號","E_COORD97":166014.60999999999,"N_COORD97":2549731.4500000002,"ADDRESS":"樂安一街６５巷７號","OBJECTID":457478},"geometry":{"x":166014.61000000127,"y":2549731.4500000011}},{"attributes":{"ID":457504,"DIS_CODE":0,"TOWNNAME":"安南區","LI":"溪心里","LIN":"13鄰","STREET":"樂安一街","SECT":" ","MAREA":" ","LANE":"６５巷","ALLEY":" ","HOUSE_NO":"８號","E_COORD97":166028,"N_COORD97":2549721.54,"ADDRESS":"樂安一街６５巷８號","OBJECTID":457479},"geometry":{"x":166028,"y":2549721.5399999991}},{"attributes":{"ID":457505,"DIS_CODE":0,"TOWNNAME":"安南區","LI":"溪心里","LIN":"13鄰","STREET":"樂安一街","SECT":" ","MAREA":" ","LANE":"６５巷","ALLEY":" ","HOUSE_NO":"９號","E_COORD97":166026.20999999999,"N_COORD97":2549715.6600000001,"ADDRESS":"樂安一街６５巷９號","OBJECTID":457480},"geometry":{"x":166026.20999999996,"y":2549715.6600000039}},{"attributes":{"ID":457506,"DIS_CODE":0,"TOWNNAME":"麻豆區","LI":"中興里","LIN":"13鄰","STREET":"三民路","SECT":" ","MAREA":" ","LANE":"２０巷","ALLEY":" ","HOUSE_NO":"３號","E_COORD97":172698.76999999999,"N_COORD97":2564664.9500000002,"ADDRESS":"三民路２０巷３號","OBJECTID":457481},"geometry":{"x":172698.77000000048,"y":2564664.9500000011}},{"attributes":{"ID":457507,"DIS_CODE":0,"TOWNNAME":"麻豆區","LI":"中興里","LIN":"13鄰","STREET":"三民路","SECT":" ","MAREA":" ","LANE":"２０巷","ALLEY":" ","HOUSE_NO":"４號之１","E_COORD97":172706.26999999999,"N_COORD97":2564647.6000000001,"ADDRESS":"三民路２０巷４號之１","OBJECTID":457482},"geometry":{"x":172706.26999999955,"y":2564647.6000000015}},{"attributes":{"ID":457508,"DIS_CODE":0,"TOWNNAME":"永康區","LI":"復華里","LIN":"13鄰","STREET":"國華街","SECT":" ","MAREA":" ","LANE":"９６巷","ALLEY":" ","HOUSE_NO":"９號","E_COORD97":172879.06,"N_COORD97":2545933.6400000001,"ADDRESS":"國華街９６巷９號","OBJECTID":457483},"geometry":{"x":172879.05999999959,"y":2545933.6400000025}},{"attributes":{"ID":457509,"DIS_CODE":0,"TOWNNAME":"永康區","LI":"復華里","LIN":"13鄰","STREET":"國華街","SECT":" ","MAREA":" ","LANE":"９６巷","ALLEY":" ","HOUSE_NO":"２３號","E_COORD97":172953.45999999999,"N_COORD97":2545937.7400000002,"ADDRESS":"國華街９６巷２３號","OBJECTID":457484},"geometry":{"x":172953.46000000089,"y":2545937.7400000002}},{"attributes":{"ID":457510,"DIS_CODE":0,"TOWNNAME":"永康區","LI":"復華里","LIN":"13鄰","STREET":"國華街","SECT":" ","MAREA":" ","LANE":"９６巷","ALLEY":" ","HOUSE_NO":"２５號","E_COORD97":172958.01999999999,"N_COORD97":2545936.75,"ADDRESS":"國華街９６巷２５號","OBJECTID":457485},"geometry":{"x":172958.02000000048,"y":2545936.75}},{"attributes":{"ID":457511,"DIS_CODE":0,"TOWNNAME":"永康區","LI":"網寮里","LIN":"13鄰","STREET":"永和街","SECT":" ","MAREA":" ","LANE":"２４９巷","ALLEY":" ","HOUSE_NO":"９號","E_COORD97":173314.64999999999,"N_COORD97":2546566.6800000002,"ADDRESS":"永和街２４９巷９號","OBJECTID":457486},"geometry":{"x":173314.65000000037,"y":2546566.6800000016}},{"attributes":{"ID":457512,"DIS_CODE":0,"TOWNNAME":"善化區","LI":"坐駕里","LIN":"13鄰","STREET":"信義路","SECT":" ","MAREA":" ","LANE":"７１巷","ALLEY":" ","HOUSE_NO":"１７號","E_COORD97":178237.20000000001,"N_COORD97":2558702.75,"ADDRESS":"信義路７１巷１７號","OBJECTID":457487},"geometry":{"x":178237.20000000019,"y":2558702.7499999981}},{"attributes":{"ID":457513,"DIS_CODE":0,"TOWNNAME":"善化區","LI":"坐駕里","LIN":"13鄰","STREET":"信義路","SECT":" ","MAREA":" ","LANE":"７１巷","ALLEY":" ","HOUSE_NO":"１１號","E_COORD97":178252.51999999999,"N_COORD97":2558704.5,"ADDRESS":"信義路７１巷１１號","OBJECTID":457488},"geometry":{"x":178252.51999999955,"y":2558704.5000000037}},{"attributes":{"ID":457514,"DIS_CODE":0,"TOWNNAME":"善化區","LI":"南關里","LIN":"13鄰","STREET":"復興街","SECT":" ","MAREA":" ","LANE":"１２１巷","ALLEY":" ","HOUSE_NO":"１２號","E_COORD97":176817.04999999999,"N_COORD97":2558973.5099999998,"ADDRESS":"復興街１２１巷１２號","OBJECTID":457489},"geometry":{"x":176817.04999999981,"y":2558973.5100000016}},{"attributes":{"ID":457515,"DIS_CODE":0,"TOWNNAME":"善化區","LI":"坐駕里","LIN":"13鄰","STREET":"信義路","SECT":" ","MAREA":" ","LANE":"７１巷","ALLEY":" ","HOUSE_NO":"２６號","E_COORD97":178218.23000000001,"N_COORD97":2558712.5,"ADDRESS":"信義路７１巷２６號","OBJECTID":457490},"geometry":{"x":178218.23000000045,"y":2558712.5000000019}},{"attributes":{"ID":457516,"DIS_CODE":0,"TOWNNAME":"善化區","LI":"坐駕里","LIN":"13鄰","STREET":"信義路","SECT":" ","MAREA":" ","LANE":"７１巷","ALLEY":" ","HOUSE_NO":"３號","E_COORD97":178273.70999999999,"N_COORD97":2558707.25,"ADDRESS":"信義路７１巷３號","OBJECTID":457491},"geometry":{"x":178273.70999999996,"y":2558707.2500000019}},{"attributes":{"ID":457517,"DIS_CODE":0,"TOWNNAME":"永康區","LI":"二王里","LIN":"13鄰","STREET":"永二街","SECT":" ","MAREA":" ","LANE":"４５９巷","ALLEY":" ","HOUSE_NO":"３號","E_COORD97":172616.25,"N_COORD97":2546654.3199999998,"ADDRESS":"永二街４５９巷３號","OBJECTID":457492},"geometry":{"x":172616.25000000093,"y":2546654.3200000022}},{"attributes":{"ID":457518,"DIS_CODE":0,"TOWNNAME":"永康區","LI":"二王里","LIN":"13鄰","STREET":"永二街","SECT":" ","MAREA":" ","LANE":"４５９巷","ALLEY":" ","HOUSE_NO":"１號","E_COORD97":172614.56,"N_COORD97":2546660.0699999998,"ADDRESS":"永二街４５９巷１號","OBJECTID":457493},"geometry":{"x":172614.55999999959,"y":2546660.0700000022}},{"attributes":{"ID":457519,"DIS_CODE":0,"TOWNNAME":"永康區","LI":"二王里","LIN":"13鄰","STREET":"永二街","SECT":" ","MAREA":" ","LANE":"４４９巷","ALLEY":" ","HOUSE_NO":"１１號","E_COORD97":172679.35000000001,"N_COORD97":2546644.4399999999,"ADDRESS":"永二街４４９巷１１號","OBJECTID":457494},"geometry":{"x":172679.35000000056,"y":2546644.4399999995}},{"attributes":{"ID":457520,"DIS_CODE":0,"TOWNNAME":"永康區","LI":"二王里","LIN":"13鄰","STREET":"永二街","SECT":" ","MAREA":" ","LANE":"４４９巷","ALLEY":" ","HOUSE_NO":"１４號","E_COORD97":172660.81,"N_COORD97":2546645.1200000001,"ADDRESS":"永二街４４９巷１４號","OBJECTID":457495},"geometry":{"x":172660.81000000052,"y":2546645.1199999992}},{"attributes":{"ID":457521,"DIS_CODE":0,"TOWNNAME":"永康區","LI":"復華里","LIN":"13鄰","STREET":"復國二路","SECT":" ","MAREA":" ","LANE":"２０５巷","ALLEY":" ","HOUSE_NO":"１３號","E_COORD97":172944.23999999999,"N_COORD97":2545986.27,"ADDRESS":"復國二路２０５巷１３號","OBJECTID":457496},"geometry":{"x":172944.24000000022,"y":2545986.2700000014}},{"attributes":{"ID":457522,"DIS_CODE":0,"TOWNNAME":"永康區","LI":"西灣里","LIN":"13鄰","STREET":"民族路","SECT":" ","MAREA":" ","LANE":"４８１巷","ALLEY":" ","HOUSE_NO":"５號","E_COORD97":174584.75,"N_COORD97":2545407.4100000001,"ADDRESS":"民族路４８１巷５號","OBJECTID":457497},"geometry":{"x":174584.75,"y":2545407.4100000001}},{"attributes":{"ID":457523,"DIS_CODE":0,"TOWNNAME":"安南區","LI":"幸福里","LIN":"13鄰","STREET":"府安路","SECT":"六段","MAREA":" ","LANE":"７１巷","ALLEY":" ","HOUSE_NO":"１號","E_COORD97":166842.42000000001,"N_COORD97":2546583.1600000001,"ADDRESS":"府安路六段７１巷１號","OBJECTID":457498},"geometry":{"x":166842.42000000179,"y":2546583.1600000039}},{"attributes":{"ID":457524,"DIS_CODE":0,"TOWNNAME":"安南區","LI":"幸福里","LIN":"13鄰","STREET":"府安路","SECT":"六段","MAREA":" ","LANE":"７１巷","ALLEY":" ","HOUSE_NO":"１０號","E_COORD97":166861,"N_COORD97":2546621.48,"ADDRESS":"府安路六段７１巷１０號","OBJECTID":457499},"geometry":{"x":166861.00000000093,"y":2546621.4800000004}},{"attributes":{"ID":457525,"DIS_CODE":0,"TOWNNAME":"安南區","LI":"幸福里","LIN":"13鄰","STREET":"府安路","SECT":"六段","MAREA":" ","LANE":"７１巷","ALLEY":" ","HOUSE_NO":"１１號","E_COORD97":166838.28,"N_COORD97":2546613.1600000001,"ADDRESS":"府安路六段７１巷１１號","OBJECTID":457500},"geometry":{"x":166838.28000000026,"y":2546613.1600000001}},{"attributes":{"ID":457526,"DIS_CODE":0,"TOWNNAME":"安南區","LI":"幸福里","LIN":"13鄰","STREET":"府安路","SECT":"六段","MAREA":" ","LANE":"７１巷","ALLEY":" ","HOUSE_NO":"１３號","E_COORD97":166837.20000000001,"N_COORD97":2546617.7200000002,"ADDRESS":"府安路六段７１巷１３號","OBJECTID":457501},"geometry":{"x":166837.20000000019,"y":2546617.7200000025}},{"attributes":{"ID":457527,"DIS_CODE":0,"TOWNNAME":"安南區","LI":"幸福里","LIN":"13鄰","STREET":"府安路","SECT":"六段","MAREA":" ","LANE":"７１巷","ALLEY":" ","HOUSE_NO":"１４號","E_COORD97":166860.14999999999,"N_COORD97":2546632.1800000002,"ADDRESS":"府安路六段７１巷１４號","OBJECTID":457502},"geometry":{"x":166860.1500000013,"y":2546632.1799999997}},{"attributes":{"ID":457528,"DIS_CODE":0,"TOWNNAME":"安南區","LI":"幸福里","LIN":"13鄰","STREET":"府安路","SECT":"六段","MAREA":" ","LANE":"７１巷","ALLEY":" ","HOUSE_NO":"１５號","E_COORD97":166836.51999999999,"N_COORD97":2546623.6000000001,"ADDRESS":"府安路六段７１巷１５號","OBJECTID":457503},"geometry":{"x":166836.52000000048,"y":2546623.6000000034}},{"attributes":{"ID":457529,"DIS_CODE":0,"TOWNNAME":"安南區","LI":"幸福里","LIN":"13鄰","STREET":"府安路","SECT":"六段","MAREA":" ","LANE":"７１巷","ALLEY":" ","HOUSE_NO":"１６號","E_COORD97":166858.78,"N_COORD97":2546638,"ADDRESS":"府安路六段７１巷１６號","OBJECTID":457504},"geometry":{"x":166858.78000000026,"y":2546637.9999999981}},{"attributes":{"ID":457530,"DIS_CODE":0,"TOWNNAME":"安南區","LI":"幸福里","LIN":"13鄰","STREET":"府安路","SECT":"六段","MAREA":" ","LANE":"７１巷","ALLEY":" ","HOUSE_NO":"１７號","E_COORD97":166835.31,"N_COORD97":2546628.77,"ADDRESS":"府安路六段７１巷１７號","OBJECTID":457505},"geometry":{"x":166835.30999999959,"y":2546628.7699999996}},{"attributes":{"ID":457531,"DIS_CODE":0,"TOWNNAME":"安南區","LI":"幸福里","LIN":"13鄰","STREET":"府安路","SECT":"六段","MAREA":" ","LANE":"７１巷","ALLEY":" ","HOUSE_NO":"１８號","E_COORD97":166857.92000000001,"N_COORD97":2546643.1699999999,"ADDRESS":"府安路六段７１巷１８號","OBJECTID":457506},"geometry":{"x":166857.92000000086,"y":2546643.1699999999}},{"attributes":{"ID":457532,"DIS_CODE":0,"TOWNNAME":"安南區","LI":"幸福里","LIN":"13鄰","STREET":"府安路","SECT":"六段","MAREA":" ","LANE":"７１巷","ALLEY":" ","HOUSE_NO":"１９號","E_COORD97":166834.64000000001,"N_COORD97":2546633.4100000001,"ADDRESS":"府安路六段７１巷１９號","OBJECTID":457507},"geometry":{"x":166834.6400000006,"y":2546633.410000002}},{"attributes":{"ID":457533,"DIS_CODE":0,"TOWNNAME":"安南區","LI":"幸福里","LIN":"13鄰","STREET":"府安路","SECT":"六段","MAREA":" ","LANE":"７１巷","ALLEY":" ","HOUSE_NO":"２０號","E_COORD97":166856.64000000001,"N_COORD97":2546648.25,"ADDRESS":"府安路六段７１巷２０號","OBJECTID":457508},"geometry":{"x":166856.6400000006,"y":2546648.2500000019}},{"attributes":{"ID":457534,"DIS_CODE":0,"TOWNNAME":"六甲區","LI":"六甲里","LIN":"9鄰","STREET":"中興街","SECT":" ","MAREA":" ","LANE":" ","ALLEY":" ","HOUSE_NO":"７號","E_COORD97":183637.85999999999,"N_COORD97":2569657.1899999999,"ADDRESS":"中興街７號","OBJECTID":457509},"geometry":{"x":183637.86000000127,"y":2569657.1900000032}},{"attributes":{"ID":457535,"DIS_CODE":0,"TOWNNAME":"安南區","LI":"幸福里","LIN":"13鄰","STREET":"府安路","SECT":"六段","MAREA":" ","LANE":"７１巷","ALLEY":" ","HOUSE_NO":"２１號","E_COORD97":166833.16,"N_COORD97":2546639.2799999998,"ADDRESS":"府安路六段７１巷２１號","OBJECTID":457510},"geometry":{"x":166833.16000000108,"y":2546639.2800000031}},{"attributes":{"ID":457536,"DIS_CODE":0,"TOWNNAME":"東區","LI":"崇文里","LIN":"40鄰","STREET":"生產路","SECT":" ","MAREA":" ","LANE":" ","ALLEY":" ","HOUSE_NO":"２７７號六樓","E_COORD97":170920.14000000001,"N_COORD97":2540618.3100000001,"ADDRESS":"生產路２７７號六樓","OBJECTID":457511},"geometry":{"x":170920.13999999966,"y":2540618.3100000005}},{"attributes":{"ID":457537,"DIS_CODE":0,"TOWNNAME":"安南區","LI":"幸福里","LIN":"13鄰","STREET":"府安路","SECT":"六段","MAREA":" ","LANE":"７１巷","ALLEY":" ","HOUSE_NO":"２２號","E_COORD97":166855.26000000001,"N_COORD97":2546653.5499999998,"ADDRESS":"府安路六段７１巷２２號","OBJECTID":457512},"geometry":{"x":166855.26000000164,"y":2546653.5500000026}},{"attributes":{"ID":457538,"DIS_CODE":0,"TOWNNAME":"安南區","LI":"幸福里","LIN":"13鄰","STREET":"府安路","SECT":"六段","MAREA":" ","LANE":"７１巷","ALLEY":" ","HOUSE_NO":"２３號","E_COORD97":166832.69,"N_COORD97":2546643.6400000001,"ADDRESS":"府安路六段７１巷２３號","OBJECTID":457513},"geometry":{"x":166832.69000000227,"y":2546643.6400000006}},{"attributes":{"ID":457539,"DIS_CODE":0,"TOWNNAME":"安南區","LI":"幸福里","LIN":"13鄰","STREET":"府安路","SECT":"六段","MAREA":" ","LANE":"７１巷","ALLEY":" ","HOUSE_NO":"２４號","E_COORD97":166854.63,"N_COORD97":2546658.6299999999,"ADDRESS":"府安路六段７１巷２４號","OBJECTID":457514},"geometry":{"x":166854.63000000082,"y":2546658.629999999}},{"attributes":{"ID":457540,"DIS_CODE":0,"TOWNNAME":"安南區","LI":"幸福里","LIN":"13鄰","STREET":"府安路","SECT":"六段","MAREA":" ","LANE":"７１巷","ALLEY":" ","HOUSE_NO":"２５號","E_COORD97":166831.47,"N_COORD97":2546649.3799999999,"ADDRESS":"府安路六段７１巷２５號","OBJECTID":457515},"geometry":{"x":166831.46999999974,"y":2546649.3800000008}},{"attributes":{"ID":457541,"DIS_CODE":0,"TOWNNAME":"安南區","LI":"幸福里","LIN":"13鄰","STREET":"府安路","SECT":"六段","MAREA":" ","LANE":"７１巷","ALLEY":" ","HOUSE_NO":"３６號","E_COORD97":166846.76999999999,"N_COORD97":2546690.7000000002,"ADDRESS":"府安路六段７１巷３６號","OBJECTID":457516},"geometry":{"x":166846.77000000048,"y":2546690.7000000011}},{"attributes":{"ID":457542,"DIS_CODE":0,"TOWNNAME":"安南區","LI":"幸福里","LIN":"13鄰","STREET":"府安路","SECT":"六段","MAREA":" ","LANE":"７１巷","ALLEY":" ","HOUSE_NO":"３７號","E_COORD97":166824.73999999999,"N_COORD97":2546681.5800000001,"ADDRESS":"府安路六段７１巷３７號","OBJECTID":457517},"geometry":{"x":166824.74000000022,"y":2546681.5799999982}},{"attributes":{"ID":457543,"DIS_CODE":0,"TOWNNAME":"安南區","LI":"幸福里","LIN":"13鄰","STREET":"府安路","SECT":"六段","MAREA":" ","LANE":"７１巷","ALLEY":" ","HOUSE_NO":"３９號","E_COORD97":166824.47,"N_COORD97":2546685.6800000002,"ADDRESS":"府安路六段７１巷３９號","OBJECTID":457518},"geometry":{"x":166824.46999999974,"y":2546685.6800000016}},{"attributes":{"ID":457544,"DIS_CODE":0,"TOWNNAME":"安南區","LI":"幸福里","LIN":"13鄰","STREET":"府安路","SECT":"六段","MAREA":" ","LANE":"７１巷","ALLEY":" ","HOUSE_NO":"４１號","E_COORD97":166823.85999999999,"N_COORD97":2546691.1200000001,"ADDRESS":"府安路六段７１巷４１號","OBJECTID":457519},"geometry":{"x":166823.86000000034,"y":2546691.120000001}},{"attributes":{"ID":457545,"DIS_CODE":0,"TOWNNAME":"安南區","LI":"幸福里","LIN":"13鄰","STREET":"府安路","SECT":"六段","MAREA":" ","LANE":"７１巷","ALLEY":" ","HOUSE_NO":"４號","E_COORD97":166864.22,"N_COORD97":2546606.0099999998,"ADDRESS":"府安路六段７１巷４號","OBJECTID":457520},"geometry":{"x":166864.22000000067,"y":2546606.0099999998}},{"attributes":{"ID":457546,"DIS_CODE":0,"TOWNNAME":"安南區","LI":"幸福里","LIN":"13鄰","STREET":"府安路","SECT":"六段","MAREA":" ","LANE":"７１巷","ALLEY":" ","HOUSE_NO":"５號","E_COORD97":166841.41,"N_COORD97":2546596.1299999999,"ADDRESS":"府安路六段７１巷５號","OBJECTID":457521},"geometry":{"x":166841.41000000108,"y":2546596.1300000008}},{"attributes":{"ID":457547,"DIS_CODE":0,"TOWNNAME":"安南區","LI":"幸福里","LIN":"13鄰","STREET":"府安路","SECT":"六段","MAREA":" ","LANE":"７１巷","ALLEY":" ","HOUSE_NO":"６號","E_COORD97":166862.59,"N_COORD97":2546611.6299999999,"ADDRESS":"府安路六段７１巷６號","OBJECTID":457522},"geometry":{"x":166862.58999999985,"y":2546611.629999999}},{"attributes":{"ID":457548,"DIS_CODE":0,"TOWNNAME":"安南區","LI":"幸福里","LIN":"13鄰","STREET":"府安路","SECT":"六段","MAREA":" ","LANE":"７１巷","ALLEY":" ","HOUSE_NO":"７號","E_COORD97":166839.82000000001,"N_COORD97":2546601.25,"ADDRESS":"府安路六段７１巷７號","OBJECTID":457523},"geometry":{"x":166839.8200000003,"y":2546601.25}},{"attributes":{"ID":457549,"DIS_CODE":0,"TOWNNAME":"麻豆區","LI":"大埕里","LIN":"13鄰","STREET":"平等路","SECT":" ","MAREA":" ","LANE":"３３巷","ALLEY":" ","HOUSE_NO":"１１號","E_COORD97":172996.14999999999,"N_COORD97":2565067.6499999999,"ADDRESS":"平等路３３巷１１號","OBJECTID":457524},"geometry":{"x":172996.15000000037,"y":2565067.6500000041}},{"attributes":{"ID":457550,"DIS_CODE":0,"TOWNNAME":"麻豆區","LI":"大埕里","LIN":"13鄰","STREET":"平等路","SECT":" ","MAREA":" ","LANE":"３３巷","ALLEY":" ","HOUSE_NO":"１３號","E_COORD97":173007.87,"N_COORD97":2565091.2999999998,"ADDRESS":"平等路３３巷１３號","OBJECTID":457525},"geometry":{"x":173007.87000000011,"y":2565091.3000000026}},{"attributes":{"ID":457551,"DIS_CODE":0,"TOWNNAME":"麻豆區","LI":"大埕里","LIN":"13鄰","STREET":"平等路","SECT":" ","MAREA":" ","LANE":"３３巷","ALLEY":" ","HOUSE_NO":"１５號","E_COORD97":172991.66,"N_COORD97":2565109.0299999998,"ADDRESS":"平等路３３巷１５號","OBJECTID":457526},"geometry":{"x":172991.66000000108,"y":2565109.0300000012}},{"attributes":{"ID":457552,"DIS_CODE":0,"TOWNNAME":"麻豆區","LI":"大埕里","LIN":"13鄰","STREET":"平等路","SECT":" ","MAREA":" ","LANE":"３３巷","ALLEY":" ","HOUSE_NO":"２號之１","E_COORD97":173007.89000000001,"N_COORD97":2565062.2599999998,"ADDRESS":"平等路３３巷２號之１","OBJECTID":457527},"geometry":{"x":173007.8900000006,"y":2565062.2599999998}},{"attributes":{"ID":457553,"DIS_CODE":0,"TOWNNAME":"麻豆區","LI":"大埕里","LIN":"13鄰","STREET":"平等路","SECT":" ","MAREA":" ","LANE":"３３巷","ALLEY":" ","HOUSE_NO":"２號之２","E_COORD97":173008.35999999999,"N_COORD97":2565067.0499999998,"ADDRESS":"平等路３３巷２號之２","OBJECTID":457528},"geometry":{"x":173008.36000000034,"y":2565067.0500000026}},{"attributes":{"ID":457554,"DIS_CODE":0,"TOWNNAME":"麻豆區","LI":"大埕里","LIN":"13鄰","STREET":"平等路","SECT":" ","MAREA":" ","LANE":"３３巷","ALLEY":" ","HOUSE_NO":"２號之３","E_COORD97":173009.17999999999,"N_COORD97":2565070.6699999999,"ADDRESS":"平等路３３巷２號之３","OBJECTID":457529},"geometry":{"x":173009.18000000156,"y":2565070.6700000037}},{"attributes":{"ID":457555,"DIS_CODE":0,"TOWNNAME":"麻豆區","LI":"大埕里","LIN":"13鄰","STREET":"平等路","SECT":" ","MAREA":" ","LANE":"３３巷","ALLEY":" ","HOUSE_NO":"２號之４","E_COORD97":173009.23999999999,"N_COORD97":2565074.6499999999,"ADDRESS":"平等路３３巷２號之４","OBJECTID":457530},"geometry":{"x":173009.24000000209,"y":2565074.6500000041}},{"attributes":{"ID":457556,"DIS_CODE":0,"TOWNNAME":"麻豆區","LI":"大埕里","LIN":"13鄰","STREET":"平等路","SECT":" ","MAREA":" ","LANE":"３３巷","ALLEY":" ","HOUSE_NO":"２號之６","E_COORD97":173017.01999999999,"N_COORD97":2565094.1400000001,"ADDRESS":"平等路３３巷２號之６","OBJECTID":457531},"geometry":{"x":173017.02000000048,"y":2565094.1400000006}},{"attributes":{"ID":457557,"DIS_CODE":0,"TOWNNAME":"麻豆區","LI":"大埕里","LIN":"13鄰","STREET":"平等路","SECT":" ","MAREA":" ","LANE":"３３巷","ALLEY":" ","HOUSE_NO":"５號之２","E_COORD97":172975.23000000001,"N_COORD97":2565043.48,"ADDRESS":"平等路３３巷５號之２","OBJECTID":457532},"geometry":{"x":172975.23000000045,"y":2565043.4800000023}},{"attributes":{"ID":457558,"DIS_CODE":0,"TOWNNAME":"麻豆區","LI":"大埕里","LIN":"13鄰","STREET":"平等路","SECT":" ","MAREA":" ","LANE":"３３巷","ALLEY":" ","HOUSE_NO":"５號之６","E_COORD97":172995.5,"N_COORD97":2565045.8700000001,"ADDRESS":"平等路３３巷５號之６","OBJECTID":457533},"geometry":{"x":172995.50000000186,"y":2565045.870000001}},{"attributes":{"ID":457559,"DIS_CODE":0,"TOWNNAME":"麻豆區","LI":"大埕里","LIN":"13鄰","STREET":"平等路","SECT":" ","MAREA":" ","LANE":"３３巷","ALLEY":" ","HOUSE_NO":"７號之１","E_COORD97":172963.45999999999,"N_COORD97":2565045.5600000001,"ADDRESS":"平等路３３巷７號之１","OBJECTID":457534},"geometry":{"x":172963.46000000183,"y":2565045.5600000024}},{"attributes":{"ID":457560,"DIS_CODE":0,"TOWNNAME":"麻豆區","LI":"大埕里","LIN":"13鄰","STREET":"平等路","SECT":" ","MAREA":" ","LANE":"３３巷","ALLEY":" ","HOUSE_NO":"７號之２","E_COORD97":172962.60000000001,"N_COORD97":2565056.4900000002,"ADDRESS":"平等路３３巷７號之２","OBJECTID":457535},"geometry":{"x":172962.60000000056,"y":2565056.4900000021}},{"attributes":{"ID":457561,"DIS_CODE":0,"TOWNNAME":"麻豆區","LI":"大埕里","LIN":"13鄰","STREET":"平等路","SECT":" ","MAREA":" ","LANE":"３３巷","ALLEY":" ","HOUSE_NO":"７號之３","E_COORD97":172963.59,"N_COORD97":2565066.5499999998,"ADDRESS":"平等路３３巷７號之３","OBJECTID":457536},"geometry":{"x":172963.58999999985,"y":2565066.5500000026}},{"attributes":{"ID":457562,"DIS_CODE":0,"TOWNNAME":"麻豆區","LI":"大埕里","LIN":"13鄰","STREET":"平等路","SECT":" ","MAREA":" ","LANE":"３３巷","ALLEY":" ","HOUSE_NO":"７號之４","E_COORD97":172961.41,"N_COORD97":2565079.1600000001,"ADDRESS":"平等路３３巷７號之４","OBJECTID":457537},"geometry":{"x":172961.41000000108,"y":2565079.160000002}},{"attributes":{"ID":457563,"DIS_CODE":0,"TOWNNAME":"麻豆區","LI":"大埕里","LIN":"13鄰","STREET":"平等路","SECT":" ","MAREA":" ","LANE":"３３巷","ALLEY":" ","HOUSE_NO":"７號之５","E_COORD97":172962.37,"N_COORD97":2565088.5099999998,"ADDRESS":"平等路３３巷７號之５","OBJECTID":457538},"geometry":{"x":172962.37000000011,"y":2565088.5100000035}},{"attributes":{"ID":457564,"DIS_CODE":0,"TOWNNAME":"麻豆區","LI":"大埕里","LIN":"13鄰","STREET":"平等路","SECT":" ","MAREA":" ","LANE":"３３巷","ALLEY":" ","HOUSE_NO":"７號之６","E_COORD97":172959.81,"N_COORD97":2565095.7400000002,"ADDRESS":"平等路３３巷７號之６","OBJECTID":457539},"geometry":{"x":172959.81000000052,"y":2565095.7400000021}},{"attributes":{"ID":457565,"DIS_CODE":0,"TOWNNAME":"麻豆區","LI":"大埕里","LIN":"13鄰","STREET":"平等路","SECT":" ","MAREA":" ","LANE":"３３巷","ALLEY":" ","HOUSE_NO":"７號之７","E_COORD97":172960.23999999999,"N_COORD97":2565100.0899999999,"ADDRESS":"平等路３３巷７號之７","OBJECTID":457540},"geometry":{"x":172960.24000000209,"y":2565100.0899999999}},{"attributes":{"ID":457566,"DIS_CODE":0,"TOWNNAME":"安南區","LI":"幸福里","LIN":"13鄰","STREET":"府安路","SECT":"六段","MAREA":" ","LANE":"７１巷","ALLEY":" ","HOUSE_NO":"５６號","E_COORD97":166823.690944,"N_COORD97":2546736.2556599998,"ADDRESS":"府安路六段７１巷５６號","OBJECTID":457541},"geometry":{"x":166823.69094400015,"y":2546736.2556620017}},{"attributes":{"ID":457567,"DIS_CODE":0,"TOWNNAME":"麻豆區","LI":"大埕里","LIN":"13鄰","STREET":"平等路","SECT":" ","MAREA":" ","LANE":"３３巷","ALLEY":" ","HOUSE_NO":"７號之８","E_COORD97":172960.35999999999,"N_COORD97":2565104.7200000002,"ADDRESS":"平等路３３巷７號之８","OBJECTID":457542},"geometry":{"x":172960.36000000034,"y":2565104.7200000044}},{"attributes":{"ID":457568,"DIS_CODE":0,"TOWNNAME":"中西區","LI":"郡王里","LIN":"13鄰","STREET":"建業街","SECT":" ","MAREA":" ","LANE":"３７巷","ALLEY":" ","HOUSE_NO":"３９號","E_COORD97":168561.85999999999,"N_COORD97":2543092.2999999998,"ADDRESS":"建業街３７巷３９號","OBJECTID":457543},"geometry":{"x":168561.86000000034,"y":2543092.3000000026}},{"attributes":{"ID":457569,"DIS_CODE":0,"TOWNNAME":"新化區","LI":"太平里","LIN":"8鄰","STREET":"中正路","SECT":" ","MAREA":" ","LANE":"６６２巷","ALLEY":" ","HOUSE_NO":"４號","E_COORD97":178689.20999999999,"N_COORD97":2549461.25,"ADDRESS":"中正路６６２巷４號","OBJECTID":457544},"geometry":{"x":178689.20999999996,"y":2549461.2500000019}},{"attributes":{"ID":457570,"DIS_CODE":0,"TOWNNAME":"中西區","LI":"郡王里","LIN":"13鄰","STREET":"建業街","SECT":" ","MAREA":" ","LANE":"３７巷","ALLEY":" ","HOUSE_NO":"３號","E_COORD97":168574.07999999999,"N_COORD97":2543100.7599999998,"ADDRESS":"建業街３７巷３號","OBJECTID":457545},"geometry":{"x":168574.08000000101,"y":2543100.7600000016}},{"attributes":{"ID":457571,"DIS_CODE":0,"TOWNNAME":"中西區","LI":"郡王里","LIN":"13鄰","STREET":"建業街","SECT":" ","MAREA":" ","LANE":"３７巷","ALLEY":" ","HOUSE_NO":"４１號","E_COORD97":168562.70999999999,"N_COORD97":2543097.5499999998,"ADDRESS":"建業街３７巷４１號","OBJECTID":457546},"geometry":{"x":168562.71000000183,"y":2543097.5500000007}},{"attributes":{"ID":457572,"DIS_CODE":0,"TOWNNAME":"中西區","LI":"郡王里","LIN":"13鄰","STREET":"建業街","SECT":" ","MAREA":" ","LANE":"３７巷","ALLEY":" ","HOUSE_NO":"５號","E_COORD97":168568.60999999999,"N_COORD97":2543101.0299999998,"ADDRESS":"建業街３７巷５號","OBJECTID":457547},"geometry":{"x":168568.61000000034,"y":2543101.0300000031}},{"attributes":{"ID":457573,"DIS_CODE":0,"TOWNNAME":"中西區","LI":"郡王里","LIN":"13鄰","STREET":"建業街","SECT":" ","MAREA":" ","LANE":"３７巷","ALLEY":" ","HOUSE_NO":"７號","E_COORD97":168557.25,"N_COORD97":2543092.4500000002,"ADDRESS":"建業街３７巷７號","OBJECTID":457548},"geometry":{"x":168557.25,"y":2543092.4500000011}},{"attributes":{"ID":457574,"DIS_CODE":0,"TOWNNAME":"中西區","LI":"郡王里","LIN":"13鄰","STREET":"建業街","SECT":" ","MAREA":" ","LANE":"３７巷","ALLEY":" ","HOUSE_NO":"９號","E_COORD97":168560.04999999999,"N_COORD97":2543102.0499999998,"ADDRESS":"建業街３７巷９號","OBJECTID":457549},"geometry":{"x":168560.04999999981,"y":2543102.0500000007}},{"attributes":{"ID":457575,"DIS_CODE":0,"TOWNNAME":"中西區","LI":"永華里","LIN":"13鄰","STREET":"開山路","SECT":" ","MAREA":" ","LANE":"８４巷","ALLEY":" ","HOUSE_NO":"１０號","E_COORD97":168656.03,"N_COORD97":2543380.1600000001,"ADDRESS":"開山路８４巷１０號","OBJECTID":457550},"geometry":{"x":168656.03000000119,"y":2543380.160000002}},{"attributes":{"ID":457576,"DIS_CODE":0,"TOWNNAME":"中西區","LI":"永華里","LIN":"13鄰","STREET":"開山路","SECT":" ","MAREA":" ","LANE":"８４巷","ALLEY":" ","HOUSE_NO":"１２號","E_COORD97":168646.07999999999,"N_COORD97":2543373.4900000002,"ADDRESS":"開山路８４巷１２號","OBJECTID":457551},"geometry":{"x":168646.08000000007,"y":2543373.4900000039}},{"attributes":{"ID":457577,"DIS_CODE":0,"TOWNNAME":"仁德區","LI":"保安里","LIN":"13鄰","STREET":"二仁路","SECT":"一段","MAREA":" ","LANE":"１２２巷","ALLEY":" ","HOUSE_NO":"９號","E_COORD97":170474.5,"N_COORD97":2535956.7799999998,"ADDRESS":"二仁路一段１２２巷９號","OBJECTID":457552},"geometry":{"x":170474.5,"y":2535956.7800000012}},{"attributes":{"ID":457578,"DIS_CODE":0,"TOWNNAME":"仁德區","LI":"保安里","LIN":"13鄰","STREET":"二仁路","SECT":"一段","MAREA":" ","LANE":"１２２巷","ALLEY":" ","HOUSE_NO":"１８號","E_COORD97":170484.48000000001,"N_COORD97":2535951.0299999998,"ADDRESS":"二仁路一段１２２巷１８號","OBJECTID":457553},"geometry":{"x":170484.48000000138,"y":2535951.0300000031}},{"attributes":{"ID":457579,"DIS_CODE":0,"TOWNNAME":"仁德區","LI":"後壁里","LIN":"13鄰","STREET":"德善路","SECT":" ","MAREA":" ","LANE":"１０８巷","ALLEY":" ","HOUSE_NO":"１５號","E_COORD97":173487.88,"N_COORD97":2538790.02,"ADDRESS":"德善路１０８巷１５號","OBJECTID":457554},"geometry":{"x":173487.88000000082,"y":2538790.0200000014}},{"attributes":{"ID":457580,"DIS_CODE":0,"TOWNNAME":"仁德區","LI":"後壁里","LIN":"13鄰","STREET":"德善路","SECT":" ","MAREA":" ","LANE":"１３４巷","ALLEY":" ","HOUSE_NO":"１４號","E_COORD97":173548.47,"N_COORD97":2538799.5099999998,"ADDRESS":"德善路１３４巷１４號","OBJECTID":457555},"geometry":{"x":173548.47000000067,"y":2538799.5100000035}},{"attributes":{"ID":457581,"DIS_CODE":0,"TOWNNAME":"仁德區","LI":"後壁里","LIN":"13鄰","STREET":"德善路","SECT":" ","MAREA":" ","LANE":"１０８巷","ALLEY":" ","HOUSE_NO":"１７號","E_COORD97":173494.95000000001,"N_COORD97":2538789.02,"ADDRESS":"德善路１０８巷１７號","OBJECTID":457556},"geometry":{"x":173494.95000000112,"y":2538789.0200000033}},{"attributes":{"ID":457582,"DIS_CODE":0,"TOWNNAME":"仁德區","LI":"土庫里","LIN":"13鄰","STREET":"土庫路","SECT":" ","MAREA":" ","LANE":"１８５巷","ALLEY":" ","HOUSE_NO":"１２號","E_COORD97":174360.82999999999,"N_COORD97":2542939.9900000002,"ADDRESS":"土庫路１８５巷１２號","OBJECTID":457557},"geometry":{"x":174360.83000000007,"y":2542939.9900000021}},{"attributes":{"ID":457583,"DIS_CODE":0,"TOWNNAME":"仁德區","LI":"新田里","LIN":"13鄰","STREET":"北保一街","SECT":" ","MAREA":" ","LANE":"１巷","ALLEY":" ","HOUSE_NO":"１０號","E_COORD97":173270.44,"N_COORD97":2539413.7400000002,"ADDRESS":"北保一街１巷１０號","OBJECTID":457558},"geometry":{"x":173270.44000000041,"y":2539413.7400000002}},{"attributes":{"ID":457584,"DIS_CODE":0,"TOWNNAME":"官田區","LI":"隆田里","LIN":"13鄰","STREET":"勝利路","SECT":" ","MAREA":" ","LANE":"９９巷","ALLEY":" ","HOUSE_NO":"１１號","E_COORD97":180084.97,"N_COORD97":2565987.4900000002,"ADDRESS":"勝利路９９巷１１號","OBJECTID":457559},"geometry":{"x":180084.97000000067,"y":2565987.4900000039}},{"attributes":{"ID":457585,"DIS_CODE":0,"TOWNNAME":"官田區","LI":"隆田里","LIN":"13鄰","STREET":"勝利路","SECT":" ","MAREA":" ","LANE":"９９巷","ALLEY":" ","HOUSE_NO":"１２號","E_COORD97":180083.91,"N_COORD97":2565974.1099999999,"ADDRESS":"勝利路９９巷１２號","OBJECTID":457560},"geometry":{"x":180083.91000000201,"y":2565974.1099999994}},{"attributes":{"ID":457586,"DIS_CODE":0,"TOWNNAME":"官田區","LI":"隆田里","LIN":"13鄰","STREET":"勝利路","SECT":" ","MAREA":" ","LANE":"９９巷","ALLEY":" ","HOUSE_NO":"１６號","E_COORD97":180094.09,"N_COORD97":2565974.5600000001,"ADDRESS":"勝利路９９巷１６號","OBJECTID":457561},"geometry":{"x":180094.09000000171,"y":2565974.5600000024}},{"attributes":{"ID":457587,"DIS_CODE":0,"TOWNNAME":"官田區","LI":"隆田里","LIN":"13鄰","STREET":"勝利路","SECT":" ","MAREA":" ","LANE":"９９巷","ALLEY":" ","HOUSE_NO":"１８號","E_COORD97":180108.64000000001,"N_COORD97":2565978.8199999998,"ADDRESS":"勝利路９９巷１８號","OBJECTID":457562},"geometry":{"x":180108.63999999966,"y":2565978.8200000022}},{"attributes":{"ID":457588,"DIS_CODE":0,"TOWNNAME":"永康區","LI":"王行里","LIN":"13鄰","STREET":"王行路","SECT":" ","MAREA":" ","LANE":"１０３２巷","ALLEY":" ","HOUSE_NO":"１０號","E_COORD97":175822.87,"N_COORD97":2550171.9500000002,"ADDRESS":"王行路１０３２巷１０號","OBJECTID":457563},"geometry":{"x":175822.87000000104,"y":2550171.9500000011}},{"attributes":{"ID":457589,"DIS_CODE":0,"TOWNNAME":"永康區","LI":"北灣里","LIN":"13鄰","STREET":"大灣路","SECT":" ","MAREA":" ","LANE":"４４巷","ALLEY":" ","HOUSE_NO":"１５號","E_COORD97":175208.79000000001,"N_COORD97":2545863.2400000002,"ADDRESS":"大灣路４４巷１５號","OBJECTID":457564},"geometry":{"x":175208.79000000004,"y":2545863.2400000002}},{"attributes":{"ID":457590,"DIS_CODE":0,"TOWNNAME":"新市區","LI":"新和里","LIN":"13鄰","STREET":"忠孝街","SECT":" ","MAREA":" ","LANE":"８３巷","ALLEY":" ","HOUSE_NO":"５號","E_COORD97":177646.07000000001,"N_COORD97":2552548,"ADDRESS":"忠孝街８３巷５號","OBJECTID":457565},"geometry":{"x":177646.0700000003,"y":2552548.0000000019}},{"attributes":{"ID":457591,"DIS_CODE":0,"TOWNNAME":"東區","LI":"東明里","LIN":"13鄰","STREET":"東安路","SECT":" ","MAREA":" ","LANE":"９２巷","ALLEY":" ","HOUSE_NO":"３號","E_COORD97":170763.64999999999,"N_COORD97":2543727.4900000002,"ADDRESS":"東安路９２巷３號","OBJECTID":457566},"geometry":{"x":170763.65000000037,"y":2543727.4900000021}},{"attributes":{"ID":457592,"DIS_CODE":0,"TOWNNAME":"中西區","LI":"協和里","LIN":"13鄰","STREET":"和善街","SECT":" ","MAREA":" ","LANE":"４４巷","ALLEY":" ","HOUSE_NO":"１６號","E_COORD97":167072.81,"N_COORD97":2544674.9900000002,"ADDRESS":"和善街４４巷１６號","OBJECTID":457567},"geometry":{"x":167072.80999999959,"y":2544674.9900000002}},{"attributes":{"ID":457593,"DIS_CODE":0,"TOWNNAME":"中西區","LI":"三合里","LIN":"13鄰","STREET":"信義街","SECT":" ","MAREA":" ","LANE":"１０８巷","ALLEY":" ","HOUSE_NO":"２號","E_COORD97":167473.25,"N_COORD97":2544587.3199999998,"ADDRESS":"信義街１０８巷２號","OBJECTID":457568},"geometry":{"x":167473.25000000093,"y":2544587.3200000003}},{"attributes":{"ID":457594,"DIS_CODE":0,"TOWNNAME":"中西區","LI":"三合里","LIN":"13鄰","STREET":"信義街","SECT":" ","MAREA":" ","LANE":"１０８巷","ALLEY":" ","HOUSE_NO":"４號","E_COORD97":167475.72,"N_COORD97":2544591.3100000001,"ADDRESS":"信義街１０８巷４號","OBJECTID":457569},"geometry":{"x":167475.71999999881,"y":2544591.3100000005}},{"attributes":{"ID":457595,"DIS_CODE":0,"TOWNNAME":"中西區","LI":"三合里","LIN":"13鄰","STREET":"信義街","SECT":" ","MAREA":" ","LANE":"１０８巷","ALLEY":" ","HOUSE_NO":"６號","E_COORD97":167477.56,"N_COORD97":2544595.6000000001,"ADDRESS":"信義街１０８巷６號","OBJECTID":457570},"geometry":{"x":167477.56000000052,"y":2544595.5999999996}},{"attributes":{"ID":457596,"DIS_CODE":0,"TOWNNAME":"安南區","LI":"溪頂里","LIN":"13鄰","STREET":"惠安街","SECT":" ","MAREA":" ","LANE":"１５１巷","ALLEY":" ","HOUSE_NO":"１２號","E_COORD97":168784.54999999999,"N_COORD97":2547359.71,"ADDRESS":"惠安街１５１巷１２號","OBJECTID":457571},"geometry":{"x":168784.55000000075,"y":2547359.709999999}},{"attributes":{"ID":457597,"DIS_CODE":0,"TOWNNAME":"安南區","LI":"溪頂里","LIN":"13鄰","STREET":"惠安街","SECT":" ","MAREA":" ","LANE":"１５１巷","ALLEY":" ","HOUSE_NO":"１３號","E_COORD97":168791.14999999999,"N_COORD97":2547375.3500000001,"ADDRESS":"惠安街１５１巷１３號","OBJECTID":457572},"geometry":{"x":168791.1500000013,"y":2547375.3500000015}},{"attributes":{"ID":457598,"DIS_CODE":0,"TOWNNAME":"安南區","LI":"溪頂里","LIN":"13鄰","STREET":"惠安街","SECT":" ","MAREA":" ","LANE":"１５１巷","ALLEY":" ","HOUSE_NO":"１４號","E_COORD97":168792.57999999999,"N_COORD97":2547360.2200000002,"ADDRESS":"惠安街１５１巷１４號","OBJECTID":457573},"geometry":{"x":168792.58000000194,"y":2547360.2200000025}},{"attributes":{"ID":457599,"DIS_CODE":0,"TOWNNAME":"安南區","LI":"溪頂里","LIN":"13鄰","STREET":"惠安街","SECT":" ","MAREA":" ","LANE":"１５１巷","ALLEY":" ","HOUSE_NO":"１５號","E_COORD97":168799.32000000001,"N_COORD97":2547375.4700000002,"ADDRESS":"惠安街１５１巷１５號","OBJECTID":457574},"geometry":{"x":168799.3200000003,"y":2547375.4700000025}},{"attributes":{"ID":457600,"DIS_CODE":0,"TOWNNAME":"安南區","LI":"溪頂里","LIN":"13鄰","STREET":"惠安街","SECT":" ","MAREA":" ","LANE":"１５１巷","ALLEY":" ","HOUSE_NO":"１６號","E_COORD97":168801.06,"N_COORD97":2547359.8300000001,"ADDRESS":"惠安街１５１巷１６號","OBJECTID":457575},"geometry":{"x":168801.06000000052,"y":2547359.8300000019}},{"attributes":{"ID":457601,"DIS_CODE":0,"TOWNNAME":"安南區","LI":"溪頂里","LIN":"13鄰","STREET":"惠安街","SECT":" ","MAREA":" ","LANE":"１５１巷","ALLEY":" ","HOUSE_NO":"１７號","E_COORD97":168808.34,"N_COORD97":2547376.1099999999,"ADDRESS":"惠安街１５１巷１７號","OBJECTID":457576},"geometry":{"x":168808.34000000078,"y":2547376.1100000031}},{"attributes":{"ID":457602,"DIS_CODE":0,"TOWNNAME":"東區","LI":"崇文里","LIN":"40鄰","STREET":"生產路","SECT":" ","MAREA":" ","LANE":" ","ALLEY":" ","HOUSE_NO":"２７７號四樓","E_COORD97":170920.14000000001,"N_COORD97":2540618.3100000001,"ADDRESS":"生產路２７７號四樓","OBJECTID":457577},"geometry":{"x":170920.13999999966,"y":2540618.3100000005}},{"attributes":{"ID":457603,"DIS_CODE":0,"TOWNNAME":"安南區","LI":"溪頂里","LIN":"13鄰","STREET":"惠安街","SECT":" ","MAREA":" ","LANE":"１５１巷","ALLEY":" ","HOUSE_NO":"１８號","E_COORD97":168810.54000000001,"N_COORD97":2547359.9100000001,"ADDRESS":"惠安街１５１巷１８號","OBJECTID":457578},"geometry":{"x":168810.54000000097,"y":2547359.9100000001}},{"attributes":{"ID":457604,"DIS_CODE":0,"TOWNNAME":"安南區","LI":"溪頂里","LIN":"13鄰","STREET":"惠安街","SECT":" ","MAREA":" ","LANE":"１５１巷","ALLEY":" ","HOUSE_NO":"１９號","E_COORD97":168817.48000000001,"N_COORD97":2547375.98,"ADDRESS":"惠安街１５１巷１９號","OBJECTID":457579},"geometry":{"x":168817.48000000231,"y":2547375.9800000023}},{"attributes":{"ID":457605,"DIS_CODE":0,"TOWNNAME":"安南區","LI":"溪頂里","LIN":"13鄰","STREET":"惠安街","SECT":" ","MAREA":" ","LANE":"１５１巷","ALLEY":" ","HOUSE_NO":"１號","E_COORD97":168740.35000000001,"N_COORD97":2547375.6000000001,"ADDRESS":"惠安街１５１巷１號","OBJECTID":457580},"geometry":{"x":168740.34999999963,"y":2547375.5999999996}},{"attributes":{"ID":457606,"DIS_CODE":0,"TOWNNAME":"安南區","LI":"溪頂里","LIN":"13鄰","STREET":"惠安街","SECT":" ","MAREA":" ","LANE":"１５１巷","ALLEY":" ","HOUSE_NO":"２０號","E_COORD97":168819.88,"N_COORD97":2547359.9100000001,"ADDRESS":"惠安街１５１巷２０號","OBJECTID":457581},"geometry":{"x":168819.88000000082,"y":2547359.9100000001}},{"attributes":{"ID":457607,"DIS_CODE":0,"TOWNNAME":"安南區","LI":"溪頂里","LIN":"13鄰","STREET":"惠安街","SECT":" ","MAREA":" ","LANE":"１５１巷","ALLEY":" ","HOUSE_NO":"２１號","E_COORD97":168825.60999999999,"N_COORD97":2547375.73,"ADDRESS":"惠安街１５１巷２１號","OBJECTID":457582},"geometry":{"x":168825.61000000127,"y":2547375.7300000004}},{"attributes":{"ID":457608,"DIS_CODE":0,"TOWNNAME":"安南區","LI":"溪頂里","LIN":"13鄰","STREET":"惠安街","SECT":" ","MAREA":" ","LANE":"１５１巷","ALLEY":" ","HOUSE_NO":"２２號","E_COORD97":168826.44,"N_COORD97":2547360.29,"ADDRESS":"惠安街１５１巷２２號","OBJECTID":457583},"geometry":{"x":168826.44000000134,"y":2547360.2899999991}},{"attributes":{"ID":457609,"DIS_CODE":0,"TOWNNAME":"安南區","LI":"溪頂里","LIN":"13鄰","STREET":"惠安街","SECT":" ","MAREA":" ","LANE":"１５１巷","ALLEY":" ","HOUSE_NO":"２３號","E_COORD97":168834.76999999999,"N_COORD97":2547374.98,"ADDRESS":"惠安街１５１巷２３號","OBJECTID":457584},"geometry":{"x":168834.77000000142,"y":2547374.9800000023}},{"attributes":{"ID":457610,"DIS_CODE":0,"TOWNNAME":"安南區","LI":"溪頂里","LIN":"13鄰","STREET":"惠安街","SECT":" ","MAREA":" ","LANE":"１５１巷","ALLEY":" ","HOUSE_NO":"２４號","E_COORD97":168835.92999999999,"N_COORD97":2547359.6099999999,"ADDRESS":"惠安街１５１巷２４號","OBJECTID":457585},"geometry":{"x":168835.93000000063,"y":2547359.6100000013}},{"attributes":{"ID":457611,"DIS_CODE":0,"TOWNNAME":"安南區","LI":"溪頂里","LIN":"13鄰","STREET":"惠安街","SECT":" ","MAREA":" ","LANE":"１５１巷","ALLEY":" ","HOUSE_NO":"２５號","E_COORD97":168842.54999999999,"N_COORD97":2547375.3100000001,"ADDRESS":"惠安街１５１巷２５號","OBJECTID":457586},"geometry":{"x":168842.54999999981,"y":2547375.3100000005}},{"attributes":{"ID":457612,"DIS_CODE":0,"TOWNNAME":"安南區","LI":"溪頂里","LIN":"13鄰","STREET":"惠安街","SECT":" ","MAREA":" ","LANE":"１５１巷","ALLEY":" ","HOUSE_NO":"２６號","E_COORD97":168844.23000000001,"N_COORD97":2547360.0499999998,"ADDRESS":"惠安街１５１巷２６號","OBJECTID":457587},"geometry":{"x":168844.23000000045,"y":2547360.0500000007}},{"attributes":{"ID":457613,"DIS_CODE":0,"TOWNNAME":"安南區","LI":"溪頂里","LIN":"13鄰","STREET":"惠安街","SECT":" ","MAREA":" ","LANE":"１５１巷","ALLEY":" ","HOUSE_NO":"２７號","E_COORD97":168851.14999999999,"N_COORD97":2547375.48,"ADDRESS":"惠安街１５１巷２７號","OBJECTID":457588},"geometry":{"x":168851.15000000037,"y":2547375.4800000023}},{"attributes":{"ID":457614,"DIS_CODE":0,"TOWNNAME":"安南區","LI":"溪頂里","LIN":"13鄰","STREET":"惠安街","SECT":" ","MAREA":" ","LANE":"１５１巷","ALLEY":" ","HOUSE_NO":"２８號","E_COORD97":168853.5,"N_COORD97":2547359.8900000001,"ADDRESS":"惠安街１５１巷２８號","OBJECTID":457589},"geometry":{"x":168853.5,"y":2547359.8900000025}},{"attributes":{"ID":457615,"DIS_CODE":0,"TOWNNAME":"安南區","LI":"溪頂里","LIN":"13鄰","STREET":"惠安街","SECT":" ","MAREA":" ","LANE":"１５１巷","ALLEY":" ","HOUSE_NO":"２９號","E_COORD97":168860.25,"N_COORD97":2547375.48,"ADDRESS":"惠安街１５１巷２９號","OBJECTID":457590},"geometry":{"x":168860.25,"y":2547375.4800000023}},{"attributes":{"ID":457616,"DIS_CODE":0,"TOWNNAME":"安南區","LI":"溪頂里","LIN":"13鄰","STREET":"惠安街","SECT":" ","MAREA":" ","LANE":"１５１巷","ALLEY":" ","HOUSE_NO":"２號","E_COORD97":168741.87,"N_COORD97":2547359.21,"ADDRESS":"惠安街１５１巷２號","OBJECTID":457591},"geometry":{"x":168741.87000000104,"y":2547359.2100000009}},{"attributes":{"ID":457617,"DIS_CODE":0,"TOWNNAME":"安南區","LI":"溪頂里","LIN":"13鄰","STREET":"惠安街","SECT":" ","MAREA":" ","LANE":"１５１巷","ALLEY":" ","HOUSE_NO":"３０號","E_COORD97":168861.26999999999,"N_COORD97":2547359.7200000002,"ADDRESS":"惠安街１５１巷３０號","OBJECTID":457592},"geometry":{"x":168861.26999999955,"y":2547359.7200000044}},{"attributes":{"ID":457618,"DIS_CODE":0,"TOWNNAME":"安南區","LI":"溪頂里","LIN":"13鄰","STREET":"惠安街","SECT":" ","MAREA":" ","LANE":"１５１巷","ALLEY":" ","HOUSE_NO":"３１號","E_COORD97":168868.73999999999,"N_COORD97":2547375.48,"ADDRESS":"惠安街１５１巷３１號","OBJECTID":457593},"geometry":{"x":168868.74000000115,"y":2547375.4800000023}},{"attributes":{"ID":457619,"DIS_CODE":0,"TOWNNAME":"安南區","LI":"溪頂里","LIN":"13鄰","STREET":"惠安街","SECT":" ","MAREA":" ","LANE":"１５１巷","ALLEY":" ","HOUSE_NO":"３２號","E_COORD97":168869.54999999999,"N_COORD97":2547359.7200000002,"ADDRESS":"惠安街１５１巷３２號","OBJECTID":457594},"geometry":{"x":168869.55000000075,"y":2547359.7200000044}},{"attributes":{"ID":457620,"DIS_CODE":0,"TOWNNAME":"中西區","LI":"中正里","LIN":"13鄰","STREET":"正德街","SECT":" ","MAREA":" ","LANE":"２９巷","ALLEY":" ","HOUSE_NO":"８號","E_COORD97":167503.89999999999,"N_COORD97":2543883.71,"ADDRESS":"正德街２９巷８號","OBJECTID":457595},"geometry":{"x":167503.90000000037,"y":2543883.7100000009}},{"attributes":{"ID":457621,"DIS_CODE":0,"TOWNNAME":"安南區","LI":"溪頂里","LIN":"13鄰","STREET":"惠安街","SECT":" ","MAREA":" ","LANE":"１５１巷","ALLEY":" ","HOUSE_NO":"３３號","E_COORD97":168876.85000000001,"N_COORD97":2547375.98,"ADDRESS":"惠安街１５１巷３３號","OBJECTID":457596},"geometry":{"x":168876.85000000149,"y":2547375.9800000023}},{"attributes":{"ID":457622,"DIS_CODE":0,"TOWNNAME":"安南區","LI":"溪頂里","LIN":"13鄰","STREET":"惠安街","SECT":" ","MAREA":" ","LANE":"１５１巷","ALLEY":" ","HOUSE_NO":"３４號","E_COORD97":168878.31,"N_COORD97":2547359.7200000002,"ADDRESS":"惠安街１５１巷３４號","OBJECTID":457597},"geometry":{"x":168878.30999999959,"y":2547359.7200000044}},{"attributes":{"ID":457623,"DIS_CODE":0,"TOWNNAME":"安南區","LI":"溪頂里","LIN":"13鄰","STREET":"惠安街","SECT":" ","MAREA":" ","LANE":"１５１巷","ALLEY":" ","HOUSE_NO":"３５號","E_COORD97":168886.10999999999,"N_COORD97":2547376.4700000002,"ADDRESS":"惠安街１５１巷３５號","OBJECTID":457598},"geometry":{"x":168886.11000000127,"y":2547376.4700000025}},{"attributes":{"ID":457624,"DIS_CODE":0,"TOWNNAME":"安南區","LI":"溪頂里","LIN":"13鄰","STREET":"惠安街","SECT":" ","MAREA":" ","LANE":"１５１巷","ALLEY":" ","HOUSE_NO":"３７號","E_COORD97":168894.38,"N_COORD97":2547376.8700000001,"ADDRESS":"惠安街１５１巷３７號","OBJECTID":457599},"geometry":{"x":168894.38000000082,"y":2547376.8700000029}},{"attributes":{"ID":457625,"DIS_CODE":0,"TOWNNAME":"安南區","LI":"溪頂里","LIN":"13鄰","STREET":"惠安街","SECT":" ","MAREA":" ","LANE":"１５１巷","ALLEY":" ","HOUSE_NO":"３８號","E_COORD97":168895.35999999999,"N_COORD97":2547360.3799999999,"ADDRESS":"惠安街１５１巷３８號","OBJECTID":457600},"geometry":{"x":168895.36000000034,"y":2547360.3800000008}}]}