{"displayFieldName":"TOWNNAME","fieldAliases":{"ID":"ID","DIS_CODE":"DIS_CODE","TOWNNAME":"TOWNNAME","LI":"LI","LIN":"LIN","STREET":"STREET","SECT":"SECT","MAREA":"MAREA","LANE":"LANE","ALLEY":"ALLEY","HOUSE_NO":"HOUSE_NO","E_COORD97":"E_COORD97","N_COORD97":"N_COORD97","ADDRESS":"ADDRESS","OBJECTID":"OBJECTID"},"geometryType":"esriGeometryPoint","spatialReference":{"wkid":102443,"latestWkid":3826},"fields":[{"name":"ID","type":"esriFieldTypeDouble","alias":"ID"},{"name":"DIS_CODE","type":"esriFieldTypeInteger","alias":"DIS_CODE"},{"name":"TOWNNAME","type":"esriFieldTypeString","alias":"TOWNNAME","length":8},{"name":"LI","type":"esriFieldTypeString","alias":"LI","length":8},{"name":"LIN","type":"esriFieldTypeString","alias":"LIN","length":12},{"name":"STREET","type":"esriFieldTypeString","alias":"STREET","length":20},{"name":"SECT","type":"esriFieldTypeString","alias":"SECT","length":8},{"name":"MAREA","type":"esriFieldTypeString","alias":"MAREA","length":12},{"name":"LANE","type":"esriFieldTypeString","alias":"LANE","length":10},{"name":"ALLEY","type":"esriFieldTypeString","alias":"ALLEY","length":10},{"name":"HOUSE_NO","type":"esriFieldTypeString","alias":"HOUSE_NO","length":20},{"name":"E_COORD97","type":"esriFieldTypeDouble","alias":"E_COORD97"},{"name":"N_COORD97","type":"esriFieldTypeDouble","alias":"N_COORD97"},{"name":"ADDRESS","type":"esriFieldTypeString","alias":"ADDRESS","length":50},{"name":"OBJECTID","type":"esriFieldTypeOID","alias":"OBJECTID"}],"features":[{"attributes":{"ID":646828,"DIS_CODE":0,"TOWNNAME":"仁德區","LI":"仁和里","LIN":"13鄰","STREET":"和愛街","SECT":" ","MAREA":" ","LANE":" ","ALLEY":" ","HOUSE_NO":"１８號五樓之３","E_COORD97":170463.39000000001,"N_COORD97":2539995.3999999999,"ADDRESS":"和愛街１８號五樓之３","OBJECTID":646801},"geometry":{"x":170463.3900000006,"y":2539995.4000000022}},{"attributes":{"ID":646829,"DIS_CODE":0,"TOWNNAME":"仁德區","LI":"仁和里","LIN":"13鄰","STREET":"和愛街","SECT":" ","MAREA":" ","LANE":" ","ALLEY":" ","HOUSE_NO":"１８號五樓之５","E_COORD97":170463.39000000001,"N_COORD97":2539995.3999999999,"ADDRESS":"和愛街１８號五樓之５","OBJECTID":646802},"geometry":{"x":170463.3900000006,"y":2539995.4000000022}},{"attributes":{"ID":646830,"DIS_CODE":0,"TOWNNAME":"仁德區","LI":"仁和里","LIN":"13鄰","STREET":"和愛街","SECT":" ","MAREA":" ","LANE":" ","ALLEY":" ","HOUSE_NO":"１８號六樓之１","E_COORD97":170463.39000000001,"N_COORD97":2539995.3999999999,"ADDRESS":"和愛街１８號六樓之１","OBJECTID":646803},"geometry":{"x":170463.3900000006,"y":2539995.4000000022}},{"attributes":{"ID":646831,"DIS_CODE":0,"TOWNNAME":"仁德區","LI":"新田里","LIN":"4鄰","STREET":"新田二街","SECT":" ","MAREA":" ","LANE":" ","ALLEY":" ","HOUSE_NO":"１２號","E_COORD97":174586.27654600001,"N_COORD97":2539752.1131799999,"ADDRESS":"新田二街１２號","OBJECTID":646804},"geometry":{"x":174586.27654599957,"y":2539752.1131810024}},{"attributes":{"ID":646832,"DIS_CODE":0,"TOWNNAME":"仁德區","LI":"仁和里","LIN":"13鄰","STREET":"和愛街","SECT":" ","MAREA":" ","LANE":" ","ALLEY":" ","HOUSE_NO":"１８號六樓之２","E_COORD97":170463.39000000001,"N_COORD97":2539995.3999999999,"ADDRESS":"和愛街１８號六樓之２","OBJECTID":646805},"geometry":{"x":170463.3900000006,"y":2539995.4000000022}},{"attributes":{"ID":646833,"DIS_CODE":0,"TOWNNAME":"仁德區","LI":"仁和里","LIN":"13鄰","STREET":"和愛街","SECT":" ","MAREA":" ","LANE":" ","ALLEY":" ","HOUSE_NO":"１８號六樓之３","E_COORD97":170463.39000000001,"N_COORD97":2539995.3999999999,"ADDRESS":"和愛街１８號六樓之３","OBJECTID":646806},"geometry":{"x":170463.3900000006,"y":2539995.4000000022}},{"attributes":{"ID":646834,"DIS_CODE":0,"TOWNNAME":"仁德區","LI":"仁和里","LIN":"13鄰","STREET":"和愛街","SECT":" ","MAREA":" ","LANE":" ","ALLEY":" ","HOUSE_NO":"１８號六樓之５","E_COORD97":170463.39000000001,"N_COORD97":2539995.3999999999,"ADDRESS":"和愛街１８號六樓之５","OBJECTID":646807},"geometry":{"x":170463.3900000006,"y":2539995.4000000022}},{"attributes":{"ID":646835,"DIS_CODE":0,"TOWNNAME":"仁德區","LI":"仁和里","LIN":"13鄰","STREET":"和愛街","SECT":" ","MAREA":" ","LANE":" ","ALLEY":" ","HOUSE_NO":"１８號七樓之１","E_COORD97":170463.39000000001,"N_COORD97":2539995.3999999999,"ADDRESS":"和愛街１８號七樓之１","OBJECTID":646808},"geometry":{"x":170463.3900000006,"y":2539995.4000000022}},{"attributes":{"ID":646836,"DIS_CODE":0,"TOWNNAME":"鹽水區","LI":"歡雅里","LIN":"10鄰","STREET":" ","SECT":" ","MAREA":"尾寮","LANE":" ","ALLEY":" ","HOUSE_NO":"１１之７號","E_COORD97":172022.74261099999,"N_COORD97":2576749.0404699999,"ADDRESS":"尾寮１１之７號","OBJECTID":646809},"geometry":{"x":172022.74261100031,"y":2576749.0404680017}},{"attributes":{"ID":646837,"DIS_CODE":0,"TOWNNAME":"仁德區","LI":"仁和里","LIN":"13鄰","STREET":"和愛街","SECT":" ","MAREA":" ","LANE":" ","ALLEY":" ","HOUSE_NO":"１８號七樓之２","E_COORD97":170463.39000000001,"N_COORD97":2539995.3999999999,"ADDRESS":"和愛街１８號七樓之２","OBJECTID":646810},"geometry":{"x":170463.3900000006,"y":2539995.4000000022}},{"attributes":{"ID":646838,"DIS_CODE":0,"TOWNNAME":"仁德區","LI":"仁和里","LIN":"13鄰","STREET":"和愛街","SECT":" ","MAREA":" ","LANE":" ","ALLEY":" ","HOUSE_NO":"１８號七樓之３","E_COORD97":170463.39000000001,"N_COORD97":2539995.3999999999,"ADDRESS":"和愛街１８號七樓之３","OBJECTID":646811},"geometry":{"x":170463.3900000006,"y":2539995.4000000022}},{"attributes":{"ID":646839,"DIS_CODE":0,"TOWNNAME":"仁德區","LI":"仁和里","LIN":"13鄰","STREET":"和愛街","SECT":" ","MAREA":" ","LANE":" ","ALLEY":" ","HOUSE_NO":"１８號七樓之５","E_COORD97":170463.39000000001,"N_COORD97":2539995.3999999999,"ADDRESS":"和愛街１８號七樓之５","OBJECTID":646812},"geometry":{"x":170463.3900000006,"y":2539995.4000000022}},{"attributes":{"ID":646840,"DIS_CODE":0,"TOWNNAME":"仁德區","LI":"仁和里","LIN":"13鄰","STREET":"和愛街","SECT":" ","MAREA":" ","LANE":" ","ALLEY":" ","HOUSE_NO":"１８號八樓之１","E_COORD97":170463.39000000001,"N_COORD97":2539995.3999999999,"ADDRESS":"和愛街１８號八樓之１","OBJECTID":646813},"geometry":{"x":170463.3900000006,"y":2539995.4000000022}},{"attributes":{"ID":646841,"DIS_CODE":0,"TOWNNAME":"仁德區","LI":"仁和里","LIN":"13鄰","STREET":"和愛街","SECT":" ","MAREA":" ","LANE":" ","ALLEY":" ","HOUSE_NO":"１８號八樓之２","E_COORD97":170463.39000000001,"N_COORD97":2539995.3999999999,"ADDRESS":"和愛街１８號八樓之２","OBJECTID":646814},"geometry":{"x":170463.3900000006,"y":2539995.4000000022}},{"attributes":{"ID":646842,"DIS_CODE":0,"TOWNNAME":"仁德區","LI":"仁和里","LIN":"13鄰","STREET":"和愛街","SECT":" ","MAREA":" ","LANE":" ","ALLEY":" ","HOUSE_NO":"１８號八樓之３","E_COORD97":170463.39000000001,"N_COORD97":2539995.3999999999,"ADDRESS":"和愛街１８號八樓之３","OBJECTID":646815},"geometry":{"x":170463.3900000006,"y":2539995.4000000022}},{"attributes":{"ID":646843,"DIS_CODE":0,"TOWNNAME":"仁德區","LI":"仁和里","LIN":"13鄰","STREET":"和愛街","SECT":" ","MAREA":" ","LANE":" ","ALLEY":" ","HOUSE_NO":"１８號八樓之５","E_COORD97":170463.39000000001,"N_COORD97":2539995.3999999999,"ADDRESS":"和愛街１８號八樓之５","OBJECTID":646816},"geometry":{"x":170463.3900000006,"y":2539995.4000000022}},{"attributes":{"ID":646844,"DIS_CODE":0,"TOWNNAME":"仁德區","LI":"仁和里","LIN":"13鄰","STREET":"和愛街","SECT":" ","MAREA":" ","LANE":" ","ALLEY":" ","HOUSE_NO":"１８號九樓之１","E_COORD97":170463.39000000001,"N_COORD97":2539995.3999999999,"ADDRESS":"和愛街１８號九樓之１","OBJECTID":646817},"geometry":{"x":170463.3900000006,"y":2539995.4000000022}},{"attributes":{"ID":646845,"DIS_CODE":0,"TOWNNAME":"仁德區","LI":"仁和里","LIN":"13鄰","STREET":"和愛街","SECT":" ","MAREA":" ","LANE":" ","ALLEY":" ","HOUSE_NO":"１８號九樓之２","E_COORD97":170463.39000000001,"N_COORD97":2539995.3999999999,"ADDRESS":"和愛街１８號九樓之２","OBJECTID":646818},"geometry":{"x":170463.3900000006,"y":2539995.4000000022}},{"attributes":{"ID":646846,"DIS_CODE":0,"TOWNNAME":"仁德區","LI":"仁和里","LIN":"13鄰","STREET":"和愛街","SECT":" ","MAREA":" ","LANE":" ","ALLEY":" ","HOUSE_NO":"１８號九樓之３","E_COORD97":170463.39000000001,"N_COORD97":2539995.3999999999,"ADDRESS":"和愛街１８號九樓之３","OBJECTID":646819},"geometry":{"x":170463.3900000006,"y":2539995.4000000022}},{"attributes":{"ID":646847,"DIS_CODE":0,"TOWNNAME":"仁德區","LI":"仁和里","LIN":"13鄰","STREET":"和愛街","SECT":" ","MAREA":" ","LANE":" ","ALLEY":" ","HOUSE_NO":"１８號九樓之５","E_COORD97":170463.39000000001,"N_COORD97":2539995.3999999999,"ADDRESS":"和愛街１８號九樓之５","OBJECTID":646820},"geometry":{"x":170463.3900000006,"y":2539995.4000000022}},{"attributes":{"ID":646848,"DIS_CODE":0,"TOWNNAME":"關廟區","LI":"深坑里","LIN":"11鄰","STREET":"深坑二街","SECT":" ","MAREA":" ","LANE":"６３巷","ALLEY":" ","HOUSE_NO":"２號","E_COORD97":181702.24169,"N_COORD97":2537461.9687800002,"ADDRESS":"深坑二街６３巷２號","OBJECTID":646821},"geometry":{"x":181702.24169000052,"y":2537461.9687790014}},{"attributes":{"ID":646849,"DIS_CODE":0,"TOWNNAME":"仁德區","LI":"新田里","LIN":"4鄰","STREET":"新田二街","SECT":" ","MAREA":" ","LANE":"１６巷","ALLEY":" ","HOUSE_NO":"１９號","E_COORD97":174618.679301,"N_COORD97":2539714.22487,"ADDRESS":"新田二街１６巷１９號","OBJECTID":646822},"geometry":{"x":174618.6793010002,"y":2539714.2248680014}},{"attributes":{"ID":646850,"DIS_CODE":0,"TOWNNAME":"東山區","LI":"東河里","LIN":"7鄰","STREET":" ","SECT":" ","MAREA":"吉貝耍","LANE":" ","ALLEY":" ","HOUSE_NO":"５３號之５","E_COORD97":187832.81920999999,"N_COORD97":2577796.7626399999,"ADDRESS":"吉貝耍５３號之５","OBJECTID":646823},"geometry":{"x":187832.81921000034,"y":2577796.7626399994}},{"attributes":{"ID":646851,"DIS_CODE":0,"TOWNNAME":"山上區","LI":"山上里","LIN":"13鄰","STREET":" ","SECT":" ","MAREA":"山上","LANE":" ","ALLEY":" ","HOUSE_NO":"２０１號之５","E_COORD97":184038.336331,"N_COORD97":2555522.5578200002,"ADDRESS":"山上２０１號之５","OBJECTID":646824},"geometry":{"x":184038.33633099962,"y":2555522.5578160025}},{"attributes":{"ID":646852,"DIS_CODE":0,"TOWNNAME":"東山區","LI":"東河里","LIN":"7鄰","STREET":" ","SECT":" ","MAREA":"吉貝耍","LANE":" ","ALLEY":" ","HOUSE_NO":"５７號之１","E_COORD97":187143.72279,"N_COORD97":2577206.6362899998,"ADDRESS":"吉貝耍５７號之１","OBJECTID":646825},"geometry":{"x":187143.72279000096,"y":2577206.6362900008}},{"attributes":{"ID":646853,"DIS_CODE":0,"TOWNNAME":"仁德區","LI":"新田里","LIN":"4鄰","STREET":"新田二街","SECT":" ","MAREA":" ","LANE":" ","ALLEY":" ","HOUSE_NO":"２４號","E_COORD97":174601.72216,"N_COORD97":2539681.32791,"ADDRESS":"新田二街２４號","OBJECTID":646826},"geometry":{"x":174601.72216000129,"y":2539681.3279120009}},{"attributes":{"ID":646854,"DIS_CODE":0,"TOWNNAME":"東山區","LI":"東河里","LIN":"8鄰","STREET":" ","SECT":" ","MAREA":"吉貝耍","LANE":" ","ALLEY":" ","HOUSE_NO":"６４號之３","E_COORD97":187020.39741000001,"N_COORD97":2577288.76291,"ADDRESS":"吉貝耍６４號之３","OBJECTID":646827},"geometry":{"x":187020.39741000067,"y":2577288.7629100047}},{"attributes":{"ID":646855,"DIS_CODE":0,"TOWNNAME":"仁德區","LI":"新田里","LIN":"4鄰","STREET":"新田二街","SECT":" ","MAREA":" ","LANE":" ","ALLEY":" ","HOUSE_NO":"２號","E_COORD97":174504.72567700001,"N_COORD97":2539737.8428799999,"ADDRESS":"新田二街２號","OBJECTID":646828},"geometry":{"x":174504.72567700222,"y":2539737.8428809997}},{"attributes":{"ID":646856,"DIS_CODE":0,"TOWNNAME":"仁德區","LI":"新田里","LIN":"4鄰","STREET":"新田二街","SECT":" ","MAREA":" ","LANE":" ","ALLEY":" ","HOUSE_NO":"８號","E_COORD97":174560.21274799999,"N_COORD97":2539748.4262100002,"ADDRESS":"新田二街８號","OBJECTID":646829},"geometry":{"x":174560.21274800133,"y":2539748.4262090009}},{"attributes":{"ID":646857,"DIS_CODE":0,"TOWNNAME":"東山區","LI":"南勢里","LIN":"3鄰","STREET":" ","SECT":" ","MAREA":"大洋","LANE":" ","ALLEY":" ","HOUSE_NO":"２７號之５","E_COORD97":195434.56067000001,"N_COORD97":2574173.6200299999,"ADDRESS":"大洋２７號之５","OBJECTID":646830},"geometry":{"x":195434.5606700005,"y":2574173.6200300027}},{"attributes":{"ID":646858,"DIS_CODE":0,"TOWNNAME":"新營區","LI":"新南里","LIN":"11鄰","STREET":"新北七街","SECT":" ","MAREA":" ","LANE":" ","ALLEY":" ","HOUSE_NO":"３３號","E_COORD97":178519.336297,"N_COORD97":2579176.8803599998,"ADDRESS":"新北七街３３號","OBJECTID":646831},"geometry":{"x":178519.33629699983,"y":2579176.8803630024}},{"attributes":{"ID":646859,"DIS_CODE":0,"TOWNNAME":"關廟區","LI":"深坑里","LIN":"11鄰","STREET":"深坑二街","SECT":" ","MAREA":" ","LANE":"２２巷","ALLEY":" ","HOUSE_NO":"６號","E_COORD97":181631.55213699999,"N_COORD97":2537676.17166,"ADDRESS":"深坑二街２２巷６號","OBJECTID":646832},"geometry":{"x":181631.55213700142,"y":2537676.1716619991}},{"attributes":{"ID":646860,"DIS_CODE":0,"TOWNNAME":"仁德區","LI":"仁義里","LIN":"45鄰","STREET":"仁義路","SECT":" ","MAREA":" ","LANE":"７０巷","ALLEY":"３５弄","HOUSE_NO":"１號","E_COORD97":173551.90809899999,"N_COORD97":2540843.6400299999,"ADDRESS":"仁義路７０巷３５弄１號","OBJECTID":646833},"geometry":{"x":173551.90809900034,"y":2540843.6400310006}},{"attributes":{"ID":646861,"DIS_CODE":0,"TOWNNAME":"仁德區","LI":"仁義里","LIN":"45鄰","STREET":"仁義路","SECT":" ","MAREA":" ","LANE":"７０巷","ALLEY":"３５弄","HOUSE_NO":"３號","E_COORD97":173556.146263,"N_COORD97":2540844.1691999999,"ADDRESS":"仁義路７０巷３５弄３號","OBJECTID":646834},"geometry":{"x":173556.14626299962,"y":2540844.1691970006}},{"attributes":{"ID":646862,"DIS_CODE":0,"TOWNNAME":"關廟區","LI":"埤頭里","LIN":"11鄰","STREET":"關新路","SECT":"二段","MAREA":" ","LANE":"２９８巷","ALLEY":" ","HOUSE_NO":"１１０號","E_COORD97":179361.89014800001,"N_COORD97":2544594.9486699998,"ADDRESS":"關新路二段２９８巷１１０號","OBJECTID":646835},"geometry":{"x":179361.89014800079,"y":2544594.9486740045}},{"attributes":{"ID":646863,"DIS_CODE":0,"TOWNNAME":"仁德區","LI":"仁義里","LIN":"45鄰","STREET":"仁義路","SECT":" ","MAREA":" ","LANE":"７０巷","ALLEY":"３５弄","HOUSE_NO":"５號","E_COORD97":173559.32488500001,"N_COORD97":2540844.4866999998,"ADDRESS":"仁義路７０巷３５弄５號","OBJECTID":646836},"geometry":{"x":173559.32488499954,"y":2540844.4866970014}},{"attributes":{"ID":646864,"DIS_CODE":0,"TOWNNAME":"仁德區","LI":"仁義里","LIN":"45鄰","STREET":"仁義路","SECT":" ","MAREA":" ","LANE":"７０巷","ALLEY":"３５弄","HOUSE_NO":"７號","E_COORD97":173562.50350799999,"N_COORD97":2540844.8042000001,"ADDRESS":"仁義路７０巷３５弄７號","OBJECTID":646837},"geometry":{"x":173562.50350800063,"y":2540844.8041969985}},{"attributes":{"ID":646865,"DIS_CODE":0,"TOWNNAME":"仁德區","LI":"仁義里","LIN":"45鄰","STREET":"仁義路","SECT":" ","MAREA":" ","LANE":"７０巷","ALLEY":"３５弄","HOUSE_NO":"９號","E_COORD97":173565.68213,"N_COORD97":2540845.0158600002,"ADDRESS":"仁義路７０巷３５弄９號","OBJECTID":646838},"geometry":{"x":173565.68213000055,"y":2540845.0158630013}},{"attributes":{"ID":646866,"DIS_CODE":0,"TOWNNAME":"仁德區","LI":"仁義里","LIN":"45鄰","STREET":"仁義路","SECT":" ","MAREA":" ","LANE":"７０巷","ALLEY":"３５弄","HOUSE_NO":"１１號","E_COORD97":173568.86075299999,"N_COORD97":2540845.1217,"ADDRESS":"仁義路７０巷３５弄１１號","OBJECTID":646839},"geometry":{"x":173568.86075300165,"y":2540845.1216970012}},{"attributes":{"ID":646867,"DIS_CODE":0,"TOWNNAME":"佳里區","LI":"子龍里","LIN":"16鄰","STREET":" ","SECT":" ","MAREA":"子良廟","LANE":" ","ALLEY":" ","HOUSE_NO":"１７１號之１６","E_COORD97":169270.85139,"N_COORD97":2563636.6936400002,"ADDRESS":"子良廟１７１號之１６","OBJECTID":646840},"geometry":{"x":169270.85139000136,"y":2563636.6936370041}},{"attributes":{"ID":646868,"DIS_CODE":0,"TOWNNAME":"東山區","LI":"東河里","LIN":"1鄰","STREET":" ","SECT":" ","MAREA":"吉貝耍","LANE":" ","ALLEY":" ","HOUSE_NO":"６號之６","E_COORD97":187069.34614000001,"N_COORD97":2576745.41487,"ADDRESS":"吉貝耍６號之６","OBJECTID":646841},"geometry":{"x":187069.34614000004,"y":2576745.4148699995}},{"attributes":{"ID":646869,"DIS_CODE":0,"TOWNNAME":"仁德區","LI":"仁義里","LIN":"45鄰","STREET":"仁義路","SECT":" ","MAREA":" ","LANE":"７０巷","ALLEY":"３５弄","HOUSE_NO":"１３號","E_COORD97":173572.251284,"N_COORD97":2540845.2275299998,"ADDRESS":"仁義路７０巷３５弄１３號","OBJECTID":646842},"geometry":{"x":173572.25128399953,"y":2540845.227529997}},{"attributes":{"ID":646870,"DIS_CODE":0,"TOWNNAME":"新營區","LI":"新南里","LIN":"12鄰","STREET":"新北七街","SECT":" ","MAREA":" ","LANE":" ","ALLEY":" ","HOUSE_NO":"２８號","E_COORD97":178522.938295,"N_COORD97":2579193.2316000001,"ADDRESS":"新北七街２８號","OBJECTID":646843},"geometry":{"x":178522.93829500023,"y":2579193.2316040024}},{"attributes":{"ID":646871,"DIS_CODE":0,"TOWNNAME":"仁德區","LI":"仁義里","LIN":"45鄰","STREET":"仁義路","SECT":" ","MAREA":" ","LANE":"７０巷","ALLEY":"３５弄","HOUSE_NO":"２號","E_COORD97":173550.848558,"N_COORD97":2540826.0717099998,"ADDRESS":"仁義路７０巷３５弄２號","OBJECTID":646844},"geometry":{"x":173550.84855799936,"y":2540826.071707001}},{"attributes":{"ID":646872,"DIS_CODE":0,"TOWNNAME":"仁德區","LI":"仁義里","LIN":"45鄰","STREET":"仁義路","SECT":" ","MAREA":" ","LANE":"７０巷","ALLEY":"３５弄","HOUSE_NO":"６號","E_COORD97":173553.60336499999,"N_COORD97":2540825.96587,"ADDRESS":"仁義路７０巷３５弄６號","OBJECTID":646845},"geometry":{"x":173553.60336500034,"y":2540825.9658739995}},{"attributes":{"ID":646873,"DIS_CODE":0,"TOWNNAME":"仁德區","LI":"仁義里","LIN":"45鄰","STREET":"仁義路","SECT":" ","MAREA":" ","LANE":"７０巷","ALLEY":"３５弄","HOUSE_NO":"８號","E_COORD97":173557.205804,"N_COORD97":2540826.2833699998,"ADDRESS":"仁義路７０巷３５弄８號","OBJECTID":646846},"geometry":{"x":173557.20580399968,"y":2540826.2833740022}},{"attributes":{"ID":646874,"DIS_CODE":0,"TOWNNAME":"仁德區","LI":"仁義里","LIN":"45鄰","STREET":"仁義路","SECT":" ","MAREA":" ","LANE":"７０巷","ALLEY":"３５弄","HOUSE_NO":"１０號","E_COORD97":173560.596334,"N_COORD97":2540827.0242099999,"ADDRESS":"仁義路７０巷３５弄１０號","OBJECTID":646847},"geometry":{"x":173560.59633400105,"y":2540827.0242070016}},{"attributes":{"ID":646875,"DIS_CODE":0,"TOWNNAME":"東山區","LI":"南勢里","LIN":"19鄰","STREET":" ","SECT":" ","MAREA":"大洋","LANE":" ","ALLEY":" ","HOUSE_NO":"３５號之１７","E_COORD97":197698.12111000001,"N_COORD97":2573359.5504700001,"ADDRESS":"大洋３５號之１７","OBJECTID":646848},"geometry":{"x":197698.12111000158,"y":2573359.550470002}},{"attributes":{"ID":646876,"DIS_CODE":0,"TOWNNAME":"仁德區","LI":"仁義里","LIN":"45鄰","STREET":"仁義路","SECT":" ","MAREA":" ","LANE":"７０巷","ALLEY":"３５弄","HOUSE_NO":"１２號","E_COORD97":173564.19877300001,"N_COORD97":2540827.9767100001,"ADDRESS":"仁義路７０巷３５弄１２號","OBJECTID":646849},"geometry":{"x":173564.19877300132,"y":2540827.976706}},{"attributes":{"ID":646877,"DIS_CODE":0,"TOWNNAME":"新營區","LI":"新南里","LIN":"12鄰","STREET":"新北七街","SECT":" ","MAREA":" ","LANE":" ","ALLEY":" ","HOUSE_NO":"３８號","E_COORD97":178506.51742300001,"N_COORD97":2579180.1082799998,"ADDRESS":"新北七街３８號","OBJECTID":646850},"geometry":{"x":178506.51742300019,"y":2579180.1082780007}},{"attributes":{"ID":646878,"DIS_CODE":0,"TOWNNAME":"仁德區","LI":"仁義里","LIN":"45鄰","STREET":"仁義路","SECT":" ","MAREA":" ","LANE":"７０巷","ALLEY":"３５弄","HOUSE_NO":"１６號","E_COORD97":173568.01311999999,"N_COORD97":2540828.0825399999,"ADDRESS":"仁義路７０巷３５弄１６號","OBJECTID":646851},"geometry":{"x":173568.01312000025,"y":2540828.0825390015}},{"attributes":{"ID":646879,"DIS_CODE":0,"TOWNNAME":"仁德區","LI":"仁義里","LIN":"45鄰","STREET":"仁義路","SECT":" ","MAREA":" ","LANE":"７０巷","ALLEY":"３５弄","HOUSE_NO":"１８號","E_COORD97":173572.03937499999,"N_COORD97":2540828.4000400002,"ADDRESS":"仁義路７０巷３５弄１８號","OBJECTID":646852},"geometry":{"x":173572.03937500063,"y":2540828.4000390023}},{"attributes":{"ID":646880,"DIS_CODE":0,"TOWNNAME":"山上區","LI":"山上里","LIN":"13鄰","STREET":" ","SECT":" ","MAREA":"山上","LANE":" ","ALLEY":" ","HOUSE_NO":"２０１號之６","E_COORD97":184038.07149,"N_COORD97":2555518.40386,"ADDRESS":"山上２０１號之６","OBJECTID":646853},"geometry":{"x":184038.07149,"y":2555518.403859999}},{"attributes":{"ID":646881,"DIS_CODE":0,"TOWNNAME":"東山區","LI":"東河里","LIN":"1鄰","STREET":" ","SECT":" ","MAREA":"吉貝耍","LANE":" ","ALLEY":" ","HOUSE_NO":"６號之７","E_COORD97":187140.12049999999,"N_COORD97":2576677.46991,"ADDRESS":"吉貝耍６號之７","OBJECTID":646854},"geometry":{"x":187140.12050000019,"y":2576677.4699099995}},{"attributes":{"ID":646882,"DIS_CODE":0,"TOWNNAME":"東山區","LI":"南勢里","LIN":"19鄰","STREET":" ","SECT":" ","MAREA":"大洋","LANE":" ","ALLEY":" ","HOUSE_NO":"３５號之３７","E_COORD97":197700.23926,"N_COORD97":2573379.6587899998,"ADDRESS":"大洋３５號之３７","OBJECTID":646855},"geometry":{"x":197700.23926000018,"y":2573379.6587899998}},{"attributes":{"ID":646883,"DIS_CODE":0,"TOWNNAME":"新營區","LI":"新南里","LIN":"12鄰","STREET":"新北七街","SECT":" ","MAREA":" ","LANE":" ","ALLEY":" ","HOUSE_NO":"４２之１號","E_COORD97":178499.52531,"N_COORD97":2579172.1707799998,"ADDRESS":"新北七街４２之１號","OBJECTID":646856},"geometry":{"x":178499.52531000227,"y":2579172.1707819998}},{"attributes":{"ID":646884,"DIS_CODE":0,"TOWNNAME":"關廟區","LI":"埤頭里","LIN":"11鄰","STREET":"關新路","SECT":"二段","MAREA":" ","LANE":"２９８巷","ALLEY":" ","HOUSE_NO":"１１６號","E_COORD97":179450.82157299999,"N_COORD97":2544589.6570100002,"ADDRESS":"關新路二段２９８巷１１６號","OBJECTID":646857},"geometry":{"x":179450.8215730004,"y":2544589.6570100039}},{"attributes":{"ID":646885,"DIS_CODE":0,"TOWNNAME":"仁德區","LI":"中洲里","LIN":"11鄰","STREET":" ","SECT":" ","MAREA":"中洲","LANE":" ","ALLEY":" ","HOUSE_NO":"３２２號","E_COORD97":173321.85966700001,"N_COORD97":2534092.4646800002,"ADDRESS":"中洲３２２號","OBJECTID":646858},"geometry":{"x":173321.85966700129,"y":2534092.4646800011}},{"attributes":{"ID":646886,"DIS_CODE":0,"TOWNNAME":"仁德區","LI":"仁義里","LIN":"45鄰","STREET":"仁義路","SECT":" ","MAREA":" ","LANE":"９８巷","ALLEY":" ","HOUSE_NO":"６６號","E_COORD97":173604.67323300001,"N_COORD97":2540813.2658799998,"ADDRESS":"仁義路９８巷６６號","OBJECTID":646859},"geometry":{"x":173604.67323299963,"y":2540813.2658810019}},{"attributes":{"ID":646887,"DIS_CODE":0,"TOWNNAME":"關廟區","LI":"深坑里","LIN":"11鄰","STREET":"深坑二街","SECT":" ","MAREA":" ","LANE":"２２巷","ALLEY":" ","HOUSE_NO":"１６號","E_COORD97":181615.23796999999,"N_COORD97":2537705.27581,"ADDRESS":"深坑二街２２巷１６號","OBJECTID":646860},"geometry":{"x":181615.23797000106,"y":2537705.2758099996}},{"attributes":{"ID":646888,"DIS_CODE":0,"TOWNNAME":"仁德區","LI":"新田里","LIN":"4鄰","STREET":"新田路","SECT":" ","MAREA":" ","LANE":" ","ALLEY":" ","HOUSE_NO":"１０１號","E_COORD97":174483.33562299999,"N_COORD97":2539172.2698499998,"ADDRESS":"新田路１０１號","OBJECTID":646861},"geometry":{"x":174483.33562300075,"y":2539172.2698529996}},{"attributes":{"ID":646889,"DIS_CODE":0,"TOWNNAME":"新營區","LI":"新南里","LIN":"13鄰","STREET":"長榮路","SECT":"二段","MAREA":" ","LANE":" ","ALLEY":" ","HOUSE_NO":"７５７號","E_COORD97":178502.80948,"N_COORD97":2579232.7735600001,"ADDRESS":"長榮路二段７５７號","OBJECTID":646862},"geometry":{"x":178502.80948000122,"y":2579232.7735600024}},{"attributes":{"ID":646890,"DIS_CODE":0,"TOWNNAME":"東山區","LI":"南勢里","LIN":"19鄰","STREET":" ","SECT":" ","MAREA":"大洋","LANE":" ","ALLEY":" ","HOUSE_NO":"３５號之３９","E_COORD97":197669.31427999999,"N_COORD97":2573345.3688099999,"ADDRESS":"大洋３５號之３９","OBJECTID":646863},"geometry":{"x":197669.31428000052,"y":2573345.3688099999}},{"attributes":{"ID":646891,"DIS_CODE":0,"TOWNNAME":"北區","LI":"大山里","LIN":"10鄰","STREET":"和緯路","SECT":"一段","MAREA":" ","LANE":" ","ALLEY":" ","HOUSE_NO":"１８７號","E_COORD97":169319.103833,"N_COORD97":2545608.6398200002,"ADDRESS":"和緯路一段１８７號","OBJECTID":646864},"geometry":{"x":169319.10383300204,"y":2545608.6398169994}},{"attributes":{"ID":646892,"DIS_CODE":0,"TOWNNAME":"仁德區","LI":"仁和里","LIN":"13鄰","STREET":"和愛街","SECT":" ","MAREA":" ","LANE":" ","ALLEY":" ","HOUSE_NO":"１８號十樓之１","E_COORD97":170463.39000000001,"N_COORD97":2539995.3999999999,"ADDRESS":"和愛街１８號十樓之１","OBJECTID":646865},"geometry":{"x":170463.3900000006,"y":2539995.4000000022}},{"attributes":{"ID":646893,"DIS_CODE":0,"TOWNNAME":"仁德區","LI":"仁和里","LIN":"13鄰","STREET":"和愛街","SECT":" ","MAREA":" ","LANE":" ","ALLEY":" ","HOUSE_NO":"１８號十樓之２","E_COORD97":170463.39000000001,"N_COORD97":2539995.3999999999,"ADDRESS":"和愛街１８號十樓之２","OBJECTID":646866},"geometry":{"x":170463.3900000006,"y":2539995.4000000022}},{"attributes":{"ID":646894,"DIS_CODE":0,"TOWNNAME":"仁德區","LI":"仁和里","LIN":"13鄰","STREET":"和愛街","SECT":" ","MAREA":" ","LANE":" ","ALLEY":" ","HOUSE_NO":"１８號十樓之３","E_COORD97":170463.39000000001,"N_COORD97":2539995.3999999999,"ADDRESS":"和愛街１８號十樓之３","OBJECTID":646867},"geometry":{"x":170463.3900000006,"y":2539995.4000000022}},{"attributes":{"ID":646895,"DIS_CODE":0,"TOWNNAME":"仁德區","LI":"仁和里","LIN":"13鄰","STREET":"和愛街","SECT":" ","MAREA":" ","LANE":" ","ALLEY":" ","HOUSE_NO":"１８號十樓之５","E_COORD97":170463.39000000001,"N_COORD97":2539995.3999999999,"ADDRESS":"和愛街１８號十樓之５","OBJECTID":646868},"geometry":{"x":170463.3900000006,"y":2539995.4000000022}},{"attributes":{"ID":646896,"DIS_CODE":0,"TOWNNAME":"新營區","LI":"三仙里","LIN":"30鄰","STREET":"育德街","SECT":" ","MAREA":" ","LANE":" ","ALLEY":" ","HOUSE_NO":"８５號","E_COORD97":179582.35895699999,"N_COORD97":2579142.0152599998,"ADDRESS":"育德街８５號","OBJECTID":646869},"geometry":{"x":179582.35895700194,"y":2579142.0152630024}},{"attributes":{"ID":646897,"DIS_CODE":0,"TOWNNAME":"仁德區","LI":"仁和里","LIN":"13鄰","STREET":"和愛街","SECT":" ","MAREA":" ","LANE":" ","ALLEY":" ","HOUSE_NO":"１８號十一樓之１","E_COORD97":170463.39000000001,"N_COORD97":2539995.3999999999,"ADDRESS":"和愛街１８號十一樓之１","OBJECTID":646870},"geometry":{"x":170463.3900000006,"y":2539995.4000000022}},{"attributes":{"ID":646898,"DIS_CODE":0,"TOWNNAME":"仁德區","LI":"仁和里","LIN":"13鄰","STREET":"和愛街","SECT":" ","MAREA":" ","LANE":" ","ALLEY":" ","HOUSE_NO":"１８號十一樓之２","E_COORD97":170463.39000000001,"N_COORD97":2539995.3999999999,"ADDRESS":"和愛街１８號十一樓之２","OBJECTID":646871},"geometry":{"x":170463.3900000006,"y":2539995.4000000022}},{"attributes":{"ID":646899,"DIS_CODE":0,"TOWNNAME":"仁德區","LI":"仁和里","LIN":"13鄰","STREET":"和愛街","SECT":" ","MAREA":" ","LANE":" ","ALLEY":" ","HOUSE_NO":"１８號十一樓之３","E_COORD97":170463.39000000001,"N_COORD97":2539995.3999999999,"ADDRESS":"和愛街１８號十一樓之３","OBJECTID":646872},"geometry":{"x":170463.3900000006,"y":2539995.4000000022}},{"attributes":{"ID":646900,"DIS_CODE":0,"TOWNNAME":"仁德區","LI":"仁和里","LIN":"13鄰","STREET":"和愛街","SECT":" ","MAREA":" ","LANE":" ","ALLEY":" ","HOUSE_NO":"１８號十一樓之５","E_COORD97":170463.39000000001,"N_COORD97":2539995.3999999999,"ADDRESS":"和愛街１８號十一樓之５","OBJECTID":646873},"geometry":{"x":170463.3900000006,"y":2539995.4000000022}},{"attributes":{"ID":646901,"DIS_CODE":0,"TOWNNAME":"仁德區","LI":"仁和里","LIN":"13鄰","STREET":"和愛街","SECT":" ","MAREA":" ","LANE":" ","ALLEY":" ","HOUSE_NO":"１８號十二樓之１","E_COORD97":170463.39000000001,"N_COORD97":2539995.3999999999,"ADDRESS":"和愛街１８號十二樓之１","OBJECTID":646874},"geometry":{"x":170463.3900000006,"y":2539995.4000000022}},{"attributes":{"ID":646902,"DIS_CODE":0,"TOWNNAME":"仁德區","LI":"仁和里","LIN":"13鄰","STREET":"和愛街","SECT":" ","MAREA":" ","LANE":" ","ALLEY":" ","HOUSE_NO":"１８號十二樓之２","E_COORD97":170463.39000000001,"N_COORD97":2539995.3999999999,"ADDRESS":"和愛街１８號十二樓之２","OBJECTID":646875},"geometry":{"x":170463.3900000006,"y":2539995.4000000022}},{"attributes":{"ID":646903,"DIS_CODE":0,"TOWNNAME":"東山區","LI":"東河里","LIN":"9鄰","STREET":" ","SECT":" ","MAREA":"吉貝耍","LANE":" ","ALLEY":" ","HOUSE_NO":"７８號","E_COORD97":186914.44777900001,"N_COORD97":2577326.2278999998,"ADDRESS":"吉貝耍７８號","OBJECTID":646876},"geometry":{"x":186914.44777899887,"y":2577326.2278980017}},{"attributes":{"ID":646904,"DIS_CODE":0,"TOWNNAME":"仁德區","LI":"仁和里","LIN":"13鄰","STREET":"和愛街","SECT":" ","MAREA":" ","LANE":" ","ALLEY":" ","HOUSE_NO":"１８號十二樓之３","E_COORD97":170463.39000000001,"N_COORD97":2539995.3999999999,"ADDRESS":"和愛街１８號十二樓之３","OBJECTID":646877},"geometry":{"x":170463.3900000006,"y":2539995.4000000022}},{"attributes":{"ID":646905,"DIS_CODE":0,"TOWNNAME":"仁德區","LI":"仁和里","LIN":"13鄰","STREET":"和愛街","SECT":" ","MAREA":" ","LANE":" ","ALLEY":" ","HOUSE_NO":"１８號十二樓之５","E_COORD97":170463.39000000001,"N_COORD97":2539995.3999999999,"ADDRESS":"和愛街１８號十二樓之５","OBJECTID":646878},"geometry":{"x":170463.3900000006,"y":2539995.4000000022}},{"attributes":{"ID":646906,"DIS_CODE":0,"TOWNNAME":"仁德區","LI":"仁和里","LIN":"13鄰","STREET":"和愛街","SECT":" ","MAREA":" ","LANE":" ","ALLEY":" ","HOUSE_NO":"１８號十三樓之１","E_COORD97":170463.39000000001,"N_COORD97":2539995.3999999999,"ADDRESS":"和愛街１８號十三樓之１","OBJECTID":646879},"geometry":{"x":170463.3900000006,"y":2539995.4000000022}},{"attributes":{"ID":646907,"DIS_CODE":0,"TOWNNAME":"仁德區","LI":"仁和里","LIN":"13鄰","STREET":"和愛街","SECT":" ","MAREA":" ","LANE":" ","ALLEY":" ","HOUSE_NO":"１８號十三樓之２","E_COORD97":170463.39000000001,"N_COORD97":2539995.3999999999,"ADDRESS":"和愛街１８號十三樓之２","OBJECTID":646880},"geometry":{"x":170463.3900000006,"y":2539995.4000000022}},{"attributes":{"ID":646908,"DIS_CODE":0,"TOWNNAME":"仁德區","LI":"仁和里","LIN":"13鄰","STREET":"和愛街","SECT":" ","MAREA":" ","LANE":" ","ALLEY":" ","HOUSE_NO":"１８號十三樓之３","E_COORD97":170463.39000000001,"N_COORD97":2539995.3999999999,"ADDRESS":"和愛街１８號十三樓之３","OBJECTID":646881},"geometry":{"x":170463.3900000006,"y":2539995.4000000022}},{"attributes":{"ID":646909,"DIS_CODE":0,"TOWNNAME":"仁德區","LI":"仁和里","LIN":"13鄰","STREET":"和愛街","SECT":" ","MAREA":" ","LANE":" ","ALLEY":" ","HOUSE_NO":"１８號十三樓之５","E_COORD97":170463.39000000001,"N_COORD97":2539995.3999999999,"ADDRESS":"和愛街１８號十三樓之５","OBJECTID":646882},"geometry":{"x":170463.3900000006,"y":2539995.4000000022}},{"attributes":{"ID":646910,"DIS_CODE":0,"TOWNNAME":"仁德區","LI":"仁和里","LIN":"13鄰","STREET":"和愛街","SECT":" ","MAREA":" ","LANE":" ","ALLEY":" ","HOUSE_NO":"１８號十四樓之１","E_COORD97":170463.39000000001,"N_COORD97":2539995.3999999999,"ADDRESS":"和愛街１８號十四樓之１","OBJECTID":646883},"geometry":{"x":170463.3900000006,"y":2539995.4000000022}},{"attributes":{"ID":646911,"DIS_CODE":0,"TOWNNAME":"仁德區","LI":"仁和里","LIN":"13鄰","STREET":"和愛街","SECT":" ","MAREA":" ","LANE":" ","ALLEY":" ","HOUSE_NO":"１８號十四樓之２","E_COORD97":170463.39000000001,"N_COORD97":2539995.3999999999,"ADDRESS":"和愛街１８號十四樓之２","OBJECTID":646884},"geometry":{"x":170463.3900000006,"y":2539995.4000000022}},{"attributes":{"ID":646912,"DIS_CODE":0,"TOWNNAME":"仁德區","LI":"仁和里","LIN":"13鄰","STREET":"和愛街","SECT":" ","MAREA":" ","LANE":" ","ALLEY":" ","HOUSE_NO":"１８號十四樓之３","E_COORD97":170463.39000000001,"N_COORD97":2539995.3999999999,"ADDRESS":"和愛街１８號十四樓之３","OBJECTID":646885},"geometry":{"x":170463.3900000006,"y":2539995.4000000022}},{"attributes":{"ID":646913,"DIS_CODE":0,"TOWNNAME":"仁德區","LI":"仁和里","LIN":"13鄰","STREET":"和愛街","SECT":" ","MAREA":" ","LANE":" ","ALLEY":" ","HOUSE_NO":"１８號十四樓之５","E_COORD97":170463.39000000001,"N_COORD97":2539995.3999999999,"ADDRESS":"和愛街１８號十四樓之５","OBJECTID":646886},"geometry":{"x":170463.3900000006,"y":2539995.4000000022}},{"attributes":{"ID":646914,"DIS_CODE":0,"TOWNNAME":"北區","LI":"大山里","LIN":"10鄰","STREET":"和緯路","SECT":"一段","MAREA":" ","LANE":" ","ALLEY":" ","HOUSE_NO":"１７３號","E_COORD97":169341.77093699999,"N_COORD97":2545596.5748200002,"ADDRESS":"和緯路一段１７３號","OBJECTID":646887},"geometry":{"x":169341.77093700133,"y":2545596.5748230014}},{"attributes":{"ID":646915,"DIS_CODE":0,"TOWNNAME":"關廟區","LI":"深坑里","LIN":"12鄰","STREET":"深坑二街","SECT":" ","MAREA":" ","LANE":" ","ALLEY":" ","HOUSE_NO":"３６號","E_COORD97":181611.424272,"N_COORD97":2537623.4666900001,"ADDRESS":"深坑二街３６號","OBJECTID":646888},"geometry":{"x":181611.42427200079,"y":2537623.4666910022}},{"attributes":{"ID":646916,"DIS_CODE":0,"TOWNNAME":"仁德區","LI":"仁和里","LIN":"14鄰","STREET":"和愛街","SECT":" ","MAREA":" ","LANE":" ","ALLEY":" ","HOUSE_NO":"２０號一樓之２","E_COORD97":170472.51000000001,"N_COORD97":2540040.2799999998,"ADDRESS":"和愛街２０號一樓之２","OBJECTID":646889},"geometry":{"x":170472.50999999978,"y":2540040.2799999993}},{"attributes":{"ID":646917,"DIS_CODE":0,"TOWNNAME":"仁德區","LI":"仁和里","LIN":"14鄰","STREET":"和愛街","SECT":" ","MAREA":" ","LANE":" ","ALLEY":" ","HOUSE_NO":"２０號一樓之３","E_COORD97":170472.51000000001,"N_COORD97":2540040.2799999998,"ADDRESS":"和愛街２０號一樓之３","OBJECTID":646890},"geometry":{"x":170472.50999999978,"y":2540040.2799999993}},{"attributes":{"ID":646918,"DIS_CODE":0,"TOWNNAME":"仁德區","LI":"仁和里","LIN":"14鄰","STREET":"和愛街","SECT":" ","MAREA":" ","LANE":" ","ALLEY":" ","HOUSE_NO":"２０號一樓之５","E_COORD97":170472.51000000001,"N_COORD97":2540040.2799999998,"ADDRESS":"和愛街２０號一樓之５","OBJECTID":646891},"geometry":{"x":170472.50999999978,"y":2540040.2799999993}},{"attributes":{"ID":646919,"DIS_CODE":0,"TOWNNAME":"仁德區","LI":"仁和里","LIN":"14鄰","STREET":"和愛街","SECT":" ","MAREA":" ","LANE":" ","ALLEY":" ","HOUSE_NO":"２０號二樓之１","E_COORD97":170472.51000000001,"N_COORD97":2540040.2799999998,"ADDRESS":"和愛街２０號二樓之１","OBJECTID":646892},"geometry":{"x":170472.50999999978,"y":2540040.2799999993}},{"attributes":{"ID":646920,"DIS_CODE":0,"TOWNNAME":"仁德區","LI":"仁和里","LIN":"14鄰","STREET":"和愛街","SECT":" ","MAREA":" ","LANE":" ","ALLEY":" ","HOUSE_NO":"２０號二樓之２","E_COORD97":170472.51000000001,"N_COORD97":2540040.2799999998,"ADDRESS":"和愛街２０號二樓之２","OBJECTID":646893},"geometry":{"x":170472.50999999978,"y":2540040.2799999993}},{"attributes":{"ID":646921,"DIS_CODE":0,"TOWNNAME":"仁德區","LI":"仁和里","LIN":"14鄰","STREET":"和愛街","SECT":" ","MAREA":" ","LANE":" ","ALLEY":" ","HOUSE_NO":"２０號二樓之３","E_COORD97":170472.51000000001,"N_COORD97":2540040.2799999998,"ADDRESS":"和愛街２０號二樓之３","OBJECTID":646894},"geometry":{"x":170472.50999999978,"y":2540040.2799999993}},{"attributes":{"ID":646922,"DIS_CODE":0,"TOWNNAME":"仁德區","LI":"仁和里","LIN":"14鄰","STREET":"和愛街","SECT":" ","MAREA":" ","LANE":" ","ALLEY":" ","HOUSE_NO":"２０號二樓之５","E_COORD97":170472.51000000001,"N_COORD97":2540040.2799999998,"ADDRESS":"和愛街２０號二樓之５","OBJECTID":646895},"geometry":{"x":170472.50999999978,"y":2540040.2799999993}},{"attributes":{"ID":646923,"DIS_CODE":0,"TOWNNAME":"仁德區","LI":"仁和里","LIN":"14鄰","STREET":"和愛街","SECT":" ","MAREA":" ","LANE":" ","ALLEY":" ","HOUSE_NO":"２０號三樓之１","E_COORD97":170472.51000000001,"N_COORD97":2540040.2799999998,"ADDRESS":"和愛街２０號三樓之１","OBJECTID":646896},"geometry":{"x":170472.50999999978,"y":2540040.2799999993}},{"attributes":{"ID":646924,"DIS_CODE":0,"TOWNNAME":"北區","LI":"大山里","LIN":"10鄰","STREET":"和緯路","SECT":"一段","MAREA":" ","LANE":" ","ALLEY":" ","HOUSE_NO":"１８５號","E_COORD97":169322.49330599999,"N_COORD97":2545607.15815,"ADDRESS":"和緯路一段１８５號","OBJECTID":646897},"geometry":{"x":169322.49330600072,"y":2545607.1581510026}},{"attributes":{"ID":646925,"DIS_CODE":0,"TOWNNAME":"仁德區","LI":"仁和里","LIN":"14鄰","STREET":"和愛街","SECT":" ","MAREA":" ","LANE":" ","ALLEY":" ","HOUSE_NO":"２０號三樓之２","E_COORD97":170472.51000000001,"N_COORD97":2540040.2799999998,"ADDRESS":"和愛街２０號三樓之２","OBJECTID":646898},"geometry":{"x":170472.50999999978,"y":2540040.2799999993}},{"attributes":{"ID":646926,"DIS_CODE":0,"TOWNNAME":"東山區","LI":"東河里","LIN":"9鄰","STREET":" ","SECT":" ","MAREA":"吉貝耍","LANE":" ","ALLEY":" ","HOUSE_NO":"７９號","E_COORD97":186852.149393,"N_COORD97":2577294.2662499999,"ADDRESS":"吉貝耍７９號","OBJECTID":646899},"geometry":{"x":186852.14939299971,"y":2577294.266249001}},{"attributes":{"ID":646927,"DIS_CODE":0,"TOWNNAME":"關廟區","LI":"深坑里","LIN":"12鄰","STREET":"深坑二街","SECT":" ","MAREA":" ","LANE":"３２巷","ALLEY":" ","HOUSE_NO":"２號","E_COORD97":181627.31469200001,"N_COORD97":2537632.5683499998,"ADDRESS":"深坑二街３２巷２號","OBJECTID":646900},"geometry":{"x":181627.31469200086,"y":2537632.5683519989}},{"attributes":{"ID":646928,"DIS_CODE":0,"TOWNNAME":"仁德區","LI":"仁和里","LIN":"14鄰","STREET":"和愛街","SECT":" ","MAREA":" ","LANE":" ","ALLEY":" ","HOUSE_NO":"２０號三樓之３","E_COORD97":170472.51000000001,"N_COORD97":2540040.2799999998,"ADDRESS":"和愛街２０號三樓之３","OBJECTID":646901},"geometry":{"x":170472.50999999978,"y":2540040.2799999993}},{"attributes":{"ID":646929,"DIS_CODE":0,"TOWNNAME":"仁德區","LI":"仁和里","LIN":"14鄰","STREET":"和愛街","SECT":" ","MAREA":" ","LANE":" ","ALLEY":" ","HOUSE_NO":"２０號三樓之５","E_COORD97":170472.51000000001,"N_COORD97":2540040.2799999998,"ADDRESS":"和愛街２０號三樓之５","OBJECTID":646902},"geometry":{"x":170472.50999999978,"y":2540040.2799999993}},{"attributes":{"ID":646930,"DIS_CODE":0,"TOWNNAME":"仁德區","LI":"仁和里","LIN":"14鄰","STREET":"和愛街","SECT":" ","MAREA":" ","LANE":" ","ALLEY":" ","HOUSE_NO":"２０號四樓之１","E_COORD97":170472.51000000001,"N_COORD97":2540040.2799999998,"ADDRESS":"和愛街２０號四樓之１","OBJECTID":646903},"geometry":{"x":170472.50999999978,"y":2540040.2799999993}},{"attributes":{"ID":646931,"DIS_CODE":0,"TOWNNAME":"仁德區","LI":"仁和里","LIN":"14鄰","STREET":"和愛街","SECT":" ","MAREA":" ","LANE":" ","ALLEY":" ","HOUSE_NO":"２０號四樓之２","E_COORD97":170472.51000000001,"N_COORD97":2540040.2799999998,"ADDRESS":"和愛街２０號四樓之２","OBJECTID":646904},"geometry":{"x":170472.50999999978,"y":2540040.2799999993}},{"attributes":{"ID":646932,"DIS_CODE":0,"TOWNNAME":"仁德區","LI":"仁和里","LIN":"14鄰","STREET":"和愛街","SECT":" ","MAREA":" ","LANE":" ","ALLEY":" ","HOUSE_NO":"２０號四樓之３","E_COORD97":170472.51000000001,"N_COORD97":2540040.2799999998,"ADDRESS":"和愛街２０號四樓之３","OBJECTID":646905},"geometry":{"x":170472.50999999978,"y":2540040.2799999993}},{"attributes":{"ID":646933,"DIS_CODE":0,"TOWNNAME":"仁德區","LI":"仁和里","LIN":"14鄰","STREET":"和愛街","SECT":" ","MAREA":" ","LANE":" ","ALLEY":" ","HOUSE_NO":"２０號四樓之５","E_COORD97":170472.51000000001,"N_COORD97":2540040.2799999998,"ADDRESS":"和愛街２０號四樓之５","OBJECTID":646906},"geometry":{"x":170472.50999999978,"y":2540040.2799999993}},{"attributes":{"ID":646934,"DIS_CODE":0,"TOWNNAME":"關廟區","LI":"深坑里","LIN":"12鄰","STREET":"深坑二街","SECT":" ","MAREA":" ","LANE":"３２巷","ALLEY":" ","HOUSE_NO":"６號","E_COORD97":181619.263546,"N_COORD97":2537643.3633500002,"ADDRESS":"深坑二街３２巷６號","OBJECTID":646907},"geometry":{"x":181619.26354600117,"y":2537643.3633470014}},{"attributes":{"ID":646935,"DIS_CODE":0,"TOWNNAME":"仁德區","LI":"仁和里","LIN":"14鄰","STREET":"和愛街","SECT":" ","MAREA":" ","LANE":" ","ALLEY":" ","HOUSE_NO":"２０號五樓之１","E_COORD97":170472.51000000001,"N_COORD97":2540040.2799999998,"ADDRESS":"和愛街２０號五樓之１","OBJECTID":646908},"geometry":{"x":170472.50999999978,"y":2540040.2799999993}},{"attributes":{"ID":646936,"DIS_CODE":0,"TOWNNAME":"仁德區","LI":"仁和里","LIN":"14鄰","STREET":"和愛街","SECT":" ","MAREA":" ","LANE":" ","ALLEY":" ","HOUSE_NO":"２０號五樓之２","E_COORD97":170472.51000000001,"N_COORD97":2540040.2799999998,"ADDRESS":"和愛街２０號五樓之２","OBJECTID":646909},"geometry":{"x":170472.50999999978,"y":2540040.2799999993}},{"attributes":{"ID":646937,"DIS_CODE":0,"TOWNNAME":"新營區","LI":"新南里","LIN":"13鄰","STREET":"長榮路","SECT":"二段","MAREA":" ","LANE":" ","ALLEY":" ","HOUSE_NO":"７８７號","E_COORD97":178458.94985999999,"N_COORD97":2579191.8160799998,"ADDRESS":"長榮路二段７８７號","OBJECTID":646910},"geometry":{"x":178458.94986000098,"y":2579191.8160800003}},{"attributes":{"ID":646938,"DIS_CODE":0,"TOWNNAME":"仁德區","LI":"仁和里","LIN":"14鄰","STREET":"和愛街","SECT":" ","MAREA":" ","LANE":" ","ALLEY":" ","HOUSE_NO":"２０號五樓之３","E_COORD97":170472.51000000001,"N_COORD97":2540040.2799999998,"ADDRESS":"和愛街２０號五樓之３","OBJECTID":646911},"geometry":{"x":170472.50999999978,"y":2540040.2799999993}},{"attributes":{"ID":646939,"DIS_CODE":0,"TOWNNAME":"仁德區","LI":"仁和里","LIN":"14鄰","STREET":"和愛街","SECT":" ","MAREA":" ","LANE":" ","ALLEY":" ","HOUSE_NO":"２０號五樓之５","E_COORD97":170472.51000000001,"N_COORD97":2540040.2799999998,"ADDRESS":"和愛街２０號五樓之５","OBJECTID":646912},"geometry":{"x":170472.50999999978,"y":2540040.2799999993}},{"attributes":{"ID":646940,"DIS_CODE":0,"TOWNNAME":"仁德區","LI":"新田里","LIN":"4鄰","STREET":"新田路","SECT":" ","MAREA":" ","LANE":" ","ALLEY":" ","HOUSE_NO":"１１３號","E_COORD97":174427.84855200001,"N_COORD97":2539236.6164899999,"ADDRESS":"新田路１１３號","OBJECTID":646913},"geometry":{"x":174427.84855200071,"y":2539236.6164849997}},{"attributes":{"ID":646941,"DIS_CODE":0,"TOWNNAME":"仁德區","LI":"仁和里","LIN":"14鄰","STREET":"和愛街","SECT":" ","MAREA":" ","LANE":" ","ALLEY":" ","HOUSE_NO":"２０號六樓之１","E_COORD97":170472.51000000001,"N_COORD97":2540040.2799999998,"ADDRESS":"和愛街２０號六樓之１","OBJECTID":646914},"geometry":{"x":170472.50999999978,"y":2540040.2799999993}},{"attributes":{"ID":646942,"DIS_CODE":0,"TOWNNAME":"仁德區","LI":"仁和里","LIN":"14鄰","STREET":"和愛街","SECT":" ","MAREA":" ","LANE":" ","ALLEY":" ","HOUSE_NO":"２０號六樓之２","E_COORD97":170472.51000000001,"N_COORD97":2540040.2799999998,"ADDRESS":"和愛街２０號六樓之２","OBJECTID":646915},"geometry":{"x":170472.50999999978,"y":2540040.2799999993}},{"attributes":{"ID":646943,"DIS_CODE":0,"TOWNNAME":"仁德區","LI":"仁和里","LIN":"14鄰","STREET":"和愛街","SECT":" ","MAREA":" ","LANE":" ","ALLEY":" ","HOUSE_NO":"２０號六樓之３","E_COORD97":170472.51000000001,"N_COORD97":2540040.2799999998,"ADDRESS":"和愛街２０號六樓之３","OBJECTID":646916},"geometry":{"x":170472.50999999978,"y":2540040.2799999993}},{"attributes":{"ID":646944,"DIS_CODE":0,"TOWNNAME":"仁德區","LI":"仁和里","LIN":"14鄰","STREET":"和愛街","SECT":" ","MAREA":" ","LANE":" ","ALLEY":" ","HOUSE_NO":"２０號六樓之５","E_COORD97":170472.51000000001,"N_COORD97":2540040.2799999998,"ADDRESS":"和愛街２０號六樓之５","OBJECTID":646917},"geometry":{"x":170472.50999999978,"y":2540040.2799999993}},{"attributes":{"ID":646945,"DIS_CODE":0,"TOWNNAME":"新營區","LI":"新南里","LIN":"13鄰","STREET":"長榮路","SECT":"二段","MAREA":" ","LANE":" ","ALLEY":" ","HOUSE_NO":"７９１號","E_COORD97":178453.22904000001,"N_COORD97":2579187.37108,"ADDRESS":"長榮路二段７９１號","OBJECTID":646918},"geometry":{"x":178453.22903999966,"y":2579187.3710800018}},{"attributes":{"ID":646946,"DIS_CODE":0,"TOWNNAME":"仁德區","LI":"仁和里","LIN":"14鄰","STREET":"和愛街","SECT":" ","MAREA":" ","LANE":" ","ALLEY":" ","HOUSE_NO":"２０號七樓之１","E_COORD97":170472.51000000001,"N_COORD97":2540040.2799999998,"ADDRESS":"和愛街２０號七樓之１","OBJECTID":646919},"geometry":{"x":170472.50999999978,"y":2540040.2799999993}},{"attributes":{"ID":646947,"DIS_CODE":0,"TOWNNAME":"仁德區","LI":"仁和里","LIN":"14鄰","STREET":"和愛街","SECT":" ","MAREA":" ","LANE":" ","ALLEY":" ","HOUSE_NO":"２０號七樓之２","E_COORD97":170472.51000000001,"N_COORD97":2540040.2799999998,"ADDRESS":"和愛街２０號七樓之２","OBJECTID":646920},"geometry":{"x":170472.50999999978,"y":2540040.2799999993}},{"attributes":{"ID":646948,"DIS_CODE":0,"TOWNNAME":"仁德區","LI":"仁和里","LIN":"14鄰","STREET":"和愛街","SECT":" ","MAREA":" ","LANE":" ","ALLEY":" ","HOUSE_NO":"２０號七樓之３","E_COORD97":170472.51000000001,"N_COORD97":2540040.2799999998,"ADDRESS":"和愛街２０號七樓之３","OBJECTID":646921},"geometry":{"x":170472.50999999978,"y":2540040.2799999993}},{"attributes":{"ID":646949,"DIS_CODE":0,"TOWNNAME":"仁德區","LI":"仁和里","LIN":"14鄰","STREET":"和愛街","SECT":" ","MAREA":" ","LANE":" ","ALLEY":" ","HOUSE_NO":"２０號七樓之５","E_COORD97":170472.51000000001,"N_COORD97":2540040.2799999998,"ADDRESS":"和愛街２０號七樓之５","OBJECTID":646922},"geometry":{"x":170472.50999999978,"y":2540040.2799999993}},{"attributes":{"ID":646950,"DIS_CODE":0,"TOWNNAME":"仁德區","LI":"仁和里","LIN":"14鄰","STREET":"和愛街","SECT":" ","MAREA":" ","LANE":" ","ALLEY":" ","HOUSE_NO":"２０號八樓之１","E_COORD97":170472.51000000001,"N_COORD97":2540040.2799999998,"ADDRESS":"和愛街２０號八樓之１","OBJECTID":646923},"geometry":{"x":170472.50999999978,"y":2540040.2799999993}},{"attributes":{"ID":646951,"DIS_CODE":0,"TOWNNAME":"仁德區","LI":"仁和里","LIN":"14鄰","STREET":"和愛街","SECT":" ","MAREA":" ","LANE":" ","ALLEY":" ","HOUSE_NO":"２０號八樓之２","E_COORD97":170472.51000000001,"N_COORD97":2540040.2799999998,"ADDRESS":"和愛街２０號八樓之２","OBJECTID":646924},"geometry":{"x":170472.50999999978,"y":2540040.2799999993}},{"attributes":{"ID":646952,"DIS_CODE":0,"TOWNNAME":"仁德區","LI":"中洲里","LIN":"11鄰","STREET":" ","SECT":" ","MAREA":"中洲","LANE":" ","ALLEY":" ","HOUSE_NO":"３１９號","E_COORD97":173301.52073700001,"N_COORD97":2534093.09968,"ADDRESS":"中洲３１９號","OBJECTID":646925},"geometry":{"x":173301.52073699981,"y":2534093.0996800009}},{"attributes":{"ID":646953,"DIS_CODE":0,"TOWNNAME":"仁德區","LI":"仁和里","LIN":"14鄰","STREET":"和愛街","SECT":" ","MAREA":" ","LANE":" ","ALLEY":" ","HOUSE_NO":"２０號八樓之３","E_COORD97":170472.51000000001,"N_COORD97":2540040.2799999998,"ADDRESS":"和愛街２０號八樓之３","OBJECTID":646926},"geometry":{"x":170472.50999999978,"y":2540040.2799999993}},{"attributes":{"ID":646954,"DIS_CODE":0,"TOWNNAME":"仁德區","LI":"仁和里","LIN":"14鄰","STREET":"和愛街","SECT":" ","MAREA":" ","LANE":" ","ALLEY":" ","HOUSE_NO":"２０號八樓之５","E_COORD97":170472.51000000001,"N_COORD97":2540040.2799999998,"ADDRESS":"和愛街２０號八樓之５","OBJECTID":646927},"geometry":{"x":170472.50999999978,"y":2540040.2799999993}},{"attributes":{"ID":646955,"DIS_CODE":0,"TOWNNAME":"仁德區","LI":"仁和里","LIN":"14鄰","STREET":"和愛街","SECT":" ","MAREA":" ","LANE":" ","ALLEY":" ","HOUSE_NO":"２０號九樓之１","E_COORD97":170472.51000000001,"N_COORD97":2540040.2799999998,"ADDRESS":"和愛街２０號九樓之１","OBJECTID":646928},"geometry":{"x":170472.50999999978,"y":2540040.2799999993}},{"attributes":{"ID":646956,"DIS_CODE":0,"TOWNNAME":"仁德區","LI":"仁和里","LIN":"14鄰","STREET":"和愛街","SECT":" ","MAREA":" ","LANE":" ","ALLEY":" ","HOUSE_NO":"２０號九樓之２","E_COORD97":170472.51000000001,"N_COORD97":2540040.2799999998,"ADDRESS":"和愛街２０號九樓之２","OBJECTID":646929},"geometry":{"x":170472.50999999978,"y":2540040.2799999993}},{"attributes":{"ID":646957,"DIS_CODE":0,"TOWNNAME":"仁德區","LI":"仁和里","LIN":"14鄰","STREET":"和愛街","SECT":" ","MAREA":" ","LANE":" ","ALLEY":" ","HOUSE_NO":"２０號九樓之３","E_COORD97":170472.51000000001,"N_COORD97":2540040.2799999998,"ADDRESS":"和愛街２０號九樓之３","OBJECTID":646930},"geometry":{"x":170472.50999999978,"y":2540040.2799999993}},{"attributes":{"ID":646958,"DIS_CODE":0,"TOWNNAME":"仁德區","LI":"仁和里","LIN":"14鄰","STREET":"和愛街","SECT":" ","MAREA":" ","LANE":" ","ALLEY":" ","HOUSE_NO":"２０號九樓之５","E_COORD97":170472.51000000001,"N_COORD97":2540040.2799999998,"ADDRESS":"和愛街２０號九樓之５","OBJECTID":646931},"geometry":{"x":170472.50999999978,"y":2540040.2799999993}},{"attributes":{"ID":646959,"DIS_CODE":0,"TOWNNAME":"仁德區","LI":"仁和里","LIN":"14鄰","STREET":"和愛街","SECT":" ","MAREA":" ","LANE":" ","ALLEY":" ","HOUSE_NO":"２０號十樓之１","E_COORD97":170472.51000000001,"N_COORD97":2540040.2799999998,"ADDRESS":"和愛街２０號十樓之１","OBJECTID":646932},"geometry":{"x":170472.50999999978,"y":2540040.2799999993}},{"attributes":{"ID":646960,"DIS_CODE":0,"TOWNNAME":"仁德區","LI":"仁和里","LIN":"14鄰","STREET":"和愛街","SECT":" ","MAREA":" ","LANE":" ","ALLEY":" ","HOUSE_NO":"２０號十樓之２","E_COORD97":170472.51000000001,"N_COORD97":2540040.2799999998,"ADDRESS":"和愛街２０號十樓之２","OBJECTID":646933},"geometry":{"x":170472.50999999978,"y":2540040.2799999993}},{"attributes":{"ID":646961,"DIS_CODE":0,"TOWNNAME":"仁德區","LI":"仁和里","LIN":"14鄰","STREET":"和愛街","SECT":" ","MAREA":" ","LANE":" ","ALLEY":" ","HOUSE_NO":"２０號十樓之３","E_COORD97":170472.51000000001,"N_COORD97":2540040.2799999998,"ADDRESS":"和愛街２０號十樓之３","OBJECTID":646934},"geometry":{"x":170472.50999999978,"y":2540040.2799999993}},{"attributes":{"ID":646962,"DIS_CODE":0,"TOWNNAME":"仁德區","LI":"仁和里","LIN":"14鄰","STREET":"和愛街","SECT":" ","MAREA":" ","LANE":" ","ALLEY":" ","HOUSE_NO":"２０號十樓之５","E_COORD97":170472.51000000001,"N_COORD97":2540040.2799999998,"ADDRESS":"和愛街２０號十樓之５","OBJECTID":646935},"geometry":{"x":170472.50999999978,"y":2540040.2799999993}},{"attributes":{"ID":646963,"DIS_CODE":0,"TOWNNAME":"北門區","LI":"錦湖里","LIN":"1鄰","STREET":" ","SECT":" ","MAREA":"渡子頭","LANE":" ","ALLEY":" ","HOUSE_NO":"４號之５","E_COORD97":164784.50347,"N_COORD97":2575802.02354,"ADDRESS":"渡子頭４號之５","OBJECTID":646936},"geometry":{"x":164784.50347000081,"y":2575802.0235399995}},{"attributes":{"ID":646964,"DIS_CODE":0,"TOWNNAME":"仁德區","LI":"仁和里","LIN":"14鄰","STREET":"和愛街","SECT":" ","MAREA":" ","LANE":" ","ALLEY":" ","HOUSE_NO":"２０號十一樓之１","E_COORD97":170472.51000000001,"N_COORD97":2540040.2799999998,"ADDRESS":"和愛街２０號十一樓之１","OBJECTID":646937},"geometry":{"x":170472.50999999978,"y":2540040.2799999993}},{"attributes":{"ID":646965,"DIS_CODE":0,"TOWNNAME":"仁德區","LI":"仁和里","LIN":"14鄰","STREET":"和愛街","SECT":" ","MAREA":" ","LANE":" ","ALLEY":" ","HOUSE_NO":"２０號十一樓之２","E_COORD97":170472.51000000001,"N_COORD97":2540040.2799999998,"ADDRESS":"和愛街２０號十一樓之２","OBJECTID":646938},"geometry":{"x":170472.50999999978,"y":2540040.2799999993}},{"attributes":{"ID":646966,"DIS_CODE":0,"TOWNNAME":"仁德區","LI":"仁和里","LIN":"14鄰","STREET":"和愛街","SECT":" ","MAREA":" ","LANE":" ","ALLEY":" ","HOUSE_NO":"２０號十一樓之３","E_COORD97":170472.51000000001,"N_COORD97":2540040.2799999998,"ADDRESS":"和愛街２０號十一樓之３","OBJECTID":646939},"geometry":{"x":170472.50999999978,"y":2540040.2799999993}},{"attributes":{"ID":646967,"DIS_CODE":0,"TOWNNAME":"仁德區","LI":"仁和里","LIN":"14鄰","STREET":"和愛街","SECT":" ","MAREA":" ","LANE":" ","ALLEY":" ","HOUSE_NO":"２０號十一樓之５","E_COORD97":170472.51000000001,"N_COORD97":2540040.2799999998,"ADDRESS":"和愛街２０號十一樓之５","OBJECTID":646940},"geometry":{"x":170472.50999999978,"y":2540040.2799999993}},{"attributes":{"ID":646968,"DIS_CODE":0,"TOWNNAME":"仁德區","LI":"仁和里","LIN":"14鄰","STREET":"和愛街","SECT":" ","MAREA":" ","LANE":" ","ALLEY":" ","HOUSE_NO":"２０號十二樓之１","E_COORD97":170472.51000000001,"N_COORD97":2540040.2799999998,"ADDRESS":"和愛街２０號十二樓之１","OBJECTID":646941},"geometry":{"x":170472.50999999978,"y":2540040.2799999993}},{"attributes":{"ID":646969,"DIS_CODE":0,"TOWNNAME":"仁德區","LI":"仁和里","LIN":"14鄰","STREET":"和愛街","SECT":" ","MAREA":" ","LANE":" ","ALLEY":" ","HOUSE_NO":"２０號十二樓之２","E_COORD97":170472.51000000001,"N_COORD97":2540040.2799999998,"ADDRESS":"和愛街２０號十二樓之２","OBJECTID":646942},"geometry":{"x":170472.50999999978,"y":2540040.2799999993}},{"attributes":{"ID":646970,"DIS_CODE":0,"TOWNNAME":"仁德區","LI":"仁和里","LIN":"14鄰","STREET":"和愛街","SECT":" ","MAREA":" ","LANE":" ","ALLEY":" ","HOUSE_NO":"２０號十二樓之３","E_COORD97":170472.51000000001,"N_COORD97":2540040.2799999998,"ADDRESS":"和愛街２０號十二樓之３","OBJECTID":646943},"geometry":{"x":170472.50999999978,"y":2540040.2799999993}},{"attributes":{"ID":646971,"DIS_CODE":0,"TOWNNAME":"仁德區","LI":"仁和里","LIN":"14鄰","STREET":"和愛街","SECT":" ","MAREA":" ","LANE":" ","ALLEY":" ","HOUSE_NO":"２０號十二樓之５","E_COORD97":170472.51000000001,"N_COORD97":2540040.2799999998,"ADDRESS":"和愛街２０號十二樓之５","OBJECTID":646944},"geometry":{"x":170472.50999999978,"y":2540040.2799999993}},{"attributes":{"ID":646972,"DIS_CODE":0,"TOWNNAME":"仁德區","LI":"仁和里","LIN":"14鄰","STREET":"和愛街","SECT":" ","MAREA":" ","LANE":" ","ALLEY":" ","HOUSE_NO":"２０號十三樓之１","E_COORD97":170472.51000000001,"N_COORD97":2540040.2799999998,"ADDRESS":"和愛街２０號十三樓之１","OBJECTID":646945},"geometry":{"x":170472.50999999978,"y":2540040.2799999993}},{"attributes":{"ID":646973,"DIS_CODE":0,"TOWNNAME":"仁德區","LI":"仁和里","LIN":"14鄰","STREET":"和愛街","SECT":" ","MAREA":" ","LANE":" ","ALLEY":" ","HOUSE_NO":"２０號十三樓之２","E_COORD97":170472.51000000001,"N_COORD97":2540040.2799999998,"ADDRESS":"和愛街２０號十三樓之２","OBJECTID":646946},"geometry":{"x":170472.50999999978,"y":2540040.2799999993}},{"attributes":{"ID":646974,"DIS_CODE":0,"TOWNNAME":"仁德區","LI":"仁和里","LIN":"14鄰","STREET":"和愛街","SECT":" ","MAREA":" ","LANE":" ","ALLEY":" ","HOUSE_NO":"２０號十三樓之３","E_COORD97":170472.51000000001,"N_COORD97":2540040.2799999998,"ADDRESS":"和愛街２０號十三樓之３","OBJECTID":646947},"geometry":{"x":170472.50999999978,"y":2540040.2799999993}},{"attributes":{"ID":646975,"DIS_CODE":0,"TOWNNAME":"仁德區","LI":"仁和里","LIN":"14鄰","STREET":"和愛街","SECT":" ","MAREA":" ","LANE":" ","ALLEY":" ","HOUSE_NO":"２０號十三樓之５","E_COORD97":170472.51000000001,"N_COORD97":2540040.2799999998,"ADDRESS":"和愛街２０號十三樓之５","OBJECTID":646948},"geometry":{"x":170472.50999999978,"y":2540040.2799999993}},{"attributes":{"ID":646976,"DIS_CODE":0,"TOWNNAME":"仁德區","LI":"仁和里","LIN":"14鄰","STREET":"和愛街","SECT":" ","MAREA":" ","LANE":" ","ALLEY":" ","HOUSE_NO":"２０號十四樓之１","E_COORD97":170472.51000000001,"N_COORD97":2540040.2799999998,"ADDRESS":"和愛街２０號十四樓之１","OBJECTID":646949},"geometry":{"x":170472.50999999978,"y":2540040.2799999993}},{"attributes":{"ID":646977,"DIS_CODE":0,"TOWNNAME":"仁德區","LI":"仁和里","LIN":"14鄰","STREET":"和愛街","SECT":" ","MAREA":" ","LANE":" ","ALLEY":" ","HOUSE_NO":"２０號十四樓之２","E_COORD97":170472.51000000001,"N_COORD97":2540040.2799999998,"ADDRESS":"和愛街２０號十四樓之２","OBJECTID":646950},"geometry":{"x":170472.50999999978,"y":2540040.2799999993}},{"attributes":{"ID":646978,"DIS_CODE":0,"TOWNNAME":"仁德區","LI":"仁和里","LIN":"14鄰","STREET":"和愛街","SECT":" ","MAREA":" ","LANE":" ","ALLEY":" ","HOUSE_NO":"２０號十四樓之３","E_COORD97":170472.51000000001,"N_COORD97":2540040.2799999998,"ADDRESS":"和愛街２０號十四樓之３","OBJECTID":646951},"geometry":{"x":170472.50999999978,"y":2540040.2799999993}},{"attributes":{"ID":646979,"DIS_CODE":0,"TOWNNAME":"仁德區","LI":"仁和里","LIN":"14鄰","STREET":"和愛街","SECT":" ","MAREA":" ","LANE":" ","ALLEY":" ","HOUSE_NO":"２０號十四樓之５","E_COORD97":170472.51000000001,"N_COORD97":2540040.2799999998,"ADDRESS":"和愛街２０號十四樓之５","OBJECTID":646952},"geometry":{"x":170472.50999999978,"y":2540040.2799999993}},{"attributes":{"ID":646980,"DIS_CODE":0,"TOWNNAME":"仁德區","LI":"仁義里","LIN":"1鄰","STREET":"義林路","SECT":" ","MAREA":" ","LANE":"１６８巷","ALLEY":" ","HOUSE_NO":"５號","E_COORD97":174563.77533199999,"N_COORD97":2541067.91487,"ADDRESS":"義林路１６８巷５號","OBJECTID":646953},"geometry":{"x":174563.77533200197,"y":2541067.9148720037}},{"attributes":{"ID":646981,"DIS_CODE":0,"TOWNNAME":"仁德區","LI":"新田里","LIN":"4鄰","STREET":"新田路","SECT":" ","MAREA":" ","LANE":"１７１巷","ALLEY":" ","HOUSE_NO":"６０號","E_COORD97":174401.37571200001,"N_COORD97":2539344.5664300001,"ADDRESS":"新田路１７１巷６０號","OBJECTID":646954},"geometry":{"x":174401.37571199983,"y":2539344.5664270017}},{"attributes":{"ID":646982,"DIS_CODE":0,"TOWNNAME":"東山區","LI":"南勢里","LIN":"19鄰","STREET":" ","SECT":" ","MAREA":"大洋","LANE":" ","ALLEY":" ","HOUSE_NO":"４０之８號","E_COORD97":199278.154713,"N_COORD97":2573471.31042,"ADDRESS":"大洋４０之８號","OBJECTID":646955},"geometry":{"x":199278.15471300017,"y":2573471.3104160018}},{"attributes":{"ID":646983,"DIS_CODE":0,"TOWNNAME":"關廟區","LI":"深坑里","LIN":"12鄰","STREET":"深坑二街","SECT":" ","MAREA":" ","LANE":"６８巷","ALLEY":" ","HOUSE_NO":"８７號","E_COORD97":181220.519955,"N_COORD97":2537243.4723100001,"ADDRESS":"深坑二街６８巷８７號","OBJECTID":646956},"geometry":{"x":181220.51995499991,"y":2537243.4723129999}},{"attributes":{"ID":646984,"DIS_CODE":0,"TOWNNAME":"仁德區","LI":"中洲里","LIN":"11鄰","STREET":" ","SECT":" ","MAREA":"中洲","LANE":" ","ALLEY":" ","HOUSE_NO":"３２５號","E_COORD97":173299.613962,"N_COORD97":2534118.4996699998,"ADDRESS":"中洲３２５號","OBJECTID":646957},"geometry":{"x":173299.61396200024,"y":2534118.4996660016}},{"attributes":{"ID":646985,"DIS_CODE":0,"TOWNNAME":"仁德區","LI":"新田里","LIN":"4鄰","STREET":"新田路","SECT":" ","MAREA":" ","LANE":" ","ALLEY":" ","HOUSE_NO":"１８１號","E_COORD97":174480.582448,"N_COORD97":2539424.9997200002,"ADDRESS":"新田路１８１號","OBJECTID":646958},"geometry":{"x":174480.58244800102,"y":2539424.9997170009}},{"attributes":{"ID":646986,"DIS_CODE":0,"TOWNNAME":"仁德區","LI":"中洲里","LIN":"11鄰","STREET":" ","SECT":" ","MAREA":"中洲","LANE":" ","ALLEY":" ","HOUSE_NO":"３２６號","E_COORD97":173296.22414100001,"N_COORD97":2534130.14133,"ADDRESS":"中洲３２６號","OBJECTID":646959},"geometry":{"x":173296.2241410017,"y":2534130.1413270012}},{"attributes":{"ID":646987,"DIS_CODE":0,"TOWNNAME":"仁德區","LI":"中洲里","LIN":"11鄰","STREET":" ","SECT":" ","MAREA":"中洲","LANE":" ","ALLEY":" ","HOUSE_NO":"３２８號","E_COORD97":173285.63094800001,"N_COORD97":2534125.6963300002,"ADDRESS":"中洲３２８號","OBJECTID":646960},"geometry":{"x":173285.63094800152,"y":2534125.6963290013}},{"attributes":{"ID":646988,"DIS_CODE":0,"TOWNNAME":"仁德區","LI":"中洲里","LIN":"11鄰","STREET":" ","SECT":" ","MAREA":"中洲","LANE":" ","ALLEY":" ","HOUSE_NO":"３２９號","E_COORD97":173277.15639399999,"N_COORD97":2534139.8779899999,"ADDRESS":"中洲３２９號","OBJECTID":646961},"geometry":{"x":173277.1563940011,"y":2534139.8779880013}},{"attributes":{"ID":646989,"DIS_CODE":0,"TOWNNAME":"仁德區","LI":"中洲里","LIN":"11鄰","STREET":" ","SECT":" ","MAREA":"中洲","LANE":" ","ALLEY":" ","HOUSE_NO":"３３０號","E_COORD97":173291.98686400001,"N_COORD97":2534149.82632,"ADDRESS":"中洲３３０號","OBJECTID":646962},"geometry":{"x":173291.98686400149,"y":2534149.8263160009}},{"attributes":{"ID":646990,"DIS_CODE":0,"TOWNNAME":"東山區","LI":"南勢里","LIN":"19鄰","STREET":" ","SECT":" ","MAREA":"大洋","LANE":" ","ALLEY":" ","HOUSE_NO":"４０號","E_COORD97":198133.61264400001,"N_COORD97":2573562.1153699998,"ADDRESS":"大洋４０號","OBJECTID":646963},"geometry":{"x":198133.61264400184,"y":2573562.1153669991}},{"attributes":{"ID":646991,"DIS_CODE":0,"TOWNNAME":"東山區","LI":"南勢里","LIN":"4鄰","STREET":" ","SECT":" ","MAREA":"大洋","LANE":" ","ALLEY":" ","HOUSE_NO":"４０號","E_COORD97":198133.61264400001,"N_COORD97":2573562.1153699998,"ADDRESS":"大洋４０號","OBJECTID":646964},"geometry":{"x":198133.61264400184,"y":2573562.1153669991}},{"attributes":{"ID":646992,"DIS_CODE":0,"TOWNNAME":"北區","LI":"大山里","LIN":"10鄰","STREET":"和緯路","SECT":"一段","MAREA":" ","LANE":" ","ALLEY":" ","HOUSE_NO":"１８３號","E_COORD97":169326.094622,"N_COORD97":2545605.0414900002,"ADDRESS":"和緯路一段１８３號","OBJECTID":646965},"geometry":{"x":169326.09462200012,"y":2545605.0414860006}},{"attributes":{"ID":646993,"DIS_CODE":0,"TOWNNAME":"仁德區","LI":"新田里","LIN":"4鄰","STREET":"新田路","SECT":" ","MAREA":" ","LANE":" ","ALLEY":" ","HOUSE_NO":"１９１之１號","E_COORD97":174479.52353400001,"N_COORD97":2539568.2979700002,"ADDRESS":"新田路１９１之１號","OBJECTID":646966},"geometry":{"x":174479.52353400178,"y":2539568.2979730014}},{"attributes":{"ID":646994,"DIS_CODE":0,"TOWNNAME":"北區","LI":"大山里","LIN":"10鄰","STREET":"和緯路","SECT":"一段","MAREA":" ","LANE":" ","ALLEY":" ","HOUSE_NO":"１８１號","E_COORD97":169330.54330600001,"N_COORD97":2545604.40649,"ADDRESS":"和緯路一段１８１號","OBJECTID":646967},"geometry":{"x":169330.54330600053,"y":2545604.4064860009}},{"attributes":{"ID":646995,"DIS_CODE":0,"TOWNNAME":"東山區","LI":"南勢里","LIN":"4鄰","STREET":" ","SECT":" ","MAREA":"大洋","LANE":" ","ALLEY":" ","HOUSE_NO":"４０號之１０","E_COORD97":199251.04238999999,"N_COORD97":2573457.1287500001,"ADDRESS":"大洋４０號之１０","OBJECTID":646968},"geometry":{"x":199251.04239000101,"y":2573457.128750002}},{"attributes":{"ID":646996,"DIS_CODE":0,"TOWNNAME":"仁德區","LI":"中洲里","LIN":"11鄰","STREET":" ","SECT":" ","MAREA":"中洲","LANE":" ","ALLEY":" ","HOUSE_NO":"３３４號","E_COORD97":173263.120414,"N_COORD97":2534178.5071299998,"ADDRESS":"中洲３３４號","OBJECTID":646969},"geometry":{"x":173263.120414,"y":2534178.5071340017}},{"attributes":{"ID":646997,"DIS_CODE":0,"TOWNNAME":"北區","LI":"大山里","LIN":"10鄰","STREET":"和緯路","SECT":"一段","MAREA":" ","LANE":" ","ALLEY":" ","HOUSE_NO":"１７９號","E_COORD97":169334.356463,"N_COORD97":2545602.9248199998,"ADDRESS":"和緯路一段１７９號","OBJECTID":646970},"geometry":{"x":169334.35646300111,"y":2545602.9248200003}},{"attributes":{"ID":646998,"DIS_CODE":0,"TOWNNAME":"東山區","LI":"南勢里","LIN":"20鄰","STREET":" ","SECT":" ","MAREA":"大洋","LANE":" ","ALLEY":" ","HOUSE_NO":"４０號之１０","E_COORD97":199251.04238999999,"N_COORD97":2573457.1287500001,"ADDRESS":"大洋４０號之１０","OBJECTID":646971},"geometry":{"x":199251.04239000101,"y":2573457.128750002}},{"attributes":{"ID":646999,"DIS_CODE":0,"TOWNNAME":"仁德區","LI":"中洲里","LIN":"11鄰","STREET":" ","SECT":" ","MAREA":"中洲","LANE":" ","ALLEY":" ","HOUSE_NO":"３３４號之１","E_COORD97":173262.48482300001,"N_COORD97":2534187.3971299999,"ADDRESS":"中洲３３４號之１","OBJECTID":646972},"geometry":{"x":173262.48482300155,"y":2534187.3971290011}},{"attributes":{"ID":647000,"DIS_CODE":0,"TOWNNAME":"北區","LI":"大山里","LIN":"10鄰","STREET":"和緯路","SECT":"一段","MAREA":" ","LANE":" ","ALLEY":" ","HOUSE_NO":"１７７號","E_COORD97":169336.898568,"N_COORD97":2545600.5964899999,"ADDRESS":"和緯路一段１７７號","OBJECTID":646973},"geometry":{"x":169336.89856800064,"y":2545600.5964880027}},{"attributes":{"ID":647001,"DIS_CODE":0,"TOWNNAME":"仁德區","LI":"仁和里","LIN":"15鄰","STREET":"和愛街","SECT":" ","MAREA":" ","LANE":" ","ALLEY":" ","HOUSE_NO":"２２號一樓之２","E_COORD97":170453.64999999999,"N_COORD97":2540084.0899999999,"ADDRESS":"和愛街２２號一樓之２","OBJECTID":646974},"geometry":{"x":170453.64999999944,"y":2540084.0900000036}},{"attributes":{"ID":647002,"DIS_CODE":0,"TOWNNAME":"仁德區","LI":"仁和里","LIN":"15鄰","STREET":"和愛街","SECT":" ","MAREA":" ","LANE":" ","ALLEY":" ","HOUSE_NO":"２２號二樓之１","E_COORD97":170453.64999999999,"N_COORD97":2540084.0899999999,"ADDRESS":"和愛街２２號二樓之１","OBJECTID":646975},"geometry":{"x":170453.64999999944,"y":2540084.0900000036}},{"attributes":{"ID":647003,"DIS_CODE":0,"TOWNNAME":"仁德區","LI":"仁和里","LIN":"15鄰","STREET":"和愛街","SECT":" ","MAREA":" ","LANE":" ","ALLEY":" ","HOUSE_NO":"２２號二樓之２","E_COORD97":170453.64999999999,"N_COORD97":2540084.0899999999,"ADDRESS":"和愛街２２號二樓之２","OBJECTID":646976},"geometry":{"x":170453.64999999944,"y":2540084.0900000036}},{"attributes":{"ID":647004,"DIS_CODE":0,"TOWNNAME":"仁德區","LI":"仁和里","LIN":"15鄰","STREET":"和愛街","SECT":" ","MAREA":" ","LANE":" ","ALLEY":" ","HOUSE_NO":"２２號二樓之３","E_COORD97":170453.64999999999,"N_COORD97":2540084.0899999999,"ADDRESS":"和愛街２２號二樓之３","OBJECTID":646977},"geometry":{"x":170453.64999999944,"y":2540084.0900000036}},{"attributes":{"ID":647005,"DIS_CODE":0,"TOWNNAME":"仁德區","LI":"仁和里","LIN":"15鄰","STREET":"和愛街","SECT":" ","MAREA":" ","LANE":" ","ALLEY":" ","HOUSE_NO":"２２號二樓之５","E_COORD97":170453.64999999999,"N_COORD97":2540084.0899999999,"ADDRESS":"和愛街２２號二樓之５","OBJECTID":646978},"geometry":{"x":170453.64999999944,"y":2540084.0900000036}},{"attributes":{"ID":647006,"DIS_CODE":0,"TOWNNAME":"仁德區","LI":"仁和里","LIN":"15鄰","STREET":"和愛街","SECT":" ","MAREA":" ","LANE":" ","ALLEY":" ","HOUSE_NO":"２２號三樓之１","E_COORD97":170453.64999999999,"N_COORD97":2540084.0899999999,"ADDRESS":"和愛街２２號三樓之１","OBJECTID":646979},"geometry":{"x":170453.64999999944,"y":2540084.0900000036}},{"attributes":{"ID":647007,"DIS_CODE":0,"TOWNNAME":"仁德區","LI":"仁和里","LIN":"15鄰","STREET":"和愛街","SECT":" ","MAREA":" ","LANE":" ","ALLEY":" ","HOUSE_NO":"２２號三樓之２","E_COORD97":170453.64999999999,"N_COORD97":2540084.0899999999,"ADDRESS":"和愛街２２號三樓之２","OBJECTID":646980},"geometry":{"x":170453.64999999944,"y":2540084.0900000036}},{"attributes":{"ID":647008,"DIS_CODE":0,"TOWNNAME":"東山區","LI":"南勢里","LIN":"20鄰","STREET":" ","SECT":" ","MAREA":"大洋","LANE":" ","ALLEY":" ","HOUSE_NO":"４１號之１０","E_COORD97":199173.83585,"N_COORD97":2572259.9427299998,"ADDRESS":"大洋４１號之１０","OBJECTID":646981},"geometry":{"x":199173.83585000131,"y":2572259.9427300021}},{"attributes":{"ID":647009,"DIS_CODE":0,"TOWNNAME":"仁德區","LI":"仁和里","LIN":"15鄰","STREET":"和愛街","SECT":" ","MAREA":" ","LANE":" ","ALLEY":" ","HOUSE_NO":"２２號三樓之３","E_COORD97":170453.64999999999,"N_COORD97":2540084.0899999999,"ADDRESS":"和愛街２２號三樓之３","OBJECTID":646982},"geometry":{"x":170453.64999999944,"y":2540084.0900000036}},{"attributes":{"ID":647010,"DIS_CODE":0,"TOWNNAME":"關廟區","LI":"深坑里","LIN":"12鄰","STREET":"深坑二街","SECT":" ","MAREA":" ","LANE":"６８巷","ALLEY":" ","HOUSE_NO":"１００號","E_COORD97":181050.386532,"N_COORD97":2537123.1398800001,"ADDRESS":"深坑二街６８巷１００號","OBJECTID":646983},"geometry":{"x":181050.3865320012,"y":2537123.1398780011}},{"attributes":{"ID":647011,"DIS_CODE":0,"TOWNNAME":"仁德區","LI":"仁和里","LIN":"15鄰","STREET":"和愛街","SECT":" ","MAREA":" ","LANE":" ","ALLEY":" ","HOUSE_NO":"２２號三樓之５","E_COORD97":170453.64999999999,"N_COORD97":2540084.0899999999,"ADDRESS":"和愛街２２號三樓之５","OBJECTID":646984},"geometry":{"x":170453.64999999944,"y":2540084.0900000036}},{"attributes":{"ID":647012,"DIS_CODE":0,"TOWNNAME":"仁德區","LI":"仁和里","LIN":"15鄰","STREET":"和愛街","SECT":" ","MAREA":" ","LANE":" ","ALLEY":" ","HOUSE_NO":"２２號四樓之１","E_COORD97":170453.64999999999,"N_COORD97":2540084.0899999999,"ADDRESS":"和愛街２２號四樓之１","OBJECTID":646985},"geometry":{"x":170453.64999999944,"y":2540084.0900000036}},{"attributes":{"ID":647013,"DIS_CODE":0,"TOWNNAME":"仁德區","LI":"仁和里","LIN":"15鄰","STREET":"和愛街","SECT":" ","MAREA":" ","LANE":" ","ALLEY":" ","HOUSE_NO":"２２號四樓之２","E_COORD97":170453.64999999999,"N_COORD97":2540084.0899999999,"ADDRESS":"和愛街２２號四樓之２","OBJECTID":646986},"geometry":{"x":170453.64999999944,"y":2540084.0900000036}},{"attributes":{"ID":647014,"DIS_CODE":0,"TOWNNAME":"仁德區","LI":"仁和里","LIN":"15鄰","STREET":"和愛街","SECT":" ","MAREA":" ","LANE":" ","ALLEY":" ","HOUSE_NO":"２２號四樓之３","E_COORD97":170453.64999999999,"N_COORD97":2540084.0899999999,"ADDRESS":"和愛街２２號四樓之３","OBJECTID":646987},"geometry":{"x":170453.64999999944,"y":2540084.0900000036}},{"attributes":{"ID":647015,"DIS_CODE":0,"TOWNNAME":"仁德區","LI":"仁和里","LIN":"15鄰","STREET":"和愛街","SECT":" ","MAREA":" ","LANE":" ","ALLEY":" ","HOUSE_NO":"２２號四樓之５","E_COORD97":170453.64999999999,"N_COORD97":2540084.0899999999,"ADDRESS":"和愛街２２號四樓之５","OBJECTID":646988},"geometry":{"x":170453.64999999944,"y":2540084.0900000036}},{"attributes":{"ID":647016,"DIS_CODE":0,"TOWNNAME":"關廟區","LI":"深坑里","LIN":"12鄰","STREET":"深坑二街","SECT":" ","MAREA":" ","LANE":"６８巷","ALLEY":" ","HOUSE_NO":"１３５號","E_COORD97":181129.62675699999,"N_COORD97":2537079.3248999999,"ADDRESS":"深坑二街６８巷１３５號","OBJECTID":646989},"geometry":{"x":181129.62675700057,"y":2537079.3249009997}},{"attributes":{"ID":647017,"DIS_CODE":0,"TOWNNAME":"仁德區","LI":"仁和里","LIN":"15鄰","STREET":"和愛街","SECT":" ","MAREA":" ","LANE":" ","ALLEY":" ","HOUSE_NO":"２２號五樓之１","E_COORD97":170453.64999999999,"N_COORD97":2540084.0899999999,"ADDRESS":"和愛街２２號五樓之１","OBJECTID":646990},"geometry":{"x":170453.64999999944,"y":2540084.0900000036}},{"attributes":{"ID":647018,"DIS_CODE":0,"TOWNNAME":"仁德區","LI":"仁和里","LIN":"15鄰","STREET":"和愛街","SECT":" ","MAREA":" ","LANE":" ","ALLEY":" ","HOUSE_NO":"２２號五樓之２","E_COORD97":170453.64999999999,"N_COORD97":2540084.0899999999,"ADDRESS":"和愛街２２號五樓之２","OBJECTID":646991},"geometry":{"x":170453.64999999944,"y":2540084.0900000036}},{"attributes":{"ID":647019,"DIS_CODE":0,"TOWNNAME":"仁德區","LI":"仁和里","LIN":"15鄰","STREET":"和愛街","SECT":" ","MAREA":" ","LANE":" ","ALLEY":" ","HOUSE_NO":"２２號五樓之３","E_COORD97":170453.64999999999,"N_COORD97":2540084.0899999999,"ADDRESS":"和愛街２２號五樓之３","OBJECTID":646992},"geometry":{"x":170453.64999999944,"y":2540084.0900000036}},{"attributes":{"ID":647020,"DIS_CODE":0,"TOWNNAME":"仁德區","LI":"仁和里","LIN":"15鄰","STREET":"和愛街","SECT":" ","MAREA":" ","LANE":" ","ALLEY":" ","HOUSE_NO":"２２號五樓之５","E_COORD97":170453.64999999999,"N_COORD97":2540084.0899999999,"ADDRESS":"和愛街２２號五樓之５","OBJECTID":646993},"geometry":{"x":170453.64999999944,"y":2540084.0900000036}},{"attributes":{"ID":647021,"DIS_CODE":0,"TOWNNAME":"仁德區","LI":"中洲里","LIN":"11鄰","STREET":" ","SECT":" ","MAREA":"中洲","LANE":" ","ALLEY":" ","HOUSE_NO":"３３３號","E_COORD97":173293.41694,"N_COORD97":2534174.6971300002,"ADDRESS":"中洲３３３號","OBJECTID":646994},"geometry":{"x":173293.41693999991,"y":2534174.6971300021}},{"attributes":{"ID":647022,"DIS_CODE":0,"TOWNNAME":"仁德區","LI":"仁和里","LIN":"15鄰","STREET":"和愛街","SECT":" ","MAREA":" ","LANE":" ","ALLEY":" ","HOUSE_NO":"２２號六樓之１","E_COORD97":170453.64999999999,"N_COORD97":2540084.0899999999,"ADDRESS":"和愛街２２號六樓之１","OBJECTID":646995},"geometry":{"x":170453.64999999944,"y":2540084.0900000036}},{"attributes":{"ID":647023,"DIS_CODE":0,"TOWNNAME":"仁德區","LI":"仁和里","LIN":"15鄰","STREET":"和愛街","SECT":" ","MAREA":" ","LANE":" ","ALLEY":" ","HOUSE_NO":"２２號六樓之２","E_COORD97":170453.64999999999,"N_COORD97":2540084.0899999999,"ADDRESS":"和愛街２２號六樓之２","OBJECTID":646996},"geometry":{"x":170453.64999999944,"y":2540084.0900000036}},{"attributes":{"ID":647024,"DIS_CODE":0,"TOWNNAME":"仁德區","LI":"仁和里","LIN":"15鄰","STREET":"和愛街","SECT":" ","MAREA":" ","LANE":" ","ALLEY":" ","HOUSE_NO":"２２號六樓之３","E_COORD97":170453.64999999999,"N_COORD97":2540084.0899999999,"ADDRESS":"和愛街２２號六樓之３","OBJECTID":646997},"geometry":{"x":170453.64999999944,"y":2540084.0900000036}},{"attributes":{"ID":647025,"DIS_CODE":0,"TOWNNAME":"仁德區","LI":"仁和里","LIN":"15鄰","STREET":"和愛街","SECT":" ","MAREA":" ","LANE":" ","ALLEY":" ","HOUSE_NO":"２２號六樓之５","E_COORD97":170453.64999999999,"N_COORD97":2540084.0899999999,"ADDRESS":"和愛街２２號六樓之５","OBJECTID":646998},"geometry":{"x":170453.64999999944,"y":2540084.0900000036}},{"attributes":{"ID":647026,"DIS_CODE":0,"TOWNNAME":"仁德區","LI":"仁和里","LIN":"15鄰","STREET":"和愛街","SECT":" ","MAREA":" ","LANE":" ","ALLEY":" ","HOUSE_NO":"２２號七樓之１","E_COORD97":170453.64999999999,"N_COORD97":2540084.0899999999,"ADDRESS":"和愛街２２號七樓之１","OBJECTID":646999},"geometry":{"x":170453.64999999944,"y":2540084.0900000036}},{"attributes":{"ID":647027,"DIS_CODE":0,"TOWNNAME":"仁德區","LI":"新田里","LIN":"4鄰","STREET":"新田路","SECT":" ","MAREA":" ","LANE":" ","ALLEY":" ","HOUSE_NO":"１９６之１號","E_COORD97":174515.10303,"N_COORD97":2539348.1647600001,"ADDRESS":"新田路１９６之１號","OBJECTID":647000},"geometry":{"x":174515.10302999988,"y":2539348.1647580005}}]}