{"displayFieldName":"TOWNNAME","fieldAliases":{"ID":"ID","DIS_CODE":"DIS_CODE","TOWNNAME":"TOWNNAME","LI":"LI","LIN":"LIN","STREET":"STREET","SECT":"SECT","MAREA":"MAREA","LANE":"LANE","ALLEY":"ALLEY","HOUSE_NO":"HOUSE_NO","E_COORD97":"E_COORD97","N_COORD97":"N_COORD97","ADDRESS":"ADDRESS","OBJECTID":"OBJECTID"},"geometryType":"esriGeometryPoint","spatialReference":{"wkid":102443,"latestWkid":3826},"fields":[{"name":"ID","type":"esriFieldTypeDouble","alias":"ID"},{"name":"DIS_CODE","type":"esriFieldTypeInteger","alias":"DIS_CODE"},{"name":"TOWNNAME","type":"esriFieldTypeString","alias":"TOWNNAME","length":8},{"name":"LI","type":"esriFieldTypeString","alias":"LI","length":8},{"name":"LIN","type":"esriFieldTypeString","alias":"LIN","length":12},{"name":"STREET","type":"esriFieldTypeString","alias":"STREET","length":20},{"name":"SECT","type":"esriFieldTypeString","alias":"SECT","length":8},{"name":"MAREA","type":"esriFieldTypeString","alias":"MAREA","length":12},{"name":"LANE","type":"esriFieldTypeString","alias":"LANE","length":10},{"name":"ALLEY","type":"esriFieldTypeString","alias":"ALLEY","length":10},{"name":"HOUSE_NO","type":"esriFieldTypeString","alias":"HOUSE_NO","length":20},{"name":"E_COORD97","type":"esriFieldTypeDouble","alias":"E_COORD97"},{"name":"N_COORD97","type":"esriFieldTypeDouble","alias":"N_COORD97"},{"name":"ADDRESS","type":"esriFieldTypeString","alias":"ADDRESS","length":50},{"name":"OBJECTID","type":"esriFieldTypeOID","alias":"OBJECTID"}],"features":[{"attributes":{"ID":161002,"DIS_CODE":0,"TOWNNAME":"安南區","LI":"國安里","LIN":"1鄰","STREET":"國安街","SECT":" ","MAREA":" ","LANE":"１５６巷","ALLEY":"１５弄","HOUSE_NO":"５之７號","E_COORD97":166666.98999999999,"N_COORD97":2546995.04,"ADDRESS":"國安街１５６巷１５弄５之７號","OBJECTID":161001},"geometry":{"x":166666.99000000022,"y":2546995.0399999991}},{"attributes":{"ID":161003,"DIS_CODE":0,"TOWNNAME":"安南區","LI":"國安里","LIN":"1鄰","STREET":"國安街","SECT":" ","MAREA":" ","LANE":"１５６巷","ALLEY":"１５弄","HOUSE_NO":"５之８號","E_COORD97":166660.79999999999,"N_COORD97":2546994.8799999999,"ADDRESS":"國安街１５６巷１５弄５之８號","OBJECTID":161002},"geometry":{"x":166660.80000000075,"y":2546994.8800000008}},{"attributes":{"ID":161004,"DIS_CODE":0,"TOWNNAME":"大內區","LI":"環湖里","LIN":"5鄰","STREET":" ","SECT":" ","MAREA":"環湖","LANE":" ","ALLEY":" ","HOUSE_NO":"６７號","E_COORD97":190465.54000000001,"N_COORD97":2560552.25,"ADDRESS":"環湖６７號","OBJECTID":161003},"geometry":{"x":190465.54000000004,"y":2560552.2500000019}},{"attributes":{"ID":161005,"DIS_CODE":0,"TOWNNAME":"大內區","LI":"環湖里","LIN":"5鄰","STREET":" ","SECT":" ","MAREA":"環湖","LANE":" ","ALLEY":" ","HOUSE_NO":"５７號之１１","E_COORD97":190666.13,"N_COORD97":2560452.2999999998,"ADDRESS":"環湖５７號之１１","OBJECTID":161004},"geometry":{"x":190666.12999999989,"y":2560452.3000000007}},{"attributes":{"ID":161006,"DIS_CODE":0,"TOWNNAME":"大內區","LI":"曲溪里","LIN":"5鄰","STREET":" ","SECT":" ","MAREA":"二重溪","LANE":" ","ALLEY":" ","HOUSE_NO":"４９之２６號","E_COORD97":187302.34,"N_COORD97":2556939.3100000001,"ADDRESS":"二重溪４９之２６號","OBJECTID":161005},"geometry":{"x":187302.34000000078,"y":2556939.3100000005}},{"attributes":{"ID":161007,"DIS_CODE":0,"TOWNNAME":"大內區","LI":"石湖里","LIN":"5鄰","STREET":" ","SECT":" ","MAREA":"石子瀨","LANE":" ","ALLEY":" ","HOUSE_NO":"２７１號","E_COORD97":184042.47,"N_COORD97":2558410.25,"ADDRESS":"石子瀨２７１號","OBJECTID":161006},"geometry":{"x":184042.46999999974,"y":2558410.25}},{"attributes":{"ID":161008,"DIS_CODE":0,"TOWNNAME":"大內區","LI":"曲溪里","LIN":"5鄰","STREET":" ","SECT":" ","MAREA":"二重溪","LANE":" ","ALLEY":" ","HOUSE_NO":"５１號之６","E_COORD97":187240.13,"N_COORD97":2557520.3100000001,"ADDRESS":"二重溪５１號之６","OBJECTID":161007},"geometry":{"x":187240.12999999989,"y":2557520.3100000024}},{"attributes":{"ID":161009,"DIS_CODE":0,"TOWNNAME":"永康區","LI":"北灣里","LIN":"36鄰","STREET":"大灣路","SECT":" ","MAREA":" ","LANE":"４０巷","ALLEY":"１５８弄","HOUSE_NO":"１３號","E_COORD97":174875.72,"N_COORD97":2546362.02,"ADDRESS":"大灣路４０巷１５８弄１３號","OBJECTID":161008},"geometry":{"x":174875.72000000067,"y":2546362.0199999996}},{"attributes":{"ID":161010,"DIS_CODE":0,"TOWNNAME":"永康區","LI":"北灣里","LIN":"26鄰","STREET":"文賢街","SECT":" ","MAREA":" ","LANE":"７８巷","ALLEY":"１９弄","HOUSE_NO":"５號","E_COORD97":175423.26000000001,"N_COORD97":2545348.5699999998,"ADDRESS":"文賢街７８巷１９弄５號","OBJECTID":161009},"geometry":{"x":175423.26000000071,"y":2545348.5700000003}},{"attributes":{"ID":161011,"DIS_CODE":0,"TOWNNAME":"永康區","LI":"正強里","LIN":"17鄰","STREET":"自強路","SECT":" ","MAREA":" ","LANE":"１８８巷","ALLEY":"４６弄","HOUSE_NO":"１３號","E_COORD97":173179.47,"N_COORD97":2547318.0800000001,"ADDRESS":"自強路１８８巷４６弄１３號","OBJECTID":161010},"geometry":{"x":173179.46999999974,"y":2547318.0800000001}},{"attributes":{"ID":161012,"DIS_CODE":0,"TOWNNAME":"永康區","LI":"北灣里","LIN":"26鄰","STREET":"文賢街","SECT":" ","MAREA":" ","LANE":"７８巷","ALLEY":"１９弄","HOUSE_NO":"２９號","E_COORD97":175438.23000000001,"N_COORD97":2545359.8199999998,"ADDRESS":"文賢街７８巷１９弄２９號","OBJECTID":161011},"geometry":{"x":175438.23000000045,"y":2545359.8200000022}},{"attributes":{"ID":161013,"DIS_CODE":0,"TOWNNAME":"大內區","LI":"曲溪里","LIN":"5鄰","STREET":" ","SECT":" ","MAREA":"二重溪","LANE":" ","ALLEY":" ","HOUSE_NO":"５１之８號","E_COORD97":187192.48999999999,"N_COORD97":2557364.3100000001,"ADDRESS":"二重溪５１之８號","OBJECTID":161012},"geometry":{"x":187192.49000000022,"y":2557364.3100000024}},{"attributes":{"ID":161014,"DIS_CODE":0,"TOWNNAME":"佳里區","LI":"東寧里","LIN":"12鄰","STREET":"文化路","SECT":" ","MAREA":" ","LANE":" ","ALLEY":" ","HOUSE_NO":"９９號","E_COORD97":166063.06,"N_COORD97":2562575.3199999998,"ADDRESS":"文化路９９號","OBJECTID":161013},"geometry":{"x":166063.06000000145,"y":2562575.3200000022}},{"attributes":{"ID":161015,"DIS_CODE":0,"TOWNNAME":"永康區","LI":"北灣里","LIN":"26鄰","STREET":"文賢街","SECT":" ","MAREA":" ","LANE":"７８巷","ALLEY":"１９弄","HOUSE_NO":"２７號","E_COORD97":175433.92000000001,"N_COORD97":2545359.8199999998,"ADDRESS":"文賢街７８巷１９弄２７號","OBJECTID":161014},"geometry":{"x":175433.92000000086,"y":2545359.8200000022}},{"attributes":{"ID":161016,"DIS_CODE":0,"TOWNNAME":"永康區","LI":"東灣里","LIN":"12鄰","STREET":"大灣路","SECT":" ","MAREA":" ","LANE":" ","ALLEY":" ","HOUSE_NO":"４０５號","E_COORD97":174729.10999999999,"N_COORD97":2544840.9900000002,"ADDRESS":"大灣路４０５號","OBJECTID":161015},"geometry":{"x":174729.1099999994,"y":2544840.9900000002}},{"attributes":{"ID":161017,"DIS_CODE":0,"TOWNNAME":"永康區","LI":"尚頂里","LIN":"12鄰","STREET":"正南一街","SECT":" ","MAREA":" ","LANE":" ","ALLEY":" ","HOUSE_NO":"４２號","E_COORD97":171189.67999999999,"N_COORD97":2547359.25,"ADDRESS":"正南一街４２號","OBJECTID":161016},"geometry":{"x":171189.6799999997,"y":2547359.2500000019}},{"attributes":{"ID":161018,"DIS_CODE":0,"TOWNNAME":"永康區","LI":"尚頂里","LIN":"12鄰","STREET":"尚頂路","SECT":" ","MAREA":" ","LANE":" ","ALLEY":" ","HOUSE_NO":"５０號","E_COORD97":171202.53,"N_COORD97":2547496.73,"ADDRESS":"尚頂路５０號","OBJECTID":161017},"geometry":{"x":171202.53000000119,"y":2547496.7300000004}},{"attributes":{"ID":161019,"DIS_CODE":0,"TOWNNAME":"永康區","LI":"正強里","LIN":"23鄰","STREET":"自強路","SECT":" ","MAREA":" ","LANE":"２５５巷","ALLEY":"６弄","HOUSE_NO":"１３號","E_COORD97":173227.09,"N_COORD97":2547649.5499999998,"ADDRESS":"自強路２５５巷６弄１３號","OBJECTID":161018},"geometry":{"x":173227.09000000078,"y":2547649.5500000026}},{"attributes":{"ID":161020,"DIS_CODE":0,"TOWNNAME":"永康區","LI":"東灣里","LIN":"12鄰","STREET":"大灣路","SECT":" ","MAREA":" ","LANE":" ","ALLEY":" ","HOUSE_NO":"３７１號","E_COORD97":174748.76999999999,"N_COORD97":2544877.8999999999,"ADDRESS":"大灣路３７１號","OBJECTID":161019},"geometry":{"x":174748.76999999955,"y":2544877.9000000022}},{"attributes":{"ID":161021,"DIS_CODE":0,"TOWNNAME":"永康區","LI":"正強里","LIN":"16鄰","STREET":"自強路","SECT":" ","MAREA":" ","LANE":"１８８巷","ALLEY":"１６弄","HOUSE_NO":"１０號","E_COORD97":173189.42999999999,"N_COORD97":2547426.9399999999,"ADDRESS":"自強路１８８巷１６弄１０號","OBJECTID":161020},"geometry":{"x":173189.43000000063,"y":2547426.9399999995}},{"attributes":{"ID":161022,"DIS_CODE":0,"TOWNNAME":"永康區","LI":"永康里","LIN":"22鄰","STREET":"中山南路","SECT":" ","MAREA":" ","LANE":"４７１巷","ALLEY":"３８弄","HOUSE_NO":"９號","E_COORD97":173186.87,"N_COORD97":2547123.2400000002,"ADDRESS":"中山南路４７１巷３８弄９號","OBJECTID":161021},"geometry":{"x":173186.87000000104,"y":2547123.2400000021}},{"attributes":{"ID":161023,"DIS_CODE":0,"TOWNNAME":"安南區","LI":"東和里","LIN":"7鄰","STREET":"環館北路","SECT":" ","MAREA":" ","LANE":"８４９巷","ALLEY":"７弄","HOUSE_NO":"１號","E_COORD97":171143.61146499999,"N_COORD97":2551432.67961,"ADDRESS":"環館北路８４９巷７弄１號","OBJECTID":161022},"geometry":{"x":171143.61146500055,"y":2551432.6796120014}},{"attributes":{"ID":161024,"DIS_CODE":0,"TOWNNAME":"永康區","LI":"永康里","LIN":"22鄰","STREET":"中山南路","SECT":" ","MAREA":" ","LANE":"４７１巷","ALLEY":"３８弄","HOUSE_NO":"１４號","E_COORD97":173170.63,"N_COORD97":2547110.3700000001,"ADDRESS":"中山南路４７１巷３８弄１４號","OBJECTID":161023},"geometry":{"x":173170.62999999896,"y":2547110.370000001}},{"attributes":{"ID":161025,"DIS_CODE":0,"TOWNNAME":"永康區","LI":"北灣里","LIN":"31鄰","STREET":"大同街","SECT":" ","MAREA":" ","LANE":"３３巷","ALLEY":"１６弄","HOUSE_NO":"１８號","E_COORD97":175217.54999999999,"N_COORD97":2545375.8100000001,"ADDRESS":"大同街３３巷１６弄１８號","OBJECTID":161024},"geometry":{"x":175217.55000000075,"y":2545375.8100000024}},{"attributes":{"ID":161026,"DIS_CODE":0,"TOWNNAME":"永康區","LI":"正強里","LIN":"31鄰","STREET":"自強路","SECT":" ","MAREA":" ","LANE":"２５５巷","ALLEY":"３５弄","HOUSE_NO":"２之９號","E_COORD97":173128.69,"N_COORD97":2547586.5499999998,"ADDRESS":"自強路２５５巷３５弄２之９號","OBJECTID":161025},"geometry":{"x":173128.69000000134,"y":2547586.5500000007}},{"attributes":{"ID":161027,"DIS_CODE":0,"TOWNNAME":"大內區","LI":"環湖里","LIN":"5鄰","STREET":" ","SECT":" ","MAREA":"環湖","LANE":" ","ALLEY":" ","HOUSE_NO":"６９號之２","E_COORD97":190430.81,"N_COORD97":2560576.2999999998,"ADDRESS":"環湖６９號之２","OBJECTID":161026},"geometry":{"x":190430.80999999959,"y":2560576.3000000026}},{"attributes":{"ID":161028,"DIS_CODE":0,"TOWNNAME":"大內區","LI":"環湖里","LIN":"5鄰","STREET":" ","SECT":" ","MAREA":"環湖","LANE":" ","ALLEY":" ","HOUSE_NO":"５８號之１","E_COORD97":190567.17999999999,"N_COORD97":2560545.2999999998,"ADDRESS":"環湖５８號之１","OBJECTID":161027},"geometry":{"x":190567.1799999997,"y":2560545.3000000026}},{"attributes":{"ID":161029,"DIS_CODE":0,"TOWNNAME":"大內區","LI":"環湖里","LIN":"5鄰","STREET":" ","SECT":" ","MAREA":"環湖","LANE":" ","ALLEY":" ","HOUSE_NO":"５７號之３","E_COORD97":190597.76999999999,"N_COORD97":2560478.2999999998,"ADDRESS":"環湖５７號之３","OBJECTID":161028},"geometry":{"x":190597.77000000142,"y":2560478.3000000007}},{"attributes":{"ID":161030,"DIS_CODE":0,"TOWNNAME":"永康區","LI":"正強里","LIN":"31鄰","STREET":"自強路","SECT":" ","MAREA":" ","LANE":"２５５巷","ALLEY":"２６弄","HOUSE_NO":"３號","E_COORD97":173174.28,"N_COORD97":2547637.7400000002,"ADDRESS":"自強路２５５巷２６弄３號","OBJECTID":161029},"geometry":{"x":173174.28000000119,"y":2547637.7400000021}},{"attributes":{"ID":161031,"DIS_CODE":0,"TOWNNAME":"永康區","LI":"正強里","LIN":"31鄰","STREET":"自強路","SECT":" ","MAREA":" ","LANE":"２５５巷","ALLEY":"３５弄","HOUSE_NO":"３號","E_COORD97":173149.20999999999,"N_COORD97":2547591.5,"ADDRESS":"自強路２５５巷３５弄３號","OBJECTID":161030},"geometry":{"x":173149.20999999996,"y":2547591.5000000019}},{"attributes":{"ID":161032,"DIS_CODE":0,"TOWNNAME":"大內區","LI":"環湖里","LIN":"5鄰","STREET":" ","SECT":" ","MAREA":"環湖","LANE":" ","ALLEY":" ","HOUSE_NO":"５７號之４","E_COORD97":190618.79999999999,"N_COORD97":2560533.2999999998,"ADDRESS":"環湖５７號之４","OBJECTID":161031},"geometry":{"x":190618.80000000075,"y":2560533.3000000007}},{"attributes":{"ID":161033,"DIS_CODE":0,"TOWNNAME":"大內區","LI":"環湖里","LIN":"5鄰","STREET":" ","SECT":" ","MAREA":"環湖","LANE":" ","ALLEY":" ","HOUSE_NO":"６５號","E_COORD97":190490.94,"N_COORD97":2560582.25,"ADDRESS":"環湖６５號","OBJECTID":161032},"geometry":{"x":190490.94000000134,"y":2560582.2500000019}},{"attributes":{"ID":161034,"DIS_CODE":0,"TOWNNAME":"永康區","LI":"甲頂里","LIN":"19鄰","STREET":"中正南路","SECT":" ","MAREA":" ","LANE":"５２巷","ALLEY":"４６弄","HOUSE_NO":"８８號","E_COORD97":169868.12,"N_COORD97":2546546.04,"ADDRESS":"中正南路５２巷４６弄８８號","OBJECTID":161033},"geometry":{"x":169868.12000000011,"y":2546546.040000001}},{"attributes":{"ID":161035,"DIS_CODE":0,"TOWNNAME":"永康區","LI":"北灣里","LIN":"26鄰","STREET":"文賢街","SECT":" ","MAREA":" ","LANE":"７８巷","ALLEY":"１９弄","HOUSE_NO":"４７號","E_COORD97":175416.97,"N_COORD97":2545399.0800000001,"ADDRESS":"文賢街７８巷１９弄４７號","OBJECTID":161034},"geometry":{"x":175416.96999999974,"y":2545399.0800000001}},{"attributes":{"ID":161036,"DIS_CODE":0,"TOWNNAME":"永康區","LI":"安康里","LIN":"13鄰","STREET":"中華路","SECT":" ","MAREA":" ","LANE":"６６１巷","ALLEY":"１０５弄","HOUSE_NO":"２號","E_COORD97":170813.54999999999,"N_COORD97":2546091.4900000002,"ADDRESS":"中華路６６１巷１０５弄２號","OBJECTID":161035},"geometry":{"x":170813.55000000075,"y":2546091.4900000002}},{"attributes":{"ID":161037,"DIS_CODE":0,"TOWNNAME":"大內區","LI":"環湖里","LIN":"5鄰","STREET":" ","SECT":" ","MAREA":"環湖","LANE":" ","ALLEY":" ","HOUSE_NO":"５８號之２","E_COORD97":190602.31,"N_COORD97":2560565.2999999998,"ADDRESS":"環湖５８號之２","OBJECTID":161036},"geometry":{"x":190602.30999999959,"y":2560565.3000000026}},{"attributes":{"ID":161038,"DIS_CODE":0,"TOWNNAME":"大內區","LI":"環湖里","LIN":"5鄰","STREET":" ","SECT":" ","MAREA":"環湖","LANE":" ","ALLEY":" ","HOUSE_NO":"６０號","E_COORD97":190511.23999999999,"N_COORD97":2560525.25,"ADDRESS":"環湖６０號","OBJECTID":161037},"geometry":{"x":190511.24000000115,"y":2560525.25}},{"attributes":{"ID":161039,"DIS_CODE":0,"TOWNNAME":"永康區","LI":"尚頂里","LIN":"12鄰","STREET":"正南一街","SECT":" ","MAREA":" ","LANE":" ","ALLEY":" ","HOUSE_NO":"６２號","E_COORD97":171123.75,"N_COORD97":2547322.0099999998,"ADDRESS":"正南一街６２號","OBJECTID":161038},"geometry":{"x":171123.75,"y":2547322.0099999998}},{"attributes":{"ID":161040,"DIS_CODE":0,"TOWNNAME":"大內區","LI":"內郭里","LIN":"5鄰","STREET":" ","SECT":" ","MAREA":"內庄","LANE":" ","ALLEY":" ","HOUSE_NO":"１９１號","E_COORD97":184792.07999999999,"N_COORD97":2557364.25,"ADDRESS":"內庄１９１號","OBJECTID":161039},"geometry":{"x":184792.08000000101,"y":2557364.2500000019}},{"attributes":{"ID":161041,"DIS_CODE":0,"TOWNNAME":"大內區","LI":"頭社里","LIN":"5鄰","STREET":" ","SECT":" ","MAREA":"頭社","LANE":" ","ALLEY":" ","HOUSE_NO":"６８號之３","E_COORD97":187260.17000000001,"N_COORD97":2560319.2999999998,"ADDRESS":"頭社６８號之３","OBJECTID":161040},"geometry":{"x":187260.16999999993,"y":2560319.3000000007}},{"attributes":{"ID":161042,"DIS_CODE":0,"TOWNNAME":"大內區","LI":"石湖里","LIN":"5鄰","STREET":" ","SECT":" ","MAREA":"石子瀨","LANE":" ","ALLEY":" ","HOUSE_NO":"２６８號","E_COORD97":184062.76999999999,"N_COORD97":2558469.25,"ADDRESS":"石子瀨２６８號","OBJECTID":161041},"geometry":{"x":184062.77000000142,"y":2558469.2500000019}},{"attributes":{"ID":161043,"DIS_CODE":0,"TOWNNAME":"大內區","LI":"頭社里","LIN":"5鄰","STREET":" ","SECT":" ","MAREA":"頭社","LANE":" ","ALLEY":" ","HOUSE_NO":"６６號","E_COORD97":187201.54000000001,"N_COORD97":2560353.25,"ADDRESS":"頭社６６號","OBJECTID":161042},"geometry":{"x":187201.54000000097,"y":2560353.25}},{"attributes":{"ID":161044,"DIS_CODE":0,"TOWNNAME":"大內區","LI":"頭社里","LIN":"5鄰","STREET":" ","SECT":" ","MAREA":"頭社","LANE":" ","ALLEY":" ","HOUSE_NO":"６４號之１","E_COORD97":187205.17999999999,"N_COORD97":2560343.2999999998,"ADDRESS":"頭社６４號之１","OBJECTID":161043},"geometry":{"x":187205.18000000063,"y":2560343.3000000007}},{"attributes":{"ID":161045,"DIS_CODE":0,"TOWNNAME":"大內區","LI":"頭社里","LIN":"5鄰","STREET":" ","SECT":" ","MAREA":"頭社","LANE":" ","ALLEY":" ","HOUSE_NO":"６８號之６","E_COORD97":187599.07999999999,"N_COORD97":2560356.2999999998,"ADDRESS":"頭社６８號之６","OBJECTID":161044},"geometry":{"x":187599.08000000194,"y":2560356.3000000007}},{"attributes":{"ID":161046,"DIS_CODE":0,"TOWNNAME":"大內區","LI":"頭社里","LIN":"5鄰","STREET":" ","SECT":" ","MAREA":"頭社","LANE":" ","ALLEY":" ","HOUSE_NO":"６３號之３","E_COORD97":187204.47,"N_COORD97":2560313.2999999998,"ADDRESS":"頭社６３號之３","OBJECTID":161045},"geometry":{"x":187204.4700000016,"y":2560313.3000000007}},{"attributes":{"ID":161047,"DIS_CODE":0,"TOWNNAME":"七股區","LI":"大寮里","LIN":"12鄰","STREET":" ","SECT":" ","MAREA":"大寮","LANE":" ","ALLEY":" ","HOUSE_NO":"１２７號之４","E_COORD97":163384.76000000001,"N_COORD97":2560634.6800000002,"ADDRESS":"大寮１２７號之４","OBJECTID":161046},"geometry":{"x":163384.75999999978,"y":2560634.6799999997}},{"attributes":{"ID":161048,"DIS_CODE":0,"TOWNNAME":"七股區","LI":"大寮里","LIN":"12鄰","STREET":" ","SECT":" ","MAREA":"大寮","LANE":" ","ALLEY":" ","HOUSE_NO":"１２７號之５","E_COORD97":163375.10999999999,"N_COORD97":2560640.8399999999,"ADDRESS":"大寮１２７號之５","OBJECTID":161047},"geometry":{"x":163375.11000000127,"y":2560640.8399999999}},{"attributes":{"ID":161049,"DIS_CODE":0,"TOWNNAME":"七股區","LI":"大寮里","LIN":"12鄰","STREET":" ","SECT":" ","MAREA":"大寮","LANE":" ","ALLEY":" ","HOUSE_NO":"１２７號","E_COORD97":163387.85999999999,"N_COORD97":2560590,"ADDRESS":"大寮１２７號","OBJECTID":161048},"geometry":{"x":163387.86000000034,"y":2560590.0000000019}},{"attributes":{"ID":161050,"DIS_CODE":0,"TOWNNAME":"永康區","LI":"南灣里","LIN":"12鄰","STREET":"立興街","SECT":" ","MAREA":" ","LANE":" ","ALLEY":" ","HOUSE_NO":"３５號","E_COORD97":174614.17999999999,"N_COORD97":2544857.5600000001,"ADDRESS":"立興街３５號","OBJECTID":161049},"geometry":{"x":174614.1799999997,"y":2544857.5600000005}},{"attributes":{"ID":161051,"DIS_CODE":0,"TOWNNAME":"永康區","LI":"正強里","LIN":"17鄰","STREET":"自強路","SECT":" ","MAREA":" ","LANE":"１８８巷","ALLEY":"４６弄","HOUSE_NO":"８號","E_COORD97":173181.32999999999,"N_COORD97":2547331.5800000001,"ADDRESS":"自強路１８８巷４６弄８號","OBJECTID":161050},"geometry":{"x":173181.32999999914,"y":2547331.5800000001}},{"attributes":{"ID":161052,"DIS_CODE":0,"TOWNNAME":"七股區","LI":"大寮里","LIN":"12鄰","STREET":" ","SECT":" ","MAREA":"大寮","LANE":" ","ALLEY":" ","HOUSE_NO":"１２８號之１","E_COORD97":163362.20999999999,"N_COORD97":2560617.6899999999,"ADDRESS":"大寮１２８號之１","OBJECTID":161051},"geometry":{"x":163362.21000000089,"y":2560617.6899999995}},{"attributes":{"ID":161053,"DIS_CODE":0,"TOWNNAME":"七股區","LI":"三股里","LIN":"12鄰","STREET":" ","SECT":" ","MAREA":"三股","LANE":" ","ALLEY":" ","HOUSE_NO":"２９號之９","E_COORD97":159580.82000000001,"N_COORD97":2555488.2599999998,"ADDRESS":"三股２９號之９","OBJECTID":161052},"geometry":{"x":159580.8200000003,"y":2555488.2599999979}},{"attributes":{"ID":161054,"DIS_CODE":0,"TOWNNAME":"永康區","LI":"正強里","LIN":"31鄰","STREET":"自強路","SECT":" ","MAREA":" ","LANE":"２５５巷","ALLEY":"４２弄","HOUSE_NO":"１號之７","E_COORD97":173119.79000000001,"N_COORD97":2547625.29,"ADDRESS":"自強路２５５巷４２弄１號之７","OBJECTID":161053},"geometry":{"x":173119.79000000097,"y":2547625.2900000028}},{"attributes":{"ID":161055,"DIS_CODE":0,"TOWNNAME":"永康區","LI":"正強里","LIN":"16鄰","STREET":"自強路","SECT":" ","MAREA":" ","LANE":"１８８巷","ALLEY":"１６弄","HOUSE_NO":"２號","E_COORD97":173203.76999999999,"N_COORD97":2547429.6899999999,"ADDRESS":"自強路１８８巷１６弄２號","OBJECTID":161054},"geometry":{"x":173203.77000000048,"y":2547429.6900000032}},{"attributes":{"ID":161056,"DIS_CODE":0,"TOWNNAME":"將軍區","LI":"仁和里","LIN":"22鄰","STREET":" ","SECT":" ","MAREA":"和巷","LANE":" ","ALLEY":" ","HOUSE_NO":"９８號","E_COORD97":163852.45999999999,"N_COORD97":2569264.5899999999,"ADDRESS":"和巷９８號","OBJECTID":161055},"geometry":{"x":163852.46000000089,"y":2569264.589999998}},{"attributes":{"ID":161057,"DIS_CODE":0,"TOWNNAME":"永康區","LI":"正強里","LIN":"17鄰","STREET":"自強路","SECT":" ","MAREA":" ","LANE":"１８８巷","ALLEY":"４６弄","HOUSE_NO":"１２號","E_COORD97":173173.88,"N_COORD97":2547330.3300000001,"ADDRESS":"自強路１８８巷４６弄１２號","OBJECTID":161056},"geometry":{"x":173173.87999999989,"y":2547330.3300000001}},{"attributes":{"ID":161058,"DIS_CODE":0,"TOWNNAME":"永康區","LI":"正強里","LIN":"18鄰","STREET":"自強路","SECT":" ","MAREA":" ","LANE":"１８８巷","ALLEY":"６２弄","HOUSE_NO":"１０號","E_COORD97":173180.56,"N_COORD97":2547282.25,"ADDRESS":"自強路１８８巷６２弄１０號","OBJECTID":161057},"geometry":{"x":173180.55999999959,"y":2547282.2500000019}},{"attributes":{"ID":161059,"DIS_CODE":0,"TOWNNAME":"永康區","LI":"正強里","LIN":"31鄰","STREET":"自強路","SECT":" ","MAREA":" ","LANE":"２５５巷","ALLEY":"３５弄","HOUSE_NO":"２號之１６","E_COORD97":173129.67999999999,"N_COORD97":2547586.5499999998,"ADDRESS":"自強路２５５巷３５弄２號之１６","OBJECTID":161058},"geometry":{"x":173129.68000000063,"y":2547586.5500000007}},{"attributes":{"ID":161060,"DIS_CODE":0,"TOWNNAME":"永康區","LI":"正強里","LIN":"31鄰","STREET":"自強路","SECT":" ","MAREA":" ","LANE":"２５５巷","ALLEY":"４２弄","HOUSE_NO":"１號之１２","E_COORD97":173121.10000000001,"N_COORD97":2547625.29,"ADDRESS":"自強路２５５巷４２弄１號之１２","OBJECTID":161059},"geometry":{"x":173121.09999999963,"y":2547625.2900000028}},{"attributes":{"ID":161061,"DIS_CODE":0,"TOWNNAME":"永康區","LI":"正強里","LIN":"31鄰","STREET":"自強路","SECT":" ","MAREA":" ","LANE":"２５５巷","ALLEY":"４２弄","HOUSE_NO":"１號之１８","E_COORD97":173121.10999999999,"N_COORD97":2547625.29,"ADDRESS":"自強路２５５巷４２弄１號之１８","OBJECTID":161060},"geometry":{"x":173121.11000000127,"y":2547625.2900000028}},{"attributes":{"ID":161062,"DIS_CODE":0,"TOWNNAME":"東區","LI":"崇信里","LIN":"24鄰","STREET":"崇善一街","SECT":" ","MAREA":" ","LANE":" ","ALLEY":" ","HOUSE_NO":"８０號九樓之１","E_COORD97":170834.92000000001,"N_COORD97":2542294.98,"ADDRESS":"崇善一街８０號九樓之１","OBJECTID":161061},"geometry":{"x":170834.92000000086,"y":2542294.9800000004}},{"attributes":{"ID":161063,"DIS_CODE":0,"TOWNNAME":"七股區","LI":"大潭里","LIN":"12鄰","STREET":" ","SECT":" ","MAREA":"台潭","LANE":" ","ALLEY":" ","HOUSE_NO":"１２８號之３","E_COORD97":160781.54999999999,"N_COORD97":2565555.3199999998,"ADDRESS":"台潭１２８號之３","OBJECTID":161062},"geometry":{"x":160781.55000000075,"y":2565555.3200000022}},{"attributes":{"ID":161064,"DIS_CODE":0,"TOWNNAME":"七股區","LI":"大潭里","LIN":"12鄰","STREET":" ","SECT":" ","MAREA":"台潭","LANE":" ","ALLEY":" ","HOUSE_NO":"１２８號之４","E_COORD97":160806.57999999999,"N_COORD97":2565553.25,"ADDRESS":"台潭１２８號之４","OBJECTID":161063},"geometry":{"x":160806.58000000194,"y":2565553.25}},{"attributes":{"ID":161065,"DIS_CODE":0,"TOWNNAME":"七股區","LI":"大潭里","LIN":"12鄰","STREET":" ","SECT":" ","MAREA":"台潭","LANE":" ","ALLEY":" ","HOUSE_NO":"１２８號","E_COORD97":160899.60000000001,"N_COORD97":2565517.6200000001,"ADDRESS":"台潭１２８號","OBJECTID":161064},"geometry":{"x":160899.60000000056,"y":2565517.6200000029}},{"attributes":{"ID":161066,"DIS_CODE":0,"TOWNNAME":"七股區","LI":"玉成里","LIN":"12鄰","STREET":" ","SECT":" ","MAREA":"玉成","LANE":" ","ALLEY":" ","HOUSE_NO":"１２６號","E_COORD97":161880.89000000001,"N_COORD97":2560193.8100000001,"ADDRESS":"玉成１２６號","OBJECTID":161065},"geometry":{"x":161880.8900000006,"y":2560193.8100000005}},{"attributes":{"ID":161067,"DIS_CODE":0,"TOWNNAME":"安南區","LI":"國安里","LIN":"12鄰","STREET":"郡安路","SECT":"六段","MAREA":" ","LANE":" ","ALLEY":" ","HOUSE_NO":"１１８號","E_COORD97":166439.82000000001,"N_COORD97":2547506.9199999999,"ADDRESS":"郡安路六段１１８號","OBJECTID":161066},"geometry":{"x":166439.8200000003,"y":2547506.9200000018}},{"attributes":{"ID":161068,"DIS_CODE":0,"TOWNNAME":"安南區","LI":"國安里","LIN":"12鄰","STREET":"郡安路","SECT":"六段","MAREA":" ","LANE":" ","ALLEY":" ","HOUSE_NO":"１２２號","E_COORD97":166428.13,"N_COORD97":2547493.3100000001,"ADDRESS":"郡安路六段１２２號","OBJECTID":161067},"geometry":{"x":166428.12999999989,"y":2547493.3100000005}},{"attributes":{"ID":161069,"DIS_CODE":0,"TOWNNAME":"永康區","LI":"正強里","LIN":"16鄰","STREET":"自強路","SECT":" ","MAREA":" ","LANE":"１８８巷","ALLEY":"１６弄","HOUSE_NO":"２０號","E_COORD97":173164.20999999999,"N_COORD97":2547423.1899999999,"ADDRESS":"自強路１８８巷１６弄２０號","OBJECTID":161068},"geometry":{"x":173164.21000000089,"y":2547423.1900000032}},{"attributes":{"ID":161070,"DIS_CODE":0,"TOWNNAME":"永康區","LI":"北灣里","LIN":"36鄰","STREET":"大灣路","SECT":" ","MAREA":" ","LANE":"４０巷","ALLEY":"１５８弄","HOUSE_NO":"８號","E_COORD97":174871.26999999999,"N_COORD97":2546329.8900000001,"ADDRESS":"大灣路４０巷１５８弄８號","OBJECTID":161069},"geometry":{"x":174871.26999999862,"y":2546329.8900000006}},{"attributes":{"ID":161071,"DIS_CODE":0,"TOWNNAME":"永康區","LI":"甲頂里","LIN":"2鄰","STREET":"南台街","SECT":" ","MAREA":" ","LANE":"１３５巷","ALLEY":"７弄","HOUSE_NO":"８號","E_COORD97":170098.14999999999,"N_COORD97":2546817.96,"ADDRESS":"南台街１３５巷７弄８號","OBJECTID":161070},"geometry":{"x":170098.1500000013,"y":2546817.9600000009}},{"attributes":{"ID":161072,"DIS_CODE":0,"TOWNNAME":"安南區","LI":"國安里","LIN":"12鄰","STREET":"郡安路","SECT":"六段","MAREA":" ","LANE":" ","ALLEY":" ","HOUSE_NO":"１２３號","E_COORD97":166422.64000000001,"N_COORD97":2547499.96,"ADDRESS":"郡安路六段１２３號","OBJECTID":161071},"geometry":{"x":166422.6400000006,"y":2547499.9600000009}},{"attributes":{"ID":161073,"DIS_CODE":0,"TOWNNAME":"永康區","LI":"北灣里","LIN":"28鄰","STREET":"文賢街","SECT":" ","MAREA":" ","LANE":"７８巷","ALLEY":"１９弄","HOUSE_NO":"３６號","E_COORD97":175452.54000000001,"N_COORD97":2545373.3300000001,"ADDRESS":"文賢街７８巷１９弄３６號","OBJECTID":161072},"geometry":{"x":175452.54000000004,"y":2545373.3300000001}},{"attributes":{"ID":161074,"DIS_CODE":0,"TOWNNAME":"永康區","LI":"安康里","LIN":"16鄰","STREET":"中華路","SECT":" ","MAREA":" ","LANE":"６６１巷","ALLEY":"１０５弄","HOUSE_NO":"７號","E_COORD97":170832.32000000001,"N_COORD97":2546079.23,"ADDRESS":"中華路６６１巷１０５弄７號","OBJECTID":161073},"geometry":{"x":170832.32000000216,"y":2546079.2300000023}},{"attributes":{"ID":161075,"DIS_CODE":0,"TOWNNAME":"永康區","LI":"正強里","LIN":"13鄰","STREET":"正強街","SECT":" ","MAREA":" ","LANE":"１１１巷","ALLEY":"１６弄","HOUSE_NO":"２８號","E_COORD97":173282.85999999999,"N_COORD97":2547451.23,"ADDRESS":"正強街１１１巷１６弄２８號","OBJECTID":161074},"geometry":{"x":173282.86000000034,"y":2547451.2300000023}},{"attributes":{"ID":161076,"DIS_CODE":0,"TOWNNAME":"永康區","LI":"永康里","LIN":"24鄰","STREET":"中山南路","SECT":" ","MAREA":" ","LANE":"６２１巷","ALLEY":"３５弄","HOUSE_NO":"６號","E_COORD97":173518.17000000001,"N_COORD97":2547325.2400000002,"ADDRESS":"中山南路６２１巷３５弄６號","OBJECTID":161075},"geometry":{"x":173518.17000000086,"y":2547325.2400000039}},{"attributes":{"ID":161077,"DIS_CODE":0,"TOWNNAME":"安南區","LI":"國安里","LIN":"12鄰","STREET":"郡安路","SECT":"六段","MAREA":" ","LANE":" ","ALLEY":" ","HOUSE_NO":"１２５號","E_COORD97":166419.39000000001,"N_COORD97":2547495.4500000002,"ADDRESS":"郡安路六段１２５號","OBJECTID":161076},"geometry":{"x":166419.38999999966,"y":2547495.450000003}},{"attributes":{"ID":161078,"DIS_CODE":0,"TOWNNAME":"永康區","LI":"正強里","LIN":"31鄰","STREET":"自強路","SECT":" ","MAREA":" ","LANE":"２５５巷","ALLEY":"４２弄","HOUSE_NO":"１號之４","E_COORD97":173119.73999999999,"N_COORD97":2547625.29,"ADDRESS":"自強路２５５巷４２弄１號之４","OBJECTID":161077},"geometry":{"x":173119.74000000115,"y":2547625.2900000028}},{"attributes":{"ID":161079,"DIS_CODE":0,"TOWNNAME":"永康區","LI":"永康里","LIN":"34鄰","STREET":"永大路","SECT":"二段","MAREA":" ","LANE":"１３１０巷","ALLEY":"１６弄","HOUSE_NO":"２０號","E_COORD97":174368.32000000001,"N_COORD97":2547017.6699999999,"ADDRESS":"永大路二段１３１０巷１６弄２０號","OBJECTID":161078},"geometry":{"x":174368.32000000216,"y":2547017.6700000018}},{"attributes":{"ID":161080,"DIS_CODE":0,"TOWNNAME":"永康區","LI":"正強里","LIN":"12鄰","STREET":"正強街","SECT":" ","MAREA":" ","LANE":"１２２巷","ALLEY":"１３弄","HOUSE_NO":"１２號","E_COORD97":173401.16,"N_COORD97":2547460.8300000001,"ADDRESS":"正強街１２２巷１３弄１２號","OBJECTID":161079},"geometry":{"x":173401.16000000015,"y":2547460.8300000019}},{"attributes":{"ID":161081,"DIS_CODE":0,"TOWNNAME":"安南區","LI":"國安里","LIN":"12鄰","STREET":"郡安路","SECT":"六段","MAREA":" ","LANE":" ","ALLEY":" ","HOUSE_NO":"１７５號","E_COORD97":166191.85000000001,"N_COORD97":2547417.0899999999,"ADDRESS":"郡安路六段１７５號","OBJECTID":161080},"geometry":{"x":166191.85000000056,"y":2547417.089999998}},{"attributes":{"ID":161082,"DIS_CODE":0,"TOWNNAME":"安南區","LI":"國安里","LIN":"12鄰","STREET":"郡安路","SECT":"六段","MAREA":" ","LANE":" ","ALLEY":" ","HOUSE_NO":"１５５號","E_COORD97":166292.23000000001,"N_COORD97":2547431.79,"ADDRESS":"郡安路六段１５５號","OBJECTID":161081},"geometry":{"x":166292.23000000138,"y":2547431.7899999972}},{"attributes":{"ID":161083,"DIS_CODE":0,"TOWNNAME":"安南區","LI":"國安里","LIN":"12鄰","STREET":"郡安路","SECT":"六段","MAREA":" ","LANE":" ","ALLEY":" ","HOUSE_NO":"１２１號","E_COORD97":166429.57000000001,"N_COORD97":2547505.9700000002,"ADDRESS":"郡安路六段１２１號","OBJECTID":161082},"geometry":{"x":166429.5700000003,"y":2547505.9700000007}},{"attributes":{"ID":161084,"DIS_CODE":0,"TOWNNAME":"安南區","LI":"總頭里","LIN":"12鄰","STREET":"長溪路","SECT":"二段","MAREA":" ","LANE":" ","ALLEY":" ","HOUSE_NO":"４８７號","E_COORD97":168232.48000000001,"N_COORD97":2550424.0299999998,"ADDRESS":"長溪路二段４８７號","OBJECTID":161083},"geometry":{"x":168232.47999999952,"y":2550424.0299999993}},{"attributes":{"ID":161085,"DIS_CODE":0,"TOWNNAME":"七股區","LI":"玉成里","LIN":"12鄰","STREET":" ","SECT":" ","MAREA":"玉成","LANE":" ","ALLEY":" ","HOUSE_NO":"１３６號","E_COORD97":161908.95999999999,"N_COORD97":2560218.6299999999,"ADDRESS":"玉成１３６號","OBJECTID":161084},"geometry":{"x":161908.95999999996,"y":2560218.6300000008}},{"attributes":{"ID":161086,"DIS_CODE":0,"TOWNNAME":"七股區","LI":"玉成里","LIN":"12鄰","STREET":" ","SECT":" ","MAREA":"玉成","LANE":" ","ALLEY":" ","HOUSE_NO":"１３７號","E_COORD97":161887.39000000001,"N_COORD97":2560229.9900000002,"ADDRESS":"玉成１３７號","OBJECTID":161085},"geometry":{"x":161887.3900000006,"y":2560229.9900000002}},{"attributes":{"ID":161087,"DIS_CODE":0,"TOWNNAME":"北門區","LI":"鯤江里","LIN":"12鄰","STREET":" ","SECT":" ","MAREA":"新圍","LANE":" ","ALLEY":" ","HOUSE_NO":"３２號","E_COORD97":163032,"N_COORD97":2576945.6299999999,"ADDRESS":"新圍３２號","OBJECTID":161086},"geometry":{"x":163032,"y":2576945.629999999}},{"attributes":{"ID":161088,"DIS_CODE":0,"TOWNNAME":"大內區","LI":"頭社里","LIN":"5鄰","STREET":" ","SECT":" ","MAREA":"頭社","LANE":" ","ALLEY":" ","HOUSE_NO":"６０號之１","E_COORD97":187238.17999999999,"N_COORD97":2560246.2999999998,"ADDRESS":"頭社６０號之１","OBJECTID":161087},"geometry":{"x":187238.1799999997,"y":2560246.3000000026}},{"attributes":{"ID":161089,"DIS_CODE":0,"TOWNNAME":"大內區","LI":"石城里","LIN":"5鄰","STREET":" ","SECT":" ","MAREA":"石子瀨","LANE":" ","ALLEY":" ","HOUSE_NO":"４３號","E_COORD97":184203.01999999999,"N_COORD97":2558052.25,"ADDRESS":"石子瀨４３號","OBJECTID":161088},"geometry":{"x":184203.01999999955,"y":2558052.2500000019}},{"attributes":{"ID":161090,"DIS_CODE":0,"TOWNNAME":"大內區","LI":"曲溪里","LIN":"5鄰","STREET":" ","SECT":" ","MAREA":"二重溪","LANE":" ","ALLEY":" ","HOUSE_NO":"４８號","E_COORD97":187308.79000000001,"N_COORD97":2557520.3100000001,"ADDRESS":"二重溪４８號","OBJECTID":161089},"geometry":{"x":187308.79000000004,"y":2557520.3100000024}},{"attributes":{"ID":161091,"DIS_CODE":0,"TOWNNAME":"大內區","LI":"頭社里","LIN":"5鄰","STREET":" ","SECT":" ","MAREA":"頭社","LANE":" ","ALLEY":" ","HOUSE_NO":"６８號之１","E_COORD97":187224.48000000001,"N_COORD97":2560301.2999999998,"ADDRESS":"頭社６８號之１","OBJECTID":161090},"geometry":{"x":187224.48000000138,"y":2560301.3000000026}},{"attributes":{"ID":161092,"DIS_CODE":0,"TOWNNAME":"大內區","LI":"曲溪里","LIN":"5鄰","STREET":" ","SECT":" ","MAREA":"二重溪","LANE":" ","ALLEY":" ","HOUSE_NO":"４９號之２２","E_COORD97":187401.41,"N_COORD97":2557194.3100000001,"ADDRESS":"二重溪４９號之２２","OBJECTID":161091},"geometry":{"x":187401.41000000015,"y":2557194.3100000042}},{"attributes":{"ID":161093,"DIS_CODE":0,"TOWNNAME":"大內區","LI":"頭社里","LIN":"5鄰","STREET":" ","SECT":" ","MAREA":"頭社","LANE":" ","ALLEY":" ","HOUSE_NO":"６０號","E_COORD97":187198.73999999999,"N_COORD97":2560224.25,"ADDRESS":"頭社６０號","OBJECTID":161092},"geometry":{"x":187198.74000000115,"y":2560224.25}},{"attributes":{"ID":161094,"DIS_CODE":0,"TOWNNAME":"大內區","LI":"石城里","LIN":"5鄰","STREET":" ","SECT":" ","MAREA":"石子瀨","LANE":" ","ALLEY":" ","HOUSE_NO":"４７號","E_COORD97":184206.72,"N_COORD97":2557977.25,"ADDRESS":"石子瀨４７號","OBJECTID":161093},"geometry":{"x":184206.71999999974,"y":2557977.2500000037}},{"attributes":{"ID":161095,"DIS_CODE":0,"TOWNNAME":"安南區","LI":"淵西里","LIN":"12鄰","STREET":"安中路","SECT":"四段","MAREA":" ","LANE":" ","ALLEY":" ","HOUSE_NO":"２８６號","E_COORD97":164601.45000000001,"N_COORD97":2550198.5699999998,"ADDRESS":"安中路四段２８６號","OBJECTID":161094},"geometry":{"x":164601.45000000205,"y":2550198.5700000022}},{"attributes":{"ID":161096,"DIS_CODE":0,"TOWNNAME":"安南區","LI":"海東里","LIN":"12鄰","STREET":"海中街","SECT":" ","MAREA":" ","LANE":" ","ALLEY":" ","HOUSE_NO":"４２號","E_COORD97":166481.87,"N_COORD97":2548889.7200000002,"ADDRESS":"海中街４２號","OBJECTID":161095},"geometry":{"x":166481.87000000197,"y":2548889.7200000025}},{"attributes":{"ID":161097,"DIS_CODE":0,"TOWNNAME":"安南區","LI":"溪心里","LIN":"12鄰","STREET":"安吉路","SECT":"一段","MAREA":" ","LANE":" ","ALLEY":" ","HOUSE_NO":"１０１號","E_COORD97":166759,"N_COORD97":2549375.04,"ADDRESS":"安吉路一段１０１號","OBJECTID":161096},"geometry":{"x":166759.00000000093,"y":2549375.0399999991}},{"attributes":{"ID":161098,"DIS_CODE":0,"TOWNNAME":"新市區","LI":"大社里","LIN":"12鄰","STREET":" ","SECT":" ","MAREA":"大社","LANE":" ","ALLEY":" ","HOUSE_NO":"３１３之２號","E_COORD97":180145.95999999999,"N_COORD97":2554632.2999999998,"ADDRESS":"大社３１３之２號","OBJECTID":161097},"geometry":{"x":180145.96000000183,"y":2554632.3000000026}},{"attributes":{"ID":161099,"DIS_CODE":0,"TOWNNAME":"新市區","LI":"社內里","LIN":"12鄰","STREET":" ","SECT":" ","MAREA":"社內","LANE":" ","ALLEY":" ","HOUSE_NO":"１２５之１號","E_COORD97":176479.60999999999,"N_COORD97":2552732.0499999998,"ADDRESS":"社內１２５之１號","OBJECTID":161098},"geometry":{"x":176479.61000000034,"y":2552732.0500000026}},{"attributes":{"ID":161100,"DIS_CODE":0,"TOWNNAME":"永康區","LI":"正強里","LIN":"17鄰","STREET":"自強路","SECT":" ","MAREA":" ","LANE":"１８８巷","ALLEY":"３０弄","HOUSE_NO":"４號","E_COORD97":173191.97,"N_COORD97":2547379.0800000001,"ADDRESS":"自強路１８８巷３０弄４號","OBJECTID":161099},"geometry":{"x":173191.9700000016,"y":2547379.0800000001}},{"attributes":{"ID":161101,"DIS_CODE":0,"TOWNNAME":"安南區","LI":"溪心里","LIN":"12鄰","STREET":"安吉路","SECT":"一段","MAREA":" ","LANE":" ","ALLEY":" ","HOUSE_NO":"１０３號","E_COORD97":166759.13,"N_COORD97":2549380.1000000001,"ADDRESS":"安吉路一段１０３號","OBJECTID":161100},"geometry":{"x":166759.12999999989,"y":2549380.1000000034}},{"attributes":{"ID":161102,"DIS_CODE":0,"TOWNNAME":"永康區","LI":"正強里","LIN":"6鄰","STREET":"自強路","SECT":" ","MAREA":" ","LANE":"３３０巷","ALLEY":"９弄","HOUSE_NO":"７號","E_COORD97":173463.73999999999,"N_COORD97":2547694.5,"ADDRESS":"自強路３３０巷９弄７號","OBJECTID":161101},"geometry":{"x":173463.74000000209,"y":2547694.5}},{"attributes":{"ID":161103,"DIS_CODE":0,"TOWNNAME":"永康區","LI":"正強里","LIN":"17鄰","STREET":"自強路","SECT":" ","MAREA":" ","LANE":"１８８巷","ALLEY":"４６弄","HOUSE_NO":"２號","E_COORD97":173194.63,"N_COORD97":2547334.0800000001,"ADDRESS":"自強路１８８巷４６弄２號","OBJECTID":161102},"geometry":{"x":173194.63000000082,"y":2547334.0800000019}},{"attributes":{"ID":161104,"DIS_CODE":0,"TOWNNAME":"新市區","LI":"社內里","LIN":"12鄰","STREET":" ","SECT":" ","MAREA":"社內","LANE":" ","ALLEY":" ","HOUSE_NO":"１２３號","E_COORD97":176497.03,"N_COORD97":2552694.5,"ADDRESS":"社內１２３號","OBJECTID":161103},"geometry":{"x":176497.03000000026,"y":2552694.5000000019}},{"attributes":{"ID":161105,"DIS_CODE":0,"TOWNNAME":"永康區","LI":"正強里","LIN":"31鄰","STREET":"自強路","SECT":" ","MAREA":" ","LANE":"２５５巷","ALLEY":"３５弄","HOUSE_NO":"２號之２８","E_COORD97":173129.72,"N_COORD97":2547586.5499999998,"ADDRESS":"自強路２５５巷３５弄２號之２８","OBJECTID":161104},"geometry":{"x":173129.72000000067,"y":2547586.5500000007}},{"attributes":{"ID":161106,"DIS_CODE":0,"TOWNNAME":"新市區","LI":"社內里","LIN":"12鄰","STREET":" ","SECT":" ","MAREA":"社內","LANE":" ","ALLEY":" ","HOUSE_NO":"１２４號","E_COORD97":176486.42000000001,"N_COORD97":2552679.25,"ADDRESS":"社內１２４號","OBJECTID":161105},"geometry":{"x":176486.42000000179,"y":2552679.2500000019}},{"attributes":{"ID":161107,"DIS_CODE":0,"TOWNNAME":"新市區","LI":"永就里","LIN":"12鄰","STREET":"永華二街","SECT":" ","MAREA":" ","LANE":" ","ALLEY":" ","HOUSE_NO":"２１號","E_COORD97":177781.54000000001,"N_COORD97":2551060.5,"ADDRESS":"永華二街２１號","OBJECTID":161106},"geometry":{"x":177781.54000000097,"y":2551060.5000000019}},{"attributes":{"ID":161108,"DIS_CODE":0,"TOWNNAME":"新市區","LI":"社內里","LIN":"12鄰","STREET":" ","SECT":" ","MAREA":"社內","LANE":" ","ALLEY":" ","HOUSE_NO":"１２５號","E_COORD97":176484.76000000001,"N_COORD97":2552719.25,"ADDRESS":"社內１２５號","OBJECTID":161107},"geometry":{"x":176484.75999999978,"y":2552719.2500000019}},{"attributes":{"ID":161109,"DIS_CODE":0,"TOWNNAME":"新市區","LI":"社內里","LIN":"12鄰","STREET":" ","SECT":" ","MAREA":"社內","LANE":" ","ALLEY":" ","HOUSE_NO":"１２５之５號","E_COORD97":176467.45000000001,"N_COORD97":2552739.2999999998,"ADDRESS":"社內１２５之５號","OBJECTID":161108},"geometry":{"x":176467.45000000019,"y":2552739.3000000007}},{"attributes":{"ID":161110,"DIS_CODE":0,"TOWNNAME":"新市區","LI":"大社里","LIN":"12鄰","STREET":" ","SECT":" ","MAREA":"大社","LANE":" ","ALLEY":" ","HOUSE_NO":"３１６號","E_COORD97":180139.45999999999,"N_COORD97":2554559.75,"ADDRESS":"大社３１６號","OBJECTID":161109},"geometry":{"x":180139.46000000089,"y":2554559.7500000037}},{"attributes":{"ID":161111,"DIS_CODE":0,"TOWNNAME":"新市區","LI":"潭頂里","LIN":"12鄰","STREET":" ","SECT":" ","MAREA":"潭頂","LANE":" ","ALLEY":" ","HOUSE_NO":"３９３號","E_COORD97":180562.37,"N_COORD97":2552929.5,"ADDRESS":"潭頂３９３號","OBJECTID":161110},"geometry":{"x":180562.37000000104,"y":2552929.5}},{"attributes":{"ID":161112,"DIS_CODE":0,"TOWNNAME":"新市區","LI":"豐華里","LIN":"12鄰","STREET":" ","SECT":" ","MAREA":"豐華","LANE":" ","ALLEY":" ","HOUSE_NO":"４７之１１４號","E_COORD97":174213.10000000001,"N_COORD97":2554463.2999999998,"ADDRESS":"豐華４７之１１４號","OBJECTID":161111},"geometry":{"x":174213.0999999987,"y":2554463.3000000026}},{"attributes":{"ID":161113,"DIS_CODE":0,"TOWNNAME":"新市區","LI":"潭頂里","LIN":"12鄰","STREET":" ","SECT":" ","MAREA":"潭頂","LANE":" ","ALLEY":" ","HOUSE_NO":"３９０號","E_COORD97":180521.47,"N_COORD97":2552931.25,"ADDRESS":"潭頂３９０號","OBJECTID":161112},"geometry":{"x":180521.46999999974,"y":2552931.25}},{"attributes":{"ID":161114,"DIS_CODE":0,"TOWNNAME":"新市區","LI":"潭頂里","LIN":"12鄰","STREET":" ","SECT":" ","MAREA":"潭頂","LANE":" ","ALLEY":" ","HOUSE_NO":"４４５之１號","E_COORD97":180435.20000000001,"N_COORD97":2553066.7999999998,"ADDRESS":"潭頂４４５之１號","OBJECTID":161113},"geometry":{"x":180435.20000000112,"y":2553066.8000000026}},{"attributes":{"ID":161115,"DIS_CODE":0,"TOWNNAME":"新市區","LI":"豐華里","LIN":"12鄰","STREET":" ","SECT":" ","MAREA":"豐華","LANE":" ","ALLEY":" ","HOUSE_NO":"４７之１０３號","E_COORD97":174194.01000000001,"N_COORD97":2554410.5499999998,"ADDRESS":"豐華４７之１０３號","OBJECTID":161114},"geometry":{"x":174194.01000000071,"y":2554410.5500000026}},{"attributes":{"ID":161116,"DIS_CODE":0,"TOWNNAME":"將軍區","LI":"仁和里","LIN":"22鄰","STREET":" ","SECT":" ","MAREA":"和巷","LANE":" ","ALLEY":" ","HOUSE_NO":"９９號","E_COORD97":163836.69,"N_COORD97":2569265.71,"ADDRESS":"和巷９９號","OBJECTID":161115},"geometry":{"x":163836.69000000041,"y":2569265.7100000028}},{"attributes":{"ID":161117,"DIS_CODE":0,"TOWNNAME":"麻豆區","LI":"寮\u25A0里","LIN":"12鄰","STREET":" ","SECT":" ","MAREA":"寮子\u25A0","LANE":" ","ALLEY":" ","HOUSE_NO":"９５號","E_COORD97":176649.64000000001,"N_COORD97":2565232.9399999999,"ADDRESS":"寮子\u25A0９５號","OBJECTID":161116},"geometry":{"x":176649.6400000006,"y":2565232.9399999995}},{"attributes":{"ID":161118,"DIS_CODE":0,"TOWNNAME":"麻豆區","LI":"寮\u25A0里","LIN":"12鄰","STREET":" ","SECT":" ","MAREA":"寮子\u25A0","LANE":" ","ALLEY":" ","HOUSE_NO":"９６號","E_COORD97":176671.26000000001,"N_COORD97":2565230.6499999999,"ADDRESS":"寮子\u25A0９６號","OBJECTID":161117},"geometry":{"x":176671.25999999978,"y":2565230.6500000041}},{"attributes":{"ID":161119,"DIS_CODE":0,"TOWNNAME":"麻豆區","LI":"寮\u25A0里","LIN":"12鄰","STREET":" ","SECT":" ","MAREA":"寮子\u25A0","LANE":" ","ALLEY":" ","HOUSE_NO":"９７號","E_COORD97":176690.82999999999,"N_COORD97":2565210.1899999999,"ADDRESS":"寮子\u25A0９７號","OBJECTID":161118},"geometry":{"x":176690.83000000101,"y":2565210.1900000013}},{"attributes":{"ID":161120,"DIS_CODE":0,"TOWNNAME":"麻豆區","LI":"寮\u25A0里","LIN":"12鄰","STREET":" ","SECT":" ","MAREA":"寮子\u25A0","LANE":" ","ALLEY":" ","HOUSE_NO":"９８號之１","E_COORD97":176681.62,"N_COORD97":2565231.4199999999,"ADDRESS":"寮子\u25A0９８號之１","OBJECTID":161119},"geometry":{"x":176681.62000000011,"y":2565231.4200000037}},{"attributes":{"ID":161121,"DIS_CODE":0,"TOWNNAME":"麻豆區","LI":"寮\u25A0里","LIN":"12鄰","STREET":" ","SECT":" ","MAREA":"寮子\u25A0","LANE":" ","ALLEY":" ","HOUSE_NO":"９８號","E_COORD97":176698,"N_COORD97":2565231.79,"ADDRESS":"寮子\u25A0９８號","OBJECTID":161120},"geometry":{"x":176698.00000000093,"y":2565231.7900000028}},{"attributes":{"ID":161122,"DIS_CODE":0,"TOWNNAME":"大內區","LI":"石湖里","LIN":"5鄰","STREET":" ","SECT":" ","MAREA":"石子瀨","LANE":" ","ALLEY":" ","HOUSE_NO":"２６６號","E_COORD97":184098.37,"N_COORD97":2558456.25,"ADDRESS":"石子瀨２６６號","OBJECTID":161121},"geometry":{"x":184098.37000000104,"y":2558456.2500000019}},{"attributes":{"ID":161123,"DIS_CODE":0,"TOWNNAME":"大內區","LI":"石城里","LIN":"5鄰","STREET":" ","SECT":" ","MAREA":"石子瀨","LANE":" ","ALLEY":" ","HOUSE_NO":"４７之２號","E_COORD97":184192.51999999999,"N_COORD97":2557992.2999999998,"ADDRESS":"石子瀨４７之２號","OBJECTID":161122},"geometry":{"x":184192.51999999955,"y":2557992.3000000026}},{"attributes":{"ID":161124,"DIS_CODE":0,"TOWNNAME":"大內區","LI":"環湖里","LIN":"5鄰","STREET":" ","SECT":" ","MAREA":"環湖","LANE":" ","ALLEY":" ","HOUSE_NO":"６９號之１","E_COORD97":190445.07999999999,"N_COORD97":2560588.2999999998,"ADDRESS":"環湖６９號之１","OBJECTID":161123},"geometry":{"x":190445.08000000007,"y":2560588.3000000045}},{"attributes":{"ID":161125,"DIS_CODE":0,"TOWNNAME":"大內區","LI":"頭社里","LIN":"5鄰","STREET":" ","SECT":" ","MAREA":"頭社","LANE":" ","ALLEY":" ","HOUSE_NO":"６５號","E_COORD97":187202.64000000001,"N_COORD97":2560347.25,"ADDRESS":"頭社６５號","OBJECTID":161124},"geometry":{"x":187202.63999999966,"y":2560347.2500000037}},{"attributes":{"ID":161126,"DIS_CODE":0,"TOWNNAME":"大內區","LI":"頭社里","LIN":"5鄰","STREET":" ","SECT":" ","MAREA":"頭社","LANE":" ","ALLEY":" ","HOUSE_NO":"６４號","E_COORD97":187203.04000000001,"N_COORD97":2560336.25,"ADDRESS":"頭社６４號","OBJECTID":161125},"geometry":{"x":187203.04000000097,"y":2560336.25}},{"attributes":{"ID":161127,"DIS_CODE":0,"TOWNNAME":"大內區","LI":"頭社里","LIN":"5鄰","STREET":" ","SECT":" ","MAREA":"頭社","LANE":" ","ALLEY":" ","HOUSE_NO":"６３號之４","E_COORD97":187205.20000000001,"N_COORD97":2560329.2999999998,"ADDRESS":"頭社６３號之４","OBJECTID":161126},"geometry":{"x":187205.20000000112,"y":2560329.3000000007}},{"attributes":{"ID":161128,"DIS_CODE":0,"TOWNNAME":"大內區","LI":"石城里","LIN":"5鄰","STREET":" ","SECT":" ","MAREA":"石子瀨","LANE":" ","ALLEY":" ","HOUSE_NO":"４４號","E_COORD97":184191.62,"N_COORD97":2558049.25,"ADDRESS":"石子瀨４４號","OBJECTID":161127},"geometry":{"x":184191.62000000104,"y":2558049.2500000019}},{"attributes":{"ID":161129,"DIS_CODE":0,"TOWNNAME":"大內區","LI":"頭社里","LIN":"5鄰","STREET":" ","SECT":" ","MAREA":"頭社","LANE":" ","ALLEY":" ","HOUSE_NO":"６３號之２","E_COORD97":187204.91,"N_COORD97":2560317.2999999998,"ADDRESS":"頭社６３號之２","OBJECTID":161128},"geometry":{"x":187204.91000000015,"y":2560317.3000000045}},{"attributes":{"ID":161130,"DIS_CODE":0,"TOWNNAME":"大內區","LI":"石林里","LIN":"5鄰","STREET":" ","SECT":" ","MAREA":"石子瀨","LANE":" ","ALLEY":" ","HOUSE_NO":"１７０號之２","E_COORD97":183976.14000000001,"N_COORD97":2558128.2999999998,"ADDRESS":"石子瀨１７０號之２","OBJECTID":161129},"geometry":{"x":183976.1400000006,"y":2558128.3000000026}},{"attributes":{"ID":161131,"DIS_CODE":0,"TOWNNAME":"大內區","LI":"內郭里","LIN":"5鄰","STREET":" ","SECT":" ","MAREA":"內庄","LANE":" ","ALLEY":" ","HOUSE_NO":"１９３號","E_COORD97":184813.48000000001,"N_COORD97":2557360.25,"ADDRESS":"內庄１９３號","OBJECTID":161130},"geometry":{"x":184813.48000000138,"y":2557360.2500000037}},{"attributes":{"ID":161132,"DIS_CODE":0,"TOWNNAME":"大內區","LI":"內郭里","LIN":"5鄰","STREET":" ","SECT":" ","MAREA":"內庄","LANE":" ","ALLEY":" ","HOUSE_NO":"１８８號","E_COORD97":184803.98000000001,"N_COORD97":2557354.25,"ADDRESS":"內庄１８８號","OBJECTID":161131},"geometry":{"x":184803.98000000045,"y":2557354.2500000019}},{"attributes":{"ID":161133,"DIS_CODE":0,"TOWNNAME":"大內區","LI":"內江里","LIN":"5鄰","STREET":" ","SECT":" ","MAREA":"內庄","LANE":" ","ALLEY":" ","HOUSE_NO":"２６３號之１","E_COORD97":184584.41,"N_COORD97":2557402.2999999998,"ADDRESS":"內庄２６３號之１","OBJECTID":161132},"geometry":{"x":184584.40999999922,"y":2557402.3000000026}},{"attributes":{"ID":161134,"DIS_CODE":0,"TOWNNAME":"永康區","LI":"正強里","LIN":"31鄰","STREET":"自強路","SECT":" ","MAREA":" ","LANE":"２５５巷","ALLEY":"３５弄","HOUSE_NO":"２號之８","E_COORD97":173128.47,"N_COORD97":2547586.5499999998,"ADDRESS":"自強路２５５巷３５弄２號之８","OBJECTID":161133},"geometry":{"x":173128.46999999974,"y":2547586.5500000007}},{"attributes":{"ID":161135,"DIS_CODE":0,"TOWNNAME":"大內區","LI":"大內里","LIN":"5鄰","STREET":" ","SECT":" ","MAREA":"內庄","LANE":" ","ALLEY":" ","HOUSE_NO":"６７號之８","E_COORD97":184321.81,"N_COORD97":2557727.2999999998,"ADDRESS":"內庄６７號之８","OBJECTID":161134},"geometry":{"x":184321.81000000145,"y":2557727.3000000026}},{"attributes":{"ID":161136,"DIS_CODE":0,"TOWNNAME":"麻豆區","LI":"海埔里","LIN":"5鄰","STREET":" ","SECT":" ","MAREA":"海埔","LANE":" ","ALLEY":" ","HOUSE_NO":"２號","E_COORD97":169597.85999999999,"N_COORD97":2566647.6000000001,"ADDRESS":"海埔２號","OBJECTID":161135},"geometry":{"x":169597.8600000022,"y":2566647.6000000015}},{"attributes":{"ID":161137,"DIS_CODE":0,"TOWNNAME":"麻豆區","LI":"海埔里","LIN":"5鄰","STREET":" ","SECT":" ","MAREA":"海埔","LANE":" ","ALLEY":" ","HOUSE_NO":"４號","E_COORD97":169542.67000000001,"N_COORD97":2566689.0299999998,"ADDRESS":"海埔４號","OBJECTID":161136},"geometry":{"x":169542.66999999899,"y":2566689.0300000012}},{"attributes":{"ID":161138,"DIS_CODE":0,"TOWNNAME":"麻豆區","LI":"海埔里","LIN":"5鄰","STREET":" ","SECT":" ","MAREA":"海埔","LANE":" ","ALLEY":" ","HOUSE_NO":"６號之２","E_COORD97":169511.48999999999,"N_COORD97":2566641.1000000001,"ADDRESS":"海埔６號之２","OBJECTID":161137},"geometry":{"x":169511.49000000022,"y":2566641.1000000015}},{"attributes":{"ID":161139,"DIS_CODE":0,"TOWNNAME":"麻豆區","LI":"海埔里","LIN":"5鄰","STREET":" ","SECT":" ","MAREA":"海埔","LANE":" ","ALLEY":" ","HOUSE_NO":"６號","E_COORD97":169560.10000000001,"N_COORD97":2566662.6899999999,"ADDRESS":"海埔６號","OBJECTID":161138},"geometry":{"x":169560.10000000056,"y":2566662.6899999995}},{"attributes":{"ID":161140,"DIS_CODE":0,"TOWNNAME":"麻豆區","LI":"海埔里","LIN":"5鄰","STREET":" ","SECT":" ","MAREA":"海埔","LANE":" ","ALLEY":" ","HOUSE_NO":"７號之２","E_COORD97":169539.10999999999,"N_COORD97":2566638.3199999998,"ADDRESS":"海埔７號之２","OBJECTID":161139},"geometry":{"x":169539.11000000127,"y":2566638.3200000003}},{"attributes":{"ID":161141,"DIS_CODE":0,"TOWNNAME":"麻豆區","LI":"海埔里","LIN":"5鄰","STREET":" ","SECT":" ","MAREA":"海埔","LANE":" ","ALLEY":" ","HOUSE_NO":"９號之１６","E_COORD97":169470.47,"N_COORD97":2566643.54,"ADDRESS":"海埔９號之１６","OBJECTID":161140},"geometry":{"x":169470.46999999974,"y":2566643.5400000028}},{"attributes":{"ID":161142,"DIS_CODE":0,"TOWNNAME":"麻豆區","LI":"海埔里","LIN":"5鄰","STREET":" ","SECT":" ","MAREA":"海埔","LANE":" ","ALLEY":" ","HOUSE_NO":"９號之１７","E_COORD97":169465.94,"N_COORD97":2566643.96,"ADDRESS":"海埔９號之１７","OBJECTID":161141},"geometry":{"x":169465.94000000134,"y":2566643.9600000028}},{"attributes":{"ID":161143,"DIS_CODE":0,"TOWNNAME":"麻豆區","LI":"海埔里","LIN":"5鄰","STREET":" ","SECT":" ","MAREA":"海埔","LANE":" ","ALLEY":" ","HOUSE_NO":"９號之１８","E_COORD97":169461.41,"N_COORD97":2566644.3900000001,"ADDRESS":"海埔９號之１８","OBJECTID":161142},"geometry":{"x":169461.41000000015,"y":2566644.3900000025}},{"attributes":{"ID":161144,"DIS_CODE":0,"TOWNNAME":"麻豆區","LI":"海埔里","LIN":"5鄰","STREET":" ","SECT":" ","MAREA":"海埔","LANE":" ","ALLEY":" ","HOUSE_NO":"９號之２６","E_COORD97":169461.48999999999,"N_COORD97":2566667.9199999999,"ADDRESS":"海埔９號之２６","OBJECTID":161143},"geometry":{"x":169461.49000000115,"y":2566667.9199999999}},{"attributes":{"ID":161145,"DIS_CODE":0,"TOWNNAME":"麻豆區","LI":"海埔里","LIN":"5鄰","STREET":" ","SECT":" ","MAREA":"海埔","LANE":" ","ALLEY":" ","HOUSE_NO":"９號之２７","E_COORD97":169461.89999999999,"N_COORD97":2566672.3399999999,"ADDRESS":"海埔９號之２７","OBJECTID":161144},"geometry":{"x":169461.89999999944,"y":2566672.3399999999}},{"attributes":{"ID":161146,"DIS_CODE":0,"TOWNNAME":"麻豆區","LI":"磚井里","LIN":"12鄰","STREET":" ","SECT":" ","MAREA":"磚子井","LANE":" ","ALLEY":" ","HOUSE_NO":"１１１號之１","E_COORD97":173055.44,"N_COORD97":2563326.0499999998,"ADDRESS":"磚子井１１１號之１","OBJECTID":161145},"geometry":{"x":173055.44000000041,"y":2563326.0500000045}},{"attributes":{"ID":161147,"DIS_CODE":0,"TOWNNAME":"麻豆區","LI":"磚井里","LIN":"12鄰","STREET":" ","SECT":" ","MAREA":"磚子井","LANE":" ","ALLEY":" ","HOUSE_NO":"１１１號之２","E_COORD97":173072.97,"N_COORD97":2563349.6400000001,"ADDRESS":"磚子井１１１號之２","OBJECTID":161146},"geometry":{"x":173072.96999999974,"y":2563349.6400000025}},{"attributes":{"ID":161148,"DIS_CODE":0,"TOWNNAME":"麻豆區","LI":"磚井里","LIN":"12鄰","STREET":" ","SECT":" ","MAREA":"磚子井","LANE":" ","ALLEY":" ","HOUSE_NO":"１１１號之３","E_COORD97":173066.10999999999,"N_COORD97":2563281.6600000001,"ADDRESS":"磚子井１１１號之３","OBJECTID":161147},"geometry":{"x":173066.1099999994,"y":2563281.660000002}},{"attributes":{"ID":161149,"DIS_CODE":0,"TOWNNAME":"麻豆區","LI":"磚井里","LIN":"12鄰","STREET":" ","SECT":" ","MAREA":"磚子井","LANE":" ","ALLEY":" ","HOUSE_NO":"１１１號","E_COORD97":172996.39999999999,"N_COORD97":2563356.1099999999,"ADDRESS":"磚子井１１１號","OBJECTID":161148},"geometry":{"x":172996.39999999944,"y":2563356.1100000013}},{"attributes":{"ID":161150,"DIS_CODE":0,"TOWNNAME":"麻豆區","LI":"磚井里","LIN":"12鄰","STREET":" ","SECT":" ","MAREA":"磚子井","LANE":" ","ALLEY":" ","HOUSE_NO":"１１２號","E_COORD97":173001.56,"N_COORD97":2563332.8300000001,"ADDRESS":"磚子井１１２號","OBJECTID":161149},"geometry":{"x":173001.56000000052,"y":2563332.8300000001}},{"attributes":{"ID":161151,"DIS_CODE":0,"TOWNNAME":"永康區","LI":"正強里","LIN":"13鄰","STREET":"正強街","SECT":" ","MAREA":" ","LANE":"１１１巷","ALLEY":"１６弄","HOUSE_NO":"２６號","E_COORD97":173283.26999999999,"N_COORD97":2547446.73,"ADDRESS":"正強街１１１巷１６弄２６號","OBJECTID":161150},"geometry":{"x":173283.27000000048,"y":2547446.7300000004}},{"attributes":{"ID":161152,"DIS_CODE":0,"TOWNNAME":"永康區","LI":"正強里","LIN":"17鄰","STREET":"自強路","SECT":" ","MAREA":" ","LANE":"１８８巷","ALLEY":"１６弄","HOUSE_NO":"３號","E_COORD97":173187.14999999999,"N_COORD97":2547414.1400000001,"ADDRESS":"自強路１８８巷１６弄３號","OBJECTID":161151},"geometry":{"x":173187.1500000013,"y":2547414.1399999987}},{"attributes":{"ID":161153,"DIS_CODE":0,"TOWNNAME":"永康區","LI":"北灣里","LIN":"28鄰","STREET":"文賢街","SECT":" ","MAREA":" ","LANE":"７８巷","ALLEY":"１９弄","HOUSE_NO":"２０號","E_COORD97":175448.70000000001,"N_COORD97":2545343.0699999998,"ADDRESS":"文賢街７８巷１９弄２０號","OBJECTID":161152},"geometry":{"x":175448.70000000019,"y":2545343.070000004}},{"attributes":{"ID":161154,"DIS_CODE":0,"TOWNNAME":"仁德區","LI":"後壁里","LIN":"12鄰","STREET":"德南路","SECT":" ","MAREA":" ","LANE":"２５１巷","ALLEY":"２９弄","HOUSE_NO":"１５號","E_COORD97":173798.270124,"N_COORD97":2538496.1552200001,"ADDRESS":"德南路２５１巷２９弄１５號","OBJECTID":161153},"geometry":{"x":173798.2701240005,"y":2538496.1552170012}},{"attributes":{"ID":161155,"DIS_CODE":0,"TOWNNAME":"永康區","LI":"正強里","LIN":"31鄰","STREET":"自強路","SECT":" ","MAREA":" ","LANE":"２５５巷","ALLEY":"３５弄","HOUSE_NO":"２號","E_COORD97":173146.57999999999,"N_COORD97":2547530.2400000002,"ADDRESS":"自強路２５５巷３５弄２號","OBJECTID":161154},"geometry":{"x":173146.58000000101,"y":2547530.2400000002}},{"attributes":{"ID":161156,"DIS_CODE":0,"TOWNNAME":"永康區","LI":"永康里","LIN":"23鄰","STREET":"中山南路","SECT":" ","MAREA":" ","LANE":"５９７巷","ALLEY":"９弄","HOUSE_NO":"２１號","E_COORD97":173412.14999999999,"N_COORD97":2547202.7400000002,"ADDRESS":"中山南路５９７巷９弄２１號","OBJECTID":161155},"geometry":{"x":173412.1500000013,"y":2547202.7400000002}},{"attributes":{"ID":161157,"DIS_CODE":0,"TOWNNAME":"麻豆區","LI":"磚井里","LIN":"12鄰","STREET":" ","SECT":" ","MAREA":"磚子井","LANE":" ","ALLEY":" ","HOUSE_NO":"１１３號之１","E_COORD97":173009.31,"N_COORD97":2563290.0800000001,"ADDRESS":"磚子井１１３號之１","OBJECTID":161156},"geometry":{"x":173009.30999999959,"y":2563290.0800000001}},{"attributes":{"ID":161158,"DIS_CODE":0,"TOWNNAME":"麻豆區","LI":"磚井里","LIN":"12鄰","STREET":" ","SECT":" ","MAREA":"磚子井","LANE":" ","ALLEY":" ","HOUSE_NO":"１１３號之２","E_COORD97":172980.85000000001,"N_COORD97":2563299.8700000001,"ADDRESS":"磚子井１１３號之２","OBJECTID":161157},"geometry":{"x":172980.85000000149,"y":2563299.870000001}},{"attributes":{"ID":161159,"DIS_CODE":0,"TOWNNAME":"麻豆區","LI":"磚井里","LIN":"12鄰","STREET":" ","SECT":" ","MAREA":"磚子井","LANE":" ","ALLEY":" ","HOUSE_NO":"１１３號","E_COORD97":172977.54000000001,"N_COORD97":2563306.73,"ADDRESS":"磚子井１１３號","OBJECTID":161158},"geometry":{"x":172977.54000000004,"y":2563306.7300000004}},{"attributes":{"ID":161160,"DIS_CODE":0,"TOWNNAME":"麻豆區","LI":"磚井里","LIN":"12鄰","STREET":" ","SECT":" ","MAREA":"磚子井","LANE":" ","ALLEY":" ","HOUSE_NO":"１１５號之１","E_COORD97":172964.14999999999,"N_COORD97":2563345.29,"ADDRESS":"磚子井１１５號之１","OBJECTID":161159},"geometry":{"x":172964.15000000037,"y":2563345.2899999991}},{"attributes":{"ID":161161,"DIS_CODE":0,"TOWNNAME":"永康區","LI":"永康里","LIN":"34鄰","STREET":"永大路","SECT":"二段","MAREA":" ","LANE":"１３１０巷","ALLEY":"１６弄","HOUSE_NO":"９號","E_COORD97":174360.85999999999,"N_COORD97":2547024.7599999998,"ADDRESS":"永大路二段１３１０巷１６弄９號","OBJECTID":161160},"geometry":{"x":174360.86000000034,"y":2547024.7599999998}},{"attributes":{"ID":161162,"DIS_CODE":0,"TOWNNAME":"永康區","LI":"永康里","LIN":"32鄰","STREET":"永大路","SECT":"二段","MAREA":" ","LANE":"１５２６巷","ALLEY":"２弄","HOUSE_NO":"３號","E_COORD97":174311.28,"N_COORD97":2547285.54,"ADDRESS":"永大路二段１５２６巷２弄３號","OBJECTID":161161},"geometry":{"x":174311.28000000119,"y":2547285.540000001}},{"attributes":{"ID":161163,"DIS_CODE":0,"TOWNNAME":"安南區","LI":"佃東里","LIN":"1鄰","STREET":"海佃路","SECT":"四段","MAREA":" ","LANE":"３８８巷","ALLEY":"６弄","HOUSE_NO":"２７號","E_COORD97":165696.64999999999,"N_COORD97":2551582.1000000001,"ADDRESS":"海佃路四段３８８巷６弄２７號","OBJECTID":161162},"geometry":{"x":165696.65000000037,"y":2551582.0999999996}},{"attributes":{"ID":161164,"DIS_CODE":0,"TOWNNAME":"永康區","LI":"正強里","LIN":"31鄰","STREET":"自強路","SECT":" ","MAREA":" ","LANE":"２５５巷","ALLEY":"３５弄","HOUSE_NO":"２號之１３","E_COORD97":173129.67000000001,"N_COORD97":2547586.5499999998,"ADDRESS":"自強路２５５巷３５弄２號之１３","OBJECTID":161163},"geometry":{"x":173129.66999999993,"y":2547586.5500000007}},{"attributes":{"ID":161165,"DIS_CODE":0,"TOWNNAME":"永康區","LI":"甲頂里","LIN":"18鄰","STREET":"中正南路","SECT":" ","MAREA":" ","LANE":"５２巷","ALLEY":"４６弄","HOUSE_NO":"４７號","E_COORD97":169867.07000000001,"N_COORD97":2546640.6400000001,"ADDRESS":"中正南路５２巷４６弄４７號","OBJECTID":161164},"geometry":{"x":169867.0700000003,"y":2546640.6400000006}},{"attributes":{"ID":161166,"DIS_CODE":0,"TOWNNAME":"永康區","LI":"甲頂里","LIN":"18鄰","STREET":"中正南路","SECT":" ","MAREA":" ","LANE":"５２巷","ALLEY":"４６弄","HOUSE_NO":"４４號","E_COORD97":169842.07999999999,"N_COORD97":2546638.0899999999,"ADDRESS":"中正南路５２巷４６弄４４號","OBJECTID":161165},"geometry":{"x":169842.08000000101,"y":2546638.0900000017}},{"attributes":{"ID":161167,"DIS_CODE":0,"TOWNNAME":"永康區","LI":"正強里","LIN":"14鄰","STREET":"正強街","SECT":" ","MAREA":" ","LANE":"１１１巷","ALLEY":"９弄","HOUSE_NO":"１號","E_COORD97":173303.53,"N_COORD97":2547386.5,"ADDRESS":"正強街１１１巷９弄１號","OBJECTID":161166},"geometry":{"x":173303.53000000026,"y":2547386.5}},{"attributes":{"ID":161168,"DIS_CODE":0,"TOWNNAME":"永康區","LI":"甲頂里","LIN":"18鄰","STREET":"中正南路","SECT":" ","MAREA":" ","LANE":"５２巷","ALLEY":"４６弄","HOUSE_NO":"６０號","E_COORD97":169881.54000000001,"N_COORD97":2546624.8399999999,"ADDRESS":"中正南路５２巷４６弄６０號","OBJECTID":161167},"geometry":{"x":169881.54000000097,"y":2546624.8399999999}},{"attributes":{"ID":161169,"DIS_CODE":0,"TOWNNAME":"永康區","LI":"永康里","LIN":"24鄰","STREET":"中山南路","SECT":" ","MAREA":" ","LANE":"６２１巷","ALLEY":"５弄","HOUSE_NO":"２號","E_COORD97":173555.76000000001,"N_COORD97":2547259.5,"ADDRESS":"中山南路６２１巷５弄２號","OBJECTID":161168},"geometry":{"x":173555.75999999978,"y":2547259.5000000019}},{"attributes":{"ID":161170,"DIS_CODE":0,"TOWNNAME":"永康區","LI":"正強里","LIN":"17鄰","STREET":"自強路","SECT":" ","MAREA":" ","LANE":"１８８巷","ALLEY":"４６弄","HOUSE_NO":"３１號","E_COORD97":173152.98000000001,"N_COORD97":2547314.2000000002,"ADDRESS":"自強路１８８巷４６弄３１號","OBJECTID":161169},"geometry":{"x":173152.98000000045,"y":2547314.200000003}},{"attributes":{"ID":161171,"DIS_CODE":0,"TOWNNAME":"永康區","LI":"正強里","LIN":"6鄰","STREET":"自強路","SECT":" ","MAREA":" ","LANE":"３３０巷","ALLEY":"９弄","HOUSE_NO":"１３號","E_COORD97":173479.82999999999,"N_COORD97":2547703.4900000002,"ADDRESS":"自強路３３０巷９弄１３號","OBJECTID":161170},"geometry":{"x":173479.83000000194,"y":2547703.4900000021}},{"attributes":{"ID":161172,"DIS_CODE":0,"TOWNNAME":"永康區","LI":"正強里","LIN":"23鄰","STREET":"自強路","SECT":" ","MAREA":" ","LANE":"２５５巷","ALLEY":"６弄","HOUSE_NO":"３３號","E_COORD97":173231.53,"N_COORD97":2547658.1600000001,"ADDRESS":"自強路２５５巷６弄３３號","OBJECTID":161171},"geometry":{"x":173231.53000000119,"y":2547658.160000002}},{"attributes":{"ID":161173,"DIS_CODE":0,"TOWNNAME":"永康區","LI":"北灣里","LIN":"38鄰","STREET":"大灣路","SECT":" ","MAREA":" ","LANE":"４０巷","ALLEY":"１５３弄","HOUSE_NO":"７號","E_COORD97":174887.14000000001,"N_COORD97":2546210.1299999999,"ADDRESS":"大灣路４０巷１５３弄７號","OBJECTID":161172},"geometry":{"x":174887.13999999966,"y":2546210.1300000008}},{"attributes":{"ID":161174,"DIS_CODE":0,"TOWNNAME":"永康區","LI":"正強里","LIN":"27鄰","STREET":"中正路","SECT":" ","MAREA":" ","LANE":"１５５巷","ALLEY":"４弄","HOUSE_NO":"２１號","E_COORD97":173168.48000000001,"N_COORD97":2547857.5,"ADDRESS":"中正路１５５巷４弄２１號","OBJECTID":161173},"geometry":{"x":173168.48000000045,"y":2547857.5}},{"attributes":{"ID":161175,"DIS_CODE":0,"TOWNNAME":"永康區","LI":"王行里","LIN":"10鄰","STREET":"王行路","SECT":" ","MAREA":" ","LANE":"１０１８巷","ALLEY":"３８弄","HOUSE_NO":"１號","E_COORD97":175815.53,"N_COORD97":2550229.4900000002,"ADDRESS":"王行路１０１８巷３８弄１號","OBJECTID":161174},"geometry":{"x":175815.53000000026,"y":2550229.4900000021}},{"attributes":{"ID":161176,"DIS_CODE":0,"TOWNNAME":"永康區","LI":"北灣里","LIN":"21鄰","STREET":"大同街","SECT":" ","MAREA":" ","LANE":"３８０巷","ALLEY":"４１弄","HOUSE_NO":"９號","E_COORD97":174846.82000000001,"N_COORD97":2546086.6000000001,"ADDRESS":"大同街３８０巷４１弄９號","OBJECTID":161175},"geometry":{"x":174846.82000000123,"y":2546086.5999999996}},{"attributes":{"ID":161177,"DIS_CODE":0,"TOWNNAME":"麻豆區","LI":"磚井里","LIN":"12鄰","STREET":" ","SECT":" ","MAREA":"磚子井","LANE":" ","ALLEY":" ","HOUSE_NO":"１２０號之１","E_COORD97":172931.06,"N_COORD97":2563262.29,"ADDRESS":"磚子井１２０號之１","OBJECTID":161176},"geometry":{"x":172931.05999999959,"y":2563262.290000001}},{"attributes":{"ID":161178,"DIS_CODE":0,"TOWNNAME":"麻豆區","LI":"磚井里","LIN":"12鄰","STREET":" ","SECT":" ","MAREA":"磚子井","LANE":" ","ALLEY":" ","HOUSE_NO":"１２０號之２","E_COORD97":172930.54999999999,"N_COORD97":2563237.3399999999,"ADDRESS":"磚子井１２０號之２","OBJECTID":161177},"geometry":{"x":172930.55000000168,"y":2563237.3399999999}},{"attributes":{"ID":161179,"DIS_CODE":0,"TOWNNAME":"將軍區","LI":"仁和里","LIN":"2鄰","STREET":" ","SECT":" ","MAREA":"仁巷","LANE":" ","ALLEY":" ","HOUSE_NO":"１７號","E_COORD97":164048.23999999999,"N_COORD97":2569371.4500000002,"ADDRESS":"仁巷１７號","OBJECTID":161178},"geometry":{"x":164048.24000000022,"y":2569371.4500000011}},{"attributes":{"ID":161180,"DIS_CODE":0,"TOWNNAME":"麻豆區","LI":"磚井里","LIN":"12鄰","STREET":" ","SECT":" ","MAREA":"磚子井","LANE":" ","ALLEY":" ","HOUSE_NO":"１２０號","E_COORD97":172926.98999999999,"N_COORD97":2563254.5699999998,"ADDRESS":"磚子井１２０號","OBJECTID":161179},"geometry":{"x":172926.99000000115,"y":2563254.570000004}},{"attributes":{"ID":161181,"DIS_CODE":0,"TOWNNAME":"麻豆區","LI":"磚井里","LIN":"12鄰","STREET":" ","SECT":" ","MAREA":"磚子井","LANE":" ","ALLEY":" ","HOUSE_NO":"１２１號","E_COORD97":172911.41,"N_COORD97":2563277.3599999999,"ADDRESS":"磚子井１２１號","OBJECTID":161180},"geometry":{"x":172911.41000000201,"y":2563277.3599999994}},{"attributes":{"ID":161182,"DIS_CODE":0,"TOWNNAME":"麻豆區","LI":"磚井里","LIN":"12鄰","STREET":" ","SECT":" ","MAREA":"磚子井","LANE":" ","ALLEY":" ","HOUSE_NO":"１２２號","E_COORD97":172896.56,"N_COORD97":2563275.29,"ADDRESS":"磚子井１２２號","OBJECTID":161181},"geometry":{"x":172896.56000000052,"y":2563275.2900000028}},{"attributes":{"ID":161183,"DIS_CODE":0,"TOWNNAME":"麻豆區","LI":"磚井里","LIN":"12鄰","STREET":" ","SECT":" ","MAREA":"磚子井","LANE":" ","ALLEY":" ","HOUSE_NO":"１２３號","E_COORD97":172880.91,"N_COORD97":2563260.8100000001,"ADDRESS":"磚子井１２３號","OBJECTID":161182},"geometry":{"x":172880.91000000201,"y":2563260.8100000024}},{"attributes":{"ID":161184,"DIS_CODE":0,"TOWNNAME":"永康區","LI":"北灣里","LIN":"36鄰","STREET":"大灣路","SECT":" ","MAREA":" ","LANE":"４０巷","ALLEY":"１３０弄","HOUSE_NO":"９號","E_COORD97":174930.25,"N_COORD97":2546309.9199999999,"ADDRESS":"大灣路４０巷１３０弄９號","OBJECTID":161183},"geometry":{"x":174930.25000000093,"y":2546309.9200000037}},{"attributes":{"ID":161185,"DIS_CODE":0,"TOWNNAME":"永康區","LI":"正強里","LIN":"10鄰","STREET":"正義街","SECT":" ","MAREA":" ","LANE":"８９巷","ALLEY":"２６弄","HOUSE_NO":"２號","E_COORD97":173449.75,"N_COORD97":2547493.7599999998,"ADDRESS":"正義街８９巷２６弄２號","OBJECTID":161184},"geometry":{"x":173449.75000000186,"y":2547493.7599999979}},{"attributes":{"ID":161186,"DIS_CODE":0,"TOWNNAME":"永康區","LI":"永康里","LIN":"36鄰","STREET":"永平街","SECT":" ","MAREA":" ","LANE":"５６巷","ALLEY":"１弄","HOUSE_NO":"１３號","E_COORD97":174403.31,"N_COORD97":2546844.4300000002,"ADDRESS":"永平街５６巷１弄１３號","OBJECTID":161185},"geometry":{"x":174403.31000000145,"y":2546844.4299999997}},{"attributes":{"ID":161187,"DIS_CODE":0,"TOWNNAME":"永康區","LI":"北灣里","LIN":"2鄰","STREET":"文賢街","SECT":" ","MAREA":" ","LANE":"１２２巷","ALLEY":"２７弄","HOUSE_NO":"１６號","E_COORD97":175476.32000000001,"N_COORD97":2545543.3199999998,"ADDRESS":"文賢街１２２巷２７弄１６號","OBJECTID":161186},"geometry":{"x":175476.3200000003,"y":2545543.3200000003}},{"attributes":{"ID":161188,"DIS_CODE":0,"TOWNNAME":"永康區","LI":"北灣里","LIN":"21鄰","STREET":"大同街","SECT":" ","MAREA":" ","LANE":"３８０巷","ALLEY":"４１弄","HOUSE_NO":"８０號","E_COORD97":174918.38,"N_COORD97":2546140.9700000002,"ADDRESS":"大同街３８０巷４１弄８０號","OBJECTID":161187},"geometry":{"x":174918.37999999896,"y":2546140.9700000044}},{"attributes":{"ID":161189,"DIS_CODE":0,"TOWNNAME":"永康區","LI":"正強里","LIN":"25鄰","STREET":"中正路","SECT":" ","MAREA":" ","LANE":"１２７巷","ALLEY":"２４弄","HOUSE_NO":"１６號","E_COORD97":173332.51999999999,"N_COORD97":2547795.25,"ADDRESS":"中正路１２７巷２４弄１６號","OBJECTID":161188},"geometry":{"x":173332.52000000048,"y":2547795.25}},{"attributes":{"ID":161190,"DIS_CODE":0,"TOWNNAME":"永康區","LI":"北灣里","LIN":"21鄰","STREET":"大同街","SECT":" ","MAREA":" ","LANE":"３８０巷","ALLEY":"３１弄","HOUSE_NO":"２５號","E_COORD97":174853.95999999999,"N_COORD97":2546118.0699999998,"ADDRESS":"大同街３８０巷３１弄２５號","OBJECTID":161189},"geometry":{"x":174853.96000000089,"y":2546118.0700000003}},{"attributes":{"ID":161191,"DIS_CODE":0,"TOWNNAME":"安南區","LI":"大安里","LIN":"15鄰","STREET":"義安街","SECT":" ","MAREA":" ","LANE":" ","ALLEY":" ","HOUSE_NO":"１１２號","E_COORD97":167487.25,"N_COORD97":2548118.0800000001,"ADDRESS":"義安街１１２號","OBJECTID":161190},"geometry":{"x":167487.25,"y":2548118.0800000001}},{"attributes":{"ID":161192,"DIS_CODE":0,"TOWNNAME":"北門區","LI":"鯤江里","LIN":"12鄰","STREET":" ","SECT":" ","MAREA":"新圍","LANE":" ","ALLEY":" ","HOUSE_NO":"２９號","E_COORD97":163024.67000000001,"N_COORD97":2576961.8300000001,"ADDRESS":"新圍２９號","OBJECTID":161191},"geometry":{"x":163024.66999999899,"y":2576961.8300000001}},{"attributes":{"ID":161193,"DIS_CODE":0,"TOWNNAME":"北門區","LI":"鯤江里","LIN":"12鄰","STREET":" ","SECT":" ","MAREA":"新圍","LANE":" ","ALLEY":" ","HOUSE_NO":"３１號","E_COORD97":163019.66,"N_COORD97":2576940.3599999999,"ADDRESS":"新圍３１號","OBJECTID":161192},"geometry":{"x":163019.66000000015,"y":2576940.3599999994}},{"attributes":{"ID":161194,"DIS_CODE":0,"TOWNNAME":"北門區","LI":"鯤江里","LIN":"12鄰","STREET":" ","SECT":" ","MAREA":"新圍","LANE":" ","ALLEY":" ","HOUSE_NO":"３３號","E_COORD97":163086.10999999999,"N_COORD97":2576891.5800000001,"ADDRESS":"新圍３３號","OBJECTID":161193},"geometry":{"x":163086.11000000034,"y":2576891.5800000019}},{"attributes":{"ID":161195,"DIS_CODE":0,"TOWNNAME":"北門區","LI":"鯤江里","LIN":"12鄰","STREET":" ","SECT":" ","MAREA":"新圍","LANE":" ","ALLEY":" ","HOUSE_NO":"３４號之１","E_COORD97":163058.51999999999,"N_COORD97":2576897.1699999999,"ADDRESS":"新圍３４號之１","OBJECTID":161194},"geometry":{"x":163058.51999999955,"y":2576897.1700000018}},{"attributes":{"ID":161196,"DIS_CODE":0,"TOWNNAME":"北門區","LI":"鯤江里","LIN":"12鄰","STREET":" ","SECT":" ","MAREA":"新圍","LANE":" ","ALLEY":" ","HOUSE_NO":"３４號","E_COORD97":163050.97,"N_COORD97":2576915.1299999999,"ADDRESS":"新圍３４號","OBJECTID":161195},"geometry":{"x":163050.96999999974,"y":2576915.129999999}},{"attributes":{"ID":161197,"DIS_CODE":0,"TOWNNAME":"北門區","LI":"鯤江里","LIN":"12鄰","STREET":" ","SECT":" ","MAREA":"新圍","LANE":" ","ALLEY":" ","HOUSE_NO":"３５之１０號","E_COORD97":163109.17000000001,"N_COORD97":2576816.8399999999,"ADDRESS":"新圍３５之１０號","OBJECTID":161196},"geometry":{"x":163109.16999999993,"y":2576816.8400000036}},{"attributes":{"ID":161198,"DIS_CODE":0,"TOWNNAME":"北門區","LI":"鯤江里","LIN":"12鄰","STREET":" ","SECT":" ","MAREA":"新圍","LANE":" ","ALLEY":" ","HOUSE_NO":"３５之３號","E_COORD97":163091.67000000001,"N_COORD97":2576869.8500000001,"ADDRESS":"新圍３５之３號","OBJECTID":161197},"geometry":{"x":163091.67000000086,"y":2576869.8499999996}},{"attributes":{"ID":161199,"DIS_CODE":0,"TOWNNAME":"北門區","LI":"鯤江里","LIN":"12鄰","STREET":" ","SECT":" ","MAREA":"新圍","LANE":" ","ALLEY":" ","HOUSE_NO":"３５之６號","E_COORD97":163106.23000000001,"N_COORD97":2576843.8999999999,"ADDRESS":"新圍３５之６號","OBJECTID":161198},"geometry":{"x":163106.22999999952,"y":2576843.9000000004}},{"attributes":{"ID":161200,"DIS_CODE":0,"TOWNNAME":"北門區","LI":"鯤江里","LIN":"12鄰","STREET":" ","SECT":" ","MAREA":"新圍","LANE":" ","ALLEY":" ","HOUSE_NO":"３５號之６","E_COORD97":163106.23000000001,"N_COORD97":2576843.8999999999,"ADDRESS":"新圍３５號之６","OBJECTID":161199},"geometry":{"x":163106.22999999952,"y":2576843.9000000004}},{"attributes":{"ID":161201,"DIS_CODE":0,"TOWNNAME":"北門區","LI":"鯤江里","LIN":"12鄰","STREET":" ","SECT":" ","MAREA":"新圍","LANE":" ","ALLEY":" ","HOUSE_NO":"３５之７號","E_COORD97":163107.57999999999,"N_COORD97":2576836.1200000001,"ADDRESS":"新圍３５之７號","OBJECTID":161200},"geometry":{"x":163107.58000000101,"y":2576836.120000001}}]}