{"displayFieldName":"TOWNNAME","fieldAliases":{"ID":"ID","DIS_CODE":"DIS_CODE","TOWNNAME":"TOWNNAME","LI":"LI","LIN":"LIN","STREET":"STREET","SECT":"SECT","MAREA":"MAREA","LANE":"LANE","ALLEY":"ALLEY","HOUSE_NO":"HOUSE_NO","E_COORD97":"E_COORD97","N_COORD97":"N_COORD97","ADDRESS":"ADDRESS","OBJECTID":"OBJECTID"},"geometryType":"esriGeometryPoint","spatialReference":{"wkid":102443,"latestWkid":3826},"fields":[{"name":"ID","type":"esriFieldTypeDouble","alias":"ID"},{"name":"DIS_CODE","type":"esriFieldTypeInteger","alias":"DIS_CODE"},{"name":"TOWNNAME","type":"esriFieldTypeString","alias":"TOWNNAME","length":8},{"name":"LI","type":"esriFieldTypeString","alias":"LI","length":8},{"name":"LIN","type":"esriFieldTypeString","alias":"LIN","length":12},{"name":"STREET","type":"esriFieldTypeString","alias":"STREET","length":20},{"name":"SECT","type":"esriFieldTypeString","alias":"SECT","length":8},{"name":"MAREA","type":"esriFieldTypeString","alias":"MAREA","length":12},{"name":"LANE","type":"esriFieldTypeString","alias":"LANE","length":10},{"name":"ALLEY","type":"esriFieldTypeString","alias":"ALLEY","length":10},{"name":"HOUSE_NO","type":"esriFieldTypeString","alias":"HOUSE_NO","length":20},{"name":"E_COORD97","type":"esriFieldTypeDouble","alias":"E_COORD97"},{"name":"N_COORD97","type":"esriFieldTypeDouble","alias":"N_COORD97"},{"name":"ADDRESS","type":"esriFieldTypeString","alias":"ADDRESS","length":50},{"name":"OBJECTID","type":"esriFieldTypeOID","alias":"OBJECTID"}],"features":[{"attributes":{"ID":178802,"DIS_CODE":0,"TOWNNAME":"永康區","LI":"南灣里","LIN":"4鄰","STREET":"大灣路","SECT":" ","MAREA":" ","LANE":"５３７巷","ALLEY":"１３弄","HOUSE_NO":"１號","E_COORD97":174496.94,"N_COORD97":2544544.4300000002,"ADDRESS":"大灣路５３７巷１３弄１號","OBJECTID":178801},"geometry":{"x":174496.94000000134,"y":2544544.4300000016}},{"attributes":{"ID":178803,"DIS_CODE":0,"TOWNNAME":"永康區","LI":"埔園里","LIN":"5鄰","STREET":"中山路","SECT":" ","MAREA":" ","LANE":"１５８巷","ALLEY":"２４弄","HOUSE_NO":"２號","E_COORD97":173835.45999999999,"N_COORD97":2547834.7799999998,"ADDRESS":"中山路１５８巷２４弄２號","OBJECTID":178802},"geometry":{"x":173835.46000000089,"y":2547834.7799999993}},{"attributes":{"ID":178804,"DIS_CODE":0,"TOWNNAME":"永康區","LI":"東橋里","LIN":"24鄰","STREET":"中正路","SECT":" ","MAREA":" ","LANE":"２１７巷","ALLEY":"３弄","HOUSE_NO":"８號","E_COORD97":172974.26999999999,"N_COORD97":2547881.25,"ADDRESS":"中正路２１７巷３弄８號","OBJECTID":178803},"geometry":{"x":172974.26999999955,"y":2547881.2500000019}},{"attributes":{"ID":178805,"DIS_CODE":0,"TOWNNAME":"永康區","LI":"南灣里","LIN":"4鄰","STREET":"大灣路","SECT":" ","MAREA":" ","LANE":"５３７巷","ALLEY":"１３弄","HOUSE_NO":"１８號","E_COORD97":174519.79000000001,"N_COORD97":2544536.6200000001,"ADDRESS":"大灣路５３７巷１３弄１８號","OBJECTID":178804},"geometry":{"x":174519.79000000097,"y":2544536.6200000048}},{"attributes":{"ID":178806,"DIS_CODE":0,"TOWNNAME":"永康區","LI":"南灣里","LIN":"4鄰","STREET":"大灣路","SECT":" ","MAREA":" ","LANE":"５３７巷","ALLEY":"１３弄","HOUSE_NO":"１２號","E_COORD97":174507.70000000001,"N_COORD97":2544534.1200000001,"ADDRESS":"大灣路５３７巷１３弄１２號","OBJECTID":178805},"geometry":{"x":174507.70000000019,"y":2544534.1200000029}},{"attributes":{"ID":178807,"DIS_CODE":0,"TOWNNAME":"永康區","LI":"東灣里","LIN":"25鄰","STREET":"大灣二街","SECT":" ","MAREA":" ","LANE":"７１巷","ALLEY":"１８弄","HOUSE_NO":"１之２號","E_COORD97":174761.41,"N_COORD97":2544679.5499999998,"ADDRESS":"大灣二街７１巷１８弄１之２號","OBJECTID":178806},"geometry":{"x":174761.41000000108,"y":2544679.5500000026}},{"attributes":{"ID":178808,"DIS_CODE":0,"TOWNNAME":"永康區","LI":"神洲里","LIN":"18鄰","STREET":"忠孝路","SECT":" ","MAREA":" ","LANE":"１３８巷","ALLEY":"３弄","HOUSE_NO":"５號","E_COORD97":172141.09,"N_COORD97":2545050.98,"ADDRESS":"忠孝路１３８巷３弄５號","OBJECTID":178807},"geometry":{"x":172141.09000000078,"y":2545050.9800000004}},{"attributes":{"ID":178809,"DIS_CODE":0,"TOWNNAME":"永康區","LI":"埔園里","LIN":"20鄰","STREET":"四維街","SECT":" ","MAREA":" ","LANE":"１０２巷","ALLEY":"２３弄","HOUSE_NO":"１２號","E_COORD97":173436.89999999999,"N_COORD97":2548281.5,"ADDRESS":"四維街１０２巷２３弄１２號","OBJECTID":178808},"geometry":{"x":173436.90000000037,"y":2548281.5}},{"attributes":{"ID":178810,"DIS_CODE":0,"TOWNNAME":"永康區","LI":"東灣里","LIN":"26鄰","STREET":"民族路","SECT":" ","MAREA":" ","LANE":"１巷","ALLEY":"７０弄","HOUSE_NO":"１０９號","E_COORD97":175045.42999999999,"N_COORD97":2543909.2799999998,"ADDRESS":"民族路１巷７０弄１０９號","OBJECTID":178809},"geometry":{"x":175045.43000000063,"y":2543909.2799999993}},{"attributes":{"ID":178811,"DIS_CODE":0,"TOWNNAME":"永康區","LI":"神洲里","LIN":"18鄰","STREET":"忠孝路","SECT":" ","MAREA":" ","LANE":"１３８巷","ALLEY":"３弄","HOUSE_NO":"１號","E_COORD97":172127.34,"N_COORD97":2545050.48,"ADDRESS":"忠孝路１３８巷３弄１號","OBJECTID":178810},"geometry":{"x":172127.34000000078,"y":2545050.4800000004}},{"attributes":{"ID":178812,"DIS_CODE":0,"TOWNNAME":"永康區","LI":"南灣里","LIN":"4鄰","STREET":"大灣路","SECT":" ","MAREA":" ","LANE":"５３７巷","ALLEY":"１３弄","HOUSE_NO":"２號","E_COORD97":174484.63,"N_COORD97":2544529.3700000001,"ADDRESS":"大灣路５３７巷１３弄２號","OBJECTID":178811},"geometry":{"x":174484.63000000175,"y":2544529.3700000029}},{"attributes":{"ID":178813,"DIS_CODE":0,"TOWNNAME":"永康區","LI":"東灣里","LIN":"25鄰","STREET":"大灣二街","SECT":" ","MAREA":" ","LANE":"７１巷","ALLEY":"３９弄","HOUSE_NO":"５號","E_COORD97":174843.04999999999,"N_COORD97":2544674.3100000001,"ADDRESS":"大灣二街７１巷３９弄５號","OBJECTID":178812},"geometry":{"x":174843.05000000075,"y":2544674.3100000024}},{"attributes":{"ID":178814,"DIS_CODE":0,"TOWNNAME":"永康區","LI":"南灣里","LIN":"4鄰","STREET":"大灣路","SECT":" ","MAREA":" ","LANE":"５３７巷","ALLEY":"１３弄","HOUSE_NO":"１６號","E_COORD97":174515.57999999999,"N_COORD97":2544535.8700000001,"ADDRESS":"大灣路５３７巷１３弄１６號","OBJECTID":178813},"geometry":{"x":174515.58000000194,"y":2544535.8700000029}},{"attributes":{"ID":178815,"DIS_CODE":0,"TOWNNAME":"七股區","LI":"龍山里","LIN":"16鄰","STREET":" ","SECT":" ","MAREA":"龍山","LANE":" ","ALLEY":" ","HOUSE_NO":"１２２號","E_COORD97":159223.35999999999,"N_COORD97":2559931.6899999999,"ADDRESS":"龍山１２２號","OBJECTID":178814},"geometry":{"x":159223.3600000022,"y":2559931.6900000013}},{"attributes":{"ID":178816,"DIS_CODE":0,"TOWNNAME":"安南區","LI":"淵東里","LIN":"3鄰","STREET":"本原街","SECT":"三段","MAREA":" ","LANE":"２３４巷","ALLEY":"１００弄","HOUSE_NO":"１３號","E_COORD97":165301.34,"N_COORD97":2550543.1800000002,"ADDRESS":"本原街三段２３４巷１００弄１３號","OBJECTID":178815},"geometry":{"x":165301.33999999985,"y":2550543.1800000016}},{"attributes":{"ID":178817,"DIS_CODE":0,"TOWNNAME":"安南區","LI":"淵東里","LIN":"3鄰","STREET":"本原街","SECT":"三段","MAREA":" ","LANE":"２３４巷","ALLEY":"１００弄","HOUSE_NO":"１７號","E_COORD97":165322.20000000001,"N_COORD97":2550548.8100000001,"ADDRESS":"本原街三段２３４巷１００弄１７號","OBJECTID":178816},"geometry":{"x":165322.20000000112,"y":2550548.8100000005}},{"attributes":{"ID":178818,"DIS_CODE":0,"TOWNNAME":"安南區","LI":"淵東里","LIN":"3鄰","STREET":"本原街","SECT":"三段","MAREA":" ","LANE":"２３４巷","ALLEY":"３４弄","HOUSE_NO":"５號","E_COORD97":165358.26000000001,"N_COORD97":2550387.79,"ADDRESS":"本原街三段２３４巷３４弄５號","OBJECTID":178817},"geometry":{"x":165358.26000000164,"y":2550387.7899999991}},{"attributes":{"ID":178819,"DIS_CODE":0,"TOWNNAME":"安南區","LI":"淵西里","LIN":"1鄰","STREET":"安中路","SECT":"四段","MAREA":" ","LANE":"２９０巷","ALLEY":"２９１弄","HOUSE_NO":"８０號","E_COORD97":165008.42000000001,"N_COORD97":2550461.4900000002,"ADDRESS":"安中路四段２９０巷２９１弄８０號","OBJECTID":178818},"geometry":{"x":165008.42000000086,"y":2550461.4900000002}},{"attributes":{"ID":178820,"DIS_CODE":0,"TOWNNAME":"安南區","LI":"公\u25A0里","LIN":"8鄰","STREET":"安興街","SECT":" ","MAREA":" ","LANE":"１８１巷","ALLEY":"１０７弄","HOUSE_NO":"２６號","E_COORD97":163948.13,"N_COORD97":2551854.2999999998,"ADDRESS":"安興街１８１巷１０７弄２６號","OBJECTID":178819},"geometry":{"x":163948.12999999989,"y":2551854.3000000007}},{"attributes":{"ID":178821,"DIS_CODE":0,"TOWNNAME":"安南區","LI":"公\u25A0里","LIN":"8鄰","STREET":"安興街","SECT":" ","MAREA":" ","LANE":"１８１巷","ALLEY":"６１弄","HOUSE_NO":"２１號","E_COORD97":164046.82000000001,"N_COORD97":2551974.3500000001,"ADDRESS":"安興街１８１巷６１弄２１號","OBJECTID":178820},"geometry":{"x":164046.82000000123,"y":2551974.3499999996}},{"attributes":{"ID":178822,"DIS_CODE":0,"TOWNNAME":"安南區","LI":"公\u25A0里","LIN":"8鄰","STREET":"安興街","SECT":" ","MAREA":" ","LANE":"１８１巷","ALLEY":"６１弄","HOUSE_NO":"２５號","E_COORD97":164059.29000000001,"N_COORD97":2551968.6400000001,"ADDRESS":"安興街１８１巷６１弄２５號","OBJECTID":178821},"geometry":{"x":164059.29000000004,"y":2551968.6400000025}},{"attributes":{"ID":178823,"DIS_CODE":0,"TOWNNAME":"安南區","LI":"公\u25A0里","LIN":"8鄰","STREET":"安興街","SECT":" ","MAREA":" ","LANE":"１８１巷","ALLEY":"６３弄","HOUSE_NO":"１０號","E_COORD97":164017.59,"N_COORD97":2551928.52,"ADDRESS":"安興街１８１巷６３弄１０號","OBJECTID":178822},"geometry":{"x":164017.59000000078,"y":2551928.5199999996}},{"attributes":{"ID":178824,"DIS_CODE":0,"TOWNNAME":"安南區","LI":"公\u25A0里","LIN":"8鄰","STREET":"安興街","SECT":" ","MAREA":" ","LANE":"１８１巷","ALLEY":"６３弄","HOUSE_NO":"１２號","E_COORD97":164018.23999999999,"N_COORD97":2551937.0499999998,"ADDRESS":"安興街１８１巷６３弄１２號","OBJECTID":178823},"geometry":{"x":164018.24000000115,"y":2551937.0500000007}},{"attributes":{"ID":178825,"DIS_CODE":0,"TOWNNAME":"安南區","LI":"公\u25A0里","LIN":"8鄰","STREET":"安興街","SECT":" ","MAREA":" ","LANE":"１８１巷","ALLEY":"６３弄","HOUSE_NO":"１５號","E_COORD97":164018.53,"N_COORD97":2551913.02,"ADDRESS":"安興街１８１巷６３弄１５號","OBJECTID":178824},"geometry":{"x":164018.53000000119,"y":2551913.0200000033}},{"attributes":{"ID":178826,"DIS_CODE":0,"TOWNNAME":"安南區","LI":"學東里","LIN":"4鄰","STREET":"公學路","SECT":"六段","MAREA":" ","LANE":"４６９巷","ALLEY":"３３弄","HOUSE_NO":"１０號","E_COORD97":162633.44,"N_COORD97":2553083.7799999998,"ADDRESS":"公學路六段４６９巷３３弄１０號","OBJECTID":178825},"geometry":{"x":162633.44000000041,"y":2553083.7799999993}},{"attributes":{"ID":178827,"DIS_CODE":0,"TOWNNAME":"安南區","LI":"學東里","LIN":"4鄰","STREET":"公學路","SECT":"六段","MAREA":" ","LANE":"４６９巷","ALLEY":"３３弄","HOUSE_NO":"１２號","E_COORD97":162633.47,"N_COORD97":2553080.29,"ADDRESS":"公學路六段４６９巷３３弄１２號","OBJECTID":178826},"geometry":{"x":162633.47000000067,"y":2553080.2899999972}},{"attributes":{"ID":178828,"DIS_CODE":0,"TOWNNAME":"安南區","LI":"學東里","LIN":"4鄰","STREET":"公學路","SECT":"六段","MAREA":" ","LANE":"４６９巷","ALLEY":"３３弄","HOUSE_NO":"１４號","E_COORD97":162632.04000000001,"N_COORD97":2553076.5699999998,"ADDRESS":"公學路六段４６９巷３３弄１４號","OBJECTID":178827},"geometry":{"x":162632.04000000004,"y":2553076.570000004}},{"attributes":{"ID":178829,"DIS_CODE":0,"TOWNNAME":"安南區","LI":"學東里","LIN":"4鄰","STREET":"公學路","SECT":"六段","MAREA":" ","LANE":"４６９巷","ALLEY":"３３弄","HOUSE_NO":"１６號","E_COORD97":162632.98999999999,"N_COORD97":2553071.23,"ADDRESS":"公學路六段４６９巷３３弄１６號","OBJECTID":178828},"geometry":{"x":162632.99000000209,"y":2553071.2300000004}},{"attributes":{"ID":178830,"DIS_CODE":0,"TOWNNAME":"東區","LI":"崇學里","LIN":"4鄰","STREET":"崇學路","SECT":" ","MAREA":" ","LANE":"９６巷","ALLEY":"８弄","HOUSE_NO":"３６號","E_COORD97":170276.70999999999,"N_COORD97":2542090.1800000002,"ADDRESS":"崇學路９６巷８弄３６號","OBJECTID":178829},"geometry":{"x":170276.71000000183,"y":2542090.1800000034}},{"attributes":{"ID":178831,"DIS_CODE":0,"TOWNNAME":"安南區","LI":"學東里","LIN":"4鄰","STREET":"公學路","SECT":"六段","MAREA":" ","LANE":"４６９巷","ALLEY":"３３弄","HOUSE_NO":"１８號","E_COORD97":162630.79999999999,"N_COORD97":2553068.3700000001,"ADDRESS":"公學路六段４６９巷３３弄１８號","OBJECTID":178830},"geometry":{"x":162630.80000000075,"y":2553068.3700000048}},{"attributes":{"ID":178832,"DIS_CODE":0,"TOWNNAME":"安南區","LI":"學東里","LIN":"4鄰","STREET":"公學路","SECT":"六段","MAREA":" ","LANE":"４６９巷","ALLEY":"３３弄","HOUSE_NO":"２０號","E_COORD97":162630.03,"N_COORD97":2553065.2200000002,"ADDRESS":"公學路六段４６９巷３３弄２０號","OBJECTID":178831},"geometry":{"x":162630.03000000119,"y":2553065.2200000007}},{"attributes":{"ID":178833,"DIS_CODE":0,"TOWNNAME":"安南區","LI":"學東里","LIN":"4鄰","STREET":"公學路","SECT":"六段","MAREA":" ","LANE":"４６９巷","ALLEY":"３３弄","HOUSE_NO":"２４號","E_COORD97":162627.38,"N_COORD97":2553057.8500000001,"ADDRESS":"公學路六段４６９巷３３弄２４號","OBJECTID":178832},"geometry":{"x":162627.38000000082,"y":2553057.8500000015}},{"attributes":{"ID":178834,"DIS_CODE":0,"TOWNNAME":"安南區","LI":"學東里","LIN":"4鄰","STREET":"公學路","SECT":"六段","MAREA":" ","LANE":"４６９巷","ALLEY":"３３弄","HOUSE_NO":"８號","E_COORD97":162634.16,"N_COORD97":2553087.8799999999,"ADDRESS":"公學路六段４６９巷３３弄８號","OBJECTID":178833},"geometry":{"x":162634.16000000108,"y":2553087.8800000008}},{"attributes":{"ID":178835,"DIS_CODE":0,"TOWNNAME":"安南區","LI":"城東里","LIN":"4鄰","STREET":"城北路","SECT":" ","MAREA":" ","LANE":"１７２巷","ALLEY":"３５弄","HOUSE_NO":"１９號","E_COORD97":161080.13,"N_COORD97":2551793.1499999999,"ADDRESS":"城北路１７２巷３５弄１９號","OBJECTID":178834},"geometry":{"x":161080.12999999989,"y":2551793.1500000004}},{"attributes":{"ID":178836,"DIS_CODE":0,"TOWNNAME":"佳里區","LI":"六安里","LIN":"24鄰","STREET":"青年街","SECT":" ","MAREA":" ","LANE":" ","ALLEY":" ","HOUSE_NO":"１１７號","E_COORD97":165840.51999999999,"N_COORD97":2562993.0299999998,"ADDRESS":"青年街１１７號","OBJECTID":178835},"geometry":{"x":165840.51999999955,"y":2562993.0300000012}},{"attributes":{"ID":178837,"DIS_CODE":0,"TOWNNAME":"七股區","LI":"龍山里","LIN":"16鄰","STREET":" ","SECT":" ","MAREA":"龍山","LANE":" ","ALLEY":" ","HOUSE_NO":"１２３號之１","E_COORD97":159219.01999999999,"N_COORD97":2559940,"ADDRESS":"龍山１２３號之１","OBJECTID":178836},"geometry":{"x":159219.01999999955,"y":2559940.0000000019}},{"attributes":{"ID":178838,"DIS_CODE":0,"TOWNNAME":"七股區","LI":"龍山里","LIN":"16鄰","STREET":" ","SECT":" ","MAREA":"龍山","LANE":" ","ALLEY":" ","HOUSE_NO":"１２３號","E_COORD97":159221.19,"N_COORD97":2559935.8399999999,"ADDRESS":"龍山１２３號","OBJECTID":178837},"geometry":{"x":159221.19000000227,"y":2559935.8399999999}},{"attributes":{"ID":178839,"DIS_CODE":0,"TOWNNAME":"七股區","LI":"龍山里","LIN":"16鄰","STREET":" ","SECT":" ","MAREA":"龍山","LANE":" ","ALLEY":" ","HOUSE_NO":"１２５號","E_COORD97":159213.67000000001,"N_COORD97":2559958.4100000001,"ADDRESS":"龍山１２５號","OBJECTID":178838},"geometry":{"x":159213.66999999993,"y":2559958.4100000001}},{"attributes":{"ID":178840,"DIS_CODE":0,"TOWNNAME":"七股區","LI":"龍山里","LIN":"16鄰","STREET":" ","SECT":" ","MAREA":"龍山","LANE":" ","ALLEY":" ","HOUSE_NO":"１５８號之１","E_COORD97":159195.01999999999,"N_COORD97":2559992.6800000002,"ADDRESS":"龍山１５８號之１","OBJECTID":178839},"geometry":{"x":159195.02000000048,"y":2559992.6800000016}},{"attributes":{"ID":178841,"DIS_CODE":0,"TOWNNAME":"東山區","LI":"科里里","LIN":"22鄰","STREET":" ","SECT":" ","MAREA":"枋子林","LANE":" ","ALLEY":" ","HOUSE_NO":"８０號之１","E_COORD97":188955.10000000001,"N_COORD97":2577054.3500000001,"ADDRESS":"枋子林８０號之１","OBJECTID":178840},"geometry":{"x":188955.10000000056,"y":2577054.3500000015}},{"attributes":{"ID":178842,"DIS_CODE":0,"TOWNNAME":"東山區","LI":"科里里","LIN":"22鄰","STREET":" ","SECT":" ","MAREA":"枋子林","LANE":" ","ALLEY":" ","HOUSE_NO":"８０號之２","E_COORD97":188938.85999999999,"N_COORD97":2577071.8399999999,"ADDRESS":"枋子林８０號之２","OBJECTID":178841},"geometry":{"x":188938.86000000127,"y":2577071.8400000017}},{"attributes":{"ID":178843,"DIS_CODE":0,"TOWNNAME":"東山區","LI":"科里里","LIN":"22鄰","STREET":" ","SECT":" ","MAREA":"枋子林","LANE":" ","ALLEY":" ","HOUSE_NO":"８０號","E_COORD97":188926.07000000001,"N_COORD97":2577018.9100000001,"ADDRESS":"枋子林８０號","OBJECTID":178842},"geometry":{"x":188926.0700000003,"y":2577018.9100000001}},{"attributes":{"ID":178844,"DIS_CODE":0,"TOWNNAME":"東山區","LI":"科里里","LIN":"22鄰","STREET":" ","SECT":" ","MAREA":"枋子林","LANE":" ","ALLEY":" ","HOUSE_NO":"８２號之４","E_COORD97":188934.81,"N_COORD97":2576960.29,"ADDRESS":"枋子林８２號之４","OBJECTID":178843},"geometry":{"x":188934.81000000052,"y":2576960.290000001}},{"attributes":{"ID":178845,"DIS_CODE":0,"TOWNNAME":"東山區","LI":"東山里","LIN":"22鄰","STREET":" ","SECT":" ","MAREA":"東山","LANE":" ","ALLEY":" ","HOUSE_NO":"３１０號之１","E_COORD97":188850.10000000001,"N_COORD97":2580468.4399999999,"ADDRESS":"東山３１０號之１","OBJECTID":178844},"geometry":{"x":188850.10000000056,"y":2580468.4400000013}},{"attributes":{"ID":178846,"DIS_CODE":0,"TOWNNAME":"善化區","LI":"溪美里","LIN":"1鄰","STREET":" ","SECT":" ","MAREA":"溪尾","LANE":" ","ALLEY":" ","HOUSE_NO":"７２２號","E_COORD97":176840.37,"N_COORD97":2560482.5299999998,"ADDRESS":"溪尾７２２號","OBJECTID":178845},"geometry":{"x":176840.37000000011,"y":2560482.5299999993}},{"attributes":{"ID":178847,"DIS_CODE":0,"TOWNNAME":"東山區","LI":"東山里","LIN":"22鄰","STREET":" ","SECT":" ","MAREA":"東山","LANE":" ","ALLEY":" ","HOUSE_NO":"３１０號之２","E_COORD97":188871.76000000001,"N_COORD97":2580436.0499999998,"ADDRESS":"東山３１０號之２","OBJECTID":178846},"geometry":{"x":188871.75999999978,"y":2580436.0500000007}},{"attributes":{"ID":178848,"DIS_CODE":0,"TOWNNAME":"東山區","LI":"東山里","LIN":"22鄰","STREET":" ","SECT":" ","MAREA":"東山","LANE":" ","ALLEY":" ","HOUSE_NO":"３１０號之３","E_COORD97":188849.29999999999,"N_COORD97":2580459.1899999999,"ADDRESS":"東山３１０號之３","OBJECTID":178847},"geometry":{"x":188849.29999999981,"y":2580459.1900000013}},{"attributes":{"ID":178849,"DIS_CODE":0,"TOWNNAME":"東山區","LI":"東山里","LIN":"22鄰","STREET":" ","SECT":" ","MAREA":"東山","LANE":" ","ALLEY":" ","HOUSE_NO":"３１０號","E_COORD97":188871.77627199999,"N_COORD97":2580432.6551999999,"ADDRESS":"東山３１０號","OBJECTID":178848},"geometry":{"x":188871.77627200168,"y":2580432.6551989987}},{"attributes":{"ID":178850,"DIS_CODE":0,"TOWNNAME":"北門區","LI":"三光里","LIN":"16鄰","STREET":" ","SECT":" ","MAREA":"蘆竹溝","LANE":" ","ALLEY":" ","HOUSE_NO":"３４２號","E_COORD97":157602.12,"N_COORD97":2570348.6800000002,"ADDRESS":"蘆竹溝３４２號","OBJECTID":178849},"geometry":{"x":157602.12000000011,"y":2570348.6799999997}},{"attributes":{"ID":178851,"DIS_CODE":0,"TOWNNAME":"北門區","LI":"三光里","LIN":"16鄰","STREET":" ","SECT":" ","MAREA":"蘆竹溝","LANE":" ","ALLEY":" ","HOUSE_NO":"３４３號","E_COORD97":157592.47,"N_COORD97":2570350.3999999999,"ADDRESS":"蘆竹溝３４３號","OBJECTID":178850},"geometry":{"x":157592.46999999974,"y":2570350.4000000004}},{"attributes":{"ID":178852,"DIS_CODE":0,"TOWNNAME":"北門區","LI":"三光里","LIN":"16鄰","STREET":" ","SECT":" ","MAREA":"蘆竹溝","LANE":" ","ALLEY":" ","HOUSE_NO":"３４４號","E_COORD97":157594.35000000001,"N_COORD97":2570357.9500000002,"ADDRESS":"蘆竹溝３４４號","OBJECTID":178851},"geometry":{"x":157594.35000000056,"y":2570357.9500000011}},{"attributes":{"ID":178853,"DIS_CODE":0,"TOWNNAME":"北門區","LI":"三光里","LIN":"16鄰","STREET":" ","SECT":" ","MAREA":"蘆竹溝","LANE":" ","ALLEY":" ","HOUSE_NO":"３４５號","E_COORD97":157591.92999999999,"N_COORD97":2570361.8399999999,"ADDRESS":"蘆竹溝３４５號","OBJECTID":178852},"geometry":{"x":157591.93000000063,"y":2570361.8400000036}},{"attributes":{"ID":178854,"DIS_CODE":0,"TOWNNAME":"北門區","LI":"三光里","LIN":"16鄰","STREET":" ","SECT":" ","MAREA":"蘆竹溝","LANE":" ","ALLEY":" ","HOUSE_NO":"３４６號","E_COORD97":157589.04999999999,"N_COORD97":2570365.8100000001,"ADDRESS":"蘆竹溝３４６號","OBJECTID":178853},"geometry":{"x":157589.05000000168,"y":2570365.8100000042}},{"attributes":{"ID":178855,"DIS_CODE":0,"TOWNNAME":"永康區","LI":"西橋里","LIN":"19鄰","STREET":"大橋三街","SECT":" ","MAREA":" ","LANE":"５７巷","ALLEY":"７弄","HOUSE_NO":"５７號","E_COORD97":170471.37981400001,"N_COORD97":2546421.32186,"ADDRESS":"大橋三街５７巷７弄５７號","OBJECTID":178854},"geometry":{"x":170471.37981399987,"y":2546421.3218639996}},{"attributes":{"ID":178856,"DIS_CODE":0,"TOWNNAME":"北門區","LI":"玉港里","LIN":"16鄰","STREET":" ","SECT":" ","MAREA":"西埔內","LANE":" ","ALLEY":" ","HOUSE_NO":"２１號","E_COORD97":162166.67000000001,"N_COORD97":2573884.6200000001,"ADDRESS":"西埔內２１號","OBJECTID":178855},"geometry":{"x":162166.66999999993,"y":2573884.6200000029}},{"attributes":{"ID":178857,"DIS_CODE":0,"TOWNNAME":"北門區","LI":"玉港里","LIN":"16鄰","STREET":" ","SECT":" ","MAREA":"西埔內","LANE":" ","ALLEY":" ","HOUSE_NO":"２２號","E_COORD97":162153.5,"N_COORD97":2573856.5899999999,"ADDRESS":"西埔內２２號","OBJECTID":178856},"geometry":{"x":162153.50000000093,"y":2573856.5900000017}},{"attributes":{"ID":178858,"DIS_CODE":0,"TOWNNAME":"北門區","LI":"玉港里","LIN":"16鄰","STREET":" ","SECT":" ","MAREA":"西埔內","LANE":" ","ALLEY":" ","HOUSE_NO":"２３號","E_COORD97":162143.48999999999,"N_COORD97":2573841.6299999999,"ADDRESS":"西埔內２３號","OBJECTID":178857},"geometry":{"x":162143.49000000115,"y":2573841.6300000008}},{"attributes":{"ID":178859,"DIS_CODE":0,"TOWNNAME":"北門區","LI":"玉港里","LIN":"16鄰","STREET":" ","SECT":" ","MAREA":"西埔內","LANE":" ","ALLEY":" ","HOUSE_NO":"２６號","E_COORD97":162087.26999999999,"N_COORD97":2573738.4199999999,"ADDRESS":"西埔內２６號","OBJECTID":178858},"geometry":{"x":162087.26999999955,"y":2573738.4200000018}},{"attributes":{"ID":178860,"DIS_CODE":0,"TOWNNAME":"北門區","LI":"永隆里","LIN":"16鄰","STREET":" ","SECT":" ","MAREA":"海埔","LANE":" ","ALLEY":" ","HOUSE_NO":"１之２４８號","E_COORD97":158152.04999999999,"N_COORD97":2575586.1600000001,"ADDRESS":"海埔１之２４８號","OBJECTID":178859},"geometry":{"x":158152.05000000075,"y":2575586.1600000001}},{"attributes":{"ID":178861,"DIS_CODE":0,"TOWNNAME":"北門區","LI":"永隆里","LIN":"16鄰","STREET":" ","SECT":" ","MAREA":"海埔","LANE":" ","ALLEY":" ","HOUSE_NO":"１之２５２號","E_COORD97":158157.23000000001,"N_COORD97":2575124.1899999999,"ADDRESS":"海埔１之２５２號","OBJECTID":178860},"geometry":{"x":158157.23000000045,"y":2575124.1899999995}},{"attributes":{"ID":178862,"DIS_CODE":0,"TOWNNAME":"北門區","LI":"永隆里","LIN":"16鄰","STREET":" ","SECT":" ","MAREA":"海埔","LANE":" ","ALLEY":" ","HOUSE_NO":"１之２５７號","E_COORD97":158169.32999999999,"N_COORD97":2574709.73,"ADDRESS":"海埔１之２５７號","OBJECTID":178861},"geometry":{"x":158169.33000000101,"y":2574709.7300000042}},{"attributes":{"ID":178863,"DIS_CODE":0,"TOWNNAME":"北門區","LI":"永隆里","LIN":"16鄰","STREET":" ","SECT":" ","MAREA":"海埔","LANE":" ","ALLEY":" ","HOUSE_NO":"１之２５９號","E_COORD97":158160.51999999999,"N_COORD97":2574533.5800000001,"ADDRESS":"海埔１之２５９號","OBJECTID":178862},"geometry":{"x":158160.52000000048,"y":2574533.5799999982}},{"attributes":{"ID":178864,"DIS_CODE":0,"TOWNNAME":"北門區","LI":"永隆里","LIN":"16鄰","STREET":" ","SECT":" ","MAREA":"海埔","LANE":" ","ALLEY":" ","HOUSE_NO":"１之３３３號","E_COORD97":158683.19,"N_COORD97":2574718.21,"ADDRESS":"海埔１之３３３號","OBJECTID":178863},"geometry":{"x":158683.19000000041,"y":2574718.2100000028}},{"attributes":{"ID":178865,"DIS_CODE":0,"TOWNNAME":"北門區","LI":"永隆里","LIN":"16鄰","STREET":" ","SECT":" ","MAREA":"海埔","LANE":" ","ALLEY":" ","HOUSE_NO":"１之３８５號","E_COORD97":159201.95999999999,"N_COORD97":2575683.9199999999,"ADDRESS":"海埔１之３８５號","OBJECTID":178864},"geometry":{"x":159201.96000000183,"y":2575683.9199999981}},{"attributes":{"ID":178866,"DIS_CODE":0,"TOWNNAME":"北門區","LI":"永隆里","LIN":"16鄰","STREET":" ","SECT":" ","MAREA":"海埔","LANE":" ","ALLEY":" ","HOUSE_NO":"１之３８８號","E_COORD97":159066.81,"N_COORD97":2575532.8999999999,"ADDRESS":"海埔１之３８８號","OBJECTID":178865},"geometry":{"x":159066.80999999866,"y":2575532.9000000022}},{"attributes":{"ID":178867,"DIS_CODE":0,"TOWNNAME":"北門區","LI":"保吉里","LIN":"16鄰","STREET":" ","SECT":" ","MAREA":"蚵寮","LANE":" ","ALLEY":" ","HOUSE_NO":"３８３號","E_COORD97":161507.14000000001,"N_COORD97":2576244.3900000001,"ADDRESS":"蚵寮３８３號","OBJECTID":178866},"geometry":{"x":161507.13999999966,"y":2576244.3900000043}},{"attributes":{"ID":178868,"DIS_CODE":0,"TOWNNAME":"北門區","LI":"保吉里","LIN":"16鄰","STREET":" ","SECT":" ","MAREA":"蚵寮","LANE":" ","ALLEY":" ","HOUSE_NO":"３８５號","E_COORD97":161529.5,"N_COORD97":2576250.3799999999,"ADDRESS":"蚵寮３８５號","OBJECTID":178867},"geometry":{"x":161529.50000000093,"y":2576250.3800000008}},{"attributes":{"ID":178869,"DIS_CODE":0,"TOWNNAME":"北門區","LI":"保吉里","LIN":"16鄰","STREET":" ","SECT":" ","MAREA":"蚵寮","LANE":" ","ALLEY":" ","HOUSE_NO":"３８６號","E_COORD97":161520.82999999999,"N_COORD97":2576268.3300000001,"ADDRESS":"蚵寮３８６號","OBJECTID":178868},"geometry":{"x":161520.83000000101,"y":2576268.3300000019}},{"attributes":{"ID":178870,"DIS_CODE":0,"TOWNNAME":"北門區","LI":"保吉里","LIN":"16鄰","STREET":" ","SECT":" ","MAREA":"蚵寮","LANE":" ","ALLEY":" ","HOUSE_NO":"３９１號","E_COORD97":161545.62,"N_COORD97":2576252.3500000001,"ADDRESS":"蚵寮３９１號","OBJECTID":178869},"geometry":{"x":161545.62000000104,"y":2576252.3499999996}},{"attributes":{"ID":178871,"DIS_CODE":0,"TOWNNAME":"北門區","LI":"保吉里","LIN":"16鄰","STREET":" ","SECT":" ","MAREA":"蚵寮","LANE":" ","ALLEY":" ","HOUSE_NO":"３９２號","E_COORD97":161559.87,"N_COORD97":2576261.0800000001,"ADDRESS":"蚵寮３９２號","OBJECTID":178870},"geometry":{"x":161559.87000000011,"y":2576261.0800000019}},{"attributes":{"ID":178872,"DIS_CODE":0,"TOWNNAME":"新市區","LI":"大營里","LIN":"16鄰","STREET":" ","SECT":" ","MAREA":"大營","LANE":" ","ALLEY":" ","HOUSE_NO":"３００之６號","E_COORD97":179152.31,"N_COORD97":2555464.5499999998,"ADDRESS":"大營３００之６號","OBJECTID":178871},"geometry":{"x":179152.31000000052,"y":2555464.5500000026}},{"attributes":{"ID":178873,"DIS_CODE":0,"TOWNNAME":"新市區","LI":"大營里","LIN":"16鄰","STREET":" ","SECT":" ","MAREA":"大營","LANE":" ","ALLEY":" ","HOUSE_NO":"３０４號","E_COORD97":179183.70999999999,"N_COORD97":2555477,"ADDRESS":"大營３０４號","OBJECTID":178872},"geometry":{"x":179183.71000000089,"y":2555477.0000000037}},{"attributes":{"ID":178874,"DIS_CODE":0,"TOWNNAME":"北門區","LI":"永隆里","LIN":"16鄰","STREET":" ","SECT":" ","MAREA":"港北","LANE":" ","ALLEY":" ","HOUSE_NO":"３３號","E_COORD97":160338.54999999999,"N_COORD97":2574526.6200000001,"ADDRESS":"港北３３號","OBJECTID":178873},"geometry":{"x":160338.55000000168,"y":2574526.620000001}},{"attributes":{"ID":178875,"DIS_CODE":0,"TOWNNAME":"北門區","LI":"永隆里","LIN":"16鄰","STREET":" ","SECT":" ","MAREA":"港北","LANE":" ","ALLEY":" ","HOUSE_NO":"３６號之１","E_COORD97":160399.64999999999,"N_COORD97":2574499.2000000002,"ADDRESS":"港北３６號之１","OBJECTID":178874},"geometry":{"x":160399.65000000224,"y":2574499.2000000011}},{"attributes":{"ID":178876,"DIS_CODE":0,"TOWNNAME":"北門區","LI":"永隆里","LIN":"16鄰","STREET":" ","SECT":" ","MAREA":"港北","LANE":" ","ALLEY":" ","HOUSE_NO":"３６號","E_COORD97":160381.26999999999,"N_COORD97":2574513.6000000001,"ADDRESS":"港北３６號","OBJECTID":178875},"geometry":{"x":160381.27000000048,"y":2574513.6000000015}},{"attributes":{"ID":178877,"DIS_CODE":0,"TOWNNAME":"北門區","LI":"永隆里","LIN":"16鄰","STREET":" ","SECT":" ","MAREA":"港北","LANE":" ","ALLEY":" ","HOUSE_NO":"３７號","E_COORD97":160408.89999999999,"N_COORD97":2574495.98,"ADDRESS":"港北３７號","OBJECTID":178876},"geometry":{"x":160408.90000000037,"y":2574495.9800000004}},{"attributes":{"ID":178878,"DIS_CODE":0,"TOWNNAME":"北門區","LI":"永隆里","LIN":"16鄰","STREET":" ","SECT":" ","MAREA":"港北","LANE":" ","ALLEY":" ","HOUSE_NO":"３８號之１","E_COORD97":160757.62,"N_COORD97":2574394.6800000002,"ADDRESS":"港北３８號之１","OBJECTID":178877},"geometry":{"x":160757.62000000104,"y":2574394.6800000016}},{"attributes":{"ID":178879,"DIS_CODE":0,"TOWNNAME":"北門區","LI":"永隆里","LIN":"16鄰","STREET":" ","SECT":" ","MAREA":"港北","LANE":" ","ALLEY":" ","HOUSE_NO":"３８之６號","E_COORD97":161345.91,"N_COORD97":2574591.75,"ADDRESS":"港北３８之６號","OBJECTID":178878},"geometry":{"x":161345.91000000108,"y":2574591.7500000019}},{"attributes":{"ID":178880,"DIS_CODE":0,"TOWNNAME":"北門區","LI":"永隆里","LIN":"16鄰","STREET":" ","SECT":" ","MAREA":"港北","LANE":" ","ALLEY":" ","HOUSE_NO":"３８號之６","E_COORD97":161345.91,"N_COORD97":2574591.75,"ADDRESS":"港北３８號之６","OBJECTID":178879},"geometry":{"x":161345.91000000108,"y":2574591.7500000019}},{"attributes":{"ID":178881,"DIS_CODE":0,"TOWNNAME":"北門區","LI":"永隆里","LIN":"16鄰","STREET":" ","SECT":" ","MAREA":"港北","LANE":" ","ALLEY":" ","HOUSE_NO":"４１號","E_COORD97":160622.81,"N_COORD97":2575163.3300000001,"ADDRESS":"港北４１號","OBJECTID":178880},"geometry":{"x":160622.80999999959,"y":2575163.3300000019}},{"attributes":{"ID":178882,"DIS_CODE":0,"TOWNNAME":"北門區","LI":"永隆里","LIN":"16鄰","STREET":" ","SECT":" ","MAREA":"港北","LANE":" ","ALLEY":" ","HOUSE_NO":"４８號","E_COORD97":160463.79999999999,"N_COORD97":2574491.5800000001,"ADDRESS":"港北４８號","OBJECTID":178881},"geometry":{"x":160463.79999999981,"y":2574491.5800000001}},{"attributes":{"ID":178883,"DIS_CODE":0,"TOWNNAME":"北門區","LI":"永隆里","LIN":"16鄰","STREET":" ","SECT":" ","MAREA":"港北","LANE":" ","ALLEY":" ","HOUSE_NO":"４９號","E_COORD97":160467.79999999999,"N_COORD97":2574490.9500000002,"ADDRESS":"港北４９號","OBJECTID":178882},"geometry":{"x":160467.80000000075,"y":2574490.9500000011}},{"attributes":{"ID":178884,"DIS_CODE":0,"TOWNNAME":"安南區","LI":"城東里","LIN":"4鄰","STREET":"城北路","SECT":" ","MAREA":" ","LANE":"１７２巷","ALLEY":"３５弄","HOUSE_NO":"２７號","E_COORD97":161089.29000000001,"N_COORD97":2551828.9100000001,"ADDRESS":"城北路１７２巷３５弄２７號","OBJECTID":178883},"geometry":{"x":161089.29000000004,"y":2551828.9100000001}},{"attributes":{"ID":178885,"DIS_CODE":0,"TOWNNAME":"安南區","LI":"城東里","LIN":"4鄰","STREET":"城北路","SECT":" ","MAREA":" ","LANE":"１７２巷","ALLEY":"３５弄","HOUSE_NO":"３號","E_COORD97":161042.01999999999,"N_COORD97":2551780.9500000002,"ADDRESS":"城北路１７２巷３５弄３號","OBJECTID":178884},"geometry":{"x":161042.02000000142,"y":2551780.950000003}},{"attributes":{"ID":178886,"DIS_CODE":0,"TOWNNAME":"安南區","LI":"城東里","LIN":"4鄰","STREET":"城北路","SECT":" ","MAREA":" ","LANE":"１７２巷","ALLEY":"３５弄","HOUSE_NO":"５號","E_COORD97":161047.53,"N_COORD97":2551783.6099999999,"ADDRESS":"城北路１７２巷３５弄５號","OBJECTID":178885},"geometry":{"x":161047.53000000026,"y":2551783.6100000031}},{"attributes":{"ID":178887,"DIS_CODE":0,"TOWNNAME":"安南區","LI":"城東里","LIN":"4鄰","STREET":"城北路","SECT":" ","MAREA":" ","LANE":"２３４巷","ALLEY":"４８弄","HOUSE_NO":"３１號","E_COORD97":161119.17999999999,"N_COORD97":2551795.8999999999,"ADDRESS":"城北路２３４巷４８弄３１號","OBJECTID":178886},"geometry":{"x":161119.18000000156,"y":2551795.8999999985}},{"attributes":{"ID":178888,"DIS_CODE":0,"TOWNNAME":"北門區","LI":"永隆里","LIN":"16鄰","STREET":" ","SECT":" ","MAREA":"港北","LANE":" ","ALLEY":" ","HOUSE_NO":"５０號","E_COORD97":160499.39000000001,"N_COORD97":2574490.77,"ADDRESS":"港北５０號","OBJECTID":178887},"geometry":{"x":160499.3900000006,"y":2574490.7699999996}},{"attributes":{"ID":178889,"DIS_CODE":0,"TOWNNAME":"安南區","LI":"城東里","LIN":"4鄰","STREET":"城北路","SECT":" ","MAREA":" ","LANE":"２３４巷","ALLEY":"４８弄","HOUSE_NO":"３５號","E_COORD97":161135.04999999999,"N_COORD97":2551799.4300000002,"ADDRESS":"城北路２３４巷４８弄３５號","OBJECTID":178888},"geometry":{"x":161135.04999999981,"y":2551799.4300000016}},{"attributes":{"ID":178890,"DIS_CODE":0,"TOWNNAME":"安南區","LI":"城東里","LIN":"4鄰","STREET":"城北路","SECT":" ","MAREA":" ","LANE":"２３４巷","ALLEY":"４８弄","HOUSE_NO":"９號","E_COORD97":161107.45999999999,"N_COORD97":2551851.8199999998,"ADDRESS":"城北路２３４巷４８弄９號","OBJECTID":178889},"geometry":{"x":161107.46000000089,"y":2551851.8200000022}},{"attributes":{"ID":178891,"DIS_CODE":0,"TOWNNAME":"新市區","LI":"新和里","LIN":"46鄰","STREET":"和平街","SECT":" ","MAREA":" ","LANE":"２０８巷","ALLEY":"１３弄","HOUSE_NO":"１號","E_COORD97":177347.42999999999,"N_COORD97":2553279.25,"ADDRESS":"和平街２０８巷１３弄１號","OBJECTID":178890},"geometry":{"x":177347.43000000063,"y":2553279.2500000019}},{"attributes":{"ID":178892,"DIS_CODE":0,"TOWNNAME":"北門區","LI":"永隆里","LIN":"16鄰","STREET":" ","SECT":" ","MAREA":"港北","LANE":" ","ALLEY":" ","HOUSE_NO":"５１號","E_COORD97":160528.23000000001,"N_COORD97":2574486.9500000002,"ADDRESS":"港北５１號","OBJECTID":178891},"geometry":{"x":160528.23000000138,"y":2574486.9500000011}},{"attributes":{"ID":178893,"DIS_CODE":0,"TOWNNAME":"新市區","LI":"新市里","LIN":"26鄰","STREET":"復興路","SECT":" ","MAREA":" ","LANE":"６巷","ALLEY":"１９弄","HOUSE_NO":"２２號","E_COORD97":177891.12,"N_COORD97":2553422.5299999998,"ADDRESS":"復興路６巷１９弄２２號","OBJECTID":178892},"geometry":{"x":177891.12000000104,"y":2553422.5300000012}},{"attributes":{"ID":178894,"DIS_CODE":0,"TOWNNAME":"北門區","LI":"錦湖里","LIN":"16鄰","STREET":" ","SECT":" ","MAREA":"渡子頭","LANE":" ","ALLEY":" ","HOUSE_NO":"１６８之３０號","E_COORD97":163227.32999999999,"N_COORD97":2578428.5,"ADDRESS":"渡子頭１６８之３０號","OBJECTID":178893},"geometry":{"x":163227.33000000194,"y":2578428.5}},{"attributes":{"ID":178895,"DIS_CODE":0,"TOWNNAME":"新市區","LI":"新市里","LIN":"26鄰","STREET":"復興路","SECT":" ","MAREA":" ","LANE":"６巷","ALLEY":"１９弄","HOUSE_NO":"４號","E_COORD97":177890.70999999999,"N_COORD97":2553385.2799999998,"ADDRESS":"復興路６巷１９弄４號","OBJECTID":178894},"geometry":{"x":177890.70999999996,"y":2553385.2799999993}},{"attributes":{"ID":178896,"DIS_CODE":0,"TOWNNAME":"新市區","LI":"新和里","LIN":"41鄰","STREET":"信義街","SECT":" ","MAREA":" ","LANE":"２５巷","ALLEY":"１１弄","HOUSE_NO":"１４號","E_COORD97":177170.98999999999,"N_COORD97":2552749.52,"ADDRESS":"信義街２５巷１１弄１４號","OBJECTID":178895},"geometry":{"x":177170.99000000209,"y":2552749.5199999996}},{"attributes":{"ID":178897,"DIS_CODE":0,"TOWNNAME":"東區","LI":"關聖里","LIN":"8鄰","STREET":"裕農路","SECT":" ","MAREA":" ","LANE":"６６８巷","ALLEY":"３５弄","HOUSE_NO":"４８號","E_COORD97":171834.34,"N_COORD97":2543094.6200000001,"ADDRESS":"裕農路６６８巷３５弄４８號","OBJECTID":178896},"geometry":{"x":171834.33999999985,"y":2543094.620000001}},{"attributes":{"ID":178898,"DIS_CODE":0,"TOWNNAME":"東區","LI":"關聖里","LIN":"8鄰","STREET":"裕農路","SECT":" ","MAREA":" ","LANE":"６６８巷","ALLEY":"３５弄","HOUSE_NO":"５０號","E_COORD97":171838.60000000001,"N_COORD97":2543092.3100000001,"ADDRESS":"裕農路６６８巷３５弄５０號","OBJECTID":178897},"geometry":{"x":171838.60000000056,"y":2543092.3100000005}},{"attributes":{"ID":178899,"DIS_CODE":0,"TOWNNAME":"東區","LI":"自強里","LIN":"4鄰","STREET":"東門路","SECT":"三段","MAREA":" ","LANE":"３７巷","ALLEY":"２６弄","HOUSE_NO":"２號","E_COORD97":171320.62,"N_COORD97":2542417.2799999998,"ADDRESS":"東門路三段３７巷２６弄２號","OBJECTID":178898},"geometry":{"x":171320.62000000104,"y":2542417.2799999993}},{"attributes":{"ID":178900,"DIS_CODE":0,"TOWNNAME":"東區","LI":"自強里","LIN":"4鄰","STREET":"東門路","SECT":"三段","MAREA":" ","LANE":"３７巷","ALLEY":"２６弄","HOUSE_NO":"１號","E_COORD97":171319.64999999999,"N_COORD97":2542429.98,"ADDRESS":"東門路三段３７巷２６弄１號","OBJECTID":178899},"geometry":{"x":171319.65000000037,"y":2542429.9800000004}},{"attributes":{"ID":178901,"DIS_CODE":0,"TOWNNAME":"東區","LI":"崇信里","LIN":"14鄰","STREET":"崇學路","SECT":" ","MAREA":" ","LANE":"１４２巷","ALLEY":"１０弄","HOUSE_NO":"１５號","E_COORD97":170512.04000000001,"N_COORD97":2542323.8100000001,"ADDRESS":"崇學路１４２巷１０弄１５號","OBJECTID":178900},"geometry":{"x":170512.04000000097,"y":2542323.8100000005}},{"attributes":{"ID":178902,"DIS_CODE":0,"TOWNNAME":"東區","LI":"崇信里","LIN":"18鄰","STREET":"崇善一街","SECT":" ","MAREA":" ","LANE":"３巷","ALLEY":"６弄","HOUSE_NO":"３號","E_COORD97":170675.76999999999,"N_COORD97":2542136.1400000001,"ADDRESS":"崇善一街３巷６弄３號","OBJECTID":178901},"geometry":{"x":170675.77000000142,"y":2542136.1400000025}},{"attributes":{"ID":178903,"DIS_CODE":0,"TOWNNAME":"北門區","LI":"錦湖里","LIN":"16鄰","STREET":" ","SECT":" ","MAREA":"渡子頭","LANE":" ","ALLEY":" ","HOUSE_NO":"１７８之１號","E_COORD97":162669.19,"N_COORD97":2578103.1699999999,"ADDRESS":"渡子頭１７８之１號","OBJECTID":178902},"geometry":{"x":162669.19000000227,"y":2578103.1700000037}},{"attributes":{"ID":178904,"DIS_CODE":0,"TOWNNAME":"北門區","LI":"錦湖里","LIN":"16鄰","STREET":" ","SECT":" ","MAREA":"渡子頭","LANE":" ","ALLEY":" ","HOUSE_NO":"１７８號之１","E_COORD97":162669.19,"N_COORD97":2578103.1699999999,"ADDRESS":"渡子頭１７８號之１","OBJECTID":178903},"geometry":{"x":162669.19000000227,"y":2578103.1700000037}},{"attributes":{"ID":178905,"DIS_CODE":0,"TOWNNAME":"新市區","LI":"社內里","LIN":"16鄰","STREET":" ","SECT":" ","MAREA":"社內","LANE":" ","ALLEY":" ","HOUSE_NO":"１６７之１１號","E_COORD97":176201.70000000001,"N_COORD97":2553002.0499999998,"ADDRESS":"社內１６７之１１號","OBJECTID":178904},"geometry":{"x":176201.70000000205,"y":2553002.0500000007}},{"attributes":{"ID":178906,"DIS_CODE":0,"TOWNNAME":"新市區","LI":"大營里","LIN":"16鄰","STREET":" ","SECT":" ","MAREA":"大營","LANE":" ","ALLEY":" ","HOUSE_NO":"２９８之１號","E_COORD97":179151.13,"N_COORD97":2555411.2999999998,"ADDRESS":"大營２９８之１號","OBJECTID":178905},"geometry":{"x":179151.12999999989,"y":2555411.3000000045}},{"attributes":{"ID":178907,"DIS_CODE":0,"TOWNNAME":"新市區","LI":"大營里","LIN":"16鄰","STREET":" ","SECT":" ","MAREA":"大營","LANE":" ","ALLEY":" ","HOUSE_NO":"３０２之１號","E_COORD97":179199.70999999999,"N_COORD97":2555438.7999999998,"ADDRESS":"大營３０２之１號","OBJECTID":178906},"geometry":{"x":179199.70999999996,"y":2555438.8000000026}},{"attributes":{"ID":178908,"DIS_CODE":0,"TOWNNAME":"新市區","LI":"大營里","LIN":"16鄰","STREET":" ","SECT":" ","MAREA":"大營","LANE":" ","ALLEY":" ","HOUSE_NO":"３０７號","E_COORD97":179217.73999999999,"N_COORD97":2555457.5,"ADDRESS":"大營３０７號","OBJECTID":178907},"geometry":{"x":179217.74000000115,"y":2555457.5000000019}},{"attributes":{"ID":178909,"DIS_CODE":0,"TOWNNAME":"新市區","LI":"大營里","LIN":"16鄰","STREET":" ","SECT":" ","MAREA":"大營","LANE":" ","ALLEY":" ","HOUSE_NO":"３０２號","E_COORD97":179190.17999999999,"N_COORD97":2555452.5,"ADDRESS":"大營３０２號","OBJECTID":178908},"geometry":{"x":179190.18000000063,"y":2555452.5}},{"attributes":{"ID":178910,"DIS_CODE":0,"TOWNNAME":"新市區","LI":"大營里","LIN":"16鄰","STREET":" ","SECT":" ","MAREA":"大營","LANE":" ","ALLEY":" ","HOUSE_NO":"３０６號","E_COORD97":179212.34,"N_COORD97":2555453,"ADDRESS":"大營３０６號","OBJECTID":178909},"geometry":{"x":179212.33999999985,"y":2555452.9999999981}},{"attributes":{"ID":178911,"DIS_CODE":0,"TOWNNAME":"新市區","LI":"大營里","LIN":"16鄰","STREET":" ","SECT":" ","MAREA":"大營","LANE":" ","ALLEY":" ","HOUSE_NO":"３００號","E_COORD97":179157.82000000001,"N_COORD97":2555434.5,"ADDRESS":"大營３００號","OBJECTID":178910},"geometry":{"x":179157.82000000123,"y":2555434.5000000019}},{"attributes":{"ID":178912,"DIS_CODE":0,"TOWNNAME":"新市區","LI":"大營里","LIN":"16鄰","STREET":" ","SECT":" ","MAREA":"大營","LANE":" ","ALLEY":" ","HOUSE_NO":"２９８號","E_COORD97":179156.82000000001,"N_COORD97":2555420.75,"ADDRESS":"大營２９８號","OBJECTID":178911},"geometry":{"x":179156.8200000003,"y":2555420.7499999981}},{"attributes":{"ID":178913,"DIS_CODE":0,"TOWNNAME":"新市區","LI":"大社里","LIN":"16鄰","STREET":" ","SECT":" ","MAREA":"大社","LANE":" ","ALLEY":" ","HOUSE_NO":"６８８號","E_COORD97":179985.10000000001,"N_COORD97":2554328.5,"ADDRESS":"大社６８８號","OBJECTID":178912},"geometry":{"x":179985.09999999963,"y":2554328.5000000019}},{"attributes":{"ID":178914,"DIS_CODE":0,"TOWNNAME":"東區","LI":"大智里","LIN":"28鄰","STREET":"德東街","SECT":" ","MAREA":" ","LANE":"２３５巷","ALLEY":"１１８弄","HOUSE_NO":"１０６號","E_COORD97":171518.59,"N_COORD97":2540329.96,"ADDRESS":"德東街２３５巷１１８弄１０６號","OBJECTID":178913},"geometry":{"x":171518.59000000078,"y":2540329.9600000046}},{"attributes":{"ID":178915,"DIS_CODE":0,"TOWNNAME":"新市區","LI":"大社里","LIN":"16鄰","STREET":" ","SECT":" ","MAREA":"大社","LANE":" ","ALLEY":" ","HOUSE_NO":"６８９號","E_COORD97":179985.85000000001,"N_COORD97":2554332.5,"ADDRESS":"大社６８９號","OBJECTID":178914},"geometry":{"x":179985.85000000056,"y":2554332.5000000019}},{"attributes":{"ID":178916,"DIS_CODE":0,"TOWNNAME":"東區","LI":"富強里","LIN":"25鄰","STREET":"裕農路","SECT":" ","MAREA":" ","LANE":"４４６巷","ALLEY":"５２弄","HOUSE_NO":"５２之１號","E_COORD97":171082.19,"N_COORD97":2543001.6800000002,"ADDRESS":"裕農路４４６巷５２弄５２之１號","OBJECTID":178915},"geometry":{"x":171082.19000000041,"y":2543001.6799999997}},{"attributes":{"ID":178917,"DIS_CODE":0,"TOWNNAME":"東區","LI":"富強里","LIN":"25鄰","STREET":"裕農路","SECT":" ","MAREA":" ","LANE":"４４６巷","ALLEY":"５２弄","HOUSE_NO":"５２之２號","E_COORD97":171080.82999999999,"N_COORD97":2543009.5800000001,"ADDRESS":"裕農路４４６巷５２弄５２之２號","OBJECTID":178916},"geometry":{"x":171080.83000000007,"y":2543009.5800000001}},{"attributes":{"ID":178918,"DIS_CODE":0,"TOWNNAME":"東區","LI":"富強里","LIN":"25鄰","STREET":"裕農路","SECT":" ","MAREA":" ","LANE":"４４６巷","ALLEY":"５２弄","HOUSE_NO":"５２之３號","E_COORD97":171079.82999999999,"N_COORD97":2543015.2200000002,"ADDRESS":"裕農路４４６巷５２弄５２之３號","OBJECTID":178917},"geometry":{"x":171079.83000000101,"y":2543015.2200000007}},{"attributes":{"ID":178919,"DIS_CODE":0,"TOWNNAME":"東區","LI":"富強里","LIN":"25鄰","STREET":"裕農路","SECT":" ","MAREA":" ","LANE":"４４６巷","ALLEY":"５２弄","HOUSE_NO":"５２之６號","E_COORD97":171077.45999999999,"N_COORD97":2543025.2999999998,"ADDRESS":"裕農路４４６巷５２弄５２之６號","OBJECTID":178918},"geometry":{"x":171077.46000000089,"y":2543025.3000000007}},{"attributes":{"ID":178920,"DIS_CODE":0,"TOWNNAME":"東區","LI":"崇學里","LIN":"4鄰","STREET":"崇德路","SECT":" ","MAREA":" ","LANE":"３３３巷","ALLEY":"２３弄","HOUSE_NO":"２１號","E_COORD97":170345.82000000001,"N_COORD97":2542070.0299999998,"ADDRESS":"崇德路３３３巷２３弄２１號","OBJECTID":178919},"geometry":{"x":170345.82000000216,"y":2542070.0299999993}},{"attributes":{"ID":178921,"DIS_CODE":0,"TOWNNAME":"東區","LI":"崇學里","LIN":"4鄰","STREET":"崇學路","SECT":" ","MAREA":" ","LANE":"９６巷","ALLEY":"８弄","HOUSE_NO":"３０號","E_COORD97":170283.26000000001,"N_COORD97":2542096.5600000001,"ADDRESS":"崇學路９６巷８弄３０號","OBJECTID":178920},"geometry":{"x":170283.26000000071,"y":2542096.5600000024}},{"attributes":{"ID":178922,"DIS_CODE":0,"TOWNNAME":"官田區","LI":"湖山里","LIN":"16鄰","STREET":" ","SECT":" ","MAREA":"烏山頭","LANE":" ","ALLEY":" ","HOUSE_NO":"９７號","E_COORD97":183655.98000000001,"N_COORD97":2568005.4900000002,"ADDRESS":"烏山頭９７號","OBJECTID":178921},"geometry":{"x":183655.98000000138,"y":2568005.4900000021}},{"attributes":{"ID":178923,"DIS_CODE":0,"TOWNNAME":"東區","LI":"崇學里","LIN":"4鄰","STREET":"崇學路","SECT":" ","MAREA":" ","LANE":"９６巷","ALLEY":"８弄","HOUSE_NO":"３２號","E_COORD97":170280.14999999999,"N_COORD97":2542093.4500000002,"ADDRESS":"崇學路９６巷８弄３２號","OBJECTID":178922},"geometry":{"x":170280.15000000037,"y":2542093.4499999993}},{"attributes":{"ID":178924,"DIS_CODE":0,"TOWNNAME":"東區","LI":"崇學里","LIN":"4鄰","STREET":"崇學路","SECT":" ","MAREA":" ","LANE":"９６巷","ALLEY":"８弄","HOUSE_NO":"３８號","E_COORD97":170273.92999999999,"N_COORD97":2542087.23,"ADDRESS":"崇學路９６巷８弄３８號","OBJECTID":178923},"geometry":{"x":170273.93000000063,"y":2542087.2300000042}},{"attributes":{"ID":178925,"DIS_CODE":0,"TOWNNAME":"善化區","LI":"坐駕里","LIN":"17鄰","STREET":"興華路","SECT":" ","MAREA":" ","LANE":"２６１巷","ALLEY":"２弄","HOUSE_NO":"２３號","E_COORD97":177979.42999999999,"N_COORD97":2558464.5,"ADDRESS":"興華路２６１巷２弄２３號","OBJECTID":178924},"geometry":{"x":177979.43000000156,"y":2558464.5000000019}},{"attributes":{"ID":178926,"DIS_CODE":0,"TOWNNAME":"善化區","LI":"坐駕里","LIN":"17鄰","STREET":"興華路","SECT":" ","MAREA":" ","LANE":"２６１巷","ALLEY":"２弄","HOUSE_NO":"１９號","E_COORD97":177971.01000000001,"N_COORD97":2558461.5,"ADDRESS":"興華路２６１巷２弄１９號","OBJECTID":178925},"geometry":{"x":177971.01000000071,"y":2558461.5000000019}},{"attributes":{"ID":178927,"DIS_CODE":0,"TOWNNAME":"善化區","LI":"文正里","LIN":"14鄰","STREET":"陽明路","SECT":" ","MAREA":" ","LANE":"２２３巷","ALLEY":"３弄","HOUSE_NO":"３號","E_COORD97":176076.39999999999,"N_COORD97":2559597.0099999998,"ADDRESS":"陽明路２２３巷３弄３號","OBJECTID":178926},"geometry":{"x":176076.40000000037,"y":2559597.0100000016}},{"attributes":{"ID":178928,"DIS_CODE":0,"TOWNNAME":"善化區","LI":"坐駕里","LIN":"17鄰","STREET":"興華路","SECT":" ","MAREA":" ","LANE":"２６１巷","ALLEY":"２弄","HOUSE_NO":"２５號","E_COORD97":177983.57000000001,"N_COORD97":2558466,"ADDRESS":"興華路２６１巷２弄２５號","OBJECTID":178927},"geometry":{"x":177983.5700000003,"y":2558466}},{"attributes":{"ID":178929,"DIS_CODE":0,"TOWNNAME":"善化區","LI":"文正里","LIN":"14鄰","STREET":"陽明路","SECT":" ","MAREA":" ","LANE":"２２３巷","ALLEY":"２弄","HOUSE_NO":"１７號","E_COORD97":176122.70000000001,"N_COORD97":2559630.0099999998,"ADDRESS":"陽明路２２３巷２弄１７號","OBJECTID":178928},"geometry":{"x":176122.70000000112,"y":2559630.0100000035}},{"attributes":{"ID":178930,"DIS_CODE":0,"TOWNNAME":"仁德區","LI":"後壁里","LIN":"32鄰","STREET":"德洋路","SECT":" ","MAREA":" ","LANE":"２２７巷","ALLEY":"２弄","HOUSE_NO":"５號","E_COORD97":172514.25,"N_COORD97":2539568.52,"ADDRESS":"德洋路２２７巷２弄５號","OBJECTID":178929},"geometry":{"x":172514.25000000093,"y":2539568.5199999977}},{"attributes":{"ID":178931,"DIS_CODE":0,"TOWNNAME":"仁德區","LI":"仁德里","LIN":"43鄰","STREET":"中山路","SECT":" ","MAREA":" ","LANE":"９１０巷","ALLEY":"１１弄","HOUSE_NO":"１９號","E_COORD97":171961.95000000001,"N_COORD97":2541751.5,"ADDRESS":"中山路９１０巷１１弄１９號","OBJECTID":178930},"geometry":{"x":171961.95000000205,"y":2541751.5}},{"attributes":{"ID":178932,"DIS_CODE":0,"TOWNNAME":"仁德區","LI":"保安里","LIN":"4鄰","STREET":"文賢路","SECT":"一段","MAREA":" ","LANE":"８６４巷","ALLEY":"１３弄","HOUSE_NO":"３號","E_COORD97":171557.09,"N_COORD97":2536004.8199999998,"ADDRESS":"文賢路一段８６４巷１３弄３號","OBJECTID":178931},"geometry":{"x":171557.09000000171,"y":2536004.8200000022}},{"attributes":{"ID":178933,"DIS_CODE":0,"TOWNNAME":"仁德區","LI":"後壁里","LIN":"32鄰","STREET":"德洋路","SECT":" ","MAREA":" ","LANE":"２２７巷","ALLEY":"２弄","HOUSE_NO":"１８號","E_COORD97":172498.97,"N_COORD97":2539588.52,"ADDRESS":"德洋路２２７巷２弄１８號","OBJECTID":178932},"geometry":{"x":172498.97000000067,"y":2539588.5199999996}},{"attributes":{"ID":178934,"DIS_CODE":0,"TOWNNAME":"仁德區","LI":"成功里","LIN":"46鄰","STREET":"文賢路","SECT":"一段","MAREA":" ","LANE":"８１巷","ALLEY":"５９弄","HOUSE_NO":"９號","E_COORD97":170251.07999999999,"N_COORD97":2538280.0699999998,"ADDRESS":"文賢路一段８１巷５９弄９號","OBJECTID":178933},"geometry":{"x":170251.08000000101,"y":2538280.0700000003}},{"attributes":{"ID":178935,"DIS_CODE":0,"TOWNNAME":"仁德區","LI":"新田里","LIN":"5鄰","STREET":"勝利二街","SECT":" ","MAREA":" ","LANE":"１９巷","ALLEY":"１２弄","HOUSE_NO":"３號","E_COORD97":174935.07000000001,"N_COORD97":2539314.5,"ADDRESS":"勝利二街１９巷１２弄３號","OBJECTID":178934},"geometry":{"x":174935.07000000123,"y":2539314.5}},{"attributes":{"ID":178936,"DIS_CODE":0,"TOWNNAME":"仁德區","LI":"保安里","LIN":"4鄰","STREET":"文賢路","SECT":"一段","MAREA":" ","LANE":"８６２巷","ALLEY":"６弄","HOUSE_NO":"８號","E_COORD97":171469.84,"N_COORD97":2536114.8199999998,"ADDRESS":"文賢路一段８６２巷６弄８號","OBJECTID":178935},"geometry":{"x":171469.84000000078,"y":2536114.8200000003}},{"attributes":{"ID":178937,"DIS_CODE":0,"TOWNNAME":"仁德區","LI":"太子里","LIN":"26鄰","STREET":"長興五街","SECT":" ","MAREA":" ","LANE":"１４巷","ALLEY":"２弄","HOUSE_NO":"２號","E_COORD97":173610.73999999999,"N_COORD97":2543586.25,"ADDRESS":"長興五街１４巷２弄２號","OBJECTID":178936},"geometry":{"x":173610.74000000022,"y":2543586.2500000019}},{"attributes":{"ID":178938,"DIS_CODE":0,"TOWNNAME":"仁德區","LI":"仁德里","LIN":"26鄰","STREET":"淨修街","SECT":" ","MAREA":" ","LANE":"１７５巷","ALLEY":"３０弄","HOUSE_NO":"１８號","E_COORD97":171978.14000000001,"N_COORD97":2541197.1800000002,"ADDRESS":"淨修街１７５巷３０弄１８號","OBJECTID":178937},"geometry":{"x":171978.13999999966,"y":2541197.1799999997}},{"attributes":{"ID":178939,"DIS_CODE":0,"TOWNNAME":"仁德區","LI":"太子里","LIN":"39鄰","STREET":"長興一街","SECT":" ","MAREA":" ","LANE":"６巷","ALLEY":"４弄","HOUSE_NO":"１號","E_COORD97":174736.23000000001,"N_COORD97":2543719.2599999998,"ADDRESS":"長興一街６巷４弄１號","OBJECTID":178938},"geometry":{"x":174736.23000000045,"y":2543719.2599999998}},{"attributes":{"ID":178940,"DIS_CODE":0,"TOWNNAME":"仁德區","LI":"後壁里","LIN":"32鄰","STREET":"德洋路","SECT":" ","MAREA":" ","LANE":"２２７巷","ALLEY":"２弄","HOUSE_NO":"８號","E_COORD97":172519.10000000001,"N_COORD97":2539579.52,"ADDRESS":"德洋路２２７巷２弄８號","OBJECTID":178939},"geometry":{"x":172519.09999999963,"y":2539579.5200000014}},{"attributes":{"ID":178941,"DIS_CODE":0,"TOWNNAME":"將軍區","LI":"平沙里","LIN":"11鄰","STREET":" ","SECT":" ","MAREA":"平沙","LANE":" ","ALLEY":" ","HOUSE_NO":"９９號","E_COORD97":157298.14999999999,"N_COORD97":2568447.71,"ADDRESS":"平沙９９號","OBJECTID":178940},"geometry":{"x":157298.1500000013,"y":2568447.7100000009}},{"attributes":{"ID":178942,"DIS_CODE":0,"TOWNNAME":"仁德區","LI":"後壁里","LIN":"18鄰","STREET":"德南路","SECT":" ","MAREA":" ","LANE":"２２巷","ALLEY":"９弄","HOUSE_NO":"５６號","E_COORD97":173376.44,"N_COORD97":2538659.1200000001,"ADDRESS":"德南路２２巷９弄５６號","OBJECTID":178941},"geometry":{"x":173376.44000000134,"y":2538659.1200000029}},{"attributes":{"ID":178943,"DIS_CODE":0,"TOWNNAME":"仁德區","LI":"後壁里","LIN":"42鄰","STREET":"德崙路","SECT":" ","MAREA":" ","LANE":"４８巷","ALLEY":"１２弄","HOUSE_NO":"５號","E_COORD97":173257.70000000001,"N_COORD97":2538530.7200000002,"ADDRESS":"德崙路４８巷１２弄５號","OBJECTID":178942},"geometry":{"x":173257.70000000112,"y":2538530.7200000007}},{"attributes":{"ID":178944,"DIS_CODE":0,"TOWNNAME":"仁德區","LI":"大甲里","LIN":"20鄰","STREET":"中正西路","SECT":" ","MAREA":" ","LANE":"４９５巷","ALLEY":"２２弄","HOUSE_NO":"１０號","E_COORD97":169375.16,"N_COORD97":2535388.7400000002,"ADDRESS":"中正西路４９５巷２２弄１０號","OBJECTID":178943},"geometry":{"x":169375.15999999922,"y":2535388.7400000021}},{"attributes":{"ID":178945,"DIS_CODE":0,"TOWNNAME":"仁德區","LI":"太子里","LIN":"26鄰","STREET":"長興五街","SECT":" ","MAREA":" ","LANE":"１４巷","ALLEY":"２弄","HOUSE_NO":"７號","E_COORD97":173628.53,"N_COORD97":2543568,"ADDRESS":"長興五街１４巷２弄７號","OBJECTID":178944},"geometry":{"x":173628.53000000119,"y":2543568.0000000019}},{"attributes":{"ID":178946,"DIS_CODE":0,"TOWNNAME":"仁德區","LI":"後壁里","LIN":"32鄰","STREET":"德洋路","SECT":" ","MAREA":" ","LANE":"２０５巷","ALLEY":"１０弄","HOUSE_NO":"４號","E_COORD97":172487.82000000001,"N_COORD97":2539530.0099999998,"ADDRESS":"德洋路２０５巷１０弄４號","OBJECTID":178945},"geometry":{"x":172487.8200000003,"y":2539530.0099999998}},{"attributes":{"ID":178947,"DIS_CODE":0,"TOWNNAME":"仁德區","LI":"保安里","LIN":"4鄰","STREET":"文賢路","SECT":"一段","MAREA":" ","LANE":"８６２巷","ALLEY":"７弄","HOUSE_NO":"１號","E_COORD97":171528.39999999999,"N_COORD97":2536043.5699999998,"ADDRESS":"文賢路一段８６２巷７弄１號","OBJECTID":178946},"geometry":{"x":171528.39999999944,"y":2536043.5700000022}},{"attributes":{"ID":178948,"DIS_CODE":0,"TOWNNAME":"仁德區","LI":"後壁里","LIN":"36鄰","STREET":"民安路","SECT":"一段","MAREA":" ","LANE":"３１０巷","ALLEY":"３２弄","HOUSE_NO":"２號","E_COORD97":172768.64000000001,"N_COORD97":2539454.1899999999,"ADDRESS":"民安路一段３１０巷３２弄２號","OBJECTID":178947},"geometry":{"x":172768.64000000153,"y":2539454.1899999995}},{"attributes":{"ID":178949,"DIS_CODE":0,"TOWNNAME":"仁德區","LI":"仁德里","LIN":"32鄰","STREET":"中山路","SECT":" ","MAREA":" ","LANE":"６０６巷","ALLEY":"１弄","HOUSE_NO":"１１號","E_COORD97":173190.16,"N_COORD97":2541406.4900000002,"ADDRESS":"中山路６０６巷１弄１１號","OBJECTID":178948},"geometry":{"x":173190.16000000108,"y":2541406.4900000002}},{"attributes":{"ID":178950,"DIS_CODE":0,"TOWNNAME":"仁德區","LI":"新田里","LIN":"4鄰","STREET":"勝利路","SECT":" ","MAREA":" ","LANE":"１３２巷","ALLEY":"１２弄","HOUSE_NO":"３４號","E_COORD97":174393.090777,"N_COORD97":2539421.5414200001,"ADDRESS":"勝利路１３２巷１２弄３４號","OBJECTID":178949},"geometry":{"x":174393.09077700134,"y":2539421.5414250027}},{"attributes":{"ID":178951,"DIS_CODE":0,"TOWNNAME":"仁德區","LI":"仁義里","LIN":"46鄰","STREET":"仁義路","SECT":" ","MAREA":" ","LANE":"９８巷","ALLEY":"３７弄","HOUSE_NO":"１號","E_COORD97":173637.76999999999,"N_COORD97":2540851.29,"ADDRESS":"仁義路９８巷３７弄１號","OBJECTID":178950},"geometry":{"x":173637.77000000048,"y":2540851.2900000028}},{"attributes":{"ID":178952,"DIS_CODE":0,"TOWNNAME":"仁德區","LI":"二行里","LIN":"13鄰","STREET":"行大街","SECT":" ","MAREA":" ","LANE":"１７２巷","ALLEY":"７０弄","HOUSE_NO":"１２號","E_COORD97":169845.23999999999,"N_COORD97":2535262,"ADDRESS":"行大街１７２巷７０弄１２號","OBJECTID":178951},"geometry":{"x":169845.24000000022,"y":2535262}},{"attributes":{"ID":178953,"DIS_CODE":0,"TOWNNAME":"仁德區","LI":"上崙里","LIN":"25鄰","STREET":"中正路","SECT":"一段","MAREA":" ","LANE":"７６６巷","ALLEY":"２５弄","HOUSE_NO":"１４號","E_COORD97":173074.26999999999,"N_COORD97":2537782.52,"ADDRESS":"中正路一段７６６巷２５弄１４號","OBJECTID":178952},"geometry":{"x":173074.26999999955,"y":2537782.5200000014}},{"attributes":{"ID":178954,"DIS_CODE":0,"TOWNNAME":"仁德區","LI":"仁義里","LIN":"46鄰","STREET":"仁義路","SECT":" ","MAREA":" ","LANE":"９８巷","ALLEY":"３７弄","HOUSE_NO":"８號","E_COORD97":173658.51999999999,"N_COORD97":2540835.04,"ADDRESS":"仁義路９８巷３７弄８號","OBJECTID":178953},"geometry":{"x":173658.51999999955,"y":2540835.0399999991}},{"attributes":{"ID":178955,"DIS_CODE":0,"TOWNNAME":"仁德區","LI":"二行里","LIN":"13鄰","STREET":"行大街","SECT":" ","MAREA":" ","LANE":"１７２巷","ALLEY":"７０弄","HOUSE_NO":"２８號","E_COORD97":169858.39000000001,"N_COORD97":2535233.5,"ADDRESS":"行大街１７２巷７０弄２８號","OBJECTID":178954},"geometry":{"x":169858.3900000006,"y":2535233.5000000019}},{"attributes":{"ID":178956,"DIS_CODE":0,"TOWNNAME":"仁德區","LI":"一甲里","LIN":"17鄰","STREET":"中清路","SECT":" ","MAREA":" ","LANE":"２４８巷","ALLEY":"１６弄","HOUSE_NO":"１３號","E_COORD97":173799.98000000001,"N_COORD97":2541668.2999999998,"ADDRESS":"中清路２４８巷１６弄１３號","OBJECTID":178955},"geometry":{"x":173799.98000000138,"y":2541668.3000000026}},{"attributes":{"ID":178957,"DIS_CODE":0,"TOWNNAME":"仁德區","LI":"一甲里","LIN":"18鄰","STREET":"中清路","SECT":" ","MAREA":" ","LANE":"２４８巷","ALLEY":"７弄","HOUSE_NO":"３７號","E_COORD97":173801.03,"N_COORD97":2541816.9300000002,"ADDRESS":"中清路２４８巷７弄３７號","OBJECTID":178956},"geometry":{"x":173801.03000000119,"y":2541816.9299999997}},{"attributes":{"ID":178958,"DIS_CODE":0,"TOWNNAME":"仁德區","LI":"一甲里","LIN":"17鄰","STREET":"中清路","SECT":" ","MAREA":" ","LANE":"２４８巷","ALLEY":"１６弄","HOUSE_NO":"５號","E_COORD97":173802.57000000001,"N_COORD97":2541691.77,"ADDRESS":"中清路２４８巷１６弄５號","OBJECTID":178957},"geometry":{"x":173802.57000000123,"y":2541691.7699999996}},{"attributes":{"ID":178959,"DIS_CODE":0,"TOWNNAME":"仁德區","LI":"上崙里","LIN":"25鄰","STREET":"中正路","SECT":"一段","MAREA":" ","LANE":"７６６巷","ALLEY":"２５弄","HOUSE_NO":"１６號","E_COORD97":173085.92999999999,"N_COORD97":2537801.52,"ADDRESS":"中正路一段７６６巷２５弄１６號","OBJECTID":178958},"geometry":{"x":173085.93000000063,"y":2537801.5199999996}},{"attributes":{"ID":178960,"DIS_CODE":0,"TOWNNAME":"仁德區","LI":"二行里","LIN":"13鄰","STREET":"行大街","SECT":" ","MAREA":" ","LANE":"１７２巷","ALLEY":"７０弄","HOUSE_NO":"２６號","E_COORD97":169869.64000000001,"N_COORD97":2535265.75,"ADDRESS":"行大街１７２巷７０弄２６號","OBJECTID":178959},"geometry":{"x":169869.63999999966,"y":2535265.7500000019}},{"attributes":{"ID":178961,"DIS_CODE":0,"TOWNNAME":"新市區","LI":"大社里","LIN":"16鄰","STREET":" ","SECT":" ","MAREA":"大社","LANE":" ","ALLEY":" ","HOUSE_NO":"７１１號","E_COORD97":180044.67000000001,"N_COORD97":2554323.25,"ADDRESS":"大社７１１號","OBJECTID":178960},"geometry":{"x":180044.67000000086,"y":2554323.2500000019}},{"attributes":{"ID":178962,"DIS_CODE":0,"TOWNNAME":"仁德區","LI":"二行里","LIN":"13鄰","STREET":"行大街","SECT":" ","MAREA":" ","LANE":"１７２巷","ALLEY":"７０弄","HOUSE_NO":"２２號","E_COORD97":169849.10000000001,"N_COORD97":2535228,"ADDRESS":"行大街１７２巷７０弄２２號","OBJECTID":178961},"geometry":{"x":169849.09999999963,"y":2535228}},{"attributes":{"ID":178963,"DIS_CODE":0,"TOWNNAME":"仁德區","LI":"上崙里","LIN":"25鄰","STREET":"中正路","SECT":"一段","MAREA":" ","LANE":"７６６巷","ALLEY":"２５弄","HOUSE_NO":"１０號","E_COORD97":173052.29000000001,"N_COORD97":2537768.27,"ADDRESS":"中正路一段７６６巷２５弄１０號","OBJECTID":178962},"geometry":{"x":173052.29000000004,"y":2537768.2700000014}},{"attributes":{"ID":178964,"DIS_CODE":0,"TOWNNAME":"新市區","LI":"大社里","LIN":"16鄰","STREET":" ","SECT":" ","MAREA":"大社","LANE":" ","ALLEY":" ","HOUSE_NO":"６８３號","E_COORD97":179979.76999999999,"N_COORD97":2554306,"ADDRESS":"大社６８３號","OBJECTID":178963},"geometry":{"x":179979.77000000048,"y":2554306}},{"attributes":{"ID":178965,"DIS_CODE":0,"TOWNNAME":"仁德區","LI":"上崙里","LIN":"24鄰","STREET":"中正路","SECT":"一段","MAREA":" ","LANE":"７６６巷","ALLEY":"２５弄","HOUSE_NO":"１號","E_COORD97":173004.66,"N_COORD97":2537807.5299999998,"ADDRESS":"中正路一段７６６巷２５弄１號","OBJECTID":178964},"geometry":{"x":173004.66000000201,"y":2537807.5299999993}},{"attributes":{"ID":178966,"DIS_CODE":0,"TOWNNAME":"仁德區","LI":"二行里","LIN":"17鄰","STREET":"行大街","SECT":" ","MAREA":" ","LANE":"１７２巷","ALLEY":"６１弄","HOUSE_NO":"１０號","E_COORD97":169741.14000000001,"N_COORD97":2535216.9900000002,"ADDRESS":"行大街１７２巷６１弄１０號","OBJECTID":178965},"geometry":{"x":169741.14000000153,"y":2535216.9900000021}},{"attributes":{"ID":178967,"DIS_CODE":0,"TOWNNAME":"新市區","LI":"大社里","LIN":"16鄰","STREET":" ","SECT":" ","MAREA":"大社","LANE":" ","ALLEY":" ","HOUSE_NO":"６８５號","E_COORD97":179981.07000000001,"N_COORD97":2554313.5,"ADDRESS":"大社６８５號","OBJECTID":178966},"geometry":{"x":179981.06999999937,"y":2554313.5}},{"attributes":{"ID":178968,"DIS_CODE":0,"TOWNNAME":"新市區","LI":"大社里","LIN":"16鄰","STREET":" ","SECT":" ","MAREA":"大社","LANE":" ","ALLEY":" ","HOUSE_NO":"６８７號","E_COORD97":179985.70999999999,"N_COORD97":2554323.75,"ADDRESS":"大社６８７號","OBJECTID":178967},"geometry":{"x":179985.71000000089,"y":2554323.7500000019}},{"attributes":{"ID":178969,"DIS_CODE":0,"TOWNNAME":"新市區","LI":"大社里","LIN":"16鄰","STREET":" ","SECT":" ","MAREA":"大社","LANE":" ","ALLEY":" ","HOUSE_NO":"６９６號","E_COORD97":180045.29000000001,"N_COORD97":2554349.75,"ADDRESS":"大社６９６號","OBJECTID":178968},"geometry":{"x":180045.29000000004,"y":2554349.7500000037}},{"attributes":{"ID":178970,"DIS_CODE":0,"TOWNNAME":"新市區","LI":"大社里","LIN":"16鄰","STREET":" ","SECT":" ","MAREA":"大社","LANE":" ","ALLEY":" ","HOUSE_NO":"６９７號","E_COORD97":180051.10000000001,"N_COORD97":2554351.25,"ADDRESS":"大社６９７號","OBJECTID":178969},"geometry":{"x":180051.09999999963,"y":2554351.2500000019}},{"attributes":{"ID":178971,"DIS_CODE":0,"TOWNNAME":"新市區","LI":"大社里","LIN":"16鄰","STREET":" ","SECT":" ","MAREA":"大社","LANE":" ","ALLEY":" ","HOUSE_NO":"６９５號","E_COORD97":180041.60000000001,"N_COORD97":2554348.75,"ADDRESS":"大社６９５號","OBJECTID":178970},"geometry":{"x":180041.60000000056,"y":2554348.75}},{"attributes":{"ID":178972,"DIS_CODE":0,"TOWNNAME":"官田區","LI":"湖山里","LIN":"16鄰","STREET":" ","SECT":" ","MAREA":"烏山頭","LANE":" ","ALLEY":" ","HOUSE_NO":"１００號之３","E_COORD97":183557.23999999999,"N_COORD97":2567861.1400000001,"ADDRESS":"烏山頭１００號之３","OBJECTID":178971},"geometry":{"x":183557.24000000115,"y":2567861.1400000006}},{"attributes":{"ID":178973,"DIS_CODE":0,"TOWNNAME":"官田區","LI":"湖山里","LIN":"16鄰","STREET":" ","SECT":" ","MAREA":"烏山頭","LANE":" ","ALLEY":" ","HOUSE_NO":"１００號之４","E_COORD97":183571.16,"N_COORD97":2567857.7799999998,"ADDRESS":"烏山頭１００號之４","OBJECTID":178972},"geometry":{"x":183571.16000000108,"y":2567857.7799999993}},{"attributes":{"ID":178974,"DIS_CODE":0,"TOWNNAME":"官田區","LI":"湖山里","LIN":"16鄰","STREET":" ","SECT":" ","MAREA":"烏山頭","LANE":" ","ALLEY":" ","HOUSE_NO":"１００號之５","E_COORD97":183586.07999999999,"N_COORD97":2567882.3799999999,"ADDRESS":"烏山頭１００號之５","OBJECTID":178973},"geometry":{"x":183586.08000000007,"y":2567882.3800000008}},{"attributes":{"ID":178975,"DIS_CODE":0,"TOWNNAME":"官田區","LI":"湖山里","LIN":"16鄰","STREET":" ","SECT":" ","MAREA":"烏山頭","LANE":" ","ALLEY":" ","HOUSE_NO":"１００號之６","E_COORD97":183556.34,"N_COORD97":2567850.2799999998,"ADDRESS":"烏山頭１００號之６","OBJECTID":178974},"geometry":{"x":183556.34000000078,"y":2567850.2800000012}},{"attributes":{"ID":178976,"DIS_CODE":0,"TOWNNAME":"官田區","LI":"湖山里","LIN":"16鄰","STREET":" ","SECT":" ","MAREA":"烏山頭","LANE":" ","ALLEY":" ","HOUSE_NO":"１００號之７","E_COORD97":183551.59,"N_COORD97":2567821.6200000001,"ADDRESS":"烏山頭１００號之７","OBJECTID":178975},"geometry":{"x":183551.58999999985,"y":2567821.6200000048}},{"attributes":{"ID":178977,"DIS_CODE":0,"TOWNNAME":"官田區","LI":"湖山里","LIN":"16鄰","STREET":" ","SECT":" ","MAREA":"烏山頭","LANE":" ","ALLEY":" ","HOUSE_NO":"１００號之８","E_COORD97":183552.31,"N_COORD97":2567827.2999999998,"ADDRESS":"烏山頭１００號之８","OBJECTID":178976},"geometry":{"x":183552.31000000145,"y":2567827.3000000026}},{"attributes":{"ID":178978,"DIS_CODE":0,"TOWNNAME":"官田區","LI":"湖山里","LIN":"16鄰","STREET":" ","SECT":" ","MAREA":"烏山頭","LANE":" ","ALLEY":" ","HOUSE_NO":"１００號之９","E_COORD97":183553.01000000001,"N_COORD97":2567832.71,"ADDRESS":"烏山頭１００號之９","OBJECTID":178977},"geometry":{"x":183553.01000000071,"y":2567832.7100000009}},{"attributes":{"ID":178979,"DIS_CODE":0,"TOWNNAME":"官田區","LI":"湖山里","LIN":"16鄰","STREET":" ","SECT":" ","MAREA":"烏山頭","LANE":" ","ALLEY":" ","HOUSE_NO":"１００號","E_COORD97":183554.10999999999,"N_COORD97":2567838.9300000002,"ADDRESS":"烏山頭１００號","OBJECTID":178978},"geometry":{"x":183554.11000000034,"y":2567838.9300000016}},{"attributes":{"ID":178980,"DIS_CODE":0,"TOWNNAME":"仁德區","LI":"上崙里","LIN":"24鄰","STREET":"中正路","SECT":"一段","MAREA":" ","LANE":"７６６巷","ALLEY":"２５弄","HOUSE_NO":"７號","E_COORD97":173018.13,"N_COORD97":2537817.0299999998,"ADDRESS":"中正路一段７６６巷２５弄７號","OBJECTID":178979},"geometry":{"x":173018.13000000175,"y":2537817.0300000012}},{"attributes":{"ID":178981,"DIS_CODE":0,"TOWNNAME":"仁德區","LI":"上崙里","LIN":"18鄰","STREET":"德崙路","SECT":" ","MAREA":" ","LANE":"３１６巷","ALLEY":"２９弄","HOUSE_NO":"１４號","E_COORD97":173953.39999999999,"N_COORD97":2538042.52,"ADDRESS":"德崙路３１６巷２９弄１４號","OBJECTID":178980},"geometry":{"x":173953.4000000013,"y":2538042.5199999996}},{"attributes":{"ID":178982,"DIS_CODE":0,"TOWNNAME":"仁德區","LI":"二行里","LIN":"17鄰","STREET":"行大街","SECT":" ","MAREA":" ","LANE":"１７２巷","ALLEY":"６１弄","HOUSE_NO":"９號","E_COORD97":169760.92999999999,"N_COORD97":2535198.2400000002,"ADDRESS":"行大街１７２巷６１弄９號","OBJECTID":178981},"geometry":{"x":169760.9299999997,"y":2535198.2400000021}},{"attributes":{"ID":178983,"DIS_CODE":0,"TOWNNAME":"仁德區","LI":"一甲里","LIN":"13鄰","STREET":"中清路","SECT":" ","MAREA":" ","LANE":"２８１巷","ALLEY":"９弄","HOUSE_NO":"１號","E_COORD97":173708.20999999999,"N_COORD97":2541826.54,"ADDRESS":"中清路２８１巷９弄１號","OBJECTID":178982},"geometry":{"x":173708.21000000089,"y":2541826.540000001}},{"attributes":{"ID":178984,"DIS_CODE":0,"TOWNNAME":"仁德區","LI":"一甲里","LIN":"13鄰","STREET":"中清路","SECT":" ","MAREA":" ","LANE":"２８１巷","ALLEY":"９弄","HOUSE_NO":"１０號","E_COORD97":173669.89999999999,"N_COORD97":2541824.29,"ADDRESS":"中清路２８１巷９弄１０號","OBJECTID":178983},"geometry":{"x":173669.9000000013,"y":2541824.2900000028}},{"attributes":{"ID":178985,"DIS_CODE":0,"TOWNNAME":"仁德區","LI":"一甲里","LIN":"18鄰","STREET":"中清路","SECT":" ","MAREA":" ","LANE":"２４８巷","ALLEY":"７弄","HOUSE_NO":"１５號","E_COORD97":173796.91,"N_COORD97":2541770.9399999999,"ADDRESS":"中清路２４８巷７弄１５號","OBJECTID":178984},"geometry":{"x":173796.91000000108,"y":2541770.9400000013}},{"attributes":{"ID":178986,"DIS_CODE":0,"TOWNNAME":"安南區","LI":"海東里","LIN":"21鄰","STREET":"海東二街","SECT":" ","MAREA":" ","LANE":" ","ALLEY":" ","HOUSE_NO":"４７號","E_COORD97":166893.75123699999,"N_COORD97":2547894.9760799999,"ADDRESS":"海東二街４７號","OBJECTID":178985},"geometry":{"x":166893.75123700034,"y":2547894.9760800041}},{"attributes":{"ID":178987,"DIS_CODE":0,"TOWNNAME":"仁德區","LI":"二行里","LIN":"14鄰","STREET":"行大街","SECT":" ","MAREA":" ","LANE":"１７２巷","ALLEY":"７０弄","HOUSE_NO":"１１號","E_COORD97":169832.60000000001,"N_COORD97":2535255.25,"ADDRESS":"行大街１７２巷７０弄１１號","OBJECTID":178986},"geometry":{"x":169832.59999999963,"y":2535255.2500000037}},{"attributes":{"ID":178988,"DIS_CODE":0,"TOWNNAME":"仁德區","LI":"二行里","LIN":"14鄰","STREET":"中正西路","SECT":" ","MAREA":" ","LANE":"３５３巷","ALLEY":"１８弄","HOUSE_NO":"１號","E_COORD97":169813.94,"N_COORD97":2535314.7400000002,"ADDRESS":"中正西路３５３巷１８弄１號","OBJECTID":178987},"geometry":{"x":169813.94000000041,"y":2535314.7400000002}},{"attributes":{"ID":178989,"DIS_CODE":0,"TOWNNAME":"仁德區","LI":"土庫里","LIN":"17鄰","STREET":"土庫一街","SECT":" ","MAREA":" ","LANE":"２２巷","ALLEY":"１３弄","HOUSE_NO":"１３號","E_COORD97":174551.63,"N_COORD97":2543068.4900000002,"ADDRESS":"土庫一街２２巷１３弄１３號","OBJECTID":178988},"geometry":{"x":174551.62999999989,"y":2543068.4900000039}},{"attributes":{"ID":178990,"DIS_CODE":0,"TOWNNAME":"仁德區","LI":"上崙里","LIN":"8鄰","STREET":"德南路","SECT":" ","MAREA":" ","LANE":"３７３巷","ALLEY":"２１弄","HOUSE_NO":"４１號","E_COORD97":173873.51999999999,"N_COORD97":2538419.2599999998,"ADDRESS":"德南路３７３巷２１弄４１號","OBJECTID":178989},"geometry":{"x":173873.52000000048,"y":2538419.2600000016}},{"attributes":{"ID":178991,"DIS_CODE":0,"TOWNNAME":"仁德區","LI":"一甲里","LIN":"18鄰","STREET":"忠義路","SECT":" ","MAREA":" ","LANE":"２５１巷","ALLEY":"２１弄","HOUSE_NO":"４號","E_COORD97":173855.17000000001,"N_COORD97":2541767.6099999999,"ADDRESS":"忠義路２５１巷２１弄４號","OBJECTID":178990},"geometry":{"x":173855.16999999993,"y":2541767.6099999994}},{"attributes":{"ID":178992,"DIS_CODE":0,"TOWNNAME":"仁德區","LI":"上崙里","LIN":"8鄰","STREET":"德南路","SECT":" ","MAREA":" ","LANE":"３７３巷","ALLEY":"２１弄","HOUSE_NO":"４８號","E_COORD97":173886.09,"N_COORD97":2538434.77,"ADDRESS":"德南路３７３巷２１弄４８號","OBJECTID":178991},"geometry":{"x":173886.08999999985,"y":2538434.7700000033}},{"attributes":{"ID":178993,"DIS_CODE":0,"TOWNNAME":"仁德區","LI":"上崙里","LIN":"8鄰","STREET":"德南路","SECT":" ","MAREA":" ","LANE":"３７３巷","ALLEY":"２１弄","HOUSE_NO":"２６號","E_COORD97":173910.04999999999,"N_COORD97":2538398.7599999998,"ADDRESS":"德南路３７３巷２１弄２６號","OBJECTID":178992},"geometry":{"x":173910.04999999981,"y":2538398.7600000016}},{"attributes":{"ID":178994,"DIS_CODE":0,"TOWNNAME":"仁德區","LI":"一甲里","LIN":"18鄰","STREET":"忠義路","SECT":" ","MAREA":" ","LANE":"２５１巷","ALLEY":"２１弄","HOUSE_NO":"１號","E_COORD97":173850.67000000001,"N_COORD97":2541775.6099999999,"ADDRESS":"忠義路２５１巷２１弄１號","OBJECTID":178993},"geometry":{"x":173850.67000000086,"y":2541775.6100000013}},{"attributes":{"ID":178995,"DIS_CODE":0,"TOWNNAME":"仁德區","LI":"上崙里","LIN":"8鄰","STREET":"德南路","SECT":" ","MAREA":" ","LANE":"３７３巷","ALLEY":"２１弄","HOUSE_NO":"３１號","E_COORD97":173885.85000000001,"N_COORD97":2538402.0099999998,"ADDRESS":"德南路３７３巷２１弄３１號","OBJECTID":178994},"geometry":{"x":173885.84999999963,"y":2538402.0099999998}},{"attributes":{"ID":178996,"DIS_CODE":0,"TOWNNAME":"仁德區","LI":"土庫里","LIN":"17鄰","STREET":"土庫一街","SECT":" ","MAREA":" ","LANE":"２２巷","ALLEY":"１５弄","HOUSE_NO":"１５號","E_COORD97":174557.76000000001,"N_COORD97":2543058.4900000002,"ADDRESS":"土庫一街２２巷１５弄１５號","OBJECTID":178995},"geometry":{"x":174557.75999999978,"y":2543058.4900000039}},{"attributes":{"ID":178997,"DIS_CODE":0,"TOWNNAME":"仁德區","LI":"一甲里","LIN":"18鄰","STREET":"忠義路","SECT":" ","MAREA":" ","LANE":"２５１巷","ALLEY":"２１弄","HOUSE_NO":"８號","E_COORD97":173864.98000000001,"N_COORD97":2541766.6099999999,"ADDRESS":"忠義路２５１巷２１弄８號","OBJECTID":178996},"geometry":{"x":173864.98000000045,"y":2541766.6099999994}},{"attributes":{"ID":178998,"DIS_CODE":0,"TOWNNAME":"仁德區","LI":"一甲里","LIN":"13鄰","STREET":"中清路","SECT":" ","MAREA":" ","LANE":"２８１巷","ALLEY":"９弄","HOUSE_NO":"７號","E_COORD97":173707.37,"N_COORD97":2541806.79,"ADDRESS":"中清路２８１巷９弄７號","OBJECTID":178997},"geometry":{"x":173707.37000000104,"y":2541806.7899999991}},{"attributes":{"ID":178999,"DIS_CODE":0,"TOWNNAME":"仁德區","LI":"上崙里","LIN":"13鄰","STREET":"德崙路","SECT":" ","MAREA":" ","LANE":"４５０巷","ALLEY":"４５弄","HOUSE_NO":"４號","E_COORD97":174203.07999999999,"N_COORD97":2537950.52,"ADDRESS":"德崙路４５０巷４５弄４號","OBJECTID":178998},"geometry":{"x":174203.08000000007,"y":2537950.5199999996}},{"attributes":{"ID":179000,"DIS_CODE":0,"TOWNNAME":"仁德區","LI":"一甲里","LIN":"13鄰","STREET":"中清路","SECT":" ","MAREA":" ","LANE":"２８１巷","ALLEY":"９弄","HOUSE_NO":"９號","E_COORD97":173706.60000000001,"N_COORD97":2541801.29,"ADDRESS":"中清路２８１巷９弄９號","OBJECTID":178999},"geometry":{"x":173706.60000000056,"y":2541801.290000001}},{"attributes":{"ID":179001,"DIS_CODE":0,"TOWNNAME":"仁德區","LI":"一甲里","LIN":"18鄰","STREET":"忠義路","SECT":" ","MAREA":" ","LANE":"２５１巷","ALLEY":"２１弄","HOUSE_NO":"３號","E_COORD97":173855.91,"N_COORD97":2541775.3599999999,"ADDRESS":"忠義路２５１巷２１弄３號","OBJECTID":179000},"geometry":{"x":173855.91000000108,"y":2541775.3599999994}}]}