{"displayFieldName":"TOWNNAME","fieldAliases":{"ID":"ID","DIS_CODE":"DIS_CODE","TOWNNAME":"TOWNNAME","LI":"LI","LIN":"LIN","STREET":"STREET","SECT":"SECT","MAREA":"MAREA","LANE":"LANE","ALLEY":"ALLEY","HOUSE_NO":"HOUSE_NO","E_COORD97":"E_COORD97","N_COORD97":"N_COORD97","ADDRESS":"ADDRESS","OBJECTID":"OBJECTID"},"geometryType":"esriGeometryPoint","spatialReference":{"wkid":102443,"latestWkid":3826},"fields":[{"name":"ID","type":"esriFieldTypeDouble","alias":"ID"},{"name":"DIS_CODE","type":"esriFieldTypeInteger","alias":"DIS_CODE"},{"name":"TOWNNAME","type":"esriFieldTypeString","alias":"TOWNNAME","length":8},{"name":"LI","type":"esriFieldTypeString","alias":"LI","length":8},{"name":"LIN","type":"esriFieldTypeString","alias":"LIN","length":12},{"name":"STREET","type":"esriFieldTypeString","alias":"STREET","length":20},{"name":"SECT","type":"esriFieldTypeString","alias":"SECT","length":8},{"name":"MAREA","type":"esriFieldTypeString","alias":"MAREA","length":12},{"name":"LANE","type":"esriFieldTypeString","alias":"LANE","length":10},{"name":"ALLEY","type":"esriFieldTypeString","alias":"ALLEY","length":10},{"name":"HOUSE_NO","type":"esriFieldTypeString","alias":"HOUSE_NO","length":20},{"name":"E_COORD97","type":"esriFieldTypeDouble","alias":"E_COORD97"},{"name":"N_COORD97","type":"esriFieldTypeDouble","alias":"N_COORD97"},{"name":"ADDRESS","type":"esriFieldTypeString","alias":"ADDRESS","length":50},{"name":"OBJECTID","type":"esriFieldTypeOID","alias":"OBJECTID"}],"features":[{"attributes":{"ID":407825,"DIS_CODE":0,"TOWNNAME":"北區","LI":"大和里","LIN":"22鄰","STREET":"大港街","SECT":" ","MAREA":" ","LANE":"１２４巷","ALLEY":" ","HOUSE_NO":"１８號","E_COORD97":166998.31,"N_COORD97":2546079.52,"ADDRESS":"大港街１２４巷１８號","OBJECTID":407801},"geometry":{"x":166998.30999999959,"y":2546079.5200000014}},{"attributes":{"ID":407826,"DIS_CODE":0,"TOWNNAME":"北區","LI":"大和里","LIN":"22鄰","STREET":"大港街","SECT":" ","MAREA":" ","LANE":"１２４巷","ALLEY":" ","HOUSE_NO":"１９號","E_COORD97":166976.73000000001,"N_COORD97":2546075.6200000001,"ADDRESS":"大港街１２４巷１９號","OBJECTID":407802},"geometry":{"x":166976.73000000138,"y":2546075.6200000048}},{"attributes":{"ID":407827,"DIS_CODE":0,"TOWNNAME":"北區","LI":"大和里","LIN":"22鄰","STREET":"大港街","SECT":" ","MAREA":" ","LANE":"１２４巷","ALLEY":" ","HOUSE_NO":"１號","E_COORD97":166991.25,"N_COORD97":2546038.25,"ADDRESS":"大港街１２４巷１號","OBJECTID":407803},"geometry":{"x":166991.25000000093,"y":2546038.25}},{"attributes":{"ID":407828,"DIS_CODE":0,"TOWNNAME":"北區","LI":"大和里","LIN":"22鄰","STREET":"大港街","SECT":" ","MAREA":" ","LANE":"１２４巷","ALLEY":" ","HOUSE_NO":"２０號","E_COORD97":166996.48999999999,"N_COORD97":2546083.75,"ADDRESS":"大港街１２４巷２０號","OBJECTID":407804},"geometry":{"x":166996.49000000209,"y":2546083.7499999981}},{"attributes":{"ID":407829,"DIS_CODE":0,"TOWNNAME":"北區","LI":"大和里","LIN":"22鄰","STREET":"大港街","SECT":" ","MAREA":" ","LANE":"１２４巷","ALLEY":" ","HOUSE_NO":"２１號","E_COORD97":166974.38,"N_COORD97":2546079.8700000001,"ADDRESS":"大港街１２４巷２１號","OBJECTID":407805},"geometry":{"x":166974.37999999989,"y":2546079.870000001}},{"attributes":{"ID":407830,"DIS_CODE":0,"TOWNNAME":"北區","LI":"大和里","LIN":"22鄰","STREET":"大港街","SECT":" ","MAREA":" ","LANE":"１２４巷","ALLEY":" ","HOUSE_NO":"２２號","E_COORD97":166994.39999999999,"N_COORD97":2546087.9199999999,"ADDRESS":"大港街１２４巷２２號","OBJECTID":407806},"geometry":{"x":166994.4000000013,"y":2546087.9199999999}},{"attributes":{"ID":407831,"DIS_CODE":0,"TOWNNAME":"北區","LI":"大和里","LIN":"22鄰","STREET":"大港街","SECT":" ","MAREA":" ","LANE":"１２４巷","ALLEY":" ","HOUSE_NO":"２３號","E_COORD97":166972.10999999999,"N_COORD97":2546083.96,"ADDRESS":"大港街１２４巷２３號","OBJECTID":407807},"geometry":{"x":166972.1100000022,"y":2546083.9600000028}},{"attributes":{"ID":407832,"DIS_CODE":0,"TOWNNAME":"北區","LI":"大和里","LIN":"22鄰","STREET":"大港街","SECT":" ","MAREA":" ","LANE":"１２４巷","ALLEY":" ","HOUSE_NO":"２４號","E_COORD97":166992.76999999999,"N_COORD97":2546091.9500000002,"ADDRESS":"大港街１２４巷２４號","OBJECTID":407808},"geometry":{"x":166992.77000000048,"y":2546091.950000003}},{"attributes":{"ID":407833,"DIS_CODE":0,"TOWNNAME":"北區","LI":"大和里","LIN":"22鄰","STREET":"大港街","SECT":" ","MAREA":" ","LANE":"１２４巷","ALLEY":" ","HOUSE_NO":"２５號","E_COORD97":166971.13,"N_COORD97":2546088.0600000001,"ADDRESS":"大港街１２４巷２５號","OBJECTID":407809},"geometry":{"x":166971.12999999989,"y":2546088.0600000005}},{"attributes":{"ID":407834,"DIS_CODE":0,"TOWNNAME":"北區","LI":"大和里","LIN":"22鄰","STREET":"大港街","SECT":" ","MAREA":" ","LANE":"１２４巷","ALLEY":" ","HOUSE_NO":"２６號","E_COORD97":166990.69,"N_COORD97":2546095.5299999998,"ADDRESS":"大港街１２４巷２６號","OBJECTID":407810},"geometry":{"x":166990.69000000134,"y":2546095.5300000012}},{"attributes":{"ID":407835,"DIS_CODE":0,"TOWNNAME":"北區","LI":"大和里","LIN":"22鄰","STREET":"大港街","SECT":" ","MAREA":" ","LANE":"１２４巷","ALLEY":" ","HOUSE_NO":"２７號","E_COORD97":166968.79000000001,"N_COORD97":2546092.1899999999,"ADDRESS":"大港街１２４巷２７號","OBJECTID":407811},"geometry":{"x":166968.7900000019,"y":2546092.1900000013}},{"attributes":{"ID":407836,"DIS_CODE":0,"TOWNNAME":"北區","LI":"大和里","LIN":"22鄰","STREET":"大港街","SECT":" ","MAREA":" ","LANE":"１２４巷","ALLEY":" ","HOUSE_NO":"２８號","E_COORD97":166988.85000000001,"N_COORD97":2546100.1600000001,"ADDRESS":"大港街１２４巷２８號","OBJECTID":407812},"geometry":{"x":166988.85000000056,"y":2546100.1600000001}},{"attributes":{"ID":407837,"DIS_CODE":0,"TOWNNAME":"北區","LI":"大和里","LIN":"22鄰","STREET":"大港街","SECT":" ","MAREA":" ","LANE":"１２４巷","ALLEY":" ","HOUSE_NO":"２９號","E_COORD97":166967.16,"N_COORD97":2546096.1499999999,"ADDRESS":"大港街１２４巷２９號","OBJECTID":407813},"geometry":{"x":166967.16000000108,"y":2546096.1500000022}},{"attributes":{"ID":407838,"DIS_CODE":0,"TOWNNAME":"北區","LI":"大和里","LIN":"22鄰","STREET":"大港街","SECT":" ","MAREA":" ","LANE":"１２４巷","ALLEY":" ","HOUSE_NO":"２號","E_COORD97":167013.07999999999,"N_COORD97":2546047.1800000002,"ADDRESS":"大港街１２４巷２號","OBJECTID":407814},"geometry":{"x":167013.08000000101,"y":2546047.1800000016}},{"attributes":{"ID":407839,"DIS_CODE":0,"TOWNNAME":"北區","LI":"大和里","LIN":"22鄰","STREET":"大港街","SECT":" ","MAREA":" ","LANE":"１２４巷","ALLEY":" ","HOUSE_NO":"３０號","E_COORD97":166987.01999999999,"N_COORD97":2546104.2599999998,"ADDRESS":"大港街１２４巷３０號","OBJECTID":407815},"geometry":{"x":166987.02000000142,"y":2546104.2600000016}},{"attributes":{"ID":407840,"DIS_CODE":0,"TOWNNAME":"北區","LI":"大和里","LIN":"22鄰","STREET":"大港街","SECT":" ","MAREA":" ","LANE":"１２４巷","ALLEY":" ","HOUSE_NO":"３１號","E_COORD97":166965.79000000001,"N_COORD97":2546100.0499999998,"ADDRESS":"大港街１２４巷３１號","OBJECTID":407816},"geometry":{"x":166965.79000000097,"y":2546100.0500000026}},{"attributes":{"ID":407841,"DIS_CODE":0,"TOWNNAME":"北區","LI":"大和里","LIN":"22鄰","STREET":"大港街","SECT":" ","MAREA":" ","LANE":"１２４巷","ALLEY":" ","HOUSE_NO":"３２號","E_COORD97":166985.26999999999,"N_COORD97":2546108.1000000001,"ADDRESS":"大港街１２４巷３２號","OBJECTID":407817},"geometry":{"x":166985.26999999862,"y":2546108.0999999978}},{"attributes":{"ID":407842,"DIS_CODE":0,"TOWNNAME":"北區","LI":"大和里","LIN":"22鄰","STREET":"大港街","SECT":" ","MAREA":" ","LANE":"１２４巷","ALLEY":" ","HOUSE_NO":"３４號","E_COORD97":166983.64000000001,"N_COORD97":2546112.2000000002,"ADDRESS":"大港街１２４巷３４號","OBJECTID":407818},"geometry":{"x":166983.6400000006,"y":2546112.2000000011}},{"attributes":{"ID":407843,"DIS_CODE":0,"TOWNNAME":"北區","LI":"大和里","LIN":"22鄰","STREET":"大港街","SECT":" ","MAREA":" ","LANE":"１２４巷","ALLEY":" ","HOUSE_NO":"３６號","E_COORD97":166982.01000000001,"N_COORD97":2546116.8900000001,"ADDRESS":"大港街１２４巷３６號","OBJECTID":407819},"geometry":{"x":166982.00999999978,"y":2546116.8900000006}},{"attributes":{"ID":407844,"DIS_CODE":0,"TOWNNAME":"北區","LI":"大和里","LIN":"22鄰","STREET":"大港街","SECT":" ","MAREA":" ","LANE":"１２４巷","ALLEY":" ","HOUSE_NO":"３８號","E_COORD97":166980.25,"N_COORD97":2546120.54,"ADDRESS":"大港街１２４巷３８號","OBJECTID":407820},"geometry":{"x":166980.25,"y":2546120.5399999991}},{"attributes":{"ID":407845,"DIS_CODE":0,"TOWNNAME":"北區","LI":"大和里","LIN":"22鄰","STREET":"大港街","SECT":" ","MAREA":" ","LANE":"１２４巷","ALLEY":" ","HOUSE_NO":"３號","E_COORD97":166989.95000000001,"N_COORD97":2546042.6699999999,"ADDRESS":"大港街１２４巷３號","OBJECTID":407821},"geometry":{"x":166989.95000000205,"y":2546042.6699999999}},{"attributes":{"ID":407846,"DIS_CODE":0,"TOWNNAME":"北區","LI":"大和里","LIN":"22鄰","STREET":"大港街","SECT":" ","MAREA":" ","LANE":"１２４巷","ALLEY":" ","HOUSE_NO":"４０號","E_COORD97":166978.35999999999,"N_COORD97":2546124.5899999999,"ADDRESS":"大港街１２４巷４０號","OBJECTID":407822},"geometry":{"x":166978.36000000034,"y":2546124.5899999999}},{"attributes":{"ID":407847,"DIS_CODE":0,"TOWNNAME":"北區","LI":"大和里","LIN":"22鄰","STREET":"大港街","SECT":" ","MAREA":" ","LANE":"１２４巷","ALLEY":" ","HOUSE_NO":"４２號","E_COORD97":166976.41,"N_COORD97":2546129.1499999999,"ADDRESS":"大港街１２４巷４２號","OBJECTID":407823},"geometry":{"x":166976.41000000015,"y":2546129.1500000041}},{"attributes":{"ID":407848,"DIS_CODE":0,"TOWNNAME":"北區","LI":"大和里","LIN":"22鄰","STREET":"大港街","SECT":" ","MAREA":" ","LANE":"１２４巷","ALLEY":" ","HOUSE_NO":"４６號","E_COORD97":166974.64999999999,"N_COORD97":2546133.3900000001,"ADDRESS":"大港街１２４巷４６號","OBJECTID":407824},"geometry":{"x":166974.65000000037,"y":2546133.3900000006}},{"attributes":{"ID":407849,"DIS_CODE":0,"TOWNNAME":"北區","LI":"大和里","LIN":"22鄰","STREET":"大港街","SECT":" ","MAREA":" ","LANE":"１２４巷","ALLEY":" ","HOUSE_NO":"４號","E_COORD97":167010.87,"N_COORD97":2546050.4900000002,"ADDRESS":"大港街１２４巷４號","OBJECTID":407825},"geometry":{"x":167010.87000000104,"y":2546050.4900000002}},{"attributes":{"ID":407850,"DIS_CODE":0,"TOWNNAME":"北區","LI":"大和里","LIN":"22鄰","STREET":"大港街","SECT":" ","MAREA":" ","LANE":"１２４巷","ALLEY":" ","HOUSE_NO":"５號","E_COORD97":166988.13,"N_COORD97":2546046.8300000001,"ADDRESS":"大港街１２４巷５號","OBJECTID":407826},"geometry":{"x":166988.12999999989,"y":2546046.8300000019}},{"attributes":{"ID":407851,"DIS_CODE":0,"TOWNNAME":"北區","LI":"大和里","LIN":"22鄰","STREET":"大港街","SECT":" ","MAREA":" ","LANE":"１２４巷","ALLEY":" ","HOUSE_NO":"６號","E_COORD97":167008.85000000001,"N_COORD97":2546055.04,"ADDRESS":"大港街１２４巷６號","OBJECTID":407827},"geometry":{"x":167008.85000000056,"y":2546055.040000001}},{"attributes":{"ID":407852,"DIS_CODE":0,"TOWNNAME":"北區","LI":"大和里","LIN":"22鄰","STREET":"大港街","SECT":" ","MAREA":" ","LANE":"１２４巷","ALLEY":" ","HOUSE_NO":"７號","E_COORD97":166987.01999999999,"N_COORD97":2546050.6899999999,"ADDRESS":"大港街１２４巷７號","OBJECTID":407828},"geometry":{"x":166987.02000000142,"y":2546050.6900000013}},{"attributes":{"ID":407853,"DIS_CODE":0,"TOWNNAME":"北區","LI":"大和里","LIN":"22鄰","STREET":"大港街","SECT":" ","MAREA":" ","LANE":"１２４巷","ALLEY":" ","HOUSE_NO":"８號","E_COORD97":167007.23000000001,"N_COORD97":2546058.9399999999,"ADDRESS":"大港街１２４巷８號","OBJECTID":407829},"geometry":{"x":167007.23000000138,"y":2546058.9400000013}},{"attributes":{"ID":407854,"DIS_CODE":0,"TOWNNAME":"北區","LI":"大和里","LIN":"22鄰","STREET":"大港街","SECT":" ","MAREA":" ","LANE":"１２４巷","ALLEY":" ","HOUSE_NO":"９號","E_COORD97":166985.72,"N_COORD97":2546055.3700000001,"ADDRESS":"大港街１２４巷９號","OBJECTID":407830},"geometry":{"x":166985.71999999974,"y":2546055.3700000029}},{"attributes":{"ID":407855,"DIS_CODE":0,"TOWNNAME":"關廟區","LI":"東勢里","LIN":"22鄰","STREET":"東昌街","SECT":" ","MAREA":" ","LANE":"１２３巷","ALLEY":" ","HOUSE_NO":"１７號","E_COORD97":181830.51999999999,"N_COORD97":2539160.25,"ADDRESS":"東昌街１２３巷１７號","OBJECTID":407831},"geometry":{"x":181830.52000000048,"y":2539160.25}},{"attributes":{"ID":407856,"DIS_CODE":0,"TOWNNAME":"關廟區","LI":"東勢里","LIN":"22鄰","STREET":"東昌街","SECT":" ","MAREA":" ","LANE":"１２３巷","ALLEY":" ","HOUSE_NO":"５號","E_COORD97":181850.37,"N_COORD97":2539170.25,"ADDRESS":"東昌街１２３巷５號","OBJECTID":407832},"geometry":{"x":181850.37000000197,"y":2539170.25}},{"attributes":{"ID":407857,"DIS_CODE":0,"TOWNNAME":"關廟區","LI":"東勢里","LIN":"22鄰","STREET":"東昌街","SECT":" ","MAREA":" ","LANE":"１２３巷","ALLEY":" ","HOUSE_NO":"１６號","E_COORD97":181817.51999999999,"N_COORD97":2539167.25,"ADDRESS":"東昌街１２３巷１６號","OBJECTID":407833},"geometry":{"x":181817.51999999955,"y":2539167.25}},{"attributes":{"ID":407858,"DIS_CODE":0,"TOWNNAME":"關廟區","LI":"東勢里","LIN":"22鄰","STREET":"東昌街","SECT":" ","MAREA":" ","LANE":"１２３巷","ALLEY":" ","HOUSE_NO":"４１號","E_COORD97":181776.01999999999,"N_COORD97":2539175.25,"ADDRESS":"東昌街１２３巷４１號","OBJECTID":407834},"geometry":{"x":181776.02000000142,"y":2539175.2500000019}},{"attributes":{"ID":407859,"DIS_CODE":0,"TOWNNAME":"關廟區","LI":"東勢里","LIN":"22鄰","STREET":"東昌街","SECT":" ","MAREA":" ","LANE":"１２３巷","ALLEY":" ","HOUSE_NO":"８號","E_COORD97":181827.37,"N_COORD97":2539173.25,"ADDRESS":"東昌街１２３巷８號","OBJECTID":407835},"geometry":{"x":181827.37000000104,"y":2539173.25}},{"attributes":{"ID":407860,"DIS_CODE":0,"TOWNNAME":"關廟區","LI":"東勢里","LIN":"22鄰","STREET":"東昌街","SECT":" ","MAREA":" ","LANE":"１２３巷","ALLEY":" ","HOUSE_NO":"３５號","E_COORD97":181786.42000000001,"N_COORD97":2539156.25,"ADDRESS":"東昌街１２３巷３５號","OBJECTID":407836},"geometry":{"x":181786.41999999993,"y":2539156.25}},{"attributes":{"ID":407861,"DIS_CODE":0,"TOWNNAME":"關廟區","LI":"東勢里","LIN":"22鄰","STREET":"東昌街","SECT":" ","MAREA":" ","LANE":"１２３巷","ALLEY":" ","HOUSE_NO":"３號","E_COORD97":181854.26999999999,"N_COORD97":2539172.25,"ADDRESS":"東昌街１２３巷３號","OBJECTID":407837},"geometry":{"x":181854.27000000048,"y":2539172.2500000019}},{"attributes":{"ID":407862,"DIS_CODE":0,"TOWNNAME":"關廟區","LI":"東勢里","LIN":"22鄰","STREET":"東昌街","SECT":" ","MAREA":" ","LANE":"１２３巷","ALLEY":" ","HOUSE_NO":"１３號","E_COORD97":181837.42000000001,"N_COORD97":2539163.25,"ADDRESS":"東昌街１２３巷１３號","OBJECTID":407838},"geometry":{"x":181837.41999999993,"y":2539163.25}},{"attributes":{"ID":407863,"DIS_CODE":0,"TOWNNAME":"關廟區","LI":"東勢里","LIN":"22鄰","STREET":"東昌街","SECT":" ","MAREA":" ","LANE":"１２３巷","ALLEY":" ","HOUSE_NO":"２８號","E_COORD97":181799.82000000001,"N_COORD97":2539158.25,"ADDRESS":"東昌街１２３巷２８號","OBJECTID":407839},"geometry":{"x":181799.8200000003,"y":2539158.2500000019}},{"attributes":{"ID":407864,"DIS_CODE":0,"TOWNNAME":"關廟區","LI":"東勢里","LIN":"22鄰","STREET":"東昌街","SECT":" ","MAREA":" ","LANE":"１２３巷","ALLEY":" ","HOUSE_NO":"１２號","E_COORD97":181821.32000000001,"N_COORD97":2539169.25,"ADDRESS":"東昌街１２３巷１２號","OBJECTID":407840},"geometry":{"x":181821.3200000003,"y":2539169.25}},{"attributes":{"ID":407865,"DIS_CODE":0,"TOWNNAME":"關廟區","LI":"東勢里","LIN":"22鄰","STREET":"東昌街","SECT":" ","MAREA":" ","LANE":"１２３巷","ALLEY":" ","HOUSE_NO":"１５號","E_COORD97":181834.01999999999,"N_COORD97":2539161.25,"ADDRESS":"東昌街１２３巷１５號","OBJECTID":407841},"geometry":{"x":181834.02000000048,"y":2539161.2500000019}},{"attributes":{"ID":407866,"DIS_CODE":0,"TOWNNAME":"關廟區","LI":"東勢里","LIN":"22鄰","STREET":"東昌街","SECT":" ","MAREA":" ","LANE":"１２３巷","ALLEY":" ","HOUSE_NO":"３２號","E_COORD97":181786.82000000001,"N_COORD97":2539174.25,"ADDRESS":"東昌街１２３巷３２號","OBJECTID":407842},"geometry":{"x":181786.82000000123,"y":2539174.2500000037}},{"attributes":{"ID":407867,"DIS_CODE":0,"TOWNNAME":"關廟區","LI":"東勢里","LIN":"22鄰","STREET":"東昌街","SECT":" ","MAREA":" ","LANE":"１２３巷","ALLEY":" ","HOUSE_NO":"２９號","E_COORD97":181807.51999999999,"N_COORD97":2539150.25,"ADDRESS":"東昌街１２３巷２９號","OBJECTID":407843},"geometry":{"x":181807.51999999955,"y":2539150.25}},{"attributes":{"ID":407868,"DIS_CODE":0,"TOWNNAME":"關廟區","LI":"東勢里","LIN":"22鄰","STREET":"東昌街","SECT":" ","MAREA":" ","LANE":"１２３巷","ALLEY":" ","HOUSE_NO":"２７號","E_COORD97":181811.32000000001,"N_COORD97":2539152.25,"ADDRESS":"東昌街１２３巷２７號","OBJECTID":407844},"geometry":{"x":181811.3200000003,"y":2539152.2500000019}},{"attributes":{"ID":407869,"DIS_CODE":0,"TOWNNAME":"中西區","LI":"公正里","LIN":"12鄰","STREET":"衛民街","SECT":" ","MAREA":" ","LANE":"１０４巷","ALLEY":" ","HOUSE_NO":"１０號","E_COORD97":168950.84,"N_COORD97":2543753.2400000002,"ADDRESS":"衛民街１０４巷１０號","OBJECTID":407845},"geometry":{"x":168950.83999999985,"y":2543753.2400000021}},{"attributes":{"ID":407870,"DIS_CODE":0,"TOWNNAME":"中西區","LI":"公正里","LIN":"12鄰","STREET":"衛民街","SECT":" ","MAREA":" ","LANE":"１０４巷","ALLEY":" ","HOUSE_NO":"１１號","E_COORD97":168943.45000000001,"N_COORD97":2543758.21,"ADDRESS":"衛民街１０４巷１１號","OBJECTID":407846},"geometry":{"x":168943.45000000112,"y":2543758.2100000009}},{"attributes":{"ID":407871,"DIS_CODE":0,"TOWNNAME":"關廟區","LI":"東勢里","LIN":"22鄰","STREET":"東昌街","SECT":" ","MAREA":" ","LANE":"１２３巷","ALLEY":" ","HOUSE_NO":"３０號","E_COORD97":181796.01999999999,"N_COORD97":2539156.25,"ADDRESS":"東昌街１２３巷３０號","OBJECTID":407847},"geometry":{"x":181796.01999999955,"y":2539156.25}},{"attributes":{"ID":407872,"DIS_CODE":0,"TOWNNAME":"關廟區","LI":"東勢里","LIN":"22鄰","STREET":"東昌街","SECT":" ","MAREA":" ","LANE":"１２３巷","ALLEY":" ","HOUSE_NO":"６號","E_COORD97":181831.17000000001,"N_COORD97":2539174.25,"ADDRESS":"東昌街１２３巷６號","OBJECTID":407848},"geometry":{"x":181831.17000000179,"y":2539174.2500000037}},{"attributes":{"ID":407873,"DIS_CODE":0,"TOWNNAME":"關廟區","LI":"香洋里","LIN":"22鄰","STREET":"民族街","SECT":" ","MAREA":" ","LANE":"９３巷","ALLEY":" ","HOUSE_NO":"２號","E_COORD97":181367.73999999999,"N_COORD97":2539809.29,"ADDRESS":"民族街９３巷２號","OBJECTID":407849},"geometry":{"x":181367.74000000022,"y":2539809.2899999991}},{"attributes":{"ID":407874,"DIS_CODE":0,"TOWNNAME":"關廟區","LI":"東勢里","LIN":"22鄰","STREET":"東昌街","SECT":" ","MAREA":" ","LANE":"１２３巷","ALLEY":" ","HOUSE_NO":"２２號","E_COORD97":181806.72,"N_COORD97":2539162.25,"ADDRESS":"東昌街１２３巷２２號","OBJECTID":407850},"geometry":{"x":181806.71999999974,"y":2539162.2500000019}},{"attributes":{"ID":407875,"DIS_CODE":0,"TOWNNAME":"新營區","LI":"南興里","LIN":"22鄰","STREET":"延平路","SECT":" ","MAREA":" ","LANE":"１４０巷","ALLEY":" ","HOUSE_NO":"５６之７號","E_COORD97":179600.10999999999,"N_COORD97":2577441.75,"ADDRESS":"延平路１４０巷５６之７號","OBJECTID":407851},"geometry":{"x":179600.11000000127,"y":2577441.7500000037}},{"attributes":{"ID":407876,"DIS_CODE":0,"TOWNNAME":"新營區","LI":"新南里","LIN":"22鄰","STREET":"復興路","SECT":" ","MAREA":" ","LANE":"６１８巷","ALLEY":" ","HOUSE_NO":"７號","E_COORD97":178070.79999999999,"N_COORD97":2578418.0499999998,"ADDRESS":"復興路６１８巷７號","OBJECTID":407852},"geometry":{"x":178070.80000000075,"y":2578418.0500000026}},{"attributes":{"ID":407877,"DIS_CODE":0,"TOWNNAME":"中西區","LI":"公正里","LIN":"11鄰","STREET":"衛民街","SECT":" ","MAREA":" ","LANE":"７０巷","ALLEY":" ","HOUSE_NO":"１號","E_COORD97":169005.69,"N_COORD97":2543744.2400000002,"ADDRESS":"衛民街７０巷１號","OBJECTID":407853},"geometry":{"x":169005.68999999948,"y":2543744.2400000002}},{"attributes":{"ID":407878,"DIS_CODE":0,"TOWNNAME":"中西區","LI":"公正里","LIN":"11鄰","STREET":"衛民街","SECT":" ","MAREA":" ","LANE":"７０巷","ALLEY":" ","HOUSE_NO":"２０號","E_COORD97":169010.53,"N_COORD97":2543753.1200000001,"ADDRESS":"衛民街７０巷２０號","OBJECTID":407854},"geometry":{"x":169010.53000000119,"y":2543753.1199999992}},{"attributes":{"ID":407879,"DIS_CODE":0,"TOWNNAME":"中西區","LI":"公正里","LIN":"11鄰","STREET":"衛民街","SECT":" ","MAREA":" ","LANE":"７０巷","ALLEY":" ","HOUSE_NO":"２２號","E_COORD97":169007.87,"N_COORD97":2543770.1000000001,"ADDRESS":"衛民街７０巷２２號","OBJECTID":407855},"geometry":{"x":169007.87000000104,"y":2543770.1000000015}},{"attributes":{"ID":407880,"DIS_CODE":0,"TOWNNAME":"中西區","LI":"公正里","LIN":"11鄰","STREET":"衛民街","SECT":" ","MAREA":" ","LANE":"７０巷","ALLEY":" ","HOUSE_NO":"２８號","E_COORD97":169005.35999999999,"N_COORD97":2543759.3700000001,"ADDRESS":"衛民街７０巷２８號","OBJECTID":407856},"geometry":{"x":169005.36000000127,"y":2543759.3700000029}},{"attributes":{"ID":407881,"DIS_CODE":0,"TOWNNAME":"中西區","LI":"公正里","LIN":"11鄰","STREET":"衛民街","SECT":" ","MAREA":" ","LANE":"７０巷","ALLEY":" ","HOUSE_NO":"３０號","E_COORD97":169002.29000000001,"N_COORD97":2543761.5499999998,"ADDRESS":"衛民街７０巷３０號","OBJECTID":407857},"geometry":{"x":169002.29000000004,"y":2543761.5500000026}},{"attributes":{"ID":407882,"DIS_CODE":0,"TOWNNAME":"中西區","LI":"公正里","LIN":"11鄰","STREET":"衛民街","SECT":" ","MAREA":" ","LANE":"７０巷","ALLEY":" ","HOUSE_NO":"３２號","E_COORD97":168997.92999999999,"N_COORD97":2543762.2799999998,"ADDRESS":"衛民街７０巷３２號","OBJECTID":407858},"geometry":{"x":168997.9299999997,"y":2543762.2799999993}},{"attributes":{"ID":407883,"DIS_CODE":0,"TOWNNAME":"中西區","LI":"公正里","LIN":"11鄰","STREET":"衛民街","SECT":" ","MAREA":" ","LANE":"７０巷","ALLEY":" ","HOUSE_NO":"３６號","E_COORD97":168991.87,"N_COORD97":2543762.2799999998,"ADDRESS":"衛民街７０巷３６號","OBJECTID":407859},"geometry":{"x":168991.87000000011,"y":2543762.2799999993}},{"attributes":{"ID":407884,"DIS_CODE":0,"TOWNNAME":"中西區","LI":"公正里","LIN":"11鄰","STREET":"衛民街","SECT":" ","MAREA":" ","LANE":"７０巷","ALLEY":" ","HOUSE_NO":"３８號","E_COORD97":168988.95999999999,"N_COORD97":2543762.5099999998,"ADDRESS":"衛民街７０巷３８號","OBJECTID":407860},"geometry":{"x":168988.96000000089,"y":2543762.5099999998}},{"attributes":{"ID":407885,"DIS_CODE":0,"TOWNNAME":"中西區","LI":"公正里","LIN":"11鄰","STREET":"衛民街","SECT":" ","MAREA":" ","LANE":"７０巷","ALLEY":" ","HOUSE_NO":"３號","E_COORD97":169002.13,"N_COORD97":2543752.71,"ADDRESS":"衛民街７０巷３號","OBJECTID":407861},"geometry":{"x":169002.12999999896,"y":2543752.7100000046}},{"attributes":{"ID":407886,"DIS_CODE":0,"TOWNNAME":"新營區","LI":"新南里","LIN":"22鄰","STREET":"復興路","SECT":" ","MAREA":" ","LANE":"６２０巷","ALLEY":" ","HOUSE_NO":"２２號","E_COORD97":178043.42999999999,"N_COORD97":2578412.6600000001,"ADDRESS":"復興路６２０巷２２號","OBJECTID":407862},"geometry":{"x":178043.4299999997,"y":2578412.660000002}},{"attributes":{"ID":407887,"DIS_CODE":0,"TOWNNAME":"新營區","LI":"新南里","LIN":"22鄰","STREET":"復興路","SECT":" ","MAREA":" ","LANE":"６１８巷","ALLEY":" ","HOUSE_NO":"９號","E_COORD97":178070.76999999999,"N_COORD97":2578422.48,"ADDRESS":"復興路６１８巷９號","OBJECTID":407863},"geometry":{"x":178070.77000000048,"y":2578422.4800000004}},{"attributes":{"ID":407888,"DIS_CODE":0,"TOWNNAME":"新營區","LI":"新南里","LIN":"22鄰","STREET":"復興路","SECT":" ","MAREA":" ","LANE":"６２０巷","ALLEY":" ","HOUSE_NO":"２０號","E_COORD97":178043.41,"N_COORD97":2578409.3199999998,"ADDRESS":"復興路６２０巷２０號","OBJECTID":407864},"geometry":{"x":178043.41000000108,"y":2578409.3200000003}},{"attributes":{"ID":407889,"DIS_CODE":0,"TOWNNAME":"佳里區","LI":"安西里","LIN":"13鄰","STREET":"長安街","SECT":" ","MAREA":" ","LANE":" ","ALLEY":" ","HOUSE_NO":"８５號","E_COORD97":165413.57000000001,"N_COORD97":2562452.7599999998,"ADDRESS":"長安街８５號","OBJECTID":407865},"geometry":{"x":165413.5700000003,"y":2562452.7600000016}},{"attributes":{"ID":407890,"DIS_CODE":0,"TOWNNAME":"新營區","LI":"南興里","LIN":"22鄰","STREET":"延平路","SECT":" ","MAREA":" ","LANE":"１４０巷","ALLEY":" ","HOUSE_NO":"３５之８號","E_COORD97":179579.48999999999,"N_COORD97":2577393.1200000001,"ADDRESS":"延平路１４０巷３５之８號","OBJECTID":407866},"geometry":{"x":179579.49000000022,"y":2577393.1200000029}},{"attributes":{"ID":407891,"DIS_CODE":0,"TOWNNAME":"新營區","LI":"新南里","LIN":"22鄰","STREET":"復興路","SECT":" ","MAREA":" ","LANE":"６１８巷","ALLEY":" ","HOUSE_NO":"１８號","E_COORD97":178086.42999999999,"N_COORD97":2578435.7000000002,"ADDRESS":"復興路６１８巷１８號","OBJECTID":407867},"geometry":{"x":178086.43000000063,"y":2578435.7000000011}},{"attributes":{"ID":407892,"DIS_CODE":0,"TOWNNAME":"新營區","LI":"新南里","LIN":"22鄰","STREET":"復興路","SECT":" ","MAREA":" ","LANE":"６２０巷","ALLEY":" ","HOUSE_NO":"３０號","E_COORD97":178046.60000000001,"N_COORD97":2578429.25,"ADDRESS":"復興路６２０巷３０號","OBJECTID":407868},"geometry":{"x":178046.60000000056,"y":2578429.2500000019}},{"attributes":{"ID":407893,"DIS_CODE":0,"TOWNNAME":"新營區","LI":"南興里","LIN":"22鄰","STREET":"延平路","SECT":" ","MAREA":" ","LANE":"１４０巷","ALLEY":" ","HOUSE_NO":"３０之１６號","E_COORD97":179609.75,"N_COORD97":2577468.2799999998,"ADDRESS":"延平路１４０巷３０之１６號","OBJECTID":407869},"geometry":{"x":179609.75,"y":2577468.2800000012}},{"attributes":{"ID":407894,"DIS_CODE":0,"TOWNNAME":"新營區","LI":"新南里","LIN":"22鄰","STREET":"復興路","SECT":" ","MAREA":" ","LANE":"６１８巷","ALLEY":" ","HOUSE_NO":"１１號","E_COORD97":178072.06,"N_COORD97":2578426.9100000001,"ADDRESS":"復興路６１８巷１１號","OBJECTID":407870},"geometry":{"x":178072.06000000052,"y":2578426.9100000001}},{"attributes":{"ID":407895,"DIS_CODE":0,"TOWNNAME":"新營區","LI":"南興里","LIN":"22鄰","STREET":"延平路","SECT":" ","MAREA":" ","LANE":"１４０巷","ALLEY":" ","HOUSE_NO":"３１號","E_COORD97":179607.82000000001,"N_COORD97":2577420.6099999999,"ADDRESS":"延平路１４０巷３１號","OBJECTID":407871},"geometry":{"x":179607.8200000003,"y":2577420.6099999994}},{"attributes":{"ID":407896,"DIS_CODE":0,"TOWNNAME":"新營區","LI":"民權里","LIN":"22鄰","STREET":"民權路","SECT":" ","MAREA":" ","LANE":"９４巷","ALLEY":" ","HOUSE_NO":"４號","E_COORD97":179698.81,"N_COORD97":2578538.7000000002,"ADDRESS":"民權路９４巷４號","OBJECTID":407872},"geometry":{"x":179698.80999999959,"y":2578538.6999999993}},{"attributes":{"ID":407897,"DIS_CODE":0,"TOWNNAME":"歸仁區","LI":"看西里","LIN":"22鄰","STREET":"成功七街","SECT":" ","MAREA":" ","LANE":"５６巷","ALLEY":" ","HOUSE_NO":"１０號","E_COORD97":178253.98999999999,"N_COORD97":2539835.6400000001,"ADDRESS":"成功七街５６巷１０號","OBJECTID":407873},"geometry":{"x":178253.99000000022,"y":2539835.6400000006}},{"attributes":{"ID":407898,"DIS_CODE":0,"TOWNNAME":"歸仁區","LI":"看西里","LIN":"22鄰","STREET":"成功七街","SECT":" ","MAREA":" ","LANE":"５６巷","ALLEY":" ","HOUSE_NO":"１１號","E_COORD97":178247.29000000001,"N_COORD97":2539845.8599999999,"ADDRESS":"成功七街５６巷１１號","OBJECTID":407874},"geometry":{"x":178247.29000000097,"y":2539845.8600000013}},{"attributes":{"ID":407899,"DIS_CODE":0,"TOWNNAME":"歸仁區","LI":"看西里","LIN":"22鄰","STREET":"成功七街","SECT":" ","MAREA":" ","LANE":"５６巷","ALLEY":" ","HOUSE_NO":"１２號","E_COORD97":178254.54000000001,"N_COORD97":2539839.5099999998,"ADDRESS":"成功七街５６巷１２號","OBJECTID":407875},"geometry":{"x":178254.54000000004,"y":2539839.5099999998}},{"attributes":{"ID":407900,"DIS_CODE":0,"TOWNNAME":"歸仁區","LI":"看西里","LIN":"22鄰","STREET":"成功七街","SECT":" ","MAREA":" ","LANE":"５６巷","ALLEY":" ","HOUSE_NO":"１３號","E_COORD97":178247.67999999999,"N_COORD97":2539850.1499999999,"ADDRESS":"成功七街５６巷１３號","OBJECTID":407876},"geometry":{"x":178247.68000000063,"y":2539850.1500000041}},{"attributes":{"ID":407901,"DIS_CODE":0,"TOWNNAME":"歸仁區","LI":"看西里","LIN":"22鄰","STREET":"成功七街","SECT":" ","MAREA":" ","LANE":"５６巷","ALLEY":" ","HOUSE_NO":"１４號","E_COORD97":178254.89000000001,"N_COORD97":2539843.8100000001,"ADDRESS":"成功七街５６巷１４號","OBJECTID":407877},"geometry":{"x":178254.8900000006,"y":2539843.8100000024}},{"attributes":{"ID":407902,"DIS_CODE":0,"TOWNNAME":"歸仁區","LI":"看西里","LIN":"22鄰","STREET":"成功七街","SECT":" ","MAREA":" ","LANE":"５６巷","ALLEY":" ","HOUSE_NO":"１５號","E_COORD97":178248.04000000001,"N_COORD97":2539853.73,"ADDRESS":"成功七街５６巷１５號","OBJECTID":407878},"geometry":{"x":178248.04000000004,"y":2539853.7300000023}},{"attributes":{"ID":407903,"DIS_CODE":0,"TOWNNAME":"中西區","LI":"福安里","LIN":"4鄰","STREET":"府前路","SECT":"一段","MAREA":" ","LANE":"３０４巷","ALLEY":" ","HOUSE_NO":"２６號","E_COORD97":167886.60000000001,"N_COORD97":2543497.8199999998,"ADDRESS":"府前路一段３０４巷２６號","OBJECTID":407879},"geometry":{"x":167886.59999999963,"y":2543497.8200000022}},{"attributes":{"ID":407904,"DIS_CODE":0,"TOWNNAME":"歸仁區","LI":"看西里","LIN":"22鄰","STREET":"成功七街","SECT":" ","MAREA":" ","LANE":"５６巷","ALLEY":" ","HOUSE_NO":"１６號","E_COORD97":178255.85000000001,"N_COORD97":2539847.0800000001,"ADDRESS":"成功七街５６巷１６號","OBJECTID":407880},"geometry":{"x":178255.84999999963,"y":2539847.0800000038}},{"attributes":{"ID":407905,"DIS_CODE":0,"TOWNNAME":"中西區","LI":"福安里","LIN":"6鄰","STREET":"府前路","SECT":"一段","MAREA":" ","LANE":"３４２巷","ALLEY":" ","HOUSE_NO":"２８號","E_COORD97":167843.66,"N_COORD97":2543557.9399999999,"ADDRESS":"府前路一段３４２巷２８號","OBJECTID":407881},"geometry":{"x":167843.66000000108,"y":2543557.9399999995}},{"attributes":{"ID":407906,"DIS_CODE":0,"TOWNNAME":"中西區","LI":"福安里","LIN":"6鄰","STREET":"府前路","SECT":"一段","MAREA":" ","LANE":"３４２巷","ALLEY":" ","HOUSE_NO":"３０號","E_COORD97":167861.25,"N_COORD97":2543559.0899999999,"ADDRESS":"府前路一段３４２巷３０號","OBJECTID":407882},"geometry":{"x":167861.25000000093,"y":2543559.0900000036}},{"attributes":{"ID":407907,"DIS_CODE":0,"TOWNNAME":"中西區","LI":"福安里","LIN":"6鄰","STREET":"府前路","SECT":"一段","MAREA":" ","LANE":"３４２巷","ALLEY":" ","HOUSE_NO":"３６號","E_COORD97":167849.57999999999,"N_COORD97":2543562.3300000001,"ADDRESS":"府前路一段３４２巷３６號","OBJECTID":407883},"geometry":{"x":167849.58000000007,"y":2543562.3300000019}},{"attributes":{"ID":407908,"DIS_CODE":0,"TOWNNAME":"中西區","LI":"福安里","LIN":"6鄰","STREET":"府前路","SECT":"一段","MAREA":" ","LANE":"３４２巷","ALLEY":" ","HOUSE_NO":"３８號","E_COORD97":167845.73000000001,"N_COORD97":2543562.9900000002,"ADDRESS":"府前路一段３４２巷３８號","OBJECTID":407884},"geometry":{"x":167845.73000000045,"y":2543562.9900000002}},{"attributes":{"ID":407909,"DIS_CODE":0,"TOWNNAME":"歸仁區","LI":"看西里","LIN":"22鄰","STREET":"成功七街","SECT":" ","MAREA":" ","LANE":"５６巷","ALLEY":" ","HOUSE_NO":"１７號","E_COORD97":178248.69,"N_COORD97":2539858.1600000001,"ADDRESS":"成功七街５６巷１７號","OBJECTID":407885},"geometry":{"x":178248.69000000134,"y":2539858.160000002}},{"attributes":{"ID":407910,"DIS_CODE":0,"TOWNNAME":"歸仁區","LI":"看西里","LIN":"22鄰","STREET":"成功七街","SECT":" ","MAREA":" ","LANE":"５６巷","ALLEY":" ","HOUSE_NO":"１８號","E_COORD97":178256.48999999999,"N_COORD97":2539851.1299999999,"ADDRESS":"成功七街５６巷１８號","OBJECTID":407886},"geometry":{"x":178256.49000000115,"y":2539851.129999999}},{"attributes":{"ID":407911,"DIS_CODE":0,"TOWNNAME":"歸仁區","LI":"看西里","LIN":"22鄰","STREET":"成功七街","SECT":" ","MAREA":" ","LANE":"５６巷","ALLEY":" ","HOUSE_NO":"１９號","E_COORD97":178249.14000000001,"N_COORD97":2539861.75,"ADDRESS":"成功七街５６巷１９號","OBJECTID":407887},"geometry":{"x":178249.13999999873,"y":2539861.75}},{"attributes":{"ID":407912,"DIS_CODE":0,"TOWNNAME":"歸仁區","LI":"看西里","LIN":"22鄰","STREET":"成功七街","SECT":" ","MAREA":" ","LANE":"５６巷","ALLEY":" ","HOUSE_NO":"１號","E_COORD97":178244.16,"N_COORD97":2539827.3799999999,"ADDRESS":"成功七街５６巷１號","OBJECTID":407888},"geometry":{"x":178244.16000000015,"y":2539827.3800000008}},{"attributes":{"ID":407913,"DIS_CODE":0,"TOWNNAME":"歸仁區","LI":"看西里","LIN":"22鄰","STREET":"成功七街","SECT":" ","MAREA":" ","LANE":"５６巷","ALLEY":" ","HOUSE_NO":"２０號","E_COORD97":178256.70999999999,"N_COORD97":2539854.6600000001,"ADDRESS":"成功七街５６巷２０號","OBJECTID":407889},"geometry":{"x":178256.70999999996,"y":2539854.660000002}},{"attributes":{"ID":407914,"DIS_CODE":0,"TOWNNAME":"歸仁區","LI":"看西里","LIN":"22鄰","STREET":"成功七街","SECT":" ","MAREA":" ","LANE":"５６巷","ALLEY":" ","HOUSE_NO":"２１號","E_COORD97":178249.94,"N_COORD97":2539865.5499999998,"ADDRESS":"成功七街５６巷２１號","OBJECTID":407890},"geometry":{"x":178249.94000000134,"y":2539865.5500000026}},{"attributes":{"ID":407915,"DIS_CODE":0,"TOWNNAME":"歸仁區","LI":"看西里","LIN":"22鄰","STREET":"成功七街","SECT":" ","MAREA":" ","LANE":"５６巷","ALLEY":" ","HOUSE_NO":"２２號","E_COORD97":178257.44,"N_COORD97":2539858.8599999999,"ADDRESS":"成功七街５６巷２２號","OBJECTID":407891},"geometry":{"x":178257.44000000041,"y":2539858.8600000013}},{"attributes":{"ID":407916,"DIS_CODE":0,"TOWNNAME":"歸仁區","LI":"看西里","LIN":"22鄰","STREET":"成功七街","SECT":" ","MAREA":" ","LANE":"５６巷","ALLEY":" ","HOUSE_NO":"２３號","E_COORD97":178250.26999999999,"N_COORD97":2539869.1800000002,"ADDRESS":"成功七街５６巷２３號","OBJECTID":407892},"geometry":{"x":178250.27000000048,"y":2539869.1799999997}},{"attributes":{"ID":407917,"DIS_CODE":0,"TOWNNAME":"歸仁區","LI":"看西里","LIN":"22鄰","STREET":"成功七街","SECT":" ","MAREA":" ","LANE":"５６巷","ALLEY":" ","HOUSE_NO":"２４號","E_COORD97":178257.64000000001,"N_COORD97":2539862.79,"ADDRESS":"成功七街５６巷２４號","OBJECTID":407893},"geometry":{"x":178257.64000000153,"y":2539862.790000001}},{"attributes":{"ID":407918,"DIS_CODE":0,"TOWNNAME":"歸仁區","LI":"看西里","LIN":"22鄰","STREET":"成功七街","SECT":" ","MAREA":" ","LANE":"５６巷","ALLEY":" ","HOUSE_NO":"２６號","E_COORD97":178258.48999999999,"N_COORD97":2539866.1800000002,"ADDRESS":"成功七街５６巷２６號","OBJECTID":407894},"geometry":{"x":178258.49000000022,"y":2539866.1800000034}},{"attributes":{"ID":407919,"DIS_CODE":0,"TOWNNAME":"歸仁區","LI":"看西里","LIN":"22鄰","STREET":"成功七街","SECT":" ","MAREA":" ","LANE":"５６巷","ALLEY":" ","HOUSE_NO":"２號","E_COORD97":178252.23999999999,"N_COORD97":2539824.6899999999,"ADDRESS":"成功七街５６巷２號","OBJECTID":407895},"geometry":{"x":178252.24000000022,"y":2539824.6899999995}},{"attributes":{"ID":407920,"DIS_CODE":0,"TOWNNAME":"歸仁區","LI":"看西里","LIN":"22鄰","STREET":"成功七街","SECT":" ","MAREA":" ","LANE":"５６巷","ALLEY":" ","HOUSE_NO":"３號","E_COORD97":178244.62,"N_COORD97":2539830.9900000002,"ADDRESS":"成功七街５６巷３號","OBJECTID":407896},"geometry":{"x":178244.61999999918,"y":2539830.9900000021}},{"attributes":{"ID":407921,"DIS_CODE":0,"TOWNNAME":"歸仁區","LI":"看西里","LIN":"22鄰","STREET":"成功七街","SECT":" ","MAREA":" ","LANE":"５６巷","ALLEY":" ","HOUSE_NO":"５號","E_COORD97":178245.63,"N_COORD97":2539835.25,"ADDRESS":"成功七街５６巷５號","OBJECTID":407897},"geometry":{"x":178245.62999999989,"y":2539835.2499999981}},{"attributes":{"ID":407922,"DIS_CODE":0,"TOWNNAME":"歸仁區","LI":"看西里","LIN":"22鄰","STREET":"成功七街","SECT":" ","MAREA":" ","LANE":"５６巷","ALLEY":" ","HOUSE_NO":"６號","E_COORD97":178252.87,"N_COORD97":2539828.0499999998,"ADDRESS":"成功七街５６巷６號","OBJECTID":407898},"geometry":{"x":178252.87000000011,"y":2539828.0500000026}},{"attributes":{"ID":407923,"DIS_CODE":0,"TOWNNAME":"歸仁區","LI":"看西里","LIN":"22鄰","STREET":"成功七街","SECT":" ","MAREA":" ","LANE":"５６巷","ALLEY":" ","HOUSE_NO":"７號","E_COORD97":178246.22,"N_COORD97":2539838.46,"ADDRESS":"成功七街５６巷７號","OBJECTID":407899},"geometry":{"x":178246.21999999974,"y":2539838.4600000046}},{"attributes":{"ID":407924,"DIS_CODE":0,"TOWNNAME":"歸仁區","LI":"看西里","LIN":"22鄰","STREET":"成功七街","SECT":" ","MAREA":" ","LANE":"５６巷","ALLEY":" ","HOUSE_NO":"８號","E_COORD97":178253.20999999999,"N_COORD97":2539832.0299999998,"ADDRESS":"成功七街５６巷８號","OBJECTID":407900},"geometry":{"x":178253.21000000089,"y":2539832.0299999993}},{"attributes":{"ID":407925,"DIS_CODE":0,"TOWNNAME":"歸仁區","LI":"看西里","LIN":"22鄰","STREET":"成功七街","SECT":" ","MAREA":" ","LANE":"５６巷","ALLEY":" ","HOUSE_NO":"９號","E_COORD97":178246.69,"N_COORD97":2539842.7599999998,"ADDRESS":"成功七街５６巷９號","OBJECTID":407901},"geometry":{"x":178246.69000000134,"y":2539842.7600000016}},{"attributes":{"ID":407926,"DIS_CODE":0,"TOWNNAME":"歸仁區","LI":"看西里","LIN":"22鄰","STREET":"成功七街","SECT":" ","MAREA":" ","LANE":"８１巷","ALLEY":" ","HOUSE_NO":"１１號","E_COORD97":178240.34,"N_COORD97":2539761.6099999999,"ADDRESS":"成功七街８１巷１１號","OBJECTID":407902},"geometry":{"x":178240.34000000078,"y":2539761.6100000013}},{"attributes":{"ID":407927,"DIS_CODE":0,"TOWNNAME":"歸仁區","LI":"看西里","LIN":"22鄰","STREET":"成功七街","SECT":" ","MAREA":" ","LANE":"８１巷","ALLEY":" ","HOUSE_NO":"１３號","E_COORD97":178239.51000000001,"N_COORD97":2539756.29,"ADDRESS":"成功七街８１巷１３號","OBJECTID":407903},"geometry":{"x":178239.50999999978,"y":2539756.2900000028}},{"attributes":{"ID":407928,"DIS_CODE":0,"TOWNNAME":"歸仁區","LI":"看西里","LIN":"22鄰","STREET":"成功七街","SECT":" ","MAREA":" ","LANE":"８１巷","ALLEY":" ","HOUSE_NO":"１５號","E_COORD97":178239.14000000001,"N_COORD97":2539750.96,"ADDRESS":"成功七街８１巷１５號","OBJECTID":407904},"geometry":{"x":178239.14000000153,"y":2539750.9600000028}},{"attributes":{"ID":407929,"DIS_CODE":0,"TOWNNAME":"中西區","LI":"福安里","LIN":"8鄰","STREET":"府前路","SECT":"一段","MAREA":" ","LANE":"３４２巷","ALLEY":" ","HOUSE_NO":"１１號","E_COORD97":167812.16,"N_COORD97":2543501.0499999998,"ADDRESS":"府前路一段３４２巷１１號","OBJECTID":407905},"geometry":{"x":167812.16000000015,"y":2543501.0500000007}},{"attributes":{"ID":407930,"DIS_CODE":0,"TOWNNAME":"中西區","LI":"福安里","LIN":"8鄰","STREET":"府前路","SECT":"一段","MAREA":" ","LANE":"３４２巷","ALLEY":" ","HOUSE_NO":"１３號","E_COORD97":167812.69,"N_COORD97":2543504.8999999999,"ADDRESS":"府前路一段３４２巷１３號","OBJECTID":407906},"geometry":{"x":167812.69000000134,"y":2543504.9000000004}},{"attributes":{"ID":407931,"DIS_CODE":0,"TOWNNAME":"中西區","LI":"福安里","LIN":"8鄰","STREET":"府前路","SECT":"一段","MAREA":" ","LANE":"３４２巷","ALLEY":" ","HOUSE_NO":"１號","E_COORD97":167805.39999999999,"N_COORD97":2543478.8399999999,"ADDRESS":"府前路一段３４２巷１號","OBJECTID":407907},"geometry":{"x":167805.40000000037,"y":2543478.8399999999}},{"attributes":{"ID":407932,"DIS_CODE":0,"TOWNNAME":"歸仁區","LI":"看西里","LIN":"22鄰","STREET":"成功七街","SECT":" ","MAREA":" ","LANE":"８１巷","ALLEY":" ","HOUSE_NO":"１７號","E_COORD97":178238.26000000001,"N_COORD97":2539746.2799999998,"ADDRESS":"成功七街８１巷１７號","OBJECTID":407908},"geometry":{"x":178238.25999999885,"y":2539746.2800000031}},{"attributes":{"ID":407933,"DIS_CODE":0,"TOWNNAME":"歸仁區","LI":"看西里","LIN":"22鄰","STREET":"成功七街","SECT":" ","MAREA":" ","LANE":"８１巷","ALLEY":" ","HOUSE_NO":"１號","E_COORD97":178240,"N_COORD97":2539786.2000000002,"ADDRESS":"成功七街８１巷１號","OBJECTID":407909},"geometry":{"x":178240,"y":2539786.1999999993}},{"attributes":{"ID":407934,"DIS_CODE":0,"TOWNNAME":"歸仁區","LI":"看西里","LIN":"22鄰","STREET":"成功七街","SECT":" ","MAREA":" ","LANE":"８１巷","ALLEY":" ","HOUSE_NO":"３號","E_COORD97":178240.17999999999,"N_COORD97":2539780.79,"ADDRESS":"成功七街８１巷３號","OBJECTID":407910},"geometry":{"x":178240.1799999997,"y":2539780.790000001}},{"attributes":{"ID":407935,"DIS_CODE":0,"TOWNNAME":"歸仁區","LI":"看西里","LIN":"22鄰","STREET":"成功七街","SECT":" ","MAREA":" ","LANE":"８１巷","ALLEY":" ","HOUSE_NO":"５號","E_COORD97":178240.35999999999,"N_COORD97":2539775.8399999999,"ADDRESS":"成功七街８１巷５號","OBJECTID":407911},"geometry":{"x":178240.36000000127,"y":2539775.8399999999}},{"attributes":{"ID":407936,"DIS_CODE":0,"TOWNNAME":"歸仁區","LI":"看西里","LIN":"22鄰","STREET":"成功七街","SECT":" ","MAREA":" ","LANE":"８１巷","ALLEY":" ","HOUSE_NO":"７號","E_COORD97":178240,"N_COORD97":2539770.4300000002,"ADDRESS":"成功七街８１巷７號","OBJECTID":407912},"geometry":{"x":178240,"y":2539770.4300000016}},{"attributes":{"ID":407937,"DIS_CODE":0,"TOWNNAME":"歸仁區","LI":"看西里","LIN":"22鄰","STREET":"成功七街","SECT":" ","MAREA":" ","LANE":"８１巷","ALLEY":" ","HOUSE_NO":"９號","E_COORD97":178240.26999999999,"N_COORD97":2539766.8300000001,"ADDRESS":"成功七街８１巷９號","OBJECTID":407913},"geometry":{"x":178240.27000000048,"y":2539766.8300000001}},{"attributes":{"ID":407938,"DIS_CODE":0,"TOWNNAME":"歸仁區","LI":"看西里","LIN":"22鄰","STREET":"成功路","SECT":"一段","MAREA":" ","LANE":"３３９巷","ALLEY":" ","HOUSE_NO":"１０號","E_COORD97":178238.70000000001,"N_COORD97":2539871.6699999999,"ADDRESS":"成功路一段３３９巷１０號","OBJECTID":407914},"geometry":{"x":178238.70000000019,"y":2539871.6699999999}},{"attributes":{"ID":407939,"DIS_CODE":0,"TOWNNAME":"歸仁區","LI":"看西里","LIN":"22鄰","STREET":"成功路","SECT":"一段","MAREA":" ","LANE":"３３９巷","ALLEY":" ","HOUSE_NO":"１２號","E_COORD97":178243.14999999999,"N_COORD97":2539871.1800000002,"ADDRESS":"成功路一段３３９巷１２號","OBJECTID":407915},"geometry":{"x":178243.15000000224,"y":2539871.1800000016}},{"attributes":{"ID":407940,"DIS_CODE":0,"TOWNNAME":"安平區","LI":"平通里","LIN":"22鄰","STREET":"育平九街","SECT":" ","MAREA":" ","LANE":"３７２巷","ALLEY":" ","HOUSE_NO":"１４３號","E_COORD97":164584.92000000001,"N_COORD97":2544105.5899999999,"ADDRESS":"育平九街３７２巷１４３號","OBJECTID":407916},"geometry":{"x":164584.92000000086,"y":2544105.5900000017}},{"attributes":{"ID":407941,"DIS_CODE":0,"TOWNNAME":"中西區","LI":"福安里","LIN":"10鄰","STREET":"永福路","SECT":"二段","MAREA":" ","LANE":"３５巷","ALLEY":" ","HOUSE_NO":"３０號之１","E_COORD97":167964.04999999999,"N_COORD97":2543482.1099999999,"ADDRESS":"永福路二段３５巷３０號之１","OBJECTID":407917},"geometry":{"x":167964.05000000075,"y":2543482.1099999994}},{"attributes":{"ID":407942,"DIS_CODE":0,"TOWNNAME":"南區","LI":"大恩里","LIN":"22鄰","STREET":"大同路","SECT":"二段","MAREA":" ","LANE":"７３０巷","ALLEY":" ","HOUSE_NO":"１０號","E_COORD97":169568.98999999999,"N_COORD97":2540773.8100000001,"ADDRESS":"大同路二段７３０巷１０號","OBJECTID":407918},"geometry":{"x":169568.99000000022,"y":2540773.8100000005}},{"attributes":{"ID":407943,"DIS_CODE":0,"TOWNNAME":"南區","LI":"大恩里","LIN":"22鄰","STREET":"大同路","SECT":"二段","MAREA":" ","LANE":"７３０巷","ALLEY":" ","HOUSE_NO":"１１之１號","E_COORD97":169556.42999999999,"N_COORD97":2540752.6600000001,"ADDRESS":"大同路二段７３０巷１１之１號","OBJECTID":407919},"geometry":{"x":169556.43000000063,"y":2540752.660000002}},{"attributes":{"ID":407944,"DIS_CODE":0,"TOWNNAME":"南區","LI":"大恩里","LIN":"22鄰","STREET":"大同路","SECT":"二段","MAREA":" ","LANE":"７３０巷","ALLEY":" ","HOUSE_NO":"１１號","E_COORD97":169561.37,"N_COORD97":2540753.2000000002,"ADDRESS":"大同路二段７３０巷１１號","OBJECTID":407920},"geometry":{"x":169561.37000000011,"y":2540753.1999999993}},{"attributes":{"ID":407945,"DIS_CODE":0,"TOWNNAME":"南區","LI":"大恩里","LIN":"22鄰","STREET":"大同路","SECT":"二段","MAREA":" ","LANE":"７３０巷","ALLEY":" ","HOUSE_NO":"１２號","E_COORD97":169563.84,"N_COORD97":2540772.4199999999,"ADDRESS":"大同路二段７３０巷１２號","OBJECTID":407921},"geometry":{"x":169563.84000000078,"y":2540772.4199999999}},{"attributes":{"ID":407946,"DIS_CODE":0,"TOWNNAME":"南區","LI":"大恩里","LIN":"22鄰","STREET":"大同路","SECT":"二段","MAREA":" ","LANE":"７３０巷","ALLEY":" ","HOUSE_NO":"１５號","E_COORD97":169550.09,"N_COORD97":2540752.5600000001,"ADDRESS":"大同路二段７３０巷１５號","OBJECTID":407922},"geometry":{"x":169550.09000000171,"y":2540752.5600000042}},{"attributes":{"ID":407947,"DIS_CODE":0,"TOWNNAME":"南區","LI":"大恩里","LIN":"22鄰","STREET":"大同路","SECT":"二段","MAREA":" ","LANE":"７３０巷","ALLEY":" ","HOUSE_NO":"１６號","E_COORD97":169560.07999999999,"N_COORD97":2540771.7799999998,"ADDRESS":"大同路二段７３０巷１６號","OBJECTID":407923},"geometry":{"x":169560.08000000007,"y":2540771.7800000012}},{"attributes":{"ID":407948,"DIS_CODE":0,"TOWNNAME":"南區","LI":"大恩里","LIN":"22鄰","STREET":"大同路","SECT":"二段","MAREA":" ","LANE":"７３０巷","ALLEY":" ","HOUSE_NO":"１７號","E_COORD97":169545.37,"N_COORD97":2540751.9100000001,"ADDRESS":"大同路二段７３０巷１７號","OBJECTID":407924},"geometry":{"x":169545.37000000104,"y":2540751.9100000001}},{"attributes":{"ID":407949,"DIS_CODE":0,"TOWNNAME":"南區","LI":"大恩里","LIN":"22鄰","STREET":"大同路","SECT":"二段","MAREA":" ","LANE":"７３０巷","ALLEY":" ","HOUSE_NO":"１８號","E_COORD97":169554.70999999999,"N_COORD97":2540771.3500000001,"ADDRESS":"大同路二段７３０巷１８號","OBJECTID":407925},"geometry":{"x":169554.71000000089,"y":2540771.3500000015}},{"attributes":{"ID":407950,"DIS_CODE":0,"TOWNNAME":"南區","LI":"大恩里","LIN":"22鄰","STREET":"大同路","SECT":"二段","MAREA":" ","LANE":"７３０巷","ALLEY":" ","HOUSE_NO":"１９號","E_COORD97":169540.42999999999,"N_COORD97":2540751.7000000002,"ADDRESS":"大同路二段７３０巷１９號","OBJECTID":407926},"geometry":{"x":169540.4299999997,"y":2540751.7000000011}},{"attributes":{"ID":407951,"DIS_CODE":0,"TOWNNAME":"南區","LI":"大恩里","LIN":"22鄰","STREET":"大同路","SECT":"二段","MAREA":" ","LANE":"７３０巷","ALLEY":" ","HOUSE_NO":"１號","E_COORD97":169584.78,"N_COORD97":2540755.7799999998,"ADDRESS":"大同路二段７３０巷１號","OBJECTID":407927},"geometry":{"x":169584.78000000212,"y":2540755.7799999993}},{"attributes":{"ID":407952,"DIS_CODE":0,"TOWNNAME":"南區","LI":"大恩里","LIN":"22鄰","STREET":"大同路","SECT":"二段","MAREA":" ","LANE":"７３０巷","ALLEY":" ","HOUSE_NO":"２０號","E_COORD97":169549.34,"N_COORD97":2540771.0299999998,"ADDRESS":"大同路二段７３０巷２０號","OBJECTID":407928},"geometry":{"x":169549.33999999985,"y":2540771.0299999993}},{"attributes":{"ID":407953,"DIS_CODE":0,"TOWNNAME":"南區","LI":"大恩里","LIN":"22鄰","STREET":"大同路","SECT":"二段","MAREA":" ","LANE":"７３０巷","ALLEY":" ","HOUSE_NO":"２１號","E_COORD97":169536.13,"N_COORD97":2540751.5899999999,"ADDRESS":"大同路二段７３０巷２１號","OBJECTID":407929},"geometry":{"x":169536.12999999896,"y":2540751.589999998}},{"attributes":{"ID":407954,"DIS_CODE":0,"TOWNNAME":"南區","LI":"大恩里","LIN":"22鄰","STREET":"大同路","SECT":"二段","MAREA":" ","LANE":"７３０巷","ALLEY":" ","HOUSE_NO":"２２號","E_COORD97":169543.97,"N_COORD97":2540770.9199999999,"ADDRESS":"大同路二段７３０巷２２號","OBJECTID":407930},"geometry":{"x":169543.9700000016,"y":2540770.9200000018}},{"attributes":{"ID":407955,"DIS_CODE":0,"TOWNNAME":"東區","LI":"裕農里","LIN":"13鄰","STREET":"裕豐街","SECT":" ","MAREA":" ","LANE":"２４２巷","ALLEY":" ","HOUSE_NO":"７號","E_COORD97":170827.57000000001,"N_COORD97":2543261.8999999999,"ADDRESS":"裕豐街２４２巷７號","OBJECTID":407931},"geometry":{"x":170827.57000000123,"y":2543261.9000000004}},{"attributes":{"ID":407956,"DIS_CODE":0,"TOWNNAME":"南區","LI":"大恩里","LIN":"22鄰","STREET":"大同路","SECT":"二段","MAREA":" ","LANE":"７３０巷","ALLEY":" ","HOUSE_NO":"２３號","E_COORD97":169530.87,"N_COORD97":2540751.1600000001,"ADDRESS":"大同路二段７３０巷２３號","OBJECTID":407932},"geometry":{"x":169530.87000000011,"y":2540751.1600000001}},{"attributes":{"ID":407957,"DIS_CODE":0,"TOWNNAME":"南區","LI":"大恩里","LIN":"22鄰","STREET":"大同路","SECT":"二段","MAREA":" ","LANE":"７３０巷","ALLEY":" ","HOUSE_NO":"２５號","E_COORD97":169526.35999999999,"N_COORD97":2540750.9500000002,"ADDRESS":"大同路二段７３０巷２５號","OBJECTID":407933},"geometry":{"x":169526.36000000034,"y":2540750.9499999993}},{"attributes":{"ID":407958,"DIS_CODE":0,"TOWNNAME":"南區","LI":"大恩里","LIN":"22鄰","STREET":"大同路","SECT":"二段","MAREA":" ","LANE":"７３０巷","ALLEY":" ","HOUSE_NO":"２６號","E_COORD97":169538.92999999999,"N_COORD97":2540770.4900000002,"ADDRESS":"大同路二段７３０巷２６號","OBJECTID":407934},"geometry":{"x":169538.9299999997,"y":2540770.4900000021}},{"attributes":{"ID":407959,"DIS_CODE":0,"TOWNNAME":"南區","LI":"大恩里","LIN":"22鄰","STREET":"大同路","SECT":"二段","MAREA":" ","LANE":"７３０巷","ALLEY":" ","HOUSE_NO":"２７號","E_COORD97":169521.73999999999,"N_COORD97":2540751.27,"ADDRESS":"大同路二段７３０巷２７號","OBJECTID":407935},"geometry":{"x":169521.74000000022,"y":2540751.2700000014}},{"attributes":{"ID":407960,"DIS_CODE":0,"TOWNNAME":"南區","LI":"大恩里","LIN":"22鄰","STREET":"大同路","SECT":"二段","MAREA":" ","LANE":"７３０巷","ALLEY":" ","HOUSE_NO":"２８號","E_COORD97":169534.73999999999,"N_COORD97":2540769.4199999999,"ADDRESS":"大同路二段７３０巷２８號","OBJECTID":407936},"geometry":{"x":169534.74000000115,"y":2540769.4199999999}},{"attributes":{"ID":407961,"DIS_CODE":0,"TOWNNAME":"南區","LI":"大恩里","LIN":"22鄰","STREET":"大同路","SECT":"二段","MAREA":" ","LANE":"７３０巷","ALLEY":" ","HOUSE_NO":"２９號","E_COORD97":169517.01999999999,"N_COORD97":2540750.52,"ADDRESS":"大同路二段７３０巷２９號","OBJECTID":407937},"geometry":{"x":169517.02000000048,"y":2540750.5199999996}},{"attributes":{"ID":407962,"DIS_CODE":0,"TOWNNAME":"南區","LI":"大恩里","LIN":"22鄰","STREET":"大同路","SECT":"二段","MAREA":" ","LANE":"７３０巷","ALLEY":" ","HOUSE_NO":"２號","E_COORD97":169583.81,"N_COORD97":2540775.96,"ADDRESS":"大同路二段７３０巷２號","OBJECTID":407938},"geometry":{"x":169583.81000000145,"y":2540775.9600000009}},{"attributes":{"ID":407963,"DIS_CODE":0,"TOWNNAME":"南區","LI":"大恩里","LIN":"22鄰","STREET":"大同路","SECT":"二段","MAREA":" ","LANE":"７３０巷","ALLEY":" ","HOUSE_NO":"３０號","E_COORD97":169529.26000000001,"N_COORD97":2540767.7000000002,"ADDRESS":"大同路二段７３０巷３０號","OBJECTID":407939},"geometry":{"x":169529.26000000071,"y":2540767.7000000011}},{"attributes":{"ID":407964,"DIS_CODE":0,"TOWNNAME":"南區","LI":"大恩里","LIN":"22鄰","STREET":"大同路","SECT":"二段","MAREA":" ","LANE":"７３０巷","ALLEY":" ","HOUSE_NO":"３１號","E_COORD97":169512.62,"N_COORD97":2540750.8399999999,"ADDRESS":"大同路二段７３０巷３１號","OBJECTID":407940},"geometry":{"x":169512.62000000011,"y":2540750.8400000017}},{"attributes":{"ID":407965,"DIS_CODE":0,"TOWNNAME":"南區","LI":"大恩里","LIN":"22鄰","STREET":"大同路","SECT":"二段","MAREA":" ","LANE":"７３０巷","ALLEY":" ","HOUSE_NO":"３２號","E_COORD97":169524.54000000001,"N_COORD97":2540767.7000000002,"ADDRESS":"大同路二段７３０巷３２號","OBJECTID":407941},"geometry":{"x":169524.54000000004,"y":2540767.7000000011}},{"attributes":{"ID":407966,"DIS_CODE":0,"TOWNNAME":"南區","LI":"大恩里","LIN":"22鄰","STREET":"大同路","SECT":"二段","MAREA":" ","LANE":"７３０巷","ALLEY":" ","HOUSE_NO":"３６號","E_COORD97":169520.13,"N_COORD97":2540767.4900000002,"ADDRESS":"大同路二段７３０巷３６號","OBJECTID":407942},"geometry":{"x":169520.13000000082,"y":2540767.4900000021}},{"attributes":{"ID":407967,"DIS_CODE":0,"TOWNNAME":"中西區","LI":"福安里","LIN":"11鄰","STREET":"永福路","SECT":"二段","MAREA":" ","LANE":"３５巷","ALLEY":" ","HOUSE_NO":"１８號","E_COORD97":167952.95000000001,"N_COORD97":2543524.3399999999,"ADDRESS":"永福路二段３５巷１８號","OBJECTID":407943},"geometry":{"x":167952.95000000112,"y":2543524.3400000017}},{"attributes":{"ID":407968,"DIS_CODE":0,"TOWNNAME":"中西區","LI":"福安里","LIN":"11鄰","STREET":"永福路","SECT":"二段","MAREA":" ","LANE":"３５巷","ALLEY":" ","HOUSE_NO":"２０號","E_COORD97":167962.25,"N_COORD97":2543523.0099999998,"ADDRESS":"永福路二段３５巷２０號","OBJECTID":407944},"geometry":{"x":167962.25,"y":2543523.0100000016}},{"attributes":{"ID":407969,"DIS_CODE":0,"TOWNNAME":"中西區","LI":"福安里","LIN":"11鄰","STREET":"永福路","SECT":"二段","MAREA":" ","LANE":"３５巷","ALLEY":" ","HOUSE_NO":"２２號","E_COORD97":167983.98999999999,"N_COORD97":2543513.8500000001,"ADDRESS":"永福路二段３５巷２２號","OBJECTID":407945},"geometry":{"x":167983.99000000022,"y":2543513.8500000015}},{"attributes":{"ID":407970,"DIS_CODE":0,"TOWNNAME":"中西區","LI":"福安里","LIN":"11鄰","STREET":"永福路","SECT":"二段","MAREA":" ","LANE":"３５巷","ALLEY":" ","HOUSE_NO":"２６號","E_COORD97":167948.03,"N_COORD97":2543512.0499999998,"ADDRESS":"永福路二段３５巷２６號","OBJECTID":407946},"geometry":{"x":167948.03000000119,"y":2543512.0500000007}},{"attributes":{"ID":407971,"DIS_CODE":0,"TOWNNAME":"中西區","LI":"福安里","LIN":"11鄰","STREET":"永福路","SECT":"二段","MAREA":" ","LANE":"３５巷","ALLEY":" ","HOUSE_NO":"３號","E_COORD97":167993.03,"N_COORD97":2543489.4100000001,"ADDRESS":"永福路二段３５巷３號","OBJECTID":407947},"geometry":{"x":167993.03000000212,"y":2543489.4100000039}},{"attributes":{"ID":407972,"DIS_CODE":0,"TOWNNAME":"中西區","LI":"福安里","LIN":"11鄰","STREET":"永福路","SECT":"二段","MAREA":" ","LANE":"３５巷","ALLEY":" ","HOUSE_NO":"５號","E_COORD97":167990.23999999999,"N_COORD97":2543484.7400000002,"ADDRESS":"永福路二段３５巷５號","OBJECTID":407948},"geometry":{"x":167990.24000000115,"y":2543484.7400000021}},{"attributes":{"ID":407973,"DIS_CODE":0,"TOWNNAME":"中西區","LI":"福安里","LIN":"11鄰","STREET":"永福路","SECT":"二段","MAREA":" ","LANE":"３５巷","ALLEY":" ","HOUSE_NO":"７號","E_COORD97":167987.57999999999,"N_COORD97":2543479.8500000001,"ADDRESS":"永福路二段３５巷７號","OBJECTID":407949},"geometry":{"x":167987.58000000101,"y":2543479.8500000015}},{"attributes":{"ID":407974,"DIS_CODE":0,"TOWNNAME":"中西區","LI":"福安里","LIN":"11鄰","STREET":"永福路","SECT":"二段","MAREA":" ","LANE":"３５巷","ALLEY":" ","HOUSE_NO":"９號","E_COORD97":167984.79000000001,"N_COORD97":2543475.3399999999,"ADDRESS":"永福路二段３５巷９號","OBJECTID":407950},"geometry":{"x":167984.79000000097,"y":2543475.3399999999}},{"attributes":{"ID":407975,"DIS_CODE":0,"TOWNNAME":"善化區","LI":"光文里","LIN":"22鄰","STREET":"光華路","SECT":" ","MAREA":" ","LANE":"１１０巷","ALLEY":" ","HOUSE_NO":"９號","E_COORD97":178671.34,"N_COORD97":2559466.5,"ADDRESS":"光華路１１０巷９號","OBJECTID":407951},"geometry":{"x":178671.33999999985,"y":2559466.5}},{"attributes":{"ID":407976,"DIS_CODE":0,"TOWNNAME":"南區","LI":"大恩里","LIN":"22鄰","STREET":"大同路","SECT":"二段","MAREA":" ","LANE":"７３０巷","ALLEY":" ","HOUSE_NO":"３８號","E_COORD97":169515.19,"N_COORD97":2540767.3799999999,"ADDRESS":"大同路二段７３０巷３８號","OBJECTID":407952},"geometry":{"x":169515.19000000134,"y":2540767.3800000008}},{"attributes":{"ID":407977,"DIS_CODE":0,"TOWNNAME":"南區","LI":"大恩里","LIN":"22鄰","STREET":"大同路","SECT":"二段","MAREA":" ","LANE":"７３０巷","ALLEY":" ","HOUSE_NO":"３號","E_COORD97":169580.37,"N_COORD97":2540755.1299999999,"ADDRESS":"大同路二段７３０巷３號","OBJECTID":407953},"geometry":{"x":169580.37000000011,"y":2540755.1300000008}},{"attributes":{"ID":407978,"DIS_CODE":0,"TOWNNAME":"南區","LI":"大恩里","LIN":"22鄰","STREET":"大同路","SECT":"二段","MAREA":" ","LANE":"７３０巷","ALLEY":" ","HOUSE_NO":"４０號","E_COORD97":169511.10999999999,"N_COORD97":2540767.8100000001,"ADDRESS":"大同路二段７３０巷４０號","OBJECTID":407954},"geometry":{"x":169511.11000000034,"y":2540767.8100000042}},{"attributes":{"ID":407979,"DIS_CODE":0,"TOWNNAME":"南區","LI":"大恩里","LIN":"22鄰","STREET":"大同路","SECT":"二段","MAREA":" ","LANE":"７３０巷","ALLEY":" ","HOUSE_NO":"５號","E_COORD97":169575.32999999999,"N_COORD97":2540754.6000000001,"ADDRESS":"大同路二段７３０巷５號","OBJECTID":407955},"geometry":{"x":169575.33000000007,"y":2540754.5999999978}},{"attributes":{"ID":407980,"DIS_CODE":0,"TOWNNAME":"南區","LI":"大恩里","LIN":"22鄰","STREET":"大同路","SECT":"二段","MAREA":" ","LANE":"７３０巷","ALLEY":" ","HOUSE_NO":"６號","E_COORD97":169578.87,"N_COORD97":2540775.5299999998,"ADDRESS":"大同路二段７３０巷６號","OBJECTID":407956},"geometry":{"x":169578.87000000197,"y":2540775.5300000031}},{"attributes":{"ID":407981,"DIS_CODE":0,"TOWNNAME":"南區","LI":"大恩里","LIN":"22鄰","STREET":"大同路","SECT":"二段","MAREA":" ","LANE":"７３０巷","ALLEY":" ","HOUSE_NO":"７號","E_COORD97":169571.25,"N_COORD97":2540753.8399999999,"ADDRESS":"大同路二段７３０巷７號","OBJECTID":407957},"geometry":{"x":169571.25000000186,"y":2540753.8400000017}},{"attributes":{"ID":407982,"DIS_CODE":0,"TOWNNAME":"南區","LI":"大恩里","LIN":"22鄰","STREET":"大同路","SECT":"二段","MAREA":" ","LANE":"７３０巷","ALLEY":" ","HOUSE_NO":"８號","E_COORD97":169573.39000000001,"N_COORD97":2540774.46,"ADDRESS":"大同路二段７３０巷８號","OBJECTID":407958},"geometry":{"x":169573.3900000006,"y":2540774.4600000028}},{"attributes":{"ID":407983,"DIS_CODE":0,"TOWNNAME":"南區","LI":"大恩里","LIN":"22鄰","STREET":"大同路","SECT":"二段","MAREA":" ","LANE":"７３０巷","ALLEY":" ","HOUSE_NO":"９號","E_COORD97":169566.31,"N_COORD97":2540753.3100000001,"ADDRESS":"大同路二段７３０巷９號","OBJECTID":407959},"geometry":{"x":169566.30999999959,"y":2540753.3100000005}},{"attributes":{"ID":407984,"DIS_CODE":0,"TOWNNAME":"南區","LI":"永寧里","LIN":"22鄰","STREET":"灣裡路","SECT":" ","MAREA":" ","LANE":"３０１巷","ALLEY":" ","HOUSE_NO":"２０號之２","E_COORD97":166222.48999999999,"N_COORD97":2536308.5299999998,"ADDRESS":"灣裡路３０１巷２０號之２","OBJECTID":407960},"geometry":{"x":166222.49000000115,"y":2536308.5299999993}},{"attributes":{"ID":407985,"DIS_CODE":0,"TOWNNAME":"鹽水區","LI":"橋南里","LIN":"22鄰","STREET":"新中路","SECT":" ","MAREA":" ","LANE":"１０２巷","ALLEY":" ","HOUSE_NO":"１３號","E_COORD97":175970.57000000001,"N_COORD97":2578603.6800000002,"ADDRESS":"新中路１０２巷１３號","OBJECTID":407961},"geometry":{"x":175970.57000000123,"y":2578603.6799999997}},{"attributes":{"ID":407986,"DIS_CODE":0,"TOWNNAME":"佳里區","LI":"安西里","LIN":"13鄰","STREET":"長安街","SECT":" ","MAREA":" ","LANE":" ","ALLEY":" ","HOUSE_NO":"８７號","E_COORD97":165413.67999999999,"N_COORD97":2562457.0800000001,"ADDRESS":"長安街８７號","OBJECTID":407962},"geometry":{"x":165413.68000000063,"y":2562457.0799999982}},{"attributes":{"ID":407987,"DIS_CODE":0,"TOWNNAME":"佳里區","LI":"安西里","LIN":"13鄰","STREET":"長安街","SECT":" ","MAREA":" ","LANE":" ","ALLEY":" ","HOUSE_NO":"８９號","E_COORD97":165413.92999999999,"N_COORD97":2562461.3300000001,"ADDRESS":"長安街８９號","OBJECTID":407963},"geometry":{"x":165413.9299999997,"y":2562461.3300000001}},{"attributes":{"ID":407988,"DIS_CODE":0,"TOWNNAME":"鹽水區","LI":"橋南里","LIN":"22鄰","STREET":"新中路","SECT":" ","MAREA":" ","LANE":"１０２巷","ALLEY":" ","HOUSE_NO":"１４號","E_COORD97":175981.51000000001,"N_COORD97":2578622.2200000002,"ADDRESS":"新中路１０２巷１４號","OBJECTID":407964},"geometry":{"x":175981.50999999978,"y":2578622.2200000044}},{"attributes":{"ID":407989,"DIS_CODE":0,"TOWNNAME":"鹽水區","LI":"橋南里","LIN":"22鄰","STREET":"新中路","SECT":" ","MAREA":" ","LANE":"１０２巷","ALLEY":" ","HOUSE_NO":"１５號","E_COORD97":175966.45999999999,"N_COORD97":2578604.1600000001,"ADDRESS":"新中路１０２巷１５號","OBJECTID":407965},"geometry":{"x":175966.46000000089,"y":2578604.1600000001}},{"attributes":{"ID":407990,"DIS_CODE":0,"TOWNNAME":"鹽水區","LI":"橋南里","LIN":"22鄰","STREET":"新中路","SECT":" ","MAREA":" ","LANE":"１０２巷","ALLEY":" ","HOUSE_NO":"１６號","E_COORD97":175977.23000000001,"N_COORD97":2578622.4300000002,"ADDRESS":"新中路１０２巷１６號","OBJECTID":407966},"geometry":{"x":175977.23000000045,"y":2578622.4299999997}},{"attributes":{"ID":407991,"DIS_CODE":0,"TOWNNAME":"鹽水區","LI":"橋南里","LIN":"22鄰","STREET":"新中路","SECT":" ","MAREA":" ","LANE":"１０２巷","ALLEY":" ","HOUSE_NO":"１７號","E_COORD97":175962.19,"N_COORD97":2578604.2400000002,"ADDRESS":"新中路１０２巷１７號","OBJECTID":407967},"geometry":{"x":175962.19000000041,"y":2578604.2400000002}},{"attributes":{"ID":407992,"DIS_CODE":0,"TOWNNAME":"鹽水區","LI":"橋南里","LIN":"22鄰","STREET":"新中路","SECT":" ","MAREA":" ","LANE":"１０２巷","ALLEY":" ","HOUSE_NO":"１８號","E_COORD97":175972.95000000001,"N_COORD97":2578622.6400000001,"ADDRESS":"新中路１０２巷１８號","OBJECTID":407968},"geometry":{"x":175972.95000000112,"y":2578622.6400000043}},{"attributes":{"ID":407993,"DIS_CODE":0,"TOWNNAME":"鹽水區","LI":"橋南里","LIN":"22鄰","STREET":"新中路","SECT":" ","MAREA":" ","LANE":"１０２巷","ALLEY":" ","HOUSE_NO":"１９號","E_COORD97":175957.88,"N_COORD97":2578604.3799999999,"ADDRESS":"新中路１０２巷１９號","OBJECTID":407969},"geometry":{"x":175957.88000000082,"y":2578604.379999999}},{"attributes":{"ID":407994,"DIS_CODE":0,"TOWNNAME":"鹽水區","LI":"橋南里","LIN":"22鄰","STREET":"新中路","SECT":" ","MAREA":" ","LANE":"１０２巷","ALLEY":" ","HOUSE_NO":"２０號","E_COORD97":175968.67000000001,"N_COORD97":2578622.8500000001,"ADDRESS":"新中路１０２巷２０號","OBJECTID":407970},"geometry":{"x":175968.66999999993,"y":2578622.8499999996}},{"attributes":{"ID":407995,"DIS_CODE":0,"TOWNNAME":"中西區","LI":"福安里","LIN":"13鄰","STREET":"府前路","SECT":"一段","MAREA":" ","LANE":"２７２巷","ALLEY":" ","HOUSE_NO":"２號","E_COORD97":167983.48999999999,"N_COORD97":2543425.7599999998,"ADDRESS":"府前路一段２７２巷２號","OBJECTID":407971},"geometry":{"x":167983.49000000115,"y":2543425.7600000035}},{"attributes":{"ID":407996,"DIS_CODE":0,"TOWNNAME":"中西區","LI":"福安里","LIN":"13鄰","STREET":"府前路","SECT":"一段","MAREA":" ","LANE":"２７２巷","ALLEY":" ","HOUSE_NO":"６號","E_COORD97":167989.04999999999,"N_COORD97":2543435.96,"ADDRESS":"府前路一段２７２巷６號","OBJECTID":407972},"geometry":{"x":167989.05000000168,"y":2543435.9600000028}},{"attributes":{"ID":407997,"DIS_CODE":0,"TOWNNAME":"鹽水區","LI":"橋南里","LIN":"22鄰","STREET":"新中路","SECT":" ","MAREA":" ","LANE":"１０２巷","ALLEY":" ","HOUSE_NO":"２１號","E_COORD97":175953.72,"N_COORD97":2578604.75,"ADDRESS":"新中路１０２巷２１號","OBJECTID":407973},"geometry":{"x":175953.72000000067,"y":2578604.7500000019}},{"attributes":{"ID":407998,"DIS_CODE":0,"TOWNNAME":"鹽水區","LI":"橋南里","LIN":"22鄰","STREET":"新中路","SECT":" ","MAREA":" ","LANE":"１０２巷","ALLEY":" ","HOUSE_NO":"２２號","E_COORD97":175964.39000000001,"N_COORD97":2578623.0600000001,"ADDRESS":"新中路１０２巷２２號","OBJECTID":407974},"geometry":{"x":175964.3900000006,"y":2578623.0599999987}},{"attributes":{"ID":407999,"DIS_CODE":0,"TOWNNAME":"鹽水區","LI":"橋南里","LIN":"22鄰","STREET":"新中路","SECT":" ","MAREA":" ","LANE":"１０２巷","ALLEY":" ","HOUSE_NO":"２３號","E_COORD97":175949.60999999999,"N_COORD97":2578604.9199999999,"ADDRESS":"新中路１０２巷２３號","OBJECTID":407975},"geometry":{"x":175949.61000000034,"y":2578604.9199999999}},{"attributes":{"ID":408000,"DIS_CODE":0,"TOWNNAME":"鹽水區","LI":"橋南里","LIN":"22鄰","STREET":"新中路","SECT":" ","MAREA":" ","LANE":"１０２巷","ALLEY":" ","HOUSE_NO":"２４號","E_COORD97":175960.10999999999,"N_COORD97":2578623.27,"ADDRESS":"新中路１０２巷２４號","OBJECTID":407976},"geometry":{"x":175960.11000000127,"y":2578623.2699999996}},{"attributes":{"ID":408001,"DIS_CODE":0,"TOWNNAME":"鹽水區","LI":"橋南里","LIN":"22鄰","STREET":"新中路","SECT":" ","MAREA":" ","LANE":"１０２巷","ALLEY":" ","HOUSE_NO":"２６號","E_COORD97":175955.82000000001,"N_COORD97":2578623.4700000002,"ADDRESS":"新中路１０２巷２６號","OBJECTID":407977},"geometry":{"x":175955.82000000123,"y":2578623.4700000007}},{"attributes":{"ID":408002,"DIS_CODE":0,"TOWNNAME":"鹽水區","LI":"橋南里","LIN":"22鄰","STREET":"新中路","SECT":" ","MAREA":" ","LANE":"１０２巷","ALLEY":" ","HOUSE_NO":"２７號","E_COORD97":175936.70999999999,"N_COORD97":2578601.2000000002,"ADDRESS":"新中路１０２巷２７號","OBJECTID":407978},"geometry":{"x":175936.70999999903,"y":2578601.2000000011}},{"attributes":{"ID":408003,"DIS_CODE":0,"TOWNNAME":"鹽水區","LI":"橋南里","LIN":"22鄰","STREET":"新中路","SECT":" ","MAREA":" ","LANE":"１０２巷","ALLEY":" ","HOUSE_NO":"２８號","E_COORD97":175951.54000000001,"N_COORD97":2578623.6800000002,"ADDRESS":"新中路１０２巷２８號","OBJECTID":407979},"geometry":{"x":175951.53999999911,"y":2578623.6799999997}},{"attributes":{"ID":408004,"DIS_CODE":0,"TOWNNAME":"鹽水區","LI":"橋南里","LIN":"22鄰","STREET":"新中路","SECT":" ","MAREA":" ","LANE":"１０２巷","ALLEY":" ","HOUSE_NO":"２９號","E_COORD97":175932.45000000001,"N_COORD97":2578601.4199999999,"ADDRESS":"新中路１０２巷２９號","OBJECTID":407980},"geometry":{"x":175932.45000000112,"y":2578601.4200000018}},{"attributes":{"ID":408005,"DIS_CODE":0,"TOWNNAME":"鹽水區","LI":"橋南里","LIN":"22鄰","STREET":"新中路","SECT":" ","MAREA":" ","LANE":"１０２巷","ALLEY":" ","HOUSE_NO":"３０號","E_COORD97":175947.26000000001,"N_COORD97":2578623.8900000001,"ADDRESS":"新中路１０２巷３０號","OBJECTID":407981},"geometry":{"x":175947.26000000071,"y":2578623.8900000006}},{"attributes":{"ID":408006,"DIS_CODE":0,"TOWNNAME":"鹽水區","LI":"橋南里","LIN":"22鄰","STREET":"新中路","SECT":" ","MAREA":" ","LANE":"１０２巷","ALLEY":" ","HOUSE_NO":"３１號","E_COORD97":175928.20000000001,"N_COORD97":2578601.6400000001,"ADDRESS":"新中路１０２巷３１號","OBJECTID":407982},"geometry":{"x":175928.20000000019,"y":2578601.6400000006}},{"attributes":{"ID":408007,"DIS_CODE":0,"TOWNNAME":"鹽水區","LI":"橋南里","LIN":"22鄰","STREET":"新中路","SECT":" ","MAREA":" ","LANE":"１０２巷","ALLEY":" ","HOUSE_NO":"３２號","E_COORD97":175942.98000000001,"N_COORD97":2578624.1000000001,"ADDRESS":"新中路１０２巷３２號","OBJECTID":407983},"geometry":{"x":175942.98000000138,"y":2578624.0999999996}},{"attributes":{"ID":408008,"DIS_CODE":0,"TOWNNAME":"鹽水區","LI":"橋南里","LIN":"22鄰","STREET":"新中路","SECT":" ","MAREA":" ","LANE":"１０２巷","ALLEY":" ","HOUSE_NO":"３３號","E_COORD97":175923.94,"N_COORD97":2578601.8500000001,"ADDRESS":"新中路１０２巷３３號","OBJECTID":407984},"geometry":{"x":175923.94000000227,"y":2578601.8499999996}},{"attributes":{"ID":408009,"DIS_CODE":0,"TOWNNAME":"鹽水區","LI":"橋南里","LIN":"22鄰","STREET":"新中路","SECT":" ","MAREA":" ","LANE":"１０２巷","ALLEY":" ","HOUSE_NO":"４６號","E_COORD97":175913.01000000001,"N_COORD97":2578625.5600000001,"ADDRESS":"新中路１０２巷４６號","OBJECTID":407985},"geometry":{"x":175913.01000000071,"y":2578625.5600000005}},{"attributes":{"ID":408010,"DIS_CODE":0,"TOWNNAME":"鹽水區","LI":"橋南里","LIN":"22鄰","STREET":"新中路","SECT":" ","MAREA":" ","LANE":"１０２巷","ALLEY":" ","HOUSE_NO":"４７號","E_COORD97":175894.17000000001,"N_COORD97":2578603.3700000001,"ADDRESS":"新中路１０２巷４７號","OBJECTID":407986},"geometry":{"x":175894.16999999993,"y":2578603.370000001}},{"attributes":{"ID":408011,"DIS_CODE":0,"TOWNNAME":"鹽水區","LI":"橋南里","LIN":"22鄰","STREET":"新中路","SECT":" ","MAREA":" ","LANE":"１０２巷","ALLEY":" ","HOUSE_NO":"４８號","E_COORD97":175908.73000000001,"N_COORD97":2578625.77,"ADDRESS":"新中路１０２巷４８號","OBJECTID":407987},"geometry":{"x":175908.73000000138,"y":2578625.7700000014}},{"attributes":{"ID":408012,"DIS_CODE":0,"TOWNNAME":"中西區","LI":"福安里","LIN":"14鄰","STREET":"永福路","SECT":"二段","MAREA":" ","LANE":"３５巷","ALLEY":" ","HOUSE_NO":"３６號","E_COORD97":167963.95999999999,"N_COORD97":2543468.3700000001,"ADDRESS":"永福路二段３５巷３６號","OBJECTID":407988},"geometry":{"x":167963.95999999996,"y":2543468.3700000029}},{"attributes":{"ID":408013,"DIS_CODE":0,"TOWNNAME":"中西區","LI":"福安里","LIN":"14鄰","STREET":"永福路","SECT":"二段","MAREA":" ","LANE":"３５巷","ALLEY":" ","HOUSE_NO":"４６號","E_COORD97":167956.07000000001,"N_COORD97":2543469.2599999998,"ADDRESS":"永福路二段３５巷４６號","OBJECTID":407989},"geometry":{"x":167956.07000000123,"y":2543469.2599999998}},{"attributes":{"ID":408014,"DIS_CODE":0,"TOWNNAME":"中西區","LI":"福安里","LIN":"14鄰","STREET":"永福路","SECT":"二段","MAREA":" ","LANE":"３５巷","ALLEY":" ","HOUSE_NO":"５０號","E_COORD97":167945.32000000001,"N_COORD97":2543462.6400000001,"ADDRESS":"永福路二段３５巷５０號","OBJECTID":407990},"geometry":{"x":167945.32000000216,"y":2543462.6400000025}},{"attributes":{"ID":408015,"DIS_CODE":0,"TOWNNAME":"中西區","LI":"福安里","LIN":"14鄰","STREET":"永福路","SECT":"二段","MAREA":" ","LANE":"３５巷","ALLEY":" ","HOUSE_NO":"５２號","E_COORD97":167941.73999999999,"N_COORD97":2543462.9900000002,"ADDRESS":"永福路二段３５巷５２號","OBJECTID":407991},"geometry":{"x":167941.74000000022,"y":2543462.9900000021}},{"attributes":{"ID":408016,"DIS_CODE":0,"TOWNNAME":"中西區","LI":"福安里","LIN":"14鄰","STREET":"永福路","SECT":"二段","MAREA":" ","LANE":"３５巷","ALLEY":" ","HOUSE_NO":"５６號","E_COORD97":167948.73000000001,"N_COORD97":2543454.5800000001,"ADDRESS":"永福路二段３５巷５６號","OBJECTID":407992},"geometry":{"x":167948.73000000045,"y":2543454.5800000019}},{"attributes":{"ID":408017,"DIS_CODE":0,"TOWNNAME":"中西區","LI":"福安里","LIN":"14鄰","STREET":"永福路","SECT":"二段","MAREA":" ","LANE":"３５巷","ALLEY":" ","HOUSE_NO":"６４號","E_COORD97":167927.22,"N_COORD97":2543442.4100000001,"ADDRESS":"永福路二段３５巷６４號","OBJECTID":407993},"geometry":{"x":167927.22000000067,"y":2543442.410000002}},{"attributes":{"ID":408018,"DIS_CODE":0,"TOWNNAME":"中西區","LI":"福安里","LIN":"14鄰","STREET":"永福路","SECT":"二段","MAREA":" ","LANE":"３５巷","ALLEY":" ","HOUSE_NO":"６６號","E_COORD97":167918.62,"N_COORD97":2543441.3300000001,"ADDRESS":"永福路二段３５巷６６號","OBJECTID":407994},"geometry":{"x":167918.62000000011,"y":2543441.3300000001}},{"attributes":{"ID":408019,"DIS_CODE":0,"TOWNNAME":"鹽水區","LI":"橋南里","LIN":"22鄰","STREET":"新中路","SECT":" ","MAREA":" ","LANE":"１０２巷","ALLEY":" ","HOUSE_NO":"４９號","E_COORD97":175889.91,"N_COORD97":2578603.5899999999,"ADDRESS":"新中路１０２巷４９號","OBJECTID":407995},"geometry":{"x":175889.91000000201,"y":2578603.5900000017}},{"attributes":{"ID":408020,"DIS_CODE":0,"TOWNNAME":"鹽水區","LI":"橋南里","LIN":"22鄰","STREET":"新中路","SECT":" ","MAREA":" ","LANE":"１０２巷","ALLEY":" ","HOUSE_NO":"５０號","E_COORD97":175904.45000000001,"N_COORD97":2578625.98,"ADDRESS":"新中路１０２巷５０號","OBJECTID":407996},"geometry":{"x":175904.45000000019,"y":2578625.9800000004}},{"attributes":{"ID":408021,"DIS_CODE":0,"TOWNNAME":"鹽水區","LI":"橋南里","LIN":"22鄰","STREET":"新中路","SECT":" ","MAREA":" ","LANE":"１０２巷","ALLEY":" ","HOUSE_NO":"５１號","E_COORD97":175885.66,"N_COORD97":2578603.7999999998,"ADDRESS":"新中路１０２巷５１號","OBJECTID":407997},"geometry":{"x":175885.66000000015,"y":2578603.8000000007}},{"attributes":{"ID":408022,"DIS_CODE":0,"TOWNNAME":"鹽水區","LI":"橋南里","LIN":"22鄰","STREET":"新中路","SECT":" ","MAREA":" ","LANE":"１０２巷","ALLEY":" ","HOUSE_NO":"５２號","E_COORD97":175900.16,"N_COORD97":2578626.1899999999,"ADDRESS":"新中路１０２巷５２號","OBJECTID":407998},"geometry":{"x":175900.16000000201,"y":2578626.1900000013}},{"attributes":{"ID":408023,"DIS_CODE":0,"TOWNNAME":"鹽水區","LI":"橋南里","LIN":"22鄰","STREET":"新中路","SECT":" ","MAREA":" ","LANE":"１０２巷","ALLEY":" ","HOUSE_NO":"５３號","E_COORD97":175879.28,"N_COORD97":2578604.75,"ADDRESS":"新中路１０２巷５３號","OBJECTID":407999},"geometry":{"x":175879.28000000119,"y":2578604.7500000019}},{"attributes":{"ID":408024,"DIS_CODE":0,"TOWNNAME":"鹽水區","LI":"橋南里","LIN":"22鄰","STREET":"新中路","SECT":" ","MAREA":" ","LANE":"１０２巷","ALLEY":" ","HOUSE_NO":"５４號","E_COORD97":175895.88,"N_COORD97":2578626.3999999999,"ADDRESS":"新中路１０２巷５４號","OBJECTID":408000},"geometry":{"x":175895.87999999989,"y":2578626.4000000004}}]}