{"displayFieldName":"TOWNNAME","fieldAliases":{"ID":"ID","DIS_CODE":"DIS_CODE","TOWNNAME":"TOWNNAME","LI":"LI","LIN":"LIN","STREET":"STREET","SECT":"SECT","MAREA":"MAREA","LANE":"LANE","ALLEY":"ALLEY","HOUSE_NO":"HOUSE_NO","E_COORD97":"E_COORD97","N_COORD97":"N_COORD97","ADDRESS":"ADDRESS","OBJECTID":"OBJECTID"},"geometryType":"esriGeometryPoint","spatialReference":{"wkid":102443,"latestWkid":3826},"fields":[{"name":"ID","type":"esriFieldTypeDouble","alias":"ID"},{"name":"DIS_CODE","type":"esriFieldTypeInteger","alias":"DIS_CODE"},{"name":"TOWNNAME","type":"esriFieldTypeString","alias":"TOWNNAME","length":8},{"name":"LI","type":"esriFieldTypeString","alias":"LI","length":8},{"name":"LIN","type":"esriFieldTypeString","alias":"LIN","length":12},{"name":"STREET","type":"esriFieldTypeString","alias":"STREET","length":20},{"name":"SECT","type":"esriFieldTypeString","alias":"SECT","length":8},{"name":"MAREA","type":"esriFieldTypeString","alias":"MAREA","length":12},{"name":"LANE","type":"esriFieldTypeString","alias":"LANE","length":10},{"name":"ALLEY","type":"esriFieldTypeString","alias":"ALLEY","length":10},{"name":"HOUSE_NO","type":"esriFieldTypeString","alias":"HOUSE_NO","length":20},{"name":"E_COORD97","type":"esriFieldTypeDouble","alias":"E_COORD97"},{"name":"N_COORD97","type":"esriFieldTypeDouble","alias":"N_COORD97"},{"name":"ADDRESS","type":"esriFieldTypeString","alias":"ADDRESS","length":50},{"name":"OBJECTID","type":"esriFieldTypeOID","alias":"OBJECTID"}],"features":[{"attributes":{"ID":223405,"DIS_CODE":0,"TOWNNAME":"仁德區","LI":"仁義里","LIN":"52鄰","STREET":"仁義三街","SECT":" ","MAREA":" ","LANE":" ","ALLEY":" ","HOUSE_NO":"３２號","E_COORD97":173412.42000000001,"N_COORD97":2541082.0099999998,"ADDRESS":"仁義三街３２號","OBJECTID":223401},"geometry":{"x":173412.41999999993,"y":2541082.0100000016}},{"attributes":{"ID":223406,"DIS_CODE":0,"TOWNNAME":"佳里區","LI":"安西里","LIN":"28鄰","STREET":"安西路","SECT":" ","MAREA":" ","LANE":"３３５巷","ALLEY":" ","HOUSE_NO":"３８號","E_COORD97":165165.07000000001,"N_COORD97":2563044.6400000001,"ADDRESS":"安西路３３５巷３８號","OBJECTID":223402},"geometry":{"x":165165.06999999937,"y":2563044.6400000025}},{"attributes":{"ID":223407,"DIS_CODE":0,"TOWNNAME":"佳里區","LI":"安西里","LIN":"28鄰","STREET":"安西路","SECT":" ","MAREA":" ","LANE":"３３５巷","ALLEY":" ","HOUSE_NO":"４０號","E_COORD97":165159.37,"N_COORD97":2563044.8900000001,"ADDRESS":"安西路３３５巷４０號","OBJECTID":223403},"geometry":{"x":165159.37000000011,"y":2563044.8900000006}},{"attributes":{"ID":223408,"DIS_CODE":0,"TOWNNAME":"佳里區","LI":"安西里","LIN":"28鄰","STREET":"安西路","SECT":" ","MAREA":" ","LANE":"３３５巷","ALLEY":" ","HOUSE_NO":"４２號","E_COORD97":165149.14999999999,"N_COORD97":2563069.4199999999,"ADDRESS":"安西路３３５巷４２號","OBJECTID":223404},"geometry":{"x":165149.15000000037,"y":2563069.4200000018}},{"attributes":{"ID":223409,"DIS_CODE":0,"TOWNNAME":"佳里區","LI":"安西里","LIN":"28鄰","STREET":"安西路","SECT":" ","MAREA":" ","LANE":"３３５巷","ALLEY":" ","HOUSE_NO":"５０號","E_COORD97":165141.19,"N_COORD97":2563049.04,"ADDRESS":"安西路３３５巷５０號","OBJECTID":223405},"geometry":{"x":165141.19000000134,"y":2563049.0399999991}},{"attributes":{"ID":223410,"DIS_CODE":0,"TOWNNAME":"安南區","LI":"安富里","LIN":"28鄰","STREET":"府安路","SECT":"五段","MAREA":" ","LANE":"２３０巷","ALLEY":" ","HOUSE_NO":"７１號","E_COORD97":167438.57999999999,"N_COORD97":2547065.5,"ADDRESS":"府安路五段２３０巷７１號","OBJECTID":223406},"geometry":{"x":167438.58000000101,"y":2547065.5000000037}},{"attributes":{"ID":223411,"DIS_CODE":0,"TOWNNAME":"安南區","LI":"安富里","LIN":"28鄰","STREET":"府安路","SECT":"五段","MAREA":" ","LANE":"２３０巷","ALLEY":" ","HOUSE_NO":"６９號","E_COORD97":167439.09,"N_COORD97":2547063.3399999999,"ADDRESS":"府安路五段２３０巷６９號","OBJECTID":223407},"geometry":{"x":167439.08999999985,"y":2547063.3400000017}},{"attributes":{"ID":223412,"DIS_CODE":0,"TOWNNAME":"安南區","LI":"安富里","LIN":"28鄰","STREET":"府安路","SECT":"五段","MAREA":" ","LANE":"２３０巷","ALLEY":" ","HOUSE_NO":"６７號","E_COORD97":167439.35000000001,"N_COORD97":2547061.1800000002,"ADDRESS":"府安路五段２３０巷６７號","OBJECTID":223408},"geometry":{"x":167439.35000000149,"y":2547061.1800000016}},{"attributes":{"ID":223413,"DIS_CODE":0,"TOWNNAME":"安南區","LI":"安富里","LIN":"28鄰","STREET":"府安路","SECT":"五段","MAREA":" ","LANE":"２３０巷","ALLEY":" ","HOUSE_NO":"６５號","E_COORD97":167439.60000000001,"N_COORD97":2547059.1499999999,"ADDRESS":"府安路五段２３０巷６５號","OBJECTID":223409},"geometry":{"x":167439.60000000056,"y":2547059.1500000022}},{"attributes":{"ID":223414,"DIS_CODE":0,"TOWNNAME":"安南區","LI":"安富里","LIN":"28鄰","STREET":"府安路","SECT":"五段","MAREA":" ","LANE":"２３０巷","ALLEY":" ","HOUSE_NO":"５１號","E_COORD97":167444.17000000001,"N_COORD97":2547037.0499999998,"ADDRESS":"府安路五段２３０巷５１號","OBJECTID":223410},"geometry":{"x":167444.17000000179,"y":2547037.0500000007}},{"attributes":{"ID":223415,"DIS_CODE":0,"TOWNNAME":"安南區","LI":"安富里","LIN":"28鄰","STREET":"府安路","SECT":"五段","MAREA":" ","LANE":"２３０巷","ALLEY":" ","HOUSE_NO":"１號","E_COORD97":167471.48000000001,"N_COORD97":2546911.2000000002,"ADDRESS":"府安路五段２３０巷１號","OBJECTID":223411},"geometry":{"x":167471.48000000231,"y":2546911.2000000011}},{"attributes":{"ID":223416,"DIS_CODE":0,"TOWNNAME":"安南區","LI":"安富里","LIN":"28鄰","STREET":"府安路","SECT":"五段","MAREA":" ","LANE":"２３０巷","ALLEY":" ","HOUSE_NO":"３號","E_COORD97":167470.59,"N_COORD97":2546915.6400000001,"ADDRESS":"府安路五段２３０巷３號","OBJECTID":223412},"geometry":{"x":167470.59000000078,"y":2546915.6400000006}},{"attributes":{"ID":223417,"DIS_CODE":0,"TOWNNAME":"安南區","LI":"安富里","LIN":"28鄰","STREET":"府安路","SECT":"五段","MAREA":" ","LANE":"２３０巷","ALLEY":" ","HOUSE_NO":"５號","E_COORD97":167469.57000000001,"N_COORD97":2546919.7000000002,"ADDRESS":"府安路五段２３０巷５號","OBJECTID":223413},"geometry":{"x":167469.57000000123,"y":2546919.6999999993}},{"attributes":{"ID":223418,"DIS_CODE":0,"TOWNNAME":"安南區","LI":"安富里","LIN":"28鄰","STREET":"府安路","SECT":"五段","MAREA":" ","LANE":"２３０巷","ALLEY":" ","HOUSE_NO":"７號","E_COORD97":167469.32000000001,"N_COORD97":2546923.5099999998,"ADDRESS":"府安路五段２３０巷７號","OBJECTID":223414},"geometry":{"x":167469.32000000123,"y":2546923.5100000016}},{"attributes":{"ID":223419,"DIS_CODE":0,"TOWNNAME":"安南區","LI":"安富里","LIN":"28鄰","STREET":"府安路","SECT":"五段","MAREA":" ","LANE":"２３０巷","ALLEY":" ","HOUSE_NO":"６３號","E_COORD97":167440.23999999999,"N_COORD97":2547056.3599999999,"ADDRESS":"府安路五段２３０巷６３號","OBJECTID":223415},"geometry":{"x":167440.24000000022,"y":2547056.3600000013}},{"attributes":{"ID":223420,"DIS_CODE":0,"TOWNNAME":"歸仁區","LI":"南保里","LIN":"62鄰","STREET":"中山七街","SECT":" ","MAREA":" ","LANE":" ","ALLEY":" ","HOUSE_NO":"７５號","E_COORD97":176601.56,"N_COORD97":2540685.2599999998,"ADDRESS":"中山七街７５號","OBJECTID":223416},"geometry":{"x":176601.55999999959,"y":2540685.2599999998}},{"attributes":{"ID":223421,"DIS_CODE":0,"TOWNNAME":"歸仁區","LI":"南保里","LIN":"62鄰","STREET":"中山七街","SECT":" ","MAREA":" ","LANE":" ","ALLEY":" ","HOUSE_NO":"５１號","E_COORD97":176603.85999999999,"N_COORD97":2540742.2599999998,"ADDRESS":"中山七街５１號","OBJECTID":223417},"geometry":{"x":176603.86000000034,"y":2540742.2599999998}},{"attributes":{"ID":223422,"DIS_CODE":0,"TOWNNAME":"歸仁區","LI":"南保里","LIN":"62鄰","STREET":"中山七街","SECT":" ","MAREA":" ","LANE":" ","ALLEY":" ","HOUSE_NO":"５９號","E_COORD97":176602.76000000001,"N_COORD97":2540723.2599999998,"ADDRESS":"中山七街５９號","OBJECTID":223418},"geometry":{"x":176602.76000000071,"y":2540723.2599999979}},{"attributes":{"ID":223423,"DIS_CODE":0,"TOWNNAME":"安南區","LI":"安富里","LIN":"28鄰","STREET":"府安路","SECT":"五段","MAREA":" ","LANE":"２３０巷","ALLEY":" ","HOUSE_NO":"６１號","E_COORD97":167440.48999999999,"N_COORD97":2547054.2000000002,"ADDRESS":"府安路五段２３０巷６１號","OBJECTID":223419},"geometry":{"x":167440.48999999929,"y":2547054.2000000011}},{"attributes":{"ID":223424,"DIS_CODE":0,"TOWNNAME":"中西區","LI":"郡西里","LIN":"11鄰","STREET":"康樂街","SECT":" ","MAREA":" ","LANE":" ","ALLEY":" ","HOUSE_NO":"３號","E_COORD97":167338.03,"N_COORD97":2543392.4399999999,"ADDRESS":"康樂街３號","OBJECTID":223420},"geometry":{"x":167338.03000000026,"y":2543392.4399999995}},{"attributes":{"ID":223425,"DIS_CODE":0,"TOWNNAME":"永康區","LI":"中華里","LIN":"16鄰","STREET":"小東路","SECT":" ","MAREA":" ","LANE":" ","ALLEY":" ","HOUSE_NO":"５１３號","E_COORD97":171702.19,"N_COORD97":2544345.1400000001,"ADDRESS":"小東路５１３號","OBJECTID":223421},"geometry":{"x":171702.19000000041,"y":2544345.1400000006}},{"attributes":{"ID":223426,"DIS_CODE":0,"TOWNNAME":"永康區","LI":"中華里","LIN":"11鄰","STREET":"小東路","SECT":" ","MAREA":" ","LANE":" ","ALLEY":" ","HOUSE_NO":"５６１號","E_COORD97":171746.37,"N_COORD97":2544339.5299999998,"ADDRESS":"小東路５６１號","OBJECTID":223422},"geometry":{"x":171746.37000000011,"y":2544339.5300000012}},{"attributes":{"ID":223427,"DIS_CODE":0,"TOWNNAME":"歸仁區","LI":"南保里","LIN":"62鄰","STREET":"中山七街","SECT":" ","MAREA":" ","LANE":" ","ALLEY":" ","HOUSE_NO":"６７號","E_COORD97":176604.66,"N_COORD97":2540704.2599999998,"ADDRESS":"中山七街６７號","OBJECTID":223423},"geometry":{"x":176604.66000000015,"y":2540704.2600000016}},{"attributes":{"ID":223428,"DIS_CODE":0,"TOWNNAME":"永康區","LI":"中華里","LIN":"1鄰","STREET":"小東路","SECT":" ","MAREA":" ","LANE":" ","ALLEY":" ","HOUSE_NO":"６８９號之９０","E_COORD97":172059.73999999999,"N_COORD97":2544344.3399999999,"ADDRESS":"小東路６８９號之９０","OBJECTID":223424},"geometry":{"x":172059.74000000022,"y":2544344.3400000017}},{"attributes":{"ID":223429,"DIS_CODE":0,"TOWNNAME":"永康區","LI":"永康里","LIN":"28鄰","STREET":"永平街","SECT":" ","MAREA":" ","LANE":"４６９巷","ALLEY":" ","HOUSE_NO":"２５號","E_COORD97":174158.39999999999,"N_COORD97":2546914.9700000002,"ADDRESS":"永平街４６９巷２５號","OBJECTID":223425},"geometry":{"x":174158.4000000013,"y":2546914.9700000025}},{"attributes":{"ID":223430,"DIS_CODE":0,"TOWNNAME":"永康區","LI":"永康里","LIN":"28鄰","STREET":"永平街","SECT":" ","MAREA":" ","LANE":"４６９巷","ALLEY":" ","HOUSE_NO":"１８號","E_COORD97":174160.25,"N_COORD97":2546886.8700000001,"ADDRESS":"永平街４６９巷１８號","OBJECTID":223426},"geometry":{"x":174160.25000000093,"y":2546886.870000001}},{"attributes":{"ID":223431,"DIS_CODE":0,"TOWNNAME":"永康區","LI":"永康里","LIN":"28鄰","STREET":"永平街","SECT":" ","MAREA":" ","LANE":"４６９巷","ALLEY":" ","HOUSE_NO":"１３號","E_COORD97":174146.32999999999,"N_COORD97":2546888.9700000002,"ADDRESS":"永平街４６９巷１３號","OBJECTID":223427},"geometry":{"x":174146.33000000101,"y":2546888.9700000007}},{"attributes":{"ID":223432,"DIS_CODE":0,"TOWNNAME":"永康區","LI":"永康里","LIN":"28鄰","STREET":"永平街","SECT":" ","MAREA":" ","LANE":"４６９巷","ALLEY":" ","HOUSE_NO":"３號","E_COORD97":174134.48999999999,"N_COORD97":2546866.73,"ADDRESS":"永平街４６９巷３號","OBJECTID":223428},"geometry":{"x":174134.49000000022,"y":2546866.7300000004}},{"attributes":{"ID":223433,"DIS_CODE":0,"TOWNNAME":"永康區","LI":"中華里","LIN":"20鄰","STREET":"中華路","SECT":" ","MAREA":" ","LANE":" ","ALLEY":" ","HOUSE_NO":"６號之５","E_COORD97":171574.17999999999,"N_COORD97":2544414.9199999999,"ADDRESS":"中華路６號之５","OBJECTID":223429},"geometry":{"x":171574.1799999997,"y":2544414.9200000018}},{"attributes":{"ID":223434,"DIS_CODE":0,"TOWNNAME":"永康區","LI":"中華里","LIN":"14鄰","STREET":"忠義街","SECT":" ","MAREA":" ","LANE":" ","ALLEY":" ","HOUSE_NO":"３２號","E_COORD97":171729.34,"N_COORD97":2544424.3300000001,"ADDRESS":"忠義街３２號","OBJECTID":223430},"geometry":{"x":171729.33999999985,"y":2544424.3300000001}},{"attributes":{"ID":223435,"DIS_CODE":0,"TOWNNAME":"永康區","LI":"中華里","LIN":"14鄰","STREET":"忠義街","SECT":" ","MAREA":" ","LANE":" ","ALLEY":" ","HOUSE_NO":"２４號","E_COORD97":171729.34,"N_COORD97":2544408.0800000001,"ADDRESS":"忠義街２４號","OBJECTID":223431},"geometry":{"x":171729.33999999985,"y":2544408.0800000019}},{"attributes":{"ID":223436,"DIS_CODE":0,"TOWNNAME":"永康區","LI":"中華里","LIN":"1鄰","STREET":"小東路","SECT":" ","MAREA":" ","LANE":" ","ALLEY":" ","HOUSE_NO":"６８９號之９４","E_COORD97":172059.72,"N_COORD97":2544344.3399999999,"ADDRESS":"小東路６８９號之９４","OBJECTID":223432},"geometry":{"x":172059.7200000016,"y":2544344.3400000017}},{"attributes":{"ID":223437,"DIS_CODE":0,"TOWNNAME":"永康區","LI":"中華里","LIN":"1鄰","STREET":"小東路","SECT":" ","MAREA":" ","LANE":" ","ALLEY":" ","HOUSE_NO":"６８９號之６８","E_COORD97":172059.84,"N_COORD97":2544344.3399999999,"ADDRESS":"小東路６８９號之６８","OBJECTID":223433},"geometry":{"x":172059.83999999985,"y":2544344.3400000017}},{"attributes":{"ID":223438,"DIS_CODE":0,"TOWNNAME":"永康區","LI":"永康里","LIN":"28鄰","STREET":"永平街","SECT":" ","MAREA":" ","LANE":"４６９巷","ALLEY":" ","HOUSE_NO":"５號","E_COORD97":174136.89000000001,"N_COORD97":2546870.9700000002,"ADDRESS":"永平街４６９巷５號","OBJECTID":223434},"geometry":{"x":174136.8900000006,"y":2546870.9700000025}},{"attributes":{"ID":223439,"DIS_CODE":0,"TOWNNAME":"永康區","LI":"永康里","LIN":"28鄰","STREET":"永平街","SECT":" ","MAREA":" ","LANE":"４６９巷","ALLEY":" ","HOUSE_NO":"１號","E_COORD97":174132.64000000001,"N_COORD97":2546862.73,"ADDRESS":"永平街４６９巷１號","OBJECTID":223435},"geometry":{"x":174132.63999999966,"y":2546862.7300000004}},{"attributes":{"ID":223440,"DIS_CODE":0,"TOWNNAME":"永康區","LI":"永康里","LIN":"28鄰","STREET":"永平街","SECT":" ","MAREA":" ","LANE":"４６９巷","ALLEY":" ","HOUSE_NO":"３０號","E_COORD97":174169.14999999999,"N_COORD97":2546909.3700000001,"ADDRESS":"永平街４６９巷３０號","OBJECTID":223436},"geometry":{"x":174169.15000000037,"y":2546909.3700000029}},{"attributes":{"ID":223441,"DIS_CODE":0,"TOWNNAME":"永康區","LI":"中華里","LIN":"1鄰","STREET":"小東路","SECT":" ","MAREA":" ","LANE":" ","ALLEY":" ","HOUSE_NO":"６８９號之５３","E_COORD97":172059.79000000001,"N_COORD97":2544344.3399999999,"ADDRESS":"小東路６８９號之５３","OBJECTID":223437},"geometry":{"x":172059.79000000097,"y":2544344.3400000017}},{"attributes":{"ID":223442,"DIS_CODE":0,"TOWNNAME":"永康區","LI":"中華里","LIN":"12鄰","STREET":"忠勇街","SECT":" ","MAREA":" ","LANE":" ","ALLEY":" ","HOUSE_NO":"２３號","E_COORD97":171878.29000000001,"N_COORD97":2544412.25,"ADDRESS":"忠勇街２３號","OBJECTID":223438},"geometry":{"x":171878.29000000097,"y":2544412.2499999981}},{"attributes":{"ID":223443,"DIS_CODE":0,"TOWNNAME":"歸仁區","LI":"南保里","LIN":"62鄰","STREET":"中山七街","SECT":" ","MAREA":" ","LANE":" ","ALLEY":" ","HOUSE_NO":"６９號","E_COORD97":176604.66,"N_COORD97":2540699.2599999998,"ADDRESS":"中山七街６９號","OBJECTID":223439},"geometry":{"x":176604.66000000015,"y":2540699.2599999998}},{"attributes":{"ID":223444,"DIS_CODE":0,"TOWNNAME":"永康區","LI":"永康里","LIN":"28鄰","STREET":"永平街","SECT":" ","MAREA":" ","LANE":"４６９巷","ALLEY":" ","HOUSE_NO":"７號","E_COORD97":174138.94,"N_COORD97":2546875.7200000002,"ADDRESS":"永平街４６９巷７號","OBJECTID":223440},"geometry":{"x":174138.94000000227,"y":2546875.7200000025}},{"attributes":{"ID":223445,"DIS_CODE":0,"TOWNNAME":"永康區","LI":"永康里","LIN":"28鄰","STREET":"永平街","SECT":" ","MAREA":" ","LANE":"４６９巷","ALLEY":" ","HOUSE_NO":"２９號","E_COORD97":174161.03,"N_COORD97":2546927.8999999999,"ADDRESS":"永平街４６９巷２９號","OBJECTID":223441},"geometry":{"x":174161.03000000026,"y":2546927.9000000022}},{"attributes":{"ID":223446,"DIS_CODE":0,"TOWNNAME":"永康區","LI":"永康里","LIN":"28鄰","STREET":"永大路","SECT":"二段","MAREA":" ","LANE":"８３１巷","ALLEY":" ","HOUSE_NO":"２６號","E_COORD97":174218.89000000001,"N_COORD97":2546922.5,"ADDRESS":"永大路二段８３１巷２６號","OBJECTID":223442},"geometry":{"x":174218.8900000006,"y":2546922.5}},{"attributes":{"ID":223447,"DIS_CODE":0,"TOWNNAME":"永康區","LI":"中華里","LIN":"2鄰","STREET":"忠孝路","SECT":" ","MAREA":" ","LANE":" ","ALLEY":" ","HOUSE_NO":"５９號","E_COORD97":172069.75,"N_COORD97":2544493.29,"ADDRESS":"忠孝路５９號","OBJECTID":223443},"geometry":{"x":172069.74999999907,"y":2544493.290000001}},{"attributes":{"ID":223448,"DIS_CODE":0,"TOWNNAME":"永康區","LI":"中華里","LIN":"20鄰","STREET":"中華路","SECT":" ","MAREA":" ","LANE":" ","ALLEY":" ","HOUSE_NO":"６號之６","E_COORD97":171574.54999999999,"N_COORD97":2544419.4900000002,"ADDRESS":"中華路６號之６","OBJECTID":223444},"geometry":{"x":171574.55000000075,"y":2544419.4900000021}},{"attributes":{"ID":223449,"DIS_CODE":0,"TOWNNAME":"歸仁區","LI":"南保里","LIN":"62鄰","STREET":"中山七街","SECT":" ","MAREA":" ","LANE":" ","ALLEY":" ","HOUSE_NO":"４９號","E_COORD97":176603.85999999999,"N_COORD97":2540747.2599999998,"ADDRESS":"中山七街４９號","OBJECTID":223445},"geometry":{"x":176603.86000000034,"y":2540747.2600000035}},{"attributes":{"ID":223450,"DIS_CODE":0,"TOWNNAME":"永康區","LI":"龍潭里","LIN":"33鄰","STREET":"龍國街","SECT":" ","MAREA":" ","LANE":"３２０巷","ALLEY":" ","HOUSE_NO":"１２號","E_COORD97":174619.37,"N_COORD97":2547990.9500000002,"ADDRESS":"龍國街３２０巷１２號","OBJECTID":223446},"geometry":{"x":174619.37000000104,"y":2547990.9500000011}},{"attributes":{"ID":223451,"DIS_CODE":0,"TOWNNAME":"永康區","LI":"龍潭里","LIN":"33鄰","STREET":"龍國街","SECT":" ","MAREA":" ","LANE":"３２０巷","ALLEY":" ","HOUSE_NO":"１號","E_COORD97":174636.72,"N_COORD97":2547982.4199999999,"ADDRESS":"龍國街３２０巷１號","OBJECTID":223447},"geometry":{"x":174636.72000000067,"y":2547982.4200000018}},{"attributes":{"ID":223452,"DIS_CODE":0,"TOWNNAME":"歸仁區","LI":"南保里","LIN":"62鄰","STREET":"中山七街","SECT":" ","MAREA":" ","LANE":" ","ALLEY":" ","HOUSE_NO":"６５號","E_COORD97":176604.66,"N_COORD97":2540707.2599999998,"ADDRESS":"中山七街６５號","OBJECTID":223448},"geometry":{"x":176604.66000000015,"y":2540707.2600000016}},{"attributes":{"ID":223453,"DIS_CODE":0,"TOWNNAME":"永康區","LI":"中華里","LIN":"7鄰","STREET":"忠勇街","SECT":" ","MAREA":" ","LANE":" ","ALLEY":" ","HOUSE_NO":"３０號","E_COORD97":171900.62,"N_COORD97":2544417.7200000002,"ADDRESS":"忠勇街３０號","OBJECTID":223449},"geometry":{"x":171900.62000000011,"y":2544417.7200000025}},{"attributes":{"ID":223454,"DIS_CODE":0,"TOWNNAME":"南區","LI":"文南里","LIN":"28鄰","STREET":"中華西路","SECT":"一段","MAREA":" ","LANE":"１０９巷","ALLEY":" ","HOUSE_NO":"７４號五樓之８","E_COORD97":166218.06,"N_COORD97":2542473.9900000002,"ADDRESS":"中華西路一段１０９巷７４號五樓之８","OBJECTID":223450},"geometry":{"x":166218.06000000052,"y":2542473.9900000002}},{"attributes":{"ID":223455,"DIS_CODE":0,"TOWNNAME":"永康區","LI":"中華里","LIN":"15鄰","STREET":"華興街","SECT":" ","MAREA":" ","LANE":" ","ALLEY":" ","HOUSE_NO":"９７號底二層之２８","E_COORD97":171792.98999999999,"N_COORD97":2544563.1299999999,"ADDRESS":"華興街９７號底二層之２８","OBJECTID":223451},"geometry":{"x":171792.99000000115,"y":2544563.129999999}},{"attributes":{"ID":223456,"DIS_CODE":0,"TOWNNAME":"南區","LI":"文南里","LIN":"28鄰","STREET":"中華西路","SECT":"一段","MAREA":" ","LANE":"１０９巷","ALLEY":" ","HOUSE_NO":"７４號五樓之１０","E_COORD97":166219.34,"N_COORD97":2542476.23,"ADDRESS":"中華西路一段１０９巷７４號五樓之１０","OBJECTID":223452},"geometry":{"x":166219.34000000078,"y":2542476.2300000004}},{"attributes":{"ID":223457,"DIS_CODE":0,"TOWNNAME":"永康區","LI":"蔦松里","LIN":"1鄰","STREET":"蔦松二街","SECT":" ","MAREA":" ","LANE":"８７巷","ALLEY":" ","HOUSE_NO":"５號","E_COORD97":173673.32000000001,"N_COORD97":2549305.5,"ADDRESS":"蔦松二街８７巷５號","OBJECTID":223453},"geometry":{"x":173673.32000000216,"y":2549305.5}},{"attributes":{"ID":223458,"DIS_CODE":0,"TOWNNAME":"永康區","LI":"中華里","LIN":"1鄰","STREET":"小東路","SECT":" ","MAREA":" ","LANE":" ","ALLEY":" ","HOUSE_NO":"６８９號之５９","E_COORD97":172059.78,"N_COORD97":2544344.3399999999,"ADDRESS":"小東路６８９號之５９","OBJECTID":223454},"geometry":{"x":172059.78000000212,"y":2544344.3400000017}},{"attributes":{"ID":223459,"DIS_CODE":0,"TOWNNAME":"永康區","LI":"中華里","LIN":"1鄰","STREET":"小東路","SECT":" ","MAREA":" ","LANE":" ","ALLEY":" ","HOUSE_NO":"６８９號之９２","E_COORD97":172059.82999999999,"N_COORD97":2544344.3399999999,"ADDRESS":"小東路６８９號之９２","OBJECTID":223455},"geometry":{"x":172059.83000000101,"y":2544344.3400000017}},{"attributes":{"ID":223460,"DIS_CODE":0,"TOWNNAME":"永康區","LI":"中華里","LIN":"1鄰","STREET":"小東路","SECT":" ","MAREA":" ","LANE":" ","ALLEY":" ","HOUSE_NO":"６８９號之５７","E_COORD97":172059.76999999999,"N_COORD97":2544344.3399999999,"ADDRESS":"小東路６８９號之５７","OBJECTID":223456},"geometry":{"x":172059.77000000048,"y":2544344.3400000017}},{"attributes":{"ID":223461,"DIS_CODE":0,"TOWNNAME":"永康區","LI":"中華里","LIN":"1鄰","STREET":"小東路","SECT":" ","MAREA":" ","LANE":" ","ALLEY":" ","HOUSE_NO":"６８９號之８９","E_COORD97":172059.78,"N_COORD97":2544344.3399999999,"ADDRESS":"小東路６８９號之８９","OBJECTID":223457},"geometry":{"x":172059.78000000212,"y":2544344.3400000017}},{"attributes":{"ID":223462,"DIS_CODE":0,"TOWNNAME":"南區","LI":"文南里","LIN":"28鄰","STREET":"中華西路","SECT":"一段","MAREA":" ","LANE":"１０９巷","ALLEY":" ","HOUSE_NO":"９２號六樓之４","E_COORD97":166178.57000000001,"N_COORD97":2542484.7799999998,"ADDRESS":"中華西路一段１０９巷９２號六樓之４","OBJECTID":223458},"geometry":{"x":166178.5700000003,"y":2542484.7799999993}},{"attributes":{"ID":223463,"DIS_CODE":0,"TOWNNAME":"永康區","LI":"新樹里","LIN":"4鄰","STREET":"富強路","SECT":"二段","MAREA":" ","LANE":"３９８巷","ALLEY":" ","HOUSE_NO":"５５號","E_COORD97":175686.98999999999,"N_COORD97":2547670.29,"ADDRESS":"富強路二段３９８巷５５號","OBJECTID":223459},"geometry":{"x":175686.99000000022,"y":2547670.290000001}},{"attributes":{"ID":223464,"DIS_CODE":0,"TOWNNAME":"永康區","LI":"網寮里","LIN":"16鄰","STREET":"永二街","SECT":" ","MAREA":" ","LANE":"２４４巷","ALLEY":" ","HOUSE_NO":"６０號","E_COORD97":173263.88,"N_COORD97":2546700.79,"ADDRESS":"永二街２４４巷６０號","OBJECTID":223460},"geometry":{"x":173263.87999999896,"y":2546700.790000001}},{"attributes":{"ID":223465,"DIS_CODE":0,"TOWNNAME":"永康區","LI":"中華里","LIN":"12鄰","STREET":"忠勇街","SECT":" ","MAREA":" ","LANE":" ","ALLEY":" ","HOUSE_NO":"３１號","E_COORD97":171856.13,"N_COORD97":2544420.6899999999,"ADDRESS":"忠勇街３１號","OBJECTID":223461},"geometry":{"x":171856.12999999989,"y":2544420.6900000013}},{"attributes":{"ID":223466,"DIS_CODE":0,"TOWNNAME":"永康區","LI":"\u25A0行里","LIN":"45鄰","STREET":"中正六街","SECT":" ","MAREA":" ","LANE":" ","ALLEY":" ","HOUSE_NO":"１８０之１號","E_COORD97":171852.37,"N_COORD97":2548800.7999999998,"ADDRESS":"中正六街１８０之１號","OBJECTID":223462},"geometry":{"x":171852.37000000104,"y":2548800.8000000026}},{"attributes":{"ID":223467,"DIS_CODE":0,"TOWNNAME":"永康區","LI":"龍潭里","LIN":"45鄰","STREET":"國民路","SECT":" ","MAREA":" ","LANE":" ","ALLEY":" ","HOUSE_NO":"２７７號","E_COORD97":174620.23000000001,"N_COORD97":2546863.8199999998,"ADDRESS":"國民路２７７號","OBJECTID":223463},"geometry":{"x":174620.23000000138,"y":2546863.8200000022}},{"attributes":{"ID":223468,"DIS_CODE":0,"TOWNNAME":"永康區","LI":"龍潭里","LIN":"45鄰","STREET":"西勢路","SECT":" ","MAREA":" ","LANE":" ","ALLEY":" ","HOUSE_NO":"６７２號","E_COORD97":174693.73000000001,"N_COORD97":2546797.0499999998,"ADDRESS":"西勢路６７２號","OBJECTID":223464},"geometry":{"x":174693.73000000138,"y":2546797.0500000007}},{"attributes":{"ID":223469,"DIS_CODE":0,"TOWNNAME":"永康區","LI":"龍潭里","LIN":"34鄰","STREET":"龍埔街","SECT":" ","MAREA":" ","LANE":"１８１巷","ALLEY":" ","HOUSE_NO":"１２號","E_COORD97":174448.89999999999,"N_COORD97":2548210.9399999999,"ADDRESS":"龍埔街１８１巷１２號","OBJECTID":223465},"geometry":{"x":174448.90000000037,"y":2548210.9399999995}},{"attributes":{"ID":223470,"DIS_CODE":0,"TOWNNAME":"永康區","LI":"西灣里","LIN":"45鄰","STREET":"永華路","SECT":" ","MAREA":" ","LANE":" ","ALLEY":" ","HOUSE_NO":"２２１號之３","E_COORD97":174067.28,"N_COORD97":2545666.1400000001,"ADDRESS":"永華路２２１號之３","OBJECTID":223466},"geometry":{"x":174067.28000000119,"y":2545666.1400000025}},{"attributes":{"ID":223471,"DIS_CODE":0,"TOWNNAME":"永康區","LI":"龍潭里","LIN":"45鄰","STREET":"國民路","SECT":" ","MAREA":" ","LANE":" ","ALLEY":" ","HOUSE_NO":"２７９號","E_COORD97":174622.14999999999,"N_COORD97":2546859.8199999998,"ADDRESS":"國民路２７９號","OBJECTID":223467},"geometry":{"x":174622.15000000224,"y":2546859.8200000003}},{"attributes":{"ID":223472,"DIS_CODE":0,"TOWNNAME":"永康區","LI":"\u25A0行里","LIN":"28鄰","STREET":"竹林街","SECT":" ","MAREA":" ","LANE":"２８巷","ALLEY":" ","HOUSE_NO":"７號","E_COORD97":172632.76000000001,"N_COORD97":2548882.7400000002,"ADDRESS":"竹林街２８巷７號","OBJECTID":223468},"geometry":{"x":172632.76000000071,"y":2548882.7400000021}},{"attributes":{"ID":223473,"DIS_CODE":0,"TOWNNAME":"永康區","LI":"龍潭里","LIN":"45鄰","STREET":"國民路","SECT":" ","MAREA":" ","LANE":" ","ALLEY":" ","HOUSE_NO":"２７５號","E_COORD97":174618.39999999999,"N_COORD97":2546867.8199999998,"ADDRESS":"國民路２７５號","OBJECTID":223469},"geometry":{"x":174618.40000000037,"y":2546867.8200000022}},{"attributes":{"ID":223474,"DIS_CODE":0,"TOWNNAME":"永康區","LI":"中華里","LIN":"16鄰","STREET":"忠義街","SECT":" ","MAREA":" ","LANE":" ","ALLEY":" ","HOUSE_NO":"２３號","E_COORD97":171707.45000000001,"N_COORD97":2544411.8700000001,"ADDRESS":"忠義街２３號","OBJECTID":223470},"geometry":{"x":171707.45000000019,"y":2544411.870000001}},{"attributes":{"ID":223475,"DIS_CODE":0,"TOWNNAME":"西港區","LI":"慶安里","LIN":"28鄰","STREET":"新興街","SECT":" ","MAREA":" ","LANE":"１５巷","ALLEY":" ","HOUSE_NO":"１號五樓之５","E_COORD97":168201.17000000001,"N_COORD97":2557763.6000000001,"ADDRESS":"新興街１５巷１號五樓之５","OBJECTID":223471},"geometry":{"x":168201.16999999993,"y":2557763.5999999996}},{"attributes":{"ID":223476,"DIS_CODE":0,"TOWNNAME":"永康區","LI":"中華里","LIN":"16鄰","STREET":"忠義街","SECT":" ","MAREA":" ","LANE":" ","ALLEY":" ","HOUSE_NO":"２１號","E_COORD97":171707.45000000001,"N_COORD97":2544408.0299999998,"ADDRESS":"忠義街２１號","OBJECTID":223472},"geometry":{"x":171707.45000000019,"y":2544408.0300000012}},{"attributes":{"ID":223477,"DIS_CODE":0,"TOWNNAME":"永康區","LI":"蔦松里","LIN":"1鄰","STREET":"蔦松二街","SECT":" ","MAREA":" ","LANE":"８７巷","ALLEY":" ","HOUSE_NO":"９號","E_COORD97":173669.09,"N_COORD97":2549297.9900000002,"ADDRESS":"蔦松二街８７巷９號","OBJECTID":223473},"geometry":{"x":173669.08999999985,"y":2549297.9900000021}},{"attributes":{"ID":223478,"DIS_CODE":0,"TOWNNAME":"永康區","LI":"\u25A0行里","LIN":"19鄰","STREET":"中正路","SECT":" ","MAREA":" ","LANE":"６３５巷","ALLEY":" ","HOUSE_NO":"３７號","E_COORD97":171666.42000000001,"N_COORD97":2548811.5800000001,"ADDRESS":"中正路６３５巷３７號","OBJECTID":223474},"geometry":{"x":171666.41999999993,"y":2548811.5800000019}},{"attributes":{"ID":223479,"DIS_CODE":0,"TOWNNAME":"永康區","LI":"龍潭里","LIN":"36鄰","STREET":"中山北路","SECT":" ","MAREA":" ","LANE":"１６４巷","ALLEY":" ","HOUSE_NO":"１５５號之３","E_COORD97":174694.69,"N_COORD97":2547430.2000000002,"ADDRESS":"中山北路１６４巷１５５號之３","OBJECTID":223475},"geometry":{"x":174694.69000000041,"y":2547430.2000000011}},{"attributes":{"ID":223480,"DIS_CODE":0,"TOWNNAME":"永康區","LI":"復興里","LIN":"19鄰","STREET":"復興路","SECT":" ","MAREA":" ","LANE":"３５６巷","ALLEY":" ","HOUSE_NO":"１６號","E_COORD97":172270.79000000001,"N_COORD97":2544391.77,"ADDRESS":"復興路３５６巷１６號","OBJECTID":223476},"geometry":{"x":172270.79000000004,"y":2544391.7700000014}},{"attributes":{"ID":223481,"DIS_CODE":0,"TOWNNAME":"永康區","LI":"中華里","LIN":"1鄰","STREET":"小東路","SECT":" ","MAREA":" ","LANE":" ","ALLEY":" ","HOUSE_NO":"６８９號之７４","E_COORD97":172059.72,"N_COORD97":2544344.3399999999,"ADDRESS":"小東路６８９號之７４","OBJECTID":223477},"geometry":{"x":172059.7200000016,"y":2544344.3400000017}},{"attributes":{"ID":223482,"DIS_CODE":0,"TOWNNAME":"西港區","LI":"慶安里","LIN":"28鄰","STREET":"新興街","SECT":" ","MAREA":" ","LANE":"１５巷","ALLEY":" ","HOUSE_NO":"１號七樓之１","E_COORD97":168201.17000000001,"N_COORD97":2557763.6000000001,"ADDRESS":"新興街１５巷１號七樓之１","OBJECTID":223478},"geometry":{"x":168201.16999999993,"y":2557763.5999999996}},{"attributes":{"ID":223483,"DIS_CODE":0,"TOWNNAME":"西港區","LI":"慶安里","LIN":"28鄰","STREET":"新興街","SECT":" ","MAREA":" ","LANE":"１５巷","ALLEY":" ","HOUSE_NO":"１號七樓之２","E_COORD97":168201.17000000001,"N_COORD97":2557763.6000000001,"ADDRESS":"新興街１５巷１號七樓之２","OBJECTID":223479},"geometry":{"x":168201.16999999993,"y":2557763.5999999996}},{"attributes":{"ID":223484,"DIS_CODE":0,"TOWNNAME":"西港區","LI":"慶安里","LIN":"28鄰","STREET":"新興街","SECT":" ","MAREA":" ","LANE":"１５巷","ALLEY":" ","HOUSE_NO":"１號七樓之３","E_COORD97":168201.17000000001,"N_COORD97":2557763.6000000001,"ADDRESS":"新興街１５巷１號七樓之３","OBJECTID":223480},"geometry":{"x":168201.16999999993,"y":2557763.5999999996}},{"attributes":{"ID":223485,"DIS_CODE":0,"TOWNNAME":"永康區","LI":"中華里","LIN":"1鄰","STREET":"小東路","SECT":" ","MAREA":" ","LANE":" ","ALLEY":" ","HOUSE_NO":"６８９號之５０","E_COORD97":172059.73999999999,"N_COORD97":2544344.3399999999,"ADDRESS":"小東路６８９號之５０","OBJECTID":223481},"geometry":{"x":172059.74000000022,"y":2544344.3400000017}},{"attributes":{"ID":223486,"DIS_CODE":0,"TOWNNAME":"永康區","LI":"中華里","LIN":"12鄰","STREET":"忠勇街","SECT":" ","MAREA":" ","LANE":" ","ALLEY":" ","HOUSE_NO":"２１號","E_COORD97":171878.29000000001,"N_COORD97":2544408.5699999998,"ADDRESS":"忠勇街２１號","OBJECTID":223482},"geometry":{"x":171878.29000000097,"y":2544408.5700000022}},{"attributes":{"ID":223487,"DIS_CODE":0,"TOWNNAME":"東區","LI":"虎尾里","LIN":"17鄰","STREET":"富農街","SECT":"一段","MAREA":" ","LANE":" ","ALLEY":" ","HOUSE_NO":"３９號","E_COORD97":171505.48999999999,"N_COORD97":2542217.46,"ADDRESS":"富農街一段３９號","OBJECTID":223483},"geometry":{"x":171505.49000000022,"y":2542217.4600000009}},{"attributes":{"ID":223488,"DIS_CODE":0,"TOWNNAME":"西港區","LI":"慶安里","LIN":"28鄰","STREET":"新興街","SECT":" ","MAREA":" ","LANE":"１５巷","ALLEY":" ","HOUSE_NO":"１號三樓之１","E_COORD97":168201.17000000001,"N_COORD97":2557763.6000000001,"ADDRESS":"新興街１５巷１號三樓之１","OBJECTID":223484},"geometry":{"x":168201.16999999993,"y":2557763.5999999996}},{"attributes":{"ID":223489,"DIS_CODE":0,"TOWNNAME":"西港區","LI":"慶安里","LIN":"28鄰","STREET":"新興街","SECT":" ","MAREA":" ","LANE":"１５巷","ALLEY":" ","HOUSE_NO":"１號三樓之２","E_COORD97":168201.17000000001,"N_COORD97":2557763.6000000001,"ADDRESS":"新興街１５巷１號三樓之２","OBJECTID":223485},"geometry":{"x":168201.16999999993,"y":2557763.5999999996}},{"attributes":{"ID":223490,"DIS_CODE":0,"TOWNNAME":"永康區","LI":"龍潭里","LIN":"45鄰","STREET":"西勢路","SECT":" ","MAREA":" ","LANE":" ","ALLEY":" ","HOUSE_NO":"５８８號","E_COORD97":174917.37,"N_COORD97":2546832.04,"ADDRESS":"西勢路５８８號","OBJECTID":223486},"geometry":{"x":174917.37000000104,"y":2546832.0399999991}},{"attributes":{"ID":223491,"DIS_CODE":0,"TOWNNAME":"西港區","LI":"慶安里","LIN":"28鄰","STREET":"新興街","SECT":" ","MAREA":" ","LANE":"１５巷","ALLEY":" ","HOUSE_NO":"１號三樓之３","E_COORD97":168201.17000000001,"N_COORD97":2557763.6000000001,"ADDRESS":"新興街１５巷１號三樓之３","OBJECTID":223487},"geometry":{"x":168201.16999999993,"y":2557763.5999999996}},{"attributes":{"ID":223492,"DIS_CODE":0,"TOWNNAME":"永康區","LI":"中華里","LIN":"16鄰","STREET":"忠義街","SECT":" ","MAREA":" ","LANE":" ","ALLEY":" ","HOUSE_NO":"１７號","E_COORD97":171707.35000000001,"N_COORD97":2544399.3100000001,"ADDRESS":"忠義街１７號","OBJECTID":223488},"geometry":{"x":171707.34999999963,"y":2544399.3100000024}},{"attributes":{"ID":223493,"DIS_CODE":0,"TOWNNAME":"西港區","LI":"慶安里","LIN":"28鄰","STREET":"新興街","SECT":" ","MAREA":" ","LANE":"１５巷","ALLEY":" ","HOUSE_NO":"１號五樓之１","E_COORD97":168201.17000000001,"N_COORD97":2557763.6000000001,"ADDRESS":"新興街１５巷１號五樓之１","OBJECTID":223489},"geometry":{"x":168201.16999999993,"y":2557763.5999999996}},{"attributes":{"ID":223494,"DIS_CODE":0,"TOWNNAME":"西港區","LI":"慶安里","LIN":"28鄰","STREET":"新興街","SECT":" ","MAREA":" ","LANE":"１５巷","ALLEY":" ","HOUSE_NO":"１號五樓之２","E_COORD97":168201.17000000001,"N_COORD97":2557763.6000000001,"ADDRESS":"新興街１５巷１號五樓之２","OBJECTID":223490},"geometry":{"x":168201.16999999993,"y":2557763.5999999996}},{"attributes":{"ID":223495,"DIS_CODE":0,"TOWNNAME":"西港區","LI":"慶安里","LIN":"28鄰","STREET":"新興街","SECT":" ","MAREA":" ","LANE":"１５巷","ALLEY":" ","HOUSE_NO":"１號五樓之３","E_COORD97":168201.17000000001,"N_COORD97":2557763.6000000001,"ADDRESS":"新興街１５巷１號五樓之３","OBJECTID":223491},"geometry":{"x":168201.16999999993,"y":2557763.5999999996}},{"attributes":{"ID":223496,"DIS_CODE":0,"TOWNNAME":"西港區","LI":"慶安里","LIN":"28鄰","STREET":"新興街","SECT":" ","MAREA":" ","LANE":"１５巷","ALLEY":" ","HOUSE_NO":"１號六樓之１","E_COORD97":168201.17000000001,"N_COORD97":2557763.6000000001,"ADDRESS":"新興街１５巷１號六樓之１","OBJECTID":223492},"geometry":{"x":168201.16999999993,"y":2557763.5999999996}},{"attributes":{"ID":223497,"DIS_CODE":0,"TOWNNAME":"永康區","LI":"三合里","LIN":"5鄰","STREET":"南工街","SECT":" ","MAREA":" ","LANE":" ","ALLEY":" ","HOUSE_NO":"９４號","E_COORD97":172104.20999999999,"N_COORD97":2545711.8700000001,"ADDRESS":"南工街９４號","OBJECTID":223493},"geometry":{"x":172104.21000000089,"y":2545711.8700000029}},{"attributes":{"ID":223498,"DIS_CODE":0,"TOWNNAME":"永康區","LI":"中華里","LIN":"14鄰","STREET":"忠義街","SECT":" ","MAREA":" ","LANE":" ","ALLEY":" ","HOUSE_NO":"１２之１號","E_COORD97":171731.42000000001,"N_COORD97":2544386.52,"ADDRESS":"忠義街１２之１號","OBJECTID":223494},"geometry":{"x":171731.42000000179,"y":2544386.5200000033}},{"attributes":{"ID":223499,"DIS_CODE":0,"TOWNNAME":"永康區","LI":"中華里","LIN":"14鄰","STREET":"忠義街","SECT":" ","MAREA":" ","LANE":" ","ALLEY":" ","HOUSE_NO":"１２號","E_COORD97":171728.92000000001,"N_COORD97":2544381.3599999999,"ADDRESS":"忠義街１２號","OBJECTID":223495},"geometry":{"x":171728.91999999993,"y":2544381.3600000013}},{"attributes":{"ID":223500,"DIS_CODE":0,"TOWNNAME":"永康區","LI":"中華里","LIN":"7鄰","STREET":"忠勇街","SECT":" ","MAREA":" ","LANE":" ","ALLEY":" ","HOUSE_NO":"２４號","E_COORD97":171900.39999999999,"N_COORD97":2544405.3799999999,"ADDRESS":"忠勇街２４號","OBJECTID":223496},"geometry":{"x":171900.4000000013,"y":2544405.379999999}},{"attributes":{"ID":223501,"DIS_CODE":0,"TOWNNAME":"西港區","LI":"慶安里","LIN":"28鄰","STREET":"新興街","SECT":" ","MAREA":" ","LANE":"１５巷","ALLEY":" ","HOUSE_NO":"１號六樓之２","E_COORD97":168201.17000000001,"N_COORD97":2557763.6000000001,"ADDRESS":"新興街１５巷１號六樓之２","OBJECTID":223497},"geometry":{"x":168201.16999999993,"y":2557763.5999999996}},{"attributes":{"ID":223502,"DIS_CODE":0,"TOWNNAME":"永康區","LI":"中華里","LIN":"1鄰","STREET":"小東路","SECT":" ","MAREA":" ","LANE":" ","ALLEY":" ","HOUSE_NO":"６８９號之１０４","E_COORD97":172060.97,"N_COORD97":2544344.3399999999,"ADDRESS":"小東路６８９號之１０４","OBJECTID":223498},"geometry":{"x":172060.96999999974,"y":2544344.3400000017}},{"attributes":{"ID":223503,"DIS_CODE":0,"TOWNNAME":"西港區","LI":"慶安里","LIN":"28鄰","STREET":"新興街","SECT":" ","MAREA":" ","LANE":"１５巷","ALLEY":" ","HOUSE_NO":"１號六樓之３","E_COORD97":168201.17000000001,"N_COORD97":2557763.6000000001,"ADDRESS":"新興街１５巷１號六樓之３","OBJECTID":223499},"geometry":{"x":168201.16999999993,"y":2557763.5999999996}},{"attributes":{"ID":223504,"DIS_CODE":0,"TOWNNAME":"西港區","LI":"慶安里","LIN":"28鄰","STREET":"新興街","SECT":" ","MAREA":" ","LANE":"１５巷","ALLEY":" ","HOUSE_NO":"１號四樓之１","E_COORD97":168201.17000000001,"N_COORD97":2557763.6000000001,"ADDRESS":"新興街１５巷１號四樓之１","OBJECTID":223500},"geometry":{"x":168201.16999999993,"y":2557763.5999999996}},{"attributes":{"ID":223505,"DIS_CODE":0,"TOWNNAME":"永康區","LI":"龍潭里","LIN":"45鄰","STREET":"西勢路","SECT":" ","MAREA":" ","LANE":" ","ALLEY":" ","HOUSE_NO":"６６６號","E_COORD97":174712.5,"N_COORD97":2546793.6400000001,"ADDRESS":"西勢路６６６號","OBJECTID":223501},"geometry":{"x":174712.5,"y":2546793.6399999987}},{"attributes":{"ID":223506,"DIS_CODE":0,"TOWNNAME":"西港區","LI":"慶安里","LIN":"28鄰","STREET":"新興街","SECT":" ","MAREA":" ","LANE":"１５巷","ALLEY":" ","HOUSE_NO":"１號四樓之３","E_COORD97":168201.17000000001,"N_COORD97":2557763.6000000001,"ADDRESS":"新興街１５巷１號四樓之３","OBJECTID":223502},"geometry":{"x":168201.16999999993,"y":2557763.5999999996}},{"attributes":{"ID":223507,"DIS_CODE":0,"TOWNNAME":"西港區","LI":"慶安里","LIN":"28鄰","STREET":"新興街","SECT":" ","MAREA":" ","LANE":"１５巷","ALLEY":" ","HOUSE_NO":"１號四樓之４","E_COORD97":168201.17000000001,"N_COORD97":2557763.6000000001,"ADDRESS":"新興街１５巷１號四樓之４","OBJECTID":223503},"geometry":{"x":168201.16999999993,"y":2557763.5999999996}},{"attributes":{"ID":223508,"DIS_CODE":0,"TOWNNAME":"永康區","LI":"網寮里","LIN":"22鄰","STREET":"永春街","SECT":" ","MAREA":" ","LANE":"２５巷","ALLEY":" ","HOUSE_NO":"１５號之７","E_COORD97":173709.53,"N_COORD97":2546262.29,"ADDRESS":"永春街２５巷１５號之７","OBJECTID":223504},"geometry":{"x":173709.53000000119,"y":2546262.2900000028}},{"attributes":{"ID":223509,"DIS_CODE":0,"TOWNNAME":"永康區","LI":"中華里","LIN":"11鄰","STREET":"小東路","SECT":" ","MAREA":" ","LANE":" ","ALLEY":" ","HOUSE_NO":"５７３號","E_COORD97":171769.67000000001,"N_COORD97":2544339.9500000002,"ADDRESS":"小東路５７３號","OBJECTID":223505},"geometry":{"x":171769.66999999993,"y":2544339.9500000011}},{"attributes":{"ID":223510,"DIS_CODE":0,"TOWNNAME":"永康區","LI":"\u25A0洲里","LIN":"2鄰","STREET":"\u25A0行路","SECT":" ","MAREA":" ","LANE":" ","ALLEY":" ","HOUSE_NO":"１０號","E_COORD97":171734.07999999999,"N_COORD97":2549144.5,"ADDRESS":"\u25A0行路１０號","OBJECTID":223506},"geometry":{"x":171734.08000000101,"y":2549144.5000000019}},{"attributes":{"ID":223511,"DIS_CODE":0,"TOWNNAME":"永康區","LI":"埔園里","LIN":" ","STREET":"中山路","SECT":" ","MAREA":" ","LANE":" ","ALLEY":" ","HOUSE_NO":"１７２號","E_COORD97":173763.34,"N_COORD97":2547835.52,"ADDRESS":"中山路１７２號","OBJECTID":223507},"geometry":{"x":173763.34000000078,"y":2547835.5200000014}},{"attributes":{"ID":223512,"DIS_CODE":0,"TOWNNAME":"東區","LI":"圍下里","LIN":"11鄰","STREET":"青年路","SECT":" ","MAREA":" ","LANE":" ","ALLEY":" ","HOUSE_NO":"２２９號","E_COORD97":169243.84,"N_COORD97":2543569.27,"ADDRESS":"青年路２２９號","OBJECTID":223508},"geometry":{"x":169243.84000000078,"y":2543569.2700000014}},{"attributes":{"ID":223513,"DIS_CODE":0,"TOWNNAME":"東區","LI":"圍下里","LIN":"11鄰","STREET":"青年路","SECT":" ","MAREA":" ","LANE":" ","ALLEY":" ","HOUSE_NO":"２３１號","E_COORD97":169247.28,"N_COORD97":2543568.8999999999,"ADDRESS":"青年路２３１號","OBJECTID":223509},"geometry":{"x":169247.28000000026,"y":2543568.9000000022}},{"attributes":{"ID":223514,"DIS_CODE":0,"TOWNNAME":"仁德區","LI":"仁義里","LIN":"45鄰","STREET":"仁義路","SECT":" ","MAREA":" ","LANE":" ","ALLEY":" ","HOUSE_NO":"８２號","E_COORD97":173579.17000000001,"N_COORD97":2540953.02,"ADDRESS":"仁義路８２號","OBJECTID":223510},"geometry":{"x":173579.17000000179,"y":2540953.0200000014}},{"attributes":{"ID":223515,"DIS_CODE":0,"TOWNNAME":"永康區","LI":"龍潭里","LIN":"38鄰","STREET":"中山北路","SECT":" ","MAREA":" ","LANE":"１６４巷","ALLEY":" ","HOUSE_NO":"６０之３號","E_COORD97":174371.28,"N_COORD97":2547390.8300000001,"ADDRESS":"中山北路１６４巷６０之３號","OBJECTID":223511},"geometry":{"x":174371.28000000026,"y":2547390.8300000001}},{"attributes":{"ID":223516,"DIS_CODE":0,"TOWNNAME":"新營區","LI":"王公里","LIN":"22鄰","STREET":"大德街","SECT":" ","MAREA":" ","LANE":" ","ALLEY":" ","HOUSE_NO":"１０２號","E_COORD97":180439.84,"N_COORD97":2579499.8999999999,"ADDRESS":"大德街１０２號","OBJECTID":223512},"geometry":{"x":180439.83999999892,"y":2579499.9000000022}},{"attributes":{"ID":223517,"DIS_CODE":0,"TOWNNAME":"永康區","LI":"龍潭里","LIN":" ","STREET":"龍潭街","SECT":" ","MAREA":" ","LANE":" ","ALLEY":" ","HOUSE_NO":"１０９號","E_COORD97":174854.5,"N_COORD97":2548129.46,"ADDRESS":"龍潭街１０９號","OBJECTID":223513},"geometry":{"x":174854.5,"y":2548129.4600000028}},{"attributes":{"ID":223518,"DIS_CODE":0,"TOWNNAME":"永康區","LI":"網寮里","LIN":"20鄰","STREET":"永二街","SECT":" ","MAREA":" ","LANE":"２４５巷","ALLEY":" ","HOUSE_NO":"１８號","E_COORD97":173304.79999999999,"N_COORD97":2546206,"ADDRESS":"永二街２４５巷１８號","OBJECTID":223514},"geometry":{"x":173304.79999999981,"y":2546206}},{"attributes":{"ID":223519,"DIS_CODE":0,"TOWNNAME":"東區","LI":"虎尾里","LIN":"6鄰","STREET":"東成街","SECT":" ","MAREA":" ","LANE":" ","ALLEY":" ","HOUSE_NO":"９０號","E_COORD97":171519.95999999999,"N_COORD97":2542282.73,"ADDRESS":"東成街９０號","OBJECTID":223515},"geometry":{"x":171519.96000000089,"y":2542282.7300000004}},{"attributes":{"ID":223520,"DIS_CODE":0,"TOWNNAME":"東區","LI":"虎尾里","LIN":"17鄰","STREET":"富農街","SECT":"一段","MAREA":" ","LANE":" ","ALLEY":" ","HOUSE_NO":"２３號之１","E_COORD97":171469.79999999999,"N_COORD97":2542152.2400000002,"ADDRESS":"富農街一段２３號之１","OBJECTID":223516},"geometry":{"x":171469.80000000075,"y":2542152.2400000021}},{"attributes":{"ID":223521,"DIS_CODE":0,"TOWNNAME":"永康區","LI":"復興里","LIN":"20鄰","STREET":"復興路","SECT":" ","MAREA":" ","LANE":"３５６巷","ALLEY":" ","HOUSE_NO":"４０號","E_COORD97":172306.28,"N_COORD97":2544440.5899999999,"ADDRESS":"復興路３５６巷４０號","OBJECTID":223517},"geometry":{"x":172306.28000000119,"y":2544440.5900000036}},{"attributes":{"ID":223522,"DIS_CODE":0,"TOWNNAME":"永康區","LI":"\u25A0行里","LIN":"8鄰","STREET":"中正一街","SECT":" ","MAREA":" ","LANE":"３２巷","ALLEY":" ","HOUSE_NO":"１８號","E_COORD97":172879.23999999999,"N_COORD97":2548341.3599999999,"ADDRESS":"中正一街３２巷１８號","OBJECTID":223518},"geometry":{"x":172879.24000000115,"y":2548341.3600000013}},{"attributes":{"ID":223523,"DIS_CODE":0,"TOWNNAME":"永康區","LI":"復華里","LIN":"25鄰","STREET":"復華八街","SECT":" ","MAREA":" ","LANE":"５１巷","ALLEY":" ","HOUSE_NO":"３９號","E_COORD97":172683.20999999999,"N_COORD97":2546429.1200000001,"ADDRESS":"復華八街５１巷３９號","OBJECTID":223519},"geometry":{"x":172683.20999999996,"y":2546429.1200000029}},{"attributes":{"ID":223524,"DIS_CODE":0,"TOWNNAME":"永康區","LI":"復興里","LIN":"25鄰","STREET":"復興路","SECT":" ","MAREA":" ","LANE":"４２９巷","ALLEY":" ","HOUSE_NO":"１１４號","E_COORD97":172294.69,"N_COORD97":2543805.4100000001,"ADDRESS":"復興路４２９巷１１４號","OBJECTID":223520},"geometry":{"x":172294.69000000134,"y":2543805.410000002}},{"attributes":{"ID":223525,"DIS_CODE":0,"TOWNNAME":"永康區","LI":"復華里","LIN":"28鄰","STREET":"復華八街","SECT":" ","MAREA":" ","LANE":"４７巷","ALLEY":" ","HOUSE_NO":"２７號二樓之６","E_COORD97":172712.62,"N_COORD97":2546359.1400000001,"ADDRESS":"復華八街４７巷２７號二樓之６","OBJECTID":223521},"geometry":{"x":172712.62000000011,"y":2546359.1400000006}},{"attributes":{"ID":223526,"DIS_CODE":0,"TOWNNAME":"東區","LI":"虎尾里","LIN":"17鄰","STREET":"富農街","SECT":"一段","MAREA":" ","LANE":" ","ALLEY":" ","HOUSE_NO":"２５號","E_COORD97":171468.64000000001,"N_COORD97":2542161.4300000002,"ADDRESS":"富農街一段２５號","OBJECTID":223522},"geometry":{"x":171468.6400000006,"y":2542161.4299999997}},{"attributes":{"ID":223527,"DIS_CODE":0,"TOWNNAME":"東區","LI":"崇誨里","LIN":"19鄰","STREET":"東寧路","SECT":" ","MAREA":" ","LANE":" ","ALLEY":" ","HOUSE_NO":"２７２號","E_COORD97":170660.82999999999,"N_COORD97":2543418.2000000002,"ADDRESS":"東寧路２７２號","OBJECTID":223523},"geometry":{"x":170660.83000000101,"y":2543418.1999999993}},{"attributes":{"ID":223528,"DIS_CODE":0,"TOWNNAME":"東區","LI":"崇誨里","LIN":"19鄰","STREET":"東寧路","SECT":" ","MAREA":" ","LANE":" ","ALLEY":" ","HOUSE_NO":"２７４號","E_COORD97":170667.09,"N_COORD97":2543416.5299999998,"ADDRESS":"東寧路２７４號","OBJECTID":223524},"geometry":{"x":170667.08999999892,"y":2543416.5300000031}},{"attributes":{"ID":223529,"DIS_CODE":0,"TOWNNAME":"東區","LI":"崇誨里","LIN":"19鄰","STREET":"東寧路","SECT":" ","MAREA":" ","LANE":" ","ALLEY":" ","HOUSE_NO":"２７６號","E_COORD97":170651.81,"N_COORD97":2543436.9900000002,"ADDRESS":"東寧路２７６號","OBJECTID":223525},"geometry":{"x":170651.81000000145,"y":2543436.9900000002}},{"attributes":{"ID":223530,"DIS_CODE":0,"TOWNNAME":"永康區","LI":"復華里","LIN":"28鄰","STREET":"復華八街","SECT":" ","MAREA":" ","LANE":"４７巷","ALLEY":" ","HOUSE_NO":"２７號三樓之１１","E_COORD97":172713.76999999999,"N_COORD97":2546359.1400000001,"ADDRESS":"復華八街４７巷２７號三樓之１１","OBJECTID":223526},"geometry":{"x":172713.77000000048,"y":2546359.1400000006}},{"attributes":{"ID":223531,"DIS_CODE":0,"TOWNNAME":"永康區","LI":"復華里","LIN":"28鄰","STREET":"復華八街","SECT":" ","MAREA":" ","LANE":"４７巷","ALLEY":" ","HOUSE_NO":"２７號四樓之１３","E_COORD97":172713.85999999999,"N_COORD97":2546359.1400000001,"ADDRESS":"復華八街４７巷２７號四樓之１３","OBJECTID":223527},"geometry":{"x":172713.86000000127,"y":2546359.1400000006}},{"attributes":{"ID":223532,"DIS_CODE":0,"TOWNNAME":"東區","LI":"崇誨里","LIN":"19鄰","STREET":"東寧路","SECT":" ","MAREA":" ","LANE":" ","ALLEY":" ","HOUSE_NO":"２７８號","E_COORD97":170659.56,"N_COORD97":2543434.6000000001,"ADDRESS":"東寧路２７８號","OBJECTID":223528},"geometry":{"x":170659.55999999959,"y":2543434.6000000015}},{"attributes":{"ID":223533,"DIS_CODE":0,"TOWNNAME":"東區","LI":"崇誨里","LIN":"19鄰","STREET":"東寧路","SECT":" ","MAREA":" ","LANE":" ","ALLEY":" ","HOUSE_NO":"２８０號","E_COORD97":170667.88,"N_COORD97":2543431.75,"ADDRESS":"東寧路２８０號","OBJECTID":223529},"geometry":{"x":170667.87999999989,"y":2543431.75}},{"attributes":{"ID":223534,"DIS_CODE":0,"TOWNNAME":"永康區","LI":"復華里","LIN":"28鄰","STREET":"復華八街","SECT":" ","MAREA":" ","LANE":"４７巷","ALLEY":" ","HOUSE_NO":"２７號六樓之１０","E_COORD97":172713.82000000001,"N_COORD97":2546359.1400000001,"ADDRESS":"復華八街４７巷２７號六樓之１０","OBJECTID":223530},"geometry":{"x":172713.82000000216,"y":2546359.1400000006}},{"attributes":{"ID":223535,"DIS_CODE":0,"TOWNNAME":"永康區","LI":"復華里","LIN":"28鄰","STREET":"復華八街","SECT":" ","MAREA":" ","LANE":"４７巷","ALLEY":" ","HOUSE_NO":"２７號三樓之８","E_COORD97":172712.66,"N_COORD97":2546359.1400000001,"ADDRESS":"復華八街４７巷２７號三樓之８","OBJECTID":223531},"geometry":{"x":172712.66000000015,"y":2546359.1400000006}},{"attributes":{"ID":223536,"DIS_CODE":0,"TOWNNAME":"永康區","LI":"復華里","LIN":"28鄰","STREET":"復華八街","SECT":" ","MAREA":" ","LANE":"４７巷","ALLEY":" ","HOUSE_NO":"２７號二樓之１１","E_COORD97":172713.76999999999,"N_COORD97":2546359.1400000001,"ADDRESS":"復華八街４７巷２７號二樓之１１","OBJECTID":223532},"geometry":{"x":172713.77000000048,"y":2546359.1400000006}},{"attributes":{"ID":223537,"DIS_CODE":0,"TOWNNAME":"永康區","LI":"復華里","LIN":"28鄰","STREET":"復華八街","SECT":" ","MAREA":" ","LANE":"４７巷","ALLEY":" ","HOUSE_NO":"２７號二樓之１","E_COORD97":172712.51999999999,"N_COORD97":2546359.1400000001,"ADDRESS":"復華八街４７巷２７號二樓之１","OBJECTID":223533},"geometry":{"x":172712.52000000048,"y":2546359.1400000006}},{"attributes":{"ID":223538,"DIS_CODE":0,"TOWNNAME":"永康區","LI":"龍潭里","LIN":"45鄰","STREET":"永平街","SECT":" ","MAREA":" ","LANE":"２３２巷","ALLEY":" ","HOUSE_NO":"１９號","E_COORD97":174658.91,"N_COORD97":2547119.9900000002,"ADDRESS":"永平街２３２巷１９號","OBJECTID":223534},"geometry":{"x":174658.91000000015,"y":2547119.9900000039}},{"attributes":{"ID":223539,"DIS_CODE":0,"TOWNNAME":"東區","LI":"崇誨里","LIN":"19鄰","STREET":"東寧路","SECT":" ","MAREA":" ","LANE":" ","ALLEY":" ","HOUSE_NO":"２８２號","E_COORD97":170674.60999999999,"N_COORD97":2543429.02,"ADDRESS":"東寧路２８２號","OBJECTID":223535},"geometry":{"x":170674.61000000127,"y":2543429.0199999996}},{"attributes":{"ID":223540,"DIS_CODE":0,"TOWNNAME":"東區","LI":"崇誨里","LIN":"19鄰","STREET":"東寧路","SECT":" ","MAREA":" ","LANE":" ","ALLEY":" ","HOUSE_NO":"２８４號","E_COORD97":170682.82000000001,"N_COORD97":2543425.7200000002,"ADDRESS":"東寧路２８４號","OBJECTID":223536},"geometry":{"x":170682.8200000003,"y":2543425.7200000007}},{"attributes":{"ID":223541,"DIS_CODE":0,"TOWNNAME":"永康區","LI":"崑山里","LIN":"45鄰","STREET":"國光五街","SECT":" ","MAREA":" ","LANE":" ","ALLEY":" ","HOUSE_NO":"５６號","E_COORD97":174095.07999999999,"N_COORD97":2545110.3900000001,"ADDRESS":"國光五街５６號","OBJECTID":223537},"geometry":{"x":174095.08000000194,"y":2545110.3899999987}},{"attributes":{"ID":223542,"DIS_CODE":0,"TOWNNAME":"佳里區","LI":"安西里","LIN":"45鄰","STREET":"文化路","SECT":" ","MAREA":" ","LANE":" ","ALLEY":" ","HOUSE_NO":"６６２號","E_COORD97":164569.35000000001,"N_COORD97":2562584.6499999999,"ADDRESS":"文化路６６２號","OBJECTID":223538},"geometry":{"x":164569.35000000149,"y":2562584.6500000004}},{"attributes":{"ID":223543,"DIS_CODE":0,"TOWNNAME":"永康區","LI":"\u25A0行里","LIN":"45鄰","STREET":"中正六街","SECT":" ","MAREA":" ","LANE":" ","ALLEY":" ","HOUSE_NO":"１８０號","E_COORD97":171850.42999999999,"N_COORD97":2548796.25,"ADDRESS":"中正六街１８０號","OBJECTID":223539},"geometry":{"x":171850.43000000063,"y":2548796.2500000037}},{"attributes":{"ID":223544,"DIS_CODE":0,"TOWNNAME":"歸仁區","LI":"辜厝里","LIN":"45鄰","STREET":"中正八街","SECT":" ","MAREA":" ","LANE":" ","ALLEY":" ","HOUSE_NO":"３２號","E_COORD97":177146.91,"N_COORD97":2540326.02,"ADDRESS":"中正八街３２號","OBJECTID":223540},"geometry":{"x":177146.91000000015,"y":2540326.0200000014}},{"attributes":{"ID":223545,"DIS_CODE":0,"TOWNNAME":"歸仁區","LI":"後市里","LIN":"45鄰","STREET":"國光街","SECT":" ","MAREA":" ","LANE":" ","ALLEY":" ","HOUSE_NO":"３３號","E_COORD97":177088.59,"N_COORD97":2540962.7400000002,"ADDRESS":"國光街３３號","OBJECTID":223541},"geometry":{"x":177088.59000000171,"y":2540962.7400000021}},{"attributes":{"ID":223546,"DIS_CODE":0,"TOWNNAME":"永康區","LI":"復華里","LIN":"28鄰","STREET":"復華八街","SECT":" ","MAREA":" ","LANE":"４７巷","ALLEY":" ","HOUSE_NO":"２７號六樓之１２","E_COORD97":172713.89999999999,"N_COORD97":2546359.1400000001,"ADDRESS":"復華八街４７巷２７號六樓之１２","OBJECTID":223542},"geometry":{"x":172713.9000000013,"y":2546359.1400000006}},{"attributes":{"ID":223547,"DIS_CODE":0,"TOWNNAME":"永康區","LI":"復華里","LIN":"28鄰","STREET":"復華八街","SECT":" ","MAREA":" ","LANE":"４７巷","ALLEY":" ","HOUSE_NO":"２７號五樓之９","E_COORD97":172712.60000000001,"N_COORD97":2546359.1400000001,"ADDRESS":"復華八街４７巷２７號五樓之９","OBJECTID":223543},"geometry":{"x":172712.59999999963,"y":2546359.1400000006}},{"attributes":{"ID":223548,"DIS_CODE":0,"TOWNNAME":"永康區","LI":"網寮里","LIN":"21鄰","STREET":"文化路","SECT":" ","MAREA":" ","LANE":"２４２巷","ALLEY":" ","HOUSE_NO":"３０之７號","E_COORD97":173571.28,"N_COORD97":2546192.0299999998,"ADDRESS":"文化路２４２巷３０之７號","OBJECTID":223544},"geometry":{"x":173571.28000000026,"y":2546192.0299999993}},{"attributes":{"ID":223549,"DIS_CODE":0,"TOWNNAME":"仁德區","LI":"成功里","LIN":"28鄰","STREET":"成功一街","SECT":" ","MAREA":" ","LANE":"２巷","ALLEY":" ","HOUSE_NO":"２９號","E_COORD97":170454,"N_COORD97":2540249.7599999998,"ADDRESS":"成功一街２巷２９號","OBJECTID":223545},"geometry":{"x":170454,"y":2540249.7600000016}},{"attributes":{"ID":223550,"DIS_CODE":0,"TOWNNAME":"仁德區","LI":"成功里","LIN":"28鄰","STREET":"成功一街","SECT":" ","MAREA":" ","LANE":"２巷","ALLEY":" ","HOUSE_NO":"１１號","E_COORD97":170507.73000000001,"N_COORD97":2540237.27,"ADDRESS":"成功一街２巷１１號","OBJECTID":223546},"geometry":{"x":170507.73000000138,"y":2540237.2699999996}},{"attributes":{"ID":223551,"DIS_CODE":0,"TOWNNAME":"永康區","LI":"復國里","LIN":"28鄰","STREET":"復國一路","SECT":" ","MAREA":" ","LANE":"２３７巷","ALLEY":" ","HOUSE_NO":"３３號","E_COORD97":172633.38,"N_COORD97":2545413.0299999998,"ADDRESS":"復國一路２３７巷３３號","OBJECTID":223547},"geometry":{"x":172633.38000000175,"y":2545413.0299999993}},{"attributes":{"ID":223552,"DIS_CODE":0,"TOWNNAME":"永康區","LI":"復華里","LIN":"28鄰","STREET":"復華八街","SECT":" ","MAREA":" ","LANE":"４３巷","ALLEY":" ","HOUSE_NO":"２４號","E_COORD97":172701.62,"N_COORD97":2546325.7799999998,"ADDRESS":"復華八街４３巷２４號","OBJECTID":223548},"geometry":{"x":172701.62000000104,"y":2546325.7799999993}},{"attributes":{"ID":223553,"DIS_CODE":0,"TOWNNAME":"永康區","LI":"復華里","LIN":"28鄰","STREET":"復華八街","SECT":" ","MAREA":" ","LANE":"４５巷","ALLEY":" ","HOUSE_NO":"２２號","E_COORD97":172723.32999999999,"N_COORD97":2546347.5099999998,"ADDRESS":"復華八街４５巷２２號","OBJECTID":223549},"geometry":{"x":172723.33000000007,"y":2546347.5100000016}},{"attributes":{"ID":223554,"DIS_CODE":0,"TOWNNAME":"永康區","LI":"復華里","LIN":"28鄰","STREET":"復華八街","SECT":" ","MAREA":" ","LANE":"４７巷","ALLEY":" ","HOUSE_NO":"５號","E_COORD97":172760.79000000001,"N_COORD97":2546369.21,"ADDRESS":"復華八街４７巷５號","OBJECTID":223550},"geometry":{"x":172760.79000000004,"y":2546369.2100000009}},{"attributes":{"ID":223555,"DIS_CODE":0,"TOWNNAME":"永康區","LI":"大灣里","LIN":"28鄰","STREET":"大灣六街","SECT":" ","MAREA":" ","LANE":"９巷","ALLEY":" ","HOUSE_NO":"２８號","E_COORD97":175296.57999999999,"N_COORD97":2545133.3199999998,"ADDRESS":"大灣六街９巷２８號","OBJECTID":223551},"geometry":{"x":175296.58000000007,"y":2545133.3200000003}},{"attributes":{"ID":223556,"DIS_CODE":0,"TOWNNAME":"永康區","LI":"大灣里","LIN":"28鄰","STREET":"大灣六街","SECT":" ","MAREA":" ","LANE":"９巷","ALLEY":" ","HOUSE_NO":"１０號","E_COORD97":175296.94,"N_COORD97":2545163.3300000001,"ADDRESS":"大灣六街９巷１０號","OBJECTID":223552},"geometry":{"x":175296.94000000134,"y":2545163.3300000001}},{"attributes":{"ID":223557,"DIS_CODE":0,"TOWNNAME":"東區","LI":"小東里","LIN":"28鄰","STREET":"東和路","SECT":" ","MAREA":" ","LANE":"１５９巷","ALLEY":" ","HOUSE_NO":"１１號","E_COORD97":170713.29999999999,"N_COORD97":2544260.3300000001,"ADDRESS":"東和路１５９巷１１號","OBJECTID":223553},"geometry":{"x":170713.30000000168,"y":2544260.3300000019}},{"attributes":{"ID":223558,"DIS_CODE":0,"TOWNNAME":"東區","LI":"小東里","LIN":"28鄰","STREET":"東和路","SECT":" ","MAREA":" ","LANE":"１５９巷","ALLEY":" ","HOUSE_NO":"１２號","E_COORD97":170694.44,"N_COORD97":2544266.2400000002,"ADDRESS":"東和路１５９巷１２號","OBJECTID":223554},"geometry":{"x":170694.44000000134,"y":2544266.2400000002}},{"attributes":{"ID":223559,"DIS_CODE":0,"TOWNNAME":"東區","LI":"泉南里","LIN":"28鄰","STREET":"府連東路","SECT":" ","MAREA":" ","LANE":"２２巷","ALLEY":" ","HOUSE_NO":"３９號","E_COORD97":169737.34,"N_COORD97":2542669.7599999998,"ADDRESS":"府連東路２２巷３９號","OBJECTID":223555},"geometry":{"x":169737.34000000078,"y":2542669.7600000035}},{"attributes":{"ID":223560,"DIS_CODE":0,"TOWNNAME":"中西區","LI":"永福里","LIN":"7鄰","STREET":"中正路","SECT":" ","MAREA":" ","LANE":"５３巷","ALLEY":" ","HOUSE_NO":"１號","E_COORD97":168168.41,"N_COORD97":2543589.96,"ADDRESS":"中正路５３巷１號","OBJECTID":223556},"geometry":{"x":168168.41000000201,"y":2543589.9600000009}},{"attributes":{"ID":223561,"DIS_CODE":0,"TOWNNAME":"中西區","LI":"永福里","LIN":"7鄰","STREET":"中正路","SECT":" ","MAREA":" ","LANE":"５３巷","ALLEY":" ","HOUSE_NO":"３號","E_COORD97":168166.95000000001,"N_COORD97":2543580.8300000001,"ADDRESS":"中正路５３巷３號","OBJECTID":223557},"geometry":{"x":168166.95000000112,"y":2543580.8300000001}},{"attributes":{"ID":223562,"DIS_CODE":0,"TOWNNAME":"永康區","LI":"大灣里","LIN":"28鄰","STREET":"大灣六街","SECT":" ","MAREA":" ","LANE":"９巷","ALLEY":" ","HOUSE_NO":"１６號","E_COORD97":175296.19,"N_COORD97":2545154.8199999998,"ADDRESS":"大灣六街９巷１６號","OBJECTID":223558},"geometry":{"x":175296.19000000041,"y":2545154.820000004}},{"attributes":{"ID":223563,"DIS_CODE":0,"TOWNNAME":"中西區","LI":"西湖里","LIN":"28鄰","STREET":"湖美街","SECT":" ","MAREA":" ","LANE":"６０巷","ALLEY":" ","HOUSE_NO":"１號","E_COORD97":166003.29999999999,"N_COORD97":2544704.9300000002,"ADDRESS":"湖美街６０巷１號","OBJECTID":223559},"geometry":{"x":166003.29999999981,"y":2544704.9299999997}},{"attributes":{"ID":223564,"DIS_CODE":0,"TOWNNAME":"新市區","LI":"港墘里","LIN":"28鄰","STREET":"華美街","SECT":" ","MAREA":" ","LANE":"６１巷","ALLEY":" ","HOUSE_NO":"１７號","E_COORD97":178101.64999999999,"N_COORD97":2553019.0499999998,"ADDRESS":"華美街６１巷１７號","OBJECTID":223560},"geometry":{"x":178101.65000000037,"y":2553019.0500000007}},{"attributes":{"ID":223565,"DIS_CODE":0,"TOWNNAME":"永康區","LI":"\u25A0行里","LIN":"45鄰","STREET":"中正路","SECT":" ","MAREA":" ","LANE":"６３５巷","ALLEY":" ","HOUSE_NO":"１５號之３","E_COORD97":171720.47,"N_COORD97":2548876.3199999998,"ADDRESS":"中正路６３５巷１５號之３","OBJECTID":223561},"geometry":{"x":171720.46999999881,"y":2548876.3200000003}},{"attributes":{"ID":223566,"DIS_CODE":0,"TOWNNAME":"永康區","LI":"中華里","LIN":"25鄰","STREET":"忠義街","SECT":" ","MAREA":" ","LANE":" ","ALLEY":" ","HOUSE_NO":"７８號","E_COORD97":171724.31,"N_COORD97":2544600.0299999998,"ADDRESS":"忠義街７８號","OBJECTID":223562},"geometry":{"x":171724.30999999959,"y":2544600.0300000012}},{"attributes":{"ID":223567,"DIS_CODE":0,"TOWNNAME":"永康區","LI":"中華里","LIN":"15鄰","STREET":"華興街","SECT":" ","MAREA":" ","LANE":" ","ALLEY":" ","HOUSE_NO":"９７號底二層之１６","E_COORD97":171792.95000000001,"N_COORD97":2544563.1299999999,"ADDRESS":"華興街９７號底二層之１６","OBJECTID":223563},"geometry":{"x":171792.95000000112,"y":2544563.129999999}},{"attributes":{"ID":223568,"DIS_CODE":0,"TOWNNAME":"新市區","LI":"港墘里","LIN":"28鄰","STREET":"華美街","SECT":" ","MAREA":" ","LANE":"６１巷","ALLEY":" ","HOUSE_NO":"２２號","E_COORD97":178090.09,"N_COORD97":2553039.2999999998,"ADDRESS":"華美街６１巷２２號","OBJECTID":223564},"geometry":{"x":178090.08999999985,"y":2553039.3000000026}},{"attributes":{"ID":223569,"DIS_CODE":0,"TOWNNAME":"歸仁區","LI":"南保里","LIN":"45鄰","STREET":"民權十街","SECT":" ","MAREA":" ","LANE":" ","ALLEY":" ","HOUSE_NO":"９７號","E_COORD97":176725.31,"N_COORD97":2540710.7400000002,"ADDRESS":"民權十街９７號","OBJECTID":223565},"geometry":{"x":176725.30999999959,"y":2540710.7400000021}},{"attributes":{"ID":223570,"DIS_CODE":0,"TOWNNAME":"新市區","LI":"港墘里","LIN":"28鄰","STREET":"華美街","SECT":" ","MAREA":" ","LANE":"６１巷","ALLEY":" ","HOUSE_NO":"２５號","E_COORD97":178084.59,"N_COORD97":2553022.5499999998,"ADDRESS":"華美街６１巷２５號","OBJECTID":223566},"geometry":{"x":178084.58999999985,"y":2553022.5499999989}},{"attributes":{"ID":223571,"DIS_CODE":0,"TOWNNAME":"新市區","LI":"新和里","LIN":"28鄰","STREET":"永福街","SECT":" ","MAREA":" ","LANE":"１６巷","ALLEY":" ","HOUSE_NO":"２６號","E_COORD97":177797.37,"N_COORD97":2552749.5,"ADDRESS":"永福街１６巷２６號","OBJECTID":223567},"geometry":{"x":177797.37000000104,"y":2552749.5}},{"attributes":{"ID":223572,"DIS_CODE":0,"TOWNNAME":"永康區","LI":"龍潭里","LIN":"45鄰","STREET":"西勢路","SECT":" ","MAREA":" ","LANE":" ","ALLEY":" ","HOUSE_NO":"６７０號","E_COORD97":174701.91,"N_COORD97":2546793.3900000001,"ADDRESS":"西勢路６７０號","OBJECTID":223568},"geometry":{"x":174701.91000000108,"y":2546793.3900000025}},{"attributes":{"ID":223573,"DIS_CODE":0,"TOWNNAME":"官田區","LI":"隆本里","LIN":"28鄰","STREET":"信義街","SECT":"二段","MAREA":" ","LANE":"１巷","ALLEY":" ","HOUSE_NO":"１０號","E_COORD97":179716.63,"N_COORD97":2565859.0099999998,"ADDRESS":"信義街二段１巷１０號","OBJECTID":223569},"geometry":{"x":179716.63000000082,"y":2565859.0100000016}},{"attributes":{"ID":223574,"DIS_CODE":0,"TOWNNAME":"官田區","LI":"隆本里","LIN":"28鄰","STREET":"信義街","SECT":"二段","MAREA":" ","LANE":"１巷","ALLEY":" ","HOUSE_NO":"１２號","E_COORD97":179710.81,"N_COORD97":2565859.3700000001,"ADDRESS":"信義街二段１巷１２號","OBJECTID":223570},"geometry":{"x":179710.80999999866,"y":2565859.370000001}},{"attributes":{"ID":223575,"DIS_CODE":0,"TOWNNAME":"仁德區","LI":"仁義里","LIN":"45鄰","STREET":"仁義路","SECT":" ","MAREA":" ","LANE":" ","ALLEY":" ","HOUSE_NO":"７２號","E_COORD97":173558.95000000001,"N_COORD97":2540949.77,"ADDRESS":"仁義路７２號","OBJECTID":223571},"geometry":{"x":173558.95000000112,"y":2540949.7699999996}},{"attributes":{"ID":223576,"DIS_CODE":0,"TOWNNAME":"永康區","LI":"龍潭里","LIN":" ","STREET":"永明街","SECT":" ","MAREA":" ","LANE":" ","ALLEY":" ","HOUSE_NO":"３４０之４號","E_COORD97":174560.81,"N_COORD97":2547105.29,"ADDRESS":"永明街３４０之４號","OBJECTID":223572},"geometry":{"x":174560.80999999959,"y":2547105.2899999991}},{"attributes":{"ID":223577,"DIS_CODE":0,"TOWNNAME":"永康區","LI":"中華里","LIN":"14鄰","STREET":"忠義街","SECT":" ","MAREA":" ","LANE":" ","ALLEY":" ","HOUSE_NO":"４２號","E_COORD97":171729.34,"N_COORD97":2544446.3599999999,"ADDRESS":"忠義街４２號","OBJECTID":223573},"geometry":{"x":171729.33999999985,"y":2544446.3600000013}},{"attributes":{"ID":223578,"DIS_CODE":0,"TOWNNAME":"永康區","LI":"中華里","LIN":"1鄰","STREET":"小東路","SECT":" ","MAREA":" ","LANE":" ","ALLEY":" ","HOUSE_NO":"６８９號之１６","E_COORD97":172059.79999999999,"N_COORD97":2544344.3399999999,"ADDRESS":"小東路６８９號之１６","OBJECTID":223574},"geometry":{"x":172059.80000000075,"y":2544344.3400000017}},{"attributes":{"ID":223579,"DIS_CODE":0,"TOWNNAME":"仁德區","LI":"太子里","LIN":"45鄰","STREET":"太子一街","SECT":" ","MAREA":" ","LANE":" ","ALLEY":" ","HOUSE_NO":"２３號","E_COORD97":174837.76000000001,"N_COORD97":2543376.25,"ADDRESS":"太子一街２３號","OBJECTID":223575},"geometry":{"x":174837.76000000164,"y":2543376.2500000019}},{"attributes":{"ID":223580,"DIS_CODE":0,"TOWNNAME":"仁德區","LI":"仁義里","LIN":"45鄰","STREET":"仁義路","SECT":" ","MAREA":" ","LANE":" ","ALLEY":" ","HOUSE_NO":"７８號","E_COORD97":173571.82999999999,"N_COORD97":2540951.77,"ADDRESS":"仁義路７８號","OBJECTID":223576},"geometry":{"x":173571.83000000101,"y":2540951.7700000014}},{"attributes":{"ID":223581,"DIS_CODE":0,"TOWNNAME":"官田區","LI":"隆本里","LIN":"28鄰","STREET":"信義街","SECT":"二段","MAREA":" ","LANE":"１巷","ALLEY":" ","HOUSE_NO":"１６號","E_COORD97":179704.44,"N_COORD97":2565860.77,"ADDRESS":"信義街二段１巷１６號","OBJECTID":223577},"geometry":{"x":179704.44000000134,"y":2565860.7700000014}},{"attributes":{"ID":223582,"DIS_CODE":0,"TOWNNAME":"永康區","LI":"大灣里","LIN":"28鄰","STREET":"大灣六街","SECT":" ","MAREA":" ","LANE":"９巷","ALLEY":" ","HOUSE_NO":"２號","E_COORD97":175295.45000000001,"N_COORD97":2545175.8300000001,"ADDRESS":"大灣六街９巷２號","OBJECTID":223578},"geometry":{"x":175295.45000000112,"y":2545175.8300000019}},{"attributes":{"ID":223583,"DIS_CODE":0,"TOWNNAME":"永康區","LI":"勝利里","LIN":"28鄰","STREET":"勝利街","SECT":" ","MAREA":" ","LANE":"３２巷","ALLEY":" ","HOUSE_NO":"１７號","E_COORD97":171387.04000000001,"N_COORD97":2544600.75,"ADDRESS":"勝利街３２巷１７號","OBJECTID":223579},"geometry":{"x":171387.04000000097,"y":2544600.75}},{"attributes":{"ID":223584,"DIS_CODE":0,"TOWNNAME":"永康區","LI":"勝利里","LIN":"28鄰","STREET":"勝利街","SECT":" ","MAREA":" ","LANE":"３２巷","ALLEY":" ","HOUSE_NO":"２５之１號","E_COORD97":171411.63,"N_COORD97":2544597.79,"ADDRESS":"勝利街３２巷２５之１號","OBJECTID":223580},"geometry":{"x":171411.63000000082,"y":2544597.7900000028}},{"attributes":{"ID":223585,"DIS_CODE":0,"TOWNNAME":"永康區","LI":"復國里","LIN":"28鄰","STREET":"復國一路","SECT":" ","MAREA":" ","LANE":"２３７巷","ALLEY":" ","HOUSE_NO":"５號","E_COORD97":172702.79000000001,"N_COORD97":2545412.0299999998,"ADDRESS":"復國一路２３７巷５號","OBJECTID":223581},"geometry":{"x":172702.79000000004,"y":2545412.0299999993}},{"attributes":{"ID":223586,"DIS_CODE":0,"TOWNNAME":"永康區","LI":"復國里","LIN":"28鄰","STREET":"復國一路","SECT":" ","MAREA":" ","LANE":"２３７巷","ALLEY":" ","HOUSE_NO":"２３號","E_COORD97":172657.60000000001,"N_COORD97":2545410.6400000001,"ADDRESS":"復國一路２３７巷２３號","OBJECTID":223582},"geometry":{"x":172657.60000000056,"y":2545410.6400000043}},{"attributes":{"ID":223587,"DIS_CODE":0,"TOWNNAME":"永康區","LI":"復國里","LIN":"28鄰","STREET":"復華二街","SECT":" ","MAREA":" ","LANE":"１２巷","ALLEY":" ","HOUSE_NO":"１１號","E_COORD97":172641.32000000001,"N_COORD97":2545387.0299999998,"ADDRESS":"復華二街１２巷１１號","OBJECTID":223583},"geometry":{"x":172641.32000000123,"y":2545387.0300000012}},{"attributes":{"ID":223588,"DIS_CODE":0,"TOWNNAME":"永康區","LI":"勝利里","LIN":"28鄰","STREET":"勝利街","SECT":" ","MAREA":" ","LANE":"３２巷","ALLEY":" ","HOUSE_NO":"２３號","E_COORD97":171400.60000000001,"N_COORD97":2544599,"ADDRESS":"勝利街３２巷２３號","OBJECTID":223584},"geometry":{"x":171400.59999999963,"y":2544599}},{"attributes":{"ID":223589,"DIS_CODE":0,"TOWNNAME":"永康區","LI":"復華里","LIN":"28鄰","STREET":"復華八街","SECT":" ","MAREA":" ","LANE":"４７巷","ALLEY":" ","HOUSE_NO":"２１號","E_COORD97":172722.98999999999,"N_COORD97":2546369.46,"ADDRESS":"復華八街４７巷２１號","OBJECTID":223585},"geometry":{"x":172722.99000000115,"y":2546369.4600000028}},{"attributes":{"ID":223590,"DIS_CODE":0,"TOWNNAME":"仁德區","LI":"成功里","LIN":"28鄰","STREET":"成功一街","SECT":" ","MAREA":" ","LANE":"１６巷","ALLEY":" ","HOUSE_NO":"８號","E_COORD97":170516.29000000001,"N_COORD97":2540181.0099999998,"ADDRESS":"成功一街１６巷８號","OBJECTID":223586},"geometry":{"x":170516.29000000004,"y":2540181.0099999998}},{"attributes":{"ID":223591,"DIS_CODE":0,"TOWNNAME":"仁德區","LI":"成功里","LIN":"28鄰","STREET":"成功一街","SECT":" ","MAREA":" ","LANE":"１６巷","ALLEY":" ","HOUSE_NO":"１１號","E_COORD97":170503.79999999999,"N_COORD97":2540175.5099999998,"ADDRESS":"成功一街１６巷１１號","OBJECTID":223587},"geometry":{"x":170503.80000000075,"y":2540175.5099999998}},{"attributes":{"ID":223592,"DIS_CODE":0,"TOWNNAME":"仁德區","LI":"成功里","LIN":"28鄰","STREET":"成功一街","SECT":" ","MAREA":" ","LANE":"１０巷","ALLEY":" ","HOUSE_NO":"１１號","E_COORD97":170497.48999999999,"N_COORD97":2540197.52,"ADDRESS":"成功一街１０巷１１號","OBJECTID":223588},"geometry":{"x":170497.49000000115,"y":2540197.5200000014}},{"attributes":{"ID":223593,"DIS_CODE":0,"TOWNNAME":"仁德區","LI":"成功里","LIN":"28鄰","STREET":"成功一街","SECT":" ","MAREA":" ","LANE":"１０巷","ALLEY":" ","HOUSE_NO":"５號","E_COORD97":170515.66,"N_COORD97":2540196.02,"ADDRESS":"成功一街１０巷５號","OBJECTID":223589},"geometry":{"x":170515.66000000015,"y":2540196.0200000033}},{"attributes":{"ID":223594,"DIS_CODE":0,"TOWNNAME":"仁德區","LI":"仁義里","LIN":"45鄰","STREET":"仁義路","SECT":" ","MAREA":" ","LANE":" ","ALLEY":" ","HOUSE_NO":"８８號","E_COORD97":173590.32999999999,"N_COORD97":2540954.27,"ADDRESS":"仁義路８８號","OBJECTID":223590},"geometry":{"x":173590.33000000101,"y":2540954.2700000014}},{"attributes":{"ID":223595,"DIS_CODE":0,"TOWNNAME":"永康區","LI":"中華里","LIN":"1鄰","STREET":"小東路","SECT":" ","MAREA":" ","LANE":" ","ALLEY":" ","HOUSE_NO":"６８９號之３０","E_COORD97":172059.73999999999,"N_COORD97":2544344.3399999999,"ADDRESS":"小東路６８９號之３０","OBJECTID":223591},"geometry":{"x":172059.74000000022,"y":2544344.3400000017}},{"attributes":{"ID":223596,"DIS_CODE":0,"TOWNNAME":"永康區","LI":"中華里","LIN":"6鄰","STREET":"華興街","SECT":" ","MAREA":" ","LANE":" ","ALLEY":" ","HOUSE_NO":"４５號","E_COORD97":171974.16,"N_COORD97":2544562.96,"ADDRESS":"華興街４５號","OBJECTID":223592},"geometry":{"x":171974.16000000108,"y":2544562.9600000009}},{"attributes":{"ID":223597,"DIS_CODE":0,"TOWNNAME":"仁德區","LI":"仁義里","LIN":"45鄰","STREET":"仁義路","SECT":" ","MAREA":" ","LANE":" ","ALLEY":" ","HOUSE_NO":"８６號","E_COORD97":173586.12,"N_COORD97":2540953.52,"ADDRESS":"仁義路８６號","OBJECTID":223593},"geometry":{"x":173586.12000000011,"y":2540953.5200000014}},{"attributes":{"ID":223598,"DIS_CODE":0,"TOWNNAME":"仁德區","LI":"仁義里","LIN":"45鄰","STREET":"仁義路","SECT":" ","MAREA":" ","LANE":" ","ALLEY":" ","HOUSE_NO":"８０號","E_COORD97":173575.51000000001,"N_COORD97":2540952.52,"ADDRESS":"仁義路８０號","OBJECTID":223594},"geometry":{"x":173575.51000000071,"y":2540952.5200000014}},{"attributes":{"ID":223599,"DIS_CODE":0,"TOWNNAME":"仁德區","LI":"仁義里","LIN":"45鄰","STREET":"仁義路","SECT":" ","MAREA":" ","LANE":" ","ALLEY":" ","HOUSE_NO":"９０號","E_COORD97":173594.51000000001,"N_COORD97":2540954.52,"ADDRESS":"仁義路９０號","OBJECTID":223595},"geometry":{"x":173594.50999999978,"y":2540954.5199999996}},{"attributes":{"ID":223600,"DIS_CODE":0,"TOWNNAME":"仁德區","LI":"仁義里","LIN":"45鄰","STREET":"仁義路","SECT":" ","MAREA":" ","LANE":" ","ALLEY":" ","HOUSE_NO":"７６號","E_COORD97":173567.84,"N_COORD97":2540951.27,"ADDRESS":"仁義路７６號","OBJECTID":223596},"geometry":{"x":173567.84000000078,"y":2540951.2700000014}},{"attributes":{"ID":223601,"DIS_CODE":0,"TOWNNAME":"仁德區","LI":"仁義里","LIN":"45鄰","STREET":"仁義路","SECT":" ","MAREA":" ","LANE":" ","ALLEY":" ","HOUSE_NO":"７４號","E_COORD97":173563.75,"N_COORD97":2540950.52,"ADDRESS":"仁義路７４號","OBJECTID":223597},"geometry":{"x":173563.75000000093,"y":2540950.5199999996}},{"attributes":{"ID":223602,"DIS_CODE":0,"TOWNNAME":"永康區","LI":"龍潭里","LIN":"45鄰","STREET":"國民路","SECT":" ","MAREA":" ","LANE":" ","ALLEY":" ","HOUSE_NO":"２８３號","E_COORD97":174615.89999999999,"N_COORD97":2546848.4700000002,"ADDRESS":"國民路２８３號","OBJECTID":223598},"geometry":{"x":174615.9000000013,"y":2546848.4700000007}},{"attributes":{"ID":223603,"DIS_CODE":0,"TOWNNAME":"東區","LI":"崇誨里","LIN":"19鄰","STREET":"東寧路","SECT":" ","MAREA":" ","LANE":" ","ALLEY":" ","HOUSE_NO":"２８６號之１","E_COORD97":170690.35000000001,"N_COORD97":2543423.8900000001,"ADDRESS":"東寧路２８６號之１","OBJECTID":223599},"geometry":{"x":170690.34999999963,"y":2543423.8900000006}},{"attributes":{"ID":223604,"DIS_CODE":0,"TOWNNAME":"東區","LI":"崇誨里","LIN":"19鄰","STREET":"東寧路","SECT":" ","MAREA":" ","LANE":" ","ALLEY":" ","HOUSE_NO":"２８８號","E_COORD97":170696.85000000001,"N_COORD97":2543420.7000000002,"ADDRESS":"東寧路２８８號","OBJECTID":223600},"geometry":{"x":170696.84999999963,"y":2543420.6999999993}}]}