{"displayFieldName":"TOWNNAME","fieldAliases":{"ID":"ID","DIS_CODE":"DIS_CODE","TOWNNAME":"TOWNNAME","LI":"LI","LIN":"LIN","STREET":"STREET","SECT":"SECT","MAREA":"MAREA","LANE":"LANE","ALLEY":"ALLEY","HOUSE_NO":"HOUSE_NO","E_COORD97":"E_COORD97","N_COORD97":"N_COORD97","ADDRESS":"ADDRESS","OBJECTID":"OBJECTID"},"geometryType":"esriGeometryPoint","spatialReference":{"wkid":102443,"latestWkid":3826},"fields":[{"name":"ID","type":"esriFieldTypeDouble","alias":"ID"},{"name":"DIS_CODE","type":"esriFieldTypeInteger","alias":"DIS_CODE"},{"name":"TOWNNAME","type":"esriFieldTypeString","alias":"TOWNNAME","length":8},{"name":"LI","type":"esriFieldTypeString","alias":"LI","length":8},{"name":"LIN","type":"esriFieldTypeString","alias":"LIN","length":12},{"name":"STREET","type":"esriFieldTypeString","alias":"STREET","length":20},{"name":"SECT","type":"esriFieldTypeString","alias":"SECT","length":8},{"name":"MAREA","type":"esriFieldTypeString","alias":"MAREA","length":12},{"name":"LANE","type":"esriFieldTypeString","alias":"LANE","length":10},{"name":"ALLEY","type":"esriFieldTypeString","alias":"ALLEY","length":10},{"name":"HOUSE_NO","type":"esriFieldTypeString","alias":"HOUSE_NO","length":20},{"name":"E_COORD97","type":"esriFieldTypeDouble","alias":"E_COORD97"},{"name":"N_COORD97","type":"esriFieldTypeDouble","alias":"N_COORD97"},{"name":"ADDRESS","type":"esriFieldTypeString","alias":"ADDRESS","length":50},{"name":"OBJECTID","type":"esriFieldTypeOID","alias":"OBJECTID"}],"features":[{"attributes":{"ID":406425,"DIS_CODE":0,"TOWNNAME":"東區","LI":"大智里","LIN":"27鄰","STREET":"德東街","SECT":" ","MAREA":" ","LANE":"２３５巷","ALLEY":" ","HOUSE_NO":"９４號","E_COORD97":171443.28,"N_COORD97":2540321.8399999999,"ADDRESS":"德東街２３５巷９４號","OBJECTID":406401},"geometry":{"x":171443.28000000119,"y":2540321.8399999999}},{"attributes":{"ID":406426,"DIS_CODE":0,"TOWNNAME":"東區","LI":"大智里","LIN":"27鄰","STREET":"德東街","SECT":" ","MAREA":" ","LANE":"２３５巷","ALLEY":" ","HOUSE_NO":"９６號","E_COORD97":171439.42000000001,"N_COORD97":2540318.79,"ADDRESS":"德東街２３５巷９６號","OBJECTID":406402},"geometry":{"x":171439.41999999993,"y":2540318.7899999972}},{"attributes":{"ID":406427,"DIS_CODE":0,"TOWNNAME":"東區","LI":"大智里","LIN":"27鄰","STREET":"德東街","SECT":" ","MAREA":" ","LANE":"２３５巷","ALLEY":" ","HOUSE_NO":"９８號","E_COORD97":171434.76000000001,"N_COORD97":2540320.8799999999,"ADDRESS":"德東街２３５巷９８號","OBJECTID":406403},"geometry":{"x":171434.75999999978,"y":2540320.879999999}},{"attributes":{"ID":406428,"DIS_CODE":0,"TOWNNAME":"東區","LI":"大智里","LIN":"27鄰","STREET":"德東街","SECT":" ","MAREA":" ","LANE":"２３５巷","ALLEY":" ","HOUSE_NO":"９號","E_COORD97":171371.22,"N_COORD97":2540292.1099999999,"ADDRESS":"德東街２３５巷９號","OBJECTID":406404},"geometry":{"x":171371.21999999974,"y":2540292.1099999994}},{"attributes":{"ID":406429,"DIS_CODE":0,"TOWNNAME":"新市區","LI":"新市里","LIN":"27鄰","STREET":"復興路","SECT":" ","MAREA":" ","LANE":"６巷","ALLEY":" ","HOUSE_NO":"１７號","E_COORD97":177872.84,"N_COORD97":2553351.0299999998,"ADDRESS":"復興路６巷１７號","OBJECTID":406405},"geometry":{"x":177872.83999999985,"y":2553351.0300000012}},{"attributes":{"ID":406430,"DIS_CODE":0,"TOWNNAME":"新市區","LI":"新和里","LIN":"27鄰","STREET":"忠孝街","SECT":" ","MAREA":" ","LANE":"１８０巷","ALLEY":" ","HOUSE_NO":"８號","E_COORD97":177766.48999999999,"N_COORD97":2552766.25,"ADDRESS":"忠孝街１８０巷８號","OBJECTID":406406},"geometry":{"x":177766.49000000115,"y":2552766.2500000037}},{"attributes":{"ID":406431,"DIS_CODE":0,"TOWNNAME":"東區","LI":"後甲里","LIN":"27鄰","STREET":"建東街","SECT":" ","MAREA":" ","LANE":"３０巷","ALLEY":" ","HOUSE_NO":"８號","E_COORD97":171847.82000000001,"N_COORD97":2543386.7200000002,"ADDRESS":"建東街３０巷８號","OBJECTID":406407},"geometry":{"x":171847.82000000123,"y":2543386.7200000025}},{"attributes":{"ID":406432,"DIS_CODE":0,"TOWNNAME":"永康區","LI":"五王里","LIN":"27鄰","STREET":"五福街","SECT":" ","MAREA":" ","LANE":"１１０巷","ALLEY":" ","HOUSE_NO":"１８號","E_COORD97":171521.45000000001,"N_COORD97":2545942.8300000001,"ADDRESS":"五福街１１０巷１８號","OBJECTID":406408},"geometry":{"x":171521.45000000112,"y":2545942.8300000001}},{"attributes":{"ID":406433,"DIS_CODE":0,"TOWNNAME":"永康區","LI":"五王里","LIN":"27鄰","STREET":"五福街","SECT":" ","MAREA":" ","LANE":"１１０巷","ALLEY":" ","HOUSE_NO":"７號","E_COORD97":171564.5,"N_COORD97":2545959.5800000001,"ADDRESS":"五福街１１０巷７號","OBJECTID":406409},"geometry":{"x":171564.5,"y":2545959.5800000038}},{"attributes":{"ID":406434,"DIS_CODE":0,"TOWNNAME":"永康區","LI":"大灣里","LIN":"27鄰","STREET":"大灣六街","SECT":" ","MAREA":" ","LANE":"８０巷","ALLEY":" ","HOUSE_NO":"１６號","E_COORD97":175206.44,"N_COORD97":2545302.0899999999,"ADDRESS":"大灣六街８０巷１６號","OBJECTID":406410},"geometry":{"x":175206.44000000041,"y":2545302.0900000017}},{"attributes":{"ID":406435,"DIS_CODE":0,"TOWNNAME":"永康區","LI":"大灣里","LIN":"27鄰","STREET":"大灣六街","SECT":" ","MAREA":" ","LANE":"８０巷","ALLEY":" ","HOUSE_NO":"２號","E_COORD97":175163.41,"N_COORD97":2545303.75,"ADDRESS":"大灣六街８０巷２號","OBJECTID":406411},"geometry":{"x":175163.41000000108,"y":2545303.75}},{"attributes":{"ID":406436,"DIS_CODE":0,"TOWNNAME":"永康區","LI":"中興里","LIN":"27鄰","STREET":"中興街","SECT":" ","MAREA":" ","LANE":"９１巷","ALLEY":" ","HOUSE_NO":"５１號","E_COORD97":171924.10000000001,"N_COORD97":2545348.7400000002,"ADDRESS":"中興街９１巷５１號","OBJECTID":406412},"geometry":{"x":171924.09999999963,"y":2545348.7400000039}},{"attributes":{"ID":406437,"DIS_CODE":0,"TOWNNAME":"永康區","LI":"大橋里","LIN":"27鄰","STREET":"大橋一街","SECT":" ","MAREA":" ","LANE":"２５３巷","ALLEY":" ","HOUSE_NO":"７號","E_COORD97":171306.25,"N_COORD97":2546719.25,"ADDRESS":"大橋一街２５３巷７號","OBJECTID":406413},"geometry":{"x":171306.25,"y":2546719.2500000019}},{"attributes":{"ID":406438,"DIS_CODE":0,"TOWNNAME":"永康區","LI":"中興里","LIN":"27鄰","STREET":"中興街","SECT":" ","MAREA":" ","LANE":"９１巷","ALLEY":" ","HOUSE_NO":"４７號","E_COORD97":171939.59,"N_COORD97":2545348.4399999999,"ADDRESS":"中興街９１巷４７號","OBJECTID":406414},"geometry":{"x":171939.58999999985,"y":2545348.4399999995}},{"attributes":{"ID":406439,"DIS_CODE":0,"TOWNNAME":"永康區","LI":"五王里","LIN":"27鄰","STREET":"五福街","SECT":" ","MAREA":" ","LANE":"１１０巷","ALLEY":" ","HOUSE_NO":"２１號","E_COORD97":171584.73999999999,"N_COORD97":2545920.6000000001,"ADDRESS":"五福街１１０巷２１號","OBJECTID":406415},"geometry":{"x":171584.74000000022,"y":2545920.5999999996}},{"attributes":{"ID":406440,"DIS_CODE":0,"TOWNNAME":"永康區","LI":"中興里","LIN":"27鄰","STREET":"中興街","SECT":" ","MAREA":" ","LANE":"９１巷","ALLEY":" ","HOUSE_NO":"３５號","E_COORD97":171970.56,"N_COORD97":2545346.3199999998,"ADDRESS":"中興街９１巷３５號","OBJECTID":406416},"geometry":{"x":171970.55999999959,"y":2545346.3200000022}},{"attributes":{"ID":406441,"DIS_CODE":0,"TOWNNAME":"永康區","LI":"大橋里","LIN":"27鄰","STREET":"大橋一街","SECT":" ","MAREA":" ","LANE":"２５３巷","ALLEY":" ","HOUSE_NO":"１０號","E_COORD97":171293.94,"N_COORD97":2546738.25,"ADDRESS":"大橋一街２５３巷１０號","OBJECTID":406417},"geometry":{"x":171293.94000000041,"y":2546738.2500000037}},{"attributes":{"ID":406442,"DIS_CODE":0,"TOWNNAME":"永康區","LI":"大灣里","LIN":"27鄰","STREET":"大灣六街","SECT":" ","MAREA":" ","LANE":"５３巷","ALLEY":" ","HOUSE_NO":"９號","E_COORD97":175163.14999999999,"N_COORD97":2545219.96,"ADDRESS":"大灣六街５３巷９號","OBJECTID":406418},"geometry":{"x":175163.1500000013,"y":2545219.9600000028}},{"attributes":{"ID":406443,"DIS_CODE":0,"TOWNNAME":"永康區","LI":"勝利里","LIN":"27鄰","STREET":"勝利街","SECT":" ","MAREA":" ","LANE":"５４巷","ALLEY":" ","HOUSE_NO":"４號","E_COORD97":171365.17999999999,"N_COORD97":2544656.3599999999,"ADDRESS":"勝利街５４巷４號","OBJECTID":406419},"geometry":{"x":171365.18000000063,"y":2544656.3600000013}},{"attributes":{"ID":406444,"DIS_CODE":0,"TOWNNAME":"永康區","LI":"勝利里","LIN":"27鄰","STREET":"勝利街","SECT":" ","MAREA":" ","LANE":"５８巷","ALLEY":" ","HOUSE_NO":"２６號","E_COORD97":171417.22,"N_COORD97":2544659.9300000002,"ADDRESS":"勝利街５８巷２６號","OBJECTID":406420},"geometry":{"x":171417.2200000016,"y":2544659.9300000016}},{"attributes":{"ID":406445,"DIS_CODE":0,"TOWNNAME":"永康區","LI":"\u25A0行里","LIN":"27鄰","STREET":"中正南路","SECT":" ","MAREA":" ","LANE":"３４４巷","ALLEY":" ","HOUSE_NO":"５號","E_COORD97":170991.45000000001,"N_COORD97":2547955.2400000002,"ADDRESS":"中正南路３４４巷５號","OBJECTID":406421},"geometry":{"x":170991.45000000019,"y":2547955.2400000002}},{"attributes":{"ID":406446,"DIS_CODE":0,"TOWNNAME":"永康區","LI":"\u25A0行里","LIN":"27鄰","STREET":"中正南路","SECT":" ","MAREA":" ","LANE":"３４４巷","ALLEY":" ","HOUSE_NO":"３０號","E_COORD97":171052.48999999999,"N_COORD97":2547833.9900000002,"ADDRESS":"中正南路３４４巷３０號","OBJECTID":406422},"geometry":{"x":171052.49000000022,"y":2547833.9900000002}},{"attributes":{"ID":406447,"DIS_CODE":0,"TOWNNAME":"永康區","LI":"復國里","LIN":"13鄰","STREET":"復華三街","SECT":" ","MAREA":" ","LANE":" ","ALLEY":" ","HOUSE_NO":"１４號","E_COORD97":172914.32000000001,"N_COORD97":2545544.02,"ADDRESS":"復華三街１４號","OBJECTID":406423},"geometry":{"x":172914.32000000123,"y":2545544.0200000014}},{"attributes":{"ID":406448,"DIS_CODE":0,"TOWNNAME":"南區","LI":"喜北里","LIN":"13鄰","STREET":"喜樹路","SECT":" ","MAREA":" ","LANE":"２０６巷","ALLEY":" ","HOUSE_NO":"３號","E_COORD97":165740.23000000001,"N_COORD97":2538115.4399999999,"ADDRESS":"喜樹路２０６巷３號","OBJECTID":406424},"geometry":{"x":165740.23000000045,"y":2538115.4400000013}},{"attributes":{"ID":406449,"DIS_CODE":0,"TOWNNAME":"永康區","LI":"勝利里","LIN":"27鄰","STREET":"勝利街","SECT":" ","MAREA":" ","LANE":"５８巷","ALLEY":" ","HOUSE_NO":"１７號","E_COORD97":171409.41,"N_COORD97":2544678.2599999998,"ADDRESS":"勝利街５８巷１７號","OBJECTID":406425},"geometry":{"x":171409.40999999922,"y":2544678.2600000016}},{"attributes":{"ID":406450,"DIS_CODE":0,"TOWNNAME":"永康區","LI":"勝利里","LIN":"27鄰","STREET":"勝利街","SECT":" ","MAREA":" ","LANE":"５８巷","ALLEY":" ","HOUSE_NO":"１５號","E_COORD97":171403.10000000001,"N_COORD97":2544679.0099999998,"ADDRESS":"勝利街５８巷１５號","OBJECTID":406426},"geometry":{"x":171403.10000000056,"y":2544679.0100000016}},{"attributes":{"ID":406451,"DIS_CODE":0,"TOWNNAME":"官田區","LI":"隆本里","LIN":"27鄰","STREET":"勝利路","SECT":" ","MAREA":" ","LANE":"１６巷","ALLEY":" ","HOUSE_NO":"２號","E_COORD97":179869.10000000001,"N_COORD97":2565896.3700000001,"ADDRESS":"勝利路１６巷２號","OBJECTID":406427},"geometry":{"x":179869.10000000056,"y":2565896.370000001}},{"attributes":{"ID":406452,"DIS_CODE":0,"TOWNNAME":"官田區","LI":"隆本里","LIN":"27鄰","STREET":"勝利路","SECT":" ","MAREA":" ","LANE":"１６巷","ALLEY":" ","HOUSE_NO":"６號","E_COORD97":179855.60000000001,"N_COORD97":2565910.7599999998,"ADDRESS":"勝利路１６巷６號","OBJECTID":406428},"geometry":{"x":179855.60000000056,"y":2565910.7600000035}},{"attributes":{"ID":406453,"DIS_CODE":0,"TOWNNAME":"中西區","LI":"藥王里","LIN":"18鄰","STREET":"民權路","SECT":"三段","MAREA":" ","LANE":"４００巷","ALLEY":" ","HOUSE_NO":"３３號","E_COORD97":166925.29000000001,"N_COORD97":2544492.3999999999,"ADDRESS":"民權路三段４００巷３３號","OBJECTID":406429},"geometry":{"x":166925.29000000097,"y":2544492.4000000004}},{"attributes":{"ID":406454,"DIS_CODE":0,"TOWNNAME":"永康區","LI":"二王里","LIN":"17鄰","STREET":"忠孝路","SECT":" ","MAREA":" ","LANE":"３８０巷","ALLEY":" ","HOUSE_NO":"２３號","E_COORD97":172547.23999999999,"N_COORD97":2546448.1600000001,"ADDRESS":"忠孝路３８０巷２３號","OBJECTID":406430},"geometry":{"x":172547.24000000115,"y":2546448.160000002}},{"attributes":{"ID":406455,"DIS_CODE":0,"TOWNNAME":"永康區","LI":"二王里","LIN":"17鄰","STREET":"忠孝路","SECT":" ","MAREA":" ","LANE":"３８０巷","ALLEY":" ","HOUSE_NO":"２５號","E_COORD97":172551.54000000001,"N_COORD97":2546448.1299999999,"ADDRESS":"忠孝路３８０巷２５號","OBJECTID":406431},"geometry":{"x":172551.54000000097,"y":2546448.129999999}},{"attributes":{"ID":406456,"DIS_CODE":0,"TOWNNAME":"永康區","LI":"二王里","LIN":"17鄰","STREET":"忠孝路","SECT":" ","MAREA":" ","LANE":"３８０巷","ALLEY":" ","HOUSE_NO":"２７號","E_COORD97":172556.07000000001,"N_COORD97":2546448.1299999999,"ADDRESS":"忠孝路３８０巷２７號","OBJECTID":406432},"geometry":{"x":172556.0700000003,"y":2546448.129999999}},{"attributes":{"ID":406457,"DIS_CODE":0,"TOWNNAME":"永康區","LI":"二王里","LIN":"17鄰","STREET":"忠孝路","SECT":" ","MAREA":" ","LANE":"３８０巷","ALLEY":" ","HOUSE_NO":"２９號","E_COORD97":172560.60999999999,"N_COORD97":2546448.1299999999,"ADDRESS":"忠孝路３８０巷２９號","OBJECTID":406433},"geometry":{"x":172560.61000000034,"y":2546448.129999999}},{"attributes":{"ID":406458,"DIS_CODE":0,"TOWNNAME":"永康區","LI":"二王里","LIN":"17鄰","STREET":"忠孝路","SECT":" ","MAREA":" ","LANE":"３８０巷","ALLEY":" ","HOUSE_NO":"３１號","E_COORD97":172565.10999999999,"N_COORD97":2546448.3799999999,"ADDRESS":"忠孝路３８０巷３１號","OBJECTID":406434},"geometry":{"x":172565.11000000127,"y":2546448.3800000008}},{"attributes":{"ID":406459,"DIS_CODE":0,"TOWNNAME":"東區","LI":"後甲里","LIN":"27鄰","STREET":"建東街","SECT":" ","MAREA":" ","LANE":"３０巷","ALLEY":" ","HOUSE_NO":"１４號","E_COORD97":171880.03,"N_COORD97":2543391.77,"ADDRESS":"建東街３０巷１４號","OBJECTID":406435},"geometry":{"x":171880.03000000212,"y":2543391.7700000014}},{"attributes":{"ID":406460,"DIS_CODE":0,"TOWNNAME":"東區","LI":"後甲里","LIN":"27鄰","STREET":"建東街","SECT":" ","MAREA":" ","LANE":"３０巷","ALLEY":" ","HOUSE_NO":"１號","E_COORD97":171810.25,"N_COORD97":2543382.3100000001,"ADDRESS":"建東街３０巷１號","OBJECTID":406436},"geometry":{"x":171810.25,"y":2543382.3100000024}},{"attributes":{"ID":406461,"DIS_CODE":0,"TOWNNAME":"東區","LI":"後甲里","LIN":"27鄰","STREET":"建東街","SECT":" ","MAREA":" ","LANE":"３０巷","ALLEY":" ","HOUSE_NO":"２號","E_COORD97":171815.62,"N_COORD97":2543382.6200000001,"ADDRESS":"建東街３０巷２號","OBJECTID":406437},"geometry":{"x":171815.62000000104,"y":2543382.620000001}},{"attributes":{"ID":406462,"DIS_CODE":0,"TOWNNAME":"東區","LI":"後甲里","LIN":"27鄰","STREET":"建東街","SECT":" ","MAREA":" ","LANE":"３０巷","ALLEY":" ","HOUSE_NO":"３號","E_COORD97":171820.67000000001,"N_COORD97":2543383.8799999999,"ADDRESS":"建東街３０巷３號","OBJECTID":406438},"geometry":{"x":171820.66999999993,"y":2543383.8800000008}},{"attributes":{"ID":406463,"DIS_CODE":0,"TOWNNAME":"東區","LI":"後甲里","LIN":"27鄰","STREET":"建東街","SECT":" ","MAREA":" ","LANE":"３０巷","ALLEY":" ","HOUSE_NO":"４號","E_COORD97":171825.72,"N_COORD97":2543384.5099999998,"ADDRESS":"建東街３０巷４號","OBJECTID":406439},"geometry":{"x":171825.7200000016,"y":2543384.5100000016}},{"attributes":{"ID":406464,"DIS_CODE":0,"TOWNNAME":"東區","LI":"後甲里","LIN":"27鄰","STREET":"建東街","SECT":" ","MAREA":" ","LANE":"３０巷","ALLEY":" ","HOUSE_NO":"５號","E_COORD97":171832.04000000001,"N_COORD97":2543384.2000000002,"ADDRESS":"建東街３０巷５號","OBJECTID":406440},"geometry":{"x":171832.04000000004,"y":2543384.1999999993}},{"attributes":{"ID":406465,"DIS_CODE":0,"TOWNNAME":"東區","LI":"後甲里","LIN":"27鄰","STREET":"建東街","SECT":" ","MAREA":" ","LANE":"３０巷","ALLEY":" ","HOUSE_NO":"６號","E_COORD97":171837.09,"N_COORD97":2543385.1400000001,"ADDRESS":"建東街３０巷６號","OBJECTID":406441},"geometry":{"x":171837.09000000078,"y":2543385.1400000006}},{"attributes":{"ID":406466,"DIS_CODE":0,"TOWNNAME":"東區","LI":"後甲里","LIN":"27鄰","STREET":"建東街","SECT":" ","MAREA":" ","LANE":"３０巷","ALLEY":" ","HOUSE_NO":"７號","E_COORD97":171842.45999999999,"N_COORD97":2543386.7200000002,"ADDRESS":"建東街３０巷７號","OBJECTID":406442},"geometry":{"x":171842.45999999996,"y":2543386.7200000025}},{"attributes":{"ID":406467,"DIS_CODE":0,"TOWNNAME":"東區","LI":"後甲里","LIN":"27鄰","STREET":"建東街","SECT":" ","MAREA":" ","LANE":"３０巷","ALLEY":" ","HOUSE_NO":"９號","E_COORD97":171852.88,"N_COORD97":2543387.04,"ADDRESS":"建東街３０巷９號","OBJECTID":406443},"geometry":{"x":171852.87999999989,"y":2543387.040000001}},{"attributes":{"ID":406468,"DIS_CODE":0,"TOWNNAME":"東區","LI":"後甲里","LIN":"27鄰","STREET":"裕農路","SECT":" ","MAREA":" ","LANE":"７７１巷","ALLEY":" ","HOUSE_NO":"４８號","E_COORD97":171894.17000000001,"N_COORD97":2543393.1200000001,"ADDRESS":"裕農路７７１巷４８號","OBJECTID":406444},"geometry":{"x":171894.17000000086,"y":2543393.120000001}},{"attributes":{"ID":406469,"DIS_CODE":0,"TOWNNAME":"東區","LI":"後甲里","LIN":"27鄰","STREET":"裕農路","SECT":" ","MAREA":" ","LANE":"７７１巷","ALLEY":" ","HOUSE_NO":"５０號","E_COORD97":171893.89999999999,"N_COORD97":2543397.6200000001,"ADDRESS":"裕農路７７１巷５０號","OBJECTID":406445},"geometry":{"x":171893.90000000037,"y":2543397.6200000029}},{"attributes":{"ID":406470,"DIS_CODE":0,"TOWNNAME":"仁德區","LI":"太子里","LIN":"27鄰","STREET":"大吉路","SECT":" ","MAREA":" ","LANE":"１９２巷","ALLEY":" ","HOUSE_NO":"６號","E_COORD97":173366.34,"N_COORD97":2543354.2400000002,"ADDRESS":"大吉路１９２巷６號","OBJECTID":406446},"geometry":{"x":173366.34000000078,"y":2543354.2400000002}},{"attributes":{"ID":406471,"DIS_CODE":0,"TOWNNAME":"仁德區","LI":"後壁里","LIN":"27鄰","STREET":"中正路","SECT":"二段","MAREA":" ","LANE":"３０１巷","ALLEY":" ","HOUSE_NO":"１７號","E_COORD97":173183.75,"N_COORD97":2539112.6000000001,"ADDRESS":"中正路二段３０１巷１７號","OBJECTID":406447},"geometry":{"x":173183.75000000093,"y":2539112.5999999996}},{"attributes":{"ID":406472,"DIS_CODE":0,"TOWNNAME":"仁德區","LI":"成功里","LIN":"27鄰","STREET":"成功一街","SECT":" ","MAREA":" ","LANE":"１８巷","ALLEY":" ","HOUSE_NO":"１３號","E_COORD97":170496.35999999999,"N_COORD97":2540158.2599999998,"ADDRESS":"成功一街１８巷１３號","OBJECTID":406448},"geometry":{"x":170496.3600000022,"y":2540158.2600000016}},{"attributes":{"ID":406473,"DIS_CODE":0,"TOWNNAME":"仁德區","LI":"成功里","LIN":"27鄰","STREET":"成功一街","SECT":" ","MAREA":" ","LANE":"１８巷","ALLEY":" ","HOUSE_NO":"７號","E_COORD97":170511.03,"N_COORD97":2540151.7599999998,"ADDRESS":"成功一街１８巷７號","OBJECTID":406449},"geometry":{"x":170511.03000000119,"y":2540151.7600000016}},{"attributes":{"ID":406474,"DIS_CODE":0,"TOWNNAME":"仁德區","LI":"成功里","LIN":"27鄰","STREET":"成功一街","SECT":" ","MAREA":" ","LANE":"１８巷","ALLEY":" ","HOUSE_NO":"１１號","E_COORD97":170497.20000000001,"N_COORD97":2540150.0099999998,"ADDRESS":"成功一街１８巷１１號","OBJECTID":406450},"geometry":{"x":170497.20000000205,"y":2540150.0100000016}},{"attributes":{"ID":406475,"DIS_CODE":0,"TOWNNAME":"仁德區","LI":"後壁里","LIN":"27鄰","STREET":"中正路","SECT":"二段","MAREA":" ","LANE":"３０１巷","ALLEY":" ","HOUSE_NO":"８號","E_COORD97":173223.35000000001,"N_COORD97":2539123.6400000001,"ADDRESS":"中正路二段３０１巷８號","OBJECTID":406451},"geometry":{"x":173223.35000000056,"y":2539123.6400000006}},{"attributes":{"ID":406476,"DIS_CODE":0,"TOWNNAME":"永康區","LI":"大灣里","LIN":"27鄰","STREET":"大灣六街","SECT":" ","MAREA":" ","LANE":"８０巷","ALLEY":" ","HOUSE_NO":"１０號","E_COORD97":175196.54999999999,"N_COORD97":2545305.6099999999,"ADDRESS":"大灣六街８０巷１０號","OBJECTID":406452},"geometry":{"x":175196.54999999981,"y":2545305.6100000013}},{"attributes":{"ID":406477,"DIS_CODE":0,"TOWNNAME":"永康區","LI":"大灣里","LIN":"27鄰","STREET":"大灣六街","SECT":" ","MAREA":" ","LANE":"５３巷","ALLEY":" ","HOUSE_NO":"１號","E_COORD97":175163.23000000001,"N_COORD97":2545236.46,"ADDRESS":"大灣六街５３巷１號","OBJECTID":406453},"geometry":{"x":175163.23000000138,"y":2545236.4600000028}},{"attributes":{"ID":406478,"DIS_CODE":0,"TOWNNAME":"永康區","LI":"中興里","LIN":"27鄰","STREET":"中興街","SECT":" ","MAREA":" ","LANE":"９１巷","ALLEY":" ","HOUSE_NO":"３７號","E_COORD97":171965.54000000001,"N_COORD97":2545346.3199999998,"ADDRESS":"中興街９１巷３７號","OBJECTID":406454},"geometry":{"x":171965.54000000004,"y":2545346.3200000022}},{"attributes":{"ID":406479,"DIS_CODE":0,"TOWNNAME":"永康區","LI":"大灣里","LIN":"27鄰","STREET":"大灣六街","SECT":" ","MAREA":" ","LANE":"５３巷","ALLEY":" ","HOUSE_NO":"７號","E_COORD97":175162.85000000001,"N_COORD97":2545223.96,"ADDRESS":"大灣六街５３巷７號","OBJECTID":406455},"geometry":{"x":175162.85000000056,"y":2545223.9600000028}},{"attributes":{"ID":406480,"DIS_CODE":0,"TOWNNAME":"永康區","LI":"大橋里","LIN":"27鄰","STREET":"大橋一街","SECT":" ","MAREA":" ","LANE":"２５３巷","ALLEY":" ","HOUSE_NO":"３號之１","E_COORD97":171315.16,"N_COORD97":2546710.54,"ADDRESS":"大橋一街２５３巷３號之１","OBJECTID":406456},"geometry":{"x":171315.16000000108,"y":2546710.5399999991}},{"attributes":{"ID":406481,"DIS_CODE":0,"TOWNNAME":"東區","LI":"崇信里","LIN":"13鄰","STREET":"崇信街","SECT":" ","MAREA":" ","LANE":" ","ALLEY":" ","HOUSE_NO":"６４號","E_COORD97":170714.51999999999,"N_COORD97":2542429.4700000002,"ADDRESS":"崇信街６４號","OBJECTID":406457},"geometry":{"x":170714.51999999955,"y":2542429.4700000025}},{"attributes":{"ID":406482,"DIS_CODE":0,"TOWNNAME":"永康區","LI":"大灣里","LIN":"27鄰","STREET":"大灣六街","SECT":" ","MAREA":" ","LANE":"５３巷","ALLEY":" ","HOUSE_NO":"５號","E_COORD97":175163.09,"N_COORD97":2545227.96,"ADDRESS":"大灣六街５３巷５號","OBJECTID":406458},"geometry":{"x":175163.09000000078,"y":2545227.9600000009}},{"attributes":{"ID":406483,"DIS_CODE":0,"TOWNNAME":"永康區","LI":"五王里","LIN":"27鄰","STREET":"五福街","SECT":" ","MAREA":" ","LANE":"１１０巷","ALLEY":" ","HOUSE_NO":"１１號","E_COORD97":171575.54000000001,"N_COORD97":2545939.5899999999,"ADDRESS":"五福街１１０巷１１號","OBJECTID":406459},"geometry":{"x":171575.54000000004,"y":2545939.5900000017}},{"attributes":{"ID":406484,"DIS_CODE":0,"TOWNNAME":"永康區","LI":"五王里","LIN":"27鄰","STREET":"五福街","SECT":" ","MAREA":" ","LANE":"１１０巷","ALLEY":" ","HOUSE_NO":"５號","E_COORD97":171562.17999999999,"N_COORD97":2545963.8300000001,"ADDRESS":"五福街１１０巷５號","OBJECTID":406460},"geometry":{"x":171562.18000000063,"y":2545963.8300000001}},{"attributes":{"ID":406485,"DIS_CODE":0,"TOWNNAME":"永康區","LI":"五王里","LIN":"27鄰","STREET":"五福街","SECT":" ","MAREA":" ","LANE":"１１０巷","ALLEY":" ","HOUSE_NO":"１６號","E_COORD97":171525.75,"N_COORD97":2545944.8300000001,"ADDRESS":"五福街１１０巷１６號","OBJECTID":406461},"geometry":{"x":171525.75000000186,"y":2545944.8300000019}},{"attributes":{"ID":406486,"DIS_CODE":0,"TOWNNAME":"永康區","LI":"中興里","LIN":"27鄰","STREET":"中興街","SECT":" ","MAREA":" ","LANE":"６９巷","ALLEY":" ","HOUSE_NO":"６號之１","E_COORD97":172042.64999999999,"N_COORD97":2545300.2999999998,"ADDRESS":"中興街６９巷６號之１","OBJECTID":406462},"geometry":{"x":172042.6500000013,"y":2545300.3000000007}},{"attributes":{"ID":406487,"DIS_CODE":0,"TOWNNAME":"永康區","LI":"大橋里","LIN":"27鄰","STREET":"大橋一街","SECT":" ","MAREA":" ","LANE":"２５３巷","ALLEY":" ","HOUSE_NO":"１３號","E_COORD97":171285.76000000001,"N_COORD97":2546750,"ADDRESS":"大橋一街２５３巷１３號","OBJECTID":406463},"geometry":{"x":171285.75999999978,"y":2546750.0000000037}},{"attributes":{"ID":406488,"DIS_CODE":0,"TOWNNAME":"永康區","LI":"五王里","LIN":"27鄰","STREET":"五福街","SECT":" ","MAREA":" ","LANE":"１１０巷","ALLEY":" ","HOUSE_NO":"１５號","E_COORD97":171579.20000000001,"N_COORD97":2545932.1000000001,"ADDRESS":"五福街１１０巷１５號","OBJECTID":406464},"geometry":{"x":171579.20000000112,"y":2545932.1000000034}},{"attributes":{"ID":406489,"DIS_CODE":0,"TOWNNAME":"永康區","LI":"五王里","LIN":"27鄰","STREET":"五福街","SECT":" ","MAREA":" ","LANE":"１１０巷","ALLEY":" ","HOUSE_NO":"８號","E_COORD97":171550.70999999999,"N_COORD97":2545954.8199999998,"ADDRESS":"五福街１１０巷８號","OBJECTID":406465},"geometry":{"x":171550.70999999996,"y":2545954.820000004}},{"attributes":{"ID":406490,"DIS_CODE":0,"TOWNNAME":"永康區","LI":"中興里","LIN":"27鄰","STREET":"中興街","SECT":" ","MAREA":" ","LANE":"９１巷","ALLEY":" ","HOUSE_NO":"３號","E_COORD97":172050.87,"N_COORD97":2545341.9900000002,"ADDRESS":"中興街９１巷３號","OBJECTID":406466},"geometry":{"x":172050.87000000104,"y":2545341.9900000002}},{"attributes":{"ID":406491,"DIS_CODE":0,"TOWNNAME":"永康區","LI":"中興里","LIN":"27鄰","STREET":"中興街","SECT":" ","MAREA":" ","LANE":"９１巷","ALLEY":" ","HOUSE_NO":"３３號","E_COORD97":171980.01000000001,"N_COORD97":2545344.25,"ADDRESS":"中興街９１巷３３號","OBJECTID":406467},"geometry":{"x":171980.01000000071,"y":2545344.25}},{"attributes":{"ID":406492,"DIS_CODE":0,"TOWNNAME":"永康區","LI":"二王里","LIN":"27鄰","STREET":"中山南路","SECT":" ","MAREA":" ","LANE":"５４４巷","ALLEY":" ","HOUSE_NO":"６６號","E_COORD97":172322.32999999999,"N_COORD97":2546314.25,"ADDRESS":"中山南路５４４巷６６號","OBJECTID":406468},"geometry":{"x":172322.33000000101,"y":2546314.2499999981}},{"attributes":{"ID":406493,"DIS_CODE":0,"TOWNNAME":"永康區","LI":"中興里","LIN":"27鄰","STREET":"中興街","SECT":" ","MAREA":" ","LANE":"９１巷","ALLEY":" ","HOUSE_NO":"９號","E_COORD97":172036.85000000001,"N_COORD97":2545340.4900000002,"ADDRESS":"中興街９１巷９號","OBJECTID":406469},"geometry":{"x":172036.85000000056,"y":2545340.4900000021}},{"attributes":{"ID":406494,"DIS_CODE":0,"TOWNNAME":"永康區","LI":"中興里","LIN":"27鄰","STREET":"中興街","SECT":" ","MAREA":" ","LANE":"９１巷","ALLEY":" ","HOUSE_NO":"１３號","E_COORD97":172030.95000000001,"N_COORD97":2545338.7400000002,"ADDRESS":"中興街９１巷１３號","OBJECTID":406470},"geometry":{"x":172030.95000000019,"y":2545338.7400000021}},{"attributes":{"ID":406495,"DIS_CODE":0,"TOWNNAME":"永康區","LI":"大灣里","LIN":"27鄰","STREET":"大灣六街","SECT":" ","MAREA":" ","LANE":"５３巷","ALLEY":" ","HOUSE_NO":"１１號","E_COORD97":175164.17999999999,"N_COORD97":2545216.21,"ADDRESS":"大灣六街５３巷１１號","OBJECTID":406471},"geometry":{"x":175164.18000000063,"y":2545216.2100000009}},{"attributes":{"ID":406496,"DIS_CODE":0,"TOWNNAME":"永康區","LI":"大灣里","LIN":"27鄰","STREET":"大灣六街","SECT":" ","MAREA":" ","LANE":"８０巷","ALLEY":" ","HOUSE_NO":"６號","E_COORD97":175169.47,"N_COORD97":2545304,"ADDRESS":"大灣六街８０巷６號","OBJECTID":406472},"geometry":{"x":175169.46999999974,"y":2545304.0000000019}},{"attributes":{"ID":406497,"DIS_CODE":0,"TOWNNAME":"安南區","LI":"安富里","LIN":"27鄰","STREET":"安寧街","SECT":" ","MAREA":" ","LANE":"７４巷","ALLEY":" ","HOUSE_NO":"１７號","E_COORD97":167417.82999999999,"N_COORD97":2547123.6699999999,"ADDRESS":"安寧街７４巷１７號","OBJECTID":406473},"geometry":{"x":167417.83000000194,"y":2547123.6699999999}},{"attributes":{"ID":406498,"DIS_CODE":0,"TOWNNAME":"安南區","LI":"安富里","LIN":"27鄰","STREET":"安寧街","SECT":" ","MAREA":" ","LANE":"７４巷","ALLEY":" ","HOUSE_NO":"３號","E_COORD97":167423.23000000001,"N_COORD97":2547084.0499999998,"ADDRESS":"安寧街７４巷３號","OBJECTID":406474},"geometry":{"x":167423.23000000045,"y":2547084.0500000026}},{"attributes":{"ID":406499,"DIS_CODE":0,"TOWNNAME":"安南區","LI":"安富里","LIN":"27鄰","STREET":"安寧街","SECT":" ","MAREA":" ","LANE":"７４巷","ALLEY":" ","HOUSE_NO":"９號","E_COORD97":167446.73000000001,"N_COORD97":2547091.3599999999,"ADDRESS":"安寧街７４巷９號","OBJECTID":406475},"geometry":{"x":167446.73000000138,"y":2547091.3599999994}},{"attributes":{"ID":406500,"DIS_CODE":0,"TOWNNAME":"安南區","LI":"溪墘里","LIN":"27鄰","STREET":"安寧街","SECT":" ","MAREA":" ","LANE":"１２１巷","ALLEY":" ","HOUSE_NO":"２２號","E_COORD97":167301.95000000001,"N_COORD97":2547178.27,"ADDRESS":"安寧街１２１巷２２號","OBJECTID":406476},"geometry":{"x":167301.95000000205,"y":2547178.2700000033}},{"attributes":{"ID":406501,"DIS_CODE":0,"TOWNNAME":"安南區","LI":"溪墘里","LIN":"27鄰","STREET":"安寧街","SECT":" ","MAREA":" ","LANE":"１２１巷","ALLEY":" ","HOUSE_NO":"２４號","E_COORD97":167296.98999999999,"N_COORD97":2547177.1600000001,"ADDRESS":"安寧街１２１巷２４號","OBJECTID":406477},"geometry":{"x":167296.99000000115,"y":2547177.160000002}},{"attributes":{"ID":406502,"DIS_CODE":0,"TOWNNAME":"安南區","LI":"溪墘里","LIN":"27鄰","STREET":"安寧街","SECT":" ","MAREA":" ","LANE":"１２１巷","ALLEY":" ","HOUSE_NO":"２５號","E_COORD97":167296.35000000001,"N_COORD97":2547155.7200000002,"ADDRESS":"安寧街１２１巷２５號","OBJECTID":406478},"geometry":{"x":167296.34999999963,"y":2547155.7200000007}},{"attributes":{"ID":406503,"DIS_CODE":0,"TOWNNAME":"安南區","LI":"溪墘里","LIN":"27鄰","STREET":"安寧街","SECT":" ","MAREA":" ","LANE":"１２１巷","ALLEY":" ","HOUSE_NO":"３２號","E_COORD97":167273.67000000001,"N_COORD97":2547171.3199999998,"ADDRESS":"安寧街１２１巷３２號","OBJECTID":406479},"geometry":{"x":167273.67000000086,"y":2547171.3200000003}},{"attributes":{"ID":406504,"DIS_CODE":0,"TOWNNAME":"安南區","LI":"溪墘里","LIN":"27鄰","STREET":"安寧街","SECT":" ","MAREA":" ","LANE":"１２１巷","ALLEY":" ","HOUSE_NO":"３３號","E_COORD97":167272.5,"N_COORD97":2547151.8500000001,"ADDRESS":"安寧街１２１巷３３號","OBJECTID":406480},"geometry":{"x":167272.50000000186,"y":2547151.8500000015}},{"attributes":{"ID":406505,"DIS_CODE":0,"TOWNNAME":"安南區","LI":"溪墘里","LIN":"27鄰","STREET":"安寧街","SECT":" ","MAREA":" ","LANE":"１２１巷","ALLEY":" ","HOUSE_NO":"３４號","E_COORD97":167268.70999999999,"N_COORD97":2547171.1299999999,"ADDRESS":"安寧街１２１巷３４號","OBJECTID":406481},"geometry":{"x":167268.70999999996,"y":2547171.129999999}},{"attributes":{"ID":406506,"DIS_CODE":0,"TOWNNAME":"安南區","LI":"溪墘里","LIN":"27鄰","STREET":"安寧街","SECT":" ","MAREA":" ","LANE":"１２１巷","ALLEY":" ","HOUSE_NO":"３５號","E_COORD97":167267.37,"N_COORD97":2547151.1499999999,"ADDRESS":"安寧街１２１巷３５號","OBJECTID":406482},"geometry":{"x":167267.37000000104,"y":2547151.1500000022}},{"attributes":{"ID":406507,"DIS_CODE":0,"TOWNNAME":"安南區","LI":"溪墘里","LIN":"27鄰","STREET":"安寧街","SECT":" ","MAREA":" ","LANE":"１２１巷","ALLEY":" ","HOUSE_NO":"３８號","E_COORD97":167258.47,"N_COORD97":2547169.3599999999,"ADDRESS":"安寧街１２１巷３８號","OBJECTID":406483},"geometry":{"x":167258.46999999974,"y":2547169.3599999994}},{"attributes":{"ID":406508,"DIS_CODE":0,"TOWNNAME":"安南區","LI":"溪墘里","LIN":"27鄰","STREET":"安寧街","SECT":" ","MAREA":" ","LANE":"１２１巷","ALLEY":" ","HOUSE_NO":"３９號","E_COORD97":167256.31,"N_COORD97":2547147.4500000002,"ADDRESS":"安寧街１２１巷３９號","OBJECTID":406484},"geometry":{"x":167256.31000000145,"y":2547147.4500000011}},{"attributes":{"ID":406509,"DIS_CODE":0,"TOWNNAME":"安南區","LI":"溪墘里","LIN":"27鄰","STREET":"安寧街","SECT":" ","MAREA":" ","LANE":"１２１巷","ALLEY":" ","HOUSE_NO":"４０號","E_COORD97":167251.82000000001,"N_COORD97":2547167.6699999999,"ADDRESS":"安寧街１２１巷４０號","OBJECTID":406485},"geometry":{"x":167251.8200000003,"y":2547167.6699999999}},{"attributes":{"ID":406510,"DIS_CODE":0,"TOWNNAME":"安南區","LI":"溪墘里","LIN":"27鄰","STREET":"安寧街","SECT":" ","MAREA":" ","LANE":"１２１巷","ALLEY":" ","HOUSE_NO":"４１號","E_COORD97":167250.19,"N_COORD97":2547147.1000000001,"ADDRESS":"安寧街１２１巷４１號","OBJECTID":406486},"geometry":{"x":167250.19000000134,"y":2547147.1000000015}},{"attributes":{"ID":406511,"DIS_CODE":0,"TOWNNAME":"安南區","LI":"溪墘里","LIN":"27鄰","STREET":"安寧街","SECT":" ","MAREA":" ","LANE":"１２１巷","ALLEY":" ","HOUSE_NO":"４２號","E_COORD97":167247.20999999999,"N_COORD97":2547166.5,"ADDRESS":"安寧街１２１巷４２號","OBJECTID":406487},"geometry":{"x":167247.21000000183,"y":2547166.5}},{"attributes":{"ID":406512,"DIS_CODE":0,"TOWNNAME":"安南區","LI":"溪墘里","LIN":"27鄰","STREET":"安寧街","SECT":" ","MAREA":" ","LANE":"１２１巷","ALLEY":" ","HOUSE_NO":"４３號","E_COORD97":167245.23000000001,"N_COORD97":2547146.1699999999,"ADDRESS":"安寧街１２１巷４３號","OBJECTID":406488},"geometry":{"x":167245.23000000045,"y":2547146.1700000018}},{"attributes":{"ID":406513,"DIS_CODE":0,"TOWNNAME":"安南區","LI":"溪墘里","LIN":"27鄰","STREET":"安寧街","SECT":" ","MAREA":" ","LANE":"１２１巷","ALLEY":" ","HOUSE_NO":"４４號","E_COORD97":167242.37,"N_COORD97":2547164.96,"ADDRESS":"安寧街１２１巷４４號","OBJECTID":406489},"geometry":{"x":167242.37000000011,"y":2547164.9600000046}},{"attributes":{"ID":406514,"DIS_CODE":0,"TOWNNAME":"安南區","LI":"溪墘里","LIN":"27鄰","STREET":"安寧街","SECT":" ","MAREA":" ","LANE":"１２１巷","ALLEY":" ","HOUSE_NO":"４５號","E_COORD97":167240.32000000001,"N_COORD97":2547145.5800000001,"ADDRESS":"安寧街１２１巷４５號","OBJECTID":406490},"geometry":{"x":167240.32000000123,"y":2547145.5800000001}},{"attributes":{"ID":406515,"DIS_CODE":0,"TOWNNAME":"安南區","LI":"溪墘里","LIN":"27鄰","STREET":"安寧街","SECT":" ","MAREA":" ","LANE":"１２１巷","ALLEY":" ","HOUSE_NO":"４８號","E_COORD97":167231.22,"N_COORD97":2547162.5099999998,"ADDRESS":"安寧街１２１巷４８號","OBJECTID":406491},"geometry":{"x":167231.21999999974,"y":2547162.5099999998}},{"attributes":{"ID":406516,"DIS_CODE":0,"TOWNNAME":"安南區","LI":"溪墘里","LIN":"27鄰","STREET":"安寧街","SECT":" ","MAREA":" ","LANE":"１２１巷","ALLEY":" ","HOUSE_NO":"４９號","E_COORD97":167228.89000000001,"N_COORD97":2547143.7200000002,"ADDRESS":"安寧街１２１巷４９號","OBJECTID":406492},"geometry":{"x":167228.89000000153,"y":2547143.7200000025}},{"attributes":{"ID":406517,"DIS_CODE":0,"TOWNNAME":"安南區","LI":"溪墘里","LIN":"27鄰","STREET":"安寧街","SECT":" ","MAREA":" ","LANE":"１２１巷","ALLEY":" ","HOUSE_NO":"５０號","E_COORD97":167225.70999999999,"N_COORD97":2547162.2400000002,"ADDRESS":"安寧街１２１巷５０號","OBJECTID":406493},"geometry":{"x":167225.71000000089,"y":2547162.2400000039}},{"attributes":{"ID":406518,"DIS_CODE":0,"TOWNNAME":"安南區","LI":"溪墘里","LIN":"27鄰","STREET":"安寧街","SECT":" ","MAREA":" ","LANE":"１２１巷","ALLEY":" ","HOUSE_NO":"５１號","E_COORD97":167224.39000000001,"N_COORD97":2547141.7599999998,"ADDRESS":"安寧街１２１巷５１號","OBJECTID":406494},"geometry":{"x":167224.3900000006,"y":2547141.7600000016}},{"attributes":{"ID":406519,"DIS_CODE":0,"TOWNNAME":"安南區","LI":"溪墘里","LIN":"27鄰","STREET":"海佃路","SECT":"一段","MAREA":" ","LANE":"１５８巷","ALLEY":" ","HOUSE_NO":"３０號","E_COORD97":167268.95000000001,"N_COORD97":2547194.3199999998,"ADDRESS":"海佃路一段１５８巷３０號","OBJECTID":406495},"geometry":{"x":167268.95000000019,"y":2547194.3200000003}},{"attributes":{"ID":406520,"DIS_CODE":0,"TOWNNAME":"安南區","LI":"溪墘里","LIN":"27鄰","STREET":"海佃路","SECT":"一段","MAREA":" ","LANE":"１５８巷","ALLEY":" ","HOUSE_NO":"３６號","E_COORD97":167286.42999999999,"N_COORD97":2547198.3999999999,"ADDRESS":"海佃路一段１５８巷３６號","OBJECTID":406496},"geometry":{"x":167286.43000000063,"y":2547198.4000000004}},{"attributes":{"ID":406521,"DIS_CODE":0,"TOWNNAME":"安南區","LI":"溪墘里","LIN":"27鄰","STREET":"海佃路","SECT":"一段","MAREA":" ","LANE":"１５８巷","ALLEY":" ","HOUSE_NO":"４４號","E_COORD97":167308.26999999999,"N_COORD97":2547203.1699999999,"ADDRESS":"海佃路一段１５８巷４４號","OBJECTID":406497},"geometry":{"x":167308.27000000048,"y":2547203.1700000037}},{"attributes":{"ID":406522,"DIS_CODE":0,"TOWNNAME":"安南區","LI":"溪墘里","LIN":"27鄰","STREET":"海佃路","SECT":"一段","MAREA":" ","LANE":"１５８巷","ALLEY":" ","HOUSE_NO":"４６號","E_COORD97":167313.64000000001,"N_COORD97":2547203.1699999999,"ADDRESS":"海佃路一段１５８巷４６號","OBJECTID":406498},"geometry":{"x":167313.64000000153,"y":2547203.1700000037}},{"attributes":{"ID":406523,"DIS_CODE":0,"TOWNNAME":"安南區","LI":"溪墘里","LIN":"27鄰","STREET":"海佃路","SECT":"一段","MAREA":" ","LANE":"１５８巷","ALLEY":" ","HOUSE_NO":"４８號","E_COORD97":167319.70999999999,"N_COORD97":2547203.6400000001,"ADDRESS":"海佃路一段１５８巷４８號","OBJECTID":406499},"geometry":{"x":167319.70999999996,"y":2547203.6400000006}},{"attributes":{"ID":406524,"DIS_CODE":0,"TOWNNAME":"安南區","LI":"溪墘里","LIN":"27鄰","STREET":"安寧街","SECT":" ","MAREA":" ","LANE":"１２１巷","ALLEY":" ","HOUSE_NO":"４７號","E_COORD97":167234.42999999999,"N_COORD97":2547145,"ADDRESS":"安寧街１２１巷４７號","OBJECTID":406500},"geometry":{"x":167234.43000000063,"y":2547145.0000000019}},{"attributes":{"ID":406525,"DIS_CODE":0,"TOWNNAME":"安南區","LI":"溪墘里","LIN":"27鄰","STREET":"安寧街","SECT":" ","MAREA":" ","LANE":"１２１巷","ALLEY":" ","HOUSE_NO":"３０號","E_COORD97":167279.73999999999,"N_COORD97":2547173.0499999998,"ADDRESS":"安寧街１２１巷３０號","OBJECTID":406501},"geometry":{"x":167279.74000000115,"y":2547173.0500000007}},{"attributes":{"ID":406526,"DIS_CODE":0,"TOWNNAME":"北區","LI":"大港里","LIN":"23鄰","STREET":"中華北路","SECT":"一段","MAREA":" ","LANE":"１８１巷","ALLEY":" ","HOUSE_NO":"７７號","E_COORD97":166280.73999999999,"N_COORD97":2545610.6000000001,"ADDRESS":"中華北路一段１８１巷７７號","OBJECTID":406502},"geometry":{"x":166280.74000000022,"y":2545610.6000000015}},{"attributes":{"ID":406527,"DIS_CODE":0,"TOWNNAME":"南區","LI":"田寮里","LIN":"23鄰","STREET":"西門路","SECT":"一段","MAREA":" ","LANE":"２７９巷","ALLEY":" ","HOUSE_NO":"２０號一樓","E_COORD97":167599.82000000001,"N_COORD97":2541981.73,"ADDRESS":"西門路一段２７９巷２０號一樓","OBJECTID":406503},"geometry":{"x":167599.82000000123,"y":2541981.7300000004}},{"attributes":{"ID":406528,"DIS_CODE":0,"TOWNNAME":"安平區","LI":"平安里","LIN":"23鄰","STREET":"安平路","SECT":" ","MAREA":" ","LANE":"４４６巷","ALLEY":" ","HOUSE_NO":"３０號一樓","E_COORD97":165203.53,"N_COORD97":2544440.2200000002,"ADDRESS":"安平路４４６巷３０號一樓","OBJECTID":406504},"geometry":{"x":165203.53000000119,"y":2544440.2199999988}},{"attributes":{"ID":406529,"DIS_CODE":0,"TOWNNAME":"安平區","LI":"平安里","LIN":"23鄰","STREET":"安平路","SECT":" ","MAREA":" ","LANE":"４４６巷","ALLEY":" ","HOUSE_NO":"３０號二樓","E_COORD97":165203.53,"N_COORD97":2544440.2200000002,"ADDRESS":"安平路４４６巷３０號二樓","OBJECTID":406505},"geometry":{"x":165203.53000000119,"y":2544440.2199999988}},{"attributes":{"ID":406530,"DIS_CODE":0,"TOWNNAME":"永康區","LI":"崑山里","LIN":"22鄰","STREET":"崑山街","SECT":" ","MAREA":" ","LANE":"５６巷","ALLEY":" ","HOUSE_NO":"６號","E_COORD97":173963.47,"N_COORD97":2544641.1699999999,"ADDRESS":"崑山街５６巷６號","OBJECTID":406506},"geometry":{"x":173963.47000000067,"y":2544641.1700000018}},{"attributes":{"ID":406531,"DIS_CODE":0,"TOWNNAME":"安平區","LI":"平安里","LIN":"23鄰","STREET":"安平路","SECT":" ","MAREA":" ","LANE":"４４６巷","ALLEY":" ","HOUSE_NO":"４２號一樓之２","E_COORD97":165344.60999999999,"N_COORD97":2544419.3799999999,"ADDRESS":"安平路４４６巷４２號一樓之２","OBJECTID":406507},"geometry":{"x":165344.6100000022,"y":2544419.379999999}},{"attributes":{"ID":406532,"DIS_CODE":0,"TOWNNAME":"安平區","LI":"平安里","LIN":"23鄰","STREET":"安平路","SECT":" ","MAREA":" ","LANE":"４４６巷","ALLEY":" ","HOUSE_NO":"４２號二樓之２","E_COORD97":165344.60999999999,"N_COORD97":2544419.3799999999,"ADDRESS":"安平路４４６巷４２號二樓之２","OBJECTID":406508},"geometry":{"x":165344.6100000022,"y":2544419.379999999}},{"attributes":{"ID":406533,"DIS_CODE":0,"TOWNNAME":"安平區","LI":"平安里","LIN":"23鄰","STREET":"安平路","SECT":" ","MAREA":" ","LANE":"４４６巷","ALLEY":" ","HOUSE_NO":"４２號三樓之２","E_COORD97":165344.60999999999,"N_COORD97":2544419.3799999999,"ADDRESS":"安平路４４６巷４２號三樓之２","OBJECTID":406509},"geometry":{"x":165344.6100000022,"y":2544419.379999999}},{"attributes":{"ID":406534,"DIS_CODE":0,"TOWNNAME":"永康區","LI":"東橋里","LIN":"14鄰","STREET":"東橋三路","SECT":" ","MAREA":" ","LANE":"１５巷","ALLEY":" ","HOUSE_NO":"１１號","E_COORD97":171614.22,"N_COORD97":2546486.9300000002,"ADDRESS":"東橋三路１５巷１１號","OBJECTID":406510},"geometry":{"x":171614.22000000067,"y":2546486.9300000016}},{"attributes":{"ID":406535,"DIS_CODE":0,"TOWNNAME":"永康區","LI":"東橋里","LIN":"14鄰","STREET":"東橋三路","SECT":" ","MAREA":" ","LANE":"１５巷","ALLEY":" ","HOUSE_NO":"１２號","E_COORD97":171614.91,"N_COORD97":2546497.8700000001,"ADDRESS":"東橋三路１５巷１２號","OBJECTID":406511},"geometry":{"x":171614.91000000108,"y":2546497.8700000048}},{"attributes":{"ID":406536,"DIS_CODE":0,"TOWNNAME":"永康區","LI":"東橋里","LIN":"14鄰","STREET":"東橋三路","SECT":" ","MAREA":" ","LANE":"１５巷","ALLEY":" ","HOUSE_NO":"１３號","E_COORD97":171609.73999999999,"N_COORD97":2546483.9199999999,"ADDRESS":"東橋三路１５巷１３號","OBJECTID":406512},"geometry":{"x":171609.74000000115,"y":2546483.9200000018}},{"attributes":{"ID":406537,"DIS_CODE":0,"TOWNNAME":"永康區","LI":"東橋里","LIN":"14鄰","STREET":"東橋三路","SECT":" ","MAREA":" ","LANE":"１５巷","ALLEY":" ","HOUSE_NO":"１６號","E_COORD97":171610.70999999999,"N_COORD97":2546495.0699999998,"ADDRESS":"東橋三路１５巷１６號","OBJECTID":406513},"geometry":{"x":171610.71000000183,"y":2546495.0700000003}},{"attributes":{"ID":406538,"DIS_CODE":0,"TOWNNAME":"永康區","LI":"東橋里","LIN":"14鄰","STREET":"東橋三路","SECT":" ","MAREA":" ","LANE":"１５巷","ALLEY":" ","HOUSE_NO":"１８號","E_COORD97":171606.06,"N_COORD97":2546491.8300000001,"ADDRESS":"東橋三路１５巷１８號","OBJECTID":406514},"geometry":{"x":171606.05999999959,"y":2546491.8300000019}},{"attributes":{"ID":406539,"DIS_CODE":0,"TOWNNAME":"永康區","LI":"東橋里","LIN":"14鄰","STREET":"東橋三路","SECT":" ","MAREA":" ","LANE":"１５巷","ALLEY":" ","HOUSE_NO":"１號","E_COORD97":171635.17000000001,"N_COORD97":2546501.27,"ADDRESS":"東橋三路１５巷１號","OBJECTID":406515},"geometry":{"x":171635.17000000086,"y":2546501.2700000014}},{"attributes":{"ID":406540,"DIS_CODE":0,"TOWNNAME":"永康區","LI":"東橋里","LIN":"14鄰","STREET":"東橋三路","SECT":" ","MAREA":" ","LANE":"１５巷","ALLEY":" ","HOUSE_NO":"２號","E_COORD97":171631.60000000001,"N_COORD97":2546509.3100000001,"ADDRESS":"東橋三路１５巷２號","OBJECTID":406516},"geometry":{"x":171631.60000000056,"y":2546509.3100000024}},{"attributes":{"ID":406541,"DIS_CODE":0,"TOWNNAME":"永康區","LI":"東橋里","LIN":"17鄰","STREET":"東橋二街","SECT":" ","MAREA":" ","LANE":"７１巷","ALLEY":" ","HOUSE_NO":"９號","E_COORD97":171713.23999999999,"N_COORD97":2546536.6499999999,"ADDRESS":"東橋二街７１巷９號","OBJECTID":406517},"geometry":{"x":171713.24000000115,"y":2546536.6500000022}},{"attributes":{"ID":406542,"DIS_CODE":0,"TOWNNAME":"中西區","LI":"藥王里","LIN":"17鄰","STREET":"民權路","SECT":"三段","MAREA":" ","LANE":"４００巷","ALLEY":" ","HOUSE_NO":"１３號","E_COORD97":166900.28,"N_COORD97":2544402.3700000001,"ADDRESS":"民權路三段４００巷１３號","OBJECTID":406518},"geometry":{"x":166900.28000000119,"y":2544402.3699999992}},{"attributes":{"ID":406543,"DIS_CODE":0,"TOWNNAME":"中西區","LI":"藥王里","LIN":"17鄰","STREET":"民權路","SECT":"三段","MAREA":" ","LANE":"４００巷","ALLEY":" ","HOUSE_NO":"１５號","E_COORD97":166909.76000000001,"N_COORD97":2544397.8900000001,"ADDRESS":"民權路三段４００巷１５號","OBJECTID":406519},"geometry":{"x":166909.76000000071,"y":2544397.8900000006}},{"attributes":{"ID":406544,"DIS_CODE":0,"TOWNNAME":"中西區","LI":"藥王里","LIN":"16鄰","STREET":"民權路","SECT":"三段","MAREA":" ","LANE":"４００巷","ALLEY":" ","HOUSE_NO":"１２號","E_COORD97":166818.76999999999,"N_COORD97":2544443.04,"ADDRESS":"民權路三段４００巷１２號","OBJECTID":406520},"geometry":{"x":166818.76999999955,"y":2544443.0399999991}},{"attributes":{"ID":406545,"DIS_CODE":0,"TOWNNAME":"中西區","LI":"藥王里","LIN":"17鄰","STREET":"民權路","SECT":"三段","MAREA":" ","LANE":"４００巷","ALLEY":" ","HOUSE_NO":"１７號","E_COORD97":166907.13,"N_COORD97":2544414.4700000002,"ADDRESS":"民權路三段４００巷１７號","OBJECTID":406521},"geometry":{"x":166907.13000000175,"y":2544414.4700000007}},{"attributes":{"ID":406546,"DIS_CODE":0,"TOWNNAME":"中西區","LI":"藥王里","LIN":"16鄰","STREET":"民權路","SECT":"三段","MAREA":" ","LANE":"４００巷","ALLEY":" ","HOUSE_NO":"１６號","E_COORD97":166813.23999999999,"N_COORD97":2544446.3599999999,"ADDRESS":"民權路三段４００巷１６號","OBJECTID":406522},"geometry":{"x":166813.24000000022,"y":2544446.3600000013}},{"attributes":{"ID":406547,"DIS_CODE":0,"TOWNNAME":"中西區","LI":"藥王里","LIN":"16鄰","STREET":"民權路","SECT":"三段","MAREA":" ","LANE":"４００巷","ALLEY":" ","HOUSE_NO":"１８號","E_COORD97":166808.60000000001,"N_COORD97":2544448.3399999999,"ADDRESS":"民權路三段４００巷１８號","OBJECTID":406523},"geometry":{"x":166808.60000000149,"y":2544448.3399999999}},{"attributes":{"ID":406548,"DIS_CODE":0,"TOWNNAME":"中西區","LI":"藥王里","LIN":"17鄰","STREET":"民權路","SECT":"三段","MAREA":" ","LANE":"４００巷","ALLEY":" ","HOUSE_NO":"１９號","E_COORD97":166907.64999999999,"N_COORD97":2544421.5699999998,"ADDRESS":"民權路三段４００巷１９號","OBJECTID":406524},"geometry":{"x":166907.6500000013,"y":2544421.5700000022}},{"attributes":{"ID":406549,"DIS_CODE":0,"TOWNNAME":"中西區","LI":"藥王里","LIN":"17鄰","STREET":"民權路","SECT":"三段","MAREA":" ","LANE":"４００巷","ALLEY":" ","HOUSE_NO":"２１號","E_COORD97":166910.01999999999,"N_COORD97":2544428.1499999999,"ADDRESS":"民權路三段４００巷２１號","OBJECTID":406525},"geometry":{"x":166910.01999999955,"y":2544428.1500000022}},{"attributes":{"ID":406550,"DIS_CODE":0,"TOWNNAME":"中西區","LI":"藥王里","LIN":"16鄰","STREET":"民權路","SECT":"三段","MAREA":" ","LANE":"４００巷","ALLEY":" ","HOUSE_NO":"２０號","E_COORD97":166803.07999999999,"N_COORD97":2544450.5499999998,"ADDRESS":"民權路三段４００巷２０號","OBJECTID":406526},"geometry":{"x":166803.08000000101,"y":2544450.5500000007}},{"attributes":{"ID":406551,"DIS_CODE":0,"TOWNNAME":"中西區","LI":"藥王里","LIN":"17鄰","STREET":"民權路","SECT":"三段","MAREA":" ","LANE":"４００巷","ALLEY":" ","HOUSE_NO":"２３號","E_COORD97":166916.34,"N_COORD97":2544436.2999999998,"ADDRESS":"民權路三段４００巷２３號","OBJECTID":406527},"geometry":{"x":166916.34000000078,"y":2544436.3000000007}},{"attributes":{"ID":406552,"DIS_CODE":0,"TOWNNAME":"中西區","LI":"藥王里","LIN":"17鄰","STREET":"民權路","SECT":"三段","MAREA":" ","LANE":"４００巷","ALLEY":" ","HOUSE_NO":"２５號","E_COORD97":166916.87,"N_COORD97":2544442.6200000001,"ADDRESS":"民權路三段４００巷２５號","OBJECTID":406528},"geometry":{"x":166916.87000000011,"y":2544442.6200000029}},{"attributes":{"ID":406553,"DIS_CODE":0,"TOWNNAME":"中西區","LI":"藥王里","LIN":"16鄰","STREET":"民權路","SECT":"三段","MAREA":" ","LANE":"４００巷","ALLEY":" ","HOUSE_NO":"２２號","E_COORD97":166793.57999999999,"N_COORD97":2544456.29,"ADDRESS":"民權路三段４００巷２２號","OBJECTID":406529},"geometry":{"x":166793.58000000007,"y":2544456.290000001}},{"attributes":{"ID":406554,"DIS_CODE":0,"TOWNNAME":"中西區","LI":"藥王里","LIN":"17鄰","STREET":"民權路","SECT":"三段","MAREA":" ","LANE":"４００巷","ALLEY":" ","HOUSE_NO":"２７號","E_COORD97":166918.17999999999,"N_COORD97":2544452.0899999999,"ADDRESS":"民權路三段４００巷２７號","OBJECTID":406530},"geometry":{"x":166918.1799999997,"y":2544452.0900000017}},{"attributes":{"ID":406555,"DIS_CODE":0,"TOWNNAME":"中西區","LI":"藥王里","LIN":"16鄰","STREET":"民權路","SECT":"三段","MAREA":" ","LANE":"４００巷","ALLEY":" ","HOUSE_NO":"２６號","E_COORD97":166786.95000000001,"N_COORD97":2544461.3700000001,"ADDRESS":"民權路三段４００巷２６號","OBJECTID":406531},"geometry":{"x":166786.95000000112,"y":2544461.3700000029}},{"attributes":{"ID":406556,"DIS_CODE":0,"TOWNNAME":"中西區","LI":"藥王里","LIN":"16鄰","STREET":"民權路","SECT":"三段","MAREA":" ","LANE":"４００巷","ALLEY":" ","HOUSE_NO":"２８號","E_COORD97":166792.47,"N_COORD97":2544468.4399999999,"ADDRESS":"民權路三段４００巷２８號","OBJECTID":406532},"geometry":{"x":166792.46999999974,"y":2544468.4400000032}},{"attributes":{"ID":406557,"DIS_CODE":0,"TOWNNAME":"中西區","LI":"藥王里","LIN":"18鄰","STREET":"民權路","SECT":"三段","MAREA":" ","LANE":"４００巷","ALLEY":" ","HOUSE_NO":"３１號","E_COORD97":166924.23999999999,"N_COORD97":2544482.6699999999,"ADDRESS":"民權路三段４００巷３１號","OBJECTID":406533},"geometry":{"x":166924.24000000115,"y":2544482.6699999999}},{"attributes":{"ID":406558,"DIS_CODE":0,"TOWNNAME":"中西區","LI":"藥王里","LIN":"16鄰","STREET":"民權路","SECT":"三段","MAREA":" ","LANE":"４００巷","ALLEY":" ","HOUSE_NO":"３０號","E_COORD97":166810.37,"N_COORD97":2544483.6699999999,"ADDRESS":"民權路三段４００巷３０號","OBJECTID":406534},"geometry":{"x":166810.37000000011,"y":2544483.6699999999}},{"attributes":{"ID":406559,"DIS_CODE":0,"TOWNNAME":"中西區","LI":"藥王里","LIN":"17鄰","STREET":"民權路","SECT":"三段","MAREA":" ","LANE":"４００巷","ALLEY":" ","HOUSE_NO":"７號","E_COORD97":166875.79999999999,"N_COORD97":2544413.4199999999,"ADDRESS":"民權路三段４００巷７號","OBJECTID":406535},"geometry":{"x":166875.80000000075,"y":2544413.4199999999}},{"attributes":{"ID":406560,"DIS_CODE":0,"TOWNNAME":"中西區","LI":"藥王里","LIN":"16鄰","STREET":"民權路","SECT":"三段","MAREA":" ","LANE":"４００巷","ALLEY":" ","HOUSE_NO":"６號","E_COORD97":166833.13,"N_COORD97":2544435.3199999998,"ADDRESS":"民權路三段４００巷６號","OBJECTID":406536},"geometry":{"x":166833.13000000082,"y":2544435.3200000003}},{"attributes":{"ID":406561,"DIS_CODE":0,"TOWNNAME":"六甲區","LI":"龍湖里","LIN":"10鄰","STREET":"中華路","SECT":" ","MAREA":" ","LANE":"２０８巷","ALLEY":" ","HOUSE_NO":"２號之１","E_COORD97":182878.04000000001,"N_COORD97":2569221.0099999998,"ADDRESS":"中華路２０８巷２號之１","OBJECTID":406537},"geometry":{"x":182878.03999999911,"y":2569221.0099999979}},{"attributes":{"ID":406562,"DIS_CODE":0,"TOWNNAME":"安南區","LI":"溪墘里","LIN":"22鄰","STREET":"安寧街","SECT":" ","MAREA":" ","LANE":"６５巷","ALLEY":" ","HOUSE_NO":"４０號","E_COORD97":167282.73999999999,"N_COORD97":2547022.52,"ADDRESS":"安寧街６５巷４０號","OBJECTID":406538},"geometry":{"x":167282.74000000022,"y":2547022.5199999996}},{"attributes":{"ID":406563,"DIS_CODE":0,"TOWNNAME":"安南區","LI":"溪墘里","LIN":"22鄰","STREET":"安寧街","SECT":" ","MAREA":" ","LANE":"６５巷","ALLEY":" ","HOUSE_NO":"３６號","E_COORD97":167293.03,"N_COORD97":2547025.7200000002,"ADDRESS":"安寧街６５巷３６號","OBJECTID":406539},"geometry":{"x":167293.03000000119,"y":2547025.7200000007}},{"attributes":{"ID":406564,"DIS_CODE":0,"TOWNNAME":"安南區","LI":"溪墘里","LIN":"22鄰","STREET":"安寧街","SECT":" ","MAREA":" ","LANE":"６５巷","ALLEY":" ","HOUSE_NO":"２２號","E_COORD97":167331.57000000001,"N_COORD97":2547032.8100000001,"ADDRESS":"安寧街６５巷２２號","OBJECTID":406540},"geometry":{"x":167331.56999999937,"y":2547032.8100000005}},{"attributes":{"ID":406565,"DIS_CODE":0,"TOWNNAME":"永康區","LI":"勝利里","LIN":"22鄰","STREET":"中華路","SECT":" ","MAREA":" ","LANE":"２３１巷","ALLEY":" ","HOUSE_NO":"５號","E_COORD97":171575.75,"N_COORD97":2545081.9500000002,"ADDRESS":"中華路２３１巷５號","OBJECTID":406541},"geometry":{"x":171575.75,"y":2545081.9500000011}},{"attributes":{"ID":406566,"DIS_CODE":0,"TOWNNAME":"永康區","LI":"勝利里","LIN":"22鄰","STREET":"中華路","SECT":" ","MAREA":" ","LANE":"２１７巷","ALLEY":" ","HOUSE_NO":"１號","E_COORD97":171583.42999999999,"N_COORD97":2545044.3700000001,"ADDRESS":"中華路２１７巷１號","OBJECTID":406542},"geometry":{"x":171583.42999999877,"y":2545044.3700000029}},{"attributes":{"ID":406567,"DIS_CODE":0,"TOWNNAME":"永康區","LI":"崑山里","LIN":"22鄰","STREET":"崑山街","SECT":" ","MAREA":" ","LANE":"５６巷","ALLEY":" ","HOUSE_NO":"１４號","E_COORD97":173984.28,"N_COORD97":2544634.4199999999,"ADDRESS":"崑山街５６巷１４號","OBJECTID":406543},"geometry":{"x":173984.28000000119,"y":2544634.4199999999}},{"attributes":{"ID":406568,"DIS_CODE":0,"TOWNNAME":"永康區","LI":"勝利里","LIN":"22鄰","STREET":"中華一路","SECT":" ","MAREA":" ","LANE":"１８２巷","ALLEY":" ","HOUSE_NO":"１５號","E_COORD97":171501.23000000001,"N_COORD97":2545092,"ADDRESS":"中華一路１８２巷１５號","OBJECTID":406544},"geometry":{"x":171501.23000000138,"y":2545091.9999999981}},{"attributes":{"ID":406569,"DIS_CODE":0,"TOWNNAME":"永康區","LI":"勝利里","LIN":"22鄰","STREET":"中華路","SECT":" ","MAREA":" ","LANE":"２１７巷","ALLEY":" ","HOUSE_NO":"２７號","E_COORD97":171545.26999999999,"N_COORD97":2545027.4900000002,"ADDRESS":"中華路２１７巷２７號","OBJECTID":406545},"geometry":{"x":171545.26999999955,"y":2545027.4900000002}},{"attributes":{"ID":406570,"DIS_CODE":0,"TOWNNAME":"永康區","LI":"勝利里","LIN":"22鄰","STREET":"中華路","SECT":" ","MAREA":" ","LANE":"２３１巷","ALLEY":" ","HOUSE_NO":"１４號","E_COORD97":171557.35999999999,"N_COORD97":2545098.25,"ADDRESS":"中華路２３１巷１４號","OBJECTID":406546},"geometry":{"x":171557.36000000034,"y":2545098.2500000019}},{"attributes":{"ID":406571,"DIS_CODE":0,"TOWNNAME":"永康區","LI":"龍潭里","LIN":"22鄰","STREET":"龍橋街","SECT":" ","MAREA":" ","LANE":"１３０巷","ALLEY":" ","HOUSE_NO":"１３號","E_COORD97":174692.01000000001,"N_COORD97":2548661.4900000002,"ADDRESS":"龍橋街１３０巷１３號","OBJECTID":406547},"geometry":{"x":174692.01000000164,"y":2548661.4900000002}},{"attributes":{"ID":406572,"DIS_CODE":0,"TOWNNAME":"永康區","LI":"龍潭里","LIN":"22鄰","STREET":"龍橋街","SECT":" ","MAREA":" ","LANE":"１３０巷","ALLEY":" ","HOUSE_NO":"３７號","E_COORD97":174738.60000000001,"N_COORD97":2548698,"ADDRESS":"龍橋街１３０巷３７號","OBJECTID":406548},"geometry":{"x":174738.5999999987,"y":2548698}},{"attributes":{"ID":406573,"DIS_CODE":0,"TOWNNAME":"永康區","LI":"中華里","LIN":"22鄰","STREET":"華興街","SECT":" ","MAREA":" ","LANE":"１２０巷","ALLEY":" ","HOUSE_NO":"４號","E_COORD97":171800.56,"N_COORD97":2544603.1699999999,"ADDRESS":"華興街１２０巷４號","OBJECTID":406549},"geometry":{"x":171800.55999999959,"y":2544603.1700000018}},{"attributes":{"ID":406574,"DIS_CODE":0,"TOWNNAME":"永康區","LI":"復國里","LIN":"22鄰","STREET":"復華六街","SECT":" ","MAREA":" ","LANE":"９３巷","ALLEY":" ","HOUSE_NO":"３０號","E_COORD97":172609.63,"N_COORD97":2545753.2799999998,"ADDRESS":"復華六街９３巷３０號","OBJECTID":406550},"geometry":{"x":172609.63000000175,"y":2545753.2799999993}},{"attributes":{"ID":406575,"DIS_CODE":0,"TOWNNAME":"永康區","LI":"勝利里","LIN":"22鄰","STREET":"中華路","SECT":" ","MAREA":" ","LANE":"２３１巷","ALLEY":" ","HOUSE_NO":"２２號","E_COORD97":171539.76999999999,"N_COORD97":2545100.5,"ADDRESS":"中華路２３１巷２２號","OBJECTID":406551},"geometry":{"x":171539.76999999955,"y":2545100.5000000019}},{"attributes":{"ID":406576,"DIS_CODE":0,"TOWNNAME":"永康區","LI":"勝利里","LIN":"22鄰","STREET":"中華路","SECT":" ","MAREA":" ","LANE":"２３１巷","ALLEY":" ","HOUSE_NO":"１８號","E_COORD97":171540.42999999999,"N_COORD97":2545109.4900000002,"ADDRESS":"中華路２３１巷１８號","OBJECTID":406552},"geometry":{"x":171540.4299999997,"y":2545109.4900000039}},{"attributes":{"ID":406577,"DIS_CODE":0,"TOWNNAME":"東區","LI":"富裕里","LIN":"13鄰","STREET":"裕豐街","SECT":" ","MAREA":" ","LANE":"６１巷","ALLEY":" ","HOUSE_NO":"３號","E_COORD97":170690.98999999999,"N_COORD97":2542822.0499999998,"ADDRESS":"裕豐街６１巷３號","OBJECTID":406553},"geometry":{"x":170690.99000000115,"y":2542822.0500000026}},{"attributes":{"ID":406578,"DIS_CODE":0,"TOWNNAME":"永康區","LI":"勝利里","LIN":"22鄰","STREET":"中華路","SECT":" ","MAREA":" ","LANE":"２１７巷","ALLEY":" ","HOUSE_NO":"１２號","E_COORD97":171562.23999999999,"N_COORD97":2545060.1600000001,"ADDRESS":"中華路２１７巷１２號","OBJECTID":406554},"geometry":{"x":171562.24000000115,"y":2545060.1600000001}},{"attributes":{"ID":406579,"DIS_CODE":0,"TOWNNAME":"永康區","LI":"勝利里","LIN":"22鄰","STREET":"中華路","SECT":" ","MAREA":" ","LANE":"２１７巷","ALLEY":" ","HOUSE_NO":"７號","E_COORD97":171577.76999999999,"N_COORD97":2545026.4900000002,"ADDRESS":"中華路２１７巷７號","OBJECTID":406555},"geometry":{"x":171577.77000000142,"y":2545026.4900000002}},{"attributes":{"ID":406580,"DIS_CODE":0,"TOWNNAME":"永康區","LI":"崑山里","LIN":"22鄰","STREET":"崑山街","SECT":" ","MAREA":" ","LANE":"５６巷","ALLEY":" ","HOUSE_NO":"２３號","E_COORD97":174005.07999999999,"N_COORD97":2544641.6000000001,"ADDRESS":"崑山街５６巷２３號","OBJECTID":406556},"geometry":{"x":174005.08000000007,"y":2544641.6000000015}},{"attributes":{"ID":406581,"DIS_CODE":0,"TOWNNAME":"永康區","LI":"勝利里","LIN":"22鄰","STREET":"中華路","SECT":" ","MAREA":" ","LANE":"２３１巷","ALLEY":" ","HOUSE_NO":"１１號","E_COORD97":171564.64999999999,"N_COORD97":2545083.7000000002,"ADDRESS":"中華路２３１巷１１號","OBJECTID":406557},"geometry":{"x":171564.6500000013,"y":2545083.7000000011}},{"attributes":{"ID":406582,"DIS_CODE":0,"TOWNNAME":"永康區","LI":"崑山里","LIN":"22鄰","STREET":"崑山街","SECT":" ","MAREA":" ","LANE":"５６巷","ALLEY":" ","HOUSE_NO":"１５號","E_COORD97":173988.85000000001,"N_COORD97":2544647.6699999999,"ADDRESS":"崑山街５６巷１５號","OBJECTID":406558},"geometry":{"x":173988.84999999963,"y":2544647.6700000018}},{"attributes":{"ID":406583,"DIS_CODE":0,"TOWNNAME":"永康區","LI":"崑山里","LIN":"22鄰","STREET":"大灣路","SECT":" ","MAREA":" ","LANE":"７９８巷","ALLEY":" ","HOUSE_NO":"２３號","E_COORD97":174012.51999999999,"N_COORD97":2544596.77,"ADDRESS":"大灣路７９８巷２３號","OBJECTID":406559},"geometry":{"x":174012.52000000048,"y":2544596.7699999996}},{"attributes":{"ID":406584,"DIS_CODE":0,"TOWNNAME":"永康區","LI":"勝利里","LIN":"22鄰","STREET":"中華路","SECT":" ","MAREA":" ","LANE":"２１７巷","ALLEY":" ","HOUSE_NO":"１６號","E_COORD97":171552.76999999999,"N_COORD97":2545060.6600000001,"ADDRESS":"中華路２１７巷１６號","OBJECTID":406560},"geometry":{"x":171552.77000000048,"y":2545060.6600000039}},{"attributes":{"ID":406585,"DIS_CODE":0,"TOWNNAME":"永康區","LI":"勝利里","LIN":"22鄰","STREET":"中華路","SECT":" ","MAREA":" ","LANE":"２１７巷","ALLEY":" ","HOUSE_NO":"１４號","E_COORD97":171557.23999999999,"N_COORD97":2545060.6600000001,"ADDRESS":"中華路２１７巷１４號","OBJECTID":406561},"geometry":{"x":171557.24000000115,"y":2545060.6600000039}},{"attributes":{"ID":406586,"DIS_CODE":0,"TOWNNAME":"永康區","LI":"崑山里","LIN":"22鄰","STREET":"崑山街","SECT":" ","MAREA":" ","LANE":"５６巷","ALLEY":" ","HOUSE_NO":"７號","E_COORD97":173968.57000000001,"N_COORD97":2544658.0600000001,"ADDRESS":"崑山街５６巷７號","OBJECTID":406562},"geometry":{"x":173968.57000000123,"y":2544658.0600000005}},{"attributes":{"ID":406587,"DIS_CODE":0,"TOWNNAME":"永康區","LI":"勝利里","LIN":"22鄰","STREET":"中華路","SECT":" ","MAREA":" ","LANE":"２１７巷","ALLEY":" ","HOUSE_NO":"９號","E_COORD97":171564.54999999999,"N_COORD97":2545026.9900000002,"ADDRESS":"中華路２１７巷９號","OBJECTID":406563},"geometry":{"x":171564.55000000075,"y":2545026.9900000002}},{"attributes":{"ID":406588,"DIS_CODE":0,"TOWNNAME":"永康區","LI":"崑山里","LIN":"22鄰","STREET":"崑山街","SECT":" ","MAREA":" ","LANE":"５６巷","ALLEY":" ","HOUSE_NO":"１３號","E_COORD97":173984.44,"N_COORD97":2544649.1699999999,"ADDRESS":"崑山街５６巷１３號","OBJECTID":406564},"geometry":{"x":173984.43999999948,"y":2544649.1699999999}},{"attributes":{"ID":406589,"DIS_CODE":0,"TOWNNAME":"永康區","LI":"埔園里","LIN":"22鄰","STREET":"埔園街","SECT":" ","MAREA":" ","LANE":"２７１巷","ALLEY":" ","HOUSE_NO":"６號","E_COORD97":173459.48000000001,"N_COORD97":2548149.3599999999,"ADDRESS":"埔園街２７１巷６號","OBJECTID":406565},"geometry":{"x":173459.48000000138,"y":2548149.3599999994}},{"attributes":{"ID":406590,"DIS_CODE":0,"TOWNNAME":"永康區","LI":"崑山里","LIN":"22鄰","STREET":"崑山街","SECT":" ","MAREA":" ","LANE":"５６巷","ALLEY":" ","HOUSE_NO":"１８號","E_COORD97":173992.60000000001,"N_COORD97":2544631.4199999999,"ADDRESS":"崑山街５６巷１８號","OBJECTID":406566},"geometry":{"x":173992.59999999963,"y":2544631.4199999981}},{"attributes":{"ID":406591,"DIS_CODE":0,"TOWNNAME":"永康區","LI":"勝利里","LIN":"22鄰","STREET":"中華一路","SECT":" ","MAREA":" ","LANE":"１８２巷","ALLEY":" ","HOUSE_NO":"１１號","E_COORD97":171500.69,"N_COORD97":2545083,"ADDRESS":"中華一路１８２巷１１號","OBJECTID":406567},"geometry":{"x":171500.69000000041,"y":2545083.0000000019}},{"attributes":{"ID":406592,"DIS_CODE":0,"TOWNNAME":"永康區","LI":"勝利里","LIN":"22鄰","STREET":"中華路","SECT":" ","MAREA":" ","LANE":"２３１巷","ALLEY":" ","HOUSE_NO":"１３號","E_COORD97":171560.04000000001,"N_COORD97":2545084.2000000002,"ADDRESS":"中華路２３１巷１３號","OBJECTID":406568},"geometry":{"x":171560.04000000097,"y":2545084.2000000011}},{"attributes":{"ID":406593,"DIS_CODE":0,"TOWNNAME":"永康區","LI":"神洲里","LIN":"22鄰","STREET":"忠孝路","SECT":" ","MAREA":" ","LANE":"７６巷","ALLEY":" ","HOUSE_NO":"１號","E_COORD97":172110.09,"N_COORD97":2544919.9900000002,"ADDRESS":"忠孝路７６巷１號","OBJECTID":406569},"geometry":{"x":172110.09000000078,"y":2544919.9900000021}},{"attributes":{"ID":406594,"DIS_CODE":0,"TOWNNAME":"永康區","LI":"勝利里","LIN":"22鄰","STREET":"中華路","SECT":" ","MAREA":" ","LANE":"２３１巷","ALLEY":" ","HOUSE_NO":"９號","E_COORD97":171567.85999999999,"N_COORD97":2545083.2000000002,"ADDRESS":"中華路２３１巷９號","OBJECTID":406570},"geometry":{"x":171567.86000000127,"y":2545083.200000003}},{"attributes":{"ID":406595,"DIS_CODE":0,"TOWNNAME":"永康區","LI":"勝利里","LIN":"22鄰","STREET":"中華路","SECT":" ","MAREA":" ","LANE":"２１７巷","ALLEY":" ","HOUSE_NO":"１９號","E_COORD97":171552.35999999999,"N_COORD97":2545045.1200000001,"ADDRESS":"中華路２１７巷１９號","OBJECTID":406571},"geometry":{"x":171552.3599999994,"y":2545045.1200000048}},{"attributes":{"ID":406596,"DIS_CODE":0,"TOWNNAME":"永康區","LI":"崑山里","LIN":"22鄰","STREET":"崑山街","SECT":" ","MAREA":" ","LANE":"５６巷","ALLEY":" ","HOUSE_NO":"１６號","E_COORD97":173988.60000000001,"N_COORD97":2544632.9199999999,"ADDRESS":"崑山街５６巷１６號","OBJECTID":406572},"geometry":{"x":173988.59999999963,"y":2544632.9200000018}},{"attributes":{"ID":406597,"DIS_CODE":0,"TOWNNAME":"永康區","LI":"崑山里","LIN":"22鄰","STREET":"大灣路","SECT":" ","MAREA":" ","LANE":"７９８巷","ALLEY":" ","HOUSE_NO":"２１號","E_COORD97":174011.76999999999,"N_COORD97":2544588.9300000002,"ADDRESS":"大灣路７９８巷２１號","OBJECTID":406573},"geometry":{"x":174011.76999999955,"y":2544588.9299999997}},{"attributes":{"ID":406598,"DIS_CODE":0,"TOWNNAME":"永康區","LI":"勝利里","LIN":"22鄰","STREET":"中華路","SECT":" ","MAREA":" ","LANE":"２１７巷","ALLEY":" ","HOUSE_NO":"１７號","E_COORD97":171557.35999999999,"N_COORD97":2545044.6200000001,"ADDRESS":"中華路２１７巷１７號","OBJECTID":406574},"geometry":{"x":171557.36000000034,"y":2545044.620000001}},{"attributes":{"ID":406599,"DIS_CODE":0,"TOWNNAME":"永康區","LI":"勝利里","LIN":"22鄰","STREET":"中華路","SECT":" ","MAREA":" ","LANE":"２１７巷","ALLEY":" ","HOUSE_NO":"６號","E_COORD97":171576.82999999999,"N_COORD97":2545061,"ADDRESS":"中華路２１７巷６號","OBJECTID":406575},"geometry":{"x":171576.83000000101,"y":2545061}},{"attributes":{"ID":406600,"DIS_CODE":0,"TOWNNAME":"永康區","LI":"崑山里","LIN":"22鄰","STREET":"崑山街","SECT":" ","MAREA":" ","LANE":"５６巷","ALLEY":" ","HOUSE_NO":"９號","E_COORD97":173974.04999999999,"N_COORD97":2544652.1699999999,"ADDRESS":"崑山街５６巷９號","OBJECTID":406576},"geometry":{"x":173974.04999999981,"y":2544652.1699999999}},{"attributes":{"ID":406601,"DIS_CODE":0,"TOWNNAME":"永康區","LI":"勝利里","LIN":"22鄰","STREET":"中華路","SECT":" ","MAREA":" ","LANE":"２３１巷","ALLEY":" ","HOUSE_NO":"２０號","E_COORD97":171540.17000000001,"N_COORD97":2545105.25,"ADDRESS":"中華路２３１巷２０號","OBJECTID":406577},"geometry":{"x":171540.17000000086,"y":2545105.2500000019}},{"attributes":{"ID":406602,"DIS_CODE":0,"TOWNNAME":"永康區","LI":"勝利里","LIN":"22鄰","STREET":"中華路","SECT":" ","MAREA":" ","LANE":"２１７巷","ALLEY":" ","HOUSE_NO":"８號","E_COORD97":171571.64999999999,"N_COORD97":2545060.4100000001,"ADDRESS":"中華路２１７巷８號","OBJECTID":406578},"geometry":{"x":171571.6500000013,"y":2545060.410000002}},{"attributes":{"ID":406603,"DIS_CODE":0,"TOWNNAME":"永康區","LI":"崑山里","LIN":"22鄰","STREET":"崑山街","SECT":" ","MAREA":" ","LANE":"５６巷","ALLEY":" ","HOUSE_NO":"２０號","E_COORD97":173996.69,"N_COORD97":2544630.1699999999,"ADDRESS":"崑山街５６巷２０號","OBJECTID":406579},"geometry":{"x":173996.69000000134,"y":2544630.1700000018}},{"attributes":{"ID":406604,"DIS_CODE":0,"TOWNNAME":"永康區","LI":"勝利里","LIN":"22鄰","STREET":"中華路","SECT":" ","MAREA":" ","LANE":"２３１巷","ALLEY":" ","HOUSE_NO":"１６號","E_COORD97":171552.89000000001,"N_COORD97":2545099,"ADDRESS":"中華路２３１巷１６號","OBJECTID":406580},"geometry":{"x":171552.88999999966,"y":2545099.0000000037}},{"attributes":{"ID":406605,"DIS_CODE":0,"TOWNNAME":"永康區","LI":"崑山里","LIN":"22鄰","STREET":"崑山街","SECT":" ","MAREA":" ","LANE":"５６巷","ALLEY":" ","HOUSE_NO":"２７號","E_COORD97":174013.95000000001,"N_COORD97":2544638.6000000001,"ADDRESS":"崑山街５６巷２７號","OBJECTID":406581},"geometry":{"x":174013.95000000019,"y":2544638.5999999996}},{"attributes":{"ID":406606,"DIS_CODE":0,"TOWNNAME":"永康區","LI":"崑山里","LIN":"22鄰","STREET":"崑山街","SECT":" ","MAREA":" ","LANE":"５６巷","ALLEY":" ","HOUSE_NO":"１９號","E_COORD97":173997.04000000001,"N_COORD97":2544644.6699999999,"ADDRESS":"崑山街５６巷１９號","OBJECTID":406582},"geometry":{"x":173997.0400000019,"y":2544644.6700000018}},{"attributes":{"ID":406607,"DIS_CODE":0,"TOWNNAME":"永康區","LI":"崑山里","LIN":"22鄰","STREET":"崑山街","SECT":" ","MAREA":" ","LANE":"５６巷","ALLEY":" ","HOUSE_NO":"１０號","E_COORD97":173974.98999999999,"N_COORD97":2544637.6699999999,"ADDRESS":"崑山街５６巷１０號","OBJECTID":406583},"geometry":{"x":173974.99000000022,"y":2544637.6700000018}},{"attributes":{"ID":406608,"DIS_CODE":0,"TOWNNAME":"永康區","LI":"崑山里","LIN":"22鄰","STREET":"崑山街","SECT":" ","MAREA":" ","LANE":"５６巷","ALLEY":" ","HOUSE_NO":"２２號","E_COORD97":174000.59,"N_COORD97":2544628.6699999999,"ADDRESS":"崑山街５６巷２２號","OBJECTID":406584},"geometry":{"x":174000.59000000078,"y":2544628.6699999999}},{"attributes":{"ID":406609,"DIS_CODE":0,"TOWNNAME":"東區","LI":"崇信里","LIN":"13鄰","STREET":"崇信街","SECT":" ","MAREA":" ","LANE":" ","ALLEY":" ","HOUSE_NO":"６６號","E_COORD97":170715.53,"N_COORD97":2542422.4300000002,"ADDRESS":"崇信街６６號","OBJECTID":406585},"geometry":{"x":170715.53000000212,"y":2542422.4300000016}},{"attributes":{"ID":406610,"DIS_CODE":0,"TOWNNAME":"東區","LI":"崇信里","LIN":"13鄰","STREET":"崇信街","SECT":" ","MAREA":" ","LANE":" ","ALLEY":" ","HOUSE_NO":"６８號","E_COORD97":170717.54000000001,"N_COORD97":2542417.9100000001,"ADDRESS":"崇信街６８號","OBJECTID":406586},"geometry":{"x":170717.54000000097,"y":2542417.9100000039}},{"attributes":{"ID":406611,"DIS_CODE":0,"TOWNNAME":"東區","LI":"富裕里","LIN":"13鄰","STREET":"裕豐街","SECT":" ","MAREA":" ","LANE":"６１巷","ALLEY":" ","HOUSE_NO":"４號","E_COORD97":170696.81,"N_COORD97":2542836.2799999998,"ADDRESS":"裕豐街６１巷４號","OBJECTID":406587},"geometry":{"x":170696.80999999959,"y":2542836.2800000012}},{"attributes":{"ID":406612,"DIS_CODE":0,"TOWNNAME":"永康區","LI":"勝利里","LIN":"22鄰","STREET":"中華路","SECT":" ","MAREA":" ","LANE":"２１７巷","ALLEY":" ","HOUSE_NO":"１１號","E_COORD97":171567.29999999999,"N_COORD97":2545032.2400000002,"ADDRESS":"中華路２１７巷１１號","OBJECTID":406588},"geometry":{"x":171567.29999999981,"y":2545032.2400000002}},{"attributes":{"ID":406613,"DIS_CODE":0,"TOWNNAME":"永康區","LI":"勝利里","LIN":"22鄰","STREET":"中華路","SECT":" ","MAREA":" ","LANE":"２３１巷","ALLEY":" ","HOUSE_NO":"１０號","E_COORD97":171565.78,"N_COORD97":2545097,"ADDRESS":"中華路２３１巷１０號","OBJECTID":406589},"geometry":{"x":171565.78000000026,"y":2545097.0000000019}},{"attributes":{"ID":406614,"DIS_CODE":0,"TOWNNAME":"安南區","LI":"新順里","LIN":"22鄰","STREET":"安豐六街","SECT":" ","MAREA":" ","LANE":"２５巷","ALLEY":" ","HOUSE_NO":"３號","E_COORD97":169321.42999999999,"N_COORD97":2549727.8599999999,"ADDRESS":"安豐六街２５巷３號","OBJECTID":406590},"geometry":{"x":169321.4299999997,"y":2549727.8600000013}},{"attributes":{"ID":406615,"DIS_CODE":0,"TOWNNAME":"安南區","LI":"新順里","LIN":"22鄰","STREET":"安豐六街","SECT":" ","MAREA":" ","LANE":"２５巷","ALLEY":" ","HOUSE_NO":"５號","E_COORD97":169321.69,"N_COORD97":2549733.4500000002,"ADDRESS":"安豐六街２５巷５號","OBJECTID":406591},"geometry":{"x":169321.69000000134,"y":2549733.450000003}},{"attributes":{"ID":406616,"DIS_CODE":0,"TOWNNAME":"安南區","LI":"新順里","LIN":"22鄰","STREET":"安豐六街","SECT":" ","MAREA":" ","LANE":"２５巷","ALLEY":" ","HOUSE_NO":"７號","E_COORD97":169322.20000000001,"N_COORD97":2549737.8999999999,"ADDRESS":"安豐六街２５巷７號","OBJECTID":406592},"geometry":{"x":169322.20000000019,"y":2549737.8999999985}},{"attributes":{"ID":406617,"DIS_CODE":0,"TOWNNAME":"安南區","LI":"新順里","LIN":"22鄰","STREET":"安豐六街","SECT":" ","MAREA":" ","LANE":"２５巷","ALLEY":" ","HOUSE_NO":"１９號","E_COORD97":169308.03,"N_COORD97":2549758.1000000001,"ADDRESS":"安豐六街２５巷１９號","OBJECTID":406593},"geometry":{"x":169308.03000000026,"y":2549758.0999999996}},{"attributes":{"ID":406618,"DIS_CODE":0,"TOWNNAME":"安南區","LI":"新順里","LIN":"22鄰","STREET":"安豐六街","SECT":" ","MAREA":" ","LANE":"２５巷","ALLEY":" ","HOUSE_NO":"２１號","E_COORD97":169305.98999999999,"N_COORD97":2549760.6400000001,"ADDRESS":"安豐六街２５巷２１號","OBJECTID":406594},"geometry":{"x":169305.99000000115,"y":2549760.6400000043}},{"attributes":{"ID":406619,"DIS_CODE":0,"TOWNNAME":"安南區","LI":"海東里","LIN":"22鄰","STREET":"同安路","SECT":" ","MAREA":" ","LANE":"８３巷","ALLEY":" ","HOUSE_NO":"１６號","E_COORD97":166912.48000000001,"N_COORD97":2548986.2000000002,"ADDRESS":"同安路８３巷１６號","OBJECTID":406595},"geometry":{"x":166912.48000000138,"y":2548986.2000000011}},{"attributes":{"ID":406620,"DIS_CODE":0,"TOWNNAME":"安南區","LI":"海東里","LIN":"22鄰","STREET":"同安路","SECT":" ","MAREA":" ","LANE":"８３巷","ALLEY":" ","HOUSE_NO":"１１號","E_COORD97":166902.20000000001,"N_COORD97":2548978.8399999999,"ADDRESS":"同安路８３巷１１號","OBJECTID":406596},"geometry":{"x":166902.20000000112,"y":2548978.8400000017}},{"attributes":{"ID":406621,"DIS_CODE":0,"TOWNNAME":"安南區","LI":"海東里","LIN":"22鄰","STREET":"同安路","SECT":" ","MAREA":" ","LANE":"８３巷","ALLEY":" ","HOUSE_NO":"９號","E_COORD97":166905.12,"N_COORD97":2548974.8999999999,"ADDRESS":"同安路８３巷９號","OBJECTID":406597},"geometry":{"x":166905.12000000011,"y":2548974.9000000004}},{"attributes":{"ID":406622,"DIS_CODE":0,"TOWNNAME":"安南區","LI":"海東里","LIN":"22鄰","STREET":"同安路","SECT":" ","MAREA":" ","LANE":"８３巷","ALLEY":" ","HOUSE_NO":"７號","E_COORD97":166908.67000000001,"N_COORD97":2548970.5800000001,"ADDRESS":"同安路８３巷７號","OBJECTID":406598},"geometry":{"x":166908.67000000086,"y":2548970.5800000038}},{"attributes":{"ID":406623,"DIS_CODE":0,"TOWNNAME":"安南區","LI":"海東里","LIN":"22鄰","STREET":"同安路","SECT":" ","MAREA":" ","LANE":"８３巷","ALLEY":" ","HOUSE_NO":"５號","E_COORD97":166912.48000000001,"N_COORD97":2548966.1299999999,"ADDRESS":"同安路８３巷５號","OBJECTID":406599},"geometry":{"x":166912.48000000138,"y":2548966.1300000008}},{"attributes":{"ID":406624,"DIS_CODE":0,"TOWNNAME":"安南區","LI":"海東里","LIN":"22鄰","STREET":"同安路","SECT":" ","MAREA":" ","LANE":"８３巷","ALLEY":" ","HOUSE_NO":"３號","E_COORD97":166915.91,"N_COORD97":2548961.8199999998,"ADDRESS":"同安路８３巷３號","OBJECTID":406600},"geometry":{"x":166915.91000000108,"y":2548961.8200000003}}]}