{"displayFieldName":"TOWNNAME","fieldAliases":{"ID":"ID","DIS_CODE":"DIS_CODE","TOWNNAME":"TOWNNAME","LI":"LI","LIN":"LIN","STREET":"STREET","SECT":"SECT","MAREA":"MAREA","LANE":"LANE","ALLEY":"ALLEY","HOUSE_NO":"HOUSE_NO","E_COORD97":"E_COORD97","N_COORD97":"N_COORD97","ADDRESS":"ADDRESS","OBJECTID":"OBJECTID"},"geometryType":"esriGeometryPoint","spatialReference":{"wkid":102443,"latestWkid":3826},"fields":[{"name":"ID","type":"esriFieldTypeDouble","alias":"ID"},{"name":"DIS_CODE","type":"esriFieldTypeInteger","alias":"DIS_CODE"},{"name":"TOWNNAME","type":"esriFieldTypeString","alias":"TOWNNAME","length":8},{"name":"LI","type":"esriFieldTypeString","alias":"LI","length":8},{"name":"LIN","type":"esriFieldTypeString","alias":"LIN","length":12},{"name":"STREET","type":"esriFieldTypeString","alias":"STREET","length":20},{"name":"SECT","type":"esriFieldTypeString","alias":"SECT","length":8},{"name":"MAREA","type":"esriFieldTypeString","alias":"MAREA","length":12},{"name":"LANE","type":"esriFieldTypeString","alias":"LANE","length":10},{"name":"ALLEY","type":"esriFieldTypeString","alias":"ALLEY","length":10},{"name":"HOUSE_NO","type":"esriFieldTypeString","alias":"HOUSE_NO","length":20},{"name":"E_COORD97","type":"esriFieldTypeDouble","alias":"E_COORD97"},{"name":"N_COORD97","type":"esriFieldTypeDouble","alias":"N_COORD97"},{"name":"ADDRESS","type":"esriFieldTypeString","alias":"ADDRESS","length":50},{"name":"OBJECTID","type":"esriFieldTypeOID","alias":"OBJECTID"}],"features":[{"attributes":{"ID":586828,"DIS_CODE":0,"TOWNNAME":"北區","LI":"裕民里","LIN":"11鄰","STREET":"成功路","SECT":" ","MAREA":" ","LANE":" ","ALLEY":" ","HOUSE_NO":"６４４號","E_COORD97":167383.57999999999,"N_COORD97":2544890.98,"ADDRESS":"成功路６４４號","OBJECTID":586801},"geometry":{"x":167383.58000000007,"y":2544890.9800000023}},{"attributes":{"ID":586829,"DIS_CODE":0,"TOWNNAME":"南區","LI":"彰南里","LIN":"11鄰","STREET":"新孝路","SECT":" ","MAREA":" ","LANE":" ","ALLEY":" ","HOUSE_NO":"２３０號","E_COORD97":165875.85999999999,"N_COORD97":2542124.54,"ADDRESS":"新孝路２３０號","OBJECTID":586802},"geometry":{"x":165875.86000000127,"y":2542124.5400000028}},{"attributes":{"ID":586830,"DIS_CODE":0,"TOWNNAME":"南區","LI":"喜東里","LIN":"11鄰","STREET":"明興路","SECT":" ","MAREA":" ","LANE":" ","ALLEY":" ","HOUSE_NO":"７９６號","E_COORD97":165973.67000000001,"N_COORD97":2537693.3300000001,"ADDRESS":"明興路７９６號","OBJECTID":586803},"geometry":{"x":165973.66999999993,"y":2537693.3300000019}},{"attributes":{"ID":586831,"DIS_CODE":0,"TOWNNAME":"南區","LI":"喜東里","LIN":"11鄰","STREET":"明興路","SECT":" ","MAREA":" ","LANE":" ","ALLEY":" ","HOUSE_NO":"７４６號","E_COORD97":165993.59,"N_COORD97":2537886.48,"ADDRESS":"明興路７４６號","OBJECTID":586804},"geometry":{"x":165993.59000000171,"y":2537886.4800000023}},{"attributes":{"ID":586832,"DIS_CODE":0,"TOWNNAME":"南區","LI":"喜東里","LIN":"11鄰","STREET":"明興路","SECT":" ","MAREA":" ","LANE":" ","ALLEY":" ","HOUSE_NO":"７８８號","E_COORD97":165972.84,"N_COORD97":2537709.04,"ADDRESS":"明興路７８８號","OBJECTID":586805},"geometry":{"x":165972.83999999985,"y":2537709.0399999991}},{"attributes":{"ID":586833,"DIS_CODE":0,"TOWNNAME":"南區","LI":"喜東里","LIN":"11鄰","STREET":"明興路","SECT":" ","MAREA":" ","LANE":" ","ALLEY":" ","HOUSE_NO":"７９０號","E_COORD97":165973.92000000001,"N_COORD97":2537704.77,"ADDRESS":"明興路７９０號","OBJECTID":586806},"geometry":{"x":165973.91999999993,"y":2537704.7699999996}},{"attributes":{"ID":586834,"DIS_CODE":0,"TOWNNAME":"南區","LI":"喜東里","LIN":"11鄰","STREET":"明興路","SECT":" ","MAREA":" ","LANE":" ","ALLEY":" ","HOUSE_NO":"７９２號","E_COORD97":165974.17000000001,"N_COORD97":2537701,"ADDRESS":"明興路７９２號","OBJECTID":586807},"geometry":{"x":165974.16999999993,"y":2537700.9999999981}},{"attributes":{"ID":586835,"DIS_CODE":0,"TOWNNAME":"南區","LI":"喜東里","LIN":"11鄰","STREET":"明興路","SECT":" ","MAREA":" ","LANE":" ","ALLEY":" ","HOUSE_NO":"７９４號","E_COORD97":165973.92000000001,"N_COORD97":2537696.98,"ADDRESS":"明興路７９４號","OBJECTID":586808},"geometry":{"x":165973.91999999993,"y":2537696.9800000004}},{"attributes":{"ID":586836,"DIS_CODE":0,"TOWNNAME":"南區","LI":"喜東里","LIN":"11鄰","STREET":"明興路","SECT":" ","MAREA":" ","LANE":" ","ALLEY":" ","HOUSE_NO":"７９８號","E_COORD97":165973.67000000001,"N_COORD97":2537689.3100000001,"ADDRESS":"明興路７９８號","OBJECTID":586809},"geometry":{"x":165973.66999999993,"y":2537689.3099999987}},{"attributes":{"ID":586837,"DIS_CODE":0,"TOWNNAME":"南區","LI":"喜東里","LIN":"11鄰","STREET":"明興路","SECT":" ","MAREA":" ","LANE":" ","ALLEY":" ","HOUSE_NO":"８００號","E_COORD97":165973.29000000001,"N_COORD97":2537684.79,"ADDRESS":"明興路８００號","OBJECTID":586810},"geometry":{"x":165973.29000000004,"y":2537684.7900000028}},{"attributes":{"ID":586838,"DIS_CODE":0,"TOWNNAME":"南區","LI":"喜東里","LIN":"11鄰","STREET":"明興路","SECT":" ","MAREA":" ","LANE":" ","ALLEY":" ","HOUSE_NO":"８０２號","E_COORD97":165973.04000000001,"N_COORD97":2537681.1400000001,"ADDRESS":"明興路８０２號","OBJECTID":586811},"geometry":{"x":165973.04000000004,"y":2537681.1400000025}},{"attributes":{"ID":586839,"DIS_CODE":0,"TOWNNAME":"南區","LI":"喜東里","LIN":"11鄰","STREET":"明興路","SECT":" ","MAREA":" ","LANE":" ","ALLEY":" ","HOUSE_NO":"８０４號","E_COORD97":165958.26000000001,"N_COORD97":2537683.3999999999,"ADDRESS":"明興路８０４號","OBJECTID":586812},"geometry":{"x":165958.25999999978,"y":2537683.4000000022}},{"attributes":{"ID":586840,"DIS_CODE":0,"TOWNNAME":"南區","LI":"喜東里","LIN":"11鄰","STREET":"明興路","SECT":" ","MAREA":" ","LANE":" ","ALLEY":" ","HOUSE_NO":"８０６號","E_COORD97":165957.37,"N_COORD97":2537688.6800000002,"ADDRESS":"明興路８０６號","OBJECTID":586813},"geometry":{"x":165957.37000000011,"y":2537688.6799999997}},{"attributes":{"ID":586841,"DIS_CODE":0,"TOWNNAME":"南區","LI":"喜東里","LIN":"11鄰","STREET":"明興路","SECT":" ","MAREA":" ","LANE":" ","ALLEY":" ","HOUSE_NO":"８０８號","E_COORD97":165956.48999999999,"N_COORD97":2537694.21,"ADDRESS":"明興路８０８號","OBJECTID":586814},"geometry":{"x":165956.49000000022,"y":2537694.2100000028}},{"attributes":{"ID":586842,"DIS_CODE":0,"TOWNNAME":"南區","LI":"喜東里","LIN":"11鄰","STREET":"明興路","SECT":" ","MAREA":" ","LANE":" ","ALLEY":" ","HOUSE_NO":"８１０號","E_COORD97":165956.87,"N_COORD97":2537698.9900000002,"ADDRESS":"明興路８１０號","OBJECTID":586815},"geometry":{"x":165956.87000000104,"y":2537698.9900000021}},{"attributes":{"ID":586843,"DIS_CODE":0,"TOWNNAME":"南區","LI":"喜東里","LIN":"11鄰","STREET":"明興路","SECT":" ","MAREA":" ","LANE":" ","ALLEY":" ","HOUSE_NO":"８１２號","E_COORD97":165955.35999999999,"N_COORD97":2537704.02,"ADDRESS":"明興路８１２號","OBJECTID":586816},"geometry":{"x":165955.36000000127,"y":2537704.0200000033}},{"attributes":{"ID":586844,"DIS_CODE":0,"TOWNNAME":"南區","LI":"喜東里","LIN":"11鄰","STREET":"明興路","SECT":" ","MAREA":" ","LANE":" ","ALLEY":" ","HOUSE_NO":"８１４號","E_COORD97":165937.23999999999,"N_COORD97":2537698.73,"ADDRESS":"明興路８１４號","OBJECTID":586817},"geometry":{"x":165937.24000000115,"y":2537698.7300000004}},{"attributes":{"ID":586845,"DIS_CODE":0,"TOWNNAME":"南區","LI":"喜東里","LIN":"11鄰","STREET":"明興路","SECT":" ","MAREA":" ","LANE":" ","ALLEY":" ","HOUSE_NO":"８１６號","E_COORD97":165938.48999999999,"N_COORD97":2537693.2000000002,"ADDRESS":"明興路８１６號","OBJECTID":586818},"geometry":{"x":165938.49000000022,"y":2537693.2000000011}},{"attributes":{"ID":586846,"DIS_CODE":0,"TOWNNAME":"南區","LI":"喜東里","LIN":"11鄰","STREET":"明興路","SECT":" ","MAREA":" ","LANE":" ","ALLEY":" ","HOUSE_NO":"８１８號","E_COORD97":165939.12,"N_COORD97":2537688.5499999998,"ADDRESS":"明興路８１８號","OBJECTID":586819},"geometry":{"x":165939.12000000011,"y":2537688.5500000026}},{"attributes":{"ID":586847,"DIS_CODE":0,"TOWNNAME":"南區","LI":"喜東里","LIN":"11鄰","STREET":"明興路","SECT":" ","MAREA":" ","LANE":" ","ALLEY":" ","HOUSE_NO":"８２０號","E_COORD97":165939.75,"N_COORD97":2537684.3999999999,"ADDRESS":"明興路８２０號","OBJECTID":586820},"geometry":{"x":165939.75,"y":2537684.4000000004}},{"attributes":{"ID":586848,"DIS_CODE":0,"TOWNNAME":"南區","LI":"喜東里","LIN":"11鄰","STREET":"明興路","SECT":" ","MAREA":" ","LANE":" ","ALLEY":" ","HOUSE_NO":"８２２號","E_COORD97":165941.39000000001,"N_COORD97":2537679.3700000001,"ADDRESS":"明興路８２２號","OBJECTID":586821},"geometry":{"x":165941.38999999966,"y":2537679.3700000048}},{"attributes":{"ID":586849,"DIS_CODE":0,"TOWNNAME":"南區","LI":"喜東里","LIN":"11鄰","STREET":"明興路","SECT":" ","MAREA":" ","LANE":" ","ALLEY":" ","HOUSE_NO":"８２４號","E_COORD97":165940,"N_COORD97":2537674.0899999999,"ADDRESS":"明興路８２４號","OBJECTID":586822},"geometry":{"x":165940.00000000186,"y":2537674.0900000017}},{"attributes":{"ID":586850,"DIS_CODE":0,"TOWNNAME":"南區","LI":"喜東里","LIN":"11鄰","STREET":"明興路","SECT":" ","MAREA":" ","LANE":" ","ALLEY":" ","HOUSE_NO":"８２６號","E_COORD97":165941.26000000001,"N_COORD97":2537669.4399999999,"ADDRESS":"明興路８２６號","OBJECTID":586823},"geometry":{"x":165941.25999999978,"y":2537669.4399999995}},{"attributes":{"ID":586851,"DIS_CODE":0,"TOWNNAME":"南區","LI":"喜東里","LIN":"11鄰","STREET":"明興路","SECT":" ","MAREA":" ","LANE":" ","ALLEY":" ","HOUSE_NO":"８２８號","E_COORD97":165945.04000000001,"N_COORD97":2537665.2999999998,"ADDRESS":"明興路８２８號","OBJECTID":586824},"geometry":{"x":165945.0400000019,"y":2537665.3000000007}},{"attributes":{"ID":586852,"DIS_CODE":0,"TOWNNAME":"南區","LI":"喜東里","LIN":"11鄰","STREET":"明興路","SECT":" ","MAREA":" ","LANE":" ","ALLEY":" ","HOUSE_NO":"８３０號","E_COORD97":165946.04999999999,"N_COORD97":2537660.52,"ADDRESS":"明興路８３０號","OBJECTID":586825},"geometry":{"x":165946.04999999981,"y":2537660.5200000014}},{"attributes":{"ID":586853,"DIS_CODE":0,"TOWNNAME":"南區","LI":"喜東里","LIN":"11鄰","STREET":"明興路","SECT":" ","MAREA":" ","LANE":" ","ALLEY":" ","HOUSE_NO":"８３２號","E_COORD97":165947.04999999999,"N_COORD97":2537656.6200000001,"ADDRESS":"明興路８３２號","OBJECTID":586826},"geometry":{"x":165947.05000000075,"y":2537656.620000001}},{"attributes":{"ID":586854,"DIS_CODE":0,"TOWNNAME":"南區","LI":"喜東里","LIN":"11鄰","STREET":"明興路","SECT":" ","MAREA":" ","LANE":" ","ALLEY":" ","HOUSE_NO":"８３４號","E_COORD97":165960.89999999999,"N_COORD97":2537667.9399999999,"ADDRESS":"明興路８３４號","OBJECTID":586827},"geometry":{"x":165960.90000000037,"y":2537667.9400000013}},{"attributes":{"ID":586855,"DIS_CODE":0,"TOWNNAME":"南區","LI":"喜東里","LIN":"11鄰","STREET":"明興路","SECT":" ","MAREA":" ","LANE":" ","ALLEY":" ","HOUSE_NO":"８３６號","E_COORD97":165972.16,"N_COORD97":2537670.3700000001,"ADDRESS":"明興路８３６號","OBJECTID":586828},"geometry":{"x":165972.16000000108,"y":2537670.3700000029}},{"attributes":{"ID":586856,"DIS_CODE":0,"TOWNNAME":"南區","LI":"喜東里","LIN":"11鄰","STREET":"明興路","SECT":" ","MAREA":" ","LANE":" ","ALLEY":" ","HOUSE_NO":"７４６號之６","E_COORD97":165996.35999999999,"N_COORD97":2537833.0699999998,"ADDRESS":"明興路７４６號之６","OBJECTID":586829},"geometry":{"x":165996.36000000127,"y":2537833.0699999984}},{"attributes":{"ID":586857,"DIS_CODE":0,"TOWNNAME":"南區","LI":"喜東里","LIN":"11鄰","STREET":"明興路","SECT":" ","MAREA":" ","LANE":" ","ALLEY":" ","HOUSE_NO":"７４６號之７","E_COORD97":165995.64000000001,"N_COORD97":2537813.7599999998,"ADDRESS":"明興路７４６號之７","OBJECTID":586830},"geometry":{"x":165995.63999999966,"y":2537813.7599999998}},{"attributes":{"ID":586858,"DIS_CODE":0,"TOWNNAME":"南區","LI":"彰南里","LIN":"11鄰","STREET":"新樂路","SECT":" ","MAREA":" ","LANE":" ","ALLEY":" ","HOUSE_NO":"７號之１","E_COORD97":165772.64000000001,"N_COORD97":2542110.4199999999,"ADDRESS":"新樂路７號之１","OBJECTID":586831},"geometry":{"x":165772.64000000153,"y":2542110.4200000018}},{"attributes":{"ID":586859,"DIS_CODE":0,"TOWNNAME":"鹽水區","LI":"水仙里","LIN":"11鄰","STREET":"西門路","SECT":" ","MAREA":" ","LANE":" ","ALLEY":" ","HOUSE_NO":"１９之１０號","E_COORD97":174878.69,"N_COORD97":2579729.1899999999,"ADDRESS":"西門路１９之１０號","OBJECTID":586832},"geometry":{"x":174878.69000000134,"y":2579729.1899999995}},{"attributes":{"ID":586860,"DIS_CODE":0,"TOWNNAME":"鹽水區","LI":"水仙里","LIN":"11鄰","STREET":"西門路","SECT":" ","MAREA":" ","LANE":" ","ALLEY":" ","HOUSE_NO":"１９號之１１","E_COORD97":174887.67999999999,"N_COORD97":2579733.23,"ADDRESS":"西門路１９號之１１","OBJECTID":586833},"geometry":{"x":174887.68000000063,"y":2579733.2300000004}},{"attributes":{"ID":586861,"DIS_CODE":0,"TOWNNAME":"鹽水區","LI":"水仙里","LIN":"11鄰","STREET":"西門路","SECT":" ","MAREA":" ","LANE":" ","ALLEY":" ","HOUSE_NO":"１９號之１２","E_COORD97":174891.23000000001,"N_COORD97":2579735.8199999998,"ADDRESS":"西門路１９號之１２","OBJECTID":586834},"geometry":{"x":174891.23000000231,"y":2579735.8200000003}},{"attributes":{"ID":586862,"DIS_CODE":0,"TOWNNAME":"鹽水區","LI":"水仙里","LIN":"11鄰","STREET":"西門路","SECT":" ","MAREA":" ","LANE":" ","ALLEY":" ","HOUSE_NO":"１９號之１３","E_COORD97":174894.92999999999,"N_COORD97":2579738.8500000001,"ADDRESS":"西門路１９號之１３","OBJECTID":586835},"geometry":{"x":174894.93000000063,"y":2579738.8499999978}},{"attributes":{"ID":586863,"DIS_CODE":0,"TOWNNAME":"鹽水區","LI":"水仙里","LIN":"11鄰","STREET":"西門路","SECT":" ","MAREA":" ","LANE":" ","ALLEY":" ","HOUSE_NO":"１９號之１４","E_COORD97":174898.63,"N_COORD97":2579741.7799999998,"ADDRESS":"西門路１９號之１４","OBJECTID":586836},"geometry":{"x":174898.63000000082,"y":2579741.7799999993}},{"attributes":{"ID":586864,"DIS_CODE":0,"TOWNNAME":"鹽水區","LI":"水仙里","LIN":"11鄰","STREET":"西門路","SECT":" ","MAREA":" ","LANE":" ","ALLEY":" ","HOUSE_NO":"１９號之１５","E_COORD97":174902.20999999999,"N_COORD97":2579743.77,"ADDRESS":"西門路１９號之１５","OBJECTID":586837},"geometry":{"x":174902.20999999996,"y":2579743.7700000014}},{"attributes":{"ID":586865,"DIS_CODE":0,"TOWNNAME":"鹽水區","LI":"水仙里","LIN":"11鄰","STREET":"西門路","SECT":" ","MAREA":" ","LANE":" ","ALLEY":" ","HOUSE_NO":"１９號之１６","E_COORD97":174905.32000000001,"N_COORD97":2579746.0899999999,"ADDRESS":"西門路１９號之１６","OBJECTID":586838},"geometry":{"x":174905.3200000003,"y":2579746.0900000017}},{"attributes":{"ID":586866,"DIS_CODE":0,"TOWNNAME":"鹽水區","LI":"水仙里","LIN":"11鄰","STREET":"西門路","SECT":" ","MAREA":" ","LANE":" ","ALLEY":" ","HOUSE_NO":"１９之１７號","E_COORD97":174912.26999999999,"N_COORD97":2579749.1000000001,"ADDRESS":"西門路１９之１７號","OBJECTID":586839},"geometry":{"x":174912.27000000048,"y":2579749.1000000015}},{"attributes":{"ID":586867,"DIS_CODE":0,"TOWNNAME":"鹽水區","LI":"水仙里","LIN":"11鄰","STREET":"西門路","SECT":" ","MAREA":" ","LANE":" ","ALLEY":" ","HOUSE_NO":"１９號之１８","E_COORD97":174884.35000000001,"N_COORD97":2579745.1800000002,"ADDRESS":"西門路１９號之１８","OBJECTID":586840},"geometry":{"x":174884.34999999963,"y":2579745.1800000016}},{"attributes":{"ID":586868,"DIS_CODE":0,"TOWNNAME":"鹽水區","LI":"水仙里","LIN":"11鄰","STREET":"西門路","SECT":" ","MAREA":" ","LANE":" ","ALLEY":" ","HOUSE_NO":"１９號之１９","E_COORD97":174880.5,"N_COORD97":2579746.5099999998,"ADDRESS":"西門路１９號之１９","OBJECTID":586841},"geometry":{"x":174880.50000000186,"y":2579746.5100000016}},{"attributes":{"ID":586869,"DIS_CODE":0,"TOWNNAME":"鹽水區","LI":"水仙里","LIN":"11鄰","STREET":"西門路","SECT":" ","MAREA":" ","LANE":" ","ALLEY":" ","HOUSE_NO":"１９之１號","E_COORD97":174853.04999999999,"N_COORD97":2579700.71,"ADDRESS":"西門路１９之１號","OBJECTID":586842},"geometry":{"x":174853.05000000075,"y":2579700.7100000046}},{"attributes":{"ID":586870,"DIS_CODE":0,"TOWNNAME":"鹽水區","LI":"水仙里","LIN":"11鄰","STREET":"西門路","SECT":" ","MAREA":" ","LANE":" ","ALLEY":" ","HOUSE_NO":"１９號之２０","E_COORD97":174876.64999999999,"N_COORD97":2579747.8399999999,"ADDRESS":"西門路１９號之２０","OBJECTID":586843},"geometry":{"x":174876.6500000013,"y":2579747.8400000017}},{"attributes":{"ID":586871,"DIS_CODE":0,"TOWNNAME":"鹽水區","LI":"水仙里","LIN":"11鄰","STREET":"西門路","SECT":" ","MAREA":" ","LANE":" ","ALLEY":" ","HOUSE_NO":"１９號之２１","E_COORD97":174872.79999999999,"N_COORD97":2579749.1699999999,"ADDRESS":"西門路１９號之２１","OBJECTID":586844},"geometry":{"x":174872.79999999981,"y":2579749.1699999999}},{"attributes":{"ID":586872,"DIS_CODE":0,"TOWNNAME":"鹽水區","LI":"水仙里","LIN":"11鄰","STREET":"西門路","SECT":" ","MAREA":" ","LANE":" ","ALLEY":" ","HOUSE_NO":"１９號之２２","E_COORD97":174868.94,"N_COORD97":2579750.5,"ADDRESS":"西門路１９號之２２","OBJECTID":586845},"geometry":{"x":174868.94000000041,"y":2579750.5}},{"attributes":{"ID":586873,"DIS_CODE":0,"TOWNNAME":"鹽水區","LI":"水仙里","LIN":"11鄰","STREET":"西門路","SECT":" ","MAREA":" ","LANE":" ","ALLEY":" ","HOUSE_NO":"１９之２３號","E_COORD97":174864.76999999999,"N_COORD97":2579732.96,"ADDRESS":"西門路１９之２３號","OBJECTID":586846},"geometry":{"x":174864.77000000048,"y":2579732.9600000046}},{"attributes":{"ID":586874,"DIS_CODE":0,"TOWNNAME":"鹽水區","LI":"水仙里","LIN":"11鄰","STREET":"西門路","SECT":" ","MAREA":" ","LANE":" ","ALLEY":" ","HOUSE_NO":"１９之２４號","E_COORD97":174933.28,"N_COORD97":2579785.7400000002,"ADDRESS":"西門路１９之２４號","OBJECTID":586847},"geometry":{"x":174933.28000000119,"y":2579785.7400000021}},{"attributes":{"ID":586875,"DIS_CODE":0,"TOWNNAME":"鹽水區","LI":"水仙里","LIN":"11鄰","STREET":"西門路","SECT":" ","MAREA":" ","LANE":" ","ALLEY":" ","HOUSE_NO":"１９號之２","E_COORD97":174853.25,"N_COORD97":2579705.46,"ADDRESS":"西門路１９號之２","OBJECTID":586848},"geometry":{"x":174853.24999999907,"y":2579705.4600000009}},{"attributes":{"ID":586876,"DIS_CODE":0,"TOWNNAME":"鹽水區","LI":"水仙里","LIN":"11鄰","STREET":"西門路","SECT":" ","MAREA":" ","LANE":" ","ALLEY":" ","HOUSE_NO":"１９號之３","E_COORD97":174856.10999999999,"N_COORD97":2579708.71,"ADDRESS":"西門路１９號之３","OBJECTID":586849},"geometry":{"x":174856.11000000034,"y":2579708.7100000028}},{"attributes":{"ID":586877,"DIS_CODE":0,"TOWNNAME":"鹽水區","LI":"水仙里","LIN":"11鄰","STREET":"西門路","SECT":" ","MAREA":" ","LANE":" ","ALLEY":" ","HOUSE_NO":"１９之４號","E_COORD97":174859.47,"N_COORD97":2579711.5600000001,"ADDRESS":"西門路１９之４號","OBJECTID":586850},"geometry":{"x":174859.46999999974,"y":2579711.5600000042}},{"attributes":{"ID":586878,"DIS_CODE":0,"TOWNNAME":"鹽水區","LI":"水仙里","LIN":"11鄰","STREET":"西門路","SECT":" ","MAREA":" ","LANE":" ","ALLEY":" ","HOUSE_NO":"１９號之５","E_COORD97":174862.39999999999,"N_COORD97":2579714.5699999998,"ADDRESS":"西門路１９號之５","OBJECTID":586851},"geometry":{"x":174862.40000000037,"y":2579714.570000004}},{"attributes":{"ID":586879,"DIS_CODE":0,"TOWNNAME":"鹽水區","LI":"水仙里","LIN":"11鄰","STREET":"西門路","SECT":" ","MAREA":" ","LANE":" ","ALLEY":" ","HOUSE_NO":"１９之６號","E_COORD97":174865.97,"N_COORD97":2579717.7999999998,"ADDRESS":"西門路１９之６號","OBJECTID":586852},"geometry":{"x":174865.97000000067,"y":2579717.8000000026}},{"attributes":{"ID":586880,"DIS_CODE":0,"TOWNNAME":"鹽水區","LI":"水仙里","LIN":"11鄰","STREET":"西門路","SECT":" ","MAREA":" ","LANE":" ","ALLEY":" ","HOUSE_NO":"１９號之７","E_COORD97":174869.09,"N_COORD97":2579720.7799999998,"ADDRESS":"西門路１９號之７","OBJECTID":586853},"geometry":{"x":174869.08999999985,"y":2579720.7799999993}},{"attributes":{"ID":586881,"DIS_CODE":0,"TOWNNAME":"鹽水區","LI":"水仙里","LIN":"11鄰","STREET":"西門路","SECT":" ","MAREA":" ","LANE":" ","ALLEY":" ","HOUSE_NO":"１９之８號","E_COORD97":174872.26999999999,"N_COORD97":2579723.8100000001,"ADDRESS":"西門路１９之８號","OBJECTID":586854},"geometry":{"x":174872.26999999955,"y":2579723.8100000024}},{"attributes":{"ID":586882,"DIS_CODE":0,"TOWNNAME":"鹽水區","LI":"水仙里","LIN":"11鄰","STREET":"西門路","SECT":" ","MAREA":" ","LANE":" ","ALLEY":" ","HOUSE_NO":"１９之９號","E_COORD97":174875.45000000001,"N_COORD97":2579726.5699999998,"ADDRESS":"西門路１９之９號","OBJECTID":586855},"geometry":{"x":174875.45000000019,"y":2579726.5700000003}},{"attributes":{"ID":586883,"DIS_CODE":0,"TOWNNAME":"鹽水區","LI":"水仙里","LIN":"11鄰","STREET":"西門路","SECT":" ","MAREA":" ","LANE":" ","ALLEY":" ","HOUSE_NO":"１９號","E_COORD97":174884.06,"N_COORD97":2579766.9500000002,"ADDRESS":"西門路１９號","OBJECTID":586856},"geometry":{"x":174884.05999999959,"y":2579766.9499999993}},{"attributes":{"ID":586884,"DIS_CODE":0,"TOWNNAME":"鹽水區","LI":"水仙里","LIN":"11鄰","STREET":"西門路","SECT":" ","MAREA":" ","LANE":" ","ALLEY":" ","HOUSE_NO":"２６號","E_COORD97":174955.67000000001,"N_COORD97":2579851.48,"ADDRESS":"西門路２６號","OBJECTID":586857},"geometry":{"x":174955.67000000179,"y":2579851.4800000023}},{"attributes":{"ID":586885,"DIS_CODE":0,"TOWNNAME":"鹽水區","LI":"水秀里","LIN":"11鄰","STREET":"忠義路","SECT":" ","MAREA":" ","LANE":" ","ALLEY":" ","HOUSE_NO":"１２之１號","E_COORD97":175299.64999999999,"N_COORD97":2580149.6099999999,"ADDRESS":"忠義路１２之１號","OBJECTID":586858},"geometry":{"x":175299.65000000037,"y":2580149.6099999994}},{"attributes":{"ID":586886,"DIS_CODE":0,"TOWNNAME":"鹽水區","LI":"水秀里","LIN":"11鄰","STREET":"忠義路","SECT":" ","MAREA":" ","LANE":" ","ALLEY":" ","HOUSE_NO":"１２號之２","E_COORD97":175304.34,"N_COORD97":2580150.7000000002,"ADDRESS":"忠義路１２號之２","OBJECTID":586859},"geometry":{"x":175304.34000000078,"y":2580150.7000000011}},{"attributes":{"ID":586887,"DIS_CODE":0,"TOWNNAME":"鹽水區","LI":"水秀里","LIN":"11鄰","STREET":"忠義路","SECT":" ","MAREA":" ","LANE":" ","ALLEY":" ","HOUSE_NO":"１２號之３","E_COORD97":175318.17999999999,"N_COORD97":2580135.9500000002,"ADDRESS":"忠義路１２號之３","OBJECTID":586860},"geometry":{"x":175318.18000000063,"y":2580135.9500000011}},{"attributes":{"ID":586888,"DIS_CODE":0,"TOWNNAME":"鹽水區","LI":"水秀里","LIN":"11鄰","STREET":"忠義路","SECT":" ","MAREA":" ","LANE":" ","ALLEY":" ","HOUSE_NO":"１４號","E_COORD97":175337.42000000001,"N_COORD97":2580144.9100000001,"ADDRESS":"忠義路１４號","OBJECTID":586861},"geometry":{"x":175337.42000000086,"y":2580144.9100000001}},{"attributes":{"ID":586889,"DIS_CODE":0,"TOWNNAME":"鹽水區","LI":"水秀里","LIN":"11鄰","STREET":"忠義路","SECT":" ","MAREA":" ","LANE":" ","ALLEY":" ","HOUSE_NO":"１６號","E_COORD97":175281.07000000001,"N_COORD97":2580128.1299999999,"ADDRESS":"忠義路１６號","OBJECTID":586862},"geometry":{"x":175281.07000000123,"y":2580128.129999999}},{"attributes":{"ID":586890,"DIS_CODE":0,"TOWNNAME":"安平區","LI":"西門里","LIN":"11鄰","STREET":"古堡街","SECT":" ","MAREA":" ","LANE":" ","ALLEY":" ","HOUSE_NO":"７７號","E_COORD97":163996.20999999999,"N_COORD97":2544806.6299999999,"ADDRESS":"古堡街７７號","OBJECTID":586863},"geometry":{"x":163996.21000000089,"y":2544806.6300000008}},{"attributes":{"ID":586891,"DIS_CODE":0,"TOWNNAME":"安平區","LI":"西門里","LIN":"11鄰","STREET":"古堡街","SECT":" ","MAREA":" ","LANE":" ","ALLEY":" ","HOUSE_NO":"７９號","E_COORD97":163994.20000000001,"N_COORD97":2544812.3199999998,"ADDRESS":"古堡街７９號","OBJECTID":586864},"geometry":{"x":163994.20000000019,"y":2544812.320000004}},{"attributes":{"ID":586892,"DIS_CODE":0,"TOWNNAME":"安平區","LI":"港仔里","LIN":"11鄰","STREET":"延平街","SECT":" ","MAREA":" ","LANE":" ","ALLEY":" ","HOUSE_NO":"６７號","E_COORD97":164190.35999999999,"N_COORD97":2544586.77,"ADDRESS":"延平街６７號","OBJECTID":586865},"geometry":{"x":164190.3600000022,"y":2544586.7699999996}},{"attributes":{"ID":586893,"DIS_CODE":0,"TOWNNAME":"安平區","LI":"港仔里","LIN":"11鄰","STREET":"延平街","SECT":" ","MAREA":" ","LANE":" ","ALLEY":" ","HOUSE_NO":"６９號","E_COORD97":164188.28,"N_COORD97":2544590.4100000001,"ADDRESS":"延平街６９號","OBJECTID":586866},"geometry":{"x":164188.28000000026,"y":2544590.4100000001}},{"attributes":{"ID":586894,"DIS_CODE":0,"TOWNNAME":"安平區","LI":"港仔里","LIN":"11鄰","STREET":"延平街","SECT":" ","MAREA":" ","LANE":" ","ALLEY":" ","HOUSE_NO":"７１號","E_COORD97":164183.35000000001,"N_COORD97":2544588.7999999998,"ADDRESS":"延平街７１號","OBJECTID":586867},"geometry":{"x":164183.35000000056,"y":2544588.8000000007}},{"attributes":{"ID":586895,"DIS_CODE":0,"TOWNNAME":"安平區","LI":"港仔里","LIN":"11鄰","STREET":"延平街","SECT":" ","MAREA":" ","LANE":" ","ALLEY":" ","HOUSE_NO":"７３號","E_COORD97":164179.95000000001,"N_COORD97":2544589.5600000001,"ADDRESS":"延平街７３號","OBJECTID":586868},"geometry":{"x":164179.95000000112,"y":2544589.5600000005}},{"attributes":{"ID":586896,"DIS_CODE":0,"TOWNNAME":"安平區","LI":"港仔里","LIN":"11鄰","STREET":"延平街","SECT":" ","MAREA":" ","LANE":" ","ALLEY":" ","HOUSE_NO":"７５號","E_COORD97":164176.54000000001,"N_COORD97":2544590.8199999998,"ADDRESS":"延平街７５號","OBJECTID":586869},"geometry":{"x":164176.54000000004,"y":2544590.8200000003}},{"attributes":{"ID":586897,"DIS_CODE":0,"TOWNNAME":"安平區","LI":"港仔里","LIN":"11鄰","STREET":"延平街","SECT":" ","MAREA":" ","LANE":" ","ALLEY":" ","HOUSE_NO":"７５號之１","E_COORD97":164171.32000000001,"N_COORD97":2544590.2400000002,"ADDRESS":"延平街７５號之１","OBJECTID":586870},"geometry":{"x":164171.3200000003,"y":2544590.2400000021}},{"attributes":{"ID":586898,"DIS_CODE":0,"TOWNNAME":"安平區","LI":"港仔里","LIN":"11鄰","STREET":"延平街","SECT":" ","MAREA":" ","LANE":" ","ALLEY":" ","HOUSE_NO":"７７號","E_COORD97":164174.56,"N_COORD97":2544595.0800000001,"ADDRESS":"延平街７７號","OBJECTID":586871},"geometry":{"x":164174.56000000145,"y":2544595.0800000001}},{"attributes":{"ID":586899,"DIS_CODE":0,"TOWNNAME":"安平區","LI":"港仔里","LIN":"11鄰","STREET":"延平街","SECT":" ","MAREA":" ","LANE":" ","ALLEY":" ","HOUSE_NO":"７９號","E_COORD97":164167.20000000001,"N_COORD97":2544591.02,"ADDRESS":"延平街７９號","OBJECTID":586872},"geometry":{"x":164167.20000000019,"y":2544591.0200000014}},{"attributes":{"ID":586900,"DIS_CODE":0,"TOWNNAME":"安平區","LI":"港仔里","LIN":"11鄰","STREET":"延平街","SECT":" ","MAREA":" ","LANE":" ","ALLEY":" ","HOUSE_NO":"８１號","E_COORD97":164165.28,"N_COORD97":2544598.7799999998,"ADDRESS":"延平街８１號","OBJECTID":586873},"geometry":{"x":164165.28000000212,"y":2544598.7800000012}},{"attributes":{"ID":586901,"DIS_CODE":0,"TOWNNAME":"安平區","LI":"港仔里","LIN":"11鄰","STREET":"延平街","SECT":" ","MAREA":" ","LANE":" ","ALLEY":" ","HOUSE_NO":"８３號","E_COORD97":164161.04000000001,"N_COORD97":2544600.46,"ADDRESS":"延平街８３號","OBJECTID":586874},"geometry":{"x":164161.04000000004,"y":2544600.4600000009}},{"attributes":{"ID":586902,"DIS_CODE":0,"TOWNNAME":"安平區","LI":"港仔里","LIN":"11鄰","STREET":"延平街","SECT":" ","MAREA":" ","LANE":" ","ALLEY":" ","HOUSE_NO":"８５號","E_COORD97":164156.38,"N_COORD97":2544601.23,"ADDRESS":"延平街８５號","OBJECTID":586875},"geometry":{"x":164156.38000000082,"y":2544601.2300000004}},{"attributes":{"ID":586903,"DIS_CODE":0,"TOWNNAME":"安平區","LI":"港仔里","LIN":"11鄰","STREET":"延平街","SECT":" ","MAREA":" ","LANE":" ","ALLEY":" ","HOUSE_NO":"８７號","E_COORD97":164151.89000000001,"N_COORD97":2544601.8300000001,"ADDRESS":"延平街８７號","OBJECTID":586876},"geometry":{"x":164151.88999999873,"y":2544601.8300000038}},{"attributes":{"ID":586904,"DIS_CODE":0,"TOWNNAME":"安平區","LI":"港仔里","LIN":"11鄰","STREET":"延平街","SECT":" ","MAREA":" ","LANE":" ","ALLEY":" ","HOUSE_NO":"５５號","E_COORD97":164215.32999999999,"N_COORD97":2544582.6600000001,"ADDRESS":"延平街５５號","OBJECTID":586877},"geometry":{"x":164215.33000000007,"y":2544582.6600000039}},{"attributes":{"ID":586905,"DIS_CODE":0,"TOWNNAME":"安平區","LI":"港仔里","LIN":"11鄰","STREET":"延平街","SECT":" ","MAREA":" ","LANE":" ","ALLEY":" ","HOUSE_NO":"５７號","E_COORD97":164210.48999999999,"N_COORD97":2544582.2400000002,"ADDRESS":"延平街５７號","OBJECTID":586878},"geometry":{"x":164210.49000000022,"y":2544582.2400000039}},{"attributes":{"ID":586906,"DIS_CODE":0,"TOWNNAME":"安平區","LI":"港仔里","LIN":"11鄰","STREET":"延平街","SECT":" ","MAREA":" ","LANE":" ","ALLEY":" ","HOUSE_NO":"５９號","E_COORD97":164206.20999999999,"N_COORD97":2544583,"ADDRESS":"延平街５９號","OBJECTID":586879},"geometry":{"x":164206.21000000183,"y":2544583}},{"attributes":{"ID":586907,"DIS_CODE":0,"TOWNNAME":"安平區","LI":"港仔里","LIN":"11鄰","STREET":"延平街","SECT":" ","MAREA":" ","LANE":" ","ALLEY":" ","HOUSE_NO":"６１號","E_COORD97":164201.51000000001,"N_COORD97":2544587.02,"ADDRESS":"延平街６１號","OBJECTID":586880},"geometry":{"x":164201.50999999978,"y":2544587.0200000014}},{"attributes":{"ID":586908,"DIS_CODE":0,"TOWNNAME":"安平區","LI":"港仔里","LIN":"11鄰","STREET":"延平街","SECT":" ","MAREA":" ","LANE":" ","ALLEY":" ","HOUSE_NO":"６３號","E_COORD97":164194.13,"N_COORD97":2544584.4199999999,"ADDRESS":"延平街６３號","OBJECTID":586881},"geometry":{"x":164194.12999999989,"y":2544584.4200000018}},{"attributes":{"ID":586909,"DIS_CODE":0,"TOWNNAME":"安平區","LI":"港仔里","LIN":"11鄰","STREET":"觀音街","SECT":" ","MAREA":" ","LANE":" ","ALLEY":" ","HOUSE_NO":"４８號","E_COORD97":164198.39000000001,"N_COORD97":2544550.1000000001,"ADDRESS":"觀音街４８號","OBJECTID":586882},"geometry":{"x":164198.3900000006,"y":2544550.1000000015}},{"attributes":{"ID":586910,"DIS_CODE":0,"TOWNNAME":"安平區","LI":"港仔里","LIN":"11鄰","STREET":"觀音街","SECT":" ","MAREA":" ","LANE":" ","ALLEY":" ","HOUSE_NO":"５０號","E_COORD97":164188.32999999999,"N_COORD97":2544553.2000000002,"ADDRESS":"觀音街５０號","OBJECTID":586883},"geometry":{"x":164188.32999999914,"y":2544553.1999999993}},{"attributes":{"ID":586911,"DIS_CODE":0,"TOWNNAME":"安平區","LI":"港仔里","LIN":"11鄰","STREET":"觀音街","SECT":" ","MAREA":" ","LANE":" ","ALLEY":" ","HOUSE_NO":"５２號","E_COORD97":164181.12,"N_COORD97":2544560.9900000002,"ADDRESS":"觀音街５２號","OBJECTID":586884},"geometry":{"x":164181.12000000011,"y":2544560.9900000021}},{"attributes":{"ID":586912,"DIS_CODE":0,"TOWNNAME":"安平區","LI":"港仔里","LIN":"11鄰","STREET":"延平街","SECT":" ","MAREA":" ","LANE":" ","ALLEY":" ","HOUSE_NO":"３７號","E_COORD97":164252.29000000001,"N_COORD97":2544571.6499999999,"ADDRESS":"延平街３７號","OBJECTID":586885},"geometry":{"x":164252.29000000004,"y":2544571.6500000004}},{"attributes":{"ID":586913,"DIS_CODE":0,"TOWNNAME":"安平區","LI":"港仔里","LIN":"11鄰","STREET":"延平街","SECT":" ","MAREA":" ","LANE":" ","ALLEY":" ","HOUSE_NO":"３９號","E_COORD97":164244.67999999999,"N_COORD97":2544572.6600000001,"ADDRESS":"延平街３９號","OBJECTID":586886},"geometry":{"x":164244.6799999997,"y":2544572.6600000039}},{"attributes":{"ID":586914,"DIS_CODE":0,"TOWNNAME":"安平區","LI":"港仔里","LIN":"11鄰","STREET":"延平街","SECT":" ","MAREA":" ","LANE":" ","ALLEY":" ","HOUSE_NO":"３９號之１","E_COORD97":164240.62,"N_COORD97":2544558.8500000001,"ADDRESS":"延平街３９號之１","OBJECTID":586887},"geometry":{"x":164240.62000000011,"y":2544558.8500000015}},{"attributes":{"ID":586915,"DIS_CODE":0,"TOWNNAME":"安平區","LI":"港仔里","LIN":"11鄰","STREET":"延平街","SECT":" ","MAREA":" ","LANE":" ","ALLEY":" ","HOUSE_NO":"３９號之２","E_COORD97":164238.45999999999,"N_COORD97":2544550.9900000002,"ADDRESS":"延平街３９號之２","OBJECTID":586888},"geometry":{"x":164238.46000000089,"y":2544550.9900000021}},{"attributes":{"ID":586916,"DIS_CODE":0,"TOWNNAME":"安平區","LI":"港仔里","LIN":"11鄰","STREET":"延平街","SECT":" ","MAREA":" ","LANE":" ","ALLEY":" ","HOUSE_NO":"４５號","E_COORD97":164233.39000000001,"N_COORD97":2544575.8300000001,"ADDRESS":"延平街４５號","OBJECTID":586889},"geometry":{"x":164233.39000000153,"y":2544575.8300000019}},{"attributes":{"ID":586917,"DIS_CODE":0,"TOWNNAME":"安平區","LI":"港仔里","LIN":"11鄰","STREET":"延平街","SECT":" ","MAREA":" ","LANE":" ","ALLEY":" ","HOUSE_NO":"４９號","E_COORD97":164225.78,"N_COORD97":2544577.48,"ADDRESS":"延平街４９號","OBJECTID":586890},"geometry":{"x":164225.78000000026,"y":2544577.4800000042}},{"attributes":{"ID":586918,"DIS_CODE":0,"TOWNNAME":"安平區","LI":"港仔里","LIN":"11鄰","STREET":"延平街","SECT":" ","MAREA":" ","LANE":" ","ALLEY":" ","HOUSE_NO":"５１號","E_COORD97":164222.35000000001,"N_COORD97":2544580.27,"ADDRESS":"延平街５１號","OBJECTID":586891},"geometry":{"x":164222.35000000056,"y":2544580.2699999996}},{"attributes":{"ID":586919,"DIS_CODE":0,"TOWNNAME":"安平區","LI":"港仔里","LIN":"11鄰","STREET":"延平街","SECT":" ","MAREA":" ","LANE":" ","ALLEY":" ","HOUSE_NO":"５３號","E_COORD97":164217.53,"N_COORD97":2544566.0699999998,"ADDRESS":"延平街５３號","OBJECTID":586892},"geometry":{"x":164217.53000000026,"y":2544566.0700000003}},{"attributes":{"ID":586920,"DIS_CODE":0,"TOWNNAME":"安平區","LI":"港仔里","LIN":"11鄰","STREET":"觀音街","SECT":" ","MAREA":" ","LANE":" ","ALLEY":" ","HOUSE_NO":"４０號","E_COORD97":164221.97,"N_COORD97":2544538.8199999998,"ADDRESS":"觀音街４０號","OBJECTID":586893},"geometry":{"x":164221.96999999974,"y":2544538.8200000022}},{"attributes":{"ID":586921,"DIS_CODE":0,"TOWNNAME":"安平區","LI":"港仔里","LIN":"11鄰","STREET":"觀音街","SECT":" ","MAREA":" ","LANE":" ","ALLEY":" ","HOUSE_NO":"４２號","E_COORD97":164214.23000000001,"N_COORD97":2544539.71,"ADDRESS":"觀音街４２號","OBJECTID":586894},"geometry":{"x":164214.23000000045,"y":2544539.7100000028}},{"attributes":{"ID":586922,"DIS_CODE":0,"TOWNNAME":"安平區","LI":"港仔里","LIN":"11鄰","STREET":"觀音街","SECT":" ","MAREA":" ","LANE":" ","ALLEY":" ","HOUSE_NO":"４４號","E_COORD97":164213.60000000001,"N_COORD97":2544546.4199999999,"ADDRESS":"觀音街４４號","OBJECTID":586895},"geometry":{"x":164213.60000000056,"y":2544546.4199999999}},{"attributes":{"ID":586923,"DIS_CODE":0,"TOWNNAME":"安平區","LI":"港仔里","LIN":"11鄰","STREET":"觀音街","SECT":" ","MAREA":" ","LANE":" ","ALLEY":" ","HOUSE_NO":"４６號","E_COORD97":164217.78,"N_COORD97":2544551.75,"ADDRESS":"觀音街４６號","OBJECTID":586896},"geometry":{"x":164217.78000000212,"y":2544551.7500000019}},{"attributes":{"ID":586924,"DIS_CODE":0,"TOWNNAME":"安平區","LI":"金城里","LIN":"11鄰","STREET":"同平路","SECT":" ","MAREA":" ","LANE":" ","ALLEY":" ","HOUSE_NO":"２１２號","E_COORD97":163073.85999999999,"N_COORD97":2543880.2799999998,"ADDRESS":"同平路２１２號","OBJECTID":586897},"geometry":{"x":163073.86000000127,"y":2543880.2800000012}},{"attributes":{"ID":586925,"DIS_CODE":0,"TOWNNAME":"安平區","LI":"金城里","LIN":"11鄰","STREET":"同平路","SECT":" ","MAREA":" ","LANE":" ","ALLEY":" ","HOUSE_NO":"２１４號","E_COORD97":163070.53,"N_COORD97":2543876.6400000001,"ADDRESS":"同平路２１４號","OBJECTID":586898},"geometry":{"x":163070.53000000119,"y":2543876.6400000006}},{"attributes":{"ID":586926,"DIS_CODE":0,"TOWNNAME":"安平區","LI":"金城里","LIN":"11鄰","STREET":"同平路","SECT":" ","MAREA":" ","LANE":" ","ALLEY":" ","HOUSE_NO":"２１８號","E_COORD97":163065.78,"N_COORD97":2543870.73,"ADDRESS":"同平路２１８號","OBJECTID":586899},"geometry":{"x":163065.78000000119,"y":2543870.7300000042}},{"attributes":{"ID":586927,"DIS_CODE":0,"TOWNNAME":"安平區","LI":"金城里","LIN":"11鄰","STREET":"同平路","SECT":" ","MAREA":" ","LANE":" ","ALLEY":" ","HOUSE_NO":"２２２號","E_COORD97":163061.5,"N_COORD97":2543864.2400000002,"ADDRESS":"同平路２２２號","OBJECTID":586900},"geometry":{"x":163061.49999999907,"y":2543864.2400000021}},{"attributes":{"ID":586928,"DIS_CODE":0,"TOWNNAME":"安平區","LI":"金城里","LIN":"11鄰","STREET":"同平路","SECT":" ","MAREA":" ","LANE":" ","ALLEY":" ","HOUSE_NO":"２２４號","E_COORD97":163058.32999999999,"N_COORD97":2543860.4399999999,"ADDRESS":"同平路２２４號","OBJECTID":586901},"geometry":{"x":163058.33000000101,"y":2543860.4399999995}},{"attributes":{"ID":586929,"DIS_CODE":0,"TOWNNAME":"安平區","LI":"金城里","LIN":"11鄰","STREET":"同平路","SECT":" ","MAREA":" ","LANE":" ","ALLEY":" ","HOUSE_NO":"２２６號","E_COORD97":163055.79000000001,"N_COORD97":2543858.2200000002,"ADDRESS":"同平路２２６號","OBJECTID":586902},"geometry":{"x":163055.79000000004,"y":2543858.2200000025}},{"attributes":{"ID":586930,"DIS_CODE":0,"TOWNNAME":"中西區","LI":"開山里","LIN":"6鄰","STREET":"府前路","SECT":"一段","MAREA":" ","LANE":" ","ALLEY":" ","HOUSE_NO":"８７號","E_COORD97":168937.54999999999,"N_COORD97":2543263.1000000001,"ADDRESS":"府前路一段８７號","OBJECTID":586903},"geometry":{"x":168937.54999999981,"y":2543263.0999999996}},{"attributes":{"ID":586931,"DIS_CODE":0,"TOWNNAME":"中西區","LI":"開山里","LIN":"6鄰","STREET":"府前路","SECT":"一段","MAREA":" ","LANE":" ","ALLEY":" ","HOUSE_NO":"８９號","E_COORD97":168931.23000000001,"N_COORD97":2543262.7200000002,"ADDRESS":"府前路一段８９號","OBJECTID":586904},"geometry":{"x":168931.23000000138,"y":2543262.7200000007}},{"attributes":{"ID":586932,"DIS_CODE":0,"TOWNNAME":"中西區","LI":"開山里","LIN":"6鄰","STREET":"府前路","SECT":"一段","MAREA":" ","LANE":" ","ALLEY":" ","HOUSE_NO":"９１號","E_COORD97":168926.63,"N_COORD97":2543261.0899999999,"ADDRESS":"府前路一段９１號","OBJECTID":586905},"geometry":{"x":168926.63000000082,"y":2543261.0900000017}},{"attributes":{"ID":586933,"DIS_CODE":0,"TOWNNAME":"中西區","LI":"開山里","LIN":"6鄰","STREET":"府前路","SECT":"一段","MAREA":" ","LANE":" ","ALLEY":" ","HOUSE_NO":"９３號","E_COORD97":168923.66,"N_COORD97":2543264.3399999999,"ADDRESS":"府前路一段９３號","OBJECTID":586906},"geometry":{"x":168923.66000000015,"y":2543264.3399999999}},{"attributes":{"ID":586934,"DIS_CODE":0,"TOWNNAME":"中西區","LI":"開山里","LIN":"6鄰","STREET":"府前路","SECT":"一段","MAREA":" ","LANE":" ","ALLEY":" ","HOUSE_NO":"９５號","E_COORD97":168918.97,"N_COORD97":2543263.2000000002,"ADDRESS":"府前路一段９５號","OBJECTID":586907},"geometry":{"x":168918.97000000067,"y":2543263.2000000011}},{"attributes":{"ID":586935,"DIS_CODE":0,"TOWNNAME":"中西區","LI":"開山里","LIN":"6鄰","STREET":"府前路","SECT":"一段","MAREA":" ","LANE":" ","ALLEY":" ","HOUSE_NO":"９７號","E_COORD97":168913.42000000001,"N_COORD97":2543261.3799999999,"ADDRESS":"府前路一段９７號","OBJECTID":586908},"geometry":{"x":168913.41999999993,"y":2543261.3800000027}},{"attributes":{"ID":586936,"DIS_CODE":0,"TOWNNAME":"安平區","LI":"建平里","LIN":"11鄰","STREET":"建平十五街","SECT":" ","MAREA":" ","LANE":" ","ALLEY":" ","HOUSE_NO":"１６號","E_COORD97":166316.63,"N_COORD97":2544107.7000000002,"ADDRESS":"建平十五街１６號","OBJECTID":586909},"geometry":{"x":166316.62999999989,"y":2544107.7000000011}},{"attributes":{"ID":586937,"DIS_CODE":0,"TOWNNAME":"安平區","LI":"建平里","LIN":"11鄰","STREET":"建平十五街","SECT":" ","MAREA":" ","LANE":" ","ALLEY":" ","HOUSE_NO":"１８號","E_COORD97":166312.31,"N_COORD97":2544107.9900000002,"ADDRESS":"建平十五街１８號","OBJECTID":586910},"geometry":{"x":166312.31000000052,"y":2544107.9900000002}},{"attributes":{"ID":586938,"DIS_CODE":0,"TOWNNAME":"安平區","LI":"建平里","LIN":"11鄰","STREET":"建平十五街","SECT":" ","MAREA":" ","LANE":" ","ALLEY":" ","HOUSE_NO":"２０號","E_COORD97":166304.10000000001,"N_COORD97":2544109.3900000001,"ADDRESS":"建平十五街２０號","OBJECTID":586911},"geometry":{"x":166304.10000000056,"y":2544109.3900000006}},{"attributes":{"ID":586939,"DIS_CODE":0,"TOWNNAME":"安平區","LI":"建平里","LIN":"11鄰","STREET":"建平十五街","SECT":" ","MAREA":" ","LANE":" ","ALLEY":" ","HOUSE_NO":"２２號","E_COORD97":166296.32000000001,"N_COORD97":2544110.0299999998,"ADDRESS":"建平十五街２２號","OBJECTID":586912},"geometry":{"x":166296.32000000123,"y":2544110.0299999993}},{"attributes":{"ID":586940,"DIS_CODE":0,"TOWNNAME":"安平區","LI":"建平里","LIN":"11鄰","STREET":"建平十五街","SECT":" ","MAREA":" ","LANE":" ","ALLEY":" ","HOUSE_NO":"２６號","E_COORD97":166290.29000000001,"N_COORD97":2544110.6600000001,"ADDRESS":"建平十五街２６號","OBJECTID":586913},"geometry":{"x":166290.29000000004,"y":2544110.6600000001}},{"attributes":{"ID":586941,"DIS_CODE":0,"TOWNNAME":"安平區","LI":"建平里","LIN":"11鄰","STREET":"建平十五街","SECT":" ","MAREA":" ","LANE":" ","ALLEY":" ","HOUSE_NO":"２８號","E_COORD97":166282.82999999999,"N_COORD97":2544112.4100000001,"ADDRESS":"建平十五街２８號","OBJECTID":586914},"geometry":{"x":166282.83000000101,"y":2544112.4100000001}},{"attributes":{"ID":586942,"DIS_CODE":0,"TOWNNAME":"安平區","LI":"石門里","LIN":"11鄰","STREET":"安北路","SECT":" ","MAREA":" ","LANE":" ","ALLEY":" ","HOUSE_NO":"９７號","E_COORD97":164404.20000000001,"N_COORD97":2544731.7999999998,"ADDRESS":"安北路９７號","OBJECTID":586915},"geometry":{"x":164404.20000000019,"y":2544731.8000000045}},{"attributes":{"ID":586943,"DIS_CODE":0,"TOWNNAME":"安平區","LI":"金城里","LIN":"11鄰","STREET":"世平路","SECT":" ","MAREA":" ","LANE":" ","ALLEY":" ","HOUSE_NO":"１０之１３號","E_COORD97":163053.17000000001,"N_COORD97":2543844.9100000001,"ADDRESS":"世平路１０之１３號","OBJECTID":586916},"geometry":{"x":163053.16999999993,"y":2543844.9100000001}},{"attributes":{"ID":586944,"DIS_CODE":0,"TOWNNAME":"安平區","LI":"金城里","LIN":"11鄰","STREET":"世平路","SECT":" ","MAREA":" ","LANE":" ","ALLEY":" ","HOUSE_NO":"１０之１２號","E_COORD97":163051.72,"N_COORD97":2543846.77,"ADDRESS":"世平路１０之１２號","OBJECTID":586917},"geometry":{"x":163051.72000000067,"y":2543846.7700000014}},{"attributes":{"ID":586945,"DIS_CODE":0,"TOWNNAME":"安平區","LI":"金城里","LIN":"11鄰","STREET":"世平路","SECT":" ","MAREA":" ","LANE":" ","ALLEY":" ","HOUSE_NO":"１０之１１號","E_COORD97":163050.26999999999,"N_COORD97":2543848.5299999998,"ADDRESS":"世平路１０之１１號","OBJECTID":586918},"geometry":{"x":163050.26999999955,"y":2543848.5300000012}},{"attributes":{"ID":586946,"DIS_CODE":0,"TOWNNAME":"中西區","LI":"開山里","LIN":"15鄰","STREET":"大埔街","SECT":" ","MAREA":" ","LANE":" ","ALLEY":" ","HOUSE_NO":"１０號","E_COORD97":169001.73000000001,"N_COORD97":2543049.6400000001,"ADDRESS":"大埔街１０號","OBJECTID":586919},"geometry":{"x":169001.73000000045,"y":2543049.6400000006}},{"attributes":{"ID":586947,"DIS_CODE":0,"TOWNNAME":"中西區","LI":"開山里","LIN":"15鄰","STREET":"大埔街","SECT":" ","MAREA":" ","LANE":" ","ALLEY":" ","HOUSE_NO":"１２號","E_COORD97":168996.22,"N_COORD97":2543047.9199999999,"ADDRESS":"大埔街１２號","OBJECTID":586920},"geometry":{"x":168996.21999999974,"y":2543047.9199999999}},{"attributes":{"ID":586948,"DIS_CODE":0,"TOWNNAME":"中西區","LI":"開山里","LIN":"15鄰","STREET":"大埔街","SECT":" ","MAREA":" ","LANE":" ","ALLEY":" ","HOUSE_NO":"１４號","E_COORD97":168991.85999999999,"N_COORD97":2543050.1000000001,"ADDRESS":"大埔街１４號","OBJECTID":586921},"geometry":{"x":168991.86000000034,"y":2543050.1000000034}},{"attributes":{"ID":586949,"DIS_CODE":0,"TOWNNAME":"鹽水區","LI":"橋南里","LIN":"11鄰","STREET":"南門路","SECT":" ","MAREA":" ","LANE":" ","ALLEY":" ","HOUSE_NO":"２５號","E_COORD97":175063.44,"N_COORD97":2579454.9199999999,"ADDRESS":"南門路２５號","OBJECTID":586922},"geometry":{"x":175063.44000000134,"y":2579454.9200000018}},{"attributes":{"ID":586950,"DIS_CODE":0,"TOWNNAME":"鹽水區","LI":"橋南里","LIN":"11鄰","STREET":"南門路","SECT":" ","MAREA":" ","LANE":" ","ALLEY":" ","HOUSE_NO":"２７號","E_COORD97":175065.38,"N_COORD97":2579451.3799999999,"ADDRESS":"南門路２７號","OBJECTID":586923},"geometry":{"x":175065.37999999989,"y":2579451.3800000008}},{"attributes":{"ID":586951,"DIS_CODE":0,"TOWNNAME":"鹽水區","LI":"橋南里","LIN":"11鄰","STREET":"南門路","SECT":" ","MAREA":" ","LANE":" ","ALLEY":" ","HOUSE_NO":"２９號","E_COORD97":175067.57000000001,"N_COORD97":2579447.4300000002,"ADDRESS":"南門路２９號","OBJECTID":586924},"geometry":{"x":175067.57000000123,"y":2579447.4300000016}},{"attributes":{"ID":586952,"DIS_CODE":0,"TOWNNAME":"鹽水區","LI":"橋南里","LIN":"11鄰","STREET":"南門路","SECT":" ","MAREA":" ","LANE":" ","ALLEY":" ","HOUSE_NO":"３３號","E_COORD97":175069.95000000001,"N_COORD97":2579438.6099999999,"ADDRESS":"南門路３３號","OBJECTID":586925},"geometry":{"x":175069.95000000112,"y":2579438.6099999975}},{"attributes":{"ID":586953,"DIS_CODE":0,"TOWNNAME":"鹽水區","LI":"橋南里","LIN":"11鄰","STREET":"南門路","SECT":" ","MAREA":" ","LANE":" ","ALLEY":" ","HOUSE_NO":"３５號","E_COORD97":175072.47,"N_COORD97":2579434.7000000002,"ADDRESS":"南門路３５號","OBJECTID":586926},"geometry":{"x":175072.47000000067,"y":2579434.700000003}},{"attributes":{"ID":586954,"DIS_CODE":0,"TOWNNAME":"鹽水區","LI":"橋南里","LIN":"11鄰","STREET":"南門路","SECT":" ","MAREA":" ","LANE":" ","ALLEY":" ","HOUSE_NO":"３７號","E_COORD97":175074.5,"N_COORD97":2579430.9900000002,"ADDRESS":"南門路３７號","OBJECTID":586927},"geometry":{"x":175074.50000000093,"y":2579430.9900000021}},{"attributes":{"ID":586955,"DIS_CODE":0,"TOWNNAME":"鹽水區","LI":"橋南里","LIN":"11鄰","STREET":"南門路","SECT":" ","MAREA":" ","LANE":" ","ALLEY":" ","HOUSE_NO":"４１號","E_COORD97":175079.10000000001,"N_COORD97":2579422.2999999998,"ADDRESS":"南門路４１號","OBJECTID":586928},"geometry":{"x":175079.09999999963,"y":2579422.3000000026}},{"attributes":{"ID":586956,"DIS_CODE":0,"TOWNNAME":"鹽水區","LI":"橋南里","LIN":"11鄰","STREET":"南門路","SECT":" ","MAREA":" ","LANE":" ","ALLEY":" ","HOUSE_NO":"４５號","E_COORD97":175092.54999999999,"N_COORD97":2579407.9399999999,"ADDRESS":"南門路４５號","OBJECTID":586929},"geometry":{"x":175092.55000000075,"y":2579407.9399999995}},{"attributes":{"ID":586957,"DIS_CODE":0,"TOWNNAME":"鹽水區","LI":"橋南里","LIN":"11鄰","STREET":"南門路","SECT":" ","MAREA":" ","LANE":" ","ALLEY":" ","HOUSE_NO":"４７號","E_COORD97":175097.87,"N_COORD97":2579403.9100000001,"ADDRESS":"南門路４７號","OBJECTID":586930},"geometry":{"x":175097.87000000011,"y":2579403.910000002}},{"attributes":{"ID":586958,"DIS_CODE":0,"TOWNNAME":"鹽水區","LI":"橋南里","LIN":"11鄰","STREET":"南門路","SECT":" ","MAREA":" ","LANE":" ","ALLEY":" ","HOUSE_NO":"４９號","E_COORD97":175096.23999999999,"N_COORD97":2579393.6699999999,"ADDRESS":"南門路４９號","OBJECTID":586931},"geometry":{"x":175096.24000000115,"y":2579393.6699999999}},{"attributes":{"ID":586959,"DIS_CODE":0,"TOWNNAME":"鹽水區","LI":"中境里","LIN":"11鄰","STREET":"治水路","SECT":" ","MAREA":" ","LANE":" ","ALLEY":" ","HOUSE_NO":"４０７號","E_COORD97":174615.45999999999,"N_COORD97":2580339.5499999998,"ADDRESS":"治水路４０７號","OBJECTID":586932},"geometry":{"x":174615.45999999996,"y":2580339.5500000026}},{"attributes":{"ID":586960,"DIS_CODE":0,"TOWNNAME":"鹽水區","LI":"中境里","LIN":"11鄰","STREET":"治水路","SECT":" ","MAREA":" ","LANE":" ","ALLEY":" ","HOUSE_NO":"４０９號","E_COORD97":174615.32999999999,"N_COORD97":2580344.5699999998,"ADDRESS":"治水路４０９號","OBJECTID":586933},"geometry":{"x":174615.33000000007,"y":2580344.5700000003}},{"attributes":{"ID":586961,"DIS_CODE":0,"TOWNNAME":"鹽水區","LI":"中境里","LIN":"11鄰","STREET":"治水路","SECT":" ","MAREA":" ","LANE":" ","ALLEY":" ","HOUSE_NO":"４１１號","E_COORD97":174615.13,"N_COORD97":2580348.6499999999,"ADDRESS":"治水路４１１號","OBJECTID":586934},"geometry":{"x":174615.13000000175,"y":2580348.6500000022}},{"attributes":{"ID":586962,"DIS_CODE":0,"TOWNNAME":"鹽水區","LI":"中境里","LIN":"11鄰","STREET":"金和路","SECT":" ","MAREA":" ","LANE":" ","ALLEY":" ","HOUSE_NO":"３號","E_COORD97":174616.62,"N_COORD97":2580366.6499999999,"ADDRESS":"金和路３號","OBJECTID":586935},"geometry":{"x":174616.62000000011,"y":2580366.6500000022}},{"attributes":{"ID":586963,"DIS_CODE":0,"TOWNNAME":"鹽水區","LI":"中境里","LIN":"11鄰","STREET":"金和路","SECT":" ","MAREA":" ","LANE":" ","ALLEY":" ","HOUSE_NO":"７號","E_COORD97":174608.28,"N_COORD97":2580366.6299999999,"ADDRESS":"金和路７號","OBJECTID":586936},"geometry":{"x":174608.28000000119,"y":2580366.629999999}},{"attributes":{"ID":586964,"DIS_CODE":0,"TOWNNAME":"南區","LI":"國宅里","LIN":"11鄰","STREET":"尊南街","SECT":" ","MAREA":" ","LANE":" ","ALLEY":" ","HOUSE_NO":"１８號","E_COORD97":166819.98000000001,"N_COORD97":2541809.27,"ADDRESS":"尊南街１８號","OBJECTID":586937},"geometry":{"x":166819.98000000045,"y":2541809.2700000014}},{"attributes":{"ID":586965,"DIS_CODE":0,"TOWNNAME":"南區","LI":"國宅里","LIN":"11鄰","STREET":"尊南街","SECT":" ","MAREA":" ","LANE":" ","ALLEY":" ","HOUSE_NO":"２２號","E_COORD97":166820.32999999999,"N_COORD97":2541816.96,"ADDRESS":"尊南街２２號","OBJECTID":586938},"geometry":{"x":166820.33000000007,"y":2541816.9600000009}},{"attributes":{"ID":586966,"DIS_CODE":0,"TOWNNAME":"南區","LI":"國宅里","LIN":"11鄰","STREET":"尊南街","SECT":" ","MAREA":" ","LANE":" ","ALLEY":" ","HOUSE_NO":"１２號","E_COORD97":166818.37,"N_COORD97":2541796.7599999998,"ADDRESS":"尊南街１２號","OBJECTID":586939},"geometry":{"x":166818.37000000011,"y":2541796.7599999998}},{"attributes":{"ID":586967,"DIS_CODE":0,"TOWNNAME":"北區","LI":"成德里","LIN":"11鄰","STREET":"和緯路","SECT":"二段","MAREA":" ","LANE":" ","ALLEY":" ","HOUSE_NO":"１８５號","E_COORD97":168639.04000000001,"N_COORD97":2545834.2000000002,"ADDRESS":"和緯路二段１８５號","OBJECTID":586940},"geometry":{"x":168639.04000000097,"y":2545834.2000000011}},{"attributes":{"ID":586968,"DIS_CODE":0,"TOWNNAME":"北區","LI":"成德里","LIN":"11鄰","STREET":"和緯路","SECT":"二段","MAREA":" ","LANE":" ","ALLEY":" ","HOUSE_NO":"２０９號","E_COORD97":168581.57999999999,"N_COORD97":2545845.96,"ADDRESS":"和緯路二段２０９號","OBJECTID":586941},"geometry":{"x":168581.58000000007,"y":2545845.959999999}},{"attributes":{"ID":586969,"DIS_CODE":0,"TOWNNAME":"北區","LI":"成德里","LIN":"11鄰","STREET":"和緯路","SECT":"二段","MAREA":" ","LANE":" ","ALLEY":" ","HOUSE_NO":"１８７號","E_COORD97":168634.12,"N_COORD97":2545835.96,"ADDRESS":"和緯路二段１８７號","OBJECTID":586942},"geometry":{"x":168634.12000000011,"y":2545835.9600000046}},{"attributes":{"ID":586970,"DIS_CODE":0,"TOWNNAME":"北區","LI":"成德里","LIN":"11鄰","STREET":"和緯路","SECT":"二段","MAREA":" ","LANE":" ","ALLEY":" ","HOUSE_NO":"１８９號","E_COORD97":168629.51999999999,"N_COORD97":2545837.23,"ADDRESS":"和緯路二段１８９號","OBJECTID":586943},"geometry":{"x":168629.51999999955,"y":2545837.2300000042}},{"attributes":{"ID":586971,"DIS_CODE":0,"TOWNNAME":"北區","LI":"成德里","LIN":"11鄰","STREET":"和緯路","SECT":"二段","MAREA":" ","LANE":" ","ALLEY":" ","HOUSE_NO":"１９１號","E_COORD97":168624.60000000001,"N_COORD97":2545837.7000000002,"ADDRESS":"和緯路二段１９１號","OBJECTID":586944},"geometry":{"x":168624.60000000056,"y":2545837.6999999993}},{"attributes":{"ID":586972,"DIS_CODE":0,"TOWNNAME":"北區","LI":"成德里","LIN":"11鄰","STREET":"和緯路","SECT":"二段","MAREA":" ","LANE":" ","ALLEY":" ","HOUSE_NO":"１９３號","E_COORD97":168619.35999999999,"N_COORD97":2545838.5,"ADDRESS":"和緯路二段１９３號","OBJECTID":586945},"geometry":{"x":168619.36000000034,"y":2545838.5000000019}},{"attributes":{"ID":586973,"DIS_CODE":0,"TOWNNAME":"北區","LI":"成德里","LIN":"11鄰","STREET":"和緯路","SECT":"二段","MAREA":" ","LANE":" ","ALLEY":" ","HOUSE_NO":"１９５號","E_COORD97":168613.79999999999,"N_COORD97":2545839.77,"ADDRESS":"和緯路二段１９５號","OBJECTID":586946},"geometry":{"x":168613.79999999981,"y":2545839.7700000014}},{"attributes":{"ID":586974,"DIS_CODE":0,"TOWNNAME":"北區","LI":"成德里","LIN":"11鄰","STREET":"和緯路","SECT":"二段","MAREA":" ","LANE":" ","ALLEY":" ","HOUSE_NO":"１９７號","E_COORD97":168608.88,"N_COORD97":2545840.7200000002,"ADDRESS":"和緯路二段１９７號","OBJECTID":586947},"geometry":{"x":168608.87999999896,"y":2545840.7200000044}},{"attributes":{"ID":586975,"DIS_CODE":0,"TOWNNAME":"北區","LI":"成德里","LIN":"11鄰","STREET":"和緯路","SECT":"二段","MAREA":" ","LANE":" ","ALLEY":" ","HOUSE_NO":"１９９號","E_COORD97":168604.28,"N_COORD97":2545841.6699999999,"ADDRESS":"和緯路二段１９９號","OBJECTID":586948},"geometry":{"x":168604.28000000026,"y":2545841.6700000018}},{"attributes":{"ID":586976,"DIS_CODE":0,"TOWNNAME":"北區","LI":"成德里","LIN":"11鄰","STREET":"和緯路","SECT":"二段","MAREA":" ","LANE":" ","ALLEY":" ","HOUSE_NO":"２０１號","E_COORD97":168599.51999999999,"N_COORD97":2545842.4700000002,"ADDRESS":"和緯路二段２０１號","OBJECTID":586949},"geometry":{"x":168599.52000000048,"y":2545842.4700000044}},{"attributes":{"ID":586977,"DIS_CODE":0,"TOWNNAME":"北區","LI":"成德里","LIN":"11鄰","STREET":"和緯路","SECT":"二段","MAREA":" ","LANE":" ","ALLEY":" ","HOUSE_NO":"２０３號","E_COORD97":168594.75,"N_COORD97":2545843.4199999999,"ADDRESS":"和緯路二段２０３號","OBJECTID":586950},"geometry":{"x":168594.75000000186,"y":2545843.4200000018}},{"attributes":{"ID":586978,"DIS_CODE":0,"TOWNNAME":"北區","LI":"成德里","LIN":"11鄰","STREET":"和緯路","SECT":"二段","MAREA":" ","LANE":" ","ALLEY":" ","HOUSE_NO":"２０５號","E_COORD97":168590.47,"N_COORD97":2545844.21,"ADDRESS":"和緯路二段２０５號","OBJECTID":586951},"geometry":{"x":168590.46999999974,"y":2545844.209999999}},{"attributes":{"ID":586979,"DIS_CODE":0,"TOWNNAME":"北區","LI":"成德里","LIN":"11鄰","STREET":"和緯路","SECT":"二段","MAREA":" ","LANE":" ","ALLEY":" ","HOUSE_NO":"２０７號","E_COORD97":168585.85999999999,"N_COORD97":2545845.3199999998,"ADDRESS":"和緯路二段２０７號","OBJECTID":586952},"geometry":{"x":168585.8600000022,"y":2545845.3200000003}},{"attributes":{"ID":586980,"DIS_CODE":0,"TOWNNAME":"中西區","LI":"開山里","LIN":"16鄰","STREET":"大同路","SECT":"一段","MAREA":" ","LANE":" ","ALLEY":" ","HOUSE_NO":"６０號","E_COORD97":169128.79999999999,"N_COORD97":2543086.9500000002,"ADDRESS":"大同路一段６０號","OBJECTID":586953},"geometry":{"x":169128.80000000075,"y":2543086.9499999993}},{"attributes":{"ID":586981,"DIS_CODE":0,"TOWNNAME":"中西區","LI":"開山里","LIN":"16鄰","STREET":"大同路","SECT":"一段","MAREA":" ","LANE":" ","ALLEY":" ","HOUSE_NO":"６２號","E_COORD97":169124.70000000001,"N_COORD97":2543081.6099999999,"ADDRESS":"大同路一段６２號","OBJECTID":586954},"geometry":{"x":169124.70000000112,"y":2543081.6100000013}},{"attributes":{"ID":586982,"DIS_CODE":0,"TOWNNAME":"中西區","LI":"開山里","LIN":"16鄰","STREET":"大同路","SECT":"一段","MAREA":" ","LANE":" ","ALLEY":" ","HOUSE_NO":"６４號","E_COORD97":169126.29000000001,"N_COORD97":2543076.6000000001,"ADDRESS":"大同路一段６４號","OBJECTID":586955},"geometry":{"x":169126.29000000004,"y":2543076.5999999996}},{"attributes":{"ID":586983,"DIS_CODE":0,"TOWNNAME":"中西區","LI":"開山里","LIN":"16鄰","STREET":"大同路","SECT":"一段","MAREA":" ","LANE":" ","ALLEY":" ","HOUSE_NO":"６６號","E_COORD97":169126.29000000001,"N_COORD97":2543072.5099999998,"ADDRESS":"大同路一段６６號","OBJECTID":586956},"geometry":{"x":169126.29000000004,"y":2543072.5100000016}},{"attributes":{"ID":586984,"DIS_CODE":0,"TOWNNAME":"中西區","LI":"開山里","LIN":"16鄰","STREET":"大同路","SECT":"一段","MAREA":" ","LANE":" ","ALLEY":" ","HOUSE_NO":"６８號","E_COORD97":169123.32999999999,"N_COORD97":2543066.1400000001,"ADDRESS":"大同路一段６８號","OBJECTID":586957},"geometry":{"x":169123.33000000101,"y":2543066.1400000025}},{"attributes":{"ID":586985,"DIS_CODE":0,"TOWNNAME":"中西區","LI":"開山里","LIN":"18鄰","STREET":"大同路","SECT":"一段","MAREA":" ","LANE":" ","ALLEY":" ","HOUSE_NO":"７２號","E_COORD97":169128.01999999999,"N_COORD97":2543050.7999999998,"ADDRESS":"大同路一段７２號","OBJECTID":586958},"geometry":{"x":169128.01999999862,"y":2543050.8000000026}},{"attributes":{"ID":586986,"DIS_CODE":0,"TOWNNAME":"中西區","LI":"開山里","LIN":"18鄰","STREET":"大同路","SECT":"一段","MAREA":" ","LANE":" ","ALLEY":" ","HOUSE_NO":"７４號","E_COORD97":169128.01999999999,"N_COORD97":2543046.1200000001,"ADDRESS":"大同路一段７４號","OBJECTID":586959},"geometry":{"x":169128.01999999862,"y":2543046.1200000029}},{"attributes":{"ID":586987,"DIS_CODE":0,"TOWNNAME":"中西區","LI":"開山里","LIN":"18鄰","STREET":"大同路","SECT":"一段","MAREA":" ","LANE":" ","ALLEY":" ","HOUSE_NO":"７６號","E_COORD97":169127.29999999999,"N_COORD97":2543041.7999999998,"ADDRESS":"大同路一段７６號","OBJECTID":586960},"geometry":{"x":169127.30000000075,"y":2543041.8000000007}},{"attributes":{"ID":586988,"DIS_CODE":0,"TOWNNAME":"中西區","LI":"開山里","LIN":"18鄰","STREET":"大同路","SECT":"一段","MAREA":" ","LANE":" ","ALLEY":" ","HOUSE_NO":"７８號","E_COORD97":169127.66,"N_COORD97":2543038.21,"ADDRESS":"大同路一段７８號","OBJECTID":586961},"geometry":{"x":169127.65999999922,"y":2543038.2100000028}},{"attributes":{"ID":586989,"DIS_CODE":0,"TOWNNAME":"中西區","LI":"開山里","LIN":"18鄰","STREET":"大同路","SECT":"一段","MAREA":" ","LANE":" ","ALLEY":" ","HOUSE_NO":"８０號","E_COORD97":169126.03,"N_COORD97":2543033.8900000001,"ADDRESS":"大同路一段８０號","OBJECTID":586962},"geometry":{"x":169126.03000000119,"y":2543033.8900000025}},{"attributes":{"ID":586990,"DIS_CODE":0,"TOWNNAME":"中西區","LI":"開山里","LIN":"18鄰","STREET":"大同路","SECT":"一段","MAREA":" ","LANE":" ","ALLEY":" ","HOUSE_NO":"８２號","E_COORD97":169126.57999999999,"N_COORD97":2543029.75,"ADDRESS":"大同路一段８２號","OBJECTID":586963},"geometry":{"x":169126.58000000194,"y":2543029.7500000019}},{"attributes":{"ID":586991,"DIS_CODE":0,"TOWNNAME":"中西區","LI":"開山里","LIN":"18鄰","STREET":"大同路","SECT":"一段","MAREA":" ","LANE":" ","ALLEY":" ","HOUSE_NO":"８４號","E_COORD97":169126.94,"N_COORD97":2543025.6200000001,"ADDRESS":"大同路一段８４號","OBJECTID":586964},"geometry":{"x":169126.94000000134,"y":2543025.6200000029}},{"attributes":{"ID":586992,"DIS_CODE":0,"TOWNNAME":"中西區","LI":"開山里","LIN":"18鄰","STREET":"大同路","SECT":"一段","MAREA":" ","LANE":" ","ALLEY":" ","HOUSE_NO":"８６號","E_COORD97":169126.75,"N_COORD97":2543017.7000000002,"ADDRESS":"大同路一段８６號","OBJECTID":586965},"geometry":{"x":169126.75,"y":2543017.6999999993}},{"attributes":{"ID":586993,"DIS_CODE":0,"TOWNNAME":"中西區","LI":"開山里","LIN":"18鄰","STREET":"大同路","SECT":"一段","MAREA":" ","LANE":" ","ALLEY":" ","HOUSE_NO":"８８號","E_COORD97":169126.57000000001,"N_COORD97":2543013.21,"ADDRESS":"大同路一段８８號","OBJECTID":586966},"geometry":{"x":169126.5700000003,"y":2543013.209999999}},{"attributes":{"ID":586994,"DIS_CODE":0,"TOWNNAME":"中西區","LI":"開山里","LIN":"18鄰","STREET":"樹林街","SECT":"二段","MAREA":" ","LANE":" ","ALLEY":" ","HOUSE_NO":"１０號","E_COORD97":169093.63,"N_COORD97":2543000.2599999998,"ADDRESS":"樹林街二段１０號","OBJECTID":586967},"geometry":{"x":169093.62999999989,"y":2543000.2599999998}},{"attributes":{"ID":586995,"DIS_CODE":0,"TOWNNAME":"中西區","LI":"開山里","LIN":"18鄰","STREET":"樹林街","SECT":"二段","MAREA":" ","LANE":" ","ALLEY":" ","HOUSE_NO":"１２號","E_COORD97":169084.81,"N_COORD97":2543000.0800000001,"ADDRESS":"樹林街二段１２號","OBJECTID":586968},"geometry":{"x":169084.80999999959,"y":2543000.0800000038}},{"attributes":{"ID":586996,"DIS_CODE":0,"TOWNNAME":"中西區","LI":"開山里","LIN":"18鄰","STREET":"樹林街","SECT":"二段","MAREA":" ","LANE":" ","ALLEY":" ","HOUSE_NO":"１４號","E_COORD97":169093.09,"N_COORD97":2543010.5099999998,"ADDRESS":"樹林街二段１４號","OBJECTID":586969},"geometry":{"x":169093.09000000078,"y":2543010.5100000016}},{"attributes":{"ID":586997,"DIS_CODE":0,"TOWNNAME":"中西區","LI":"開山里","LIN":"18鄰","STREET":"樹林街","SECT":"二段","MAREA":" ","LANE":" ","ALLEY":" ","HOUSE_NO":"１６號","E_COORD97":169090.57000000001,"N_COORD97":2543009.25,"ADDRESS":"樹林街二段１６號","OBJECTID":586970},"geometry":{"x":169090.5700000003,"y":2543009.2500000019}},{"attributes":{"ID":586998,"DIS_CODE":0,"TOWNNAME":"中西區","LI":"開山里","LIN":"18鄰","STREET":"樹林街","SECT":"二段","MAREA":" ","LANE":" ","ALLEY":" ","HOUSE_NO":"１８號","E_COORD97":169084.26999999999,"N_COORD97":2543009.9700000002,"ADDRESS":"樹林街二段１８號","OBJECTID":586971},"geometry":{"x":169084.27000000048,"y":2543009.9700000007}},{"attributes":{"ID":586999,"DIS_CODE":0,"TOWNNAME":"中西區","LI":"開山里","LIN":"18鄰","STREET":"樹林街","SECT":"二段","MAREA":" ","LANE":" ","ALLEY":" ","HOUSE_NO":"２０號","E_COORD97":169076.70000000001,"N_COORD97":2543009.25,"ADDRESS":"樹林街二段２０號","OBJECTID":586972},"geometry":{"x":169076.70000000205,"y":2543009.2500000019}},{"attributes":{"ID":587000,"DIS_CODE":0,"TOWNNAME":"中西區","LI":"開山里","LIN":"18鄰","STREET":"樹林街","SECT":"二段","MAREA":" ","LANE":" ","ALLEY":" ","HOUSE_NO":"２２號","E_COORD97":169072.38,"N_COORD97":2543008.1699999999,"ADDRESS":"樹林街二段２２號","OBJECTID":586973},"geometry":{"x":169072.38000000082,"y":2543008.1699999999}},{"attributes":{"ID":587001,"DIS_CODE":0,"TOWNNAME":"中西區","LI":"開山里","LIN":"18鄰","STREET":"樹林街","SECT":"二段","MAREA":" ","LANE":" ","ALLEY":" ","HOUSE_NO":"２４號","E_COORD97":169067.88,"N_COORD97":2543007.6299999999,"ADDRESS":"樹林街二段２４號","OBJECTID":586974},"geometry":{"x":169067.87999999989,"y":2543007.629999999}},{"attributes":{"ID":587002,"DIS_CODE":0,"TOWNNAME":"中西區","LI":"開山里","LIN":"19鄰","STREET":"開山路","SECT":" ","MAREA":" ","LANE":" ","ALLEY":" ","HOUSE_NO":"２３７號","E_COORD97":169008.64000000001,"N_COORD97":2542984.29,"ADDRESS":"開山路２３７號","OBJECTID":586975},"geometry":{"x":169008.63999999873,"y":2542984.290000001}},{"attributes":{"ID":587003,"DIS_CODE":0,"TOWNNAME":"中西區","LI":"開山里","LIN":"19鄰","STREET":"樹林街","SECT":"二段","MAREA":" ","LANE":" ","ALLEY":" ","HOUSE_NO":"３２號","E_COORD97":169064.26000000001,"N_COORD97":2543005.9199999999,"ADDRESS":"樹林街二段３２號","OBJECTID":586976},"geometry":{"x":169064.26000000071,"y":2543005.9199999999}},{"attributes":{"ID":587004,"DIS_CODE":0,"TOWNNAME":"中西區","LI":"開山里","LIN":"19鄰","STREET":"樹林街","SECT":"二段","MAREA":" ","LANE":" ","ALLEY":" ","HOUSE_NO":"３４號","E_COORD97":169060.76000000001,"N_COORD97":2543009.2599999998,"ADDRESS":"樹林街二段３４號","OBJECTID":586977},"geometry":{"x":169060.76000000071,"y":2543009.2600000016}},{"attributes":{"ID":587005,"DIS_CODE":0,"TOWNNAME":"中西區","LI":"開山里","LIN":"19鄰","STREET":"樹林街","SECT":"二段","MAREA":" ","LANE":" ","ALLEY":" ","HOUSE_NO":"３６號","E_COORD97":169058.48999999999,"N_COORD97":2543007.1299999999,"ADDRESS":"樹林街二段３６號","OBJECTID":586978},"geometry":{"x":169058.49000000115,"y":2543007.129999999}},{"attributes":{"ID":587006,"DIS_CODE":0,"TOWNNAME":"中西區","LI":"開山里","LIN":"19鄰","STREET":"樹林街","SECT":"二段","MAREA":" ","LANE":" ","ALLEY":" ","HOUSE_NO":"３８號","E_COORD97":169064.28,"N_COORD97":2542995.5800000001,"ADDRESS":"樹林街二段３８號","OBJECTID":586979},"geometry":{"x":169064.27999999933,"y":2542995.5800000001}},{"attributes":{"ID":587007,"DIS_CODE":0,"TOWNNAME":"中西區","LI":"開山里","LIN":"19鄰","STREET":"樹林街","SECT":"二段","MAREA":" ","LANE":" ","ALLEY":" ","HOUSE_NO":"４２號","E_COORD97":169050.48000000001,"N_COORD97":2542991.9399999999,"ADDRESS":"樹林街二段４２號","OBJECTID":586980},"geometry":{"x":169050.48000000138,"y":2542991.9399999995}},{"attributes":{"ID":587008,"DIS_CODE":0,"TOWNNAME":"中西區","LI":"開山里","LIN":"19鄰","STREET":"樹林街","SECT":"二段","MAREA":" ","LANE":" ","ALLEY":" ","HOUSE_NO":"４８號","E_COORD97":169037.17000000001,"N_COORD97":2542996.2000000002,"ADDRESS":"樹林街二段４８號","OBJECTID":586981},"geometry":{"x":169037.16999999993,"y":2542996.2000000011}},{"attributes":{"ID":587009,"DIS_CODE":0,"TOWNNAME":"中西區","LI":"開山里","LIN":"19鄰","STREET":"樹林街","SECT":"二段","MAREA":" ","LANE":" ","ALLEY":" ","HOUSE_NO":"５０號","E_COORD97":169032.91,"N_COORD97":2542993.0699999998,"ADDRESS":"樹林街二段５０號","OBJECTID":586982},"geometry":{"x":169032.91000000201,"y":2542993.0700000003}},{"attributes":{"ID":587010,"DIS_CODE":0,"TOWNNAME":"中西區","LI":"開山里","LIN":"19鄰","STREET":"樹林街","SECT":"二段","MAREA":" ","LANE":" ","ALLEY":" ","HOUSE_NO":"５２號","E_COORD97":169023.39000000001,"N_COORD97":2542991.5099999998,"ADDRESS":"樹林街二段５２號","OBJECTID":586983},"geometry":{"x":169023.38999999966,"y":2542991.5100000016}},{"attributes":{"ID":587011,"DIS_CODE":0,"TOWNNAME":"中西區","LI":"開山里","LIN":"21鄰","STREET":"開山路","SECT":" ","MAREA":" ","LANE":" ","ALLEY":" ","HOUSE_NO":"２４５號","E_COORD97":169029.07000000001,"N_COORD97":2542963.6699999999,"ADDRESS":"開山路２４５號","OBJECTID":586984},"geometry":{"x":169029.07000000123,"y":2542963.6699999999}},{"attributes":{"ID":587012,"DIS_CODE":0,"TOWNNAME":"中西區","LI":"開山里","LIN":"21鄰","STREET":"開山路","SECT":" ","MAREA":" ","LANE":" ","ALLEY":" ","HOUSE_NO":"２４５號底層","E_COORD97":169029.07000000001,"N_COORD97":2542963.6699999999,"ADDRESS":"開山路２４５號底層","OBJECTID":586985},"geometry":{"x":169029.07000000123,"y":2542963.6699999999}},{"attributes":{"ID":587013,"DIS_CODE":0,"TOWNNAME":"中西區","LI":"開山里","LIN":"21鄰","STREET":"開山路","SECT":" ","MAREA":" ","LANE":" ","ALLEY":" ","HOUSE_NO":"２５５號","E_COORD97":169038.34,"N_COORD97":2542951.6000000001,"ADDRESS":"開山路２５５號","OBJECTID":586986},"geometry":{"x":169038.34000000078,"y":2542951.5999999978}},{"attributes":{"ID":587014,"DIS_CODE":0,"TOWNNAME":"中西區","LI":"開山里","LIN":"21鄰","STREET":"開山路","SECT":" ","MAREA":" ","LANE":" ","ALLEY":" ","HOUSE_NO":"２５７號","E_COORD97":169042.10000000001,"N_COORD97":2542949.2599999998,"ADDRESS":"開山路２５７號","OBJECTID":586987},"geometry":{"x":169042.09999999963,"y":2542949.2599999998}},{"attributes":{"ID":587015,"DIS_CODE":0,"TOWNNAME":"中西區","LI":"開山里","LIN":"21鄰","STREET":"開山路","SECT":" ","MAREA":" ","LANE":" ","ALLEY":" ","HOUSE_NO":"２５９號","E_COORD97":169041.16,"N_COORD97":2542944.2400000002,"ADDRESS":"開山路２５９號","OBJECTID":586988},"geometry":{"x":169041.16000000015,"y":2542944.2400000002}},{"attributes":{"ID":587016,"DIS_CODE":0,"TOWNNAME":"中西區","LI":"開山里","LIN":"21鄰","STREET":"開山路","SECT":" ","MAREA":" ","LANE":" ","ALLEY":" ","HOUSE_NO":"２６１號","E_COORD97":169044.09,"N_COORD97":2542940.25,"ADDRESS":"開山路２６１號","OBJECTID":586989},"geometry":{"x":169044.08999999985,"y":2542940.25}},{"attributes":{"ID":587017,"DIS_CODE":0,"TOWNNAME":"中西區","LI":"開山里","LIN":"21鄰","STREET":"樹林街","SECT":"二段","MAREA":" ","LANE":" ","ALLEY":" ","HOUSE_NO":"１９號之１","E_COORD97":169063.09,"N_COORD97":2542959.4700000002,"ADDRESS":"樹林街二段１９號之１","OBJECTID":586990},"geometry":{"x":169063.08999999985,"y":2542959.4700000007}},{"attributes":{"ID":587018,"DIS_CODE":0,"TOWNNAME":"中西區","LI":"開山里","LIN":"21鄰","STREET":"樹林街","SECT":"二段","MAREA":" ","LANE":" ","ALLEY":" ","HOUSE_NO":"２１號","E_COORD97":169057.10999999999,"N_COORD97":2542973.1600000001,"ADDRESS":"樹林街二段２１號","OBJECTID":586991},"geometry":{"x":169057.1100000022,"y":2542973.160000002}},{"attributes":{"ID":587019,"DIS_CODE":0,"TOWNNAME":"中西區","LI":"開山里","LIN":"21鄰","STREET":"樹林街","SECT":"二段","MAREA":" ","LANE":" ","ALLEY":" ","HOUSE_NO":"２５號","E_COORD97":169050.07000000001,"N_COORD97":2542970.23,"ADDRESS":"樹林街二段２５號","OBJECTID":586992},"geometry":{"x":169050.0700000003,"y":2542970.2300000023}},{"attributes":{"ID":587020,"DIS_CODE":0,"TOWNNAME":"中西區","LI":"開山里","LIN":"21鄰","STREET":"樹林街","SECT":"二段","MAREA":" ","LANE":" ","ALLEY":" ","HOUSE_NO":"２９號","E_COORD97":169041.16,"N_COORD97":2542969.8799999999,"ADDRESS":"樹林街二段２９號","OBJECTID":586993},"geometry":{"x":169041.16000000015,"y":2542969.8800000008}},{"attributes":{"ID":587021,"DIS_CODE":0,"TOWNNAME":"南區","LI":"文華里","LIN":"11鄰","STREET":"文南路","SECT":" ","MAREA":" ","LANE":" ","ALLEY":" ","HOUSE_NO":"１２６號","E_COORD97":166963.10000000001,"N_COORD97":2542886.25,"ADDRESS":"文南路１２６號","OBJECTID":586994},"geometry":{"x":166963.10000000056,"y":2542886.25}},{"attributes":{"ID":587022,"DIS_CODE":0,"TOWNNAME":"南區","LI":"興農里","LIN":"11鄰","STREET":"明興路","SECT":" ","MAREA":" ","LANE":" ","ALLEY":" ","HOUSE_NO":"１１４１號","E_COORD97":166559.70000000001,"N_COORD97":2536452.52,"ADDRESS":"明興路１１４１號","OBJECTID":586995},"geometry":{"x":166559.70000000112,"y":2536452.5199999996}},{"attributes":{"ID":587023,"DIS_CODE":0,"TOWNNAME":"南區","LI":"興農里","LIN":"11鄰","STREET":"明興路","SECT":" ","MAREA":" ","LANE":" ","ALLEY":" ","HOUSE_NO":"１１４３號","E_COORD97":166557.84,"N_COORD97":2536447.8900000001,"ADDRESS":"明興路１１４３號","OBJECTID":586996},"geometry":{"x":166557.83999999985,"y":2536447.8899999987}},{"attributes":{"ID":587024,"DIS_CODE":0,"TOWNNAME":"南區","LI":"國宅里","LIN":"11鄰","STREET":"尊南街","SECT":" ","MAREA":" ","LANE":" ","ALLEY":" ","HOUSE_NO":"２號","E_COORD97":166815.73999999999,"N_COORD97":2541779.0699999998,"ADDRESS":"尊南街２號","OBJECTID":586997},"geometry":{"x":166815.74000000115,"y":2541779.0700000003}},{"attributes":{"ID":587025,"DIS_CODE":0,"TOWNNAME":"南區","LI":"國宅里","LIN":"11鄰","STREET":"尊南街","SECT":" ","MAREA":" ","LANE":" ","ALLEY":" ","HOUSE_NO":"６號","E_COORD97":166816.26999999999,"N_COORD97":2541783.6400000001,"ADDRESS":"尊南街６號","OBJECTID":586998},"geometry":{"x":166816.27000000048,"y":2541783.6400000025}},{"attributes":{"ID":587026,"DIS_CODE":0,"TOWNNAME":"南區","LI":"國宅里","LIN":"11鄰","STREET":"尊南街","SECT":" ","MAREA":" ","LANE":" ","ALLEY":" ","HOUSE_NO":"８號","E_COORD97":166816.79999999999,"N_COORD97":2541788.2000000002,"ADDRESS":"尊南街８號","OBJECTID":586999},"geometry":{"x":166816.79999999981,"y":2541788.2000000011}},{"attributes":{"ID":587027,"DIS_CODE":0,"TOWNNAME":"中西區","LI":"開山里","LIN":"23鄰","STREET":"大同路","SECT":"一段","MAREA":" ","LANE":" ","ALLEY":" ","HOUSE_NO":"１２０號","E_COORD97":169115.79000000001,"N_COORD97":2542890.6800000002,"ADDRESS":"大同路一段１２０號","OBJECTID":587000},"geometry":{"x":169115.79000000004,"y":2542890.6800000016}}]}