{"displayFieldName":"TOWNNAME","fieldAliases":{"ID":"ID","DIS_CODE":"DIS_CODE","TOWNNAME":"TOWNNAME","LI":"LI","LIN":"LIN","STREET":"STREET","SECT":"SECT","MAREA":"MAREA","LANE":"LANE","ALLEY":"ALLEY","HOUSE_NO":"HOUSE_NO","E_COORD97":"E_COORD97","N_COORD97":"N_COORD97","ADDRESS":"ADDRESS","OBJECTID":"OBJECTID"},"geometryType":"esriGeometryPoint","spatialReference":{"wkid":102443,"latestWkid":3826},"fields":[{"name":"ID","type":"esriFieldTypeDouble","alias":"ID"},{"name":"DIS_CODE","type":"esriFieldTypeInteger","alias":"DIS_CODE"},{"name":"TOWNNAME","type":"esriFieldTypeString","alias":"TOWNNAME","length":8},{"name":"LI","type":"esriFieldTypeString","alias":"LI","length":8},{"name":"LIN","type":"esriFieldTypeString","alias":"LIN","length":12},{"name":"STREET","type":"esriFieldTypeString","alias":"STREET","length":20},{"name":"SECT","type":"esriFieldTypeString","alias":"SECT","length":8},{"name":"MAREA","type":"esriFieldTypeString","alias":"MAREA","length":12},{"name":"LANE","type":"esriFieldTypeString","alias":"LANE","length":10},{"name":"ALLEY","type":"esriFieldTypeString","alias":"ALLEY","length":10},{"name":"HOUSE_NO","type":"esriFieldTypeString","alias":"HOUSE_NO","length":20},{"name":"E_COORD97","type":"esriFieldTypeDouble","alias":"E_COORD97"},{"name":"N_COORD97","type":"esriFieldTypeDouble","alias":"N_COORD97"},{"name":"ADDRESS","type":"esriFieldTypeString","alias":"ADDRESS","length":50},{"name":"OBJECTID","type":"esriFieldTypeOID","alias":"OBJECTID"}],"features":[{"attributes":{"ID":123401,"DIS_CODE":0,"TOWNNAME":"永康區","LI":"中興里","LIN":"16鄰","STREET":"中華二路","SECT":" ","MAREA":" ","LANE":"１２７巷","ALLEY":"２弄","HOUSE_NO":"１號","E_COORD97":172003.28,"N_COORD97":2545390.75,"ADDRESS":"中華二路１２７巷２弄１號","OBJECTID":123401},"geometry":{"x":172003.28000000026,"y":2545390.75}},{"attributes":{"ID":123402,"DIS_CODE":0,"TOWNNAME":"永康區","LI":"中興里","LIN":"16鄰","STREET":"中華二路","SECT":" ","MAREA":" ","LANE":"１２７巷","ALLEY":"２弄","HOUSE_NO":"３０號","E_COORD97":171958.98000000001,"N_COORD97":2545400,"ADDRESS":"中華二路１２７巷２弄３０號","OBJECTID":123402},"geometry":{"x":171958.98000000138,"y":2545400}},{"attributes":{"ID":123403,"DIS_CODE":0,"TOWNNAME":"永康區","LI":"中興里","LIN":"16鄰","STREET":"中華二路","SECT":" ","MAREA":" ","LANE":"１２７巷","ALLEY":"２弄","HOUSE_NO":"２２號","E_COORD97":171971.37,"N_COORD97":2545399.75,"ADDRESS":"中華二路１２７巷２弄２２號","OBJECTID":123403},"geometry":{"x":171971.37000000104,"y":2545399.7500000019}},{"attributes":{"ID":123404,"DIS_CODE":0,"TOWNNAME":"永康區","LI":"中興里","LIN":"16鄰","STREET":"中華二路","SECT":" ","MAREA":" ","LANE":"１２７巷","ALLEY":"２弄","HOUSE_NO":"２０號","E_COORD97":171975.41,"N_COORD97":2545399.75,"ADDRESS":"中華二路１２７巷２弄２０號","OBJECTID":123404},"geometry":{"x":171975.41000000015,"y":2545399.7500000019}},{"attributes":{"ID":123405,"DIS_CODE":0,"TOWNNAME":"永康區","LI":"中興里","LIN":"16鄰","STREET":"中華二路","SECT":" ","MAREA":" ","LANE":"１２７巷","ALLEY":"２弄","HOUSE_NO":"８號","E_COORD97":171994.76999999999,"N_COORD97":2545400,"ADDRESS":"中華二路１２７巷２弄８號","OBJECTID":123405},"geometry":{"x":171994.77000000142,"y":2545400}},{"attributes":{"ID":123406,"DIS_CODE":0,"TOWNNAME":"永康區","LI":"中興里","LIN":"16鄰","STREET":"中華二路","SECT":" ","MAREA":" ","LANE":"１２７巷","ALLEY":"２弄","HOUSE_NO":"１０號","E_COORD97":171992.26999999999,"N_COORD97":2545400,"ADDRESS":"中華二路１２７巷２弄１０號","OBJECTID":123406},"geometry":{"x":171992.26999999955,"y":2545400}},{"attributes":{"ID":123407,"DIS_CODE":0,"TOWNNAME":"永康區","LI":"中興里","LIN":"16鄰","STREET":"中華二路","SECT":" ","MAREA":" ","LANE":"１２７巷","ALLEY":"２弄","HOUSE_NO":"２號","E_COORD97":172002.98999999999,"N_COORD97":2545400.25,"ADDRESS":"中華二路１２７巷２弄２號","OBJECTID":123407},"geometry":{"x":172002.99000000115,"y":2545400.2500000019}},{"attributes":{"ID":123408,"DIS_CODE":0,"TOWNNAME":"永康區","LI":"中興里","LIN":"16鄰","STREET":"中華二路","SECT":" ","MAREA":" ","LANE":"１２７巷","ALLEY":"２弄","HOUSE_NO":"１１號","E_COORD97":171983.06,"N_COORD97":2545389.75,"ADDRESS":"中華二路１２７巷２弄１１號","OBJECTID":123408},"geometry":{"x":171983.06000000052,"y":2545389.7500000019}},{"attributes":{"ID":123409,"DIS_CODE":0,"TOWNNAME":"永康區","LI":"大橋里","LIN":"16鄰","STREET":"大橋一街","SECT":" ","MAREA":" ","LANE":"１０３巷","ALLEY":"６２弄","HOUSE_NO":"１５號","E_COORD97":170980.38,"N_COORD97":2546590.5099999998,"ADDRESS":"大橋一街１０３巷６２弄１５號","OBJECTID":123409},"geometry":{"x":170980.37999999989,"y":2546590.5100000035}},{"attributes":{"ID":123410,"DIS_CODE":0,"TOWNNAME":"仁德區","LI":"成功里","LIN":"16鄰","STREET":"全福路","SECT":" ","MAREA":" ","LANE":"７５巷","ALLEY":"１３弄","HOUSE_NO":"３４號","E_COORD97":170922.73000000001,"N_COORD97":2539367.5,"ADDRESS":"全福路７５巷１３弄３４號","OBJECTID":123410},"geometry":{"x":170922.72999999952,"y":2539367.5000000019}},{"attributes":{"ID":123411,"DIS_CODE":0,"TOWNNAME":"仁德區","LI":"成功里","LIN":"16鄰","STREET":"全福路","SECT":" ","MAREA":" ","LANE":"７５巷","ALLEY":"１３弄","HOUSE_NO":"３７號","E_COORD97":170936.76000000001,"N_COORD97":2539354.2400000002,"ADDRESS":"全福路７５巷１３弄３７號","OBJECTID":123411},"geometry":{"x":170936.75999999978,"y":2539354.2400000039}},{"attributes":{"ID":123412,"DIS_CODE":0,"TOWNNAME":"永康區","LI":"埔園里","LIN":"31鄰","STREET":"八德街","SECT":" ","MAREA":" ","LANE":"２３０巷","ALLEY":" ","HOUSE_NO":"５２號","E_COORD97":173824.5,"N_COORD97":2548660.3799999999,"ADDRESS":"八德街２３０巷５２號","OBJECTID":123412},"geometry":{"x":173824.50000000186,"y":2548660.379999999}},{"attributes":{"ID":123413,"DIS_CODE":0,"TOWNNAME":"中西區","LI":"天后里","LIN":"24鄰","STREET":"郡緯街","SECT":" ","MAREA":" ","LANE":" ","ALLEY":" ","HOUSE_NO":"６號二樓之５","E_COORD97":168205.07999999999,"N_COORD97":2544297.52,"ADDRESS":"郡緯街６號二樓之５","OBJECTID":123413},"geometry":{"x":168205.08000000101,"y":2544297.5199999996}},{"attributes":{"ID":123414,"DIS_CODE":0,"TOWNNAME":"中西區","LI":"天后里","LIN":"24鄰","STREET":"郡緯街","SECT":" ","MAREA":" ","LANE":" ","ALLEY":" ","HOUSE_NO":"６號二樓之６","E_COORD97":168205.07999999999,"N_COORD97":2544297.52,"ADDRESS":"郡緯街６號二樓之６","OBJECTID":123414},"geometry":{"x":168205.08000000101,"y":2544297.5199999996}},{"attributes":{"ID":123415,"DIS_CODE":0,"TOWNNAME":"中西區","LI":"天后里","LIN":"24鄰","STREET":"郡緯街","SECT":" ","MAREA":" ","LANE":" ","ALLEY":" ","HOUSE_NO":"６號三樓之１","E_COORD97":168205.07999999999,"N_COORD97":2544297.52,"ADDRESS":"郡緯街６號三樓之１","OBJECTID":123415},"geometry":{"x":168205.08000000101,"y":2544297.5199999996}},{"attributes":{"ID":123416,"DIS_CODE":0,"TOWNNAME":"中西區","LI":"天后里","LIN":"24鄰","STREET":"郡緯街","SECT":" ","MAREA":" ","LANE":" ","ALLEY":" ","HOUSE_NO":"６號三樓之２","E_COORD97":168205.07999999999,"N_COORD97":2544297.52,"ADDRESS":"郡緯街６號三樓之２","OBJECTID":123416},"geometry":{"x":168205.08000000101,"y":2544297.5199999996}},{"attributes":{"ID":123417,"DIS_CODE":0,"TOWNNAME":"中西區","LI":"天后里","LIN":"24鄰","STREET":"郡緯街","SECT":" ","MAREA":" ","LANE":" ","ALLEY":" ","HOUSE_NO":"６號三樓之３","E_COORD97":168205.07999999999,"N_COORD97":2544297.52,"ADDRESS":"郡緯街６號三樓之３","OBJECTID":123417},"geometry":{"x":168205.08000000101,"y":2544297.5199999996}},{"attributes":{"ID":123418,"DIS_CODE":0,"TOWNNAME":"中西區","LI":"天后里","LIN":"24鄰","STREET":"郡緯街","SECT":" ","MAREA":" ","LANE":" ","ALLEY":" ","HOUSE_NO":"６號三樓之７","E_COORD97":168205.07999999999,"N_COORD97":2544297.52,"ADDRESS":"郡緯街６號三樓之７","OBJECTID":123418},"geometry":{"x":168205.08000000101,"y":2544297.5199999996}},{"attributes":{"ID":123419,"DIS_CODE":0,"TOWNNAME":"中西區","LI":"天后里","LIN":"24鄰","STREET":"郡緯街","SECT":" ","MAREA":" ","LANE":" ","ALLEY":" ","HOUSE_NO":"６號三樓之８","E_COORD97":168205.07999999999,"N_COORD97":2544297.52,"ADDRESS":"郡緯街６號三樓之８","OBJECTID":123419},"geometry":{"x":168205.08000000101,"y":2544297.5199999996}},{"attributes":{"ID":123420,"DIS_CODE":0,"TOWNNAME":"中西區","LI":"天后里","LIN":"24鄰","STREET":"郡緯街","SECT":" ","MAREA":" ","LANE":" ","ALLEY":" ","HOUSE_NO":"６號五樓之１","E_COORD97":168205.07999999999,"N_COORD97":2544297.52,"ADDRESS":"郡緯街６號五樓之１","OBJECTID":123420},"geometry":{"x":168205.08000000101,"y":2544297.5199999996}},{"attributes":{"ID":123421,"DIS_CODE":0,"TOWNNAME":"中西區","LI":"天后里","LIN":"24鄰","STREET":"郡緯街","SECT":" ","MAREA":" ","LANE":" ","ALLEY":" ","HOUSE_NO":"６號五樓之２","E_COORD97":168205.07999999999,"N_COORD97":2544297.52,"ADDRESS":"郡緯街６號五樓之２","OBJECTID":123421},"geometry":{"x":168205.08000000101,"y":2544297.5199999996}},{"attributes":{"ID":123422,"DIS_CODE":0,"TOWNNAME":"中西區","LI":"天后里","LIN":"24鄰","STREET":"郡緯街","SECT":" ","MAREA":" ","LANE":" ","ALLEY":" ","HOUSE_NO":"６號五樓之３","E_COORD97":168205.07999999999,"N_COORD97":2544297.52,"ADDRESS":"郡緯街６號五樓之３","OBJECTID":123422},"geometry":{"x":168205.08000000101,"y":2544297.5199999996}},{"attributes":{"ID":123423,"DIS_CODE":0,"TOWNNAME":"中西區","LI":"天后里","LIN":"24鄰","STREET":"郡緯街","SECT":" ","MAREA":" ","LANE":" ","ALLEY":" ","HOUSE_NO":"６號五樓之４","E_COORD97":168205.07999999999,"N_COORD97":2544297.52,"ADDRESS":"郡緯街６號五樓之４","OBJECTID":123423},"geometry":{"x":168205.08000000101,"y":2544297.5199999996}},{"attributes":{"ID":123424,"DIS_CODE":0,"TOWNNAME":"中西區","LI":"天后里","LIN":"24鄰","STREET":"郡緯街","SECT":" ","MAREA":" ","LANE":" ","ALLEY":" ","HOUSE_NO":"６號五樓之５","E_COORD97":168205.07999999999,"N_COORD97":2544297.52,"ADDRESS":"郡緯街６號五樓之５","OBJECTID":123424},"geometry":{"x":168205.08000000101,"y":2544297.5199999996}},{"attributes":{"ID":123425,"DIS_CODE":0,"TOWNNAME":"中西區","LI":"天后里","LIN":"24鄰","STREET":"郡緯街","SECT":" ","MAREA":" ","LANE":" ","ALLEY":" ","HOUSE_NO":"６號五樓之６","E_COORD97":168205.07999999999,"N_COORD97":2544297.52,"ADDRESS":"郡緯街６號五樓之６","OBJECTID":123425},"geometry":{"x":168205.08000000101,"y":2544297.5199999996}},{"attributes":{"ID":123426,"DIS_CODE":0,"TOWNNAME":"永康區","LI":"大橋里","LIN":"17鄰","STREET":"大橋一街","SECT":" ","MAREA":" ","LANE":"１０３巷","ALLEY":"６２弄","HOUSE_NO":"２號","E_COORD97":170965.45999999999,"N_COORD97":2546559.7400000002,"ADDRESS":"大橋一街１０３巷６２弄２號","OBJECTID":123426},"geometry":{"x":170965.46000000089,"y":2546559.7400000021}},{"attributes":{"ID":123427,"DIS_CODE":0,"TOWNNAME":"永康區","LI":"二王里","LIN":"12鄰","STREET":"永二街","SECT":" ","MAREA":" ","LANE":"４４７巷","ALLEY":"６８弄","HOUSE_NO":"１１６號","E_COORD97":172780.35999999999,"N_COORD97":2546470.3399999999,"ADDRESS":"永二街４４７巷６８弄１１６號","OBJECTID":123427},"geometry":{"x":172780.36000000127,"y":2546470.3400000017}},{"attributes":{"ID":123428,"DIS_CODE":0,"TOWNNAME":"仁德區","LI":"成功里","LIN":"16鄰","STREET":"全福路","SECT":" ","MAREA":" ","LANE":"７５巷","ALLEY":"１３弄","HOUSE_NO":"４３號","E_COORD97":170923.76999999999,"N_COORD97":2539355.2400000002,"ADDRESS":"全福路７５巷１３弄４３號","OBJECTID":123428},"geometry":{"x":170923.77000000048,"y":2539355.2400000021}},{"attributes":{"ID":123429,"DIS_CODE":0,"TOWNNAME":"永康區","LI":"復華里","LIN":"31鄰","STREET":"復國一路","SECT":" ","MAREA":" ","LANE":" ","ALLEY":" ","HOUSE_NO":"６０２號","E_COORD97":172464,"N_COORD97":2546383.2799999998,"ADDRESS":"復國一路６０２號","OBJECTID":123429},"geometry":{"x":172464,"y":2546383.2799999993}},{"attributes":{"ID":123430,"DIS_CODE":0,"TOWNNAME":"永康區","LI":"復華里","LIN":"31鄰","STREET":"復國一路","SECT":" ","MAREA":" ","LANE":" ","ALLEY":" ","HOUSE_NO":"６０６號","E_COORD97":172463.57999999999,"N_COORD97":2546387.0899999999,"ADDRESS":"復國一路６０６號","OBJECTID":123430},"geometry":{"x":172463.58000000007,"y":2546387.0900000017}},{"attributes":{"ID":123431,"DIS_CODE":0,"TOWNNAME":"仁德區","LI":"成功里","LIN":"16鄰","STREET":"全福路","SECT":" ","MAREA":" ","LANE":"７５巷","ALLEY":"１３弄","HOUSE_NO":"１４號","E_COORD97":170988.41,"N_COORD97":2539365,"ADDRESS":"全福路７５巷１３弄１４號","OBJECTID":123431},"geometry":{"x":170988.41000000015,"y":2539365}},{"attributes":{"ID":123432,"DIS_CODE":0,"TOWNNAME":"仁德區","LI":"成功里","LIN":"16鄰","STREET":"全福路","SECT":" ","MAREA":" ","LANE":"７５巷","ALLEY":"１３弄","HOUSE_NO":"３０號","E_COORD97":170947.84,"N_COORD97":2539366.75,"ADDRESS":"全福路７５巷１３弄３０號","OBJECTID":123432},"geometry":{"x":170947.83999999985,"y":2539366.75}},{"attributes":{"ID":123433,"DIS_CODE":0,"TOWNNAME":"永康區","LI":"復華里","LIN":"31鄰","STREET":"復國一路","SECT":" ","MAREA":" ","LANE":" ","ALLEY":" ","HOUSE_NO":"６０８號","E_COORD97":172462.51999999999,"N_COORD97":2546391.1099999999,"ADDRESS":"復國一路６０８號","OBJECTID":123433},"geometry":{"x":172462.52000000142,"y":2546391.1099999994}},{"attributes":{"ID":123434,"DIS_CODE":0,"TOWNNAME":"永康區","LI":"復華里","LIN":"31鄰","STREET":"復國一路","SECT":" ","MAREA":" ","LANE":" ","ALLEY":" ","HOUSE_NO":"６１０號","E_COORD97":172461.89000000001,"N_COORD97":2546395.5600000001,"ADDRESS":"復國一路６１０號","OBJECTID":123434},"geometry":{"x":172461.89000000153,"y":2546395.5600000024}},{"attributes":{"ID":123435,"DIS_CODE":0,"TOWNNAME":"仁德區","LI":"成功里","LIN":"16鄰","STREET":"全福路","SECT":" ","MAREA":" ","LANE":"７５巷","ALLEY":"１３弄","HOUSE_NO":"１２號","E_COORD97":170993.01999999999,"N_COORD97":2539365,"ADDRESS":"全福路７５巷１３弄１２號","OBJECTID":123435},"geometry":{"x":170993.02000000048,"y":2539365}},{"attributes":{"ID":123436,"DIS_CODE":0,"TOWNNAME":"中西區","LI":"光賢里","LIN":"16鄰","STREET":"武聖路","SECT":" ","MAREA":" ","LANE":"１５１巷","ALLEY":"１０弄","HOUSE_NO":"１０號","E_COORD97":166981.26000000001,"N_COORD97":2545178.23,"ADDRESS":"武聖路１５１巷１０弄１０號","OBJECTID":123436},"geometry":{"x":166981.26000000071,"y":2545178.2300000004}},{"attributes":{"ID":123437,"DIS_CODE":0,"TOWNNAME":"中西區","LI":"光賢里","LIN":"16鄰","STREET":"武聖路","SECT":" ","MAREA":" ","LANE":"１５１巷","ALLEY":"１０弄","HOUSE_NO":"１１號","E_COORD97":166964.23999999999,"N_COORD97":2545155.6600000001,"ADDRESS":"武聖路１５１巷１０弄１１號","OBJECTID":123437},"geometry":{"x":166964.24000000209,"y":2545155.6600000039}},{"attributes":{"ID":123438,"DIS_CODE":0,"TOWNNAME":"永康區","LI":"東灣里","LIN":"31鄰","STREET":"大灣一街","SECT":" ","MAREA":" ","LANE":" ","ALLEY":" ","HOUSE_NO":"１７５號","E_COORD97":174804.98999999999,"N_COORD97":2544591.9199999999,"ADDRESS":"大灣一街１７５號","OBJECTID":123438},"geometry":{"x":174804.99000000115,"y":2544591.9200000018}},{"attributes":{"ID":123439,"DIS_CODE":0,"TOWNNAME":"永康區","LI":"永康里","LIN":"31鄰","STREET":"龍中街","SECT":" ","MAREA":" ","LANE":" ","ALLEY":" ","HOUSE_NO":"８１號","E_COORD97":174361.20999999999,"N_COORD97":2547785.3399999999,"ADDRESS":"龍中街８１號","OBJECTID":123439},"geometry":{"x":174361.20999999996,"y":2547785.3400000036}},{"attributes":{"ID":123440,"DIS_CODE":0,"TOWNNAME":"永康區","LI":"永康里","LIN":"31鄰","STREET":"聖龍街","SECT":" ","MAREA":" ","LANE":" ","ALLEY":" ","HOUSE_NO":"１８８號","E_COORD97":174234.26000000001,"N_COORD97":2547845.7799999998,"ADDRESS":"聖龍街１８８號","OBJECTID":123440},"geometry":{"x":174234.26000000164,"y":2547845.7799999975}},{"attributes":{"ID":123441,"DIS_CODE":0,"TOWNNAME":"永康區","LI":"永康里","LIN":"31鄰","STREET":"龍中街","SECT":" ","MAREA":" ","LANE":" ","ALLEY":" ","HOUSE_NO":"７３號","E_COORD97":174353.47,"N_COORD97":2547767.8399999999,"ADDRESS":"龍中街７３號","OBJECTID":123441},"geometry":{"x":174353.47000000067,"y":2547767.8399999999}},{"attributes":{"ID":123442,"DIS_CODE":0,"TOWNNAME":"中西區","LI":"光賢里","LIN":"16鄰","STREET":"武聖路","SECT":" ","MAREA":" ","LANE":"１５１巷","ALLEY":"１０弄","HOUSE_NO":"１２號","E_COORD97":166979.04000000001,"N_COORD97":2545183.6499999999,"ADDRESS":"武聖路１５１巷１０弄１２號","OBJECTID":123442},"geometry":{"x":166979.0400000019,"y":2545183.6500000022}},{"attributes":{"ID":123443,"DIS_CODE":0,"TOWNNAME":"永康區","LI":"中興里","LIN":"7鄰","STREET":"中山東路","SECT":" ","MAREA":" ","LANE":"４７２巷","ALLEY":"２弄","HOUSE_NO":"１３號","E_COORD97":171923.54000000001,"N_COORD97":2545097.2999999998,"ADDRESS":"中山東路４７２巷２弄１３號","OBJECTID":123443},"geometry":{"x":171923.54000000004,"y":2545097.3000000007}},{"attributes":{"ID":123444,"DIS_CODE":0,"TOWNNAME":"永康區","LI":"埔園里","LIN":"31鄰","STREET":"中山路","SECT":" ","MAREA":" ","LANE":" ","ALLEY":" ","HOUSE_NO":"５０２號","E_COORD97":173554.92999999999,"N_COORD97":2548649.9900000002,"ADDRESS":"中山路５０２號","OBJECTID":123444},"geometry":{"x":173554.92999999877,"y":2548649.9900000021}},{"attributes":{"ID":123445,"DIS_CODE":0,"TOWNNAME":"永康區","LI":"大灣里","LIN":"28鄰","STREET":"民族路","SECT":" ","MAREA":" ","LANE":"１９０巷","ALLEY":"１４弄","HOUSE_NO":"７號","E_COORD97":175254.79000000001,"N_COORD97":2545036.2799999998,"ADDRESS":"民族路１９０巷１４弄７號","OBJECTID":123445},"geometry":{"x":175254.78999999911,"y":2545036.2800000012}},{"attributes":{"ID":123446,"DIS_CODE":0,"TOWNNAME":"永康區","LI":"大橋里","LIN":"23鄰","STREET":"大橋一街","SECT":" ","MAREA":" ","LANE":"１３９巷","ALLEY":"２２弄","HOUSE_NO":"６２號","E_COORD97":171151.70000000001,"N_COORD97":2546636,"ADDRESS":"大橋一街１３９巷２２弄６２號","OBJECTID":123446},"geometry":{"x":171151.70000000205,"y":2546636.0000000019}},{"attributes":{"ID":123447,"DIS_CODE":0,"TOWNNAME":"後壁區","LI":"嘉民里","LIN":"4鄰","STREET":" ","SECT":" ","MAREA":"上茄苳","LANE":" ","ALLEY":" ","HOUSE_NO":"１５６號之８","E_COORD97":186343.39999999999,"N_COORD97":2587062.0499999998,"ADDRESS":"上茄苳１５６號之８","OBJECTID":123447},"geometry":{"x":186343.4000000013,"y":2587062.0500000045}},{"attributes":{"ID":123448,"DIS_CODE":0,"TOWNNAME":"中西區","LI":"光賢里","LIN":"16鄰","STREET":"武聖路","SECT":" ","MAREA":" ","LANE":"１５１巷","ALLEY":"１０弄","HOUSE_NO":"１３號","E_COORD97":166960.01999999999,"N_COORD97":2545158.7200000002,"ADDRESS":"武聖路１５１巷１０弄１３號","OBJECTID":123448},"geometry":{"x":166960.02000000142,"y":2545158.7200000007}},{"attributes":{"ID":123449,"DIS_CODE":0,"TOWNNAME":"永康區","LI":"成功里","LIN":"31鄰","STREET":"中華一路","SECT":" ","MAREA":" ","LANE":"３９巷","ALLEY":" ","HOUSE_NO":"７８號","E_COORD97":171879.85000000001,"N_COORD97":2544826.4199999999,"ADDRESS":"中華一路３９巷７８號","OBJECTID":123449},"geometry":{"x":171879.84999999963,"y":2544826.4200000018}},{"attributes":{"ID":123450,"DIS_CODE":0,"TOWNNAME":"後壁區","LI":"嘉民里","LIN":"4鄰","STREET":" ","SECT":" ","MAREA":"上茄苳","LANE":" ","ALLEY":" ","HOUSE_NO":"１５７號之２","E_COORD97":186473.73000000001,"N_COORD97":2587030.79,"ADDRESS":"上茄苳１５７號之２","OBJECTID":123450},"geometry":{"x":186473.73000000045,"y":2587030.7899999991}},{"attributes":{"ID":123451,"DIS_CODE":0,"TOWNNAME":"後壁區","LI":"嘉民里","LIN":"4鄰","STREET":" ","SECT":" ","MAREA":"上茄苳","LANE":" ","ALLEY":" ","HOUSE_NO":"１５７號之８","E_COORD97":186468.81,"N_COORD97":2587010.0600000001,"ADDRESS":"上茄苳１５７號之８","OBJECTID":123451},"geometry":{"x":186468.80999999959,"y":2587010.0600000005}},{"attributes":{"ID":123452,"DIS_CODE":0,"TOWNNAME":"永康區","LI":"永康里","LIN":"31鄰","STREET":"龍中街","SECT":" ","MAREA":" ","LANE":" ","ALLEY":" ","HOUSE_NO":"７７號","E_COORD97":174357.60999999999,"N_COORD97":2547777.0899999999,"ADDRESS":"龍中街７７號","OBJECTID":123452},"geometry":{"x":174357.61000000034,"y":2547777.0900000017}},{"attributes":{"ID":123453,"DIS_CODE":0,"TOWNNAME":"後壁區","LI":"嘉民里","LIN":"4鄰","STREET":" ","SECT":" ","MAREA":"上茄苳","LANE":" ","ALLEY":" ","HOUSE_NO":"１５７號","E_COORD97":186432.23999999999,"N_COORD97":2587021.9300000002,"ADDRESS":"上茄苳１５７號","OBJECTID":123453},"geometry":{"x":186432.24000000115,"y":2587021.9300000016}},{"attributes":{"ID":123454,"DIS_CODE":0,"TOWNNAME":"後壁區","LI":"嘉民里","LIN":"4鄰","STREET":" ","SECT":" ","MAREA":"上茄苳","LANE":" ","ALLEY":" ","HOUSE_NO":"１６０號","E_COORD97":186497.47,"N_COORD97":2587037.77,"ADDRESS":"上茄苳１６０號","OBJECTID":123454},"geometry":{"x":186497.46999999881,"y":2587037.7699999996}},{"attributes":{"ID":123455,"DIS_CODE":0,"TOWNNAME":"後壁區","LI":"嘉民里","LIN":"4鄰","STREET":" ","SECT":" ","MAREA":"上茄苳","LANE":" ","ALLEY":" ","HOUSE_NO":"１６１號之１","E_COORD97":186473.42999999999,"N_COORD97":2587057.3799999999,"ADDRESS":"上茄苳１６１號之１","OBJECTID":123455},"geometry":{"x":186473.4299999997,"y":2587057.379999999}},{"attributes":{"ID":123456,"DIS_CODE":0,"TOWNNAME":"後壁區","LI":"嘉民里","LIN":"4鄰","STREET":" ","SECT":" ","MAREA":"上茄苳","LANE":" ","ALLEY":" ","HOUSE_NO":"１６１號","E_COORD97":186479.67000000001,"N_COORD97":2587065.73,"ADDRESS":"上茄苳１６１號","OBJECTID":123456},"geometry":{"x":186479.67000000086,"y":2587065.7300000004}},{"attributes":{"ID":123457,"DIS_CODE":0,"TOWNNAME":"後壁區","LI":"嘉民里","LIN":"4鄰","STREET":" ","SECT":" ","MAREA":"上茄苳","LANE":" ","ALLEY":" ","HOUSE_NO":"１６２號之１","E_COORD97":186473.63,"N_COORD97":2587078.9100000001,"ADDRESS":"上茄苳１６２號之１","OBJECTID":123457},"geometry":{"x":186473.63000000082,"y":2587078.9100000001}},{"attributes":{"ID":123458,"DIS_CODE":0,"TOWNNAME":"後壁區","LI":"嘉民里","LIN":"4鄰","STREET":" ","SECT":" ","MAREA":"上茄苳","LANE":" ","ALLEY":" ","HOUSE_NO":"１６２號之１","E_COORD97":186477.76999999999,"N_COORD97":2587081.7400000002,"ADDRESS":"上茄苳１６２號之１","OBJECTID":123458},"geometry":{"x":186477.76999999955,"y":2587081.7400000021}},{"attributes":{"ID":123459,"DIS_CODE":0,"TOWNNAME":"後壁區","LI":"嘉民里","LIN":"4鄰","STREET":" ","SECT":" ","MAREA":"上茄苳","LANE":" ","ALLEY":" ","HOUSE_NO":"１６３號之６","E_COORD97":186489.82999999999,"N_COORD97":2587113.52,"ADDRESS":"上茄苳１６３號之６","OBJECTID":123459},"geometry":{"x":186489.83000000007,"y":2587113.5200000014}},{"attributes":{"ID":123460,"DIS_CODE":0,"TOWNNAME":"東山區","LI":"大客里","LIN":"13鄰","STREET":" ","SECT":" ","MAREA":"凹子\u25A0","LANE":" ","ALLEY":" ","HOUSE_NO":"４號","E_COORD97":191387.19,"N_COORD97":2578478.4500000002,"ADDRESS":"凹子\u25A0４號","OBJECTID":123460},"geometry":{"x":191387.19000000041,"y":2578478.4500000011}},{"attributes":{"ID":123461,"DIS_CODE":0,"TOWNNAME":"後壁區","LI":"嘉民里","LIN":"4鄰","STREET":" ","SECT":" ","MAREA":"上茄苳","LANE":" ","ALLEY":" ","HOUSE_NO":"１６３號","E_COORD97":186488.62,"N_COORD97":2587101.5,"ADDRESS":"上茄苳１６３號","OBJECTID":123461},"geometry":{"x":186488.62000000104,"y":2587101.5}},{"attributes":{"ID":123462,"DIS_CODE":0,"TOWNNAME":"中西區","LI":"光賢里","LIN":"16鄰","STREET":"武聖路","SECT":" ","MAREA":" ","LANE":"１５１巷","ALLEY":"１０弄","HOUSE_NO":"１４號","E_COORD97":166971.89000000001,"N_COORD97":2545182.6600000001,"ADDRESS":"武聖路１５１巷１０弄１４號","OBJECTID":123462},"geometry":{"x":166971.8900000006,"y":2545182.6599999983}},{"attributes":{"ID":123463,"DIS_CODE":0,"TOWNNAME":"後壁區","LI":"嘉民里","LIN":"7鄰","STREET":" ","SECT":" ","MAREA":"上茄苳","LANE":" ","ALLEY":" ","HOUSE_NO":"１８２號之４","E_COORD97":186573.88,"N_COORD97":2587088.8300000001,"ADDRESS":"上茄苳１８２號之４","OBJECTID":123463},"geometry":{"x":186573.87999999989,"y":2587088.8300000001}},{"attributes":{"ID":123464,"DIS_CODE":0,"TOWNNAME":"後壁區","LI":"嘉民里","LIN":"7鄰","STREET":" ","SECT":" ","MAREA":"上茄苳","LANE":" ","ALLEY":" ","HOUSE_NO":"１８３號","E_COORD97":186556.98000000001,"N_COORD97":2587088.4399999999,"ADDRESS":"上茄苳１８３號","OBJECTID":123464},"geometry":{"x":186556.98000000045,"y":2587088.4399999976}},{"attributes":{"ID":123465,"DIS_CODE":0,"TOWNNAME":"後壁區","LI":"嘉民里","LIN":"6鄰","STREET":" ","SECT":" ","MAREA":"上茄苳","LANE":" ","ALLEY":" ","HOUSE_NO":"１７５號之２","E_COORD97":186588.28,"N_COORD97":2587160,"ADDRESS":"上茄苳１７５號之２","OBJECTID":123465},"geometry":{"x":186588.28000000119,"y":2587160.0000000037}},{"attributes":{"ID":123466,"DIS_CODE":0,"TOWNNAME":"後壁區","LI":"嘉民里","LIN":"6鄰","STREET":" ","SECT":" ","MAREA":"上茄苳","LANE":" ","ALLEY":" ","HOUSE_NO":"１７５號","E_COORD97":186605.54999999999,"N_COORD97":2587145.3700000001,"ADDRESS":"上茄苳１７５號","OBJECTID":123466},"geometry":{"x":186605.55000000168,"y":2587145.3700000029}},{"attributes":{"ID":123467,"DIS_CODE":0,"TOWNNAME":"中西區","LI":"光賢里","LIN":"16鄰","STREET":"武聖路","SECT":" ","MAREA":" ","LANE":"１５１巷","ALLEY":"１０弄","HOUSE_NO":"１５號","E_COORD97":166956.56,"N_COORD97":2545161.4100000001,"ADDRESS":"武聖路１５１巷１０弄１５號","OBJECTID":123467},"geometry":{"x":166956.56000000052,"y":2545161.410000002}},{"attributes":{"ID":123468,"DIS_CODE":0,"TOWNNAME":"後壁區","LI":"嘉民里","LIN":"6鄰","STREET":" ","SECT":" ","MAREA":"上茄苳","LANE":" ","ALLEY":" ","HOUSE_NO":"１７６號之１","E_COORD97":186597.60000000001,"N_COORD97":2587137.5800000001,"ADDRESS":"上茄苳１７６號之１","OBJECTID":123468},"geometry":{"x":186597.59999999963,"y":2587137.5800000001}},{"attributes":{"ID":123469,"DIS_CODE":0,"TOWNNAME":"後壁區","LI":"嘉民里","LIN":"6鄰","STREET":" ","SECT":" ","MAREA":"上茄苳","LANE":" ","ALLEY":" ","HOUSE_NO":"１７６號之３","E_COORD97":186597.42999999999,"N_COORD97":2587127.5899999999,"ADDRESS":"上茄苳１７６號之３","OBJECTID":123469},"geometry":{"x":186597.4299999997,"y":2587127.5899999999}},{"attributes":{"ID":123470,"DIS_CODE":0,"TOWNNAME":"後壁區","LI":"嘉民里","LIN":"6鄰","STREET":" ","SECT":" ","MAREA":"上茄苳","LANE":" ","ALLEY":" ","HOUSE_NO":"１７７號","E_COORD97":186595.44,"N_COORD97":2587118.8599999999,"ADDRESS":"上茄苳１７７號","OBJECTID":123470},"geometry":{"x":186595.44000000134,"y":2587118.8599999994}},{"attributes":{"ID":123471,"DIS_CODE":0,"TOWNNAME":"後壁區","LI":"嘉民里","LIN":"6鄰","STREET":" ","SECT":" ","MAREA":"上茄苳","LANE":" ","ALLEY":" ","HOUSE_NO":"１７８號","E_COORD97":186545.17000000001,"N_COORD97":2587126.8799999999,"ADDRESS":"上茄苳１７８號","OBJECTID":123471},"geometry":{"x":186545.16999999993,"y":2587126.8800000008}},{"attributes":{"ID":123472,"DIS_CODE":0,"TOWNNAME":"後壁區","LI":"嘉民里","LIN":"6鄰","STREET":" ","SECT":" ","MAREA":"上茄苳","LANE":" ","ALLEY":" ","HOUSE_NO":"１７９號之１","E_COORD97":186597.10000000001,"N_COORD97":2587103.9199999999,"ADDRESS":"上茄苳１７９號之１","OBJECTID":123472},"geometry":{"x":186597.10000000056,"y":2587103.9200000018}},{"attributes":{"ID":123473,"DIS_CODE":0,"TOWNNAME":"後壁區","LI":"嘉民里","LIN":"6鄰","STREET":" ","SECT":" ","MAREA":"上茄苳","LANE":" ","ALLEY":" ","HOUSE_NO":"１７９號之２","E_COORD97":186593.63,"N_COORD97":2587108.98,"ADDRESS":"上茄苳１７９號之２","OBJECTID":123473},"geometry":{"x":186593.63000000082,"y":2587108.9800000004}},{"attributes":{"ID":123474,"DIS_CODE":0,"TOWNNAME":"中西區","LI":"光賢里","LIN":"16鄰","STREET":"武聖路","SECT":" ","MAREA":" ","LANE":"１５１巷","ALLEY":"１０弄","HOUSE_NO":"１６號","E_COORD97":166968.67999999999,"N_COORD97":2545185.8700000001,"ADDRESS":"武聖路１５１巷１０弄１６號","OBJECTID":123474},"geometry":{"x":166968.6799999997,"y":2545185.8700000048}},{"attributes":{"ID":123475,"DIS_CODE":0,"TOWNNAME":"後壁區","LI":"嘉民里","LIN":"6鄰","STREET":" ","SECT":" ","MAREA":"上茄苳","LANE":" ","ALLEY":" ","HOUSE_NO":"１７９號","E_COORD97":186594.60000000001,"N_COORD97":2587113.6699999999,"ADDRESS":"上茄苳１７９號","OBJECTID":123475},"geometry":{"x":186594.59999999963,"y":2587113.6699999999}},{"attributes":{"ID":123476,"DIS_CODE":0,"TOWNNAME":"後壁區","LI":"嘉民里","LIN":"6鄰","STREET":" ","SECT":" ","MAREA":"上茄苳","LANE":" ","ALLEY":" ","HOUSE_NO":"１８１號之１","E_COORD97":186591.56,"N_COORD97":2587086.8599999999,"ADDRESS":"上茄苳１８１號之１","OBJECTID":123476},"geometry":{"x":186591.55999999959,"y":2587086.8600000013}},{"attributes":{"ID":123477,"DIS_CODE":0,"TOWNNAME":"中西區","LI":"光賢里","LIN":"16鄰","STREET":"武聖路","SECT":" ","MAREA":" ","LANE":"１５１巷","ALLEY":"１０弄","HOUSE_NO":"１７號","E_COORD97":166952.34,"N_COORD97":2545164.4700000002,"ADDRESS":"武聖路１５１巷１０弄１７號","OBJECTID":123477},"geometry":{"x":166952.33999999985,"y":2545164.4700000044}},{"attributes":{"ID":123478,"DIS_CODE":0,"TOWNNAME":"學甲區","LI":"新達里","LIN":"23鄰","STREET":" ","SECT":" ","MAREA":"瓦寮","LANE":" ","ALLEY":" ","HOUSE_NO":"６號之２","E_COORD97":169387.26000000001,"N_COORD97":2570885.2999999998,"ADDRESS":"瓦寮６號之２","OBJECTID":123478},"geometry":{"x":169387.25999999978,"y":2570885.3000000026}},{"attributes":{"ID":123479,"DIS_CODE":0,"TOWNNAME":"中西區","LI":"光賢里","LIN":"16鄰","STREET":"武聖路","SECT":" ","MAREA":" ","LANE":"１５１巷","ALLEY":"１０弄","HOUSE_NO":"１８號","E_COORD97":166965.22,"N_COORD97":2545188.0800000001,"ADDRESS":"武聖路１５１巷１０弄１８號","OBJECTID":123479},"geometry":{"x":166965.21999999974,"y":2545188.0800000019}},{"attributes":{"ID":123480,"DIS_CODE":0,"TOWNNAME":"中西區","LI":"光賢里","LIN":"16鄰","STREET":"武聖路","SECT":" ","MAREA":" ","LANE":"１５１巷","ALLEY":"１０弄","HOUSE_NO":"１９號","E_COORD97":166946.20000000001,"N_COORD97":2545164.8500000001,"ADDRESS":"武聖路１５１巷１０弄１９號","OBJECTID":123480},"geometry":{"x":166946.20000000112,"y":2545164.8500000015}},{"attributes":{"ID":123481,"DIS_CODE":0,"TOWNNAME":"中西區","LI":"光賢里","LIN":"16鄰","STREET":"武聖路","SECT":" ","MAREA":" ","LANE":"１５１巷","ALLEY":"１０弄","HOUSE_NO":"１號","E_COORD97":166984.19,"N_COORD97":2545143.7799999998,"ADDRESS":"武聖路１５１巷１０弄１號","OBJECTID":123481},"geometry":{"x":166984.19000000134,"y":2545143.7800000031}},{"attributes":{"ID":123482,"DIS_CODE":0,"TOWNNAME":"中西區","LI":"光賢里","LIN":"16鄰","STREET":"武聖路","SECT":" ","MAREA":" ","LANE":"１５１巷","ALLEY":"１０弄","HOUSE_NO":"２０號","E_COORD97":166959.54999999999,"N_COORD97":2545189.0699999998,"ADDRESS":"武聖路１５１巷１０弄２０號","OBJECTID":123482},"geometry":{"x":166959.54999999981,"y":2545189.0700000003}},{"attributes":{"ID":123483,"DIS_CODE":0,"TOWNNAME":"永康區","LI":"成功里","LIN":"31鄰","STREET":"中華一路","SECT":" ","MAREA":" ","LANE":"３９巷","ALLEY":" ","HOUSE_NO":"８０號","E_COORD97":171879.72,"N_COORD97":2544822.9199999999,"ADDRESS":"中華一路３９巷８０號","OBJECTID":123483},"geometry":{"x":171879.71999999974,"y":2544822.9200000018}},{"attributes":{"ID":123484,"DIS_CODE":0,"TOWNNAME":"中西區","LI":"天后里","LIN":"24鄰","STREET":"郡緯街","SECT":" ","MAREA":" ","LANE":" ","ALLEY":" ","HOUSE_NO":"６號五樓之７","E_COORD97":168205.07999999999,"N_COORD97":2544297.52,"ADDRESS":"郡緯街６號五樓之７","OBJECTID":123484},"geometry":{"x":168205.08000000101,"y":2544297.5199999996}},{"attributes":{"ID":123485,"DIS_CODE":0,"TOWNNAME":"中西區","LI":"天后里","LIN":"24鄰","STREET":"郡緯街","SECT":" ","MAREA":" ","LANE":" ","ALLEY":" ","HOUSE_NO":"６號五樓之８","E_COORD97":168205.07999999999,"N_COORD97":2544297.52,"ADDRESS":"郡緯街６號五樓之８","OBJECTID":123485},"geometry":{"x":168205.08000000101,"y":2544297.5199999996}},{"attributes":{"ID":123486,"DIS_CODE":0,"TOWNNAME":"北區","LI":"大豐里","LIN":"21鄰","STREET":"大興街","SECT":" ","MAREA":" ","LANE":" ","ALLEY":" ","HOUSE_NO":"２８３號","E_COORD97":166719.09,"N_COORD97":2545695,"ADDRESS":"大興街２８３號","OBJECTID":123486},"geometry":{"x":166719.09000000171,"y":2545695}},{"attributes":{"ID":123487,"DIS_CODE":0,"TOWNNAME":"官田區","LI":"官田里","LIN":"8鄰","STREET":" ","SECT":" ","MAREA":"官田","LANE":" ","ALLEY":" ","HOUSE_NO":"７２號","E_COORD97":182419.94,"N_COORD97":2565221.3900000001,"ADDRESS":"官田７２號","OBJECTID":123487},"geometry":{"x":182419.94000000227,"y":2565221.3900000006}},{"attributes":{"ID":123488,"DIS_CODE":0,"TOWNNAME":"中西區","LI":"天后里","LIN":"24鄰","STREET":"郡緯街","SECT":" ","MAREA":" ","LANE":" ","ALLEY":" ","HOUSE_NO":"６號六樓之１","E_COORD97":168205.07999999999,"N_COORD97":2544297.52,"ADDRESS":"郡緯街６號六樓之１","OBJECTID":123488},"geometry":{"x":168205.08000000101,"y":2544297.5199999996}},{"attributes":{"ID":123489,"DIS_CODE":0,"TOWNNAME":"中西區","LI":"天后里","LIN":"24鄰","STREET":"郡緯街","SECT":" ","MAREA":" ","LANE":" ","ALLEY":" ","HOUSE_NO":"６號六樓之２","E_COORD97":168205.07999999999,"N_COORD97":2544297.52,"ADDRESS":"郡緯街６號六樓之２","OBJECTID":123489},"geometry":{"x":168205.08000000101,"y":2544297.5199999996}},{"attributes":{"ID":123490,"DIS_CODE":0,"TOWNNAME":"中西區","LI":"天后里","LIN":"24鄰","STREET":"郡緯街","SECT":" ","MAREA":" ","LANE":" ","ALLEY":" ","HOUSE_NO":"６號六樓之３","E_COORD97":168205.07999999999,"N_COORD97":2544297.52,"ADDRESS":"郡緯街６號六樓之３","OBJECTID":123490},"geometry":{"x":168205.08000000101,"y":2544297.5199999996}},{"attributes":{"ID":123491,"DIS_CODE":0,"TOWNNAME":"中西區","LI":"天后里","LIN":"24鄰","STREET":"郡緯街","SECT":" ","MAREA":" ","LANE":" ","ALLEY":" ","HOUSE_NO":"６號六樓之４","E_COORD97":168205.07999999999,"N_COORD97":2544297.52,"ADDRESS":"郡緯街６號六樓之４","OBJECTID":123491},"geometry":{"x":168205.08000000101,"y":2544297.5199999996}},{"attributes":{"ID":123492,"DIS_CODE":0,"TOWNNAME":"中西區","LI":"天后里","LIN":"24鄰","STREET":"郡緯街","SECT":" ","MAREA":" ","LANE":" ","ALLEY":" ","HOUSE_NO":"６號六樓之５","E_COORD97":168205.07999999999,"N_COORD97":2544297.52,"ADDRESS":"郡緯街６號六樓之５","OBJECTID":123492},"geometry":{"x":168205.08000000101,"y":2544297.5199999996}},{"attributes":{"ID":123493,"DIS_CODE":0,"TOWNNAME":"中西區","LI":"天后里","LIN":"24鄰","STREET":"郡緯街","SECT":" ","MAREA":" ","LANE":" ","ALLEY":" ","HOUSE_NO":"６號六樓之６","E_COORD97":168205.07999999999,"N_COORD97":2544297.52,"ADDRESS":"郡緯街６號六樓之６","OBJECTID":123493},"geometry":{"x":168205.08000000101,"y":2544297.5199999996}},{"attributes":{"ID":123494,"DIS_CODE":0,"TOWNNAME":"新化區","LI":"東榮里","LIN":"31鄰","STREET":"信義路","SECT":" ","MAREA":" ","LANE":" ","ALLEY":" ","HOUSE_NO":"１９１號","E_COORD97":179169.42999999999,"N_COORD97":2548326.25,"ADDRESS":"信義路１９１號","OBJECTID":123494},"geometry":{"x":179169.43000000156,"y":2548326.2500000019}},{"attributes":{"ID":123495,"DIS_CODE":0,"TOWNNAME":"中西區","LI":"光賢里","LIN":"16鄰","STREET":"武聖路","SECT":" ","MAREA":" ","LANE":"１５１巷","ALLEY":"１０弄","HOUSE_NO":"２１號","E_COORD97":166943.89999999999,"N_COORD97":2545168.6899999999,"ADDRESS":"武聖路１５１巷１０弄２１號","OBJECTID":123495},"geometry":{"x":166943.90000000037,"y":2545168.6900000013}},{"attributes":{"ID":123496,"DIS_CODE":0,"TOWNNAME":"中西區","LI":"光賢里","LIN":"16鄰","STREET":"武聖路","SECT":" ","MAREA":" ","LANE":"１５１巷","ALLEY":"１０弄","HOUSE_NO":"２２號","E_COORD97":166957.32999999999,"N_COORD97":2545193.75,"ADDRESS":"武聖路１５１巷１０弄２２號","OBJECTID":123496},"geometry":{"x":166957.33000000101,"y":2545193.7500000019}},{"attributes":{"ID":123497,"DIS_CODE":0,"TOWNNAME":"後壁區","LI":"嘉民里","LIN":"6鄰","STREET":" ","SECT":" ","MAREA":"上茄苳","LANE":" ","ALLEY":" ","HOUSE_NO":"１８１號之２","E_COORD97":186591.07000000001,"N_COORD97":2587082.1000000001,"ADDRESS":"上茄苳１８１號之２","OBJECTID":123497},"geometry":{"x":186591.07000000123,"y":2587082.1000000015}},{"attributes":{"ID":123498,"DIS_CODE":0,"TOWNNAME":"後壁區","LI":"嘉民里","LIN":"6鄰","STREET":" ","SECT":" ","MAREA":"上茄苳","LANE":" ","ALLEY":" ","HOUSE_NO":"１８１號","E_COORD97":186595.47,"N_COORD97":2587092.3100000001,"ADDRESS":"上茄苳１８１號","OBJECTID":123498},"geometry":{"x":186595.46999999974,"y":2587092.3100000024}},{"attributes":{"ID":123499,"DIS_CODE":0,"TOWNNAME":"後壁區","LI":"嘉田里","LIN":"2鄰","STREET":" ","SECT":" ","MAREA":"上茄苳","LANE":" ","ALLEY":" ","HOUSE_NO":"１６號","E_COORD97":186787.75,"N_COORD97":2587503.3900000001,"ADDRESS":"上茄苳１６號","OBJECTID":123499},"geometry":{"x":186787.75000000093,"y":2587503.3900000006}},{"attributes":{"ID":123500,"DIS_CODE":0,"TOWNNAME":"後壁區","LI":"土溝里","LIN":"4鄰","STREET":" ","SECT":" ","MAREA":"土溝","LANE":" ","ALLEY":" ","HOUSE_NO":"３５號","E_COORD97":187142.17999999999,"N_COORD97":2585704.3500000001,"ADDRESS":"土溝３５號","OBJECTID":123500},"geometry":{"x":187142.18000000063,"y":2585704.3500000015}},{"attributes":{"ID":123501,"DIS_CODE":0,"TOWNNAME":"後壁區","LI":"嘉田里","LIN":"4鄰","STREET":" ","SECT":" ","MAREA":"上茄苳","LANE":" ","ALLEY":" ","HOUSE_NO":"３２號","E_COORD97":186789.10999999999,"N_COORD97":2587251.1499999999,"ADDRESS":"上茄苳３２號","OBJECTID":123501},"geometry":{"x":186789.11000000127,"y":2587251.1500000041}},{"attributes":{"ID":123502,"DIS_CODE":0,"TOWNNAME":"後壁區","LI":"嘉田里","LIN":"4鄰","STREET":" ","SECT":" ","MAREA":"上茄苳","LANE":" ","ALLEY":" ","HOUSE_NO":"３３號","E_COORD97":186778.64000000001,"N_COORD97":2587227.2000000002,"ADDRESS":"上茄苳３３號","OBJECTID":123502},"geometry":{"x":186778.63999999966,"y":2587227.2000000011}},{"attributes":{"ID":123503,"DIS_CODE":0,"TOWNNAME":"後壁區","LI":"嘉田里","LIN":"4鄰","STREET":" ","SECT":" ","MAREA":"上茄苳","LANE":" ","ALLEY":" ","HOUSE_NO":"３４號之２","E_COORD97":186794.26999999999,"N_COORD97":2587195.7599999998,"ADDRESS":"上茄苳３４號之２","OBJECTID":123503},"geometry":{"x":186794.27000000048,"y":2587195.7600000016}},{"attributes":{"ID":123504,"DIS_CODE":0,"TOWNNAME":"後壁區","LI":"嘉田里","LIN":"4鄰","STREET":" ","SECT":" ","MAREA":"上茄苳","LANE":" ","ALLEY":" ","HOUSE_NO":"３４號","E_COORD97":186765.51000000001,"N_COORD97":2587217.1600000001,"ADDRESS":"上茄苳３４號","OBJECTID":123504},"geometry":{"x":186765.51000000071,"y":2587217.160000002}},{"attributes":{"ID":123505,"DIS_CODE":0,"TOWNNAME":"後壁區","LI":"嘉田里","LIN":"4鄰","STREET":" ","SECT":" ","MAREA":"上茄苳","LANE":" ","ALLEY":" ","HOUSE_NO":"３５號","E_COORD97":186776.32999999999,"N_COORD97":2587201.3300000001,"ADDRESS":"上茄苳３５號","OBJECTID":123505},"geometry":{"x":186776.33000000007,"y":2587201.3300000001}},{"attributes":{"ID":123506,"DIS_CODE":0,"TOWNNAME":"中西區","LI":"光賢里","LIN":"16鄰","STREET":"武聖路","SECT":" ","MAREA":" ","LANE":"１５１巷","ALLEY":"１０弄","HOUSE_NO":"２３號","E_COORD97":166936.23000000001,"N_COORD97":2545166.77,"ADDRESS":"武聖路１５１巷１０弄２３號","OBJECTID":123506},"geometry":{"x":166936.23000000138,"y":2545166.7699999996}},{"attributes":{"ID":123507,"DIS_CODE":0,"TOWNNAME":"中西區","LI":"光賢里","LIN":"16鄰","STREET":"武聖路","SECT":" ","MAREA":" ","LANE":"１５１巷","ALLEY":"１０弄","HOUSE_NO":"２４號","E_COORD97":166951.16,"N_COORD97":2545194.7400000002,"ADDRESS":"武聖路１５１巷１０弄２４號","OBJECTID":123507},"geometry":{"x":166951.16000000201,"y":2545194.7400000002}},{"attributes":{"ID":123508,"DIS_CODE":0,"TOWNNAME":"後壁區","LI":"嘉田里","LIN":"4鄰","STREET":" ","SECT":" ","MAREA":"上茄苳","LANE":" ","ALLEY":" ","HOUSE_NO":"３７號","E_COORD97":186818.92000000001,"N_COORD97":2587191.75,"ADDRESS":"上茄苳３７號","OBJECTID":123508},"geometry":{"x":186818.92000000086,"y":2587191.75}},{"attributes":{"ID":123509,"DIS_CODE":0,"TOWNNAME":"後壁區","LI":"嘉田里","LIN":"4鄰","STREET":" ","SECT":" ","MAREA":"上茄苳","LANE":" ","ALLEY":" ","HOUSE_NO":"３８號之１","E_COORD97":186797.28,"N_COORD97":2587160.1299999999,"ADDRESS":"上茄苳３８號之１","OBJECTID":123509},"geometry":{"x":186797.28000000026,"y":2587160.129999999}},{"attributes":{"ID":123510,"DIS_CODE":0,"TOWNNAME":"中西區","LI":"光賢里","LIN":"16鄰","STREET":"武聖路","SECT":" ","MAREA":" ","LANE":"１５１巷","ALLEY":"１０弄","HOUSE_NO":"２５號","E_COORD97":166935.07999999999,"N_COORD97":2545173.6699999999,"ADDRESS":"武聖路１５１巷１０弄２５號","OBJECTID":123510},"geometry":{"x":166935.08000000101,"y":2545173.6700000018}},{"attributes":{"ID":123511,"DIS_CODE":0,"TOWNNAME":"後壁區","LI":"嘉田里","LIN":"4鄰","STREET":" ","SECT":" ","MAREA":"上茄苳","LANE":" ","ALLEY":" ","HOUSE_NO":"４０號之１","E_COORD97":186825.44,"N_COORD97":2587150.6699999999,"ADDRESS":"上茄苳４０號之１","OBJECTID":123511},"geometry":{"x":186825.44000000041,"y":2587150.6699999999}},{"attributes":{"ID":123512,"DIS_CODE":0,"TOWNNAME":"後壁區","LI":"嘉田里","LIN":"4鄰","STREET":" ","SECT":" ","MAREA":"上茄苳","LANE":" ","ALLEY":" ","HOUSE_NO":"４０號之２","E_COORD97":186838.37,"N_COORD97":2587157.8900000001,"ADDRESS":"上茄苳４０號之２","OBJECTID":123512},"geometry":{"x":186838.37000000104,"y":2587157.8900000043}},{"attributes":{"ID":123513,"DIS_CODE":0,"TOWNNAME":"後壁區","LI":"嘉田里","LIN":"1鄰","STREET":" ","SECT":" ","MAREA":"上茄苳","LANE":" ","ALLEY":" ","HOUSE_NO":"２號之１附１","E_COORD97":186950.51999999999,"N_COORD97":2587519.6800000002,"ADDRESS":"上茄苳２號之１附１","OBJECTID":123513},"geometry":{"x":186950.51999999955,"y":2587519.6799999997}},{"attributes":{"ID":123514,"DIS_CODE":0,"TOWNNAME":"永康區","LI":"大橋里","LIN":"22鄰","STREET":"大橋一街","SECT":" ","MAREA":" ","LANE":"１３９巷","ALLEY":"２２弄","HOUSE_NO":"２４號","E_COORD97":171067.98999999999,"N_COORD97":2546578.7000000002,"ADDRESS":"大橋一街１３９巷２２弄２４號","OBJECTID":123514},"geometry":{"x":171067.99000000022,"y":2546578.700000003}},{"attributes":{"ID":123515,"DIS_CODE":0,"TOWNNAME":"永康區","LI":"二王里","LIN":"28鄰","STREET":"中山南路","SECT":" ","MAREA":" ","LANE":"５４４巷","ALLEY":"６０弄","HOUSE_NO":"１０號","E_COORD97":172294.85999999999,"N_COORD97":2546359.1099999999,"ADDRESS":"中山南路５４４巷６０弄１０號","OBJECTID":123515},"geometry":{"x":172294.8600000022,"y":2546359.1100000031}},{"attributes":{"ID":123516,"DIS_CODE":0,"TOWNNAME":"永康區","LI":"大橋里","LIN":"16鄰","STREET":"大橋一街","SECT":" ","MAREA":" ","LANE":"１０３巷","ALLEY":"６２弄","HOUSE_NO":"１３號","E_COORD97":170976.82000000001,"N_COORD97":2546588.0099999998,"ADDRESS":"大橋一街１０３巷６２弄１３號","OBJECTID":123516},"geometry":{"x":170976.82000000123,"y":2546588.0100000016}},{"attributes":{"ID":123517,"DIS_CODE":0,"TOWNNAME":"中西區","LI":"光賢里","LIN":"16鄰","STREET":"武聖路","SECT":" ","MAREA":" ","LANE":"１５１巷","ALLEY":"１０弄","HOUSE_NO":"２６號","E_COORD97":166946.97,"N_COORD97":2545196.21,"ADDRESS":"武聖路１５１巷１０弄２６號","OBJECTID":123517},"geometry":{"x":166946.9700000016,"y":2545196.2100000009}},{"attributes":{"ID":123518,"DIS_CODE":0,"TOWNNAME":"永康區","LI":"三合里","LIN":"18鄰","STREET":"南工街","SECT":" ","MAREA":" ","LANE":"２６７巷","ALLEY":"１７弄","HOUSE_NO":"５號","E_COORD97":171919.10000000001,"N_COORD97":2545905.75,"ADDRESS":"南工街２６７巷１７弄５號","OBJECTID":123518},"geometry":{"x":171919.09999999963,"y":2545905.7500000019}},{"attributes":{"ID":123519,"DIS_CODE":0,"TOWNNAME":"永康區","LI":"大灣里","LIN":"26鄰","STREET":"民族路","SECT":" ","MAREA":" ","LANE":"１９０巷","ALLEY":"１弄","HOUSE_NO":"９號","E_COORD97":175157.26999999999,"N_COORD97":2545152.6899999999,"ADDRESS":"民族路１９０巷１弄９號","OBJECTID":123519},"geometry":{"x":175157.26999999955,"y":2545152.6900000013}},{"attributes":{"ID":123520,"DIS_CODE":0,"TOWNNAME":"永康區","LI":"五王里","LIN":"12鄰","STREET":"中山東路","SECT":" ","MAREA":" ","LANE":"２１８巷","ALLEY":"１２弄","HOUSE_NO":"３號","E_COORD97":171725.59,"N_COORD97":2545764.27,"ADDRESS":"中山東路２１８巷１２弄３號","OBJECTID":123520},"geometry":{"x":171725.59000000078,"y":2545764.2699999996}},{"attributes":{"ID":123521,"DIS_CODE":0,"TOWNNAME":"後壁區","LI":"嘉田里","LIN":"7鄰","STREET":" ","SECT":" ","MAREA":"上茄苳","LANE":" ","ALLEY":" ","HOUSE_NO":"６６號","E_COORD97":186680.13,"N_COORD97":2587118.3599999999,"ADDRESS":"上茄苳６６號","OBJECTID":123521},"geometry":{"x":186680.13000000082,"y":2587118.3599999994}},{"attributes":{"ID":123522,"DIS_CODE":0,"TOWNNAME":"中西區","LI":"光賢里","LIN":"16鄰","STREET":"武聖路","SECT":" ","MAREA":" ","LANE":"１５１巷","ALLEY":"１０弄","HOUSE_NO":"２７號","E_COORD97":166930.48000000001,"N_COORD97":2545178.6499999999,"ADDRESS":"武聖路１５１巷１０弄２７號","OBJECTID":123522},"geometry":{"x":166930.48000000045,"y":2545178.6500000004}},{"attributes":{"ID":123523,"DIS_CODE":0,"TOWNNAME":"後壁區","LI":"嘉田里","LIN":"1鄰","STREET":" ","SECT":" ","MAREA":"上茄苳","LANE":" ","ALLEY":" ","HOUSE_NO":"２號之１附２","E_COORD97":186961.82000000001,"N_COORD97":2587517.9300000002,"ADDRESS":"上茄苳２號之１附２","OBJECTID":123523},"geometry":{"x":186961.81999999937,"y":2587517.9299999997}},{"attributes":{"ID":123524,"DIS_CODE":0,"TOWNNAME":"中西區","LI":"光賢里","LIN":"16鄰","STREET":"武聖路","SECT":" ","MAREA":" ","LANE":"１５１巷","ALLEY":"１０弄","HOUSE_NO":"２８號","E_COORD97":166943.01999999999,"N_COORD97":2545199.1699999999,"ADDRESS":"武聖路１５１巷１０弄２８號","OBJECTID":123524},"geometry":{"x":166943.02000000142,"y":2545199.1699999999}},{"attributes":{"ID":123525,"DIS_CODE":0,"TOWNNAME":"後壁區","LI":"嘉田里","LIN":"1鄰","STREET":" ","SECT":" ","MAREA":"上茄苳","LANE":" ","ALLEY":" ","HOUSE_NO":"２號之１附３","E_COORD97":186965.44,"N_COORD97":2587520.6400000001,"ADDRESS":"上茄苳２號之１附３","OBJECTID":123525},"geometry":{"x":186965.44000000134,"y":2587520.6400000025}},{"attributes":{"ID":123526,"DIS_CODE":0,"TOWNNAME":"後壁區","LI":"嘉田里","LIN":"1鄰","STREET":" ","SECT":" ","MAREA":"上茄苳","LANE":" ","ALLEY":" ","HOUSE_NO":"２之１號","E_COORD97":186953.92000000001,"N_COORD97":2587521.6000000001,"ADDRESS":"上茄苳２之１號","OBJECTID":123526},"geometry":{"x":186953.91999999993,"y":2587521.6000000034}},{"attributes":{"ID":123527,"DIS_CODE":0,"TOWNNAME":"後壁區","LI":"嘉田里","LIN":"1鄰","STREET":" ","SECT":" ","MAREA":"上茄苳","LANE":" ","ALLEY":" ","HOUSE_NO":"２號之２","E_COORD97":186977.51999999999,"N_COORD97":2587540.2000000002,"ADDRESS":"上茄苳２號之２","OBJECTID":123527},"geometry":{"x":186977.52000000048,"y":2587540.1999999993}},{"attributes":{"ID":123528,"DIS_CODE":0,"TOWNNAME":"中西區","LI":"光賢里","LIN":"16鄰","STREET":"武聖路","SECT":" ","MAREA":" ","LANE":"１５１巷","ALLEY":"１０弄","HOUSE_NO":"２９號","E_COORD97":166928.56,"N_COORD97":2545173.2799999998,"ADDRESS":"武聖路１５１巷１０弄２９號","OBJECTID":123528},"geometry":{"x":166928.55999999959,"y":2545173.2799999993}},{"attributes":{"ID":123529,"DIS_CODE":0,"TOWNNAME":"中西區","LI":"光賢里","LIN":"16鄰","STREET":"武聖路","SECT":" ","MAREA":" ","LANE":"１５１巷","ALLEY":"１０弄","HOUSE_NO":"２號","E_COORD97":166999.01999999999,"N_COORD97":2545170.3500000001,"ADDRESS":"武聖路１５１巷１０弄２號","OBJECTID":123529},"geometry":{"x":166999.02000000142,"y":2545170.3499999996}},{"attributes":{"ID":123530,"DIS_CODE":0,"TOWNNAME":"中西區","LI":"光賢里","LIN":"16鄰","STREET":"武聖路","SECT":" ","MAREA":" ","LANE":"１５１巷","ALLEY":"１０弄","HOUSE_NO":"３號","E_COORD97":166981.12,"N_COORD97":2545146.8399999999,"ADDRESS":"武聖路１５１巷１０弄３號","OBJECTID":123530},"geometry":{"x":166981.12000000011,"y":2545146.8399999999}},{"attributes":{"ID":123531,"DIS_CODE":0,"TOWNNAME":"中西區","LI":"光賢里","LIN":"16鄰","STREET":"武聖路","SECT":" ","MAREA":" ","LANE":"１５１巷","ALLEY":"１０弄","HOUSE_NO":"４號","E_COORD97":166996.06,"N_COORD97":2545174.29,"ADDRESS":"武聖路１５１巷１０弄４號","OBJECTID":123531},"geometry":{"x":166996.06000000052,"y":2545174.2900000028}},{"attributes":{"ID":123532,"DIS_CODE":0,"TOWNNAME":"中西區","LI":"光賢里","LIN":"16鄰","STREET":"武聖路","SECT":" ","MAREA":" ","LANE":"１５１巷","ALLEY":"１０弄","HOUSE_NO":"５號","E_COORD97":166974.98000000001,"N_COORD97":2545145.3100000001,"ADDRESS":"武聖路１５１巷１０弄５號","OBJECTID":123532},"geometry":{"x":166974.98000000138,"y":2545145.3100000024}},{"attributes":{"ID":123533,"DIS_CODE":0,"TOWNNAME":"中西區","LI":"光賢里","LIN":"16鄰","STREET":"武聖路","SECT":" ","MAREA":" ","LANE":"１５１巷","ALLEY":"１０弄","HOUSE_NO":"６號","E_COORD97":166989.39999999999,"N_COORD97":2545172.5600000001,"ADDRESS":"武聖路１５１巷１０弄６號","OBJECTID":123533},"geometry":{"x":166989.4000000013,"y":2545172.5600000005}},{"attributes":{"ID":123534,"DIS_CODE":0,"TOWNNAME":"中西區","LI":"光賢里","LIN":"16鄰","STREET":"武聖路","SECT":" ","MAREA":" ","LANE":"１５１巷","ALLEY":"１０弄","HOUSE_NO":"７號","E_COORD97":166970.76000000001,"N_COORD97":2545149.5299999998,"ADDRESS":"武聖路１５１巷１０弄７號","OBJECTID":123534},"geometry":{"x":166970.76000000071,"y":2545149.5300000012}},{"attributes":{"ID":123535,"DIS_CODE":0,"TOWNNAME":"中西區","LI":"光賢里","LIN":"16鄰","STREET":"武聖路","SECT":" ","MAREA":" ","LANE":"１５１巷","ALLEY":"１０弄","HOUSE_NO":"８號","E_COORD97":166985.45000000001,"N_COORD97":2545175.77,"ADDRESS":"武聖路１５１巷１０弄８號","OBJECTID":123535},"geometry":{"x":166985.45000000112,"y":2545175.7700000014}},{"attributes":{"ID":123536,"DIS_CODE":0,"TOWNNAME":"永康區","LI":"崑山里","LIN":"31鄰","STREET":"國光二街","SECT":" ","MAREA":" ","LANE":" ","ALLEY":" ","HOUSE_NO":"８號","E_COORD97":174082.54000000001,"N_COORD97":2544667.21,"ADDRESS":"國光二街８號","OBJECTID":123536},"geometry":{"x":174082.54000000097,"y":2544667.2100000009}},{"attributes":{"ID":123537,"DIS_CODE":0,"TOWNNAME":"中西區","LI":"光賢里","LIN":"16鄰","STREET":"武聖路","SECT":" ","MAREA":" ","LANE":"１５１巷","ALLEY":"１０弄","HOUSE_NO":"８號之１","E_COORD97":166737.60000000001,"N_COORD97":2545240.9300000002,"ADDRESS":"武聖路１５１巷１０弄８號之１","OBJECTID":123537},"geometry":{"x":166737.60000000056,"y":2545240.9299999997}},{"attributes":{"ID":123538,"DIS_CODE":0,"TOWNNAME":"永康區","LI":"永康里","LIN":"31鄰","STREET":"埔聖街","SECT":" ","MAREA":" ","LANE":" ","ALLEY":" ","HOUSE_NO":"１６３號","E_COORD97":174278.19,"N_COORD97":2547651.9700000002,"ADDRESS":"埔聖街１６３號","OBJECTID":123538},"geometry":{"x":174278.19000000134,"y":2547651.9700000007}},{"attributes":{"ID":123539,"DIS_CODE":0,"TOWNNAME":"永康區","LI":"二王里","LIN":"12鄰","STREET":"永二街","SECT":" ","MAREA":" ","LANE":"４４７巷","ALLEY":"６８弄","HOUSE_NO":"７０號","E_COORD97":172787.67000000001,"N_COORD97":2546500.3300000001,"ADDRESS":"永二街４４７巷６８弄７０號","OBJECTID":123539},"geometry":{"x":172787.67000000086,"y":2546500.3300000038}},{"attributes":{"ID":123540,"DIS_CODE":0,"TOWNNAME":"永康區","LI":"龍潭里","LIN":"31鄰","STREET":"龍中街","SECT":" ","MAREA":" ","LANE":" ","ALLEY":" ","HOUSE_NO":"２２號","E_COORD97":174416.44,"N_COORD97":2547820.75,"ADDRESS":"龍中街２２號","OBJECTID":123540},"geometry":{"x":174416.44000000041,"y":2547820.7500000019}},{"attributes":{"ID":123541,"DIS_CODE":0,"TOWNNAME":"永康區","LI":"南灣里","LIN":"31鄰","STREET":"大安街","SECT":" ","MAREA":" ","LANE":" ","ALLEY":" ","HOUSE_NO":"１９號","E_COORD97":174419.01000000001,"N_COORD97":2544793.3500000001,"ADDRESS":"大安街１９號","OBJECTID":123541},"geometry":{"x":174419.00999999885,"y":2544793.3499999996}},{"attributes":{"ID":123542,"DIS_CODE":0,"TOWNNAME":"永康區","LI":"二王里","LIN":"37鄰","STREET":"中山南路","SECT":" ","MAREA":" ","LANE":"４９０巷","ALLEY":"１２弄","HOUSE_NO":"３９號","E_COORD97":172251.20999999999,"N_COORD97":2546312.4199999999,"ADDRESS":"中山南路４９０巷１２弄３９號","OBJECTID":123542},"geometry":{"x":172251.20999999996,"y":2546312.4199999999}},{"attributes":{"ID":123543,"DIS_CODE":0,"TOWNNAME":"中西區","LI":"光賢里","LIN":"16鄰","STREET":"武聖路","SECT":" ","MAREA":" ","LANE":"１５１巷","ALLEY":"１０弄","HOUSE_NO":"９號","E_COORD97":166967.31,"N_COORD97":2545151.4399999999,"ADDRESS":"武聖路１５１巷１０弄９號","OBJECTID":123543},"geometry":{"x":166967.31000000052,"y":2545151.4399999995}},{"attributes":{"ID":123544,"DIS_CODE":0,"TOWNNAME":"新市區","LI":"港墘里","LIN":"16鄰","STREET":"長安街","SECT":" ","MAREA":" ","LANE":"３６巷","ALLEY":"９弄","HOUSE_NO":"４號","E_COORD97":178267.76000000001,"N_COORD97":2552717.0699999998,"ADDRESS":"長安街３６巷９弄４號","OBJECTID":123544},"geometry":{"x":178267.76000000071,"y":2552717.070000004}},{"attributes":{"ID":123545,"DIS_CODE":0,"TOWNNAME":"新市區","LI":"新市里","LIN":"16鄰","STREET":"中正路","SECT":" ","MAREA":" ","LANE":"３２３巷","ALLEY":"２２弄","HOUSE_NO":"７號","E_COORD97":177699.20999999999,"N_COORD97":2553351,"ADDRESS":"中正路３２３巷２２弄７號","OBJECTID":123545},"geometry":{"x":177699.20999999996,"y":2553350.9999999981}},{"attributes":{"ID":123546,"DIS_CODE":0,"TOWNNAME":"永康區","LI":"五王里","LIN":"31鄰","STREET":"中華路","SECT":" ","MAREA":" ","LANE":" ","ALLEY":" ","HOUSE_NO":"５２８號","E_COORD97":171229.98000000001,"N_COORD97":2545889.4199999999,"ADDRESS":"中華路５２８號","OBJECTID":123546},"geometry":{"x":171229.98000000138,"y":2545889.4200000037}},{"attributes":{"ID":123547,"DIS_CODE":0,"TOWNNAME":"永康區","LI":"永康里","LIN":"31鄰","STREET":"龍中街","SECT":" ","MAREA":" ","LANE":" ","ALLEY":" ","HOUSE_NO":"８３號","E_COORD97":174362.82000000001,"N_COORD97":2547789.3399999999,"ADDRESS":"龍中街８３號","OBJECTID":123547},"geometry":{"x":174362.8200000003,"y":2547789.3400000017}},{"attributes":{"ID":123548,"DIS_CODE":0,"TOWNNAME":"永康區","LI":"龍潭里","LIN":"31鄰","STREET":"中山北路","SECT":" ","MAREA":" ","LANE":" ","ALLEY":" ","HOUSE_NO":"２１０號","E_COORD97":174395.23999999999,"N_COORD97":2547540.7000000002,"ADDRESS":"中山北路２１０號","OBJECTID":123548},"geometry":{"x":174395.24000000022,"y":2547540.6999999993}},{"attributes":{"ID":123549,"DIS_CODE":0,"TOWNNAME":"永康區","LI":"東灣里","LIN":"31鄰","STREET":"大灣一街","SECT":" ","MAREA":" ","LANE":" ","ALLEY":" ","HOUSE_NO":"１７９號","E_COORD97":174814.89000000001,"N_COORD97":2544612.0299999998,"ADDRESS":"大灣一街１７９號","OBJECTID":123549},"geometry":{"x":174814.89000000153,"y":2544612.0299999993}},{"attributes":{"ID":123550,"DIS_CODE":0,"TOWNNAME":"仁德區","LI":"仁義里","LIN":"31鄰","STREET":"正義二街","SECT":" ","MAREA":" ","LANE":" ","ALLEY":" ","HOUSE_NO":"７８號","E_COORD97":173594.51999999999,"N_COORD97":2541564.52,"ADDRESS":"正義二街７８號","OBJECTID":123550},"geometry":{"x":173594.51999999955,"y":2541564.5199999996}},{"attributes":{"ID":123551,"DIS_CODE":0,"TOWNNAME":"仁德區","LI":"一甲里","LIN":"20鄰","STREET":"太乙六街","SECT":" ","MAREA":" ","LANE":" ","ALLEY":" ","HOUSE_NO":"４０號","E_COORD97":173196.38,"N_COORD97":2542404.0099999998,"ADDRESS":"太乙六街４０號","OBJECTID":123551},"geometry":{"x":173196.38000000082,"y":2542404.0100000016}},{"attributes":{"ID":123552,"DIS_CODE":0,"TOWNNAME":"後壁區","LI":"嘉田里","LIN":"1鄰","STREET":" ","SECT":" ","MAREA":"上茄苳","LANE":" ","ALLEY":" ","HOUSE_NO":"２號之３","E_COORD97":187000.07999999999,"N_COORD97":2587551.7599999998,"ADDRESS":"上茄苳２號之３","OBJECTID":123552},"geometry":{"x":187000.08000000007,"y":2587551.7600000016}},{"attributes":{"ID":123553,"DIS_CODE":0,"TOWNNAME":"後壁區","LI":"嘉田里","LIN":"9鄰","STREET":" ","SECT":" ","MAREA":"上茄苳","LANE":" ","ALLEY":" ","HOUSE_NO":"８６號","E_COORD97":186621.95999999999,"N_COORD97":2587033.98,"ADDRESS":"上茄苳８６號","OBJECTID":123553},"geometry":{"x":186621.96000000089,"y":2587033.9800000004}},{"attributes":{"ID":123554,"DIS_CODE":0,"TOWNNAME":"後壁區","LI":"嘉田里","LIN":"7鄰","STREET":" ","SECT":" ","MAREA":"上茄苳","LANE":" ","ALLEY":" ","HOUSE_NO":"６４號","E_COORD97":186734.39999999999,"N_COORD97":2587122.2200000002,"ADDRESS":"上茄苳６４號","OBJECTID":123554},"geometry":{"x":186734.40000000224,"y":2587122.2200000044}},{"attributes":{"ID":123555,"DIS_CODE":0,"TOWNNAME":"後壁區","LI":"嘉田里","LIN":"7鄰","STREET":" ","SECT":" ","MAREA":"上茄苳","LANE":" ","ALLEY":" ","HOUSE_NO":"６５號","E_COORD97":186697.54000000001,"N_COORD97":2587110.8599999999,"ADDRESS":"上茄苳６５號","OBJECTID":123555},"geometry":{"x":186697.5400000019,"y":2587110.8600000013}},{"attributes":{"ID":123556,"DIS_CODE":0,"TOWNNAME":"後壁區","LI":"嘉田里","LIN":"7鄰","STREET":" ","SECT":" ","MAREA":"上茄苳","LANE":" ","ALLEY":" ","HOUSE_NO":"６７號","E_COORD97":186682.14999999999,"N_COORD97":2587105.8700000001,"ADDRESS":"上茄苳６７號","OBJECTID":123556},"geometry":{"x":186682.1500000013,"y":2587105.8700000029}},{"attributes":{"ID":123557,"DIS_CODE":0,"TOWNNAME":"後壁區","LI":"嘉田里","LIN":"7鄰","STREET":" ","SECT":" ","MAREA":"上茄苳","LANE":" ","ALLEY":" ","HOUSE_NO":"６９號","E_COORD97":186691.20999999999,"N_COORD97":2587084,"ADDRESS":"上茄苳６９號","OBJECTID":123557},"geometry":{"x":186691.21000000183,"y":2587084}},{"attributes":{"ID":123558,"DIS_CODE":0,"TOWNNAME":"後壁區","LI":"嘉田里","LIN":"1鄰","STREET":" ","SECT":" ","MAREA":"上茄苳","LANE":" ","ALLEY":" ","HOUSE_NO":"４號之１０","E_COORD97":187012.51999999999,"N_COORD97":2587882.71,"ADDRESS":"上茄苳４號之１０","OBJECTID":123558},"geometry":{"x":187012.52000000048,"y":2587882.7100000028}},{"attributes":{"ID":123559,"DIS_CODE":0,"TOWNNAME":"後壁區","LI":"嘉田里","LIN":"1鄰","STREET":" ","SECT":" ","MAREA":"上茄苳","LANE":" ","ALLEY":" ","HOUSE_NO":"４號之３","E_COORD97":186880.44,"N_COORD97":2587540.27,"ADDRESS":"上茄苳４號之３","OBJECTID":123559},"geometry":{"x":186880.44000000134,"y":2587540.2699999996}},{"attributes":{"ID":123560,"DIS_CODE":0,"TOWNNAME":"後壁區","LI":"嘉田里","LIN":"1鄰","STREET":" ","SECT":" ","MAREA":"上茄苳","LANE":" ","ALLEY":" ","HOUSE_NO":"４號","E_COORD97":186858.48000000001,"N_COORD97":2587529.5299999998,"ADDRESS":"上茄苳４號","OBJECTID":123560},"geometry":{"x":186858.48000000045,"y":2587529.5300000012}},{"attributes":{"ID":123561,"DIS_CODE":0,"TOWNNAME":"永康區","LI":"二王里","LIN":"38鄰","STREET":"中山南路","SECT":" ","MAREA":" ","LANE":"４９０巷","ALLEY":"１２弄","HOUSE_NO":"４７號","E_COORD97":172199.78,"N_COORD97":2546279.5800000001,"ADDRESS":"中山南路４９０巷１２弄４７號","OBJECTID":123561},"geometry":{"x":172199.78000000026,"y":2546279.5800000019}},{"attributes":{"ID":123562,"DIS_CODE":0,"TOWNNAME":"後壁區","LI":"嘉田里","LIN":"1鄰","STREET":" ","SECT":" ","MAREA":"上茄苳","LANE":" ","ALLEY":" ","HOUSE_NO":"５號之１０","E_COORD97":186771.82999999999,"N_COORD97":2587432.0800000001,"ADDRESS":"上茄苳５號之１０","OBJECTID":123562},"geometry":{"x":186771.83000000194,"y":2587432.0800000019}},{"attributes":{"ID":123563,"DIS_CODE":0,"TOWNNAME":"後壁區","LI":"土溝里","LIN":"4鄰","STREET":" ","SECT":" ","MAREA":"土溝","LANE":" ","ALLEY":" ","HOUSE_NO":"２９號之１","E_COORD97":187019.35000000001,"N_COORD97":2585743.9900000002,"ADDRESS":"土溝２９號之１","OBJECTID":123563},"geometry":{"x":187019.35000000056,"y":2585743.9900000021}},{"attributes":{"ID":123564,"DIS_CODE":0,"TOWNNAME":"永康區","LI":"二王里","LIN":"12鄰","STREET":"永二街","SECT":" ","MAREA":" ","LANE":"４４７巷","ALLEY":"６８弄","HOUSE_NO":"１３６號","E_COORD97":172816.66,"N_COORD97":2546469.8399999999,"ADDRESS":"永二街４４７巷６８弄１３６號","OBJECTID":123564},"geometry":{"x":172816.66000000108,"y":2546469.8400000036}},{"attributes":{"ID":123565,"DIS_CODE":0,"TOWNNAME":"永康區","LI":"二王里","LIN":"28鄰","STREET":"中山南路","SECT":" ","MAREA":" ","LANE":"５４４巷","ALLEY":"６０弄","HOUSE_NO":"８號","E_COORD97":172300.37,"N_COORD97":2546359.3599999999,"ADDRESS":"中山南路５４４巷６０弄８號","OBJECTID":123565},"geometry":{"x":172300.37000000104,"y":2546359.3599999994}},{"attributes":{"ID":123566,"DIS_CODE":0,"TOWNNAME":"永康區","LI":"大灣里","LIN":"27鄰","STREET":"大灣六街","SECT":" ","MAREA":" ","LANE":"８０巷","ALLEY":"３０弄","HOUSE_NO":"６號","E_COORD97":175229.09,"N_COORD97":2545281.6800000002,"ADDRESS":"大灣六街８０巷３０弄６號","OBJECTID":123566},"geometry":{"x":175229.09000000078,"y":2545281.6800000016}},{"attributes":{"ID":123567,"DIS_CODE":0,"TOWNNAME":"後壁區","LI":"土溝里","LIN":"4鄰","STREET":" ","SECT":" ","MAREA":"土溝","LANE":" ","ALLEY":" ","HOUSE_NO":"２９號","E_COORD97":186991.54000000001,"N_COORD97":2585743.3500000001,"ADDRESS":"土溝２９號","OBJECTID":123567},"geometry":{"x":186991.54000000004,"y":2585743.3500000034}},{"attributes":{"ID":123568,"DIS_CODE":0,"TOWNNAME":"後壁區","LI":"土溝里","LIN":"4鄰","STREET":" ","SECT":" ","MAREA":"土溝","LANE":" ","ALLEY":" ","HOUSE_NO":"３３號之１","E_COORD97":187160.42000000001,"N_COORD97":2585724.5800000001,"ADDRESS":"土溝３３號之１","OBJECTID":123568},"geometry":{"x":187160.41999999993,"y":2585724.5800000001}},{"attributes":{"ID":123569,"DIS_CODE":0,"TOWNNAME":"後壁區","LI":"土溝里","LIN":"4鄰","STREET":" ","SECT":" ","MAREA":"土溝","LANE":" ","ALLEY":" ","HOUSE_NO":"３３號之３","E_COORD97":187171.70999999999,"N_COORD97":2585724.3999999999,"ADDRESS":"土溝３３號之３","OBJECTID":123569},"geometry":{"x":187171.70999999996,"y":2585724.4000000022}},{"attributes":{"ID":123570,"DIS_CODE":0,"TOWNNAME":"後壁區","LI":"土溝里","LIN":"4鄰","STREET":" ","SECT":" ","MAREA":"土溝","LANE":" ","ALLEY":" ","HOUSE_NO":"３３號","E_COORD97":187144.82000000001,"N_COORD97":2585723.25,"ADDRESS":"土溝３３號","OBJECTID":123570},"geometry":{"x":187144.8200000003,"y":2585723.25}},{"attributes":{"ID":123571,"DIS_CODE":0,"TOWNNAME":"永康區","LI":"中興里","LIN":"20鄰","STREET":"中華路","SECT":" ","MAREA":" ","LANE":"２１６巷","ALLEY":"３５弄","HOUSE_NO":"２３號","E_COORD97":171892.39999999999,"N_COORD97":2545212.25,"ADDRESS":"中華路２１６巷３５弄２３號","OBJECTID":123571},"geometry":{"x":171892.40000000037,"y":2545212.25}},{"attributes":{"ID":123572,"DIS_CODE":0,"TOWNNAME":"永康區","LI":"三合里","LIN":"20鄰","STREET":"南工街","SECT":" ","MAREA":" ","LANE":"２６７巷","ALLEY":"１０弄","HOUSE_NO":"５號","E_COORD97":171856.98999999999,"N_COORD97":2545937.25,"ADDRESS":"南工街２６７巷１０弄５號","OBJECTID":123572},"geometry":{"x":171856.99000000115,"y":2545937.25}},{"attributes":{"ID":123573,"DIS_CODE":0,"TOWNNAME":"永康區","LI":"大灣里","LIN":"30鄰","STREET":"民族路","SECT":" ","MAREA":" ","LANE":"１２６巷","ALLEY":"８０弄","HOUSE_NO":"９號","E_COORD97":175437.97,"N_COORD97":2544925.46,"ADDRESS":"民族路１２６巷８０弄９號","OBJECTID":123573},"geometry":{"x":175437.96999999974,"y":2544925.4600000028}},{"attributes":{"ID":123574,"DIS_CODE":0,"TOWNNAME":"永康區","LI":"大灣里","LIN":"21鄰","STREET":"大灣路","SECT":" ","MAREA":" ","LANE":"３５６巷","ALLEY":"２３弄","HOUSE_NO":"１號","E_COORD97":174742.70000000001,"N_COORD97":2545138.7799999998,"ADDRESS":"大灣路３５６巷２３弄１號","OBJECTID":123574},"geometry":{"x":174742.70000000112,"y":2545138.7799999993}},{"attributes":{"ID":123575,"DIS_CODE":0,"TOWNNAME":"新市區","LI":"港墘里","LIN":"16鄰","STREET":"長安街","SECT":" ","MAREA":" ","LANE":"３６巷","ALLEY":"９弄","HOUSE_NO":"１８號","E_COORD97":178235.95999999999,"N_COORD97":2552712.8199999998,"ADDRESS":"長安街３６巷９弄１８號","OBJECTID":123575},"geometry":{"x":178235.96000000089,"y":2552712.8200000022}},{"attributes":{"ID":123576,"DIS_CODE":0,"TOWNNAME":"永康區","LI":"三合里","LIN":"9鄰","STREET":"南工街","SECT":" ","MAREA":" ","LANE":"２４７巷","ALLEY":"３５弄","HOUSE_NO":"５９號","E_COORD97":171997.35000000001,"N_COORD97":2545773.4900000002,"ADDRESS":"南工街２４７巷３５弄５９號","OBJECTID":123576},"geometry":{"x":171997.34999999963,"y":2545773.4900000002}},{"attributes":{"ID":123577,"DIS_CODE":0,"TOWNNAME":"永康區","LI":"大橋里","LIN":"9鄰","STREET":"大橋三街","SECT":" ","MAREA":" ","LANE":"２６１巷","ALLEY":"１６弄","HOUSE_NO":"１號","E_COORD97":171046.26000000001,"N_COORD97":2546951.1600000001,"ADDRESS":"大橋三街２６１巷１６弄１號","OBJECTID":123577},"geometry":{"x":171046.26000000071,"y":2546951.1600000001}},{"attributes":{"ID":123578,"DIS_CODE":0,"TOWNNAME":"永康區","LI":"二王里","LIN":"37鄰","STREET":"中山南路","SECT":" ","MAREA":" ","LANE":"４９０巷","ALLEY":"１２弄","HOUSE_NO":"１７號","E_COORD97":172224.73999999999,"N_COORD97":2546320.52,"ADDRESS":"中山南路４９０巷１２弄１７號","OBJECTID":123578},"geometry":{"x":172224.74000000115,"y":2546320.5200000014}},{"attributes":{"ID":123579,"DIS_CODE":0,"TOWNNAME":"東區","LI":"德高里","LIN":"16鄰","STREET":"崇善路","SECT":" ","MAREA":" ","LANE":"１０８９巷","ALLEY":"１６弄","HOUSE_NO":"２號","E_COORD97":171578.91,"N_COORD97":2540531.75,"ADDRESS":"崇善路１０８９巷１６弄２號","OBJECTID":123579},"geometry":{"x":171578.90999999922,"y":2540531.7500000019}},{"attributes":{"ID":123580,"DIS_CODE":0,"TOWNNAME":"東區","LI":"德高里","LIN":"16鄰","STREET":"崇善路","SECT":" ","MAREA":" ","LANE":"１０８９巷","ALLEY":"１６弄","HOUSE_NO":"４號","E_COORD97":171581.63,"N_COORD97":2540529.1699999999,"ADDRESS":"崇善路１０８９巷１６弄４號","OBJECTID":123580},"geometry":{"x":171581.62999999989,"y":2540529.1700000018}},{"attributes":{"ID":123581,"DIS_CODE":0,"TOWNNAME":"東區","LI":"德高里","LIN":"16鄰","STREET":"崇善路","SECT":" ","MAREA":" ","LANE":"１０８９巷","ALLEY":"１６弄","HOUSE_NO":"６號","E_COORD97":171584.64000000001,"N_COORD97":2540525.8900000001,"ADDRESS":"崇善路１０８９巷１６弄６號","OBJECTID":123581},"geometry":{"x":171584.63999999966,"y":2540525.8900000006}},{"attributes":{"ID":123582,"DIS_CODE":0,"TOWNNAME":"東區","LI":"德高里","LIN":"16鄰","STREET":"崇善路","SECT":" ","MAREA":" ","LANE":"１０８９巷","ALLEY":"１６弄","HOUSE_NO":"８號","E_COORD97":171587.35000000001,"N_COORD97":2540522.8799999999,"ADDRESS":"崇善路１０８９巷１６弄８號","OBJECTID":123582},"geometry":{"x":171587.35000000149,"y":2540522.8800000008}},{"attributes":{"ID":123583,"DIS_CODE":0,"TOWNNAME":"東區","LI":"德高里","LIN":"16鄰","STREET":"崇善路","SECT":" ","MAREA":" ","LANE":"１０８９巷","ALLEY":"２３弄","HOUSE_NO":"１１號","E_COORD97":171566.13,"N_COORD97":2540604.04,"ADDRESS":"崇善路１０８９巷２３弄１１號","OBJECTID":123583},"geometry":{"x":171566.13000000082,"y":2540604.0399999991}},{"attributes":{"ID":123584,"DIS_CODE":0,"TOWNNAME":"東區","LI":"德高里","LIN":"16鄰","STREET":"崇善路","SECT":" ","MAREA":" ","LANE":"１０８９巷","ALLEY":"２３弄","HOUSE_NO":"１３號","E_COORD97":171564.98000000001,"N_COORD97":2540607.7599999998,"ADDRESS":"崇善路１０８９巷２３弄１３號","OBJECTID":123584},"geometry":{"x":171564.98000000045,"y":2540607.7599999998}},{"attributes":{"ID":123585,"DIS_CODE":0,"TOWNNAME":"東區","LI":"德高里","LIN":"16鄰","STREET":"崇善路","SECT":" ","MAREA":" ","LANE":"１０８９巷","ALLEY":"２３弄","HOUSE_NO":"１５號","E_COORD97":171562.69,"N_COORD97":2540612.6200000001,"ADDRESS":"崇善路１０８９巷２３弄１５號","OBJECTID":123585},"geometry":{"x":171562.69000000134,"y":2540612.620000001}},{"attributes":{"ID":123586,"DIS_CODE":0,"TOWNNAME":"永康區","LI":"埔園里","LIN":"31鄰","STREET":"八德街","SECT":" ","MAREA":" ","LANE":"１９６巷","ALLEY":" ","HOUSE_NO":"１５號","E_COORD97":173887.07000000001,"N_COORD97":2548648.5099999998,"ADDRESS":"八德街１９６巷１５號","OBJECTID":123586},"geometry":{"x":173887.07000000216,"y":2548648.5100000035}},{"attributes":{"ID":123587,"DIS_CODE":0,"TOWNNAME":"中西區","LI":"天后里","LIN":"24鄰","STREET":"郡緯街","SECT":" ","MAREA":" ","LANE":" ","ALLEY":" ","HOUSE_NO":"６號六樓之７","E_COORD97":168205.07999999999,"N_COORD97":2544297.52,"ADDRESS":"郡緯街６號六樓之７","OBJECTID":123587},"geometry":{"x":168205.08000000101,"y":2544297.5199999996}},{"attributes":{"ID":123588,"DIS_CODE":0,"TOWNNAME":"中西區","LI":"天后里","LIN":"24鄰","STREET":"郡緯街","SECT":" ","MAREA":" ","LANE":" ","ALLEY":" ","HOUSE_NO":"６號四樓之１","E_COORD97":168205.07999999999,"N_COORD97":2544297.52,"ADDRESS":"郡緯街６號四樓之１","OBJECTID":123588},"geometry":{"x":168205.08000000101,"y":2544297.5199999996}},{"attributes":{"ID":123589,"DIS_CODE":0,"TOWNNAME":"中西區","LI":"天后里","LIN":"24鄰","STREET":"郡緯街","SECT":" ","MAREA":" ","LANE":" ","ALLEY":" ","HOUSE_NO":"６號四樓之２","E_COORD97":168205.07999999999,"N_COORD97":2544297.52,"ADDRESS":"郡緯街６號四樓之２","OBJECTID":123589},"geometry":{"x":168205.08000000101,"y":2544297.5199999996}},{"attributes":{"ID":123590,"DIS_CODE":0,"TOWNNAME":"中西區","LI":"天后里","LIN":"24鄰","STREET":"郡緯街","SECT":" ","MAREA":" ","LANE":" ","ALLEY":" ","HOUSE_NO":"６號四樓之３","E_COORD97":168205.07999999999,"N_COORD97":2544297.52,"ADDRESS":"郡緯街６號四樓之３","OBJECTID":123590},"geometry":{"x":168205.08000000101,"y":2544297.5199999996}},{"attributes":{"ID":123591,"DIS_CODE":0,"TOWNNAME":"中西區","LI":"天后里","LIN":"24鄰","STREET":"郡緯街","SECT":" ","MAREA":" ","LANE":" ","ALLEY":" ","HOUSE_NO":"６號四樓之４","E_COORD97":168205.07999999999,"N_COORD97":2544297.52,"ADDRESS":"郡緯街６號四樓之４","OBJECTID":123591},"geometry":{"x":168205.08000000101,"y":2544297.5199999996}},{"attributes":{"ID":123592,"DIS_CODE":0,"TOWNNAME":"中西區","LI":"天后里","LIN":"24鄰","STREET":"郡緯街","SECT":" ","MAREA":" ","LANE":" ","ALLEY":" ","HOUSE_NO":"６號四樓之５","E_COORD97":168205.07999999999,"N_COORD97":2544297.52,"ADDRESS":"郡緯街６號四樓之５","OBJECTID":123592},"geometry":{"x":168205.08000000101,"y":2544297.5199999996}},{"attributes":{"ID":123593,"DIS_CODE":0,"TOWNNAME":"東區","LI":"德高里","LIN":"16鄰","STREET":"崇善路","SECT":" ","MAREA":" ","LANE":"１０８９巷","ALLEY":"２３弄","HOUSE_NO":"１７號","E_COORD97":171559.39999999999,"N_COORD97":2540616.6200000001,"ADDRESS":"崇善路１０８９巷２３弄１７號","OBJECTID":123593},"geometry":{"x":171559.4000000013,"y":2540616.620000001}},{"attributes":{"ID":123594,"DIS_CODE":0,"TOWNNAME":"新市區","LI":"大社里","LIN":"31鄰","STREET":" ","SECT":" ","MAREA":"大社","LANE":" ","ALLEY":" ","HOUSE_NO":"７８之２３號","E_COORD97":180774.20999999999,"N_COORD97":2554188.5499999998,"ADDRESS":"大社７８之２３號","OBJECTID":123594},"geometry":{"x":180774.20999999996,"y":2554188.5500000007}},{"attributes":{"ID":123595,"DIS_CODE":0,"TOWNNAME":"新市區","LI":"大社里","LIN":"31鄰","STREET":" ","SECT":" ","MAREA":"大社","LANE":" ","ALLEY":" ","HOUSE_NO":"７８之２７號","E_COORD97":180782.82000000001,"N_COORD97":2554189.7999999998,"ADDRESS":"大社７８之２７號","OBJECTID":123595},"geometry":{"x":180782.8200000003,"y":2554189.8000000007}},{"attributes":{"ID":123596,"DIS_CODE":0,"TOWNNAME":"東區","LI":"德高里","LIN":"16鄰","STREET":"崇善路","SECT":" ","MAREA":" ","LANE":"１０８９巷","ALLEY":"２３弄","HOUSE_NO":"１號","E_COORD97":171572.98999999999,"N_COORD97":2540582.71,"ADDRESS":"崇善路１０８９巷２３弄１號","OBJECTID":123596},"geometry":{"x":171572.99000000022,"y":2540582.7100000046}},{"attributes":{"ID":123597,"DIS_CODE":0,"TOWNNAME":"東區","LI":"德高里","LIN":"16鄰","STREET":"崇善路","SECT":" ","MAREA":" ","LANE":"１０８９巷","ALLEY":"２３弄","HOUSE_NO":"３號","E_COORD97":171572.70999999999,"N_COORD97":2540587.29,"ADDRESS":"崇善路１０８９巷２３弄３號","OBJECTID":123597},"geometry":{"x":171572.70999999996,"y":2540587.290000001}},{"attributes":{"ID":123598,"DIS_CODE":0,"TOWNNAME":"東區","LI":"德高里","LIN":"16鄰","STREET":"崇善路","SECT":" ","MAREA":" ","LANE":"１０８９巷","ALLEY":"２３弄","HOUSE_NO":"５號","E_COORD97":171570.85000000001,"N_COORD97":2540591.7200000002,"ADDRESS":"崇善路１０８９巷２３弄５號","OBJECTID":123598},"geometry":{"x":171570.85000000056,"y":2540591.7200000007}},{"attributes":{"ID":123599,"DIS_CODE":0,"TOWNNAME":"東區","LI":"德高里","LIN":"16鄰","STREET":"崇善路","SECT":" ","MAREA":" ","LANE":"１０８９巷","ALLEY":"２３弄","HOUSE_NO":"７號","E_COORD97":171569.56,"N_COORD97":2540595.4300000002,"ADDRESS":"崇善路１０８９巷２３弄７號","OBJECTID":123599},"geometry":{"x":171569.56000000052,"y":2540595.4299999997}},{"attributes":{"ID":123600,"DIS_CODE":0,"TOWNNAME":"東區","LI":"德高里","LIN":"16鄰","STREET":"崇善路","SECT":" ","MAREA":" ","LANE":"１０８９巷","ALLEY":"２３弄","HOUSE_NO":"９號","E_COORD97":171567.98999999999,"N_COORD97":2540599.29,"ADDRESS":"崇善路１０８９巷２３弄９號","OBJECTID":123600},"geometry":{"x":171567.99000000022,"y":2540599.2899999991}}]}