{"displayFieldName":"TOWNNAME","fieldAliases":{"ID":"ID","DIS_CODE":"DIS_CODE","TOWNNAME":"TOWNNAME","LI":"LI","LIN":"LIN","STREET":"STREET","SECT":"SECT","MAREA":"MAREA","LANE":"LANE","ALLEY":"ALLEY","HOUSE_NO":"HOUSE_NO","E_COORD97":"E_COORD97","N_COORD97":"N_COORD97","ADDRESS":"ADDRESS","OBJECTID":"OBJECTID"},"geometryType":"esriGeometryPoint","spatialReference":{"wkid":102443,"latestWkid":3826},"fields":[{"name":"ID","type":"esriFieldTypeDouble","alias":"ID"},{"name":"DIS_CODE","type":"esriFieldTypeInteger","alias":"DIS_CODE"},{"name":"TOWNNAME","type":"esriFieldTypeString","alias":"TOWNNAME","length":8},{"name":"LI","type":"esriFieldTypeString","alias":"LI","length":8},{"name":"LIN","type":"esriFieldTypeString","alias":"LIN","length":12},{"name":"STREET","type":"esriFieldTypeString","alias":"STREET","length":20},{"name":"SECT","type":"esriFieldTypeString","alias":"SECT","length":8},{"name":"MAREA","type":"esriFieldTypeString","alias":"MAREA","length":12},{"name":"LANE","type":"esriFieldTypeString","alias":"LANE","length":10},{"name":"ALLEY","type":"esriFieldTypeString","alias":"ALLEY","length":10},{"name":"HOUSE_NO","type":"esriFieldTypeString","alias":"HOUSE_NO","length":20},{"name":"E_COORD97","type":"esriFieldTypeDouble","alias":"E_COORD97"},{"name":"N_COORD97","type":"esriFieldTypeDouble","alias":"N_COORD97"},{"name":"ADDRESS","type":"esriFieldTypeString","alias":"ADDRESS","length":50},{"name":"OBJECTID","type":"esriFieldTypeOID","alias":"OBJECTID"}],"features":[{"attributes":{"ID":641428,"DIS_CODE":0,"TOWNNAME":"麻豆區","LI":"東角里","LIN":"6鄰","STREET":"忠孝路","SECT":" ","MAREA":" ","LANE":" ","ALLEY":" ","HOUSE_NO":"３９號之１１","E_COORD97":173791.51000000001,"N_COORD97":2564902.0600000001,"ADDRESS":"忠孝路３９號之１１","OBJECTID":641401},"geometry":{"x":173791.50999999978,"y":2564902.0600000005}},{"attributes":{"ID":641429,"DIS_CODE":0,"TOWNNAME":"麻豆區","LI":"東角里","LIN":"6鄰","STREET":"忠孝路","SECT":" ","MAREA":" ","LANE":" ","ALLEY":" ","HOUSE_NO":"３９號之１２","E_COORD97":173789.13,"N_COORD97":2564905.9100000001,"ADDRESS":"忠孝路３９號之１２","OBJECTID":641402},"geometry":{"x":173789.12999999989,"y":2564905.9100000001}},{"attributes":{"ID":641430,"DIS_CODE":0,"TOWNNAME":"麻豆區","LI":"東角里","LIN":"6鄰","STREET":"忠孝路","SECT":" ","MAREA":" ","LANE":" ","ALLEY":" ","HOUSE_NO":"３９號之１３","E_COORD97":173807.07999999999,"N_COORD97":2564916.8500000001,"ADDRESS":"忠孝路３９號之１３","OBJECTID":641403},"geometry":{"x":173807.08000000194,"y":2564916.8500000015}},{"attributes":{"ID":641431,"DIS_CODE":0,"TOWNNAME":"麻豆區","LI":"東角里","LIN":"6鄰","STREET":"忠孝路","SECT":" ","MAREA":" ","LANE":" ","ALLEY":" ","HOUSE_NO":"３９號之１４","E_COORD97":173813.44,"N_COORD97":2564920.6299999999,"ADDRESS":"忠孝路３９號之１４","OBJECTID":641404},"geometry":{"x":173813.44000000227,"y":2564920.6300000027}},{"attributes":{"ID":641432,"DIS_CODE":0,"TOWNNAME":"麻豆區","LI":"東角里","LIN":"6鄰","STREET":"忠孝路","SECT":" ","MAREA":" ","LANE":" ","ALLEY":" ","HOUSE_NO":"３９號之１５","E_COORD97":173821.41,"N_COORD97":2564921.6800000002,"ADDRESS":"忠孝路３９號之１５","OBJECTID":641405},"geometry":{"x":173821.41000000015,"y":2564921.6800000016}},{"attributes":{"ID":641433,"DIS_CODE":0,"TOWNNAME":"麻豆區","LI":"東角里","LIN":"6鄰","STREET":"忠孝路","SECT":" ","MAREA":" ","LANE":" ","ALLEY":" ","HOUSE_NO":"３９號之１６","E_COORD97":173812.39000000001,"N_COORD97":2564939.5699999998,"ADDRESS":"忠孝路３９號之１６","OBJECTID":641406},"geometry":{"x":173812.38999999966,"y":2564939.570000004}},{"attributes":{"ID":641434,"DIS_CODE":0,"TOWNNAME":"麻豆區","LI":"東角里","LIN":"6鄰","STREET":"忠孝路","SECT":" ","MAREA":" ","LANE":" ","ALLEY":" ","HOUSE_NO":"３９號之１７","E_COORD97":173805.07999999999,"N_COORD97":2564936.54,"ADDRESS":"忠孝路３９號之１７","OBJECTID":641407},"geometry":{"x":173805.08000000007,"y":2564936.540000001}},{"attributes":{"ID":641435,"DIS_CODE":0,"TOWNNAME":"麻豆區","LI":"東角里","LIN":"6鄰","STREET":"忠孝路","SECT":" ","MAREA":" ","LANE":" ","ALLEY":" ","HOUSE_NO":"３９號之１８","E_COORD97":173799.17000000001,"N_COORD97":2564933.1800000002,"ADDRESS":"忠孝路３９號之１８","OBJECTID":641408},"geometry":{"x":173799.16999999993,"y":2564933.1799999997}},{"attributes":{"ID":641436,"DIS_CODE":0,"TOWNNAME":"麻豆區","LI":"東角里","LIN":"6鄰","STREET":"忠孝路","SECT":" ","MAREA":" ","LANE":" ","ALLEY":" ","HOUSE_NO":"３９號之１９","E_COORD97":173784.97,"N_COORD97":2564915.5699999998,"ADDRESS":"忠孝路３９號之１９","OBJECTID":641409},"geometry":{"x":173784.96999999974,"y":2564915.570000004}},{"attributes":{"ID":641437,"DIS_CODE":0,"TOWNNAME":"麻豆區","LI":"東角里","LIN":"6鄰","STREET":"忠孝路","SECT":" ","MAREA":" ","LANE":" ","ALLEY":" ","HOUSE_NO":"３９號之１","E_COORD97":173824.92999999999,"N_COORD97":2564896.4700000002,"ADDRESS":"忠孝路３９號之１","OBJECTID":641410},"geometry":{"x":173824.93000000063,"y":2564896.4700000044}},{"attributes":{"ID":641438,"DIS_CODE":0,"TOWNNAME":"麻豆區","LI":"東角里","LIN":"6鄰","STREET":"忠孝路","SECT":" ","MAREA":" ","LANE":" ","ALLEY":" ","HOUSE_NO":"３９號之２０","E_COORD97":173782.22,"N_COORD97":2564919.6099999999,"ADDRESS":"忠孝路３９號之２０","OBJECTID":641411},"geometry":{"x":173782.22000000067,"y":2564919.6099999994}},{"attributes":{"ID":641439,"DIS_CODE":0,"TOWNNAME":"麻豆區","LI":"東角里","LIN":"6鄰","STREET":"忠孝路","SECT":" ","MAREA":" ","LANE":" ","ALLEY":" ","HOUSE_NO":"３９號之２１","E_COORD97":173780.32000000001,"N_COORD97":2564923.8300000001,"ADDRESS":"忠孝路３９號之２１","OBJECTID":641412},"geometry":{"x":173780.32000000123,"y":2564923.8300000038}},{"attributes":{"ID":641440,"DIS_CODE":0,"TOWNNAME":"南區","LI":"金華里","LIN":"25鄰","STREET":"惠南街","SECT":" ","MAREA":" ","LANE":" ","ALLEY":" ","HOUSE_NO":"１１１號","E_COORD97":166723.79999999999,"N_COORD97":2542358.8399999999,"ADDRESS":"惠南街１１１號","OBJECTID":641413},"geometry":{"x":166723.79999999981,"y":2542358.8399999999}},{"attributes":{"ID":641441,"DIS_CODE":0,"TOWNNAME":"南區","LI":"金華里","LIN":"25鄰","STREET":"惠南街","SECT":" ","MAREA":" ","LANE":" ","ALLEY":" ","HOUSE_NO":"１１３號","E_COORD97":166721.62,"N_COORD97":2542363.9900000002,"ADDRESS":"惠南街１１３號","OBJECTID":641414},"geometry":{"x":166721.62000000104,"y":2542363.9900000021}},{"attributes":{"ID":641442,"DIS_CODE":0,"TOWNNAME":"南區","LI":"金華里","LIN":"25鄰","STREET":"惠南街","SECT":" ","MAREA":" ","LANE":" ","ALLEY":" ","HOUSE_NO":"１１５號","E_COORD97":166720.26000000001,"N_COORD97":2542368.8799999999,"ADDRESS":"惠南街１１５號","OBJECTID":641415},"geometry":{"x":166720.26000000071,"y":2542368.879999999}},{"attributes":{"ID":641443,"DIS_CODE":0,"TOWNNAME":"南區","LI":"金華里","LIN":"25鄰","STREET":"惠南街","SECT":" ","MAREA":" ","LANE":" ","ALLEY":" ","HOUSE_NO":"１１７號","E_COORD97":166719.17999999999,"N_COORD97":2542373.2200000002,"ADDRESS":"惠南街１１７號","OBJECTID":641416},"geometry":{"x":166719.1799999997,"y":2542373.2200000025}},{"attributes":{"ID":641444,"DIS_CODE":0,"TOWNNAME":"南區","LI":"金華里","LIN":"25鄰","STREET":"惠南街","SECT":" ","MAREA":" ","LANE":" ","ALLEY":" ","HOUSE_NO":"１１９號","E_COORD97":166718.35999999999,"N_COORD97":2542376.75,"ADDRESS":"惠南街１１９號","OBJECTID":641417},"geometry":{"x":166718.36000000127,"y":2542376.75}},{"attributes":{"ID":641445,"DIS_CODE":0,"TOWNNAME":"南區","LI":"金華里","LIN":"25鄰","STREET":"惠南街","SECT":" ","MAREA":" ","LANE":" ","ALLEY":" ","HOUSE_NO":"１２１號","E_COORD97":166717.54999999999,"N_COORD97":2542382.1699999999,"ADDRESS":"惠南街１２１號","OBJECTID":641418},"geometry":{"x":166717.55000000168,"y":2542382.1700000037}},{"attributes":{"ID":641446,"DIS_CODE":0,"TOWNNAME":"南區","LI":"金華里","LIN":"25鄰","STREET":"惠南街","SECT":" ","MAREA":" ","LANE":" ","ALLEY":" ","HOUSE_NO":"１２３號","E_COORD97":166715.92000000001,"N_COORD97":2542386.52,"ADDRESS":"惠南街１２３號","OBJECTID":641419},"geometry":{"x":166715.92000000086,"y":2542386.5200000014}},{"attributes":{"ID":641447,"DIS_CODE":0,"TOWNNAME":"南區","LI":"金華里","LIN":"22鄰","STREET":"賢南街","SECT":" ","MAREA":" ","LANE":" ","ALLEY":" ","HOUSE_NO":"５２號","E_COORD97":166802.51999999999,"N_COORD97":2542454.6099999999,"ADDRESS":"賢南街５２號","OBJECTID":641420},"geometry":{"x":166802.52000000048,"y":2542454.6100000013}},{"attributes":{"ID":641448,"DIS_CODE":0,"TOWNNAME":"南區","LI":"金華里","LIN":"22鄰","STREET":"賢南街","SECT":" ","MAREA":" ","LANE":" ","ALLEY":" ","HOUSE_NO":"５２號之１","E_COORD97":166803.72,"N_COORD97":2542450.1400000001,"ADDRESS":"賢南街５２號之１","OBJECTID":641421},"geometry":{"x":166803.71999999974,"y":2542450.1400000006}},{"attributes":{"ID":641449,"DIS_CODE":0,"TOWNNAME":"南區","LI":"金華里","LIN":"22鄰","STREET":"賢南街","SECT":" ","MAREA":" ","LANE":" ","ALLEY":" ","HOUSE_NO":"５６號","E_COORD97":166805.35999999999,"N_COORD97":2542445.52,"ADDRESS":"賢南街５６號","OBJECTID":641422},"geometry":{"x":166805.36000000034,"y":2542445.5199999996}},{"attributes":{"ID":641450,"DIS_CODE":0,"TOWNNAME":"南區","LI":"金華里","LIN":"22鄰","STREET":"賢南街","SECT":" ","MAREA":" ","LANE":" ","ALLEY":" ","HOUSE_NO":"５８號","E_COORD97":166816.60999999999,"N_COORD97":2542429.5800000001,"ADDRESS":"賢南街５８號","OBJECTID":641423},"geometry":{"x":166816.61000000127,"y":2542429.5800000001}},{"attributes":{"ID":641451,"DIS_CODE":0,"TOWNNAME":"南區","LI":"金華里","LIN":"22鄰","STREET":"賢南街","SECT":" ","MAREA":" ","LANE":" ","ALLEY":" ","HOUSE_NO":"６０號","E_COORD97":166811.44,"N_COORD97":2542429.7799999998,"ADDRESS":"賢南街６０號","OBJECTID":641424},"geometry":{"x":166811.44000000041,"y":2542429.7800000012}},{"attributes":{"ID":641452,"DIS_CODE":0,"TOWNNAME":"南區","LI":"金華里","LIN":"22鄰","STREET":"賢南街","SECT":" ","MAREA":" ","LANE":" ","ALLEY":" ","HOUSE_NO":"６２號","E_COORD97":166807.85999999999,"N_COORD97":2542428.5899999999,"ADDRESS":"賢南街６２號","OBJECTID":641425},"geometry":{"x":166807.86000000127,"y":2542428.5899999999}},{"attributes":{"ID":641453,"DIS_CODE":0,"TOWNNAME":"南區","LI":"金華里","LIN":"22鄰","STREET":"賢南街","SECT":" ","MAREA":" ","LANE":" ","ALLEY":" ","HOUSE_NO":"６４號","E_COORD97":166802.29000000001,"N_COORD97":2542427,"ADDRESS":"賢南街６４號","OBJECTID":641426},"geometry":{"x":166802.29000000004,"y":2542427}},{"attributes":{"ID":641454,"DIS_CODE":0,"TOWNNAME":"南區","LI":"金華里","LIN":"22鄰","STREET":"賢南街","SECT":" ","MAREA":" ","LANE":" ","ALLEY":" ","HOUSE_NO":"６６號","E_COORD97":166797.12,"N_COORD97":2542426.3999999999,"ADDRESS":"賢南街６６號","OBJECTID":641427},"geometry":{"x":166797.12000000197,"y":2542426.4000000022}},{"attributes":{"ID":641455,"DIS_CODE":0,"TOWNNAME":"南區","LI":"金華里","LIN":"22鄰","STREET":"賢南街","SECT":" ","MAREA":" ","LANE":" ","ALLEY":" ","HOUSE_NO":"８６號","E_COORD97":166753.59,"N_COORD97":2542457.73,"ADDRESS":"賢南街８６號","OBJECTID":641428},"geometry":{"x":166753.59000000078,"y":2542457.7300000023}},{"attributes":{"ID":641456,"DIS_CODE":0,"TOWNNAME":"南區","LI":"金華里","LIN":"22鄰","STREET":"賢南街","SECT":" ","MAREA":" ","LANE":" ","ALLEY":" ","HOUSE_NO":"８８號","E_COORD97":166754.78,"N_COORD97":2542452.2200000002,"ADDRESS":"賢南街８８號","OBJECTID":641429},"geometry":{"x":166754.78000000026,"y":2542452.2200000007}},{"attributes":{"ID":641457,"DIS_CODE":0,"TOWNNAME":"南區","LI":"金華里","LIN":"22鄰","STREET":"賢南街","SECT":" ","MAREA":" ","LANE":" ","ALLEY":" ","HOUSE_NO":"９０號","E_COORD97":166756.42000000001,"N_COORD97":2542447.4500000002,"ADDRESS":"賢南街９０號","OBJECTID":641430},"geometry":{"x":166756.42000000086,"y":2542447.450000003}},{"attributes":{"ID":641458,"DIS_CODE":0,"TOWNNAME":"南區","LI":"金華里","LIN":"22鄰","STREET":"賢南街","SECT":" ","MAREA":" ","LANE":" ","ALLEY":" ","HOUSE_NO":"９２號","E_COORD97":166757.32000000001,"N_COORD97":2542442.54,"ADDRESS":"賢南街９２號","OBJECTID":641431},"geometry":{"x":166757.32000000123,"y":2542442.5399999991}},{"attributes":{"ID":641459,"DIS_CODE":0,"TOWNNAME":"南區","LI":"金華里","LIN":"22鄰","STREET":"賢南街","SECT":" ","MAREA":" ","LANE":" ","ALLEY":" ","HOUSE_NO":"９４號","E_COORD97":166758.81,"N_COORD97":2542437.3199999998,"ADDRESS":"賢南街９４號","OBJECTID":641432},"geometry":{"x":166758.81000000052,"y":2542437.3200000022}},{"attributes":{"ID":641460,"DIS_CODE":0,"TOWNNAME":"南區","LI":"金華里","LIN":"22鄰","STREET":"賢南街","SECT":" ","MAREA":" ","LANE":" ","ALLEY":" ","HOUSE_NO":"９６號","E_COORD97":166770.47,"N_COORD97":2542422.0299999998,"ADDRESS":"賢南街９６號","OBJECTID":641433},"geometry":{"x":166770.46999999974,"y":2542422.0299999993}},{"attributes":{"ID":641461,"DIS_CODE":0,"TOWNNAME":"南區","LI":"金華里","LIN":"22鄰","STREET":"賢南街","SECT":" ","MAREA":" ","LANE":" ","ALLEY":" ","HOUSE_NO":"９８號","E_COORD97":166765.70000000001,"N_COORD97":2542422.23,"ADDRESS":"賢南街９８號","OBJECTID":641434},"geometry":{"x":166765.70000000019,"y":2542422.2300000004}},{"attributes":{"ID":641462,"DIS_CODE":0,"TOWNNAME":"南區","LI":"金華里","LIN":"27鄰","STREET":"健康路","SECT":"二段","MAREA":" ","LANE":" ","ALLEY":" ","HOUSE_NO":"３７１號","E_COORD97":166673.10000000001,"N_COORD97":2542497.1600000001,"ADDRESS":"健康路二段３７１號","OBJECTID":641435},"geometry":{"x":166673.10000000149,"y":2542497.1600000001}},{"attributes":{"ID":641463,"DIS_CODE":0,"TOWNNAME":"南區","LI":"金華里","LIN":"27鄰","STREET":"健康路","SECT":"二段","MAREA":" ","LANE":" ","ALLEY":" ","HOUSE_NO":"３７５號","E_COORD97":166662.82000000001,"N_COORD97":2542497.6400000001,"ADDRESS":"健康路二段３７５號","OBJECTID":641436},"geometry":{"x":166662.82000000123,"y":2542497.6400000006}},{"attributes":{"ID":641464,"DIS_CODE":0,"TOWNNAME":"南區","LI":"金華里","LIN":"27鄰","STREET":"健康路","SECT":"二段","MAREA":" ","LANE":" ","ALLEY":" ","HOUSE_NO":"３７７號","E_COORD97":166657.79999999999,"N_COORD97":2542498.3500000001,"ADDRESS":"健康路二段３７７號","OBJECTID":641437},"geometry":{"x":166657.79999999981,"y":2542498.3499999996}},{"attributes":{"ID":641465,"DIS_CODE":0,"TOWNNAME":"南區","LI":"金華里","LIN":"27鄰","STREET":"健康路","SECT":"二段","MAREA":" ","LANE":" ","ALLEY":" ","HOUSE_NO":"３８５號","E_COORD97":166638.42000000001,"N_COORD97":2542500.2599999998,"ADDRESS":"健康路二段３８５號","OBJECTID":641438},"geometry":{"x":166638.41999999993,"y":2542500.2600000016}},{"attributes":{"ID":641466,"DIS_CODE":0,"TOWNNAME":"南區","LI":"金華里","LIN":"27鄰","STREET":"健康路","SECT":"二段","MAREA":" ","LANE":" ","ALLEY":" ","HOUSE_NO":"３８７號","E_COORD97":166631.25,"N_COORD97":2542500.7400000002,"ADDRESS":"健康路二段３８７號","OBJECTID":641439},"geometry":{"x":166631.25,"y":2542500.7400000039}},{"attributes":{"ID":641467,"DIS_CODE":0,"TOWNNAME":"南區","LI":"金華里","LIN":"27鄰","STREET":"健康路","SECT":"二段","MAREA":" ","LANE":" ","ALLEY":" ","HOUSE_NO":"３９３號","E_COORD97":166618.57000000001,"N_COORD97":2542503.6099999999,"ADDRESS":"健康路二段３９３號","OBJECTID":641440},"geometry":{"x":166618.57000000123,"y":2542503.6099999994}},{"attributes":{"ID":641468,"DIS_CODE":0,"TOWNNAME":"南區","LI":"金華里","LIN":"27鄰","STREET":"健康路","SECT":"二段","MAREA":" ","LANE":" ","ALLEY":" ","HOUSE_NO":"３９５號","E_COORD97":166614.26999999999,"N_COORD97":2542505.2799999998,"ADDRESS":"健康路二段３９５號","OBJECTID":641441},"geometry":{"x":166614.27000000048,"y":2542505.2799999993}},{"attributes":{"ID":641469,"DIS_CODE":0,"TOWNNAME":"南區","LI":"金華里","LIN":"27鄰","STREET":"健康路","SECT":"二段","MAREA":" ","LANE":" ","ALLEY":" ","HOUSE_NO":"３９７號","E_COORD97":166609.48999999999,"N_COORD97":2542505.52,"ADDRESS":"健康路二段３９７號","OBJECTID":641442},"geometry":{"x":166609.49000000022,"y":2542505.5200000014}},{"attributes":{"ID":641470,"DIS_CODE":0,"TOWNNAME":"北區","LI":"勝安里","LIN":"2鄰","STREET":"開元路","SECT":" ","MAREA":" ","LANE":" ","ALLEY":" ","HOUSE_NO":"６７號","E_COORD97":169711.98999999999,"N_COORD97":2545190.7400000002,"ADDRESS":"開元路６７號","OBJECTID":641443},"geometry":{"x":169711.99000000022,"y":2545190.7400000021}},{"attributes":{"ID":641471,"DIS_CODE":0,"TOWNNAME":"北區","LI":"華興里","LIN":"4鄰","STREET":"南園街","SECT":" ","MAREA":" ","LANE":" ","ALLEY":" ","HOUSE_NO":"３２號","E_COORD97":170461.26999999999,"N_COORD97":2545453.8900000001,"ADDRESS":"南園街３２號","OBJECTID":641444},"geometry":{"x":170461.27000000048,"y":2545453.8900000025}},{"attributes":{"ID":641472,"DIS_CODE":0,"TOWNNAME":"北區","LI":"成德里","LIN":"25鄰","STREET":"育德一街","SECT":" ","MAREA":" ","LANE":" ","ALLEY":" ","HOUSE_NO":"１０號","E_COORD97":168572.01000000001,"N_COORD97":2545774.4900000002,"ADDRESS":"育德一街１０號","OBJECTID":641445},"geometry":{"x":168572.00999999978,"y":2545774.4900000021}},{"attributes":{"ID":641473,"DIS_CODE":0,"TOWNNAME":"北區","LI":"成德里","LIN":"35鄰","STREET":"育德一街","SECT":" ","MAREA":" ","LANE":" ","ALLEY":" ","HOUSE_NO":"２１０號","E_COORD97":168556.34,"N_COORD97":2546229.0099999998,"ADDRESS":"育德一街２１０號","OBJECTID":641446},"geometry":{"x":168556.33999999985,"y":2546229.0100000016}},{"attributes":{"ID":641474,"DIS_CODE":0,"TOWNNAME":"北區","LI":"華興里","LIN":"4鄰","STREET":"南園街","SECT":" ","MAREA":" ","LANE":" ","ALLEY":" ","HOUSE_NO":"３６號","E_COORD97":170467.75,"N_COORD97":2545447.9700000002,"ADDRESS":"南園街３６號","OBJECTID":641447},"geometry":{"x":170467.75,"y":2545447.9700000007}},{"attributes":{"ID":641475,"DIS_CODE":0,"TOWNNAME":"北區","LI":"成德里","LIN":"25鄰","STREET":"育德一街","SECT":" ","MAREA":" ","LANE":" ","ALLEY":" ","HOUSE_NO":"２６號","E_COORD97":168553.95000000001,"N_COORD97":2545834.3599999999,"ADDRESS":"育德一街２６號","OBJECTID":641448},"geometry":{"x":168553.95000000019,"y":2545834.3599999994}},{"attributes":{"ID":641476,"DIS_CODE":0,"TOWNNAME":"北區","LI":"華興里","LIN":"4鄰","STREET":"南園街","SECT":" ","MAREA":" ","LANE":" ","ALLEY":" ","HOUSE_NO":"３８號","E_COORD97":170471.63,"N_COORD97":2545446.6800000002,"ADDRESS":"南園街３８號","OBJECTID":641449},"geometry":{"x":170471.62999999989,"y":2545446.6800000034}},{"attributes":{"ID":641477,"DIS_CODE":0,"TOWNNAME":"北區","LI":"勝安里","LIN":"4鄰","STREET":"開元路","SECT":" ","MAREA":" ","LANE":" ","ALLEY":" ","HOUSE_NO":"８５號","E_COORD97":169762.76000000001,"N_COORD97":2545207.8999999999,"ADDRESS":"開元路８５號","OBJECTID":641450},"geometry":{"x":169762.76000000071,"y":2545207.9000000004}},{"attributes":{"ID":641478,"DIS_CODE":0,"TOWNNAME":"北區","LI":"華興里","LIN":"4鄰","STREET":"南園街","SECT":" ","MAREA":" ","LANE":" ","ALLEY":" ","HOUSE_NO":"４０號","E_COORD97":170475.26999999999,"N_COORD97":2545444.98,"ADDRESS":"南園街４０號","OBJECTID":641451},"geometry":{"x":170475.26999999955,"y":2545444.9800000004}},{"attributes":{"ID":641479,"DIS_CODE":0,"TOWNNAME":"北區","LI":"成德里","LIN":"41鄰","STREET":"育德二路","SECT":" ","MAREA":" ","LANE":" ","ALLEY":" ","HOUSE_NO":"３３１號","E_COORD97":168308.62,"N_COORD97":2546141.0099999998,"ADDRESS":"育德二路３３１號","OBJECTID":641452},"geometry":{"x":168308.62000000011,"y":2546141.0100000016}},{"attributes":{"ID":641480,"DIS_CODE":0,"TOWNNAME":"北區","LI":"成德里","LIN":"34鄰","STREET":"育德二路","SECT":" ","MAREA":" ","LANE":" ","ALLEY":" ","HOUSE_NO":"２９５號","E_COORD97":168349.89999999999,"N_COORD97":2546042.8999999999,"ADDRESS":"育德二路２９５號","OBJECTID":641453},"geometry":{"x":168349.89999999944,"y":2546042.9000000022}},{"attributes":{"ID":641481,"DIS_CODE":0,"TOWNNAME":"北區","LI":"成德里","LIN":"34鄰","STREET":"育德二路","SECT":" ","MAREA":" ","LANE":" ","ALLEY":" ","HOUSE_NO":"２９３號","E_COORD97":168349.57999999999,"N_COORD97":2546035.2799999998,"ADDRESS":"育德二路２９３號","OBJECTID":641454},"geometry":{"x":168349.58000000007,"y":2546035.2799999975}},{"attributes":{"ID":641482,"DIS_CODE":0,"TOWNNAME":"北區","LI":"成德里","LIN":"34鄰","STREET":"育德二路","SECT":" ","MAREA":" ","LANE":" ","ALLEY":" ","HOUSE_NO":"２９１號","E_COORD97":168349.57999999999,"N_COORD97":2546027.3500000001,"ADDRESS":"育德二路２９１號","OBJECTID":641455},"geometry":{"x":168349.58000000007,"y":2546027.3499999996}},{"attributes":{"ID":641483,"DIS_CODE":0,"TOWNNAME":"北區","LI":"成德里","LIN":"34鄰","STREET":"育德二路","SECT":" ","MAREA":" ","LANE":" ","ALLEY":" ","HOUSE_NO":"２８９號","E_COORD97":168349.57999999999,"N_COORD97":2546020.04,"ADDRESS":"育德二路２８９號","OBJECTID":641456},"geometry":{"x":168349.58000000007,"y":2546020.0400000028}},{"attributes":{"ID":641484,"DIS_CODE":0,"TOWNNAME":"北區","LI":"成德里","LIN":"34鄰","STREET":"育德二路","SECT":" ","MAREA":" ","LANE":" ","ALLEY":" ","HOUSE_NO":"２８７號","E_COORD97":168349.57999999999,"N_COORD97":2546012.7400000002,"ADDRESS":"育德二路２８７號","OBJECTID":641457},"geometry":{"x":168349.58000000007,"y":2546012.7399999984}},{"attributes":{"ID":641485,"DIS_CODE":0,"TOWNNAME":"六甲區","LI":"甲東里","LIN":"16鄰","STREET":"裕農街","SECT":" ","MAREA":" ","LANE":" ","ALLEY":" ","HOUSE_NO":"４１號","E_COORD97":184083.89000000001,"N_COORD97":2569699.7000000002,"ADDRESS":"裕農街４１號","OBJECTID":641458},"geometry":{"x":184083.88999999966,"y":2569699.6999999993}},{"attributes":{"ID":641486,"DIS_CODE":0,"TOWNNAME":"北區","LI":"勝安里","LIN":"4鄰","STREET":"開元路","SECT":" ","MAREA":" ","LANE":" ","ALLEY":" ","HOUSE_NO":"８７號","E_COORD97":169766.23000000001,"N_COORD97":2545209,"ADDRESS":"開元路８７號","OBJECTID":641459},"geometry":{"x":169766.23000000045,"y":2545209.0000000019}},{"attributes":{"ID":641487,"DIS_CODE":0,"TOWNNAME":"北區","LI":"勝安里","LIN":"4鄰","STREET":"開元路","SECT":" ","MAREA":" ","LANE":" ","ALLEY":" ","HOUSE_NO":"８９號","E_COORD97":169769.07000000001,"N_COORD97":2545210.1099999999,"ADDRESS":"開元路８９號","OBJECTID":641460},"geometry":{"x":169769.0700000003,"y":2545210.1100000013}},{"attributes":{"ID":641488,"DIS_CODE":0,"TOWNNAME":"北區","LI":"勝安里","LIN":"4鄰","STREET":"開元路","SECT":" ","MAREA":" ","LANE":" ","ALLEY":" ","HOUSE_NO":"９１號","E_COORD97":169773.01999999999,"N_COORD97":2545211.3700000001,"ADDRESS":"開元路９１號","OBJECTID":641461},"geometry":{"x":169773.02000000048,"y":2545211.370000001}},{"attributes":{"ID":641489,"DIS_CODE":0,"TOWNNAME":"北區","LI":"勝安里","LIN":"4鄰","STREET":"開元路","SECT":" ","MAREA":" ","LANE":" ","ALLEY":" ","HOUSE_NO":"１０１號","E_COORD97":169797.95000000001,"N_COORD97":2545220.8199999998,"ADDRESS":"開元路１０１號","OBJECTID":641462},"geometry":{"x":169797.95000000112,"y":2545220.8200000022}},{"attributes":{"ID":641490,"DIS_CODE":0,"TOWNNAME":"北區","LI":"勝安里","LIN":"4鄰","STREET":"開元路","SECT":" ","MAREA":" ","LANE":" ","ALLEY":" ","HOUSE_NO":"１０３號","E_COORD97":169801.42000000001,"N_COORD97":2545222.0800000001,"ADDRESS":"開元路１０３號","OBJECTID":641463},"geometry":{"x":169801.41999999993,"y":2545222.0800000019}},{"attributes":{"ID":641491,"DIS_CODE":0,"TOWNNAME":"北區","LI":"勝安里","LIN":"4鄰","STREET":"開元路","SECT":" ","MAREA":" ","LANE":" ","ALLEY":" ","HOUSE_NO":"１０５號","E_COORD97":169805.04000000001,"N_COORD97":2545223.3399999999,"ADDRESS":"開元路１０５號","OBJECTID":641464},"geometry":{"x":169805.04000000097,"y":2545223.3400000017}},{"attributes":{"ID":641492,"DIS_CODE":0,"TOWNNAME":"北區","LI":"勝安里","LIN":"4鄰","STREET":"開元路","SECT":" ","MAREA":" ","LANE":" ","ALLEY":" ","HOUSE_NO":"１０７號","E_COORD97":169808.98999999999,"N_COORD97":2545224.9199999999,"ADDRESS":"開元路１０７號","OBJECTID":641465},"geometry":{"x":169808.99000000115,"y":2545224.9200000037}},{"attributes":{"ID":641493,"DIS_CODE":0,"TOWNNAME":"北區","LI":"勝安里","LIN":"4鄰","STREET":"開元路","SECT":" ","MAREA":" ","LANE":" ","ALLEY":" ","HOUSE_NO":"１０９號","E_COORD97":169813.56,"N_COORD97":2545226.5,"ADDRESS":"開元路１０９號","OBJECTID":641466},"geometry":{"x":169813.56000000052,"y":2545226.5}},{"attributes":{"ID":641494,"DIS_CODE":0,"TOWNNAME":"北區","LI":"勝安里","LIN":"4鄰","STREET":"開元路","SECT":" ","MAREA":" ","LANE":" ","ALLEY":" ","HOUSE_NO":"１０９號之１","E_COORD97":169809.45999999999,"N_COORD97":2545237.9199999999,"ADDRESS":"開元路１０９號之１","OBJECTID":641467},"geometry":{"x":169809.46000000089,"y":2545237.9199999999}},{"attributes":{"ID":641495,"DIS_CODE":0,"TOWNNAME":"北區","LI":"勝安里","LIN":"4鄰","STREET":"開元路","SECT":" ","MAREA":" ","LANE":" ","ALLEY":" ","HOUSE_NO":"１０９號之１０","E_COORD97":169790.85000000001,"N_COORD97":2545246.1200000001,"ADDRESS":"開元路１０９號之１０","OBJECTID":641468},"geometry":{"x":169790.85000000056,"y":2545246.1200000029}},{"attributes":{"ID":641496,"DIS_CODE":0,"TOWNNAME":"北區","LI":"勝安里","LIN":"4鄰","STREET":"開元路","SECT":" ","MAREA":" ","LANE":" ","ALLEY":" ","HOUSE_NO":"１０９號之１２","E_COORD97":169788.16,"N_COORD97":2545240.4399999999,"ADDRESS":"開元路１０９號之１２","OBJECTID":641469},"geometry":{"x":169788.16000000015,"y":2545240.4399999995}},{"attributes":{"ID":641497,"DIS_CODE":0,"TOWNNAME":"北區","LI":"勝安里","LIN":"4鄰","STREET":"開元路","SECT":" ","MAREA":" ","LANE":" ","ALLEY":" ","HOUSE_NO":"１０９號之２","E_COORD97":169807.89000000001,"N_COORD97":2545241.8599999999,"ADDRESS":"開元路１０９號之２","OBJECTID":641470},"geometry":{"x":169807.8900000006,"y":2545241.8600000031}},{"attributes":{"ID":641498,"DIS_CODE":0,"TOWNNAME":"北區","LI":"勝安里","LIN":"4鄰","STREET":"開元路","SECT":" ","MAREA":" ","LANE":" ","ALLEY":" ","HOUSE_NO":"１０９號之３","E_COORD97":169806.94,"N_COORD97":2545244.3799999999,"ADDRESS":"開元路１０９號之３","OBJECTID":641471},"geometry":{"x":169806.94000000041,"y":2545244.3800000027}},{"attributes":{"ID":641499,"DIS_CODE":0,"TOWNNAME":"北區","LI":"勝安里","LIN":"4鄰","STREET":"開元路","SECT":" ","MAREA":" ","LANE":" ","ALLEY":" ","HOUSE_NO":"１０９號之４","E_COORD97":169805.67999999999,"N_COORD97":2545247.0600000001,"ADDRESS":"開元路１０９號之４","OBJECTID":641472},"geometry":{"x":169805.68000000063,"y":2545247.0600000005}},{"attributes":{"ID":641500,"DIS_CODE":0,"TOWNNAME":"北區","LI":"勝安里","LIN":"4鄰","STREET":"開元路","SECT":" ","MAREA":" ","LANE":" ","ALLEY":" ","HOUSE_NO":"１０９號之５","E_COORD97":169804.73000000001,"N_COORD97":2545249.7400000002,"ADDRESS":"開元路１０９號之５","OBJECTID":641473},"geometry":{"x":169804.73000000138,"y":2545249.7400000002}},{"attributes":{"ID":641501,"DIS_CODE":0,"TOWNNAME":"北區","LI":"勝安里","LIN":"4鄰","STREET":"開元路","SECT":" ","MAREA":" ","LANE":" ","ALLEY":" ","HOUSE_NO":"１０９號之６","E_COORD97":169803.78,"N_COORD97":2545252.1099999999,"ADDRESS":"開元路１０９號之６","OBJECTID":641474},"geometry":{"x":169803.78000000119,"y":2545252.1099999994}},{"attributes":{"ID":641502,"DIS_CODE":0,"TOWNNAME":"北區","LI":"勝安里","LIN":"4鄰","STREET":"開元路","SECT":" ","MAREA":" ","LANE":" ","ALLEY":" ","HOUSE_NO":"１０９號之７","E_COORD97":169798.26000000001,"N_COORD97":2545255.1000000001,"ADDRESS":"開元路１０９號之７","OBJECTID":641475},"geometry":{"x":169798.26000000071,"y":2545255.1000000015}},{"attributes":{"ID":641503,"DIS_CODE":0,"TOWNNAME":"北區","LI":"勝安里","LIN":"4鄰","STREET":"開元路","SECT":" ","MAREA":" ","LANE":" ","ALLEY":" ","HOUSE_NO":"１０９號之８","E_COORD97":169795.89000000001,"N_COORD97":2545253.21,"ADDRESS":"開元路１０９號之８","OBJECTID":641476},"geometry":{"x":169795.8900000006,"y":2545253.2100000009}},{"attributes":{"ID":641504,"DIS_CODE":0,"TOWNNAME":"北區","LI":"勝安里","LIN":"4鄰","STREET":"開元路","SECT":" ","MAREA":" ","LANE":" ","ALLEY":" ","HOUSE_NO":"１０９號之９","E_COORD97":169794,"N_COORD97":2545250.6899999999,"ADDRESS":"開元路１０９號之９","OBJECTID":641477},"geometry":{"x":169794.00000000093,"y":2545250.6900000013}},{"attributes":{"ID":641505,"DIS_CODE":0,"TOWNNAME":"北區","LI":"勝安里","LIN":"4鄰","STREET":"開元路","SECT":" ","MAREA":" ","LANE":" ","ALLEY":" ","HOUSE_NO":"１１１號","E_COORD97":169817.82000000001,"N_COORD97":2545228.1499999999,"ADDRESS":"開元路１１１號","OBJECTID":641478},"geometry":{"x":169817.8200000003,"y":2545228.1500000022}},{"attributes":{"ID":641506,"DIS_CODE":0,"TOWNNAME":"北區","LI":"勝安里","LIN":"4鄰","STREET":"開元路","SECT":" ","MAREA":" ","LANE":" ","ALLEY":" ","HOUSE_NO":"１１３號","E_COORD97":169823.19,"N_COORD97":2545230.9900000002,"ADDRESS":"開元路１１３號","OBJECTID":641479},"geometry":{"x":169823.19000000134,"y":2545230.9900000002}},{"attributes":{"ID":641507,"DIS_CODE":0,"TOWNNAME":"北區","LI":"勝安里","LIN":"4鄰","STREET":"開元路","SECT":" ","MAREA":" ","LANE":" ","ALLEY":" ","HOUSE_NO":"７５號","E_COORD97":169750.60999999999,"N_COORD97":2545202.3799999999,"ADDRESS":"開元路７５號","OBJECTID":641480},"geometry":{"x":169750.61000000127,"y":2545202.379999999}},{"attributes":{"ID":641508,"DIS_CODE":0,"TOWNNAME":"北區","LI":"勝安里","LIN":"4鄰","STREET":"開元路","SECT":" ","MAREA":" ","LANE":" ","ALLEY":" ","HOUSE_NO":"７９號","E_COORD97":169754.07999999999,"N_COORD97":2545204.1200000001,"ADDRESS":"開元路７９號","OBJECTID":641481},"geometry":{"x":169754.08000000101,"y":2545204.1199999992}},{"attributes":{"ID":641509,"DIS_CODE":0,"TOWNNAME":"北區","LI":"勝安里","LIN":"4鄰","STREET":"開元路","SECT":" ","MAREA":" ","LANE":" ","ALLEY":" ","HOUSE_NO":"８１號","E_COORD97":169756.92000000001,"N_COORD97":2545205.8500000001,"ADDRESS":"開元路８１號","OBJECTID":641482},"geometry":{"x":169756.92000000086,"y":2545205.8500000015}},{"attributes":{"ID":641510,"DIS_CODE":0,"TOWNNAME":"北區","LI":"勝安里","LIN":"4鄰","STREET":"開元路","SECT":" ","MAREA":" ","LANE":" ","ALLEY":" ","HOUSE_NO":"８３號","E_COORD97":169759.76000000001,"N_COORD97":2545207.1099999999,"ADDRESS":"開元路８３號","OBJECTID":641483},"geometry":{"x":169759.76000000071,"y":2545207.1100000013}},{"attributes":{"ID":641511,"DIS_CODE":0,"TOWNNAME":"北區","LI":"勝安里","LIN":"4鄰","STREET":"開元路","SECT":" ","MAREA":" ","LANE":" ","ALLEY":" ","HOUSE_NO":"９３號","E_COORD97":169779.95999999999,"N_COORD97":2545214.3599999999,"ADDRESS":"開元路９３號","OBJECTID":641484},"geometry":{"x":169779.96000000183,"y":2545214.3599999975}},{"attributes":{"ID":641512,"DIS_CODE":0,"TOWNNAME":"北區","LI":"勝安里","LIN":"4鄰","STREET":"開元路","SECT":" ","MAREA":" ","LANE":" ","ALLEY":" ","HOUSE_NO":"９５號","E_COORD97":169786.37,"N_COORD97":2545216.6299999999,"ADDRESS":"開元路９５號","OBJECTID":641485},"geometry":{"x":169786.37000000104,"y":2545216.6300000008}},{"attributes":{"ID":641513,"DIS_CODE":0,"TOWNNAME":"北區","LI":"勝安里","LIN":"4鄰","STREET":"開元路","SECT":" ","MAREA":" ","LANE":" ","ALLEY":" ","HOUSE_NO":"９７號","E_COORD97":169791.07999999999,"N_COORD97":2545218.1800000002,"ADDRESS":"開元路９７號","OBJECTID":641486},"geometry":{"x":169791.08000000194,"y":2545218.1799999997}},{"attributes":{"ID":641514,"DIS_CODE":0,"TOWNNAME":"北區","LI":"華興里","LIN":"4鄰","STREET":"林森路","SECT":"三段","MAREA":" ","LANE":" ","ALLEY":" ","HOUSE_NO":"２９６號","E_COORD97":170438.88,"N_COORD97":2545387.48,"ADDRESS":"林森路三段２９６號","OBJECTID":641487},"geometry":{"x":170438.88000000082,"y":2545387.4800000004}},{"attributes":{"ID":641515,"DIS_CODE":0,"TOWNNAME":"北區","LI":"華興里","LIN":"4鄰","STREET":"林森路","SECT":"三段","MAREA":" ","LANE":" ","ALLEY":" ","HOUSE_NO":"２９８號","E_COORD97":170436.94,"N_COORD97":2545390.3799999999,"ADDRESS":"林森路三段２９８號","OBJECTID":641488},"geometry":{"x":170436.94000000134,"y":2545390.3800000027}},{"attributes":{"ID":641516,"DIS_CODE":0,"TOWNNAME":"北區","LI":"華興里","LIN":"4鄰","STREET":"林森路","SECT":"三段","MAREA":" ","LANE":" ","ALLEY":" ","HOUSE_NO":"３００號","E_COORD97":170434.60000000001,"N_COORD97":2545394.02,"ADDRESS":"林森路三段３００號","OBJECTID":641489},"geometry":{"x":170434.60000000149,"y":2545394.0200000014}},{"attributes":{"ID":641517,"DIS_CODE":0,"TOWNNAME":"北區","LI":"華興里","LIN":"4鄰","STREET":"林森路","SECT":"三段","MAREA":" ","LANE":" ","ALLEY":" ","HOUSE_NO":"３０２號","E_COORD97":170431.92999999999,"N_COORD97":2545397.2599999998,"ADDRESS":"林森路三段３０２號","OBJECTID":641490},"geometry":{"x":170431.9299999997,"y":2545397.2599999998}},{"attributes":{"ID":641518,"DIS_CODE":0,"TOWNNAME":"北區","LI":"華興里","LIN":"6鄰","STREET":"林森路","SECT":"三段","MAREA":" ","LANE":" ","ALLEY":" ","HOUSE_NO":"２７６號","E_COORD97":170468.07999999999,"N_COORD97":2545335.6400000001,"ADDRESS":"林森路三段２７６號","OBJECTID":641491},"geometry":{"x":170468.08000000101,"y":2545335.6400000006}},{"attributes":{"ID":641519,"DIS_CODE":0,"TOWNNAME":"六甲區","LI":"甲東里","LIN":"25鄰","STREET":"興東街","SECT":" ","MAREA":" ","LANE":" ","ALLEY":" ","HOUSE_NO":"１０號","E_COORD97":183904.35000000001,"N_COORD97":2569536.6699999999,"ADDRESS":"興東街１０號","OBJECTID":641492},"geometry":{"x":183904.34999999963,"y":2569536.6700000018}},{"attributes":{"ID":641520,"DIS_CODE":0,"TOWNNAME":"六甲區","LI":"甲東里","LIN":"25鄰","STREET":"興東街","SECT":" ","MAREA":" ","LANE":" ","ALLEY":" ","HOUSE_NO":"１２號","E_COORD97":183908.35999999999,"N_COORD97":2569534.3100000001,"ADDRESS":"興東街１２號","OBJECTID":641493},"geometry":{"x":183908.36000000034,"y":2569534.3100000005}},{"attributes":{"ID":641521,"DIS_CODE":0,"TOWNNAME":"六甲區","LI":"甲東里","LIN":"25鄰","STREET":"興東街","SECT":" ","MAREA":" ","LANE":" ","ALLEY":" ","HOUSE_NO":"１６號","E_COORD97":183912.38,"N_COORD97":2569531.9100000001,"ADDRESS":"興東街１６號","OBJECTID":641494},"geometry":{"x":183912.37999999989,"y":2569531.910000002}},{"attributes":{"ID":641522,"DIS_CODE":0,"TOWNNAME":"六甲區","LI":"甲東里","LIN":"25鄰","STREET":"興東街","SECT":" ","MAREA":" ","LANE":" ","ALLEY":" ","HOUSE_NO":"１８號","E_COORD97":183916.51999999999,"N_COORD97":2569529.5499999998,"ADDRESS":"興東街１８號","OBJECTID":641495},"geometry":{"x":183916.51999999955,"y":2569529.5500000007}},{"attributes":{"ID":641523,"DIS_CODE":0,"TOWNNAME":"六甲區","LI":"甲東里","LIN":"25鄰","STREET":"興東街","SECT":" ","MAREA":" ","LANE":" ","ALLEY":" ","HOUSE_NO":"２０號","E_COORD97":183920.73999999999,"N_COORD97":2569527.27,"ADDRESS":"興東街２０號","OBJECTID":641496},"geometry":{"x":183920.74000000022,"y":2569527.2699999996}},{"attributes":{"ID":641524,"DIS_CODE":0,"TOWNNAME":"六甲區","LI":"甲東里","LIN":"25鄰","STREET":"興東街","SECT":" ","MAREA":" ","LANE":" ","ALLEY":" ","HOUSE_NO":"２２號","E_COORD97":183925.34,"N_COORD97":2569525.0899999999,"ADDRESS":"興東街２２號","OBJECTID":641497},"geometry":{"x":183925.34000000171,"y":2569525.0899999999}},{"attributes":{"ID":641525,"DIS_CODE":0,"TOWNNAME":"六甲區","LI":"甲東里","LIN":"25鄰","STREET":"興東街","SECT":" ","MAREA":" ","LANE":" ","ALLEY":" ","HOUSE_NO":"２６號","E_COORD97":183929.42000000001,"N_COORD97":2569522.73,"ADDRESS":"興東街２６號","OBJECTID":641498},"geometry":{"x":183929.41999999993,"y":2569522.7300000023}},{"attributes":{"ID":641526,"DIS_CODE":0,"TOWNNAME":"六甲區","LI":"甲東里","LIN":"25鄰","STREET":"興東街","SECT":" ","MAREA":" ","LANE":" ","ALLEY":" ","HOUSE_NO":"２８號","E_COORD97":183933.84,"N_COORD97":2569520.5499999998,"ADDRESS":"興東街２８號","OBJECTID":641499},"geometry":{"x":183933.84000000171,"y":2569520.5500000045}},{"attributes":{"ID":641527,"DIS_CODE":0,"TOWNNAME":"六甲區","LI":"甲東里","LIN":"25鄰","STREET":"興東街","SECT":" ","MAREA":" ","LANE":" ","ALLEY":" ","HOUSE_NO":"３０號","E_COORD97":183938.20000000001,"N_COORD97":2569518.5,"ADDRESS":"興東街３０號","OBJECTID":641500},"geometry":{"x":183938.20000000019,"y":2569518.5}},{"attributes":{"ID":641528,"DIS_CODE":0,"TOWNNAME":"六甲區","LI":"甲東里","LIN":"25鄰","STREET":"興東街","SECT":" ","MAREA":" ","LANE":" ","ALLEY":" ","HOUSE_NO":"５０號","E_COORD97":183975.98000000001,"N_COORD97":2569495.6400000001,"ADDRESS":"興東街５０號","OBJECTID":641501},"geometry":{"x":183975.98000000138,"y":2569495.6399999987}},{"attributes":{"ID":641529,"DIS_CODE":0,"TOWNNAME":"六甲區","LI":"甲東里","LIN":"25鄰","STREET":"興東街","SECT":" ","MAREA":" ","LANE":" ","ALLEY":" ","HOUSE_NO":"５２號","E_COORD97":183981.17999999999,"N_COORD97":2569482.9399999999,"ADDRESS":"興東街５２號","OBJECTID":641502},"geometry":{"x":183981.18000000063,"y":2569482.9400000013}},{"attributes":{"ID":641530,"DIS_CODE":0,"TOWNNAME":"六甲區","LI":"甲東里","LIN":"25鄰","STREET":"興東街","SECT":" ","MAREA":" ","LANE":" ","ALLEY":" ","HOUSE_NO":"６號","E_COORD97":183895.06,"N_COORD97":2569541.1200000001,"ADDRESS":"興東街６號","OBJECTID":641503},"geometry":{"x":183895.06000000052,"y":2569541.1200000029}},{"attributes":{"ID":641531,"DIS_CODE":0,"TOWNNAME":"關廟區","LI":"香洋里","LIN":"4鄰","STREET":"南雄路","SECT":"二段","MAREA":" ","LANE":" ","ALLEY":" ","HOUSE_NO":"１９０號","E_COORD97":181187.39000000001,"N_COORD97":2540476.2799999998,"ADDRESS":"南雄路二段１９０號","OBJECTID":641504},"geometry":{"x":181187.3900000006,"y":2540476.2800000012}},{"attributes":{"ID":641532,"DIS_CODE":0,"TOWNNAME":"六甲區","LI":"六甲里","LIN":"20鄰","STREET":"仁愛街","SECT":" ","MAREA":" ","LANE":" ","ALLEY":" ","HOUSE_NO":"１０５號","E_COORD97":183864.76000000001,"N_COORD97":2570139.04,"ADDRESS":"仁愛街１０５號","OBJECTID":641505},"geometry":{"x":183864.76000000164,"y":2570139.0400000028}},{"attributes":{"ID":641533,"DIS_CODE":0,"TOWNNAME":"關廟區","LI":"香洋里","LIN":"20鄰","STREET":"中央路","SECT":" ","MAREA":" ","LANE":" ","ALLEY":" ","HOUSE_NO":"３９號","E_COORD97":181554.41,"N_COORD97":2539968.3199999998,"ADDRESS":"中央路３９號","OBJECTID":641506},"geometry":{"x":181554.41000000015,"y":2539968.3200000022}},{"attributes":{"ID":641534,"DIS_CODE":0,"TOWNNAME":"六甲區","LI":"甲南里","LIN":"25鄰","STREET":"珊瑚路","SECT":" ","MAREA":" ","LANE":" ","ALLEY":" ","HOUSE_NO":"１１８號","E_COORD97":183919.23999999999,"N_COORD97":2569178.6800000002,"ADDRESS":"珊瑚路１１８號","OBJECTID":641507},"geometry":{"x":183919.24000000022,"y":2569178.6799999997}},{"attributes":{"ID":641535,"DIS_CODE":0,"TOWNNAME":"關廟區","LI":"北勢里","LIN":"24鄰","STREET":"北仁街","SECT":" ","MAREA":" ","LANE":" ","ALLEY":" ","HOUSE_NO":"７９號","E_COORD97":181448.64000000001,"N_COORD97":2540314.25,"ADDRESS":"北仁街７９號","OBJECTID":641508},"geometry":{"x":181448.6400000006,"y":2540314.2500000019}},{"attributes":{"ID":641536,"DIS_CODE":0,"TOWNNAME":"關廟區","LI":"東勢里","LIN":"4鄰","STREET":"和平路","SECT":" ","MAREA":" ","LANE":" ","ALLEY":" ","HOUSE_NO":"１１０號","E_COORD97":181713.94,"N_COORD97":2539498.25,"ADDRESS":"和平路１１０號","OBJECTID":641509},"geometry":{"x":181713.94000000041,"y":2539498.25}},{"attributes":{"ID":641537,"DIS_CODE":0,"TOWNNAME":"關廟區","LI":"北勢里","LIN":"20鄰","STREET":"北新街","SECT":" ","MAREA":" ","LANE":" ","ALLEY":" ","HOUSE_NO":"７５號","E_COORD97":181316.23999999999,"N_COORD97":2540460.25,"ADDRESS":"北新街７５號","OBJECTID":641510},"geometry":{"x":181316.24000000115,"y":2540460.2500000019}},{"attributes":{"ID":641538,"DIS_CODE":0,"TOWNNAME":"關廟區","LI":"東勢里","LIN":"26鄰","STREET":"光復街","SECT":" ","MAREA":" ","LANE":" ","ALLEY":" ","HOUSE_NO":"１７３號","E_COORD97":181488.64000000001,"N_COORD97":2539690.2799999998,"ADDRESS":"光復街１７３號","OBJECTID":641511},"geometry":{"x":181488.63999999873,"y":2539690.2800000012}},{"attributes":{"ID":641539,"DIS_CODE":0,"TOWNNAME":"關廟區","LI":"北勢里","LIN":"13鄰","STREET":"北安三街","SECT":" ","MAREA":" ","LANE":" ","ALLEY":" ","HOUSE_NO":"１４７號","E_COORD97":181431.14000000001,"N_COORD97":2540603.3199999998,"ADDRESS":"北安三街１４７號","OBJECTID":641512},"geometry":{"x":181431.14000000153,"y":2540603.3200000003}},{"attributes":{"ID":641540,"DIS_CODE":0,"TOWNNAME":"關廟區","LI":"松腳里","LIN":"17鄰","STREET":"民族街","SECT":" ","MAREA":" ","LANE":" ","ALLEY":" ","HOUSE_NO":"９號","E_COORD97":181602.69,"N_COORD97":2539776.29,"ADDRESS":"民族街９號","OBJECTID":641513},"geometry":{"x":181602.69000000227,"y":2539776.2899999991}},{"attributes":{"ID":641541,"DIS_CODE":0,"TOWNNAME":"關廟區","LI":"山西里","LIN":"18鄰","STREET":"崇明街","SECT":" ","MAREA":" ","LANE":" ","ALLEY":" ","HOUSE_NO":"８２號","E_COORD97":180996.42000000001,"N_COORD97":2540753.25,"ADDRESS":"崇明街８２號","OBJECTID":641514},"geometry":{"x":180996.41999999993,"y":2540753.25}},{"attributes":{"ID":641542,"DIS_CODE":0,"TOWNNAME":"關廟區","LI":"北花里","LIN":"20鄰","STREET":"中正路","SECT":" ","MAREA":" ","LANE":" ","ALLEY":" ","HOUSE_NO":"５５號","E_COORD97":183736.20999999999,"N_COORD97":2540909.25,"ADDRESS":"中正路５５號","OBJECTID":641515},"geometry":{"x":183736.20999999996,"y":2540909.25}},{"attributes":{"ID":641543,"DIS_CODE":0,"TOWNNAME":"關廟區","LI":"東勢里","LIN":"26鄰","STREET":"東安街","SECT":" ","MAREA":" ","LANE":" ","ALLEY":" ","HOUSE_NO":"９３號","E_COORD97":181435.92000000001,"N_COORD97":2539664.3199999998,"ADDRESS":"東安街９３號","OBJECTID":641516},"geometry":{"x":181435.91999999993,"y":2539664.3200000003}},{"attributes":{"ID":641544,"DIS_CODE":0,"TOWNNAME":"關廟區","LI":"關廟里","LIN":"13鄰","STREET":"大富街","SECT":" ","MAREA":" ","LANE":" ","ALLEY":" ","HOUSE_NO":"２０７號","E_COORD97":181052.97,"N_COORD97":2539489.25,"ADDRESS":"大富街２０７號","OBJECTID":641517},"geometry":{"x":181052.97000000067,"y":2539489.25}},{"attributes":{"ID":641545,"DIS_CODE":0,"TOWNNAME":"關廟區","LI":"南花里","LIN":"13鄰","STREET":"和平路","SECT":" ","MAREA":" ","LANE":" ","ALLEY":" ","HOUSE_NO":"３５８號","E_COORD97":181625.64000000001,"N_COORD97":2540190.25,"ADDRESS":"和平路３５８號","OBJECTID":641518},"geometry":{"x":181625.63999999966,"y":2540190.25}},{"attributes":{"ID":641546,"DIS_CODE":0,"TOWNNAME":"關廟區","LI":"香洋里","LIN":"4鄰","STREET":"南雄路","SECT":"二段","MAREA":" ","LANE":" ","ALLEY":" ","HOUSE_NO":"１９６號","E_COORD97":181186.69,"N_COORD97":2540486.2799999998,"ADDRESS":"南雄路二段１９６號","OBJECTID":641519},"geometry":{"x":181186.69000000041,"y":2540486.2800000012}},{"attributes":{"ID":641547,"DIS_CODE":0,"TOWNNAME":"關廟區","LI":"南花里","LIN":"13鄰","STREET":"花園一街","SECT":" ","MAREA":" ","LANE":" ","ALLEY":" ","HOUSE_NO":"１６０號","E_COORD97":181731.29000000001,"N_COORD97":2540186.25,"ADDRESS":"花園一街１６０號","OBJECTID":641520},"geometry":{"x":181731.29000000097,"y":2540186.2500000019}},{"attributes":{"ID":641548,"DIS_CODE":0,"TOWNNAME":"關廟區","LI":"五甲里","LIN":"4鄰","STREET":"南雄路","SECT":"一段","MAREA":" ","LANE":" ","ALLEY":" ","HOUSE_NO":"８１６號","E_COORD97":181393.59,"N_COORD97":2539114.2799999998,"ADDRESS":"南雄路一段８１６號","OBJECTID":641521},"geometry":{"x":181393.58999999985,"y":2539114.2799999993}},{"attributes":{"ID":641549,"DIS_CODE":0,"TOWNNAME":"關廟區","LI":"關廟里","LIN":"4鄰","STREET":"文衡路","SECT":" ","MAREA":" ","LANE":" ","ALLEY":" ","HOUSE_NO":"１３號","E_COORD97":180880.48999999999,"N_COORD97":2540089.3300000001,"ADDRESS":"文衡路１３號","OBJECTID":641522},"geometry":{"x":180880.49000000115,"y":2540089.3300000038}},{"attributes":{"ID":641550,"DIS_CODE":0,"TOWNNAME":"關廟區","LI":"關廟里","LIN":"4鄰","STREET":"文衡路","SECT":" ","MAREA":" ","LANE":" ","ALLEY":" ","HOUSE_NO":"３７號","E_COORD97":180883.59,"N_COORD97":2540159.3300000001,"ADDRESS":"文衡路３７號","OBJECTID":641523},"geometry":{"x":180883.58999999985,"y":2540159.3300000001}},{"attributes":{"ID":641551,"DIS_CODE":0,"TOWNNAME":"關廟區","LI":"北花里","LIN":"4鄰","STREET":"園東街","SECT":" ","MAREA":" ","LANE":" ","ALLEY":" ","HOUSE_NO":"１７１號","E_COORD97":182033.20999999999,"N_COORD97":2540297.25,"ADDRESS":"園東街１７１號","OBJECTID":641524},"geometry":{"x":182033.21000000089,"y":2540297.2500000019}},{"attributes":{"ID":641552,"DIS_CODE":0,"TOWNNAME":"關廟區","LI":"香洋里","LIN":"18鄰","STREET":"和平路","SECT":" ","MAREA":" ","LANE":" ","ALLEY":" ","HOUSE_NO":"２７１號","E_COORD97":181637.94,"N_COORD97":2540080.25,"ADDRESS":"和平路２７１號","OBJECTID":641525},"geometry":{"x":181637.94000000041,"y":2540080.2500000019}},{"attributes":{"ID":641553,"DIS_CODE":0,"TOWNNAME":"關廟區","LI":"南花里","LIN":"14鄰","STREET":"明德街","SECT":" ","MAREA":" ","LANE":" ","ALLEY":" ","HOUSE_NO":"５０號","E_COORD97":181720.23999999999,"N_COORD97":2540044.27,"ADDRESS":"明德街５０號","OBJECTID":641526},"geometry":{"x":181720.24000000022,"y":2540044.2699999996}},{"attributes":{"ID":641554,"DIS_CODE":0,"TOWNNAME":"關廟區","LI":"香洋里","LIN":"4鄰","STREET":"南雄路","SECT":"二段","MAREA":" ","LANE":" ","ALLEY":" ","HOUSE_NO":"１７０號","E_COORD97":181186.69,"N_COORD97":2540430.2799999998,"ADDRESS":"南雄路二段１７０號","OBJECTID":641527},"geometry":{"x":181186.69000000041,"y":2540430.2799999993}},{"attributes":{"ID":641555,"DIS_CODE":0,"TOWNNAME":"關廟區","LI":"松腳里","LIN":"4鄰","STREET":"松平街","SECT":" ","MAREA":" ","LANE":" ","ALLEY":" ","HOUSE_NO":"８號","E_COORD97":182092.17000000001,"N_COORD97":2539732.25,"ADDRESS":"松平街８號","OBJECTID":641528},"geometry":{"x":182092.16999999899,"y":2539732.25}},{"attributes":{"ID":641556,"DIS_CODE":0,"TOWNNAME":"關廟區","LI":"田中里","LIN":"4鄰","STREET":"中大街","SECT":" ","MAREA":" ","LANE":" ","ALLEY":" ","HOUSE_NO":"７５號","E_COORD97":184164.19,"N_COORD97":2533766.25,"ADDRESS":"中大街７５號","OBJECTID":641529},"geometry":{"x":184164.19000000227,"y":2533766.25}},{"attributes":{"ID":641557,"DIS_CODE":0,"TOWNNAME":"關廟區","LI":"田中里","LIN":"4鄰","STREET":"中大街","SECT":" ","MAREA":" ","LANE":" ","ALLEY":" ","HOUSE_NO":"８５號","E_COORD97":184189.48999999999,"N_COORD97":2533743.25,"ADDRESS":"中大街８５號","OBJECTID":641530},"geometry":{"x":184189.49000000115,"y":2533743.2500000019}},{"attributes":{"ID":641558,"DIS_CODE":0,"TOWNNAME":"關廟區","LI":"田中里","LIN":"4鄰","STREET":"田大路","SECT":" ","MAREA":" ","LANE":" ","ALLEY":" ","HOUSE_NO":"９０號","E_COORD97":184251.69,"N_COORD97":2533772.25,"ADDRESS":"田大路９０號","OBJECTID":641531},"geometry":{"x":184251.69000000041,"y":2533772.25}},{"attributes":{"ID":641559,"DIS_CODE":0,"TOWNNAME":"關廟區","LI":"關廟里","LIN":"13鄰","STREET":"大富街","SECT":" ","MAREA":" ","LANE":" ","ALLEY":" ","HOUSE_NO":"２１１號","E_COORD97":181053.67000000001,"N_COORD97":2539498.25,"ADDRESS":"大富街２１１號","OBJECTID":641532},"geometry":{"x":181053.67000000086,"y":2539498.25}},{"attributes":{"ID":641560,"DIS_CODE":0,"TOWNNAME":"關廟區","LI":"南花里","LIN":"13鄰","STREET":"花園一街","SECT":" ","MAREA":" ","LANE":" ","ALLEY":" ","HOUSE_NO":"２００號","E_COORD97":181647.59,"N_COORD97":2540156.25,"ADDRESS":"花園一街２００號","OBJECTID":641533},"geometry":{"x":181647.59000000078,"y":2540156.25}},{"attributes":{"ID":641561,"DIS_CODE":0,"TOWNNAME":"關廟區","LI":"香洋里","LIN":"25鄰","STREET":"南雄路","SECT":"一段","MAREA":" ","LANE":" ","ALLEY":" ","HOUSE_NO":"１１４１號","E_COORD97":181046.48999999999,"N_COORD97":2539897.79,"ADDRESS":"南雄路一段１１４１號","OBJECTID":641534},"geometry":{"x":181046.49000000115,"y":2539897.7899999991}},{"attributes":{"ID":641562,"DIS_CODE":0,"TOWNNAME":"關廟區","LI":"香洋里","LIN":"25鄰","STREET":"南雄路","SECT":"一段","MAREA":" ","LANE":" ","ALLEY":" ","HOUSE_NO":"１１５２號","E_COORD97":181072.34,"N_COORD97":2539895.2799999998,"ADDRESS":"南雄路一段１１５２號","OBJECTID":641535},"geometry":{"x":181072.34000000171,"y":2539895.2799999975}},{"attributes":{"ID":641563,"DIS_CODE":0,"TOWNNAME":"關廟區","LI":"五甲里","LIN":"4鄰","STREET":"南雄路","SECT":"一段","MAREA":" ","LANE":" ","ALLEY":" ","HOUSE_NO":"８４２號","E_COORD97":181361.29000000001,"N_COORD97":2539164.2799999998,"ADDRESS":"南雄路一段８４２號","OBJECTID":641536},"geometry":{"x":181361.29000000097,"y":2539164.2800000012}},{"attributes":{"ID":641564,"DIS_CODE":0,"TOWNNAME":"關廟區","LI":"龜洞里","LIN":"4鄰","STREET":"南雄南路","SECT":" ","MAREA":" ","LANE":" ","ALLEY":" ","HOUSE_NO":"８７２號","E_COORD97":182639.73999999999,"N_COORD97":2533093.2999999998,"ADDRESS":"南雄南路８７２號","OBJECTID":641537},"geometry":{"x":182639.74000000209,"y":2533093.3000000026}},{"attributes":{"ID":641565,"DIS_CODE":0,"TOWNNAME":"東區","LI":"崇德里","LIN":"4鄰","STREET":"崇德五街","SECT":" ","MAREA":" ","LANE":" ","ALLEY":" ","HOUSE_NO":"２４號","E_COORD97":170691.57000000001,"N_COORD97":2541820.23,"ADDRESS":"崇德五街２４號","OBJECTID":641538},"geometry":{"x":170691.57000000216,"y":2541820.2300000023}},{"attributes":{"ID":641566,"DIS_CODE":0,"TOWNNAME":"關廟區","LI":"南花里","LIN":"5鄰","STREET":"園東街","SECT":" ","MAREA":" ","LANE":" ","ALLEY":" ","HOUSE_NO":"９２號","E_COORD97":182026.66,"N_COORD97":2540140.25,"ADDRESS":"園東街９２號","OBJECTID":641539},"geometry":{"x":182026.66000000108,"y":2540140.25}},{"attributes":{"ID":641567,"DIS_CODE":0,"TOWNNAME":"關廟區","LI":"北勢里","LIN":"20鄰","STREET":"成功路","SECT":" ","MAREA":" ","LANE":" ","ALLEY":" ","HOUSE_NO":"３３５號","E_COORD97":181304.37,"N_COORD97":2540492.27,"ADDRESS":"成功路３３５號","OBJECTID":641540},"geometry":{"x":181304.37000000011,"y":2540492.2699999996}},{"attributes":{"ID":641568,"DIS_CODE":0,"TOWNNAME":"關廟區","LI":"香洋里","LIN":"13鄰","STREET":"中山路","SECT":"一段","MAREA":" ","LANE":" ","ALLEY":" ","HOUSE_NO":"６３６號","E_COORD97":181106.76000000001,"N_COORD97":2540003.2799999998,"ADDRESS":"中山路一段６３６號","OBJECTID":641541},"geometry":{"x":181106.76000000071,"y":2540003.2799999993}},{"attributes":{"ID":641569,"DIS_CODE":0,"TOWNNAME":"關廟區","LI":"北勢里","LIN":"4鄰","STREET":"北美街","SECT":" ","MAREA":" ","LANE":" ","ALLEY":" ","HOUSE_NO":"１０號","E_COORD97":181496.23999999999,"N_COORD97":2540287.2999999998,"ADDRESS":"北美街１０號","OBJECTID":641542},"geometry":{"x":181496.24000000115,"y":2540287.3000000026}},{"attributes":{"ID":641570,"DIS_CODE":0,"TOWNNAME":"關廟區","LI":"北花里","LIN":"14鄰","STREET":"花園三街","SECT":" ","MAREA":" ","LANE":" ","ALLEY":" ","HOUSE_NO":"２３號","E_COORD97":181980.64000000001,"N_COORD97":2540445.25,"ADDRESS":"花園三街２３號","OBJECTID":641543},"geometry":{"x":181980.6400000006,"y":2540445.25}},{"attributes":{"ID":641571,"DIS_CODE":0,"TOWNNAME":"關廟區","LI":"山西里","LIN":"4鄰","STREET":"文衡路","SECT":" ","MAREA":" ","LANE":" ","ALLEY":" ","HOUSE_NO":"７９號","E_COORD97":180892.79000000001,"N_COORD97":2540262.3300000001,"ADDRESS":"文衡路７９號","OBJECTID":641544},"geometry":{"x":180892.79000000004,"y":2540262.3300000038}},{"attributes":{"ID":641572,"DIS_CODE":0,"TOWNNAME":"關廟區","LI":"山西里","LIN":"18鄰","STREET":"崇明街","SECT":" ","MAREA":" ","LANE":" ","ALLEY":" ","HOUSE_NO":"２９號","E_COORD97":181004.12,"N_COORD97":2540711.25,"ADDRESS":"崇明街２９號","OBJECTID":641545},"geometry":{"x":181004.12000000011,"y":2540711.2500000019}},{"attributes":{"ID":641573,"DIS_CODE":0,"TOWNNAME":"關廟區","LI":"香洋里","LIN":"25鄰","STREET":"南雄路","SECT":"一段","MAREA":" ","LANE":" ","ALLEY":" ","HOUSE_NO":"１１６０號","E_COORD97":181076.64000000001,"N_COORD97":2539918.2799999998,"ADDRESS":"南雄路一段１１６０號","OBJECTID":641546},"geometry":{"x":181076.63999999966,"y":2539918.2799999993}},{"attributes":{"ID":641574,"DIS_CODE":0,"TOWNNAME":"關廟區","LI":"香洋里","LIN":"25鄰","STREET":"中山路","SECT":"二段","MAREA":" ","LANE":" ","ALLEY":" ","HOUSE_NO":"３１號","E_COORD97":181006.10999999999,"N_COORD97":2539971.2799999998,"ADDRESS":"中山路二段３１號","OBJECTID":641547},"geometry":{"x":181006.11000000034,"y":2539971.2800000012}},{"attributes":{"ID":641575,"DIS_CODE":0,"TOWNNAME":"關廟區","LI":"北勢里","LIN":"24鄰","STREET":"北美街","SECT":" ","MAREA":" ","LANE":" ","ALLEY":" ","HOUSE_NO":"１７號","E_COORD97":181475.44,"N_COORD97":2540308.2999999998,"ADDRESS":"北美街１７號","OBJECTID":641548},"geometry":{"x":181475.44000000041,"y":2540308.3000000026}},{"attributes":{"ID":641576,"DIS_CODE":0,"TOWNNAME":"關廟區","LI":"香洋里","LIN":"25鄰","STREET":"中山路","SECT":"二段","MAREA":" ","LANE":" ","ALLEY":" ","HOUSE_NO":"３７號","E_COORD97":181030.70999999999,"N_COORD97":2539978.2799999998,"ADDRESS":"中山路二段３７號","OBJECTID":641549},"geometry":{"x":181030.70999999996,"y":2539978.2800000012}},{"attributes":{"ID":641577,"DIS_CODE":0,"TOWNNAME":"關廟區","LI":"香洋里","LIN":"13鄰","STREET":"南雄路","SECT":"二段","MAREA":" ","LANE":" ","ALLEY":" ","HOUSE_NO":"２０號","E_COORD97":181100.94,"N_COORD97":2540051.2799999998,"ADDRESS":"南雄路二段２０號","OBJECTID":641550},"geometry":{"x":181100.94000000227,"y":2540051.2799999975}},{"attributes":{"ID":641578,"DIS_CODE":0,"TOWNNAME":"關廟區","LI":"五甲里","LIN":"1鄰","STREET":"和平路","SECT":" ","MAREA":" ","LANE":" ","ALLEY":" ","HOUSE_NO":"１號","E_COORD97":181723.34,"N_COORD97":2539294.25,"ADDRESS":"和平路１號","OBJECTID":641551},"geometry":{"x":181723.34000000078,"y":2539294.2500000019}},{"attributes":{"ID":641579,"DIS_CODE":0,"TOWNNAME":"關廟區","LI":"五甲里","LIN":"4鄰","STREET":"南雄路","SECT":"一段","MAREA":" ","LANE":" ","ALLEY":" ","HOUSE_NO":"８０６號","E_COORD97":181401.98999999999,"N_COORD97":2539099.2799999998,"ADDRESS":"南雄路一段８０６號","OBJECTID":641552},"geometry":{"x":181401.99000000022,"y":2539099.2800000012}},{"attributes":{"ID":641580,"DIS_CODE":0,"TOWNNAME":"關廟區","LI":"香洋里","LIN":"4鄰","STREET":"南雄路","SECT":"二段","MAREA":" ","LANE":" ","ALLEY":" ","HOUSE_NO":"１８６號","E_COORD97":181187.39000000001,"N_COORD97":2540465.2799999998,"ADDRESS":"南雄路二段１８６號","OBJECTID":641553},"geometry":{"x":181187.3900000006,"y":2540465.2800000031}},{"attributes":{"ID":641581,"DIS_CODE":0,"TOWNNAME":"關廟區","LI":"南花里","LIN":"13鄰","STREET":"花園一街","SECT":" ","MAREA":" ","LANE":" ","ALLEY":" ","HOUSE_NO":"１７６號","E_COORD97":181696.39000000001,"N_COORD97":2540167.25,"ADDRESS":"花園一街１７６號","OBJECTID":641554},"geometry":{"x":181696.38999999966,"y":2540167.25}},{"attributes":{"ID":641582,"DIS_CODE":0,"TOWNNAME":"關廟區","LI":"關廟里","LIN":"4鄰","STREET":"文衡路","SECT":" ","MAREA":" ","LANE":" ","ALLEY":" ","HOUSE_NO":"２７號","E_COORD97":180880.48999999999,"N_COORD97":2540135.3300000001,"ADDRESS":"文衡路２７號","OBJECTID":641555},"geometry":{"x":180880.49000000115,"y":2540135.3300000001}},{"attributes":{"ID":641583,"DIS_CODE":0,"TOWNNAME":"關廟區","LI":"香洋里","LIN":"18鄰","STREET":"中央路","SECT":" ","MAREA":" ","LANE":" ","ALLEY":" ","HOUSE_NO":"１０號","E_COORD97":181631.20999999999,"N_COORD97":2539989.3199999998,"ADDRESS":"中央路１０號","OBJECTID":641556},"geometry":{"x":181631.21000000089,"y":2539989.3200000022}},{"attributes":{"ID":641584,"DIS_CODE":0,"TOWNNAME":"關廟區","LI":"香洋里","LIN":"25鄰","STREET":"中山路","SECT":"二段","MAREA":" ","LANE":" ","ALLEY":" ","HOUSE_NO":"４９號","E_COORD97":181023.81,"N_COORD97":2539932.2799999998,"ADDRESS":"中山路二段４９號","OBJECTID":641557},"geometry":{"x":181023.81000000052,"y":2539932.2799999993}},{"attributes":{"ID":641585,"DIS_CODE":0,"TOWNNAME":"關廟區","LI":"香洋里","LIN":"13鄰","STREET":"中山路","SECT":"一段","MAREA":" ","LANE":" ","ALLEY":" ","HOUSE_NO":"６２２號","E_COORD97":181132.45999999999,"N_COORD97":2539995.2799999998,"ADDRESS":"中山路一段６２２號","OBJECTID":641558},"geometry":{"x":181132.45999999903,"y":2539995.2800000012}},{"attributes":{"ID":641586,"DIS_CODE":0,"TOWNNAME":"關廟區","LI":"北勢里","LIN":"4鄰","STREET":"北仁街","SECT":" ","MAREA":" ","LANE":" ","ALLEY":" ","HOUSE_NO":"６０號","E_COORD97":181515.04000000001,"N_COORD97":2540332.25,"ADDRESS":"北仁街６０號","OBJECTID":641559},"geometry":{"x":181515.04000000004,"y":2540332.25}},{"attributes":{"ID":641587,"DIS_CODE":0,"TOWNNAME":"關廟區","LI":"東勢里","LIN":"18鄰","STREET":"東德街","SECT":" ","MAREA":" ","LANE":" ","ALLEY":" ","HOUSE_NO":"７７號","E_COORD97":181901.92000000001,"N_COORD97":2539253.27,"ADDRESS":"東德街７７號","OBJECTID":641560},"geometry":{"x":181901.91999999993,"y":2539253.2700000014}},{"attributes":{"ID":641588,"DIS_CODE":0,"TOWNNAME":"關廟區","LI":"北勢里","LIN":"20鄰","STREET":"北新街","SECT":" ","MAREA":" ","LANE":" ","ALLEY":" ","HOUSE_NO":"５９號","E_COORD97":181304.34,"N_COORD97":2540423.25,"ADDRESS":"北新街５９號","OBJECTID":641561},"geometry":{"x":181304.33999999985,"y":2540423.2500000019}},{"attributes":{"ID":641589,"DIS_CODE":0,"TOWNNAME":"關廟區","LI":"松腳里","LIN":"14鄰","STREET":"四維街","SECT":" ","MAREA":" ","LANE":" ","ALLEY":" ","HOUSE_NO":"８９號","E_COORD97":181875.70999999999,"N_COORD97":2539669.25,"ADDRESS":"四維街８９號","OBJECTID":641562},"geometry":{"x":181875.71000000089,"y":2539669.2500000037}},{"attributes":{"ID":641590,"DIS_CODE":0,"TOWNNAME":"關廟區","LI":"五甲里","LIN":"8鄰","STREET":"五慧街","SECT":" ","MAREA":" ","LANE":" ","ALLEY":" ","HOUSE_NO":"６５號","E_COORD97":181126.51999999999,"N_COORD97":2539242.25,"ADDRESS":"五慧街６５號","OBJECTID":641563},"geometry":{"x":181126.51999999862,"y":2539242.2500000037}},{"attributes":{"ID":641591,"DIS_CODE":0,"TOWNNAME":"關廟區","LI":"龜洞里","LIN":"4鄰","STREET":"南雄南路","SECT":" ","MAREA":" ","LANE":" ","ALLEY":" ","HOUSE_NO":"８５８號","E_COORD97":182723.48999999999,"N_COORD97":2533171.2999999998,"ADDRESS":"南雄南路８５８號","OBJECTID":641564},"geometry":{"x":182723.49000000115,"y":2533171.3000000026}},{"attributes":{"ID":641592,"DIS_CODE":0,"TOWNNAME":"關廟區","LI":"香洋里","LIN":"20鄰","STREET":"中山路","SECT":"一段","MAREA":" ","LANE":" ","ALLEY":" ","HOUSE_NO":"１９１號","E_COORD97":181502.16,"N_COORD97":2539865.2799999998,"ADDRESS":"中山路一段１９１號","OBJECTID":641565},"geometry":{"x":181502.16000000015,"y":2539865.2800000031}},{"attributes":{"ID":641593,"DIS_CODE":0,"TOWNNAME":"關廟區","LI":"北勢里","LIN":"24鄰","STREET":"北美街","SECT":" ","MAREA":" ","LANE":" ","ALLEY":" ","HOUSE_NO":"４５號","E_COORD97":181473.54000000001,"N_COORD97":2540395.2999999998,"ADDRESS":"北美街４５號","OBJECTID":641566},"geometry":{"x":181473.54000000097,"y":2540395.3000000045}},{"attributes":{"ID":641594,"DIS_CODE":0,"TOWNNAME":"關廟區","LI":"東勢里","LIN":"4鄰","STREET":"東興路","SECT":" ","MAREA":" ","LANE":" ","ALLEY":" ","HOUSE_NO":"２３２號","E_COORD97":181720.07000000001,"N_COORD97":2539552.25,"ADDRESS":"東興路２３２號","OBJECTID":641567},"geometry":{"x":181720.0700000003,"y":2539552.2500000019}},{"attributes":{"ID":641595,"DIS_CODE":0,"TOWNNAME":"關廟區","LI":"南花里","LIN":"14鄰","STREET":"和平路","SECT":" ","MAREA":" ","LANE":" ","ALLEY":" ","HOUSE_NO":"３２０號","E_COORD97":181655.54000000001,"N_COORD97":2540071.25,"ADDRESS":"和平路３２０號","OBJECTID":641568},"geometry":{"x":181655.54000000004,"y":2540071.25}},{"attributes":{"ID":641596,"DIS_CODE":0,"TOWNNAME":"關廟區","LI":"山西里","LIN":"4鄰","STREET":"文衡路","SECT":" ","MAREA":" ","LANE":" ","ALLEY":" ","HOUSE_NO":"７３號","E_COORD97":180891.59,"N_COORD97":2540249.3300000001,"ADDRESS":"文衡路７３號","OBJECTID":641569},"geometry":{"x":180891.59000000078,"y":2540249.3300000019}},{"attributes":{"ID":641597,"DIS_CODE":0,"TOWNNAME":"關廟區","LI":"香洋里","LIN":"20鄰","STREET":"中山路","SECT":"一段","MAREA":" ","LANE":" ","ALLEY":" ","HOUSE_NO":"４２０號","E_COORD97":181495.27088600001,"N_COORD97":2539889.13766,"ADDRESS":"中山路一段４２０號","OBJECTID":641570},"geometry":{"x":181495.27088600025,"y":2539889.1376560014}},{"attributes":{"ID":641598,"DIS_CODE":0,"TOWNNAME":"關廟區","LI":"東勢里","LIN":"26鄰","STREET":"東安街","SECT":" ","MAREA":" ","LANE":" ","ALLEY":" ","HOUSE_NO":"４５號","E_COORD97":181440.51999999999,"N_COORD97":2539774.3199999998,"ADDRESS":"東安街４５號","OBJECTID":641571},"geometry":{"x":181440.52000000048,"y":2539774.320000004}},{"attributes":{"ID":641599,"DIS_CODE":0,"TOWNNAME":"關廟區","LI":"東勢里","LIN":"26鄰","STREET":"東安街","SECT":" ","MAREA":" ","LANE":" ","ALLEY":" ","HOUSE_NO":"１０３號","E_COORD97":181435.67000000001,"N_COORD97":2539643.3199999998,"ADDRESS":"東安街１０３號","OBJECTID":641572},"geometry":{"x":181435.66999999993,"y":2539643.3200000022}},{"attributes":{"ID":641600,"DIS_CODE":0,"TOWNNAME":"關廟區","LI":"南花里","LIN":"14鄰","STREET":"和平路","SECT":" ","MAREA":" ","LANE":" ","ALLEY":" ","HOUSE_NO":"３３６號","E_COORD97":181652.14000000001,"N_COORD97":2540108.25,"ADDRESS":"和平路３３６號","OBJECTID":641573},"geometry":{"x":181652.1400000006,"y":2540108.2500000019}},{"attributes":{"ID":641601,"DIS_CODE":0,"TOWNNAME":"關廟區","LI":"關廟里","LIN":"13鄰","STREET":"大仁街","SECT":" ","MAREA":" ","LANE":" ","ALLEY":" ","HOUSE_NO":"１１５號","E_COORD97":181034.17000000001,"N_COORD97":2539389.25,"ADDRESS":"大仁街１１５號","OBJECTID":641574},"geometry":{"x":181034.16999999993,"y":2539389.2500000019}},{"attributes":{"ID":641602,"DIS_CODE":0,"TOWNNAME":"關廟區","LI":"關廟里","LIN":"13鄰","STREET":"大仁街","SECT":" ","MAREA":" ","LANE":" ","ALLEY":" ","HOUSE_NO":"１１０號","E_COORD97":181035.67000000001,"N_COORD97":2539410.25,"ADDRESS":"大仁街１１０號","OBJECTID":641575},"geometry":{"x":181035.66999999993,"y":2539410.25}},{"attributes":{"ID":641603,"DIS_CODE":0,"TOWNNAME":"關廟區","LI":"北勢里","LIN":"24鄰","STREET":"北美街","SECT":" ","MAREA":" ","LANE":" ","ALLEY":" ","HOUSE_NO":"３１號","E_COORD97":181472.04000000001,"N_COORD97":2540365.2999999998,"ADDRESS":"北美街３１號","OBJECTID":641576},"geometry":{"x":181472.04000000004,"y":2540365.3000000026}},{"attributes":{"ID":641604,"DIS_CODE":0,"TOWNNAME":"關廟區","LI":"東勢里","LIN":"4鄰","STREET":"和平路","SECT":" ","MAREA":" ","LANE":" ","ALLEY":" ","HOUSE_NO":"７２號","E_COORD97":181724.89000000001,"N_COORD97":2539436.25,"ADDRESS":"和平路７２號","OBJECTID":641577},"geometry":{"x":181724.8900000006,"y":2539436.2500000019}},{"attributes":{"ID":641605,"DIS_CODE":0,"TOWNNAME":"關廟區","LI":"五甲里","LIN":"5鄰","STREET":"五福路","SECT":" ","MAREA":" ","LANE":" ","ALLEY":" ","HOUSE_NO":"９號","E_COORD97":181361.76999999999,"N_COORD97":2538921.25,"ADDRESS":"五福路９號","OBJECTID":641578},"geometry":{"x":181361.76999999955,"y":2538921.2500000019}},{"attributes":{"ID":641606,"DIS_CODE":0,"TOWNNAME":"關廟區","LI":"東勢里","LIN":"18鄰","STREET":"東德街","SECT":" ","MAREA":" ","LANE":" ","ALLEY":" ","HOUSE_NO":"７１號","E_COORD97":181911.51999999999,"N_COORD97":2539260.27,"ADDRESS":"東德街７１號","OBJECTID":641579},"geometry":{"x":181911.52000000142,"y":2539260.2699999996}},{"attributes":{"ID":641607,"DIS_CODE":0,"TOWNNAME":"關廟區","LI":"香洋里","LIN":"20鄰","STREET":"中山路","SECT":"一段","MAREA":" ","LANE":" ","ALLEY":" ","HOUSE_NO":"４０２號","E_COORD97":181532.06,"N_COORD97":2539879.2799999998,"ADDRESS":"中山路一段４０２號","OBJECTID":641580},"geometry":{"x":181532.06000000052,"y":2539879.2800000012}},{"attributes":{"ID":641608,"DIS_CODE":0,"TOWNNAME":"關廟區","LI":"關廟里","LIN":"13鄰","STREET":"大富街","SECT":" ","MAREA":" ","LANE":" ","ALLEY":" ","HOUSE_NO":"１９７號","E_COORD97":181049.17000000001,"N_COORD97":2539464.25,"ADDRESS":"大富街１９７號","OBJECTID":641581},"geometry":{"x":181049.16999999993,"y":2539464.25}},{"attributes":{"ID":641609,"DIS_CODE":0,"TOWNNAME":"關廟區","LI":"香洋里","LIN":"24鄰","STREET":"民族街","SECT":" ","MAREA":" ","LANE":" ","ALLEY":" ","HOUSE_NO":"２７６號","E_COORD97":181131.19,"N_COORD97":2539922.29,"ADDRESS":"民族街２７６號","OBJECTID":641582},"geometry":{"x":181131.19000000041,"y":2539922.2900000028}},{"attributes":{"ID":641610,"DIS_CODE":0,"TOWNNAME":"關廟區","LI":"關廟里","LIN":"13鄰","STREET":"大富街","SECT":" ","MAREA":" ","LANE":" ","ALLEY":" ","HOUSE_NO":"１８９號","E_COORD97":181048.37,"N_COORD97":2539435.25,"ADDRESS":"大富街１８９號","OBJECTID":641583},"geometry":{"x":181048.37000000011,"y":2539435.2500000037}},{"attributes":{"ID":641611,"DIS_CODE":0,"TOWNNAME":"關廟區","LI":"香洋里","LIN":"24鄰","STREET":"中山路","SECT":"一段","MAREA":" ","LANE":" ","ALLEY":" ","HOUSE_NO":"３９７號","E_COORD97":181104.04999999999,"N_COORD97":2539977.9399999999,"ADDRESS":"中山路一段３９７號","OBJECTID":641584},"geometry":{"x":181104.04999999981,"y":2539977.9399999995}},{"attributes":{"ID":641612,"DIS_CODE":0,"TOWNNAME":"關廟區","LI":"東勢里","LIN":"14鄰","STREET":"東榮街","SECT":" ","MAREA":" ","LANE":" ","ALLEY":" ","HOUSE_NO":"１５０號","E_COORD97":182179.57000000001,"N_COORD97":2539346.25,"ADDRESS":"東榮街１５０號","OBJECTID":641585},"geometry":{"x":182179.5700000003,"y":2539346.25}},{"attributes":{"ID":641613,"DIS_CODE":0,"TOWNNAME":"關廟區","LI":"香洋里","LIN":"20鄰","STREET":"中央路","SECT":" ","MAREA":" ","LANE":" ","ALLEY":" ","HOUSE_NO":"４５號","E_COORD97":181541.81,"N_COORD97":2539966.3199999998,"ADDRESS":"中央路４５號","OBJECTID":641586},"geometry":{"x":181541.81000000145,"y":2539966.3200000003}},{"attributes":{"ID":641614,"DIS_CODE":0,"TOWNNAME":"關廟區","LI":"香洋里","LIN":"20鄰","STREET":"中山路","SECT":"一段","MAREA":" ","LANE":" ","ALLEY":" ","HOUSE_NO":"１６３號","E_COORD97":181552.85999999999,"N_COORD97":2539859.2799999998,"ADDRESS":"中山路一段１６３號","OBJECTID":641587},"geometry":{"x":181552.86000000127,"y":2539859.2800000012}},{"attributes":{"ID":641615,"DIS_CODE":0,"TOWNNAME":"關廟區","LI":"香洋里","LIN":"20鄰","STREET":"中山路","SECT":"一段","MAREA":" ","LANE":" ","ALLEY":" ","HOUSE_NO":"３８６號","E_COORD97":181560.06,"N_COORD97":2539907.2799999998,"ADDRESS":"中山路一段３８６號","OBJECTID":641588},"geometry":{"x":181560.05999999959,"y":2539907.2800000012}},{"attributes":{"ID":641616,"DIS_CODE":0,"TOWNNAME":"關廟區","LI":"香洋里","LIN":"25鄰","STREET":"南雄路","SECT":"一段","MAREA":" ","LANE":" ","ALLEY":" ","HOUSE_NO":"１１６７號","E_COORD97":181061.63,"N_COORD97":2539965.9399999999,"ADDRESS":"南雄路一段１１６７號","OBJECTID":641589},"geometry":{"x":181061.62999999989,"y":2539965.9400000032}},{"attributes":{"ID":641617,"DIS_CODE":0,"TOWNNAME":"關廟區","LI":"關廟里","LIN":"13鄰","STREET":"大仁街","SECT":" ","MAREA":" ","LANE":" ","ALLEY":" ","HOUSE_NO":"１２０號","E_COORD97":181018.76999999999,"N_COORD97":2539405.25,"ADDRESS":"大仁街１２０號","OBJECTID":641590},"geometry":{"x":181018.77000000048,"y":2539405.2500000019}},{"attributes":{"ID":641618,"DIS_CODE":0,"TOWNNAME":"關廟區","LI":"南花里","LIN":"13鄰","STREET":"中正路","SECT":" ","MAREA":" ","LANE":" ","ALLEY":" ","HOUSE_NO":"８２９號","E_COORD97":181604.85999999999,"N_COORD97":2540274.25,"ADDRESS":"中正路８２９號","OBJECTID":641591},"geometry":{"x":181604.8600000022,"y":2540274.2500000019}},{"attributes":{"ID":641619,"DIS_CODE":0,"TOWNNAME":"關廟區","LI":"五甲里","LIN":"4鄰","STREET":"南雄路","SECT":"一段","MAREA":" ","LANE":" ","ALLEY":" ","HOUSE_NO":"８６６號","E_COORD97":181342.89000000001,"N_COORD97":2539204.2799999998,"ADDRESS":"南雄路一段８６６號","OBJECTID":641592},"geometry":{"x":181342.89000000153,"y":2539204.2800000012}},{"attributes":{"ID":641620,"DIS_CODE":0,"TOWNNAME":"關廟區","LI":"關廟里","LIN":"4鄰","STREET":"正義街","SECT":" ","MAREA":" ","LANE":" ","ALLEY":" ","HOUSE_NO":"１號","E_COORD97":180810.91,"N_COORD97":2540106.27,"ADDRESS":"正義街１號","OBJECTID":641593},"geometry":{"x":180810.90999999922,"y":2540106.2700000033}},{"attributes":{"ID":641621,"DIS_CODE":0,"TOWNNAME":"關廟區","LI":"松腳里","LIN":"13鄰","STREET":"和平路","SECT":" ","MAREA":" ","LANE":" ","ALLEY":" ","HOUSE_NO":"１５６號","E_COORD97":181693.54000000001,"N_COORD97":2539602.25,"ADDRESS":"和平路１５６號","OBJECTID":641594},"geometry":{"x":181693.54000000097,"y":2539602.2500000019}},{"attributes":{"ID":641622,"DIS_CODE":0,"TOWNNAME":"關廟區","LI":"松腳里","LIN":"13鄰","STREET":"和平路","SECT":" ","MAREA":" ","LANE":" ","ALLEY":" ","HOUSE_NO":"１６０號","E_COORD97":181692.84,"N_COORD97":2539614.25,"ADDRESS":"和平路１６０號","OBJECTID":641595},"geometry":{"x":181692.84000000078,"y":2539614.25}},{"attributes":{"ID":641623,"DIS_CODE":0,"TOWNNAME":"關廟區","LI":"關廟里","LIN":"14鄰","STREET":"民生街","SECT":" ","MAREA":" ","LANE":" ","ALLEY":" ","HOUSE_NO":"１０３號","E_COORD97":180890.48999999999,"N_COORD97":2539712.29,"ADDRESS":"民生街１０３號","OBJECTID":641596},"geometry":{"x":180890.49000000115,"y":2539712.2900000028}},{"attributes":{"ID":641624,"DIS_CODE":0,"TOWNNAME":"關廟區","LI":"香洋里","LIN":"20鄰","STREET":"中央路","SECT":" ","MAREA":" ","LANE":" ","ALLEY":" ","HOUSE_NO":"６０號","E_COORD97":181528.31,"N_COORD97":2539980.3199999998,"ADDRESS":"中央路６０號","OBJECTID":641597},"geometry":{"x":181528.31000000145,"y":2539980.3200000003}},{"attributes":{"ID":641625,"DIS_CODE":0,"TOWNNAME":"關廟區","LI":"東勢里","LIN":"14鄰","STREET":"東榮街","SECT":" ","MAREA":" ","LANE":" ","ALLEY":" ","HOUSE_NO":"１４８號","E_COORD97":182175.37,"N_COORD97":2539347.25,"ADDRESS":"東榮街１４８號","OBJECTID":641598},"geometry":{"x":182175.37000000011,"y":2539347.2500000037}},{"attributes":{"ID":641626,"DIS_CODE":0,"TOWNNAME":"關廟區","LI":"山西里","LIN":"13鄰","STREET":"文衡路","SECT":" ","MAREA":" ","LANE":" ","ALLEY":" ","HOUSE_NO":"１２３號","E_COORD97":180903.82000000001,"N_COORD97":2540524.7799999998,"ADDRESS":"文衡路１２３號","OBJECTID":641599},"geometry":{"x":180903.82000000123,"y":2540524.7799999993}},{"attributes":{"ID":641627,"DIS_CODE":0,"TOWNNAME":"關廟區","LI":"山西里","LIN":"4鄰","STREET":"文衡路","SECT":" ","MAREA":" ","LANE":" ","ALLEY":" ","HOUSE_NO":"７７號","E_COORD97":180892.39000000001,"N_COORD97":2540258.3300000001,"ADDRESS":"文衡路７７號","OBJECTID":641600},"geometry":{"x":180892.3900000006,"y":2540258.3300000001}}]}