{"displayFieldName":"TOWNNAME","fieldAliases":{"ID":"ID","DIS_CODE":"DIS_CODE","TOWNNAME":"TOWNNAME","LI":"LI","LIN":"LIN","STREET":"STREET","SECT":"SECT","MAREA":"MAREA","LANE":"LANE","ALLEY":"ALLEY","HOUSE_NO":"HOUSE_NO","E_COORD97":"E_COORD97","N_COORD97":"N_COORD97","ADDRESS":"ADDRESS","OBJECTID":"OBJECTID"},"geometryType":"esriGeometryPoint","spatialReference":{"wkid":102443,"latestWkid":3826},"fields":[{"name":"ID","type":"esriFieldTypeDouble","alias":"ID"},{"name":"DIS_CODE","type":"esriFieldTypeInteger","alias":"DIS_CODE"},{"name":"TOWNNAME","type":"esriFieldTypeString","alias":"TOWNNAME","length":8},{"name":"LI","type":"esriFieldTypeString","alias":"LI","length":8},{"name":"LIN","type":"esriFieldTypeString","alias":"LIN","length":12},{"name":"STREET","type":"esriFieldTypeString","alias":"STREET","length":20},{"name":"SECT","type":"esriFieldTypeString","alias":"SECT","length":8},{"name":"MAREA","type":"esriFieldTypeString","alias":"MAREA","length":12},{"name":"LANE","type":"esriFieldTypeString","alias":"LANE","length":10},{"name":"ALLEY","type":"esriFieldTypeString","alias":"ALLEY","length":10},{"name":"HOUSE_NO","type":"esriFieldTypeString","alias":"HOUSE_NO","length":20},{"name":"E_COORD97","type":"esriFieldTypeDouble","alias":"E_COORD97"},{"name":"N_COORD97","type":"esriFieldTypeDouble","alias":"N_COORD97"},{"name":"ADDRESS","type":"esriFieldTypeString","alias":"ADDRESS","length":50},{"name":"OBJECTID","type":"esriFieldTypeOID","alias":"OBJECTID"}],"features":[{"attributes":{"ID":650228,"DIS_CODE":0,"TOWNNAME":"仁德區","LI":"土庫里","LIN":"13鄰","STREET":"土庫路","SECT":" ","MAREA":" ","LANE":" ","ALLEY":" ","HOUSE_NO":"２１５之３號","E_COORD97":174259.63360999999,"N_COORD97":2542866.2815899998,"ADDRESS":"土庫路２１５之３號","OBJECTID":650201},"geometry":{"x":174259.63361000177,"y":2542866.2815900017}},{"attributes":{"ID":650229,"DIS_CODE":0,"TOWNNAME":"仁德區","LI":"土庫里","LIN":"13鄰","STREET":"土庫路","SECT":" ","MAREA":" ","LANE":" ","ALLEY":" ","HOUSE_NO":"２１５之５號","E_COORD97":174256.45499,"N_COORD97":2542862.8949199999,"ADDRESS":"土庫路２１５之５號","OBJECTID":650202},"geometry":{"x":174256.45499000046,"y":2542862.8949200008}},{"attributes":{"ID":650230,"DIS_CODE":0,"TOWNNAME":"仁德區","LI":"土庫里","LIN":"13鄰","STREET":"土庫路","SECT":" ","MAREA":" ","LANE":" ","ALLEY":" ","HOUSE_NO":"２１５之６號","E_COORD97":174252.21682999999,"N_COORD97":2542859.2965899999,"ADDRESS":"土庫路２１５之６號","OBJECTID":650203},"geometry":{"x":174252.21683000028,"y":2542859.2965900023}},{"attributes":{"ID":650231,"DIS_CODE":0,"TOWNNAME":"仁德區","LI":"土庫里","LIN":"13鄰","STREET":"土庫路","SECT":" ","MAREA":" ","LANE":"２２１巷","ALLEY":" ","HOUSE_NO":"１２８號","E_COORD97":174329.49839600001,"N_COORD97":2542683.4903899999,"ADDRESS":"土庫路２２１巷１２８號","OBJECTID":650204},"geometry":{"x":174329.49839600176,"y":2542683.4903880004}},{"attributes":{"ID":650232,"DIS_CODE":0,"TOWNNAME":"仁德區","LI":"土庫里","LIN":"13鄰","STREET":"土庫路","SECT":" ","MAREA":" ","LANE":" ","ALLEY":" ","HOUSE_NO":"２４１號","E_COORD97":174161.45521799999,"N_COORD97":2542757.4678500001,"ADDRESS":"土庫路２４１號","OBJECTID":650205},"geometry":{"x":174161.45521800127,"y":2542757.4678479992}},{"attributes":{"ID":650233,"DIS_CODE":0,"TOWNNAME":"善化區","LI":"東關里","LIN":"1鄰","STREET":"中正路","SECT":" ","MAREA":" ","LANE":"６９１巷","ALLEY":" ","HOUSE_NO":"６０號","E_COORD97":177614.91288300001,"N_COORD97":2559878.4609699999,"ADDRESS":"中正路６９１巷６０號","OBJECTID":650206},"geometry":{"x":177614.91288300045,"y":2559878.4609690029}},{"attributes":{"ID":650234,"DIS_CODE":0,"TOWNNAME":"善化區","LI":"牛庄里","LIN":"14鄰","STREET":" ","SECT":" ","MAREA":"牛庄","LANE":" ","ALLEY":" ","HOUSE_NO":"２１０號","E_COORD97":179703.479792,"N_COORD97":2559487.9361800002,"ADDRESS":"牛庄２１０號","OBJECTID":650207},"geometry":{"x":179703.47979199979,"y":2559487.9361800011}},{"attributes":{"ID":650235,"DIS_CODE":0,"TOWNNAME":"中西區","LI":"水仙里","LIN":"18鄰","STREET":"民族路","SECT":"三段","MAREA":" ","LANE":" ","ALLEY":" ","HOUSE_NO":"３３號","E_COORD97":167823.478359,"N_COORD97":2544273.4270299999,"ADDRESS":"民族路三段３３號","OBJECTID":650208},"geometry":{"x":167823.47835900169,"y":2544273.4270300008}},{"attributes":{"ID":650236,"DIS_CODE":0,"TOWNNAME":"新化區","LI":"知義里","LIN":"13鄰","STREET":" ","SECT":" ","MAREA":"口埤","LANE":" ","ALLEY":" ","HOUSE_NO":"７０號之１５","E_COORD97":183789.91204200001,"N_COORD97":2546953.0334600001,"ADDRESS":"口埤７０號之１５","OBJECTID":650209},"geometry":{"x":183789.91204200126,"y":2546953.0334559996}},{"attributes":{"ID":650237,"DIS_CODE":0,"TOWNNAME":"關廟區","LI":"南花里","LIN":"11鄰","STREET":"明德街","SECT":" ","MAREA":" ","LANE":"１５巷","ALLEY":" ","HOUSE_NO":"１７號","E_COORD97":181836.890613,"N_COORD97":2540008.75189,"ADDRESS":"明德街１５巷１７號","OBJECTID":650210},"geometry":{"x":181836.89061299991,"y":2540008.7518900018}},{"attributes":{"ID":650238,"DIS_CODE":0,"TOWNNAME":"新化區","LI":"知義里","LIN":"13鄰","STREET":" ","SECT":" ","MAREA":"口埤","LANE":" ","ALLEY":" ","HOUSE_NO":"７０號之１６","E_COORD97":183779.318444,"N_COORD97":2546963.8284499999,"ADDRESS":"口埤７０號之１６","OBJECTID":650211},"geometry":{"x":183779.31844400056,"y":2546963.8284500036}},{"attributes":{"ID":650239,"DIS_CODE":0,"TOWNNAME":"新營區","LI":"新南里","LIN":"10鄰","STREET":"新北五街","SECT":" ","MAREA":" ","LANE":" ","ALLEY":" ","HOUSE_NO":"３０號","E_COORD97":178632.48140300001,"N_COORD97":2578943.6238199999,"ADDRESS":"新北五街３０號","OBJECTID":650212},"geometry":{"x":178632.48140300065,"y":2578943.6238220017}},{"attributes":{"ID":650240,"DIS_CODE":0,"TOWNNAME":"新營區","LI":"新南里","LIN":"10鄰","STREET":"新北五街","SECT":" ","MAREA":" ","LANE":" ","ALLEY":" ","HOUSE_NO":"３０之１號","E_COORD97":178634.60022600001,"N_COORD97":2578946.1638199999,"ADDRESS":"新北五街３０之１號","OBJECTID":650213},"geometry":{"x":178634.60022599995,"y":2578946.1638210006}},{"attributes":{"ID":650241,"DIS_CODE":0,"TOWNNAME":"新營區","LI":"新南里","LIN":"10鄰","STREET":"新北五街","SECT":" ","MAREA":" ","LANE":" ","ALLEY":" ","HOUSE_NO":"３６號","E_COORD97":178638.83786999999,"N_COORD97":2578950.3971500001,"ADDRESS":"新北五街３６號","OBJECTID":650214},"geometry":{"x":178638.83787000086,"y":2578950.3971519992}},{"attributes":{"ID":650242,"DIS_CODE":0,"TOWNNAME":"關廟區","LI":"南花里","LIN":"4鄰","STREET":"花園一街","SECT":" ","MAREA":" ","LANE":"８９巷","ALLEY":"１７弄","HOUSE_NO":"５號","E_COORD97":181931.94607000001,"N_COORD97":2540113.5532900002,"ADDRESS":"花園一街８９巷１７弄５號","OBJECTID":650215},"geometry":{"x":181931.94607000053,"y":2540113.5532899983}},{"attributes":{"ID":650243,"DIS_CODE":0,"TOWNNAME":"新營區","LI":"新南里","LIN":"14鄰","STREET":"民治路","SECT":" ","MAREA":" ","LANE":"２３０巷","ALLEY":" ","HOUSE_NO":"３１號","E_COORD97":178740.32944999999,"N_COORD97":2578612.0481599998,"ADDRESS":"民治路２３０巷３１號","OBJECTID":650216},"geometry":{"x":178740.32945000101,"y":2578612.0481599998}},{"attributes":{"ID":650244,"DIS_CODE":0,"TOWNNAME":"新化區","LI":"東榮里","LIN":"26鄰","STREET":"和平街","SECT":" ","MAREA":" ","LANE":"４５巷","ALLEY":" ","HOUSE_NO":"２５號之１","E_COORD97":179259.38776799999,"N_COORD97":2548075.1505900002,"ADDRESS":"和平街４５巷２５號之１","OBJECTID":650217},"geometry":{"x":179259.3877680013,"y":2548075.1505880021}},{"attributes":{"ID":650245,"DIS_CODE":0,"TOWNNAME":"新營區","LI":"新南里","LIN":"14鄰","STREET":"民治路","SECT":" ","MAREA":" ","LANE":"２３０巷","ALLEY":" ","HOUSE_NO":"３３號","E_COORD97":178736.51557399999,"N_COORD97":2578614.27067,"ADDRESS":"民治路２３０巷３３號","OBJECTID":650218},"geometry":{"x":178736.51557400078,"y":2578614.2706669997}},{"attributes":{"ID":650246,"DIS_CODE":0,"TOWNNAME":"新營區","LI":"新南里","LIN":"14鄰","STREET":"民治路","SECT":" ","MAREA":" ","LANE":"２３０巷","ALLEY":" ","HOUSE_NO":"３５號","E_COORD97":178732.91357599999,"N_COORD97":2578617.0223300001,"ADDRESS":"民治路２３０巷３５號","OBJECTID":650219},"geometry":{"x":178732.9135760013,"y":2578617.0223320015}},{"attributes":{"ID":650247,"DIS_CODE":0,"TOWNNAME":"新化區","LI":"東榮里","LIN":"29鄰","STREET":"中興路","SECT":" ","MAREA":" ","LANE":" ","ALLEY":" ","HOUSE_NO":"７７６號","E_COORD97":179312.91032699999,"N_COORD97":2548247.6588300001,"ADDRESS":"中興路７７６號","OBJECTID":650220},"geometry":{"x":179312.91032699961,"y":2548247.6588279977}},{"attributes":{"ID":650248,"DIS_CODE":0,"TOWNNAME":"新化區","LI":"知義里","LIN":"14鄰","STREET":"復興路","SECT":" ","MAREA":" ","LANE":"１１４巷","ALLEY":" ","HOUSE_NO":"６號","E_COORD97":179829.88313599999,"N_COORD97":2547766.3014500001,"ADDRESS":"復興路１１４巷６號","OBJECTID":650221},"geometry":{"x":179829.88313599955,"y":2547766.3014480006}},{"attributes":{"ID":650249,"DIS_CODE":0,"TOWNNAME":"新化區","LI":"東榮里","LIN":"3鄰","STREET":"中興路","SECT":" ","MAREA":" ","LANE":"１０４巷","ALLEY":" ","HOUSE_NO":"７８號","E_COORD97":181910.386841,"N_COORD97":2547461.5320100002,"ADDRESS":"中興路１０４巷７８號","OBJECTID":650222},"geometry":{"x":181910.38684100099,"y":2547461.5320079997}},{"attributes":{"ID":650250,"DIS_CODE":0,"TOWNNAME":"仁德區","LI":"二行里","LIN":"9鄰","STREET":"中正西路","SECT":" ","MAREA":" ","LANE":"２１１巷","ALLEY":" ","HOUSE_NO":"５９號一樓","E_COORD97":170081.900414,"N_COORD97":2535207.24028,"ADDRESS":"中正西路２１１巷５９號一樓","OBJECTID":650223},"geometry":{"x":170081.9004140012,"y":2535207.2402810007}},{"attributes":{"ID":650251,"DIS_CODE":0,"TOWNNAME":"仁德區","LI":"二行里","LIN":"9鄰","STREET":"中正西路","SECT":" ","MAREA":" ","LANE":"２１１巷","ALLEY":" ","HOUSE_NO":"５９號二樓","E_COORD97":170081.90041,"N_COORD97":2535207.24028,"ADDRESS":"中正西路２１１巷５９號二樓","OBJECTID":650224},"geometry":{"x":170081.90041000023,"y":2535207.2402800024}},{"attributes":{"ID":650252,"DIS_CODE":0,"TOWNNAME":"仁德區","LI":"二行里","LIN":"9鄰","STREET":"中正西路","SECT":" ","MAREA":" ","LANE":"２１１巷","ALLEY":" ","HOUSE_NO":"５９號三樓","E_COORD97":170081.90041,"N_COORD97":2535207.24028,"ADDRESS":"中正西路２１１巷５９號三樓","OBJECTID":650225},"geometry":{"x":170081.90041000023,"y":2535207.2402800024}},{"attributes":{"ID":650253,"DIS_CODE":0,"TOWNNAME":"仁德區","LI":"二行里","LIN":"9鄰","STREET":"中正西路","SECT":" ","MAREA":" ","LANE":"２１１巷","ALLEY":" ","HOUSE_NO":"５９號四樓","E_COORD97":170081.90041,"N_COORD97":2535207.24028,"ADDRESS":"中正西路２１１巷５９號四樓","OBJECTID":650226},"geometry":{"x":170081.90041000023,"y":2535207.2402800024}},{"attributes":{"ID":650254,"DIS_CODE":0,"TOWNNAME":"仁德區","LI":"二行里","LIN":"9鄰","STREET":"中正西路","SECT":" ","MAREA":" ","LANE":"２１１巷","ALLEY":" ","HOUSE_NO":"５９號五樓","E_COORD97":170081.90041,"N_COORD97":2535207.24028,"ADDRESS":"中正西路２１１巷５９號五樓","OBJECTID":650227},"geometry":{"x":170081.90041000023,"y":2535207.2402800024}},{"attributes":{"ID":650255,"DIS_CODE":0,"TOWNNAME":"仁德區","LI":"田厝里","LIN":"6鄰","STREET":"田厝三街","SECT":" ","MAREA":" ","LANE":"７０巷","ALLEY":"２９弄","HOUSE_NO":"６號","E_COORD97":172591.878963,"N_COORD97":2537330.0563699999,"ADDRESS":"田厝三街７０巷２９弄６號","OBJECTID":650228},"geometry":{"x":172591.87896300014,"y":2537330.0563699994}},{"attributes":{"ID":650256,"DIS_CODE":0,"TOWNNAME":"新營區","LI":"埤寮里","LIN":"14鄰","STREET":"中正路","SECT":" ","MAREA":" ","LANE":" ","ALLEY":" ","HOUSE_NO":"３６８號","E_COORD97":180109.01823799999,"N_COORD97":2580274.9860899998,"ADDRESS":"中正路３６８號","OBJECTID":650229},"geometry":{"x":180109.01823799964,"y":2580274.9860890023}},{"attributes":{"ID":650257,"DIS_CODE":0,"TOWNNAME":"仁德區","LI":"二行里","LIN":"9鄰","STREET":"行大街","SECT":" ","MAREA":" ","LANE":" ","ALLEY":" ","HOUSE_NO":"７０號","E_COORD97":170169.64585299999,"N_COORD97":2535197.3700700002,"ADDRESS":"行大街７０號","OBJECTID":650230},"geometry":{"x":170169.64585299976,"y":2535197.3700740021}},{"attributes":{"ID":650258,"DIS_CODE":0,"TOWNNAME":"佳里區","LI":"鎮山里","LIN":"3鄰","STREET":"中山路","SECT":" ","MAREA":" ","LANE":" ","ALLEY":" ","HOUSE_NO":"３０號","E_COORD97":165845.15836900001,"N_COORD97":2561649.5874299998,"ADDRESS":"中山路３０號","OBJECTID":650231},"geometry":{"x":165845.158369001,"y":2561649.5874340013}},{"attributes":{"ID":650259,"DIS_CODE":0,"TOWNNAME":"仁德區","LI":"田厝里","LIN":"6鄰","STREET":"田厝三街","SECT":" ","MAREA":" ","LANE":"７０巷","ALLEY":" ","HOUSE_NO":"３２號","E_COORD97":172490.646825,"N_COORD97":2537264.2280700002,"ADDRESS":"田厝三街７０巷３２號","OBJECTID":650232},"geometry":{"x":172490.64682499971,"y":2537264.2280720025}},{"attributes":{"ID":650260,"DIS_CODE":0,"TOWNNAME":"仁德區","LI":"田厝里","LIN":"6鄰","STREET":"田厝三街","SECT":" ","MAREA":" ","LANE":"７０巷","ALLEY":" ","HOUSE_NO":"３５號","E_COORD97":172602.46809000001,"N_COORD97":2537317.3563700002,"ADDRESS":"田厝三街７０巷３５號","OBJECTID":650233},"geometry":{"x":172602.46809000056,"y":2537317.356370002}},{"attributes":{"ID":650261,"DIS_CODE":0,"TOWNNAME":"新營區","LI":"埤寮里","LIN":"14鄰","STREET":"中正路","SECT":" ","MAREA":" ","LANE":" ","ALLEY":" ","HOUSE_NO":"４０２號","E_COORD97":180077.23061599999,"N_COORD97":2580473.7409799998,"ADDRESS":"中正路４０２號","OBJECTID":650234},"geometry":{"x":180077.23061600141,"y":2580473.7409819998}},{"attributes":{"ID":650262,"DIS_CODE":0,"TOWNNAME":"仁德區","LI":"田厝里","LIN":"6鄰","STREET":"田厝三街","SECT":" ","MAREA":" ","LANE":"７０巷","ALLEY":" ","HOUSE_NO":"３號","E_COORD97":172539.99219799999,"N_COORD97":2537397.5780000002,"ADDRESS":"田厝三街７０巷３號","OBJECTID":650235},"geometry":{"x":172539.99219800066,"y":2537397.5780000016}},{"attributes":{"ID":650263,"DIS_CODE":0,"TOWNNAME":"新化區","LI":"知義里","LIN":"14鄰","STREET":"復興路","SECT":" ","MAREA":" ","LANE":"１巷","ALLEY":" ","HOUSE_NO":"１８號","E_COORD97":179338.69081599999,"N_COORD97":2547123.7833199999,"ADDRESS":"復興路１巷１８號","OBJECTID":650236},"geometry":{"x":179338.6908160001,"y":2547123.783323003}},{"attributes":{"ID":650264,"DIS_CODE":0,"TOWNNAME":"新營區","LI":"新南里","LIN":"14鄰","STREET":"民治路","SECT":" ","MAREA":" ","LANE":" ","ALLEY":" ","HOUSE_NO":"２９８號","E_COORD97":178818.34350300001,"N_COORD97":2578522.2188499998,"ADDRESS":"民治路２９８號","OBJECTID":650237},"geometry":{"x":178818.34350300208,"y":2578522.2188499998}},{"attributes":{"ID":650265,"DIS_CODE":0,"TOWNNAME":"佳里區","LI":"建南里","LIN":"33鄰","STREET":"南勢街","SECT":" ","MAREA":" ","LANE":" ","ALLEY":" ","HOUSE_NO":"１８６號","E_COORD97":165759.54983800001,"N_COORD97":2560782.6693799999,"ADDRESS":"南勢街１８６號","OBJECTID":650238},"geometry":{"x":165759.54983799998,"y":2560782.6693800036}},{"attributes":{"ID":650266,"DIS_CODE":0,"TOWNNAME":"官田區","LI":"嘉南里","LIN":"6鄰","STREET":" ","SECT":" ","MAREA":"嘉南","LANE":" ","ALLEY":" ","HOUSE_NO":"６９號之１２","E_COORD97":184850.562637,"N_COORD97":2567064.1458399999,"ADDRESS":"嘉南６９號之１２","OBJECTID":650239},"geometry":{"x":184850.56263700034,"y":2567064.1458400022}},{"attributes":{"ID":650267,"DIS_CODE":0,"TOWNNAME":"安平區","LI":"育平里","LIN":"32鄰","STREET":"育平路","SECT":" ","MAREA":" ","LANE":" ","ALLEY":" ","HOUSE_NO":"６６號三樓之１","E_COORD97":164584.64468900001,"N_COORD97":2543071.9795400002,"ADDRESS":"育平路６６號三樓之１","OBJECTID":650240},"geometry":{"x":164584.64468900207,"y":2543071.9795420002}},{"attributes":{"ID":650268,"DIS_CODE":0,"TOWNNAME":"安平區","LI":"育平里","LIN":"32鄰","STREET":"育平路","SECT":" ","MAREA":" ","LANE":" ","ALLEY":" ","HOUSE_NO":"５２號五樓之１","E_COORD97":164564.08965899999,"N_COORD97":2543066.0528799999,"ADDRESS":"育平路５２號五樓之１","OBJECTID":650241},"geometry":{"x":164564.08965899982,"y":2543066.0528779998}},{"attributes":{"ID":650269,"DIS_CODE":0,"TOWNNAME":"安平區","LI":"育平里","LIN":"32鄰","STREET":"育平路","SECT":" ","MAREA":" ","LANE":" ","ALLEY":" ","HOUSE_NO":"６６號三樓之２","E_COORD97":164583.797059,"N_COORD97":2543071.9795400002,"ADDRESS":"育平路６６號三樓之２","OBJECTID":650242},"geometry":{"x":164583.79705900047,"y":2543071.9795420002}},{"attributes":{"ID":650270,"DIS_CODE":0,"TOWNNAME":"仁德區","LI":"二行里","LIN":"9鄰","STREET":"中正西路","SECT":" ","MAREA":" ","LANE":"２１１巷","ALLEY":" ","HOUSE_NO":"７３之１號","E_COORD97":170078.26509199999,"N_COORD97":2535172.55217,"ADDRESS":"中正西路２１１巷７３之１號","OBJECTID":650243},"geometry":{"x":170078.2650920013,"y":2535172.5521709993}},{"attributes":{"ID":650271,"DIS_CODE":0,"TOWNNAME":"安平區","LI":"育平里","LIN":"32鄰","STREET":"育平路","SECT":" ","MAREA":" ","LANE":" ","ALLEY":" ","HOUSE_NO":"６６號三樓之３","E_COORD97":164584.00896599999,"N_COORD97":2543071.7678700001,"ADDRESS":"育平路６６號三樓之３","OBJECTID":650244},"geometry":{"x":164584.00896600075,"y":2543071.7678750027}},{"attributes":{"ID":650272,"DIS_CODE":0,"TOWNNAME":"安平區","LI":"育平里","LIN":"32鄰","STREET":"育平路","SECT":" ","MAREA":" ","LANE":" ","ALLEY":" ","HOUSE_NO":"６６號三樓之５","E_COORD97":164584.00896599999,"N_COORD97":2543071.7678700001,"ADDRESS":"育平路６６號三樓之５","OBJECTID":650245},"geometry":{"x":164584.00896600075,"y":2543071.7678750027}},{"attributes":{"ID":650273,"DIS_CODE":0,"TOWNNAME":"佳里區","LI":"鎮山里","LIN":"3鄰","STREET":" ","SECT":" ","MAREA":"鎮山","LANE":" ","ALLEY":" ","HOUSE_NO":"９號之７","E_COORD97":165858.57263800001,"N_COORD97":2561697.3446999998,"ADDRESS":"鎮山９號之７","OBJECTID":650246},"geometry":{"x":165858.57263800222,"y":2561697.3446999993}},{"attributes":{"ID":650274,"DIS_CODE":0,"TOWNNAME":"安平區","LI":"育平里","LIN":"32鄰","STREET":"育平路","SECT":" ","MAREA":" ","LANE":" ","ALLEY":" ","HOUSE_NO":"６６號三樓之６","E_COORD97":164584.00896599999,"N_COORD97":2543071.7678700001,"ADDRESS":"育平路６６號三樓之６","OBJECTID":650247},"geometry":{"x":164584.00896600075,"y":2543071.7678750027}},{"attributes":{"ID":650275,"DIS_CODE":0,"TOWNNAME":"安平區","LI":"育平里","LIN":"32鄰","STREET":"育平路","SECT":" ","MAREA":" ","LANE":" ","ALLEY":" ","HOUSE_NO":"６６號四樓之１","E_COORD97":164584.00896599999,"N_COORD97":2543071.7678700001,"ADDRESS":"育平路６６號四樓之１","OBJECTID":650248},"geometry":{"x":164584.00896600075,"y":2543071.7678750027}},{"attributes":{"ID":650276,"DIS_CODE":0,"TOWNNAME":"安平區","LI":"育平里","LIN":"32鄰","STREET":"育平路","SECT":" ","MAREA":" ","LANE":" ","ALLEY":" ","HOUSE_NO":"６６號四樓之２","E_COORD97":164584.00896599999,"N_COORD97":2543071.7678700001,"ADDRESS":"育平路６６號四樓之２","OBJECTID":650249},"geometry":{"x":164584.00896600075,"y":2543071.7678750027}},{"attributes":{"ID":650277,"DIS_CODE":0,"TOWNNAME":"安平區","LI":"育平里","LIN":"32鄰","STREET":"育平路","SECT":" ","MAREA":" ","LANE":" ","ALLEY":" ","HOUSE_NO":"６６號四樓之３","E_COORD97":164584.00896599999,"N_COORD97":2543071.7678700001,"ADDRESS":"育平路６６號四樓之３","OBJECTID":650250},"geometry":{"x":164584.00896600075,"y":2543071.7678750027}},{"attributes":{"ID":650278,"DIS_CODE":0,"TOWNNAME":"安平區","LI":"育平里","LIN":"32鄰","STREET":"育平路","SECT":" ","MAREA":" ","LANE":" ","ALLEY":" ","HOUSE_NO":"６６號四樓之５","E_COORD97":164584.00896599999,"N_COORD97":2543071.7678700001,"ADDRESS":"育平路６６號四樓之５","OBJECTID":650251},"geometry":{"x":164584.00896600075,"y":2543071.7678750027}},{"attributes":{"ID":650279,"DIS_CODE":0,"TOWNNAME":"安平區","LI":"育平里","LIN":"32鄰","STREET":"育平路","SECT":" ","MAREA":" ","LANE":" ","ALLEY":" ","HOUSE_NO":"６６號四樓之６","E_COORD97":164584.00896599999,"N_COORD97":2543071.7678700001,"ADDRESS":"育平路６６號四樓之６","OBJECTID":650252},"geometry":{"x":164584.00896600075,"y":2543071.7678750027}},{"attributes":{"ID":650280,"DIS_CODE":0,"TOWNNAME":"安平區","LI":"育平里","LIN":"32鄰","STREET":"育平路","SECT":" ","MAREA":" ","LANE":" ","ALLEY":" ","HOUSE_NO":"６６號五樓之１","E_COORD97":164584.00896599999,"N_COORD97":2543071.7678700001,"ADDRESS":"育平路６６號五樓之１","OBJECTID":650253},"geometry":{"x":164584.00896600075,"y":2543071.7678750027}},{"attributes":{"ID":650281,"DIS_CODE":0,"TOWNNAME":"安平區","LI":"育平里","LIN":"32鄰","STREET":"育平路","SECT":" ","MAREA":" ","LANE":" ","ALLEY":" ","HOUSE_NO":"６６號五樓之２","E_COORD97":164584.00896599999,"N_COORD97":2543071.7678700001,"ADDRESS":"育平路６６號五樓之２","OBJECTID":650254},"geometry":{"x":164584.00896600075,"y":2543071.7678750027}},{"attributes":{"ID":650282,"DIS_CODE":0,"TOWNNAME":"安平區","LI":"育平里","LIN":"32鄰","STREET":"育平路","SECT":" ","MAREA":" ","LANE":" ","ALLEY":" ","HOUSE_NO":"６６號五樓之３","E_COORD97":164584.00896599999,"N_COORD97":2543071.7678700001,"ADDRESS":"育平路６６號五樓之３","OBJECTID":650255},"geometry":{"x":164584.00896600075,"y":2543071.7678750027}},{"attributes":{"ID":650283,"DIS_CODE":0,"TOWNNAME":"新化區","LI":"知義里","LIN":"1鄰","STREET":" ","SECT":" ","MAREA":"知母義","LANE":" ","ALLEY":" ","HOUSE_NO":"９號","E_COORD97":179474.26602099999,"N_COORD97":2546977.50593,"ADDRESS":"知母義９號","OBJECTID":650256},"geometry":{"x":179474.26602100115,"y":2546977.5059300009}},{"attributes":{"ID":650284,"DIS_CODE":0,"TOWNNAME":"安平區","LI":"育平里","LIN":"32鄰","STREET":"育平路","SECT":" ","MAREA":" ","LANE":" ","ALLEY":" ","HOUSE_NO":"６６號五樓之５","E_COORD97":164584.00896599999,"N_COORD97":2543071.7678700001,"ADDRESS":"育平路６６號五樓之５","OBJECTID":650257},"geometry":{"x":164584.00896600075,"y":2543071.7678750027}},{"attributes":{"ID":650285,"DIS_CODE":0,"TOWNNAME":"安平區","LI":"育平里","LIN":"32鄰","STREET":"育平路","SECT":" ","MAREA":" ","LANE":" ","ALLEY":" ","HOUSE_NO":"６６號五樓之６","E_COORD97":164584.00896599999,"N_COORD97":2543071.7678700001,"ADDRESS":"育平路６６號五樓之６","OBJECTID":650258},"geometry":{"x":164584.00896600075,"y":2543071.7678750027}},{"attributes":{"ID":650286,"DIS_CODE":0,"TOWNNAME":"安平區","LI":"育平里","LIN":"32鄰","STREET":"育平路","SECT":" ","MAREA":" ","LANE":" ","ALLEY":" ","HOUSE_NO":"６６號六樓之１","E_COORD97":164584.00896599999,"N_COORD97":2543071.7678700001,"ADDRESS":"育平路６６號六樓之１","OBJECTID":650259},"geometry":{"x":164584.00896600075,"y":2543071.7678750027}},{"attributes":{"ID":650287,"DIS_CODE":0,"TOWNNAME":"安平區","LI":"育平里","LIN":"32鄰","STREET":"育平路","SECT":" ","MAREA":" ","LANE":" ","ALLEY":" ","HOUSE_NO":"６６號六樓之２","E_COORD97":164584.00896599999,"N_COORD97":2543071.7678700001,"ADDRESS":"育平路６６號六樓之２","OBJECTID":650260},"geometry":{"x":164584.00896600075,"y":2543071.7678750027}},{"attributes":{"ID":650288,"DIS_CODE":0,"TOWNNAME":"安平區","LI":"育平里","LIN":"32鄰","STREET":"育平路","SECT":" ","MAREA":" ","LANE":" ","ALLEY":" ","HOUSE_NO":"６６號六樓之３","E_COORD97":164584.00896599999,"N_COORD97":2543071.7678700001,"ADDRESS":"育平路６６號六樓之３","OBJECTID":650261},"geometry":{"x":164584.00896600075,"y":2543071.7678750027}},{"attributes":{"ID":650289,"DIS_CODE":0,"TOWNNAME":"安平區","LI":"育平里","LIN":"32鄰","STREET":"育平路","SECT":" ","MAREA":" ","LANE":" ","ALLEY":" ","HOUSE_NO":"６６號六樓之５","E_COORD97":164584.00896599999,"N_COORD97":2543071.7678700001,"ADDRESS":"育平路６６號六樓之５","OBJECTID":650262},"geometry":{"x":164584.00896600075,"y":2543071.7678750027}},{"attributes":{"ID":650290,"DIS_CODE":0,"TOWNNAME":"安平區","LI":"育平里","LIN":"32鄰","STREET":"育平路","SECT":" ","MAREA":" ","LANE":" ","ALLEY":" ","HOUSE_NO":"６６號六樓之６","E_COORD97":164584.00896599999,"N_COORD97":2543071.7678700001,"ADDRESS":"育平路６６號六樓之６","OBJECTID":650263},"geometry":{"x":164584.00896600075,"y":2543071.7678750027}},{"attributes":{"ID":650291,"DIS_CODE":0,"TOWNNAME":"安平區","LI":"育平里","LIN":"32鄰","STREET":"育平路","SECT":" ","MAREA":" ","LANE":" ","ALLEY":" ","HOUSE_NO":"６６號七樓之１","E_COORD97":164584.00896599999,"N_COORD97":2543071.7678700001,"ADDRESS":"育平路６６號七樓之１","OBJECTID":650264},"geometry":{"x":164584.00896600075,"y":2543071.7678750027}},{"attributes":{"ID":650292,"DIS_CODE":0,"TOWNNAME":"安平區","LI":"育平里","LIN":"32鄰","STREET":"育平路","SECT":" ","MAREA":" ","LANE":" ","ALLEY":" ","HOUSE_NO":"６６號七樓之２","E_COORD97":164584.00896599999,"N_COORD97":2543071.7678700001,"ADDRESS":"育平路６６號七樓之２","OBJECTID":650265},"geometry":{"x":164584.00896600075,"y":2543071.7678750027}},{"attributes":{"ID":650293,"DIS_CODE":0,"TOWNNAME":"安平區","LI":"育平里","LIN":"32鄰","STREET":"育平路","SECT":" ","MAREA":" ","LANE":" ","ALLEY":" ","HOUSE_NO":"６６號七樓之３","E_COORD97":164584.00896599999,"N_COORD97":2543071.7678700001,"ADDRESS":"育平路６６號七樓之３","OBJECTID":650266},"geometry":{"x":164584.00896600075,"y":2543071.7678750027}},{"attributes":{"ID":650294,"DIS_CODE":0,"TOWNNAME":"安平區","LI":"育平里","LIN":"32鄰","STREET":"育平路","SECT":" ","MAREA":" ","LANE":" ","ALLEY":" ","HOUSE_NO":"６６號七樓之５","E_COORD97":164584.00896599999,"N_COORD97":2543071.7678700001,"ADDRESS":"育平路６６號七樓之５","OBJECTID":650267},"geometry":{"x":164584.00896600075,"y":2543071.7678750027}},{"attributes":{"ID":650295,"DIS_CODE":0,"TOWNNAME":"安平區","LI":"育平里","LIN":"32鄰","STREET":"育平路","SECT":" ","MAREA":" ","LANE":" ","ALLEY":" ","HOUSE_NO":"６６號七樓之６","E_COORD97":164584.00896599999,"N_COORD97":2543071.7678700001,"ADDRESS":"育平路６６號七樓之６","OBJECTID":650268},"geometry":{"x":164584.00896600075,"y":2543071.7678750027}},{"attributes":{"ID":650296,"DIS_CODE":0,"TOWNNAME":"安平區","LI":"育平里","LIN":"32鄰","STREET":"育平路","SECT":" ","MAREA":" ","LANE":" ","ALLEY":" ","HOUSE_NO":"６６號八樓之１","E_COORD97":164584.00896599999,"N_COORD97":2543071.7678700001,"ADDRESS":"育平路６６號八樓之１","OBJECTID":650269},"geometry":{"x":164584.00896600075,"y":2543071.7678750027}},{"attributes":{"ID":650297,"DIS_CODE":0,"TOWNNAME":"安平區","LI":"育平里","LIN":"32鄰","STREET":"育平路","SECT":" ","MAREA":" ","LANE":" ","ALLEY":" ","HOUSE_NO":"６６號八樓之２","E_COORD97":164584.00896599999,"N_COORD97":2543071.7678700001,"ADDRESS":"育平路６６號八樓之２","OBJECTID":650270},"geometry":{"x":164584.00896600075,"y":2543071.7678750027}},{"attributes":{"ID":650298,"DIS_CODE":0,"TOWNNAME":"安平區","LI":"育平里","LIN":"32鄰","STREET":"育平路","SECT":" ","MAREA":" ","LANE":" ","ALLEY":" ","HOUSE_NO":"６６號八樓之３","E_COORD97":164584.00896599999,"N_COORD97":2543071.7678700001,"ADDRESS":"育平路６６號八樓之３","OBJECTID":650271},"geometry":{"x":164584.00896600075,"y":2543071.7678750027}},{"attributes":{"ID":650299,"DIS_CODE":0,"TOWNNAME":"佳里區","LI":"鎮山里","LIN":"3鄰","STREET":" ","SECT":" ","MAREA":"鎮山","LANE":" ","ALLEY":" ","HOUSE_NO":"９號之６","E_COORD97":165856.21554,"N_COORD97":2561696.7097,"ADDRESS":"鎮山９號之６","OBJECTID":650272},"geometry":{"x":165856.21554000117,"y":2561696.7096999995}},{"attributes":{"ID":650300,"DIS_CODE":0,"TOWNNAME":"安平區","LI":"育平里","LIN":"32鄰","STREET":"育平路","SECT":" ","MAREA":" ","LANE":" ","ALLEY":" ","HOUSE_NO":"６６號八樓之５","E_COORD97":164584.00896599999,"N_COORD97":2543071.7678700001,"ADDRESS":"育平路６６號八樓之５","OBJECTID":650273},"geometry":{"x":164584.00896600075,"y":2543071.7678750027}},{"attributes":{"ID":650301,"DIS_CODE":0,"TOWNNAME":"安平區","LI":"育平里","LIN":"32鄰","STREET":"育平路","SECT":" ","MAREA":" ","LANE":" ","ALLEY":" ","HOUSE_NO":"６６號八樓之６","E_COORD97":164584.00896599999,"N_COORD97":2543071.7678700001,"ADDRESS":"育平路６６號八樓之６","OBJECTID":650274},"geometry":{"x":164584.00896600075,"y":2543071.7678750027}},{"attributes":{"ID":650302,"DIS_CODE":0,"TOWNNAME":"安平區","LI":"育平里","LIN":"32鄰","STREET":"育平路","SECT":" ","MAREA":" ","LANE":" ","ALLEY":" ","HOUSE_NO":"６６號九樓之１","E_COORD97":164584.00896599999,"N_COORD97":2543071.7678700001,"ADDRESS":"育平路６６號九樓之１","OBJECTID":650275},"geometry":{"x":164584.00896600075,"y":2543071.7678750027}},{"attributes":{"ID":650303,"DIS_CODE":0,"TOWNNAME":"安平區","LI":"育平里","LIN":"32鄰","STREET":"育平路","SECT":" ","MAREA":" ","LANE":" ","ALLEY":" ","HOUSE_NO":"６６號九樓之２","E_COORD97":164584.00896599999,"N_COORD97":2543071.7678700001,"ADDRESS":"育平路６６號九樓之２","OBJECTID":650276},"geometry":{"x":164584.00896600075,"y":2543071.7678750027}},{"attributes":{"ID":650304,"DIS_CODE":0,"TOWNNAME":"安平區","LI":"育平里","LIN":"32鄰","STREET":"育平路","SECT":" ","MAREA":" ","LANE":" ","ALLEY":" ","HOUSE_NO":"６６號九樓之３","E_COORD97":164584.00896599999,"N_COORD97":2543071.7678700001,"ADDRESS":"育平路６６號九樓之３","OBJECTID":650277},"geometry":{"x":164584.00896600075,"y":2543071.7678750027}},{"attributes":{"ID":650305,"DIS_CODE":0,"TOWNNAME":"新化區","LI":"知義里","LIN":"1鄰","STREET":" ","SECT":" ","MAREA":"知母義","LANE":" ","ALLEY":" ","HOUSE_NO":"９號之８","E_COORD97":179342.90541199999,"N_COORD97":2546915.91096,"ADDRESS":"知母義９號之８","OBJECTID":650278},"geometry":{"x":179342.9054120006,"y":2546915.9109629989}},{"attributes":{"ID":650306,"DIS_CODE":0,"TOWNNAME":"仁德區","LI":"二行里","LIN":"10鄰","STREET":"行大街","SECT":" ","MAREA":" ","LANE":" ","ALLEY":" ","HOUSE_NO":"１６０號","E_COORD97":170068.96539699999,"N_COORD97":2535120.1117799999,"ADDRESS":"行大街１６０號","OBJECTID":650279},"geometry":{"x":170068.96539700218,"y":2535120.1117819995}},{"attributes":{"ID":650307,"DIS_CODE":0,"TOWNNAME":"安平區","LI":"育平里","LIN":"32鄰","STREET":"育平路","SECT":" ","MAREA":" ","LANE":" ","ALLEY":" ","HOUSE_NO":"６６號九樓之５","E_COORD97":164584.00896599999,"N_COORD97":2543071.7678700001,"ADDRESS":"育平路６６號九樓之５","OBJECTID":650280},"geometry":{"x":164584.00896600075,"y":2543071.7678750027}},{"attributes":{"ID":650308,"DIS_CODE":0,"TOWNNAME":"安平區","LI":"育平里","LIN":"32鄰","STREET":"育平路","SECT":" ","MAREA":" ","LANE":" ","ALLEY":" ","HOUSE_NO":"６６號九樓之６","E_COORD97":164584.00896599999,"N_COORD97":2543071.7678700001,"ADDRESS":"育平路６６號九樓之６","OBJECTID":650281},"geometry":{"x":164584.00896600075,"y":2543071.7678750027}},{"attributes":{"ID":650309,"DIS_CODE":0,"TOWNNAME":"佳里區","LI":"鎮山里","LIN":"3鄰","STREET":" ","SECT":" ","MAREA":"鎮山","LANE":" ","ALLEY":" ","HOUSE_NO":"９號之５","E_COORD97":165854.90457000001,"N_COORD97":2561696.5244900002,"ADDRESS":"鎮山９號之５","OBJECTID":650282},"geometry":{"x":165854.90457000025,"y":2561696.5244919993}},{"attributes":{"ID":650310,"DIS_CODE":0,"TOWNNAME":"仁德區","LI":"二行里","LIN":"10鄰","STREET":"行大街","SECT":" ","MAREA":" ","LANE":" ","ALLEY":" ","HOUSE_NO":"１５８號","E_COORD97":170068.064572,"N_COORD97":2535127.3084499999,"ADDRESS":"行大街１５８號","OBJECTID":650283},"geometry":{"x":170068.06457200181,"y":2535127.3084449992}},{"attributes":{"ID":650311,"DIS_CODE":0,"TOWNNAME":"安平區","LI":"育平里","LIN":"32鄰","STREET":"育平路","SECT":" ","MAREA":" ","LANE":" ","ALLEY":" ","HOUSE_NO":"６６號十樓之１","E_COORD97":164584.00896599999,"N_COORD97":2543071.7678700001,"ADDRESS":"育平路６６號十樓之１","OBJECTID":650284},"geometry":{"x":164584.00896600075,"y":2543071.7678750027}},{"attributes":{"ID":650312,"DIS_CODE":0,"TOWNNAME":"安平區","LI":"育平里","LIN":"32鄰","STREET":"育平路","SECT":" ","MAREA":" ","LANE":" ","ALLEY":" ","HOUSE_NO":"６６號十樓之２","E_COORD97":164584.00896599999,"N_COORD97":2543071.7678700001,"ADDRESS":"育平路６６號十樓之２","OBJECTID":650285},"geometry":{"x":164584.00896600075,"y":2543071.7678750027}},{"attributes":{"ID":650313,"DIS_CODE":0,"TOWNNAME":"安平區","LI":"育平里","LIN":"32鄰","STREET":"育平路","SECT":" ","MAREA":" ","LANE":" ","ALLEY":" ","HOUSE_NO":"６６號十樓之３","E_COORD97":164584.00896599999,"N_COORD97":2543071.7678700001,"ADDRESS":"育平路６６號十樓之３","OBJECTID":650286},"geometry":{"x":164584.00896600075,"y":2543071.7678750027}},{"attributes":{"ID":650314,"DIS_CODE":0,"TOWNNAME":"安平區","LI":"育平里","LIN":"32鄰","STREET":"育平路","SECT":" ","MAREA":" ","LANE":" ","ALLEY":" ","HOUSE_NO":"６６號十樓之５","E_COORD97":164584.00896599999,"N_COORD97":2543071.7678700001,"ADDRESS":"育平路６６號十樓之５","OBJECTID":650287},"geometry":{"x":164584.00896600075,"y":2543071.7678750027}},{"attributes":{"ID":650315,"DIS_CODE":0,"TOWNNAME":"安平區","LI":"育平里","LIN":"32鄰","STREET":"育平路","SECT":" ","MAREA":" ","LANE":" ","ALLEY":" ","HOUSE_NO":"６６號十樓之６","E_COORD97":164584.00896599999,"N_COORD97":2543071.7678700001,"ADDRESS":"育平路６６號十樓之６","OBJECTID":650288},"geometry":{"x":164584.00896600075,"y":2543071.7678750027}},{"attributes":{"ID":650316,"DIS_CODE":0,"TOWNNAME":"新營區","LI":"埤寮里","LIN":"1鄰","STREET":"中正路","SECT":" ","MAREA":" ","LANE":" ","ALLEY":" ","HOUSE_NO":"５１０號","E_COORD97":180108.594403,"N_COORD97":2580846.9144199998,"ADDRESS":"中正路５１０號","OBJECTID":650289},"geometry":{"x":180108.59440300055,"y":2580846.914419001}},{"attributes":{"ID":650317,"DIS_CODE":0,"TOWNNAME":"安平區","LI":"育平里","LIN":"32鄰","STREET":"育平路","SECT":" ","MAREA":" ","LANE":" ","ALLEY":" ","HOUSE_NO":"６６號十一樓之１","E_COORD97":164584.00896599999,"N_COORD97":2543071.7678700001,"ADDRESS":"育平路６６號十一樓之１","OBJECTID":650290},"geometry":{"x":164584.00896600075,"y":2543071.7678750027}},{"attributes":{"ID":650318,"DIS_CODE":0,"TOWNNAME":"安平區","LI":"育平里","LIN":"32鄰","STREET":"育平路","SECT":" ","MAREA":" ","LANE":" ","ALLEY":" ","HOUSE_NO":"６６號十一樓之２","E_COORD97":164584.00896599999,"N_COORD97":2543071.7678700001,"ADDRESS":"育平路６６號十一樓之２","OBJECTID":650291},"geometry":{"x":164584.00896600075,"y":2543071.7678750027}},{"attributes":{"ID":650319,"DIS_CODE":0,"TOWNNAME":"安平區","LI":"育平里","LIN":"32鄰","STREET":"育平路","SECT":" ","MAREA":" ","LANE":" ","ALLEY":" ","HOUSE_NO":"６６號十一樓之３","E_COORD97":164584.00896599999,"N_COORD97":2543071.7678700001,"ADDRESS":"育平路６６號十一樓之３","OBJECTID":650292},"geometry":{"x":164584.00896600075,"y":2543071.7678750027}},{"attributes":{"ID":650320,"DIS_CODE":0,"TOWNNAME":"安平區","LI":"育平里","LIN":"32鄰","STREET":"育平路","SECT":" ","MAREA":" ","LANE":" ","ALLEY":" ","HOUSE_NO":"６６號十一樓之５","E_COORD97":164584.00896599999,"N_COORD97":2543071.7678700001,"ADDRESS":"育平路６６號十一樓之５","OBJECTID":650293},"geometry":{"x":164584.00896600075,"y":2543071.7678750027}},{"attributes":{"ID":650321,"DIS_CODE":0,"TOWNNAME":"安平區","LI":"育平里","LIN":"32鄰","STREET":"育平路","SECT":" ","MAREA":" ","LANE":" ","ALLEY":" ","HOUSE_NO":"６６號十一樓之６","E_COORD97":164584.00896599999,"N_COORD97":2543071.7678700001,"ADDRESS":"育平路６６號十一樓之６","OBJECTID":650294},"geometry":{"x":164584.00896600075,"y":2543071.7678750027}},{"attributes":{"ID":650322,"DIS_CODE":0,"TOWNNAME":"安平區","LI":"育平里","LIN":"32鄰","STREET":"育平路","SECT":" ","MAREA":" ","LANE":" ","ALLEY":" ","HOUSE_NO":"６６號十二樓之１","E_COORD97":164584.00896599999,"N_COORD97":2543071.7678700001,"ADDRESS":"育平路６６號十二樓之１","OBJECTID":650295},"geometry":{"x":164584.00896600075,"y":2543071.7678750027}},{"attributes":{"ID":650323,"DIS_CODE":0,"TOWNNAME":"安平區","LI":"育平里","LIN":"32鄰","STREET":"育平路","SECT":" ","MAREA":" ","LANE":" ","ALLEY":" ","HOUSE_NO":"６６號十二樓之２","E_COORD97":164584.00896599999,"N_COORD97":2543071.7678700001,"ADDRESS":"育平路６６號十二樓之２","OBJECTID":650296},"geometry":{"x":164584.00896600075,"y":2543071.7678750027}},{"attributes":{"ID":650324,"DIS_CODE":0,"TOWNNAME":"安平區","LI":"育平里","LIN":"32鄰","STREET":"育平路","SECT":" ","MAREA":" ","LANE":" ","ALLEY":" ","HOUSE_NO":"６６號十二樓之３","E_COORD97":164584.00896599999,"N_COORD97":2543071.7678700001,"ADDRESS":"育平路６６號十二樓之３","OBJECTID":650297},"geometry":{"x":164584.00896600075,"y":2543071.7678750027}},{"attributes":{"ID":650325,"DIS_CODE":0,"TOWNNAME":"安平區","LI":"育平里","LIN":"32鄰","STREET":"育平路","SECT":" ","MAREA":" ","LANE":" ","ALLEY":" ","HOUSE_NO":"６６號十二樓之５","E_COORD97":164584.00896599999,"N_COORD97":2543071.7678700001,"ADDRESS":"育平路６６號十二樓之５","OBJECTID":650298},"geometry":{"x":164584.00896600075,"y":2543071.7678750027}},{"attributes":{"ID":650326,"DIS_CODE":0,"TOWNNAME":"安平區","LI":"育平里","LIN":"32鄰","STREET":"育平路","SECT":" ","MAREA":" ","LANE":" ","ALLEY":" ","HOUSE_NO":"６６號十二樓之６","E_COORD97":164584.00896599999,"N_COORD97":2543071.7678700001,"ADDRESS":"育平路６６號十二樓之６","OBJECTID":650299},"geometry":{"x":164584.00896600075,"y":2543071.7678750027}},{"attributes":{"ID":650327,"DIS_CODE":0,"TOWNNAME":"安平區","LI":"育平里","LIN":"32鄰","STREET":"育平路","SECT":" ","MAREA":" ","LANE":" ","ALLEY":" ","HOUSE_NO":"６６號十三樓之１","E_COORD97":164584.00896599999,"N_COORD97":2543071.7678700001,"ADDRESS":"育平路６６號十三樓之１","OBJECTID":650300},"geometry":{"x":164584.00896600075,"y":2543071.7678750027}},{"attributes":{"ID":650328,"DIS_CODE":0,"TOWNNAME":"安平區","LI":"育平里","LIN":"32鄰","STREET":"育平路","SECT":" ","MAREA":" ","LANE":" ","ALLEY":" ","HOUSE_NO":"６６號十三樓之２","E_COORD97":164584.00896599999,"N_COORD97":2543071.7678700001,"ADDRESS":"育平路６６號十三樓之２","OBJECTID":650301},"geometry":{"x":164584.00896600075,"y":2543071.7678750027}},{"attributes":{"ID":650329,"DIS_CODE":0,"TOWNNAME":"安平區","LI":"育平里","LIN":"32鄰","STREET":"育平路","SECT":" ","MAREA":" ","LANE":" ","ALLEY":" ","HOUSE_NO":"６６號十三樓之３","E_COORD97":164584.00896599999,"N_COORD97":2543071.7678700001,"ADDRESS":"育平路６６號十三樓之３","OBJECTID":650302},"geometry":{"x":164584.00896600075,"y":2543071.7678750027}},{"attributes":{"ID":650330,"DIS_CODE":0,"TOWNNAME":"安平區","LI":"育平里","LIN":"32鄰","STREET":"育平路","SECT":" ","MAREA":" ","LANE":" ","ALLEY":" ","HOUSE_NO":"６６號十三樓之５","E_COORD97":164584.00896599999,"N_COORD97":2543071.7678700001,"ADDRESS":"育平路６６號十三樓之５","OBJECTID":650303},"geometry":{"x":164584.00896600075,"y":2543071.7678750027}},{"attributes":{"ID":650331,"DIS_CODE":0,"TOWNNAME":"安平區","LI":"育平里","LIN":"32鄰","STREET":"育平路","SECT":" ","MAREA":" ","LANE":" ","ALLEY":" ","HOUSE_NO":"６６號十三樓之６","E_COORD97":164584.00896599999,"N_COORD97":2543071.7678700001,"ADDRESS":"育平路６６號十三樓之６","OBJECTID":650304},"geometry":{"x":164584.00896600075,"y":2543071.7678750027}},{"attributes":{"ID":650332,"DIS_CODE":0,"TOWNNAME":"仁德區","LI":"二行里","LIN":"11鄰","STREET":"中正西路","SECT":" ","MAREA":" ","LANE":"２１１巷","ALLEY":" ","HOUSE_NO":"８０號","E_COORD97":170037.33053800001,"N_COORD97":2535163.7680100002,"ADDRESS":"中正西路２１１巷８０號","OBJECTID":650305},"geometry":{"x":170037.33053800091,"y":2535163.7680090014}},{"attributes":{"ID":650333,"DIS_CODE":0,"TOWNNAME":"安平區","LI":"育平里","LIN":"32鄰","STREET":"育平路","SECT":" ","MAREA":" ","LANE":" ","ALLEY":" ","HOUSE_NO":"６８號三樓之１","E_COORD97":164584.85659700001,"N_COORD97":2543084.4678699998,"ADDRESS":"育平路６８號三樓之１","OBJECTID":650306},"geometry":{"x":164584.85659700073,"y":2543084.4678680003}},{"attributes":{"ID":650334,"DIS_CODE":0,"TOWNNAME":"安平區","LI":"育平里","LIN":"32鄰","STREET":"育平路","SECT":" ","MAREA":" ","LANE":" ","ALLEY":" ","HOUSE_NO":"６８號三樓之２","E_COORD97":164584.85659700001,"N_COORD97":2543084.4678699998,"ADDRESS":"育平路６８號三樓之２","OBJECTID":650307},"geometry":{"x":164584.85659700073,"y":2543084.4678680003}},{"attributes":{"ID":650335,"DIS_CODE":0,"TOWNNAME":"安平區","LI":"育平里","LIN":"32鄰","STREET":"育平路","SECT":" ","MAREA":" ","LANE":" ","ALLEY":" ","HOUSE_NO":"６８號三樓之３","E_COORD97":164584.85659700001,"N_COORD97":2543084.4678699998,"ADDRESS":"育平路６８號三樓之３","OBJECTID":650308},"geometry":{"x":164584.85659700073,"y":2543084.4678680003}},{"attributes":{"ID":650336,"DIS_CODE":0,"TOWNNAME":"仁德區","LI":"二行里","LIN":"11鄰","STREET":"中正西路","SECT":" ","MAREA":" ","LANE":"２１１巷","ALLEY":" ","HOUSE_NO":"７２號","E_COORD97":170033.621258,"N_COORD97":2535187.0513300002,"ADDRESS":"中正西路２１１巷７２號","OBJECTID":650309},"geometry":{"x":170033.62125799991,"y":2535187.0513290018}},{"attributes":{"ID":650337,"DIS_CODE":0,"TOWNNAME":"安平區","LI":"育平里","LIN":"32鄰","STREET":"育平路","SECT":" ","MAREA":" ","LANE":" ","ALLEY":" ","HOUSE_NO":"６８號三樓之５","E_COORD97":164584.85659700001,"N_COORD97":2543084.4678699998,"ADDRESS":"育平路６８號三樓之５","OBJECTID":650310},"geometry":{"x":164584.85659700073,"y":2543084.4678680003}},{"attributes":{"ID":650338,"DIS_CODE":0,"TOWNNAME":"安平區","LI":"育平里","LIN":"32鄰","STREET":"育平路","SECT":" ","MAREA":" ","LANE":" ","ALLEY":" ","HOUSE_NO":"６８號三樓之６","E_COORD97":164584.85659700001,"N_COORD97":2543084.4678699998,"ADDRESS":"育平路６８號三樓之６","OBJECTID":650311},"geometry":{"x":164584.85659700073,"y":2543084.4678680003}},{"attributes":{"ID":650339,"DIS_CODE":0,"TOWNNAME":"仁德區","LI":"二行里","LIN":"11鄰","STREET":"中正西路","SECT":" ","MAREA":" ","LANE":"２１１巷","ALLEY":" ","HOUSE_NO":"８０之１號","E_COORD97":170038.496311,"N_COORD97":2535160.8046800001,"ADDRESS":"中正西路２１１巷８０之１號","OBJECTID":650312},"geometry":{"x":170038.49631100055,"y":2535160.8046770003}},{"attributes":{"ID":650340,"DIS_CODE":0,"TOWNNAME":"安平區","LI":"育平里","LIN":"32鄰","STREET":"育平路","SECT":" ","MAREA":" ","LANE":" ","ALLEY":" ","HOUSE_NO":"６８號四樓之１","E_COORD97":164584.85659700001,"N_COORD97":2543084.4678699998,"ADDRESS":"育平路６８號四樓之１","OBJECTID":650313},"geometry":{"x":164584.85659700073,"y":2543084.4678680003}},{"attributes":{"ID":650341,"DIS_CODE":0,"TOWNNAME":"官田區","LI":"嘉南里","LIN":"4鄰","STREET":" ","SECT":" ","MAREA":"嘉南","LANE":" ","ALLEY":" ","HOUSE_NO":"３４號之１","E_COORD97":184881.598509,"N_COORD97":2568027.67845,"ADDRESS":"嘉南３４號之１","OBJECTID":650314},"geometry":{"x":184881.59850899968,"y":2568027.6784450039}},{"attributes":{"ID":650342,"DIS_CODE":0,"TOWNNAME":"安平區","LI":"育平里","LIN":"32鄰","STREET":"育平路","SECT":" ","MAREA":" ","LANE":" ","ALLEY":" ","HOUSE_NO":"６８號四樓之２","E_COORD97":164584.85659700001,"N_COORD97":2543084.4678699998,"ADDRESS":"育平路６８號四樓之２","OBJECTID":650315},"geometry":{"x":164584.85659700073,"y":2543084.4678680003}},{"attributes":{"ID":650343,"DIS_CODE":0,"TOWNNAME":"安平區","LI":"育平里","LIN":"32鄰","STREET":"育平路","SECT":" ","MAREA":" ","LANE":" ","ALLEY":" ","HOUSE_NO":"６８號四樓之３","E_COORD97":164584.85659700001,"N_COORD97":2543084.4678699998,"ADDRESS":"育平路６８號四樓之３","OBJECTID":650316},"geometry":{"x":164584.85659700073,"y":2543084.4678680003}},{"attributes":{"ID":650344,"DIS_CODE":0,"TOWNNAME":"安平區","LI":"育平里","LIN":"32鄰","STREET":"育平路","SECT":" ","MAREA":" ","LANE":" ","ALLEY":" ","HOUSE_NO":"６８號四樓之５","E_COORD97":164584.85659700001,"N_COORD97":2543084.4678699998,"ADDRESS":"育平路６８號四樓之５","OBJECTID":650317},"geometry":{"x":164584.85659700073,"y":2543084.4678680003}},{"attributes":{"ID":650345,"DIS_CODE":0,"TOWNNAME":"安平區","LI":"育平里","LIN":"32鄰","STREET":"育平路","SECT":" ","MAREA":" ","LANE":" ","ALLEY":" ","HOUSE_NO":"６８號四樓之６","E_COORD97":164584.85659700001,"N_COORD97":2543084.4678699998,"ADDRESS":"育平路６８號四樓之６","OBJECTID":650318},"geometry":{"x":164584.85659700073,"y":2543084.4678680003}},{"attributes":{"ID":650346,"DIS_CODE":0,"TOWNNAME":"安平區","LI":"育平里","LIN":"32鄰","STREET":"育平路","SECT":" ","MAREA":" ","LANE":" ","ALLEY":" ","HOUSE_NO":"６８號五樓之１","E_COORD97":164584.85659700001,"N_COORD97":2543084.4678699998,"ADDRESS":"育平路６８號五樓之１","OBJECTID":650319},"geometry":{"x":164584.85659700073,"y":2543084.4678680003}},{"attributes":{"ID":650347,"DIS_CODE":0,"TOWNNAME":"安平區","LI":"育平里","LIN":"32鄰","STREET":"育平路","SECT":" ","MAREA":" ","LANE":" ","ALLEY":" ","HOUSE_NO":"６８號五樓之２","E_COORD97":164584.85659700001,"N_COORD97":2543084.4678699998,"ADDRESS":"育平路６８號五樓之２","OBJECTID":650320},"geometry":{"x":164584.85659700073,"y":2543084.4678680003}},{"attributes":{"ID":650348,"DIS_CODE":0,"TOWNNAME":"安平區","LI":"育平里","LIN":"32鄰","STREET":"育平路","SECT":" ","MAREA":" ","LANE":" ","ALLEY":" ","HOUSE_NO":"６８號五樓之３","E_COORD97":164584.85659700001,"N_COORD97":2543084.4678699998,"ADDRESS":"育平路６８號五樓之３","OBJECTID":650321},"geometry":{"x":164584.85659700073,"y":2543084.4678680003}},{"attributes":{"ID":650349,"DIS_CODE":0,"TOWNNAME":"安平區","LI":"育平里","LIN":"32鄰","STREET":"育平路","SECT":" ","MAREA":" ","LANE":" ","ALLEY":" ","HOUSE_NO":"６８號五樓之５","E_COORD97":164584.85659700001,"N_COORD97":2543084.4678699998,"ADDRESS":"育平路６８號五樓之５","OBJECTID":650322},"geometry":{"x":164584.85659700073,"y":2543084.4678680003}},{"attributes":{"ID":650350,"DIS_CODE":0,"TOWNNAME":"安平區","LI":"育平里","LIN":"32鄰","STREET":"育平路","SECT":" ","MAREA":" ","LANE":" ","ALLEY":" ","HOUSE_NO":"６８號五樓之６","E_COORD97":164584.85659700001,"N_COORD97":2543084.4678699998,"ADDRESS":"育平路６８號五樓之６","OBJECTID":650323},"geometry":{"x":164584.85659700073,"y":2543084.4678680003}},{"attributes":{"ID":650351,"DIS_CODE":0,"TOWNNAME":"仁德區","LI":"二行里","LIN":"11鄰","STREET":"中正西路","SECT":" ","MAREA":" ","LANE":"２１１巷","ALLEY":"８２弄","HOUSE_NO":"１０號","E_COORD97":170009.193,"N_COORD97":2535165.8846700001,"ADDRESS":"中正西路２１１巷８２弄１０號","OBJECTID":650324},"geometry":{"x":170009.19300000183,"y":2535165.8846739996}},{"attributes":{"ID":650352,"DIS_CODE":0,"TOWNNAME":"麻豆區","LI":"\u25A0江里","LIN":"12鄰","STREET":"建南街","SECT":" ","MAREA":" ","LANE":" ","ALLEY":" ","HOUSE_NO":"２７１號","E_COORD97":173697.33069100001,"N_COORD97":2564386.8713799999,"ADDRESS":"建南街２７１號","OBJECTID":650325},"geometry":{"x":173697.33069100231,"y":2564386.8713830002}},{"attributes":{"ID":650353,"DIS_CODE":0,"TOWNNAME":"安平區","LI":"育平里","LIN":"32鄰","STREET":"育平路","SECT":" ","MAREA":" ","LANE":" ","ALLEY":" ","HOUSE_NO":"６８號六樓之１","E_COORD97":164584.85659700001,"N_COORD97":2543084.4678699998,"ADDRESS":"育平路６８號六樓之１","OBJECTID":650326},"geometry":{"x":164584.85659700073,"y":2543084.4678680003}},{"attributes":{"ID":650354,"DIS_CODE":0,"TOWNNAME":"佳里區","LI":"建南里","LIN":"32鄰","STREET":" ","SECT":" ","MAREA":"建南","LANE":" ","ALLEY":" ","HOUSE_NO":"７３號","E_COORD97":165693.85228299999,"N_COORD97":2560872.8393299999,"ADDRESS":"建南７３號","OBJECTID":650327},"geometry":{"x":165693.85228300095,"y":2560872.839331001}},{"attributes":{"ID":650355,"DIS_CODE":0,"TOWNNAME":"中西區","LI":"普濟里","LIN":"7鄰","STREET":"郡緯街","SECT":" ","MAREA":" ","LANE":" ","ALLEY":" ","HOUSE_NO":"１０３號","E_COORD97":167847.41937799999,"N_COORD97":2544414.5557800001,"ADDRESS":"郡緯街１０３號","OBJECTID":650328},"geometry":{"x":167847.41937800217,"y":2544414.5557800028}},{"attributes":{"ID":650356,"DIS_CODE":0,"TOWNNAME":"安平區","LI":"育平里","LIN":"32鄰","STREET":"育平路","SECT":" ","MAREA":" ","LANE":" ","ALLEY":" ","HOUSE_NO":"６８號六樓之２","E_COORD97":164584.85659700001,"N_COORD97":2543084.4678699998,"ADDRESS":"育平路６８號六樓之２","OBJECTID":650329},"geometry":{"x":164584.85659700073,"y":2543084.4678680003}},{"attributes":{"ID":650357,"DIS_CODE":0,"TOWNNAME":"安平區","LI":"育平里","LIN":"32鄰","STREET":"育平路","SECT":" ","MAREA":" ","LANE":" ","ALLEY":" ","HOUSE_NO":"６８號六樓之３","E_COORD97":164584.85659700001,"N_COORD97":2543084.4678699998,"ADDRESS":"育平路６８號六樓之３","OBJECTID":650330},"geometry":{"x":164584.85659700073,"y":2543084.4678680003}},{"attributes":{"ID":650358,"DIS_CODE":0,"TOWNNAME":"安平區","LI":"育平里","LIN":"32鄰","STREET":"育平路","SECT":" ","MAREA":" ","LANE":" ","ALLEY":" ","HOUSE_NO":"６８號六樓之５","E_COORD97":164584.85659700001,"N_COORD97":2543084.4678699998,"ADDRESS":"育平路６８號六樓之５","OBJECTID":650331},"geometry":{"x":164584.85659700073,"y":2543084.4678680003}},{"attributes":{"ID":650359,"DIS_CODE":0,"TOWNNAME":"安平區","LI":"育平里","LIN":"32鄰","STREET":"育平路","SECT":" ","MAREA":" ","LANE":" ","ALLEY":" ","HOUSE_NO":"６８號六樓之６","E_COORD97":164584.85659700001,"N_COORD97":2543084.4678699998,"ADDRESS":"育平路６８號六樓之６","OBJECTID":650332},"geometry":{"x":164584.85659700073,"y":2543084.4678680003}},{"attributes":{"ID":650360,"DIS_CODE":0,"TOWNNAME":"安平區","LI":"育平里","LIN":"32鄰","STREET":"育平路","SECT":" ","MAREA":" ","LANE":" ","ALLEY":" ","HOUSE_NO":"６８號七樓之１","E_COORD97":164584.85659700001,"N_COORD97":2543084.4678699998,"ADDRESS":"育平路６８號七樓之１","OBJECTID":650333},"geometry":{"x":164584.85659700073,"y":2543084.4678680003}},{"attributes":{"ID":650361,"DIS_CODE":0,"TOWNNAME":"安平區","LI":"育平里","LIN":"32鄰","STREET":"育平路","SECT":" ","MAREA":" ","LANE":" ","ALLEY":" ","HOUSE_NO":"６８號七樓之２","E_COORD97":164584.85659700001,"N_COORD97":2543084.4678699998,"ADDRESS":"育平路６８號七樓之２","OBJECTID":650334},"geometry":{"x":164584.85659700073,"y":2543084.4678680003}},{"attributes":{"ID":650362,"DIS_CODE":0,"TOWNNAME":"安平區","LI":"育平里","LIN":"32鄰","STREET":"育平路","SECT":" ","MAREA":" ","LANE":" ","ALLEY":" ","HOUSE_NO":"６８號七樓之３","E_COORD97":164584.85659700001,"N_COORD97":2543084.4678699998,"ADDRESS":"育平路６８號七樓之３","OBJECTID":650335},"geometry":{"x":164584.85659700073,"y":2543084.4678680003}},{"attributes":{"ID":650363,"DIS_CODE":0,"TOWNNAME":"安平區","LI":"育平里","LIN":"32鄰","STREET":"育平路","SECT":" ","MAREA":" ","LANE":" ","ALLEY":" ","HOUSE_NO":"６８號七樓之５","E_COORD97":164584.85659700001,"N_COORD97":2543084.4678699998,"ADDRESS":"育平路６８號七樓之５","OBJECTID":650336},"geometry":{"x":164584.85659700073,"y":2543084.4678680003}},{"attributes":{"ID":650364,"DIS_CODE":0,"TOWNNAME":"安平區","LI":"育平里","LIN":"32鄰","STREET":"育平路","SECT":" ","MAREA":" ","LANE":" ","ALLEY":" ","HOUSE_NO":"６８號七樓之６","E_COORD97":164584.85659700001,"N_COORD97":2543084.4678699998,"ADDRESS":"育平路６８號七樓之６","OBJECTID":650337},"geometry":{"x":164584.85659700073,"y":2543084.4678680003}},{"attributes":{"ID":650365,"DIS_CODE":0,"TOWNNAME":"仁德區","LI":"二行里","LIN":"11鄰","STREET":"中正西路","SECT":" ","MAREA":" ","LANE":"２１１巷","ALLEY":" ","HOUSE_NO":"８９號","E_COORD97":170049.65064599999,"N_COORD97":2535146.9934299998,"ADDRESS":"中正西路２１１巷８９號","OBJECTID":650338},"geometry":{"x":170049.6506460011,"y":2535146.9934340008}},{"attributes":{"ID":650366,"DIS_CODE":0,"TOWNNAME":"安平區","LI":"育平里","LIN":"32鄰","STREET":"育平路","SECT":" ","MAREA":" ","LANE":" ","ALLEY":" ","HOUSE_NO":"６８號八樓之１","E_COORD97":164585.068504,"N_COORD97":2543084.4678699998,"ADDRESS":"育平路６８號八樓之１","OBJECTID":650339},"geometry":{"x":164585.06850400101,"y":2543084.4678680003}},{"attributes":{"ID":650367,"DIS_CODE":0,"TOWNNAME":"安平區","LI":"育平里","LIN":"32鄰","STREET":"育平路","SECT":" ","MAREA":" ","LANE":" ","ALLEY":" ","HOUSE_NO":"６８號八樓之２","E_COORD97":164585.068504,"N_COORD97":2543084.4678699998,"ADDRESS":"育平路６８號八樓之２","OBJECTID":650340},"geometry":{"x":164585.06850400101,"y":2543084.4678680003}},{"attributes":{"ID":650368,"DIS_CODE":0,"TOWNNAME":"安平區","LI":"育平里","LIN":"32鄰","STREET":"育平路","SECT":" ","MAREA":" ","LANE":" ","ALLEY":" ","HOUSE_NO":"６８號八樓之３","E_COORD97":164585.068504,"N_COORD97":2543084.4678699998,"ADDRESS":"育平路６８號八樓之３","OBJECTID":650341},"geometry":{"x":164585.06850400101,"y":2543084.4678680003}},{"attributes":{"ID":650369,"DIS_CODE":0,"TOWNNAME":"仁德區","LI":"二行里","LIN":"11鄰","STREET":"中正西路","SECT":" ","MAREA":" ","LANE":"２１１巷","ALLEY":" ","HOUSE_NO":"８５號","E_COORD97":170058.34095899999,"N_COORD97":2535158.5821799999,"ADDRESS":"中正西路２１１巷８５號","OBJECTID":650342},"geometry":{"x":170058.3409590004,"y":2535158.5821780022}},{"attributes":{"ID":650370,"DIS_CODE":0,"TOWNNAME":"安平區","LI":"育平里","LIN":"32鄰","STREET":"育平路","SECT":" ","MAREA":" ","LANE":" ","ALLEY":" ","HOUSE_NO":"６８號八樓之５","E_COORD97":164585.068504,"N_COORD97":2543084.4678699998,"ADDRESS":"育平路６８號八樓之５","OBJECTID":650343},"geometry":{"x":164585.06850400101,"y":2543084.4678680003}},{"attributes":{"ID":650371,"DIS_CODE":0,"TOWNNAME":"歸仁區","LI":"看西里","LIN":"6鄰","STREET":"信義南路","SECT":" ","MAREA":" ","LANE":" ","ALLEY":" ","HOUSE_NO":"１２９之１號","E_COORD97":178170.98277900001,"N_COORD97":2540379.6599400002,"ADDRESS":"信義南路１２９之１號","OBJECTID":650344},"geometry":{"x":178170.98277900089,"y":2540379.6599400025}},{"attributes":{"ID":650372,"DIS_CODE":0,"TOWNNAME":"安平區","LI":"育平里","LIN":"32鄰","STREET":"育平路","SECT":" ","MAREA":" ","LANE":" ","ALLEY":" ","HOUSE_NO":"６８號八樓之６","E_COORD97":164585.068504,"N_COORD97":2543084.4678699998,"ADDRESS":"育平路６８號八樓之６","OBJECTID":650345},"geometry":{"x":164585.06850400101,"y":2543084.4678680003}},{"attributes":{"ID":650373,"DIS_CODE":0,"TOWNNAME":"安平區","LI":"育平里","LIN":"32鄰","STREET":"育平路","SECT":" ","MAREA":" ","LANE":" ","ALLEY":" ","HOUSE_NO":"６８號九樓之１","E_COORD97":164585.068504,"N_COORD97":2543084.4678699998,"ADDRESS":"育平路６８號九樓之１","OBJECTID":650346},"geometry":{"x":164585.06850400101,"y":2543084.4678680003}},{"attributes":{"ID":650374,"DIS_CODE":0,"TOWNNAME":"歸仁區","LI":"看西里","LIN":"6鄰","STREET":"信義南路","SECT":" ","MAREA":" ","LANE":" ","ALLEY":" ","HOUSE_NO":"１２９之２號","E_COORD97":178185.49569700001,"N_COORD97":2540386.2215999998,"ADDRESS":"信義南路１２９之２號","OBJECTID":650347},"geometry":{"x":178185.49569700006,"y":2540386.2216030043}},{"attributes":{"ID":650375,"DIS_CODE":0,"TOWNNAME":"安平區","LI":"育平里","LIN":"32鄰","STREET":"育平路","SECT":" ","MAREA":" ","LANE":" ","ALLEY":" ","HOUSE_NO":"６８號九樓之２","E_COORD97":164585.068504,"N_COORD97":2543084.4678699998,"ADDRESS":"育平路６８號九樓之２","OBJECTID":650348},"geometry":{"x":164585.06850400101,"y":2543084.4678680003}},{"attributes":{"ID":650376,"DIS_CODE":0,"TOWNNAME":"安平區","LI":"育平里","LIN":"32鄰","STREET":"育平路","SECT":" ","MAREA":" ","LANE":" ","ALLEY":" ","HOUSE_NO":"６８號九樓之３","E_COORD97":164585.068504,"N_COORD97":2543084.4678699998,"ADDRESS":"育平路６８號九樓之３","OBJECTID":650349},"geometry":{"x":164585.06850400101,"y":2543084.4678680003}},{"attributes":{"ID":650377,"DIS_CODE":0,"TOWNNAME":"新營區","LI":"埤寮里","LIN":"1鄰","STREET":"中正路","SECT":" ","MAREA":" ","LANE":" ","ALLEY":" ","HOUSE_NO":"５１６號","E_COORD97":180094.60784899999,"N_COORD97":2580901.73606,"ADDRESS":"中正路５１６號","OBJECTID":650350},"geometry":{"x":180094.60784900095,"y":2580901.7360560019}},{"attributes":{"ID":650378,"DIS_CODE":0,"TOWNNAME":"安平區","LI":"育平里","LIN":"32鄰","STREET":"育平路","SECT":" ","MAREA":" ","LANE":" ","ALLEY":" ","HOUSE_NO":"６８號九樓之５","E_COORD97":164585.068504,"N_COORD97":2543084.4678699998,"ADDRESS":"育平路６８號九樓之５","OBJECTID":650351},"geometry":{"x":164585.06850400101,"y":2543084.4678680003}},{"attributes":{"ID":650379,"DIS_CODE":0,"TOWNNAME":"安平區","LI":"育平里","LIN":"32鄰","STREET":"育平路","SECT":" ","MAREA":" ","LANE":" ","ALLEY":" ","HOUSE_NO":"６８號九樓之６","E_COORD97":164585.068504,"N_COORD97":2543084.4678699998,"ADDRESS":"育平路６８號九樓之６","OBJECTID":650352},"geometry":{"x":164585.06850400101,"y":2543084.4678680003}},{"attributes":{"ID":650380,"DIS_CODE":0,"TOWNNAME":"安平區","LI":"育平里","LIN":"32鄰","STREET":"育平路","SECT":" ","MAREA":" ","LANE":" ","ALLEY":" ","HOUSE_NO":"６８號十樓之１","E_COORD97":164585.068504,"N_COORD97":2543084.4678699998,"ADDRESS":"育平路６８號十樓之１","OBJECTID":650353},"geometry":{"x":164585.06850400101,"y":2543084.4678680003}},{"attributes":{"ID":650381,"DIS_CODE":0,"TOWNNAME":"安平區","LI":"育平里","LIN":"32鄰","STREET":"育平路","SECT":" ","MAREA":" ","LANE":" ","ALLEY":" ","HOUSE_NO":"６８號十樓之２","E_COORD97":164585.068504,"N_COORD97":2543084.4678699998,"ADDRESS":"育平路６８號十樓之２","OBJECTID":650354},"geometry":{"x":164585.06850400101,"y":2543084.4678680003}},{"attributes":{"ID":650382,"DIS_CODE":0,"TOWNNAME":"仁德區","LI":"二行里","LIN":"11鄰","STREET":"中正西路","SECT":" ","MAREA":" ","LANE":"２１１巷","ALLEY":" ","HOUSE_NO":"９７號","E_COORD97":170037.30404300001,"N_COORD97":2535114.2909499998,"ADDRESS":"中正西路２１１巷９７號","OBJECTID":650355},"geometry":{"x":170037.30404300056,"y":2535114.2909520045}},{"attributes":{"ID":650383,"DIS_CODE":0,"TOWNNAME":"安平區","LI":"育平里","LIN":"32鄰","STREET":"育平路","SECT":" ","MAREA":" ","LANE":" ","ALLEY":" ","HOUSE_NO":"６８號十樓之３","E_COORD97":164585.068504,"N_COORD97":2543084.4678699998,"ADDRESS":"育平路６８號十樓之３","OBJECTID":650356},"geometry":{"x":164585.06850400101,"y":2543084.4678680003}},{"attributes":{"ID":650384,"DIS_CODE":0,"TOWNNAME":"安平區","LI":"育平里","LIN":"32鄰","STREET":"育平路","SECT":" ","MAREA":" ","LANE":" ","ALLEY":" ","HOUSE_NO":"６８號十樓之５","E_COORD97":164585.068504,"N_COORD97":2543084.4678699998,"ADDRESS":"育平路６８號十樓之５","OBJECTID":650357},"geometry":{"x":164585.06850400101,"y":2543084.4678680003}},{"attributes":{"ID":650385,"DIS_CODE":0,"TOWNNAME":"安平區","LI":"育平里","LIN":"32鄰","STREET":"育平路","SECT":" ","MAREA":" ","LANE":" ","ALLEY":" ","HOUSE_NO":"６８號十樓之６","E_COORD97":164585.068504,"N_COORD97":2543084.4678699998,"ADDRESS":"育平路６８號十樓之６","OBJECTID":650358},"geometry":{"x":164585.06850400101,"y":2543084.4678680003}},{"attributes":{"ID":650386,"DIS_CODE":0,"TOWNNAME":"安平區","LI":"育平里","LIN":"32鄰","STREET":"育平路","SECT":" ","MAREA":" ","LANE":" ","ALLEY":" ","HOUSE_NO":"６８號十一樓之１","E_COORD97":164585.068504,"N_COORD97":2543084.4678699998,"ADDRESS":"育平路６８號十一樓之１","OBJECTID":650359},"geometry":{"x":164585.06850400101,"y":2543084.4678680003}},{"attributes":{"ID":650387,"DIS_CODE":0,"TOWNNAME":"安平區","LI":"育平里","LIN":"32鄰","STREET":"育平路","SECT":" ","MAREA":" ","LANE":" ","ALLEY":" ","HOUSE_NO":"６８號十一樓之２","E_COORD97":164585.068504,"N_COORD97":2543084.4678699998,"ADDRESS":"育平路６８號十一樓之２","OBJECTID":650360},"geometry":{"x":164585.06850400101,"y":2543084.4678680003}},{"attributes":{"ID":650388,"DIS_CODE":0,"TOWNNAME":"安平區","LI":"育平里","LIN":"32鄰","STREET":"育平路","SECT":" ","MAREA":" ","LANE":" ","ALLEY":" ","HOUSE_NO":"６８號十一樓之３","E_COORD97":164585.068504,"N_COORD97":2543084.4678699998,"ADDRESS":"育平路６８號十一樓之３","OBJECTID":650361},"geometry":{"x":164585.06850400101,"y":2543084.4678680003}},{"attributes":{"ID":650389,"DIS_CODE":0,"TOWNNAME":"安平區","LI":"育平里","LIN":"32鄰","STREET":"育平路","SECT":" ","MAREA":" ","LANE":" ","ALLEY":" ","HOUSE_NO":"６８號十一樓之５","E_COORD97":164585.068504,"N_COORD97":2543084.4678699998,"ADDRESS":"育平路６８號十一樓之５","OBJECTID":650362},"geometry":{"x":164585.06850400101,"y":2543084.4678680003}},{"attributes":{"ID":650390,"DIS_CODE":0,"TOWNNAME":"安平區","LI":"育平里","LIN":"32鄰","STREET":"育平路","SECT":" ","MAREA":" ","LANE":" ","ALLEY":" ","HOUSE_NO":"６８號十一樓之６","E_COORD97":164585.068504,"N_COORD97":2543084.4678699998,"ADDRESS":"育平路６８號十一樓之６","OBJECTID":650363},"geometry":{"x":164585.06850400101,"y":2543084.4678680003}},{"attributes":{"ID":650391,"DIS_CODE":0,"TOWNNAME":"新營區","LI":"新南里","LIN":"14鄰","STREET":"民治路","SECT":" ","MAREA":" ","LANE":"３００巷","ALLEY":" ","HOUSE_NO":"６８之１號","E_COORD97":178604.93671499999,"N_COORD97":2578615.2463000002,"ADDRESS":"民治路３００巷６８之１號","OBJECTID":650364},"geometry":{"x":178604.93671500031,"y":2578615.2463000044}},{"attributes":{"ID":650392,"DIS_CODE":0,"TOWNNAME":"新化區","LI":"知義里","LIN":"4鄰","STREET":" ","SECT":" ","MAREA":"知母義","LANE":" ","ALLEY":" ","HOUSE_NO":"１３５號之１","E_COORD97":179842.48235999999,"N_COORD97":2547055.0507200002,"ADDRESS":"知母義１３５號之１","OBJECTID":650365},"geometry":{"x":179842.48236000165,"y":2547055.0507200006}},{"attributes":{"ID":650393,"DIS_CODE":0,"TOWNNAME":"安平區","LI":"育平里","LIN":"32鄰","STREET":"育平路","SECT":" ","MAREA":" ","LANE":" ","ALLEY":" ","HOUSE_NO":"６８號十二樓之１","E_COORD97":164585.068504,"N_COORD97":2543084.4678699998,"ADDRESS":"育平路６８號十二樓之１","OBJECTID":650366},"geometry":{"x":164585.06850400101,"y":2543084.4678680003}},{"attributes":{"ID":650394,"DIS_CODE":0,"TOWNNAME":"安平區","LI":"育平里","LIN":"32鄰","STREET":"育平路","SECT":" ","MAREA":" ","LANE":" ","ALLEY":" ","HOUSE_NO":"６８號十二樓之２","E_COORD97":164585.068504,"N_COORD97":2543084.4678699998,"ADDRESS":"育平路６８號十二樓之２","OBJECTID":650367},"geometry":{"x":164585.06850400101,"y":2543084.4678680003}},{"attributes":{"ID":650395,"DIS_CODE":0,"TOWNNAME":"中西區","LI":"小西里","LIN":"10鄰","STREET":"西門路","SECT":"一段","MAREA":" ","LANE":"７０２巷","ALLEY":" ","HOUSE_NO":"９號","E_COORD97":167776.74007199999,"N_COORD97":2543342.1571900002,"ADDRESS":"西門路一段７０２巷９號","OBJECTID":650368},"geometry":{"x":167776.74007200077,"y":2543342.1571880002}},{"attributes":{"ID":650396,"DIS_CODE":0,"TOWNNAME":"安平區","LI":"育平里","LIN":"32鄰","STREET":"育平路","SECT":" ","MAREA":" ","LANE":" ","ALLEY":" ","HOUSE_NO":"６８號十二樓之３","E_COORD97":164585.068504,"N_COORD97":2543084.4678699998,"ADDRESS":"育平路６８號十二樓之３","OBJECTID":650369},"geometry":{"x":164585.06850400101,"y":2543084.4678680003}},{"attributes":{"ID":650397,"DIS_CODE":0,"TOWNNAME":"安平區","LI":"育平里","LIN":"32鄰","STREET":"育平路","SECT":" ","MAREA":" ","LANE":" ","ALLEY":" ","HOUSE_NO":"６８號十二樓之５","E_COORD97":164585.068504,"N_COORD97":2543084.4678699998,"ADDRESS":"育平路６８號十二樓之５","OBJECTID":650370},"geometry":{"x":164585.06850400101,"y":2543084.4678680003}},{"attributes":{"ID":650398,"DIS_CODE":0,"TOWNNAME":"安平區","LI":"育平里","LIN":"32鄰","STREET":"育平路","SECT":" ","MAREA":" ","LANE":" ","ALLEY":" ","HOUSE_NO":"６８號十二樓之６","E_COORD97":164585.068504,"N_COORD97":2543084.4678699998,"ADDRESS":"育平路６８號十二樓之６","OBJECTID":650371},"geometry":{"x":164585.06850400101,"y":2543084.4678680003}},{"attributes":{"ID":650399,"DIS_CODE":0,"TOWNNAME":"安平區","LI":"育平里","LIN":"32鄰","STREET":"育平路","SECT":" ","MAREA":" ","LANE":" ","ALLEY":" ","HOUSE_NO":"６８號十三樓之１","E_COORD97":164585.068504,"N_COORD97":2543084.4678699998,"ADDRESS":"育平路６８號十三樓之１","OBJECTID":650372},"geometry":{"x":164585.06850400101,"y":2543084.4678680003}},{"attributes":{"ID":650400,"DIS_CODE":0,"TOWNNAME":"安平區","LI":"育平里","LIN":"32鄰","STREET":"育平路","SECT":" ","MAREA":" ","LANE":" ","ALLEY":" ","HOUSE_NO":"６８號十三樓之２","E_COORD97":164585.068504,"N_COORD97":2543084.4678699998,"ADDRESS":"育平路６８號十三樓之２","OBJECTID":650373},"geometry":{"x":164585.06850400101,"y":2543084.4678680003}},{"attributes":{"ID":650401,"DIS_CODE":0,"TOWNNAME":"安平區","LI":"育平里","LIN":"32鄰","STREET":"育平路","SECT":" ","MAREA":" ","LANE":" ","ALLEY":" ","HOUSE_NO":"６８號十三樓之３","E_COORD97":164585.068504,"N_COORD97":2543084.4678699998,"ADDRESS":"育平路６８號十三樓之３","OBJECTID":650374},"geometry":{"x":164585.06850400101,"y":2543084.4678680003}},{"attributes":{"ID":650402,"DIS_CODE":0,"TOWNNAME":"安平區","LI":"育平里","LIN":"32鄰","STREET":"育平路","SECT":" ","MAREA":" ","LANE":" ","ALLEY":" ","HOUSE_NO":"６８號十三樓之５","E_COORD97":164585.068504,"N_COORD97":2543084.4678699998,"ADDRESS":"育平路６８號十三樓之５","OBJECTID":650375},"geometry":{"x":164585.06850400101,"y":2543084.4678680003}},{"attributes":{"ID":650403,"DIS_CODE":0,"TOWNNAME":"安平區","LI":"育平里","LIN":"32鄰","STREET":"育平路","SECT":" ","MAREA":" ","LANE":" ","ALLEY":" ","HOUSE_NO":"６８號十三樓之６","E_COORD97":164585.068504,"N_COORD97":2543084.4678699998,"ADDRESS":"育平路６８號十三樓之６","OBJECTID":650376},"geometry":{"x":164585.06850400101,"y":2543084.4678680003}},{"attributes":{"ID":650404,"DIS_CODE":0,"TOWNNAME":"新營區","LI":"新南里","LIN":"14鄰","STREET":"民治路","SECT":" ","MAREA":" ","LANE":"３００巷","ALLEY":" ","HOUSE_NO":"６８之５號","E_COORD97":178588.62178399999,"N_COORD97":2578620.6438000002,"ADDRESS":"民治路３００巷６８之５號","OBJECTID":650377},"geometry":{"x":178588.62178400066,"y":2578620.6437970009}},{"attributes":{"ID":650405,"DIS_CODE":0,"TOWNNAME":"安平區","LI":"育平里","LIN":"32鄰","STREET":"育平路","SECT":" ","MAREA":" ","LANE":" ","ALLEY":" ","HOUSE_NO":"７０號三樓之１","E_COORD97":164565.14919699999,"N_COORD97":2543081.29287,"ADDRESS":"育平路７０號三樓之１","OBJECTID":650378},"geometry":{"x":164565.14919700008,"y":2543081.2928700019}},{"attributes":{"ID":650406,"DIS_CODE":0,"TOWNNAME":"安平區","LI":"育平里","LIN":"32鄰","STREET":"育平路","SECT":" ","MAREA":" ","LANE":" ","ALLEY":" ","HOUSE_NO":"７０號三樓之２","E_COORD97":164565.14919699999,"N_COORD97":2543081.29287,"ADDRESS":"育平路７０號三樓之２","OBJECTID":650379},"geometry":{"x":164565.14919700008,"y":2543081.2928700019}},{"attributes":{"ID":650407,"DIS_CODE":0,"TOWNNAME":"安平區","LI":"育平里","LIN":"32鄰","STREET":"育平路","SECT":" ","MAREA":" ","LANE":" ","ALLEY":" ","HOUSE_NO":"７０號三樓之３","E_COORD97":164565.14919699999,"N_COORD97":2543081.29287,"ADDRESS":"育平路７０號三樓之３","OBJECTID":650380},"geometry":{"x":164565.14919700008,"y":2543081.2928700019}},{"attributes":{"ID":650408,"DIS_CODE":0,"TOWNNAME":"安平區","LI":"育平里","LIN":"32鄰","STREET":"育平路","SECT":" ","MAREA":" ","LANE":" ","ALLEY":" ","HOUSE_NO":"７０號三樓之５","E_COORD97":164565.14919699999,"N_COORD97":2543081.29287,"ADDRESS":"育平路７０號三樓之５","OBJECTID":650381},"geometry":{"x":164565.14919700008,"y":2543081.2928700019}},{"attributes":{"ID":650409,"DIS_CODE":0,"TOWNNAME":"安平區","LI":"育平里","LIN":"32鄰","STREET":"育平路","SECT":" ","MAREA":" ","LANE":" ","ALLEY":" ","HOUSE_NO":"７０號三樓之６","E_COORD97":164565.14919699999,"N_COORD97":2543081.29287,"ADDRESS":"育平路７０號三樓之６","OBJECTID":650382},"geometry":{"x":164565.14919700008,"y":2543081.2928700019}},{"attributes":{"ID":650410,"DIS_CODE":0,"TOWNNAME":"安平區","LI":"育平里","LIN":"32鄰","STREET":"育平路","SECT":" ","MAREA":" ","LANE":" ","ALLEY":" ","HOUSE_NO":"７０號三樓之７","E_COORD97":164565.14919699999,"N_COORD97":2543081.29287,"ADDRESS":"育平路７０號三樓之７","OBJECTID":650383},"geometry":{"x":164565.14919700008,"y":2543081.2928700019}},{"attributes":{"ID":650411,"DIS_CODE":0,"TOWNNAME":"安平區","LI":"育平里","LIN":"32鄰","STREET":"育平路","SECT":" ","MAREA":" ","LANE":" ","ALLEY":" ","HOUSE_NO":"７０號三樓之８","E_COORD97":164565.14919699999,"N_COORD97":2543081.29287,"ADDRESS":"育平路７０號三樓之８","OBJECTID":650384},"geometry":{"x":164565.14919700008,"y":2543081.2928700019}},{"attributes":{"ID":650412,"DIS_CODE":0,"TOWNNAME":"安平區","LI":"育平里","LIN":"32鄰","STREET":"育平路","SECT":" ","MAREA":" ","LANE":" ","ALLEY":" ","HOUSE_NO":"７０號四樓之１","E_COORD97":164565.14919699999,"N_COORD97":2543081.29287,"ADDRESS":"育平路７０號四樓之１","OBJECTID":650385},"geometry":{"x":164565.14919700008,"y":2543081.2928700019}},{"attributes":{"ID":650413,"DIS_CODE":0,"TOWNNAME":"安平區","LI":"育平里","LIN":"32鄰","STREET":"育平路","SECT":" ","MAREA":" ","LANE":" ","ALLEY":" ","HOUSE_NO":"７０號四樓之２","E_COORD97":164565.14919699999,"N_COORD97":2543081.29287,"ADDRESS":"育平路７０號四樓之２","OBJECTID":650386},"geometry":{"x":164565.14919700008,"y":2543081.2928700019}},{"attributes":{"ID":650414,"DIS_CODE":0,"TOWNNAME":"安平區","LI":"育平里","LIN":"32鄰","STREET":"育平路","SECT":" ","MAREA":" ","LANE":" ","ALLEY":" ","HOUSE_NO":"７０號四樓之３","E_COORD97":164565.14919699999,"N_COORD97":2543081.29287,"ADDRESS":"育平路７０號四樓之３","OBJECTID":650387},"geometry":{"x":164565.14919700008,"y":2543081.2928700019}},{"attributes":{"ID":650415,"DIS_CODE":0,"TOWNNAME":"安平區","LI":"育平里","LIN":"32鄰","STREET":"育平路","SECT":" ","MAREA":" ","LANE":" ","ALLEY":" ","HOUSE_NO":"７０號四樓之５","E_COORD97":164565.14919699999,"N_COORD97":2543081.29287,"ADDRESS":"育平路７０號四樓之５","OBJECTID":650388},"geometry":{"x":164565.14919700008,"y":2543081.2928700019}},{"attributes":{"ID":650416,"DIS_CODE":0,"TOWNNAME":"安平區","LI":"育平里","LIN":"32鄰","STREET":"育平路","SECT":" ","MAREA":" ","LANE":" ","ALLEY":" ","HOUSE_NO":"７０號四樓之６","E_COORD97":164565.14919699999,"N_COORD97":2543081.29287,"ADDRESS":"育平路７０號四樓之６","OBJECTID":650389},"geometry":{"x":164565.14919700008,"y":2543081.2928700019}},{"attributes":{"ID":650417,"DIS_CODE":0,"TOWNNAME":"安平區","LI":"育平里","LIN":"32鄰","STREET":"育平路","SECT":" ","MAREA":" ","LANE":" ","ALLEY":" ","HOUSE_NO":"７０號四樓之７","E_COORD97":164565.14919699999,"N_COORD97":2543081.29287,"ADDRESS":"育平路７０號四樓之７","OBJECTID":650390},"geometry":{"x":164565.14919700008,"y":2543081.2928700019}},{"attributes":{"ID":650418,"DIS_CODE":0,"TOWNNAME":"安平區","LI":"育平里","LIN":"32鄰","STREET":"育平路","SECT":" ","MAREA":" ","LANE":" ","ALLEY":" ","HOUSE_NO":"７０號四樓之８","E_COORD97":164565.14919699999,"N_COORD97":2543081.29287,"ADDRESS":"育平路７０號四樓之８","OBJECTID":650391},"geometry":{"x":164565.14919700008,"y":2543081.2928700019}},{"attributes":{"ID":650419,"DIS_CODE":0,"TOWNNAME":"安平區","LI":"育平里","LIN":"32鄰","STREET":"育平路","SECT":" ","MAREA":" ","LANE":" ","ALLEY":" ","HOUSE_NO":"７０號五樓之１","E_COORD97":164565.14919699999,"N_COORD97":2543081.29287,"ADDRESS":"育平路７０號五樓之１","OBJECTID":650392},"geometry":{"x":164565.14919700008,"y":2543081.2928700019}},{"attributes":{"ID":650420,"DIS_CODE":0,"TOWNNAME":"安平區","LI":"育平里","LIN":"32鄰","STREET":"育平路","SECT":" ","MAREA":" ","LANE":" ","ALLEY":" ","HOUSE_NO":"７０號五樓之２","E_COORD97":164565.14919699999,"N_COORD97":2543081.29287,"ADDRESS":"育平路７０號五樓之２","OBJECTID":650393},"geometry":{"x":164565.14919700008,"y":2543081.2928700019}},{"attributes":{"ID":650421,"DIS_CODE":0,"TOWNNAME":"安平區","LI":"育平里","LIN":"32鄰","STREET":"育平路","SECT":" ","MAREA":" ","LANE":" ","ALLEY":" ","HOUSE_NO":"７０號五樓之３","E_COORD97":164565.14919699999,"N_COORD97":2543081.29287,"ADDRESS":"育平路７０號五樓之３","OBJECTID":650394},"geometry":{"x":164565.14919700008,"y":2543081.2928700019}},{"attributes":{"ID":650422,"DIS_CODE":0,"TOWNNAME":"安平區","LI":"育平里","LIN":"32鄰","STREET":"育平路","SECT":" ","MAREA":" ","LANE":" ","ALLEY":" ","HOUSE_NO":"７０號五樓之５","E_COORD97":164565.14919699999,"N_COORD97":2543081.29287,"ADDRESS":"育平路７０號五樓之５","OBJECTID":650395},"geometry":{"x":164565.14919700008,"y":2543081.2928700019}},{"attributes":{"ID":650423,"DIS_CODE":0,"TOWNNAME":"安平區","LI":"育平里","LIN":"32鄰","STREET":"育平路","SECT":" ","MAREA":" ","LANE":" ","ALLEY":" ","HOUSE_NO":"７０號五樓之６","E_COORD97":164565.14919699999,"N_COORD97":2543081.29287,"ADDRESS":"育平路７０號五樓之６","OBJECTID":650396},"geometry":{"x":164565.14919700008,"y":2543081.2928700019}},{"attributes":{"ID":650424,"DIS_CODE":0,"TOWNNAME":"安平區","LI":"育平里","LIN":"32鄰","STREET":"育平路","SECT":" ","MAREA":" ","LANE":" ","ALLEY":" ","HOUSE_NO":"７０號五樓之７","E_COORD97":164565.14919699999,"N_COORD97":2543081.29287,"ADDRESS":"育平路７０號五樓之７","OBJECTID":650397},"geometry":{"x":164565.14919700008,"y":2543081.2928700019}},{"attributes":{"ID":650425,"DIS_CODE":0,"TOWNNAME":"安平區","LI":"育平里","LIN":"32鄰","STREET":"育平路","SECT":" ","MAREA":" ","LANE":" ","ALLEY":" ","HOUSE_NO":"７０號五樓之８","E_COORD97":164565.14919699999,"N_COORD97":2543081.29287,"ADDRESS":"育平路７０號五樓之８","OBJECTID":650398},"geometry":{"x":164565.14919700008,"y":2543081.2928700019}},{"attributes":{"ID":650426,"DIS_CODE":0,"TOWNNAME":"仁德區","LI":"田厝里","LIN":"7鄰","STREET":"中正路","SECT":"一段","MAREA":" ","LANE":" ","ALLEY":" ","HOUSE_NO":"５６３號","E_COORD97":172881.703607,"N_COORD97":2537723.0153199998,"ADDRESS":"中正路一段５６３號","OBJECTID":650399},"geometry":{"x":172881.70360700134,"y":2537723.015324004}},{"attributes":{"ID":650427,"DIS_CODE":0,"TOWNNAME":"安平區","LI":"育平里","LIN":"32鄰","STREET":"育平路","SECT":" ","MAREA":" ","LANE":" ","ALLEY":" ","HOUSE_NO":"７０號六樓之１","E_COORD97":164565.14919699999,"N_COORD97":2543081.29287,"ADDRESS":"育平路７０號六樓之１","OBJECTID":650400},"geometry":{"x":164565.14919700008,"y":2543081.2928700019}}]}