{"displayFieldName":"TOWNNAME","fieldAliases":{"ID":"ID","DIS_CODE":"DIS_CODE","TOWNNAME":"TOWNNAME","LI":"LI","LIN":"LIN","STREET":"STREET","SECT":"SECT","MAREA":"MAREA","LANE":"LANE","ALLEY":"ALLEY","HOUSE_NO":"HOUSE_NO","E_COORD97":"E_COORD97","N_COORD97":"N_COORD97","ADDRESS":"ADDRESS","OBJECTID":"OBJECTID"},"geometryType":"esriGeometryPoint","spatialReference":{"wkid":102443,"latestWkid":3826},"fields":[{"name":"ID","type":"esriFieldTypeDouble","alias":"ID"},{"name":"DIS_CODE","type":"esriFieldTypeInteger","alias":"DIS_CODE"},{"name":"TOWNNAME","type":"esriFieldTypeString","alias":"TOWNNAME","length":8},{"name":"LI","type":"esriFieldTypeString","alias":"LI","length":8},{"name":"LIN","type":"esriFieldTypeString","alias":"LIN","length":12},{"name":"STREET","type":"esriFieldTypeString","alias":"STREET","length":20},{"name":"SECT","type":"esriFieldTypeString","alias":"SECT","length":8},{"name":"MAREA","type":"esriFieldTypeString","alias":"MAREA","length":12},{"name":"LANE","type":"esriFieldTypeString","alias":"LANE","length":10},{"name":"ALLEY","type":"esriFieldTypeString","alias":"ALLEY","length":10},{"name":"HOUSE_NO","type":"esriFieldTypeString","alias":"HOUSE_NO","length":20},{"name":"E_COORD97","type":"esriFieldTypeDouble","alias":"E_COORD97"},{"name":"N_COORD97","type":"esriFieldTypeDouble","alias":"N_COORD97"},{"name":"ADDRESS","type":"esriFieldTypeString","alias":"ADDRESS","length":50},{"name":"OBJECTID","type":"esriFieldTypeOID","alias":"OBJECTID"}],"features":[{"attributes":{"ID":465826,"DIS_CODE":0,"TOWNNAME":"安平區","LI":"億載里","LIN":"5鄰","STREET":"永華十一街","SECT":" ","MAREA":" ","LANE":" ","ALLEY":" ","HOUSE_NO":"１２３號","E_COORD97":164072.66,"N_COORD97":2543713.8100000001,"ADDRESS":"永華十一街１２３號","OBJECTID":465801},"geometry":{"x":164072.66000000201,"y":2543713.8100000005}},{"attributes":{"ID":465827,"DIS_CODE":0,"TOWNNAME":"北區","LI":"東興里","LIN":"5鄰","STREET":"東豐路","SECT":" ","MAREA":" ","LANE":" ","ALLEY":" ","HOUSE_NO":"５６１號","E_COORD97":170846.29999999999,"N_COORD97":2544602.3100000001,"ADDRESS":"東豐路５６１號","OBJECTID":465802},"geometry":{"x":170846.29999999981,"y":2544602.3099999987}},{"attributes":{"ID":465828,"DIS_CODE":0,"TOWNNAME":"北區","LI":"東興里","LIN":"5鄰","STREET":"東豐路","SECT":" ","MAREA":" ","LANE":" ","ALLEY":" ","HOUSE_NO":"５６５號","E_COORD97":170851.75,"N_COORD97":2544596.4300000002,"ADDRESS":"東豐路５６５號","OBJECTID":465803},"geometry":{"x":170851.75000000093,"y":2544596.4299999997}},{"attributes":{"ID":465829,"DIS_CODE":0,"TOWNNAME":"北區","LI":"東興里","LIN":"5鄰","STREET":"東豐路","SECT":" ","MAREA":" ","LANE":" ","ALLEY":" ","HOUSE_NO":"５６７號","E_COORD97":170858.56,"N_COORD97":2544591.96,"ADDRESS":"東豐路５６７號","OBJECTID":465804},"geometry":{"x":170858.55999999866,"y":2544591.9600000028}},{"attributes":{"ID":465830,"DIS_CODE":0,"TOWNNAME":"北區","LI":"東興里","LIN":"5鄰","STREET":"東豐路","SECT":" ","MAREA":" ","LANE":" ","ALLEY":" ","HOUSE_NO":"５６９號","E_COORD97":170862.16,"N_COORD97":2544586.52,"ADDRESS":"東豐路５６９號","OBJECTID":465805},"geometry":{"x":170862.16000000108,"y":2544586.5200000033}},{"attributes":{"ID":465831,"DIS_CODE":0,"TOWNNAME":"北區","LI":"東興里","LIN":"5鄰","STREET":"東豐路","SECT":" ","MAREA":" ","LANE":" ","ALLEY":" ","HOUSE_NO":"５７１號","E_COORD97":170863.62,"N_COORD97":2544582.8199999998,"ADDRESS":"東豐路５７１號","OBJECTID":465806},"geometry":{"x":170863.62000000011,"y":2544582.8200000022}},{"attributes":{"ID":465832,"DIS_CODE":0,"TOWNNAME":"北區","LI":"東興里","LIN":"5鄰","STREET":"東豐路","SECT":" ","MAREA":" ","LANE":" ","ALLEY":" ","HOUSE_NO":"５７３號","E_COORD97":170864.59,"N_COORD97":2544579.1299999999,"ADDRESS":"東豐路５７３號","OBJECTID":465807},"geometry":{"x":170864.59000000078,"y":2544579.1300000008}},{"attributes":{"ID":465833,"DIS_CODE":0,"TOWNNAME":"北區","LI":"東興里","LIN":"5鄰","STREET":"東豐路","SECT":" ","MAREA":" ","LANE":" ","ALLEY":" ","HOUSE_NO":"５７５號","E_COORD97":170868.09,"N_COORD97":2544575.5299999998,"ADDRESS":"東豐路５７５號","OBJECTID":465808},"geometry":{"x":170868.08999999985,"y":2544575.5299999993}},{"attributes":{"ID":465834,"DIS_CODE":0,"TOWNNAME":"北區","LI":"東興里","LIN":"5鄰","STREET":"東豐路","SECT":" ","MAREA":" ","LANE":" ","ALLEY":" ","HOUSE_NO":"５７７號","E_COORD97":170870.39999999999,"N_COORD97":2544571.6899999999,"ADDRESS":"東豐路５７７號","OBJECTID":465809},"geometry":{"x":170870.40000000037,"y":2544571.6900000032}},{"attributes":{"ID":465835,"DIS_CODE":0,"TOWNNAME":"北區","LI":"東興里","LIN":"5鄰","STREET":"東豐路","SECT":" ","MAREA":" ","LANE":" ","ALLEY":" ","HOUSE_NO":"５７９號","E_COORD97":170870.5,"N_COORD97":2544567.5099999998,"ADDRESS":"東豐路５７９號","OBJECTID":465810},"geometry":{"x":170870.50000000093,"y":2544567.5100000016}},{"attributes":{"ID":465836,"DIS_CODE":0,"TOWNNAME":"北區","LI":"東興里","LIN":"5鄰","STREET":"東豐路","SECT":" ","MAREA":" ","LANE":" ","ALLEY":" ","HOUSE_NO":"５８１號","E_COORD97":170871.85999999999,"N_COORD97":2544563.8100000001,"ADDRESS":"東豐路５８１號","OBJECTID":465811},"geometry":{"x":170871.86000000034,"y":2544563.8100000005}},{"attributes":{"ID":465837,"DIS_CODE":0,"TOWNNAME":"北區","LI":"東興里","LIN":"5鄰","STREET":"東豐路","SECT":" ","MAREA":" ","LANE":" ","ALLEY":" ","HOUSE_NO":"５８３號","E_COORD97":170873.32000000001,"N_COORD97":2544560.1200000001,"ADDRESS":"東豐路５８３號","OBJECTID":465812},"geometry":{"x":170873.32000000123,"y":2544560.1200000048}},{"attributes":{"ID":465838,"DIS_CODE":0,"TOWNNAME":"北區","LI":"東興里","LIN":"5鄰","STREET":"東豐路","SECT":" ","MAREA":" ","LANE":" ","ALLEY":" ","HOUSE_NO":"５８５號","E_COORD97":170874.39000000001,"N_COORD97":2544557.1099999999,"ADDRESS":"東豐路５８５號","OBJECTID":465813},"geometry":{"x":170874.38999999966,"y":2544557.1099999994}},{"attributes":{"ID":465839,"DIS_CODE":0,"TOWNNAME":"北區","LI":"東興里","LIN":"5鄰","STREET":"東豐路","SECT":" ","MAREA":" ","LANE":" ","ALLEY":" ","HOUSE_NO":"５８７號","E_COORD97":170875.26999999999,"N_COORD97":2544554.0899999999,"ADDRESS":"東豐路５８７號","OBJECTID":465814},"geometry":{"x":170875.26999999955,"y":2544554.0899999999}},{"attributes":{"ID":465840,"DIS_CODE":0,"TOWNNAME":"北區","LI":"東興里","LIN":"5鄰","STREET":"東豐路","SECT":" ","MAREA":" ","LANE":" ","ALLEY":" ","HOUSE_NO":"５８９號","E_COORD97":170876.23999999999,"N_COORD97":2544550.79,"ADDRESS":"東豐路５８９號","OBJECTID":465815},"geometry":{"x":170876.24000000022,"y":2544550.790000001}},{"attributes":{"ID":465841,"DIS_CODE":0,"TOWNNAME":"北區","LI":"東興里","LIN":"5鄰","STREET":"東豐路","SECT":" ","MAREA":" ","LANE":" ","ALLEY":" ","HOUSE_NO":"５９１號","E_COORD97":170876.92000000001,"N_COORD97":2544547.29,"ADDRESS":"東豐路５９１號","OBJECTID":465816},"geometry":{"x":170876.92000000179,"y":2544547.290000001}},{"attributes":{"ID":465842,"DIS_CODE":0,"TOWNNAME":"北區","LI":"東興里","LIN":"5鄰","STREET":"東豐路","SECT":" ","MAREA":" ","LANE":" ","ALLEY":" ","HOUSE_NO":"５９３號","E_COORD97":170877.5,"N_COORD97":2544543.79,"ADDRESS":"東豐路５９３號","OBJECTID":465817},"geometry":{"x":170877.5,"y":2544543.790000001}},{"attributes":{"ID":465843,"DIS_CODE":0,"TOWNNAME":"北區","LI":"東興里","LIN":"5鄰","STREET":"東豐路","SECT":" ","MAREA":" ","LANE":" ","ALLEY":" ","HOUSE_NO":"５９５號","E_COORD97":170877.89000000001,"N_COORD97":2544540.29,"ADDRESS":"東豐路５９５號","OBJECTID":465818},"geometry":{"x":170877.88999999966,"y":2544540.2900000028}},{"attributes":{"ID":465844,"DIS_CODE":0,"TOWNNAME":"北區","LI":"東興里","LIN":"5鄰","STREET":"東豐路","SECT":" ","MAREA":" ","LANE":" ","ALLEY":" ","HOUSE_NO":"５９７號","E_COORD97":170878.67000000001,"N_COORD97":2544536.5,"ADDRESS":"東豐路５９７號","OBJECTID":465819},"geometry":{"x":170878.67000000179,"y":2544536.5000000019}},{"attributes":{"ID":465845,"DIS_CODE":0,"TOWNNAME":"北區","LI":"東興里","LIN":"5鄰","STREET":"東豐路","SECT":" ","MAREA":" ","LANE":" ","ALLEY":" ","HOUSE_NO":"６０１號","E_COORD97":170882.07999999999,"N_COORD97":2544532.3900000001,"ADDRESS":"東豐路６０１號","OBJECTID":465820},"geometry":{"x":170882.08000000007,"y":2544532.3900000025}},{"attributes":{"ID":465846,"DIS_CODE":0,"TOWNNAME":"北區","LI":"東興里","LIN":"5鄰","STREET":"東豐路","SECT":" ","MAREA":" ","LANE":" ","ALLEY":" ","HOUSE_NO":"６０３號","E_COORD97":170883.54000000001,"N_COORD97":2544528.6000000001,"ADDRESS":"東豐路６０３號","OBJECTID":465821},"geometry":{"x":170883.54000000097,"y":2544528.6000000034}},{"attributes":{"ID":465847,"DIS_CODE":0,"TOWNNAME":"北區","LI":"東興里","LIN":"5鄰","STREET":"東豐路","SECT":" ","MAREA":" ","LANE":" ","ALLEY":" ","HOUSE_NO":"６０５號","E_COORD97":170883.63,"N_COORD97":2544524.71,"ADDRESS":"東豐路６０５號","OBJECTID":465822},"geometry":{"x":170883.62999999989,"y":2544524.7100000009}},{"attributes":{"ID":465848,"DIS_CODE":0,"TOWNNAME":"北區","LI":"東興里","LIN":"5鄰","STREET":"東豐路","SECT":" ","MAREA":" ","LANE":" ","ALLEY":" ","HOUSE_NO":"６０９號","E_COORD97":170885.19,"N_COORD97":2544515.7599999998,"ADDRESS":"東豐路６０９號","OBJECTID":465823},"geometry":{"x":170885.19000000041,"y":2544515.7599999998}},{"attributes":{"ID":465849,"DIS_CODE":0,"TOWNNAME":"北區","LI":"東興里","LIN":"5鄰","STREET":"東豐路","SECT":" ","MAREA":" ","LANE":" ","ALLEY":" ","HOUSE_NO":"６１１號","E_COORD97":170885.38,"N_COORD97":2544511.4100000001,"ADDRESS":"東豐路６１１號","OBJECTID":465824},"geometry":{"x":170885.37999999989,"y":2544511.410000002}},{"attributes":{"ID":465850,"DIS_CODE":0,"TOWNNAME":"北區","LI":"東興里","LIN":"5鄰","STREET":"東豐路","SECT":" ","MAREA":" ","LANE":" ","ALLEY":" ","HOUSE_NO":"６１３號","E_COORD97":170885.48000000001,"N_COORD97":2544507.23,"ADDRESS":"東豐路６１３號","OBJECTID":465825},"geometry":{"x":170885.48000000231,"y":2544507.2300000004}},{"attributes":{"ID":465851,"DIS_CODE":0,"TOWNNAME":"北區","LI":"東興里","LIN":"5鄰","STREET":"東豐路","SECT":" ","MAREA":" ","LANE":" ","ALLEY":" ","HOUSE_NO":"６１５號","E_COORD97":170885.19,"N_COORD97":2544502.9500000002,"ADDRESS":"東豐路６１５號","OBJECTID":465826},"geometry":{"x":170885.19000000041,"y":2544502.9500000011}},{"attributes":{"ID":465852,"DIS_CODE":0,"TOWNNAME":"北區","LI":"東興里","LIN":"5鄰","STREET":"東豐路","SECT":" ","MAREA":" ","LANE":" ","ALLEY":" ","HOUSE_NO":"６１７號","E_COORD97":170885.29000000001,"N_COORD97":2544498.9700000002,"ADDRESS":"東豐路６１７號","OBJECTID":465827},"geometry":{"x":170885.29000000097,"y":2544498.9700000007}},{"attributes":{"ID":465853,"DIS_CODE":0,"TOWNNAME":"北區","LI":"東興里","LIN":"5鄰","STREET":"東豐路","SECT":" ","MAREA":" ","LANE":" ","ALLEY":" ","HOUSE_NO":"６１９號","E_COORD97":170885.57999999999,"N_COORD97":2544495.5600000001,"ADDRESS":"東豐路６１９號","OBJECTID":465828},"geometry":{"x":170885.58000000007,"y":2544495.5600000042}},{"attributes":{"ID":465854,"DIS_CODE":0,"TOWNNAME":"北區","LI":"東興里","LIN":"5鄰","STREET":"東豐路","SECT":" ","MAREA":" ","LANE":" ","ALLEY":" ","HOUSE_NO":"６２１號","E_COORD97":170889.95999999999,"N_COORD97":2544490.6099999999,"ADDRESS":"東豐路６２１號","OBJECTID":465829},"geometry":{"x":170889.95999999996,"y":2544490.6100000031}},{"attributes":{"ID":465855,"DIS_CODE":0,"TOWNNAME":"北區","LI":"東興里","LIN":"5鄰","STREET":"東豐路","SECT":" ","MAREA":" ","LANE":" ","ALLEY":" ","HOUSE_NO":"５４７號","E_COORD97":170840.66,"N_COORD97":2544621.04,"ADDRESS":"東豐路５４７號","OBJECTID":465830},"geometry":{"x":170840.66000000108,"y":2544621.040000001}},{"attributes":{"ID":465856,"DIS_CODE":0,"TOWNNAME":"北區","LI":"東興里","LIN":"5鄰","STREET":"東豐路","SECT":" ","MAREA":" ","LANE":" ","ALLEY":" ","HOUSE_NO":"５５３號","E_COORD97":170842.41,"N_COORD97":2544617.3500000001,"ADDRESS":"東豐路５５３號","OBJECTID":465831},"geometry":{"x":170842.41000000108,"y":2544617.3499999996}},{"attributes":{"ID":465857,"DIS_CODE":0,"TOWNNAME":"北區","LI":"東興里","LIN":"5鄰","STREET":"東豐路","SECT":" ","MAREA":" ","LANE":" ","ALLEY":" ","HOUSE_NO":"５５５號","E_COORD97":170844.84,"N_COORD97":2544612.8799999999,"ADDRESS":"東豐路５５５號","OBJECTID":465832},"geometry":{"x":170844.83999999985,"y":2544612.879999999}},{"attributes":{"ID":465858,"DIS_CODE":0,"TOWNNAME":"北區","LI":"中樓里","LIN":"5鄰","STREET":"開元路","SECT":" ","MAREA":" ","LANE":" ","ALLEY":" ","HOUSE_NO":"４８號","E_COORD97":169642.78,"N_COORD97":2545121.54,"ADDRESS":"開元路４８號","OBJECTID":465833},"geometry":{"x":169642.78000000119,"y":2545121.5400000028}},{"attributes":{"ID":465859,"DIS_CODE":0,"TOWNNAME":"北區","LI":"中樓里","LIN":"5鄰","STREET":"前鋒路","SECT":" ","MAREA":" ","LANE":" ","ALLEY":" ","HOUSE_NO":"３０５號","E_COORD97":169620.06,"N_COORD97":2545101.1099999999,"ADDRESS":"前鋒路３０５號","OBJECTID":465834},"geometry":{"x":169620.06000000052,"y":2545101.1100000031}},{"attributes":{"ID":465860,"DIS_CODE":0,"TOWNNAME":"北區","LI":"中樓里","LIN":"5鄰","STREET":"前鋒路","SECT":" ","MAREA":" ","LANE":" ","ALLEY":" ","HOUSE_NO":"３０７號","E_COORD97":169622.92999999999,"N_COORD97":2545103.8300000001,"ADDRESS":"前鋒路３０７號","OBJECTID":465835},"geometry":{"x":169622.93000000063,"y":2545103.8300000038}},{"attributes":{"ID":465861,"DIS_CODE":0,"TOWNNAME":"北區","LI":"中樓里","LIN":"5鄰","STREET":"前鋒路","SECT":" ","MAREA":" ","LANE":" ","ALLEY":" ","HOUSE_NO":"３０９號","E_COORD97":169625.88,"N_COORD97":2545106.7000000002,"ADDRESS":"前鋒路３０９號","OBJECTID":465836},"geometry":{"x":169625.87999999989,"y":2545106.6999999993}},{"attributes":{"ID":465862,"DIS_CODE":0,"TOWNNAME":"北區","LI":"中樓里","LIN":"5鄰","STREET":"前鋒路","SECT":" ","MAREA":" ","LANE":" ","ALLEY":" ","HOUSE_NO":"３１１號","E_COORD97":169631.39000000001,"N_COORD97":2545110.02,"ADDRESS":"前鋒路３１１號","OBJECTID":465837},"geometry":{"x":169631.3900000006,"y":2545110.0200000014}},{"attributes":{"ID":465863,"DIS_CODE":0,"TOWNNAME":"北區","LI":"中樓里","LIN":"5鄰","STREET":"開元路","SECT":" ","MAREA":" ","LANE":" ","ALLEY":" ","HOUSE_NO":"３４號","E_COORD97":169599.85999999999,"N_COORD97":2545118.7200000002,"ADDRESS":"開元路３４號","OBJECTID":465838},"geometry":{"x":169599.86000000127,"y":2545118.7200000044}},{"attributes":{"ID":465864,"DIS_CODE":0,"TOWNNAME":"北區","LI":"中樓里","LIN":"5鄰","STREET":"開元路","SECT":" ","MAREA":" ","LANE":" ","ALLEY":" ","HOUSE_NO":"３４號之１","E_COORD97":169603.39000000001,"N_COORD97":2545119.6200000001,"ADDRESS":"開元路３４號之１","OBJECTID":465839},"geometry":{"x":169603.38999999966,"y":2545119.6200000048}},{"attributes":{"ID":465865,"DIS_CODE":0,"TOWNNAME":"北區","LI":"中樓里","LIN":"5鄰","STREET":"開元路","SECT":" ","MAREA":" ","LANE":" ","ALLEY":" ","HOUSE_NO":"３４號之２","E_COORD97":169606.94,"N_COORD97":2545121.5899999999,"ADDRESS":"開元路３４號之２","OBJECTID":465840},"geometry":{"x":169606.94000000041,"y":2545121.5899999999}},{"attributes":{"ID":465866,"DIS_CODE":0,"TOWNNAME":"北區","LI":"中樓里","LIN":"5鄰","STREET":"開元路","SECT":" ","MAREA":" ","LANE":" ","ALLEY":" ","HOUSE_NO":"３６號","E_COORD97":169610.12,"N_COORD97":2545123.02,"ADDRESS":"開元路３６號","OBJECTID":465841},"geometry":{"x":169610.12000000104,"y":2545123.0200000014}},{"attributes":{"ID":465867,"DIS_CODE":0,"TOWNNAME":"北區","LI":"中樓里","LIN":"5鄰","STREET":"開元路","SECT":" ","MAREA":" ","LANE":" ","ALLEY":" ","HOUSE_NO":"３８號","E_COORD97":169613.45000000001,"N_COORD97":2545124.3100000001,"ADDRESS":"開元路３８號","OBJECTID":465842},"geometry":{"x":169613.45000000019,"y":2545124.3099999987}},{"attributes":{"ID":465868,"DIS_CODE":0,"TOWNNAME":"北區","LI":"中樓里","LIN":"5鄰","STREET":"東豐路","SECT":" ","MAREA":" ","LANE":" ","ALLEY":" ","HOUSE_NO":"３０號","E_COORD97":169484.32000000001,"N_COORD97":2544906.96,"ADDRESS":"東豐路３０號","OBJECTID":465843},"geometry":{"x":169484.3200000003,"y":2544906.9600000046}},{"attributes":{"ID":465869,"DIS_CODE":0,"TOWNNAME":"北區","LI":"中樓里","LIN":"5鄰","STREET":"東豐路","SECT":" ","MAREA":" ","LANE":" ","ALLEY":" ","HOUSE_NO":"３１號","E_COORD97":169502.54000000001,"N_COORD97":2544963.8199999998,"ADDRESS":"東豐路３１號","OBJECTID":465844},"geometry":{"x":169502.54000000004,"y":2544963.8200000003}},{"attributes":{"ID":465870,"DIS_CODE":0,"TOWNNAME":"北區","LI":"中樓里","LIN":"5鄰","STREET":"東豐路","SECT":" ","MAREA":" ","LANE":" ","ALLEY":" ","HOUSE_NO":"３２號","E_COORD97":169488.64999999999,"N_COORD97":2544906.1600000001,"ADDRESS":"東豐路３２號","OBJECTID":465845},"geometry":{"x":169488.65000000037,"y":2544906.160000002}},{"attributes":{"ID":465871,"DIS_CODE":0,"TOWNNAME":"北區","LI":"中樓里","LIN":"5鄰","STREET":"東豐路","SECT":" ","MAREA":" ","LANE":" ","ALLEY":" ","HOUSE_NO":"３３號","E_COORD97":169505.85999999999,"N_COORD97":2544963.2200000002,"ADDRESS":"東豐路３３號","OBJECTID":465846},"geometry":{"x":169505.86000000034,"y":2544963.2200000025}},{"attributes":{"ID":465872,"DIS_CODE":0,"TOWNNAME":"北區","LI":"中樓里","LIN":"5鄰","STREET":"前鋒路","SECT":" ","MAREA":" ","LANE":" ","ALLEY":" ","HOUSE_NO":"２５５號","E_COORD97":169513.19,"N_COORD97":2544902.1299999999,"ADDRESS":"前鋒路２５５號","OBJECTID":465847},"geometry":{"x":169513.19000000134,"y":2544902.129999999}},{"attributes":{"ID":465873,"DIS_CODE":0,"TOWNNAME":"北區","LI":"玉皇里","LIN":"5鄰","STREET":"崇安街","SECT":" ","MAREA":" ","LANE":" ","ALLEY":" ","HOUSE_NO":"１２９號","E_COORD97":168817.38,"N_COORD97":2544603.9500000002,"ADDRESS":"崇安街１２９號","OBJECTID":465848},"geometry":{"x":168817.37999999896,"y":2544603.9500000011}},{"attributes":{"ID":465874,"DIS_CODE":0,"TOWNNAME":"北區","LI":"玉皇里","LIN":"5鄰","STREET":"崇安街","SECT":" ","MAREA":" ","LANE":" ","ALLEY":" ","HOUSE_NO":"１３３號","E_COORD97":168824.37,"N_COORD97":2544605.8700000001,"ADDRESS":"崇安街１３３號","OBJECTID":465849},"geometry":{"x":168824.37000000011,"y":2544605.8700000048}},{"attributes":{"ID":465875,"DIS_CODE":0,"TOWNNAME":"北區","LI":"玉皇里","LIN":"5鄰","STREET":"公園南路","SECT":" ","MAREA":" ","LANE":" ","ALLEY":" ","HOUSE_NO":"１１１號","E_COORD97":168820.01000000001,"N_COORD97":2544619.3500000001,"ADDRESS":"公園南路１１１號","OBJECTID":465850},"geometry":{"x":168820.01000000164,"y":2544619.3500000015}},{"attributes":{"ID":465876,"DIS_CODE":0,"TOWNNAME":"北區","LI":"五福里","LIN":"5鄰","STREET":"自強街","SECT":" ","MAREA":" ","LANE":" ","ALLEY":" ","HOUSE_NO":"１００號","E_COORD97":168324.85999999999,"N_COORD97":2544625.5099999998,"ADDRESS":"自強街１００號","OBJECTID":465851},"geometry":{"x":168324.8600000022,"y":2544625.5100000016}},{"attributes":{"ID":465877,"DIS_CODE":0,"TOWNNAME":"北區","LI":"五福里","LIN":"5鄰","STREET":"自強街","SECT":" ","MAREA":" ","LANE":" ","ALLEY":" ","HOUSE_NO":"１０２號","E_COORD97":168326.81,"N_COORD97":2544629.4100000001,"ADDRESS":"自強街１０２號","OBJECTID":465852},"geometry":{"x":168326.81000000052,"y":2544629.410000002}},{"attributes":{"ID":465878,"DIS_CODE":0,"TOWNNAME":"北區","LI":"五福里","LIN":"5鄰","STREET":"自強街","SECT":" ","MAREA":" ","LANE":" ","ALLEY":" ","HOUSE_NO":"１０４號","E_COORD97":168329.06,"N_COORD97":2544633.1499999999,"ADDRESS":"自強街１０４號","OBJECTID":465853},"geometry":{"x":168329.05999999959,"y":2544633.1500000004}},{"attributes":{"ID":465879,"DIS_CODE":0,"TOWNNAME":"北區","LI":"五福里","LIN":"5鄰","STREET":"自強街","SECT":" ","MAREA":" ","LANE":" ","ALLEY":" ","HOUSE_NO":"１０６號","E_COORD97":168331.14999999999,"N_COORD97":2544636.7400000002,"ADDRESS":"自強街１０６號","OBJECTID":465854},"geometry":{"x":168331.15000000037,"y":2544636.7400000039}},{"attributes":{"ID":465880,"DIS_CODE":0,"TOWNNAME":"北區","LI":"五福里","LIN":"5鄰","STREET":"自強街","SECT":" ","MAREA":" ","LANE":" ","ALLEY":" ","HOUSE_NO":"１０８號","E_COORD97":168333.10000000001,"N_COORD97":2544640.6400000001,"ADDRESS":"自強街１０８號","OBJECTID":465855},"geometry":{"x":168333.10000000056,"y":2544640.6400000006}},{"attributes":{"ID":465881,"DIS_CODE":0,"TOWNNAME":"北區","LI":"五福里","LIN":"5鄰","STREET":"自強街","SECT":" ","MAREA":" ","LANE":" ","ALLEY":" ","HOUSE_NO":"１１０號","E_COORD97":168334.14999999999,"N_COORD97":2544643.48,"ADDRESS":"自強街１１０號","OBJECTID":465856},"geometry":{"x":168334.15000000037,"y":2544643.4800000023}},{"attributes":{"ID":465882,"DIS_CODE":0,"TOWNNAME":"北區","LI":"五福里","LIN":"5鄰","STREET":"自強街","SECT":" ","MAREA":" ","LANE":" ","ALLEY":" ","HOUSE_NO":"１１２號","E_COORD97":168337.29999999999,"N_COORD97":2544646.6299999999,"ADDRESS":"自強街１１２號","OBJECTID":465857},"geometry":{"x":168337.30000000075,"y":2544646.6300000008}},{"attributes":{"ID":465883,"DIS_CODE":0,"TOWNNAME":"北區","LI":"五福里","LIN":"5鄰","STREET":"自強街","SECT":" ","MAREA":" ","LANE":" ","ALLEY":" ","HOUSE_NO":"１１４號","E_COORD97":168339.54999999999,"N_COORD97":2544650.3700000001,"ADDRESS":"自強街１１４號","OBJECTID":465858},"geometry":{"x":168339.54999999981,"y":2544650.3700000029}},{"attributes":{"ID":465884,"DIS_CODE":0,"TOWNNAME":"北區","LI":"五福里","LIN":"5鄰","STREET":"自強街","SECT":" ","MAREA":" ","LANE":" ","ALLEY":" ","HOUSE_NO":"１１６號","E_COORD97":168339.85000000001,"N_COORD97":2544652.3199999998,"ADDRESS":"自強街１１６號","OBJECTID":465859},"geometry":{"x":168339.85000000056,"y":2544652.3200000003}},{"attributes":{"ID":465885,"DIS_CODE":0,"TOWNNAME":"北區","LI":"五福里","LIN":"5鄰","STREET":"自強街","SECT":" ","MAREA":" ","LANE":" ","ALLEY":" ","HOUSE_NO":"１１８號","E_COORD97":168358.79999999999,"N_COORD97":2544651.6499999999,"ADDRESS":"自強街１１８號","OBJECTID":465860},"geometry":{"x":168358.80000000075,"y":2544651.6500000022}},{"attributes":{"ID":465886,"DIS_CODE":0,"TOWNNAME":"北區","LI":"五福里","LIN":"5鄰","STREET":"自強街","SECT":" ","MAREA":" ","LANE":" ","ALLEY":" ","HOUSE_NO":"８８號","E_COORD97":168310.47,"N_COORD97":2544604.6299999999,"ADDRESS":"自強街８８號","OBJECTID":465861},"geometry":{"x":168310.47000000067,"y":2544604.629999999}},{"attributes":{"ID":465887,"DIS_CODE":0,"TOWNNAME":"北區","LI":"五福里","LIN":"5鄰","STREET":"自強街","SECT":" ","MAREA":" ","LANE":" ","ALLEY":" ","HOUSE_NO":"９０號","E_COORD97":168312.26999999999,"N_COORD97":2544608.2200000002,"ADDRESS":"自強街９０號","OBJECTID":465862},"geometry":{"x":168312.26999999955,"y":2544608.2200000025}},{"attributes":{"ID":465888,"DIS_CODE":0,"TOWNNAME":"北區","LI":"五福里","LIN":"5鄰","STREET":"自強街","SECT":" ","MAREA":" ","LANE":" ","ALLEY":" ","HOUSE_NO":"９２號","E_COORD97":168315.26999999999,"N_COORD97":2544611.73,"ADDRESS":"自強街９２號","OBJECTID":465863},"geometry":{"x":168315.26999999955,"y":2544611.7300000004}},{"attributes":{"ID":465889,"DIS_CODE":0,"TOWNNAME":"北區","LI":"五福里","LIN":"5鄰","STREET":"自強街","SECT":" ","MAREA":" ","LANE":" ","ALLEY":" ","HOUSE_NO":"９４號","E_COORD97":168316.76999999999,"N_COORD97":2544616.0800000001,"ADDRESS":"自強街９４號","OBJECTID":465864},"geometry":{"x":168316.77000000048,"y":2544616.0800000001}},{"attributes":{"ID":465890,"DIS_CODE":0,"TOWNNAME":"北區","LI":"五福里","LIN":"5鄰","STREET":"自強街","SECT":" ","MAREA":" ","LANE":" ","ALLEY":" ","HOUSE_NO":"９６號","E_COORD97":168319.32000000001,"N_COORD97":2544619.0699999998,"ADDRESS":"自強街９６號","OBJECTID":465865},"geometry":{"x":168319.3200000003,"y":2544619.0700000022}},{"attributes":{"ID":465891,"DIS_CODE":0,"TOWNNAME":"北區","LI":"五福里","LIN":"5鄰","STREET":"自強街","SECT":" ","MAREA":" ","LANE":" ","ALLEY":" ","HOUSE_NO":"９８號","E_COORD97":168323.06,"N_COORD97":2544622.2200000002,"ADDRESS":"自強街９８號","OBJECTID":465866},"geometry":{"x":168323.06000000052,"y":2544622.2200000007}},{"attributes":{"ID":465892,"DIS_CODE":0,"TOWNNAME":"歸仁區","LI":"看西里","LIN":"5鄰","STREET":"仁愛十街","SECT":" ","MAREA":" ","LANE":" ","ALLEY":" ","HOUSE_NO":"５５號","E_COORD97":178171.04999999999,"N_COORD97":2540318.4900000002,"ADDRESS":"仁愛十街５５號","OBJECTID":465867},"geometry":{"x":178171.05000000075,"y":2540318.4900000002}},{"attributes":{"ID":465893,"DIS_CODE":0,"TOWNNAME":"歸仁區","LI":"南興里","LIN":"5鄰","STREET":"民生二街","SECT":" ","MAREA":" ","LANE":" ","ALLEY":" ","HOUSE_NO":"２７號","E_COORD97":176189.29000000001,"N_COORD97":2541312.29,"ADDRESS":"民生二街２７號","OBJECTID":465868},"geometry":{"x":176189.29000000097,"y":2541312.2900000028}},{"attributes":{"ID":465894,"DIS_CODE":0,"TOWNNAME":"歸仁區","LI":"南保里","LIN":"5鄰","STREET":"文化街","SECT":"三段","MAREA":" ","LANE":" ","ALLEY":" ","HOUSE_NO":"３８號","E_COORD97":176909.09,"N_COORD97":2541249.3300000001,"ADDRESS":"文化街三段３８號","OBJECTID":465869},"geometry":{"x":176909.09000000078,"y":2541249.3300000019}},{"attributes":{"ID":465895,"DIS_CODE":0,"TOWNNAME":"歸仁區","LI":"南保里","LIN":"5鄰","STREET":"文化街","SECT":"三段","MAREA":" ","LANE":" ","ALLEY":" ","HOUSE_NO":"２８號","E_COORD97":176930.69,"N_COORD97":2541249.3300000001,"ADDRESS":"文化街三段２８號","OBJECTID":465870},"geometry":{"x":176930.68999999948,"y":2541249.3300000019}},{"attributes":{"ID":465896,"DIS_CODE":0,"TOWNNAME":"歸仁區","LI":"歸仁里","LIN":"5鄰","STREET":"和平北街","SECT":" ","MAREA":" ","LANE":" ","ALLEY":" ","HOUSE_NO":"５１號","E_COORD97":177837.39999999999,"N_COORD97":2540956.48,"ADDRESS":"和平北街５１號","OBJECTID":465871},"geometry":{"x":177837.40000000037,"y":2540956.4800000042}},{"attributes":{"ID":465897,"DIS_CODE":0,"TOWNNAME":"歸仁區","LI":"南興里","LIN":"5鄰","STREET":"民生二街","SECT":" ","MAREA":" ","LANE":" ","ALLEY":" ","HOUSE_NO":"５號","E_COORD97":176239.44,"N_COORD97":2541328.29,"ADDRESS":"民生二街５號","OBJECTID":465872},"geometry":{"x":176239.44000000134,"y":2541328.2899999991}},{"attributes":{"ID":465898,"DIS_CODE":0,"TOWNNAME":"歸仁區","LI":"辜厝里","LIN":"5鄰","STREET":"民族南街","SECT":" ","MAREA":" ","LANE":" ","ALLEY":" ","HOUSE_NO":"５４號","E_COORD97":177396.69,"N_COORD97":2540652.5499999998,"ADDRESS":"民族南街５４號","OBJECTID":465873},"geometry":{"x":177396.69000000041,"y":2540652.5500000026}},{"attributes":{"ID":465899,"DIS_CODE":0,"TOWNNAME":"歸仁區","LI":"南興里","LIN":"5鄰","STREET":"民生北街","SECT":" ","MAREA":" ","LANE":" ","ALLEY":" ","HOUSE_NO":"２２３號","E_COORD97":176262.34,"N_COORD97":2541320.29,"ADDRESS":"民生北街２２３號","OBJECTID":465874},"geometry":{"x":176262.33999999985,"y":2541320.290000001}},{"attributes":{"ID":465900,"DIS_CODE":0,"TOWNNAME":"玉井區","LI":"玉田里","LIN":"5鄰","STREET":"中華路","SECT":" ","MAREA":" ","LANE":" ","ALLEY":" ","HOUSE_NO":"３３號","E_COORD97":194930.70999999999,"N_COORD97":2558131.25,"ADDRESS":"中華路３３號","OBJECTID":465875},"geometry":{"x":194930.70999999996,"y":2558131.2500000019}},{"attributes":{"ID":465901,"DIS_CODE":0,"TOWNNAME":"玉井區","LI":"玉田里","LIN":"5鄰","STREET":"民族路","SECT":" ","MAREA":" ","LANE":" ","ALLEY":" ","HOUSE_NO":"７號","E_COORD97":194957.07999999999,"N_COORD97":2558110.29,"ADDRESS":"民族路７號","OBJECTID":465876},"geometry":{"x":194957.08000000007,"y":2558110.2899999991}},{"attributes":{"ID":465902,"DIS_CODE":0,"TOWNNAME":"玉井區","LI":"中正里","LIN":"5鄰","STREET":"福德街","SECT":" ","MAREA":" ","LANE":" ","ALLEY":" ","HOUSE_NO":"４５號","E_COORD97":195473.94,"N_COORD97":2558724.2599999998,"ADDRESS":"福德街４５號","OBJECTID":465877},"geometry":{"x":195473.94000000041,"y":2558724.2600000016}},{"attributes":{"ID":465903,"DIS_CODE":0,"TOWNNAME":"玉井區","LI":"玉田里","LIN":"5鄰","STREET":"民族路","SECT":" ","MAREA":" ","LANE":" ","ALLEY":" ","HOUSE_NO":"２１號","E_COORD97":194987.23999999999,"N_COORD97":2558106.2799999998,"ADDRESS":"民族路２１號","OBJECTID":465878},"geometry":{"x":194987.24000000022,"y":2558106.2800000012}},{"attributes":{"ID":465904,"DIS_CODE":0,"TOWNNAME":"玉井區","LI":"竹圍里","LIN":"5鄰","STREET":"大成路","SECT":" ","MAREA":" ","LANE":" ","ALLEY":" ","HOUSE_NO":"３３８號","E_COORD97":195589.12,"N_COORD97":2558477.6800000002,"ADDRESS":"大成路３３８號","OBJECTID":465879},"geometry":{"x":195589.12000000011,"y":2558477.6799999997}},{"attributes":{"ID":465905,"DIS_CODE":0,"TOWNNAME":"玉井區","LI":"中正里","LIN":"5鄰","STREET":"中正路","SECT":" ","MAREA":" ","LANE":" ","ALLEY":" ","HOUSE_NO":"４９３號","E_COORD97":195535.56,"N_COORD97":2558689.2400000002,"ADDRESS":"中正路４９３號","OBJECTID":465880},"geometry":{"x":195535.56000000145,"y":2558689.2400000002}},{"attributes":{"ID":465906,"DIS_CODE":0,"TOWNNAME":"玉井區","LI":"竹圍里","LIN":"5鄰","STREET":"大成路","SECT":" ","MAREA":" ","LANE":" ","ALLEY":" ","HOUSE_NO":"３５２號","E_COORD97":195579.91,"N_COORD97":2558507.1800000002,"ADDRESS":"大成路３５２號","OBJECTID":465881},"geometry":{"x":195579.91000000108,"y":2558507.1800000016}},{"attributes":{"ID":465907,"DIS_CODE":0,"TOWNNAME":"玉井區","LI":"竹圍里","LIN":"5鄰","STREET":"大成路","SECT":" ","MAREA":" ","LANE":" ","ALLEY":" ","HOUSE_NO":"３７６號","E_COORD97":195573.64000000001,"N_COORD97":2558529.3500000001,"ADDRESS":"大成路３７６號","OBJECTID":465882},"geometry":{"x":195573.63999999966,"y":2558529.3500000015}},{"attributes":{"ID":465908,"DIS_CODE":0,"TOWNNAME":"玉井區","LI":"竹圍里","LIN":"5鄰","STREET":"忠孝街","SECT":" ","MAREA":" ","LANE":" ","ALLEY":" ","HOUSE_NO":"５１６號","E_COORD97":195596.98999999999,"N_COORD97":2558534.7799999998,"ADDRESS":"忠孝街５１６號","OBJECTID":465883},"geometry":{"x":195596.99000000022,"y":2558534.7799999993}},{"attributes":{"ID":465909,"DIS_CODE":0,"TOWNNAME":"玉井區","LI":"玉田里","LIN":"5鄰","STREET":"中華路","SECT":" ","MAREA":" ","LANE":" ","ALLEY":" ","HOUSE_NO":"１７號","E_COORD97":194934.39999999999,"N_COORD97":2558165.2400000002,"ADDRESS":"中華路１７號","OBJECTID":465884},"geometry":{"x":194934.4000000013,"y":2558165.2400000021}},{"attributes":{"ID":465910,"DIS_CODE":0,"TOWNNAME":"玉井區","LI":"玉田里","LIN":"5鄰","STREET":"中華路","SECT":" ","MAREA":" ","LANE":" ","ALLEY":" ","HOUSE_NO":"３５號","E_COORD97":194930.51000000001,"N_COORD97":2558125.25,"ADDRESS":"中華路３５號","OBJECTID":465885},"geometry":{"x":194930.50999999978,"y":2558125.25}},{"attributes":{"ID":465911,"DIS_CODE":0,"TOWNNAME":"玉井區","LI":"玉田里","LIN":"5鄰","STREET":"中華路","SECT":" ","MAREA":" ","LANE":" ","ALLEY":" ","HOUSE_NO":"１１號","E_COORD97":194935.51000000001,"N_COORD97":2558177.2400000002,"ADDRESS":"中華路１１號","OBJECTID":465886},"geometry":{"x":194935.50999999978,"y":2558177.2400000002}},{"attributes":{"ID":465912,"DIS_CODE":0,"TOWNNAME":"玉井區","LI":"玉田里","LIN":"5鄰","STREET":"中華路","SECT":" ","MAREA":" ","LANE":" ","ALLEY":" ","HOUSE_NO":"２１號","E_COORD97":194933.79999999999,"N_COORD97":2558156.25,"ADDRESS":"中華路２１號","OBJECTID":465887},"geometry":{"x":194933.79999999981,"y":2558156.25}},{"attributes":{"ID":465913,"DIS_CODE":0,"TOWNNAME":"玉井區","LI":"玉田里","LIN":"5鄰","STREET":"中華路","SECT":" ","MAREA":" ","LANE":" ","ALLEY":" ","HOUSE_NO":"５號","E_COORD97":194935.45999999999,"N_COORD97":2558191.2400000002,"ADDRESS":"中華路５號","OBJECTID":465888},"geometry":{"x":194935.46000000089,"y":2558191.2400000039}},{"attributes":{"ID":465914,"DIS_CODE":0,"TOWNNAME":"玉井區","LI":"玉田里","LIN":"5鄰","STREET":"中華路","SECT":" ","MAREA":" ","LANE":" ","ALLEY":" ","HOUSE_NO":"２７號","E_COORD97":194931.60000000001,"N_COORD97":2558142.25,"ADDRESS":"中華路２７號","OBJECTID":465889},"geometry":{"x":194931.59999999963,"y":2558142.25}},{"attributes":{"ID":465915,"DIS_CODE":0,"TOWNNAME":"玉井區","LI":"玉田里","LIN":"5鄰","STREET":"中華路","SECT":" ","MAREA":" ","LANE":" ","ALLEY":" ","HOUSE_NO":"９號","E_COORD97":194935.04999999999,"N_COORD97":2558182.2400000002,"ADDRESS":"中華路９號","OBJECTID":465890},"geometry":{"x":194935.04999999981,"y":2558182.2400000021}},{"attributes":{"ID":465916,"DIS_CODE":0,"TOWNNAME":"玉井區","LI":"玉田里","LIN":"5鄰","STREET":"中華路","SECT":" ","MAREA":" ","LANE":" ","ALLEY":" ","HOUSE_NO":"３號","E_COORD97":194935.75,"N_COORD97":2558194.2400000002,"ADDRESS":"中華路３號","OBJECTID":465891},"geometry":{"x":194935.75,"y":2558194.2400000002}},{"attributes":{"ID":465917,"DIS_CODE":0,"TOWNNAME":"玉井區","LI":"玉田里","LIN":"5鄰","STREET":"中華路","SECT":" ","MAREA":" ","LANE":" ","ALLEY":" ","HOUSE_NO":"３１號","E_COORD97":194931.01000000001,"N_COORD97":2558135.25,"ADDRESS":"中華路３１號","OBJECTID":465892},"geometry":{"x":194931.01000000164,"y":2558135.25}},{"attributes":{"ID":465918,"DIS_CODE":0,"TOWNNAME":"玉井區","LI":"玉田里","LIN":"5鄰","STREET":"中華路","SECT":" ","MAREA":" ","LANE":" ","ALLEY":" ","HOUSE_NO":"１９號","E_COORD97":194934.31,"N_COORD97":2558161.2400000002,"ADDRESS":"中華路１９號","OBJECTID":465893},"geometry":{"x":194934.31000000052,"y":2558161.2400000021}},{"attributes":{"ID":465919,"DIS_CODE":0,"TOWNNAME":"玉井區","LI":"中正里","LIN":"5鄰","STREET":"中正路","SECT":" ","MAREA":" ","LANE":" ","ALLEY":" ","HOUSE_NO":"５１３號","E_COORD97":195571.54999999999,"N_COORD97":2558730.25,"ADDRESS":"中正路５１３號","OBJECTID":465894},"geometry":{"x":195571.55000000168,"y":2558730.2500000037}},{"attributes":{"ID":465920,"DIS_CODE":0,"TOWNNAME":"學甲區","LI":"慈福里","LIN":"5鄰","STREET":"民生路","SECT":" ","MAREA":" ","LANE":" ","ALLEY":" ","HOUSE_NO":"２３號","E_COORD97":166465.35000000001,"N_COORD97":2570215.1400000001,"ADDRESS":"民生路２３號","OBJECTID":465895},"geometry":{"x":166465.34999999963,"y":2570215.1400000025}},{"attributes":{"ID":465921,"DIS_CODE":0,"TOWNNAME":"北區","LI":"正風里","LIN":"5鄰","STREET":"公園路","SECT":" ","MAREA":" ","LANE":" ","ALLEY":" ","HOUSE_NO":"９４８號","E_COORD97":169433.70999999999,"N_COORD97":2546225.8100000001,"ADDRESS":"公園路９４８號","OBJECTID":465896},"geometry":{"x":169433.70999999996,"y":2546225.8100000005}},{"attributes":{"ID":465922,"DIS_CODE":0,"TOWNNAME":"北區","LI":"正風里","LIN":"5鄰","STREET":"公園路","SECT":" ","MAREA":" ","LANE":" ","ALLEY":" ","HOUSE_NO":"９４８號之１","E_COORD97":169434.60000000001,"N_COORD97":2546228.73,"ADDRESS":"公園路９４８號之１","OBJECTID":465897},"geometry":{"x":169434.60000000056,"y":2546228.7300000004}},{"attributes":{"ID":465923,"DIS_CODE":0,"TOWNNAME":"學甲區","LI":"慈福里","LIN":"5鄰","STREET":"民生路","SECT":" ","MAREA":" ","LANE":" ","ALLEY":" ","HOUSE_NO":"１７號之５","E_COORD97":166451.5,"N_COORD97":2570163.4700000002,"ADDRESS":"民生路１７號之５","OBJECTID":465898},"geometry":{"x":166451.5,"y":2570163.4700000007}},{"attributes":{"ID":465924,"DIS_CODE":0,"TOWNNAME":"學甲區","LI":"慈福里","LIN":"5鄰","STREET":"民生路","SECT":" ","MAREA":" ","LANE":" ","ALLEY":" ","HOUSE_NO":"１７號之６","E_COORD97":166452.26000000001,"N_COORD97":2570167.4100000001,"ADDRESS":"民生路１７號之６","OBJECTID":465899},"geometry":{"x":166452.26000000071,"y":2570167.4100000001}},{"attributes":{"ID":465925,"DIS_CODE":0,"TOWNNAME":"學甲區","LI":"慈福里","LIN":"5鄰","STREET":"民生路","SECT":" ","MAREA":" ","LANE":" ","ALLEY":" ","HOUSE_NO":"１９號之１","E_COORD97":166454.29999999999,"N_COORD97":2570175.8199999998,"ADDRESS":"民生路１９號之１","OBJECTID":465900},"geometry":{"x":166454.29999999981,"y":2570175.820000004}},{"attributes":{"ID":465926,"DIS_CODE":0,"TOWNNAME":"學甲區","LI":"慈福里","LIN":"5鄰","STREET":"民生路","SECT":" ","MAREA":" ","LANE":" ","ALLEY":" ","HOUSE_NO":"１９號之２","E_COORD97":166455.42999999999,"N_COORD97":2570180.23,"ADDRESS":"民生路１９號之２","OBJECTID":465901},"geometry":{"x":166455.42999999877,"y":2570180.2300000023}},{"attributes":{"ID":465927,"DIS_CODE":0,"TOWNNAME":"學甲區","LI":"慈福里","LIN":"5鄰","STREET":"民生路","SECT":" ","MAREA":" ","LANE":" ","ALLEY":" ","HOUSE_NO":"１９號之３","E_COORD97":166456.23000000001,"N_COORD97":2570184.1299999999,"ADDRESS":"民生路１９號之３","OBJECTID":465902},"geometry":{"x":166456.23000000138,"y":2570184.129999999}},{"attributes":{"ID":465928,"DIS_CODE":0,"TOWNNAME":"學甲區","LI":"慈福里","LIN":"5鄰","STREET":"民生路","SECT":" ","MAREA":" ","LANE":" ","ALLEY":" ","HOUSE_NO":"１９號","E_COORD97":166453.34,"N_COORD97":2570171.96,"ADDRESS":"民生路１９號","OBJECTID":465903},"geometry":{"x":166453.34000000078,"y":2570171.9600000046}},{"attributes":{"ID":465929,"DIS_CODE":0,"TOWNNAME":"學甲區","LI":"慈福里","LIN":"5鄰","STREET":"民生路","SECT":" ","MAREA":" ","LANE":" ","ALLEY":" ","HOUSE_NO":"２１號","E_COORD97":166457.04999999999,"N_COORD97":2570188.0499999998,"ADDRESS":"民生路２１號","OBJECTID":465904},"geometry":{"x":166457.05000000075,"y":2570188.0499999989}},{"attributes":{"ID":465930,"DIS_CODE":0,"TOWNNAME":"學甲區","LI":"慈福里","LIN":"5鄰","STREET":"民生路","SECT":" ","MAREA":" ","LANE":" ","ALLEY":" ","HOUSE_NO":"２５號","E_COORD97":166467.69,"N_COORD97":2570225.54,"ADDRESS":"民生路２５號","OBJECTID":465905},"geometry":{"x":166467.69000000041,"y":2570225.540000001}},{"attributes":{"ID":465931,"DIS_CODE":0,"TOWNNAME":"學甲區","LI":"慈福里","LIN":"5鄰","STREET":"民權路","SECT":" ","MAREA":" ","LANE":" ","ALLEY":" ","HOUSE_NO":"２０號","E_COORD97":166438.25,"N_COORD97":2570143.9399999999,"ADDRESS":"民權路２０號","OBJECTID":465906},"geometry":{"x":166438.25,"y":2570143.9400000013}},{"attributes":{"ID":465932,"DIS_CODE":0,"TOWNNAME":"學甲區","LI":"明宜里","LIN":"5鄰","STREET":"和平路","SECT":" ","MAREA":" ","LANE":" ","ALLEY":" ","HOUSE_NO":"２７５號","E_COORD97":165978.42999999999,"N_COORD97":2570400.3300000001,"ADDRESS":"和平路２７５號","OBJECTID":465907},"geometry":{"x":165978.4299999997,"y":2570400.3300000019}},{"attributes":{"ID":465933,"DIS_CODE":0,"TOWNNAME":"學甲區","LI":"明宜里","LIN":"5鄰","STREET":"和平路","SECT":" ","MAREA":" ","LANE":" ","ALLEY":" ","HOUSE_NO":"２７７號","E_COORD97":165979.35999999999,"N_COORD97":2570403.8599999999,"ADDRESS":"和平路２７７號","OBJECTID":465908},"geometry":{"x":165979.36000000127,"y":2570403.8599999994}},{"attributes":{"ID":465934,"DIS_CODE":0,"TOWNNAME":"學甲區","LI":"明宜里","LIN":"5鄰","STREET":"和平路","SECT":" ","MAREA":" ","LANE":" ","ALLEY":" ","HOUSE_NO":"２７９號","E_COORD97":165979.29999999999,"N_COORD97":2570409.4300000002,"ADDRESS":"和平路２７９號","OBJECTID":465909},"geometry":{"x":165979.30000000075,"y":2570409.4300000016}},{"attributes":{"ID":465935,"DIS_CODE":0,"TOWNNAME":"學甲區","LI":"明宜里","LIN":"5鄰","STREET":"和平路","SECT":" ","MAREA":" ","LANE":" ","ALLEY":" ","HOUSE_NO":"２８１號之１","E_COORD97":165980.91,"N_COORD97":2570419.4700000002,"ADDRESS":"和平路２８１號之１","OBJECTID":465910},"geometry":{"x":165980.91000000015,"y":2570419.4700000044}},{"attributes":{"ID":465936,"DIS_CODE":0,"TOWNNAME":"學甲區","LI":"明宜里","LIN":"5鄰","STREET":"和平路","SECT":" ","MAREA":" ","LANE":" ","ALLEY":" ","HOUSE_NO":"２８１號","E_COORD97":165981,"N_COORD97":2570415.3799999999,"ADDRESS":"和平路２８１號","OBJECTID":465911},"geometry":{"x":165981.00000000093,"y":2570415.3800000008}},{"attributes":{"ID":465937,"DIS_CODE":0,"TOWNNAME":"學甲區","LI":"明宜里","LIN":"5鄰","STREET":"和平路","SECT":" ","MAREA":" ","LANE":" ","ALLEY":" ","HOUSE_NO":"２８３號之１","E_COORD97":165982.48000000001,"N_COORD97":2570428.0699999998,"ADDRESS":"和平路２８３號之１","OBJECTID":465912},"geometry":{"x":165982.48000000045,"y":2570428.0700000003}},{"attributes":{"ID":465938,"DIS_CODE":0,"TOWNNAME":"學甲區","LI":"明宜里","LIN":"5鄰","STREET":"和平路","SECT":" ","MAREA":" ","LANE":" ","ALLEY":" ","HOUSE_NO":"２８３號","E_COORD97":165983.13,"N_COORD97":2570422.7999999998,"ADDRESS":"和平路２８３號","OBJECTID":465913},"geometry":{"x":165983.13000000175,"y":2570422.8000000007}},{"attributes":{"ID":465939,"DIS_CODE":0,"TOWNNAME":"學甲區","LI":"明宜里","LIN":"5鄰","STREET":"信義路","SECT":" ","MAREA":" ","LANE":" ","ALLEY":" ","HOUSE_NO":"５２號","E_COORD97":165893.29999999999,"N_COORD97":2570423.3599999999,"ADDRESS":"信義路５２號","OBJECTID":465914},"geometry":{"x":165893.29999999981,"y":2570423.3600000013}},{"attributes":{"ID":465940,"DIS_CODE":0,"TOWNNAME":"學甲區","LI":"明宜里","LIN":"5鄰","STREET":"信義路","SECT":" ","MAREA":" ","LANE":" ","ALLEY":" ","HOUSE_NO":"５０號之５","E_COORD97":165889.89999999999,"N_COORD97":2570411.6200000001,"ADDRESS":"信義路５０號之５","OBJECTID":465915},"geometry":{"x":165889.90000000037,"y":2570411.6199999992}},{"attributes":{"ID":465941,"DIS_CODE":0,"TOWNNAME":"學甲區","LI":"明宜里","LIN":"5鄰","STREET":"信義路","SECT":" ","MAREA":" ","LANE":" ","ALLEY":" ","HOUSE_NO":"５０號之６","E_COORD97":165891.07999999999,"N_COORD97":2570416.8900000001,"ADDRESS":"信義路５０號之６","OBJECTID":465916},"geometry":{"x":165891.08000000101,"y":2570416.8900000025}},{"attributes":{"ID":465942,"DIS_CODE":0,"TOWNNAME":"學甲區","LI":"明宜里","LIN":"5鄰","STREET":"信義路","SECT":" ","MAREA":" ","LANE":" ","ALLEY":" ","HOUSE_NO":"５４號","E_COORD97":165894.98999999999,"N_COORD97":2570430.52,"ADDRESS":"信義路５４號","OBJECTID":465917},"geometry":{"x":165894.99000000115,"y":2570430.5199999996}},{"attributes":{"ID":465943,"DIS_CODE":0,"TOWNNAME":"學甲區","LI":"明宜里","LIN":"5鄰","STREET":"信義路","SECT":" ","MAREA":" ","LANE":" ","ALLEY":" ","HOUSE_NO":"５６號之１","E_COORD97":165898.72,"N_COORD97":2570445.2999999998,"ADDRESS":"信義路５６號之１","OBJECTID":465918},"geometry":{"x":165898.71999999974,"y":2570445.3000000026}},{"attributes":{"ID":465944,"DIS_CODE":0,"TOWNNAME":"學甲區","LI":"明宜里","LIN":"5鄰","STREET":"信義路","SECT":" ","MAREA":" ","LANE":" ","ALLEY":" ","HOUSE_NO":"５６號","E_COORD97":165899.73999999999,"N_COORD97":2570437.8700000001,"ADDRESS":"信義路５６號","OBJECTID":465919},"geometry":{"x":165899.74000000209,"y":2570437.8700000029}},{"attributes":{"ID":465945,"DIS_CODE":0,"TOWNNAME":"學甲區","LI":"明宜里","LIN":"5鄰","STREET":"宮西路","SECT":" ","MAREA":" ","LANE":" ","ALLEY":" ","HOUSE_NO":"２１號之１","E_COORD97":165969.34,"N_COORD97":2570426.0099999998,"ADDRESS":"宮西路２１號之１","OBJECTID":465920},"geometry":{"x":165969.33999999985,"y":2570426.0100000016}},{"attributes":{"ID":465946,"DIS_CODE":0,"TOWNNAME":"學甲區","LI":"明宜里","LIN":"5鄰","STREET":"宮西路","SECT":" ","MAREA":" ","LANE":" ","ALLEY":" ","HOUSE_NO":"２１號之４","E_COORD97":165956.73999999999,"N_COORD97":2570428.5499999998,"ADDRESS":"宮西路２１號之４","OBJECTID":465921},"geometry":{"x":165956.74000000022,"y":2570428.5500000007}},{"attributes":{"ID":465947,"DIS_CODE":0,"TOWNNAME":"學甲區","LI":"明宜里","LIN":"5鄰","STREET":"宮西路","SECT":" ","MAREA":" ","LANE":" ","ALLEY":" ","HOUSE_NO":"２１號","E_COORD97":165974.5,"N_COORD97":2570424.6299999999,"ADDRESS":"宮西路２１號","OBJECTID":465922},"geometry":{"x":165974.50000000093,"y":2570424.6300000008}},{"attributes":{"ID":465948,"DIS_CODE":0,"TOWNNAME":"學甲區","LI":"明宜里","LIN":"5鄰","STREET":"宮西路","SECT":" ","MAREA":" ","LANE":" ","ALLEY":" ","HOUSE_NO":"２９號","E_COORD97":165930.35000000001,"N_COORD97":2570434.2400000002,"ADDRESS":"宮西路２９號","OBJECTID":465923},"geometry":{"x":165930.34999999963,"y":2570434.2400000021}},{"attributes":{"ID":465949,"DIS_CODE":0,"TOWNNAME":"學甲區","LI":"明宜里","LIN":"5鄰","STREET":"宮西路","SECT":" ","MAREA":" ","LANE":" ","ALLEY":" ","HOUSE_NO":"３１號","E_COORD97":165911.57999999999,"N_COORD97":2570438.7200000002,"ADDRESS":"宮西路３１號","OBJECTID":465924},"geometry":{"x":165911.58000000101,"y":2570438.7200000025}},{"attributes":{"ID":465950,"DIS_CODE":0,"TOWNNAME":"北區","LI":"和順里","LIN":"5鄰","STREET":"育德路","SECT":" ","MAREA":" ","LANE":" ","ALLEY":" ","HOUSE_NO":"３２號","E_COORD97":168378.69,"N_COORD97":2545209.1299999999,"ADDRESS":"育德路３２號","OBJECTID":465925},"geometry":{"x":168378.69000000227,"y":2545209.1300000027}},{"attributes":{"ID":465951,"DIS_CODE":0,"TOWNNAME":"北區","LI":"和順里","LIN":"5鄰","STREET":"育德路","SECT":" ","MAREA":" ","LANE":" ","ALLEY":" ","HOUSE_NO":"３４號","E_COORD97":168372.47,"N_COORD97":2545213.6699999999,"ADDRESS":"育德路３４號","OBJECTID":465926},"geometry":{"x":168372.46999999881,"y":2545213.6700000018}},{"attributes":{"ID":465952,"DIS_CODE":0,"TOWNNAME":"北區","LI":"和順里","LIN":"5鄰","STREET":"育德路","SECT":" ","MAREA":" ","LANE":" ","ALLEY":" ","HOUSE_NO":"３６號","E_COORD97":168358.82999999999,"N_COORD97":2545218.25,"ADDRESS":"育德路３６號","OBJECTID":465927},"geometry":{"x":168358.83000000101,"y":2545218.25}},{"attributes":{"ID":465953,"DIS_CODE":0,"TOWNNAME":"北區","LI":"和順里","LIN":"5鄰","STREET":"育德路","SECT":" ","MAREA":" ","LANE":" ","ALLEY":" ","HOUSE_NO":"３８號","E_COORD97":168361.98000000001,"N_COORD97":2545221.8799999999,"ADDRESS":"育德路３８號","OBJECTID":465928},"geometry":{"x":168361.98000000138,"y":2545221.8800000008}},{"attributes":{"ID":465954,"DIS_CODE":0,"TOWNNAME":"北區","LI":"和順里","LIN":"5鄰","STREET":"育德路","SECT":" ","MAREA":" ","LANE":" ","ALLEY":" ","HOUSE_NO":"４０號","E_COORD97":168363.92000000001,"N_COORD97":2545225.75,"ADDRESS":"育德路４０號","OBJECTID":465929},"geometry":{"x":168363.91999999993,"y":2545225.75}},{"attributes":{"ID":465955,"DIS_CODE":0,"TOWNNAME":"北區","LI":"和順里","LIN":"5鄰","STREET":"育德路","SECT":" ","MAREA":" ","LANE":" ","ALLEY":" ","HOUSE_NO":"４２號","E_COORD97":168366.57999999999,"N_COORD97":2545229.3799999999,"ADDRESS":"育德路４２號","OBJECTID":465930},"geometry":{"x":168366.58000000007,"y":2545229.379999999}},{"attributes":{"ID":465956,"DIS_CODE":0,"TOWNNAME":"北區","LI":"和順里","LIN":"5鄰","STREET":"育德路","SECT":" ","MAREA":" ","LANE":" ","ALLEY":" ","HOUSE_NO":"４６號","E_COORD97":168371.91,"N_COORD97":2545237.8500000001,"ADDRESS":"育德路４６號","OBJECTID":465931},"geometry":{"x":168371.91000000108,"y":2545237.8499999996}},{"attributes":{"ID":465957,"DIS_CODE":0,"TOWNNAME":"北區","LI":"和順里","LIN":"5鄰","STREET":"育德路","SECT":" ","MAREA":" ","LANE":" ","ALLEY":" ","HOUSE_NO":"５０號","E_COORD97":168378.45000000001,"N_COORD97":2545246.9199999999,"ADDRESS":"育德路５０號","OBJECTID":465932},"geometry":{"x":168378.45000000112,"y":2545246.9200000018}},{"attributes":{"ID":465958,"DIS_CODE":0,"TOWNNAME":"北區","LI":"和順里","LIN":"5鄰","STREET":"育德路","SECT":" ","MAREA":" ","LANE":" ","ALLEY":" ","HOUSE_NO":"５２號","E_COORD97":168381.35999999999,"N_COORD97":2545251.04,"ADDRESS":"育德路５２號","OBJECTID":465933},"geometry":{"x":168381.36000000127,"y":2545251.040000001}},{"attributes":{"ID":465959,"DIS_CODE":0,"TOWNNAME":"北區","LI":"和順里","LIN":"5鄰","STREET":"育德路","SECT":" ","MAREA":" ","LANE":" ","ALLEY":" ","HOUSE_NO":"５４號","E_COORD97":168383.54000000001,"N_COORD97":2545254.6600000001,"ADDRESS":"育德路５４號","OBJECTID":465934},"geometry":{"x":168383.54000000004,"y":2545254.660000002}},{"attributes":{"ID":465960,"DIS_CODE":0,"TOWNNAME":"北區","LI":"和順里","LIN":"5鄰","STREET":"育德路","SECT":" ","MAREA":" ","LANE":" ","ALLEY":" ","HOUSE_NO":"５６號","E_COORD97":168385.72,"N_COORD97":2545258.0499999998,"ADDRESS":"育德路５６號","OBJECTID":465935},"geometry":{"x":168385.71999999974,"y":2545258.0500000007}},{"attributes":{"ID":465961,"DIS_CODE":0,"TOWNNAME":"北區","LI":"和順里","LIN":"5鄰","STREET":"育德路","SECT":" ","MAREA":" ","LANE":" ","ALLEY":" ","HOUSE_NO":"５８號","E_COORD97":168389.10999999999,"N_COORD97":2545261.2000000002,"ADDRESS":"育德路５８號","OBJECTID":465936},"geometry":{"x":168389.1099999994,"y":2545261.2000000011}},{"attributes":{"ID":465962,"DIS_CODE":0,"TOWNNAME":"北區","LI":"和順里","LIN":"5鄰","STREET":"育德路","SECT":" ","MAREA":" ","LANE":" ","ALLEY":" ","HOUSE_NO":"６０號","E_COORD97":168390.81,"N_COORD97":2545264.1000000001,"ADDRESS":"育德路６０號","OBJECTID":465937},"geometry":{"x":168390.81000000052,"y":2545264.1000000034}},{"attributes":{"ID":465963,"DIS_CODE":0,"TOWNNAME":"北區","LI":"和順里","LIN":"5鄰","STREET":"育德路","SECT":" ","MAREA":" ","LANE":" ","ALLEY":" ","HOUSE_NO":"６２號","E_COORD97":168392.98999999999,"N_COORD97":2545268.46,"ADDRESS":"育德路６２號","OBJECTID":465938},"geometry":{"x":168392.99000000022,"y":2545268.4600000009}},{"attributes":{"ID":465964,"DIS_CODE":0,"TOWNNAME":"北區","LI":"和順里","LIN":"5鄰","STREET":"育德路","SECT":" ","MAREA":" ","LANE":" ","ALLEY":" ","HOUSE_NO":"６４號","E_COORD97":168395.41,"N_COORD97":2545271.3599999999,"ADDRESS":"育德路６４號","OBJECTID":465939},"geometry":{"x":168395.41000000201,"y":2545271.3599999994}},{"attributes":{"ID":465965,"DIS_CODE":0,"TOWNNAME":"歸仁區","LI":"八甲里","LIN":"5鄰","STREET":"大明街","SECT":" ","MAREA":" ","LANE":" ","ALLEY":" ","HOUSE_NO":"６８號","E_COORD97":177975.26999999999,"N_COORD97":2541855.6099999999,"ADDRESS":"大明街６８號","OBJECTID":465940},"geometry":{"x":177975.27000000142,"y":2541855.6099999994}},{"attributes":{"ID":465966,"DIS_CODE":0,"TOWNNAME":"北區","LI":"裕民里","LIN":"5鄰","STREET":"臨安路","SECT":"二段","MAREA":" ","LANE":" ","ALLEY":" ","HOUSE_NO":"８４號","E_COORD97":167736.07999999999,"N_COORD97":2544826.6299999999,"ADDRESS":"臨安路二段８４號","OBJECTID":465941},"geometry":{"x":167736.08000000007,"y":2544826.6300000008}},{"attributes":{"ID":465967,"DIS_CODE":0,"TOWNNAME":"北區","LI":"裕民里","LIN":"5鄰","STREET":"臨安路","SECT":"二段","MAREA":" ","LANE":" ","ALLEY":" ","HOUSE_NO":"８８號","E_COORD97":167747.35000000001,"N_COORD97":2544833.6499999999,"ADDRESS":"臨安路二段８８號","OBJECTID":465942},"geometry":{"x":167747.34999999963,"y":2544833.6500000004}},{"attributes":{"ID":465968,"DIS_CODE":0,"TOWNNAME":"北區","LI":"大豐里","LIN":"5鄰","STREET":"武聖路","SECT":" ","MAREA":" ","LANE":" ","ALLEY":" ","HOUSE_NO":"１４６號","E_COORD97":166979.48999999999,"N_COORD97":2545246.79,"ADDRESS":"武聖路１４６號","OBJECTID":465943},"geometry":{"x":166979.49000000209,"y":2545246.790000001}},{"attributes":{"ID":465969,"DIS_CODE":0,"TOWNNAME":"北區","LI":"大豐里","LIN":"5鄰","STREET":"武聖路","SECT":" ","MAREA":" ","LANE":" ","ALLEY":" ","HOUSE_NO":"１５４號","E_COORD97":166961.01999999999,"N_COORD97":2545256.27,"ADDRESS":"武聖路１５４號","OBJECTID":465944},"geometry":{"x":166961.01999999955,"y":2545256.2700000033}},{"attributes":{"ID":465970,"DIS_CODE":0,"TOWNNAME":"北區","LI":"國姓里","LIN":"5鄰","STREET":"西門路","SECT":"四段","MAREA":" ","LANE":" ","ALLEY":" ","HOUSE_NO":"１４２號","E_COORD97":168797.64000000001,"N_COORD97":2545507.3500000001,"ADDRESS":"西門路四段１４２號","OBJECTID":465945},"geometry":{"x":168797.6400000006,"y":2545507.3500000015}},{"attributes":{"ID":465971,"DIS_CODE":0,"TOWNNAME":"北區","LI":"國姓里","LIN":"5鄰","STREET":"西門路","SECT":"四段","MAREA":" ","LANE":" ","ALLEY":" ","HOUSE_NO":"１４４號","E_COORD97":168799.70999999999,"N_COORD97":2545509.9300000002,"ADDRESS":"西門路四段１４４號","OBJECTID":465946},"geometry":{"x":168799.70999999996,"y":2545509.9300000016}},{"attributes":{"ID":465972,"DIS_CODE":0,"TOWNNAME":"北區","LI":"國姓里","LIN":"5鄰","STREET":"西門路","SECT":"四段","MAREA":" ","LANE":" ","ALLEY":" ","HOUSE_NO":"１４６號","E_COORD97":168801.26000000001,"N_COORD97":2545514.5800000001,"ADDRESS":"西門路四段１４６號","OBJECTID":465947},"geometry":{"x":168801.26000000164,"y":2545514.5800000001}},{"attributes":{"ID":465973,"DIS_CODE":0,"TOWNNAME":"北區","LI":"國姓里","LIN":"5鄰","STREET":"西門路","SECT":"四段","MAREA":" ","LANE":" ","ALLEY":" ","HOUSE_NO":"１４８號","E_COORD97":168802.81,"N_COORD97":2545517.1600000001,"ADDRESS":"西門路四段１４８號","OBJECTID":465948},"geometry":{"x":168802.81000000052,"y":2545517.1600000001}},{"attributes":{"ID":465974,"DIS_CODE":0,"TOWNNAME":"北區","LI":"國姓里","LIN":"5鄰","STREET":"西門路","SECT":"四段","MAREA":" ","LANE":" ","ALLEY":" ","HOUSE_NO":"１５０號","E_COORD97":168803.32999999999,"N_COORD97":2545520.2599999998,"ADDRESS":"西門路四段１５０號","OBJECTID":465949},"geometry":{"x":168803.33000000101,"y":2545520.2599999998}},{"attributes":{"ID":465975,"DIS_CODE":0,"TOWNNAME":"北區","LI":"國姓里","LIN":"5鄰","STREET":"西門路","SECT":"四段","MAREA":" ","LANE":" ","ALLEY":" ","HOUSE_NO":"１５２號","E_COORD97":168805.89999999999,"N_COORD97":2545521.6200000001,"ADDRESS":"西門路四段１５２號","OBJECTID":465950},"geometry":{"x":168805.89999999944,"y":2545521.620000001}},{"attributes":{"ID":465976,"DIS_CODE":0,"TOWNNAME":"北區","LI":"國姓里","LIN":"5鄰","STREET":"西門路","SECT":"四段","MAREA":" ","LANE":" ","ALLEY":" ","HOUSE_NO":"１５４號","E_COORD97":168805.39999999999,"N_COORD97":2545523.3399999999,"ADDRESS":"西門路四段１５４號","OBJECTID":465951},"geometry":{"x":168805.40000000037,"y":2545523.3399999999}},{"attributes":{"ID":465977,"DIS_CODE":0,"TOWNNAME":"北區","LI":"國姓里","LIN":"5鄰","STREET":"西門路","SECT":"四段","MAREA":" ","LANE":" ","ALLEY":" ","HOUSE_NO":"１５６號","E_COORD97":168807.45999999999,"N_COORD97":2545526.4500000002,"ADDRESS":"西門路四段１５６號","OBJECTID":465952},"geometry":{"x":168807.46000000089,"y":2545526.4500000011}},{"attributes":{"ID":465978,"DIS_CODE":0,"TOWNNAME":"北區","LI":"大豐里","LIN":"5鄰","STREET":"武聖路","SECT":" ","MAREA":" ","LANE":" ","ALLEY":" ","HOUSE_NO":"１２４號","E_COORD97":167026.57999999999,"N_COORD97":2545222,"ADDRESS":"武聖路１２４號","OBJECTID":465953},"geometry":{"x":167026.58000000101,"y":2545222.0000000019}},{"attributes":{"ID":465979,"DIS_CODE":0,"TOWNNAME":"北區","LI":"大豐里","LIN":"5鄰","STREET":"武聖路","SECT":" ","MAREA":" ","LANE":" ","ALLEY":" ","HOUSE_NO":"１５０號","E_COORD97":166971.76000000001,"N_COORD97":2545251.1000000001,"ADDRESS":"武聖路１５０號","OBJECTID":465954},"geometry":{"x":166971.75999999978,"y":2545251.1000000015}},{"attributes":{"ID":465980,"DIS_CODE":0,"TOWNNAME":"歸仁區","LI":"崙頂里","LIN":"5鄰","STREET":"大成路","SECT":" ","MAREA":" ","LANE":" ","ALLEY":" ","HOUSE_NO":"４２４號","E_COORD97":178095.85000000001,"N_COORD97":2540129.6800000002,"ADDRESS":"大成路４２４號","OBJECTID":465955},"geometry":{"x":178095.85000000056,"y":2540129.6799999997}},{"attributes":{"ID":465981,"DIS_CODE":0,"TOWNNAME":"歸仁區","LI":"八甲里","LIN":"5鄰","STREET":"大明一街","SECT":" ","MAREA":" ","LANE":" ","ALLEY":" ","HOUSE_NO":"２１號","E_COORD97":177919.92000000001,"N_COORD97":2541798.6099999999,"ADDRESS":"大明一街２１號","OBJECTID":465956},"geometry":{"x":177919.91999999993,"y":2541798.6099999975}},{"attributes":{"ID":465982,"DIS_CODE":0,"TOWNNAME":"歸仁區","LI":"大廟里","LIN":"5鄰","STREET":"和順路","SECT":"二段","MAREA":" ","LANE":" ","ALLEY":" ","HOUSE_NO":"１５３號","E_COORD97":176149.73999999999,"N_COORD97":2543600.2799999998,"ADDRESS":"和順路二段１５３號","OBJECTID":465957},"geometry":{"x":176149.74000000022,"y":2543600.2799999993}},{"attributes":{"ID":465983,"DIS_CODE":0,"TOWNNAME":"歸仁區","LI":"八甲里","LIN":"5鄰","STREET":"大光二街","SECT":" ","MAREA":" ","LANE":" ","ALLEY":" ","HOUSE_NO":"２０號","E_COORD97":177941.12,"N_COORD97":2541737.6099999999,"ADDRESS":"大光二街２０號","OBJECTID":465958},"geometry":{"x":177941.12000000011,"y":2541737.6099999975}},{"attributes":{"ID":465984,"DIS_CODE":0,"TOWNNAME":"歸仁區","LI":"七甲里","LIN":"5鄰","STREET":"中正北路","SECT":"二段","MAREA":" ","LANE":" ","ALLEY":" ","HOUSE_NO":"４４８號","E_COORD97":177488.32000000001,"N_COORD97":2543104.2599999998,"ADDRESS":"中正北路二段４４８號","OBJECTID":465959},"geometry":{"x":177488.32000000123,"y":2543104.2600000016}},{"attributes":{"ID":465985,"DIS_CODE":0,"TOWNNAME":"歸仁區","LI":"七甲里","LIN":"5鄰","STREET":"中正北路","SECT":"二段","MAREA":" ","LANE":" ","ALLEY":" ","HOUSE_NO":"４３０號","E_COORD97":177488.22,"N_COORD97":2543068.2599999998,"ADDRESS":"中正北路二段４３０號","OBJECTID":465960},"geometry":{"x":177488.22000000067,"y":2543068.2599999998}},{"attributes":{"ID":465986,"DIS_CODE":0,"TOWNNAME":"歸仁區","LI":"七甲里","LIN":"5鄰","STREET":"中正北路","SECT":"二段","MAREA":" ","LANE":" ","ALLEY":" ","HOUSE_NO":"４３６號","E_COORD97":177490.32000000001,"N_COORD97":2543084.2599999998,"ADDRESS":"中正北路二段４３６號","OBJECTID":465961},"geometry":{"x":177490.3200000003,"y":2543084.2600000016}},{"attributes":{"ID":465987,"DIS_CODE":0,"TOWNNAME":"歸仁區","LI":"七甲里","LIN":"5鄰","STREET":"中正北路","SECT":"二段","MAREA":" ","LANE":" ","ALLEY":" ","HOUSE_NO":"４５０號","E_COORD97":177487.32000000001,"N_COORD97":2543108.2599999998,"ADDRESS":"中正北路二段４５０號","OBJECTID":465962},"geometry":{"x":177487.3200000003,"y":2543108.2600000016}},{"attributes":{"ID":465988,"DIS_CODE":0,"TOWNNAME":"歸仁區","LI":"七甲里","LIN":"5鄰","STREET":"中正北路","SECT":"二段","MAREA":" ","LANE":" ","ALLEY":" ","HOUSE_NO":"４２６號","E_COORD97":177490.22,"N_COORD97":2543061.2599999998,"ADDRESS":"中正北路二段４２６號","OBJECTID":465963},"geometry":{"x":177490.21999999974,"y":2543061.2599999998}},{"attributes":{"ID":465989,"DIS_CODE":0,"TOWNNAME":"歸仁區","LI":"大廟里","LIN":"5鄰","STREET":"和順路","SECT":"二段","MAREA":" ","LANE":" ","ALLEY":" ","HOUSE_NO":"１６５號","E_COORD97":176123.04000000001,"N_COORD97":2543581.27,"ADDRESS":"和順路二段１６５號","OBJECTID":465964},"geometry":{"x":176123.04000000097,"y":2543581.2700000033}},{"attributes":{"ID":465990,"DIS_CODE":0,"TOWNNAME":"歸仁區","LI":"七甲里","LIN":"5鄰","STREET":"中正北路","SECT":"二段","MAREA":" ","LANE":" ","ALLEY":" ","HOUSE_NO":"４２４號","E_COORD97":177490.22,"N_COORD97":2543056.2599999998,"ADDRESS":"中正北路二段４２４號","OBJECTID":465965},"geometry":{"x":177490.21999999974,"y":2543056.2600000035}},{"attributes":{"ID":465991,"DIS_CODE":0,"TOWNNAME":"歸仁區","LI":"七甲里","LIN":"5鄰","STREET":"中正北路","SECT":"二段","MAREA":" ","LANE":" ","ALLEY":" ","HOUSE_NO":"４２２號","E_COORD97":177490.12,"N_COORD97":2543052.2599999998,"ADDRESS":"中正北路二段４２２號","OBJECTID":465966},"geometry":{"x":177490.12000000011,"y":2543052.2599999998}},{"attributes":{"ID":465992,"DIS_CODE":0,"TOWNNAME":"歸仁區","LI":"八甲里","LIN":"5鄰","STREET":"大光二街","SECT":" ","MAREA":" ","LANE":" ","ALLEY":" ","HOUSE_NO":"１２號","E_COORD97":177959.51999999999,"N_COORD97":2541734.6099999999,"ADDRESS":"大光二街１２號","OBJECTID":465967},"geometry":{"x":177959.51999999955,"y":2541734.6100000031}},{"attributes":{"ID":465993,"DIS_CODE":0,"TOWNNAME":"歸仁區","LI":"八甲里","LIN":"5鄰","STREET":"大光二街","SECT":" ","MAREA":" ","LANE":" ","ALLEY":" ","HOUSE_NO":"２２之１號","E_COORD97":177932.42000000001,"N_COORD97":2541741.6200000001,"ADDRESS":"大光二街２２之１號","OBJECTID":465968},"geometry":{"x":177932.42000000179,"y":2541741.620000001}},{"attributes":{"ID":465994,"DIS_CODE":0,"TOWNNAME":"歸仁區","LI":"八甲里","LIN":"5鄰","STREET":"大光二街","SECT":" ","MAREA":" ","LANE":" ","ALLEY":" ","HOUSE_NO":"１８號","E_COORD97":177946.22,"N_COORD97":2541737.6099999999,"ADDRESS":"大光二街１８號","OBJECTID":465969},"geometry":{"x":177946.21999999974,"y":2541737.6099999975}},{"attributes":{"ID":465995,"DIS_CODE":0,"TOWNNAME":"歸仁區","LI":"八甲里","LIN":"5鄰","STREET":"大光二街","SECT":" ","MAREA":" ","LANE":" ","ALLEY":" ","HOUSE_NO":"１４號","E_COORD97":177955.51999999999,"N_COORD97":2541735.6099999999,"ADDRESS":"大光二街１４號","OBJECTID":465970},"geometry":{"x":177955.52000000048,"y":2541735.6100000013}},{"attributes":{"ID":465996,"DIS_CODE":0,"TOWNNAME":"歸仁區","LI":"七甲里","LIN":"5鄰","STREET":"中正北路","SECT":"二段","MAREA":" ","LANE":" ","ALLEY":" ","HOUSE_NO":"４２０號","E_COORD97":177492.22,"N_COORD97":2543047.2599999998,"ADDRESS":"中正北路二段４２０號","OBJECTID":465971},"geometry":{"x":177492.21999999974,"y":2543047.2600000016}},{"attributes":{"ID":465997,"DIS_CODE":0,"TOWNNAME":"歸仁區","LI":"六甲里","LIN":"5鄰","STREET":"中正十五街","SECT":" ","MAREA":" ","LANE":" ","ALLEY":" ","HOUSE_NO":"２號","E_COORD97":176442.06,"N_COORD97":2539527.25,"ADDRESS":"中正十五街２號","OBJECTID":465972},"geometry":{"x":176442.05999999959,"y":2539527.2500000019}},{"attributes":{"ID":465998,"DIS_CODE":0,"TOWNNAME":"歸仁區","LI":"六甲里","LIN":"5鄰","STREET":"中正十五街","SECT":" ","MAREA":" ","LANE":" ","ALLEY":" ","HOUSE_NO":"３０號","E_COORD97":176429.60999999999,"N_COORD97":2539450.25,"ADDRESS":"中正十五街３０號","OBJECTID":465973},"geometry":{"x":176429.6100000022,"y":2539450.2500000019}},{"attributes":{"ID":465999,"DIS_CODE":0,"TOWNNAME":"歸仁區","LI":"六甲里","LIN":"5鄰","STREET":"中正十五街","SECT":" ","MAREA":" ","LANE":" ","ALLEY":" ","HOUSE_NO":"４８號","E_COORD97":176422.10999999999,"N_COORD97":2539402.25,"ADDRESS":"中正十五街４８號","OBJECTID":465974},"geometry":{"x":176422.11000000034,"y":2539402.2500000019}},{"attributes":{"ID":466000,"DIS_CODE":0,"TOWNNAME":"歸仁區","LI":"六甲里","LIN":"5鄰","STREET":"中正十五街","SECT":" ","MAREA":" ","LANE":" ","ALLEY":" ","HOUSE_NO":"６號","E_COORD97":176438.95999999999,"N_COORD97":2539522.25,"ADDRESS":"中正十五街６號","OBJECTID":465975},"geometry":{"x":176438.96000000089,"y":2539522.25}},{"attributes":{"ID":466001,"DIS_CODE":0,"TOWNNAME":"歸仁區","LI":"六甲里","LIN":"5鄰","STREET":"中正十五街","SECT":" ","MAREA":" ","LANE":" ","ALLEY":" ","HOUSE_NO":"３８號","E_COORD97":176426.41,"N_COORD97":2539427.25,"ADDRESS":"中正十五街３８號","OBJECTID":465976},"geometry":{"x":176426.41000000108,"y":2539427.25}},{"attributes":{"ID":466002,"DIS_CODE":0,"TOWNNAME":"楠西區","LI":"楠西里","LIN":"5鄰","STREET":"中興路","SECT":" ","MAREA":" ","LANE":" ","ALLEY":" ","HOUSE_NO":"１１９號","E_COORD97":197446.85999999999,"N_COORD97":2564637.25,"ADDRESS":"中興路１１９號","OBJECTID":465977},"geometry":{"x":197446.86000000127,"y":2564637.2500000019}},{"attributes":{"ID":466003,"DIS_CODE":0,"TOWNNAME":"南區","LI":"大恩里","LIN":"5鄰","STREET":"大同路","SECT":"二段","MAREA":" ","LANE":" ","ALLEY":" ","HOUSE_NO":"６７６號","E_COORD97":169567.12,"N_COORD97":2540951.5600000001,"ADDRESS":"大同路二段６７６號","OBJECTID":465978},"geometry":{"x":169567.12000000197,"y":2540951.5600000005}},{"attributes":{"ID":466004,"DIS_CODE":0,"TOWNNAME":"南區","LI":"大恩里","LIN":"5鄰","STREET":"大同路","SECT":"二段","MAREA":" ","LANE":" ","ALLEY":" ","HOUSE_NO":"６７８號","E_COORD97":169567.67000000001,"N_COORD97":2540945.9399999999,"ADDRESS":"大同路二段６７８號","OBJECTID":465979},"geometry":{"x":169567.66999999993,"y":2540945.9400000013}},{"attributes":{"ID":466005,"DIS_CODE":0,"TOWNNAME":"南區","LI":"大恩里","LIN":"5鄰","STREET":"大同路","SECT":"二段","MAREA":" ","LANE":" ","ALLEY":" ","HOUSE_NO":"６９２號","E_COORD97":169574.63,"N_COORD97":2540911.4199999999,"ADDRESS":"大同路二段６９２號","OBJECTID":465980},"geometry":{"x":169574.62999999989,"y":2540911.4199999999}},{"attributes":{"ID":466006,"DIS_CODE":0,"TOWNNAME":"南區","LI":"大恩里","LIN":"5鄰","STREET":"大同路","SECT":"二段","MAREA":" ","LANE":" ","ALLEY":" ","HOUSE_NO":"６９４號","E_COORD97":169575.39999999999,"N_COORD97":2540903.9199999999,"ADDRESS":"大同路二段６９４號","OBJECTID":465981},"geometry":{"x":169575.40000000037,"y":2540903.9199999999}},{"attributes":{"ID":466007,"DIS_CODE":0,"TOWNNAME":"南區","LI":"大恩里","LIN":"5鄰","STREET":"大同路","SECT":"二段","MAREA":" ","LANE":" ","ALLEY":" ","HOUSE_NO":"６９６號","E_COORD97":169583.14000000001,"N_COORD97":2540873.3599999999,"ADDRESS":"大同路二段６９６號","OBJECTID":465982},"geometry":{"x":169583.13999999966,"y":2540873.3599999994}},{"attributes":{"ID":466008,"DIS_CODE":0,"TOWNNAME":"南區","LI":"大恩里","LIN":"5鄰","STREET":"大同路","SECT":"二段","MAREA":" ","LANE":" ","ALLEY":" ","HOUSE_NO":"６９８號","E_COORD97":169582.78,"N_COORD97":2540858.98,"ADDRESS":"大同路二段６９８號","OBJECTID":465983},"geometry":{"x":169582.78000000026,"y":2540858.9800000023}},{"attributes":{"ID":466009,"DIS_CODE":0,"TOWNNAME":"楠西區","LI":"楠西里","LIN":"5鄰","STREET":"水庫路","SECT":" ","MAREA":" ","LANE":" ","ALLEY":" ","HOUSE_NO":"１０號之１１","E_COORD97":197643.10000000001,"N_COORD97":2564799.2999999998,"ADDRESS":"水庫路１０號之１１","OBJECTID":465984},"geometry":{"x":197643.10000000056,"y":2564799.3000000045}},{"attributes":{"ID":466010,"DIS_CODE":0,"TOWNNAME":"楠西區","LI":"楠西里","LIN":"5鄰","STREET":"水庫路","SECT":" ","MAREA":" ","LANE":" ","ALLEY":" ","HOUSE_NO":"２號","E_COORD97":197744.37,"N_COORD97":2565207.25,"ADDRESS":"水庫路２號","OBJECTID":465985},"geometry":{"x":197744.36999999918,"y":2565207.2500000019}},{"attributes":{"ID":466011,"DIS_CODE":0,"TOWNNAME":"楠西區","LI":"東勢里","LIN":"5鄰","STREET":"東勢路","SECT":" ","MAREA":" ","LANE":" ","ALLEY":" ","HOUSE_NO":"１４５號","E_COORD97":197321.17000000001,"N_COORD97":2564020.29,"ADDRESS":"東勢路１４５號","OBJECTID":465986},"geometry":{"x":197321.16999999993,"y":2564020.2899999991}},{"attributes":{"ID":466012,"DIS_CODE":0,"TOWNNAME":"楠西區","LI":"楠西里","LIN":"5鄰","STREET":"水庫路","SECT":" ","MAREA":" ","LANE":" ","ALLEY":" ","HOUSE_NO":"１０號之１２","E_COORD97":197641.94,"N_COORD97":2564794.2999999998,"ADDRESS":"水庫路１０號之１２","OBJECTID":465987},"geometry":{"x":197641.94000000041,"y":2564794.3000000007}},{"attributes":{"ID":466013,"DIS_CODE":0,"TOWNNAME":"楠西區","LI":"東勢里","LIN":"5鄰","STREET":"東勢路","SECT":" ","MAREA":" ","LANE":" ","ALLEY":" ","HOUSE_NO":"１２３號","E_COORD97":197362.47,"N_COORD97":2564022.3999999999,"ADDRESS":"東勢路１２３號","OBJECTID":465988},"geometry":{"x":197362.47000000067,"y":2564022.4000000022}},{"attributes":{"ID":466014,"DIS_CODE":0,"TOWNNAME":"楠西區","LI":"楠西里","LIN":"5鄰","STREET":"中興路","SECT":" ","MAREA":" ","LANE":" ","ALLEY":" ","HOUSE_NO":"１１７號","E_COORD97":197428.35999999999,"N_COORD97":2564639.25,"ADDRESS":"中興路１１７號","OBJECTID":465989},"geometry":{"x":197428.36000000127,"y":2564639.2499999981}},{"attributes":{"ID":466015,"DIS_CODE":0,"TOWNNAME":"楠西區","LI":"楠西里","LIN":"5鄰","STREET":"中興路","SECT":" ","MAREA":" ","LANE":" ","ALLEY":" ","HOUSE_NO":"１９９號","E_COORD97":197587.76000000001,"N_COORD97":2564763.25,"ADDRESS":"中興路１９９號","OBJECTID":465990},"geometry":{"x":197587.76000000071,"y":2564763.25}},{"attributes":{"ID":466016,"DIS_CODE":0,"TOWNNAME":"楠西區","LI":"楠西里","LIN":"5鄰","STREET":"中興路","SECT":" ","MAREA":" ","LANE":" ","ALLEY":" ","HOUSE_NO":"２０５號","E_COORD97":197614.95999999999,"N_COORD97":2564770.25,"ADDRESS":"中興路２０５號","OBJECTID":465991},"geometry":{"x":197614.96000000183,"y":2564770.25}},{"attributes":{"ID":466017,"DIS_CODE":0,"TOWNNAME":"楠西區","LI":"楠西里","LIN":"5鄰","STREET":"水庫路","SECT":" ","MAREA":" ","LANE":" ","ALLEY":" ","HOUSE_NO":"１０號之１５","E_COORD97":197641.95999999999,"N_COORD97":2564781.2999999998,"ADDRESS":"水庫路１０號之１５","OBJECTID":465992},"geometry":{"x":197641.96000000183,"y":2564781.3000000007}},{"attributes":{"ID":466018,"DIS_CODE":0,"TOWNNAME":"楠西區","LI":"東勢里","LIN":"5鄰","STREET":"中正路","SECT":" ","MAREA":" ","LANE":" ","ALLEY":" ","HOUSE_NO":"１２７號","E_COORD97":197291.66,"N_COORD97":2563980.25,"ADDRESS":"中正路１２７號","OBJECTID":465993},"geometry":{"x":197291.66000000201,"y":2563980.25}},{"attributes":{"ID":466019,"DIS_CODE":0,"TOWNNAME":"楠西區","LI":"楠西里","LIN":"5鄰","STREET":"水庫路","SECT":" ","MAREA":" ","LANE":" ","ALLEY":" ","HOUSE_NO":"１０號之１３","E_COORD97":197642,"N_COORD97":2564788.2999999998,"ADDRESS":"水庫路１０號之１３","OBJECTID":465994},"geometry":{"x":197642.00000000093,"y":2564788.3000000007}},{"attributes":{"ID":466020,"DIS_CODE":0,"TOWNNAME":"楠西區","LI":"楠西里","LIN":"5鄰","STREET":"中興路","SECT":" ","MAREA":" ","LANE":" ","ALLEY":" ","HOUSE_NO":"９３號","E_COORD97":197239.41,"N_COORD97":2564446.25,"ADDRESS":"中興路９３號","OBJECTID":465995},"geometry":{"x":197239.41000000108,"y":2564446.2500000037}},{"attributes":{"ID":466021,"DIS_CODE":0,"TOWNNAME":"楠西區","LI":"楠西里","LIN":"5鄰","STREET":"中興路","SECT":" ","MAREA":" ","LANE":" ","ALLEY":" ","HOUSE_NO":"１０７號","E_COORD97":197282.06,"N_COORD97":2564508.25,"ADDRESS":"中興路１０７號","OBJECTID":465996},"geometry":{"x":197282.06000000052,"y":2564508.2500000019}},{"attributes":{"ID":466022,"DIS_CODE":0,"TOWNNAME":"楠西區","LI":"楠西里","LIN":"5鄰","STREET":"中興路","SECT":" ","MAREA":" ","LANE":" ","ALLEY":" ","HOUSE_NO":"９７號","E_COORD97":197254.91,"N_COORD97":2564475.25,"ADDRESS":"中興路９７號","OBJECTID":465997},"geometry":{"x":197254.91000000108,"y":2564475.25}},{"attributes":{"ID":466023,"DIS_CODE":0,"TOWNNAME":"楠西區","LI":"東勢里","LIN":"5鄰","STREET":"東勢路","SECT":" ","MAREA":" ","LANE":" ","ALLEY":" ","HOUSE_NO":"１３１號","E_COORD97":197345.76999999999,"N_COORD97":2564022.29,"ADDRESS":"東勢路１３１號","OBJECTID":465998},"geometry":{"x":197345.76999999955,"y":2564022.290000001}},{"attributes":{"ID":466024,"DIS_CODE":0,"TOWNNAME":"楠西區","LI":"東勢里","LIN":"5鄰","STREET":"東勢路","SECT":" ","MAREA":" ","LANE":" ","ALLEY":" ","HOUSE_NO":"１３７號","E_COORD97":197335.76999999999,"N_COORD97":2564021.29,"ADDRESS":"東勢路１３７號","OBJECTID":465999},"geometry":{"x":197335.76999999955,"y":2564021.2900000028}},{"attributes":{"ID":466025,"DIS_CODE":0,"TOWNNAME":"楠西區","LI":"東勢里","LIN":"5鄰","STREET":"中正路","SECT":" ","MAREA":" ","LANE":" ","ALLEY":" ","HOUSE_NO":"１１３號","E_COORD97":197283.45999999999,"N_COORD97":2563950.25,"ADDRESS":"中正路１１３號","OBJECTID":466000},"geometry":{"x":197283.46000000089,"y":2563950.25}}]}