{"displayFieldName":"TOWNNAME","fieldAliases":{"ID":"ID","DIS_CODE":"DIS_CODE","TOWNNAME":"TOWNNAME","LI":"LI","LIN":"LIN","STREET":"STREET","SECT":"SECT","MAREA":"MAREA","LANE":"LANE","ALLEY":"ALLEY","HOUSE_NO":"HOUSE_NO","E_COORD97":"E_COORD97","N_COORD97":"N_COORD97","ADDRESS":"ADDRESS","OBJECTID":"OBJECTID"},"geometryType":"esriGeometryPoint","spatialReference":{"wkid":102443,"latestWkid":3826},"fields":[{"name":"ID","type":"esriFieldTypeDouble","alias":"ID"},{"name":"DIS_CODE","type":"esriFieldTypeInteger","alias":"DIS_CODE"},{"name":"TOWNNAME","type":"esriFieldTypeString","alias":"TOWNNAME","length":8},{"name":"LI","type":"esriFieldTypeString","alias":"LI","length":8},{"name":"LIN","type":"esriFieldTypeString","alias":"LIN","length":12},{"name":"STREET","type":"esriFieldTypeString","alias":"STREET","length":20},{"name":"SECT","type":"esriFieldTypeString","alias":"SECT","length":8},{"name":"MAREA","type":"esriFieldTypeString","alias":"MAREA","length":12},{"name":"LANE","type":"esriFieldTypeString","alias":"LANE","length":10},{"name":"ALLEY","type":"esriFieldTypeString","alias":"ALLEY","length":10},{"name":"HOUSE_NO","type":"esriFieldTypeString","alias":"HOUSE_NO","length":20},{"name":"E_COORD97","type":"esriFieldTypeDouble","alias":"E_COORD97"},{"name":"N_COORD97","type":"esriFieldTypeDouble","alias":"N_COORD97"},{"name":"ADDRESS","type":"esriFieldTypeString","alias":"ADDRESS","length":50},{"name":"OBJECTID","type":"esriFieldTypeOID","alias":"OBJECTID"}],"features":[{"attributes":{"ID":357610,"DIS_CODE":0,"TOWNNAME":"東區","LI":"富強里","LIN":"30鄰","STREET":"裕農路","SECT":" ","MAREA":" ","LANE":"２８８巷","ALLEY":" ","HOUSE_NO":"１７號十樓之１","E_COORD97":170962.04999999999,"N_COORD97":2542975.3199999998,"ADDRESS":"裕農路２８８巷１７號十樓之１","OBJECTID":357601},"geometry":{"x":170962.04999999981,"y":2542975.3200000022}},{"attributes":{"ID":357611,"DIS_CODE":0,"TOWNNAME":"中西區","LI":"安海里","LIN":"8鄰","STREET":"金華路","SECT":"三段","MAREA":" ","LANE":" ","ALLEY":" ","HOUSE_NO":"２１８號七樓之１１","E_COORD97":167349.89999999999,"N_COORD97":2543920.5099999998,"ADDRESS":"金華路三段２１８號七樓之１１","OBJECTID":357602},"geometry":{"x":167349.90000000224,"y":2543920.5100000016}},{"attributes":{"ID":357612,"DIS_CODE":0,"TOWNNAME":"中西區","LI":"安海里","LIN":"8鄰","STREET":"金華路","SECT":"三段","MAREA":" ","LANE":" ","ALLEY":" ","HOUSE_NO":"２１８號七樓之１２","E_COORD97":167349.89999999999,"N_COORD97":2543920.5099999998,"ADDRESS":"金華路三段２１８號七樓之１２","OBJECTID":357603},"geometry":{"x":167349.90000000224,"y":2543920.5100000016}},{"attributes":{"ID":357613,"DIS_CODE":0,"TOWNNAME":"仁德區","LI":"仁愛里","LIN":"26鄰","STREET":"大同路","SECT":"三段","MAREA":" ","LANE":"３５８巷","ALLEY":" ","HOUSE_NO":"４１號","E_COORD97":169734.20499999999,"N_COORD97":2539364.8299599998,"ADDRESS":"大同路三段３５８巷４１號","OBJECTID":357604},"geometry":{"x":169734.20500000194,"y":2539364.8299600035}},{"attributes":{"ID":357614,"DIS_CODE":0,"TOWNNAME":"仁德區","LI":"仁愛里","LIN":"26鄰","STREET":"大同路","SECT":"三段","MAREA":" ","LANE":" ","ALLEY":" ","HOUSE_NO":"３４８號","E_COORD97":169753.64465,"N_COORD97":2539496.1102300002,"ADDRESS":"大同路三段３４８號","OBJECTID":357605},"geometry":{"x":169753.64465000108,"y":2539496.1102310047}},{"attributes":{"ID":357615,"DIS_CODE":0,"TOWNNAME":"仁德區","LI":"仁愛里","LIN":"26鄰","STREET":"大同路","SECT":"三段","MAREA":" ","LANE":" ","ALLEY":" ","HOUSE_NO":"３５０號","E_COORD97":169753.64465,"N_COORD97":2539491.3360600001,"ADDRESS":"大同路三段３５０號","OBJECTID":357606},"geometry":{"x":169753.64465000108,"y":2539491.3360600024}},{"attributes":{"ID":357616,"DIS_CODE":0,"TOWNNAME":"仁德區","LI":"仁愛里","LIN":"26鄰","STREET":"大同路","SECT":"三段","MAREA":" ","LANE":" ","ALLEY":" ","HOUSE_NO":"２９８號","E_COORD97":169742.25670100001,"N_COORD97":2539582.5233300002,"ADDRESS":"大同路三段２９８號","OBJECTID":357607},"geometry":{"x":169742.25670100097,"y":2539582.5233270004}},{"attributes":{"ID":357617,"DIS_CODE":0,"TOWNNAME":"南區","LI":"開南里","LIN":"26鄰","STREET":"新建路","SECT":" ","MAREA":" ","LANE":"５１巷","ALLEY":" ","HOUSE_NO":"１４號","E_COORD97":166539.25,"N_COORD97":2540766.8999999999,"ADDRESS":"新建路５１巷１４號","OBJECTID":357608},"geometry":{"x":166539.25000000093,"y":2540766.8999999985}},{"attributes":{"ID":357618,"DIS_CODE":0,"TOWNNAME":"南區","LI":"開南里","LIN":"26鄰","STREET":"新建路","SECT":" ","MAREA":" ","LANE":"５１巷","ALLEY":" ","HOUSE_NO":"１５號","E_COORD97":166543.51000000001,"N_COORD97":2540794.1000000001,"ADDRESS":"新建路５１巷１５號","OBJECTID":357609},"geometry":{"x":166543.51000000071,"y":2540794.0999999996}},{"attributes":{"ID":357619,"DIS_CODE":0,"TOWNNAME":"南區","LI":"開南里","LIN":"26鄰","STREET":"新建路","SECT":" ","MAREA":" ","LANE":"５１巷","ALLEY":" ","HOUSE_NO":"１６號","E_COORD97":166544.69,"N_COORD97":2540766.7599999998,"ADDRESS":"新建路５１巷１６號","OBJECTID":357610},"geometry":{"x":166544.69000000134,"y":2540766.7599999998}},{"attributes":{"ID":357620,"DIS_CODE":0,"TOWNNAME":"南區","LI":"開南里","LIN":"26鄰","STREET":"新建路","SECT":" ","MAREA":" ","LANE":"５１巷","ALLEY":" ","HOUSE_NO":"１７號","E_COORD97":166556.89000000001,"N_COORD97":2540794.1000000001,"ADDRESS":"新建路５１巷１７號","OBJECTID":357611},"geometry":{"x":166556.88999999966,"y":2540794.0999999996}},{"attributes":{"ID":357621,"DIS_CODE":0,"TOWNNAME":"南區","LI":"開南里","LIN":"26鄰","STREET":"新建路","SECT":" ","MAREA":" ","LANE":"５１巷","ALLEY":" ","HOUSE_NO":"１８號","E_COORD97":166557.10000000001,"N_COORD97":2540766.7599999998,"ADDRESS":"新建路５１巷１８號","OBJECTID":357612},"geometry":{"x":166557.09999999963,"y":2540766.7599999998}},{"attributes":{"ID":357622,"DIS_CODE":0,"TOWNNAME":"東區","LI":"中西里","LIN":"26鄰","STREET":"東寧路","SECT":" ","MAREA":" ","LANE":"１２０巷","ALLEY":" ","HOUSE_NO":"６５號之１","E_COORD97":170270,"N_COORD97":2543491.8999999999,"ADDRESS":"東寧路１２０巷６５號之１","OBJECTID":357613},"geometry":{"x":170270.00000000093,"y":2543491.9000000004}},{"attributes":{"ID":357623,"DIS_CODE":0,"TOWNNAME":"東區","LI":"中西里","LIN":"26鄰","STREET":"東寧路","SECT":" ","MAREA":" ","LANE":"１２０巷","ALLEY":" ","HOUSE_NO":"６７號","E_COORD97":170265.42000000001,"N_COORD97":2543491.21,"ADDRESS":"東寧路１２０巷６７號","OBJECTID":357614},"geometry":{"x":170265.42000000086,"y":2543491.209999999}},{"attributes":{"ID":357624,"DIS_CODE":0,"TOWNNAME":"東區","LI":"中西里","LIN":"26鄰","STREET":"東寧路","SECT":" ","MAREA":" ","LANE":"１２０巷","ALLEY":" ","HOUSE_NO":"６７號之１","E_COORD97":170261.39999999999,"N_COORD97":2543490.4100000001,"ADDRESS":"東寧路１２０巷６７號之１","OBJECTID":357615},"geometry":{"x":170261.40000000037,"y":2543490.410000002}},{"attributes":{"ID":357625,"DIS_CODE":0,"TOWNNAME":"東區","LI":"中西里","LIN":"26鄰","STREET":"東寧路","SECT":" ","MAREA":" ","LANE":"１２０巷","ALLEY":" ","HOUSE_NO":"６９號","E_COORD97":170256.92999999999,"N_COORD97":2543489.2599999998,"ADDRESS":"東寧路１２０巷６９號","OBJECTID":357616},"geometry":{"x":170256.93000000063,"y":2543489.2599999998}},{"attributes":{"ID":357626,"DIS_CODE":0,"TOWNNAME":"安南區","LI":"\u25A0南里","LIN":"4鄰","STREET":"環福街","SECT":" ","MAREA":" ","LANE":" ","ALLEY":" ","HOUSE_NO":"１９號","E_COORD97":170162.78,"N_COORD97":2552471.8300000001,"ADDRESS":"環福街１９號","OBJECTID":357617},"geometry":{"x":170162.78000000212,"y":2552471.8300000019}},{"attributes":{"ID":357627,"DIS_CODE":0,"TOWNNAME":"安南區","LI":"大安里","LIN":" ","STREET":"大安街","SECT":" ","MAREA":" ","LANE":" ","ALLEY":" ","HOUSE_NO":"２５２號","E_COORD97":167473.28,"N_COORD97":2548414.75,"ADDRESS":"大安街２５２號","OBJECTID":357618},"geometry":{"x":167473.28000000119,"y":2548414.7500000019}},{"attributes":{"ID":357628,"DIS_CODE":0,"TOWNNAME":"安南區","LI":"大安里","LIN":"4鄰","STREET":"理安街","SECT":" ","MAREA":" ","LANE":" ","ALLEY":" ","HOUSE_NO":"３２號","E_COORD97":167317.97,"N_COORD97":2547941.48,"ADDRESS":"理安街３２號","OBJECTID":357619},"geometry":{"x":167317.96999999974,"y":2547941.4800000023}},{"attributes":{"ID":357629,"DIS_CODE":0,"TOWNNAME":"安南區","LI":"安富里","LIN":" ","STREET":"安富街","SECT":" ","MAREA":" ","LANE":" ","ALLEY":" ","HOUSE_NO":"２１１號","E_COORD97":167669.13,"N_COORD97":2547461.3599999999,"ADDRESS":"安富街２１１號","OBJECTID":357620},"geometry":{"x":167669.12999999989,"y":2547461.3599999994}},{"attributes":{"ID":357630,"DIS_CODE":0,"TOWNNAME":"安南區","LI":"大安里","LIN":"4鄰","STREET":"大安街","SECT":" ","MAREA":" ","LANE":" ","ALLEY":" ","HOUSE_NO":"７４號","E_COORD97":167208.60000000001,"N_COORD97":2548005.6600000001,"ADDRESS":"大安街７４號","OBJECTID":357621},"geometry":{"x":167208.5999999987,"y":2548005.6600000001}},{"attributes":{"ID":357631,"DIS_CODE":0,"TOWNNAME":"安南區","LI":"大安里","LIN":"4鄰","STREET":"大安街","SECT":" ","MAREA":" ","LANE":" ","ALLEY":" ","HOUSE_NO":"７２號","E_COORD97":167212.97,"N_COORD97":2548002.5099999998,"ADDRESS":"大安街７２號","OBJECTID":357622},"geometry":{"x":167212.96999999881,"y":2548002.5100000016}},{"attributes":{"ID":357632,"DIS_CODE":0,"TOWNNAME":"安南區","LI":"大安里","LIN":" ","STREET":"安通路","SECT":"五段","MAREA":" ","LANE":" ","ALLEY":" ","HOUSE_NO":"２５號","E_COORD97":167675.67999999999,"N_COORD97":2547935.1299999999,"ADDRESS":"安通路五段２５號","OBJECTID":357623},"geometry":{"x":167675.6799999997,"y":2547935.1300000008}},{"attributes":{"ID":357633,"DIS_CODE":0,"TOWNNAME":"安南區","LI":"大安里","LIN":" ","STREET":"安通路","SECT":"五段","MAREA":" ","LANE":" ","ALLEY":" ","HOUSE_NO":"１１０之１號","E_COORD97":167773.10000000001,"N_COORD97":2548013.2799999998,"ADDRESS":"安通路五段１１０之１號","OBJECTID":357624},"geometry":{"x":167773.0999999987,"y":2548013.2800000012}},{"attributes":{"ID":357634,"DIS_CODE":0,"TOWNNAME":"安南區","LI":"大安里","LIN":" ","STREET":"安通路","SECT":"五段","MAREA":" ","LANE":" ","ALLEY":" ","HOUSE_NO":"４７０之１號","E_COORD97":167191.41,"N_COORD97":2547882.2799999998,"ADDRESS":"安通路五段４７０之１號","OBJECTID":357625},"geometry":{"x":167191.41000000015,"y":2547882.2799999993}},{"attributes":{"ID":357635,"DIS_CODE":0,"TOWNNAME":"安南區","LI":"大安里","LIN":" ","STREET":"安通路","SECT":"五段","MAREA":" ","LANE":" ","ALLEY":" ","HOUSE_NO":"４７０之２號","E_COORD97":167175.78,"N_COORD97":2547879.6499999999,"ADDRESS":"安通路五段４７０之２號","OBJECTID":357626},"geometry":{"x":167175.78000000026,"y":2547879.6500000022}},{"attributes":{"ID":357636,"DIS_CODE":0,"TOWNNAME":"安南區","LI":"大安里","LIN":" ","STREET":"義安街","SECT":" ","MAREA":" ","LANE":" ","ALLEY":" ","HOUSE_NO":"１０號","E_COORD97":167345.63,"N_COORD97":2547896.0699999998,"ADDRESS":"義安街１０號","OBJECTID":357627},"geometry":{"x":167345.62999999989,"y":2547896.070000004}},{"attributes":{"ID":357637,"DIS_CODE":0,"TOWNNAME":"安南區","LI":"大安里","LIN":"8鄰","STREET":"大安街","SECT":" ","MAREA":" ","LANE":" ","ALLEY":" ","HOUSE_NO":"１８８號","E_COORD97":167372.82000000001,"N_COORD97":2548260.6499999999,"ADDRESS":"大安街１８８號","OBJECTID":357628},"geometry":{"x":167372.82000000123,"y":2548260.6500000004}},{"attributes":{"ID":357638,"DIS_CODE":0,"TOWNNAME":"安南區","LI":"大安里","LIN":"1鄰","STREET":"大安街","SECT":" ","MAREA":" ","LANE":" ","ALLEY":" ","HOUSE_NO":"１０號","E_COORD97":167073.17999999999,"N_COORD97":2547948.6699999999,"ADDRESS":"大安街１０號","OBJECTID":357629},"geometry":{"x":167073.18000000063,"y":2547948.6699999999}},{"attributes":{"ID":357639,"DIS_CODE":0,"TOWNNAME":"安南區","LI":"大安里","LIN":"1鄰","STREET":"大安街","SECT":" ","MAREA":" ","LANE":" ","ALLEY":" ","HOUSE_NO":"１６號","E_COORD97":167087.67000000001,"N_COORD97":2547949.98,"ADDRESS":"大安街１６號","OBJECTID":357630},"geometry":{"x":167087.66999999993,"y":2547949.9800000004}},{"attributes":{"ID":357640,"DIS_CODE":0,"TOWNNAME":"安南區","LI":"大安里","LIN":"13鄰","STREET":"義安街","SECT":" ","MAREA":" ","LANE":" ","ALLEY":" ","HOUSE_NO":"１６號","E_COORD97":167350.42000000001,"N_COORD97":2547909.0699999998,"ADDRESS":"義安街１６號","OBJECTID":357631},"geometry":{"x":167350.41999999993,"y":2547909.0700000003}},{"attributes":{"ID":357641,"DIS_CODE":0,"TOWNNAME":"東區","LI":"裕農里","LIN":"26鄰","STREET":"東寧路","SECT":" ","MAREA":" ","LANE":"４２８巷","ALLEY":" ","HOUSE_NO":"１３號","E_COORD97":170973.16,"N_COORD97":2543291.3100000001,"ADDRESS":"東寧路４２８巷１３號","OBJECTID":357632},"geometry":{"x":170973.16000000015,"y":2543291.3100000024}},{"attributes":{"ID":357642,"DIS_CODE":0,"TOWNNAME":"東區","LI":"裕農里","LIN":"26鄰","STREET":"東寧路","SECT":" ","MAREA":" ","LANE":"４２８巷","ALLEY":" ","HOUSE_NO":"１５號","E_COORD97":170973.82000000001,"N_COORD97":2543288.0099999998,"ADDRESS":"東寧路４２８巷１５號","OBJECTID":357633},"geometry":{"x":170973.8200000003,"y":2543288.0099999979}},{"attributes":{"ID":357643,"DIS_CODE":0,"TOWNNAME":"東區","LI":"裕農里","LIN":"26鄰","STREET":"東寧路","SECT":" ","MAREA":" ","LANE":"４２８巷","ALLEY":" ","HOUSE_NO":"３號","E_COORD97":170966.54999999999,"N_COORD97":2543310.77,"ADDRESS":"東寧路４２８巷３號","OBJECTID":357634},"geometry":{"x":170966.55000000075,"y":2543310.7700000014}},{"attributes":{"ID":357644,"DIS_CODE":0,"TOWNNAME":"東區","LI":"裕農里","LIN":"26鄰","STREET":"東寧路","SECT":" ","MAREA":" ","LANE":"４２８巷","ALLEY":" ","HOUSE_NO":"５號","E_COORD97":170968.53,"N_COORD97":2543306.48,"ADDRESS":"東寧路４２８巷５號","OBJECTID":357635},"geometry":{"x":170968.53000000119,"y":2543306.4800000023}},{"attributes":{"ID":357645,"DIS_CODE":0,"TOWNNAME":"東區","LI":"裕農里","LIN":"26鄰","STREET":"東寧路","SECT":" ","MAREA":" ","LANE":"４２８巷","ALLEY":" ","HOUSE_NO":"７號","E_COORD97":170970.19,"N_COORD97":2543303.8399999999,"ADDRESS":"東寧路４２８巷７號","OBJECTID":357636},"geometry":{"x":170970.19000000041,"y":2543303.8400000017}},{"attributes":{"ID":357646,"DIS_CODE":0,"TOWNNAME":"東區","LI":"裕農里","LIN":"26鄰","STREET":"東寧路","SECT":" ","MAREA":" ","LANE":"４２８巷","ALLEY":" ","HOUSE_NO":"９號","E_COORD97":170970.85000000001,"N_COORD97":2543300.21,"ADDRESS":"東寧路４２８巷９號","OBJECTID":357637},"geometry":{"x":170970.85000000056,"y":2543300.2100000009}},{"attributes":{"ID":357647,"DIS_CODE":0,"TOWNNAME":"東區","LI":"裕農里","LIN":"26鄰","STREET":"東寧路","SECT":" ","MAREA":" ","LANE":"５１０巷","ALLEY":" ","HOUSE_NO":"２０號","E_COORD97":171008.84,"N_COORD97":2543278.4399999999,"ADDRESS":"東寧路５１０巷２０號","OBJECTID":357638},"geometry":{"x":171008.83999999985,"y":2543278.4400000032}},{"attributes":{"ID":357648,"DIS_CODE":0,"TOWNNAME":"東區","LI":"裕農里","LIN":"26鄰","STREET":"東寧路","SECT":" ","MAREA":" ","LANE":"５１０巷","ALLEY":" ","HOUSE_NO":"２２號","E_COORD97":171005.20000000001,"N_COORD97":2543277.4500000002,"ADDRESS":"東寧路５１０巷２２號","OBJECTID":357639},"geometry":{"x":171005.20000000019,"y":2543277.4499999993}},{"attributes":{"ID":357649,"DIS_CODE":0,"TOWNNAME":"東區","LI":"裕農里","LIN":"26鄰","STREET":"東寧路","SECT":" ","MAREA":" ","LANE":"５１０巷","ALLEY":" ","HOUSE_NO":"２４號","E_COORD97":171001.57000000001,"N_COORD97":2543277.4500000002,"ADDRESS":"東寧路５１０巷２４號","OBJECTID":357640},"geometry":{"x":171001.5700000003,"y":2543277.4499999993}},{"attributes":{"ID":357650,"DIS_CODE":0,"TOWNNAME":"東區","LI":"裕農里","LIN":"26鄰","STREET":"東寧路","SECT":" ","MAREA":" ","LANE":"５１０巷","ALLEY":" ","HOUSE_NO":"３４號","E_COORD97":170974.14999999999,"N_COORD97":2543271.8399999999,"ADDRESS":"東寧路５１０巷３４號","OBJECTID":357641},"geometry":{"x":170974.15000000224,"y":2543271.8399999999}},{"attributes":{"ID":357651,"DIS_CODE":0,"TOWNNAME":"東區","LI":"裕農里","LIN":"26鄰","STREET":"東寧路","SECT":" ","MAREA":" ","LANE":"５１０巷","ALLEY":" ","HOUSE_NO":"３６號","E_COORD97":170969.85999999999,"N_COORD97":2543272.8300000001,"ADDRESS":"東寧路５１０巷３６號","OBJECTID":357642},"geometry":{"x":170969.86000000127,"y":2543272.8300000038}},{"attributes":{"ID":357652,"DIS_CODE":0,"TOWNNAME":"東區","LI":"裕農里","LIN":"26鄰","STREET":"東寧路","SECT":" ","MAREA":" ","LANE":"５１０巷","ALLEY":" ","HOUSE_NO":"６１號","E_COORD97":171020.07000000001,"N_COORD97":2543233.0099999998,"ADDRESS":"東寧路５１０巷６１號","OBJECTID":357643},"geometry":{"x":171020.0700000003,"y":2543233.0099999998}},{"attributes":{"ID":357653,"DIS_CODE":0,"TOWNNAME":"東區","LI":"裕農里","LIN":"26鄰","STREET":"東寧路","SECT":" ","MAREA":" ","LANE":"５１０巷","ALLEY":" ","HOUSE_NO":"６３號","E_COORD97":171009.5,"N_COORD97":2543229.71,"ADDRESS":"東寧路５１０巷６３號","OBJECTID":357644},"geometry":{"x":171009.50000000093,"y":2543229.7100000009}},{"attributes":{"ID":357654,"DIS_CODE":0,"TOWNNAME":"安平區","LI":"文平里","LIN":"18鄰","STREET":"健康一街","SECT":" ","MAREA":" ","LANE":"７１巷","ALLEY":" ","HOUSE_NO":"３１號","E_COORD97":165856.70000000001,"N_COORD97":2542838.27,"ADDRESS":"健康一街７１巷３１號","OBJECTID":357645},"geometry":{"x":165856.70000000019,"y":2542838.2699999996}},{"attributes":{"ID":357655,"DIS_CODE":0,"TOWNNAME":"佳里區","LI":"建南里","LIN":"26鄰","STREET":"公園路","SECT":" ","MAREA":" ","LANE":"３巷","ALLEY":" ","HOUSE_NO":"３號","E_COORD97":165431.57000000001,"N_COORD97":2561463.0099999998,"ADDRESS":"公園路３巷３號","OBJECTID":357646},"geometry":{"x":165431.57000000123,"y":2561463.0099999998}},{"attributes":{"ID":357656,"DIS_CODE":0,"TOWNNAME":"東區","LI":"富強里","LIN":"30鄰","STREET":"裕農路","SECT":" ","MAREA":" ","LANE":"２８８巷","ALLEY":" ","HOUSE_NO":"１７號十樓之２","E_COORD97":170962.04999999999,"N_COORD97":2542975.3199999998,"ADDRESS":"裕農路２８８巷１７號十樓之２","OBJECTID":357647},"geometry":{"x":170962.04999999981,"y":2542975.3200000022}},{"attributes":{"ID":357657,"DIS_CODE":0,"TOWNNAME":"東區","LI":"富強里","LIN":"30鄰","STREET":"裕農路","SECT":" ","MAREA":" ","LANE":"２８８巷","ALLEY":" ","HOUSE_NO":"１７號十樓之３","E_COORD97":170962.04999999999,"N_COORD97":2542975.3199999998,"ADDRESS":"裕農路２８８巷１７號十樓之３","OBJECTID":357648},"geometry":{"x":170962.04999999981,"y":2542975.3200000022}},{"attributes":{"ID":357658,"DIS_CODE":0,"TOWNNAME":"中西區","LI":"安海里","LIN":"8鄰","STREET":"金華路","SECT":"三段","MAREA":" ","LANE":" ","ALLEY":" ","HOUSE_NO":"２１８號七樓之１３","E_COORD97":167349.89999999999,"N_COORD97":2543920.5099999998,"ADDRESS":"金華路三段２１８號七樓之１３","OBJECTID":357649},"geometry":{"x":167349.90000000224,"y":2543920.5100000016}},{"attributes":{"ID":357659,"DIS_CODE":0,"TOWNNAME":"中西區","LI":"安海里","LIN":"8鄰","STREET":"金華路","SECT":"三段","MAREA":" ","LANE":" ","ALLEY":" ","HOUSE_NO":"２１８號七樓之１４","E_COORD97":167349.89999999999,"N_COORD97":2543920.5099999998,"ADDRESS":"金華路三段２１８號七樓之１４","OBJECTID":357650},"geometry":{"x":167349.90000000224,"y":2543920.5100000016}},{"attributes":{"ID":357660,"DIS_CODE":0,"TOWNNAME":"中西區","LI":"安海里","LIN":"8鄰","STREET":"金華路","SECT":"三段","MAREA":" ","LANE":" ","ALLEY":" ","HOUSE_NO":"２１８號七樓之１５","E_COORD97":167349.89999999999,"N_COORD97":2543920.5099999998,"ADDRESS":"金華路三段２１８號七樓之１５","OBJECTID":357651},"geometry":{"x":167349.90000000224,"y":2543920.5100000016}},{"attributes":{"ID":357661,"DIS_CODE":0,"TOWNNAME":"中西區","LI":"安海里","LIN":"8鄰","STREET":"金華路","SECT":"三段","MAREA":" ","LANE":" ","ALLEY":" ","HOUSE_NO":"２１８號七樓之１６","E_COORD97":167349.89999999999,"N_COORD97":2543920.5099999998,"ADDRESS":"金華路三段２１８號七樓之１６","OBJECTID":357652},"geometry":{"x":167349.90000000224,"y":2543920.5100000016}},{"attributes":{"ID":357662,"DIS_CODE":0,"TOWNNAME":"中西區","LI":"安海里","LIN":"8鄰","STREET":"金華路","SECT":"三段","MAREA":" ","LANE":" ","ALLEY":" ","HOUSE_NO":"２１８號七樓之１７","E_COORD97":167349.89999999999,"N_COORD97":2543920.5099999998,"ADDRESS":"金華路三段２１８號七樓之１７","OBJECTID":357653},"geometry":{"x":167349.90000000224,"y":2543920.5100000016}},{"attributes":{"ID":357663,"DIS_CODE":0,"TOWNNAME":"新市區","LI":"大社里","LIN":"26鄰","STREET":" ","SECT":" ","MAREA":"大社","LANE":" ","ALLEY":" ","HOUSE_NO":"６０９號","E_COORD97":179980.35000000001,"N_COORD97":2554446.5,"ADDRESS":"大社６０９號","OBJECTID":357654},"geometry":{"x":179980.35000000149,"y":2554446.5000000037}},{"attributes":{"ID":357664,"DIS_CODE":0,"TOWNNAME":"中西區","LI":"安海里","LIN":"8鄰","STREET":"金華路","SECT":"三段","MAREA":" ","LANE":" ","ALLEY":" ","HOUSE_NO":"２１８號七樓之１８","E_COORD97":167349.89999999999,"N_COORD97":2543920.5099999998,"ADDRESS":"金華路三段２１８號七樓之１８","OBJECTID":357655},"geometry":{"x":167349.90000000224,"y":2543920.5100000016}},{"attributes":{"ID":357665,"DIS_CODE":0,"TOWNNAME":"中西區","LI":"安海里","LIN":"8鄰","STREET":"金華路","SECT":"三段","MAREA":" ","LANE":" ","ALLEY":" ","HOUSE_NO":"２１８號七樓之１９","E_COORD97":167349.89999999999,"N_COORD97":2543920.5099999998,"ADDRESS":"金華路三段２１８號七樓之１９","OBJECTID":357656},"geometry":{"x":167349.90000000224,"y":2543920.5100000016}},{"attributes":{"ID":357666,"DIS_CODE":0,"TOWNNAME":"中西區","LI":"安海里","LIN":"8鄰","STREET":"金華路","SECT":"三段","MAREA":" ","LANE":" ","ALLEY":" ","HOUSE_NO":"２１８號七樓之２","E_COORD97":167349.89999999999,"N_COORD97":2543920.5099999998,"ADDRESS":"金華路三段２１８號七樓之２","OBJECTID":357657},"geometry":{"x":167349.90000000224,"y":2543920.5100000016}},{"attributes":{"ID":357667,"DIS_CODE":0,"TOWNNAME":"中西區","LI":"安海里","LIN":"8鄰","STREET":"金華路","SECT":"三段","MAREA":" ","LANE":" ","ALLEY":" ","HOUSE_NO":"２１８號七樓之３","E_COORD97":167349.89999999999,"N_COORD97":2543920.5099999998,"ADDRESS":"金華路三段２１８號七樓之３","OBJECTID":357658},"geometry":{"x":167349.90000000224,"y":2543920.5100000016}},{"attributes":{"ID":357668,"DIS_CODE":0,"TOWNNAME":"中西區","LI":"安海里","LIN":"8鄰","STREET":"金華路","SECT":"三段","MAREA":" ","LANE":" ","ALLEY":" ","HOUSE_NO":"２１８號七樓之４","E_COORD97":167349.89999999999,"N_COORD97":2543920.5099999998,"ADDRESS":"金華路三段２１８號七樓之４","OBJECTID":357659},"geometry":{"x":167349.90000000224,"y":2543920.5100000016}},{"attributes":{"ID":357669,"DIS_CODE":0,"TOWNNAME":"中西區","LI":"安海里","LIN":"8鄰","STREET":"金華路","SECT":"三段","MAREA":" ","LANE":" ","ALLEY":" ","HOUSE_NO":"２１８號七樓之５","E_COORD97":167349.89999999999,"N_COORD97":2543920.5099999998,"ADDRESS":"金華路三段２１８號七樓之５","OBJECTID":357660},"geometry":{"x":167349.90000000224,"y":2543920.5100000016}},{"attributes":{"ID":357670,"DIS_CODE":0,"TOWNNAME":"中西區","LI":"安海里","LIN":"8鄰","STREET":"金華路","SECT":"三段","MAREA":" ","LANE":" ","ALLEY":" ","HOUSE_NO":"２１８號七樓之６","E_COORD97":167349.89999999999,"N_COORD97":2543920.5099999998,"ADDRESS":"金華路三段２１８號七樓之６","OBJECTID":357661},"geometry":{"x":167349.90000000224,"y":2543920.5100000016}},{"attributes":{"ID":357671,"DIS_CODE":0,"TOWNNAME":"中西區","LI":"安海里","LIN":"8鄰","STREET":"金華路","SECT":"三段","MAREA":" ","LANE":" ","ALLEY":" ","HOUSE_NO":"２１８號七樓之７","E_COORD97":167349.89999999999,"N_COORD97":2543920.5099999998,"ADDRESS":"金華路三段２１８號七樓之７","OBJECTID":357662},"geometry":{"x":167349.90000000224,"y":2543920.5100000016}},{"attributes":{"ID":357672,"DIS_CODE":0,"TOWNNAME":"東區","LI":"東明里","LIN":"26鄰","STREET":"東安路","SECT":" ","MAREA":" ","LANE":"１２巷","ALLEY":" ","HOUSE_NO":"２１號","E_COORD97":170713.29000000001,"N_COORD97":2543489.7599999998,"ADDRESS":"東安路１２巷２１號","OBJECTID":357663},"geometry":{"x":170713.29000000004,"y":2543489.7599999979}},{"attributes":{"ID":357673,"DIS_CODE":0,"TOWNNAME":"東區","LI":"東明里","LIN":"26鄰","STREET":"東安路","SECT":" ","MAREA":" ","LANE":"１２巷","ALLEY":" ","HOUSE_NO":"２３號","E_COORD97":170723.63,"N_COORD97":2543486.6600000001,"ADDRESS":"東安路１２巷２３號","OBJECTID":357664},"geometry":{"x":170723.63000000082,"y":2543486.6600000001}},{"attributes":{"ID":357674,"DIS_CODE":0,"TOWNNAME":"東區","LI":"東明里","LIN":"26鄰","STREET":"東安路","SECT":" ","MAREA":" ","LANE":"１２巷","ALLEY":" ","HOUSE_NO":"２５號","E_COORD97":170732.67999999999,"N_COORD97":2543483.3100000001,"ADDRESS":"東安路１２巷２５號","OBJECTID":357665},"geometry":{"x":170732.68000000063,"y":2543483.3100000005}},{"attributes":{"ID":357675,"DIS_CODE":0,"TOWNNAME":"東區","LI":"東明里","LIN":"26鄰","STREET":"東安路","SECT":" ","MAREA":" ","LANE":"１２巷","ALLEY":" ","HOUSE_NO":"２７號","E_COORD97":170741.22,"N_COORD97":2543480.46,"ADDRESS":"東安路１２巷２７號","OBJECTID":357666},"geometry":{"x":170741.22000000067,"y":2543480.4600000028}},{"attributes":{"ID":357676,"DIS_CODE":0,"TOWNNAME":"東區","LI":"東明里","LIN":"26鄰","STREET":"東安路","SECT":" ","MAREA":" ","LANE":"１２巷","ALLEY":" ","HOUSE_NO":"２９號","E_COORD97":170750.26999999999,"N_COORD97":2543478.9100000001,"ADDRESS":"東安路１２巷２９號","OBJECTID":357667},"geometry":{"x":170750.26999999862,"y":2543478.9099999983}},{"attributes":{"ID":357677,"DIS_CODE":0,"TOWNNAME":"東區","LI":"東明里","LIN":"26鄰","STREET":"東安路","SECT":" ","MAREA":" ","LANE":"１２巷","ALLEY":" ","HOUSE_NO":"３１號","E_COORD97":170761.91,"N_COORD97":2543475.04,"ADDRESS":"東安路１２巷３１號","OBJECTID":357668},"geometry":{"x":170761.91000000201,"y":2543475.040000001}},{"attributes":{"ID":357678,"DIS_CODE":0,"TOWNNAME":"善化區","LI":"光文里","LIN":"26鄰","STREET":"中山路","SECT":" ","MAREA":" ","LANE":"２４０巷","ALLEY":" ","HOUSE_NO":"１號之６２","E_COORD97":178168.84,"N_COORD97":2559263.27,"ADDRESS":"中山路２４０巷１號之６２","OBJECTID":357669},"geometry":{"x":178168.84000000078,"y":2559263.2700000014}},{"attributes":{"ID":357679,"DIS_CODE":0,"TOWNNAME":"善化區","LI":"光文里","LIN":"26鄰","STREET":"中山路","SECT":" ","MAREA":" ","LANE":"２４０巷","ALLEY":" ","HOUSE_NO":"１之４６號","E_COORD97":178092.79000000001,"N_COORD97":2559256.27,"ADDRESS":"中山路２４０巷１之４６號","OBJECTID":357670},"geometry":{"x":178092.79000000097,"y":2559256.2700000014}},{"attributes":{"ID":357680,"DIS_CODE":0,"TOWNNAME":"善化區","LI":"光文里","LIN":"26鄰","STREET":"中山路","SECT":" ","MAREA":" ","LANE":"２４０巷","ALLEY":" ","HOUSE_NO":"１號之４０","E_COORD97":178165.63,"N_COORD97":2559248.52,"ADDRESS":"中山路２４０巷１號之４０","OBJECTID":357671},"geometry":{"x":178165.62999999989,"y":2559248.5199999996}},{"attributes":{"ID":357681,"DIS_CODE":0,"TOWNNAME":"永康區","LI":"二王里","LIN":"26鄰","STREET":"中山南路","SECT":" ","MAREA":" ","LANE":"５４４巷","ALLEY":" ","HOUSE_NO":"１０２號","E_COORD97":172314.66,"N_COORD97":2546207.8799999999,"ADDRESS":"中山南路５４４巷１０２號","OBJECTID":357672},"geometry":{"x":172314.65999999922,"y":2546207.8800000008}},{"attributes":{"ID":357682,"DIS_CODE":0,"TOWNNAME":"永康區","LI":"二王里","LIN":"26鄰","STREET":"中山南路","SECT":" ","MAREA":" ","LANE":"５４４巷","ALLEY":" ","HOUSE_NO":"９６號","E_COORD97":172314.22,"N_COORD97":2546221.3799999999,"ADDRESS":"中山南路５４４巷９６號","OBJECTID":357673},"geometry":{"x":172314.22000000067,"y":2546221.3800000008}},{"attributes":{"ID":357683,"DIS_CODE":0,"TOWNNAME":"東區","LI":"富強里","LIN":"30鄰","STREET":"裕農路","SECT":" ","MAREA":" ","LANE":"２８８巷","ALLEY":" ","HOUSE_NO":"１７號三樓","E_COORD97":170962.04999999999,"N_COORD97":2542975.3199999998,"ADDRESS":"裕農路２８８巷１７號三樓","OBJECTID":357674},"geometry":{"x":170962.04999999981,"y":2542975.3200000022}},{"attributes":{"ID":357684,"DIS_CODE":0,"TOWNNAME":"南區","LI":"金華里","LIN":"6鄰","STREET":"聖南街","SECT":" ","MAREA":" ","LANE":" ","ALLEY":" ","HOUSE_NO":"３２號","E_COORD97":167021.12,"N_COORD97":2542325.9399999999,"ADDRESS":"聖南街３２號","OBJECTID":357675},"geometry":{"x":167021.12000000104,"y":2542325.9400000013}},{"attributes":{"ID":357685,"DIS_CODE":0,"TOWNNAME":"北區","LI":"長榮里","LIN":"13鄰","STREET":"長榮路","SECT":"五段","MAREA":" ","LANE":" ","ALLEY":" ","HOUSE_NO":"３號","E_COORD97":170104.29999999999,"N_COORD97":2545366.8399999999,"ADDRESS":"長榮路五段３號","OBJECTID":357676},"geometry":{"x":170104.29999999981,"y":2545366.8399999999}},{"attributes":{"ID":357686,"DIS_CODE":0,"TOWNNAME":"中西區","LI":"安海里","LIN":"8鄰","STREET":"金華路","SECT":"三段","MAREA":" ","LANE":" ","ALLEY":" ","HOUSE_NO":"２１８號七樓之８","E_COORD97":167349.89999999999,"N_COORD97":2543920.5099999998,"ADDRESS":"金華路三段２１８號七樓之８","OBJECTID":357677},"geometry":{"x":167349.90000000224,"y":2543920.5100000016}},{"attributes":{"ID":357687,"DIS_CODE":0,"TOWNNAME":"中西區","LI":"安海里","LIN":"8鄰","STREET":"金華路","SECT":"三段","MAREA":" ","LANE":" ","ALLEY":" ","HOUSE_NO":"２１８號七樓之９","E_COORD97":167349.89999999999,"N_COORD97":2543920.5099999998,"ADDRESS":"金華路三段２１８號七樓之９","OBJECTID":357678},"geometry":{"x":167349.90000000224,"y":2543920.5100000016}},{"attributes":{"ID":357688,"DIS_CODE":0,"TOWNNAME":"中西區","LI":"安海里","LIN":"8鄰","STREET":"金華路","SECT":"三段","MAREA":" ","LANE":" ","ALLEY":" ","HOUSE_NO":"２１８號九樓之１","E_COORD97":167349.89999999999,"N_COORD97":2543920.5099999998,"ADDRESS":"金華路三段２１８號九樓之１","OBJECTID":357679},"geometry":{"x":167349.90000000224,"y":2543920.5100000016}},{"attributes":{"ID":357689,"DIS_CODE":0,"TOWNNAME":"中西區","LI":"安海里","LIN":"8鄰","STREET":"金華路","SECT":"三段","MAREA":" ","LANE":" ","ALLEY":" ","HOUSE_NO":"２１８號九樓之１０","E_COORD97":167349.89999999999,"N_COORD97":2543920.5099999998,"ADDRESS":"金華路三段２１８號九樓之１０","OBJECTID":357680},"geometry":{"x":167349.90000000224,"y":2543920.5100000016}},{"attributes":{"ID":357690,"DIS_CODE":0,"TOWNNAME":"中西區","LI":"安海里","LIN":"8鄰","STREET":"金華路","SECT":"三段","MAREA":" ","LANE":" ","ALLEY":" ","HOUSE_NO":"２１８號九樓之１１","E_COORD97":167349.89999999999,"N_COORD97":2543920.5099999998,"ADDRESS":"金華路三段２１８號九樓之１１","OBJECTID":357681},"geometry":{"x":167349.90000000224,"y":2543920.5100000016}},{"attributes":{"ID":357691,"DIS_CODE":0,"TOWNNAME":"中西區","LI":"安海里","LIN":"8鄰","STREET":"金華路","SECT":"三段","MAREA":" ","LANE":" ","ALLEY":" ","HOUSE_NO":"２１８號九樓之１２","E_COORD97":167349.89999999999,"N_COORD97":2543920.5099999998,"ADDRESS":"金華路三段２１８號九樓之１２","OBJECTID":357682},"geometry":{"x":167349.90000000224,"y":2543920.5100000016}},{"attributes":{"ID":357692,"DIS_CODE":0,"TOWNNAME":"中西區","LI":"安海里","LIN":"8鄰","STREET":"金華路","SECT":"三段","MAREA":" ","LANE":" ","ALLEY":" ","HOUSE_NO":"２１８號九樓之１３","E_COORD97":167349.89999999999,"N_COORD97":2543920.5099999998,"ADDRESS":"金華路三段２１８號九樓之１３","OBJECTID":357683},"geometry":{"x":167349.90000000224,"y":2543920.5100000016}},{"attributes":{"ID":357693,"DIS_CODE":0,"TOWNNAME":"中西區","LI":"安海里","LIN":"8鄰","STREET":"金華路","SECT":"三段","MAREA":" ","LANE":" ","ALLEY":" ","HOUSE_NO":"２１８號九樓之１４","E_COORD97":167349.89999999999,"N_COORD97":2543920.5099999998,"ADDRESS":"金華路三段２１８號九樓之１４","OBJECTID":357684},"geometry":{"x":167349.90000000224,"y":2543920.5100000016}},{"attributes":{"ID":357694,"DIS_CODE":0,"TOWNNAME":"仁德區","LI":"仁德里","LIN":"26鄰","STREET":"淨修街","SECT":" ","MAREA":" ","LANE":"１７５巷","ALLEY":" ","HOUSE_NO":"２６號","E_COORD97":171967.76999999999,"N_COORD97":2541259.4399999999,"ADDRESS":"淨修街１７５巷２６號","OBJECTID":357685},"geometry":{"x":171967.77000000048,"y":2541259.4399999995}},{"attributes":{"ID":357695,"DIS_CODE":0,"TOWNNAME":"仁德區","LI":"成功里","LIN":"26鄰","STREET":"成功一街","SECT":" ","MAREA":" ","LANE":"３８巷","ALLEY":" ","HOUSE_NO":"４號","E_COORD97":170499.81,"N_COORD97":2540062.7599999998,"ADDRESS":"成功一街３８巷４號","OBJECTID":357686},"geometry":{"x":170499.81000000052,"y":2540062.7600000016}},{"attributes":{"ID":357696,"DIS_CODE":0,"TOWNNAME":"永康區","LI":"永康里","LIN":"26鄰","STREET":"永明街","SECT":" ","MAREA":" ","LANE":"６９巷","ALLEY":" ","HOUSE_NO":"１號","E_COORD97":174160.95999999999,"N_COORD97":2547294.7400000002,"ADDRESS":"永明街６９巷１號","OBJECTID":357687},"geometry":{"x":174160.96000000089,"y":2547294.7400000039}},{"attributes":{"ID":357697,"DIS_CODE":0,"TOWNNAME":"東區","LI":"富強里","LIN":"30鄰","STREET":"裕農路","SECT":" ","MAREA":" ","LANE":"２８８巷","ALLEY":" ","HOUSE_NO":"１７號三樓之１","E_COORD97":170962.04999999999,"N_COORD97":2542975.3199999998,"ADDRESS":"裕農路２８８巷１７號三樓之１","OBJECTID":357688},"geometry":{"x":170962.04999999981,"y":2542975.3200000022}},{"attributes":{"ID":357698,"DIS_CODE":0,"TOWNNAME":"東區","LI":"富強里","LIN":"30鄰","STREET":"裕農路","SECT":" ","MAREA":" ","LANE":"２８８巷","ALLEY":" ","HOUSE_NO":"１７號三樓之２","E_COORD97":170962.04999999999,"N_COORD97":2542975.3199999998,"ADDRESS":"裕農路２８８巷１７號三樓之２","OBJECTID":357689},"geometry":{"x":170962.04999999981,"y":2542975.3200000022}},{"attributes":{"ID":357699,"DIS_CODE":0,"TOWNNAME":"東區","LI":"富強里","LIN":"30鄰","STREET":"裕農路","SECT":" ","MAREA":" ","LANE":"２８８巷","ALLEY":" ","HOUSE_NO":"１７號三樓之３","E_COORD97":170962.04999999999,"N_COORD97":2542975.3199999998,"ADDRESS":"裕農路２８８巷１７號三樓之３","OBJECTID":357690},"geometry":{"x":170962.04999999981,"y":2542975.3200000022}},{"attributes":{"ID":357700,"DIS_CODE":0,"TOWNNAME":"東區","LI":"富強里","LIN":"30鄰","STREET":"裕農路","SECT":" ","MAREA":" ","LANE":"２８８巷","ALLEY":" ","HOUSE_NO":"１７號五樓","E_COORD97":170962.04999999999,"N_COORD97":2542975.3199999998,"ADDRESS":"裕農路２８８巷１７號五樓","OBJECTID":357691},"geometry":{"x":170962.04999999981,"y":2542975.3200000022}},{"attributes":{"ID":357701,"DIS_CODE":0,"TOWNNAME":"東區","LI":"富強里","LIN":"30鄰","STREET":"裕農路","SECT":" ","MAREA":" ","LANE":"２８８巷","ALLEY":" ","HOUSE_NO":"１７號五樓之１","E_COORD97":170962.04999999999,"N_COORD97":2542975.3199999998,"ADDRESS":"裕農路２８８巷１７號五樓之１","OBJECTID":357692},"geometry":{"x":170962.04999999981,"y":2542975.3200000022}},{"attributes":{"ID":357702,"DIS_CODE":0,"TOWNNAME":"中西區","LI":"安海里","LIN":"8鄰","STREET":"金華路","SECT":"三段","MAREA":" ","LANE":" ","ALLEY":" ","HOUSE_NO":"２１８號九樓之１５","E_COORD97":167349.89999999999,"N_COORD97":2543920.5099999998,"ADDRESS":"金華路三段２１８號九樓之１５","OBJECTID":357693},"geometry":{"x":167349.90000000224,"y":2543920.5100000016}},{"attributes":{"ID":357703,"DIS_CODE":0,"TOWNNAME":"中西區","LI":"安海里","LIN":"8鄰","STREET":"金華路","SECT":"三段","MAREA":" ","LANE":" ","ALLEY":" ","HOUSE_NO":"２１８號九樓之１６","E_COORD97":167349.89999999999,"N_COORD97":2543920.5099999998,"ADDRESS":"金華路三段２１８號九樓之１６","OBJECTID":357694},"geometry":{"x":167349.90000000224,"y":2543920.5100000016}},{"attributes":{"ID":357704,"DIS_CODE":0,"TOWNNAME":"中西區","LI":"安海里","LIN":"8鄰","STREET":"金華路","SECT":"三段","MAREA":" ","LANE":" ","ALLEY":" ","HOUSE_NO":"２１８號九樓之１７","E_COORD97":167349.89999999999,"N_COORD97":2543920.5099999998,"ADDRESS":"金華路三段２１８號九樓之１７","OBJECTID":357695},"geometry":{"x":167349.90000000224,"y":2543920.5100000016}},{"attributes":{"ID":357705,"DIS_CODE":0,"TOWNNAME":"東區","LI":"富強里","LIN":"30鄰","STREET":"裕農路","SECT":" ","MAREA":" ","LANE":"２８８巷","ALLEY":" ","HOUSE_NO":"１７號五樓之２","E_COORD97":170962.04999999999,"N_COORD97":2542975.3199999998,"ADDRESS":"裕農路２８８巷１７號五樓之２","OBJECTID":357696},"geometry":{"x":170962.04999999981,"y":2542975.3200000022}},{"attributes":{"ID":357706,"DIS_CODE":0,"TOWNNAME":"永康區","LI":"西勢里","LIN":"26鄰","STREET":"廣興街","SECT":" ","MAREA":" ","LANE":"３８巷","ALLEY":" ","HOUSE_NO":"２２號","E_COORD97":175988.92999999999,"N_COORD97":2546473.4900000002,"ADDRESS":"廣興街３８巷２２號","OBJECTID":357697},"geometry":{"x":175988.9299999997,"y":2546473.4900000021}},{"attributes":{"ID":357707,"DIS_CODE":0,"TOWNNAME":"安平區","LI":"華平里","LIN":"22鄰","STREET":"建平八街","SECT":" ","MAREA":" ","LANE":"４１５巷","ALLEY":" ","HOUSE_NO":"２號","E_COORD97":165239.66,"N_COORD97":2543560.2200000002,"ADDRESS":"建平八街４１５巷２號","OBJECTID":357698},"geometry":{"x":165239.66000000108,"y":2543560.2200000025}},{"attributes":{"ID":357708,"DIS_CODE":0,"TOWNNAME":"安平區","LI":"文平里","LIN":"20鄰","STREET":"健康一街","SECT":" ","MAREA":" ","LANE":"５７巷","ALLEY":" ","HOUSE_NO":"２０號","E_COORD97":165872.42000000001,"N_COORD97":2542818.7000000002,"ADDRESS":"健康一街５７巷２０號","OBJECTID":357699},"geometry":{"x":165872.41999999993,"y":2542818.700000003}},{"attributes":{"ID":357709,"DIS_CODE":0,"TOWNNAME":"安平區","LI":"文平里","LIN":"20鄰","STREET":"健康一街","SECT":" ","MAREA":" ","LANE":"５７巷","ALLEY":" ","HOUSE_NO":"２２號","E_COORD97":165867.82999999999,"N_COORD97":2542818.7000000002,"ADDRESS":"健康一街５７巷２２號","OBJECTID":357700},"geometry":{"x":165867.83000000007,"y":2542818.700000003}},{"attributes":{"ID":357710,"DIS_CODE":0,"TOWNNAME":"安平區","LI":"文平里","LIN":"20鄰","STREET":"健康一街","SECT":" ","MAREA":" ","LANE":"５７巷","ALLEY":" ","HOUSE_NO":"２４號","E_COORD97":165863.63,"N_COORD97":2542819.7000000002,"ADDRESS":"健康一街５７巷２４號","OBJECTID":357701},"geometry":{"x":165863.62999999989,"y":2542819.7000000011}},{"attributes":{"ID":357711,"DIS_CODE":0,"TOWNNAME":"安平區","LI":"文平里","LIN":"20鄰","STREET":"健康一街","SECT":" ","MAREA":" ","LANE":"５７巷","ALLEY":" ","HOUSE_NO":"２６號","E_COORD97":165858.84,"N_COORD97":2542820.29,"ADDRESS":"健康一街５７巷２６號","OBJECTID":357702},"geometry":{"x":165858.83999999985,"y":2542820.2899999991}},{"attributes":{"ID":357712,"DIS_CODE":0,"TOWNNAME":"安平區","LI":"文平里","LIN":"20鄰","STREET":"健康一街","SECT":" ","MAREA":" ","LANE":"５７巷","ALLEY":" ","HOUSE_NO":"２８號","E_COORD97":165854.44,"N_COORD97":2542820.29,"ADDRESS":"健康一街５７巷２８號","OBJECTID":357703},"geometry":{"x":165854.44000000227,"y":2542820.2899999991}},{"attributes":{"ID":357713,"DIS_CODE":0,"TOWNNAME":"安平區","LI":"文平里","LIN":"20鄰","STREET":"健康一街","SECT":" ","MAREA":" ","LANE":"５７巷","ALLEY":" ","HOUSE_NO":"２號","E_COORD97":165915.44,"N_COORD97":2542810.3100000001,"ADDRESS":"健康一街５７巷２號","OBJECTID":357704},"geometry":{"x":165915.44000000227,"y":2542810.3100000024}},{"attributes":{"ID":357714,"DIS_CODE":0,"TOWNNAME":"安平區","LI":"文平里","LIN":"20鄰","STREET":"健康一街","SECT":" ","MAREA":" ","LANE":"５７巷","ALLEY":" ","HOUSE_NO":"３０號","E_COORD97":165850.29000000001,"N_COORD97":2542821.79,"ADDRESS":"健康一街５７巷３０號","OBJECTID":357705},"geometry":{"x":165850.29000000097,"y":2542821.790000001}},{"attributes":{"ID":357715,"DIS_CODE":0,"TOWNNAME":"安平區","LI":"文平里","LIN":"20鄰","STREET":"健康一街","SECT":" ","MAREA":" ","LANE":"５７巷","ALLEY":" ","HOUSE_NO":"３２號","E_COORD97":165845.60000000001,"N_COORD97":2542821.6899999999,"ADDRESS":"健康一街５７巷３２號","OBJECTID":357706},"geometry":{"x":165845.59999999963,"y":2542821.6899999995}},{"attributes":{"ID":357716,"DIS_CODE":0,"TOWNNAME":"安平區","LI":"文平里","LIN":"20鄰","STREET":"健康一街","SECT":" ","MAREA":" ","LANE":"５７巷","ALLEY":" ","HOUSE_NO":"３４號","E_COORD97":165841.29999999999,"N_COORD97":2542822.29,"ADDRESS":"健康一街５７巷３４號","OBJECTID":357707},"geometry":{"x":165841.30000000168,"y":2542822.290000001}},{"attributes":{"ID":357717,"DIS_CODE":0,"TOWNNAME":"安平區","LI":"文平里","LIN":"20鄰","STREET":"健康一街","SECT":" ","MAREA":" ","LANE":"５７巷","ALLEY":" ","HOUSE_NO":"３６號","E_COORD97":165836.41,"N_COORD97":2542823.1899999999,"ADDRESS":"健康一街５７巷３６號","OBJECTID":357708},"geometry":{"x":165836.41000000108,"y":2542823.1900000013}},{"attributes":{"ID":357718,"DIS_CODE":0,"TOWNNAME":"東區","LI":"富強里","LIN":"30鄰","STREET":"裕農路","SECT":" ","MAREA":" ","LANE":"２８８巷","ALLEY":" ","HOUSE_NO":"１７號五樓之３","E_COORD97":170962.04999999999,"N_COORD97":2542975.3199999998,"ADDRESS":"裕農路２８８巷１７號五樓之３","OBJECTID":357709},"geometry":{"x":170962.04999999981,"y":2542975.3200000022}},{"attributes":{"ID":357719,"DIS_CODE":0,"TOWNNAME":"東區","LI":"富強里","LIN":"30鄰","STREET":"裕農路","SECT":" ","MAREA":" ","LANE":"２８８巷","ALLEY":" ","HOUSE_NO":"１７號四樓之２","E_COORD97":170962.04999999999,"N_COORD97":2542975.3199999998,"ADDRESS":"裕農路２８８巷１７號四樓之２","OBJECTID":357710},"geometry":{"x":170962.04999999981,"y":2542975.3200000022}},{"attributes":{"ID":357720,"DIS_CODE":0,"TOWNNAME":"東區","LI":"富強里","LIN":"30鄰","STREET":"裕農路","SECT":" ","MAREA":" ","LANE":"２８８巷","ALLEY":" ","HOUSE_NO":"１７號四樓之３","E_COORD97":170962.04999999999,"N_COORD97":2542975.3199999998,"ADDRESS":"裕農路２８８巷１７號四樓之３","OBJECTID":357711},"geometry":{"x":170962.04999999981,"y":2542975.3200000022}},{"attributes":{"ID":357721,"DIS_CODE":0,"TOWNNAME":"中西區","LI":"安海里","LIN":"8鄰","STREET":"金華路","SECT":"三段","MAREA":" ","LANE":" ","ALLEY":" ","HOUSE_NO":"２１８號九樓之１８","E_COORD97":167349.89999999999,"N_COORD97":2543920.5099999998,"ADDRESS":"金華路三段２１８號九樓之１８","OBJECTID":357712},"geometry":{"x":167349.90000000224,"y":2543920.5100000016}},{"attributes":{"ID":357722,"DIS_CODE":0,"TOWNNAME":"中西區","LI":"安海里","LIN":"8鄰","STREET":"金華路","SECT":"三段","MAREA":" ","LANE":" ","ALLEY":" ","HOUSE_NO":"２１８號九樓之１９","E_COORD97":167349.89999999999,"N_COORD97":2543920.5099999998,"ADDRESS":"金華路三段２１８號九樓之１９","OBJECTID":357713},"geometry":{"x":167349.90000000224,"y":2543920.5100000016}},{"attributes":{"ID":357723,"DIS_CODE":0,"TOWNNAME":"中西區","LI":"安海里","LIN":"8鄰","STREET":"金華路","SECT":"三段","MAREA":" ","LANE":" ","ALLEY":" ","HOUSE_NO":"２１８號九樓之２","E_COORD97":167349.89999999999,"N_COORD97":2543920.5099999998,"ADDRESS":"金華路三段２１８號九樓之２","OBJECTID":357714},"geometry":{"x":167349.90000000224,"y":2543920.5100000016}},{"attributes":{"ID":357724,"DIS_CODE":0,"TOWNNAME":"中西區","LI":"安海里","LIN":"8鄰","STREET":"金華路","SECT":"三段","MAREA":" ","LANE":" ","ALLEY":" ","HOUSE_NO":"２１８號九樓之３","E_COORD97":167349.89999999999,"N_COORD97":2543920.5099999998,"ADDRESS":"金華路三段２１８號九樓之３","OBJECTID":357715},"geometry":{"x":167349.90000000224,"y":2543920.5100000016}},{"attributes":{"ID":357725,"DIS_CODE":0,"TOWNNAME":"中西區","LI":"安海里","LIN":"8鄰","STREET":"金華路","SECT":"三段","MAREA":" ","LANE":" ","ALLEY":" ","HOUSE_NO":"２１８號九樓之４","E_COORD97":167349.89999999999,"N_COORD97":2543920.5099999998,"ADDRESS":"金華路三段２１８號九樓之４","OBJECTID":357716},"geometry":{"x":167349.90000000224,"y":2543920.5100000016}},{"attributes":{"ID":357726,"DIS_CODE":0,"TOWNNAME":"中西區","LI":"安海里","LIN":"8鄰","STREET":"金華路","SECT":"三段","MAREA":" ","LANE":" ","ALLEY":" ","HOUSE_NO":"２１８號九樓之５","E_COORD97":167349.89999999999,"N_COORD97":2543920.5099999998,"ADDRESS":"金華路三段２１８號九樓之５","OBJECTID":357717},"geometry":{"x":167349.90000000224,"y":2543920.5100000016}},{"attributes":{"ID":357727,"DIS_CODE":0,"TOWNNAME":"中西區","LI":"安海里","LIN":"8鄰","STREET":"金華路","SECT":"三段","MAREA":" ","LANE":" ","ALLEY":" ","HOUSE_NO":"２１８號九樓之６","E_COORD97":167349.89999999999,"N_COORD97":2543920.5099999998,"ADDRESS":"金華路三段２１８號九樓之６","OBJECTID":357718},"geometry":{"x":167349.90000000224,"y":2543920.5100000016}},{"attributes":{"ID":357728,"DIS_CODE":0,"TOWNNAME":"中西區","LI":"安海里","LIN":"8鄰","STREET":"金華路","SECT":"三段","MAREA":" ","LANE":" ","ALLEY":" ","HOUSE_NO":"２１８號九樓之７","E_COORD97":167349.89999999999,"N_COORD97":2543920.5099999998,"ADDRESS":"金華路三段２１８號九樓之７","OBJECTID":357719},"geometry":{"x":167349.90000000224,"y":2543920.5100000016}},{"attributes":{"ID":357729,"DIS_CODE":0,"TOWNNAME":"中西區","LI":"安海里","LIN":"8鄰","STREET":"金華路","SECT":"三段","MAREA":" ","LANE":" ","ALLEY":" ","HOUSE_NO":"２１８號九樓之８","E_COORD97":167349.89999999999,"N_COORD97":2543920.5099999998,"ADDRESS":"金華路三段２１８號九樓之８","OBJECTID":357720},"geometry":{"x":167349.90000000224,"y":2543920.5100000016}},{"attributes":{"ID":357730,"DIS_CODE":0,"TOWNNAME":"中西區","LI":"安海里","LIN":"8鄰","STREET":"金華路","SECT":"三段","MAREA":" ","LANE":" ","ALLEY":" ","HOUSE_NO":"２１８號九樓之９","E_COORD97":167349.89999999999,"N_COORD97":2543920.5099999998,"ADDRESS":"金華路三段２１８號九樓之９","OBJECTID":357721},"geometry":{"x":167349.90000000224,"y":2543920.5100000016}},{"attributes":{"ID":357731,"DIS_CODE":0,"TOWNNAME":"安平區","LI":"文平里","LIN":"19鄰","STREET":"健康一街","SECT":" ","MAREA":" ","LANE":"５７巷","ALLEY":" ","HOUSE_NO":"３號地下層","E_COORD97":165902.63,"N_COORD97":2542783.96,"ADDRESS":"健康一街５７巷３號地下層","OBJECTID":357722},"geometry":{"x":165902.62999999989,"y":2542783.9600000009}},{"attributes":{"ID":357732,"DIS_CODE":0,"TOWNNAME":"東區","LI":"自強里","LIN":"26鄰","STREET":"中華東路","SECT":"二段","MAREA":" ","LANE":"２０３巷","ALLEY":" ","HOUSE_NO":"５號","E_COORD97":171302.09,"N_COORD97":2542700.2999999998,"ADDRESS":"中華東路二段２０３巷５號","OBJECTID":357723},"geometry":{"x":171302.08999999985,"y":2542700.3000000007}},{"attributes":{"ID":357733,"DIS_CODE":0,"TOWNNAME":"東區","LI":"自強里","LIN":"26鄰","STREET":"中華東路","SECT":"二段","MAREA":" ","LANE":"２０３巷","ALLEY":" ","HOUSE_NO":"７號","E_COORD97":171300.92999999999,"N_COORD97":2542694.1099999999,"ADDRESS":"中華東路二段２０３巷７號","OBJECTID":357724},"geometry":{"x":171300.93000000063,"y":2542694.1100000031}},{"attributes":{"ID":357734,"DIS_CODE":0,"TOWNNAME":"永康區","LI":"埔園里","LIN":"24鄰","STREET":"中正路","SECT":" ","MAREA":" ","LANE":"１４８巷","ALLEY":" ","HOUSE_NO":"２號之８","E_COORD97":173546.14999999999,"N_COORD97":2547931.8900000001,"ADDRESS":"中正路１４８巷２號之８","OBJECTID":357725},"geometry":{"x":173546.1500000013,"y":2547931.8900000025}},{"attributes":{"ID":357735,"DIS_CODE":0,"TOWNNAME":"永康區","LI":"埔園里","LIN":"35鄰","STREET":"自強路","SECT":" ","MAREA":" ","LANE":"６３３巷","ALLEY":" ","HOUSE_NO":"６號","E_COORD97":174210.64000000001,"N_COORD97":2548392.5299999998,"ADDRESS":"自強路６３３巷６號","OBJECTID":357726},"geometry":{"x":174210.63999999966,"y":2548392.5299999993}},{"attributes":{"ID":357736,"DIS_CODE":0,"TOWNNAME":"永康區","LI":"西灣里","LIN":"30鄰","STREET":"公園路","SECT":" ","MAREA":" ","LANE":"９３巷","ALLEY":" ","HOUSE_NO":"１７號二樓之１","E_COORD97":174263.14999999999,"N_COORD97":2545904.4199999999,"ADDRESS":"公園路９３巷１７號二樓之１","OBJECTID":357727},"geometry":{"x":174263.1500000013,"y":2545904.4200000018}},{"attributes":{"ID":357737,"DIS_CODE":0,"TOWNNAME":"永康區","LI":"復華里","LIN":"30鄰","STREET":"復華八街","SECT":" ","MAREA":" ","LANE":"４７巷","ALLEY":" ","HOUSE_NO":"３７號底二樓之１","E_COORD97":172697.06,"N_COORD97":2546371.79,"ADDRESS":"復華八街４７巷３７號底二樓之１","OBJECTID":357728},"geometry":{"x":172697.06000000052,"y":2546371.790000001}},{"attributes":{"ID":357738,"DIS_CODE":0,"TOWNNAME":"歸仁區","LI":"後市里","LIN":"30鄰","STREET":"民族北街","SECT":" ","MAREA":" ","LANE":"１７巷","ALLEY":" ","HOUSE_NO":"２號十樓之１０","E_COORD97":177400.82000000001,"N_COORD97":2540892.75,"ADDRESS":"民族北街１７巷２號十樓之１０","OBJECTID":357729},"geometry":{"x":177400.8200000003,"y":2540892.75}},{"attributes":{"ID":357739,"DIS_CODE":0,"TOWNNAME":"歸仁區","LI":"後市里","LIN":"30鄰","STREET":"民族北街","SECT":" ","MAREA":" ","LANE":"１７巷","ALLEY":" ","HOUSE_NO":"２號七樓之７","E_COORD97":177400.57999999999,"N_COORD97":2540892.75,"ADDRESS":"民族北街１７巷２號七樓之７","OBJECTID":357730},"geometry":{"x":177400.58000000007,"y":2540892.75}},{"attributes":{"ID":357740,"DIS_CODE":0,"TOWNNAME":"歸仁區","LI":"後市里","LIN":"30鄰","STREET":"民族北街","SECT":" ","MAREA":" ","LANE":"１７巷","ALLEY":" ","HOUSE_NO":"２號八樓之６","E_COORD97":177400.57999999999,"N_COORD97":2540892.75,"ADDRESS":"民族北街１７巷２號八樓之６","OBJECTID":357731},"geometry":{"x":177400.58000000007,"y":2540892.75}},{"attributes":{"ID":357741,"DIS_CODE":0,"TOWNNAME":"歸仁區","LI":"後市里","LIN":"30鄰","STREET":"民族北街","SECT":" ","MAREA":" ","LANE":"１７巷","ALLEY":" ","HOUSE_NO":"２號九樓之１","E_COORD97":177400.56,"N_COORD97":2540892.75,"ADDRESS":"民族北街１７巷２號九樓之１","OBJECTID":357732},"geometry":{"x":177400.56000000052,"y":2540892.75}},{"attributes":{"ID":357742,"DIS_CODE":0,"TOWNNAME":"歸仁區","LI":"後市里","LIN":"30鄰","STREET":"民族北街","SECT":" ","MAREA":" ","LANE":"１７巷","ALLEY":" ","HOUSE_NO":"２號九樓之３","E_COORD97":177400.57999999999,"N_COORD97":2540892.75,"ADDRESS":"民族北街１７巷２號九樓之３","OBJECTID":357733},"geometry":{"x":177400.58000000007,"y":2540892.75}},{"attributes":{"ID":357743,"DIS_CODE":0,"TOWNNAME":"歸仁區","LI":"後市里","LIN":"30鄰","STREET":"民族北街","SECT":" ","MAREA":" ","LANE":"１７巷","ALLEY":" ","HOUSE_NO":"２號八樓之１０","E_COORD97":177400.82000000001,"N_COORD97":2540892.75,"ADDRESS":"民族北街１７巷２號八樓之１０","OBJECTID":357734},"geometry":{"x":177400.8200000003,"y":2540892.75}},{"attributes":{"ID":357744,"DIS_CODE":0,"TOWNNAME":"新營區","LI":"忠政里","LIN":"30鄰","STREET":"府西路","SECT":" ","MAREA":" ","LANE":"３３巷","ALLEY":" ","HOUSE_NO":"２號五樓","E_COORD97":179793.39000000001,"N_COORD97":2578977.9300000002,"ADDRESS":"府西路３３巷２號五樓","OBJECTID":357735},"geometry":{"x":179793.38999999966,"y":2578977.9299999997}},{"attributes":{"ID":357745,"DIS_CODE":0,"TOWNNAME":"新營區","LI":"忠政里","LIN":"30鄰","STREET":"府西路","SECT":" ","MAREA":" ","LANE":"３３巷","ALLEY":" ","HOUSE_NO":"６號三樓","E_COORD97":179785.14999999999,"N_COORD97":2578977.9700000002,"ADDRESS":"府西路３３巷６號三樓","OBJECTID":357736},"geometry":{"x":179785.15000000037,"y":2578977.9700000025}},{"attributes":{"ID":357746,"DIS_CODE":0,"TOWNNAME":"新營區","LI":"忠政里","LIN":"30鄰","STREET":"府西路","SECT":" ","MAREA":" ","LANE":"３３巷","ALLEY":" ","HOUSE_NO":"２號六樓","E_COORD97":179793.39000000001,"N_COORD97":2578977.9300000002,"ADDRESS":"府西路３３巷２號六樓","OBJECTID":357737},"geometry":{"x":179793.38999999966,"y":2578977.9299999997}},{"attributes":{"ID":357747,"DIS_CODE":0,"TOWNNAME":"北區","LI":"和順里","LIN":"30鄰","STREET":"臨安路","SECT":"二段","MAREA":" ","LANE":"１９５巷","ALLEY":" ","HOUSE_NO":"１號七樓","E_COORD97":167896.45000000001,"N_COORD97":2544930.1400000001,"ADDRESS":"臨安路二段１９５巷１號七樓","OBJECTID":357738},"geometry":{"x":167896.45000000019,"y":2544930.1400000025}},{"attributes":{"ID":357748,"DIS_CODE":0,"TOWNNAME":"北區","LI":"和順里","LIN":"30鄰","STREET":"臨安路","SECT":"二段","MAREA":" ","LANE":"１９５巷","ALLEY":" ","HOUSE_NO":"１號九樓","E_COORD97":167896.45000000001,"N_COORD97":2544930.1400000001,"ADDRESS":"臨安路二段１９５巷１號九樓","OBJECTID":357739},"geometry":{"x":167896.45000000019,"y":2544930.1400000025}},{"attributes":{"ID":357749,"DIS_CODE":0,"TOWNNAME":"北區","LI":"和順里","LIN":"30鄰","STREET":"臨安路","SECT":"二段","MAREA":" ","LANE":"１９５巷","ALLEY":" ","HOUSE_NO":"１號二樓","E_COORD97":167896.45000000001,"N_COORD97":2544930.1400000001,"ADDRESS":"臨安路二段１９５巷１號二樓","OBJECTID":357740},"geometry":{"x":167896.45000000019,"y":2544930.1400000025}},{"attributes":{"ID":357750,"DIS_CODE":0,"TOWNNAME":"北區","LI":"和順里","LIN":"30鄰","STREET":"臨安路","SECT":"二段","MAREA":" ","LANE":"１９５巷","ALLEY":" ","HOUSE_NO":"１號八樓","E_COORD97":167896.45000000001,"N_COORD97":2544930.1400000001,"ADDRESS":"臨安路二段１９５巷１號八樓","OBJECTID":357741},"geometry":{"x":167896.45000000019,"y":2544930.1400000025}},{"attributes":{"ID":357751,"DIS_CODE":0,"TOWNNAME":"北區","LI":"和順里","LIN":"30鄰","STREET":"臨安路","SECT":"二段","MAREA":" ","LANE":"１９５巷","ALLEY":" ","HOUSE_NO":"１號三樓","E_COORD97":167896.45000000001,"N_COORD97":2544930.1400000001,"ADDRESS":"臨安路二段１９５巷１號三樓","OBJECTID":357742},"geometry":{"x":167896.45000000019,"y":2544930.1400000025}},{"attributes":{"ID":357752,"DIS_CODE":0,"TOWNNAME":"北區","LI":"和順里","LIN":"30鄰","STREET":"臨安路","SECT":"二段","MAREA":" ","LANE":"１９５巷","ALLEY":" ","HOUSE_NO":"１號五樓","E_COORD97":167896.45000000001,"N_COORD97":2544930.1400000001,"ADDRESS":"臨安路二段１９５巷１號五樓","OBJECTID":357743},"geometry":{"x":167896.45000000019,"y":2544930.1400000025}},{"attributes":{"ID":357753,"DIS_CODE":0,"TOWNNAME":"北區","LI":"和順里","LIN":"30鄰","STREET":"臨安路","SECT":"二段","MAREA":" ","LANE":"１９５巷","ALLEY":" ","HOUSE_NO":"１號六樓","E_COORD97":167896.45000000001,"N_COORD97":2544930.1400000001,"ADDRESS":"臨安路二段１９５巷１號六樓","OBJECTID":357744},"geometry":{"x":167896.45000000019,"y":2544930.1400000025}},{"attributes":{"ID":357754,"DIS_CODE":0,"TOWNNAME":"北區","LI":"和順里","LIN":"30鄰","STREET":"臨安路","SECT":"二段","MAREA":" ","LANE":"１９５巷","ALLEY":" ","HOUSE_NO":"１號四樓","E_COORD97":167896.45000000001,"N_COORD97":2544930.1400000001,"ADDRESS":"臨安路二段１９５巷１號四樓","OBJECTID":357745},"geometry":{"x":167896.45000000019,"y":2544930.1400000025}},{"attributes":{"ID":357755,"DIS_CODE":0,"TOWNNAME":"北區","LI":"和順里","LIN":"30鄰","STREET":"臨安路","SECT":"二段","MAREA":" ","LANE":"１９５巷","ALLEY":" ","HOUSE_NO":"３號七樓","E_COORD97":167894.56,"N_COORD97":2544943.8700000001,"ADDRESS":"臨安路二段１９５巷３號七樓","OBJECTID":357746},"geometry":{"x":167894.56000000052,"y":2544943.870000001}},{"attributes":{"ID":357756,"DIS_CODE":0,"TOWNNAME":"北區","LI":"和順里","LIN":"30鄰","STREET":"臨安路","SECT":"二段","MAREA":" ","LANE":"１９５巷","ALLEY":" ","HOUSE_NO":"３號七樓之１","E_COORD97":167894.56,"N_COORD97":2544943.8700000001,"ADDRESS":"臨安路二段１９５巷３號七樓之１","OBJECTID":357747},"geometry":{"x":167894.56000000052,"y":2544943.870000001}},{"attributes":{"ID":357757,"DIS_CODE":0,"TOWNNAME":"北區","LI":"和順里","LIN":"30鄰","STREET":"臨安路","SECT":"二段","MAREA":" ","LANE":"１９５巷","ALLEY":" ","HOUSE_NO":"３號二樓之１","E_COORD97":167894.56,"N_COORD97":2544943.8700000001,"ADDRESS":"臨安路二段１９５巷３號二樓之１","OBJECTID":357748},"geometry":{"x":167894.56000000052,"y":2544943.870000001}},{"attributes":{"ID":357758,"DIS_CODE":0,"TOWNNAME":"中西區","LI":"安海里","LIN":"8鄰","STREET":"金華路","SECT":"三段","MAREA":" ","LANE":" ","ALLEY":" ","HOUSE_NO":"２１８號二樓之１","E_COORD97":167349.89999999999,"N_COORD97":2543920.5099999998,"ADDRESS":"金華路三段２１８號二樓之１","OBJECTID":357749},"geometry":{"x":167349.90000000224,"y":2543920.5100000016}},{"attributes":{"ID":357759,"DIS_CODE":0,"TOWNNAME":"中西區","LI":"安海里","LIN":"8鄰","STREET":"金華路","SECT":"三段","MAREA":" ","LANE":" ","ALLEY":" ","HOUSE_NO":"２１８號二樓之２","E_COORD97":167349.89999999999,"N_COORD97":2543920.5099999998,"ADDRESS":"金華路三段２１８號二樓之２","OBJECTID":357750},"geometry":{"x":167349.90000000224,"y":2543920.5100000016}},{"attributes":{"ID":357760,"DIS_CODE":0,"TOWNNAME":"中西區","LI":"安海里","LIN":"8鄰","STREET":"金華路","SECT":"三段","MAREA":" ","LANE":" ","ALLEY":" ","HOUSE_NO":"２１８號八樓之１","E_COORD97":167349.89999999999,"N_COORD97":2543920.5099999998,"ADDRESS":"金華路三段２１８號八樓之１","OBJECTID":357751},"geometry":{"x":167349.90000000224,"y":2543920.5100000016}},{"attributes":{"ID":357761,"DIS_CODE":0,"TOWNNAME":"仁德區","LI":"仁愛里","LIN":"26鄰","STREET":"大同路","SECT":"三段","MAREA":" ","LANE":" ","ALLEY":" ","HOUSE_NO":"３０號","E_COORD97":169695.85773600001,"N_COORD97":2540055.01621,"ADDRESS":"大同路三段３０號","OBJECTID":357752},"geometry":{"x":169695.85773599986,"y":2540055.0162150022}},{"attributes":{"ID":357762,"DIS_CODE":0,"TOWNNAME":"仁德區","LI":"仁愛里","LIN":"26鄰","STREET":"大同路","SECT":"三段","MAREA":" ","LANE":" ","ALLEY":" ","HOUSE_NO":"２６號","E_COORD97":169694.58653,"N_COORD97":2540065.52287,"ADDRESS":"大同路三段２６號","OBJECTID":357753},"geometry":{"x":169694.5865300009,"y":2540065.5228700023}},{"attributes":{"ID":357763,"DIS_CODE":0,"TOWNNAME":"仁德區","LI":"仁愛里","LIN":"26鄰","STREET":"大同路","SECT":"三段","MAREA":" ","LANE":" ","ALLEY":" ","HOUSE_NO":"２８號","E_COORD97":169695.22213000001,"N_COORD97":2540060.4428699999,"ADDRESS":"大同路三段２８號","OBJECTID":357754},"geometry":{"x":169695.22213000059,"y":2540060.4428700004}},{"attributes":{"ID":357764,"DIS_CODE":0,"TOWNNAME":"新市區","LI":"大社里","LIN":"26鄰","STREET":" ","SECT":" ","MAREA":"大社","LANE":" ","ALLEY":" ","HOUSE_NO":"６５３號","E_COORD97":180000.82000000001,"N_COORD97":2554359.75,"ADDRESS":"大社６５３號","OBJECTID":357755},"geometry":{"x":180000.8200000003,"y":2554359.7500000037}},{"attributes":{"ID":357765,"DIS_CODE":0,"TOWNNAME":"仁德區","LI":"仁愛里","LIN":"26鄰","STREET":"大同路","SECT":"三段","MAREA":" ","LANE":" ","ALLEY":" ","HOUSE_NO":"１２２號","E_COORD97":169714.77033900001,"N_COORD97":2539884.13797,"ADDRESS":"大同路三段１２２號","OBJECTID":357756},"geometry":{"x":169714.77033900004,"y":2539884.1379730031}},{"attributes":{"ID":357766,"DIS_CODE":0,"TOWNNAME":"新市區","LI":"大社里","LIN":"26鄰","STREET":" ","SECT":" ","MAREA":"大社","LANE":" ","ALLEY":" ","HOUSE_NO":"６７４號","E_COORD97":179911.51999999999,"N_COORD97":2554301.5,"ADDRESS":"大社６７４號","OBJECTID":357757},"geometry":{"x":179911.52000000048,"y":2554301.5000000019}},{"attributes":{"ID":357767,"DIS_CODE":0,"TOWNNAME":"新市區","LI":"大社里","LIN":"26鄰","STREET":" ","SECT":" ","MAREA":"大社","LANE":" ","ALLEY":" ","HOUSE_NO":"６６２號","E_COORD97":179964.63,"N_COORD97":2554335.25,"ADDRESS":"大社６６２號","OBJECTID":357758},"geometry":{"x":179964.62999999989,"y":2554335.25}},{"attributes":{"ID":357768,"DIS_CODE":0,"TOWNNAME":"新市區","LI":"港墘里","LIN":"26鄰","STREET":"華美街","SECT":" ","MAREA":" ","LANE":"３０巷","ALLEY":" ","HOUSE_NO":"６號","E_COORD97":178173.32000000001,"N_COORD97":2552907.5499999998,"ADDRESS":"華美街３０巷６號","OBJECTID":357759},"geometry":{"x":178173.3200000003,"y":2552907.5500000045}},{"attributes":{"ID":357769,"DIS_CODE":0,"TOWNNAME":"新市區","LI":"港墘里","LIN":"26鄰","STREET":"華美街","SECT":" ","MAREA":" ","LANE":"３０巷","ALLEY":" ","HOUSE_NO":"１２號","E_COORD97":178186.42999999999,"N_COORD97":2552904.7999999998,"ADDRESS":"華美街３０巷１２號","OBJECTID":357760},"geometry":{"x":178186.43000000063,"y":2552904.8000000007}},{"attributes":{"ID":357770,"DIS_CODE":0,"TOWNNAME":"安南區","LI":"海佃里","LIN":"26鄰","STREET":"國安街","SECT":" ","MAREA":" ","LANE":"１５６巷","ALLEY":" ","HOUSE_NO":"４０號","E_COORD97":166730.37,"N_COORD97":2547088.3599999999,"ADDRESS":"國安街１５６巷４０號","OBJECTID":357761},"geometry":{"x":166730.37000000011,"y":2547088.3599999994}},{"attributes":{"ID":357771,"DIS_CODE":0,"TOWNNAME":"北區","LI":"和順里","LIN":"30鄰","STREET":"臨安路","SECT":"二段","MAREA":" ","LANE":"１９５巷","ALLEY":" ","HOUSE_NO":"３號八樓","E_COORD97":167894.56,"N_COORD97":2544943.8700000001,"ADDRESS":"臨安路二段１９５巷３號八樓","OBJECTID":357762},"geometry":{"x":167894.56000000052,"y":2544943.870000001}},{"attributes":{"ID":357772,"DIS_CODE":0,"TOWNNAME":"北區","LI":"和順里","LIN":"30鄰","STREET":"臨安路","SECT":"二段","MAREA":" ","LANE":"１９５巷","ALLEY":" ","HOUSE_NO":"３號八樓之１","E_COORD97":167894.56,"N_COORD97":2544943.8700000001,"ADDRESS":"臨安路二段１９５巷３號八樓之１","OBJECTID":357763},"geometry":{"x":167894.56000000052,"y":2544943.870000001}},{"attributes":{"ID":357773,"DIS_CODE":0,"TOWNNAME":"北區","LI":"和順里","LIN":"30鄰","STREET":"臨安路","SECT":"二段","MAREA":" ","LANE":"１９５巷","ALLEY":" ","HOUSE_NO":"３號三樓","E_COORD97":167894.56,"N_COORD97":2544943.8700000001,"ADDRESS":"臨安路二段１９５巷３號三樓","OBJECTID":357764},"geometry":{"x":167894.56000000052,"y":2544943.870000001}},{"attributes":{"ID":357774,"DIS_CODE":0,"TOWNNAME":"北區","LI":"和順里","LIN":"30鄰","STREET":"臨安路","SECT":"二段","MAREA":" ","LANE":"１９５巷","ALLEY":" ","HOUSE_NO":"３號三樓之１","E_COORD97":167894.56,"N_COORD97":2544943.8700000001,"ADDRESS":"臨安路二段１９５巷３號三樓之１","OBJECTID":357765},"geometry":{"x":167894.56000000052,"y":2544943.870000001}},{"attributes":{"ID":357775,"DIS_CODE":0,"TOWNNAME":"北區","LI":"和順里","LIN":"30鄰","STREET":"臨安路","SECT":"二段","MAREA":" ","LANE":"１９５巷","ALLEY":" ","HOUSE_NO":"３號五樓","E_COORD97":167894.56,"N_COORD97":2544943.8700000001,"ADDRESS":"臨安路二段１９５巷３號五樓","OBJECTID":357766},"geometry":{"x":167894.56000000052,"y":2544943.870000001}},{"attributes":{"ID":357776,"DIS_CODE":0,"TOWNNAME":"北區","LI":"和順里","LIN":"30鄰","STREET":"臨安路","SECT":"二段","MAREA":" ","LANE":"１９５巷","ALLEY":" ","HOUSE_NO":"３號五樓之１","E_COORD97":167894.56,"N_COORD97":2544943.8700000001,"ADDRESS":"臨安路二段１９５巷３號五樓之１","OBJECTID":357767},"geometry":{"x":167894.56000000052,"y":2544943.870000001}},{"attributes":{"ID":357777,"DIS_CODE":0,"TOWNNAME":"北區","LI":"和順里","LIN":"30鄰","STREET":"臨安路","SECT":"二段","MAREA":" ","LANE":"１９５巷","ALLEY":" ","HOUSE_NO":"３號六樓","E_COORD97":167894.56,"N_COORD97":2544943.8700000001,"ADDRESS":"臨安路二段１９５巷３號六樓","OBJECTID":357768},"geometry":{"x":167894.56000000052,"y":2544943.870000001}},{"attributes":{"ID":357778,"DIS_CODE":0,"TOWNNAME":"北區","LI":"和順里","LIN":"30鄰","STREET":"臨安路","SECT":"二段","MAREA":" ","LANE":"１９５巷","ALLEY":" ","HOUSE_NO":"３號六樓之１","E_COORD97":167894.56,"N_COORD97":2544943.8700000001,"ADDRESS":"臨安路二段１９５巷３號六樓之１","OBJECTID":357769},"geometry":{"x":167894.56000000052,"y":2544943.870000001}},{"attributes":{"ID":357779,"DIS_CODE":0,"TOWNNAME":"北區","LI":"和順里","LIN":"30鄰","STREET":"臨安路","SECT":"二段","MAREA":" ","LANE":"１９５巷","ALLEY":" ","HOUSE_NO":"３號四樓","E_COORD97":167894.56,"N_COORD97":2544943.8700000001,"ADDRESS":"臨安路二段１９５巷３號四樓","OBJECTID":357770},"geometry":{"x":167894.56000000052,"y":2544943.870000001}},{"attributes":{"ID":357780,"DIS_CODE":0,"TOWNNAME":"北區","LI":"和順里","LIN":"30鄰","STREET":"臨安路","SECT":"二段","MAREA":" ","LANE":"１９５巷","ALLEY":" ","HOUSE_NO":"３號四樓之１","E_COORD97":167894.56,"N_COORD97":2544943.8700000001,"ADDRESS":"臨安路二段１９５巷３號四樓之１","OBJECTID":357771},"geometry":{"x":167894.56000000052,"y":2544943.870000001}},{"attributes":{"ID":357781,"DIS_CODE":0,"TOWNNAME":"中西區","LI":"安海里","LIN":"8鄰","STREET":"金華路","SECT":"三段","MAREA":" ","LANE":" ","ALLEY":" ","HOUSE_NO":"２１８號八樓之１０","E_COORD97":167349.89999999999,"N_COORD97":2543920.5099999998,"ADDRESS":"金華路三段２１８號八樓之１０","OBJECTID":357772},"geometry":{"x":167349.90000000224,"y":2543920.5100000016}},{"attributes":{"ID":357782,"DIS_CODE":0,"TOWNNAME":"中西區","LI":"安海里","LIN":"8鄰","STREET":"金華路","SECT":"三段","MAREA":" ","LANE":" ","ALLEY":" ","HOUSE_NO":"２１８號八樓之１１","E_COORD97":167349.89999999999,"N_COORD97":2543920.5099999998,"ADDRESS":"金華路三段２１８號八樓之１１","OBJECTID":357773},"geometry":{"x":167349.90000000224,"y":2543920.5100000016}},{"attributes":{"ID":357783,"DIS_CODE":0,"TOWNNAME":"中西區","LI":"安海里","LIN":"8鄰","STREET":"金華路","SECT":"三段","MAREA":" ","LANE":" ","ALLEY":" ","HOUSE_NO":"２１８號八樓之１２","E_COORD97":167349.89999999999,"N_COORD97":2543920.5099999998,"ADDRESS":"金華路三段２１８號八樓之１２","OBJECTID":357774},"geometry":{"x":167349.90000000224,"y":2543920.5100000016}},{"attributes":{"ID":357784,"DIS_CODE":0,"TOWNNAME":"中西區","LI":"安海里","LIN":"8鄰","STREET":"金華路","SECT":"三段","MAREA":" ","LANE":" ","ALLEY":" ","HOUSE_NO":"２１８號八樓之１３","E_COORD97":167349.89999999999,"N_COORD97":2543920.5099999998,"ADDRESS":"金華路三段２１８號八樓之１３","OBJECTID":357775},"geometry":{"x":167349.90000000224,"y":2543920.5100000016}},{"attributes":{"ID":357785,"DIS_CODE":0,"TOWNNAME":"中西區","LI":"安海里","LIN":"8鄰","STREET":"金華路","SECT":"三段","MAREA":" ","LANE":" ","ALLEY":" ","HOUSE_NO":"２１８號八樓之１４","E_COORD97":167349.89999999999,"N_COORD97":2543920.5099999998,"ADDRESS":"金華路三段２１８號八樓之１４","OBJECTID":357776},"geometry":{"x":167349.90000000224,"y":2543920.5100000016}},{"attributes":{"ID":357786,"DIS_CODE":0,"TOWNNAME":"中西區","LI":"安海里","LIN":"8鄰","STREET":"金華路","SECT":"三段","MAREA":" ","LANE":" ","ALLEY":" ","HOUSE_NO":"２１８號八樓之１５","E_COORD97":167349.89999999999,"N_COORD97":2543920.5099999998,"ADDRESS":"金華路三段２１８號八樓之１５","OBJECTID":357777},"geometry":{"x":167349.90000000224,"y":2543920.5100000016}},{"attributes":{"ID":357787,"DIS_CODE":0,"TOWNNAME":"安南區","LI":"海佃里","LIN":"26鄰","STREET":"國安街","SECT":" ","MAREA":" ","LANE":"１５６巷","ALLEY":" ","HOUSE_NO":"４８號","E_COORD97":166727.70999999999,"N_COORD97":2547103.3999999999,"ADDRESS":"國安街１５６巷４８號","OBJECTID":357778},"geometry":{"x":166727.70999999996,"y":2547103.4000000004}},{"attributes":{"ID":357788,"DIS_CODE":0,"TOWNNAME":"安南區","LI":"海佃里","LIN":"26鄰","STREET":"國安街","SECT":" ","MAREA":" ","LANE":"１５６巷","ALLEY":" ","HOUSE_NO":"５０號","E_COORD97":166725.70999999999,"N_COORD97":2547110.71,"ADDRESS":"國安街１５６巷５０號","OBJECTID":357779},"geometry":{"x":166725.71000000089,"y":2547110.7100000009}},{"attributes":{"ID":357789,"DIS_CODE":0,"TOWNNAME":"安南區","LI":"海佃里","LIN":"26鄰","STREET":"國安街","SECT":" ","MAREA":" ","LANE":"１５６巷","ALLEY":" ","HOUSE_NO":"５２號","E_COORD97":166725.70999999999,"N_COORD97":2547116.6899999999,"ADDRESS":"國安街１５６巷５２號","OBJECTID":357780},"geometry":{"x":166725.71000000089,"y":2547116.6899999995}},{"attributes":{"ID":357790,"DIS_CODE":0,"TOWNNAME":"安南區","LI":"海佃里","LIN":"26鄰","STREET":"國安街","SECT":" ","MAREA":" ","LANE":"１５６巷","ALLEY":" ","HOUSE_NO":"５６號","E_COORD97":166726.38,"N_COORD97":2547129.3100000001,"ADDRESS":"國安街１５６巷５６號","OBJECTID":357781},"geometry":{"x":166726.38000000082,"y":2547129.3100000024}},{"attributes":{"ID":357791,"DIS_CODE":0,"TOWNNAME":"佳里區","LI":"建南里","LIN":"26鄰","STREET":"公園路","SECT":" ","MAREA":" ","LANE":"３巷","ALLEY":" ","HOUSE_NO":"１號","E_COORD97":165435.10999999999,"N_COORD97":2561470.5699999998,"ADDRESS":"公園路３巷１號","OBJECTID":357782},"geometry":{"x":165435.11000000127,"y":2561470.5700000003}},{"attributes":{"ID":357792,"DIS_CODE":0,"TOWNNAME":"佳里區","LI":"建南里","LIN":"26鄰","STREET":"公園路","SECT":" ","MAREA":" ","LANE":"３巷","ALLEY":" ","HOUSE_NO":"２號","E_COORD97":165414.79000000001,"N_COORD97":2561464.1499999999,"ADDRESS":"公園路３巷２號","OBJECTID":357783},"geometry":{"x":165414.79000000097,"y":2561464.1500000022}},{"attributes":{"ID":357793,"DIS_CODE":0,"TOWNNAME":"佳里區","LI":"建南里","LIN":"26鄰","STREET":"公園路","SECT":" ","MAREA":" ","LANE":"３巷","ALLEY":" ","HOUSE_NO":"５號","E_COORD97":165428.19,"N_COORD97":2561452.5699999998,"ADDRESS":"公園路３巷５號","OBJECTID":357784},"geometry":{"x":165428.19000000041,"y":2561452.5700000003}},{"attributes":{"ID":357794,"DIS_CODE":0,"TOWNNAME":"佳里區","LI":"建南里","LIN":"26鄰","STREET":"公園路","SECT":" ","MAREA":" ","LANE":"３巷","ALLEY":" ","HOUSE_NO":"６號","E_COORD97":165412.72,"N_COORD97":2561456.0800000001,"ADDRESS":"公園路３巷６號","OBJECTID":357785},"geometry":{"x":165412.7200000016,"y":2561456.0800000001}},{"attributes":{"ID":357795,"DIS_CODE":0,"TOWNNAME":"佳里區","LI":"建南里","LIN":"26鄰","STREET":"公園路","SECT":" ","MAREA":" ","LANE":"３巷","ALLEY":" ","HOUSE_NO":"７號","E_COORD97":165424.60000000001,"N_COORD97":2561443.3399999999,"ADDRESS":"公園路３巷７號","OBJECTID":357786},"geometry":{"x":165424.59999999963,"y":2561443.3399999999}},{"attributes":{"ID":357796,"DIS_CODE":0,"TOWNNAME":"佳里區","LI":"建南里","LIN":"26鄰","STREET":"公園路","SECT":" ","MAREA":" ","LANE":"３巷","ALLEY":" ","HOUSE_NO":"８號","E_COORD97":165409.19,"N_COORD97":2561446.96,"ADDRESS":"公園路３巷８號","OBJECTID":357787},"geometry":{"x":165409.19000000134,"y":2561446.9600000009}},{"attributes":{"ID":357797,"DIS_CODE":0,"TOWNNAME":"新營區","LI":"忠政里","LIN":"30鄰","STREET":"府西路","SECT":" ","MAREA":" ","LANE":"３３巷","ALLEY":" ","HOUSE_NO":"２號二樓","E_COORD97":179793.39000000001,"N_COORD97":2578977.9300000002,"ADDRESS":"府西路３３巷２號二樓","OBJECTID":357788},"geometry":{"x":179793.38999999966,"y":2578977.9299999997}},{"attributes":{"ID":357798,"DIS_CODE":0,"TOWNNAME":"安平區","LI":"國平里","LIN":"30鄰","STREET":"健康三街","SECT":" ","MAREA":" ","LANE":"１２巷","ALLEY":" ","HOUSE_NO":"１號三樓之１４","E_COORD97":164774.88,"N_COORD97":2542904.3999999999,"ADDRESS":"健康三街１２巷１號三樓之１４","OBJECTID":357789},"geometry":{"x":164774.88000000082,"y":2542904.4000000022}},{"attributes":{"ID":357799,"DIS_CODE":0,"TOWNNAME":"安平區","LI":"國平里","LIN":"30鄰","STREET":"健康三街","SECT":" ","MAREA":" ","LANE":"１２巷","ALLEY":" ","HOUSE_NO":"１號三樓之１５","E_COORD97":164774.88,"N_COORD97":2542904.3999999999,"ADDRESS":"健康三街１２巷１號三樓之１５","OBJECTID":357790},"geometry":{"x":164774.88000000082,"y":2542904.4000000022}},{"attributes":{"ID":357800,"DIS_CODE":0,"TOWNNAME":"安平區","LI":"國平里","LIN":"30鄰","STREET":"健康三街","SECT":" ","MAREA":" ","LANE":"１２巷","ALLEY":" ","HOUSE_NO":"１號三樓之１６","E_COORD97":164774.88,"N_COORD97":2542904.3999999999,"ADDRESS":"健康三街１２巷１號三樓之１６","OBJECTID":357791},"geometry":{"x":164774.88000000082,"y":2542904.4000000022}},{"attributes":{"ID":357801,"DIS_CODE":0,"TOWNNAME":"安平區","LI":"國平里","LIN":"30鄰","STREET":"健康三街","SECT":" ","MAREA":" ","LANE":"１２巷","ALLEY":" ","HOUSE_NO":"１號三樓之１７","E_COORD97":164774.88,"N_COORD97":2542904.3999999999,"ADDRESS":"健康三街１２巷１號三樓之１７","OBJECTID":357792},"geometry":{"x":164774.88000000082,"y":2542904.4000000022}},{"attributes":{"ID":357802,"DIS_CODE":0,"TOWNNAME":"安平區","LI":"國平里","LIN":"30鄰","STREET":"健康三街","SECT":" ","MAREA":" ","LANE":"１２巷","ALLEY":" ","HOUSE_NO":"１號四樓之１４","E_COORD97":164774.88,"N_COORD97":2542904.3999999999,"ADDRESS":"健康三街１２巷１號四樓之１４","OBJECTID":357793},"geometry":{"x":164774.88000000082,"y":2542904.4000000022}},{"attributes":{"ID":357803,"DIS_CODE":0,"TOWNNAME":"安平區","LI":"國平里","LIN":"30鄰","STREET":"健康三街","SECT":" ","MAREA":" ","LANE":"１２巷","ALLEY":" ","HOUSE_NO":"１號四樓之１５","E_COORD97":164774.88,"N_COORD97":2542904.3999999999,"ADDRESS":"健康三街１２巷１號四樓之１５","OBJECTID":357794},"geometry":{"x":164774.88000000082,"y":2542904.4000000022}},{"attributes":{"ID":357804,"DIS_CODE":0,"TOWNNAME":"安平區","LI":"國平里","LIN":"30鄰","STREET":"健康三街","SECT":" ","MAREA":" ","LANE":"１２巷","ALLEY":" ","HOUSE_NO":"１號四樓之１６","E_COORD97":164774.88,"N_COORD97":2542904.3999999999,"ADDRESS":"健康三街１２巷１號四樓之１６","OBJECTID":357795},"geometry":{"x":164774.88000000082,"y":2542904.4000000022}},{"attributes":{"ID":357805,"DIS_CODE":0,"TOWNNAME":"安平區","LI":"國平里","LIN":"30鄰","STREET":"健康三街","SECT":" ","MAREA":" ","LANE":"１２巷","ALLEY":" ","HOUSE_NO":"１號四樓之１７","E_COORD97":164774.88,"N_COORD97":2542904.3999999999,"ADDRESS":"健康三街１２巷１號四樓之１７","OBJECTID":357796},"geometry":{"x":164774.88000000082,"y":2542904.4000000022}},{"attributes":{"ID":357806,"DIS_CODE":0,"TOWNNAME":"安平區","LI":"國平里","LIN":"30鄰","STREET":"健康三街","SECT":" ","MAREA":" ","LANE":"１２巷","ALLEY":" ","HOUSE_NO":"１號四樓之１８","E_COORD97":164774.88,"N_COORD97":2542904.3999999999,"ADDRESS":"健康三街１２巷１號四樓之１８","OBJECTID":357797},"geometry":{"x":164774.88000000082,"y":2542904.4000000022}},{"attributes":{"ID":357807,"DIS_CODE":0,"TOWNNAME":"中西區","LI":"安海里","LIN":"8鄰","STREET":"金華路","SECT":"三段","MAREA":" ","LANE":" ","ALLEY":" ","HOUSE_NO":"２１８號八樓之１６","E_COORD97":167349.89999999999,"N_COORD97":2543920.5099999998,"ADDRESS":"金華路三段２１８號八樓之１６","OBJECTID":357798},"geometry":{"x":167349.90000000224,"y":2543920.5100000016}},{"attributes":{"ID":357808,"DIS_CODE":0,"TOWNNAME":"北區","LI":"長榮里","LIN":"13鄰","STREET":"長榮路","SECT":"五段","MAREA":" ","LANE":" ","ALLEY":" ","HOUSE_NO":"１號","E_COORD97":170104.62,"N_COORD97":2545362.0800000001,"ADDRESS":"長榮路五段１號","OBJECTID":357799},"geometry":{"x":170104.62000000104,"y":2545362.0800000001}},{"attributes":{"ID":357809,"DIS_CODE":0,"TOWNNAME":"中西區","LI":"安海里","LIN":"8鄰","STREET":"金華路","SECT":"三段","MAREA":" ","LANE":" ","ALLEY":" ","HOUSE_NO":"２１８號八樓之１７","E_COORD97":167349.89999999999,"N_COORD97":2543920.5099999998,"ADDRESS":"金華路三段２１８號八樓之１７","OBJECTID":357800},"geometry":{"x":167349.90000000224,"y":2543920.5100000016}}]}