{"displayFieldName":"TOWNNAME","fieldAliases":{"ID":"ID","DIS_CODE":"DIS_CODE","TOWNNAME":"TOWNNAME","LI":"LI","LIN":"LIN","STREET":"STREET","SECT":"SECT","MAREA":"MAREA","LANE":"LANE","ALLEY":"ALLEY","HOUSE_NO":"HOUSE_NO","E_COORD97":"E_COORD97","N_COORD97":"N_COORD97","ADDRESS":"ADDRESS","OBJECTID":"OBJECTID"},"geometryType":"esriGeometryPoint","spatialReference":{"wkid":102443,"latestWkid":3826},"fields":[{"name":"ID","type":"esriFieldTypeDouble","alias":"ID"},{"name":"DIS_CODE","type":"esriFieldTypeInteger","alias":"DIS_CODE"},{"name":"TOWNNAME","type":"esriFieldTypeString","alias":"TOWNNAME","length":8},{"name":"LI","type":"esriFieldTypeString","alias":"LI","length":8},{"name":"LIN","type":"esriFieldTypeString","alias":"LIN","length":12},{"name":"STREET","type":"esriFieldTypeString","alias":"STREET","length":20},{"name":"SECT","type":"esriFieldTypeString","alias":"SECT","length":8},{"name":"MAREA","type":"esriFieldTypeString","alias":"MAREA","length":12},{"name":"LANE","type":"esriFieldTypeString","alias":"LANE","length":10},{"name":"ALLEY","type":"esriFieldTypeString","alias":"ALLEY","length":10},{"name":"HOUSE_NO","type":"esriFieldTypeString","alias":"HOUSE_NO","length":20},{"name":"E_COORD97","type":"esriFieldTypeDouble","alias":"E_COORD97"},{"name":"N_COORD97","type":"esriFieldTypeDouble","alias":"N_COORD97"},{"name":"ADDRESS","type":"esriFieldTypeString","alias":"ADDRESS","length":50},{"name":"OBJECTID","type":"esriFieldTypeOID","alias":"OBJECTID"}],"features":[{"attributes":{"ID":482626,"DIS_CODE":0,"TOWNNAME":"安平區","LI":"育平里","LIN":"25鄰","STREET":"郡平路","SECT":" ","MAREA":" ","LANE":" ","ALLEY":" ","HOUSE_NO":"１８１號九樓之１９","E_COORD97":164638.45000000001,"N_COORD97":2543300.3100000001,"ADDRESS":"郡平路１８１號九樓之１９","OBJECTID":482601},"geometry":{"x":164638.45000000019,"y":2543300.3099999987}},{"attributes":{"ID":482627,"DIS_CODE":0,"TOWNNAME":"安平區","LI":"育平里","LIN":"25鄰","STREET":"郡平路","SECT":" ","MAREA":" ","LANE":" ","ALLEY":" ","HOUSE_NO":"１８１號十一樓之１６","E_COORD97":164638.45000000001,"N_COORD97":2543300.3100000001,"ADDRESS":"郡平路１８１號十一樓之１６","OBJECTID":482602},"geometry":{"x":164638.45000000019,"y":2543300.3099999987}},{"attributes":{"ID":482628,"DIS_CODE":0,"TOWNNAME":"北區","LI":"中樓里","LIN":"5鄰","STREET":"東豐路","SECT":" ","MAREA":" ","LANE":" ","ALLEY":" ","HOUSE_NO":"２２號","E_COORD97":169465.78,"N_COORD97":2544910.1800000002,"ADDRESS":"東豐路２２號","OBJECTID":482603},"geometry":{"x":169465.78000000026,"y":2544910.1799999997}},{"attributes":{"ID":482629,"DIS_CODE":0,"TOWNNAME":"北區","LI":"中樓里","LIN":"5鄰","STREET":"東豐路","SECT":" ","MAREA":" ","LANE":" ","ALLEY":" ","HOUSE_NO":"２４號","E_COORD97":169471.10999999999,"N_COORD97":2544908.3700000001,"ADDRESS":"東豐路２４號","OBJECTID":482604},"geometry":{"x":169471.11000000127,"y":2544908.3700000029}},{"attributes":{"ID":482630,"DIS_CODE":0,"TOWNNAME":"北區","LI":"中樓里","LIN":"5鄰","STREET":"東豐路","SECT":" ","MAREA":" ","LANE":" ","ALLEY":" ","HOUSE_NO":"２６號","E_COORD97":169476.04000000001,"N_COORD97":2544908.0699999998,"ADDRESS":"東豐路２６號","OBJECTID":482605},"geometry":{"x":169476.0400000019,"y":2544908.0700000003}},{"attributes":{"ID":482631,"DIS_CODE":0,"TOWNNAME":"北區","LI":"中樓里","LIN":"5鄰","STREET":"東豐路","SECT":" ","MAREA":" ","LANE":" ","ALLEY":" ","HOUSE_NO":"２７號","E_COORD97":169494.48999999999,"N_COORD97":2544965.73,"ADDRESS":"東豐路２７號","OBJECTID":482606},"geometry":{"x":169494.49000000022,"y":2544965.7300000042}},{"attributes":{"ID":482632,"DIS_CODE":0,"TOWNNAME":"北區","LI":"中樓里","LIN":"5鄰","STREET":"東豐路","SECT":" ","MAREA":" ","LANE":" ","ALLEY":" ","HOUSE_NO":"２８號","E_COORD97":169479.79999999999,"N_COORD97":2544907.8700000001,"ADDRESS":"東豐路２８號","OBJECTID":482607},"geometry":{"x":169479.80000000075,"y":2544907.8700000048}},{"attributes":{"ID":482633,"DIS_CODE":0,"TOWNNAME":"北區","LI":"中樓里","LIN":"5鄰","STREET":"東豐路","SECT":" ","MAREA":" ","LANE":" ","ALLEY":" ","HOUSE_NO":"２９號","E_COORD97":169498.32000000001,"N_COORD97":2544964.5299999998,"ADDRESS":"東豐路２９號","OBJECTID":482608},"geometry":{"x":169498.32000000123,"y":2544964.5299999993}},{"attributes":{"ID":482634,"DIS_CODE":0,"TOWNNAME":"安平區","LI":"育平里","LIN":"25鄰","STREET":"郡平路","SECT":" ","MAREA":" ","LANE":" ","ALLEY":" ","HOUSE_NO":"１８１號十三樓之１９","E_COORD97":164638.45000000001,"N_COORD97":2543300.3100000001,"ADDRESS":"郡平路１８１號十三樓之１９","OBJECTID":482609},"geometry":{"x":164638.45000000019,"y":2543300.3099999987}},{"attributes":{"ID":482635,"DIS_CODE":0,"TOWNNAME":"安平區","LI":"育平里","LIN":"25鄰","STREET":"郡平路","SECT":" ","MAREA":" ","LANE":" ","ALLEY":" ","HOUSE_NO":"１８１號十樓之１０","E_COORD97":164638.45000000001,"N_COORD97":2543300.3100000001,"ADDRESS":"郡平路１８１號十樓之１０","OBJECTID":482610},"geometry":{"x":164638.45000000019,"y":2543300.3099999987}},{"attributes":{"ID":482636,"DIS_CODE":0,"TOWNNAME":"安平區","LI":"育平里","LIN":"25鄰","STREET":"郡平路","SECT":" ","MAREA":" ","LANE":" ","ALLEY":" ","HOUSE_NO":"１８１號十樓之１１","E_COORD97":164638.45000000001,"N_COORD97":2543300.3100000001,"ADDRESS":"郡平路１８１號十樓之１１","OBJECTID":482611},"geometry":{"x":164638.45000000019,"y":2543300.3099999987}},{"attributes":{"ID":482637,"DIS_CODE":0,"TOWNNAME":"安平區","LI":"育平里","LIN":"25鄰","STREET":"郡平路","SECT":" ","MAREA":" ","LANE":" ","ALLEY":" ","HOUSE_NO":"１８１號三樓之１６","E_COORD97":164638.45000000001,"N_COORD97":2543300.3100000001,"ADDRESS":"郡平路１８１號三樓之１６","OBJECTID":482612},"geometry":{"x":164638.45000000019,"y":2543300.3099999987}},{"attributes":{"ID":482638,"DIS_CODE":0,"TOWNNAME":"安平區","LI":"育平里","LIN":"25鄰","STREET":"郡平路","SECT":" ","MAREA":" ","LANE":" ","ALLEY":" ","HOUSE_NO":"１８１號五樓之１８","E_COORD97":164638.45000000001,"N_COORD97":2543300.3100000001,"ADDRESS":"郡平路１８１號五樓之１８","OBJECTID":482613},"geometry":{"x":164638.45000000019,"y":2543300.3099999987}},{"attributes":{"ID":482639,"DIS_CODE":0,"TOWNNAME":"安平區","LI":"育平里","LIN":"25鄰","STREET":"郡平路","SECT":" ","MAREA":" ","LANE":" ","ALLEY":" ","HOUSE_NO":"１８１號五樓之１９","E_COORD97":164638.45000000001,"N_COORD97":2543300.3100000001,"ADDRESS":"郡平路１８１號五樓之１９","OBJECTID":482614},"geometry":{"x":164638.45000000019,"y":2543300.3099999987}},{"attributes":{"ID":482640,"DIS_CODE":0,"TOWNNAME":"安平區","LI":"育平里","LIN":"25鄰","STREET":"郡平路","SECT":" ","MAREA":" ","LANE":" ","ALLEY":" ","HOUSE_NO":"１８１號六樓之１８","E_COORD97":164638.45000000001,"N_COORD97":2543300.3100000001,"ADDRESS":"郡平路１８１號六樓之１８","OBJECTID":482615},"geometry":{"x":164638.45000000019,"y":2543300.3099999987}},{"attributes":{"ID":482641,"DIS_CODE":0,"TOWNNAME":"安平區","LI":"育平里","LIN":"25鄰","STREET":"郡平路","SECT":" ","MAREA":" ","LANE":" ","ALLEY":" ","HOUSE_NO":"１８１號六樓之１９","E_COORD97":164638.45000000001,"N_COORD97":2543300.3100000001,"ADDRESS":"郡平路１８１號六樓之１９","OBJECTID":482616},"geometry":{"x":164638.45000000019,"y":2543300.3099999987}},{"attributes":{"ID":482642,"DIS_CODE":0,"TOWNNAME":"安平區","LI":"育平里","LIN":"25鄰","STREET":"郡平路","SECT":" ","MAREA":" ","LANE":" ","ALLEY":" ","HOUSE_NO":"１８１號四樓之１８","E_COORD97":164638.45000000001,"N_COORD97":2543300.3100000001,"ADDRESS":"郡平路１８１號四樓之１８","OBJECTID":482617},"geometry":{"x":164638.45000000019,"y":2543300.3099999987}},{"attributes":{"ID":482643,"DIS_CODE":0,"TOWNNAME":"安平區","LI":"育平里","LIN":"25鄰","STREET":"郡平路","SECT":" ","MAREA":" ","LANE":" ","ALLEY":" ","HOUSE_NO":"１８１號四樓之１９","E_COORD97":164638.45000000001,"N_COORD97":2543300.3100000001,"ADDRESS":"郡平路１８１號四樓之１９","OBJECTID":482618},"geometry":{"x":164638.45000000019,"y":2543300.3099999987}},{"attributes":{"ID":482644,"DIS_CODE":0,"TOWNNAME":"北區","LI":"中樓里","LIN":"5鄰","STREET":"前鋒路","SECT":" ","MAREA":" ","LANE":" ","ALLEY":" ","HOUSE_NO":"２６５號","E_COORD97":169588.71696399999,"N_COORD97":2545063.3699699999,"ADDRESS":"前鋒路２６５號","OBJECTID":482619},"geometry":{"x":169588.71696400177,"y":2545063.3699689992}},{"attributes":{"ID":482645,"DIS_CODE":0,"TOWNNAME":"北區","LI":"中樓里","LIN":"5鄰","STREET":"前鋒路","SECT":" ","MAREA":" ","LANE":" ","ALLEY":" ","HOUSE_NO":"２７７號","E_COORD97":169544.75,"N_COORD97":2544986.0800000001,"ADDRESS":"前鋒路２７７號","OBJECTID":482620},"geometry":{"x":169544.75000000093,"y":2544986.0800000001}},{"attributes":{"ID":482646,"DIS_CODE":0,"TOWNNAME":"北區","LI":"中樓里","LIN":"5鄰","STREET":"前鋒路","SECT":" ","MAREA":" ","LANE":" ","ALLEY":" ","HOUSE_NO":"２８１號","E_COORD97":169549.67000000001,"N_COORD97":2544996.98,"ADDRESS":"前鋒路２８１號","OBJECTID":482621},"geometry":{"x":169549.67000000179,"y":2544996.9800000004}},{"attributes":{"ID":482647,"DIS_CODE":0,"TOWNNAME":"下營區","LI":"營前里","LIN":"25鄰","STREET":"仁愛街","SECT":" ","MAREA":" ","LANE":" ","ALLEY":" ","HOUSE_NO":"３１號","E_COORD97":174818.89999999999,"N_COORD97":2570094.3599999999,"ADDRESS":"仁愛街３１號","OBJECTID":482622},"geometry":{"x":174818.90000000224,"y":2570094.3600000013}},{"attributes":{"ID":482648,"DIS_CODE":0,"TOWNNAME":"東區","LI":"崇文里","LIN":"25鄰","STREET":"崇德二十二街","SECT":" ","MAREA":" ","LANE":" ","ALLEY":" ","HOUSE_NO":"１０１號","E_COORD97":171056.39000000001,"N_COORD97":2540825.3999999999,"ADDRESS":"崇德二十二街１０１號","OBJECTID":482623},"geometry":{"x":171056.38999999966,"y":2540825.4000000022}},{"attributes":{"ID":482649,"DIS_CODE":0,"TOWNNAME":"東區","LI":"崇文里","LIN":"25鄰","STREET":"崇德二十二街","SECT":" ","MAREA":" ","LANE":" ","ALLEY":" ","HOUSE_NO":"１０３號","E_COORD97":171060.57000000001,"N_COORD97":2540825.5,"ADDRESS":"崇德二十二街１０３號","OBJECTID":482624},"geometry":{"x":171060.5700000003,"y":2540825.5}},{"attributes":{"ID":482650,"DIS_CODE":0,"TOWNNAME":"東區","LI":"崇文里","LIN":"25鄰","STREET":"崇德二十二街","SECT":" ","MAREA":" ","LANE":" ","ALLEY":" ","HOUSE_NO":"１０５號","E_COORD97":171064.54999999999,"N_COORD97":2540825.6000000001,"ADDRESS":"崇德二十二街１０５號","OBJECTID":482625},"geometry":{"x":171064.55000000075,"y":2540825.5999999996}},{"attributes":{"ID":482651,"DIS_CODE":0,"TOWNNAME":"東區","LI":"崇文里","LIN":"25鄰","STREET":"崇德二十二街","SECT":" ","MAREA":" ","LANE":" ","ALLEY":" ","HOUSE_NO":"１１５號","E_COORD97":171089.29000000001,"N_COORD97":2540826.2000000002,"ADDRESS":"崇德二十二街１１５號","OBJECTID":482626},"geometry":{"x":171089.29000000004,"y":2540826.2000000011}},{"attributes":{"ID":482652,"DIS_CODE":0,"TOWNNAME":"東區","LI":"崇文里","LIN":"25鄰","STREET":"崇德二十二街","SECT":" ","MAREA":" ","LANE":" ","ALLEY":" ","HOUSE_NO":"１１７號","E_COORD97":171094.57000000001,"N_COORD97":2540825.8999999999,"ADDRESS":"崇德二十二街１１７號","OBJECTID":482627},"geometry":{"x":171094.5700000003,"y":2540825.9000000022}},{"attributes":{"ID":482653,"DIS_CODE":0,"TOWNNAME":"東區","LI":"崇文里","LIN":"25鄰","STREET":"崇德二十二街","SECT":" ","MAREA":" ","LANE":" ","ALLEY":" ","HOUSE_NO":"１１９號","E_COORD97":171099.04999999999,"N_COORD97":2540826.2000000002,"ADDRESS":"崇德二十二街１１９號","OBJECTID":482628},"geometry":{"x":171099.04999999981,"y":2540826.2000000011}},{"attributes":{"ID":482654,"DIS_CODE":0,"TOWNNAME":"東區","LI":"崇文里","LIN":"25鄰","STREET":"崇德二十二街","SECT":" ","MAREA":" ","LANE":" ","ALLEY":" ","HOUSE_NO":"１２１號","E_COORD97":171104.03,"N_COORD97":2540826.2999999998,"ADDRESS":"崇德二十二街１２１號","OBJECTID":482629},"geometry":{"x":171104.03000000119,"y":2540826.3000000026}},{"attributes":{"ID":482655,"DIS_CODE":0,"TOWNNAME":"東區","LI":"崇文里","LIN":"25鄰","STREET":"崇德二十二街","SECT":" ","MAREA":" ","LANE":" ","ALLEY":" ","HOUSE_NO":"１２３號","E_COORD97":171108.51000000001,"N_COORD97":2540826.3900000001,"ADDRESS":"崇德二十二街１２３號","OBJECTID":482630},"geometry":{"x":171108.51000000164,"y":2540826.3900000025}},{"attributes":{"ID":482656,"DIS_CODE":0,"TOWNNAME":"東區","LI":"崇文里","LIN":"25鄰","STREET":"崇德二十二街","SECT":" ","MAREA":" ","LANE":" ","ALLEY":" ","HOUSE_NO":"１２５號","E_COORD97":171113.67999999999,"N_COORD97":2540826.6899999999,"ADDRESS":"崇德二十二街１２５號","OBJECTID":482631},"geometry":{"x":171113.6799999997,"y":2540826.6900000013}},{"attributes":{"ID":482657,"DIS_CODE":0,"TOWNNAME":"東區","LI":"崇文里","LIN":"25鄰","STREET":"崇德二十二街","SECT":" ","MAREA":" ","LANE":" ","ALLEY":" ","HOUSE_NO":"１２７號","E_COORD97":171118.76000000001,"N_COORD97":2540826.79,"ADDRESS":"崇德二十二街１２７號","OBJECTID":482632},"geometry":{"x":171118.76000000071,"y":2540826.7899999991}},{"attributes":{"ID":482658,"DIS_CODE":0,"TOWNNAME":"東區","LI":"崇文里","LIN":"25鄰","STREET":"崇德二十二街","SECT":" ","MAREA":" ","LANE":" ","ALLEY":" ","HOUSE_NO":"１號","E_COORD97":170818.73999999999,"N_COORD97":2540825.3900000001,"ADDRESS":"崇德二十二街１號","OBJECTID":482633},"geometry":{"x":170818.74000000022,"y":2540825.3900000025}},{"attributes":{"ID":482659,"DIS_CODE":0,"TOWNNAME":"東區","LI":"崇文里","LIN":"25鄰","STREET":"崇德二十二街","SECT":" ","MAREA":" ","LANE":" ","ALLEY":" ","HOUSE_NO":"３號","E_COORD97":170843.56,"N_COORD97":2540825.4300000002,"ADDRESS":"崇德二十二街３號","OBJECTID":482634},"geometry":{"x":170843.56000000052,"y":2540825.4300000016}},{"attributes":{"ID":482660,"DIS_CODE":0,"TOWNNAME":"東區","LI":"崇文里","LIN":"25鄰","STREET":"崇德二十二街","SECT":" ","MAREA":" ","LANE":" ","ALLEY":" ","HOUSE_NO":"４７號","E_COORD97":170901.06,"N_COORD97":2540827.4900000002,"ADDRESS":"崇德二十二街４７號","OBJECTID":482635},"geometry":{"x":170901.06000000145,"y":2540827.4900000039}},{"attributes":{"ID":482661,"DIS_CODE":0,"TOWNNAME":"東區","LI":"崇文里","LIN":"25鄰","STREET":"崇德二十二街","SECT":" ","MAREA":" ","LANE":" ","ALLEY":" ","HOUSE_NO":"４９號","E_COORD97":170905.45999999999,"N_COORD97":2540827.25,"ADDRESS":"崇德二十二街４９號","OBJECTID":482636},"geometry":{"x":170905.46000000183,"y":2540827.25}},{"attributes":{"ID":482662,"DIS_CODE":0,"TOWNNAME":"東區","LI":"崇文里","LIN":"25鄰","STREET":"崇德二十二街","SECT":" ","MAREA":" ","LANE":" ","ALLEY":" ","HOUSE_NO":"５１號","E_COORD97":170909.73000000001,"N_COORD97":2540827.1299999999,"ADDRESS":"崇德二十二街５１號","OBJECTID":482637},"geometry":{"x":170909.73000000138,"y":2540827.129999999}},{"attributes":{"ID":482663,"DIS_CODE":0,"TOWNNAME":"東區","LI":"崇文里","LIN":"25鄰","STREET":"崇德二十二街","SECT":" ","MAREA":" ","LANE":" ","ALLEY":" ","HOUSE_NO":"５３號","E_COORD97":170914.25,"N_COORD97":2540827.25,"ADDRESS":"崇德二十二街５３號","OBJECTID":482638},"geometry":{"x":170914.25000000093,"y":2540827.25}},{"attributes":{"ID":482664,"DIS_CODE":0,"TOWNNAME":"東區","LI":"崇文里","LIN":"25鄰","STREET":"崇德二十二街","SECT":" ","MAREA":" ","LANE":" ","ALLEY":" ","HOUSE_NO":"５７號","E_COORD97":170925.17999999999,"N_COORD97":2540827.1299999999,"ADDRESS":"崇德二十二街５７號","OBJECTID":482639},"geometry":{"x":170925.1799999997,"y":2540827.129999999}},{"attributes":{"ID":482665,"DIS_CODE":0,"TOWNNAME":"東區","LI":"崇文里","LIN":"25鄰","STREET":"崇德二十二街","SECT":" ","MAREA":" ","LANE":" ","ALLEY":" ","HOUSE_NO":"５９號","E_COORD97":170932.54000000001,"N_COORD97":2540827.25,"ADDRESS":"崇德二十二街５９號","OBJECTID":482640},"geometry":{"x":170932.54000000097,"y":2540827.25}},{"attributes":{"ID":482666,"DIS_CODE":0,"TOWNNAME":"東區","LI":"崇文里","LIN":"25鄰","STREET":"崇德二十二街","SECT":" ","MAREA":" ","LANE":" ","ALLEY":" ","HOUSE_NO":"７１號","E_COORD97":170953.92999999999,"N_COORD97":2540826.6600000001,"ADDRESS":"崇德二十二街７１號","OBJECTID":482641},"geometry":{"x":170953.9299999997,"y":2540826.660000002}},{"attributes":{"ID":482667,"DIS_CODE":0,"TOWNNAME":"東區","LI":"崇文里","LIN":"25鄰","STREET":"崇德二十二街","SECT":" ","MAREA":" ","LANE":" ","ALLEY":" ","HOUSE_NO":"７３號","E_COORD97":170957.64999999999,"N_COORD97":2540816.54,"ADDRESS":"崇德二十二街７３號","OBJECTID":482642},"geometry":{"x":170957.6500000013,"y":2540816.540000001}},{"attributes":{"ID":482668,"DIS_CODE":0,"TOWNNAME":"東區","LI":"崇文里","LIN":"25鄰","STREET":"崇德二十二街","SECT":" ","MAREA":" ","LANE":" ","ALLEY":" ","HOUSE_NO":"７３號之１","E_COORD97":170961.92999999999,"N_COORD97":2540816.6400000001,"ADDRESS":"崇德二十二街７３號之１","OBJECTID":482643},"geometry":{"x":170961.93000000063,"y":2540816.6400000043}},{"attributes":{"ID":482669,"DIS_CODE":0,"TOWNNAME":"東區","LI":"崇文里","LIN":"25鄰","STREET":"崇德二十二街","SECT":" ","MAREA":" ","LANE":" ","ALLEY":" ","HOUSE_NO":"７３號之２","E_COORD97":170966.60999999999,"N_COORD97":2540816.54,"ADDRESS":"崇德二十二街７３號之２","OBJECTID":482644},"geometry":{"x":170966.61000000127,"y":2540816.540000001}},{"attributes":{"ID":482670,"DIS_CODE":0,"TOWNNAME":"東區","LI":"崇文里","LIN":"25鄰","STREET":"崇德二十二街","SECT":" ","MAREA":" ","LANE":" ","ALLEY":" ","HOUSE_NO":"７３號之３","E_COORD97":170971.29000000001,"N_COORD97":2540816.54,"ADDRESS":"崇德二十二街７３號之３","OBJECTID":482645},"geometry":{"x":170971.29000000097,"y":2540816.540000001}},{"attributes":{"ID":482671,"DIS_CODE":0,"TOWNNAME":"東區","LI":"崇文里","LIN":"25鄰","STREET":"崇德二十二街","SECT":" ","MAREA":" ","LANE":" ","ALLEY":" ","HOUSE_NO":"７３號之４","E_COORD97":170975.26999999999,"N_COORD97":2540816.54,"ADDRESS":"崇德二十二街７３號之４","OBJECTID":482646},"geometry":{"x":170975.26999999955,"y":2540816.540000001}},{"attributes":{"ID":482672,"DIS_CODE":0,"TOWNNAME":"東區","LI":"崇文里","LIN":"25鄰","STREET":"崇德二十二街","SECT":" ","MAREA":" ","LANE":" ","ALLEY":" ","HOUSE_NO":"７３號之５","E_COORD97":170979.85000000001,"N_COORD97":2540817.04,"ADDRESS":"崇德二十二街７３號之５","OBJECTID":482647},"geometry":{"x":170979.84999999963,"y":2540817.040000001}},{"attributes":{"ID":482673,"DIS_CODE":0,"TOWNNAME":"東區","LI":"崇文里","LIN":"25鄰","STREET":"崇德二十二街","SECT":" ","MAREA":" ","LANE":" ","ALLEY":" ","HOUSE_NO":"７３號之５地下二層","E_COORD97":170979.85000000001,"N_COORD97":2540817.04,"ADDRESS":"崇德二十二街７３號之５地下二層","OBJECTID":482648},"geometry":{"x":170979.84999999963,"y":2540817.040000001}},{"attributes":{"ID":482674,"DIS_CODE":0,"TOWNNAME":"東區","LI":"崇文里","LIN":"25鄰","STREET":"崇德二十二街","SECT":" ","MAREA":" ","LANE":" ","ALLEY":" ","HOUSE_NO":"７５號","E_COORD97":170997.95000000001,"N_COORD97":2540825.7000000002,"ADDRESS":"崇德二十二街７５號","OBJECTID":482649},"geometry":{"x":170997.95000000112,"y":2540825.7000000011}},{"attributes":{"ID":482675,"DIS_CODE":0,"TOWNNAME":"東區","LI":"崇文里","LIN":"25鄰","STREET":"崇德二十二街","SECT":" ","MAREA":" ","LANE":" ","ALLEY":" ","HOUSE_NO":"７７號","E_COORD97":171006.31,"N_COORD97":2540824.7999999998,"ADDRESS":"崇德二十二街７７號","OBJECTID":482650},"geometry":{"x":171006.31000000052,"y":2540824.8000000007}},{"attributes":{"ID":482676,"DIS_CODE":0,"TOWNNAME":"東區","LI":"崇文里","LIN":"25鄰","STREET":"崇德二十二街","SECT":" ","MAREA":" ","LANE":" ","ALLEY":" ","HOUSE_NO":"７９號","E_COORD97":171010.69,"N_COORD97":2540824.8999999999,"ADDRESS":"崇德二十二街７９號","OBJECTID":482651},"geometry":{"x":171010.69000000041,"y":2540824.9000000041}},{"attributes":{"ID":482677,"DIS_CODE":0,"TOWNNAME":"東區","LI":"崇文里","LIN":"25鄰","STREET":"崇德二十二街","SECT":" ","MAREA":" ","LANE":" ","ALLEY":" ","HOUSE_NO":"８１號","E_COORD97":171015.37,"N_COORD97":2540824.8999999999,"ADDRESS":"崇德二十二街８１號","OBJECTID":482652},"geometry":{"x":171015.37000000104,"y":2540824.9000000041}},{"attributes":{"ID":482678,"DIS_CODE":0,"TOWNNAME":"東區","LI":"崇文里","LIN":"25鄰","STREET":"崇德二十二街","SECT":" ","MAREA":" ","LANE":" ","ALLEY":" ","HOUSE_NO":"８３號","E_COORD97":171019.06,"N_COORD97":2540825.2000000002,"ADDRESS":"崇德二十二街８３號","OBJECTID":482653},"geometry":{"x":171019.05999999959,"y":2540825.200000003}},{"attributes":{"ID":482679,"DIS_CODE":0,"TOWNNAME":"東區","LI":"崇文里","LIN":"25鄰","STREET":"崇德二十二街","SECT":" ","MAREA":" ","LANE":" ","ALLEY":" ","HOUSE_NO":"８５號","E_COORD97":171022.94,"N_COORD97":2540825,"ADDRESS":"崇德二十二街８５號","OBJECTID":482654},"geometry":{"x":171022.93999999948,"y":2540825.0000000019}},{"attributes":{"ID":482680,"DIS_CODE":0,"TOWNNAME":"東區","LI":"崇文里","LIN":"25鄰","STREET":"崇德二十二街","SECT":" ","MAREA":" ","LANE":" ","ALLEY":" ","HOUSE_NO":"８７號","E_COORD97":171027.22,"N_COORD97":2540825.1000000001,"ADDRESS":"崇德二十二街８７號","OBJECTID":482655},"geometry":{"x":171027.2200000016,"y":2540825.0999999996}},{"attributes":{"ID":482681,"DIS_CODE":0,"TOWNNAME":"東區","LI":"崇文里","LIN":"25鄰","STREET":"崇德二十二街","SECT":" ","MAREA":" ","LANE":" ","ALLEY":" ","HOUSE_NO":"８９號","E_COORD97":171031.39999999999,"N_COORD97":2540825.2000000002,"ADDRESS":"崇德二十二街８９號","OBJECTID":482656},"geometry":{"x":171031.40000000037,"y":2540825.200000003}},{"attributes":{"ID":482682,"DIS_CODE":0,"TOWNNAME":"東區","LI":"崇文里","LIN":"25鄰","STREET":"崇德二十二街","SECT":" ","MAREA":" ","LANE":" ","ALLEY":" ","HOUSE_NO":"９１號","E_COORD97":171035.57999999999,"N_COORD97":2540825.1000000001,"ADDRESS":"崇德二十二街９１號","OBJECTID":482657},"geometry":{"x":171035.58000000101,"y":2540825.0999999996}},{"attributes":{"ID":482683,"DIS_CODE":0,"TOWNNAME":"東區","LI":"崇文里","LIN":"25鄰","STREET":"崇德二十二街","SECT":" ","MAREA":" ","LANE":" ","ALLEY":" ","HOUSE_NO":"９３號","E_COORD97":171039.95999999999,"N_COORD97":2540825.2000000002,"ADDRESS":"崇德二十二街９３號","OBJECTID":482658},"geometry":{"x":171039.96000000089,"y":2540825.200000003}},{"attributes":{"ID":482684,"DIS_CODE":0,"TOWNNAME":"東區","LI":"崇文里","LIN":"25鄰","STREET":"崇德二十二街","SECT":" ","MAREA":" ","LANE":" ","ALLEY":" ","HOUSE_NO":"９５號","E_COORD97":171043.94,"N_COORD97":2540825.2999999998,"ADDRESS":"崇德二十二街９５號","OBJECTID":482659},"geometry":{"x":171043.94000000134,"y":2540825.3000000007}},{"attributes":{"ID":482685,"DIS_CODE":0,"TOWNNAME":"東區","LI":"崇文里","LIN":"25鄰","STREET":"崇德二十二街","SECT":" ","MAREA":" ","LANE":" ","ALLEY":" ","HOUSE_NO":"９７號","E_COORD97":171048.12,"N_COORD97":2540825.2999999998,"ADDRESS":"崇德二十二街９７號","OBJECTID":482660},"geometry":{"x":171048.12000000011,"y":2540825.3000000007}},{"attributes":{"ID":482686,"DIS_CODE":0,"TOWNNAME":"東區","LI":"崇文里","LIN":"25鄰","STREET":"崇德二十二街","SECT":" ","MAREA":" ","LANE":" ","ALLEY":" ","HOUSE_NO":"９９號","E_COORD97":171052.10999999999,"N_COORD97":2540825.5,"ADDRESS":"崇德二十二街９９號","OBJECTID":482661},"geometry":{"x":171052.11000000034,"y":2540825.5}},{"attributes":{"ID":482687,"DIS_CODE":0,"TOWNNAME":"下營區","LI":"營前里","LIN":"25鄰","STREET":"仁愛街","SECT":" ","MAREA":" ","LANE":" ","ALLEY":" ","HOUSE_NO":"１８號","E_COORD97":174775.29999999999,"N_COORD97":2570059.02,"ADDRESS":"仁愛街１８號","OBJECTID":482662},"geometry":{"x":174775.30000000075,"y":2570059.0200000014}},{"attributes":{"ID":482688,"DIS_CODE":0,"TOWNNAME":"下營區","LI":"營前里","LIN":"25鄰","STREET":"仁愛街","SECT":" ","MAREA":" ","LANE":" ","ALLEY":" ","HOUSE_NO":"２０號","E_COORD97":174779.22,"N_COORD97":2570060.3100000001,"ADDRESS":"仁愛街２０號","OBJECTID":482663},"geometry":{"x":174779.22000000067,"y":2570060.3100000005}},{"attributes":{"ID":482689,"DIS_CODE":0,"TOWNNAME":"下營區","LI":"營前里","LIN":"25鄰","STREET":"仁愛街","SECT":" ","MAREA":" ","LANE":" ","ALLEY":" ","HOUSE_NO":"２６號","E_COORD97":174787.03,"N_COORD97":2570063.2999999998,"ADDRESS":"仁愛街２６號","OBJECTID":482664},"geometry":{"x":174787.03000000026,"y":2570063.3000000007}},{"attributes":{"ID":482690,"DIS_CODE":0,"TOWNNAME":"下營區","LI":"營前里","LIN":"25鄰","STREET":"仁愛街","SECT":" ","MAREA":" ","LANE":" ","ALLEY":" ","HOUSE_NO":"２７號","E_COORD97":174811.45999999999,"N_COORD97":2570091.54,"ADDRESS":"仁愛街２７號","OBJECTID":482665},"geometry":{"x":174811.46000000089,"y":2570091.5400000028}},{"attributes":{"ID":482691,"DIS_CODE":0,"TOWNNAME":"下營區","LI":"營前里","LIN":"25鄰","STREET":"仁愛街","SECT":" ","MAREA":" ","LANE":" ","ALLEY":" ","HOUSE_NO":"２８號","E_COORD97":174791.62,"N_COORD97":2570064.8799999999,"ADDRESS":"仁愛街２８號","OBJECTID":482666},"geometry":{"x":174791.62000000197,"y":2570064.879999999}},{"attributes":{"ID":482692,"DIS_CODE":0,"TOWNNAME":"下營區","LI":"營前里","LIN":"25鄰","STREET":"仁愛街","SECT":" ","MAREA":" ","LANE":" ","ALLEY":" ","HOUSE_NO":"３３號","E_COORD97":174821.63,"N_COORD97":2570095.79,"ADDRESS":"仁愛街３３號","OBJECTID":482667},"geometry":{"x":174821.62999999989,"y":2570095.7899999991}},{"attributes":{"ID":482693,"DIS_CODE":0,"TOWNNAME":"下營區","LI":"營前里","LIN":"25鄰","STREET":"仁愛街","SECT":" ","MAREA":" ","LANE":" ","ALLEY":" ","HOUSE_NO":"３５號","E_COORD97":174825.37,"N_COORD97":2570097.3999999999,"ADDRESS":"仁愛街３５號","OBJECTID":482668},"geometry":{"x":174825.37000000011,"y":2570097.4000000041}},{"attributes":{"ID":482694,"DIS_CODE":0,"TOWNNAME":"下營區","LI":"營前里","LIN":"25鄰","STREET":"仁愛街","SECT":" ","MAREA":" ","LANE":" ","ALLEY":" ","HOUSE_NO":"３６號","E_COORD97":174806.73000000001,"N_COORD97":2570069.21,"ADDRESS":"仁愛街３６號","OBJECTID":482669},"geometry":{"x":174806.73000000138,"y":2570069.2100000028}},{"attributes":{"ID":482695,"DIS_CODE":0,"TOWNNAME":"下營區","LI":"營前里","LIN":"25鄰","STREET":"仁愛街","SECT":" ","MAREA":" ","LANE":" ","ALLEY":" ","HOUSE_NO":"３７號","E_COORD97":174829.57000000001,"N_COORD97":2570098.4100000001,"ADDRESS":"仁愛街３７號","OBJECTID":482670},"geometry":{"x":174829.57000000216,"y":2570098.410000002}},{"attributes":{"ID":482696,"DIS_CODE":0,"TOWNNAME":"下營區","LI":"營前里","LIN":"25鄰","STREET":"仁愛街","SECT":" ","MAREA":" ","LANE":" ","ALLEY":" ","HOUSE_NO":"３８號","E_COORD97":174810.28,"N_COORD97":2570070.8199999998,"ADDRESS":"仁愛街３８號","OBJECTID":482671},"geometry":{"x":174810.28000000026,"y":2570070.820000004}},{"attributes":{"ID":482697,"DIS_CODE":0,"TOWNNAME":"下營區","LI":"營前里","LIN":"25鄰","STREET":"仁愛街","SECT":" ","MAREA":" ","LANE":" ","ALLEY":" ","HOUSE_NO":"４０號","E_COORD97":174813.60999999999,"N_COORD97":2570072.0499999998,"ADDRESS":"仁愛街４０號","OBJECTID":482672},"geometry":{"x":174813.61000000034,"y":2570072.0500000007}},{"attributes":{"ID":482698,"DIS_CODE":0,"TOWNNAME":"永康區","LI":"龍潭里","LIN":"25鄰","STREET":"龍昌街","SECT":" ","MAREA":" ","LANE":" ","ALLEY":" ","HOUSE_NO":"５６號","E_COORD97":175014.94,"N_COORD97":2547884.5699999998,"ADDRESS":"龍昌街５６號","OBJECTID":482673},"geometry":{"x":175014.94000000041,"y":2547884.5700000003}},{"attributes":{"ID":482699,"DIS_CODE":0,"TOWNNAME":"永康區","LI":"龍潭里","LIN":"25鄰","STREET":"龍昌街","SECT":" ","MAREA":" ","LANE":" ","ALLEY":" ","HOUSE_NO":"４９號","E_COORD97":174995.73000000001,"N_COORD97":2547894.6400000001,"ADDRESS":"龍昌街４９號","OBJECTID":482674},"geometry":{"x":174995.73000000045,"y":2547894.6400000006}},{"attributes":{"ID":482700,"DIS_CODE":0,"TOWNNAME":"東區","LI":"崇善里","LIN":"25鄰","STREET":"崇善東路","SECT":" ","MAREA":" ","LANE":" ","ALLEY":" ","HOUSE_NO":"８３號","E_COORD97":171409.5,"N_COORD97":2541118.04,"ADDRESS":"崇善東路８３號","OBJECTID":482675},"geometry":{"x":171409.50000000093,"y":2541118.040000001}},{"attributes":{"ID":482701,"DIS_CODE":0,"TOWNNAME":"東區","LI":"崇善里","LIN":"25鄰","STREET":"崇善東路","SECT":" ","MAREA":" ","LANE":" ","ALLEY":" ","HOUSE_NO":"８５號","E_COORD97":171409.31,"N_COORD97":2541123.5899999999,"ADDRESS":"崇善東路８５號","OBJECTID":482676},"geometry":{"x":171409.30999999959,"y":2541123.5899999999}},{"attributes":{"ID":482702,"DIS_CODE":0,"TOWNNAME":"東區","LI":"崇善里","LIN":"25鄰","STREET":"崇善東路","SECT":" ","MAREA":" ","LANE":" ","ALLEY":" ","HOUSE_NO":"８７號","E_COORD97":171409.5,"N_COORD97":2541127.8399999999,"ADDRESS":"崇善東路８７號","OBJECTID":482677},"geometry":{"x":171409.50000000093,"y":2541127.8400000017}},{"attributes":{"ID":482703,"DIS_CODE":0,"TOWNNAME":"東區","LI":"崇善里","LIN":"25鄰","STREET":"崇善東路","SECT":" ","MAREA":" ","LANE":" ","ALLEY":" ","HOUSE_NO":"８９號","E_COORD97":171397.87,"N_COORD97":2541146.8799999999,"ADDRESS":"崇善東路８９號","OBJECTID":482678},"geometry":{"x":171397.87000000197,"y":2541146.8800000008}},{"attributes":{"ID":482704,"DIS_CODE":0,"TOWNNAME":"東區","LI":"崇善里","LIN":"25鄰","STREET":"崇善東路","SECT":" ","MAREA":" ","LANE":" ","ALLEY":" ","HOUSE_NO":"９１號","E_COORD97":171393.54999999999,"N_COORD97":2541143.2599999998,"ADDRESS":"崇善東路９１號","OBJECTID":482679},"geometry":{"x":171393.55000000075,"y":2541143.2599999998}},{"attributes":{"ID":482705,"DIS_CODE":0,"TOWNNAME":"東區","LI":"崇善里","LIN":"25鄰","STREET":"崇善東路","SECT":" ","MAREA":" ","LANE":" ","ALLEY":" ","HOUSE_NO":"９３號","E_COORD97":171390.17999999999,"N_COORD97":2541141.27,"ADDRESS":"崇善東路９３號","OBJECTID":482680},"geometry":{"x":171390.18000000156,"y":2541141.2700000014}},{"attributes":{"ID":482706,"DIS_CODE":0,"TOWNNAME":"東區","LI":"崇善里","LIN":"25鄰","STREET":"崇善東路","SECT":" ","MAREA":" ","LANE":" ","ALLEY":" ","HOUSE_NO":"９５號","E_COORD97":171386.56,"N_COORD97":2541138.6000000001,"ADDRESS":"崇善東路９５號","OBJECTID":482681},"geometry":{"x":171386.56000000052,"y":2541138.6000000015}},{"attributes":{"ID":482707,"DIS_CODE":0,"TOWNNAME":"東區","LI":"崇善里","LIN":"25鄰","STREET":"崇善東路","SECT":" ","MAREA":" ","LANE":" ","ALLEY":" ","HOUSE_NO":"９７號","E_COORD97":171383.35999999999,"N_COORD97":2541134.46,"ADDRESS":"崇善東路９７號","OBJECTID":482682},"geometry":{"x":171383.36000000127,"y":2541134.4600000028}},{"attributes":{"ID":482708,"DIS_CODE":0,"TOWNNAME":"東區","LI":"崇善里","LIN":"25鄰","STREET":"崇善東路","SECT":" ","MAREA":" ","LANE":" ","ALLEY":" ","HOUSE_NO":"９９號","E_COORD97":171393.54999999999,"N_COORD97":2541123.5600000001,"ADDRESS":"崇善東路９９號","OBJECTID":482683},"geometry":{"x":171393.55000000075,"y":2541123.5600000024}},{"attributes":{"ID":482709,"DIS_CODE":0,"TOWNNAME":"北區","LI":"玉皇里","LIN":"5鄰","STREET":"公園南路","SECT":" ","MAREA":" ","LANE":" ","ALLEY":" ","HOUSE_NO":"１１３號","E_COORD97":168816.35000000001,"N_COORD97":2544619.9900000002,"ADDRESS":"公園南路１１３號","OBJECTID":482684},"geometry":{"x":168816.35000000056,"y":2544619.9900000002}},{"attributes":{"ID":482710,"DIS_CODE":0,"TOWNNAME":"北區","LI":"玉皇里","LIN":"5鄰","STREET":"公園南路","SECT":" ","MAREA":" ","LANE":" ","ALLEY":" ","HOUSE_NO":"１１５號","E_COORD97":168811.89999999999,"N_COORD97":2544619.9100000001,"ADDRESS":"公園南路１１５號","OBJECTID":482685},"geometry":{"x":168811.9000000013,"y":2544619.910000002}},{"attributes":{"ID":482711,"DIS_CODE":0,"TOWNNAME":"北區","LI":"玉皇里","LIN":"5鄰","STREET":"公園南路","SECT":" ","MAREA":" ","LANE":" ","ALLEY":" ","HOUSE_NO":"１１７號","E_COORD97":168803.62,"N_COORD97":2544624.0699999998,"ADDRESS":"公園南路１１７號","OBJECTID":482686},"geometry":{"x":168803.62000000011,"y":2544624.070000004}},{"attributes":{"ID":482712,"DIS_CODE":0,"TOWNNAME":"北區","LI":"玉皇里","LIN":"5鄰","STREET":"公園南路","SECT":" ","MAREA":" ","LANE":" ","ALLEY":" ","HOUSE_NO":"１１９號","E_COORD97":168794.53,"N_COORD97":2544625.5499999998,"ADDRESS":"公園南路１１９號","OBJECTID":482687},"geometry":{"x":168794.53000000026,"y":2544625.5500000026}},{"attributes":{"ID":482713,"DIS_CODE":0,"TOWNNAME":"北區","LI":"玉皇里","LIN":"5鄰","STREET":"崇安街","SECT":" ","MAREA":" ","LANE":" ","ALLEY":" ","HOUSE_NO":"１１５號","E_COORD97":168791.47,"N_COORD97":2544595.4900000002,"ADDRESS":"崇安街１１５號","OBJECTID":482688},"geometry":{"x":168791.47000000067,"y":2544595.4900000021}},{"attributes":{"ID":482714,"DIS_CODE":0,"TOWNNAME":"北區","LI":"玉皇里","LIN":"5鄰","STREET":"崇安街","SECT":" ","MAREA":" ","LANE":" ","ALLEY":" ","HOUSE_NO":"１１７號","E_COORD97":168795.64000000001,"N_COORD97":2544596.8999999999,"ADDRESS":"崇安街１１７號","OBJECTID":482689},"geometry":{"x":168795.6400000006,"y":2544596.9000000004}},{"attributes":{"ID":482715,"DIS_CODE":0,"TOWNNAME":"北區","LI":"玉皇里","LIN":"5鄰","STREET":"崇安街","SECT":" ","MAREA":" ","LANE":" ","ALLEY":" ","HOUSE_NO":"１１９號","E_COORD97":168799.48999999999,"N_COORD97":2544598.1899999999,"ADDRESS":"崇安街１１９號","OBJECTID":482690},"geometry":{"x":168799.49000000022,"y":2544598.1899999995}},{"attributes":{"ID":482716,"DIS_CODE":0,"TOWNNAME":"北區","LI":"玉皇里","LIN":"5鄰","STREET":"崇安街","SECT":" ","MAREA":" ","LANE":" ","ALLEY":" ","HOUSE_NO":"１２１號","E_COORD97":168803.64999999999,"N_COORD97":2544599.3999999999,"ADDRESS":"崇安街１２１號","OBJECTID":482691},"geometry":{"x":168803.65000000037,"y":2544599.4000000022}},{"attributes":{"ID":482717,"DIS_CODE":0,"TOWNNAME":"北區","LI":"玉皇里","LIN":"5鄰","STREET":"崇安街","SECT":" ","MAREA":" ","LANE":" ","ALLEY":" ","HOUSE_NO":"１２３號","E_COORD97":168806.79999999999,"N_COORD97":2544600.75,"ADDRESS":"崇安街１２３號","OBJECTID":482692},"geometry":{"x":168806.80000000075,"y":2544600.75}},{"attributes":{"ID":482718,"DIS_CODE":0,"TOWNNAME":"北區","LI":"玉皇里","LIN":"5鄰","STREET":"崇安街","SECT":" ","MAREA":" ","LANE":" ","ALLEY":" ","HOUSE_NO":"１２５號","E_COORD97":168810.51999999999,"N_COORD97":2544601.6499999999,"ADDRESS":"崇安街１２５號","OBJECTID":482693},"geometry":{"x":168810.51999999955,"y":2544601.6500000022}},{"attributes":{"ID":482719,"DIS_CODE":0,"TOWNNAME":"北區","LI":"玉皇里","LIN":"5鄰","STREET":"崇安街","SECT":" ","MAREA":" ","LANE":" ","ALLEY":" ","HOUSE_NO":"１２７號","E_COORD97":168813.79000000001,"N_COORD97":2544602.6699999999,"ADDRESS":"崇安街１２７號","OBJECTID":482694},"geometry":{"x":168813.79000000097,"y":2544602.6700000037}},{"attributes":{"ID":482720,"DIS_CODE":0,"TOWNNAME":"佳里區","LI":"安西里","LIN":"25鄰","STREET":"忠孝路","SECT":" ","MAREA":" ","LANE":" ","ALLEY":" ","HOUSE_NO":"２１４號","E_COORD97":165052.54999999999,"N_COORD97":2563317.1800000002,"ADDRESS":"忠孝路２１４號","OBJECTID":482695},"geometry":{"x":165052.54999999981,"y":2563317.1799999978}},{"attributes":{"ID":482721,"DIS_CODE":0,"TOWNNAME":"佳里區","LI":"安西里","LIN":"25鄰","STREET":"忠孝路","SECT":" ","MAREA":" ","LANE":" ","ALLEY":" ","HOUSE_NO":"２１６號","E_COORD97":165049.35000000001,"N_COORD97":2563320.0299999998,"ADDRESS":"忠孝路２１６號","OBJECTID":482696},"geometry":{"x":165049.35000000056,"y":2563320.0299999993}},{"attributes":{"ID":482722,"DIS_CODE":0,"TOWNNAME":"佳里區","LI":"安西里","LIN":"25鄰","STREET":"忠孝路","SECT":" ","MAREA":" ","LANE":" ","ALLEY":" ","HOUSE_NO":"２１８號","E_COORD97":165045.62,"N_COORD97":2563322.5899999999,"ADDRESS":"忠孝路２１８號","OBJECTID":482697},"geometry":{"x":165045.62000000011,"y":2563322.5900000017}},{"attributes":{"ID":482723,"DIS_CODE":0,"TOWNNAME":"佳里區","LI":"安西里","LIN":"25鄰","STREET":"忠孝路","SECT":" ","MAREA":" ","LANE":" ","ALLEY":" ","HOUSE_NO":"２２０號","E_COORD97":165042.20999999999,"N_COORD97":2563325.1299999999,"ADDRESS":"忠孝路２２０號","OBJECTID":482698},"geometry":{"x":165042.21000000089,"y":2563325.1300000008}},{"attributes":{"ID":482724,"DIS_CODE":0,"TOWNNAME":"佳里區","LI":"安西里","LIN":"25鄰","STREET":"忠孝路","SECT":" ","MAREA":" ","LANE":" ","ALLEY":" ","HOUSE_NO":"２２２號","E_COORD97":165039,"N_COORD97":2563327.7400000002,"ADDRESS":"忠孝路２２２號","OBJECTID":482699},"geometry":{"x":165039.00000000093,"y":2563327.7400000039}},{"attributes":{"ID":482725,"DIS_CODE":0,"TOWNNAME":"佳里區","LI":"安西里","LIN":"25鄰","STREET":"忠孝路","SECT":" ","MAREA":" ","LANE":" ","ALLEY":" ","HOUSE_NO":"２２４號","E_COORD97":165035.45999999999,"N_COORD97":2563330.4100000001,"ADDRESS":"忠孝路２２４號","OBJECTID":482700},"geometry":{"x":165035.46000000089,"y":2563330.410000002}},{"attributes":{"ID":482726,"DIS_CODE":0,"TOWNNAME":"佳里區","LI":"安西里","LIN":"25鄰","STREET":"忠孝路","SECT":" ","MAREA":" ","LANE":" ","ALLEY":" ","HOUSE_NO":"２２６號","E_COORD97":165032.10000000001,"N_COORD97":2563332.8599999999,"ADDRESS":"忠孝路２２６號","OBJECTID":482701},"geometry":{"x":165032.10000000149,"y":2563332.8600000031}},{"attributes":{"ID":482727,"DIS_CODE":0,"TOWNNAME":"佳里區","LI":"安西里","LIN":"25鄰","STREET":"忠孝路","SECT":" ","MAREA":" ","LANE":" ","ALLEY":" ","HOUSE_NO":"２２８號","E_COORD97":165028.53,"N_COORD97":2563335.5699999998,"ADDRESS":"忠孝路２２８號","OBJECTID":482702},"geometry":{"x":165028.53000000119,"y":2563335.570000004}},{"attributes":{"ID":482728,"DIS_CODE":0,"TOWNNAME":"佳里區","LI":"安西里","LIN":"25鄰","STREET":"忠孝路","SECT":" ","MAREA":" ","LANE":" ","ALLEY":" ","HOUSE_NO":"２３２號","E_COORD97":165021.54999999999,"N_COORD97":2563340.5600000001,"ADDRESS":"忠孝路２３２號","OBJECTID":482703},"geometry":{"x":165021.55000000075,"y":2563340.5600000024}},{"attributes":{"ID":482729,"DIS_CODE":0,"TOWNNAME":"佳里區","LI":"安西里","LIN":"25鄰","STREET":"忠孝路","SECT":" ","MAREA":" ","LANE":" ","ALLEY":" ","HOUSE_NO":"２３６號","E_COORD97":165016.75,"N_COORD97":2563344.4399999999,"ADDRESS":"忠孝路２３６號","OBJECTID":482704},"geometry":{"x":165016.75000000093,"y":2563344.4399999995}},{"attributes":{"ID":482730,"DIS_CODE":0,"TOWNNAME":"佳里區","LI":"安西里","LIN":"25鄰","STREET":"忠孝路","SECT":" ","MAREA":" ","LANE":" ","ALLEY":" ","HOUSE_NO":"２３８號","E_COORD97":165012.31,"N_COORD97":2563347.4900000002,"ADDRESS":"忠孝路２３８號","OBJECTID":482705},"geometry":{"x":165012.31000000052,"y":2563347.4900000021}},{"attributes":{"ID":482731,"DIS_CODE":0,"TOWNNAME":"佳里區","LI":"安西里","LIN":"25鄰","STREET":"忠孝路","SECT":" ","MAREA":" ","LANE":" ","ALLEY":" ","HOUSE_NO":"２４０號","E_COORD97":165008.72,"N_COORD97":2563350.3199999998,"ADDRESS":"忠孝路２４０號","OBJECTID":482706},"geometry":{"x":165008.71999999974,"y":2563350.3200000003}},{"attributes":{"ID":482732,"DIS_CODE":0,"TOWNNAME":"佳里區","LI":"安西里","LIN":"25鄰","STREET":"忠孝路","SECT":" ","MAREA":" ","LANE":" ","ALLEY":" ","HOUSE_NO":"２４２號","E_COORD97":165004.78,"N_COORD97":2563352.8700000001,"ADDRESS":"忠孝路２４２號","OBJECTID":482707},"geometry":{"x":165004.78000000119,"y":2563352.8700000029}},{"attributes":{"ID":482733,"DIS_CODE":0,"TOWNNAME":"佳里區","LI":"安西里","LIN":"25鄰","STREET":"忠孝路","SECT":" ","MAREA":" ","LANE":" ","ALLEY":" ","HOUSE_NO":"２４６號","E_COORD97":164997.16,"N_COORD97":2563358.1499999999,"ADDRESS":"忠孝路２４６號","OBJECTID":482708},"geometry":{"x":164997.16000000108,"y":2563358.1500000004}},{"attributes":{"ID":482734,"DIS_CODE":0,"TOWNNAME":"佳里區","LI":"安西里","LIN":"25鄰","STREET":"忠孝路","SECT":" ","MAREA":" ","LANE":" ","ALLEY":" ","HOUSE_NO":"２４８號","E_COORD97":164993.73000000001,"N_COORD97":2563360.71,"ADDRESS":"忠孝路２４８號","OBJECTID":482709},"geometry":{"x":164993.73000000138,"y":2563360.7100000028}},{"attributes":{"ID":482735,"DIS_CODE":0,"TOWNNAME":"佳里區","LI":"安西里","LIN":"25鄰","STREET":"忠孝路","SECT":" ","MAREA":" ","LANE":" ","ALLEY":" ","HOUSE_NO":"２５０號","E_COORD97":164990.37,"N_COORD97":2563363.2799999998,"ADDRESS":"忠孝路２５０號","OBJECTID":482710},"geometry":{"x":164990.37000000104,"y":2563363.2799999993}},{"attributes":{"ID":482736,"DIS_CODE":0,"TOWNNAME":"佳里區","LI":"安西里","LIN":"25鄰","STREET":"忠孝路","SECT":" ","MAREA":" ","LANE":" ","ALLEY":" ","HOUSE_NO":"２５２號","E_COORD97":164986.63,"N_COORD97":2563365.77,"ADDRESS":"忠孝路２５２號","OBJECTID":482711},"geometry":{"x":164986.63000000082,"y":2563365.7699999996}},{"attributes":{"ID":482737,"DIS_CODE":0,"TOWNNAME":"佳里區","LI":"安西里","LIN":"25鄰","STREET":"忠孝路","SECT":" ","MAREA":" ","LANE":" ","ALLEY":" ","HOUSE_NO":"２５４號","E_COORD97":164983.29999999999,"N_COORD97":2563368.4100000001,"ADDRESS":"忠孝路２５４號","OBJECTID":482712},"geometry":{"x":164983.29999999888,"y":2563368.410000002}},{"attributes":{"ID":482738,"DIS_CODE":0,"TOWNNAME":"佳里區","LI":"安西里","LIN":"25鄰","STREET":"忠孝路","SECT":" ","MAREA":" ","LANE":" ","ALLEY":" ","HOUSE_NO":"２５６號","E_COORD97":164979.89000000001,"N_COORD97":2563371.2599999998,"ADDRESS":"忠孝路２５６號","OBJECTID":482713},"geometry":{"x":164979.8900000006,"y":2563371.2600000035}},{"attributes":{"ID":482739,"DIS_CODE":0,"TOWNNAME":"佳里區","LI":"安西里","LIN":"25鄰","STREET":"忠孝路","SECT":" ","MAREA":" ","LANE":" ","ALLEY":" ","HOUSE_NO":"２５８號","E_COORD97":164976.23999999999,"N_COORD97":2563373.8300000001,"ADDRESS":"忠孝路２５８號","OBJECTID":482714},"geometry":{"x":164976.24000000115,"y":2563373.8300000001}},{"attributes":{"ID":482740,"DIS_CODE":0,"TOWNNAME":"佳里區","LI":"安西里","LIN":"25鄰","STREET":"忠孝路","SECT":" ","MAREA":" ","LANE":" ","ALLEY":" ","HOUSE_NO":"２６０號","E_COORD97":164972.39999999999,"N_COORD97":2563376.7400000002,"ADDRESS":"忠孝路２６０號","OBJECTID":482715},"geometry":{"x":164972.40000000037,"y":2563376.7400000021}},{"attributes":{"ID":482741,"DIS_CODE":0,"TOWNNAME":"佳里區","LI":"安西里","LIN":"25鄰","STREET":"忠孝路","SECT":" ","MAREA":" ","LANE":" ","ALLEY":" ","HOUSE_NO":"２６２號之１","E_COORD97":164965.89000000001,"N_COORD97":2563381.5099999998,"ADDRESS":"忠孝路２６２號之１","OBJECTID":482716},"geometry":{"x":164965.8900000006,"y":2563381.5099999998}},{"attributes":{"ID":482742,"DIS_CODE":0,"TOWNNAME":"佳里區","LI":"安西里","LIN":"25鄰","STREET":"忠孝路","SECT":" ","MAREA":" ","LANE":" ","ALLEY":" ","HOUSE_NO":"２６２號","E_COORD97":164969.16,"N_COORD97":2563379.3799999999,"ADDRESS":"忠孝路２６２號","OBJECTID":482717},"geometry":{"x":164969.16000000015,"y":2563379.3799999971}},{"attributes":{"ID":482743,"DIS_CODE":0,"TOWNNAME":"佳里區","LI":"安西里","LIN":"25鄰","STREET":"忠孝路","SECT":" ","MAREA":" ","LANE":" ","ALLEY":" ","HOUSE_NO":"２６４號","E_COORD97":164959.20999999999,"N_COORD97":2563387,"ADDRESS":"忠孝路２６４號","OBJECTID":482718},"geometry":{"x":164959.21000000089,"y":2563387.0000000019}},{"attributes":{"ID":482744,"DIS_CODE":0,"TOWNNAME":"佳里區","LI":"安西里","LIN":"25鄰","STREET":"忠孝路","SECT":" ","MAREA":" ","LANE":" ","ALLEY":" ","HOUSE_NO":"２６６號","E_COORD97":164955.51999999999,"N_COORD97":2563389.8300000001,"ADDRESS":"忠孝路２６６號","OBJECTID":482719},"geometry":{"x":164955.51999999955,"y":2563389.8300000001}},{"attributes":{"ID":482745,"DIS_CODE":0,"TOWNNAME":"佳里區","LI":"安西里","LIN":"25鄰","STREET":"忠孝路","SECT":" ","MAREA":" ","LANE":" ","ALLEY":" ","HOUSE_NO":"２６８號","E_COORD97":164951.20999999999,"N_COORD97":2563392.8900000001,"ADDRESS":"忠孝路２６８號","OBJECTID":482720},"geometry":{"x":164951.20999999996,"y":2563392.8900000025}},{"attributes":{"ID":482746,"DIS_CODE":0,"TOWNNAME":"佳里區","LI":"安西里","LIN":"25鄰","STREET":"忠孝路","SECT":" ","MAREA":" ","LANE":" ","ALLEY":" ","HOUSE_NO":"２７２號","E_COORD97":164937.98999999999,"N_COORD97":2563401.7000000002,"ADDRESS":"忠孝路２７２號","OBJECTID":482721},"geometry":{"x":164937.99000000022,"y":2563401.700000003}},{"attributes":{"ID":482747,"DIS_CODE":0,"TOWNNAME":"佳里區","LI":"安西里","LIN":"25鄰","STREET":"忠孝路","SECT":" ","MAREA":" ","LANE":" ","ALLEY":" ","HOUSE_NO":"２７４號","E_COORD97":164935.22,"N_COORD97":2563404.6099999999,"ADDRESS":"忠孝路２７４號","OBJECTID":482722},"geometry":{"x":164935.22000000067,"y":2563404.6099999994}},{"attributes":{"ID":482748,"DIS_CODE":0,"TOWNNAME":"東山區","LI":"東中里","LIN":"25鄰","STREET":"和平街","SECT":" ","MAREA":" ","LANE":" ","ALLEY":" ","HOUSE_NO":"６號","E_COORD97":188879.63,"N_COORD97":2579890.5699999998,"ADDRESS":"和平街６號","OBJECTID":482723},"geometry":{"x":188879.62999999989,"y":2579890.5700000003}},{"attributes":{"ID":482749,"DIS_CODE":0,"TOWNNAME":"佳里區","LI":"安西里","LIN":"25鄰","STREET":"忠孝路","SECT":" ","MAREA":" ","LANE":" ","ALLEY":" ","HOUSE_NO":"２７６號","E_COORD97":164931.72,"N_COORD97":2563407.2400000002,"ADDRESS":"忠孝路２７６號","OBJECTID":482724},"geometry":{"x":164931.72000000067,"y":2563407.2400000021}},{"attributes":{"ID":482750,"DIS_CODE":0,"TOWNNAME":"佳里區","LI":"安西里","LIN":"25鄰","STREET":"忠孝路","SECT":" ","MAREA":" ","LANE":" ","ALLEY":" ","HOUSE_NO":"２７８號","E_COORD97":164927.75,"N_COORD97":2563409.8399999999,"ADDRESS":"忠孝路２７８號","OBJECTID":482725},"geometry":{"x":164927.75,"y":2563409.8399999999}},{"attributes":{"ID":482751,"DIS_CODE":0,"TOWNNAME":"佳里區","LI":"安西里","LIN":"25鄰","STREET":"忠孝路","SECT":" ","MAREA":" ","LANE":" ","ALLEY":" ","HOUSE_NO":"２８２號","E_COORD97":164920.97,"N_COORD97":2563415.04,"ADDRESS":"忠孝路２８２號","OBJECTID":482726},"geometry":{"x":164920.96999999974,"y":2563415.0399999991}},{"attributes":{"ID":482752,"DIS_CODE":0,"TOWNNAME":"佳里區","LI":"安西里","LIN":"25鄰","STREET":"忠孝路","SECT":" ","MAREA":" ","LANE":" ","ALLEY":" ","HOUSE_NO":"２８４號","E_COORD97":164917.54000000001,"N_COORD97":2563417.6899999999,"ADDRESS":"忠孝路２８４號","OBJECTID":482727},"geometry":{"x":164917.53999999911,"y":2563417.6899999995}},{"attributes":{"ID":482753,"DIS_CODE":0,"TOWNNAME":"佳里區","LI":"安西里","LIN":"25鄰","STREET":"忠孝路","SECT":" ","MAREA":" ","LANE":" ","ALLEY":" ","HOUSE_NO":"２８６號","E_COORD97":164914.03,"N_COORD97":2563420.3799999999,"ADDRESS":"忠孝路２８６號","OBJECTID":482728},"geometry":{"x":164914.03000000026,"y":2563420.3800000027}},{"attributes":{"ID":482754,"DIS_CODE":0,"TOWNNAME":"佳里區","LI":"安西里","LIN":"25鄰","STREET":"忠孝路","SECT":" ","MAREA":" ","LANE":" ","ALLEY":" ","HOUSE_NO":"２８８號","E_COORD97":164906.62,"N_COORD97":2563424.3799999999,"ADDRESS":"忠孝路２８８號","OBJECTID":482729},"geometry":{"x":164906.62000000011,"y":2563424.3800000008}},{"attributes":{"ID":482755,"DIS_CODE":0,"TOWNNAME":"佳里區","LI":"安西里","LIN":"25鄰","STREET":"忠孝路","SECT":" ","MAREA":" ","LANE":" ","ALLEY":" ","HOUSE_NO":"２９８號","E_COORD97":164886.98000000001,"N_COORD97":2563440.27,"ADDRESS":"忠孝路２９８號","OBJECTID":482730},"geometry":{"x":164886.98000000138,"y":2563440.2700000014}},{"attributes":{"ID":482756,"DIS_CODE":0,"TOWNNAME":"佳里區","LI":"安西里","LIN":"25鄰","STREET":"忠孝路","SECT":" ","MAREA":" ","LANE":" ","ALLEY":" ","HOUSE_NO":"３００號","E_COORD97":164883.12,"N_COORD97":2563442.98,"ADDRESS":"忠孝路３００號","OBJECTID":482731},"geometry":{"x":164883.11999999918,"y":2563442.9800000023}},{"attributes":{"ID":482757,"DIS_CODE":0,"TOWNNAME":"佳里區","LI":"安西里","LIN":"25鄰","STREET":"忠孝路","SECT":" ","MAREA":" ","LANE":" ","ALLEY":" ","HOUSE_NO":"３０２號","E_COORD97":164879.60999999999,"N_COORD97":2563446.3700000001,"ADDRESS":"忠孝路３０２號","OBJECTID":482732},"geometry":{"x":164879.61000000034,"y":2563446.3700000048}},{"attributes":{"ID":482758,"DIS_CODE":0,"TOWNNAME":"佳里區","LI":"安西里","LIN":"25鄰","STREET":"忠孝路","SECT":" ","MAREA":" ","LANE":" ","ALLEY":" ","HOUSE_NO":"３０４號","E_COORD97":164876.17000000001,"N_COORD97":2563449.2999999998,"ADDRESS":"忠孝路３０４號","OBJECTID":482733},"geometry":{"x":164876.17000000086,"y":2563449.3000000007}},{"attributes":{"ID":482759,"DIS_CODE":0,"TOWNNAME":"佳里區","LI":"安西里","LIN":"25鄰","STREET":"忠孝路","SECT":" ","MAREA":" ","LANE":" ","ALLEY":" ","HOUSE_NO":"３０６號","E_COORD97":164872.60000000001,"N_COORD97":2563452.1299999999,"ADDRESS":"忠孝路３０６號","OBJECTID":482734},"geometry":{"x":164872.5999999987,"y":2563452.129999999}},{"attributes":{"ID":482760,"DIS_CODE":0,"TOWNNAME":"佳里區","LI":"安西里","LIN":"25鄰","STREET":"忠孝路","SECT":" ","MAREA":" ","LANE":" ","ALLEY":" ","HOUSE_NO":"３０８號","E_COORD97":164869.5,"N_COORD97":2563455.29,"ADDRESS":"忠孝路３０８號","OBJECTID":482735},"geometry":{"x":164869.50000000093,"y":2563455.290000001}},{"attributes":{"ID":482761,"DIS_CODE":0,"TOWNNAME":"佳里區","LI":"安西里","LIN":"25鄰","STREET":"忠孝路","SECT":" ","MAREA":" ","LANE":" ","ALLEY":" ","HOUSE_NO":"３１４號","E_COORD97":164858.20999999999,"N_COORD97":2563465.5099999998,"ADDRESS":"忠孝路３１４號","OBJECTID":482736},"geometry":{"x":164858.20999999996,"y":2563465.5100000016}},{"attributes":{"ID":482762,"DIS_CODE":0,"TOWNNAME":"佳里區","LI":"安西里","LIN":"25鄰","STREET":"忠孝路","SECT":" ","MAREA":" ","LANE":" ","ALLEY":" ","HOUSE_NO":"３１６號","E_COORD97":164857.45000000001,"N_COORD97":2563470.0899999999,"ADDRESS":"忠孝路３１６號","OBJECTID":482737},"geometry":{"x":164857.45000000205,"y":2563470.0899999999}},{"attributes":{"ID":482763,"DIS_CODE":0,"TOWNNAME":"佳里區","LI":"安西里","LIN":"25鄰","STREET":"忠孝路","SECT":" ","MAREA":" ","LANE":" ","ALLEY":" ","HOUSE_NO":"３１８號","E_COORD97":164850.22,"N_COORD97":2563503.6299999999,"ADDRESS":"忠孝路３１８號","OBJECTID":482738},"geometry":{"x":164850.22000000067,"y":2563503.6300000027}},{"attributes":{"ID":482764,"DIS_CODE":0,"TOWNNAME":"佳里區","LI":"六安里","LIN":"25鄰","STREET":"林園街","SECT":" ","MAREA":" ","LANE":" ","ALLEY":" ","HOUSE_NO":"１５０號","E_COORD97":165686.87,"N_COORD97":2562888.6800000002,"ADDRESS":"林園街１５０號","OBJECTID":482739},"geometry":{"x":165686.87000000197,"y":2562888.6799999997}},{"attributes":{"ID":482765,"DIS_CODE":0,"TOWNNAME":"佳里區","LI":"六安里","LIN":"25鄰","STREET":"林園街","SECT":" ","MAREA":" ","LANE":" ","ALLEY":" ","HOUSE_NO":"１５２號","E_COORD97":165681.51999999999,"N_COORD97":2562888.9300000002,"ADDRESS":"林園街１５２號","OBJECTID":482740},"geometry":{"x":165681.51999999955,"y":2562888.9300000016}},{"attributes":{"ID":482766,"DIS_CODE":0,"TOWNNAME":"佳里區","LI":"六安里","LIN":"25鄰","STREET":"林園街","SECT":" ","MAREA":" ","LANE":" ","ALLEY":" ","HOUSE_NO":"１５４號","E_COORD97":165677.45999999999,"N_COORD97":2562889.6200000001,"ADDRESS":"林園街１５４號","OBJECTID":482741},"geometry":{"x":165677.45999999903,"y":2562889.6200000029}},{"attributes":{"ID":482767,"DIS_CODE":0,"TOWNNAME":"佳里區","LI":"六安里","LIN":"25鄰","STREET":"林園街","SECT":" ","MAREA":" ","LANE":" ","ALLEY":" ","HOUSE_NO":"１５６號","E_COORD97":165673.37,"N_COORD97":2562890.0099999998,"ADDRESS":"林園街１５６號","OBJECTID":482742},"geometry":{"x":165673.37000000104,"y":2562890.0099999998}},{"attributes":{"ID":482768,"DIS_CODE":0,"TOWNNAME":"佳里區","LI":"六安里","LIN":"25鄰","STREET":"林園街","SECT":" ","MAREA":" ","LANE":" ","ALLEY":" ","HOUSE_NO":"１５８號","E_COORD97":165669.04999999999,"N_COORD97":2562890.1600000001,"ADDRESS":"林園街１５８號","OBJECTID":482743},"geometry":{"x":165669.05000000075,"y":2562890.1600000001}},{"attributes":{"ID":482769,"DIS_CODE":0,"TOWNNAME":"佳里區","LI":"六安里","LIN":"25鄰","STREET":"林園街","SECT":" ","MAREA":" ","LANE":" ","ALLEY":" ","HOUSE_NO":"１６０號","E_COORD97":165664.95000000001,"N_COORD97":2562890.52,"ADDRESS":"林園街１６０號","OBJECTID":482744},"geometry":{"x":165664.95000000112,"y":2562890.5199999996}},{"attributes":{"ID":482770,"DIS_CODE":0,"TOWNNAME":"佳里區","LI":"六安里","LIN":"25鄰","STREET":"林園街","SECT":" ","MAREA":" ","LANE":" ","ALLEY":" ","HOUSE_NO":"１６２號","E_COORD97":165661.07000000001,"N_COORD97":2562890.7400000002,"ADDRESS":"林園街１６２號","OBJECTID":482745},"geometry":{"x":165661.0700000003,"y":2562890.7400000021}},{"attributes":{"ID":482771,"DIS_CODE":0,"TOWNNAME":"佳里區","LI":"六安里","LIN":"25鄰","STREET":"林園街","SECT":" ","MAREA":" ","LANE":" ","ALLEY":" ","HOUSE_NO":"１６４號","E_COORD97":165656.87,"N_COORD97":2562891.2799999998,"ADDRESS":"林園街１６４號","OBJECTID":482746},"geometry":{"x":165656.87000000104,"y":2562891.2799999993}},{"attributes":{"ID":482772,"DIS_CODE":0,"TOWNNAME":"佳里區","LI":"六安里","LIN":"25鄰","STREET":"林園街","SECT":" ","MAREA":" ","LANE":" ","ALLEY":" ","HOUSE_NO":"１６６號","E_COORD97":165653.17999999999,"N_COORD97":2562891.71,"ADDRESS":"林園街１６６號","OBJECTID":482747},"geometry":{"x":165653.1799999997,"y":2562891.7100000028}},{"attributes":{"ID":482773,"DIS_CODE":0,"TOWNNAME":"佳里區","LI":"六安里","LIN":"25鄰","STREET":"林園街","SECT":" ","MAREA":" ","LANE":" ","ALLEY":" ","HOUSE_NO":"１６８號","E_COORD97":165648.92000000001,"N_COORD97":2562892.1000000001,"ADDRESS":"林園街１６８號","OBJECTID":482748},"geometry":{"x":165648.92000000179,"y":2562892.1000000015}},{"attributes":{"ID":482774,"DIS_CODE":0,"TOWNNAME":"佳里區","LI":"六安里","LIN":"25鄰","STREET":"林園街","SECT":" ","MAREA":" ","LANE":" ","ALLEY":" ","HOUSE_NO":"１７０號","E_COORD97":165644.01999999999,"N_COORD97":2562892.3599999999,"ADDRESS":"林園街１７０號","OBJECTID":482749},"geometry":{"x":165644.01999999955,"y":2562892.3600000013}},{"attributes":{"ID":482775,"DIS_CODE":0,"TOWNNAME":"安平區","LI":"怡平里","LIN":"25鄰","STREET":"永華路","SECT":"二段","MAREA":" ","LANE":" ","ALLEY":" ","HOUSE_NO":"４７４號","E_COORD97":165532.95999999999,"N_COORD97":2543511.1299999999,"ADDRESS":"永華路二段４７４號","OBJECTID":482750},"geometry":{"x":165532.95999999996,"y":2543511.1300000008}},{"attributes":{"ID":482776,"DIS_CODE":0,"TOWNNAME":"安平區","LI":"怡平里","LIN":"25鄰","STREET":"永華路","SECT":"二段","MAREA":" ","LANE":" ","ALLEY":" ","HOUSE_NO":"４７６號","E_COORD97":165526.03,"N_COORD97":2543511.73,"ADDRESS":"永華路二段４７６號","OBJECTID":482751},"geometry":{"x":165526.03000000026,"y":2543511.7300000023}},{"attributes":{"ID":482777,"DIS_CODE":0,"TOWNNAME":"六甲區","LI":"二甲里","LIN":"25鄰","STREET":"中山路","SECT":" ","MAREA":" ","LANE":" ","ALLEY":" ","HOUSE_NO":"２８５號","E_COORD97":182989.04000000001,"N_COORD97":2570124.8900000001,"ADDRESS":"中山路２８５號","OBJECTID":482752},"geometry":{"x":182989.04000000097,"y":2570124.8900000043}},{"attributes":{"ID":482778,"DIS_CODE":0,"TOWNNAME":"六甲區","LI":"二甲里","LIN":"25鄰","STREET":"中山路","SECT":" ","MAREA":" ","LANE":" ","ALLEY":" ","HOUSE_NO":"２９９號","E_COORD97":182952.20999999999,"N_COORD97":2570136.5600000001,"ADDRESS":"中山路２９９號","OBJECTID":482753},"geometry":{"x":182952.21000000089,"y":2570136.5600000005}},{"attributes":{"ID":482779,"DIS_CODE":0,"TOWNNAME":"六甲區","LI":"二甲里","LIN":"25鄰","STREET":"中山路","SECT":" ","MAREA":" ","LANE":" ","ALLEY":" ","HOUSE_NO":"３１９號之１","E_COORD97":182927.60000000001,"N_COORD97":2570118.5,"ADDRESS":"中山路３１９號之１","OBJECTID":482754},"geometry":{"x":182927.59999999963,"y":2570118.5}},{"attributes":{"ID":482780,"DIS_CODE":0,"TOWNNAME":"六甲區","LI":"二甲里","LIN":"25鄰","STREET":"中山路","SECT":" ","MAREA":" ","LANE":" ","ALLEY":" ","HOUSE_NO":"３２１之１號","E_COORD97":182916.75,"N_COORD97":2570115.8399999999,"ADDRESS":"中山路３２１之１號","OBJECTID":482755},"geometry":{"x":182916.75,"y":2570115.8399999999}},{"attributes":{"ID":482781,"DIS_CODE":0,"TOWNNAME":"六甲區","LI":"二甲里","LIN":"25鄰","STREET":"中山路","SECT":" ","MAREA":" ","LANE":" ","ALLEY":" ","HOUSE_NO":"３２５號","E_COORD97":182911.03,"N_COORD97":2570147.8100000001,"ADDRESS":"中山路３２５號","OBJECTID":482756},"geometry":{"x":182911.03000000119,"y":2570147.8100000005}},{"attributes":{"ID":482782,"DIS_CODE":0,"TOWNNAME":"六甲區","LI":"二甲里","LIN":"25鄰","STREET":"中山路","SECT":" ","MAREA":" ","LANE":" ","ALLEY":" ","HOUSE_NO":"３４１號","E_COORD97":182828.42000000001,"N_COORD97":2570155.7999999998,"ADDRESS":"中山路３４１號","OBJECTID":482757},"geometry":{"x":182828.42000000086,"y":2570155.7999999989}},{"attributes":{"ID":482783,"DIS_CODE":0,"TOWNNAME":"六甲區","LI":"二甲里","LIN":"25鄰","STREET":"中山路","SECT":" ","MAREA":" ","LANE":" ","ALLEY":" ","HOUSE_NO":"３５５號","E_COORD97":182691.54999999999,"N_COORD97":2570188.6000000001,"ADDRESS":"中山路３５５號","OBJECTID":482758},"geometry":{"x":182691.55000000075,"y":2570188.5999999996}},{"attributes":{"ID":482784,"DIS_CODE":0,"TOWNNAME":"六甲區","LI":"二甲里","LIN":"25鄰","STREET":"中山路","SECT":" ","MAREA":" ","LANE":" ","ALLEY":" ","HOUSE_NO":"３７９號","E_COORD97":182559.70999999999,"N_COORD97":2570231.8500000001,"ADDRESS":"中山路３７９號","OBJECTID":482759},"geometry":{"x":182559.70999999996,"y":2570231.8499999996}},{"attributes":{"ID":482785,"DIS_CODE":0,"TOWNNAME":"六甲區","LI":"二甲里","LIN":"25鄰","STREET":"中山路","SECT":" ","MAREA":" ","LANE":" ","ALLEY":" ","HOUSE_NO":"３９１之２號","E_COORD97":182462.84,"N_COORD97":2570224.5899999999,"ADDRESS":"中山路３９１之２號","OBJECTID":482760},"geometry":{"x":182462.84000000078,"y":2570224.5900000036}},{"attributes":{"ID":482786,"DIS_CODE":0,"TOWNNAME":"六甲區","LI":"二甲里","LIN":"25鄰","STREET":"中山路","SECT":" ","MAREA":" ","LANE":" ","ALLEY":" ","HOUSE_NO":"３９１號","E_COORD97":182478.10999999999,"N_COORD97":2570241.6899999999,"ADDRESS":"中山路３９１號","OBJECTID":482761},"geometry":{"x":182478.11000000127,"y":2570241.6900000013}},{"attributes":{"ID":482787,"DIS_CODE":0,"TOWNNAME":"六甲區","LI":"二甲里","LIN":"25鄰","STREET":"中山路","SECT":" ","MAREA":" ","LANE":" ","ALLEY":" ","HOUSE_NO":"３９７號","E_COORD97":182354.73999999999,"N_COORD97":2570281.54,"ADDRESS":"中山路３９７號","OBJECTID":482762},"geometry":{"x":182354.73999999929,"y":2570281.5400000028}},{"attributes":{"ID":482788,"DIS_CODE":0,"TOWNNAME":"六甲區","LI":"二甲里","LIN":"25鄰","STREET":"中山路","SECT":" ","MAREA":" ","LANE":" ","ALLEY":" ","HOUSE_NO":"３９９號","E_COORD97":182312.22,"N_COORD97":2570298.3199999998,"ADDRESS":"中山路３９９號","OBJECTID":482763},"geometry":{"x":182312.2200000016,"y":2570298.3200000022}},{"attributes":{"ID":482789,"DIS_CODE":0,"TOWNNAME":"六甲區","LI":"二甲里","LIN":"25鄰","STREET":"中山路","SECT":" ","MAREA":" ","LANE":" ","ALLEY":" ","HOUSE_NO":"４０１號","E_COORD97":182292.06,"N_COORD97":2570305.4900000002,"ADDRESS":"中山路４０１號","OBJECTID":482764},"geometry":{"x":182292.05999999959,"y":2570305.4900000002}},{"attributes":{"ID":482790,"DIS_CODE":0,"TOWNNAME":"六甲區","LI":"甲南里","LIN":"25鄰","STREET":"中華路","SECT":" ","MAREA":" ","LANE":" ","ALLEY":" ","HOUSE_NO":"２６號","E_COORD97":183664.5,"N_COORD97":2569395.29,"ADDRESS":"中華路２６號","OBJECTID":482765},"geometry":{"x":183664.5,"y":2569395.290000001}},{"attributes":{"ID":482791,"DIS_CODE":0,"TOWNNAME":"六甲區","LI":"甲南里","LIN":"25鄰","STREET":"中華路","SECT":" ","MAREA":" ","LANE":" ","ALLEY":" ","HOUSE_NO":"２８號","E_COORD97":183659.75,"N_COORD97":2569396.8100000001,"ADDRESS":"中華路２８號","OBJECTID":482766},"geometry":{"x":183659.74999999907,"y":2569396.8100000024}},{"attributes":{"ID":482792,"DIS_CODE":0,"TOWNNAME":"新營區","LI":"王公里","LIN":"25鄰","STREET":"公正街","SECT":" ","MAREA":" ","LANE":" ","ALLEY":" ","HOUSE_NO":"１２７號","E_COORD97":180145.95999999999,"N_COORD97":2579577.6000000001,"ADDRESS":"公正街１２７號","OBJECTID":482767},"geometry":{"x":180145.96000000183,"y":2579577.5999999996}},{"attributes":{"ID":482793,"DIS_CODE":0,"TOWNNAME":"柳營區","LI":"東昇里","LIN":"25鄰","STREET":"中山西路","SECT":"一段","MAREA":" ","LANE":" ","ALLEY":" ","HOUSE_NO":"２１６號","E_COORD97":180462.25,"N_COORD97":2575361.5899999999,"ADDRESS":"中山西路一段２１６號","OBJECTID":482768},"geometry":{"x":180462.25,"y":2575361.5900000017}},{"attributes":{"ID":482794,"DIS_CODE":0,"TOWNNAME":"柳營區","LI":"東昇里","LIN":"25鄰","STREET":"中山西路","SECT":"一段","MAREA":" ","LANE":" ","ALLEY":" ","HOUSE_NO":"２１８號","E_COORD97":180457.79999999999,"N_COORD97":2575361.2200000002,"ADDRESS":"中山西路一段２１８號","OBJECTID":482769},"geometry":{"x":180457.80000000075,"y":2575361.2200000025}},{"attributes":{"ID":482795,"DIS_CODE":0,"TOWNNAME":"柳營區","LI":"東昇里","LIN":"25鄰","STREET":"中山西路","SECT":"一段","MAREA":" ","LANE":" ","ALLEY":" ","HOUSE_NO":"２２０號","E_COORD97":180452.94,"N_COORD97":2575360.3599999999,"ADDRESS":"中山西路一段２２０號","OBJECTID":482770},"geometry":{"x":180452.94000000041,"y":2575360.3599999994}},{"attributes":{"ID":482796,"DIS_CODE":0,"TOWNNAME":"柳營區","LI":"東昇里","LIN":"25鄰","STREET":"中山西路","SECT":"一段","MAREA":" ","LANE":" ","ALLEY":" ","HOUSE_NO":"２２２號","E_COORD97":180445.35999999999,"N_COORD97":2575370.8199999998,"ADDRESS":"中山西路一段２２２號","OBJECTID":482771},"geometry":{"x":180445.3600000022,"y":2575370.8200000022}},{"attributes":{"ID":482797,"DIS_CODE":0,"TOWNNAME":"柳營區","LI":"東昇里","LIN":"25鄰","STREET":"中山西路","SECT":"一段","MAREA":" ","LANE":" ","ALLEY":" ","HOUSE_NO":"２２８號","E_COORD97":180438.92999999999,"N_COORD97":2575358.6499999999,"ADDRESS":"中山西路一段２２８號","OBJECTID":482772},"geometry":{"x":180438.9299999997,"y":2575358.6500000022}},{"attributes":{"ID":482798,"DIS_CODE":0,"TOWNNAME":"柳營區","LI":"東昇里","LIN":"25鄰","STREET":"中山西路","SECT":"一段","MAREA":" ","LANE":" ","ALLEY":" ","HOUSE_NO":"２３２號","E_COORD97":180431.62,"N_COORD97":2575357.6000000001,"ADDRESS":"中山西路一段２３２號","OBJECTID":482773},"geometry":{"x":180431.62000000197,"y":2575357.6000000015}},{"attributes":{"ID":482799,"DIS_CODE":0,"TOWNNAME":"柳營區","LI":"東昇里","LIN":"25鄰","STREET":"中山西路","SECT":"一段","MAREA":" ","LANE":" ","ALLEY":" ","HOUSE_NO":"２４２號","E_COORD97":180417.07000000001,"N_COORD97":2575358.2799999998,"ADDRESS":"中山西路一段２４２號","OBJECTID":482774},"geometry":{"x":180417.07000000123,"y":2575358.2799999993}},{"attributes":{"ID":482800,"DIS_CODE":0,"TOWNNAME":"柳營區","LI":"東昇里","LIN":"25鄰","STREET":"中山西路","SECT":"一段","MAREA":" ","LANE":" ","ALLEY":" ","HOUSE_NO":"２４８號","E_COORD97":180410.98000000001,"N_COORD97":2575357.1400000001,"ADDRESS":"中山西路一段２４８號","OBJECTID":482775},"geometry":{"x":180410.98000000138,"y":2575357.1400000006}},{"attributes":{"ID":482801,"DIS_CODE":0,"TOWNNAME":"南區","LI":"金華里","LIN":"25鄰","STREET":"賢南街","SECT":" ","MAREA":" ","LANE":" ","ALLEY":" ","HOUSE_NO":"８７號","E_COORD97":166668.95000000001,"N_COORD97":2542382.4300000002,"ADDRESS":"賢南街８７號","OBJECTID":482776},"geometry":{"x":166668.95000000019,"y":2542382.4299999997}},{"attributes":{"ID":482802,"DIS_CODE":0,"TOWNNAME":"柳營區","LI":"東昇里","LIN":"25鄰","STREET":"中山西路","SECT":"一段","MAREA":" ","LANE":" ","ALLEY":" ","HOUSE_NO":"２５０號","E_COORD97":180405.76000000001,"N_COORD97":2575356.2000000002,"ADDRESS":"中山西路一段２５０號","OBJECTID":482777},"geometry":{"x":180405.75999999978,"y":2575356.200000003}},{"attributes":{"ID":482803,"DIS_CODE":0,"TOWNNAME":"柳營區","LI":"東昇里","LIN":"25鄰","STREET":"東昇一街","SECT":" ","MAREA":" ","LANE":" ","ALLEY":" ","HOUSE_NO":"２９號","E_COORD97":180470.59,"N_COORD97":2575440.4100000001,"ADDRESS":"東昇一街２９號","OBJECTID":482778},"geometry":{"x":180470.59000000078,"y":2575440.4100000039}},{"attributes":{"ID":482804,"DIS_CODE":0,"TOWNNAME":"柳營區","LI":"東昇里","LIN":"25鄰","STREET":"東昇一街","SECT":" ","MAREA":" ","LANE":" ","ALLEY":" ","HOUSE_NO":"３１號","E_COORD97":180470.81,"N_COORD97":2575444.5,"ADDRESS":"東昇一街３１號","OBJECTID":482779},"geometry":{"x":180470.81000000052,"y":2575444.5000000019}},{"attributes":{"ID":482805,"DIS_CODE":0,"TOWNNAME":"柳營區","LI":"東昇里","LIN":"25鄰","STREET":"東昇一街","SECT":" ","MAREA":" ","LANE":" ","ALLEY":" ","HOUSE_NO":"３３號","E_COORD97":180471.04000000001,"N_COORD97":2575448.5800000001,"ADDRESS":"東昇一街３３號","OBJECTID":482780},"geometry":{"x":180471.0400000019,"y":2575448.5800000001}},{"attributes":{"ID":482806,"DIS_CODE":0,"TOWNNAME":"柳營區","LI":"東昇里","LIN":"25鄰","STREET":"東昇一街","SECT":" ","MAREA":" ","LANE":" ","ALLEY":" ","HOUSE_NO":"３５號","E_COORD97":180471.26000000001,"N_COORD97":2575452.6699999999,"ADDRESS":"東昇一街３５號","OBJECTID":482781},"geometry":{"x":180471.26000000071,"y":2575452.6700000018}},{"attributes":{"ID":482807,"DIS_CODE":0,"TOWNNAME":"柳營區","LI":"東昇里","LIN":"25鄰","STREET":"東昇一街","SECT":" ","MAREA":" ","LANE":" ","ALLEY":" ","HOUSE_NO":"３７號","E_COORD97":180471.48999999999,"N_COORD97":2575456.75,"ADDRESS":"東昇一街３７號","OBJECTID":482782},"geometry":{"x":180471.49000000209,"y":2575456.75}},{"attributes":{"ID":482808,"DIS_CODE":0,"TOWNNAME":"柳營區","LI":"東昇里","LIN":"25鄰","STREET":"東昇一街","SECT":" ","MAREA":" ","LANE":" ","ALLEY":" ","HOUSE_NO":"３９號","E_COORD97":180471.70999999999,"N_COORD97":2575460.8399999999,"ADDRESS":"東昇一街３９號","OBJECTID":482783},"geometry":{"x":180471.71000000089,"y":2575460.8400000036}},{"attributes":{"ID":482809,"DIS_CODE":0,"TOWNNAME":"柳營區","LI":"東昇里","LIN":"25鄰","STREET":"東昇一街","SECT":" ","MAREA":" ","LANE":" ","ALLEY":" ","HOUSE_NO":"４３號","E_COORD97":180471.92999999999,"N_COORD97":2575468.75,"ADDRESS":"東昇一街４３號","OBJECTID":482784},"geometry":{"x":180471.93000000063,"y":2575468.7500000019}},{"attributes":{"ID":482810,"DIS_CODE":0,"TOWNNAME":"柳營區","LI":"東昇里","LIN":"25鄰","STREET":"東昇一街","SECT":" ","MAREA":" ","LANE":" ","ALLEY":" ","HOUSE_NO":"４５號","E_COORD97":180472.04999999999,"N_COORD97":2575472.7799999998,"ADDRESS":"東昇一街４５號","OBJECTID":482785},"geometry":{"x":180472.04999999981,"y":2575472.7799999993}},{"attributes":{"ID":482811,"DIS_CODE":0,"TOWNNAME":"柳營區","LI":"東昇里","LIN":"25鄰","STREET":"東昇一街","SECT":" ","MAREA":" ","LANE":" ","ALLEY":" ","HOUSE_NO":"４７號","E_COORD97":180472.16,"N_COORD97":2575476.8100000001,"ADDRESS":"東昇一街４７號","OBJECTID":482786},"geometry":{"x":180472.16000000108,"y":2575476.8100000024}},{"attributes":{"ID":482812,"DIS_CODE":0,"TOWNNAME":"柳營區","LI":"東昇里","LIN":"25鄰","STREET":"東昇一街","SECT":" ","MAREA":" ","LANE":" ","ALLEY":" ","HOUSE_NO":"４９號","E_COORD97":180472.28,"N_COORD97":2575480.8500000001,"ADDRESS":"東昇一街４９號","OBJECTID":482787},"geometry":{"x":180472.28000000026,"y":2575480.8500000034}},{"attributes":{"ID":482813,"DIS_CODE":0,"TOWNNAME":"柳營區","LI":"東昇里","LIN":"25鄰","STREET":"東昇一街","SECT":" ","MAREA":" ","LANE":" ","ALLEY":" ","HOUSE_NO":"５１號","E_COORD97":180472.39999999999,"N_COORD97":2575484.8799999999,"ADDRESS":"東昇一街５１號","OBJECTID":482788},"geometry":{"x":180472.40000000224,"y":2575484.8800000008}},{"attributes":{"ID":482814,"DIS_CODE":0,"TOWNNAME":"柳營區","LI":"東昇里","LIN":"25鄰","STREET":"東昇一街","SECT":" ","MAREA":" ","LANE":" ","ALLEY":" ","HOUSE_NO":"５３號","E_COORD97":180472.51999999999,"N_COORD97":2575488.9199999999,"ADDRESS":"東昇一街５３號","OBJECTID":482789},"geometry":{"x":180472.52000000048,"y":2575488.9200000018}},{"attributes":{"ID":482815,"DIS_CODE":0,"TOWNNAME":"柳營區","LI":"東昇里","LIN":"25鄰","STREET":"東昇一街","SECT":" ","MAREA":" ","LANE":" ","ALLEY":" ","HOUSE_NO":"５５號","E_COORD97":180472.63,"N_COORD97":2575492.9500000002,"ADDRESS":"東昇一街５５號","OBJECTID":482790},"geometry":{"x":180472.63000000082,"y":2575492.9499999993}},{"attributes":{"ID":482816,"DIS_CODE":0,"TOWNNAME":"柳營區","LI":"東昇里","LIN":"25鄰","STREET":"東昇一街","SECT":" ","MAREA":" ","LANE":" ","ALLEY":" ","HOUSE_NO":"５７號","E_COORD97":180472.75,"N_COORD97":2575496.9900000002,"ADDRESS":"東昇一街５７號","OBJECTID":482791},"geometry":{"x":180472.75,"y":2575496.9900000002}},{"attributes":{"ID":482817,"DIS_CODE":0,"TOWNNAME":"柳營區","LI":"東昇里","LIN":"25鄰","STREET":"東昇一街","SECT":" ","MAREA":" ","LANE":" ","ALLEY":" ","HOUSE_NO":"５９號","E_COORD97":180472.87,"N_COORD97":2575501.02,"ADDRESS":"東昇一街５９號","OBJECTID":482792},"geometry":{"x":180472.87000000104,"y":2575501.0200000014}},{"attributes":{"ID":482818,"DIS_CODE":0,"TOWNNAME":"柳營區","LI":"東昇里","LIN":"25鄰","STREET":"東昇一街","SECT":" ","MAREA":" ","LANE":" ","ALLEY":" ","HOUSE_NO":"６１號","E_COORD97":180472.98999999999,"N_COORD97":2575505.0499999998,"ADDRESS":"東昇一街６１號","OBJECTID":482793},"geometry":{"x":180472.99000000022,"y":2575505.0500000026}},{"attributes":{"ID":482819,"DIS_CODE":0,"TOWNNAME":"柳營區","LI":"東昇里","LIN":"25鄰","STREET":"東昇一街","SECT":" ","MAREA":" ","LANE":" ","ALLEY":" ","HOUSE_NO":"６３號","E_COORD97":180473.10999999999,"N_COORD97":2575509.0899999999,"ADDRESS":"東昇一街６３號","OBJECTID":482794},"geometry":{"x":180473.11000000127,"y":2575509.0899999999}},{"attributes":{"ID":482820,"DIS_CODE":0,"TOWNNAME":"歸仁區","LI":"六甲里","LIN":"25鄰","STREET":"民生南街","SECT":"二段","MAREA":" ","LANE":" ","ALLEY":" ","HOUSE_NO":"６２３號","E_COORD97":176106.85000000001,"N_COORD97":2539329.29,"ADDRESS":"民生南街二段６２３號","OBJECTID":482795},"geometry":{"x":176106.85000000149,"y":2539329.2900000028}},{"attributes":{"ID":482821,"DIS_CODE":0,"TOWNNAME":"歸仁區","LI":"六甲里","LIN":"25鄰","STREET":"中正南路","SECT":"一段","MAREA":" ","LANE":" ","ALLEY":" ","HOUSE_NO":"１０１２號","E_COORD97":176108.97,"N_COORD97":2539287.2799999998,"ADDRESS":"中正南路一段１０１２號","OBJECTID":482796},"geometry":{"x":176108.96999999974,"y":2539287.2799999993}},{"attributes":{"ID":482822,"DIS_CODE":0,"TOWNNAME":"歸仁區","LI":"六甲里","LIN":"25鄰","STREET":"民生南街","SECT":"二段","MAREA":" ","LANE":" ","ALLEY":" ","HOUSE_NO":"５５１號","E_COORD97":176153.14000000001,"N_COORD97":2539466.4900000002,"ADDRESS":"民生南街二段５５１號","OBJECTID":482797},"geometry":{"x":176153.13999999966,"y":2539466.4900000002}},{"attributes":{"ID":482823,"DIS_CODE":0,"TOWNNAME":"北區","LI":"三德里","LIN":"9鄰","STREET":"北華街","SECT":" ","MAREA":" ","LANE":" ","ALLEY":" ","HOUSE_NO":"１８２號","E_COORD97":168456.04000000001,"N_COORD97":2544622.3300000001,"ADDRESS":"北華街１８２號","OBJECTID":482798},"geometry":{"x":168456.04000000097,"y":2544622.3300000038}},{"attributes":{"ID":482824,"DIS_CODE":0,"TOWNNAME":"南區","LI":"田寮里","LIN":"25鄰","STREET":"大成路","SECT":"二段","MAREA":" ","LANE":" ","ALLEY":" ","HOUSE_NO":"６０號","E_COORD97":167562.19,"N_COORD97":2541748.6499999999,"ADDRESS":"大成路二段６０號","OBJECTID":482799},"geometry":{"x":167562.19000000134,"y":2541748.6500000041}},{"attributes":{"ID":482825,"DIS_CODE":0,"TOWNNAME":"南區","LI":"田寮里","LIN":"25鄰","STREET":"大成路","SECT":"二段","MAREA":" ","LANE":" ","ALLEY":" ","HOUSE_NO":"６２號","E_COORD97":167551.29000000001,"N_COORD97":2541748.1800000002,"ADDRESS":"大成路二段６２號","OBJECTID":482800},"geometry":{"x":167551.29000000004,"y":2541748.1800000016}}]}