{"displayFieldName":"TOWNNAME","fieldAliases":{"ID":"ID","DIS_CODE":"DIS_CODE","TOWNNAME":"TOWNNAME","LI":"LI","LIN":"LIN","STREET":"STREET","SECT":"SECT","MAREA":"MAREA","LANE":"LANE","ALLEY":"ALLEY","HOUSE_NO":"HOUSE_NO","E_COORD97":"E_COORD97","N_COORD97":"N_COORD97","ADDRESS":"ADDRESS","OBJECTID":"OBJECTID"},"geometryType":"esriGeometryPoint","spatialReference":{"wkid":102443,"latestWkid":3826},"fields":[{"name":"ID","type":"esriFieldTypeDouble","alias":"ID"},{"name":"DIS_CODE","type":"esriFieldTypeInteger","alias":"DIS_CODE"},{"name":"TOWNNAME","type":"esriFieldTypeString","alias":"TOWNNAME","length":8},{"name":"LI","type":"esriFieldTypeString","alias":"LI","length":8},{"name":"LIN","type":"esriFieldTypeString","alias":"LIN","length":12},{"name":"STREET","type":"esriFieldTypeString","alias":"STREET","length":20},{"name":"SECT","type":"esriFieldTypeString","alias":"SECT","length":8},{"name":"MAREA","type":"esriFieldTypeString","alias":"MAREA","length":12},{"name":"LANE","type":"esriFieldTypeString","alias":"LANE","length":10},{"name":"ALLEY","type":"esriFieldTypeString","alias":"ALLEY","length":10},{"name":"HOUSE_NO","type":"esriFieldTypeString","alias":"HOUSE_NO","length":20},{"name":"E_COORD97","type":"esriFieldTypeDouble","alias":"E_COORD97"},{"name":"N_COORD97","type":"esriFieldTypeDouble","alias":"N_COORD97"},{"name":"ADDRESS","type":"esriFieldTypeString","alias":"ADDRESS","length":50},{"name":"OBJECTID","type":"esriFieldTypeOID","alias":"OBJECTID"}],"features":[{"attributes":{"ID":380211,"DIS_CODE":0,"TOWNNAME":"仁德區","LI":"太子里","LIN":"21鄰","STREET":"長興四街","SECT":" ","MAREA":" ","LANE":"７４巷","ALLEY":" ","HOUSE_NO":"７號","E_COORD97":173906.20000000001,"N_COORD97":2543606.75,"ADDRESS":"長興四街７４巷７號","OBJECTID":380201},"geometry":{"x":173906.19999999925,"y":2543606.7500000019}},{"attributes":{"ID":380212,"DIS_CODE":0,"TOWNNAME":"仁德區","LI":"仁德里","LIN":"21鄰","STREET":"文華路","SECT":"三段","MAREA":" ","LANE":"４８１巷","ALLEY":" ","HOUSE_NO":"５號","E_COORD97":172397.73999999999,"N_COORD97":2541338.8300000001,"ADDRESS":"文華路三段４８１巷５號","OBJECTID":380202},"geometry":{"x":172397.74000000115,"y":2541338.8300000001}},{"attributes":{"ID":380213,"DIS_CODE":0,"TOWNNAME":"仁德區","LI":"後壁里","LIN":"21鄰","STREET":"中正路","SECT":"二段","MAREA":" ","LANE":"９７巷","ALLEY":" ","HOUSE_NO":"４８號","E_COORD97":173132.32000000001,"N_COORD97":2538547.2799999998,"ADDRESS":"中正路二段９７巷４８號","OBJECTID":380203},"geometry":{"x":173132.3200000003,"y":2538547.2800000012}},{"attributes":{"ID":380214,"DIS_CODE":0,"TOWNNAME":"仁德區","LI":"後壁里","LIN":"21鄰","STREET":"中正路","SECT":"二段","MAREA":" ","LANE":"９７巷","ALLEY":" ","HOUSE_NO":"３８號","E_COORD97":173146.07000000001,"N_COORD97":2538564.5299999998,"ADDRESS":"中正路二段９７巷３８號","OBJECTID":380204},"geometry":{"x":173146.06999999937,"y":2538564.5299999993}},{"attributes":{"ID":380215,"DIS_CODE":0,"TOWNNAME":"仁德區","LI":"二行里","LIN":"21鄰","STREET":"二行一路","SECT":" ","MAREA":" ","LANE":"７１巷","ALLEY":" ","HOUSE_NO":"７號","E_COORD97":170361.45999999999,"N_COORD97":2535318.2400000002,"ADDRESS":"二行一路７１巷７號","OBJECTID":380205},"geometry":{"x":170361.46000000183,"y":2535318.2400000002}},{"attributes":{"ID":380216,"DIS_CODE":0,"TOWNNAME":"仁德區","LI":"二行里","LIN":"21鄰","STREET":"二行一路","SECT":" ","MAREA":" ","LANE":"７１巷","ALLEY":" ","HOUSE_NO":"１號","E_COORD97":170382.70999999999,"N_COORD97":2535314.2400000002,"ADDRESS":"二行一路７１巷１號","OBJECTID":380206},"geometry":{"x":170382.70999999996,"y":2535314.2400000021}},{"attributes":{"ID":380217,"DIS_CODE":0,"TOWNNAME":"仁德區","LI":"上崙里","LIN":"21鄰","STREET":"上崙街","SECT":" ","MAREA":" ","LANE":"２６巷","ALLEY":" ","HOUSE_NO":"３號","E_COORD97":173704.35000000001,"N_COORD97":2538139,"ADDRESS":"上崙街２６巷３號","OBJECTID":380207},"geometry":{"x":173704.34999999963,"y":2538139.0000000019}},{"attributes":{"ID":380218,"DIS_CODE":0,"TOWNNAME":"仁德區","LI":"上崙里","LIN":"21鄰","STREET":"上崙街","SECT":" ","MAREA":" ","LANE":"１２巷","ALLEY":" ","HOUSE_NO":"１１號","E_COORD97":173739.89999999999,"N_COORD97":2538161.5,"ADDRESS":"上崙街１２巷１１號","OBJECTID":380208},"geometry":{"x":173739.90000000037,"y":2538161.5}},{"attributes":{"ID":380219,"DIS_CODE":0,"TOWNNAME":"仁德區","LI":"上崙里","LIN":"21鄰","STREET":"上崙街","SECT":" ","MAREA":" ","LANE":"１２巷","ALLEY":" ","HOUSE_NO":"７號","E_COORD97":173735.5,"N_COORD97":2538152.25,"ADDRESS":"上崙街１２巷７號","OBJECTID":380209},"geometry":{"x":173735.5,"y":2538152.25}},{"attributes":{"ID":380220,"DIS_CODE":0,"TOWNNAME":"仁德區","LI":"上崙里","LIN":"21鄰","STREET":"上崙街","SECT":" ","MAREA":" ","LANE":"１２巷","ALLEY":" ","HOUSE_NO":"９號","E_COORD97":173732.60000000001,"N_COORD97":2538155.75,"ADDRESS":"上崙街１２巷９號","OBJECTID":380210},"geometry":{"x":173732.60000000056,"y":2538155.75}},{"attributes":{"ID":380221,"DIS_CODE":0,"TOWNNAME":"仁德區","LI":"上崙里","LIN":"21鄰","STREET":"上崙街","SECT":" ","MAREA":" ","LANE":"２６巷","ALLEY":" ","HOUSE_NO":"１號","E_COORD97":173701.10000000001,"N_COORD97":2538135.5,"ADDRESS":"上崙街２６巷１號","OBJECTID":380211},"geometry":{"x":173701.09999999963,"y":2538135.5000000019}},{"attributes":{"ID":380222,"DIS_CODE":0,"TOWNNAME":"仁德區","LI":"上崙里","LIN":"21鄰","STREET":"上崙街","SECT":" ","MAREA":" ","LANE":"２６巷","ALLEY":" ","HOUSE_NO":"７號","E_COORD97":173710.39999999999,"N_COORD97":2538145.75,"ADDRESS":"上崙街２６巷７號","OBJECTID":380212},"geometry":{"x":173710.4000000013,"y":2538145.75}},{"attributes":{"ID":380223,"DIS_CODE":0,"TOWNNAME":"仁德區","LI":"上崙里","LIN":"21鄰","STREET":"上崙街","SECT":" ","MAREA":" ","LANE":"２６巷","ALLEY":" ","HOUSE_NO":"１３號","E_COORD97":173721.42999999999,"N_COORD97":2538157,"ADDRESS":"上崙街２６巷１３號","OBJECTID":380213},"geometry":{"x":173721.43000000063,"y":2538157.0000000019}},{"attributes":{"ID":380224,"DIS_CODE":0,"TOWNNAME":"仁德區","LI":"上崙里","LIN":"21鄰","STREET":"上崙街","SECT":" ","MAREA":" ","LANE":"１２巷","ALLEY":" ","HOUSE_NO":"５號","E_COORD97":173742.42000000001,"N_COORD97":2538138.5,"ADDRESS":"上崙街１２巷５號","OBJECTID":380214},"geometry":{"x":173742.42000000086,"y":2538138.5000000037}},{"attributes":{"ID":380225,"DIS_CODE":0,"TOWNNAME":"仁德區","LI":"大甲里","LIN":"21鄰","STREET":"行大街","SECT":" ","MAREA":" ","LANE":"４０２巷","ALLEY":" ","HOUSE_NO":"１７號","E_COORD97":169468.60000000001,"N_COORD97":2535339.25,"ADDRESS":"行大街４０２巷１７號","OBJECTID":380215},"geometry":{"x":169468.60000000056,"y":2535339.25}},{"attributes":{"ID":380226,"DIS_CODE":0,"TOWNNAME":"仁德區","LI":"上崙里","LIN":"21鄰","STREET":"上崙街","SECT":" ","MAREA":" ","LANE":"２６巷","ALLEY":" ","HOUSE_NO":"１１號","E_COORD97":173718.01000000001,"N_COORD97":2538152.5,"ADDRESS":"上崙街２６巷１１號","OBJECTID":380216},"geometry":{"x":173718.01000000071,"y":2538152.5000000019}},{"attributes":{"ID":380227,"DIS_CODE":0,"TOWNNAME":"新化區","LI":"東榮里","LIN":"21鄰","STREET":"復興路","SECT":" ","MAREA":" ","LANE":"１８２巷","ALLEY":" ","HOUSE_NO":"１７號","E_COORD97":179499.47,"N_COORD97":2547910.25,"ADDRESS":"復興路１８２巷１７號","OBJECTID":380217},"geometry":{"x":179499.46999999974,"y":2547910.25}},{"attributes":{"ID":380228,"DIS_CODE":0,"TOWNNAME":"新化區","LI":"東榮里","LIN":"21鄰","STREET":"復興路","SECT":" ","MAREA":" ","LANE":"１８２巷","ALLEY":" ","HOUSE_NO":"１９號","E_COORD97":179500.76999999999,"N_COORD97":2547897.25,"ADDRESS":"復興路１８２巷１９號","OBJECTID":380218},"geometry":{"x":179500.76999999955,"y":2547897.25}},{"attributes":{"ID":380229,"DIS_CODE":0,"TOWNNAME":"新化區","LI":"東榮里","LIN":"21鄰","STREET":"復興路","SECT":" ","MAREA":" ","LANE":"１８２巷","ALLEY":" ","HOUSE_NO":"１３號之１","E_COORD97":179497.89999999999,"N_COORD97":2547944.2599999998,"ADDRESS":"復興路１８２巷１３號之１","OBJECTID":380219},"geometry":{"x":179497.9000000013,"y":2547944.2599999998}},{"attributes":{"ID":380230,"DIS_CODE":0,"TOWNNAME":"南區","LI":"廣州里","LIN":"21鄰","STREET":"福吉五街","SECT":" ","MAREA":" ","LANE":"１６巷","ALLEY":" ","HOUSE_NO":"２號","E_COORD97":167254.29000000001,"N_COORD97":2542566.1499999999,"ADDRESS":"福吉五街１６巷２號","OBJECTID":380220},"geometry":{"x":167254.29000000097,"y":2542566.1500000022}},{"attributes":{"ID":380231,"DIS_CODE":0,"TOWNNAME":"安南區","LI":"理想里","LIN":"21鄰","STREET":"海佃路","SECT":"二段","MAREA":" ","LANE":"１５０巷","ALLEY":" ","HOUSE_NO":"１２２號之２６","E_COORD97":167252.60000000001,"N_COORD97":2548556.9399999999,"ADDRESS":"海佃路二段１５０巷１２２號之２６","OBJECTID":380221},"geometry":{"x":167252.59999999963,"y":2548556.9400000032}},{"attributes":{"ID":380232,"DIS_CODE":0,"TOWNNAME":"安南區","LI":"理想里","LIN":"21鄰","STREET":"海佃路","SECT":"二段","MAREA":" ","LANE":"１５０巷","ALLEY":" ","HOUSE_NO":"１２２號之２７","E_COORD97":167258.48000000001,"N_COORD97":2548564.8799999999,"ADDRESS":"海佃路二段１５０巷１２２號之２７","OBJECTID":380222},"geometry":{"x":167258.48000000138,"y":2548564.8800000008}},{"attributes":{"ID":380233,"DIS_CODE":0,"TOWNNAME":"安南區","LI":"理想里","LIN":"21鄰","STREET":"海佃路","SECT":"二段","MAREA":" ","LANE":"１５０巷","ALLEY":" ","HOUSE_NO":"１２２號之２８","E_COORD97":167261.97,"N_COORD97":2548572.02,"ADDRESS":"海佃路二段１５０巷１２２號之２８","OBJECTID":380223},"geometry":{"x":167261.96999999974,"y":2548572.0199999996}},{"attributes":{"ID":380234,"DIS_CODE":0,"TOWNNAME":"安南區","LI":"理想里","LIN":"21鄰","STREET":"海佃路","SECT":"二段","MAREA":" ","LANE":"１５０巷","ALLEY":" ","HOUSE_NO":"１２２號之２９","E_COORD97":167266.73000000001,"N_COORD97":2548579.0099999998,"ADDRESS":"海佃路二段１５０巷１２２號之２９","OBJECTID":380224},"geometry":{"x":167266.73000000138,"y":2548579.0099999998}},{"attributes":{"ID":380235,"DIS_CODE":0,"TOWNNAME":"安南區","LI":"理想里","LIN":"21鄰","STREET":"海佃路","SECT":"二段","MAREA":" ","LANE":"１５０巷","ALLEY":" ","HOUSE_NO":"１２２號之３３","E_COORD97":167270.23000000001,"N_COORD97":2548585.6699999999,"ADDRESS":"海佃路二段１５０巷１２２號之３３","OBJECTID":380225},"geometry":{"x":167270.23000000138,"y":2548585.6699999999}},{"attributes":{"ID":380236,"DIS_CODE":0,"TOWNNAME":"安南區","LI":"理想里","LIN":"21鄰","STREET":"海佃路","SECT":"二段","MAREA":" ","LANE":"１５０巷","ALLEY":" ","HOUSE_NO":"１２２號之３６","E_COORD97":167208.974086,"N_COORD97":2548589.49908,"ADDRESS":"海佃路二段１５０巷１２２號之３６","OBJECTID":380226},"geometry":{"x":167208.97408599872,"y":2548589.4990850016}},{"attributes":{"ID":380237,"DIS_CODE":0,"TOWNNAME":"安南區","LI":"理想里","LIN":"21鄰","STREET":"海佃路","SECT":"二段","MAREA":" ","LANE":"１５０巷","ALLEY":" ","HOUSE_NO":"１２２號之３７","E_COORD97":167212.788535,"N_COORD97":2548595.2140799998,"ADDRESS":"海佃路二段１５０巷１２２號之３７","OBJECTID":380227},"geometry":{"x":167212.78853500169,"y":2548595.2140820008}},{"attributes":{"ID":380238,"DIS_CODE":0,"TOWNNAME":"安南區","LI":"理想里","LIN":"21鄰","STREET":"海佃路","SECT":"二段","MAREA":" ","LANE":"１５０巷","ALLEY":" ","HOUSE_NO":"１２２號之３８","E_COORD97":167216.17915700001,"N_COORD97":2548600.0824099998,"ADDRESS":"海佃路二段１５０巷１２２號之３８","OBJECTID":380228},"geometry":{"x":167216.17915700097,"y":2548600.082413001}},{"attributes":{"ID":380239,"DIS_CODE":0,"TOWNNAME":"安南區","LI":"理想里","LIN":"21鄰","STREET":"海佃路","SECT":"二段","MAREA":" ","LANE":"１５０巷","ALLEY":" ","HOUSE_NO":"１２２號之４０","E_COORD97":167226.35102100001,"N_COORD97":2548614.05241,"ADDRESS":"海佃路二段１５０巷１２２號之４０","OBJECTID":380229},"geometry":{"x":167226.35102100018,"y":2548614.0524049997}},{"attributes":{"ID":380240,"DIS_CODE":0,"TOWNNAME":"安南區","LI":"理想里","LIN":"21鄰","STREET":"海佃路","SECT":"二段","MAREA":" ","LANE":"１５０巷","ALLEY":" ","HOUSE_NO":"１２２號之４１","E_COORD97":167282.374423,"N_COORD97":2548604.2521899999,"ADDRESS":"海佃路二段１５０巷１２２號之４１","OBJECTID":380230},"geometry":{"x":167282.37442300096,"y":2548604.2521890029}},{"attributes":{"ID":380241,"DIS_CODE":0,"TOWNNAME":"南區","LI":"新昌里","LIN":"21鄰","STREET":"大德街","SECT":" ","MAREA":" ","LANE":"１４１巷","ALLEY":" ","HOUSE_NO":"１號","E_COORD97":167555.73999999999,"N_COORD97":2543020.5699999998,"ADDRESS":"大德街１４１巷１號","OBJECTID":380231},"geometry":{"x":167555.73999999929,"y":2543020.570000004}},{"attributes":{"ID":380242,"DIS_CODE":0,"TOWNNAME":"南區","LI":"廣州里","LIN":"21鄰","STREET":"福吉四街","SECT":" ","MAREA":" ","LANE":"４７巷","ALLEY":" ","HOUSE_NO":"３號","E_COORD97":167209.79000000001,"N_COORD97":2542638.3300000001,"ADDRESS":"福吉四街４７巷３號","OBJECTID":380232},"geometry":{"x":167209.79000000097,"y":2542638.3300000001}},{"attributes":{"ID":380243,"DIS_CODE":0,"TOWNNAME":"南區","LI":"廣州里","LIN":"21鄰","STREET":"福吉四街","SECT":" ","MAREA":" ","LANE":"４７巷","ALLEY":" ","HOUSE_NO":"５號","E_COORD97":167204.67000000001,"N_COORD97":2542635.6600000001,"ADDRESS":"福吉四街４７巷５號","OBJECTID":380233},"geometry":{"x":167204.66999999993,"y":2542635.6600000001}},{"attributes":{"ID":380244,"DIS_CODE":0,"TOWNNAME":"南區","LI":"廣州里","LIN":"21鄰","STREET":"福吉四街","SECT":" ","MAREA":" ","LANE":"４７巷","ALLEY":" ","HOUSE_NO":"７號","E_COORD97":167201.34,"N_COORD97":2542632.5600000001,"ADDRESS":"福吉四街４７巷７號","OBJECTID":380234},"geometry":{"x":167201.34000000078,"y":2542632.5600000024}},{"attributes":{"ID":380245,"DIS_CODE":0,"TOWNNAME":"南區","LI":"廣州里","LIN":"21鄰","STREET":"福吉四街","SECT":" ","MAREA":" ","LANE":"４７巷","ALLEY":" ","HOUSE_NO":"９號","E_COORD97":167198.23000000001,"N_COORD97":2542628.1200000001,"ADDRESS":"福吉四街４７巷９號","OBJECTID":380235},"geometry":{"x":167198.23000000045,"y":2542628.1200000029}},{"attributes":{"ID":380246,"DIS_CODE":0,"TOWNNAME":"南區","LI":"廣州里","LIN":"21鄰","STREET":"福吉五街","SECT":" ","MAREA":" ","LANE":"１６巷","ALLEY":" ","HOUSE_NO":"１號","E_COORD97":167237.82999999999,"N_COORD97":2542578.7999999998,"ADDRESS":"福吉五街１６巷１號","OBJECTID":380236},"geometry":{"x":167237.83000000007,"y":2542578.8000000045}},{"attributes":{"ID":380247,"DIS_CODE":0,"TOWNNAME":"南區","LI":"廣州里","LIN":"21鄰","STREET":"福吉五街","SECT":" ","MAREA":" ","LANE":"１６巷","ALLEY":" ","HOUSE_NO":"５號","E_COORD97":167242.89000000001,"N_COORD97":2542584.2799999998,"ADDRESS":"福吉五街１６巷５號","OBJECTID":380237},"geometry":{"x":167242.8900000006,"y":2542584.2800000031}},{"attributes":{"ID":380248,"DIS_CODE":0,"TOWNNAME":"南區","LI":"廣州里","LIN":"21鄰","STREET":"福吉五街","SECT":" ","MAREA":" ","LANE":"１６巷","ALLEY":" ","HOUSE_NO":"３號","E_COORD97":167240.35999999999,"N_COORD97":2542581.75,"ADDRESS":"福吉五街１６巷３號","OBJECTID":380238},"geometry":{"x":167240.36000000127,"y":2542581.7500000037}},{"attributes":{"ID":380249,"DIS_CODE":0,"TOWNNAME":"安南區","LI":"理想里","LIN":"21鄰","STREET":"同安路","SECT":" ","MAREA":" ","LANE":"８０巷","ALLEY":" ","HOUSE_NO":"１５３號","E_COORD97":167174.20000000001,"N_COORD97":2548803.6299999999,"ADDRESS":"同安路８０巷１５３號","OBJECTID":380239},"geometry":{"x":167174.20000000019,"y":2548803.6300000008}},{"attributes":{"ID":380250,"DIS_CODE":0,"TOWNNAME":"安南區","LI":"理想里","LIN":"21鄰","STREET":"同安路","SECT":" ","MAREA":" ","LANE":"８０巷","ALLEY":" ","HOUSE_NO":"７６號","E_COORD97":167108.91,"N_COORD97":2548765.5299999998,"ADDRESS":"同安路８０巷７６號","OBJECTID":380240},"geometry":{"x":167108.91000000201,"y":2548765.5299999993}},{"attributes":{"ID":380251,"DIS_CODE":0,"TOWNNAME":"安南區","LI":"理想里","LIN":"21鄰","STREET":"大安街","SECT":" ","MAREA":" ","LANE":"４６１巷","ALLEY":" ","HOUSE_NO":"３９號","E_COORD97":167199.70000000001,"N_COORD97":2548702.1299999999,"ADDRESS":"大安街４６１巷３９號","OBJECTID":380241},"geometry":{"x":167199.70000000019,"y":2548702.1300000008}},{"attributes":{"ID":380252,"DIS_CODE":0,"TOWNNAME":"安南區","LI":"理想里","LIN":"21鄰","STREET":"大安街","SECT":" ","MAREA":" ","LANE":"４６１巷","ALLEY":" ","HOUSE_NO":"４１號","E_COORD97":167198.70000000001,"N_COORD97":2548697.46,"ADDRESS":"大安街４６１巷４１號","OBJECTID":380242},"geometry":{"x":167198.70000000112,"y":2548697.4600000046}},{"attributes":{"ID":380253,"DIS_CODE":0,"TOWNNAME":"安南區","LI":"理想里","LIN":"21鄰","STREET":"大安街","SECT":" ","MAREA":" ","LANE":"４６１巷","ALLEY":" ","HOUSE_NO":"４３號","E_COORD97":167195.53,"N_COORD97":2548693.9700000002,"ADDRESS":"大安街４６１巷４３號","OBJECTID":380243},"geometry":{"x":167195.53000000026,"y":2548693.9700000044}},{"attributes":{"ID":380254,"DIS_CODE":0,"TOWNNAME":"安南區","LI":"理想里","LIN":"21鄰","STREET":"大安街","SECT":" ","MAREA":" ","LANE":"４６１巷","ALLEY":" ","HOUSE_NO":"４５號","E_COORD97":167195.03,"N_COORD97":2548689.6400000001,"ADDRESS":"大安街４６１巷４５號","OBJECTID":380244},"geometry":{"x":167195.03000000119,"y":2548689.6400000025}},{"attributes":{"ID":380255,"DIS_CODE":0,"TOWNNAME":"安南區","LI":"理想里","LIN":"21鄰","STREET":"大安街","SECT":" ","MAREA":" ","LANE":"４６１巷","ALLEY":" ","HOUSE_NO":"４７號","E_COORD97":167192.94,"N_COORD97":2548686.1899999999,"ADDRESS":"大安街４６１巷４７號","OBJECTID":380245},"geometry":{"x":167192.94000000041,"y":2548686.1899999995}},{"attributes":{"ID":380256,"DIS_CODE":0,"TOWNNAME":"安南區","LI":"理想里","LIN":"21鄰","STREET":"大安街","SECT":" ","MAREA":" ","LANE":"４６１巷","ALLEY":" ","HOUSE_NO":"４９號","E_COORD97":167190.51000000001,"N_COORD97":2548681.7400000002,"ADDRESS":"大安街４６１巷４９號","OBJECTID":380246},"geometry":{"x":167190.50999999978,"y":2548681.7400000021}},{"attributes":{"ID":380257,"DIS_CODE":0,"TOWNNAME":"安南區","LI":"理想里","LIN":"21鄰","STREET":"大安街","SECT":" ","MAREA":" ","LANE":"４６１巷","ALLEY":" ","HOUSE_NO":"５１號","E_COORD97":167189.10999999999,"N_COORD97":2548677.2200000002,"ADDRESS":"大安街４６１巷５１號","OBJECTID":380247},"geometry":{"x":167189.1100000022,"y":2548677.2200000007}},{"attributes":{"ID":380258,"DIS_CODE":0,"TOWNNAME":"安南區","LI":"理想里","LIN":"21鄰","STREET":"大安街","SECT":" ","MAREA":" ","LANE":"４６１巷","ALLEY":" ","HOUSE_NO":"５３號","E_COORD97":167187.01999999999,"N_COORD97":2548673.9100000001,"ADDRESS":"大安街４６１巷５３號","OBJECTID":380248},"geometry":{"x":167187.01999999862,"y":2548673.910000002}},{"attributes":{"ID":380259,"DIS_CODE":0,"TOWNNAME":"安南區","LI":"理想里","LIN":"21鄰","STREET":"大安街","SECT":" ","MAREA":" ","LANE":"４６１巷","ALLEY":" ","HOUSE_NO":"５５號","E_COORD97":167184.76000000001,"N_COORD97":2548670.2599999998,"ADDRESS":"大安街４６１巷５５號","OBJECTID":380249},"geometry":{"x":167184.76000000071,"y":2548670.2599999979}},{"attributes":{"ID":380260,"DIS_CODE":0,"TOWNNAME":"安南區","LI":"理想里","LIN":"21鄰","STREET":"大安街","SECT":" ","MAREA":" ","LANE":"４６１巷","ALLEY":" ","HOUSE_NO":"５７號","E_COORD97":167183.89000000001,"N_COORD97":2548666.2599999998,"ADDRESS":"大安街４６１巷５７號","OBJECTID":380250},"geometry":{"x":167183.88999999966,"y":2548666.2599999998}},{"attributes":{"ID":380261,"DIS_CODE":0,"TOWNNAME":"安南區","LI":"理想里","LIN":"21鄰","STREET":"同安路","SECT":" ","MAREA":" ","LANE":"８０巷","ALLEY":" ","HOUSE_NO":"１０１號","E_COORD97":167144.26000000001,"N_COORD97":2548771.8100000001,"ADDRESS":"同安路８０巷１０１號","OBJECTID":380251},"geometry":{"x":167144.25999999978,"y":2548771.8100000005}},{"attributes":{"ID":380262,"DIS_CODE":0,"TOWNNAME":"安南區","LI":"理想里","LIN":"21鄰","STREET":"同安路","SECT":" ","MAREA":" ","LANE":"８０巷","ALLEY":" ","HOUSE_NO":"１０３號","E_COORD97":167146.85000000001,"N_COORD97":2548767.3100000001,"ADDRESS":"同安路８０巷１０３號","OBJECTID":380252},"geometry":{"x":167146.84999999963,"y":2548767.3100000024}},{"attributes":{"ID":380263,"DIS_CODE":0,"TOWNNAME":"安南區","LI":"理想里","LIN":"21鄰","STREET":"同安路","SECT":" ","MAREA":" ","LANE":"８０巷","ALLEY":" ","HOUSE_NO":"１０５號","E_COORD97":167150.31,"N_COORD97":2548765.5800000001,"ADDRESS":"同安路８０巷１０５號","OBJECTID":380253},"geometry":{"x":167150.31000000052,"y":2548765.5800000001}},{"attributes":{"ID":380264,"DIS_CODE":0,"TOWNNAME":"安南區","LI":"理想里","LIN":"21鄰","STREET":"同安路","SECT":" ","MAREA":" ","LANE":"８０巷","ALLEY":" ","HOUSE_NO":"１０７號","E_COORD97":167159.82999999999,"N_COORD97":2548780.1099999999,"ADDRESS":"同安路８０巷１０７號","OBJECTID":380254},"geometry":{"x":167159.83000000007,"y":2548780.1100000013}},{"attributes":{"ID":380265,"DIS_CODE":0,"TOWNNAME":"安南區","LI":"理想里","LIN":"21鄰","STREET":"同安路","SECT":" ","MAREA":" ","LANE":"８０巷","ALLEY":" ","HOUSE_NO":"１０７號地下層","E_COORD97":167164.85000000001,"N_COORD97":2548779.5899999999,"ADDRESS":"同安路８０巷１０７號地下層","OBJECTID":380255},"geometry":{"x":167164.85000000056,"y":2548779.5899999999}},{"attributes":{"ID":380266,"DIS_CODE":0,"TOWNNAME":"安南區","LI":"理想里","LIN":"21鄰","STREET":"同安路","SECT":" ","MAREA":" ","LANE":"８０巷","ALLEY":" ","HOUSE_NO":"１０９號","E_COORD97":167156.54999999999,"N_COORD97":2548782.3599999999,"ADDRESS":"同安路８０巷１０９號","OBJECTID":380256},"geometry":{"x":167156.54999999888,"y":2548782.3600000013}},{"attributes":{"ID":380267,"DIS_CODE":0,"TOWNNAME":"安南區","LI":"理想里","LIN":"21鄰","STREET":"同安路","SECT":" ","MAREA":" ","LANE":"８０巷","ALLEY":" ","HOUSE_NO":"１１１號","E_COORD97":167154.64000000001,"N_COORD97":2548787.3700000001,"ADDRESS":"同安路８０巷１１１號","OBJECTID":380257},"geometry":{"x":167154.6400000006,"y":2548787.3700000029}},{"attributes":{"ID":380268,"DIS_CODE":0,"TOWNNAME":"安南區","LI":"理想里","LIN":"21鄰","STREET":"同安路","SECT":" ","MAREA":" ","LANE":"８０巷","ALLEY":" ","HOUSE_NO":"１１３號","E_COORD97":167149.45000000001,"N_COORD97":2548788.9300000002,"ADDRESS":"同安路８０巷１１３號","OBJECTID":380258},"geometry":{"x":167149.45000000112,"y":2548788.9300000016}},{"attributes":{"ID":380269,"DIS_CODE":0,"TOWNNAME":"安南區","LI":"理想里","LIN":"21鄰","STREET":"同安路","SECT":" ","MAREA":" ","LANE":"８０巷","ALLEY":" ","HOUSE_NO":"１１５號","E_COORD97":167145.29000000001,"N_COORD97":2548791.52,"ADDRESS":"同安路８０巷１１５號","OBJECTID":380259},"geometry":{"x":167145.29000000097,"y":2548791.5200000014}},{"attributes":{"ID":380270,"DIS_CODE":0,"TOWNNAME":"安南區","LI":"理想里","LIN":"21鄰","STREET":"同安路","SECT":" ","MAREA":" ","LANE":"８０巷","ALLEY":" ","HOUSE_NO":"１１７號","E_COORD97":167140.97,"N_COORD97":2548794.29,"ADDRESS":"同安路８０巷１１７號","OBJECTID":380260},"geometry":{"x":167140.97000000067,"y":2548794.2899999991}},{"attributes":{"ID":380271,"DIS_CODE":0,"TOWNNAME":"安南區","LI":"理想里","LIN":"21鄰","STREET":"同安路","SECT":" ","MAREA":" ","LANE":"８０巷","ALLEY":" ","HOUSE_NO":"１１９號","E_COORD97":167126.28,"N_COORD97":2548800.73,"ADDRESS":"同安路８０巷１１９號","OBJECTID":380261},"geometry":{"x":167126.28000000026,"y":2548800.7300000023}},{"attributes":{"ID":380272,"DIS_CODE":0,"TOWNNAME":"安南區","LI":"理想里","LIN":"21鄰","STREET":"大安街","SECT":" ","MAREA":" ","LANE":"４６１巷","ALLEY":" ","HOUSE_NO":"４６號之３６","E_COORD97":167096.65975200001,"N_COORD97":2548604.9507399998,"ADDRESS":"大安街４６１巷４６號之３６","OBJECTID":380262},"geometry":{"x":167096.65975200012,"y":2548604.9507429991}},{"attributes":{"ID":380273,"DIS_CODE":0,"TOWNNAME":"安南區","LI":"理想里","LIN":"21鄰","STREET":"大安街","SECT":" ","MAREA":" ","LANE":"４６１巷","ALLEY":" ","HOUSE_NO":"４６號之３３","E_COORD97":167103.86482300001,"N_COORD97":2548613.8407399999,"ADDRESS":"大安街４６１巷４６號之３３","OBJECTID":380263},"geometry":{"x":167103.86482299957,"y":2548613.8407390025}},{"attributes":{"ID":380274,"DIS_CODE":0,"TOWNNAME":"安南區","LI":"理想里","LIN":"21鄰","STREET":"大安街","SECT":" ","MAREA":" ","LANE":"４６１巷","ALLEY":" ","HOUSE_NO":"４６號之３２","E_COORD97":167110.85797899999,"N_COORD97":2548619.7673999998,"ADDRESS":"大安街４６１巷４６號之３２","OBJECTID":380264},"geometry":{"x":167110.85797900055,"y":2548619.7674020026}},{"attributes":{"ID":380275,"DIS_CODE":0,"TOWNNAME":"安南區","LI":"理想里","LIN":"21鄰","STREET":"大安街","SECT":" ","MAREA":" ","LANE":"４６１巷","ALLEY":" ","HOUSE_NO":"４６號之３１","E_COORD97":167118.27496400001,"N_COORD97":2548627.81073,"ADDRESS":"大安街４６１巷４６號之３１","OBJECTID":380265},"geometry":{"x":167118.2749640001,"y":2548627.8107310012}},{"attributes":{"ID":380276,"DIS_CODE":0,"TOWNNAME":"安南區","LI":"理想里","LIN":"21鄰","STREET":"大安街","SECT":" ","MAREA":" ","LANE":"４６１巷","ALLEY":" ","HOUSE_NO":"４６號之２８","E_COORD97":167133.74467399999,"N_COORD97":2548648.9773900001,"ADDRESS":"大安街４６１巷４６號之２８","OBJECTID":380266},"geometry":{"x":167133.74467399996,"y":2548648.9773860034}},{"attributes":{"ID":380277,"DIS_CODE":0,"TOWNNAME":"安南區","LI":"理想里","LIN":"21鄰","STREET":"大安街","SECT":" ","MAREA":" ","LANE":"４６１巷","ALLEY":" ","HOUSE_NO":"４６號之２７","E_COORD97":167139.89017500001,"N_COORD97":2548661.8890499999,"ADDRESS":"大安街４６１巷４６號之２７","OBJECTID":380267},"geometry":{"x":167139.8901749989,"y":2548661.8890460022}},{"attributes":{"ID":380278,"DIS_CODE":0,"TOWNNAME":"安南區","LI":"理想里","LIN":"21鄰","STREET":"大安街","SECT":" ","MAREA":" ","LANE":"４６１巷","ALLEY":" ","HOUSE_NO":"４６號之２６","E_COORD97":167145.82376299999,"N_COORD97":2548673.1073699999,"ADDRESS":"大安街４６１巷４６號之２６","OBJECTID":380268},"geometry":{"x":167145.82376300078,"y":2548673.1073729992}},{"attributes":{"ID":380279,"DIS_CODE":0,"TOWNNAME":"安南區","LI":"理想里","LIN":"21鄰","STREET":"同安路","SECT":" ","MAREA":" ","LANE":"８０巷","ALLEY":" ","HOUSE_NO":"１２１號","E_COORD97":167130.42999999999,"N_COORD97":2548803.1499999999,"ADDRESS":"同安路８０巷１２１號","OBJECTID":380269},"geometry":{"x":167130.43000000063,"y":2548803.1500000004}},{"attributes":{"ID":380280,"DIS_CODE":0,"TOWNNAME":"安南區","LI":"理想里","LIN":"21鄰","STREET":"同安路","SECT":" ","MAREA":" ","LANE":"８０巷","ALLEY":" ","HOUSE_NO":"１２３號","E_COORD97":167132.17000000001,"N_COORD97":2548806.9500000002,"ADDRESS":"同安路８０巷１２３號","OBJECTID":380270},"geometry":{"x":167132.17000000179,"y":2548806.9499999993}},{"attributes":{"ID":380281,"DIS_CODE":0,"TOWNNAME":"安南區","LI":"理想里","LIN":"21鄰","STREET":"同安路","SECT":" ","MAREA":" ","LANE":"８０巷","ALLEY":" ","HOUSE_NO":"１２５號","E_COORD97":167134.59,"N_COORD97":2548810.5899999999,"ADDRESS":"同安路８０巷１２５號","OBJECTID":380271},"geometry":{"x":167134.59000000078,"y":2548810.5900000036}},{"attributes":{"ID":380282,"DIS_CODE":0,"TOWNNAME":"安南區","LI":"理想里","LIN":"21鄰","STREET":"同安路","SECT":" ","MAREA":" ","LANE":"８０巷","ALLEY":" ","HOUSE_NO":"１２７號","E_COORD97":167137.88,"N_COORD97":2548813.7000000002,"ADDRESS":"同安路８０巷１２７號","OBJECTID":380272},"geometry":{"x":167137.88000000082,"y":2548813.7000000011}},{"attributes":{"ID":380283,"DIS_CODE":0,"TOWNNAME":"安南區","LI":"理想里","LIN":"21鄰","STREET":"同安路","SECT":" ","MAREA":" ","LANE":"８０巷","ALLEY":" ","HOUSE_NO":"１２９號","E_COORD97":167138.73999999999,"N_COORD97":2548817.1600000001,"ADDRESS":"同安路８０巷１２９號","OBJECTID":380273},"geometry":{"x":167138.73999999929,"y":2548817.1599999983}},{"attributes":{"ID":380284,"DIS_CODE":0,"TOWNNAME":"安南區","LI":"理想里","LIN":"21鄰","STREET":"同安路","SECT":" ","MAREA":" ","LANE":"８０巷","ALLEY":" ","HOUSE_NO":"１３１號","E_COORD97":167141.34,"N_COORD97":2548820.79,"ADDRESS":"同安路８０巷１３１號","OBJECTID":380274},"geometry":{"x":167141.34000000078,"y":2548820.7899999991}},{"attributes":{"ID":380285,"DIS_CODE":0,"TOWNNAME":"安南區","LI":"理想里","LIN":"21鄰","STREET":"同安路","SECT":" ","MAREA":" ","LANE":"８０巷","ALLEY":" ","HOUSE_NO":"１３３號","E_COORD97":167144.45999999999,"N_COORD97":2548823.8999999999,"ADDRESS":"同安路８０巷１３３號","OBJECTID":380275},"geometry":{"x":167144.46000000089,"y":2548823.9000000022}},{"attributes":{"ID":380286,"DIS_CODE":0,"TOWNNAME":"安南區","LI":"理想里","LIN":"21鄰","STREET":"同安路","SECT":" ","MAREA":" ","LANE":"８０巷","ALLEY":" ","HOUSE_NO":"１３５號","E_COORD97":167146.70999999999,"N_COORD97":2548826.6699999999,"ADDRESS":"同安路８０巷１３５號","OBJECTID":380276},"geometry":{"x":167146.70999999996,"y":2548826.6699999999}},{"attributes":{"ID":380287,"DIS_CODE":0,"TOWNNAME":"安南區","LI":"理想里","LIN":"21鄰","STREET":"同安路","SECT":" ","MAREA":" ","LANE":"８０巷","ALLEY":" ","HOUSE_NO":"１３７號","E_COORD97":167149.29999999999,"N_COORD97":2548829.7799999998,"ADDRESS":"同安路８０巷１３７號","OBJECTID":380277},"geometry":{"x":167149.29999999981,"y":2548829.7800000012}},{"attributes":{"ID":380288,"DIS_CODE":0,"TOWNNAME":"安南區","LI":"理想里","LIN":"21鄰","STREET":"同安路","SECT":" ","MAREA":" ","LANE":"８０巷","ALLEY":" ","HOUSE_NO":"１３９號","E_COORD97":167151.72,"N_COORD97":2548834.2799999998,"ADDRESS":"同安路８０巷１３９號","OBJECTID":380278},"geometry":{"x":167151.71999999974,"y":2548834.2800000012}},{"attributes":{"ID":380289,"DIS_CODE":0,"TOWNNAME":"安南區","LI":"理想里","LIN":"21鄰","STREET":"同安路","SECT":" ","MAREA":" ","LANE":"８０巷","ALLEY":" ","HOUSE_NO":"１４１號","E_COORD97":167154.84,"N_COORD97":2548837.5699999998,"ADDRESS":"同安路８０巷１４１號","OBJECTID":380279},"geometry":{"x":167154.84000000171,"y":2548837.5700000003}},{"attributes":{"ID":380290,"DIS_CODE":0,"TOWNNAME":"仁德區","LI":"二行里","LIN":"21鄰","STREET":"二行一路","SECT":" ","MAREA":" ","LANE":"７１巷","ALLEY":" ","HOUSE_NO":"８號","E_COORD97":170377.03,"N_COORD97":2535326.5,"ADDRESS":"二行一路７１巷８號","OBJECTID":380280},"geometry":{"x":170377.03000000119,"y":2535326.5}},{"attributes":{"ID":380291,"DIS_CODE":0,"TOWNNAME":"安南區","LI":"理想里","LIN":"21鄰","STREET":"同安路","SECT":" ","MAREA":" ","LANE":"８０巷","ALLEY":" ","HOUSE_NO":"１４３號","E_COORD97":167169.54999999999,"N_COORD97":2548826.6800000002,"ADDRESS":"同安路８０巷１４３號","OBJECTID":380281},"geometry":{"x":167169.54999999981,"y":2548826.6799999978}},{"attributes":{"ID":380292,"DIS_CODE":0,"TOWNNAME":"安南區","LI":"理想里","LIN":"21鄰","STREET":"同安路","SECT":" ","MAREA":" ","LANE":"８０巷","ALLEY":" ","HOUSE_NO":"１４５號","E_COORD97":167165.75,"N_COORD97":2548822.5299999998,"ADDRESS":"同安路８０巷１４５號","OBJECTID":380282},"geometry":{"x":167165.75000000186,"y":2548822.5299999993}},{"attributes":{"ID":380293,"DIS_CODE":0,"TOWNNAME":"安南區","LI":"理想里","LIN":"21鄰","STREET":"同安路","SECT":" ","MAREA":" ","LANE":"８０巷","ALLEY":" ","HOUSE_NO":"１４７號","E_COORD97":167158.28,"N_COORD97":2548814.5299999998,"ADDRESS":"同安路８０巷１４７號","OBJECTID":380283},"geometry":{"x":167158.28000000026,"y":2548814.5300000012}},{"attributes":{"ID":380294,"DIS_CODE":0,"TOWNNAME":"安南區","LI":"理想里","LIN":"21鄰","STREET":"同安路","SECT":" ","MAREA":" ","LANE":"８０巷","ALLEY":" ","HOUSE_NO":"１４９號","E_COORD97":167162.78,"N_COORD97":2548812.9700000002,"ADDRESS":"同安路８０巷１４９號","OBJECTID":380284},"geometry":{"x":167162.78000000119,"y":2548812.9700000025}},{"attributes":{"ID":380295,"DIS_CODE":0,"TOWNNAME":"安南區","LI":"理想里","LIN":"21鄰","STREET":"同安路","SECT":" ","MAREA":" ","LANE":"８０巷","ALLEY":" ","HOUSE_NO":"１５１號","E_COORD97":167167.97,"N_COORD97":2548807.2599999998,"ADDRESS":"同安路８０巷１５１號","OBJECTID":380285},"geometry":{"x":167167.97000000067,"y":2548807.2600000016}},{"attributes":{"ID":380296,"DIS_CODE":0,"TOWNNAME":"安南區","LI":"理想里","LIN":"21鄰","STREET":"同安路","SECT":" ","MAREA":" ","LANE":"８０巷","ALLEY":" ","HOUSE_NO":"１５５號","E_COORD97":167178.01000000001,"N_COORD97":2548801.5499999998,"ADDRESS":"同安路８０巷１５５號","OBJECTID":380286},"geometry":{"x":167178.01000000071,"y":2548801.5499999989}},{"attributes":{"ID":380297,"DIS_CODE":0,"TOWNNAME":"安南區","LI":"理想里","LIN":"21鄰","STREET":"同安路","SECT":" ","MAREA":" ","LANE":"８０巷","ALLEY":" ","HOUSE_NO":"１５７號","E_COORD97":167179.76999999999,"N_COORD97":2548813.3599999999,"ADDRESS":"同安路８０巷１５７號","OBJECTID":380287},"geometry":{"x":167179.76999999955,"y":2548813.3600000013}},{"attributes":{"ID":380298,"DIS_CODE":0,"TOWNNAME":"安南區","LI":"理想里","LIN":"21鄰","STREET":"同安路","SECT":" ","MAREA":" ","LANE":"８０巷","ALLEY":" ","HOUSE_NO":"１５９號","E_COORD97":167182.35999999999,"N_COORD97":2548816.8199999998,"ADDRESS":"同安路８０巷１５９號","OBJECTID":380288},"geometry":{"x":167182.3600000022,"y":2548816.8200000022}},{"attributes":{"ID":380299,"DIS_CODE":0,"TOWNNAME":"安南區","LI":"理想里","LIN":"21鄰","STREET":"同安路","SECT":" ","MAREA":" ","LANE":"８０巷","ALLEY":" ","HOUSE_NO":"１６１號","E_COORD97":167196.04000000001,"N_COORD97":2548806.0499999998,"ADDRESS":"同安路８０巷１６１號","OBJECTID":380289},"geometry":{"x":167196.0400000019,"y":2548806.0500000026}},{"attributes":{"ID":380300,"DIS_CODE":0,"TOWNNAME":"安南區","LI":"理想里","LIN":"21鄰","STREET":"同安路","SECT":" ","MAREA":" ","LANE":"８０巷","ALLEY":" ","HOUSE_NO":"１６３號","E_COORD97":167193.79000000001,"N_COORD97":2548802.4100000001,"ADDRESS":"同安路８０巷１６３號","OBJECTID":380290},"geometry":{"x":167193.79000000004,"y":2548802.410000002}},{"attributes":{"ID":380301,"DIS_CODE":0,"TOWNNAME":"安南區","LI":"理想里","LIN":"21鄰","STREET":"同安路","SECT":" ","MAREA":" ","LANE":"８０巷","ALLEY":" ","HOUSE_NO":"１６５號","E_COORD97":167191.70999999999,"N_COORD97":2548796.5299999998,"ADDRESS":"同安路８０巷１６５號","OBJECTID":380291},"geometry":{"x":167191.71000000089,"y":2548796.5299999993}},{"attributes":{"ID":380302,"DIS_CODE":0,"TOWNNAME":"安南區","LI":"理想里","LIN":"21鄰","STREET":"同安路","SECT":" ","MAREA":" ","LANE":"８０巷","ALLEY":" ","HOUSE_NO":"１６７號","E_COORD97":167188.25,"N_COORD97":2548793.5899999999,"ADDRESS":"同安路８０巷１６７號","OBJECTID":380292},"geometry":{"x":167188.25000000093,"y":2548793.589999998}},{"attributes":{"ID":380303,"DIS_CODE":0,"TOWNNAME":"安南區","LI":"理想里","LIN":"21鄰","STREET":"同安路","SECT":" ","MAREA":" ","LANE":"８０巷","ALLEY":" ","HOUSE_NO":"１６９號","E_COORD97":167187.54999999999,"N_COORD97":2548788.4100000001,"ADDRESS":"同安路８０巷１６９號","OBJECTID":380293},"geometry":{"x":167187.55000000075,"y":2548788.4100000039}},{"attributes":{"ID":380304,"DIS_CODE":0,"TOWNNAME":"安南區","LI":"理想里","LIN":"21鄰","STREET":"同安路","SECT":" ","MAREA":" ","LANE":"８０巷","ALLEY":" ","HOUSE_NO":"１７１號","E_COORD97":167184.09,"N_COORD97":2548784.77,"ADDRESS":"同安路８０巷１７１號","OBJECTID":380294},"geometry":{"x":167184.09000000078,"y":2548784.7699999996}},{"attributes":{"ID":380305,"DIS_CODE":0,"TOWNNAME":"安南區","LI":"理想里","LIN":"21鄰","STREET":"同安路","SECT":" ","MAREA":" ","LANE":"８０巷","ALLEY":" ","HOUSE_NO":"１７３號","E_COORD97":167181.84,"N_COORD97":2548780.4500000002,"ADDRESS":"同安路８０巷１７３號","OBJECTID":380295},"geometry":{"x":167181.84000000171,"y":2548780.450000003}},{"attributes":{"ID":380306,"DIS_CODE":0,"TOWNNAME":"安南區","LI":"理想里","LIN":"21鄰","STREET":"同安路","SECT":" ","MAREA":" ","LANE":"８０巷","ALLEY":" ","HOUSE_NO":"１７５號","E_COORD97":167180.45999999999,"N_COORD97":2548774.9100000001,"ADDRESS":"同安路８０巷１７５號","OBJECTID":380296},"geometry":{"x":167180.45999999996,"y":2548774.9100000039}},{"attributes":{"ID":380307,"DIS_CODE":0,"TOWNNAME":"安南區","LI":"理想里","LIN":"21鄰","STREET":"同安路","SECT":" ","MAREA":" ","LANE":"８０巷","ALLEY":" ","HOUSE_NO":"１７７號","E_COORD97":167176.29999999999,"N_COORD97":2548772.1499999999,"ADDRESS":"同安路８０巷１７７號","OBJECTID":380297},"geometry":{"x":167176.29999999981,"y":2548772.1500000004}},{"attributes":{"ID":380308,"DIS_CODE":0,"TOWNNAME":"安南區","LI":"理想里","LIN":"21鄰","STREET":"同安路","SECT":" ","MAREA":" ","LANE":"８０巷","ALLEY":" ","HOUSE_NO":"１７９號","E_COORD97":167174.75,"N_COORD97":2548766.96,"ADDRESS":"同安路８０巷１７９號","OBJECTID":380298},"geometry":{"x":167174.75000000093,"y":2548766.9600000009}},{"attributes":{"ID":380309,"DIS_CODE":0,"TOWNNAME":"安南區","LI":"理想里","LIN":"21鄰","STREET":"同安路","SECT":" ","MAREA":" ","LANE":"８０巷","ALLEY":" ","HOUSE_NO":"１８１號","E_COORD97":167160.35000000001,"N_COORD97":2548756.7599999998,"ADDRESS":"同安路８０巷１８１號","OBJECTID":380299},"geometry":{"x":167160.35000000056,"y":2548756.7600000016}},{"attributes":{"ID":380310,"DIS_CODE":0,"TOWNNAME":"安南區","LI":"理想里","LIN":"21鄰","STREET":"同安路","SECT":" ","MAREA":" ","LANE":"８０巷","ALLEY":" ","HOUSE_NO":"１８３號","E_COORD97":167164.32999999999,"N_COORD97":2548755.2000000002,"ADDRESS":"同安路８０巷１８３號","OBJECTID":380300},"geometry":{"x":167164.33000000101,"y":2548755.200000003}},{"attributes":{"ID":380311,"DIS_CODE":0,"TOWNNAME":"安南區","LI":"理想里","LIN":"21鄰","STREET":"同安路","SECT":" ","MAREA":" ","LANE":"８０巷","ALLEY":" ","HOUSE_NO":"１８５號","E_COORD97":167167.97,"N_COORD97":2548753.8199999998,"ADDRESS":"同安路８０巷１８５號","OBJECTID":380301},"geometry":{"x":167167.97000000067,"y":2548753.8200000003}},{"attributes":{"ID":380312,"DIS_CODE":0,"TOWNNAME":"安南區","LI":"理想里","LIN":"21鄰","STREET":"同安路","SECT":" ","MAREA":" ","LANE":"８０巷","ALLEY":" ","HOUSE_NO":"７２號","E_COORD97":167101.29999999999,"N_COORD97":2548768.79,"ADDRESS":"同安路８０巷７２號","OBJECTID":380302},"geometry":{"x":167101.30000000075,"y":2548768.790000001}},{"attributes":{"ID":380313,"DIS_CODE":0,"TOWNNAME":"永康區","LI":"西勢里","LIN":"21鄰","STREET":"富強路","SECT":"一段","MAREA":" ","LANE":"１４９巷","ALLEY":" ","HOUSE_NO":"３３號","E_COORD97":175477.76000000001,"N_COORD97":2546393.1499999999,"ADDRESS":"富強路一段１４９巷３３號","OBJECTID":380303},"geometry":{"x":175477.75999999978,"y":2546393.1500000004}},{"attributes":{"ID":380314,"DIS_CODE":0,"TOWNNAME":"永康區","LI":"西勢里","LIN":"21鄰","STREET":"富強路","SECT":"一段","MAREA":" ","LANE":"１４３巷","ALLEY":" ","HOUSE_NO":"３６號","E_COORD97":175477.03,"N_COORD97":2546365.21,"ADDRESS":"富強路一段１４３巷３６號","OBJECTID":380304},"geometry":{"x":175477.03000000026,"y":2546365.2100000009}},{"attributes":{"ID":380315,"DIS_CODE":0,"TOWNNAME":"永康區","LI":"西勢里","LIN":"21鄰","STREET":"富強路","SECT":"一段","MAREA":" ","LANE":"１５５巷","ALLEY":" ","HOUSE_NO":"１２號","E_COORD97":175547.51999999999,"N_COORD97":2546393.6200000001,"ADDRESS":"富強路一段１５５巷１２號","OBJECTID":380305},"geometry":{"x":175547.51999999955,"y":2546393.620000001}},{"attributes":{"ID":380316,"DIS_CODE":0,"TOWNNAME":"永康區","LI":"西勢里","LIN":"21鄰","STREET":"富強路","SECT":"一段","MAREA":" ","LANE":"９８巷","ALLEY":" ","HOUSE_NO":"３０號","E_COORD97":175540.28,"N_COORD97":2546113.5299999998,"ADDRESS":"富強路一段９８巷３０號","OBJECTID":380306},"geometry":{"x":175540.28000000119,"y":2546113.5299999993}},{"attributes":{"ID":380317,"DIS_CODE":0,"TOWNNAME":"永康區","LI":"西勢里","LIN":"21鄰","STREET":"富強路","SECT":"一段","MAREA":" ","LANE":"１４９巷","ALLEY":" ","HOUSE_NO":"１８號","E_COORD97":175525.59,"N_COORD97":2546368.9900000002,"ADDRESS":"富強路一段１４９巷１８號","OBJECTID":380307},"geometry":{"x":175525.59000000171,"y":2546368.9900000021}},{"attributes":{"ID":380318,"DIS_CODE":0,"TOWNNAME":"東區","LI":"新東里","LIN":"21鄰","STREET":"裕豐街","SECT":" ","MAREA":" ","LANE":"１６３巷","ALLEY":" ","HOUSE_NO":"２９號","E_COORD97":170611.39999999999,"N_COORD97":2543113.8199999998,"ADDRESS":"裕豐街１６３巷２９號","OBJECTID":380308},"geometry":{"x":170611.40000000224,"y":2543113.820000004}},{"attributes":{"ID":380319,"DIS_CODE":0,"TOWNNAME":"東區","LI":"富裕里","LIN":"21鄰","STREET":"裕豐街","SECT":" ","MAREA":" ","LANE":"４０巷","ALLEY":" ","HOUSE_NO":"２１號","E_COORD97":170777.97,"N_COORD97":2542740.9500000002,"ADDRESS":"裕豐街４０巷２１號","OBJECTID":380309},"geometry":{"x":170777.96999999881,"y":2542740.9499999993}},{"attributes":{"ID":380320,"DIS_CODE":0,"TOWNNAME":"東區","LI":"圍下里","LIN":"21鄰","STREET":"前鋒路","SECT":" ","MAREA":" ","LANE":"１１５巷","ALLEY":" ","HOUSE_NO":"２號","E_COORD97":169302.06,"N_COORD97":2543754.3999999999,"ADDRESS":"前鋒路１１５巷２號","OBJECTID":380310},"geometry":{"x":169302.05999999959,"y":2543754.4000000022}},{"attributes":{"ID":380321,"DIS_CODE":0,"TOWNNAME":"南區","LI":"鯤鯓里","LIN":"21鄰","STREET":"鯤鯓路","SECT":" ","MAREA":" ","LANE":"１８４巷","ALLEY":" ","HOUSE_NO":"６之１號","E_COORD97":164922.42999999999,"N_COORD97":2540267.6899999999,"ADDRESS":"鯤鯓路１８４巷６之１號","OBJECTID":380311},"geometry":{"x":164922.4299999997,"y":2540267.6899999995}},{"attributes":{"ID":380322,"DIS_CODE":0,"TOWNNAME":"南區","LI":"文南里","LIN":"21鄰","STREET":"中華西路","SECT":"一段","MAREA":" ","LANE":"１３７巷","ALLEY":" ","HOUSE_NO":"５２號","E_COORD97":166345.95999999999,"N_COORD97":2542493.1699999999,"ADDRESS":"中華西路一段１３７巷５２號","OBJECTID":380312},"geometry":{"x":166345.96000000089,"y":2542493.1699999999}},{"attributes":{"ID":380323,"DIS_CODE":0,"TOWNNAME":"安南區","LI":"幸福里","LIN":"21鄰","STREET":"府安路","SECT":"六段","MAREA":" ","LANE":"１０３巷","ALLEY":" ","HOUSE_NO":"１２２號","E_COORD97":166676.59,"N_COORD97":2546842.3700000001,"ADDRESS":"府安路六段１０３巷１２２號","OBJECTID":380313},"geometry":{"x":166676.58999999892,"y":2546842.370000001}},{"attributes":{"ID":380324,"DIS_CODE":0,"TOWNNAME":"安南區","LI":"幸福里","LIN":"21鄰","STREET":"府安路","SECT":"六段","MAREA":" ","LANE":"１０３巷","ALLEY":" ","HOUSE_NO":"１２４號","E_COORD97":166675.48999999999,"N_COORD97":2546849.75,"ADDRESS":"府安路六段１０３巷１２４號","OBJECTID":380314},"geometry":{"x":166675.49000000022,"y":2546849.75}},{"attributes":{"ID":380325,"DIS_CODE":0,"TOWNNAME":"安南區","LI":"幸福里","LIN":"21鄰","STREET":"府安路","SECT":"六段","MAREA":" ","LANE":"１０３巷","ALLEY":" ","HOUSE_NO":"１２６號","E_COORD97":166674.13,"N_COORD97":2546852.9700000002,"ADDRESS":"府安路六段１０３巷１２６號","OBJECTID":380315},"geometry":{"x":166674.12999999989,"y":2546852.9700000044}},{"attributes":{"ID":380326,"DIS_CODE":0,"TOWNNAME":"安南區","LI":"幸福里","LIN":"21鄰","STREET":"府安路","SECT":"六段","MAREA":" ","LANE":"１０３巷","ALLEY":" ","HOUSE_NO":"１２８號","E_COORD97":166673.35999999999,"N_COORD97":2546856.8300000001,"ADDRESS":"府安路六段１０３巷１２８號","OBJECTID":380316},"geometry":{"x":166673.36000000034,"y":2546856.8300000019}},{"attributes":{"ID":380327,"DIS_CODE":0,"TOWNNAME":"安南區","LI":"幸福里","LIN":"21鄰","STREET":"府安路","SECT":"六段","MAREA":" ","LANE":"１０３巷","ALLEY":" ","HOUSE_NO":"１３０號","E_COORD97":166673.01999999999,"N_COORD97":2546860.3900000001,"ADDRESS":"府安路六段１０３巷１３０號","OBJECTID":380317},"geometry":{"x":166673.01999999955,"y":2546860.3900000025}},{"attributes":{"ID":380328,"DIS_CODE":0,"TOWNNAME":"安南區","LI":"幸福里","LIN":"21鄰","STREET":"府安路","SECT":"六段","MAREA":" ","LANE":"１０３巷","ALLEY":" ","HOUSE_NO":"１３２號","E_COORD97":166671.48999999999,"N_COORD97":2546864.6299999999,"ADDRESS":"府安路六段１０３巷１３２號","OBJECTID":380318},"geometry":{"x":166671.49000000115,"y":2546864.6300000008}},{"attributes":{"ID":380329,"DIS_CODE":0,"TOWNNAME":"安南區","LI":"幸福里","LIN":"21鄰","STREET":"府安路","SECT":"六段","MAREA":" ","LANE":"１０３巷","ALLEY":" ","HOUSE_NO":"１３４號","E_COORD97":166671.48999999999,"N_COORD97":2546868.1099999999,"ADDRESS":"府安路六段１０３巷１３４號","OBJECTID":380319},"geometry":{"x":166671.49000000115,"y":2546868.1100000013}},{"attributes":{"ID":380330,"DIS_CODE":0,"TOWNNAME":"安南區","LI":"幸福里","LIN":"21鄰","STREET":"府安路","SECT":"六段","MAREA":" ","LANE":"１０３巷","ALLEY":" ","HOUSE_NO":"１３６號","E_COORD97":166670.22,"N_COORD97":2546871.6000000001,"ADDRESS":"府安路六段１０３巷１３６號","OBJECTID":380320},"geometry":{"x":166670.21999999974,"y":2546871.6000000015}},{"attributes":{"ID":380331,"DIS_CODE":0,"TOWNNAME":"安南區","LI":"幸福里","LIN":"21鄰","STREET":"府安路","SECT":"六段","MAREA":" ","LANE":"１０３巷","ALLEY":" ","HOUSE_NO":"１３８號","E_COORD97":166670.35000000001,"N_COORD97":2546875.7000000002,"ADDRESS":"府安路六段１０３巷１３８號","OBJECTID":380321},"geometry":{"x":166670.35000000056,"y":2546875.6999999993}},{"attributes":{"ID":380332,"DIS_CODE":0,"TOWNNAME":"安南區","LI":"幸福里","LIN":"21鄰","STREET":"府安路","SECT":"六段","MAREA":" ","LANE":"１０３巷","ALLEY":" ","HOUSE_NO":"１４４號","E_COORD97":166665.56,"N_COORD97":2546895.6400000001,"ADDRESS":"府安路六段１０３巷１４４號","OBJECTID":380322},"geometry":{"x":166665.56000000052,"y":2546895.6400000043}},{"attributes":{"ID":380333,"DIS_CODE":0,"TOWNNAME":"安南區","LI":"梅花里","LIN":"21鄰","STREET":"同安路","SECT":" ","MAREA":" ","LANE":"２６２巷","ALLEY":" ","HOUSE_NO":"９號","E_COORD97":167206.85000000001,"N_COORD97":2549123.7000000002,"ADDRESS":"同安路２６２巷９號","OBJECTID":380323},"geometry":{"x":167206.8499999987,"y":2549123.6999999993}},{"attributes":{"ID":380334,"DIS_CODE":0,"TOWNNAME":"安南區","LI":"幸福里","LIN":"21鄰","STREET":"國安街","SECT":" ","MAREA":" ","LANE":"１７３巷","ALLEY":" ","HOUSE_NO":"４號","E_COORD97":166700.95999999999,"N_COORD97":2546926.1499999999,"ADDRESS":"國安街１７３巷４號","OBJECTID":380324},"geometry":{"x":166700.95999999996,"y":2546926.1500000022}},{"attributes":{"ID":380335,"DIS_CODE":0,"TOWNNAME":"善化區","LI":"小新里","LIN":"21鄰","STREET":"成功路","SECT":" ","MAREA":" ","LANE":"３巷","ALLEY":" ","HOUSE_NO":"３７號","E_COORD97":180126.62,"N_COORD97":2558419.5,"ADDRESS":"成功路３巷３７號","OBJECTID":380325},"geometry":{"x":180126.62000000104,"y":2558419.5}},{"attributes":{"ID":380336,"DIS_CODE":0,"TOWNNAME":"善化區","LI":"文昌里","LIN":"21鄰","STREET":"中正路","SECT":" ","MAREA":" ","LANE":"１０７巷","ALLEY":" ","HOUSE_NO":"７７之１號","E_COORD97":177587.25,"N_COORD97":2557818.77,"ADDRESS":"中正路１０７巷７７之１號","OBJECTID":380326},"geometry":{"x":177587.25,"y":2557818.7700000014}},{"attributes":{"ID":380337,"DIS_CODE":0,"TOWNNAME":"善化區","LI":"文昌里","LIN":"21鄰","STREET":"中正路","SECT":" ","MAREA":" ","LANE":"１８８巷","ALLEY":" ","HOUSE_NO":"１１號","E_COORD97":177800.06,"N_COORD97":2558204.75,"ADDRESS":"中正路１８８巷１１號","OBJECTID":380327},"geometry":{"x":177800.05999999959,"y":2558204.7500000037}},{"attributes":{"ID":380338,"DIS_CODE":0,"TOWNNAME":"善化區","LI":"文昌里","LIN":"21鄰","STREET":"中正路","SECT":" ","MAREA":" ","LANE":"１８８巷","ALLEY":" ","HOUSE_NO":"６號","E_COORD97":177772.89999999999,"N_COORD97":2558202.25,"ADDRESS":"中正路１８８巷６號","OBJECTID":380328},"geometry":{"x":177772.90000000037,"y":2558202.2500000019}},{"attributes":{"ID":380339,"DIS_CODE":0,"TOWNNAME":"善化區","LI":"胡厝里","LIN":"21鄰","STREET":"興農路","SECT":" ","MAREA":" ","LANE":"３６１巷","ALLEY":" ","HOUSE_NO":"５號","E_COORD97":175466.47,"N_COORD97":2558985.5099999998,"ADDRESS":"興農路３６１巷５號","OBJECTID":380329},"geometry":{"x":175466.46999999974,"y":2558985.5099999979}},{"attributes":{"ID":380340,"DIS_CODE":0,"TOWNNAME":"善化區","LI":"小新里","LIN":"21鄰","STREET":"成功路","SECT":" ","MAREA":" ","LANE":"３巷","ALLEY":" ","HOUSE_NO":"２３號","E_COORD97":180143.54000000001,"N_COORD97":2558445.25,"ADDRESS":"成功路３巷２３號","OBJECTID":380330},"geometry":{"x":180143.54000000004,"y":2558445.2500000037}},{"attributes":{"ID":380341,"DIS_CODE":0,"TOWNNAME":"善化區","LI":"小新里","LIN":"21鄰","STREET":"成功路","SECT":" ","MAREA":" ","LANE":"３巷","ALLEY":" ","HOUSE_NO":"１１號","E_COORD97":180157.37,"N_COORD97":2558466.25,"ADDRESS":"成功路３巷１１號","OBJECTID":380331},"geometry":{"x":180157.37000000104,"y":2558466.2500000019}},{"attributes":{"ID":380342,"DIS_CODE":0,"TOWNNAME":"善化區","LI":"小新里","LIN":"21鄰","STREET":"成功路","SECT":" ","MAREA":" ","LANE":"３巷","ALLEY":" ","HOUSE_NO":"３３號","E_COORD97":180130.95999999999,"N_COORD97":2558426.25,"ADDRESS":"成功路３巷３３號","OBJECTID":380332},"geometry":{"x":180130.96000000089,"y":2558426.2500000019}},{"attributes":{"ID":380343,"DIS_CODE":0,"TOWNNAME":"善化區","LI":"小新里","LIN":"21鄰","STREET":"成功路","SECT":" ","MAREA":" ","LANE":"３巷","ALLEY":" ","HOUSE_NO":"１５號","E_COORD97":180152.51000000001,"N_COORD97":2558458.75,"ADDRESS":"成功路３巷１５號","OBJECTID":380333},"geometry":{"x":180152.51000000071,"y":2558458.7500000037}},{"attributes":{"ID":380344,"DIS_CODE":0,"TOWNNAME":"善化區","LI":"坐駕里","LIN":"14鄰","STREET":"大成路","SECT":" ","MAREA":" ","LANE":"３６７巷","ALLEY":" ","HOUSE_NO":"４８號","E_COORD97":178249.01999999999,"N_COORD97":2558611.5,"ADDRESS":"大成路３６７巷４８號","OBJECTID":380334},"geometry":{"x":178249.02000000048,"y":2558611.5}},{"attributes":{"ID":380345,"DIS_CODE":0,"TOWNNAME":"善化區","LI":"小新里","LIN":"21鄰","STREET":"成功路","SECT":" ","MAREA":" ","LANE":"３巷","ALLEY":" ","HOUSE_NO":"３１號","E_COORD97":180133.54000000001,"N_COORD97":2558430,"ADDRESS":"成功路３巷３１號","OBJECTID":380335},"geometry":{"x":180133.53999999911,"y":2558430.0000000037}},{"attributes":{"ID":380346,"DIS_CODE":0,"TOWNNAME":"善化區","LI":"小新里","LIN":"21鄰","STREET":"成功路","SECT":" ","MAREA":" ","LANE":"３巷","ALLEY":" ","HOUSE_NO":"３９號","E_COORD97":180123.95000000001,"N_COORD97":2558416,"ADDRESS":"成功路３巷３９號","OBJECTID":380336},"geometry":{"x":180123.95000000019,"y":2558416}},{"attributes":{"ID":380347,"DIS_CODE":0,"TOWNNAME":"善化區","LI":"小新里","LIN":"21鄰","STREET":"成功路","SECT":" ","MAREA":" ","LANE":"３巷","ALLEY":" ","HOUSE_NO":"２９號","E_COORD97":180135.38,"N_COORD97":2558433.5,"ADDRESS":"成功路３巷２９號","OBJECTID":380337},"geometry":{"x":180135.38000000082,"y":2558433.5000000037}},{"attributes":{"ID":380348,"DIS_CODE":0,"TOWNNAME":"善化區","LI":"文昌里","LIN":"21鄰","STREET":"中正路","SECT":" ","MAREA":" ","LANE":"１５３巷","ALLEY":" ","HOUSE_NO":"６２號之１","E_COORD97":177625.26000000001,"N_COORD97":2557981.77,"ADDRESS":"中正路１５３巷６２號之１","OBJECTID":380338},"geometry":{"x":177625.26000000071,"y":2557981.7700000014}},{"attributes":{"ID":380349,"DIS_CODE":0,"TOWNNAME":"善化區","LI":"小新里","LIN":"21鄰","STREET":"成功路","SECT":" ","MAREA":" ","LANE":"３巷","ALLEY":" ","HOUSE_NO":"３５號","E_COORD97":180128.47,"N_COORD97":2558422.75,"ADDRESS":"成功路３巷３５號","OBJECTID":380339},"geometry":{"x":180128.46999999974,"y":2558422.7500000019}},{"attributes":{"ID":380350,"DIS_CODE":0,"TOWNNAME":"善化區","LI":"文昌里","LIN":"21鄰","STREET":"中正路","SECT":" ","MAREA":" ","LANE":"３１巷","ALLEY":" ","HOUSE_NO":"１０號","E_COORD97":177623.34,"N_COORD97":2557642.9900000002,"ADDRESS":"中正路３１巷１０號","OBJECTID":380340},"geometry":{"x":177623.34000000078,"y":2557642.9900000002}},{"attributes":{"ID":380351,"DIS_CODE":0,"TOWNNAME":"善化區","LI":"文昌里","LIN":"21鄰","STREET":"中正路","SECT":" ","MAREA":" ","LANE":"１８８巷","ALLEY":" ","HOUSE_NO":"８號","E_COORD97":177783.35999999999,"N_COORD97":2558204.5,"ADDRESS":"中正路１８８巷８號","OBJECTID":380341},"geometry":{"x":177783.36000000034,"y":2558204.5000000019}},{"attributes":{"ID":380352,"DIS_CODE":0,"TOWNNAME":"善化區","LI":"文昌里","LIN":"21鄰","STREET":"中正路","SECT":" ","MAREA":" ","LANE":"１８８巷","ALLEY":" ","HOUSE_NO":"１２號","E_COORD97":177805.31,"N_COORD97":2558205.75,"ADDRESS":"中正路１８８巷１２號","OBJECTID":380342},"geometry":{"x":177805.30999999959,"y":2558205.7500000019}},{"attributes":{"ID":380353,"DIS_CODE":0,"TOWNNAME":"善化區","LI":"文昌里","LIN":"21鄰","STREET":"中正路","SECT":" ","MAREA":" ","LANE":"２２３巷","ALLEY":" ","HOUSE_NO":"７５號","E_COORD97":177205.82999999999,"N_COORD97":2558073.25,"ADDRESS":"中正路２２３巷７５號","OBJECTID":380343},"geometry":{"x":177205.83000000194,"y":2558073.2500000019}},{"attributes":{"ID":380354,"DIS_CODE":0,"TOWNNAME":"善化區","LI":"文昌里","LIN":"21鄰","STREET":"中正路","SECT":" ","MAREA":" ","LANE":"１８８巷","ALLEY":" ","HOUSE_NO":"７號","E_COORD97":177778.31,"N_COORD97":2558202.25,"ADDRESS":"中正路１８８巷７號","OBJECTID":380344},"geometry":{"x":177778.30999999866,"y":2558202.2500000019}},{"attributes":{"ID":380355,"DIS_CODE":0,"TOWNNAME":"善化區","LI":"文昌里","LIN":"21鄰","STREET":"中正路","SECT":" ","MAREA":" ","LANE":"３１巷","ALLEY":" ","HOUSE_NO":"３０號","E_COORD97":177514.23000000001,"N_COORD97":2557663.25,"ADDRESS":"中正路３１巷３０號","OBJECTID":380345},"geometry":{"x":177514.23000000138,"y":2557663.2500000019}},{"attributes":{"ID":380356,"DIS_CODE":0,"TOWNNAME":"善化區","LI":"文昌里","LIN":"21鄰","STREET":"中正路","SECT":" ","MAREA":" ","LANE":"１８８巷","ALLEY":" ","HOUSE_NO":"１３號","E_COORD97":177811.19,"N_COORD97":2558210,"ADDRESS":"中正路１８８巷１３號","OBJECTID":380346},"geometry":{"x":177811.19000000134,"y":2558210.0000000019}},{"attributes":{"ID":380357,"DIS_CODE":0,"TOWNNAME":"善化區","LI":"文昌里","LIN":"21鄰","STREET":"中正路","SECT":" ","MAREA":" ","LANE":"３１巷","ALLEY":" ","HOUSE_NO":"６號","E_COORD97":177654.22,"N_COORD97":2557655.25,"ADDRESS":"中正路３１巷６號","OBJECTID":380347},"geometry":{"x":177654.22000000067,"y":2557655.2500000037}},{"attributes":{"ID":380358,"DIS_CODE":0,"TOWNNAME":"安南區","LI":"安順里","LIN":"21鄰","STREET":"育安三街","SECT":" ","MAREA":" ","LANE":"２１６巷","ALLEY":" ","HOUSE_NO":"７號","E_COORD97":169466.10000000001,"N_COORD97":2550159.1200000001,"ADDRESS":"育安三街２１６巷７號","OBJECTID":380348},"geometry":{"x":169466.09999999963,"y":2550159.1200000029}},{"attributes":{"ID":380359,"DIS_CODE":0,"TOWNNAME":"安南區","LI":"安順里","LIN":"21鄰","STREET":"育安三街","SECT":" ","MAREA":" ","LANE":"２１６巷","ALLEY":" ","HOUSE_NO":"８號","E_COORD97":169460.98999999999,"N_COORD97":2550147.2999999998,"ADDRESS":"育安三街２１６巷８號","OBJECTID":380349},"geometry":{"x":169460.99000000022,"y":2550147.3000000026}},{"attributes":{"ID":380360,"DIS_CODE":0,"TOWNNAME":"安南區","LI":"安順里","LIN":"21鄰","STREET":"育安三街","SECT":" ","MAREA":" ","LANE":"２１６巷","ALLEY":" ","HOUSE_NO":"９號","E_COORD97":169471.06,"N_COORD97":2550158.6400000001,"ADDRESS":"育安三街２１６巷９號","OBJECTID":380350},"geometry":{"x":169471.06000000052,"y":2550158.6400000025}},{"attributes":{"ID":380361,"DIS_CODE":0,"TOWNNAME":"安南區","LI":"安順里","LIN":"21鄰","STREET":"育安三街","SECT":" ","MAREA":" ","LANE":"２１６巷","ALLEY":" ","HOUSE_NO":"１０號","E_COORD97":169464.98000000001,"N_COORD97":2550147.1400000001,"ADDRESS":"育安三街２１６巷１０號","OBJECTID":380351},"geometry":{"x":169464.98000000231,"y":2550147.1400000043}},{"attributes":{"ID":380362,"DIS_CODE":0,"TOWNNAME":"安南區","LI":"安順里","LIN":"21鄰","STREET":"育安三街","SECT":" ","MAREA":" ","LANE":"２１６巷","ALLEY":" ","HOUSE_NO":"１１號","E_COORD97":169475.85999999999,"N_COORD97":2550158.6400000001,"ADDRESS":"育安三街２１６巷１１號","OBJECTID":380352},"geometry":{"x":169475.8600000022,"y":2550158.6400000025}},{"attributes":{"ID":380363,"DIS_CODE":0,"TOWNNAME":"安南區","LI":"安順里","LIN":"21鄰","STREET":"育安三街","SECT":" ","MAREA":" ","LANE":"２１６巷","ALLEY":" ","HOUSE_NO":"１２號","E_COORD97":169469.94,"N_COORD97":2550146.98,"ADDRESS":"育安三街２１６巷１２號","OBJECTID":380353},"geometry":{"x":169469.94000000041,"y":2550146.9800000004}},{"attributes":{"ID":380364,"DIS_CODE":0,"TOWNNAME":"安南區","LI":"安順里","LIN":"21鄰","STREET":"育安三街","SECT":" ","MAREA":" ","LANE":"２１６巷","ALLEY":" ","HOUSE_NO":"１３號","E_COORD97":169480.81,"N_COORD97":2550158.48,"ADDRESS":"育安三街２１６巷１３號","OBJECTID":380354},"geometry":{"x":169480.81000000052,"y":2550158.4800000023}},{"attributes":{"ID":380365,"DIS_CODE":0,"TOWNNAME":"安南區","LI":"安順里","LIN":"21鄰","STREET":"育安三街","SECT":" ","MAREA":" ","LANE":"２１６巷","ALLEY":" ","HOUSE_NO":"１４號","E_COORD97":169474.57999999999,"N_COORD97":2550147.2999999998,"ADDRESS":"育安三街２１６巷１４號","OBJECTID":380355},"geometry":{"x":169474.58000000101,"y":2550147.3000000026}},{"attributes":{"ID":380366,"DIS_CODE":0,"TOWNNAME":"安南區","LI":"安順里","LIN":"21鄰","STREET":"育安三街","SECT":" ","MAREA":" ","LANE":"２１６巷","ALLEY":" ","HOUSE_NO":"１６號","E_COORD97":169479.06,"N_COORD97":2550146.98,"ADDRESS":"育安三街２１６巷１６號","OBJECTID":380356},"geometry":{"x":169479.06000000052,"y":2550146.9800000004}},{"attributes":{"ID":380367,"DIS_CODE":0,"TOWNNAME":"安南區","LI":"安順里","LIN":"21鄰","STREET":"育安三街","SECT":" ","MAREA":" ","LANE":"２１２巷","ALLEY":" ","HOUSE_NO":"２號","E_COORD97":169449.79000000001,"N_COORD97":2550115.3900000001,"ADDRESS":"育安三街２１２巷２號","OBJECTID":380357},"geometry":{"x":169449.79000000004,"y":2550115.3900000025}},{"attributes":{"ID":380368,"DIS_CODE":0,"TOWNNAME":"安南區","LI":"安順里","LIN":"21鄰","STREET":"育安三街","SECT":" ","MAREA":" ","LANE":"２１２巷","ALLEY":" ","HOUSE_NO":"３號","E_COORD97":169455.07000000001,"N_COORD97":2550128.96,"ADDRESS":"育安三街２１２巷３號","OBJECTID":380358},"geometry":{"x":169455.0700000003,"y":2550128.9600000028}},{"attributes":{"ID":380369,"DIS_CODE":0,"TOWNNAME":"安南區","LI":"安順里","LIN":"21鄰","STREET":"育安三街","SECT":" ","MAREA":" ","LANE":"２１２巷","ALLEY":" ","HOUSE_NO":"５號","E_COORD97":169459.07000000001,"N_COORD97":2550128.6400000001,"ADDRESS":"育安三街２１２巷５號","OBJECTID":380359},"geometry":{"x":169459.07000000216,"y":2550128.6400000006}},{"attributes":{"ID":380370,"DIS_CODE":0,"TOWNNAME":"安南區","LI":"安順里","LIN":"21鄰","STREET":"育安三街","SECT":" ","MAREA":" ","LANE":"２１２巷","ALLEY":" ","HOUSE_NO":"６號","E_COORD97":169454.26999999999,"N_COORD97":2550115.5499999998,"ADDRESS":"育安三街２１２巷６號","OBJECTID":380360},"geometry":{"x":169454.27000000048,"y":2550115.5500000007}},{"attributes":{"ID":380371,"DIS_CODE":0,"TOWNNAME":"安南區","LI":"安順里","LIN":"21鄰","STREET":"育安三街","SECT":" ","MAREA":" ","LANE":"２１２巷","ALLEY":" ","HOUSE_NO":"７號","E_COORD97":169464.17999999999,"N_COORD97":2550128.7999999998,"ADDRESS":"育安三街２１２巷７號","OBJECTID":380361},"geometry":{"x":169464.1799999997,"y":2550128.7999999989}},{"attributes":{"ID":380372,"DIS_CODE":0,"TOWNNAME":"安南區","LI":"安順里","LIN":"21鄰","STREET":"育安三街","SECT":" ","MAREA":" ","LANE":"２１２巷","ALLEY":" ","HOUSE_NO":"８號","E_COORD97":169459.07000000001,"N_COORD97":2550115.3900000001,"ADDRESS":"育安三街２１２巷８號","OBJECTID":380362},"geometry":{"x":169459.07000000216,"y":2550115.3900000025}},{"attributes":{"ID":380373,"DIS_CODE":0,"TOWNNAME":"安南區","LI":"安順里","LIN":"21鄰","STREET":"育安三街","SECT":" ","MAREA":" ","LANE":"２１２巷","ALLEY":" ","HOUSE_NO":"９號","E_COORD97":169468.66,"N_COORD97":2550128.96,"ADDRESS":"育安三街２１２巷９號","OBJECTID":380363},"geometry":{"x":169468.66000000108,"y":2550128.9600000028}},{"attributes":{"ID":380374,"DIS_CODE":0,"TOWNNAME":"安南區","LI":"安順里","LIN":"21鄰","STREET":"育安三街","SECT":" ","MAREA":" ","LANE":"２１２巷","ALLEY":" ","HOUSE_NO":"１０號","E_COORD97":169463.06,"N_COORD97":2550115.0699999998,"ADDRESS":"育安三街２１２巷１０號","OBJECTID":380364},"geometry":{"x":169463.05999999959,"y":2550115.0700000003}},{"attributes":{"ID":380375,"DIS_CODE":0,"TOWNNAME":"安南區","LI":"安順里","LIN":"21鄰","STREET":"育安三街","SECT":" ","MAREA":" ","LANE":"２１２巷","ALLEY":" ","HOUSE_NO":"１１號","E_COORD97":169472.98000000001,"N_COORD97":2550128.48,"ADDRESS":"育安三街２１２巷１１號","OBJECTID":380365},"geometry":{"x":169472.98000000045,"y":2550128.4800000023}},{"attributes":{"ID":380376,"DIS_CODE":0,"TOWNNAME":"安南區","LI":"安順里","LIN":"21鄰","STREET":"育安三街","SECT":" ","MAREA":" ","LANE":"２１２巷","ALLEY":" ","HOUSE_NO":"１２號","E_COORD97":169467.85999999999,"N_COORD97":2550114.5899999999,"ADDRESS":"育安三街２１２巷１２號","OBJECTID":380366},"geometry":{"x":169467.86000000127,"y":2550114.5899999999}},{"attributes":{"ID":380377,"DIS_CODE":0,"TOWNNAME":"安南區","LI":"安順里","LIN":"21鄰","STREET":"育安三街","SECT":" ","MAREA":" ","LANE":"２１２巷","ALLEY":" ","HOUSE_NO":"１３號","E_COORD97":169477.45999999999,"N_COORD97":2550128.6400000001,"ADDRESS":"育安三街２１２巷１３號","OBJECTID":380367},"geometry":{"x":169477.45999999996,"y":2550128.6400000006}},{"attributes":{"ID":380378,"DIS_CODE":0,"TOWNNAME":"仁德區","LI":"二行里","LIN":"21鄰","STREET":"二行一路","SECT":" ","MAREA":" ","LANE":"７１巷","ALLEY":" ","HOUSE_NO":"１２號","E_COORD97":170364.63,"N_COORD97":2535329.5,"ADDRESS":"二行一路７１巷１２號","OBJECTID":380368},"geometry":{"x":170364.62999999989,"y":2535329.5000000019}},{"attributes":{"ID":380379,"DIS_CODE":0,"TOWNNAME":"仁德區","LI":"二行里","LIN":"21鄰","STREET":"二行一路","SECT":" ","MAREA":" ","LANE":"７１巷","ALLEY":" ","HOUSE_NO":"３４號","E_COORD97":170288.62,"N_COORD97":2535345,"ADDRESS":"二行一路７１巷３４號","OBJECTID":380369},"geometry":{"x":170288.62000000011,"y":2535345.0000000037}},{"attributes":{"ID":380380,"DIS_CODE":0,"TOWNNAME":"仁德區","LI":"二行里","LIN":"21鄰","STREET":"二行一路","SECT":" ","MAREA":" ","LANE":"７１巷","ALLEY":" ","HOUSE_NO":"２０號","E_COORD97":170337.5,"N_COORD97":2535335,"ADDRESS":"二行一路７１巷２０號","OBJECTID":380370},"geometry":{"x":170337.50000000186,"y":2535335.0000000019}},{"attributes":{"ID":380381,"DIS_CODE":0,"TOWNNAME":"仁德區","LI":"二行里","LIN":"21鄰","STREET":"二行一路","SECT":" ","MAREA":" ","LANE":"７１巷","ALLEY":" ","HOUSE_NO":"１１號","E_COORD97":170348.51999999999,"N_COORD97":2535321.25,"ADDRESS":"二行一路７１巷１１號","OBJECTID":380371},"geometry":{"x":170348.51999999862,"y":2535321.25}},{"attributes":{"ID":380382,"DIS_CODE":0,"TOWNNAME":"仁德區","LI":"二行里","LIN":"21鄰","STREET":"二行一路","SECT":" ","MAREA":" ","LANE":"７１巷","ALLEY":" ","HOUSE_NO":"２８號","E_COORD97":170309.67999999999,"N_COORD97":2535341,"ADDRESS":"二行一路７１巷２８號","OBJECTID":380372},"geometry":{"x":170309.6799999997,"y":2535341}},{"attributes":{"ID":380383,"DIS_CODE":0,"TOWNNAME":"仁德區","LI":"大甲里","LIN":"21鄰","STREET":"行大街","SECT":" ","MAREA":" ","LANE":"４２２巷","ALLEY":" ","HOUSE_NO":"６號","E_COORD97":169449.17999999999,"N_COORD97":2535315.9900000002,"ADDRESS":"行大街４２２巷６號","OBJECTID":380373},"geometry":{"x":169449.17999999877,"y":2535315.9900000021}},{"attributes":{"ID":380384,"DIS_CODE":0,"TOWNNAME":"仁德區","LI":"土庫里","LIN":"21鄰","STREET":"太子二街","SECT":" ","MAREA":" ","LANE":"１２５巷","ALLEY":" ","HOUSE_NO":"１１號","E_COORD97":174507.14999999999,"N_COORD97":2543344.0099999998,"ADDRESS":"太子二街１２５巷１１號","OBJECTID":380374},"geometry":{"x":174507.1500000013,"y":2543344.0100000016}},{"attributes":{"ID":380385,"DIS_CODE":0,"TOWNNAME":"仁德區","LI":"二行里","LIN":"21鄰","STREET":"二行一路","SECT":" ","MAREA":" ","LANE":"７１巷","ALLEY":" ","HOUSE_NO":"６號","E_COORD97":170384.03,"N_COORD97":2535325.75,"ADDRESS":"二行一路７１巷６號","OBJECTID":380375},"geometry":{"x":170384.03000000119,"y":2535325.75}},{"attributes":{"ID":380386,"DIS_CODE":0,"TOWNNAME":"仁德區","LI":"土庫里","LIN":"21鄰","STREET":"太子二街","SECT":" ","MAREA":" ","LANE":"１２５巷","ALLEY":" ","HOUSE_NO":"３號","E_COORD97":174499.47,"N_COORD97":2543328.7599999998,"ADDRESS":"太子二街１２５巷３號","OBJECTID":380376},"geometry":{"x":174499.47000000067,"y":2543328.7600000016}},{"attributes":{"ID":380387,"DIS_CODE":0,"TOWNNAME":"仁德區","LI":"土庫里","LIN":"21鄰","STREET":"太子二街","SECT":" ","MAREA":" ","LANE":"１１６巷","ALLEY":" ","HOUSE_NO":"６號","E_COORD97":174462.67999999999,"N_COORD97":2543298.0099999998,"ADDRESS":"太子二街１１６巷６號","OBJECTID":380377},"geometry":{"x":174462.68000000063,"y":2543298.0099999998}},{"attributes":{"ID":380388,"DIS_CODE":0,"TOWNNAME":"仁德區","LI":"土庫里","LIN":"21鄰","STREET":"太子二街","SECT":" ","MAREA":" ","LANE":"１３４巷","ALLEY":" ","HOUSE_NO":"８號","E_COORD97":174444.85000000001,"N_COORD97":2543259,"ADDRESS":"太子二街１３４巷８號","OBJECTID":380378},"geometry":{"x":174444.84999999963,"y":2543259.0000000019}},{"attributes":{"ID":380389,"DIS_CODE":0,"TOWNNAME":"仁德區","LI":"二行里","LIN":"21鄰","STREET":"二行一路","SECT":" ","MAREA":" ","LANE":"７１巷","ALLEY":" ","HOUSE_NO":"９號","E_COORD97":170354.79000000001,"N_COORD97":2535319.9900000002,"ADDRESS":"二行一路７１巷９號","OBJECTID":380379},"geometry":{"x":170354.79000000097,"y":2535319.9900000002}},{"attributes":{"ID":380390,"DIS_CODE":0,"TOWNNAME":"仁德區","LI":"二行里","LIN":"21鄰","STREET":"二行一路","SECT":" ","MAREA":" ","LANE":"７１巷","ALLEY":" ","HOUSE_NO":"２號","E_COORD97":170390.57000000001,"N_COORD97":2535324.75,"ADDRESS":"二行一路７１巷２號","OBJECTID":380380},"geometry":{"x":170390.57000000123,"y":2535324.75}},{"attributes":{"ID":380391,"DIS_CODE":0,"TOWNNAME":"仁德區","LI":"土庫里","LIN":"21鄰","STREET":"太子二街","SECT":" ","MAREA":" ","LANE":"１２５巷","ALLEY":" ","HOUSE_NO":"３之２號","E_COORD97":174508.76000000001,"N_COORD97":2543318.5499999998,"ADDRESS":"太子二街１２５巷３之２號","OBJECTID":380381},"geometry":{"x":174508.75999999978,"y":2543318.5500000007}},{"attributes":{"ID":380392,"DIS_CODE":0,"TOWNNAME":"仁德區","LI":"二行里","LIN":"21鄰","STREET":"二行一路","SECT":" ","MAREA":" ","LANE":"７１巷","ALLEY":" ","HOUSE_NO":"３號","E_COORD97":170375.67999999999,"N_COORD97":2535315.4900000002,"ADDRESS":"二行一路７１巷３號","OBJECTID":380382},"geometry":{"x":170375.6799999997,"y":2535315.4900000021}},{"attributes":{"ID":380393,"DIS_CODE":0,"TOWNNAME":"中西區","LI":"福安里","LIN":"21鄰","STREET":"中正路","SECT":" ","MAREA":" ","LANE":"１３１巷","ALLEY":" ","HOUSE_NO":"１６號","E_COORD97":167903.70000000001,"N_COORD97":2543644.71,"ADDRESS":"中正路１３１巷１６號","OBJECTID":380383},"geometry":{"x":167903.70000000205,"y":2543644.7100000028}},{"attributes":{"ID":380394,"DIS_CODE":0,"TOWNNAME":"中西區","LI":"福安里","LIN":"21鄰","STREET":"西門路","SECT":"二段","MAREA":" ","LANE":"７４巷","ALLEY":" ","HOUSE_NO":"１１號","E_COORD97":167890.54000000001,"N_COORD97":2543653.4700000002,"ADDRESS":"西門路二段７４巷１１號","OBJECTID":380384},"geometry":{"x":167890.54000000004,"y":2543653.4700000025}},{"attributes":{"ID":380395,"DIS_CODE":0,"TOWNNAME":"中西區","LI":"福安里","LIN":"21鄰","STREET":"西門路","SECT":"二段","MAREA":" ","LANE":"７４巷","ALLEY":" ","HOUSE_NO":"１３號","E_COORD97":167886.16,"N_COORD97":2543642.5800000001,"ADDRESS":"西門路二段７４巷１３號","OBJECTID":380385},"geometry":{"x":167886.16000000015,"y":2543642.5800000001}},{"attributes":{"ID":380396,"DIS_CODE":0,"TOWNNAME":"中西區","LI":"福安里","LIN":"21鄰","STREET":"西門路","SECT":"二段","MAREA":" ","LANE":"７４巷","ALLEY":" ","HOUSE_NO":"１５號","E_COORD97":167881.76999999999,"N_COORD97":2543633.02,"ADDRESS":"西門路二段７４巷１５號","OBJECTID":380386},"geometry":{"x":167881.76999999955,"y":2543633.0199999996}},{"attributes":{"ID":380397,"DIS_CODE":0,"TOWNNAME":"東區","LI":"大福里","LIN":"21鄰","STREET":"立德一路","SECT":" ","MAREA":" ","LANE":"２巷","ALLEY":" ","HOUSE_NO":"１號","E_COORD97":169487.88,"N_COORD97":2541804.4399999999,"ADDRESS":"立德一路２巷１號","OBJECTID":380387},"geometry":{"x":169487.88000000082,"y":2541804.4400000013}},{"attributes":{"ID":380398,"DIS_CODE":0,"TOWNNAME":"東區","LI":"大福里","LIN":"21鄰","STREET":"立德一路","SECT":" ","MAREA":" ","LANE":"２巷","ALLEY":" ","HOUSE_NO":"３號","E_COORD97":169482.29999999999,"N_COORD97":2541803.7400000002,"ADDRESS":"立德一路２巷３號","OBJECTID":380388},"geometry":{"x":169482.29999999981,"y":2541803.7400000021}},{"attributes":{"ID":380399,"DIS_CODE":0,"TOWNNAME":"東區","LI":"大福里","LIN":"21鄰","STREET":"立德一路","SECT":" ","MAREA":" ","LANE":"２巷","ALLEY":" ","HOUSE_NO":"５號","E_COORD97":169477.41,"N_COORD97":2541803.7400000002,"ADDRESS":"立德一路２巷５號","OBJECTID":380389},"geometry":{"x":169477.41000000108,"y":2541803.7400000021}},{"attributes":{"ID":380400,"DIS_CODE":0,"TOWNNAME":"東區","LI":"大福里","LIN":"21鄰","STREET":"立德一路","SECT":" ","MAREA":" ","LANE":"２巷","ALLEY":" ","HOUSE_NO":"７號","E_COORD97":169473.23000000001,"N_COORD97":2541801.6499999999,"ADDRESS":"立德一路２巷７號","OBJECTID":380390},"geometry":{"x":169473.23000000045,"y":2541801.6500000004}},{"attributes":{"ID":380401,"DIS_CODE":0,"TOWNNAME":"東區","LI":"大福里","LIN":"21鄰","STREET":"立德一路","SECT":" ","MAREA":" ","LANE":"２巷","ALLEY":" ","HOUSE_NO":"９號","E_COORD97":169467.64999999999,"N_COORD97":2541800.2599999998,"ADDRESS":"立德一路２巷９號","OBJECTID":380391},"geometry":{"x":169467.6500000013,"y":2541800.2599999998}},{"attributes":{"ID":380402,"DIS_CODE":0,"TOWNNAME":"東區","LI":"大福里","LIN":"21鄰","STREET":"立德一路","SECT":" ","MAREA":" ","LANE":"３巷","ALLEY":" ","HOUSE_NO":"１號","E_COORD97":169481.69,"N_COORD97":2541835.8799999999,"ADDRESS":"立德一路３巷１號","OBJECTID":380392},"geometry":{"x":169481.69000000041,"y":2541835.879999999}},{"attributes":{"ID":380403,"DIS_CODE":0,"TOWNNAME":"東區","LI":"大福里","LIN":"21鄰","STREET":"立德一路","SECT":" ","MAREA":" ","LANE":"３巷","ALLEY":" ","HOUSE_NO":"２號","E_COORD97":169484.73999999999,"N_COORD97":2541816.98,"ADDRESS":"立德一路３巷２號","OBJECTID":380393},"geometry":{"x":169484.74000000022,"y":2541816.9800000004}},{"attributes":{"ID":380404,"DIS_CODE":0,"TOWNNAME":"東區","LI":"大福里","LIN":"21鄰","STREET":"立德一路","SECT":" ","MAREA":" ","LANE":"３巷","ALLEY":" ","HOUSE_NO":"３號","E_COORD97":169477.5,"N_COORD97":2541834.73,"ADDRESS":"立德一路３巷３號","OBJECTID":380394},"geometry":{"x":169477.5,"y":2541834.7300000004}},{"attributes":{"ID":380405,"DIS_CODE":0,"TOWNNAME":"東區","LI":"大福里","LIN":"21鄰","STREET":"立德一路","SECT":" ","MAREA":" ","LANE":"３巷","ALLEY":" ","HOUSE_NO":"４號","E_COORD97":169479.85000000001,"N_COORD97":2541815.9300000002,"ADDRESS":"立德一路３巷４號","OBJECTID":380395},"geometry":{"x":169479.84999999963,"y":2541815.9299999997}},{"attributes":{"ID":380406,"DIS_CODE":0,"TOWNNAME":"東區","LI":"大福里","LIN":"21鄰","STREET":"立德一路","SECT":" ","MAREA":" ","LANE":"３巷","ALLEY":" ","HOUSE_NO":"５號之１","E_COORD97":169472.16,"N_COORD97":2541834.3500000001,"ADDRESS":"立德一路３巷５號之１","OBJECTID":380396},"geometry":{"x":169472.16000000108,"y":2541834.3499999996}},{"attributes":{"ID":380407,"DIS_CODE":0,"TOWNNAME":"東區","LI":"大福里","LIN":"21鄰","STREET":"立德一路","SECT":" ","MAREA":" ","LANE":"３巷","ALLEY":" ","HOUSE_NO":"６號","E_COORD97":169475.32000000001,"N_COORD97":2541815.2400000002,"ADDRESS":"立德一路３巷６號","OBJECTID":380397},"geometry":{"x":169475.3200000003,"y":2541815.2400000002}},{"attributes":{"ID":380408,"DIS_CODE":0,"TOWNNAME":"東區","LI":"大福里","LIN":"21鄰","STREET":"立德一路","SECT":" ","MAREA":" ","LANE":"３巷","ALLEY":" ","HOUSE_NO":"７號之１","E_COORD97":169467.20000000001,"N_COORD97":2541833.21,"ADDRESS":"立德一路３巷７號之１","OBJECTID":380398},"geometry":{"x":169467.20000000112,"y":2541833.2100000009}},{"attributes":{"ID":380409,"DIS_CODE":0,"TOWNNAME":"東區","LI":"大福里","LIN":"21鄰","STREET":"立德一路","SECT":" ","MAREA":" ","LANE":"３巷","ALLEY":" ","HOUSE_NO":"８號","E_COORD97":169470.09,"N_COORD97":2541813.5,"ADDRESS":"立德一路３巷８號","OBJECTID":380399},"geometry":{"x":169470.08999999985,"y":2541813.4999999981}},{"attributes":{"ID":380410,"DIS_CODE":0,"TOWNNAME":"安南區","LI":"溪墘里","LIN":"21鄰","STREET":"安寧街","SECT":" ","MAREA":" ","LANE":"２３巷","ALLEY":" ","HOUSE_NO":"１號","E_COORD97":167413.04000000001,"N_COORD97":2546910.6600000001,"ADDRESS":"安寧街２３巷１號","OBJECTID":380400},"geometry":{"x":167413.0400000019,"y":2546910.6600000001}}]}