{"displayFieldName":"TOWNNAME","fieldAliases":{"ID":"ID","DIS_CODE":"DIS_CODE","TOWNNAME":"TOWNNAME","LI":"LI","LIN":"LIN","STREET":"STREET","SECT":"SECT","MAREA":"MAREA","LANE":"LANE","ALLEY":"ALLEY","HOUSE_NO":"HOUSE_NO","E_COORD97":"E_COORD97","N_COORD97":"N_COORD97","ADDRESS":"ADDRESS","OBJECTID":"OBJECTID"},"geometryType":"esriGeometryPoint","spatialReference":{"wkid":102443,"latestWkid":3826},"fields":[{"name":"ID","type":"esriFieldTypeDouble","alias":"ID"},{"name":"DIS_CODE","type":"esriFieldTypeInteger","alias":"DIS_CODE"},{"name":"TOWNNAME","type":"esriFieldTypeString","alias":"TOWNNAME","length":8},{"name":"LI","type":"esriFieldTypeString","alias":"LI","length":8},{"name":"LIN","type":"esriFieldTypeString","alias":"LIN","length":12},{"name":"STREET","type":"esriFieldTypeString","alias":"STREET","length":20},{"name":"SECT","type":"esriFieldTypeString","alias":"SECT","length":8},{"name":"MAREA","type":"esriFieldTypeString","alias":"MAREA","length":12},{"name":"LANE","type":"esriFieldTypeString","alias":"LANE","length":10},{"name":"ALLEY","type":"esriFieldTypeString","alias":"ALLEY","length":10},{"name":"HOUSE_NO","type":"esriFieldTypeString","alias":"HOUSE_NO","length":20},{"name":"E_COORD97","type":"esriFieldTypeDouble","alias":"E_COORD97"},{"name":"N_COORD97","type":"esriFieldTypeDouble","alias":"N_COORD97"},{"name":"ADDRESS","type":"esriFieldTypeString","alias":"ADDRESS","length":50},{"name":"OBJECTID","type":"esriFieldTypeOID","alias":"OBJECTID"}],"features":[{"attributes":{"ID":82201,"DIS_CODE":0,"TOWNNAME":"西港區","LI":"永樂里","LIN":"14鄰","STREET":" ","SECT":" ","MAREA":"大塭寮","LANE":" ","ALLEY":" ","HOUSE_NO":"１２７號之２","E_COORD97":165724.06,"N_COORD97":2556132.3399999999,"ADDRESS":"大塭寮１２７號之２","OBJECTID":82201},"geometry":{"x":165724.06000000145,"y":2556132.3400000036}},{"attributes":{"ID":82202,"DIS_CODE":0,"TOWNNAME":"永康區","LI":"勝利里","LIN":"25鄰","STREET":"中華路","SECT":" ","MAREA":" ","LANE":"１５５巷","ALLEY":"３４弄","HOUSE_NO":"５號","E_COORD97":171468.92999999999,"N_COORD97":2544841.7400000002,"ADDRESS":"中華路１５５巷３４弄５號","OBJECTID":82202},"geometry":{"x":171468.93000000063,"y":2544841.7400000002}},{"attributes":{"ID":82203,"DIS_CODE":0,"TOWNNAME":"西港區","LI":"永樂里","LIN":"14鄰","STREET":" ","SECT":" ","MAREA":"大塭寮","LANE":" ","ALLEY":" ","HOUSE_NO":"１２７號","E_COORD97":165749.85000000001,"N_COORD97":2556126.6699999999,"ADDRESS":"大塭寮１２７號","OBJECTID":82203},"geometry":{"x":165749.85000000056,"y":2556126.6700000037}},{"attributes":{"ID":82204,"DIS_CODE":0,"TOWNNAME":"西港區","LI":"永樂里","LIN":"14鄰","STREET":" ","SECT":" ","MAREA":"大塭寮","LANE":" ","ALLEY":" ","HOUSE_NO":"１２８號之１","E_COORD97":165698,"N_COORD97":2556142.9500000002,"ADDRESS":"大塭寮１２８號之１","OBJECTID":82204},"geometry":{"x":165698.00000000093,"y":2556142.9499999993}},{"attributes":{"ID":82205,"DIS_CODE":0,"TOWNNAME":"西港區","LI":"永樂里","LIN":"14鄰","STREET":" ","SECT":" ","MAREA":"大塭寮","LANE":" ","ALLEY":" ","HOUSE_NO":"１２８號","E_COORD97":165712.72,"N_COORD97":2556135.7799999998,"ADDRESS":"大塭寮１２８號","OBJECTID":82205},"geometry":{"x":165712.71999999881,"y":2556135.7800000012}},{"attributes":{"ID":82206,"DIS_CODE":0,"TOWNNAME":"西港區","LI":"永樂里","LIN":"14鄰","STREET":" ","SECT":" ","MAREA":"大塭寮","LANE":" ","ALLEY":" ","HOUSE_NO":"５５號之１","E_COORD97":165955.14999999999,"N_COORD97":2556107.5099999998,"ADDRESS":"大塭寮５５號之１","OBJECTID":82206},"geometry":{"x":165955.1500000013,"y":2556107.5100000035}},{"attributes":{"ID":82207,"DIS_CODE":0,"TOWNNAME":"柳營區","LI":"重溪里","LIN":"14鄰","STREET":" ","SECT":" ","MAREA":"小腳腿","LANE":" ","ALLEY":" ","HOUSE_NO":"１４４號","E_COORD97":185132.14999999999,"N_COORD97":2576829.21,"ADDRESS":"小腳腿１４４號","OBJECTID":82207},"geometry":{"x":185132.15000000037,"y":2576829.2100000046}},{"attributes":{"ID":82208,"DIS_CODE":0,"TOWNNAME":"柳營區","LI":"重溪里","LIN":"14鄰","STREET":" ","SECT":" ","MAREA":"小腳腿","LANE":" ","ALLEY":" ","HOUSE_NO":"１４５號之２","E_COORD97":185094.09,"N_COORD97":2576844.9900000002,"ADDRESS":"小腳腿１４５號之２","OBJECTID":82208},"geometry":{"x":185094.08999999985,"y":2576844.9900000021}},{"attributes":{"ID":82209,"DIS_CODE":0,"TOWNNAME":"永康區","LI":"崑山里","LIN":"43鄰","STREET":"大灣路","SECT":" ","MAREA":" ","LANE":"９４２巷","ALLEY":"３７１弄","HOUSE_NO":"６號","E_COORD97":173825.78,"N_COORD97":2545209.7200000002,"ADDRESS":"大灣路９４２巷３７１弄６號","OBJECTID":82209},"geometry":{"x":173825.78000000026,"y":2545209.7200000007}},{"attributes":{"ID":82210,"DIS_CODE":0,"TOWNNAME":"柳營區","LI":"重溪里","LIN":"14鄰","STREET":" ","SECT":" ","MAREA":"小腳腿","LANE":" ","ALLEY":" ","HOUSE_NO":"１４５號之３","E_COORD97":185113.09,"N_COORD97":2576865.8500000001,"ADDRESS":"小腳腿１４５號之３","OBJECTID":82210},"geometry":{"x":185113.08999999985,"y":2576865.8499999996}},{"attributes":{"ID":82211,"DIS_CODE":0,"TOWNNAME":"柳營區","LI":"重溪里","LIN":"14鄰","STREET":" ","SECT":" ","MAREA":"小腳腿","LANE":" ","ALLEY":" ","HOUSE_NO":"１４５號","E_COORD97":185109.41,"N_COORD97":2576853.3900000001,"ADDRESS":"小腳腿１４５號","OBJECTID":82211},"geometry":{"x":185109.41000000015,"y":2576853.3900000006}},{"attributes":{"ID":82212,"DIS_CODE":0,"TOWNNAME":"柳營區","LI":"重溪里","LIN":"14鄰","STREET":" ","SECT":" ","MAREA":"小腳腿","LANE":" ","ALLEY":" ","HOUSE_NO":"１４６號之１","E_COORD97":185155.66,"N_COORD97":2576880.9199999999,"ADDRESS":"小腳腿１４６號之１","OBJECTID":82212},"geometry":{"x":185155.65999999922,"y":2576880.9200000037}},{"attributes":{"ID":82213,"DIS_CODE":0,"TOWNNAME":"柳營區","LI":"重溪里","LIN":"14鄰","STREET":" ","SECT":" ","MAREA":"小腳腿","LANE":" ","ALLEY":" ","HOUSE_NO":"１４６號","E_COORD97":185112.66,"N_COORD97":2576888.9700000002,"ADDRESS":"小腳腿１４６號","OBJECTID":82213},"geometry":{"x":185112.66000000015,"y":2576888.9700000025}},{"attributes":{"ID":82214,"DIS_CODE":0,"TOWNNAME":"柳營區","LI":"重溪里","LIN":"14鄰","STREET":" ","SECT":" ","MAREA":"小腳腿","LANE":" ","ALLEY":" ","HOUSE_NO":"１４８號之１","E_COORD97":185128.44,"N_COORD97":2576839.29,"ADDRESS":"小腳腿１４８號之１","OBJECTID":82214},"geometry":{"x":185128.44000000041,"y":2576839.2899999991}},{"attributes":{"ID":82215,"DIS_CODE":0,"TOWNNAME":"龍崎區","LI":"龍船里","LIN":"10鄰","STREET":" ","SECT":" ","MAREA":"埤子","LANE":" ","ALLEY":" ","HOUSE_NO":"１０號","E_COORD97":190639.87,"N_COORD97":2539026.25,"ADDRESS":"埤子１０號","OBJECTID":82215},"geometry":{"x":190639.86999999918,"y":2539026.2500000019}},{"attributes":{"ID":82216,"DIS_CODE":0,"TOWNNAME":"永康區","LI":"埔園里","LIN":"30鄰","STREET":"龍埔街","SECT":" ","MAREA":" ","LANE":"４８６巷","ALLEY":"６弄","HOUSE_NO":"３２號之１","E_COORD97":173852,"N_COORD97":2548382.7999999998,"ADDRESS":"龍埔街４８６巷６弄３２號之１","OBJECTID":82216},"geometry":{"x":173852.00000000093,"y":2548382.7999999989}},{"attributes":{"ID":82217,"DIS_CODE":0,"TOWNNAME":"永康區","LI":"埔園里","LIN":"30鄰","STREET":"龍埔街","SECT":" ","MAREA":" ","LANE":"４８６巷","ALLEY":"６弄","HOUSE_NO":"１６號","E_COORD97":173825.06,"N_COORD97":2548391.75,"ADDRESS":"龍埔街４８６巷６弄１６號","OBJECTID":82217},"geometry":{"x":173825.05999999959,"y":2548391.75}},{"attributes":{"ID":82218,"DIS_CODE":0,"TOWNNAME":"柳營區","LI":"重溪里","LIN":"14鄰","STREET":" ","SECT":" ","MAREA":"小腳腿","LANE":" ","ALLEY":" ","HOUSE_NO":"１４８號之２","E_COORD97":185124.22,"N_COORD97":2576840.2999999998,"ADDRESS":"小腳腿１４８號之２","OBJECTID":82218},"geometry":{"x":185124.21999999974,"y":2576840.3000000007}},{"attributes":{"ID":82219,"DIS_CODE":0,"TOWNNAME":"柳營區","LI":"重溪里","LIN":"14鄰","STREET":" ","SECT":" ","MAREA":"小腳腿","LANE":" ","ALLEY":" ","HOUSE_NO":"１４８號之３","E_COORD97":185114.07999999999,"N_COORD97":2576833.96,"ADDRESS":"小腳腿１４８號之３","OBJECTID":82219},"geometry":{"x":185114.08000000101,"y":2576833.959999999}},{"attributes":{"ID":82220,"DIS_CODE":0,"TOWNNAME":"柳營區","LI":"重溪里","LIN":"14鄰","STREET":" ","SECT":" ","MAREA":"小腳腿","LANE":" ","ALLEY":" ","HOUSE_NO":"１４８號","E_COORD97":185144.32999999999,"N_COORD97":2576849.9700000002,"ADDRESS":"小腳腿１４８號","OBJECTID":82220},"geometry":{"x":185144.33000000194,"y":2576849.9700000007}},{"attributes":{"ID":82221,"DIS_CODE":0,"TOWNNAME":"永康區","LI":"烏竹里","LIN":"18鄰","STREET":"自強路","SECT":" ","MAREA":" ","LANE":"７７３巷","ALLEY":"５弄","HOUSE_NO":"１９號","E_COORD97":174422.98000000001,"N_COORD97":2548551.3799999999,"ADDRESS":"自強路７７３巷５弄１９號","OBJECTID":82221},"geometry":{"x":174422.98000000045,"y":2548551.3800000008}},{"attributes":{"ID":82222,"DIS_CODE":0,"TOWNNAME":"柳營區","LI":"重溪里","LIN":"14鄰","STREET":" ","SECT":" ","MAREA":"小腳腿","LANE":" ","ALLEY":" ","HOUSE_NO":"１４９號","E_COORD97":185143.25,"N_COORD97":2576830.6899999999,"ADDRESS":"小腳腿１４９號","OBJECTID":82222},"geometry":{"x":185143.25000000186,"y":2576830.6899999995}},{"attributes":{"ID":82223,"DIS_CODE":0,"TOWNNAME":"永康區","LI":"埔園里","LIN":"14鄰","STREET":"龍埔街","SECT":" ","MAREA":" ","LANE":"４６７巷","ALLEY":"２５弄","HOUSE_NO":"９號","E_COORD97":173602.85000000001,"N_COORD97":2548270.5,"ADDRESS":"龍埔街４６７巷２５弄９號","OBJECTID":82223},"geometry":{"x":173602.8499999987,"y":2548270.5000000019}},{"attributes":{"ID":82224,"DIS_CODE":0,"TOWNNAME":"永康區","LI":"神洲里","LIN":"8鄰","STREET":"忠孝路","SECT":" ","MAREA":" ","LANE":"６巷","ALLEY":"１９弄","HOUSE_NO":"２號","E_COORD97":172217.73000000001,"N_COORD97":2544580.4900000002,"ADDRESS":"忠孝路６巷１９弄２號","OBJECTID":82224},"geometry":{"x":172217.73000000045,"y":2544580.4900000039}},{"attributes":{"ID":82225,"DIS_CODE":0,"TOWNNAME":"永康區","LI":"神洲里","LIN":"8鄰","STREET":"忠孝路","SECT":" ","MAREA":" ","LANE":"６巷","ALLEY":"２５弄","HOUSE_NO":"５號","E_COORD97":172240.06,"N_COORD97":2544584.5,"ADDRESS":"忠孝路６巷２５弄５號","OBJECTID":82225},"geometry":{"x":172240.05999999959,"y":2544584.5000000019}},{"attributes":{"ID":82226,"DIS_CODE":0,"TOWNNAME":"歸仁區","LI":"辜厝里","LIN":"54鄰","STREET":"民權南路","SECT":" ","MAREA":" ","LANE":" ","ALLEY":" ","HOUSE_NO":"３５９號","E_COORD97":176957.64000000001,"N_COORD97":2540143.25,"ADDRESS":"民權南路３５９號","OBJECTID":82226},"geometry":{"x":176957.6400000006,"y":2540143.25}},{"attributes":{"ID":82227,"DIS_CODE":0,"TOWNNAME":"麻豆區","LI":"大山里","LIN":"4鄰","STREET":" ","SECT":" ","MAREA":"大山\u25A0","LANE":" ","ALLEY":" ","HOUSE_NO":"３７號之１","E_COORD97":170251.66,"N_COORD97":2566098.6200000001,"ADDRESS":"大山\u25A0３７號之１","OBJECTID":82227},"geometry":{"x":170251.66000000201,"y":2566098.620000001}},{"attributes":{"ID":82228,"DIS_CODE":0,"TOWNNAME":"麻豆區","LI":"大山里","LIN":"4鄰","STREET":" ","SECT":" ","MAREA":"大山\u25A0","LANE":" ","ALLEY":" ","HOUSE_NO":"３７號","E_COORD97":170254.70999999999,"N_COORD97":2566081.9100000001,"ADDRESS":"大山\u25A0３７號","OBJECTID":82228},"geometry":{"x":170254.71000000089,"y":2566081.9100000001}},{"attributes":{"ID":82229,"DIS_CODE":0,"TOWNNAME":"永康區","LI":"勝利里","LIN":"25鄰","STREET":"中華路","SECT":" ","MAREA":" ","LANE":"１５５巷","ALLEY":"３４弄","HOUSE_NO":"２７號","E_COORD97":171455.03,"N_COORD97":2544784.4100000001,"ADDRESS":"中華路１５５巷３４弄２７號","OBJECTID":82229},"geometry":{"x":171455.03000000119,"y":2544784.4100000039}},{"attributes":{"ID":82230,"DIS_CODE":0,"TOWNNAME":"麻豆區","LI":"大山里","LIN":"4鄰","STREET":" ","SECT":" ","MAREA":"大山\u25A0","LANE":" ","ALLEY":" ","HOUSE_NO":"３８號","E_COORD97":170247.53,"N_COORD97":2566051.6000000001,"ADDRESS":"大山\u25A0３８號","OBJECTID":82230},"geometry":{"x":170247.52999999933,"y":2566051.6000000015}},{"attributes":{"ID":82231,"DIS_CODE":0,"TOWNNAME":"永康區","LI":"烏竹里","LIN":"14鄰","STREET":"竹園二街","SECT":" ","MAREA":" ","LANE":"１６０巷","ALLEY":"２３弄","HOUSE_NO":"３２號","E_COORD97":174643.88,"N_COORD97":2549253.6699999999,"ADDRESS":"竹園二街１６０巷２３弄３２號","OBJECTID":82231},"geometry":{"x":174643.88000000175,"y":2549253.6699999999}},{"attributes":{"ID":82232,"DIS_CODE":0,"TOWNNAME":"永康區","LI":"崑山里","LIN":"43鄰","STREET":"大灣路","SECT":" ","MAREA":" ","LANE":"９４２巷","ALLEY":"３７１弄","HOUSE_NO":"５２號","E_COORD97":173662.22,"N_COORD97":2545260.79,"ADDRESS":"大灣路９４２巷３７１弄５２號","OBJECTID":82232},"geometry":{"x":173662.22000000067,"y":2545260.7899999991}},{"attributes":{"ID":82233,"DIS_CODE":0,"TOWNNAME":"麻豆區","LI":"大山里","LIN":"4鄰","STREET":" ","SECT":" ","MAREA":"大山\u25A0","LANE":" ","ALLEY":" ","HOUSE_NO":"４２號之１４","E_COORD97":170318.01000000001,"N_COORD97":2566101.1800000002,"ADDRESS":"大山\u25A0４２號之１４","OBJECTID":82233},"geometry":{"x":170318.00999999978,"y":2566101.1800000016}},{"attributes":{"ID":82234,"DIS_CODE":0,"TOWNNAME":"永康區","LI":"埔園里","LIN":"14鄰","STREET":"龍埔街","SECT":" ","MAREA":" ","LANE":"４６７巷","ALLEY":"２５弄","HOUSE_NO":"２號","E_COORD97":173577.45999999999,"N_COORD97":2548265.9900000002,"ADDRESS":"龍埔街４６７巷２５弄２號","OBJECTID":82234},"geometry":{"x":173577.46000000089,"y":2548265.9900000039}},{"attributes":{"ID":82235,"DIS_CODE":0,"TOWNNAME":"麻豆區","LI":"大山里","LIN":"4鄰","STREET":" ","SECT":" ","MAREA":"大山\u25A0","LANE":" ","ALLEY":" ","HOUSE_NO":"４２號之１５","E_COORD97":170318.04999999999,"N_COORD97":2566105.3700000001,"ADDRESS":"大山\u25A0４２號之１５","OBJECTID":82235},"geometry":{"x":170318.04999999981,"y":2566105.3700000029}},{"attributes":{"ID":82236,"DIS_CODE":0,"TOWNNAME":"麻豆區","LI":"大山里","LIN":"4鄰","STREET":" ","SECT":" ","MAREA":"大山\u25A0","LANE":" ","ALLEY":" ","HOUSE_NO":"４２號之１６","E_COORD97":170318.09,"N_COORD97":2566109.5600000001,"ADDRESS":"大山\u25A0４２號之１６","OBJECTID":82236},"geometry":{"x":170318.09000000171,"y":2566109.5600000042}},{"attributes":{"ID":82237,"DIS_CODE":0,"TOWNNAME":"麻豆區","LI":"大山里","LIN":"4鄰","STREET":" ","SECT":" ","MAREA":"大山\u25A0","LANE":" ","ALLEY":" ","HOUSE_NO":"４２號之１７","E_COORD97":170285.76000000001,"N_COORD97":2566110.6499999999,"ADDRESS":"大山\u25A0４２號之１７","OBJECTID":82237},"geometry":{"x":170285.75999999978,"y":2566110.6500000004}},{"attributes":{"ID":82238,"DIS_CODE":0,"TOWNNAME":"永康區","LI":"埔園里","LIN":"12鄰","STREET":"中山路","SECT":" ","MAREA":" ","LANE":"１８５巷","ALLEY":"１弄","HOUSE_NO":"１２號","E_COORD97":173628.73999999999,"N_COORD97":2548019.9900000002,"ADDRESS":"中山路１８５巷１弄１２號","OBJECTID":82238},"geometry":{"x":173628.74000000115,"y":2548019.9900000021}},{"attributes":{"ID":82239,"DIS_CODE":0,"TOWNNAME":"麻豆區","LI":"大山里","LIN":"4鄰","STREET":" ","SECT":" ","MAREA":"大山\u25A0","LANE":" ","ALLEY":" ","HOUSE_NO":"４２號之１８","E_COORD97":170292.32999999999,"N_COORD97":2566110.7599999998,"ADDRESS":"大山\u25A0４２號之１８","OBJECTID":82239},"geometry":{"x":170292.33000000007,"y":2566110.7600000035}},{"attributes":{"ID":82240,"DIS_CODE":0,"TOWNNAME":"永康區","LI":"烏竹里","LIN":"21鄰","STREET":"自強路","SECT":" ","MAREA":" ","LANE":"７７３巷","ALLEY":"２弄","HOUSE_NO":"１４號","E_COORD97":174525.67000000001,"N_COORD97":2548631.1899999999,"ADDRESS":"自強路７７３巷２弄１４號","OBJECTID":82240},"geometry":{"x":174525.67000000086,"y":2548631.1900000013}},{"attributes":{"ID":82241,"DIS_CODE":0,"TOWNNAME":"永康區","LI":"勝利里","LIN":"26鄰","STREET":"中華路","SECT":" ","MAREA":" ","LANE":"１２１巷","ALLEY":"２１弄","HOUSE_NO":"２８號","E_COORD97":171467.87,"N_COORD97":2544687,"ADDRESS":"中華路１２１巷２１弄２８號","OBJECTID":82241},"geometry":{"x":171467.87000000104,"y":2544687.0000000019}},{"attributes":{"ID":82242,"DIS_CODE":0,"TOWNNAME":"永康區","LI":"神洲里","LIN":"8鄰","STREET":"忠孝路","SECT":" ","MAREA":" ","LANE":"６巷","ALLEY":"１９弄","HOUSE_NO":"７號","E_COORD97":172214.17999999999,"N_COORD97":2544602.2400000002,"ADDRESS":"忠孝路６巷１９弄７號","OBJECTID":82242},"geometry":{"x":172214.18000000156,"y":2544602.2400000002}},{"attributes":{"ID":82243,"DIS_CODE":0,"TOWNNAME":"佳里區","LI":"嘉福里","LIN":"4鄰","STREET":" ","SECT":" ","MAREA":"下營","LANE":" ","ALLEY":" ","HOUSE_NO":"３５號","E_COORD97":163360.79000000001,"N_COORD97":2563579.0099999998,"ADDRESS":"下營３５號","OBJECTID":82243},"geometry":{"x":163360.79000000004,"y":2563579.0099999998}},{"attributes":{"ID":82244,"DIS_CODE":0,"TOWNNAME":"麻豆區","LI":"南勢里","LIN":"4鄰","STREET":" ","SECT":" ","MAREA":"\u25A0帝\u25A0","LANE":" ","ALLEY":" ","HOUSE_NO":"２５號之１２","E_COORD97":173743.51999999999,"N_COORD97":2565551.5899999999,"ADDRESS":"\u25A0帝\u25A0２５號之１２","OBJECTID":82244},"geometry":{"x":173743.51999999955,"y":2565551.5899999999}},{"attributes":{"ID":82245,"DIS_CODE":0,"TOWNNAME":"鹽水區","LI":"南港里","LIN":"4鄰","STREET":" ","SECT":" ","MAREA":"?頭港","LANE":" ","ALLEY":" ","HOUSE_NO":"１４５號","E_COORD97":172982.01999999999,"N_COORD97":2572572.5099999998,"ADDRESS":"?頭港１４５號","OBJECTID":82245},"geometry":{"x":172982.02000000048,"y":2572572.5100000016}},{"attributes":{"ID":82246,"DIS_CODE":0,"TOWNNAME":"永康區","LI":"神洲里","LIN":"8鄰","STREET":"忠孝路","SECT":" ","MAREA":" ","LANE":"６巷","ALLEY":"１９弄","HOUSE_NO":"８號","E_COORD97":172224.97,"N_COORD97":2544597.8700000001,"ADDRESS":"忠孝路６巷１９弄８號","OBJECTID":82246},"geometry":{"x":172224.96999999974,"y":2544597.870000001}},{"attributes":{"ID":82247,"DIS_CODE":0,"TOWNNAME":"永康區","LI":"埔園里","LIN":"30鄰","STREET":"龍埔街","SECT":" ","MAREA":" ","LANE":"４３０巷","ALLEY":"３５弄","HOUSE_NO":"４１號","E_COORD97":173906.82999999999,"N_COORD97":2548480.1600000001,"ADDRESS":"龍埔街４３０巷３５弄４１號","OBJECTID":82247},"geometry":{"x":173906.83000000007,"y":2548480.1600000001}},{"attributes":{"ID":82248,"DIS_CODE":0,"TOWNNAME":"永康區","LI":"烏竹里","LIN":"13鄰","STREET":"竹園二街","SECT":" ","MAREA":" ","LANE":"１６０巷","ALLEY":"２２弄","HOUSE_NO":"２１號","E_COORD97":174572.63,"N_COORD97":2549175.0899999999,"ADDRESS":"竹園二街１６０巷２２弄２１號","OBJECTID":82248},"geometry":{"x":174572.63000000175,"y":2549175.0900000017}},{"attributes":{"ID":82249,"DIS_CODE":0,"TOWNNAME":"永康區","LI":"神洲里","LIN":"8鄰","STREET":"忠孝路","SECT":" ","MAREA":" ","LANE":"６巷","ALLEY":"１５弄","HOUSE_NO":"１４號","E_COORD97":172193.60000000001,"N_COORD97":2544640.7400000002,"ADDRESS":"忠孝路６巷１５弄１４號","OBJECTID":82249},"geometry":{"x":172193.59999999963,"y":2544640.7400000021}},{"attributes":{"ID":82250,"DIS_CODE":0,"TOWNNAME":"永康區","LI":"神洲里","LIN":"8鄰","STREET":"忠孝路","SECT":" ","MAREA":" ","LANE":"６巷","ALLEY":"２５弄","HOUSE_NO":"７號","E_COORD97":172242.31,"N_COORD97":2544590.25,"ADDRESS":"忠孝路６巷２５弄７號","OBJECTID":82250},"geometry":{"x":172242.31000000052,"y":2544590.2500000019}},{"attributes":{"ID":82251,"DIS_CODE":0,"TOWNNAME":"永康區","LI":"烏竹里","LIN":"13鄰","STREET":"龍橋街","SECT":" ","MAREA":" ","LANE":"３５０巷","ALLEY":"１３弄","HOUSE_NO":"２號之４","E_COORD97":174543.97,"N_COORD97":2549164.4700000002,"ADDRESS":"龍橋街３５０巷１３弄２號之４","OBJECTID":82251},"geometry":{"x":174543.96999999974,"y":2549164.4700000007}},{"attributes":{"ID":82252,"DIS_CODE":0,"TOWNNAME":"永康區","LI":"烏竹里","LIN":"14鄰","STREET":"竹園二街","SECT":" ","MAREA":" ","LANE":"１６０巷","ALLEY":"２３弄","HOUSE_NO":"４６號","E_COORD97":174658.92000000001,"N_COORD97":2549266.4199999999,"ADDRESS":"竹園二街１６０巷２３弄４６號","OBJECTID":82252},"geometry":{"x":174658.92000000179,"y":2549266.4200000037}},{"attributes":{"ID":82253,"DIS_CODE":0,"TOWNNAME":"鹽水區","LI":"福得里","LIN":"4鄰","STREET":"清泉路","SECT":" ","MAREA":" ","LANE":" ","ALLEY":" ","HOUSE_NO":"７號","E_COORD97":175268.85999999999,"N_COORD97":2580021.96,"ADDRESS":"清泉路７號","OBJECTID":82253},"geometry":{"x":175268.86000000127,"y":2580021.9600000028}},{"attributes":{"ID":82254,"DIS_CODE":0,"TOWNNAME":"南區","LI":"日新里","LIN":" ","STREET":"鹽埕路","SECT":" ","MAREA":" ","LANE":" ","ALLEY":" ","HOUSE_NO":"２３４號","E_COORD97":166900.17000000001,"N_COORD97":2541157.0899999999,"ADDRESS":"鹽埕路２３４號","OBJECTID":82254},"geometry":{"x":166900.17000000086,"y":2541157.0899999999}},{"attributes":{"ID":82255,"DIS_CODE":0,"TOWNNAME":"南區","LI":"日新里","LIN":" ","STREET":"鹽埕路","SECT":" ","MAREA":" ","LANE":" ","ALLEY":" ","HOUSE_NO":"２３５號","E_COORD97":166905.31,"N_COORD97":2541200.0600000001,"ADDRESS":"鹽埕路２３５號","OBJECTID":82255},"geometry":{"x":166905.30999999959,"y":2541200.0599999987}},{"attributes":{"ID":82256,"DIS_CODE":0,"TOWNNAME":"南區","LI":"日新里","LIN":" ","STREET":"鹽埕路","SECT":" ","MAREA":" ","LANE":" ","ALLEY":" ","HOUSE_NO":"２３６號","E_COORD97":166903.41,"N_COORD97":2541160.1600000001,"ADDRESS":"鹽埕路２３６號","OBJECTID":82256},"geometry":{"x":166903.41000000015,"y":2541160.1600000001}},{"attributes":{"ID":82257,"DIS_CODE":0,"TOWNNAME":"鹽水區","LI":"福得里","LIN":"4鄰","STREET":"清泉路","SECT":" ","MAREA":" ","LANE":" ","ALLEY":" ","HOUSE_NO":"９號","E_COORD97":175266.66,"N_COORD97":2580025.5800000001,"ADDRESS":"清泉路９號","OBJECTID":82257},"geometry":{"x":175266.66000000108,"y":2580025.5800000001}},{"attributes":{"ID":82258,"DIS_CODE":0,"TOWNNAME":"南區","LI":"日新里","LIN":" ","STREET":"鹽埕路","SECT":" ","MAREA":" ","LANE":" ","ALLEY":" ","HOUSE_NO":"２３７號","E_COORD97":166906.25,"N_COORD97":2541204.0899999999,"ADDRESS":"鹽埕路２３７號","OBJECTID":82258},"geometry":{"x":166906.25000000186,"y":2541204.0900000017}},{"attributes":{"ID":82259,"DIS_CODE":0,"TOWNNAME":"南區","LI":"日新里","LIN":" ","STREET":"鹽埕路","SECT":" ","MAREA":" ","LANE":" ","ALLEY":" ","HOUSE_NO":"２３８號","E_COORD97":166905.54000000001,"N_COORD97":2541163.0600000001,"ADDRESS":"鹽埕路２３８號","OBJECTID":82259},"geometry":{"x":166905.54000000004,"y":2541163.0600000042}},{"attributes":{"ID":82260,"DIS_CODE":0,"TOWNNAME":"南區","LI":"日新里","LIN":" ","STREET":"鹽埕路","SECT":" ","MAREA":" ","LANE":" ","ALLEY":" ","HOUSE_NO":"２４０號","E_COORD97":166907.67999999999,"N_COORD97":2541167.2400000002,"ADDRESS":"鹽埕路２４０號","OBJECTID":82260},"geometry":{"x":166907.6799999997,"y":2541167.2400000002}},{"attributes":{"ID":82261,"DIS_CODE":0,"TOWNNAME":"南區","LI":"日新里","LIN":" ","STREET":"鹽埕路","SECT":" ","MAREA":" ","LANE":" ","ALLEY":" ","HOUSE_NO":"２４１號","E_COORD97":166908.48000000001,"N_COORD97":2541209.6600000001,"ADDRESS":"鹽埕路２４１號","OBJECTID":82261},"geometry":{"x":166908.47999999952,"y":2541209.660000002}},{"attributes":{"ID":82262,"DIS_CODE":0,"TOWNNAME":"鹽水區","LI":"下中里","LIN":"4鄰","STREET":" ","SECT":" ","MAREA":"樹子腳","LANE":" ","ALLEY":" ","HOUSE_NO":"２０號","E_COORD97":172659.17999999999,"N_COORD97":2580091.3999999999,"ADDRESS":"樹子腳２０號","OBJECTID":82262},"geometry":{"x":172659.1799999997,"y":2580091.4000000004}},{"attributes":{"ID":82263,"DIS_CODE":0,"TOWNNAME":"柳營區","LI":"重溪里","LIN":"4鄰","STREET":" ","SECT":" ","MAREA":"小腳腿","LANE":" ","ALLEY":" ","HOUSE_NO":"３６號之３７","E_COORD97":185145.63,"N_COORD97":2576420.0099999998,"ADDRESS":"小腳腿３６號之３７","OBJECTID":82263},"geometry":{"x":185145.63000000175,"y":2576420.0100000016}},{"attributes":{"ID":82264,"DIS_CODE":0,"TOWNNAME":"永康區","LI":"烏竹里","LIN":"21鄰","STREET":"自強路","SECT":" ","MAREA":" ","LANE":"７７３巷","ALLEY":"２弄","HOUSE_NO":"５號","E_COORD97":174496.70999999999,"N_COORD97":2548640.2200000002,"ADDRESS":"自強路７７３巷２弄５號","OBJECTID":82264},"geometry":{"x":174496.71000000089,"y":2548640.2200000007}},{"attributes":{"ID":82265,"DIS_CODE":0,"TOWNNAME":"後壁區","LI":"頂安里","LIN":"4鄰","STREET":" ","SECT":" ","MAREA":"頂寮","LANE":" ","ALLEY":" ","HOUSE_NO":"４１號之３６","E_COORD97":183933.09,"N_COORD97":2581339.25,"ADDRESS":"頂寮４１之３６號","OBJECTID":82265},"geometry":{"x":183933.08999999985,"y":2581339.25}},{"attributes":{"ID":82266,"DIS_CODE":0,"TOWNNAME":"後壁區","LI":"頂安里","LIN":"4鄰","STREET":" ","SECT":" ","MAREA":"頂寮","LANE":" ","ALLEY":" ","HOUSE_NO":"４１號之４４","E_COORD97":183963.79999999999,"N_COORD97":2581348.9199999999,"ADDRESS":"頂寮４１之４４號","OBJECTID":82266},"geometry":{"x":183963.79999999981,"y":2581348.9199999999}},{"attributes":{"ID":82267,"DIS_CODE":0,"TOWNNAME":"永康區","LI":"烏竹里","LIN":"16鄰","STREET":"自強路","SECT":" ","MAREA":" ","LANE":"９２５巷","ALLEY":"１１弄","HOUSE_NO":"３１號","E_COORD97":174686.73999999999,"N_COORD97":2548825,"ADDRESS":"自強路９２５巷１１弄３１號","OBJECTID":82267},"geometry":{"x":174686.74000000022,"y":2548825.0000000037}},{"attributes":{"ID":82268,"DIS_CODE":0,"TOWNNAME":"永康區","LI":"神洲里","LIN":"8鄰","STREET":"忠孝路","SECT":" ","MAREA":" ","LANE":"６巷","ALLEY":"１９弄","HOUSE_NO":"６號","E_COORD97":172223.07000000001,"N_COORD97":2544592.7200000002,"ADDRESS":"忠孝路６巷１９弄６號","OBJECTID":82268},"geometry":{"x":172223.07000000123,"y":2544592.7200000007}},{"attributes":{"ID":82269,"DIS_CODE":0,"TOWNNAME":"安南區","LI":"總頭里","LIN":"12鄰","STREET":"長溪路","SECT":"二段","MAREA":" ","LANE":"４８３巷","ALLEY":"４６弄","HOUSE_NO":"２２號三樓","E_COORD97":168147.92999999999,"N_COORD97":2550496.7000000002,"ADDRESS":"長溪路二段４８３巷４６弄２２號三樓","OBJECTID":82269},"geometry":{"x":168147.93000000063,"y":2550496.6999999993}},{"attributes":{"ID":82270,"DIS_CODE":0,"TOWNNAME":"安南區","LI":"總頭里","LIN":"12鄰","STREET":"長溪路","SECT":"二段","MAREA":" ","LANE":"４８３巷","ALLEY":"４６弄","HOUSE_NO":"２２號二樓","E_COORD97":168147.92999999999,"N_COORD97":2550496.7000000002,"ADDRESS":"長溪路二段４８３巷４６弄２２號二樓","OBJECTID":82270},"geometry":{"x":168147.93000000063,"y":2550496.6999999993}},{"attributes":{"ID":82271,"DIS_CODE":0,"TOWNNAME":"永康區","LI":"中華里","LIN":"15鄰","STREET":"忠義街","SECT":" ","MAREA":" ","LANE":"６０巷","ALLEY":" ","HOUSE_NO":"１６號","E_COORD97":171773.57000000001,"N_COORD97":2544511.1099999999,"ADDRESS":"忠義街６０巷１６號","OBJECTID":82271},"geometry":{"x":171773.57000000123,"y":2544511.1100000031}},{"attributes":{"ID":82272,"DIS_CODE":0,"TOWNNAME":"永康區","LI":"中華里","LIN":"15鄰","STREET":"華興街","SECT":" ","MAREA":" ","LANE":" ","ALLEY":" ","HOUSE_NO":"９７號底二層之３","E_COORD97":171791.69,"N_COORD97":2544563.1299999999,"ADDRESS":"華興街９７號底二層之３","OBJECTID":82272},"geometry":{"x":171791.69000000134,"y":2544563.129999999}},{"attributes":{"ID":82273,"DIS_CODE":0,"TOWNNAME":"永康區","LI":"復國里","LIN":"15鄰","STREET":"復國二路","SECT":" ","MAREA":" ","LANE":" ","ALLEY":" ","HOUSE_NO":"１５７號","E_COORD97":172911.79000000001,"N_COORD97":2545730.0499999998,"ADDRESS":"復國二路１５７號","OBJECTID":82273},"geometry":{"x":172911.79000000004,"y":2545730.0500000045}},{"attributes":{"ID":82274,"DIS_CODE":0,"TOWNNAME":"永康區","LI":"中華里","LIN":"15鄰","STREET":"華興街","SECT":" ","MAREA":" ","LANE":" ","ALLEY":" ","HOUSE_NO":"８９號","E_COORD97":171803.09,"N_COORD97":2544563.2200000002,"ADDRESS":"華興街８９號","OBJECTID":82274},"geometry":{"x":171803.09000000078,"y":2544563.2200000025}},{"attributes":{"ID":82275,"DIS_CODE":0,"TOWNNAME":"柳營區","LI":"重溪里","LIN":"14鄰","STREET":" ","SECT":" ","MAREA":"小腳腿","LANE":" ","ALLEY":" ","HOUSE_NO":"１５１號之１","E_COORD97":185161.01999999999,"N_COORD97":2576831.8599999999,"ADDRESS":"小腳腿１５１號之１","OBJECTID":82275},"geometry":{"x":185161.01999999955,"y":2576831.8599999994}},{"attributes":{"ID":82276,"DIS_CODE":0,"TOWNNAME":"安南區","LI":"總頭里","LIN":"12鄰","STREET":"長溪路","SECT":"二段","MAREA":" ","LANE":"４８３巷","ALLEY":"４６弄","HOUSE_NO":"２２號四樓","E_COORD97":168147.92999999999,"N_COORD97":2550496.7000000002,"ADDRESS":"長溪路二段４８３巷４６弄２２號四樓","OBJECTID":82276},"geometry":{"x":168147.93000000063,"y":2550496.6999999993}},{"attributes":{"ID":82277,"DIS_CODE":0,"TOWNNAME":"永康區","LI":"南灣里","LIN":"43鄰","STREET":"大灣路","SECT":" ","MAREA":" ","LANE":"５３７巷","ALLEY":"１４弄","HOUSE_NO":"５號","E_COORD97":174468.48999999999,"N_COORD97":2544474.5,"ADDRESS":"大灣路５３７巷１４弄５號","OBJECTID":82277},"geometry":{"x":174468.49000000022,"y":2544474.5}},{"attributes":{"ID":82278,"DIS_CODE":0,"TOWNNAME":"柳營區","LI":"重溪里","LIN":"14鄰","STREET":" ","SECT":" ","MAREA":"小腳腿","LANE":" ","ALLEY":" ","HOUSE_NO":"１５１號","E_COORD97":185156.35999999999,"N_COORD97":2576832.3399999999,"ADDRESS":"小腳腿１５１號","OBJECTID":82278},"geometry":{"x":185156.3600000022,"y":2576832.3399999999}},{"attributes":{"ID":82279,"DIS_CODE":0,"TOWNNAME":"永康區","LI":"南灣里","LIN":"43鄰","STREET":"大灣路","SECT":" ","MAREA":" ","LANE":"５３７巷","ALLEY":"１４弄","HOUSE_NO":"１號","E_COORD97":174478.57999999999,"N_COORD97":2544477,"ADDRESS":"大灣路５３７巷１４弄１號","OBJECTID":82279},"geometry":{"x":174478.58000000101,"y":2544477}},{"attributes":{"ID":82280,"DIS_CODE":0,"TOWNNAME":"新市區","LI":"大營里","LIN":"19鄰","STREET":" ","SECT":" ","MAREA":"豐榮","LANE":" ","ALLEY":" ","HOUSE_NO":"３６號","E_COORD97":178781.89999999999,"N_COORD97":2554426.5,"ADDRESS":"豐榮３６號","OBJECTID":82280},"geometry":{"x":178781.90000000037,"y":2554426.5000000019}},{"attributes":{"ID":82281,"DIS_CODE":0,"TOWNNAME":"柳營區","LI":"篤農里","LIN":"14鄰","STREET":" ","SECT":" ","MAREA":"小腳腿","LANE":" ","ALLEY":" ","HOUSE_NO":"３０２號之１","E_COORD97":185593.73000000001,"N_COORD97":2576551.0499999998,"ADDRESS":"小腳腿３０２號之１","OBJECTID":82281},"geometry":{"x":185593.73000000138,"y":2576551.0500000007}},{"attributes":{"ID":82282,"DIS_CODE":0,"TOWNNAME":"柳營區","LI":"篤農里","LIN":"14鄰","STREET":" ","SECT":" ","MAREA":"小腳腿","LANE":" ","ALLEY":" ","HOUSE_NO":"３０２號","E_COORD97":185608.98999999999,"N_COORD97":2576550.9100000001,"ADDRESS":"小腳腿３０２號","OBJECTID":82282},"geometry":{"x":185608.99000000022,"y":2576550.9100000001}},{"attributes":{"ID":82283,"DIS_CODE":0,"TOWNNAME":"柳營區","LI":"篤農里","LIN":"14鄰","STREET":" ","SECT":" ","MAREA":"小腳腿","LANE":" ","ALLEY":" ","HOUSE_NO":"３０３號之２","E_COORD97":185616.26000000001,"N_COORD97":2576551.0099999998,"ADDRESS":"小腳腿３０３號之２","OBJECTID":82283},"geometry":{"x":185616.26000000071,"y":2576551.0099999979}},{"attributes":{"ID":82284,"DIS_CODE":0,"TOWNNAME":"柳營區","LI":"篤農里","LIN":"14鄰","STREET":" ","SECT":" ","MAREA":"小腳腿","LANE":" ","ALLEY":" ","HOUSE_NO":"３０３號之３","E_COORD97":185639.25,"N_COORD97":2576519.5899999999,"ADDRESS":"小腳腿３０３號之３","OBJECTID":82284},"geometry":{"x":185639.25,"y":2576519.5899999999}},{"attributes":{"ID":82285,"DIS_CODE":0,"TOWNNAME":"柳營區","LI":"篤農里","LIN":"14鄰","STREET":" ","SECT":" ","MAREA":"小腳腿","LANE":" ","ALLEY":" ","HOUSE_NO":"３０３號","E_COORD97":185629.91,"N_COORD97":2576543.2599999998,"ADDRESS":"小腳腿３０３號","OBJECTID":82285},"geometry":{"x":185629.91000000015,"y":2576543.2600000016}},{"attributes":{"ID":82286,"DIS_CODE":0,"TOWNNAME":"柳營區","LI":"篤農里","LIN":"14鄰","STREET":" ","SECT":" ","MAREA":"小腳腿","LANE":" ","ALLEY":" ","HOUSE_NO":"３０４號","E_COORD97":185638.16,"N_COORD97":2576543.71,"ADDRESS":"小腳腿３０４號","OBJECTID":82286},"geometry":{"x":185638.16000000015,"y":2576543.7100000009}},{"attributes":{"ID":82287,"DIS_CODE":0,"TOWNNAME":"永康區","LI":"埔園里","LIN":"30鄰","STREET":"龍埔街","SECT":" ","MAREA":" ","LANE":"４３０巷","ALLEY":"３３弄","HOUSE_NO":"６號","E_COORD97":173948.29000000001,"N_COORD97":2548463.2400000002,"ADDRESS":"龍埔街４３０巷３３弄６號","OBJECTID":82287},"geometry":{"x":173948.29000000097,"y":2548463.2400000002}},{"attributes":{"ID":82288,"DIS_CODE":0,"TOWNNAME":"東區","LI":"和平里","LIN":"12鄰","STREET":"東門路","SECT":"三段","MAREA":" ","LANE":"２２６巷","ALLEY":"９７弄","HOUSE_NO":"７６號三樓","E_COORD97":171425.89000000001,"N_COORD97":2541714.6099999999,"ADDRESS":"東門路三段２２６巷９７弄７６號三樓","OBJECTID":82288},"geometry":{"x":171425.88999999966,"y":2541714.6100000013}},{"attributes":{"ID":82289,"DIS_CODE":0,"TOWNNAME":"東區","LI":"和平里","LIN":"12鄰","STREET":"東門路","SECT":"三段","MAREA":" ","LANE":"２２６巷","ALLEY":"９７弄","HOUSE_NO":"７６號二樓","E_COORD97":171425.89000000001,"N_COORD97":2541714.6099999999,"ADDRESS":"東門路三段２２６巷９７弄７６號二樓","OBJECTID":82289},"geometry":{"x":171425.88999999966,"y":2541714.6100000013}},{"attributes":{"ID":82290,"DIS_CODE":0,"TOWNNAME":"東區","LI":"和平里","LIN":"12鄰","STREET":"東門路","SECT":"三段","MAREA":" ","LANE":"２２６巷","ALLEY":"９７弄","HOUSE_NO":"７６號四樓","E_COORD97":171425.89000000001,"N_COORD97":2541714.6099999999,"ADDRESS":"東門路三段２２６巷９７弄７６號四樓","OBJECTID":82290},"geometry":{"x":171425.88999999966,"y":2541714.6100000013}},{"attributes":{"ID":82291,"DIS_CODE":0,"TOWNNAME":"安平區","LI":"億載里","LIN":"15鄰","STREET":"光州四街","SECT":" ","MAREA":" ","LANE":" ","ALLEY":" ","HOUSE_NO":"５６號","E_COORD97":164084.17999999999,"N_COORD97":2543188.6899999999,"ADDRESS":"光州四街５６號","OBJECTID":82291},"geometry":{"x":164084.18000000063,"y":2543188.6900000013}},{"attributes":{"ID":82292,"DIS_CODE":0,"TOWNNAME":"新營區","LI":"埤寮里","LIN":"15鄰","STREET":"長榮路","SECT":"一段","MAREA":" ","LANE":" ","ALLEY":" ","HOUSE_NO":"５４０號","E_COORD97":180164.82999999999,"N_COORD97":2579887.6000000001,"ADDRESS":"長榮路一段５４０號","OBJECTID":82292},"geometry":{"x":180164.83000000007,"y":2579887.6000000015}},{"attributes":{"ID":82293,"DIS_CODE":0,"TOWNNAME":"南區","LI":"新昌里","LIN":"15鄰","STREET":"國華街","SECT":"一段","MAREA":" ","LANE":" ","ALLEY":" ","HOUSE_NO":"１０２號","E_COORD97":167617.70000000001,"N_COORD97":2542907.5600000001,"ADDRESS":"國華街一段１０２號","OBJECTID":82293},"geometry":{"x":167617.70000000112,"y":2542907.5600000005}},{"attributes":{"ID":82294,"DIS_CODE":0,"TOWNNAME":"柳營區","LI":"篤農里","LIN":"14鄰","STREET":" ","SECT":" ","MAREA":"小腳腿","LANE":" ","ALLEY":" ","HOUSE_NO":"３０５號之１","E_COORD97":185664.82000000001,"N_COORD97":2576543.3100000001,"ADDRESS":"小腳腿３０５號之１","OBJECTID":82294},"geometry":{"x":185664.8200000003,"y":2576543.3100000042}},{"attributes":{"ID":82295,"DIS_CODE":0,"TOWNNAME":"柳營區","LI":"篤農里","LIN":"14鄰","STREET":" ","SECT":" ","MAREA":"小腳腿","LANE":" ","ALLEY":" ","HOUSE_NO":"３０５號之２","E_COORD97":185672.32999999999,"N_COORD97":2576514.8399999999,"ADDRESS":"小腳腿３０５號之２","OBJECTID":82295},"geometry":{"x":185672.33000000101,"y":2576514.8399999999}},{"attributes":{"ID":82296,"DIS_CODE":0,"TOWNNAME":"柳營區","LI":"篤農里","LIN":"14鄰","STREET":" ","SECT":" ","MAREA":"小腳腿","LANE":" ","ALLEY":" ","HOUSE_NO":"３０５號之５","E_COORD97":185669.26000000001,"N_COORD97":2576482.3199999998,"ADDRESS":"小腳腿３０５號之５","OBJECTID":82296},"geometry":{"x":185669.25999999978,"y":2576482.3200000022}},{"attributes":{"ID":82297,"DIS_CODE":0,"TOWNNAME":"柳營區","LI":"篤農里","LIN":"14鄰","STREET":" ","SECT":" ","MAREA":"小腳腿","LANE":" ","ALLEY":" ","HOUSE_NO":"３０５號之８","E_COORD97":185670.14000000001,"N_COORD97":2576461.2599999998,"ADDRESS":"小腳腿３０５號之８","OBJECTID":82297},"geometry":{"x":185670.13999999966,"y":2576461.2600000035}},{"attributes":{"ID":82298,"DIS_CODE":0,"TOWNNAME":"柳營區","LI":"篤農里","LIN":"14鄰","STREET":" ","SECT":" ","MAREA":"小腳腿","LANE":" ","ALLEY":" ","HOUSE_NO":"３０５號","E_COORD97":185695.26999999999,"N_COORD97":2576538.6000000001,"ADDRESS":"小腳腿３０５號","OBJECTID":82298},"geometry":{"x":185695.27000000142,"y":2576538.6000000015}},{"attributes":{"ID":82299,"DIS_CODE":0,"TOWNNAME":"柳營區","LI":"篤農里","LIN":"14鄰","STREET":" ","SECT":" ","MAREA":"小腳腿","LANE":" ","ALLEY":" ","HOUSE_NO":"３０６號","E_COORD97":185698.39999999999,"N_COORD97":2576520.7799999998,"ADDRESS":"小腳腿３０６號","OBJECTID":82299},"geometry":{"x":185698.40000000037,"y":2576520.7799999993}},{"attributes":{"ID":82300,"DIS_CODE":0,"TOWNNAME":"柳營區","LI":"篤農里","LIN":"14鄰","STREET":" ","SECT":" ","MAREA":"小腳腿","LANE":" ","ALLEY":" ","HOUSE_NO":"３０７號之２","E_COORD97":185779.84,"N_COORD97":2576561.8500000001,"ADDRESS":"小腳腿３０７號之２","OBJECTID":82300},"geometry":{"x":185779.84000000171,"y":2576561.8499999996}},{"attributes":{"ID":82301,"DIS_CODE":0,"TOWNNAME":"柳營區","LI":"篤農里","LIN":"14鄰","STREET":" ","SECT":" ","MAREA":"小腳腿","LANE":" ","ALLEY":" ","HOUSE_NO":"３０７號","E_COORD97":185673.94,"N_COORD97":2576586.3300000001,"ADDRESS":"小腳腿３０７號","OBJECTID":82301},"geometry":{"x":185673.94000000041,"y":2576586.3300000001}},{"attributes":{"ID":82302,"DIS_CODE":0,"TOWNNAME":"柳營區","LI":"篤農里","LIN":"14鄰","STREET":" ","SECT":" ","MAREA":"小腳腿","LANE":" ","ALLEY":" ","HOUSE_NO":"３０８號之３","E_COORD97":185597.62,"N_COORD97":2576575.9500000002,"ADDRESS":"小腳腿３０８號之３","OBJECTID":82302},"geometry":{"x":185597.62000000104,"y":2576575.9500000011}},{"attributes":{"ID":82303,"DIS_CODE":0,"TOWNNAME":"柳營區","LI":"篤農里","LIN":"14鄰","STREET":" ","SECT":" ","MAREA":"小腳腿","LANE":" ","ALLEY":" ","HOUSE_NO":"３０８號之５","E_COORD97":185597.07999999999,"N_COORD97":2576590.29,"ADDRESS":"小腳腿３０８號之５","OBJECTID":82303},"geometry":{"x":185597.08000000194,"y":2576590.290000001}},{"attributes":{"ID":82304,"DIS_CODE":0,"TOWNNAME":"柳營區","LI":"篤農里","LIN":"14鄰","STREET":" ","SECT":" ","MAREA":"小腳腿","LANE":" ","ALLEY":" ","HOUSE_NO":"３０８號","E_COORD97":185589.75,"N_COORD97":2576578.21,"ADDRESS":"小腳腿３０８號","OBJECTID":82304},"geometry":{"x":185589.75000000093,"y":2576578.2100000046}},{"attributes":{"ID":82305,"DIS_CODE":0,"TOWNNAME":"南區","LI":"新昌里","LIN":"15鄰","STREET":"國華街","SECT":"一段","MAREA":" ","LANE":" ","ALLEY":" ","HOUSE_NO":"１０４號","E_COORD97":167617.38,"N_COORD97":2542915.4900000002,"ADDRESS":"國華街一段１０４號","OBJECTID":82305},"geometry":{"x":167617.38000000175,"y":2542915.4900000002}},{"attributes":{"ID":82306,"DIS_CODE":0,"TOWNNAME":"南區","LI":"新昌里","LIN":"15鄰","STREET":"國華街","SECT":"一段","MAREA":" ","LANE":" ","ALLEY":" ","HOUSE_NO":"１０６號","E_COORD97":167616.42999999999,"N_COORD97":2542921.8300000001,"ADDRESS":"國華街一段１０６號","OBJECTID":82306},"geometry":{"x":167616.4299999997,"y":2542921.8300000019}},{"attributes":{"ID":82307,"DIS_CODE":0,"TOWNNAME":"南區","LI":"新昌里","LIN":"15鄰","STREET":"國華街","SECT":"一段","MAREA":" ","LANE":" ","ALLEY":" ","HOUSE_NO":"９６號","E_COORD97":167618.01999999999,"N_COORD97":2542891.0699999998,"ADDRESS":"國華街一段９６號","OBJECTID":82307},"geometry":{"x":167618.02000000048,"y":2542891.0700000003}},{"attributes":{"ID":82308,"DIS_CODE":0,"TOWNNAME":"南區","LI":"新昌里","LIN":"15鄰","STREET":"國華街","SECT":"一段","MAREA":" ","LANE":" ","ALLEY":" ","HOUSE_NO":"９８號","E_COORD97":167617.70000000001,"N_COORD97":2542892.6600000001,"ADDRESS":"國華街一段９８號","OBJECTID":82308},"geometry":{"x":167617.70000000112,"y":2542892.6600000001}},{"attributes":{"ID":82309,"DIS_CODE":0,"TOWNNAME":"柳營區","LI":"篤農里","LIN":"14鄰","STREET":" ","SECT":" ","MAREA":"小腳腿","LANE":" ","ALLEY":" ","HOUSE_NO":"３１０號之１","E_COORD97":185597.31,"N_COORD97":2576604.3199999998,"ADDRESS":"小腳腿３１０號之１","OBJECTID":82309},"geometry":{"x":185597.31000000052,"y":2576604.3200000022}},{"attributes":{"ID":82310,"DIS_CODE":0,"TOWNNAME":"柳營區","LI":"篤農里","LIN":"14鄰","STREET":" ","SECT":" ","MAREA":"小腳腿","LANE":" ","ALLEY":" ","HOUSE_NO":"３１１號","E_COORD97":185638.35999999999,"N_COORD97":2576595.8599999999,"ADDRESS":"小腳腿３１１號","OBJECTID":82310},"geometry":{"x":185638.36000000127,"y":2576595.8600000031}},{"attributes":{"ID":82311,"DIS_CODE":0,"TOWNNAME":"柳營區","LI":"篤農里","LIN":"14鄰","STREET":" ","SECT":" ","MAREA":"小腳腿","LANE":" ","ALLEY":" ","HOUSE_NO":"３１２號","E_COORD97":185623.81,"N_COORD97":2576624.8100000001,"ADDRESS":"小腳腿３１２號","OBJECTID":82311},"geometry":{"x":185623.81000000145,"y":2576624.8100000042}},{"attributes":{"ID":82312,"DIS_CODE":0,"TOWNNAME":"柳營區","LI":"篤農里","LIN":"14鄰","STREET":" ","SECT":" ","MAREA":"小腳腿","LANE":" ","ALLEY":" ","HOUSE_NO":"３１３號","E_COORD97":185606.04000000001,"N_COORD97":2576615.0800000001,"ADDRESS":"小腳腿３１３號","OBJECTID":82312},"geometry":{"x":185606.04000000097,"y":2576615.0800000001}},{"attributes":{"ID":82313,"DIS_CODE":0,"TOWNNAME":"東山區","LI":"大客里","LIN":"14鄰","STREET":" ","SECT":" ","MAREA":"凹子\u25A0","LANE":" ","ALLEY":" ","HOUSE_NO":"１１號","E_COORD97":191385.75,"N_COORD97":2578555.7400000002,"ADDRESS":"凹子\u25A0１１號","OBJECTID":82313},"geometry":{"x":191385.75,"y":2578555.7400000002}},{"attributes":{"ID":82314,"DIS_CODE":0,"TOWNNAME":"東山區","LI":"大客里","LIN":"14鄰","STREET":" ","SECT":" ","MAREA":"凹子\u25A0","LANE":" ","ALLEY":" ","HOUSE_NO":"１２號之２","E_COORD97":191410,"N_COORD97":2578544.8999999999,"ADDRESS":"凹子\u25A0１２號之２","OBJECTID":82314},"geometry":{"x":191410,"y":2578544.9000000004}},{"attributes":{"ID":82315,"DIS_CODE":0,"TOWNNAME":"東山區","LI":"大客里","LIN":"14鄰","STREET":" ","SECT":" ","MAREA":"凹子\u25A0","LANE":" ","ALLEY":" ","HOUSE_NO":"１２之３號","E_COORD97":191355.01999999999,"N_COORD97":2578542.5299999998,"ADDRESS":"凹子\u25A0１２之３號","OBJECTID":82315},"geometry":{"x":191355.01999999955,"y":2578542.5299999993}},{"attributes":{"ID":82316,"DIS_CODE":0,"TOWNNAME":"東山區","LI":"大客里","LIN":"14鄰","STREET":" ","SECT":" ","MAREA":"凹子\u25A0","LANE":" ","ALLEY":" ","HOUSE_NO":"１２號之３","E_COORD97":191355.01999999999,"N_COORD97":2578542.5299999998,"ADDRESS":"凹子\u25A0１２號之３","OBJECTID":82316},"geometry":{"x":191355.01999999955,"y":2578542.5299999993}},{"attributes":{"ID":82317,"DIS_CODE":0,"TOWNNAME":"東區","LI":"和平里","LIN":"12鄰","STREET":"東門路","SECT":"三段","MAREA":" ","LANE":"２２６巷","ALLEY":"９７弄","HOUSE_NO":"７８號二樓","E_COORD97":171416.75,"N_COORD97":2541714.3300000001,"ADDRESS":"東門路三段２２６巷９７弄７８號二樓","OBJECTID":82317},"geometry":{"x":171416.75,"y":2541714.3300000019}},{"attributes":{"ID":82318,"DIS_CODE":0,"TOWNNAME":"東山區","LI":"大客里","LIN":"14鄰","STREET":" ","SECT":" ","MAREA":"凹子\u25A0","LANE":" ","ALLEY":" ","HOUSE_NO":"１２號之４","E_COORD97":191409.88,"N_COORD97":2578601.4500000002,"ADDRESS":"凹子\u25A0１２號之４","OBJECTID":82318},"geometry":{"x":191409.88000000082,"y":2578601.4499999993}},{"attributes":{"ID":82319,"DIS_CODE":0,"TOWNNAME":"東區","LI":"和平里","LIN":"12鄰","STREET":"東門路","SECT":"三段","MAREA":" ","LANE":"２２６巷","ALLEY":"９７弄","HOUSE_NO":"７８號三樓","E_COORD97":171416.75,"N_COORD97":2541714.3300000001,"ADDRESS":"東門路三段２２６巷９７弄７８號三樓","OBJECTID":82319},"geometry":{"x":171416.75,"y":2541714.3300000019}},{"attributes":{"ID":82320,"DIS_CODE":0,"TOWNNAME":"東區","LI":"和平里","LIN":"12鄰","STREET":"東門路","SECT":"三段","MAREA":" ","LANE":"２２６巷","ALLEY":"９７弄","HOUSE_NO":"７８號四樓","E_COORD97":171416.75,"N_COORD97":2541714.3300000001,"ADDRESS":"東門路三段２２６巷９７弄７８號四樓","OBJECTID":82320},"geometry":{"x":171416.75,"y":2541714.3300000019}},{"attributes":{"ID":82321,"DIS_CODE":0,"TOWNNAME":"善化區","LI":"光文里","LIN":"30鄰","STREET":" ","SECT":" ","MAREA":"北子店","LANE":" ","ALLEY":" ","HOUSE_NO":"５５９號","E_COORD97":179323.29000000001,"N_COORD97":2559937.25,"ADDRESS":"北子店５５９號","OBJECTID":82321},"geometry":{"x":179323.2900000019,"y":2559937.2500000037}},{"attributes":{"ID":82322,"DIS_CODE":0,"TOWNNAME":"善化區","LI":"光文里","LIN":"30鄰","STREET":" ","SECT":" ","MAREA":"北子店","LANE":" ","ALLEY":" ","HOUSE_NO":"４９９號之８","E_COORD97":179190,"N_COORD97":2559760.77,"ADDRESS":"北子店４９９號之８","OBJECTID":82322},"geometry":{"x":179190.00000000093,"y":2559760.7700000014}},{"attributes":{"ID":82323,"DIS_CODE":0,"TOWNNAME":"永康區","LI":"東灣里","LIN":"26鄰","STREET":"民族路","SECT":" ","MAREA":" ","LANE":"１巷","ALLEY":"７０弄","HOUSE_NO":"１９號","E_COORD97":175348.44,"N_COORD97":2543956.04,"ADDRESS":"民族路１巷７０弄１９號","OBJECTID":82323},"geometry":{"x":175348.44000000041,"y":2543956.040000001}},{"attributes":{"ID":82324,"DIS_CODE":0,"TOWNNAME":"永康區","LI":"東灣里","LIN":"35鄰","STREET":"民族路","SECT":" ","MAREA":" ","LANE":"２７３巷","ALLEY":"１３弄","HOUSE_NO":"２６號","E_COORD97":175114.70999999999,"N_COORD97":2544961.73,"ADDRESS":"民族路２７３巷１３弄２６號","OBJECTID":82324},"geometry":{"x":175114.71000000183,"y":2544961.7300000004}},{"attributes":{"ID":82325,"DIS_CODE":0,"TOWNNAME":"永康區","LI":"埔園里","LIN":"15鄰","STREET":"中山路","SECT":" ","MAREA":" ","LANE":"３８３巷","ALLEY":"１弄","HOUSE_NO":"１１號","E_COORD97":173533.72,"N_COORD97":2548501.1000000001,"ADDRESS":"中山路３８３巷１弄１１號","OBJECTID":82325},"geometry":{"x":173533.71999999974,"y":2548501.0999999996}},{"attributes":{"ID":82326,"DIS_CODE":0,"TOWNNAME":"永康區","LI":"埔園里","LIN":"37鄰","STREET":"龍國街","SECT":" ","MAREA":" ","LANE":"１３１巷","ALLEY":"５弄","HOUSE_NO":"１２號","E_COORD97":174297.56,"N_COORD97":2548129.0800000001,"ADDRESS":"龍國街１３１巷５弄１２號","OBJECTID":82326},"geometry":{"x":174297.55999999959,"y":2548129.0800000001}},{"attributes":{"ID":82327,"DIS_CODE":0,"TOWNNAME":"永康區","LI":"埔園里","LIN":"38鄰","STREET":"龍國街","SECT":" ","MAREA":" ","LANE":"１２８巷","ALLEY":"１９弄","HOUSE_NO":"１６號","E_COORD97":174244.57999999999,"N_COORD97":2548010.3300000001,"ADDRESS":"龍國街１２８巷１９弄１６號","OBJECTID":82327},"geometry":{"x":174244.58000000101,"y":2548010.3300000019}},{"attributes":{"ID":82328,"DIS_CODE":0,"TOWNNAME":"永康區","LI":"南灣里","LIN":"43鄰","STREET":"南興路","SECT":" ","MAREA":" ","LANE":"１１２巷","ALLEY":"１０弄","HOUSE_NO":"１４號","E_COORD97":174419.73000000001,"N_COORD97":2544414.4199999999,"ADDRESS":"南興路１１２巷１０弄１４號","OBJECTID":82328},"geometry":{"x":174419.73000000045,"y":2544414.4199999981}},{"attributes":{"ID":82329,"DIS_CODE":0,"TOWNNAME":"永康區","LI":"建國里","LIN":"30鄰","STREET":"復興路","SECT":" ","MAREA":" ","LANE":"７１巷","ALLEY":"８８弄","HOUSE_NO":"１４號之２","E_COORD97":172624.62,"N_COORD97":2543719.0499999998,"ADDRESS":"復興路７１巷８８弄１４號之２","OBJECTID":82329},"geometry":{"x":172624.62000000011,"y":2543719.0500000007}},{"attributes":{"ID":82330,"DIS_CODE":0,"TOWNNAME":"學甲區","LI":"明宜里","LIN":"15鄰","STREET":"重信路","SECT":" ","MAREA":" ","LANE":" ","ALLEY":" ","HOUSE_NO":"１號地下室之１","E_COORD97":166124.82999999999,"N_COORD97":2570564.8900000001,"ADDRESS":"重信路１號地下室之１","OBJECTID":82330},"geometry":{"x":166124.83000000101,"y":2570564.8900000006}},{"attributes":{"ID":82331,"DIS_CODE":0,"TOWNNAME":"北區","LI":"實踐里","LIN":"15鄰","STREET":"長榮路","SECT":"五段","MAREA":" ","LANE":" ","ALLEY":" ","HOUSE_NO":"３７４號","E_COORD97":169547.92000000001,"N_COORD97":2545963.4100000001,"ADDRESS":"長榮路五段３７４號","OBJECTID":82331},"geometry":{"x":169547.92000000179,"y":2545963.4100000001}},{"attributes":{"ID":82332,"DIS_CODE":0,"TOWNNAME":"楠西區","LI":"東勢里","LIN":"15鄰","STREET":"中正路","SECT":" ","MAREA":" ","LANE":" ","ALLEY":" ","HOUSE_NO":"３３３號","E_COORD97":197510.16,"N_COORD97":2563445.25,"ADDRESS":"中正路３３３號","OBJECTID":82332},"geometry":{"x":197510.16000000015,"y":2563445.25}},{"attributes":{"ID":82333,"DIS_CODE":0,"TOWNNAME":"楠西區","LI":"東勢里","LIN":"15鄰","STREET":"中正路","SECT":" ","MAREA":" ","LANE":" ","ALLEY":" ","HOUSE_NO":"２９３號","E_COORD97":197464.85999999999,"N_COORD97":2563569.25,"ADDRESS":"中正路２９３號","OBJECTID":82333},"geometry":{"x":197464.86000000034,"y":2563569.2500000019}},{"attributes":{"ID":82334,"DIS_CODE":0,"TOWNNAME":"楠西區","LI":"楠西里","LIN":"15鄰","STREET":"中正路","SECT":" ","MAREA":" ","LANE":" ","ALLEY":" ","HOUSE_NO":"２４號之１","E_COORD97":197123.04999999999,"N_COORD97":2564103.2999999998,"ADDRESS":"中正路２４號之１","OBJECTID":82334},"geometry":{"x":197123.05000000075,"y":2564103.3000000007}},{"attributes":{"ID":82335,"DIS_CODE":0,"TOWNNAME":"楠西區","LI":"東勢里","LIN":"15鄰","STREET":"中正路","SECT":" ","MAREA":" ","LANE":" ","ALLEY":" ","HOUSE_NO":"３０５號","E_COORD97":197487.56,"N_COORD97":2563524.25,"ADDRESS":"中正路３０５號","OBJECTID":82335},"geometry":{"x":197487.55999999959,"y":2563524.2500000037}},{"attributes":{"ID":82336,"DIS_CODE":0,"TOWNNAME":"新營區","LI":"興安里","LIN":"15鄰","STREET":"延平路","SECT":" ","MAREA":" ","LANE":" ","ALLEY":" ","HOUSE_NO":"１２９號之１","E_COORD97":179758.63,"N_COORD97":2577465.3599999999,"ADDRESS":"延平路１２９號之１","OBJECTID":82336},"geometry":{"x":179758.63000000082,"y":2577465.3600000013}},{"attributes":{"ID":82337,"DIS_CODE":0,"TOWNNAME":"新營區","LI":"三仙里","LIN":"15鄰","STREET":"民權路","SECT":" ","MAREA":" ","LANE":" ","ALLEY":" ","HOUSE_NO":"６９號","E_COORD97":179668.75,"N_COORD97":2578421.46,"ADDRESS":"民權路６９號","OBJECTID":82337},"geometry":{"x":179668.75,"y":2578421.4600000028}},{"attributes":{"ID":82338,"DIS_CODE":0,"TOWNNAME":"新營區","LI":"民榮里","LIN":"15鄰","STREET":"復興路","SECT":" ","MAREA":" ","LANE":" ","ALLEY":" ","HOUSE_NO":"２２９號","E_COORD97":178873.54999999999,"N_COORD97":2578059.7999999998,"ADDRESS":"復興路２２９號","OBJECTID":82338},"geometry":{"x":178873.54999999981,"y":2578059.8000000026}},{"attributes":{"ID":82339,"DIS_CODE":0,"TOWNNAME":"新營區","LI":"延平里","LIN":"15鄰","STREET":"復興路","SECT":" ","MAREA":" ","LANE":" ","ALLEY":" ","HOUSE_NO":"８１號","E_COORD97":179565.908005,"N_COORD97":2578032.1939500002,"ADDRESS":"復興路８１號","OBJECTID":82339},"geometry":{"x":179565.90800500102,"y":2578032.1939529981}},{"attributes":{"ID":82340,"DIS_CODE":0,"TOWNNAME":"新營區","LI":"新東里","LIN":"15鄰","STREET":"東泰三街","SECT":" ","MAREA":" ","LANE":" ","ALLEY":" ","HOUSE_NO":"４０號","E_COORD97":181009.47,"N_COORD97":2579603.5600000001,"ADDRESS":"東泰三街４０號","OBJECTID":82340},"geometry":{"x":181009.46999999974,"y":2579603.5600000024}},{"attributes":{"ID":82341,"DIS_CODE":0,"TOWNNAME":"新營區","LI":"新東里","LIN":"15鄰","STREET":"東智街","SECT":" ","MAREA":" ","LANE":" ","ALLEY":" ","HOUSE_NO":"２之１號","E_COORD97":181005.14000000001,"N_COORD97":2579571.4100000001,"ADDRESS":"東智街２之１號","OBJECTID":82341},"geometry":{"x":181005.13999999966,"y":2579571.410000002}},{"attributes":{"ID":82342,"DIS_CODE":0,"TOWNNAME":"永康區","LI":"建國里","LIN":"31鄰","STREET":"復興路","SECT":" ","MAREA":" ","LANE":"７１巷","ALLEY":"１１２弄","HOUSE_NO":"２６號","E_COORD97":172766.70000000001,"N_COORD97":2543669.2400000002,"ADDRESS":"復興路７１巷１１２弄２６號","OBJECTID":82342},"geometry":{"x":172766.70000000019,"y":2543669.2400000002}},{"attributes":{"ID":82343,"DIS_CODE":0,"TOWNNAME":"永康區","LI":"建國里","LIN":"30鄰","STREET":"復興路","SECT":" ","MAREA":" ","LANE":"７１巷","ALLEY":"８８弄","HOUSE_NO":"１４號之５","E_COORD97":172647.42000000001,"N_COORD97":2543747.3199999998,"ADDRESS":"復興路７１巷８８弄１４號之５","OBJECTID":82343},"geometry":{"x":172647.42000000086,"y":2543747.3200000003}},{"attributes":{"ID":82344,"DIS_CODE":0,"TOWNNAME":"永康區","LI":"東灣里","LIN":"35鄰","STREET":"民族路","SECT":" ","MAREA":" ","LANE":"２７３巷","ALLEY":"２３弄","HOUSE_NO":"２５號","E_COORD97":175126.14999999999,"N_COORD97":2544914.8599999999,"ADDRESS":"民族路２７３巷２３弄２５號","OBJECTID":82344},"geometry":{"x":175126.1500000013,"y":2544914.8599999994}},{"attributes":{"ID":82345,"DIS_CODE":0,"TOWNNAME":"官田區","LI":"渡頭里","LIN":"30鄰","STREET":" ","SECT":" ","MAREA":"三塊厝","LANE":" ","ALLEY":" ","HOUSE_NO":"１９５號","E_COORD97":183327.95999999999,"N_COORD97":2561380.3399999999,"ADDRESS":"三塊厝１９５號","OBJECTID":82345},"geometry":{"x":183327.96000000183,"y":2561380.339999998}},{"attributes":{"ID":82346,"DIS_CODE":0,"TOWNNAME":"永康區","LI":"埔園里","LIN":"38鄰","STREET":"龍國街","SECT":" ","MAREA":" ","LANE":"１２８巷","ALLEY":"２５弄","HOUSE_NO":"８號","E_COORD97":174225.95000000001,"N_COORD97":2547989.23,"ADDRESS":"龍國街１２８巷２５弄８號","OBJECTID":82346},"geometry":{"x":174225.95000000019,"y":2547989.2300000004}},{"attributes":{"ID":82347,"DIS_CODE":0,"TOWNNAME":"永康區","LI":"埔園里","LIN":"15鄰","STREET":"中山路","SECT":" ","MAREA":" ","LANE":"３８３巷","ALLEY":"１弄","HOUSE_NO":"２２號","E_COORD97":173523.95000000001,"N_COORD97":2548484.23,"ADDRESS":"中山路３８３巷１弄２２號","OBJECTID":82347},"geometry":{"x":173523.95000000112,"y":2548484.2300000004}},{"attributes":{"ID":82348,"DIS_CODE":0,"TOWNNAME":"新市區","LI":"大營里","LIN":"19鄰","STREET":" ","SECT":" ","MAREA":"豐榮","LANE":" ","ALLEY":" ","HOUSE_NO":"３９號","E_COORD97":178769.54000000001,"N_COORD97":2554389.5,"ADDRESS":"豐榮３９號","OBJECTID":82348},"geometry":{"x":178769.54000000097,"y":2554389.5000000019}},{"attributes":{"ID":82349,"DIS_CODE":0,"TOWNNAME":"六甲區","LI":"中社里","LIN":"15鄰","STREET":" ","SECT":" ","MAREA":"中社","LANE":" ","ALLEY":" ","HOUSE_NO":"４３６號","E_COORD97":180567.17999999999,"N_COORD97":2570960.1200000001,"ADDRESS":"中社４３６號","OBJECTID":82349},"geometry":{"x":180567.1799999997,"y":2570960.120000001}},{"attributes":{"ID":82350,"DIS_CODE":0,"TOWNNAME":"善化區","LI":"光文里","LIN":"30鄰","STREET":" ","SECT":" ","MAREA":"北子店","LANE":" ","ALLEY":" ","HOUSE_NO":"５６９號","E_COORD97":179333.25,"N_COORD97":2559958,"ADDRESS":"北子店５６９號","OBJECTID":82350},"geometry":{"x":179333.25,"y":2559958}},{"attributes":{"ID":82351,"DIS_CODE":0,"TOWNNAME":"善化區","LI":"光文里","LIN":"30鄰","STREET":" ","SECT":" ","MAREA":"北子店","LANE":" ","ALLEY":" ","HOUSE_NO":"４９９號之１","E_COORD97":179224.35999999999,"N_COORD97":2559763.77,"ADDRESS":"北子店４９９號之１","OBJECTID":82351},"geometry":{"x":179224.36000000034,"y":2559763.7700000014}},{"attributes":{"ID":82352,"DIS_CODE":0,"TOWNNAME":"善化區","LI":"溪美里","LIN":"22鄰","STREET":" ","SECT":" ","MAREA":"溪尾","LANE":" ","ALLEY":" ","HOUSE_NO":"１９７號","E_COORD97":176988.76999999999,"N_COORD97":2561172.27,"ADDRESS":"溪尾１９７號","OBJECTID":82352},"geometry":{"x":176988.77000000142,"y":2561172.2699999996}},{"attributes":{"ID":82353,"DIS_CODE":0,"TOWNNAME":"善化區","LI":"溪美里","LIN":"22鄰","STREET":" ","SECT":" ","MAREA":"溪尾","LANE":" ","ALLEY":" ","HOUSE_NO":"１９２號之３","E_COORD97":176947.51000000001,"N_COORD97":2561182.52,"ADDRESS":"溪尾１９２號之３","OBJECTID":82353},"geometry":{"x":176947.50999999978,"y":2561182.5200000033}},{"attributes":{"ID":82354,"DIS_CODE":0,"TOWNNAME":"善化區","LI":"溪美里","LIN":"22鄰","STREET":" ","SECT":" ","MAREA":"溪尾","LANE":" ","ALLEY":" ","HOUSE_NO":"６０３號","E_COORD97":177112.28,"N_COORD97":2561125.02,"ADDRESS":"溪尾６０３號","OBJECTID":82354},"geometry":{"x":177112.28000000026,"y":2561125.0200000014}},{"attributes":{"ID":82355,"DIS_CODE":0,"TOWNNAME":"善化區","LI":"溪美里","LIN":"22鄰","STREET":" ","SECT":" ","MAREA":"溪尾","LANE":" ","ALLEY":" ","HOUSE_NO":"１９３號之３","E_COORD97":176972.29999999999,"N_COORD97":2561182.52,"ADDRESS":"溪尾１９３號之３","OBJECTID":82355},"geometry":{"x":176972.30000000075,"y":2561182.5200000033}},{"attributes":{"ID":82356,"DIS_CODE":0,"TOWNNAME":"善化區","LI":"溪美里","LIN":"22鄰","STREET":" ","SECT":" ","MAREA":"溪尾","LANE":" ","ALLEY":" ","HOUSE_NO":"１９０號之４","E_COORD97":176888.06,"N_COORD97":2561177.27,"ADDRESS":"溪尾１９０號之４","OBJECTID":82356},"geometry":{"x":176888.05999999959,"y":2561177.2700000033}},{"attributes":{"ID":82357,"DIS_CODE":0,"TOWNNAME":"永康區","LI":"南灣里","LIN":"43鄰","STREET":"南興路","SECT":" ","MAREA":" ","LANE":"１１２巷","ALLEY":"１０弄","HOUSE_NO":"１３號","E_COORD97":174434.81,"N_COORD97":2544433.6499999999,"ADDRESS":"南興路１１２巷１０弄１３號","OBJECTID":82357},"geometry":{"x":174434.80999999959,"y":2544433.6499999985}},{"attributes":{"ID":82358,"DIS_CODE":0,"TOWNNAME":"永康區","LI":"埔園里","LIN":"14鄰","STREET":"中山路","SECT":" ","MAREA":" ","LANE":"２３３巷","ALLEY":"６弄","HOUSE_NO":"５號","E_COORD97":173603.62,"N_COORD97":2548166.5,"ADDRESS":"中山路２３３巷６弄５號","OBJECTID":82358},"geometry":{"x":173603.62000000104,"y":2548166.5}},{"attributes":{"ID":82359,"DIS_CODE":0,"TOWNNAME":"善化區","LI":"溪美里","LIN":"22鄰","STREET":" ","SECT":" ","MAREA":"溪尾","LANE":" ","ALLEY":" ","HOUSE_NO":"６２９號","E_COORD97":177071.17999999999,"N_COORD97":2561029.27,"ADDRESS":"溪尾６２９號","OBJECTID":82359},"geometry":{"x":177071.18000000063,"y":2561029.2700000014}},{"attributes":{"ID":82360,"DIS_CODE":0,"TOWNNAME":"善化區","LI":"溪美里","LIN":"22鄰","STREET":" ","SECT":" ","MAREA":"溪尾","LANE":" ","ALLEY":" ","HOUSE_NO":"６０１號","E_COORD97":177069.07000000001,"N_COORD97":2561139.77,"ADDRESS":"溪尾６０１號","OBJECTID":82360},"geometry":{"x":177069.07000000123,"y":2561139.7699999977}},{"attributes":{"ID":82361,"DIS_CODE":0,"TOWNNAME":"善化區","LI":"溪美里","LIN":"22鄰","STREET":" ","SECT":" ","MAREA":"溪尾","LANE":" ","ALLEY":" ","HOUSE_NO":"５９９號","E_COORD97":177057.76000000001,"N_COORD97":2561147.52,"ADDRESS":"溪尾５９９號","OBJECTID":82361},"geometry":{"x":177057.75999999978,"y":2561147.5199999996}},{"attributes":{"ID":82362,"DIS_CODE":0,"TOWNNAME":"善化區","LI":"溪美里","LIN":"22鄰","STREET":" ","SECT":" ","MAREA":"溪尾","LANE":" ","ALLEY":" ","HOUSE_NO":"１９２號之１","E_COORD97":176956.76000000001,"N_COORD97":2561184.27,"ADDRESS":"溪尾１９２號之１","OBJECTID":82362},"geometry":{"x":176956.76000000164,"y":2561184.2700000033}},{"attributes":{"ID":82363,"DIS_CODE":0,"TOWNNAME":"善化區","LI":"溪美里","LIN":"22鄰","STREET":" ","SECT":" ","MAREA":"溪尾","LANE":" ","ALLEY":" ","HOUSE_NO":"５７７號","E_COORD97":177041.85000000001,"N_COORD97":2561206.27,"ADDRESS":"溪尾５７７號","OBJECTID":82363},"geometry":{"x":177041.84999999963,"y":2561206.2699999996}},{"attributes":{"ID":82364,"DIS_CODE":0,"TOWNNAME":"善化區","LI":"溪美里","LIN":"22鄰","STREET":" ","SECT":" ","MAREA":"溪尾","LANE":" ","ALLEY":" ","HOUSE_NO":"６１１號","E_COORD97":177068.34,"N_COORD97":2561079.52,"ADDRESS":"溪尾６１１號","OBJECTID":82364},"geometry":{"x":177068.34000000171,"y":2561079.5199999996}},{"attributes":{"ID":82365,"DIS_CODE":0,"TOWNNAME":"永康區","LI":"勝利里","LIN":"12鄰","STREET":"勝利街","SECT":" ","MAREA":" ","LANE":"２２巷","ALLEY":"４５弄","HOUSE_NO":"３２號","E_COORD97":171239.44,"N_COORD97":2544756.5099999998,"ADDRESS":"勝利街２２巷４５弄３２號","OBJECTID":82365},"geometry":{"x":171239.44000000041,"y":2544756.5100000035}},{"attributes":{"ID":82366,"DIS_CODE":0,"TOWNNAME":"永康區","LI":"勝利里","LIN":"12鄰","STREET":"勝利街","SECT":" ","MAREA":" ","LANE":"２２巷","ALLEY":"４５弄","HOUSE_NO":"３４號","E_COORD97":171239.67000000001,"N_COORD97":2544760.2599999998,"ADDRESS":"勝利街２２巷４５弄３４號","OBJECTID":82366},"geometry":{"x":171239.67000000179,"y":2544760.2599999998}},{"attributes":{"ID":82367,"DIS_CODE":0,"TOWNNAME":"永康區","LI":"勝利里","LIN":"12鄰","STREET":"勝利街","SECT":" ","MAREA":" ","LANE":"２２巷","ALLEY":"４５弄","HOUSE_NO":"３０號","E_COORD97":171239.25,"N_COORD97":2544752.5099999998,"ADDRESS":"勝利街２２巷４５弄３０號","OBJECTID":82367},"geometry":{"x":171239.25000000186,"y":2544752.5099999998}},{"attributes":{"ID":82368,"DIS_CODE":0,"TOWNNAME":"永康區","LI":"勝利里","LIN":"12鄰","STREET":"勝利街","SECT":" ","MAREA":" ","LANE":"２２巷","ALLEY":"４５弄","HOUSE_NO":"３１號","E_COORD97":171225.17000000001,"N_COORD97":2544727.75,"ADDRESS":"勝利街２２巷４５弄３１號","OBJECTID":82368},"geometry":{"x":171225.17000000086,"y":2544727.7500000037}},{"attributes":{"ID":82369,"DIS_CODE":0,"TOWNNAME":"南區","LI":"省躬里","LIN":"15鄰","STREET":"明興路","SECT":" ","MAREA":" ","LANE":" ","ALLEY":" ","HOUSE_NO":"９７１號之１","E_COORD97":166185.95000000001,"N_COORD97":2537005.3199999998,"ADDRESS":"明興路９７１號之１","OBJECTID":82369},"geometry":{"x":166185.95000000019,"y":2537005.3200000022}},{"attributes":{"ID":82370,"DIS_CODE":0,"TOWNNAME":"麻豆區","LI":"南勢里","LIN":"12鄰","STREET":" ","SECT":" ","MAREA":"南勢","LANE":" ","ALLEY":" ","HOUSE_NO":"７號","E_COORD97":174227.97,"N_COORD97":2565174.5699999998,"ADDRESS":"南勢７號","OBJECTID":82370},"geometry":{"x":174227.97000000067,"y":2565174.5700000022}},{"attributes":{"ID":82371,"DIS_CODE":0,"TOWNNAME":"官田區","LI":"渡頭里","LIN":"30鄰","STREET":" ","SECT":" ","MAREA":"三塊厝","LANE":" ","ALLEY":" ","HOUSE_NO":"１８２號","E_COORD97":183111.38,"N_COORD97":2561265.46,"ADDRESS":"三塊厝１８２號","OBJECTID":82371},"geometry":{"x":183111.38000000175,"y":2561265.4600000046}},{"attributes":{"ID":82372,"DIS_CODE":0,"TOWNNAME":"南區","LI":"省躬里","LIN":"15鄰","STREET":"明興路","SECT":" ","MAREA":" ","LANE":" ","ALLEY":" ","HOUSE_NO":"９７７號","E_COORD97":166192.29000000001,"N_COORD97":2536995.6800000002,"ADDRESS":"明興路９７７號","OBJECTID":82372},"geometry":{"x":166192.28999999911,"y":2536995.6800000016}},{"attributes":{"ID":82373,"DIS_CODE":0,"TOWNNAME":"南區","LI":"省躬里","LIN":"15鄰","STREET":"明興路","SECT":" ","MAREA":" ","LANE":" ","ALLEY":" ","HOUSE_NO":"９８１號","E_COORD97":166199.45999999999,"N_COORD97":2536969.25,"ADDRESS":"明興路９８１號","OBJECTID":82373},"geometry":{"x":166199.45999999996,"y":2536969.25}},{"attributes":{"ID":82374,"DIS_CODE":0,"TOWNNAME":"南區","LI":"省躬里","LIN":"15鄰","STREET":"明興路","SECT":" ","MAREA":" ","LANE":" ","ALLEY":" ","HOUSE_NO":"９９０號","E_COORD97":166185.12,"N_COORD97":2536920.9900000002,"ADDRESS":"明興路９９０號","OBJECTID":82374},"geometry":{"x":166185.12000000197,"y":2536920.9900000002}},{"attributes":{"ID":82375,"DIS_CODE":0,"TOWNNAME":"北區","LI":"仁愛里","LIN":"15鄰","STREET":"東豐路","SECT":" ","MAREA":" ","LANE":" ","ALLEY":" ","HOUSE_NO":"２４１號","E_COORD97":170175.47,"N_COORD97":2544853.46,"ADDRESS":"東豐路２４１號","OBJECTID":82375},"geometry":{"x":170175.46999999974,"y":2544853.4600000028}},{"attributes":{"ID":82376,"DIS_CODE":0,"TOWNNAME":"北區","LI":"仁愛里","LIN":"15鄰","STREET":"東豐路","SECT":" ","MAREA":" ","LANE":" ","ALLEY":" ","HOUSE_NO":"２４３號","E_COORD97":170184.91,"N_COORD97":2544851.1000000001,"ADDRESS":"東豐路２４３號","OBJECTID":82376},"geometry":{"x":170184.91000000015,"y":2544851.1000000015}},{"attributes":{"ID":82377,"DIS_CODE":0,"TOWNNAME":"官田區","LI":"渡頭里","LIN":"30鄰","STREET":" ","SECT":" ","MAREA":"三塊厝","LANE":" ","ALLEY":" ","HOUSE_NO":"１８６號","E_COORD97":183120.47,"N_COORD97":2561251.9700000002,"ADDRESS":"三塊厝１８６號","OBJECTID":82377},"geometry":{"x":183120.46999999974,"y":2561251.9700000025}},{"attributes":{"ID":82378,"DIS_CODE":0,"TOWNNAME":"官田區","LI":"渡頭里","LIN":"30鄰","STREET":" ","SECT":" ","MAREA":"三塊厝","LANE":" ","ALLEY":" ","HOUSE_NO":"１８８號","E_COORD97":183163.37,"N_COORD97":2561208.5,"ADDRESS":"三塊厝１８８號","OBJECTID":82378},"geometry":{"x":183163.37000000011,"y":2561208.5}},{"attributes":{"ID":82379,"DIS_CODE":0,"TOWNNAME":"官田區","LI":"渡頭里","LIN":"30鄰","STREET":" ","SECT":" ","MAREA":"三塊厝","LANE":" ","ALLEY":" ","HOUSE_NO":"１８９號之１","E_COORD97":183181.26999999999,"N_COORD97":2561265.1699999999,"ADDRESS":"三塊厝１８９號之１","OBJECTID":82379},"geometry":{"x":183181.27000000142,"y":2561265.1699999999}},{"attributes":{"ID":82380,"DIS_CODE":0,"TOWNNAME":"永康區","LI":"勝利里","LIN":"12鄰","STREET":"勝利街","SECT":" ","MAREA":" ","LANE":"２２巷","ALLEY":"４５弄","HOUSE_NO":"２９號","E_COORD97":171224.42000000001,"N_COORD97":2544724,"ADDRESS":"勝利街２２巷４５弄２９號","OBJECTID":82380},"geometry":{"x":171224.42000000179,"y":2544724.0000000019}},{"attributes":{"ID":82381,"DIS_CODE":0,"TOWNNAME":"官田區","LI":"渡頭里","LIN":"30鄰","STREET":" ","SECT":" ","MAREA":"三塊厝","LANE":" ","ALLEY":" ","HOUSE_NO":"１９７號","E_COORD97":183320.45999999999,"N_COORD97":2561377.25,"ADDRESS":"三塊厝１９７號","OBJECTID":82381},"geometry":{"x":183320.45999999996,"y":2561377.25}},{"attributes":{"ID":82382,"DIS_CODE":0,"TOWNNAME":"官田區","LI":"渡頭里","LIN":"30鄰","STREET":" ","SECT":" ","MAREA":"三塊厝","LANE":" ","ALLEY":" ","HOUSE_NO":"２１５號","E_COORD97":183396.97,"N_COORD97":2561377.6499999999,"ADDRESS":"三塊厝２１５號","OBJECTID":82382},"geometry":{"x":183396.96999999881,"y":2561377.6500000004}},{"attributes":{"ID":82383,"DIS_CODE":0,"TOWNNAME":"官田區","LI":"渡頭里","LIN":"30鄰","STREET":" ","SECT":" ","MAREA":"三塊厝","LANE":" ","ALLEY":" ","HOUSE_NO":"１９８號之１","E_COORD97":183335.73000000001,"N_COORD97":2561383.7000000002,"ADDRESS":"三塊厝１９８號之１","OBJECTID":82383},"geometry":{"x":183335.73000000138,"y":2561383.6999999993}},{"attributes":{"ID":82384,"DIS_CODE":0,"TOWNNAME":"官田區","LI":"渡頭里","LIN":"30鄰","STREET":" ","SECT":" ","MAREA":"三塊厝","LANE":" ","ALLEY":" ","HOUSE_NO":"１９８號","E_COORD97":183331.97,"N_COORD97":2561382.2200000002,"ADDRESS":"三塊厝１９８號","OBJECTID":82384},"geometry":{"x":183331.96999999974,"y":2561382.2200000044}},{"attributes":{"ID":82385,"DIS_CODE":0,"TOWNNAME":"官田區","LI":"渡頭里","LIN":"30鄰","STREET":" ","SECT":" ","MAREA":"三塊厝","LANE":" ","ALLEY":" ","HOUSE_NO":"１９９號","E_COORD97":183338.57999999999,"N_COORD97":2561387.5699999998,"ADDRESS":"三塊厝１９９號","OBJECTID":82385},"geometry":{"x":183338.58000000007,"y":2561387.5700000022}},{"attributes":{"ID":82386,"DIS_CODE":0,"TOWNNAME":"官田區","LI":"渡頭里","LIN":"30鄰","STREET":" ","SECT":" ","MAREA":"三塊厝","LANE":" ","ALLEY":" ","HOUSE_NO":"２００號","E_COORD97":183347.04000000001,"N_COORD97":2561391.25,"ADDRESS":"三塊厝２００號","OBJECTID":82386},"geometry":{"x":183347.04000000004,"y":2561391.2499999981}},{"attributes":{"ID":82387,"DIS_CODE":0,"TOWNNAME":"官田區","LI":"渡頭里","LIN":"30鄰","STREET":" ","SECT":" ","MAREA":"三塊厝","LANE":" ","ALLEY":" ","HOUSE_NO":"２０２號","E_COORD97":183375.42999999999,"N_COORD97":2561355.3500000001,"ADDRESS":"三塊厝２０２號","OBJECTID":82387},"geometry":{"x":183375.43000000063,"y":2561355.3499999996}},{"attributes":{"ID":82388,"DIS_CODE":0,"TOWNNAME":"永康區","LI":"勝利里","LIN":"12鄰","STREET":"勝利街","SECT":" ","MAREA":" ","LANE":"２２巷","ALLEY":"４５弄","HOUSE_NO":"５５號","E_COORD97":171231.42999999999,"N_COORD97":2544775.7599999998,"ADDRESS":"勝利街２２巷４５弄５５號","OBJECTID":82388},"geometry":{"x":171231.43000000063,"y":2544775.7600000016}},{"attributes":{"ID":82389,"DIS_CODE":0,"TOWNNAME":"永康區","LI":"勝利里","LIN":"12鄰","STREET":"勝利街","SECT":" ","MAREA":" ","LANE":"２２巷","ALLEY":"４５弄","HOUSE_NO":"３９號","E_COORD97":171226.54000000001,"N_COORD97":2544743.75,"ADDRESS":"勝利街２２巷４５弄３９號","OBJECTID":82389},"geometry":{"x":171226.54000000004,"y":2544743.75}},{"attributes":{"ID":82390,"DIS_CODE":0,"TOWNNAME":"永康區","LI":"勝利里","LIN":"12鄰","STREET":"勝利街","SECT":" ","MAREA":" ","LANE":"２２巷","ALLEY":"４５弄","HOUSE_NO":"５７號","E_COORD97":171232.95999999999,"N_COORD97":2544779.7599999998,"ADDRESS":"勝利街２２巷４５弄５７號","OBJECTID":82390},"geometry":{"x":171232.96000000089,"y":2544779.7600000016}},{"attributes":{"ID":82391,"DIS_CODE":0,"TOWNNAME":"永康區","LI":"勝利里","LIN":"12鄰","STREET":"勝利街","SECT":" ","MAREA":" ","LANE":"２２巷","ALLEY":"４５弄","HOUSE_NO":"６３號","E_COORD97":171235.89999999999,"N_COORD97":2544790.7599999998,"ADDRESS":"勝利街２２巷４５弄６３號","OBJECTID":82391},"geometry":{"x":171235.9000000013,"y":2544790.7599999998}},{"attributes":{"ID":82392,"DIS_CODE":0,"TOWNNAME":"永康區","LI":"勝利里","LIN":"12鄰","STREET":"勝利街","SECT":" ","MAREA":" ","LANE":"２２巷","ALLEY":"４５弄","HOUSE_NO":"３６號","E_COORD97":171239.88,"N_COORD97":2544764.2599999998,"ADDRESS":"勝利街２２巷４５弄３６號","OBJECTID":82392},"geometry":{"x":171239.88000000175,"y":2544764.2599999998}},{"attributes":{"ID":82393,"DIS_CODE":0,"TOWNNAME":"永康區","LI":"勝利里","LIN":"12鄰","STREET":"勝利街","SECT":" ","MAREA":" ","LANE":"２２巷","ALLEY":"４５弄","HOUSE_NO":"２８號","E_COORD97":171238.81,"N_COORD97":2544748.7599999998,"ADDRESS":"勝利街２２巷４５弄２８號","OBJECTID":82393},"geometry":{"x":171238.81000000052,"y":2544748.7600000016}},{"attributes":{"ID":82394,"DIS_CODE":0,"TOWNNAME":"永康區","LI":"勝利里","LIN":"12鄰","STREET":"勝利街","SECT":" ","MAREA":" ","LANE":"２２巷","ALLEY":"４５弄","HOUSE_NO":"２５號","E_COORD97":171224.56,"N_COORD97":2544716.25,"ADDRESS":"勝利街２２巷４５弄２５號","OBJECTID":82394},"geometry":{"x":171224.55999999959,"y":2544716.25}},{"attributes":{"ID":82395,"DIS_CODE":0,"TOWNNAME":"新營區","LI":"嘉芳里","LIN":"15鄰","STREET":"復興路","SECT":" ","MAREA":" ","LANE":" ","ALLEY":" ","HOUSE_NO":"９５０號","E_COORD97":176582.70999999999,"N_COORD97":2578789.7200000002,"ADDRESS":"復興路９５０號","OBJECTID":82395},"geometry":{"x":176582.71000000183,"y":2578789.7200000025}},{"attributes":{"ID":82396,"DIS_CODE":0,"TOWNNAME":"新營區","LI":"中營里","LIN":"15鄰","STREET":"東山三路","SECT":" ","MAREA":" ","LANE":" ","ALLEY":" ","HOUSE_NO":"２００號","E_COORD97":182106.67999999999,"N_COORD97":2579349.21,"ADDRESS":"東山三路２００號","OBJECTID":82396},"geometry":{"x":182106.6799999997,"y":2579349.2100000028}},{"attributes":{"ID":82397,"DIS_CODE":0,"TOWNNAME":"新營區","LI":"新東里","LIN":"15鄰","STREET":"東智街","SECT":" ","MAREA":" ","LANE":" ","ALLEY":" ","HOUSE_NO":"２號","E_COORD97":181002.60999999999,"N_COORD97":2579565.8199999998,"ADDRESS":"東智街２號","OBJECTID":82397},"geometry":{"x":181002.61000000034,"y":2579565.8200000003}},{"attributes":{"ID":82398,"DIS_CODE":0,"TOWNNAME":"官田區","LI":"渡頭里","LIN":"30鄰","STREET":" ","SECT":" ","MAREA":"三塊厝","LANE":" ","ALLEY":" ","HOUSE_NO":"２０３號","E_COORD97":183357.51999999999,"N_COORD97":2561399.3199999998,"ADDRESS":"三塊厝２０３號","OBJECTID":82398},"geometry":{"x":183357.52000000142,"y":2561399.3200000022}},{"attributes":{"ID":82399,"DIS_CODE":0,"TOWNNAME":"官田區","LI":"渡頭里","LIN":"30鄰","STREET":" ","SECT":" ","MAREA":"三塊厝","LANE":" ","ALLEY":" ","HOUSE_NO":"２０４號","E_COORD97":183364.79000000001,"N_COORD97":2561403.6800000002,"ADDRESS":"三塊厝２０４號","OBJECTID":82399},"geometry":{"x":183364.7900000019,"y":2561403.6799999997}},{"attributes":{"ID":82400,"DIS_CODE":0,"TOWNNAME":"官田區","LI":"渡頭里","LIN":"30鄰","STREET":" ","SECT":" ","MAREA":"三塊厝","LANE":" ","ALLEY":" ","HOUSE_NO":"２０５號","E_COORD97":183371.48999999999,"N_COORD97":2561406.46,"ADDRESS":"三塊厝２０５號","OBJECTID":82400},"geometry":{"x":183371.49000000022,"y":2561406.4600000009}}]}