{"displayFieldName":"TOWNNAME","fieldAliases":{"ID":"ID","DIS_CODE":"DIS_CODE","TOWNNAME":"TOWNNAME","LI":"LI","LIN":"LIN","STREET":"STREET","SECT":"SECT","MAREA":"MAREA","LANE":"LANE","ALLEY":"ALLEY","HOUSE_NO":"HOUSE_NO","E_COORD97":"E_COORD97","N_COORD97":"N_COORD97","ADDRESS":"ADDRESS","OBJECTID":"OBJECTID"},"geometryType":"esriGeometryPoint","spatialReference":{"wkid":102443,"latestWkid":3826},"fields":[{"name":"ID","type":"esriFieldTypeDouble","alias":"ID"},{"name":"DIS_CODE","type":"esriFieldTypeInteger","alias":"DIS_CODE"},{"name":"TOWNNAME","type":"esriFieldTypeString","alias":"TOWNNAME","length":8},{"name":"LI","type":"esriFieldTypeString","alias":"LI","length":8},{"name":"LIN","type":"esriFieldTypeString","alias":"LIN","length":12},{"name":"STREET","type":"esriFieldTypeString","alias":"STREET","length":20},{"name":"SECT","type":"esriFieldTypeString","alias":"SECT","length":8},{"name":"MAREA","type":"esriFieldTypeString","alias":"MAREA","length":12},{"name":"LANE","type":"esriFieldTypeString","alias":"LANE","length":10},{"name":"ALLEY","type":"esriFieldTypeString","alias":"ALLEY","length":10},{"name":"HOUSE_NO","type":"esriFieldTypeString","alias":"HOUSE_NO","length":20},{"name":"E_COORD97","type":"esriFieldTypeDouble","alias":"E_COORD97"},{"name":"N_COORD97","type":"esriFieldTypeDouble","alias":"N_COORD97"},{"name":"ADDRESS","type":"esriFieldTypeString","alias":"ADDRESS","length":50},{"name":"OBJECTID","type":"esriFieldTypeOID","alias":"OBJECTID"}],"features":[{"attributes":{"ID":498228,"DIS_CODE":0,"TOWNNAME":"歸仁區","LI":"南保里","LIN":"7鄰","STREET":"民權北路","SECT":" ","MAREA":" ","LANE":" ","ALLEY":" ","HOUSE_NO":"１７３號","E_COORD97":177007.73999999999,"N_COORD97":2541293.29,"ADDRESS":"民權北路１７３號","OBJECTID":498201},"geometry":{"x":177007.74000000022,"y":2541293.290000001}},{"attributes":{"ID":498229,"DIS_CODE":0,"TOWNNAME":"麻豆區","LI":"新建里","LIN":"7鄰","STREET":"新生南路","SECT":" ","MAREA":" ","LANE":" ","ALLEY":" ","HOUSE_NO":"６３號","E_COORD97":172341.42000000001,"N_COORD97":2564770.79,"ADDRESS":"新生南路６３號","OBJECTID":498202},"geometry":{"x":172341.41999999899,"y":2564770.790000001}},{"attributes":{"ID":498230,"DIS_CODE":0,"TOWNNAME":"麻豆區","LI":"新建里","LIN":"7鄰","STREET":"新生南路","SECT":" ","MAREA":" ","LANE":" ","ALLEY":" ","HOUSE_NO":"７號之１","E_COORD97":172333.38051799999,"N_COORD97":2564909.3609500001,"ADDRESS":"新生南路７號之１","OBJECTID":498203},"geometry":{"x":172333.38051799964,"y":2564909.3609490003}},{"attributes":{"ID":498231,"DIS_CODE":0,"TOWNNAME":"歸仁區","LI":"南保里","LIN":"7鄰","STREET":"民權北路","SECT":" ","MAREA":" ","LANE":" ","ALLEY":" ","HOUSE_NO":"１７７號","E_COORD97":177007.73999999999,"N_COORD97":2541303.29,"ADDRESS":"民權北路１７７號","OBJECTID":498204},"geometry":{"x":177007.74000000022,"y":2541303.290000001}},{"attributes":{"ID":498232,"DIS_CODE":0,"TOWNNAME":"歸仁區","LI":"南興里","LIN":"40鄰","STREET":"民生南街","SECT":"一段","MAREA":" ","LANE":" ","ALLEY":" ","HOUSE_NO":"５２號","E_COORD97":176266.09,"N_COORD97":2540766.29,"ADDRESS":"民生南街一段５２號","OBJECTID":498205},"geometry":{"x":176266.08999999985,"y":2540766.2899999991}},{"attributes":{"ID":498233,"DIS_CODE":0,"TOWNNAME":"歸仁區","LI":"崙頂里","LIN":"7鄰","STREET":"崙頂一街","SECT":" ","MAREA":" ","LANE":" ","ALLEY":" ","HOUSE_NO":"６６號","E_COORD97":177996.37,"N_COORD97":2539976.6800000002,"ADDRESS":"崙頂一街６６號","OBJECTID":498206},"geometry":{"x":177996.37000000104,"y":2539976.6799999997}},{"attributes":{"ID":498234,"DIS_CODE":0,"TOWNNAME":"歸仁區","LI":"南保里","LIN":"7鄰","STREET":"文化街","SECT":"三段","MAREA":" ","LANE":" ","ALLEY":" ","HOUSE_NO":"８號","E_COORD97":176977.54000000001,"N_COORD97":2541246.3300000001,"ADDRESS":"文化街三段８號","OBJECTID":498207},"geometry":{"x":176977.54000000097,"y":2541246.3300000019}},{"attributes":{"ID":498235,"DIS_CODE":0,"TOWNNAME":"歸仁區","LI":"崙頂里","LIN":"7鄰","STREET":"崙頂一街","SECT":" ","MAREA":" ","LANE":" ","ALLEY":" ","HOUSE_NO":"８２號","E_COORD97":178022.73000000001,"N_COORD97":2539958.25,"ADDRESS":"崙頂一街８２號","OBJECTID":498208},"geometry":{"x":178022.73000000138,"y":2539958.2500000019}},{"attributes":{"ID":498236,"DIS_CODE":0,"TOWNNAME":"歸仁區","LI":"後市里","LIN":"7鄰","STREET":"大吉一街","SECT":" ","MAREA":" ","LANE":" ","ALLEY":" ","HOUSE_NO":"２２號","E_COORD97":177148.01000000001,"N_COORD97":2540737.25,"ADDRESS":"大吉一街２２號","OBJECTID":498209},"geometry":{"x":177148.00999999978,"y":2540737.2500000037}},{"attributes":{"ID":498237,"DIS_CODE":0,"TOWNNAME":"歸仁區","LI":"後市里","LIN":"7鄰","STREET":"大吉一街","SECT":" ","MAREA":" ","LANE":" ","ALLEY":" ","HOUSE_NO":"２６號","E_COORD97":177146.91,"N_COORD97":2540729.25,"ADDRESS":"大吉一街２６號","OBJECTID":498210},"geometry":{"x":177146.91000000015,"y":2540729.25}},{"attributes":{"ID":498238,"DIS_CODE":0,"TOWNNAME":"歸仁區","LI":"後市里","LIN":"7鄰","STREET":"大吉一街","SECT":" ","MAREA":" ","LANE":" ","ALLEY":" ","HOUSE_NO":"５８號","E_COORD97":177141.41,"N_COORD97":2540647.25,"ADDRESS":"大吉一街５８號","OBJECTID":498211},"geometry":{"x":177141.41000000108,"y":2540647.2500000019}},{"attributes":{"ID":498239,"DIS_CODE":0,"TOWNNAME":"歸仁區","LI":"崙頂里","LIN":"7鄰","STREET":"崙頂一街","SECT":" ","MAREA":" ","LANE":" ","ALLEY":" ","HOUSE_NO":"８２之１號","E_COORD97":178023.23000000001,"N_COORD97":2539954.2599999998,"ADDRESS":"崙頂一街８２之１號","OBJECTID":498212},"geometry":{"x":178023.23000000045,"y":2539954.2600000016}},{"attributes":{"ID":498240,"DIS_CODE":0,"TOWNNAME":"歸仁區","LI":"後市里","LIN":"7鄰","STREET":"大吉一街","SECT":" ","MAREA":" ","LANE":" ","ALLEY":" ","HOUSE_NO":"２４號","E_COORD97":177146.91,"N_COORD97":2540733.25,"ADDRESS":"大吉一街２４號","OBJECTID":498213},"geometry":{"x":177146.91000000015,"y":2540733.25}},{"attributes":{"ID":498241,"DIS_CODE":0,"TOWNNAME":"歸仁區","LI":"南保里","LIN":"7鄰","STREET":"民權北路","SECT":" ","MAREA":" ","LANE":" ","ALLEY":" ","HOUSE_NO":"１５５號","E_COORD97":177006.54000000001,"N_COORD97":2541253.29,"ADDRESS":"民權北路１５５號","OBJECTID":498214},"geometry":{"x":177006.54000000097,"y":2541253.2899999991}},{"attributes":{"ID":498242,"DIS_CODE":0,"TOWNNAME":"歸仁區","LI":"崙頂里","LIN":"7鄰","STREET":"崙頂一街","SECT":" ","MAREA":" ","LANE":" ","ALLEY":" ","HOUSE_NO":"６４號","E_COORD97":177991.17000000001,"N_COORD97":2539976.6800000002,"ADDRESS":"崙頂一街６４號","OBJECTID":498215},"geometry":{"x":177991.16999999993,"y":2539976.6799999997}},{"attributes":{"ID":498243,"DIS_CODE":0,"TOWNNAME":"歸仁區","LI":"後市里","LIN":"7鄰","STREET":"大吉一街","SECT":" ","MAREA":" ","LANE":" ","ALLEY":" ","HOUSE_NO":"３２號","E_COORD97":177146.81,"N_COORD97":2540717.25,"ADDRESS":"大吉一街３２號","OBJECTID":498216},"geometry":{"x":177146.81000000052,"y":2540717.2500000019}},{"attributes":{"ID":498244,"DIS_CODE":0,"TOWNNAME":"歸仁區","LI":"南興里","LIN":"7鄰","STREET":"民生二街","SECT":" ","MAREA":" ","LANE":" ","ALLEY":" ","HOUSE_NO":"８３號","E_COORD97":176094.89000000001,"N_COORD97":2541307.29,"ADDRESS":"民生二街８３號","OBJECTID":498217},"geometry":{"x":176094.8900000006,"y":2541307.290000001}},{"attributes":{"ID":498245,"DIS_CODE":0,"TOWNNAME":"歸仁區","LI":"崙頂里","LIN":"7鄰","STREET":"崙頂一街","SECT":" ","MAREA":" ","LANE":" ","ALLEY":" ","HOUSE_NO":"７６號","E_COORD97":178016.87,"N_COORD97":2539978.6800000002,"ADDRESS":"崙頂一街７６號","OBJECTID":498218},"geometry":{"x":178016.87000000011,"y":2539978.6800000016}},{"attributes":{"ID":498246,"DIS_CODE":0,"TOWNNAME":"歸仁區","LI":"新厝里","LIN":"7鄰","STREET":"中正三街","SECT":" ","MAREA":" ","LANE":" ","ALLEY":" ","HOUSE_NO":"３５號","E_COORD97":177706.78,"N_COORD97":2540572.9300000002,"ADDRESS":"中正三街３５號","OBJECTID":498219},"geometry":{"x":177706.78000000119,"y":2540572.9300000034}},{"attributes":{"ID":498247,"DIS_CODE":0,"TOWNNAME":"歸仁區","LI":"新厝里","LIN":"7鄰","STREET":"中正三街","SECT":" ","MAREA":" ","LANE":" ","ALLEY":" ","HOUSE_NO":"５９號","E_COORD97":177754.88,"N_COORD97":2540568.9300000002,"ADDRESS":"中正三街５９號","OBJECTID":498220},"geometry":{"x":177754.88000000082,"y":2540568.9299999997}},{"attributes":{"ID":498248,"DIS_CODE":0,"TOWNNAME":"歸仁區","LI":"歸仁里","LIN":"7鄰","STREET":"中山路","SECT":"一段","MAREA":" ","LANE":" ","ALLEY":" ","HOUSE_NO":"５５４號","E_COORD97":177739.10999999999,"N_COORD97":2540776.1800000002,"ADDRESS":"中山路一段５５４號","OBJECTID":498221},"geometry":{"x":177739.11000000034,"y":2540776.1800000016}},{"attributes":{"ID":498249,"DIS_CODE":0,"TOWNNAME":"歸仁區","LI":"新厝里","LIN":"7鄰","STREET":"和平南街","SECT":" ","MAREA":" ","LANE":" ","ALLEY":" ","HOUSE_NO":"６６號","E_COORD97":177799.12,"N_COORD97":2540594.25,"ADDRESS":"和平南街６６號","OBJECTID":498222},"geometry":{"x":177799.12000000104,"y":2540594.25}},{"attributes":{"ID":498250,"DIS_CODE":0,"TOWNNAME":"歸仁區","LI":"六甲里","LIN":"41鄰","STREET":"民生十二街","SECT":" ","MAREA":" ","LANE":" ","ALLEY":" ","HOUSE_NO":"４７號","E_COORD97":175985.54000000001,"N_COORD97":2539444.29,"ADDRESS":"民生十二街４７號","OBJECTID":498223},"geometry":{"x":175985.5400000019,"y":2539444.2900000028}},{"attributes":{"ID":498251,"DIS_CODE":0,"TOWNNAME":"歸仁區","LI":"南保里","LIN":"47鄰","STREET":"大順街","SECT":" ","MAREA":" ","LANE":" ","ALLEY":" ","HOUSE_NO":"２４８號","E_COORD97":176745.87,"N_COORD97":2540616.25,"ADDRESS":"大順街２４８號","OBJECTID":498224},"geometry":{"x":176745.87000000011,"y":2540616.2500000019}},{"attributes":{"ID":498252,"DIS_CODE":0,"TOWNNAME":"歸仁區","LI":"新厝里","LIN":"7鄰","STREET":"中正三街","SECT":" ","MAREA":" ","LANE":" ","ALLEY":" ","HOUSE_NO":"５５號","E_COORD97":177745.67999999999,"N_COORD97":2540569.9300000002,"ADDRESS":"中正三街５５號","OBJECTID":498225},"geometry":{"x":177745.68000000063,"y":2540569.9300000016}},{"attributes":{"ID":498253,"DIS_CODE":0,"TOWNNAME":"歸仁區","LI":"崙頂里","LIN":"7鄰","STREET":"崙頂三街","SECT":" ","MAREA":" ","LANE":" ","ALLEY":" ","HOUSE_NO":"７１號","E_COORD97":177991.41,"N_COORD97":2539928.1099999999,"ADDRESS":"崙頂三街７１號","OBJECTID":498226},"geometry":{"x":177991.41000000015,"y":2539928.1100000013}},{"attributes":{"ID":498254,"DIS_CODE":0,"TOWNNAME":"歸仁區","LI":"新厝里","LIN":"7鄰","STREET":"中正三街","SECT":" ","MAREA":" ","LANE":" ","ALLEY":" ","HOUSE_NO":"４５號","E_COORD97":177728.28,"N_COORD97":2540570.9300000002,"ADDRESS":"中正三街４５號","OBJECTID":498227},"geometry":{"x":177728.28000000026,"y":2540570.9300000016}},{"attributes":{"ID":498255,"DIS_CODE":0,"TOWNNAME":"歸仁區","LI":"崙頂里","LIN":"7鄰","STREET":"崙頂三街","SECT":" ","MAREA":" ","LANE":" ","ALLEY":" ","HOUSE_NO":"１０５號","E_COORD97":178066.12,"N_COORD97":2539944.6800000002,"ADDRESS":"崙頂三街１０５號","OBJECTID":498228},"geometry":{"x":178066.12000000011,"y":2539944.6800000016}},{"attributes":{"ID":498256,"DIS_CODE":0,"TOWNNAME":"歸仁區","LI":"歸南里","LIN":"7鄰","STREET":"中正南路","SECT":"一段","MAREA":" ","LANE":" ","ALLEY":" ","HOUSE_NO":"６７８號","E_COORD97":176567.59,"N_COORD97":2539819.9500000002,"ADDRESS":"中正南路一段６７８號","OBJECTID":498229},"geometry":{"x":176567.58999999985,"y":2539819.950000003}},{"attributes":{"ID":498257,"DIS_CODE":0,"TOWNNAME":"仁德區","LI":"仁德里","LIN":"15鄰","STREET":"仁德一街","SECT":" ","MAREA":" ","LANE":" ","ALLEY":" ","HOUSE_NO":"６２號","E_COORD97":173176.85999999999,"N_COORD97":2541297.0099999998,"ADDRESS":"仁德一街６２號","OBJECTID":498230},"geometry":{"x":173176.86000000127,"y":2541297.0099999998}},{"attributes":{"ID":498258,"DIS_CODE":0,"TOWNNAME":"官田區","LI":"隆本里","LIN":"3鄰","STREET":"中華路","SECT":"二段","MAREA":" ","LANE":"５８巷","ALLEY":"１弄","HOUSE_NO":"１號","E_COORD97":180157.04000000001,"N_COORD97":2566433.2000000002,"ADDRESS":"中華路二段５８巷１弄１號","OBJECTID":498231},"geometry":{"x":180157.04000000004,"y":2566433.2000000011}},{"attributes":{"ID":498259,"DIS_CODE":0,"TOWNNAME":"歸仁區","LI":"南興里","LIN":"7鄰","STREET":"民生二街","SECT":" ","MAREA":" ","LANE":" ","ALLEY":" ","HOUSE_NO":"４５號","E_COORD97":176146.29000000001,"N_COORD97":2541330.29,"ADDRESS":"民生二街４５號","OBJECTID":498232},"geometry":{"x":176146.29000000004,"y":2541330.290000001}},{"attributes":{"ID":498260,"DIS_CODE":0,"TOWNNAME":"歸仁區","LI":"崙頂里","LIN":"7鄰","STREET":"崙頂一街","SECT":" ","MAREA":" ","LANE":" ","ALLEY":" ","HOUSE_NO":"５６號","E_COORD97":177970.67000000001,"N_COORD97":2539976.6800000002,"ADDRESS":"崙頂一街５６號","OBJECTID":498233},"geometry":{"x":177970.66999999993,"y":2539976.6799999997}},{"attributes":{"ID":498261,"DIS_CODE":0,"TOWNNAME":"歸仁區","LI":"南興里","LIN":"7鄰","STREET":"民生二街","SECT":" ","MAREA":" ","LANE":" ","ALLEY":" ","HOUSE_NO":"８１號","E_COORD97":176094.89000000001,"N_COORD97":2541302.29,"ADDRESS":"民生二街８１號","OBJECTID":498234},"geometry":{"x":176094.8900000006,"y":2541302.2900000028}},{"attributes":{"ID":498262,"DIS_CODE":0,"TOWNNAME":"歸仁區","LI":"南興里","LIN":"7鄰","STREET":"民生二街","SECT":" ","MAREA":" ","LANE":" ","ALLEY":" ","HOUSE_NO":"７１號","E_COORD97":176082.69,"N_COORD97":2541311.29,"ADDRESS":"民生二街７１號","OBJECTID":498235},"geometry":{"x":176082.69000000041,"y":2541311.2899999991}},{"attributes":{"ID":498263,"DIS_CODE":0,"TOWNNAME":"歸仁區","LI":"崙頂里","LIN":"7鄰","STREET":"崙頂一街","SECT":" ","MAREA":" ","LANE":" ","ALLEY":" ","HOUSE_NO":"７８號","E_COORD97":178020.97,"N_COORD97":2539980.6800000002,"ADDRESS":"崙頂一街７８號","OBJECTID":498236},"geometry":{"x":178020.96999999974,"y":2539980.6799999997}},{"attributes":{"ID":498264,"DIS_CODE":0,"TOWNNAME":"歸仁區","LI":"西埔里","LIN":"7鄰","STREET":"西埔一街","SECT":" ","MAREA":" ","LANE":" ","ALLEY":" ","HOUSE_NO":"２０號","E_COORD97":177197.12,"N_COORD97":2544178.25,"ADDRESS":"西埔一街２０號","OBJECTID":498237},"geometry":{"x":177197.12000000197,"y":2544178.2499999981}},{"attributes":{"ID":498265,"DIS_CODE":0,"TOWNNAME":"歸仁區","LI":"文化里","LIN":"7鄰","STREET":"文化街","SECT":"二段","MAREA":" ","LANE":" ","ALLEY":" ","HOUSE_NO":"１２６號","E_COORD97":177232.06,"N_COORD97":2541193.3399999999,"ADDRESS":"文化街二段１２６號","OBJECTID":498238},"geometry":{"x":177232.05999999959,"y":2541193.3399999999}},{"attributes":{"ID":498266,"DIS_CODE":0,"TOWNNAME":"歸仁區","LI":"六甲里","LIN":"7鄰","STREET":"中正十五街","SECT":" ","MAREA":" ","LANE":" ","ALLEY":" ","HOUSE_NO":"１２７號","E_COORD97":176464.76000000001,"N_COORD97":2539461.25,"ADDRESS":"中正十五街１２７號","OBJECTID":498239},"geometry":{"x":176464.75999999978,"y":2539461.25}},{"attributes":{"ID":498267,"DIS_CODE":0,"TOWNNAME":"歸仁區","LI":"南興里","LIN":"7鄰","STREET":"民生二街","SECT":" ","MAREA":" ","LANE":" ","ALLEY":" ","HOUSE_NO":"７５號","E_COORD97":176083.59,"N_COORD97":2541301.29,"ADDRESS":"民生二街７５號","OBJECTID":498240},"geometry":{"x":176083.59000000078,"y":2541301.2899999991}},{"attributes":{"ID":498268,"DIS_CODE":0,"TOWNNAME":"歸仁區","LI":"後市里","LIN":"7鄰","STREET":"大吉一街","SECT":" ","MAREA":" ","LANE":" ","ALLEY":" ","HOUSE_NO":"３８號","E_COORD97":177146.81,"N_COORD97":2540704.25,"ADDRESS":"大吉一街３８號","OBJECTID":498241},"geometry":{"x":177146.81000000052,"y":2540704.2500000019}},{"attributes":{"ID":498269,"DIS_CODE":0,"TOWNNAME":"歸仁區","LI":"武東里","LIN":"7鄰","STREET":"武東二街","SECT":" ","MAREA":" ","LANE":" ","ALLEY":" ","HOUSE_NO":"６６號","E_COORD97":175659.34,"N_COORD97":2535314.25,"ADDRESS":"武東二街６６號","OBJECTID":498242},"geometry":{"x":175659.33999999985,"y":2535314.2500000019}},{"attributes":{"ID":498270,"DIS_CODE":0,"TOWNNAME":"新營區","LI":"南紙里","LIN":"7鄰","STREET":"南紙街","SECT":" ","MAREA":" ","LANE":" ","ALLEY":" ","HOUSE_NO":"１２９號","E_COORD97":177810.57000000001,"N_COORD97":2577403.79,"ADDRESS":"南紙街１２９號","OBJECTID":498243},"geometry":{"x":177810.5700000003,"y":2577403.790000001}},{"attributes":{"ID":498271,"DIS_CODE":0,"TOWNNAME":"歸仁區","LI":"新厝里","LIN":"14鄰","STREET":"公園路","SECT":" ","MAREA":" ","LANE":" ","ALLEY":" ","HOUSE_NO":"２４２號","E_COORD97":177659.63,"N_COORD97":2540402,"ADDRESS":"公園路２４２號","OBJECTID":498244},"geometry":{"x":177659.63000000175,"y":2540402}},{"attributes":{"ID":498272,"DIS_CODE":0,"TOWNNAME":"新營區","LI":"三仙里","LIN":"7鄰","STREET":"中華路","SECT":" ","MAREA":" ","LANE":" ","ALLEY":" ","HOUSE_NO":"３５號","E_COORD97":179694.38,"N_COORD97":2578200.9500000002,"ADDRESS":"中華路３５號","OBJECTID":498245},"geometry":{"x":179694.38000000082,"y":2578200.9499999993}},{"attributes":{"ID":498273,"DIS_CODE":0,"TOWNNAME":"新營區","LI":"新北里","LIN":"7鄰","STREET":"三興街","SECT":" ","MAREA":" ","LANE":" ","ALLEY":" ","HOUSE_NO":"２９１號","E_COORD97":179308.97,"N_COORD97":2579704.5,"ADDRESS":"三興街２９１號","OBJECTID":498246},"geometry":{"x":179308.97000000067,"y":2579704.5000000037}},{"attributes":{"ID":498274,"DIS_CODE":0,"TOWNNAME":"新營區","LI":"新北里","LIN":"7鄰","STREET":"三興街","SECT":" ","MAREA":" ","LANE":" ","ALLEY":" ","HOUSE_NO":"２７７號","E_COORD97":179318.04999999999,"N_COORD97":2579676.77,"ADDRESS":"三興街２７７號","OBJECTID":498247},"geometry":{"x":179318.05000000168,"y":2579676.7700000014}},{"attributes":{"ID":498275,"DIS_CODE":0,"TOWNNAME":"新營區","LI":"新北里","LIN":"7鄰","STREET":"三興街","SECT":" ","MAREA":" ","LANE":" ","ALLEY":" ","HOUSE_NO":"２８１號","E_COORD97":179315.01999999999,"N_COORD97":2579685.6499999999,"ADDRESS":"三興街２８１號","OBJECTID":498248},"geometry":{"x":179315.02000000048,"y":2579685.6500000004}},{"attributes":{"ID":498276,"DIS_CODE":0,"TOWNNAME":"新營區","LI":"新北里","LIN":"7鄰","STREET":"三興街","SECT":" ","MAREA":" ","LANE":" ","ALLEY":" ","HOUSE_NO":"２８３號","E_COORD97":179314.01000000001,"N_COORD97":2579688.9700000002,"ADDRESS":"三興街２８３號","OBJECTID":498249},"geometry":{"x":179314.00999999978,"y":2579688.9700000025}},{"attributes":{"ID":498277,"DIS_CODE":0,"TOWNNAME":"新營區","LI":"三仙里","LIN":"7鄰","STREET":"中華路","SECT":" ","MAREA":" ","LANE":" ","ALLEY":" ","HOUSE_NO":"３９號","E_COORD97":179686.19,"N_COORD97":2578198.77,"ADDRESS":"中華路３９號","OBJECTID":498250},"geometry":{"x":179686.19000000134,"y":2578198.7699999996}},{"attributes":{"ID":498278,"DIS_CODE":0,"TOWNNAME":"新營區","LI":"三仙里","LIN":"7鄰","STREET":"中華路","SECT":" ","MAREA":" ","LANE":" ","ALLEY":" ","HOUSE_NO":"３３號","E_COORD97":179698.47,"N_COORD97":2578200.9300000002,"ADDRESS":"中華路３３號","OBJECTID":498251},"geometry":{"x":179698.47000000067,"y":2578200.9300000016}},{"attributes":{"ID":498279,"DIS_CODE":0,"TOWNNAME":"新營區","LI":"南紙里","LIN":"7鄰","STREET":"南紙街","SECT":" ","MAREA":" ","LANE":" ","ALLEY":" ","HOUSE_NO":"１２５號","E_COORD97":177809.57999999999,"N_COORD97":2577411.5499999998,"ADDRESS":"南紙街１２５號","OBJECTID":498252},"geometry":{"x":177809.58000000101,"y":2577411.5500000007}},{"attributes":{"ID":498280,"DIS_CODE":0,"TOWNNAME":"新營區","LI":"王公里","LIN":"7鄰","STREET":"義和街","SECT":" ","MAREA":" ","LANE":" ","ALLEY":" ","HOUSE_NO":"３１號","E_COORD97":180166.57999999999,"N_COORD97":2578992.7599999998,"ADDRESS":"義和街３１號","OBJECTID":498253},"geometry":{"x":180166.58000000007,"y":2578992.7599999998}},{"attributes":{"ID":498281,"DIS_CODE":0,"TOWNNAME":"新營區","LI":"王公里","LIN":"7鄰","STREET":"義和街","SECT":" ","MAREA":" ","LANE":" ","ALLEY":" ","HOUSE_NO":"２９之１號","E_COORD97":180162.04999999999,"N_COORD97":2579022.7400000002,"ADDRESS":"義和街２９之１號","OBJECTID":498254},"geometry":{"x":180162.04999999888,"y":2579022.7400000021}},{"attributes":{"ID":498282,"DIS_CODE":0,"TOWNNAME":"新營區","LI":"延平里","LIN":"7鄰","STREET":"復興路","SECT":" ","MAREA":" ","LANE":" ","ALLEY":" ","HOUSE_NO":"１之２７號","E_COORD97":179686.35000000001,"N_COORD97":2577941.9100000001,"ADDRESS":"復興路１之２７號","OBJECTID":498255},"geometry":{"x":179686.34999999963,"y":2577941.9100000001}},{"attributes":{"ID":498283,"DIS_CODE":0,"TOWNNAME":"新營區","LI":"延平里","LIN":"7鄰","STREET":"復興路","SECT":" ","MAREA":" ","LANE":" ","ALLEY":" ","HOUSE_NO":"１之３２號","E_COORD97":179697.64999999999,"N_COORD97":2577951.8199999998,"ADDRESS":"復興路１之３２號","OBJECTID":498256},"geometry":{"x":179697.65000000224,"y":2577951.8200000003}},{"attributes":{"ID":498284,"DIS_CODE":0,"TOWNNAME":"新營區","LI":"王公里","LIN":"7鄰","STREET":"義和街","SECT":" ","MAREA":" ","LANE":" ","ALLEY":" ","HOUSE_NO":"３５號","E_COORD97":180145.23999999999,"N_COORD97":2579020.54,"ADDRESS":"義和街３５號","OBJECTID":498257},"geometry":{"x":180145.24000000022,"y":2579020.5399999991}},{"attributes":{"ID":498285,"DIS_CODE":0,"TOWNNAME":"新營區","LI":"王公里","LIN":"7鄰","STREET":"義和街","SECT":" ","MAREA":" ","LANE":" ","ALLEY":" ","HOUSE_NO":"３３號","E_COORD97":180151.38,"N_COORD97":2579021.6200000001,"ADDRESS":"義和街３３號","OBJECTID":498258},"geometry":{"x":180151.37999999989,"y":2579021.6200000029}},{"attributes":{"ID":498286,"DIS_CODE":0,"TOWNNAME":"歸仁區","LI":"崙頂里","LIN":"7鄰","STREET":"崙頂一街","SECT":" ","MAREA":" ","LANE":" ","ALLEY":" ","HOUSE_NO":"８６號","E_COORD97":178046.47,"N_COORD97":2539959.6800000002,"ADDRESS":"崙頂一街８６號","OBJECTID":498259},"geometry":{"x":178046.46999999974,"y":2539959.6799999997}},{"attributes":{"ID":498287,"DIS_CODE":0,"TOWNNAME":"歸仁區","LI":"六甲里","LIN":"7鄰","STREET":"中正十五街","SECT":" ","MAREA":" ","LANE":" ","ALLEY":" ","HOUSE_NO":"１１１號","E_COORD97":176457.35999999999,"N_COORD97":2539414.25,"ADDRESS":"中正十五街１１１號","OBJECTID":498260},"geometry":{"x":176457.36000000127,"y":2539414.25}},{"attributes":{"ID":498288,"DIS_CODE":0,"TOWNNAME":"歸仁區","LI":"崙頂里","LIN":"7鄰","STREET":"崙頂一街","SECT":" ","MAREA":" ","LANE":" ","ALLEY":" ","HOUSE_NO":"６２號","E_COORD97":177987.07000000001,"N_COORD97":2539975.6800000002,"ADDRESS":"崙頂一街６２號","OBJECTID":498261},"geometry":{"x":177987.0700000003,"y":2539975.6800000016}},{"attributes":{"ID":498289,"DIS_CODE":0,"TOWNNAME":"歸仁區","LI":"八甲里","LIN":"7鄰","STREET":"大光一街","SECT":" ","MAREA":" ","LANE":" ","ALLEY":" ","HOUSE_NO":"３１號","E_COORD97":177834.51999999999,"N_COORD97":2541736.6099999999,"ADDRESS":"大光一街３１號","OBJECTID":498262},"geometry":{"x":177834.51999999862,"y":2541736.6099999994}},{"attributes":{"ID":498290,"DIS_CODE":0,"TOWNNAME":"歸仁區","LI":"武東里","LIN":"7鄰","STREET":"武東二街","SECT":" ","MAREA":" ","LANE":" ","ALLEY":" ","HOUSE_NO":"８２號","E_COORD97":175643.04000000001,"N_COORD97":2535338.25,"ADDRESS":"武東二街８２號","OBJECTID":498263},"geometry":{"x":175643.0400000019,"y":2535338.25}},{"attributes":{"ID":498291,"DIS_CODE":0,"TOWNNAME":"歸仁區","LI":"大廟里","LIN":"7鄰","STREET":"大廟一街","SECT":" ","MAREA":" ","LANE":" ","ALLEY":" ","HOUSE_NO":"１２５號","E_COORD97":175729.62,"N_COORD97":2543888.25,"ADDRESS":"大廟一街１２５號","OBJECTID":498264},"geometry":{"x":175729.62000000104,"y":2543888.2500000019}},{"attributes":{"ID":498292,"DIS_CODE":0,"TOWNNAME":"歸仁區","LI":"許厝里","LIN":"7鄰","STREET":"中山路","SECT":"一段","MAREA":" ","LANE":" ","ALLEY":" ","HOUSE_NO":"４０３號","E_COORD97":178243.10999999999,"N_COORD97":2540684.25,"ADDRESS":"中山路一段４０３號","OBJECTID":498265},"geometry":{"x":178243.11000000034,"y":2540684.2500000019}},{"attributes":{"ID":498293,"DIS_CODE":0,"TOWNNAME":"歸仁區","LI":"歸仁里","LIN":"7鄰","STREET":"中山路","SECT":"一段","MAREA":" ","LANE":" ","ALLEY":" ","HOUSE_NO":"５３８號","E_COORD97":177770.91,"N_COORD97":2540771.1800000002,"ADDRESS":"中山路一段５３８號","OBJECTID":498266},"geometry":{"x":177770.91000000015,"y":2540771.1799999978}},{"attributes":{"ID":498294,"DIS_CODE":0,"TOWNNAME":"歸仁區","LI":"南興里","LIN":"7鄰","STREET":"民生二街","SECT":" ","MAREA":" ","LANE":" ","ALLEY":" ","HOUSE_NO":"４９號","E_COORD97":176135.09,"N_COORD97":2541331.29,"ADDRESS":"民生二街４９號","OBJECTID":498267},"geometry":{"x":176135.08999999985,"y":2541331.2899999991}},{"attributes":{"ID":498295,"DIS_CODE":0,"TOWNNAME":"歸仁區","LI":"南興里","LIN":"7鄰","STREET":"民生二街","SECT":" ","MAREA":" ","LANE":" ","ALLEY":" ","HOUSE_NO":"６９號","E_COORD97":176082.69,"N_COORD97":2541314.29,"ADDRESS":"民生二街６９號","OBJECTID":498268},"geometry":{"x":176082.69000000041,"y":2541314.2899999991}},{"attributes":{"ID":498296,"DIS_CODE":0,"TOWNNAME":"關廟區","LI":"五甲里","LIN":"7鄰","STREET":"南雄路","SECT":"一段","MAREA":" ","LANE":" ","ALLEY":" ","HOUSE_NO":"９２３號","E_COORD97":181259.98999999999,"N_COORD97":2539332.2799999998,"ADDRESS":"南雄路一段９２３號","OBJECTID":498269},"geometry":{"x":181259.99000000115,"y":2539332.2799999993}},{"attributes":{"ID":498297,"DIS_CODE":0,"TOWNNAME":"關廟區","LI":"東勢里","LIN":"7鄰","STREET":"旺萊路","SECT":" ","MAREA":" ","LANE":" ","ALLEY":" ","HOUSE_NO":"２０１號","E_COORD97":181917.34,"N_COORD97":2539412.2400000002,"ADDRESS":"旺萊路２０１號","OBJECTID":498270},"geometry":{"x":181917.33999999985,"y":2539412.2400000021}},{"attributes":{"ID":498298,"DIS_CODE":0,"TOWNNAME":"關廟區","LI":"北花里","LIN":"7鄰","STREET":"四維街","SECT":" ","MAREA":" ","LANE":" ","ALLEY":" ","HOUSE_NO":"３６６號","E_COORD97":181873.16,"N_COORD97":2540269.25,"ADDRESS":"四維街３６６號","OBJECTID":498271},"geometry":{"x":181873.16000000015,"y":2540269.2499999981}},{"attributes":{"ID":498299,"DIS_CODE":0,"TOWNNAME":"關廟區","LI":"五甲里","LIN":"7鄰","STREET":"南雄路","SECT":"一段","MAREA":" ","LANE":" ","ALLEY":" ","HOUSE_NO":"９１１號","E_COORD97":181269.98999999999,"N_COORD97":2539310.2799999998,"ADDRESS":"南雄路一段９１１號","OBJECTID":498272},"geometry":{"x":181269.99000000209,"y":2539310.2800000012}},{"attributes":{"ID":498300,"DIS_CODE":0,"TOWNNAME":"關廟區","LI":"五甲里","LIN":"7鄰","STREET":"南雄路","SECT":"一段","MAREA":" ","LANE":" ","ALLEY":" ","HOUSE_NO":"９１９號","E_COORD97":181263.79000000001,"N_COORD97":2539325.2799999998,"ADDRESS":"南雄路一段９１９號","OBJECTID":498273},"geometry":{"x":181263.79000000004,"y":2539325.2799999993}},{"attributes":{"ID":498301,"DIS_CODE":0,"TOWNNAME":"關廟區","LI":"五甲里","LIN":"7鄰","STREET":"南雄路","SECT":"一段","MAREA":" ","LANE":" ","ALLEY":" ","HOUSE_NO":"９０５號","E_COORD97":181274.89000000001,"N_COORD97":2539299.2799999998,"ADDRESS":"南雄路一段９０５號","OBJECTID":498274},"geometry":{"x":181274.88999999966,"y":2539299.2800000012}},{"attributes":{"ID":498302,"DIS_CODE":0,"TOWNNAME":"關廟區","LI":"北勢里","LIN":"7鄰","STREET":"花園三街","SECT":" ","MAREA":" ","LANE":" ","ALLEY":" ","HOUSE_NO":"１０１號","E_COORD97":181784.29000000001,"N_COORD97":2540499.25,"ADDRESS":"花園三街１０１號","OBJECTID":498275},"geometry":{"x":181784.29000000004,"y":2540499.25}},{"attributes":{"ID":498303,"DIS_CODE":0,"TOWNNAME":"關廟區","LI":"東勢里","LIN":"7鄰","STREET":"旺萊路","SECT":" ","MAREA":" ","LANE":" ","ALLEY":" ","HOUSE_NO":"１７３號","E_COORD97":181864.34,"N_COORD97":2539382.25,"ADDRESS":"旺萊路１７３號","OBJECTID":498276},"geometry":{"x":181864.34000000078,"y":2539382.2500000019}},{"attributes":{"ID":498304,"DIS_CODE":0,"TOWNNAME":"關廟區","LI":"田中里","LIN":"7鄰","STREET":"南雄南路","SECT":" ","MAREA":" ","LANE":" ","ALLEY":" ","HOUSE_NO":"６９８號","E_COORD97":183431.14000000001,"N_COORD97":2533512.2999999998,"ADDRESS":"南雄南路６９８號","OBJECTID":498277},"geometry":{"x":183431.13999999966,"y":2533512.3000000007}},{"attributes":{"ID":498305,"DIS_CODE":0,"TOWNNAME":"關廟區","LI":"五甲里","LIN":"7鄰","STREET":"南雄路","SECT":"一段","MAREA":" ","LANE":" ","ALLEY":" ","HOUSE_NO":"９２５號","E_COORD97":181258.39000000001,"N_COORD97":2539336.2799999998,"ADDRESS":"南雄路一段９２５號","OBJECTID":498278},"geometry":{"x":181258.3900000006,"y":2539336.2800000031}},{"attributes":{"ID":498306,"DIS_CODE":0,"TOWNNAME":"歸仁區","LI":"南保里","LIN":"1鄰","STREET":"大德路","SECT":" ","MAREA":" ","LANE":" ","ALLEY":" ","HOUSE_NO":"３２３號","E_COORD97":176950.26999999999,"N_COORD97":2541539.27,"ADDRESS":"大德路３２３號","OBJECTID":498279},"geometry":{"x":176950.27000000048,"y":2541539.2699999996}},{"attributes":{"ID":498307,"DIS_CODE":0,"TOWNNAME":"關廟區","LI":"五甲里","LIN":"7鄰","STREET":"南雄路","SECT":"一段","MAREA":" ","LANE":" ","ALLEY":" ","HOUSE_NO":"９０７號","E_COORD97":181273.39000000001,"N_COORD97":2539303.2799999998,"ADDRESS":"南雄路一段９０７號","OBJECTID":498280},"geometry":{"x":181273.39000000153,"y":2539303.2800000012}},{"attributes":{"ID":498308,"DIS_CODE":0,"TOWNNAME":"關廟區","LI":"布袋里","LIN":"7鄰","STREET":"長富街","SECT":" ","MAREA":" ","LANE":" ","ALLEY":" ","HOUSE_NO":"２５號","E_COORD97":183633.14000000001,"N_COORD97":2534642.2999999998,"ADDRESS":"長富街２５號","OBJECTID":498281},"geometry":{"x":183633.14000000153,"y":2534642.3000000026}},{"attributes":{"ID":498309,"DIS_CODE":0,"TOWNNAME":"關廟區","LI":"五甲里","LIN":"7鄰","STREET":"南雄路","SECT":"一段","MAREA":" ","LANE":" ","ALLEY":" ","HOUSE_NO":"９１３號","E_COORD97":181268.39000000001,"N_COORD97":2539313.2799999998,"ADDRESS":"南雄路一段９１３號","OBJECTID":498282},"geometry":{"x":181268.39000000153,"y":2539313.2800000012}},{"attributes":{"ID":498310,"DIS_CODE":0,"TOWNNAME":"關廟區","LI":"五甲里","LIN":"7鄰","STREET":"南雄路","SECT":"一段","MAREA":" ","LANE":" ","ALLEY":" ","HOUSE_NO":"９０９號","E_COORD97":181271.48999999999,"N_COORD97":2539307.2799999998,"ADDRESS":"南雄路一段９０９號","OBJECTID":498283},"geometry":{"x":181271.49000000022,"y":2539307.2800000012}},{"attributes":{"ID":498311,"DIS_CODE":0,"TOWNNAME":"關廟區","LI":"東勢里","LIN":"7鄰","STREET":"旺萊路","SECT":" ","MAREA":" ","LANE":" ","ALLEY":" ","HOUSE_NO":"１７１號","E_COORD97":181860.14000000001,"N_COORD97":2539382.25,"ADDRESS":"旺萊路１７１號","OBJECTID":498284},"geometry":{"x":181860.1400000006,"y":2539382.2500000019}},{"attributes":{"ID":498312,"DIS_CODE":0,"TOWNNAME":"關廟區","LI":"松腳里","LIN":"7鄰","STREET":"四維街","SECT":" ","MAREA":" ","LANE":" ","ALLEY":" ","HOUSE_NO":"２２６號","E_COORD97":181870.45999999999,"N_COORD97":2539926.25,"ADDRESS":"四維街２２６號","OBJECTID":498285},"geometry":{"x":181870.46000000089,"y":2539926.25}},{"attributes":{"ID":498313,"DIS_CODE":0,"TOWNNAME":"關廟區","LI":"北勢里","LIN":"7鄰","STREET":"北安三街","SECT":" ","MAREA":" ","LANE":" ","ALLEY":" ","HOUSE_NO":"２號","E_COORD97":181759.14000000001,"N_COORD97":2540524.3199999998,"ADDRESS":"北安三街２號","OBJECTID":498286},"geometry":{"x":181759.13999999966,"y":2540524.3200000022}},{"attributes":{"ID":498314,"DIS_CODE":0,"TOWNNAME":"關廟區","LI":"關廟里","LIN":"7鄰","STREET":"民生街","SECT":" ","MAREA":" ","LANE":" ","ALLEY":" ","HOUSE_NO":"１２１號","E_COORD97":180837.19,"N_COORD97":2539773.29,"ADDRESS":"民生街１２１號","OBJECTID":498287},"geometry":{"x":180837.19000000134,"y":2539773.2900000028}},{"attributes":{"ID":498315,"DIS_CODE":0,"TOWNNAME":"關廟區","LI":"關廟里","LIN":"7鄰","STREET":"民生街","SECT":" ","MAREA":" ","LANE":" ","ALLEY":" ","HOUSE_NO":"１４１號","E_COORD97":180847.48999999999,"N_COORD97":2539816.29,"ADDRESS":"民生街１４１號","OBJECTID":498288},"geometry":{"x":180847.49000000022,"y":2539816.2899999991}},{"attributes":{"ID":498316,"DIS_CODE":0,"TOWNNAME":"關廟區","LI":"北勢里","LIN":"7鄰","STREET":"成功路","SECT":" ","MAREA":" ","LANE":" ","ALLEY":" ","HOUSE_NO":"７６號","E_COORD97":181720.32000000001,"N_COORD97":2540441.27,"ADDRESS":"成功路７６號","OBJECTID":498289},"geometry":{"x":181720.31999999937,"y":2540441.2699999996}},{"attributes":{"ID":498317,"DIS_CODE":0,"TOWNNAME":"關廟區","LI":"新埔里","LIN":"7鄰","STREET":"新埔三街","SECT":" ","MAREA":" ","LANE":" ","ALLEY":" ","HOUSE_NO":"１６號","E_COORD97":181162.37,"N_COORD97":2540999.25,"ADDRESS":"新埔三街１６號","OBJECTID":498290},"geometry":{"x":181162.37000000104,"y":2540999.2500000019}},{"attributes":{"ID":498318,"DIS_CODE":0,"TOWNNAME":"關廟區","LI":"新埔里","LIN":"7鄰","STREET":"新埔三街","SECT":" ","MAREA":" ","LANE":" ","ALLEY":" ","HOUSE_NO":"４２號","E_COORD97":181135.07000000001,"N_COORD97":2541032.25,"ADDRESS":"新埔三街４２號","OBJECTID":498291},"geometry":{"x":181135.0700000003,"y":2541032.2500000037}},{"attributes":{"ID":498319,"DIS_CODE":0,"TOWNNAME":"關廟區","LI":"新埔里","LIN":"7鄰","STREET":"新埔三街","SECT":" ","MAREA":" ","LANE":" ","ALLEY":" ","HOUSE_NO":"８１號","E_COORD97":181022.97,"N_COORD97":2541089.25,"ADDRESS":"新埔三街８１號","OBJECTID":498292},"geometry":{"x":181022.96999999974,"y":2541089.25}},{"attributes":{"ID":498320,"DIS_CODE":0,"TOWNNAME":"關廟區","LI":"新埔里","LIN":"7鄰","STREET":"新埔三街","SECT":" ","MAREA":" ","LANE":" ","ALLEY":" ","HOUSE_NO":"５８號","E_COORD97":181169.67000000001,"N_COORD97":2541022.25,"ADDRESS":"新埔三街５８號","OBJECTID":498293},"geometry":{"x":181169.66999999993,"y":2541022.2500000037}},{"attributes":{"ID":498321,"DIS_CODE":0,"TOWNNAME":"關廟區","LI":"新埔里","LIN":"7鄰","STREET":"新埔三街","SECT":" ","MAREA":" ","LANE":" ","ALLEY":" ","HOUSE_NO":"８號","E_COORD97":181154.22,"N_COORD97":2540992.25,"ADDRESS":"新埔三街８號","OBJECTID":498294},"geometry":{"x":181154.21999999881,"y":2540992.2500000019}},{"attributes":{"ID":498322,"DIS_CODE":0,"TOWNNAME":"關廟區","LI":"新埔里","LIN":"7鄰","STREET":"新埔三街","SECT":" ","MAREA":" ","LANE":" ","ALLEY":" ","HOUSE_NO":"３２號","E_COORD97":181136.67000000001,"N_COORD97":2541014.25,"ADDRESS":"新埔三街３２號","OBJECTID":498295},"geometry":{"x":181136.67000000086,"y":2541014.25}},{"attributes":{"ID":498323,"DIS_CODE":0,"TOWNNAME":"關廟區","LI":"新埔里","LIN":"7鄰","STREET":"新埔三街","SECT":" ","MAREA":" ","LANE":" ","ALLEY":" ","HOUSE_NO":"１００號","E_COORD97":181177.82000000001,"N_COORD97":2541095.25,"ADDRESS":"新埔三街１００號","OBJECTID":498296},"geometry":{"x":181177.81999999937,"y":2541095.25}},{"attributes":{"ID":498324,"DIS_CODE":0,"TOWNNAME":"關廟區","LI":"關廟里","LIN":"7鄰","STREET":"民生街","SECT":" ","MAREA":" ","LANE":" ","ALLEY":" ","HOUSE_NO":"１２３號","E_COORD97":180837.89000000001,"N_COORD97":2539778.29,"ADDRESS":"民生街１２３號","OBJECTID":498297},"geometry":{"x":180837.89000000153,"y":2539778.2899999991}},{"attributes":{"ID":498325,"DIS_CODE":0,"TOWNNAME":"關廟區","LI":"新埔里","LIN":"7鄰","STREET":"新埔三街","SECT":" ","MAREA":" ","LANE":" ","ALLEY":" ","HOUSE_NO":"４０號","E_COORD97":181135.47,"N_COORD97":2541027.25,"ADDRESS":"新埔三街４０號","OBJECTID":498298},"geometry":{"x":181135.46999999974,"y":2541027.25}},{"attributes":{"ID":498326,"DIS_CODE":0,"TOWNNAME":"關廟區","LI":"香洋里","LIN":"7鄰","STREET":"中央路","SECT":" ","MAREA":" ","LANE":" ","ALLEY":" ","HOUSE_NO":"２５６號","E_COORD97":181035.16,"N_COORD97":2540139.3199999998,"ADDRESS":"中央路２５６號","OBJECTID":498299},"geometry":{"x":181035.16000000108,"y":2540139.3200000003}},{"attributes":{"ID":498327,"DIS_CODE":0,"TOWNNAME":"關廟區","LI":"香洋里","LIN":"7鄰","STREET":"中央路","SECT":" ","MAREA":" ","LANE":" ","ALLEY":" ","HOUSE_NO":"２６８號","E_COORD97":181011.35999999999,"N_COORD97":2540145.3199999998,"ADDRESS":"中央路２６８號","OBJECTID":498300},"geometry":{"x":181011.36000000034,"y":2540145.3200000022}},{"attributes":{"ID":498328,"DIS_CODE":0,"TOWNNAME":"關廟區","LI":"南花里","LIN":"7鄰","STREET":"四維街","SECT":" ","MAREA":" ","LANE":" ","ALLEY":" ","HOUSE_NO":"３３６號","E_COORD97":181862.76000000001,"N_COORD97":2540207.25,"ADDRESS":"四維街３３６號","OBJECTID":498301},"geometry":{"x":181862.76000000164,"y":2540207.25}},{"attributes":{"ID":498329,"DIS_CODE":0,"TOWNNAME":"關廟區","LI":"南花里","LIN":"7鄰","STREET":"四維街","SECT":" ","MAREA":" ","LANE":" ","ALLEY":" ","HOUSE_NO":"３３８號","E_COORD97":181863.16,"N_COORD97":2540211.25,"ADDRESS":"四維街３３８號","OBJECTID":498302},"geometry":{"x":181863.16000000015,"y":2540211.25}},{"attributes":{"ID":498330,"DIS_CODE":0,"TOWNNAME":"關廟區","LI":"香洋里","LIN":"7鄰","STREET":"中央路","SECT":" ","MAREA":" ","LANE":" ","ALLEY":" ","HOUSE_NO":"２７０號","E_COORD97":181007.56,"N_COORD97":2540146.3199999998,"ADDRESS":"中央路２７０號","OBJECTID":498303},"geometry":{"x":181007.55999999959,"y":2540146.3200000003}},{"attributes":{"ID":498331,"DIS_CODE":0,"TOWNNAME":"關廟區","LI":"關廟里","LIN":"7鄰","STREET":"民生街","SECT":" ","MAREA":" ","LANE":" ","ALLEY":" ","HOUSE_NO":"１３９號","E_COORD97":180845.98999999999,"N_COORD97":2539812.29,"ADDRESS":"民生街１３９號","OBJECTID":498304},"geometry":{"x":180845.99000000022,"y":2539812.2899999991}},{"attributes":{"ID":498332,"DIS_CODE":0,"TOWNNAME":"鹽水區","LI":"岸內里","LIN":"7鄰","STREET":"和平路","SECT":" ","MAREA":" ","LANE":" ","ALLEY":" ","HOUSE_NO":"４１３號","E_COORD97":174747.32999999999,"N_COORD97":2580525.7799999998,"ADDRESS":"和平路４１３號","OBJECTID":498305},"geometry":{"x":174747.33000000007,"y":2580525.7800000031}},{"attributes":{"ID":498333,"DIS_CODE":0,"TOWNNAME":"鹽水區","LI":"岸內里","LIN":"7鄰","STREET":"和平路","SECT":" ","MAREA":" ","LANE":" ","ALLEY":" ","HOUSE_NO":"４１７號","E_COORD97":174738.07000000001,"N_COORD97":2580525.6699999999,"ADDRESS":"和平路４１７號","OBJECTID":498306},"geometry":{"x":174738.07000000123,"y":2580525.6699999999}},{"attributes":{"ID":498334,"DIS_CODE":0,"TOWNNAME":"關廟區","LI":"關廟里","LIN":"7鄰","STREET":"民生街","SECT":" ","MAREA":" ","LANE":" ","ALLEY":" ","HOUSE_NO":"１７７號","E_COORD97":180873.59,"N_COORD97":2539913.29,"ADDRESS":"民生街１７７號","OBJECTID":498307},"geometry":{"x":180873.58999999985,"y":2539913.290000001}},{"attributes":{"ID":498335,"DIS_CODE":0,"TOWNNAME":"關廟區","LI":"五甲里","LIN":"7鄰","STREET":"五慧街","SECT":" ","MAREA":" ","LANE":" ","ALLEY":" ","HOUSE_NO":"２２號","E_COORD97":181205.62,"N_COORD97":2539260.25,"ADDRESS":"五慧街２２號","OBJECTID":498308},"geometry":{"x":181205.62000000011,"y":2539260.2500000019}},{"attributes":{"ID":498336,"DIS_CODE":0,"TOWNNAME":"關廟區","LI":"關廟里","LIN":"7鄰","STREET":"民生街","SECT":" ","MAREA":" ","LANE":" ","ALLEY":" ","HOUSE_NO":"１７３號","E_COORD97":180870.89000000001,"N_COORD97":2539905.29,"ADDRESS":"民生街１７３號","OBJECTID":498309},"geometry":{"x":180870.88999999966,"y":2539905.2900000028}},{"attributes":{"ID":498337,"DIS_CODE":0,"TOWNNAME":"關廟區","LI":"布袋里","LIN":"7鄰","STREET":"南雄南路","SECT":" ","MAREA":" ","LANE":" ","ALLEY":" ","HOUSE_NO":"４７７號","E_COORD97":183880.09,"N_COORD97":2534354.25,"ADDRESS":"南雄南路４７７號","OBJECTID":498310},"geometry":{"x":183880.09000000078,"y":2534354.2500000019}},{"attributes":{"ID":498338,"DIS_CODE":0,"TOWNNAME":"關廟區","LI":"新光里","LIN":"7鄰","STREET":"新光街","SECT":" ","MAREA":" ","LANE":" ","ALLEY":" ","HOUSE_NO":"２３３號","E_COORD97":184264.76999999999,"N_COORD97":2541890.25,"ADDRESS":"新光街２３３號","OBJECTID":498311},"geometry":{"x":184264.77000000048,"y":2541890.2500000037}},{"attributes":{"ID":498339,"DIS_CODE":0,"TOWNNAME":"關廟區","LI":"關廟里","LIN":"7鄰","STREET":"民生街","SECT":" ","MAREA":" ","LANE":" ","ALLEY":" ","HOUSE_NO":"１８５號","E_COORD97":180877.48999999999,"N_COORD97":2539935.29,"ADDRESS":"民生街１８５號","OBJECTID":498312},"geometry":{"x":180877.49000000115,"y":2539935.2899999991}},{"attributes":{"ID":498340,"DIS_CODE":0,"TOWNNAME":"關廟區","LI":"關廟里","LIN":"7鄰","STREET":"民生街","SECT":" ","MAREA":" ","LANE":" ","ALLEY":" ","HOUSE_NO":"１５５號","E_COORD97":180911.54000000001,"N_COORD97":2539603.29,"ADDRESS":"民生街１５５號","OBJECTID":498313},"geometry":{"x":180911.54000000004,"y":2539603.2899999991}},{"attributes":{"ID":498341,"DIS_CODE":0,"TOWNNAME":"關廟區","LI":"南花里","LIN":"7鄰","STREET":"四維街","SECT":" ","MAREA":" ","LANE":" ","ALLEY":" ","HOUSE_NO":"３２６號","E_COORD97":181858.16,"N_COORD97":2540174.25,"ADDRESS":"四維街３２６號","OBJECTID":498314},"geometry":{"x":181858.16000000015,"y":2540174.2499999981}},{"attributes":{"ID":498342,"DIS_CODE":0,"TOWNNAME":"關廟區","LI":"香洋里","LIN":"7鄰","STREET":"中央路","SECT":" ","MAREA":" ","LANE":" ","ALLEY":" ","HOUSE_NO":"２６６號","E_COORD97":181015.95999999999,"N_COORD97":2540144.3199999998,"ADDRESS":"中央路２６６號","OBJECTID":498315},"geometry":{"x":181015.96000000089,"y":2540144.3200000022}},{"attributes":{"ID":498343,"DIS_CODE":0,"TOWNNAME":"關廟區","LI":"南花里","LIN":"7鄰","STREET":"四維街","SECT":" ","MAREA":" ","LANE":" ","ALLEY":" ","HOUSE_NO":"３０８號","E_COORD97":181855.06,"N_COORD97":2540139.25,"ADDRESS":"四維街３０８號","OBJECTID":498316},"geometry":{"x":181855.05999999959,"y":2540139.25}},{"attributes":{"ID":498344,"DIS_CODE":0,"TOWNNAME":"關廟區","LI":"龜洞里","LIN":"7鄰","STREET":"南雄南路","SECT":" ","MAREA":" ","LANE":" ","ALLEY":" ","HOUSE_NO":"７７１號","E_COORD97":183188.39000000001,"N_COORD97":2533338.2999999998,"ADDRESS":"南雄南路７７１號","OBJECTID":498317},"geometry":{"x":183188.38999999966,"y":2533338.3000000007}},{"attributes":{"ID":498345,"DIS_CODE":0,"TOWNNAME":"關廟區","LI":"南花里","LIN":"7鄰","STREET":"四維街","SECT":" ","MAREA":" ","LANE":" ","ALLEY":" ","HOUSE_NO":"３３０號","E_COORD97":181861.95999999999,"N_COORD97":2540199.25,"ADDRESS":"四維街３３０號","OBJECTID":498318},"geometry":{"x":181861.96000000089,"y":2540199.2500000019}},{"attributes":{"ID":498346,"DIS_CODE":0,"TOWNNAME":"關廟區","LI":"香洋里","LIN":"7鄰","STREET":"中央路","SECT":" ","MAREA":" ","LANE":" ","ALLEY":" ","HOUSE_NO":"２７２號","E_COORD97":181003.35999999999,"N_COORD97":2540148.3199999998,"ADDRESS":"中央路２７２號","OBJECTID":498319},"geometry":{"x":181003.36000000127,"y":2540148.3200000022}},{"attributes":{"ID":498347,"DIS_CODE":0,"TOWNNAME":"關廟區","LI":"新埔里","LIN":"7鄰","STREET":"忠孝街","SECT":" ","MAREA":" ","LANE":" ","ALLEY":" ","HOUSE_NO":"３５７號","E_COORD97":181191.14000000001,"N_COORD97":2541039.25,"ADDRESS":"忠孝街３５７號","OBJECTID":498320},"geometry":{"x":181191.1400000006,"y":2541039.2500000037}},{"attributes":{"ID":498348,"DIS_CODE":0,"TOWNNAME":"關廟區","LI":"新埔里","LIN":"7鄰","STREET":"忠孝街","SECT":" ","MAREA":" ","LANE":" ","ALLEY":" ","HOUSE_NO":"３３５號","E_COORD97":181198.04000000001,"N_COORD97":2540991.25,"ADDRESS":"忠孝街３３５號","OBJECTID":498321},"geometry":{"x":181198.04000000004,"y":2540991.25}},{"attributes":{"ID":498349,"DIS_CODE":0,"TOWNNAME":"關廟區","LI":"南花里","LIN":"7鄰","STREET":"四維街","SECT":" ","MAREA":" ","LANE":" ","ALLEY":" ","HOUSE_NO":"３２０號","E_COORD97":181856.66,"N_COORD97":2540165.25,"ADDRESS":"四維街３２０號","OBJECTID":498322},"geometry":{"x":181856.66000000015,"y":2540165.2500000019}},{"attributes":{"ID":498350,"DIS_CODE":0,"TOWNNAME":"關廟區","LI":"南花里","LIN":"7鄰","STREET":"四維街","SECT":" ","MAREA":" ","LANE":" ","ALLEY":" ","HOUSE_NO":"３２２號","E_COORD97":181856.95999999999,"N_COORD97":2540170.25,"ADDRESS":"四維街３２２號","OBJECTID":498323},"geometry":{"x":181856.96000000089,"y":2540170.25}},{"attributes":{"ID":498351,"DIS_CODE":0,"TOWNNAME":"關廟區","LI":"五甲里","LIN":"7鄰","STREET":"五慧街","SECT":" ","MAREA":" ","LANE":" ","ALLEY":" ","HOUSE_NO":"２８號","E_COORD97":181196.42000000001,"N_COORD97":2539260.25,"ADDRESS":"五慧街２８號","OBJECTID":498324},"geometry":{"x":181196.41999999993,"y":2539260.2500000019}},{"attributes":{"ID":498352,"DIS_CODE":0,"TOWNNAME":"關廟區","LI":"松腳里","LIN":"7鄰","STREET":"四維街","SECT":" ","MAREA":" ","LANE":" ","ALLEY":" ","HOUSE_NO":"１９０號","E_COORD97":181875.06,"N_COORD97":2539848.25,"ADDRESS":"四維街１９０號","OBJECTID":498325},"geometry":{"x":181875.05999999959,"y":2539848.25}},{"attributes":{"ID":498353,"DIS_CODE":0,"TOWNNAME":"關廟區","LI":"深坑里","LIN":"7鄰","STREET":"南雄路","SECT":"一段","MAREA":" ","LANE":" ","ALLEY":" ","HOUSE_NO":"４５０號","E_COORD97":181707.07000000001,"N_COORD97":2537726.2999999998,"ADDRESS":"南雄路一段４５０號","OBJECTID":498326},"geometry":{"x":181707.07000000123,"y":2537726.3000000007}},{"attributes":{"ID":498354,"DIS_CODE":0,"TOWNNAME":"關廟區","LI":"五甲里","LIN":"7鄰","STREET":"五慧街","SECT":" ","MAREA":" ","LANE":" ","ALLEY":" ","HOUSE_NO":"１８號","E_COORD97":181221.01999999999,"N_COORD97":2539261.25,"ADDRESS":"五慧街１８號","OBJECTID":498327},"geometry":{"x":181221.01999999955,"y":2539261.25}},{"attributes":{"ID":498355,"DIS_CODE":0,"TOWNNAME":"關廟區","LI":"北勢里","LIN":"7鄰","STREET":"成功路","SECT":" ","MAREA":" ","LANE":" ","ALLEY":" ","HOUSE_NO":"６２號","E_COORD97":181735.32000000001,"N_COORD97":2540415.27,"ADDRESS":"成功路６２號","OBJECTID":498328},"geometry":{"x":181735.3200000003,"y":2540415.2700000014}},{"attributes":{"ID":498356,"DIS_CODE":0,"TOWNNAME":"新化區","LI":"豐榮里","LIN":"7鄰","STREET":"大智路","SECT":" ","MAREA":" ","LANE":" ","ALLEY":" ","HOUSE_NO":"２５５號","E_COORD97":177926.42999999999,"N_COORD97":2547956.25,"ADDRESS":"大智路２５５號","OBJECTID":498329},"geometry":{"x":177926.4299999997,"y":2547956.2500000019}},{"attributes":{"ID":498357,"DIS_CODE":0,"TOWNNAME":"南區","LI":"大恩里","LIN":"7鄰","STREET":"國民路","SECT":" ","MAREA":" ","LANE":" ","ALLEY":" ","HOUSE_NO":"７５號","E_COORD97":169387.07000000001,"N_COORD97":2540866.1800000002,"ADDRESS":"國民路７５號","OBJECTID":498330},"geometry":{"x":169387.0700000003,"y":2540866.1800000034}},{"attributes":{"ID":498358,"DIS_CODE":0,"TOWNNAME":"新化區","LI":"豐榮里","LIN":"7鄰","STREET":"大智路","SECT":" ","MAREA":" ","LANE":" ","ALLEY":" ","HOUSE_NO":"１７６號","E_COORD97":178030.53,"N_COORD97":2548099.25,"ADDRESS":"大智路１７６號","OBJECTID":498331},"geometry":{"x":178030.53000000119,"y":2548099.2500000019}},{"attributes":{"ID":498359,"DIS_CODE":0,"TOWNNAME":"新化區","LI":"觀音里","LIN":"7鄰","STREET":"忠孝路","SECT":" ","MAREA":" ","LANE":" ","ALLEY":" ","HOUSE_NO":"５７號","E_COORD97":178931.76999999999,"N_COORD97":2548676.25,"ADDRESS":"忠孝路５７號","OBJECTID":498332},"geometry":{"x":178931.77000000048,"y":2548676.25}},{"attributes":{"ID":498360,"DIS_CODE":0,"TOWNNAME":"鹽水區","LI":"岸內里","LIN":"7鄰","STREET":"和平路","SECT":" ","MAREA":" ","LANE":" ","ALLEY":" ","HOUSE_NO":"４１５號","E_COORD97":174742.70000000001,"N_COORD97":2580525.73,"ADDRESS":"和平路４１５號","OBJECTID":498333},"geometry":{"x":174742.70000000112,"y":2580525.7300000004}},{"attributes":{"ID":498361,"DIS_CODE":0,"TOWNNAME":"歸仁區","LI":"南保里","LIN":"53鄰","STREET":"大順五街","SECT":" ","MAREA":" ","LANE":" ","ALLEY":" ","HOUSE_NO":"１０號","E_COORD97":176841.97,"N_COORD97":2540552.25,"ADDRESS":"大順五街１０號","OBJECTID":498334},"geometry":{"x":176841.97000000067,"y":2540552.2500000019}},{"attributes":{"ID":498362,"DIS_CODE":0,"TOWNNAME":"鹽水區","LI":"岸內里","LIN":"7鄰","STREET":"和平路","SECT":" ","MAREA":" ","LANE":" ","ALLEY":" ","HOUSE_NO":"３７１號","E_COORD97":174842.62,"N_COORD97":2580529.0499999998,"ADDRESS":"和平路３７１號","OBJECTID":498335},"geometry":{"x":174842.62000000197,"y":2580529.0500000045}},{"attributes":{"ID":498363,"DIS_CODE":0,"TOWNNAME":"新營區","LI":"新北里","LIN":"5鄰","STREET":"三興街","SECT":" ","MAREA":" ","LANE":" ","ALLEY":" ","HOUSE_NO":"９５號之９","E_COORD97":179363.60999999999,"N_COORD97":2579182.6800000002,"ADDRESS":"三興街９５號之９","OBJECTID":498336},"geometry":{"x":179363.61000000034,"y":2579182.6799999997}},{"attributes":{"ID":498364,"DIS_CODE":0,"TOWNNAME":"新營區","LI":"忠政里","LIN":"20鄰","STREET":"府西路","SECT":" ","MAREA":" ","LANE":" ","ALLEY":" ","HOUSE_NO":"２３５號","E_COORD97":179796.42999999999,"N_COORD97":2579619.1200000001,"ADDRESS":"府西路２３５號","OBJECTID":498337},"geometry":{"x":179796.4299999997,"y":2579619.120000001}},{"attributes":{"ID":498365,"DIS_CODE":0,"TOWNNAME":"鹽水區","LI":"岸內里","LIN":"7鄰","STREET":"和平路","SECT":" ","MAREA":" ","LANE":" ","ALLEY":" ","HOUSE_NO":"３７３號","E_COORD97":174838.29000000001,"N_COORD97":2580528.9700000002,"ADDRESS":"和平路３７３號","OBJECTID":498338},"geometry":{"x":174838.29000000097,"y":2580528.9700000007}},{"attributes":{"ID":498366,"DIS_CODE":0,"TOWNNAME":"安南區","LI":"淵中里","LIN":"3鄰","STREET":"安中路","SECT":"四段","MAREA":" ","LANE":"９１巷","ALLEY":"６弄","HOUSE_NO":"８號","E_COORD97":165134.002672,"N_COORD97":2549930.5113400002,"ADDRESS":"安中路四段９１巷６弄８號","OBJECTID":498339},"geometry":{"x":165134.00267199986,"y":2549930.5113440044}},{"attributes":{"ID":498367,"DIS_CODE":0,"TOWNNAME":"鹽水區","LI":"岸內里","LIN":"7鄰","STREET":"和平路","SECT":" ","MAREA":" ","LANE":" ","ALLEY":" ","HOUSE_NO":"３７５號","E_COORD97":174834.20000000001,"N_COORD97":2580528.6099999999,"ADDRESS":"和平路３７５號","OBJECTID":498340},"geometry":{"x":174834.20000000112,"y":2580528.6100000013}},{"attributes":{"ID":498368,"DIS_CODE":0,"TOWNNAME":"鹽水區","LI":"岸內里","LIN":"7鄰","STREET":"和平路","SECT":" ","MAREA":" ","LANE":" ","ALLEY":" ","HOUSE_NO":"３７７號","E_COORD97":174829.59,"N_COORD97":2580528.52,"ADDRESS":"和平路３７７號","OBJECTID":498341},"geometry":{"x":174829.59000000078,"y":2580528.5200000014}},{"attributes":{"ID":498369,"DIS_CODE":0,"TOWNNAME":"鹽水區","LI":"岸內里","LIN":"7鄰","STREET":"和平路","SECT":" ","MAREA":" ","LANE":" ","ALLEY":" ","HOUSE_NO":"４０３號","E_COORD97":174771.76999999999,"N_COORD97":2580527.4900000002,"ADDRESS":"和平路４０３號","OBJECTID":498342},"geometry":{"x":174771.77000000048,"y":2580527.4900000002}},{"attributes":{"ID":498370,"DIS_CODE":0,"TOWNNAME":"鹽水區","LI":"岸內里","LIN":"7鄰","STREET":"和平路","SECT":" ","MAREA":" ","LANE":" ","ALLEY":" ","HOUSE_NO":"４０５號","E_COORD97":174767.51000000001,"N_COORD97":2580524.8700000001,"ADDRESS":"和平路４０５號","OBJECTID":498343},"geometry":{"x":174767.50999999978,"y":2580524.8700000029}},{"attributes":{"ID":498371,"DIS_CODE":0,"TOWNNAME":"鹽水區","LI":"岸內里","LIN":"7鄰","STREET":"和平路","SECT":" ","MAREA":" ","LANE":" ","ALLEY":" ","HOUSE_NO":"４０９號","E_COORD97":174756.59,"N_COORD97":2580525.8999999999,"ADDRESS":"和平路４０９號","OBJECTID":498344},"geometry":{"x":174756.59000000078,"y":2580525.8999999985}},{"attributes":{"ID":498372,"DIS_CODE":0,"TOWNNAME":"鹽水區","LI":"岸內里","LIN":"7鄰","STREET":"和平路","SECT":" ","MAREA":" ","LANE":" ","ALLEY":" ","HOUSE_NO":"４１１號","E_COORD97":174751.95999999999,"N_COORD97":2580525.8399999999,"ADDRESS":"和平路４１１號","OBJECTID":498345},"geometry":{"x":174751.96000000183,"y":2580525.839999998}},{"attributes":{"ID":498373,"DIS_CODE":0,"TOWNNAME":"鹽水區","LI":"岸內里","LIN":"7鄰","STREET":"和平路","SECT":" ","MAREA":" ","LANE":" ","ALLEY":" ","HOUSE_NO":"４５３號","E_COORD97":174650.76000000001,"N_COORD97":2580525.5299999998,"ADDRESS":"和平路４５３號","OBJECTID":498346},"geometry":{"x":174650.75999999978,"y":2580525.5300000012}},{"attributes":{"ID":498374,"DIS_CODE":0,"TOWNNAME":"新營區","LI":"民生里","LIN":" ","STREET":"復興路","SECT":" ","MAREA":" ","LANE":" ","ALLEY":" ","HOUSE_NO":"２７８號","E_COORD97":178724.56,"N_COORD97":2578133.6099999999,"ADDRESS":"復興路２７８號","OBJECTID":498347},"geometry":{"x":178724.56000000052,"y":2578133.6100000031}},{"attributes":{"ID":498375,"DIS_CODE":0,"TOWNNAME":"鹽水區","LI":"岸內里","LIN":"8鄰","STREET":"和平路","SECT":" ","MAREA":" ","LANE":" ","ALLEY":" ","HOUSE_NO":"５７２號","E_COORD97":174833.81,"N_COORD97":2580562.25,"ADDRESS":"和平路５７２號","OBJECTID":498348},"geometry":{"x":174833.81000000145,"y":2580562.2500000019}},{"attributes":{"ID":498376,"DIS_CODE":0,"TOWNNAME":"新營區","LI":"民生里","LIN":"25鄰","STREET":"民治路","SECT":" ","MAREA":" ","LANE":" ","ALLEY":" ","HOUSE_NO":"６７號","E_COORD97":179169.88,"N_COORD97":2578696.2599999998,"ADDRESS":"民治路６７號","OBJECTID":498349},"geometry":{"x":179169.87999999896,"y":2578696.2600000016}},{"attributes":{"ID":498377,"DIS_CODE":0,"TOWNNAME":"鹽水區","LI":"武廟里","LIN":"7鄰","STREET":"武廟路","SECT":" ","MAREA":" ","LANE":" ","ALLEY":" ","HOUSE_NO":"６５號","E_COORD97":174896.06,"N_COORD97":2580233.52,"ADDRESS":"武廟路６５號","OBJECTID":498350},"geometry":{"x":174896.05999999959,"y":2580233.5200000014}},{"attributes":{"ID":498378,"DIS_CODE":0,"TOWNNAME":"鹽水區","LI":"武廟里","LIN":"7鄰","STREET":"武廟路","SECT":" ","MAREA":" ","LANE":" ","ALLEY":" ","HOUSE_NO":"６７號之１","E_COORD97":174868.45999999999,"N_COORD97":2580268.3700000001,"ADDRESS":"武廟路６７號之１","OBJECTID":498351},"geometry":{"x":174868.45999999996,"y":2580268.370000001}},{"attributes":{"ID":498379,"DIS_CODE":0,"TOWNNAME":"鹽水區","LI":"武廟里","LIN":"7鄰","STREET":"武廟路","SECT":" ","MAREA":" ","LANE":" ","ALLEY":" ","HOUSE_NO":"６７號","E_COORD97":174862.04000000001,"N_COORD97":2580259.7999999998,"ADDRESS":"武廟路６７號","OBJECTID":498352},"geometry":{"x":174862.04000000097,"y":2580259.8000000026}},{"attributes":{"ID":498380,"DIS_CODE":0,"TOWNNAME":"鹽水區","LI":"武廟里","LIN":"7鄰","STREET":"武廟路","SECT":" ","MAREA":" ","LANE":" ","ALLEY":" ","HOUSE_NO":"８４號","E_COORD97":174922.01999999999,"N_COORD97":2580262.8700000001,"ADDRESS":"武廟路８４號","OBJECTID":498353},"geometry":{"x":174922.01999999955,"y":2580262.8700000048}},{"attributes":{"ID":498381,"DIS_CODE":0,"TOWNNAME":"鹽水區","LI":"武廟里","LIN":"7鄰","STREET":"武廟路","SECT":" ","MAREA":" ","LANE":" ","ALLEY":" ","HOUSE_NO":"８５號","E_COORD97":174881.73000000001,"N_COORD97":2580272.8300000001,"ADDRESS":"武廟路８５號","OBJECTID":498354},"geometry":{"x":174881.73000000138,"y":2580272.8300000019}},{"attributes":{"ID":498382,"DIS_CODE":0,"TOWNNAME":"鹽水區","LI":"武廟里","LIN":"7鄰","STREET":"武廟路","SECT":" ","MAREA":" ","LANE":" ","ALLEY":" ","HOUSE_NO":"８７號","E_COORD97":174913.41,"N_COORD97":2580365.6400000001,"ADDRESS":"武廟路８７號","OBJECTID":498355},"geometry":{"x":174913.41000000201,"y":2580365.6400000043}},{"attributes":{"ID":498383,"DIS_CODE":0,"TOWNNAME":"鹽水區","LI":"武廟里","LIN":"7鄰","STREET":"武廟路","SECT":" ","MAREA":" ","LANE":" ","ALLEY":" ","HOUSE_NO":"９８號之１","E_COORD97":174937.23000000001,"N_COORD97":2580313.4199999999,"ADDRESS":"武廟路９８號之１","OBJECTID":498356},"geometry":{"x":174937.23000000138,"y":2580313.4200000018}},{"attributes":{"ID":498384,"DIS_CODE":0,"TOWNNAME":"鹽水區","LI":"武廟里","LIN":"7鄰","STREET":"武廟路","SECT":" ","MAREA":" ","LANE":" ","ALLEY":" ","HOUSE_NO":"９８號之２","E_COORD97":174942.42000000001,"N_COORD97":2580313.4500000002,"ADDRESS":"武廟路９８號之２","OBJECTID":498357},"geometry":{"x":174942.42000000086,"y":2580313.4499999993}},{"attributes":{"ID":498385,"DIS_CODE":0,"TOWNNAME":"鹽水區","LI":"武廟里","LIN":"7鄰","STREET":"武廟路","SECT":" ","MAREA":" ","LANE":" ","ALLEY":" ","HOUSE_NO":"９８號之３","E_COORD97":174947.60000000001,"N_COORD97":2580313.48,"ADDRESS":"武廟路９８號之３","OBJECTID":498358},"geometry":{"x":174947.60000000056,"y":2580313.4800000023}},{"attributes":{"ID":498386,"DIS_CODE":0,"TOWNNAME":"鹽水區","LI":"武廟里","LIN":"7鄰","STREET":"武廟路","SECT":" ","MAREA":" ","LANE":" ","ALLEY":" ","HOUSE_NO":"９８號之４","E_COORD97":174952.79000000001,"N_COORD97":2580313.52,"ADDRESS":"武廟路９８號之４","OBJECTID":498359},"geometry":{"x":174952.79000000004,"y":2580313.5199999996}},{"attributes":{"ID":498387,"DIS_CODE":0,"TOWNNAME":"鹽水區","LI":"武廟里","LIN":"7鄰","STREET":"武廟路","SECT":" ","MAREA":" ","LANE":" ","ALLEY":" ","HOUSE_NO":"９８號之５","E_COORD97":174957.97,"N_COORD97":2580313.5499999998,"ADDRESS":"武廟路９８號之５","OBJECTID":498360},"geometry":{"x":174957.96999999974,"y":2580313.5500000026}},{"attributes":{"ID":498388,"DIS_CODE":0,"TOWNNAME":"鹽水區","LI":"武廟里","LIN":"7鄰","STREET":"武廟路","SECT":" ","MAREA":" ","LANE":" ","ALLEY":" ","HOUSE_NO":"９８號之６","E_COORD97":174963.16,"N_COORD97":2580313.5800000001,"ADDRESS":"武廟路９８號之６","OBJECTID":498361},"geometry":{"x":174963.16000000108,"y":2580313.5800000001}},{"attributes":{"ID":498389,"DIS_CODE":0,"TOWNNAME":"鹽水區","LI":"武廟里","LIN":"7鄰","STREET":"武廟路","SECT":" ","MAREA":" ","LANE":" ","ALLEY":" ","HOUSE_NO":"９８號之８","E_COORD97":174938.75,"N_COORD97":2580323.1899999999,"ADDRESS":"武廟路９８號之８","OBJECTID":498362},"geometry":{"x":174938.75000000093,"y":2580323.1900000032}},{"attributes":{"ID":498390,"DIS_CODE":0,"TOWNNAME":"鹽水區","LI":"橋南里","LIN":"7鄰","STREET":"南門路","SECT":" ","MAREA":" ","LANE":" ","ALLEY":" ","HOUSE_NO":"１８９號","E_COORD97":175390.44,"N_COORD97":2579020.02,"ADDRESS":"南門路１８９號","OBJECTID":498363},"geometry":{"x":175390.44000000134,"y":2579020.0200000014}},{"attributes":{"ID":498391,"DIS_CODE":0,"TOWNNAME":"鹽水區","LI":"橋南里","LIN":"7鄰","STREET":"南門路","SECT":" ","MAREA":" ","LANE":" ","ALLEY":" ","HOUSE_NO":"１９１號","E_COORD97":175393.85999999999,"N_COORD97":2579016.2000000002,"ADDRESS":"南門路１９１號","OBJECTID":498364},"geometry":{"x":175393.8600000022,"y":2579016.1999999993}},{"attributes":{"ID":498392,"DIS_CODE":0,"TOWNNAME":"鹽水區","LI":"橋南里","LIN":"7鄰","STREET":"南門路","SECT":" ","MAREA":" ","LANE":" ","ALLEY":" ","HOUSE_NO":"１９３號","E_COORD97":175396.67000000001,"N_COORD97":2579013.5600000001,"ADDRESS":"南門路１９３號","OBJECTID":498365},"geometry":{"x":175396.67000000086,"y":2579013.5600000024}},{"attributes":{"ID":498393,"DIS_CODE":0,"TOWNNAME":"鹽水區","LI":"橋南里","LIN":"7鄰","STREET":"南門路","SECT":" ","MAREA":" ","LANE":" ","ALLEY":" ","HOUSE_NO":"１９５號","E_COORD97":175399.54000000001,"N_COORD97":2579010.9700000002,"ADDRESS":"南門路１９５號","OBJECTID":498366},"geometry":{"x":175399.54000000097,"y":2579010.9700000025}},{"attributes":{"ID":498394,"DIS_CODE":0,"TOWNNAME":"鹽水區","LI":"橋南里","LIN":"7鄰","STREET":"南門路","SECT":" ","MAREA":" ","LANE":" ","ALLEY":" ","HOUSE_NO":"１９７號","E_COORD97":175403.91,"N_COORD97":2579007.8799999999,"ADDRESS":"南門路１９７號","OBJECTID":498367},"geometry":{"x":175403.91000000108,"y":2579007.879999999}},{"attributes":{"ID":498395,"DIS_CODE":0,"TOWNNAME":"新營區","LI":"大宏里","LIN":"5鄰","STREET":"三民路","SECT":" ","MAREA":" ","LANE":" ","ALLEY":" ","HOUSE_NO":"５６之１號","E_COORD97":180267.95000000001,"N_COORD97":2578498.4199999999,"ADDRESS":"三民路５６之１號","OBJECTID":498368},"geometry":{"x":180267.95000000019,"y":2578498.4200000018}},{"attributes":{"ID":498396,"DIS_CODE":0,"TOWNNAME":"新營區","LI":"新北里","LIN":"17鄰","STREET":"南新街","SECT":" ","MAREA":" ","LANE":" ","ALLEY":" ","HOUSE_NO":"８３號","E_COORD97":179210.57999999999,"N_COORD97":2578854.4399999999,"ADDRESS":"南新街８３號","OBJECTID":498369},"geometry":{"x":179210.58000000007,"y":2578854.4400000013}},{"attributes":{"ID":498397,"DIS_CODE":0,"TOWNNAME":"鹽水區","LI":"福得里","LIN":"7鄰","STREET":"康樂路","SECT":" ","MAREA":" ","LANE":" ","ALLEY":" ","HOUSE_NO":"１９４號","E_COORD97":175421.20000000001,"N_COORD97":2580050.3900000001,"ADDRESS":"康樂路１９４號","OBJECTID":498370},"geometry":{"x":175421.20000000019,"y":2580050.3900000006}},{"attributes":{"ID":498398,"DIS_CODE":0,"TOWNNAME":"鹽水區","LI":"福得里","LIN":"7鄰","STREET":"康樂路","SECT":" ","MAREA":" ","LANE":" ","ALLEY":" ","HOUSE_NO":"１９８號","E_COORD97":175427.60999999999,"N_COORD97":2580055.8700000001,"ADDRESS":"康樂路１９８號","OBJECTID":498371},"geometry":{"x":175427.6100000022,"y":2580055.8700000048}},{"attributes":{"ID":498399,"DIS_CODE":0,"TOWNNAME":"鹽水區","LI":"水正里","LIN":"7鄰","STREET":"康樂路","SECT":" ","MAREA":" ","LANE":" ","ALLEY":" ","HOUSE_NO":"４１號","E_COORD97":175140.95000000001,"N_COORD97":2579818.29,"ADDRESS":"康樂路４１號","OBJECTID":498372},"geometry":{"x":175140.95000000112,"y":2579818.290000001}},{"attributes":{"ID":498400,"DIS_CODE":0,"TOWNNAME":"鹽水區","LI":"水正里","LIN":"7鄰","STREET":"康樂路","SECT":" ","MAREA":" ","LANE":" ","ALLEY":" ","HOUSE_NO":"４３號","E_COORD97":175141.17000000001,"N_COORD97":2579821.8700000001,"ADDRESS":"康樂路４３號","OBJECTID":498373},"geometry":{"x":175141.16999999993,"y":2579821.8700000048}},{"attributes":{"ID":498401,"DIS_CODE":0,"TOWNNAME":"鹽水區","LI":"水正里","LIN":"7鄰","STREET":"康樂路","SECT":" ","MAREA":" ","LANE":" ","ALLEY":" ","HOUSE_NO":"４５號","E_COORD97":175140.81,"N_COORD97":2579825,"ADDRESS":"康樂路４５號","OBJECTID":498374},"geometry":{"x":175140.81000000145,"y":2579825}},{"attributes":{"ID":498402,"DIS_CODE":0,"TOWNNAME":"鹽水區","LI":"水正里","LIN":"7鄰","STREET":"康樂路","SECT":" ","MAREA":" ","LANE":" ","ALLEY":" ","HOUSE_NO":"４７號","E_COORD97":175140.87,"N_COORD97":2579828.75,"ADDRESS":"康樂路４７號","OBJECTID":498375},"geometry":{"x":175140.87000000197,"y":2579828.7500000019}},{"attributes":{"ID":498403,"DIS_CODE":0,"TOWNNAME":"鹽水區","LI":"水正里","LIN":"7鄰","STREET":"康樂路","SECT":" ","MAREA":" ","LANE":" ","ALLEY":" ","HOUSE_NO":"４９號","E_COORD97":175140.57000000001,"N_COORD97":2579833.6699999999,"ADDRESS":"康樂路４９號","OBJECTID":498376},"geometry":{"x":175140.5700000003,"y":2579833.6700000018}},{"attributes":{"ID":498404,"DIS_CODE":0,"TOWNNAME":"鹽水區","LI":"水正里","LIN":"7鄰","STREET":"康樂路","SECT":" ","MAREA":" ","LANE":" ","ALLEY":" ","HOUSE_NO":"５１號","E_COORD97":175140.92999999999,"N_COORD97":2579838.3799999999,"ADDRESS":"康樂路５１號","OBJECTID":498377},"geometry":{"x":175140.9299999997,"y":2579838.379999999}},{"attributes":{"ID":498405,"DIS_CODE":0,"TOWNNAME":"鹽水區","LI":"岸內里","LIN":"10鄰","STREET":"金和路","SECT":" ","MAREA":" ","LANE":" ","ALLEY":" ","HOUSE_NO":"６號","E_COORD97":174612.62,"N_COORD97":2580388.7400000002,"ADDRESS":"金和路６號","OBJECTID":498378},"geometry":{"x":174612.62000000104,"y":2580388.7400000021}},{"attributes":{"ID":498406,"DIS_CODE":0,"TOWNNAME":"鹽水區","LI":"水正里","LIN":"7鄰","STREET":"康樂路","SECT":" ","MAREA":" ","LANE":" ","ALLEY":" ","HOUSE_NO":"５３號","E_COORD97":175141.10000000001,"N_COORD97":2579842.7799999998,"ADDRESS":"康樂路５３號","OBJECTID":498379},"geometry":{"x":175141.10000000056,"y":2579842.7799999993}},{"attributes":{"ID":498407,"DIS_CODE":0,"TOWNNAME":"鹽水區","LI":"水正里","LIN":"7鄰","STREET":"康樂路","SECT":" ","MAREA":" ","LANE":" ","ALLEY":" ","HOUSE_NO":"５５號","E_COORD97":175141.39999999999,"N_COORD97":2579846.3799999999,"ADDRESS":"康樂路５５號","OBJECTID":498380},"geometry":{"x":175141.4000000013,"y":2579846.379999999}},{"attributes":{"ID":498408,"DIS_CODE":0,"TOWNNAME":"北區","LI":"長德里","LIN":"7鄰","STREET":"長北街","SECT":" ","MAREA":" ","LANE":" ","ALLEY":" ","HOUSE_NO":"１３５號","E_COORD97":168467.04999999999,"N_COORD97":2544832.2000000002,"ADDRESS":"長北街１３５號","OBJECTID":498381},"geometry":{"x":168467.05000000168,"y":2544832.1999999974}},{"attributes":{"ID":498409,"DIS_CODE":0,"TOWNNAME":"北區","LI":"長德里","LIN":"7鄰","STREET":"長北街","SECT":" ","MAREA":" ","LANE":" ","ALLEY":" ","HOUSE_NO":"１３７號","E_COORD97":168469.59,"N_COORD97":2544838.5499999998,"ADDRESS":"長北街１３７號","OBJECTID":498382},"geometry":{"x":168469.58999999985,"y":2544838.5500000045}},{"attributes":{"ID":498410,"DIS_CODE":0,"TOWNNAME":"北區","LI":"安民里","LIN":"7鄰","STREET":"海安路","SECT":"三段","MAREA":" ","LANE":" ","ALLEY":" ","HOUSE_NO":"１７號","E_COORD97":167856.14999999999,"N_COORD97":2544628.3799999999,"ADDRESS":"海安路三段１７號","OBJECTID":498383},"geometry":{"x":167856.15000000037,"y":2544628.3800000008}},{"attributes":{"ID":498411,"DIS_CODE":0,"TOWNNAME":"新化區","LI":"東榮里","LIN":"7鄰","STREET":"信義路","SECT":" ","MAREA":" ","LANE":" ","ALLEY":" ","HOUSE_NO":"１２９號","E_COORD97":179645.63,"N_COORD97":2548483.25,"ADDRESS":"信義路１２９號","OBJECTID":498384},"geometry":{"x":179645.62999999989,"y":2548483.25}},{"attributes":{"ID":498412,"DIS_CODE":0,"TOWNNAME":"新營區","LI":"民榮里","LIN":" ","STREET":"太子路","SECT":" ","MAREA":" ","LANE":" ","ALLEY":" ","HOUSE_NO":"６２之１號","E_COORD97":178236.45999999999,"N_COORD97":2578059.6000000001,"ADDRESS":"太子路６２之１號","OBJECTID":498385},"geometry":{"x":178236.45999999996,"y":2578059.6000000015}},{"attributes":{"ID":498413,"DIS_CODE":0,"TOWNNAME":"新營區","LI":"大宏里","LIN":"13鄰","STREET":"三民路","SECT":" ","MAREA":" ","LANE":" ","ALLEY":" ","HOUSE_NO":"４９號","E_COORD97":180271.53,"N_COORD97":2578475.0899999999,"ADDRESS":"三民路４９號","OBJECTID":498386},"geometry":{"x":180271.53000000119,"y":2578475.0899999999}},{"attributes":{"ID":498414,"DIS_CODE":0,"TOWNNAME":"北區","LI":"成功里","LIN":"2鄰","STREET":"北安路","SECT":"一段","MAREA":" ","LANE":"９４巷","ALLEY":"１弄","HOUSE_NO":"２號","E_COORD97":169082.41,"N_COORD97":2546385.7799999998,"ADDRESS":"北安路一段９４巷１弄２號","OBJECTID":498387},"geometry":{"x":169082.41000000108,"y":2546385.7800000012}},{"attributes":{"ID":498415,"DIS_CODE":0,"TOWNNAME":"新化區","LI":"觀音里","LIN":"7鄰","STREET":"民族街","SECT":" ","MAREA":" ","LANE":" ","ALLEY":" ","HOUSE_NO":"４２號","E_COORD97":178891.45999999999,"N_COORD97":2548598.25,"ADDRESS":"民族街４２號","OBJECTID":498388},"geometry":{"x":178891.45999999903,"y":2548598.25}},{"attributes":{"ID":498416,"DIS_CODE":0,"TOWNNAME":"北區","LI":"大和里","LIN":"7鄰","STREET":"大興街","SECT":" ","MAREA":" ","LANE":" ","ALLEY":" ","HOUSE_NO":"１３４號","E_COORD97":167028.23999999999,"N_COORD97":2545745.98,"ADDRESS":"大興街１３４號","OBJECTID":498389},"geometry":{"x":167028.24000000022,"y":2545745.9800000004}},{"attributes":{"ID":498417,"DIS_CODE":0,"TOWNNAME":"北區","LI":"大和里","LIN":"7鄰","STREET":"大興街","SECT":" ","MAREA":" ","LANE":" ","ALLEY":" ","HOUSE_NO":"１３６號","E_COORD97":167023.88,"N_COORD97":2545743.4300000002,"ADDRESS":"大興街１３６號","OBJECTID":498390},"geometry":{"x":167023.87999999896,"y":2545743.4300000034}},{"attributes":{"ID":498418,"DIS_CODE":0,"TOWNNAME":"北區","LI":"大和里","LIN":"7鄰","STREET":"大興街","SECT":" ","MAREA":" ","LANE":" ","ALLEY":" ","HOUSE_NO":"１４０號","E_COORD97":167014.10999999999,"N_COORD97":2545740.6299999999,"ADDRESS":"大興街１４０號","OBJECTID":498391},"geometry":{"x":167014.11000000034,"y":2545740.629999999}},{"attributes":{"ID":498419,"DIS_CODE":0,"TOWNNAME":"北區","LI":"大和里","LIN":"7鄰","STREET":"大興街","SECT":" ","MAREA":" ","LANE":" ","ALLEY":" ","HOUSE_NO":"１４２號","E_COORD97":167008.03,"N_COORD97":2545739.7799999998,"ADDRESS":"大興街１４２號","OBJECTID":498392},"geometry":{"x":167008.03000000212,"y":2545739.7799999993}},{"attributes":{"ID":498420,"DIS_CODE":0,"TOWNNAME":"北區","LI":"大和里","LIN":"7鄰","STREET":"大興街","SECT":" ","MAREA":" ","LANE":" ","ALLEY":" ","HOUSE_NO":"１４４號","E_COORD97":167002.41,"N_COORD97":2545739.8900000001,"ADDRESS":"大興街１４４號","OBJECTID":498393},"geometry":{"x":167002.41000000108,"y":2545739.8900000006}},{"attributes":{"ID":498421,"DIS_CODE":0,"TOWNNAME":"北區","LI":"大和里","LIN":"7鄰","STREET":"大興街","SECT":" ","MAREA":" ","LANE":" ","ALLEY":" ","HOUSE_NO":"１４８號","E_COORD97":166995.57000000001,"N_COORD97":2545739.5600000001,"ADDRESS":"大興街１４８號","OBJECTID":498394},"geometry":{"x":166995.5700000003,"y":2545739.5600000005}},{"attributes":{"ID":498422,"DIS_CODE":0,"TOWNNAME":"北區","LI":"大港里","LIN":"7鄰","STREET":"大興街","SECT":" ","MAREA":" ","LANE":" ","ALLEY":" ","HOUSE_NO":"２１４號","E_COORD97":166773.89000000001,"N_COORD97":2545713.0899999999,"ADDRESS":"大興街２１４號","OBJECTID":498395},"geometry":{"x":166773.88999999966,"y":2545713.0900000017}},{"attributes":{"ID":498423,"DIS_CODE":0,"TOWNNAME":"北區","LI":"大港里","LIN":"7鄰","STREET":"大興街","SECT":" ","MAREA":" ","LANE":" ","ALLEY":" ","HOUSE_NO":"２１６號","E_COORD97":166769.57000000001,"N_COORD97":2545712.8300000001,"ADDRESS":"大興街２１６號","OBJECTID":498396},"geometry":{"x":166769.57000000123,"y":2545712.8300000001}},{"attributes":{"ID":498424,"DIS_CODE":0,"TOWNNAME":"北區","LI":"大港里","LIN":"7鄰","STREET":"大興街","SECT":" ","MAREA":" ","LANE":" ","ALLEY":" ","HOUSE_NO":"２１８號","E_COORD97":166766.03,"N_COORD97":2545713.3500000001,"ADDRESS":"大興街２１８號","OBJECTID":498397},"geometry":{"x":166766.03000000119,"y":2545713.3500000034}},{"attributes":{"ID":498425,"DIS_CODE":0,"TOWNNAME":"北區","LI":"大港里","LIN":"7鄰","STREET":"大興街","SECT":" ","MAREA":" ","LANE":" ","ALLEY":" ","HOUSE_NO":"２２０號","E_COORD97":166760.67000000001,"N_COORD97":2545714.5299999998,"ADDRESS":"大興街２２０號","OBJECTID":498398},"geometry":{"x":166760.66999999993,"y":2545714.5299999993}},{"attributes":{"ID":498426,"DIS_CODE":0,"TOWNNAME":"北區","LI":"大港里","LIN":"7鄰","STREET":"大興街","SECT":" ","MAREA":" ","LANE":" ","ALLEY":" ","HOUSE_NO":"２２２號","E_COORD97":166757.39000000001,"N_COORD97":2545714.9199999999,"ADDRESS":"大興街２２２號","OBJECTID":498399},"geometry":{"x":166757.38999999966,"y":2545714.9199999999}},{"attributes":{"ID":498427,"DIS_CODE":0,"TOWNNAME":"北區","LI":"大港里","LIN":"7鄰","STREET":"大興街","SECT":" ","MAREA":" ","LANE":" ","ALLEY":" ","HOUSE_NO":"２２４號","E_COORD97":166753.45999999999,"N_COORD97":2545715.1800000002,"ADDRESS":"大興街２２４號","OBJECTID":498400},"geometry":{"x":166753.45999999996,"y":2545715.1800000016}}]}