{"displayFieldName":"TOWNNAME","fieldAliases":{"ID":"ID","DIS_CODE":"DIS_CODE","TOWNNAME":"TOWNNAME","LI":"LI","LIN":"LIN","STREET":"STREET","SECT":"SECT","MAREA":"MAREA","LANE":"LANE","ALLEY":"ALLEY","HOUSE_NO":"HOUSE_NO","E_COORD97":"E_COORD97","N_COORD97":"N_COORD97","ADDRESS":"ADDRESS","OBJECTID":"OBJECTID"},"geometryType":"esriGeometryPoint","spatialReference":{"wkid":102443,"latestWkid":3826},"fields":[{"name":"ID","type":"esriFieldTypeDouble","alias":"ID"},{"name":"DIS_CODE","type":"esriFieldTypeInteger","alias":"DIS_CODE"},{"name":"TOWNNAME","type":"esriFieldTypeString","alias":"TOWNNAME","length":8},{"name":"LI","type":"esriFieldTypeString","alias":"LI","length":8},{"name":"LIN","type":"esriFieldTypeString","alias":"LIN","length":12},{"name":"STREET","type":"esriFieldTypeString","alias":"STREET","length":20},{"name":"SECT","type":"esriFieldTypeString","alias":"SECT","length":8},{"name":"MAREA","type":"esriFieldTypeString","alias":"MAREA","length":12},{"name":"LANE","type":"esriFieldTypeString","alias":"LANE","length":10},{"name":"ALLEY","type":"esriFieldTypeString","alias":"ALLEY","length":10},{"name":"HOUSE_NO","type":"esriFieldTypeString","alias":"HOUSE_NO","length":20},{"name":"E_COORD97","type":"esriFieldTypeDouble","alias":"E_COORD97"},{"name":"N_COORD97","type":"esriFieldTypeDouble","alias":"N_COORD97"},{"name":"ADDRESS","type":"esriFieldTypeString","alias":"ADDRESS","length":50},{"name":"OBJECTID","type":"esriFieldTypeOID","alias":"OBJECTID"}],"features":[{"attributes":{"ID":455426,"DIS_CODE":0,"TOWNNAME":"東區","LI":"崇文里","LIN":"32鄰","STREET":"生產路","SECT":" ","MAREA":" ","LANE":"３２１巷","ALLEY":" ","HOUSE_NO":"３１號","E_COORD97":171015.94,"N_COORD97":2540739.8900000001,"ADDRESS":"生產路３２１巷３１號","OBJECTID":455401},"geometry":{"x":171015.94000000041,"y":2540739.8900000006}},{"attributes":{"ID":455427,"DIS_CODE":0,"TOWNNAME":"東區","LI":"崇文里","LIN":"32鄰","STREET":"生產路","SECT":" ","MAREA":" ","LANE":"３２１巷","ALLEY":" ","HOUSE_NO":"３３號","E_COORD97":171015.84,"N_COORD97":2540744.4700000002,"ADDRESS":"生產路３２１巷３３號","OBJECTID":455402},"geometry":{"x":171015.83999999985,"y":2540744.4700000025}},{"attributes":{"ID":455428,"DIS_CODE":0,"TOWNNAME":"東區","LI":"崇文里","LIN":"32鄰","STREET":"生產路","SECT":" ","MAREA":" ","LANE":"３２１巷","ALLEY":" ","HOUSE_NO":"３５號","E_COORD97":171016.04000000001,"N_COORD97":2540749.1400000001,"ADDRESS":"生產路３２１巷３５號","OBJECTID":455403},"geometry":{"x":171016.04000000097,"y":2540749.1400000025}},{"attributes":{"ID":455429,"DIS_CODE":0,"TOWNNAME":"東區","LI":"崇文里","LIN":"32鄰","STREET":"生產路","SECT":" ","MAREA":" ","LANE":"３２１巷","ALLEY":" ","HOUSE_NO":"３號","E_COORD97":171022.10999999999,"N_COORD97":2540679.0299999998,"ADDRESS":"生產路３２１巷３號","OBJECTID":455404},"geometry":{"x":171022.11000000127,"y":2540679.0299999993}},{"attributes":{"ID":455430,"DIS_CODE":0,"TOWNNAME":"東區","LI":"崇文里","LIN":"32鄰","STREET":"生產路","SECT":" ","MAREA":" ","LANE":"３２１巷","ALLEY":" ","HOUSE_NO":"４號","E_COORD97":171047.73999999999,"N_COORD97":2540692,"ADDRESS":"生產路３２１巷４號","OBJECTID":455405},"geometry":{"x":171047.74000000022,"y":2540692.0000000019}},{"attributes":{"ID":455431,"DIS_CODE":0,"TOWNNAME":"東區","LI":"崇文里","LIN":"32鄰","STREET":"生產路","SECT":" ","MAREA":" ","LANE":"３２１巷","ALLEY":" ","HOUSE_NO":"５號","E_COORD97":171021.01999999999,"N_COORD97":2540683.1099999999,"ADDRESS":"生產路３２１巷５號","OBJECTID":455406},"geometry":{"x":171021.01999999955,"y":2540683.1099999975}},{"attributes":{"ID":455432,"DIS_CODE":0,"TOWNNAME":"東區","LI":"崇文里","LIN":"32鄰","STREET":"生產路","SECT":" ","MAREA":" ","LANE":"３２１巷","ALLEY":" ","HOUSE_NO":"７號","E_COORD97":171020.42000000001,"N_COORD97":2540687.6800000002,"ADDRESS":"生產路３２１巷７號","OBJECTID":455407},"geometry":{"x":171020.41999999993,"y":2540687.6800000016}},{"attributes":{"ID":455433,"DIS_CODE":0,"TOWNNAME":"東區","LI":"崇文里","LIN":"32鄰","STREET":"生產路","SECT":" ","MAREA":" ","LANE":"３２１巷","ALLEY":" ","HOUSE_NO":"９號","E_COORD97":171019.82000000001,"N_COORD97":2540692.0600000001,"ADDRESS":"生產路３２１巷９號","OBJECTID":455408},"geometry":{"x":171019.8200000003,"y":2540692.0600000024}},{"attributes":{"ID":455434,"DIS_CODE":0,"TOWNNAME":"永康區","LI":"正強里","LIN":"32鄰","STREET":"四維街","SECT":" ","MAREA":" ","LANE":"２９巷","ALLEY":" ","HOUSE_NO":"２０號","E_COORD97":173356.20000000001,"N_COORD97":2548007.1800000002,"ADDRESS":"四維街２９巷２０號","OBJECTID":455409},"geometry":{"x":173356.20000000019,"y":2548007.1800000016}},{"attributes":{"ID":455435,"DIS_CODE":0,"TOWNNAME":"永康區","LI":"永康里","LIN":"32鄰","STREET":"大同街","SECT":" ","MAREA":" ","LANE":"８３９巷","ALLEY":" ","HOUSE_NO":"９號","E_COORD97":174352.48000000001,"N_COORD97":2547084.9900000002,"ADDRESS":"大同街８３９巷９號","OBJECTID":455410},"geometry":{"x":174352.48000000138,"y":2547084.9900000002}},{"attributes":{"ID":455436,"DIS_CODE":0,"TOWNNAME":"永康區","LI":"正強里","LIN":"32鄰","STREET":"四維街","SECT":" ","MAREA":" ","LANE":"２９巷","ALLEY":" ","HOUSE_NO":"１７號","E_COORD97":173366.26000000001,"N_COORD97":2547991.75,"ADDRESS":"四維街２９巷１７號","OBJECTID":455411},"geometry":{"x":173366.25999999885,"y":2547991.75}},{"attributes":{"ID":455437,"DIS_CODE":0,"TOWNNAME":"永康區","LI":"正強里","LIN":"32鄰","STREET":"四維街","SECT":" ","MAREA":" ","LANE":"５１巷","ALLEY":" ","HOUSE_NO":"７號","E_COORD97":173372.91,"N_COORD97":2548046.6400000001,"ADDRESS":"四維街５１巷７號","OBJECTID":455412},"geometry":{"x":173372.91000000108,"y":2548046.6400000006}},{"attributes":{"ID":455438,"DIS_CODE":0,"TOWNNAME":"永康區","LI":"永康里","LIN":"32鄰","STREET":"大同街","SECT":" ","MAREA":" ","LANE":"８３９巷","ALLEY":" ","HOUSE_NO":"７號","E_COORD97":174358.23999999999,"N_COORD97":2547088.7400000002,"ADDRESS":"大同街８３９巷７號","OBJECTID":455413},"geometry":{"x":174358.24000000022,"y":2547088.7400000021}},{"attributes":{"ID":455439,"DIS_CODE":0,"TOWNNAME":"永康區","LI":"復國里","LIN":"32鄰","STREET":"復華一街","SECT":" ","MAREA":" ","LANE":"２８巷","ALLEY":" ","HOUSE_NO":"２３號","E_COORD97":172642.01000000001,"N_COORD97":2545140.02,"ADDRESS":"復華一街２８巷２３號","OBJECTID":455414},"geometry":{"x":172642.00999999978,"y":2545140.0200000014}},{"attributes":{"ID":455440,"DIS_CODE":0,"TOWNNAME":"永康區","LI":"復國里","LIN":"32鄰","STREET":"復華一街","SECT":" ","MAREA":" ","LANE":"２８巷","ALLEY":" ","HOUSE_NO":"１９號","E_COORD97":172640.87,"N_COORD97":2545125.02,"ADDRESS":"復華一街２８巷１９號","OBJECTID":455415},"geometry":{"x":172640.87000000104,"y":2545125.0199999996}},{"attributes":{"ID":455441,"DIS_CODE":0,"TOWNNAME":"永康區","LI":"龍潭里","LIN":"32鄰","STREET":"龍國街","SECT":" ","MAREA":" ","LANE":"２４０巷","ALLEY":" ","HOUSE_NO":"２８號","E_COORD97":174479.51999999999,"N_COORD97":2547943.1000000001,"ADDRESS":"龍國街２４０巷２８號","OBJECTID":455416},"geometry":{"x":174479.51999999955,"y":2547943.1000000015}},{"attributes":{"ID":455442,"DIS_CODE":0,"TOWNNAME":"永康區","LI":"\u25A0行里","LIN":"32鄰","STREET":"三村一街","SECT":" ","MAREA":" ","LANE":"１３８巷","ALLEY":" ","HOUSE_NO":"８０號","E_COORD97":172104.44,"N_COORD97":2549400.4900000002,"ADDRESS":"三村一街１３８巷８０號","OBJECTID":455417},"geometry":{"x":172104.44000000041,"y":2549400.4900000002}},{"attributes":{"ID":455443,"DIS_CODE":0,"TOWNNAME":"永康區","LI":"埔園里","LIN":"32鄰","STREET":"龍埔街","SECT":" ","MAREA":" ","LANE":"２８３巷","ALLEY":" ","HOUSE_NO":"３１號","E_COORD97":174039.06,"N_COORD97":2548228.9900000002,"ADDRESS":"龍埔街２８３巷３１號","OBJECTID":455418},"geometry":{"x":174039.06000000052,"y":2548228.9900000021}},{"attributes":{"ID":455444,"DIS_CODE":0,"TOWNNAME":"永康區","LI":"埔園里","LIN":"32鄰","STREET":"龍埔街","SECT":" ","MAREA":" ","LANE":"２９１巷","ALLEY":" ","HOUSE_NO":"１１號","E_COORD97":173977.70000000001,"N_COORD97":2548275.75,"ADDRESS":"龍埔街２９１巷１１號","OBJECTID":455419},"geometry":{"x":173977.70000000112,"y":2548275.7500000019}},{"attributes":{"ID":455445,"DIS_CODE":0,"TOWNNAME":"永康區","LI":"\u25A0行里","LIN":"32鄰","STREET":"三村一街","SECT":" ","MAREA":" ","LANE":"１３８巷","ALLEY":" ","HOUSE_NO":"６８號","E_COORD97":172097.14999999999,"N_COORD97":2549381.2400000002,"ADDRESS":"三村一街１３８巷６８號","OBJECTID":455420},"geometry":{"x":172097.1500000013,"y":2549381.2400000021}},{"attributes":{"ID":455446,"DIS_CODE":0,"TOWNNAME":"永康區","LI":"復華里","LIN":"32鄰","STREET":"國華街","SECT":" ","MAREA":" ","LANE":"１６２巷","ALLEY":" ","HOUSE_NO":"１０號","E_COORD97":172587.79000000001,"N_COORD97":2546323.25,"ADDRESS":"國華街１６２巷１０號","OBJECTID":455421},"geometry":{"x":172587.79000000004,"y":2546323.25}},{"attributes":{"ID":455447,"DIS_CODE":0,"TOWNNAME":"永康區","LI":"復華里","LIN":"32鄰","STREET":"復華十街","SECT":" ","MAREA":" ","LANE":"３９巷","ALLEY":" ","HOUSE_NO":"７號","E_COORD97":172612.20999999999,"N_COORD97":2546351.2799999998,"ADDRESS":"復華十街３９巷７號","OBJECTID":455422},"geometry":{"x":172612.20999999996,"y":2546351.2800000012}},{"attributes":{"ID":455448,"DIS_CODE":0,"TOWNNAME":"佳里區","LI":"建南里","LIN":"32鄰","STREET":"南勢街","SECT":" ","MAREA":" ","LANE":"２５２巷","ALLEY":" ","HOUSE_NO":"１０號","E_COORD97":165705.82000000001,"N_COORD97":2560772.3100000001,"ADDRESS":"南勢街２５２巷１０號","OBJECTID":455423},"geometry":{"x":165705.8200000003,"y":2560772.3100000024}},{"attributes":{"ID":455449,"DIS_CODE":0,"TOWNNAME":"佳里區","LI":"建南里","LIN":"32鄰","STREET":"南勢街","SECT":" ","MAREA":" ","LANE":"２５２巷","ALLEY":" ","HOUSE_NO":"１２號","E_COORD97":165710.85000000001,"N_COORD97":2560772.7400000002,"ADDRESS":"南勢街２５２巷１２號","OBJECTID":455424},"geometry":{"x":165710.85000000056,"y":2560772.7400000021}},{"attributes":{"ID":455450,"DIS_CODE":0,"TOWNNAME":"佳里區","LI":"建南里","LIN":"32鄰","STREET":"南勢街","SECT":" ","MAREA":" ","LANE":"２５２巷","ALLEY":" ","HOUSE_NO":"２號","E_COORD97":165690.69,"N_COORD97":2560771.6800000002,"ADDRESS":"南勢街２５２巷２號","OBJECTID":455425},"geometry":{"x":165690.69000000134,"y":2560771.6800000016}},{"attributes":{"ID":455451,"DIS_CODE":0,"TOWNNAME":"佳里區","LI":"建南里","LIN":"32鄰","STREET":"南勢街","SECT":" ","MAREA":" ","LANE":"２５２巷","ALLEY":" ","HOUSE_NO":"６號","E_COORD97":165695.29999999999,"N_COORD97":2560771.4199999999,"ADDRESS":"南勢街２５２巷６號","OBJECTID":455426},"geometry":{"x":165695.29999999888,"y":2560771.4200000018}},{"attributes":{"ID":455452,"DIS_CODE":0,"TOWNNAME":"佳里區","LI":"建南里","LIN":"32鄰","STREET":"南勢街","SECT":" ","MAREA":" ","LANE":"２５２巷","ALLEY":" ","HOUSE_NO":"８號","E_COORD97":165700.81,"N_COORD97":2560771.8100000001,"ADDRESS":"南勢街２５２巷８號","OBJECTID":455427},"geometry":{"x":165700.81000000052,"y":2560771.8100000024}},{"attributes":{"ID":455453,"DIS_CODE":0,"TOWNNAME":"安南區","LI":"安慶里","LIN":"32鄰","STREET":"怡安路","SECT":"一段","MAREA":" ","LANE":"３４４巷","ALLEY":" ","HOUSE_NO":"２０號","E_COORD97":168813.95999999999,"N_COORD97":2549248.9300000002,"ADDRESS":"怡安路一段３４４巷２０號","OBJECTID":455428},"geometry":{"x":168813.96000000089,"y":2549248.9300000034}},{"attributes":{"ID":455454,"DIS_CODE":0,"TOWNNAME":"安南區","LI":"安慶里","LIN":"32鄰","STREET":"怡安路","SECT":"一段","MAREA":" ","LANE":"３４４巷","ALLEY":" ","HOUSE_NO":"２１號","E_COORD97":168778.79999999999,"N_COORD97":2549244.3799999999,"ADDRESS":"怡安路一段３４４巷２１號","OBJECTID":455429},"geometry":{"x":168778.79999999981,"y":2549244.379999999}},{"attributes":{"ID":455455,"DIS_CODE":0,"TOWNNAME":"安南區","LI":"安慶里","LIN":"32鄰","STREET":"怡安路","SECT":"一段","MAREA":" ","LANE":"３４４巷","ALLEY":" ","HOUSE_NO":"３號","E_COORD97":168780.91,"N_COORD97":2549190.02,"ADDRESS":"怡安路一段３４４巷３號","OBJECTID":455430},"geometry":{"x":168780.91000000108,"y":2549190.0199999996}},{"attributes":{"ID":455456,"DIS_CODE":0,"TOWNNAME":"永康區","LI":"成功里","LIN":"32鄰","STREET":"中華一路","SECT":" ","MAREA":" ","LANE":"３９巷","ALLEY":" ","HOUSE_NO":"３７號","E_COORD97":171884.47,"N_COORD97":2544882.5,"ADDRESS":"中華一路３９巷３７號","OBJECTID":455431},"geometry":{"x":171884.46999999974,"y":2544882.5000000019}},{"attributes":{"ID":455457,"DIS_CODE":0,"TOWNNAME":"歸仁區","LI":"辜厝里","LIN":"32鄰","STREET":"中正南路","SECT":"一段","MAREA":" ","LANE":"２１６巷","ALLEY":" ","HOUSE_NO":"１６號","E_COORD97":177342.01999999999,"N_COORD97":2540396.6800000002,"ADDRESS":"中正南路一段２１６巷１６號","OBJECTID":455432},"geometry":{"x":177342.02000000048,"y":2540396.6800000016}},{"attributes":{"ID":455458,"DIS_CODE":0,"TOWNNAME":"歸仁區","LI":"南保里","LIN":"32鄰","STREET":"民權八街","SECT":" ","MAREA":" ","LANE":"４０巷","ALLEY":" ","HOUSE_NO":"７號","E_COORD97":176855.89000000001,"N_COORD97":2541019.29,"ADDRESS":"民權八街４０巷７號","OBJECTID":455433},"geometry":{"x":176855.89000000153,"y":2541019.2899999991}},{"attributes":{"ID":455459,"DIS_CODE":0,"TOWNNAME":"歸仁區","LI":"南保里","LIN":"32鄰","STREET":"民權八街","SECT":" ","MAREA":" ","LANE":"３０巷","ALLEY":" ","HOUSE_NO":"８號","E_COORD97":176898.89000000001,"N_COORD97":2541000.29,"ADDRESS":"民權八街３０巷８號","OBJECTID":455434},"geometry":{"x":176898.8900000006,"y":2541000.2899999972}},{"attributes":{"ID":455460,"DIS_CODE":0,"TOWNNAME":"歸仁區","LI":"南保里","LIN":"32鄰","STREET":"民權八街","SECT":" ","MAREA":" ","LANE":"３０巷","ALLEY":" ","HOUSE_NO":"１１號","E_COORD97":176889.94,"N_COORD97":2541014.29,"ADDRESS":"民權八街３０巷１１號","OBJECTID":455435},"geometry":{"x":176889.94000000041,"y":2541014.2900000028}},{"attributes":{"ID":455461,"DIS_CODE":0,"TOWNNAME":"歸仁區","LI":"南保里","LIN":"32鄰","STREET":"民權八街","SECT":" ","MAREA":" ","LANE":"３０巷","ALLEY":" ","HOUSE_NO":"９號","E_COORD97":176888.59,"N_COORD97":2541009.29,"ADDRESS":"民權八街３０巷９號","OBJECTID":455436},"geometry":{"x":176888.59000000171,"y":2541009.2899999991}},{"attributes":{"ID":455462,"DIS_CODE":0,"TOWNNAME":"歸仁區","LI":"南興里","LIN":"32鄰","STREET":"民生北街","SECT":" ","MAREA":" ","LANE":"５０巷","ALLEY":" ","HOUSE_NO":"４３號","E_COORD97":176381.64000000001,"N_COORD97":2541083.29,"ADDRESS":"民生北街５０巷４３號","OBJECTID":455437},"geometry":{"x":176381.6400000006,"y":2541083.290000001}},{"attributes":{"ID":455463,"DIS_CODE":0,"TOWNNAME":"歸仁區","LI":"六甲里","LIN":"32鄰","STREET":"六甲六街","SECT":" ","MAREA":" ","LANE":"５０巷","ALLEY":" ","HOUSE_NO":"１５號","E_COORD97":175711.094747,"N_COORD97":2539377.7886999999,"ADDRESS":"六甲六街５０巷１５號","OBJECTID":455438},"geometry":{"x":175711.09474700131,"y":2539377.7887040004}},{"attributes":{"ID":455464,"DIS_CODE":0,"TOWNNAME":"歸仁區","LI":"南保里","LIN":"32鄰","STREET":"民權八街","SECT":" ","MAREA":" ","LANE":"６０巷","ALLEY":" ","HOUSE_NO":"６號","E_COORD97":176827.09,"N_COORD97":2541014.29,"ADDRESS":"民權八街６０巷６號","OBJECTID":455439},"geometry":{"x":176827.08999999985,"y":2541014.2900000028}},{"attributes":{"ID":455465,"DIS_CODE":0,"TOWNNAME":"歸仁區","LI":"六甲里","LIN":"32鄰","STREET":"六甲六街","SECT":" ","MAREA":" ","LANE":"５０巷","ALLEY":" ","HOUSE_NO":"１１號","E_COORD97":175703.467519,"N_COORD97":2539376.8362099999,"ADDRESS":"六甲六街５０巷１１號","OBJECTID":455440},"geometry":{"x":175703.46751900017,"y":2539376.8362050038}},{"attributes":{"ID":455466,"DIS_CODE":0,"TOWNNAME":"歸仁區","LI":"六甲里","LIN":"32鄰","STREET":"六甲路","SECT":" ","MAREA":" ","LANE":"３０６巷","ALLEY":" ","HOUSE_NO":"１６號","E_COORD97":175728.41490800001,"N_COORD97":2539278.3848000001,"ADDRESS":"六甲路３０６巷１６號","OBJECTID":455441},"geometry":{"x":175728.4149080012,"y":2539278.3847990017}},{"attributes":{"ID":455467,"DIS_CODE":0,"TOWNNAME":"南區","LI":"金華里","LIN":"32鄰","STREET":"新孝路","SECT":" ","MAREA":" ","LANE":"１４８巷","ALLEY":" ","HOUSE_NO":"６７號","E_COORD97":166564.67999999999,"N_COORD97":2542250.8100000001,"ADDRESS":"新孝路１４８巷６７號","OBJECTID":455442},"geometry":{"x":166564.68000000063,"y":2542250.8100000024}},{"attributes":{"ID":455468,"DIS_CODE":0,"TOWNNAME":"北區","LI":"成德里","LIN":"32鄰","STREET":"育德路","SECT":" ","MAREA":" ","LANE":"５４２巷","ALLEY":" ","HOUSE_NO":"１號","E_COORD97":168755.69,"N_COORD97":2546239.4500000002,"ADDRESS":"育德路５４２巷１號","OBJECTID":455443},"geometry":{"x":168755.69000000134,"y":2546239.4499999993}},{"attributes":{"ID":455469,"DIS_CODE":0,"TOWNNAME":"南區","LI":"金華里","LIN":"32鄰","STREET":"新孝路","SECT":" ","MAREA":" ","LANE":"１４８巷","ALLEY":" ","HOUSE_NO":"６９號","E_COORD97":166565.67000000001,"N_COORD97":2542254.8399999999,"ADDRESS":"新孝路１４８巷６９號","OBJECTID":455444},"geometry":{"x":166565.66999999993,"y":2542254.8399999999}},{"attributes":{"ID":455470,"DIS_CODE":0,"TOWNNAME":"南區","LI":"金華里","LIN":"32鄰","STREET":"新孝路","SECT":" ","MAREA":" ","LANE":"１４８巷","ALLEY":" ","HOUSE_NO":"７１號","E_COORD97":166567.48000000001,"N_COORD97":2542258.3700000001,"ADDRESS":"新孝路１４８巷７１號","OBJECTID":455445},"geometry":{"x":166567.48000000045,"y":2542258.370000001}},{"attributes":{"ID":455471,"DIS_CODE":0,"TOWNNAME":"南區","LI":"金華里","LIN":"32鄰","STREET":"新孝路","SECT":" ","MAREA":" ","LANE":"１４８巷","ALLEY":" ","HOUSE_NO":"７３號","E_COORD97":166568.45999999999,"N_COORD97":2542262.23,"ADDRESS":"新孝路１４８巷７３號","OBJECTID":455446},"geometry":{"x":166568.45999999996,"y":2542262.2300000004}},{"attributes":{"ID":455472,"DIS_CODE":0,"TOWNNAME":"南區","LI":"金華里","LIN":"32鄰","STREET":"新孝路","SECT":" ","MAREA":" ","LANE":"１４８巷","ALLEY":" ","HOUSE_NO":"７５號","E_COORD97":166570.67999999999,"N_COORD97":2542267.3300000001,"ADDRESS":"新孝路１４８巷７５號","OBJECTID":455447},"geometry":{"x":166570.6799999997,"y":2542267.3300000019}},{"attributes":{"ID":455473,"DIS_CODE":0,"TOWNNAME":"南區","LI":"金華里","LIN":"32鄰","STREET":"新孝路","SECT":" ","MAREA":" ","LANE":"１７２巷","ALLEY":" ","HOUSE_NO":"７４號","E_COORD97":166561.91,"N_COORD97":2542357.8700000001,"ADDRESS":"新孝路１７２巷７４號","OBJECTID":455448},"geometry":{"x":166561.91000000108,"y":2542357.870000001}},{"attributes":{"ID":455474,"DIS_CODE":0,"TOWNNAME":"南區","LI":"金華里","LIN":"32鄰","STREET":"新孝路","SECT":" ","MAREA":" ","LANE":"１７２巷","ALLEY":" ","HOUSE_NO":"７６號","E_COORD97":166564.14999999999,"N_COORD97":2542362.3399999999,"ADDRESS":"新孝路１７２巷７６號","OBJECTID":455449},"geometry":{"x":166564.15000000037,"y":2542362.3399999999}},{"attributes":{"ID":455475,"DIS_CODE":0,"TOWNNAME":"南區","LI":"金華里","LIN":"32鄰","STREET":"新孝路","SECT":" ","MAREA":" ","LANE":"１７２巷","ALLEY":" ","HOUSE_NO":"７８號","E_COORD97":166565.10000000001,"N_COORD97":2542366.4900000002,"ADDRESS":"新孝路１７２巷７８號","OBJECTID":455450},"geometry":{"x":166565.10000000056,"y":2542366.4899999984}},{"attributes":{"ID":455476,"DIS_CODE":0,"TOWNNAME":"新營區","LI":"三仙里","LIN":"32鄰","STREET":"三興街","SECT":" ","MAREA":" ","LANE":"１４４巷","ALLEY":" ","HOUSE_NO":"４５號","E_COORD97":179558.45000000001,"N_COORD97":2579303.5099999998,"ADDRESS":"三興街１４４巷４５號","OBJECTID":455451},"geometry":{"x":179558.45000000112,"y":2579303.5099999998}},{"attributes":{"ID":455477,"DIS_CODE":0,"TOWNNAME":"新營區","LI":"三仙里","LIN":"32鄰","STREET":"三興街","SECT":" ","MAREA":" ","LANE":"１４４巷","ALLEY":" ","HOUSE_NO":"３７號","E_COORD97":179530.85999999999,"N_COORD97":2579306.9700000002,"ADDRESS":"三興街１４４巷３７號","OBJECTID":455452},"geometry":{"x":179530.86000000034,"y":2579306.9700000025}},{"attributes":{"ID":455478,"DIS_CODE":0,"TOWNNAME":"歸仁區","LI":"南保里","LIN":"32鄰","STREET":"民權八街","SECT":" ","MAREA":" ","LANE":"４０巷","ALLEY":" ","HOUSE_NO":"３號","E_COORD97":176854.79000000001,"N_COORD97":2541012.29,"ADDRESS":"民權八街４０巷３號","OBJECTID":455453},"geometry":{"x":176854.79000000004,"y":2541012.290000001}},{"attributes":{"ID":455479,"DIS_CODE":0,"TOWNNAME":"歸仁區","LI":"南保里","LIN":"32鄰","STREET":"民權八街","SECT":" ","MAREA":" ","LANE":"６０巷","ALLEY":" ","HOUSE_NO":"２號","E_COORD97":176827.09,"N_COORD97":2541010.29,"ADDRESS":"民權八街６０巷２號","OBJECTID":455454},"geometry":{"x":176827.08999999985,"y":2541010.2899999991}},{"attributes":{"ID":455480,"DIS_CODE":0,"TOWNNAME":"歸仁區","LI":"辜厝里","LIN":"32鄰","STREET":"中正南路","SECT":"一段","MAREA":" ","LANE":"２１８巷","ALLEY":" ","HOUSE_NO":"２號","E_COORD97":177323.17000000001,"N_COORD97":2540355.6800000002,"ADDRESS":"中正南路一段２１８巷２號","OBJECTID":455455},"geometry":{"x":177323.16999999993,"y":2540355.6800000016}},{"attributes":{"ID":455481,"DIS_CODE":0,"TOWNNAME":"歸仁區","LI":"後市里","LIN":"32鄰","STREET":"民族北街","SECT":" ","MAREA":" ","LANE":"３１巷","ALLEY":" ","HOUSE_NO":"１６號","E_COORD97":177358.28,"N_COORD97":2540972.75,"ADDRESS":"民族北街３１巷１６號","OBJECTID":455456},"geometry":{"x":177358.28000000026,"y":2540972.7500000019}},{"attributes":{"ID":455482,"DIS_CODE":0,"TOWNNAME":"歸仁區","LI":"辜厝里","LIN":"32鄰","STREET":"中正南路","SECT":"一段","MAREA":" ","LANE":"２１６巷","ALLEY":" ","HOUSE_NO":"１８號","E_COORD97":177360.51000000001,"N_COORD97":2540388.9500000002,"ADDRESS":"中正南路一段２１６巷１８號","OBJECTID":455457},"geometry":{"x":177360.51000000071,"y":2540388.9499999993}},{"attributes":{"ID":455483,"DIS_CODE":0,"TOWNNAME":"歸仁區","LI":"南保里","LIN":"32鄰","STREET":"民權八街","SECT":" ","MAREA":" ","LANE":"７０巷","ALLEY":" ","HOUSE_NO":"１０號","E_COORD97":176807.84,"N_COORD97":2541012.29,"ADDRESS":"民權八街７０巷１０號","OBJECTID":455458},"geometry":{"x":176807.84000000078,"y":2541012.290000001}},{"attributes":{"ID":455484,"DIS_CODE":0,"TOWNNAME":"歸仁區","LI":"辜厝里","LIN":"32鄰","STREET":"中正南路","SECT":"一段","MAREA":" ","LANE":"２１６巷","ALLEY":" ","HOUSE_NO":"２號","E_COORD97":177337.67000000001,"N_COORD97":2540380.6800000002,"ADDRESS":"中正南路一段２１６巷２號","OBJECTID":455459},"geometry":{"x":177337.67000000086,"y":2540380.6799999997}},{"attributes":{"ID":455485,"DIS_CODE":0,"TOWNNAME":"歸仁區","LI":"南興里","LIN":"32鄰","STREET":"民生北街","SECT":" ","MAREA":" ","LANE":"５０巷","ALLEY":" ","HOUSE_NO":"４７號","E_COORD97":176395.94,"N_COORD97":2541075.29,"ADDRESS":"民生北街５０巷４７號","OBJECTID":455460},"geometry":{"x":176395.94000000134,"y":2541075.2900000028}},{"attributes":{"ID":455486,"DIS_CODE":0,"TOWNNAME":"新營區","LI":"王公里","LIN":"32鄰","STREET":"大德街","SECT":" ","MAREA":" ","LANE":"１８巷","ALLEY":" ","HOUSE_NO":"１９號","E_COORD97":180219.92999999999,"N_COORD97":2579477.5800000001,"ADDRESS":"大德街１８巷１９號","OBJECTID":455461},"geometry":{"x":180219.9299999997,"y":2579477.5800000019}},{"attributes":{"ID":455487,"DIS_CODE":0,"TOWNNAME":"新營區","LI":"南興里","LIN":"32鄰","STREET":"延平路","SECT":" ","MAREA":" ","LANE":"１４０巷","ALLEY":" ","HOUSE_NO":"５號","E_COORD97":179681.14999999999,"N_COORD97":2577416.9300000002,"ADDRESS":"延平路１４０巷５號","OBJECTID":455462},"geometry":{"x":179681.1500000013,"y":2577416.9300000016}},{"attributes":{"ID":455488,"DIS_CODE":0,"TOWNNAME":"北區","LI":"成德里","LIN":"32鄰","STREET":"育德路","SECT":" ","MAREA":" ","LANE":"５００巷","ALLEY":" ","HOUSE_NO":"１號","E_COORD97":168708.85999999999,"N_COORD97":2546120.4700000002,"ADDRESS":"育德路５００巷１號","OBJECTID":455463},"geometry":{"x":168708.86000000034,"y":2546120.4700000044}},{"attributes":{"ID":455489,"DIS_CODE":0,"TOWNNAME":"北區","LI":"成德里","LIN":"32鄰","STREET":"育德路","SECT":" ","MAREA":" ","LANE":"５４２巷","ALLEY":" ","HOUSE_NO":"１０號","E_COORD97":168746.64000000001,"N_COORD97":2546221.0299999998,"ADDRESS":"育德路５４２巷１０號","OBJECTID":455464},"geometry":{"x":168746.6400000006,"y":2546221.0300000012}},{"attributes":{"ID":455490,"DIS_CODE":0,"TOWNNAME":"北區","LI":"成德里","LIN":"32鄰","STREET":"育德路","SECT":" ","MAREA":" ","LANE":"５４２巷","ALLEY":" ","HOUSE_NO":"８號","E_COORD97":168739.81,"N_COORD97":2546224.3700000001,"ADDRESS":"育德路５４２巷８號","OBJECTID":455465},"geometry":{"x":168739.81000000052,"y":2546224.3700000029}},{"attributes":{"ID":455491,"DIS_CODE":0,"TOWNNAME":"北區","LI":"成德里","LIN":"32鄰","STREET":"育德路","SECT":" ","MAREA":" ","LANE":"５４２巷","ALLEY":" ","HOUSE_NO":"６號","E_COORD97":168733.29999999999,"N_COORD97":2546226.27,"ADDRESS":"育德路５４２巷６號","OBJECTID":455466},"geometry":{"x":168733.30000000168,"y":2546226.2700000014}},{"attributes":{"ID":455492,"DIS_CODE":0,"TOWNNAME":"北區","LI":"成德里","LIN":"32鄰","STREET":"育德路","SECT":" ","MAREA":" ","LANE":"５４２巷","ALLEY":" ","HOUSE_NO":"２號","E_COORD97":168725.67999999999,"N_COORD97":2546228.5,"ADDRESS":"育德路５４２巷２號","OBJECTID":455467},"geometry":{"x":168725.68000000063,"y":2546228.5000000019}},{"attributes":{"ID":455493,"DIS_CODE":0,"TOWNNAME":"北區","LI":"成德里","LIN":"32鄰","STREET":"育德路","SECT":" ","MAREA":" ","LANE":"５４２巷","ALLEY":" ","HOUSE_NO":"３號","E_COORD97":168748.54000000001,"N_COORD97":2546241.5099999998,"ADDRESS":"育德路５４２巷３號","OBJECTID":455468},"geometry":{"x":168748.54000000004,"y":2546241.5100000035}},{"attributes":{"ID":455494,"DIS_CODE":0,"TOWNNAME":"北區","LI":"成德里","LIN":"32鄰","STREET":"育德路","SECT":" ","MAREA":" ","LANE":"５４２巷","ALLEY":" ","HOUSE_NO":"５號","E_COORD97":168739.01999999999,"N_COORD97":2546245.1600000001,"ADDRESS":"育德路５４２巷５號","OBJECTID":455469},"geometry":{"x":168739.02000000048,"y":2546245.160000002}},{"attributes":{"ID":455495,"DIS_CODE":0,"TOWNNAME":"北區","LI":"成德里","LIN":"32鄰","STREET":"育德路","SECT":" ","MAREA":" ","LANE":"５４２巷","ALLEY":" ","HOUSE_NO":"７號","E_COORD97":168730.92000000001,"N_COORD97":2546248.6499999999,"ADDRESS":"育德路５４２巷７號","OBJECTID":455470},"geometry":{"x":168730.92000000179,"y":2546248.6500000022}},{"attributes":{"ID":455496,"DIS_CODE":0,"TOWNNAME":"北區","LI":"成德里","LIN":"32鄰","STREET":"育德路","SECT":" ","MAREA":" ","LANE":"５８０巷","ALLEY":" ","HOUSE_NO":"３號","E_COORD97":168751.88,"N_COORD97":2546306.3599999999,"ADDRESS":"育德路５８０巷３號","OBJECTID":455471},"geometry":{"x":168751.88000000082,"y":2546306.3600000031}},{"attributes":{"ID":455497,"DIS_CODE":0,"TOWNNAME":"北區","LI":"成德里","LIN":"32鄰","STREET":"育德路","SECT":" ","MAREA":" ","LANE":"５８０巷","ALLEY":" ","HOUSE_NO":"１１號","E_COORD97":168779.98000000001,"N_COORD97":2546300.6499999999,"ADDRESS":"育德路５８０巷１１號","OBJECTID":455472},"geometry":{"x":168779.97999999952,"y":2546300.6500000004}},{"attributes":{"ID":455498,"DIS_CODE":0,"TOWNNAME":"北區","LI":"成德里","LIN":"32鄰","STREET":"育德路","SECT":" ","MAREA":" ","LANE":"５８０巷","ALLEY":" ","HOUSE_NO":"５號","E_COORD97":168758.70999999999,"N_COORD97":2546306.04,"ADDRESS":"育德路５８０巷５號","OBJECTID":455473},"geometry":{"x":168758.70999999996,"y":2546306.040000001}},{"attributes":{"ID":455499,"DIS_CODE":0,"TOWNNAME":"北區","LI":"成德里","LIN":"32鄰","STREET":"育德路","SECT":" ","MAREA":" ","LANE":"５８０巷","ALLEY":" ","HOUSE_NO":"７號","E_COORD97":168765.06,"N_COORD97":2546304.6200000001,"ADDRESS":"育德路５８０巷７號","OBJECTID":455474},"geometry":{"x":168765.06000000145,"y":2546304.620000001}},{"attributes":{"ID":455500,"DIS_CODE":0,"TOWNNAME":"北區","LI":"成德里","LIN":"32鄰","STREET":"育德路","SECT":" ","MAREA":" ","LANE":"５８０巷","ALLEY":" ","HOUSE_NO":"９號","E_COORD97":168772.20000000001,"N_COORD97":2546303.0299999998,"ADDRESS":"育德路５８０巷９號","OBJECTID":455475},"geometry":{"x":168772.20000000112,"y":2546303.0300000012}},{"attributes":{"ID":455501,"DIS_CODE":0,"TOWNNAME":"北區","LI":"成德里","LIN":"32鄰","STREET":"育德路","SECT":" ","MAREA":" ","LANE":"５９２巷","ALLEY":" ","HOUSE_NO":"１號","E_COORD97":168753.78,"N_COORD97":2546336.3700000001,"ADDRESS":"育德路５９２巷１號","OBJECTID":455476},"geometry":{"x":168753.78000000026,"y":2546336.3700000029}},{"attributes":{"ID":455502,"DIS_CODE":0,"TOWNNAME":"北區","LI":"成德里","LIN":"32鄰","STREET":"育德路","SECT":" ","MAREA":" ","LANE":"５９２巷","ALLEY":" ","HOUSE_NO":"１６號","E_COORD97":168786.17000000001,"N_COORD97":2546315.25,"ADDRESS":"育德路５９２巷１６號","OBJECTID":455477},"geometry":{"x":168786.16999999993,"y":2546315.2500000019}},{"attributes":{"ID":455503,"DIS_CODE":0,"TOWNNAME":"北區","LI":"成德里","LIN":"32鄰","STREET":"育德路","SECT":" ","MAREA":" ","LANE":"５００巷","ALLEY":" ","HOUSE_NO":"１１號","E_COORD97":168731.84,"N_COORD97":2546118.8399999999,"ADDRESS":"育德路５００巷１１號","OBJECTID":455478},"geometry":{"x":168731.84000000078,"y":2546118.8399999999}},{"attributes":{"ID":455504,"DIS_CODE":0,"TOWNNAME":"北區","LI":"成德里","LIN":"32鄰","STREET":"育德路","SECT":" ","MAREA":" ","LANE":"５００巷","ALLEY":" ","HOUSE_NO":"１３號","E_COORD97":168736.51000000001,"N_COORD97":2546118.54,"ADDRESS":"育德路５００巷１３號","OBJECTID":455479},"geometry":{"x":168736.50999999978,"y":2546118.5400000028}},{"attributes":{"ID":455505,"DIS_CODE":0,"TOWNNAME":"北區","LI":"成德里","LIN":"32鄰","STREET":"育德路","SECT":" ","MAREA":" ","LANE":"５００巷","ALLEY":" ","HOUSE_NO":"１５號","E_COORD97":168740.88,"N_COORD97":2546118.0800000001,"ADDRESS":"育德路５００巷１５號","OBJECTID":455480},"geometry":{"x":168740.87999999989,"y":2546118.0800000001}},{"attributes":{"ID":455506,"DIS_CODE":0,"TOWNNAME":"北區","LI":"成德里","LIN":"32鄰","STREET":"育德路","SECT":" ","MAREA":" ","LANE":"５００巷","ALLEY":" ","HOUSE_NO":"１７號","E_COORD97":168745.39999999999,"N_COORD97":2546118.3900000001,"ADDRESS":"育德路５００巷１７號","OBJECTID":455481},"geometry":{"x":168745.4000000013,"y":2546118.3900000025}},{"attributes":{"ID":455507,"DIS_CODE":0,"TOWNNAME":"北區","LI":"成德里","LIN":"32鄰","STREET":"育德路","SECT":" ","MAREA":" ","LANE":"５００巷","ALLEY":" ","HOUSE_NO":"１９號","E_COORD97":168750.07000000001,"N_COORD97":2546117.7799999998,"ADDRESS":"育德路５００巷１９號","OBJECTID":455482},"geometry":{"x":168750.0700000003,"y":2546117.7800000012}},{"attributes":{"ID":455508,"DIS_CODE":0,"TOWNNAME":"北區","LI":"成德里","LIN":"32鄰","STREET":"育德路","SECT":" ","MAREA":" ","LANE":"５００巷","ALLEY":" ","HOUSE_NO":"２１號","E_COORD97":168754.73000000001,"N_COORD97":2546117.3300000001,"ADDRESS":"育德路５００巷２１號","OBJECTID":455483},"geometry":{"x":168754.73000000231,"y":2546117.3300000038}},{"attributes":{"ID":455509,"DIS_CODE":0,"TOWNNAME":"北區","LI":"成德里","LIN":"32鄰","STREET":"育德路","SECT":" ","MAREA":" ","LANE":"５００巷","ALLEY":" ","HOUSE_NO":"２３號","E_COORD97":168759.25,"N_COORD97":2546116.8799999999,"ADDRESS":"育德路５００巷２３號","OBJECTID":455484},"geometry":{"x":168759.25000000186,"y":2546116.8800000008}},{"attributes":{"ID":455510,"DIS_CODE":0,"TOWNNAME":"北區","LI":"成德里","LIN":"32鄰","STREET":"育德路","SECT":" ","MAREA":" ","LANE":"５００巷","ALLEY":" ","HOUSE_NO":"２５號","E_COORD97":168763.92000000001,"N_COORD97":2546116.73,"ADDRESS":"育德路５００巷２５號","OBJECTID":455485},"geometry":{"x":168763.91999999993,"y":2546116.7300000004}},{"attributes":{"ID":455511,"DIS_CODE":0,"TOWNNAME":"北區","LI":"成德里","LIN":"32鄰","STREET":"育德路","SECT":" ","MAREA":" ","LANE":"５００巷","ALLEY":" ","HOUSE_NO":"２７號","E_COORD97":168768.44,"N_COORD97":2546116.2799999998,"ADDRESS":"育德路５００巷２７號","OBJECTID":455486},"geometry":{"x":168768.44000000227,"y":2546116.2799999993}},{"attributes":{"ID":455512,"DIS_CODE":0,"TOWNNAME":"北區","LI":"成德里","LIN":"32鄰","STREET":"育德路","SECT":" ","MAREA":" ","LANE":"５００巷","ALLEY":" ","HOUSE_NO":"２９號","E_COORD97":168773.25,"N_COORD97":2546116.5800000001,"ADDRESS":"育德路５００巷２９號","OBJECTID":455487},"geometry":{"x":168773.25000000093,"y":2546116.5800000019}},{"attributes":{"ID":455513,"DIS_CODE":0,"TOWNNAME":"北區","LI":"成德里","LIN":"32鄰","STREET":"育德路","SECT":" ","MAREA":" ","LANE":"５００巷","ALLEY":" ","HOUSE_NO":"３１號","E_COORD97":168777.92000000001,"N_COORD97":2546116.5800000001,"ADDRESS":"育德路５００巷３１號","OBJECTID":455488},"geometry":{"x":168777.91999999993,"y":2546116.5800000019}},{"attributes":{"ID":455514,"DIS_CODE":0,"TOWNNAME":"北區","LI":"成德里","LIN":"32鄰","STREET":"育德路","SECT":" ","MAREA":" ","LANE":"５００巷","ALLEY":" ","HOUSE_NO":"３３號","E_COORD97":168782.29000000001,"N_COORD97":2546116.2799999998,"ADDRESS":"育德路５００巷３３號","OBJECTID":455489},"geometry":{"x":168782.29000000004,"y":2546116.2799999993}},{"attributes":{"ID":455515,"DIS_CODE":0,"TOWNNAME":"北區","LI":"成德里","LIN":"32鄰","STREET":"育德路","SECT":" ","MAREA":" ","LANE":"５００巷","ALLEY":" ","HOUSE_NO":"３５號","E_COORD97":168786.66,"N_COORD97":2546116.2799999998,"ADDRESS":"育德路５００巷３５號","OBJECTID":455490},"geometry":{"x":168786.66000000015,"y":2546116.2799999993}},{"attributes":{"ID":455516,"DIS_CODE":0,"TOWNNAME":"北區","LI":"成德里","LIN":"32鄰","STREET":"育德路","SECT":" ","MAREA":" ","LANE":"５００巷","ALLEY":" ","HOUSE_NO":"３７號","E_COORD97":168791.70999999999,"N_COORD97":2546116.23,"ADDRESS":"育德路５００巷３７號","OBJECTID":455491},"geometry":{"x":168791.71000000183,"y":2546116.2300000023}},{"attributes":{"ID":455517,"DIS_CODE":0,"TOWNNAME":"北區","LI":"成德里","LIN":"32鄰","STREET":"育德路","SECT":" ","MAREA":" ","LANE":"５００巷","ALLEY":" ","HOUSE_NO":"３９號","E_COORD97":168796.35000000001,"N_COORD97":2546115.7000000002,"ADDRESS":"育德路５００巷３９號","OBJECTID":455492},"geometry":{"x":168796.34999999963,"y":2546115.6999999993}},{"attributes":{"ID":455518,"DIS_CODE":0,"TOWNNAME":"北區","LI":"成德里","LIN":"32鄰","STREET":"育德路","SECT":" ","MAREA":" ","LANE":"５００巷","ALLEY":" ","HOUSE_NO":"４１號","E_COORD97":168801.07999999999,"N_COORD97":2546114.0099999998,"ADDRESS":"育德路５００巷４１號","OBJECTID":455493},"geometry":{"x":168801.08000000194,"y":2546114.0100000016}},{"attributes":{"ID":455519,"DIS_CODE":0,"TOWNNAME":"北區","LI":"成德里","LIN":"32鄰","STREET":"育德路","SECT":" ","MAREA":" ","LANE":"５００巷","ALLEY":" ","HOUSE_NO":"４３號","E_COORD97":168806.20999999999,"N_COORD97":2546113.6200000001,"ADDRESS":"育德路５００巷４３號","OBJECTID":455494},"geometry":{"x":168806.20999999996,"y":2546113.6200000029}},{"attributes":{"ID":455520,"DIS_CODE":0,"TOWNNAME":"北區","LI":"成德里","LIN":"32鄰","STREET":"育德路","SECT":" ","MAREA":" ","LANE":"５００巷","ALLEY":" ","HOUSE_NO":"４５號","E_COORD97":168812.54000000001,"N_COORD97":2546112.5800000001,"ADDRESS":"育德路５００巷４５號","OBJECTID":455495},"geometry":{"x":168812.54000000004,"y":2546112.5800000019}},{"attributes":{"ID":455521,"DIS_CODE":0,"TOWNNAME":"北區","LI":"成德里","LIN":"32鄰","STREET":"育德路","SECT":" ","MAREA":" ","LANE":"５００巷","ALLEY":" ","HOUSE_NO":"５號","E_COORD97":168718.14000000001,"N_COORD97":2546119.7400000002,"ADDRESS":"育德路５００巷５號","OBJECTID":455496},"geometry":{"x":168718.13999999966,"y":2546119.7400000021}},{"attributes":{"ID":455522,"DIS_CODE":0,"TOWNNAME":"北區","LI":"成德里","LIN":"32鄰","STREET":"育德路","SECT":" ","MAREA":" ","LANE":"５００巷","ALLEY":" ","HOUSE_NO":"７號","E_COORD97":168722.51000000001,"N_COORD97":2546119.5899999999,"ADDRESS":"育德路５００巷７號","OBJECTID":455497},"geometry":{"x":168722.50999999978,"y":2546119.5900000017}},{"attributes":{"ID":455523,"DIS_CODE":0,"TOWNNAME":"北區","LI":"成德里","LIN":"32鄰","STREET":"育德路","SECT":" ","MAREA":" ","LANE":"５００巷","ALLEY":" ","HOUSE_NO":"９號","E_COORD97":168727.32999999999,"N_COORD97":2546118.9900000002,"ADDRESS":"育德路５００巷９號","OBJECTID":455498},"geometry":{"x":168727.33000000007,"y":2546118.9900000002}},{"attributes":{"ID":455524,"DIS_CODE":0,"TOWNNAME":"北區","LI":"大港里","LIN":"32鄰","STREET":"大興街","SECT":" ","MAREA":" ","LANE":"５０２巷","ALLEY":" ","HOUSE_NO":"２６號","E_COORD97":166036.22,"N_COORD97":2545570.4700000002,"ADDRESS":"大興街５０２巷２６號","OBJECTID":455499},"geometry":{"x":166036.21999999974,"y":2545570.4700000007}},{"attributes":{"ID":455525,"DIS_CODE":0,"TOWNNAME":"北區","LI":"大港里","LIN":"32鄰","STREET":"大興街","SECT":" ","MAREA":" ","LANE":"５０２巷","ALLEY":" ","HOUSE_NO":"２８號","E_COORD97":166030.92000000001,"N_COORD97":2545576.8799999999,"ADDRESS":"大興街５０２巷２８號","OBJECTID":455500},"geometry":{"x":166030.92000000086,"y":2545576.8800000027}},{"attributes":{"ID":455526,"DIS_CODE":0,"TOWNNAME":"北區","LI":"大港里","LIN":"32鄰","STREET":"大興街","SECT":" ","MAREA":" ","LANE":"５０２巷","ALLEY":" ","HOUSE_NO":"３０號","E_COORD97":166028.57999999999,"N_COORD97":2545586.02,"ADDRESS":"大興街５０２巷３０號","OBJECTID":455501},"geometry":{"x":166028.58000000101,"y":2545586.0199999996}},{"attributes":{"ID":455527,"DIS_CODE":0,"TOWNNAME":"北區","LI":"大港里","LIN":"32鄰","STREET":"大興街","SECT":" ","MAREA":" ","LANE":"５０２巷","ALLEY":" ","HOUSE_NO":"３２號","E_COORD97":166021.5,"N_COORD97":2545596.3399999999,"ADDRESS":"大興街５０２巷３２號","OBJECTID":455502},"geometry":{"x":166021.50000000186,"y":2545596.3400000017}},{"attributes":{"ID":455528,"DIS_CODE":0,"TOWNNAME":"北區","LI":"大港里","LIN":"32鄰","STREET":"大興街","SECT":" ","MAREA":" ","LANE":"５０２巷","ALLEY":" ","HOUSE_NO":"３２號之１","E_COORD97":166016.06,"N_COORD97":2545604.3599999999,"ADDRESS":"大興街５０２巷３２號之１","OBJECTID":455503},"geometry":{"x":166016.06000000052,"y":2545604.3600000031}},{"attributes":{"ID":455529,"DIS_CODE":0,"TOWNNAME":"北區","LI":"大港里","LIN":"32鄰","STREET":"大興街","SECT":" ","MAREA":" ","LANE":"５０２巷","ALLEY":" ","HOUSE_NO":"１１號","E_COORD97":166029.73999999999,"N_COORD97":2545512.1299999999,"ADDRESS":"大興街５０２巷１１號","OBJECTID":455504},"geometry":{"x":166029.74000000022,"y":2545512.1300000008}},{"attributes":{"ID":455530,"DIS_CODE":0,"TOWNNAME":"北區","LI":"大港里","LIN":"32鄰","STREET":"大興街","SECT":" ","MAREA":" ","LANE":"５０２巷","ALLEY":" ","HOUSE_NO":"１３號","E_COORD97":166025.16,"N_COORD97":2545509.0899999999,"ADDRESS":"大興街５０２巷１３號","OBJECTID":455505},"geometry":{"x":166025.16000000015,"y":2545509.0900000017}},{"attributes":{"ID":455531,"DIS_CODE":0,"TOWNNAME":"北區","LI":"大港里","LIN":"32鄰","STREET":"大興街","SECT":" ","MAREA":" ","LANE":"５０２巷","ALLEY":" ","HOUSE_NO":"１５號","E_COORD97":166019.19,"N_COORD97":2545519.0899999999,"ADDRESS":"大興街５０２巷１５號","OBJECTID":455506},"geometry":{"x":166019.19000000134,"y":2545519.0900000017}},{"attributes":{"ID":455532,"DIS_CODE":0,"TOWNNAME":"北區","LI":"大港里","LIN":"32鄰","STREET":"大興街","SECT":" ","MAREA":" ","LANE":"５０２巷","ALLEY":" ","HOUSE_NO":"１７號","E_COORD97":166025.59,"N_COORD97":2545522.9900000002,"ADDRESS":"大興街５０２巷１７號","OBJECTID":455507},"geometry":{"x":166025.58999999985,"y":2545522.9900000039}},{"attributes":{"ID":455533,"DIS_CODE":0,"TOWNNAME":"北區","LI":"大港里","LIN":"32鄰","STREET":"大興街","SECT":" ","MAREA":" ","LANE":"５０２巷","ALLEY":" ","HOUSE_NO":"１８號","E_COORD97":166048.48000000001,"N_COORD97":2545543.1699999999,"ADDRESS":"大興街５０２巷１８號","OBJECTID":455508},"geometry":{"x":166048.48000000045,"y":2545543.1700000018}},{"attributes":{"ID":455534,"DIS_CODE":0,"TOWNNAME":"北區","LI":"大港里","LIN":"32鄰","STREET":"大興街","SECT":" ","MAREA":" ","LANE":"５０２巷","ALLEY":" ","HOUSE_NO":"１９號","E_COORD97":166032.32999999999,"N_COORD97":2545525.5899999999,"ADDRESS":"大興街５０２巷１９號","OBJECTID":455509},"geometry":{"x":166032.33000000007,"y":2545525.5900000036}},{"attributes":{"ID":455535,"DIS_CODE":0,"TOWNNAME":"北區","LI":"大港里","LIN":"32鄰","STREET":"大興街","SECT":" ","MAREA":" ","LANE":"５０２巷","ALLEY":" ","HOUSE_NO":"２０號","E_COORD97":166046.20999999999,"N_COORD97":2545548.2799999998,"ADDRESS":"大興街５０２巷２０號","OBJECTID":455510},"geometry":{"x":166046.21000000089,"y":2545548.2800000012}},{"attributes":{"ID":455536,"DIS_CODE":0,"TOWNNAME":"北區","LI":"大港里","LIN":"32鄰","STREET":"大興街","SECT":" ","MAREA":" ","LANE":"５０２巷","ALLEY":" ","HOUSE_NO":"２１號","E_COORD97":166037.23000000001,"N_COORD97":2545528.3100000001,"ADDRESS":"大興街５０２巷２１號","OBJECTID":455511},"geometry":{"x":166037.23000000231,"y":2545528.3100000024}},{"attributes":{"ID":455537,"DIS_CODE":0,"TOWNNAME":"北區","LI":"大港里","LIN":"32鄰","STREET":"大興街","SECT":" ","MAREA":" ","LANE":"５０２巷","ALLEY":" ","HOUSE_NO":"２２號","E_COORD97":166043.39000000001,"N_COORD97":2545551.6299999999,"ADDRESS":"大興街５０２巷２２號","OBJECTID":455512},"geometry":{"x":166043.38999999966,"y":2545551.6300000008}},{"attributes":{"ID":455538,"DIS_CODE":0,"TOWNNAME":"北區","LI":"大港里","LIN":"32鄰","STREET":"大興街","SECT":" ","MAREA":" ","LANE":"５０２巷","ALLEY":" ","HOUSE_NO":"２３號","E_COORD97":166030.17999999999,"N_COORD97":2545544.8399999999,"ADDRESS":"大興街５０２巷２３號","OBJECTID":455513},"geometry":{"x":166030.18000000156,"y":2545544.8400000017}},{"attributes":{"ID":455539,"DIS_CODE":0,"TOWNNAME":"北區","LI":"大港里","LIN":"32鄰","STREET":"大興街","SECT":" ","MAREA":" ","LANE":"５０２巷","ALLEY":" ","HOUSE_NO":"２４號","E_COORD97":166041.12,"N_COORD97":2545556.3799999999,"ADDRESS":"大興街５０２巷２４號","OBJECTID":455514},"geometry":{"x":166041.12000000197,"y":2545556.3800000027}},{"attributes":{"ID":455540,"DIS_CODE":0,"TOWNNAME":"北區","LI":"大港里","LIN":"32鄰","STREET":"大興街","SECT":" ","MAREA":" ","LANE":"５０２巷","ALLEY":" ","HOUSE_NO":"２５號","E_COORD97":166022.56,"N_COORD97":2545541.8199999998,"ADDRESS":"大興街５０２巷２５號","OBJECTID":455515},"geometry":{"x":166022.56000000052,"y":2545541.8200000022}},{"attributes":{"ID":455541,"DIS_CODE":0,"TOWNNAME":"北區","LI":"大港里","LIN":"32鄰","STREET":"大興街","SECT":" ","MAREA":" ","LANE":"５０２巷","ALLEY":" ","HOUSE_NO":"２７號","E_COORD97":166017.51999999999,"N_COORD97":2545539.1600000001,"ADDRESS":"大興街５０２巷２７號","OBJECTID":455516},"geometry":{"x":166017.52000000142,"y":2545539.160000002}},{"attributes":{"ID":455542,"DIS_CODE":0,"TOWNNAME":"北區","LI":"大港里","LIN":"32鄰","STREET":"大興街","SECT":" ","MAREA":" ","LANE":"５０２巷","ALLEY":" ","HOUSE_NO":"２９號","E_COORD97":166011.85999999999,"N_COORD97":2545536.4900000002,"ADDRESS":"大興街５０２巷２９號","OBJECTID":455517},"geometry":{"x":166011.86000000034,"y":2545536.4899999984}},{"attributes":{"ID":455543,"DIS_CODE":0,"TOWNNAME":"北區","LI":"大港里","LIN":"32鄰","STREET":"大興街","SECT":" ","MAREA":" ","LANE":"５０２巷","ALLEY":" ","HOUSE_NO":"３１號","E_COORD97":166007.06,"N_COORD97":2545545.3700000001,"ADDRESS":"大興街５０２巷３１號","OBJECTID":455518},"geometry":{"x":166007.06000000145,"y":2545545.3700000048}},{"attributes":{"ID":455544,"DIS_CODE":0,"TOWNNAME":"北區","LI":"大港里","LIN":"32鄰","STREET":"大興街","SECT":" ","MAREA":" ","LANE":"５０２巷","ALLEY":" ","HOUSE_NO":"３３號","E_COORD97":166013.35999999999,"N_COORD97":2545549.0699999998,"ADDRESS":"大興街５０２巷３３號","OBJECTID":455519},"geometry":{"x":166013.36000000127,"y":2545549.0700000003}},{"attributes":{"ID":455545,"DIS_CODE":0,"TOWNNAME":"北區","LI":"大港里","LIN":"32鄰","STREET":"大興街","SECT":" ","MAREA":" ","LANE":"５０２巷","ALLEY":" ","HOUSE_NO":"３５號","E_COORD97":166018.70000000001,"N_COORD97":2545551.73,"ADDRESS":"大興街５０２巷３５號","OBJECTID":455520},"geometry":{"x":166018.70000000205,"y":2545551.7300000004}},{"attributes":{"ID":455546,"DIS_CODE":0,"TOWNNAME":"北區","LI":"大港里","LIN":"32鄰","STREET":"大興街","SECT":" ","MAREA":" ","LANE":"５０２巷","ALLEY":" ","HOUSE_NO":"３７號","E_COORD97":166024.98999999999,"N_COORD97":2545554.8100000001,"ADDRESS":"大興街５０２巷３７號","OBJECTID":455521},"geometry":{"x":166024.98999999929,"y":2545554.8100000005}},{"attributes":{"ID":455547,"DIS_CODE":0,"TOWNNAME":"北區","LI":"大港里","LIN":"32鄰","STREET":"大興街","SECT":" ","MAREA":" ","LANE":"５０２巷","ALLEY":" ","HOUSE_NO":"３９號","E_COORD97":166016.51000000001,"N_COORD97":2545571.1800000002,"ADDRESS":"大興街５０２巷３９號","OBJECTID":455522},"geometry":{"x":166016.51000000071,"y":2545571.1799999997}},{"attributes":{"ID":455548,"DIS_CODE":0,"TOWNNAME":"北區","LI":"大港里","LIN":"32鄰","STREET":"大興街","SECT":" ","MAREA":" ","LANE":"５０２巷","ALLEY":" ","HOUSE_NO":"４１號","E_COORD97":166009.79999999999,"N_COORD97":2545567.77,"ADDRESS":"大興街５０２巷４１號","OBJECTID":455523},"geometry":{"x":166009.80000000075,"y":2545567.7699999977}},{"attributes":{"ID":455549,"DIS_CODE":0,"TOWNNAME":"北區","LI":"大港里","LIN":"32鄰","STREET":"大興街","SECT":" ","MAREA":" ","LANE":"５０２巷","ALLEY":" ","HOUSE_NO":"４３號","E_COORD97":166004.97,"N_COORD97":2545564.8199999998,"ADDRESS":"大興街５０２巷４３號","OBJECTID":455524},"geometry":{"x":166004.97000000067,"y":2545564.8199999984}},{"attributes":{"ID":455550,"DIS_CODE":0,"TOWNNAME":"北區","LI":"大港里","LIN":"32鄰","STREET":"大興街","SECT":" ","MAREA":" ","LANE":"５０２巷","ALLEY":" ","HOUSE_NO":"４５號","E_COORD97":165999.10000000001,"N_COORD97":2545562.0499999998,"ADDRESS":"大興街５０２巷４５號","OBJECTID":455525},"geometry":{"x":165999.10000000056,"y":2545562.0500000026}},{"attributes":{"ID":455551,"DIS_CODE":0,"TOWNNAME":"北區","LI":"大港里","LIN":"32鄰","STREET":"大興街","SECT":" ","MAREA":" ","LANE":"５０２巷","ALLEY":" ","HOUSE_NO":"４７號","E_COORD97":165994.60000000001,"N_COORD97":2545571.3399999999,"ADDRESS":"大興街５０２巷４７號","OBJECTID":455526},"geometry":{"x":165994.59999999963,"y":2545571.3400000036}},{"attributes":{"ID":455552,"DIS_CODE":0,"TOWNNAME":"北區","LI":"大港里","LIN":"32鄰","STREET":"大興街","SECT":" ","MAREA":" ","LANE":"５０２巷","ALLEY":" ","HOUSE_NO":"４９號","E_COORD97":165999.95000000001,"N_COORD97":2545574.4100000001,"ADDRESS":"大興街５０２巷４９號","OBJECTID":455527},"geometry":{"x":165999.95000000205,"y":2545574.4100000039}},{"attributes":{"ID":455553,"DIS_CODE":0,"TOWNNAME":"北區","LI":"大港里","LIN":"32鄰","STREET":"大興街","SECT":" ","MAREA":" ","LANE":"５０２巷","ALLEY":" ","HOUSE_NO":"５１號","E_COORD97":166005.70999999999,"N_COORD97":2545576.98,"ADDRESS":"大興街５０２巷５１號","OBJECTID":455528},"geometry":{"x":166005.70999999996,"y":2545576.9800000004}},{"attributes":{"ID":455554,"DIS_CODE":0,"TOWNNAME":"北區","LI":"大港里","LIN":"32鄰","STREET":"大興街","SECT":" ","MAREA":" ","LANE":"５０２巷","ALLEY":" ","HOUSE_NO":"５３號","E_COORD97":166011.79000000001,"N_COORD97":2545580.0499999998,"ADDRESS":"大興街５０２巷５３號","OBJECTID":455529},"geometry":{"x":166011.79000000097,"y":2545580.0500000007}},{"attributes":{"ID":455555,"DIS_CODE":0,"TOWNNAME":"北區","LI":"大港里","LIN":"32鄰","STREET":"大興街","SECT":" ","MAREA":" ","LANE":"５０２巷","ALLEY":" ","HOUSE_NO":"５５號","E_COORD97":166003.47,"N_COORD97":2545600.8300000001,"ADDRESS":"大興街５０２巷５５號","OBJECTID":455530},"geometry":{"x":166003.47000000067,"y":2545600.8300000001}},{"attributes":{"ID":455556,"DIS_CODE":0,"TOWNNAME":"北區","LI":"大港里","LIN":"32鄰","STREET":"大興街","SECT":" ","MAREA":" ","LANE":"５０２巷","ALLEY":" ","HOUSE_NO":"５７號","E_COORD97":165996.32999999999,"N_COORD97":2545595.7999999998,"ADDRESS":"大興街５０２巷５７號","OBJECTID":455531},"geometry":{"x":165996.33000000101,"y":2545595.8000000007}},{"attributes":{"ID":455557,"DIS_CODE":0,"TOWNNAME":"北區","LI":"大港里","LIN":"32鄰","STREET":"大興街","SECT":" ","MAREA":" ","LANE":"５０２巷","ALLEY":" ","HOUSE_NO":"５９號","E_COORD97":165990.54999999999,"N_COORD97":2545591.7999999998,"ADDRESS":"大興街５０２巷５９號","OBJECTID":455532},"geometry":{"x":165990.55000000075,"y":2545591.8000000007}},{"attributes":{"ID":455558,"DIS_CODE":0,"TOWNNAME":"北區","LI":"大港里","LIN":"32鄰","STREET":"大興街","SECT":" ","MAREA":" ","LANE":"５０２巷","ALLEY":" ","HOUSE_NO":"５號","E_COORD97":166049.82999999999,"N_COORD97":2545503.5600000001,"ADDRESS":"大興街５０２巷５號","OBJECTID":455533},"geometry":{"x":166049.83000000194,"y":2545503.5600000024}},{"attributes":{"ID":455559,"DIS_CODE":0,"TOWNNAME":"北區","LI":"大港里","LIN":"32鄰","STREET":"大興街","SECT":" ","MAREA":" ","LANE":"５０２巷","ALLEY":" ","HOUSE_NO":"６１號","E_COORD97":165985.20999999999,"N_COORD97":2545589.4399999999,"ADDRESS":"大興街５０２巷６１號","OBJECTID":455534},"geometry":{"x":165985.20999999996,"y":2545589.4399999995}},{"attributes":{"ID":455560,"DIS_CODE":0,"TOWNNAME":"北區","LI":"大港里","LIN":"32鄰","STREET":"大興街","SECT":" ","MAREA":" ","LANE":"５０２巷","ALLEY":" ","HOUSE_NO":"６號","E_COORD97":166063.42000000001,"N_COORD97":2545505.1899999999,"ADDRESS":"大興街５０２巷６號","OBJECTID":455535},"geometry":{"x":166063.41999999993,"y":2545505.1900000013}},{"attributes":{"ID":455561,"DIS_CODE":0,"TOWNNAME":"北區","LI":"大港里","LIN":"32鄰","STREET":"大興街","SECT":" ","MAREA":" ","LANE":"５０２巷","ALLEY":" ","HOUSE_NO":"７號","E_COORD97":166042.01000000001,"N_COORD97":2545518.6899999999,"ADDRESS":"大興街５０２巷７號","OBJECTID":455536},"geometry":{"x":166042.01000000071,"y":2545518.6900000013}},{"attributes":{"ID":455562,"DIS_CODE":0,"TOWNNAME":"北區","LI":"大港里","LIN":"32鄰","STREET":"大興街","SECT":" ","MAREA":" ","LANE":"５０２巷","ALLEY":" ","HOUSE_NO":"９號","E_COORD97":166035.79999999999,"N_COORD97":2545515.9700000002,"ADDRESS":"大興街５０２巷９號","OBJECTID":455537},"geometry":{"x":166035.79999999981,"y":2545515.9700000007}},{"attributes":{"ID":455563,"DIS_CODE":0,"TOWNNAME":"北區","LI":"大港里","LIN":"32鄰","STREET":"大興街","SECT":" ","MAREA":" ","LANE":"５２８巷","ALLEY":" ","HOUSE_NO":"３２號","E_COORD97":165980.12,"N_COORD97":2545536.29,"ADDRESS":"大興街５２８巷３２號","OBJECTID":455538},"geometry":{"x":165980.12000000197,"y":2545536.2899999991}},{"attributes":{"ID":455564,"DIS_CODE":0,"TOWNNAME":"北區","LI":"大港里","LIN":"32鄰","STREET":"大興街","SECT":" ","MAREA":" ","LANE":"５２８巷","ALLEY":" ","HOUSE_NO":"８號","E_COORD97":166007.70000000001,"N_COORD97":2545485.27,"ADDRESS":"大興街５２８巷８號","OBJECTID":455539},"geometry":{"x":166007.70000000019,"y":2545485.2699999996}},{"attributes":{"ID":455565,"DIS_CODE":0,"TOWNNAME":"新營區","LI":"王公里","LIN":"32鄰","STREET":"大德街","SECT":" ","MAREA":" ","LANE":"５０巷","ALLEY":" ","HOUSE_NO":"６號","E_COORD97":180307.79999999999,"N_COORD97":2579505.9500000002,"ADDRESS":"大德街５０巷６號","OBJECTID":455540},"geometry":{"x":180307.79999999981,"y":2579505.9499999993}},{"attributes":{"ID":455566,"DIS_CODE":0,"TOWNNAME":"新營區","LI":"忠政里","LIN":"32鄰","STREET":"府西路","SECT":" ","MAREA":" ","LANE":"１７巷","ALLEY":" ","HOUSE_NO":"１８號","E_COORD97":179771.35000000001,"N_COORD97":2578921.5299999998,"ADDRESS":"府西路１７巷１８號","OBJECTID":455541},"geometry":{"x":179771.34999999963,"y":2578921.5300000012}},{"attributes":{"ID":455567,"DIS_CODE":0,"TOWNNAME":"新營區","LI":"忠政里","LIN":"32鄰","STREET":"府西路","SECT":" ","MAREA":" ","LANE":"１７巷","ALLEY":" ","HOUSE_NO":"９號","E_COORD97":179787.41,"N_COORD97":2578911.4900000002,"ADDRESS":"府西路１７巷９號","OBJECTID":455542},"geometry":{"x":179787.41000000108,"y":2578911.4900000039}},{"attributes":{"ID":455568,"DIS_CODE":0,"TOWNNAME":"新營區","LI":"王公里","LIN":"32鄰","STREET":"大德街","SECT":" ","MAREA":" ","LANE":"１８巷","ALLEY":" ","HOUSE_NO":"３號","E_COORD97":180217.91,"N_COORD97":2579513.0099999998,"ADDRESS":"大德街１８巷３號","OBJECTID":455543},"geometry":{"x":180217.91000000108,"y":2579513.0099999998}},{"attributes":{"ID":455569,"DIS_CODE":0,"TOWNNAME":"新營區","LI":"忠政里","LIN":"32鄰","STREET":"府西路","SECT":" ","MAREA":" ","LANE":"１７巷","ALLEY":" ","HOUSE_NO":"４０號","E_COORD97":179720.32000000001,"N_COORD97":2578928.4300000002,"ADDRESS":"府西路１７巷４０號","OBJECTID":455544},"geometry":{"x":179720.32000000123,"y":2578928.4300000034}},{"attributes":{"ID":455570,"DIS_CODE":0,"TOWNNAME":"新營區","LI":"王公里","LIN":"32鄰","STREET":"大德街","SECT":" ","MAREA":" ","LANE":"５０巷","ALLEY":" ","HOUSE_NO":"４號","E_COORD97":180308.91,"N_COORD97":2579510.3700000001,"ADDRESS":"大德街５０巷４號","OBJECTID":455545},"geometry":{"x":180308.91000000015,"y":2579510.3700000029}},{"attributes":{"ID":455571,"DIS_CODE":0,"TOWNNAME":"南區","LI":"大忠里","LIN":"32鄰","STREET":"國民路","SECT":" ","MAREA":" ","LANE":"２７０巷","ALLEY":" ","HOUSE_NO":"２０號之２","E_COORD97":169042.39999999999,"N_COORD97":2541473.6899999999,"ADDRESS":"國民路２７０巷２０號之２","OBJECTID":455546},"geometry":{"x":169042.4000000013,"y":2541473.6900000013}},{"attributes":{"ID":455572,"DIS_CODE":0,"TOWNNAME":"南區","LI":"大忠里","LIN":"32鄰","STREET":"國民路","SECT":" ","MAREA":" ","LANE":"２７０巷","ALLEY":" ","HOUSE_NO":"２０號之３","E_COORD97":169049.72,"N_COORD97":2541479.1600000001,"ADDRESS":"國民路２７０巷２０號之３","OBJECTID":455547},"geometry":{"x":169049.72000000067,"y":2541479.1600000001}},{"attributes":{"ID":455573,"DIS_CODE":0,"TOWNNAME":"安平區","LI":"育平里","LIN":"32鄰","STREET":"健康三街","SECT":" ","MAREA":" ","LANE":"１７巷","ALLEY":" ","HOUSE_NO":"１８號","E_COORD97":164641.51999999999,"N_COORD97":2542926.7599999998,"ADDRESS":"健康三街１７巷１８號","OBJECTID":455548},"geometry":{"x":164641.52000000048,"y":2542926.7599999998}},{"attributes":{"ID":455574,"DIS_CODE":0,"TOWNNAME":"安平區","LI":"育平里","LIN":"32鄰","STREET":"健康三街","SECT":" ","MAREA":" ","LANE":"１７巷","ALLEY":" ","HOUSE_NO":"２０號","E_COORD97":164636.60000000001,"N_COORD97":2542927.3999999999,"ADDRESS":"健康三街１７巷２０號","OBJECTID":455549},"geometry":{"x":164636.59999999963,"y":2542927.4000000022}},{"attributes":{"ID":455575,"DIS_CODE":0,"TOWNNAME":"安平區","LI":"育平里","LIN":"32鄰","STREET":"健康三街","SECT":" ","MAREA":" ","LANE":"１７巷","ALLEY":" ","HOUSE_NO":"２２號","E_COORD97":164632,"N_COORD97":2542928.5099999998,"ADDRESS":"健康三街１７巷２２號","OBJECTID":455550},"geometry":{"x":164632.00000000093,"y":2542928.5099999998}},{"attributes":{"ID":455576,"DIS_CODE":0,"TOWNNAME":"安平區","LI":"育平里","LIN":"32鄰","STREET":"健康三街","SECT":" ","MAREA":" ","LANE":"１７巷","ALLEY":" ","HOUSE_NO":"２６號","E_COORD97":164626.76000000001,"N_COORD97":2542929.2999999998,"ADDRESS":"健康三街１７巷２６號","OBJECTID":455551},"geometry":{"x":164626.76000000071,"y":2542929.3000000026}},{"attributes":{"ID":455577,"DIS_CODE":0,"TOWNNAME":"安平區","LI":"育平里","LIN":"32鄰","STREET":"健康三街","SECT":" ","MAREA":" ","LANE":"１７巷","ALLEY":" ","HOUSE_NO":"２８號","E_COORD97":164622.32000000001,"N_COORD97":2542929.9399999999,"ADDRESS":"健康三街１７巷２８號","OBJECTID":455552},"geometry":{"x":164622.3200000003,"y":2542929.9400000013}},{"attributes":{"ID":455578,"DIS_CODE":0,"TOWNNAME":"安平區","LI":"育平里","LIN":"32鄰","STREET":"健康三街","SECT":" ","MAREA":" ","LANE":"１７巷","ALLEY":" ","HOUSE_NO":"３０號","E_COORD97":164617.39000000001,"N_COORD97":2542930.73,"ADDRESS":"健康三街１７巷３０號","OBJECTID":455553},"geometry":{"x":164617.38999999966,"y":2542930.7300000004}},{"attributes":{"ID":455579,"DIS_CODE":0,"TOWNNAME":"安平區","LI":"育平里","LIN":"32鄰","STREET":"健康三街","SECT":" ","MAREA":" ","LANE":"１７巷","ALLEY":" ","HOUSE_NO":"２號","E_COORD97":164669.45999999999,"N_COORD97":2542921.21,"ADDRESS":"健康三街１７巷２號","OBJECTID":455554},"geometry":{"x":164669.46000000089,"y":2542921.2100000009}},{"attributes":{"ID":455580,"DIS_CODE":0,"TOWNNAME":"安平區","LI":"育平里","LIN":"32鄰","STREET":"健康三街","SECT":" ","MAREA":" ","LANE":"１７巷","ALLEY":" ","HOUSE_NO":"３２號","E_COORD97":164612.95000000001,"N_COORD97":2542931.3700000001,"ADDRESS":"健康三街１７巷３２號","OBJECTID":455555},"geometry":{"x":164612.95000000019,"y":2542931.3700000048}},{"attributes":{"ID":455581,"DIS_CODE":0,"TOWNNAME":"安平區","LI":"育平里","LIN":"32鄰","STREET":"健康三街","SECT":" ","MAREA":" ","LANE":"１７巷","ALLEY":" ","HOUSE_NO":"３６號","E_COORD97":164607.70999999999,"N_COORD97":2542932.1600000001,"ADDRESS":"健康三街１７巷３６號","OBJECTID":455556},"geometry":{"x":164607.70999999996,"y":2542932.160000002}},{"attributes":{"ID":455582,"DIS_CODE":0,"TOWNNAME":"安平區","LI":"育平里","LIN":"32鄰","STREET":"健康三街","SECT":" ","MAREA":" ","LANE":"１７巷","ALLEY":" ","HOUSE_NO":"３８號","E_COORD97":164603.42000000001,"N_COORD97":2542932.3199999998,"ADDRESS":"健康三街１７巷３８號","OBJECTID":455557},"geometry":{"x":164603.42000000086,"y":2542932.3200000022}},{"attributes":{"ID":455583,"DIS_CODE":0,"TOWNNAME":"安平區","LI":"育平里","LIN":"32鄰","STREET":"健康三街","SECT":" ","MAREA":" ","LANE":"１７巷","ALLEY":" ","HOUSE_NO":"４０號","E_COORD97":164598.66,"N_COORD97":2542932.9500000002,"ADDRESS":"健康三街１７巷４０號","OBJECTID":455558},"geometry":{"x":164598.66000000108,"y":2542932.9500000011}},{"attributes":{"ID":455584,"DIS_CODE":0,"TOWNNAME":"安平區","LI":"育平里","LIN":"32鄰","STREET":"健康三街","SECT":" ","MAREA":" ","LANE":"１７巷","ALLEY":" ","HOUSE_NO":"４２號","E_COORD97":164594.06,"N_COORD97":2542934.8599999999,"ADDRESS":"健康三街１７巷４２號","OBJECTID":455559},"geometry":{"x":164594.06000000052,"y":2542934.8599999994}},{"attributes":{"ID":455585,"DIS_CODE":0,"TOWNNAME":"安平區","LI":"育平里","LIN":"32鄰","STREET":"健康三街","SECT":" ","MAREA":" ","LANE":"１７巷","ALLEY":" ","HOUSE_NO":"４６號","E_COORD97":164588.98000000001,"N_COORD97":2542935.9700000002,"ADDRESS":"健康三街１７巷４６號","OBJECTID":455560},"geometry":{"x":164588.98000000045,"y":2542935.9700000007}},{"attributes":{"ID":455586,"DIS_CODE":0,"TOWNNAME":"安平區","LI":"育平里","LIN":"32鄰","STREET":"健康三街","SECT":" ","MAREA":" ","LANE":"１７巷","ALLEY":" ","HOUSE_NO":"４８號","E_COORD97":164583.89999999999,"N_COORD97":2542936.6099999999,"ADDRESS":"健康三街１７巷４８號","OBJECTID":455561},"geometry":{"x":164583.9000000013,"y":2542936.6099999994}},{"attributes":{"ID":455587,"DIS_CODE":0,"TOWNNAME":"安平區","LI":"育平里","LIN":"32鄰","STREET":"健康三街","SECT":" ","MAREA":" ","LANE":"１７巷","ALLEY":" ","HOUSE_NO":"６號","E_COORD97":164664.85999999999,"N_COORD97":2542922,"ADDRESS":"健康三街１７巷６號","OBJECTID":455562},"geometry":{"x":164664.8600000022,"y":2542922}},{"attributes":{"ID":455588,"DIS_CODE":0,"TOWNNAME":"安平區","LI":"育平里","LIN":"32鄰","STREET":"健康三街","SECT":" ","MAREA":" ","LANE":"１７巷","ALLEY":" ","HOUSE_NO":"８號","E_COORD97":164659.94,"N_COORD97":2542923.27,"ADDRESS":"健康三街１７巷８號","OBJECTID":455563},"geometry":{"x":164659.94000000134,"y":2542923.2699999977}},{"attributes":{"ID":455589,"DIS_CODE":0,"TOWNNAME":"安平區","LI":"育平里","LIN":"32鄰","STREET":"府平路","SECT":" ","MAREA":" ","LANE":"２４５巷","ALLEY":" ","HOUSE_NO":"６號","E_COORD97":164649.89999999999,"N_COORD97":2543059.9199999999,"ADDRESS":"府平路２４５巷６號","OBJECTID":455564},"geometry":{"x":164649.9000000013,"y":2543059.9200000018}},{"attributes":{"ID":455590,"DIS_CODE":0,"TOWNNAME":"安平區","LI":"育平里","LIN":"32鄰","STREET":"府平路","SECT":" ","MAREA":" ","LANE":"２４５巷","ALLEY":" ","HOUSE_NO":"８號","E_COORD97":164649.23000000001,"N_COORD97":2543055.1600000001,"ADDRESS":"府平路２４５巷８號","OBJECTID":455565},"geometry":{"x":164649.23000000138,"y":2543055.160000002}},{"attributes":{"ID":455591,"DIS_CODE":0,"TOWNNAME":"安平區","LI":"育平里","LIN":"32鄰","STREET":"府平路","SECT":" ","MAREA":" ","LANE":"２４５巷","ALLEY":" ","HOUSE_NO":"１０號","E_COORD97":164648.31,"N_COORD97":2543049.8599999999,"ADDRESS":"府平路２４５巷１０號","OBJECTID":455566},"geometry":{"x":164648.31000000052,"y":2543049.8599999994}},{"attributes":{"ID":455592,"DIS_CODE":0,"TOWNNAME":"安平區","LI":"育平里","LIN":"32鄰","STREET":"府平路","SECT":" ","MAREA":" ","LANE":"２４５巷","ALLEY":" ","HOUSE_NO":"１２號","E_COORD97":164646.06,"N_COORD97":2543045.5,"ADDRESS":"府平路２４５巷１２號","OBJECTID":455567},"geometry":{"x":164646.06000000052,"y":2543045.5000000019}},{"attributes":{"ID":455593,"DIS_CODE":0,"TOWNNAME":"安平區","LI":"育平里","LIN":"32鄰","STREET":"府平路","SECT":" ","MAREA":" ","LANE":"２４５巷","ALLEY":" ","HOUSE_NO":"１６號","E_COORD97":164645.53,"N_COORD97":2543040.4700000002,"ADDRESS":"府平路２４５巷１６號","OBJECTID":455568},"geometry":{"x":164645.53000000119,"y":2543040.4700000007}},{"attributes":{"ID":455594,"DIS_CODE":0,"TOWNNAME":"安平區","LI":"育平里","LIN":"32鄰","STREET":"府平路","SECT":" ","MAREA":" ","LANE":"２４５巷","ALLEY":" ","HOUSE_NO":"１８號","E_COORD97":164644.47,"N_COORD97":2543035.4399999999,"ADDRESS":"府平路２４５巷１８號","OBJECTID":455569},"geometry":{"x":164644.46999999974,"y":2543035.4400000013}},{"attributes":{"ID":455595,"DIS_CODE":0,"TOWNNAME":"安平區","LI":"育平里","LIN":"32鄰","STREET":"府平路","SECT":" ","MAREA":" ","LANE":"２４５巷","ALLEY":" ","HOUSE_NO":"２０號","E_COORD97":164644.34,"N_COORD97":2543030.6800000002,"ADDRESS":"府平路２４５巷２０號","OBJECTID":455570},"geometry":{"x":164644.34000000078,"y":2543030.6800000016}},{"attributes":{"ID":455596,"DIS_CODE":0,"TOWNNAME":"安平區","LI":"育平里","LIN":"32鄰","STREET":"府平路","SECT":" ","MAREA":" ","LANE":"２４５巷","ALLEY":" ","HOUSE_NO":"２２號","E_COORD97":164645.13,"N_COORD97":2543023.6699999999,"ADDRESS":"府平路２４５巷２２號","OBJECTID":455571},"geometry":{"x":164645.12999999989,"y":2543023.6700000018}},{"attributes":{"ID":455597,"DIS_CODE":0,"TOWNNAME":"安平區","LI":"育平里","LIN":"32鄰","STREET":"府平路","SECT":" ","MAREA":" ","LANE":"２４５巷","ALLEY":" ","HOUSE_NO":"２６號","E_COORD97":164642.75,"N_COORD97":2543019.8300000001,"ADDRESS":"府平路２４５巷２６號","OBJECTID":455572},"geometry":{"x":164642.75,"y":2543019.8300000019}},{"attributes":{"ID":455598,"DIS_CODE":0,"TOWNNAME":"安平區","LI":"育平里","LIN":"32鄰","STREET":"府平路","SECT":" ","MAREA":" ","LANE":"２４５巷","ALLEY":" ","HOUSE_NO":"２８號","E_COORD97":164639.84,"N_COORD97":2543015.6000000001,"ADDRESS":"府平路２４５巷２８號","OBJECTID":455573},"geometry":{"x":164639.84000000078,"y":2543015.5999999996}},{"attributes":{"ID":455599,"DIS_CODE":0,"TOWNNAME":"安平區","LI":"育平里","LIN":"32鄰","STREET":"府平路","SECT":" ","MAREA":" ","LANE":"２４５巷","ALLEY":" ","HOUSE_NO":"３０號","E_COORD97":164641.29999999999,"N_COORD97":2543009.5099999998,"ADDRESS":"府平路２４５巷３０號","OBJECTID":455574},"geometry":{"x":164641.30000000075,"y":2543009.5099999998}},{"attributes":{"ID":455600,"DIS_CODE":0,"TOWNNAME":"安平區","LI":"育平里","LIN":"32鄰","STREET":"府平路","SECT":" ","MAREA":" ","LANE":"２４５巷","ALLEY":" ","HOUSE_NO":"３２號","E_COORD97":164641.23000000001,"N_COORD97":2543005.2000000002,"ADDRESS":"府平路２４５巷３２號","OBJECTID":455575},"geometry":{"x":164641.23000000138,"y":2543005.200000003}},{"attributes":{"ID":455601,"DIS_CODE":0,"TOWNNAME":"安平區","LI":"育平里","LIN":"32鄰","STREET":"府平路","SECT":" ","MAREA":" ","LANE":"２４５巷","ALLEY":" ","HOUSE_NO":"４０號","E_COORD97":164634.35999999999,"N_COORD97":2542990.1200000001,"ADDRESS":"府平路２４５巷４０號","OBJECTID":455576},"geometry":{"x":164634.3600000022,"y":2542990.120000001}},{"attributes":{"ID":455602,"DIS_CODE":0,"TOWNNAME":"安平區","LI":"育平里","LIN":"32鄰","STREET":"府平路","SECT":" ","MAREA":" ","LANE":"２４５巷","ALLEY":" ","HOUSE_NO":"３８號","E_COORD97":164635.29000000001,"N_COORD97":2542996.21,"ADDRESS":"府平路２４５巷３８號","OBJECTID":455577},"geometry":{"x":164635.29000000097,"y":2542996.2100000009}},{"attributes":{"ID":455603,"DIS_CODE":0,"TOWNNAME":"安平區","LI":"育平里","LIN":"32鄰","STREET":"府平路","SECT":" ","MAREA":" ","LANE":"２４５巷","ALLEY":" ","HOUSE_NO":"３６號","E_COORD97":164635.56,"N_COORD97":2543000.9700000002,"ADDRESS":"府平路２４５巷３６號","OBJECTID":455578},"geometry":{"x":164635.56000000145,"y":2543000.9700000007}},{"attributes":{"ID":455604,"DIS_CODE":0,"TOWNNAME":"安平區","LI":"育平里","LIN":"32鄰","STREET":"府平路","SECT":" ","MAREA":" ","LANE":"２６７巷","ALLEY":" ","HOUSE_NO":"１１號","E_COORD97":164637.06,"N_COORD97":2543058.0699999998,"ADDRESS":"府平路２６７巷１１號","OBJECTID":455579},"geometry":{"x":164637.05999999959,"y":2543058.070000004}},{"attributes":{"ID":455605,"DIS_CODE":0,"TOWNNAME":"安平區","LI":"育平里","LIN":"32鄰","STREET":"府平路","SECT":" ","MAREA":" ","LANE":"２６７巷","ALLEY":" ","HOUSE_NO":"１５號","E_COORD97":164627.79999999999,"N_COORD97":2543038.3500000001,"ADDRESS":"府平路２６７巷１５號","OBJECTID":455580},"geometry":{"x":164627.80000000075,"y":2543038.3500000034}},{"attributes":{"ID":455606,"DIS_CODE":0,"TOWNNAME":"安平區","LI":"育平里","LIN":"32鄰","STREET":"府平路","SECT":" ","MAREA":" ","LANE":"２６７巷","ALLEY":" ","HOUSE_NO":"１３號","E_COORD97":164632.57000000001,"N_COORD97":2543037.96,"ADDRESS":"府平路２６７巷１３號","OBJECTID":455581},"geometry":{"x":164632.5700000003,"y":2543037.9600000009}},{"attributes":{"ID":455607,"DIS_CODE":0,"TOWNNAME":"安平區","LI":"育平里","LIN":"32鄰","STREET":"府平路","SECT":" ","MAREA":" ","LANE":"２６７巷","ALLEY":" ","HOUSE_NO":"１７號","E_COORD97":164622.78,"N_COORD97":2543039.2799999998,"ADDRESS":"府平路２６７巷１７號","OBJECTID":455582},"geometry":{"x":164622.78000000026,"y":2543039.2800000012}},{"attributes":{"ID":455608,"DIS_CODE":0,"TOWNNAME":"安平區","LI":"育平里","LIN":"32鄰","STREET":"府平路","SECT":" ","MAREA":" ","LANE":"２６７巷","ALLEY":" ","HOUSE_NO":"１９號","E_COORD97":164618.01000000001,"N_COORD97":2543041.3999999999,"ADDRESS":"府平路２６７巷１９號","OBJECTID":455583},"geometry":{"x":164618.01000000071,"y":2543041.4000000004}},{"attributes":{"ID":455609,"DIS_CODE":0,"TOWNNAME":"安平區","LI":"育平里","LIN":"32鄰","STREET":"府平路","SECT":" ","MAREA":" ","LANE":"２６７巷","ALLEY":" ","HOUSE_NO":"１號","E_COORD97":164615.37,"N_COORD97":2543069.0499999998,"ADDRESS":"府平路２６７巷１號","OBJECTID":455584},"geometry":{"x":164615.37000000197,"y":2543069.0500000026}},{"attributes":{"ID":455610,"DIS_CODE":0,"TOWNNAME":"安平區","LI":"育平里","LIN":"32鄰","STREET":"府平路","SECT":" ","MAREA":" ","LANE":"２６７巷","ALLEY":" ","HOUSE_NO":"２１號","E_COORD97":164611.79999999999,"N_COORD97":2543046.4199999999,"ADDRESS":"府平路２６７巷２１號","OBJECTID":455585},"geometry":{"x":164611.79999999981,"y":2543046.4200000018}},{"attributes":{"ID":455611,"DIS_CODE":0,"TOWNNAME":"安平區","LI":"育平里","LIN":"32鄰","STREET":"府平路","SECT":" ","MAREA":" ","LANE":"２６７巷","ALLEY":" ","HOUSE_NO":"２３號","E_COORD97":164607.56,"N_COORD97":2543037.96,"ADDRESS":"府平路２６７巷２３號","OBJECTID":455586},"geometry":{"x":164607.56000000052,"y":2543037.9600000009}},{"attributes":{"ID":455612,"DIS_CODE":0,"TOWNNAME":"安平區","LI":"育平里","LIN":"32鄰","STREET":"府平路","SECT":" ","MAREA":" ","LANE":"２６７巷","ALLEY":" ","HOUSE_NO":"２５號","E_COORD97":164607.29999999999,"N_COORD97":2543029.8900000001,"ADDRESS":"府平路２６７巷２５號","OBJECTID":455587},"geometry":{"x":164607.30000000075,"y":2543029.8900000025}},{"attributes":{"ID":455613,"DIS_CODE":0,"TOWNNAME":"安平區","LI":"育平里","LIN":"32鄰","STREET":"府平路","SECT":" ","MAREA":" ","LANE":"２６７巷","ALLEY":" ","HOUSE_NO":"２７號","E_COORD97":164606.23999999999,"N_COORD97":2543021.1600000001,"ADDRESS":"府平路２６７巷２７號","OBJECTID":455588},"geometry":{"x":164606.24000000209,"y":2543021.160000002}},{"attributes":{"ID":455614,"DIS_CODE":0,"TOWNNAME":"安平區","LI":"育平里","LIN":"32鄰","STREET":"府平路","SECT":" ","MAREA":" ","LANE":"２６７巷","ALLEY":" ","HOUSE_NO":"２９號","E_COORD97":164615.10000000001,"N_COORD97":2543024.3300000001,"ADDRESS":"府平路２６７巷２９號","OBJECTID":455589},"geometry":{"x":164615.10000000149,"y":2543024.3300000001}},{"attributes":{"ID":455615,"DIS_CODE":0,"TOWNNAME":"安平區","LI":"育平里","LIN":"32鄰","STREET":"府平路","SECT":" ","MAREA":" ","LANE":"２６７巷","ALLEY":" ","HOUSE_NO":"３１號","E_COORD97":164619.73000000001,"N_COORD97":2543024.0699999998,"ADDRESS":"府平路２６７巷３１號","OBJECTID":455590},"geometry":{"x":164619.73000000045,"y":2543024.070000004}},{"attributes":{"ID":455616,"DIS_CODE":0,"TOWNNAME":"安平區","LI":"育平里","LIN":"32鄰","STREET":"府平路","SECT":" ","MAREA":" ","LANE":"２６７巷","ALLEY":" ","HOUSE_NO":"３３號","E_COORD97":164624.63,"N_COORD97":2543023.4100000001,"ADDRESS":"府平路２６７巷３３號","OBJECTID":455591},"geometry":{"x":164624.62999999989,"y":2543023.4100000001}},{"attributes":{"ID":455617,"DIS_CODE":0,"TOWNNAME":"安平區","LI":"育平里","LIN":"32鄰","STREET":"府平路","SECT":" ","MAREA":" ","LANE":"２６７巷","ALLEY":" ","HOUSE_NO":"３５號","E_COORD97":164629.51999999999,"N_COORD97":2543023.0099999998,"ADDRESS":"府平路２６７巷３５號","OBJECTID":455592},"geometry":{"x":164629.52000000048,"y":2543023.0099999998}},{"attributes":{"ID":455618,"DIS_CODE":0,"TOWNNAME":"安平區","LI":"育平里","LIN":"32鄰","STREET":"府平路","SECT":" ","MAREA":" ","LANE":"２６７巷","ALLEY":" ","HOUSE_NO":"３７號","E_COORD97":164624.63,"N_COORD97":2542994.8300000001,"ADDRESS":"府平路２６７巷３７號","OBJECTID":455593},"geometry":{"x":164624.62999999989,"y":2542994.8300000038}},{"attributes":{"ID":455619,"DIS_CODE":0,"TOWNNAME":"安平區","LI":"育平里","LIN":"32鄰","STREET":"府平路","SECT":" ","MAREA":" ","LANE":"２６７巷","ALLEY":" ","HOUSE_NO":"３９號","E_COORD97":164619.73000000001,"N_COORD97":2542997.8700000001,"ADDRESS":"府平路２６７巷３９號","OBJECTID":455594},"geometry":{"x":164619.73000000045,"y":2542997.870000001}},{"attributes":{"ID":455620,"DIS_CODE":0,"TOWNNAME":"安平區","LI":"育平里","LIN":"32鄰","STREET":"府平路","SECT":" ","MAREA":" ","LANE":"２６７巷","ALLEY":" ","HOUSE_NO":"４１號","E_COORD97":164615.10000000001,"N_COORD97":2542998.5299999998,"ADDRESS":"府平路２６７巷４１號","OBJECTID":455595},"geometry":{"x":164615.10000000149,"y":2542998.5299999993}},{"attributes":{"ID":455621,"DIS_CODE":0,"TOWNNAME":"安平區","LI":"育平里","LIN":"32鄰","STREET":"府平路","SECT":" ","MAREA":" ","LANE":"２６７巷","ALLEY":" ","HOUSE_NO":"４３號","E_COORD97":164609.67999999999,"N_COORD97":2542998.6699999999,"ADDRESS":"府平路２６７巷４３號","OBJECTID":455596},"geometry":{"x":164609.68000000063,"y":2542998.6699999999}},{"attributes":{"ID":455622,"DIS_CODE":0,"TOWNNAME":"安平區","LI":"育平里","LIN":"32鄰","STREET":"府平路","SECT":" ","MAREA":" ","LANE":"２６７巷","ALLEY":" ","HOUSE_NO":"４５號","E_COORD97":164600.95000000001,"N_COORD97":2543007.27,"ADDRESS":"府平路２６７巷４５號","OBJECTID":455597},"geometry":{"x":164600.95000000019,"y":2543007.2699999996}},{"attributes":{"ID":455623,"DIS_CODE":0,"TOWNNAME":"安平區","LI":"育平里","LIN":"32鄰","STREET":"府平路","SECT":" ","MAREA":" ","LANE":"２６７巷","ALLEY":" ","HOUSE_NO":"４７號","E_COORD97":164599.89000000001,"N_COORD97":2542998.6699999999,"ADDRESS":"府平路２６７巷４７號","OBJECTID":455598},"geometry":{"x":164599.8900000006,"y":2542998.6699999999}},{"attributes":{"ID":455624,"DIS_CODE":0,"TOWNNAME":"安平區","LI":"育平里","LIN":"32鄰","STREET":"府平路","SECT":" ","MAREA":" ","LANE":"２６７巷","ALLEY":" ","HOUSE_NO":"５號","E_COORD97":164622.25,"N_COORD97":2543060.8399999999,"ADDRESS":"府平路２６７巷５號","OBJECTID":455599},"geometry":{"x":164622.25,"y":2543060.8399999999}},{"attributes":{"ID":455625,"DIS_CODE":0,"TOWNNAME":"安平區","LI":"育平里","LIN":"32鄰","STREET":"府平路","SECT":" ","MAREA":" ","LANE":"２６７巷","ALLEY":" ","HOUSE_NO":"７號","E_COORD97":164627.94,"N_COORD97":2543061.77,"ADDRESS":"府平路２６７巷７號","OBJECTID":455600},"geometry":{"x":164627.94000000134,"y":2543061.7699999996}}]}