{"displayFieldName":"TOWNNAME","fieldAliases":{"ID":"ID","DIS_CODE":"DIS_CODE","TOWNNAME":"TOWNNAME","LI":"LI","LIN":"LIN","STREET":"STREET","SECT":"SECT","MAREA":"MAREA","LANE":"LANE","ALLEY":"ALLEY","HOUSE_NO":"HOUSE_NO","E_COORD97":"E_COORD97","N_COORD97":"N_COORD97","ADDRESS":"ADDRESS","OBJECTID":"OBJECTID"},"geometryType":"esriGeometryPoint","spatialReference":{"wkid":102443,"latestWkid":3826},"fields":[{"name":"ID","type":"esriFieldTypeDouble","alias":"ID"},{"name":"DIS_CODE","type":"esriFieldTypeInteger","alias":"DIS_CODE"},{"name":"TOWNNAME","type":"esriFieldTypeString","alias":"TOWNNAME","length":8},{"name":"LI","type":"esriFieldTypeString","alias":"LI","length":8},{"name":"LIN","type":"esriFieldTypeString","alias":"LIN","length":12},{"name":"STREET","type":"esriFieldTypeString","alias":"STREET","length":20},{"name":"SECT","type":"esriFieldTypeString","alias":"SECT","length":8},{"name":"MAREA","type":"esriFieldTypeString","alias":"MAREA","length":12},{"name":"LANE","type":"esriFieldTypeString","alias":"LANE","length":10},{"name":"ALLEY","type":"esriFieldTypeString","alias":"ALLEY","length":10},{"name":"HOUSE_NO","type":"esriFieldTypeString","alias":"HOUSE_NO","length":20},{"name":"E_COORD97","type":"esriFieldTypeDouble","alias":"E_COORD97"},{"name":"N_COORD97","type":"esriFieldTypeDouble","alias":"N_COORD97"},{"name":"ADDRESS","type":"esriFieldTypeString","alias":"ADDRESS","length":50},{"name":"OBJECTID","type":"esriFieldTypeOID","alias":"OBJECTID"}],"features":[{"attributes":{"ID":549228,"DIS_CODE":0,"TOWNNAME":"東區","LI":"崇信里","LIN":"10鄰","STREET":"崇信街","SECT":" ","MAREA":" ","LANE":" ","ALLEY":" ","HOUSE_NO":"１１６號六樓","E_COORD97":170755.56,"N_COORD97":2542292.9700000002,"ADDRESS":"崇信街１１６號六樓","OBJECTID":549201},"geometry":{"x":170755.56000000052,"y":2542292.9700000025}},{"attributes":{"ID":549229,"DIS_CODE":0,"TOWNNAME":"東區","LI":"崇信里","LIN":"10鄰","STREET":"崇信街","SECT":" ","MAREA":" ","LANE":" ","ALLEY":" ","HOUSE_NO":"１１６號六樓之１","E_COORD97":170755.56,"N_COORD97":2542292.9700000002,"ADDRESS":"崇信街１１６號六樓之１","OBJECTID":549202},"geometry":{"x":170755.56000000052,"y":2542292.9700000025}},{"attributes":{"ID":549230,"DIS_CODE":0,"TOWNNAME":"東區","LI":"崇信里","LIN":"10鄰","STREET":"崇信街","SECT":" ","MAREA":" ","LANE":" ","ALLEY":" ","HOUSE_NO":"１１６號六樓之２","E_COORD97":170755.56,"N_COORD97":2542292.9700000002,"ADDRESS":"崇信街１１６號六樓之２","OBJECTID":549203},"geometry":{"x":170755.56000000052,"y":2542292.9700000025}},{"attributes":{"ID":549231,"DIS_CODE":0,"TOWNNAME":"東區","LI":"崇信里","LIN":"10鄰","STREET":"崇信街","SECT":" ","MAREA":" ","LANE":" ","ALLEY":" ","HOUSE_NO":"１１６號四樓","E_COORD97":170755.56,"N_COORD97":2542292.9700000002,"ADDRESS":"崇信街１１６號四樓","OBJECTID":549204},"geometry":{"x":170755.56000000052,"y":2542292.9700000025}},{"attributes":{"ID":549232,"DIS_CODE":0,"TOWNNAME":"東區","LI":"崇信里","LIN":"10鄰","STREET":"崇信街","SECT":" ","MAREA":" ","LANE":" ","ALLEY":" ","HOUSE_NO":"１１６號四樓之１","E_COORD97":170755.56,"N_COORD97":2542292.9700000002,"ADDRESS":"崇信街１１６號四樓之１","OBJECTID":549205},"geometry":{"x":170755.56000000052,"y":2542292.9700000025}},{"attributes":{"ID":549233,"DIS_CODE":0,"TOWNNAME":"東區","LI":"崇信里","LIN":"10鄰","STREET":"崇信街","SECT":" ","MAREA":" ","LANE":" ","ALLEY":" ","HOUSE_NO":"１１６號四樓之２","E_COORD97":170755.56,"N_COORD97":2542292.9700000002,"ADDRESS":"崇信街１１６號四樓之２","OBJECTID":549206},"geometry":{"x":170755.56000000052,"y":2542292.9700000025}},{"attributes":{"ID":549234,"DIS_CODE":0,"TOWNNAME":"永康區","LI":"西橋里","LIN":"10鄰","STREET":"中華西街","SECT":" ","MAREA":" ","LANE":" ","ALLEY":" ","HOUSE_NO":"１０９號三樓之２","E_COORD97":170698.53,"N_COORD97":2546143.0499999998,"ADDRESS":"中華西街１０９號三樓之２","OBJECTID":549207},"geometry":{"x":170698.53000000212,"y":2546143.0500000007}},{"attributes":{"ID":549235,"DIS_CODE":0,"TOWNNAME":"新化區","LI":"武安里","LIN":"10鄰","STREET":"和平街","SECT":" ","MAREA":" ","LANE":" ","ALLEY":" ","HOUSE_NO":"１３１號七樓之８","E_COORD97":178910.17999999999,"N_COORD97":2548151.2599999998,"ADDRESS":"和平街１３１號七樓之８","OBJECTID":549208},"geometry":{"x":178910.18000000156,"y":2548151.2599999998}},{"attributes":{"ID":549236,"DIS_CODE":0,"TOWNNAME":"新化區","LI":"武安里","LIN":"10鄰","STREET":"和平街","SECT":" ","MAREA":" ","LANE":" ","ALLEY":" ","HOUSE_NO":"１３１號二樓之１","E_COORD97":178910.14999999999,"N_COORD97":2548151.2599999998,"ADDRESS":"和平街１３１號二樓之１","OBJECTID":549209},"geometry":{"x":178910.1500000013,"y":2548151.2599999998}},{"attributes":{"ID":549237,"DIS_CODE":0,"TOWNNAME":"新營區","LI":"忠政里","LIN":"10鄰","STREET":"中正路","SECT":" ","MAREA":" ","LANE":" ","ALLEY":" ","HOUSE_NO":"５３之６號十四樓之１","E_COORD97":180036.09,"N_COORD97":2579485.1800000002,"ADDRESS":"中正路５３之６號十四樓之１","OBJECTID":549210},"geometry":{"x":180036.08999999985,"y":2579485.1799999997}},{"attributes":{"ID":549238,"DIS_CODE":0,"TOWNNAME":"新營區","LI":"忠政里","LIN":"10鄰","STREET":"中正路","SECT":" ","MAREA":" ","LANE":" ","ALLEY":" ","HOUSE_NO":"５３之５號四樓之２","E_COORD97":180051.44,"N_COORD97":2579486.21,"ADDRESS":"中正路５３之５號四樓之２","OBJECTID":549211},"geometry":{"x":180051.44000000041,"y":2579486.2100000009}},{"attributes":{"ID":549239,"DIS_CODE":0,"TOWNNAME":"新營區","LI":"忠政里","LIN":"10鄰","STREET":"中正路","SECT":" ","MAREA":" ","LANE":" ","ALLEY":" ","HOUSE_NO":"５５號二樓","E_COORD97":180067.10999999999,"N_COORD97":2579506,"ADDRESS":"中正路５５號二樓","OBJECTID":549212},"geometry":{"x":180067.11000000034,"y":2579506.0000000019}},{"attributes":{"ID":549240,"DIS_CODE":0,"TOWNNAME":"新營區","LI":"忠政里","LIN":"10鄰","STREET":"中正路","SECT":" ","MAREA":" ","LANE":" ","ALLEY":" ","HOUSE_NO":"５３之６號三樓之２","E_COORD97":180034.97,"N_COORD97":2579485.1800000002,"ADDRESS":"中正路５３之６號三樓之２","OBJECTID":549213},"geometry":{"x":180034.96999999974,"y":2579485.1799999997}},{"attributes":{"ID":549241,"DIS_CODE":0,"TOWNNAME":"新營區","LI":"忠政里","LIN":"10鄰","STREET":"中正路","SECT":" ","MAREA":" ","LANE":" ","ALLEY":" ","HOUSE_NO":"５３之６號四樓之２","E_COORD97":180034.97,"N_COORD97":2579485.1800000002,"ADDRESS":"中正路５３之６號四樓之２","OBJECTID":549214},"geometry":{"x":180034.96999999974,"y":2579485.1799999997}},{"attributes":{"ID":549242,"DIS_CODE":0,"TOWNNAME":"新營區","LI":"忠政里","LIN":"10鄰","STREET":"中正路","SECT":" ","MAREA":" ","LANE":" ","ALLEY":" ","HOUSE_NO":"５５號十一樓之３","E_COORD97":180070.59,"N_COORD97":2579506.04,"ADDRESS":"中正路５５號十一樓之３","OBJECTID":549215},"geometry":{"x":180070.59000000078,"y":2579506.0399999991}},{"attributes":{"ID":549243,"DIS_CODE":0,"TOWNNAME":"新營區","LI":"忠政里","LIN":"10鄰","STREET":"中正路","SECT":" ","MAREA":" ","LANE":" ","ALLEY":" ","HOUSE_NO":"５５號七樓之１","E_COORD97":180069.25,"N_COORD97":2579506.04,"ADDRESS":"中正路５５號七樓之１","OBJECTID":549216},"geometry":{"x":180069.25,"y":2579506.0399999991}},{"attributes":{"ID":549244,"DIS_CODE":0,"TOWNNAME":"新營區","LI":"忠政里","LIN":"10鄰","STREET":"中正路","SECT":" ","MAREA":" ","LANE":" ","ALLEY":" ","HOUSE_NO":"５３之６號十三樓之２","E_COORD97":180036.22,"N_COORD97":2579485.1800000002,"ADDRESS":"中正路５３之６號十三樓之２","OBJECTID":549217},"geometry":{"x":180036.22000000067,"y":2579485.1799999997}},{"attributes":{"ID":549245,"DIS_CODE":0,"TOWNNAME":"新營區","LI":"永生里","LIN":"10鄰","STREET":"康樂街","SECT":" ","MAREA":" ","LANE":" ","ALLEY":" ","HOUSE_NO":"１６之２號五樓之６","E_COORD97":179970.85000000001,"N_COORD97":2577908.54,"ADDRESS":"康樂街１６之２號五樓之６","OBJECTID":549218},"geometry":{"x":179970.85000000056,"y":2577908.5399999991}},{"attributes":{"ID":549246,"DIS_CODE":0,"TOWNNAME":"新營區","LI":"忠政里","LIN":"10鄰","STREET":"中正路","SECT":" ","MAREA":" ","LANE":" ","ALLEY":" ","HOUSE_NO":"５３之１０號五樓之２","E_COORD97":180038.37,"N_COORD97":2579507.3100000001,"ADDRESS":"中正路５３之１０號五樓之２","OBJECTID":549219},"geometry":{"x":180038.37000000197,"y":2579507.3100000024}},{"attributes":{"ID":549247,"DIS_CODE":0,"TOWNNAME":"新營區","LI":"忠政里","LIN":"10鄰","STREET":"中正路","SECT":" ","MAREA":" ","LANE":" ","ALLEY":" ","HOUSE_NO":"５３之２號九樓之１","E_COORD97":180069.62,"N_COORD97":2579486.1200000001,"ADDRESS":"中正路５３之２號九樓之１","OBJECTID":549220},"geometry":{"x":180069.62000000011,"y":2579486.1200000029}},{"attributes":{"ID":549248,"DIS_CODE":0,"TOWNNAME":"歸仁區","LI":"八甲里","LIN":"10鄰","STREET":"大明街","SECT":" ","MAREA":" ","LANE":" ","ALLEY":" ","HOUSE_NO":"３號六樓之２","E_COORD97":177727.17999999999,"N_COORD97":2541923.6200000001,"ADDRESS":"大明街３號六樓之２","OBJECTID":549221},"geometry":{"x":177727.18000000063,"y":2541923.6200000029}},{"attributes":{"ID":549249,"DIS_CODE":0,"TOWNNAME":"歸仁區","LI":"八甲里","LIN":"10鄰","STREET":"大明街","SECT":" ","MAREA":" ","LANE":" ","ALLEY":" ","HOUSE_NO":"３號十三樓之１","E_COORD97":177727.39999999999,"N_COORD97":2541923.6200000001,"ADDRESS":"大明街３號十三樓之１","OBJECTID":549222},"geometry":{"x":177727.40000000037,"y":2541923.6200000029}},{"attributes":{"ID":549250,"DIS_CODE":0,"TOWNNAME":"歸仁區","LI":"八甲里","LIN":"10鄰","STREET":"大明街","SECT":" ","MAREA":" ","LANE":" ","ALLEY":" ","HOUSE_NO":"３號十一樓之３","E_COORD97":177727.42000000001,"N_COORD97":2541923.6200000001,"ADDRESS":"大明街３號十一樓之３","OBJECTID":549223},"geometry":{"x":177727.42000000086,"y":2541923.6200000029}},{"attributes":{"ID":549251,"DIS_CODE":0,"TOWNNAME":"歸仁區","LI":"八甲里","LIN":"10鄰","STREET":"中正北路","SECT":"一段","MAREA":" ","LANE":" ","ALLEY":" ","HOUSE_NO":"３９２號六樓之２","E_COORD97":177728.41,"N_COORD97":2541923.6200000001,"ADDRESS":"中正北路一段３９２號六樓之２","OBJECTID":549224},"geometry":{"x":177728.41000000015,"y":2541923.6200000029}},{"attributes":{"ID":549252,"DIS_CODE":0,"TOWNNAME":"歸仁區","LI":"八甲里","LIN":"10鄰","STREET":"中正北路","SECT":"一段","MAREA":" ","LANE":" ","ALLEY":" ","HOUSE_NO":"３９２號二樓之１","E_COORD97":177728.38,"N_COORD97":2541923.6200000001,"ADDRESS":"中正北路一段３９２號二樓之１","OBJECTID":549225},"geometry":{"x":177728.37999999989,"y":2541923.6200000029}},{"attributes":{"ID":549253,"DIS_CODE":0,"TOWNNAME":"歸仁區","LI":"八甲里","LIN":"10鄰","STREET":"中正北路","SECT":"一段","MAREA":" ","LANE":" ","ALLEY":" ","HOUSE_NO":"３９２號八樓之２","E_COORD97":177728.41,"N_COORD97":2541923.6200000001,"ADDRESS":"中正北路一段３９２號八樓之２","OBJECTID":549226},"geometry":{"x":177728.41000000015,"y":2541923.6200000029}},{"attributes":{"ID":549254,"DIS_CODE":0,"TOWNNAME":"歸仁區","LI":"八甲里","LIN":"10鄰","STREET":"大明街","SECT":" ","MAREA":" ","LANE":" ","ALLEY":" ","HOUSE_NO":"３號六樓之３","E_COORD97":177727.17000000001,"N_COORD97":2541923.6200000001,"ADDRESS":"大明街３號六樓之３","OBJECTID":549227},"geometry":{"x":177727.17000000179,"y":2541923.6200000029}},{"attributes":{"ID":549255,"DIS_CODE":0,"TOWNNAME":"歸仁區","LI":"八甲里","LIN":"10鄰","STREET":"中正北路","SECT":"一段","MAREA":" ","LANE":" ","ALLEY":" ","HOUSE_NO":"３９０號十三樓之１","E_COORD97":177728.63,"N_COORD97":2541923.6200000001,"ADDRESS":"中正北路一段３９０號十三樓之１","OBJECTID":549228},"geometry":{"x":177728.62999999989,"y":2541923.6200000029}},{"attributes":{"ID":549256,"DIS_CODE":0,"TOWNNAME":"歸仁區","LI":"八甲里","LIN":"10鄰","STREET":"中正北路","SECT":"一段","MAREA":" ","LANE":" ","ALLEY":" ","HOUSE_NO":"３９０號九樓之１","E_COORD97":177728.38,"N_COORD97":2541923.6200000001,"ADDRESS":"中正北路一段３９０號九樓之１","OBJECTID":549229},"geometry":{"x":177728.37999999989,"y":2541923.6200000029}},{"attributes":{"ID":549257,"DIS_CODE":0,"TOWNNAME":"歸仁區","LI":"八甲里","LIN":"10鄰","STREET":"大明街","SECT":" ","MAREA":" ","LANE":" ","ALLEY":" ","HOUSE_NO":"３號十樓之３","E_COORD97":177727.17000000001,"N_COORD97":2541923.6200000001,"ADDRESS":"大明街３號十樓之３","OBJECTID":549230},"geometry":{"x":177727.17000000179,"y":2541923.6200000029}},{"attributes":{"ID":549258,"DIS_CODE":0,"TOWNNAME":"歸仁區","LI":"八甲里","LIN":"10鄰","STREET":"中正北路","SECT":"一段","MAREA":" ","LANE":" ","ALLEY":" ","HOUSE_NO":"３９０號十三樓之２","E_COORD97":177728.66,"N_COORD97":2541923.6200000001,"ADDRESS":"中正北路一段３９０號十三樓之２","OBJECTID":549231},"geometry":{"x":177728.66000000015,"y":2541923.6200000029}},{"attributes":{"ID":549259,"DIS_CODE":0,"TOWNNAME":"歸仁區","LI":"八甲里","LIN":"10鄰","STREET":"中正北路","SECT":"一段","MAREA":" ","LANE":" ","ALLEY":" ","HOUSE_NO":"３９２號三樓之１","E_COORD97":177728.38,"N_COORD97":2541923.6200000001,"ADDRESS":"中正北路一段３９２號三樓之１","OBJECTID":549232},"geometry":{"x":177728.37999999989,"y":2541923.6200000029}},{"attributes":{"ID":549260,"DIS_CODE":0,"TOWNNAME":"歸仁區","LI":"八甲里","LIN":"10鄰","STREET":"中正北路","SECT":"一段","MAREA":" ","LANE":" ","ALLEY":" ","HOUSE_NO":"３９２號九樓之１","E_COORD97":177728.38,"N_COORD97":2541923.6200000001,"ADDRESS":"中正北路一段３９２號九樓之１","OBJECTID":549233},"geometry":{"x":177728.37999999989,"y":2541923.6200000029}},{"attributes":{"ID":549261,"DIS_CODE":0,"TOWNNAME":"歸仁區","LI":"八甲里","LIN":"10鄰","STREET":"大明街","SECT":" ","MAREA":" ","LANE":" ","ALLEY":" ","HOUSE_NO":"３號十二樓之２","E_COORD97":177727.42999999999,"N_COORD97":2541923.6200000001,"ADDRESS":"大明街３號十二樓之２","OBJECTID":549234},"geometry":{"x":177727.43000000063,"y":2541923.6200000029}},{"attributes":{"ID":549262,"DIS_CODE":0,"TOWNNAME":"歸仁區","LI":"八甲里","LIN":"10鄰","STREET":"中正北路","SECT":"一段","MAREA":" ","LANE":" ","ALLEY":" ","HOUSE_NO":"３９２號十二樓之３","E_COORD97":177728.64999999999,"N_COORD97":2541923.6200000001,"ADDRESS":"中正北路一段３９２號十二樓之３","OBJECTID":549235},"geometry":{"x":177728.65000000037,"y":2541923.6200000029}},{"attributes":{"ID":549263,"DIS_CODE":0,"TOWNNAME":"南區","LI":"再興里","LIN":"10鄰","STREET":"新城街","SECT":" ","MAREA":" ","LANE":" ","ALLEY":" ","HOUSE_NO":"１９號二樓","E_COORD97":167142.84,"N_COORD97":2542208.5299999998,"ADDRESS":"新城街１９號二樓","OBJECTID":549236},"geometry":{"x":167142.84000000171,"y":2542208.5299999993}},{"attributes":{"ID":549264,"DIS_CODE":0,"TOWNNAME":"玉井區","LI":"玉井里","LIN":"10鄰","STREET":"民生路","SECT":" ","MAREA":" ","LANE":" ","ALLEY":" ","HOUSE_NO":"１號一樓之１０","E_COORD97":194737.51999999999,"N_COORD97":2558179.29,"ADDRESS":"民生路１號一樓之１０","OBJECTID":549237},"geometry":{"x":194737.52000000048,"y":2558179.2899999972}},{"attributes":{"ID":549265,"DIS_CODE":0,"TOWNNAME":"玉井區","LI":"玉井里","LIN":"10鄰","STREET":"民生路","SECT":" ","MAREA":" ","LANE":" ","ALLEY":" ","HOUSE_NO":"１號一樓之１５","E_COORD97":194738.53,"N_COORD97":2558182.29,"ADDRESS":"民生路１號一樓之１５","OBJECTID":549238},"geometry":{"x":194738.53000000119,"y":2558182.2899999991}},{"attributes":{"ID":549266,"DIS_CODE":0,"TOWNNAME":"玉井區","LI":"玉井里","LIN":"10鄰","STREET":"民生路","SECT":" ","MAREA":" ","LANE":" ","ALLEY":" ","HOUSE_NO":"１號三樓之１","E_COORD97":194733.92000000001,"N_COORD97":2558169.29,"ADDRESS":"民生路１號三樓之１","OBJECTID":549239},"geometry":{"x":194733.92000000086,"y":2558169.2900000028}},{"attributes":{"ID":549267,"DIS_CODE":0,"TOWNNAME":"玉井區","LI":"玉井里","LIN":"10鄰","STREET":"民生路","SECT":" ","MAREA":" ","LANE":" ","ALLEY":" ","HOUSE_NO":"１號一樓之１９","E_COORD97":194736.95999999999,"N_COORD97":2558176.29,"ADDRESS":"民生路１號一樓之１９","OBJECTID":549240},"geometry":{"x":194736.96000000089,"y":2558176.2900000028}},{"attributes":{"ID":549268,"DIS_CODE":0,"TOWNNAME":"玉井區","LI":"玉井里","LIN":"10鄰","STREET":"民生路","SECT":" ","MAREA":" ","LANE":" ","ALLEY":" ","HOUSE_NO":"１號一樓之８","E_COORD97":194732.07000000001,"N_COORD97":2558161.29,"ADDRESS":"民生路１號一樓之８","OBJECTID":549241},"geometry":{"x":194732.0700000003,"y":2558161.2899999991}},{"attributes":{"ID":549269,"DIS_CODE":0,"TOWNNAME":"北區","LI":"安民里","LIN":"10鄰","STREET":"成功路","SECT":" ","MAREA":" ","LANE":" ","ALLEY":" ","HOUSE_NO":"４２２號三樓","E_COORD97":167816.01000000001,"N_COORD97":2544603.4500000002,"ADDRESS":"成功路４２２號三樓","OBJECTID":549242},"geometry":{"x":167816.00999999978,"y":2544603.450000003}},{"attributes":{"ID":549270,"DIS_CODE":0,"TOWNNAME":"北區","LI":"安民里","LIN":"10鄰","STREET":"成功路","SECT":" ","MAREA":" ","LANE":" ","ALLEY":" ","HOUSE_NO":"４２２號二樓","E_COORD97":167816.01000000001,"N_COORD97":2544603.4500000002,"ADDRESS":"成功路４２２號二樓","OBJECTID":549243},"geometry":{"x":167816.00999999978,"y":2544603.450000003}},{"attributes":{"ID":549271,"DIS_CODE":0,"TOWNNAME":"歸仁區","LI":"八甲里","LIN":"10鄰","STREET":"中正北路","SECT":"一段","MAREA":" ","LANE":" ","ALLEY":" ","HOUSE_NO":"３９２號五樓之３","E_COORD97":177728.39999999999,"N_COORD97":2541923.6200000001,"ADDRESS":"中正北路一段３９２號五樓之３","OBJECTID":549244},"geometry":{"x":177728.4000000013,"y":2541923.6200000029}},{"attributes":{"ID":549272,"DIS_CODE":0,"TOWNNAME":"歸仁區","LI":"八甲里","LIN":"10鄰","STREET":"大明街","SECT":" ","MAREA":" ","LANE":" ","ALLEY":" ","HOUSE_NO":"３號十樓之２","E_COORD97":177727.17999999999,"N_COORD97":2541923.6200000001,"ADDRESS":"大明街３號十樓之２","OBJECTID":549245},"geometry":{"x":177727.18000000063,"y":2541923.6200000029}},{"attributes":{"ID":549273,"DIS_CODE":0,"TOWNNAME":"歸仁區","LI":"八甲里","LIN":"10鄰","STREET":"大明街","SECT":" ","MAREA":" ","LANE":" ","ALLEY":" ","HOUSE_NO":"３號六樓之１","E_COORD97":177727.14999999999,"N_COORD97":2541923.6200000001,"ADDRESS":"大明街３號六樓之１","OBJECTID":549246},"geometry":{"x":177727.15000000037,"y":2541923.6200000029}},{"attributes":{"ID":549274,"DIS_CODE":0,"TOWNNAME":"歸仁區","LI":"八甲里","LIN":"10鄰","STREET":"中正北路","SECT":"一段","MAREA":" ","LANE":" ","ALLEY":" ","HOUSE_NO":"３９２號十一樓之５","E_COORD97":177728.66,"N_COORD97":2541923.6200000001,"ADDRESS":"中正北路一段３９２號十一樓之５","OBJECTID":549247},"geometry":{"x":177728.66000000015,"y":2541923.6200000029}},{"attributes":{"ID":549275,"DIS_CODE":0,"TOWNNAME":"歸仁區","LI":"八甲里","LIN":"10鄰","STREET":"中正北路","SECT":"一段","MAREA":" ","LANE":" ","ALLEY":" ","HOUSE_NO":"３９２號二樓之２","E_COORD97":177728.41,"N_COORD97":2541923.6200000001,"ADDRESS":"中正北路一段３９２號二樓之２","OBJECTID":549248},"geometry":{"x":177728.41000000015,"y":2541923.6200000029}},{"attributes":{"ID":549276,"DIS_CODE":0,"TOWNNAME":"歸仁區","LI":"八甲里","LIN":"10鄰","STREET":"中正北路","SECT":"一段","MAREA":" ","LANE":" ","ALLEY":" ","HOUSE_NO":"３９２號十一樓之２","E_COORD97":177728.66,"N_COORD97":2541923.6200000001,"ADDRESS":"中正北路一段３９２號十一樓之２","OBJECTID":549249},"geometry":{"x":177728.66000000015,"y":2541923.6200000029}},{"attributes":{"ID":549277,"DIS_CODE":0,"TOWNNAME":"歸仁區","LI":"八甲里","LIN":"10鄰","STREET":"中正北路","SECT":"一段","MAREA":" ","LANE":" ","ALLEY":" ","HOUSE_NO":"３９２號五樓之１","E_COORD97":177728.38,"N_COORD97":2541923.6200000001,"ADDRESS":"中正北路一段３９２號五樓之１","OBJECTID":549250},"geometry":{"x":177728.37999999989,"y":2541923.6200000029}},{"attributes":{"ID":549278,"DIS_CODE":0,"TOWNNAME":"歸仁區","LI":"八甲里","LIN":"10鄰","STREET":"中正北路","SECT":"一段","MAREA":" ","LANE":" ","ALLEY":" ","HOUSE_NO":"３９２號八樓之５","E_COORD97":177728.41,"N_COORD97":2541923.6200000001,"ADDRESS":"中正北路一段３９２號八樓之５","OBJECTID":549251},"geometry":{"x":177728.41000000015,"y":2541923.6200000029}},{"attributes":{"ID":549279,"DIS_CODE":0,"TOWNNAME":"歸仁區","LI":"八甲里","LIN":"10鄰","STREET":"大明街","SECT":" ","MAREA":" ","LANE":" ","ALLEY":" ","HOUSE_NO":"３號七樓之２","E_COORD97":177727.17999999999,"N_COORD97":2541923.6200000001,"ADDRESS":"大明街３號七樓之２","OBJECTID":549252},"geometry":{"x":177727.18000000063,"y":2541923.6200000029}},{"attributes":{"ID":549280,"DIS_CODE":0,"TOWNNAME":"歸仁區","LI":"八甲里","LIN":"10鄰","STREET":"中正北路","SECT":"一段","MAREA":" ","LANE":" ","ALLEY":" ","HOUSE_NO":"３９２號八樓之３","E_COORD97":177728.39999999999,"N_COORD97":2541923.6200000001,"ADDRESS":"中正北路一段３９２號八樓之３","OBJECTID":549253},"geometry":{"x":177728.4000000013,"y":2541923.6200000029}},{"attributes":{"ID":549281,"DIS_CODE":0,"TOWNNAME":"歸仁區","LI":"八甲里","LIN":"10鄰","STREET":"中正北路","SECT":"一段","MAREA":" ","LANE":" ","ALLEY":" ","HOUSE_NO":"３９０號六樓之１","E_COORD97":177728.38,"N_COORD97":2541923.6200000001,"ADDRESS":"中正北路一段３９０號六樓之１","OBJECTID":549254},"geometry":{"x":177728.37999999989,"y":2541923.6200000029}},{"attributes":{"ID":549282,"DIS_CODE":0,"TOWNNAME":"歸仁區","LI":"八甲里","LIN":"10鄰","STREET":"中正北路","SECT":"一段","MAREA":" ","LANE":" ","ALLEY":" ","HOUSE_NO":"３９２號二樓之３","E_COORD97":177728.39999999999,"N_COORD97":2541923.6200000001,"ADDRESS":"中正北路一段３９２號二樓之３","OBJECTID":549255},"geometry":{"x":177728.4000000013,"y":2541923.6200000029}},{"attributes":{"ID":549283,"DIS_CODE":0,"TOWNNAME":"歸仁區","LI":"八甲里","LIN":"10鄰","STREET":"大明街","SECT":" ","MAREA":" ","LANE":" ","ALLEY":" ","HOUSE_NO":"３號九樓之２","E_COORD97":177727.17999999999,"N_COORD97":2541923.6200000001,"ADDRESS":"大明街３號九樓之２","OBJECTID":549256},"geometry":{"x":177727.18000000063,"y":2541923.6200000029}},{"attributes":{"ID":549284,"DIS_CODE":0,"TOWNNAME":"歸仁區","LI":"八甲里","LIN":"10鄰","STREET":"中正北路","SECT":"一段","MAREA":" ","LANE":" ","ALLEY":" ","HOUSE_NO":"３９２號四樓之１","E_COORD97":177728.38,"N_COORD97":2541923.6200000001,"ADDRESS":"中正北路一段３９２號四樓之１","OBJECTID":549257},"geometry":{"x":177728.37999999989,"y":2541923.6200000029}},{"attributes":{"ID":549285,"DIS_CODE":0,"TOWNNAME":"歸仁區","LI":"八甲里","LIN":"10鄰","STREET":"中正北路","SECT":"一段","MAREA":" ","LANE":" ","ALLEY":" ","HOUSE_NO":"３９２號七樓之５","E_COORD97":177728.41,"N_COORD97":2541923.6200000001,"ADDRESS":"中正北路一段３９２號七樓之５","OBJECTID":549258},"geometry":{"x":177728.41000000015,"y":2541923.6200000029}},{"attributes":{"ID":549286,"DIS_CODE":0,"TOWNNAME":"歸仁區","LI":"八甲里","LIN":"10鄰","STREET":"中正北路","SECT":"一段","MAREA":" ","LANE":" ","ALLEY":" ","HOUSE_NO":"３９２號六樓之５","E_COORD97":177728.41,"N_COORD97":2541923.6200000001,"ADDRESS":"中正北路一段３９２號六樓之５","OBJECTID":549259},"geometry":{"x":177728.41000000015,"y":2541923.6200000029}},{"attributes":{"ID":549287,"DIS_CODE":0,"TOWNNAME":"歸仁區","LI":"八甲里","LIN":"10鄰","STREET":"中正北路","SECT":"一段","MAREA":" ","LANE":" ","ALLEY":" ","HOUSE_NO":"３９２號十三樓之２","E_COORD97":177728.66,"N_COORD97":2541923.6200000001,"ADDRESS":"中正北路一段３９２號十三樓之２","OBJECTID":549260},"geometry":{"x":177728.66000000015,"y":2541923.6200000029}},{"attributes":{"ID":549288,"DIS_CODE":0,"TOWNNAME":"歸仁區","LI":"八甲里","LIN":"10鄰","STREET":"中正北路","SECT":"一段","MAREA":" ","LANE":" ","ALLEY":" ","HOUSE_NO":"３９２號十一樓之１","E_COORD97":177728.63,"N_COORD97":2541923.6200000001,"ADDRESS":"中正北路一段３９２號十一樓之１","OBJECTID":549261},"geometry":{"x":177728.62999999989,"y":2541923.6200000029}},{"attributes":{"ID":549289,"DIS_CODE":0,"TOWNNAME":"歸仁區","LI":"八甲里","LIN":"10鄰","STREET":"中正北路","SECT":"一段","MAREA":" ","LANE":" ","ALLEY":" ","HOUSE_NO":"３９２號十樓之１","E_COORD97":177728.38,"N_COORD97":2541923.6200000001,"ADDRESS":"中正北路一段３９２號十樓之１","OBJECTID":549262},"geometry":{"x":177728.37999999989,"y":2541923.6200000029}},{"attributes":{"ID":549290,"DIS_CODE":0,"TOWNNAME":"新營區","LI":"忠政里","LIN":"10鄰","STREET":"中正路","SECT":" ","MAREA":" ","LANE":" ","ALLEY":" ","HOUSE_NO":"５３之６號八樓之２","E_COORD97":180034.97,"N_COORD97":2579485.1800000002,"ADDRESS":"中正路５３之６號八樓之２","OBJECTID":549263},"geometry":{"x":180034.96999999974,"y":2579485.1799999997}},{"attributes":{"ID":549291,"DIS_CODE":0,"TOWNNAME":"新營區","LI":"忠政里","LIN":"10鄰","STREET":"中正路","SECT":" ","MAREA":" ","LANE":" ","ALLEY":" ","HOUSE_NO":"５３之２號十一樓之１","E_COORD97":180070.87,"N_COORD97":2579486.1200000001,"ADDRESS":"中正路５３之２號十一樓之１","OBJECTID":549264},"geometry":{"x":180070.87000000104,"y":2579486.1200000029}},{"attributes":{"ID":549292,"DIS_CODE":0,"TOWNNAME":"新營區","LI":"忠政里","LIN":"10鄰","STREET":"中正路","SECT":" ","MAREA":" ","LANE":" ","ALLEY":" ","HOUSE_NO":"５３之５號七樓之１","E_COORD97":180050.19,"N_COORD97":2579486.21,"ADDRESS":"中正路５３之５號七樓之１","OBJECTID":549265},"geometry":{"x":180050.19000000134,"y":2579486.2100000009}},{"attributes":{"ID":549293,"DIS_CODE":0,"TOWNNAME":"新營區","LI":"忠政里","LIN":"10鄰","STREET":"中正路","SECT":" ","MAREA":" ","LANE":" ","ALLEY":" ","HOUSE_NO":"５３之８號十二樓","E_COORD97":180022.73999999999,"N_COORD97":2579496.2999999998,"ADDRESS":"中正路５３之８號十二樓","OBJECTID":549266},"geometry":{"x":180022.74000000115,"y":2579496.2999999989}},{"attributes":{"ID":549294,"DIS_CODE":0,"TOWNNAME":"新營區","LI":"忠政里","LIN":"10鄰","STREET":"中正路","SECT":" ","MAREA":" ","LANE":" ","ALLEY":" ","HOUSE_NO":"５３之６號十四樓之２","E_COORD97":180036.22,"N_COORD97":2579485.1800000002,"ADDRESS":"中正路５３之６號十四樓之２","OBJECTID":549267},"geometry":{"x":180036.22000000067,"y":2579485.1799999997}},{"attributes":{"ID":549295,"DIS_CODE":0,"TOWNNAME":"新營區","LI":"忠政里","LIN":"10鄰","STREET":"中正路","SECT":" ","MAREA":" ","LANE":" ","ALLEY":" ","HOUSE_NO":"５３之２號十三樓之１","E_COORD97":180070.87,"N_COORD97":2579486.1200000001,"ADDRESS":"中正路５３之２號十三樓之１","OBJECTID":549268},"geometry":{"x":180070.87000000104,"y":2579486.1200000029}},{"attributes":{"ID":549296,"DIS_CODE":0,"TOWNNAME":"新營區","LI":"永生里","LIN":"10鄰","STREET":"康樂街","SECT":" ","MAREA":" ","LANE":" ","ALLEY":" ","HOUSE_NO":"１６之２號五樓之８","E_COORD97":179971.29999999999,"N_COORD97":2577908.54,"ADDRESS":"康樂街１６之２號五樓之８","OBJECTID":549269},"geometry":{"x":179971.30000000075,"y":2577908.5399999991}},{"attributes":{"ID":549297,"DIS_CODE":0,"TOWNNAME":"新營區","LI":"忠政里","LIN":"10鄰","STREET":"中正路","SECT":" ","MAREA":" ","LANE":" ","ALLEY":" ","HOUSE_NO":"５３之２號四樓之３","E_COORD97":180069.70999999999,"N_COORD97":2579486.1200000001,"ADDRESS":"中正路５３之２號四樓之３","OBJECTID":549270},"geometry":{"x":180069.71000000183,"y":2579486.1200000029}},{"attributes":{"ID":549298,"DIS_CODE":0,"TOWNNAME":"新營區","LI":"忠政里","LIN":"10鄰","STREET":"中正路","SECT":" ","MAREA":" ","LANE":" ","ALLEY":" ","HOUSE_NO":"５５號十一樓之２","E_COORD97":180070.63,"N_COORD97":2579506.04,"ADDRESS":"中正路５５號十一樓之２","OBJECTID":549271},"geometry":{"x":180070.63000000082,"y":2579506.0399999991}},{"attributes":{"ID":549299,"DIS_CODE":0,"TOWNNAME":"新營區","LI":"忠政里","LIN":"10鄰","STREET":"中正路","SECT":" ","MAREA":" ","LANE":" ","ALLEY":" ","HOUSE_NO":"５３之６號七樓之２","E_COORD97":180034.97,"N_COORD97":2579485.1800000002,"ADDRESS":"中正路５３之６號七樓之２","OBJECTID":549272},"geometry":{"x":180034.96999999974,"y":2579485.1799999997}},{"attributes":{"ID":549300,"DIS_CODE":0,"TOWNNAME":"新營區","LI":"永生里","LIN":"10鄰","STREET":"康樂街","SECT":" ","MAREA":" ","LANE":" ","ALLEY":" ","HOUSE_NO":"１６之２號六樓之６","E_COORD97":179970.85000000001,"N_COORD97":2577908.54,"ADDRESS":"康樂街１６之２號六樓之６","OBJECTID":549273},"geometry":{"x":179970.85000000056,"y":2577908.5399999991}},{"attributes":{"ID":549301,"DIS_CODE":0,"TOWNNAME":"新營區","LI":"忠政里","LIN":"10鄰","STREET":"中正路","SECT":" ","MAREA":" ","LANE":" ","ALLEY":" ","HOUSE_NO":"５３之２號五樓之１","E_COORD97":180069.62,"N_COORD97":2579486.1200000001,"ADDRESS":"中正路５３之２號五樓之１","OBJECTID":549274},"geometry":{"x":180069.62000000011,"y":2579486.1200000029}},{"attributes":{"ID":549302,"DIS_CODE":0,"TOWNNAME":"新營區","LI":"忠政里","LIN":"10鄰","STREET":"中正路","SECT":" ","MAREA":" ","LANE":" ","ALLEY":" ","HOUSE_NO":"５３之２號十一樓之２","E_COORD97":180071,"N_COORD97":2579486.1200000001,"ADDRESS":"中正路５３之２號十一樓之２","OBJECTID":549275},"geometry":{"x":180071,"y":2579486.1200000029}},{"attributes":{"ID":549303,"DIS_CODE":0,"TOWNNAME":"新營區","LI":"忠政里","LIN":"10鄰","STREET":"中正路","SECT":" ","MAREA":" ","LANE":" ","ALLEY":" ","HOUSE_NO":"５５號六樓之３","E_COORD97":180069.34,"N_COORD97":2579506.04,"ADDRESS":"中正路５５號六樓之３","OBJECTID":549276},"geometry":{"x":180069.34000000078,"y":2579506.0399999991}},{"attributes":{"ID":549304,"DIS_CODE":0,"TOWNNAME":"新營區","LI":"忠政里","LIN":"10鄰","STREET":"中正路","SECT":" ","MAREA":" ","LANE":" ","ALLEY":" ","HOUSE_NO":"５３之６號九樓之１","E_COORD97":180034.84,"N_COORD97":2579485.1800000002,"ADDRESS":"中正路５３之６號九樓之１","OBJECTID":549277},"geometry":{"x":180034.84000000171,"y":2579485.1799999997}},{"attributes":{"ID":549305,"DIS_CODE":0,"TOWNNAME":"新營區","LI":"忠政里","LIN":"10鄰","STREET":"中正路","SECT":" ","MAREA":" ","LANE":" ","ALLEY":" ","HOUSE_NO":"５３之５號十一樓之１","E_COORD97":180051.44,"N_COORD97":2579486.21,"ADDRESS":"中正路５３之５號十一樓之１","OBJECTID":549278},"geometry":{"x":180051.44000000041,"y":2579486.2100000009}},{"attributes":{"ID":549306,"DIS_CODE":0,"TOWNNAME":"新營區","LI":"忠政里","LIN":"10鄰","STREET":"中正路","SECT":" ","MAREA":" ","LANE":" ","ALLEY":" ","HOUSE_NO":"５３之５號六樓之１","E_COORD97":180051.44,"N_COORD97":2579486.21,"ADDRESS":"中正路５３之５號六樓之１","OBJECTID":549279},"geometry":{"x":180051.44000000041,"y":2579486.2100000009}},{"attributes":{"ID":549307,"DIS_CODE":0,"TOWNNAME":"新營區","LI":"忠政里","LIN":"10鄰","STREET":"中正路","SECT":" ","MAREA":" ","LANE":" ","ALLEY":" ","HOUSE_NO":"５５號六樓之２","E_COORD97":180069.38,"N_COORD97":2579506.04,"ADDRESS":"中正路５５號六樓之２","OBJECTID":549280},"geometry":{"x":180069.37999999989,"y":2579506.0399999991}},{"attributes":{"ID":549308,"DIS_CODE":0,"TOWNNAME":"新營區","LI":"忠政里","LIN":"10鄰","STREET":"中正路","SECT":" ","MAREA":" ","LANE":" ","ALLEY":" ","HOUSE_NO":"５３之２號八樓之２","E_COORD97":180069.75,"N_COORD97":2579486.1200000001,"ADDRESS":"中正路５３之２號八樓之２","OBJECTID":549281},"geometry":{"x":180069.75000000093,"y":2579486.1200000029}},{"attributes":{"ID":549309,"DIS_CODE":0,"TOWNNAME":"新營區","LI":"忠政里","LIN":"10鄰","STREET":"中正路","SECT":" ","MAREA":" ","LANE":" ","ALLEY":" ","HOUSE_NO":"５３之６號十樓之２","E_COORD97":180034.97,"N_COORD97":2579485.1800000002,"ADDRESS":"中正路５３之６號十樓之２","OBJECTID":549282},"geometry":{"x":180034.96999999974,"y":2579485.1799999997}},{"attributes":{"ID":549310,"DIS_CODE":0,"TOWNNAME":"新營區","LI":"忠政里","LIN":"10鄰","STREET":"中正路","SECT":" ","MAREA":" ","LANE":" ","ALLEY":" ","HOUSE_NO":"５３之５號五樓之１","E_COORD97":180051.44,"N_COORD97":2579486.21,"ADDRESS":"中正路５３之５號五樓之１","OBJECTID":549283},"geometry":{"x":180051.44000000041,"y":2579486.2100000009}},{"attributes":{"ID":549311,"DIS_CODE":0,"TOWNNAME":"新營區","LI":"忠政里","LIN":"10鄰","STREET":"中正路","SECT":" ","MAREA":" ","LANE":" ","ALLEY":" ","HOUSE_NO":"５５號五樓之１","E_COORD97":180069.25,"N_COORD97":2579506.04,"ADDRESS":"中正路５５號五樓之１","OBJECTID":549284},"geometry":{"x":180069.25,"y":2579506.0399999991}},{"attributes":{"ID":549312,"DIS_CODE":0,"TOWNNAME":"中西區","LI":"三合里","LIN":"10鄰","STREET":"信義街","SECT":" ","MAREA":" ","LANE":" ","ALLEY":" ","HOUSE_NO":"４８號","E_COORD97":167572.73999999999,"N_COORD97":2544492.1800000002,"ADDRESS":"信義街４８號","OBJECTID":549285},"geometry":{"x":167572.73999999929,"y":2544492.1800000016}},{"attributes":{"ID":549313,"DIS_CODE":0,"TOWNNAME":"安南區","LI":"幸福里","LIN":"21鄰","STREET":"國安街","SECT":" ","MAREA":" ","LANE":" ","ALLEY":" ","HOUSE_NO":"１８３號","E_COORD97":166688,"N_COORD97":2546935.23,"ADDRESS":"國安街１８３號","OBJECTID":549286},"geometry":{"x":166688.00000000093,"y":2546935.2299999986}},{"attributes":{"ID":549314,"DIS_CODE":0,"TOWNNAME":"南區","LI":"再興里","LIN":"10鄰","STREET":"新城街","SECT":" ","MAREA":" ","LANE":" ","ALLEY":" ","HOUSE_NO":"１９號三樓","E_COORD97":167142.84,"N_COORD97":2542208.5299999998,"ADDRESS":"新城街１９號三樓","OBJECTID":549287},"geometry":{"x":167142.84000000171,"y":2542208.5299999993}},{"attributes":{"ID":549315,"DIS_CODE":0,"TOWNNAME":"南區","LI":"再興里","LIN":"10鄰","STREET":"新城街","SECT":" ","MAREA":" ","LANE":" ","ALLEY":" ","HOUSE_NO":"１９號七樓","E_COORD97":167142.84,"N_COORD97":2542208.5299999998,"ADDRESS":"新城街１９號七樓","OBJECTID":549288},"geometry":{"x":167142.84000000171,"y":2542208.5299999993}},{"attributes":{"ID":549316,"DIS_CODE":0,"TOWNNAME":"東區","LI":"崇成里","LIN":"10鄰","STREET":"崇德十四街","SECT":" ","MAREA":" ","LANE":" ","ALLEY":" ","HOUSE_NO":"６１號","E_COORD97":170989.97,"N_COORD97":2541257.8199999998,"ADDRESS":"崇德十四街６１號","OBJECTID":549289},"geometry":{"x":170989.9700000016,"y":2541257.8200000003}},{"attributes":{"ID":549317,"DIS_CODE":0,"TOWNNAME":"中西區","LI":"三合里","LIN":"10鄰","STREET":"信義街","SECT":" ","MAREA":" ","LANE":" ","ALLEY":" ","HOUSE_NO":"５０號","E_COORD97":167565.82999999999,"N_COORD97":2544497.3599999999,"ADDRESS":"信義街５０號","OBJECTID":549290},"geometry":{"x":167565.83000000101,"y":2544497.3600000013}},{"attributes":{"ID":549318,"DIS_CODE":0,"TOWNNAME":"南區","LI":"新生里","LIN":"10鄰","STREET":"大同路","SECT":"二段","MAREA":" ","LANE":" ","ALLEY":" ","HOUSE_NO":"１３８號三樓之２","E_COORD97":169292.09,"N_COORD97":2542153.9300000002,"ADDRESS":"大同路二段１３８號三樓之２","OBJECTID":549291},"geometry":{"x":169292.08999999985,"y":2542153.9300000016}},{"attributes":{"ID":549319,"DIS_CODE":0,"TOWNNAME":"南區","LI":"新生里","LIN":"10鄰","STREET":"大同路","SECT":"二段","MAREA":" ","LANE":" ","ALLEY":" ","HOUSE_NO":"１３８號三樓之３","E_COORD97":169292.09,"N_COORD97":2542153.9300000002,"ADDRESS":"大同路二段１３８號三樓之３","OBJECTID":549292},"geometry":{"x":169292.08999999985,"y":2542153.9300000016}},{"attributes":{"ID":549320,"DIS_CODE":0,"TOWNNAME":"南區","LI":"新生里","LIN":"10鄰","STREET":"大同路","SECT":"二段","MAREA":" ","LANE":" ","ALLEY":" ","HOUSE_NO":"１３８號三樓之５","E_COORD97":169292.09,"N_COORD97":2542153.9300000002,"ADDRESS":"大同路二段１３８號三樓之５","OBJECTID":549293},"geometry":{"x":169292.08999999985,"y":2542153.9300000016}},{"attributes":{"ID":549321,"DIS_CODE":0,"TOWNNAME":"南區","LI":"新生里","LIN":"10鄰","STREET":"大同路","SECT":"二段","MAREA":" ","LANE":" ","ALLEY":" ","HOUSE_NO":"１３８號四樓之１","E_COORD97":169292.09,"N_COORD97":2542153.9300000002,"ADDRESS":"大同路二段１３８號四樓之１","OBJECTID":549294},"geometry":{"x":169292.08999999985,"y":2542153.9300000016}},{"attributes":{"ID":549322,"DIS_CODE":0,"TOWNNAME":"南區","LI":"新生里","LIN":"10鄰","STREET":"大同路","SECT":"二段","MAREA":" ","LANE":" ","ALLEY":" ","HOUSE_NO":"１３８號四樓之２","E_COORD97":169292.09,"N_COORD97":2542153.9300000002,"ADDRESS":"大同路二段１３８號四樓之２","OBJECTID":549295},"geometry":{"x":169292.08999999985,"y":2542153.9300000016}},{"attributes":{"ID":549323,"DIS_CODE":0,"TOWNNAME":"南區","LI":"新生里","LIN":"10鄰","STREET":"大同路","SECT":"二段","MAREA":" ","LANE":" ","ALLEY":" ","HOUSE_NO":"１３８號四樓之３","E_COORD97":169292.09,"N_COORD97":2542153.9300000002,"ADDRESS":"大同路二段１３８號四樓之３","OBJECTID":549296},"geometry":{"x":169292.08999999985,"y":2542153.9300000016}},{"attributes":{"ID":549324,"DIS_CODE":0,"TOWNNAME":"南區","LI":"新生里","LIN":"10鄰","STREET":"大同路","SECT":"二段","MAREA":" ","LANE":" ","ALLEY":" ","HOUSE_NO":"１３８號四樓之５","E_COORD97":169292.09,"N_COORD97":2542153.9300000002,"ADDRESS":"大同路二段１３８號四樓之５","OBJECTID":549297},"geometry":{"x":169292.08999999985,"y":2542153.9300000016}},{"attributes":{"ID":549325,"DIS_CODE":0,"TOWNNAME":"南區","LI":"新生里","LIN":"10鄰","STREET":"大同路","SECT":"二段","MAREA":" ","LANE":" ","ALLEY":" ","HOUSE_NO":"１３８號五樓之１","E_COORD97":169292.09,"N_COORD97":2542153.9300000002,"ADDRESS":"大同路二段１３８號五樓之１","OBJECTID":549298},"geometry":{"x":169292.08999999985,"y":2542153.9300000016}},{"attributes":{"ID":549326,"DIS_CODE":0,"TOWNNAME":"南區","LI":"新生里","LIN":"10鄰","STREET":"大同路","SECT":"二段","MAREA":" ","LANE":" ","ALLEY":" ","HOUSE_NO":"１３８號五樓之２","E_COORD97":169292.09,"N_COORD97":2542153.9300000002,"ADDRESS":"大同路二段１３８號五樓之２","OBJECTID":549299},"geometry":{"x":169292.08999999985,"y":2542153.9300000016}},{"attributes":{"ID":549327,"DIS_CODE":0,"TOWNNAME":"善化區","LI":"坐駕里","LIN":"17鄰","STREET":"興華路","SECT":" ","MAREA":" ","LANE":" ","ALLEY":" ","HOUSE_NO":"２７３號","E_COORD97":177855.17000000001,"N_COORD97":2558506,"ADDRESS":"興華路２７３號","OBJECTID":549300},"geometry":{"x":177855.16999999993,"y":2558506.0000000019}},{"attributes":{"ID":549328,"DIS_CODE":0,"TOWNNAME":"南區","LI":"新生里","LIN":"10鄰","STREET":"大同路","SECT":"二段","MAREA":" ","LANE":" ","ALLEY":" ","HOUSE_NO":"１３８號五樓之３","E_COORD97":169292.09,"N_COORD97":2542153.9300000002,"ADDRESS":"大同路二段１３８號五樓之３","OBJECTID":549301},"geometry":{"x":169292.08999999985,"y":2542153.9300000016}},{"attributes":{"ID":549329,"DIS_CODE":0,"TOWNNAME":"南區","LI":"新生里","LIN":"10鄰","STREET":"大同路","SECT":"二段","MAREA":" ","LANE":" ","ALLEY":" ","HOUSE_NO":"１３８號五樓之５","E_COORD97":169292.09,"N_COORD97":2542153.9300000002,"ADDRESS":"大同路二段１３８號五樓之５","OBJECTID":549302},"geometry":{"x":169292.08999999985,"y":2542153.9300000016}},{"attributes":{"ID":549330,"DIS_CODE":0,"TOWNNAME":"南區","LI":"新生里","LIN":"10鄰","STREET":"大同路","SECT":"二段","MAREA":" ","LANE":" ","ALLEY":" ","HOUSE_NO":"１３８號六樓之１","E_COORD97":169292.09,"N_COORD97":2542153.9300000002,"ADDRESS":"大同路二段１３８號六樓之１","OBJECTID":549303},"geometry":{"x":169292.08999999985,"y":2542153.9300000016}},{"attributes":{"ID":549331,"DIS_CODE":0,"TOWNNAME":"南區","LI":"新生里","LIN":"10鄰","STREET":"大同路","SECT":"二段","MAREA":" ","LANE":" ","ALLEY":" ","HOUSE_NO":"１３８號六樓之２","E_COORD97":169292.09,"N_COORD97":2542153.9300000002,"ADDRESS":"大同路二段１３８號六樓之２","OBJECTID":549304},"geometry":{"x":169292.08999999985,"y":2542153.9300000016}},{"attributes":{"ID":549332,"DIS_CODE":0,"TOWNNAME":"東區","LI":"崇成里","LIN":"10鄰","STREET":"崇德十四街","SECT":" ","MAREA":" ","LANE":" ","ALLEY":" ","HOUSE_NO":"５３號","E_COORD97":170960.32999999999,"N_COORD97":2541256.96,"ADDRESS":"崇德十四街５３號","OBJECTID":549305},"geometry":{"x":170960.33000000007,"y":2541256.9600000028}},{"attributes":{"ID":549333,"DIS_CODE":0,"TOWNNAME":"南區","LI":"新生里","LIN":"10鄰","STREET":"大同路","SECT":"二段","MAREA":" ","LANE":" ","ALLEY":" ","HOUSE_NO":"１３８號六樓之３","E_COORD97":169292.09,"N_COORD97":2542153.9300000002,"ADDRESS":"大同路二段１３８號六樓之３","OBJECTID":549306},"geometry":{"x":169292.08999999985,"y":2542153.9300000016}},{"attributes":{"ID":549334,"DIS_CODE":0,"TOWNNAME":"南區","LI":"新生里","LIN":"10鄰","STREET":"大同路","SECT":"二段","MAREA":" ","LANE":" ","ALLEY":" ","HOUSE_NO":"１３８號六樓之５","E_COORD97":169292.09,"N_COORD97":2542153.9300000002,"ADDRESS":"大同路二段１３８號六樓之５","OBJECTID":549307},"geometry":{"x":169292.08999999985,"y":2542153.9300000016}},{"attributes":{"ID":549335,"DIS_CODE":0,"TOWNNAME":"南區","LI":"新生里","LIN":"10鄰","STREET":"大同路","SECT":"二段","MAREA":" ","LANE":" ","ALLEY":" ","HOUSE_NO":"１３８號七樓之１","E_COORD97":169292.09,"N_COORD97":2542153.9300000002,"ADDRESS":"大同路二段１３８號七樓之１","OBJECTID":549308},"geometry":{"x":169292.08999999985,"y":2542153.9300000016}},{"attributes":{"ID":549336,"DIS_CODE":0,"TOWNNAME":"南區","LI":"新生里","LIN":"10鄰","STREET":"大同路","SECT":"二段","MAREA":" ","LANE":" ","ALLEY":" ","HOUSE_NO":"１３８號七樓之２","E_COORD97":169292.09,"N_COORD97":2542153.9300000002,"ADDRESS":"大同路二段１３８號七樓之２","OBJECTID":549309},"geometry":{"x":169292.08999999985,"y":2542153.9300000016}},{"attributes":{"ID":549337,"DIS_CODE":0,"TOWNNAME":"南區","LI":"新生里","LIN":"10鄰","STREET":"大同路","SECT":"二段","MAREA":" ","LANE":" ","ALLEY":" ","HOUSE_NO":"１３８號七樓之３","E_COORD97":169292.09,"N_COORD97":2542153.9300000002,"ADDRESS":"大同路二段１３８號七樓之３","OBJECTID":549310},"geometry":{"x":169292.08999999985,"y":2542153.9300000016}},{"attributes":{"ID":549338,"DIS_CODE":0,"TOWNNAME":"南區","LI":"新生里","LIN":"10鄰","STREET":"大同路","SECT":"二段","MAREA":" ","LANE":" ","ALLEY":" ","HOUSE_NO":"１３８號七樓之５","E_COORD97":169292.09,"N_COORD97":2542153.9300000002,"ADDRESS":"大同路二段１３８號七樓之５","OBJECTID":549311},"geometry":{"x":169292.08999999985,"y":2542153.9300000016}},{"attributes":{"ID":549339,"DIS_CODE":0,"TOWNNAME":"南區","LI":"新生里","LIN":"10鄰","STREET":"大同路","SECT":"二段","MAREA":" ","LANE":" ","ALLEY":" ","HOUSE_NO":"１３８號八樓之１","E_COORD97":169292.09,"N_COORD97":2542153.9300000002,"ADDRESS":"大同路二段１３８號八樓之１","OBJECTID":549312},"geometry":{"x":169292.08999999985,"y":2542153.9300000016}},{"attributes":{"ID":549340,"DIS_CODE":0,"TOWNNAME":"南區","LI":"新生里","LIN":"10鄰","STREET":"大同路","SECT":"二段","MAREA":" ","LANE":" ","ALLEY":" ","HOUSE_NO":"１３８號八樓之２","E_COORD97":169292.09,"N_COORD97":2542153.9300000002,"ADDRESS":"大同路二段１３８號八樓之２","OBJECTID":549313},"geometry":{"x":169292.08999999985,"y":2542153.9300000016}},{"attributes":{"ID":549341,"DIS_CODE":0,"TOWNNAME":"南區","LI":"新生里","LIN":"10鄰","STREET":"大同路","SECT":"二段","MAREA":" ","LANE":" ","ALLEY":" ","HOUSE_NO":"１３８號八樓之３","E_COORD97":169292.09,"N_COORD97":2542153.9300000002,"ADDRESS":"大同路二段１３８號八樓之３","OBJECTID":549314},"geometry":{"x":169292.08999999985,"y":2542153.9300000016}},{"attributes":{"ID":549342,"DIS_CODE":0,"TOWNNAME":"南區","LI":"新生里","LIN":"10鄰","STREET":"大同路","SECT":"二段","MAREA":" ","LANE":" ","ALLEY":" ","HOUSE_NO":"１３８號八樓之５","E_COORD97":169292.09,"N_COORD97":2542153.9300000002,"ADDRESS":"大同路二段１３８號八樓之５","OBJECTID":549315},"geometry":{"x":169292.08999999985,"y":2542153.9300000016}},{"attributes":{"ID":549343,"DIS_CODE":0,"TOWNNAME":"南區","LI":"新生里","LIN":"10鄰","STREET":"大同路","SECT":"二段","MAREA":" ","LANE":" ","ALLEY":" ","HOUSE_NO":"１３８號九樓之１","E_COORD97":169292.09,"N_COORD97":2542153.9300000002,"ADDRESS":"大同路二段１３８號九樓之１","OBJECTID":549316},"geometry":{"x":169292.08999999985,"y":2542153.9300000016}},{"attributes":{"ID":549344,"DIS_CODE":0,"TOWNNAME":"南區","LI":"新生里","LIN":"10鄰","STREET":"大同路","SECT":"二段","MAREA":" ","LANE":" ","ALLEY":" ","HOUSE_NO":"１３８號九樓之２","E_COORD97":169292.09,"N_COORD97":2542153.9300000002,"ADDRESS":"大同路二段１３８號九樓之２","OBJECTID":549317},"geometry":{"x":169292.08999999985,"y":2542153.9300000016}},{"attributes":{"ID":549345,"DIS_CODE":0,"TOWNNAME":"南區","LI":"新生里","LIN":"10鄰","STREET":"大同路","SECT":"二段","MAREA":" ","LANE":" ","ALLEY":" ","HOUSE_NO":"１３８號九樓之３","E_COORD97":169292.09,"N_COORD97":2542153.9300000002,"ADDRESS":"大同路二段１３８號九樓之３","OBJECTID":549318},"geometry":{"x":169292.08999999985,"y":2542153.9300000016}},{"attributes":{"ID":549346,"DIS_CODE":0,"TOWNNAME":"南區","LI":"新生里","LIN":"10鄰","STREET":"大同路","SECT":"二段","MAREA":" ","LANE":" ","ALLEY":" ","HOUSE_NO":"１３８號九樓之５","E_COORD97":169292.09,"N_COORD97":2542153.9300000002,"ADDRESS":"大同路二段１３８號九樓之５","OBJECTID":549319},"geometry":{"x":169292.08999999985,"y":2542153.9300000016}},{"attributes":{"ID":549347,"DIS_CODE":0,"TOWNNAME":"南區","LI":"新生里","LIN":"10鄰","STREET":"大同路","SECT":"二段","MAREA":" ","LANE":" ","ALLEY":" ","HOUSE_NO":"１３８號十樓之１","E_COORD97":169292.09,"N_COORD97":2542153.9300000002,"ADDRESS":"大同路二段１３８號十樓之１","OBJECTID":549320},"geometry":{"x":169292.08999999985,"y":2542153.9300000016}},{"attributes":{"ID":549348,"DIS_CODE":0,"TOWNNAME":"南區","LI":"新生里","LIN":"10鄰","STREET":"大同路","SECT":"二段","MAREA":" ","LANE":" ","ALLEY":" ","HOUSE_NO":"１３８號十樓之２","E_COORD97":169292.09,"N_COORD97":2542153.9300000002,"ADDRESS":"大同路二段１３８號十樓之２","OBJECTID":549321},"geometry":{"x":169292.08999999985,"y":2542153.9300000016}},{"attributes":{"ID":549349,"DIS_CODE":0,"TOWNNAME":"南區","LI":"新生里","LIN":"10鄰","STREET":"大同路","SECT":"二段","MAREA":" ","LANE":" ","ALLEY":" ","HOUSE_NO":"１３８號十樓之３","E_COORD97":169292.09,"N_COORD97":2542153.9300000002,"ADDRESS":"大同路二段１３８號十樓之３","OBJECTID":549322},"geometry":{"x":169292.08999999985,"y":2542153.9300000016}},{"attributes":{"ID":549350,"DIS_CODE":0,"TOWNNAME":"南區","LI":"新生里","LIN":"10鄰","STREET":"大同路","SECT":"二段","MAREA":" ","LANE":" ","ALLEY":" ","HOUSE_NO":"１３８號十樓之５","E_COORD97":169292.09,"N_COORD97":2542153.9300000002,"ADDRESS":"大同路二段１３８號十樓之５","OBJECTID":549323},"geometry":{"x":169292.08999999985,"y":2542153.9300000016}},{"attributes":{"ID":549351,"DIS_CODE":0,"TOWNNAME":"南區","LI":"新生里","LIN":"10鄰","STREET":"大同路","SECT":"二段","MAREA":" ","LANE":" ","ALLEY":" ","HOUSE_NO":"１３８號十一樓之１","E_COORD97":169292.09,"N_COORD97":2542153.9300000002,"ADDRESS":"大同路二段１３８號十一樓之１","OBJECTID":549324},"geometry":{"x":169292.08999999985,"y":2542153.9300000016}},{"attributes":{"ID":549352,"DIS_CODE":0,"TOWNNAME":"南區","LI":"新生里","LIN":"10鄰","STREET":"大同路","SECT":"二段","MAREA":" ","LANE":" ","ALLEY":" ","HOUSE_NO":"１３８號十一樓之２","E_COORD97":169292.09,"N_COORD97":2542153.9300000002,"ADDRESS":"大同路二段１３８號十一樓之２","OBJECTID":549325},"geometry":{"x":169292.08999999985,"y":2542153.9300000016}},{"attributes":{"ID":549353,"DIS_CODE":0,"TOWNNAME":"南區","LI":"新生里","LIN":"10鄰","STREET":"大同路","SECT":"二段","MAREA":" ","LANE":" ","ALLEY":" ","HOUSE_NO":"１３８號十一樓之３","E_COORD97":169292.09,"N_COORD97":2542153.9300000002,"ADDRESS":"大同路二段１３８號十一樓之３","OBJECTID":549326},"geometry":{"x":169292.08999999985,"y":2542153.9300000016}},{"attributes":{"ID":549354,"DIS_CODE":0,"TOWNNAME":"南區","LI":"新生里","LIN":"10鄰","STREET":"大同路","SECT":"二段","MAREA":" ","LANE":" ","ALLEY":" ","HOUSE_NO":"１３８號十一樓之５","E_COORD97":169292.09,"N_COORD97":2542153.9300000002,"ADDRESS":"大同路二段１３８號十一樓之５","OBJECTID":549327},"geometry":{"x":169292.08999999985,"y":2542153.9300000016}},{"attributes":{"ID":549355,"DIS_CODE":0,"TOWNNAME":"南區","LI":"新生里","LIN":"10鄰","STREET":"大同路","SECT":"二段","MAREA":" ","LANE":" ","ALLEY":" ","HOUSE_NO":"１３８號十二樓之１","E_COORD97":169292.09,"N_COORD97":2542153.9300000002,"ADDRESS":"大同路二段１３８號十二樓之１","OBJECTID":549328},"geometry":{"x":169292.08999999985,"y":2542153.9300000016}},{"attributes":{"ID":549356,"DIS_CODE":0,"TOWNNAME":"南區","LI":"新生里","LIN":"10鄰","STREET":"大同路","SECT":"二段","MAREA":" ","LANE":" ","ALLEY":" ","HOUSE_NO":"１３８號十二樓之２","E_COORD97":169292.09,"N_COORD97":2542153.9300000002,"ADDRESS":"大同路二段１３８號十二樓之２","OBJECTID":549329},"geometry":{"x":169292.08999999985,"y":2542153.9300000016}},{"attributes":{"ID":549357,"DIS_CODE":0,"TOWNNAME":"南區","LI":"新生里","LIN":"10鄰","STREET":"大同路","SECT":"二段","MAREA":" ","LANE":" ","ALLEY":" ","HOUSE_NO":"１３８號十二樓之３","E_COORD97":169292.09,"N_COORD97":2542153.9300000002,"ADDRESS":"大同路二段１３８號十二樓之３","OBJECTID":549330},"geometry":{"x":169292.08999999985,"y":2542153.9300000016}},{"attributes":{"ID":549358,"DIS_CODE":0,"TOWNNAME":"南區","LI":"新生里","LIN":"10鄰","STREET":"大同路","SECT":"二段","MAREA":" ","LANE":" ","ALLEY":" ","HOUSE_NO":"１３８號十二樓之５","E_COORD97":169292.09,"N_COORD97":2542153.9300000002,"ADDRESS":"大同路二段１３８號十二樓之５","OBJECTID":549331},"geometry":{"x":169292.08999999985,"y":2542153.9300000016}},{"attributes":{"ID":549359,"DIS_CODE":0,"TOWNNAME":"南區","LI":"新生里","LIN":"10鄰","STREET":"大同路","SECT":"二段","MAREA":" ","LANE":" ","ALLEY":" ","HOUSE_NO":"１４６號二樓","E_COORD97":169312.73000000001,"N_COORD97":2542115.8700000001,"ADDRESS":"大同路二段１４６號二樓","OBJECTID":549332},"geometry":{"x":169312.73000000138,"y":2542115.870000001}},{"attributes":{"ID":549360,"DIS_CODE":0,"TOWNNAME":"南區","LI":"新生里","LIN":"10鄰","STREET":"大同路","SECT":"二段","MAREA":" ","LANE":" ","ALLEY":" ","HOUSE_NO":"１４６號十三樓之１","E_COORD97":169312.73000000001,"N_COORD97":2542115.8700000001,"ADDRESS":"大同路二段１４６號十三樓之１","OBJECTID":549333},"geometry":{"x":169312.73000000138,"y":2542115.870000001}},{"attributes":{"ID":549361,"DIS_CODE":0,"TOWNNAME":"南區","LI":"新生里","LIN":"10鄰","STREET":"大同路","SECT":"二段","MAREA":" ","LANE":" ","ALLEY":" ","HOUSE_NO":"１４６號十三樓之２","E_COORD97":169312.73000000001,"N_COORD97":2542115.8700000001,"ADDRESS":"大同路二段１４６號十三樓之２","OBJECTID":549334},"geometry":{"x":169312.73000000138,"y":2542115.870000001}},{"attributes":{"ID":549362,"DIS_CODE":0,"TOWNNAME":"南區","LI":"新生里","LIN":"10鄰","STREET":"大同路","SECT":"二段","MAREA":" ","LANE":" ","ALLEY":" ","HOUSE_NO":"１４６號十三樓之３","E_COORD97":169312.73000000001,"N_COORD97":2542115.8700000001,"ADDRESS":"大同路二段１４６號十三樓之３","OBJECTID":549335},"geometry":{"x":169312.73000000138,"y":2542115.870000001}},{"attributes":{"ID":549363,"DIS_CODE":0,"TOWNNAME":"南區","LI":"新生里","LIN":"10鄰","STREET":"大同路","SECT":"二段","MAREA":" ","LANE":" ","ALLEY":" ","HOUSE_NO":"１４６號十三樓之５","E_COORD97":169312.73000000001,"N_COORD97":2542115.8700000001,"ADDRESS":"大同路二段１４６號十三樓之５","OBJECTID":549336},"geometry":{"x":169312.73000000138,"y":2542115.870000001}},{"attributes":{"ID":549364,"DIS_CODE":0,"TOWNNAME":"南區","LI":"新生里","LIN":"10鄰","STREET":"大同路","SECT":"二段","MAREA":" ","LANE":" ","ALLEY":" ","HOUSE_NO":"１４６號三樓之１","E_COORD97":169312.73000000001,"N_COORD97":2542115.8700000001,"ADDRESS":"大同路二段１４６號三樓之１","OBJECTID":549337},"geometry":{"x":169312.73000000138,"y":2542115.870000001}},{"attributes":{"ID":549365,"DIS_CODE":0,"TOWNNAME":"南區","LI":"新生里","LIN":"10鄰","STREET":"大同路","SECT":"二段","MAREA":" ","LANE":" ","ALLEY":" ","HOUSE_NO":"１４６號三樓之２","E_COORD97":169312.73000000001,"N_COORD97":2542115.8700000001,"ADDRESS":"大同路二段１４６號三樓之２","OBJECTID":549338},"geometry":{"x":169312.73000000138,"y":2542115.870000001}},{"attributes":{"ID":549366,"DIS_CODE":0,"TOWNNAME":"南區","LI":"新生里","LIN":"10鄰","STREET":"大同路","SECT":"二段","MAREA":" ","LANE":" ","ALLEY":" ","HOUSE_NO":"１４６號三樓之３","E_COORD97":169312.73000000001,"N_COORD97":2542115.8700000001,"ADDRESS":"大同路二段１４６號三樓之３","OBJECTID":549339},"geometry":{"x":169312.73000000138,"y":2542115.870000001}},{"attributes":{"ID":549367,"DIS_CODE":0,"TOWNNAME":"南區","LI":"新生里","LIN":"10鄰","STREET":"大同路","SECT":"二段","MAREA":" ","LANE":" ","ALLEY":" ","HOUSE_NO":"１４６號三樓之５","E_COORD97":169312.73000000001,"N_COORD97":2542115.8700000001,"ADDRESS":"大同路二段１４６號三樓之５","OBJECTID":549340},"geometry":{"x":169312.73000000138,"y":2542115.870000001}},{"attributes":{"ID":549368,"DIS_CODE":0,"TOWNNAME":"南區","LI":"新生里","LIN":"10鄰","STREET":"大同路","SECT":"二段","MAREA":" ","LANE":" ","ALLEY":" ","HOUSE_NO":"１４６號四樓之１","E_COORD97":169312.73000000001,"N_COORD97":2542115.8700000001,"ADDRESS":"大同路二段１４６號四樓之１","OBJECTID":549341},"geometry":{"x":169312.73000000138,"y":2542115.870000001}},{"attributes":{"ID":549369,"DIS_CODE":0,"TOWNNAME":"南區","LI":"新生里","LIN":"10鄰","STREET":"大同路","SECT":"二段","MAREA":" ","LANE":" ","ALLEY":" ","HOUSE_NO":"１４６號四樓之２","E_COORD97":169312.73000000001,"N_COORD97":2542115.8700000001,"ADDRESS":"大同路二段１４６號四樓之２","OBJECTID":549342},"geometry":{"x":169312.73000000138,"y":2542115.870000001}},{"attributes":{"ID":549370,"DIS_CODE":0,"TOWNNAME":"南區","LI":"新生里","LIN":"10鄰","STREET":"大同路","SECT":"二段","MAREA":" ","LANE":" ","ALLEY":" ","HOUSE_NO":"１４６號四樓之３","E_COORD97":169312.73000000001,"N_COORD97":2542115.8700000001,"ADDRESS":"大同路二段１４６號四樓之３","OBJECTID":549343},"geometry":{"x":169312.73000000138,"y":2542115.870000001}},{"attributes":{"ID":549371,"DIS_CODE":0,"TOWNNAME":"南區","LI":"新生里","LIN":"10鄰","STREET":"大同路","SECT":"二段","MAREA":" ","LANE":" ","ALLEY":" ","HOUSE_NO":"１４６號四樓之５","E_COORD97":169312.73000000001,"N_COORD97":2542115.8700000001,"ADDRESS":"大同路二段１４６號四樓之５","OBJECTID":549344},"geometry":{"x":169312.73000000138,"y":2542115.870000001}},{"attributes":{"ID":549372,"DIS_CODE":0,"TOWNNAME":"南區","LI":"新生里","LIN":"10鄰","STREET":"大同路","SECT":"二段","MAREA":" ","LANE":" ","ALLEY":" ","HOUSE_NO":"１４６號五樓之１","E_COORD97":169312.73000000001,"N_COORD97":2542115.8700000001,"ADDRESS":"大同路二段１４６號五樓之１","OBJECTID":549345},"geometry":{"x":169312.73000000138,"y":2542115.870000001}},{"attributes":{"ID":549373,"DIS_CODE":0,"TOWNNAME":"南區","LI":"新生里","LIN":"10鄰","STREET":"大同路","SECT":"二段","MAREA":" ","LANE":" ","ALLEY":" ","HOUSE_NO":"１４６號五樓之２","E_COORD97":169312.73000000001,"N_COORD97":2542115.8700000001,"ADDRESS":"大同路二段１４６號五樓之２","OBJECTID":549346},"geometry":{"x":169312.73000000138,"y":2542115.870000001}},{"attributes":{"ID":549374,"DIS_CODE":0,"TOWNNAME":"南區","LI":"新生里","LIN":"10鄰","STREET":"大同路","SECT":"二段","MAREA":" ","LANE":" ","ALLEY":" ","HOUSE_NO":"１４６號五樓之３","E_COORD97":169312.73000000001,"N_COORD97":2542115.8700000001,"ADDRESS":"大同路二段１４６號五樓之３","OBJECTID":549347},"geometry":{"x":169312.73000000138,"y":2542115.870000001}},{"attributes":{"ID":549375,"DIS_CODE":0,"TOWNNAME":"南區","LI":"新生里","LIN":"10鄰","STREET":"大同路","SECT":"二段","MAREA":" ","LANE":" ","ALLEY":" ","HOUSE_NO":"１４６號五樓之５","E_COORD97":169312.73000000001,"N_COORD97":2542115.8700000001,"ADDRESS":"大同路二段１４６號五樓之５","OBJECTID":549348},"geometry":{"x":169312.73000000138,"y":2542115.870000001}},{"attributes":{"ID":549376,"DIS_CODE":0,"TOWNNAME":"南區","LI":"新生里","LIN":"10鄰","STREET":"大同路","SECT":"二段","MAREA":" ","LANE":" ","ALLEY":" ","HOUSE_NO":"１４６號六樓之１","E_COORD97":169312.73000000001,"N_COORD97":2542115.8700000001,"ADDRESS":"大同路二段１４６號六樓之１","OBJECTID":549349},"geometry":{"x":169312.73000000138,"y":2542115.870000001}},{"attributes":{"ID":549377,"DIS_CODE":0,"TOWNNAME":"南區","LI":"新生里","LIN":"10鄰","STREET":"大同路","SECT":"二段","MAREA":" ","LANE":" ","ALLEY":" ","HOUSE_NO":"１４６號六樓之２","E_COORD97":169312.73000000001,"N_COORD97":2542115.8700000001,"ADDRESS":"大同路二段１４６號六樓之２","OBJECTID":549350},"geometry":{"x":169312.73000000138,"y":2542115.870000001}},{"attributes":{"ID":549378,"DIS_CODE":0,"TOWNNAME":"南區","LI":"新生里","LIN":"10鄰","STREET":"大同路","SECT":"二段","MAREA":" ","LANE":" ","ALLEY":" ","HOUSE_NO":"１４６號六樓之３","E_COORD97":169312.73000000001,"N_COORD97":2542115.8700000001,"ADDRESS":"大同路二段１４６號六樓之３","OBJECTID":549351},"geometry":{"x":169312.73000000138,"y":2542115.870000001}},{"attributes":{"ID":549379,"DIS_CODE":0,"TOWNNAME":"南區","LI":"新生里","LIN":"10鄰","STREET":"大同路","SECT":"二段","MAREA":" ","LANE":" ","ALLEY":" ","HOUSE_NO":"１４６號六樓之５","E_COORD97":169312.73000000001,"N_COORD97":2542115.8700000001,"ADDRESS":"大同路二段１４６號六樓之５","OBJECTID":549352},"geometry":{"x":169312.73000000138,"y":2542115.870000001}},{"attributes":{"ID":549380,"DIS_CODE":0,"TOWNNAME":"南區","LI":"新生里","LIN":"10鄰","STREET":"大同路","SECT":"二段","MAREA":" ","LANE":" ","ALLEY":" ","HOUSE_NO":"１４６號七樓之１","E_COORD97":169312.73000000001,"N_COORD97":2542115.8700000001,"ADDRESS":"大同路二段１４６號七樓之１","OBJECTID":549353},"geometry":{"x":169312.73000000138,"y":2542115.870000001}},{"attributes":{"ID":549381,"DIS_CODE":0,"TOWNNAME":"南區","LI":"新生里","LIN":"10鄰","STREET":"大同路","SECT":"二段","MAREA":" ","LANE":" ","ALLEY":" ","HOUSE_NO":"１４６號七樓之２","E_COORD97":169312.73000000001,"N_COORD97":2542115.8700000001,"ADDRESS":"大同路二段１４６號七樓之２","OBJECTID":549354},"geometry":{"x":169312.73000000138,"y":2542115.870000001}},{"attributes":{"ID":549382,"DIS_CODE":0,"TOWNNAME":"南區","LI":"新生里","LIN":"10鄰","STREET":"大同路","SECT":"二段","MAREA":" ","LANE":" ","ALLEY":" ","HOUSE_NO":"１４６號七樓之３","E_COORD97":169312.73000000001,"N_COORD97":2542115.8700000001,"ADDRESS":"大同路二段１４６號七樓之３","OBJECTID":549355},"geometry":{"x":169312.73000000138,"y":2542115.870000001}},{"attributes":{"ID":549383,"DIS_CODE":0,"TOWNNAME":"南區","LI":"新生里","LIN":"10鄰","STREET":"大同路","SECT":"二段","MAREA":" ","LANE":" ","ALLEY":" ","HOUSE_NO":"１４６號七樓之５","E_COORD97":169312.73000000001,"N_COORD97":2542115.8700000001,"ADDRESS":"大同路二段１４６號七樓之５","OBJECTID":549356},"geometry":{"x":169312.73000000138,"y":2542115.870000001}},{"attributes":{"ID":549384,"DIS_CODE":0,"TOWNNAME":"南區","LI":"新生里","LIN":"10鄰","STREET":"大同路","SECT":"二段","MAREA":" ","LANE":" ","ALLEY":" ","HOUSE_NO":"１４６號八樓之１","E_COORD97":169312.73000000001,"N_COORD97":2542115.8700000001,"ADDRESS":"大同路二段１４６號八樓之１","OBJECTID":549357},"geometry":{"x":169312.73000000138,"y":2542115.870000001}},{"attributes":{"ID":549385,"DIS_CODE":0,"TOWNNAME":"南區","LI":"新生里","LIN":"10鄰","STREET":"大同路","SECT":"二段","MAREA":" ","LANE":" ","ALLEY":" ","HOUSE_NO":"１４６號八樓之２","E_COORD97":169312.73000000001,"N_COORD97":2542115.8700000001,"ADDRESS":"大同路二段１４６號八樓之２","OBJECTID":549358},"geometry":{"x":169312.73000000138,"y":2542115.870000001}},{"attributes":{"ID":549386,"DIS_CODE":0,"TOWNNAME":"南區","LI":"新生里","LIN":"10鄰","STREET":"大同路","SECT":"二段","MAREA":" ","LANE":" ","ALLEY":" ","HOUSE_NO":"１４６號八樓之３","E_COORD97":169312.73000000001,"N_COORD97":2542115.8700000001,"ADDRESS":"大同路二段１４６號八樓之３","OBJECTID":549359},"geometry":{"x":169312.73000000138,"y":2542115.870000001}},{"attributes":{"ID":549387,"DIS_CODE":0,"TOWNNAME":"南區","LI":"新生里","LIN":"10鄰","STREET":"大同路","SECT":"二段","MAREA":" ","LANE":" ","ALLEY":" ","HOUSE_NO":"１４６號八樓之５","E_COORD97":169312.73000000001,"N_COORD97":2542115.8700000001,"ADDRESS":"大同路二段１４６號八樓之５","OBJECTID":549360},"geometry":{"x":169312.73000000138,"y":2542115.870000001}},{"attributes":{"ID":549388,"DIS_CODE":0,"TOWNNAME":"南區","LI":"新生里","LIN":"10鄰","STREET":"大同路","SECT":"二段","MAREA":" ","LANE":" ","ALLEY":" ","HOUSE_NO":"１４６號九樓之１","E_COORD97":169312.73000000001,"N_COORD97":2542115.8700000001,"ADDRESS":"大同路二段１４６號九樓之１","OBJECTID":549361},"geometry":{"x":169312.73000000138,"y":2542115.870000001}},{"attributes":{"ID":549389,"DIS_CODE":0,"TOWNNAME":"南區","LI":"新生里","LIN":"10鄰","STREET":"大同路","SECT":"二段","MAREA":" ","LANE":" ","ALLEY":" ","HOUSE_NO":"１４６號九樓之２","E_COORD97":169312.73000000001,"N_COORD97":2542115.8700000001,"ADDRESS":"大同路二段１４６號九樓之２","OBJECTID":549362},"geometry":{"x":169312.73000000138,"y":2542115.870000001}},{"attributes":{"ID":549390,"DIS_CODE":0,"TOWNNAME":"南區","LI":"新生里","LIN":"10鄰","STREET":"大同路","SECT":"二段","MAREA":" ","LANE":" ","ALLEY":" ","HOUSE_NO":"１４６號九樓之３","E_COORD97":169312.73000000001,"N_COORD97":2542115.8700000001,"ADDRESS":"大同路二段１４６號九樓之３","OBJECTID":549363},"geometry":{"x":169312.73000000138,"y":2542115.870000001}},{"attributes":{"ID":549391,"DIS_CODE":0,"TOWNNAME":"南區","LI":"新生里","LIN":"10鄰","STREET":"大同路","SECT":"二段","MAREA":" ","LANE":" ","ALLEY":" ","HOUSE_NO":"１４６號九樓之５","E_COORD97":169312.73000000001,"N_COORD97":2542115.8700000001,"ADDRESS":"大同路二段１４６號九樓之５","OBJECTID":549364},"geometry":{"x":169312.73000000138,"y":2542115.870000001}},{"attributes":{"ID":549392,"DIS_CODE":0,"TOWNNAME":"南區","LI":"新生里","LIN":"10鄰","STREET":"大同路","SECT":"二段","MAREA":" ","LANE":" ","ALLEY":" ","HOUSE_NO":"１４６號十樓之１","E_COORD97":169312.73000000001,"N_COORD97":2542115.8700000001,"ADDRESS":"大同路二段１４６號十樓之１","OBJECTID":549365},"geometry":{"x":169312.73000000138,"y":2542115.870000001}},{"attributes":{"ID":549393,"DIS_CODE":0,"TOWNNAME":"南區","LI":"新生里","LIN":"10鄰","STREET":"大同路","SECT":"二段","MAREA":" ","LANE":" ","ALLEY":" ","HOUSE_NO":"１４６號十樓之２","E_COORD97":169312.73000000001,"N_COORD97":2542115.8700000001,"ADDRESS":"大同路二段１４６號十樓之２","OBJECTID":549366},"geometry":{"x":169312.73000000138,"y":2542115.870000001}},{"attributes":{"ID":549394,"DIS_CODE":0,"TOWNNAME":"南區","LI":"新生里","LIN":"10鄰","STREET":"大同路","SECT":"二段","MAREA":" ","LANE":" ","ALLEY":" ","HOUSE_NO":"１４６號十樓之３","E_COORD97":169312.73000000001,"N_COORD97":2542115.8700000001,"ADDRESS":"大同路二段１４６號十樓之３","OBJECTID":549367},"geometry":{"x":169312.73000000138,"y":2542115.870000001}},{"attributes":{"ID":549395,"DIS_CODE":0,"TOWNNAME":"南區","LI":"新生里","LIN":"10鄰","STREET":"大同路","SECT":"二段","MAREA":" ","LANE":" ","ALLEY":" ","HOUSE_NO":"１４６號十樓之５","E_COORD97":169312.73000000001,"N_COORD97":2542115.8700000001,"ADDRESS":"大同路二段１４６號十樓之５","OBJECTID":549368},"geometry":{"x":169312.73000000138,"y":2542115.870000001}},{"attributes":{"ID":549396,"DIS_CODE":0,"TOWNNAME":"南區","LI":"新生里","LIN":"10鄰","STREET":"大同路","SECT":"二段","MAREA":" ","LANE":" ","ALLEY":" ","HOUSE_NO":"１４６號十一樓之１","E_COORD97":169312.73000000001,"N_COORD97":2542115.8700000001,"ADDRESS":"大同路二段１４６號十一樓之１","OBJECTID":549369},"geometry":{"x":169312.73000000138,"y":2542115.870000001}},{"attributes":{"ID":549397,"DIS_CODE":0,"TOWNNAME":"南區","LI":"新生里","LIN":"10鄰","STREET":"大同路","SECT":"二段","MAREA":" ","LANE":" ","ALLEY":" ","HOUSE_NO":"１４６號十一樓之２","E_COORD97":169312.73000000001,"N_COORD97":2542115.8700000001,"ADDRESS":"大同路二段１４６號十一樓之２","OBJECTID":549370},"geometry":{"x":169312.73000000138,"y":2542115.870000001}},{"attributes":{"ID":549398,"DIS_CODE":0,"TOWNNAME":"南區","LI":"新生里","LIN":"10鄰","STREET":"大同路","SECT":"二段","MAREA":" ","LANE":" ","ALLEY":" ","HOUSE_NO":"１４６號十一樓之３","E_COORD97":169312.73000000001,"N_COORD97":2542115.8700000001,"ADDRESS":"大同路二段１４６號十一樓之３","OBJECTID":549371},"geometry":{"x":169312.73000000138,"y":2542115.870000001}},{"attributes":{"ID":549399,"DIS_CODE":0,"TOWNNAME":"南區","LI":"新生里","LIN":"10鄰","STREET":"大同路","SECT":"二段","MAREA":" ","LANE":" ","ALLEY":" ","HOUSE_NO":"１４６號十一樓之５","E_COORD97":169312.73000000001,"N_COORD97":2542115.8700000001,"ADDRESS":"大同路二段１４６號十一樓之５","OBJECTID":549372},"geometry":{"x":169312.73000000138,"y":2542115.870000001}},{"attributes":{"ID":549400,"DIS_CODE":0,"TOWNNAME":"南區","LI":"新生里","LIN":"10鄰","STREET":"大同路","SECT":"二段","MAREA":" ","LANE":" ","ALLEY":" ","HOUSE_NO":"１４６號十二樓之１","E_COORD97":169312.73000000001,"N_COORD97":2542115.8700000001,"ADDRESS":"大同路二段１４６號十二樓之１","OBJECTID":549373},"geometry":{"x":169312.73000000138,"y":2542115.870000001}},{"attributes":{"ID":549401,"DIS_CODE":0,"TOWNNAME":"南區","LI":"新生里","LIN":"10鄰","STREET":"大同路","SECT":"二段","MAREA":" ","LANE":" ","ALLEY":" ","HOUSE_NO":"１４６號十二樓之２","E_COORD97":169312.73000000001,"N_COORD97":2542115.8700000001,"ADDRESS":"大同路二段１４６號十二樓之２","OBJECTID":549374},"geometry":{"x":169312.73000000138,"y":2542115.870000001}},{"attributes":{"ID":549402,"DIS_CODE":0,"TOWNNAME":"南區","LI":"新生里","LIN":"10鄰","STREET":"大同路","SECT":"二段","MAREA":" ","LANE":" ","ALLEY":" ","HOUSE_NO":"１４６號十二樓之３","E_COORD97":169312.73000000001,"N_COORD97":2542115.8700000001,"ADDRESS":"大同路二段１４６號十二樓之３","OBJECTID":549375},"geometry":{"x":169312.73000000138,"y":2542115.870000001}},{"attributes":{"ID":549403,"DIS_CODE":0,"TOWNNAME":"南區","LI":"新生里","LIN":"10鄰","STREET":"大同路","SECT":"二段","MAREA":" ","LANE":" ","ALLEY":" ","HOUSE_NO":"１４６號十二樓之５","E_COORD97":169312.73000000001,"N_COORD97":2542115.8700000001,"ADDRESS":"大同路二段１４６號十二樓之５","OBJECTID":549376},"geometry":{"x":169312.73000000138,"y":2542115.870000001}},{"attributes":{"ID":549404,"DIS_CODE":0,"TOWNNAME":"善化區","LI":"文昌里","LIN":"13鄰","STREET":"大信路","SECT":" ","MAREA":" ","LANE":" ","ALLEY":" ","HOUSE_NO":"２６號","E_COORD97":177534.47,"N_COORD97":2558868.75,"ADDRESS":"大信路２６號","OBJECTID":549377},"geometry":{"x":177534.46999999974,"y":2558868.7499999981}},{"attributes":{"ID":549405,"DIS_CODE":0,"TOWNNAME":"安南區","LI":"安順里","LIN":"15鄰","STREET":"育安街","SECT":" ","MAREA":" ","LANE":" ","ALLEY":" ","HOUSE_NO":"２０７號","E_COORD97":169568.29000000001,"N_COORD97":2550081.98,"ADDRESS":"育安街２０７號","OBJECTID":549378},"geometry":{"x":169568.29000000097,"y":2550081.9800000004}},{"attributes":{"ID":549406,"DIS_CODE":0,"TOWNNAME":"安南區","LI":"安順里","LIN":"15鄰","STREET":"育安街","SECT":" ","MAREA":" ","LANE":" ","ALLEY":" ","HOUSE_NO":"２０９號","E_COORD97":169567.97,"N_COORD97":2550086.1299999999,"ADDRESS":"育安街２０９號","OBJECTID":549379},"geometry":{"x":169567.97000000067,"y":2550086.129999999}},{"attributes":{"ID":549407,"DIS_CODE":0,"TOWNNAME":"安南區","LI":"總頭里","LIN":"1鄰","STREET":"長溪路","SECT":"二段","MAREA":" ","LANE":" ","ALLEY":" ","HOUSE_NO":"４６８號","E_COORD97":168271.67999999999,"N_COORD97":2550364.5,"ADDRESS":"長溪路二段４６８號","OBJECTID":549380},"geometry":{"x":168271.68000000063,"y":2550364.5000000037}},{"attributes":{"ID":549408,"DIS_CODE":0,"TOWNNAME":"安南區","LI":"淵中里","LIN":"17鄰","STREET":"安中路","SECT":"三段","MAREA":" ","LANE":" ","ALLEY":" ","HOUSE_NO":"２３１號","E_COORD97":165777.81,"N_COORD97":2549839.02,"ADDRESS":"安中路三段２３１號","OBJECTID":549381},"geometry":{"x":165777.80999999959,"y":2549839.0200000014}},{"attributes":{"ID":549409,"DIS_CODE":0,"TOWNNAME":"安南區","LI":"溪頂里","LIN":"7鄰","STREET":"府安路","SECT":"四段","MAREA":" ","LANE":" ","ALLEY":" ","HOUSE_NO":"１７９號之１","E_COORD97":168695.26999999999,"N_COORD97":2547242.9300000002,"ADDRESS":"府安路四段１７９號之１","OBJECTID":549382},"geometry":{"x":168695.26999999955,"y":2547242.9300000016}},{"attributes":{"ID":549410,"DIS_CODE":0,"TOWNNAME":"麻豆區","LI":"新建里","LIN":"10鄰","STREET":"麻學路","SECT":"一段","MAREA":" ","LANE":" ","ALLEY":" ","HOUSE_NO":"５號九樓","E_COORD97":172246.32999999999,"N_COORD97":2565016.3900000001,"ADDRESS":"麻學路一段５號九樓","OBJECTID":549383},"geometry":{"x":172246.33000000101,"y":2565016.3900000025}},{"attributes":{"ID":549411,"DIS_CODE":0,"TOWNNAME":"北區","LI":"重興里","LIN":"10鄰","STREET":"東豐路","SECT":" ","MAREA":" ","LANE":" ","ALLEY":" ","HOUSE_NO":"４９１號五樓之５","E_COORD97":170843.85999999999,"N_COORD97":2544703.2000000002,"ADDRESS":"東豐路４９１號五樓之５","OBJECTID":549384},"geometry":{"x":170843.8600000022,"y":2544703.1999999993}},{"attributes":{"ID":549412,"DIS_CODE":0,"TOWNNAME":"北區","LI":"重興里","LIN":"10鄰","STREET":"東豐路","SECT":" ","MAREA":" ","LANE":" ","ALLEY":" ","HOUSE_NO":"４９１號七樓之１","E_COORD97":170843.85999999999,"N_COORD97":2544703.2000000002,"ADDRESS":"東豐路４９１號七樓之１","OBJECTID":549385},"geometry":{"x":170843.8600000022,"y":2544703.1999999993}},{"attributes":{"ID":549413,"DIS_CODE":0,"TOWNNAME":"北區","LI":"重興里","LIN":"10鄰","STREET":"東豐路","SECT":" ","MAREA":" ","LANE":" ","ALLEY":" ","HOUSE_NO":"４９１號七樓之２","E_COORD97":170843.85999999999,"N_COORD97":2544703.2000000002,"ADDRESS":"東豐路４９１號七樓之２","OBJECTID":549386},"geometry":{"x":170843.8600000022,"y":2544703.1999999993}},{"attributes":{"ID":549414,"DIS_CODE":0,"TOWNNAME":"北區","LI":"重興里","LIN":"10鄰","STREET":"東豐路","SECT":" ","MAREA":" ","LANE":" ","ALLEY":" ","HOUSE_NO":"４９１號七樓之３","E_COORD97":170843.85999999999,"N_COORD97":2544703.2000000002,"ADDRESS":"東豐路４９１號七樓之３","OBJECTID":549387},"geometry":{"x":170843.8600000022,"y":2544703.1999999993}},{"attributes":{"ID":549415,"DIS_CODE":0,"TOWNNAME":"中西區","LI":"三合里","LIN":"10鄰","STREET":"信義街","SECT":" ","MAREA":" ","LANE":" ","ALLEY":" ","HOUSE_NO":"５２號","E_COORD97":167561.89999999999,"N_COORD97":2544501.8799999999,"ADDRESS":"信義街５２號","OBJECTID":549388},"geometry":{"x":167561.9000000013,"y":2544501.8800000027}},{"attributes":{"ID":549416,"DIS_CODE":0,"TOWNNAME":"北區","LI":"重興里","LIN":"10鄰","STREET":"東豐路","SECT":" ","MAREA":" ","LANE":" ","ALLEY":" ","HOUSE_NO":"４９１號七樓之４","E_COORD97":170843.85999999999,"N_COORD97":2544703.2000000002,"ADDRESS":"東豐路４９１號七樓之４","OBJECTID":549389},"geometry":{"x":170843.8600000022,"y":2544703.1999999993}},{"attributes":{"ID":549417,"DIS_CODE":0,"TOWNNAME":"北區","LI":"重興里","LIN":"10鄰","STREET":"東豐路","SECT":" ","MAREA":" ","LANE":" ","ALLEY":" ","HOUSE_NO":"４９１號七樓之５","E_COORD97":170843.85999999999,"N_COORD97":2544703.2000000002,"ADDRESS":"東豐路４９１號七樓之５","OBJECTID":549390},"geometry":{"x":170843.8600000022,"y":2544703.1999999993}},{"attributes":{"ID":549418,"DIS_CODE":0,"TOWNNAME":"北區","LI":"重興里","LIN":"10鄰","STREET":"東豐路","SECT":" ","MAREA":" ","LANE":" ","ALLEY":" ","HOUSE_NO":"４９１號七樓之６","E_COORD97":170843.85999999999,"N_COORD97":2544703.2000000002,"ADDRESS":"東豐路４９１號七樓之６","OBJECTID":549391},"geometry":{"x":170843.8600000022,"y":2544703.1999999993}},{"attributes":{"ID":549419,"DIS_CODE":0,"TOWNNAME":"北區","LI":"重興里","LIN":"10鄰","STREET":"東豐路","SECT":" ","MAREA":" ","LANE":" ","ALLEY":" ","HOUSE_NO":"４９１號七樓之７","E_COORD97":170843.85999999999,"N_COORD97":2544703.2000000002,"ADDRESS":"東豐路４９１號七樓之７","OBJECTID":549392},"geometry":{"x":170843.8600000022,"y":2544703.1999999993}},{"attributes":{"ID":549420,"DIS_CODE":0,"TOWNNAME":"北區","LI":"重興里","LIN":"10鄰","STREET":"東豐路","SECT":" ","MAREA":" ","LANE":" ","ALLEY":" ","HOUSE_NO":"４９１號七樓之８","E_COORD97":170843.85999999999,"N_COORD97":2544703.2000000002,"ADDRESS":"東豐路４９１號七樓之８","OBJECTID":549393},"geometry":{"x":170843.8600000022,"y":2544703.1999999993}},{"attributes":{"ID":549421,"DIS_CODE":0,"TOWNNAME":"東區","LI":"崇成里","LIN":"10鄰","STREET":"崇德十四街","SECT":" ","MAREA":" ","LANE":" ","ALLEY":" ","HOUSE_NO":"６３號","E_COORD97":170996.57999999999,"N_COORD97":2541258.04,"ADDRESS":"崇德十四街６３號","OBJECTID":549394},"geometry":{"x":170996.58000000101,"y":2541258.040000001}},{"attributes":{"ID":549422,"DIS_CODE":0,"TOWNNAME":"北區","LI":"重興里","LIN":"10鄰","STREET":"東豐路","SECT":" ","MAREA":" ","LANE":" ","ALLEY":" ","HOUSE_NO":"４９１號七樓之９","E_COORD97":170843.85999999999,"N_COORD97":2544703.2000000002,"ADDRESS":"東豐路４９１號七樓之９","OBJECTID":549395},"geometry":{"x":170843.8600000022,"y":2544703.1999999993}},{"attributes":{"ID":549423,"DIS_CODE":0,"TOWNNAME":"北區","LI":"重興里","LIN":"10鄰","STREET":"東豐路","SECT":" ","MAREA":" ","LANE":" ","ALLEY":" ","HOUSE_NO":"４９１號二樓之１","E_COORD97":170843.85999999999,"N_COORD97":2544703.2000000002,"ADDRESS":"東豐路４９１號二樓之１","OBJECTID":549396},"geometry":{"x":170843.8600000022,"y":2544703.1999999993}},{"attributes":{"ID":549424,"DIS_CODE":0,"TOWNNAME":"北區","LI":"重興里","LIN":"10鄰","STREET":"東豐路","SECT":" ","MAREA":" ","LANE":" ","ALLEY":" ","HOUSE_NO":"４９１號二樓之２","E_COORD97":170843.85999999999,"N_COORD97":2544703.2000000002,"ADDRESS":"東豐路４９１號二樓之２","OBJECTID":549397},"geometry":{"x":170843.8600000022,"y":2544703.1999999993}},{"attributes":{"ID":549425,"DIS_CODE":0,"TOWNNAME":"北區","LI":"重興里","LIN":"10鄰","STREET":"東豐路","SECT":" ","MAREA":" ","LANE":" ","ALLEY":" ","HOUSE_NO":"４９１號二樓之３","E_COORD97":170843.85999999999,"N_COORD97":2544703.2000000002,"ADDRESS":"東豐路４９１號二樓之３","OBJECTID":549398},"geometry":{"x":170843.8600000022,"y":2544703.1999999993}},{"attributes":{"ID":549426,"DIS_CODE":0,"TOWNNAME":"東區","LI":"崇成里","LIN":"10鄰","STREET":"崇德十四街","SECT":" ","MAREA":" ","LANE":" ","ALLEY":" ","HOUSE_NO":"１６號","E_COORD97":170848.45000000001,"N_COORD97":2541225.25,"ADDRESS":"崇德十四街１６號","OBJECTID":549399},"geometry":{"x":170848.45000000112,"y":2541225.2499999981}},{"attributes":{"ID":549427,"DIS_CODE":0,"TOWNNAME":"北區","LI":"重興里","LIN":"10鄰","STREET":"東豐路","SECT":" ","MAREA":" ","LANE":" ","ALLEY":" ","HOUSE_NO":"４９１號二樓之４","E_COORD97":170843.85999999999,"N_COORD97":2544703.2000000002,"ADDRESS":"東豐路４９１號二樓之４","OBJECTID":549400},"geometry":{"x":170843.8600000022,"y":2544703.1999999993}}]}