{"displayFieldName":"TOWNNAME","fieldAliases":{"ID":"ID","DIS_CODE":"DIS_CODE","TOWNNAME":"TOWNNAME","LI":"LI","LIN":"LIN","STREET":"STREET","SECT":"SECT","MAREA":"MAREA","LANE":"LANE","ALLEY":"ALLEY","HOUSE_NO":"HOUSE_NO","E_COORD97":"E_COORD97","N_COORD97":"N_COORD97","ADDRESS":"ADDRESS","OBJECTID":"OBJECTID"},"geometryType":"esriGeometryPoint","spatialReference":{"wkid":102443,"latestWkid":3826},"fields":[{"name":"ID","type":"esriFieldTypeDouble","alias":"ID"},{"name":"DIS_CODE","type":"esriFieldTypeInteger","alias":"DIS_CODE"},{"name":"TOWNNAME","type":"esriFieldTypeString","alias":"TOWNNAME","length":8},{"name":"LI","type":"esriFieldTypeString","alias":"LI","length":8},{"name":"LIN","type":"esriFieldTypeString","alias":"LIN","length":12},{"name":"STREET","type":"esriFieldTypeString","alias":"STREET","length":20},{"name":"SECT","type":"esriFieldTypeString","alias":"SECT","length":8},{"name":"MAREA","type":"esriFieldTypeString","alias":"MAREA","length":12},{"name":"LANE","type":"esriFieldTypeString","alias":"LANE","length":10},{"name":"ALLEY","type":"esriFieldTypeString","alias":"ALLEY","length":10},{"name":"HOUSE_NO","type":"esriFieldTypeString","alias":"HOUSE_NO","length":20},{"name":"E_COORD97","type":"esriFieldTypeDouble","alias":"E_COORD97"},{"name":"N_COORD97","type":"esriFieldTypeDouble","alias":"N_COORD97"},{"name":"ADDRESS","type":"esriFieldTypeString","alias":"ADDRESS","length":50},{"name":"OBJECTID","type":"esriFieldTypeOID","alias":"OBJECTID"}],"features":[{"attributes":{"ID":213002,"DIS_CODE":0,"TOWNNAME":"北區","LI":"賢北里","LIN":"13鄰","STREET":"賢北街","SECT":" ","MAREA":" ","LANE":"２７巷","ALLEY":"２０弄","HOUSE_NO":"３號","E_COORD97":166200.20999999999,"N_COORD97":2545383.77,"ADDRESS":"賢北街２７巷２０弄３號","OBJECTID":213001},"geometry":{"x":166200.21000000089,"y":2545383.7699999996}},{"attributes":{"ID":213003,"DIS_CODE":0,"TOWNNAME":"北區","LI":"賢北里","LIN":"13鄰","STREET":"賢北街","SECT":" ","MAREA":" ","LANE":"２７巷","ALLEY":"２０弄","HOUSE_NO":"４號","E_COORD97":166210.01000000001,"N_COORD97":2545389.0299999998,"ADDRESS":"賢北街２７巷２０弄４號","OBJECTID":213002},"geometry":{"x":166210.01000000071,"y":2545389.0299999993}},{"attributes":{"ID":213004,"DIS_CODE":0,"TOWNNAME":"北區","LI":"賢北里","LIN":"13鄰","STREET":"賢北街","SECT":" ","MAREA":" ","LANE":"２７巷","ALLEY":"２０弄","HOUSE_NO":"５號","E_COORD97":166197.67000000001,"N_COORD97":2545389.75,"ADDRESS":"賢北街２７巷２０弄５號","OBJECTID":213003},"geometry":{"x":166197.66999999993,"y":2545389.7500000019}},{"attributes":{"ID":213005,"DIS_CODE":0,"TOWNNAME":"北區","LI":"賢北里","LIN":"13鄰","STREET":"賢北街","SECT":" ","MAREA":" ","LANE":"２７巷","ALLEY":"２０弄","HOUSE_NO":"６號","E_COORD97":166207.29000000001,"N_COORD97":2545395.3799999999,"ADDRESS":"賢北街２７巷２０弄６號","OBJECTID":213004},"geometry":{"x":166207.29000000004,"y":2545395.379999999}},{"attributes":{"ID":213006,"DIS_CODE":0,"TOWNNAME":"北區","LI":"賢北里","LIN":"13鄰","STREET":"賢北街","SECT":" ","MAREA":" ","LANE":"２７巷","ALLEY":"２０弄","HOUSE_NO":"７號","E_COORD97":166194.22,"N_COORD97":2545396.6400000001,"ADDRESS":"賢北街２７巷２０弄７號","OBJECTID":213005},"geometry":{"x":166194.2200000016,"y":2545396.6400000006}},{"attributes":{"ID":213007,"DIS_CODE":0,"TOWNNAME":"北區","LI":"賢北里","LIN":"13鄰","STREET":"賢北街","SECT":" ","MAREA":" ","LANE":"２７巷","ALLEY":"２０弄","HOUSE_NO":"８號","E_COORD97":166205.47,"N_COORD97":2545402.6299999999,"ADDRESS":"賢北街２７巷２０弄８號","OBJECTID":213006},"geometry":{"x":166205.46999999974,"y":2545402.6300000008}},{"attributes":{"ID":213008,"DIS_CODE":0,"TOWNNAME":"北區","LI":"賢北里","LIN":"13鄰","STREET":"賢北街","SECT":" ","MAREA":" ","LANE":"２７巷","ALLEY":"２０弄","HOUSE_NO":"９號","E_COORD97":166193.48999999999,"N_COORD97":2545401.8999999999,"ADDRESS":"賢北街２７巷２０弄９號","OBJECTID":213007},"geometry":{"x":166193.49000000115,"y":2545401.9000000041}},{"attributes":{"ID":213009,"DIS_CODE":0,"TOWNNAME":"北區","LI":"賢北里","LIN":"13鄰","STREET":"賢北街","SECT":" ","MAREA":" ","LANE":"５７巷","ALLEY":"１３弄","HOUSE_NO":"１號","E_COORD97":166219.14999999999,"N_COORD97":2545428.7999999998,"ADDRESS":"賢北街５７巷１３弄１號","OBJECTID":213008},"geometry":{"x":166219.15000000224,"y":2545428.8000000007}},{"attributes":{"ID":213010,"DIS_CODE":0,"TOWNNAME":"北區","LI":"賢北里","LIN":"13鄰","STREET":"賢北街","SECT":" ","MAREA":" ","LANE":"５７巷","ALLEY":"１３弄","HOUSE_NO":"２號","E_COORD97":166203.72,"N_COORD97":2545422.4500000002,"ADDRESS":"賢北街５７巷１３弄２號","OBJECTID":213009},"geometry":{"x":166203.71999999974,"y":2545422.4499999993}},{"attributes":{"ID":213011,"DIS_CODE":0,"TOWNNAME":"北區","LI":"賢北里","LIN":"13鄰","STREET":"賢北街","SECT":" ","MAREA":" ","LANE":"５７巷","ALLEY":"１３弄","HOUSE_NO":"３號","E_COORD97":166221.51000000001,"N_COORD97":2545424.9900000002,"ADDRESS":"賢北街５７巷１３弄３號","OBJECTID":213010},"geometry":{"x":166221.51000000071,"y":2545424.9900000039}},{"attributes":{"ID":213012,"DIS_CODE":0,"TOWNNAME":"北區","LI":"賢北里","LIN":"13鄰","STREET":"賢北街","SECT":" ","MAREA":" ","LANE":"５７巷","ALLEY":"１３弄","HOUSE_NO":"５號","E_COORD97":166222.78,"N_COORD97":2545421,"ADDRESS":"賢北街５７巷１３弄５號","OBJECTID":213011},"geometry":{"x":166222.78000000026,"y":2545421.0000000037}},{"attributes":{"ID":213013,"DIS_CODE":0,"TOWNNAME":"北區","LI":"賢北里","LIN":"13鄰","STREET":"賢北街","SECT":" ","MAREA":" ","LANE":"５７巷","ALLEY":"１３弄","HOUSE_NO":"６號","E_COORD97":166207.35000000001,"N_COORD97":2545414.4700000002,"ADDRESS":"賢北街５７巷１３弄６號","OBJECTID":213012},"geometry":{"x":166207.35000000056,"y":2545414.4700000007}},{"attributes":{"ID":213014,"DIS_CODE":0,"TOWNNAME":"北區","LI":"小康里","LIN":"13鄰","STREET":"公園路","SECT":" ","MAREA":" ","LANE":"９９４巷","ALLEY":"３９弄","HOUSE_NO":"２號","E_COORD97":169718.64000000001,"N_COORD97":2546297.3700000001,"ADDRESS":"公園路９９４巷３９弄２號","OBJECTID":213013},"geometry":{"x":169718.63999999966,"y":2546297.370000001}},{"attributes":{"ID":213015,"DIS_CODE":0,"TOWNNAME":"北區","LI":"小康里","LIN":"13鄰","STREET":"公園路","SECT":" ","MAREA":" ","LANE":"９９４巷","ALLEY":"３９弄","HOUSE_NO":"３號","E_COORD97":169716.66,"N_COORD97":2546328.21,"ADDRESS":"公園路９９４巷３９弄３號","OBJECTID":213014},"geometry":{"x":169716.66000000108,"y":2546328.2100000009}},{"attributes":{"ID":213016,"DIS_CODE":0,"TOWNNAME":"北區","LI":"小康里","LIN":"13鄰","STREET":"公園路","SECT":" ","MAREA":" ","LANE":"９９４巷","ALLEY":"３９弄","HOUSE_NO":"４號","E_COORD97":169719.09,"N_COORD97":2546306.25,"ADDRESS":"公園路９９４巷３９弄４號","OBJECTID":213015},"geometry":{"x":169719.08999999985,"y":2546306.25}},{"attributes":{"ID":213017,"DIS_CODE":0,"TOWNNAME":"仁德區","LI":"仁德里","LIN":"9鄰","STREET":"中正路","SECT":"二段","MAREA":" ","LANE":" ","ALLEY":" ","HOUSE_NO":"１１８７號","E_COORD97":173293.95999999999,"N_COORD97":2541135.4100000001,"ADDRESS":"中正路二段１１８７號","OBJECTID":213016},"geometry":{"x":173293.96000000183,"y":2541135.4100000001}},{"attributes":{"ID":213018,"DIS_CODE":0,"TOWNNAME":"北門區","LI":"雙春里","LIN":"2鄰","STREET":" ","SECT":" ","MAREA":"雙春","LANE":" ","ALLEY":" ","HOUSE_NO":"１３號","E_COORD97":160986.53,"N_COORD97":2577821.3999999999,"ADDRESS":"雙春１３號","OBJECTID":213017},"geometry":{"x":160986.53000000026,"y":2577821.4000000022}},{"attributes":{"ID":213019,"DIS_CODE":0,"TOWNNAME":"北門區","LI":"雙春里","LIN":"2鄰","STREET":" ","SECT":" ","MAREA":"雙春","LANE":" ","ALLEY":" ","HOUSE_NO":"１４號","E_COORD97":160978.63,"N_COORD97":2577807.0699999998,"ADDRESS":"雙春１４號","OBJECTID":213018},"geometry":{"x":160978.62999999989,"y":2577807.0700000022}},{"attributes":{"ID":213020,"DIS_CODE":0,"TOWNNAME":"北門區","LI":"雙春里","LIN":"2鄰","STREET":" ","SECT":" ","MAREA":"雙春","LANE":" ","ALLEY":" ","HOUSE_NO":"１５之１號","E_COORD97":160966.31,"N_COORD97":2577792.9199999999,"ADDRESS":"雙春１５之１號","OBJECTID":213019},"geometry":{"x":160966.31000000052,"y":2577792.9200000037}},{"attributes":{"ID":213021,"DIS_CODE":0,"TOWNNAME":"北門區","LI":"雙春里","LIN":"2鄰","STREET":" ","SECT":" ","MAREA":"雙春","LANE":" ","ALLEY":" ","HOUSE_NO":"１５號","E_COORD97":160972.64000000001,"N_COORD97":2577790.7400000002,"ADDRESS":"雙春１５號","OBJECTID":213020},"geometry":{"x":160972.6400000006,"y":2577790.7400000002}},{"attributes":{"ID":213022,"DIS_CODE":0,"TOWNNAME":"北門區","LI":"雙春里","LIN":"2鄰","STREET":" ","SECT":" ","MAREA":"雙春","LANE":" ","ALLEY":" ","HOUSE_NO":"８號之１","E_COORD97":161000.85999999999,"N_COORD97":2577771.96,"ADDRESS":"雙春８號之１","OBJECTID":213021},"geometry":{"x":161000.86000000034,"y":2577771.9600000009}},{"attributes":{"ID":213023,"DIS_CODE":0,"TOWNNAME":"北門區","LI":"雙春里","LIN":"2鄰","STREET":" ","SECT":" ","MAREA":"雙春","LANE":" ","ALLEY":" ","HOUSE_NO":"８號之２","E_COORD97":160993.91,"N_COORD97":2577774.54,"ADDRESS":"雙春８號之２","OBJECTID":213022},"geometry":{"x":160993.91000000015,"y":2577774.540000001}},{"attributes":{"ID":213024,"DIS_CODE":0,"TOWNNAME":"北門區","LI":"雙春里","LIN":"2鄰","STREET":" ","SECT":" ","MAREA":"雙春","LANE":" ","ALLEY":" ","HOUSE_NO":"８號","E_COORD97":161003.12,"N_COORD97":2577790.1800000002,"ADDRESS":"雙春８號","OBJECTID":213023},"geometry":{"x":161003.12000000104,"y":2577790.1799999997}},{"attributes":{"ID":213025,"DIS_CODE":0,"TOWNNAME":"官田區","LI":"二鎮里","LIN":"2鄰","STREET":" ","SECT":" ","MAREA":"二鎮","LANE":" ","ALLEY":" ","HOUSE_NO":"１０號之１","E_COORD97":181213.14999999999,"N_COORD97":2568178.4199999999,"ADDRESS":"二鎮１０號之１","OBJECTID":213024},"geometry":{"x":181213.15000000224,"y":2568178.4200000018}},{"attributes":{"ID":213026,"DIS_CODE":0,"TOWNNAME":"官田區","LI":"二鎮里","LIN":"2鄰","STREET":" ","SECT":" ","MAREA":"二鎮","LANE":" ","ALLEY":" ","HOUSE_NO":"１３號之２","E_COORD97":181143.10999999999,"N_COORD97":2568273.8599999999,"ADDRESS":"二鎮１３號之２","OBJECTID":213025},"geometry":{"x":181143.11000000034,"y":2568273.8600000013}},{"attributes":{"ID":213027,"DIS_CODE":0,"TOWNNAME":"官田區","LI":"二鎮里","LIN":"2鄰","STREET":" ","SECT":" ","MAREA":"二鎮","LANE":" ","ALLEY":" ","HOUSE_NO":"１３號之４","E_COORD97":181095.03,"N_COORD97":2568202.8500000001,"ADDRESS":"二鎮１３號之４","OBJECTID":213026},"geometry":{"x":181095.02999999933,"y":2568202.8500000015}},{"attributes":{"ID":213028,"DIS_CODE":0,"TOWNNAME":"官田區","LI":"二鎮里","LIN":"2鄰","STREET":" ","SECT":" ","MAREA":"二鎮","LANE":" ","ALLEY":" ","HOUSE_NO":"１３號之５","E_COORD97":181098.51999999999,"N_COORD97":2568206.04,"ADDRESS":"二鎮１３號之５","OBJECTID":213027},"geometry":{"x":181098.52000000048,"y":2568206.0399999991}},{"attributes":{"ID":213029,"DIS_CODE":0,"TOWNNAME":"仁德區","LI":"仁愛里","LIN":"9鄰","STREET":" ","SECT":" ","MAREA":"仁愛","LANE":" ","ALLEY":" ","HOUSE_NO":"１８３號","E_COORD97":170286.07479000001,"N_COORD97":2539873.8650000002,"ADDRESS":"仁愛１８３號","OBJECTID":213028},"geometry":{"x":170286.07478999998,"y":2539873.8650000039}},{"attributes":{"ID":213030,"DIS_CODE":0,"TOWNNAME":"佳里區","LI":"龍安里","LIN":"9鄰","STREET":" ","SECT":" ","MAREA":"塭子內","LANE":" ","ALLEY":" ","HOUSE_NO":"９３號","E_COORD97":164495.37,"N_COORD97":2558219.6899999999,"ADDRESS":"塭子內９３號","OBJECTID":213029},"geometry":{"x":164495.37000000104,"y":2558219.6899999995}},{"attributes":{"ID":213031,"DIS_CODE":0,"TOWNNAME":"北區","LI":"小康里","LIN":"13鄰","STREET":"公園路","SECT":" ","MAREA":" ","LANE":"９９４巷","ALLEY":"３９弄","HOUSE_NO":"５號","E_COORD97":169719.59,"N_COORD97":2546336.3500000001,"ADDRESS":"公園路９９４巷３９弄５號","OBJECTID":213030},"geometry":{"x":169719.59000000171,"y":2546336.3499999996}},{"attributes":{"ID":213032,"DIS_CODE":0,"TOWNNAME":"佳里區","LI":"龍安里","LIN":"9鄰","STREET":" ","SECT":" ","MAREA":"塭子內","LANE":" ","ALLEY":" ","HOUSE_NO":"８６號之４","E_COORD97":164401.42000000001,"N_COORD97":2558240.4100000001,"ADDRESS":"塭子內８６號之４","OBJECTID":213031},"geometry":{"x":164401.42000000179,"y":2558240.4100000001}},{"attributes":{"ID":213033,"DIS_CODE":0,"TOWNNAME":"北區","LI":"小康里","LIN":"13鄰","STREET":"公園路","SECT":" ","MAREA":" ","LANE":"９９４巷","ALLEY":"３９弄","HOUSE_NO":"７號","E_COORD97":169719.67999999999,"N_COORD97":2546342.8500000001,"ADDRESS":"公園路９９４巷３９弄７號","OBJECTID":213032},"geometry":{"x":169719.6799999997,"y":2546342.8499999996}},{"attributes":{"ID":213034,"DIS_CODE":0,"TOWNNAME":"佳里區","LI":"龍安里","LIN":"9鄰","STREET":" ","SECT":" ","MAREA":"塭子內","LANE":" ","ALLEY":" ","HOUSE_NO":"８６號之５","E_COORD97":164399.69,"N_COORD97":2558237.3799999999,"ADDRESS":"塭子內８６號之５","OBJECTID":213033},"geometry":{"x":164399.69000000041,"y":2558237.3800000008}},{"attributes":{"ID":213035,"DIS_CODE":0,"TOWNNAME":"北區","LI":"小康里","LIN":"13鄰","STREET":"公園路","SECT":" ","MAREA":" ","LANE":"９９４巷","ALLEY":"４１弄","HOUSE_NO":"１０號","E_COORD97":169765.82000000001,"N_COORD97":2546316.0299999998,"ADDRESS":"公園路９９４巷４１弄１０號","OBJECTID":213034},"geometry":{"x":169765.81999999937,"y":2546316.0300000012}},{"attributes":{"ID":213036,"DIS_CODE":0,"TOWNNAME":"佳里區","LI":"龍安里","LIN":"9鄰","STREET":" ","SECT":" ","MAREA":"塭子內","LANE":" ","ALLEY":" ","HOUSE_NO":"８９號之１","E_COORD97":164414.39999999999,"N_COORD97":2558211.8300000001,"ADDRESS":"塭子內８９號之１","OBJECTID":213035},"geometry":{"x":164414.4000000013,"y":2558211.8300000019}},{"attributes":{"ID":213037,"DIS_CODE":0,"TOWNNAME":"北區","LI":"小康里","LIN":"13鄰","STREET":"公園路","SECT":" ","MAREA":" ","LANE":"９９４巷","ALLEY":"４１弄","HOUSE_NO":"１２號","E_COORD97":169765.94,"N_COORD97":2546320.1800000002,"ADDRESS":"公園路９９４巷４１弄１２號","OBJECTID":213036},"geometry":{"x":169765.94000000134,"y":2546320.1799999997}},{"attributes":{"ID":213038,"DIS_CODE":0,"TOWNNAME":"佳里區","LI":"龍安里","LIN":"9鄰","STREET":" ","SECT":" ","MAREA":"塭子內","LANE":" ","ALLEY":" ","HOUSE_NO":"８９號","E_COORD97":164441.06,"N_COORD97":2558226.6899999999,"ADDRESS":"塭子內８９號","OBJECTID":213037},"geometry":{"x":164441.06000000052,"y":2558226.6899999995}},{"attributes":{"ID":213039,"DIS_CODE":0,"TOWNNAME":"北區","LI":"小康里","LIN":"13鄰","STREET":"公園路","SECT":" ","MAREA":" ","LANE":"９９４巷","ALLEY":"４１弄","HOUSE_NO":"１號","E_COORD97":169738.69,"N_COORD97":2546295.73,"ADDRESS":"公園路９９４巷４１弄１號","OBJECTID":213038},"geometry":{"x":169738.69000000134,"y":2546295.7300000023}},{"attributes":{"ID":213040,"DIS_CODE":0,"TOWNNAME":"佳里區","LI":"龍安里","LIN":"9鄰","STREET":" ","SECT":" ","MAREA":"塭子內","LANE":" ","ALLEY":" ","HOUSE_NO":"９０號","E_COORD97":164466.17999999999,"N_COORD97":2558233.25,"ADDRESS":"塭子內９０號","OBJECTID":213039},"geometry":{"x":164466.18000000063,"y":2558233.2500000019}},{"attributes":{"ID":213041,"DIS_CODE":0,"TOWNNAME":"佳里區","LI":"龍安里","LIN":"9鄰","STREET":" ","SECT":" ","MAREA":"塭子內","LANE":" ","ALLEY":" ","HOUSE_NO":"９１號","E_COORD97":164475.78,"N_COORD97":2558184.9500000002,"ADDRESS":"塭子內９１號","OBJECTID":213040},"geometry":{"x":164475.78000000119,"y":2558184.9499999993}},{"attributes":{"ID":213042,"DIS_CODE":0,"TOWNNAME":"北區","LI":"小康里","LIN":"13鄰","STREET":"公園路","SECT":" ","MAREA":" ","LANE":"９９４巷","ALLEY":"４１弄","HOUSE_NO":"２號","E_COORD97":169764.01000000001,"N_COORD97":2546299.2599999998,"ADDRESS":"公園路９９４巷４１弄２號","OBJECTID":213041},"geometry":{"x":169764.00999999885,"y":2546299.2599999998}},{"attributes":{"ID":213043,"DIS_CODE":0,"TOWNNAME":"北區","LI":"小康里","LIN":"13鄰","STREET":"公園路","SECT":" ","MAREA":" ","LANE":"９９４巷","ALLEY":"４１弄","HOUSE_NO":"３號","E_COORD97":169740.32999999999,"N_COORD97":2546301.6699999999,"ADDRESS":"公園路９９４巷４１弄３號","OBJECTID":213042},"geometry":{"x":169740.33000000194,"y":2546301.6700000018}},{"attributes":{"ID":213044,"DIS_CODE":0,"TOWNNAME":"北區","LI":"小康里","LIN":"13鄰","STREET":"公園路","SECT":" ","MAREA":" ","LANE":"９９４巷","ALLEY":"４１弄","HOUSE_NO":"４號","E_COORD97":169763.31,"N_COORD97":2546303.1699999999,"ADDRESS":"公園路９９４巷４１弄４號","OBJECTID":213043},"geometry":{"x":169763.30999999959,"y":2546303.1699999999}},{"attributes":{"ID":213045,"DIS_CODE":0,"TOWNNAME":"北區","LI":"小康里","LIN":"13鄰","STREET":"公園路","SECT":" ","MAREA":" ","LANE":"９９４巷","ALLEY":"４１弄","HOUSE_NO":"５號","E_COORD97":169741.79999999999,"N_COORD97":2546308.8999999999,"ADDRESS":"公園路９９４巷４１弄５號","OBJECTID":213044},"geometry":{"x":169741.80000000168,"y":2546308.9000000004}},{"attributes":{"ID":213046,"DIS_CODE":0,"TOWNNAME":"北區","LI":"小康里","LIN":"13鄰","STREET":"公園路","SECT":" ","MAREA":" ","LANE":"９９４巷","ALLEY":"４１弄","HOUSE_NO":"６號","E_COORD97":169765,"N_COORD97":2546307.1499999999,"ADDRESS":"公園路９９４巷４１弄６號","OBJECTID":213045},"geometry":{"x":169765.00000000093,"y":2546307.1500000004}},{"attributes":{"ID":213047,"DIS_CODE":0,"TOWNNAME":"北區","LI":"小康里","LIN":"13鄰","STREET":"公園路","SECT":" ","MAREA":" ","LANE":"９９４巷","ALLEY":"４１弄","HOUSE_NO":"７號","E_COORD97":169744.26999999999,"N_COORD97":2546316.5899999999,"ADDRESS":"公園路９９４巷４１弄７號","OBJECTID":213046},"geometry":{"x":169744.27000000048,"y":2546316.5900000017}},{"attributes":{"ID":213048,"DIS_CODE":0,"TOWNNAME":"北區","LI":"小康里","LIN":"13鄰","STREET":"公園路","SECT":" ","MAREA":" ","LANE":"９９４巷","ALLEY":"４１弄","HOUSE_NO":"８號","E_COORD97":169765.70999999999,"N_COORD97":2546312.46,"ADDRESS":"公園路９９４巷４１弄８號","OBJECTID":213047},"geometry":{"x":169765.70999999996,"y":2546312.4600000009}},{"attributes":{"ID":213049,"DIS_CODE":0,"TOWNNAME":"仁德區","LI":"土庫里","LIN":"9鄰","STREET":"土庫路","SECT":" ","MAREA":" ","LANE":"５３巷","ALLEY":" ","HOUSE_NO":"１號","E_COORD97":174237.98999999999,"N_COORD97":2543336.5,"ADDRESS":"土庫路５３巷１號","OBJECTID":213048},"geometry":{"x":174237.99000000022,"y":2543336.5000000019}},{"attributes":{"ID":213050,"DIS_CODE":0,"TOWNNAME":"安平區","LI":"怡平里","LIN":"24鄰","STREET":"文平路","SECT":" ","MAREA":" ","LANE":" ","ALLEY":" ","HOUSE_NO":"３８９號","E_COORD97":165778.29000000001,"N_COORD97":2543656.8700000001,"ADDRESS":"文平路３８９號","OBJECTID":213049},"geometry":{"x":165778.29000000004,"y":2543656.8700000048}},{"attributes":{"ID":213051,"DIS_CODE":0,"TOWNNAME":"安平區","LI":"怡平里","LIN":"24鄰","STREET":"文平路","SECT":" ","MAREA":" ","LANE":" ","ALLEY":" ","HOUSE_NO":"３９１號","E_COORD97":165779.23999999999,"N_COORD97":2543660.6800000002,"ADDRESS":"文平路３９１號","OBJECTID":213050},"geometry":{"x":165779.23999999929,"y":2543660.6800000016}},{"attributes":{"ID":213052,"DIS_CODE":0,"TOWNNAME":"安平區","LI":"怡平里","LIN":"24鄰","STREET":"文平路","SECT":" ","MAREA":" ","LANE":" ","ALLEY":" ","HOUSE_NO":"３９３號","E_COORD97":165779.56,"N_COORD97":2543665.6000000001,"ADDRESS":"文平路３９３號","OBJECTID":213051},"geometry":{"x":165779.55999999959,"y":2543665.5999999996}},{"attributes":{"ID":213053,"DIS_CODE":0,"TOWNNAME":"安平區","LI":"怡平里","LIN":"24鄰","STREET":"文平路","SECT":" ","MAREA":" ","LANE":" ","ALLEY":" ","HOUSE_NO":"３９５號","E_COORD97":165780.51000000001,"N_COORD97":2543669.4100000001,"ADDRESS":"文平路３９５號","OBJECTID":213052},"geometry":{"x":165780.51000000164,"y":2543669.410000002}},{"attributes":{"ID":213054,"DIS_CODE":0,"TOWNNAME":"安平區","LI":"怡平里","LIN":"24鄰","STREET":"文平路","SECT":" ","MAREA":" ","LANE":" ","ALLEY":" ","HOUSE_NO":"３９７號","E_COORD97":165780.82999999999,"N_COORD97":2543674.3399999999,"ADDRESS":"文平路３９７號","OBJECTID":213053},"geometry":{"x":165780.83000000101,"y":2543674.3399999999}},{"attributes":{"ID":213055,"DIS_CODE":0,"TOWNNAME":"安平區","LI":"怡平里","LIN":"24鄰","STREET":"文平路","SECT":" ","MAREA":" ","LANE":" ","ALLEY":" ","HOUSE_NO":"３９９號","E_COORD97":165781.31,"N_COORD97":2543678.9399999999,"ADDRESS":"文平路３９９號","OBJECTID":213054},"geometry":{"x":165781.30999999959,"y":2543678.9400000013}},{"attributes":{"ID":213056,"DIS_CODE":0,"TOWNNAME":"新營區","LI":"新北里","LIN":"13鄰","STREET":"周武街","SECT":" ","MAREA":" ","LANE":"７９巷","ALLEY":"２１弄","HOUSE_NO":"４２號","E_COORD97":179232.95000000001,"N_COORD97":2579035.96,"ADDRESS":"周武街７９巷２１弄４２號","OBJECTID":213055},"geometry":{"x":179232.95000000112,"y":2579035.9600000028}},{"attributes":{"ID":213057,"DIS_CODE":0,"TOWNNAME":"佳里區","LI":"溪州里","LIN":"9鄰","STREET":" ","SECT":" ","MAREA":"溪州","LANE":" ","ALLEY":" ","HOUSE_NO":"７７號之１","E_COORD97":166414.89999999999,"N_COORD97":2567538.8599999999,"ADDRESS":"溪州７７號之１","OBJECTID":213056},"geometry":{"x":166414.9000000013,"y":2567538.8599999994}},{"attributes":{"ID":213058,"DIS_CODE":0,"TOWNNAME":"佳里區","LI":"溪州里","LIN":"9鄰","STREET":" ","SECT":" ","MAREA":"溪州","LANE":" ","ALLEY":" ","HOUSE_NO":"７８號","E_COORD97":166450.53,"N_COORD97":2567495.9900000002,"ADDRESS":"溪州７８號","OBJECTID":213057},"geometry":{"x":166450.53000000119,"y":2567495.9899999984}},{"attributes":{"ID":213059,"DIS_CODE":0,"TOWNNAME":"佳里區","LI":"溪州里","LIN":"9鄰","STREET":" ","SECT":" ","MAREA":"溪州","LANE":" ","ALLEY":" ","HOUSE_NO":"７９號","E_COORD97":166464.01999999999,"N_COORD97":2567506.3900000001,"ADDRESS":"溪州７９號","OBJECTID":213058},"geometry":{"x":166464.02000000048,"y":2567506.3900000006}},{"attributes":{"ID":213060,"DIS_CODE":0,"TOWNNAME":"北區","LI":"永祥里","LIN":"13鄰","STREET":"實踐街","SECT":" ","MAREA":" ","LANE":"１０３巷","ALLEY":"２１弄","HOUSE_NO":"１１號","E_COORD97":170095.72,"N_COORD97":2546138.21,"ADDRESS":"實踐街１０３巷２１弄１１號","OBJECTID":213059},"geometry":{"x":170095.72000000067,"y":2546138.2100000009}},{"attributes":{"ID":213061,"DIS_CODE":0,"TOWNNAME":"北區","LI":"永祥里","LIN":"13鄰","STREET":"實踐街","SECT":" ","MAREA":" ","LANE":"１０３巷","ALLEY":"２１弄","HOUSE_NO":"１２號","E_COORD97":170106.37,"N_COORD97":2546149.2599999998,"ADDRESS":"實踐街１０３巷２１弄１２號","OBJECTID":213060},"geometry":{"x":170106.37000000104,"y":2546149.2600000016}},{"attributes":{"ID":213062,"DIS_CODE":0,"TOWNNAME":"北區","LI":"永祥里","LIN":"13鄰","STREET":"實踐街","SECT":" ","MAREA":" ","LANE":"１０３巷","ALLEY":"２１弄","HOUSE_NO":"１３號","E_COORD97":170089.53,"N_COORD97":2546138.5699999998,"ADDRESS":"實踐街１０３巷２１弄１３號","OBJECTID":213061},"geometry":{"x":170089.53000000026,"y":2546138.5700000003}},{"attributes":{"ID":213063,"DIS_CODE":0,"TOWNNAME":"北區","LI":"永祥里","LIN":"13鄰","STREET":"實踐街","SECT":" ","MAREA":" ","LANE":"１０３巷","ALLEY":"２３弄","HOUSE_NO":"４號","E_COORD97":170150.79000000001,"N_COORD97":2546179.6600000001,"ADDRESS":"實踐街１０３巷２３弄４號","OBJECTID":213062},"geometry":{"x":170150.7900000019,"y":2546179.6600000039}},{"attributes":{"ID":213064,"DIS_CODE":0,"TOWNNAME":"北區","LI":"永祥里","LIN":"13鄰","STREET":"實踐街","SECT":" ","MAREA":" ","LANE":"１０３巷","ALLEY":"２１弄","HOUSE_NO":"１４號","E_COORD97":170100.25,"N_COORD97":2546149.48,"ADDRESS":"實踐街１０３巷２１弄１４號","OBJECTID":213063},"geometry":{"x":170100.25000000093,"y":2546149.4800000004}},{"attributes":{"ID":213065,"DIS_CODE":0,"TOWNNAME":"北區","LI":"永祥里","LIN":"13鄰","STREET":"實踐街","SECT":" ","MAREA":" ","LANE":"１０３巷","ALLEY":"２１弄","HOUSE_NO":"１５號","E_COORD97":170084.62,"N_COORD97":2546138.5,"ADDRESS":"實踐街１０３巷２１弄１５號","OBJECTID":213064},"geometry":{"x":170084.62000000104,"y":2546138.5}},{"attributes":{"ID":213066,"DIS_CODE":0,"TOWNNAME":"北區","LI":"永祥里","LIN":"13鄰","STREET":"實踐街","SECT":" ","MAREA":" ","LANE":"１０３巷","ALLEY":"２１弄","HOUSE_NO":"１６號","E_COORD97":170093.78,"N_COORD97":2546149.2599999998,"ADDRESS":"實踐街１０３巷２１弄１６號","OBJECTID":213065},"geometry":{"x":170093.78000000119,"y":2546149.2600000016}},{"attributes":{"ID":213067,"DIS_CODE":0,"TOWNNAME":"北區","LI":"永祥里","LIN":"13鄰","STREET":"實踐街","SECT":" ","MAREA":" ","LANE":"１０３巷","ALLEY":"２１弄","HOUSE_NO":"１７號","E_COORD97":170079.35999999999,"N_COORD97":2546138.5,"ADDRESS":"實踐街１０３巷２１弄１７號","OBJECTID":213066},"geometry":{"x":170079.3600000022,"y":2546138.5}},{"attributes":{"ID":213068,"DIS_CODE":0,"TOWNNAME":"北區","LI":"永祥里","LIN":"13鄰","STREET":"實踐街","SECT":" ","MAREA":" ","LANE":"１０３巷","ALLEY":"２１弄","HOUSE_NO":"１８號","E_COORD97":170088.48000000001,"N_COORD97":2546149.1099999999,"ADDRESS":"實踐街１０３巷２１弄１８號","OBJECTID":213067},"geometry":{"x":170088.48000000045,"y":2546149.1100000013}},{"attributes":{"ID":213069,"DIS_CODE":0,"TOWNNAME":"北區","LI":"永祥里","LIN":"13鄰","STREET":"實踐街","SECT":" ","MAREA":" ","LANE":"１０３巷","ALLEY":"２１弄","HOUSE_NO":"１９號","E_COORD97":170072.73999999999,"N_COORD97":2546138.71,"ADDRESS":"實踐街１０３巷２１弄１９號","OBJECTID":213068},"geometry":{"x":170072.74000000022,"y":2546138.7100000009}},{"attributes":{"ID":213070,"DIS_CODE":0,"TOWNNAME":"北區","LI":"永祥里","LIN":"13鄰","STREET":"實踐街","SECT":" ","MAREA":" ","LANE":"１０３巷","ALLEY":"２１弄","HOUSE_NO":"１號","E_COORD97":170125.42999999999,"N_COORD97":2546137.4300000002,"ADDRESS":"實踐街１０３巷２１弄１號","OBJECTID":213069},"geometry":{"x":170125.4299999997,"y":2546137.4300000016}},{"attributes":{"ID":213071,"DIS_CODE":0,"TOWNNAME":"北區","LI":"永祥里","LIN":"13鄰","STREET":"實踐街","SECT":" ","MAREA":" ","LANE":"１０３巷","ALLEY":"２１弄","HOUSE_NO":"２０號","E_COORD97":170082.29000000001,"N_COORD97":2546149.54,"ADDRESS":"實踐街１０３巷２１弄２０號","OBJECTID":213070},"geometry":{"x":170082.29000000004,"y":2546149.540000001}},{"attributes":{"ID":213072,"DIS_CODE":0,"TOWNNAME":"北區","LI":"永祥里","LIN":"13鄰","STREET":"實踐街","SECT":" ","MAREA":" ","LANE":"１０３巷","ALLEY":"２１弄","HOUSE_NO":"２１號","E_COORD97":170067.04999999999,"N_COORD97":2546138.6400000001,"ADDRESS":"實踐街１０３巷２１弄２１號","OBJECTID":213071},"geometry":{"x":170067.04999999981,"y":2546138.6400000006}},{"attributes":{"ID":213073,"DIS_CODE":0,"TOWNNAME":"佳里區","LI":"忠仁里","LIN":"9鄰","STREET":"興中街","SECT":" ","MAREA":" ","LANE":" ","ALLEY":" ","HOUSE_NO":"１號","E_COORD97":166024.29000000001,"N_COORD97":2562194.3599999999,"ADDRESS":"興中街１號","OBJECTID":213072},"geometry":{"x":166024.29000000004,"y":2562194.3600000013}},{"attributes":{"ID":213074,"DIS_CODE":0,"TOWNNAME":"佳里區","LI":"營頂里","LIN":"9鄰","STREET":" ","SECT":" ","MAREA":"營頂","LANE":" ","ALLEY":" ","HOUSE_NO":"１００號之１","E_COORD97":167162.92000000001,"N_COORD97":2566593.1800000002,"ADDRESS":"營頂１００號之１","OBJECTID":213073},"geometry":{"x":167162.92000000086,"y":2566593.1800000016}},{"attributes":{"ID":213075,"DIS_CODE":0,"TOWNNAME":"佳里區","LI":"營頂里","LIN":"9鄰","STREET":" ","SECT":" ","MAREA":"營頂","LANE":" ","ALLEY":" ","HOUSE_NO":"１００號","E_COORD97":167163.16,"N_COORD97":2566571.3999999999,"ADDRESS":"營頂１００號","OBJECTID":213074},"geometry":{"x":167163.16000000201,"y":2566571.4000000041}},{"attributes":{"ID":213076,"DIS_CODE":0,"TOWNNAME":"佳里區","LI":"營頂里","LIN":"9鄰","STREET":" ","SECT":" ","MAREA":"營頂","LANE":" ","ALLEY":" ","HOUSE_NO":"１０１號之８","E_COORD97":167211.35000000001,"N_COORD97":2566562.4300000002,"ADDRESS":"營頂１０１號之８","OBJECTID":213075},"geometry":{"x":167211.34999999963,"y":2566562.4299999997}},{"attributes":{"ID":213077,"DIS_CODE":0,"TOWNNAME":"佳里區","LI":"營頂里","LIN":"9鄰","STREET":" ","SECT":" ","MAREA":"營頂","LANE":" ","ALLEY":" ","HOUSE_NO":"１０１號之９","E_COORD97":167210.07999999999,"N_COORD97":2566566.02,"ADDRESS":"營頂１０１號之９","OBJECTID":213076},"geometry":{"x":167210.08000000101,"y":2566566.0199999977}},{"attributes":{"ID":213078,"DIS_CODE":0,"TOWNNAME":"佳里區","LI":"營頂里","LIN":"9鄰","STREET":" ","SECT":" ","MAREA":"營頂","LANE":" ","ALLEY":" ","HOUSE_NO":"１０３號之１０","E_COORD97":167262.39999999999,"N_COORD97":2566768.7799999998,"ADDRESS":"營頂１０３號之１０","OBJECTID":213077},"geometry":{"x":167262.4000000013,"y":2566768.7800000012}},{"attributes":{"ID":213079,"DIS_CODE":0,"TOWNNAME":"佳里區","LI":"營頂里","LIN":"9鄰","STREET":" ","SECT":" ","MAREA":"營頂","LANE":" ","ALLEY":" ","HOUSE_NO":"１０３號之１１","E_COORD97":167267.85000000001,"N_COORD97":2566768.4500000002,"ADDRESS":"營頂１０３號之１１","OBJECTID":213078},"geometry":{"x":167267.84999999963,"y":2566768.4499999993}},{"attributes":{"ID":213080,"DIS_CODE":0,"TOWNNAME":"佳里區","LI":"營頂里","LIN":"9鄰","STREET":" ","SECT":" ","MAREA":"營頂","LANE":" ","ALLEY":" ","HOUSE_NO":"１０３號之１２","E_COORD97":167273.07000000001,"N_COORD97":2566769.6699999999,"ADDRESS":"營頂１０３號之１２","OBJECTID":213079},"geometry":{"x":167273.07000000123,"y":2566769.6700000018}},{"attributes":{"ID":213081,"DIS_CODE":0,"TOWNNAME":"佳里區","LI":"營頂里","LIN":"9鄰","STREET":" ","SECT":" ","MAREA":"營頂","LANE":" ","ALLEY":" ","HOUSE_NO":"１０３號之１３","E_COORD97":167278.64999999999,"N_COORD97":2566769.3199999998,"ADDRESS":"營頂１０３號之１３","OBJECTID":213080},"geometry":{"x":167278.65000000224,"y":2566769.3200000022}},{"attributes":{"ID":213082,"DIS_CODE":0,"TOWNNAME":"永康區","LI":"永康里","LIN":"9鄰","STREET":"永中街","SECT":" ","MAREA":" ","LANE":" ","ALLEY":" ","HOUSE_NO":"３７號","E_COORD97":173890.32999999999,"N_COORD97":2547170.25,"ADDRESS":"永中街３７號","OBJECTID":213081},"geometry":{"x":173890.33000000101,"y":2547170.2500000019}},{"attributes":{"ID":213083,"DIS_CODE":0,"TOWNNAME":"永康區","LI":"永康里","LIN":"9鄰","STREET":"永康街","SECT":" ","MAREA":" ","LANE":" ","ALLEY":" ","HOUSE_NO":"６５號","E_COORD97":173815.73000000001,"N_COORD97":2547188.7400000002,"ADDRESS":"永康街６５號","OBJECTID":213082},"geometry":{"x":173815.73000000045,"y":2547188.7400000002}},{"attributes":{"ID":213084,"DIS_CODE":0,"TOWNNAME":"永康區","LI":"南灣里","LIN":"9鄰","STREET":"大灣路","SECT":" ","MAREA":" ","LANE":" ","ALLEY":" ","HOUSE_NO":"６５１號","E_COORD97":174096,"N_COORD97":2544500.2400000002,"ADDRESS":"大灣路６５１號","OBJECTID":213083},"geometry":{"x":174096.00000000093,"y":2544500.2400000002}},{"attributes":{"ID":213085,"DIS_CODE":0,"TOWNNAME":"永康區","LI":"正強里","LIN":"9鄰","STREET":"正義街","SECT":" ","MAREA":" ","LANE":" ","ALLEY":" ","HOUSE_NO":"１３８號","E_COORD97":173350.89999999999,"N_COORD97":2547543.0099999998,"ADDRESS":"正義街１３８號","OBJECTID":213084},"geometry":{"x":173350.90000000224,"y":2547543.0099999979}},{"attributes":{"ID":213086,"DIS_CODE":0,"TOWNNAME":"永康區","LI":"蔦松里","LIN":"9鄰","STREET":"正北三路","SECT":" ","MAREA":" ","LANE":" ","ALLEY":" ","HOUSE_NO":"９３號","E_COORD97":174445.70000000001,"N_COORD97":2547336.75,"ADDRESS":"正北三路９３號","OBJECTID":213085},"geometry":{"x":174445.70000000112,"y":2547336.75}},{"attributes":{"ID":213087,"DIS_CODE":0,"TOWNNAME":"北區","LI":"永祥里","LIN":"13鄰","STREET":"實踐街","SECT":" ","MAREA":" ","LANE":"１０３巷","ALLEY":"２１弄","HOUSE_NO":"２號","E_COORD97":170135.54000000001,"N_COORD97":2546148.6200000001,"ADDRESS":"實踐街１０３巷２１弄２號","OBJECTID":213086},"geometry":{"x":170135.5400000019,"y":2546148.620000001}},{"attributes":{"ID":213088,"DIS_CODE":0,"TOWNNAME":"永康區","LI":"王行里","LIN":"9鄰","STREET":"王行路","SECT":" ","MAREA":" ","LANE":" ","ALLEY":" ","HOUSE_NO":"３８６號之１","E_COORD97":175433.97,"N_COORD97":2548603.4900000002,"ADDRESS":"王行路３８６號之１","OBJECTID":213087},"geometry":{"x":175433.96999999974,"y":2548603.4900000002}},{"attributes":{"ID":213089,"DIS_CODE":0,"TOWNNAME":"北區","LI":"永祥里","LIN":"13鄰","STREET":"實踐街","SECT":" ","MAREA":" ","LANE":"１０３巷","ALLEY":"２１弄","HOUSE_NO":"３號","E_COORD97":170118.81,"N_COORD97":2546137.9300000002,"ADDRESS":"實踐街１０３巷２１弄３號","OBJECTID":213088},"geometry":{"x":170118.80999999959,"y":2546137.9300000016}},{"attributes":{"ID":213090,"DIS_CODE":0,"TOWNNAME":"永康區","LI":"蔦松里","LIN":"9鄰","STREET":"中正北路","SECT":" ","MAREA":" ","LANE":" ","ALLEY":" ","HOUSE_NO":"５８８之３號","E_COORD97":174412.12,"N_COORD97":2549583.6099999999,"ADDRESS":"中正北路５８８之３號","OBJECTID":213089},"geometry":{"x":174412.12000000104,"y":2549583.6100000013}},{"attributes":{"ID":213091,"DIS_CODE":0,"TOWNNAME":"北區","LI":"永祥里","LIN":"13鄰","STREET":"實踐街","SECT":" ","MAREA":" ","LANE":"１０３巷","ALLEY":"２１弄","HOUSE_NO":"４號","E_COORD97":170130.14000000001,"N_COORD97":2546148.98,"ADDRESS":"實踐街１０３巷２１弄４號","OBJECTID":213090},"geometry":{"x":170130.13999999966,"y":2546148.9800000004}},{"attributes":{"ID":213092,"DIS_CODE":0,"TOWNNAME":"北區","LI":"永祥里","LIN":"13鄰","STREET":"實踐街","SECT":" ","MAREA":" ","LANE":"１０３巷","ALLEY":"２１弄","HOUSE_NO":"５號","E_COORD97":170113.19,"N_COORD97":2546138,"ADDRESS":"實踐街１０３巷２１弄５號","OBJECTID":213091},"geometry":{"x":170113.19000000134,"y":2546138.0000000019}},{"attributes":{"ID":213093,"DIS_CODE":0,"TOWNNAME":"北區","LI":"永祥里","LIN":"13鄰","STREET":"實踐街","SECT":" ","MAREA":" ","LANE":"１０３巷","ALLEY":"２１弄","HOUSE_NO":"６號","E_COORD97":170124.01999999999,"N_COORD97":2546148.7599999998,"ADDRESS":"實踐街１０３巷２１弄６號","OBJECTID":213092},"geometry":{"x":170124.02000000048,"y":2546148.7600000016}},{"attributes":{"ID":213094,"DIS_CODE":0,"TOWNNAME":"佳里區","LI":"營頂里","LIN":"9鄰","STREET":" ","SECT":" ","MAREA":"營頂","LANE":" ","ALLEY":" ","HOUSE_NO":"１０３號之８","E_COORD97":167252.34,"N_COORD97":2566767.96,"ADDRESS":"營頂１０３號之８","OBJECTID":213093},"geometry":{"x":167252.33999999985,"y":2566767.959999999}},{"attributes":{"ID":213095,"DIS_CODE":0,"TOWNNAME":"佳里區","LI":"營頂里","LIN":"9鄰","STREET":" ","SECT":" ","MAREA":"營頂","LANE":" ","ALLEY":" ","HOUSE_NO":"１０３號之９","E_COORD97":167257.23999999999,"N_COORD97":2566768.9399999999,"ADDRESS":"營頂１０３號之９","OBJECTID":213094},"geometry":{"x":167257.24000000022,"y":2566768.9399999995}},{"attributes":{"ID":213096,"DIS_CODE":0,"TOWNNAME":"北區","LI":"永祥里","LIN":"13鄰","STREET":"實踐街","SECT":" ","MAREA":" ","LANE":"１０３巷","ALLEY":"２１弄","HOUSE_NO":"７號","E_COORD97":170107.35000000001,"N_COORD97":2546138.1400000001,"ADDRESS":"實踐街１０３巷２１弄７號","OBJECTID":213095},"geometry":{"x":170107.3499999987,"y":2546138.1400000006}},{"attributes":{"ID":213097,"DIS_CODE":0,"TOWNNAME":"北區","LI":"永祥里","LIN":"13鄰","STREET":"實踐街","SECT":" ","MAREA":" ","LANE":"１０３巷","ALLEY":"２１弄","HOUSE_NO":"８號","E_COORD97":170118.25,"N_COORD97":2546148.8399999999,"ADDRESS":"實踐街１０３巷２１弄８號","OBJECTID":213096},"geometry":{"x":170118.25,"y":2546148.8400000017}},{"attributes":{"ID":213098,"DIS_CODE":0,"TOWNNAME":"北區","LI":"永祥里","LIN":"13鄰","STREET":"實踐街","SECT":" ","MAREA":" ","LANE":"１０３巷","ALLEY":"２１弄","HOUSE_NO":"９號","E_COORD97":170101.70000000001,"N_COORD97":2546138.21,"ADDRESS":"實踐街１０３巷２１弄９號","OBJECTID":213097},"geometry":{"x":170101.70000000019,"y":2546138.2100000009}},{"attributes":{"ID":213099,"DIS_CODE":0,"TOWNNAME":"佳里區","LI":"營頂里","LIN":"9鄰","STREET":" ","SECT":" ","MAREA":"營頂","LANE":" ","ALLEY":" ","HOUSE_NO":"１０３號","E_COORD97":167243.44,"N_COORD97":2566707.6000000001,"ADDRESS":"營頂１０３號","OBJECTID":213098},"geometry":{"x":167243.44000000134,"y":2566707.5999999996}},{"attributes":{"ID":213100,"DIS_CODE":0,"TOWNNAME":"北區","LI":"永祥里","LIN":"13鄰","STREET":"實踐街","SECT":" ","MAREA":" ","LANE":"１０３巷","ALLEY":"２３弄","HOUSE_NO":"１０號","E_COORD97":170133.26000000001,"N_COORD97":2546179.73,"ADDRESS":"實踐街１０３巷２３弄１０號","OBJECTID":213099},"geometry":{"x":170133.25999999978,"y":2546179.7300000023}},{"attributes":{"ID":213101,"DIS_CODE":0,"TOWNNAME":"北區","LI":"永祥里","LIN":"13鄰","STREET":"實踐街","SECT":" ","MAREA":" ","LANE":"１０３巷","ALLEY":"２３弄","HOUSE_NO":"１１號","E_COORD97":170114.85000000001,"N_COORD97":2546167.6800000002,"ADDRESS":"實踐街１０３巷２３弄１１號","OBJECTID":213100},"geometry":{"x":170114.85000000056,"y":2546167.6799999997}},{"attributes":{"ID":213102,"DIS_CODE":0,"TOWNNAME":"北區","LI":"永祥里","LIN":"13鄰","STREET":"實踐街","SECT":" ","MAREA":" ","LANE":"１０３巷","ALLEY":"２３弄","HOUSE_NO":"１２號","E_COORD97":170128.20999999999,"N_COORD97":2546179.6600000001,"ADDRESS":"實踐街１０３巷２３弄１２號","OBJECTID":213101},"geometry":{"x":170128.21000000089,"y":2546179.6600000039}},{"attributes":{"ID":213103,"DIS_CODE":0,"TOWNNAME":"官田區","LI":"二鎮里","LIN":"2鄰","STREET":" ","SECT":" ","MAREA":"二鎮","LANE":" ","ALLEY":" ","HOUSE_NO":"１３號之６","E_COORD97":181134.01000000001,"N_COORD97":2568270.9500000002,"ADDRESS":"二鎮１３號之６","OBJECTID":213102},"geometry":{"x":181134.01000000071,"y":2568270.9499999993}},{"attributes":{"ID":213104,"DIS_CODE":0,"TOWNNAME":"北區","LI":"永祥里","LIN":"13鄰","STREET":"實踐街","SECT":" ","MAREA":" ","LANE":"１０３巷","ALLEY":"２３弄","HOUSE_NO":"１３號","E_COORD97":170108.79999999999,"N_COORD97":2546167.6800000002,"ADDRESS":"實踐街１０３巷２３弄１３號","OBJECTID":213103},"geometry":{"x":170108.80000000075,"y":2546167.6799999997}},{"attributes":{"ID":213105,"DIS_CODE":0,"TOWNNAME":"官田區","LI":"二鎮里","LIN":"2鄰","STREET":" ","SECT":" ","MAREA":"二鎮","LANE":" ","ALLEY":" ","HOUSE_NO":"１３號之７","E_COORD97":181129.91,"N_COORD97":2568268.1200000001,"ADDRESS":"二鎮１３號之７","OBJECTID":213104},"geometry":{"x":181129.91000000108,"y":2568268.120000001}},{"attributes":{"ID":213106,"DIS_CODE":0,"TOWNNAME":"永康區","LI":"南灣里","LIN":"9鄰","STREET":"大灣東路","SECT":" ","MAREA":" ","LANE":" ","ALLEY":" ","HOUSE_NO":"１號","E_COORD97":174014.37,"N_COORD97":2544269.23,"ADDRESS":"大灣東路１號","OBJECTID":213105},"geometry":{"x":174014.37000000104,"y":2544269.2300000004}},{"attributes":{"ID":213107,"DIS_CODE":0,"TOWNNAME":"官田區","LI":"二鎮里","LIN":"2鄰","STREET":" ","SECT":" ","MAREA":"二鎮","LANE":" ","ALLEY":" ","HOUSE_NO":"１３號","E_COORD97":181157.07000000001,"N_COORD97":2568225.4300000002,"ADDRESS":"二鎮１３號","OBJECTID":213106},"geometry":{"x":181157.0700000003,"y":2568225.4300000016}},{"attributes":{"ID":213108,"DIS_CODE":0,"TOWNNAME":"官田區","LI":"二鎮里","LIN":"2鄰","STREET":" ","SECT":" ","MAREA":"二鎮","LANE":" ","ALLEY":" ","HOUSE_NO":"１４號之１","E_COORD97":181228.07999999999,"N_COORD97":2568207.73,"ADDRESS":"二鎮１４號之１","OBJECTID":213107},"geometry":{"x":181228.08000000007,"y":2568207.7300000023}},{"attributes":{"ID":213109,"DIS_CODE":0,"TOWNNAME":"官田區","LI":"二鎮里","LIN":"2鄰","STREET":" ","SECT":" ","MAREA":"二鎮","LANE":" ","ALLEY":" ","HOUSE_NO":"１４號之２","E_COORD97":181218.32000000001,"N_COORD97":2568207.9399999999,"ADDRESS":"二鎮１４號之２","OBJECTID":213108},"geometry":{"x":181218.3200000003,"y":2568207.9400000032}},{"attributes":{"ID":213110,"DIS_CODE":0,"TOWNNAME":"下營區","LI":"開化里","LIN":"2鄰","STREET":" ","SECT":" ","MAREA":"中營","LANE":" ","ALLEY":" ","HOUSE_NO":"１０２號之１","E_COORD97":175520.53,"N_COORD97":2568149.1099999999,"ADDRESS":"中營１０２號之１","OBJECTID":213109},"geometry":{"x":175520.53000000026,"y":2568149.1100000013}},{"attributes":{"ID":213111,"DIS_CODE":0,"TOWNNAME":"下營區","LI":"開化里","LIN":"2鄰","STREET":" ","SECT":" ","MAREA":"中營","LANE":" ","ALLEY":" ","HOUSE_NO":"１０２號之２","E_COORD97":175520.76999999999,"N_COORD97":2568144.8799999999,"ADDRESS":"中營１０２號之２","OBJECTID":213110},"geometry":{"x":175520.77000000142,"y":2568144.879999999}},{"attributes":{"ID":213112,"DIS_CODE":0,"TOWNNAME":"下營區","LI":"開化里","LIN":"2鄰","STREET":" ","SECT":" ","MAREA":"中營","LANE":" ","ALLEY":" ","HOUSE_NO":"１０２號之３","E_COORD97":175520.94,"N_COORD97":2568140.5800000001,"ADDRESS":"中營１０２號之３","OBJECTID":213111},"geometry":{"x":175520.94000000134,"y":2568140.5800000019}},{"attributes":{"ID":213113,"DIS_CODE":0,"TOWNNAME":"永康區","LI":"永康里","LIN":"9鄰","STREET":"永康街","SECT":" ","MAREA":" ","LANE":" ","ALLEY":" ","HOUSE_NO":"１０１號","E_COORD97":173870.53,"N_COORD97":2547146.75,"ADDRESS":"永康街１０１號","OBJECTID":213112},"geometry":{"x":173870.53000000119,"y":2547146.7500000019}},{"attributes":{"ID":213114,"DIS_CODE":0,"TOWNNAME":"北區","LI":"永祥里","LIN":"13鄰","STREET":"實踐街","SECT":" ","MAREA":" ","LANE":"１０３巷","ALLEY":"２３弄","HOUSE_NO":"１４號","E_COORD97":170121.87,"N_COORD97":2546179.1499999999,"ADDRESS":"實踐街１０３巷２３弄１４號","OBJECTID":213113},"geometry":{"x":170121.87000000104,"y":2546179.1500000004}},{"attributes":{"ID":213115,"DIS_CODE":0,"TOWNNAME":"北區","LI":"永祥里","LIN":"13鄰","STREET":"實踐街","SECT":" ","MAREA":" ","LANE":"１０３巷","ALLEY":"２３弄","HOUSE_NO":"１５號","E_COORD97":170103.37,"N_COORD97":2546167.46,"ADDRESS":"實踐街１０３巷２３弄１５號","OBJECTID":213114},"geometry":{"x":170103.37000000104,"y":2546167.4600000009}},{"attributes":{"ID":213116,"DIS_CODE":0,"TOWNNAME":"永康區","LI":"蔦松里","LIN":"9鄰","STREET":"中正北路","SECT":" ","MAREA":" ","LANE":" ","ALLEY":" ","HOUSE_NO":"８２９號","E_COORD97":174592.48999999999,"N_COORD97":2549826.75,"ADDRESS":"中正北路８２９號","OBJECTID":213115},"geometry":{"x":174592.48999999929,"y":2549826.7500000037}},{"attributes":{"ID":213117,"DIS_CODE":0,"TOWNNAME":"佳里區","LI":"營頂里","LIN":"9鄰","STREET":" ","SECT":" ","MAREA":"營頂","LANE":" ","ALLEY":" ","HOUSE_NO":"９２號","E_COORD97":167065.53,"N_COORD97":2566646.1699999999,"ADDRESS":"營頂９２號","OBJECTID":213116},"geometry":{"x":167065.53000000026,"y":2566646.1699999999}},{"attributes":{"ID":213118,"DIS_CODE":0,"TOWNNAME":"佳里區","LI":"營頂里","LIN":"9鄰","STREET":" ","SECT":" ","MAREA":"營頂","LANE":" ","ALLEY":" ","HOUSE_NO":"９３號","E_COORD97":167069.35000000001,"N_COORD97":2566667.5600000001,"ADDRESS":"營頂９３號","OBJECTID":213117},"geometry":{"x":167069.34999999963,"y":2566667.5600000005}},{"attributes":{"ID":213119,"DIS_CODE":0,"TOWNNAME":"佳里區","LI":"營頂里","LIN":"9鄰","STREET":" ","SECT":" ","MAREA":"營頂","LANE":" ","ALLEY":" ","HOUSE_NO":"９４號","E_COORD97":167089.60999999999,"N_COORD97":2566676.0600000001,"ADDRESS":"營頂９４號","OBJECTID":213118},"geometry":{"x":167089.61000000127,"y":2566676.0600000024}},{"attributes":{"ID":213120,"DIS_CODE":0,"TOWNNAME":"佳里區","LI":"營頂里","LIN":"9鄰","STREET":" ","SECT":" ","MAREA":"營頂","LANE":" ","ALLEY":" ","HOUSE_NO":"９５號","E_COORD97":167086.42999999999,"N_COORD97":2566642.1699999999,"ADDRESS":"營頂９５號","OBJECTID":213119},"geometry":{"x":167086.43000000063,"y":2566642.1699999999}},{"attributes":{"ID":213121,"DIS_CODE":0,"TOWNNAME":"佳里區","LI":"營頂里","LIN":"9鄰","STREET":" ","SECT":" ","MAREA":"營頂","LANE":" ","ALLEY":" ","HOUSE_NO":"９６號","E_COORD97":167121.56,"N_COORD97":2566618.4500000002,"ADDRESS":"營頂９６號","OBJECTID":213120},"geometry":{"x":167121.56000000052,"y":2566618.4500000011}},{"attributes":{"ID":213122,"DIS_CODE":0,"TOWNNAME":"永康區","LI":"復興里","LIN":"9鄰","STREET":"復興路","SECT":" ","MAREA":" ","LANE":" ","ALLEY":" ","HOUSE_NO":"２８７號","E_COORD97":172325.09,"N_COORD97":2544316.02,"ADDRESS":"復興路２８７號","OBJECTID":213121},"geometry":{"x":172325.09000000171,"y":2544316.0200000014}},{"attributes":{"ID":213123,"DIS_CODE":0,"TOWNNAME":"北區","LI":"永祥里","LIN":"13鄰","STREET":"實踐街","SECT":" ","MAREA":" ","LANE":"１０３巷","ALLEY":"２３弄","HOUSE_NO":"１６號","E_COORD97":170116.32000000001,"N_COORD97":2546179.1499999999,"ADDRESS":"實踐街１０３巷２３弄１６號","OBJECTID":213122},"geometry":{"x":170116.3200000003,"y":2546179.1500000004}},{"attributes":{"ID":213124,"DIS_CODE":0,"TOWNNAME":"北區","LI":"永祥里","LIN":"13鄰","STREET":"實踐街","SECT":" ","MAREA":" ","LANE":"１０３巷","ALLEY":"２３弄","HOUSE_NO":"１７號","E_COORD97":170096.82000000001,"N_COORD97":2546167.54,"ADDRESS":"實踐街１０３巷２３弄１７號","OBJECTID":213123},"geometry":{"x":170096.82000000123,"y":2546167.5399999991}},{"attributes":{"ID":213125,"DIS_CODE":0,"TOWNNAME":"佳里區","LI":"營頂里","LIN":"9鄰","STREET":" ","SECT":" ","MAREA":"營頂","LANE":" ","ALLEY":" ","HOUSE_NO":"９７號","E_COORD97":167163.26999999999,"N_COORD97":2566631.1400000001,"ADDRESS":"營頂９７號","OBJECTID":213124},"geometry":{"x":167163.26999999862,"y":2566631.1400000043}},{"attributes":{"ID":213126,"DIS_CODE":0,"TOWNNAME":"永康區","LI":"南灣里","LIN":"9鄰","STREET":"大灣路","SECT":" ","MAREA":" ","LANE":" ","ALLEY":" ","HOUSE_NO":"６４３號","E_COORD97":174140.69,"N_COORD97":2544507.4300000002,"ADDRESS":"大灣路６４３號","OBJECTID":213125},"geometry":{"x":174140.69000000134,"y":2544507.4300000016}},{"attributes":{"ID":213127,"DIS_CODE":0,"TOWNNAME":"佳里區","LI":"營頂里","LIN":"9鄰","STREET":" ","SECT":" ","MAREA":"營頂","LANE":" ","ALLEY":" ","HOUSE_NO":"９８號","E_COORD97":167192.03,"N_COORD97":2566637.5,"ADDRESS":"營頂９８號","OBJECTID":213126},"geometry":{"x":167192.03000000026,"y":2566637.5}},{"attributes":{"ID":213128,"DIS_CODE":0,"TOWNNAME":"北區","LI":"永祥里","LIN":"13鄰","STREET":"實踐街","SECT":" ","MAREA":" ","LANE":"１０３巷","ALLEY":"２３弄","HOUSE_NO":"１８號","E_COORD97":170110.69,"N_COORD97":2546179.0800000001,"ADDRESS":"實踐街１０３巷２３弄１８號","OBJECTID":213127},"geometry":{"x":170110.69000000041,"y":2546179.0800000001}},{"attributes":{"ID":213129,"DIS_CODE":0,"TOWNNAME":"山上區","LI":"山上里","LIN":"9鄰","STREET":" ","SECT":" ","MAREA":"山上","LANE":" ","ALLEY":" ","HOUSE_NO":"１５９號之１","E_COORD97":184172.35000000001,"N_COORD97":2555669.2999999998,"ADDRESS":"山上１５９號之１","OBJECTID":213128},"geometry":{"x":184172.3499999987,"y":2555669.3000000026}},{"attributes":{"ID":213130,"DIS_CODE":0,"TOWNNAME":"下營區","LI":"開化里","LIN":"2鄰","STREET":" ","SECT":" ","MAREA":"中營","LANE":" ","ALLEY":" ","HOUSE_NO":"１０２號之４","E_COORD97":175521.17999999999,"N_COORD97":2568136.02,"ADDRESS":"中營１０２號之４","OBJECTID":213129},"geometry":{"x":175521.1799999997,"y":2568136.0200000033}},{"attributes":{"ID":213131,"DIS_CODE":0,"TOWNNAME":"下營區","LI":"開化里","LIN":"2鄰","STREET":" ","SECT":" ","MAREA":"中營","LANE":" ","ALLEY":" ","HOUSE_NO":"１０２號之５","E_COORD97":175521.87,"N_COORD97":2568131.77,"ADDRESS":"中營１０２號之５","OBJECTID":213130},"geometry":{"x":175521.87000000011,"y":2568131.7700000014}},{"attributes":{"ID":213132,"DIS_CODE":0,"TOWNNAME":"下營區","LI":"開化里","LIN":"2鄰","STREET":" ","SECT":" ","MAREA":"中營","LANE":" ","ALLEY":" ","HOUSE_NO":"１０２號","E_COORD97":175519.66,"N_COORD97":2568153.1800000002,"ADDRESS":"中營１０２號","OBJECTID":213131},"geometry":{"x":175519.66000000015,"y":2568153.1800000016}},{"attributes":{"ID":213133,"DIS_CODE":0,"TOWNNAME":"下營區","LI":"開化里","LIN":"2鄰","STREET":" ","SECT":" ","MAREA":"中營","LANE":" ","ALLEY":" ","HOUSE_NO":"１０４號之１","E_COORD97":175503.67000000001,"N_COORD97":2568146.7200000002,"ADDRESS":"中營１０４號之１","OBJECTID":213132},"geometry":{"x":175503.67000000086,"y":2568146.7200000025}},{"attributes":{"ID":213134,"DIS_CODE":0,"TOWNNAME":"下營區","LI":"開化里","LIN":"2鄰","STREET":" ","SECT":" ","MAREA":"中營","LANE":" ","ALLEY":" ","HOUSE_NO":"１０４號之２","E_COORD97":175498.39000000001,"N_COORD97":2568146.3399999999,"ADDRESS":"中營１０４號之２","OBJECTID":213133},"geometry":{"x":175498.3900000006,"y":2568146.3399999999}},{"attributes":{"ID":213135,"DIS_CODE":0,"TOWNNAME":"下營區","LI":"開化里","LIN":"2鄰","STREET":" ","SECT":" ","MAREA":"中營","LANE":" ","ALLEY":" ","HOUSE_NO":"１０４號","E_COORD97":175508.31,"N_COORD97":2568147.21,"ADDRESS":"中營１０４號","OBJECTID":213134},"geometry":{"x":175508.30999999959,"y":2568147.2100000028}},{"attributes":{"ID":213136,"DIS_CODE":0,"TOWNNAME":"下營區","LI":"開化里","LIN":"2鄰","STREET":" ","SECT":" ","MAREA":"中營","LANE":" ","ALLEY":" ","HOUSE_NO":"１０６之２號","E_COORD97":175427.39000000001,"N_COORD97":2568141.5299999998,"ADDRESS":"中營１０６之２號","OBJECTID":213135},"geometry":{"x":175427.3900000006,"y":2568141.5299999993}},{"attributes":{"ID":213137,"DIS_CODE":0,"TOWNNAME":"北區","LI":"永祥里","LIN":"13鄰","STREET":"實踐街","SECT":" ","MAREA":" ","LANE":"１０３巷","ALLEY":"２３弄","HOUSE_NO":"１號","E_COORD97":170144.73000000001,"N_COORD97":2546167.6099999999,"ADDRESS":"實踐街１０３巷２３弄１號","OBJECTID":213136},"geometry":{"x":170144.73000000231,"y":2546167.6099999994}},{"attributes":{"ID":213138,"DIS_CODE":0,"TOWNNAME":"下營區","LI":"開化里","LIN":"2鄰","STREET":" ","SECT":" ","MAREA":"中營","LANE":" ","ALLEY":" ","HOUSE_NO":"１０６號","E_COORD97":175459.10999999999,"N_COORD97":2568125.6099999999,"ADDRESS":"中營１０６號","OBJECTID":213137},"geometry":{"x":175459.11000000034,"y":2568125.6100000013}},{"attributes":{"ID":213139,"DIS_CODE":0,"TOWNNAME":"下營區","LI":"開化里","LIN":"2鄰","STREET":" ","SECT":" ","MAREA":"中營","LANE":" ","ALLEY":" ","HOUSE_NO":"１０９號","E_COORD97":175394.29000000001,"N_COORD97":2568184.8999999999,"ADDRESS":"中營１０９號","OBJECTID":213138},"geometry":{"x":175394.29000000097,"y":2568184.8999999985}},{"attributes":{"ID":213140,"DIS_CODE":0,"TOWNNAME":"下營區","LI":"開化里","LIN":"2鄰","STREET":" ","SECT":" ","MAREA":"中營","LANE":" ","ALLEY":" ","HOUSE_NO":"１１０號","E_COORD97":175410.81,"N_COORD97":2568127.5299999998,"ADDRESS":"中營１１０號","OBJECTID":213139},"geometry":{"x":175410.81000000052,"y":2568127.5299999993}},{"attributes":{"ID":213141,"DIS_CODE":0,"TOWNNAME":"下營區","LI":"開化里","LIN":"2鄰","STREET":" ","SECT":" ","MAREA":"中營","LANE":" ","ALLEY":" ","HOUSE_NO":"１１１號","E_COORD97":175402.34,"N_COORD97":2568157.9700000002,"ADDRESS":"中營１１１號","OBJECTID":213140},"geometry":{"x":175402.34000000078,"y":2568157.9700000044}},{"attributes":{"ID":213142,"DIS_CODE":0,"TOWNNAME":"北區","LI":"永祥里","LIN":"13鄰","STREET":"實踐街","SECT":" ","MAREA":" ","LANE":"１０３巷","ALLEY":"２３弄","HOUSE_NO":"２０號","E_COORD97":170104.85999999999,"N_COORD97":2546178.9399999999,"ADDRESS":"實踐街１０３巷２３弄２０號","OBJECTID":213141},"geometry":{"x":170104.8600000022,"y":2546178.9399999995}},{"attributes":{"ID":213143,"DIS_CODE":0,"TOWNNAME":"北區","LI":"永祥里","LIN":"13鄰","STREET":"實踐街","SECT":" ","MAREA":" ","LANE":"１０３巷","ALLEY":"２３弄","HOUSE_NO":"２號","E_COORD97":170156.98000000001,"N_COORD97":2546179.52,"ADDRESS":"實踐街１０３巷２３弄２號","OBJECTID":213142},"geometry":{"x":170156.98000000138,"y":2546179.5199999996}},{"attributes":{"ID":213144,"DIS_CODE":0,"TOWNNAME":"北區","LI":"永祥里","LIN":"13鄰","STREET":"實踐街","SECT":" ","MAREA":" ","LANE":"１０３巷","ALLEY":"２３弄","HOUSE_NO":"３號","E_COORD97":170137.97,"N_COORD97":2546167.6099999999,"ADDRESS":"實踐街１０３巷２３弄３號","OBJECTID":213143},"geometry":{"x":170137.97000000067,"y":2546167.6099999994}},{"attributes":{"ID":213145,"DIS_CODE":0,"TOWNNAME":"北區","LI":"永祥里","LIN":"13鄰","STREET":"實踐街","SECT":" ","MAREA":" ","LANE":"１０３巷","ALLEY":"２３弄","HOUSE_NO":"５號","E_COORD97":170131.98999999999,"N_COORD97":2546167.8199999998,"ADDRESS":"實踐街１０３巷２３弄５號","OBJECTID":213144},"geometry":{"x":170131.99000000022,"y":2546167.8200000003}},{"attributes":{"ID":213146,"DIS_CODE":0,"TOWNNAME":"北區","LI":"永祥里","LIN":"13鄰","STREET":"實踐街","SECT":" ","MAREA":" ","LANE":"１０３巷","ALLEY":"２３弄","HOUSE_NO":"６號","E_COORD97":170145.92999999999,"N_COORD97":2546179.6600000001,"ADDRESS":"實踐街１０３巷２３弄６號","OBJECTID":213145},"geometry":{"x":170145.93000000156,"y":2546179.6600000039}},{"attributes":{"ID":213147,"DIS_CODE":0,"TOWNNAME":"北區","LI":"永祥里","LIN":"13鄰","STREET":"實踐街","SECT":" ","MAREA":" ","LANE":"１０３巷","ALLEY":"２３弄","HOUSE_NO":"７號","E_COORD97":170126.94,"N_COORD97":2546167.8900000001,"ADDRESS":"實踐街１０３巷２３弄７號","OBJECTID":213146},"geometry":{"x":170126.94000000134,"y":2546167.8900000006}},{"attributes":{"ID":213148,"DIS_CODE":0,"TOWNNAME":"北區","LI":"永祥里","LIN":"13鄰","STREET":"實踐街","SECT":" ","MAREA":" ","LANE":"１０３巷","ALLEY":"２３弄","HOUSE_NO":"８號","E_COORD97":170139.95000000001,"N_COORD97":2546179.8700000001,"ADDRESS":"實踐街１０３巷２３弄８號","OBJECTID":213147},"geometry":{"x":170139.95000000112,"y":2546179.8700000029}},{"attributes":{"ID":213149,"DIS_CODE":0,"TOWNNAME":"北區","LI":"永祥里","LIN":"13鄰","STREET":"實踐街","SECT":" ","MAREA":" ","LANE":"１０３巷","ALLEY":"２３弄","HOUSE_NO":"９號","E_COORD97":170120.89999999999,"N_COORD97":2546167.6800000002,"ADDRESS":"實踐街１０３巷２３弄９號","OBJECTID":213148},"geometry":{"x":170120.90000000037,"y":2546167.6799999997}},{"attributes":{"ID":213150,"DIS_CODE":0,"TOWNNAME":"南區","LI":"新興里","LIN":"13鄰","STREET":"夏林路","SECT":" ","MAREA":" ","LANE":"２２２巷","ALLEY":"４弄","HOUSE_NO":"１５號","E_COORD97":167396.78,"N_COORD97":2542266.7000000002,"ADDRESS":"夏林路２２２巷４弄１５號","OBJECTID":213149},"geometry":{"x":167396.78000000119,"y":2542266.7000000011}},{"attributes":{"ID":213151,"DIS_CODE":0,"TOWNNAME":"南區","LI":"新興里","LIN":"13鄰","STREET":"夏林路","SECT":" ","MAREA":" ","LANE":"２２２巷","ALLEY":"４弄","HOUSE_NO":"１７號","E_COORD97":167400.62,"N_COORD97":2542275.6499999999,"ADDRESS":"夏林路２２２巷４弄１７號","OBJECTID":213150},"geometry":{"x":167400.62000000197,"y":2542275.6500000022}},{"attributes":{"ID":213152,"DIS_CODE":0,"TOWNNAME":"南區","LI":"新興里","LIN":"13鄰","STREET":"夏林路","SECT":" ","MAREA":" ","LANE":"２２２巷","ALLEY":"４弄","HOUSE_NO":"１９號","E_COORD97":167404.45999999999,"N_COORD97":2542280.1200000001,"ADDRESS":"夏林路２２２巷４弄１９號","OBJECTID":213151},"geometry":{"x":167404.45999999996,"y":2542280.1200000029}},{"attributes":{"ID":213153,"DIS_CODE":0,"TOWNNAME":"南區","LI":"鯤鯓里","LIN":"13鄰","STREET":"鯤鯓路","SECT":" ","MAREA":" ","LANE":"１９４巷","ALLEY":"４７弄","HOUSE_NO":"１號","E_COORD97":165005.57000000001,"N_COORD97":2540330.4300000002,"ADDRESS":"鯤鯓路１９４巷４７弄１號","OBJECTID":213152},"geometry":{"x":165005.5700000003,"y":2540330.4300000016}},{"attributes":{"ID":213154,"DIS_CODE":0,"TOWNNAME":"南區","LI":"鯤鯓里","LIN":"13鄰","STREET":"鯤鯓路","SECT":" ","MAREA":" ","LANE":"１９４巷","ALLEY":"４７弄","HOUSE_NO":"３號","E_COORD97":165007.26000000001,"N_COORD97":2540343.46,"ADDRESS":"鯤鯓路１９４巷４７弄３號","OBJECTID":213153},"geometry":{"x":165007.25999999885,"y":2540343.4600000046}},{"attributes":{"ID":213155,"DIS_CODE":0,"TOWNNAME":"南區","LI":"鯤鯓里","LIN":"13鄰","STREET":"鯤鯓路","SECT":" ","MAREA":" ","LANE":"１９４巷","ALLEY":"４７弄","HOUSE_NO":"５號","E_COORD97":165010.16,"N_COORD97":2540357.7000000002,"ADDRESS":"鯤鯓路１９４巷４７弄５號","OBJECTID":213154},"geometry":{"x":165010.16000000201,"y":2540357.7000000011}},{"attributes":{"ID":213156,"DIS_CODE":0,"TOWNNAME":"南區","LI":"鯤鯓里","LIN":"13鄰","STREET":"鯤鯓路","SECT":" ","MAREA":" ","LANE":"１９４巷","ALLEY":"４７弄","HOUSE_NO":"８號","E_COORD97":165024.29999999999,"N_COORD97":2540335.2999999998,"ADDRESS":"鯤鯓路１９４巷４７弄８號","OBJECTID":213155},"geometry":{"x":165024.30000000075,"y":2540335.3000000026}},{"attributes":{"ID":213157,"DIS_CODE":0,"TOWNNAME":"北區","LI":"六甲里","LIN":"13鄰","STREET":"公園路","SECT":" ","MAREA":" ","LANE":"５０９巷","ALLEY":"８弄","HOUSE_NO":"２７號","E_COORD97":169021.34,"N_COORD97":2545644.9199999999,"ADDRESS":"公園路５０９巷８弄２７號","OBJECTID":213156},"geometry":{"x":169021.34000000078,"y":2545644.9199999999}},{"attributes":{"ID":213158,"DIS_CODE":0,"TOWNNAME":"北區","LI":"六甲里","LIN":"13鄰","STREET":"公園路","SECT":" ","MAREA":" ","LANE":"５０９巷","ALLEY":"８弄","HOUSE_NO":"２９號","E_COORD97":169022.60999999999,"N_COORD97":2545648.4500000002,"ADDRESS":"公園路５０９巷８弄２９號","OBJECTID":213157},"geometry":{"x":169022.61000000034,"y":2545648.4500000011}},{"attributes":{"ID":213159,"DIS_CODE":0,"TOWNNAME":"北區","LI":"六甲里","LIN":"13鄰","STREET":"公園路","SECT":" ","MAREA":" ","LANE":"５０９巷","ALLEY":"８弄","HOUSE_NO":"３１號","E_COORD97":169023.87,"N_COORD97":2545652.75,"ADDRESS":"公園路５０９巷８弄３１號","OBJECTID":213158},"geometry":{"x":169023.87000000011,"y":2545652.75}},{"attributes":{"ID":213160,"DIS_CODE":0,"TOWNNAME":"北區","LI":"文元里","LIN":"13鄰","STREET":"文賢路","SECT":" ","MAREA":" ","LANE":"１１８０巷","ALLEY":"１７弄","HOUSE_NO":"１號","E_COORD97":167358.5,"N_COORD97":2546484.6099999999,"ADDRESS":"文賢路１１８０巷１７弄１號","OBJECTID":213159},"geometry":{"x":167358.5,"y":2546484.6100000013}},{"attributes":{"ID":213161,"DIS_CODE":0,"TOWNNAME":"北區","LI":"文元里","LIN":"13鄰","STREET":"文賢路","SECT":" ","MAREA":" ","LANE":"１１８０巷","ALLEY":"１７弄","HOUSE_NO":"３號","E_COORD97":167359.06,"N_COORD97":2546488.2200000002,"ADDRESS":"文賢路１１８０巷１７弄３號","OBJECTID":213160},"geometry":{"x":167359.05999999959,"y":2546488.2200000044}},{"attributes":{"ID":213162,"DIS_CODE":0,"TOWNNAME":"北區","LI":"文元里","LIN":"13鄰","STREET":"文賢路","SECT":" ","MAREA":" ","LANE":"１１８０巷","ALLEY":"２弄","HOUSE_NO":"２號","E_COORD97":167345.20000000001,"N_COORD97":2546456.4500000002,"ADDRESS":"文賢路１１８０巷２弄２號","OBJECTID":213161},"geometry":{"x":167345.20000000019,"y":2546456.4499999993}},{"attributes":{"ID":213163,"DIS_CODE":0,"TOWNNAME":"北區","LI":"文元里","LIN":"13鄰","STREET":"文賢路","SECT":" ","MAREA":" ","LANE":"１１８０巷","ALLEY":"２弄","HOUSE_NO":"４號","E_COORD97":167346.44,"N_COORD97":2546452.1099999999,"ADDRESS":"文賢路１１８０巷２弄４號","OBJECTID":213162},"geometry":{"x":167346.44000000134,"y":2546452.1099999994}},{"attributes":{"ID":213164,"DIS_CODE":0,"TOWNNAME":"北區","LI":"文元里","LIN":"13鄰","STREET":"文賢路","SECT":" ","MAREA":" ","LANE":"１１８０巷","ALLEY":"２弄","HOUSE_NO":"６號","E_COORD97":167347.38,"N_COORD97":2546447.46,"ADDRESS":"文賢路１１８０巷２弄６號","OBJECTID":213163},"geometry":{"x":167347.37999999989,"y":2546447.4600000028}},{"attributes":{"ID":213165,"DIS_CODE":0,"TOWNNAME":"北區","LI":"文元里","LIN":"13鄰","STREET":"文賢路","SECT":" ","MAREA":" ","LANE":"１１８０巷","ALLEY":"２弄","HOUSE_NO":"８號","E_COORD97":167348,"N_COORD97":2546442.4900000002,"ADDRESS":"文賢路１１８０巷２弄８號","OBJECTID":213164},"geometry":{"x":167348,"y":2546442.4900000021}},{"attributes":{"ID":213166,"DIS_CODE":0,"TOWNNAME":"下營區","LI":"開化里","LIN":"2鄰","STREET":" ","SECT":" ","MAREA":"中營","LANE":" ","ALLEY":" ","HOUSE_NO":"１１３號之１","E_COORD97":175530.16,"N_COORD97":2568111.5099999998,"ADDRESS":"中營１１３號之１","OBJECTID":213165},"geometry":{"x":175530.16000000015,"y":2568111.5099999998}},{"attributes":{"ID":213167,"DIS_CODE":0,"TOWNNAME":"下營區","LI":"開化里","LIN":"2鄰","STREET":" ","SECT":" ","MAREA":"中營","LANE":" ","ALLEY":" ","HOUSE_NO":"１１３號","E_COORD97":175523.01000000001,"N_COORD97":2568111.3199999998,"ADDRESS":"中營１１３號","OBJECTID":213166},"geometry":{"x":175523.01000000071,"y":2568111.3200000022}},{"attributes":{"ID":213168,"DIS_CODE":0,"TOWNNAME":"下營區","LI":"開化里","LIN":"2鄰","STREET":" ","SECT":" ","MAREA":"中營","LANE":" ","ALLEY":" ","HOUSE_NO":"１１４號","E_COORD97":175517.01999999999,"N_COORD97":2568114.3199999998,"ADDRESS":"中營１１４號","OBJECTID":213167},"geometry":{"x":175517.01999999955,"y":2568114.320000004}},{"attributes":{"ID":213169,"DIS_CODE":0,"TOWNNAME":"下營區","LI":"開化里","LIN":"2鄰","STREET":" ","SECT":" ","MAREA":"中營","LANE":" ","ALLEY":" ","HOUSE_NO":"１１５號","E_COORD97":175512.56,"N_COORD97":2568113.9700000002,"ADDRESS":"中營１１５號","OBJECTID":213168},"geometry":{"x":175512.56000000052,"y":2568113.9700000044}},{"attributes":{"ID":213170,"DIS_CODE":0,"TOWNNAME":"下營區","LI":"開化里","LIN":"2鄰","STREET":" ","SECT":" ","MAREA":"中營","LANE":" ","ALLEY":" ","HOUSE_NO":"１１６號","E_COORD97":175508.10000000001,"N_COORD97":2568113.6200000001,"ADDRESS":"中營１１６號","OBJECTID":213169},"geometry":{"x":175508.09999999963,"y":2568113.6200000029}},{"attributes":{"ID":213171,"DIS_CODE":0,"TOWNNAME":"下營區","LI":"開化里","LIN":"2鄰","STREET":" ","SECT":" ","MAREA":"中營","LANE":" ","ALLEY":" ","HOUSE_NO":"１１７號","E_COORD97":175503.64000000001,"N_COORD97":2568113.27,"ADDRESS":"中營１１７號","OBJECTID":213170},"geometry":{"x":175503.6400000006,"y":2568113.2699999996}},{"attributes":{"ID":213172,"DIS_CODE":0,"TOWNNAME":"下營區","LI":"開化里","LIN":"2鄰","STREET":" ","SECT":" ","MAREA":"中營","LANE":" ","ALLEY":" ","HOUSE_NO":"１１８號","E_COORD97":175499.19,"N_COORD97":2568112.9199999999,"ADDRESS":"中營１１８號","OBJECTID":213171},"geometry":{"x":175499.19000000134,"y":2568112.9199999999}},{"attributes":{"ID":213173,"DIS_CODE":0,"TOWNNAME":"下營區","LI":"開化里","LIN":"2鄰","STREET":" ","SECT":" ","MAREA":"中營","LANE":" ","ALLEY":" ","HOUSE_NO":"１１９號","E_COORD97":175494.73000000001,"N_COORD97":2568112.5699999998,"ADDRESS":"中營１１９號","OBJECTID":213172},"geometry":{"x":175494.73000000231,"y":2568112.5699999984}},{"attributes":{"ID":213174,"DIS_CODE":0,"TOWNNAME":"新化區","LI":"知義里","LIN":"9鄰","STREET":" ","SECT":" ","MAREA":"新和庄","LANE":" ","ALLEY":" ","HOUSE_NO":"８７號","E_COORD97":182026.44,"N_COORD97":2546498.25,"ADDRESS":"新和庄８７號","OBJECTID":213173},"geometry":{"x":182026.43999999948,"y":2546498.2500000019}},{"attributes":{"ID":213175,"DIS_CODE":0,"TOWNNAME":"新化區","LI":"知義里","LIN":"9鄰","STREET":" ","SECT":" ","MAREA":"新和庄","LANE":" ","ALLEY":" ","HOUSE_NO":"１６８號","E_COORD97":182027.09,"N_COORD97":2546753.25,"ADDRESS":"新和庄１６８號","OBJECTID":213174},"geometry":{"x":182027.09000000078,"y":2546753.2500000019}},{"attributes":{"ID":213176,"DIS_CODE":0,"TOWNNAME":"北區","LI":"文元里","LIN":"13鄰","STREET":"文賢路","SECT":" ","MAREA":" ","LANE":"１１８０巷","ALLEY":"６弄","HOUSE_NO":"１號","E_COORD97":167382.67000000001,"N_COORD97":2546445.46,"ADDRESS":"文賢路１１８０巷６弄１號","OBJECTID":213175},"geometry":{"x":167382.66999999993,"y":2546445.4600000009}},{"attributes":{"ID":213177,"DIS_CODE":0,"TOWNNAME":"新化區","LI":"知義里","LIN":"9鄰","STREET":" ","SECT":" ","MAREA":"新和庄","LANE":" ","ALLEY":" ","HOUSE_NO":"５９號","E_COORD97":181876.14000000001,"N_COORD97":2546583.25,"ADDRESS":"新和庄５９號","OBJECTID":213176},"geometry":{"x":181876.13999999966,"y":2546583.2500000019}},{"attributes":{"ID":213178,"DIS_CODE":0,"TOWNNAME":"新化區","LI":"知義里","LIN":"9鄰","STREET":" ","SECT":" ","MAREA":"新和庄","LANE":" ","ALLEY":" ","HOUSE_NO":"８３號之２","E_COORD97":182007.98999999999,"N_COORD97":2546508.2599999998,"ADDRESS":"新和庄８３號之２","OBJECTID":213177},"geometry":{"x":182007.99000000115,"y":2546508.2600000016}},{"attributes":{"ID":213179,"DIS_CODE":0,"TOWNNAME":"新化區","LI":"知義里","LIN":"9鄰","STREET":" ","SECT":" ","MAREA":"新和庄","LANE":" ","ALLEY":" ","HOUSE_NO":"１６７號","E_COORD97":182032.69,"N_COORD97":2546751.25,"ADDRESS":"新和庄１６７號","OBJECTID":213178},"geometry":{"x":182032.69000000041,"y":2546751.25}},{"attributes":{"ID":213180,"DIS_CODE":0,"TOWNNAME":"北區","LI":"文元里","LIN":"13鄰","STREET":"文賢路","SECT":" ","MAREA":" ","LANE":"１１８０巷","ALLEY":"６弄","HOUSE_NO":"４號","E_COORD97":167358.39000000001,"N_COORD97":2546454.3900000001,"ADDRESS":"文賢路１１８０巷６弄４號","OBJECTID":213179},"geometry":{"x":167358.3900000006,"y":2546454.3900000025}},{"attributes":{"ID":213181,"DIS_CODE":0,"TOWNNAME":"新化區","LI":"知義里","LIN":"9鄰","STREET":" ","SECT":" ","MAREA":"新和庄","LANE":" ","ALLEY":" ","HOUSE_NO":"５６號","E_COORD97":181864.64000000001,"N_COORD97":2546591.25,"ADDRESS":"新和庄５６號","OBJECTID":213180},"geometry":{"x":181864.63999999966,"y":2546591.25}},{"attributes":{"ID":213182,"DIS_CODE":0,"TOWNNAME":"北區","LI":"文元里","LIN":"13鄰","STREET":"文賢路","SECT":" ","MAREA":" ","LANE":"１１８０巷","ALLEY":"６弄","HOUSE_NO":"６號","E_COORD97":167359.28,"N_COORD97":2546450.2400000002,"ADDRESS":"文賢路１１８０巷６弄６號","OBJECTID":213181},"geometry":{"x":167359.28000000119,"y":2546450.2400000039}},{"attributes":{"ID":213183,"DIS_CODE":0,"TOWNNAME":"新化區","LI":"大坑里","LIN":"9鄰","STREET":" ","SECT":" ","MAREA":"大坑尾","LANE":" ","ALLEY":" ","HOUSE_NO":"４３號","E_COORD97":185333.48000000001,"N_COORD97":2545457.25,"ADDRESS":"大坑尾４３號","OBJECTID":213182},"geometry":{"x":185333.48000000045,"y":2545457.2500000019}},{"attributes":{"ID":213184,"DIS_CODE":0,"TOWNNAME":"北區","LI":"重興里","LIN":"13鄰","STREET":"開南街","SECT":" ","MAREA":" ","LANE":"１４３巷","ALLEY":"１０弄","HOUSE_NO":"１０號","E_COORD97":170696.26000000001,"N_COORD97":2545142.71,"ADDRESS":"開南街１４３巷１０弄１０號","OBJECTID":213183},"geometry":{"x":170696.25999999978,"y":2545142.7100000046}},{"attributes":{"ID":213185,"DIS_CODE":0,"TOWNNAME":"北區","LI":"重興里","LIN":"13鄰","STREET":"開南街","SECT":" ","MAREA":" ","LANE":"１４３巷","ALLEY":"１０弄","HOUSE_NO":"１１號","E_COORD97":170711.85999999999,"N_COORD97":2545158.7200000002,"ADDRESS":"開南街１４３巷１０弄１１號","OBJECTID":213184},"geometry":{"x":170711.86000000127,"y":2545158.7200000007}},{"attributes":{"ID":213186,"DIS_CODE":0,"TOWNNAME":"北區","LI":"重興里","LIN":"13鄰","STREET":"開南街","SECT":" ","MAREA":" ","LANE":"１４３巷","ALLEY":"１０弄","HOUSE_NO":"１２號","E_COORD97":170700.64999999999,"N_COORD97":2545142.6400000001,"ADDRESS":"開南街１４３巷１０弄１２號","OBJECTID":213185},"geometry":{"x":170700.65000000037,"y":2545142.6400000043}},{"attributes":{"ID":213187,"DIS_CODE":0,"TOWNNAME":"新化區","LI":"大坑里","LIN":"9鄰","STREET":" ","SECT":" ","MAREA":"大坑尾","LANE":" ","ALLEY":" ","HOUSE_NO":"２４３號","E_COORD97":185141.73000000001,"N_COORD97":2545518.25,"ADDRESS":"大坑尾２４３號","OBJECTID":213186},"geometry":{"x":185141.73000000045,"y":2545518.2500000019}},{"attributes":{"ID":213188,"DIS_CODE":0,"TOWNNAME":"北區","LI":"重興里","LIN":"13鄰","STREET":"開南街","SECT":" ","MAREA":" ","LANE":"１４３巷","ALLEY":"１０弄","HOUSE_NO":"１４號","E_COORD97":170704.73999999999,"N_COORD97":2545141.7599999998,"ADDRESS":"開南街１４３巷１０弄１４號","OBJECTID":213187},"geometry":{"x":170704.74000000022,"y":2545141.7600000016}},{"attributes":{"ID":213189,"DIS_CODE":0,"TOWNNAME":"北區","LI":"重興里","LIN":"13鄰","STREET":"開南街","SECT":" ","MAREA":" ","LANE":"１４３巷","ALLEY":"１０弄","HOUSE_NO":"１６號","E_COORD97":170709.34,"N_COORD97":2545141.54,"ADDRESS":"開南街１４３巷１０弄１６號","OBJECTID":213188},"geometry":{"x":170709.33999999985,"y":2545141.5399999991}},{"attributes":{"ID":213190,"DIS_CODE":0,"TOWNNAME":"北區","LI":"重興里","LIN":"13鄰","STREET":"開南街","SECT":" ","MAREA":" ","LANE":"１４３巷","ALLEY":"１０弄","HOUSE_NO":"１８號","E_COORD97":170714.89999999999,"N_COORD97":2545138.1099999999,"ADDRESS":"開南街１４３巷１０弄１８號","OBJECTID":213189},"geometry":{"x":170714.90000000224,"y":2545138.1099999975}},{"attributes":{"ID":213191,"DIS_CODE":0,"TOWNNAME":"北區","LI":"重興里","LIN":"13鄰","STREET":"開南街","SECT":" ","MAREA":" ","LANE":"１４３巷","ALLEY":"１０弄","HOUSE_NO":"１號","E_COORD97":170683.01000000001,"N_COORD97":2545161.79,"ADDRESS":"開南街１４３巷１０弄１號","OBJECTID":213190},"geometry":{"x":170683.01000000164,"y":2545161.790000001}},{"attributes":{"ID":213192,"DIS_CODE":0,"TOWNNAME":"北區","LI":"重興里","LIN":"13鄰","STREET":"開南街","SECT":" ","MAREA":" ","LANE":"１４３巷","ALLEY":"１０弄","HOUSE_NO":"２０號","E_COORD97":170719.35000000001,"N_COORD97":2545137.5299999998,"ADDRESS":"開南街１４３巷１０弄２０號","OBJECTID":213191},"geometry":{"x":170719.35000000149,"y":2545137.5299999993}},{"attributes":{"ID":213193,"DIS_CODE":0,"TOWNNAME":"新化區","LI":"知義里","LIN":"9鄰","STREET":" ","SECT":" ","MAREA":"新和庄","LANE":" ","ALLEY":" ","HOUSE_NO":"８１號","E_COORD97":181990.73999999999,"N_COORD97":2546519.25,"ADDRESS":"新和庄８１號","OBJECTID":213192},"geometry":{"x":181990.74000000115,"y":2546519.2500000019}},{"attributes":{"ID":213194,"DIS_CODE":0,"TOWNNAME":"北區","LI":"重興里","LIN":"13鄰","STREET":"開南街","SECT":" ","MAREA":" ","LANE":"１４３巷","ALLEY":"１０弄","HOUSE_NO":"２１號","E_COORD97":170734.73999999999,"N_COORD97":2545151.0699999998,"ADDRESS":"開南街１４３巷１０弄２１號","OBJECTID":213193},"geometry":{"x":170734.74000000115,"y":2545151.0700000022}},{"attributes":{"ID":213195,"DIS_CODE":0,"TOWNNAME":"北區","LI":"重興里","LIN":"13鄰","STREET":"開南街","SECT":" ","MAREA":" ","LANE":"１４３巷","ALLEY":"１０弄","HOUSE_NO":"２３號","E_COORD97":170738.67999999999,"N_COORD97":2545150.8500000001,"ADDRESS":"開南街１４３巷１０弄２３號","OBJECTID":213194},"geometry":{"x":170738.6799999997,"y":2545150.8500000015}},{"attributes":{"ID":213196,"DIS_CODE":0,"TOWNNAME":"北區","LI":"重興里","LIN":"13鄰","STREET":"開南街","SECT":" ","MAREA":" ","LANE":"１４３巷","ALLEY":"１０弄","HOUSE_NO":"２５號","E_COORD97":170743.5,"N_COORD97":2545153.04,"ADDRESS":"開南街１４３巷１０弄２５號","OBJECTID":213195},"geometry":{"x":170743.5,"y":2545153.040000001}},{"attributes":{"ID":213197,"DIS_CODE":0,"TOWNNAME":"安南區","LI":"佃東里","LIN":"1鄰","STREET":"安吉路","SECT":"二段","MAREA":" ","LANE":"５１１巷","ALLEY":" ","HOUSE_NO":"５８號","E_COORD97":166992.18349299999,"N_COORD97":2551647.5754,"ADDRESS":"安吉路二段５１１巷５８號","OBJECTID":213196},"geometry":{"x":166992.18349299952,"y":2551647.5753990002}},{"attributes":{"ID":213198,"DIS_CODE":0,"TOWNNAME":"北區","LI":"重興里","LIN":"13鄰","STREET":"開南街","SECT":" ","MAREA":" ","LANE":"１４３巷","ALLEY":"１０弄","HOUSE_NO":"２７號","E_COORD97":170748.41,"N_COORD97":2545152.54,"ADDRESS":"開南街１４３巷１０弄２７號","OBJECTID":213197},"geometry":{"x":170748.41000000201,"y":2545152.540000001}},{"attributes":{"ID":213199,"DIS_CODE":0,"TOWNNAME":"北區","LI":"重興里","LIN":"13鄰","STREET":"開南街","SECT":" ","MAREA":" ","LANE":"１４３巷","ALLEY":"１０弄","HOUSE_NO":"２９號","E_COORD97":170752.29999999999,"N_COORD97":2545150.8900000001,"ADDRESS":"開南街１４３巷１０弄２９號","OBJECTID":213198},"geometry":{"x":170752.30000000075,"y":2545150.8900000006}},{"attributes":{"ID":213200,"DIS_CODE":0,"TOWNNAME":"西港區","LI":"西港里","LIN":"9鄰","STREET":"文化路","SECT":" ","MAREA":" ","LANE":" ","ALLEY":" ","HOUSE_NO":"２號","E_COORD97":168428.17000000001,"N_COORD97":2558083.7200000002,"ADDRESS":"文化路２號","OBJECTID":213199},"geometry":{"x":168428.17000000086,"y":2558083.7200000025}},{"attributes":{"ID":213201,"DIS_CODE":0,"TOWNNAME":"東區","LI":"中西里","LIN":"9鄰","STREET":"勝利路","SECT":" ","MAREA":" ","LANE":" ","ALLEY":" ","HOUSE_NO":"６０號","E_COORD97":169823.07999999999,"N_COORD97":2543610.6499999999,"ADDRESS":"勝利路６０號","OBJECTID":213200},"geometry":{"x":169823.08000000007,"y":2543610.6500000022}}]}