{"displayFieldName":"TOWNNAME","fieldAliases":{"ID":"ID","DIS_CODE":"DIS_CODE","TOWNNAME":"TOWNNAME","LI":"LI","LIN":"LIN","STREET":"STREET","SECT":"SECT","MAREA":"MAREA","LANE":"LANE","ALLEY":"ALLEY","HOUSE_NO":"HOUSE_NO","E_COORD97":"E_COORD97","N_COORD97":"N_COORD97","ADDRESS":"ADDRESS","OBJECTID":"OBJECTID"},"geometryType":"esriGeometryPoint","spatialReference":{"wkid":102443,"latestWkid":3826},"fields":[{"name":"ID","type":"esriFieldTypeDouble","alias":"ID"},{"name":"DIS_CODE","type":"esriFieldTypeInteger","alias":"DIS_CODE"},{"name":"TOWNNAME","type":"esriFieldTypeString","alias":"TOWNNAME","length":8},{"name":"LI","type":"esriFieldTypeString","alias":"LI","length":8},{"name":"LIN","type":"esriFieldTypeString","alias":"LIN","length":12},{"name":"STREET","type":"esriFieldTypeString","alias":"STREET","length":20},{"name":"SECT","type":"esriFieldTypeString","alias":"SECT","length":8},{"name":"MAREA","type":"esriFieldTypeString","alias":"MAREA","length":12},{"name":"LANE","type":"esriFieldTypeString","alias":"LANE","length":10},{"name":"ALLEY","type":"esriFieldTypeString","alias":"ALLEY","length":10},{"name":"HOUSE_NO","type":"esriFieldTypeString","alias":"HOUSE_NO","length":20},{"name":"E_COORD97","type":"esriFieldTypeDouble","alias":"E_COORD97"},{"name":"N_COORD97","type":"esriFieldTypeDouble","alias":"N_COORD97"},{"name":"ADDRESS","type":"esriFieldTypeString","alias":"ADDRESS","length":50},{"name":"OBJECTID","type":"esriFieldTypeOID","alias":"OBJECTID"}],"features":[{"attributes":{"ID":88001,"DIS_CODE":0,"TOWNNAME":"永康區","LI":"成功里","LIN":"40鄰","STREET":"中華路","SECT":" ","MAREA":" ","LANE":"１５４巷","ALLEY":"６９弄","HOUSE_NO":"１１號","E_COORD97":171757.98999999999,"N_COORD97":2544908.3100000001,"ADDRESS":"中華路１５４巷６９弄１１號","OBJECTID":88001},"geometry":{"x":171757.99000000022,"y":2544908.3100000024}},{"attributes":{"ID":88002,"DIS_CODE":0,"TOWNNAME":"中西區","LI":"永華里","LIN":"10鄰","STREET":"開山路","SECT":" ","MAREA":" ","LANE":"１２２巷","ALLEY":"３６弄","HOUSE_NO":"７號","E_COORD97":168617.06,"N_COORD97":2543361.3399999999,"ADDRESS":"開山路１２２巷３６弄７號","OBJECTID":88002},"geometry":{"x":168617.05999999959,"y":2543361.3400000017}},{"attributes":{"ID":88003,"DIS_CODE":0,"TOWNNAME":"中西區","LI":"永華里","LIN":"10鄰","STREET":"開山路","SECT":" ","MAREA":" ","LANE":"１２２巷","ALLEY":"３６弄","HOUSE_NO":"９號","E_COORD97":168618,"N_COORD97":2543367.8199999998,"ADDRESS":"開山路１２２巷３６弄９號","OBJECTID":88003},"geometry":{"x":168618,"y":2543367.8199999984}},{"attributes":{"ID":88004,"DIS_CODE":0,"TOWNNAME":"永康區","LI":"西灣里","LIN":"43鄰","STREET":"大灣路","SECT":" ","MAREA":" ","LANE":"９４２巷","ALLEY":"３８８弄","HOUSE_NO":"４號","E_COORD97":173980.35000000001,"N_COORD97":2545467.8500000001,"ADDRESS":"大灣路９４２巷３８８弄４號","OBJECTID":88004},"geometry":{"x":173980.34999999963,"y":2545467.8499999996}},{"attributes":{"ID":88005,"DIS_CODE":0,"TOWNNAME":"永康區","LI":"尚頂里","LIN":"12鄰","STREET":"正南一街","SECT":" ","MAREA":" ","LANE":"９２巷","ALLEY":"３７弄","HOUSE_NO":"８號","E_COORD97":171093.63,"N_COORD97":2547420.8199999998,"ADDRESS":"正南一街９２巷３７弄８號","OBJECTID":88005},"geometry":{"x":171093.62999999989,"y":2547420.8200000022}},{"attributes":{"ID":88006,"DIS_CODE":0,"TOWNNAME":"永康區","LI":"尚頂里","LIN":"12鄰","STREET":"正南一街","SECT":" ","MAREA":" ","LANE":"９２巷","ALLEY":"３７弄","HOUSE_NO":"１０號","E_COORD97":171091.07999999999,"N_COORD97":2547427.5699999998,"ADDRESS":"正南一街９２巷３７弄１０號","OBJECTID":88006},"geometry":{"x":171091.08000000007,"y":2547427.5700000003}},{"attributes":{"ID":88007,"DIS_CODE":0,"TOWNNAME":"永康區","LI":"西灣里","LIN":"26鄰","STREET":"大勇路","SECT":" ","MAREA":" ","LANE":" ","ALLEY":" ","HOUSE_NO":"１４２號之３","E_COORD97":174302.62,"N_COORD97":2545688.4700000002,"ADDRESS":"大勇路１４２號之３","OBJECTID":88007},"geometry":{"x":174302.62000000011,"y":2545688.4700000007}},{"attributes":{"ID":88008,"DIS_CODE":0,"TOWNNAME":"仁德區","LI":"田厝里","LIN":"10鄰","STREET":"田厝二街","SECT":" ","MAREA":" ","LANE":"６４巷","ALLEY":"３７弄","HOUSE_NO":"２９號","E_COORD97":172392.28388900001,"N_COORD97":2537755.1494200001,"ADDRESS":"田厝二街６４巷３７弄２９號","OBJECTID":88008},"geometry":{"x":172392.28388900124,"y":2537755.1494189985}},{"attributes":{"ID":88009,"DIS_CODE":0,"TOWNNAME":"永康區","LI":"安康里","LIN":"21鄰","STREET":"中華路","SECT":" ","MAREA":" ","LANE":"７０３巷","ALLEY":"３弄","HOUSE_NO":"３７號","E_COORD97":170920.04000000001,"N_COORD97":2546245.5,"ADDRESS":"中華路７０３巷３弄３７號","OBJECTID":88009},"geometry":{"x":170920.04000000004,"y":2546245.5000000019}},{"attributes":{"ID":88010,"DIS_CODE":0,"TOWNNAME":"永康區","LI":"甲頂里","LIN":"2鄰","STREET":"南台街","SECT":" ","MAREA":" ","LANE":"１３５巷","ALLEY":"７弄","HOUSE_NO":"１號","E_COORD97":170031.56,"N_COORD97":2546816.46,"ADDRESS":"南台街１３５巷７弄１號","OBJECTID":88010},"geometry":{"x":170031.56000000052,"y":2546816.4600000028}},{"attributes":{"ID":88011,"DIS_CODE":0,"TOWNNAME":"永康區","LI":"西勢里","LIN":"31鄰","STREET":"富強路","SECT":"一段","MAREA":" ","LANE":"９３巷","ALLEY":"６弄","HOUSE_NO":"４０號","E_COORD97":175496.10000000001,"N_COORD97":2546277.02,"ADDRESS":"富強路一段９３巷６弄４０號","OBJECTID":88011},"geometry":{"x":175496.09999999963,"y":2546277.0199999996}},{"attributes":{"ID":88012,"DIS_CODE":0,"TOWNNAME":"仁德區","LI":"後壁里","LIN":"10鄰","STREET":"民安路","SECT":"二段","MAREA":" ","LANE":"１８２巷","ALLEY":"１８弄","HOUSE_NO":"３號","E_COORD97":173739.10999999999,"N_COORD97":2538899.8100000001,"ADDRESS":"民安路二段１８２巷１８弄３號","OBJECTID":88012},"geometry":{"x":173739.1099999994,"y":2538899.8100000042}},{"attributes":{"ID":88013,"DIS_CODE":0,"TOWNNAME":"永康區","LI":"西勢里","LIN":"24鄰","STREET":"廣興街","SECT":" ","MAREA":" ","LANE":"２６巷","ALLEY":"２２弄","HOUSE_NO":"８號","E_COORD97":175903.92999999999,"N_COORD97":2546463.7599999998,"ADDRESS":"廣興街２６巷２２弄８號","OBJECTID":88013},"geometry":{"x":175903.9299999997,"y":2546463.7600000016}},{"attributes":{"ID":88014,"DIS_CODE":0,"TOWNNAME":"永康區","LI":"西橋里","LIN":"6鄰","STREET":"中華西街","SECT":" ","MAREA":" ","LANE":"６３巷","ALLEY":"６４弄","HOUSE_NO":"５號","E_COORD97":170638.92999999999,"N_COORD97":2545949.4900000002,"ADDRESS":"中華西街６３巷６４弄５號","OBJECTID":88014},"geometry":{"x":170638.9299999997,"y":2545949.4900000002}},{"attributes":{"ID":88015,"DIS_CODE":0,"TOWNNAME":"仁德區","LI":"後壁里","LIN":"10鄰","STREET":"民安路","SECT":"二段","MAREA":" ","LANE":"１８２巷","ALLEY":"１８弄","HOUSE_NO":"１號","E_COORD97":173744.56,"N_COORD97":2538898.5600000001,"ADDRESS":"民安路二段１８２巷１８弄１號","OBJECTID":88015},"geometry":{"x":173744.56000000052,"y":2538898.5600000024}},{"attributes":{"ID":88016,"DIS_CODE":0,"TOWNNAME":"永康區","LI":"西勢里","LIN":"1鄰","STREET":"富強路","SECT":"二段","MAREA":" ","LANE":"１９巷","ALLEY":"１４弄","HOUSE_NO":"１３號","E_COORD97":175627.31,"N_COORD97":2546907.1000000001,"ADDRESS":"富強路二段１９巷１４弄１３號","OBJECTID":88016},"geometry":{"x":175627.31000000145,"y":2546907.0999999996}},{"attributes":{"ID":88017,"DIS_CODE":0,"TOWNNAME":"永康區","LI":"西勢里","LIN":"31鄰","STREET":"富強路","SECT":"一段","MAREA":" ","LANE":"９３巷","ALLEY":"６弄","HOUSE_NO":"３８號","E_COORD97":175493.79000000001,"N_COORD97":2546273.27,"ADDRESS":"富強路一段９３巷６弄３８號","OBJECTID":88017},"geometry":{"x":175493.78999999911,"y":2546273.2700000033}},{"attributes":{"ID":88018,"DIS_CODE":0,"TOWNNAME":"永康區","LI":"西橋里","LIN":"20鄰","STREET":"大橋三街","SECT":" ","MAREA":" ","LANE":"５７巷","ALLEY":"７弄","HOUSE_NO":"３１號","E_COORD97":170536.41,"N_COORD97":2546506.9900000002,"ADDRESS":"大橋三街５７巷７弄３１號","OBJECTID":88018},"geometry":{"x":170536.40999999922,"y":2546506.9900000021}},{"attributes":{"ID":88019,"DIS_CODE":0,"TOWNNAME":"永康區","LI":"西橋里","LIN":"10鄰","STREET":"中華西街","SECT":" ","MAREA":" ","LANE":"８５巷","ALLEY":"１２弄","HOUSE_NO":"２０號","E_COORD97":170677.5,"N_COORD97":2546124.75,"ADDRESS":"中華西街８５巷１２弄２０號","OBJECTID":88019},"geometry":{"x":170677.5,"y":2546124.7500000037}},{"attributes":{"ID":88020,"DIS_CODE":0,"TOWNNAME":"永康區","LI":"五王里","LIN":"10鄰","STREET":"中山東路","SECT":" ","MAREA":" ","LANE":"２１８巷","ALLEY":"９弄","HOUSE_NO":"２０號","E_COORD97":171748.89999999999,"N_COORD97":2545681.9500000002,"ADDRESS":"中山東路２１８巷９弄２０號","OBJECTID":88020},"geometry":{"x":171748.90000000224,"y":2545681.950000003}},{"attributes":{"ID":88021,"DIS_CODE":0,"TOWNNAME":"永康區","LI":"五王里","LIN":"10鄰","STREET":"中山東路","SECT":" ","MAREA":" ","LANE":"２１８巷","ALLEY":"９弄","HOUSE_NO":"２１號","E_COORD97":171769.73999999999,"N_COORD97":2545674.4900000002,"ADDRESS":"中山東路２１８巷９弄２１號","OBJECTID":88021},"geometry":{"x":171769.74000000022,"y":2545674.4900000002}},{"attributes":{"ID":88022,"DIS_CODE":0,"TOWNNAME":"永康區","LI":"五王里","LIN":"10鄰","STREET":"中山東路","SECT":" ","MAREA":" ","LANE":"２１８巷","ALLEY":"９弄","HOUSE_NO":"４０號","E_COORD97":171756.42000000001,"N_COORD97":2545650.0699999998,"ADDRESS":"中山東路２１８巷９弄４０號","OBJECTID":88022},"geometry":{"x":171756.41999999993,"y":2545650.0700000003}},{"attributes":{"ID":88023,"DIS_CODE":0,"TOWNNAME":"永康區","LI":"五王里","LIN":"10鄰","STREET":"中山東路","SECT":" ","MAREA":" ","LANE":"２１８巷","ALLEY":"９弄","HOUSE_NO":"２８號","E_COORD97":171751.69,"N_COORD97":2545669.8500000001,"ADDRESS":"中山東路２１８巷９弄２８號","OBJECTID":88023},"geometry":{"x":171751.69000000041,"y":2545669.8500000015}},{"attributes":{"ID":88024,"DIS_CODE":0,"TOWNNAME":"永康區","LI":"王行里","LIN":"10鄰","STREET":"王行路","SECT":" ","MAREA":" ","LANE":"１０１８巷","ALLEY":"３８弄","HOUSE_NO":"４號","E_COORD97":175824.85000000001,"N_COORD97":2550234.4900000002,"ADDRESS":"王行路１０１８巷３８弄４號","OBJECTID":88024},"geometry":{"x":175824.84999999963,"y":2550234.4900000002}},{"attributes":{"ID":88025,"DIS_CODE":0,"TOWNNAME":"永康區","LI":"王行里","LIN":"10鄰","STREET":"王行路","SECT":" ","MAREA":" ","LANE":"１０１８巷","ALLEY":"３８弄","HOUSE_NO":"３號","E_COORD97":175814.79000000001,"N_COORD97":2550233.2400000002,"ADDRESS":"王行路１０１８巷３８弄３號","OBJECTID":88025},"geometry":{"x":175814.79000000097,"y":2550233.2400000002}},{"attributes":{"ID":88026,"DIS_CODE":0,"TOWNNAME":"永康區","LI":"王行里","LIN":"10鄰","STREET":"王行路","SECT":" ","MAREA":" ","LANE":"１０１８巷","ALLEY":"３８弄","HOUSE_NO":"７號","E_COORD97":175813.79999999999,"N_COORD97":2550241.25,"ADDRESS":"王行路１０１８巷３８弄７號","OBJECTID":88026},"geometry":{"x":175813.79999999981,"y":2550241.2500000019}},{"attributes":{"ID":88027,"DIS_CODE":0,"TOWNNAME":"永康區","LI":"正強里","LIN":"10鄰","STREET":"正義街","SECT":" ","MAREA":" ","LANE":"８９巷","ALLEY":"２６弄","HOUSE_NO":"６號","E_COORD97":173445.59,"N_COORD97":2547493.2599999998,"ADDRESS":"正義街８９巷２６弄６號","OBJECTID":88027},"geometry":{"x":173445.59000000171,"y":2547493.2599999998}},{"attributes":{"ID":88028,"DIS_CODE":0,"TOWNNAME":"永康區","LI":"王行里","LIN":"10鄰","STREET":"王行路","SECT":" ","MAREA":" ","LANE":"１０１８巷","ALLEY":"３８弄","HOUSE_NO":"９號","E_COORD97":175806.32000000001,"N_COORD97":2550256.75,"ADDRESS":"王行路１０１８巷３８弄９號","OBJECTID":88028},"geometry":{"x":175806.32000000123,"y":2550256.75}},{"attributes":{"ID":88029,"DIS_CODE":0,"TOWNNAME":"永康區","LI":"王行里","LIN":"10鄰","STREET":"王行路","SECT":" ","MAREA":" ","LANE":"１０１８巷","ALLEY":"３８弄","HOUSE_NO":"８號","E_COORD97":175824.16,"N_COORD97":2550242.5,"ADDRESS":"王行路１０１８巷３８弄８號","OBJECTID":88029},"geometry":{"x":175824.16000000108,"y":2550242.5000000019}},{"attributes":{"ID":88030,"DIS_CODE":0,"TOWNNAME":"善化區","LI":"小新里","LIN":"20鄰","STREET":" ","SECT":" ","MAREA":"小新營","LANE":" ","ALLEY":" ","HOUSE_NO":"３６２號","E_COORD97":180228.69,"N_COORD97":2557284.75,"ADDRESS":"小新營３６２號","OBJECTID":88030},"geometry":{"x":180228.69000000134,"y":2557284.75}},{"attributes":{"ID":88031,"DIS_CODE":0,"TOWNNAME":"永康區","LI":"中興里","LIN":"10鄰","STREET":"忠孝路","SECT":" ","MAREA":" ","LANE":"２３９巷","ALLEY":"２０弄","HOUSE_NO":"２８號","E_COORD97":172028.04000000001,"N_COORD97":2545129.4900000002,"ADDRESS":"忠孝路２３９巷２０弄２８號","OBJECTID":88031},"geometry":{"x":172028.04000000097,"y":2545129.4900000002}},{"attributes":{"ID":88032,"DIS_CODE":0,"TOWNNAME":"永康區","LI":"五王里","LIN":"10鄰","STREET":"中山東路","SECT":" ","MAREA":" ","LANE":"２１８巷","ALLEY":"９弄","HOUSE_NO":"１７號","E_COORD97":171768.04000000001,"N_COORD97":2545682.75,"ADDRESS":"中山東路２１８巷９弄１７號","OBJECTID":88032},"geometry":{"x":171768.04000000097,"y":2545682.75}},{"attributes":{"ID":88033,"DIS_CODE":0,"TOWNNAME":"善化區","LI":"坐駕里","LIN":"20鄰","STREET":" ","SECT":" ","MAREA":"坐駕","LANE":" ","ALLEY":" ","HOUSE_NO":"１２０號","E_COORD97":178250.87,"N_COORD97":2558370.5,"ADDRESS":"坐駕１２０號","OBJECTID":88033},"geometry":{"x":178250.87000000011,"y":2558370.5000000019}},{"attributes":{"ID":88034,"DIS_CODE":0,"TOWNNAME":"善化區","LI":"胡厝里","LIN":"20鄰","STREET":" ","SECT":" ","MAREA":"西衛","LANE":" ","ALLEY":" ","HOUSE_NO":"３７之１６號","E_COORD97":173823.06,"N_COORD97":2559100.52,"ADDRESS":"西衛３７之１６號","OBJECTID":88034},"geometry":{"x":173823.05999999959,"y":2559100.5200000033}},{"attributes":{"ID":88035,"DIS_CODE":0,"TOWNNAME":"善化區","LI":"胡厝里","LIN":"20鄰","STREET":" ","SECT":" ","MAREA":"西衛","LANE":" ","ALLEY":" ","HOUSE_NO":"３７之１６號","E_COORD97":173829,"N_COORD97":2559101.2999999998,"ADDRESS":"西衛３７之１６號","OBJECTID":88035},"geometry":{"x":173829,"y":2559101.3000000026}},{"attributes":{"ID":88036,"DIS_CODE":0,"TOWNNAME":"善化區","LI":"胡厝里","LIN":"20鄰","STREET":" ","SECT":" ","MAREA":"西衛","LANE":" ","ALLEY":" ","HOUSE_NO":"３６號","E_COORD97":174040.73999999999,"N_COORD97":2559260.25,"ADDRESS":"西衛３６號","OBJECTID":88036},"geometry":{"x":174040.74000000115,"y":2559260.2500000019}},{"attributes":{"ID":88037,"DIS_CODE":0,"TOWNNAME":"善化區","LI":"胡厝里","LIN":"20鄰","STREET":" ","SECT":" ","MAREA":"西衛","LANE":" ","ALLEY":" ","HOUSE_NO":"３２號","E_COORD97":174167.35999999999,"N_COORD97":2559320.5,"ADDRESS":"西衛３２號","OBJECTID":88037},"geometry":{"x":174167.36000000034,"y":2559320.5}},{"attributes":{"ID":88038,"DIS_CODE":0,"TOWNNAME":"善化區","LI":"小新里","LIN":"20鄰","STREET":" ","SECT":" ","MAREA":"小新營","LANE":" ","ALLEY":" ","HOUSE_NO":"１６５號之９","E_COORD97":180092.44,"N_COORD97":2558148.77,"ADDRESS":"小新營１６５號之９","OBJECTID":88038},"geometry":{"x":180092.44000000227,"y":2558148.7699999996}},{"attributes":{"ID":88039,"DIS_CODE":0,"TOWNNAME":"善化區","LI":"坐駕里","LIN":"20鄰","STREET":" ","SECT":" ","MAREA":"坐駕","LANE":" ","ALLEY":" ","HOUSE_NO":"６７號","E_COORD97":178279.56,"N_COORD97":2558353.5,"ADDRESS":"坐駕６７號","OBJECTID":88039},"geometry":{"x":178279.55999999959,"y":2558353.5000000019}},{"attributes":{"ID":88040,"DIS_CODE":0,"TOWNNAME":"善化區","LI":"小新里","LIN":"20鄰","STREET":" ","SECT":" ","MAREA":"小新營","LANE":" ","ALLEY":" ","HOUSE_NO":"１６５之２１號","E_COORD97":180128.95000000001,"N_COORD97":2558227.02,"ADDRESS":"小新營１６５之２１號","OBJECTID":88040},"geometry":{"x":180128.95000000019,"y":2558227.0200000014}},{"attributes":{"ID":88041,"DIS_CODE":0,"TOWNNAME":"永康區","LI":"西橋里","LIN":"16鄰","STREET":"大橋一街","SECT":" ","MAREA":" ","LANE":"３１巷","ALLEY":"４１弄","HOUSE_NO":"３號","E_COORD97":170560.48000000001,"N_COORD97":2546381.2400000002,"ADDRESS":"大橋一街３１巷４１弄３號","OBJECTID":88041},"geometry":{"x":170560.48000000138,"y":2546381.2400000002}},{"attributes":{"ID":88042,"DIS_CODE":0,"TOWNNAME":"永康區","LI":"西勢里","LIN":"18鄰","STREET":"富強路","SECT":"一段","MAREA":" ","LANE":"２巷","ALLEY":"８弄","HOUSE_NO":"２４號","E_COORD97":175489.20000000001,"N_COORD97":2545947.2999999998,"ADDRESS":"富強路一段２巷８弄２４號","OBJECTID":88042},"geometry":{"x":175489.20000000019,"y":2545947.3000000007}},{"attributes":{"ID":88043,"DIS_CODE":0,"TOWNNAME":"善化區","LI":"坐駕里","LIN":"20鄰","STREET":" ","SECT":" ","MAREA":"坐駕","LANE":" ","ALLEY":" ","HOUSE_NO":"７１號","E_COORD97":178271.79999999999,"N_COORD97":2558339.25,"ADDRESS":"坐駕７１號","OBJECTID":88043},"geometry":{"x":178271.79999999981,"y":2558339.25}},{"attributes":{"ID":88044,"DIS_CODE":0,"TOWNNAME":"永康區","LI":"西灣里","LIN":"42鄰","STREET":"大灣路","SECT":" ","MAREA":" ","LANE":"９４２巷","ALLEY":"３７４弄","HOUSE_NO":"２號之２","E_COORD97":173964.98999999999,"N_COORD97":2545419.8900000001,"ADDRESS":"大灣路９４２巷３７４弄２號之２","OBJECTID":88044},"geometry":{"x":173964.99000000022,"y":2545419.8900000025}},{"attributes":{"ID":88045,"DIS_CODE":0,"TOWNNAME":"永康區","LI":"西勢里","LIN":"7鄰","STREET":"富強路","SECT":"一段","MAREA":" ","LANE":"２２７巷","ALLEY":"４６弄","HOUSE_NO":"３號","E_COORD97":175572.92999999999,"N_COORD97":2546542.9700000002,"ADDRESS":"富強路一段２２７巷４６弄３號","OBJECTID":88045},"geometry":{"x":175572.93000000063,"y":2546542.9700000007}},{"attributes":{"ID":88046,"DIS_CODE":0,"TOWNNAME":"永康區","LI":"五王里","LIN":"10鄰","STREET":"中山東路","SECT":" ","MAREA":" ","LANE":"２１８巷","ALLEY":"９弄","HOUSE_NO":"１２號","E_COORD97":171745.98999999999,"N_COORD97":2545693.4500000002,"ADDRESS":"中山東路２１８巷９弄１２號","OBJECTID":88046},"geometry":{"x":171745.99000000022,"y":2545693.4500000011}},{"attributes":{"ID":88047,"DIS_CODE":0,"TOWNNAME":"中西區","LI":"萬昌里","LIN":"15鄰","STREET":"民權路","SECT":"一段","MAREA":" ","LANE":" ","ALLEY":" ","HOUSE_NO":"１９２號","E_COORD97":168810.57999999999,"N_COORD97":2543588.9700000002,"ADDRESS":"民權路一段１９２號","OBJECTID":88047},"geometry":{"x":168810.58000000007,"y":2543588.9700000025}},{"attributes":{"ID":88048,"DIS_CODE":0,"TOWNNAME":"善化區","LI":"小新里","LIN":"20鄰","STREET":" ","SECT":" ","MAREA":"小新營","LANE":" ","ALLEY":" ","HOUSE_NO":"１６６號之１８","E_COORD97":180109.20999999999,"N_COORD97":2558279.02,"ADDRESS":"小新營１６６號之１８","OBJECTID":88048},"geometry":{"x":180109.21000000089,"y":2558279.0199999996}},{"attributes":{"ID":88049,"DIS_CODE":0,"TOWNNAME":"後壁區","LI":"新嘉里","LIN":"12鄰","STREET":" ","SECT":" ","MAREA":"白沙屯","LANE":" ","ALLEY":" ","HOUSE_NO":"１２３號","E_COORD97":179654.29999999999,"N_COORD97":2585578.2200000002,"ADDRESS":"白沙屯１２３號","OBJECTID":88049},"geometry":{"x":179654.30000000075,"y":2585578.2200000007}},{"attributes":{"ID":88050,"DIS_CODE":0,"TOWNNAME":"永康區","LI":"五王里","LIN":"10鄰","STREET":"中山東路","SECT":" ","MAREA":" ","LANE":"２１８巷","ALLEY":"９弄","HOUSE_NO":"１１號","E_COORD97":171765.04000000001,"N_COORD97":2545693.75,"ADDRESS":"中山東路２１８巷９弄１１號","OBJECTID":88050},"geometry":{"x":171765.04000000097,"y":2545693.7499999981}},{"attributes":{"ID":88051,"DIS_CODE":0,"TOWNNAME":"永康區","LI":"五王里","LIN":"10鄰","STREET":"中山東路","SECT":" ","MAREA":" ","LANE":"２１８巷","ALLEY":"９弄","HOUSE_NO":"３０號","E_COORD97":171752.73999999999,"N_COORD97":2545666.1000000001,"ADDRESS":"中山東路２１８巷９弄３０號","OBJECTID":88051},"geometry":{"x":171752.74000000022,"y":2545666.0999999996}},{"attributes":{"ID":88052,"DIS_CODE":0,"TOWNNAME":"永康區","LI":"五王里","LIN":"10鄰","STREET":"中山東路","SECT":" ","MAREA":" ","LANE":"２１８巷","ALLEY":"９弄","HOUSE_NO":"２５號","E_COORD97":171771.54000000001,"N_COORD97":2545666.7400000002,"ADDRESS":"中山東路２１８巷９弄２５號","OBJECTID":88052},"geometry":{"x":171771.54000000097,"y":2545666.7400000002}},{"attributes":{"ID":88053,"DIS_CODE":0,"TOWNNAME":"永康區","LI":"五王里","LIN":"10鄰","STREET":"中山東路","SECT":" ","MAREA":" ","LANE":"２１８巷","ALLEY":"９弄","HOUSE_NO":"２６號","E_COORD97":171750.64999999999,"N_COORD97":2545673.8500000001,"ADDRESS":"中山東路２１８巷９弄２６號","OBJECTID":88053},"geometry":{"x":171750.65000000224,"y":2545673.8500000015}},{"attributes":{"ID":88054,"DIS_CODE":0,"TOWNNAME":"永康區","LI":"五王里","LIN":"10鄰","STREET":"中山東路","SECT":" ","MAREA":" ","LANE":"２１８巷","ALLEY":"９弄","HOUSE_NO":"１８號","E_COORD97":171747.69,"N_COORD97":2545685.7000000002,"ADDRESS":"中山東路２１８巷９弄１８號","OBJECTID":88054},"geometry":{"x":171747.69000000134,"y":2545685.6999999993}},{"attributes":{"ID":88055,"DIS_CODE":0,"TOWNNAME":"永康區","LI":"五王里","LIN":"10鄰","STREET":"中山東路","SECT":" ","MAREA":" ","LANE":"２１８巷","ALLEY":"９弄","HOUSE_NO":"１９號","E_COORD97":171768.48999999999,"N_COORD97":2545678.4900000002,"ADDRESS":"中山東路２１８巷９弄１９號","OBJECTID":88055},"geometry":{"x":171768.49000000209,"y":2545678.4900000002}},{"attributes":{"ID":88056,"DIS_CODE":0,"TOWNNAME":"永康區","LI":"五王里","LIN":"10鄰","STREET":"中山東路","SECT":" ","MAREA":" ","LANE":"２１８巷","ALLEY":"９弄","HOUSE_NO":"３２號","E_COORD97":171753.64999999999,"N_COORD97":2545662.3500000001,"ADDRESS":"中山東路２１８巷９弄３２號","OBJECTID":88056},"geometry":{"x":171753.65000000037,"y":2545662.3500000034}},{"attributes":{"ID":88057,"DIS_CODE":0,"TOWNNAME":"永康區","LI":"五王里","LIN":"10鄰","STREET":"中山東路","SECT":" ","MAREA":" ","LANE":"２１８巷","ALLEY":"９弄","HOUSE_NO":"３９號","E_COORD97":171778.45000000001,"N_COORD97":2545631.9900000002,"ADDRESS":"中山東路２１８巷９弄３９號","OBJECTID":88057},"geometry":{"x":171778.45000000019,"y":2545631.9900000021}},{"attributes":{"ID":88058,"DIS_CODE":0,"TOWNNAME":"永康區","LI":"五王里","LIN":"10鄰","STREET":"中山東路","SECT":" ","MAREA":" ","LANE":"２１８巷","ALLEY":"９弄","HOUSE_NO":"４２號","E_COORD97":171757.35999999999,"N_COORD97":2545646.5699999998,"ADDRESS":"中山東路２１８巷９弄４２號","OBJECTID":88058},"geometry":{"x":171757.36000000034,"y":2545646.5700000003}},{"attributes":{"ID":88059,"DIS_CODE":0,"TOWNNAME":"永康區","LI":"五王里","LIN":"10鄰","STREET":"中山東路","SECT":" ","MAREA":" ","LANE":"２１８巷","ALLEY":"９弄","HOUSE_NO":"２９號","E_COORD97":171772.54000000001,"N_COORD97":2545658.4900000002,"ADDRESS":"中山東路２１８巷９弄２９號","OBJECTID":88059},"geometry":{"x":171772.54000000004,"y":2545658.4899999984}},{"attributes":{"ID":88060,"DIS_CODE":0,"TOWNNAME":"永康區","LI":"五王里","LIN":"10鄰","STREET":"中山東路","SECT":" ","MAREA":" ","LANE":"２１８巷","ALLEY":"９弄","HOUSE_NO":"１６號","E_COORD97":171746.89000000001,"N_COORD97":2545689.7000000002,"ADDRESS":"中山東路２１８巷９弄１６號","OBJECTID":88060},"geometry":{"x":171746.8900000006,"y":2545689.6999999993}},{"attributes":{"ID":88061,"DIS_CODE":0,"TOWNNAME":"永康區","LI":"五王里","LIN":"10鄰","STREET":"中山東路","SECT":" ","MAREA":" ","LANE":"２１８巷","ALLEY":"９弄","HOUSE_NO":"３８號","E_COORD97":171755.22,"N_COORD97":2545654.3199999998,"ADDRESS":"中山東路２１８巷９弄３８號","OBJECTID":88061},"geometry":{"x":171755.22000000067,"y":2545654.3200000022}},{"attributes":{"ID":88062,"DIS_CODE":0,"TOWNNAME":"永康區","LI":"五王里","LIN":"10鄰","STREET":"中山東路","SECT":" ","MAREA":" ","LANE":"２１８巷","ALLEY":"９弄","HOUSE_NO":"４６號","E_COORD97":171758.04000000001,"N_COORD97":2545642.8100000001,"ADDRESS":"中山東路２１８巷９弄４６號","OBJECTID":88062},"geometry":{"x":171758.04000000097,"y":2545642.8100000005}},{"attributes":{"ID":88063,"DIS_CODE":0,"TOWNNAME":"永康區","LI":"五王里","LIN":"10鄰","STREET":"中山東路","SECT":" ","MAREA":" ","LANE":"２１８巷","ALLEY":"９弄","HOUSE_NO":"３１號","E_COORD97":171773.73999999999,"N_COORD97":2545652.7400000002,"ADDRESS":"中山東路２１８巷９弄３１號","OBJECTID":88063},"geometry":{"x":171773.74000000115,"y":2545652.7400000002}},{"attributes":{"ID":88064,"DIS_CODE":0,"TOWNNAME":"永康區","LI":"五王里","LIN":"10鄰","STREET":"中山東路","SECT":" ","MAREA":" ","LANE":"２１８巷","ALLEY":"９弄","HOUSE_NO":"２７號","E_COORD97":171772.60000000001,"N_COORD97":2545662.9900000002,"ADDRESS":"中山東路２１８巷９弄２７號","OBJECTID":88064},"geometry":{"x":171772.60000000056,"y":2545662.9900000021}},{"attributes":{"ID":88065,"DIS_CODE":0,"TOWNNAME":"永康區","LI":"五王里","LIN":"10鄰","STREET":"中山東路","SECT":" ","MAREA":" ","LANE":"２１８巷","ALLEY":"９弄","HOUSE_NO":"４８號","E_COORD97":171759.32999999999,"N_COORD97":2545638.73,"ADDRESS":"中山東路２１８巷９弄４８號","OBJECTID":88065},"geometry":{"x":171759.33000000101,"y":2545638.7300000004}},{"attributes":{"ID":88066,"DIS_CODE":0,"TOWNNAME":"永康區","LI":"五王里","LIN":"10鄰","STREET":"中山東路","SECT":" ","MAREA":" ","LANE":"２１８巷","ALLEY":"９弄","HOUSE_NO":"２３號","E_COORD97":171770.63,"N_COORD97":2545670.7400000002,"ADDRESS":"中山東路２１８巷９弄２３號","OBJECTID":88066},"geometry":{"x":171770.63000000175,"y":2545670.7400000039}},{"attributes":{"ID":88067,"DIS_CODE":0,"TOWNNAME":"永康區","LI":"西灣里","LIN":"43鄰","STREET":"大灣路","SECT":" ","MAREA":" ","LANE":"９４２巷","ALLEY":"３７４弄","HOUSE_NO":"４５號","E_COORD97":174044.07000000001,"N_COORD97":2545405.5499999998,"ADDRESS":"大灣路９４２巷３７４弄４５號","OBJECTID":88067},"geometry":{"x":174044.0700000003,"y":2545405.5500000026}},{"attributes":{"ID":88068,"DIS_CODE":0,"TOWNNAME":"永康區","LI":"西灣里","LIN":"42鄰","STREET":"大灣路","SECT":" ","MAREA":" ","LANE":"９４２巷","ALLEY":"３７４弄","HOUSE_NO":"３２號","E_COORD97":174024.22,"N_COORD97":2545393.8700000001,"ADDRESS":"大灣路９４２巷３７４弄３２號","OBJECTID":88068},"geometry":{"x":174024.21999999881,"y":2545393.8700000029}},{"attributes":{"ID":88069,"DIS_CODE":0,"TOWNNAME":"永康區","LI":"西灣里","LIN":"43鄰","STREET":"大灣路","SECT":" ","MAREA":" ","LANE":"９４２巷","ALLEY":"３８８弄","HOUSE_NO":"１號","E_COORD97":173981.42999999999,"N_COORD97":2545485.21,"ADDRESS":"大灣路９４２巷３８８弄１號","OBJECTID":88069},"geometry":{"x":173981.4299999997,"y":2545485.2100000046}},{"attributes":{"ID":88070,"DIS_CODE":0,"TOWNNAME":"善化區","LI":"文昌里","LIN":"20鄰","STREET":"中正路","SECT":" ","MAREA":" ","LANE":"２１２巷","ALLEY":" ","HOUSE_NO":"３２號","E_COORD97":177774.98000000001,"N_COORD97":2558268.25,"ADDRESS":"中正路２１２巷３２號","OBJECTID":88070},"geometry":{"x":177774.98000000138,"y":2558268.25}},{"attributes":{"ID":88071,"DIS_CODE":0,"TOWNNAME":"北區","LI":"華興里","LIN":"8鄰","STREET":"南園街","SECT":" ","MAREA":" ","LANE":" ","ALLEY":" ","HOUSE_NO":"１３０號之３","E_COORD97":170621.35000000001,"N_COORD97":2545290.1099999999,"ADDRESS":"南園街１３０號之３","OBJECTID":88071},"geometry":{"x":170621.35000000056,"y":2545290.1099999994}},{"attributes":{"ID":88072,"DIS_CODE":0,"TOWNNAME":"北區","LI":"華興里","LIN":"8鄰","STREET":"南園街","SECT":" ","MAREA":" ","LANE":" ","ALLEY":" ","HOUSE_NO":"１３２號","E_COORD97":170620.95974200001,"N_COORD97":2545287.05535,"ADDRESS":"南園街１３２號","OBJECTID":88072},"geometry":{"x":170620.95974200126,"y":2545287.0553510003}},{"attributes":{"ID":88073,"DIS_CODE":0,"TOWNNAME":"北區","LI":"華興里","LIN":"8鄰","STREET":"南園街","SECT":" ","MAREA":" ","LANE":" ","ALLEY":" ","HOUSE_NO":"１３４號","E_COORD97":170620.85000000001,"N_COORD97":2545278.8399999999,"ADDRESS":"南園街１３４號","OBJECTID":88073},"geometry":{"x":170620.84999999963,"y":2545278.8399999999}},{"attributes":{"ID":88074,"DIS_CODE":0,"TOWNNAME":"北區","LI":"華興里","LIN":"8鄰","STREET":"南園街","SECT":" ","MAREA":" ","LANE":" ","ALLEY":" ","HOUSE_NO":"１３６號","E_COORD97":170620.14000000001,"N_COORD97":2545274.98,"ADDRESS":"南園街１３６號","OBJECTID":88074},"geometry":{"x":170620.13999999966,"y":2545274.9800000004}},{"attributes":{"ID":88075,"DIS_CODE":0,"TOWNNAME":"北區","LI":"華興里","LIN":"8鄰","STREET":"南園街","SECT":" ","MAREA":" ","LANE":" ","ALLEY":" ","HOUSE_NO":"１３８號","E_COORD97":170619.73999999999,"N_COORD97":2545270.48,"ADDRESS":"南園街１３８號","OBJECTID":88075},"geometry":{"x":170619.74000000115,"y":2545270.4800000023}},{"attributes":{"ID":88076,"DIS_CODE":0,"TOWNNAME":"北區","LI":"華興里","LIN":"8鄰","STREET":"南園街","SECT":" ","MAREA":" ","LANE":" ","ALLEY":" ","HOUSE_NO":"１４０號","E_COORD97":170619.57999999999,"N_COORD97":2545266.77,"ADDRESS":"南園街１４０號","OBJECTID":88076},"geometry":{"x":170619.58000000007,"y":2545266.7700000014}},{"attributes":{"ID":88077,"DIS_CODE":0,"TOWNNAME":"北區","LI":"華興里","LIN":"8鄰","STREET":"南園街","SECT":" ","MAREA":" ","LANE":" ","ALLEY":" ","HOUSE_NO":"１４２號","E_COORD97":170619.34,"N_COORD97":2545262.6400000001,"ADDRESS":"南園街１４２號","OBJECTID":88077},"geometry":{"x":170619.33999999985,"y":2545262.6400000025}},{"attributes":{"ID":88078,"DIS_CODE":0,"TOWNNAME":"永康區","LI":"西勢里","LIN":"7鄰","STREET":"富強路","SECT":"一段","MAREA":" ","LANE":"２２７巷","ALLEY":"４６弄","HOUSE_NO":"４號","E_COORD97":175579.25,"N_COORD97":2546534.3999999999,"ADDRESS":"富強路一段２２７巷４６弄４號","OBJECTID":88078},"geometry":{"x":175579.25000000093,"y":2546534.4000000041}},{"attributes":{"ID":88079,"DIS_CODE":0,"TOWNNAME":"下營區","LI":"甲中里","LIN":"10鄰","STREET":" ","SECT":" ","MAREA":"十六甲","LANE":" ","ALLEY":" ","HOUSE_NO":"８號","E_COORD97":175631.32999999999,"N_COORD97":2572259.8100000001,"ADDRESS":"十六甲８號","OBJECTID":88079},"geometry":{"x":175631.33000000101,"y":2572259.8100000005}},{"attributes":{"ID":88080,"DIS_CODE":0,"TOWNNAME":"永康區","LI":"尚頂里","LIN":"12鄰","STREET":"正南一街","SECT":" ","MAREA":" ","LANE":"９２巷","ALLEY":"３７弄","HOUSE_NO":"９號","E_COORD97":171068.92000000001,"N_COORD97":2547428.71,"ADDRESS":"正南一街９２巷３７弄９號","OBJECTID":88080},"geometry":{"x":171068.92000000086,"y":2547428.7100000028}},{"attributes":{"ID":88081,"DIS_CODE":0,"TOWNNAME":"東區","LI":"東安里","LIN":"10鄰","STREET":"長榮路","SECT":"二段","MAREA":" ","LANE":"３２巷","ALLEY":"４６弄","HOUSE_NO":"８１號","E_COORD97":170090.01999999999,"N_COORD97":2543132.1200000001,"ADDRESS":"長榮路二段３２巷４６弄８１號","OBJECTID":88081},"geometry":{"x":170090.02000000048,"y":2543132.120000001}},{"attributes":{"ID":88082,"DIS_CODE":0,"TOWNNAME":"永康區","LI":"西勢里","LIN":"7鄰","STREET":"富強路","SECT":"一段","MAREA":" ","LANE":"２７９巷","ALLEY":"１３弄","HOUSE_NO":"１０號","E_COORD97":175617.91,"N_COORD97":2546589.2799999998,"ADDRESS":"富強路一段２７９巷１３弄１０號","OBJECTID":88082},"geometry":{"x":175617.91000000015,"y":2546589.2800000012}},{"attributes":{"ID":88083,"DIS_CODE":0,"TOWNNAME":"永康區","LI":"西橋里","LIN":"10鄰","STREET":"中華西街","SECT":" ","MAREA":" ","LANE":"８５巷","ALLEY":"１２弄","HOUSE_NO":"２８號","E_COORD97":170657.29999999999,"N_COORD97":2546120,"ADDRESS":"中華西街８５巷１２弄２８號","OBJECTID":88083},"geometry":{"x":170657.30000000168,"y":2546120.0000000019}},{"attributes":{"ID":88084,"DIS_CODE":0,"TOWNNAME":"永康區","LI":"西灣里","LIN":"43鄰","STREET":"大灣路","SECT":" ","MAREA":" ","LANE":"９４２巷","ALLEY":"３７４弄","HOUSE_NO":"２９號","E_COORD97":174013.07000000001,"N_COORD97":2545416.7999999998,"ADDRESS":"大灣路９４２巷３７４弄２９號","OBJECTID":88084},"geometry":{"x":174013.07000000123,"y":2545416.8000000026}},{"attributes":{"ID":88085,"DIS_CODE":0,"TOWNNAME":"永康區","LI":"西橋里","LIN":"19鄰","STREET":"大橋三街","SECT":" ","MAREA":" ","LANE":"５７巷","ALLEY":"７弄","HOUSE_NO":"５５號","E_COORD97":170474.92999999999,"N_COORD97":2546424.1299999999,"ADDRESS":"大橋三街５７巷７弄５５號","OBJECTID":88085},"geometry":{"x":170474.93000000156,"y":2546424.1300000008}},{"attributes":{"ID":88086,"DIS_CODE":0,"TOWNNAME":"永康區","LI":"西勢里","LIN":"7鄰","STREET":"富強路","SECT":"一段","MAREA":" ","LANE":"２２７巷","ALLEY":"４６弄","HOUSE_NO":"１０號","E_COORD97":175590.53,"N_COORD97":2546545.1499999999,"ADDRESS":"富強路一段２２７巷４６弄１０號","OBJECTID":88086},"geometry":{"x":175590.53000000026,"y":2546545.1500000004}},{"attributes":{"ID":88087,"DIS_CODE":0,"TOWNNAME":"永康區","LI":"西勢里","LIN":"8鄰","STREET":"西勢路","SECT":" ","MAREA":" ","LANE":"１９９巷","ALLEY":"４７弄","HOUSE_NO":"２號","E_COORD97":175867.98000000001,"N_COORD97":2546692.4700000002,"ADDRESS":"西勢路１９９巷４７弄２號","OBJECTID":88087},"geometry":{"x":175867.98000000138,"y":2546692.4700000007}},{"attributes":{"ID":88088,"DIS_CODE":0,"TOWNNAME":"永康區","LI":"西勢里","LIN":"21鄰","STREET":"富強路","SECT":"一段","MAREA":" ","LANE":"９８巷","ALLEY":"６２弄","HOUSE_NO":"１４號","E_COORD97":175603.51000000001,"N_COORD97":2546022.6499999999,"ADDRESS":"富強路一段９８巷６２弄１４號","OBJECTID":88088},"geometry":{"x":175603.50999999978,"y":2546022.6500000004}},{"attributes":{"ID":88089,"DIS_CODE":0,"TOWNNAME":"永康區","LI":"安康里","LIN":"18鄰","STREET":"中華西街","SECT":" ","MAREA":" ","LANE":" ","ALLEY":" ","HOUSE_NO":"４４號","E_COORD97":170799.38,"N_COORD97":2545995.25,"ADDRESS":"中華西街４４號","OBJECTID":88089},"geometry":{"x":170799.38000000082,"y":2545995.25}},{"attributes":{"ID":88090,"DIS_CODE":0,"TOWNNAME":"永康區","LI":"安康里","LIN":"25鄰","STREET":"大橋一街","SECT":" ","MAREA":" ","LANE":" ","ALLEY":" ","HOUSE_NO":"１５０號","E_COORD97":170860.04999999999,"N_COORD97":2546376.7400000002,"ADDRESS":"大橋一街１５０號","OBJECTID":88090},"geometry":{"x":170860.04999999981,"y":2546376.7400000021}},{"attributes":{"ID":88091,"DIS_CODE":0,"TOWNNAME":"仁德區","LI":"仁愛里","LIN":"20鄰","STREET":" ","SECT":" ","MAREA":"仁愛","LANE":" ","ALLEY":" ","HOUSE_NO":"４０６號","E_COORD97":170089.48732700001,"N_COORD97":2540171.6990999999,"ADDRESS":"仁愛４０６號","OBJECTID":88091},"geometry":{"x":170089.48732700013,"y":2540171.6990980003}},{"attributes":{"ID":88092,"DIS_CODE":0,"TOWNNAME":"官田區","LI":"官田里","LIN":"20鄰","STREET":" ","SECT":" ","MAREA":"官田","LANE":" ","ALLEY":" ","HOUSE_NO":"２８１號","E_COORD97":181998.45999999999,"N_COORD97":2564765.5499999998,"ADDRESS":"官田２８１號","OBJECTID":88092},"geometry":{"x":181998.45999999996,"y":2564765.5500000007}},{"attributes":{"ID":88093,"DIS_CODE":0,"TOWNNAME":"官田區","LI":"官田里","LIN":"20鄰","STREET":" ","SECT":" ","MAREA":"官田","LANE":" ","ALLEY":" ","HOUSE_NO":"２８２號之１","E_COORD97":182142.89000000001,"N_COORD97":2564803.4199999999,"ADDRESS":"官田２８２號之１","OBJECTID":88093},"geometry":{"x":182142.88999999966,"y":2564803.4199999999}},{"attributes":{"ID":88094,"DIS_CODE":0,"TOWNNAME":"官田區","LI":"官田里","LIN":"20鄰","STREET":" ","SECT":" ","MAREA":"官田","LANE":" ","ALLEY":" ","HOUSE_NO":"２８２號","E_COORD97":182139.57000000001,"N_COORD97":2564802.3199999998,"ADDRESS":"官田２８２號","OBJECTID":88094},"geometry":{"x":182139.57000000123,"y":2564802.3200000022}},{"attributes":{"ID":88095,"DIS_CODE":0,"TOWNNAME":"官田區","LI":"官田里","LIN":"20鄰","STREET":" ","SECT":" ","MAREA":"官田","LANE":" ","ALLEY":" ","HOUSE_NO":"２８６號","E_COORD97":182165.41,"N_COORD97":2564811.7000000002,"ADDRESS":"官田２８６號","OBJECTID":88095},"geometry":{"x":182165.40999999922,"y":2564811.6999999974}},{"attributes":{"ID":88096,"DIS_CODE":0,"TOWNNAME":"官田區","LI":"官田里","LIN":"20鄰","STREET":" ","SECT":" ","MAREA":"官田","LANE":" ","ALLEY":" ","HOUSE_NO":"２８７號","E_COORD97":182169.79999999999,"N_COORD97":2564813,"ADDRESS":"官田２８７號","OBJECTID":88096},"geometry":{"x":182169.80000000075,"y":2564813}},{"attributes":{"ID":88097,"DIS_CODE":0,"TOWNNAME":"後壁區","LI":"新嘉里","LIN":"12鄰","STREET":" ","SECT":" ","MAREA":"白沙屯","LANE":" ","ALLEY":" ","HOUSE_NO":"１２４號","E_COORD97":179642.14000000001,"N_COORD97":2585585.9700000002,"ADDRESS":"白沙屯１２４號","OBJECTID":88097},"geometry":{"x":179642.13999999966,"y":2585585.9700000025}},{"attributes":{"ID":88098,"DIS_CODE":0,"TOWNNAME":"永康區","LI":"西勢里","LIN":"7鄰","STREET":"富強路","SECT":"一段","MAREA":" ","LANE":"２２７巷","ALLEY":"４６弄","HOUSE_NO":"１９號","E_COORD97":175600.72,"N_COORD97":2546570.96,"ADDRESS":"富強路一段２２７巷４６弄１９號","OBJECTID":88098},"geometry":{"x":175600.71999999974,"y":2546570.9600000009}},{"attributes":{"ID":88099,"DIS_CODE":0,"TOWNNAME":"官田區","LI":"隆田里","LIN":"20鄰","STREET":"中興路","SECT":" ","MAREA":" ","LANE":" ","ALLEY":" ","HOUSE_NO":"５３號之２","E_COORD97":180651.10999999999,"N_COORD97":2565791.8700000001,"ADDRESS":"中興路５３號之２","OBJECTID":88099},"geometry":{"x":180651.11000000127,"y":2565791.870000001}},{"attributes":{"ID":88100,"DIS_CODE":0,"TOWNNAME":"仁德區","LI":"大甲里","LIN":"20鄰","STREET":"行大街","SECT":" ","MAREA":" ","LANE":" ","ALLEY":" ","HOUSE_NO":"４３４號","E_COORD97":169400.14999999999,"N_COORD97":2535299.4900000002,"ADDRESS":"行大街４３４號","OBJECTID":88100},"geometry":{"x":169400.1500000013,"y":2535299.4900000002}},{"attributes":{"ID":88101,"DIS_CODE":0,"TOWNNAME":"仁德區","LI":"一甲里","LIN":"20鄰","STREET":"太乙六街","SECT":" ","MAREA":" ","LANE":" ","ALLEY":" ","HOUSE_NO":"５４號","E_COORD97":173191.95000000001,"N_COORD97":2542356.75,"ADDRESS":"太乙六街５４號","OBJECTID":88101},"geometry":{"x":173191.95000000019,"y":2542356.75}},{"attributes":{"ID":88102,"DIS_CODE":0,"TOWNNAME":"仁德區","LI":"一甲里","LIN":"20鄰","STREET":"太新路","SECT":" ","MAREA":" ","LANE":" ","ALLEY":" ","HOUSE_NO":"２５號","E_COORD97":173239.81,"N_COORD97":2542305.5099999998,"ADDRESS":"太新路２５號","OBJECTID":88102},"geometry":{"x":173239.80999999959,"y":2542305.5100000016}},{"attributes":{"ID":88103,"DIS_CODE":0,"TOWNNAME":"仁德區","LI":"一甲里","LIN":"20鄰","STREET":"太乙六街","SECT":" ","MAREA":" ","LANE":" ","ALLEY":" ","HOUSE_NO":"６５號","E_COORD97":173201.79000000001,"N_COORD97":2542229.25,"ADDRESS":"太乙六街６５號","OBJECTID":88103},"geometry":{"x":173201.79000000004,"y":2542229.2500000037}},{"attributes":{"ID":88104,"DIS_CODE":0,"TOWNNAME":"仁德區","LI":"一甲里","LIN":"20鄰","STREET":"太乙六街","SECT":" ","MAREA":" ","LANE":" ","ALLEY":" ","HOUSE_NO":"５５號","E_COORD97":173206.09,"N_COORD97":2542269.5099999998,"ADDRESS":"太乙六街５５號","OBJECTID":88104},"geometry":{"x":173206.08999999985,"y":2542269.5099999998}},{"attributes":{"ID":88105,"DIS_CODE":0,"TOWNNAME":"仁德區","LI":"一甲里","LIN":"20鄰","STREET":"太新路","SECT":" ","MAREA":" ","LANE":" ","ALLEY":" ","HOUSE_NO":"５５號","E_COORD97":173319.84,"N_COORD97":2542310.5099999998,"ADDRESS":"太新路５５號","OBJECTID":88105},"geometry":{"x":173319.83999999985,"y":2542310.5099999998}},{"attributes":{"ID":88106,"DIS_CODE":0,"TOWNNAME":"仁德區","LI":"大甲里","LIN":"20鄰","STREET":"行大街","SECT":" ","MAREA":" ","LANE":" ","ALLEY":" ","HOUSE_NO":"４２４號","E_COORD97":169433.66,"N_COORD97":2535296.4900000002,"ADDRESS":"行大街４２４號","OBJECTID":88106},"geometry":{"x":169433.66000000108,"y":2535296.4900000002}},{"attributes":{"ID":88107,"DIS_CODE":0,"TOWNNAME":"官田區","LI":"官田里","LIN":"20鄰","STREET":" ","SECT":" ","MAREA":"官田","LANE":" ","ALLEY":" ","HOUSE_NO":"２８８號之１","E_COORD97":182178.53,"N_COORD97":2564815.7999999998,"ADDRESS":"官田２８８號之１","OBJECTID":88107},"geometry":{"x":182178.53000000119,"y":2564815.8000000007}},{"attributes":{"ID":88108,"DIS_CODE":0,"TOWNNAME":"官田區","LI":"官田里","LIN":"20鄰","STREET":" ","SECT":" ","MAREA":"官田","LANE":" ","ALLEY":" ","HOUSE_NO":"２８８號","E_COORD97":182173.89999999999,"N_COORD97":2564814.3199999998,"ADDRESS":"官田２８８號","OBJECTID":88108},"geometry":{"x":182173.90000000037,"y":2564814.3200000003}},{"attributes":{"ID":88109,"DIS_CODE":0,"TOWNNAME":"官田區","LI":"官田里","LIN":"20鄰","STREET":" ","SECT":" ","MAREA":"官田","LANE":" ","ALLEY":" ","HOUSE_NO":"２９０號","E_COORD97":182187.73999999999,"N_COORD97":2564819.1299999999,"ADDRESS":"官田２９０號","OBJECTID":88109},"geometry":{"x":182187.74000000115,"y":2564819.1300000008}},{"attributes":{"ID":88110,"DIS_CODE":0,"TOWNNAME":"官田區","LI":"官田里","LIN":"20鄰","STREET":" ","SECT":" ","MAREA":"官田","LANE":" ","ALLEY":" ","HOUSE_NO":"２９１號","E_COORD97":182195.28,"N_COORD97":2564821.1000000001,"ADDRESS":"官田２９１號","OBJECTID":88110},"geometry":{"x":182195.28000000212,"y":2564821.1000000015}},{"attributes":{"ID":88111,"DIS_CODE":0,"TOWNNAME":"官田區","LI":"官田里","LIN":"20鄰","STREET":" ","SECT":" ","MAREA":"官田","LANE":" ","ALLEY":" ","HOUSE_NO":"２９２號","E_COORD97":182205.98000000001,"N_COORD97":2564825.48,"ADDRESS":"官田２９２號","OBJECTID":88111},"geometry":{"x":182205.98000000231,"y":2564825.4800000023}},{"attributes":{"ID":88112,"DIS_CODE":0,"TOWNNAME":"永康區","LI":"西橋里","LIN":"10鄰","STREET":"中華西街","SECT":" ","MAREA":" ","LANE":"８５巷","ALLEY":"１２弄","HOUSE_NO":"８號","E_COORD97":170677.10999999999,"N_COORD97":2546079.9100000001,"ADDRESS":"中華西街８５巷１２弄８號","OBJECTID":88112},"geometry":{"x":170677.11000000034,"y":2546079.910000002}},{"attributes":{"ID":88113,"DIS_CODE":0,"TOWNNAME":"永康區","LI":"西勢里","LIN":"18鄰","STREET":"富強路","SECT":"一段","MAREA":" ","LANE":"２巷","ALLEY":"８弄","HOUSE_NO":"６０號","E_COORD97":175496.79999999999,"N_COORD97":2546007.6299999999,"ADDRESS":"富強路一段２巷８弄６０號","OBJECTID":88113},"geometry":{"x":175496.79999999981,"y":2546007.629999999}},{"attributes":{"ID":88114,"DIS_CODE":0,"TOWNNAME":"永康區","LI":"西灣里","LIN":"43鄰","STREET":"大灣路","SECT":" ","MAREA":" ","LANE":"９４２巷","ALLEY":"３７４弄","HOUSE_NO":"３號","E_COORD97":173970.17000000001,"N_COORD97":2545435.46,"ADDRESS":"大灣路９４２巷３７４弄３號","OBJECTID":88114},"geometry":{"x":173970.16999999993,"y":2545435.4600000009}},{"attributes":{"ID":88115,"DIS_CODE":0,"TOWNNAME":"永康區","LI":"西橋里","LIN":"13鄰","STREET":"大橋一街","SECT":" ","MAREA":" ","LANE":"３１巷","ALLEY":"２５弄","HOUSE_NO":"１８號","E_COORD97":170540.51000000001,"N_COORD97":2546284.2400000002,"ADDRESS":"大橋一街３１巷２５弄１８號","OBJECTID":88115},"geometry":{"x":170540.51000000164,"y":2546284.2400000039}},{"attributes":{"ID":88116,"DIS_CODE":0,"TOWNNAME":"安南區","LI":"海東里","LIN":"10鄰","STREET":"海環街","SECT":" ","MAREA":" ","LANE":"３２巷","ALLEY":"５０弄","HOUSE_NO":"１號","E_COORD97":166571.98000000001,"N_COORD97":2548989.0299999998,"ADDRESS":"海環街３２巷５０弄１號","OBJECTID":88116},"geometry":{"x":166571.98000000138,"y":2548989.0299999993}},{"attributes":{"ID":88117,"DIS_CODE":0,"TOWNNAME":"安南區","LI":"海東里","LIN":"10鄰","STREET":"海環街","SECT":" ","MAREA":" ","LANE":"３２巷","ALLEY":"５０弄","HOUSE_NO":"２號","E_COORD97":166601.07999999999,"N_COORD97":2548984.7799999998,"ADDRESS":"海環街３２巷５０弄２號","OBJECTID":88117},"geometry":{"x":166601.08000000101,"y":2548984.7799999993}},{"attributes":{"ID":88118,"DIS_CODE":0,"TOWNNAME":"安南區","LI":"海東里","LIN":"10鄰","STREET":"海環街","SECT":" ","MAREA":" ","LANE":"３２巷","ALLEY":"５０弄","HOUSE_NO":"３號","E_COORD97":166575.32999999999,"N_COORD97":2548992.2000000002,"ADDRESS":"海環街３２巷５０弄３號","OBJECTID":88118},"geometry":{"x":166575.33000000194,"y":2548992.1999999974}},{"attributes":{"ID":88119,"DIS_CODE":0,"TOWNNAME":"安南區","LI":"海東里","LIN":"10鄰","STREET":"海環街","SECT":" ","MAREA":" ","LANE":"３２巷","ALLEY":"５０弄","HOUSE_NO":"４號","E_COORD97":166605.32999999999,"N_COORD97":2548986.8599999999,"ADDRESS":"海環街３２巷５０弄４號","OBJECTID":88119},"geometry":{"x":166605.33000000007,"y":2548986.8599999994}},{"attributes":{"ID":88120,"DIS_CODE":0,"TOWNNAME":"安南區","LI":"海東里","LIN":"10鄰","STREET":"海環街","SECT":" ","MAREA":" ","LANE":"３２巷","ALLEY":"５０弄","HOUSE_NO":"５號","E_COORD97":166578.62,"N_COORD97":2548994.6699999999,"ADDRESS":"海環街３２巷５０弄５號","OBJECTID":88120},"geometry":{"x":166578.62000000104,"y":2548994.6700000018}},{"attributes":{"ID":88121,"DIS_CODE":0,"TOWNNAME":"安南區","LI":"海東里","LIN":"10鄰","STREET":"海環街","SECT":" ","MAREA":" ","LANE":"３２巷","ALLEY":"５０弄","HOUSE_NO":"７號","E_COORD97":166582.14000000001,"N_COORD97":2548997.6800000002,"ADDRESS":"海環街３２巷５０弄７號","OBJECTID":88121},"geometry":{"x":166582.13999999966,"y":2548997.6800000016}},{"attributes":{"ID":88122,"DIS_CODE":0,"TOWNNAME":"安南區","LI":"淵西里","LIN":"10鄰","STREET":"安中路","SECT":"四段","MAREA":" ","LANE":"３２０巷","ALLEY":"６９弄","HOUSE_NO":"１號","E_COORD97":164526.41,"N_COORD97":2550384.3799999999,"ADDRESS":"安中路四段３２０巷６９弄１號","OBJECTID":88122},"geometry":{"x":164526.41000000015,"y":2550384.3800000027}},{"attributes":{"ID":88123,"DIS_CODE":0,"TOWNNAME":"安南區","LI":"淵西里","LIN":"10鄰","STREET":"安中路","SECT":"四段","MAREA":" ","LANE":"３２０巷","ALLEY":"６９弄","HOUSE_NO":"２號","E_COORD97":164540.95000000001,"N_COORD97":2550395.73,"ADDRESS":"安中路四段３２０巷６９弄２號","OBJECTID":88123},"geometry":{"x":164540.95000000112,"y":2550395.7300000004}},{"attributes":{"ID":88124,"DIS_CODE":0,"TOWNNAME":"安南區","LI":"淵西里","LIN":"10鄰","STREET":"安中路","SECT":"四段","MAREA":" ","LANE":"３２０巷","ALLEY":"６９弄","HOUSE_NO":"３號","E_COORD97":164523.91,"N_COORD97":2550387.1099999999,"ADDRESS":"安中路四段３２０巷６９弄３號","OBJECTID":88124},"geometry":{"x":164523.91000000108,"y":2550387.1100000013}},{"attributes":{"ID":88125,"DIS_CODE":0,"TOWNNAME":"官田區","LI":"官田里","LIN":"20鄰","STREET":" ","SECT":" ","MAREA":"官田","LANE":" ","ALLEY":" ","HOUSE_NO":"２９３號","E_COORD97":182210.60999999999,"N_COORD97":2564826.4900000002,"ADDRESS":"官田２９３號","OBJECTID":88125},"geometry":{"x":182210.61000000127,"y":2564826.4900000002}},{"attributes":{"ID":88126,"DIS_CODE":0,"TOWNNAME":"官田區","LI":"官田里","LIN":"20鄰","STREET":" ","SECT":" ","MAREA":"官田","LANE":" ","ALLEY":" ","HOUSE_NO":"２９４號","E_COORD97":182216.10000000001,"N_COORD97":2564827.3900000001,"ADDRESS":"官田２９４號","OBJECTID":88126},"geometry":{"x":182216.0999999987,"y":2564827.3900000006}},{"attributes":{"ID":88127,"DIS_CODE":0,"TOWNNAME":"後壁區","LI":"新嘉里","LIN":"12鄰","STREET":" ","SECT":" ","MAREA":"白沙屯","LANE":" ","ALLEY":" ","HOUSE_NO":"１２６號","E_COORD97":179671.13,"N_COORD97":2585558.3300000001,"ADDRESS":"白沙屯１２６號","OBJECTID":88127},"geometry":{"x":179671.12999999989,"y":2585558.3300000019}},{"attributes":{"ID":88128,"DIS_CODE":0,"TOWNNAME":"後壁區","LI":"新嘉里","LIN":"12鄰","STREET":" ","SECT":" ","MAREA":"白沙屯","LANE":" ","ALLEY":" ","HOUSE_NO":"１２７號之１","E_COORD97":179621.69,"N_COORD97":2585499.5299999998,"ADDRESS":"白沙屯１２７號之１","OBJECTID":88128},"geometry":{"x":179621.69000000134,"y":2585499.5300000012}},{"attributes":{"ID":88129,"DIS_CODE":0,"TOWNNAME":"後壁區","LI":"新嘉里","LIN":"12鄰","STREET":" ","SECT":" ","MAREA":"白沙屯","LANE":" ","ALLEY":" ","HOUSE_NO":"１２７號","E_COORD97":179651.69,"N_COORD97":2585538.0600000001,"ADDRESS":"白沙屯１２７號","OBJECTID":88129},"geometry":{"x":179651.69000000227,"y":2585538.0600000005}},{"attributes":{"ID":88130,"DIS_CODE":0,"TOWNNAME":"後壁區","LI":"後壁里","LIN":"12鄰","STREET":" ","SECT":" ","MAREA":"後壁","LANE":" ","ALLEY":" ","HOUSE_NO":"３３１號","E_COORD97":185906.20999999999,"N_COORD97":2584762.7999999998,"ADDRESS":"後壁３３１號","OBJECTID":88130},"geometry":{"x":185906.21000000183,"y":2584762.8000000026}},{"attributes":{"ID":88131,"DIS_CODE":0,"TOWNNAME":"後壁區","LI":"竹新里","LIN":"12鄰","STREET":" ","SECT":" ","MAREA":"竹圍後","LANE":" ","ALLEY":" ","HOUSE_NO":"１１１號之１","E_COORD97":178745.29999999999,"N_COORD97":2582545.1600000001,"ADDRESS":"竹圍後１１１號之１","OBJECTID":88131},"geometry":{"x":178745.30000000075,"y":2582545.160000002}},{"attributes":{"ID":88132,"DIS_CODE":0,"TOWNNAME":"安南區","LI":"淵西里","LIN":"10鄰","STREET":"安中路","SECT":"四段","MAREA":" ","LANE":"３２０巷","ALLEY":"６９弄","HOUSE_NO":"４號","E_COORD97":164538.39000000001,"N_COORD97":2550399.0699999998,"ADDRESS":"安中路四段３２０巷６９弄４號","OBJECTID":88132},"geometry":{"x":164538.38999999873,"y":2550399.0700000022}},{"attributes":{"ID":88133,"DIS_CODE":0,"TOWNNAME":"安南區","LI":"淵西里","LIN":"10鄰","STREET":"安中路","SECT":"四段","MAREA":" ","LANE":"３２０巷","ALLEY":"６９弄","HOUSE_NO":"５號","E_COORD97":164520.95999999999,"N_COORD97":2550388.9199999999,"ADDRESS":"安中路四段３２０巷６９弄５號","OBJECTID":88133},"geometry":{"x":164520.95999999996,"y":2550388.9200000018}},{"attributes":{"ID":88134,"DIS_CODE":0,"TOWNNAME":"安南區","LI":"淵西里","LIN":"10鄰","STREET":"安中路","SECT":"四段","MAREA":" ","LANE":"３２０巷","ALLEY":"６９弄","HOUSE_NO":"６號","E_COORD97":164536.23000000001,"N_COORD97":2550402.0099999998,"ADDRESS":"安中路四段３２０巷６９弄６號","OBJECTID":88134},"geometry":{"x":164536.23000000045,"y":2550402.0100000016}},{"attributes":{"ID":88135,"DIS_CODE":0,"TOWNNAME":"安南區","LI":"淵西里","LIN":"10鄰","STREET":"安中路","SECT":"四段","MAREA":" ","LANE":"３２０巷","ALLEY":"６９弄","HOUSE_NO":"７號","E_COORD97":164516.64000000001,"N_COORD97":2550390.7400000002,"ADDRESS":"安中路四段３２０巷６９弄７號","OBJECTID":88135},"geometry":{"x":164516.6400000006,"y":2550390.7400000021}},{"attributes":{"ID":88136,"DIS_CODE":0,"TOWNNAME":"安南區","LI":"淵西里","LIN":"10鄰","STREET":"安中路","SECT":"四段","MAREA":" ","LANE":"３２０巷","ALLEY":"６９弄","HOUSE_NO":"８號","E_COORD97":164533.48000000001,"N_COORD97":2550405.54,"ADDRESS":"安中路四段３２０巷６９弄８號","OBJECTID":88136},"geometry":{"x":164533.48000000045,"y":2550405.5399999991}},{"attributes":{"ID":88137,"DIS_CODE":0,"TOWNNAME":"永康區","LI":"西勢里","LIN":"23鄰","STREET":"富強路","SECT":"一段","MAREA":" ","LANE":"１９４巷","ALLEY":"９４弄","HOUSE_NO":"６號","E_COORD97":175660.63,"N_COORD97":2546174.27,"ADDRESS":"富強路一段１９４巷９４弄６號","OBJECTID":88137},"geometry":{"x":175660.62999999989,"y":2546174.2699999996}},{"attributes":{"ID":88138,"DIS_CODE":0,"TOWNNAME":"永康區","LI":"西灣里","LIN":"43鄰","STREET":"大灣路","SECT":" ","MAREA":" ","LANE":"９４２巷","ALLEY":"３８８弄","HOUSE_NO":"２號之２","E_COORD97":173978.38,"N_COORD97":2545469.3999999999,"ADDRESS":"大灣路９４２巷３８８弄２號之２","OBJECTID":88138},"geometry":{"x":173978.38000000082,"y":2545469.3999999985}},{"attributes":{"ID":88139,"DIS_CODE":0,"TOWNNAME":"永康區","LI":"西勢里","LIN":"20鄰","STREET":"富強路","SECT":"一段","MAREA":" ","LANE":"１８５巷","ALLEY":"１０弄","HOUSE_NO":"３１號","E_COORD97":175548.04999999999,"N_COORD97":2546506.5699999998,"ADDRESS":"富強路一段１８５巷１０弄３１號","OBJECTID":88139},"geometry":{"x":175548.05000000075,"y":2546506.5700000022}},{"attributes":{"ID":88140,"DIS_CODE":0,"TOWNNAME":"永康區","LI":"西灣里","LIN":"43鄰","STREET":"大灣路","SECT":" ","MAREA":" ","LANE":"９４２巷","ALLEY":"３７４弄","HOUSE_NO":"９號","E_COORD97":173983.20000000001,"N_COORD97":2545430.71,"ADDRESS":"大灣路９４２巷３７４弄９號","OBJECTID":88140},"geometry":{"x":173983.20000000112,"y":2545430.7100000046}},{"attributes":{"ID":88141,"DIS_CODE":0,"TOWNNAME":"永康區","LI":"西勢里","LIN":"18鄰","STREET":"富強路","SECT":"一段","MAREA":" ","LANE":"２巷","ALLEY":"８弄","HOUSE_NO":"６２號","E_COORD97":175499.75,"N_COORD97":2546004.6299999999,"ADDRESS":"富強路一段２巷８弄６２號","OBJECTID":88141},"geometry":{"x":175499.75000000093,"y":2546004.629999999}},{"attributes":{"ID":88142,"DIS_CODE":0,"TOWNNAME":"永康區","LI":"西勢里","LIN":"20鄰","STREET":"富強路","SECT":"一段","MAREA":" ","LANE":"１８５巷","ALLEY":"２弄","HOUSE_NO":"１８號","E_COORD97":175570.04999999999,"N_COORD97":2546451.6299999999,"ADDRESS":"富強路一段１８５巷２弄１８號","OBJECTID":88142},"geometry":{"x":175570.05000000075,"y":2546451.629999999}},{"attributes":{"ID":88143,"DIS_CODE":0,"TOWNNAME":"永康區","LI":"光復里","LIN":"10鄰","STREET":"復興路","SECT":" ","MAREA":" ","LANE":"３５６巷","ALLEY":"８０弄","HOUSE_NO":"５２號","E_COORD97":172461.64000000001,"N_COORD97":2544550.2799999998,"ADDRESS":"復興路３５６巷８０弄５２號","OBJECTID":88143},"geometry":{"x":172461.63999999966,"y":2544550.2799999975}},{"attributes":{"ID":88144,"DIS_CODE":0,"TOWNNAME":"永康區","LI":"崑山里","LIN":"10鄰","STREET":"大灣路","SECT":" ","MAREA":" ","LANE":"９７９巷","ALLEY":"２８弄","HOUSE_NO":"１８號","E_COORD97":173247.81,"N_COORD97":2544258,"ADDRESS":"大灣路９７９巷２８弄１８號","OBJECTID":88144},"geometry":{"x":173247.81000000052,"y":2544257.9999999981}},{"attributes":{"ID":88145,"DIS_CODE":0,"TOWNNAME":"後壁區","LI":"竹新里","LIN":"12鄰","STREET":" ","SECT":" ","MAREA":"竹圍後","LANE":" ","ALLEY":" ","HOUSE_NO":"１１４號","E_COORD97":178691.54000000001,"N_COORD97":2582520.71,"ADDRESS":"竹圍後１１４號","OBJECTID":88145},"geometry":{"x":178691.54000000097,"y":2582520.7100000009}},{"attributes":{"ID":88146,"DIS_CODE":0,"TOWNNAME":"永康區","LI":"東橋里","LIN":"10鄰","STREET":"中山南路","SECT":" ","MAREA":" ","LANE":"１９５巷","ALLEY":"２４弄","HOUSE_NO":"５０號","E_COORD97":171605.42999999999,"N_COORD97":2546317.3399999999,"ADDRESS":"中山南路１９５巷２４弄５０號","OBJECTID":88146},"geometry":{"x":171605.42999999877,"y":2546317.3400000036}},{"attributes":{"ID":88147,"DIS_CODE":0,"TOWNNAME":"永康區","LI":"東橋里","LIN":"10鄰","STREET":"中山南路","SECT":" ","MAREA":" ","LANE":"１９５巷","ALLEY":"２４弄","HOUSE_NO":"３８號","E_COORD97":171576.67000000001,"N_COORD97":2546354.5800000001,"ADDRESS":"中山南路１９５巷２４弄３８號","OBJECTID":88147},"geometry":{"x":171576.66999999993,"y":2546354.5800000019}},{"attributes":{"ID":88148,"DIS_CODE":0,"TOWNNAME":"永康區","LI":"五王里","LIN":"10鄰","STREET":"中山東路","SECT":" ","MAREA":" ","LANE":"２１８巷","ALLEY":"９弄","HOUSE_NO":"１號","E_COORD97":171758.57999999999,"N_COORD97":2545713.5,"ADDRESS":"中山東路２１８巷９弄１號","OBJECTID":88148},"geometry":{"x":171758.58000000007,"y":2545713.5000000019}},{"attributes":{"ID":88149,"DIS_CODE":0,"TOWNNAME":"永康區","LI":"光復里","LIN":"10鄰","STREET":"復興路","SECT":" ","MAREA":" ","LANE":"２４６巷","ALLEY":"１０弄","HOUSE_NO":"１９號","E_COORD97":172442.42000000001,"N_COORD97":2544514.27,"ADDRESS":"復興路２４６巷１０弄１９號","OBJECTID":88149},"geometry":{"x":172442.41999999993,"y":2544514.2700000014}},{"attributes":{"ID":88150,"DIS_CODE":0,"TOWNNAME":"永康區","LI":"東橋里","LIN":"10鄰","STREET":"中山南路","SECT":" ","MAREA":" ","LANE":"１９５巷","ALLEY":"２４弄","HOUSE_NO":"６６號","E_COORD97":171597.64000000001,"N_COORD97":2546342.5899999999,"ADDRESS":"中山南路１９５巷２４弄６６號","OBJECTID":88150},"geometry":{"x":171597.6400000006,"y":2546342.5900000036}},{"attributes":{"ID":88151,"DIS_CODE":0,"TOWNNAME":"永康區","LI":"崑山里","LIN":"10鄰","STREET":"崑大路","SECT":" ","MAREA":" ","LANE":"２０１巷","ALLEY":"２８弄","HOUSE_NO":"５號","E_COORD97":173280.07000000001,"N_COORD97":2544232.5,"ADDRESS":"崑大路２０１巷２８弄５號","OBJECTID":88151},"geometry":{"x":173280.07000000216,"y":2544232.5000000019}},{"attributes":{"ID":88152,"DIS_CODE":0,"TOWNNAME":"永康區","LI":"東橋里","LIN":"10鄰","STREET":"中山南路","SECT":" ","MAREA":" ","LANE":"１９５巷","ALLEY":"２４弄","HOUSE_NO":"５４號","E_COORD97":171620.26999999999,"N_COORD97":2546312.5899999999,"ADDRESS":"中山南路１９５巷２４弄５４號","OBJECTID":88152},"geometry":{"x":171620.27000000048,"y":2546312.5900000017}},{"attributes":{"ID":88153,"DIS_CODE":0,"TOWNNAME":"永康區","LI":"尚頂里","LIN":"22鄰","STREET":"南台街","SECT":" ","MAREA":" ","LANE":"１３巷","ALLEY":"３８弄","HOUSE_NO":"１４號","E_COORD97":170348.45000000001,"N_COORD97":2546879.4900000002,"ADDRESS":"南台街１３巷３８弄１４號","OBJECTID":88153},"geometry":{"x":170348.45000000112,"y":2546879.4900000039}},{"attributes":{"ID":88154,"DIS_CODE":0,"TOWNNAME":"永康區","LI":"西勢里","LIN":"20鄰","STREET":"富強路","SECT":"一段","MAREA":" ","LANE":"１８５巷","ALLEY":"１０弄","HOUSE_NO":"１１號","E_COORD97":175525,"N_COORD97":2546469.0699999998,"ADDRESS":"富強路一段１８５巷１０弄１１號","OBJECTID":88154},"geometry":{"x":175525.00000000093,"y":2546469.0700000022}},{"attributes":{"ID":88155,"DIS_CODE":0,"TOWNNAME":"永康區","LI":"西勢里","LIN":"20鄰","STREET":"富強路","SECT":"一段","MAREA":" ","LANE":"１８５巷","ALLEY":"２弄","HOUSE_NO":"１６號","E_COORD97":175567.75,"N_COORD97":2546447.6299999999,"ADDRESS":"富強路一段１８５巷２弄１６號","OBJECTID":88155},"geometry":{"x":175567.75000000093,"y":2546447.6300000008}},{"attributes":{"ID":88156,"DIS_CODE":0,"TOWNNAME":"永康區","LI":"西勢里","LIN":"20鄰","STREET":"富強路","SECT":"一段","MAREA":" ","LANE":"１８５巷","ALLEY":"２弄","HOUSE_NO":"１９號","E_COORD97":175585.95999999999,"N_COORD97":2546443.5299999998,"ADDRESS":"富強路一段１８５巷２弄１９號","OBJECTID":88156},"geometry":{"x":175585.96000000183,"y":2546443.5299999993}},{"attributes":{"ID":88157,"DIS_CODE":0,"TOWNNAME":"永康區","LI":"西勢里","LIN":"31鄰","STREET":"富強路","SECT":"一段","MAREA":" ","LANE":"９３巷","ALLEY":"６弄","HOUSE_NO":"１６號","E_COORD97":175473.89999999999,"N_COORD97":2546238.2799999998,"ADDRESS":"富強路一段９３巷６弄１６號","OBJECTID":88157},"geometry":{"x":175473.9000000013,"y":2546238.2799999993}},{"attributes":{"ID":88158,"DIS_CODE":0,"TOWNNAME":"永康區","LI":"中興里","LIN":"10鄰","STREET":"忠孝路","SECT":" ","MAREA":" ","LANE":"２３９巷","ALLEY":"２０弄","HOUSE_NO":"１３號","E_COORD97":172021.09,"N_COORD97":2545092.75,"ADDRESS":"忠孝路２３９巷２０弄１３號","OBJECTID":88158},"geometry":{"x":172021.08999999985,"y":2545092.75}},{"attributes":{"ID":88159,"DIS_CODE":0,"TOWNNAME":"後壁區","LI":"竹新里","LIN":"12鄰","STREET":" ","SECT":" ","MAREA":"竹圍後","LANE":" ","ALLEY":" ","HOUSE_NO":"１１１號","E_COORD97":178759.42999999999,"N_COORD97":2582520.0699999998,"ADDRESS":"竹圍後１１１號","OBJECTID":88159},"geometry":{"x":178759.43000000063,"y":2582520.0700000022}},{"attributes":{"ID":88160,"DIS_CODE":0,"TOWNNAME":"後壁區","LI":"竹新里","LIN":"12鄰","STREET":" ","SECT":" ","MAREA":"竹圍後","LANE":" ","ALLEY":" ","HOUSE_NO":"１１３號之１","E_COORD97":178706.91,"N_COORD97":2582514.8399999999,"ADDRESS":"竹圍後１１３號之１","OBJECTID":88160},"geometry":{"x":178706.91000000015,"y":2582514.8399999999}},{"attributes":{"ID":88161,"DIS_CODE":0,"TOWNNAME":"後壁區","LI":"後壁里","LIN":"12鄰","STREET":" ","SECT":" ","MAREA":"後壁","LANE":" ","ALLEY":" ","HOUSE_NO":"３３２號","E_COORD97":185927.17000000001,"N_COORD97":2584764.3599999999,"ADDRESS":"後壁３３２號","OBJECTID":88161},"geometry":{"x":185927.17000000086,"y":2584764.3600000013}},{"attributes":{"ID":88162,"DIS_CODE":0,"TOWNNAME":"永康區","LI":"神洲里","LIN":"10鄰","STREET":"忠孝路","SECT":" ","MAREA":" ","LANE":"１５２巷","ALLEY":"５７弄","HOUSE_NO":"５３號","E_COORD97":172450.37,"N_COORD97":2545321.2400000002,"ADDRESS":"忠孝路１５２巷５７弄５３號","OBJECTID":88162},"geometry":{"x":172450.37000000011,"y":2545321.2400000039}},{"attributes":{"ID":88163,"DIS_CODE":0,"TOWNNAME":"永康區","LI":"西橋里","LIN":"19鄰","STREET":"大橋三街","SECT":" ","MAREA":" ","LANE":"５７巷","ALLEY":"７弄","HOUSE_NO":"６１號","E_COORD97":170466.34,"N_COORD97":2546413.3799999999,"ADDRESS":"大橋三街５７巷７弄６１號","OBJECTID":88163},"geometry":{"x":170466.33999999985,"y":2546413.379999999}},{"attributes":{"ID":88164,"DIS_CODE":0,"TOWNNAME":"安南區","LI":"理想里","LIN":"10鄰","STREET":"海佃路","SECT":"二段","MAREA":" ","LANE":"１５０巷","ALLEY":"２８弄","HOUSE_NO":"１０號","E_COORD97":167080.67000000001,"N_COORD97":2548141.8799999999,"ADDRESS":"海佃路二段１５０巷２８弄１０號","OBJECTID":88164},"geometry":{"x":167080.66999999993,"y":2548141.879999999}},{"attributes":{"ID":88165,"DIS_CODE":0,"TOWNNAME":"安南區","LI":"理想里","LIN":"10鄰","STREET":"海佃路","SECT":"二段","MAREA":" ","LANE":"１５０巷","ALLEY":"２８弄","HOUSE_NO":"１２號","E_COORD97":167084.42999999999,"N_COORD97":2548140,"ADDRESS":"海佃路二段１５０巷２８弄１２號","OBJECTID":88165},"geometry":{"x":167084.43000000156,"y":2548139.9999999981}},{"attributes":{"ID":88166,"DIS_CODE":0,"TOWNNAME":"安南區","LI":"理想里","LIN":"10鄰","STREET":"海佃路","SECT":"二段","MAREA":" ","LANE":"１５０巷","ALLEY":"２８弄","HOUSE_NO":"１４號","E_COORD97":167087.44,"N_COORD97":2548136.8100000001,"ADDRESS":"海佃路二段１５０巷２８弄１４號","OBJECTID":88166},"geometry":{"x":167087.44000000134,"y":2548136.8100000024}},{"attributes":{"ID":88167,"DIS_CODE":0,"TOWNNAME":"安南區","LI":"理想里","LIN":"10鄰","STREET":"海佃路","SECT":"二段","MAREA":" ","LANE":"１５０巷","ALLEY":"２８弄","HOUSE_NO":"１６號","E_COORD97":167091.20000000001,"N_COORD97":2548133.2400000002,"ADDRESS":"海佃路二段１５０巷２８弄１６號","OBJECTID":88167},"geometry":{"x":167091.20000000019,"y":2548133.2400000021}},{"attributes":{"ID":88168,"DIS_CODE":0,"TOWNNAME":"安南區","LI":"理想里","LIN":"10鄰","STREET":"海佃路","SECT":"二段","MAREA":" ","LANE":"１５０巷","ALLEY":"２８弄","HOUSE_NO":"１８號","E_COORD97":167094.76999999999,"N_COORD97":2548131.7400000002,"ADDRESS":"海佃路二段１５０巷２８弄１８號","OBJECTID":88168},"geometry":{"x":167094.76999999955,"y":2548131.7399999984}},{"attributes":{"ID":88169,"DIS_CODE":0,"TOWNNAME":"安南區","LI":"理想里","LIN":"10鄰","STREET":"海佃路","SECT":"二段","MAREA":" ","LANE":"１５０巷","ALLEY":"２８弄","HOUSE_NO":"２０號","E_COORD97":167098.70999999999,"N_COORD97":2548128.7400000002,"ADDRESS":"海佃路二段１５０巷２８弄２０號","OBJECTID":88169},"geometry":{"x":167098.71000000089,"y":2548128.7400000039}},{"attributes":{"ID":88170,"DIS_CODE":0,"TOWNNAME":"安南區","LI":"理想里","LIN":"10鄰","STREET":"海佃路","SECT":"二段","MAREA":" ","LANE":"１５０巷","ALLEY":"２８弄","HOUSE_NO":"２２號","E_COORD97":167101.53,"N_COORD97":2548126.6699999999,"ADDRESS":"海佃路二段１５０巷２８弄２２號","OBJECTID":88170},"geometry":{"x":167101.53000000119,"y":2548126.6700000018}},{"attributes":{"ID":88171,"DIS_CODE":0,"TOWNNAME":"後壁區","LI":"竹新里","LIN":"12鄰","STREET":" ","SECT":" ","MAREA":"竹圍後","LANE":" ","ALLEY":" ","HOUSE_NO":"１１４號之１","E_COORD97":178699.60999999999,"N_COORD97":2582549.0899999999,"ADDRESS":"竹圍後１１４號之１","OBJECTID":88171},"geometry":{"x":178699.61000000127,"y":2582549.0900000017}},{"attributes":{"ID":88172,"DIS_CODE":0,"TOWNNAME":"後壁區","LI":"竹新里","LIN":"12鄰","STREET":" ","SECT":" ","MAREA":"竹圍後","LANE":" ","ALLEY":" ","HOUSE_NO":"１１４號之８","E_COORD97":178691.51999999999,"N_COORD97":2582505.6200000001,"ADDRESS":"竹圍後１１４號之８","OBJECTID":88172},"geometry":{"x":178691.51999999955,"y":2582505.6200000029}},{"attributes":{"ID":88173,"DIS_CODE":0,"TOWNNAME":"後壁區","LI":"竹新里","LIN":"12鄰","STREET":" ","SECT":" ","MAREA":"竹圍後","LANE":" ","ALLEY":" ","HOUSE_NO":"１１５號","E_COORD97":178710.76000000001,"N_COORD97":2582537.1200000001,"ADDRESS":"竹圍後１１５號","OBJECTID":88173},"geometry":{"x":178710.75999999978,"y":2582537.1200000029}},{"attributes":{"ID":88174,"DIS_CODE":0,"TOWNNAME":"後壁區","LI":"竹新里","LIN":"12鄰","STREET":" ","SECT":" ","MAREA":"竹圍後","LANE":" ","ALLEY":" ","HOUSE_NO":"１１６號之１","E_COORD97":178712.29000000001,"N_COORD97":2582545.5800000001,"ADDRESS":"竹圍後１１６號之１","OBJECTID":88174},"geometry":{"x":178712.29000000004,"y":2582545.5800000019}},{"attributes":{"ID":88175,"DIS_CODE":0,"TOWNNAME":"後壁區","LI":"竹新里","LIN":"12鄰","STREET":" ","SECT":" ","MAREA":"竹圍後","LANE":" ","ALLEY":" ","HOUSE_NO":"１１６號","E_COORD97":178712.23999999999,"N_COORD97":2582549.8199999998,"ADDRESS":"竹圍後１１６號","OBJECTID":88175},"geometry":{"x":178712.24000000115,"y":2582549.8200000003}},{"attributes":{"ID":88176,"DIS_CODE":0,"TOWNNAME":"後壁區","LI":"竹新里","LIN":"12鄰","STREET":" ","SECT":" ","MAREA":"竹圍後","LANE":" ","ALLEY":" ","HOUSE_NO":"１１７號之５","E_COORD97":178693.17000000001,"N_COORD97":2582576.8500000001,"ADDRESS":"竹圍後１１７號之５","OBJECTID":88176},"geometry":{"x":178693.16999999993,"y":2582576.8500000034}},{"attributes":{"ID":88177,"DIS_CODE":0,"TOWNNAME":"後壁區","LI":"竹新里","LIN":"12鄰","STREET":" ","SECT":" ","MAREA":"竹圍後","LANE":" ","ALLEY":" ","HOUSE_NO":"１１７號","E_COORD97":178709.79999999999,"N_COORD97":2582575.1800000002,"ADDRESS":"竹圍後１１７號","OBJECTID":88177},"geometry":{"x":178709.80000000075,"y":2582575.1800000016}},{"attributes":{"ID":88178,"DIS_CODE":0,"TOWNNAME":"後壁區","LI":"竹新里","LIN":"12鄰","STREET":" ","SECT":" ","MAREA":"竹圍後","LANE":" ","ALLEY":" ","HOUSE_NO":"１１８號之２","E_COORD97":178706.35000000001,"N_COORD97":2582597.04,"ADDRESS":"竹圍後１１８號之２","OBJECTID":88178},"geometry":{"x":178706.34999999963,"y":2582597.040000001}},{"attributes":{"ID":88179,"DIS_CODE":0,"TOWNNAME":"後壁區","LI":"竹新里","LIN":"12鄰","STREET":" ","SECT":" ","MAREA":"竹圍後","LANE":" ","ALLEY":" ","HOUSE_NO":"１１８號之３","E_COORD97":178709.54000000001,"N_COORD97":2582600.1699999999,"ADDRESS":"竹圍後１１８號之３","OBJECTID":88179},"geometry":{"x":178709.54000000004,"y":2582600.1700000018}},{"attributes":{"ID":88180,"DIS_CODE":0,"TOWNNAME":"後壁區","LI":"竹新里","LIN":"12鄰","STREET":" ","SECT":" ","MAREA":"竹圍後","LANE":" ","ALLEY":" ","HOUSE_NO":"１１８號","E_COORD97":178702.89000000001,"N_COORD97":2582589.75,"ADDRESS":"竹圍後１１８號","OBJECTID":88180},"geometry":{"x":178702.88999999966,"y":2582589.7500000019}},{"attributes":{"ID":88181,"DIS_CODE":0,"TOWNNAME":"後壁區","LI":"竹新里","LIN":"12鄰","STREET":" ","SECT":" ","MAREA":"竹圍後","LANE":" ","ALLEY":" ","HOUSE_NO":"１１９號之１","E_COORD97":178748.51999999999,"N_COORD97":2582572.6699999999,"ADDRESS":"竹圍後１１９號之１","OBJECTID":88181},"geometry":{"x":178748.52000000048,"y":2582572.6700000018}},{"attributes":{"ID":88182,"DIS_CODE":0,"TOWNNAME":"後壁區","LI":"竹新里","LIN":"12鄰","STREET":" ","SECT":" ","MAREA":"竹圍後","LANE":" ","ALLEY":" ","HOUSE_NO":"１１９號","E_COORD97":178746.20000000001,"N_COORD97":2582609.9300000002,"ADDRESS":"竹圍後１１９號","OBJECTID":88182},"geometry":{"x":178746.20000000112,"y":2582609.9299999997}},{"attributes":{"ID":88183,"DIS_CODE":0,"TOWNNAME":"後壁區","LI":"竹新里","LIN":"12鄰","STREET":" ","SECT":" ","MAREA":"竹圍後","LANE":" ","ALLEY":" ","HOUSE_NO":"１２０號之１","E_COORD97":178711.31,"N_COORD97":2582663.5800000001,"ADDRESS":"竹圍後１２０號之１","OBJECTID":88183},"geometry":{"x":178711.31000000052,"y":2582663.5800000001}},{"attributes":{"ID":88184,"DIS_CODE":0,"TOWNNAME":"楠西區","LI":"灣丘里","LIN":"15鄰","STREET":" ","SECT":" ","MAREA":"鳳興","LANE":" ","ALLEY":" ","HOUSE_NO":"３０號","E_COORD97":198748.37,"N_COORD97":2562693.25,"ADDRESS":"鳳興３０號","OBJECTID":88184},"geometry":{"x":198748.37000000104,"y":2562693.2500000037}},{"attributes":{"ID":88185,"DIS_CODE":0,"TOWNNAME":"後壁區","LI":"竹新里","LIN":"12鄰","STREET":" ","SECT":" ","MAREA":"竹圍後","LANE":" ","ALLEY":" ","HOUSE_NO":"１２０號之２３","E_COORD97":178732.29999999999,"N_COORD97":2582811.2400000002,"ADDRESS":"竹圍後１２０號之２３","OBJECTID":88185},"geometry":{"x":178732.29999999981,"y":2582811.2400000002}},{"attributes":{"ID":88186,"DIS_CODE":0,"TOWNNAME":"後壁區","LI":"竹新里","LIN":"12鄰","STREET":" ","SECT":" ","MAREA":"竹圍後","LANE":" ","ALLEY":" ","HOUSE_NO":"１２０號之２","E_COORD97":178716.14000000001,"N_COORD97":2582701.71,"ADDRESS":"竹圍後１２０號之２","OBJECTID":88186},"geometry":{"x":178716.1400000006,"y":2582701.7100000028}},{"attributes":{"ID":88187,"DIS_CODE":0,"TOWNNAME":"後壁區","LI":"竹新里","LIN":"12鄰","STREET":" ","SECT":" ","MAREA":"竹圍後","LANE":" ","ALLEY":" ","HOUSE_NO":"１２０號之４２","E_COORD97":178951.5,"N_COORD97":2583028.4700000002,"ADDRESS":"竹圍後１２０號之４２","OBJECTID":88187},"geometry":{"x":178951.5,"y":2583028.4700000025}},{"attributes":{"ID":88188,"DIS_CODE":0,"TOWNNAME":"後壁區","LI":"竹新里","LIN":"12鄰","STREET":" ","SECT":" ","MAREA":"竹圍後","LANE":" ","ALLEY":" ","HOUSE_NO":"１２０號之５５","E_COORD97":178427.66,"N_COORD97":2582820.1200000001,"ADDRESS":"竹圍後１２０號之５５","OBJECTID":88188},"geometry":{"x":178427.66000000201,"y":2582820.120000001}},{"attributes":{"ID":88189,"DIS_CODE":0,"TOWNNAME":"後壁區","LI":"竹新里","LIN":"12鄰","STREET":" ","SECT":" ","MAREA":"竹圍後","LANE":" ","ALLEY":" ","HOUSE_NO":"１２０號之５","E_COORD97":178730.35999999999,"N_COORD97":2582650.5099999998,"ADDRESS":"竹圍後１２０號之５","OBJECTID":88189},"geometry":{"x":178730.36000000127,"y":2582650.5100000035}},{"attributes":{"ID":88190,"DIS_CODE":0,"TOWNNAME":"後壁區","LI":"竹新里","LIN":"12鄰","STREET":" ","SECT":" ","MAREA":"竹圍後","LANE":" ","ALLEY":" ","HOUSE_NO":"１２０號之６０","E_COORD97":178363.51000000001,"N_COORD97":2582789.5499999998,"ADDRESS":"竹圍後１２０號之６０","OBJECTID":88190},"geometry":{"x":178363.50999999978,"y":2582789.5500000007}},{"attributes":{"ID":88191,"DIS_CODE":0,"TOWNNAME":"安南區","LI":"理想里","LIN":"10鄰","STREET":"海佃路","SECT":"二段","MAREA":" ","LANE":"１５０巷","ALLEY":"２８弄","HOUSE_NO":"２４號","E_COORD97":167105.47,"N_COORD97":2548124.79,"ADDRESS":"海佃路二段１５０巷２８弄２４號","OBJECTID":88191},"geometry":{"x":167105.46999999974,"y":2548124.790000001}},{"attributes":{"ID":88192,"DIS_CODE":0,"TOWNNAME":"安南區","LI":"理想里","LIN":"10鄰","STREET":"海佃路","SECT":"二段","MAREA":" ","LANE":"１５０巷","ALLEY":"２８弄","HOUSE_NO":"２６號","E_COORD97":167109.79999999999,"N_COORD97":2548122.73,"ADDRESS":"海佃路二段１５０巷２８弄２６號","OBJECTID":88192},"geometry":{"x":167109.80000000075,"y":2548122.7300000023}},{"attributes":{"ID":88193,"DIS_CODE":0,"TOWNNAME":"安南區","LI":"理想里","LIN":"10鄰","STREET":"海佃路","SECT":"二段","MAREA":" ","LANE":"１５０巷","ALLEY":"２８弄","HOUSE_NO":"２８號","E_COORD97":167113.37,"N_COORD97":2548121.4100000001,"ADDRESS":"海佃路二段１５０巷２８弄２８號","OBJECTID":88193},"geometry":{"x":167113.37000000011,"y":2548121.410000002}},{"attributes":{"ID":88194,"DIS_CODE":0,"TOWNNAME":"安南區","LI":"理想里","LIN":"10鄰","STREET":"海佃路","SECT":"二段","MAREA":" ","LANE":"１５０巷","ALLEY":"２８弄","HOUSE_NO":"２號","E_COORD97":167066.39999999999,"N_COORD97":2548150.3199999998,"ADDRESS":"海佃路二段１５０巷２８弄２號","OBJECTID":88194},"geometry":{"x":167066.40000000037,"y":2548150.3200000003}},{"attributes":{"ID":88195,"DIS_CODE":0,"TOWNNAME":"安南區","LI":"理想里","LIN":"10鄰","STREET":"海佃路","SECT":"二段","MAREA":" ","LANE":"１５０巷","ALLEY":"２８弄","HOUSE_NO":"３０號","E_COORD97":167117.31,"N_COORD97":2548119.1600000001,"ADDRESS":"海佃路二段１５０巷２８弄３０號","OBJECTID":88195},"geometry":{"x":167117.31000000145,"y":2548119.1600000039}},{"attributes":{"ID":88196,"DIS_CODE":0,"TOWNNAME":"安南區","LI":"理想里","LIN":"10鄰","STREET":"海佃路","SECT":"二段","MAREA":" ","LANE":"１５０巷","ALLEY":"２８弄","HOUSE_NO":"３２號","E_COORD97":167121.63,"N_COORD97":2548118.2200000002,"ADDRESS":"海佃路二段１５０巷２８弄３２號","OBJECTID":88196},"geometry":{"x":167121.62999999989,"y":2548118.2200000007}},{"attributes":{"ID":88197,"DIS_CODE":0,"TOWNNAME":"安南區","LI":"理想里","LIN":"10鄰","STREET":"海佃路","SECT":"二段","MAREA":" ","LANE":"１５０巷","ALLEY":"２８弄","HOUSE_NO":"３４號","E_COORD97":167125.20000000001,"N_COORD97":2548116.9100000001,"ADDRESS":"海佃路二段１５０巷２８弄３４號","OBJECTID":88197},"geometry":{"x":167125.20000000019,"y":2548116.9100000001}},{"attributes":{"ID":88198,"DIS_CODE":0,"TOWNNAME":"安南區","LI":"理想里","LIN":"10鄰","STREET":"海佃路","SECT":"二段","MAREA":" ","LANE":"１５０巷","ALLEY":"２８弄","HOUSE_NO":"３６號","E_COORD97":167128.95999999999,"N_COORD97":2548114.6600000001,"ADDRESS":"海佃路二段１５０巷２８弄３６號","OBJECTID":88198},"geometry":{"x":167128.96000000089,"y":2548114.6600000001}},{"attributes":{"ID":88199,"DIS_CODE":0,"TOWNNAME":"安南區","LI":"理想里","LIN":"10鄰","STREET":"海佃路","SECT":"二段","MAREA":" ","LANE":"１５０巷","ALLEY":"２８弄","HOUSE_NO":"３８號","E_COORD97":167132.89999999999,"N_COORD97":2548112.5899999999,"ADDRESS":"海佃路二段１５０巷２８弄３８號","OBJECTID":88199},"geometry":{"x":167132.90000000224,"y":2548112.5900000017}},{"attributes":{"ID":88200,"DIS_CODE":0,"TOWNNAME":"安南區","LI":"理想里","LIN":"10鄰","STREET":"海佃路","SECT":"二段","MAREA":" ","LANE":"１５０巷","ALLEY":"２８弄","HOUSE_NO":"４０號","E_COORD97":167137.41,"N_COORD97":2548110.3399999999,"ADDRESS":"海佃路二段１５０巷２８弄４０號","OBJECTID":88200},"geometry":{"x":167137.41000000015,"y":2548110.339999998}}]}