{"displayFieldName":"TOWNNAME","fieldAliases":{"ID":"ID","DIS_CODE":"DIS_CODE","TOWNNAME":"TOWNNAME","LI":"LI","LIN":"LIN","STREET":"STREET","SECT":"SECT","MAREA":"MAREA","LANE":"LANE","ALLEY":"ALLEY","HOUSE_NO":"HOUSE_NO","E_COORD97":"E_COORD97","N_COORD97":"N_COORD97","ADDRESS":"ADDRESS","OBJECTID":"OBJECTID"},"geometryType":"esriGeometryPoint","spatialReference":{"wkid":102443,"latestWkid":3826},"fields":[{"name":"ID","type":"esriFieldTypeDouble","alias":"ID"},{"name":"DIS_CODE","type":"esriFieldTypeInteger","alias":"DIS_CODE"},{"name":"TOWNNAME","type":"esriFieldTypeString","alias":"TOWNNAME","length":8},{"name":"LI","type":"esriFieldTypeString","alias":"LI","length":8},{"name":"LIN","type":"esriFieldTypeString","alias":"LIN","length":12},{"name":"STREET","type":"esriFieldTypeString","alias":"STREET","length":20},{"name":"SECT","type":"esriFieldTypeString","alias":"SECT","length":8},{"name":"MAREA","type":"esriFieldTypeString","alias":"MAREA","length":12},{"name":"LANE","type":"esriFieldTypeString","alias":"LANE","length":10},{"name":"ALLEY","type":"esriFieldTypeString","alias":"ALLEY","length":10},{"name":"HOUSE_NO","type":"esriFieldTypeString","alias":"HOUSE_NO","length":20},{"name":"E_COORD97","type":"esriFieldTypeDouble","alias":"E_COORD97"},{"name":"N_COORD97","type":"esriFieldTypeDouble","alias":"N_COORD97"},{"name":"ADDRESS","type":"esriFieldTypeString","alias":"ADDRESS","length":50},{"name":"OBJECTID","type":"esriFieldTypeOID","alias":"OBJECTID"}],"features":[{"attributes":{"ID":310609,"DIS_CODE":0,"TOWNNAME":"北區","LI":"東興里","LIN":"7鄰","STREET":"小東路","SECT":" ","MAREA":" ","LANE":"３０７巷","ALLEY":" ","HOUSE_NO":"９號","E_COORD97":171137.95999999999,"N_COORD97":2544435.1200000001,"ADDRESS":"小東路３０７巷９號","OBJECTID":310601},"geometry":{"x":171137.96000000089,"y":2544435.1200000029}},{"attributes":{"ID":310610,"DIS_CODE":0,"TOWNNAME":"北區","LI":"中樓里","LIN":"7鄰","STREET":"東豐路","SECT":" ","MAREA":" ","LANE":"１３３巷","ALLEY":" ","HOUSE_NO":"１１號","E_COORD97":169758.82000000001,"N_COORD97":2544953.8799999999,"ADDRESS":"東豐路１３３巷１１號","OBJECTID":310602},"geometry":{"x":169758.8200000003,"y":2544953.8800000008}},{"attributes":{"ID":310611,"DIS_CODE":0,"TOWNNAME":"北區","LI":"中樓里","LIN":"7鄰","STREET":"東豐路","SECT":" ","MAREA":" ","LANE":"１３３巷","ALLEY":" ","HOUSE_NO":"１５號","E_COORD97":169771.03,"N_COORD97":2544953.7799999998,"ADDRESS":"東豐路１３３巷１５號","OBJECTID":310603},"geometry":{"x":169771.03000000026,"y":2544953.7799999975}},{"attributes":{"ID":310612,"DIS_CODE":0,"TOWNNAME":"北區","LI":"中樓里","LIN":"7鄰","STREET":"東豐路","SECT":" ","MAREA":" ","LANE":"１３３巷","ALLEY":" ","HOUSE_NO":"１９號","E_COORD97":169777.04000000001,"N_COORD97":2544961.9900000002,"ADDRESS":"東豐路１３３巷１９號","OBJECTID":310604},"geometry":{"x":169777.04000000004,"y":2544961.9900000021}},{"attributes":{"ID":310613,"DIS_CODE":0,"TOWNNAME":"北區","LI":"中樓里","LIN":"7鄰","STREET":"東豐路","SECT":" ","MAREA":" ","LANE":"１３３巷","ALLEY":" ","HOUSE_NO":"１號","E_COORD97":169786.20999999999,"N_COORD97":2544923.21,"ADDRESS":"東豐路１３３巷１號","OBJECTID":310605},"geometry":{"x":169786.20999999996,"y":2544923.2100000028}},{"attributes":{"ID":310614,"DIS_CODE":0,"TOWNNAME":"北區","LI":"五福里","LIN":"7鄰","STREET":"成功路","SECT":" ","MAREA":" ","LANE":"２３８巷","ALLEY":" ","HOUSE_NO":"１１號","E_COORD97":168318.17000000001,"N_COORD97":2544530.8100000001,"ADDRESS":"成功路２３８巷１１號","OBJECTID":310606},"geometry":{"x":168318.16999999993,"y":2544530.8100000005}},{"attributes":{"ID":310615,"DIS_CODE":0,"TOWNNAME":"仁德區","LI":"新田里","LIN":"17鄰","STREET":"民安路","SECT":"二段","MAREA":" ","LANE":" ","ALLEY":" ","HOUSE_NO":"７７號十樓之２","E_COORD97":173501.32000000001,"N_COORD97":2539215.3100000001,"ADDRESS":"民安路二段７７號十樓之２","OBJECTID":310607},"geometry":{"x":173501.3200000003,"y":2539215.3100000042}},{"attributes":{"ID":310616,"DIS_CODE":0,"TOWNNAME":"永康區","LI":"正強里","LIN":"4鄰","STREET":"正義街","SECT":" ","MAREA":" ","LANE":" ","ALLEY":" ","HOUSE_NO":"２９號","E_COORD97":173599.89999999999,"N_COORD97":2547679.5600000001,"ADDRESS":"正義街２９號","OBJECTID":310608},"geometry":{"x":173599.89999999944,"y":2547679.5600000024}},{"attributes":{"ID":310617,"DIS_CODE":0,"TOWNNAME":"永康區","LI":"正強里","LIN":"32鄰","STREET":"四維街","SECT":" ","MAREA":" ","LANE":"２９巷","ALLEY":" ","HOUSE_NO":"１３號","E_COORD97":173374.98999999999,"N_COORD97":2547994.25,"ADDRESS":"四維街２９巷１３號","OBJECTID":310609},"geometry":{"x":173374.99000000022,"y":2547994.2500000019}},{"attributes":{"ID":310618,"DIS_CODE":0,"TOWNNAME":"永康區","LI":"正強里","LIN":"32鄰","STREET":"中正路","SECT":" ","MAREA":" ","LANE":"２２２巷","ALLEY":" ","HOUSE_NO":"２號","E_COORD97":173336.57000000001,"N_COORD97":2547929.9900000002,"ADDRESS":"中正路２２２巷２號","OBJECTID":310610},"geometry":{"x":173336.57000000123,"y":2547929.9900000002}},{"attributes":{"ID":310619,"DIS_CODE":0,"TOWNNAME":"永康區","LI":"北灣里","LIN":"4鄰","STREET":"信義街","SECT":" ","MAREA":" ","LANE":"６２巷","ALLEY":" ","HOUSE_NO":"９號","E_COORD97":175427.39999999999,"N_COORD97":2545694.77,"ADDRESS":"信義街６２巷９號","OBJECTID":310611},"geometry":{"x":175427.40000000224,"y":2545694.7700000014}},{"attributes":{"ID":310620,"DIS_CODE":0,"TOWNNAME":"永康區","LI":"北灣里","LIN":"4鄰","STREET":"信義街","SECT":" ","MAREA":" ","LANE":"６２巷","ALLEY":" ","HOUSE_NO":"１１號","E_COORD97":175427.64999999999,"N_COORD97":2545699.77,"ADDRESS":"信義街６２巷１１號","OBJECTID":310612},"geometry":{"x":175427.6500000013,"y":2545699.7699999996}},{"attributes":{"ID":310621,"DIS_CODE":0,"TOWNNAME":"永康區","LI":"北灣里","LIN":"20鄰","STREET":"大同街","SECT":" ","MAREA":" ","LANE":"４１３巷","ALLEY":" ","HOUSE_NO":"５７號","E_COORD97":174609.51999999999,"N_COORD97":2546070.75,"ADDRESS":"大同街４１３巷５７號","OBJECTID":310613},"geometry":{"x":174609.51999999955,"y":2546070.7500000019}},{"attributes":{"ID":310622,"DIS_CODE":0,"TOWNNAME":"永康區","LI":"永康里","LIN":"32鄰","STREET":"大同街","SECT":" ","MAREA":" ","LANE":"８３９巷","ALLEY":" ","HOUSE_NO":"６號","E_COORD97":174365.98999999999,"N_COORD97":2547106.4900000002,"ADDRESS":"大同街８３９巷６號","OBJECTID":310614},"geometry":{"x":174365.99000000115,"y":2547106.4900000039}},{"attributes":{"ID":310623,"DIS_CODE":0,"TOWNNAME":"永康區","LI":"正強里","LIN":"26鄰","STREET":"中正路","SECT":" ","MAREA":" ","LANE":"１５５巷","ALLEY":" ","HOUSE_NO":"９號","E_COORD97":173246.12,"N_COORD97":2547864.8999999999,"ADDRESS":"中正路１５５巷９號","OBJECTID":310615},"geometry":{"x":173246.12000000104,"y":2547864.9000000022}},{"attributes":{"ID":310624,"DIS_CODE":0,"TOWNNAME":"北區","LI":"五福里","LIN":"7鄰","STREET":"成功路","SECT":" ","MAREA":" ","LANE":"２３８巷","ALLEY":" ","HOUSE_NO":"１５號","E_COORD97":168361.57000000001,"N_COORD97":2544545.79,"ADDRESS":"成功路２３８巷１５號","OBJECTID":310616},"geometry":{"x":168361.5700000003,"y":2544545.7899999991}},{"attributes":{"ID":310625,"DIS_CODE":0,"TOWNNAME":"北區","LI":"五福里","LIN":"7鄰","STREET":"成功路","SECT":" ","MAREA":" ","LANE":"２３８巷","ALLEY":" ","HOUSE_NO":"１７號","E_COORD97":168354.14000000001,"N_COORD97":2544547.7400000002,"ADDRESS":"成功路２３８巷１７號","OBJECTID":310617},"geometry":{"x":168354.13999999966,"y":2544547.7400000002}},{"attributes":{"ID":310626,"DIS_CODE":0,"TOWNNAME":"北區","LI":"五福里","LIN":"7鄰","STREET":"成功路","SECT":" ","MAREA":" ","LANE":"２３８巷","ALLEY":" ","HOUSE_NO":"１９號","E_COORD97":168362.09,"N_COORD97":2544539.79,"ADDRESS":"成功路２３８巷１９號","OBJECTID":310618},"geometry":{"x":168362.09000000078,"y":2544539.7899999991}},{"attributes":{"ID":310627,"DIS_CODE":0,"TOWNNAME":"北區","LI":"五福里","LIN":"7鄰","STREET":"成功路","SECT":" ","MAREA":" ","LANE":"２３８巷","ALLEY":" ","HOUSE_NO":"２３號","E_COORD97":168367.70000000001,"N_COORD97":2544537.4500000002,"ADDRESS":"成功路２３８巷２３號","OBJECTID":310619},"geometry":{"x":168367.70000000019,"y":2544537.4499999993}},{"attributes":{"ID":310628,"DIS_CODE":0,"TOWNNAME":"歸仁區","LI":"大廟里","LIN":"7鄰","STREET":"大廟一街","SECT":" ","MAREA":" ","LANE":"１２３巷","ALLEY":" ","HOUSE_NO":"６號","E_COORD97":175749.42000000001,"N_COORD97":2543871.25,"ADDRESS":"大廟一街１２３巷６號","OBJECTID":310620},"geometry":{"x":175749.42000000086,"y":2543871.2500000019}},{"attributes":{"ID":310629,"DIS_CODE":0,"TOWNNAME":"歸仁區","LI":"許厝里","LIN":"7鄰","STREET":"仁愛八街","SECT":" ","MAREA":" ","LANE":"３３巷","ALLEY":" ","HOUSE_NO":"８號","E_COORD97":178165.66,"N_COORD97":2540614.4199999999,"ADDRESS":"仁愛八街３３巷８號","OBJECTID":310621},"geometry":{"x":178165.66000000108,"y":2540614.4200000018}},{"attributes":{"ID":310630,"DIS_CODE":0,"TOWNNAME":"仁德區","LI":"新田里","LIN":"17鄰","STREET":"民安路","SECT":"二段","MAREA":" ","LANE":" ","ALLEY":" ","HOUSE_NO":"７７號之１十樓之１","E_COORD97":173513.39000000001,"N_COORD97":2539241.3100000001,"ADDRESS":"民安路二段７７號之１十樓之１","OBJECTID":310622},"geometry":{"x":173513.3900000006,"y":2539241.3100000005}},{"attributes":{"ID":310631,"DIS_CODE":0,"TOWNNAME":"仁德區","LI":"新田里","LIN":"17鄰","STREET":"民安路","SECT":"二段","MAREA":" ","LANE":" ","ALLEY":" ","HOUSE_NO":"７７號之１八樓之２","E_COORD97":173513.53,"N_COORD97":2539241.3100000001,"ADDRESS":"民安路二段７７號之１八樓之２","OBJECTID":310623},"geometry":{"x":173513.53000000026,"y":2539241.3100000005}},{"attributes":{"ID":310632,"DIS_CODE":0,"TOWNNAME":"下營區","LI":"賀建里","LIN":"8鄰","STREET":" ","SECT":" ","MAREA":"火燒珠","LANE":" ","ALLEY":" ","HOUSE_NO":"１號之９","E_COORD97":176328.89999999999,"N_COORD97":2572520.2799999998,"ADDRESS":"火燒珠１號之９","OBJECTID":310624},"geometry":{"x":176328.90000000037,"y":2572520.2799999993}},{"attributes":{"ID":310633,"DIS_CODE":0,"TOWNNAME":"仁德區","LI":"新田里","LIN":"17鄰","STREET":"民安路","SECT":"二段","MAREA":" ","LANE":" ","ALLEY":" ","HOUSE_NO":"７７號八樓之３","E_COORD97":173501.28,"N_COORD97":2539215.3100000001,"ADDRESS":"民安路二段７７號八樓之３","OBJECTID":310625},"geometry":{"x":173501.28000000119,"y":2539215.3100000042}},{"attributes":{"ID":310634,"DIS_CODE":0,"TOWNNAME":"仁德區","LI":"新田里","LIN":"17鄰","STREET":"民安路","SECT":"二段","MAREA":" ","LANE":" ","ALLEY":" ","HOUSE_NO":"７５號一樓之１","E_COORD97":173489.59,"N_COORD97":2539223.0600000001,"ADDRESS":"民安路二段７５號一樓之１","OBJECTID":310626},"geometry":{"x":173489.58999999892,"y":2539223.0600000005}},{"attributes":{"ID":310635,"DIS_CODE":0,"TOWNNAME":"仁德區","LI":"新田里","LIN":"17鄰","STREET":"民安路","SECT":"二段","MAREA":" ","LANE":" ","ALLEY":" ","HOUSE_NO":"７７號之１九樓之３","E_COORD97":173513.48999999999,"N_COORD97":2539241.3100000001,"ADDRESS":"民安路二段７７號之１九樓之３","OBJECTID":310627},"geometry":{"x":173513.49000000115,"y":2539241.3100000005}},{"attributes":{"ID":310636,"DIS_CODE":0,"TOWNNAME":"南區","LI":"國宅里","LIN":"17鄰","STREET":"新孝路","SECT":" ","MAREA":" ","LANE":" ","ALLEY":" ","HOUSE_NO":"６７號二樓","E_COORD97":166816.23000000001,"N_COORD97":2542045.4199999999,"ADDRESS":"新孝路６７號二樓","OBJECTID":310628},"geometry":{"x":166816.23000000045,"y":2542045.4200000018}},{"attributes":{"ID":310637,"DIS_CODE":0,"TOWNNAME":"安南區","LI":"安慶里","LIN":"12鄰","STREET":"長溪路","SECT":"一段","MAREA":" ","LANE":"８７巷","ALLEY":" ","HOUSE_NO":"７號","E_COORD97":169124.17000000001,"N_COORD97":2548359.3199999998,"ADDRESS":"長溪路一段８７巷７號","OBJECTID":310629},"geometry":{"x":169124.17000000179,"y":2548359.3200000022}},{"attributes":{"ID":310638,"DIS_CODE":0,"TOWNNAME":"安南區","LI":"安慶里","LIN":"12鄰","STREET":"長溪路","SECT":"一段","MAREA":" ","LANE":"８７巷","ALLEY":" ","HOUSE_NO":"８號","E_COORD97":169117.91,"N_COORD97":2548376.2200000002,"ADDRESS":"長溪路一段８７巷８號","OBJECTID":310630},"geometry":{"x":169117.91000000108,"y":2548376.2200000007}},{"attributes":{"ID":310639,"DIS_CODE":0,"TOWNNAME":"安南區","LI":"總頭里","LIN":"1鄰","STREET":"長溪路","SECT":"二段","MAREA":" ","LANE":"４１０巷","ALLEY":" ","HOUSE_NO":"８號","E_COORD97":168325.89999999999,"N_COORD97":2550158.46,"ADDRESS":"長溪路二段４１０巷８號","OBJECTID":310631},"geometry":{"x":168325.90000000037,"y":2550158.459999999}},{"attributes":{"ID":310640,"DIS_CODE":0,"TOWNNAME":"安南區","LI":"長安里","LIN":" ","STREET":"長溪路","SECT":"三段","MAREA":" ","LANE":"４５９巷","ALLEY":" ","HOUSE_NO":"４號","E_COORD97":167544.98999999999,"N_COORD97":2552106,"ADDRESS":"長溪路三段４５９巷４號","OBJECTID":310632},"geometry":{"x":167544.99000000022,"y":2552106}},{"attributes":{"ID":310641,"DIS_CODE":0,"TOWNNAME":"安南區","LI":"總頭里","LIN":"4鄰","STREET":"長溪路","SECT":"二段","MAREA":" ","LANE":"５７０巷","ALLEY":" ","HOUSE_NO":"１８號","E_COORD97":168307.70000000001,"N_COORD97":2550587.3100000001,"ADDRESS":"長溪路二段５７０巷１８號","OBJECTID":310633},"geometry":{"x":168307.70000000112,"y":2550587.3100000024}},{"attributes":{"ID":310642,"DIS_CODE":0,"TOWNNAME":"安南區","LI":"總頭里","LIN":"4鄰","STREET":"長溪路","SECT":"二段","MAREA":" ","LANE":"５７０巷","ALLEY":" ","HOUSE_NO":"１號","E_COORD97":168262.03,"N_COORD97":2550625.6600000001,"ADDRESS":"長溪路二段５７０巷１號","OBJECTID":310634},"geometry":{"x":168262.03000000026,"y":2550625.660000002}},{"attributes":{"ID":310643,"DIS_CODE":0,"TOWNNAME":"安南區","LI":"總頭里","LIN":"4鄰","STREET":"長溪路","SECT":"二段","MAREA":" ","LANE":"５７０巷","ALLEY":" ","HOUSE_NO":"２０號","E_COORD97":168300.92000000001,"N_COORD97":2550589.1200000001,"ADDRESS":"長溪路二段５７０巷２０號","OBJECTID":310635},"geometry":{"x":168300.92000000086,"y":2550589.1200000029}},{"attributes":{"ID":310644,"DIS_CODE":0,"TOWNNAME":"安南區","LI":"總頭里","LIN":"4鄰","STREET":"長溪路","SECT":"二段","MAREA":" ","LANE":"５７０巷","ALLEY":" ","HOUSE_NO":"３號","E_COORD97":168268.35999999999,"N_COORD97":2550628.3700000001,"ADDRESS":"長溪路二段５７０巷３號","OBJECTID":310636},"geometry":{"x":168268.36000000034,"y":2550628.3700000029}},{"attributes":{"ID":310645,"DIS_CODE":0,"TOWNNAME":"安南區","LI":"總頭里","LIN":"6鄰","STREET":"長溪路","SECT":"二段","MAREA":" ","LANE":"５７０巷","ALLEY":" ","HOUSE_NO":"１１號","E_COORD97":168289.60999999999,"N_COORD97":2550619.3399999999,"ADDRESS":"長溪路二段５７０巷１１號","OBJECTID":310637},"geometry":{"x":168289.61000000127,"y":2550619.3400000036}},{"attributes":{"ID":310646,"DIS_CODE":0,"TOWNNAME":"安南區","LI":"總頭里","LIN":"6鄰","STREET":"長溪路","SECT":"二段","MAREA":" ","LANE":"５７０巷","ALLEY":" ","HOUSE_NO":"２１號","E_COORD97":168309.51000000001,"N_COORD97":2550613.9300000002,"ADDRESS":"長溪路二段５７０巷２１號","OBJECTID":310638},"geometry":{"x":168309.50999999885,"y":2550613.9299999997}},{"attributes":{"ID":310647,"DIS_CODE":0,"TOWNNAME":"南區","LI":"國宅里","LIN":"17鄰","STREET":"新孝路","SECT":" ","MAREA":" ","LANE":" ","ALLEY":" ","HOUSE_NO":"６７號三樓","E_COORD97":166816.23000000001,"N_COORD97":2542045.4199999999,"ADDRESS":"新孝路６７號三樓","OBJECTID":310639},"geometry":{"x":166816.23000000045,"y":2542045.4200000018}},{"attributes":{"ID":310648,"DIS_CODE":0,"TOWNNAME":"南區","LI":"國宅里","LIN":"17鄰","STREET":"新孝路","SECT":" ","MAREA":" ","LANE":" ","ALLEY":" ","HOUSE_NO":"６７號四樓","E_COORD97":166816.23000000001,"N_COORD97":2542045.4199999999,"ADDRESS":"新孝路６７號四樓","OBJECTID":310640},"geometry":{"x":166816.23000000045,"y":2542045.4200000018}},{"attributes":{"ID":310649,"DIS_CODE":0,"TOWNNAME":"南區","LI":"國宅里","LIN":"17鄰","STREET":"新孝路","SECT":" ","MAREA":" ","LANE":" ","ALLEY":" ","HOUSE_NO":"６９號二樓","E_COORD97":166804.82999999999,"N_COORD97":2542046.2599999998,"ADDRESS":"新孝路６９號二樓","OBJECTID":310641},"geometry":{"x":166804.83000000101,"y":2542046.2600000016}},{"attributes":{"ID":310650,"DIS_CODE":0,"TOWNNAME":"南區","LI":"國宅里","LIN":"17鄰","STREET":"新孝路","SECT":" ","MAREA":" ","LANE":" ","ALLEY":" ","HOUSE_NO":"６９號三樓","E_COORD97":166804.82999999999,"N_COORD97":2542046.2599999998,"ADDRESS":"新孝路６９號三樓","OBJECTID":310642},"geometry":{"x":166804.83000000101,"y":2542046.2600000016}},{"attributes":{"ID":310651,"DIS_CODE":0,"TOWNNAME":"南區","LI":"國宅里","LIN":"17鄰","STREET":"新孝路","SECT":" ","MAREA":" ","LANE":" ","ALLEY":" ","HOUSE_NO":"６９號四樓","E_COORD97":166804.82999999999,"N_COORD97":2542046.2599999998,"ADDRESS":"新孝路６９號四樓","OBJECTID":310643},"geometry":{"x":166804.83000000101,"y":2542046.2600000016}},{"attributes":{"ID":310652,"DIS_CODE":0,"TOWNNAME":"新營區","LI":"王公里","LIN":"30鄰","STREET":"民族路","SECT":" ","MAREA":" ","LANE":" ","ALLEY":" ","HOUSE_NO":"２５２之１號","E_COORD97":180393.35000000001,"N_COORD97":2579535.4500000002,"ADDRESS":"民族路２５２之１號","OBJECTID":310644},"geometry":{"x":180393.34999999963,"y":2579535.4500000011}},{"attributes":{"ID":310653,"DIS_CODE":0,"TOWNNAME":"南區","LI":"國宅里","LIN":"17鄰","STREET":"新孝路","SECT":" ","MAREA":" ","LANE":" ","ALLEY":" ","HOUSE_NO":"７１號二樓","E_COORD97":166795.76000000001,"N_COORD97":2542046.6800000002,"ADDRESS":"新孝路７１號二樓","OBJECTID":310645},"geometry":{"x":166795.76000000164,"y":2542046.6800000016}},{"attributes":{"ID":310654,"DIS_CODE":0,"TOWNNAME":"南區","LI":"國宅里","LIN":"17鄰","STREET":"新孝路","SECT":" ","MAREA":" ","LANE":" ","ALLEY":" ","HOUSE_NO":"７１號三樓","E_COORD97":166795.76000000001,"N_COORD97":2542046.6800000002,"ADDRESS":"新孝路７１號三樓","OBJECTID":310646},"geometry":{"x":166795.76000000164,"y":2542046.6800000016}},{"attributes":{"ID":310655,"DIS_CODE":0,"TOWNNAME":"南區","LI":"國宅里","LIN":"17鄰","STREET":"新孝路","SECT":" ","MAREA":" ","LANE":" ","ALLEY":" ","HOUSE_NO":"７１號四樓","E_COORD97":166795.76000000001,"N_COORD97":2542046.6800000002,"ADDRESS":"新孝路７１號四樓","OBJECTID":310647},"geometry":{"x":166795.76000000164,"y":2542046.6800000016}},{"attributes":{"ID":310656,"DIS_CODE":0,"TOWNNAME":"南區","LI":"國宅里","LIN":"17鄰","STREET":"新孝路","SECT":" ","MAREA":" ","LANE":" ","ALLEY":" ","HOUSE_NO":"７３號二樓","E_COORD97":166785.84,"N_COORD97":2542047.3100000001,"ADDRESS":"新孝路７３號二樓","OBJECTID":310648},"geometry":{"x":166785.84000000078,"y":2542047.3100000024}},{"attributes":{"ID":310657,"DIS_CODE":0,"TOWNNAME":"南區","LI":"國宅里","LIN":"17鄰","STREET":"新孝路","SECT":" ","MAREA":" ","LANE":" ","ALLEY":" ","HOUSE_NO":"７３號三樓","E_COORD97":166785.84,"N_COORD97":2542047.3100000001,"ADDRESS":"新孝路７３號三樓","OBJECTID":310649},"geometry":{"x":166785.84000000078,"y":2542047.3100000024}},{"attributes":{"ID":310658,"DIS_CODE":0,"TOWNNAME":"安南區","LI":"長安里","LIN":"4鄰","STREET":"長溪路","SECT":"三段","MAREA":" ","LANE":"４０５巷","ALLEY":" ","HOUSE_NO":"９２號","E_COORD97":167464.12,"N_COORD97":2551921.8799999999,"ADDRESS":"長溪路三段４０５巷９２號","OBJECTID":310650},"geometry":{"x":167464.12000000104,"y":2551921.879999999}},{"attributes":{"ID":310659,"DIS_CODE":0,"TOWNNAME":"安南區","LI":"長安里","LIN":"4鄰","STREET":"長溪路","SECT":"三段","MAREA":" ","LANE":"４０５巷","ALLEY":" ","HOUSE_NO":"９６號","E_COORD97":167448.35999999999,"N_COORD97":2551935.0499999998,"ADDRESS":"長溪路三段４０５巷９６號","OBJECTID":310651},"geometry":{"x":167448.3600000022,"y":2551935.0500000026}},{"attributes":{"ID":310660,"DIS_CODE":0,"TOWNNAME":"東區","LI":"東安里","LIN":"4鄰","STREET":"東門路","SECT":"二段","MAREA":" ","LANE":"３巷","ALLEY":" ","HOUSE_NO":"３４號","E_COORD97":169974.63,"N_COORD97":2543052.25,"ADDRESS":"東門路二段３巷３４號","OBJECTID":310652},"geometry":{"x":169974.62999999989,"y":2543052.25}},{"attributes":{"ID":310661,"DIS_CODE":0,"TOWNNAME":"安南區","LI":"長安里","LIN":"7鄰","STREET":"長溪路","SECT":"三段","MAREA":" ","LANE":"４０５巷","ALLEY":" ","HOUSE_NO":"２０號","E_COORD97":167582.87,"N_COORD97":2552048.2400000002,"ADDRESS":"長溪路三段４０５巷２０號","OBJECTID":310653},"geometry":{"x":167582.87000000011,"y":2552048.2400000021}},{"attributes":{"ID":310662,"DIS_CODE":0,"TOWNNAME":"安南區","LI":"頂安里","LIN":"4鄰","STREET":"長溪路","SECT":"一段","MAREA":" ","LANE":"４９０巷","ALLEY":" ","HOUSE_NO":"１１號","E_COORD97":168506.72,"N_COORD97":2549110.4900000002,"ADDRESS":"長溪路一段４９０巷１１號","OBJECTID":310654},"geometry":{"x":168506.72000000067,"y":2549110.4900000021}},{"attributes":{"ID":310663,"DIS_CODE":0,"TOWNNAME":"安南區","LI":"頂安里","LIN":"4鄰","STREET":"長溪路","SECT":"一段","MAREA":" ","LANE":"４９０巷","ALLEY":" ","HOUSE_NO":"１９號","E_COORD97":168532.01999999999,"N_COORD97":2549112.8500000001,"ADDRESS":"長溪路一段４９０巷１９號","OBJECTID":310655},"geometry":{"x":168532.02000000048,"y":2549112.8499999996}},{"attributes":{"ID":310664,"DIS_CODE":0,"TOWNNAME":"安南區","LI":"長安里","LIN":"4鄰","STREET":"長溪路","SECT":"三段","MAREA":" ","LANE":"４０５巷","ALLEY":" ","HOUSE_NO":"９０號","E_COORD97":167473.64999999999,"N_COORD97":2551926.8300000001,"ADDRESS":"長溪路三段４０５巷９０號","OBJECTID":310656},"geometry":{"x":167473.65000000224,"y":2551926.8300000001}},{"attributes":{"ID":310665,"DIS_CODE":0,"TOWNNAME":"下營區","LI":"賀建里","LIN":"8鄰","STREET":" ","SECT":" ","MAREA":"火燒珠","LANE":" ","ALLEY":" ","HOUSE_NO":"１號","E_COORD97":176632.07999999999,"N_COORD97":2572709.6499999999,"ADDRESS":"火燒珠１號","OBJECTID":310657},"geometry":{"x":176632.08000000007,"y":2572709.6500000041}},{"attributes":{"ID":310666,"DIS_CODE":0,"TOWNNAME":"歸仁區","LI":"大廟里","LIN":"7鄰","STREET":"大廟一街","SECT":" ","MAREA":" ","LANE":"１０３巷","ALLEY":" ","HOUSE_NO":"３７號","E_COORD97":175849.17000000001,"N_COORD97":2543889.25,"ADDRESS":"大廟一街１０３巷３７號","OBJECTID":310658},"geometry":{"x":175849.17000000086,"y":2543889.25}},{"attributes":{"ID":310667,"DIS_CODE":0,"TOWNNAME":"歸仁區","LI":"許厝里","LIN":"7鄰","STREET":"仁愛八街","SECT":" ","MAREA":" ","LANE":"１７巷","ALLEY":" ","HOUSE_NO":"２號","E_COORD97":178205.66,"N_COORD97":2540611.4199999999,"ADDRESS":"仁愛八街１７巷２號","OBJECTID":310659},"geometry":{"x":178205.66000000108,"y":2540611.4200000018}},{"attributes":{"ID":310668,"DIS_CODE":0,"TOWNNAME":"歸仁區","LI":"看西里","LIN":"7鄰","STREET":"信義南路","SECT":" ","MAREA":" ","LANE":"１８７巷","ALLEY":" ","HOUSE_NO":"５號","E_COORD97":178163.06,"N_COORD97":2540254.4900000002,"ADDRESS":"信義南路１８７巷５號","OBJECTID":310660},"geometry":{"x":178163.05999999959,"y":2540254.4900000039}},{"attributes":{"ID":310669,"DIS_CODE":0,"TOWNNAME":"歸仁區","LI":"新厝里","LIN":"7鄰","STREET":"中正三街","SECT":" ","MAREA":" ","LANE":"４３巷","ALLEY":" ","HOUSE_NO":"８號","E_COORD97":177719.57999999999,"N_COORD97":2540586.9300000002,"ADDRESS":"中正三街４３巷８號","OBJECTID":310661},"geometry":{"x":177719.58000000194,"y":2540586.9300000016}},{"attributes":{"ID":310670,"DIS_CODE":0,"TOWNNAME":"歸仁區","LI":"看西里","LIN":"7鄰","STREET":"信義南路","SECT":" ","MAREA":" ","LANE":"１８７巷","ALLEY":" ","HOUSE_NO":"１１號","E_COORD97":178163.41,"N_COORD97":2540271.4900000002,"ADDRESS":"信義南路１８７巷１１號","OBJECTID":310662},"geometry":{"x":178163.41000000108,"y":2540271.4900000039}},{"attributes":{"ID":310671,"DIS_CODE":0,"TOWNNAME":"南區","LI":"國宅里","LIN":"17鄰","STREET":"新孝路","SECT":" ","MAREA":" ","LANE":" ","ALLEY":" ","HOUSE_NO":"７３號四樓","E_COORD97":166785.84,"N_COORD97":2542047.3100000001,"ADDRESS":"新孝路７３號四樓","OBJECTID":310663},"geometry":{"x":166785.84000000078,"y":2542047.3100000024}},{"attributes":{"ID":310672,"DIS_CODE":0,"TOWNNAME":"南區","LI":"國宅里","LIN":"17鄰","STREET":"新孝路","SECT":" ","MAREA":" ","LANE":" ","ALLEY":" ","HOUSE_NO":"７５號二樓","E_COORD97":166775.92000000001,"N_COORD97":2542049.4199999999,"ADDRESS":"新孝路７５號二樓","OBJECTID":310664},"geometry":{"x":166775.91999999993,"y":2542049.4200000018}},{"attributes":{"ID":310673,"DIS_CODE":0,"TOWNNAME":"南區","LI":"國宅里","LIN":"17鄰","STREET":"新孝路","SECT":" ","MAREA":" ","LANE":" ","ALLEY":" ","HOUSE_NO":"７５號三樓","E_COORD97":166775.92000000001,"N_COORD97":2542049.4199999999,"ADDRESS":"新孝路７５號三樓","OBJECTID":310665},"geometry":{"x":166775.91999999993,"y":2542049.4200000018}},{"attributes":{"ID":310674,"DIS_CODE":0,"TOWNNAME":"南區","LI":"國宅里","LIN":"17鄰","STREET":"新孝路","SECT":" ","MAREA":" ","LANE":" ","ALLEY":" ","HOUSE_NO":"７５號四樓","E_COORD97":166775.92000000001,"N_COORD97":2542049.4199999999,"ADDRESS":"新孝路７５號四樓","OBJECTID":310666},"geometry":{"x":166775.91999999993,"y":2542049.4200000018}},{"attributes":{"ID":310675,"DIS_CODE":0,"TOWNNAME":"南區","LI":"國宅里","LIN":"17鄰","STREET":"新孝路","SECT":" ","MAREA":" ","LANE":" ","ALLEY":" ","HOUSE_NO":"７７號三樓","E_COORD97":166767.26999999999,"N_COORD97":2542050.48,"ADDRESS":"新孝路７７號三樓","OBJECTID":310667},"geometry":{"x":166767.27000000048,"y":2542050.4800000004}},{"attributes":{"ID":310676,"DIS_CODE":0,"TOWNNAME":"南區","LI":"國宅里","LIN":"17鄰","STREET":"新孝路","SECT":" ","MAREA":" ","LANE":" ","ALLEY":" ","HOUSE_NO":"７７號四樓","E_COORD97":166767.26999999999,"N_COORD97":2542050.48,"ADDRESS":"新孝路７７號四樓","OBJECTID":310668},"geometry":{"x":166767.27000000048,"y":2542050.4800000004}},{"attributes":{"ID":310677,"DIS_CODE":0,"TOWNNAME":"南區","LI":"國宅里","LIN":"17鄰","STREET":"新孝路","SECT":" ","MAREA":" ","LANE":" ","ALLEY":" ","HOUSE_NO":"７９號二樓","E_COORD97":166739.19,"N_COORD97":2542050.6899999999,"ADDRESS":"新孝路７９號二樓","OBJECTID":310669},"geometry":{"x":166739.19000000041,"y":2542050.6900000013}},{"attributes":{"ID":310678,"DIS_CODE":0,"TOWNNAME":"南區","LI":"國宅里","LIN":"17鄰","STREET":"新孝路","SECT":" ","MAREA":" ","LANE":" ","ALLEY":" ","HOUSE_NO":"７９號三樓","E_COORD97":166739.19,"N_COORD97":2542050.6899999999,"ADDRESS":"新孝路７９號三樓","OBJECTID":310670},"geometry":{"x":166739.19000000041,"y":2542050.6900000013}},{"attributes":{"ID":310679,"DIS_CODE":0,"TOWNNAME":"安南區","LI":"顯宮里","LIN":"2鄰","STREET":"媽祖宮路","SECT":" ","MAREA":" ","LANE":" ","ALLEY":" ","HOUSE_NO":"１０３號","E_COORD97":160632.35000000001,"N_COORD97":2548823.1800000002,"ADDRESS":"媽祖宮路１０３號","OBJECTID":310671},"geometry":{"x":160632.34999999963,"y":2548823.1799999997}},{"attributes":{"ID":310680,"DIS_CODE":0,"TOWNNAME":"安南區","LI":"總頭里","LIN":"13鄰","STREET":"長溪路","SECT":"二段","MAREA":" ","LANE":"４８３巷","ALLEY":" ","HOUSE_NO":"１９號","E_COORD97":168187.31,"N_COORD97":2550379.3599999999,"ADDRESS":"長溪路二段４８３巷１９號","OBJECTID":310672},"geometry":{"x":168187.31000000052,"y":2550379.3600000013}},{"attributes":{"ID":310681,"DIS_CODE":0,"TOWNNAME":"安南區","LI":"學東里","LIN":"13鄰","STREET":"公學路","SECT":"七段","MAREA":" ","LANE":"９７巷","ALLEY":" ","HOUSE_NO":"１３號","E_COORD97":161761.23999999999,"N_COORD97":2553345.3799999999,"ADDRESS":"公學路七段９７巷１３號","OBJECTID":310673},"geometry":{"x":161761.24000000022,"y":2553345.3800000008}},{"attributes":{"ID":310682,"DIS_CODE":0,"TOWNNAME":"安南區","LI":"學東里","LIN":"13鄰","STREET":"公學路","SECT":"七段","MAREA":" ","LANE":"９７巷","ALLEY":" ","HOUSE_NO":"１５號","E_COORD97":161760.26000000001,"N_COORD97":2553340.6000000001,"ADDRESS":"公學路七段９７巷１５號","OBJECTID":310674},"geometry":{"x":161760.26000000071,"y":2553340.6000000015}},{"attributes":{"ID":310683,"DIS_CODE":0,"TOWNNAME":"安南區","LI":"學東里","LIN":"13鄰","STREET":"公學路","SECT":"七段","MAREA":" ","LANE":"９７巷","ALLEY":" ","HOUSE_NO":"１７號","E_COORD97":161759.45999999999,"N_COORD97":2553336.8199999998,"ADDRESS":"公學路七段９７巷１７號","OBJECTID":310675},"geometry":{"x":161759.45999999996,"y":2553336.8200000022}},{"attributes":{"ID":310684,"DIS_CODE":0,"TOWNNAME":"安南區","LI":"新順里","LIN":"8鄰","STREET":"總安街","SECT":"一段","MAREA":" ","LANE":"３４２巷","ALLEY":" ","HOUSE_NO":"１０之７號","E_COORD97":169228.69,"N_COORD97":2550378.5800000001,"ADDRESS":"總安街一段３４２巷１０之７號","OBJECTID":310676},"geometry":{"x":169228.69000000134,"y":2550378.5800000019}},{"attributes":{"ID":310685,"DIS_CODE":0,"TOWNNAME":"安南區","LI":"公\u25A0里","LIN":"2鄰","STREET":"安興街","SECT":" ","MAREA":" ","LANE":"４３巷","ALLEY":" ","HOUSE_NO":"２號","E_COORD97":164363.89999999999,"N_COORD97":2552247.3900000001,"ADDRESS":"安興街４３巷２號","OBJECTID":310677},"geometry":{"x":164363.90000000037,"y":2552247.3900000043}},{"attributes":{"ID":310686,"DIS_CODE":0,"TOWNNAME":"安南區","LI":"學東里","LIN":"13鄰","STREET":"公學路","SECT":"七段","MAREA":" ","LANE":"９７巷","ALLEY":" ","HOUSE_NO":"９號","E_COORD97":161762.82999999999,"N_COORD97":2553354.8399999999,"ADDRESS":"公學路七段９７巷９號","OBJECTID":310678},"geometry":{"x":161762.83000000101,"y":2553354.8399999999}},{"attributes":{"ID":310687,"DIS_CODE":0,"TOWNNAME":"安南區","LI":"安慶里","LIN":"3鄰","STREET":"長溪路","SECT":"一段","MAREA":" ","LANE":"１６８巷","ALLEY":" ","HOUSE_NO":"１４７號","E_COORD97":169054.79999999999,"N_COORD97":2548902.9199999999,"ADDRESS":"長溪路一段１６８巷１４７號","OBJECTID":310679},"geometry":{"x":169054.79999999981,"y":2548902.9199999999}},{"attributes":{"ID":310688,"DIS_CODE":0,"TOWNNAME":"歸仁區","LI":"看西里","LIN":"7鄰","STREET":"信義南路","SECT":" ","MAREA":" ","LANE":"１８７巷","ALLEY":" ","HOUSE_NO":"２４號","E_COORD97":178177.70999999999,"N_COORD97":2540265.4900000002,"ADDRESS":"信義南路１８７巷２４號","OBJECTID":310680},"geometry":{"x":178177.70999999996,"y":2540265.4900000021}},{"attributes":{"ID":310689,"DIS_CODE":0,"TOWNNAME":"南區","LI":"國宅里","LIN":"17鄰","STREET":"新孝路","SECT":" ","MAREA":" ","LANE":" ","ALLEY":" ","HOUSE_NO":"７９號四樓","E_COORD97":166739.19,"N_COORD97":2542050.6899999999,"ADDRESS":"新孝路７９號四樓","OBJECTID":310681},"geometry":{"x":166739.19000000041,"y":2542050.6900000013}},{"attributes":{"ID":310690,"DIS_CODE":0,"TOWNNAME":"南區","LI":"國宅里","LIN":"17鄰","STREET":"新孝路","SECT":" ","MAREA":" ","LANE":" ","ALLEY":" ","HOUSE_NO":"８１號二樓","E_COORD97":166727.01000000001,"N_COORD97":2542052.4900000002,"ADDRESS":"新孝路８１號二樓","OBJECTID":310682},"geometry":{"x":166727.01000000071,"y":2542052.4900000021}},{"attributes":{"ID":310691,"DIS_CODE":0,"TOWNNAME":"南區","LI":"國宅里","LIN":"17鄰","STREET":"新孝路","SECT":" ","MAREA":" ","LANE":" ","ALLEY":" ","HOUSE_NO":"８１號三樓","E_COORD97":166727.01000000001,"N_COORD97":2542052.4900000002,"ADDRESS":"新孝路８１號三樓","OBJECTID":310683},"geometry":{"x":166727.01000000071,"y":2542052.4900000021}},{"attributes":{"ID":310692,"DIS_CODE":0,"TOWNNAME":"南區","LI":"國宅里","LIN":"17鄰","STREET":"新孝路","SECT":" ","MAREA":" ","LANE":" ","ALLEY":" ","HOUSE_NO":"８１號四樓","E_COORD97":166727.01000000001,"N_COORD97":2542052.4900000002,"ADDRESS":"新孝路８１號四樓","OBJECTID":310684},"geometry":{"x":166727.01000000071,"y":2542052.4900000021}},{"attributes":{"ID":310693,"DIS_CODE":0,"TOWNNAME":"南區","LI":"國宅里","LIN":"17鄰","STREET":"新孝路","SECT":" ","MAREA":" ","LANE":" ","ALLEY":" ","HOUSE_NO":"８５號二樓","E_COORD97":166704.44,"N_COORD97":2542054.29,"ADDRESS":"新孝路８５號二樓","OBJECTID":310685},"geometry":{"x":166704.44000000134,"y":2542054.2899999991}},{"attributes":{"ID":310694,"DIS_CODE":0,"TOWNNAME":"南區","LI":"國宅里","LIN":"17鄰","STREET":"新孝路","SECT":" ","MAREA":" ","LANE":" ","ALLEY":" ","HOUSE_NO":"８５號三樓","E_COORD97":166704.44,"N_COORD97":2542054.29,"ADDRESS":"新孝路８５號三樓","OBJECTID":310686},"geometry":{"x":166704.44000000134,"y":2542054.2899999991}},{"attributes":{"ID":310695,"DIS_CODE":0,"TOWNNAME":"歸仁區","LI":"歸仁里","LIN":"28鄰","STREET":"中山路","SECT":"一段","MAREA":" ","LANE":" ","ALLEY":" ","HOUSE_NO":"２５４號","E_COORD97":178705.52473100001,"N_COORD97":2540609.21239,"ADDRESS":"中山路一段２５４號","OBJECTID":310687},"geometry":{"x":178705.52473099995,"y":2540609.2123920042}},{"attributes":{"ID":310696,"DIS_CODE":0,"TOWNNAME":"仁德區","LI":"新田里","LIN":"17鄰","STREET":"民安路","SECT":"二段","MAREA":" ","LANE":" ","ALLEY":" ","HOUSE_NO":"７５號六樓之２","E_COORD97":173489.73000000001,"N_COORD97":2539223.0600000001,"ADDRESS":"民安路二段７５號六樓之２","OBJECTID":310688},"geometry":{"x":173489.73000000138,"y":2539223.0600000005}},{"attributes":{"ID":310697,"DIS_CODE":0,"TOWNNAME":"永康區","LI":"西橋里","LIN":"17鄰","STREET":"大橋三街","SECT":" ","MAREA":" ","LANE":" ","ALLEY":" ","HOUSE_NO":"３４號六樓","E_COORD97":170574.88,"N_COORD97":2546443.5099999998,"ADDRESS":"大橋三街３４號六樓","OBJECTID":310689},"geometry":{"x":170574.87999999989,"y":2546443.5099999998}},{"attributes":{"ID":310698,"DIS_CODE":0,"TOWNNAME":"永康區","LI":"西橋里","LIN":"17鄰","STREET":"大橋三街","SECT":" ","MAREA":" ","LANE":" ","ALLEY":" ","HOUSE_NO":"３８號二樓","E_COORD97":170581.81,"N_COORD97":2546458.25,"ADDRESS":"大橋三街３８號二樓","OBJECTID":310690},"geometry":{"x":170581.80999999959,"y":2546458.2500000019}},{"attributes":{"ID":310699,"DIS_CODE":0,"TOWNNAME":"永康區","LI":"西橋里","LIN":"17鄰","STREET":"大橋三街","SECT":" ","MAREA":" ","LANE":" ","ALLEY":" ","HOUSE_NO":"３８號六樓","E_COORD97":170581.81,"N_COORD97":2546458.25,"ADDRESS":"大橋三街３８號六樓","OBJECTID":310691},"geometry":{"x":170581.80999999959,"y":2546458.2500000019}},{"attributes":{"ID":310700,"DIS_CODE":0,"TOWNNAME":"永康區","LI":"西橋里","LIN":"17鄰","STREET":"大橋三街","SECT":" ","MAREA":" ","LANE":" ","ALLEY":" ","HOUSE_NO":"３６號五樓","E_COORD97":170577.87,"N_COORD97":2546450.7599999998,"ADDRESS":"大橋三街３６號五樓","OBJECTID":310692},"geometry":{"x":170577.87000000104,"y":2546450.7600000016}},{"attributes":{"ID":310701,"DIS_CODE":0,"TOWNNAME":"永康區","LI":"西橋里","LIN":"17鄰","STREET":"大橋三街","SECT":" ","MAREA":" ","LANE":" ","ALLEY":" ","HOUSE_NO":"３８號三樓","E_COORD97":170581.81,"N_COORD97":2546458.25,"ADDRESS":"大橋三街３８號三樓","OBJECTID":310693},"geometry":{"x":170581.80999999959,"y":2546458.2500000019}},{"attributes":{"ID":310702,"DIS_CODE":0,"TOWNNAME":"永康區","LI":"西橋里","LIN":"17鄰","STREET":"大橋三街","SECT":" ","MAREA":" ","LANE":" ","ALLEY":" ","HOUSE_NO":"３８號五樓","E_COORD97":170581.81,"N_COORD97":2546458.25,"ADDRESS":"大橋三街３８號五樓","OBJECTID":310694},"geometry":{"x":170581.80999999959,"y":2546458.2500000019}},{"attributes":{"ID":310703,"DIS_CODE":0,"TOWNNAME":"安南區","LI":"安慶里","LIN":"3鄰","STREET":"長溪路","SECT":"一段","MAREA":" ","LANE":"１６８巷","ALLEY":" ","HOUSE_NO":"１４９號","E_COORD97":169054.28,"N_COORD97":2548907.3599999999,"ADDRESS":"長溪路一段１６８巷１４９號","OBJECTID":310695},"geometry":{"x":169054.28000000212,"y":2548907.3600000013}},{"attributes":{"ID":310704,"DIS_CODE":0,"TOWNNAME":"安南區","LI":"安慶里","LIN":"3鄰","STREET":"長溪路","SECT":"一段","MAREA":" ","LANE":"１６８巷","ALLEY":" ","HOUSE_NO":"１５１號","E_COORD97":169053.20000000001,"N_COORD97":2548911.7999999998,"ADDRESS":"長溪路一段１６８巷１５１號","OBJECTID":310696},"geometry":{"x":169053.20000000112,"y":2548911.8000000045}},{"attributes":{"ID":310705,"DIS_CODE":0,"TOWNNAME":"安南區","LI":"安慶里","LIN":"3鄰","STREET":"長溪路","SECT":"一段","MAREA":" ","LANE":"１６８巷","ALLEY":" ","HOUSE_NO":"１５３號","E_COORD97":169052.20999999999,"N_COORD97":2548916.1899999999,"ADDRESS":"長溪路一段１６８巷１５３號","OBJECTID":310697},"geometry":{"x":169052.20999999996,"y":2548916.1900000013}},{"attributes":{"ID":310706,"DIS_CODE":0,"TOWNNAME":"安南區","LI":"新順里","LIN":"17鄰","STREET":"頂安街","SECT":" ","MAREA":" ","LANE":"２５巷","ALLEY":" ","HOUSE_NO":"２號","E_COORD97":169586.07000000001,"N_COORD97":2549308.1899999999,"ADDRESS":"頂安街２５巷２號","OBJECTID":310698},"geometry":{"x":169586.0700000003,"y":2549308.1900000032}},{"attributes":{"ID":310707,"DIS_CODE":0,"TOWNNAME":"安南區","LI":"新順里","LIN":"17鄰","STREET":"頂安街","SECT":" ","MAREA":" ","LANE":"２５巷","ALLEY":" ","HOUSE_NO":"４號","E_COORD97":169585.60999999999,"N_COORD97":2549302.9300000002,"ADDRESS":"頂安街２５巷４號","OBJECTID":310699},"geometry":{"x":169585.61000000034,"y":2549302.9299999997}},{"attributes":{"ID":310708,"DIS_CODE":0,"TOWNNAME":"安南區","LI":"新順里","LIN":"17鄰","STREET":"頂安街","SECT":" ","MAREA":" ","LANE":"６９巷","ALLEY":" ","HOUSE_NO":"１２號","E_COORD97":169470.67999999999,"N_COORD97":2549321.5899999999,"ADDRESS":"頂安街６９巷１２號","OBJECTID":310700},"geometry":{"x":169470.6799999997,"y":2549321.5899999999}},{"attributes":{"ID":310709,"DIS_CODE":0,"TOWNNAME":"安南區","LI":"州北里","LIN":"25鄰","STREET":"安和路","SECT":"五段","MAREA":" ","LANE":"１７１巷","ALLEY":" ","HOUSE_NO":"１１號","E_COORD97":169811.95000000001,"N_COORD97":2551825.5499999998,"ADDRESS":"安和路五段１７１巷１１號","OBJECTID":310701},"geometry":{"x":169811.95000000019,"y":2551825.5500000007}},{"attributes":{"ID":310710,"DIS_CODE":0,"TOWNNAME":"安南區","LI":"佃東里","LIN":"14鄰","STREET":"公學路","SECT":"四段","MAREA":" ","LANE":"１０巷","ALLEY":" ","HOUSE_NO":"２號","E_COORD97":165939.89999999999,"N_COORD97":2552083.0600000001,"ADDRESS":"公學路四段１０巷２號","OBJECTID":310702},"geometry":{"x":165939.9000000013,"y":2552083.0599999987}},{"attributes":{"ID":310711,"DIS_CODE":0,"TOWNNAME":"安南區","LI":"佃東里","LIN":"14鄰","STREET":"公學路","SECT":"四段","MAREA":" ","LANE":"２巷","ALLEY":" ","HOUSE_NO":"１號","E_COORD97":165953.04000000001,"N_COORD97":2552083.98,"ADDRESS":"公學路四段２巷１號","OBJECTID":310703},"geometry":{"x":165953.04000000004,"y":2552083.9800000042}},{"attributes":{"ID":310712,"DIS_CODE":0,"TOWNNAME":"安南區","LI":"淵西里","LIN":"12鄰","STREET":"安中路","SECT":"四段","MAREA":" ","LANE":"２１０巷","ALLEY":" ","HOUSE_NO":"３５號","E_COORD97":164832.47,"N_COORD97":2550158.6200000001,"ADDRESS":"安中路四段２１０巷３５號","OBJECTID":310704},"geometry":{"x":164832.46999999974,"y":2550158.6200000029}},{"attributes":{"ID":310713,"DIS_CODE":0,"TOWNNAME":"安南區","LI":"佃東里","LIN":"4鄰","STREET":"公學路","SECT":"四段","MAREA":" ","LANE":"１２２巷","ALLEY":" ","HOUSE_NO":"９４號","E_COORD97":165596.76000000001,"N_COORD97":2552302.5699999998,"ADDRESS":"公學路四段１２２巷９４號","OBJECTID":310705},"geometry":{"x":165596.75999999978,"y":2552302.5700000003}},{"attributes":{"ID":310714,"DIS_CODE":0,"TOWNNAME":"東區","LI":"東安里","LIN":"4鄰","STREET":"東門路","SECT":"二段","MAREA":" ","LANE":"３巷","ALLEY":" ","HOUSE_NO":"３６號","E_COORD97":169975.95000000001,"N_COORD97":2543056.2999999998,"ADDRESS":"東門路二段３巷３６號","OBJECTID":310706},"geometry":{"x":169975.95000000112,"y":2543056.3000000007}},{"attributes":{"ID":310715,"DIS_CODE":0,"TOWNNAME":"安南區","LI":"新順里","LIN":"17鄰","STREET":"頂安街","SECT":" ","MAREA":" ","LANE":" ","ALLEY":" ","HOUSE_NO":"３１號","E_COORD97":169584.67999999999,"N_COORD97":2549326.4399999999,"ADDRESS":"頂安街３１號","OBJECTID":310707},"geometry":{"x":169584.6799999997,"y":2549326.4399999976}},{"attributes":{"ID":310716,"DIS_CODE":0,"TOWNNAME":"安南區","LI":"新順里","LIN":"17鄰","STREET":"頂安街","SECT":" ","MAREA":" ","LANE":" ","ALLEY":" ","HOUSE_NO":"３３號","E_COORD97":169580.79999999999,"N_COORD97":2549327.5299999998,"ADDRESS":"頂安街３３號","OBJECTID":310708},"geometry":{"x":169580.80000000168,"y":2549327.5300000012}},{"attributes":{"ID":310717,"DIS_CODE":0,"TOWNNAME":"安南區","LI":"新順里","LIN":"17鄰","STREET":"頂安街","SECT":" ","MAREA":" ","LANE":" ","ALLEY":" ","HOUSE_NO":"５５號","E_COORD97":169533.41,"N_COORD97":2549338.5099999998,"ADDRESS":"頂安街５５號","OBJECTID":310709},"geometry":{"x":169533.41000000108,"y":2549338.5099999998}},{"attributes":{"ID":310718,"DIS_CODE":0,"TOWNNAME":"中西區","LI":"保安里","LIN":"3鄰","STREET":"保安路","SECT":" ","MAREA":" ","LANE":" ","ALLEY":" ","HOUSE_NO":"５６號","E_COORD97":167617.89999999999,"N_COORD97":2543446.4100000001,"ADDRESS":"保安路５６號","OBJECTID":310710},"geometry":{"x":167617.9000000013,"y":2543446.410000002}},{"attributes":{"ID":310719,"DIS_CODE":0,"TOWNNAME":"下營區","LI":"仁里里","LIN":"1鄰","STREET":"仁義街","SECT":" ","MAREA":" ","LANE":" ","ALLEY":" ","HOUSE_NO":"５號","E_COORD97":174584.57999999999,"N_COORD97":2569704.6800000002,"ADDRESS":"仁義街５號","OBJECTID":310711},"geometry":{"x":174584.58000000007,"y":2569704.6799999978}},{"attributes":{"ID":310720,"DIS_CODE":0,"TOWNNAME":"中西區","LI":"保安里","LIN":"4鄰","STREET":"保安路","SECT":" ","MAREA":" ","LANE":" ","ALLEY":" ","HOUSE_NO":"３１號","E_COORD97":167652.29000000001,"N_COORD97":2543417.0600000001,"ADDRESS":"保安路３１號","OBJECTID":310712},"geometry":{"x":167652.29000000097,"y":2543417.0600000005}},{"attributes":{"ID":310721,"DIS_CODE":0,"TOWNNAME":"佳里區","LI":"安西里","LIN":"56鄰","STREET":"佳安中街","SECT":" ","MAREA":" ","LANE":" ","ALLEY":" ","HOUSE_NO":"６號","E_COORD97":163956.07999999999,"N_COORD97":2562295.1899999999,"ADDRESS":"佳安中街６號","OBJECTID":310713},"geometry":{"x":163956.08000000007,"y":2562295.1899999995}},{"attributes":{"ID":310722,"DIS_CODE":0,"TOWNNAME":"安南區","LI":"州北里","LIN":"23鄰","STREET":"安和路","SECT":"五段","MAREA":" ","LANE":" ","ALLEY":" ","HOUSE_NO":"２５３號","E_COORD97":169742.60000000001,"N_COORD97":2551981.1600000001,"ADDRESS":"安和路五段２５３號","OBJECTID":310714},"geometry":{"x":169742.59999999963,"y":2551981.160000002}},{"attributes":{"ID":310723,"DIS_CODE":0,"TOWNNAME":"仁德區","LI":"仁義里","LIN":"4鄰","STREET":"仁義三街","SECT":" ","MAREA":" ","LANE":" ","ALLEY":" ","HOUSE_NO":"１５２號","E_COORD97":173727.35999999999,"N_COORD97":2541116.7599999998,"ADDRESS":"仁義三街１５２號","OBJECTID":310715},"geometry":{"x":173727.3600000022,"y":2541116.7600000035}},{"attributes":{"ID":310724,"DIS_CODE":0,"TOWNNAME":"仁德區","LI":"仁義里","LIN":"25鄰","STREET":"中山路","SECT":" ","MAREA":" ","LANE":" ","ALLEY":" ","HOUSE_NO":"５０８號","E_COORD97":173477.42999999999,"N_COORD97":2541323.9900000002,"ADDRESS":"中山路５０８號","OBJECTID":310716},"geometry":{"x":173477.43000000063,"y":2541323.9900000021}},{"attributes":{"ID":310725,"DIS_CODE":0,"TOWNNAME":"仁德區","LI":"仁德里","LIN":"39鄰","STREET":"文山路","SECT":" ","MAREA":" ","LANE":" ","ALLEY":" ","HOUSE_NO":"２３３號","E_COORD97":172639.38,"N_COORD97":2541761.0800000001,"ADDRESS":"文山路２３３號","OBJECTID":310717},"geometry":{"x":172639.37999999989,"y":2541761.0800000001}},{"attributes":{"ID":310726,"DIS_CODE":0,"TOWNNAME":"仁德區","LI":"太子里","LIN":"20鄰","STREET":"太子北路","SECT":" ","MAREA":" ","LANE":" ","ALLEY":" ","HOUSE_NO":"１７６號","E_COORD97":173950.79000000001,"N_COORD97":2543703,"ADDRESS":"太子北路１７６號","OBJECTID":310718},"geometry":{"x":173950.79000000004,"y":2543703.0000000019}},{"attributes":{"ID":310727,"DIS_CODE":0,"TOWNNAME":"仁德區","LI":"仁義里","LIN":"26鄰","STREET":"中山路","SECT":" ","MAREA":" ","LANE":" ","ALLEY":" ","HOUSE_NO":"５８２號","E_COORD97":173305.81,"N_COORD97":2541344.25,"ADDRESS":"中山路５８２號","OBJECTID":310719},"geometry":{"x":173305.80999999959,"y":2541344.2500000037}},{"attributes":{"ID":310728,"DIS_CODE":0,"TOWNNAME":"仁德區","LI":"仁德里","LIN":"39鄰","STREET":"文山路","SECT":" ","MAREA":" ","LANE":" ","ALLEY":" ","HOUSE_NO":"２１７號","E_COORD97":172668.92000000001,"N_COORD97":2541742.3199999998,"ADDRESS":"文山路２１７號","OBJECTID":310720},"geometry":{"x":172668.92000000086,"y":2541742.3200000022}},{"attributes":{"ID":310729,"DIS_CODE":0,"TOWNNAME":"安南區","LI":"佃東里","LIN":"6鄰","STREET":"公學路","SECT":"四段","MAREA":" ","LANE":"１２２巷","ALLEY":" ","HOUSE_NO":"１１０號","E_COORD97":165593.73000000001,"N_COORD97":2552348.02,"ADDRESS":"公學路四段１２２巷１１０號","OBJECTID":310721},"geometry":{"x":165593.73000000138,"y":2552348.0200000014}},{"attributes":{"ID":310730,"DIS_CODE":0,"TOWNNAME":"安南區","LI":"佃東里","LIN":"6鄰","STREET":"公學路","SECT":"四段","MAREA":" ","LANE":"１２２巷","ALLEY":" ","HOUSE_NO":"１１２號","E_COORD97":165594.79999999999,"N_COORD97":2552352.6499999999,"ADDRESS":"公學路四段１２２巷１１２號","OBJECTID":310722},"geometry":{"x":165594.79999999981,"y":2552352.6500000004}},{"attributes":{"ID":310731,"DIS_CODE":0,"TOWNNAME":"東區","LI":"東安里","LIN":"4鄰","STREET":"東門路","SECT":"二段","MAREA":" ","LANE":"３巷","ALLEY":" ","HOUSE_NO":"３８號","E_COORD97":169977.37,"N_COORD97":2543060.1600000001,"ADDRESS":"東門路二段３巷３８號","OBJECTID":310723},"geometry":{"x":169977.37000000197,"y":2543060.1600000001}},{"attributes":{"ID":310732,"DIS_CODE":0,"TOWNNAME":"安南區","LI":"南興里","LIN":"4鄰","STREET":"安興街","SECT":" ","MAREA":" ","LANE":"６２４巷","ALLEY":" ","HOUSE_NO":"８４號","E_COORD97":163611.72,"N_COORD97":2552396.5600000001,"ADDRESS":"安興街６２４巷８４號","OBJECTID":310724},"geometry":{"x":163611.71999999974,"y":2552396.5600000024}},{"attributes":{"ID":310733,"DIS_CODE":0,"TOWNNAME":"安南區","LI":"南興里","LIN":"4鄰","STREET":"安興街","SECT":" ","MAREA":" ","LANE":"６２４巷","ALLEY":" ","HOUSE_NO":"８６號","E_COORD97":163617.67999999999,"N_COORD97":2552395.8100000001,"ADDRESS":"安興街６２４巷８６號","OBJECTID":310725},"geometry":{"x":163617.67999999877,"y":2552395.8100000005}},{"attributes":{"ID":310734,"DIS_CODE":0,"TOWNNAME":"安南區","LI":"南興里","LIN":"4鄰","STREET":"安興街","SECT":" ","MAREA":" ","LANE":"６２４巷","ALLEY":" ","HOUSE_NO":"９０號","E_COORD97":163629.51000000001,"N_COORD97":2552394.8599999999,"ADDRESS":"安興街６２４巷９０號","OBJECTID":310726},"geometry":{"x":163629.51000000071,"y":2552394.8599999994}},{"attributes":{"ID":310735,"DIS_CODE":0,"TOWNNAME":"安南區","LI":"南興里","LIN":"4鄰","STREET":"安興街","SECT":" ","MAREA":" ","LANE":"６２４巷","ALLEY":" ","HOUSE_NO":"９２號","E_COORD97":163633.72,"N_COORD97":2552395.3799999999,"ADDRESS":"安興街６２４巷９２號","OBJECTID":310727},"geometry":{"x":163633.71999999974,"y":2552395.3800000008}},{"attributes":{"ID":310736,"DIS_CODE":0,"TOWNNAME":"安南區","LI":"南興里","LIN":"4鄰","STREET":"安興街","SECT":" ","MAREA":" ","LANE":"６２４巷","ALLEY":" ","HOUSE_NO":"８８號","E_COORD97":163624.01000000001,"N_COORD97":2552395.4399999999,"ADDRESS":"安興街６２４巷８８號","OBJECTID":310728},"geometry":{"x":163624.00999999885,"y":2552395.4400000013}},{"attributes":{"ID":310737,"DIS_CODE":0,"TOWNNAME":"安南區","LI":"頂安里","LIN":"15鄰","STREET":"長溪路","SECT":"一段","MAREA":" ","LANE":"４０７巷","ALLEY":" ","HOUSE_NO":"８１號","E_COORD97":168615.94,"N_COORD97":2548746.7000000002,"ADDRESS":"長溪路一段４０７巷８１號","OBJECTID":310729},"geometry":{"x":168615.94000000227,"y":2548746.6999999993}},{"attributes":{"ID":310738,"DIS_CODE":0,"TOWNNAME":"安南區","LI":"城東里","LIN":"7鄰","STREET":"城北路","SECT":" ","MAREA":" ","LANE":"９８巷","ALLEY":" ","HOUSE_NO":"３９號之１","E_COORD97":161107.26999999999,"N_COORD97":2551555.1899999999,"ADDRESS":"城北路９８巷３９號之１","OBJECTID":310730},"geometry":{"x":161107.27000000048,"y":2551555.1899999995}},{"attributes":{"ID":310739,"DIS_CODE":0,"TOWNNAME":"歸仁區","LI":"西埔里","LIN":"7鄰","STREET":"西埔一街","SECT":" ","MAREA":" ","LANE":"６５巷","ALLEY":" ","HOUSE_NO":"３６號","E_COORD97":177023.89000000001,"N_COORD97":2544316.25,"ADDRESS":"西埔一街６５巷３６號","OBJECTID":310731},"geometry":{"x":177023.8900000006,"y":2544316.25}},{"attributes":{"ID":310740,"DIS_CODE":0,"TOWNNAME":"歸仁區","LI":"南保里","LIN":"7鄰","STREET":"文化街","SECT":"三段","MAREA":" ","LANE":"１８巷","ALLEY":" ","HOUSE_NO":"２６號","E_COORD97":176975.84,"N_COORD97":2541329.3300000001,"ADDRESS":"文化街三段１８巷２６號","OBJECTID":310732},"geometry":{"x":176975.83999999985,"y":2541329.3300000001}},{"attributes":{"ID":310741,"DIS_CODE":0,"TOWNNAME":"歸仁區","LI":"崙頂里","LIN":"7鄰","STREET":"崙頂一街","SECT":" ","MAREA":" ","LANE":"３２巷","ALLEY":" ","HOUSE_NO":"１７號","E_COORD97":177949.06,"N_COORD97":2539931.1099999999,"ADDRESS":"崙頂一街３２巷１７號","OBJECTID":310733},"geometry":{"x":177949.05999999959,"y":2539931.1100000013}},{"attributes":{"ID":310742,"DIS_CODE":0,"TOWNNAME":"歸仁區","LI":"看西里","LIN":"7鄰","STREET":"信義南路","SECT":" ","MAREA":" ","LANE":"１８７巷","ALLEY":" ","HOUSE_NO":"２６號","E_COORD97":178177.70999999999,"N_COORD97":2540270.4900000002,"ADDRESS":"信義南路１８７巷２６號","OBJECTID":310734},"geometry":{"x":178177.70999999996,"y":2540270.4900000002}},{"attributes":{"ID":310743,"DIS_CODE":0,"TOWNNAME":"歸仁區","LI":"歸南里","LIN":"7鄰","STREET":"中正十六街","SECT":" ","MAREA":" ","LANE":"２巷","ALLEY":" ","HOUSE_NO":"３４號","E_COORD97":176582.70999999999,"N_COORD97":2539892.9500000002,"ADDRESS":"中正十六街２巷３４號","OBJECTID":310735},"geometry":{"x":176582.71000000183,"y":2539892.9499999993}},{"attributes":{"ID":310744,"DIS_CODE":0,"TOWNNAME":"玉井區","LI":"竹圍里","LIN":"7鄰","STREET":"忠孝街","SECT":" ","MAREA":" ","LANE":"４６９巷","ALLEY":" ","HOUSE_NO":"２２號","E_COORD97":195730.42000000001,"N_COORD97":2558653.6899999999,"ADDRESS":"忠孝街４６９巷２２號","OBJECTID":310736},"geometry":{"x":195730.42000000086,"y":2558653.6899999995}},{"attributes":{"ID":310745,"DIS_CODE":0,"TOWNNAME":"永康區","LI":"西橋里","LIN":"17鄰","STREET":"大橋三街","SECT":" ","MAREA":" ","LANE":" ","ALLEY":" ","HOUSE_NO":"３０號五樓","E_COORD97":170559.73000000001,"N_COORD97":2546444.7599999998,"ADDRESS":"大橋三街３０號五樓","OBJECTID":310737},"geometry":{"x":170559.73000000045,"y":2546444.7599999998}},{"attributes":{"ID":310746,"DIS_CODE":0,"TOWNNAME":"永康區","LI":"西橋里","LIN":"17鄰","STREET":"大橋三街","SECT":" ","MAREA":" ","LANE":" ","ALLEY":" ","HOUSE_NO":"３４號五樓","E_COORD97":170574.88,"N_COORD97":2546443.5099999998,"ADDRESS":"大橋三街３４號五樓","OBJECTID":310738},"geometry":{"x":170574.87999999989,"y":2546443.5099999998}},{"attributes":{"ID":310747,"DIS_CODE":0,"TOWNNAME":"新營區","LI":"民權里","LIN":"6鄰","STREET":"博愛街","SECT":" ","MAREA":" ","LANE":" ","ALLEY":" ","HOUSE_NO":"４１號","E_COORD97":179923.22,"N_COORD97":2578143.3900000001,"ADDRESS":"博愛街４１號","OBJECTID":310739},"geometry":{"x":179923.21999999974,"y":2578143.3900000025}},{"attributes":{"ID":310748,"DIS_CODE":0,"TOWNNAME":"永康區","LI":"西橋里","LIN":"17鄰","STREET":"大橋三街","SECT":" ","MAREA":" ","LANE":" ","ALLEY":" ","HOUSE_NO":"３６號二樓","E_COORD97":170577.87,"N_COORD97":2546450.7599999998,"ADDRESS":"大橋三街３６號二樓","OBJECTID":310740},"geometry":{"x":170577.87000000104,"y":2546450.7600000016}},{"attributes":{"ID":310749,"DIS_CODE":0,"TOWNNAME":"永康區","LI":"西橋里","LIN":"17鄰","STREET":"大橋三街","SECT":" ","MAREA":" ","LANE":" ","ALLEY":" ","HOUSE_NO":"３２號三樓","E_COORD97":170571.07000000001,"N_COORD97":2546434.5099999998,"ADDRESS":"大橋三街３２號三樓","OBJECTID":310741},"geometry":{"x":170571.06999999937,"y":2546434.5100000035}},{"attributes":{"ID":310750,"DIS_CODE":0,"TOWNNAME":"永康區","LI":"西橋里","LIN":"17鄰","STREET":"大橋三街","SECT":" ","MAREA":" ","LANE":" ","ALLEY":" ","HOUSE_NO":"３０號六樓","E_COORD97":170559.73000000001,"N_COORD97":2546444.7599999998,"ADDRESS":"大橋三街３０號六樓","OBJECTID":310742},"geometry":{"x":170559.73000000045,"y":2546444.7599999998}},{"attributes":{"ID":310751,"DIS_CODE":0,"TOWNNAME":"永康區","LI":"西橋里","LIN":"17鄰","STREET":"大橋三街","SECT":" ","MAREA":" ","LANE":" ","ALLEY":" ","HOUSE_NO":"３４號二樓","E_COORD97":170574.88,"N_COORD97":2546443.5099999998,"ADDRESS":"大橋三街３４號二樓","OBJECTID":310743},"geometry":{"x":170574.87999999989,"y":2546443.5099999998}},{"attributes":{"ID":310752,"DIS_CODE":0,"TOWNNAME":"永康區","LI":"西橋里","LIN":"17鄰","STREET":"大橋三街","SECT":" ","MAREA":" ","LANE":" ","ALLEY":" ","HOUSE_NO":"３６號四樓","E_COORD97":170577.87,"N_COORD97":2546450.7599999998,"ADDRESS":"大橋三街３６號四樓","OBJECTID":310744},"geometry":{"x":170577.87000000104,"y":2546450.7600000016}},{"attributes":{"ID":310753,"DIS_CODE":0,"TOWNNAME":"永康區","LI":"西橋里","LIN":"17鄰","STREET":"大橋三街","SECT":" ","MAREA":" ","LANE":" ","ALLEY":" ","HOUSE_NO":"３８號四樓","E_COORD97":170581.81,"N_COORD97":2546458.25,"ADDRESS":"大橋三街３８號四樓","OBJECTID":310745},"geometry":{"x":170581.80999999959,"y":2546458.2500000019}},{"attributes":{"ID":310754,"DIS_CODE":0,"TOWNNAME":"永康區","LI":"西橋里","LIN":"17鄰","STREET":"大橋三街","SECT":" ","MAREA":" ","LANE":" ","ALLEY":" ","HOUSE_NO":"３０號二樓","E_COORD97":170559.73000000001,"N_COORD97":2546444.7599999998,"ADDRESS":"大橋三街３０號二樓","OBJECTID":310746},"geometry":{"x":170559.73000000045,"y":2546444.7599999998}},{"attributes":{"ID":310755,"DIS_CODE":0,"TOWNNAME":"永康區","LI":"西橋里","LIN":"17鄰","STREET":"大橋三街","SECT":" ","MAREA":" ","LANE":" ","ALLEY":" ","HOUSE_NO":"２８號二樓","E_COORD97":170557.32000000001,"N_COORD97":2546441.2599999998,"ADDRESS":"大橋三街２８號二樓","OBJECTID":310747},"geometry":{"x":170557.3200000003,"y":2546441.2600000016}},{"attributes":{"ID":310756,"DIS_CODE":0,"TOWNNAME":"安南區","LI":"安西里","LIN":"13鄰","STREET":"安和路","SECT":"一段","MAREA":" ","LANE":"１５９巷","ALLEY":" ","HOUSE_NO":"２２號","E_COORD97":169303.56,"N_COORD97":2547810.3199999998,"ADDRESS":"安和路一段１５９巷２２號","OBJECTID":310748},"geometry":{"x":169303.55999999959,"y":2547810.3200000022}},{"attributes":{"ID":310757,"DIS_CODE":0,"TOWNNAME":"安南區","LI":"淵東里","LIN":"15鄰","STREET":"本原街","SECT":"三段","MAREA":" ","LANE":"１６９巷","ALLEY":" ","HOUSE_NO":"１６號","E_COORD97":165490.69,"N_COORD97":2550259.8900000001,"ADDRESS":"本原街三段１６９巷１６號","OBJECTID":310749},"geometry":{"x":165490.69000000134,"y":2550259.8900000006}},{"attributes":{"ID":310758,"DIS_CODE":0,"TOWNNAME":"安南區","LI":"淵東里","LIN":"15鄰","STREET":"本原街","SECT":"三段","MAREA":" ","LANE":"１６９巷","ALLEY":" ","HOUSE_NO":"１８號","E_COORD97":165492.51999999999,"N_COORD97":2550255.3199999998,"ADDRESS":"本原街三段１６９巷１８號","OBJECTID":310750},"geometry":{"x":165492.52000000048,"y":2550255.3200000022}},{"attributes":{"ID":310759,"DIS_CODE":0,"TOWNNAME":"安南區","LI":"長安里","LIN":"15鄰","STREET":"公學路","SECT":"二段","MAREA":" ","LANE":"１２３巷","ALLEY":" ","HOUSE_NO":"８１號","E_COORD97":167856.34,"N_COORD97":2552426.6499999999,"ADDRESS":"公學路二段１２３巷８１號","OBJECTID":310751},"geometry":{"x":167856.33999999985,"y":2552426.6500000022}},{"attributes":{"ID":310760,"DIS_CODE":0,"TOWNNAME":"安南區","LI":"長安里","LIN":"15鄰","STREET":"公學路","SECT":"二段","MAREA":" ","LANE":"１２３巷","ALLEY":" ","HOUSE_NO":"８５號","E_COORD97":167866.37,"N_COORD97":2552431.7400000002,"ADDRESS":"公學路二段１２３巷８５號","OBJECTID":310752},"geometry":{"x":167866.37000000011,"y":2552431.7400000021}},{"attributes":{"ID":310761,"DIS_CODE":0,"TOWNNAME":"下營區","LI":"賀建里","LIN":"10鄰","STREET":" ","SECT":" ","MAREA":"火燒珠","LANE":" ","ALLEY":" ","HOUSE_NO":"２１號之２","E_COORD97":176669.01999999999,"N_COORD97":2572830.29,"ADDRESS":"火燒珠２１號之２","OBJECTID":310753},"geometry":{"x":176669.02000000048,"y":2572830.290000001}},{"attributes":{"ID":310762,"DIS_CODE":0,"TOWNNAME":"安南區","LI":"長安里","LIN":"15鄰","STREET":"公學路","SECT":"二段","MAREA":" ","LANE":"１２３巷","ALLEY":" ","HOUSE_NO":"８７號","E_COORD97":167874.31,"N_COORD97":2552432.73,"ADDRESS":"公學路二段１２３巷８７號","OBJECTID":310754},"geometry":{"x":167874.30999999959,"y":2552432.7300000023}},{"attributes":{"ID":310763,"DIS_CODE":0,"TOWNNAME":"安南區","LI":"長安里","LIN":"15鄰","STREET":"公學路","SECT":"二段","MAREA":" ","LANE":"６３巷","ALLEY":" ","HOUSE_NO":"１１號","E_COORD97":167845.57999999999,"N_COORD97":2552417.2200000002,"ADDRESS":"公學路二段６３巷１１號","OBJECTID":310755},"geometry":{"x":167845.58000000101,"y":2552417.2200000007}},{"attributes":{"ID":310764,"DIS_CODE":0,"TOWNNAME":"安南區","LI":"長安里","LIN":"15鄰","STREET":"公學路","SECT":"二段","MAREA":" ","LANE":"６３巷","ALLEY":" ","HOUSE_NO":"１３號","E_COORD97":167848.63,"N_COORD97":2552413.9500000002,"ADDRESS":"公學路二段６３巷１３號","OBJECTID":310756},"geometry":{"x":167848.63000000082,"y":2552413.9499999993}},{"attributes":{"ID":310765,"DIS_CODE":0,"TOWNNAME":"安南區","LI":"長安里","LIN":"15鄰","STREET":"公學路","SECT":"二段","MAREA":" ","LANE":"６３巷","ALLEY":" ","HOUSE_NO":"１５號","E_COORD97":167853.10000000001,"N_COORD97":2552411.8300000001,"ADDRESS":"公學路二段６３巷１５號","OBJECTID":310757},"geometry":{"x":167853.10000000056,"y":2552411.8300000001}},{"attributes":{"ID":310766,"DIS_CODE":0,"TOWNNAME":"安南區","LI":"長安里","LIN":"15鄰","STREET":"公學路","SECT":"二段","MAREA":" ","LANE":"６３巷","ALLEY":" ","HOUSE_NO":"１號","E_COORD97":167830.37,"N_COORD97":2552433.7599999998,"ADDRESS":"公學路二段６３巷１號","OBJECTID":310758},"geometry":{"x":167830.37000000011,"y":2552433.7600000035}},{"attributes":{"ID":310767,"DIS_CODE":0,"TOWNNAME":"永康區","LI":"西橋里","LIN":"17鄰","STREET":"大橋三街","SECT":" ","MAREA":" ","LANE":" ","ALLEY":" ","HOUSE_NO":"３４號三樓","E_COORD97":170574.88,"N_COORD97":2546443.5099999998,"ADDRESS":"大橋三街３４號三樓","OBJECTID":310759},"geometry":{"x":170574.87999999989,"y":2546443.5099999998}},{"attributes":{"ID":310768,"DIS_CODE":0,"TOWNNAME":"永康區","LI":"西橋里","LIN":"17鄰","STREET":"大橋三街","SECT":" ","MAREA":" ","LANE":" ","ALLEY":" ","HOUSE_NO":"３２號六樓","E_COORD97":170571.07000000001,"N_COORD97":2546434.5099999998,"ADDRESS":"大橋三街３２號六樓","OBJECTID":310760},"geometry":{"x":170571.06999999937,"y":2546434.5100000035}},{"attributes":{"ID":310769,"DIS_CODE":0,"TOWNNAME":"永康區","LI":"西橋里","LIN":"17鄰","STREET":"大橋三街","SECT":" ","MAREA":" ","LANE":" ","ALLEY":" ","HOUSE_NO":"３６號三樓","E_COORD97":170577.87,"N_COORD97":2546450.7599999998,"ADDRESS":"大橋三街３６號三樓","OBJECTID":310761},"geometry":{"x":170577.87000000104,"y":2546450.7600000016}},{"attributes":{"ID":310770,"DIS_CODE":0,"TOWNNAME":"永康區","LI":"西橋里","LIN":"17鄰","STREET":"大橋三街","SECT":" ","MAREA":" ","LANE":" ","ALLEY":" ","HOUSE_NO":"３６號六樓","E_COORD97":170577.87,"N_COORD97":2546450.7599999998,"ADDRESS":"大橋三街３６號六樓","OBJECTID":310762},"geometry":{"x":170577.87000000104,"y":2546450.7600000016}},{"attributes":{"ID":310771,"DIS_CODE":0,"TOWNNAME":"永康區","LI":"中興里","LIN":"17鄰","STREET":"中華路","SECT":" ","MAREA":" ","LANE":" ","ALLEY":" ","HOUSE_NO":"２７２號","E_COORD97":171628.92999999999,"N_COORD97":2545157.4900000002,"ADDRESS":"中華路２７２號","OBJECTID":310763},"geometry":{"x":171628.9299999997,"y":2545157.4900000021}},{"attributes":{"ID":310772,"DIS_CODE":0,"TOWNNAME":"新營區","LI":"新南里","LIN":"1鄰","STREET":"民治路","SECT":" ","MAREA":" ","LANE":" ","ALLEY":" ","HOUSE_NO":"２０２號","E_COORD97":178899.76999999999,"N_COORD97":2578618.9399999999,"ADDRESS":"民治路２０２號","OBJECTID":310764},"geometry":{"x":178899.77000000048,"y":2578618.9399999995}},{"attributes":{"ID":310773,"DIS_CODE":0,"TOWNNAME":"新營區","LI":"王公里","LIN":"30鄰","STREET":"民族路","SECT":" ","MAREA":" ","LANE":" ","ALLEY":" ","HOUSE_NO":"２５２號","E_COORD97":180392.29999999999,"N_COORD97":2579531.0299999998,"ADDRESS":"民族路２５２號","OBJECTID":310765},"geometry":{"x":180392.29999999981,"y":2579531.0300000031}},{"attributes":{"ID":310774,"DIS_CODE":0,"TOWNNAME":"新營區","LI":"興安里","LIN":" ","STREET":"工業路","SECT":" ","MAREA":" ","LANE":" ","ALLEY":" ","HOUSE_NO":"６９之４號","E_COORD97":180626.20000000001,"N_COORD97":2577898.7200000002,"ADDRESS":"工業路６９之４號","OBJECTID":310766},"geometry":{"x":180626.20000000112,"y":2577898.7200000007}},{"attributes":{"ID":310775,"DIS_CODE":0,"TOWNNAME":"新營區","LI":"新南里","LIN":" ","STREET":"長榮路","SECT":"二段","MAREA":" ","LANE":" ","ALLEY":" ","HOUSE_NO":"１１４３號","E_COORD97":177820.63,"N_COORD97":2578582.0800000001,"ADDRESS":"長榮路二段１１４３號","OBJECTID":310767},"geometry":{"x":177820.63000000175,"y":2578582.0800000038}},{"attributes":{"ID":310776,"DIS_CODE":0,"TOWNNAME":"東區","LI":"東光里","LIN":"17鄰","STREET":"東興路","SECT":" ","MAREA":" ","LANE":" ","ALLEY":" ","HOUSE_NO":"１９５號三樓之３","E_COORD97":170998.14000000001,"N_COORD97":2543847.6800000002,"ADDRESS":"東興路１９５號三樓之３","OBJECTID":310768},"geometry":{"x":170998.13999999966,"y":2543847.6800000016}},{"attributes":{"ID":310777,"DIS_CODE":0,"TOWNNAME":"南區","LI":"南華里","LIN":"5鄰","STREET":"中華南路","SECT":"二段","MAREA":" ","LANE":" ","ALLEY":" ","HOUSE_NO":"３８２號","E_COORD97":166452.89000000001,"N_COORD97":2540298.3900000001,"ADDRESS":"中華南路二段３８２號","OBJECTID":310769},"geometry":{"x":166452.8900000006,"y":2540298.3900000006}},{"attributes":{"ID":310778,"DIS_CODE":0,"TOWNNAME":"安南區","LI":"安西里","LIN":"6鄰","STREET":"安和路","SECT":"一段","MAREA":" ","LANE":"２８５巷","ALLEY":" ","HOUSE_NO":"４１號","E_COORD97":169151.89000000001,"N_COORD97":2548035.2599999998,"ADDRESS":"安和路一段２８５巷４１號","OBJECTID":310770},"geometry":{"x":169151.8900000006,"y":2548035.2599999998}},{"attributes":{"ID":310779,"DIS_CODE":0,"TOWNNAME":"玉井區","LI":"竹圍里","LIN":"7鄰","STREET":"忠孝街","SECT":" ","MAREA":" ","LANE":"４１７巷","ALLEY":" ","HOUSE_NO":"１０號","E_COORD97":195644.42000000001,"N_COORD97":2558605.9399999999,"ADDRESS":"忠孝街４１７巷１０號","OBJECTID":310771},"geometry":{"x":195644.42000000086,"y":2558605.9399999976}},{"attributes":{"ID":310780,"DIS_CODE":0,"TOWNNAME":"玉井區","LI":"竹圍里","LIN":"7鄰","STREET":"中正路","SECT":" ","MAREA":" ","LANE":"５１６巷","ALLEY":" ","HOUSE_NO":"９２號","E_COORD97":195760.48999999999,"N_COORD97":2558662.21,"ADDRESS":"中正路５１６巷９２號","OBJECTID":310772},"geometry":{"x":195760.49000000209,"y":2558662.2100000009}},{"attributes":{"ID":310781,"DIS_CODE":0,"TOWNNAME":"玉井區","LI":"竹圍里","LIN":"7鄰","STREET":"忠孝街","SECT":" ","MAREA":" ","LANE":"４６９巷","ALLEY":" ","HOUSE_NO":"１２號","E_COORD97":195733.13,"N_COORD97":2558637.8399999999,"ADDRESS":"忠孝街４６９巷１２號","OBJECTID":310773},"geometry":{"x":195733.12999999989,"y":2558637.8400000036}},{"attributes":{"ID":310782,"DIS_CODE":0,"TOWNNAME":"玉井區","LI":"竹圍里","LIN":"7鄰","STREET":"忠孝街","SECT":" ","MAREA":" ","LANE":"４６９巷","ALLEY":" ","HOUSE_NO":"１８號","E_COORD97":195731.32000000001,"N_COORD97":2558645.9300000002,"ADDRESS":"忠孝街４６９巷１８號","OBJECTID":310774},"geometry":{"x":195731.32000000123,"y":2558645.9299999997}},{"attributes":{"ID":310783,"DIS_CODE":0,"TOWNNAME":"玉井區","LI":"竹圍里","LIN":"7鄰","STREET":"中正路","SECT":" ","MAREA":" ","LANE":"５１６巷","ALLEY":" ","HOUSE_NO":"８６號","E_COORD97":195750.04999999999,"N_COORD97":2558666.5699999998,"ADDRESS":"中正路５１６巷８６號","OBJECTID":310775},"geometry":{"x":195750.05000000075,"y":2558666.5700000003}},{"attributes":{"ID":310784,"DIS_CODE":0,"TOWNNAME":"玉井區","LI":"竹圍里","LIN":"7鄰","STREET":"忠孝街","SECT":" ","MAREA":" ","LANE":"４６９巷","ALLEY":" ","HOUSE_NO":"７號","E_COORD97":195719.14999999999,"N_COORD97":2558629.5800000001,"ADDRESS":"忠孝街４６９巷７號","OBJECTID":310776},"geometry":{"x":195719.1500000013,"y":2558629.5800000038}},{"attributes":{"ID":310785,"DIS_CODE":0,"TOWNNAME":"玉井區","LI":"竹圍里","LIN":"7鄰","STREET":"忠孝街","SECT":" ","MAREA":" ","LANE":"４６９巷","ALLEY":" ","HOUSE_NO":"２６號","E_COORD97":195729.82000000001,"N_COORD97":2558657.23,"ADDRESS":"忠孝街４６９巷２６號","OBJECTID":310777},"geometry":{"x":195729.82000000123,"y":2558657.2300000023}},{"attributes":{"ID":310786,"DIS_CODE":0,"TOWNNAME":"玉井區","LI":"竹圍里","LIN":"7鄰","STREET":"忠孝街","SECT":" ","MAREA":" ","LANE":"４６９巷","ALLEY":" ","HOUSE_NO":"２８號","E_COORD97":195729.22,"N_COORD97":2558661,"ADDRESS":"忠孝街４６９巷２８號","OBJECTID":310778},"geometry":{"x":195729.21999999974,"y":2558661.0000000019}},{"attributes":{"ID":310787,"DIS_CODE":0,"TOWNNAME":"玉井區","LI":"竹圍里","LIN":"7鄰","STREET":"中正路","SECT":" ","MAREA":" ","LANE":"４７０巷","ALLEY":" ","HOUSE_NO":"９號","E_COORD97":195581.01000000001,"N_COORD97":2558658.8799999999,"ADDRESS":"中正路４７０巷９號","OBJECTID":310779},"geometry":{"x":195581.00999999978,"y":2558658.879999999}},{"attributes":{"ID":310788,"DIS_CODE":0,"TOWNNAME":"玉井區","LI":"竹圍里","LIN":"7鄰","STREET":"中正路","SECT":" ","MAREA":" ","LANE":"５１６巷","ALLEY":" ","HOUSE_NO":"９６號","E_COORD97":195763.95999999999,"N_COORD97":2558660.8700000001,"ADDRESS":"中正路５１６巷９６號","OBJECTID":310780},"geometry":{"x":195763.96000000089,"y":2558660.870000001}},{"attributes":{"ID":310789,"DIS_CODE":0,"TOWNNAME":"玉井區","LI":"竹圍里","LIN":"7鄰","STREET":"中正路","SECT":" ","MAREA":" ","LANE":"４７０巷","ALLEY":" ","HOUSE_NO":"３號","E_COORD97":195579.64999999999,"N_COORD97":2558678.9199999999,"ADDRESS":"中正路４７０巷３號","OBJECTID":310781},"geometry":{"x":195579.65000000037,"y":2558678.9200000018}},{"attributes":{"ID":310790,"DIS_CODE":0,"TOWNNAME":"玉井區","LI":"竹圍里","LIN":"7鄰","STREET":"中正路","SECT":" ","MAREA":" ","LANE":"４８２巷","ALLEY":" ","HOUSE_NO":"１號","E_COORD97":195593.79000000001,"N_COORD97":2558681.2000000002,"ADDRESS":"中正路４８２巷１號","OBJECTID":310782},"geometry":{"x":195593.7900000019,"y":2558681.1999999993}},{"attributes":{"ID":310791,"DIS_CODE":0,"TOWNNAME":"玉井區","LI":"竹圍里","LIN":"7鄰","STREET":"中正路","SECT":" ","MAREA":" ","LANE":"４７０巷","ALLEY":" ","HOUSE_NO":"１１號","E_COORD97":195584.28,"N_COORD97":2558652.3300000001,"ADDRESS":"中正路４７０巷１１號","OBJECTID":310783},"geometry":{"x":195584.28000000119,"y":2558652.3300000019}},{"attributes":{"ID":310792,"DIS_CODE":0,"TOWNNAME":"玉井區","LI":"竹圍里","LIN":"7鄰","STREET":"中正路","SECT":" ","MAREA":" ","LANE":"４７０巷","ALLEY":" ","HOUSE_NO":"１號","E_COORD97":195579.47,"N_COORD97":2558685.23,"ADDRESS":"中正路４７０巷１號","OBJECTID":310784},"geometry":{"x":195579.47000000067,"y":2558685.2300000004}},{"attributes":{"ID":310793,"DIS_CODE":0,"TOWNNAME":"玉井區","LI":"竹圍里","LIN":"7鄰","STREET":"中正路","SECT":" ","MAREA":" ","LANE":"５０６巷","ALLEY":" ","HOUSE_NO":"３號","E_COORD97":195620.45999999999,"N_COORD97":2558692.1699999999,"ADDRESS":"中正路５０６巷３號","OBJECTID":310785},"geometry":{"x":195620.46000000089,"y":2558692.1699999999}},{"attributes":{"ID":310794,"DIS_CODE":0,"TOWNNAME":"玉井區","LI":"竹圍里","LIN":"7鄰","STREET":"中正路","SECT":" ","MAREA":" ","LANE":"４７０巷","ALLEY":" ","HOUSE_NO":"７號","E_COORD97":195580.51999999999,"N_COORD97":2558665.4100000001,"ADDRESS":"中正路４７０巷７號","OBJECTID":310786},"geometry":{"x":195580.52000000048,"y":2558665.410000002}},{"attributes":{"ID":310795,"DIS_CODE":0,"TOWNNAME":"玉井區","LI":"竹圍里","LIN":"7鄰","STREET":"中正路","SECT":" ","MAREA":" ","LANE":"４７０巷","ALLEY":" ","HOUSE_NO":"５號","E_COORD97":195579.92999999999,"N_COORD97":2558672.3900000001,"ADDRESS":"中正路４７０巷５號","OBJECTID":310787},"geometry":{"x":195579.9299999997,"y":2558672.3900000025}},{"attributes":{"ID":310796,"DIS_CODE":0,"TOWNNAME":"玉井區","LI":"竹圍里","LIN":"7鄰","STREET":"中正路","SECT":" ","MAREA":" ","LANE":"４４８巷","ALLEY":" ","HOUSE_NO":"２６號","E_COORD97":195566.85999999999,"N_COORD97":2558620.9500000002,"ADDRESS":"中正路４４８巷２６號","OBJECTID":310788},"geometry":{"x":195566.86000000127,"y":2558620.9500000011}},{"attributes":{"ID":310797,"DIS_CODE":0,"TOWNNAME":"玉井區","LI":"竹圍里","LIN":"7鄰","STREET":"中正路","SECT":" ","MAREA":" ","LANE":"４８２巷","ALLEY":" ","HOUSE_NO":"５號","E_COORD97":195588.89999999999,"N_COORD97":2558658.5099999998,"ADDRESS":"中正路４８２巷５號","OBJECTID":310789},"geometry":{"x":195588.9000000013,"y":2558658.5100000016}},{"attributes":{"ID":310798,"DIS_CODE":0,"TOWNNAME":"東區","LI":"東光里","LIN":"17鄰","STREET":"東興路","SECT":" ","MAREA":" ","LANE":" ","ALLEY":" ","HOUSE_NO":"１９５號三樓之４","E_COORD97":170998.14000000001,"N_COORD97":2543847.6800000002,"ADDRESS":"東興路１９５號三樓之４","OBJECTID":310790},"geometry":{"x":170998.13999999966,"y":2543847.6800000016}},{"attributes":{"ID":310799,"DIS_CODE":0,"TOWNNAME":"安南區","LI":"安慶里","LIN":"10鄰","STREET":"長溪路","SECT":"一段","MAREA":" ","LANE":"１６８巷","ALLEY":" ","HOUSE_NO":"３２１號之２","E_COORD97":168816.97,"N_COORD97":2548810.0699999998,"ADDRESS":"長溪路一段１６８巷３２１號之２","OBJECTID":310791},"geometry":{"x":168816.97000000067,"y":2548810.0700000003}},{"attributes":{"ID":310800,"DIS_CODE":0,"TOWNNAME":"安南區","LI":"州南里","LIN":"21鄰","STREET":"安和路","SECT":"四段","MAREA":" ","LANE":"５３３巷","ALLEY":" ","HOUSE_NO":"１２３號","E_COORD97":169702.67000000001,"N_COORD97":2551189.9399999999,"ADDRESS":"安和路四段５３３巷１２３號","OBJECTID":310792},"geometry":{"x":169702.67000000086,"y":2551189.9399999995}},{"attributes":{"ID":310801,"DIS_CODE":0,"TOWNNAME":"安南區","LI":"公親里","LIN":"2鄰","STREET":"公學路","SECT":"一段","MAREA":" ","LANE":"２５０巷","ALLEY":" ","HOUSE_NO":"１１號","E_COORD97":167931,"N_COORD97":2553023.6499999999,"ADDRESS":"公學路一段２５０巷１１號","OBJECTID":310793},"geometry":{"x":167931.00000000093,"y":2553023.6500000004}},{"attributes":{"ID":310802,"DIS_CODE":0,"TOWNNAME":"安南區","LI":"公親里","LIN":"2鄰","STREET":"公學路","SECT":"一段","MAREA":" ","LANE":"２５０巷","ALLEY":" ","HOUSE_NO":"７號","E_COORD97":167941.35000000001,"N_COORD97":2553024.6800000002,"ADDRESS":"公學路一段２５０巷７號","OBJECTID":310794},"geometry":{"x":167941.35000000056,"y":2553024.6800000016}},{"attributes":{"ID":310803,"DIS_CODE":0,"TOWNNAME":"安南區","LI":"公親里","LIN":"2鄰","STREET":"公學路","SECT":"一段","MAREA":" ","LANE":"２５０巷","ALLEY":" ","HOUSE_NO":"９號","E_COORD97":167936.69,"N_COORD97":2553023.1299999999,"ADDRESS":"公學路一段２５０巷９號","OBJECTID":310795},"geometry":{"x":167936.69000000134,"y":2553023.129999999}},{"attributes":{"ID":310804,"DIS_CODE":0,"TOWNNAME":"安南區","LI":"頂安里","LIN":"7鄰","STREET":"怡安路","SECT":"一段","MAREA":" ","LANE":"４４６巷","ALLEY":" ","HOUSE_NO":"４５號","E_COORD97":168696.45999999999,"N_COORD97":2549251,"ADDRESS":"怡安路一段４４６巷４５號","OBJECTID":310796},"geometry":{"x":168696.45999999996,"y":2549251}},{"attributes":{"ID":310805,"DIS_CODE":0,"TOWNNAME":"安南區","LI":"頂安里","LIN":"7鄰","STREET":"怡安路","SECT":"一段","MAREA":" ","LANE":"４４６巷","ALLEY":" ","HOUSE_NO":"４７號","E_COORD97":168701.85000000001,"N_COORD97":2549252.6000000001,"ADDRESS":"怡安路一段４４６巷４７號","OBJECTID":310797},"geometry":{"x":168701.84999999963,"y":2549252.6000000015}},{"attributes":{"ID":310806,"DIS_CODE":0,"TOWNNAME":"玉井區","LI":"竹圍里","LIN":"7鄰","STREET":"中正路","SECT":" ","MAREA":" ","LANE":"５０６巷","ALLEY":" ","HOUSE_NO":"９號","E_COORD97":195616.66,"N_COORD97":2558661.1800000002,"ADDRESS":"中正路５０６巷９號","OBJECTID":310798},"geometry":{"x":195616.66000000015,"y":2558661.1799999997}},{"attributes":{"ID":310807,"DIS_CODE":0,"TOWNNAME":"玉井區","LI":"竹圍里","LIN":"7鄰","STREET":"忠孝街","SECT":" ","MAREA":" ","LANE":"４６９巷","ALLEY":" ","HOUSE_NO":"５號","E_COORD97":195721.26999999999,"N_COORD97":2558620.9399999999,"ADDRESS":"忠孝街４６９巷５號","OBJECTID":310799},"geometry":{"x":195721.27000000048,"y":2558620.9400000013}},{"attributes":{"ID":310808,"DIS_CODE":0,"TOWNNAME":"玉井區","LI":"竹圍里","LIN":"7鄰","STREET":"忠孝街","SECT":" ","MAREA":" ","LANE":"４６９巷","ALLEY":" ","HOUSE_NO":"２號","E_COORD97":195734.89000000001,"N_COORD97":2558622.77,"ADDRESS":"忠孝街４６９巷２號","OBJECTID":310800},"geometry":{"x":195734.88999999966,"y":2558622.7699999996}}]}