{"displayFieldName":"TOWNNAME","fieldAliases":{"ID":"ID","DIS_CODE":"DIS_CODE","TOWNNAME":"TOWNNAME","LI":"LI","LIN":"LIN","STREET":"STREET","SECT":"SECT","MAREA":"MAREA","LANE":"LANE","ALLEY":"ALLEY","HOUSE_NO":"HOUSE_NO","E_COORD97":"E_COORD97","N_COORD97":"N_COORD97","ADDRESS":"ADDRESS","OBJECTID":"OBJECTID"},"geometryType":"esriGeometryPoint","spatialReference":{"wkid":102443,"latestWkid":3826},"fields":[{"name":"ID","type":"esriFieldTypeDouble","alias":"ID"},{"name":"DIS_CODE","type":"esriFieldTypeInteger","alias":"DIS_CODE"},{"name":"TOWNNAME","type":"esriFieldTypeString","alias":"TOWNNAME","length":8},{"name":"LI","type":"esriFieldTypeString","alias":"LI","length":8},{"name":"LIN","type":"esriFieldTypeString","alias":"LIN","length":12},{"name":"STREET","type":"esriFieldTypeString","alias":"STREET","length":20},{"name":"SECT","type":"esriFieldTypeString","alias":"SECT","length":8},{"name":"MAREA","type":"esriFieldTypeString","alias":"MAREA","length":12},{"name":"LANE","type":"esriFieldTypeString","alias":"LANE","length":10},{"name":"ALLEY","type":"esriFieldTypeString","alias":"ALLEY","length":10},{"name":"HOUSE_NO","type":"esriFieldTypeString","alias":"HOUSE_NO","length":20},{"name":"E_COORD97","type":"esriFieldTypeDouble","alias":"E_COORD97"},{"name":"N_COORD97","type":"esriFieldTypeDouble","alias":"N_COORD97"},{"name":"ADDRESS","type":"esriFieldTypeString","alias":"ADDRESS","length":50},{"name":"OBJECTID","type":"esriFieldTypeOID","alias":"OBJECTID"}],"features":[{"attributes":{"ID":476026,"DIS_CODE":0,"TOWNNAME":"南區","LI":"廣州里","LIN":"18鄰","STREET":"福吉路","SECT":" ","MAREA":" ","LANE":" ","ALLEY":" ","HOUSE_NO":"２４號","E_COORD97":167346.32000000001,"N_COORD97":2542615.7799999998,"ADDRESS":"福吉路２４號","OBJECTID":476001},"geometry":{"x":167346.3200000003,"y":2542615.7800000012}},{"attributes":{"ID":476027,"DIS_CODE":0,"TOWNNAME":"南區","LI":"新昌里","LIN":"18鄰","STREET":"永華路","SECT":"一段","MAREA":" ","LANE":" ","ALLEY":" ","HOUSE_NO":"１號","E_COORD97":167698.54000000001,"N_COORD97":2543095.77,"ADDRESS":"永華路一段１號","OBJECTID":476002},"geometry":{"x":167698.54000000097,"y":2543095.7699999996}},{"attributes":{"ID":476028,"DIS_CODE":0,"TOWNNAME":"南區","LI":"新昌里","LIN":"18鄰","STREET":"永華路","SECT":"一段","MAREA":" ","LANE":" ","ALLEY":" ","HOUSE_NO":"３號","E_COORD97":167694.10000000001,"N_COORD97":2543095.4500000002,"ADDRESS":"永華路一段３號","OBJECTID":476003},"geometry":{"x":167694.10000000056,"y":2543095.4500000011}},{"attributes":{"ID":476029,"DIS_CODE":0,"TOWNNAME":"南區","LI":"新昌里","LIN":"18鄰","STREET":"永華路","SECT":"一段","MAREA":" ","LANE":" ","ALLEY":" ","HOUSE_NO":"５號","E_COORD97":167689.64999999999,"N_COORD97":2543096.0800000001,"ADDRESS":"永華路一段５號","OBJECTID":476004},"geometry":{"x":167689.6500000013,"y":2543096.0800000019}},{"attributes":{"ID":476030,"DIS_CODE":0,"TOWNNAME":"南區","LI":"新昌里","LIN":"18鄰","STREET":"永華路","SECT":"一段","MAREA":" ","LANE":" ","ALLEY":" ","HOUSE_NO":"７號","E_COORD97":167684.89000000001,"N_COORD97":2543096.7200000002,"ADDRESS":"永華路一段７號","OBJECTID":476005},"geometry":{"x":167684.89000000153,"y":2543096.7200000007}},{"attributes":{"ID":476031,"DIS_CODE":0,"TOWNNAME":"南區","LI":"新昌里","LIN":"18鄰","STREET":"永華路","SECT":"一段","MAREA":" ","LANE":" ","ALLEY":" ","HOUSE_NO":"９號","E_COORD97":167680.44,"N_COORD97":2543097.04,"ADDRESS":"永華路一段９號","OBJECTID":476006},"geometry":{"x":167680.44000000134,"y":2543097.0399999991}},{"attributes":{"ID":476032,"DIS_CODE":0,"TOWNNAME":"南區","LI":"新昌里","LIN":"18鄰","STREET":"永華路","SECT":"一段","MAREA":" ","LANE":" ","ALLEY":" ","HOUSE_NO":"１１號","E_COORD97":167676.32000000001,"N_COORD97":2543097.3500000001,"ADDRESS":"永華路一段１１號","OBJECTID":476007},"geometry":{"x":167676.32000000123,"y":2543097.3500000015}},{"attributes":{"ID":476033,"DIS_CODE":0,"TOWNNAME":"南區","LI":"新昌里","LIN":"18鄰","STREET":"永華路","SECT":"一段","MAREA":" ","LANE":" ","ALLEY":" ","HOUSE_NO":"１３號","E_COORD97":167672.19,"N_COORD97":2543097.04,"ADDRESS":"永華路一段１３號","OBJECTID":476008},"geometry":{"x":167672.19000000134,"y":2543097.0399999991}},{"attributes":{"ID":476034,"DIS_CODE":0,"TOWNNAME":"南區","LI":"新昌里","LIN":"18鄰","STREET":"西門路","SECT":"一段","MAREA":" ","LANE":" ","ALLEY":" ","HOUSE_NO":"６９５號","E_COORD97":167706.16,"N_COORD97":2543090.6899999999,"ADDRESS":"西門路一段６９５號","OBJECTID":476009},"geometry":{"x":167706.16000000108,"y":2543090.6900000013}},{"attributes":{"ID":476035,"DIS_CODE":0,"TOWNNAME":"南區","LI":"新昌里","LIN":"18鄰","STREET":"西門路","SECT":"一段","MAREA":" ","LANE":" ","ALLEY":" ","HOUSE_NO":"６９７號","E_COORD97":167706.16,"N_COORD97":2543097.04,"ADDRESS":"西門路一段６９７號","OBJECTID":476010},"geometry":{"x":167706.16000000108,"y":2543097.0399999991}},{"attributes":{"ID":476036,"DIS_CODE":0,"TOWNNAME":"南區","LI":"新昌里","LIN":"18鄰","STREET":"國華街","SECT":"一段","MAREA":" ","LANE":" ","ALLEY":" ","HOUSE_NO":"１２４號","E_COORD97":167614.84,"N_COORD97":2543040.9100000001,"ADDRESS":"國華街一段１２４號","OBJECTID":476011},"geometry":{"x":167614.84000000078,"y":2543040.9100000001}},{"attributes":{"ID":476037,"DIS_CODE":0,"TOWNNAME":"南區","LI":"新昌里","LIN":"18鄰","STREET":"國華街","SECT":"一段","MAREA":" ","LANE":" ","ALLEY":" ","HOUSE_NO":"１２６號","E_COORD97":167614.53,"N_COORD97":2543046.9300000002,"ADDRESS":"國華街一段１２６號","OBJECTID":476012},"geometry":{"x":167614.53000000026,"y":2543046.9299999997}},{"attributes":{"ID":476038,"DIS_CODE":0,"TOWNNAME":"南區","LI":"新昌里","LIN":"18鄰","STREET":"國華街","SECT":"一段","MAREA":" ","LANE":" ","ALLEY":" ","HOUSE_NO":"１２８號","E_COORD97":167614.84,"N_COORD97":2543050.7400000002,"ADDRESS":"國華街一段１２８號","OBJECTID":476013},"geometry":{"x":167614.84000000078,"y":2543050.7400000021}},{"attributes":{"ID":476039,"DIS_CODE":0,"TOWNNAME":"南區","LI":"新昌里","LIN":"18鄰","STREET":"國華街","SECT":"一段","MAREA":" ","LANE":" ","ALLEY":" ","HOUSE_NO":"１３０號","E_COORD97":167614.84,"N_COORD97":2543054.8599999999,"ADDRESS":"國華街一段１３０號","OBJECTID":476014},"geometry":{"x":167614.84000000078,"y":2543054.8600000031}},{"attributes":{"ID":476040,"DIS_CODE":0,"TOWNNAME":"南區","LI":"新昌里","LIN":"18鄰","STREET":"國華街","SECT":"一段","MAREA":" ","LANE":" ","ALLEY":" ","HOUSE_NO":"１３２號","E_COORD97":167614.84,"N_COORD97":2543058.6699999999,"ADDRESS":"國華街一段１３２號","OBJECTID":476015},"geometry":{"x":167614.84000000078,"y":2543058.6699999999}},{"attributes":{"ID":476041,"DIS_CODE":0,"TOWNNAME":"南區","LI":"新昌里","LIN":"18鄰","STREET":"國華街","SECT":"一段","MAREA":" ","LANE":" ","ALLEY":" ","HOUSE_NO":"１３４號","E_COORD97":167613.57000000001,"N_COORD97":2543064.0600000001,"ADDRESS":"國華街一段１３４號","OBJECTID":476016},"geometry":{"x":167613.57000000123,"y":2543064.0600000005}},{"attributes":{"ID":476042,"DIS_CODE":0,"TOWNNAME":"南區","LI":"新昌里","LIN":"18鄰","STREET":"國華街","SECT":"一段","MAREA":" ","LANE":" ","ALLEY":" ","HOUSE_NO":"１８５號","E_COORD97":167596.42999999999,"N_COORD97":2543076.1099999999,"ADDRESS":"國華街一段１８５號","OBJECTID":476017},"geometry":{"x":167596.43000000156,"y":2543076.1099999994}},{"attributes":{"ID":476043,"DIS_CODE":0,"TOWNNAME":"南區","LI":"新昌里","LIN":"18鄰","STREET":"國華街","SECT":"一段","MAREA":" ","LANE":" ","ALLEY":" ","HOUSE_NO":"１８７號","E_COORD97":167595.48000000001,"N_COORD97":2543083.3999999999,"ADDRESS":"國華街一段１８７號","OBJECTID":476018},"geometry":{"x":167595.48000000138,"y":2543083.4000000022}},{"attributes":{"ID":476044,"DIS_CODE":0,"TOWNNAME":"南區","LI":"新昌里","LIN":"18鄰","STREET":"國華街","SECT":"一段","MAREA":" ","LANE":" ","ALLEY":" ","HOUSE_NO":"１８９號","E_COORD97":167594.84,"N_COORD97":2543090.3799999999,"ADDRESS":"國華街一段１８９號","OBJECTID":476019},"geometry":{"x":167594.83999999985,"y":2543090.379999999}},{"attributes":{"ID":476045,"DIS_CODE":0,"TOWNNAME":"南區","LI":"彰南里","LIN":"18鄰","STREET":"新平路","SECT":" ","MAREA":" ","LANE":" ","ALLEY":" ","HOUSE_NO":"３０號","E_COORD97":165709.51000000001,"N_COORD97":2540607.98,"ADDRESS":"新平路３０號","OBJECTID":476020},"geometry":{"x":165709.51000000071,"y":2540607.9800000023}},{"attributes":{"ID":476046,"DIS_CODE":0,"TOWNNAME":"南區","LI":"彰南里","LIN":"18鄰","STREET":"中華西路","SECT":"一段","MAREA":" ","LANE":" ","ALLEY":" ","HOUSE_NO":"２１號","E_COORD97":166226.82000000001,"N_COORD97":2540673.0600000001,"ADDRESS":"中華西路一段２１號","OBJECTID":476021},"geometry":{"x":166226.82000000123,"y":2540673.0600000005}},{"attributes":{"ID":476047,"DIS_CODE":0,"TOWNNAME":"南區","LI":"彰南里","LIN":"18鄰","STREET":"中華西路","SECT":"一段","MAREA":" ","LANE":" ","ALLEY":" ","HOUSE_NO":"２７號","E_COORD97":166239.19,"N_COORD97":2540760.9100000001,"ADDRESS":"中華西路一段２７號","OBJECTID":476022},"geometry":{"x":166239.19000000227,"y":2540760.910000002}},{"attributes":{"ID":476048,"DIS_CODE":0,"TOWNNAME":"南區","LI":"彰南里","LIN":"18鄰","STREET":"中華西路","SECT":"一段","MAREA":" ","LANE":" ","ALLEY":" ","HOUSE_NO":"２９號","E_COORD97":166244.38,"N_COORD97":2540822.5,"ADDRESS":"中華西路一段２９號","OBJECTID":476023},"geometry":{"x":166244.38000000082,"y":2540822.5}},{"attributes":{"ID":476049,"DIS_CODE":0,"TOWNNAME":"南區","LI":"彰南里","LIN":"18鄰","STREET":"中華西路","SECT":"一段","MAREA":" ","LANE":" ","ALLEY":" ","HOUSE_NO":"３３號","E_COORD97":166273.29999999999,"N_COORD97":2540858.5,"ADDRESS":"中華西路一段３３號","OBJECTID":476024},"geometry":{"x":166273.29999999981,"y":2540858.5000000019}},{"attributes":{"ID":476050,"DIS_CODE":0,"TOWNNAME":"南區","LI":"彰南里","LIN":"18鄰","STREET":"新和一路","SECT":" ","MAREA":" ","LANE":" ","ALLEY":" ","HOUSE_NO":"１１號","E_COORD97":165983.54000000001,"N_COORD97":2540766.77,"ADDRESS":"新和一路１１號","OBJECTID":476025},"geometry":{"x":165983.54000000004,"y":2540766.7699999996}},{"attributes":{"ID":476051,"DIS_CODE":0,"TOWNNAME":"南區","LI":"彰南里","LIN":"18鄰","STREET":"新和一路","SECT":" ","MAREA":" ","LANE":" ","ALLEY":" ","HOUSE_NO":"１３號","E_COORD97":165992.01000000001,"N_COORD97":2540783.6899999999,"ADDRESS":"新和一路１３號","OBJECTID":476026},"geometry":{"x":165992.00999999978,"y":2540783.6899999995}},{"attributes":{"ID":476052,"DIS_CODE":0,"TOWNNAME":"南區","LI":"彰南里","LIN":"18鄰","STREET":"新和一路","SECT":" ","MAREA":" ","LANE":" ","ALLEY":" ","HOUSE_NO":"１５號","E_COORD97":165990.75,"N_COORD97":2540807.5699999998,"ADDRESS":"新和一路１５號","OBJECTID":476027},"geometry":{"x":165990.75,"y":2540807.5700000022}},{"attributes":{"ID":476053,"DIS_CODE":0,"TOWNNAME":"南區","LI":"彰南里","LIN":"18鄰","STREET":"新和一路","SECT":" ","MAREA":" ","LANE":" ","ALLEY":" ","HOUSE_NO":"１７號","E_COORD97":165985.06,"N_COORD97":2540827.9399999999,"ADDRESS":"新和一路１７號","OBJECTID":476028},"geometry":{"x":165985.06000000145,"y":2540827.9400000013}},{"attributes":{"ID":476054,"DIS_CODE":0,"TOWNNAME":"南區","LI":"彰南里","LIN":"18鄰","STREET":"新和一路","SECT":" ","MAREA":" ","LANE":" ","ALLEY":" ","HOUSE_NO":"１９號","E_COORD97":165988.85000000001,"N_COORD97":2540846.4100000001,"ADDRESS":"新和一路１９號","OBJECTID":476029},"geometry":{"x":165988.85000000056,"y":2540846.410000002}},{"attributes":{"ID":476055,"DIS_CODE":0,"TOWNNAME":"南區","LI":"彰南里","LIN":"18鄰","STREET":"新和一路","SECT":" ","MAREA":" ","LANE":" ","ALLEY":" ","HOUSE_NO":"１號","E_COORD97":165982.89000000001,"N_COORD97":2540652.23,"ADDRESS":"新和一路１號","OBJECTID":476030},"geometry":{"x":165982.89000000153,"y":2540652.2300000004}},{"attributes":{"ID":476056,"DIS_CODE":0,"TOWNNAME":"南區","LI":"彰南里","LIN":"18鄰","STREET":"新和一路","SECT":" ","MAREA":" ","LANE":" ","ALLEY":" ","HOUSE_NO":"５號","E_COORD97":165992.66,"N_COORD97":2540691.2799999998,"ADDRESS":"新和一路５號","OBJECTID":476031},"geometry":{"x":165992.66000000015,"y":2540691.2799999993}},{"attributes":{"ID":476057,"DIS_CODE":0,"TOWNNAME":"南區","LI":"彰南里","LIN":"18鄰","STREET":"新和一路","SECT":" ","MAREA":" ","LANE":" ","ALLEY":" ","HOUSE_NO":"７號","E_COORD97":165998.51999999999,"N_COORD97":2540705.6000000001,"ADDRESS":"新和一路７號","OBJECTID":476032},"geometry":{"x":165998.51999999955,"y":2540705.6000000015}},{"attributes":{"ID":476058,"DIS_CODE":0,"TOWNNAME":"南區","LI":"彰南里","LIN":"18鄰","STREET":"新和一路","SECT":" ","MAREA":" ","LANE":" ","ALLEY":" ","HOUSE_NO":"７號之１","E_COORD97":166001.13,"N_COORD97":2540714.71,"ADDRESS":"新和一路７號之１","OBJECTID":476033},"geometry":{"x":166001.12999999989,"y":2540714.7100000046}},{"attributes":{"ID":476059,"DIS_CODE":0,"TOWNNAME":"南區","LI":"彰南里","LIN":"18鄰","STREET":"新和一路","SECT":" ","MAREA":" ","LANE":" ","ALLEY":" ","HOUSE_NO":"９號","E_COORD97":165992.01000000001,"N_COORD97":2540732.2799999998,"ADDRESS":"新和一路９號","OBJECTID":476034},"geometry":{"x":165992.00999999978,"y":2540732.2799999993}},{"attributes":{"ID":476060,"DIS_CODE":0,"TOWNNAME":"南區","LI":"彰南里","LIN":"18鄰","STREET":"新和二路","SECT":" ","MAREA":" ","LANE":" ","ALLEY":" ","HOUSE_NO":"１４號","E_COORD97":165730.35000000001,"N_COORD97":2540787.5899999999,"ADDRESS":"新和二路１４號","OBJECTID":476035},"geometry":{"x":165730.3499999987,"y":2540787.5899999999}},{"attributes":{"ID":476061,"DIS_CODE":0,"TOWNNAME":"南區","LI":"彰南里","LIN":"18鄰","STREET":"新和二路","SECT":" ","MAREA":" ","LANE":" ","ALLEY":" ","HOUSE_NO":"１６號","E_COORD97":165732.39999999999,"N_COORD97":2540807.0899999999,"ADDRESS":"新和二路１６號","OBJECTID":476036},"geometry":{"x":165732.40000000037,"y":2540807.0900000017}},{"attributes":{"ID":476062,"DIS_CODE":0,"TOWNNAME":"南區","LI":"彰南里","LIN":"18鄰","STREET":"新和二路","SECT":" ","MAREA":" ","LANE":" ","ALLEY":" ","HOUSE_NO":"１８號","E_COORD97":165715.32999999999,"N_COORD97":2540829.3599999999,"ADDRESS":"新和二路１８號","OBJECTID":476037},"geometry":{"x":165715.33000000007,"y":2540829.3599999994}},{"attributes":{"ID":476063,"DIS_CODE":0,"TOWNNAME":"南區","LI":"彰南里","LIN":"18鄰","STREET":"新和路","SECT":" ","MAREA":" ","LANE":" ","ALLEY":" ","HOUSE_NO":"２７號之１","E_COORD97":165763.22,"N_COORD97":2540867.2599999998,"ADDRESS":"新和路２７號之１","OBJECTID":476038},"geometry":{"x":165763.21999999974,"y":2540867.2600000016}},{"attributes":{"ID":476064,"DIS_CODE":0,"TOWNNAME":"南區","LI":"彰南里","LIN":"18鄰","STREET":"新和路","SECT":" ","MAREA":" ","LANE":" ","ALLEY":" ","HOUSE_NO":"３５號","E_COORD97":165657.01000000001,"N_COORD97":2540884.79,"ADDRESS":"新和路３５號","OBJECTID":476039},"geometry":{"x":165657.01000000071,"y":2540884.7899999991}},{"attributes":{"ID":476065,"DIS_CODE":0,"TOWNNAME":"南區","LI":"彰南里","LIN":"18鄰","STREET":"新和橫路","SECT":" ","MAREA":" ","LANE":" ","ALLEY":" ","HOUSE_NO":"１３號之１","E_COORD97":165818.29000000001,"N_COORD97":2540717.3100000001,"ADDRESS":"新和橫路１３號之１","OBJECTID":476040},"geometry":{"x":165818.29000000097,"y":2540717.3100000042}},{"attributes":{"ID":476066,"DIS_CODE":0,"TOWNNAME":"南區","LI":"彰南里","LIN":"18鄰","STREET":"新和橫路","SECT":" ","MAREA":" ","LANE":" ","ALLEY":" ","HOUSE_NO":"１號","E_COORD97":165955.53,"N_COORD97":2540704.9500000002,"ADDRESS":"新和橫路１號","OBJECTID":476041},"geometry":{"x":165955.53000000119,"y":2540704.9500000011}},{"attributes":{"ID":476067,"DIS_CODE":0,"TOWNNAME":"南區","LI":"彰南里","LIN":"18鄰","STREET":"新和橫路","SECT":" ","MAREA":" ","LANE":" ","ALLEY":" ","HOUSE_NO":"３號","E_COORD97":165932.73000000001,"N_COORD97":2540712.1099999999,"ADDRESS":"新和橫路３號","OBJECTID":476042},"geometry":{"x":165932.73000000138,"y":2540712.1100000013}},{"attributes":{"ID":476068,"DIS_CODE":0,"TOWNNAME":"南區","LI":"彰南里","LIN":"18鄰","STREET":"新樂路","SECT":" ","MAREA":" ","LANE":" ","ALLEY":" ","HOUSE_NO":"７１號","E_COORD97":165615.79999999999,"N_COORD97":2540630.46,"ADDRESS":"新樂路７１號","OBJECTID":476043},"geometry":{"x":165615.80000000168,"y":2540630.4600000009}},{"attributes":{"ID":476069,"DIS_CODE":0,"TOWNNAME":"南區","LI":"彰南里","LIN":"18鄰","STREET":"新平路","SECT":" ","MAREA":" ","LANE":" ","ALLEY":" ","HOUSE_NO":"２號","E_COORD97":166165.59,"N_COORD97":2540626.2000000002,"ADDRESS":"新平路２號","OBJECTID":476044},"geometry":{"x":166165.59000000078,"y":2540626.2000000011}},{"attributes":{"ID":476070,"DIS_CODE":0,"TOWNNAME":"南區","LI":"彰南里","LIN":"18鄰","STREET":"新平路","SECT":" ","MAREA":" ","LANE":" ","ALLEY":" ","HOUSE_NO":"２號之１","E_COORD97":166149.95999999999,"N_COORD97":2540625.5499999998,"ADDRESS":"新平路２號之１","OBJECTID":476045},"geometry":{"x":166149.95999999996,"y":2540625.5500000026}},{"attributes":{"ID":476071,"DIS_CODE":0,"TOWNNAME":"南區","LI":"彰南里","LIN":"18鄰","STREET":"新平路","SECT":" ","MAREA":" ","LANE":" ","ALLEY":" ","HOUSE_NO":"４號","E_COORD97":166133.01999999999,"N_COORD97":2540625.5499999998,"ADDRESS":"新平路４號","OBJECTID":476046},"geometry":{"x":166133.02000000048,"y":2540625.5500000026}},{"attributes":{"ID":476072,"DIS_CODE":0,"TOWNNAME":"南區","LI":"彰南里","LIN":"18鄰","STREET":"新平路","SECT":" ","MAREA":" ","LANE":" ","ALLEY":" ","HOUSE_NO":"６號之１","E_COORD97":166088.07999999999,"N_COORD97":2540624.25,"ADDRESS":"新平路６號之１","OBJECTID":476047},"geometry":{"x":166088.08000000007,"y":2540624.25}},{"attributes":{"ID":476073,"DIS_CODE":0,"TOWNNAME":"南區","LI":"彰南里","LIN":"18鄰","STREET":"新和路","SECT":" ","MAREA":" ","LANE":" ","ALLEY":" ","HOUSE_NO":"３１號","E_COORD97":165718.16,"N_COORD97":2540882.0499999998,"ADDRESS":"新和路３１號","OBJECTID":476048},"geometry":{"x":165718.16000000015,"y":2540882.0500000045}},{"attributes":{"ID":476074,"DIS_CODE":0,"TOWNNAME":"南區","LI":"廣州里","LIN":"18鄰","STREET":"福吉三街","SECT":" ","MAREA":" ","LANE":" ","ALLEY":" ","HOUSE_NO":"５號","E_COORD97":167340.41,"N_COORD97":2542629.27,"ADDRESS":"福吉三街５號","OBJECTID":476049},"geometry":{"x":167340.41000000015,"y":2542629.2700000014}},{"attributes":{"ID":476075,"DIS_CODE":0,"TOWNNAME":"南區","LI":"廣州里","LIN":"18鄰","STREET":"福吉三街","SECT":" ","MAREA":" ","LANE":" ","ALLEY":" ","HOUSE_NO":"９號","E_COORD97":167331.54999999999,"N_COORD97":2542634.3300000001,"ADDRESS":"福吉三街９號","OBJECTID":476050},"geometry":{"x":167331.55000000075,"y":2542634.3300000001}},{"attributes":{"ID":476076,"DIS_CODE":0,"TOWNNAME":"南區","LI":"廣州里","LIN":"18鄰","STREET":"福吉三街","SECT":" ","MAREA":" ","LANE":" ","ALLEY":" ","HOUSE_NO":"１１號","E_COORD97":167328.59,"N_COORD97":2542637.29,"ADDRESS":"福吉三街１１號","OBJECTID":476051},"geometry":{"x":167328.58999999985,"y":2542637.2899999991}},{"attributes":{"ID":476077,"DIS_CODE":0,"TOWNNAME":"南區","LI":"廣州里","LIN":"18鄰","STREET":"福吉三街","SECT":" ","MAREA":" ","LANE":" ","ALLEY":" ","HOUSE_NO":"１５號","E_COORD97":167322.67999999999,"N_COORD97":2542644.0299999998,"ADDRESS":"福吉三街１５號","OBJECTID":476052},"geometry":{"x":167322.6799999997,"y":2542644.0300000012}},{"attributes":{"ID":476078,"DIS_CODE":0,"TOWNNAME":"南區","LI":"廣州里","LIN":"18鄰","STREET":"福吉三街","SECT":" ","MAREA":" ","LANE":" ","ALLEY":" ","HOUSE_NO":"１７號","E_COORD97":167318.45999999999,"N_COORD97":2542648.25,"ADDRESS":"福吉三街１７號","OBJECTID":476053},"geometry":{"x":167318.46000000183,"y":2542648.25}},{"attributes":{"ID":476079,"DIS_CODE":0,"TOWNNAME":"南區","LI":"廣州里","LIN":"18鄰","STREET":"福吉三街","SECT":" ","MAREA":" ","LANE":" ","ALLEY":" ","HOUSE_NO":"１９號","E_COORD97":167316.35000000001,"N_COORD97":2542650.7799999998,"ADDRESS":"福吉三街１９號","OBJECTID":476054},"geometry":{"x":167316.34999999963,"y":2542650.7799999993}},{"attributes":{"ID":476080,"DIS_CODE":0,"TOWNNAME":"南區","LI":"廣州里","LIN":"18鄰","STREET":"福吉三街","SECT":" ","MAREA":" ","LANE":" ","ALLEY":" ","HOUSE_NO":"２１號","E_COORD97":167313.39000000001,"N_COORD97":2542654.9900000002,"ADDRESS":"福吉三街２１號","OBJECTID":476055},"geometry":{"x":167313.38999999966,"y":2542654.9900000039}},{"attributes":{"ID":476081,"DIS_CODE":0,"TOWNNAME":"南區","LI":"廣州里","LIN":"18鄰","STREET":"福吉三街","SECT":" ","MAREA":" ","LANE":" ","ALLEY":" ","HOUSE_NO":"２３號","E_COORD97":167307.89999999999,"N_COORD97":2542656.6800000002,"ADDRESS":"福吉三街２３號","OBJECTID":476056},"geometry":{"x":167307.9000000013,"y":2542656.6800000016}},{"attributes":{"ID":476082,"DIS_CODE":0,"TOWNNAME":"南區","LI":"廣州里","LIN":"18鄰","STREET":"福吉三街","SECT":" ","MAREA":" ","LANE":" ","ALLEY":" ","HOUSE_NO":"２５號","E_COORD97":167305.37,"N_COORD97":2542659.21,"ADDRESS":"福吉三街２５號","OBJECTID":476057},"geometry":{"x":167305.37000000011,"y":2542659.2100000009}},{"attributes":{"ID":476083,"DIS_CODE":0,"TOWNNAME":"南區","LI":"廣州里","LIN":"18鄰","STREET":"福吉三街","SECT":" ","MAREA":" ","LANE":" ","ALLEY":" ","HOUSE_NO":"２７號","E_COORD97":167303.26000000001,"N_COORD97":2542663.4300000002,"ADDRESS":"福吉三街２７號","OBJECTID":476058},"geometry":{"x":167303.26000000071,"y":2542663.4299999997}},{"attributes":{"ID":476084,"DIS_CODE":0,"TOWNNAME":"南區","LI":"廣州里","LIN":"18鄰","STREET":"福吉三街","SECT":" ","MAREA":" ","LANE":" ","ALLEY":" ","HOUSE_NO":"２９號","E_COORD97":167299.45999999999,"N_COORD97":2542666.7999999998,"ADDRESS":"福吉三街２９號","OBJECTID":476059},"geometry":{"x":167299.45999999996,"y":2542666.8000000045}},{"attributes":{"ID":476085,"DIS_CODE":0,"TOWNNAME":"南區","LI":"廣州里","LIN":"18鄰","STREET":"福吉三街","SECT":" ","MAREA":" ","LANE":" ","ALLEY":" ","HOUSE_NO":"３１號","E_COORD97":167296.92000000001,"N_COORD97":2542670.1699999999,"ADDRESS":"福吉三街３１號","OBJECTID":476060},"geometry":{"x":167296.92000000086,"y":2542670.1700000037}},{"attributes":{"ID":476086,"DIS_CODE":0,"TOWNNAME":"南區","LI":"廣州里","LIN":"18鄰","STREET":"福吉三街","SECT":" ","MAREA":" ","LANE":" ","ALLEY":" ","HOUSE_NO":"３３號","E_COORD97":167293.12,"N_COORD97":2542672.7000000002,"ADDRESS":"福吉三街３３號","OBJECTID":476061},"geometry":{"x":167293.12000000011,"y":2542672.700000003}},{"attributes":{"ID":476087,"DIS_CODE":0,"TOWNNAME":"南區","LI":"廣州里","LIN":"18鄰","STREET":"福吉三街","SECT":" ","MAREA":" ","LANE":" ","ALLEY":" ","HOUSE_NO":"３５號","E_COORD97":167289.32000000001,"N_COORD97":2542676.0800000001,"ADDRESS":"福吉三街３５號","OBJECTID":476062},"geometry":{"x":167289.32000000216,"y":2542676.0800000019}},{"attributes":{"ID":476088,"DIS_CODE":0,"TOWNNAME":"南區","LI":"廣州里","LIN":"18鄰","STREET":"福吉三街","SECT":" ","MAREA":" ","LANE":" ","ALLEY":" ","HOUSE_NO":"３７號","E_COORD97":167287.20999999999,"N_COORD97":2542679.4500000002,"ADDRESS":"福吉三街３７號","OBJECTID":476063},"geometry":{"x":167287.20999999996,"y":2542679.4500000011}},{"attributes":{"ID":476089,"DIS_CODE":0,"TOWNNAME":"南區","LI":"廣州里","LIN":"18鄰","STREET":"福吉三街","SECT":" ","MAREA":" ","LANE":" ","ALLEY":" ","HOUSE_NO":"３９號","E_COORD97":167282.98999999999,"N_COORD97":2542682.3999999999,"ADDRESS":"福吉三街３９號","OBJECTID":476064},"geometry":{"x":167282.99000000209,"y":2542682.4000000004}},{"attributes":{"ID":476090,"DIS_CODE":0,"TOWNNAME":"南區","LI":"廣州里","LIN":"18鄰","STREET":"福吉四街","SECT":" ","MAREA":" ","LANE":" ","ALLEY":" ","HOUSE_NO":"２號","E_COORD97":167320.57000000001,"N_COORD97":2542604.3999999999,"ADDRESS":"福吉四街２號","OBJECTID":476065},"geometry":{"x":167320.57000000123,"y":2542604.4000000004}},{"attributes":{"ID":476091,"DIS_CODE":0,"TOWNNAME":"南區","LI":"廣州里","LIN":"18鄰","STREET":"福吉四街","SECT":" ","MAREA":" ","LANE":" ","ALLEY":" ","HOUSE_NO":"１４號","E_COORD97":167300.72,"N_COORD97":2542622.9500000002,"ADDRESS":"福吉四街１４號","OBJECTID":476066},"geometry":{"x":167300.71999999974,"y":2542622.9499999993}},{"attributes":{"ID":476092,"DIS_CODE":0,"TOWNNAME":"南區","LI":"廣州里","LIN":"18鄰","STREET":"福吉四街","SECT":" ","MAREA":" ","LANE":" ","ALLEY":" ","HOUSE_NO":"１６號","E_COORD97":167296.5,"N_COORD97":2542625.48,"ADDRESS":"福吉四街１６號","OBJECTID":476067},"geometry":{"x":167296.50000000093,"y":2542625.4800000023}},{"attributes":{"ID":476093,"DIS_CODE":0,"TOWNNAME":"南區","LI":"廣州里","LIN":"18鄰","STREET":"福吉四街","SECT":" ","MAREA":" ","LANE":" ","ALLEY":" ","HOUSE_NO":"１８號","E_COORD97":167292.70000000001,"N_COORD97":2542628.8500000001,"ADDRESS":"福吉四街１８號","OBJECTID":476068},"geometry":{"x":167292.70000000019,"y":2542628.8500000015}},{"attributes":{"ID":476094,"DIS_CODE":0,"TOWNNAME":"南區","LI":"廣州里","LIN":"18鄰","STREET":"福吉四街","SECT":" ","MAREA":" ","LANE":" ","ALLEY":" ","HOUSE_NO":"２４號","E_COORD97":167283.84,"N_COORD97":2542639.3900000001,"ADDRESS":"福吉四街２４號","OBJECTID":476069},"geometry":{"x":167283.84000000078,"y":2542639.3900000025}},{"attributes":{"ID":476095,"DIS_CODE":0,"TOWNNAME":"南區","LI":"廣州里","LIN":"18鄰","STREET":"福吉四街","SECT":" ","MAREA":" ","LANE":" ","ALLEY":" ","HOUSE_NO":"２６號","E_COORD97":167280.45999999999,"N_COORD97":2542643.1899999999,"ADDRESS":"福吉四街２６號","OBJECTID":476070},"geometry":{"x":167280.45999999996,"y":2542643.1900000013}},{"attributes":{"ID":476096,"DIS_CODE":0,"TOWNNAME":"南區","LI":"廣州里","LIN":"18鄰","STREET":"福吉四街","SECT":" ","MAREA":" ","LANE":" ","ALLEY":" ","HOUSE_NO":"２８號","E_COORD97":167277.07999999999,"N_COORD97":2542645.7200000002,"ADDRESS":"福吉四街２８號","OBJECTID":476071},"geometry":{"x":167277.08000000194,"y":2542645.7200000007}},{"attributes":{"ID":476097,"DIS_CODE":0,"TOWNNAME":"南區","LI":"廣州里","LIN":"18鄰","STREET":"福吉四街","SECT":" ","MAREA":" ","LANE":" ","ALLEY":" ","HOUSE_NO":"３０號","E_COORD97":167273.70000000001,"N_COORD97":2542648.6699999999,"ADDRESS":"福吉四街３０號","OBJECTID":476072},"geometry":{"x":167273.70000000112,"y":2542648.6699999999}},{"attributes":{"ID":476098,"DIS_CODE":0,"TOWNNAME":"南區","LI":"廣州里","LIN":"18鄰","STREET":"福吉四街","SECT":" ","MAREA":" ","LANE":" ","ALLEY":" ","HOUSE_NO":"３２號","E_COORD97":167272.01000000001,"N_COORD97":2542651.2000000002,"ADDRESS":"福吉四街３２號","OBJECTID":476073},"geometry":{"x":167272.00999999978,"y":2542651.1999999993}},{"attributes":{"ID":476099,"DIS_CODE":0,"TOWNNAME":"南區","LI":"廣州里","LIN":"18鄰","STREET":"福吉四街","SECT":" ","MAREA":" ","LANE":" ","ALLEY":" ","HOUSE_NO":"３４號","E_COORD97":167269.48000000001,"N_COORD97":2542654.9900000002,"ADDRESS":"福吉四街３４號","OBJECTID":476074},"geometry":{"x":167269.48000000045,"y":2542654.9900000039}},{"attributes":{"ID":476100,"DIS_CODE":0,"TOWNNAME":"南區","LI":"廣州里","LIN":"18鄰","STREET":"福吉四街","SECT":" ","MAREA":" ","LANE":" ","ALLEY":" ","HOUSE_NO":"３６號","E_COORD97":167265.67999999999,"N_COORD97":2542657.9500000002,"ADDRESS":"福吉四街３６號","OBJECTID":476075},"geometry":{"x":167265.6799999997,"y":2542657.9500000011}},{"attributes":{"ID":476101,"DIS_CODE":0,"TOWNNAME":"南區","LI":"廣州里","LIN":"18鄰","STREET":"福吉四街","SECT":" ","MAREA":" ","LANE":" ","ALLEY":" ","HOUSE_NO":"３８號","E_COORD97":167263.14999999999,"N_COORD97":2542660.8999999999,"ADDRESS":"福吉四街３８號","OBJECTID":476076},"geometry":{"x":167263.15000000037,"y":2542660.9000000004}},{"attributes":{"ID":476102,"DIS_CODE":0,"TOWNNAME":"南區","LI":"廣州里","LIN":"18鄰","STREET":"福吉四街","SECT":" ","MAREA":" ","LANE":" ","ALLEY":" ","HOUSE_NO":"５０號","E_COORD97":167246.26000000001,"N_COORD97":2542682.3999999999,"ADDRESS":"福吉四街５０號","OBJECTID":476077},"geometry":{"x":167246.25999999978,"y":2542682.4000000004}},{"attributes":{"ID":476103,"DIS_CODE":0,"TOWNNAME":"南區","LI":"廣州里","LIN":"18鄰","STREET":"福吉路","SECT":" ","MAREA":" ","LANE":" ","ALLEY":" ","HOUSE_NO":"２２號之１","E_COORD97":167348.85999999999,"N_COORD97":2542620.4199999999,"ADDRESS":"福吉路２２號之１","OBJECTID":476078},"geometry":{"x":167348.86000000127,"y":2542620.4199999999}},{"attributes":{"ID":476104,"DIS_CODE":0,"TOWNNAME":"南區","LI":"廣州里","LIN":"18鄰","STREET":"福吉路","SECT":" ","MAREA":" ","LANE":" ","ALLEY":" ","HOUSE_NO":"２６號","E_COORD97":167342.51999999999,"N_COORD97":2542611.9900000002,"ADDRESS":"福吉路２６號","OBJECTID":476079},"geometry":{"x":167342.51999999955,"y":2542611.9900000021}},{"attributes":{"ID":476105,"DIS_CODE":0,"TOWNNAME":"南區","LI":"廣州里","LIN":"18鄰","STREET":"福吉路","SECT":" ","MAREA":" ","LANE":" ","ALLEY":" ","HOUSE_NO":"２８號","E_COORD97":167340.41,"N_COORD97":2542608.6099999999,"ADDRESS":"福吉路２８號","OBJECTID":476080},"geometry":{"x":167340.41000000015,"y":2542608.6099999994}},{"attributes":{"ID":476106,"DIS_CODE":0,"TOWNNAME":"南區","LI":"廣州里","LIN":"18鄰","STREET":"福吉路","SECT":" ","MAREA":" ","LANE":" ","ALLEY":" ","HOUSE_NO":"３０號","E_COORD97":167336.60999999999,"N_COORD97":2542604.3999999999,"ADDRESS":"福吉路３０號","OBJECTID":476081},"geometry":{"x":167336.6100000022,"y":2542604.4000000004}},{"attributes":{"ID":476107,"DIS_CODE":0,"TOWNNAME":"南區","LI":"廣州里","LIN":"18鄰","STREET":"福吉路","SECT":" ","MAREA":" ","LANE":" ","ALLEY":" ","HOUSE_NO":"３２號","E_COORD97":167333.66,"N_COORD97":2542601.02,"ADDRESS":"福吉路３２號","OBJECTID":476082},"geometry":{"x":167333.66000000015,"y":2542601.0200000014}},{"attributes":{"ID":476108,"DIS_CODE":0,"TOWNNAME":"南區","LI":"廣州里","LIN":"18鄰","STREET":"福吉路","SECT":" ","MAREA":" ","LANE":" ","ALLEY":" ","HOUSE_NO":"３４號","E_COORD97":167328.17000000001,"N_COORD97":2542596.8100000001,"ADDRESS":"福吉路３４號","OBJECTID":476083},"geometry":{"x":167328.16999999993,"y":2542596.8100000024}},{"attributes":{"ID":476109,"DIS_CODE":0,"TOWNNAME":"南區","LI":"彰南里","LIN":"18鄰","STREET":"中華西路","SECT":"一段","MAREA":" ","LANE":" ","ALLEY":" ","HOUSE_NO":"２３號","E_COORD97":166232.10999999999,"N_COORD97":2540698.5699999998,"ADDRESS":"中華西路一段２３號","OBJECTID":476084},"geometry":{"x":166232.11000000034,"y":2540698.5700000022}},{"attributes":{"ID":476110,"DIS_CODE":0,"TOWNNAME":"安南區","LI":"大安里","LIN":"18鄰","STREET":"義安街","SECT":" ","MAREA":" ","LANE":" ","ALLEY":" ","HOUSE_NO":"１６２號","E_COORD97":167561.95999999999,"N_COORD97":2548231.1200000001,"ADDRESS":"義安街１６２號","OBJECTID":476085},"geometry":{"x":167561.95999999996,"y":2548231.120000001}},{"attributes":{"ID":476111,"DIS_CODE":0,"TOWNNAME":"安南區","LI":"大安里","LIN":"18鄰","STREET":"義安街","SECT":" ","MAREA":" ","LANE":" ","ALLEY":" ","HOUSE_NO":"１６０號","E_COORD97":167559.07999999999,"N_COORD97":2548227.8399999999,"ADDRESS":"義安街１６０號","OBJECTID":476086},"geometry":{"x":167559.08000000101,"y":2548227.8399999999}},{"attributes":{"ID":476112,"DIS_CODE":0,"TOWNNAME":"安南區","LI":"大安里","LIN":"18鄰","STREET":"義安街","SECT":" ","MAREA":" ","LANE":" ","ALLEY":" ","HOUSE_NO":"１６４號","E_COORD97":167564.20999999999,"N_COORD97":2548234.8100000001,"ADDRESS":"義安街１６４號","OBJECTID":476087},"geometry":{"x":167564.21000000183,"y":2548234.8100000024}},{"attributes":{"ID":476113,"DIS_CODE":0,"TOWNNAME":"安南區","LI":"大安里","LIN":"18鄰","STREET":"義安街","SECT":" ","MAREA":" ","LANE":" ","ALLEY":" ","HOUSE_NO":"１６８號","E_COORD97":167568.13,"N_COORD97":2548243.6899999999,"ADDRESS":"義安街１６８號","OBJECTID":476088},"geometry":{"x":167568.13000000175,"y":2548243.6900000032}},{"attributes":{"ID":476114,"DIS_CODE":0,"TOWNNAME":"安南區","LI":"大安里","LIN":"18鄰","STREET":"義安街","SECT":" ","MAREA":" ","LANE":" ","ALLEY":" ","HOUSE_NO":"１７２號","E_COORD97":167574.32000000001,"N_COORD97":2548252.3100000001,"ADDRESS":"義安街１７２號","OBJECTID":476089},"geometry":{"x":167574.32000000123,"y":2548252.3100000005}},{"attributes":{"ID":476115,"DIS_CODE":0,"TOWNNAME":"安南區","LI":"大安里","LIN":"18鄰","STREET":"義安街","SECT":" ","MAREA":" ","LANE":" ","ALLEY":" ","HOUSE_NO":"１７４號","E_COORD97":167576.73000000001,"N_COORD97":2548256.3999999999,"ADDRESS":"義安街１７４號","OBJECTID":476090},"geometry":{"x":167576.73000000138,"y":2548256.4000000041}},{"attributes":{"ID":476116,"DIS_CODE":0,"TOWNNAME":"安南區","LI":"大安里","LIN":"18鄰","STREET":"義安街","SECT":" ","MAREA":" ","LANE":" ","ALLEY":" ","HOUSE_NO":"１７６號","E_COORD97":167578.97,"N_COORD97":2548260.7200000002,"ADDRESS":"義安街１７６號","OBJECTID":476091},"geometry":{"x":167578.96999999974,"y":2548260.7200000007}},{"attributes":{"ID":476117,"DIS_CODE":0,"TOWNNAME":"安南區","LI":"大安里","LIN":"18鄰","STREET":"義安街","SECT":" ","MAREA":" ","LANE":" ","ALLEY":" ","HOUSE_NO":"１７８號","E_COORD97":167581.76999999999,"N_COORD97":2548264.2400000002,"ADDRESS":"義安街１７８號","OBJECTID":476092},"geometry":{"x":167581.76999999955,"y":2548264.2400000039}},{"attributes":{"ID":476118,"DIS_CODE":0,"TOWNNAME":"安南區","LI":"大安里","LIN":"18鄰","STREET":"義安街","SECT":" ","MAREA":" ","LANE":" ","ALLEY":" ","HOUSE_NO":"１８０號","E_COORD97":167583.62,"N_COORD97":2548268.3999999999,"ADDRESS":"義安街１８０號","OBJECTID":476093},"geometry":{"x":167583.61999999918,"y":2548268.4000000004}},{"attributes":{"ID":476119,"DIS_CODE":0,"TOWNNAME":"安南區","LI":"大安里","LIN":"18鄰","STREET":"義安街","SECT":" ","MAREA":" ","LANE":" ","ALLEY":" ","HOUSE_NO":"１８２號","E_COORD97":167585.78,"N_COORD97":2548272.48,"ADDRESS":"義安街１８２號","OBJECTID":476094},"geometry":{"x":167585.78000000026,"y":2548272.4800000004}},{"attributes":{"ID":476120,"DIS_CODE":0,"TOWNNAME":"安南區","LI":"大安里","LIN":"18鄰","STREET":"義安街","SECT":" ","MAREA":" ","LANE":" ","ALLEY":" ","HOUSE_NO":"１８６號","E_COORD97":167592.53,"N_COORD97":2548281.23,"ADDRESS":"義安街１８６號","OBJECTID":476095},"geometry":{"x":167592.53000000026,"y":2548281.2299999986}},{"attributes":{"ID":476121,"DIS_CODE":0,"TOWNNAME":"安南區","LI":"大安里","LIN":"18鄰","STREET":"義安街","SECT":" ","MAREA":" ","LANE":" ","ALLEY":" ","HOUSE_NO":"１８８號","E_COORD97":167594.76999999999,"N_COORD97":2548285.48,"ADDRESS":"義安街１８８號","OBJECTID":476096},"geometry":{"x":167594.77000000048,"y":2548285.4800000004}},{"attributes":{"ID":476122,"DIS_CODE":0,"TOWNNAME":"安南區","LI":"大安里","LIN":"18鄰","STREET":"義安街","SECT":" ","MAREA":" ","LANE":" ","ALLEY":" ","HOUSE_NO":"１９０號","E_COORD97":167596.62,"N_COORD97":2548289.6400000001,"ADDRESS":"義安街１９０號","OBJECTID":476097},"geometry":{"x":167596.62000000011,"y":2548289.6400000025}},{"attributes":{"ID":476123,"DIS_CODE":0,"TOWNNAME":"安南區","LI":"溪心里","LIN":"18鄰","STREET":"仁安二街","SECT":" ","MAREA":" ","LANE":" ","ALLEY":" ","HOUSE_NO":"２３號","E_COORD97":165957,"N_COORD97":2550121.96,"ADDRESS":"仁安二街２３號","OBJECTID":476098},"geometry":{"x":165957.00000000186,"y":2550121.9600000028}},{"attributes":{"ID":476124,"DIS_CODE":0,"TOWNNAME":"安南區","LI":"溪心里","LIN":"18鄰","STREET":"仁安二街","SECT":" ","MAREA":" ","LANE":" ","ALLEY":" ","HOUSE_NO":"１１號","E_COORD97":165940.10999999999,"N_COORD97":2550108.5099999998,"ADDRESS":"仁安二街１１號","OBJECTID":476099},"geometry":{"x":165940.11000000127,"y":2550108.5099999998}},{"attributes":{"ID":476125,"DIS_CODE":0,"TOWNNAME":"安南區","LI":"溪心里","LIN":"18鄰","STREET":"仁安二街","SECT":" ","MAREA":" ","LANE":" ","ALLEY":" ","HOUSE_NO":"１９號","E_COORD97":165950.97,"N_COORD97":2550115.8300000001,"ADDRESS":"仁安二街１９號","OBJECTID":476100},"geometry":{"x":165950.97000000067,"y":2550115.8300000019}},{"attributes":{"ID":476126,"DIS_CODE":0,"TOWNNAME":"安南區","LI":"溪心里","LIN":"18鄰","STREET":"仁安二街","SECT":" ","MAREA":" ","LANE":" ","ALLEY":" ","HOUSE_NO":"１號","E_COORD97":165921.81,"N_COORD97":2550094.5699999998,"ADDRESS":"仁安二街１號","OBJECTID":476101},"geometry":{"x":165921.80999999959,"y":2550094.5700000003}},{"attributes":{"ID":476127,"DIS_CODE":0,"TOWNNAME":"安南區","LI":"溪心里","LIN":"18鄰","STREET":"仁安二街","SECT":" ","MAREA":" ","LANE":" ","ALLEY":" ","HOUSE_NO":"２１號","E_COORD97":165953.92999999999,"N_COORD97":2550119.48,"ADDRESS":"仁安二街２１號","OBJECTID":476102},"geometry":{"x":165953.93000000063,"y":2550119.4800000004}},{"attributes":{"ID":476128,"DIS_CODE":0,"TOWNNAME":"安南區","LI":"溪心里","LIN":"18鄰","STREET":"仁安二街","SECT":" ","MAREA":" ","LANE":" ","ALLEY":" ","HOUSE_NO":"２５號","E_COORD97":165960.66,"N_COORD97":2550126.0899999999,"ADDRESS":"仁安二街２５號","OBJECTID":476103},"geometry":{"x":165960.66000000015,"y":2550126.0900000036}},{"attributes":{"ID":476129,"DIS_CODE":0,"TOWNNAME":"安南區","LI":"溪心里","LIN":"18鄰","STREET":"仁安二街","SECT":" ","MAREA":" ","LANE":" ","ALLEY":" ","HOUSE_NO":"３９號","E_COORD97":165990.76000000001,"N_COORD97":2550143.4399999999,"ADDRESS":"仁安二街３９號","OBJECTID":476104},"geometry":{"x":165990.76000000071,"y":2550143.4399999995}},{"attributes":{"ID":476130,"DIS_CODE":0,"TOWNNAME":"安南區","LI":"溪心里","LIN":"18鄰","STREET":"仁安二街","SECT":" ","MAREA":" ","LANE":" ","ALLEY":" ","HOUSE_NO":"３號","E_COORD97":165926.06,"N_COORD97":2550097.3999999999,"ADDRESS":"仁安二街３號","OBJECTID":476105},"geometry":{"x":165926.06000000052,"y":2550097.4000000041}},{"attributes":{"ID":476131,"DIS_CODE":0,"TOWNNAME":"安南區","LI":"溪心里","LIN":"18鄰","STREET":"仁安二街","SECT":" ","MAREA":" ","LANE":" ","ALLEY":" ","HOUSE_NO":"４３號","E_COORD97":165997.54000000001,"N_COORD97":2550149.2400000002,"ADDRESS":"仁安二街４３號","OBJECTID":476106},"geometry":{"x":165997.5400000019,"y":2550149.2400000039}},{"attributes":{"ID":476132,"DIS_CODE":0,"TOWNNAME":"安南區","LI":"溪心里","LIN":"18鄰","STREET":"仁安二街","SECT":" ","MAREA":" ","LANE":" ","ALLEY":" ","HOUSE_NO":"４５號","E_COORD97":166001.64999999999,"N_COORD97":2550151.54,"ADDRESS":"仁安二街４５號","OBJECTID":476107},"geometry":{"x":166001.65000000037,"y":2550151.5399999991}},{"attributes":{"ID":476133,"DIS_CODE":0,"TOWNNAME":"安南區","LI":"溪心里","LIN":"18鄰","STREET":"仁安二街","SECT":" ","MAREA":" ","LANE":" ","ALLEY":" ","HOUSE_NO":"５號","E_COORD97":165929.72,"N_COORD97":2550100.02,"ADDRESS":"仁安二街５號","OBJECTID":476108},"geometry":{"x":165929.71999999881,"y":2550100.0200000014}},{"attributes":{"ID":476134,"DIS_CODE":0,"TOWNNAME":"安南區","LI":"溪心里","LIN":"18鄰","STREET":"仁安二街","SECT":" ","MAREA":" ","LANE":" ","ALLEY":" ","HOUSE_NO":"７號","E_COORD97":165933.5,"N_COORD97":2550102.1400000001,"ADDRESS":"仁安二街７號","OBJECTID":476109},"geometry":{"x":165933.50000000093,"y":2550102.1400000006}},{"attributes":{"ID":476135,"DIS_CODE":0,"TOWNNAME":"安南區","LI":"溪心里","LIN":"18鄰","STREET":"仁安二街","SECT":" ","MAREA":" ","LANE":" ","ALLEY":" ","HOUSE_NO":"９號","E_COORD97":165937.04000000001,"N_COORD97":2550105.3300000001,"ADDRESS":"仁安二街９號","OBJECTID":476110},"geometry":{"x":165937.04000000097,"y":2550105.3300000019}},{"attributes":{"ID":476136,"DIS_CODE":0,"TOWNNAME":"安南區","LI":"溪心里","LIN":"18鄰","STREET":"仁安六街","SECT":" ","MAREA":" ","LANE":" ","ALLEY":" ","HOUSE_NO":"１號","E_COORD97":166075.42000000001,"N_COORD97":2549944.5,"ADDRESS":"仁安六街１號","OBJECTID":476111},"geometry":{"x":166075.41999999993,"y":2549944.5000000019}},{"attributes":{"ID":476137,"DIS_CODE":0,"TOWNNAME":"安南區","LI":"溪心里","LIN":"18鄰","STREET":"仁安四街","SECT":" ","MAREA":" ","LANE":" ","ALLEY":" ","HOUSE_NO":"１１號","E_COORD97":166049.62,"N_COORD97":2550075.7999999998,"ADDRESS":"仁安四街１１號","OBJECTID":476112},"geometry":{"x":166049.62000000197,"y":2550075.8000000026}},{"attributes":{"ID":476138,"DIS_CODE":0,"TOWNNAME":"安南區","LI":"溪心里","LIN":"18鄰","STREET":"仁安四街","SECT":" ","MAREA":" ","LANE":" ","ALLEY":" ","HOUSE_NO":"１６號","E_COORD97":166035.14000000001,"N_COORD97":2550030.6699999999,"ADDRESS":"仁安四街１６號","OBJECTID":476113},"geometry":{"x":166035.13999999966,"y":2550030.6700000037}},{"attributes":{"ID":476139,"DIS_CODE":0,"TOWNNAME":"安南區","LI":"溪心里","LIN":"18鄰","STREET":"仁安四街","SECT":" ","MAREA":" ","LANE":" ","ALLEY":" ","HOUSE_NO":"１號","E_COORD97":166030.17999999999,"N_COORD97":2550060.2999999998,"ADDRESS":"仁安四街１號","OBJECTID":476114},"geometry":{"x":166030.18000000156,"y":2550060.3000000007}},{"attributes":{"ID":476140,"DIS_CODE":0,"TOWNNAME":"安南區","LI":"溪心里","LIN":"18鄰","STREET":"仁安四街","SECT":" ","MAREA":" ","LANE":" ","ALLEY":" ","HOUSE_NO":"２號","E_COORD97":166013.51000000001,"N_COORD97":2550016.1099999999,"ADDRESS":"仁安四街２號","OBJECTID":476115},"geometry":{"x":166013.50999999978,"y":2550016.1099999994}},{"attributes":{"ID":476141,"DIS_CODE":0,"TOWNNAME":"安南區","LI":"溪心里","LIN":"18鄰","STREET":"仁安四街","SECT":" ","MAREA":" ","LANE":" ","ALLEY":" ","HOUSE_NO":"３號","E_COORD97":166034.64000000001,"N_COORD97":2550062.6400000001,"ADDRESS":"仁安四街３號","OBJECTID":476116},"geometry":{"x":166034.63999999966,"y":2550062.6400000025}},{"attributes":{"ID":476142,"DIS_CODE":0,"TOWNNAME":"安南區","LI":"溪心里","LIN":"18鄰","STREET":"仁安四街","SECT":" ","MAREA":" ","LANE":" ","ALLEY":" ","HOUSE_NO":"４號","E_COORD97":166016.67000000001,"N_COORD97":2550018.3100000001,"ADDRESS":"仁安四街４號","OBJECTID":476117},"geometry":{"x":166016.66999999899,"y":2550018.3100000024}},{"attributes":{"ID":476143,"DIS_CODE":0,"TOWNNAME":"安南區","LI":"溪心里","LIN":"18鄰","STREET":"仁安四街","SECT":" ","MAREA":" ","LANE":" ","ALLEY":" ","HOUSE_NO":"５號","E_COORD97":166038.85000000001,"N_COORD97":2550066.0699999998,"ADDRESS":"仁安四街５號","OBJECTID":476118},"geometry":{"x":166038.84999999963,"y":2550066.0700000022}},{"attributes":{"ID":476144,"DIS_CODE":0,"TOWNNAME":"安南區","LI":"溪心里","LIN":"18鄰","STREET":"仁安四街","SECT":" ","MAREA":" ","LANE":" ","ALLEY":" ","HOUSE_NO":"６號","E_COORD97":166020.98000000001,"N_COORD97":2550020.0499999998,"ADDRESS":"仁安四街６號","OBJECTID":476119},"geometry":{"x":166020.98000000138,"y":2550020.0500000026}},{"attributes":{"ID":476145,"DIS_CODE":0,"TOWNNAME":"安南區","LI":"溪心里","LIN":"18鄰","STREET":"仁安四街","SECT":" ","MAREA":" ","LANE":" ","ALLEY":" ","HOUSE_NO":"７號","E_COORD97":166042.04000000001,"N_COORD97":2550069.3700000001,"ADDRESS":"仁安四街７號","OBJECTID":476120},"geometry":{"x":166042.04000000097,"y":2550069.3700000029}},{"attributes":{"ID":476146,"DIS_CODE":0,"TOWNNAME":"安南區","LI":"溪心里","LIN":"18鄰","STREET":"仁安四街","SECT":" ","MAREA":" ","LANE":" ","ALLEY":" ","HOUSE_NO":"９號","E_COORD97":166045.39999999999,"N_COORD97":2550073.2799999998,"ADDRESS":"仁安四街９號","OBJECTID":476121},"geometry":{"x":166045.40000000037,"y":2550073.2799999975}},{"attributes":{"ID":476147,"DIS_CODE":0,"TOWNNAME":"東區","LI":"路東里","LIN":"4鄰","STREET":"大同路","SECT":"二段","MAREA":" ","LANE":" ","ALLEY":" ","HOUSE_NO":"９３號","E_COORD97":169354.23999999999,"N_COORD97":2542155.48,"ADDRESS":"大同路二段９３號","OBJECTID":476122},"geometry":{"x":169354.24000000022,"y":2542155.4800000004}},{"attributes":{"ID":476148,"DIS_CODE":0,"TOWNNAME":"東區","LI":"路東里","LIN":"4鄰","STREET":"大同路","SECT":"二段","MAREA":" ","LANE":" ","ALLEY":" ","HOUSE_NO":"９５號","E_COORD97":169356.59,"N_COORD97":2542148.1000000001,"ADDRESS":"大同路二段９５號","OBJECTID":476123},"geometry":{"x":169356.58999999985,"y":2542148.0999999978}},{"attributes":{"ID":476149,"DIS_CODE":0,"TOWNNAME":"安南區","LI":"溪心里","LIN":"18鄰","STREET":"功安一街","SECT":" ","MAREA":" ","LANE":" ","ALLEY":" ","HOUSE_NO":"１１０號","E_COORD97":166067.10999999999,"N_COORD97":2549929.2400000002,"ADDRESS":"功安一街１１０號","OBJECTID":476124},"geometry":{"x":166067.11000000127,"y":2549929.2400000021}},{"attributes":{"ID":476150,"DIS_CODE":0,"TOWNNAME":"安南區","LI":"溪心里","LIN":"18鄰","STREET":"功安一街","SECT":" ","MAREA":" ","LANE":" ","ALLEY":" ","HOUSE_NO":"１１２號","E_COORD97":166063.23000000001,"N_COORD97":2549932.5099999998,"ADDRESS":"功安一街１１２號","OBJECTID":476125},"geometry":{"x":166063.23000000138,"y":2549932.5099999998}},{"attributes":{"ID":476151,"DIS_CODE":0,"TOWNNAME":"安南區","LI":"溪心里","LIN":"18鄰","STREET":"功安一街","SECT":" ","MAREA":" ","LANE":" ","ALLEY":" ","HOUSE_NO":"１１４號","E_COORD97":166060.51000000001,"N_COORD97":2549936.2200000002,"ADDRESS":"功安一街１１４號","OBJECTID":476126},"geometry":{"x":166060.51000000071,"y":2549936.2200000044}},{"attributes":{"ID":476152,"DIS_CODE":0,"TOWNNAME":"安南區","LI":"溪心里","LIN":"18鄰","STREET":"功安一街","SECT":" ","MAREA":" ","LANE":" ","ALLEY":" ","HOUSE_NO":"１１６號","E_COORD97":166057.63,"N_COORD97":2549939.9300000002,"ADDRESS":"功安一街１１６號","OBJECTID":476127},"geometry":{"x":166057.62999999896,"y":2549939.9299999997}},{"attributes":{"ID":476153,"DIS_CODE":0,"TOWNNAME":"安南區","LI":"溪心里","LIN":"18鄰","STREET":"功安一街","SECT":" ","MAREA":" ","LANE":" ","ALLEY":" ","HOUSE_NO":"１１８號","E_COORD97":166055.07000000001,"N_COORD97":2549943.96,"ADDRESS":"功安一街１１８號","OBJECTID":476128},"geometry":{"x":166055.06999999937,"y":2549943.9600000009}},{"attributes":{"ID":476154,"DIS_CODE":0,"TOWNNAME":"安南區","LI":"溪心里","LIN":"18鄰","STREET":"功安一街","SECT":" ","MAREA":" ","LANE":" ","ALLEY":" ","HOUSE_NO":"１４２號","E_COORD97":166026.42000000001,"N_COORD97":2549980.4199999999,"ADDRESS":"功安一街１４２號","OBJECTID":476129},"geometry":{"x":166026.41999999993,"y":2549980.4199999999}},{"attributes":{"ID":476155,"DIS_CODE":0,"TOWNNAME":"安南區","LI":"溪心里","LIN":"18鄰","STREET":"功安一街","SECT":" ","MAREA":" ","LANE":" ","ALLEY":" ","HOUSE_NO":"１４４號","E_COORD97":166023.89000000001,"N_COORD97":2549983.79,"ADDRESS":"功安一街１４４號","OBJECTID":476130},"geometry":{"x":166023.8900000006,"y":2549983.7899999991}},{"attributes":{"ID":476156,"DIS_CODE":0,"TOWNNAME":"安南區","LI":"溪心里","LIN":"18鄰","STREET":"功安一街","SECT":" ","MAREA":" ","LANE":" ","ALLEY":" ","HOUSE_NO":"１４６號","E_COORD97":166021.45999999999,"N_COORD97":2549987.1600000001,"ADDRESS":"功安一街１４６號","OBJECTID":476131},"geometry":{"x":166021.45999999996,"y":2549987.1600000039}},{"attributes":{"ID":476157,"DIS_CODE":0,"TOWNNAME":"安南區","LI":"溪心里","LIN":"18鄰","STREET":"功安一街","SECT":" ","MAREA":" ","LANE":" ","ALLEY":" ","HOUSE_NO":"１４８號","E_COORD97":166019.25,"N_COORD97":2549990.3300000001,"ADDRESS":"功安一街１４８號","OBJECTID":476132},"geometry":{"x":166019.25,"y":2549990.3300000019}},{"attributes":{"ID":476158,"DIS_CODE":0,"TOWNNAME":"安南區","LI":"溪心里","LIN":"18鄰","STREET":"功安一街","SECT":" ","MAREA":" ","LANE":" ","ALLEY":" ","HOUSE_NO":"１５０號","E_COORD97":166016.19,"N_COORD97":2549993.4900000002,"ADDRESS":"功安一街１５０號","OBJECTID":476133},"geometry":{"x":166016.19000000134,"y":2549993.4900000002}},{"attributes":{"ID":476159,"DIS_CODE":0,"TOWNNAME":"安南區","LI":"溪心里","LIN":"18鄰","STREET":"功安一街","SECT":" ","MAREA":" ","LANE":" ","ALLEY":" ","HOUSE_NO":"１５２號","E_COORD97":166013.64999999999,"N_COORD97":2549996.5600000001,"ADDRESS":"功安一街１５２號","OBJECTID":476134},"geometry":{"x":166013.65000000037,"y":2549996.5600000005}},{"attributes":{"ID":476160,"DIS_CODE":0,"TOWNNAME":"安南區","LI":"溪心里","LIN":"18鄰","STREET":"功安一街","SECT":" ","MAREA":" ","LANE":" ","ALLEY":" ","HOUSE_NO":"１５４號","E_COORD97":166011.54000000001,"N_COORD97":2550001.1000000001,"ADDRESS":"功安一街１５４號","OBJECTID":476135},"geometry":{"x":166011.54000000097,"y":2550001.1000000015}},{"attributes":{"ID":476161,"DIS_CODE":0,"TOWNNAME":"安南區","LI":"溪心里","LIN":"18鄰","STREET":"功安一街","SECT":" ","MAREA":" ","LANE":" ","ALLEY":" ","HOUSE_NO":"１５６號","E_COORD97":166008.59,"N_COORD97":2550005,"ADDRESS":"功安一街１５６號","OBJECTID":476136},"geometry":{"x":166008.58999999985,"y":2550005.0000000037}},{"attributes":{"ID":476162,"DIS_CODE":0,"TOWNNAME":"安南區","LI":"溪心里","LIN":"18鄰","STREET":"功安一街","SECT":" ","MAREA":" ","LANE":" ","ALLEY":" ","HOUSE_NO":"１５８號","E_COORD97":166005.64000000001,"N_COORD97":2550008.79,"ADDRESS":"功安一街１５８號","OBJECTID":476137},"geometry":{"x":166005.6400000006,"y":2550008.7900000028}},{"attributes":{"ID":476163,"DIS_CODE":0,"TOWNNAME":"安南區","LI":"溪心里","LIN":"18鄰","STREET":"功安一街","SECT":" ","MAREA":" ","LANE":" ","ALLEY":" ","HOUSE_NO":"１６０號","E_COORD97":166003,"N_COORD97":2550012.27,"ADDRESS":"功安一街１６０號","OBJECTID":476138},"geometry":{"x":166003.00000000093,"y":2550012.2699999996}},{"attributes":{"ID":476164,"DIS_CODE":0,"TOWNNAME":"安南區","LI":"溪心里","LIN":"18鄰","STREET":"功安一街","SECT":" ","MAREA":" ","LANE":" ","ALLEY":" ","HOUSE_NO":"１６２號","E_COORD97":165985.26999999999,"N_COORD97":2550054.5899999999,"ADDRESS":"功安一街１６２號","OBJECTID":476139},"geometry":{"x":165985.27000000142,"y":2550054.5899999999}},{"attributes":{"ID":476165,"DIS_CODE":0,"TOWNNAME":"安南區","LI":"溪心里","LIN":"18鄰","STREET":"功安二街","SECT":" ","MAREA":" ","LANE":" ","ALLEY":" ","HOUSE_NO":"１０１號","E_COORD97":165934.67999999999,"N_COORD97":2550144.7400000002,"ADDRESS":"功安二街１０１號","OBJECTID":476140},"geometry":{"x":165934.6799999997,"y":2550144.7400000002}},{"attributes":{"ID":476166,"DIS_CODE":0,"TOWNNAME":"安南區","LI":"溪心里","LIN":"18鄰","STREET":"功安二街","SECT":" ","MAREA":" ","LANE":" ","ALLEY":" ","HOUSE_NO":"１０３號","E_COORD97":165931.60999999999,"N_COORD97":2550148.75,"ADDRESS":"功安二街１０３號","OBJECTID":476141},"geometry":{"x":165931.61000000127,"y":2550148.7499999981}},{"attributes":{"ID":476167,"DIS_CODE":0,"TOWNNAME":"安南區","LI":"溪心里","LIN":"18鄰","STREET":"功安二街","SECT":" ","MAREA":" ","LANE":" ","ALLEY":" ","HOUSE_NO":"１２８號","E_COORD97":166020.28,"N_COORD97":2550115.8700000001,"ADDRESS":"功安二街１２８號","OBJECTID":476142},"geometry":{"x":166020.28000000119,"y":2550115.8700000029}},{"attributes":{"ID":476168,"DIS_CODE":0,"TOWNNAME":"安南區","LI":"溪心里","LIN":"18鄰","STREET":"功安二街","SECT":" ","MAREA":" ","LANE":" ","ALLEY":" ","HOUSE_NO":"１４０號","E_COORD97":165970.45000000001,"N_COORD97":2550145.7400000002,"ADDRESS":"功安二街１４０號","OBJECTID":476143},"geometry":{"x":165970.45000000019,"y":2550145.7399999984}},{"attributes":{"ID":476169,"DIS_CODE":0,"TOWNNAME":"安南區","LI":"溪心里","LIN":"18鄰","STREET":"功安二街","SECT":" ","MAREA":" ","LANE":" ","ALLEY":" ","HOUSE_NO":"１４２號","E_COORD97":165967.42999999999,"N_COORD97":2550149.7200000002,"ADDRESS":"功安二街１４２號","OBJECTID":476144},"geometry":{"x":165967.43000000156,"y":2550149.7199999988}},{"attributes":{"ID":476170,"DIS_CODE":0,"TOWNNAME":"安南區","LI":"溪心里","LIN":"18鄰","STREET":"功安二街","SECT":" ","MAREA":" ","LANE":" ","ALLEY":" ","HOUSE_NO":"１４２號之１","E_COORD97":165964.64999999999,"N_COORD97":2550152.5,"ADDRESS":"功安二街１４２號之１","OBJECTID":476145},"geometry":{"x":165964.65000000037,"y":2550152.5}},{"attributes":{"ID":476171,"DIS_CODE":0,"TOWNNAME":"安南區","LI":"溪心里","LIN":"18鄰","STREET":"功安二街","SECT":" ","MAREA":" ","LANE":" ","ALLEY":" ","HOUSE_NO":"１４６號","E_COORD97":165961.38,"N_COORD97":2550156.1299999999,"ADDRESS":"功安二街１４６號","OBJECTID":476146},"geometry":{"x":165961.38000000082,"y":2550156.1300000008}},{"attributes":{"ID":476172,"DIS_CODE":0,"TOWNNAME":"安南區","LI":"溪心里","LIN":"18鄰","STREET":"功安二街","SECT":" ","MAREA":" ","LANE":" ","ALLEY":" ","HOUSE_NO":"１４８號","E_COORD97":165957.14999999999,"N_COORD97":2550158.9100000001,"ADDRESS":"功安二街１４８號","OBJECTID":476147},"geometry":{"x":165957.1500000013,"y":2550158.910000002}},{"attributes":{"ID":476173,"DIS_CODE":0,"TOWNNAME":"安南區","LI":"溪心里","LIN":"18鄰","STREET":"功安二街","SECT":" ","MAREA":" ","LANE":" ","ALLEY":" ","HOUSE_NO":"１５０號","E_COORD97":165953.16,"N_COORD97":2550163.25,"ADDRESS":"功安二街１５０號","OBJECTID":476148},"geometry":{"x":165953.16000000108,"y":2550163.2500000019}},{"attributes":{"ID":476174,"DIS_CODE":0,"TOWNNAME":"安南區","LI":"溪心里","LIN":"18鄰","STREET":"功安二街","SECT":" ","MAREA":" ","LANE":" ","ALLEY":" ","HOUSE_NO":"１６０號","E_COORD97":165909.41,"N_COORD97":2550188.48,"ADDRESS":"功安二街１６０號","OBJECTID":476149},"geometry":{"x":165909.41000000108,"y":2550188.4800000042}},{"attributes":{"ID":476175,"DIS_CODE":0,"TOWNNAME":"安南區","LI":"溪心里","LIN":"18鄰","STREET":"功安二街","SECT":" ","MAREA":" ","LANE":" ","ALLEY":" ","HOUSE_NO":"１６２號","E_COORD97":165905.28,"N_COORD97":2550187.1800000002,"ADDRESS":"功安二街１６２號","OBJECTID":476150},"geometry":{"x":165905.28000000119,"y":2550187.1800000016}},{"attributes":{"ID":476176,"DIS_CODE":0,"TOWNNAME":"安南區","LI":"溪心里","LIN":"18鄰","STREET":"功安二街","SECT":" ","MAREA":" ","LANE":" ","ALLEY":" ","HOUSE_NO":"６１號","E_COORD97":166071.67999999999,"N_COORD97":2549970.7200000002,"ADDRESS":"功安二街６１號","OBJECTID":476151},"geometry":{"x":166071.6799999997,"y":2549970.7200000025}},{"attributes":{"ID":476177,"DIS_CODE":0,"TOWNNAME":"安南區","LI":"溪心里","LIN":"18鄰","STREET":"功安二街","SECT":" ","MAREA":" ","LANE":" ","ALLEY":" ","HOUSE_NO":"９５號","E_COORD97":165941.29000000001,"N_COORD97":2550134.3599999999,"ADDRESS":"功安二街９５號","OBJECTID":476152},"geometry":{"x":165941.29000000004,"y":2550134.3600000013}},{"attributes":{"ID":476178,"DIS_CODE":0,"TOWNNAME":"安南區","LI":"溪心里","LIN":"18鄰","STREET":"功安二街","SECT":" ","MAREA":" ","LANE":" ","ALLEY":" ","HOUSE_NO":"９７號","E_COORD97":165939.17000000001,"N_COORD97":2550137.6600000001,"ADDRESS":"功安二街９７號","OBJECTID":476153},"geometry":{"x":165939.17000000086,"y":2550137.660000002}},{"attributes":{"ID":476179,"DIS_CODE":0,"TOWNNAME":"安南區","LI":"溪心里","LIN":"18鄰","STREET":"功安二街","SECT":" ","MAREA":" ","LANE":" ","ALLEY":" ","HOUSE_NO":"９９號","E_COORD97":165936.10000000001,"N_COORD97":2550140.9700000002,"ADDRESS":"功安二街９９號","OBJECTID":476154},"geometry":{"x":165936.10000000056,"y":2550140.9700000007}},{"attributes":{"ID":476180,"DIS_CODE":0,"TOWNNAME":"安南區","LI":"溪心里","LIN":"18鄰","STREET":"海佃路","SECT":"三段","MAREA":" ","LANE":" ","ALLEY":" ","HOUSE_NO":"２０３號","E_COORD97":166017.51000000001,"N_COORD97":2550138.3399999999,"ADDRESS":"海佃路三段２０３號","OBJECTID":476155},"geometry":{"x":166017.50999999978,"y":2550138.3400000017}},{"attributes":{"ID":476181,"DIS_CODE":0,"TOWNNAME":"安南區","LI":"溪心里","LIN":"18鄰","STREET":"海佃路","SECT":"三段","MAREA":" ","LANE":" ","ALLEY":" ","HOUSE_NO":"２０７號","E_COORD97":166014.22,"N_COORD97":2550157.02,"ADDRESS":"海佃路三段２０７號","OBJECTID":476156},"geometry":{"x":166014.21999999974,"y":2550157.0200000033}},{"attributes":{"ID":476182,"DIS_CODE":0,"TOWNNAME":"安南區","LI":"溪心里","LIN":"18鄰","STREET":"海佃路","SECT":"三段","MAREA":" ","LANE":" ","ALLEY":" ","HOUSE_NO":"２０９號","E_COORD97":166011.56,"N_COORD97":2550162.3300000001,"ADDRESS":"海佃路三段２０９號","OBJECTID":476157},"geometry":{"x":166011.55999999959,"y":2550162.3300000038}},{"attributes":{"ID":476183,"DIS_CODE":0,"TOWNNAME":"安南區","LI":"溪心里","LIN":"18鄰","STREET":"海佃路","SECT":"三段","MAREA":" ","LANE":" ","ALLEY":" ","HOUSE_NO":"２１１號","E_COORD97":166009.51000000001,"N_COORD97":2550165.6000000001,"ADDRESS":"海佃路三段２１１號","OBJECTID":476158},"geometry":{"x":166009.51000000071,"y":2550165.5999999996}},{"attributes":{"ID":476184,"DIS_CODE":0,"TOWNNAME":"安南區","LI":"溪心里","LIN":"18鄰","STREET":"海佃路","SECT":"三段","MAREA":" ","LANE":" ","ALLEY":" ","HOUSE_NO":"２１３號","E_COORD97":166007.09,"N_COORD97":2550169.3399999999,"ADDRESS":"海佃路三段２１３號","OBJECTID":476159},"geometry":{"x":166007.09000000171,"y":2550169.3400000017}},{"attributes":{"ID":476185,"DIS_CODE":0,"TOWNNAME":"安南區","LI":"溪心里","LIN":"18鄰","STREET":"海佃路","SECT":"三段","MAREA":" ","LANE":" ","ALLEY":" ","HOUSE_NO":"２１５號","E_COORD97":166003.94,"N_COORD97":2550172.3599999999,"ADDRESS":"海佃路三段２１５號","OBJECTID":476160},"geometry":{"x":166003.94000000134,"y":2550172.3600000013}},{"attributes":{"ID":476186,"DIS_CODE":0,"TOWNNAME":"安南區","LI":"溪心里","LIN":"18鄰","STREET":"海佃路","SECT":"三段","MAREA":" ","LANE":" ","ALLEY":" ","HOUSE_NO":"２１７號","E_COORD97":166000.44,"N_COORD97":2550175.2599999998,"ADDRESS":"海佃路三段２１７號","OBJECTID":476161},"geometry":{"x":166000.44000000134,"y":2550175.2599999998}},{"attributes":{"ID":476187,"DIS_CODE":0,"TOWNNAME":"安南區","LI":"溪心里","LIN":"18鄰","STREET":"海佃路","SECT":"三段","MAREA":" ","LANE":" ","ALLEY":" ","HOUSE_NO":"２１９號","E_COORD97":165998.01999999999,"N_COORD97":2550178.5099999998,"ADDRESS":"海佃路三段２１９號","OBJECTID":476162},"geometry":{"x":165998.01999999955,"y":2550178.5100000016}},{"attributes":{"ID":476188,"DIS_CODE":0,"TOWNNAME":"安南區","LI":"溪心里","LIN":"18鄰","STREET":"海佃路","SECT":"三段","MAREA":" ","LANE":" ","ALLEY":" ","HOUSE_NO":"２２１號","E_COORD97":165995.48000000001,"N_COORD97":2550181.6499999999,"ADDRESS":"海佃路三段２２１號","OBJECTID":476163},"geometry":{"x":165995.48000000138,"y":2550181.6500000022}},{"attributes":{"ID":476189,"DIS_CODE":0,"TOWNNAME":"安南區","LI":"溪心里","LIN":"18鄰","STREET":"海佃路","SECT":"三段","MAREA":" ","LANE":" ","ALLEY":" ","HOUSE_NO":"２２３號","E_COORD97":165992.94,"N_COORD97":2550184.8999999999,"ADDRESS":"海佃路三段２２３號","OBJECTID":476164},"geometry":{"x":165992.94000000041,"y":2550184.9000000004}},{"attributes":{"ID":476190,"DIS_CODE":0,"TOWNNAME":"安南區","LI":"溪心里","LIN":"18鄰","STREET":"海佃路","SECT":"三段","MAREA":" ","LANE":" ","ALLEY":" ","HOUSE_NO":"２２５號","E_COORD97":165989.44,"N_COORD97":2550187.9300000002,"ADDRESS":"海佃路三段２２５號","OBJECTID":476165},"geometry":{"x":165989.44000000041,"y":2550187.9299999978}},{"attributes":{"ID":476191,"DIS_CODE":0,"TOWNNAME":"安南區","LI":"溪心里","LIN":"18鄰","STREET":"海佃路","SECT":"三段","MAREA":" ","LANE":" ","ALLEY":" ","HOUSE_NO":"２２７號","E_COORD97":165986.41,"N_COORD97":2550191.2000000002,"ADDRESS":"海佃路三段２２７號","OBJECTID":476166},"geometry":{"x":165986.41000000015,"y":2550191.1999999993}},{"attributes":{"ID":476192,"DIS_CODE":0,"TOWNNAME":"安南區","LI":"溪心里","LIN":"18鄰","STREET":"海佃路","SECT":"三段","MAREA":" ","LANE":" ","ALLEY":" ","HOUSE_NO":"２２９號","E_COORD97":165983.87,"N_COORD97":2550194.46,"ADDRESS":"海佃路三段２２９號","OBJECTID":476167},"geometry":{"x":165983.87000000104,"y":2550194.4600000009}},{"attributes":{"ID":476193,"DIS_CODE":0,"TOWNNAME":"安南區","LI":"溪心里","LIN":"18鄰","STREET":"海佃路","SECT":"三段","MAREA":" ","LANE":" ","ALLEY":" ","HOUSE_NO":"２３１號","E_COORD97":165981.20999999999,"N_COORD97":2550197.2400000002,"ADDRESS":"海佃路三段２３１號","OBJECTID":476168},"geometry":{"x":165981.21000000089,"y":2550197.2400000021}},{"attributes":{"ID":476194,"DIS_CODE":0,"TOWNNAME":"安南區","LI":"溪心里","LIN":"18鄰","STREET":"海佃路","SECT":"三段","MAREA":" ","LANE":" ","ALLEY":" ","HOUSE_NO":"２３３號","E_COORD97":165979.16,"N_COORD97":2550200.98,"ADDRESS":"海佃路三段２３３號","OBJECTID":476169},"geometry":{"x":165979.16000000015,"y":2550200.9800000004}},{"attributes":{"ID":476195,"DIS_CODE":0,"TOWNNAME":"安南區","LI":"溪心里","LIN":"18鄰","STREET":"海佃路","SECT":"三段","MAREA":" ","LANE":" ","ALLEY":" ","HOUSE_NO":"２３５號","E_COORD97":165976.14000000001,"N_COORD97":2550203.6400000001,"ADDRESS":"海佃路三段２３５號","OBJECTID":476170},"geometry":{"x":165976.14000000153,"y":2550203.6400000006}},{"attributes":{"ID":476196,"DIS_CODE":0,"TOWNNAME":"安南區","LI":"溪心里","LIN":"18鄰","STREET":"海佃路","SECT":"三段","MAREA":" ","LANE":" ","ALLEY":" ","HOUSE_NO":"２３７號","E_COORD97":165973.78,"N_COORD97":2550207.5699999998,"ADDRESS":"海佃路三段２３７號","OBJECTID":476171},"geometry":{"x":165973.78000000026,"y":2550207.5700000003}},{"attributes":{"ID":476197,"DIS_CODE":0,"TOWNNAME":"安南區","LI":"溪心里","LIN":"18鄰","STREET":"海佃路","SECT":"三段","MAREA":" ","LANE":" ","ALLEY":" ","HOUSE_NO":"２４１之１號","E_COORD97":165956.67999999999,"N_COORD97":2550232.1699999999,"ADDRESS":"海佃路三段２４１之１號","OBJECTID":476172},"geometry":{"x":165956.6799999997,"y":2550232.1700000018}},{"attributes":{"ID":476198,"DIS_CODE":0,"TOWNNAME":"安南區","LI":"溪心里","LIN":"18鄰","STREET":"智安三街","SECT":" ","MAREA":" ","LANE":" ","ALLEY":" ","HOUSE_NO":"２６號","E_COORD97":165912.72,"N_COORD97":2550138.1400000001,"ADDRESS":"智安三街２６號","OBJECTID":476173},"geometry":{"x":165912.71999999974,"y":2550138.1400000025}},{"attributes":{"ID":476199,"DIS_CODE":0,"TOWNNAME":"安南區","LI":"溪心里","LIN":"18鄰","STREET":"智安三街","SECT":" ","MAREA":" ","LANE":" ","ALLEY":" ","HOUSE_NO":"２８號","E_COORD97":165910.59,"N_COORD97":2550142.0299999998,"ADDRESS":"智安三街２８號","OBJECTID":476174},"geometry":{"x":165910.59000000171,"y":2550142.0299999993}},{"attributes":{"ID":476200,"DIS_CODE":0,"TOWNNAME":"安南區","LI":"溪心里","LIN":"18鄰","STREET":"智安三街","SECT":" ","MAREA":" ","LANE":" ","ALLEY":" ","HOUSE_NO":"２號","E_COORD97":165914.25,"N_COORD97":2550112.6400000001,"ADDRESS":"智安三街２號","OBJECTID":476175},"geometry":{"x":165914.25,"y":2550112.6400000006}},{"attributes":{"ID":476201,"DIS_CODE":0,"TOWNNAME":"安南區","LI":"溪心里","LIN":"18鄰","STREET":"智安三街","SECT":" ","MAREA":" ","LANE":" ","ALLEY":" ","HOUSE_NO":"３０號","E_COORD97":165908.82000000001,"N_COORD97":2550146.1600000001,"ADDRESS":"智安三街３０號","OBJECTID":476176},"geometry":{"x":165908.8200000003,"y":2550146.1599999983}},{"attributes":{"ID":476202,"DIS_CODE":0,"TOWNNAME":"安南區","LI":"溪心里","LIN":"18鄰","STREET":"智安三街","SECT":" ","MAREA":" ","LANE":" ","ALLEY":" ","HOUSE_NO":"３２號","E_COORD97":165907.51999999999,"N_COORD97":2550149.5800000001,"ADDRESS":"智安三街３２號","OBJECTID":476177},"geometry":{"x":165907.52000000048,"y":2550149.5800000001}},{"attributes":{"ID":476203,"DIS_CODE":0,"TOWNNAME":"安南區","LI":"溪心里","LIN":"18鄰","STREET":"智安三街","SECT":" ","MAREA":" ","LANE":" ","ALLEY":" ","HOUSE_NO":"３６號","E_COORD97":165905.39999999999,"N_COORD97":2550153.4700000002,"ADDRESS":"智安三街３６號","OBJECTID":476178},"geometry":{"x":165905.39999999944,"y":2550153.4700000007}},{"attributes":{"ID":476204,"DIS_CODE":0,"TOWNNAME":"安南區","LI":"溪心里","LIN":"18鄰","STREET":"智安三街","SECT":" ","MAREA":" ","LANE":" ","ALLEY":" ","HOUSE_NO":"３８號","E_COORD97":165903.63,"N_COORD97":2550157.25,"ADDRESS":"智安三街３８號","OBJECTID":476179},"geometry":{"x":165903.63000000082,"y":2550157.2500000019}},{"attributes":{"ID":476205,"DIS_CODE":0,"TOWNNAME":"安南區","LI":"溪心里","LIN":"18鄰","STREET":"智安三街","SECT":" ","MAREA":" ","LANE":" ","ALLEY":" ","HOUSE_NO":"４０號","E_COORD97":165901.97,"N_COORD97":2550160.8999999999,"ADDRESS":"智安三街４０號","OBJECTID":476180},"geometry":{"x":165901.96999999974,"y":2550160.9000000004}},{"attributes":{"ID":476206,"DIS_CODE":0,"TOWNNAME":"安南區","LI":"溪心里","LIN":"18鄰","STREET":"智安三街","SECT":" ","MAREA":" ","LANE":" ","ALLEY":" ","HOUSE_NO":"４２號","E_COORD97":165900.07999999999,"N_COORD97":2550165.6200000001,"ADDRESS":"智安三街４２號","OBJECTID":476181},"geometry":{"x":165900.08000000007,"y":2550165.6200000029}},{"attributes":{"ID":476207,"DIS_CODE":0,"TOWNNAME":"安南區","LI":"溪心里","LIN":"18鄰","STREET":"智安三街","SECT":" ","MAREA":" ","LANE":" ","ALLEY":" ","HOUSE_NO":"４６號","E_COORD97":165896.19,"N_COORD97":2550178.4500000002,"ADDRESS":"智安三街４６號","OBJECTID":476182},"geometry":{"x":165896.19000000041,"y":2550178.4500000011}},{"attributes":{"ID":476208,"DIS_CODE":0,"TOWNNAME":"安南區","LI":"溪心里","LIN":"18鄰","STREET":"智安三街","SECT":" ","MAREA":" ","LANE":" ","ALLEY":" ","HOUSE_NO":"４８號","E_COORD97":165894.89000000001,"N_COORD97":2550182.8199999998,"ADDRESS":"智安三街４８號","OBJECTID":476183},"geometry":{"x":165894.8900000006,"y":2550182.820000004}},{"attributes":{"ID":476209,"DIS_CODE":0,"TOWNNAME":"安南區","LI":"溪心里","LIN":"18鄰","STREET":"智安三街","SECT":" ","MAREA":" ","LANE":" ","ALLEY":" ","HOUSE_NO":"５０號","E_COORD97":165893.23000000001,"N_COORD97":2550187.0699999998,"ADDRESS":"智安三街５０號","OBJECTID":476184},"geometry":{"x":165893.23000000231,"y":2550187.0700000003}},{"attributes":{"ID":476210,"DIS_CODE":0,"TOWNNAME":"安南區","LI":"溪心里","LIN":"18鄰","STREET":"智安三街","SECT":" ","MAREA":" ","LANE":" ","ALLEY":" ","HOUSE_NO":"５２號","E_COORD97":165890.98999999999,"N_COORD97":2550191.5499999998,"ADDRESS":"智安三街５２號","OBJECTID":476185},"geometry":{"x":165890.99000000022,"y":2550191.5499999989}},{"attributes":{"ID":476211,"DIS_CODE":0,"TOWNNAME":"白河區","LI":"永安里","LIN":"18鄰","STREET":"新吉北街","SECT":" ","MAREA":" ","LANE":" ","ALLEY":" ","HOUSE_NO":"１６號","E_COORD97":189356.64000000001,"N_COORD97":2582986.3300000001,"ADDRESS":"新吉北街１６號","OBJECTID":476186},"geometry":{"x":189356.6400000006,"y":2582986.3300000001}},{"attributes":{"ID":476212,"DIS_CODE":0,"TOWNNAME":"東區","LI":"路東里","LIN":"4鄰","STREET":"大同路","SECT":"二段","MAREA":" ","LANE":" ","ALLEY":" ","HOUSE_NO":"９５號之１","E_COORD97":169366.67999999999,"N_COORD97":2542140.04,"ADDRESS":"大同路二段９５號之１","OBJECTID":476187},"geometry":{"x":169366.68000000063,"y":2542140.0399999991}},{"attributes":{"ID":476213,"DIS_CODE":0,"TOWNNAME":"東區","LI":"路東里","LIN":"4鄰","STREET":"大同路","SECT":"二段","MAREA":" ","LANE":" ","ALLEY":" ","HOUSE_NO":"９５號之２","E_COORD97":169360.29000000001,"N_COORD97":2542141.3799999999,"ADDRESS":"大同路二段９５號之２","OBJECTID":476188},"geometry":{"x":169360.29000000004,"y":2542141.379999999}},{"attributes":{"ID":476214,"DIS_CODE":0,"TOWNNAME":"白河區","LI":"白河里","LIN":"18鄰","STREET":"新起街","SECT":" ","MAREA":" ","LANE":" ","ALLEY":" ","HOUSE_NO":"５３之３號","E_COORD97":190402.73000000001,"N_COORD97":2583323.9500000002,"ADDRESS":"新起街５３之３號","OBJECTID":476189},"geometry":{"x":190402.73000000138,"y":2583323.9499999993}},{"attributes":{"ID":476215,"DIS_CODE":0,"TOWNNAME":"白河區","LI":"白河里","LIN":"18鄰","STREET":"新起街","SECT":" ","MAREA":" ","LANE":" ","ALLEY":" ","HOUSE_NO":"５３號","E_COORD97":190389.84,"N_COORD97":2583307.5899999999,"ADDRESS":"新起街５３號","OBJECTID":476190},"geometry":{"x":190389.84000000078,"y":2583307.589999998}},{"attributes":{"ID":476216,"DIS_CODE":0,"TOWNNAME":"白河區","LI":"白河里","LIN":"18鄰","STREET":"新起街","SECT":" ","MAREA":" ","LANE":" ","ALLEY":" ","HOUSE_NO":"６１號","E_COORD97":190424.89000000001,"N_COORD97":2583391.8199999998,"ADDRESS":"新起街６１號","OBJECTID":476191},"geometry":{"x":190424.8900000006,"y":2583391.8200000022}},{"attributes":{"ID":476217,"DIS_CODE":0,"TOWNNAME":"西港區","LI":"慶安里","LIN":"18鄰","STREET":"進學街","SECT":" ","MAREA":" ","LANE":" ","ALLEY":" ","HOUSE_NO":"５１號","E_COORD97":168211.79000000001,"N_COORD97":2558042.5899999999,"ADDRESS":"進學街５１號","OBJECTID":476192},"geometry":{"x":168211.79000000097,"y":2558042.5900000036}},{"attributes":{"ID":476218,"DIS_CODE":0,"TOWNNAME":"西港區","LI":"慶安里","LIN":"18鄰","STREET":"進學街","SECT":" ","MAREA":" ","LANE":" ","ALLEY":" ","HOUSE_NO":"５１號之１","E_COORD97":168207.79000000001,"N_COORD97":2558042.6600000001,"ADDRESS":"進學街５１號之１","OBJECTID":476193},"geometry":{"x":168207.79000000004,"y":2558042.6600000039}},{"attributes":{"ID":476219,"DIS_CODE":0,"TOWNNAME":"西港區","LI":"慶安里","LIN":"18鄰","STREET":"進學街","SECT":" ","MAREA":" ","LANE":" ","ALLEY":" ","HOUSE_NO":"５１號之２","E_COORD97":168203.82000000001,"N_COORD97":2558042.3799999999,"ADDRESS":"進學街５１號之２","OBJECTID":476194},"geometry":{"x":168203.8200000003,"y":2558042.379999999}},{"attributes":{"ID":476220,"DIS_CODE":0,"TOWNNAME":"西港區","LI":"慶安里","LIN":"18鄰","STREET":"進學街","SECT":" ","MAREA":" ","LANE":" ","ALLEY":" ","HOUSE_NO":"５１號之３","E_COORD97":168199.63,"N_COORD97":2558042.6800000002,"ADDRESS":"進學街５１號之３","OBJECTID":476195},"geometry":{"x":168199.62999999989,"y":2558042.6800000016}},{"attributes":{"ID":476221,"DIS_CODE":0,"TOWNNAME":"西港區","LI":"慶安里","LIN":"18鄰","STREET":"新興街","SECT":" ","MAREA":" ","LANE":" ","ALLEY":" ","HOUSE_NO":"５０之１號","E_COORD97":168190.22,"N_COORD97":2557992.79,"ADDRESS":"新興街５０之１號","OBJECTID":476196},"geometry":{"x":168190.22000000067,"y":2557992.7899999991}},{"attributes":{"ID":476222,"DIS_CODE":0,"TOWNNAME":"西港區","LI":"慶安里","LIN":"18鄰","STREET":"新興街","SECT":" ","MAREA":" ","LANE":" ","ALLEY":" ","HOUSE_NO":"５０號","E_COORD97":168191.03,"N_COORD97":2557987.79,"ADDRESS":"新興街５０號","OBJECTID":476197},"geometry":{"x":168191.03000000026,"y":2557987.790000001}},{"attributes":{"ID":476223,"DIS_CODE":0,"TOWNNAME":"西港區","LI":"慶安里","LIN":"18鄰","STREET":"新興街","SECT":" ","MAREA":" ","LANE":" ","ALLEY":" ","HOUSE_NO":"５２號之１","E_COORD97":168189.32999999999,"N_COORD97":2558001.8500000001,"ADDRESS":"新興街５２號之１","OBJECTID":476198},"geometry":{"x":168189.33000000101,"y":2558001.8499999996}},{"attributes":{"ID":476224,"DIS_CODE":0,"TOWNNAME":"西港區","LI":"慶安里","LIN":"18鄰","STREET":"新興街","SECT":" ","MAREA":" ","LANE":" ","ALLEY":" ","HOUSE_NO":"５２號","E_COORD97":168189.57999999999,"N_COORD97":2557997.9300000002,"ADDRESS":"新興街５２號","OBJECTID":476199},"geometry":{"x":168189.58000000101,"y":2557997.9299999997}},{"attributes":{"ID":476225,"DIS_CODE":0,"TOWNNAME":"西港區","LI":"慶安里","LIN":"18鄰","STREET":"新興街","SECT":" ","MAREA":" ","LANE":" ","ALLEY":" ","HOUSE_NO":"５４號","E_COORD97":168188.45000000001,"N_COORD97":2558006.7200000002,"ADDRESS":"新興街５４號","OBJECTID":476200},"geometry":{"x":168188.45000000205,"y":2558006.7200000025}}]}