{"displayFieldName":"TOWNNAME","fieldAliases":{"ID":"ID","DIS_CODE":"DIS_CODE","TOWNNAME":"TOWNNAME","LI":"LI","LIN":"LIN","STREET":"STREET","SECT":"SECT","MAREA":"MAREA","LANE":"LANE","ALLEY":"ALLEY","HOUSE_NO":"HOUSE_NO","E_COORD97":"E_COORD97","N_COORD97":"N_COORD97","ADDRESS":"ADDRESS","OBJECTID":"OBJECTID"},"geometryType":"esriGeometryPoint","spatialReference":{"wkid":102443,"latestWkid":3826},"fields":[{"name":"ID","type":"esriFieldTypeDouble","alias":"ID"},{"name":"DIS_CODE","type":"esriFieldTypeInteger","alias":"DIS_CODE"},{"name":"TOWNNAME","type":"esriFieldTypeString","alias":"TOWNNAME","length":8},{"name":"LI","type":"esriFieldTypeString","alias":"LI","length":8},{"name":"LIN","type":"esriFieldTypeString","alias":"LIN","length":12},{"name":"STREET","type":"esriFieldTypeString","alias":"STREET","length":20},{"name":"SECT","type":"esriFieldTypeString","alias":"SECT","length":8},{"name":"MAREA","type":"esriFieldTypeString","alias":"MAREA","length":12},{"name":"LANE","type":"esriFieldTypeString","alias":"LANE","length":10},{"name":"ALLEY","type":"esriFieldTypeString","alias":"ALLEY","length":10},{"name":"HOUSE_NO","type":"esriFieldTypeString","alias":"HOUSE_NO","length":20},{"name":"E_COORD97","type":"esriFieldTypeDouble","alias":"E_COORD97"},{"name":"N_COORD97","type":"esriFieldTypeDouble","alias":"N_COORD97"},{"name":"ADDRESS","type":"esriFieldTypeString","alias":"ADDRESS","length":50},{"name":"OBJECTID","type":"esriFieldTypeOID","alias":"OBJECTID"}],"features":[{"attributes":{"ID":601,"DIS_CODE":0,"TOWNNAME":"安南區","LI":"東和里","LIN":"4鄰","STREET":"長和路","SECT":"一段","MAREA":" ","LANE":"８４５巷","ALLEY":"５６弄","HOUSE_NO":"１３號","E_COORD97":170762.73999999999,"N_COORD97":2551220.6400000001,"ADDRESS":"長和路一段８４５巷５６弄１３號","OBJECTID":601},"geometry":{"x":170762.74000000022,"y":2551220.6400000006}},{"attributes":{"ID":602,"DIS_CODE":0,"TOWNNAME":"安南區","LI":"城西里","LIN":"7鄰","STREET":"城西街","SECT":"三段","MAREA":" ","LANE":"５０１巷","ALLEY":"１４７弄","HOUSE_NO":"５３號","E_COORD97":157429.88247400001,"N_COORD97":2550452.9161200002,"ADDRESS":"城西街三段５０１巷１４７弄５３號","OBJECTID":602},"geometry":{"x":157429.88247400057,"y":2550452.9161189999}},{"attributes":{"ID":603,"DIS_CODE":0,"TOWNNAME":"仁德區","LI":"仁德里","LIN":"39鄰","STREET":"文宏路","SECT":" ","MAREA":" ","LANE":" ","ALLEY":" ","HOUSE_NO":"２３０號","E_COORD97":172472.68208,"N_COORD97":2541884.8412000001,"ADDRESS":"文宏路２３０號","OBJECTID":603},"geometry":{"x":172472.68208000064,"y":2541884.8411999978}},{"attributes":{"ID":604,"DIS_CODE":0,"TOWNNAME":"安南區","LI":"東和里","LIN":"4鄰","STREET":"長和路","SECT":"一段","MAREA":" ","LANE":"８４５巷","ALLEY":"５６弄","HOUSE_NO":"２０號","E_COORD97":170711.45999999999,"N_COORD97":2551243.71,"ADDRESS":"長和路一段８４５巷５６弄２０號","OBJECTID":604},"geometry":{"x":170711.45999999996,"y":2551243.7100000009}},{"attributes":{"ID":605,"DIS_CODE":0,"TOWNNAME":"仁德區","LI":"仁愛里","LIN":"11鄰","STREET":" ","SECT":" ","MAREA":"仁愛","LANE":" ","ALLEY":" ","HOUSE_NO":"２１６號","E_COORD97":170323.936193,"N_COORD97":2539993.9500000002,"ADDRESS":"仁愛２１６號","OBJECTID":605},"geometry":{"x":170323.93619300053,"y":2539993.9500000011}},{"attributes":{"ID":606,"DIS_CODE":0,"TOWNNAME":"安南區","LI":"城西里","LIN":"6鄰","STREET":"城西街","SECT":"三段","MAREA":" ","LANE":"５０１巷","ALLEY":" ","HOUSE_NO":"７８之１５號","E_COORD97":157169.52686700001,"N_COORD97":2550575.2593899998,"ADDRESS":"城西街三段５０１巷７８之１５號","OBJECTID":606},"geometry":{"x":157169.52686700039,"y":2550575.2593860012}},{"attributes":{"ID":607,"DIS_CODE":0,"TOWNNAME":"仁德區","LI":"仁德里","LIN":"39鄰","STREET":"文宏路","SECT":" ","MAREA":" ","LANE":" ","ALLEY":" ","HOUSE_NO":"２３２號","E_COORD97":172477.130428,"N_COORD97":2541910.8761900002,"ADDRESS":"文宏路２３２號","OBJECTID":607},"geometry":{"x":172477.13042800035,"y":2541910.8761860039}},{"attributes":{"ID":608,"DIS_CODE":0,"TOWNNAME":"仁德區","LI":"仁愛里","LIN":"11鄰","STREET":" ","SECT":" ","MAREA":"仁愛","LANE":" ","ALLEY":" ","HOUSE_NO":"２１７號","E_COORD97":170329.39145,"N_COORD97":2539993.9500000002,"ADDRESS":"仁愛２１７號","OBJECTID":608},"geometry":{"x":170329.39145000093,"y":2539993.9500000011}},{"attributes":{"ID":609,"DIS_CODE":0,"TOWNNAME":"仁德區","LI":"仁德里","LIN":"39鄰","STREET":"文宏路","SECT":" ","MAREA":" ","LANE":" ","ALLEY":" ","HOUSE_NO":"２３６號","E_COORD97":172472.258428,"N_COORD97":2541910.8761900002,"ADDRESS":"文宏路２３６號","OBJECTID":609},"geometry":{"x":172472.25842799991,"y":2541910.8761860039}},{"attributes":{"ID":610,"DIS_CODE":0,"TOWNNAME":"仁德區","LI":"仁愛里","LIN":"11鄰","STREET":" ","SECT":" ","MAREA":"仁愛","LANE":" ","ALLEY":" ","HOUSE_NO":"２１５號","E_COORD97":170319.64613400001,"N_COORD97":2539993.9500000002,"ADDRESS":"仁愛２１５號","OBJECTID":610},"geometry":{"x":170319.64613400027,"y":2539993.9500000011}},{"attributes":{"ID":611,"DIS_CODE":0,"TOWNNAME":"仁德區","LI":"仁德里","LIN":"39鄰","STREET":"文宏路","SECT":" ","MAREA":" ","LANE":" ","ALLEY":" ","HOUSE_NO":"２３８號","E_COORD97":172467.81008,"N_COORD97":2541911.2995199999,"ADDRESS":"文宏路２３８號","OBJECTID":611},"geometry":{"x":172467.81008000113,"y":2541911.2995190024}},{"attributes":{"ID":612,"DIS_CODE":0,"TOWNNAME":"新營區","LI":"土庫里","LIN":"4鄰","STREET":" ","SECT":" ","MAREA":"土庫","LANE":" ","ALLEY":" ","HOUSE_NO":"２８號之６","E_COORD97":183195.85000000001,"N_COORD97":2579955.6099999999,"ADDRESS":"土庫２８號之６","OBJECTID":612},"geometry":{"x":183195.84999999963,"y":2579955.6100000013}},{"attributes":{"ID":613,"DIS_CODE":0,"TOWNNAME":"仁德區","LI":"仁愛里","LIN":"11鄰","STREET":" ","SECT":" ","MAREA":"仁愛","LANE":" ","ALLEY":" ","HOUSE_NO":"２１３號","E_COORD97":170310.27155999999,"N_COORD97":2539993.9500000002,"ADDRESS":"仁愛２１３號","OBJECTID":613},"geometry":{"x":170310.27155999932,"y":2539993.9500000011}},{"attributes":{"ID":614,"DIS_CODE":0,"TOWNNAME":"仁德區","LI":"仁愛里","LIN":"11鄰","STREET":" ","SECT":" ","MAREA":"仁愛","LANE":" ","ALLEY":" ","HOUSE_NO":"２１２號","E_COORD97":170305.557791,"N_COORD97":2539993.9500000002,"ADDRESS":"仁愛２１２號","OBJECTID":614},"geometry":{"x":170305.55779100116,"y":2539993.9500000011}},{"attributes":{"ID":615,"DIS_CODE":0,"TOWNNAME":"安南區","LI":"東和里","LIN":"6鄰","STREET":"長和路","SECT":"一段","MAREA":" ","LANE":"８４５巷","ALLEY":" ","HOUSE_NO":"１１號","E_COORD97":170831.23000000001,"N_COORD97":2551397.2400000002,"ADDRESS":"長和路一段８４５巷１１號","OBJECTID":615},"geometry":{"x":170831.23000000231,"y":2551397.2400000021}},{"attributes":{"ID":616,"DIS_CODE":0,"TOWNNAME":"仁德區","LI":"仁愛里","LIN":"11鄰","STREET":" ","SECT":" ","MAREA":"仁愛","LANE":" ","ALLEY":" ","HOUSE_NO":"２１０號","E_COORD97":170296.07728999999,"N_COORD97":2539993.9500000002,"ADDRESS":"仁愛２１０號","OBJECTID":616},"geometry":{"x":170296.07729000039,"y":2539993.9500000011}},{"attributes":{"ID":617,"DIS_CODE":0,"TOWNNAME":"仁德區","LI":"仁德里","LIN":"39鄰","STREET":"文宏路","SECT":" ","MAREA":" ","LANE":" ","ALLEY":" ","HOUSE_NO":"２４０號","E_COORD97":172463.785385,"N_COORD97":2541912.1461900002,"ADDRESS":"文宏路２４０號","OBJECTID":617},"geometry":{"x":172463.78538499959,"y":2541912.1461849995}},{"attributes":{"ID":618,"DIS_CODE":0,"TOWNNAME":"仁德區","LI":"仁德里","LIN":"39鄰","STREET":"文宏路","SECT":" ","MAREA":" ","LANE":" ","ALLEY":" ","HOUSE_NO":"２４２號","E_COORD97":172459.76068899999,"N_COORD97":2541912.3578499998,"ADDRESS":"文宏路２４２號","OBJECTID":618},"geometry":{"x":172459.76068900153,"y":2541912.3578520007}},{"attributes":{"ID":619,"DIS_CODE":0,"TOWNNAME":"仁德區","LI":"仁德里","LIN":"39鄰","STREET":"文宏路","SECT":" ","MAREA":" ","LANE":" ","ALLEY":" ","HOUSE_NO":"２４６號","E_COORD97":172454.46503699999,"N_COORD97":2541912.78119,"ADDRESS":"文宏路２４６號","OBJECTID":619},"geometry":{"x":172454.46503700037,"y":2541912.781185003}},{"attributes":{"ID":620,"DIS_CODE":0,"TOWNNAME":"新營區","LI":"土庫里","LIN":"4鄰","STREET":" ","SECT":" ","MAREA":"土庫","LANE":" ","ALLEY":" ","HOUSE_NO":"２８號之７","E_COORD97":183194.84,"N_COORD97":2579958.9399999999,"ADDRESS":"土庫２８號之７","OBJECTID":620},"geometry":{"x":183194.84000000078,"y":2579958.9400000032}},{"attributes":{"ID":621,"DIS_CODE":0,"TOWNNAME":"安南區","LI":"東和里","LIN":"6鄰","STREET":"長和路","SECT":"一段","MAREA":" ","LANE":"８４５巷","ALLEY":" ","HOUSE_NO":"１７號之４","E_COORD97":170823.29000000001,"N_COORD97":2551361.2799999998,"ADDRESS":"長和路一段８４５巷１７號之４","OBJECTID":621},"geometry":{"x":170823.29000000004,"y":2551361.2799999993}},{"attributes":{"ID":622,"DIS_CODE":0,"TOWNNAME":"仁德區","LI":"中生里","LIN":"5鄰","STREET":" ","SECT":" ","MAREA":"中洲","LANE":" ","ALLEY":" ","HOUSE_NO":"１２７之２０號","E_COORD97":172885.60610999999,"N_COORD97":2534273.4525100002,"ADDRESS":"中洲１２７之２０號","OBJECTID":622},"geometry":{"x":172885.60611000005,"y":2534273.4525099993}},{"attributes":{"ID":623,"DIS_CODE":0,"TOWNNAME":"仁德區","LI":"仁愛里","LIN":"11鄰","STREET":" ","SECT":" ","MAREA":"仁愛","LANE":" ","ALLEY":" ","HOUSE_NO":"２１８號","E_COORD97":170327.749579,"N_COORD97":2540006.1200000001,"ADDRESS":"仁愛２１８號","OBJECTID":623},"geometry":{"x":170327.74957900029,"y":2540006.120000001}},{"attributes":{"ID":624,"DIS_CODE":0,"TOWNNAME":"安南區","LI":"東和里","LIN":"6鄰","STREET":"長和路","SECT":"一段","MAREA":" ","LANE":"８４５巷","ALLEY":" ","HOUSE_NO":"２３號","E_COORD97":170815.12,"N_COORD97":2551375.46,"ADDRESS":"長和路一段８４５巷２３號","OBJECTID":624},"geometry":{"x":170815.12000000104,"y":2551375.4600000009}},{"attributes":{"ID":625,"DIS_CODE":0,"TOWNNAME":"安南區","LI":"城西里","LIN":"1鄰","STREET":"城西街","SECT":"三段","MAREA":" ","LANE":"１巷","ALLEY":" ","HOUSE_NO":"１６２號之１５","E_COORD97":158533.22068999999,"N_COORD97":2550574.9453599998,"ADDRESS":"城西街三段１巷１６２號之１５","OBJECTID":625},"geometry":{"x":158533.22069000173,"y":2550574.945363}},{"attributes":{"ID":626,"DIS_CODE":0,"TOWNNAME":"仁德區","LI":"太子里","LIN":"27鄰","STREET":"太子路","SECT":" ","MAREA":" ","LANE":" ","ALLEY":" ","HOUSE_NO":"６９１之１號","E_COORD97":173388.46221100001,"N_COORD97":2543525.22236,"ADDRESS":"太子路６９１之１號","OBJECTID":626},"geometry":{"x":173388.46221100166,"y":2543525.2223570049}},{"attributes":{"ID":627,"DIS_CODE":0,"TOWNNAME":"仁德區","LI":"仁愛里","LIN":"11鄰","STREET":" ","SECT":" ","MAREA":"仁愛","LANE":" ","ALLEY":" ","HOUSE_NO":"２２０號","E_COORD97":170318.74575100001,"N_COORD97":2540006.1200000001,"ADDRESS":"仁愛２２０號","OBJECTID":627},"geometry":{"x":170318.74575100187,"y":2540006.120000001}},{"attributes":{"ID":628,"DIS_CODE":0,"TOWNNAME":"仁德區","LI":"仁愛里","LIN":"11鄰","STREET":" ","SECT":" ","MAREA":"仁愛","LANE":" ","ALLEY":" ","HOUSE_NO":"２２３號","E_COORD97":170304.233699,"N_COORD97":2540006.1200000001,"ADDRESS":"仁愛２２３號","OBJECTID":628},"geometry":{"x":170304.23369900137,"y":2540006.120000001}},{"attributes":{"ID":629,"DIS_CODE":0,"TOWNNAME":"安南區","LI":"城西里","LIN":"3鄰","STREET":"城西街","SECT":"三段","MAREA":" ","LANE":"５１０巷","ALLEY":"２７９弄","HOUSE_NO":"４６號","E_COORD97":157183.72037900001,"N_COORD97":2551443.72725,"ADDRESS":"城西街三段５１０巷２７９弄４６號","OBJECTID":629},"geometry":{"x":157183.72037900053,"y":2551443.7272500005}},{"attributes":{"ID":630,"DIS_CODE":0,"TOWNNAME":"安南區","LI":"東和里","LIN":"2鄰","STREET":"長和路","SECT":"一段","MAREA":" ","LANE":"８４５巷","ALLEY":" ","HOUSE_NO":"３２號","E_COORD97":170777.35999999999,"N_COORD97":2551370.6400000001,"ADDRESS":"長和路一段８４５巷３２號","OBJECTID":630},"geometry":{"x":170777.36000000034,"y":2551370.6399999987}},{"attributes":{"ID":631,"DIS_CODE":0,"TOWNNAME":"安南區","LI":"東和里","LIN":"2鄰","STREET":"長和路","SECT":"一段","MAREA":" ","LANE":"８４５巷","ALLEY":" ","HOUSE_NO":"４０號","E_COORD97":170784.09,"N_COORD97":2551334.1299999999,"ADDRESS":"長和路一段８４５巷４０號","OBJECTID":631},"geometry":{"x":170784.09000000171,"y":2551334.129999999}},{"attributes":{"ID":632,"DIS_CODE":0,"TOWNNAME":"安南區","LI":"東和里","LIN":"5鄰","STREET":"長和路","SECT":"一段","MAREA":" ","LANE":"８４５巷","ALLEY":" ","HOUSE_NO":"４７號","E_COORD97":170794.67999999999,"N_COORD97":2551309.1400000001,"ADDRESS":"長和路一段８４５巷４７號","OBJECTID":632},"geometry":{"x":170794.6799999997,"y":2551309.1400000006}},{"attributes":{"ID":633,"DIS_CODE":0,"TOWNNAME":"安南區","LI":"城西里","LIN":"4鄰","STREET":"城西街","SECT":"三段","MAREA":" ","LANE":"１１０５巷","ALLEY":" ","HOUSE_NO":"９９號之５５","E_COORD97":155439.18952300001,"N_COORD97":2550338.4045099998,"ADDRESS":"城西街三段１１０５巷９９號之５５","OBJECTID":633},"geometry":{"x":155439.18952300027,"y":2550338.4045139998}},{"attributes":{"ID":634,"DIS_CODE":0,"TOWNNAME":"安南區","LI":"東和里","LIN":"5鄰","STREET":"長和路","SECT":"一段","MAREA":" ","LANE":"８４５巷","ALLEY":" ","HOUSE_NO":"６１號","E_COORD97":170836.79000000001,"N_COORD97":2551278.1000000001,"ADDRESS":"長和路一段８４５巷６１號","OBJECTID":634},"geometry":{"x":170836.79000000004,"y":2551278.0999999996}},{"attributes":{"ID":635,"DIS_CODE":0,"TOWNNAME":"仁德區","LI":"仁愛里","LIN":"11鄰","STREET":" ","SECT":" ","MAREA":"仁愛","LANE":" ","ALLEY":" ","HOUSE_NO":"２２６號","E_COORD97":170293.74688699999,"N_COORD97":2540042.3199999998,"ADDRESS":"仁愛２２６號","OBJECTID":635},"geometry":{"x":170293.74688700214,"y":2540042.320000004}},{"attributes":{"ID":636,"DIS_CODE":0,"TOWNNAME":"安南區","LI":"東和里","LIN":"1鄰","STREET":"長和路","SECT":"一段","MAREA":" ","LANE":"８７１巷","ALLEY":"５２弄","HOUSE_NO":"１號","E_COORD97":170705.22,"N_COORD97":2551407.7799999998,"ADDRESS":"長和路一段８７１巷５２弄１號","OBJECTID":636},"geometry":{"x":170705.2200000016,"y":2551407.7799999993}},{"attributes":{"ID":637,"DIS_CODE":0,"TOWNNAME":"安南區","LI":"東和里","LIN":"2鄰","STREET":"長和路","SECT":"一段","MAREA":" ","LANE":"８７１巷","ALLEY":" ","HOUSE_NO":"１００號","E_COORD97":170713.64000000001,"N_COORD97":2551356.3599999999,"ADDRESS":"長和路一段８７１巷１００號","OBJECTID":637},"geometry":{"x":170713.63999999966,"y":2551356.3599999994}},{"attributes":{"ID":638,"DIS_CODE":0,"TOWNNAME":"安南區","LI":"東和里","LIN":"3鄰","STREET":"長和路","SECT":"一段","MAREA":" ","LANE":"９０９巷","ALLEY":" ","HOUSE_NO":"１號","E_COORD97":170688.63,"N_COORD97":2551501.8999999999,"ADDRESS":"長和路一段９０９巷１號","OBJECTID":638},"geometry":{"x":170688.62999999989,"y":2551501.9000000022}},{"attributes":{"ID":639,"DIS_CODE":0,"TOWNNAME":"新營區","LI":"土庫里","LIN":"3鄰","STREET":" ","SECT":" ","MAREA":"土庫","LANE":" ","ALLEY":" ","HOUSE_NO":"２６之１號","E_COORD97":183203.25792800001,"N_COORD97":2579892.54984,"ADDRESS":"土庫２６之１號","OBJECTID":639},"geometry":{"x":183203.25792799983,"y":2579892.5498430002}},{"attributes":{"ID":640,"DIS_CODE":0,"TOWNNAME":"仁德區","LI":"仁義里","LIN":"1鄰","STREET":"義林三街","SECT":" ","MAREA":" ","LANE":" ","ALLEY":" ","HOUSE_NO":"８２號","E_COORD97":174193.30840000001,"N_COORD97":2540990.95285,"ADDRESS":"義林三街８２號","OBJECTID":640},"geometry":{"x":174193.30840000045,"y":2540990.9528460018}},{"attributes":{"ID":641,"DIS_CODE":0,"TOWNNAME":"安南區","LI":"東和里","LIN":"3鄰","STREET":"長和路","SECT":"一段","MAREA":" ","LANE":"９０９巷","ALLEY":" ","HOUSE_NO":"１１號","E_COORD97":170671.54999999999,"N_COORD97":2551488.6800000002,"ADDRESS":"長和路一段９０９巷１１號","OBJECTID":641},"geometry":{"x":170671.55000000075,"y":2551488.6800000016}},{"attributes":{"ID":642,"DIS_CODE":0,"TOWNNAME":"安南區","LI":"東和里","LIN":"3鄰","STREET":"長和路","SECT":"一段","MAREA":" ","LANE":"９４１巷","ALLEY":" ","HOUSE_NO":"１０號","E_COORD97":170586.67000000001,"N_COORD97":2551535.2999999998,"ADDRESS":"長和路一段９４１巷１０號","OBJECTID":642},"geometry":{"x":170586.66999999993,"y":2551535.3000000007}},{"attributes":{"ID":643,"DIS_CODE":0,"TOWNNAME":"仁德區","LI":"太子里","LIN":"27鄰","STREET":"太子路","SECT":" ","MAREA":" ","LANE":" ","ALLEY":" ","HOUSE_NO":"６９１號","E_COORD97":173392.69765099999,"N_COORD97":2543527.2331900001,"ADDRESS":"太子路６９１號","OBJECTID":643},"geometry":{"x":173392.69765099976,"y":2543527.2331900001}},{"attributes":{"ID":644,"DIS_CODE":0,"TOWNNAME":"安南區","LI":"城西里","LIN":"1鄰","STREET":"城西街","SECT":"三段","MAREA":" ","LANE":"１巷","ALLEY":" ","HOUSE_NO":"１６２號之３０","E_COORD97":158737.43778099999,"N_COORD97":2550341.2654900001,"ADDRESS":"城西街三段１巷１６２號之３０","OBJECTID":644},"geometry":{"x":158737.43778100051,"y":2550341.2654899992}},{"attributes":{"ID":645,"DIS_CODE":0,"TOWNNAME":"仁德區","LI":"仁義里","LIN":"1鄰","STREET":"義林路","SECT":" ","MAREA":" ","LANE":"１４８巷","ALLEY":" ","HOUSE_NO":"２號","E_COORD97":174527.47269600001,"N_COORD97":2540623.28804,"ADDRESS":"義林路１４８巷２號","OBJECTID":645},"geometry":{"x":174527.47269599978,"y":2540623.2880450003}},{"attributes":{"ID":646,"DIS_CODE":0,"TOWNNAME":"安南區","LI":"城南里","LIN":"1鄰","STREET":"城西街","SECT":"一段","MAREA":" ","LANE":" ","ALLEY":" ","HOUSE_NO":"８６號","E_COORD97":160666.14161699999,"N_COORD97":2551415.0959999999,"ADDRESS":"城西街一段８６號","OBJECTID":646},"geometry":{"x":160666.1416170001,"y":2551415.0959970038}},{"attributes":{"ID":647,"DIS_CODE":0,"TOWNNAME":"安南區","LI":"東和里","LIN":"3鄰","STREET":"長和路","SECT":"一段","MAREA":" ","LANE":"９４１巷","ALLEY":" ","HOUSE_NO":"３２號","E_COORD97":170560.70000000001,"N_COORD97":2551480.5099999998,"ADDRESS":"長和路一段９４１巷３２號","OBJECTID":647},"geometry":{"x":170560.70000000112,"y":2551480.5100000016}},{"attributes":{"ID":648,"DIS_CODE":0,"TOWNNAME":"安南區","LI":"城西里","LIN":"1鄰","STREET":"城西街","SECT":"三段","MAREA":" ","LANE":"１巷","ALLEY":" ","HOUSE_NO":"１６２號之１００","E_COORD97":158154.86827800001,"N_COORD97":2550966.3168199998,"ADDRESS":"城西街三段１巷１６２號之１００","OBJECTID":648},"geometry":{"x":158154.8682780005,"y":2550966.316819001}},{"attributes":{"ID":649,"DIS_CODE":0,"TOWNNAME":"安南區","LI":"東和里","LIN":"3鄰","STREET":"長和路","SECT":"一段","MAREA":" ","LANE":"９４１巷","ALLEY":" ","HOUSE_NO":"２８號","E_COORD97":170565.98999999999,"N_COORD97":2551490.8500000001,"ADDRESS":"長和路一段９４１巷２８號","OBJECTID":649},"geometry":{"x":170565.99000000022,"y":2551490.8500000015}},{"attributes":{"ID":650,"DIS_CODE":0,"TOWNNAME":"安南區","LI":"城西里","LIN":"2鄰","STREET":"城西街","SECT":"三段","MAREA":" ","LANE":"５１０巷","ALLEY":" ","HOUSE_NO":"２號","E_COORD97":157158.08731999999,"N_COORD97":2550872.0158899999,"ADDRESS":"城西街三段５１０巷２號","OBJECTID":650},"geometry":{"x":157158.0873200018,"y":2550872.0158920009}},{"attributes":{"ID":651,"DIS_CODE":0,"TOWNNAME":"安南區","LI":"東和里","LIN":"2鄰","STREET":"長和路","SECT":"一段","MAREA":" ","LANE":"８４５巷","ALLEY":" ","HOUSE_NO":"２８號","E_COORD97":170789.87,"N_COORD97":2551379.5299999998,"ADDRESS":"長和路一段８４５巷２８號","OBJECTID":651},"geometry":{"x":170789.87000000104,"y":2551379.5299999993}},{"attributes":{"ID":652,"DIS_CODE":0,"TOWNNAME":"安南區","LI":"東和里","LIN":"7鄰","STREET":"長和路","SECT":"一段","MAREA":" ","LANE":"２巷","ALLEY":" ","HOUSE_NO":"１９１號","E_COORD97":172378.647929,"N_COORD97":2550792.0883399998,"ADDRESS":"長和路一段２巷１９１號","OBJECTID":652},"geometry":{"x":172378.64792900067,"y":2550792.0883350037}},{"attributes":{"ID":653,"DIS_CODE":0,"TOWNNAME":"安南區","LI":"東和里","LIN":"7鄰","STREET":"長和路","SECT":"一段","MAREA":" ","LANE":"２巷","ALLEY":" ","HOUSE_NO":"２２號","E_COORD97":172043.37,"N_COORD97":2550401.52,"ADDRESS":"長和路一段２巷２２號","OBJECTID":653},"geometry":{"x":172043.37000000011,"y":2550401.5200000014}},{"attributes":{"ID":654,"DIS_CODE":0,"TOWNNAME":"安南區","LI":"城西里","LIN":"1鄰","STREET":"城西街","SECT":"三段","MAREA":" ","LANE":"１巷","ALLEY":" ","HOUSE_NO":"１８５號之１０","E_COORD97":158863.802402,"N_COORD97":2550123.7781099998,"ADDRESS":"城西街三段１巷１８５號之１０","OBJECTID":654},"geometry":{"x":158863.80240199994,"y":2550123.7781070024}},{"attributes":{"ID":655,"DIS_CODE":0,"TOWNNAME":"安南區","LI":"東和里","LIN":"7鄰","STREET":"長和路","SECT":"一段","MAREA":" ","LANE":"２巷","ALLEY":" ","HOUSE_NO":"２８號","E_COORD97":172053.62,"N_COORD97":2550423.8100000001,"ADDRESS":"長和路一段２巷２８號","OBJECTID":655},"geometry":{"x":172053.62000000011,"y":2550423.8100000042}},{"attributes":{"ID":656,"DIS_CODE":0,"TOWNNAME":"安南區","LI":"城南里","LIN":"1鄰","STREET":"城西街","SECT":"一段","MAREA":" ","LANE":" ","ALLEY":" ","HOUSE_NO":"９４號","E_COORD97":160654.17452999999,"N_COORD97":2551408.9713900001,"ADDRESS":"城西街一段９４號","OBJECTID":656},"geometry":{"x":160654.17453000229,"y":2551408.9713860042}},{"attributes":{"ID":657,"DIS_CODE":0,"TOWNNAME":"仁德區","LI":"太子里","LIN":"27鄰","STREET":"太子路","SECT":" ","MAREA":" ","LANE":" ","ALLEY":" ","HOUSE_NO":"６９３號","E_COORD97":173382.74436000001,"N_COORD97":2543522.4706899999,"ADDRESS":"太子路６９３號","OBJECTID":657},"geometry":{"x":173382.7443599999,"y":2543522.4706900008}},{"attributes":{"ID":658,"DIS_CODE":0,"TOWNNAME":"安南區","LI":"東和里","LIN":"7鄰","STREET":"長和路","SECT":"一段","MAREA":" ","LANE":"２巷","ALLEY":" ","HOUSE_NO":"２６號","E_COORD97":172084.07963600001,"N_COORD97":2550404.5268799998,"ADDRESS":"長和路一段２巷２６號","OBJECTID":658},"geometry":{"x":172084.0796360001,"y":2550404.5268779993}},{"attributes":{"ID":659,"DIS_CODE":0,"TOWNNAME":"仁德區","LI":"仁義里","LIN":"6鄰","STREET":"中山路","SECT":" ","MAREA":" ","LANE":"４７７巷","ALLEY":" ","HOUSE_NO":"１１號","E_COORD97":173659.8106,"N_COORD97":2541221.4577199998,"ADDRESS":"中山路４７７巷１１號","OBJECTID":659},"geometry":{"x":173659.8106000023,"y":2541221.4577220026}},{"attributes":{"ID":660,"DIS_CODE":0,"TOWNNAME":"安南區","LI":"東和里","LIN":"7鄰","STREET":"長和路","SECT":"一段","MAREA":" ","LANE":" ","ALLEY":" ","HOUSE_NO":"６號","E_COORD97":171985.39608100001,"N_COORD97":2550311.18193,"ADDRESS":"長和路一段６號","OBJECTID":660},"geometry":{"x":171985.39608099964,"y":2550311.1819280032}},{"attributes":{"ID":661,"DIS_CODE":0,"TOWNNAME":"安南區","LI":"東和里","LIN":"7鄰","STREET":"長和路","SECT":"一段","MAREA":" ","LANE":"２巷","ALLEY":" ","HOUSE_NO":"１號","E_COORD97":171998.31388500001,"N_COORD97":2550338.48691,"ADDRESS":"長和路一段２巷１號","OBJECTID":661},"geometry":{"x":171998.31388500053,"y":2550338.4869129974}},{"attributes":{"ID":662,"DIS_CODE":0,"TOWNNAME":"安南區","LI":"東和里","LIN":"7鄰","STREET":"長和路","SECT":"一段","MAREA":" ","LANE":"２巷","ALLEY":" ","HOUSE_NO":"２號","E_COORD97":172010.172853,"N_COORD97":2550331.2902500001,"ADDRESS":"長和路一段２巷２號","OBJECTID":662},"geometry":{"x":172010.17285300139,"y":2550331.2902510017}},{"attributes":{"ID":663,"DIS_CODE":0,"TOWNNAME":"安南區","LI":"東和里","LIN":"7鄰","STREET":"長和路","SECT":"一段","MAREA":" ","LANE":"２巷","ALLEY":" ","HOUSE_NO":"３號","E_COORD97":172028.80837399999,"N_COORD97":2550352.03357,"ADDRESS":"長和路一段２巷３號","OBJECTID":663},"geometry":{"x":172028.80837399978,"y":2550352.0335730016}},{"attributes":{"ID":664,"DIS_CODE":0,"TOWNNAME":"安南區","LI":"東和里","LIN":"7鄰","STREET":"長和路","SECT":"一段","MAREA":" ","LANE":"２巷","ALLEY":" ","HOUSE_NO":"６號","E_COORD97":172042.573248,"N_COORD97":2550367.4852300002,"ADDRESS":"長和路一段２巷６號","OBJECTID":664},"geometry":{"x":172042.57324800082,"y":2550367.4852310009}},{"attributes":{"ID":665,"DIS_CODE":0,"TOWNNAME":"安南區","LI":"東和里","LIN":"7鄰","STREET":"長和路","SECT":"一段","MAREA":" ","LANE":"２巷","ALLEY":" ","HOUSE_NO":"８號","E_COORD97":172049.349801,"N_COORD97":2550372.5652299998,"ADDRESS":"長和路一段２巷８號","OBJECTID":665},"geometry":{"x":172049.34980100207,"y":2550372.5652280003}},{"attributes":{"ID":666,"DIS_CODE":0,"TOWNNAME":"安南區","LI":"東和里","LIN":"7鄰","STREET":"長和路","SECT":"一段","MAREA":" ","LANE":"２巷","ALLEY":" ","HOUSE_NO":"３６號","E_COORD97":172085.35023899999,"N_COORD97":2550433.9485300002,"ADDRESS":"長和路一段２巷３６號","OBJECTID":666},"geometry":{"x":172085.35023900121,"y":2550433.9485290013}},{"attributes":{"ID":667,"DIS_CODE":0,"TOWNNAME":"安南區","LI":"東和里","LIN":"7鄰","STREET":"長和路","SECT":"一段","MAREA":" ","LANE":"２巷","ALLEY":" ","HOUSE_NO":"４２號","E_COORD97":172067.13825300001,"N_COORD97":2550438.1818599999,"ADDRESS":"長和路一段２巷４２號","OBJECTID":667},"geometry":{"x":172067.13825299963,"y":2550438.1818600036}},{"attributes":{"ID":668,"DIS_CODE":0,"TOWNNAME":"安南區","LI":"東和里","LIN":"7鄰","STREET":"長和路","SECT":"一段","MAREA":" ","LANE":"２巷","ALLEY":"１２０弄","HOUSE_NO":"１９５號","E_COORD97":172304.52937999999,"N_COORD97":2550779.8116799998,"ADDRESS":"長和路一段２巷１２０弄１９５號","OBJECTID":668},"geometry":{"x":172304.5293800002,"y":2550779.8116750028}},{"attributes":{"ID":669,"DIS_CODE":0,"TOWNNAME":"安南區","LI":"城南里","LIN":"5鄰","STREET":"城西街","SECT":"一段","MAREA":" ","LANE":" ","ALLEY":" ","HOUSE_NO":"２２６號","E_COORD97":160386.52041900001,"N_COORD97":2551234.8574199998,"ADDRESS":"城西街一段２２６號","OBJECTID":669},"geometry":{"x":160386.52041900065,"y":2551234.8574210014}},{"attributes":{"ID":670,"DIS_CODE":0,"TOWNNAME":"安南區","LI":"城西里","LIN":"1鄰","STREET":"城西街","SECT":"三段","MAREA":" ","LANE":"１巷","ALLEY":" ","HOUSE_NO":"１８６號之９０","E_COORD97":158868.48943799999,"N_COORD97":2549982.1202699998,"ADDRESS":"城西街三段１巷１８６號之９０","OBJECTID":670},"geometry":{"x":158868.48943800014,"y":2549982.1202670019}},{"attributes":{"ID":671,"DIS_CODE":0,"TOWNNAME":"仁德區","LI":"太子里","LIN":"29鄰","STREET":"太子四街","SECT":" ","MAREA":" ","LANE":"３１巷","ALLEY":" ","HOUSE_NO":"２號","E_COORD97":173061.195003,"N_COORD97":2543047.6098600002,"ADDRESS":"太子四街３１巷２號","OBJECTID":671},"geometry":{"x":173061.19500300102,"y":2543047.6098609995}},{"attributes":{"ID":672,"DIS_CODE":0,"TOWNNAME":"新營區","LI":"太北里","LIN":"21鄰","STREET":" ","SECT":" ","MAREA":"太子宮","LANE":" ","ALLEY":" ","HOUSE_NO":"１５２號","E_COORD97":175303.82039000001,"N_COORD97":2577207.3347,"ADDRESS":"太子宮１５２號","OBJECTID":672},"geometry":{"x":175303.82039000001,"y":2577207.3347050026}},{"attributes":{"ID":673,"DIS_CODE":0,"TOWNNAME":"仁德區","LI":"太子里","LIN":"29鄰","STREET":"太子四街","SECT":" ","MAREA":" ","LANE":"３１巷","ALLEY":" ","HOUSE_NO":"４號","E_COORD97":173075.59549899999,"N_COORD97":2543043.0590300001,"ADDRESS":"太子四街３１巷４號","OBJECTID":673},"geometry":{"x":173075.59549899958,"y":2543043.0590300001}},{"attributes":{"ID":674,"DIS_CODE":0,"TOWNNAME":"仁德區","LI":"太子里","LIN":"29鄰","STREET":"太子四街","SECT":" ","MAREA":" ","LANE":"３１巷","ALLEY":" ","HOUSE_NO":"６號","E_COORD97":173089.360678,"N_COORD97":2543037.1323699998,"ADDRESS":"太子四街３１巷６號","OBJECTID":674},"geometry":{"x":173089.36067800131,"y":2543037.1323659997}},{"attributes":{"ID":675,"DIS_CODE":0,"TOWNNAME":"仁德區","LI":"太子里","LIN":"29鄰","STREET":"太子四街","SECT":" ","MAREA":" ","LANE":"３１巷","ALLEY":" ","HOUSE_NO":"８號","E_COORD97":173101.43168199999,"N_COORD97":2543033.0048699998,"ADDRESS":"太子四街３１巷８號","OBJECTID":675},"geometry":{"x":173101.43168199994,"y":2543033.004869001}},{"attributes":{"ID":676,"DIS_CODE":0,"TOWNNAME":"新營區","LI":"土庫里","LIN":"3鄰","STREET":" ","SECT":" ","MAREA":"土庫","LANE":" ","ALLEY":" ","HOUSE_NO":"２９號之１","E_COORD97":183236.31155499999,"N_COORD97":2579894.9310900001,"ADDRESS":"土庫２９號之１","OBJECTID":676},"geometry":{"x":183236.31155500002,"y":2579894.9310919996}},{"attributes":{"ID":677,"DIS_CODE":0,"TOWNNAME":"安南區","LI":"東和里","LIN":"7鄰","STREET":"長和路","SECT":"一段","MAREA":" ","LANE":"２巷","ALLEY":" ","HOUSE_NO":"８０號","E_COORD97":172214.31651599999,"N_COORD97":2550670.8034000001,"ADDRESS":"長和路一段２巷８０號","OBJECTID":677},"geometry":{"x":172214.31651599985,"y":2550670.8034010008}},{"attributes":{"ID":678,"DIS_CODE":0,"TOWNNAME":"安南區","LI":"東和里","LIN":"7鄰","STREET":"長和路","SECT":"一段","MAREA":" ","LANE":"２巷","ALLEY":" ","HOUSE_NO":"１００號","E_COORD97":172256.24643900001,"N_COORD97":2550725.8366999999,"ADDRESS":"長和路一段２巷１００號","OBJECTID":678},"geometry":{"x":172256.24643900059,"y":2550725.8367040046}},{"attributes":{"ID":679,"DIS_CODE":0,"TOWNNAME":"安南區","LI":"東和里","LIN":"7鄰","STREET":"長和路","SECT":"一段","MAREA":" ","LANE":"２巷","ALLEY":" ","HOUSE_NO":"９８號","E_COORD97":172250.10518700001,"N_COORD97":2550717.5817100001,"ADDRESS":"長和路一段２巷９８號","OBJECTID":679},"geometry":{"x":172250.10518700071,"y":2550717.5817090012}},{"attributes":{"ID":680,"DIS_CODE":0,"TOWNNAME":"仁德區","LI":"太子里","LIN":"29鄰","STREET":"太子四街","SECT":" ","MAREA":" ","LANE":"３１巷","ALLEY":" ","HOUSE_NO":"１０號","E_COORD97":173113.50268599999,"N_COORD97":2543028.8773699999,"ADDRESS":"太子四街３１巷１０號","OBJECTID":680},"geometry":{"x":173113.50268600043,"y":2543028.8773710001}},{"attributes":{"ID":681,"DIS_CODE":0,"TOWNNAME":"仁德區","LI":"太子里","LIN":"29鄰","STREET":"太子四街","SECT":" ","MAREA":" ","LANE":"３１巷","ALLEY":" ","HOUSE_NO":"１２號","E_COORD97":173127.056094,"N_COORD97":2543024.1148700002,"ADDRESS":"太子四街３１巷１２號","OBJECTID":681},"geometry":{"x":173127.05609400012,"y":2543024.1148729995}},{"attributes":{"ID":682,"DIS_CODE":0,"TOWNNAME":"仁德區","LI":"太子里","LIN":"29鄰","STREET":"太子四街","SECT":" ","MAREA":" ","LANE":"３１巷","ALLEY":" ","HOUSE_NO":"１４號","E_COORD97":173146.962661,"N_COORD97":2543018.7173799998,"ADDRESS":"太子四街３１巷１４號","OBJECTID":682},"geometry":{"x":173146.9626610009,"y":2543018.717376003}},{"attributes":{"ID":683,"DIS_CODE":0,"TOWNNAME":"永康區","LI":"西橋里","LIN":"7鄰","STREET":"中山南路","SECT":" ","MAREA":" ","LANE":"４３巷","ALLEY":"４０弄","HOUSE_NO":"１號","E_COORD97":170705.196773,"N_COORD97":2545975.2602599999,"ADDRESS":"中山南路４３巷４０弄１號","OBJECTID":683},"geometry":{"x":170705.19677300006,"y":2545975.2602619994}},{"attributes":{"ID":684,"DIS_CODE":0,"TOWNNAME":"安南區","LI":"東和里","LIN":"7鄰","STREET":"長和路","SECT":"一段","MAREA":" ","LANE":"２２２巷","ALLEY":" ","HOUSE_NO":"７０號","E_COORD97":171923.983568,"N_COORD97":2550830.8233099999,"ADDRESS":"長和路一段２２２巷７０號","OBJECTID":684},"geometry":{"x":171923.98356799968,"y":2550830.8233140018}},{"attributes":{"ID":685,"DIS_CODE":0,"TOWNNAME":"安南區","LI":"東和里","LIN":"7鄰","STREET":"長和路","SECT":"一段","MAREA":" ","LANE":"２２２巷","ALLEY":" ","HOUSE_NO":"７５號","E_COORD97":171942.40732200001,"N_COORD97":2550845.0049700001,"ADDRESS":"長和路一段２２２巷７５號","OBJECTID":685},"geometry":{"x":171942.40732199978,"y":2550845.0049729999}},{"attributes":{"ID":686,"DIS_CODE":0,"TOWNNAME":"安南區","LI":"東和里","LIN":"7鄰","STREET":"長和路","SECT":"一段","MAREA":" ","LANE":"２２２巷","ALLEY":"１００弄","HOUSE_NO":"２８號","E_COORD97":171985.60784800001,"N_COORD97":2550827.8599800002,"ADDRESS":"長和路一段２２２巷１００弄２８號","OBJECTID":686},"geometry":{"x":171985.60784800071,"y":2550827.8599830028}},{"attributes":{"ID":687,"DIS_CODE":0,"TOWNNAME":"安南區","LI":"東和里","LIN":"7鄰","STREET":"長和路","SECT":"一段","MAREA":" ","LANE":"２２２巷","ALLEY":"１００弄","HOUSE_NO":"５１號","E_COORD97":172082.17373000001,"N_COORD97":2550826.5899800002,"ADDRESS":"長和路一段２２２巷１００弄５１號","OBJECTID":687},"geometry":{"x":172082.17372999992,"y":2550826.5899829995}},{"attributes":{"ID":688,"DIS_CODE":0,"TOWNNAME":"安南區","LI":"東和里","LIN":"7鄰","STREET":"長和路","SECT":"一段","MAREA":" ","LANE":"２２２巷","ALLEY":"１００弄","HOUSE_NO":"５９號","E_COORD97":172096.57002099999,"N_COORD97":2550798.5291599999,"ADDRESS":"長和路一段２２２巷１００弄５９號","OBJECTID":688},"geometry":{"x":172096.57002100069,"y":2550798.5291610025}},{"attributes":{"ID":689,"DIS_CODE":0,"TOWNNAME":"仁德區","LI":"仁愛里","LIN":"11鄰","STREET":" ","SECT":" ","MAREA":"仁愛","LANE":" ","ALLEY":" ","HOUSE_NO":"２３１號","E_COORD97":170309.47710399999,"N_COORD97":2540042.5699999998,"ADDRESS":"仁愛２３１號","OBJECTID":689},"geometry":{"x":170309.47710399982,"y":2540042.5700000003}},{"attributes":{"ID":690,"DIS_CODE":0,"TOWNNAME":"仁德區","LI":"太子里","LIN":"30鄰","STREET":"中正路","SECT":"三段","MAREA":" ","LANE":"５６６巷","ALLEY":" ","HOUSE_NO":"１５號","E_COORD97":173975.17652499999,"N_COORD97":2543185.8679599999,"ADDRESS":"中正路三段５６６巷１５號","OBJECTID":690},"geometry":{"x":173975.17652500141,"y":2543185.8679569997}},{"attributes":{"ID":691,"DIS_CODE":0,"TOWNNAME":"安南區","LI":"東和里","LIN":"7鄰","STREET":"長和路","SECT":"一段","MAREA":" ","LANE":"２２２巷","ALLEY":"１００弄","HOUSE_NO":"６２號","E_COORD97":172137.86852600001,"N_COORD97":2550744.4633599999,"ADDRESS":"長和路一段２２２巷１００弄６２號","OBJECTID":691},"geometry":{"x":172137.8685259996,"y":2550744.4633610025}},{"attributes":{"ID":692,"DIS_CODE":0,"TOWNNAME":"新營區","LI":"太北里","LIN":"21鄰","STREET":" ","SECT":" ","MAREA":"太子宮","LANE":" ","ALLEY":" ","HOUSE_NO":"１５２號之３","E_COORD97":175288.13806,"N_COORD97":2577183.2047100002,"ADDRESS":"太子宮１５２號之３","OBJECTID":692},"geometry":{"x":175288.13806000166,"y":2577183.204710003}},{"attributes":{"ID":693,"DIS_CODE":0,"TOWNNAME":"安南區","LI":"東和里","LIN":"7鄰","STREET":"長和路","SECT":"一段","MAREA":" ","LANE":"２２２巷","ALLEY":"１００弄","HOUSE_NO":"８５號","E_COORD97":172161.79822900001,"N_COORD97":2550758.4333500001,"ADDRESS":"長和路一段２２２巷１００弄８５號","OBJECTID":693},"geometry":{"x":172161.7982289996,"y":2550758.4333529994}},{"attributes":{"ID":694,"DIS_CODE":0,"TOWNNAME":"仁德區","LI":"太子里","LIN":"30鄰","STREET":"中正路","SECT":"三段","MAREA":" ","LANE":"６３６巷","ALLEY":" ","HOUSE_NO":"２１號","E_COORD97":173843.454344,"N_COORD97":2543365.4670299999,"ADDRESS":"中正路三段６３６巷２１號","OBJECTID":694},"geometry":{"x":173843.45434400067,"y":2543365.4670270048}},{"attributes":{"ID":695,"DIS_CODE":0,"TOWNNAME":"仁德區","LI":"仁愛里","LIN":"11鄰","STREET":" ","SECT":" ","MAREA":"仁愛","LANE":" ","ALLEY":" ","HOUSE_NO":"２３３號","E_COORD97":170315.62088999999,"N_COORD97":2540042.6699999999,"ADDRESS":"仁愛２３３號","OBJECTID":695},"geometry":{"x":170315.6208899999,"y":2540042.6700000037}},{"attributes":{"ID":696,"DIS_CODE":0,"TOWNNAME":"仁德區","LI":"太子里","LIN":"30鄰","STREET":"中正路","SECT":"三段","MAREA":" ","LANE":"６３６巷","ALLEY":" ","HOUSE_NO":"２３號","E_COORD97":173843.87788799999,"N_COORD97":2543360.3870299999,"ADDRESS":"中正路三段６３６巷２３號","OBJECTID":696},"geometry":{"x":173843.87788800057,"y":2543360.3870299999}},{"attributes":{"ID":697,"DIS_CODE":0,"TOWNNAME":"新市區","LI":"港墘里","LIN":"3鄰","STREET":"三民街","SECT":" ","MAREA":" ","LANE":"５０巷","ALLEY":" ","HOUSE_NO":"４５號","E_COORD97":178555.62450999999,"N_COORD97":2553491.3237600001,"ADDRESS":"三民街５０巷４５號","OBJECTID":697},"geometry":{"x":178555.62451000046,"y":2553491.323757004}},{"attributes":{"ID":698,"DIS_CODE":0,"TOWNNAME":"新營區","LI":"太北里","LIN":"21鄰","STREET":" ","SECT":" ","MAREA":"太子宮","LANE":" ","ALLEY":" ","HOUSE_NO":"１５２號之４","E_COORD97":175293.48000000001,"N_COORD97":2577183.77,"ADDRESS":"太子宮１５２號之４","OBJECTID":698},"geometry":{"x":175293.48000000138,"y":2577183.7700000014}},{"attributes":{"ID":699,"DIS_CODE":0,"TOWNNAME":"仁德區","LI":"太子里","LIN":"30鄰","STREET":"中正路","SECT":"三段","MAREA":" ","LANE":"６３６巷","ALLEY":" ","HOUSE_NO":"２５號","E_COORD97":173844.93674800001,"N_COORD97":2543354.8837000001,"ADDRESS":"中正路三段６３６巷２５號","OBJECTID":699},"geometry":{"x":173844.93674799986,"y":2543354.8836990036}},{"attributes":{"ID":700,"DIS_CODE":0,"TOWNNAME":"永康區","LI":"西橋里","LIN":"7鄰","STREET":"中山南路","SECT":" ","MAREA":" ","LANE":"４３巷","ALLEY":"４０弄","HOUSE_NO":"３號","E_COORD97":170708.16409100001,"N_COORD97":2545977.5885899998,"ADDRESS":"中山南路４３巷４０弄３號","OBJECTID":700},"geometry":{"x":170708.16409100126,"y":2545977.5885940026}},{"attributes":{"ID":701,"DIS_CODE":0,"TOWNNAME":"仁德區","LI":"太子里","LIN":"30鄰","STREET":"中正路","SECT":"三段","MAREA":" ","LANE":"６３６巷","ALLEY":" ","HOUSE_NO":"２７號","E_COORD97":173846.84269600001,"N_COORD97":2543349.6978699998,"ADDRESS":"中正路三段６３６巷２７號","OBJECTID":701},"geometry":{"x":173846.84269599989,"y":2543349.6978689991}},{"attributes":{"ID":702,"DIS_CODE":0,"TOWNNAME":"新營區","LI":"太北里","LIN":"21鄰","STREET":" ","SECT":" ","MAREA":"太子宮","LANE":" ","ALLEY":" ","HOUSE_NO":"１５２之９號","E_COORD97":175308.92657800001,"N_COORD97":2577194.6630699998,"ADDRESS":"太子宮１５２之９號","OBJECTID":702},"geometry":{"x":175308.92657800019,"y":2577194.6630680021}},{"attributes":{"ID":703,"DIS_CODE":0,"TOWNNAME":"新營區","LI":"太北里","LIN":"21鄰","STREET":" ","SECT":" ","MAREA":"太子宮","LANE":" ","ALLEY":" ","HOUSE_NO":"１５２之１０號","E_COORD97":175316.97966499999,"N_COORD97":2577194.1338999998,"ADDRESS":"太子宮１５２之１０號","OBJECTID":703},"geometry":{"x":175316.97966499906,"y":2577194.133902004}},{"attributes":{"ID":704,"DIS_CODE":0,"TOWNNAME":"仁德區","LI":"太子里","LIN":"30鄰","STREET":"中正路","SECT":"三段","MAREA":" ","LANE":"６３６巷","ALLEY":"１９弄","HOUSE_NO":"６號","E_COORD97":173864.84331600001,"N_COORD97":2543365.1495300001,"ADDRESS":"中正路三段６３６巷１９弄６號","OBJECTID":704},"geometry":{"x":173864.84331599995,"y":2543365.1495270021}},{"attributes":{"ID":705,"DIS_CODE":0,"TOWNNAME":"仁德區","LI":"太子里","LIN":"30鄰","STREET":"中正路","SECT":"三段","MAREA":" ","LANE":"６３６巷","ALLEY":"１９弄","HOUSE_NO":"８號","E_COORD97":173869.07875499999,"N_COORD97":2543364.7261899998,"ADDRESS":"中正路三段６３６巷１９弄８號","OBJECTID":705},"geometry":{"x":173869.07875500154,"y":2543364.7261939999}},{"attributes":{"ID":706,"DIS_CODE":0,"TOWNNAME":"仁德區","LI":"太子里","LIN":"30鄰","STREET":"中正路","SECT":"三段","MAREA":" ","LANE":"６３６巷","ALLEY":"１９弄","HOUSE_NO":"１０號","E_COORD97":173873.52596699999,"N_COORD97":2543364.7261899998,"ADDRESS":"中正路三段６３６巷１９弄１０號","OBJECTID":706},"geometry":{"x":173873.52596700005,"y":2543364.7261939999}},{"attributes":{"ID":707,"DIS_CODE":0,"TOWNNAME":"永康區","LI":"西橋里","LIN":"7鄰","STREET":"中山南路","SECT":" ","MAREA":" ","LANE":"４３巷","ALLEY":"４０弄","HOUSE_NO":"５號","E_COORD97":170711.13140899999,"N_COORD97":2545979.4935900001,"ADDRESS":"中山南路４３巷４０弄５號","OBJECTID":707},"geometry":{"x":170711.13140900061,"y":2545979.4935930017}},{"attributes":{"ID":708,"DIS_CODE":0,"TOWNNAME":"新營區","LI":"太北里","LIN":"21鄰","STREET":" ","SECT":" ","MAREA":"太子宮","LANE":" ","ALLEY":" ","HOUSE_NO":"１５２之１５號","E_COORD97":175334.14545499999,"N_COORD97":2577156.98642,"ADDRESS":"太子宮１５２之１５號","OBJECTID":708},"geometry":{"x":175334.14545499999,"y":2577156.9864220023}},{"attributes":{"ID":709,"DIS_CODE":0,"TOWNNAME":"仁德區","LI":"太子里","LIN":"30鄰","STREET":"中正路","SECT":"三段","MAREA":" ","LANE":"６３６巷","ALLEY":"１９弄","HOUSE_NO":"２號","E_COORD97":173860.184332,"N_COORD97":2543365.9961899999,"ADDRESS":"中正路三段６３６巷１９弄２號","OBJECTID":709},"geometry":{"x":173860.18433200195,"y":2543365.9961929992}},{"attributes":{"ID":710,"DIS_CODE":0,"TOWNNAME":"新營區","LI":"太北里","LIN":"21鄰","STREET":" ","SECT":" ","MAREA":"太子宮","LANE":" ","ALLEY":" ","HOUSE_NO":"１５２之１７號","E_COORD97":175278.621541,"N_COORD97":2577209.4797299998,"ADDRESS":"太子宮１５２之１７號","OBJECTID":710},"geometry":{"x":175278.62154099997,"y":2577209.4797270019}},{"attributes":{"ID":711,"DIS_CODE":0,"TOWNNAME":"新營區","LI":"太北里","LIN":"21鄰","STREET":" ","SECT":" ","MAREA":"太子宮","LANE":" ","ALLEY":" ","HOUSE_NO":"１５２之１８號","E_COORD97":175282.86000799999,"N_COORD97":2577209.2680600001,"ADDRESS":"太子宮１５２之１８號","OBJECTID":711},"geometry":{"x":175282.86000800133,"y":2577209.2680600006}},{"attributes":{"ID":712,"DIS_CODE":0,"TOWNNAME":"永康區","LI":"西橋里","LIN":"7鄰","STREET":"中山南路","SECT":" ","MAREA":" ","LANE":"４３巷","ALLEY":"４０弄","HOUSE_NO":"７號","E_COORD97":170716.00628900001,"N_COORD97":2545981.61026,"ADDRESS":"中山南路４３巷４０弄７號","OBJECTID":712},"geometry":{"x":170716.00628900062,"y":2545981.610258}},{"attributes":{"ID":713,"DIS_CODE":0,"TOWNNAME":"新營區","LI":"太北里","LIN":"21鄰","STREET":" ","SECT":" ","MAREA":"太子宮","LANE":" ","ALLEY":" ","HOUSE_NO":"１５２之２０號","E_COORD97":175293.456175,"N_COORD97":2577208.7388900002,"ADDRESS":"太子宮１５２之２０號","OBJECTID":713},"geometry":{"x":175293.45617500134,"y":2577208.7388940006}},{"attributes":{"ID":714,"DIS_CODE":0,"TOWNNAME":"安南區","LI":"城西里","LIN":"2鄰","STREET":"城西街","SECT":"三段","MAREA":" ","LANE":"３５０巷","ALLEY":" ","HOUSE_NO":"２４號之３","E_COORD97":157458.012457,"N_COORD97":2550985.5853400002,"ADDRESS":"城西街三段３５０巷２４號之３","OBJECTID":714},"geometry":{"x":157458.01245700102,"y":2550985.5853410009}},{"attributes":{"ID":715,"DIS_CODE":0,"TOWNNAME":"安南區","LI":"城西里","LIN":"2鄰","STREET":"城西街","SECT":"三段","MAREA":" ","LANE":"３５０巷","ALLEY":" ","HOUSE_NO":"２４號之１０","E_COORD97":157444.87816200001,"N_COORD97":2551002.5186600001,"ADDRESS":"城西街三段３５０巷２４號之１０","OBJECTID":715},"geometry":{"x":157444.87816200033,"y":2551002.5186650008}},{"attributes":{"ID":716,"DIS_CODE":0,"TOWNNAME":"新營區","LI":"太北里","LIN":"21鄰","STREET":" ","SECT":" ","MAREA":"太子宮","LANE":" ","ALLEY":" ","HOUSE_NO":"１５２之２３號","E_COORD97":175312.95312200001,"N_COORD97":2577209.3738899999,"ADDRESS":"太子宮１５２之２３號","OBJECTID":716},"geometry":{"x":175312.95312200207,"y":2577209.373893002}},{"attributes":{"ID":717,"DIS_CODE":0,"TOWNNAME":"安南區","LI":"城西里","LIN":"2鄰","STREET":"城西街","SECT":"三段","MAREA":" ","LANE":"３５０巷","ALLEY":" ","HOUSE_NO":"２４號之１２","E_COORD97":157434.28599,"N_COORD97":2551036.1736499998,"ADDRESS":"城西街三段３５０巷２４號之１２","OBJECTID":717},"geometry":{"x":157434.28598999977,"y":2551036.1736469995}},{"attributes":{"ID":718,"DIS_CODE":0,"TOWNNAME":"永康區","LI":"西橋里","LIN":"5鄰","STREET":"中山南路","SECT":" ","MAREA":" ","LANE":"４３巷","ALLEY":"４０弄","HOUSE_NO":"６號","E_COORD97":170720.66921699999,"N_COORD97":2545954.0936099999,"ADDRESS":"中山南路４３巷４０弄６號","OBJECTID":718},"geometry":{"x":170720.66921699978,"y":2545954.093607001}},{"attributes":{"ID":719,"DIS_CODE":0,"TOWNNAME":"新營區","LI":"太北里","LIN":"21鄰","STREET":" ","SECT":" ","MAREA":"太子宮","LANE":" ","ALLEY":" ","HOUSE_NO":"１５２之２５號","E_COORD97":175322.065825,"N_COORD97":2577211.4905599998,"ADDRESS":"太子宮１５２之２５號","OBJECTID":719},"geometry":{"x":175322.06582500041,"y":2577211.4905590024}},{"attributes":{"ID":720,"DIS_CODE":0,"TOWNNAME":"仁德區","LI":"仁德里","LIN":"39鄰","STREET":"文宏路","SECT":" ","MAREA":" ","LANE":" ","ALLEY":" ","HOUSE_NO":"２４８號","E_COORD97":172440.060864,"N_COORD97":2541911.0878499998,"ADDRESS":"文宏路２４８號","OBJECTID":720},"geometry":{"x":172440.06086400058,"y":2541911.0878520012}},{"attributes":{"ID":721,"DIS_CODE":0,"TOWNNAME":"仁德區","LI":"仁德里","LIN":"39鄰","STREET":"文宏路","SECT":" ","MAREA":" ","LANE":" ","ALLEY":" ","HOUSE_NO":"２５０號","E_COORD97":172440.484516,"N_COORD97":2541915.1095199999,"ADDRESS":"文宏路２５０號","OBJECTID":721},"geometry":{"x":172440.48451600131,"y":2541915.1095170006}},{"attributes":{"ID":722,"DIS_CODE":0,"TOWNNAME":"永康區","LI":"西橋里","LIN":"5鄰","STREET":"中山南路","SECT":" ","MAREA":" ","LANE":"４３巷","ALLEY":"４０弄","HOUSE_NO":"８號","E_COORD97":170724.90824300001,"N_COORD97":2545955.3636099999,"ADDRESS":"中山南路４３巷４０弄８號","OBJECTID":722},"geometry":{"x":170724.90824300051,"y":2545955.3636060022}},{"attributes":{"ID":723,"DIS_CODE":0,"TOWNNAME":"仁德區","LI":"仁德里","LIN":"39鄰","STREET":"文宏路","SECT":" ","MAREA":" ","LANE":" ","ALLEY":" ","HOUSE_NO":"２５２號","E_COORD97":172441.33181999999,"N_COORD97":2541919.13118,"ADDRESS":"文宏路２５２號","OBJECTID":723},"geometry":{"x":172441.33182000089,"y":2541919.1311810017}},{"attributes":{"ID":724,"DIS_CODE":0,"TOWNNAME":"永康區","LI":"西橋里","LIN":"5鄰","STREET":"中山南路","SECT":" ","MAREA":" ","LANE":"４３巷","ALLEY":"４０弄","HOUSE_NO":"１０號","E_COORD97":170728.51141499999,"N_COORD97":2545957.6919399998,"ADDRESS":"中山南路４３巷４０弄１０號","OBJECTID":724},"geometry":{"x":170728.511415001,"y":2545957.6919379998}},{"attributes":{"ID":725,"DIS_CODE":0,"TOWNNAME":"仁德區","LI":"仁德里","LIN":"39鄰","STREET":"文宏路","SECT":" ","MAREA":" ","LANE":" ","ALLEY":" ","HOUSE_NO":"２５６號","E_COORD97":172441.96729900001,"N_COORD97":2541922.9411800001,"ADDRESS":"文宏路２５６號","OBJECTID":725},"geometry":{"x":172441.96729900129,"y":2541922.9411790017}},{"attributes":{"ID":726,"DIS_CODE":0,"TOWNNAME":"永康區","LI":"西橋里","LIN":"5鄰","STREET":"中山南路","SECT":" ","MAREA":" ","LANE":"４３巷","ALLEY":"４０弄","HOUSE_NO":"１２號","E_COORD97":170732.53849000001,"N_COORD97":2545959.38527,"ADDRESS":"中山南路４３巷４０弄１２號","OBJECTID":726},"geometry":{"x":170732.53849000018,"y":2545959.3852699976}},{"attributes":{"ID":727,"DIS_CODE":0,"TOWNNAME":"仁德區","LI":"太子里","LIN":"30鄰","STREET":"中正路","SECT":"三段","MAREA":" ","LANE":" ","ALLEY":" ","HOUSE_NO":"６３８號","E_COORD97":173777.593253,"N_COORD97":2543359.4345300002,"ADDRESS":"中正路三段６３８號","OBJECTID":727},"geometry":{"x":173777.59325299971,"y":2543359.434530003}},{"attributes":{"ID":728,"DIS_CODE":0,"TOWNNAME":"安南區","LI":"城西里","LIN":"5鄰","STREET":"城西街","SECT":"三段","MAREA":" ","LANE":" ","ALLEY":" ","HOUSE_NO":"６１８之１號","E_COORD97":156912.72740199999,"N_COORD97":2550812.8654299998,"ADDRESS":"城西街三段６１８之１號","OBJECTID":728},"geometry":{"x":156912.72740199976,"y":2550812.8654340003}},{"attributes":{"ID":729,"DIS_CODE":0,"TOWNNAME":"仁德區","LI":"仁德里","LIN":"39鄰","STREET":"文宏路","SECT":" ","MAREA":" ","LANE":" ","ALLEY":" ","HOUSE_NO":"２５８號","E_COORD97":172441.755473,"N_COORD97":2541928.0211800002,"ADDRESS":"文宏路２５８號","OBJECTID":729},"geometry":{"x":172441.75547300093,"y":2541928.0211769994}},{"attributes":{"ID":730,"DIS_CODE":0,"TOWNNAME":"永康區","LI":"西橋里","LIN":"5鄰","STREET":"中山南路","SECT":" ","MAREA":" ","LANE":"４３巷","ALLEY":"４０弄","HOUSE_NO":"１６號","E_COORD97":170735.71775899999,"N_COORD97":2545961.92527,"ADDRESS":"中山南路４３巷４０弄１６號","OBJECTID":730},"geometry":{"x":170735.71775900014,"y":2545961.9252690021}},{"attributes":{"ID":731,"DIS_CODE":0,"TOWNNAME":"仁德區","LI":"仁德里","LIN":"39鄰","STREET":"文宏路","SECT":" ","MAREA":" ","LANE":" ","ALLEY":" ","HOUSE_NO":"２６０號","E_COORD97":172441.33181999999,"N_COORD97":2541932.8895100001,"ADDRESS":"文宏路２６０號","OBJECTID":731},"geometry":{"x":172441.33182000089,"y":2541932.8895069975}},{"attributes":{"ID":732,"DIS_CODE":0,"TOWNNAME":"仁德區","LI":"太子里","LIN":"30鄰","STREET":"中正路","SECT":"三段","MAREA":" ","LANE":" ","ALLEY":" ","HOUSE_NO":"６４２號","E_COORD97":173769.54591700001,"N_COORD97":2543368.3245299999,"ADDRESS":"中正路三段６４２號","OBJECTID":732},"geometry":{"x":173769.54591700062,"y":2543368.3245250024}},{"attributes":{"ID":733,"DIS_CODE":0,"TOWNNAME":"永康區","LI":"西橋里","LIN":"5鄰","STREET":"中山南路","SECT":" ","MAREA":" ","LANE":"４３巷","ALLEY":"４０弄","HOUSE_NO":"１８號","E_COORD97":170738.89702800001,"N_COORD97":2545965.1002699998,"ADDRESS":"中山南路４３巷４０弄１８號","OBJECTID":733},"geometry":{"x":170738.89702800009,"y":2545965.1002670024}},{"attributes":{"ID":734,"DIS_CODE":0,"TOWNNAME":"安南區","LI":"城西里","LIN":"5鄰","STREET":"城西街","SECT":"三段","MAREA":" ","LANE":" ","ALLEY":" ","HOUSE_NO":"６１８之３號","E_COORD97":156894.72070899999,"N_COORD97":2550817.09877,"ADDRESS":"城西街三段６１８之３號","OBJECTID":734},"geometry":{"x":156894.72070900071,"y":2550817.0987660009}},{"attributes":{"ID":735,"DIS_CODE":0,"TOWNNAME":"仁德區","LI":"仁德里","LIN":"39鄰","STREET":"文宏路","SECT":" ","MAREA":" ","LANE":" ","ALLEY":" ","HOUSE_NO":"２６２號","E_COORD97":172441.54364600001,"N_COORD97":2541938.1811700002,"ADDRESS":"文宏路２６２號","OBJECTID":735},"geometry":{"x":172441.54364600126,"y":2541938.1811710037}},{"attributes":{"ID":736,"DIS_CODE":0,"TOWNNAME":"永康區","LI":"西橋里","LIN":"5鄰","STREET":"中山南路","SECT":" ","MAREA":" ","LANE":"４３巷","ALLEY":"４０弄","HOUSE_NO":"２０號","E_COORD97":170742.924103,"N_COORD97":2545967.6402699999,"ADDRESS":"中山南路４３巷４０弄２０號","OBJECTID":736},"geometry":{"x":170742.9241030002,"y":2545967.6402660012}},{"attributes":{"ID":737,"DIS_CODE":0,"TOWNNAME":"仁德區","LI":"仁德里","LIN":"39鄰","STREET":"文宏路","SECT":" ","MAREA":" ","LANE":" ","ALLEY":" ","HOUSE_NO":"２６６號","E_COORD97":172443.45008099999,"N_COORD97":2541942.6261700001,"ADDRESS":"文宏路２６６號","OBJECTID":737},"geometry":{"x":172443.45008100104,"y":2541942.6261690017}},{"attributes":{"ID":738,"DIS_CODE":0,"TOWNNAME":"仁德區","LI":"太子里","LIN":"30鄰","STREET":"中正路","SECT":"三段","MAREA":" ","LANE":" ","ALLEY":" ","HOUSE_NO":"６６２號","E_COORD97":173745.615682,"N_COORD97":2543395.1003399999,"ADDRESS":"中正路三段６６２號","OBJECTID":738},"geometry":{"x":173745.61568200029,"y":2543395.1003440022}},{"attributes":{"ID":739,"DIS_CODE":0,"TOWNNAME":"仁德區","LI":"仁義里","LIN":"10鄰","STREET":"仁義一街","SECT":" ","MAREA":" ","LANE":" ","ALLEY":" ","HOUSE_NO":"５８號","E_COORD97":173437.406017,"N_COORD97":2541192.38167,"ADDRESS":"仁義一街５８號","OBJECTID":739},"geometry":{"x":173437.40601699986,"y":2541192.3816660009}},{"attributes":{"ID":740,"DIS_CODE":0,"TOWNNAME":"仁德區","LI":"太子里","LIN":"30鄰","STREET":"中正路","SECT":"三段","MAREA":" ","LANE":" ","ALLEY":" ","HOUSE_NO":"６７６號","E_COORD97":173729.09746600001,"N_COORD97":2543423.14616,"ADDRESS":"中正路三段６７６號","OBJECTID":740},"geometry":{"x":173729.09746600129,"y":2543423.1461620033}},{"attributes":{"ID":741,"DIS_CODE":0,"TOWNNAME":"仁德區","LI":"太子里","LIN":"30鄰","STREET":"中正路","SECT":"三段","MAREA":" ","LANE":" ","ALLEY":" ","HOUSE_NO":"６７０號","E_COORD97":173736.72125800001,"N_COORD97":2543409.2820000001,"ADDRESS":"中正路三段６７０號","OBJECTID":741},"geometry":{"x":173736.72125799954,"y":2543409.2820030004}},{"attributes":{"ID":742,"DIS_CODE":0,"TOWNNAME":"仁德區","LI":"太子里","LIN":"30鄰","STREET":"太子三街","SECT":" ","MAREA":" ","LANE":" ","ALLEY":" ","HOUSE_NO":"７９號","E_COORD97":173801.67000000001,"N_COORD97":2543462.75,"ADDRESS":"太子三街７９號","OBJECTID":742},"geometry":{"x":173801.67000000086,"y":2543462.75}},{"attributes":{"ID":743,"DIS_CODE":0,"TOWNNAME":"安南區","LI":"城南里","LIN":"2鄰","STREET":"城西街","SECT":"一段","MAREA":" ","LANE":"６１巷","ALLEY":" ","HOUSE_NO":"３８號","E_COORD97":160743.73966200001,"N_COORD97":2551321.1961300001,"ADDRESS":"城西街一段６１巷３８號","OBJECTID":743},"geometry":{"x":160743.73966200091,"y":2551321.1961269993}},{"attributes":{"ID":744,"DIS_CODE":0,"TOWNNAME":"仁德區","LI":"仁德里","LIN":"39鄰","STREET":"文華路","SECT":"三段","MAREA":" ","LANE":" ","ALLEY":" ","HOUSE_NO":"６０６號","E_COORD97":172572.45216399999,"N_COORD97":2541866.00288,"ADDRESS":"文華路三段６０６號","OBJECTID":744},"geometry":{"x":172572.4521639999,"y":2541866.0028770026}},{"attributes":{"ID":745,"DIS_CODE":0,"TOWNNAME":"仁德區","LI":"土庫里","LIN":"8鄰","STREET":"土庫五街","SECT":" ","MAREA":" ","LANE":" ","ALLEY":" ","HOUSE_NO":"３３號","E_COORD97":174010.040469,"N_COORD97":2543170.1039800001,"ADDRESS":"土庫五街３３號","OBJECTID":745},"geometry":{"x":174010.04046900105,"y":2543170.1039770003}},{"attributes":{"ID":746,"DIS_CODE":0,"TOWNNAME":"安南區","LI":"城南里","LIN":"3鄰","STREET":"城西街","SECT":"一段","MAREA":" ","LANE":"６１巷","ALLEY":"５８弄","HOUSE_NO":"１９號","E_COORD97":160707.72772699999,"N_COORD97":2551256.6378299999,"ADDRESS":"城西街一段６１巷５８弄１９號","OBJECTID":746},"geometry":{"x":160707.7277270006,"y":2551256.6378280036}},{"attributes":{"ID":747,"DIS_CODE":0,"TOWNNAME":"仁德區","LI":"仁德里","LIN":"39鄰","STREET":"文華路","SECT":"三段","MAREA":" ","LANE":" ","ALLEY":" ","HOUSE_NO":"５２４號","E_COORD97":172507.84520899999,"N_COORD97":2541624.0296299998,"ADDRESS":"文華路三段５２４號","OBJECTID":747},"geometry":{"x":172507.8452089997,"y":2541624.0296300035}},{"attributes":{"ID":748,"DIS_CODE":0,"TOWNNAME":"永康區","LI":"西橋里","LIN":"5鄰","STREET":"中山南路","SECT":" ","MAREA":" ","LANE":"４３巷","ALLEY":"４０弄","HOUSE_NO":"２號","E_COORD97":170716.642143,"N_COORD97":2545951.97694,"ADDRESS":"中山南路４３巷４０弄２號","OBJECTID":748},"geometry":{"x":170716.64214299992,"y":2545951.9769410007}},{"attributes":{"ID":749,"DIS_CODE":0,"TOWNNAME":"仁德區","LI":"太子里","LIN":"30鄰","STREET":"太子三街","SECT":" ","MAREA":" ","LANE":" ","ALLEY":" ","HOUSE_NO":"８１號","E_COORD97":173797.71159300001,"N_COORD97":2543482.94196,"ADDRESS":"太子三街８１號","OBJECTID":749},"geometry":{"x":173797.71159300022,"y":2543482.9419630021}},{"attributes":{"ID":750,"DIS_CODE":0,"TOWNNAME":"仁德區","LI":"仁德里","LIN":"39鄰","STREET":"文華路","SECT":"三段","MAREA":" ","LANE":" ","ALLEY":" ","HOUSE_NO":"５２６號","E_COORD97":172509.53981799999,"N_COORD97":2541629.1096299998,"ADDRESS":"文華路三段５２６號","OBJECTID":750},"geometry":{"x":172509.53981800191,"y":2541629.1096270029}},{"attributes":{"ID":751,"DIS_CODE":0,"TOWNNAME":"仁德區","LI":"仁德里","LIN":"32鄰","STREET":"中山路","SECT":" ","MAREA":" ","LANE":" ","ALLEY":" ","HOUSE_NO":"６３６號","E_COORD97":173131.03753500001,"N_COORD97":2541399.0280800001,"ADDRESS":"中山路６３６號","OBJECTID":751},"geometry":{"x":173131.03753499966,"y":2541399.0280840006}},{"attributes":{"ID":752,"DIS_CODE":0,"TOWNNAME":"仁德區","LI":"仁德里","LIN":"33鄰","STREET":"中山路","SECT":" ","MAREA":" ","LANE":" ","ALLEY":" ","HOUSE_NO":"６９０之１號","E_COORD97":172819.42197200001,"N_COORD97":2541488.6208000001,"ADDRESS":"中山路６９０之１號","OBJECTID":752},"geometry":{"x":172819.42197200097,"y":2541488.6207989994}},{"attributes":{"ID":753,"DIS_CODE":0,"TOWNNAME":"安南區","LI":"安和里","LIN":"1鄰","STREET":"府安路","SECT":"三段","MAREA":" ","LANE":"３６８巷","ALLEY":" ","HOUSE_NO":"９號","E_COORD97":169601.97,"N_COORD97":2547412.8700000001,"ADDRESS":"府安路三段３６８巷９號","OBJECTID":753},"geometry":{"x":169601.97000000067,"y":2547412.870000001}},{"attributes":{"ID":754,"DIS_CODE":0,"TOWNNAME":"仁德區","LI":"仁德里","LIN":"33鄰","STREET":"中山路","SECT":" ","MAREA":" ","LANE":"６９６巷","ALLEY":" ","HOUSE_NO":"４號","E_COORD97":172823.44666799999,"N_COORD97":2541533.91744,"ADDRESS":"中山路６９６巷４號","OBJECTID":754},"geometry":{"x":172823.44666799996,"y":2541533.917441003}},{"attributes":{"ID":755,"DIS_CODE":0,"TOWNNAME":"安南區","LI":"安和里","LIN":"1鄰","STREET":"府安路","SECT":"三段","MAREA":" ","LANE":"３６８巷","ALLEY":" ","HOUSE_NO":"７號","E_COORD97":169603.14283999999,"N_COORD97":2547410.1514599998,"ADDRESS":"府安路三段３６８巷７號","OBJECTID":755},"geometry":{"x":169603.1428400008,"y":2547410.1514619999}},{"attributes":{"ID":756,"DIS_CODE":0,"TOWNNAME":"新市區","LI":"港墘里","LIN":"10鄰","STREET":" ","SECT":" ","MAREA":"崙頂","LANE":" ","ALLEY":" ","HOUSE_NO":"６０號之１","E_COORD97":178933.94122000001,"N_COORD97":2552616.3824700001,"ADDRESS":"崙頂６０號之１","OBJECTID":756},"geometry":{"x":178933.94122000132,"y":2552616.3824700024}},{"attributes":{"ID":757,"DIS_CODE":0,"TOWNNAME":"仁德區","LI":"仁德里","LIN":"33鄰","STREET":"文德路","SECT":" ","MAREA":" ","LANE":" ","ALLEY":" ","HOUSE_NO":"４７號","E_COORD97":172904.15240399999,"N_COORD97":2541672.7707000002,"ADDRESS":"文德路４７號","OBJECTID":757},"geometry":{"x":172904.15240400005,"y":2541672.7707000002}},{"attributes":{"ID":758,"DIS_CODE":0,"TOWNNAME":"仁德區","LI":"仁德里","LIN":"30鄰","STREET":"淨修街","SECT":" ","MAREA":" ","LANE":"１７５巷","ALLEY":"４９弄","HOUSE_NO":"１９之１號","E_COORD97":172100.90791099999,"N_COORD97":2541234.1976000001,"ADDRESS":"淨修街１７５巷４９弄１９之１號","OBJECTID":758},"geometry":{"x":172100.90791100077,"y":2541234.1976030003}},{"attributes":{"ID":759,"DIS_CODE":0,"TOWNNAME":"山上區","LI":"平陽里","LIN":"1鄰","STREET":" ","SECT":" ","MAREA":"石子崎","LANE":" ","ALLEY":" ","HOUSE_NO":"１０號","E_COORD97":186526.576952,"N_COORD97":2553978.4099300001,"ADDRESS":"石子崎１０號","OBJECTID":759},"geometry":{"x":186526.57695200108,"y":2553978.4099349994}},{"attributes":{"ID":760,"DIS_CODE":0,"TOWNNAME":"仁德區","LI":"太子里","LIN":"31鄰","STREET":"太子三街","SECT":" ","MAREA":" ","LANE":" ","ALLEY":" ","HOUSE_NO":"３８號","E_COORD97":173909.937665,"N_COORD97":2543446.5485200002,"ADDRESS":"太子三街３８號","OBJECTID":760},"geometry":{"x":173909.93766499963,"y":2543446.5485159997}},{"attributes":{"ID":761,"DIS_CODE":0,"TOWNNAME":"仁德區","LI":"太子里","LIN":"31鄰","STREET":"太子三街","SECT":" ","MAREA":" ","LANE":" ","ALLEY":" ","HOUSE_NO":"４０號","E_COORD97":173904.643365,"N_COORD97":2543447.8185100001,"ADDRESS":"太子三街４０號","OBJECTID":761},"geometry":{"x":173904.64336500224,"y":2543447.818514999}},{"attributes":{"ID":762,"DIS_CODE":0,"TOWNNAME":"新營區","LI":"太北里","LIN":"21鄰","STREET":" ","SECT":" ","MAREA":"太子宮","LANE":" ","ALLEY":" ","HOUSE_NO":"１５２之２８號","E_COORD97":175288.34998699999,"N_COORD97":2577237.8146899999,"ADDRESS":"太子宮１５２之２８號","OBJECTID":762},"geometry":{"x":175288.34998700116,"y":2577237.8146880008}},{"attributes":{"ID":763,"DIS_CODE":0,"TOWNNAME":"仁德區","LI":"太子里","LIN":"31鄰","STREET":"太子三街","SECT":" ","MAREA":" ","LANE":"６２巷","ALLEY":" ","HOUSE_NO":"２號","E_COORD97":173853.81808600001,"N_COORD97":2543454.59185,"ADDRESS":"太子三街６２巷２號","OBJECTID":763},"geometry":{"x":173853.81808600109,"y":2543454.5918450002}},{"attributes":{"ID":764,"DIS_CODE":0,"TOWNNAME":"仁德區","LI":"仁義里","LIN":"1鄰","STREET":"義林七街","SECT":" ","MAREA":" ","LANE":" ","ALLEY":" ","HOUSE_NO":"６７號","E_COORD97":174361.47048300001,"N_COORD97":2541115.4602600001,"ADDRESS":"義林七街６７號","OBJECTID":764},"geometry":{"x":174361.47048300132,"y":2541115.460264001}},{"attributes":{"ID":765,"DIS_CODE":0,"TOWNNAME":"仁德區","LI":"太子里","LIN":"31鄰","STREET":"太子三街","SECT":" ","MAREA":" ","LANE":"６２巷","ALLEY":" ","HOUSE_NO":"４號","E_COORD97":173853.28865599999,"N_COORD97":2543478.2455799999,"ADDRESS":"太子三街６２巷４號","OBJECTID":765},"geometry":{"x":173853.28865600191,"y":2543478.2455819994}},{"attributes":{"ID":766,"DIS_CODE":0,"TOWNNAME":"仁德區","LI":"太子里","LIN":"31鄰","STREET":"太子三街","SECT":" ","MAREA":" ","LANE":"６２巷","ALLEY":" ","HOUSE_NO":"６號","E_COORD97":173862.394852,"N_COORD97":2543478.1397500001,"ADDRESS":"太子三街６２巷６號","OBJECTID":766},"geometry":{"x":173862.39485200029,"y":2543478.1397479996}},{"attributes":{"ID":767,"DIS_CODE":0,"TOWNNAME":"新營區","LI":"太北里","LIN":"21鄰","STREET":" ","SECT":" ","MAREA":"太子宮","LANE":" ","ALLEY":" ","HOUSE_NO":"１５２之３０號","E_COORD97":175298.52230700001,"N_COORD97":2577237.0738599999,"ADDRESS":"太子宮１５２之３０號","OBJECTID":767},"geometry":{"x":175298.52230700105,"y":2577237.0738550015}},{"attributes":{"ID":768,"DIS_CODE":0,"TOWNNAME":"山上區","LI":"平陽里","LIN":"1鄰","STREET":" ","SECT":" ","MAREA":"石子崎","LANE":" ","ALLEY":" ","HOUSE_NO":"９號","E_COORD97":186522.55137900001,"N_COORD97":2553992.0624299999,"ADDRESS":"石子崎９號","OBJECTID":768},"geometry":{"x":186522.55137900077,"y":2553992.0624279995}},{"attributes":{"ID":769,"DIS_CODE":0,"TOWNNAME":"新營區","LI":"太北里","LIN":"21鄰","STREET":" ","SECT":" ","MAREA":"太子宮","LANE":" ","ALLEY":" ","HOUSE_NO":"１５２之３１號","E_COORD97":175302.54884999999,"N_COORD97":2577236.75636,"ADDRESS":"太子宮１５２之３１號","OBJECTID":769},"geometry":{"x":175302.54885000084,"y":2577236.7563550025}},{"attributes":{"ID":770,"DIS_CODE":0,"TOWNNAME":"仁德區","LI":"太子里","LIN":"31鄰","STREET":"太子南路","SECT":" ","MAREA":" ","LANE":"１７巷","ALLEY":" ","HOUSE_NO":"６號","E_COORD97":173980.56362599999,"N_COORD97":2543248.5873699998,"ADDRESS":"太子南路１７巷６號","OBJECTID":770},"geometry":{"x":173980.56362600066,"y":2543248.5873720013}},{"attributes":{"ID":771,"DIS_CODE":0,"TOWNNAME":"佳里區","LI":"鎮山里","LIN":"23鄰","STREET":"鎮山街","SECT":" ","MAREA":" ","LANE":" ","ALLEY":" ","HOUSE_NO":"９１號","E_COORD97":166482.03566600001,"N_COORD97":2561089.1155400001,"ADDRESS":"鎮山街９１號","OBJECTID":771},"geometry":{"x":166482.03566600103,"y":2561089.1155370027}},{"attributes":{"ID":772,"DIS_CODE":0,"TOWNNAME":"仁德區","LI":"太子里","LIN":"31鄰","STREET":"太子南路","SECT":" ","MAREA":" ","LANE":"１７巷","ALLEY":" ","HOUSE_NO":"８號","E_COORD97":173980.140082,"N_COORD97":2543243.93071,"ADDRESS":"太子南路１７巷８號","OBJECTID":772},"geometry":{"x":173980.14008200075,"y":2543243.9307080004}},{"attributes":{"ID":773,"DIS_CODE":0,"TOWNNAME":"仁德區","LI":"太子里","LIN":"31鄰","STREET":"太子南路","SECT":" ","MAREA":" ","LANE":"１７巷","ALLEY":" ","HOUSE_NO":"１０號","E_COORD97":173979.92830999999,"N_COORD97":2543239.9090399998,"ADDRESS":"太子南路１７巷１０號","OBJECTID":773},"geometry":{"x":173979.92831000127,"y":2543239.9090439994}},{"attributes":{"ID":774,"DIS_CODE":0,"TOWNNAME":"仁德區","LI":"太子里","LIN":"31鄰","STREET":"太子南路","SECT":" ","MAREA":" ","LANE":"１７巷","ALLEY":" ","HOUSE_NO":"１２號","E_COORD97":173979.71653800001,"N_COORD97":2543235.25238,"ADDRESS":"太子南路１７巷１２號","OBJECTID":774},"geometry":{"x":173979.71653800178,"y":2543235.2523800023}},{"attributes":{"ID":775,"DIS_CODE":0,"TOWNNAME":"仁德區","LI":"太子里","LIN":"31鄰","STREET":"太子南路","SECT":" ","MAREA":" ","LANE":"１７巷","ALLEY":" ","HOUSE_NO":"１６號","E_COORD97":173978.86945,"N_COORD97":2543231.0190499998,"ADDRESS":"太子南路１７巷１６號","OBJECTID":775},"geometry":{"x":173978.86945000011,"y":2543231.019049}},{"attributes":{"ID":776,"DIS_CODE":0,"TOWNNAME":"仁德區","LI":"太子里","LIN":"31鄰","STREET":"太子南路","SECT":" ","MAREA":" ","LANE":"１７巷","ALLEY":" ","HOUSE_NO":"１８號","E_COORD97":173976.963502,"N_COORD97":2543225.51572,"ADDRESS":"太子南路１７巷１８號","OBJECTID":776},"geometry":{"x":173976.96350200195,"y":2543225.5157180037}},{"attributes":{"ID":777,"DIS_CODE":0,"TOWNNAME":"仁德區","LI":"太子里","LIN":"31鄰","STREET":"太子南路","SECT":" ","MAREA":" ","LANE":"１７巷","ALLEY":" ","HOUSE_NO":"２０號","E_COORD97":173972.09274600001,"N_COORD97":2543217.8957199999,"ADDRESS":"太子南路１７巷２０號","OBJECTID":777},"geometry":{"x":173972.09274600167,"y":2543217.8957219999}},{"attributes":{"ID":778,"DIS_CODE":0,"TOWNNAME":"新營區","LI":"舊部里","LIN":"1鄰","STREET":" ","SECT":" ","MAREA":"舊部","LANE":" ","ALLEY":" ","HOUSE_NO":"５號","E_COORD97":176966.83134899999,"N_COORD97":2575413.9624200002,"ADDRESS":"舊部５號","OBJECTID":778},"geometry":{"x":176966.83134900033,"y":2575413.9624150004}},{"attributes":{"ID":779,"DIS_CODE":0,"TOWNNAME":"山上區","LI":"平陽里","LIN":"1鄰","STREET":" ","SECT":" ","MAREA":"石子崎","LANE":" ","ALLEY":" ","HOUSE_NO":"８號","E_COORD97":186507.19063999999,"N_COORD97":2554013.1761699999,"ADDRESS":"石子崎８號","OBJECTID":779},"geometry":{"x":186507.1906399997,"y":2554013.1761659998}},{"attributes":{"ID":780,"DIS_CODE":0,"TOWNNAME":"山上區","LI":"平陽里","LIN":"1鄰","STREET":" ","SECT":" ","MAREA":"石子崎","LANE":" ","ALLEY":" ","HOUSE_NO":"８之１號","E_COORD97":186498.71575,"N_COORD97":2554032.9669900001,"ADDRESS":"石子崎８之１號","OBJECTID":780},"geometry":{"x":186498.71575000044,"y":2554032.9669890013}},{"attributes":{"ID":781,"DIS_CODE":0,"TOWNNAME":"永康區","LI":"三民里","LIN":"12鄰","STREET":"和平路","SECT":" ","MAREA":" ","LANE":"２５１巷","ALLEY":" ","HOUSE_NO":"８號","E_COORD97":174693.041065,"N_COORD97":2550784.5058900001,"ADDRESS":"和平路２５１巷８號","OBJECTID":781},"geometry":{"x":174693.04106500093,"y":2550784.5058860015}},{"attributes":{"ID":782,"DIS_CODE":0,"TOWNNAME":"永康區","LI":"復國里","LIN":"33鄰","STREET":"復華一街","SECT":" ","MAREA":" ","LANE":"６６巷","ALLEY":" ","HOUSE_NO":"７２號","E_COORD97":172520.53130999999,"N_COORD97":2545104.4904900002,"ADDRESS":"復華一街６６巷７２號","OBJECTID":782},"geometry":{"x":172520.53131000046,"y":2545104.4904900007}},{"attributes":{"ID":783,"DIS_CODE":0,"TOWNNAME":"仁德區","LI":"仁德里","LIN":"39鄰","STREET":"文宏路","SECT":" ","MAREA":" ","LANE":"１９５巷","ALLEY":" ","HOUSE_NO":"８９號","E_COORD97":172355.17641300001,"N_COORD97":2542071.8966700002,"ADDRESS":"文宏路１９５巷８９號","OBJECTID":783},"geometry":{"x":172355.17641299963,"y":2542071.8966690004}},{"attributes":{"ID":784,"DIS_CODE":0,"TOWNNAME":"新營區","LI":"舊部里","LIN":"1鄰","STREET":" ","SECT":" ","MAREA":"舊部","LANE":" ","ALLEY":" ","HOUSE_NO":"４號","E_COORD97":176979.54157,"N_COORD97":2575402.32075,"ADDRESS":"舊部４號","OBJECTID":784},"geometry":{"x":176979.54157000035,"y":2575402.3207540009}},{"attributes":{"ID":785,"DIS_CODE":0,"TOWNNAME":"新營區","LI":"舊部里","LIN":"1鄰","STREET":" ","SECT":" ","MAREA":"舊部","LANE":" ","ALLEY":" ","HOUSE_NO":"８號","E_COORD97":176985.049333,"N_COORD97":2575412.05742,"ADDRESS":"舊部８號","OBJECTID":785},"geometry":{"x":176985.04933299962,"y":2575412.0574159995}},{"attributes":{"ID":786,"DIS_CODE":0,"TOWNNAME":"新市區","LI":"新市里","LIN":"11鄰","STREET":"中正路","SECT":" ","MAREA":" ","LANE":" ","ALLEY":" ","HOUSE_NO":"３７６之１號","E_COORD97":177676.550969,"N_COORD97":2553255.82271,"ADDRESS":"中正路３７６之１號","OBJECTID":786},"geometry":{"x":177676.55096899997,"y":2553255.8227070011}},{"attributes":{"ID":787,"DIS_CODE":0,"TOWNNAME":"安南區","LI":"溪頂里","LIN":"19鄰","STREET":"賢安街","SECT":" ","MAREA":" ","LANE":" ","ALLEY":" ","HOUSE_NO":"４２號之１","E_COORD97":168617.94,"N_COORD97":2547432.5499999998,"ADDRESS":"賢安街４２號之１","OBJECTID":787},"geometry":{"x":168617.94000000134,"y":2547432.5500000026}},{"attributes":{"ID":788,"DIS_CODE":0,"TOWNNAME":"仁德區","LI":"太子里","LIN":"31鄰","STREET":"太子路","SECT":" ","MAREA":" ","LANE":" ","ALLEY":" ","HOUSE_NO":"５２７號","E_COORD97":173940.75049100001,"N_COORD97":2543480.6797500001,"ADDRESS":"太子路５２７號","OBJECTID":788},"geometry":{"x":173940.75049100164,"y":2543480.6797470041}},{"attributes":{"ID":789,"DIS_CODE":0,"TOWNNAME":"安南區","LI":"溪頂里","LIN":"26鄰","STREET":"郡安路","SECT":"四段","MAREA":" ","LANE":"２７８巷","ALLEY":" ","HOUSE_NO":"１８號","E_COORD97":168564.04522,"N_COORD97":2547607.01719,"ADDRESS":"郡安路四段２７８巷１８號","OBJECTID":789},"geometry":{"x":168564.04522000067,"y":2547607.0171860028}},{"attributes":{"ID":790,"DIS_CODE":0,"TOWNNAME":"安南區","LI":"溪頂里","LIN":"26鄰","STREET":"郡安路","SECT":"四段","MAREA":" ","LANE":"２７８巷","ALLEY":" ","HOUSE_NO":"８號","E_COORD97":168560.44517600001,"N_COORD97":2547627.3371799998,"ADDRESS":"郡安路四段２７８巷８號","OBJECTID":790},"geometry":{"x":168560.44517599978,"y":2547627.3371750023}},{"attributes":{"ID":791,"DIS_CODE":0,"TOWNNAME":"安南區","LI":"城西里","LIN":"4鄰","STREET":"城西街","SECT":"三段","MAREA":" ","LANE":"７６６巷","ALLEY":" ","HOUSE_NO":"７號","E_COORD97":156568.94031899999,"N_COORD97":2550832.49492,"ADDRESS":"城西街三段７６６巷７號","OBJECTID":791},"geometry":{"x":156568.94031900074,"y":2550832.4949209988}},{"attributes":{"ID":792,"DIS_CODE":0,"TOWNNAME":"六甲區","LI":"甲東里","LIN":"11鄰","STREET":"曾文街","SECT":" ","MAREA":" ","LANE":" ","ALLEY":" ","HOUSE_NO":"１４７之１０號","E_COORD97":185303.35295299999,"N_COORD97":2570593.3057800001,"ADDRESS":"曾文街１４７之１０號","OBJECTID":792},"geometry":{"x":185303.35295300186,"y":2570593.3057840001}},{"attributes":{"ID":793,"DIS_CODE":0,"TOWNNAME":"新市區","LI":"新市里","LIN":"23鄰","STREET":"復興路","SECT":" ","MAREA":" ","LANE":" ","ALLEY":" ","HOUSE_NO":"９７號","E_COORD97":177799.37238399999,"N_COORD97":2553574.8042000001,"ADDRESS":"復興路９７號","OBJECTID":793},"geometry":{"x":177799.37238400057,"y":2553574.8042010013}},{"attributes":{"ID":794,"DIS_CODE":0,"TOWNNAME":"新營區","LI":"舊部里","LIN":"1鄰","STREET":" ","SECT":" ","MAREA":"舊部","LANE":" ","ALLEY":" ","HOUSE_NO":"１１號","E_COORD97":177027.20490000001,"N_COORD97":2575417.5607500002,"ADDRESS":"舊部１１號","OBJECTID":794},"geometry":{"x":177027.20490000118,"y":2575417.5607460029}},{"attributes":{"ID":795,"DIS_CODE":0,"TOWNNAME":"仁德區","LI":"太子里","LIN":"31鄰","STREET":"太子南路","SECT":" ","MAREA":" ","LANE":" ","ALLEY":" ","HOUSE_NO":"２３號","E_COORD97":173970.65007900001,"N_COORD97":2543268.4575100001,"ADDRESS":"太子南路２３號","OBJECTID":795},"geometry":{"x":173970.65007899888,"y":2543268.4575100038}},{"attributes":{"ID":796,"DIS_CODE":0,"TOWNNAME":"仁德區","LI":"太子里","LIN":"31鄰","STREET":"太子南路","SECT":" ","MAREA":" ","LANE":" ","ALLEY":" ","HOUSE_NO":"２１號","E_COORD97":173975.520835,"N_COORD97":2543267.50501,"ADDRESS":"太子南路２１號","OBJECTID":796},"geometry":{"x":173975.52083500195,"y":2543267.5050100014}},{"attributes":{"ID":797,"DIS_CODE":0,"TOWNNAME":"仁德區","LI":"太子里","LIN":"31鄰","STREET":"太子南路","SECT":" ","MAREA":" ","LANE":" ","ALLEY":" ","HOUSE_NO":"１９號","E_COORD97":173980.17981900001,"N_COORD97":2543266.5525099998,"ADDRESS":"太子南路１９號","OBJECTID":797},"geometry":{"x":173980.17981899995,"y":2543266.5525109991}},{"attributes":{"ID":798,"DIS_CODE":0,"TOWNNAME":"新市區","LI":"新市里","LIN":"23鄰","STREET":"復興路","SECT":" ","MAREA":" ","LANE":" ","ALLEY":" ","HOUSE_NO":"９５號","E_COORD97":177799.73851900001,"N_COORD97":2553569.6406100001,"ADDRESS":"復興路９５號","OBJECTID":798},"geometry":{"x":177799.73851900175,"y":2553569.6406070013}},{"attributes":{"ID":799,"DIS_CODE":0,"TOWNNAME":"仁德區","LI":"太子里","LIN":"31鄰","STREET":"太子南路","SECT":" ","MAREA":" ","LANE":"１７巷","ALLEY":" ","HOUSE_NO":"２號","E_COORD97":173980.98717000001,"N_COORD97":2543252.8207,"ADDRESS":"太子南路１７巷２號","OBJECTID":799},"geometry":{"x":173980.98717000056,"y":2543252.8207030036}},{"attributes":{"ID":800,"DIS_CODE":0,"TOWNNAME":"新營區","LI":"舊部里","LIN":"1鄰","STREET":" ","SECT":" ","MAREA":"舊部","LANE":" ","ALLEY":" ","HOUSE_NO":"８之１號","E_COORD97":177002.843643,"N_COORD97":2575429.2024099999,"ADDRESS":"舊部８之１號","OBJECTID":800},"geometry":{"x":177002.84364300035,"y":2575429.2024060022}}]}