{"displayFieldName":"TOWNNAME","fieldAliases":{"ID":"ID","DIS_CODE":"DIS_CODE","TOWNNAME":"TOWNNAME","LI":"LI","LIN":"LIN","STREET":"STREET","SECT":"SECT","MAREA":"MAREA","LANE":"LANE","ALLEY":"ALLEY","HOUSE_NO":"HOUSE_NO","E_COORD97":"E_COORD97","N_COORD97":"N_COORD97","ADDRESS":"ADDRESS","OBJECTID":"OBJECTID"},"geometryType":"esriGeometryPoint","spatialReference":{"wkid":102443,"latestWkid":3826},"fields":[{"name":"ID","type":"esriFieldTypeDouble","alias":"ID"},{"name":"DIS_CODE","type":"esriFieldTypeInteger","alias":"DIS_CODE"},{"name":"TOWNNAME","type":"esriFieldTypeString","alias":"TOWNNAME","length":8},{"name":"LI","type":"esriFieldTypeString","alias":"LI","length":8},{"name":"LIN","type":"esriFieldTypeString","alias":"LIN","length":12},{"name":"STREET","type":"esriFieldTypeString","alias":"STREET","length":20},{"name":"SECT","type":"esriFieldTypeString","alias":"SECT","length":8},{"name":"MAREA","type":"esriFieldTypeString","alias":"MAREA","length":12},{"name":"LANE","type":"esriFieldTypeString","alias":"LANE","length":10},{"name":"ALLEY","type":"esriFieldTypeString","alias":"ALLEY","length":10},{"name":"HOUSE_NO","type":"esriFieldTypeString","alias":"HOUSE_NO","length":20},{"name":"E_COORD97","type":"esriFieldTypeDouble","alias":"E_COORD97"},{"name":"N_COORD97","type":"esriFieldTypeDouble","alias":"N_COORD97"},{"name":"ADDRESS","type":"esriFieldTypeString","alias":"ADDRESS","length":50},{"name":"OBJECTID","type":"esriFieldTypeOID","alias":"OBJECTID"}],"features":[{"attributes":{"ID":109601,"DIS_CODE":0,"TOWNNAME":"柳營區","LI":"東昇里","LIN":"1鄰","STREET":" ","SECT":" ","MAREA":"柳營","LANE":" ","ALLEY":" ","HOUSE_NO":"３８２號之１５","E_COORD97":179848.54999999999,"N_COORD97":2575478.9100000001,"ADDRESS":"柳營３８２號之１５","OBJECTID":109601},"geometry":{"x":179848.55000000168,"y":2575478.910000002}},{"attributes":{"ID":109602,"DIS_CODE":0,"TOWNNAME":"東區","LI":"虎尾里","LIN":"9鄰","STREET":"東成街","SECT":" ","MAREA":" ","LANE":"１８２巷","ALLEY":"３弄","HOUSE_NO":"１１號","E_COORD97":171804.42000000001,"N_COORD97":2542237.5,"ADDRESS":"東成街１８２巷３弄１１號","OBJECTID":109602},"geometry":{"x":171804.42000000086,"y":2542237.5000000037}},{"attributes":{"ID":109603,"DIS_CODE":0,"TOWNNAME":"東區","LI":"虎尾里","LIN":"9鄰","STREET":"東成街","SECT":" ","MAREA":" ","LANE":"１８２巷","ALLEY":"３弄","HOUSE_NO":"１３號","E_COORD97":171811.04999999999,"N_COORD97":2542238.1899999999,"ADDRESS":"東成街１８２巷３弄１３號","OBJECTID":109603},"geometry":{"x":171811.04999999981,"y":2542238.1899999995}},{"attributes":{"ID":109604,"DIS_CODE":0,"TOWNNAME":"柳營區","LI":"東昇里","LIN":"1鄰","STREET":" ","SECT":" ","MAREA":"柳營","LANE":" ","ALLEY":" ","HOUSE_NO":"３８２號之１６","E_COORD97":179843.85000000001,"N_COORD97":2575477.0099999998,"ADDRESS":"柳營３８２號之１６","OBJECTID":109604},"geometry":{"x":179843.84999999963,"y":2575477.0100000016}},{"attributes":{"ID":109605,"DIS_CODE":0,"TOWNNAME":"柳營區","LI":"東昇里","LIN":"1鄰","STREET":" ","SECT":" ","MAREA":"柳營","LANE":" ","ALLEY":" ","HOUSE_NO":"３８２號之１７","E_COORD97":179839.14000000001,"N_COORD97":2575475.1099999999,"ADDRESS":"柳營３８２號之１７","OBJECTID":109605},"geometry":{"x":179839.13999999966,"y":2575475.1099999994}},{"attributes":{"ID":109606,"DIS_CODE":0,"TOWNNAME":"柳營區","LI":"東昇里","LIN":"1鄰","STREET":" ","SECT":" ","MAREA":"柳營","LANE":" ","ALLEY":" ","HOUSE_NO":"３８２號之１８","E_COORD97":179834.44,"N_COORD97":2575473.2200000002,"ADDRESS":"柳營３８２號之１８","OBJECTID":109606},"geometry":{"x":179834.44000000041,"y":2575473.2200000025}},{"attributes":{"ID":109607,"DIS_CODE":0,"TOWNNAME":"關廟區","LI":"埤頭里","LIN":"9鄰","STREET":"關新路","SECT":"二段","MAREA":" ","LANE":"５１巷","ALLEY":"１１弄","HOUSE_NO":"７號","E_COORD97":179044.72,"N_COORD97":2544144.2999999998,"ADDRESS":"關新路二段５１巷１１弄７號","OBJECTID":109607},"geometry":{"x":179044.71999999974,"y":2544144.3000000007}},{"attributes":{"ID":109608,"DIS_CODE":0,"TOWNNAME":"關廟區","LI":"埤頭里","LIN":"9鄰","STREET":"關新路","SECT":"二段","MAREA":" ","LANE":"５１巷","ALLEY":"１１弄","HOUSE_NO":"２號","E_COORD97":179032.92000000001,"N_COORD97":2544158.2999999998,"ADDRESS":"關新路二段５１巷１１弄２號","OBJECTID":109608},"geometry":{"x":179032.92000000086,"y":2544158.3000000007}},{"attributes":{"ID":109609,"DIS_CODE":0,"TOWNNAME":"關廟區","LI":"埤頭里","LIN":"9鄰","STREET":"關新路","SECT":"二段","MAREA":" ","LANE":"５１巷","ALLEY":"２５弄","HOUSE_NO":"１１號","E_COORD97":178988.97,"N_COORD97":2544122.2999999998,"ADDRESS":"關新路二段５１巷２５弄１１號","OBJECTID":109609},"geometry":{"x":178988.96999999974,"y":2544122.3000000026}},{"attributes":{"ID":109610,"DIS_CODE":0,"TOWNNAME":"東區","LI":"虎尾里","LIN":"9鄰","STREET":"東成街","SECT":" ","MAREA":" ","LANE":"１８２巷","ALLEY":"３弄","HOUSE_NO":"１５號","E_COORD97":171817.26999999999,"N_COORD97":2542238.8799999999,"ADDRESS":"東成街１８２巷３弄１５號","OBJECTID":109610},"geometry":{"x":171817.27000000048,"y":2542238.8800000008}},{"attributes":{"ID":109611,"DIS_CODE":0,"TOWNNAME":"東區","LI":"虎尾里","LIN":"9鄰","STREET":"東成街","SECT":" ","MAREA":" ","LANE":"１８２巷","ALLEY":"４弄","HOUSE_NO":"２號","E_COORD97":171759.60999999999,"N_COORD97":2542233.4300000002,"ADDRESS":"東成街１８２巷４弄２號","OBJECTID":109611},"geometry":{"x":171759.61000000127,"y":2542233.4299999997}},{"attributes":{"ID":109612,"DIS_CODE":0,"TOWNNAME":"東區","LI":"虎尾里","LIN":"9鄰","STREET":"東成街","SECT":" ","MAREA":" ","LANE":"１８２巷","ALLEY":"４弄","HOUSE_NO":"６號","E_COORD97":171746.35000000001,"N_COORD97":2542232.6000000001,"ADDRESS":"東成街１８２巷４弄６號","OBJECTID":109612},"geometry":{"x":171746.34999999963,"y":2542232.5999999996}},{"attributes":{"ID":109613,"DIS_CODE":0,"TOWNNAME":"東區","LI":"虎尾里","LIN":"9鄰","STREET":"東成街","SECT":" ","MAREA":" ","LANE":"１８２巷","ALLEY":"４弄","HOUSE_NO":"８號","E_COORD97":171739.44,"N_COORD97":2542232.4700000002,"ADDRESS":"東成街１８２巷４弄８號","OBJECTID":109613},"geometry":{"x":171739.44000000041,"y":2542232.4700000025}},{"attributes":{"ID":109614,"DIS_CODE":0,"TOWNNAME":"東區","LI":"虎尾里","LIN":"9鄰","STREET":"東成街","SECT":" ","MAREA":" ","LANE":"１８２巷","ALLEY":"４弄","HOUSE_NO":"１０號","E_COORD97":171732.67000000001,"N_COORD97":2542231.9100000001,"ADDRESS":"東成街１８２巷４弄１０號","OBJECTID":109614},"geometry":{"x":171732.66999999993,"y":2542231.910000002}},{"attributes":{"ID":109615,"DIS_CODE":0,"TOWNNAME":"東區","LI":"虎尾里","LIN":"9鄰","STREET":"東成街","SECT":" ","MAREA":" ","LANE":"１８２巷","ALLEY":"４弄","HOUSE_NO":"１２號","E_COORD97":171726.17999999999,"N_COORD97":2542231.5,"ADDRESS":"東成街１８２巷４弄１２號","OBJECTID":109615},"geometry":{"x":171726.18000000063,"y":2542231.5000000019}},{"attributes":{"ID":109616,"DIS_CODE":0,"TOWNNAME":"關廟區","LI":"埤頭里","LIN":"9鄰","STREET":"關新路","SECT":"二段","MAREA":" ","LANE":"５１巷","ALLEY":" ","HOUSE_NO":"７號","E_COORD97":179044.72,"N_COORD97":2544173.2999999998,"ADDRESS":"關新路二段５１巷７號","OBJECTID":109616},"geometry":{"x":179044.71999999974,"y":2544173.3000000026}},{"attributes":{"ID":109617,"DIS_CODE":0,"TOWNNAME":"關廟區","LI":"埤頭里","LIN":"9鄰","STREET":"關新路","SECT":"二段","MAREA":" ","LANE":" ","ALLEY":" ","HOUSE_NO":"３７號","E_COORD97":179073.22,"N_COORD97":2544142.2999999998,"ADDRESS":"關新路二段３７號","OBJECTID":109617},"geometry":{"x":179073.22000000067,"y":2544142.3000000026}},{"attributes":{"ID":109618,"DIS_CODE":0,"TOWNNAME":"關廟區","LI":"埤頭里","LIN":"9鄰","STREET":"關新路","SECT":"二段","MAREA":" ","LANE":"５１巷","ALLEY":"２５弄","HOUSE_NO":"１號","E_COORD97":178992.47,"N_COORD97":2544155.2999999998,"ADDRESS":"關新路二段５１巷２５弄１號","OBJECTID":109618},"geometry":{"x":178992.46999999974,"y":2544155.3000000045}},{"attributes":{"ID":109619,"DIS_CODE":0,"TOWNNAME":"柳營區","LI":"大農里","LIN":"1鄰","STREET":"義士路","SECT":"一段","MAREA":" ","LANE":" ","ALLEY":" ","HOUSE_NO":"１６０號","E_COORD97":186633.41,"N_COORD97":2575845.1800000002,"ADDRESS":"義士路一段１６０號","OBJECTID":109619},"geometry":{"x":186633.41000000015,"y":2575845.1800000016}},{"attributes":{"ID":109620,"DIS_CODE":0,"TOWNNAME":"柳營區","LI":"大農里","LIN":"1鄰","STREET":"義士路","SECT":"一段","MAREA":" ","LANE":" ","ALLEY":" ","HOUSE_NO":"１６６號","E_COORD97":186618.57000000001,"N_COORD97":2575845.0099999998,"ADDRESS":"義士路一段１６６號","OBJECTID":109620},"geometry":{"x":186618.57000000123,"y":2575845.0099999998}},{"attributes":{"ID":109621,"DIS_CODE":0,"TOWNNAME":"柳營區","LI":"大農里","LIN":"1鄰","STREET":"義士路","SECT":"一段","MAREA":" ","LANE":" ","ALLEY":" ","HOUSE_NO":"１９６號","E_COORD97":186552.79999999999,"N_COORD97":2575847.98,"ADDRESS":"義士路一段１９６號","OBJECTID":109621},"geometry":{"x":186552.79999999981,"y":2575847.9800000023}},{"attributes":{"ID":109622,"DIS_CODE":0,"TOWNNAME":"柳營區","LI":"旭山里","LIN":"1鄰","STREET":" ","SECT":" ","MAREA":"新吉庄","LANE":" ","ALLEY":" ","HOUSE_NO":"１號之２","E_COORD97":186677.39999999999,"N_COORD97":2573763.27,"ADDRESS":"新吉庄１號之２","OBJECTID":109622},"geometry":{"x":186677.4000000013,"y":2573763.2700000014}},{"attributes":{"ID":109623,"DIS_CODE":0,"TOWNNAME":"柳營區","LI":"旭山里","LIN":"1鄰","STREET":" ","SECT":" ","MAREA":"新吉庄","LANE":" ","ALLEY":" ","HOUSE_NO":"１號之４","E_COORD97":186735.42000000001,"N_COORD97":2573756.5899999999,"ADDRESS":"新吉庄１號之４","OBJECTID":109623},"geometry":{"x":186735.42000000179,"y":2573756.5899999999}},{"attributes":{"ID":109624,"DIS_CODE":0,"TOWNNAME":"柳營區","LI":"大農里","LIN":"1鄰","STREET":"義士路","SECT":"一段","MAREA":" ","LANE":" ","ALLEY":" ","HOUSE_NO":"２００號","E_COORD97":186538.13,"N_COORD97":2575848.0299999998,"ADDRESS":"義士路一段２００號","OBJECTID":109624},"geometry":{"x":186538.13000000082,"y":2575848.0299999993}},{"attributes":{"ID":109625,"DIS_CODE":0,"TOWNNAME":"柳營區","LI":"大農里","LIN":"1鄰","STREET":"義士路","SECT":"一段","MAREA":" ","LANE":" ","ALLEY":" ","HOUSE_NO":"２０８號","E_COORD97":186517.01999999999,"N_COORD97":2575853.1299999999,"ADDRESS":"義士路一段２０８號","OBJECTID":109625},"geometry":{"x":186517.01999999955,"y":2575853.129999999}},{"attributes":{"ID":109626,"DIS_CODE":0,"TOWNNAME":"柳營區","LI":"旭山里","LIN":"1鄰","STREET":" ","SECT":" ","MAREA":"新吉庄","LANE":" ","ALLEY":" ","HOUSE_NO":"１號之５","E_COORD97":186754.12,"N_COORD97":2573748.5,"ADDRESS":"新吉庄１號之５","OBJECTID":109626},"geometry":{"x":186754.12000000011,"y":2573748.5000000019}},{"attributes":{"ID":109627,"DIS_CODE":0,"TOWNNAME":"柳營區","LI":"旭山里","LIN":"1鄰","STREET":" ","SECT":" ","MAREA":"新吉庄","LANE":" ","ALLEY":" ","HOUSE_NO":"１號","E_COORD97":186652.95999999999,"N_COORD97":2573759.54,"ADDRESS":"新吉庄１號","OBJECTID":109627},"geometry":{"x":186652.95999999996,"y":2573759.5399999991}},{"attributes":{"ID":109628,"DIS_CODE":0,"TOWNNAME":"柳營區","LI":"旭山里","LIN":"1鄰","STREET":" ","SECT":" ","MAREA":"新吉庄","LANE":" ","ALLEY":" ","HOUSE_NO":"５號之３","E_COORD97":186742.94,"N_COORD97":2573875.0800000001,"ADDRESS":"新吉庄５號之３","OBJECTID":109628},"geometry":{"x":186742.94000000134,"y":2573875.0800000001}},{"attributes":{"ID":109629,"DIS_CODE":0,"TOWNNAME":"柳營區","LI":"旭山里","LIN":"1鄰","STREET":" ","SECT":" ","MAREA":"新吉庄","LANE":" ","ALLEY":" ","HOUSE_NO":"５號","E_COORD97":186692.73000000001,"N_COORD97":2573797.6800000002,"ADDRESS":"新吉庄５號","OBJECTID":109629},"geometry":{"x":186692.73000000045,"y":2573797.6800000016}},{"attributes":{"ID":109630,"DIS_CODE":0,"TOWNNAME":"柳營區","LI":"旭山里","LIN":"1鄰","STREET":" ","SECT":" ","MAREA":"新吉庄","LANE":" ","ALLEY":" ","HOUSE_NO":"６之１號","E_COORD97":186604.17999999999,"N_COORD97":2573874.1600000001,"ADDRESS":"新吉庄６之１號","OBJECTID":109630},"geometry":{"x":186604.1799999997,"y":2573874.1600000001}},{"attributes":{"ID":109631,"DIS_CODE":0,"TOWNNAME":"柳營區","LI":"旭山里","LIN":"1鄰","STREET":" ","SECT":" ","MAREA":"新吉庄","LANE":" ","ALLEY":" ","HOUSE_NO":"６號之２","E_COORD97":186632.06,"N_COORD97":2573786.1699999999,"ADDRESS":"新吉庄６號之２","OBJECTID":109631},"geometry":{"x":186632.05999999959,"y":2573786.1699999999}},{"attributes":{"ID":109632,"DIS_CODE":0,"TOWNNAME":"東區","LI":"虎尾里","LIN":"9鄰","STREET":"東成街","SECT":" ","MAREA":" ","LANE":"１８２巷","ALLEY":"４弄","HOUSE_NO":"１４號","E_COORD97":171720.10000000001,"N_COORD97":2542230.8100000001,"ADDRESS":"東成街１８２巷４弄１４號","OBJECTID":109632},"geometry":{"x":171720.10000000056,"y":2542230.8100000024}},{"attributes":{"ID":109633,"DIS_CODE":0,"TOWNNAME":"東區","LI":"虎尾里","LIN":"9鄰","STREET":"東成街","SECT":" ","MAREA":" ","LANE":"１８２巷","ALLEY":"４弄","HOUSE_NO":"１６號","E_COORD97":171713.06,"N_COORD97":2542230.8100000001,"ADDRESS":"東成街１８２巷４弄１６號","OBJECTID":109633},"geometry":{"x":171713.06000000145,"y":2542230.8100000024}},{"attributes":{"ID":109634,"DIS_CODE":0,"TOWNNAME":"東區","LI":"虎尾里","LIN":"9鄰","STREET":"東成街","SECT":" ","MAREA":" ","LANE":"１８２巷","ALLEY":"４弄","HOUSE_NO":"２０號","E_COORD97":171700.20999999999,"N_COORD97":2542229.5699999998,"ADDRESS":"東成街１８２巷４弄２０號","OBJECTID":109634},"geometry":{"x":171700.20999999996,"y":2542229.5700000003}},{"attributes":{"ID":109635,"DIS_CODE":0,"TOWNNAME":"東區","LI":"虎尾里","LIN":"9鄰","STREET":"東成街","SECT":" ","MAREA":" ","LANE":"１８２巷","ALLEY":"２弄","HOUSE_NO":"１號","E_COORD97":171758.92000000001,"N_COORD97":2542250.2000000002,"ADDRESS":"東成街１８２巷２弄１號","OBJECTID":109635},"geometry":{"x":171758.92000000086,"y":2542250.2000000011}},{"attributes":{"ID":109636,"DIS_CODE":0,"TOWNNAME":"東區","LI":"虎尾里","LIN":"9鄰","STREET":"東成街","SECT":" ","MAREA":" ","LANE":"１８２巷","ALLEY":"２弄","HOUSE_NO":"３號","E_COORD97":171752.42000000001,"N_COORD97":2542250.0600000001,"ADDRESS":"東成街１８２巷２弄３號","OBJECTID":109636},"geometry":{"x":171752.42000000086,"y":2542250.0600000005}},{"attributes":{"ID":109637,"DIS_CODE":0,"TOWNNAME":"東區","LI":"虎尾里","LIN":"9鄰","STREET":"東成街","SECT":" ","MAREA":" ","LANE":"１８２巷","ALLEY":"２弄","HOUSE_NO":"５號","E_COORD97":171745.92999999999,"N_COORD97":2542249.5099999998,"ADDRESS":"東成街１８２巷２弄５號","OBJECTID":109637},"geometry":{"x":171745.9299999997,"y":2542249.5099999998}},{"attributes":{"ID":109638,"DIS_CODE":0,"TOWNNAME":"柳營區","LI":"大農里","LIN":"1鄰","STREET":"義士路","SECT":"一段","MAREA":" ","LANE":" ","ALLEY":" ","HOUSE_NO":"２２２號","E_COORD97":186472.45999999999,"N_COORD97":2575884.46,"ADDRESS":"義士路一段２２２號","OBJECTID":109638},"geometry":{"x":186472.46000000183,"y":2575884.4600000009}},{"attributes":{"ID":109639,"DIS_CODE":0,"TOWNNAME":"柳營區","LI":"旭山里","LIN":"1鄰","STREET":" ","SECT":" ","MAREA":"新吉庄","LANE":" ","ALLEY":" ","HOUSE_NO":"６號之３","E_COORD97":186549.89000000001,"N_COORD97":2573807.1800000002,"ADDRESS":"新吉庄６號之３","OBJECTID":109639},"geometry":{"x":186549.88999999966,"y":2573807.1800000034}},{"attributes":{"ID":109640,"DIS_CODE":0,"TOWNNAME":"柳營區","LI":"旭山里","LIN":"1鄰","STREET":" ","SECT":" ","MAREA":"新吉庄","LANE":" ","ALLEY":" ","HOUSE_NO":"６號","E_COORD97":186596.87,"N_COORD97":2573796.6600000001,"ADDRESS":"新吉庄６號","OBJECTID":109640},"geometry":{"x":186596.87000000197,"y":2573796.6600000001}},{"attributes":{"ID":109641,"DIS_CODE":0,"TOWNNAME":"柳營區","LI":"旭山里","LIN":"1鄰","STREET":" ","SECT":" ","MAREA":"新吉庄","LANE":" ","ALLEY":" ","HOUSE_NO":"７號之１","E_COORD97":186747.09,"N_COORD97":2573773.1499999999,"ADDRESS":"新吉庄７號之１","OBJECTID":109641},"geometry":{"x":186747.08999999985,"y":2573773.1500000004}},{"attributes":{"ID":109642,"DIS_CODE":0,"TOWNNAME":"柳營區","LI":"旭山里","LIN":"1鄰","STREET":" ","SECT":" ","MAREA":"新吉庄","LANE":" ","ALLEY":" ","HOUSE_NO":"７號","E_COORD97":186736.01999999999,"N_COORD97":2573774.1299999999,"ADDRESS":"新吉庄７號","OBJECTID":109642},"geometry":{"x":186736.02000000142,"y":2573774.1300000008}},{"attributes":{"ID":109643,"DIS_CODE":0,"TOWNNAME":"關廟區","LI":"埤頭里","LIN":"9鄰","STREET":"關新路","SECT":"二段","MAREA":" ","LANE":"５１巷","ALLEY":"１１弄","HOUSE_NO":"８號","E_COORD97":179034.42000000001,"N_COORD97":2544147.2999999998,"ADDRESS":"關新路二段５１巷１１弄８號","OBJECTID":109643},"geometry":{"x":179034.42000000086,"y":2544147.3000000007}},{"attributes":{"ID":109644,"DIS_CODE":0,"TOWNNAME":"關廟區","LI":"埤頭里","LIN":"9鄰","STREET":"關新路","SECT":"二段","MAREA":" ","LANE":"５１巷","ALLEY":"１１弄","HOUSE_NO":"１７號","E_COORD97":179048.62,"N_COORD97":2544119.2999999998,"ADDRESS":"關新路二段５１巷１１弄１７號","OBJECTID":109644},"geometry":{"x":179048.62000000104,"y":2544119.3000000026}},{"attributes":{"ID":109645,"DIS_CODE":0,"TOWNNAME":"柳營區","LI":"大農里","LIN":"1鄰","STREET":"義士路","SECT":"一段","MAREA":" ","LANE":" ","ALLEY":" ","HOUSE_NO":"３０６號","E_COORD97":186278.13,"N_COORD97":2575802.5600000001,"ADDRESS":"義士路一段３０６號","OBJECTID":109645},"geometry":{"x":186278.13000000082,"y":2575802.5600000042}},{"attributes":{"ID":109646,"DIS_CODE":0,"TOWNNAME":"柳營區","LI":"大農里","LIN":"1鄰","STREET":"義士路","SECT":"一段","MAREA":" ","LANE":" ","ALLEY":" ","HOUSE_NO":"３１０號","E_COORD97":186268.23000000001,"N_COORD97":2575799.4100000001,"ADDRESS":"義士路一段３１０號","OBJECTID":109646},"geometry":{"x":186268.23000000138,"y":2575799.4099999983}},{"attributes":{"ID":109647,"DIS_CODE":0,"TOWNNAME":"柳營區","LI":"大農里","LIN":"1鄰","STREET":"義士路","SECT":"一段","MAREA":" ","LANE":" ","ALLEY":" ","HOUSE_NO":"８２號","E_COORD97":186748.88,"N_COORD97":2575847.8500000001,"ADDRESS":"義士路一段８２號","OBJECTID":109647},"geometry":{"x":186748.87999999989,"y":2575847.8500000015}},{"attributes":{"ID":109648,"DIS_CODE":0,"TOWNNAME":"柳營區","LI":"重溪里","LIN":"1鄰","STREET":"義士路","SECT":"二段","MAREA":" ","LANE":" ","ALLEY":" ","HOUSE_NO":"１３６號","E_COORD97":184620.75,"N_COORD97":2576105.9500000002,"ADDRESS":"義士路二段１３６號","OBJECTID":109648},"geometry":{"x":184620.75,"y":2576105.9499999993}},{"attributes":{"ID":109649,"DIS_CODE":0,"TOWNNAME":"關廟區","LI":"埤頭里","LIN":"9鄰","STREET":"關新路","SECT":"二段","MAREA":" ","LANE":" ","ALLEY":" ","HOUSE_NO":"４３號","E_COORD97":179075.37,"N_COORD97":2544162.2999999998,"ADDRESS":"關新路二段４３號","OBJECTID":109649},"geometry":{"x":179075.37000000197,"y":2544162.3000000026}},{"attributes":{"ID":109650,"DIS_CODE":0,"TOWNNAME":"關廟區","LI":"埤頭里","LIN":"9鄰","STREET":"關新路","SECT":"二段","MAREA":" ","LANE":" ","ALLEY":" ","HOUSE_NO":"４１號","E_COORD97":179065.76999999999,"N_COORD97":2544154.2999999998,"ADDRESS":"關新路二段４１號","OBJECTID":109650},"geometry":{"x":179065.77000000048,"y":2544154.3000000007}},{"attributes":{"ID":109651,"DIS_CODE":0,"TOWNNAME":"南化區","LI":"北寮里","LIN":"9鄰","STREET":" ","SECT":" ","MAREA":"北寮","LANE":" ","ALLEY":" ","HOUSE_NO":"１３５之１號","E_COORD97":197966.23999999999,"N_COORD97":2553215.7999999998,"ADDRESS":"北寮１３５之１號","OBJECTID":109651},"geometry":{"x":197966.24000000115,"y":2553215.8000000026}},{"attributes":{"ID":109652,"DIS_CODE":0,"TOWNNAME":"南化區","LI":"北寮里","LIN":"9鄰","STREET":" ","SECT":" ","MAREA":"北寮","LANE":" ","ALLEY":" ","HOUSE_NO":"１３２之１１號","E_COORD97":197840.59,"N_COORD97":2553220.7999999998,"ADDRESS":"北寮１３２之１１號","OBJECTID":109652},"geometry":{"x":197840.58999999985,"y":2553220.8000000007}},{"attributes":{"ID":109653,"DIS_CODE":0,"TOWNNAME":"南化區","LI":"北寮里","LIN":"9鄰","STREET":" ","SECT":" ","MAREA":"北寮","LANE":" ","ALLEY":" ","HOUSE_NO":"１４０之１號","E_COORD97":198097.23999999999,"N_COORD97":2553277.7999999998,"ADDRESS":"北寮１４０之１號","OBJECTID":109653},"geometry":{"x":198097.24000000115,"y":2553277.8000000007}},{"attributes":{"ID":109654,"DIS_CODE":0,"TOWNNAME":"柳營區","LI":"重溪里","LIN":"1鄰","STREET":"義士路","SECT":"二段","MAREA":" ","LANE":" ","ALLEY":" ","HOUSE_NO":"１９０號","E_COORD97":184552.25,"N_COORD97":2576141.1200000001,"ADDRESS":"義士路二段１９０號","OBJECTID":109654},"geometry":{"x":184552.25000000093,"y":2576141.120000001}},{"attributes":{"ID":109655,"DIS_CODE":0,"TOWNNAME":"東山區","LI":"科里里","LIN":"9鄰","STREET":" ","SECT":" ","MAREA":"科里","LANE":" ","ALLEY":" ","HOUSE_NO":"１１３號","E_COORD97":189953.94,"N_COORD97":2578167.0099999998,"ADDRESS":"科里１１３號","OBJECTID":109655},"geometry":{"x":189953.94000000134,"y":2578167.0099999998}},{"attributes":{"ID":109656,"DIS_CODE":0,"TOWNNAME":"新市區","LI":"三舍里","LIN":"9鄰","STREET":" ","SECT":" ","MAREA":"三舍","LANE":" ","ALLEY":" ","HOUSE_NO":"２００之２號","E_COORD97":177358.37,"N_COORD97":2554928.7999999998,"ADDRESS":"三舍２００之２號","OBJECTID":109656},"geometry":{"x":177358.37000000104,"y":2554928.8000000007}},{"attributes":{"ID":109657,"DIS_CODE":0,"TOWNNAME":"新市區","LI":"三舍里","LIN":"9鄰","STREET":" ","SECT":" ","MAREA":"三舍","LANE":" ","ALLEY":" ","HOUSE_NO":"１９０之５號","E_COORD97":177463.14000000001,"N_COORD97":2554979.2999999998,"ADDRESS":"三舍１９０之５號","OBJECTID":109657},"geometry":{"x":177463.1400000006,"y":2554979.3000000007}},{"attributes":{"ID":109658,"DIS_CODE":0,"TOWNNAME":"新市區","LI":"大洲里","LIN":"9鄰","STREET":" ","SECT":" ","MAREA":"大洲","LANE":" ","ALLEY":" ","HOUSE_NO":"８５號之１","E_COORD97":174358.14999999999,"N_COORD97":2551548.7999999998,"ADDRESS":"大洲８５號之１","OBJECTID":109658},"geometry":{"x":174358.1500000013,"y":2551548.8000000007}},{"attributes":{"ID":109659,"DIS_CODE":0,"TOWNNAME":"新市區","LI":"大營里","LIN":"9鄰","STREET":" ","SECT":" ","MAREA":"大營","LANE":" ","ALLEY":" ","HOUSE_NO":"１９１之３號","E_COORD97":179392.79000000001,"N_COORD97":2555580.7999999998,"ADDRESS":"大營１９１之３號","OBJECTID":109659},"geometry":{"x":179392.7900000019,"y":2555580.8000000045}},{"attributes":{"ID":109660,"DIS_CODE":0,"TOWNNAME":"新市區","LI":"永就里","LIN":"9鄰","STREET":" ","SECT":" ","MAREA":"永就","LANE":" ","ALLEY":" ","HOUSE_NO":"１０３之２號","E_COORD97":177473.78,"N_COORD97":2551594.0499999998,"ADDRESS":"永就１０３之２號","OBJECTID":109660},"geometry":{"x":177473.78000000026,"y":2551594.0500000007}},{"attributes":{"ID":109661,"DIS_CODE":0,"TOWNNAME":"新市區","LI":"三舍里","LIN":"9鄰","STREET":" ","SECT":" ","MAREA":"三舍","LANE":" ","ALLEY":" ","HOUSE_NO":"１９１之７號","E_COORD97":177445.14999999999,"N_COORD97":2555014.2999999998,"ADDRESS":"三舍１９１之７號","OBJECTID":109661},"geometry":{"x":177445.1500000013,"y":2555014.3000000007}},{"attributes":{"ID":109662,"DIS_CODE":0,"TOWNNAME":"新市區","LI":"港墘里","LIN":"9鄰","STREET":" ","SECT":" ","MAREA":"崙頂","LANE":" ","ALLEY":" ","HOUSE_NO":"７５之６號","E_COORD97":178764.26999999999,"N_COORD97":2552727.7999999998,"ADDRESS":"崙頂７５之６號","OBJECTID":109662},"geometry":{"x":178764.27000000048,"y":2552727.8000000007}},{"attributes":{"ID":109663,"DIS_CODE":0,"TOWNNAME":"東區","LI":"虎尾里","LIN":"9鄰","STREET":"東成街","SECT":" ","MAREA":" ","LANE":"１８２巷","ALLEY":"２弄","HOUSE_NO":"７號","E_COORD97":171739.72,"N_COORD97":2542249.5099999998,"ADDRESS":"東成街１８２巷２弄７號","OBJECTID":109663},"geometry":{"x":171739.72000000067,"y":2542249.5099999998}},{"attributes":{"ID":109664,"DIS_CODE":0,"TOWNNAME":"東區","LI":"虎尾里","LIN":"9鄰","STREET":"東成街","SECT":" ","MAREA":" ","LANE":"１８２巷","ALLEY":"２弄","HOUSE_NO":"９號","E_COORD97":171733.5,"N_COORD97":2542249.0899999999,"ADDRESS":"東成街１８２巷２弄９號","OBJECTID":109664},"geometry":{"x":171733.5,"y":2542249.0899999999}},{"attributes":{"ID":109665,"DIS_CODE":0,"TOWNNAME":"柳營區","LI":"重溪里","LIN":"1鄰","STREET":"義士路","SECT":"二段","MAREA":" ","LANE":" ","ALLEY":" ","HOUSE_NO":"２２０號","E_COORD97":184284.28,"N_COORD97":2576157.6099999999,"ADDRESS":"義士路二段２２０號","OBJECTID":109665},"geometry":{"x":184284.28000000119,"y":2576157.6100000013}},{"attributes":{"ID":109666,"DIS_CODE":0,"TOWNNAME":"東區","LI":"虎尾里","LIN":"9鄰","STREET":"東成街","SECT":" ","MAREA":" ","LANE":"１８２巷","ALLEY":"２弄","HOUSE_NO":"１１號","E_COORD97":171727.70000000001,"N_COORD97":2542248.6800000002,"ADDRESS":"東成街１８２巷２弄１１號","OBJECTID":109666},"geometry":{"x":171727.70000000019,"y":2542248.6799999997}},{"attributes":{"ID":109667,"DIS_CODE":0,"TOWNNAME":"東區","LI":"虎尾里","LIN":"9鄰","STREET":"東成街","SECT":" ","MAREA":" ","LANE":"１８２巷","ALLEY":"２弄","HOUSE_NO":"１３號","E_COORD97":171721.20999999999,"N_COORD97":2542247.9900000002,"ADDRESS":"東成街１８２巷２弄１３號","OBJECTID":109667},"geometry":{"x":171721.21000000089,"y":2542247.9900000039}},{"attributes":{"ID":109668,"DIS_CODE":0,"TOWNNAME":"東區","LI":"虎尾里","LIN":"9鄰","STREET":"東成街","SECT":" ","MAREA":" ","LANE":"１８２巷","ALLEY":"２弄","HOUSE_NO":"１５號","E_COORD97":171715.41,"N_COORD97":2542247.5800000001,"ADDRESS":"東成街１８２巷２弄１５號","OBJECTID":109668},"geometry":{"x":171715.41000000108,"y":2542247.5800000019}},{"attributes":{"ID":109669,"DIS_CODE":0,"TOWNNAME":"東區","LI":"虎尾里","LIN":"9鄰","STREET":"東成街","SECT":" ","MAREA":" ","LANE":"１８２巷","ALLEY":"２弄","HOUSE_NO":"１７號","E_COORD97":171709.32999999999,"N_COORD97":2542247.02,"ADDRESS":"東成街１８２巷２弄１７號","OBJECTID":109669},"geometry":{"x":171709.33000000007,"y":2542247.0200000033}},{"attributes":{"ID":109670,"DIS_CODE":0,"TOWNNAME":"東區","LI":"虎尾里","LIN":"9鄰","STREET":"東成街","SECT":" ","MAREA":" ","LANE":"１８２巷","ALLEY":"２弄","HOUSE_NO":"１９號","E_COORD97":171702.56,"N_COORD97":2542246.2000000002,"ADDRESS":"東成街１８２巷２弄１９號","OBJECTID":109670},"geometry":{"x":171702.55999999959,"y":2542246.2000000011}},{"attributes":{"ID":109671,"DIS_CODE":0,"TOWNNAME":"東區","LI":"虎尾里","LIN":"9鄰","STREET":"東成街","SECT":" ","MAREA":" ","LANE":"１８２巷","ALLEY":"２弄","HOUSE_NO":"２１號","E_COORD97":171696.76000000001,"N_COORD97":2542246.0600000001,"ADDRESS":"東成街１８２巷２弄２１號","OBJECTID":109671},"geometry":{"x":171696.76000000071,"y":2542246.0600000024}},{"attributes":{"ID":109672,"DIS_CODE":0,"TOWNNAME":"東區","LI":"虎尾里","LIN":"9鄰","STREET":"東成街","SECT":" ","MAREA":" ","LANE":"１８２巷","ALLEY":"２弄","HOUSE_NO":"２３號","E_COORD97":171690.54000000001,"N_COORD97":2542245.5099999998,"ADDRESS":"東成街１８２巷２弄２３號","OBJECTID":109672},"geometry":{"x":171690.54000000097,"y":2542245.5100000016}},{"attributes":{"ID":109673,"DIS_CODE":0,"TOWNNAME":"柳營區","LI":"重溪里","LIN":"1鄰","STREET":"義士路","SECT":"二段","MAREA":" ","LANE":" ","ALLEY":" ","HOUSE_NO":"２號","E_COORD97":184950.62,"N_COORD97":2576118.7999999998,"ADDRESS":"義士路二段２號","OBJECTID":109673},"geometry":{"x":184950.62000000011,"y":2576118.8000000007}},{"attributes":{"ID":109674,"DIS_CODE":0,"TOWNNAME":"新市區","LI":"三舍里","LIN":"9鄰","STREET":" ","SECT":" ","MAREA":"三舍","LANE":" ","ALLEY":" ","HOUSE_NO":"１９０之６號","E_COORD97":177462.23000000001,"N_COORD97":2554983.2999999998,"ADDRESS":"三舍１９０之６號","OBJECTID":109674},"geometry":{"x":177462.23000000045,"y":2554983.3000000007}},{"attributes":{"ID":109675,"DIS_CODE":0,"TOWNNAME":"新市區","LI":"三舍里","LIN":"9鄰","STREET":" ","SECT":" ","MAREA":"三舍","LANE":" ","ALLEY":" ","HOUSE_NO":"１９１之８號","E_COORD97":177443.59,"N_COORD97":2555018.2999999998,"ADDRESS":"三舍１９１之８號","OBJECTID":109675},"geometry":{"x":177443.59000000078,"y":2555018.3000000026}},{"attributes":{"ID":109676,"DIS_CODE":0,"TOWNNAME":"新市區","LI":"三舍里","LIN":"9鄰","STREET":" ","SECT":" ","MAREA":"三舍","LANE":" ","ALLEY":" ","HOUSE_NO":"１９１之３號","E_COORD97":177452.42000000001,"N_COORD97":2554998.7999999998,"ADDRESS":"三舍１９１之３號","OBJECTID":109676},"geometry":{"x":177452.41999999899,"y":2554998.8000000026}},{"attributes":{"ID":109677,"DIS_CODE":0,"TOWNNAME":"新市區","LI":"三舍里","LIN":"9鄰","STREET":" ","SECT":" ","MAREA":"三舍","LANE":" ","ALLEY":" ","HOUSE_NO":"１９１之４號","E_COORD97":177450.09,"N_COORD97":2555002.7999999998,"ADDRESS":"三舍１９１之４號","OBJECTID":109677},"geometry":{"x":177450.09000000078,"y":2555002.8000000007}},{"attributes":{"ID":109678,"DIS_CODE":0,"TOWNNAME":"東區","LI":"虎尾里","LIN":"9鄰","STREET":"東成街","SECT":" ","MAREA":" ","LANE":"１８２巷","ALLEY":"１弄","HOUSE_NO":"４號","E_COORD97":171777.63,"N_COORD97":2542251.8500000001,"ADDRESS":"東成街１８２巷１弄４號","OBJECTID":109678},"geometry":{"x":171777.63000000082,"y":2542251.8500000034}},{"attributes":{"ID":109679,"DIS_CODE":0,"TOWNNAME":"東區","LI":"虎尾里","LIN":"9鄰","STREET":"東成街","SECT":" ","MAREA":" ","LANE":"１８２巷","ALLEY":"１弄","HOUSE_NO":"６號","E_COORD97":171784.12,"N_COORD97":2542252.4100000001,"ADDRESS":"東成街１８２巷１弄６號","OBJECTID":109679},"geometry":{"x":171784.12000000011,"y":2542252.410000002}},{"attributes":{"ID":109680,"DIS_CODE":0,"TOWNNAME":"東區","LI":"虎尾里","LIN":"9鄰","STREET":"東成街","SECT":" ","MAREA":" ","LANE":"１８２巷","ALLEY":"１弄","HOUSE_NO":"８號","E_COORD97":171790.47,"N_COORD97":2542253.3700000001,"ADDRESS":"東成街１８２巷１弄８號","OBJECTID":109680},"geometry":{"x":171790.47000000067,"y":2542253.3700000029}},{"attributes":{"ID":109681,"DIS_CODE":0,"TOWNNAME":"東區","LI":"虎尾里","LIN":"9鄰","STREET":"東成街","SECT":" ","MAREA":" ","LANE":"１８２巷","ALLEY":"１弄","HOUSE_NO":"１０號","E_COORD97":171796.97,"N_COORD97":2542253.6499999999,"ADDRESS":"東成街１８２巷１弄１０號","OBJECTID":109681},"geometry":{"x":171796.9700000016,"y":2542253.6499999985}},{"attributes":{"ID":109682,"DIS_CODE":0,"TOWNNAME":"北區","LI":"光武里","LIN":"1鄰","STREET":"長榮路","SECT":"五段","MAREA":" ","LANE":" ","ALLEY":" ","HOUSE_NO":"２７７號","E_COORD97":169812.87,"N_COORD97":2545889.6000000001,"ADDRESS":"長榮路五段２７７號","OBJECTID":109682},"geometry":{"x":169812.87000000197,"y":2545889.5999999996}},{"attributes":{"ID":109683,"DIS_CODE":0,"TOWNNAME":"北區","LI":"實踐里","LIN":"1鄰","STREET":"實踐街","SECT":" ","MAREA":" ","LANE":" ","ALLEY":" ","HOUSE_NO":"５６號","E_COORD97":169887.32999999999,"N_COORD97":2546014.8999999999,"ADDRESS":"實踐街５６號","OBJECTID":109683},"geometry":{"x":169887.33000000007,"y":2546014.9000000004}},{"attributes":{"ID":109684,"DIS_CODE":0,"TOWNNAME":"東區","LI":"虎尾里","LIN":"9鄰","STREET":"東成街","SECT":" ","MAREA":" ","LANE":"１８２巷","ALLEY":"１弄","HOUSE_NO":"１２號","E_COORD97":171803.45999999999,"N_COORD97":2542253.79,"ADDRESS":"東成街１８２巷１弄１２號","OBJECTID":109684},"geometry":{"x":171803.45999999996,"y":2542253.7899999991}},{"attributes":{"ID":109685,"DIS_CODE":0,"TOWNNAME":"東區","LI":"虎尾里","LIN":"9鄰","STREET":"東成街","SECT":" ","MAREA":" ","LANE":"１８２巷","ALLEY":"１弄","HOUSE_NO":"１４號","E_COORD97":171810.5,"N_COORD97":2542254.3399999999,"ADDRESS":"東成街１８２巷１弄１４號","OBJECTID":109685},"geometry":{"x":171810.50000000186,"y":2542254.3399999999}},{"attributes":{"ID":109686,"DIS_CODE":0,"TOWNNAME":"東區","LI":"虎尾里","LIN":"9鄰","STREET":"東成街","SECT":" ","MAREA":" ","LANE":"１８２巷","ALLEY":"１弄","HOUSE_NO":"１６號","E_COORD97":171816.98999999999,"N_COORD97":2542254.75,"ADDRESS":"東成街１８２巷１弄１６號","OBJECTID":109686},"geometry":{"x":171816.99000000022,"y":2542254.75}},{"attributes":{"ID":109687,"DIS_CODE":0,"TOWNNAME":"東區","LI":"富強里","LIN":"9鄰","STREET":"裕農路","SECT":" ","MAREA":" ","LANE":"４４６巷","ALLEY":"９０弄","HOUSE_NO":"２７號","E_COORD97":171198.89999999999,"N_COORD97":2542890.1600000001,"ADDRESS":"裕農路４４６巷９０弄２７號","OBJECTID":109687},"geometry":{"x":171198.90000000037,"y":2542890.1600000001}},{"attributes":{"ID":109688,"DIS_CODE":0,"TOWNNAME":"東區","LI":"富裕里","LIN":"9鄰","STREET":"裕農路","SECT":" ","MAREA":" ","LANE":"２８８巷","ALLEY":"７０弄","HOUSE_NO":"２號","E_COORD97":170932.98000000001,"N_COORD97":2542917.6800000002,"ADDRESS":"裕農路２８８巷７０弄２號","OBJECTID":109688},"geometry":{"x":170932.98000000231,"y":2542917.6800000034}},{"attributes":{"ID":109689,"DIS_CODE":0,"TOWNNAME":"東區","LI":"富裕里","LIN":"9鄰","STREET":"裕農路","SECT":" ","MAREA":" ","LANE":"２８８巷","ALLEY":"７０弄","HOUSE_NO":"６號","E_COORD97":170934.34,"N_COORD97":2542913.5299999998,"ADDRESS":"裕農路２８８巷７０弄６號","OBJECTID":109689},"geometry":{"x":170934.33999999985,"y":2542913.5299999993}},{"attributes":{"ID":109690,"DIS_CODE":0,"TOWNNAME":"北區","LI":"實踐里","LIN":"1鄰","STREET":"實踐街","SECT":" ","MAREA":" ","LANE":" ","ALLEY":" ","HOUSE_NO":"５８號","E_COORD97":169897.56,"N_COORD97":2546010.6800000002,"ADDRESS":"實踐街５８號","OBJECTID":109690},"geometry":{"x":169897.56000000145,"y":2546010.6800000016}},{"attributes":{"ID":109691,"DIS_CODE":0,"TOWNNAME":"北區","LI":"實踐里","LIN":"1鄰","STREET":"實踐街","SECT":" ","MAREA":" ","LANE":" ","ALLEY":" ","HOUSE_NO":"６０號","E_COORD97":169901.69,"N_COORD97":2546011.3700000001,"ADDRESS":"實踐街６０號","OBJECTID":109691},"geometry":{"x":169901.69000000134,"y":2546011.370000001}},{"attributes":{"ID":109692,"DIS_CODE":0,"TOWNNAME":"佳里區","LI":"海澄里","LIN":"9鄰","STREET":" ","SECT":" ","MAREA":"番子寮","LANE":" ","ALLEY":" ","HOUSE_NO":"６２號","E_COORD97":164488.32000000001,"N_COORD97":2563743.46,"ADDRESS":"番子寮６２號","OBJECTID":109692},"geometry":{"x":164488.3200000003,"y":2563743.4600000009}},{"attributes":{"ID":109693,"DIS_CODE":0,"TOWNNAME":"佳里區","LI":"海澄里","LIN":"9鄰","STREET":" ","SECT":" ","MAREA":"番子寮","LANE":" ","ALLEY":" ","HOUSE_NO":"６３號","E_COORD97":164457.87,"N_COORD97":2563703.1600000001,"ADDRESS":"番子寮６３號","OBJECTID":109693},"geometry":{"x":164457.87000000197,"y":2563703.1600000001}},{"attributes":{"ID":109694,"DIS_CODE":0,"TOWNNAME":"佳里區","LI":"海澄里","LIN":"9鄰","STREET":" ","SECT":" ","MAREA":"番子寮","LANE":" ","ALLEY":" ","HOUSE_NO":"６６號之１","E_COORD97":164291.17000000001,"N_COORD97":2563642.25,"ADDRESS":"番子寮６６號之１","OBJECTID":109694},"geometry":{"x":164291.17000000179,"y":2563642.25}},{"attributes":{"ID":109695,"DIS_CODE":0,"TOWNNAME":"北區","LI":"實踐里","LIN":"1鄰","STREET":"實踐街","SECT":" ","MAREA":" ","LANE":" ","ALLEY":" ","HOUSE_NO":"６２號","E_COORD97":169907.89000000001,"N_COORD97":2546007.4300000002,"ADDRESS":"實踐街６２號","OBJECTID":109695},"geometry":{"x":169907.8900000006,"y":2546007.4299999997}},{"attributes":{"ID":109696,"DIS_CODE":0,"TOWNNAME":"北區","LI":"實踐里","LIN":"1鄰","STREET":"實踐街","SECT":" ","MAREA":" ","LANE":" ","ALLEY":" ","HOUSE_NO":"６４號","E_COORD97":169911.63,"N_COORD97":2546006.5499999998,"ADDRESS":"實踐街６４號","OBJECTID":109696},"geometry":{"x":169911.63000000082,"y":2546006.5500000007}},{"attributes":{"ID":109697,"DIS_CODE":0,"TOWNNAME":"北區","LI":"實踐里","LIN":"1鄰","STREET":"實踐街","SECT":" ","MAREA":" ","LANE":" ","ALLEY":" ","HOUSE_NO":"６６號","E_COORD97":169915.76000000001,"N_COORD97":2546006.25,"ADDRESS":"實踐街６６號","OBJECTID":109697},"geometry":{"x":169915.76000000071,"y":2546006.2500000019}},{"attributes":{"ID":109698,"DIS_CODE":0,"TOWNNAME":"北區","LI":"實踐里","LIN":"1鄰","STREET":"實踐街","SECT":" ","MAREA":" ","LANE":" ","ALLEY":" ","HOUSE_NO":"６８號","E_COORD97":169919.39999999999,"N_COORD97":2546006.0600000001,"ADDRESS":"實踐街６８號","OBJECTID":109698},"geometry":{"x":169919.40000000037,"y":2546006.0600000024}},{"attributes":{"ID":109699,"DIS_CODE":0,"TOWNNAME":"北區","LI":"實踐里","LIN":"1鄰","STREET":"實踐街","SECT":" ","MAREA":" ","LANE":" ","ALLEY":" ","HOUSE_NO":"７０號","E_COORD97":169923.14000000001,"N_COORD97":2546005.4700000002,"ADDRESS":"實踐街７０號","OBJECTID":109699},"geometry":{"x":169923.1400000006,"y":2546005.4700000025}},{"attributes":{"ID":109700,"DIS_CODE":0,"TOWNNAME":"東區","LI":"富裕里","LIN":"9鄰","STREET":"裕農路","SECT":" ","MAREA":" ","LANE":"２８８巷","ALLEY":"７０弄","HOUSE_NO":"２０號","E_COORD97":170937.44,"N_COORD97":2542881.3300000001,"ADDRESS":"裕農路２８８巷７０弄２０號","OBJECTID":109700},"geometry":{"x":170937.44000000134,"y":2542881.3300000001}},{"attributes":{"ID":109701,"DIS_CODE":0,"TOWNNAME":"東區","LI":"富裕里","LIN":"9鄰","STREET":"裕農路","SECT":" ","MAREA":" ","LANE":"２８８巷","ALLEY":"７０弄","HOUSE_NO":"２２號","E_COORD97":170937.57999999999,"N_COORD97":2542876.6899999999,"ADDRESS":"裕農路２８８巷７０弄２２號","OBJECTID":109701},"geometry":{"x":170937.58000000101,"y":2542876.6900000032}},{"attributes":{"ID":109702,"DIS_CODE":0,"TOWNNAME":"東區","LI":"富裕里","LIN":"9鄰","STREET":"裕農路","SECT":" ","MAREA":" ","LANE":"２８８巷","ALLEY":"７０弄","HOUSE_NO":"２８號","E_COORD97":170938.03,"N_COORD97":2542872.6400000001,"ADDRESS":"裕農路２８８巷７０弄２８號","OBJECTID":109702},"geometry":{"x":170938.03000000119,"y":2542872.6400000025}},{"attributes":{"ID":109703,"DIS_CODE":0,"TOWNNAME":"佳里區","LI":"海澄里","LIN":"9鄰","STREET":" ","SECT":" ","MAREA":"番子寮","LANE":" ","ALLEY":" ","HOUSE_NO":"６６號之２","E_COORD97":164294.51000000001,"N_COORD97":2563601.23,"ADDRESS":"番子寮６６號之２","OBJECTID":109703},"geometry":{"x":164294.51000000071,"y":2563601.2300000004}},{"attributes":{"ID":109704,"DIS_CODE":0,"TOWNNAME":"佳里區","LI":"海澄里","LIN":"9鄰","STREET":" ","SECT":" ","MAREA":"番子寮","LANE":" ","ALLEY":" ","HOUSE_NO":"６６號","E_COORD97":164321.25,"N_COORD97":2563693.1800000002,"ADDRESS":"番子寮６６號","OBJECTID":109704},"geometry":{"x":164321.25000000186,"y":2563693.1799999997}},{"attributes":{"ID":109705,"DIS_CODE":0,"TOWNNAME":"安定區","LI":"中榮里","LIN":"9鄰","STREET":" ","SECT":" ","MAREA":"許中營","LANE":" ","ALLEY":" ","HOUSE_NO":"７６之１３號","E_COORD97":172499.98999999999,"N_COORD97":2555226.2999999998,"ADDRESS":"許中營７６之１３號","OBJECTID":109705},"geometry":{"x":172499.99000000022,"y":2555226.3000000026}},{"attributes":{"ID":109706,"DIS_CODE":0,"TOWNNAME":"安定區","LI":"中榮里","LIN":"9鄰","STREET":" ","SECT":" ","MAREA":"許中營","LANE":" ","ALLEY":" ","HOUSE_NO":"７５之８號","E_COORD97":172458.34,"N_COORD97":2555088.2999999998,"ADDRESS":"許中營７５之８號","OBJECTID":109706},"geometry":{"x":172458.33999999985,"y":2555088.3000000007}},{"attributes":{"ID":109707,"DIS_CODE":0,"TOWNNAME":"安定區","LI":"中榮里","LIN":"9鄰","STREET":" ","SECT":" ","MAREA":"許中營","LANE":" ","ALLEY":" ","HOUSE_NO":"７７之２９號","E_COORD97":172593.98999999999,"N_COORD97":2555351.2999999998,"ADDRESS":"許中營７７之２９號","OBJECTID":109707},"geometry":{"x":172593.99000000209,"y":2555351.3000000026}},{"attributes":{"ID":109708,"DIS_CODE":0,"TOWNNAME":"安定區","LI":"中榮里","LIN":"9鄰","STREET":" ","SECT":" ","MAREA":"許中營","LANE":" ","ALLEY":" ","HOUSE_NO":"７６之８號","E_COORD97":172581.84,"N_COORD97":2555131.2999999998,"ADDRESS":"許中營７６之８號","OBJECTID":109708},"geometry":{"x":172581.84000000078,"y":2555131.3000000026}},{"attributes":{"ID":109709,"DIS_CODE":0,"TOWNNAME":"安定區","LI":"大同里","LIN":"9鄰","STREET":" ","SECT":" ","MAREA":"大同","LANE":" ","ALLEY":" ","HOUSE_NO":"１０５號","E_COORD97":170346.01999999999,"N_COORD97":2553787.25,"ADDRESS":"大同１０５號","OBJECTID":109709},"geometry":{"x":170346.02000000048,"y":2553787.2500000019}},{"attributes":{"ID":109710,"DIS_CODE":0,"TOWNNAME":"安定區","LI":"蘇厝里","LIN":"9鄰","STREET":" ","SECT":" ","MAREA":"蘇厝","LANE":" ","ALLEY":" ","HOUSE_NO":"３５９之２號","E_COORD97":172867.62,"N_COORD97":2558887.2999999998,"ADDRESS":"蘇厝３５９之２號","OBJECTID":109710},"geometry":{"x":172867.62000000197,"y":2558887.3000000026}},{"attributes":{"ID":109711,"DIS_CODE":0,"TOWNNAME":"東區","LI":"富裕里","LIN":"9鄰","STREET":"裕農路","SECT":" ","MAREA":" ","LANE":"２８８巷","ALLEY":"７０弄","HOUSE_NO":"３０號","E_COORD97":170938.47,"N_COORD97":2542867.9300000002,"ADDRESS":"裕農路２８８巷７０弄３０號","OBJECTID":109711},"geometry":{"x":170938.46999999974,"y":2542867.9299999997}},{"attributes":{"ID":109712,"DIS_CODE":0,"TOWNNAME":"東區","LI":"富裕里","LIN":"9鄰","STREET":"裕農路","SECT":" ","MAREA":" ","LANE":"２８８巷","ALLEY":"７０弄","HOUSE_NO":"３２號","E_COORD97":170937.35999999999,"N_COORD97":2542858.6899999999,"ADDRESS":"裕農路２８８巷７０弄３２號","OBJECTID":109712},"geometry":{"x":170937.36000000127,"y":2542858.6899999995}},{"attributes":{"ID":109713,"DIS_CODE":0,"TOWNNAME":"東區","LI":"富裕里","LIN":"9鄰","STREET":"裕農路","SECT":" ","MAREA":" ","LANE":"２８８巷","ALLEY":"７０弄","HOUSE_NO":"３４號","E_COORD97":170944.32999999999,"N_COORD97":2542848.3700000001,"ADDRESS":"裕農路２８８巷７０弄３４號","OBJECTID":109713},"geometry":{"x":170944.33000000101,"y":2542848.370000001}},{"attributes":{"ID":109714,"DIS_CODE":0,"TOWNNAME":"東區","LI":"富裕里","LIN":"9鄰","STREET":"裕農路","SECT":" ","MAREA":" ","LANE":"２８８巷","ALLEY":"７０弄","HOUSE_NO":"３６號","E_COORD97":170940.14999999999,"N_COORD97":2542848.1099999999,"ADDRESS":"裕農路２８８巷７０弄３６號","OBJECTID":109714},"geometry":{"x":170940.14999999944,"y":2542848.1099999994}},{"attributes":{"ID":109715,"DIS_CODE":0,"TOWNNAME":"東區","LI":"富裕里","LIN":"9鄰","STREET":"裕農路","SECT":" ","MAREA":" ","LANE":"２８８巷","ALLEY":"７０弄","HOUSE_NO":"３８號","E_COORD97":170936.70000000001,"N_COORD97":2542848.2400000002,"ADDRESS":"裕農路２８８巷７０弄３８號","OBJECTID":109715},"geometry":{"x":170936.70000000112,"y":2542848.2400000002}},{"attributes":{"ID":109716,"DIS_CODE":0,"TOWNNAME":"東區","LI":"富裕里","LIN":"9鄰","STREET":"裕農路","SECT":" ","MAREA":" ","LANE":"２８８巷","ALLEY":"７０弄","HOUSE_NO":"４６號","E_COORD97":170939.69,"N_COORD97":2542820.8500000001,"ADDRESS":"裕農路２８８巷７０弄４６號","OBJECTID":109716},"geometry":{"x":170939.69000000041,"y":2542820.8499999996}},{"attributes":{"ID":109717,"DIS_CODE":0,"TOWNNAME":"東區","LI":"富裕里","LIN":"9鄰","STREET":"裕農路","SECT":" ","MAREA":" ","LANE":"２８８巷","ALLEY":"７０弄","HOUSE_NO":"４８號","E_COORD97":170940.20000000001,"N_COORD97":2542815.02,"ADDRESS":"裕農路２８８巷７０弄４８號","OBJECTID":109717},"geometry":{"x":170940.20000000112,"y":2542815.0199999996}},{"attributes":{"ID":109718,"DIS_CODE":0,"TOWNNAME":"東區","LI":"富裕里","LIN":"9鄰","STREET":"裕農路","SECT":" ","MAREA":" ","LANE":"２８８巷","ALLEY":"７０弄","HOUSE_NO":"５０號","E_COORD97":170940.32000000001,"N_COORD97":2542808.8700000001,"ADDRESS":"裕農路２８８巷７０弄５０號","OBJECTID":109718},"geometry":{"x":170940.3200000003,"y":2542808.8699999992}},{"attributes":{"ID":109719,"DIS_CODE":0,"TOWNNAME":"東區","LI":"富裕里","LIN":"9鄰","STREET":"裕農路","SECT":" ","MAREA":" ","LANE":"２８８巷","ALLEY":"７０弄","HOUSE_NO":"５２號","E_COORD97":170941.85999999999,"N_COORD97":2542804.0800000001,"ADDRESS":"裕農路２８８巷７０弄５２號","OBJECTID":109719},"geometry":{"x":170941.86000000034,"y":2542804.0800000019}},{"attributes":{"ID":109720,"DIS_CODE":0,"TOWNNAME":"東區","LI":"富裕里","LIN":"9鄰","STREET":"裕農路","SECT":" ","MAREA":" ","LANE":"２８８巷","ALLEY":"７０弄","HOUSE_NO":"５４號","E_COORD97":170941.13,"N_COORD97":2542797.4700000002,"ADDRESS":"裕農路２８８巷７０弄５４號","OBJECTID":109720},"geometry":{"x":170941.12999999989,"y":2542797.4700000007}},{"attributes":{"ID":109721,"DIS_CODE":0,"TOWNNAME":"東區","LI":"富裕里","LIN":"9鄰","STREET":"裕農路","SECT":" ","MAREA":" ","LANE":"２８８巷","ALLEY":"７０弄","HOUSE_NO":"６０號","E_COORD97":170942.70999999999,"N_COORD97":2542773.3399999999,"ADDRESS":"裕農路２８８巷７０弄６０號","OBJECTID":109721},"geometry":{"x":170942.70999999903,"y":2542773.3399999999}},{"attributes":{"ID":109722,"DIS_CODE":0,"TOWNNAME":"東區","LI":"富裕里","LIN":"9鄰","STREET":"裕農路","SECT":" ","MAREA":" ","LANE":"２８８巷","ALLEY":"７０弄","HOUSE_NO":"６２號","E_COORD97":170944.01000000001,"N_COORD97":2542766.0600000001,"ADDRESS":"裕農路２８８巷７０弄６２號","OBJECTID":109722},"geometry":{"x":170944.01000000164,"y":2542766.0600000005}},{"attributes":{"ID":109723,"DIS_CODE":0,"TOWNNAME":"東區","LI":"富裕里","LIN":"9鄰","STREET":"裕農路","SECT":" ","MAREA":" ","LANE":"２８８巷","ALLEY":"７０弄","HOUSE_NO":"６４號","E_COORD97":170945.94,"N_COORD97":2542753.48,"ADDRESS":"裕農路２８８巷７０弄６４號","OBJECTID":109723},"geometry":{"x":170945.94000000134,"y":2542753.4800000042}},{"attributes":{"ID":109724,"DIS_CODE":0,"TOWNNAME":"安南區","LI":"安和里","LIN":"9鄰","STREET":"安和路","SECT":"一段","MAREA":" ","LANE":"１８巷","ALLEY":"３７弄","HOUSE_NO":"７號","E_COORD97":169689.59,"N_COORD97":2547539.9500000002,"ADDRESS":"安和路一段１８巷３７弄７號","OBJECTID":109724},"geometry":{"x":169689.59000000078,"y":2547539.9500000011}},{"attributes":{"ID":109725,"DIS_CODE":0,"TOWNNAME":"安南區","LI":"安和里","LIN":"9鄰","STREET":"安和路","SECT":"一段","MAREA":" ","LANE":"１８巷","ALLEY":"３７弄","HOUSE_NO":"１５號","E_COORD97":169690.73000000001,"N_COORD97":2547557.6600000001,"ADDRESS":"安和路一段１８巷３７弄１５號","OBJECTID":109725},"geometry":{"x":169690.73000000138,"y":2547557.660000002}},{"attributes":{"ID":109726,"DIS_CODE":0,"TOWNNAME":"安南區","LI":"溪心里","LIN":"9鄰","STREET":"海環街","SECT":" ","MAREA":" ","LANE":"７１５巷","ALLEY":"２７弄","HOUSE_NO":"１３號","E_COORD97":166448.76999999999,"N_COORD97":2549332.29,"ADDRESS":"海環街７１５巷２７弄１３號","OBJECTID":109726},"geometry":{"x":166448.77000000048,"y":2549332.290000001}},{"attributes":{"ID":109727,"DIS_CODE":0,"TOWNNAME":"安南區","LI":"海西里","LIN":"9鄰","STREET":"海中街","SECT":" ","MAREA":" ","LANE":"７７巷","ALLEY":"４５弄","HOUSE_NO":"３８號","E_COORD97":166303.04000000001,"N_COORD97":2548812.7799999998,"ADDRESS":"海中街７７巷４５弄３８號","OBJECTID":109727},"geometry":{"x":166303.04000000097,"y":2548812.7800000012}},{"attributes":{"ID":109728,"DIS_CODE":0,"TOWNNAME":"安南區","LI":"海西里","LIN":"9鄰","STREET":"海中街","SECT":" ","MAREA":" ","LANE":"７７巷","ALLEY":"４５弄","HOUSE_NO":"４０號","E_COORD97":166299.10000000001,"N_COORD97":2548804.6200000001,"ADDRESS":"海中街７７巷４５弄４０號","OBJECTID":109728},"geometry":{"x":166299.10000000056,"y":2548804.620000001}},{"attributes":{"ID":109729,"DIS_CODE":0,"TOWNNAME":"安定區","LI":"蘇厝里","LIN":"9鄰","STREET":" ","SECT":" ","MAREA":"蘇厝","LANE":" ","ALLEY":" ","HOUSE_NO":"３５８號","E_COORD97":172925.62,"N_COORD97":2558856.25,"ADDRESS":"蘇厝３５８號","OBJECTID":109729},"geometry":{"x":172925.62000000104,"y":2558856.2500000019}},{"attributes":{"ID":109730,"DIS_CODE":0,"TOWNNAME":"安定區","LI":"港南里","LIN":"9鄰","STREET":" ","SECT":" ","MAREA":"港口","LANE":" ","ALLEY":" ","HOUSE_NO":"６７號之２","E_COORD97":171404.60999999999,"N_COORD97":2554344.2999999998,"ADDRESS":"港口６７號之２","OBJECTID":109730},"geometry":{"x":171404.61000000034,"y":2554344.3000000026}},{"attributes":{"ID":109731,"DIS_CODE":0,"TOWNNAME":"安定區","LI":"港南里","LIN":"9鄰","STREET":" ","SECT":" ","MAREA":"港口","LANE":" ","ALLEY":" ","HOUSE_NO":"７３號","E_COORD97":171375.14000000001,"N_COORD97":2554284.25,"ADDRESS":"港口７３號","OBJECTID":109731},"geometry":{"x":171375.13999999873,"y":2554284.25}},{"attributes":{"ID":109732,"DIS_CODE":0,"TOWNNAME":"安定區","LI":"中榮里","LIN":"9鄰","STREET":" ","SECT":" ","MAREA":"許中營","LANE":" ","ALLEY":" ","HOUSE_NO":"７７之２８號","E_COORD97":172770.93508299999,"N_COORD97":2555500.3024499998,"ADDRESS":"許中營７７之２８號","OBJECTID":109732},"geometry":{"x":172770.93508299999,"y":2555500.3024470042}},{"attributes":{"ID":109733,"DIS_CODE":0,"TOWNNAME":"安定區","LI":"中榮里","LIN":"9鄰","STREET":" ","SECT":" ","MAREA":"許中營","LANE":" ","ALLEY":" ","HOUSE_NO":"７５之５號","E_COORD97":172432.23999999999,"N_COORD97":2555092.2999999998,"ADDRESS":"許中營７５之５號","OBJECTID":109733},"geometry":{"x":172432.24000000022,"y":2555092.3000000007}},{"attributes":{"ID":109734,"DIS_CODE":0,"TOWNNAME":"安定區","LI":"中榮里","LIN":"9鄰","STREET":" ","SECT":" ","MAREA":"許中營","LANE":" ","ALLEY":" ","HOUSE_NO":"７６之３２號","E_COORD97":172561.92324100001,"N_COORD97":2555074.8698,"ADDRESS":"許中營７６之３２號","OBJECTID":109734},"geometry":{"x":172561.92324100155,"y":2555074.869803004}},{"attributes":{"ID":109735,"DIS_CODE":0,"TOWNNAME":"安定區","LI":"海寮里","LIN":"9鄰","STREET":" ","SECT":" ","MAREA":"海寮","LANE":" ","ALLEY":" ","HOUSE_NO":"８９號之２","E_COORD97":169226.56,"N_COORD97":2555384.2999999998,"ADDRESS":"海寮８９號之２","OBJECTID":109735},"geometry":{"x":169226.56000000052,"y":2555384.3000000045}},{"attributes":{"ID":109736,"DIS_CODE":0,"TOWNNAME":"安定區","LI":"中榮里","LIN":"9鄰","STREET":" ","SECT":" ","MAREA":"許中營","LANE":" ","ALLEY":" ","HOUSE_NO":"７７號","E_COORD97":172358.94,"N_COORD97":2555159.25,"ADDRESS":"許中營７７號","OBJECTID":109736},"geometry":{"x":172358.94000000227,"y":2555159.25}},{"attributes":{"ID":109737,"DIS_CODE":0,"TOWNNAME":"安定區","LI":"新吉里","LIN":"9鄰","STREET":" ","SECT":" ","MAREA":"新吉","LANE":" ","ALLEY":" ","HOUSE_NO":"７３之２６號","E_COORD97":169196.32000000001,"N_COORD97":2554039.2999999998,"ADDRESS":"新吉７３之２６號","OBJECTID":109737},"geometry":{"x":169196.32000000216,"y":2554039.3000000026}},{"attributes":{"ID":109738,"DIS_CODE":0,"TOWNNAME":"安定區","LI":"安加里","LIN":"9鄰","STREET":" ","SECT":" ","MAREA":"安定","LANE":" ","ALLEY":" ","HOUSE_NO":"２４９號之１","E_COORD97":171792.04999999999,"N_COORD97":2557408.3199999998,"ADDRESS":"安定２４９號之１","OBJECTID":109738},"geometry":{"x":171792.05000000075,"y":2557408.3200000022}},{"attributes":{"ID":109739,"DIS_CODE":0,"TOWNNAME":"安定區","LI":"蘇林里","LIN":"9鄰","STREET":" ","SECT":" ","MAREA":"蘇厝","LANE":" ","ALLEY":" ","HOUSE_NO":"１０７號","E_COORD97":173597.92000000001,"N_COORD97":2558806.25,"ADDRESS":"蘇厝１０７號","OBJECTID":109739},"geometry":{"x":173597.92000000086,"y":2558806.2500000019}},{"attributes":{"ID":109740,"DIS_CODE":0,"TOWNNAME":"安定區","LI":"新吉里","LIN":"9鄰","STREET":" ","SECT":" ","MAREA":"新吉","LANE":" ","ALLEY":" ","HOUSE_NO":"７７號之１","E_COORD97":169240.29999999999,"N_COORD97":2554015.2999999998,"ADDRESS":"新吉７７號之１","OBJECTID":109740},"geometry":{"x":169240.30000000075,"y":2554015.3000000026}},{"attributes":{"ID":109741,"DIS_CODE":0,"TOWNNAME":"安南區","LI":"海西里","LIN":"9鄰","STREET":"海中街","SECT":" ","MAREA":" ","LANE":"７７巷","ALLEY":"４５弄","HOUSE_NO":"４２號","E_COORD97":166295.14999999999,"N_COORD97":2548803.2200000002,"ADDRESS":"海中街７７巷４５弄４２號","OBJECTID":109741},"geometry":{"x":166295.15000000037,"y":2548803.2200000007}},{"attributes":{"ID":109742,"DIS_CODE":0,"TOWNNAME":"安南區","LI":"海西里","LIN":"9鄰","STREET":"海中街","SECT":" ","MAREA":" ","LANE":"７７巷","ALLEY":"４５弄","HOUSE_NO":"４４號","E_COORD97":166290.92000000001,"N_COORD97":2548800.3999999999,"ADDRESS":"海中街７７巷４５弄４４號","OBJECTID":109742},"geometry":{"x":166290.91999999993,"y":2548800.4000000022}},{"attributes":{"ID":109743,"DIS_CODE":0,"TOWNNAME":"安南區","LI":"海西里","LIN":"9鄰","STREET":"海中街","SECT":" ","MAREA":" ","LANE":"７７巷","ALLEY":"４５弄","HOUSE_NO":"４６號","E_COORD97":166286.98000000001,"N_COORD97":2548797.3100000001,"ADDRESS":"海中街７７巷４５弄４６號","OBJECTID":109743},"geometry":{"x":166286.98000000138,"y":2548797.3100000024}},{"attributes":{"ID":109744,"DIS_CODE":0,"TOWNNAME":"安南區","LI":"海西里","LIN":"9鄰","STREET":"海中街","SECT":" ","MAREA":" ","LANE":"７７巷","ALLEY":"４５弄","HOUSE_NO":"４７號","E_COORD97":166301.91,"N_COORD97":2548783.52,"ADDRESS":"海中街７７巷４５弄４７號","OBJECTID":109744},"geometry":{"x":166301.91000000201,"y":2548783.5199999977}},{"attributes":{"ID":109745,"DIS_CODE":0,"TOWNNAME":"東山區","LI":"大客里","LIN":"1鄰","STREET":" ","SECT":" ","MAREA":"大庄","LANE":" ","ALLEY":" ","HOUSE_NO":"２號","E_COORD97":189655.53,"N_COORD97":2578733.8999999999,"ADDRESS":"大庄２號","OBJECTID":109745},"geometry":{"x":189655.53000000026,"y":2578733.9000000022}},{"attributes":{"ID":109746,"DIS_CODE":0,"TOWNNAME":"安南區","LI":"海西里","LIN":"9鄰","STREET":"海中街","SECT":" ","MAREA":" ","LANE":"７７巷","ALLEY":"４５弄","HOUSE_NO":"５１號","E_COORD97":166292.89999999999,"N_COORD97":2548777.8900000001,"ADDRESS":"海中街７７巷４５弄５１號","OBJECTID":109746},"geometry":{"x":166292.90000000037,"y":2548777.8900000006}},{"attributes":{"ID":109747,"DIS_CODE":0,"TOWNNAME":"安南區","LI":"海西里","LIN":"9鄰","STREET":"海中街","SECT":" ","MAREA":" ","LANE":"７７巷","ALLEY":"４５弄","HOUSE_NO":"５３號","E_COORD97":166288.95000000001,"N_COORD97":2548775.0800000001,"ADDRESS":"海中街７７巷４５弄５３號","OBJECTID":109747},"geometry":{"x":166288.95000000112,"y":2548775.0800000019}},{"attributes":{"ID":109748,"DIS_CODE":0,"TOWNNAME":"安南區","LI":"海西里","LIN":"9鄰","STREET":"海中街","SECT":" ","MAREA":" ","LANE":"７７巷","ALLEY":"４５弄","HOUSE_NO":"５５號","E_COORD97":166285.57000000001,"N_COORD97":2548773.1099999999,"ADDRESS":"海中街７７巷４５弄５５號","OBJECTID":109748},"geometry":{"x":166285.5700000003,"y":2548773.1100000013}},{"attributes":{"ID":109749,"DIS_CODE":0,"TOWNNAME":"安南區","LI":"海西里","LIN":"9鄰","STREET":"海中街","SECT":" ","MAREA":" ","LANE":"７７巷","ALLEY":"４５弄","HOUSE_NO":"５６號","E_COORD97":166275.70999999999,"N_COORD97":2548804.0600000001,"ADDRESS":"海中街７７巷４５弄５６號","OBJECTID":109749},"geometry":{"x":166275.70999999996,"y":2548804.0600000005}},{"attributes":{"ID":109750,"DIS_CODE":0,"TOWNNAME":"安南區","LI":"海西里","LIN":"9鄰","STREET":"海中街","SECT":" ","MAREA":" ","LANE":"７７巷","ALLEY":"４５弄","HOUSE_NO":"５７號","E_COORD97":166281.35000000001,"N_COORD97":2548770.5800000001,"ADDRESS":"海中街７７巷４５弄５７號","OBJECTID":109750},"geometry":{"x":166281.35000000149,"y":2548770.5800000038}},{"attributes":{"ID":109751,"DIS_CODE":0,"TOWNNAME":"安南區","LI":"海西里","LIN":"9鄰","STREET":"海中街","SECT":" ","MAREA":" ","LANE":"７７巷","ALLEY":"４５弄","HOUSE_NO":"５８號","E_COORD97":166273.17000000001,"N_COORD97":2548807.4399999999,"ADDRESS":"海中街７７巷４５弄５８號","OBJECTID":109751},"geometry":{"x":166273.17000000086,"y":2548807.4399999995}},{"attributes":{"ID":109752,"DIS_CODE":0,"TOWNNAME":"安南區","LI":"溪心里","LIN":"9鄰","STREET":"海環街","SECT":" ","MAREA":" ","LANE":"７１５巷","ALLEY":"２７弄","HOUSE_NO":"１０號","E_COORD97":166441.51999999999,"N_COORD97":2549355.8199999998,"ADDRESS":"海環街７１５巷２７弄１０號","OBJECTID":109752},"geometry":{"x":166441.52000000048,"y":2549355.8200000022}},{"attributes":{"ID":109753,"DIS_CODE":0,"TOWNNAME":"安南區","LI":"溪心里","LIN":"9鄰","STREET":"海環街","SECT":" ","MAREA":" ","LANE":"７１５巷","ALLEY":"２７弄","HOUSE_NO":"１１號","E_COORD97":166454.06,"N_COORD97":2549336.8399999999,"ADDRESS":"海環街７１５巷２７弄１１號","OBJECTID":109753},"geometry":{"x":166454.05999999959,"y":2549336.8399999999}},{"attributes":{"ID":109754,"DIS_CODE":0,"TOWNNAME":"安南區","LI":"溪心里","LIN":"9鄰","STREET":"海環街","SECT":" ","MAREA":" ","LANE":"７１５巷","ALLEY":"２７弄","HOUSE_NO":"１２號","E_COORD97":166436.63,"N_COORD97":2549351.7000000002,"ADDRESS":"海環街７１５巷２７弄１２號","OBJECTID":109754},"geometry":{"x":166436.62999999989,"y":2549351.700000003}},{"attributes":{"ID":109755,"DIS_CODE":0,"TOWNNAME":"安南區","LI":"溪心里","LIN":"9鄰","STREET":"海環街","SECT":" ","MAREA":" ","LANE":"７１５巷","ALLEY":"２７弄","HOUSE_NO":"１４號","E_COORD97":166432.48999999999,"N_COORD97":2549346.96,"ADDRESS":"海環街７１５巷２７弄１４號","OBJECTID":109755},"geometry":{"x":166432.49000000115,"y":2549346.9600000009}},{"attributes":{"ID":109756,"DIS_CODE":0,"TOWNNAME":"安南區","LI":"溪心里","LIN":"9鄰","STREET":"海環街","SECT":" ","MAREA":" ","LANE":"７１５巷","ALLEY":"２７弄","HOUSE_NO":"１５號","E_COORD97":166442.48999999999,"N_COORD97":2549328.0899999999,"ADDRESS":"海環街７１５巷２７弄１５號","OBJECTID":109756},"geometry":{"x":166442.49000000115,"y":2549328.0899999999}},{"attributes":{"ID":109757,"DIS_CODE":0,"TOWNNAME":"安南區","LI":"溪心里","LIN":"9鄰","STREET":"海環街","SECT":" ","MAREA":" ","LANE":"７１５巷","ALLEY":"２７弄","HOUSE_NO":"１６號","E_COORD97":166429.14999999999,"N_COORD97":2549341.6299999999,"ADDRESS":"海環街７１５巷２７弄１６號","OBJECTID":109757},"geometry":{"x":166429.15000000037,"y":2549341.6299999971}},{"attributes":{"ID":109758,"DIS_CODE":0,"TOWNNAME":"安南區","LI":"溪心里","LIN":"9鄰","STREET":"海環街","SECT":" ","MAREA":" ","LANE":"７１５巷","ALLEY":"２７弄","HOUSE_NO":"１７號","E_COORD97":166440.29999999999,"N_COORD97":2549322.2599999998,"ADDRESS":"海環街７１５巷２７弄１７號","OBJECTID":109758},"geometry":{"x":166440.30000000075,"y":2549322.2600000016}},{"attributes":{"ID":109759,"DIS_CODE":0,"TOWNNAME":"安南區","LI":"溪心里","LIN":"9鄰","STREET":"海環街","SECT":" ","MAREA":" ","LANE":"７１５巷","ALLEY":"２７弄","HOUSE_NO":"１８號","E_COORD97":166423.82999999999,"N_COORD97":2549338.2200000002,"ADDRESS":"海環街７１５巷２７弄１８號","OBJECTID":109759},"geometry":{"x":166423.83000000007,"y":2549338.2200000007}},{"attributes":{"ID":109760,"DIS_CODE":0,"TOWNNAME":"安南區","LI":"溪心里","LIN":"9鄰","STREET":"海環街","SECT":" ","MAREA":" ","LANE":"７１５巷","ALLEY":"２７弄","HOUSE_NO":"１９號","E_COORD97":166435.42999999999,"N_COORD97":2549317.3999999999,"ADDRESS":"海環街７１５巷２７弄１９號","OBJECTID":109760},"geometry":{"x":166435.43000000063,"y":2549317.4000000004}},{"attributes":{"ID":109761,"DIS_CODE":0,"TOWNNAME":"安南區","LI":"溪心里","LIN":"9鄰","STREET":"海環街","SECT":" ","MAREA":" ","LANE":"７１５巷","ALLEY":"２７弄","HOUSE_NO":"２０號","E_COORD97":166419.70000000001,"N_COORD97":2549332.0299999998,"ADDRESS":"海環街７１５巷２７弄２０號","OBJECTID":109761},"geometry":{"x":166419.70000000019,"y":2549332.0299999993}},{"attributes":{"ID":109762,"DIS_CODE":0,"TOWNNAME":"安南區","LI":"溪心里","LIN":"9鄰","STREET":"海環街","SECT":" ","MAREA":" ","LANE":"７１５巷","ALLEY":"２７弄","HOUSE_NO":"２１號","E_COORD97":166432.51000000001,"N_COORD97":2549311.5699999998,"ADDRESS":"海環街７１５巷２７弄２１號","OBJECTID":109762},"geometry":{"x":166432.50999999978,"y":2549311.5700000003}},{"attributes":{"ID":109763,"DIS_CODE":0,"TOWNNAME":"安定區","LI":"港尾里","LIN":"9鄰","STREET":" ","SECT":" ","MAREA":"港子尾","LANE":" ","ALLEY":" ","HOUSE_NO":"４３號","E_COORD97":171543.48999999999,"N_COORD97":2555926.2599999998,"ADDRESS":"港子尾４３號","OBJECTID":109763},"geometry":{"x":171543.49000000115,"y":2555926.2600000016}},{"attributes":{"ID":109764,"DIS_CODE":0,"TOWNNAME":"安定區","LI":"新吉里","LIN":"9鄰","STREET":" ","SECT":" ","MAREA":"新吉","LANE":" ","ALLEY":" ","HOUSE_NO":"７３之２０號","E_COORD97":169229.51999999999,"N_COORD97":2554062.2999999998,"ADDRESS":"新吉７３之２０號","OBJECTID":109764},"geometry":{"x":169229.51999999955,"y":2554062.3000000026}},{"attributes":{"ID":109765,"DIS_CODE":0,"TOWNNAME":"安定區","LI":"新吉里","LIN":"9鄰","STREET":" ","SECT":" ","MAREA":"新吉","LANE":" ","ALLEY":" ","HOUSE_NO":"７３之２９號","E_COORD97":169196.51999999999,"N_COORD97":2554025.2999999998,"ADDRESS":"新吉７３之２９號","OBJECTID":109765},"geometry":{"x":169196.52000000048,"y":2554025.3000000026}},{"attributes":{"ID":109766,"DIS_CODE":0,"TOWNNAME":"安定區","LI":"新吉里","LIN":"9鄰","STREET":" ","SECT":" ","MAREA":"新吉","LANE":" ","ALLEY":" ","HOUSE_NO":"７３之２號","E_COORD97":169170.47,"N_COORD97":2554035.2999999998,"ADDRESS":"新吉７３之２號","OBJECTID":109766},"geometry":{"x":169170.46999999974,"y":2554035.3000000026}},{"attributes":{"ID":109767,"DIS_CODE":0,"TOWNNAME":"安定區","LI":"新吉里","LIN":"9鄰","STREET":" ","SECT":" ","MAREA":"新吉","LANE":" ","ALLEY":" ","HOUSE_NO":"７３之２４號","E_COORD97":169196.51999999999,"N_COORD97":2554047.2999999998,"ADDRESS":"新吉７３之２４號","OBJECTID":109767},"geometry":{"x":169196.52000000048,"y":2554047.3000000007}},{"attributes":{"ID":109768,"DIS_CODE":0,"TOWNNAME":"安定區","LI":"新吉里","LIN":"9鄰","STREET":" ","SECT":" ","MAREA":"新吉","LANE":" ","ALLEY":" ","HOUSE_NO":"７３之１５號","E_COORD97":169202.42000000001,"N_COORD97":2554063.2999999998,"ADDRESS":"新吉７３之１５號","OBJECTID":109768},"geometry":{"x":169202.42000000086,"y":2554063.3000000026}},{"attributes":{"ID":109769,"DIS_CODE":0,"TOWNNAME":"安定區","LI":"中榮里","LIN":"9鄰","STREET":" ","SECT":" ","MAREA":"許中營","LANE":" ","ALLEY":" ","HOUSE_NO":"７７之２４號","E_COORD97":172480.078106,"N_COORD97":2555245.8432200002,"ADDRESS":"許中營７７之２４號","OBJECTID":109769},"geometry":{"x":172480.07810600102,"y":2555245.8432180025}},{"attributes":{"ID":109770,"DIS_CODE":0,"TOWNNAME":"安定區","LI":"海寮里","LIN":"9鄰","STREET":" ","SECT":" ","MAREA":"海寮","LANE":" ","ALLEY":" ","HOUSE_NO":"９３號之１","E_COORD97":169278.23000000001,"N_COORD97":2555263.2999999998,"ADDRESS":"海寮９３號之１","OBJECTID":109770},"geometry":{"x":169278.23000000045,"y":2555263.3000000026}},{"attributes":{"ID":109771,"DIS_CODE":0,"TOWNNAME":"安定區","LI":"海寮里","LIN":"9鄰","STREET":" ","SECT":" ","MAREA":"海寮","LANE":" ","ALLEY":" ","HOUSE_NO":"８７之１號","E_COORD97":169271.09,"N_COORD97":2555404.2999999998,"ADDRESS":"海寮８７之１號","OBJECTID":109771},"geometry":{"x":169271.09000000078,"y":2555404.2999999989}},{"attributes":{"ID":109772,"DIS_CODE":0,"TOWNNAME":"安定區","LI":"中榮里","LIN":"9鄰","STREET":" ","SECT":" ","MAREA":"許中營","LANE":" ","ALLEY":" ","HOUSE_NO":"７６之２８號","E_COORD97":172561.98999999999,"N_COORD97":2555106.2999999998,"ADDRESS":"許中營７６之２８號","OBJECTID":109772},"geometry":{"x":172561.99000000115,"y":2555106.3000000045}},{"attributes":{"ID":109773,"DIS_CODE":0,"TOWNNAME":"北區","LI":"興南里","LIN":"1鄰","STREET":"公園南路","SECT":" ","MAREA":" ","LANE":" ","ALLEY":" ","HOUSE_NO":"６２號","E_COORD97":168822.51000000001,"N_COORD97":2544657.1899999999,"ADDRESS":"公園南路６２號","OBJECTID":109773},"geometry":{"x":168822.50999999978,"y":2544657.1900000013}},{"attributes":{"ID":109774,"DIS_CODE":0,"TOWNNAME":"北區","LI":"興南里","LIN":"1鄰","STREET":"公園南路","SECT":" ","MAREA":" ","LANE":" ","ALLEY":" ","HOUSE_NO":"６６號","E_COORD97":168820.23000000001,"N_COORD97":2544658.02,"ADDRESS":"公園南路６６號","OBJECTID":109774},"geometry":{"x":168820.23000000045,"y":2544658.0200000014}},{"attributes":{"ID":109775,"DIS_CODE":0,"TOWNNAME":"北區","LI":"興南里","LIN":"1鄰","STREET":"公園南路","SECT":" ","MAREA":" ","LANE":" ","ALLEY":" ","HOUSE_NO":"６８號","E_COORD97":168817.10999999999,"N_COORD97":2544659.4700000002,"ADDRESS":"公園南路６８號","OBJECTID":109775},"geometry":{"x":168817.11000000127,"y":2544659.4700000025}},{"attributes":{"ID":109776,"DIS_CODE":0,"TOWNNAME":"北區","LI":"興南里","LIN":"1鄰","STREET":"公園南路","SECT":" ","MAREA":" ","LANE":" ","ALLEY":" ","HOUSE_NO":"７０號","E_COORD97":168814,"N_COORD97":2544660.1000000001,"ADDRESS":"公園南路７０號","OBJECTID":109776},"geometry":{"x":168814.00000000093,"y":2544660.0999999996}},{"attributes":{"ID":109777,"DIS_CODE":0,"TOWNNAME":"北區","LI":"興南里","LIN":"1鄰","STREET":"公園南路","SECT":" ","MAREA":" ","LANE":" ","ALLEY":" ","HOUSE_NO":"７２號","E_COORD97":168809.63,"N_COORD97":2544661.1299999999,"ADDRESS":"公園南路７２號","OBJECTID":109777},"geometry":{"x":168809.63000000082,"y":2544661.1300000008}},{"attributes":{"ID":109778,"DIS_CODE":0,"TOWNNAME":"北區","LI":"興南里","LIN":"1鄰","STREET":"公園南路","SECT":" ","MAREA":" ","LANE":" ","ALLEY":" ","HOUSE_NO":"７６號","E_COORD97":168804.01999999999,"N_COORD97":2544663.21,"ADDRESS":"公園南路７６號","OBJECTID":109778},"geometry":{"x":168804.01999999955,"y":2544663.2100000009}},{"attributes":{"ID":109779,"DIS_CODE":0,"TOWNNAME":"北區","LI":"興南里","LIN":"1鄰","STREET":"公園南路","SECT":" ","MAREA":" ","LANE":" ","ALLEY":" ","HOUSE_NO":"８０號","E_COORD97":168794.04999999999,"N_COORD97":2544661.1299999999,"ADDRESS":"公園南路８０號","OBJECTID":109779},"geometry":{"x":168794.04999999981,"y":2544661.1300000008}},{"attributes":{"ID":109780,"DIS_CODE":0,"TOWNNAME":"北區","LI":"興南里","LIN":"1鄰","STREET":"公園南路","SECT":" ","MAREA":" ","LANE":" ","ALLEY":" ","HOUSE_NO":"８２號","E_COORD97":168792.17999999999,"N_COORD97":2544676.0800000001,"ADDRESS":"公園南路８２號","OBJECTID":109780},"geometry":{"x":168792.18000000063,"y":2544676.0800000019}},{"attributes":{"ID":109781,"DIS_CODE":0,"TOWNNAME":"北區","LI":"興南里","LIN":"1鄰","STREET":"公園南路","SECT":" ","MAREA":" ","LANE":" ","ALLEY":" ","HOUSE_NO":"８８號","E_COORD97":168784.70000000001,"N_COORD97":2544665.9100000001,"ADDRESS":"公園南路８８號","OBJECTID":109781},"geometry":{"x":168784.70000000019,"y":2544665.9100000039}},{"attributes":{"ID":109782,"DIS_CODE":0,"TOWNNAME":"安南區","LI":"溪心里","LIN":"9鄰","STREET":"海環街","SECT":" ","MAREA":" ","LANE":"７１５巷","ALLEY":"２７弄","HOUSE_NO":"２２號","E_COORD97":166415.23000000001,"N_COORD97":2549327.9100000001,"ADDRESS":"海環街７１５巷２７弄２２號","OBJECTID":109782},"geometry":{"x":166415.22999999952,"y":2549327.910000002}},{"attributes":{"ID":109783,"DIS_CODE":0,"TOWNNAME":"安南區","LI":"溪心里","LIN":"9鄰","STREET":"海環街","SECT":" ","MAREA":" ","LANE":"７１５巷","ALLEY":"２７弄","HOUSE_NO":"２３號","E_COORD97":166429.35000000001,"N_COORD97":2549306.9500000002,"ADDRESS":"海環街７１５巷２７弄２３號","OBJECTID":109783},"geometry":{"x":166429.35000000056,"y":2549306.9500000011}},{"attributes":{"ID":109784,"DIS_CODE":0,"TOWNNAME":"安南區","LI":"溪心里","LIN":"9鄰","STREET":"海環街","SECT":" ","MAREA":" ","LANE":"７１５巷","ALLEY":"２７弄","HOUSE_NO":"２４號","E_COORD97":166411.10000000001,"N_COORD97":2549322.7599999998,"ADDRESS":"海環街７１５巷２７弄２４號","OBJECTID":109784},"geometry":{"x":166411.09999999963,"y":2549322.7600000016}},{"attributes":{"ID":109785,"DIS_CODE":0,"TOWNNAME":"安南區","LI":"溪心里","LIN":"9鄰","STREET":"海環街","SECT":" ","MAREA":" ","LANE":"７１５巷","ALLEY":"２７弄","HOUSE_NO":"２５號","E_COORD97":166422.28,"N_COORD97":2549303,"ADDRESS":"海環街７１５巷２７弄２５號","OBJECTID":109785},"geometry":{"x":166422.28000000119,"y":2549303.0000000037}},{"attributes":{"ID":109786,"DIS_CODE":0,"TOWNNAME":"安南區","LI":"溪心里","LIN":"9鄰","STREET":"海環街","SECT":" ","MAREA":" ","LANE":"７１５巷","ALLEY":"２７弄","HOUSE_NO":"２６號","E_COORD97":166406.29000000001,"N_COORD97":2549317.4300000002,"ADDRESS":"海環街７１５巷２７弄２６號","OBJECTID":109786},"geometry":{"x":166406.29000000097,"y":2549317.4300000016}},{"attributes":{"ID":109787,"DIS_CODE":0,"TOWNNAME":"安南區","LI":"溪心里","LIN":"9鄰","STREET":"海環街","SECT":" ","MAREA":" ","LANE":"７１５巷","ALLEY":"２７弄","HOUSE_NO":"２８號","E_COORD97":166401.29999999999,"N_COORD97":2549313.48,"ADDRESS":"海環街７１５巷２７弄２８號","OBJECTID":109787},"geometry":{"x":166401.30000000075,"y":2549313.4800000004}},{"attributes":{"ID":109788,"DIS_CODE":0,"TOWNNAME":"安南區","LI":"溪心里","LIN":"9鄰","STREET":"海環街","SECT":" ","MAREA":" ","LANE":"７１５巷","ALLEY":"２７弄","HOUSE_NO":"２號","E_COORD97":166458.97,"N_COORD97":2549376.0099999998,"ADDRESS":"海環街７１５巷２７弄２號","OBJECTID":109788},"geometry":{"x":166458.97000000067,"y":2549376.0099999998}},{"attributes":{"ID":109789,"DIS_CODE":0,"TOWNNAME":"東山區","LI":"南勢里","LIN":"1鄰","STREET":" ","SECT":" ","MAREA":"大洋","LANE":" ","ALLEY":" ","HOUSE_NO":"１號","E_COORD97":196593.37,"N_COORD97":2574102.23,"ADDRESS":"大洋１號","OBJECTID":109789},"geometry":{"x":196593.36999999918,"y":2574102.2300000004}},{"attributes":{"ID":109790,"DIS_CODE":0,"TOWNNAME":"北區","LI":"興南里","LIN":"1鄰","STREET":"公園南路","SECT":" ","MAREA":" ","LANE":" ","ALLEY":" ","HOUSE_NO":"９２號","E_COORD97":168776.19,"N_COORD97":2544665.9100000001,"ADDRESS":"公園南路９２號","OBJECTID":109790},"geometry":{"x":168776.19000000041,"y":2544665.9100000039}},{"attributes":{"ID":109791,"DIS_CODE":0,"TOWNNAME":"安定區","LI":"海寮里","LIN":"9鄰","STREET":" ","SECT":" ","MAREA":"海寮","LANE":" ","ALLEY":" ","HOUSE_NO":"８９號","E_COORD97":169225.98999999999,"N_COORD97":2555379.25,"ADDRESS":"海寮８９號","OBJECTID":109791},"geometry":{"x":169225.99000000115,"y":2555379.25}},{"attributes":{"ID":109792,"DIS_CODE":0,"TOWNNAME":"安定區","LI":"中榮里","LIN":"9鄰","STREET":" ","SECT":" ","MAREA":"許中營","LANE":" ","ALLEY":" ","HOUSE_NO":"７５之２２號","E_COORD97":172466.09,"N_COORD97":2555121.2999999998,"ADDRESS":"許中營７５之２２號","OBJECTID":109792},"geometry":{"x":172466.09000000078,"y":2555121.3000000026}},{"attributes":{"ID":109793,"DIS_CODE":0,"TOWNNAME":"安定區","LI":"中榮里","LIN":"9鄰","STREET":" ","SECT":" ","MAREA":"許中營","LANE":" ","ALLEY":" ","HOUSE_NO":"７７號之１３","E_COORD97":172451.53,"N_COORD97":2555259.2999999998,"ADDRESS":"許中營７７號之１３","OBJECTID":109793},"geometry":{"x":172451.53000000119,"y":2555259.3000000026}},{"attributes":{"ID":109794,"DIS_CODE":0,"TOWNNAME":"安南區","LI":"溪心里","LIN":"9鄰","STREET":"海環街","SECT":" ","MAREA":" ","LANE":"７１５巷","ALLEY":"２７弄","HOUSE_NO":"３號","E_COORD97":166470.29999999999,"N_COORD97":2549355.8199999998,"ADDRESS":"海環街７１５巷２７弄３號","OBJECTID":109794},"geometry":{"x":166470.30000000075,"y":2549355.8200000022}},{"attributes":{"ID":109795,"DIS_CODE":0,"TOWNNAME":"安定區","LI":"港尾里","LIN":"9鄰","STREET":" ","SECT":" ","MAREA":"港子尾","LANE":" ","ALLEY":" ","HOUSE_NO":"４２號","E_COORD97":171499.69,"N_COORD97":2555947.2599999998,"ADDRESS":"港子尾４２號","OBJECTID":109795},"geometry":{"x":171499.69000000134,"y":2555947.2600000016}},{"attributes":{"ID":109796,"DIS_CODE":0,"TOWNNAME":"安定區","LI":"海寮里","LIN":"9鄰","STREET":" ","SECT":" ","MAREA":"海寮","LANE":" ","ALLEY":" ","HOUSE_NO":"９３號","E_COORD97":169279.09,"N_COORD97":2555296.25,"ADDRESS":"海寮９３號","OBJECTID":109796},"geometry":{"x":169279.09000000078,"y":2555296.2500000019}},{"attributes":{"ID":109797,"DIS_CODE":0,"TOWNNAME":"北區","LI":"文成里","LIN":"1鄰","STREET":"文賢一路","SECT":" ","MAREA":" ","LANE":" ","ALLEY":" ","HOUSE_NO":"１８５之３５號","E_COORD97":167535.73000000001,"N_COORD97":2545575.8500000001,"ADDRESS":"文賢一路１８５之３５號","OBJECTID":109797},"geometry":{"x":167535.72999999952,"y":2545575.8500000015}},{"attributes":{"ID":109798,"DIS_CODE":0,"TOWNNAME":"安定區","LI":"中榮里","LIN":"9鄰","STREET":" ","SECT":" ","MAREA":"許中營","LANE":" ","ALLEY":" ","HOUSE_NO":"７６之４９號","E_COORD97":172540.29000000001,"N_COORD97":2555115.2999999998,"ADDRESS":"許中營７６之４９號","OBJECTID":109798},"geometry":{"x":172540.29000000004,"y":2555115.3000000007}},{"attributes":{"ID":109799,"DIS_CODE":0,"TOWNNAME":"安定區","LI":"中榮里","LIN":"9鄰","STREET":" ","SECT":" ","MAREA":"許中營","LANE":" ","ALLEY":" ","HOUSE_NO":"７６之４５號","E_COORD97":172557.36953500001,"N_COORD97":2555110.3239500001,"ADDRESS":"許中營７６之４５號","OBJECTID":109799},"geometry":{"x":172557.36953500006,"y":2555110.3239510003}},{"attributes":{"ID":109800,"DIS_CODE":0,"TOWNNAME":"安定區","LI":"海寮里","LIN":"9鄰","STREET":" ","SECT":" ","MAREA":"海寮","LANE":" ","ALLEY":" ","HOUSE_NO":"８８號","E_COORD97":169246.69,"N_COORD97":2555393.25,"ADDRESS":"海寮８８號","OBJECTID":109800},"geometry":{"x":169246.69000000134,"y":2555393.25}}]}