{"displayFieldName":"TOWNNAME","fieldAliases":{"ID":"ID","DIS_CODE":"DIS_CODE","TOWNNAME":"TOWNNAME","LI":"LI","LIN":"LIN","STREET":"STREET","SECT":"SECT","MAREA":"MAREA","LANE":"LANE","ALLEY":"ALLEY","HOUSE_NO":"HOUSE_NO","E_COORD97":"E_COORD97","N_COORD97":"N_COORD97","ADDRESS":"ADDRESS","OBJECTID":"OBJECTID"},"geometryType":"esriGeometryPoint","spatialReference":{"wkid":102443,"latestWkid":3826},"fields":[{"name":"ID","type":"esriFieldTypeDouble","alias":"ID"},{"name":"DIS_CODE","type":"esriFieldTypeInteger","alias":"DIS_CODE"},{"name":"TOWNNAME","type":"esriFieldTypeString","alias":"TOWNNAME","length":8},{"name":"LI","type":"esriFieldTypeString","alias":"LI","length":8},{"name":"LIN","type":"esriFieldTypeString","alias":"LIN","length":12},{"name":"STREET","type":"esriFieldTypeString","alias":"STREET","length":20},{"name":"SECT","type":"esriFieldTypeString","alias":"SECT","length":8},{"name":"MAREA","type":"esriFieldTypeString","alias":"MAREA","length":12},{"name":"LANE","type":"esriFieldTypeString","alias":"LANE","length":10},{"name":"ALLEY","type":"esriFieldTypeString","alias":"ALLEY","length":10},{"name":"HOUSE_NO","type":"esriFieldTypeString","alias":"HOUSE_NO","length":20},{"name":"E_COORD97","type":"esriFieldTypeDouble","alias":"E_COORD97"},{"name":"N_COORD97","type":"esriFieldTypeDouble","alias":"N_COORD97"},{"name":"ADDRESS","type":"esriFieldTypeString","alias":"ADDRESS","length":50},{"name":"OBJECTID","type":"esriFieldTypeOID","alias":"OBJECTID"}],"features":[{"attributes":{"ID":415025,"DIS_CODE":0,"TOWNNAME":"北區","LI":"元寶里","LIN":"3鄰","STREET":"北園街","SECT":" ","MAREA":" ","LANE":"８０巷","ALLEY":" ","HOUSE_NO":"６８號三樓之８","E_COORD97":170404.51999999999,"N_COORD97":2545885.3300000001,"ADDRESS":"北園街８０巷６８號三樓之８","OBJECTID":415001},"geometry":{"x":170404.52000000142,"y":2545885.3300000001}},{"attributes":{"ID":415026,"DIS_CODE":0,"TOWNNAME":"北區","LI":"元寶里","LIN":"3鄰","STREET":"北園街","SECT":" ","MAREA":" ","LANE":"８０巷","ALLEY":" ","HOUSE_NO":"６８號三樓之９","E_COORD97":170404.51999999999,"N_COORD97":2545885.3300000001,"ADDRESS":"北園街８０巷６８號三樓之９","OBJECTID":415002},"geometry":{"x":170404.52000000142,"y":2545885.3300000001}},{"attributes":{"ID":415027,"DIS_CODE":0,"TOWNNAME":"北區","LI":"大仁里","LIN":"3鄰","STREET":"北門路","SECT":"二段","MAREA":" ","LANE":"３４４巷","ALLEY":" ","HOUSE_NO":"３號二樓","E_COORD97":169613.57999999999,"N_COORD97":2545384.1699999999,"ADDRESS":"北門路二段３４４巷３號二樓","OBJECTID":415003},"geometry":{"x":169613.58000000101,"y":2545384.1700000018}},{"attributes":{"ID":415028,"DIS_CODE":0,"TOWNNAME":"北區","LI":"大仁里","LIN":"3鄰","STREET":"北門路","SECT":"二段","MAREA":" ","LANE":"３４４巷","ALLEY":" ","HOUSE_NO":"１號二樓","E_COORD97":169609.79000000001,"N_COORD97":2545374.3900000001,"ADDRESS":"北門路二段３４４巷１號二樓","OBJECTID":415004},"geometry":{"x":169609.78999999911,"y":2545374.3900000006}},{"attributes":{"ID":415029,"DIS_CODE":0,"TOWNNAME":"北區","LI":"大仁里","LIN":"3鄰","STREET":"北門路","SECT":"二段","MAREA":" ","LANE":"３４４巷","ALLEY":" ","HOUSE_NO":"３號三樓","E_COORD97":169613.57999999999,"N_COORD97":2545384.1699999999,"ADDRESS":"北門路二段３４４巷３號三樓","OBJECTID":415005},"geometry":{"x":169613.58000000101,"y":2545384.1700000018}},{"attributes":{"ID":415030,"DIS_CODE":0,"TOWNNAME":"北區","LI":"大仁里","LIN":"3鄰","STREET":"北門路","SECT":"二段","MAREA":" ","LANE":"３４４巷","ALLEY":" ","HOUSE_NO":"１號三樓","E_COORD97":169609.79000000001,"N_COORD97":2545374.3900000001,"ADDRESS":"北門路二段３４４巷１號三樓","OBJECTID":415006},"geometry":{"x":169609.78999999911,"y":2545374.3900000006}},{"attributes":{"ID":415031,"DIS_CODE":0,"TOWNNAME":"北區","LI":"大仁里","LIN":"3鄰","STREET":"北門路","SECT":"二段","MAREA":" ","LANE":"３４４巷","ALLEY":" ","HOUSE_NO":"５號三樓之２","E_COORD97":169620.76000000001,"N_COORD97":2545399.9900000002,"ADDRESS":"北門路二段３４４巷５號三樓之２","OBJECTID":415007},"geometry":{"x":169620.76000000071,"y":2545399.9900000002}},{"attributes":{"ID":415032,"DIS_CODE":0,"TOWNNAME":"北區","LI":"大仁里","LIN":"3鄰","STREET":"北門路","SECT":"二段","MAREA":" ","LANE":"３４４巷","ALLEY":" ","HOUSE_NO":"５號三樓之１","E_COORD97":169620.76000000001,"N_COORD97":2545399.9900000002,"ADDRESS":"北門路二段３４４巷５號三樓之１","OBJECTID":415008},"geometry":{"x":169620.76000000071,"y":2545399.9900000002}},{"attributes":{"ID":415033,"DIS_CODE":0,"TOWNNAME":"北區","LI":"大仁里","LIN":"3鄰","STREET":"北門路","SECT":"二段","MAREA":" ","LANE":"３４４巷","ALLEY":" ","HOUSE_NO":"３號四樓","E_COORD97":169613.57999999999,"N_COORD97":2545384.1699999999,"ADDRESS":"北門路二段３４４巷３號四樓","OBJECTID":415009},"geometry":{"x":169613.58000000101,"y":2545384.1700000018}},{"attributes":{"ID":415034,"DIS_CODE":0,"TOWNNAME":"北區","LI":"大仁里","LIN":"3鄰","STREET":"北門路","SECT":"二段","MAREA":" ","LANE":"３４４巷","ALLEY":" ","HOUSE_NO":"１號四樓","E_COORD97":169609.79000000001,"N_COORD97":2545374.3900000001,"ADDRESS":"北門路二段３４４巷１號四樓","OBJECTID":415010},"geometry":{"x":169609.78999999911,"y":2545374.3900000006}},{"attributes":{"ID":415035,"DIS_CODE":0,"TOWNNAME":"北區","LI":"大仁里","LIN":"3鄰","STREET":"北門路","SECT":"二段","MAREA":" ","LANE":"３４４巷","ALLEY":" ","HOUSE_NO":"５號四樓之２","E_COORD97":169620.76000000001,"N_COORD97":2545399.9900000002,"ADDRESS":"北門路二段３４４巷５號四樓之２","OBJECTID":415011},"geometry":{"x":169620.76000000071,"y":2545399.9900000002}},{"attributes":{"ID":415036,"DIS_CODE":0,"TOWNNAME":"北區","LI":"大仁里","LIN":"3鄰","STREET":"北門路","SECT":"二段","MAREA":" ","LANE":"３４４巷","ALLEY":" ","HOUSE_NO":"５號四樓之１","E_COORD97":169620.76000000001,"N_COORD97":2545399.9900000002,"ADDRESS":"北門路二段３４４巷５號四樓之１","OBJECTID":415012},"geometry":{"x":169620.76000000071,"y":2545399.9900000002}},{"attributes":{"ID":415037,"DIS_CODE":0,"TOWNNAME":"北區","LI":"大仁里","LIN":"3鄰","STREET":"北門路","SECT":"二段","MAREA":" ","LANE":"３４４巷","ALLEY":" ","HOUSE_NO":"３號五樓","E_COORD97":169613.57999999999,"N_COORD97":2545384.1699999999,"ADDRESS":"北門路二段３４４巷３號五樓","OBJECTID":415013},"geometry":{"x":169613.58000000101,"y":2545384.1700000018}},{"attributes":{"ID":415038,"DIS_CODE":0,"TOWNNAME":"北區","LI":"大仁里","LIN":"3鄰","STREET":"北門路","SECT":"二段","MAREA":" ","LANE":"３４４巷","ALLEY":" ","HOUSE_NO":"１號五樓","E_COORD97":169609.79000000001,"N_COORD97":2545374.3900000001,"ADDRESS":"北門路二段３４４巷１號五樓","OBJECTID":415014},"geometry":{"x":169609.78999999911,"y":2545374.3900000006}},{"attributes":{"ID":415039,"DIS_CODE":0,"TOWNNAME":"北區","LI":"大仁里","LIN":"3鄰","STREET":"北門路","SECT":"二段","MAREA":" ","LANE":"３４４巷","ALLEY":" ","HOUSE_NO":"５號五樓之２","E_COORD97":169620.76000000001,"N_COORD97":2545399.9900000002,"ADDRESS":"北門路二段３４４巷５號五樓之２","OBJECTID":415015},"geometry":{"x":169620.76000000071,"y":2545399.9900000002}},{"attributes":{"ID":415040,"DIS_CODE":0,"TOWNNAME":"北區","LI":"大仁里","LIN":"3鄰","STREET":"北門路","SECT":"二段","MAREA":" ","LANE":"３４４巷","ALLEY":" ","HOUSE_NO":"５號五樓之１","E_COORD97":169620.76000000001,"N_COORD97":2545399.9900000002,"ADDRESS":"北門路二段３４４巷５號五樓之１","OBJECTID":415016},"geometry":{"x":169620.76000000071,"y":2545399.9900000002}},{"attributes":{"ID":415041,"DIS_CODE":0,"TOWNNAME":"北區","LI":"大仁里","LIN":"3鄰","STREET":"北門路","SECT":"二段","MAREA":" ","LANE":"３４４巷","ALLEY":" ","HOUSE_NO":"３號六樓","E_COORD97":169613.57999999999,"N_COORD97":2545384.1699999999,"ADDRESS":"北門路二段３４４巷３號六樓","OBJECTID":415017},"geometry":{"x":169613.58000000101,"y":2545384.1700000018}},{"attributes":{"ID":415042,"DIS_CODE":0,"TOWNNAME":"北區","LI":"大仁里","LIN":"3鄰","STREET":"北門路","SECT":"二段","MAREA":" ","LANE":"３４４巷","ALLEY":" ","HOUSE_NO":"１號六樓","E_COORD97":169609.79000000001,"N_COORD97":2545374.3900000001,"ADDRESS":"北門路二段３４４巷１號六樓","OBJECTID":415018},"geometry":{"x":169609.78999999911,"y":2545374.3900000006}},{"attributes":{"ID":415043,"DIS_CODE":0,"TOWNNAME":"北區","LI":"大仁里","LIN":"3鄰","STREET":"北門路","SECT":"二段","MAREA":" ","LANE":"３４４巷","ALLEY":" ","HOUSE_NO":"５號六樓之２","E_COORD97":169620.76000000001,"N_COORD97":2545399.9900000002,"ADDRESS":"北門路二段３４４巷５號六樓之２","OBJECTID":415019},"geometry":{"x":169620.76000000071,"y":2545399.9900000002}},{"attributes":{"ID":415044,"DIS_CODE":0,"TOWNNAME":"北區","LI":"大仁里","LIN":"3鄰","STREET":"北門路","SECT":"二段","MAREA":" ","LANE":"３４４巷","ALLEY":" ","HOUSE_NO":"５號六樓之１","E_COORD97":169620.76000000001,"N_COORD97":2545399.9900000002,"ADDRESS":"北門路二段３４４巷５號六樓之１","OBJECTID":415020},"geometry":{"x":169620.76000000071,"y":2545399.9900000002}},{"attributes":{"ID":415045,"DIS_CODE":0,"TOWNNAME":"北區","LI":"大仁里","LIN":"3鄰","STREET":"北門路","SECT":"二段","MAREA":" ","LANE":"３４４巷","ALLEY":" ","HOUSE_NO":"３號七樓","E_COORD97":169613.57999999999,"N_COORD97":2545384.1699999999,"ADDRESS":"北門路二段３４４巷３號七樓","OBJECTID":415021},"geometry":{"x":169613.58000000101,"y":2545384.1700000018}},{"attributes":{"ID":415046,"DIS_CODE":0,"TOWNNAME":"北區","LI":"大仁里","LIN":"3鄰","STREET":"北門路","SECT":"二段","MAREA":" ","LANE":"３４４巷","ALLEY":" ","HOUSE_NO":"１號七樓","E_COORD97":169609.79000000001,"N_COORD97":2545374.3900000001,"ADDRESS":"北門路二段３４４巷１號七樓","OBJECTID":415022},"geometry":{"x":169609.78999999911,"y":2545374.3900000006}},{"attributes":{"ID":415047,"DIS_CODE":0,"TOWNNAME":"北區","LI":"大仁里","LIN":"3鄰","STREET":"北門路","SECT":"二段","MAREA":" ","LANE":"３４４巷","ALLEY":" ","HOUSE_NO":"５號七樓之２","E_COORD97":169620.76000000001,"N_COORD97":2545399.9900000002,"ADDRESS":"北門路二段３４４巷５號七樓之２","OBJECTID":415023},"geometry":{"x":169620.76000000071,"y":2545399.9900000002}},{"attributes":{"ID":415048,"DIS_CODE":0,"TOWNNAME":"北區","LI":"大仁里","LIN":"3鄰","STREET":"北門路","SECT":"二段","MAREA":" ","LANE":"３４４巷","ALLEY":" ","HOUSE_NO":"５號七樓之１","E_COORD97":169620.76000000001,"N_COORD97":2545399.9900000002,"ADDRESS":"北門路二段３４４巷５號七樓之１","OBJECTID":415024},"geometry":{"x":169620.76000000071,"y":2545399.9900000002}},{"attributes":{"ID":415049,"DIS_CODE":0,"TOWNNAME":"北區","LI":"大仁里","LIN":"3鄰","STREET":"北門路","SECT":"二段","MAREA":" ","LANE":"３４４巷","ALLEY":" ","HOUSE_NO":"３號八樓","E_COORD97":169613.57999999999,"N_COORD97":2545384.1699999999,"ADDRESS":"北門路二段３４４巷３號八樓","OBJECTID":415025},"geometry":{"x":169613.58000000101,"y":2545384.1700000018}},{"attributes":{"ID":415050,"DIS_CODE":0,"TOWNNAME":"北區","LI":"大仁里","LIN":"3鄰","STREET":"北門路","SECT":"二段","MAREA":" ","LANE":"３４４巷","ALLEY":" ","HOUSE_NO":"１號八樓","E_COORD97":169609.79000000001,"N_COORD97":2545374.3900000001,"ADDRESS":"北門路二段３４４巷１號八樓","OBJECTID":415026},"geometry":{"x":169609.78999999911,"y":2545374.3900000006}},{"attributes":{"ID":415051,"DIS_CODE":0,"TOWNNAME":"北區","LI":"大仁里","LIN":"3鄰","STREET":"北門路","SECT":"二段","MAREA":" ","LANE":"３４４巷","ALLEY":" ","HOUSE_NO":"５號八樓之２","E_COORD97":169620.76000000001,"N_COORD97":2545399.9900000002,"ADDRESS":"北門路二段３４４巷５號八樓之２","OBJECTID":415027},"geometry":{"x":169620.76000000071,"y":2545399.9900000002}},{"attributes":{"ID":415052,"DIS_CODE":0,"TOWNNAME":"北區","LI":"大仁里","LIN":"3鄰","STREET":"北門路","SECT":"二段","MAREA":" ","LANE":"３４４巷","ALLEY":" ","HOUSE_NO":"５號八樓之１","E_COORD97":169620.76000000001,"N_COORD97":2545399.9900000002,"ADDRESS":"北門路二段３４４巷５號八樓之１","OBJECTID":415028},"geometry":{"x":169620.76000000071,"y":2545399.9900000002}},{"attributes":{"ID":415053,"DIS_CODE":0,"TOWNNAME":"北區","LI":"大仁里","LIN":"3鄰","STREET":"北門路","SECT":"二段","MAREA":" ","LANE":"３４４巷","ALLEY":" ","HOUSE_NO":"３號九樓","E_COORD97":169613.57999999999,"N_COORD97":2545384.1699999999,"ADDRESS":"北門路二段３４４巷３號九樓","OBJECTID":415029},"geometry":{"x":169613.58000000101,"y":2545384.1700000018}},{"attributes":{"ID":415054,"DIS_CODE":0,"TOWNNAME":"北區","LI":"大仁里","LIN":"3鄰","STREET":"北門路","SECT":"二段","MAREA":" ","LANE":"３４４巷","ALLEY":" ","HOUSE_NO":"１號九樓","E_COORD97":169609.79000000001,"N_COORD97":2545374.3900000001,"ADDRESS":"北門路二段３４４巷１號九樓","OBJECTID":415030},"geometry":{"x":169609.78999999911,"y":2545374.3900000006}},{"attributes":{"ID":415055,"DIS_CODE":0,"TOWNNAME":"北區","LI":"大仁里","LIN":"3鄰","STREET":"北門路","SECT":"二段","MAREA":" ","LANE":"３４４巷","ALLEY":" ","HOUSE_NO":"５號九樓之２","E_COORD97":169620.76000000001,"N_COORD97":2545399.9900000002,"ADDRESS":"北門路二段３４４巷５號九樓之２","OBJECTID":415031},"geometry":{"x":169620.76000000071,"y":2545399.9900000002}},{"attributes":{"ID":415056,"DIS_CODE":0,"TOWNNAME":"北區","LI":"大仁里","LIN":"3鄰","STREET":"北門路","SECT":"二段","MAREA":" ","LANE":"３４４巷","ALLEY":" ","HOUSE_NO":"５號九樓之１","E_COORD97":169620.76000000001,"N_COORD97":2545399.9900000002,"ADDRESS":"北門路二段３４４巷５號九樓之１","OBJECTID":415032},"geometry":{"x":169620.76000000071,"y":2545399.9900000002}},{"attributes":{"ID":415057,"DIS_CODE":0,"TOWNNAME":"北區","LI":"大仁里","LIN":"3鄰","STREET":"北門路","SECT":"二段","MAREA":" ","LANE":"３４４巷","ALLEY":" ","HOUSE_NO":"３號十樓","E_COORD97":169613.57999999999,"N_COORD97":2545384.1699999999,"ADDRESS":"北門路二段３４４巷３號十樓","OBJECTID":415033},"geometry":{"x":169613.58000000101,"y":2545384.1700000018}},{"attributes":{"ID":415058,"DIS_CODE":0,"TOWNNAME":"北區","LI":"大仁里","LIN":"3鄰","STREET":"北門路","SECT":"二段","MAREA":" ","LANE":"３４４巷","ALLEY":" ","HOUSE_NO":"１號十樓","E_COORD97":169609.79000000001,"N_COORD97":2545374.3900000001,"ADDRESS":"北門路二段３４４巷１號十樓","OBJECTID":415034},"geometry":{"x":169609.78999999911,"y":2545374.3900000006}},{"attributes":{"ID":415059,"DIS_CODE":0,"TOWNNAME":"北區","LI":"大仁里","LIN":"3鄰","STREET":"北門路","SECT":"二段","MAREA":" ","LANE":"３４４巷","ALLEY":" ","HOUSE_NO":"５號十樓之２","E_COORD97":169620.76000000001,"N_COORD97":2545399.9900000002,"ADDRESS":"北門路二段３４４巷５號十樓之２","OBJECTID":415035},"geometry":{"x":169620.76000000071,"y":2545399.9900000002}},{"attributes":{"ID":415060,"DIS_CODE":0,"TOWNNAME":"北區","LI":"大仁里","LIN":"3鄰","STREET":"北門路","SECT":"二段","MAREA":" ","LANE":"３４４巷","ALLEY":" ","HOUSE_NO":"５號十樓之１","E_COORD97":169620.76000000001,"N_COORD97":2545399.9900000002,"ADDRESS":"北門路二段３４４巷５號十樓之１","OBJECTID":415036},"geometry":{"x":169620.76000000071,"y":2545399.9900000002}},{"attributes":{"ID":415061,"DIS_CODE":0,"TOWNNAME":"南區","LI":"再興里","LIN":"3鄰","STREET":"金華路","SECT":"二段","MAREA":" ","LANE":"２２８巷","ALLEY":" ","HOUSE_NO":"１８號六樓之２","E_COORD97":167199.23000000001,"N_COORD97":2542377.3500000001,"ADDRESS":"金華路二段２２８巷１８號六樓之２","OBJECTID":415037},"geometry":{"x":167199.23000000138,"y":2542377.3500000034}},{"attributes":{"ID":415062,"DIS_CODE":0,"TOWNNAME":"南區","LI":"再興里","LIN":"3鄰","STREET":"金華路","SECT":"二段","MAREA":" ","LANE":"２２８巷","ALLEY":" ","HOUSE_NO":"１８號六樓之３","E_COORD97":167199.23000000001,"N_COORD97":2542377.3500000001,"ADDRESS":"金華路二段２２８巷１８號六樓之３","OBJECTID":415038},"geometry":{"x":167199.23000000138,"y":2542377.3500000034}},{"attributes":{"ID":415063,"DIS_CODE":0,"TOWNNAME":"南區","LI":"再興里","LIN":"3鄰","STREET":"金華路","SECT":"二段","MAREA":" ","LANE":"２２８巷","ALLEY":" ","HOUSE_NO":"１８號四樓之１","E_COORD97":167199.23000000001,"N_COORD97":2542377.3500000001,"ADDRESS":"金華路二段２２８巷１８號四樓之１","OBJECTID":415039},"geometry":{"x":167199.23000000138,"y":2542377.3500000034}},{"attributes":{"ID":415064,"DIS_CODE":0,"TOWNNAME":"南區","LI":"再興里","LIN":"3鄰","STREET":"金華路","SECT":"二段","MAREA":" ","LANE":"２２８巷","ALLEY":" ","HOUSE_NO":"１８號四樓之２","E_COORD97":167199.23000000001,"N_COORD97":2542377.3500000001,"ADDRESS":"金華路二段２２８巷１８號四樓之２","OBJECTID":415040},"geometry":{"x":167199.23000000138,"y":2542377.3500000034}},{"attributes":{"ID":415065,"DIS_CODE":0,"TOWNNAME":"南區","LI":"再興里","LIN":"3鄰","STREET":"金華路","SECT":"二段","MAREA":" ","LANE":"２２８巷","ALLEY":" ","HOUSE_NO":"１８號四樓之３","E_COORD97":167199.23000000001,"N_COORD97":2542377.3500000001,"ADDRESS":"金華路二段２２８巷１８號四樓之３","OBJECTID":415041},"geometry":{"x":167199.23000000138,"y":2542377.3500000034}},{"attributes":{"ID":415066,"DIS_CODE":0,"TOWNNAME":"新營區","LI":"忠政里","LIN":"3鄰","STREET":"中正路","SECT":" ","MAREA":" ","LANE":"３７巷","ALLEY":" ","HOUSE_NO":"９號三樓","E_COORD97":180047.66,"N_COORD97":2579127.3399999999,"ADDRESS":"中正路３７巷９號三樓","OBJECTID":415042},"geometry":{"x":180047.66000000015,"y":2579127.3400000017}},{"attributes":{"ID":415067,"DIS_CODE":0,"TOWNNAME":"新營區","LI":"忠政里","LIN":"3鄰","STREET":"中正路","SECT":" ","MAREA":" ","LANE":"３５巷","ALLEY":" ","HOUSE_NO":"７之１號三樓","E_COORD97":180059.28,"N_COORD97":2579096.3300000001,"ADDRESS":"中正路３５巷７之１號三樓","OBJECTID":415043},"geometry":{"x":180059.27999999933,"y":2579096.3300000019}},{"attributes":{"ID":415068,"DIS_CODE":0,"TOWNNAME":"新營區","LI":"忠政里","LIN":"3鄰","STREET":"中正路","SECT":" ","MAREA":" ","LANE":"３５巷","ALLEY":" ","HOUSE_NO":"７號三樓","E_COORD97":180061.89000000001,"N_COORD97":2579096.2599999998,"ADDRESS":"中正路３５巷７號三樓","OBJECTID":415044},"geometry":{"x":180061.8900000006,"y":2579096.2600000016}},{"attributes":{"ID":415069,"DIS_CODE":0,"TOWNNAME":"仁德區","LI":"中生里","LIN":"3鄰","STREET":" ","SECT":" ","MAREA":"中洲","LANE":" ","ALLEY":" ","HOUSE_NO":"９２號","E_COORD97":173028.82607800001,"N_COORD97":2534347.7345400001,"ADDRESS":"中洲９２號","OBJECTID":415045},"geometry":{"x":173028.82607800048,"y":2534347.7345430013}},{"attributes":{"ID":415070,"DIS_CODE":0,"TOWNNAME":"新營區","LI":"忠政里","LIN":"3鄰","STREET":"中正路","SECT":" ","MAREA":" ","LANE":"３５巷","ALLEY":" ","HOUSE_NO":"５之１號三樓","E_COORD97":180069.5,"N_COORD97":2579097.3900000001,"ADDRESS":"中正路３５巷５之１號三樓","OBJECTID":415046},"geometry":{"x":180069.50000000186,"y":2579097.3900000025}},{"attributes":{"ID":415071,"DIS_CODE":0,"TOWNNAME":"新營區","LI":"忠政里","LIN":"3鄰","STREET":"中正路","SECT":" ","MAREA":" ","LANE":"３７巷","ALLEY":" ","HOUSE_NO":"７號之１三樓","E_COORD97":180058.41,"N_COORD97":2579128.4399999999,"ADDRESS":"中正路３７巷７號之１三樓","OBJECTID":415047},"geometry":{"x":180058.41000000201,"y":2579128.4400000013}},{"attributes":{"ID":415072,"DIS_CODE":0,"TOWNNAME":"新營區","LI":"忠政里","LIN":"3鄰","STREET":"中正路","SECT":" ","MAREA":" ","LANE":"３７巷","ALLEY":" ","HOUSE_NO":"５之１號三樓","E_COORD97":180067.60999999999,"N_COORD97":2579128.3999999999,"ADDRESS":"中正路３７巷５之１號三樓","OBJECTID":415048},"geometry":{"x":180067.61000000127,"y":2579128.4000000004}},{"attributes":{"ID":415073,"DIS_CODE":0,"TOWNNAME":"南區","LI":"大忠里","LIN":"3鄰","STREET":"公英一街","SECT":" ","MAREA":" ","LANE":"１５巷","ALLEY":" ","HOUSE_NO":"２１號二樓之１","E_COORD97":169481.94,"N_COORD97":2541203.6499999999,"ADDRESS":"公英一街１５巷２１號二樓之１","OBJECTID":415049},"geometry":{"x":169481.94000000041,"y":2541203.6500000022}},{"attributes":{"ID":415074,"DIS_CODE":0,"TOWNNAME":"南區","LI":"大忠里","LIN":"3鄰","STREET":"公英一街","SECT":" ","MAREA":" ","LANE":"１５巷","ALLEY":" ","HOUSE_NO":"２１號二樓之２","E_COORD97":169481.94,"N_COORD97":2541203.6499999999,"ADDRESS":"公英一街１５巷２１號二樓之２","OBJECTID":415050},"geometry":{"x":169481.94000000041,"y":2541203.6500000022}},{"attributes":{"ID":415075,"DIS_CODE":0,"TOWNNAME":"南區","LI":"明亮里","LIN":"3鄰","STREET":"新都路","SECT":" ","MAREA":" ","LANE":"５２０巷","ALLEY":" ","HOUSE_NO":"１１號二樓","E_COORD97":167141.48000000001,"N_COORD97":2540943.4100000001,"ADDRESS":"新都路５２０巷１１號二樓","OBJECTID":415051},"geometry":{"x":167141.48000000138,"y":2540943.4100000039}},{"attributes":{"ID":415076,"DIS_CODE":0,"TOWNNAME":"南區","LI":"大忠里","LIN":"3鄰","STREET":"公英一街","SECT":" ","MAREA":" ","LANE":"１５巷","ALLEY":" ","HOUSE_NO":"２１號三樓之１","E_COORD97":169481.94,"N_COORD97":2541203.6499999999,"ADDRESS":"公英一街１５巷２１號三樓之１","OBJECTID":415052},"geometry":{"x":169481.94000000041,"y":2541203.6500000022}},{"attributes":{"ID":415077,"DIS_CODE":0,"TOWNNAME":"南區","LI":"大忠里","LIN":"3鄰","STREET":"公英一街","SECT":" ","MAREA":" ","LANE":"１５巷","ALLEY":" ","HOUSE_NO":"２１號三樓之２","E_COORD97":169481.94,"N_COORD97":2541203.6499999999,"ADDRESS":"公英一街１５巷２１號三樓之２","OBJECTID":415053},"geometry":{"x":169481.94000000041,"y":2541203.6500000022}},{"attributes":{"ID":415078,"DIS_CODE":0,"TOWNNAME":"南區","LI":"大忠里","LIN":"3鄰","STREET":"公英一街","SECT":" ","MAREA":" ","LANE":"１５巷","ALLEY":" ","HOUSE_NO":"２１號五樓之１","E_COORD97":169481.94,"N_COORD97":2541203.6499999999,"ADDRESS":"公英一街１５巷２１號五樓之１","OBJECTID":415054},"geometry":{"x":169481.94000000041,"y":2541203.6500000022}},{"attributes":{"ID":415079,"DIS_CODE":0,"TOWNNAME":"南區","LI":"大忠里","LIN":"3鄰","STREET":"公英一街","SECT":" ","MAREA":" ","LANE":"１５巷","ALLEY":" ","HOUSE_NO":"２１號四樓之１","E_COORD97":169481.94,"N_COORD97":2541203.6499999999,"ADDRESS":"公英一街１５巷２１號四樓之１","OBJECTID":415055},"geometry":{"x":169481.94000000041,"y":2541203.6500000022}},{"attributes":{"ID":415080,"DIS_CODE":0,"TOWNNAME":"南區","LI":"大忠里","LIN":"3鄰","STREET":"公英一街","SECT":" ","MAREA":" ","LANE":"１５巷","ALLEY":" ","HOUSE_NO":"２１號四樓之２","E_COORD97":169481.94,"N_COORD97":2541203.6499999999,"ADDRESS":"公英一街１５巷２１號四樓之２","OBJECTID":415056},"geometry":{"x":169481.94000000041,"y":2541203.6500000022}},{"attributes":{"ID":415081,"DIS_CODE":0,"TOWNNAME":"永康區","LI":"安康里","LIN":"3鄰","STREET":"中華路","SECT":" ","MAREA":" ","LANE":"７２７巷","ALLEY":" ","HOUSE_NO":"８６號十二樓之１","E_COORD97":170659.09,"N_COORD97":2546333.2999999998,"ADDRESS":"中華路７２７巷８６號十二樓之１","OBJECTID":415057},"geometry":{"x":170659.09000000078,"y":2546333.3000000026}},{"attributes":{"ID":415082,"DIS_CODE":0,"TOWNNAME":"永康區","LI":"永康里","LIN":"3鄰","STREET":"中山路","SECT":" ","MAREA":" ","LANE":"１０巷","ALLEY":" ","HOUSE_NO":"８號七樓之２","E_COORD97":173894.84,"N_COORD97":2547386.6299999999,"ADDRESS":"中山路１０巷８號七樓之２","OBJECTID":415058},"geometry":{"x":173894.84000000171,"y":2547386.6300000008}},{"attributes":{"ID":415083,"DIS_CODE":0,"TOWNNAME":"永康區","LI":"永康里","LIN":"3鄰","STREET":"中山路","SECT":" ","MAREA":" ","LANE":"１０巷","ALLEY":" ","HOUSE_NO":"８號十樓之２","E_COORD97":173894.84,"N_COORD97":2547386.6299999999,"ADDRESS":"中山路１０巷８號十樓之２","OBJECTID":415059},"geometry":{"x":173894.84000000171,"y":2547386.6300000008}},{"attributes":{"ID":415084,"DIS_CODE":0,"TOWNNAME":"永康區","LI":"永康里","LIN":"3鄰","STREET":"中山路","SECT":" ","MAREA":" ","LANE":"１０巷","ALLEY":" ","HOUSE_NO":"６號九樓之１","E_COORD97":173893.51999999999,"N_COORD97":2547392.8700000001,"ADDRESS":"中山路１０巷６號九樓之１","OBJECTID":415060},"geometry":{"x":173893.52000000048,"y":2547392.8700000048}},{"attributes":{"ID":415085,"DIS_CODE":0,"TOWNNAME":"永康區","LI":"永康里","LIN":"3鄰","STREET":"中山路","SECT":" ","MAREA":" ","LANE":"１０巷","ALLEY":" ","HOUSE_NO":"６號七樓之３","E_COORD97":173893.62,"N_COORD97":2547392.8700000001,"ADDRESS":"中山路１０巷６號七樓之３","OBJECTID":415061},"geometry":{"x":173893.62000000104,"y":2547392.8700000048}},{"attributes":{"ID":415086,"DIS_CODE":0,"TOWNNAME":"永康區","LI":"永康里","LIN":"3鄰","STREET":"中山路","SECT":" ","MAREA":" ","LANE":"１０巷","ALLEY":" ","HOUSE_NO":"６號五樓之１","E_COORD97":173893.51999999999,"N_COORD97":2547392.8700000001,"ADDRESS":"中山路１０巷６號五樓之１","OBJECTID":415062},"geometry":{"x":173893.52000000048,"y":2547392.8700000048}},{"attributes":{"ID":415087,"DIS_CODE":0,"TOWNNAME":"永康區","LI":"永康里","LIN":"3鄰","STREET":"中山路","SECT":" ","MAREA":" ","LANE":"１０巷","ALLEY":" ","HOUSE_NO":"６號四樓之２","E_COORD97":173893.64999999999,"N_COORD97":2547392.8700000001,"ADDRESS":"中山路１０巷６號四樓之２","OBJECTID":415063},"geometry":{"x":173893.6500000013,"y":2547392.8700000048}},{"attributes":{"ID":415088,"DIS_CODE":0,"TOWNNAME":"永康區","LI":"安康里","LIN":"3鄰","STREET":"中華路","SECT":" ","MAREA":" ","LANE":"７２７巷","ALLEY":" ","HOUSE_NO":"８６號二樓之１","E_COORD97":170657.84,"N_COORD97":2546333.2999999998,"ADDRESS":"中華路７２７巷８６號二樓之１","OBJECTID":415064},"geometry":{"x":170657.84000000078,"y":2546333.3000000026}},{"attributes":{"ID":415089,"DIS_CODE":0,"TOWNNAME":"永康區","LI":"安康里","LIN":"3鄰","STREET":"中華路","SECT":" ","MAREA":" ","LANE":"７２７巷","ALLEY":" ","HOUSE_NO":"８６號四樓之２","E_COORD97":170657.97,"N_COORD97":2546333.2999999998,"ADDRESS":"中華路７２７巷８６號四樓之２","OBJECTID":415065},"geometry":{"x":170657.97000000067,"y":2546333.3000000026}},{"attributes":{"ID":415090,"DIS_CODE":0,"TOWNNAME":"永康區","LI":"安康里","LIN":"3鄰","STREET":"中華路","SECT":" ","MAREA":" ","LANE":"７２７巷","ALLEY":" ","HOUSE_NO":"８６號二樓之２","E_COORD97":170657.97,"N_COORD97":2546333.2999999998,"ADDRESS":"中華路７２７巷８６號二樓之２","OBJECTID":415066},"geometry":{"x":170657.97000000067,"y":2546333.3000000026}},{"attributes":{"ID":415091,"DIS_CODE":0,"TOWNNAME":"永康區","LI":"永康里","LIN":"3鄰","STREET":"中山路","SECT":" ","MAREA":" ","LANE":"１０巷","ALLEY":" ","HOUSE_NO":"８號十一樓之２","E_COORD97":173896.09,"N_COORD97":2547386.6299999999,"ADDRESS":"中山路１０巷８號十一樓之２","OBJECTID":415067},"geometry":{"x":173896.08999999985,"y":2547386.6300000008}},{"attributes":{"ID":415092,"DIS_CODE":0,"TOWNNAME":"永康區","LI":"永康里","LIN":"3鄰","STREET":"中山路","SECT":" ","MAREA":" ","LANE":"１０巷","ALLEY":" ","HOUSE_NO":"６號十一樓之３","E_COORD97":173894.87,"N_COORD97":2547392.8700000001,"ADDRESS":"中山路１０巷６號十一樓之３","OBJECTID":415068},"geometry":{"x":173894.87000000197,"y":2547392.8700000048}},{"attributes":{"ID":415093,"DIS_CODE":0,"TOWNNAME":"永康區","LI":"永康里","LIN":"3鄰","STREET":"中山路","SECT":" ","MAREA":" ","LANE":"１０巷","ALLEY":" ","HOUSE_NO":"６號二樓之１","E_COORD97":173893.51999999999,"N_COORD97":2547392.8700000001,"ADDRESS":"中山路１０巷６號二樓之１","OBJECTID":415069},"geometry":{"x":173893.52000000048,"y":2547392.8700000048}},{"attributes":{"ID":415094,"DIS_CODE":0,"TOWNNAME":"永康區","LI":"永康里","LIN":"3鄰","STREET":"中山路","SECT":" ","MAREA":" ","LANE":"１０巷","ALLEY":" ","HOUSE_NO":"６號十樓之１","E_COORD97":173893.51999999999,"N_COORD97":2547392.8700000001,"ADDRESS":"中山路１０巷６號十樓之１","OBJECTID":415070},"geometry":{"x":173893.52000000048,"y":2547392.8700000048}},{"attributes":{"ID":415095,"DIS_CODE":0,"TOWNNAME":"永康區","LI":"安康里","LIN":"3鄰","STREET":"中華路","SECT":" ","MAREA":" ","LANE":"７２７巷","ALLEY":" ","HOUSE_NO":"８６號十一樓之２","E_COORD97":170659.22,"N_COORD97":2546333.2999999998,"ADDRESS":"中華路７２７巷８６號十一樓之２","OBJECTID":415071},"geometry":{"x":170659.21999999974,"y":2546333.3000000026}},{"attributes":{"ID":415096,"DIS_CODE":0,"TOWNNAME":"永康區","LI":"永康里","LIN":"3鄰","STREET":"中山路","SECT":" ","MAREA":" ","LANE":"１０巷","ALLEY":" ","HOUSE_NO":"８號六樓之２","E_COORD97":173894.84,"N_COORD97":2547386.6299999999,"ADDRESS":"中山路１０巷８號六樓之２","OBJECTID":415072},"geometry":{"x":173894.84000000171,"y":2547386.6300000008}},{"attributes":{"ID":415097,"DIS_CODE":0,"TOWNNAME":"永康區","LI":"安康里","LIN":"3鄰","STREET":"中華路","SECT":" ","MAREA":" ","LANE":"７２７巷","ALLEY":" ","HOUSE_NO":"８６號十四樓之１","E_COORD97":170659.09,"N_COORD97":2546333.2999999998,"ADDRESS":"中華路７２７巷８６號十四樓之１","OBJECTID":415073},"geometry":{"x":170659.09000000078,"y":2546333.3000000026}},{"attributes":{"ID":415098,"DIS_CODE":0,"TOWNNAME":"永康區","LI":"永康里","LIN":"3鄰","STREET":"中山路","SECT":" ","MAREA":" ","LANE":"１０巷","ALLEY":" ","HOUSE_NO":"６號七樓之２","E_COORD97":173893.64999999999,"N_COORD97":2547392.8700000001,"ADDRESS":"中山路１０巷６號七樓之２","OBJECTID":415074},"geometry":{"x":173893.6500000013,"y":2547392.8700000048}},{"attributes":{"ID":415099,"DIS_CODE":0,"TOWNNAME":"永康區","LI":"永康里","LIN":"3鄰","STREET":"中山路","SECT":" ","MAREA":" ","LANE":"１０巷","ALLEY":" ","HOUSE_NO":"６號二樓之２","E_COORD97":173893.64999999999,"N_COORD97":2547392.8700000001,"ADDRESS":"中山路１０巷６號二樓之２","OBJECTID":415075},"geometry":{"x":173893.6500000013,"y":2547392.8700000048}},{"attributes":{"ID":415100,"DIS_CODE":0,"TOWNNAME":"永康區","LI":"安康里","LIN":"3鄰","STREET":"中華路","SECT":" ","MAREA":" ","LANE":"７２７巷","ALLEY":" ","HOUSE_NO":"８６號十三樓之２","E_COORD97":170659.22,"N_COORD97":2546333.2999999998,"ADDRESS":"中華路７２７巷８６號十三樓之２","OBJECTID":415076},"geometry":{"x":170659.21999999974,"y":2546333.3000000026}},{"attributes":{"ID":415101,"DIS_CODE":0,"TOWNNAME":"永康區","LI":"永康里","LIN":"3鄰","STREET":"中山路","SECT":" ","MAREA":" ","LANE":"１０巷","ALLEY":" ","HOUSE_NO":"６號八樓之３","E_COORD97":173893.62,"N_COORD97":2547392.8700000001,"ADDRESS":"中山路１０巷６號八樓之３","OBJECTID":415077},"geometry":{"x":173893.62000000104,"y":2547392.8700000048}},{"attributes":{"ID":415102,"DIS_CODE":0,"TOWNNAME":"中西區","LI":"元安里","LIN":"3鄰","STREET":"西門路","SECT":"一段","MAREA":" ","LANE":"７０３巷","ALLEY":" ","HOUSE_NO":"１０號二樓","E_COORD97":167664.76000000001,"N_COORD97":2543250.54,"ADDRESS":"西門路一段７０３巷１０號二樓","OBJECTID":415078},"geometry":{"x":167664.75999999978,"y":2543250.540000001}},{"attributes":{"ID":415103,"DIS_CODE":0,"TOWNNAME":"中西區","LI":"元安里","LIN":"3鄰","STREET":"西門路","SECT":"一段","MAREA":" ","LANE":"７０３巷","ALLEY":" ","HOUSE_NO":"１０號三樓","E_COORD97":167664.76000000001,"N_COORD97":2543250.54,"ADDRESS":"西門路一段７０３巷１０號三樓","OBJECTID":415079},"geometry":{"x":167664.75999999978,"y":2543250.540000001}},{"attributes":{"ID":415104,"DIS_CODE":0,"TOWNNAME":"中西區","LI":"元安里","LIN":"3鄰","STREET":"西門路","SECT":"一段","MAREA":" ","LANE":"７０３巷","ALLEY":" ","HOUSE_NO":"１０號五樓","E_COORD97":167664.76000000001,"N_COORD97":2543250.54,"ADDRESS":"西門路一段７０３巷１０號五樓","OBJECTID":415080},"geometry":{"x":167664.75999999978,"y":2543250.540000001}},{"attributes":{"ID":415105,"DIS_CODE":0,"TOWNNAME":"中西區","LI":"元安里","LIN":"3鄰","STREET":"西門路","SECT":"一段","MAREA":" ","LANE":"７０３巷","ALLEY":" ","HOUSE_NO":"１０號四樓","E_COORD97":167664.76000000001,"N_COORD97":2543250.54,"ADDRESS":"西門路一段７０３巷１０號四樓","OBJECTID":415081},"geometry":{"x":167664.75999999978,"y":2543250.540000001}},{"attributes":{"ID":415106,"DIS_CODE":0,"TOWNNAME":"中西區","LI":"元安里","LIN":"3鄰","STREET":"西門路","SECT":"一段","MAREA":" ","LANE":"７０３巷","ALLEY":" ","HOUSE_NO":"１３號三樓之１","E_COORD97":167622.37,"N_COORD97":2543238.6400000001,"ADDRESS":"西門路一段７０３巷１３號三樓之１","OBJECTID":415082},"geometry":{"x":167622.37000000011,"y":2543238.6400000025}},{"attributes":{"ID":415107,"DIS_CODE":0,"TOWNNAME":"中西區","LI":"元安里","LIN":"3鄰","STREET":"西門路","SECT":"一段","MAREA":" ","LANE":"７０３巷","ALLEY":" ","HOUSE_NO":"１３號三樓之２","E_COORD97":167622.37,"N_COORD97":2543238.6400000001,"ADDRESS":"西門路一段７０３巷１３號三樓之２","OBJECTID":415083},"geometry":{"x":167622.37000000011,"y":2543238.6400000025}},{"attributes":{"ID":415108,"DIS_CODE":0,"TOWNNAME":"中西區","LI":"元安里","LIN":"3鄰","STREET":"西門路","SECT":"一段","MAREA":" ","LANE":"７０３巷","ALLEY":" ","HOUSE_NO":"１３號五樓之１","E_COORD97":167622.37,"N_COORD97":2543238.6400000001,"ADDRESS":"西門路一段７０３巷１３號五樓之１","OBJECTID":415084},"geometry":{"x":167622.37000000011,"y":2543238.6400000025}},{"attributes":{"ID":415109,"DIS_CODE":0,"TOWNNAME":"中西區","LI":"元安里","LIN":"3鄰","STREET":"西門路","SECT":"一段","MAREA":" ","LANE":"７０３巷","ALLEY":" ","HOUSE_NO":"１３號五樓之２","E_COORD97":167622.37,"N_COORD97":2543238.6400000001,"ADDRESS":"西門路一段７０３巷１３號五樓之２","OBJECTID":415085},"geometry":{"x":167622.37000000011,"y":2543238.6400000025}},{"attributes":{"ID":415110,"DIS_CODE":0,"TOWNNAME":"中西區","LI":"元安里","LIN":"3鄰","STREET":"西門路","SECT":"一段","MAREA":" ","LANE":"７０３巷","ALLEY":" ","HOUSE_NO":"１３號四樓之１","E_COORD97":167622.37,"N_COORD97":2543238.6400000001,"ADDRESS":"西門路一段７０３巷１３號四樓之１","OBJECTID":415086},"geometry":{"x":167622.37000000011,"y":2543238.6400000025}},{"attributes":{"ID":415111,"DIS_CODE":0,"TOWNNAME":"中西區","LI":"元安里","LIN":"3鄰","STREET":"西門路","SECT":"一段","MAREA":" ","LANE":"７０３巷","ALLEY":" ","HOUSE_NO":"１３號四樓之２","E_COORD97":167622.37,"N_COORD97":2543238.6400000001,"ADDRESS":"西門路一段７０３巷１３號四樓之２","OBJECTID":415087},"geometry":{"x":167622.37000000011,"y":2543238.6400000025}},{"attributes":{"ID":415112,"DIS_CODE":0,"TOWNNAME":"中西區","LI":"元安里","LIN":"3鄰","STREET":"西門路","SECT":"一段","MAREA":" ","LANE":"７０３巷","ALLEY":" ","HOUSE_NO":"１６號七樓之１","E_COORD97":167623.60999999999,"N_COORD97":2543250.75,"ADDRESS":"西門路一段７０３巷１６號七樓之１","OBJECTID":415088},"geometry":{"x":167623.61000000127,"y":2543250.7500000019}},{"attributes":{"ID":415113,"DIS_CODE":0,"TOWNNAME":"中西區","LI":"元安里","LIN":"3鄰","STREET":"西門路","SECT":"一段","MAREA":" ","LANE":"７０３巷","ALLEY":" ","HOUSE_NO":"１６號七樓之２","E_COORD97":167623.60999999999,"N_COORD97":2543250.75,"ADDRESS":"西門路一段７０３巷１６號七樓之２","OBJECTID":415089},"geometry":{"x":167623.61000000127,"y":2543250.7500000019}},{"attributes":{"ID":415114,"DIS_CODE":0,"TOWNNAME":"中西區","LI":"元安里","LIN":"3鄰","STREET":"西門路","SECT":"一段","MAREA":" ","LANE":"７０３巷","ALLEY":" ","HOUSE_NO":"１６號七樓之３","E_COORD97":167623.60999999999,"N_COORD97":2543250.75,"ADDRESS":"西門路一段７０３巷１６號七樓之３","OBJECTID":415090},"geometry":{"x":167623.61000000127,"y":2543250.7500000019}},{"attributes":{"ID":415115,"DIS_CODE":0,"TOWNNAME":"中西區","LI":"元安里","LIN":"3鄰","STREET":"西門路","SECT":"一段","MAREA":" ","LANE":"７０３巷","ALLEY":" ","HOUSE_NO":"１６號七樓之４","E_COORD97":167623.60999999999,"N_COORD97":2543250.75,"ADDRESS":"西門路一段７０３巷１６號七樓之４","OBJECTID":415091},"geometry":{"x":167623.61000000127,"y":2543250.7500000019}},{"attributes":{"ID":415116,"DIS_CODE":0,"TOWNNAME":"中西區","LI":"元安里","LIN":"3鄰","STREET":"西門路","SECT":"一段","MAREA":" ","LANE":"７０３巷","ALLEY":" ","HOUSE_NO":"１６號七樓之５","E_COORD97":167623.60999999999,"N_COORD97":2543250.75,"ADDRESS":"西門路一段７０３巷１６號七樓之５","OBJECTID":415092},"geometry":{"x":167623.61000000127,"y":2543250.7500000019}},{"attributes":{"ID":415117,"DIS_CODE":0,"TOWNNAME":"中西區","LI":"元安里","LIN":"3鄰","STREET":"西門路","SECT":"一段","MAREA":" ","LANE":"７０３巷","ALLEY":" ","HOUSE_NO":"１６號三樓之１","E_COORD97":167623.60999999999,"N_COORD97":2543250.75,"ADDRESS":"西門路一段７０３巷１６號三樓之１","OBJECTID":415093},"geometry":{"x":167623.61000000127,"y":2543250.7500000019}},{"attributes":{"ID":415118,"DIS_CODE":0,"TOWNNAME":"中西區","LI":"元安里","LIN":"3鄰","STREET":"西門路","SECT":"一段","MAREA":" ","LANE":"７０３巷","ALLEY":" ","HOUSE_NO":"１６號三樓之２","E_COORD97":167623.60999999999,"N_COORD97":2543250.75,"ADDRESS":"西門路一段７０３巷１６號三樓之２","OBJECTID":415094},"geometry":{"x":167623.61000000127,"y":2543250.7500000019}},{"attributes":{"ID":415119,"DIS_CODE":0,"TOWNNAME":"中西區","LI":"元安里","LIN":"3鄰","STREET":"西門路","SECT":"一段","MAREA":" ","LANE":"７０３巷","ALLEY":" ","HOUSE_NO":"１６號三樓之３","E_COORD97":167623.60999999999,"N_COORD97":2543250.75,"ADDRESS":"西門路一段７０３巷１６號三樓之３","OBJECTID":415095},"geometry":{"x":167623.61000000127,"y":2543250.7500000019}},{"attributes":{"ID":415120,"DIS_CODE":0,"TOWNNAME":"中西區","LI":"元安里","LIN":"3鄰","STREET":"西門路","SECT":"一段","MAREA":" ","LANE":"７０３巷","ALLEY":" ","HOUSE_NO":"１６號三樓之４","E_COORD97":167623.60999999999,"N_COORD97":2543250.75,"ADDRESS":"西門路一段７０３巷１６號三樓之４","OBJECTID":415096},"geometry":{"x":167623.61000000127,"y":2543250.7500000019}},{"attributes":{"ID":415121,"DIS_CODE":0,"TOWNNAME":"中西區","LI":"元安里","LIN":"3鄰","STREET":"西門路","SECT":"一段","MAREA":" ","LANE":"７０３巷","ALLEY":" ","HOUSE_NO":"１６號三樓之５","E_COORD97":167623.60999999999,"N_COORD97":2543250.75,"ADDRESS":"西門路一段７０３巷１６號三樓之５","OBJECTID":415097},"geometry":{"x":167623.61000000127,"y":2543250.7500000019}},{"attributes":{"ID":415122,"DIS_CODE":0,"TOWNNAME":"中西區","LI":"元安里","LIN":"3鄰","STREET":"西門路","SECT":"一段","MAREA":" ","LANE":"７０３巷","ALLEY":" ","HOUSE_NO":"１６號三樓之６","E_COORD97":167623.60999999999,"N_COORD97":2543250.75,"ADDRESS":"西門路一段７０３巷１６號三樓之６","OBJECTID":415098},"geometry":{"x":167623.61000000127,"y":2543250.7500000019}},{"attributes":{"ID":415123,"DIS_CODE":0,"TOWNNAME":"中西區","LI":"元安里","LIN":"3鄰","STREET":"西門路","SECT":"一段","MAREA":" ","LANE":"７０３巷","ALLEY":" ","HOUSE_NO":"１６號五樓之１","E_COORD97":167623.60999999999,"N_COORD97":2543250.75,"ADDRESS":"西門路一段７０３巷１６號五樓之１","OBJECTID":415099},"geometry":{"x":167623.61000000127,"y":2543250.7500000019}},{"attributes":{"ID":415124,"DIS_CODE":0,"TOWNNAME":"中西區","LI":"元安里","LIN":"3鄰","STREET":"西門路","SECT":"一段","MAREA":" ","LANE":"７０３巷","ALLEY":" ","HOUSE_NO":"１６號五樓之２","E_COORD97":167623.60999999999,"N_COORD97":2543250.75,"ADDRESS":"西門路一段７０３巷１６號五樓之２","OBJECTID":415100},"geometry":{"x":167623.61000000127,"y":2543250.7500000019}},{"attributes":{"ID":415125,"DIS_CODE":0,"TOWNNAME":"中西區","LI":"元安里","LIN":"3鄰","STREET":"西門路","SECT":"一段","MAREA":" ","LANE":"７０３巷","ALLEY":" ","HOUSE_NO":"１６號五樓之３","E_COORD97":167623.60999999999,"N_COORD97":2543250.75,"ADDRESS":"西門路一段７０３巷１６號五樓之３","OBJECTID":415101},"geometry":{"x":167623.61000000127,"y":2543250.7500000019}},{"attributes":{"ID":415126,"DIS_CODE":0,"TOWNNAME":"中西區","LI":"元安里","LIN":"3鄰","STREET":"西門路","SECT":"一段","MAREA":" ","LANE":"７０３巷","ALLEY":" ","HOUSE_NO":"１６號五樓之４","E_COORD97":167623.60999999999,"N_COORD97":2543250.75,"ADDRESS":"西門路一段７０３巷１６號五樓之４","OBJECTID":415102},"geometry":{"x":167623.61000000127,"y":2543250.7500000019}},{"attributes":{"ID":415127,"DIS_CODE":0,"TOWNNAME":"中西區","LI":"元安里","LIN":"3鄰","STREET":"西門路","SECT":"一段","MAREA":" ","LANE":"７０３巷","ALLEY":" ","HOUSE_NO":"１６號五樓之５","E_COORD97":167623.60999999999,"N_COORD97":2543250.75,"ADDRESS":"西門路一段７０３巷１６號五樓之５","OBJECTID":415103},"geometry":{"x":167623.61000000127,"y":2543250.7500000019}},{"attributes":{"ID":415128,"DIS_CODE":0,"TOWNNAME":"中西區","LI":"元安里","LIN":"3鄰","STREET":"西門路","SECT":"一段","MAREA":" ","LANE":"７０３巷","ALLEY":" ","HOUSE_NO":"１６號五樓之６","E_COORD97":167623.60999999999,"N_COORD97":2543250.75,"ADDRESS":"西門路一段７０３巷１６號五樓之６","OBJECTID":415104},"geometry":{"x":167623.61000000127,"y":2543250.7500000019}},{"attributes":{"ID":415129,"DIS_CODE":0,"TOWNNAME":"中西區","LI":"元安里","LIN":"3鄰","STREET":"西門路","SECT":"一段","MAREA":" ","LANE":"７０３巷","ALLEY":" ","HOUSE_NO":"１６號六樓之１","E_COORD97":167623.60999999999,"N_COORD97":2543250.75,"ADDRESS":"西門路一段７０３巷１６號六樓之１","OBJECTID":415105},"geometry":{"x":167623.61000000127,"y":2543250.7500000019}},{"attributes":{"ID":415130,"DIS_CODE":0,"TOWNNAME":"中西區","LI":"元安里","LIN":"3鄰","STREET":"西門路","SECT":"一段","MAREA":" ","LANE":"７０３巷","ALLEY":" ","HOUSE_NO":"１６號六樓之２","E_COORD97":167623.60999999999,"N_COORD97":2543250.75,"ADDRESS":"西門路一段７０３巷１６號六樓之２","OBJECTID":415106},"geometry":{"x":167623.61000000127,"y":2543250.7500000019}},{"attributes":{"ID":415131,"DIS_CODE":0,"TOWNNAME":"中西區","LI":"元安里","LIN":"3鄰","STREET":"西門路","SECT":"一段","MAREA":" ","LANE":"７０３巷","ALLEY":" ","HOUSE_NO":"１６號六樓之３","E_COORD97":167623.60999999999,"N_COORD97":2543250.75,"ADDRESS":"西門路一段７０３巷１６號六樓之３","OBJECTID":415107},"geometry":{"x":167623.61000000127,"y":2543250.7500000019}},{"attributes":{"ID":415132,"DIS_CODE":0,"TOWNNAME":"中西區","LI":"元安里","LIN":"3鄰","STREET":"西門路","SECT":"一段","MAREA":" ","LANE":"７０３巷","ALLEY":" ","HOUSE_NO":"１６號六樓之４","E_COORD97":167623.60999999999,"N_COORD97":2543250.75,"ADDRESS":"西門路一段７０３巷１６號六樓之４","OBJECTID":415108},"geometry":{"x":167623.61000000127,"y":2543250.7500000019}},{"attributes":{"ID":415133,"DIS_CODE":0,"TOWNNAME":"中西區","LI":"元安里","LIN":"3鄰","STREET":"西門路","SECT":"一段","MAREA":" ","LANE":"７０３巷","ALLEY":" ","HOUSE_NO":"１６號六樓之５","E_COORD97":167623.60999999999,"N_COORD97":2543250.75,"ADDRESS":"西門路一段７０３巷１６號六樓之５","OBJECTID":415109},"geometry":{"x":167623.61000000127,"y":2543250.7500000019}},{"attributes":{"ID":415134,"DIS_CODE":0,"TOWNNAME":"中西區","LI":"元安里","LIN":"3鄰","STREET":"西門路","SECT":"一段","MAREA":" ","LANE":"７０３巷","ALLEY":" ","HOUSE_NO":"１６號六樓之６","E_COORD97":167623.60999999999,"N_COORD97":2543250.75,"ADDRESS":"西門路一段７０３巷１６號六樓之６","OBJECTID":415110},"geometry":{"x":167623.61000000127,"y":2543250.7500000019}},{"attributes":{"ID":415135,"DIS_CODE":0,"TOWNNAME":"中西區","LI":"元安里","LIN":"3鄰","STREET":"西門路","SECT":"一段","MAREA":" ","LANE":"７０３巷","ALLEY":" ","HOUSE_NO":"１６號四樓之１","E_COORD97":167623.60999999999,"N_COORD97":2543250.75,"ADDRESS":"西門路一段７０３巷１６號四樓之１","OBJECTID":415111},"geometry":{"x":167623.61000000127,"y":2543250.7500000019}},{"attributes":{"ID":415136,"DIS_CODE":0,"TOWNNAME":"中西區","LI":"元安里","LIN":"3鄰","STREET":"西門路","SECT":"一段","MAREA":" ","LANE":"７０３巷","ALLEY":" ","HOUSE_NO":"１６號四樓之２","E_COORD97":167623.60999999999,"N_COORD97":2543250.75,"ADDRESS":"西門路一段７０３巷１６號四樓之２","OBJECTID":415112},"geometry":{"x":167623.61000000127,"y":2543250.7500000019}},{"attributes":{"ID":415137,"DIS_CODE":0,"TOWNNAME":"中西區","LI":"元安里","LIN":"3鄰","STREET":"西門路","SECT":"一段","MAREA":" ","LANE":"７０３巷","ALLEY":" ","HOUSE_NO":"１６號四樓之３","E_COORD97":167623.60999999999,"N_COORD97":2543250.75,"ADDRESS":"西門路一段７０３巷１６號四樓之３","OBJECTID":415113},"geometry":{"x":167623.61000000127,"y":2543250.7500000019}},{"attributes":{"ID":415138,"DIS_CODE":0,"TOWNNAME":"北區","LI":" ","LIN":" ","STREET":"北門路","SECT":"二段","MAREA":" ","LANE":"５７６巷","ALLEY":" ","HOUSE_NO":"７號","E_COORD97":169709.67000000001,"N_COORD97":2545762.0899999999,"ADDRESS":"北門路二段５７６巷７號","OBJECTID":415114},"geometry":{"x":169709.67000000086,"y":2545762.0899999999}},{"attributes":{"ID":415139,"DIS_CODE":0,"TOWNNAME":"中西區","LI":"元安里","LIN":"3鄰","STREET":"西門路","SECT":"一段","MAREA":" ","LANE":"７０３巷","ALLEY":" ","HOUSE_NO":"１６號四樓之４","E_COORD97":167623.60999999999,"N_COORD97":2543250.75,"ADDRESS":"西門路一段７０３巷１６號四樓之４","OBJECTID":415115},"geometry":{"x":167623.61000000127,"y":2543250.7500000019}},{"attributes":{"ID":415140,"DIS_CODE":0,"TOWNNAME":"中西區","LI":"元安里","LIN":"3鄰","STREET":"西門路","SECT":"一段","MAREA":" ","LANE":"７０３巷","ALLEY":" ","HOUSE_NO":"１６號四樓之５","E_COORD97":167623.60999999999,"N_COORD97":2543250.75,"ADDRESS":"西門路一段７０３巷１６號四樓之５","OBJECTID":415116},"geometry":{"x":167623.61000000127,"y":2543250.7500000019}},{"attributes":{"ID":415141,"DIS_CODE":0,"TOWNNAME":"中西區","LI":"元安里","LIN":"3鄰","STREET":"西門路","SECT":"一段","MAREA":" ","LANE":"７０３巷","ALLEY":" ","HOUSE_NO":"１６號四樓之６","E_COORD97":167623.60999999999,"N_COORD97":2543250.75,"ADDRESS":"西門路一段７０３巷１６號四樓之６","OBJECTID":415117},"geometry":{"x":167623.61000000127,"y":2543250.7500000019}},{"attributes":{"ID":415142,"DIS_CODE":0,"TOWNNAME":"中西區","LI":"元安里","LIN":"3鄰","STREET":"西門路","SECT":"一段","MAREA":" ","LANE":"７０３巷","ALLEY":" ","HOUSE_NO":"２２號二樓之１","E_COORD97":167594.10000000001,"N_COORD97":2543254.2799999998,"ADDRESS":"西門路一段７０３巷２２號二樓之１","OBJECTID":415118},"geometry":{"x":167594.10000000056,"y":2543254.2799999993}},{"attributes":{"ID":415143,"DIS_CODE":0,"TOWNNAME":"中西區","LI":"元安里","LIN":"3鄰","STREET":"西門路","SECT":"一段","MAREA":" ","LANE":"７０３巷","ALLEY":" ","HOUSE_NO":"２２號二樓之２","E_COORD97":167594.10000000001,"N_COORD97":2543254.2799999998,"ADDRESS":"西門路一段７０３巷２２號二樓之２","OBJECTID":415119},"geometry":{"x":167594.10000000056,"y":2543254.2799999993}},{"attributes":{"ID":415144,"DIS_CODE":0,"TOWNNAME":"中西區","LI":"元安里","LIN":"3鄰","STREET":"西門路","SECT":"一段","MAREA":" ","LANE":"７０３巷","ALLEY":" ","HOUSE_NO":"２２號二樓之３","E_COORD97":167594.10000000001,"N_COORD97":2543254.2799999998,"ADDRESS":"西門路一段７０３巷２２號二樓之３","OBJECTID":415120},"geometry":{"x":167594.10000000056,"y":2543254.2799999993}},{"attributes":{"ID":415145,"DIS_CODE":0,"TOWNNAME":"南區","LI":"再興里","LIN":"3鄰","STREET":"金華路","SECT":"二段","MAREA":" ","LANE":"２２８巷","ALLEY":" ","HOUSE_NO":"１３號四樓之２","E_COORD97":167162.22,"N_COORD97":2542391.9700000002,"ADDRESS":"金華路二段２２８巷１３號四樓之２","OBJECTID":415121},"geometry":{"x":167162.2200000016,"y":2542391.9700000025}},{"attributes":{"ID":415146,"DIS_CODE":0,"TOWNNAME":"仁德區","LI":"太子里","LIN":"3鄰","STREET":"太子路","SECT":" ","MAREA":" ","LANE":"１９０巷","ALLEY":" ","HOUSE_NO":"２７號四樓","E_COORD97":174311.63,"N_COORD97":2543608.48,"ADDRESS":"太子路１９０巷２７號四樓","OBJECTID":415122},"geometry":{"x":174311.63000000175,"y":2543608.4800000023}},{"attributes":{"ID":415147,"DIS_CODE":0,"TOWNNAME":"永康區","LI":"永康里","LIN":"3鄰","STREET":"中山路","SECT":" ","MAREA":" ","LANE":"１０巷","ALLEY":" ","HOUSE_NO":"６號五樓之２","E_COORD97":173893.64999999999,"N_COORD97":2547392.8700000001,"ADDRESS":"中山路１０巷６號五樓之２","OBJECTID":415123},"geometry":{"x":173893.6500000013,"y":2547392.8700000048}},{"attributes":{"ID":415148,"DIS_CODE":0,"TOWNNAME":"永康區","LI":"安康里","LIN":"3鄰","STREET":"中華路","SECT":" ","MAREA":" ","LANE":"７２７巷","ALLEY":" ","HOUSE_NO":"８６號六樓之２","E_COORD97":170657.97,"N_COORD97":2546333.2999999998,"ADDRESS":"中華路７２７巷８６號六樓之２","OBJECTID":415124},"geometry":{"x":170657.97000000067,"y":2546333.3000000026}},{"attributes":{"ID":415149,"DIS_CODE":0,"TOWNNAME":"永康區","LI":"永康里","LIN":"3鄰","STREET":"中山路","SECT":" ","MAREA":" ","LANE":"１０巷","ALLEY":" ","HOUSE_NO":"８號十二樓之１","E_COORD97":173895.95999999999,"N_COORD97":2547386.6299999999,"ADDRESS":"中山路１０巷８號十二樓之１","OBJECTID":415125},"geometry":{"x":173895.96000000089,"y":2547386.6300000008}},{"attributes":{"ID":415150,"DIS_CODE":0,"TOWNNAME":"永康區","LI":"永康里","LIN":"3鄰","STREET":"中山路","SECT":" ","MAREA":" ","LANE":"１０巷","ALLEY":" ","HOUSE_NO":"８號七樓之１","E_COORD97":173894.70999999999,"N_COORD97":2547386.6299999999,"ADDRESS":"中山路１０巷８號七樓之１","OBJECTID":415126},"geometry":{"x":173894.71000000089,"y":2547386.6300000008}},{"attributes":{"ID":415151,"DIS_CODE":0,"TOWNNAME":"永康區","LI":"永康里","LIN":"3鄰","STREET":"中山路","SECT":" ","MAREA":" ","LANE":"１０巷","ALLEY":" ","HOUSE_NO":"６號四樓之１","E_COORD97":173893.51999999999,"N_COORD97":2547392.8700000001,"ADDRESS":"中山路１０巷６號四樓之１","OBJECTID":415127},"geometry":{"x":173893.52000000048,"y":2547392.8700000048}},{"attributes":{"ID":415152,"DIS_CODE":0,"TOWNNAME":"永康區","LI":"永康里","LIN":"3鄰","STREET":"中山路","SECT":" ","MAREA":" ","LANE":"１０巷","ALLEY":" ","HOUSE_NO":"６號十樓之３","E_COORD97":173893.62,"N_COORD97":2547392.8700000001,"ADDRESS":"中山路１０巷６號十樓之３","OBJECTID":415128},"geometry":{"x":173893.62000000104,"y":2547392.8700000048}},{"attributes":{"ID":415153,"DIS_CODE":0,"TOWNNAME":"永康區","LI":"永康里","LIN":"3鄰","STREET":"中山路","SECT":" ","MAREA":" ","LANE":"１０巷","ALLEY":" ","HOUSE_NO":"６號二樓之３","E_COORD97":173893.62,"N_COORD97":2547392.8700000001,"ADDRESS":"中山路１０巷６號二樓之３","OBJECTID":415129},"geometry":{"x":173893.62000000104,"y":2547392.8700000048}},{"attributes":{"ID":415154,"DIS_CODE":0,"TOWNNAME":"永康區","LI":"永康里","LIN":"3鄰","STREET":"中山路","SECT":" ","MAREA":" ","LANE":"１０巷","ALLEY":" ","HOUSE_NO":"６號六樓之１","E_COORD97":173893.51999999999,"N_COORD97":2547392.8700000001,"ADDRESS":"中山路１０巷６號六樓之１","OBJECTID":415130},"geometry":{"x":173893.52000000048,"y":2547392.8700000048}},{"attributes":{"ID":415155,"DIS_CODE":0,"TOWNNAME":"永康區","LI":"永康里","LIN":"3鄰","STREET":"中山路","SECT":" ","MAREA":" ","LANE":"１０巷","ALLEY":" ","HOUSE_NO":"６號四樓之３","E_COORD97":173893.62,"N_COORD97":2547392.8700000001,"ADDRESS":"中山路１０巷６號四樓之３","OBJECTID":415131},"geometry":{"x":173893.62000000104,"y":2547392.8700000048}},{"attributes":{"ID":415156,"DIS_CODE":0,"TOWNNAME":"永康區","LI":"安康里","LIN":"3鄰","STREET":"中華路","SECT":" ","MAREA":" ","LANE":"７２７巷","ALLEY":" ","HOUSE_NO":"８６號八樓之２","E_COORD97":170657.97,"N_COORD97":2546333.2999999998,"ADDRESS":"中華路７２７巷８６號八樓之２","OBJECTID":415132},"geometry":{"x":170657.97000000067,"y":2546333.3000000026}},{"attributes":{"ID":415157,"DIS_CODE":0,"TOWNNAME":"永康區","LI":"永康里","LIN":"3鄰","STREET":"中山路","SECT":" ","MAREA":" ","LANE":"１０巷","ALLEY":" ","HOUSE_NO":"６號十一樓之１","E_COORD97":173894.76999999999,"N_COORD97":2547392.8700000001,"ADDRESS":"中山路１０巷６號十一樓之１","OBJECTID":415133},"geometry":{"x":173894.76999999955,"y":2547392.8700000048}},{"attributes":{"ID":415158,"DIS_CODE":0,"TOWNNAME":"永康區","LI":"永康里","LIN":"3鄰","STREET":"中山路","SECT":" ","MAREA":" ","LANE":"１０巷","ALLEY":" ","HOUSE_NO":"６號三樓之２","E_COORD97":173893.64999999999,"N_COORD97":2547392.8700000001,"ADDRESS":"中山路１０巷６號三樓之２","OBJECTID":415134},"geometry":{"x":173893.6500000013,"y":2547392.8700000048}},{"attributes":{"ID":415159,"DIS_CODE":0,"TOWNNAME":"永康區","LI":"永康里","LIN":"3鄰","STREET":"中山路","SECT":" ","MAREA":" ","LANE":"１０巷","ALLEY":" ","HOUSE_NO":"８號十二樓之２","E_COORD97":173896.09,"N_COORD97":2547386.6299999999,"ADDRESS":"中山路１０巷８號十二樓之２","OBJECTID":415135},"geometry":{"x":173896.08999999985,"y":2547386.6300000008}},{"attributes":{"ID":415160,"DIS_CODE":0,"TOWNNAME":"永康區","LI":"永康里","LIN":"3鄰","STREET":"中山路","SECT":" ","MAREA":" ","LANE":"１０巷","ALLEY":" ","HOUSE_NO":"６號十一樓之２","E_COORD97":173894.89999999999,"N_COORD97":2547392.8700000001,"ADDRESS":"中山路１０巷６號十一樓之２","OBJECTID":415136},"geometry":{"x":173894.90000000224,"y":2547392.8700000048}},{"attributes":{"ID":415161,"DIS_CODE":0,"TOWNNAME":"南區","LI":"明亮里","LIN":"3鄰","STREET":"新都路","SECT":" ","MAREA":" ","LANE":"５２０巷","ALLEY":" ","HOUSE_NO":"１１號二樓之１","E_COORD97":167141.48000000001,"N_COORD97":2540943.4100000001,"ADDRESS":"新都路５２０巷１１號二樓之１","OBJECTID":415137},"geometry":{"x":167141.48000000138,"y":2540943.4100000039}},{"attributes":{"ID":415162,"DIS_CODE":0,"TOWNNAME":"南區","LI":"明亮里","LIN":"3鄰","STREET":"新都路","SECT":" ","MAREA":" ","LANE":"５２０巷","ALLEY":" ","HOUSE_NO":"１１號二樓之２","E_COORD97":167141.48000000001,"N_COORD97":2540943.4100000001,"ADDRESS":"新都路５２０巷１１號二樓之２","OBJECTID":415138},"geometry":{"x":167141.48000000138,"y":2540943.4100000039}},{"attributes":{"ID":415163,"DIS_CODE":0,"TOWNNAME":"南區","LI":"明亮里","LIN":"3鄰","STREET":"新都路","SECT":" ","MAREA":" ","LANE":"５２０巷","ALLEY":" ","HOUSE_NO":"１１號三樓之１","E_COORD97":167141.48000000001,"N_COORD97":2540943.4100000001,"ADDRESS":"新都路５２０巷１１號三樓之１","OBJECTID":415139},"geometry":{"x":167141.48000000138,"y":2540943.4100000039}},{"attributes":{"ID":415164,"DIS_CODE":0,"TOWNNAME":"南區","LI":"明亮里","LIN":"3鄰","STREET":"新都路","SECT":" ","MAREA":" ","LANE":"５２０巷","ALLEY":" ","HOUSE_NO":"１１號三樓之２","E_COORD97":167141.48000000001,"N_COORD97":2540943.4100000001,"ADDRESS":"新都路５２０巷１１號三樓之２","OBJECTID":415140},"geometry":{"x":167141.48000000138,"y":2540943.4100000039}},{"attributes":{"ID":415165,"DIS_CODE":0,"TOWNNAME":"南區","LI":"明亮里","LIN":"3鄰","STREET":"新都路","SECT":" ","MAREA":" ","LANE":"５２０巷","ALLEY":" ","HOUSE_NO":"１１號三樓之３","E_COORD97":167141.48000000001,"N_COORD97":2540943.4100000001,"ADDRESS":"新都路５２０巷１１號三樓之３","OBJECTID":415141},"geometry":{"x":167141.48000000138,"y":2540943.4100000039}},{"attributes":{"ID":415166,"DIS_CODE":0,"TOWNNAME":"南區","LI":"明亮里","LIN":"3鄰","STREET":"新都路","SECT":" ","MAREA":" ","LANE":"５２０巷","ALLEY":" ","HOUSE_NO":"１１號四樓之１","E_COORD97":167141.48000000001,"N_COORD97":2540943.4100000001,"ADDRESS":"新都路５２０巷１１號四樓之１","OBJECTID":415142},"geometry":{"x":167141.48000000138,"y":2540943.4100000039}},{"attributes":{"ID":415167,"DIS_CODE":0,"TOWNNAME":"南區","LI":"明亮里","LIN":"3鄰","STREET":"新都路","SECT":" ","MAREA":" ","LANE":"５２０巷","ALLEY":" ","HOUSE_NO":"１１號四樓之２","E_COORD97":167141.48000000001,"N_COORD97":2540943.4100000001,"ADDRESS":"新都路５２０巷１１號四樓之２","OBJECTID":415143},"geometry":{"x":167141.48000000138,"y":2540943.4100000039}},{"attributes":{"ID":415168,"DIS_CODE":0,"TOWNNAME":"南區","LI":"明亮里","LIN":"3鄰","STREET":"新都路","SECT":" ","MAREA":" ","LANE":"５２０巷","ALLEY":" ","HOUSE_NO":"１１號四樓之３","E_COORD97":167141.48000000001,"N_COORD97":2540943.4100000001,"ADDRESS":"新都路５２０巷１１號四樓之３","OBJECTID":415144},"geometry":{"x":167141.48000000138,"y":2540943.4100000039}},{"attributes":{"ID":415169,"DIS_CODE":0,"TOWNNAME":"南區","LI":"明亮里","LIN":"3鄰","STREET":"新都路","SECT":" ","MAREA":" ","LANE":"５２０巷","ALLEY":" ","HOUSE_NO":"１１號五樓之１","E_COORD97":167141.48000000001,"N_COORD97":2540943.4100000001,"ADDRESS":"新都路５２０巷１１號五樓之１","OBJECTID":415145},"geometry":{"x":167141.48000000138,"y":2540943.4100000039}},{"attributes":{"ID":415170,"DIS_CODE":0,"TOWNNAME":"南區","LI":"明亮里","LIN":"3鄰","STREET":"新都路","SECT":" ","MAREA":" ","LANE":"５２０巷","ALLEY":" ","HOUSE_NO":"１１號五樓之２","E_COORD97":167141.48000000001,"N_COORD97":2540943.4100000001,"ADDRESS":"新都路５２０巷１１號五樓之２","OBJECTID":415146},"geometry":{"x":167141.48000000138,"y":2540943.4100000039}},{"attributes":{"ID":415171,"DIS_CODE":0,"TOWNNAME":"南區","LI":"明亮里","LIN":"3鄰","STREET":"新都路","SECT":" ","MAREA":" ","LANE":"５２０巷","ALLEY":" ","HOUSE_NO":"１１號五樓之３","E_COORD97":167141.48000000001,"N_COORD97":2540943.4100000001,"ADDRESS":"新都路５２０巷１１號五樓之３","OBJECTID":415147},"geometry":{"x":167141.48000000138,"y":2540943.4100000039}},{"attributes":{"ID":415172,"DIS_CODE":0,"TOWNNAME":"南區","LI":"明亮里","LIN":"3鄰","STREET":"新都路","SECT":" ","MAREA":" ","LANE":"５２０巷","ALLEY":" ","HOUSE_NO":"１１號六樓之１","E_COORD97":167141.48000000001,"N_COORD97":2540943.4100000001,"ADDRESS":"新都路５２０巷１１號六樓之１","OBJECTID":415148},"geometry":{"x":167141.48000000138,"y":2540943.4100000039}},{"attributes":{"ID":415173,"DIS_CODE":0,"TOWNNAME":"南區","LI":"明亮里","LIN":"3鄰","STREET":"新都路","SECT":" ","MAREA":" ","LANE":"５２０巷","ALLEY":" ","HOUSE_NO":"１１號六樓之２","E_COORD97":167141.48000000001,"N_COORD97":2540943.4100000001,"ADDRESS":"新都路５２０巷１１號六樓之２","OBJECTID":415149},"geometry":{"x":167141.48000000138,"y":2540943.4100000039}},{"attributes":{"ID":415174,"DIS_CODE":0,"TOWNNAME":"南區","LI":"明亮里","LIN":"3鄰","STREET":"新都路","SECT":" ","MAREA":" ","LANE":"５２０巷","ALLEY":" ","HOUSE_NO":"１１號六樓之３","E_COORD97":167141.48000000001,"N_COORD97":2540943.4100000001,"ADDRESS":"新都路５２０巷１１號六樓之３","OBJECTID":415150},"geometry":{"x":167141.48000000138,"y":2540943.4100000039}},{"attributes":{"ID":415175,"DIS_CODE":0,"TOWNNAME":"南區","LI":"明亮里","LIN":"3鄰","STREET":"新都路","SECT":" ","MAREA":" ","LANE":"５２０巷","ALLEY":" ","HOUSE_NO":"１１號七樓之１","E_COORD97":167141.48000000001,"N_COORD97":2540943.4100000001,"ADDRESS":"新都路５２０巷１１號七樓之１","OBJECTID":415151},"geometry":{"x":167141.48000000138,"y":2540943.4100000039}},{"attributes":{"ID":415176,"DIS_CODE":0,"TOWNNAME":"南區","LI":"明亮里","LIN":"3鄰","STREET":"新都路","SECT":" ","MAREA":" ","LANE":"５２０巷","ALLEY":" ","HOUSE_NO":"１１號七樓之２","E_COORD97":167141.48000000001,"N_COORD97":2540943.4100000001,"ADDRESS":"新都路５２０巷１１號七樓之２","OBJECTID":415152},"geometry":{"x":167141.48000000138,"y":2540943.4100000039}},{"attributes":{"ID":415177,"DIS_CODE":0,"TOWNNAME":"南區","LI":"明亮里","LIN":"3鄰","STREET":"新都路","SECT":" ","MAREA":" ","LANE":"５２０巷","ALLEY":" ","HOUSE_NO":"１１號七樓之３","E_COORD97":167141.48000000001,"N_COORD97":2540943.4100000001,"ADDRESS":"新都路５２０巷１１號七樓之３","OBJECTID":415153},"geometry":{"x":167141.48000000138,"y":2540943.4100000039}},{"attributes":{"ID":415178,"DIS_CODE":0,"TOWNNAME":"南區","LI":"明亮里","LIN":"3鄰","STREET":"新都路","SECT":" ","MAREA":" ","LANE":"５２０巷","ALLEY":" ","HOUSE_NO":"１３號二樓","E_COORD97":167129.85000000001,"N_COORD97":2540944.8700000001,"ADDRESS":"新都路５２０巷１３號二樓","OBJECTID":415154},"geometry":{"x":167129.85000000056,"y":2540944.8700000029}},{"attributes":{"ID":415179,"DIS_CODE":0,"TOWNNAME":"南區","LI":"明亮里","LIN":"3鄰","STREET":"新都路","SECT":" ","MAREA":" ","LANE":"５２０巷","ALLEY":" ","HOUSE_NO":"１３號三樓","E_COORD97":167129.85000000001,"N_COORD97":2540944.8700000001,"ADDRESS":"新都路５２０巷１３號三樓","OBJECTID":415155},"geometry":{"x":167129.85000000056,"y":2540944.8700000029}},{"attributes":{"ID":415180,"DIS_CODE":0,"TOWNNAME":"南區","LI":"明亮里","LIN":"3鄰","STREET":"新都路","SECT":" ","MAREA":" ","LANE":"５２０巷","ALLEY":" ","HOUSE_NO":"１３號四樓","E_COORD97":167129.85000000001,"N_COORD97":2540944.8700000001,"ADDRESS":"新都路５２０巷１３號四樓","OBJECTID":415156},"geometry":{"x":167129.85000000056,"y":2540944.8700000029}},{"attributes":{"ID":415181,"DIS_CODE":0,"TOWNNAME":"南區","LI":"明亮里","LIN":"3鄰","STREET":"新都路","SECT":" ","MAREA":" ","LANE":"５２０巷","ALLEY":" ","HOUSE_NO":"１３號五樓","E_COORD97":167129.85000000001,"N_COORD97":2540944.8700000001,"ADDRESS":"新都路５２０巷１３號五樓","OBJECTID":415157},"geometry":{"x":167129.85000000056,"y":2540944.8700000029}},{"attributes":{"ID":415182,"DIS_CODE":0,"TOWNNAME":"南區","LI":"明亮里","LIN":"3鄰","STREET":"新都路","SECT":" ","MAREA":" ","LANE":"５２０巷","ALLEY":" ","HOUSE_NO":"１３號六樓","E_COORD97":167129.85000000001,"N_COORD97":2540944.8700000001,"ADDRESS":"新都路５２０巷１３號六樓","OBJECTID":415158},"geometry":{"x":167129.85000000056,"y":2540944.8700000029}},{"attributes":{"ID":415183,"DIS_CODE":0,"TOWNNAME":"南區","LI":"明亮里","LIN":"3鄰","STREET":"新都路","SECT":" ","MAREA":" ","LANE":"５２０巷","ALLEY":" ","HOUSE_NO":"１３號七樓","E_COORD97":167129.85000000001,"N_COORD97":2540944.8700000001,"ADDRESS":"新都路５２０巷１３號七樓","OBJECTID":415159},"geometry":{"x":167129.85000000056,"y":2540944.8700000029}},{"attributes":{"ID":415184,"DIS_CODE":0,"TOWNNAME":"仁德區","LI":"中生里","LIN":"3鄰","STREET":" ","SECT":" ","MAREA":"中洲","LANE":" ","ALLEY":" ","HOUSE_NO":"９２號之１","E_COORD97":173040.266726,"N_COORD97":2534357.25954,"ADDRESS":"中洲９２號之１","OBJECTID":415160},"geometry":{"x":173040.26672600023,"y":2534357.2595380004}},{"attributes":{"ID":415185,"DIS_CODE":0,"TOWNNAME":"南區","LI":"明亮里","LIN":"3鄰","STREET":"新都路","SECT":" ","MAREA":" ","LANE":"５２０巷","ALLEY":" ","HOUSE_NO":"１５號二樓","E_COORD97":167127.51999999999,"N_COORD97":2540932.6699999999,"ADDRESS":"新都路５２０巷１５號二樓","OBJECTID":415161},"geometry":{"x":167127.51999999955,"y":2540932.6700000018}},{"attributes":{"ID":415186,"DIS_CODE":0,"TOWNNAME":"南區","LI":"明亮里","LIN":"3鄰","STREET":"新都路","SECT":" ","MAREA":" ","LANE":"５２０巷","ALLEY":" ","HOUSE_NO":"１５號三樓","E_COORD97":167127.51999999999,"N_COORD97":2540932.6699999999,"ADDRESS":"新都路５２０巷１５號三樓","OBJECTID":415162},"geometry":{"x":167127.51999999955,"y":2540932.6700000018}},{"attributes":{"ID":415187,"DIS_CODE":0,"TOWNNAME":"南區","LI":"明亮里","LIN":"3鄰","STREET":"新都路","SECT":" ","MAREA":" ","LANE":"５２０巷","ALLEY":" ","HOUSE_NO":"１５號四樓","E_COORD97":167127.51999999999,"N_COORD97":2540932.6699999999,"ADDRESS":"新都路５２０巷１５號四樓","OBJECTID":415163},"geometry":{"x":167127.51999999955,"y":2540932.6700000018}},{"attributes":{"ID":415188,"DIS_CODE":0,"TOWNNAME":"南區","LI":"明亮里","LIN":"3鄰","STREET":"新都路","SECT":" ","MAREA":" ","LANE":"５２０巷","ALLEY":" ","HOUSE_NO":"１５號五樓","E_COORD97":167127.51999999999,"N_COORD97":2540932.6699999999,"ADDRESS":"新都路５２０巷１５號五樓","OBJECTID":415164},"geometry":{"x":167127.51999999955,"y":2540932.6700000018}},{"attributes":{"ID":415189,"DIS_CODE":0,"TOWNNAME":"南區","LI":"明亮里","LIN":"3鄰","STREET":"新都路","SECT":" ","MAREA":" ","LANE":"５２０巷","ALLEY":" ","HOUSE_NO":"１５號六樓","E_COORD97":167127.51999999999,"N_COORD97":2540932.6699999999,"ADDRESS":"新都路５２０巷１５號六樓","OBJECTID":415165},"geometry":{"x":167127.51999999955,"y":2540932.6700000018}},{"attributes":{"ID":415190,"DIS_CODE":0,"TOWNNAME":"南區","LI":"明亮里","LIN":"3鄰","STREET":"新都路","SECT":" ","MAREA":" ","LANE":"５２０巷","ALLEY":" ","HOUSE_NO":"１５號七樓","E_COORD97":167127.51999999999,"N_COORD97":2540932.6699999999,"ADDRESS":"新都路５２０巷１５號七樓","OBJECTID":415166},"geometry":{"x":167127.51999999955,"y":2540932.6700000018}},{"attributes":{"ID":415191,"DIS_CODE":0,"TOWNNAME":"南區","LI":"明亮里","LIN":"3鄰","STREET":"新都路","SECT":" ","MAREA":" ","LANE":"５２０巷","ALLEY":" ","HOUSE_NO":"１７號二樓","E_COORD97":167117.04999999999,"N_COORD97":2540947.1899999999,"ADDRESS":"新都路５２０巷１７號二樓","OBJECTID":415167},"geometry":{"x":167117.04999999981,"y":2540947.1899999976}},{"attributes":{"ID":415192,"DIS_CODE":0,"TOWNNAME":"北區","LI":"永祥里","LIN":"3鄰","STREET":"大武街","SECT":" ","MAREA":" ","LANE":"４９２巷","ALLEY":" ","HOUSE_NO":"４號","E_COORD97":170086.38,"N_COORD97":2546391.7400000002,"ADDRESS":"大武街４９２巷４號","OBJECTID":415168},"geometry":{"x":170086.37999999989,"y":2546391.7400000002}},{"attributes":{"ID":415193,"DIS_CODE":0,"TOWNNAME":"南區","LI":"明亮里","LIN":"3鄰","STREET":"新都路","SECT":" ","MAREA":" ","LANE":"５２０巷","ALLEY":" ","HOUSE_NO":"１７號三樓","E_COORD97":167117.04999999999,"N_COORD97":2540947.1899999999,"ADDRESS":"新都路５２０巷１７號三樓","OBJECTID":415169},"geometry":{"x":167117.04999999981,"y":2540947.1899999976}},{"attributes":{"ID":415194,"DIS_CODE":0,"TOWNNAME":"南區","LI":"明亮里","LIN":"3鄰","STREET":"新都路","SECT":" ","MAREA":" ","LANE":"５２０巷","ALLEY":" ","HOUSE_NO":"１７號四樓","E_COORD97":167117.04999999999,"N_COORD97":2540947.1899999999,"ADDRESS":"新都路５２０巷１７號四樓","OBJECTID":415170},"geometry":{"x":167117.04999999981,"y":2540947.1899999976}},{"attributes":{"ID":415195,"DIS_CODE":0,"TOWNNAME":"南區","LI":"明亮里","LIN":"3鄰","STREET":"新都路","SECT":" ","MAREA":" ","LANE":"５２０巷","ALLEY":" ","HOUSE_NO":"１７號五樓","E_COORD97":167117.04999999999,"N_COORD97":2540947.1899999999,"ADDRESS":"新都路５２０巷１７號五樓","OBJECTID":415171},"geometry":{"x":167117.04999999981,"y":2540947.1899999976}},{"attributes":{"ID":415196,"DIS_CODE":0,"TOWNNAME":"南區","LI":"明亮里","LIN":"3鄰","STREET":"新都路","SECT":" ","MAREA":" ","LANE":"５２０巷","ALLEY":" ","HOUSE_NO":"１７號六樓","E_COORD97":167117.04999999999,"N_COORD97":2540947.1899999999,"ADDRESS":"新都路５２０巷１７號六樓","OBJECTID":415172},"geometry":{"x":167117.04999999981,"y":2540947.1899999976}},{"attributes":{"ID":415197,"DIS_CODE":0,"TOWNNAME":"南區","LI":"明亮里","LIN":"3鄰","STREET":"新都路","SECT":" ","MAREA":" ","LANE":"５２０巷","ALLEY":" ","HOUSE_NO":"１７號七樓","E_COORD97":167117.04999999999,"N_COORD97":2540947.1899999999,"ADDRESS":"新都路５２０巷１７號七樓","OBJECTID":415173},"geometry":{"x":167117.04999999981,"y":2540947.1899999976}},{"attributes":{"ID":415198,"DIS_CODE":0,"TOWNNAME":"南區","LI":"明亮里","LIN":"3鄰","STREET":"新都路","SECT":" ","MAREA":" ","LANE":"５２０巷","ALLEY":" ","HOUSE_NO":"１９號二樓","E_COORD97":167113.26999999999,"N_COORD97":2540936.4399999999,"ADDRESS":"新都路５２０巷１９號二樓","OBJECTID":415174},"geometry":{"x":167113.27000000048,"y":2540936.4400000013}},{"attributes":{"ID":415199,"DIS_CODE":0,"TOWNNAME":"南區","LI":"明亮里","LIN":"3鄰","STREET":"新都路","SECT":" ","MAREA":" ","LANE":"５２０巷","ALLEY":" ","HOUSE_NO":"１９號三樓","E_COORD97":167113.26999999999,"N_COORD97":2540936.4399999999,"ADDRESS":"新都路５２０巷１９號三樓","OBJECTID":415175},"geometry":{"x":167113.27000000048,"y":2540936.4400000013}},{"attributes":{"ID":415200,"DIS_CODE":0,"TOWNNAME":"南區","LI":"明亮里","LIN":"3鄰","STREET":"新都路","SECT":" ","MAREA":" ","LANE":"５２０巷","ALLEY":" ","HOUSE_NO":"１９號四樓","E_COORD97":167113.26999999999,"N_COORD97":2540936.4399999999,"ADDRESS":"新都路５２０巷１９號四樓","OBJECTID":415176},"geometry":{"x":167113.27000000048,"y":2540936.4400000013}},{"attributes":{"ID":415201,"DIS_CODE":0,"TOWNNAME":"南區","LI":"明亮里","LIN":"3鄰","STREET":"新都路","SECT":" ","MAREA":" ","LANE":"５２０巷","ALLEY":" ","HOUSE_NO":"１９號五樓","E_COORD97":167113.26999999999,"N_COORD97":2540936.4399999999,"ADDRESS":"新都路５２０巷１９號五樓","OBJECTID":415177},"geometry":{"x":167113.27000000048,"y":2540936.4400000013}},{"attributes":{"ID":415202,"DIS_CODE":0,"TOWNNAME":"南區","LI":"明亮里","LIN":"3鄰","STREET":"新都路","SECT":" ","MAREA":" ","LANE":"５２０巷","ALLEY":" ","HOUSE_NO":"１９號六樓","E_COORD97":167113.26999999999,"N_COORD97":2540936.4399999999,"ADDRESS":"新都路５２０巷１９號六樓","OBJECTID":415178},"geometry":{"x":167113.27000000048,"y":2540936.4400000013}},{"attributes":{"ID":415203,"DIS_CODE":0,"TOWNNAME":"南區","LI":"明亮里","LIN":"3鄰","STREET":"新都路","SECT":" ","MAREA":" ","LANE":"５２０巷","ALLEY":" ","HOUSE_NO":"１９號七樓","E_COORD97":167113.26999999999,"N_COORD97":2540936.4399999999,"ADDRESS":"新都路５２０巷１９號七樓","OBJECTID":415179},"geometry":{"x":167113.27000000048,"y":2540936.4400000013}},{"attributes":{"ID":415204,"DIS_CODE":0,"TOWNNAME":"南區","LI":"明亮里","LIN":"3鄰","STREET":"新都路","SECT":" ","MAREA":" ","LANE":"５２０巷","ALLEY":" ","HOUSE_NO":"２１號二樓","E_COORD97":167105.70999999999,"N_COORD97":2540949.2200000002,"ADDRESS":"新都路５２０巷２１號二樓","OBJECTID":415180},"geometry":{"x":167105.71000000089,"y":2540949.2200000025}},{"attributes":{"ID":415205,"DIS_CODE":0,"TOWNNAME":"南區","LI":"明亮里","LIN":"3鄰","STREET":"新都路","SECT":" ","MAREA":" ","LANE":"５２０巷","ALLEY":" ","HOUSE_NO":"２１號三樓","E_COORD97":167105.70999999999,"N_COORD97":2540949.2200000002,"ADDRESS":"新都路５２０巷２１號三樓","OBJECTID":415181},"geometry":{"x":167105.71000000089,"y":2540949.2200000025}},{"attributes":{"ID":415206,"DIS_CODE":0,"TOWNNAME":"南區","LI":"明亮里","LIN":"3鄰","STREET":"新都路","SECT":" ","MAREA":" ","LANE":"５２０巷","ALLEY":" ","HOUSE_NO":"２１號四樓","E_COORD97":167105.70999999999,"N_COORD97":2540949.2200000002,"ADDRESS":"新都路５２０巷２１號四樓","OBJECTID":415182},"geometry":{"x":167105.71000000089,"y":2540949.2200000025}},{"attributes":{"ID":415207,"DIS_CODE":0,"TOWNNAME":"南區","LI":"明亮里","LIN":"3鄰","STREET":"新都路","SECT":" ","MAREA":" ","LANE":"５２０巷","ALLEY":" ","HOUSE_NO":"２１號五樓","E_COORD97":167105.70999999999,"N_COORD97":2540949.2200000002,"ADDRESS":"新都路５２０巷２１號五樓","OBJECTID":415183},"geometry":{"x":167105.71000000089,"y":2540949.2200000025}},{"attributes":{"ID":415208,"DIS_CODE":0,"TOWNNAME":"南區","LI":"明亮里","LIN":"3鄰","STREET":"新都路","SECT":" ","MAREA":" ","LANE":"５２０巷","ALLEY":" ","HOUSE_NO":"２１號六樓","E_COORD97":167105.70999999999,"N_COORD97":2540949.2200000002,"ADDRESS":"新都路５２０巷２１號六樓","OBJECTID":415184},"geometry":{"x":167105.71000000089,"y":2540949.2200000025}},{"attributes":{"ID":415209,"DIS_CODE":0,"TOWNNAME":"南區","LI":"明亮里","LIN":"3鄰","STREET":"新都路","SECT":" ","MAREA":" ","LANE":"５２０巷","ALLEY":" ","HOUSE_NO":"２１號七樓","E_COORD97":167105.70999999999,"N_COORD97":2540949.2200000002,"ADDRESS":"新都路５２０巷２１號七樓","OBJECTID":415185},"geometry":{"x":167105.71000000089,"y":2540949.2200000025}},{"attributes":{"ID":415210,"DIS_CODE":0,"TOWNNAME":"南區","LI":"明亮里","LIN":"3鄰","STREET":"新都路","SECT":" ","MAREA":" ","LANE":"５２０巷","ALLEY":" ","HOUSE_NO":"２３號二樓","E_COORD97":167102.22,"N_COORD97":2540938.48,"ADDRESS":"新都路５２０巷２３號二樓","OBJECTID":415186},"geometry":{"x":167102.21999999974,"y":2540938.4800000004}},{"attributes":{"ID":415211,"DIS_CODE":0,"TOWNNAME":"南區","LI":"明亮里","LIN":"3鄰","STREET":"新都路","SECT":" ","MAREA":" ","LANE":"５２０巷","ALLEY":" ","HOUSE_NO":"２３號三樓","E_COORD97":167102.22,"N_COORD97":2540938.48,"ADDRESS":"新都路５２０巷２３號三樓","OBJECTID":415187},"geometry":{"x":167102.21999999974,"y":2540938.4800000004}},{"attributes":{"ID":415212,"DIS_CODE":0,"TOWNNAME":"南區","LI":"明亮里","LIN":"3鄰","STREET":"新都路","SECT":" ","MAREA":" ","LANE":"５２０巷","ALLEY":" ","HOUSE_NO":"２３號四樓","E_COORD97":167102.22,"N_COORD97":2540938.48,"ADDRESS":"新都路５２０巷２３號四樓","OBJECTID":415188},"geometry":{"x":167102.21999999974,"y":2540938.4800000004}},{"attributes":{"ID":415213,"DIS_CODE":0,"TOWNNAME":"南區","LI":"明亮里","LIN":"3鄰","STREET":"新都路","SECT":" ","MAREA":" ","LANE":"５２０巷","ALLEY":" ","HOUSE_NO":"２３號五樓","E_COORD97":167102.22,"N_COORD97":2540938.48,"ADDRESS":"新都路５２０巷２３號五樓","OBJECTID":415189},"geometry":{"x":167102.21999999974,"y":2540938.4800000004}},{"attributes":{"ID":415214,"DIS_CODE":0,"TOWNNAME":"南區","LI":"明亮里","LIN":"3鄰","STREET":"新都路","SECT":" ","MAREA":" ","LANE":"５２０巷","ALLEY":" ","HOUSE_NO":"２３號六樓","E_COORD97":167102.22,"N_COORD97":2540938.48,"ADDRESS":"新都路５２０巷２３號六樓","OBJECTID":415190},"geometry":{"x":167102.21999999974,"y":2540938.4800000004}},{"attributes":{"ID":415215,"DIS_CODE":0,"TOWNNAME":"南區","LI":"明亮里","LIN":"3鄰","STREET":"新都路","SECT":" ","MAREA":" ","LANE":"５２０巷","ALLEY":" ","HOUSE_NO":"２３號七樓","E_COORD97":167102.22,"N_COORD97":2540938.48,"ADDRESS":"新都路５２０巷２３號七樓","OBJECTID":415191},"geometry":{"x":167102.21999999974,"y":2540938.4800000004}},{"attributes":{"ID":415216,"DIS_CODE":0,"TOWNNAME":"中西區","LI":"福安里","LIN":"3鄰","STREET":"府前路","SECT":"一段","MAREA":" ","LANE":"３４２巷","ALLEY":" ","HOUSE_NO":"２號二樓之１","E_COORD97":167826.72,"N_COORD97":2543463.98,"ADDRESS":"府前路一段３４２巷２號二樓之１","OBJECTID":415192},"geometry":{"x":167826.7200000016,"y":2543463.9800000004}},{"attributes":{"ID":415217,"DIS_CODE":0,"TOWNNAME":"中西區","LI":"福安里","LIN":"3鄰","STREET":"府前路","SECT":"一段","MAREA":" ","LANE":"３４２巷","ALLEY":" ","HOUSE_NO":"２號一樓之１","E_COORD97":167817.94,"N_COORD97":2543466.1299999999,"ADDRESS":"府前路一段３４２巷２號一樓之１","OBJECTID":415193},"geometry":{"x":167817.94000000134,"y":2543466.1300000027}},{"attributes":{"ID":415218,"DIS_CODE":0,"TOWNNAME":"中西區","LI":"福安里","LIN":"3鄰","STREET":"府前路","SECT":"一段","MAREA":" ","LANE":"３４２巷","ALLEY":" ","HOUSE_NO":"２號一樓之２","E_COORD97":167817.94,"N_COORD97":2543466.1299999999,"ADDRESS":"府前路一段３４２巷２號一樓之２","OBJECTID":415194},"geometry":{"x":167817.94000000134,"y":2543466.1300000027}},{"attributes":{"ID":415219,"DIS_CODE":0,"TOWNNAME":"中西區","LI":"福安里","LIN":"3鄰","STREET":"府前路","SECT":"一段","MAREA":" ","LANE":"３４２巷","ALLEY":" ","HOUSE_NO":"２號一樓之３","E_COORD97":167817.94,"N_COORD97":2543466.1299999999,"ADDRESS":"府前路一段３４２巷２號一樓之３","OBJECTID":415195},"geometry":{"x":167817.94000000134,"y":2543466.1300000027}},{"attributes":{"ID":415220,"DIS_CODE":0,"TOWNNAME":"中西區","LI":"福安里","LIN":"3鄰","STREET":"府前路","SECT":"一段","MAREA":" ","LANE":"３４２巷","ALLEY":" ","HOUSE_NO":"２號一樓之４","E_COORD97":167817.94,"N_COORD97":2543466.1299999999,"ADDRESS":"府前路一段３４２巷２號一樓之４","OBJECTID":415196},"geometry":{"x":167817.94000000134,"y":2543466.1300000027}},{"attributes":{"ID":415221,"DIS_CODE":0,"TOWNNAME":"永康區","LI":"\u25A0行里","LIN":"3鄰","STREET":"中正路","SECT":" ","MAREA":" ","LANE":"８７２巷","ALLEY":" ","HOUSE_NO":"１０號四樓","E_COORD97":172092.82999999999,"N_COORD97":2548852.3300000001,"ADDRESS":"中正路８７２巷１０號四樓","OBJECTID":415197},"geometry":{"x":172092.83000000007,"y":2548852.3300000001}},{"attributes":{"ID":415222,"DIS_CODE":0,"TOWNNAME":"中西區","LI":"福安里","LIN":"3鄰","STREET":"府前路","SECT":"一段","MAREA":" ","LANE":"３４２巷","ALLEY":" ","HOUSE_NO":"２號二樓之２","E_COORD97":167826.72,"N_COORD97":2543463.98,"ADDRESS":"府前路一段３４２巷２號二樓之２","OBJECTID":415198},"geometry":{"x":167826.7200000016,"y":2543463.9800000004}},{"attributes":{"ID":415223,"DIS_CODE":0,"TOWNNAME":"中西區","LI":"福安里","LIN":"3鄰","STREET":"府前路","SECT":"一段","MAREA":" ","LANE":"３４２巷","ALLEY":" ","HOUSE_NO":"２號二樓之３","E_COORD97":167826.72,"N_COORD97":2543463.98,"ADDRESS":"府前路一段３４２巷２號二樓之３","OBJECTID":415199},"geometry":{"x":167826.7200000016,"y":2543463.9800000004}},{"attributes":{"ID":415224,"DIS_CODE":0,"TOWNNAME":"中西區","LI":"福安里","LIN":"3鄰","STREET":"府前路","SECT":"一段","MAREA":" ","LANE":"３４２巷","ALLEY":" ","HOUSE_NO":"２號三樓之１","E_COORD97":167826.72,"N_COORD97":2543463.98,"ADDRESS":"府前路一段３４２巷２號三樓之１","OBJECTID":415200},"geometry":{"x":167826.7200000016,"y":2543463.9800000004}}]}