{"displayFieldName":"TOWNNAME","fieldAliases":{"ID":"ID","DIS_CODE":"DIS_CODE","TOWNNAME":"TOWNNAME","LI":"LI","LIN":"LIN","STREET":"STREET","SECT":"SECT","MAREA":"MAREA","LANE":"LANE","ALLEY":"ALLEY","HOUSE_NO":"HOUSE_NO","E_COORD97":"E_COORD97","N_COORD97":"N_COORD97","ADDRESS":"ADDRESS","OBJECTID":"OBJECTID"},"geometryType":"esriGeometryPoint","spatialReference":{"wkid":102443,"latestWkid":3826},"fields":[{"name":"ID","type":"esriFieldTypeDouble","alias":"ID"},{"name":"DIS_CODE","type":"esriFieldTypeInteger","alias":"DIS_CODE"},{"name":"TOWNNAME","type":"esriFieldTypeString","alias":"TOWNNAME","length":8},{"name":"LI","type":"esriFieldTypeString","alias":"LI","length":8},{"name":"LIN","type":"esriFieldTypeString","alias":"LIN","length":12},{"name":"STREET","type":"esriFieldTypeString","alias":"STREET","length":20},{"name":"SECT","type":"esriFieldTypeString","alias":"SECT","length":8},{"name":"MAREA","type":"esriFieldTypeString","alias":"MAREA","length":12},{"name":"LANE","type":"esriFieldTypeString","alias":"LANE","length":10},{"name":"ALLEY","type":"esriFieldTypeString","alias":"ALLEY","length":10},{"name":"HOUSE_NO","type":"esriFieldTypeString","alias":"HOUSE_NO","length":20},{"name":"E_COORD97","type":"esriFieldTypeDouble","alias":"E_COORD97"},{"name":"N_COORD97","type":"esriFieldTypeDouble","alias":"N_COORD97"},{"name":"ADDRESS","type":"esriFieldTypeString","alias":"ADDRESS","length":50},{"name":"OBJECTID","type":"esriFieldTypeOID","alias":"OBJECTID"}],"features":[{"attributes":{"ID":353410,"DIS_CODE":0,"TOWNNAME":"新化區","LI":"東榮里","LIN":"6鄰","STREET":"信義路","SECT":" ","MAREA":" ","LANE":"１１７巷","ALLEY":" ","HOUSE_NO":"２７號","E_COORD97":179780.57999999999,"N_COORD97":2548397.25,"ADDRESS":"信義路１１７巷２７號","OBJECTID":353401},"geometry":{"x":179780.58000000007,"y":2548397.2500000019}},{"attributes":{"ID":353411,"DIS_CODE":0,"TOWNNAME":"新化區","LI":"東榮里","LIN":"6鄰","STREET":"信義路","SECT":" ","MAREA":" ","LANE":"１１７巷","ALLEY":" ","HOUSE_NO":"４７號","E_COORD97":179735.28,"N_COORD97":2548350.25,"ADDRESS":"信義路１１７巷４７號","OBJECTID":353402},"geometry":{"x":179735.28000000026,"y":2548350.2500000019}},{"attributes":{"ID":353412,"DIS_CODE":0,"TOWNNAME":"新化區","LI":"東榮里","LIN":"6鄰","STREET":"信義路","SECT":" ","MAREA":" ","LANE":"１１７巷","ALLEY":" ","HOUSE_NO":"４９號之１６","E_COORD97":179790.57999999999,"N_COORD97":2548386.2599999998,"ADDRESS":"信義路１１７巷４９號之１６","OBJECTID":353403},"geometry":{"x":179790.58000000007,"y":2548386.2600000016}},{"attributes":{"ID":353413,"DIS_CODE":0,"TOWNNAME":"佳里區","LI":"安西里","LIN":"20鄰","STREET":"公園路","SECT":" ","MAREA":" ","LANE":"４６９巷","ALLEY":" ","HOUSE_NO":"２號","E_COORD97":165319.73999999999,"N_COORD97":2562905,"ADDRESS":"公園路４６９巷２號","OBJECTID":353404},"geometry":{"x":165319.74000000022,"y":2562904.9999999981}},{"attributes":{"ID":353414,"DIS_CODE":0,"TOWNNAME":"中西區","LI":"光賢里","LIN":"20鄰","STREET":"和緯路","SECT":"四段","MAREA":" ","LANE":"２７７巷","ALLEY":" ","HOUSE_NO":"３０號","E_COORD97":166659.12,"N_COORD97":2545132.29,"ADDRESS":"和緯路四段２７７巷３０號","OBJECTID":353405},"geometry":{"x":166659.12000000011,"y":2545132.2899999991}},{"attributes":{"ID":353415,"DIS_CODE":0,"TOWNNAME":"新化區","LI":"東榮里","LIN":"6鄰","STREET":"信義路","SECT":" ","MAREA":" ","LANE":"１１７巷","ALLEY":" ","HOUSE_NO":"３３號之２","E_COORD97":179724.13,"N_COORD97":2548399.2599999998,"ADDRESS":"信義路１１７巷３３號之２","OBJECTID":353406},"geometry":{"x":179724.12999999989,"y":2548399.2600000035}},{"attributes":{"ID":353416,"DIS_CODE":0,"TOWNNAME":"南區","LI":"同安里","LIN":"6鄰","STREET":"明興路","SECT":" ","MAREA":" ","LANE":"１１８１巷","ALLEY":" ","HOUSE_NO":"２５０號","E_COORD97":167091.42999999999,"N_COORD97":2536183.3900000001,"ADDRESS":"明興路１１８１巷２５０號","OBJECTID":353407},"geometry":{"x":167091.43000000063,"y":2536183.3900000006}},{"attributes":{"ID":353417,"DIS_CODE":0,"TOWNNAME":"新營區","LI":"興業里","LIN":"6鄰","STREET":"公誠街","SECT":" ","MAREA":" ","LANE":"１１巷","ALLEY":" ","HOUSE_NO":"３號","E_COORD97":180309.89000000001,"N_COORD97":2577975.4399999999,"ADDRESS":"公誠街１１巷３號","OBJECTID":353408},"geometry":{"x":180309.88999999966,"y":2577975.4400000032}},{"attributes":{"ID":353418,"DIS_CODE":0,"TOWNNAME":"南區","LI":"同安里","LIN":"6鄰","STREET":"明興路","SECT":" ","MAREA":" ","LANE":"１１８１巷","ALLEY":" ","HOUSE_NO":"１５８之３號","E_COORD97":166882.23000000001,"N_COORD97":2536258.96,"ADDRESS":"明興路１１８１巷１５８之３號","OBJECTID":353409},"geometry":{"x":166882.23000000138,"y":2536258.9600000028}},{"attributes":{"ID":353419,"DIS_CODE":0,"TOWNNAME":"南區","LI":"喜北里","LIN":"6鄰","STREET":"喜樹路","SECT":" ","MAREA":" ","LANE":"９６巷","ALLEY":" ","HOUSE_NO":"４２之１號","E_COORD97":165726.07000000001,"N_COORD97":2538420.52,"ADDRESS":"喜樹路９６巷４２之１號","OBJECTID":353410},"geometry":{"x":165726.0700000003,"y":2538420.5200000014}},{"attributes":{"ID":353420,"DIS_CODE":0,"TOWNNAME":"歸仁區","LI":"文化里","LIN":"6鄰","STREET":"文化北街","SECT":" ","MAREA":" ","LANE":"７５巷","ALLEY":" ","HOUSE_NO":"３號","E_COORD97":177281.42000000001,"N_COORD97":2541370.2599999998,"ADDRESS":"文化北街７５巷３號","OBJECTID":353411},"geometry":{"x":177281.42000000179,"y":2541370.2599999998}},{"attributes":{"ID":353421,"DIS_CODE":0,"TOWNNAME":"歸仁區","LI":"西埔里","LIN":"6鄰","STREET":"保大路","SECT":"二段","MAREA":" ","LANE":"１２２巷","ALLEY":" ","HOUSE_NO":"１８號","E_COORD97":177049.88,"N_COORD97":2544205.25,"ADDRESS":"保大路二段１２２巷１８號","OBJECTID":353412},"geometry":{"x":177049.88000000082,"y":2544205.25}},{"attributes":{"ID":353422,"DIS_CODE":0,"TOWNNAME":"歸仁區","LI":"文化里","LIN":"6鄰","STREET":"文化北街","SECT":" ","MAREA":" ","LANE":"７５巷","ALLEY":" ","HOUSE_NO":"６號","E_COORD97":177261.92000000001,"N_COORD97":2541370.2599999998,"ADDRESS":"文化北街７５巷６號","OBJECTID":353413},"geometry":{"x":177261.91999999993,"y":2541370.2599999998}},{"attributes":{"ID":353423,"DIS_CODE":0,"TOWNNAME":"南區","LI":"建南里","LIN":"6鄰","STREET":"德興路","SECT":" ","MAREA":" ","LANE":"３２５巷","ALLEY":" ","HOUSE_NO":"９號","E_COORD97":167289.57000000001,"N_COORD97":2539857.6000000001,"ADDRESS":"德興路３２５巷９號","OBJECTID":353414},"geometry":{"x":167289.57000000123,"y":2539857.6000000015}},{"attributes":{"ID":353424,"DIS_CODE":0,"TOWNNAME":"南區","LI":"建南里","LIN":"6鄰","STREET":"德興路","SECT":" ","MAREA":" ","LANE":"３２５巷","ALLEY":" ","HOUSE_NO":"７號","E_COORD97":167285.29000000001,"N_COORD97":2539857.4399999999,"ADDRESS":"德興路３２５巷７號","OBJECTID":353415},"geometry":{"x":167285.29000000004,"y":2539857.4400000032}},{"attributes":{"ID":353425,"DIS_CODE":0,"TOWNNAME":"南區","LI":"竹溪里","LIN":"6鄰","STREET":"體育路","SECT":" ","MAREA":" ","LANE":"２１巷","ALLEY":" ","HOUSE_NO":"２６號","E_COORD97":168815.97,"N_COORD97":2542335.1699999999,"ADDRESS":"體育路２１巷２６號","OBJECTID":353416},"geometry":{"x":168815.96999999974,"y":2542335.1700000018}},{"attributes":{"ID":353426,"DIS_CODE":0,"TOWNNAME":"南區","LI":"竹溪里","LIN":"6鄰","STREET":"體育路","SECT":" ","MAREA":" ","LANE":"２１巷","ALLEY":" ","HOUSE_NO":"２８號","E_COORD97":168819.82999999999,"N_COORD97":2542337.3700000001,"ADDRESS":"體育路２１巷２８號","OBJECTID":353417},"geometry":{"x":168819.83000000194,"y":2542337.370000001}},{"attributes":{"ID":353427,"DIS_CODE":0,"TOWNNAME":"南區","LI":"竹溪里","LIN":"6鄰","STREET":"體育路","SECT":" ","MAREA":" ","LANE":"２１巷","ALLEY":" ","HOUSE_NO":"３０號","E_COORD97":168824.51000000001,"N_COORD97":2542335.1699999999,"ADDRESS":"體育路２１巷３０號","OBJECTID":353418},"geometry":{"x":168824.50999999978,"y":2542335.1700000018}},{"attributes":{"ID":353428,"DIS_CODE":0,"TOWNNAME":"南區","LI":"竹溪里","LIN":"6鄰","STREET":"體育路","SECT":" ","MAREA":" ","LANE":"２１巷","ALLEY":" ","HOUSE_NO":"３２號","E_COORD97":168824.23999999999,"N_COORD97":2542324.1600000001,"ADDRESS":"體育路２１巷３２號","OBJECTID":353419},"geometry":{"x":168824.24000000115,"y":2542324.1600000001}},{"attributes":{"ID":353429,"DIS_CODE":0,"TOWNNAME":"南區","LI":"同安里","LIN":"6鄰","STREET":"灣裡路","SECT":" ","MAREA":" ","LANE":"３５１巷","ALLEY":" ","HOUSE_NO":"２６號","E_COORD97":166366.70000000001,"N_COORD97":2536231.5800000001,"ADDRESS":"灣裡路３５１巷２６號","OBJECTID":353420},"geometry":{"x":166366.70000000112,"y":2536231.5800000001}},{"attributes":{"ID":353430,"DIS_CODE":0,"TOWNNAME":"南區","LI":"喜東里","LIN":"6鄰","STREET":"喜樹路","SECT":" ","MAREA":" ","LANE":"１２７巷","ALLEY":" ","HOUSE_NO":"１號","E_COORD97":165911.20000000001,"N_COORD97":2538204.9100000001,"ADDRESS":"喜樹路１２７巷１號","OBJECTID":353421},"geometry":{"x":165911.20000000019,"y":2538204.910000002}},{"attributes":{"ID":353431,"DIS_CODE":0,"TOWNNAME":"南區","LI":"田寮里","LIN":"6鄰","STREET":"新興路","SECT":" ","MAREA":" ","LANE":"２１７巷","ALLEY":" ","HOUSE_NO":"２８號之１","E_COORD97":167410.85000000001,"N_COORD97":2541898.3999999999,"ADDRESS":"新興路２１７巷２８號之１","OBJECTID":353422},"geometry":{"x":167410.85000000056,"y":2541898.4000000004}},{"attributes":{"ID":353432,"DIS_CODE":0,"TOWNNAME":"永康區","LI":"二王里","LIN":"8鄰","STREET":"二王路","SECT":" ","MAREA":" ","LANE":" ","ALLEY":" ","HOUSE_NO":"１６號十六樓之２","E_COORD97":172976.42999999999,"N_COORD97":2546819.7999999998,"ADDRESS":"二王路１６號十六樓之２","OBJECTID":353423},"geometry":{"x":172976.4299999997,"y":2546819.7999999989}},{"attributes":{"ID":353433,"DIS_CODE":0,"TOWNNAME":"永康區","LI":"二王里","LIN":"8鄰","STREET":"二王路","SECT":" ","MAREA":" ","LANE":" ","ALLEY":" ","HOUSE_NO":"１２號八樓之１","E_COORD97":172965.34,"N_COORD97":2546841.48,"ADDRESS":"二王路１２號八樓之１","OBJECTID":353424},"geometry":{"x":172965.33999999985,"y":2546841.4800000004}},{"attributes":{"ID":353434,"DIS_CODE":0,"TOWNNAME":"南區","LI":"同安里","LIN":"6鄰","STREET":"灣裡路","SECT":" ","MAREA":" ","LANE":"３５１巷","ALLEY":" ","HOUSE_NO":"２６號之２","E_COORD97":166390.45999999999,"N_COORD97":2536258.8500000001,"ADDRESS":"灣裡路３５１巷２６號之２","OBJECTID":353425},"geometry":{"x":166390.45999999996,"y":2536258.8500000015}},{"attributes":{"ID":353435,"DIS_CODE":0,"TOWNNAME":"新市區","LI":"大營里","LIN":"20鄰","STREET":" ","SECT":" ","MAREA":"豐榮","LANE":" ","ALLEY":" ","HOUSE_NO":"５９之９號","E_COORD97":178788.04000000001,"N_COORD97":2554165.2999999998,"ADDRESS":"豐榮５９之９號","OBJECTID":353426},"geometry":{"x":178788.04000000097,"y":2554165.3000000026}},{"attributes":{"ID":353436,"DIS_CODE":0,"TOWNNAME":"新市區","LI":"社內里","LIN":"20鄰","STREET":" ","SECT":" ","MAREA":"社內","LANE":" ","ALLEY":" ","HOUSE_NO":"２０３號","E_COORD97":175961.54000000001,"N_COORD97":2553162.5,"ADDRESS":"社內２０３號","OBJECTID":353427},"geometry":{"x":175961.54000000004,"y":2553162.5000000019}},{"attributes":{"ID":353437,"DIS_CODE":0,"TOWNNAME":"新市區","LI":"大營里","LIN":"20鄰","STREET":" ","SECT":" ","MAREA":"豐榮","LANE":" ","ALLEY":" ","HOUSE_NO":"５４之２號","E_COORD97":178755.60000000001,"N_COORD97":2554178.7999999998,"ADDRESS":"豐榮５４之２號","OBJECTID":353428},"geometry":{"x":178755.59999999963,"y":2554178.8000000026}},{"attributes":{"ID":353438,"DIS_CODE":0,"TOWNNAME":"新市區","LI":"大營里","LIN":"20鄰","STREET":" ","SECT":" ","MAREA":"豐榮","LANE":" ","ALLEY":" ","HOUSE_NO":"５４號","E_COORD97":178748.39999999999,"N_COORD97":2554185.25,"ADDRESS":"豐榮５４號","OBJECTID":353429},"geometry":{"x":178748.40000000224,"y":2554185.25}},{"attributes":{"ID":353439,"DIS_CODE":0,"TOWNNAME":"新市區","LI":"大營里","LIN":"20鄰","STREET":" ","SECT":" ","MAREA":"豐榮","LANE":" ","ALLEY":" ","HOUSE_NO":"５９之１９號","E_COORD97":178833.23999999999,"N_COORD97":2554186.5499999998,"ADDRESS":"豐榮５９之１９號","OBJECTID":353430},"geometry":{"x":178833.24000000022,"y":2554186.5500000026}},{"attributes":{"ID":353440,"DIS_CODE":0,"TOWNNAME":"新市區","LI":"大營里","LIN":"20鄰","STREET":" ","SECT":" ","MAREA":"豐榮","LANE":" ","ALLEY":" ","HOUSE_NO":"６５號","E_COORD97":178852.67000000001,"N_COORD97":2554228.25,"ADDRESS":"豐榮６５號","OBJECTID":353431},"geometry":{"x":178852.66999999899,"y":2554228.2500000019}},{"attributes":{"ID":353441,"DIS_CODE":0,"TOWNNAME":"新市區","LI":"大營里","LIN":"20鄰","STREET":" ","SECT":" ","MAREA":"豐榮","LANE":" ","ALLEY":" ","HOUSE_NO":"５３之６號","E_COORD97":178784.51000000001,"N_COORD97":2554183.7999999998,"ADDRESS":"豐榮５３之６號","OBJECTID":353432},"geometry":{"x":178784.51000000071,"y":2554183.7999999989}},{"attributes":{"ID":353442,"DIS_CODE":0,"TOWNNAME":"中西區","LI":"光賢里","LIN":"20鄰","STREET":"和緯路","SECT":"四段","MAREA":" ","LANE":"２７７巷","ALLEY":" ","HOUSE_NO":"１８之２號","E_COORD97":166672.25,"N_COORD97":2545160.6200000001,"ADDRESS":"和緯路四段２７７巷１８之２號","OBJECTID":353433},"geometry":{"x":166672.24999999907,"y":2545160.6200000029}},{"attributes":{"ID":353443,"DIS_CODE":0,"TOWNNAME":"中西區","LI":"光賢里","LIN":"20鄰","STREET":"和緯路","SECT":"四段","MAREA":" ","LANE":"２７７巷","ALLEY":" ","HOUSE_NO":"１８之１號","E_COORD97":166677.70999999999,"N_COORD97":2545160.77,"ADDRESS":"和緯路四段２７７巷１８之１號","OBJECTID":353434},"geometry":{"x":166677.71000000183,"y":2545160.7699999996}},{"attributes":{"ID":353444,"DIS_CODE":0,"TOWNNAME":"中西區","LI":"光賢里","LIN":"20鄰","STREET":"和緯路","SECT":"四段","MAREA":" ","LANE":"２７７巷","ALLEY":" ","HOUSE_NO":"１６號","E_COORD97":166682.48999999999,"N_COORD97":2545165.1200000001,"ADDRESS":"和緯路四段２７７巷１６號","OBJECTID":353435},"geometry":{"x":166682.49000000022,"y":2545165.1200000029}},{"attributes":{"ID":353445,"DIS_CODE":0,"TOWNNAME":"中西區","LI":"光賢里","LIN":"20鄰","STREET":"和緯路","SECT":"四段","MAREA":" ","LANE":"２７７巷","ALLEY":" ","HOUSE_NO":"１８號","E_COORD97":166684.14000000001,"N_COORD97":2545157.3799999999,"ADDRESS":"和緯路四段２７７巷１８號","OBJECTID":353436},"geometry":{"x":166684.13999999966,"y":2545157.3800000008}},{"attributes":{"ID":353446,"DIS_CODE":0,"TOWNNAME":"安南區","LI":"\u25A0南里","LIN":"20鄰","STREET":"環福街","SECT":" ","MAREA":" ","LANE":"１５２巷","ALLEY":" ","HOUSE_NO":"２５號","E_COORD97":170434.38,"N_COORD97":2552578.8999999999,"ADDRESS":"環福街１５２巷２５號","OBJECTID":353437},"geometry":{"x":170434.37999999989,"y":2552578.9000000004}},{"attributes":{"ID":353447,"DIS_CODE":0,"TOWNNAME":"安南區","LI":"州南里","LIN":"20鄰","STREET":"安和路","SECT":"四段","MAREA":" ","LANE":"５３３巷","ALLEY":" ","HOUSE_NO":"４７號","E_COORD97":169827.31,"N_COORD97":2551268.0600000001,"ADDRESS":"安和路四段５３３巷４７號","OBJECTID":353438},"geometry":{"x":169827.30999999959,"y":2551268.0600000005}},{"attributes":{"ID":353448,"DIS_CODE":0,"TOWNNAME":"安南區","LI":"新順里","LIN":"20鄰","STREET":"慶安路","SECT":" ","MAREA":" ","LANE":"１７５巷","ALLEY":" ","HOUSE_NO":"８５號","E_COORD97":169213.56,"N_COORD97":2549317.8500000001,"ADDRESS":"慶安路１７５巷８５號","OBJECTID":353439},"geometry":{"x":169213.55999999959,"y":2549317.8500000015}},{"attributes":{"ID":353449,"DIS_CODE":0,"TOWNNAME":"安南區","LI":"頂安里","LIN":"20鄰","STREET":"長溪路","SECT":"一段","MAREA":" ","LANE":"３８７巷","ALLEY":" ","HOUSE_NO":"３號","E_COORD97":168619.17999999999,"N_COORD97":2548857.3900000001,"ADDRESS":"長溪路一段３８７巷３號","OBJECTID":353440},"geometry":{"x":168619.18000000063,"y":2548857.3900000025}},{"attributes":{"ID":353450,"DIS_CODE":0,"TOWNNAME":"南區","LI":"同安里","LIN":"6鄰","STREET":"灣裡路","SECT":" ","MAREA":" ","LANE":"３５１巷","ALLEY":" ","HOUSE_NO":"２６號之１","E_COORD97":166380.22,"N_COORD97":2536250.04,"ADDRESS":"灣裡路３５１巷２６號之１","OBJECTID":353441},"geometry":{"x":166380.21999999974,"y":2536250.040000001}},{"attributes":{"ID":353451,"DIS_CODE":0,"TOWNNAME":"南區","LI":"同安里","LIN":"6鄰","STREET":"灣裡路","SECT":" ","MAREA":" ","LANE":"３５１巷","ALLEY":" ","HOUSE_NO":"２８號之１","E_COORD97":166394.48999999999,"N_COORD97":2536236.3399999999,"ADDRESS":"灣裡路３５１巷２８號之１","OBJECTID":353442},"geometry":{"x":166394.49000000022,"y":2536236.3399999999}},{"attributes":{"ID":353452,"DIS_CODE":0,"TOWNNAME":"南區","LI":"明德里","LIN":"6鄰","STREET":"大成路","SECT":"一段","MAREA":" ","LANE":"６１巷","ALLEY":" ","HOUSE_NO":"３９號之１","E_COORD97":168141.35000000001,"N_COORD97":2541625.25,"ADDRESS":"大成路一段６１巷３９號之１","OBJECTID":353443},"geometry":{"x":168141.35000000056,"y":2541625.25}},{"attributes":{"ID":353453,"DIS_CODE":0,"TOWNNAME":"永康區","LI":"二王里","LIN":"8鄰","STREET":"二王路","SECT":" ","MAREA":" ","LANE":" ","ALLEY":" ","HOUSE_NO":"１６號十七樓之２","E_COORD97":172976.42999999999,"N_COORD97":2546819.7999999998,"ADDRESS":"二王路１６號十七樓之２","OBJECTID":353444},"geometry":{"x":172976.4299999997,"y":2546819.7999999989}},{"attributes":{"ID":353454,"DIS_CODE":0,"TOWNNAME":"永康區","LI":"二王里","LIN":"8鄰","STREET":"二王路","SECT":" ","MAREA":" ","LANE":" ","ALLEY":" ","HOUSE_NO":"１６號十四樓之３","E_COORD97":172976.39999999999,"N_COORD97":2546819.7999999998,"ADDRESS":"二王路１６號十四樓之３","OBJECTID":353445},"geometry":{"x":172976.4000000013,"y":2546819.7999999989}},{"attributes":{"ID":353455,"DIS_CODE":0,"TOWNNAME":"永康區","LI":"二王里","LIN":"8鄰","STREET":"二王路","SECT":" ","MAREA":" ","LANE":" ","ALLEY":" ","HOUSE_NO":"１２號十一樓之２","E_COORD97":172966.72,"N_COORD97":2546841.48,"ADDRESS":"二王路１２號十一樓之２","OBJECTID":353446},"geometry":{"x":172966.72000000067,"y":2546841.4800000004}},{"attributes":{"ID":353456,"DIS_CODE":0,"TOWNNAME":"永康區","LI":"二王里","LIN":"8鄰","STREET":"二王路","SECT":" ","MAREA":" ","LANE":" ","ALLEY":" ","HOUSE_NO":"１６號四樓之１","E_COORD97":172975.04999999999,"N_COORD97":2546819.7999999998,"ADDRESS":"二王路１６號四樓之１","OBJECTID":353447},"geometry":{"x":172975.05000000075,"y":2546819.7999999989}},{"attributes":{"ID":353457,"DIS_CODE":0,"TOWNNAME":"永康區","LI":"二王里","LIN":"8鄰","STREET":"二王路","SECT":" ","MAREA":" ","LANE":" ","ALLEY":" ","HOUSE_NO":"１２號五樓之３","E_COORD97":172965.44,"N_COORD97":2546841.48,"ADDRESS":"二王路１２號五樓之３","OBJECTID":353448},"geometry":{"x":172965.44000000041,"y":2546841.4800000004}},{"attributes":{"ID":353458,"DIS_CODE":0,"TOWNNAME":"永康區","LI":"二王里","LIN":"8鄰","STREET":"二王路","SECT":" ","MAREA":" ","LANE":" ","ALLEY":" ","HOUSE_NO":"１２號八樓之３","E_COORD97":172965.44,"N_COORD97":2546841.48,"ADDRESS":"二王路１２號八樓之３","OBJECTID":353449},"geometry":{"x":172965.44000000041,"y":2546841.4800000004}},{"attributes":{"ID":353459,"DIS_CODE":0,"TOWNNAME":"永康區","LI":"二王里","LIN":"8鄰","STREET":"二王路","SECT":" ","MAREA":" ","LANE":" ","ALLEY":" ","HOUSE_NO":"１６號三樓之２","E_COORD97":172975.17999999999,"N_COORD97":2546819.7999999998,"ADDRESS":"二王路１６號三樓之２","OBJECTID":353450},"geometry":{"x":172975.17999999877,"y":2546819.7999999989}},{"attributes":{"ID":353460,"DIS_CODE":0,"TOWNNAME":"永康區","LI":"二王里","LIN":"8鄰","STREET":"二王路","SECT":" ","MAREA":" ","LANE":" ","ALLEY":" ","HOUSE_NO":"１２號十四樓之３","E_COORD97":172966.69,"N_COORD97":2546841.48,"ADDRESS":"二王路１２號十四樓之３","OBJECTID":353451},"geometry":{"x":172966.69000000041,"y":2546841.4800000004}},{"attributes":{"ID":353461,"DIS_CODE":0,"TOWNNAME":"安南區","LI":"頂安里","LIN":"20鄰","STREET":"長溪路","SECT":"一段","MAREA":" ","LANE":"４０７巷","ALLEY":" ","HOUSE_NO":"２３號","E_COORD97":168530.98000000001,"N_COORD97":2548825.54,"ADDRESS":"長溪路一段４０７巷２３號","OBJECTID":353452},"geometry":{"x":168530.98000000231,"y":2548825.5399999991}},{"attributes":{"ID":353462,"DIS_CODE":0,"TOWNNAME":"安南區","LI":"頂安里","LIN":"20鄰","STREET":"長溪路","SECT":"一段","MAREA":" ","LANE":"４０７巷","ALLEY":" ","HOUSE_NO":"２５號","E_COORD97":168527.28,"N_COORD97":2548815.8100000001,"ADDRESS":"長溪路一段４０７巷２５號","OBJECTID":353453},"geometry":{"x":168527.28000000119,"y":2548815.8100000005}},{"attributes":{"ID":353463,"DIS_CODE":0,"TOWNNAME":"安南區","LI":"頂安里","LIN":"20鄰","STREET":"長溪路","SECT":"一段","MAREA":" ","LANE":"４０７巷","ALLEY":" ","HOUSE_NO":"２９號","E_COORD97":168522.57999999999,"N_COORD97":2548805.4100000001,"ADDRESS":"長溪路一段４０７巷２９號","OBJECTID":353454},"geometry":{"x":168522.58000000007,"y":2548805.4100000039}},{"attributes":{"ID":353464,"DIS_CODE":0,"TOWNNAME":"安南區","LI":"頂安里","LIN":"20鄰","STREET":"長溪路","SECT":"一段","MAREA":" ","LANE":"４０７巷","ALLEY":" ","HOUSE_NO":"３１號","E_COORD97":168520.23000000001,"N_COORD97":2548799.71,"ADDRESS":"長溪路一段４０７巷３１號","OBJECTID":353455},"geometry":{"x":168520.23000000045,"y":2548799.7100000009}},{"attributes":{"ID":353465,"DIS_CODE":0,"TOWNNAME":"安南區","LI":"頂安里","LIN":"20鄰","STREET":"長溪路","SECT":"一段","MAREA":" ","LANE":"４０７巷","ALLEY":" ","HOUSE_NO":"４５號","E_COORD97":168515.20000000001,"N_COORD97":2548792.6600000001,"ADDRESS":"長溪路一段４０７巷４５號","OBJECTID":353456},"geometry":{"x":168515.20000000019,"y":2548792.6600000001}},{"attributes":{"ID":353466,"DIS_CODE":0,"TOWNNAME":"安南區","LI":"頂安里","LIN":"20鄰","STREET":"長溪路","SECT":"一段","MAREA":" ","LANE":"４０７巷","ALLEY":" ","HOUSE_NO":"５１號","E_COORD97":168523.25,"N_COORD97":2548779.2400000002,"ADDRESS":"長溪路一段４０７巷５１號","OBJECTID":353457},"geometry":{"x":168523.25,"y":2548779.2400000002}},{"attributes":{"ID":353467,"DIS_CODE":0,"TOWNNAME":"安南區","LI":"新順里","LIN":"20鄰","STREET":"慶安路","SECT":" ","MAREA":" ","LANE":"１１５巷","ALLEY":" ","HOUSE_NO":"５５號","E_COORD97":169304.45999999999,"N_COORD97":2549254.52,"ADDRESS":"慶安路１１５巷５５號","OBJECTID":353458},"geometry":{"x":169304.45999999996,"y":2549254.5199999996}},{"attributes":{"ID":353468,"DIS_CODE":0,"TOWNNAME":"安南區","LI":"新順里","LIN":"20鄰","STREET":"慶安路","SECT":" ","MAREA":" ","LANE":"１１５巷","ALLEY":" ","HOUSE_NO":"５９號","E_COORD97":169291.76999999999,"N_COORD97":2549255.1699999999,"ADDRESS":"慶安路１１５巷５９號","OBJECTID":353459},"geometry":{"x":169291.76999999955,"y":2549255.1700000018}},{"attributes":{"ID":353469,"DIS_CODE":0,"TOWNNAME":"安南區","LI":"新順里","LIN":"20鄰","STREET":"慶安路","SECT":" ","MAREA":" ","LANE":"１７５巷","ALLEY":" ","HOUSE_NO":"１００號","E_COORD97":169246.12,"N_COORD97":2549333.6600000001,"ADDRESS":"慶安路１７５巷１００號","OBJECTID":353460},"geometry":{"x":169246.12000000011,"y":2549333.660000002}},{"attributes":{"ID":353470,"DIS_CODE":0,"TOWNNAME":"安南區","LI":"新順里","LIN":"20鄰","STREET":"慶安路","SECT":" ","MAREA":" ","LANE":"１７５巷","ALLEY":" ","HOUSE_NO":"１０２號","E_COORD97":169242.81,"N_COORD97":2549333.6600000001,"ADDRESS":"慶安路１７５巷１０２號","OBJECTID":353461},"geometry":{"x":169242.80999999959,"y":2549333.660000002}},{"attributes":{"ID":353471,"DIS_CODE":0,"TOWNNAME":"安南區","LI":"新順里","LIN":"20鄰","STREET":"慶安路","SECT":" ","MAREA":" ","LANE":"１７５巷","ALLEY":" ","HOUSE_NO":"１０６號","E_COORD97":169238.79000000001,"N_COORD97":2549333.8999999999,"ADDRESS":"慶安路１７５巷１０６號","OBJECTID":353462},"geometry":{"x":169238.7900000019,"y":2549333.9000000004}},{"attributes":{"ID":353472,"DIS_CODE":0,"TOWNNAME":"安南區","LI":"新順里","LIN":"20鄰","STREET":"慶安路","SECT":" ","MAREA":" ","LANE":"１７５巷","ALLEY":" ","HOUSE_NO":"１０８號","E_COORD97":169234.53,"N_COORD97":2549333.8999999999,"ADDRESS":"慶安路１７５巷１０８號","OBJECTID":353463},"geometry":{"x":169234.53000000119,"y":2549333.9000000004}},{"attributes":{"ID":353473,"DIS_CODE":0,"TOWNNAME":"南區","LI":"建南里","LIN":"6鄰","STREET":"德興路","SECT":" ","MAREA":" ","LANE":"３０３巷","ALLEY":" ","HOUSE_NO":"１８號","E_COORD97":167282.67999999999,"N_COORD97":2539887.7799999998,"ADDRESS":"德興路３０３巷１８號","OBJECTID":353464},"geometry":{"x":167282.67999999877,"y":2539887.7799999993}},{"attributes":{"ID":353474,"DIS_CODE":0,"TOWNNAME":"永康區","LI":"二王里","LIN":"8鄰","STREET":"二王路","SECT":" ","MAREA":" ","LANE":" ","ALLEY":" ","HOUSE_NO":"１２號九樓之１","E_COORD97":172965.34,"N_COORD97":2546841.48,"ADDRESS":"二王路１２號九樓之１","OBJECTID":353465},"geometry":{"x":172965.33999999985,"y":2546841.4800000004}},{"attributes":{"ID":353475,"DIS_CODE":0,"TOWNNAME":"永康區","LI":"二王里","LIN":"8鄰","STREET":"二王路","SECT":" ","MAREA":" ","LANE":" ","ALLEY":" ","HOUSE_NO":"１２號十三樓之２","E_COORD97":172966.72,"N_COORD97":2546841.48,"ADDRESS":"二王路１２號十三樓之２","OBJECTID":353466},"geometry":{"x":172966.72000000067,"y":2546841.4800000004}},{"attributes":{"ID":353476,"DIS_CODE":0,"TOWNNAME":"永康區","LI":"二王里","LIN":"8鄰","STREET":"二王路","SECT":" ","MAREA":" ","LANE":" ","ALLEY":" ","HOUSE_NO":"１２號十二樓之３","E_COORD97":172966.69,"N_COORD97":2546841.48,"ADDRESS":"二王路１２號十二樓之３","OBJECTID":353467},"geometry":{"x":172966.69000000041,"y":2546841.4800000004}},{"attributes":{"ID":353477,"DIS_CODE":0,"TOWNNAME":"永康區","LI":"二王里","LIN":"8鄰","STREET":"二王路","SECT":" ","MAREA":" ","LANE":" ","ALLEY":" ","HOUSE_NO":"１２號十四樓之２","E_COORD97":172966.72,"N_COORD97":2546841.48,"ADDRESS":"二王路１２號十四樓之２","OBJECTID":353468},"geometry":{"x":172966.72000000067,"y":2546841.4800000004}},{"attributes":{"ID":353478,"DIS_CODE":0,"TOWNNAME":"永康區","LI":"二王里","LIN":"8鄰","STREET":"二王路","SECT":" ","MAREA":" ","LANE":" ","ALLEY":" ","HOUSE_NO":"１２號十六樓之３","E_COORD97":172966.69,"N_COORD97":2546841.48,"ADDRESS":"二王路１２號十六樓之３","OBJECTID":353469},"geometry":{"x":172966.69000000041,"y":2546841.4800000004}},{"attributes":{"ID":353479,"DIS_CODE":0,"TOWNNAME":"永康區","LI":"二王里","LIN":"8鄰","STREET":"二王路","SECT":" ","MAREA":" ","LANE":" ","ALLEY":" ","HOUSE_NO":"１２號十三樓之１","E_COORD97":172966.59,"N_COORD97":2546841.48,"ADDRESS":"二王路１２號十三樓之１","OBJECTID":353470},"geometry":{"x":172966.59000000078,"y":2546841.4800000004}},{"attributes":{"ID":353480,"DIS_CODE":0,"TOWNNAME":"永康區","LI":"二王里","LIN":"8鄰","STREET":"二王路","SECT":" ","MAREA":" ","LANE":" ","ALLEY":" ","HOUSE_NO":"１６號三樓之１","E_COORD97":172975.04999999999,"N_COORD97":2546819.7999999998,"ADDRESS":"二王路１６號三樓之１","OBJECTID":353471},"geometry":{"x":172975.05000000075,"y":2546819.7999999989}},{"attributes":{"ID":353481,"DIS_CODE":0,"TOWNNAME":"永康區","LI":"二王里","LIN":"8鄰","STREET":"二王路","SECT":" ","MAREA":" ","LANE":" ","ALLEY":" ","HOUSE_NO":"１６號四樓之２","E_COORD97":172975.17999999999,"N_COORD97":2546819.7999999998,"ADDRESS":"二王路１６號四樓之２","OBJECTID":353472},"geometry":{"x":172975.17999999877,"y":2546819.7999999989}},{"attributes":{"ID":353482,"DIS_CODE":0,"TOWNNAME":"永康區","LI":"二王里","LIN":"8鄰","STREET":"二王路","SECT":" ","MAREA":" ","LANE":" ","ALLEY":" ","HOUSE_NO":"１６號十二樓之２","E_COORD97":172976.42999999999,"N_COORD97":2546819.7999999998,"ADDRESS":"二王路１６號十二樓之２","OBJECTID":353473},"geometry":{"x":172976.4299999997,"y":2546819.7999999989}},{"attributes":{"ID":353483,"DIS_CODE":0,"TOWNNAME":"東區","LI":"小東里","LIN":"8鄰","STREET":"東和路","SECT":" ","MAREA":" ","LANE":" ","ALLEY":" ","HOUSE_NO":"９５號七樓之４","E_COORD97":170830.70999999999,"N_COORD97":2544293.7599999998,"ADDRESS":"東和路９５號七樓之４","OBJECTID":353474},"geometry":{"x":170830.70999999996,"y":2544293.7600000016}},{"attributes":{"ID":353484,"DIS_CODE":0,"TOWNNAME":"東區","LI":"小東里","LIN":"8鄰","STREET":"東和路","SECT":" ","MAREA":" ","LANE":" ","ALLEY":" ","HOUSE_NO":"９５號五樓之２","E_COORD97":170830.70999999999,"N_COORD97":2544293.7599999998,"ADDRESS":"東和路９５號五樓之２","OBJECTID":353475},"geometry":{"x":170830.70999999996,"y":2544293.7600000016}},{"attributes":{"ID":353485,"DIS_CODE":0,"TOWNNAME":"東區","LI":"小東里","LIN":"8鄰","STREET":"東和路","SECT":" ","MAREA":" ","LANE":" ","ALLEY":" ","HOUSE_NO":"９５號六樓之１","E_COORD97":170830.70999999999,"N_COORD97":2544293.7599999998,"ADDRESS":"東和路９５號六樓之１","OBJECTID":353476},"geometry":{"x":170830.70999999996,"y":2544293.7600000016}},{"attributes":{"ID":353486,"DIS_CODE":0,"TOWNNAME":"東區","LI":"小東里","LIN":"8鄰","STREET":"東和路","SECT":" ","MAREA":" ","LANE":" ","ALLEY":" ","HOUSE_NO":"９５號七樓","E_COORD97":170830.70999999999,"N_COORD97":2544293.7599999998,"ADDRESS":"東和路９５號七樓","OBJECTID":353477},"geometry":{"x":170830.70999999996,"y":2544293.7600000016}},{"attributes":{"ID":353487,"DIS_CODE":0,"TOWNNAME":"南區","LI":"建南里","LIN":"6鄰","STREET":"德興路","SECT":" ","MAREA":" ","LANE":"３０３巷","ALLEY":" ","HOUSE_NO":"１０號","E_COORD97":167266.14999999999,"N_COORD97":2539888.7999999998,"ADDRESS":"德興路３０３巷１０號","OBJECTID":353478},"geometry":{"x":167266.15000000037,"y":2539888.8000000007}},{"attributes":{"ID":353488,"DIS_CODE":0,"TOWNNAME":"南區","LI":"建南里","LIN":"6鄰","STREET":"德興路","SECT":" ","MAREA":" ","LANE":"３０３巷","ALLEY":" ","HOUSE_NO":"１２號","E_COORD97":167269.82000000001,"N_COORD97":2539888.5899999999,"ADDRESS":"德興路３０３巷１２號","OBJECTID":353479},"geometry":{"x":167269.8200000003,"y":2539888.5900000017}},{"attributes":{"ID":353489,"DIS_CODE":0,"TOWNNAME":"南區","LI":"建南里","LIN":"6鄰","STREET":"德興路","SECT":" ","MAREA":" ","LANE":"３０３巷","ALLEY":" ","HOUSE_NO":"１４號","E_COORD97":167274.51000000001,"N_COORD97":2539888.3900000001,"ADDRESS":"德興路３０３巷１４號","OBJECTID":353480},"geometry":{"x":167274.51000000071,"y":2539888.3900000006}},{"attributes":{"ID":353490,"DIS_CODE":0,"TOWNNAME":"南區","LI":"建南里","LIN":"6鄰","STREET":"德興路","SECT":" ","MAREA":" ","LANE":"３０３巷","ALLEY":" ","HOUSE_NO":"１６號","E_COORD97":167278.60000000001,"N_COORD97":2539888.3900000001,"ADDRESS":"德興路３０３巷１６號","OBJECTID":353481},"geometry":{"x":167278.60000000056,"y":2539888.3900000006}},{"attributes":{"ID":353491,"DIS_CODE":0,"TOWNNAME":"南區","LI":"建南里","LIN":"6鄰","STREET":"德興路","SECT":" ","MAREA":" ","LANE":"３０３巷","ALLEY":" ","HOUSE_NO":"１號","E_COORD97":167247.37,"N_COORD97":2539912.0299999998,"ADDRESS":"德興路３０３巷１號","OBJECTID":353482},"geometry":{"x":167247.37000000011,"y":2539912.0300000012}},{"attributes":{"ID":353492,"DIS_CODE":0,"TOWNNAME":"南區","LI":"建南里","LIN":"6鄰","STREET":"德興路","SECT":" ","MAREA":" ","LANE":"３０３巷","ALLEY":" ","HOUSE_NO":"２０號","E_COORD97":167287.17000000001,"N_COORD97":2539888.1899999999,"ADDRESS":"德興路３０３巷２０號","OBJECTID":353483},"geometry":{"x":167287.17000000086,"y":2539888.1899999995}},{"attributes":{"ID":353493,"DIS_CODE":0,"TOWNNAME":"南區","LI":"建南里","LIN":"6鄰","STREET":"德興路","SECT":" ","MAREA":" ","LANE":"３０３巷","ALLEY":" ","HOUSE_NO":"２號","E_COORD97":167247.98000000001,"N_COORD97":2539890.2200000002,"ADDRESS":"德興路３０３巷２號","OBJECTID":353484},"geometry":{"x":167247.98000000138,"y":2539890.2200000007}},{"attributes":{"ID":353494,"DIS_CODE":0,"TOWNNAME":"南區","LI":"建南里","LIN":"6鄰","STREET":"德興路","SECT":" ","MAREA":" ","LANE":"３０３巷","ALLEY":" ","HOUSE_NO":"４號","E_COORD97":167253.07999999999,"N_COORD97":2539889.8199999998,"ADDRESS":"德興路３０３巷４號","OBJECTID":353485},"geometry":{"x":167253.08000000007,"y":2539889.8200000022}},{"attributes":{"ID":353495,"DIS_CODE":0,"TOWNNAME":"南區","LI":"建南里","LIN":"6鄰","STREET":"德興路","SECT":" ","MAREA":" ","LANE":"３０３巷","ALLEY":" ","HOUSE_NO":"６號","E_COORD97":167257.37,"N_COORD97":2539889.4100000001,"ADDRESS":"德興路３０３巷６號","OBJECTID":353486},"geometry":{"x":167257.37000000011,"y":2539889.410000002}},{"attributes":{"ID":353496,"DIS_CODE":0,"TOWNNAME":"南區","LI":"建南里","LIN":"6鄰","STREET":"德興路","SECT":" ","MAREA":" ","LANE":"３０３巷","ALLEY":" ","HOUSE_NO":"８號","E_COORD97":167261.45000000001,"N_COORD97":2539889.4100000001,"ADDRESS":"德興路３０３巷８號","OBJECTID":353487},"geometry":{"x":167261.45000000112,"y":2539889.410000002}},{"attributes":{"ID":353497,"DIS_CODE":0,"TOWNNAME":"南區","LI":"同安里","LIN":"6鄰","STREET":"明興路","SECT":" ","MAREA":" ","LANE":"１１８１巷","ALLEY":" ","HOUSE_NO":"１２８號","E_COORD97":166725.70999999999,"N_COORD97":2536180.1400000001,"ADDRESS":"明興路１１８１巷１２８號","OBJECTID":353488},"geometry":{"x":166725.71000000089,"y":2536180.1400000025}},{"attributes":{"ID":353498,"DIS_CODE":0,"TOWNNAME":"南區","LI":"同安里","LIN":"6鄰","STREET":"明興路","SECT":" ","MAREA":" ","LANE":"１１８１巷","ALLEY":" ","HOUSE_NO":"４號","E_COORD97":166498.26000000001,"N_COORD97":2536312.8599999999,"ADDRESS":"明興路１１８１巷４號","OBJECTID":353489},"geometry":{"x":166498.26000000071,"y":2536312.8600000013}},{"attributes":{"ID":353499,"DIS_CODE":0,"TOWNNAME":"南區","LI":"大恩里","LIN":"6鄰","STREET":"大同路","SECT":"二段","MAREA":" ","LANE":"７０４巷","ALLEY":" ","HOUSE_NO":"１０號","E_COORD97":169529.84,"N_COORD97":2540854.6899999999,"ADDRESS":"大同路二段７０４巷１０號","OBJECTID":353490},"geometry":{"x":169529.84000000078,"y":2540854.6899999995}},{"attributes":{"ID":353500,"DIS_CODE":0,"TOWNNAME":"南區","LI":"同安里","LIN":"6鄰","STREET":"明興路","SECT":" ","MAREA":" ","LANE":"１１８１巷","ALLEY":" ","HOUSE_NO":"１６０號","E_COORD97":166901.64999999999,"N_COORD97":2536201.6499999999,"ADDRESS":"明興路１１８１巷１６０號","OBJECTID":353491},"geometry":{"x":166901.65000000037,"y":2536201.6500000004}},{"attributes":{"ID":353501,"DIS_CODE":0,"TOWNNAME":"安平區","LI":"億載里","LIN":"6鄰","STREET":"平豐路","SECT":" ","MAREA":" ","LANE":"２５１巷","ALLEY":" ","HOUSE_NO":"１號","E_COORD97":164258.91,"N_COORD97":2543686.04,"ADDRESS":"平豐路２５１巷１號","OBJECTID":353492},"geometry":{"x":164258.91000000015,"y":2543686.0399999991}},{"attributes":{"ID":353502,"DIS_CODE":0,"TOWNNAME":"安平區","LI":"億載里","LIN":"6鄰","STREET":"平豐路","SECT":" ","MAREA":" ","LANE":"２５１巷","ALLEY":" ","HOUSE_NO":"３號","E_COORD97":164251.44,"N_COORD97":2543686.2000000002,"ADDRESS":"平豐路２５１巷３號","OBJECTID":353493},"geometry":{"x":164251.44000000134,"y":2543686.1999999974}},{"attributes":{"ID":353503,"DIS_CODE":0,"TOWNNAME":"安平區","LI":"億載里","LIN":"6鄰","STREET":"平豐路","SECT":" ","MAREA":" ","LANE":"２５１巷","ALLEY":" ","HOUSE_NO":"５號","E_COORD97":164244.78,"N_COORD97":2543686.52,"ADDRESS":"平豐路２５１巷５號","OBJECTID":353494},"geometry":{"x":164244.78000000026,"y":2543686.5199999996}},{"attributes":{"ID":353504,"DIS_CODE":0,"TOWNNAME":"安平區","LI":"億載里","LIN":"6鄰","STREET":"平豐路","SECT":" ","MAREA":" ","LANE":"２５１巷","ALLEY":" ","HOUSE_NO":"７號","E_COORD97":164237.95000000001,"N_COORD97":2543686.3599999999,"ADDRESS":"平豐路２５１巷７號","OBJECTID":353495},"geometry":{"x":164237.95000000019,"y":2543686.3600000013}},{"attributes":{"ID":353505,"DIS_CODE":0,"TOWNNAME":"安平區","LI":"億載里","LIN":"6鄰","STREET":"平豐路","SECT":" ","MAREA":" ","LANE":"２５１巷","ALLEY":" ","HOUSE_NO":"９號","E_COORD97":164232.23999999999,"N_COORD97":2543686.6800000002,"ADDRESS":"平豐路２５１巷９號","OBJECTID":353496},"geometry":{"x":164232.24000000115,"y":2543686.6799999997}},{"attributes":{"ID":353506,"DIS_CODE":0,"TOWNNAME":"安平區","LI":"億載里","LIN":"6鄰","STREET":"平豐路","SECT":" ","MAREA":" ","LANE":"２５１巷","ALLEY":" ","HOUSE_NO":"１１號","E_COORD97":164226.51999999999,"N_COORD97":2543686.04,"ADDRESS":"平豐路２５１巷１１號","OBJECTID":353497},"geometry":{"x":164226.51999999955,"y":2543686.0399999991}},{"attributes":{"ID":353507,"DIS_CODE":0,"TOWNNAME":"安平區","LI":"億載里","LIN":"6鄰","STREET":"平豐路","SECT":" ","MAREA":" ","LANE":"２５１巷","ALLEY":" ","HOUSE_NO":"３０號","E_COORD97":164193.82000000001,"N_COORD97":2543699.5699999998,"ADDRESS":"平豐路２５１巷３０號","OBJECTID":353498},"geometry":{"x":164193.82000000216,"y":2543699.5700000022}},{"attributes":{"ID":353508,"DIS_CODE":0,"TOWNNAME":"安平區","LI":"億載里","LIN":"6鄰","STREET":"平豐路","SECT":" ","MAREA":" ","LANE":"２５１巷","ALLEY":" ","HOUSE_NO":"３２號","E_COORD97":164189.59,"N_COORD97":2543700.2200000002,"ADDRESS":"平豐路２５１巷３２號","OBJECTID":353499},"geometry":{"x":164189.58999999985,"y":2543700.2200000007}},{"attributes":{"ID":353509,"DIS_CODE":0,"TOWNNAME":"安平區","LI":"億載里","LIN":"6鄰","STREET":"平豐路","SECT":" ","MAREA":" ","LANE":"２５１巷","ALLEY":" ","HOUSE_NO":"３６號","E_COORD97":164184.72,"N_COORD97":2543700.5499999998,"ADDRESS":"平豐路２５１巷３６號","OBJECTID":353500},"geometry":{"x":164184.71999999974,"y":2543700.5500000026}},{"attributes":{"ID":353510,"DIS_CODE":0,"TOWNNAME":"南區","LI":"松安里","LIN":"6鄰","STREET":"灣裡路","SECT":" ","MAREA":" ","LANE":"２８２巷","ALLEY":" ","HOUSE_NO":"５５號","E_COORD97":166037.91,"N_COORD97":2536271.7000000002,"ADDRESS":"灣裡路２８２巷５５號","OBJECTID":353501},"geometry":{"x":166037.91000000108,"y":2536271.700000003}},{"attributes":{"ID":353511,"DIS_CODE":0,"TOWNNAME":"南區","LI":"松安里","LIN":"6鄰","STREET":"灣裡路","SECT":" ","MAREA":" ","LANE":"２８２巷","ALLEY":" ","HOUSE_NO":"５７號","E_COORD97":166038.35999999999,"N_COORD97":2536259.8300000001,"ADDRESS":"灣裡路２８２巷５７號","OBJECTID":353502},"geometry":{"x":166038.36000000127,"y":2536259.8300000001}},{"attributes":{"ID":353512,"DIS_CODE":0,"TOWNNAME":"南區","LI":"松安里","LIN":"6鄰","STREET":"灣裡路","SECT":" ","MAREA":" ","LANE":"３２４巷","ALLEY":" ","HOUSE_NO":"１號","E_COORD97":166099.39000000001,"N_COORD97":2536302.4700000002,"ADDRESS":"灣裡路３２４巷１號","OBJECTID":353503},"geometry":{"x":166099.38999999966,"y":2536302.4700000025}},{"attributes":{"ID":353513,"DIS_CODE":0,"TOWNNAME":"南區","LI":"松安里","LIN":"6鄰","STREET":"灣裡路","SECT":" ","MAREA":" ","LANE":"３２４巷","ALLEY":" ","HOUSE_NO":"７號","E_COORD97":166074.64000000001,"N_COORD97":2536296.4100000001,"ADDRESS":"灣裡路３２４巷７號","OBJECTID":353504},"geometry":{"x":166074.6400000006,"y":2536296.410000002}},{"attributes":{"ID":353514,"DIS_CODE":0,"TOWNNAME":"佳里區","LI":"安西里","LIN":"20鄰","STREET":"公園路","SECT":" ","MAREA":" ","LANE":"４６９巷","ALLEY":" ","HOUSE_NO":"１６號","E_COORD97":165314.13,"N_COORD97":2562926.0699999998,"ADDRESS":"公園路４６９巷１６號","OBJECTID":353505},"geometry":{"x":165314.13000000082,"y":2562926.0700000022}},{"attributes":{"ID":353515,"DIS_CODE":0,"TOWNNAME":"南區","LI":"松安里","LIN":"6鄰","STREET":"灣裡路","SECT":" ","MAREA":" ","LANE":"３２４巷","ALLEY":" ","HOUSE_NO":"７號之１","E_COORD97":166084.22,"N_COORD97":2536298,"ADDRESS":"灣裡路３２４巷７號之１","OBJECTID":353506},"geometry":{"x":166084.22000000067,"y":2536298.0000000019}},{"attributes":{"ID":353516,"DIS_CODE":0,"TOWNNAME":"南區","LI":"松安里","LIN":"6鄰","STREET":"灣裡路","SECT":" ","MAREA":" ","LANE":"３４８巷","ALLEY":" ","HOUSE_NO":"１６號","E_COORD97":166070.66,"N_COORD97":2536270.79,"ADDRESS":"灣裡路３４８巷１６號","OBJECTID":353507},"geometry":{"x":166070.66000000015,"y":2536270.7899999972}},{"attributes":{"ID":353517,"DIS_CODE":0,"TOWNNAME":"南區","LI":"松安里","LIN":"6鄰","STREET":"灣裡路","SECT":" ","MAREA":" ","LANE":"３４８巷","ALLEY":" ","HOUSE_NO":"１６號之１","E_COORD97":166078.28,"N_COORD97":2536270.48,"ADDRESS":"灣裡路３４８巷１６號之１","OBJECTID":353508},"geometry":{"x":166078.28000000119,"y":2536270.4800000004}},{"attributes":{"ID":353518,"DIS_CODE":0,"TOWNNAME":"南區","LI":"松安里","LIN":"6鄰","STREET":"灣裡路","SECT":" ","MAREA":" ","LANE":"３４８巷","ALLEY":" ","HOUSE_NO":"１８號","E_COORD97":166070.66,"N_COORD97":2536265.9199999999,"ADDRESS":"灣裡路３４８巷１８號","OBJECTID":353509},"geometry":{"x":166070.66000000015,"y":2536265.9199999999}},{"attributes":{"ID":353519,"DIS_CODE":0,"TOWNNAME":"南區","LI":"松安里","LIN":"6鄰","STREET":"灣裡路","SECT":" ","MAREA":" ","LANE":"３４８巷","ALLEY":" ","HOUSE_NO":"２０號","E_COORD97":166072.64000000001,"N_COORD97":2536257.8500000001,"ADDRESS":"灣裡路３４８巷２０號","OBJECTID":353510},"geometry":{"x":166072.64000000153,"y":2536257.8500000015}},{"attributes":{"ID":353520,"DIS_CODE":0,"TOWNNAME":"南區","LI":"松安里","LIN":"6鄰","STREET":"灣裡路","SECT":" ","MAREA":" ","LANE":"３４８巷","ALLEY":" ","HOUSE_NO":"２２號","E_COORD97":166056.48999999999,"N_COORD97":2536254.5,"ADDRESS":"灣裡路３４８巷２２號","OBJECTID":353511},"geometry":{"x":166056.49000000022,"y":2536254.5000000019}},{"attributes":{"ID":353521,"DIS_CODE":0,"TOWNNAME":"南區","LI":"松安里","LIN":"6鄰","STREET":"灣裡路","SECT":" ","MAREA":" ","LANE":"３４８巷","ALLEY":" ","HOUSE_NO":"６號","E_COORD97":166104.94,"N_COORD97":2536265.9199999999,"ADDRESS":"灣裡路３４８巷６號","OBJECTID":353512},"geometry":{"x":166104.94000000041,"y":2536265.9199999999}},{"attributes":{"ID":353522,"DIS_CODE":0,"TOWNNAME":"南區","LI":"松安里","LIN":"6鄰","STREET":"灣裡路","SECT":" ","MAREA":" ","LANE":"３４８巷","ALLEY":" ","HOUSE_NO":"８號","E_COORD97":166094.73000000001,"N_COORD97":2536263.3300000001,"ADDRESS":"灣裡路３４８巷８號","OBJECTID":353513},"geometry":{"x":166094.73000000045,"y":2536263.3300000001}},{"attributes":{"ID":353523,"DIS_CODE":0,"TOWNNAME":"鹽水區","LI":"三生里","LIN":"6鄰","STREET":"朝琴路","SECT":" ","MAREA":" ","LANE":"５５巷","ALLEY":" ","HOUSE_NO":"２號之１","E_COORD97":175221.79000000001,"N_COORD97":2580070.77,"ADDRESS":"朝琴路５５巷２號之１","OBJECTID":353514},"geometry":{"x":175221.79000000097,"y":2580070.7699999996}},{"attributes":{"ID":353524,"DIS_CODE":0,"TOWNNAME":"鹽水區","LI":"福得里","LIN":"6鄰","STREET":"朝琴路","SECT":" ","MAREA":" ","LANE":"８４巷","ALLEY":" ","HOUSE_NO":"２號之１","E_COORD97":175342.03,"N_COORD97":2580060.3700000001,"ADDRESS":"朝琴路８４巷２號之１","OBJECTID":353515},"geometry":{"x":175342.03000000119,"y":2580060.3700000029}},{"attributes":{"ID":353525,"DIS_CODE":0,"TOWNNAME":"鹽水區","LI":"福得里","LIN":"6鄰","STREET":"朝琴路","SECT":" ","MAREA":" ","LANE":"８４巷","ALLEY":" ","HOUSE_NO":"２號","E_COORD97":175341.94,"N_COORD97":2580068.3700000001,"ADDRESS":"朝琴路８４巷２號","OBJECTID":353516},"geometry":{"x":175341.94000000041,"y":2580068.370000001}},{"attributes":{"ID":353526,"DIS_CODE":0,"TOWNNAME":"安平區","LI":"億載里","LIN":"6鄰","STREET":"平豐路","SECT":" ","MAREA":" ","LANE":"２５１巷","ALLEY":" ","HOUSE_NO":"４８號","E_COORD97":164145.37,"N_COORD97":2543697.9700000002,"ADDRESS":"平豐路２５１巷４８號","OBJECTID":353517},"geometry":{"x":164145.37000000011,"y":2543697.9700000025}},{"attributes":{"ID":353527,"DIS_CODE":0,"TOWNNAME":"東區","LI":"小東里","LIN":"8鄰","STREET":"東和路","SECT":" ","MAREA":" ","LANE":" ","ALLEY":" ","HOUSE_NO":"９５號七樓之１","E_COORD97":170830.70999999999,"N_COORD97":2544293.7599999998,"ADDRESS":"東和路９５號七樓之１","OBJECTID":353518},"geometry":{"x":170830.70999999996,"y":2544293.7600000016}},{"attributes":{"ID":353528,"DIS_CODE":0,"TOWNNAME":"永康區","LI":"南灣里","LIN":"20鄰","STREET":"大灣路","SECT":" ","MAREA":" ","LANE":"７６４巷","ALLEY":" ","HOUSE_NO":"６６號","E_COORD97":174218.79000000001,"N_COORD97":2544698.8199999998,"ADDRESS":"大灣路７６４巷６６號","OBJECTID":353519},"geometry":{"x":174218.79000000004,"y":2544698.8200000003}},{"attributes":{"ID":353529,"DIS_CODE":0,"TOWNNAME":"永康區","LI":"南灣里","LIN":"20鄰","STREET":"大灣路","SECT":" ","MAREA":" ","LANE":"７６４巷","ALLEY":" ","HOUSE_NO":"８６號","E_COORD97":174287.37,"N_COORD97":2544690.1899999999,"ADDRESS":"大灣路７６４巷８６號","OBJECTID":353520},"geometry":{"x":174287.37000000011,"y":2544690.1900000032}},{"attributes":{"ID":353530,"DIS_CODE":0,"TOWNNAME":"永康區","LI":"南灣里","LIN":"20鄰","STREET":"立興街","SECT":" ","MAREA":" ","LANE":"１７６巷","ALLEY":" ","HOUSE_NO":"９之１１號","E_COORD97":174299.92000000001,"N_COORD97":2544663.0800000001,"ADDRESS":"立興街１７６巷９之１１號","OBJECTID":353521},"geometry":{"x":174299.92000000086,"y":2544663.0800000001}},{"attributes":{"ID":353531,"DIS_CODE":0,"TOWNNAME":"安平區","LI":"華平里","LIN":"6鄰","STREET":"怡平路","SECT":" ","MAREA":" ","LANE":"４１０巷","ALLEY":" ","HOUSE_NO":"１０２號","E_COORD97":165444.62,"N_COORD97":2544078.8999999999,"ADDRESS":"怡平路４１０巷１０２號","OBJECTID":353522},"geometry":{"x":165444.62000000104,"y":2544078.9000000004}},{"attributes":{"ID":353532,"DIS_CODE":0,"TOWNNAME":"安平區","LI":"華平里","LIN":"6鄰","STREET":"怡平路","SECT":" ","MAREA":" ","LANE":"４１０巷","ALLEY":" ","HOUSE_NO":"１０４號","E_COORD97":165445.5,"N_COORD97":2544082.6899999999,"ADDRESS":"怡平路４１０巷１０４號","OBJECTID":353523},"geometry":{"x":165445.50000000093,"y":2544082.6899999995}},{"attributes":{"ID":353533,"DIS_CODE":0,"TOWNNAME":"東區","LI":"小東里","LIN":"8鄰","STREET":"東和路","SECT":" ","MAREA":" ","LANE":" ","ALLEY":" ","HOUSE_NO":"９５號七樓之３","E_COORD97":170830.70999999999,"N_COORD97":2544293.7599999998,"ADDRESS":"東和路９５號七樓之３","OBJECTID":353524},"geometry":{"x":170830.70999999996,"y":2544293.7600000016}},{"attributes":{"ID":353534,"DIS_CODE":0,"TOWNNAME":"東區","LI":"小東里","LIN":"8鄰","STREET":"東和路","SECT":" ","MAREA":" ","LANE":" ","ALLEY":" ","HOUSE_NO":"９５號三樓","E_COORD97":170830.70999999999,"N_COORD97":2544293.7599999998,"ADDRESS":"東和路９５號三樓","OBJECTID":353525},"geometry":{"x":170830.70999999996,"y":2544293.7600000016}},{"attributes":{"ID":353535,"DIS_CODE":0,"TOWNNAME":"東區","LI":"小東里","LIN":"8鄰","STREET":"東和路","SECT":" ","MAREA":" ","LANE":" ","ALLEY":" ","HOUSE_NO":"９５號五樓","E_COORD97":170830.70999999999,"N_COORD97":2544293.7599999998,"ADDRESS":"東和路９５號五樓","OBJECTID":353526},"geometry":{"x":170830.70999999996,"y":2544293.7600000016}},{"attributes":{"ID":353536,"DIS_CODE":0,"TOWNNAME":"七股區","LI":"大埕里","LIN":"20鄰","STREET":" ","SECT":" ","MAREA":"大埕","LANE":" ","ALLEY":" ","HOUSE_NO":"２９號之４１","E_COORD97":163050.88,"N_COORD97":2561322.4100000001,"ADDRESS":"大埕２９號之４１","OBJECTID":353527},"geometry":{"x":163050.88000000082,"y":2561322.4100000001}},{"attributes":{"ID":353537,"DIS_CODE":0,"TOWNNAME":"安平區","LI":"華平里","LIN":"6鄰","STREET":"怡平路","SECT":" ","MAREA":" ","LANE":"４１０巷","ALLEY":" ","HOUSE_NO":"１０６號","E_COORD97":165445.79000000001,"N_COORD97":2544087.5,"ADDRESS":"怡平路４１０巷１０６號","OBJECTID":353528},"geometry":{"x":165445.79000000004,"y":2544087.5}},{"attributes":{"ID":353538,"DIS_CODE":0,"TOWNNAME":"安平區","LI":"華平里","LIN":"6鄰","STREET":"怡平路","SECT":" ","MAREA":" ","LANE":"４１０巷","ALLEY":" ","HOUSE_NO":"１００號","E_COORD97":165444.04000000001,"N_COORD97":2544073.7999999998,"ADDRESS":"怡平路４１０巷１００號","OBJECTID":353529},"geometry":{"x":165444.04000000004,"y":2544073.8000000045}},{"attributes":{"ID":353539,"DIS_CODE":0,"TOWNNAME":"南區","LI":"大忠里","LIN":"6鄰","STREET":"中華南路","SECT":"一段","MAREA":" ","LANE":"５３巷","ALLEY":" ","HOUSE_NO":"１９號","E_COORD97":169376.87,"N_COORD97":2541318,"ADDRESS":"中華南路一段５３巷１９號","OBJECTID":353530},"geometry":{"x":169376.87000000011,"y":2541318}},{"attributes":{"ID":353540,"DIS_CODE":0,"TOWNNAME":"南區","LI":"大忠里","LIN":"6鄰","STREET":"中華南路","SECT":"一段","MAREA":" ","LANE":"５３巷","ALLEY":" ","HOUSE_NO":"１號","E_COORD97":169366.66,"N_COORD97":2541368.3900000001,"ADDRESS":"中華南路一段５３巷１號","OBJECTID":353531},"geometry":{"x":169366.66000000015,"y":2541368.3900000025}},{"attributes":{"ID":353541,"DIS_CODE":0,"TOWNNAME":"南區","LI":"大忠里","LIN":"6鄰","STREET":"中華南路","SECT":"一段","MAREA":" ","LANE":"５３巷","ALLEY":" ","HOUSE_NO":"２１號","E_COORD97":169377.63,"N_COORD97":2541312.96,"ADDRESS":"中華南路一段５３巷２１號","OBJECTID":353532},"geometry":{"x":169377.63000000082,"y":2541312.959999999}},{"attributes":{"ID":353542,"DIS_CODE":0,"TOWNNAME":"南區","LI":"大忠里","LIN":"6鄰","STREET":"中華南路","SECT":"一段","MAREA":" ","LANE":"５３巷","ALLEY":" ","HOUSE_NO":"２３號","E_COORD97":169379.14999999999,"N_COORD97":2541304.1400000001,"ADDRESS":"中華南路一段５３巷２３號","OBJECTID":353533},"geometry":{"x":169379.1500000013,"y":2541304.1400000006}},{"attributes":{"ID":353543,"DIS_CODE":0,"TOWNNAME":"南區","LI":"大忠里","LIN":"6鄰","STREET":"中華南路","SECT":"一段","MAREA":" ","LANE":"５３巷","ALLEY":" ","HOUSE_NO":"２５號","E_COORD97":169379.91,"N_COORD97":2541299.8599999999,"ADDRESS":"中華南路一段５３巷２５號","OBJECTID":353534},"geometry":{"x":169379.91000000015,"y":2541299.8600000013}},{"attributes":{"ID":353544,"DIS_CODE":0,"TOWNNAME":"七股區","LI":"大埕里","LIN":"20鄰","STREET":" ","SECT":" ","MAREA":"大埕","LANE":" ","ALLEY":" ","HOUSE_NO":"２９號之４２","E_COORD97":163051.69,"N_COORD97":2561317.2200000002,"ADDRESS":"大埕２９號之４２","OBJECTID":353535},"geometry":{"x":163051.69000000041,"y":2561317.2200000007}},{"attributes":{"ID":353545,"DIS_CODE":0,"TOWNNAME":"七股區","LI":"大埕里","LIN":"20鄰","STREET":" ","SECT":" ","MAREA":"大埕","LANE":" ","ALLEY":" ","HOUSE_NO":"２９號之４３","E_COORD97":163052.48999999999,"N_COORD97":2561312.02,"ADDRESS":"大埕２９號之４３","OBJECTID":353536},"geometry":{"x":163052.49000000115,"y":2561312.0200000014}},{"attributes":{"ID":353546,"DIS_CODE":0,"TOWNNAME":"七股區","LI":"大埕里","LIN":"20鄰","STREET":" ","SECT":" ","MAREA":"大埕","LANE":" ","ALLEY":" ","HOUSE_NO":"２９號之４４","E_COORD97":163053.29000000001,"N_COORD97":2561306.8300000001,"ADDRESS":"大埕２９號之４４","OBJECTID":353537},"geometry":{"x":163053.29000000097,"y":2561306.8300000019}},{"attributes":{"ID":353547,"DIS_CODE":0,"TOWNNAME":"七股區","LI":"大埕里","LIN":"20鄰","STREET":" ","SECT":" ","MAREA":"大埕","LANE":" ","ALLEY":" ","HOUSE_NO":"２９號之４５","E_COORD97":163054.09,"N_COORD97":2561301.6400000001,"ADDRESS":"大埕２９號之４５","OBJECTID":353538},"geometry":{"x":163054.09000000171,"y":2561301.6400000025}},{"attributes":{"ID":353548,"DIS_CODE":0,"TOWNNAME":"七股區","LI":"大埕里","LIN":"20鄰","STREET":" ","SECT":" ","MAREA":"大埕","LANE":" ","ALLEY":" ","HOUSE_NO":"２９號之４６","E_COORD97":163054.89000000001,"N_COORD97":2561296.4399999999,"ADDRESS":"大埕２９號之４６","OBJECTID":353539},"geometry":{"x":163054.88999999966,"y":2561296.4399999995}},{"attributes":{"ID":353549,"DIS_CODE":0,"TOWNNAME":"七股區","LI":"大埕里","LIN":"20鄰","STREET":" ","SECT":" ","MAREA":"大埕","LANE":" ","ALLEY":" ","HOUSE_NO":"２９號之４７","E_COORD97":163055.69,"N_COORD97":2561291.25,"ADDRESS":"大埕２９號之４７","OBJECTID":353540},"geometry":{"x":163055.69000000227,"y":2561291.2500000019}},{"attributes":{"ID":353550,"DIS_CODE":0,"TOWNNAME":"南區","LI":"大忠里","LIN":"6鄰","STREET":"中華南路","SECT":"一段","MAREA":" ","LANE":"５３巷","ALLEY":" ","HOUSE_NO":"２７號","E_COORD97":169380.66,"N_COORD97":2541295.0699999998,"ADDRESS":"中華南路一段５３巷２７號","OBJECTID":353541},"geometry":{"x":169380.66000000108,"y":2541295.070000004}},{"attributes":{"ID":353551,"DIS_CODE":0,"TOWNNAME":"南區","LI":"大忠里","LIN":"6鄰","STREET":"中華南路","SECT":"一段","MAREA":" ","LANE":"５３巷","ALLEY":" ","HOUSE_NO":"２９號","E_COORD97":169380.92000000001,"N_COORD97":2541291.54,"ADDRESS":"中華南路一段５３巷２９號","OBJECTID":353542},"geometry":{"x":169380.91999999993,"y":2541291.540000001}},{"attributes":{"ID":353552,"DIS_CODE":0,"TOWNNAME":"南區","LI":"大忠里","LIN":"6鄰","STREET":"中華南路","SECT":"一段","MAREA":" ","LANE":"５３巷","ALLEY":" ","HOUSE_NO":"３１號","E_COORD97":169381.92999999999,"N_COORD97":2541287.5099999998,"ADDRESS":"中華南路一段５３巷３１號","OBJECTID":353543},"geometry":{"x":169381.93000000063,"y":2541287.5099999998}},{"attributes":{"ID":353553,"DIS_CODE":0,"TOWNNAME":"南區","LI":"大忠里","LIN":"6鄰","STREET":"中華南路","SECT":"一段","MAREA":" ","LANE":"５３巷","ALLEY":" ","HOUSE_NO":"３３號","E_COORD97":169381.95000000001,"N_COORD97":2541283.3599999999,"ADDRESS":"中華南路一段５３巷３３號","OBJECTID":353544},"geometry":{"x":169381.95000000205,"y":2541283.3600000013}},{"attributes":{"ID":353554,"DIS_CODE":0,"TOWNNAME":"南區","LI":"大忠里","LIN":"6鄰","STREET":"中華南路","SECT":"一段","MAREA":" ","LANE":"５３巷","ALLEY":" ","HOUSE_NO":"３號","E_COORD97":169367.79000000001,"N_COORD97":2541363.3300000001,"ADDRESS":"中華南路一段５３巷３號","OBJECTID":353545},"geometry":{"x":169367.79000000097,"y":2541363.3300000001}},{"attributes":{"ID":353555,"DIS_CODE":0,"TOWNNAME":"南區","LI":"大忠里","LIN":"6鄰","STREET":"中華南路","SECT":"一段","MAREA":" ","LANE":"５３巷","ALLEY":" ","HOUSE_NO":"５號","E_COORD97":169369.20000000001,"N_COORD97":2541356.5699999998,"ADDRESS":"中華南路一段５３巷５號","OBJECTID":353546},"geometry":{"x":169369.20000000019,"y":2541356.5700000022}},{"attributes":{"ID":353556,"DIS_CODE":0,"TOWNNAME":"南區","LI":"大忠里","LIN":"6鄰","STREET":"中華南路","SECT":"一段","MAREA":" ","LANE":"５３巷","ALLEY":" ","HOUSE_NO":"７號","E_COORD97":169370.32999999999,"N_COORD97":2541350.1000000001,"ADDRESS":"中華南路一段５３巷７號","OBJECTID":353547},"geometry":{"x":169370.33000000007,"y":2541350.0999999996}},{"attributes":{"ID":353557,"DIS_CODE":0,"TOWNNAME":"楠西區","LI":"東勢里","LIN":"6鄰","STREET":"民生路","SECT":" ","MAREA":" ","LANE":"６巷","ALLEY":" ","HOUSE_NO":"６號","E_COORD97":197361.59,"N_COORD97":2563903.29,"ADDRESS":"民生路６巷６號","OBJECTID":353548},"geometry":{"x":197361.59000000078,"y":2563903.290000001}},{"attributes":{"ID":353558,"DIS_CODE":0,"TOWNNAME":"南區","LI":"大忠里","LIN":"6鄰","STREET":"中華南路","SECT":"一段","MAREA":" ","LANE":"５３巷","ALLEY":" ","HOUSE_NO":"９號","E_COORD97":169370.32999999999,"N_COORD97":2541343.6200000001,"ADDRESS":"中華南路一段５３巷９號","OBJECTID":353549},"geometry":{"x":169370.33000000007,"y":2541343.6200000029}},{"attributes":{"ID":353559,"DIS_CODE":0,"TOWNNAME":"歸仁區","LI":"許厝里","LIN":"6鄰","STREET":"仁愛一街","SECT":" ","MAREA":" ","LANE":"１２巷","ALLEY":" ","HOUSE_NO":"２７號","E_COORD97":178345.54000000001,"N_COORD97":2540549.73,"ADDRESS":"仁愛一街１２巷２７號","OBJECTID":353550},"geometry":{"x":178345.54000000097,"y":2540549.7300000004}},{"attributes":{"ID":353560,"DIS_CODE":0,"TOWNNAME":"歸仁區","LI":"許厝里","LIN":"6鄰","STREET":"中山路","SECT":"一段","MAREA":" ","LANE":"３１９巷","ALLEY":" ","HOUSE_NO":"３８號","E_COORD97":178397.95999999999,"N_COORD97":2540535.25,"ADDRESS":"中山路一段３１９巷３８號","OBJECTID":353551},"geometry":{"x":178397.95999999996,"y":2540535.2500000019}},{"attributes":{"ID":353561,"DIS_CODE":0,"TOWNNAME":"歸仁區","LI":"崙頂里","LIN":"6鄰","STREET":"信義南路","SECT":" ","MAREA":" ","LANE":"２０２巷","ALLEY":" ","HOUSE_NO":"２７號","E_COORD97":178083.04999999999,"N_COORD97":2540040.6800000002,"ADDRESS":"信義南路２０２巷２７號","OBJECTID":353552},"geometry":{"x":178083.04999999981,"y":2540040.6800000016}},{"attributes":{"ID":353562,"DIS_CODE":0,"TOWNNAME":"歸仁區","LI":"崙頂里","LIN":"6鄰","STREET":"信義南路","SECT":" ","MAREA":" ","LANE":"２０２巷","ALLEY":" ","HOUSE_NO":"２９號","E_COORD97":178073.75,"N_COORD97":2540027.6800000002,"ADDRESS":"信義南路２０２巷２９號","OBJECTID":353553},"geometry":{"x":178073.75,"y":2540027.6799999997}},{"attributes":{"ID":353563,"DIS_CODE":0,"TOWNNAME":"歸仁區","LI":"崙頂里","LIN":"6鄰","STREET":"信義南路","SECT":" ","MAREA":" ","LANE":"２０２巷","ALLEY":" ","HOUSE_NO":"４７號","E_COORD97":178043.87,"N_COORD97":2540054.6800000002,"ADDRESS":"信義南路２０２巷４７號","OBJECTID":353554},"geometry":{"x":178043.87000000011,"y":2540054.6799999997}},{"attributes":{"ID":353564,"DIS_CODE":0,"TOWNNAME":"歸仁區","LI":"許厝里","LIN":"6鄰","STREET":"仁愛南街","SECT":" ","MAREA":" ","LANE":"３５巷","ALLEY":" ","HOUSE_NO":"１６號","E_COORD97":178362.42000000001,"N_COORD97":2540550.25,"ADDRESS":"仁愛南街３５巷１６號","OBJECTID":353555},"geometry":{"x":178362.41999999993,"y":2540550.25}},{"attributes":{"ID":353565,"DIS_CODE":0,"TOWNNAME":"歸仁區","LI":"崙頂里","LIN":"6鄰","STREET":"信義南路","SECT":" ","MAREA":" ","LANE":"２０２巷","ALLEY":" ","HOUSE_NO":"５７號","E_COORD97":178024.37,"N_COORD97":2540054.6800000002,"ADDRESS":"信義南路２０２巷５７號","OBJECTID":353556},"geometry":{"x":178024.37000000197,"y":2540054.6799999997}},{"attributes":{"ID":353566,"DIS_CODE":0,"TOWNNAME":"歸仁區","LI":"崙頂里","LIN":"6鄰","STREET":"崙頂一街","SECT":" ","MAREA":" ","LANE":"３７巷","ALLEY":" ","HOUSE_NO":"１２號","E_COORD97":178001.42000000001,"N_COORD97":2540034.6800000002,"ADDRESS":"崙頂一街３７巷１２號","OBJECTID":353557},"geometry":{"x":178001.41999999993,"y":2540034.6799999997}},{"attributes":{"ID":353567,"DIS_CODE":0,"TOWNNAME":"北區","LI":"大和里","LIN":"6鄰","STREET":"大興街","SECT":" ","MAREA":" ","LANE":"１３２巷","ALLEY":" ","HOUSE_NO":"２４號","E_COORD97":167039.48999999999,"N_COORD97":2545819.1099999999,"ADDRESS":"大興街１３２巷２４號","OBJECTID":353558},"geometry":{"x":167039.49000000115,"y":2545819.1099999994}},{"attributes":{"ID":353568,"DIS_CODE":0,"TOWNNAME":"北區","LI":"大山里","LIN":"6鄰","STREET":"精忠街","SECT":" ","MAREA":" ","LANE":"２５巷","ALLEY":" ","HOUSE_NO":"３６號","E_COORD97":169402.78,"N_COORD97":2545420.6200000001,"ADDRESS":"精忠街２５巷３６號","OBJECTID":353559},"geometry":{"x":169402.78000000026,"y":2545420.620000001}},{"attributes":{"ID":353569,"DIS_CODE":0,"TOWNNAME":"北區","LI":"大山里","LIN":"6鄰","STREET":"精忠街","SECT":" ","MAREA":" ","LANE":"２５巷","ALLEY":" ","HOUSE_NO":"２１號","E_COORD97":169420.23999999999,"N_COORD97":2545452.1499999999,"ADDRESS":"精忠街２５巷２１號","OBJECTID":353560},"geometry":{"x":169420.24000000022,"y":2545452.1500000022}},{"attributes":{"ID":353570,"DIS_CODE":0,"TOWNNAME":"北區","LI":"大豐里","LIN":"6鄰","STREET":"武聖路","SECT":" ","MAREA":" ","LANE":"１６０巷","ALLEY":" ","HOUSE_NO":"１２號","E_COORD97":166975.60999999999,"N_COORD97":2545302.27,"ADDRESS":"武聖路１６０巷１２號","OBJECTID":353561},"geometry":{"x":166975.61000000127,"y":2545302.2699999996}},{"attributes":{"ID":353571,"DIS_CODE":0,"TOWNNAME":"北區","LI":"大豐里","LIN":"6鄰","STREET":"武聖路","SECT":" ","MAREA":" ","LANE":"１６０巷","ALLEY":" ","HOUSE_NO":"１４號","E_COORD97":166977.03,"N_COORD97":2545305.23,"ADDRESS":"武聖路１６０巷１４號","OBJECTID":353562},"geometry":{"x":166977.03000000026,"y":2545305.2300000023}},{"attributes":{"ID":353572,"DIS_CODE":0,"TOWNNAME":"北區","LI":"大豐里","LIN":"6鄰","STREET":"武聖路","SECT":" ","MAREA":" ","LANE":"１６０巷","ALLEY":" ","HOUSE_NO":"１６號","E_COORD97":166978.97,"N_COORD97":2545308.8399999999,"ADDRESS":"武聖路１６０巷１６號","OBJECTID":353563},"geometry":{"x":166978.96999999974,"y":2545308.8399999999}},{"attributes":{"ID":353573,"DIS_CODE":0,"TOWNNAME":"北區","LI":"大豐里","LIN":"6鄰","STREET":"文賢路","SECT":" ","MAREA":" ","LANE":"３１３巷","ALLEY":" ","HOUSE_NO":"６７號","E_COORD97":167043.51000000001,"N_COORD97":2545292.8599999999,"ADDRESS":"文賢路３１３巷６７號","OBJECTID":353564},"geometry":{"x":167043.51000000071,"y":2545292.8600000013}},{"attributes":{"ID":353574,"DIS_CODE":0,"TOWNNAME":"北區","LI":"大豐里","LIN":"6鄰","STREET":"文賢路","SECT":" ","MAREA":" ","LANE":"３１３巷","ALLEY":" ","HOUSE_NO":"６９號","E_COORD97":167039.32000000001,"N_COORD97":2545296.21,"ADDRESS":"文賢路３１３巷６９號","OBJECTID":353565},"geometry":{"x":167039.3200000003,"y":2545296.2100000028}},{"attributes":{"ID":353575,"DIS_CODE":0,"TOWNNAME":"永康區","LI":"王行里","LIN":"1鄰","STREET":"王行路","SECT":" ","MAREA":" ","LANE":" ","ALLEY":" ","HOUSE_NO":"１１７號","E_COORD97":175629.44,"N_COORD97":2548086.9700000002,"ADDRESS":"王行路１１７號","OBJECTID":353566},"geometry":{"x":175629.44000000134,"y":2548086.9700000044}},{"attributes":{"ID":353576,"DIS_CODE":0,"TOWNNAME":"北區","LI":"大豐里","LIN":"6鄰","STREET":"文賢路","SECT":" ","MAREA":" ","LANE":"３１３巷","ALLEY":" ","HOUSE_NO":"７１號","E_COORD97":167034.92999999999,"N_COORD97":2545299.1099999999,"ADDRESS":"文賢路３１３巷７１號","OBJECTID":353567},"geometry":{"x":167034.9299999997,"y":2545299.1100000013}},{"attributes":{"ID":353577,"DIS_CODE":0,"TOWNNAME":"北區","LI":"大豐里","LIN":"6鄰","STREET":"文賢路","SECT":" ","MAREA":" ","LANE":"３１３巷","ALLEY":" ","HOUSE_NO":"７３號","E_COORD97":167030.98999999999,"N_COORD97":2545302.2000000002,"ADDRESS":"文賢路３１３巷７３號","OBJECTID":353568},"geometry":{"x":167030.99000000115,"y":2545302.1999999993}},{"attributes":{"ID":353578,"DIS_CODE":0,"TOWNNAME":"北區","LI":"大豐里","LIN":"6鄰","STREET":"文賢路","SECT":" ","MAREA":" ","LANE":"３１３巷","ALLEY":" ","HOUSE_NO":"７５號","E_COORD97":167027.06,"N_COORD97":2545305.23,"ADDRESS":"文賢路３１３巷７５號","OBJECTID":353569},"geometry":{"x":167027.05999999959,"y":2545305.2300000023}},{"attributes":{"ID":353579,"DIS_CODE":0,"TOWNNAME":"北區","LI":"大豐里","LIN":"6鄰","STREET":"文賢路","SECT":" ","MAREA":" ","LANE":"３１３巷","ALLEY":" ","HOUSE_NO":"７７號","E_COORD97":167022.60999999999,"N_COORD97":2545307.1000000001,"ADDRESS":"文賢路３１３巷７７號","OBJECTID":353570},"geometry":{"x":167022.61000000034,"y":2545307.0999999996}},{"attributes":{"ID":353580,"DIS_CODE":0,"TOWNNAME":"北區","LI":"大豐里","LIN":"6鄰","STREET":"文賢路","SECT":" ","MAREA":" ","LANE":"３１３巷","ALLEY":" ","HOUSE_NO":"７９號","E_COORD97":167018.03,"N_COORD97":2545309.4199999999,"ADDRESS":"文賢路３１３巷７９號","OBJECTID":353571},"geometry":{"x":167018.03000000026,"y":2545309.4199999981}},{"attributes":{"ID":353581,"DIS_CODE":0,"TOWNNAME":"北區","LI":"大豐里","LIN":"6鄰","STREET":"文賢路","SECT":" ","MAREA":" ","LANE":"３１３巷","ALLEY":" ","HOUSE_NO":"８１號","E_COORD97":167013.38,"N_COORD97":2545310.1299999999,"ADDRESS":"文賢路３１３巷８１號","OBJECTID":353572},"geometry":{"x":167013.37999999989,"y":2545310.129999999}},{"attributes":{"ID":353582,"DIS_CODE":0,"TOWNNAME":"北區","LI":"大豐里","LIN":"6鄰","STREET":"文賢路","SECT":" ","MAREA":" ","LANE":"３１３巷","ALLEY":" ","HOUSE_NO":"８３號","E_COORD97":167005.89999999999,"N_COORD97":2545309.23,"ADDRESS":"文賢路３１３巷８３號","OBJECTID":353573},"geometry":{"x":167005.9000000013,"y":2545309.2300000023}},{"attributes":{"ID":353583,"DIS_CODE":0,"TOWNNAME":"新營區","LI":"新北里","LIN":"6鄰","STREET":"三興街","SECT":" ","MAREA":" ","LANE":"２７５巷","ALLEY":" ","HOUSE_NO":"３５號","E_COORD97":179212.34,"N_COORD97":2579644.04,"ADDRESS":"三興街２７５巷３５號","OBJECTID":353574},"geometry":{"x":179212.33999999985,"y":2579644.040000001}},{"attributes":{"ID":353584,"DIS_CODE":0,"TOWNNAME":"新營區","LI":"新北里","LIN":"6鄰","STREET":"三興街","SECT":" ","MAREA":" ","LANE":"２０５巷","ALLEY":" ","HOUSE_NO":"７號","E_COORD97":179317.22,"N_COORD97":2579606.9900000002,"ADDRESS":"三興街２０５巷７號","OBJECTID":353575},"geometry":{"x":179317.22000000067,"y":2579606.9900000021}},{"attributes":{"ID":353585,"DIS_CODE":0,"TOWNNAME":"新營區","LI":"新東里","LIN":"6鄰","STREET":"東大街","SECT":" ","MAREA":" ","LANE":"６６巷","ALLEY":" ","HOUSE_NO":"１０號","E_COORD97":181052.54999999999,"N_COORD97":2579186.1499999999,"ADDRESS":"東大街６６巷１０號","OBJECTID":353576},"geometry":{"x":181052.55000000075,"y":2579186.1500000022}},{"attributes":{"ID":353586,"DIS_CODE":0,"TOWNNAME":"新營區","LI":"新東里","LIN":"6鄰","STREET":"東大街","SECT":" ","MAREA":" ","LANE":"６６巷","ALLEY":" ","HOUSE_NO":"１２號","E_COORD97":181057.26999999999,"N_COORD97":2579186.2799999998,"ADDRESS":"東大街６６巷１２號","OBJECTID":353577},"geometry":{"x":181057.27000000142,"y":2579186.2799999993}},{"attributes":{"ID":353587,"DIS_CODE":0,"TOWNNAME":"新營區","LI":"新東里","LIN":"6鄰","STREET":"東大街","SECT":" ","MAREA":" ","LANE":"６６巷","ALLEY":" ","HOUSE_NO":"１６號","E_COORD97":181061.76000000001,"N_COORD97":2579186.2799999998,"ADDRESS":"東大街６６巷１６號","OBJECTID":353578},"geometry":{"x":181061.75999999978,"y":2579186.2799999993}},{"attributes":{"ID":353588,"DIS_CODE":0,"TOWNNAME":"新營區","LI":"新東里","LIN":"6鄰","STREET":"東大街","SECT":" ","MAREA":" ","LANE":"６６巷","ALLEY":" ","HOUSE_NO":"１８號","E_COORD97":181066.48000000001,"N_COORD97":2579186.2799999998,"ADDRESS":"東大街６６巷１８號","OBJECTID":353579},"geometry":{"x":181066.48000000045,"y":2579186.2799999993}},{"attributes":{"ID":353589,"DIS_CODE":0,"TOWNNAME":"新營區","LI":"新東里","LIN":"6鄰","STREET":"東大街","SECT":" ","MAREA":" ","LANE":"６６巷","ALLEY":" ","HOUSE_NO":"８之１號","E_COORD97":181045.17000000001,"N_COORD97":2579186.04,"ADDRESS":"東大街６６巷８之１號","OBJECTID":353580},"geometry":{"x":181045.17000000086,"y":2579186.040000001}},{"attributes":{"ID":353590,"DIS_CODE":0,"TOWNNAME":"新營區","LI":"新東里","LIN":"6鄰","STREET":"東大街","SECT":" ","MAREA":" ","LANE":"６６巷","ALLEY":" ","HOUSE_NO":"８之２號","E_COORD97":181049.01999999999,"N_COORD97":2579186.1800000002,"ADDRESS":"東大街６６巷８之２號","OBJECTID":353581},"geometry":{"x":181049.02000000048,"y":2579186.1799999997}},{"attributes":{"ID":353591,"DIS_CODE":0,"TOWNNAME":"新化區","LI":"東榮里","LIN":"6鄰","STREET":"信義路","SECT":" ","MAREA":" ","LANE":"１１３巷","ALLEY":" ","HOUSE_NO":"３號","E_COORD97":179722.42999999999,"N_COORD97":2548467.25,"ADDRESS":"信義路１１３巷３號","OBJECTID":353582},"geometry":{"x":179722.43000000063,"y":2548467.2500000037}},{"attributes":{"ID":353592,"DIS_CODE":0,"TOWNNAME":"新化區","LI":"護國里","LIN":"6鄰","STREET":"中山路","SECT":" ","MAREA":" ","LANE":"１４６巷","ALLEY":" ","HOUSE_NO":"６號","E_COORD97":179256.70999999999,"N_COORD97":2548572.25,"ADDRESS":"中山路１４６巷６號","OBJECTID":353583},"geometry":{"x":179256.71000000089,"y":2548572.2499999981}},{"attributes":{"ID":353593,"DIS_CODE":0,"TOWNNAME":"新化區","LI":"東榮里","LIN":"6鄰","STREET":"信義路","SECT":" ","MAREA":" ","LANE":"１１７巷","ALLEY":" ","HOUSE_NO":"４９號之５","E_COORD97":179767.23999999999,"N_COORD97":2548353.2599999998,"ADDRESS":"信義路１１７巷４９號之５","OBJECTID":353584},"geometry":{"x":179767.24000000022,"y":2548353.2600000016}},{"attributes":{"ID":353594,"DIS_CODE":0,"TOWNNAME":"新化區","LI":"協興里","LIN":"6鄰","STREET":"忠孝路","SECT":" ","MAREA":" ","LANE":"１９０巷","ALLEY":" ","HOUSE_NO":"５號之１","E_COORD97":178394.64999999999,"N_COORD97":2548639.2599999998,"ADDRESS":"忠孝路１９０巷５號之１","OBJECTID":353585},"geometry":{"x":178394.6500000013,"y":2548639.2599999998}},{"attributes":{"ID":353595,"DIS_CODE":0,"TOWNNAME":"新化區","LI":"東榮里","LIN":"6鄰","STREET":"信義路","SECT":" ","MAREA":" ","LANE":"１１７巷","ALLEY":" ","HOUSE_NO":"７號","E_COORD97":179695.32999999999,"N_COORD97":2548448.25,"ADDRESS":"信義路１１７巷７號","OBJECTID":353586},"geometry":{"x":179695.33000000007,"y":2548448.2500000019}},{"attributes":{"ID":353596,"DIS_CODE":0,"TOWNNAME":"新化區","LI":"東榮里","LIN":"6鄰","STREET":"信義路","SECT":" ","MAREA":" ","LANE":"１１７巷","ALLEY":" ","HOUSE_NO":"４９號之１","E_COORD97":179753.70999999999,"N_COORD97":2548352.2599999998,"ADDRESS":"信義路１１７巷４９號之１","OBJECTID":353587},"geometry":{"x":179753.70999999996,"y":2548352.2600000016}},{"attributes":{"ID":353597,"DIS_CODE":0,"TOWNNAME":"新化區","LI":"東榮里","LIN":"6鄰","STREET":"信義路","SECT":" ","MAREA":" ","LANE":"１１７巷","ALLEY":" ","HOUSE_NO":"４９號之１４","E_COORD97":179799.95999999999,"N_COORD97":2548378.2599999998,"ADDRESS":"信義路１１７巷４９號之１４","OBJECTID":353588},"geometry":{"x":179799.95999999996,"y":2548378.2599999998}},{"attributes":{"ID":353598,"DIS_CODE":0,"TOWNNAME":"新化區","LI":"協興里","LIN":"6鄰","STREET":"忠孝路","SECT":" ","MAREA":" ","LANE":"１９０巷","ALLEY":" ","HOUSE_NO":"１號之２","E_COORD97":178400.48000000001,"N_COORD97":2548607.2599999998,"ADDRESS":"忠孝路１９０巷１號之２","OBJECTID":353589},"geometry":{"x":178400.48000000138,"y":2548607.2600000016}},{"attributes":{"ID":353599,"DIS_CODE":0,"TOWNNAME":"新化區","LI":"護國里","LIN":"6鄰","STREET":"中山路","SECT":" ","MAREA":" ","LANE":"１４６巷","ALLEY":" ","HOUSE_NO":"１號","E_COORD97":179278.51000000001,"N_COORD97":2548567.25,"ADDRESS":"中山路１４６巷１號","OBJECTID":353590},"geometry":{"x":179278.50999999978,"y":2548567.2500000019}},{"attributes":{"ID":353600,"DIS_CODE":0,"TOWNNAME":"新化區","LI":"協興里","LIN":"6鄰","STREET":"忠孝路","SECT":" ","MAREA":" ","LANE":"１９６巷","ALLEY":" ","HOUSE_NO":"４號","E_COORD97":178368.42000000001,"N_COORD97":2548599.25,"ADDRESS":"忠孝路１９６巷４號","OBJECTID":353591},"geometry":{"x":178368.42000000086,"y":2548599.25}},{"attributes":{"ID":353601,"DIS_CODE":0,"TOWNNAME":"新化區","LI":"協興里","LIN":"6鄰","STREET":"忠孝路","SECT":" ","MAREA":" ","LANE":"１９０巷","ALLEY":" ","HOUSE_NO":"２７號","E_COORD97":178327.97,"N_COORD97":2548608.25,"ADDRESS":"忠孝路１９０巷２７號","OBJECTID":353592},"geometry":{"x":178327.96999999974,"y":2548608.25}},{"attributes":{"ID":353602,"DIS_CODE":0,"TOWNNAME":"新化區","LI":"太平里","LIN":"6鄰","STREET":"民生路","SECT":" ","MAREA":" ","LANE":"３１４巷","ALLEY":" ","HOUSE_NO":"１１號","E_COORD97":178950.35999999999,"N_COORD97":2549234.25,"ADDRESS":"民生路３１４巷１１號","OBJECTID":353593},"geometry":{"x":178950.3600000022,"y":2549234.2500000019}},{"attributes":{"ID":353603,"DIS_CODE":0,"TOWNNAME":"新化區","LI":"太平里","LIN":"6鄰","STREET":"民生路","SECT":" ","MAREA":" ","LANE":"３１４巷","ALLEY":" ","HOUSE_NO":"１０１號","E_COORD97":178932.70999999999,"N_COORD97":2549246.25,"ADDRESS":"民生路３１４巷１０１號","OBJECTID":353594},"geometry":{"x":178932.71000000089,"y":2549246.25}},{"attributes":{"ID":353604,"DIS_CODE":0,"TOWNNAME":"新化區","LI":"協興里","LIN":"6鄰","STREET":"忠孝路","SECT":" ","MAREA":" ","LANE":"１９０巷","ALLEY":" ","HOUSE_NO":"３號之２","E_COORD97":178383.67999999999,"N_COORD97":2548625.2599999998,"ADDRESS":"忠孝路１９０巷３號之２","OBJECTID":353595},"geometry":{"x":178383.68000000063,"y":2548625.2599999998}},{"attributes":{"ID":353605,"DIS_CODE":0,"TOWNNAME":"新化區","LI":"太平里","LIN":"6鄰","STREET":"民生路","SECT":" ","MAREA":" ","LANE":"３１４巷","ALLEY":" ","HOUSE_NO":"２０號","E_COORD97":178993.76000000001,"N_COORD97":2549229.25,"ADDRESS":"民生路３１４巷２０號","OBJECTID":353596},"geometry":{"x":178993.75999999978,"y":2549229.25}},{"attributes":{"ID":353606,"DIS_CODE":0,"TOWNNAME":"新化區","LI":"太平里","LIN":"6鄰","STREET":"民生路","SECT":" ","MAREA":" ","LANE":"３１４巷","ALLEY":" ","HOUSE_NO":"１６號","E_COORD97":178984.45999999999,"N_COORD97":2549229.25,"ADDRESS":"民生路３１４巷１６號","OBJECTID":353597},"geometry":{"x":178984.45999999996,"y":2549229.25}},{"attributes":{"ID":353607,"DIS_CODE":0,"TOWNNAME":"新化區","LI":"協興里","LIN":"6鄰","STREET":"忠孝路","SECT":" ","MAREA":" ","LANE":"１９０巷","ALLEY":" ","HOUSE_NO":"３１號","E_COORD97":178336.07000000001,"N_COORD97":2548611.25,"ADDRESS":"忠孝路１９０巷３１號","OBJECTID":353598},"geometry":{"x":178336.0700000003,"y":2548611.2500000019}},{"attributes":{"ID":353608,"DIS_CODE":0,"TOWNNAME":"新化區","LI":"協興里","LIN":"6鄰","STREET":"忠孝路","SECT":" ","MAREA":" ","LANE":"１９０巷","ALLEY":" ","HOUSE_NO":"３號","E_COORD97":178398.82000000001,"N_COORD97":2548616.25,"ADDRESS":"忠孝路１９０巷３號","OBJECTID":353599},"geometry":{"x":178398.8200000003,"y":2548616.2499999981}},{"attributes":{"ID":353609,"DIS_CODE":0,"TOWNNAME":"新化區","LI":"協興里","LIN":"6鄰","STREET":"忠孝路","SECT":" ","MAREA":" ","LANE":"１９０巷","ALLEY":" ","HOUSE_NO":"１１號","E_COORD97":178372.37,"N_COORD97":2548636.25,"ADDRESS":"忠孝路１９０巷１１號","OBJECTID":353600},"geometry":{"x":178372.37000000104,"y":2548636.25}}]}