{"displayFieldName":"TOWNNAME","fieldAliases":{"ID":"ID","DIS_CODE":"DIS_CODE","TOWNNAME":"TOWNNAME","LI":"LI","LIN":"LIN","STREET":"STREET","SECT":"SECT","MAREA":"MAREA","LANE":"LANE","ALLEY":"ALLEY","HOUSE_NO":"HOUSE_NO","E_COORD97":"E_COORD97","N_COORD97":"N_COORD97","ADDRESS":"ADDRESS","OBJECTID":"OBJECTID"},"geometryType":"esriGeometryPoint","spatialReference":{"wkid":102443,"latestWkid":3826},"fields":[{"name":"ID","type":"esriFieldTypeDouble","alias":"ID"},{"name":"DIS_CODE","type":"esriFieldTypeInteger","alias":"DIS_CODE"},{"name":"TOWNNAME","type":"esriFieldTypeString","alias":"TOWNNAME","length":8},{"name":"LI","type":"esriFieldTypeString","alias":"LI","length":8},{"name":"LIN","type":"esriFieldTypeString","alias":"LIN","length":12},{"name":"STREET","type":"esriFieldTypeString","alias":"STREET","length":20},{"name":"SECT","type":"esriFieldTypeString","alias":"SECT","length":8},{"name":"MAREA","type":"esriFieldTypeString","alias":"MAREA","length":12},{"name":"LANE","type":"esriFieldTypeString","alias":"LANE","length":10},{"name":"ALLEY","type":"esriFieldTypeString","alias":"ALLEY","length":10},{"name":"HOUSE_NO","type":"esriFieldTypeString","alias":"HOUSE_NO","length":20},{"name":"E_COORD97","type":"esriFieldTypeDouble","alias":"E_COORD97"},{"name":"N_COORD97","type":"esriFieldTypeDouble","alias":"N_COORD97"},{"name":"ADDRESS","type":"esriFieldTypeString","alias":"ADDRESS","length":50},{"name":"OBJECTID","type":"esriFieldTypeOID","alias":"OBJECTID"}],"features":[{"attributes":{"ID":268606,"DIS_CODE":0,"TOWNNAME":"麻豆區","LI":"港尾里","LIN":"3鄰","STREET":" ","SECT":" ","MAREA":"姓陳寮","LANE":" ","ALLEY":" ","HOUSE_NO":"１３號之１","E_COORD97":168801.09,"N_COORD97":2566762.6499999999,"ADDRESS":"姓陳寮１３號之１","OBJECTID":268601},"geometry":{"x":168801.09000000078,"y":2566762.6499999985}},{"attributes":{"ID":268607,"DIS_CODE":0,"TOWNNAME":"麻豆區","LI":"港尾里","LIN":"3鄰","STREET":" ","SECT":" ","MAREA":"姓陳寮","LANE":" ","ALLEY":" ","HOUSE_NO":"１３號之３","E_COORD97":168822.10999999999,"N_COORD97":2566785.2799999998,"ADDRESS":"姓陳寮１３號之３","OBJECTID":268602},"geometry":{"x":168822.11000000127,"y":2566785.2800000012}},{"attributes":{"ID":268608,"DIS_CODE":0,"TOWNNAME":"麻豆區","LI":"港尾里","LIN":"3鄰","STREET":" ","SECT":" ","MAREA":"姓陳寮","LANE":" ","ALLEY":" ","HOUSE_NO":"１３號","E_COORD97":168802.75,"N_COORD97":2566788.4500000002,"ADDRESS":"姓陳寮１３號","OBJECTID":268603},"geometry":{"x":168802.75,"y":2566788.4500000011}},{"attributes":{"ID":268609,"DIS_CODE":0,"TOWNNAME":"北區","LI":"文元里","LIN":"17鄰","STREET":"文成路","SECT":" ","MAREA":" ","LANE":"７５０巷","ALLEY":" ","HOUSE_NO":"１５３號","E_COORD97":167601.06,"N_COORD97":2546121.9700000002,"ADDRESS":"文成路７５０巷１５３號","OBJECTID":268604},"geometry":{"x":167601.06000000052,"y":2546121.9700000025}},{"attributes":{"ID":268610,"DIS_CODE":0,"TOWNNAME":"麻豆區","LI":"港尾里","LIN":"3鄰","STREET":" ","SECT":" ","MAREA":"姓陳寮","LANE":" ","ALLEY":" ","HOUSE_NO":"１７號之１","E_COORD97":168792.42000000001,"N_COORD97":2566743.8300000001,"ADDRESS":"姓陳寮１７號之１","OBJECTID":268605},"geometry":{"x":168792.42000000086,"y":2566743.8300000001}},{"attributes":{"ID":268611,"DIS_CODE":0,"TOWNNAME":"麻豆區","LI":"港尾里","LIN":"3鄰","STREET":" ","SECT":" ","MAREA":"姓陳寮","LANE":" ","ALLEY":" ","HOUSE_NO":"１７號之２","E_COORD97":168790.29999999999,"N_COORD97":2566720.9500000002,"ADDRESS":"姓陳寮１７號之２","OBJECTID":268606},"geometry":{"x":168790.29999999981,"y":2566720.9499999993}},{"attributes":{"ID":268612,"DIS_CODE":0,"TOWNNAME":"麻豆區","LI":"港尾里","LIN":"3鄰","STREET":" ","SECT":" ","MAREA":"姓陳寮","LANE":" ","ALLEY":" ","HOUSE_NO":"１７號之３","E_COORD97":168806.70000000001,"N_COORD97":2566701.0299999998,"ADDRESS":"姓陳寮１７號之３","OBJECTID":268607},"geometry":{"x":168806.70000000019,"y":2566701.0299999993}},{"attributes":{"ID":268613,"DIS_CODE":0,"TOWNNAME":"麻豆區","LI":"港尾里","LIN":"3鄰","STREET":" ","SECT":" ","MAREA":"姓陳寮","LANE":" ","ALLEY":" ","HOUSE_NO":"１７號","E_COORD97":168811.89000000001,"N_COORD97":2566741.7400000002,"ADDRESS":"姓陳寮１７號","OBJECTID":268608},"geometry":{"x":168811.88999999966,"y":2566741.7400000039}},{"attributes":{"ID":268614,"DIS_CODE":0,"TOWNNAME":"仁德區","LI":"後壁里","LIN":"24鄰","STREET":"德洋路","SECT":" ","MAREA":" ","LANE":" ","ALLEY":" ","HOUSE_NO":"１９號","E_COORD97":173171.89000000001,"N_COORD97":2538994.2799999998,"ADDRESS":"德洋路１９號","OBJECTID":268609},"geometry":{"x":173171.88999999966,"y":2538994.2800000012}},{"attributes":{"ID":268615,"DIS_CODE":0,"TOWNNAME":"仁德區","LI":"仁愛里","LIN":"27鄰","STREET":"大同路","SECT":"三段","MAREA":" ","LANE":" ","ALLEY":" ","HOUSE_NO":"３０９號","E_COORD97":169801.41876599999,"N_COORD97":2539442.48416,"ADDRESS":"大同路三段３０９號","OBJECTID":268610},"geometry":{"x":169801.41876600031,"y":2539442.4841600023}},{"attributes":{"ID":268616,"DIS_CODE":0,"TOWNNAME":"仁德區","LI":"仁愛里","LIN":"27鄰","STREET":"大同路","SECT":"三段","MAREA":" ","LANE":" ","ALLEY":" ","HOUSE_NO":"３４９號","E_COORD97":169810.952231,"N_COORD97":2539355.06587,"ADDRESS":"大同路三段３４９號","OBJECTID":268611},"geometry":{"x":169810.95223100018,"y":2539355.065874001}},{"attributes":{"ID":268617,"DIS_CODE":0,"TOWNNAME":"麻豆區","LI":"港尾里","LIN":"3鄰","STREET":" ","SECT":" ","MAREA":"姓陳寮","LANE":" ","ALLEY":" ","HOUSE_NO":"１８號","E_COORD97":168768.16,"N_COORD97":2566753.29,"ADDRESS":"姓陳寮１８號","OBJECTID":268612},"geometry":{"x":168768.16000000015,"y":2566753.2899999991}},{"attributes":{"ID":268618,"DIS_CODE":0,"TOWNNAME":"仁德區","LI":"後壁里","LIN":"37鄰","STREET":"德洋一街","SECT":" ","MAREA":" ","LANE":" ","ALLEY":" ","HOUSE_NO":"５９號","E_COORD97":173146.59,"N_COORD97":2539207.7599999998,"ADDRESS":"德洋一街５９號","OBJECTID":268613},"geometry":{"x":173146.58999999985,"y":2539207.7599999979}},{"attributes":{"ID":268619,"DIS_CODE":0,"TOWNNAME":"北區","LI":"文元里","LIN":"17鄰","STREET":"文成路","SECT":" ","MAREA":" ","LANE":"７５０巷","ALLEY":" ","HOUSE_NO":"１５５號","E_COORD97":167595.01999999999,"N_COORD97":2546120.1000000001,"ADDRESS":"文成路７５０巷１５５號","OBJECTID":268614},"geometry":{"x":167595.01999999955,"y":2546120.1000000015}},{"attributes":{"ID":268620,"DIS_CODE":0,"TOWNNAME":"麻豆區","LI":"港尾里","LIN":"3鄰","STREET":" ","SECT":" ","MAREA":"姓陳寮","LANE":" ","ALLEY":" ","HOUSE_NO":"１號之１０","E_COORD97":169118.82000000001,"N_COORD97":2566706.0800000001,"ADDRESS":"姓陳寮１號之１０","OBJECTID":268615},"geometry":{"x":169118.82000000123,"y":2566706.0800000019}},{"attributes":{"ID":268621,"DIS_CODE":0,"TOWNNAME":"麻豆區","LI":"東角里","LIN":"3鄰","STREET":"忠孝路","SECT":" ","MAREA":" ","LANE":" ","ALLEY":" ","HOUSE_NO":"３８號","E_COORD97":173581.35000000001,"N_COORD97":2564977.8500000001,"ADDRESS":"忠孝路３８號","OBJECTID":268616},"geometry":{"x":173581.35000000056,"y":2564977.8500000015}},{"attributes":{"ID":268622,"DIS_CODE":0,"TOWNNAME":"仁德區","LI":"仁愛里","LIN":"27鄰","STREET":"大同路","SECT":"三段","MAREA":" ","LANE":" ","ALLEY":" ","HOUSE_NO":"３２９號","E_COORD97":169806.29142600001,"N_COORD97":2539396.5525199999,"ADDRESS":"大同路三段３２９號","OBJECTID":268617},"geometry":{"x":169806.29142600019,"y":2539396.5525190048}},{"attributes":{"ID":268623,"DIS_CODE":0,"TOWNNAME":"仁德區","LI":"仁愛里","LIN":"27鄰","STREET":"大同路","SECT":"三段","MAREA":" ","LANE":" ","ALLEY":" ","HOUSE_NO":"３３１號","E_COORD97":169807.13884500001,"N_COORD97":2539390.4141899999,"ADDRESS":"大同路三段３３１號","OBJECTID":268618},"geometry":{"x":169807.13884500042,"y":2539390.4141890015}},{"attributes":{"ID":268624,"DIS_CODE":0,"TOWNNAME":"北區","LI":"文元里","LIN":"17鄰","STREET":"文成路","SECT":" ","MAREA":" ","LANE":"７５０巷","ALLEY":" ","HOUSE_NO":"１５７號","E_COORD97":167589.81,"N_COORD97":2546121.77,"ADDRESS":"文成路７５０巷１５７號","OBJECTID":268619},"geometry":{"x":167589.80999999959,"y":2546121.7700000014}},{"attributes":{"ID":268625,"DIS_CODE":0,"TOWNNAME":"麻豆區","LI":"港尾里","LIN":"3鄰","STREET":" ","SECT":" ","MAREA":"姓陳寮","LANE":" ","ALLEY":" ","HOUSE_NO":"７號","E_COORD97":168769.69,"N_COORD97":2566832.8900000001,"ADDRESS":"姓陳寮７號","OBJECTID":268620},"geometry":{"x":168769.69000000041,"y":2566832.8900000043}},{"attributes":{"ID":268626,"DIS_CODE":0,"TOWNNAME":"東山區","LI":"科里里","LIN":"3鄰","STREET":" ","SECT":" ","MAREA":"下庄子","LANE":" ","ALLEY":" ","HOUSE_NO":"２７號之１","E_COORD97":189533,"N_COORD97":2578381.7400000002,"ADDRESS":"下庄子２７號之１","OBJECTID":268621},"geometry":{"x":189533,"y":2578381.7400000021}},{"attributes":{"ID":268627,"DIS_CODE":0,"TOWNNAME":"北區","LI":"文元里","LIN":"17鄰","STREET":"文成路","SECT":" ","MAREA":" ","LANE":"７５０巷","ALLEY":" ","HOUSE_NO":"１５９號","E_COORD97":167584.60999999999,"N_COORD97":2546120.3100000001,"ADDRESS":"文成路７５０巷１５９號","OBJECTID":268622},"geometry":{"x":167584.61000000127,"y":2546120.3100000005}},{"attributes":{"ID":268628,"DIS_CODE":0,"TOWNNAME":"仁德區","LI":"中生里","LIN":"7鄰","STREET":" ","SECT":" ","MAREA":"中洲","LANE":" ","ALLEY":" ","HOUSE_NO":"１３４號之３","E_COORD97":172964.19466199999,"N_COORD97":2534117.0180000002,"ADDRESS":"中洲１３４號之３","OBJECTID":268623},"geometry":{"x":172964.19466200098,"y":2534117.0180009995}},{"attributes":{"ID":268629,"DIS_CODE":0,"TOWNNAME":"白河區","LI":"仙草里","LIN":"21鄰","STREET":" ","SECT":" ","MAREA":"仙草","LANE":" ","ALLEY":" ","HOUSE_NO":"１４８號","E_COORD97":196851.07000000001,"N_COORD97":2582263.8799999999,"ADDRESS":"仙草１４８號","OBJECTID":268624},"geometry":{"x":196851.0700000003,"y":2582263.8799999971}},{"attributes":{"ID":268630,"DIS_CODE":0,"TOWNNAME":"仁德區","LI":"仁愛里","LIN":"27鄰","STREET":"亞航街","SECT":" ","MAREA":" ","LANE":" ","ALLEY":" ","HOUSE_NO":"４１號","E_COORD97":169891.994075,"N_COORD97":2539247.6137000001,"ADDRESS":"亞航街４１號","OBJECTID":268625},"geometry":{"x":169891.99407500122,"y":2539247.6136990003}},{"attributes":{"ID":268631,"DIS_CODE":0,"TOWNNAME":"北區","LI":"文元里","LIN":"17鄰","STREET":"文成路","SECT":" ","MAREA":" ","LANE":"７５０巷","ALLEY":" ","HOUSE_NO":"１６１號","E_COORD97":167578.98000000001,"N_COORD97":2546122.1800000002,"ADDRESS":"文成路７５０巷１６１號","OBJECTID":268626},"geometry":{"x":167578.98000000138,"y":2546122.1800000016}},{"attributes":{"ID":268632,"DIS_CODE":0,"TOWNNAME":"北區","LI":"文元里","LIN":"17鄰","STREET":"文成路","SECT":" ","MAREA":" ","LANE":"７５０巷","ALLEY":" ","HOUSE_NO":"２２１號","E_COORD97":167605.04999999999,"N_COORD97":2546175.8999999999,"ADDRESS":"文成路７５０巷２２１號","OBJECTID":268627},"geometry":{"x":167605.04999999981,"y":2546175.9000000022}},{"attributes":{"ID":268633,"DIS_CODE":0,"TOWNNAME":"北區","LI":"文元里","LIN":"17鄰","STREET":"文成路","SECT":" ","MAREA":" ","LANE":"７５０巷","ALLEY":" ","HOUSE_NO":"２２３號","E_COORD97":167604.07999999999,"N_COORD97":2546180.0299999998,"ADDRESS":"文成路７５０巷２２３號","OBJECTID":268628},"geometry":{"x":167604.08000000007,"y":2546180.0300000012}},{"attributes":{"ID":268634,"DIS_CODE":0,"TOWNNAME":"北區","LI":"文成里","LIN":"17鄰","STREET":"文賢路","SECT":" ","MAREA":" ","LANE":"２１８巷","ALLEY":" ","HOUSE_NO":"１１號","E_COORD97":167414.82999999999,"N_COORD97":2544970.5099999998,"ADDRESS":"文賢路２１８巷１１號","OBJECTID":268629},"geometry":{"x":167414.83000000101,"y":2544970.5100000016}},{"attributes":{"ID":268635,"DIS_CODE":0,"TOWNNAME":"北區","LI":"文成里","LIN":"17鄰","STREET":"文賢路","SECT":" ","MAREA":" ","LANE":"２１８巷","ALLEY":" ","HOUSE_NO":"１３號","E_COORD97":167419.75,"N_COORD97":2544972.48,"ADDRESS":"文賢路２１８巷１３號","OBJECTID":268630},"geometry":{"x":167419.75,"y":2544972.4800000004}},{"attributes":{"ID":268636,"DIS_CODE":0,"TOWNNAME":"鹽水區","LI":"大豐里","LIN":"2鄰","STREET":" ","SECT":" ","MAREA":"大豐","LANE":" ","ALLEY":" ","HOUSE_NO":"１０號","E_COORD97":170565.32999999999,"N_COORD97":2573924.8500000001,"ADDRESS":"大豐１０號","OBJECTID":268631},"geometry":{"x":170565.33000000007,"y":2573924.8500000034}},{"attributes":{"ID":268637,"DIS_CODE":0,"TOWNNAME":"北區","LI":"文成里","LIN":"17鄰","STREET":"文賢路","SECT":" ","MAREA":" ","LANE":"２１８巷","ALLEY":" ","HOUSE_NO":"１５號","E_COORD97":167423.67999999999,"N_COORD97":2544973.9500000002,"ADDRESS":"文賢路２１８巷１５號","OBJECTID":268632},"geometry":{"x":167423.68000000063,"y":2544973.9500000011}},{"attributes":{"ID":268638,"DIS_CODE":0,"TOWNNAME":"北區","LI":"文成里","LIN":"17鄰","STREET":"文賢路","SECT":" ","MAREA":" ","LANE":"２１８巷","ALLEY":" ","HOUSE_NO":"１７號","E_COORD97":167428.60000000001,"N_COORD97":2544975.9100000001,"ADDRESS":"文賢路２１８巷１７號","OBJECTID":268633},"geometry":{"x":167428.59999999963,"y":2544975.910000002}},{"attributes":{"ID":268639,"DIS_CODE":0,"TOWNNAME":"六甲區","LI":"大丘里","LIN":"3鄰","STREET":" ","SECT":" ","MAREA":"嶺頂","LANE":" ","ALLEY":" ","HOUSE_NO":"１７號","E_COORD97":192635.73000000001,"N_COORD97":2569754.3300000001,"ADDRESS":"嶺頂１７號","OBJECTID":268634},"geometry":{"x":192635.73000000045,"y":2569754.3300000001}},{"attributes":{"ID":268640,"DIS_CODE":0,"TOWNNAME":"北區","LI":"新勝里","LIN":"14鄰","STREET":"長榮路","SECT":"五段","MAREA":" ","LANE":"１７５巷","ALLEY":" ","HOUSE_NO":"１０號","E_COORD97":170025.82999999999,"N_COORD97":2545791.9900000002,"ADDRESS":"長榮路五段１７５巷１０號","OBJECTID":268635},"geometry":{"x":170025.83000000101,"y":2545791.9900000021}},{"attributes":{"ID":268641,"DIS_CODE":0,"TOWNNAME":"北區","LI":"重興里","LIN":"12鄰","STREET":"開南街","SECT":" ","MAREA":" ","LANE":"２１１巷","ALLEY":" ","HOUSE_NO":"２號","E_COORD97":170787.06,"N_COORD97":2545028.5499999998,"ADDRESS":"開南街２１１巷２號","OBJECTID":268636},"geometry":{"x":170787.05999999959,"y":2545028.5500000026}},{"attributes":{"ID":268642,"DIS_CODE":0,"TOWNNAME":"北區","LI":"六甲里","LIN":"12鄰","STREET":"和緯路","SECT":"二段","MAREA":" ","LANE":"３０巷","ALLEY":" ","HOUSE_NO":"１０號","E_COORD97":169040.85000000001,"N_COORD97":2545726,"ADDRESS":"和緯路二段３０巷１０號","OBJECTID":268637},"geometry":{"x":169040.84999999963,"y":2545725.9999999981}},{"attributes":{"ID":268643,"DIS_CODE":0,"TOWNNAME":"永康區","LI":"復華里","LIN":"17鄰","STREET":"國華街","SECT":" ","MAREA":" ","LANE":"１０２巷","ALLEY":" ","HOUSE_NO":"６３號三樓之３","E_COORD97":172874.54000000001,"N_COORD97":2546145.02,"ADDRESS":"國華街１０２巷６３號三樓之３","OBJECTID":268638},"geometry":{"x":172874.54000000004,"y":2546145.0199999996}},{"attributes":{"ID":268644,"DIS_CODE":0,"TOWNNAME":"永康區","LI":"復華里","LIN":"17鄰","STREET":"國華街","SECT":" ","MAREA":" ","LANE":"１０２巷","ALLEY":" ","HOUSE_NO":"６７號七樓之１","E_COORD97":172887.72,"N_COORD97":2546139.23,"ADDRESS":"國華街１０２巷６７號七樓之１","OBJECTID":268639},"geometry":{"x":172887.71999999974,"y":2546139.2300000023}},{"attributes":{"ID":268645,"DIS_CODE":0,"TOWNNAME":"北區","LI":"國興里","LIN":"3鄰","STREET":"南園街","SECT":" ","MAREA":" ","LANE":"２９巷","ALLEY":" ","HOUSE_NO":"１１號","E_COORD97":170510.10000000001,"N_COORD97":2545464.3300000001,"ADDRESS":"南園街２９巷１１號","OBJECTID":268640},"geometry":{"x":170510.09999999963,"y":2545464.3300000019}},{"attributes":{"ID":268646,"DIS_CODE":0,"TOWNNAME":"中西區","LI":"西湖里","LIN":"34鄰","STREET":"西湖街","SECT":" ","MAREA":" ","LANE":" ","ALLEY":" ","HOUSE_NO":"１６０號","E_COORD97":166352.73000000001,"N_COORD97":2544918.1499999999,"ADDRESS":"西湖街１６０號","OBJECTID":268641},"geometry":{"x":166352.73000000138,"y":2544918.1500000004}},{"attributes":{"ID":268647,"DIS_CODE":0,"TOWNNAME":"北區","LI":"國興里","LIN":"3鄰","STREET":"南園街","SECT":" ","MAREA":" ","LANE":" ","ALLEY":" ","HOUSE_NO":"１１號","E_COORD97":170444.91,"N_COORD97":2545481.3999999999,"ADDRESS":"南園街１１號","OBJECTID":268642},"geometry":{"x":170444.91000000201,"y":2545481.4000000022}},{"attributes":{"ID":268648,"DIS_CODE":0,"TOWNNAME":"東區","LI":"小東里","LIN":"14鄰","STREET":"光明街","SECT":" ","MAREA":" ","LANE":" ","ALLEY":" ","HOUSE_NO":"１４７號之４","E_COORD97":170918.51000000001,"N_COORD97":2544237.79,"ADDRESS":"光明街１４７號之４","OBJECTID":268643},"geometry":{"x":170918.51000000164,"y":2544237.7899999991}},{"attributes":{"ID":268649,"DIS_CODE":0,"TOWNNAME":"東區","LI":"小東里","LIN":"14鄰","STREET":"光明街","SECT":" ","MAREA":" ","LANE":" ","ALLEY":" ","HOUSE_NO":"１４７號之６","E_COORD97":170919.29999999999,"N_COORD97":2544229.96,"ADDRESS":"光明街１４７號之６","OBJECTID":268644},"geometry":{"x":170919.29999999981,"y":2544229.9600000028}},{"attributes":{"ID":268650,"DIS_CODE":0,"TOWNNAME":"東區","LI":"小東里","LIN":"14鄰","STREET":"光明街","SECT":" ","MAREA":" ","LANE":" ","ALLEY":" ","HOUSE_NO":"１４７號之１５","E_COORD97":170924.94,"N_COORD97":2544188.5299999998,"ADDRESS":"光明街１４７號之１５","OBJECTID":268645},"geometry":{"x":170924.94000000134,"y":2544188.5299999993}},{"attributes":{"ID":268651,"DIS_CODE":0,"TOWNNAME":"東區","LI":"小東里","LIN":"14鄰","STREET":"光明街","SECT":" ","MAREA":" ","LANE":" ","ALLEY":" ","HOUSE_NO":"１４７號之１２","E_COORD97":170924.16,"N_COORD97":2544200.27,"ADDRESS":"光明街１４７號之１２","OBJECTID":268646},"geometry":{"x":170924.16000000015,"y":2544200.2699999996}},{"attributes":{"ID":268652,"DIS_CODE":0,"TOWNNAME":"東區","LI":"小東里","LIN":"14鄰","STREET":"光明街","SECT":" ","MAREA":" ","LANE":" ","ALLEY":" ","HOUSE_NO":"１４７號之１３","E_COORD97":170924.94,"N_COORD97":2544196.0499999998,"ADDRESS":"光明街１４７號之１３","OBJECTID":268647},"geometry":{"x":170924.94000000134,"y":2544196.0500000007}},{"attributes":{"ID":268653,"DIS_CODE":0,"TOWNNAME":"東區","LI":"小東里","LIN":"14鄰","STREET":"光明街","SECT":" ","MAREA":" ","LANE":" ","ALLEY":" ","HOUSE_NO":"１４７號之１４","E_COORD97":170925.10000000001,"N_COORD97":2544192.7599999998,"ADDRESS":"光明街１４７號之１４","OBJECTID":268648},"geometry":{"x":170925.10000000056,"y":2544192.7600000016}},{"attributes":{"ID":268654,"DIS_CODE":0,"TOWNNAME":"東區","LI":"小東里","LIN":"14鄰","STREET":"光明街","SECT":" ","MAREA":" ","LANE":" ","ALLEY":" ","HOUSE_NO":"１４７號之１７","E_COORD97":170925.10000000001,"N_COORD97":2544180.7000000002,"ADDRESS":"光明街１４７號之１７","OBJECTID":268649},"geometry":{"x":170925.10000000056,"y":2544180.6999999993}},{"attributes":{"ID":268655,"DIS_CODE":0,"TOWNNAME":"東區","LI":"圍下里","LIN":"4鄰","STREET":"東榮街","SECT":" ","MAREA":" ","LANE":" ","ALLEY":" ","HOUSE_NO":"３號之４","E_COORD97":169588.37,"N_COORD97":2543490.6499999999,"ADDRESS":"東榮街３號之４","OBJECTID":268650},"geometry":{"x":169588.37000000011,"y":2543490.6500000004}},{"attributes":{"ID":268656,"DIS_CODE":0,"TOWNNAME":"東區","LI":"圍下里","LIN":"4鄰","STREET":"東榮街","SECT":" ","MAREA":" ","LANE":" ","ALLEY":" ","HOUSE_NO":"５號","E_COORD97":169567.51000000001,"N_COORD97":2543485.6299999999,"ADDRESS":"東榮街５號","OBJECTID":268651},"geometry":{"x":169567.51000000164,"y":2543485.629999999}},{"attributes":{"ID":268657,"DIS_CODE":0,"TOWNNAME":"東區","LI":"圍下里","LIN":"4鄰","STREET":"東榮街","SECT":" ","MAREA":" ","LANE":" ","ALLEY":" ","HOUSE_NO":"３號之５","E_COORD97":169591.31,"N_COORD97":2543489.23,"ADDRESS":"東榮街３號之５","OBJECTID":268652},"geometry":{"x":169591.31000000052,"y":2543489.2300000004}},{"attributes":{"ID":268658,"DIS_CODE":0,"TOWNNAME":"東區","LI":"小東里","LIN":"14鄰","STREET":"光明街","SECT":" ","MAREA":" ","LANE":" ","ALLEY":" ","HOUSE_NO":"１４５號之１","E_COORD97":170930.10000000001,"N_COORD97":2544267.7799999998,"ADDRESS":"光明街１４５號之１","OBJECTID":268653},"geometry":{"x":170930.10000000056,"y":2544267.7799999993}},{"attributes":{"ID":268659,"DIS_CODE":0,"TOWNNAME":"安南區","LI":"溪頂里","LIN":"24鄰","STREET":"郡安路","SECT":"四段","MAREA":" ","LANE":" ","ALLEY":" ","HOUSE_NO":"８１號","E_COORD97":169057.64000000001,"N_COORD97":2547600.04,"ADDRESS":"郡安路四段８１號","OBJECTID":268654},"geometry":{"x":169057.63999999966,"y":2547600.0400000028}},{"attributes":{"ID":268660,"DIS_CODE":0,"TOWNNAME":"安南區","LI":"淵東里","LIN":"16鄰","STREET":"智安一街","SECT":" ","MAREA":" ","LANE":" ","ALLEY":" ","HOUSE_NO":"３號","E_COORD97":165643.51999999999,"N_COORD97":2549947.02,"ADDRESS":"智安一街３號","OBJECTID":268655},"geometry":{"x":165643.52000000048,"y":2549947.0200000014}},{"attributes":{"ID":268661,"DIS_CODE":0,"TOWNNAME":"安南區","LI":"城南里","LIN":"16鄰","STREET":"青砂街","SECT":"一段","MAREA":" ","LANE":" ","ALLEY":" ","HOUSE_NO":"２９號","E_COORD97":160660.32000000001,"N_COORD97":2551508.4399999999,"ADDRESS":"青砂街一段２９號","OBJECTID":268656},"geometry":{"x":160660.3200000003,"y":2551508.4399999995}},{"attributes":{"ID":268662,"DIS_CODE":0,"TOWNNAME":"安南區","LI":"溪頂里","LIN":"24鄰","STREET":"郡安路","SECT":"四段","MAREA":" ","LANE":" ","ALLEY":" ","HOUSE_NO":"８２號","E_COORD97":169052.79000000001,"N_COORD97":2547599.5899999999,"ADDRESS":"郡安路四段８２號","OBJECTID":268657},"geometry":{"x":169052.79000000097,"y":2547599.5899999999}},{"attributes":{"ID":268663,"DIS_CODE":0,"TOWNNAME":"安南區","LI":"溪頂里","LIN":"24鄰","STREET":"郡安路","SECT":"四段","MAREA":" ","LANE":" ","ALLEY":" ","HOUSE_NO":"８３號","E_COORD97":169047.32000000001,"N_COORD97":2547599.5899999999,"ADDRESS":"郡安路四段８３號","OBJECTID":268658},"geometry":{"x":169047.32000000123,"y":2547599.5899999999}},{"attributes":{"ID":268664,"DIS_CODE":0,"TOWNNAME":"安南區","LI":"四草里","LIN":"4鄰","STREET":"大眾六街","SECT":" ","MAREA":" ","LANE":" ","ALLEY":" ","HOUSE_NO":"３０號","E_COORD97":160602.02011000001,"N_COORD97":2546469.2607800001,"ADDRESS":"大眾六街３０號","OBJECTID":268659},"geometry":{"x":160602.02010999992,"y":2546469.2607799992}},{"attributes":{"ID":268665,"DIS_CODE":0,"TOWNNAME":"永康區","LI":"復華里","LIN":"17鄰","STREET":"國華街","SECT":" ","MAREA":" ","LANE":"１０２巷","ALLEY":" ","HOUSE_NO":"６７號十樓之１","E_COORD97":172887.72,"N_COORD97":2546139.23,"ADDRESS":"國華街１０２巷６７號十樓之１","OBJECTID":268660},"geometry":{"x":172887.71999999974,"y":2546139.2300000023}},{"attributes":{"ID":268666,"DIS_CODE":0,"TOWNNAME":"永康區","LI":"復華里","LIN":"17鄰","STREET":"國華街","SECT":" ","MAREA":" ","LANE":"１０２巷","ALLEY":" ","HOUSE_NO":"６５號八樓之１","E_COORD97":172881.69,"N_COORD97":2546141.7799999998,"ADDRESS":"國華街１０２巷６５號八樓之１","OBJECTID":268661},"geometry":{"x":172881.69000000134,"y":2546141.7800000012}},{"attributes":{"ID":268667,"DIS_CODE":0,"TOWNNAME":"永康區","LI":"復華里","LIN":"17鄰","STREET":"國華街","SECT":" ","MAREA":" ","LANE":"１０２巷","ALLEY":" ","HOUSE_NO":"６５號七樓之２","E_COORD97":172881.82000000001,"N_COORD97":2546141.7799999998,"ADDRESS":"國華街１０２巷６５號七樓之２","OBJECTID":268662},"geometry":{"x":172881.82000000216,"y":2546141.7800000012}},{"attributes":{"ID":268668,"DIS_CODE":0,"TOWNNAME":"中西區","LI":"開山里","LIN":"17鄰","STREET":"大同路","SECT":"一段","MAREA":" ","LANE":"７０巷","ALLEY":" ","HOUSE_NO":"２３號三樓之２","E_COORD97":169073.64999999999,"N_COORD97":2543023.1699999999,"ADDRESS":"大同路一段７０巷２３號三樓之２","OBJECTID":268663},"geometry":{"x":169073.65000000037,"y":2543023.1700000018}},{"attributes":{"ID":268669,"DIS_CODE":0,"TOWNNAME":"中西區","LI":"開山里","LIN":"17鄰","STREET":"大同路","SECT":"一段","MAREA":" ","LANE":"７０巷","ALLEY":" ","HOUSE_NO":"２３號三樓之３","E_COORD97":169073.64999999999,"N_COORD97":2543023.1699999999,"ADDRESS":"大同路一段７０巷２３號三樓之３","OBJECTID":268664},"geometry":{"x":169073.65000000037,"y":2543023.1700000018}},{"attributes":{"ID":268670,"DIS_CODE":0,"TOWNNAME":"中西區","LI":"開山里","LIN":"17鄰","STREET":"大同路","SECT":"一段","MAREA":" ","LANE":"７０巷","ALLEY":" ","HOUSE_NO":"２３號五樓之１","E_COORD97":169073.64999999999,"N_COORD97":2543023.1699999999,"ADDRESS":"大同路一段７０巷２３號五樓之１","OBJECTID":268665},"geometry":{"x":169073.65000000037,"y":2543023.1700000018}},{"attributes":{"ID":268671,"DIS_CODE":0,"TOWNNAME":"永康區","LI":"五王里","LIN":"17鄰","STREET":"成功路","SECT":" ","MAREA":" ","LANE":"２０４巷","ALLEY":" ","HOUSE_NO":"３１號四樓之１","E_COORD97":171477.39000000001,"N_COORD97":2545766.8999999999,"ADDRESS":"成功路２０４巷３１號四樓之１","OBJECTID":268666},"geometry":{"x":171477.3900000006,"y":2545766.9000000004}},{"attributes":{"ID":268672,"DIS_CODE":0,"TOWNNAME":"永康區","LI":"五王里","LIN":"17鄰","STREET":"成功路","SECT":" ","MAREA":" ","LANE":"２０４巷","ALLEY":" ","HOUSE_NO":"３１號七樓之６","E_COORD97":171477.5,"N_COORD97":2545766.8999999999,"ADDRESS":"成功路２０４巷３１號七樓之６","OBJECTID":268667},"geometry":{"x":171477.5,"y":2545766.9000000004}},{"attributes":{"ID":268673,"DIS_CODE":0,"TOWNNAME":"永康區","LI":"五王里","LIN":"17鄰","STREET":"成功路","SECT":" ","MAREA":" ","LANE":"２０４巷","ALLEY":" ","HOUSE_NO":"３１號五樓之５","E_COORD97":171477.54999999999,"N_COORD97":2545766.8999999999,"ADDRESS":"成功路２０４巷３１號五樓之５","OBJECTID":268668},"geometry":{"x":171477.54999999981,"y":2545766.9000000004}},{"attributes":{"ID":268674,"DIS_CODE":0,"TOWNNAME":"永康區","LI":"五王里","LIN":"17鄰","STREET":"成功路","SECT":" ","MAREA":" ","LANE":"２０４巷","ALLEY":" ","HOUSE_NO":"３１號七樓之２","E_COORD97":171477.53,"N_COORD97":2545766.8999999999,"ADDRESS":"成功路２０４巷３１號七樓之２","OBJECTID":268669},"geometry":{"x":171477.53000000026,"y":2545766.9000000004}},{"attributes":{"ID":268675,"DIS_CODE":0,"TOWNNAME":"永康區","LI":"五王里","LIN":"17鄰","STREET":"成功路","SECT":" ","MAREA":" ","LANE":"２０４巷","ALLEY":" ","HOUSE_NO":"３１號七樓之３","E_COORD97":171477.48999999999,"N_COORD97":2545766.8999999999,"ADDRESS":"成功路２０４巷３１號七樓之３","OBJECTID":268670},"geometry":{"x":171477.49000000115,"y":2545766.9000000004}},{"attributes":{"ID":268676,"DIS_CODE":0,"TOWNNAME":"永康區","LI":"五王里","LIN":"17鄰","STREET":"成功路","SECT":" ","MAREA":" ","LANE":"２０４巷","ALLEY":" ","HOUSE_NO":"３１號六樓之４","E_COORD97":171477.42000000001,"N_COORD97":2545766.8999999999,"ADDRESS":"成功路２０４巷３１號六樓之４","OBJECTID":268671},"geometry":{"x":171477.42000000086,"y":2545766.9000000004}},{"attributes":{"ID":268677,"DIS_CODE":0,"TOWNNAME":"永康區","LI":"五王里","LIN":"17鄰","STREET":"成功路","SECT":" ","MAREA":" ","LANE":"２０４巷","ALLEY":" ","HOUSE_NO":"３１號五樓之１","E_COORD97":171477.39000000001,"N_COORD97":2545766.8999999999,"ADDRESS":"成功路２０４巷３１號五樓之１","OBJECTID":268672},"geometry":{"x":171477.3900000006,"y":2545766.9000000004}},{"attributes":{"ID":268678,"DIS_CODE":0,"TOWNNAME":"永康區","LI":"五王里","LIN":"17鄰","STREET":"成功路","SECT":" ","MAREA":" ","LANE":"２０４巷","ALLEY":" ","HOUSE_NO":"３１號三樓之６","E_COORD97":171477.5,"N_COORD97":2545766.8999999999,"ADDRESS":"成功路２０４巷３１號三樓之６","OBJECTID":268673},"geometry":{"x":171477.5,"y":2545766.9000000004}},{"attributes":{"ID":268679,"DIS_CODE":0,"TOWNNAME":"仁德區","LI":"仁愛里","LIN":"27鄰","STREET":"大同路","SECT":"三段","MAREA":" ","LANE":" ","ALLEY":" ","HOUSE_NO":"１４７號","E_COORD97":169762.172238,"N_COORD97":2539817.2615299998,"ADDRESS":"大同路三段１４７號","OBJECTID":268674},"geometry":{"x":169762.1722380016,"y":2539817.2615339998}},{"attributes":{"ID":268680,"DIS_CODE":0,"TOWNNAME":"永康區","LI":"五王里","LIN":"17鄰","STREET":"成功路","SECT":" ","MAREA":" ","LANE":"２０４巷","ALLEY":" ","HOUSE_NO":"３１號四樓之４","E_COORD97":171477.42000000001,"N_COORD97":2545766.8999999999,"ADDRESS":"成功路２０４巷３１號四樓之４","OBJECTID":268675},"geometry":{"x":171477.42000000086,"y":2545766.9000000004}},{"attributes":{"ID":268681,"DIS_CODE":0,"TOWNNAME":"永康區","LI":"五王里","LIN":"17鄰","STREET":"成功路","SECT":" ","MAREA":" ","LANE":"２０４巷","ALLEY":" ","HOUSE_NO":"３１號五樓之２","E_COORD97":171477.53,"N_COORD97":2545766.8999999999,"ADDRESS":"成功路２０４巷３１號五樓之２","OBJECTID":268676},"geometry":{"x":171477.53000000026,"y":2545766.9000000004}},{"attributes":{"ID":268682,"DIS_CODE":0,"TOWNNAME":"永康區","LI":"五王里","LIN":"17鄰","STREET":"成功路","SECT":" ","MAREA":" ","LANE":"２０４巷","ALLEY":" ","HOUSE_NO":"３１號六樓之６","E_COORD97":171477.5,"N_COORD97":2545766.8999999999,"ADDRESS":"成功路２０４巷３１號六樓之６","OBJECTID":268677},"geometry":{"x":171477.5,"y":2545766.9000000004}},{"attributes":{"ID":268683,"DIS_CODE":0,"TOWNNAME":"永康區","LI":"復華里","LIN":"17鄰","STREET":"國華街","SECT":" ","MAREA":" ","LANE":"１０２巷","ALLEY":" ","HOUSE_NO":"６７號三樓之３","E_COORD97":172887.82000000001,"N_COORD97":2546139.23,"ADDRESS":"國華街１０２巷６７號三樓之３","OBJECTID":268678},"geometry":{"x":172887.8200000003,"y":2546139.2300000023}},{"attributes":{"ID":268684,"DIS_CODE":0,"TOWNNAME":"永康區","LI":"復華里","LIN":"17鄰","STREET":"國華街","SECT":" ","MAREA":" ","LANE":"１０２巷","ALLEY":" ","HOUSE_NO":"６３號九樓之１","E_COORD97":172874.44,"N_COORD97":2546145.02,"ADDRESS":"國華街１０２巷６３號九樓之１","OBJECTID":268679},"geometry":{"x":172874.44000000134,"y":2546145.0199999996}},{"attributes":{"ID":268685,"DIS_CODE":0,"TOWNNAME":"永康區","LI":"復華里","LIN":"17鄰","STREET":"國華街","SECT":" ","MAREA":" ","LANE":"１０２巷","ALLEY":" ","HOUSE_NO":"６３號三樓之１","E_COORD97":172874.44,"N_COORD97":2546145.02,"ADDRESS":"國華街１０２巷６３號三樓之１","OBJECTID":268680},"geometry":{"x":172874.44000000134,"y":2546145.0199999996}},{"attributes":{"ID":268686,"DIS_CODE":0,"TOWNNAME":"仁德區","LI":"太子里","LIN":"17鄰","STREET":"太興路","SECT":" ","MAREA":" ","LANE":"１１７巷","ALLEY":" ","HOUSE_NO":"２１號三樓","E_COORD97":174022.04999999999,"N_COORD97":2543574.25,"ADDRESS":"太興路１１７巷２１號三樓","OBJECTID":268681},"geometry":{"x":174022.04999999888,"y":2543574.25}},{"attributes":{"ID":268687,"DIS_CODE":0,"TOWNNAME":"東區","LI":"新東里","LIN":"17鄰","STREET":"裕豐街","SECT":" ","MAREA":" ","LANE":"１６１巷","ALLEY":" ","HOUSE_NO":"２０號三樓","E_COORD97":170706.82999999999,"N_COORD97":2543139.23,"ADDRESS":"裕豐街１６１巷２０號三樓","OBJECTID":268682},"geometry":{"x":170706.83000000101,"y":2543139.2300000023}},{"attributes":{"ID":268688,"DIS_CODE":0,"TOWNNAME":"東區","LI":"新東里","LIN":"17鄰","STREET":"裕豐街","SECT":" ","MAREA":" ","LANE":"１６１巷","ALLEY":" ","HOUSE_NO":"２０號二樓","E_COORD97":170706.82999999999,"N_COORD97":2543139.23,"ADDRESS":"裕豐街１６１巷２０號二樓","OBJECTID":268683},"geometry":{"x":170706.83000000101,"y":2543139.2300000023}},{"attributes":{"ID":268689,"DIS_CODE":0,"TOWNNAME":"東區","LI":"新東里","LIN":"17鄰","STREET":"裕豐街","SECT":" ","MAREA":" ","LANE":"１６１巷","ALLEY":" ","HOUSE_NO":"２０號五樓","E_COORD97":170706.82999999999,"N_COORD97":2543139.23,"ADDRESS":"裕豐街１６１巷２０號五樓","OBJECTID":268684},"geometry":{"x":170706.83000000101,"y":2543139.2300000023}},{"attributes":{"ID":268690,"DIS_CODE":0,"TOWNNAME":"仁德區","LI":"後壁里","LIN":"24鄰","STREET":"德洋路","SECT":" ","MAREA":" ","LANE":" ","ALLEY":" ","HOUSE_NO":"２４號","E_COORD97":173144.09,"N_COORD97":2539029.2599999998,"ADDRESS":"德洋路２４號","OBJECTID":268685},"geometry":{"x":173144.09000000078,"y":2539029.2600000016}},{"attributes":{"ID":268691,"DIS_CODE":0,"TOWNNAME":"永康區","LI":"五王里","LIN":"17鄰","STREET":"成功路","SECT":" ","MAREA":" ","LANE":"２０４巷","ALLEY":" ","HOUSE_NO":"３１號五樓之３","E_COORD97":171477.48999999999,"N_COORD97":2545766.8999999999,"ADDRESS":"成功路２０４巷３１號五樓之３","OBJECTID":268686},"geometry":{"x":171477.49000000115,"y":2545766.9000000004}},{"attributes":{"ID":268692,"DIS_CODE":0,"TOWNNAME":"永康區","LI":"五王里","LIN":"17鄰","STREET":"成功路","SECT":" ","MAREA":" ","LANE":"２０４巷","ALLEY":" ","HOUSE_NO":"３１號七樓之１","E_COORD97":171477.39000000001,"N_COORD97":2545766.8999999999,"ADDRESS":"成功路２０４巷３１號七樓之１","OBJECTID":268687},"geometry":{"x":171477.3900000006,"y":2545766.9000000004}},{"attributes":{"ID":268693,"DIS_CODE":0,"TOWNNAME":"永康區","LI":"五王里","LIN":"17鄰","STREET":"成功路","SECT":" ","MAREA":" ","LANE":"２０４巷","ALLEY":" ","HOUSE_NO":"３１號六樓之１","E_COORD97":171477.39000000001,"N_COORD97":2545766.8999999999,"ADDRESS":"成功路２０４巷３１號六樓之１","OBJECTID":268688},"geometry":{"x":171477.3900000006,"y":2545766.9000000004}},{"attributes":{"ID":268694,"DIS_CODE":0,"TOWNNAME":"永康區","LI":"五王里","LIN":"17鄰","STREET":"成功路","SECT":" ","MAREA":" ","LANE":"２０４巷","ALLEY":" ","HOUSE_NO":"３１號四樓之３","E_COORD97":171477.48999999999,"N_COORD97":2545766.8999999999,"ADDRESS":"成功路２０４巷３１號四樓之３","OBJECTID":268689},"geometry":{"x":171477.49000000115,"y":2545766.9000000004}},{"attributes":{"ID":268695,"DIS_CODE":0,"TOWNNAME":"永康區","LI":"五王里","LIN":"17鄰","STREET":"成功路","SECT":" ","MAREA":" ","LANE":"２０４巷","ALLEY":" ","HOUSE_NO":"３１號四樓之５","E_COORD97":171477.54999999999,"N_COORD97":2545766.8999999999,"ADDRESS":"成功路２０４巷３１號四樓之５","OBJECTID":268690},"geometry":{"x":171477.54999999981,"y":2545766.9000000004}},{"attributes":{"ID":268696,"DIS_CODE":0,"TOWNNAME":"中西區","LI":"藥王里","LIN":"17鄰","STREET":"民權路","SECT":"三段","MAREA":" ","LANE":"４００巷","ALLEY":" ","HOUSE_NO":"１１號七樓","E_COORD97":166892.64999999999,"N_COORD97":2544406.0499999998,"ADDRESS":"民權路三段４００巷１１號七樓","OBJECTID":268691},"geometry":{"x":166892.6500000013,"y":2544406.0500000026}},{"attributes":{"ID":268697,"DIS_CODE":0,"TOWNNAME":"中西區","LI":"藥王里","LIN":"17鄰","STREET":"民權路","SECT":"三段","MAREA":" ","LANE":"４００巷","ALLEY":" ","HOUSE_NO":"１１號九樓","E_COORD97":166892.64999999999,"N_COORD97":2544406.0499999998,"ADDRESS":"民權路三段４００巷１１號九樓","OBJECTID":268692},"geometry":{"x":166892.6500000013,"y":2544406.0500000026}},{"attributes":{"ID":268698,"DIS_CODE":0,"TOWNNAME":"中西區","LI":"藥王里","LIN":"17鄰","STREET":"民權路","SECT":"三段","MAREA":" ","LANE":"４００巷","ALLEY":" ","HOUSE_NO":"１１號二樓","E_COORD97":166892.64999999999,"N_COORD97":2544406.0499999998,"ADDRESS":"民權路三段４００巷１１號二樓","OBJECTID":268693},"geometry":{"x":166892.6500000013,"y":2544406.0500000026}},{"attributes":{"ID":268699,"DIS_CODE":0,"TOWNNAME":"中西區","LI":"藥王里","LIN":"17鄰","STREET":"民權路","SECT":"三段","MAREA":" ","LANE":"４００巷","ALLEY":" ","HOUSE_NO":"３號三樓","E_COORD97":166859.47,"N_COORD97":2544422.1000000001,"ADDRESS":"民權路三段４００巷３號三樓","OBJECTID":268694},"geometry":{"x":166859.47000000067,"y":2544422.0999999996}},{"attributes":{"ID":268700,"DIS_CODE":0,"TOWNNAME":"中西區","LI":"藥王里","LIN":"17鄰","STREET":"民權路","SECT":"三段","MAREA":" ","LANE":"４００巷","ALLEY":" ","HOUSE_NO":"３號五樓","E_COORD97":166859.47,"N_COORD97":2544422.1000000001,"ADDRESS":"民權路三段４００巷３號五樓","OBJECTID":268695},"geometry":{"x":166859.47000000067,"y":2544422.0999999996}},{"attributes":{"ID":268701,"DIS_CODE":0,"TOWNNAME":"中西區","LI":"藥王里","LIN":"17鄰","STREET":"民權路","SECT":"三段","MAREA":" ","LANE":"４００巷","ALLEY":" ","HOUSE_NO":"３號六樓","E_COORD97":166859.47,"N_COORD97":2544422.1000000001,"ADDRESS":"民權路三段４００巷３號六樓","OBJECTID":268696},"geometry":{"x":166859.47000000067,"y":2544422.0999999996}},{"attributes":{"ID":268702,"DIS_CODE":0,"TOWNNAME":"中西區","LI":"藥王里","LIN":"17鄰","STREET":"民權路","SECT":"三段","MAREA":" ","LANE":"４００巷","ALLEY":" ","HOUSE_NO":"３號四樓","E_COORD97":166859.47,"N_COORD97":2544422.1000000001,"ADDRESS":"民權路三段４００巷３號四樓","OBJECTID":268697},"geometry":{"x":166859.47000000067,"y":2544422.0999999996}},{"attributes":{"ID":268703,"DIS_CODE":0,"TOWNNAME":"中西區","LI":"藥王里","LIN":"17鄰","STREET":"民權路","SECT":"三段","MAREA":" ","LANE":"４００巷","ALLEY":" ","HOUSE_NO":"５號七樓","E_COORD97":166867.37,"N_COORD97":2544418.1499999999,"ADDRESS":"民權路三段４００巷５號七樓","OBJECTID":268698},"geometry":{"x":166867.37000000104,"y":2544418.1500000022}},{"attributes":{"ID":268704,"DIS_CODE":0,"TOWNNAME":"中西區","LI":"藥王里","LIN":"17鄰","STREET":"民權路","SECT":"三段","MAREA":" ","LANE":"４００巷","ALLEY":" ","HOUSE_NO":"５號九樓","E_COORD97":166867.37,"N_COORD97":2544418.1499999999,"ADDRESS":"民權路三段４００巷５號九樓","OBJECTID":268699},"geometry":{"x":166867.37000000104,"y":2544418.1500000022}},{"attributes":{"ID":268705,"DIS_CODE":0,"TOWNNAME":"仁德區","LI":"一甲里","LIN":"1鄰","STREET":"中正路","SECT":"三段","MAREA":" ","LANE":"１４７巷","ALLEY":" ","HOUSE_NO":"３２號","E_COORD97":173337.51999999999,"N_COORD97":2541797.02,"ADDRESS":"中正路三段１４７巷３２號","OBJECTID":268700},"geometry":{"x":173337.52000000048,"y":2541797.0200000014}},{"attributes":{"ID":268706,"DIS_CODE":0,"TOWNNAME":"仁德區","LI":"新田里","LIN":"12鄰","STREET":"民安路","SECT":"一段","MAREA":" ","LANE":" ","ALLEY":" ","HOUSE_NO":"４０９號","E_COORD97":173089.32000000001,"N_COORD97":2539425.8100000001,"ADDRESS":"民安路一段４０９號","OBJECTID":268701},"geometry":{"x":173089.32000000123,"y":2539425.8100000024}},{"attributes":{"ID":268707,"DIS_CODE":0,"TOWNNAME":"安南區","LI":"四草里","LIN":"4鄰","STREET":"大眾六街","SECT":" ","MAREA":" ","LANE":" ","ALLEY":" ","HOUSE_NO":"２６號","E_COORD97":160607.31490100001,"N_COORD97":2546463.7574499999,"ADDRESS":"大眾六街２６號","OBJECTID":268702},"geometry":{"x":160607.31490100082,"y":2546463.7574519999}},{"attributes":{"ID":268708,"DIS_CODE":0,"TOWNNAME":"仁德區","LI":"後壁里","LIN":"30鄰","STREET":"德洋一街","SECT":" ","MAREA":" ","LANE":" ","ALLEY":" ","HOUSE_NO":"３３號","E_COORD97":173106.42999999999,"N_COORD97":2539154.27,"ADDRESS":"德洋一街３３號","OBJECTID":268703},"geometry":{"x":173106.43000000063,"y":2539154.2700000014}},{"attributes":{"ID":268709,"DIS_CODE":0,"TOWNNAME":"北區","LI":"華興里","LIN":"3鄰","STREET":"林森路","SECT":"三段","MAREA":" ","LANE":" ","ALLEY":" ","HOUSE_NO":"３２４號","E_COORD97":170402.79000000001,"N_COORD97":2545441.5099999998,"ADDRESS":"林森路三段３２４號","OBJECTID":268704},"geometry":{"x":170402.79000000004,"y":2545441.5100000016}},{"attributes":{"ID":268710,"DIS_CODE":0,"TOWNNAME":"北區","LI":"華興里","LIN":"3鄰","STREET":"林森路","SECT":"三段","MAREA":" ","LANE":" ","ALLEY":" ","HOUSE_NO":"３２６號","E_COORD97":170401.23000000001,"N_COORD97":2545444.9900000002,"ADDRESS":"林森路三段３２６號","OBJECTID":268705},"geometry":{"x":170401.23000000138,"y":2545444.9900000039}},{"attributes":{"ID":268711,"DIS_CODE":0,"TOWNNAME":"東區","LI":"圍下里","LIN":"17鄰","STREET":"青年路","SECT":" ","MAREA":" ","LANE":"３９８巷","ALLEY":" ","HOUSE_NO":"１０號二樓","E_COORD97":169616.01000000001,"N_COORD97":2543500.9700000002,"ADDRESS":"青年路３９８巷１０號二樓","OBJECTID":268706},"geometry":{"x":169616.00999999978,"y":2543500.9700000025}},{"attributes":{"ID":268712,"DIS_CODE":0,"TOWNNAME":"東區","LI":"圍下里","LIN":"17鄰","STREET":"青年路","SECT":" ","MAREA":" ","LANE":"３９８巷","ALLEY":" ","HOUSE_NO":"１０號二樓之１","E_COORD97":169616.01000000001,"N_COORD97":2543500.9700000002,"ADDRESS":"青年路３９８巷１０號二樓之１","OBJECTID":268707},"geometry":{"x":169616.00999999978,"y":2543500.9700000025}},{"attributes":{"ID":268713,"DIS_CODE":0,"TOWNNAME":"東區","LI":"圍下里","LIN":"17鄰","STREET":"青年路","SECT":" ","MAREA":" ","LANE":"３９８巷","ALLEY":" ","HOUSE_NO":"１０號二樓之２","E_COORD97":169616.01000000001,"N_COORD97":2543500.9700000002,"ADDRESS":"青年路３９８巷１０號二樓之２","OBJECTID":268708},"geometry":{"x":169616.00999999978,"y":2543500.9700000025}},{"attributes":{"ID":268714,"DIS_CODE":0,"TOWNNAME":"北區","LI":"華興里","LIN":"3鄰","STREET":"林森路","SECT":"三段","MAREA":" ","LANE":" ","ALLEY":" ","HOUSE_NO":"３２８號","E_COORD97":170399.13,"N_COORD97":2545448.2799999998,"ADDRESS":"林森路三段３２８號","OBJECTID":268709},"geometry":{"x":170399.13000000175,"y":2545448.2799999993}},{"attributes":{"ID":268715,"DIS_CODE":0,"TOWNNAME":"東區","LI":"圍下里","LIN":"17鄰","STREET":"青年路","SECT":" ","MAREA":" ","LANE":"３９８巷","ALLEY":" ","HOUSE_NO":"１０號二樓之３","E_COORD97":169616.01000000001,"N_COORD97":2543500.9700000002,"ADDRESS":"青年路３９８巷１０號二樓之３","OBJECTID":268710},"geometry":{"x":169616.00999999978,"y":2543500.9700000025}},{"attributes":{"ID":268716,"DIS_CODE":0,"TOWNNAME":"東區","LI":"圍下里","LIN":"17鄰","STREET":"青年路","SECT":" ","MAREA":" ","LANE":"３９８巷","ALLEY":" ","HOUSE_NO":"１０號二樓之５","E_COORD97":169616.01000000001,"N_COORD97":2543500.9700000002,"ADDRESS":"青年路３９８巷１０號二樓之５","OBJECTID":268711},"geometry":{"x":169616.00999999978,"y":2543500.9700000025}},{"attributes":{"ID":268717,"DIS_CODE":0,"TOWNNAME":"東區","LI":"圍下里","LIN":"17鄰","STREET":"青年路","SECT":" ","MAREA":" ","LANE":"３９８巷","ALLEY":" ","HOUSE_NO":"１０號二樓之６","E_COORD97":169616.01000000001,"N_COORD97":2543500.9700000002,"ADDRESS":"青年路３９８巷１０號二樓之６","OBJECTID":268712},"geometry":{"x":169616.00999999978,"y":2543500.9700000025}},{"attributes":{"ID":268718,"DIS_CODE":0,"TOWNNAME":"東區","LI":"圍下里","LIN":"17鄰","STREET":"青年路","SECT":" ","MAREA":" ","LANE":"３９８巷","ALLEY":" ","HOUSE_NO":"１０號二樓之７","E_COORD97":169616.01000000001,"N_COORD97":2543500.9700000002,"ADDRESS":"青年路３９８巷１０號二樓之７","OBJECTID":268713},"geometry":{"x":169616.00999999978,"y":2543500.9700000025}},{"attributes":{"ID":268719,"DIS_CODE":0,"TOWNNAME":"東區","LI":"圍下里","LIN":"17鄰","STREET":"青年路","SECT":" ","MAREA":" ","LANE":"３９８巷","ALLEY":" ","HOUSE_NO":"１０號三樓","E_COORD97":169616.01000000001,"N_COORD97":2543500.9700000002,"ADDRESS":"青年路３９８巷１０號三樓","OBJECTID":268714},"geometry":{"x":169616.00999999978,"y":2543500.9700000025}},{"attributes":{"ID":268720,"DIS_CODE":0,"TOWNNAME":"東區","LI":"圍下里","LIN":"17鄰","STREET":"青年路","SECT":" ","MAREA":" ","LANE":"３９８巷","ALLEY":" ","HOUSE_NO":"１０號三樓之１","E_COORD97":169616.01000000001,"N_COORD97":2543500.9700000002,"ADDRESS":"青年路３９８巷１０號三樓之１","OBJECTID":268715},"geometry":{"x":169616.00999999978,"y":2543500.9700000025}},{"attributes":{"ID":268721,"DIS_CODE":0,"TOWNNAME":"東區","LI":"圍下里","LIN":"17鄰","STREET":"青年路","SECT":" ","MAREA":" ","LANE":"３９８巷","ALLEY":" ","HOUSE_NO":"１０號三樓之２","E_COORD97":169616.01000000001,"N_COORD97":2543500.9700000002,"ADDRESS":"青年路３９８巷１０號三樓之２","OBJECTID":268716},"geometry":{"x":169616.00999999978,"y":2543500.9700000025}},{"attributes":{"ID":268722,"DIS_CODE":0,"TOWNNAME":"東區","LI":"圍下里","LIN":"17鄰","STREET":"青年路","SECT":" ","MAREA":" ","LANE":"３９８巷","ALLEY":" ","HOUSE_NO":"１０號三樓之３","E_COORD97":169616.01000000001,"N_COORD97":2543500.9700000002,"ADDRESS":"青年路３９８巷１０號三樓之３","OBJECTID":268717},"geometry":{"x":169616.00999999978,"y":2543500.9700000025}},{"attributes":{"ID":268723,"DIS_CODE":0,"TOWNNAME":"東區","LI":"圍下里","LIN":"17鄰","STREET":"青年路","SECT":" ","MAREA":" ","LANE":"３９８巷","ALLEY":" ","HOUSE_NO":"１０號三樓之５","E_COORD97":169616.01000000001,"N_COORD97":2543500.9700000002,"ADDRESS":"青年路３９８巷１０號三樓之５","OBJECTID":268718},"geometry":{"x":169616.00999999978,"y":2543500.9700000025}},{"attributes":{"ID":268724,"DIS_CODE":0,"TOWNNAME":"東區","LI":"圍下里","LIN":"17鄰","STREET":"青年路","SECT":" ","MAREA":" ","LANE":"３９８巷","ALLEY":" ","HOUSE_NO":"１０號三樓之６","E_COORD97":169616.01000000001,"N_COORD97":2543500.9700000002,"ADDRESS":"青年路３９８巷１０號三樓之６","OBJECTID":268719},"geometry":{"x":169616.00999999978,"y":2543500.9700000025}},{"attributes":{"ID":268725,"DIS_CODE":0,"TOWNNAME":"東區","LI":"圍下里","LIN":"17鄰","STREET":"青年路","SECT":" ","MAREA":" ","LANE":"３９８巷","ALLEY":" ","HOUSE_NO":"１０號三樓之７","E_COORD97":169616.01000000001,"N_COORD97":2543500.9700000002,"ADDRESS":"青年路３９８巷１０號三樓之７","OBJECTID":268720},"geometry":{"x":169616.00999999978,"y":2543500.9700000025}},{"attributes":{"ID":268726,"DIS_CODE":0,"TOWNNAME":"仁德區","LI":"仁愛里","LIN":"4鄰","STREET":" ","SECT":" ","MAREA":"仁愛","LANE":" ","ALLEY":" ","HOUSE_NO":"５５號","E_COORD97":170345.05850000001,"N_COORD97":2540030.10751,"ADDRESS":"仁愛５５號","OBJECTID":268721},"geometry":{"x":170345.05850000028,"y":2540030.1075090002}},{"attributes":{"ID":268727,"DIS_CODE":0,"TOWNNAME":"仁德區","LI":"後壁里","LIN":"40鄰","STREET":"德善二街","SECT":" ","MAREA":" ","LANE":"１７巷","ALLEY":" ","HOUSE_NO":"１３號","E_COORD97":173510.67999999999,"N_COORD97":2538934.2599999998,"ADDRESS":"德善二街１７巷１３號","OBJECTID":268722},"geometry":{"x":173510.6799999997,"y":2538934.2600000016}},{"attributes":{"ID":268728,"DIS_CODE":0,"TOWNNAME":"北區","LI":"華興里","LIN":"3鄰","STREET":"林森路","SECT":"三段","MAREA":" ","LANE":" ","ALLEY":" ","HOUSE_NO":"３３０號","E_COORD97":170397.10999999999,"N_COORD97":2545451.7599999998,"ADDRESS":"林森路三段３３０號","OBJECTID":268723},"geometry":{"x":170397.11000000127,"y":2545451.7599999998}},{"attributes":{"ID":268729,"DIS_CODE":0,"TOWNNAME":"安南區","LI":"四草里","LIN":"4鄰","STREET":"大眾六街","SECT":" ","MAREA":" ","LANE":" ","ALLEY":" ","HOUSE_NO":"２２號","E_COORD97":160610.491775,"N_COORD97":2546460.5824500001,"ADDRESS":"大眾六街２２號","OBJECTID":268724},"geometry":{"x":160610.49177500233,"y":2546460.5824539997}},{"attributes":{"ID":268730,"DIS_CODE":0,"TOWNNAME":"中西區","LI":"開山里","LIN":"17鄰","STREET":"大同路","SECT":"一段","MAREA":" ","LANE":"７０巷","ALLEY":" ","HOUSE_NO":"９號二樓","E_COORD97":169096.51000000001,"N_COORD97":2543028.4900000002,"ADDRESS":"大同路一段７０巷９號二樓","OBJECTID":268725},"geometry":{"x":169096.51000000071,"y":2543028.4900000021}},{"attributes":{"ID":268731,"DIS_CODE":0,"TOWNNAME":"中西區","LI":"開山里","LIN":"17鄰","STREET":"大同路","SECT":"一段","MAREA":" ","LANE":"７０巷","ALLEY":" ","HOUSE_NO":"９號三樓","E_COORD97":169096.51000000001,"N_COORD97":2543028.4900000002,"ADDRESS":"大同路一段７０巷９號三樓","OBJECTID":268726},"geometry":{"x":169096.51000000071,"y":2543028.4900000021}},{"attributes":{"ID":268732,"DIS_CODE":0,"TOWNNAME":"中西區","LI":"開山里","LIN":"17鄰","STREET":"大同路","SECT":"一段","MAREA":" ","LANE":"７０巷","ALLEY":" ","HOUSE_NO":"９號五樓","E_COORD97":169096.51000000001,"N_COORD97":2543028.4900000002,"ADDRESS":"大同路一段７０巷９號五樓","OBJECTID":268727},"geometry":{"x":169096.51000000071,"y":2543028.4900000021}},{"attributes":{"ID":268733,"DIS_CODE":0,"TOWNNAME":"六甲區","LI":"大丘里","LIN":"3鄰","STREET":" ","SECT":" ","MAREA":"嶺頂","LANE":" ","ALLEY":" ","HOUSE_NO":"１９號","E_COORD97":192647.67000000001,"N_COORD97":2569768.5099999998,"ADDRESS":"嶺頂１９號","OBJECTID":268728},"geometry":{"x":192647.66999999993,"y":2569768.5100000016}},{"attributes":{"ID":268734,"DIS_CODE":0,"TOWNNAME":"永康區","LI":"中華里","LIN":"17鄰","STREET":"中華路","SECT":" ","MAREA":" ","LANE":"１０巷","ALLEY":" ","HOUSE_NO":"１６號之４２九樓","E_COORD97":171633.06,"N_COORD97":2544437.71,"ADDRESS":"中華路１０巷１６號之４２九樓","OBJECTID":268729},"geometry":{"x":171633.05999999959,"y":2544437.7100000028}},{"attributes":{"ID":268735,"DIS_CODE":0,"TOWNNAME":"永康區","LI":"中華里","LIN":"17鄰","STREET":"中華路","SECT":" ","MAREA":" ","LANE":"１０巷","ALLEY":" ","HOUSE_NO":"１６號之７四樓","E_COORD97":171658.29000000001,"N_COORD97":2544438.0099999998,"ADDRESS":"中華路１０巷１６號之７四樓","OBJECTID":268730},"geometry":{"x":171658.29000000097,"y":2544438.0100000016}},{"attributes":{"ID":268736,"DIS_CODE":0,"TOWNNAME":"永康區","LI":"復華里","LIN":"17鄰","STREET":"國華街","SECT":" ","MAREA":" ","LANE":"１０２巷","ALLEY":" ","HOUSE_NO":"５１號十一樓之１","E_COORD97":172886.23999999999,"N_COORD97":2546112.2799999998,"ADDRESS":"國華街１０２巷５１號十一樓之１","OBJECTID":268731},"geometry":{"x":172886.24000000115,"y":2546112.2799999993}},{"attributes":{"ID":268737,"DIS_CODE":0,"TOWNNAME":"永康區","LI":"復華里","LIN":"17鄰","STREET":"國華街","SECT":" ","MAREA":" ","LANE":"１０２巷","ALLEY":" ","HOUSE_NO":"６５號九樓之１","E_COORD97":172881.69,"N_COORD97":2546141.7799999998,"ADDRESS":"國華街１０２巷６５號九樓之１","OBJECTID":268732},"geometry":{"x":172881.69000000134,"y":2546141.7800000012}},{"attributes":{"ID":268738,"DIS_CODE":0,"TOWNNAME":"永康區","LI":"中華里","LIN":"17鄰","STREET":"中華路","SECT":" ","MAREA":" ","LANE":"１０巷","ALLEY":" ","HOUSE_NO":"１６號之３５八樓","E_COORD97":171633.06,"N_COORD97":2544437.71,"ADDRESS":"中華路１０巷１６號之３５八樓","OBJECTID":268733},"geometry":{"x":171633.05999999959,"y":2544437.7100000028}},{"attributes":{"ID":268739,"DIS_CODE":0,"TOWNNAME":"永康區","LI":"中華里","LIN":"17鄰","STREET":"中華路","SECT":" ","MAREA":" ","LANE":"１０巷","ALLEY":" ","HOUSE_NO":"１６號之４５十樓","E_COORD97":171633.06,"N_COORD97":2544437.71,"ADDRESS":"中華路１０巷１６號之４５十樓","OBJECTID":268734},"geometry":{"x":171633.05999999959,"y":2544437.7100000028}},{"attributes":{"ID":268740,"DIS_CODE":0,"TOWNNAME":"永康區","LI":"復華里","LIN":"17鄰","STREET":"國華街","SECT":" ","MAREA":" ","LANE":"１０２巷","ALLEY":" ","HOUSE_NO":"５１號六樓之２","E_COORD97":172885.12,"N_COORD97":2546112.2799999998,"ADDRESS":"國華街１０２巷５１號六樓之２","OBJECTID":268735},"geometry":{"x":172885.12000000104,"y":2546112.2799999993}},{"attributes":{"ID":268741,"DIS_CODE":0,"TOWNNAME":"永康區","LI":"復華里","LIN":"17鄰","STREET":"國華街","SECT":" ","MAREA":" ","LANE":"１０２巷","ALLEY":" ","HOUSE_NO":"６７號十一樓之２","E_COORD97":172889.10000000001,"N_COORD97":2546139.23,"ADDRESS":"國華街１０２巷６７號十一樓之２","OBJECTID":268736},"geometry":{"x":172889.09999999963,"y":2546139.2300000023}},{"attributes":{"ID":268742,"DIS_CODE":0,"TOWNNAME":"中西區","LI":"西湖里","LIN":"34鄰","STREET":"西湖街","SECT":" ","MAREA":" ","LANE":" ","ALLEY":" ","HOUSE_NO":"１６２號","E_COORD97":166348.28,"N_COORD97":2544918.5699999998,"ADDRESS":"西湖街１６２號","OBJECTID":268737},"geometry":{"x":166348.28000000026,"y":2544918.5700000003}},{"attributes":{"ID":268743,"DIS_CODE":0,"TOWNNAME":"關廟區","LI":"山西里","LIN":"3鄰","STREET":"興中街","SECT":" ","MAREA":" ","LANE":" ","ALLEY":" ","HOUSE_NO":"１０號","E_COORD97":180954.92000000001,"N_COORD97":2540266.25,"ADDRESS":"興中街１０號","OBJECTID":268738},"geometry":{"x":180954.92000000179,"y":2540266.2500000037}},{"attributes":{"ID":268744,"DIS_CODE":0,"TOWNNAME":"關廟區","LI":"北勢里","LIN":"3鄰","STREET":"中正路","SECT":" ","MAREA":" ","LANE":" ","ALLEY":" ","HOUSE_NO":"８３０號","E_COORD97":181390.26000000001,"N_COORD97":2540223.25,"ADDRESS":"中正路８３０號","OBJECTID":268739},"geometry":{"x":181390.26000000071,"y":2540223.2500000019}},{"attributes":{"ID":268745,"DIS_CODE":0,"TOWNNAME":"永康區","LI":"復華里","LIN":"17鄰","STREET":"國華街","SECT":" ","MAREA":" ","LANE":"１０２巷","ALLEY":" ","HOUSE_NO":"６５號五樓之１","E_COORD97":172881.69,"N_COORD97":2546141.7799999998,"ADDRESS":"國華街１０２巷６５號五樓之１","OBJECTID":268740},"geometry":{"x":172881.69000000134,"y":2546141.7800000012}},{"attributes":{"ID":268746,"DIS_CODE":0,"TOWNNAME":"永康區","LI":"中華里","LIN":"17鄰","STREET":"中華路","SECT":" ","MAREA":" ","LANE":"１０巷","ALLEY":" ","HOUSE_NO":"１６號之５６十二樓","E_COORD97":171634.31,"N_COORD97":2544437.71,"ADDRESS":"中華路１０巷１６號之５６十二樓","OBJECTID":268741},"geometry":{"x":171634.30999999959,"y":2544437.7100000028}},{"attributes":{"ID":268747,"DIS_CODE":0,"TOWNNAME":"永康區","LI":"中華里","LIN":"17鄰","STREET":"中華路","SECT":" ","MAREA":" ","LANE":"１０巷","ALLEY":" ","HOUSE_NO":"１６號之５１十一樓","E_COORD97":171634.31,"N_COORD97":2544437.71,"ADDRESS":"中華路１０巷１６號之５１十一樓","OBJECTID":268742},"geometry":{"x":171634.30999999959,"y":2544437.7100000028}},{"attributes":{"ID":268748,"DIS_CODE":0,"TOWNNAME":"永康區","LI":"五王里","LIN":"17鄰","STREET":"成功路","SECT":" ","MAREA":" ","LANE":"２０４巷","ALLEY":" ","HOUSE_NO":"３１號五樓之６","E_COORD97":171477.5,"N_COORD97":2545766.8999999999,"ADDRESS":"成功路２０４巷３１號五樓之６","OBJECTID":268743},"geometry":{"x":171477.5,"y":2545766.9000000004}},{"attributes":{"ID":268749,"DIS_CODE":0,"TOWNNAME":"永康區","LI":"五王里","LIN":"17鄰","STREET":"成功路","SECT":" ","MAREA":" ","LANE":"２０４巷","ALLEY":" ","HOUSE_NO":"３１號六樓之３","E_COORD97":171477.48999999999,"N_COORD97":2545766.8999999999,"ADDRESS":"成功路２０４巷３１號六樓之３","OBJECTID":268744},"geometry":{"x":171477.49000000115,"y":2545766.9000000004}},{"attributes":{"ID":268750,"DIS_CODE":0,"TOWNNAME":"南區","LI":"新興里","LIN":"17鄰","STREET":"三官路","SECT":" ","MAREA":" ","LANE":"８９巷","ALLEY":" ","HOUSE_NO":"３２號之１三樓","E_COORD97":167421.67000000001,"N_COORD97":2542167.0600000001,"ADDRESS":"三官路８９巷３２號之１三樓","OBJECTID":268745},"geometry":{"x":167421.66999999993,"y":2542167.0600000024}},{"attributes":{"ID":268751,"DIS_CODE":0,"TOWNNAME":"南區","LI":"新興里","LIN":"17鄰","STREET":"三官路","SECT":" ","MAREA":" ","LANE":"８９巷","ALLEY":" ","HOUSE_NO":"３２號之１五樓","E_COORD97":167421.67000000001,"N_COORD97":2542167.0600000001,"ADDRESS":"三官路８９巷３２號之１五樓","OBJECTID":268746},"geometry":{"x":167421.66999999993,"y":2542167.0600000024}},{"attributes":{"ID":268752,"DIS_CODE":0,"TOWNNAME":"南區","LI":"新興里","LIN":"17鄰","STREET":"三官路","SECT":" ","MAREA":" ","LANE":"８９巷","ALLEY":" ","HOUSE_NO":"３２號之１四樓","E_COORD97":167421.67000000001,"N_COORD97":2542167.0600000001,"ADDRESS":"三官路８９巷３２號之１四樓","OBJECTID":268747},"geometry":{"x":167421.66999999993,"y":2542167.0600000024}},{"attributes":{"ID":268753,"DIS_CODE":0,"TOWNNAME":"南區","LI":"新興里","LIN":"17鄰","STREET":"三官路","SECT":" ","MAREA":" ","LANE":"８９巷","ALLEY":" ","HOUSE_NO":"３２號之２二樓","E_COORD97":167420.13,"N_COORD97":2542161.7799999998,"ADDRESS":"三官路８９巷３２號之２二樓","OBJECTID":268748},"geometry":{"x":167420.12999999989,"y":2542161.7800000012}},{"attributes":{"ID":268754,"DIS_CODE":0,"TOWNNAME":"安平區","LI":"怡平里","LIN":"17鄰","STREET":"永華六街","SECT":" ","MAREA":" ","LANE":"１５４巷","ALLEY":" ","HOUSE_NO":"１號二樓之１","E_COORD97":165751,"N_COORD97":2543900.1899999999,"ADDRESS":"永華六街１５４巷１號二樓之１","OBJECTID":268749},"geometry":{"x":165751.00000000093,"y":2543900.1899999976}},{"attributes":{"ID":268755,"DIS_CODE":0,"TOWNNAME":"北區","LI":"華興里","LIN":"3鄰","STREET":"南園街","SECT":" ","MAREA":" ","LANE":"２８巷","ALLEY":" ","HOUSE_NO":"２號","E_COORD97":170442.10000000001,"N_COORD97":2545453.73,"ADDRESS":"南園街２８巷２號","OBJECTID":268750},"geometry":{"x":170442.10000000056,"y":2545453.7299999986}},{"attributes":{"ID":268756,"DIS_CODE":0,"TOWNNAME":"關廟區","LI":"北勢里","LIN":"3鄰","STREET":"中正路","SECT":" ","MAREA":" ","LANE":" ","ALLEY":" ","HOUSE_NO":"８５２號","E_COORD97":181357.66,"N_COORD97":2540234.25,"ADDRESS":"中正路８５２號","OBJECTID":268751},"geometry":{"x":181357.66000000108,"y":2540234.25}},{"attributes":{"ID":268757,"DIS_CODE":0,"TOWNNAME":"仁德區","LI":"中生里","LIN":"7鄰","STREET":" ","SECT":" ","MAREA":"中洲","LANE":" ","ALLEY":" ","HOUSE_NO":"１４１之３９號","E_COORD97":172938.559136,"N_COORD97":2534175.2263000002,"ADDRESS":"中洲１４１之３９號","OBJECTID":268752},"geometry":{"x":172938.55913599953,"y":2534175.2263020016}},{"attributes":{"ID":268758,"DIS_CODE":0,"TOWNNAME":"六甲區","LI":"龜港里","LIN":"3鄰","STREET":" ","SECT":" ","MAREA":"龜子港","LANE":"１６１巷","ALLEY":" ","HOUSE_NO":"５１號","E_COORD97":179471.04999999999,"N_COORD97":2572261.75,"ADDRESS":"龜子港１６１巷５１號","OBJECTID":268753},"geometry":{"x":179471.05000000075,"y":2572261.7500000019}},{"attributes":{"ID":268759,"DIS_CODE":0,"TOWNNAME":"六甲區","LI":"大丘里","LIN":"3鄰","STREET":" ","SECT":" ","MAREA":"嶺頂","LANE":" ","ALLEY":" ","HOUSE_NO":"１６號","E_COORD97":192630.32999999999,"N_COORD97":2569764.25,"ADDRESS":"嶺頂１６號","OBJECTID":268754},"geometry":{"x":192630.33000000194,"y":2569764.25}},{"attributes":{"ID":268760,"DIS_CODE":0,"TOWNNAME":"六甲區","LI":"龜港里","LIN":"3鄰","STREET":" ","SECT":" ","MAREA":"龜子港","LANE":"１６１巷","ALLEY":" ","HOUSE_NO":"５５號","E_COORD97":179464.91,"N_COORD97":2572275.1699999999,"ADDRESS":"龜子港１６１巷５５號","OBJECTID":268755},"geometry":{"x":179464.90999999922,"y":2572275.1700000037}},{"attributes":{"ID":268761,"DIS_CODE":0,"TOWNNAME":"六甲區","LI":"龜港里","LIN":"3鄰","STREET":" ","SECT":" ","MAREA":"龜子港","LANE":"２８１巷","ALLEY":" ","HOUSE_NO":"５１號","E_COORD97":179441.35000000001,"N_COORD97":2572285.9399999999,"ADDRESS":"龜子港２８１巷５１號","OBJECTID":268756},"geometry":{"x":179441.35000000056,"y":2572285.9399999995}},{"attributes":{"ID":268762,"DIS_CODE":0,"TOWNNAME":"六甲區","LI":"龜港里","LIN":"3鄰","STREET":" ","SECT":" ","MAREA":"龜子港","LANE":"２８１巷","ALLEY":" ","HOUSE_NO":"５３號","E_COORD97":179431.56,"N_COORD97":2572292.6699999999,"ADDRESS":"龜子港２８１巷５３號","OBJECTID":268757},"geometry":{"x":179431.56000000052,"y":2572292.6700000018}},{"attributes":{"ID":268763,"DIS_CODE":0,"TOWNNAME":"六甲區","LI":"大丘里","LIN":"3鄰","STREET":" ","SECT":" ","MAREA":"嶺頂","LANE":" ","ALLEY":" ","HOUSE_NO":"１５號","E_COORD97":192637.85000000001,"N_COORD97":2569789.27,"ADDRESS":"嶺頂１５號","OBJECTID":268758},"geometry":{"x":192637.84999999963,"y":2569789.2700000014}},{"attributes":{"ID":268764,"DIS_CODE":0,"TOWNNAME":"六甲區","LI":"大丘里","LIN":"3鄰","STREET":" ","SECT":" ","MAREA":"嶺頂","LANE":" ","ALLEY":" ","HOUSE_NO":"１７號之１","E_COORD97":192638.28,"N_COORD97":2569765.9700000002,"ADDRESS":"嶺頂１７號之１","OBJECTID":268759},"geometry":{"x":192638.28000000119,"y":2569765.9700000025}},{"attributes":{"ID":268765,"DIS_CODE":0,"TOWNNAME":"關廟區","LI":"山西里","LIN":"3鄰","STREET":"文衡路","SECT":" ","MAREA":" ","LANE":" ","ALLEY":" ","HOUSE_NO":"８６號","E_COORD97":180911.59,"N_COORD97":2540241.3300000001,"ADDRESS":"文衡路８６號","OBJECTID":268760},"geometry":{"x":180911.59000000078,"y":2540241.3300000001}},{"attributes":{"ID":268766,"DIS_CODE":0,"TOWNNAME":"關廟區","LI":"新埔里","LIN":"3鄰","STREET":"忠孝街","SECT":" ","MAREA":" ","LANE":" ","ALLEY":" ","HOUSE_NO":"３０１號","E_COORD97":181181.14000000001,"N_COORD97":2540877.25,"ADDRESS":"忠孝街３０１號","OBJECTID":268761},"geometry":{"x":181181.13999999966,"y":2540877.2500000019}},{"attributes":{"ID":268767,"DIS_CODE":0,"TOWNNAME":"關廟區","LI":"香洋里","LIN":"3鄰","STREET":"南雄路","SECT":"二段","MAREA":" ","LANE":" ","ALLEY":" ","HOUSE_NO":"２１０號","E_COORD97":181190.09,"N_COORD97":2540519.2799999998,"ADDRESS":"南雄路二段２１０號","OBJECTID":268762},"geometry":{"x":181190.08999999985,"y":2540519.2800000031}},{"attributes":{"ID":268768,"DIS_CODE":0,"TOWNNAME":"關廟區","LI":"五甲里","LIN":"3鄰","STREET":"南雄路","SECT":"一段","MAREA":" ","LANE":" ","ALLEY":" ","HOUSE_NO":"７９８號","E_COORD97":181436.89000000001,"N_COORD97":2539061.2799999998,"ADDRESS":"南雄路一段７９８號","OBJECTID":268763},"geometry":{"x":181436.8900000006,"y":2539061.2799999975}},{"attributes":{"ID":268769,"DIS_CODE":0,"TOWNNAME":"安平區","LI":"怡平里","LIN":"17鄰","STREET":"永華六街","SECT":" ","MAREA":" ","LANE":"１５４巷","ALLEY":" ","HOUSE_NO":"１號二樓之２","E_COORD97":165751,"N_COORD97":2543900.1899999999,"ADDRESS":"永華六街１５４巷１號二樓之２","OBJECTID":268764},"geometry":{"x":165751.00000000093,"y":2543900.1899999976}},{"attributes":{"ID":268770,"DIS_CODE":0,"TOWNNAME":"安平區","LI":"怡平里","LIN":"17鄰","STREET":"永華六街","SECT":" ","MAREA":" ","LANE":"１５４巷","ALLEY":" ","HOUSE_NO":"１號二樓之３","E_COORD97":165751,"N_COORD97":2543900.1899999999,"ADDRESS":"永華六街１５４巷１號二樓之３","OBJECTID":268765},"geometry":{"x":165751.00000000093,"y":2543900.1899999976}},{"attributes":{"ID":268771,"DIS_CODE":0,"TOWNNAME":"北區","LI":"長榮里","LIN":"17鄰","STREET":"長榮路","SECT":"五段","MAREA":" ","LANE":"４１巷","ALLEY":" ","HOUSE_NO":"５８號七樓之２","E_COORD97":169922.38,"N_COORD97":2545563.6200000001,"ADDRESS":"長榮路五段４１巷５８號七樓之２","OBJECTID":268766},"geometry":{"x":169922.37999999989,"y":2545563.6199999992}},{"attributes":{"ID":268772,"DIS_CODE":0,"TOWNNAME":"北區","LI":"長榮里","LIN":"17鄰","STREET":"長榮路","SECT":"五段","MAREA":" ","LANE":"４１巷","ALLEY":" ","HOUSE_NO":"５８號八樓之１","E_COORD97":169922.38,"N_COORD97":2545563.6200000001,"ADDRESS":"長榮路五段４１巷５８號八樓之１","OBJECTID":268767},"geometry":{"x":169922.37999999989,"y":2545563.6199999992}},{"attributes":{"ID":268773,"DIS_CODE":0,"TOWNNAME":"北區","LI":"長榮里","LIN":"17鄰","STREET":"長榮路","SECT":"五段","MAREA":" ","LANE":"４１巷","ALLEY":" ","HOUSE_NO":"５８號八樓之２","E_COORD97":169922.38,"N_COORD97":2545563.6200000001,"ADDRESS":"長榮路五段４１巷５８號八樓之２","OBJECTID":268768},"geometry":{"x":169922.37999999989,"y":2545563.6199999992}},{"attributes":{"ID":268774,"DIS_CODE":0,"TOWNNAME":"中西區","LI":"大涼里","LIN":"17鄰","STREET":"府前一街","SECT":" ","MAREA":" ","LANE":"１０３巷","ALLEY":" ","HOUSE_NO":"１８號","E_COORD97":166704.20000000001,"N_COORD97":2543961.3500000001,"ADDRESS":"府前一街１０３巷１８號","OBJECTID":268769},"geometry":{"x":166704.20000000112,"y":2543961.3500000015}},{"attributes":{"ID":268775,"DIS_CODE":0,"TOWNNAME":"永康區","LI":"\u25A0行里","LIN":"17鄰","STREET":"中正南路","SECT":" ","MAREA":" ","LANE":"６９２巷","ALLEY":" ","HOUSE_NO":"１號之１","E_COORD97":171678.06,"N_COORD97":2548874.79,"ADDRESS":"中正南路６９２巷１號之１","OBJECTID":268770},"geometry":{"x":171678.06000000052,"y":2548874.7899999991}},{"attributes":{"ID":268776,"DIS_CODE":0,"TOWNNAME":"永康區","LI":"復國里","LIN":"17鄰","STREET":"國華街","SECT":" ","MAREA":" ","LANE":"１８巷","ALLEY":" ","HOUSE_NO":"２號","E_COORD97":172851.45000000001,"N_COORD97":2545604.25,"ADDRESS":"國華街１８巷２號","OBJECTID":268771},"geometry":{"x":172851.45000000019,"y":2545604.25}},{"attributes":{"ID":268777,"DIS_CODE":0,"TOWNNAME":"永康區","LI":"勝利里","LIN":"17鄰","STREET":"中華一路","SECT":" ","MAREA":" ","LANE":"２９９巷","ALLEY":" ","HOUSE_NO":"３號","E_COORD97":171222.14999999999,"N_COORD97":2544957.25,"ADDRESS":"中華一路２９９巷３號","OBJECTID":268772},"geometry":{"x":171222.1500000013,"y":2544957.25}},{"attributes":{"ID":268778,"DIS_CODE":0,"TOWNNAME":"東區","LI":"崇明里","LIN":"17鄰","STREET":"中華東路","SECT":"三段","MAREA":" ","LANE":"３５７巷","ALLEY":" ","HOUSE_NO":"１３９號","E_COORD97":170542.97,"N_COORD97":2541394.2799999998,"ADDRESS":"中華東路三段３５７巷１３９號","OBJECTID":268773},"geometry":{"x":170542.97000000067,"y":2541394.2800000031}},{"attributes":{"ID":268779,"DIS_CODE":0,"TOWNNAME":"東區","LI":"崇明里","LIN":"17鄰","STREET":"中華東路","SECT":"三段","MAREA":" ","LANE":"３５７巷","ALLEY":" ","HOUSE_NO":"１４１號","E_COORD97":170546.5,"N_COORD97":2541391.7400000002,"ADDRESS":"中華東路三段３５７巷１４１號","OBJECTID":268774},"geometry":{"x":170546.50000000093,"y":2541391.7399999984}},{"attributes":{"ID":268780,"DIS_CODE":0,"TOWNNAME":"東區","LI":"崇明里","LIN":"17鄰","STREET":"中華東路","SECT":"三段","MAREA":" ","LANE":"３５７巷","ALLEY":" ","HOUSE_NO":"１４３號","E_COORD97":170550.60000000001,"N_COORD97":2541388.6400000001,"ADDRESS":"中華東路三段３５７巷１４３號","OBJECTID":268775},"geometry":{"x":170550.60000000056,"y":2541388.6400000006}},{"attributes":{"ID":268781,"DIS_CODE":0,"TOWNNAME":"關廟區","LI":"關廟里","LIN":"3鄰","STREET":"文衡路","SECT":" ","MAREA":" ","LANE":" ","ALLEY":" ","HOUSE_NO":"４２號","E_COORD97":180905.39000000001,"N_COORD97":2540155.3300000001,"ADDRESS":"文衡路４２號","OBJECTID":268776},"geometry":{"x":180905.38999999966,"y":2540155.3300000019}},{"attributes":{"ID":268782,"DIS_CODE":0,"TOWNNAME":"關廟區","LI":"山西里","LIN":"3鄰","STREET":"文衡路","SECT":" ","MAREA":" ","LANE":" ","ALLEY":" ","HOUSE_NO":"１０２號","E_COORD97":180916.64000000001,"N_COORD97":2540283.3300000001,"ADDRESS":"文衡路１０２號","OBJECTID":268777},"geometry":{"x":180916.63999999966,"y":2540283.3300000019}},{"attributes":{"ID":268783,"DIS_CODE":0,"TOWNNAME":"東區","LI":"崇明里","LIN":"17鄰","STREET":"中華東路","SECT":"三段","MAREA":" ","LANE":"３５７巷","ALLEY":" ","HOUSE_NO":"１４５號","E_COORD97":170554.97,"N_COORD97":2541385.3900000001,"ADDRESS":"中華東路三段３５７巷１４５號","OBJECTID":268778},"geometry":{"x":170554.97000000067,"y":2541385.3900000025}},{"attributes":{"ID":268784,"DIS_CODE":0,"TOWNNAME":"東區","LI":"崇明里","LIN":"17鄰","STREET":"中華東路","SECT":"三段","MAREA":" ","LANE":"３５７巷","ALLEY":" ","HOUSE_NO":"１４７號","E_COORD97":170556.39000000001,"N_COORD97":2541381.5800000001,"ADDRESS":"中華東路三段３５７巷１４７號","OBJECTID":268779},"geometry":{"x":170556.39000000153,"y":2541381.5800000001}},{"attributes":{"ID":268785,"DIS_CODE":0,"TOWNNAME":"東區","LI":"崇明里","LIN":"17鄰","STREET":"中華東路","SECT":"三段","MAREA":" ","LANE":"３５７巷","ALLEY":" ","HOUSE_NO":"１４９號","E_COORD97":170558.07999999999,"N_COORD97":2541377.0600000001,"ADDRESS":"中華東路三段３５７巷１４９號","OBJECTID":268780},"geometry":{"x":170558.08000000101,"y":2541377.0600000024}},{"attributes":{"ID":268786,"DIS_CODE":0,"TOWNNAME":"東區","LI":"崇明里","LIN":"17鄰","STREET":"中華東路","SECT":"三段","MAREA":" ","LANE":"３５７巷","ALLEY":" ","HOUSE_NO":"１５１號","E_COORD97":170559.35000000001,"N_COORD97":2541371.7000000002,"ADDRESS":"中華東路三段３５７巷１５１號","OBJECTID":268781},"geometry":{"x":170559.34999999963,"y":2541371.7000000011}},{"attributes":{"ID":268787,"DIS_CODE":0,"TOWNNAME":"東區","LI":"崇明里","LIN":"17鄰","STREET":"中華東路","SECT":"三段","MAREA":" ","LANE":"３５７巷","ALLEY":" ","HOUSE_NO":"１５３號","E_COORD97":170562.60000000001,"N_COORD97":2541368.1699999999,"ADDRESS":"中華東路三段３５７巷１５３號","OBJECTID":268782},"geometry":{"x":170562.60000000056,"y":2541368.1699999981}},{"attributes":{"ID":268788,"DIS_CODE":0,"TOWNNAME":"東區","LI":"崇明里","LIN":"17鄰","STREET":"中華東路","SECT":"三段","MAREA":" ","LANE":"３５７巷","ALLEY":" ","HOUSE_NO":"１５５號","E_COORD97":170563.31,"N_COORD97":2541364.2200000002,"ADDRESS":"中華東路三段３５７巷１５５號","OBJECTID":268783},"geometry":{"x":170563.30999999959,"y":2541364.2200000007}},{"attributes":{"ID":268789,"DIS_CODE":0,"TOWNNAME":"東區","LI":"崇明里","LIN":"17鄰","STREET":"中華東路","SECT":"三段","MAREA":" ","LANE":"３５７巷","ALLEY":" ","HOUSE_NO":"１５７號","E_COORD97":170564.29999999999,"N_COORD97":2541358.4300000002,"ADDRESS":"中華東路三段３５７巷１５７號","OBJECTID":268784},"geometry":{"x":170564.30000000075,"y":2541358.4299999997}},{"attributes":{"ID":268790,"DIS_CODE":0,"TOWNNAME":"東區","LI":"崇明里","LIN":"17鄰","STREET":"中華東路","SECT":"三段","MAREA":" ","LANE":"３５７巷","ALLEY":" ","HOUSE_NO":"８０號","E_COORD97":170471.76999999999,"N_COORD97":2541424.8399999999,"ADDRESS":"中華東路三段３５７巷８０號","OBJECTID":268785},"geometry":{"x":170471.76999999955,"y":2541424.8400000036}},{"attributes":{"ID":268791,"DIS_CODE":0,"TOWNNAME":"東區","LI":"崇明里","LIN":"17鄰","STREET":"中華東路","SECT":"三段","MAREA":" ","LANE":"３５７巷","ALLEY":" ","HOUSE_NO":"８２號","E_COORD97":170475.87,"N_COORD97":2541423.1400000001,"ADDRESS":"中華東路三段３５７巷８２號","OBJECTID":268786},"geometry":{"x":170475.87000000104,"y":2541423.1400000006}},{"attributes":{"ID":268792,"DIS_CODE":0,"TOWNNAME":"關廟區","LI":"布袋里","LIN":"3鄰","STREET":"長文街","SECT":" ","MAREA":" ","LANE":"１３０巷","ALLEY":" ","HOUSE_NO":"８號","E_COORD97":182857.14000000001,"N_COORD97":2535439.25,"ADDRESS":"長文街１３０巷８號","OBJECTID":268787},"geometry":{"x":182857.1400000006,"y":2535439.2500000019}},{"attributes":{"ID":268793,"DIS_CODE":0,"TOWNNAME":"關廟區","LI":"山西里","LIN":"3鄰","STREET":"興中街","SECT":" ","MAREA":" ","LANE":" ","ALLEY":" ","HOUSE_NO":"１８號","E_COORD97":180941.51999999999,"N_COORD97":2540268.25,"ADDRESS":"興中街１８號","OBJECTID":268788},"geometry":{"x":180941.51999999955,"y":2540268.25}},{"attributes":{"ID":268794,"DIS_CODE":0,"TOWNNAME":"北區","LI":"開元里","LIN":"3鄰","STREET":"北園街","SECT":" ","MAREA":" ","LANE":" ","ALLEY":" ","HOUSE_NO":"１０１號","E_COORD97":170336.04000000001,"N_COORD97":2545872.6000000001,"ADDRESS":"北園街１０１號","OBJECTID":268789},"geometry":{"x":170336.04000000097,"y":2545872.6000000015}},{"attributes":{"ID":268795,"DIS_CODE":0,"TOWNNAME":"東區","LI":"崇信里","LIN":"17鄰","STREET":"崇善路","SECT":" ","MAREA":" ","LANE":"２０５巷","ALLEY":" ","HOUSE_NO":"２號","E_COORD97":170528.35999999999,"N_COORD97":2542250.7000000002,"ADDRESS":"崇善路２０５巷２號","OBJECTID":268790},"geometry":{"x":170528.36000000034,"y":2542250.6999999993}},{"attributes":{"ID":268796,"DIS_CODE":0,"TOWNNAME":"佳里區","LI":"東寧里","LIN":"17鄰","STREET":"延平路","SECT":" ","MAREA":" ","LANE":"３５０巷","ALLEY":" ","HOUSE_NO":"３５號","E_COORD97":165947.85999999999,"N_COORD97":2562461.1000000001,"ADDRESS":"延平路３５０巷３５號","OBJECTID":268791},"geometry":{"x":165947.86000000034,"y":2562461.1000000015}},{"attributes":{"ID":268797,"DIS_CODE":0,"TOWNNAME":"佳里區","LI":"東寧里","LIN":"17鄰","STREET":"延平路","SECT":" ","MAREA":" ","LANE":"３５０巷","ALLEY":" ","HOUSE_NO":"３６號","E_COORD97":165934.56,"N_COORD97":2562457.48,"ADDRESS":"延平路３５０巷３６號","OBJECTID":268792},"geometry":{"x":165934.56000000052,"y":2562457.4800000004}},{"attributes":{"ID":268798,"DIS_CODE":0,"TOWNNAME":"佳里區","LI":"安西里","LIN":"17鄰","STREET":"長安街","SECT":" ","MAREA":" ","LANE":"１４７巷","ALLEY":" ","HOUSE_NO":"１０號","E_COORD97":165386.51000000001,"N_COORD97":2562654.4700000002,"ADDRESS":"長安街１４７巷１０號","OBJECTID":268793},"geometry":{"x":165386.50999999978,"y":2562654.4700000007}},{"attributes":{"ID":268799,"DIS_CODE":0,"TOWNNAME":"佳里區","LI":"安西里","LIN":"17鄰","STREET":"長安街","SECT":" ","MAREA":" ","LANE":"１４７巷","ALLEY":" ","HOUSE_NO":"１１號","E_COORD97":165382.09,"N_COORD97":2562639.0899999999,"ADDRESS":"長安街１４７巷１１號","OBJECTID":268794},"geometry":{"x":165382.09000000078,"y":2562639.0899999999}},{"attributes":{"ID":268800,"DIS_CODE":0,"TOWNNAME":"佳里區","LI":"安西里","LIN":"17鄰","STREET":"長安街","SECT":" ","MAREA":" ","LANE":"１４７巷","ALLEY":" ","HOUSE_NO":"１２號","E_COORD97":165381.64999999999,"N_COORD97":2562653.9199999999,"ADDRESS":"長安街１４７巷１２號","OBJECTID":268795},"geometry":{"x":165381.65000000224,"y":2562653.9199999999}},{"attributes":{"ID":268801,"DIS_CODE":0,"TOWNNAME":"佳里區","LI":"安西里","LIN":"17鄰","STREET":"長安街","SECT":" ","MAREA":" ","LANE":"１４７巷","ALLEY":" ","HOUSE_NO":"１３號","E_COORD97":165376.91,"N_COORD97":2562638.7999999998,"ADDRESS":"長安街１４７巷１３號","OBJECTID":268796},"geometry":{"x":165376.91000000108,"y":2562638.8000000007}},{"attributes":{"ID":268802,"DIS_CODE":0,"TOWNNAME":"佳里區","LI":"安西里","LIN":"17鄰","STREET":"長安街","SECT":" ","MAREA":" ","LANE":"１４７巷","ALLEY":" ","HOUSE_NO":"１４號","E_COORD97":165376.75,"N_COORD97":2562653.6499999999,"ADDRESS":"長安街１４７巷１４號","OBJECTID":268797},"geometry":{"x":165376.75,"y":2562653.6500000041}},{"attributes":{"ID":268803,"DIS_CODE":0,"TOWNNAME":"佳里區","LI":"安西里","LIN":"17鄰","STREET":"長安街","SECT":" ","MAREA":" ","LANE":"１４７巷","ALLEY":" ","HOUSE_NO":"１５號","E_COORD97":165371.88,"N_COORD97":2562638.5800000001,"ADDRESS":"長安街１４７巷１５號","OBJECTID":268798},"geometry":{"x":165371.88000000082,"y":2562638.5800000019}},{"attributes":{"ID":268804,"DIS_CODE":0,"TOWNNAME":"佳里區","LI":"安西里","LIN":"17鄰","STREET":"長安街","SECT":" ","MAREA":" ","LANE":"１４７巷","ALLEY":" ","HOUSE_NO":"１６號","E_COORD97":165371.26000000001,"N_COORD97":2562653.1800000002,"ADDRESS":"長安街１４７巷１６號","OBJECTID":268799},"geometry":{"x":165371.25999999978,"y":2562653.1800000016}},{"attributes":{"ID":268805,"DIS_CODE":0,"TOWNNAME":"佳里區","LI":"安西里","LIN":"17鄰","STREET":"長安街","SECT":" ","MAREA":" ","LANE":"１４７巷","ALLEY":" ","HOUSE_NO":"１７號","E_COORD97":165366.76000000001,"N_COORD97":2562638.2799999998,"ADDRESS":"長安街１４７巷１７號","OBJECTID":268800},"geometry":{"x":165366.76000000164,"y":2562638.2800000031}}]}