{"displayFieldName":"TOWNNAME","fieldAliases":{"ID":"ID","DIS_CODE":"DIS_CODE","TOWNNAME":"TOWNNAME","LI":"LI","LIN":"LIN","STREET":"STREET","SECT":"SECT","MAREA":"MAREA","LANE":"LANE","ALLEY":"ALLEY","HOUSE_NO":"HOUSE_NO","E_COORD97":"E_COORD97","N_COORD97":"N_COORD97","ADDRESS":"ADDRESS","OBJECTID":"OBJECTID"},"geometryType":"esriGeometryPoint","spatialReference":{"wkid":102443,"latestWkid":3826},"fields":[{"name":"ID","type":"esriFieldTypeDouble","alias":"ID"},{"name":"DIS_CODE","type":"esriFieldTypeInteger","alias":"DIS_CODE"},{"name":"TOWNNAME","type":"esriFieldTypeString","alias":"TOWNNAME","length":8},{"name":"LI","type":"esriFieldTypeString","alias":"LI","length":8},{"name":"LIN","type":"esriFieldTypeString","alias":"LIN","length":12},{"name":"STREET","type":"esriFieldTypeString","alias":"STREET","length":20},{"name":"SECT","type":"esriFieldTypeString","alias":"SECT","length":8},{"name":"MAREA","type":"esriFieldTypeString","alias":"MAREA","length":12},{"name":"LANE","type":"esriFieldTypeString","alias":"LANE","length":10},{"name":"ALLEY","type":"esriFieldTypeString","alias":"ALLEY","length":10},{"name":"HOUSE_NO","type":"esriFieldTypeString","alias":"HOUSE_NO","length":20},{"name":"E_COORD97","type":"esriFieldTypeDouble","alias":"E_COORD97"},{"name":"N_COORD97","type":"esriFieldTypeDouble","alias":"N_COORD97"},{"name":"ADDRESS","type":"esriFieldTypeString","alias":"ADDRESS","length":50},{"name":"OBJECTID","type":"esriFieldTypeOID","alias":"OBJECTID"}],"features":[{"attributes":{"ID":399825,"DIS_CODE":0,"TOWNNAME":"新化區","LI":"協興里","LIN":"11鄰","STREET":"太平街","SECT":" ","MAREA":" ","LANE":"１５０巷","ALLEY":" ","HOUSE_NO":"２０２號","E_COORD97":178321.92000000001,"N_COORD97":2548910.25,"ADDRESS":"太平街１５０巷２０２號","OBJECTID":399801},"geometry":{"x":178321.91999999993,"y":2548910.25}},{"attributes":{"ID":399826,"DIS_CODE":0,"TOWNNAME":"南區","LI":"興農里","LIN":"11鄰","STREET":"萬年五街","SECT":" ","MAREA":" ","LANE":"２０巷","ALLEY":" ","HOUSE_NO":"２號","E_COORD97":166769.75,"N_COORD97":2536385.1499999999,"ADDRESS":"萬年五街２０巷２號","OBJECTID":399802},"geometry":{"x":166769.75000000093,"y":2536385.1500000041}},{"attributes":{"ID":399827,"DIS_CODE":0,"TOWNNAME":"新化區","LI":"豐榮里","LIN":"11鄰","STREET":"信義路","SECT":" ","MAREA":" ","LANE":"４４３巷","ALLEY":" ","HOUSE_NO":"３９號","E_COORD97":178514.78,"N_COORD97":2548196.25,"ADDRESS":"信義路４４３巷３９號","OBJECTID":399803},"geometry":{"x":178514.78000000026,"y":2548196.2500000037}},{"attributes":{"ID":399828,"DIS_CODE":0,"TOWNNAME":"新化區","LI":"豐榮里","LIN":"11鄰","STREET":"信義路","SECT":" ","MAREA":" ","LANE":"４４３巷","ALLEY":" ","HOUSE_NO":"３３號","E_COORD97":178526.38,"N_COORD97":2548213.25,"ADDRESS":"信義路４４３巷３３號","OBJECTID":399804},"geometry":{"x":178526.38000000082,"y":2548213.2500000037}},{"attributes":{"ID":399829,"DIS_CODE":0,"TOWNNAME":"新化區","LI":"豐榮里","LIN":"11鄰","STREET":"信義路","SECT":" ","MAREA":" ","LANE":"４４３巷","ALLEY":" ","HOUSE_NO":"１號","E_COORD97":178494.63,"N_COORD97":2548237.25,"ADDRESS":"信義路４４３巷１號","OBJECTID":399805},"geometry":{"x":178494.62999999989,"y":2548237.2500000019}},{"attributes":{"ID":399830,"DIS_CODE":0,"TOWNNAME":"新化區","LI":"豐榮里","LIN":"11鄰","STREET":"信義路","SECT":" ","MAREA":" ","LANE":"４４３巷","ALLEY":" ","HOUSE_NO":"５號","E_COORD97":178494.42999999999,"N_COORD97":2548225.25,"ADDRESS":"信義路４４３巷５號","OBJECTID":399806},"geometry":{"x":178494.4299999997,"y":2548225.25}},{"attributes":{"ID":399831,"DIS_CODE":0,"TOWNNAME":"新化區","LI":"豐榮里","LIN":"11鄰","STREET":"信義路","SECT":" ","MAREA":" ","LANE":"４４３巷","ALLEY":" ","HOUSE_NO":"３７號","E_COORD97":178518.78,"N_COORD97":2548196.25,"ADDRESS":"信義路４４３巷３７號","OBJECTID":399807},"geometry":{"x":178518.78000000119,"y":2548196.2500000037}},{"attributes":{"ID":399832,"DIS_CODE":0,"TOWNNAME":"新化區","LI":"豐榮里","LIN":"11鄰","STREET":"信義路","SECT":" ","MAREA":" ","LANE":"４４３巷","ALLEY":" ","HOUSE_NO":"２５號","E_COORD97":178526.98000000001,"N_COORD97":2548236.25,"ADDRESS":"信義路４４３巷２５號","OBJECTID":399808},"geometry":{"x":178526.98000000045,"y":2548236.25}},{"attributes":{"ID":399833,"DIS_CODE":0,"TOWNNAME":"新化區","LI":"豐榮里","LIN":"11鄰","STREET":"信義路","SECT":" ","MAREA":" ","LANE":"４４３巷","ALLEY":" ","HOUSE_NO":"４１號","E_COORD97":178509.78,"N_COORD97":2548196.25,"ADDRESS":"信義路４４３巷４１號","OBJECTID":399809},"geometry":{"x":178509.78000000026,"y":2548196.2500000037}},{"attributes":{"ID":399834,"DIS_CODE":0,"TOWNNAME":"新化區","LI":"豐榮里","LIN":"11鄰","STREET":"信義路","SECT":" ","MAREA":" ","LANE":"４４３巷","ALLEY":" ","HOUSE_NO":"９號","E_COORD97":178494.23000000001,"N_COORD97":2548214.25,"ADDRESS":"信義路４４３巷９號","OBJECTID":399810},"geometry":{"x":178494.23000000138,"y":2548214.2500000019}},{"attributes":{"ID":399835,"DIS_CODE":0,"TOWNNAME":"新化區","LI":"協興里","LIN":"11鄰","STREET":"太平街","SECT":" ","MAREA":" ","LANE":"１５０巷","ALLEY":" ","HOUSE_NO":"２０６號","E_COORD97":178306.12,"N_COORD97":2548911.25,"ADDRESS":"太平街１５０巷２０６號","OBJECTID":399811},"geometry":{"x":178306.12000000104,"y":2548911.2499999981}},{"attributes":{"ID":399836,"DIS_CODE":0,"TOWNNAME":"新化區","LI":"協興里","LIN":"11鄰","STREET":"太平街","SECT":" ","MAREA":" ","LANE":"１５０巷","ALLEY":" ","HOUSE_NO":"２２６號","E_COORD97":178316.82000000001,"N_COORD97":2548952.25,"ADDRESS":"太平街１５０巷２２６號","OBJECTID":399812},"geometry":{"x":178316.82000000123,"y":2548952.2500000037}},{"attributes":{"ID":399837,"DIS_CODE":0,"TOWNNAME":"新化區","LI":"協興里","LIN":"11鄰","STREET":"太平街","SECT":" ","MAREA":" ","LANE":"１５０巷","ALLEY":" ","HOUSE_NO":"１７４號","E_COORD97":178311.62,"N_COORD97":2548880.25,"ADDRESS":"太平街１５０巷１７４號","OBJECTID":399813},"geometry":{"x":178311.62000000104,"y":2548880.25}},{"attributes":{"ID":399838,"DIS_CODE":0,"TOWNNAME":"新化區","LI":"協興里","LIN":"11鄰","STREET":"太平街","SECT":" ","MAREA":" ","LANE":"１５０巷","ALLEY":" ","HOUSE_NO":"２２４號","E_COORD97":178296.01999999999,"N_COORD97":2548948.25,"ADDRESS":"太平街１５０巷２２４號","OBJECTID":399814},"geometry":{"x":178296.02000000048,"y":2548948.25}},{"attributes":{"ID":399839,"DIS_CODE":0,"TOWNNAME":"新化區","LI":"協興里","LIN":"11鄰","STREET":"太平街","SECT":" ","MAREA":" ","LANE":"１５０巷","ALLEY":" ","HOUSE_NO":"１９０號","E_COORD97":178336.62,"N_COORD97":2548903.25,"ADDRESS":"太平街１５０巷１９０號","OBJECTID":399815},"geometry":{"x":178336.62000000104,"y":2548903.25}},{"attributes":{"ID":399840,"DIS_CODE":0,"TOWNNAME":"新化區","LI":"協興里","LIN":"11鄰","STREET":"太平街","SECT":" ","MAREA":" ","LANE":"１５０巷","ALLEY":" ","HOUSE_NO":"２１６號","E_COORD97":178300.72,"N_COORD97":2548931.25,"ADDRESS":"太平街１５０巷２１６號","OBJECTID":399816},"geometry":{"x":178300.71999999974,"y":2548931.25}},{"attributes":{"ID":399841,"DIS_CODE":0,"TOWNNAME":"新化區","LI":"協興里","LIN":"11鄰","STREET":"太平街","SECT":" ","MAREA":" ","LANE":"１５０巷","ALLEY":" ","HOUSE_NO":"１８６號","E_COORD97":178328.72,"N_COORD97":2548901.25,"ADDRESS":"太平街１５０巷１８６號","OBJECTID":399817},"geometry":{"x":178328.72000000067,"y":2548901.2500000037}},{"attributes":{"ID":399842,"DIS_CODE":0,"TOWNNAME":"新化區","LI":"協興里","LIN":"11鄰","STREET":"太平街","SECT":" ","MAREA":" ","LANE":"１５０巷","ALLEY":" ","HOUSE_NO":"１９６號","E_COORD97":178332.92000000001,"N_COORD97":2548913.25,"ADDRESS":"太平街１５０巷１９６號","OBJECTID":399818},"geometry":{"x":178332.92000000086,"y":2548913.25}},{"attributes":{"ID":399843,"DIS_CODE":0,"TOWNNAME":"新化區","LI":"協興里","LIN":"11鄰","STREET":"太平街","SECT":" ","MAREA":" ","LANE":"１５０巷","ALLEY":" ","HOUSE_NO":"２１４號","E_COORD97":178302.01999999999,"N_COORD97":2548926.25,"ADDRESS":"太平街１５０巷２１４號","OBJECTID":399819},"geometry":{"x":178302.01999999955,"y":2548926.2500000019}},{"attributes":{"ID":399844,"DIS_CODE":0,"TOWNNAME":"新化區","LI":"豐榮里","LIN":"11鄰","STREET":"信義路","SECT":" ","MAREA":" ","LANE":"４４３巷","ALLEY":" ","HOUSE_NO":"４３號","E_COORD97":178504.17999999999,"N_COORD97":2548196.25,"ADDRESS":"信義路４４３巷４３號","OBJECTID":399820},"geometry":{"x":178504.1799999997,"y":2548196.2500000037}},{"attributes":{"ID":399845,"DIS_CODE":0,"TOWNNAME":"新化區","LI":"協興里","LIN":"11鄰","STREET":"太平街","SECT":" ","MAREA":" ","LANE":"１５０巷","ALLEY":" ","HOUSE_NO":"２４４號","E_COORD97":178333.01999999999,"N_COORD97":2548962.25,"ADDRESS":"太平街１５０巷２４４號","OBJECTID":399821},"geometry":{"x":178333.02000000142,"y":2548962.2500000037}},{"attributes":{"ID":399846,"DIS_CODE":0,"TOWNNAME":"新化區","LI":"協興里","LIN":"11鄰","STREET":"太平街","SECT":" ","MAREA":" ","LANE":"１５０巷","ALLEY":" ","HOUSE_NO":"２３４號","E_COORD97":178341.92000000001,"N_COORD97":2548944.25,"ADDRESS":"太平街１５０巷２３４號","OBJECTID":399822},"geometry":{"x":178341.91999999993,"y":2548944.25}},{"attributes":{"ID":399847,"DIS_CODE":0,"TOWNNAME":"新化區","LI":"協興里","LIN":"11鄰","STREET":"太平街","SECT":" ","MAREA":" ","LANE":"１５０巷","ALLEY":" ","HOUSE_NO":"１７６號","E_COORD97":178310.72,"N_COORD97":2548883.25,"ADDRESS":"太平街１５０巷１７６號","OBJECTID":399823},"geometry":{"x":178310.71999999974,"y":2548883.25}},{"attributes":{"ID":399848,"DIS_CODE":0,"TOWNNAME":"新化區","LI":"太平里","LIN":"11鄰","STREET":"中正路","SECT":" ","MAREA":" ","LANE":"７０７巷","ALLEY":" ","HOUSE_NO":"３７號之１１","E_COORD97":178620.34,"N_COORD97":2549086.2599999998,"ADDRESS":"中正路７０７巷３７號之１１","OBJECTID":399824},"geometry":{"x":178620.33999999985,"y":2549086.2599999998}},{"attributes":{"ID":399849,"DIS_CODE":0,"TOWNNAME":"新化區","LI":"太平里","LIN":"11鄰","STREET":"中正路","SECT":" ","MAREA":" ","LANE":"７０７巷","ALLEY":" ","HOUSE_NO":"２９號之２","E_COORD97":178643.01000000001,"N_COORD97":2549094.2599999998,"ADDRESS":"中正路７０７巷２９號之２","OBJECTID":399825},"geometry":{"x":178643.00999999978,"y":2549094.2600000035}},{"attributes":{"ID":399850,"DIS_CODE":0,"TOWNNAME":"新化區","LI":"太平里","LIN":"11鄰","STREET":"中正路","SECT":" ","MAREA":" ","LANE":"６９１巷","ALLEY":" ","HOUSE_NO":"３８號之１","E_COORD97":178704.19,"N_COORD97":2548968.2599999998,"ADDRESS":"中正路６９１巷３８號之１","OBJECTID":399826},"geometry":{"x":178704.19000000134,"y":2548968.2599999998}},{"attributes":{"ID":399851,"DIS_CODE":0,"TOWNNAME":"新化區","LI":"武安里","LIN":"11鄰","STREET":"信義路","SECT":" ","MAREA":" ","LANE":"３３９巷","ALLEY":" ","HOUSE_NO":"２０號","E_COORD97":178817.38,"N_COORD97":2548234.25,"ADDRESS":"信義路３３９巷２０號","OBJECTID":399827},"geometry":{"x":178817.38000000175,"y":2548234.2500000019}},{"attributes":{"ID":399852,"DIS_CODE":0,"TOWNNAME":"新化區","LI":"太平里","LIN":"11鄰","STREET":"中正路","SECT":" ","MAREA":" ","LANE":"６９１巷","ALLEY":" ","HOUSE_NO":"８號之３","E_COORD97":178777.95999999999,"N_COORD97":2549079.2599999998,"ADDRESS":"中正路６９１巷８號之３","OBJECTID":399828},"geometry":{"x":178777.96000000183,"y":2549079.2599999998}},{"attributes":{"ID":399853,"DIS_CODE":0,"TOWNNAME":"安南區","LI":"佃西里","LIN":"11鄰","STREET":"公學路","SECT":"五段","MAREA":" ","LANE":"１７６巷","ALLEY":" ","HOUSE_NO":"３８之３號","E_COORD97":164934.38,"N_COORD97":2552144.9900000002,"ADDRESS":"公學路五段１７６巷３８之３號","OBJECTID":399829},"geometry":{"x":164934.38000000082,"y":2552144.9900000021}},{"attributes":{"ID":399854,"DIS_CODE":0,"TOWNNAME":"南區","LI":"同安里","LIN":"11鄰","STREET":"明興路","SECT":" ","MAREA":" ","LANE":"１２５３巷","ALLEY":" ","HOUSE_NO":"２號","E_COORD97":166439.42000000001,"N_COORD97":2536093.4500000002,"ADDRESS":"明興路１２５３巷２號","OBJECTID":399830},"geometry":{"x":166439.42000000086,"y":2536093.4499999974}},{"attributes":{"ID":399855,"DIS_CODE":0,"TOWNNAME":"南區","LI":"同安里","LIN":"11鄰","STREET":"明興路","SECT":" ","MAREA":" ","LANE":"１２５３巷","ALLEY":" ","HOUSE_NO":"２號之１","E_COORD97":166443.17999999999,"N_COORD97":2536088.4900000002,"ADDRESS":"明興路１２５３巷２號之１","OBJECTID":399831},"geometry":{"x":166443.1799999997,"y":2536088.4900000021}},{"attributes":{"ID":399856,"DIS_CODE":0,"TOWNNAME":"南區","LI":"同安里","LIN":"11鄰","STREET":"明興路","SECT":" ","MAREA":" ","LANE":"１２５３巷","ALLEY":" ","HOUSE_NO":"６號","E_COORD97":166447.98000000001,"N_COORD97":2536091.9100000001,"ADDRESS":"明興路１２５３巷６號","OBJECTID":399832},"geometry":{"x":166447.98000000138,"y":2536091.910000002}},{"attributes":{"ID":399857,"DIS_CODE":0,"TOWNNAME":"南區","LI":"同安里","LIN":"11鄰","STREET":"明興路","SECT":" ","MAREA":" ","LANE":"１２５３巷","ALLEY":" ","HOUSE_NO":"８號","E_COORD97":166450.89000000001,"N_COORD97":2536086.4399999999,"ADDRESS":"明興路１２５３巷８號","OBJECTID":399833},"geometry":{"x":166450.8900000006,"y":2536086.4399999995}},{"attributes":{"ID":399858,"DIS_CODE":0,"TOWNNAME":"南區","LI":"同安里","LIN":"11鄰","STREET":"明興路","SECT":" ","MAREA":" ","LANE":"１２５３巷","ALLEY":" ","HOUSE_NO":"１０號","E_COORD97":166455.85000000001,"N_COORD97":2536088.8300000001,"ADDRESS":"明興路１２５３巷１０號","OBJECTID":399834},"geometry":{"x":166455.84999999963,"y":2536088.8300000038}},{"attributes":{"ID":399859,"DIS_CODE":0,"TOWNNAME":"南區","LI":"同安里","LIN":"11鄰","STREET":"明興路","SECT":" ","MAREA":" ","LANE":"１２５３巷","ALLEY":" ","HOUSE_NO":"１２號","E_COORD97":166458.76000000001,"N_COORD97":2536082.6800000002,"ADDRESS":"明興路１２５３巷１２號","OBJECTID":399835},"geometry":{"x":166458.76000000071,"y":2536082.6800000034}},{"attributes":{"ID":399860,"DIS_CODE":0,"TOWNNAME":"南區","LI":"同安里","LIN":"11鄰","STREET":"明興路","SECT":" ","MAREA":" ","LANE":"１２５３巷","ALLEY":" ","HOUSE_NO":"１４號","E_COORD97":166463.20999999999,"N_COORD97":2536086.6099999999,"ADDRESS":"明興路１２５３巷１４號","OBJECTID":399836},"geometry":{"x":166463.21000000089,"y":2536086.6100000013}},{"attributes":{"ID":399861,"DIS_CODE":0,"TOWNNAME":"南區","LI":"同安里","LIN":"11鄰","STREET":"明興路","SECT":" ","MAREA":" ","LANE":"１２５３巷","ALLEY":" ","HOUSE_NO":"１６號","E_COORD97":166467.82999999999,"N_COORD97":2536083.02,"ADDRESS":"明興路１２５３巷１６號","OBJECTID":399837},"geometry":{"x":166467.83000000007,"y":2536083.0199999996}},{"attributes":{"ID":399862,"DIS_CODE":0,"TOWNNAME":"南區","LI":"同安里","LIN":"11鄰","STREET":"明興路","SECT":" ","MAREA":" ","LANE":"１２５３巷","ALLEY":" ","HOUSE_NO":"１８號","E_COORD97":166471.09,"N_COORD97":2536077.3799999999,"ADDRESS":"明興路１２５３巷１８號","OBJECTID":399838},"geometry":{"x":166471.08999999985,"y":2536077.3800000008}},{"attributes":{"ID":399863,"DIS_CODE":0,"TOWNNAME":"南區","LI":"同安里","LIN":"11鄰","STREET":"明興路","SECT":" ","MAREA":" ","LANE":"１２５３巷","ALLEY":" ","HOUSE_NO":"２０號","E_COORD97":166476.22,"N_COORD97":2536083.02,"ADDRESS":"明興路１２５３巷２０號","OBJECTID":399839},"geometry":{"x":166476.22000000067,"y":2536083.0199999996}},{"attributes":{"ID":399864,"DIS_CODE":0,"TOWNNAME":"南區","LI":"同安里","LIN":"11鄰","STREET":"明興路","SECT":" ","MAREA":" ","LANE":"１２５３巷","ALLEY":" ","HOUSE_NO":"２２號","E_COORD97":166478.95999999999,"N_COORD97":2536077.21,"ADDRESS":"明興路１２５３巷２２號","OBJECTID":399840},"geometry":{"x":166478.95999999996,"y":2536077.2100000028}},{"attributes":{"ID":399865,"DIS_CODE":0,"TOWNNAME":"南區","LI":"同安里","LIN":"11鄰","STREET":"明興路","SECT":" ","MAREA":" ","LANE":"１２５３巷","ALLEY":" ","HOUSE_NO":"２４號","E_COORD97":166484.26999999999,"N_COORD97":2536081.3100000001,"ADDRESS":"明興路１２５３巷２４號","OBJECTID":399841},"geometry":{"x":166484.27000000048,"y":2536081.3100000005}},{"attributes":{"ID":399866,"DIS_CODE":0,"TOWNNAME":"南區","LI":"同安里","LIN":"11鄰","STREET":"明興路","SECT":" ","MAREA":" ","LANE":"１２５３巷","ALLEY":" ","HOUSE_NO":"２６號","E_COORD97":166487.51999999999,"N_COORD97":2536075.8399999999,"ADDRESS":"明興路１２５３巷２６號","OBJECTID":399842},"geometry":{"x":166487.52000000048,"y":2536075.8400000017}},{"attributes":{"ID":399867,"DIS_CODE":0,"TOWNNAME":"南區","LI":"同安里","LIN":"11鄰","STREET":"明興路","SECT":" ","MAREA":" ","LANE":"１２５３巷","ALLEY":" ","HOUSE_NO":"２８號","E_COORD97":166492.48000000001,"N_COORD97":2536079.2599999998,"ADDRESS":"明興路１２５３巷２８號","OBJECTID":399843},"geometry":{"x":166492.48000000045,"y":2536079.2600000016}},{"attributes":{"ID":399868,"DIS_CODE":0,"TOWNNAME":"南區","LI":"同安里","LIN":"11鄰","STREET":"明興路","SECT":" ","MAREA":" ","LANE":"１２７５巷","ALLEY":" ","HOUSE_NO":"１號","E_COORD97":166433.26000000001,"N_COORD97":2536069,"ADDRESS":"明興路１２７５巷１號","OBJECTID":399844},"geometry":{"x":166433.26000000071,"y":2536069}},{"attributes":{"ID":399869,"DIS_CODE":0,"TOWNNAME":"南區","LI":"同安里","LIN":"11鄰","STREET":"明興路","SECT":" ","MAREA":" ","LANE":"１２７５巷","ALLEY":" ","HOUSE_NO":"３號","E_COORD97":166437.19,"N_COORD97":2536067.1200000001,"ADDRESS":"明興路１２７５巷３號","OBJECTID":399845},"geometry":{"x":166437.19000000041,"y":2536067.1199999992}},{"attributes":{"ID":399870,"DIS_CODE":0,"TOWNNAME":"南區","LI":"同安里","LIN":"11鄰","STREET":"明興路","SECT":" ","MAREA":" ","LANE":"１２７５巷","ALLEY":" ","HOUSE_NO":"５號","E_COORD97":166442.16,"N_COORD97":2536069.1699999999,"ADDRESS":"明興路１２７５巷５號","OBJECTID":399846},"geometry":{"x":166442.16000000015,"y":2536069.1700000037}},{"attributes":{"ID":399871,"DIS_CODE":0,"TOWNNAME":"南區","LI":"同安里","LIN":"11鄰","STREET":"明興路","SECT":" ","MAREA":" ","LANE":"１２７５巷","ALLEY":" ","HOUSE_NO":"７號","E_COORD97":166445.41,"N_COORD97":2536064.73,"ADDRESS":"明興路１２７５巷７號","OBJECTID":399847},"geometry":{"x":166445.41000000015,"y":2536064.7300000004}},{"attributes":{"ID":399872,"DIS_CODE":0,"TOWNNAME":"南區","LI":"同安里","LIN":"11鄰","STREET":"明興路","SECT":" ","MAREA":" ","LANE":"１２７５巷","ALLEY":" ","HOUSE_NO":"９號","E_COORD97":166450.72,"N_COORD97":2536066.9500000002,"ADDRESS":"明興路１２７５巷９號","OBJECTID":399848},"geometry":{"x":166450.72000000067,"y":2536066.9500000011}},{"attributes":{"ID":399873,"DIS_CODE":0,"TOWNNAME":"南區","LI":"同安里","LIN":"11鄰","STREET":"明興路","SECT":" ","MAREA":" ","LANE":"１２７５巷","ALLEY":" ","HOUSE_NO":"１１號","E_COORD97":166453.28,"N_COORD97":2536060.1099999999,"ADDRESS":"明興路１２７５巷１１號","OBJECTID":399849},"geometry":{"x":166453.28000000026,"y":2536060.1100000013}},{"attributes":{"ID":399874,"DIS_CODE":0,"TOWNNAME":"南區","LI":"同安里","LIN":"11鄰","STREET":"明興路","SECT":" ","MAREA":" ","LANE":"１２７５巷","ALLEY":" ","HOUSE_NO":"１３號","E_COORD97":166458.07999999999,"N_COORD97":2536064.3799999999,"ADDRESS":"明興路１２７５巷１３號","OBJECTID":399850},"geometry":{"x":166458.08000000007,"y":2536064.3800000008}},{"attributes":{"ID":399875,"DIS_CODE":0,"TOWNNAME":"南區","LI":"廣州里","LIN":"11鄰","STREET":"福吉一街","SECT":" ","MAREA":" ","LANE":"１２巷","ALLEY":" ","HOUSE_NO":"５號","E_COORD97":167381.37,"N_COORD97":2542757.6400000001,"ADDRESS":"福吉一街１２巷５號","OBJECTID":399851},"geometry":{"x":167381.37000000011,"y":2542757.6400000006}},{"attributes":{"ID":399876,"DIS_CODE":0,"TOWNNAME":"南區","LI":"同安里","LIN":"11鄰","STREET":"明興路","SECT":" ","MAREA":" ","LANE":"１２７５巷","ALLEY":" ","HOUSE_NO":"１７號","E_COORD97":166466.63,"N_COORD97":2536063.02,"ADDRESS":"明興路１２７５巷１７號","OBJECTID":399852},"geometry":{"x":166466.63000000082,"y":2536063.0200000033}},{"attributes":{"ID":399877,"DIS_CODE":0,"TOWNNAME":"南區","LI":"同安里","LIN":"11鄰","STREET":"明興路","SECT":" ","MAREA":" ","LANE":"１２７５巷","ALLEY":" ","HOUSE_NO":"１９號","E_COORD97":166469.89000000001,"N_COORD97":2536058.3999999999,"ADDRESS":"明興路１２７５巷１９號","OBJECTID":399853},"geometry":{"x":166469.8900000006,"y":2536058.4000000022}},{"attributes":{"ID":399878,"DIS_CODE":0,"TOWNNAME":"南區","LI":"同安里","LIN":"11鄰","STREET":"明興路","SECT":" ","MAREA":" ","LANE":"１２７５巷","ALLEY":" ","HOUSE_NO":"２１號","E_COORD97":166473.82000000001,"N_COORD97":2536055.5,"ADDRESS":"明興路１２７５巷２１號","OBJECTID":399854},"geometry":{"x":166473.82000000216,"y":2536055.5}},{"attributes":{"ID":399879,"DIS_CODE":0,"TOWNNAME":"南區","LI":"同安里","LIN":"11鄰","STREET":"明興路","SECT":" ","MAREA":" ","LANE":"１２７５巷","ALLEY":" ","HOUSE_NO":"２３號","E_COORD97":166478.95999999999,"N_COORD97":2536058.7400000002,"ADDRESS":"明興路１２７５巷２３號","OBJECTID":399855},"geometry":{"x":166478.95999999996,"y":2536058.7400000039}},{"attributes":{"ID":399880,"DIS_CODE":0,"TOWNNAME":"南區","LI":"同安里","LIN":"11鄰","STREET":"明興路","SECT":" ","MAREA":" ","LANE":"１２７５巷","ALLEY":" ","HOUSE_NO":"２５號","E_COORD97":166481.87,"N_COORD97":2536053.96,"ADDRESS":"明興路１２７５巷２５號","OBJECTID":399856},"geometry":{"x":166481.87000000197,"y":2536053.9600000009}},{"attributes":{"ID":399881,"DIS_CODE":0,"TOWNNAME":"南區","LI":"同安里","LIN":"11鄰","STREET":"明興路","SECT":" ","MAREA":" ","LANE":"１２７５巷","ALLEY":" ","HOUSE_NO":"２７號","E_COORD97":166487,"N_COORD97":2536057.0299999998,"ADDRESS":"明興路１２７５巷２７號","OBJECTID":399857},"geometry":{"x":166487,"y":2536057.0300000012}},{"attributes":{"ID":399882,"DIS_CODE":0,"TOWNNAME":"南區","LI":"同安里","LIN":"11鄰","STREET":"明興路","SECT":" ","MAREA":" ","LANE":"１２７５巷","ALLEY":" ","HOUSE_NO":"２９號","E_COORD97":166490.26000000001,"N_COORD97":2536051.5600000001,"ADDRESS":"明興路１２７５巷２９號","OBJECTID":399858},"geometry":{"x":166490.25999999978,"y":2536051.5600000024}},{"attributes":{"ID":399883,"DIS_CODE":0,"TOWNNAME":"南區","LI":"同安里","LIN":"11鄰","STREET":"明興路","SECT":" ","MAREA":" ","LANE":"１２７５巷","ALLEY":" ","HOUSE_NO":"３１號","E_COORD97":166493.60000000001,"N_COORD97":2536047.9100000001,"ADDRESS":"明興路１２７５巷３１號","OBJECTID":399859},"geometry":{"x":166493.60000000056,"y":2536047.910000002}},{"attributes":{"ID":399884,"DIS_CODE":0,"TOWNNAME":"南區","LI":"同安里","LIN":"11鄰","STREET":"明興路","SECT":" ","MAREA":" ","LANE":"１２７５巷","ALLEY":" ","HOUSE_NO":"３３號","E_COORD97":166499.25,"N_COORD97":2536052.0099999998,"ADDRESS":"明興路１２７５巷３３號","OBJECTID":399860},"geometry":{"x":166499.25,"y":2536052.0099999998}},{"attributes":{"ID":399885,"DIS_CODE":0,"TOWNNAME":"南區","LI":"同安里","LIN":"11鄰","STREET":"明興路","SECT":" ","MAREA":" ","LANE":"１２７５巷","ALLEY":" ","HOUSE_NO":"３５號","E_COORD97":166502.85000000001,"N_COORD97":2536049.27,"ADDRESS":"明興路１２７５巷３５號","OBJECTID":399861},"geometry":{"x":166502.84999999963,"y":2536049.2700000014}},{"attributes":{"ID":399886,"DIS_CODE":0,"TOWNNAME":"南區","LI":"同安里","LIN":"11鄰","STREET":"明興路","SECT":" ","MAREA":" ","LANE":"１２７５巷","ALLEY":" ","HOUSE_NO":"３７號","E_COORD97":166507.13,"N_COORD97":2536049.1000000001,"ADDRESS":"明興路１２７５巷３７號","OBJECTID":399862},"geometry":{"x":166507.13000000082,"y":2536049.1000000034}},{"attributes":{"ID":399887,"DIS_CODE":0,"TOWNNAME":"南區","LI":"同安里","LIN":"11鄰","STREET":"明興路","SECT":" ","MAREA":" ","LANE":"１２７５巷","ALLEY":" ","HOUSE_NO":"３９號","E_COORD97":166510.72,"N_COORD97":2536045,"ADDRESS":"明興路１２７５巷３９號","OBJECTID":399863},"geometry":{"x":166510.71999999974,"y":2536045}},{"attributes":{"ID":399888,"DIS_CODE":0,"TOWNNAME":"南區","LI":"松安里","LIN":"11鄰","STREET":"灣裡路","SECT":" ","MAREA":" ","LANE":"４１８巷","ALLEY":" ","HOUSE_NO":"３號","E_COORD97":166163.12,"N_COORD97":2536139.29,"ADDRESS":"灣裡路４１８巷３號","OBJECTID":399864},"geometry":{"x":166163.12000000197,"y":2536139.290000001}},{"attributes":{"ID":399889,"DIS_CODE":0,"TOWNNAME":"南區","LI":"竹溪里","LIN":"11鄰","STREET":"體育路","SECT":" ","MAREA":" ","LANE":"４３巷","ALLEY":" ","HOUSE_NO":"３７號","E_COORD97":168815.48000000001,"N_COORD97":2542199.5899999999,"ADDRESS":"體育路４３巷３７號","OBJECTID":399865},"geometry":{"x":168815.48000000045,"y":2542199.5900000036}},{"attributes":{"ID":399890,"DIS_CODE":0,"TOWNNAME":"南區","LI":"竹溪里","LIN":"11鄰","STREET":"體育路","SECT":" ","MAREA":" ","LANE":"４３巷","ALLEY":" ","HOUSE_NO":"２７號","E_COORD97":168810.97,"N_COORD97":2542221.4100000001,"ADDRESS":"體育路４３巷２７號","OBJECTID":399866},"geometry":{"x":168810.96999999974,"y":2542221.4100000039}},{"attributes":{"ID":399891,"DIS_CODE":0,"TOWNNAME":"南區","LI":"竹溪里","LIN":"11鄰","STREET":"體育路","SECT":" ","MAREA":" ","LANE":"４３巷","ALLEY":" ","HOUSE_NO":"２９號","E_COORD97":168816.17999999999,"N_COORD97":2542221.0699999998,"ADDRESS":"體育路４３巷２９號","OBJECTID":399867},"geometry":{"x":168816.1799999997,"y":2542221.0700000022}},{"attributes":{"ID":399892,"DIS_CODE":0,"TOWNNAME":"南區","LI":"竹溪里","LIN":"11鄰","STREET":"體育路","SECT":" ","MAREA":" ","LANE":"４３巷","ALLEY":" ","HOUSE_NO":"４３號","E_COORD97":168805.67999999999,"N_COORD97":2542187.02,"ADDRESS":"體育路４３巷４３號","OBJECTID":399868},"geometry":{"x":168805.68000000063,"y":2542187.0200000014}},{"attributes":{"ID":399893,"DIS_CODE":0,"TOWNNAME":"南區","LI":"竹溪里","LIN":"11鄰","STREET":"體育路","SECT":" ","MAREA":" ","LANE":"４３巷","ALLEY":" ","HOUSE_NO":"４５號","E_COORD97":168812.70000000001,"N_COORD97":2542186.71,"ADDRESS":"體育路４３巷４５號","OBJECTID":399869},"geometry":{"x":168812.70000000112,"y":2542186.7100000028}},{"attributes":{"ID":399894,"DIS_CODE":0,"TOWNNAME":"南區","LI":"竹溪里","LIN":"11鄰","STREET":"體育路","SECT":" ","MAREA":" ","LANE":"４３巷","ALLEY":" ","HOUSE_NO":"４７號","E_COORD97":168821.13,"N_COORD97":2542186.3199999998,"ADDRESS":"體育路４３巷４７號","OBJECTID":399870},"geometry":{"x":168821.13000000082,"y":2542186.3200000022}},{"attributes":{"ID":399895,"DIS_CODE":0,"TOWNNAME":"南區","LI":"竹溪里","LIN":"11鄰","STREET":"體育路","SECT":" ","MAREA":" ","LANE":"４３巷","ALLEY":" ","HOUSE_NO":"４９號","E_COORD97":168825.89000000001,"N_COORD97":2542185.73,"ADDRESS":"體育路４３巷４９號","OBJECTID":399871},"geometry":{"x":168825.8900000006,"y":2542185.7300000042}},{"attributes":{"ID":399896,"DIS_CODE":0,"TOWNNAME":"南區","LI":"竹溪里","LIN":"11鄰","STREET":"健康路","SECT":"一段","MAREA":" ","LANE":"１３３巷","ALLEY":" ","HOUSE_NO":"６８號","E_COORD97":168840.45000000001,"N_COORD97":2542194.3399999999,"ADDRESS":"健康路一段１３３巷６８號","OBJECTID":399872},"geometry":{"x":168840.45000000019,"y":2542194.3400000036}},{"attributes":{"ID":399897,"DIS_CODE":0,"TOWNNAME":"南區","LI":"佛壇里","LIN":"11鄰","STREET":"灣裡路","SECT":" ","MAREA":" ","LANE":"４５１巷","ALLEY":" ","HOUSE_NO":"３號","E_COORD97":166280.48000000001,"N_COORD97":2535938.1000000001,"ADDRESS":"灣裡路４５１巷３號","OBJECTID":399873},"geometry":{"x":166280.48000000138,"y":2535938.1000000015}},{"attributes":{"ID":399898,"DIS_CODE":0,"TOWNNAME":"南區","LI":"佛壇里","LIN":"11鄰","STREET":"灣裡路","SECT":" ","MAREA":" ","LANE":"４５１巷","ALLEY":" ","HOUSE_NO":"７號","E_COORD97":166274.76999999999,"N_COORD97":2535952.0600000001,"ADDRESS":"灣裡路４５１巷７號","OBJECTID":399874},"geometry":{"x":166274.76999999955,"y":2535952.0600000042}},{"attributes":{"ID":399899,"DIS_CODE":0,"TOWNNAME":"南區","LI":"佛壇里","LIN":"11鄰","STREET":"灣裡路","SECT":" ","MAREA":" ","LANE":"４５１巷","ALLEY":" ","HOUSE_NO":"９號","E_COORD97":166280.10999999999,"N_COORD97":2535969.3300000001,"ADDRESS":"灣裡路４５１巷９號","OBJECTID":399875},"geometry":{"x":166280.11000000034,"y":2535969.3300000001}},{"attributes":{"ID":399900,"DIS_CODE":0,"TOWNNAME":"南區","LI":"佛壇里","LIN":"11鄰","STREET":"灣裡路","SECT":" ","MAREA":" ","LANE":"４５１巷","ALLEY":" ","HOUSE_NO":"８號","E_COORD97":166295.60000000001,"N_COORD97":2535948.75,"ADDRESS":"灣裡路４５１巷８號","OBJECTID":399876},"geometry":{"x":166295.60000000056,"y":2535948.75}},{"attributes":{"ID":399901,"DIS_CODE":0,"TOWNNAME":"南區","LI":"佛壇里","LIN":"11鄰","STREET":"灣裡路","SECT":" ","MAREA":" ","LANE":"４５１巷","ALLEY":" ","HOUSE_NO":"２０號","E_COORD97":166283.89000000001,"N_COORD97":2536058.0699999998,"ADDRESS":"灣裡路４５１巷２０號","OBJECTID":399877},"geometry":{"x":166283.88999999966,"y":2536058.0700000022}},{"attributes":{"ID":399902,"DIS_CODE":0,"TOWNNAME":"南區","LI":"佛壇里","LIN":"11鄰","STREET":"灣裡路","SECT":" ","MAREA":" ","LANE":"４５１巷","ALLEY":" ","HOUSE_NO":"２２號","E_COORD97":166283.44,"N_COORD97":2536062.3500000001,"ADDRESS":"灣裡路４５１巷２２號","OBJECTID":399878},"geometry":{"x":166283.44000000227,"y":2536062.3500000015}},{"attributes":{"ID":399903,"DIS_CODE":0,"TOWNNAME":"南區","LI":"府南里","LIN":"11鄰","STREET":"永成路","SECT":"三段","MAREA":" ","LANE":"４３２巷","ALLEY":" ","HOUSE_NO":"２３號","E_COORD97":167583.95000000001,"N_COORD97":2541120.3100000001,"ADDRESS":"永成路三段４３２巷２３號","OBJECTID":399879},"geometry":{"x":167583.95000000112,"y":2541120.3099999987}},{"attributes":{"ID":399904,"DIS_CODE":0,"TOWNNAME":"南區","LI":"府南里","LIN":"11鄰","STREET":"永成路","SECT":"三段","MAREA":" ","LANE":"４３２巷","ALLEY":" ","HOUSE_NO":"２號","E_COORD97":167525.35000000001,"N_COORD97":2541090.3300000001,"ADDRESS":"永成路三段４３２巷２號","OBJECTID":399880},"geometry":{"x":167525.34999999963,"y":2541090.3300000019}},{"attributes":{"ID":399905,"DIS_CODE":0,"TOWNNAME":"南區","LI":"府南里","LIN":"11鄰","STREET":"永成路","SECT":"三段","MAREA":" ","LANE":"４３２巷","ALLEY":" ","HOUSE_NO":"３號","E_COORD97":167530.92999999999,"N_COORD97":2541107.3500000001,"ADDRESS":"永成路三段４３２巷３號","OBJECTID":399881},"geometry":{"x":167530.93000000063,"y":2541107.3500000015}},{"attributes":{"ID":399906,"DIS_CODE":0,"TOWNNAME":"南區","LI":"府南里","LIN":"11鄰","STREET":"永成路","SECT":"三段","MAREA":" ","LANE":"４３２巷","ALLEY":" ","HOUSE_NO":"５號","E_COORD97":167536.53,"N_COORD97":2541108.73,"ADDRESS":"永成路三段４３２巷５號","OBJECTID":399882},"geometry":{"x":167536.53000000026,"y":2541108.7300000023}},{"attributes":{"ID":399907,"DIS_CODE":0,"TOWNNAME":"南區","LI":"府南里","LIN":"11鄰","STREET":"永成路","SECT":"三段","MAREA":" ","LANE":"４３２巷","ALLEY":" ","HOUSE_NO":"７號","E_COORD97":167542.32999999999,"N_COORD97":2541111.29,"ADDRESS":"永成路三段４３２巷７號","OBJECTID":399883},"geometry":{"x":167542.33000000101,"y":2541111.2899999991}},{"attributes":{"ID":399908,"DIS_CODE":0,"TOWNNAME":"南區","LI":"廣州里","LIN":"11鄰","STREET":"福吉一街","SECT":" ","MAREA":" ","LANE":"１２巷","ALLEY":" ","HOUSE_NO":"７號","E_COORD97":167384.73999999999,"N_COORD97":2542761.0099999998,"ADDRESS":"福吉一街１２巷７號","OBJECTID":399884},"geometry":{"x":167384.74000000209,"y":2542761.0100000016}},{"attributes":{"ID":399909,"DIS_CODE":0,"TOWNNAME":"南區","LI":"府南里","LIN":"11鄰","STREET":"永成路","SECT":"三段","MAREA":" ","LANE":"４３２巷","ALLEY":" ","HOUSE_NO":"９號","E_COORD97":167547.51999999999,"N_COORD97":2541113.6899999999,"ADDRESS":"永成路三段４３２巷９號","OBJECTID":399885},"geometry":{"x":167547.51999999955,"y":2541113.6900000032}},{"attributes":{"ID":399910,"DIS_CODE":0,"TOWNNAME":"東區","LI":"大同里","LIN":"11鄰","STREET":"大同路","SECT":"一段","MAREA":" ","LANE":"１４１巷","ALLEY":" ","HOUSE_NO":"４７號","E_COORD97":169275.51999999999,"N_COORD97":2542978.46,"ADDRESS":"大同路一段１４１巷４７號","OBJECTID":399886},"geometry":{"x":169275.52000000142,"y":2542978.4600000028}},{"attributes":{"ID":399911,"DIS_CODE":0,"TOWNNAME":"東區","LI":"大同里","LIN":"11鄰","STREET":"大同路","SECT":"一段","MAREA":" ","LANE":"１４１巷","ALLEY":" ","HOUSE_NO":"４１號","E_COORD97":169260.26000000001,"N_COORD97":2542963.5600000001,"ADDRESS":"大同路一段１４１巷４１號","OBJECTID":399887},"geometry":{"x":169260.25999999978,"y":2542963.5600000024}},{"attributes":{"ID":399912,"DIS_CODE":0,"TOWNNAME":"仁德區","LI":"成功里","LIN":"11鄰","STREET":"成功二街","SECT":" ","MAREA":" ","LANE":"３１巷","ALLEY":" ","HOUSE_NO":"４６號","E_COORD97":171035.22,"N_COORD97":2539839.75,"ADDRESS":"成功二街３１巷４６號","OBJECTID":399888},"geometry":{"x":171035.21999999974,"y":2539839.7500000019}},{"attributes":{"ID":399913,"DIS_CODE":0,"TOWNNAME":"仁德區","LI":"成功里","LIN":"11鄰","STREET":"成功二街","SECT":" ","MAREA":" ","LANE":"２３巷","ALLEY":" ","HOUSE_NO":"１３號","E_COORD97":170959.32999999999,"N_COORD97":2539927.52,"ADDRESS":"成功二街２３巷１３號","OBJECTID":399889},"geometry":{"x":170959.33000000101,"y":2539927.5199999996}},{"attributes":{"ID":399914,"DIS_CODE":0,"TOWNNAME":"仁德區","LI":"上崙里","LIN":"11鄰","STREET":"德崙路","SECT":" ","MAREA":" ","LANE":"３６９巷","ALLEY":" ","HOUSE_NO":"１１之２號","E_COORD97":174097.04000000001,"N_COORD97":2538166.7999999998,"ADDRESS":"德崙路３６９巷１１之２號","OBJECTID":399890},"geometry":{"x":174097.0400000019,"y":2538166.8000000007}},{"attributes":{"ID":399915,"DIS_CODE":0,"TOWNNAME":"佳里區","LI":"忠仁里","LIN":"11鄰","STREET":"新生路","SECT":" ","MAREA":" ","LANE":"８５巷","ALLEY":" ","HOUSE_NO":"１０號","E_COORD97":165959.85999999999,"N_COORD97":2562297.27,"ADDRESS":"新生路８５巷１０號","OBJECTID":399891},"geometry":{"x":165959.86000000034,"y":2562297.2700000014}},{"attributes":{"ID":399916,"DIS_CODE":0,"TOWNNAME":"佳里區","LI":"忠仁里","LIN":"11鄰","STREET":"新生路","SECT":" ","MAREA":" ","LANE":"８５巷","ALLEY":" ","HOUSE_NO":"１號","E_COORD97":165972.29000000001,"N_COORD97":2562302.1200000001,"ADDRESS":"新生路８５巷１號","OBJECTID":399892},"geometry":{"x":165972.29000000097,"y":2562302.1200000048}},{"attributes":{"ID":399917,"DIS_CODE":0,"TOWNNAME":"佳里區","LI":"忠仁里","LIN":"11鄰","STREET":"新生路","SECT":" ","MAREA":" ","LANE":"８５巷","ALLEY":" ","HOUSE_NO":"２號","E_COORD97":165973.26000000001,"N_COORD97":2562298.1899999999,"ADDRESS":"新生路８５巷２號","OBJECTID":399893},"geometry":{"x":165973.25999999978,"y":2562298.1900000013}},{"attributes":{"ID":399918,"DIS_CODE":0,"TOWNNAME":"佳里區","LI":"忠仁里","LIN":"11鄰","STREET":"新生路","SECT":" ","MAREA":" ","LANE":"８５巷","ALLEY":" ","HOUSE_NO":"３號","E_COORD97":165974.17999999999,"N_COORD97":2562294.2599999998,"ADDRESS":"新生路８５巷３號","OBJECTID":399894},"geometry":{"x":165974.18000000156,"y":2562294.2600000016}},{"attributes":{"ID":399919,"DIS_CODE":0,"TOWNNAME":"佳里區","LI":"忠仁里","LIN":"11鄰","STREET":"新生路","SECT":" ","MAREA":" ","LANE":"８５巷","ALLEY":" ","HOUSE_NO":"５號","E_COORD97":165975.20000000001,"N_COORD97":2562290.23,"ADDRESS":"新生路８５巷５號","OBJECTID":399895},"geometry":{"x":165975.20000000112,"y":2562290.2300000004}},{"attributes":{"ID":399920,"DIS_CODE":0,"TOWNNAME":"佳里區","LI":"忠仁里","LIN":"11鄰","STREET":"新生路","SECT":" ","MAREA":" ","LANE":"８５巷","ALLEY":" ","HOUSE_NO":"６號","E_COORD97":165976.22,"N_COORD97":2562285.8900000001,"ADDRESS":"新生路８５巷６號","OBJECTID":399896},"geometry":{"x":165976.22000000067,"y":2562285.8900000006}},{"attributes":{"ID":399921,"DIS_CODE":0,"TOWNNAME":"佳里區","LI":"忠仁里","LIN":"11鄰","STREET":"新生路","SECT":" ","MAREA":" ","LANE":"８５巷","ALLEY":" ","HOUSE_NO":"７號","E_COORD97":165963.37,"N_COORD97":2562285.21,"ADDRESS":"新生路８５巷７號","OBJECTID":399897},"geometry":{"x":165963.37000000104,"y":2562285.2100000028}},{"attributes":{"ID":399922,"DIS_CODE":0,"TOWNNAME":"佳里區","LI":"忠仁里","LIN":"11鄰","STREET":"新生路","SECT":" ","MAREA":" ","LANE":"８５巷","ALLEY":" ","HOUSE_NO":"８號","E_COORD97":165962.22,"N_COORD97":2562289.1600000001,"ADDRESS":"新生路８５巷８號","OBJECTID":399898},"geometry":{"x":165962.22000000067,"y":2562289.1600000001}},{"attributes":{"ID":399923,"DIS_CODE":0,"TOWNNAME":"佳里區","LI":"忠仁里","LIN":"11鄰","STREET":"新生路","SECT":" ","MAREA":" ","LANE":"８５巷","ALLEY":" ","HOUSE_NO":"９號","E_COORD97":165961.03,"N_COORD97":2562293.0099999998,"ADDRESS":"新生路８５巷９號","OBJECTID":399899},"geometry":{"x":165961.03000000119,"y":2562293.0099999998}},{"attributes":{"ID":399924,"DIS_CODE":0,"TOWNNAME":"永康區","LI":"三民里","LIN":"11鄰","STREET":"和平路","SECT":" ","MAREA":" ","LANE":"２３０巷","ALLEY":" ","HOUSE_NO":"７號","E_COORD97":174795.42999999999,"N_COORD97":2550706.1400000001,"ADDRESS":"和平路２３０巷７號","OBJECTID":399900},"geometry":{"x":174795.4299999997,"y":2550706.1399999987}},{"attributes":{"ID":399925,"DIS_CODE":0,"TOWNNAME":"永康區","LI":"復國里","LIN":"11鄰","STREET":"復國一路","SECT":" ","MAREA":" ","LANE":"２８０巷","ALLEY":" ","HOUSE_NO":"９號","E_COORD97":172801.98000000001,"N_COORD97":2545509.8799999999,"ADDRESS":"復國一路２８０巷９號","OBJECTID":399901},"geometry":{"x":172801.98000000045,"y":2545509.8800000008}},{"attributes":{"ID":399926,"DIS_CODE":0,"TOWNNAME":"永康區","LI":"網寮里","LIN":"11鄰","STREET":"永勝街","SECT":" ","MAREA":" ","LANE":"１６３巷","ALLEY":" ","HOUSE_NO":"３號","E_COORD97":173304.25,"N_COORD97":2546481.4100000001,"ADDRESS":"永勝街１６３巷３號","OBJECTID":399902},"geometry":{"x":173304.25000000093,"y":2546481.4100000001}},{"attributes":{"ID":399927,"DIS_CODE":0,"TOWNNAME":"永康區","LI":"正強里","LIN":"11鄰","STREET":"正義街","SECT":" ","MAREA":" ","LANE":"１１５巷","ALLEY":" ","HOUSE_NO":"２號","E_COORD97":173377.98999999999,"N_COORD97":2547508.5600000001,"ADDRESS":"正義街１１５巷２號","OBJECTID":399903},"geometry":{"x":173377.99000000115,"y":2547508.5600000005}},{"attributes":{"ID":399928,"DIS_CODE":0,"TOWNNAME":"永康區","LI":"尚頂里","LIN":"11鄰","STREET":"正南一街","SECT":" ","MAREA":" ","LANE":"５７巷","ALLEY":" ","HOUSE_NO":"９號","E_COORD97":171183.98000000001,"N_COORD97":2547248.6800000002,"ADDRESS":"正南一街５７巷９號","OBJECTID":399904},"geometry":{"x":171183.98000000231,"y":2547248.6799999997}},{"attributes":{"ID":399929,"DIS_CODE":0,"TOWNNAME":"永康區","LI":"網寮里","LIN":"11鄰","STREET":"永勝街","SECT":" ","MAREA":" ","LANE":"２２２巷","ALLEY":" ","HOUSE_NO":"５號","E_COORD97":173364.76999999999,"N_COORD97":2546518.27,"ADDRESS":"永勝街２２２巷５號","OBJECTID":399905},"geometry":{"x":173364.77000000048,"y":2546518.2700000014}},{"attributes":{"ID":399930,"DIS_CODE":0,"TOWNNAME":"永康區","LI":"永康里","LIN":"11鄰","STREET":"永平街","SECT":" ","MAREA":" ","LANE":"４５巷","ALLEY":" ","HOUSE_NO":"１０號","E_COORD97":173673.59,"N_COORD97":2547179.48,"ADDRESS":"永平街４５巷１０號","OBJECTID":399906},"geometry":{"x":173673.58999999985,"y":2547179.4800000023}},{"attributes":{"ID":399931,"DIS_CODE":0,"TOWNNAME":"永康區","LI":"復國里","LIN":"11鄰","STREET":"復國一路","SECT":" ","MAREA":" ","LANE":"２８０巷","ALLEY":" ","HOUSE_NO":"３９號","E_COORD97":172839.26000000001,"N_COORD97":2545489.5299999998,"ADDRESS":"復國一路２８０巷３９號","OBJECTID":399907},"geometry":{"x":172839.26000000164,"y":2545489.5300000012}},{"attributes":{"ID":399932,"DIS_CODE":0,"TOWNNAME":"永康區","LI":"中興里","LIN":"11鄰","STREET":"中興街","SECT":" ","MAREA":" ","LANE":"３５巷","ALLEY":" ","HOUSE_NO":"１３號","E_COORD97":172044.79999999999,"N_COORD97":2545178.8999999999,"ADDRESS":"中興街３５巷１３號","OBJECTID":399908},"geometry":{"x":172044.79999999981,"y":2545178.9000000022}},{"attributes":{"ID":399933,"DIS_CODE":0,"TOWNNAME":"永康區","LI":"西勢里","LIN":"11鄰","STREET":"廣興街","SECT":" ","MAREA":" ","LANE":"６９巷","ALLEY":" ","HOUSE_NO":"２９號","E_COORD97":175916.20999999999,"N_COORD97":2546694.6000000001,"ADDRESS":"廣興街６９巷２９號","OBJECTID":399909},"geometry":{"x":175916.20999999996,"y":2546694.5999999978}},{"attributes":{"ID":399934,"DIS_CODE":0,"TOWNNAME":"永康區","LI":"網寮里","LIN":"11鄰","STREET":"永勝街","SECT":" ","MAREA":" ","LANE":"２３０巷","ALLEY":" ","HOUSE_NO":"８號","E_COORD97":173369.26000000001,"N_COORD97":2546538.8700000001,"ADDRESS":"永勝街２３０巷８號","OBJECTID":399910},"geometry":{"x":173369.25999999978,"y":2546538.8700000029}},{"attributes":{"ID":399935,"DIS_CODE":0,"TOWNNAME":"永康區","LI":"埔園里","LIN":"11鄰","STREET":"自強路","SECT":" ","MAREA":" ","LANE":"３７９巷","ALLEY":" ","HOUSE_NO":"８號","E_COORD97":173615.28,"N_COORD97":2547941.9900000002,"ADDRESS":"自強路３７９巷８號","OBJECTID":399911},"geometry":{"x":173615.28000000026,"y":2547941.9900000021}},{"attributes":{"ID":399936,"DIS_CODE":0,"TOWNNAME":"永康區","LI":"復華里","LIN":"11鄰","STREET":"國華街","SECT":" ","MAREA":" ","LANE":"１０２巷","ALLEY":" ","HOUSE_NO":"５４號","E_COORD97":172912.54000000001,"N_COORD97":2546103.0600000001,"ADDRESS":"國華街１０２巷５４號","OBJECTID":399912},"geometry":{"x":172912.54000000097,"y":2546103.0600000024}},{"attributes":{"ID":399937,"DIS_CODE":0,"TOWNNAME":"永康區","LI":"永康里","LIN":"11鄰","STREET":"中山南路","SECT":" ","MAREA":" ","LANE":"１０５４巷","ALLEY":" ","HOUSE_NO":"５５號","E_COORD97":173739.26999999999,"N_COORD97":2547103.6299999999,"ADDRESS":"中山南路１０５４巷５５號","OBJECTID":399913},"geometry":{"x":173739.27000000048,"y":2547103.629999999}},{"attributes":{"ID":399938,"DIS_CODE":0,"TOWNNAME":"永康區","LI":"南灣里","LIN":"11鄰","STREET":"大灣路","SECT":" ","MAREA":" ","LANE":"５２８巷","ALLEY":" ","HOUSE_NO":"１１號","E_COORD97":174638.35999999999,"N_COORD97":2544833.8500000001,"ADDRESS":"大灣路５２８巷１１號","OBJECTID":399914},"geometry":{"x":174638.36000000127,"y":2544833.8499999996}},{"attributes":{"ID":399939,"DIS_CODE":0,"TOWNNAME":"永康區","LI":"埔園里","LIN":"11鄰","STREET":"中山路","SECT":" ","MAREA":" ","LANE":"１７１巷","ALLEY":" ","HOUSE_NO":"５號","E_COORD97":173677.75,"N_COORD97":2547969.25,"ADDRESS":"中山路１７１巷５號","OBJECTID":399915},"geometry":{"x":173677.75,"y":2547969.2500000019}},{"attributes":{"ID":399940,"DIS_CODE":0,"TOWNNAME":"永康區","LI":"埔園里","LIN":"11鄰","STREET":"中山路","SECT":" ","MAREA":" ","LANE":"１７１巷","ALLEY":" ","HOUSE_NO":"３號","E_COORD97":173681.88,"N_COORD97":2547970.75,"ADDRESS":"中山路１７１巷３號","OBJECTID":399916},"geometry":{"x":173681.87999999989,"y":2547970.75}},{"attributes":{"ID":399941,"DIS_CODE":0,"TOWNNAME":"永康區","LI":"埔園里","LIN":"11鄰","STREET":"中山路","SECT":" ","MAREA":" ","LANE":"１５５巷","ALLEY":" ","HOUSE_NO":"２２號","E_COORD97":173635.39000000001,"N_COORD97":2547921.1800000002,"ADDRESS":"中山路１５５巷２２號","OBJECTID":399917},"geometry":{"x":173635.3900000006,"y":2547921.1799999997}},{"attributes":{"ID":399942,"DIS_CODE":0,"TOWNNAME":"永康區","LI":"埔園里","LIN":"11鄰","STREET":"自強路","SECT":" ","MAREA":" ","LANE":"３７９巷","ALLEY":" ","HOUSE_NO":"２號","E_COORD97":173631.35000000001,"N_COORD97":2547907.2400000002,"ADDRESS":"自強路３７９巷２號","OBJECTID":399918},"geometry":{"x":173631.34999999963,"y":2547907.2400000002}},{"attributes":{"ID":399943,"DIS_CODE":0,"TOWNNAME":"永康區","LI":"埔園里","LIN":"11鄰","STREET":"中山路","SECT":" ","MAREA":" ","LANE":"１７１巷","ALLEY":" ","HOUSE_NO":"２３號","E_COORD97":173643.51999999999,"N_COORD97":2547955.4900000002,"ADDRESS":"中山路１７１巷２３號","OBJECTID":399919},"geometry":{"x":173643.51999999955,"y":2547955.4900000021}},{"attributes":{"ID":399944,"DIS_CODE":0,"TOWNNAME":"永康區","LI":"埔園里","LIN":"11鄰","STREET":"中山路","SECT":" ","MAREA":" ","LANE":"１５５巷","ALLEY":" ","HOUSE_NO":"７號","E_COORD97":173666.53,"N_COORD97":2547926.6899999999,"ADDRESS":"中山路１５５巷７號","OBJECTID":399920},"geometry":{"x":173666.53000000026,"y":2547926.6899999995}},{"attributes":{"ID":399945,"DIS_CODE":0,"TOWNNAME":"永康區","LI":"神洲里","LIN":"11鄰","STREET":"忠孝路","SECT":" ","MAREA":" ","LANE":"１５２巷","ALLEY":" ","HOUSE_NO":"３２號","E_COORD97":172226.17999999999,"N_COORD97":2545071,"ADDRESS":"忠孝路１５２巷３２號","OBJECTID":399921},"geometry":{"x":172226.18000000063,"y":2545071}},{"attributes":{"ID":399946,"DIS_CODE":0,"TOWNNAME":"永康區","LI":"埔園里","LIN":"11鄰","STREET":"中山路","SECT":" ","MAREA":" ","LANE":"１５５巷","ALLEY":" ","HOUSE_NO":"６號","E_COORD97":173674.07999999999,"N_COORD97":2547939.4900000002,"ADDRESS":"中山路１５５巷６號","OBJECTID":399922},"geometry":{"x":173674.08000000007,"y":2547939.4900000002}},{"attributes":{"ID":399947,"DIS_CODE":0,"TOWNNAME":"永康區","LI":"埔園里","LIN":"11鄰","STREET":"中山路","SECT":" ","MAREA":" ","LANE":"１７１巷","ALLEY":" ","HOUSE_NO":"９號","E_COORD97":173669.75,"N_COORD97":2547966.25,"ADDRESS":"中山路１７１巷９號","OBJECTID":399923},"geometry":{"x":173669.75,"y":2547966.2500000019}},{"attributes":{"ID":399948,"DIS_CODE":0,"TOWNNAME":"南區","LI":"明興里","LIN":"11鄰","STREET":"永興四街","SECT":" ","MAREA":" ","LANE":"６５巷","ALLEY":" ","HOUSE_NO":"１號","E_COORD97":167100.39000000001,"N_COORD97":2540542.7000000002,"ADDRESS":"永興四街６５巷１號","OBJECTID":399924},"geometry":{"x":167100.3900000006,"y":2540542.6999999993}},{"attributes":{"ID":399949,"DIS_CODE":0,"TOWNNAME":"南區","LI":"明興里","LIN":"11鄰","STREET":"永興四街","SECT":" ","MAREA":" ","LANE":"６５巷","ALLEY":" ","HOUSE_NO":"３號","E_COORD97":167099.95999999999,"N_COORD97":2540538.6299999999,"ADDRESS":"永興四街６５巷３號","OBJECTID":399925},"geometry":{"x":167099.96000000089,"y":2540538.6300000008}},{"attributes":{"ID":399950,"DIS_CODE":0,"TOWNNAME":"南區","LI":"明興里","LIN":"11鄰","STREET":"永興四街","SECT":" ","MAREA":" ","LANE":"６５巷","ALLEY":" ","HOUSE_NO":"４號","E_COORD97":167082.37,"N_COORD97":2540564.02,"ADDRESS":"永興四街６５巷４號","OBJECTID":399926},"geometry":{"x":167082.37000000104,"y":2540564.0199999996}},{"attributes":{"ID":399951,"DIS_CODE":0,"TOWNNAME":"南區","LI":"明興里","LIN":"11鄰","STREET":"永興四街","SECT":" ","MAREA":" ","LANE":"６５巷","ALLEY":" ","HOUSE_NO":"５號","E_COORD97":167100.56,"N_COORD97":2540534.8100000001,"ADDRESS":"永興四街６５巷５號","OBJECTID":399927},"geometry":{"x":167100.56000000052,"y":2540534.8100000024}},{"attributes":{"ID":399952,"DIS_CODE":0,"TOWNNAME":"南區","LI":"明興里","LIN":"11鄰","STREET":"永興四街","SECT":" ","MAREA":" ","LANE":"６５巷","ALLEY":" ","HOUSE_NO":"６號","E_COORD97":167082.97,"N_COORD97":2540560.2000000002,"ADDRESS":"永興四街６５巷６號","OBJECTID":399928},"geometry":{"x":167082.97000000067,"y":2540560.1999999993}},{"attributes":{"ID":399953,"DIS_CODE":0,"TOWNNAME":"南區","LI":"明興里","LIN":"11鄰","STREET":"永興四街","SECT":" ","MAREA":" ","LANE":"６５巷","ALLEY":" ","HOUSE_NO":"７號","E_COORD97":167100.29999999999,"N_COORD97":2540530.2000000002,"ADDRESS":"永興四街６５巷７號","OBJECTID":399929},"geometry":{"x":167100.29999999981,"y":2540530.200000003}},{"attributes":{"ID":399954,"DIS_CODE":0,"TOWNNAME":"南區","LI":"明興里","LIN":"11鄰","STREET":"永興四街","SECT":" ","MAREA":" ","LANE":"６５巷","ALLEY":" ","HOUSE_NO":"８號","E_COORD97":167083.56,"N_COORD97":2540556.21,"ADDRESS":"永興四街６５巷８號","OBJECTID":399930},"geometry":{"x":167083.56000000145,"y":2540556.2100000028}},{"attributes":{"ID":399955,"DIS_CODE":0,"TOWNNAME":"南區","LI":"明興里","LIN":"11鄰","STREET":"永興四街","SECT":" ","MAREA":" ","LANE":"６５巷","ALLEY":" ","HOUSE_NO":"９號","E_COORD97":167100.04999999999,"N_COORD97":2540525.5299999998,"ADDRESS":"永興四街６５巷９號","OBJECTID":399931},"geometry":{"x":167100.04999999981,"y":2540525.5300000012}},{"attributes":{"ID":399956,"DIS_CODE":0,"TOWNNAME":"南區","LI":"明興里","LIN":"11鄰","STREET":"永興四街","SECT":" ","MAREA":" ","LANE":"６５巷","ALLEY":" ","HOUSE_NO":"１０號","E_COORD97":167083.82000000001,"N_COORD97":2540552.3100000001,"ADDRESS":"永興四街６５巷１０號","OBJECTID":399932},"geometry":{"x":167083.8200000003,"y":2540552.3100000024}},{"attributes":{"ID":399957,"DIS_CODE":0,"TOWNNAME":"南區","LI":"建南里","LIN":"11鄰","STREET":"德興路","SECT":" ","MAREA":" ","LANE":"３１４巷","ALLEY":" ","HOUSE_NO":"２５號","E_COORD97":167143.60999999999,"N_COORD97":2539893.1099999999,"ADDRESS":"德興路３１４巷２５號","OBJECTID":399933},"geometry":{"x":167143.61000000127,"y":2539893.1099999994}},{"attributes":{"ID":399958,"DIS_CODE":0,"TOWNNAME":"南區","LI":"建南里","LIN":"11鄰","STREET":"德興路","SECT":" ","MAREA":" ","LANE":"３１４巷","ALLEY":" ","HOUSE_NO":"２７號","E_COORD97":167139.81,"N_COORD97":2539893.71,"ADDRESS":"德興路３１４巷２７號","OBJECTID":399934},"geometry":{"x":167139.81000000052,"y":2539893.7100000009}},{"attributes":{"ID":399959,"DIS_CODE":0,"TOWNNAME":"南區","LI":"建南里","LIN":"11鄰","STREET":"德興路","SECT":" ","MAREA":" ","LANE":"３１４巷","ALLEY":" ","HOUSE_NO":"２９號","E_COORD97":167135.01000000001,"N_COORD97":2539893.5099999998,"ADDRESS":"德興路３１４巷２９號","OBJECTID":399935},"geometry":{"x":167135.01000000071,"y":2539893.5099999998}},{"attributes":{"ID":399960,"DIS_CODE":0,"TOWNNAME":"南區","LI":"建南里","LIN":"11鄰","STREET":"德興路","SECT":" ","MAREA":" ","LANE":"３１４巷","ALLEY":" ","HOUSE_NO":"３１號","E_COORD97":167131.01999999999,"N_COORD97":2539893.5099999998,"ADDRESS":"德興路３１４巷３１號","OBJECTID":399936},"geometry":{"x":167131.01999999955,"y":2539893.5099999998}},{"attributes":{"ID":399961,"DIS_CODE":0,"TOWNNAME":"南區","LI":"建南里","LIN":"11鄰","STREET":"德興路","SECT":" ","MAREA":" ","LANE":"３１４巷","ALLEY":" ","HOUSE_NO":"３３號","E_COORD97":167127.22,"N_COORD97":2539894.1099999999,"ADDRESS":"德興路３１４巷３３號","OBJECTID":399937},"geometry":{"x":167127.22000000067,"y":2539894.1100000013}},{"attributes":{"ID":399962,"DIS_CODE":0,"TOWNNAME":"南區","LI":"建南里","LIN":"11鄰","STREET":"德興路","SECT":" ","MAREA":" ","LANE":"３１４巷","ALLEY":" ","HOUSE_NO":"３５號","E_COORD97":167122.62,"N_COORD97":2539894.3100000001,"ADDRESS":"德興路３１４巷３５號","OBJECTID":399938},"geometry":{"x":167122.62000000197,"y":2539894.3100000024}},{"attributes":{"ID":399963,"DIS_CODE":0,"TOWNNAME":"南區","LI":"建南里","LIN":"11鄰","STREET":"德興路","SECT":" ","MAREA":" ","LANE":"３１４巷","ALLEY":" ","HOUSE_NO":"３７號","E_COORD97":167118.82000000001,"N_COORD97":2539894.71,"ADDRESS":"德興路３１４巷３７號","OBJECTID":399939},"geometry":{"x":167118.82000000123,"y":2539894.7100000028}},{"attributes":{"ID":399964,"DIS_CODE":0,"TOWNNAME":"南區","LI":"建南里","LIN":"11鄰","STREET":"德興路","SECT":" ","MAREA":" ","LANE":"３１４巷","ALLEY":" ","HOUSE_NO":"３９號","E_COORD97":167113.42999999999,"N_COORD97":2539894.71,"ADDRESS":"德興路３１４巷３９號","OBJECTID":399940},"geometry":{"x":167113.43000000063,"y":2539894.7100000028}},{"attributes":{"ID":399965,"DIS_CODE":0,"TOWNNAME":"南區","LI":"建南里","LIN":"11鄰","STREET":"德興路","SECT":" ","MAREA":" ","LANE":"３１４巷","ALLEY":" ","HOUSE_NO":"５７號","E_COORD97":167057.25,"N_COORD97":2539891.2000000002,"ADDRESS":"德興路３１４巷５７號","OBJECTID":399941},"geometry":{"x":167057.25000000186,"y":2539891.1999999993}},{"attributes":{"ID":399966,"DIS_CODE":0,"TOWNNAME":"南區","LI":"建南里","LIN":"11鄰","STREET":"德興路","SECT":" ","MAREA":" ","LANE":"３１４巷","ALLEY":" ","HOUSE_NO":"６５號","E_COORD97":167040.07999999999,"N_COORD97":2539891.3999999999,"ADDRESS":"德興路３１４巷６５號","OBJECTID":399942},"geometry":{"x":167040.08000000101,"y":2539891.4000000004}},{"attributes":{"ID":399967,"DIS_CODE":0,"TOWNNAME":"新化區","LI":"太平里","LIN":"11鄰","STREET":"中正路","SECT":" ","MAREA":" ","LANE":"６９１巷","ALLEY":" ","HOUSE_NO":"３４號","E_COORD97":178740.45999999999,"N_COORD97":2548956.25,"ADDRESS":"中正路６９１巷３４號","OBJECTID":399943},"geometry":{"x":178740.45999999996,"y":2548956.2500000019}},{"attributes":{"ID":399968,"DIS_CODE":0,"TOWNNAME":"新化區","LI":"太平里","LIN":"11鄰","STREET":"中正路","SECT":" ","MAREA":" ","LANE":"６９１巷","ALLEY":" ","HOUSE_NO":"３８號","E_COORD97":178708.16,"N_COORD97":2548970.25,"ADDRESS":"中正路６９１巷３８號","OBJECTID":399944},"geometry":{"x":178708.16000000015,"y":2548970.2500000019}},{"attributes":{"ID":399969,"DIS_CODE":0,"TOWNNAME":"新化區","LI":"武安里","LIN":"11鄰","STREET":"信義路","SECT":" ","MAREA":" ","LANE":"３３９巷","ALLEY":" ","HOUSE_NO":"３５號","E_COORD97":178853.07999999999,"N_COORD97":2548199.25,"ADDRESS":"信義路３３９巷３５號","OBJECTID":399945},"geometry":{"x":178853.08000000007,"y":2548199.2499999981}},{"attributes":{"ID":399970,"DIS_CODE":0,"TOWNNAME":"新化區","LI":"武安里","LIN":"11鄰","STREET":"信義路","SECT":" ","MAREA":" ","LANE":"３３９巷","ALLEY":" ","HOUSE_NO":"３１號","E_COORD97":178851.28,"N_COORD97":2548207.25,"ADDRESS":"信義路３３９巷３１號","OBJECTID":399946},"geometry":{"x":178851.28000000119,"y":2548207.2500000019}},{"attributes":{"ID":399971,"DIS_CODE":0,"TOWNNAME":"新化區","LI":"太平里","LIN":"11鄰","STREET":"中正路","SECT":" ","MAREA":" ","LANE":"６９１巷","ALLEY":" ","HOUSE_NO":"３４號之２","E_COORD97":178729.31,"N_COORD97":2548954.2599999998,"ADDRESS":"中正路６９１巷３４號之２","OBJECTID":399947},"geometry":{"x":178729.30999999866,"y":2548954.2599999998}},{"attributes":{"ID":399972,"DIS_CODE":0,"TOWNNAME":"新化區","LI":"武安里","LIN":"11鄰","STREET":"信義路","SECT":" ","MAREA":" ","LANE":"３３９巷","ALLEY":" ","HOUSE_NO":"３３號","E_COORD97":178851.98000000001,"N_COORD97":2548203.25,"ADDRESS":"信義路３３９巷３３號","OBJECTID":399948},"geometry":{"x":178851.98000000138,"y":2548203.2500000019}},{"attributes":{"ID":399973,"DIS_CODE":0,"TOWNNAME":"新化區","LI":"武安里","LIN":"11鄰","STREET":"信義路","SECT":" ","MAREA":" ","LANE":"３３９巷","ALLEY":" ","HOUSE_NO":"３２號","E_COORD97":178837.57999999999,"N_COORD97":2548212.25,"ADDRESS":"信義路３３９巷３２號","OBJECTID":399949},"geometry":{"x":178837.58000000007,"y":2548212.25}},{"attributes":{"ID":399974,"DIS_CODE":0,"TOWNNAME":"新化區","LI":"太平里","LIN":"11鄰","STREET":"中正路","SECT":" ","MAREA":" ","LANE":"７０７巷","ALLEY":" ","HOUSE_NO":"３３號","E_COORD97":178601.26000000001,"N_COORD97":2549102.25,"ADDRESS":"中正路７０７巷３３號","OBJECTID":399950},"geometry":{"x":178601.26000000071,"y":2549102.2500000019}},{"attributes":{"ID":399975,"DIS_CODE":0,"TOWNNAME":"新化區","LI":"太平里","LIN":"11鄰","STREET":"中正路","SECT":" ","MAREA":" ","LANE":"７０７巷","ALLEY":" ","HOUSE_NO":"２９號","E_COORD97":178640.16,"N_COORD97":2549107.25,"ADDRESS":"中正路７０７巷２９號","OBJECTID":399951},"geometry":{"x":178640.16000000108,"y":2549107.25}},{"attributes":{"ID":399976,"DIS_CODE":0,"TOWNNAME":"新化區","LI":"武安里","LIN":"11鄰","STREET":"信義路","SECT":" ","MAREA":" ","LANE":"３３９巷","ALLEY":" ","HOUSE_NO":"２１號","E_COORD97":178849.98000000001,"N_COORD97":2548222.25,"ADDRESS":"信義路３３９巷２１號","OBJECTID":399952},"geometry":{"x":178849.98000000138,"y":2548222.25}},{"attributes":{"ID":399977,"DIS_CODE":0,"TOWNNAME":"新化區","LI":"武安里","LIN":"11鄰","STREET":"信義路","SECT":" ","MAREA":" ","LANE":"３３９巷","ALLEY":" ","HOUSE_NO":"１５號","E_COORD97":178876.17999999999,"N_COORD97":2548257.25,"ADDRESS":"信義路３３９巷１５號","OBJECTID":399953},"geometry":{"x":178876.18000000156,"y":2548257.2500000037}},{"attributes":{"ID":399978,"DIS_CODE":0,"TOWNNAME":"新化區","LI":"太平里","LIN":"11鄰","STREET":"中正路","SECT":" ","MAREA":" ","LANE":"６９１巷","ALLEY":" ","HOUSE_NO":"２０號","E_COORD97":178742.16,"N_COORD97":2549024.25,"ADDRESS":"中正路６９１巷２０號","OBJECTID":399954},"geometry":{"x":178742.16000000015,"y":2549024.2500000019}},{"attributes":{"ID":399979,"DIS_CODE":0,"TOWNNAME":"新化區","LI":"東榮里","LIN":"11鄰","STREET":"中興路","SECT":" ","MAREA":" ","LANE":"４９０巷","ALLEY":" ","HOUSE_NO":"４６號","E_COORD97":180069.95999999999,"N_COORD97":2547960.25,"ADDRESS":"中興路４９０巷４６號","OBJECTID":399955},"geometry":{"x":180069.96000000089,"y":2547960.2500000019}},{"attributes":{"ID":399980,"DIS_CODE":0,"TOWNNAME":"新化區","LI":"東榮里","LIN":"11鄰","STREET":"中興路","SECT":" ","MAREA":" ","LANE":"４９０巷","ALLEY":" ","HOUSE_NO":"２６號","E_COORD97":180068.95999999999,"N_COORD97":2547920.25,"ADDRESS":"中興路４９０巷２６號","OBJECTID":399956},"geometry":{"x":180068.95999999996,"y":2547920.25}},{"attributes":{"ID":399981,"DIS_CODE":0,"TOWNNAME":"新化區","LI":"武安里","LIN":"11鄰","STREET":"信義路","SECT":" ","MAREA":" ","LANE":"３３９巷","ALLEY":" ","HOUSE_NO":"２４號","E_COORD97":178833.07999999999,"N_COORD97":2548230.25,"ADDRESS":"信義路３３９巷２４號","OBJECTID":399957},"geometry":{"x":178833.07999999914,"y":2548230.2500000037}},{"attributes":{"ID":399982,"DIS_CODE":0,"TOWNNAME":"新化區","LI":"太平里","LIN":"11鄰","STREET":"中正路","SECT":" ","MAREA":" ","LANE":"６９１巷","ALLEY":" ","HOUSE_NO":"４２號之１","E_COORD97":178684.79000000001,"N_COORD97":2548964.2599999998,"ADDRESS":"中正路６９１巷４２號之１","OBJECTID":399958},"geometry":{"x":178684.79000000097,"y":2548964.2599999998}},{"attributes":{"ID":399983,"DIS_CODE":0,"TOWNNAME":"新化區","LI":"太平里","LIN":"11鄰","STREET":"中正路","SECT":" ","MAREA":" ","LANE":"６９１巷","ALLEY":" ","HOUSE_NO":"４６號","E_COORD97":178713.56,"N_COORD97":2548953.25,"ADDRESS":"中正路６９１巷４６號","OBJECTID":399959},"geometry":{"x":178713.55999999959,"y":2548953.2500000019}},{"attributes":{"ID":399984,"DIS_CODE":0,"TOWNNAME":"新化區","LI":"太平里","LIN":"11鄰","STREET":"中正路","SECT":" ","MAREA":" ","LANE":"６９１巷","ALLEY":" ","HOUSE_NO":"２４號","E_COORD97":178757.35999999999,"N_COORD97":2549013.25,"ADDRESS":"中正路６９１巷２４號","OBJECTID":399960},"geometry":{"x":178757.36000000127,"y":2549013.2500000037}},{"attributes":{"ID":399985,"DIS_CODE":0,"TOWNNAME":"新化區","LI":"太平里","LIN":"11鄰","STREET":"中正路","SECT":" ","MAREA":" ","LANE":"６９１巷","ALLEY":" ","HOUSE_NO":"１２號","E_COORD97":178740.06,"N_COORD97":2549056.25,"ADDRESS":"中正路６９１巷１２號","OBJECTID":399961},"geometry":{"x":178740.06000000052,"y":2549056.25}},{"attributes":{"ID":399986,"DIS_CODE":0,"TOWNNAME":"新化區","LI":"武安里","LIN":"11鄰","STREET":"信義路","SECT":" ","MAREA":" ","LANE":"３３９巷","ALLEY":" ","HOUSE_NO":"６號","E_COORD97":178827.53,"N_COORD97":2548251.25,"ADDRESS":"信義路３３９巷６號","OBJECTID":399962},"geometry":{"x":178827.53000000119,"y":2548251.2500000019}},{"attributes":{"ID":399987,"DIS_CODE":0,"TOWNNAME":"新化區","LI":"武安里","LIN":"11鄰","STREET":"信義路","SECT":" ","MAREA":" ","LANE":"３３９巷","ALLEY":" ","HOUSE_NO":"２３號","E_COORD97":178848.38,"N_COORD97":2548215.25,"ADDRESS":"信義路３３９巷２３號","OBJECTID":399963},"geometry":{"x":178848.38000000082,"y":2548215.25}},{"attributes":{"ID":399988,"DIS_CODE":0,"TOWNNAME":"新化區","LI":"太平里","LIN":"11鄰","STREET":"中正路","SECT":" ","MAREA":" ","LANE":"６９１巷","ALLEY":" ","HOUSE_NO":"６號之１","E_COORD97":178784.180586,"N_COORD97":2549071.1174099999,"ADDRESS":"中正路６９１巷６號之１","OBJECTID":399964},"geometry":{"x":178784.18058599997,"y":2549071.1174129993}},{"attributes":{"ID":399989,"DIS_CODE":0,"TOWNNAME":"新化區","LI":"東榮里","LIN":"11鄰","STREET":"中興路","SECT":" ","MAREA":" ","LANE":"４９０巷","ALLEY":" ","HOUSE_NO":"４４號","E_COORD97":180069.85999999999,"N_COORD97":2547955.25,"ADDRESS":"中興路４９０巷４４號","OBJECTID":399965},"geometry":{"x":180069.86000000127,"y":2547955.2499999981}},{"attributes":{"ID":399990,"DIS_CODE":0,"TOWNNAME":"新化區","LI":"武安里","LIN":"11鄰","STREET":"信義路","SECT":" ","MAREA":" ","LANE":"３３９巷","ALLEY":" ","HOUSE_NO":"１１號","E_COORD97":178868.48000000001,"N_COORD97":2548257.25,"ADDRESS":"信義路３３９巷１１號","OBJECTID":399966},"geometry":{"x":178868.48000000138,"y":2548257.2500000037}},{"attributes":{"ID":399991,"DIS_CODE":0,"TOWNNAME":"新化區","LI":"太平里","LIN":"11鄰","STREET":"中正路","SECT":" ","MAREA":" ","LANE":"７０７巷","ALLEY":" ","HOUSE_NO":"２７號之２","E_COORD97":178628.70999999999,"N_COORD97":2549117.2599999998,"ADDRESS":"中正路７０７巷２７號之２","OBJECTID":399967},"geometry":{"x":178628.71000000183,"y":2549117.2599999998}},{"attributes":{"ID":399992,"DIS_CODE":0,"TOWNNAME":"新化區","LI":"武安里","LIN":"11鄰","STREET":"信義路","SECT":" ","MAREA":" ","LANE":"３３９巷","ALLEY":" ","HOUSE_NO":"３０號","E_COORD97":178836.38,"N_COORD97":2548217.25,"ADDRESS":"信義路３３９巷３０號","OBJECTID":399968},"geometry":{"x":178836.38000000082,"y":2548217.2500000019}},{"attributes":{"ID":399993,"DIS_CODE":0,"TOWNNAME":"新化區","LI":"武安里","LIN":"11鄰","STREET":"信義路","SECT":" ","MAREA":" ","LANE":"３３９巷","ALLEY":" ","HOUSE_NO":"３號","E_COORD97":178841.53,"N_COORD97":2548258.25,"ADDRESS":"信義路３３９巷３號","OBJECTID":399969},"geometry":{"x":178841.53000000026,"y":2548258.2500000019}},{"attributes":{"ID":399994,"DIS_CODE":0,"TOWNNAME":"新化區","LI":"武安里","LIN":"11鄰","STREET":"信義路","SECT":" ","MAREA":" ","LANE":"３３９巷","ALLEY":" ","HOUSE_NO":"３７號","E_COORD97":178854.57999999999,"N_COORD97":2548193.25,"ADDRESS":"信義路３３９巷３７號","OBJECTID":399970},"geometry":{"x":178854.58000000007,"y":2548193.2500000019}},{"attributes":{"ID":399995,"DIS_CODE":0,"TOWNNAME":"東區","LI":"復興里","LIN":"11鄰","STREET":"裕忠路","SECT":" ","MAREA":" ","LANE":"２７６巷","ALLEY":" ","HOUSE_NO":"１號","E_COORD97":172245.42999999999,"N_COORD97":2542491.46,"ADDRESS":"裕忠路２７６巷１號","OBJECTID":399971},"geometry":{"x":172245.43000000063,"y":2542491.4600000009}},{"attributes":{"ID":399996,"DIS_CODE":0,"TOWNNAME":"東區","LI":"復興里","LIN":"11鄰","STREET":"裕忠路","SECT":" ","MAREA":" ","LANE":"２７６巷","ALLEY":" ","HOUSE_NO":"２號","E_COORD97":172244.79000000001,"N_COORD97":2542498.3599999999,"ADDRESS":"裕忠路２７６巷２號","OBJECTID":399972},"geometry":{"x":172244.79000000097,"y":2542498.3599999994}},{"attributes":{"ID":399997,"DIS_CODE":0,"TOWNNAME":"東區","LI":"復興里","LIN":"11鄰","STREET":"裕忠路","SECT":" ","MAREA":" ","LANE":"２７６巷","ALLEY":" ","HOUSE_NO":"３號","E_COORD97":172239.48999999999,"N_COORD97":2542491.46,"ADDRESS":"裕忠路２７６巷３號","OBJECTID":399973},"geometry":{"x":172239.49000000022,"y":2542491.4600000009}},{"attributes":{"ID":399998,"DIS_CODE":0,"TOWNNAME":"東區","LI":"復興里","LIN":"11鄰","STREET":"裕忠路","SECT":" ","MAREA":" ","LANE":"２７６巷","ALLEY":" ","HOUSE_NO":"５號","E_COORD97":172232.91,"N_COORD97":2542491.2999999998,"ADDRESS":"裕忠路２７６巷５號","OBJECTID":399974},"geometry":{"x":172232.91000000015,"y":2542491.3000000026}},{"attributes":{"ID":399999,"DIS_CODE":0,"TOWNNAME":"東區","LI":"復興里","LIN":"11鄰","STREET":"裕忠路","SECT":" ","MAREA":" ","LANE":"２７６巷","ALLEY":" ","HOUSE_NO":"６號","E_COORD97":172238.37,"N_COORD97":2542499,"ADDRESS":"裕忠路２７６巷６號","OBJECTID":399975},"geometry":{"x":172238.37000000011,"y":2542499.0000000019}},{"attributes":{"ID":400000,"DIS_CODE":0,"TOWNNAME":"東區","LI":"復興里","LIN":"11鄰","STREET":"裕忠路","SECT":" ","MAREA":" ","LANE":"２７６巷","ALLEY":" ","HOUSE_NO":"７號","E_COORD97":172226.17000000001,"N_COORD97":2542491.7799999998,"ADDRESS":"裕忠路２７６巷７號","OBJECTID":399976},"geometry":{"x":172226.16999999899,"y":2542491.7799999993}},{"attributes":{"ID":400001,"DIS_CODE":0,"TOWNNAME":"東區","LI":"復興里","LIN":"11鄰","STREET":"裕忠路","SECT":" ","MAREA":" ","LANE":"２７６巷","ALLEY":" ","HOUSE_NO":"８號","E_COORD97":172232.26999999999,"N_COORD97":2542499.1600000001,"ADDRESS":"裕忠路２７６巷８號","OBJECTID":399977},"geometry":{"x":172232.27000000048,"y":2542499.160000002}},{"attributes":{"ID":400002,"DIS_CODE":0,"TOWNNAME":"東區","LI":"復興里","LIN":"11鄰","STREET":"裕忠路","SECT":" ","MAREA":" ","LANE":"２７６巷","ALLEY":" ","HOUSE_NO":"９號","E_COORD97":172219.91,"N_COORD97":2542492.7400000002,"ADDRESS":"裕忠路２７６巷９號","OBJECTID":399978},"geometry":{"x":172219.91000000201,"y":2542492.7400000002}},{"attributes":{"ID":400003,"DIS_CODE":0,"TOWNNAME":"新市區","LI":"新和里","LIN":"11鄰","STREET":"仁愛街","SECT":" ","MAREA":" ","LANE":"１５２巷","ALLEY":" ","HOUSE_NO":"３號","E_COORD97":177596.17000000001,"N_COORD97":2552611.2799999998,"ADDRESS":"仁愛街１５２巷３號","OBJECTID":399979},"geometry":{"x":177596.16999999993,"y":2552611.2799999993}},{"attributes":{"ID":400004,"DIS_CODE":0,"TOWNNAME":"新市區","LI":"新市里","LIN":"11鄰","STREET":"中正路","SECT":" ","MAREA":" ","LANE":"３５６巷","ALLEY":" ","HOUSE_NO":"６號","E_COORD97":177605.29000000001,"N_COORD97":2553196,"ADDRESS":"中正路３５６巷６號","OBJECTID":399980},"geometry":{"x":177605.29000000004,"y":2553196.0000000019}},{"attributes":{"ID":400005,"DIS_CODE":0,"TOWNNAME":"新市區","LI":"新和里","LIN":"11鄰","STREET":"仁愛街","SECT":" ","MAREA":" ","LANE":"１５２巷","ALLEY":" ","HOUSE_NO":"７號","E_COORD97":177603.82999999999,"N_COORD97":2552609.5299999998,"ADDRESS":"仁愛街１５２巷７號","OBJECTID":399981},"geometry":{"x":177603.83000000007,"y":2552609.5299999993}},{"attributes":{"ID":400006,"DIS_CODE":0,"TOWNNAME":"安南區","LI":"海西里","LIN":"11鄰","STREET":"海中街","SECT":" ","MAREA":" ","LANE":"７１巷","ALLEY":" ","HOUSE_NO":"４號","E_COORD97":166396.35000000001,"N_COORD97":2548920.9300000002,"ADDRESS":"海中街７１巷４號","OBJECTID":399982},"geometry":{"x":166396.34999999963,"y":2548920.9300000016}},{"attributes":{"ID":400007,"DIS_CODE":0,"TOWNNAME":"安南區","LI":"海東里","LIN":"11鄰","STREET":"海中街","SECT":" ","MAREA":" ","LANE":"５４巷","ALLEY":" ","HOUSE_NO":"９號","E_COORD97":166490.76000000001,"N_COORD97":2548942.5800000001,"ADDRESS":"海中街５４巷９號","OBJECTID":399983},"geometry":{"x":166490.76000000164,"y":2548942.5800000001}},{"attributes":{"ID":400008,"DIS_CODE":0,"TOWNNAME":"安南區","LI":"海東里","LIN":"11鄰","STREET":"海佃路","SECT":"二段","MAREA":" ","LANE":"４８３巷","ALLEY":" ","HOUSE_NO":"７７號","E_COORD97":166457.76999999999,"N_COORD97":2549042.02,"ADDRESS":"海佃路二段４８３巷７７號","OBJECTID":399984},"geometry":{"x":166457.76999999955,"y":2549042.0200000014}},{"attributes":{"ID":400009,"DIS_CODE":0,"TOWNNAME":"安南區","LI":"海東里","LIN":"11鄰","STREET":"海佃路","SECT":"二段","MAREA":" ","LANE":"４８３巷","ALLEY":" ","HOUSE_NO":"７９號","E_COORD97":166462.32999999999,"N_COORD97":2549037.0699999998,"ADDRESS":"海佃路二段４８３巷７９號","OBJECTID":399985},"geometry":{"x":166462.33000000101,"y":2549037.0700000003}},{"attributes":{"ID":400010,"DIS_CODE":0,"TOWNNAME":"安南區","LI":"海東里","LIN":"11鄰","STREET":"海佃路","SECT":"二段","MAREA":" ","LANE":"４８３巷","ALLEY":" ","HOUSE_NO":"８５號","E_COORD97":166450.70999999999,"N_COORD97":2549014.8999999999,"ADDRESS":"海佃路二段４８３巷８５號","OBJECTID":399986},"geometry":{"x":166450.71000000089,"y":2549014.9000000004}},{"attributes":{"ID":400011,"DIS_CODE":0,"TOWNNAME":"中西區","LI":"仙草里","LIN":"11鄰","STREET":"府緯街","SECT":" ","MAREA":" ","LANE":"９巷","ALLEY":" ","HOUSE_NO":"２９號","E_COORD97":167847.85000000001,"N_COORD97":2542673.73,"ADDRESS":"府緯街９巷２９號","OBJECTID":399987},"geometry":{"x":167847.85000000149,"y":2542673.7300000042}},{"attributes":{"ID":400012,"DIS_CODE":0,"TOWNNAME":"中西區","LI":"大南里","LIN":"11鄰","STREET":"南門路","SECT":" ","MAREA":" ","LANE":"４４巷","ALLEY":" ","HOUSE_NO":"１０號","E_COORD97":168339.63,"N_COORD97":2542927.9500000002,"ADDRESS":"南門路４４巷１０號","OBJECTID":399988},"geometry":{"x":168339.63000000082,"y":2542927.9499999993}},{"attributes":{"ID":400013,"DIS_CODE":0,"TOWNNAME":"中西區","LI":"大南里","LIN":"11鄰","STREET":"南門路","SECT":" ","MAREA":" ","LANE":"４４巷","ALLEY":" ","HOUSE_NO":"１２號","E_COORD97":168329.06,"N_COORD97":2542929.71,"ADDRESS":"南門路４４巷１２號","OBJECTID":399989},"geometry":{"x":168329.05999999959,"y":2542929.7100000028}},{"attributes":{"ID":400014,"DIS_CODE":0,"TOWNNAME":"中西區","LI":"大南里","LIN":"11鄰","STREET":"南門路","SECT":" ","MAREA":" ","LANE":"４４巷","ALLEY":" ","HOUSE_NO":"１４號","E_COORD97":168319.54999999999,"N_COORD97":2542930.7599999998,"ADDRESS":"南門路４４巷１４號","OBJECTID":399990},"geometry":{"x":168319.55000000168,"y":2542930.7600000035}},{"attributes":{"ID":400015,"DIS_CODE":0,"TOWNNAME":"中西區","LI":"大南里","LIN":"11鄰","STREET":"南門路","SECT":" ","MAREA":" ","LANE":"４４巷","ALLEY":" ","HOUSE_NO":"１６號","E_COORD97":168309.34,"N_COORD97":2542932.52,"ADDRESS":"南門路４４巷１６號","OBJECTID":399991},"geometry":{"x":168309.34000000078,"y":2542932.5200000014}},{"attributes":{"ID":400016,"DIS_CODE":0,"TOWNNAME":"中西區","LI":"大南里","LIN":"11鄰","STREET":"南門路","SECT":" ","MAREA":" ","LANE":"４４巷","ALLEY":" ","HOUSE_NO":"１８號","E_COORD97":168298.76999999999,"N_COORD97":2542934.27,"ADDRESS":"南門路４４巷１８號","OBJECTID":399992},"geometry":{"x":168298.76999999955,"y":2542934.2700000014}},{"attributes":{"ID":400017,"DIS_CODE":0,"TOWNNAME":"中西區","LI":"大南里","LIN":"11鄰","STREET":"南門路","SECT":" ","MAREA":" ","LANE":"４４巷","ALLEY":" ","HOUSE_NO":"２０號","E_COORD97":168285.03,"N_COORD97":2542937.0899999999,"ADDRESS":"南門路４４巷２０號","OBJECTID":399993},"geometry":{"x":168285.03000000119,"y":2542937.0899999999}},{"attributes":{"ID":400018,"DIS_CODE":0,"TOWNNAME":"中西區","LI":"大南里","LIN":"11鄰","STREET":"南門路","SECT":" ","MAREA":" ","LANE":"４４巷","ALLEY":" ","HOUSE_NO":"２２號","E_COORD97":168274.10999999999,"N_COORD97":2542939.21,"ADDRESS":"南門路４４巷２２號","OBJECTID":399994},"geometry":{"x":168274.11000000127,"y":2542939.2100000028}},{"attributes":{"ID":400019,"DIS_CODE":0,"TOWNNAME":"中西區","LI":"大南里","LIN":"11鄰","STREET":"南門路","SECT":" ","MAREA":" ","LANE":"４４巷","ALLEY":" ","HOUSE_NO":"２號","E_COORD97":168377.67999999999,"N_COORD97":2542922.3199999998,"ADDRESS":"南門路４４巷２號","OBJECTID":399995},"geometry":{"x":168377.6799999997,"y":2542922.3200000003}},{"attributes":{"ID":400020,"DIS_CODE":0,"TOWNNAME":"中西區","LI":"大南里","LIN":"11鄰","STREET":"南門路","SECT":" ","MAREA":" ","LANE":"４４巷","ALLEY":" ","HOUSE_NO":"４號","E_COORD97":168370.98000000001,"N_COORD97":2542922.6699999999,"ADDRESS":"南門路４４巷４號","OBJECTID":399996},"geometry":{"x":168370.98000000045,"y":2542922.6700000018}},{"attributes":{"ID":400021,"DIS_CODE":0,"TOWNNAME":"中西區","LI":"大南里","LIN":"11鄰","STREET":"南門路","SECT":" ","MAREA":" ","LANE":"４４巷","ALLEY":" ","HOUSE_NO":"６號","E_COORD97":168360.76999999999,"N_COORD97":2542924.0800000001,"ADDRESS":"南門路４４巷６號","OBJECTID":399997},"geometry":{"x":168360.77000000048,"y":2542924.0800000001}},{"attributes":{"ID":400022,"DIS_CODE":0,"TOWNNAME":"中西區","LI":"大南里","LIN":"11鄰","STREET":"南門路","SECT":" ","MAREA":" ","LANE":"４４巷","ALLEY":" ","HOUSE_NO":"８號","E_COORD97":168350.54999999999,"N_COORD97":2542926.1899999999,"ADDRESS":"南門路４４巷８號","OBJECTID":399998},"geometry":{"x":168350.55000000075,"y":2542926.1899999995}},{"attributes":{"ID":400023,"DIS_CODE":0,"TOWNNAME":"安南區","LI":"海西里","LIN":"11鄰","STREET":"海中街","SECT":" ","MAREA":" ","LANE":"２３巷","ALLEY":" ","HOUSE_NO":"１０號","E_COORD97":166461,"N_COORD97":2548832.9100000001,"ADDRESS":"海中街２３巷１０號","OBJECTID":399999},"geometry":{"x":166461.00000000093,"y":2548832.910000002}},{"attributes":{"ID":400024,"DIS_CODE":0,"TOWNNAME":"安南區","LI":"海西里","LIN":"11鄰","STREET":"海中街","SECT":" ","MAREA":" ","LANE":"５１巷","ALLEY":" ","HOUSE_NO":"１２號","E_COORD97":166422.78,"N_COORD97":2548874.0099999998,"ADDRESS":"海中街５１巷１２號","OBJECTID":400000},"geometry":{"x":166422.78000000026,"y":2548874.0099999998}}]}