{"displayFieldName":"TOWNNAME","fieldAliases":{"ID":"ID","DIS_CODE":"DIS_CODE","TOWNNAME":"TOWNNAME","LI":"LI","LIN":"LIN","STREET":"STREET","SECT":"SECT","MAREA":"MAREA","LANE":"LANE","ALLEY":"ALLEY","HOUSE_NO":"HOUSE_NO","E_COORD97":"E_COORD97","N_COORD97":"N_COORD97","ADDRESS":"ADDRESS","OBJECTID":"OBJECTID"},"geometryType":"esriGeometryPoint","spatialReference":{"wkid":102443,"latestWkid":3826},"fields":[{"name":"ID","type":"esriFieldTypeDouble","alias":"ID"},{"name":"DIS_CODE","type":"esriFieldTypeInteger","alias":"DIS_CODE"},{"name":"TOWNNAME","type":"esriFieldTypeString","alias":"TOWNNAME","length":8},{"name":"LI","type":"esriFieldTypeString","alias":"LI","length":8},{"name":"LIN","type":"esriFieldTypeString","alias":"LIN","length":12},{"name":"STREET","type":"esriFieldTypeString","alias":"STREET","length":20},{"name":"SECT","type":"esriFieldTypeString","alias":"SECT","length":8},{"name":"MAREA","type":"esriFieldTypeString","alias":"MAREA","length":12},{"name":"LANE","type":"esriFieldTypeString","alias":"LANE","length":10},{"name":"ALLEY","type":"esriFieldTypeString","alias":"ALLEY","length":10},{"name":"HOUSE_NO","type":"esriFieldTypeString","alias":"HOUSE_NO","length":20},{"name":"E_COORD97","type":"esriFieldTypeDouble","alias":"E_COORD97"},{"name":"N_COORD97","type":"esriFieldTypeDouble","alias":"N_COORD97"},{"name":"ADDRESS","type":"esriFieldTypeString","alias":"ADDRESS","length":50},{"name":"OBJECTID","type":"esriFieldTypeOID","alias":"OBJECTID"}],"features":[{"attributes":{"ID":99001,"DIS_CODE":0,"TOWNNAME":"白河區","LI":"玉豐里","LIN":"10鄰","STREET":" ","SECT":" ","MAREA":"海豐厝","LANE":" ","ALLEY":" ","HOUSE_NO":"８７之５０號","E_COORD97":190345.81,"N_COORD97":2586287.1699999999,"ADDRESS":"海豐厝８７之５０號","OBJECTID":99001},"geometry":{"x":190345.80999999959,"y":2586287.1699999999}},{"attributes":{"ID":99002,"DIS_CODE":0,"TOWNNAME":"白河區","LI":"玉豐里","LIN":"10鄰","STREET":" ","SECT":" ","MAREA":"海豐厝","LANE":" ","ALLEY":" ","HOUSE_NO":"８７之５１號","E_COORD97":190345.67000000001,"N_COORD97":2586291.4500000002,"ADDRESS":"海豐厝８７之５１號","OBJECTID":99002},"geometry":{"x":190345.66999999993,"y":2586291.4499999974}},{"attributes":{"ID":99003,"DIS_CODE":0,"TOWNNAME":"白河區","LI":"玉豐里","LIN":"10鄰","STREET":" ","SECT":" ","MAREA":"海豐厝","LANE":" ","ALLEY":" ","HOUSE_NO":"８７之５２號","E_COORD97":190345.57999999999,"N_COORD97":2586295.3999999999,"ADDRESS":"海豐厝８７之５２號","OBJECTID":99003},"geometry":{"x":190345.58000000101,"y":2586295.4000000004}},{"attributes":{"ID":99004,"DIS_CODE":0,"TOWNNAME":"白河區","LI":"玉豐里","LIN":"10鄰","STREET":" ","SECT":" ","MAREA":"海豐厝","LANE":" ","ALLEY":" ","HOUSE_NO":"８７之５３號","E_COORD97":190345.39999999999,"N_COORD97":2586299.5699999998,"ADDRESS":"海豐厝８７之５３號","OBJECTID":99004},"geometry":{"x":190345.4000000013,"y":2586299.5700000022}},{"attributes":{"ID":99005,"DIS_CODE":0,"TOWNNAME":"白河區","LI":"玉豐里","LIN":"10鄰","STREET":" ","SECT":" ","MAREA":"海豐厝","LANE":" ","ALLEY":" ","HOUSE_NO":"８７之５４號","E_COORD97":190344.98999999999,"N_COORD97":2586304.1000000001,"ADDRESS":"海豐厝８７之５４號","OBJECTID":99005},"geometry":{"x":190344.99000000115,"y":2586304.0999999996}},{"attributes":{"ID":99006,"DIS_CODE":0,"TOWNNAME":"白河區","LI":"玉豐里","LIN":"10鄰","STREET":" ","SECT":" ","MAREA":"海豐厝","LANE":" ","ALLEY":" ","HOUSE_NO":"８７之５５號","E_COORD97":190324.14999999999,"N_COORD97":2586303.3300000001,"ADDRESS":"海豐厝８７之５５號","OBJECTID":99006},"geometry":{"x":190324.15000000037,"y":2586303.3299999982}},{"attributes":{"ID":99007,"DIS_CODE":0,"TOWNNAME":"白河區","LI":"玉豐里","LIN":"10鄰","STREET":" ","SECT":" ","MAREA":"海豐厝","LANE":" ","ALLEY":" ","HOUSE_NO":"８７之５６號","E_COORD97":190324.10000000001,"N_COORD97":2586299.0099999998,"ADDRESS":"海豐厝８７之５６號","OBJECTID":99007},"geometry":{"x":190324.09999999963,"y":2586299.0100000016}},{"attributes":{"ID":99008,"DIS_CODE":0,"TOWNNAME":"白河區","LI":"玉豐里","LIN":"10鄰","STREET":" ","SECT":" ","MAREA":"海豐厝","LANE":" ","ALLEY":" ","HOUSE_NO":"８７之５７號","E_COORD97":190324.10000000001,"N_COORD97":2586294.9100000001,"ADDRESS":"海豐厝８７之５７號","OBJECTID":99008},"geometry":{"x":190324.09999999963,"y":2586294.9100000001}},{"attributes":{"ID":99009,"DIS_CODE":0,"TOWNNAME":"仁德區","LI":"仁義里","LIN":"1鄰","STREET":"義林五街","SECT":" ","MAREA":" ","LANE":" ","ALLEY":" ","HOUSE_NO":"１３０號","E_COORD97":174131.35000000001,"N_COORD97":2541055.02,"ADDRESS":"義林五街１３０號","OBJECTID":99009},"geometry":{"x":174131.34999999963,"y":2541055.0200000014}},{"attributes":{"ID":99010,"DIS_CODE":0,"TOWNNAME":"仁德區","LI":"中生里","LIN":"1鄰","STREET":" ","SECT":" ","MAREA":"中洲","LANE":" ","ALLEY":" ","HOUSE_NO":"７６號之４０","E_COORD97":172985.01000000001,"N_COORD97":2534557.79,"ADDRESS":"中洲７６號之４０","OBJECTID":99010},"geometry":{"x":172985.01000000164,"y":2534557.7899999991}},{"attributes":{"ID":99011,"DIS_CODE":0,"TOWNNAME":"白河區","LI":"玉豐里","LIN":"10鄰","STREET":" ","SECT":" ","MAREA":"海豐厝","LANE":" ","ALLEY":" ","HOUSE_NO":"８７之５８號","E_COORD97":190324.03,"N_COORD97":2586290.75,"ADDRESS":"海豐厝８７之５８號","OBJECTID":99011},"geometry":{"x":190324.03000000119,"y":2586290.7500000019}},{"attributes":{"ID":99012,"DIS_CODE":0,"TOWNNAME":"白河區","LI":"玉豐里","LIN":"10鄰","STREET":" ","SECT":" ","MAREA":"海豐厝","LANE":" ","ALLEY":" ","HOUSE_NO":"８７之５９號","E_COORD97":190323.91,"N_COORD97":2586286.77,"ADDRESS":"海豐厝８７之５９號","OBJECTID":99012},"geometry":{"x":190323.91000000015,"y":2586286.7700000014}},{"attributes":{"ID":99013,"DIS_CODE":0,"TOWNNAME":"白河區","LI":"玉豐里","LIN":"10鄰","STREET":" ","SECT":" ","MAREA":"海豐厝","LANE":" ","ALLEY":" ","HOUSE_NO":"８７之５號","E_COORD97":190366.84,"N_COORD97":2586312.0099999998,"ADDRESS":"海豐厝８７之５號","OBJECTID":99013},"geometry":{"x":190366.83999999892,"y":2586312.0100000035}},{"attributes":{"ID":99014,"DIS_CODE":0,"TOWNNAME":"白河區","LI":"玉豐里","LIN":"10鄰","STREET":" ","SECT":" ","MAREA":"海豐厝","LANE":" ","ALLEY":" ","HOUSE_NO":"８７之６０號","E_COORD97":190324.01999999999,"N_COORD97":2586282.6400000001,"ADDRESS":"海豐厝８７之６０號","OBJECTID":99014},"geometry":{"x":190324.01999999955,"y":2586282.6400000025}},{"attributes":{"ID":99015,"DIS_CODE":0,"TOWNNAME":"白河區","LI":"玉豐里","LIN":"10鄰","STREET":" ","SECT":" ","MAREA":"海豐厝","LANE":" ","ALLEY":" ","HOUSE_NO":"８７之６１號","E_COORD97":190324.23999999999,"N_COORD97":2586278.4900000002,"ADDRESS":"海豐厝８７之６１號","OBJECTID":99015},"geometry":{"x":190324.24000000115,"y":2586278.4900000002}},{"attributes":{"ID":99016,"DIS_CODE":0,"TOWNNAME":"永康區","LI":"西勢里","LIN":"21鄰","STREET":"富強路","SECT":"一段","MAREA":" ","LANE":"９８巷","ALLEY":"３８弄","HOUSE_NO":"６號","E_COORD97":175566.89999999999,"N_COORD97":2546073.5099999998,"ADDRESS":"富強路一段９８巷３８弄６號","OBJECTID":99016},"geometry":{"x":175566.9000000013,"y":2546073.5099999998}},{"attributes":{"ID":99017,"DIS_CODE":0,"TOWNNAME":"白河區","LI":"玉豐里","LIN":"10鄰","STREET":" ","SECT":" ","MAREA":"海豐厝","LANE":" ","ALLEY":" ","HOUSE_NO":"８７之６２號","E_COORD97":190324.26000000001,"N_COORD97":2586274.29,"ADDRESS":"海豐厝８７之６２號","OBJECTID":99017},"geometry":{"x":190324.25999999978,"y":2586274.2899999991}},{"attributes":{"ID":99018,"DIS_CODE":0,"TOWNNAME":"白河區","LI":"玉豐里","LIN":"10鄰","STREET":" ","SECT":" ","MAREA":"海豐厝","LANE":" ","ALLEY":" ","HOUSE_NO":"８７之６３號","E_COORD97":190324.39000000001,"N_COORD97":2586270.54,"ADDRESS":"海豐厝８７之６３號","OBJECTID":99018},"geometry":{"x":190324.3900000006,"y":2586270.5400000028}},{"attributes":{"ID":99019,"DIS_CODE":0,"TOWNNAME":"白河區","LI":"玉豐里","LIN":"10鄰","STREET":" ","SECT":" ","MAREA":"海豐厝","LANE":" ","ALLEY":" ","HOUSE_NO":"８７之６４號","E_COORD97":190324.17999999999,"N_COORD97":2586266.3500000001,"ADDRESS":"海豐厝８７之６４號","OBJECTID":99019},"geometry":{"x":190324.18000000063,"y":2586266.3500000015}},{"attributes":{"ID":99020,"DIS_CODE":0,"TOWNNAME":"永康區","LI":"西勢里","LIN":"21鄰","STREET":"富強路","SECT":"一段","MAREA":" ","LANE":"９８巷","ALLEY":"５６弄","HOUSE_NO":"３３號","E_COORD97":175552.23000000001,"N_COORD97":2545995.3999999999,"ADDRESS":"富強路一段９８巷５６弄３３號","OBJECTID":99020},"geometry":{"x":175552.23000000045,"y":2545995.4000000041}},{"attributes":{"ID":99021,"DIS_CODE":0,"TOWNNAME":"白河區","LI":"玉豐里","LIN":"10鄰","STREET":" ","SECT":" ","MAREA":"海豐厝","LANE":" ","ALLEY":" ","HOUSE_NO":"８７之６５號","E_COORD97":190324.29000000001,"N_COORD97":2586262.1899999999,"ADDRESS":"海豐厝８７之６５號","OBJECTID":99021},"geometry":{"x":190324.29000000004,"y":2586262.1899999995}},{"attributes":{"ID":99022,"DIS_CODE":0,"TOWNNAME":"永康區","LI":"西勢里","LIN":"21鄰","STREET":"富強路","SECT":"一段","MAREA":" ","LANE":"９８巷","ALLEY":"５６弄","HOUSE_NO":"３５號","E_COORD97":175549.32999999999,"N_COORD97":2545992.1499999999,"ADDRESS":"富強路一段９８巷５６弄３５號","OBJECTID":99022},"geometry":{"x":175549.33000000007,"y":2545992.1500000004}},{"attributes":{"ID":99023,"DIS_CODE":0,"TOWNNAME":"白河區","LI":"玉豐里","LIN":"10鄰","STREET":" ","SECT":" ","MAREA":"海豐厝","LANE":" ","ALLEY":" ","HOUSE_NO":"８７之６６號","E_COORD97":190324.37,"N_COORD97":2586257.8999999999,"ADDRESS":"海豐厝８７之６６號","OBJECTID":99023},"geometry":{"x":190324.37000000011,"y":2586257.9000000004}},{"attributes":{"ID":99024,"DIS_CODE":0,"TOWNNAME":"白河區","LI":"玉豐里","LIN":"10鄰","STREET":" ","SECT":" ","MAREA":"海豐厝","LANE":" ","ALLEY":" ","HOUSE_NO":"８７之６７號","E_COORD97":190336.54999999999,"N_COORD97":2586253.46,"ADDRESS":"海豐厝８７之６７號","OBJECTID":99024},"geometry":{"x":190336.54999999888,"y":2586253.4600000028}},{"attributes":{"ID":99025,"DIS_CODE":0,"TOWNNAME":"白河區","LI":"玉豐里","LIN":"10鄰","STREET":" ","SECT":" ","MAREA":"海豐厝","LANE":" ","ALLEY":" ","HOUSE_NO":"８７之６８號","E_COORD97":190332.14000000001,"N_COORD97":2586253.0800000001,"ADDRESS":"海豐厝８７之６８號","OBJECTID":99025},"geometry":{"x":190332.13999999966,"y":2586253.0800000001}},{"attributes":{"ID":99026,"DIS_CODE":0,"TOWNNAME":"白河區","LI":"玉豐里","LIN":"10鄰","STREET":" ","SECT":" ","MAREA":"海豐厝","LANE":" ","ALLEY":" ","HOUSE_NO":"８７之６９號","E_COORD97":190327.54000000001,"N_COORD97":2586252.9900000002,"ADDRESS":"海豐厝８７之６９號","OBJECTID":99026},"geometry":{"x":190327.54000000097,"y":2586252.9900000021}},{"attributes":{"ID":99027,"DIS_CODE":0,"TOWNNAME":"永康區","LI":"西勢里","LIN":"21鄰","STREET":"富強路","SECT":"一段","MAREA":" ","LANE":"１３巷","ALLEY":"２弄","HOUSE_NO":"２號","E_COORD97":175370,"N_COORD97":2546053.77,"ADDRESS":"富強路一段１３巷２弄２號","OBJECTID":99027},"geometry":{"x":175370,"y":2546053.7700000014}},{"attributes":{"ID":99028,"DIS_CODE":0,"TOWNNAME":"白河區","LI":"玉豐里","LIN":"10鄰","STREET":" ","SECT":" ","MAREA":"海豐厝","LANE":" ","ALLEY":" ","HOUSE_NO":"８７之６號","E_COORD97":190368.45999999999,"N_COORD97":2586308.98,"ADDRESS":"海豐厝８７之６號","OBJECTID":99028},"geometry":{"x":190368.46000000089,"y":2586308.9800000004}},{"attributes":{"ID":99029,"DIS_CODE":0,"TOWNNAME":"永康區","LI":"西勢里","LIN":"21鄰","STREET":"富強路","SECT":"一段","MAREA":" ","LANE":"９８巷","ALLEY":"５６弄","HOUSE_NO":"２６號","E_COORD97":175565.67999999999,"N_COORD97":2546026.3999999999,"ADDRESS":"富強路一段９８巷５６弄２６號","OBJECTID":99029},"geometry":{"x":175565.68000000063,"y":2546026.4000000022}},{"attributes":{"ID":99030,"DIS_CODE":0,"TOWNNAME":"永康區","LI":"西勢里","LIN":"21鄰","STREET":"富強路","SECT":"一段","MAREA":" ","LANE":"９８巷","ALLEY":"３４弄","HOUSE_NO":"１號","E_COORD97":175559.42999999999,"N_COORD97":2546095.1499999999,"ADDRESS":"富強路一段９８巷３４弄１號","OBJECTID":99030},"geometry":{"x":175559.43000000063,"y":2546095.1500000041}},{"attributes":{"ID":99031,"DIS_CODE":0,"TOWNNAME":"永康區","LI":"西勢里","LIN":"21鄰","STREET":"富強路","SECT":"一段","MAREA":" ","LANE":"９８巷","ALLEY":"２０弄","HOUSE_NO":"４２號","E_COORD97":175467.98000000001,"N_COORD97":2546057.7599999998,"ADDRESS":"富強路一段９８巷２０弄４２號","OBJECTID":99031},"geometry":{"x":175467.98000000138,"y":2546057.7600000016}},{"attributes":{"ID":99032,"DIS_CODE":0,"TOWNNAME":"永康區","LI":"西勢里","LIN":"21鄰","STREET":"富強路","SECT":"一段","MAREA":" ","LANE":"９８巷","ALLEY":"２０弄","HOUSE_NO":"２４號","E_COORD97":175488.20000000001,"N_COORD97":2546094.2599999998,"ADDRESS":"富強路一段９８巷２０弄２４號","OBJECTID":99032},"geometry":{"x":175488.20000000112,"y":2546094.2600000016}},{"attributes":{"ID":99033,"DIS_CODE":0,"TOWNNAME":"白河區","LI":"玉豐里","LIN":"10鄰","STREET":" ","SECT":" ","MAREA":"海豐厝","LANE":" ","ALLEY":" ","HOUSE_NO":"８７之７０號","E_COORD97":190323.69,"N_COORD97":2586252.9500000002,"ADDRESS":"海豐厝８７之７０號","OBJECTID":99033},"geometry":{"x":190323.69000000041,"y":2586252.9499999993}},{"attributes":{"ID":99034,"DIS_CODE":0,"TOWNNAME":"永康區","LI":"西橋里","LIN":"21鄰","STREET":"大橋三街","SECT":" ","MAREA":" ","LANE":"５７巷","ALLEY":"１９弄","HOUSE_NO":"５７號","E_COORD97":170444.34,"N_COORD97":2546479.9500000002,"ADDRESS":"大橋三街５７巷１９弄５７號","OBJECTID":99034},"geometry":{"x":170444.33999999985,"y":2546479.9500000011}},{"attributes":{"ID":99035,"DIS_CODE":0,"TOWNNAME":"永康區","LI":"西勢里","LIN":"21鄰","STREET":"富強路","SECT":"一段","MAREA":" ","LANE":"９８巷","ALLEY":"５６弄","HOUSE_NO":"１０號","E_COORD97":175583.94,"N_COORD97":2546045.6400000001,"ADDRESS":"富強路一段９８巷５６弄１０號","OBJECTID":99035},"geometry":{"x":175583.94000000134,"y":2546045.6400000025}},{"attributes":{"ID":99036,"DIS_CODE":0,"TOWNNAME":"白河區","LI":"玉豐里","LIN":"10鄰","STREET":" ","SECT":" ","MAREA":"海豐厝","LANE":" ","ALLEY":" ","HOUSE_NO":"８７之７１號","E_COORD97":190319.26999999999,"N_COORD97":2586253.0699999998,"ADDRESS":"海豐厝８７之７１號","OBJECTID":99036},"geometry":{"x":190319.26999999955,"y":2586253.0700000003}},{"attributes":{"ID":99037,"DIS_CODE":0,"TOWNNAME":"白河區","LI":"玉豐里","LIN":"10鄰","STREET":" ","SECT":" ","MAREA":"海豐厝","LANE":" ","ALLEY":" ","HOUSE_NO":"８７之７２號","E_COORD97":190315.14000000001,"N_COORD97":2586252.9399999999,"ADDRESS":"海豐厝８７之７２號","OBJECTID":99037},"geometry":{"x":190315.13999999966,"y":2586252.9400000013}},{"attributes":{"ID":99038,"DIS_CODE":0,"TOWNNAME":"永康區","LI":"西勢里","LIN":"21鄰","STREET":"富強路","SECT":"一段","MAREA":" ","LANE":"９８巷","ALLEY":"５６弄","HOUSE_NO":"２５號","E_COORD97":175564.63,"N_COORD97":2546008.6499999999,"ADDRESS":"富強路一段９８巷５６弄２５號","OBJECTID":99038},"geometry":{"x":175564.63000000082,"y":2546008.6500000022}},{"attributes":{"ID":99039,"DIS_CODE":0,"TOWNNAME":"仁德區","LI":"仁義里","LIN":"1鄰","STREET":"義林五街","SECT":" ","MAREA":" ","LANE":" ","ALLEY":" ","HOUSE_NO":"４８號","E_COORD97":174347.01000000001,"N_COORD97":2541029.02,"ADDRESS":"義林五街４８號","OBJECTID":99039},"geometry":{"x":174347.01000000071,"y":2541029.0199999996}},{"attributes":{"ID":99040,"DIS_CODE":0,"TOWNNAME":"白河區","LI":"玉豐里","LIN":"10鄰","STREET":" ","SECT":" ","MAREA":"海豐厝","LANE":" ","ALLEY":" ","HOUSE_NO":"８７之７３號","E_COORD97":190310.57000000001,"N_COORD97":2586252.71,"ADDRESS":"海豐厝８７之７３號","OBJECTID":99040},"geometry":{"x":190310.57000000123,"y":2586252.7100000009}},{"attributes":{"ID":99041,"DIS_CODE":0,"TOWNNAME":"白河區","LI":"玉豐里","LIN":"10鄰","STREET":" ","SECT":" ","MAREA":"海豐厝","LANE":" ","ALLEY":" ","HOUSE_NO":"８７之７４號","E_COORD97":190306.12,"N_COORD97":2586252.8500000001,"ADDRESS":"海豐厝８７之７４號","OBJECTID":99041},"geometry":{"x":190306.12000000197,"y":2586252.8500000015}},{"attributes":{"ID":99042,"DIS_CODE":0,"TOWNNAME":"白河區","LI":"玉豐里","LIN":"10鄰","STREET":" ","SECT":" ","MAREA":"海豐厝","LANE":" ","ALLEY":" ","HOUSE_NO":"８７之７５號","E_COORD97":190306.14999999999,"N_COORD97":2586257.79,"ADDRESS":"海豐厝８７之７５號","OBJECTID":99042},"geometry":{"x":190306.15000000224,"y":2586257.7899999991}},{"attributes":{"ID":99043,"DIS_CODE":0,"TOWNNAME":"白河區","LI":"玉豐里","LIN":"10鄰","STREET":" ","SECT":" ","MAREA":"海豐厝","LANE":" ","ALLEY":" ","HOUSE_NO":"８７之７６號","E_COORD97":190305.98000000001,"N_COORD97":2586262.0800000001,"ADDRESS":"海豐厝８７之７６號","OBJECTID":99043},"geometry":{"x":190305.98000000138,"y":2586262.0800000019}},{"attributes":{"ID":99044,"DIS_CODE":0,"TOWNNAME":"白河區","LI":"玉豐里","LIN":"10鄰","STREET":" ","SECT":" ","MAREA":"海豐厝","LANE":" ","ALLEY":" ","HOUSE_NO":"８７之７７號","E_COORD97":190305.87,"N_COORD97":2586265.7999999998,"ADDRESS":"海豐厝８７之７７號","OBJECTID":99044},"geometry":{"x":190305.87000000011,"y":2586265.8000000007}},{"attributes":{"ID":99045,"DIS_CODE":0,"TOWNNAME":"白河區","LI":"玉豐里","LIN":"10鄰","STREET":" ","SECT":" ","MAREA":"海豐厝","LANE":" ","ALLEY":" ","HOUSE_NO":"８７之７８號","E_COORD97":190306.04999999999,"N_COORD97":2586270.1600000001,"ADDRESS":"海豐厝８７之７８號","OBJECTID":99045},"geometry":{"x":190306.04999999888,"y":2586270.1600000001}},{"attributes":{"ID":99046,"DIS_CODE":0,"TOWNNAME":"白河區","LI":"玉豐里","LIN":"10鄰","STREET":" ","SECT":" ","MAREA":"海豐厝","LANE":" ","ALLEY":" ","HOUSE_NO":"８７之７９號","E_COORD97":190306.04999999999,"N_COORD97":2586274.3399999999,"ADDRESS":"海豐厝８７之７９號","OBJECTID":99046},"geometry":{"x":190306.04999999888,"y":2586274.3400000017}},{"attributes":{"ID":99047,"DIS_CODE":0,"TOWNNAME":"白河區","LI":"玉豐里","LIN":"10鄰","STREET":" ","SECT":" ","MAREA":"海豐厝","LANE":" ","ALLEY":" ","HOUSE_NO":"８７之７號","E_COORD97":190369.35000000001,"N_COORD97":2586305.54,"ADDRESS":"海豐厝８７之７號","OBJECTID":99047},"geometry":{"x":190369.34999999963,"y":2586305.540000001}},{"attributes":{"ID":99048,"DIS_CODE":0,"TOWNNAME":"白河區","LI":"玉豐里","LIN":"10鄰","STREET":" ","SECT":" ","MAREA":"海豐厝","LANE":" ","ALLEY":" ","HOUSE_NO":"８７之８０號","E_COORD97":190305.60000000001,"N_COORD97":2586277.8100000001,"ADDRESS":"海豐厝８７之８０號","OBJECTID":99048},"geometry":{"x":190305.60000000149,"y":2586277.8100000024}},{"attributes":{"ID":99049,"DIS_CODE":0,"TOWNNAME":"永康區","LI":"西勢里","LIN":"21鄰","STREET":"富強路","SECT":"一段","MAREA":" ","LANE":"９８巷","ALLEY":"３８弄","HOUSE_NO":"２２號","E_COORD97":175545.85000000001,"N_COORD97":2546050.5099999998,"ADDRESS":"富強路一段９８巷３８弄２２號","OBJECTID":99049},"geometry":{"x":175545.85000000056,"y":2546050.5099999998}},{"attributes":{"ID":99050,"DIS_CODE":0,"TOWNNAME":"永康區","LI":"西勢里","LIN":"21鄰","STREET":"富強路","SECT":"一段","MAREA":" ","LANE":"９８巷","ALLEY":"５６弄","HOUSE_NO":"３７號","E_COORD97":175546.32000000001,"N_COORD97":2545988.8900000001,"ADDRESS":"富強路一段９８巷５６弄３７號","OBJECTID":99050},"geometry":{"x":175546.3200000003,"y":2545988.8900000043}},{"attributes":{"ID":99051,"DIS_CODE":0,"TOWNNAME":"永康區","LI":"西勢里","LIN":"21鄰","STREET":"富強路","SECT":"一段","MAREA":" ","LANE":"９８巷","ALLEY":"３８弄","HOUSE_NO":"２５號","E_COORD97":175542.34,"N_COORD97":2546029.6499999999,"ADDRESS":"富強路一段９８巷３８弄２５號","OBJECTID":99051},"geometry":{"x":175542.33999999985,"y":2546029.6500000004}},{"attributes":{"ID":99052,"DIS_CODE":0,"TOWNNAME":"永康區","LI":"西勢里","LIN":"21鄰","STREET":"富強路","SECT":"一段","MAREA":" ","LANE":"９８巷","ALLEY":"５６弄","HOUSE_NO":"２號","E_COORD97":175591.73000000001,"N_COORD97":2546055.6400000001,"ADDRESS":"富強路一段９８巷５６弄２號","OBJECTID":99052},"geometry":{"x":175591.73000000138,"y":2546055.6400000025}},{"attributes":{"ID":99053,"DIS_CODE":0,"TOWNNAME":"白河區","LI":"玉豐里","LIN":"10鄰","STREET":" ","SECT":" ","MAREA":"海豐厝","LANE":" ","ALLEY":" ","HOUSE_NO":"８７之８１號","E_COORD97":190305.60000000001,"N_COORD97":2586282.1600000001,"ADDRESS":"海豐厝８７之８１號","OBJECTID":99053},"geometry":{"x":190305.60000000149,"y":2586282.160000002}},{"attributes":{"ID":99054,"DIS_CODE":0,"TOWNNAME":"永康區","LI":"西勢里","LIN":"21鄰","STREET":"富強路","SECT":"一段","MAREA":" ","LANE":"１３巷","ALLEY":"２弄","HOUSE_NO":"２６號","E_COORD97":175392.01000000001,"N_COORD97":2546090.27,"ADDRESS":"富強路一段１３巷２弄２６號","OBJECTID":99054},"geometry":{"x":175392.00999999885,"y":2546090.2700000033}},{"attributes":{"ID":99055,"DIS_CODE":0,"TOWNNAME":"永康區","LI":"西勢里","LIN":"21鄰","STREET":"富強路","SECT":"一段","MAREA":" ","LANE":"９８巷","ALLEY":"３８弄","HOUSE_NO":"３１號","E_COORD97":175533.25,"N_COORD97":2546019.8999999999,"ADDRESS":"富強路一段９８巷３８弄３１號","OBJECTID":99055},"geometry":{"x":175533.25000000186,"y":2546019.9000000022}},{"attributes":{"ID":99056,"DIS_CODE":0,"TOWNNAME":"永康區","LI":"西勢里","LIN":"21鄰","STREET":"富強路","SECT":"一段","MAREA":" ","LANE":"９８巷","ALLEY":"３８弄","HOUSE_NO":"３７號","E_COORD97":175523.92999999999,"N_COORD97":2546009.8999999999,"ADDRESS":"富強路一段９８巷３８弄３７號","OBJECTID":99056},"geometry":{"x":175523.93000000063,"y":2546009.9000000022}},{"attributes":{"ID":99057,"DIS_CODE":0,"TOWNNAME":"永康區","LI":"西勢里","LIN":"21鄰","STREET":"富強路","SECT":"一段","MAREA":" ","LANE":"９８巷","ALLEY":"３８弄","HOUSE_NO":"４６號","E_COORD97":175517.75,"N_COORD97":2546021.5099999998,"ADDRESS":"富強路一段９８巷３８弄４６號","OBJECTID":99057},"geometry":{"x":175517.74999999907,"y":2546021.5100000016}},{"attributes":{"ID":99058,"DIS_CODE":0,"TOWNNAME":"永康區","LI":"西勢里","LIN":"21鄰","STREET":"富強路","SECT":"一段","MAREA":" ","LANE":"９８巷","ALLEY":"３８弄","HOUSE_NO":"２０號","E_COORD97":175548.76000000001,"N_COORD97":2546053.7599999998,"ADDRESS":"富強路一段９８巷３８弄２０號","OBJECTID":99058},"geometry":{"x":175548.76000000071,"y":2546053.7600000016}},{"attributes":{"ID":99059,"DIS_CODE":0,"TOWNNAME":"永康區","LI":"西勢里","LIN":"21鄰","STREET":"富強路","SECT":"一段","MAREA":" ","LANE":"９８巷","ALLEY":"５６弄","HOUSE_NO":"２２號","E_COORD97":175568.17999999999,"N_COORD97":2546029.3999999999,"ADDRESS":"富強路一段９８巷５６弄２２號","OBJECTID":99059},"geometry":{"x":175568.1799999997,"y":2546029.4000000022}},{"attributes":{"ID":99060,"DIS_CODE":0,"TOWNNAME":"永康區","LI":"西勢里","LIN":"21鄰","STREET":"富強路","SECT":"一段","MAREA":" ","LANE":"９８巷","ALLEY":"３８弄","HOUSE_NO":"３６號","E_COORD97":175530.48000000001,"N_COORD97":2546034.1899999999,"ADDRESS":"富強路一段９８巷３８弄３６號","OBJECTID":99060},"geometry":{"x":175530.48000000231,"y":2546034.1900000013}},{"attributes":{"ID":99061,"DIS_CODE":0,"TOWNNAME":"白河區","LI":"玉豐里","LIN":"10鄰","STREET":" ","SECT":" ","MAREA":"海豐厝","LANE":" ","ALLEY":" ","HOUSE_NO":"８７之８２號","E_COORD97":190305.67000000001,"N_COORD97":2586286.2999999998,"ADDRESS":"海豐厝８７之８２號","OBJECTID":99061},"geometry":{"x":190305.67000000086,"y":2586286.3000000007}},{"attributes":{"ID":99062,"DIS_CODE":0,"TOWNNAME":"白河區","LI":"玉豐里","LIN":"10鄰","STREET":" ","SECT":" ","MAREA":"海豐厝","LANE":" ","ALLEY":" ","HOUSE_NO":"８７之８３號","E_COORD97":190305.29000000001,"N_COORD97":2586290.3399999999,"ADDRESS":"海豐厝８７之８３號","OBJECTID":99062},"geometry":{"x":190305.29000000097,"y":2586290.3400000017}},{"attributes":{"ID":99063,"DIS_CODE":0,"TOWNNAME":"永康區","LI":"西勢里","LIN":"21鄰","STREET":"富強路","SECT":"一段","MAREA":" ","LANE":"９８巷","ALLEY":"５６弄","HOUSE_NO":"６號","E_COORD97":175589.14000000001,"N_COORD97":2546052.3900000001,"ADDRESS":"富強路一段９８巷５６弄６號","OBJECTID":99063},"geometry":{"x":175589.13999999966,"y":2546052.3900000006}},{"attributes":{"ID":99064,"DIS_CODE":0,"TOWNNAME":"永康區","LI":"西勢里","LIN":"21鄰","STREET":"富強路","SECT":"一段","MAREA":" ","LANE":"９８巷","ALLEY":"３８弄","HOUSE_NO":"３０號","E_COORD97":175537.19,"N_COORD97":2546040.52,"ADDRESS":"富強路一段９８巷３８弄３０號","OBJECTID":99064},"geometry":{"x":175537.19000000041,"y":2546040.5199999996}},{"attributes":{"ID":99065,"DIS_CODE":0,"TOWNNAME":"官田區","LI":"隆田里","LIN":"21鄰","STREET":"中興路","SECT":" ","MAREA":" ","LANE":"１巷","ALLEY":"４弄","HOUSE_NO":"５號","E_COORD97":180476.88,"N_COORD97":2565553.8700000001,"ADDRESS":"中興路１巷４弄５號","OBJECTID":99065},"geometry":{"x":180476.87999999896,"y":2565553.870000001}},{"attributes":{"ID":99066,"DIS_CODE":0,"TOWNNAME":"永康區","LI":"西橋里","LIN":"21鄰","STREET":"大橋三街","SECT":" ","MAREA":" ","LANE":"５７巷","ALLEY":"１９弄","HOUSE_NO":"５１號","E_COORD97":170451.64000000001,"N_COORD97":2546490.2000000002,"ADDRESS":"大橋三街５７巷１９弄５１號","OBJECTID":99066},"geometry":{"x":170451.6400000006,"y":2546490.200000003}},{"attributes":{"ID":99067,"DIS_CODE":0,"TOWNNAME":"東區","LI":"龍山里","LIN":"1鄰","STREET":"崇學路","SECT":" ","MAREA":" ","LANE":" ","ALLEY":" ","HOUSE_NO":"２７１號之１２","E_COORD97":170615.22,"N_COORD97":2542578.0800000001,"ADDRESS":"崇學路２７１號之１２","OBJECTID":99067},"geometry":{"x":170615.21999999881,"y":2542578.0800000001}},{"attributes":{"ID":99068,"DIS_CODE":0,"TOWNNAME":"東區","LI":"東光里","LIN":"1鄰","STREET":"東寧路","SECT":" ","MAREA":" ","LANE":" ","ALLEY":" ","HOUSE_NO":"４１７號","E_COORD97":171021.92000000001,"N_COORD97":2543346.79,"ADDRESS":"東寧路４１７號","OBJECTID":99068},"geometry":{"x":171021.91999999993,"y":2543346.7900000028}},{"attributes":{"ID":99069,"DIS_CODE":0,"TOWNNAME":"東區","LI":"東光里","LIN":"1鄰","STREET":"東寧路","SECT":" ","MAREA":" ","LANE":" ","ALLEY":" ","HOUSE_NO":"４１３號","E_COORD97":171012.45999999999,"N_COORD97":2543349.6499999999,"ADDRESS":"東寧路４１３號","OBJECTID":99069},"geometry":{"x":171012.46000000089,"y":2543349.6500000022}},{"attributes":{"ID":99070,"DIS_CODE":0,"TOWNNAME":"永康區","LI":"西勢里","LIN":"21鄰","STREET":"富強路","SECT":"一段","MAREA":" ","LANE":"９８巷","ALLEY":"３４弄","HOUSE_NO":"５號","E_COORD97":175545.17999999999,"N_COORD97":2546078.3900000001,"ADDRESS":"富強路一段９８巷３４弄５號","OBJECTID":99070},"geometry":{"x":175545.18000000156,"y":2546078.3900000025}},{"attributes":{"ID":99071,"DIS_CODE":0,"TOWNNAME":"永康區","LI":"西勢里","LIN":"21鄰","STREET":"富強路","SECT":"一段","MAREA":" ","LANE":"９８巷","ALLEY":"２０弄","HOUSE_NO":"１９號","E_COORD97":175509.17000000001,"N_COORD97":2546086.4700000002,"ADDRESS":"富強路一段９８巷２０弄１９號","OBJECTID":99071},"geometry":{"x":175509.16999999993,"y":2546086.4700000044}},{"attributes":{"ID":99072,"DIS_CODE":0,"TOWNNAME":"七股區","LI":"中寮里","LIN":"4鄰","STREET":" ","SECT":" ","MAREA":"中寮","LANE":" ","ALLEY":" ","HOUSE_NO":"３４號","E_COORD97":158581.57000000001,"N_COORD97":2561677.0299999998,"ADDRESS":"中寮３４號","OBJECTID":99072},"geometry":{"x":158581.57000000123,"y":2561677.0300000031}},{"attributes":{"ID":99073,"DIS_CODE":0,"TOWNNAME":"永康區","LI":"西勢里","LIN":"21鄰","STREET":"富強路","SECT":"一段","MAREA":" ","LANE":"９８巷","ALLEY":"５６弄","HOUSE_NO":"２７號","E_COORD97":175561.42999999999,"N_COORD97":2546005.3999999999,"ADDRESS":"富強路一段９８巷５６弄２７號","OBJECTID":99073},"geometry":{"x":175561.4299999997,"y":2546005.4000000041}},{"attributes":{"ID":99074,"DIS_CODE":0,"TOWNNAME":"永康區","LI":"西橋里","LIN":"21鄰","STREET":"大橋三街","SECT":" ","MAREA":" ","LANE":"５７巷","ALLEY":"７弄","HOUSE_NO":"８６號","E_COORD97":170446.75,"N_COORD97":2546407.3799999999,"ADDRESS":"大橋三街５７巷７弄８６號","OBJECTID":99074},"geometry":{"x":170446.75,"y":2546407.3800000027}},{"attributes":{"ID":99075,"DIS_CODE":0,"TOWNNAME":"永康區","LI":"西勢里","LIN":"21鄰","STREET":"富強路","SECT":"一段","MAREA":" ","LANE":"９８巷","ALLEY":"５６弄","HOUSE_NO":"１號","E_COORD97":175599.73000000001,"N_COORD97":2546048.3900000001,"ADDRESS":"富強路一段９８巷５６弄１號","OBJECTID":99075},"geometry":{"x":175599.72999999952,"y":2546048.3900000006}},{"attributes":{"ID":99076,"DIS_CODE":0,"TOWNNAME":"永康區","LI":"西勢里","LIN":"21鄰","STREET":"富強路","SECT":"一段","MAREA":" ","LANE":"９８巷","ALLEY":"５６弄","HOUSE_NO":"８號","E_COORD97":175585.73000000001,"N_COORD97":2546048.8900000001,"ADDRESS":"富強路一段９８巷５６弄８號","OBJECTID":99076},"geometry":{"x":175585.73000000045,"y":2546048.8900000006}},{"attributes":{"ID":99077,"DIS_CODE":0,"TOWNNAME":"永康區","LI":"西勢里","LIN":"21鄰","STREET":"富強路","SECT":"一段","MAREA":" ","LANE":"９８巷","ALLEY":"５６弄","HOUSE_NO":"１３號","E_COORD97":175583.32999999999,"N_COORD97":2546027.8999999999,"ADDRESS":"富強路一段９８巷５６弄１３號","OBJECTID":99077},"geometry":{"x":175583.33000000007,"y":2546027.9000000004}},{"attributes":{"ID":99078,"DIS_CODE":0,"TOWNNAME":"永康區","LI":"西勢里","LIN":"21鄰","STREET":"富強路","SECT":"一段","MAREA":" ","LANE":"１３巷","ALLEY":"２弄","HOUSE_NO":"３２號","E_COORD97":175398.75,"N_COORD97":2546102.0299999998,"ADDRESS":"富強路一段１３巷２弄３２號","OBJECTID":99078},"geometry":{"x":175398.75,"y":2546102.0300000012}},{"attributes":{"ID":99079,"DIS_CODE":0,"TOWNNAME":"永康區","LI":"西勢里","LIN":"21鄰","STREET":"富強路","SECT":"一段","MAREA":" ","LANE":"９８巷","ALLEY":"５６弄","HOUSE_NO":"１１號","E_COORD97":175586.39000000001,"N_COORD97":2546031.1499999999,"ADDRESS":"富強路一段９８巷５６弄１１號","OBJECTID":99079},"geometry":{"x":175586.3900000006,"y":2546031.1500000022}},{"attributes":{"ID":99080,"DIS_CODE":0,"TOWNNAME":"永康區","LI":"西勢里","LIN":"21鄰","STREET":"富強路","SECT":"一段","MAREA":" ","LANE":"１３巷","ALLEY":"２弄","HOUSE_NO":"１２號","E_COORD97":175380.25,"N_COORD97":2546070.02,"ADDRESS":"富強路一段１３巷２弄１２號","OBJECTID":99080},"geometry":{"x":175380.25,"y":2546070.0199999996}},{"attributes":{"ID":99081,"DIS_CODE":0,"TOWNNAME":"永康區","LI":"西勢里","LIN":"21鄰","STREET":"富強路","SECT":"一段","MAREA":" ","LANE":"９８巷","ALLEY":"３８弄","HOUSE_NO":"３２號","E_COORD97":175534.10000000001,"N_COORD97":2546037.27,"ADDRESS":"富強路一段９８巷３８弄３２號","OBJECTID":99081},"geometry":{"x":175534.10000000056,"y":2546037.2700000014}},{"attributes":{"ID":99082,"DIS_CODE":0,"TOWNNAME":"新化區","LI":"武安里","LIN":"4鄰","STREET":"大同街","SECT":" ","MAREA":" ","LANE":" ","ALLEY":" ","HOUSE_NO":"３４號","E_COORD97":179057.57999999999,"N_COORD97":2548188.25,"ADDRESS":"大同街３４號","OBJECTID":99082},"geometry":{"x":179057.58000000101,"y":2548188.25}},{"attributes":{"ID":99083,"DIS_CODE":0,"TOWNNAME":"新化區","LI":"太平里","LIN":"4鄰","STREET":"民生路","SECT":" ","MAREA":" ","LANE":" ","ALLEY":" ","HOUSE_NO":"３２５號","E_COORD97":178892.70999999999,"N_COORD97":2549214.25,"ADDRESS":"民生路３２５號","OBJECTID":99083},"geometry":{"x":178892.70999999996,"y":2549214.2500000019}},{"attributes":{"ID":99084,"DIS_CODE":0,"TOWNNAME":"新化區","LI":"太平里","LIN":"13鄰","STREET":"太平街","SECT":" ","MAREA":" ","LANE":" ","ALLEY":" ","HOUSE_NO":"３２號之１","E_COORD97":178891.89999999999,"N_COORD97":2548808.2599999998,"ADDRESS":"太平街３２號之１","OBJECTID":99084},"geometry":{"x":178891.90000000037,"y":2548808.2599999998}},{"attributes":{"ID":99085,"DIS_CODE":0,"TOWNNAME":"新化區","LI":"太平里","LIN":"4鄰","STREET":"民生路","SECT":" ","MAREA":" ","LANE":" ","ALLEY":" ","HOUSE_NO":"３０７號","E_COORD97":178916.60999999999,"N_COORD97":2549183.25,"ADDRESS":"民生路３０７號","OBJECTID":99085},"geometry":{"x":178916.61000000127,"y":2549183.2500000019}},{"attributes":{"ID":99086,"DIS_CODE":0,"TOWNNAME":"新化區","LI":"東榮里","LIN":"25鄰","STREET":"中正路","SECT":" ","MAREA":" ","LANE":" ","ALLEY":" ","HOUSE_NO":"３０２號之１","E_COORD97":179148.73999999999,"N_COORD97":2547987.2599999998,"ADDRESS":"中正路３０２號之１","OBJECTID":99086},"geometry":{"x":179148.74000000022,"y":2547987.2600000016}},{"attributes":{"ID":99087,"DIS_CODE":0,"TOWNNAME":"新化區","LI":"東榮里","LIN":"32鄰","STREET":"信義路","SECT":" ","MAREA":" ","LANE":" ","ALLEY":" ","HOUSE_NO":"２３０號","E_COORD97":179119.73000000001,"N_COORD97":2548334.25,"ADDRESS":"信義路２３０號","OBJECTID":99087},"geometry":{"x":179119.73000000138,"y":2548334.25}},{"attributes":{"ID":99088,"DIS_CODE":0,"TOWNNAME":"新化區","LI":"東榮里","LIN":"32鄰","STREET":"中正路","SECT":" ","MAREA":" ","LANE":" ","ALLEY":" ","HOUSE_NO":"３８０號","E_COORD97":179100.91,"N_COORD97":2548379.25,"ADDRESS":"中正路３８０號","OBJECTID":99088},"geometry":{"x":179100.91000000108,"y":2548379.2500000037}},{"attributes":{"ID":99089,"DIS_CODE":0,"TOWNNAME":"新化區","LI":"太平里","LIN":"17鄰","STREET":"忠孝路","SECT":" ","MAREA":" ","LANE":" ","ALLEY":" ","HOUSE_NO":"１４０號","E_COORD97":178645.01999999999,"N_COORD97":2548647.25,"ADDRESS":"忠孝路１４０號","OBJECTID":99089},"geometry":{"x":178645.02000000142,"y":2548647.2500000037}},{"attributes":{"ID":99090,"DIS_CODE":0,"TOWNNAME":"白河區","LI":"玉豐里","LIN":"10鄰","STREET":" ","SECT":" ","MAREA":"海豐厝","LANE":" ","ALLEY":" ","HOUSE_NO":"８７之８４號","E_COORD97":190305.35000000001,"N_COORD97":2586294.8100000001,"ADDRESS":"海豐厝８７之８４號","OBJECTID":99090},"geometry":{"x":190305.34999999963,"y":2586294.8100000024}},{"attributes":{"ID":99091,"DIS_CODE":0,"TOWNNAME":"白河區","LI":"玉豐里","LIN":"10鄰","STREET":" ","SECT":" ","MAREA":"海豐厝","LANE":" ","ALLEY":" ","HOUSE_NO":"８７之８５號","E_COORD97":190305.22,"N_COORD97":2586299.1299999999,"ADDRESS":"海豐厝８７之８５號","OBJECTID":99091},"geometry":{"x":190305.22000000067,"y":2586299.129999999}},{"attributes":{"ID":99092,"DIS_CODE":0,"TOWNNAME":"永康區","LI":"西勢里","LIN":"21鄰","STREET":"富強路","SECT":"一段","MAREA":" ","LANE":"９８巷","ALLEY":"５６弄","HOUSE_NO":"１５號","E_COORD97":175580.12,"N_COORD97":2546024.8999999999,"ADDRESS":"富強路一段９８巷５６弄１５號","OBJECTID":99092},"geometry":{"x":175580.12000000104,"y":2546024.9000000004}},{"attributes":{"ID":99093,"DIS_CODE":0,"TOWNNAME":"永康區","LI":"西勢里","LIN":"21鄰","STREET":"富強路","SECT":"一段","MAREA":" ","LANE":"９８巷","ALLEY":"６２弄","HOUSE_NO":"１號","E_COORD97":175628.73999999999,"N_COORD97":2546033.6499999999,"ADDRESS":"富強路一段９８巷６２弄１號","OBJECTID":99093},"geometry":{"x":175628.74000000115,"y":2546033.6500000004}},{"attributes":{"ID":99094,"DIS_CODE":0,"TOWNNAME":"安南區","LI":"幸福里","LIN":"21鄰","STREET":"國安街","SECT":" ","MAREA":" ","LANE":"１５５巷","ALLEY":"４０弄","HOUSE_NO":"３６號","E_COORD97":166688,"N_COORD97":2546847.1099999999,"ADDRESS":"國安街１５５巷４０弄３６號","OBJECTID":99094},"geometry":{"x":166688.00000000093,"y":2546847.1100000031}},{"attributes":{"ID":99095,"DIS_CODE":0,"TOWNNAME":"安南區","LI":"幸福里","LIN":"21鄰","STREET":"國安街","SECT":" ","MAREA":" ","LANE":"１５５巷","ALLEY":"２０弄","HOUSE_NO":"１１號","E_COORD97":166721.07999999999,"N_COORD97":2546878.4700000002,"ADDRESS":"國安街１５５巷２０弄１１號","OBJECTID":99095},"geometry":{"x":166721.08000000194,"y":2546878.4700000007}},{"attributes":{"ID":99096,"DIS_CODE":0,"TOWNNAME":"安南區","LI":"幸福里","LIN":"21鄰","STREET":"國安街","SECT":" ","MAREA":" ","LANE":"１５５巷","ALLEY":"２０弄","HOUSE_NO":"１號","E_COORD97":166740.72,"N_COORD97":2546880.1600000001,"ADDRESS":"國安街１５５巷２０弄１號","OBJECTID":99096},"geometry":{"x":166740.72000000067,"y":2546880.1600000001}},{"attributes":{"ID":99097,"DIS_CODE":0,"TOWNNAME":"安南區","LI":"幸福里","LIN":"21鄰","STREET":"國安街","SECT":" ","MAREA":" ","LANE":"１５５巷","ALLEY":"２０弄","HOUSE_NO":"３號","E_COORD97":166736.41,"N_COORD97":2546880.46,"ADDRESS":"國安街１５５巷２０弄３號","OBJECTID":99097},"geometry":{"x":166736.41000000108,"y":2546880.4600000028}},{"attributes":{"ID":99098,"DIS_CODE":0,"TOWNNAME":"歸仁區","LI":"八甲里","LIN":"11鄰","STREET":"大明二街","SECT":" ","MAREA":" ","LANE":" ","ALLEY":" ","HOUSE_NO":"９４號","E_COORD97":177757.82000000001,"N_COORD97":2541989.6099999999,"ADDRESS":"大明二街９４號","OBJECTID":99098},"geometry":{"x":177757.82000000123,"y":2541989.6100000013}},{"attributes":{"ID":99099,"DIS_CODE":0,"TOWNNAME":"東區","LI":"崇德里","LIN":"1鄰","STREET":"崇善路","SECT":" ","MAREA":" ","LANE":" ","ALLEY":" ","HOUSE_NO":"２５６號","E_COORD97":170799.82999999999,"N_COORD97":2541964.1499999999,"ADDRESS":"崇善路２５６號","OBJECTID":99099},"geometry":{"x":170799.83000000194,"y":2541964.1500000004}},{"attributes":{"ID":99100,"DIS_CODE":0,"TOWNNAME":"東區","LI":"崇德里","LIN":"1鄰","STREET":"崇善路","SECT":" ","MAREA":" ","LANE":" ","ALLEY":" ","HOUSE_NO":"２６０號","E_COORD97":170805.53,"N_COORD97":2541959.25,"ADDRESS":"崇善路２６０號","OBJECTID":99100},"geometry":{"x":170805.53000000119,"y":2541959.2500000019}},{"attributes":{"ID":99101,"DIS_CODE":0,"TOWNNAME":"東區","LI":"崇德里","LIN":"1鄰","STREET":"崇善路","SECT":" ","MAREA":" ","LANE":" ","ALLEY":" ","HOUSE_NO":"２６２號","E_COORD97":170809.75,"N_COORD97":2541956.9700000002,"ADDRESS":"崇善路２６２號","OBJECTID":99101},"geometry":{"x":170809.75,"y":2541956.9700000044}},{"attributes":{"ID":99102,"DIS_CODE":0,"TOWNNAME":"白河區","LI":"玉豐里","LIN":"10鄰","STREET":" ","SECT":" ","MAREA":"海豐厝","LANE":" ","ALLEY":" ","HOUSE_NO":"８７之８６號","E_COORD97":190289.76999999999,"N_COORD97":2586297.54,"ADDRESS":"海豐厝８７之８６號","OBJECTID":99102},"geometry":{"x":190289.77000000048,"y":2586297.5400000028}},{"attributes":{"ID":99103,"DIS_CODE":0,"TOWNNAME":"善化區","LI":"胡家里","LIN":"1鄰","STREET":" ","SECT":" ","MAREA":"胡厝寮","LANE":" ","ALLEY":" ","HOUSE_NO":"１號","E_COORD97":175486.32999999999,"N_COORD97":2560824.25,"ADDRESS":"胡厝寮１號","OBJECTID":99103},"geometry":{"x":175486.33000000007,"y":2560824.25}},{"attributes":{"ID":99104,"DIS_CODE":0,"TOWNNAME":"白河區","LI":"玉豐里","LIN":"10鄰","STREET":" ","SECT":" ","MAREA":"海豐厝","LANE":" ","ALLEY":" ","HOUSE_NO":"８７之８７號","E_COORD97":190286.14999999999,"N_COORD97":2586290.1099999999,"ADDRESS":"海豐厝８７之８７號","OBJECTID":99104},"geometry":{"x":190286.1500000013,"y":2586290.1099999994}},{"attributes":{"ID":99105,"DIS_CODE":0,"TOWNNAME":"七股區","LI":"龍山里","LIN":"4鄰","STREET":" ","SECT":" ","MAREA":"龍山","LANE":" ","ALLEY":" ","HOUSE_NO":"３３號","E_COORD97":159523.38,"N_COORD97":2559919.4199999999,"ADDRESS":"龍山３３號","OBJECTID":99105},"geometry":{"x":159523.38000000082,"y":2559919.4200000018}},{"attributes":{"ID":99106,"DIS_CODE":0,"TOWNNAME":"白河區","LI":"玉豐里","LIN":"10鄰","STREET":" ","SECT":" ","MAREA":"海豐厝","LANE":" ","ALLEY":" ","HOUSE_NO":"８７之８８號","E_COORD97":190283.22,"N_COORD97":2586285.52,"ADDRESS":"海豐厝８７之８８號","OBJECTID":99106},"geometry":{"x":190283.22000000067,"y":2586285.5200000014}},{"attributes":{"ID":99107,"DIS_CODE":0,"TOWNNAME":"白河區","LI":"玉豐里","LIN":"10鄰","STREET":" ","SECT":" ","MAREA":"海豐厝","LANE":" ","ALLEY":" ","HOUSE_NO":"８７之８９號","E_COORD97":190283.23000000001,"N_COORD97":2586281.2400000002,"ADDRESS":"海豐厝８７之８９號","OBJECTID":99107},"geometry":{"x":190283.23000000045,"y":2586281.2400000021}},{"attributes":{"ID":99108,"DIS_CODE":0,"TOWNNAME":"安南區","LI":"幸福里","LIN":"21鄰","STREET":"國安街","SECT":" ","MAREA":" ","LANE":"１５５巷","ALLEY":"２０弄","HOUSE_NO":"７號","E_COORD97":166728.34,"N_COORD97":2546879.6499999999,"ADDRESS":"國安街１５５巷２０弄７號","OBJECTID":99108},"geometry":{"x":166728.34000000078,"y":2546879.6500000022}},{"attributes":{"ID":99109,"DIS_CODE":0,"TOWNNAME":"安南區","LI":"幸福里","LIN":"21鄰","STREET":"國安街","SECT":" ","MAREA":" ","LANE":"１５５巷","ALLEY":"２０弄","HOUSE_NO":"９號","E_COORD97":166724.62,"N_COORD97":2546879.1899999999,"ADDRESS":"國安街１５５巷２０弄９號","OBJECTID":99109},"geometry":{"x":166724.62000000104,"y":2546879.1899999995}},{"attributes":{"ID":99110,"DIS_CODE":0,"TOWNNAME":"安南區","LI":"幸福里","LIN":"21鄰","STREET":"國安街","SECT":" ","MAREA":" ","LANE":"１５５巷","ALLEY":"４０弄","HOUSE_NO":"１０號","E_COORD97":166732.98999999999,"N_COORD97":2546854.6600000001,"ADDRESS":"國安街１５５巷４０弄１０號","OBJECTID":99110},"geometry":{"x":166732.99000000022,"y":2546854.660000002}},{"attributes":{"ID":99111,"DIS_CODE":0,"TOWNNAME":"安南區","LI":"幸福里","LIN":"21鄰","STREET":"國安街","SECT":" ","MAREA":" ","LANE":"１５５巷","ALLEY":"４０弄","HOUSE_NO":"１４號","E_COORD97":166725.67999999999,"N_COORD97":2546853.9700000002,"ADDRESS":"國安街１５５巷４０弄１４號","OBJECTID":99111},"geometry":{"x":166725.68000000063,"y":2546853.9700000025}},{"attributes":{"ID":99112,"DIS_CODE":0,"TOWNNAME":"安南區","LI":"幸福里","LIN":"21鄰","STREET":"國安街","SECT":" ","MAREA":" ","LANE":"１５５巷","ALLEY":"４０弄","HOUSE_NO":"１８號","E_COORD97":166719.76999999999,"N_COORD97":2546851.6099999999,"ADDRESS":"國安街１５５巷４０弄１８號","OBJECTID":99112},"geometry":{"x":166719.77000000048,"y":2546851.6100000013}},{"attributes":{"ID":99113,"DIS_CODE":0,"TOWNNAME":"安南區","LI":"幸福里","LIN":"21鄰","STREET":"國安街","SECT":" ","MAREA":" ","LANE":"１５５巷","ALLEY":"４０弄","HOUSE_NO":"２０號","E_COORD97":166716.12,"N_COORD97":2546851.1000000001,"ADDRESS":"國安街１５５巷４０弄２０號","OBJECTID":99113},"geometry":{"x":166716.12000000104,"y":2546851.1000000015}},{"attributes":{"ID":99114,"DIS_CODE":0,"TOWNNAME":"安南區","LI":"幸福里","LIN":"21鄰","STREET":"國安街","SECT":" ","MAREA":" ","LANE":"１５５巷","ALLEY":"４０弄","HOUSE_NO":"２２號","E_COORD97":166712.64000000001,"N_COORD97":2546850.5899999999,"ADDRESS":"國安街１５５巷４０弄２２號","OBJECTID":99114},"geometry":{"x":166712.63999999966,"y":2546850.5899999999}},{"attributes":{"ID":99115,"DIS_CODE":0,"TOWNNAME":"安南區","LI":"幸福里","LIN":"21鄰","STREET":"國安街","SECT":" ","MAREA":" ","LANE":"１５５巷","ALLEY":"４０弄","HOUSE_NO":"２８號","E_COORD97":166701.85999999999,"N_COORD97":2546849.1499999999,"ADDRESS":"國安街１５５巷４０弄２８號","OBJECTID":99115},"geometry":{"x":166701.86000000034,"y":2546849.1500000022}},{"attributes":{"ID":99116,"DIS_CODE":0,"TOWNNAME":"安南區","LI":"幸福里","LIN":"21鄰","STREET":"國安街","SECT":" ","MAREA":" ","LANE":"１５５巷","ALLEY":"４０弄","HOUSE_NO":"３４號","E_COORD97":166691.14000000001,"N_COORD97":2546847.79,"ADDRESS":"國安街１５５巷４０弄３４號","OBJECTID":99116},"geometry":{"x":166691.13999999966,"y":2546847.7899999991}},{"attributes":{"ID":99117,"DIS_CODE":0,"TOWNNAME":"安南區","LI":"幸福里","LIN":"21鄰","STREET":"國安街","SECT":" ","MAREA":" ","LANE":"１５５巷","ALLEY":"４０弄","HOUSE_NO":"４號","E_COORD97":166744.39999999999,"N_COORD97":2546854.8900000001,"ADDRESS":"國安街１５５巷４０弄４號","OBJECTID":99117},"geometry":{"x":166744.40000000037,"y":2546854.8900000025}},{"attributes":{"ID":99118,"DIS_CODE":0,"TOWNNAME":"安南區","LI":"幸福里","LIN":"21鄰","STREET":"國安街","SECT":" ","MAREA":" ","LANE":"１５５巷","ALLEY":"４０弄","HOUSE_NO":"６號","E_COORD97":166740.29000000001,"N_COORD97":2546855,"ADDRESS":"國安街１５５巷４０弄６號","OBJECTID":99118},"geometry":{"x":166740.29000000097,"y":2546854.9999999981}},{"attributes":{"ID":99119,"DIS_CODE":0,"TOWNNAME":"安南區","LI":"幸福里","LIN":"21鄰","STREET":"國安街","SECT":" ","MAREA":" ","LANE":"１５５巷","ALLEY":"４０弄","HOUSE_NO":"８號","E_COORD97":166736.64000000001,"N_COORD97":2546855,"ADDRESS":"國安街１５５巷４０弄８號","OBJECTID":99119},"geometry":{"x":166736.63999999966,"y":2546854.9999999981}},{"attributes":{"ID":99120,"DIS_CODE":0,"TOWNNAME":"安南區","LI":"梅花里","LIN":"21鄰","STREET":"同安路","SECT":" ","MAREA":" ","LANE":"２６２巷","ALLEY":"１７弄","HOUSE_NO":"５號","E_COORD97":167226.82999999999,"N_COORD97":2549133.0899999999,"ADDRESS":"同安路２６２巷１７弄５號","OBJECTID":99120},"geometry":{"x":167226.83000000101,"y":2549133.0900000017}},{"attributes":{"ID":99121,"DIS_CODE":0,"TOWNNAME":"安南區","LI":"梅花里","LIN":"21鄰","STREET":"同安路","SECT":" ","MAREA":" ","LANE":"２６２巷","ALLEY":"１７弄","HOUSE_NO":"７號","E_COORD97":167228.98000000001,"N_COORD97":2549137.6000000001,"ADDRESS":"同安路２６２巷１７弄７號","OBJECTID":99121},"geometry":{"x":167228.98000000231,"y":2549137.5999999996}},{"attributes":{"ID":99122,"DIS_CODE":0,"TOWNNAME":"安南區","LI":"梅花里","LIN":"21鄰","STREET":"同安路","SECT":" ","MAREA":" ","LANE":"２６２巷","ALLEY":"１７弄","HOUSE_NO":"９號","E_COORD97":167231.72,"N_COORD97":2549141.1200000001,"ADDRESS":"同安路２６２巷１７弄９號","OBJECTID":99122},"geometry":{"x":167231.7200000016,"y":2549141.1200000029}},{"attributes":{"ID":99123,"DIS_CODE":0,"TOWNNAME":"安南區","LI":"幸福里","LIN":"21鄰","STREET":"國安街","SECT":" ","MAREA":" ","LANE":"１５５巷","ALLEY":"４０弄","HOUSE_NO":"３０號","E_COORD97":166698.29000000001,"N_COORD97":2546848.73,"ADDRESS":"國安街１５５巷４０弄３０號","OBJECTID":99123},"geometry":{"x":166698.29000000097,"y":2546848.7300000023}},{"attributes":{"ID":99124,"DIS_CODE":0,"TOWNNAME":"安南區","LI":"梅花里","LIN":"21鄰","STREET":"同安路","SECT":" ","MAREA":" ","LANE":"２６２巷","ALLEY":"１７弄","HOUSE_NO":"５１號","E_COORD97":167239.09,"N_COORD97":2549196.8700000001,"ADDRESS":"同安路２６２巷１７弄５１號","OBJECTID":99124},"geometry":{"x":167239.08999999985,"y":2549196.8700000029}},{"attributes":{"ID":99125,"DIS_CODE":0,"TOWNNAME":"安南區","LI":"梅花里","LIN":"21鄰","STREET":"同安路","SECT":" ","MAREA":" ","LANE":"２６２巷","ALLEY":"１７弄","HOUSE_NO":"５３號","E_COORD97":167242.48999999999,"N_COORD97":2549194.3199999998,"ADDRESS":"同安路２６２巷１７弄５３號","OBJECTID":99125},"geometry":{"x":167242.49000000115,"y":2549194.3200000022}},{"attributes":{"ID":99126,"DIS_CODE":0,"TOWNNAME":"安南區","LI":"梅花里","LIN":"21鄰","STREET":"同安路","SECT":" ","MAREA":" ","LANE":"２６２巷","ALLEY":"１７弄","HOUSE_NO":"５５號","E_COORD97":167245.38,"N_COORD97":2549191.5499999998,"ADDRESS":"同安路２６２巷１７弄５５號","OBJECTID":99126},"geometry":{"x":167245.37999999989,"y":2549191.5500000045}},{"attributes":{"ID":99127,"DIS_CODE":0,"TOWNNAME":"安南區","LI":"梅花里","LIN":"21鄰","STREET":"同安路","SECT":" ","MAREA":" ","LANE":"２６２巷","ALLEY":"１７弄","HOUSE_NO":"５７號","E_COORD97":167249.42999999999,"N_COORD97":2549189.6400000001,"ADDRESS":"同安路２６２巷１７弄５７號","OBJECTID":99127},"geometry":{"x":167249.43000000063,"y":2549189.6400000006}},{"attributes":{"ID":99128,"DIS_CODE":0,"TOWNNAME":"東區","LI":"崇德里","LIN":"1鄰","STREET":"崇善路","SECT":" ","MAREA":" ","LANE":" ","ALLEY":" ","HOUSE_NO":"２７２號","E_COORD97":170824.42999999999,"N_COORD97":2541944.0499999998,"ADDRESS":"崇善路２７２號","OBJECTID":99128},"geometry":{"x":170824.43000000063,"y":2541944.0500000026}},{"attributes":{"ID":99129,"DIS_CODE":0,"TOWNNAME":"東區","LI":"崇德里","LIN":"1鄰","STREET":"崇善路","SECT":" ","MAREA":" ","LANE":" ","ALLEY":" ","HOUSE_NO":"２７４號","E_COORD97":170826.51999999999,"N_COORD97":2541940.6200000001,"ADDRESS":"崇善路２７４號","OBJECTID":99129},"geometry":{"x":170826.51999999955,"y":2541940.6200000029}},{"attributes":{"ID":99130,"DIS_CODE":0,"TOWNNAME":"東區","LI":"崇德里","LIN":"1鄰","STREET":"崇善路","SECT":" ","MAREA":" ","LANE":" ","ALLEY":" ","HOUSE_NO":"２７６號","E_COORD97":170828.73000000001,"N_COORD97":2541936.5800000001,"ADDRESS":"崇善路２７６號","OBJECTID":99130},"geometry":{"x":170828.73000000138,"y":2541936.5800000019}},{"attributes":{"ID":99131,"DIS_CODE":0,"TOWNNAME":"東區","LI":"崇德里","LIN":"1鄰","STREET":"崇善路","SECT":" ","MAREA":" ","LANE":" ","ALLEY":" ","HOUSE_NO":"２８４號","E_COORD97":170847.57000000001,"N_COORD97":2541922.6699999999,"ADDRESS":"崇善路２８４號","OBJECTID":99131},"geometry":{"x":170847.57000000216,"y":2541922.6700000018}},{"attributes":{"ID":99132,"DIS_CODE":0,"TOWNNAME":"白河區","LI":"玉豐里","LIN":"10鄰","STREET":" ","SECT":" ","MAREA":"海豐厝","LANE":" ","ALLEY":" ","HOUSE_NO":"８７之９０號","E_COORD97":190283.16,"N_COORD97":2586277.1699999999,"ADDRESS":"海豐厝８７之９０號","OBJECTID":99132},"geometry":{"x":190283.16000000015,"y":2586277.1700000037}},{"attributes":{"ID":99133,"DIS_CODE":0,"TOWNNAME":"歸仁區","LI":"六甲里","LIN":"36鄰","STREET":"六甲路","SECT":" ","MAREA":" ","LANE":" ","ALLEY":" ","HOUSE_NO":"３５４號","E_COORD97":175558.76999999999,"N_COORD97":2539252.25,"ADDRESS":"六甲路３５４號","OBJECTID":99133},"geometry":{"x":175558.77000000048,"y":2539252.2500000037}},{"attributes":{"ID":99134,"DIS_CODE":0,"TOWNNAME":"新市區","LI":"社內里","LIN":"1鄰","STREET":" ","SECT":" ","MAREA":"社內","LANE":" ","ALLEY":" ","HOUSE_NO":"１２之６號","E_COORD97":176690.78,"N_COORD97":2552995.8900000001,"ADDRESS":"社內１２之６號","OBJECTID":99134},"geometry":{"x":176690.78000000026,"y":2552995.8900000006}},{"attributes":{"ID":99135,"DIS_CODE":0,"TOWNNAME":"安南區","LI":"梅花里","LIN":"21鄰","STREET":"同安路","SECT":" ","MAREA":" ","LANE":"２６２巷","ALLEY":"１７弄","HOUSE_NO":"５９號","E_COORD97":167253.04000000001,"N_COORD97":2549187.2999999998,"ADDRESS":"同安路２６２巷１７弄５９號","OBJECTID":99135},"geometry":{"x":167253.04000000004,"y":2549187.3000000026}},{"attributes":{"ID":99136,"DIS_CODE":0,"TOWNNAME":"安南區","LI":"梅花里","LIN":"21鄰","STREET":"同安路","SECT":" ","MAREA":" ","LANE":"２６２巷","ALLEY":"１７弄","HOUSE_NO":"６１號","E_COORD97":167259.20999999999,"N_COORD97":2549181.5600000001,"ADDRESS":"同安路２６２巷１７弄６１號","OBJECTID":99136},"geometry":{"x":167259.21000000183,"y":2549181.5600000024}},{"attributes":{"ID":99137,"DIS_CODE":0,"TOWNNAME":"安南區","LI":"梅花里","LIN":"21鄰","STREET":"同安路","SECT":" ","MAREA":" ","LANE":"２６２巷","ALLEY":"１７弄","HOUSE_NO":"６３號","E_COORD97":167261.54999999999,"N_COORD97":2549185.8100000001,"ADDRESS":"同安路２６２巷１７弄６３號","OBJECTID":99137},"geometry":{"x":167261.54999999981,"y":2549185.8100000005}},{"attributes":{"ID":99138,"DIS_CODE":0,"TOWNNAME":"安南區","LI":"梅花里","LIN":"21鄰","STREET":"同安路","SECT":" ","MAREA":" ","LANE":"２６２巷","ALLEY":"１７弄","HOUSE_NO":"６５號","E_COORD97":167267.07999999999,"N_COORD97":2549189.8500000001,"ADDRESS":"同安路２６２巷１７弄６５號","OBJECTID":99138},"geometry":{"x":167267.08000000101,"y":2549189.8500000015}},{"attributes":{"ID":99139,"DIS_CODE":0,"TOWNNAME":"官田區","LI":"隆田里","LIN":"21鄰","STREET":"中興路","SECT":" ","MAREA":" ","LANE":"１巷","ALLEY":"２弄","HOUSE_NO":"９號","E_COORD97":180445.12,"N_COORD97":2565520.6299999999,"ADDRESS":"中興路１巷２弄９號","OBJECTID":99139},"geometry":{"x":180445.12000000197,"y":2565520.6300000027}},{"attributes":{"ID":99140,"DIS_CODE":0,"TOWNNAME":"官田區","LI":"隆田里","LIN":"21鄰","STREET":"中興路","SECT":" ","MAREA":" ","LANE":"１巷","ALLEY":"３弄","HOUSE_NO":"１０號","E_COORD97":180463.17999999999,"N_COORD97":2565516.27,"ADDRESS":"中興路１巷３弄１０號","OBJECTID":99140},"geometry":{"x":180463.18000000063,"y":2565516.2699999996}},{"attributes":{"ID":99141,"DIS_CODE":0,"TOWNNAME":"官田區","LI":"隆田里","LIN":"21鄰","STREET":"中興路","SECT":" ","MAREA":" ","LANE":"１巷","ALLEY":"３弄","HOUSE_NO":"１１號","E_COORD97":180464.66,"N_COORD97":2565509.2200000002,"ADDRESS":"中興路１巷３弄１１號","OBJECTID":99141},"geometry":{"x":180464.66000000015,"y":2565509.2200000025}},{"attributes":{"ID":99142,"DIS_CODE":0,"TOWNNAME":"新市區","LI":"三舍里","LIN":"1鄰","STREET":" ","SECT":" ","MAREA":"三舍","LANE":" ","ALLEY":" ","HOUSE_NO":"２１之５０號","E_COORD97":177154.84,"N_COORD97":2554058.6899999999,"ADDRESS":"三舍２１之５０號","OBJECTID":99142},"geometry":{"x":177154.84000000078,"y":2554058.6900000013}},{"attributes":{"ID":99143,"DIS_CODE":0,"TOWNNAME":"新市區","LI":"永就里","LIN":"1鄰","STREET":" ","SECT":" ","MAREA":"永就","LANE":" ","ALLEY":" ","HOUSE_NO":"６之２３號","E_COORD97":178993.70999999999,"N_COORD97":2551200.4900000002,"ADDRESS":"永就６之２３號","OBJECTID":99143},"geometry":{"x":178993.71000000089,"y":2551200.4900000002}},{"attributes":{"ID":99144,"DIS_CODE":0,"TOWNNAME":"白河區","LI":"玉豐里","LIN":"10鄰","STREET":" ","SECT":" ","MAREA":"海豐厝","LANE":" ","ALLEY":" ","HOUSE_NO":"８７之９１號","E_COORD97":190284.23999999999,"N_COORD97":2586273.3300000001,"ADDRESS":"海豐厝８７之９１號","OBJECTID":99144},"geometry":{"x":190284.24000000022,"y":2586273.3300000019}},{"attributes":{"ID":99145,"DIS_CODE":0,"TOWNNAME":"白河區","LI":"玉豐里","LIN":"10鄰","STREET":" ","SECT":" ","MAREA":"海豐厝","LANE":" ","ALLEY":" ","HOUSE_NO":"８７之９２號","E_COORD97":190286.20000000001,"N_COORD97":2586265.75,"ADDRESS":"海豐厝８７之９２號","OBJECTID":99145},"geometry":{"x":190286.20000000019,"y":2586265.75}},{"attributes":{"ID":99146,"DIS_CODE":0,"TOWNNAME":"白河區","LI":"玉豐里","LIN":"10鄰","STREET":" ","SECT":" ","MAREA":"海豐厝","LANE":" ","ALLEY":" ","HOUSE_NO":"８７之９３號","E_COORD97":190289.14000000001,"N_COORD97":2586258.9399999999,"ADDRESS":"海豐厝８７之９３號","OBJECTID":99146},"geometry":{"x":190289.1400000006,"y":2586258.9400000013}},{"attributes":{"ID":99147,"DIS_CODE":0,"TOWNNAME":"白河區","LI":"玉豐里","LIN":"10鄰","STREET":" ","SECT":" ","MAREA":"海豐厝","LANE":" ","ALLEY":" ","HOUSE_NO":"８７之９４號","E_COORD97":190290.17000000001,"N_COORD97":2586243.3900000001,"ADDRESS":"海豐厝８７之９４號","OBJECTID":99147},"geometry":{"x":190290.17000000179,"y":2586243.3900000025}},{"attributes":{"ID":99148,"DIS_CODE":0,"TOWNNAME":"白河區","LI":"玉豐里","LIN":"10鄰","STREET":" ","SECT":" ","MAREA":"海豐厝","LANE":" ","ALLEY":" ","HOUSE_NO":"８８之２號","E_COORD97":190326.88,"N_COORD97":2586355.3500000001,"ADDRESS":"海豐厝８８之２號","OBJECTID":99148},"geometry":{"x":190326.88000000082,"y":2586355.3500000015}},{"attributes":{"ID":99149,"DIS_CODE":0,"TOWNNAME":"白河區","LI":"玉豐里","LIN":"10鄰","STREET":" ","SECT":" ","MAREA":"海豐厝","LANE":" ","ALLEY":" ","HOUSE_NO":"８８號","E_COORD97":190288.95999999999,"N_COORD97":2586348.6899999999,"ADDRESS":"海豐厝８８號","OBJECTID":99149},"geometry":{"x":190288.96000000089,"y":2586348.6900000013}},{"attributes":{"ID":99150,"DIS_CODE":0,"TOWNNAME":"白河區","LI":"玉豐里","LIN":"10鄰","STREET":" ","SECT":" ","MAREA":"海豐厝","LANE":" ","ALLEY":" ","HOUSE_NO":"９０號","E_COORD97":190217.75,"N_COORD97":2586352.4500000002,"ADDRESS":"海豐厝９０號","OBJECTID":99150},"geometry":{"x":190217.75,"y":2586352.4499999974}},{"attributes":{"ID":99151,"DIS_CODE":0,"TOWNNAME":"白河區","LI":"玉豐里","LIN":"10鄰","STREET":" ","SECT":" ","MAREA":"海豐厝","LANE":" ","ALLEY":" ","HOUSE_NO":"９２之１１號","E_COORD97":190119.48999999999,"N_COORD97":2586252.6099999999,"ADDRESS":"海豐厝９２之１１號","OBJECTID":99151},"geometry":{"x":190119.49000000115,"y":2586252.6099999994}},{"attributes":{"ID":99152,"DIS_CODE":0,"TOWNNAME":"白河區","LI":"玉豐里","LIN":"10鄰","STREET":" ","SECT":" ","MAREA":"海豐厝","LANE":" ","ALLEY":" ","HOUSE_NO":"９２之１５號","E_COORD97":190119.73999999999,"N_COORD97":2586347.5699999998,"ADDRESS":"海豐厝９２之１５號","OBJECTID":99152},"geometry":{"x":190119.74000000022,"y":2586347.5700000022}},{"attributes":{"ID":99153,"DIS_CODE":0,"TOWNNAME":"白河區","LI":"玉豐里","LIN":"10鄰","STREET":" ","SECT":" ","MAREA":"海豐厝","LANE":" ","ALLEY":" ","HOUSE_NO":"９２之２５號","E_COORD97":190053.88,"N_COORD97":2586280.6600000001,"ADDRESS":"海豐厝９２之２５號","OBJECTID":99153},"geometry":{"x":190053.88000000082,"y":2586280.6600000001}},{"attributes":{"ID":99154,"DIS_CODE":0,"TOWNNAME":"白河區","LI":"玉豐里","LIN":"10鄰","STREET":" ","SECT":" ","MAREA":"海豐厝","LANE":" ","ALLEY":" ","HOUSE_NO":"９２之２８號","E_COORD97":190206.19,"N_COORD97":2586263.6400000001,"ADDRESS":"海豐厝９２之２８號","OBJECTID":99154},"geometry":{"x":190206.19000000134,"y":2586263.6400000006}},{"attributes":{"ID":99155,"DIS_CODE":0,"TOWNNAME":"白河區","LI":"玉豐里","LIN":"10鄰","STREET":" ","SECT":" ","MAREA":"海豐厝","LANE":" ","ALLEY":" ","HOUSE_NO":"９２之２號","E_COORD97":190165.47,"N_COORD97":2586238.9399999999,"ADDRESS":"海豐厝９２之２號","OBJECTID":99155},"geometry":{"x":190165.46999999974,"y":2586238.9400000013}},{"attributes":{"ID":99156,"DIS_CODE":0,"TOWNNAME":"白河區","LI":"玉豐里","LIN":"10鄰","STREET":" ","SECT":" ","MAREA":"海豐厝","LANE":" ","ALLEY":" ","HOUSE_NO":"９２之３號","E_COORD97":190145.19,"N_COORD97":2586269.8700000001,"ADDRESS":"海豐厝９２之３號","OBJECTID":99156},"geometry":{"x":190145.19000000134,"y":2586269.870000001}},{"attributes":{"ID":99157,"DIS_CODE":0,"TOWNNAME":"白河區","LI":"玉豐里","LIN":"10鄰","STREET":" ","SECT":" ","MAREA":"海豐厝","LANE":" ","ALLEY":" ","HOUSE_NO":"９２之５１號","E_COORD97":190121.23000000001,"N_COORD97":2586326.4300000002,"ADDRESS":"海豐厝９２之５１號","OBJECTID":99157},"geometry":{"x":190121.23000000138,"y":2586326.4300000034}},{"attributes":{"ID":99158,"DIS_CODE":0,"TOWNNAME":"白河區","LI":"玉豐里","LIN":"10鄰","STREET":" ","SECT":" ","MAREA":"海豐厝","LANE":" ","ALLEY":" ","HOUSE_NO":"９２之５２號","E_COORD97":190121.25,"N_COORD97":2586321.73,"ADDRESS":"海豐厝９２之５２號","OBJECTID":99158},"geometry":{"x":190121.25,"y":2586321.7300000042}},{"attributes":{"ID":99159,"DIS_CODE":0,"TOWNNAME":"白河區","LI":"玉豐里","LIN":"10鄰","STREET":" ","SECT":" ","MAREA":"海豐厝","LANE":" ","ALLEY":" ","HOUSE_NO":"９２之５３號","E_COORD97":190121.51000000001,"N_COORD97":2586317.3900000001,"ADDRESS":"海豐厝９２之５３號","OBJECTID":99159},"geometry":{"x":190121.50999999885,"y":2586317.3900000043}},{"attributes":{"ID":99160,"DIS_CODE":0,"TOWNNAME":"白河區","LI":"玉豐里","LIN":"10鄰","STREET":" ","SECT":" ","MAREA":"海豐厝","LANE":" ","ALLEY":" ","HOUSE_NO":"９２之５４號","E_COORD97":190121.73999999999,"N_COORD97":2586312.6000000001,"ADDRESS":"海豐厝９２之５４號","OBJECTID":99160},"geometry":{"x":190121.74000000022,"y":2586312.6000000015}},{"attributes":{"ID":99161,"DIS_CODE":0,"TOWNNAME":"白河區","LI":"玉豐里","LIN":"10鄰","STREET":" ","SECT":" ","MAREA":"海豐厝","LANE":" ","ALLEY":" ","HOUSE_NO":"９２之５５號","E_COORD97":190122.16,"N_COORD97":2586308.0899999999,"ADDRESS":"海豐厝９２之５５號","OBJECTID":99161},"geometry":{"x":190122.16000000015,"y":2586308.089999998}},{"attributes":{"ID":99162,"DIS_CODE":0,"TOWNNAME":"白河區","LI":"玉豐里","LIN":"10鄰","STREET":" ","SECT":" ","MAREA":"海豐厝","LANE":" ","ALLEY":" ","HOUSE_NO":"９２之５６號","E_COORD97":190122.06,"N_COORD97":2586303.5299999998,"ADDRESS":"海豐厝９２之５６號","OBJECTID":99162},"geometry":{"x":190122.05999999959,"y":2586303.5299999993}},{"attributes":{"ID":99163,"DIS_CODE":0,"TOWNNAME":"官田區","LI":"隆田里","LIN":"21鄰","STREET":"中興路","SECT":" ","MAREA":" ","LANE":"１巷","ALLEY":"３弄","HOUSE_NO":"１號","E_COORD97":180455.01000000001,"N_COORD97":2565575.1600000001,"ADDRESS":"中興路１巷３弄１號","OBJECTID":99163},"geometry":{"x":180455.00999999978,"y":2565575.1600000001}},{"attributes":{"ID":99164,"DIS_CODE":0,"TOWNNAME":"官田區","LI":"隆田里","LIN":"21鄰","STREET":"中興路","SECT":" ","MAREA":" ","LANE":"１巷","ALLEY":"３弄","HOUSE_NO":"２號","E_COORD97":180455.87,"N_COORD97":2565568.1899999999,"ADDRESS":"中興路１巷３弄２號","OBJECTID":99164},"geometry":{"x":180455.87000000104,"y":2565568.1900000032}},{"attributes":{"ID":99165,"DIS_CODE":0,"TOWNNAME":"官田區","LI":"隆田里","LIN":"21鄰","STREET":"中興路","SECT":" ","MAREA":" ","LANE":"１巷","ALLEY":"３弄","HOUSE_NO":"３號","E_COORD97":180457.17000000001,"N_COORD97":2565561.5899999999,"ADDRESS":"中興路１巷３弄３號","OBJECTID":99165},"geometry":{"x":180457.17000000086,"y":2565561.5899999999}},{"attributes":{"ID":99166,"DIS_CODE":0,"TOWNNAME":"官田區","LI":"隆田里","LIN":"21鄰","STREET":"中興路","SECT":" ","MAREA":" ","LANE":"１巷","ALLEY":"４弄","HOUSE_NO":"１號","E_COORD97":180472.34,"N_COORD97":2565580.71,"ADDRESS":"中興路１巷４弄１號","OBJECTID":99166},"geometry":{"x":180472.34000000078,"y":2565580.7100000028}},{"attributes":{"ID":99167,"DIS_CODE":0,"TOWNNAME":"官田區","LI":"隆田里","LIN":"21鄰","STREET":"中興路","SECT":" ","MAREA":" ","LANE":"１巷","ALLEY":"４弄","HOUSE_NO":"２號","E_COORD97":180473.38,"N_COORD97":2565574.0800000001,"ADDRESS":"中興路１巷４弄２號","OBJECTID":99167},"geometry":{"x":180473.37999999989,"y":2565574.0800000019}},{"attributes":{"ID":99168,"DIS_CODE":0,"TOWNNAME":"官田區","LI":"隆田里","LIN":"21鄰","STREET":"中興路","SECT":" ","MAREA":" ","LANE":"１巷","ALLEY":"４弄","HOUSE_NO":"３號","E_COORD97":180474.29999999999,"N_COORD97":2565567.3999999999,"ADDRESS":"中興路１巷４弄３號","OBJECTID":99168},"geometry":{"x":180474.30000000075,"y":2565567.4000000004}},{"attributes":{"ID":99169,"DIS_CODE":0,"TOWNNAME":"官田區","LI":"隆田里","LIN":"21鄰","STREET":"中興路","SECT":" ","MAREA":" ","LANE":"１巷","ALLEY":"４弄","HOUSE_NO":"４號","E_COORD97":180475.63,"N_COORD97":2565560.7799999998,"ADDRESS":"中興路１巷４弄４號","OBJECTID":99169},"geometry":{"x":180475.63000000082,"y":2565560.7800000031}},{"attributes":{"ID":99170,"DIS_CODE":0,"TOWNNAME":"官田區","LI":"隆田里","LIN":"21鄰","STREET":"中興路","SECT":" ","MAREA":" ","LANE":"１巷","ALLEY":"４弄","HOUSE_NO":"７號","E_COORD97":180478.5,"N_COORD97":2565541.1200000001,"ADDRESS":"中興路１巷４弄７號","OBJECTID":99170},"geometry":{"x":180478.50000000093,"y":2565541.1200000029}},{"attributes":{"ID":99171,"DIS_CODE":0,"TOWNNAME":"官田區","LI":"隆田里","LIN":"21鄰","STREET":"中興路","SECT":" ","MAREA":" ","LANE":"１巷","ALLEY":"４弄","HOUSE_NO":"８號","E_COORD97":180479.56,"N_COORD97":2565534.5499999998,"ADDRESS":"中興路１巷４弄８號","OBJECTID":99171},"geometry":{"x":180479.56000000052,"y":2565534.5500000026}},{"attributes":{"ID":99172,"DIS_CODE":0,"TOWNNAME":"官田區","LI":"隆田里","LIN":"21鄰","STREET":"中興路","SECT":" ","MAREA":" ","LANE":"１巷","ALLEY":"４弄","HOUSE_NO":"９號","E_COORD97":180480.64000000001,"N_COORD97":2565527.71,"ADDRESS":"中興路１巷４弄９號","OBJECTID":99172},"geometry":{"x":180480.6400000006,"y":2565527.7100000009}},{"attributes":{"ID":99173,"DIS_CODE":0,"TOWNNAME":"仁德區","LI":"仁義里","LIN":"21鄰","STREET":"中山路","SECT":" ","MAREA":" ","LANE":"３９６巷","ALLEY":"２弄","HOUSE_NO":"１號","E_COORD97":173815.66,"N_COORD97":2541319.4900000002,"ADDRESS":"中山路３９６巷２弄１號","OBJECTID":99173},"geometry":{"x":173815.66000000108,"y":2541319.4900000021}},{"attributes":{"ID":99174,"DIS_CODE":0,"TOWNNAME":"東區","LI":"小東里","LIN":"21鄰","STREET":"光明街","SECT":" ","MAREA":" ","LANE":"１７５巷","ALLEY":"４１弄","HOUSE_NO":"１０號","E_COORD97":171029.12,"N_COORD97":2544195.4300000002,"ADDRESS":"光明街１７５巷４１弄１０號","OBJECTID":99174},"geometry":{"x":171029.12000000104,"y":2544195.4300000016}},{"attributes":{"ID":99175,"DIS_CODE":0,"TOWNNAME":"東區","LI":"小東里","LIN":"21鄰","STREET":"光明街","SECT":" ","MAREA":" ","LANE":"１７５巷","ALLEY":"４１弄","HOUSE_NO":"１１號","E_COORD97":171003.56,"N_COORD97":2544199.8199999998,"ADDRESS":"光明街１７５巷４１弄１１號","OBJECTID":99175},"geometry":{"x":171003.56000000052,"y":2544199.8200000022}},{"attributes":{"ID":99176,"DIS_CODE":0,"TOWNNAME":"東區","LI":"小東里","LIN":"21鄰","STREET":"光明街","SECT":" ","MAREA":" ","LANE":"１７５巷","ALLEY":"４１弄","HOUSE_NO":"１２號","E_COORD97":171028.64999999999,"N_COORD97":2544202.3199999998,"ADDRESS":"光明街１７５巷４１弄１２號","OBJECTID":99176},"geometry":{"x":171028.6500000013,"y":2544202.320000004}},{"attributes":{"ID":99177,"DIS_CODE":0,"TOWNNAME":"東區","LI":"小東里","LIN":"21鄰","STREET":"光明街","SECT":" ","MAREA":" ","LANE":"１７５巷","ALLEY":"４１弄","HOUSE_NO":"１３號","E_COORD97":171003.39999999999,"N_COORD97":2544205.9199999999,"ADDRESS":"光明街１７５巷４１弄１３號","OBJECTID":99177},"geometry":{"x":171003.4000000013,"y":2544205.9200000018}},{"attributes":{"ID":99178,"DIS_CODE":0,"TOWNNAME":"東區","LI":"小東里","LIN":"21鄰","STREET":"光明街","SECT":" ","MAREA":" ","LANE":"１７５巷","ALLEY":"４１弄","HOUSE_NO":"１４號","E_COORD97":171028.79999999999,"N_COORD97":2544208.1200000001,"ADDRESS":"光明街１７５巷４１弄１４號","OBJECTID":99178},"geometry":{"x":171028.80000000075,"y":2544208.1200000029}},{"attributes":{"ID":99179,"DIS_CODE":0,"TOWNNAME":"東區","LI":"小東里","LIN":"21鄰","STREET":"光明街","SECT":" ","MAREA":" ","LANE":"１７５巷","ALLEY":"４１弄","HOUSE_NO":"１５號","E_COORD97":171005.91,"N_COORD97":2544212.8100000001,"ADDRESS":"光明街１７５巷４１弄１５號","OBJECTID":99179},"geometry":{"x":171005.91000000015,"y":2544212.8100000042}},{"attributes":{"ID":99180,"DIS_CODE":0,"TOWNNAME":"東區","LI":"小東里","LIN":"21鄰","STREET":"光明街","SECT":" ","MAREA":" ","LANE":"１７５巷","ALLEY":"４１弄","HOUSE_NO":"１６號","E_COORD97":171029.26999999999,"N_COORD97":2544213.6000000001,"ADDRESS":"光明街１７５巷４１弄１６號","OBJECTID":99180},"geometry":{"x":171029.26999999955,"y":2544213.6000000015}},{"attributes":{"ID":99181,"DIS_CODE":0,"TOWNNAME":"東區","LI":"小東里","LIN":"21鄰","STREET":"光明街","SECT":" ","MAREA":" ","LANE":"１７５巷","ALLEY":"４１弄","HOUSE_NO":"１號","E_COORD97":171012.17999999999,"N_COORD97":2544169.9100000001,"ADDRESS":"光明街１７５巷４１弄１號","OBJECTID":99181},"geometry":{"x":171012.18000000156,"y":2544169.9100000001}},{"attributes":{"ID":99182,"DIS_CODE":0,"TOWNNAME":"東區","LI":"小東里","LIN":"21鄰","STREET":"光明街","SECT":" ","MAREA":" ","LANE":"１７５巷","ALLEY":"４１弄","HOUSE_NO":"２號","E_COORD97":171030.06,"N_COORD97":2544170.3799999999,"ADDRESS":"光明街１７５巷４１弄２號","OBJECTID":99182},"geometry":{"x":171030.06000000052,"y":2544170.3800000008}},{"attributes":{"ID":99183,"DIS_CODE":0,"TOWNNAME":"東區","LI":"小東里","LIN":"21鄰","STREET":"光明街","SECT":" ","MAREA":" ","LANE":"１７５巷","ALLEY":"４１弄","HOUSE_NO":"３號","E_COORD97":171012.03,"N_COORD97":2544175.5499999998,"ADDRESS":"光明街１７５巷４１弄３號","OBJECTID":99183},"geometry":{"x":171012.02999999933,"y":2544175.5500000026}},{"attributes":{"ID":99184,"DIS_CODE":0,"TOWNNAME":"東區","LI":"小東里","LIN":"21鄰","STREET":"光明街","SECT":" ","MAREA":" ","LANE":"１７５巷","ALLEY":"４１弄","HOUSE_NO":"４號","E_COORD97":171029.73999999999,"N_COORD97":2544176.7999999998,"ADDRESS":"光明街１７５巷４１弄４號","OBJECTID":99184},"geometry":{"x":171029.74000000115,"y":2544176.8000000026}},{"attributes":{"ID":99185,"DIS_CODE":0,"TOWNNAME":"東區","LI":"小東里","LIN":"21鄰","STREET":"光明街","SECT":" ","MAREA":" ","LANE":"１７５巷","ALLEY":"４１弄","HOUSE_NO":"５號","E_COORD97":171011.56,"N_COORD97":2544181.6499999999,"ADDRESS":"光明街１７５巷４１弄５號","OBJECTID":99185},"geometry":{"x":171011.56000000052,"y":2544181.6500000004}},{"attributes":{"ID":99186,"DIS_CODE":0,"TOWNNAME":"東區","LI":"小東里","LIN":"21鄰","STREET":"光明街","SECT":" ","MAREA":" ","LANE":"１７５巷","ALLEY":"４１弄","HOUSE_NO":"６號","E_COORD97":171029.26999999999,"N_COORD97":2544182.4399999999,"ADDRESS":"光明街１７５巷４１弄６號","OBJECTID":99186},"geometry":{"x":171029.26999999955,"y":2544182.4399999995}},{"attributes":{"ID":99187,"DIS_CODE":0,"TOWNNAME":"東區","LI":"小東里","LIN":"21鄰","STREET":"光明街","SECT":" ","MAREA":" ","LANE":"１７５巷","ALLEY":"４１弄","HOUSE_NO":"８號","E_COORD97":171030.06,"N_COORD97":2544189.3300000001,"ADDRESS":"光明街１７５巷４１弄８號","OBJECTID":99187},"geometry":{"x":171030.06000000052,"y":2544189.3300000019}},{"attributes":{"ID":99188,"DIS_CODE":0,"TOWNNAME":"東區","LI":"小東里","LIN":"21鄰","STREET":"光明街","SECT":" ","MAREA":" ","LANE":"１７５巷","ALLEY":"４１弄","HOUSE_NO":"９號","E_COORD97":171004.34,"N_COORD97":2544193.71,"ADDRESS":"光明街１７５巷４１弄９號","OBJECTID":99188},"geometry":{"x":171004.33999999985,"y":2544193.7100000028}},{"attributes":{"ID":99189,"DIS_CODE":0,"TOWNNAME":"東區","LI":"小東里","LIN":"21鄰","STREET":"光明街","SECT":" ","MAREA":" ","LANE":"１７５巷","ALLEY":"４１弄","HOUSE_NO":"７號","E_COORD97":171010.92999999999,"N_COORD97":2544188.23,"ADDRESS":"光明街１７５巷４１弄７號","OBJECTID":99189},"geometry":{"x":171010.93000000063,"y":2544188.2300000004}},{"attributes":{"ID":99190,"DIS_CODE":0,"TOWNNAME":"永康區","LI":"西勢里","LIN":"21鄰","STREET":"富強路","SECT":"一段","MAREA":" ","LANE":"９８巷","ALLEY":"５６弄","HOUSE_NO":"４０號","E_COORD97":175547.25,"N_COORD97":2546006.3999999999,"ADDRESS":"富強路一段９８巷５６弄４０號","OBJECTID":99190},"geometry":{"x":175547.25000000093,"y":2546006.4000000022}},{"attributes":{"ID":99191,"DIS_CODE":0,"TOWNNAME":"永康區","LI":"西勢里","LIN":"21鄰","STREET":"富強路","SECT":"一段","MAREA":" ","LANE":"９８巷","ALLEY":"６２弄","HOUSE_NO":"３０號","E_COORD97":175579.06,"N_COORD97":2545996.3999999999,"ADDRESS":"富強路一段９８巷６２弄３０號","OBJECTID":99191},"geometry":{"x":175579.05999999959,"y":2545996.4000000022}},{"attributes":{"ID":99192,"DIS_CODE":0,"TOWNNAME":"永康區","LI":"西勢里","LIN":"21鄰","STREET":"富強路","SECT":"一段","MAREA":" ","LANE":"９８巷","ALLEY":"６２弄","HOUSE_NO":"１１號","E_COORD97":175612.98999999999,"N_COORD97":2546014.1499999999,"ADDRESS":"富強路一段９８巷６２弄１１號","OBJECTID":99192},"geometry":{"x":175612.98999999929,"y":2546014.1500000022}},{"attributes":{"ID":99193,"DIS_CODE":0,"TOWNNAME":"永康區","LI":"西勢里","LIN":"21鄰","STREET":"富強路","SECT":"一段","MAREA":" ","LANE":"９８巷","ALLEY":"２０弄","HOUSE_NO":"６號","E_COORD97":175507.79999999999,"N_COORD97":2546130.27,"ADDRESS":"富強路一段９８巷２０弄６號","OBJECTID":99193},"geometry":{"x":175507.80000000075,"y":2546130.2699999996}},{"attributes":{"ID":99194,"DIS_CODE":0,"TOWNNAME":"永康區","LI":"西勢里","LIN":"21鄰","STREET":"富強路","SECT":"一段","MAREA":" ","LANE":"９８巷","ALLEY":"６２弄","HOUSE_NO":"７號","E_COORD97":175617.95000000001,"N_COORD97":2546020.6499999999,"ADDRESS":"富強路一段９８巷６２弄７號","OBJECTID":99194},"geometry":{"x":175617.95000000019,"y":2546020.6500000041}},{"attributes":{"ID":99195,"DIS_CODE":0,"TOWNNAME":"永康區","LI":"西勢里","LIN":"21鄰","STREET":"富強路","SECT":"一段","MAREA":" ","LANE":"９８巷","ALLEY":"５６弄","HOUSE_NO":"５０號","E_COORD97":175534.92999999999,"N_COORD97":2545993.3999999999,"ADDRESS":"富強路一段９８巷５６弄５０號","OBJECTID":99195},"geometry":{"x":175534.93000000156,"y":2545993.4000000022}},{"attributes":{"ID":99196,"DIS_CODE":0,"TOWNNAME":"安南區","LI":"海佃里","LIN":"1鄰","STREET":"國安街","SECT":" ","MAREA":" ","LANE":" ","ALLEY":" ","HOUSE_NO":"８號","E_COORD97":167125.10000000001,"N_COORD97":2547046.6099999999,"ADDRESS":"國安街８號","OBJECTID":99196},"geometry":{"x":167125.09999999963,"y":2547046.6099999994}},{"attributes":{"ID":99197,"DIS_CODE":0,"TOWNNAME":"善化區","LI":"光文里","LIN":"1鄰","STREET":" ","SECT":" ","MAREA":"北子店","LANE":" ","ALLEY":" ","HOUSE_NO":"５號","E_COORD97":179086.01000000001,"N_COORD97":2560428,"ADDRESS":"北子店５號","OBJECTID":99197},"geometry":{"x":179086.01000000164,"y":2560428.0000000019}},{"attributes":{"ID":99198,"DIS_CODE":0,"TOWNNAME":"善化區","LI":"田寮里","LIN":"1鄰","STREET":" ","SECT":" ","MAREA":"六分寮","LANE":" ","ALLEY":" ","HOUSE_NO":"２３號","E_COORD97":178398.66,"N_COORD97":2561326,"ADDRESS":"六分寮２３號","OBJECTID":99198},"geometry":{"x":178398.65999999922,"y":2561326.0000000019}},{"attributes":{"ID":99199,"DIS_CODE":0,"TOWNNAME":"善化區","LI":"田寮里","LIN":"1鄰","STREET":" ","SECT":" ","MAREA":"六分寮","LANE":" ","ALLEY":" ","HOUSE_NO":"１７之２號","E_COORD97":178357.04000000001,"N_COORD97":2561311.27,"ADDRESS":"六分寮１７之２號","OBJECTID":99199},"geometry":{"x":178357.0400000019,"y":2561311.2699999996}},{"attributes":{"ID":99200,"DIS_CODE":0,"TOWNNAME":"善化區","LI":"田寮里","LIN":"1鄰","STREET":" ","SECT":" ","MAREA":"六分寮","LANE":" ","ALLEY":" ","HOUSE_NO":"２４號","E_COORD97":178388.79000000001,"N_COORD97":2561355.5,"ADDRESS":"六分寮２４號","OBJECTID":99200},"geometry":{"x":178388.79000000004,"y":2561355.5}}]}