{"displayFieldName":"TOWNNAME","fieldAliases":{"ID":"ID","DIS_CODE":"DIS_CODE","TOWNNAME":"TOWNNAME","LI":"LI","LIN":"LIN","STREET":"STREET","SECT":"SECT","MAREA":"MAREA","LANE":"LANE","ALLEY":"ALLEY","HOUSE_NO":"HOUSE_NO","E_COORD97":"E_COORD97","N_COORD97":"N_COORD97","ADDRESS":"ADDRESS","OBJECTID":"OBJECTID"},"geometryType":"esriGeometryPoint","spatialReference":{"wkid":102443,"latestWkid":3826},"fields":[{"name":"ID","type":"esriFieldTypeDouble","alias":"ID"},{"name":"DIS_CODE","type":"esriFieldTypeInteger","alias":"DIS_CODE"},{"name":"TOWNNAME","type":"esriFieldTypeString","alias":"TOWNNAME","length":8},{"name":"LI","type":"esriFieldTypeString","alias":"LI","length":8},{"name":"LIN","type":"esriFieldTypeString","alias":"LIN","length":12},{"name":"STREET","type":"esriFieldTypeString","alias":"STREET","length":20},{"name":"SECT","type":"esriFieldTypeString","alias":"SECT","length":8},{"name":"MAREA","type":"esriFieldTypeString","alias":"MAREA","length":12},{"name":"LANE","type":"esriFieldTypeString","alias":"LANE","length":10},{"name":"ALLEY","type":"esriFieldTypeString","alias":"ALLEY","length":10},{"name":"HOUSE_NO","type":"esriFieldTypeString","alias":"HOUSE_NO","length":20},{"name":"E_COORD97","type":"esriFieldTypeDouble","alias":"E_COORD97"},{"name":"N_COORD97","type":"esriFieldTypeDouble","alias":"N_COORD97"},{"name":"ADDRESS","type":"esriFieldTypeString","alias":"ADDRESS","length":50},{"name":"OBJECTID","type":"esriFieldTypeOID","alias":"OBJECTID"}],"features":[{"attributes":{"ID":90601,"DIS_CODE":0,"TOWNNAME":"安南區","LI":"淵東里","LIN":"1鄰","STREET":"本原街","SECT":"三段","MAREA":" ","LANE":"１３４巷","ALLEY":"２０弄","HOUSE_NO":"１３號","E_COORD97":165604.73000000001,"N_COORD97":2550480.6200000001,"ADDRESS":"本原街三段１３４巷２０弄１３號","OBJECTID":90601},"geometry":{"x":165604.73000000045,"y":2550480.6200000029}},{"attributes":{"ID":90602,"DIS_CODE":0,"TOWNNAME":"安南區","LI":"淵東里","LIN":"1鄰","STREET":"本原街","SECT":"三段","MAREA":" ","LANE":"１３４巷","ALLEY":"２０弄","HOUSE_NO":"７號","E_COORD97":165600.48000000001,"N_COORD97":2550467.5299999998,"ADDRESS":"本原街三段１３４巷２０弄７號","OBJECTID":90602},"geometry":{"x":165600.48000000138,"y":2550467.5299999993}},{"attributes":{"ID":90603,"DIS_CODE":0,"TOWNNAME":"安南區","LI":"淵東里","LIN":"1鄰","STREET":"本原街","SECT":"三段","MAREA":" ","LANE":"１３４巷","ALLEY":"２０弄","HOUSE_NO":"９號","E_COORD97":165601.89999999999,"N_COORD97":2550471.96,"ADDRESS":"本原街三段１３４巷２０弄９號","OBJECTID":90603},"geometry":{"x":165601.90000000037,"y":2550471.9600000028}},{"attributes":{"ID":90604,"DIS_CODE":0,"TOWNNAME":"柳營區","LI":"篤農里","LIN":"10鄰","STREET":"義士路","SECT":"一段","MAREA":" ","LANE":"７１０巷","ALLEY":"１００弄","HOUSE_NO":"８５號","E_COORD97":185895.75,"N_COORD97":2576077.4300000002,"ADDRESS":"義士路一段７１０巷１００弄８５號","OBJECTID":90604},"geometry":{"x":185895.74999999907,"y":2576077.4300000016}},{"attributes":{"ID":90605,"DIS_CODE":0,"TOWNNAME":"柳營區","LI":"篤農里","LIN":"10鄰","STREET":"義士路","SECT":"一段","MAREA":" ","LANE":"７１０巷","ALLEY":"１００弄","HOUSE_NO":"９２號","E_COORD97":185848.06,"N_COORD97":2576022.9199999999,"ADDRESS":"義士路一段７１０巷１００弄９２號","OBJECTID":90605},"geometry":{"x":185848.06000000052,"y":2576022.9199999981}},{"attributes":{"ID":90606,"DIS_CODE":0,"TOWNNAME":"柳營區","LI":"篤農里","LIN":"10鄰","STREET":"義士路","SECT":"一段","MAREA":" ","LANE":"７１０巷","ALLEY":"１８８弄","HOUSE_NO":"６號","E_COORD97":185654.59,"N_COORD97":2576251.9399999999,"ADDRESS":"義士路一段７１０巷１８８弄６號","OBJECTID":90606},"geometry":{"x":185654.59000000078,"y":2576251.9399999995}},{"attributes":{"ID":90607,"DIS_CODE":0,"TOWNNAME":"柳營區","LI":"篤農里","LIN":"10鄰","STREET":"義士路","SECT":"一段","MAREA":" ","LANE":"７１０巷","ALLEY":"４１弄","HOUSE_NO":"１０號","E_COORD97":185547.82999999999,"N_COORD97":2576032.3700000001,"ADDRESS":"義士路一段７１０巷４１弄１０號","OBJECTID":90607},"geometry":{"x":185547.83000000194,"y":2576032.3700000029}},{"attributes":{"ID":90608,"DIS_CODE":0,"TOWNNAME":"柳營區","LI":"篤農里","LIN":"10鄰","STREET":"義士路","SECT":"一段","MAREA":" ","LANE":"７１０巷","ALLEY":"４１弄","HOUSE_NO":"１２號","E_COORD97":185537.95000000001,"N_COORD97":2576020.5800000001,"ADDRESS":"義士路一段７１０巷４１弄１２號","OBJECTID":90608},"geometry":{"x":185537.95000000019,"y":2576020.5800000001}},{"attributes":{"ID":90609,"DIS_CODE":0,"TOWNNAME":"柳營區","LI":"篤農里","LIN":"10鄰","STREET":"義士路","SECT":"一段","MAREA":" ","LANE":"７１０巷","ALLEY":"４１弄","HOUSE_NO":"１６號","E_COORD97":185525.48000000001,"N_COORD97":2576035.1600000001,"ADDRESS":"義士路一段７１０巷４１弄１６號","OBJECTID":90609},"geometry":{"x":185525.48000000138,"y":2576035.1600000039}},{"attributes":{"ID":90610,"DIS_CODE":0,"TOWNNAME":"柳營區","LI":"篤農里","LIN":"10鄰","STREET":"義士路","SECT":"一段","MAREA":" ","LANE":"７１０巷","ALLEY":"４１弄","HOUSE_NO":"１８號","E_COORD97":185530.75,"N_COORD97":2576071.8599999999,"ADDRESS":"義士路一段７１０巷４１弄１８號","OBJECTID":90610},"geometry":{"x":185530.75,"y":2576071.8600000013}},{"attributes":{"ID":90611,"DIS_CODE":0,"TOWNNAME":"柳營區","LI":"篤農里","LIN":"10鄰","STREET":"義士路","SECT":"一段","MAREA":" ","LANE":"７１０巷","ALLEY":"４１弄","HOUSE_NO":"２０號","E_COORD97":185534.19,"N_COORD97":2576098.73,"ADDRESS":"義士路一段７１０巷４１弄２０號","OBJECTID":90611},"geometry":{"x":185534.19000000134,"y":2576098.7300000004}},{"attributes":{"ID":90612,"DIS_CODE":0,"TOWNNAME":"柳營區","LI":"篤農里","LIN":"10鄰","STREET":"義士路","SECT":"一段","MAREA":" ","LANE":"７１０巷","ALLEY":"４１弄","HOUSE_NO":"２號","E_COORD97":185575.39999999999,"N_COORD97":2576027.96,"ADDRESS":"義士路一段７１０巷４１弄２號","OBJECTID":90612},"geometry":{"x":185575.4000000013,"y":2576027.9600000028}},{"attributes":{"ID":90613,"DIS_CODE":0,"TOWNNAME":"柳營區","LI":"篤農里","LIN":"10鄰","STREET":"義士路","SECT":"一段","MAREA":" ","LANE":"７１０巷","ALLEY":"４１弄","HOUSE_NO":"６號","E_COORD97":185565.32999999999,"N_COORD97":2576021.9700000002,"ADDRESS":"義士路一段７１０巷４１弄６號","OBJECTID":90613},"geometry":{"x":185565.33000000101,"y":2576021.9700000007}},{"attributes":{"ID":90614,"DIS_CODE":0,"TOWNNAME":"柳營區","LI":"篤農里","LIN":"10鄰","STREET":"義士路","SECT":"一段","MAREA":" ","LANE":"７１０巷","ALLEY":"６９弄","HOUSE_NO":"１０號","E_COORD97":185580.67000000001,"N_COORD97":2576183.8300000001,"ADDRESS":"義士路一段７１０巷６９弄１０號","OBJECTID":90614},"geometry":{"x":185580.66999999993,"y":2576183.8300000019}},{"attributes":{"ID":90615,"DIS_CODE":0,"TOWNNAME":"柳營區","LI":"篤農里","LIN":"10鄰","STREET":"義士路","SECT":"一段","MAREA":" ","LANE":"７１０巷","ALLEY":"６９弄","HOUSE_NO":"３５號","E_COORD97":185499.75,"N_COORD97":2576106.0499999998,"ADDRESS":"義士路一段７１０巷６９弄３５號","OBJECTID":90615},"geometry":{"x":185499.75000000093,"y":2576106.0500000026}},{"attributes":{"ID":90616,"DIS_CODE":0,"TOWNNAME":"南區","LI":"再興里","LIN":"5鄰","STREET":"新慶街","SECT":" ","MAREA":" ","LANE":" ","ALLEY":" ","HOUSE_NO":"４６號","E_COORD97":167187.63,"N_COORD97":2542343.8599999999,"ADDRESS":"新慶街４６號","OBJECTID":90616},"geometry":{"x":167187.62999999989,"y":2542343.8600000013}},{"attributes":{"ID":90617,"DIS_CODE":0,"TOWNNAME":"南區","LI":"竹溪里","LIN":"7鄰","STREET":"健康路","SECT":"一段","MAREA":" ","LANE":" ","ALLEY":" ","HOUSE_NO":"１４９號","E_COORD97":168835.63,"N_COORD97":2542408.21,"ADDRESS":"健康路一段１４９號","OBJECTID":90617},"geometry":{"x":168835.62999999989,"y":2542408.2100000028}},{"attributes":{"ID":90618,"DIS_CODE":0,"TOWNNAME":"北區","LI":"成德里","LIN":"19鄰","STREET":"育成路","SECT":" ","MAREA":" ","LANE":" ","ALLEY":" ","HOUSE_NO":"４６號","E_COORD97":168960.19,"N_COORD97":2546353.5800000001,"ADDRESS":"育成路４６號","OBJECTID":90618},"geometry":{"x":168960.19000000134,"y":2546353.5800000019}},{"attributes":{"ID":90619,"DIS_CODE":0,"TOWNNAME":"鹽水區","LI":"舊營里","LIN":"12鄰","STREET":" ","SECT":" ","MAREA":"舊營","LANE":" ","ALLEY":" ","HOUSE_NO":"１１１號","E_COORD97":174080.14000000001,"N_COORD97":2577268.7200000002,"ADDRESS":"舊營１１１號","OBJECTID":90619},"geometry":{"x":174080.13999999966,"y":2577268.7200000007}},{"attributes":{"ID":90620,"DIS_CODE":0,"TOWNNAME":"鹽水區","LI":"舊營里","LIN":"12鄰","STREET":" ","SECT":" ","MAREA":"舊營","LANE":" ","ALLEY":" ","HOUSE_NO":"１１２號","E_COORD97":174108.03,"N_COORD97":2577290.5699999998,"ADDRESS":"舊營１１２號","OBJECTID":90620},"geometry":{"x":174108.03000000119,"y":2577290.570000004}},{"attributes":{"ID":90621,"DIS_CODE":0,"TOWNNAME":"柳營區","LI":"篤農里","LIN":"10鄰","STREET":"義士路","SECT":"一段","MAREA":" ","LANE":"７１０巷","ALLEY":"６９弄","HOUSE_NO":"８號","E_COORD97":185592.95000000001,"N_COORD97":2576149.5800000001,"ADDRESS":"義士路一段７１０巷６９弄８號","OBJECTID":90621},"geometry":{"x":185592.95000000205,"y":2576149.5800000001}},{"attributes":{"ID":90622,"DIS_CODE":0,"TOWNNAME":"北區","LI":"興北里","LIN":"10鄰","STREET":"公園路","SECT":" ","MAREA":" ","LANE":"５１６巷","ALLEY":"７弄","HOUSE_NO":"１０號","E_COORD97":169072.20999999999,"N_COORD97":2545270.6899999999,"ADDRESS":"公園路５１６巷７弄１０號","OBJECTID":90622},"geometry":{"x":169072.20999999996,"y":2545270.6900000013}},{"attributes":{"ID":90623,"DIS_CODE":0,"TOWNNAME":"北區","LI":"興北里","LIN":"10鄰","STREET":"公園路","SECT":" ","MAREA":" ","LANE":"５１６巷","ALLEY":"７弄","HOUSE_NO":"１２號","E_COORD97":169078.67999999999,"N_COORD97":2545279.9399999999,"ADDRESS":"公園路５１６巷７弄１２號","OBJECTID":90623},"geometry":{"x":169078.68000000063,"y":2545279.9400000013}},{"attributes":{"ID":90624,"DIS_CODE":0,"TOWNNAME":"北區","LI":"興北里","LIN":"10鄰","STREET":"公園路","SECT":" ","MAREA":" ","LANE":"５１６巷","ALLEY":"７弄","HOUSE_NO":"１４號","E_COORD97":169076.79000000001,"N_COORD97":2545275.0299999998,"ADDRESS":"公園路５１６巷７弄１４號","OBJECTID":90624},"geometry":{"x":169076.79000000004,"y":2545275.0300000012}},{"attributes":{"ID":90625,"DIS_CODE":0,"TOWNNAME":"北區","LI":"興北里","LIN":"10鄰","STREET":"公園路","SECT":" ","MAREA":" ","LANE":"５１６巷","ALLEY":"７弄","HOUSE_NO":"６號","E_COORD97":169066.56,"N_COORD97":2545251.04,"ADDRESS":"公園路５１６巷７弄６號","OBJECTID":90625},"geometry":{"x":169066.55999999959,"y":2545251.040000001}},{"attributes":{"ID":90626,"DIS_CODE":0,"TOWNNAME":"北區","LI":"興北里","LIN":"10鄰","STREET":"公園路","SECT":" ","MAREA":" ","LANE":"５１６巷","ALLEY":"７弄","HOUSE_NO":"８號","E_COORD97":169069.26000000001,"N_COORD97":2545262.3500000001,"ADDRESS":"公園路５１６巷７弄８號","OBJECTID":90626},"geometry":{"x":169069.26000000071,"y":2545262.3500000034}},{"attributes":{"ID":90627,"DIS_CODE":0,"TOWNNAME":"歸仁區","LI":"六甲里","LIN":"10鄰","STREET":"六甲路","SECT":" ","MAREA":" ","LANE":"２０１巷","ALLEY":"３９弄","HOUSE_NO":"８號","E_COORD97":176070.81,"N_COORD97":2539083.25,"ADDRESS":"六甲路２０１巷３９弄８號","OBJECTID":90627},"geometry":{"x":176070.80999999959,"y":2539083.2500000019}},{"attributes":{"ID":90628,"DIS_CODE":0,"TOWNNAME":"鹽水區","LI":"舊營里","LIN":"12鄰","STREET":" ","SECT":" ","MAREA":"舊營","LANE":" ","ALLEY":" ","HOUSE_NO":"１１３號","E_COORD97":174131.01999999999,"N_COORD97":2577262.46,"ADDRESS":"舊營１１３號","OBJECTID":90628},"geometry":{"x":174131.02000000048,"y":2577262.4600000028}},{"attributes":{"ID":90629,"DIS_CODE":0,"TOWNNAME":"安南區","LI":"長安里","LIN":"7鄰","STREET":"長溪路","SECT":"三段","MAREA":" ","LANE":"４０５巷","ALLEY":"４０弄","HOUSE_NO":"１０號","E_COORD97":167567.19,"N_COORD97":2552029.5,"ADDRESS":"長溪路三段４０５巷４０弄１０號","OBJECTID":90629},"geometry":{"x":167567.19000000134,"y":2552029.5000000019}},{"attributes":{"ID":90630,"DIS_CODE":0,"TOWNNAME":"安南區","LI":"長安里","LIN":"7鄰","STREET":"長溪路","SECT":"三段","MAREA":" ","LANE":"４０５巷","ALLEY":"４０弄","HOUSE_NO":"１２號","E_COORD97":167565.34,"N_COORD97":2552034.1899999999,"ADDRESS":"長溪路三段４０５巷４０弄１２號","OBJECTID":90630},"geometry":{"x":167565.34000000078,"y":2552034.1900000013}},{"attributes":{"ID":90631,"DIS_CODE":0,"TOWNNAME":"鹽水區","LI":"舊營里","LIN":"12鄰","STREET":" ","SECT":" ","MAREA":"舊營","LANE":" ","ALLEY":" ","HOUSE_NO":"１１４號","E_COORD97":174131.79999999999,"N_COORD97":2577303.8799999999,"ADDRESS":"舊營１１４號","OBJECTID":90631},"geometry":{"x":174131.79999999981,"y":2577303.8800000027}},{"attributes":{"ID":90632,"DIS_CODE":0,"TOWNNAME":"歸仁區","LI":"六甲里","LIN":"10鄰","STREET":"六甲路","SECT":" ","MAREA":" ","LANE":"２０１巷","ALLEY":"３９弄","HOUSE_NO":"２號","E_COORD97":176052.41,"N_COORD97":2539101.25,"ADDRESS":"六甲路２０１巷３９弄２號","OBJECTID":90632},"geometry":{"x":176052.41000000015,"y":2539101.2500000019}},{"attributes":{"ID":90633,"DIS_CODE":0,"TOWNNAME":"北區","LI":"國興里","LIN":"10鄰","STREET":"開元路","SECT":" ","MAREA":" ","LANE":"３９４巷","ALLEY":"７弄","HOUSE_NO":"１１號","E_COORD97":170605.98999999999,"N_COORD97":2545631.3399999999,"ADDRESS":"開元路３９４巷７弄１１號","OBJECTID":90633},"geometry":{"x":170605.99000000115,"y":2545631.3399999999}},{"attributes":{"ID":90634,"DIS_CODE":0,"TOWNNAME":"北區","LI":"國興里","LIN":"10鄰","STREET":"開元路","SECT":" ","MAREA":" ","LANE":"３９４巷","ALLEY":"７弄","HOUSE_NO":"１３號","E_COORD97":170609.54999999999,"N_COORD97":2545634.3100000001,"ADDRESS":"開元路３９４巷７弄１３號","OBJECTID":90634},"geometry":{"x":170609.54999999981,"y":2545634.3100000024}},{"attributes":{"ID":90635,"DIS_CODE":0,"TOWNNAME":"北區","LI":"國興里","LIN":"10鄰","STREET":"開元路","SECT":" ","MAREA":" ","LANE":"３９４巷","ALLEY":"７弄","HOUSE_NO":"１５號","E_COORD97":170615.59,"N_COORD97":2545625.3900000001,"ADDRESS":"開元路３９４巷７弄１５號","OBJECTID":90635},"geometry":{"x":170615.58999999985,"y":2545625.3900000006}},{"attributes":{"ID":90636,"DIS_CODE":0,"TOWNNAME":"北區","LI":"國興里","LIN":"10鄰","STREET":"開元路","SECT":" ","MAREA":" ","LANE":"３９４巷","ALLEY":"７弄","HOUSE_NO":"１號","E_COORD97":170587.26999999999,"N_COORD97":2545620.6000000001,"ADDRESS":"開元路３９４巷７弄１號","OBJECTID":90636},"geometry":{"x":170587.26999999955,"y":2545620.6000000015}},{"attributes":{"ID":90637,"DIS_CODE":0,"TOWNNAME":"北區","LI":"國興里","LIN":"10鄰","STREET":"開元路","SECT":" ","MAREA":" ","LANE":"３９４巷","ALLEY":"７弄","HOUSE_NO":"２號","E_COORD97":170604.54999999999,"N_COORD97":2545613.3999999999,"ADDRESS":"開元路３９４巷７弄２號","OBJECTID":90637},"geometry":{"x":170604.54999999888,"y":2545613.4000000022}},{"attributes":{"ID":90638,"DIS_CODE":0,"TOWNNAME":"北區","LI":"國興里","LIN":"10鄰","STREET":"開元路","SECT":" ","MAREA":" ","LANE":"３９４巷","ALLEY":"７弄","HOUSE_NO":"３號","E_COORD97":170591.29999999999,"N_COORD97":2545622.71,"ADDRESS":"開元路３９４巷７弄３號","OBJECTID":90638},"geometry":{"x":170591.30000000075,"y":2545622.7100000009}},{"attributes":{"ID":90639,"DIS_CODE":0,"TOWNNAME":"北區","LI":"國興里","LIN":"10鄰","STREET":"開元路","SECT":" ","MAREA":" ","LANE":"３９４巷","ALLEY":"７弄","HOUSE_NO":"５號","E_COORD97":170594.76000000001,"N_COORD97":2545625.0099999998,"ADDRESS":"開元路３９４巷７弄５號","OBJECTID":90639},"geometry":{"x":170594.76000000164,"y":2545625.0100000016}},{"attributes":{"ID":90640,"DIS_CODE":0,"TOWNNAME":"北區","LI":"國興里","LIN":"10鄰","STREET":"開元路","SECT":" ","MAREA":" ","LANE":"３９４巷","ALLEY":"７弄","HOUSE_NO":"６號","E_COORD97":170609.45000000001,"N_COORD97":2545617.8100000001,"ADDRESS":"開元路３９４巷７弄６號","OBJECTID":90640},"geometry":{"x":170609.45000000112,"y":2545617.8100000024}},{"attributes":{"ID":90641,"DIS_CODE":0,"TOWNNAME":"北區","LI":"國興里","LIN":"10鄰","STREET":"開元路","SECT":" ","MAREA":" ","LANE":"３９４巷","ALLEY":"７弄","HOUSE_NO":"７號","E_COORD97":170598.31,"N_COORD97":2545626.8300000001,"ADDRESS":"開元路３９４巷７弄７號","OBJECTID":90641},"geometry":{"x":170598.31000000052,"y":2545626.8300000019}},{"attributes":{"ID":90642,"DIS_CODE":0,"TOWNNAME":"北區","LI":"國興里","LIN":"10鄰","STREET":"開元路","SECT":" ","MAREA":" ","LANE":"３９４巷","ALLEY":"７弄","HOUSE_NO":"８號","E_COORD97":170613.29000000001,"N_COORD97":2545620.6899999999,"ADDRESS":"開元路３９４巷７弄８號","OBJECTID":90642},"geometry":{"x":170613.29000000004,"y":2545620.6900000013}},{"attributes":{"ID":90643,"DIS_CODE":0,"TOWNNAME":"安南區","LI":"淵東里","LIN":"3鄰","STREET":"本原街","SECT":"三段","MAREA":" ","LANE":"２３４巷","ALLEY":"１０６弄","HOUSE_NO":"２號","E_COORD97":165279.22,"N_COORD97":2550533.7799999998,"ADDRESS":"本原街三段２３４巷１０６弄２號","OBJECTID":90643},"geometry":{"x":165279.22000000067,"y":2550533.7799999993}},{"attributes":{"ID":90644,"DIS_CODE":0,"TOWNNAME":"北區","LI":"勝安里","LIN":"10鄰","STREET":"開元路","SECT":" ","MAREA":" ","LANE":"２４９巷","ALLEY":"３５弄","HOUSE_NO":"１９號","E_COORD97":169803.94,"N_COORD97":2545524.2799999998,"ADDRESS":"開元路２４９巷３５弄１９號","OBJECTID":90644},"geometry":{"x":169803.94000000041,"y":2545524.2800000012}},{"attributes":{"ID":90645,"DIS_CODE":0,"TOWNNAME":"北區","LI":"勝安里","LIN":"10鄰","STREET":"開元路","SECT":" ","MAREA":" ","LANE":"２４９巷","ALLEY":"３５弄","HOUSE_NO":"２０號","E_COORD97":169792.26999999999,"N_COORD97":2545548.3900000001,"ADDRESS":"開元路２４９巷３５弄２０號","OBJECTID":90645},"geometry":{"x":169792.26999999955,"y":2545548.3900000025}},{"attributes":{"ID":90646,"DIS_CODE":0,"TOWNNAME":"北區","LI":"勝安里","LIN":"10鄰","STREET":"開元路","SECT":" ","MAREA":" ","LANE":"２４９巷","ALLEY":"３５弄","HOUSE_NO":"２２號","E_COORD97":169792.57999999999,"N_COORD97":2545544.1400000001,"ADDRESS":"開元路２４９巷３５弄２２號","OBJECTID":90646},"geometry":{"x":169792.58000000007,"y":2545544.1400000025}},{"attributes":{"ID":90647,"DIS_CODE":0,"TOWNNAME":"北區","LI":"勝安里","LIN":"10鄰","STREET":"開元路","SECT":" ","MAREA":" ","LANE":"２４９巷","ALLEY":"３５弄","HOUSE_NO":"２４號","E_COORD97":169793.37,"N_COORD97":2545539.8799999999,"ADDRESS":"開元路２４９巷３５弄２４號","OBJECTID":90647},"geometry":{"x":169793.37000000104,"y":2545539.8800000008}},{"attributes":{"ID":90648,"DIS_CODE":0,"TOWNNAME":"北區","LI":"勝安里","LIN":"10鄰","STREET":"開元路","SECT":" ","MAREA":" ","LANE":"２４９巷","ALLEY":"３５弄","HOUSE_NO":"２６號","E_COORD97":169794,"N_COORD97":2545534.52,"ADDRESS":"開元路２４９巷３５弄２６號","OBJECTID":90648},"geometry":{"x":169794.00000000093,"y":2545534.5199999996}},{"attributes":{"ID":90649,"DIS_CODE":0,"TOWNNAME":"北區","LI":"勝安里","LIN":"10鄰","STREET":"開元路","SECT":" ","MAREA":" ","LANE":"２４９巷","ALLEY":"３５弄","HOUSE_NO":"２８號","E_COORD97":169794.63,"N_COORD97":2545526.1699999999,"ADDRESS":"開元路２４９巷３５弄２８號","OBJECTID":90649},"geometry":{"x":169794.63000000082,"y":2545526.1700000018}},{"attributes":{"ID":90650,"DIS_CODE":0,"TOWNNAME":"北區","LI":"勝安里","LIN":"10鄰","STREET":"開元路","SECT":" ","MAREA":" ","LANE":"２４９巷","ALLEY":"３５弄","HOUSE_NO":"３０號","E_COORD97":169795.73999999999,"N_COORD97":2545518.4500000002,"ADDRESS":"開元路２４９巷３５弄３０號","OBJECTID":90650},"geometry":{"x":169795.74000000115,"y":2545518.4499999993}},{"attributes":{"ID":90651,"DIS_CODE":0,"TOWNNAME":"北區","LI":"勝安里","LIN":"10鄰","STREET":"開元路","SECT":" ","MAREA":" ","LANE":"２４９巷","ALLEY":"３５弄","HOUSE_NO":"３號","E_COORD97":169842.60000000001,"N_COORD97":2545521.9900000002,"ADDRESS":"開元路２４９巷３５弄３號","OBJECTID":90651},"geometry":{"x":169842.59999999963,"y":2545521.9900000002}},{"attributes":{"ID":90652,"DIS_CODE":0,"TOWNNAME":"北區","LI":"勝安里","LIN":"10鄰","STREET":"開元路","SECT":" ","MAREA":" ","LANE":"２４９巷","ALLEY":"３５弄","HOUSE_NO":"５號","E_COORD97":169838.17999999999,"N_COORD97":2545521.8399999999,"ADDRESS":"開元路２４９巷３５弄５號","OBJECTID":90652},"geometry":{"x":169838.18000000063,"y":2545521.8400000017}},{"attributes":{"ID":90653,"DIS_CODE":0,"TOWNNAME":"北區","LI":"勝安里","LIN":"10鄰","STREET":"開元路","SECT":" ","MAREA":" ","LANE":"２４９巷","ALLEY":"３５弄","HOUSE_NO":"９號","E_COORD97":169830.60999999999,"N_COORD97":2545522.4700000002,"ADDRESS":"開元路２４９巷３５弄９號","OBJECTID":90653},"geometry":{"x":169830.61000000127,"y":2545522.4700000007}},{"attributes":{"ID":90654,"DIS_CODE":0,"TOWNNAME":"鹽水區","LI":"舊營里","LIN":"12鄰","STREET":" ","SECT":" ","MAREA":"舊營","LANE":" ","ALLEY":" ","HOUSE_NO":"１１５號","E_COORD97":174143.26000000001,"N_COORD97":2577331.46,"ADDRESS":"舊營１１５號","OBJECTID":90654},"geometry":{"x":174143.26000000071,"y":2577331.4600000009}},{"attributes":{"ID":90655,"DIS_CODE":0,"TOWNNAME":"鹽水區","LI":"舊營里","LIN":"12鄰","STREET":" ","SECT":" ","MAREA":"舊營","LANE":" ","ALLEY":" ","HOUSE_NO":"１５８之１號","E_COORD97":173961.26000000001,"N_COORD97":2577328.3399999999,"ADDRESS":"舊營１５８之１號","OBJECTID":90655},"geometry":{"x":173961.25999999885,"y":2577328.3399999999}},{"attributes":{"ID":90656,"DIS_CODE":0,"TOWNNAME":"鹽水區","LI":"舊營里","LIN":"12鄰","STREET":" ","SECT":" ","MAREA":"舊營","LANE":" ","ALLEY":" ","HOUSE_NO":"１５８號","E_COORD97":173948.5,"N_COORD97":2577063.1800000002,"ADDRESS":"舊營１５８號","OBJECTID":90656},"geometry":{"x":173948.50000000093,"y":2577063.1800000016}},{"attributes":{"ID":90657,"DIS_CODE":0,"TOWNNAME":"南化區","LI":"玉山里","LIN":"12鄰","STREET":" ","SECT":" ","MAREA":"玉山","LANE":" ","ALLEY":" ","HOUSE_NO":"１３０號之２","E_COORD97":201537.69,"N_COORD97":2553781.7999999998,"ADDRESS":"玉山１３０號之２","OBJECTID":90657},"geometry":{"x":201537.69000000041,"y":2553781.8000000026}},{"attributes":{"ID":90658,"DIS_CODE":0,"TOWNNAME":"南化區","LI":"南化里","LIN":"12鄰","STREET":" ","SECT":" ","MAREA":"南化","LANE":" ","ALLEY":" ","HOUSE_NO":"２６０之３號","E_COORD97":196781.84,"N_COORD97":2548856.7999999998,"ADDRESS":"南化２６０之３號","OBJECTID":90658},"geometry":{"x":196781.84000000078,"y":2548856.8000000007}},{"attributes":{"ID":90659,"DIS_CODE":0,"TOWNNAME":"北區","LI":"勝安里","LIN":"10鄰","STREET":"開元路","SECT":" ","MAREA":" ","LANE":"７３巷","ALLEY":"９４弄","HOUSE_NO":"１１號","E_COORD97":169909.64999999999,"N_COORD97":2545466.6899999999,"ADDRESS":"開元路７３巷９４弄１１號","OBJECTID":90659},"geometry":{"x":169909.65000000224,"y":2545466.6900000032}},{"attributes":{"ID":90660,"DIS_CODE":0,"TOWNNAME":"北區","LI":"勝安里","LIN":"10鄰","STREET":"開元路","SECT":" ","MAREA":" ","LANE":"７３巷","ALLEY":"９４弄","HOUSE_NO":"１３號","E_COORD97":169913.44,"N_COORD97":2545467.48,"ADDRESS":"開元路７３巷９４弄１３號","OBJECTID":90660},"geometry":{"x":169913.44000000134,"y":2545467.4800000004}},{"attributes":{"ID":90661,"DIS_CODE":0,"TOWNNAME":"北區","LI":"勝安里","LIN":"10鄰","STREET":"開元路","SECT":" ","MAREA":" ","LANE":"７３巷","ALLEY":"９４弄","HOUSE_NO":"１５號","E_COORD97":169916.91,"N_COORD97":2545468.1099999999,"ADDRESS":"開元路７３巷９４弄１５號","OBJECTID":90661},"geometry":{"x":169916.91000000015,"y":2545468.1100000013}},{"attributes":{"ID":90662,"DIS_CODE":0,"TOWNNAME":"南化區","LI":"西埔里","LIN":"12鄰","STREET":" ","SECT":" ","MAREA":"西埔","LANE":" ","ALLEY":" ","HOUSE_NO":"１４７號","E_COORD97":193187.69,"N_COORD97":2549592.75,"ADDRESS":"西埔１４７號","OBJECTID":90662},"geometry":{"x":193187.69000000227,"y":2549592.7499999981}},{"attributes":{"ID":90663,"DIS_CODE":0,"TOWNNAME":"善化區","LI":"什乃里","LIN":"10鄰","STREET":" ","SECT":" ","MAREA":"什乃","LANE":" ","ALLEY":" ","HOUSE_NO":"９２號","E_COORD97":176070.76999999999,"N_COORD97":2560304.75,"ADDRESS":"什乃９２號","OBJECTID":90663},"geometry":{"x":176070.76999999955,"y":2560304.7500000019}},{"attributes":{"ID":90664,"DIS_CODE":0,"TOWNNAME":"南化區","LI":"西埔里","LIN":"12鄰","STREET":" ","SECT":" ","MAREA":"西埔","LANE":" ","ALLEY":" ","HOUSE_NO":"１２５號之２","E_COORD97":193300.95999999999,"N_COORD97":2549597.7999999998,"ADDRESS":"西埔１２５號之２","OBJECTID":90664},"geometry":{"x":193300.96000000089,"y":2549597.8000000026}},{"attributes":{"ID":90665,"DIS_CODE":0,"TOWNNAME":"北區","LI":"勝安里","LIN":"10鄰","STREET":"開元路","SECT":" ","MAREA":" ","LANE":"７３巷","ALLEY":"９４弄","HOUSE_NO":"１７號","E_COORD97":169922.59,"N_COORD97":2545468.27,"ADDRESS":"開元路７３巷９４弄１７號","OBJECTID":90665},"geometry":{"x":169922.58999999985,"y":2545468.2699999996}},{"attributes":{"ID":90666,"DIS_CODE":0,"TOWNNAME":"南化區","LI":"西埔里","LIN":"12鄰","STREET":" ","SECT":" ","MAREA":"西埔","LANE":" ","ALLEY":" ","HOUSE_NO":"１５０號","E_COORD97":193172.59,"N_COORD97":2549589.75,"ADDRESS":"西埔１５０號","OBJECTID":90666},"geometry":{"x":193172.59000000171,"y":2549589.7500000037}},{"attributes":{"ID":90667,"DIS_CODE":0,"TOWNNAME":"南化區","LI":"西埔里","LIN":"12鄰","STREET":" ","SECT":" ","MAREA":"西埔","LANE":" ","ALLEY":" ","HOUSE_NO":"１３７號","E_COORD97":193231.48999999999,"N_COORD97":2549602.75,"ADDRESS":"西埔１３７號","OBJECTID":90667},"geometry":{"x":193231.49000000115,"y":2549602.75}},{"attributes":{"ID":90668,"DIS_CODE":0,"TOWNNAME":"北區","LI":"勝安里","LIN":"10鄰","STREET":"開元路","SECT":" ","MAREA":" ","LANE":"７３巷","ALLEY":"９４弄","HOUSE_NO":"１９號","E_COORD97":169930.48000000001,"N_COORD97":2545469.0600000001,"ADDRESS":"開元路７３巷９４弄１９號","OBJECTID":90668},"geometry":{"x":169930.48000000045,"y":2545469.0600000024}},{"attributes":{"ID":90669,"DIS_CODE":0,"TOWNNAME":"關廟區","LI":"新埔里","LIN":"10鄰","STREET":"新埔二街","SECT":" ","MAREA":" ","LANE":"５３巷","ALLEY":"７弄","HOUSE_NO":"１８號","E_COORD97":181444.62,"N_COORD97":2540949.25,"ADDRESS":"新埔二街５３巷７弄１８號","OBJECTID":90669},"geometry":{"x":181444.62000000011,"y":2540949.25}},{"attributes":{"ID":90670,"DIS_CODE":0,"TOWNNAME":"關廟區","LI":"新埔里","LIN":"10鄰","STREET":"新埔二街","SECT":" ","MAREA":" ","LANE":"５３巷","ALLEY":"７弄","HOUSE_NO":"７號","E_COORD97":181440.67000000001,"N_COORD97":2540964.25,"ADDRESS":"新埔二街５３巷７弄７號","OBJECTID":90670},"geometry":{"x":181440.66999999993,"y":2540964.2499999981}},{"attributes":{"ID":90671,"DIS_CODE":0,"TOWNNAME":"關廟區","LI":"新埔里","LIN":"10鄰","STREET":"新埔二街","SECT":" ","MAREA":" ","LANE":"５３巷","ALLEY":"７弄","HOUSE_NO":"１號","E_COORD97":181422.97,"N_COORD97":2540963.25,"ADDRESS":"新埔二街５３巷７弄１號","OBJECTID":90671},"geometry":{"x":181422.97000000067,"y":2540963.25}},{"attributes":{"ID":90672,"DIS_CODE":0,"TOWNNAME":"關廟區","LI":"新埔里","LIN":"10鄰","STREET":"新埔二街","SECT":" ","MAREA":" ","LANE":"５３巷","ALLEY":"７弄","HOUSE_NO":"１０號","E_COORD97":181425.82000000001,"N_COORD97":2540948.25,"ADDRESS":"新埔二街５３巷７弄１０號","OBJECTID":90672},"geometry":{"x":181425.82000000123,"y":2540948.2500000019}},{"attributes":{"ID":90673,"DIS_CODE":0,"TOWNNAME":"關廟區","LI":"五甲里","LIN":"10鄰","STREET":"五甲路","SECT":" ","MAREA":" ","LANE":"２８０巷","ALLEY":"７５弄","HOUSE_NO":"１號","E_COORD97":180708.72,"N_COORD97":2538763.25,"ADDRESS":"五甲路２８０巷７５弄１號","OBJECTID":90673},"geometry":{"x":180708.72000000067,"y":2538763.25}},{"attributes":{"ID":90674,"DIS_CODE":0,"TOWNNAME":"北區","LI":"開元里","LIN":"10鄰","STREET":"北園街","SECT":" ","MAREA":" ","LANE":"１２８巷","ALLEY":"１９弄","HOUSE_NO":"１號","E_COORD97":170270.03,"N_COORD97":2546022.21,"ADDRESS":"北園街１２８巷１９弄１號","OBJECTID":90674},"geometry":{"x":170270.03000000119,"y":2546022.2100000028}},{"attributes":{"ID":90675,"DIS_CODE":0,"TOWNNAME":"北區","LI":"開元里","LIN":"10鄰","STREET":"北園街","SECT":" ","MAREA":" ","LANE":"１２８巷","ALLEY":"１９弄","HOUSE_NO":"１號之１","E_COORD97":170265.23000000001,"N_COORD97":2546026,"ADDRESS":"北園街１２８巷１９弄１號之１","OBJECTID":90675},"geometry":{"x":170265.23000000138,"y":2546026.0000000019}},{"attributes":{"ID":90676,"DIS_CODE":0,"TOWNNAME":"北區","LI":"開元里","LIN":"10鄰","STREET":"北園街","SECT":" ","MAREA":" ","LANE":"１２８巷","ALLEY":"１９弄","HOUSE_NO":"３號","E_COORD97":170264.67999999999,"N_COORD97":2546013.7000000002,"ADDRESS":"北園街１２８巷１９弄３號","OBJECTID":90676},"geometry":{"x":170264.68000000156,"y":2546013.7000000011}},{"attributes":{"ID":90677,"DIS_CODE":0,"TOWNNAME":"北區","LI":"開元里","LIN":"10鄰","STREET":"北園街","SECT":" ","MAREA":" ","LANE":"１２８巷","ALLEY":"１９弄","HOUSE_NO":"５號","E_COORD97":170271.95999999999,"N_COORD97":2546011.3799999999,"ADDRESS":"北園街１２８巷１９弄５號","OBJECTID":90677},"geometry":{"x":170271.96000000089,"y":2546011.3800000008}},{"attributes":{"ID":90678,"DIS_CODE":0,"TOWNNAME":"北區","LI":"開元里","LIN":"10鄰","STREET":"北園街","SECT":" ","MAREA":" ","LANE":"１２８巷","ALLEY":"１９弄","HOUSE_NO":"７號","E_COORD97":170254.34,"N_COORD97":2546025.4900000002,"ADDRESS":"北園街１２８巷１９弄７號","OBJECTID":90678},"geometry":{"x":170254.34000000078,"y":2546025.4900000021}},{"attributes":{"ID":90679,"DIS_CODE":0,"TOWNNAME":"北區","LI":"開元里","LIN":"10鄰","STREET":"北園街","SECT":" ","MAREA":" ","LANE":"１２４巷","ALLEY":"９弄","HOUSE_NO":"１０號","E_COORD97":170357.41,"N_COORD97":2546038.6600000001,"ADDRESS":"北園街１２４巷９弄１０號","OBJECTID":90679},"geometry":{"x":170357.41000000108,"y":2546038.660000002}},{"attributes":{"ID":90680,"DIS_CODE":0,"TOWNNAME":"北區","LI":"開元里","LIN":"10鄰","STREET":"北園街","SECT":" ","MAREA":" ","LANE":"１２４巷","ALLEY":"９弄","HOUSE_NO":"１１號","E_COORD97":170340.07999999999,"N_COORD97":2546029.27,"ADDRESS":"北園街１２４巷９弄１１號","OBJECTID":90680},"geometry":{"x":170340.08000000007,"y":2546029.2700000033}},{"attributes":{"ID":90681,"DIS_CODE":0,"TOWNNAME":"北區","LI":"開元里","LIN":"10鄰","STREET":"北園街","SECT":" ","MAREA":" ","LANE":"１２４巷","ALLEY":"９弄","HOUSE_NO":"１２號","E_COORD97":170351.76000000001,"N_COORD97":2546038.8900000001,"ADDRESS":"北園街１２４巷９弄１２號","OBJECTID":90681},"geometry":{"x":170351.75999999978,"y":2546038.8900000006}},{"attributes":{"ID":90682,"DIS_CODE":0,"TOWNNAME":"北區","LI":"開元里","LIN":"10鄰","STREET":"北園街","SECT":" ","MAREA":" ","LANE":"１２４巷","ALLEY":"９弄","HOUSE_NO":"１３號","E_COORD97":170335.97,"N_COORD97":2546030.7400000002,"ADDRESS":"北園街１２４巷９弄１３號","OBJECTID":90682},"geometry":{"x":170335.97000000067,"y":2546030.7400000021}},{"attributes":{"ID":90683,"DIS_CODE":0,"TOWNNAME":"南區","LI":"省躬里","LIN":"15鄰","STREET":"灣裡路","SECT":" ","MAREA":" ","LANE":" ","ALLEY":" ","HOUSE_NO":"６３號二樓之１","E_COORD97":165970.22,"N_COORD97":2537058.6800000002,"ADDRESS":"灣裡路６３號二樓之１","OBJECTID":90683},"geometry":{"x":165970.21999999974,"y":2537058.6799999978}},{"attributes":{"ID":90684,"DIS_CODE":0,"TOWNNAME":"南區","LI":"省躬里","LIN":"15鄰","STREET":"灣裡路","SECT":" ","MAREA":" ","LANE":" ","ALLEY":" ","HOUSE_NO":"６３號二樓之２","E_COORD97":165970.22,"N_COORD97":2537058.6800000002,"ADDRESS":"灣裡路６３號二樓之２","OBJECTID":90684},"geometry":{"x":165970.21999999974,"y":2537058.6799999978}},{"attributes":{"ID":90685,"DIS_CODE":0,"TOWNNAME":"中西區","LI":"民主里","LIN":"4鄰","STREET":"尊王路","SECT":" ","MAREA":" ","LANE":" ","ALLEY":" ","HOUSE_NO":"１０６號","E_COORD97":167480.69,"N_COORD97":2543616.0600000001,"ADDRESS":"尊王路１０６號","OBJECTID":90685},"geometry":{"x":167480.69000000134,"y":2543616.0600000005}},{"attributes":{"ID":90686,"DIS_CODE":0,"TOWNNAME":"北區","LI":"開元里","LIN":"10鄰","STREET":"北園街","SECT":" ","MAREA":" ","LANE":"１２４巷","ALLEY":"９弄","HOUSE_NO":"１４號","E_COORD97":170346.73000000001,"N_COORD97":2546038.7400000002,"ADDRESS":"北園街１２４巷９弄１４號","OBJECTID":90686},"geometry":{"x":170346.73000000138,"y":2546038.7400000002}},{"attributes":{"ID":90687,"DIS_CODE":0,"TOWNNAME":"北區","LI":"開元里","LIN":"10鄰","STREET":"北園街","SECT":" ","MAREA":" ","LANE":"１２４巷","ALLEY":"９弄","HOUSE_NO":"１５號","E_COORD97":170331.87,"N_COORD97":2546031.2799999998,"ADDRESS":"北園街１２４巷９弄１５號","OBJECTID":90687},"geometry":{"x":170331.87000000104,"y":2546031.2799999993}},{"attributes":{"ID":90688,"DIS_CODE":0,"TOWNNAME":"北區","LI":"開元里","LIN":"10鄰","STREET":"北園街","SECT":" ","MAREA":" ","LANE":"１２４巷","ALLEY":"９弄","HOUSE_NO":"１６號","E_COORD97":170342.16,"N_COORD97":2546038.3500000001,"ADDRESS":"北園街１２４巷９弄１６號","OBJECTID":90688},"geometry":{"x":170342.16000000108,"y":2546038.3499999996}},{"attributes":{"ID":90689,"DIS_CODE":0,"TOWNNAME":"北區","LI":"開元里","LIN":"10鄰","STREET":"北園街","SECT":" ","MAREA":" ","LANE":"１２４巷","ALLEY":"９弄","HOUSE_NO":"１７之１號","E_COORD97":170326.28,"N_COORD97":2546018.0499999998,"ADDRESS":"北園街１２４巷９弄１７之１號","OBJECTID":90689},"geometry":{"x":170326.28000000119,"y":2546018.0499999989}},{"attributes":{"ID":90690,"DIS_CODE":0,"TOWNNAME":"北區","LI":"開元里","LIN":"10鄰","STREET":"北園街","SECT":" ","MAREA":" ","LANE":"１２４巷","ALLEY":"９弄","HOUSE_NO":"１７之２號","E_COORD97":170319.07999999999,"N_COORD97":2546017.3500000001,"ADDRESS":"北園街１２４巷９弄１７之２號","OBJECTID":90690},"geometry":{"x":170319.08000000101,"y":2546017.3499999996}},{"attributes":{"ID":90691,"DIS_CODE":0,"TOWNNAME":"北區","LI":"開元里","LIN":"10鄰","STREET":"北園街","SECT":" ","MAREA":" ","LANE":"１２４巷","ALLEY":"９弄","HOUSE_NO":"１７號","E_COORD97":170323.03,"N_COORD97":2546029.6499999999,"ADDRESS":"北園街１２４巷９弄１７號","OBJECTID":90691},"geometry":{"x":170323.03000000119,"y":2546029.6500000004}},{"attributes":{"ID":90692,"DIS_CODE":0,"TOWNNAME":"北區","LI":"開元里","LIN":"10鄰","STREET":"北園街","SECT":" ","MAREA":" ","LANE":"１２４巷","ALLEY":"９弄","HOUSE_NO":"１８號","E_COORD97":170337.04999999999,"N_COORD97":2546039.3599999999,"ADDRESS":"北園街１２４巷９弄１８號","OBJECTID":90692},"geometry":{"x":170337.05000000075,"y":2546039.3600000013}},{"attributes":{"ID":90693,"DIS_CODE":0,"TOWNNAME":"北區","LI":"開元里","LIN":"10鄰","STREET":"北園街","SECT":" ","MAREA":" ","LANE":"１２４巷","ALLEY":"９弄","HOUSE_NO":"１９號","E_COORD97":170304.29000000001,"N_COORD97":2546031.8799999999,"ADDRESS":"北園街１２４巷９弄１９號","OBJECTID":90693},"geometry":{"x":170304.29000000004,"y":2546031.8800000008}},{"attributes":{"ID":90694,"DIS_CODE":0,"TOWNNAME":"北區","LI":"開元里","LIN":"10鄰","STREET":"北園街","SECT":" ","MAREA":" ","LANE":"１２４巷","ALLEY":"９弄","HOUSE_NO":"１號","E_COORD97":170356.37,"N_COORD97":2546018.23,"ADDRESS":"北園街１２４巷９弄１號","OBJECTID":90694},"geometry":{"x":170356.37000000011,"y":2546018.2300000023}},{"attributes":{"ID":90695,"DIS_CODE":0,"TOWNNAME":"北區","LI":"開元里","LIN":"10鄰","STREET":"北園街","SECT":" ","MAREA":" ","LANE":"１２４巷","ALLEY":"９弄","HOUSE_NO":"２０號","E_COORD97":170331.07999999999,"N_COORD97":2546039.3599999999,"ADDRESS":"北園街１２４巷９弄２０號","OBJECTID":90695},"geometry":{"x":170331.08000000007,"y":2546039.3600000013}},{"attributes":{"ID":90696,"DIS_CODE":0,"TOWNNAME":"北區","LI":"開元里","LIN":"10鄰","STREET":"北園街","SECT":" ","MAREA":" ","LANE":"１２４巷","ALLEY":"９弄","HOUSE_NO":"２２號","E_COORD97":170324.42999999999,"N_COORD97":2546039.3599999999,"ADDRESS":"北園街１２４巷９弄２２號","OBJECTID":90696},"geometry":{"x":170324.43000000063,"y":2546039.3600000013}},{"attributes":{"ID":90697,"DIS_CODE":0,"TOWNNAME":"北區","LI":"開元里","LIN":"10鄰","STREET":"北園街","SECT":" ","MAREA":" ","LANE":"１２４巷","ALLEY":"９弄","HOUSE_NO":"２４號","E_COORD97":170318.92999999999,"N_COORD97":2546039.1200000001,"ADDRESS":"北園街１２４巷９弄２４號","OBJECTID":90697},"geometry":{"x":170318.93000000156,"y":2546039.1200000029}},{"attributes":{"ID":90698,"DIS_CODE":0,"TOWNNAME":"北區","LI":"開元里","LIN":"10鄰","STREET":"北園街","SECT":" ","MAREA":" ","LANE":"１２４巷","ALLEY":"９弄","HOUSE_NO":"２６號","E_COORD97":170314.04999999999,"N_COORD97":2546039.5899999999,"ADDRESS":"北園街１２４巷９弄２６號","OBJECTID":90698},"geometry":{"x":170314.04999999981,"y":2546039.5899999999}},{"attributes":{"ID":90699,"DIS_CODE":0,"TOWNNAME":"北區","LI":"開元里","LIN":"10鄰","STREET":"北園街","SECT":" ","MAREA":" ","LANE":"１２４巷","ALLEY":"９弄","HOUSE_NO":"２８號","E_COORD97":170308.01999999999,"N_COORD97":2546039.3599999999,"ADDRESS":"北園街１２４巷９弄２８號","OBJECTID":90699},"geometry":{"x":170308.02000000142,"y":2546039.3600000013}},{"attributes":{"ID":90700,"DIS_CODE":0,"TOWNNAME":"北區","LI":"開元里","LIN":"10鄰","STREET":"北園街","SECT":" ","MAREA":" ","LANE":"１２４巷","ALLEY":"９弄","HOUSE_NO":"２號","E_COORD97":170384.92000000001,"N_COORD97":2546039.04,"ADDRESS":"北園街１２４巷９弄２號","OBJECTID":90700},"geometry":{"x":170384.91999999993,"y":2546039.0399999991}},{"attributes":{"ID":90701,"DIS_CODE":0,"TOWNNAME":"北區","LI":"開元里","LIN":"10鄰","STREET":"北園街","SECT":" ","MAREA":" ","LANE":"１２４巷","ALLEY":"９弄","HOUSE_NO":"３號","E_COORD97":170357.26999999999,"N_COORD97":2546032.4399999999,"ADDRESS":"北園街１２４巷９弄３號","OBJECTID":90701},"geometry":{"x":170357.27000000048,"y":2546032.4400000013}},{"attributes":{"ID":90702,"DIS_CODE":0,"TOWNNAME":"北區","LI":"開元里","LIN":"10鄰","STREET":"北園街","SECT":" ","MAREA":" ","LANE":"１２４巷","ALLEY":"９弄","HOUSE_NO":"４號","E_COORD97":170377.70999999999,"N_COORD97":2546038.9700000002,"ADDRESS":"北園街１２４巷９弄４號","OBJECTID":90702},"geometry":{"x":170377.70999999996,"y":2546038.9700000044}},{"attributes":{"ID":90703,"DIS_CODE":0,"TOWNNAME":"北區","LI":"開元里","LIN":"10鄰","STREET":"北園街","SECT":" ","MAREA":" ","LANE":"１２４巷","ALLEY":"９弄","HOUSE_NO":"５號","E_COORD97":170352.94,"N_COORD97":2546031.0499999998,"ADDRESS":"北園街１２４巷９弄５號","OBJECTID":90703},"geometry":{"x":170352.94000000041,"y":2546031.0500000007}},{"attributes":{"ID":90704,"DIS_CODE":0,"TOWNNAME":"北區","LI":"開元里","LIN":"10鄰","STREET":"北園街","SECT":" ","MAREA":" ","LANE":"１２４巷","ALLEY":"９弄","HOUSE_NO":"６號","E_COORD97":170368.26000000001,"N_COORD97":2546038.5099999998,"ADDRESS":"北園街１２４巷９弄６號","OBJECTID":90704},"geometry":{"x":170368.26000000071,"y":2546038.5100000016}},{"attributes":{"ID":90705,"DIS_CODE":0,"TOWNNAME":"北區","LI":"開元里","LIN":"10鄰","STREET":"北園街","SECT":" ","MAREA":" ","LANE":"１２４巷","ALLEY":"９弄","HOUSE_NO":"６號之１","E_COORD97":170373.07000000001,"N_COORD97":2546038.5099999998,"ADDRESS":"北園街１２４巷９弄６號之１","OBJECTID":90705},"geometry":{"x":170373.07000000123,"y":2546038.5100000016}},{"attributes":{"ID":90706,"DIS_CODE":0,"TOWNNAME":"北區","LI":"開元里","LIN":"10鄰","STREET":"北園街","SECT":" ","MAREA":" ","LANE":"１２４巷","ALLEY":"９弄","HOUSE_NO":"７號","E_COORD97":170350.14999999999,"N_COORD97":2546030.9700000002,"ADDRESS":"北園街１２４巷９弄７號","OBJECTID":90706},"geometry":{"x":170350.15000000037,"y":2546030.9700000007}},{"attributes":{"ID":90707,"DIS_CODE":0,"TOWNNAME":"北區","LI":"開元里","LIN":"10鄰","STREET":"北園街","SECT":" ","MAREA":" ","LANE":"１２４巷","ALLEY":"９弄","HOUSE_NO":"８號","E_COORD97":170363.29999999999,"N_COORD97":2546038.6600000001,"ADDRESS":"北園街１２４巷９弄８號","OBJECTID":90707},"geometry":{"x":170363.29999999981,"y":2546038.660000002}},{"attributes":{"ID":90708,"DIS_CODE":0,"TOWNNAME":"北區","LI":"開元里","LIN":"10鄰","STREET":"北園街","SECT":" ","MAREA":" ","LANE":"１２４巷","ALLEY":"９弄","HOUSE_NO":"９號","E_COORD97":170345.57999999999,"N_COORD97":2546031.3599999999,"ADDRESS":"北園街１２４巷９弄９號","OBJECTID":90708},"geometry":{"x":170345.58000000101,"y":2546031.3599999994}},{"attributes":{"ID":90709,"DIS_CODE":0,"TOWNNAME":"南區","LI":"松安里","LIN":"10鄰","STREET":"興南街","SECT":" ","MAREA":" ","LANE":"２５２巷","ALLEY":"１１４弄","HOUSE_NO":"１１號","E_COORD97":165903.76000000001,"N_COORD97":2536053.1099999999,"ADDRESS":"興南街２５２巷１１４弄１１號","OBJECTID":90709},"geometry":{"x":165903.75999999978,"y":2536053.1100000013}},{"attributes":{"ID":90710,"DIS_CODE":0,"TOWNNAME":"南區","LI":"松安里","LIN":"10鄰","STREET":"興南街","SECT":" ","MAREA":" ","LANE":"２５２巷","ALLEY":"６６弄","HOUSE_NO":"１０號","E_COORD97":165934.19,"N_COORD97":2535926.98,"ADDRESS":"興南街２５２巷６６弄１０號","OBJECTID":90710},"geometry":{"x":165934.19000000227,"y":2535926.9800000004}},{"attributes":{"ID":90711,"DIS_CODE":0,"TOWNNAME":"南區","LI":"松安里","LIN":"10鄰","STREET":"興南街","SECT":" ","MAREA":" ","LANE":"２５２巷","ALLEY":"６６弄","HOUSE_NO":"１１號","E_COORD97":165918.19,"N_COORD97":2535937.54,"ADDRESS":"興南街２５２巷６６弄１１號","OBJECTID":90711},"geometry":{"x":165918.19000000041,"y":2535937.540000001}},{"attributes":{"ID":90712,"DIS_CODE":0,"TOWNNAME":"南區","LI":"松安里","LIN":"10鄰","STREET":"興南街","SECT":" ","MAREA":" ","LANE":"２５２巷","ALLEY":"６６弄","HOUSE_NO":"１２號","E_COORD97":165938.20000000001,"N_COORD97":2535927.98,"ADDRESS":"興南街２５２巷６６弄１２號","OBJECTID":90712},"geometry":{"x":165938.20000000019,"y":2535927.9800000004}},{"attributes":{"ID":90713,"DIS_CODE":0,"TOWNNAME":"南區","LI":"松安里","LIN":"10鄰","STREET":"興南街","SECT":" ","MAREA":" ","LANE":"２５２巷","ALLEY":"６６弄","HOUSE_NO":"１３號","E_COORD97":165923.48000000001,"N_COORD97":2535937.9700000002,"ADDRESS":"興南街２５２巷６６弄１３號","OBJECTID":90713},"geometry":{"x":165923.48000000045,"y":2535937.9700000007}},{"attributes":{"ID":90714,"DIS_CODE":0,"TOWNNAME":"南區","LI":"松安里","LIN":"10鄰","STREET":"興南街","SECT":" ","MAREA":" ","LANE":"２５２巷","ALLEY":"６６弄","HOUSE_NO":"１４號","E_COORD97":165943.04999999999,"N_COORD97":2535929.3999999999,"ADDRESS":"興南街２５２巷６６弄１４號","OBJECTID":90714},"geometry":{"x":165943.05000000075,"y":2535929.4000000022}},{"attributes":{"ID":90715,"DIS_CODE":0,"TOWNNAME":"南區","LI":"松安里","LIN":"10鄰","STREET":"興南街","SECT":" ","MAREA":" ","LANE":"２５２巷","ALLEY":"６６弄","HOUSE_NO":"１５號","E_COORD97":165927.76000000001,"N_COORD97":2535939.3999999999,"ADDRESS":"興南街２５２巷６６弄１５號","OBJECTID":90715},"geometry":{"x":165927.75999999885,"y":2535939.4000000041}},{"attributes":{"ID":90716,"DIS_CODE":0,"TOWNNAME":"中西區","LI":"民主里","LIN":"4鄰","STREET":"尊王路","SECT":" ","MAREA":" ","LANE":" ","ALLEY":" ","HOUSE_NO":"１０２號","E_COORD97":167490.5,"N_COORD97":2543611.7999999998,"ADDRESS":"尊王路１０２號","OBJECTID":90716},"geometry":{"x":167490.5,"y":2543611.8000000007}},{"attributes":{"ID":90717,"DIS_CODE":0,"TOWNNAME":"中西區","LI":"民主里","LIN":"1鄰","STREET":"尊王路","SECT":" ","MAREA":" ","LANE":" ","ALLEY":" ","HOUSE_NO":"９３號","E_COORD97":167509.79999999999,"N_COORD97":2543582.9399999999,"ADDRESS":"尊王路９３號","OBJECTID":90717},"geometry":{"x":167509.80000000075,"y":2543582.9399999995}},{"attributes":{"ID":90718,"DIS_CODE":0,"TOWNNAME":"中西區","LI":"保安里","LIN":"6鄰","STREET":"尊王路","SECT":" ","MAREA":" ","LANE":" ","ALLEY":" ","HOUSE_NO":"８０號","E_COORD97":167569.64000000001,"N_COORD97":2543599.4100000001,"ADDRESS":"尊王路８０號","OBJECTID":90718},"geometry":{"x":167569.64000000153,"y":2543599.410000002}},{"attributes":{"ID":90719,"DIS_CODE":0,"TOWNNAME":"中西區","LI":"大涼里","LIN":"3鄰","STREET":"尊王路","SECT":" ","MAREA":" ","LANE":" ","ALLEY":" ","HOUSE_NO":"１６７號","E_COORD97":167206.48000000001,"N_COORD97":2543652.6600000001,"ADDRESS":"尊王路１６７號","OBJECTID":90719},"geometry":{"x":167206.48000000045,"y":2543652.6600000001}},{"attributes":{"ID":90720,"DIS_CODE":0,"TOWNNAME":"中西區","LI":"民主里","LIN":"8鄰","STREET":"尊王路","SECT":" ","MAREA":" ","LANE":" ","ALLEY":" ","HOUSE_NO":"１２７號","E_COORD97":167380.45000000001,"N_COORD97":2543610.3300000001,"ADDRESS":"尊王路１２７號","OBJECTID":90720},"geometry":{"x":167380.45000000112,"y":2543610.3300000001}},{"attributes":{"ID":90721,"DIS_CODE":0,"TOWNNAME":"中西區","LI":"民主里","LIN":"8鄰","STREET":"尊王路","SECT":" ","MAREA":" ","LANE":" ","ALLEY":" ","HOUSE_NO":"１２９號","E_COORD97":167376.09,"N_COORD97":2543611.3300000001,"ADDRESS":"尊王路１２９號","OBJECTID":90721},"geometry":{"x":167376.08999999985,"y":2543611.3300000001}},{"attributes":{"ID":90722,"DIS_CODE":0,"TOWNNAME":"中西區","LI":"民生里","LIN":"4鄰","STREET":"武英街","SECT":" ","MAREA":" ","LANE":" ","ALLEY":" ","HOUSE_NO":"４７號","E_COORD97":167092.57999999999,"N_COORD97":2543316.1099999999,"ADDRESS":"武英街４７號","OBJECTID":90722},"geometry":{"x":167092.58000000101,"y":2543316.1099999994}},{"attributes":{"ID":90723,"DIS_CODE":0,"TOWNNAME":"中西區","LI":"三合里","LIN":" ","STREET":"金華路","SECT":"四段","MAREA":" ","LANE":" ","ALLEY":" ","HOUSE_NO":"１６６號","E_COORD97":167549.17000000001,"N_COORD97":2544541.4700000002,"ADDRESS":"金華路四段１６６號","OBJECTID":90723},"geometry":{"x":167549.16999999899,"y":2544541.4700000025}},{"attributes":{"ID":90724,"DIS_CODE":0,"TOWNNAME":"中西區","LI":"三合里","LIN":" ","STREET":"海安路","SECT":" ","MAREA":" ","LANE":" ","ALLEY":" ","HOUSE_NO":"４２９號","E_COORD97":167761.79999999999,"N_COORD97":2544398.2200000002,"ADDRESS":"海安路４２９號","OBJECTID":90724},"geometry":{"x":167761.80000000168,"y":2544398.2200000007}},{"attributes":{"ID":90725,"DIS_CODE":0,"TOWNNAME":"中西區","LI":"三合里","LIN":" ","STREET":"海安路","SECT":" ","MAREA":" ","LANE":" ","ALLEY":" ","HOUSE_NO":"２１號之７","E_COORD97":167745.60000000001,"N_COORD97":2544515.1299999999,"ADDRESS":"海安路２１號之７","OBJECTID":90725},"geometry":{"x":167745.59999999963,"y":2544515.1300000008}},{"attributes":{"ID":90726,"DIS_CODE":0,"TOWNNAME":"中西區","LI":"三合里","LIN":" ","STREET":"海安路","SECT":" ","MAREA":" ","LANE":" ","ALLEY":" ","HOUSE_NO":"４７１號","E_COORD97":167806.45000000001,"N_COORD97":2544493.0899999999,"ADDRESS":"海安路４７１號","OBJECTID":90726},"geometry":{"x":167806.45000000019,"y":2544493.0899999999}},{"attributes":{"ID":90727,"DIS_CODE":0,"TOWNNAME":"將軍區","LI":"長榮里","LIN":"1鄰","STREET":" ","SECT":" ","MAREA":"長榮","LANE":" ","ALLEY":" ","HOUSE_NO":"３號","E_COORD97":163877.60000000001,"N_COORD97":2566491.5499999998,"ADDRESS":"長榮３號","OBJECTID":90727},"geometry":{"x":163877.60000000149,"y":2566491.5500000007}},{"attributes":{"ID":90728,"DIS_CODE":0,"TOWNNAME":"中西區","LI":"民權里","LIN":" ","STREET":"康樂街","SECT":" ","MAREA":" ","LANE":" ","ALLEY":" ","HOUSE_NO":"２６５號","E_COORD97":167521.88,"N_COORD97":2544112.2799999998,"ADDRESS":"康樂街２６５號","OBJECTID":90728},"geometry":{"x":167521.87999999989,"y":2544112.2799999993}},{"attributes":{"ID":90729,"DIS_CODE":0,"TOWNNAME":"中西區","LI":"三合里","LIN":" ","STREET":"康樂街","SECT":" ","MAREA":" ","LANE":" ","ALLEY":" ","HOUSE_NO":"３６０號","E_COORD97":167702.19,"N_COORD97":2544529.6699999999,"ADDRESS":"康樂街３６０號","OBJECTID":90729},"geometry":{"x":167702.19000000227,"y":2544529.6700000018}},{"attributes":{"ID":90730,"DIS_CODE":0,"TOWNNAME":"南化區","LI":"南化里","LIN":"12鄰","STREET":" ","SECT":" ","MAREA":"南化","LANE":" ","ALLEY":" ","HOUSE_NO":"２７０號","E_COORD97":197332.04000000001,"N_COORD97":2548639.75,"ADDRESS":"南化２７０號","OBJECTID":90730},"geometry":{"x":197332.04000000097,"y":2548639.75}},{"attributes":{"ID":90731,"DIS_CODE":0,"TOWNNAME":"南區","LI":"松安里","LIN":"10鄰","STREET":"興南街","SECT":" ","MAREA":" ","LANE":"２５２巷","ALLEY":"６６弄","HOUSE_NO":"１６號","E_COORD97":165946.76999999999,"N_COORD97":2535929.8300000001,"ADDRESS":"興南街２５２巷６６弄１６號","OBJECTID":90731},"geometry":{"x":165946.77000000048,"y":2535929.8300000019}},{"attributes":{"ID":90732,"DIS_CODE":0,"TOWNNAME":"南區","LI":"松安里","LIN":"10鄰","STREET":"興南街","SECT":" ","MAREA":" ","LANE":"２５２巷","ALLEY":"６６弄","HOUSE_NO":"１７號","E_COORD97":165932.04999999999,"N_COORD97":2535939.8300000001,"ADDRESS":"興南街２５２巷６６弄１７號","OBJECTID":90732},"geometry":{"x":165932.04999999981,"y":2535939.8300000019}},{"attributes":{"ID":90733,"DIS_CODE":0,"TOWNNAME":"南區","LI":"松安里","LIN":"10鄰","STREET":"興南街","SECT":" ","MAREA":" ","LANE":"２５２巷","ALLEY":"６６弄","HOUSE_NO":"１８號","E_COORD97":165951.76999999999,"N_COORD97":2535931.1200000001,"ADDRESS":"興南街２５２巷６６弄１８號","OBJECTID":90733},"geometry":{"x":165951.77000000048,"y":2535931.120000001}},{"attributes":{"ID":90734,"DIS_CODE":0,"TOWNNAME":"南區","LI":"松安里","LIN":"10鄰","STREET":"興南街","SECT":" ","MAREA":" ","LANE":"２５２巷","ALLEY":"６６弄","HOUSE_NO":"１９號","E_COORD97":165935.91,"N_COORD97":2535940.8300000001,"ADDRESS":"興南街２５２巷６６弄１９號","OBJECTID":90734},"geometry":{"x":165935.91000000108,"y":2535940.8300000019}},{"attributes":{"ID":90735,"DIS_CODE":0,"TOWNNAME":"南區","LI":"松安里","LIN":"10鄰","STREET":"興南街","SECT":" ","MAREA":" ","LANE":"２５２巷","ALLEY":"６６弄","HOUSE_NO":"１號","E_COORD97":165897.47,"N_COORD97":2535932.9700000002,"ADDRESS":"興南街２５２巷６６弄１號","OBJECTID":90735},"geometry":{"x":165897.46999999881,"y":2535932.9700000025}},{"attributes":{"ID":90736,"DIS_CODE":0,"TOWNNAME":"南區","LI":"松安里","LIN":"10鄰","STREET":"興南街","SECT":" ","MAREA":" ","LANE":"２５２巷","ALLEY":"６６弄","HOUSE_NO":"２０號","E_COORD97":165955.63,"N_COORD97":2535931.9700000002,"ADDRESS":"興南街２５２巷６６弄２０號","OBJECTID":90736},"geometry":{"x":165955.62999999989,"y":2535931.9700000007}},{"attributes":{"ID":90737,"DIS_CODE":0,"TOWNNAME":"南區","LI":"松安里","LIN":"10鄰","STREET":"興南街","SECT":" ","MAREA":" ","LANE":"２５２巷","ALLEY":"６６弄","HOUSE_NO":"２１號","E_COORD97":165939.91,"N_COORD97":2535942.6800000002,"ADDRESS":"興南街２５２巷６６弄２１號","OBJECTID":90737},"geometry":{"x":165939.91000000108,"y":2535942.6799999997}},{"attributes":{"ID":90738,"DIS_CODE":0,"TOWNNAME":"南區","LI":"松安里","LIN":"10鄰","STREET":"興南街","SECT":" ","MAREA":" ","LANE":"２５２巷","ALLEY":"６６弄","HOUSE_NO":"２２號","E_COORD97":165960.35000000001,"N_COORD97":2535931.8300000001,"ADDRESS":"興南街２５２巷６６弄２２號","OBJECTID":90738},"geometry":{"x":165960.34999999963,"y":2535931.8300000001}},{"attributes":{"ID":90739,"DIS_CODE":0,"TOWNNAME":"南區","LI":"松安里","LIN":"10鄰","STREET":"興南街","SECT":" ","MAREA":" ","LANE":"２５２巷","ALLEY":"６６弄","HOUSE_NO":"２３號","E_COORD97":165944.20000000001,"N_COORD97":2535942.25,"ADDRESS":"興南街２５２巷６６弄２３號","OBJECTID":90739},"geometry":{"x":165944.20000000112,"y":2535942.25}},{"attributes":{"ID":90740,"DIS_CODE":0,"TOWNNAME":"南區","LI":"松安里","LIN":"10鄰","STREET":"興南街","SECT":" ","MAREA":" ","LANE":"２５２巷","ALLEY":"６６弄","HOUSE_NO":"２５號","E_COORD97":165947.76999999999,"N_COORD97":2535943.6800000002,"ADDRESS":"興南街２５２巷６６弄２５號","OBJECTID":90740},"geometry":{"x":165947.76999999955,"y":2535943.6800000034}},{"attributes":{"ID":90741,"DIS_CODE":0,"TOWNNAME":"左鎮區","LI":"中正里","LIN":"12鄰","STREET":" ","SECT":" ","MAREA":"中正","LANE":" ","ALLEY":" ","HOUSE_NO":"１６４號之２","E_COORD97":189472.07999999999,"N_COORD97":2550700.2999999998,"ADDRESS":"中正１６４號之２","OBJECTID":90741},"geometry":{"x":189472.07999999914,"y":2550700.3000000026}},{"attributes":{"ID":90742,"DIS_CODE":0,"TOWNNAME":"南區","LI":"松安里","LIN":"10鄰","STREET":"興南街","SECT":" ","MAREA":" ","LANE":"２５２巷","ALLEY":"６６弄","HOUSE_NO":"２７號","E_COORD97":165952.48999999999,"N_COORD97":2535944.3999999999,"ADDRESS":"興南街２５２巷６６弄２７號","OBJECTID":90742},"geometry":{"x":165952.49000000115,"y":2535944.4000000004}},{"attributes":{"ID":90743,"DIS_CODE":0,"TOWNNAME":"南區","LI":"松安里","LIN":"10鄰","STREET":"興南街","SECT":" ","MAREA":" ","LANE":"２５２巷","ALLEY":"６６弄","HOUSE_NO":"２號","E_COORD97":165916.62,"N_COORD97":2535922.2599999998,"ADDRESS":"興南街２５２巷６６弄２號","OBJECTID":90743},"geometry":{"x":165916.62000000011,"y":2535922.2599999998}},{"attributes":{"ID":90744,"DIS_CODE":0,"TOWNNAME":"南區","LI":"松安里","LIN":"10鄰","STREET":"興南街","SECT":" ","MAREA":" ","LANE":"２５２巷","ALLEY":"６６弄","HOUSE_NO":"３號","E_COORD97":165901.60999999999,"N_COORD97":2535933.6899999999,"ADDRESS":"興南街２５２巷６６弄３號","OBJECTID":90744},"geometry":{"x":165901.61000000034,"y":2535933.6900000013}},{"attributes":{"ID":90745,"DIS_CODE":0,"TOWNNAME":"南區","LI":"新興里","LIN":"4鄰","STREET":"健康路","SECT":"二段","MAREA":" ","LANE":" ","ALLEY":" ","HOUSE_NO":"５８號","E_COORD97":167564.70000000001,"N_COORD97":2542474.7200000002,"ADDRESS":"健康路二段５８號","OBJECTID":90745},"geometry":{"x":167564.70000000205,"y":2542474.7200000025}},{"attributes":{"ID":90746,"DIS_CODE":0,"TOWNNAME":"南區","LI":"新興里","LIN":"4鄰","STREET":"健康路","SECT":"二段","MAREA":" ","LANE":" ","ALLEY":" ","HOUSE_NO":"６０號","E_COORD97":167561.67000000001,"N_COORD97":2542474.4700000002,"ADDRESS":"健康路二段６０號","OBJECTID":90746},"geometry":{"x":167561.67000000086,"y":2542474.4700000007}},{"attributes":{"ID":90747,"DIS_CODE":0,"TOWNNAME":"南區","LI":"新興里","LIN":"4鄰","STREET":"健康路","SECT":"二段","MAREA":" ","LANE":" ","ALLEY":" ","HOUSE_NO":"６２號","E_COORD97":167558.47,"N_COORD97":2542474.6400000001,"ADDRESS":"健康路二段６２號","OBJECTID":90747},"geometry":{"x":167558.46999999974,"y":2542474.6400000043}},{"attributes":{"ID":90748,"DIS_CODE":0,"TOWNNAME":"南區","LI":"新興里","LIN":"4鄰","STREET":"健康路","SECT":"二段","MAREA":" ","LANE":" ","ALLEY":" ","HOUSE_NO":"６４號","E_COORD97":167554.92999999999,"N_COORD97":2542474.4700000002,"ADDRESS":"健康路二段６４號","OBJECTID":90748},"geometry":{"x":167554.9299999997,"y":2542474.4700000007}},{"attributes":{"ID":90749,"DIS_CODE":0,"TOWNNAME":"南化區","LI":"玉山里","LIN":"12鄰","STREET":" ","SECT":" ","MAREA":"玉山","LANE":" ","ALLEY":" ","HOUSE_NO":"１３６號之１","E_COORD97":201452.75,"N_COORD97":2553686.7999999998,"ADDRESS":"玉山１３６號之１","OBJECTID":90749},"geometry":{"x":201452.75000000093,"y":2553686.8000000026}},{"attributes":{"ID":90750,"DIS_CODE":0,"TOWNNAME":"南化區","LI":"小崙里","LIN":"12鄰","STREET":" ","SECT":" ","MAREA":"小崙","LANE":" ","ALLEY":" ","HOUSE_NO":"１２２號","E_COORD97":198819.72,"N_COORD97":2550846.75,"ADDRESS":"小崙１２２號","OBJECTID":90750},"geometry":{"x":198819.71999999974,"y":2550846.75}},{"attributes":{"ID":90751,"DIS_CODE":0,"TOWNNAME":"南區","LI":"松安里","LIN":"10鄰","STREET":"興南街","SECT":" ","MAREA":" ","LANE":"２５２巷","ALLEY":"６６弄","HOUSE_NO":"４號","E_COORD97":165921.32999999999,"N_COORD97":2535923.98,"ADDRESS":"興南街２５２巷６６弄４號","OBJECTID":90751},"geometry":{"x":165921.33000000101,"y":2535923.9800000004}},{"attributes":{"ID":90752,"DIS_CODE":0,"TOWNNAME":"南區","LI":"松安里","LIN":"10鄰","STREET":"興南街","SECT":" ","MAREA":" ","LANE":"２５２巷","ALLEY":"６６弄","HOUSE_NO":"５號","E_COORD97":165906.32999999999,"N_COORD97":2535933.9700000002,"ADDRESS":"興南街２５２巷６６弄５號","OBJECTID":90752},"geometry":{"x":165906.33000000101,"y":2535933.9700000025}},{"attributes":{"ID":90753,"DIS_CODE":0,"TOWNNAME":"南區","LI":"松安里","LIN":"10鄰","STREET":"興南街","SECT":" ","MAREA":" ","LANE":"２５２巷","ALLEY":"６６弄","HOUSE_NO":"６號","E_COORD97":165925.62,"N_COORD97":2535925.5499999998,"ADDRESS":"興南街２５２巷６６弄６號","OBJECTID":90753},"geometry":{"x":165925.62000000011,"y":2535925.5500000026}},{"attributes":{"ID":90754,"DIS_CODE":0,"TOWNNAME":"南區","LI":"松安里","LIN":"10鄰","STREET":"興南街","SECT":" ","MAREA":" ","LANE":"２５２巷","ALLEY":"６６弄","HOUSE_NO":"７號","E_COORD97":165910.19,"N_COORD97":2535935.54,"ADDRESS":"興南街２５２巷６６弄７號","OBJECTID":90754},"geometry":{"x":165910.19000000041,"y":2535935.5399999991}},{"attributes":{"ID":90755,"DIS_CODE":0,"TOWNNAME":"南區","LI":"松安里","LIN":"10鄰","STREET":"興南街","SECT":" ","MAREA":" ","LANE":"２５２巷","ALLEY":"６６弄","HOUSE_NO":"８號","E_COORD97":165929.91,"N_COORD97":2535925.5499999998,"ADDRESS":"興南街２５２巷６６弄８號","OBJECTID":90755},"geometry":{"x":165929.91000000015,"y":2535925.5500000026}},{"attributes":{"ID":90756,"DIS_CODE":0,"TOWNNAME":"南區","LI":"松安里","LIN":"10鄰","STREET":"興南街","SECT":" ","MAREA":" ","LANE":"２５２巷","ALLEY":"６６弄","HOUSE_NO":"９號","E_COORD97":165913.89999999999,"N_COORD97":2535935.8300000001,"ADDRESS":"興南街２５２巷６６弄９號","OBJECTID":90756},"geometry":{"x":165913.89999999944,"y":2535935.8299999982}},{"attributes":{"ID":90757,"DIS_CODE":0,"TOWNNAME":"南區","LI":"松安里","LIN":"10鄰","STREET":"興南街","SECT":" ","MAREA":" ","LANE":"２５２巷","ALLEY":"８０弄","HOUSE_NO":"１０號","E_COORD97":165891.48999999999,"N_COORD97":2535955.4399999999,"ADDRESS":"興南街２５２巷８０弄１０號","OBJECTID":90757},"geometry":{"x":165891.49000000115,"y":2535955.4400000013}},{"attributes":{"ID":90758,"DIS_CODE":0,"TOWNNAME":"南區","LI":"松安里","LIN":"10鄰","STREET":"興南街","SECT":" ","MAREA":" ","LANE":"２５２巷","ALLEY":"８０弄","HOUSE_NO":"１１號","E_COORD97":165907.41,"N_COORD97":2535995.9500000002,"ADDRESS":"興南街２５２巷８０弄１１號","OBJECTID":90758},"geometry":{"x":165907.41000000108,"y":2535995.9500000011}},{"attributes":{"ID":90759,"DIS_CODE":0,"TOWNNAME":"南區","LI":"松安里","LIN":"10鄰","STREET":"興南街","SECT":" ","MAREA":" ","LANE":"２５２巷","ALLEY":"８０弄","HOUSE_NO":"１２號","E_COORD97":165893.35999999999,"N_COORD97":2535950.9700000002,"ADDRESS":"興南街２５２巷８０弄１２號","OBJECTID":90759},"geometry":{"x":165893.36000000034,"y":2535950.9700000025}},{"attributes":{"ID":90760,"DIS_CODE":0,"TOWNNAME":"南區","LI":"松安里","LIN":"10鄰","STREET":"興南街","SECT":" ","MAREA":" ","LANE":"２５２巷","ALLEY":"８０弄","HOUSE_NO":"１３號","E_COORD97":165912.04999999999,"N_COORD97":2535997.98,"ADDRESS":"興南街２５２巷８０弄１３號","OBJECTID":90760},"geometry":{"x":165912.04999999981,"y":2535997.9800000023}},{"attributes":{"ID":90761,"DIS_CODE":0,"TOWNNAME":"南區","LI":"松安里","LIN":"10鄰","STREET":"興南街","SECT":" ","MAREA":" ","LANE":"２５２巷","ALLEY":"８０弄","HOUSE_NO":"１４號","E_COORD97":165911.04999999999,"N_COORD97":2535954.3999999999,"ADDRESS":"興南街２５２巷８０弄１４號","OBJECTID":90761},"geometry":{"x":165911.05000000075,"y":2535954.4000000022}},{"attributes":{"ID":90762,"DIS_CODE":0,"TOWNNAME":"南區","LI":"松安里","LIN":"10鄰","STREET":"興南街","SECT":" ","MAREA":" ","LANE":"２５２巷","ALLEY":"８０弄","HOUSE_NO":"１５號","E_COORD97":165916.69,"N_COORD97":2535996.96,"ADDRESS":"興南街２５２巷８０弄１５號","OBJECTID":90762},"geometry":{"x":165916.69000000041,"y":2535996.9600000046}},{"attributes":{"ID":90763,"DIS_CODE":0,"TOWNNAME":"南區","LI":"松安里","LIN":"10鄰","STREET":"興南街","SECT":" ","MAREA":" ","LANE":"２５２巷","ALLEY":"８０弄","HOUSE_NO":"１６號","E_COORD97":165910.73000000001,"N_COORD97":2535959.29,"ADDRESS":"興南街２５２巷８０弄１６號","OBJECTID":90763},"geometry":{"x":165910.73000000138,"y":2535959.290000001}},{"attributes":{"ID":90764,"DIS_CODE":0,"TOWNNAME":"南區","LI":"松安里","LIN":"10鄰","STREET":"興南街","SECT":" ","MAREA":" ","LANE":"２５２巷","ALLEY":"８０弄","HOUSE_NO":"１７號","E_COORD97":165930.17000000001,"N_COORD97":2536002.4700000002,"ADDRESS":"興南街２５２巷８０弄１７號","OBJECTID":90764},"geometry":{"x":165930.16999999993,"y":2536002.4700000007}},{"attributes":{"ID":90765,"DIS_CODE":0,"TOWNNAME":"南區","LI":"松安里","LIN":"10鄰","STREET":"興南街","SECT":" ","MAREA":" ","LANE":"２５２巷","ALLEY":"８０弄","HOUSE_NO":"１８號","E_COORD97":165908.85999999999,"N_COORD97":2535964.7999999998,"ADDRESS":"興南街２５２巷８０弄１８號","OBJECTID":90765},"geometry":{"x":165908.86000000034,"y":2535964.8000000026}},{"attributes":{"ID":90766,"DIS_CODE":0,"TOWNNAME":"南區","LI":"松安里","LIN":"10鄰","STREET":"興南街","SECT":" ","MAREA":" ","LANE":"２５２巷","ALLEY":"８０弄","HOUSE_NO":"１９號","E_COORD97":165928.72,"N_COORD97":2536010.73,"ADDRESS":"興南街２５２巷８０弄１９號","OBJECTID":90766},"geometry":{"x":165928.72000000067,"y":2536010.7300000004}},{"attributes":{"ID":90767,"DIS_CODE":0,"TOWNNAME":"南區","LI":"松安里","LIN":"10鄰","STREET":"興南街","SECT":" ","MAREA":" ","LANE":"２５２巷","ALLEY":"８０弄","HOUSE_NO":"１號","E_COORD97":165884.48999999999,"N_COORD97":2535994.0499999998,"ADDRESS":"興南街２５２巷８０弄１號","OBJECTID":90767},"geometry":{"x":165884.49000000209,"y":2535994.0500000026}},{"attributes":{"ID":90768,"DIS_CODE":0,"TOWNNAME":"南區","LI":"松安里","LIN":"10鄰","STREET":"興南街","SECT":" ","MAREA":" ","LANE":"２５２巷","ALLEY":"８０弄","HOUSE_NO":"２０號","E_COORD97":165906.88,"N_COORD97":2535970.3100000001,"ADDRESS":"興南街２５２巷８０弄２０號","OBJECTID":90768},"geometry":{"x":165906.88000000175,"y":2535970.3099999987}},{"attributes":{"ID":90769,"DIS_CODE":0,"TOWNNAME":"南區","LI":"松安里","LIN":"10鄰","STREET":"興南街","SECT":" ","MAREA":" ","LANE":"２５２巷","ALLEY":"８０弄","HOUSE_NO":"２１號","E_COORD97":165926.54999999999,"N_COORD97":2536021.2999999998,"ADDRESS":"興南街２５２巷８０弄２１號","OBJECTID":90769},"geometry":{"x":165926.55000000075,"y":2536021.3000000007}},{"attributes":{"ID":90770,"DIS_CODE":0,"TOWNNAME":"南區","LI":"松安里","LIN":"10鄰","STREET":"興南街","SECT":" ","MAREA":" ","LANE":"２５２巷","ALLEY":"８０弄","HOUSE_NO":"２２號","E_COORD97":165906.04999999999,"N_COORD97":2535975.2000000002,"ADDRESS":"興南街２５２巷８０弄２２號","OBJECTID":90770},"geometry":{"x":165906.05000000075,"y":2535975.1999999993}},{"attributes":{"ID":90771,"DIS_CODE":0,"TOWNNAME":"南區","LI":"松安里","LIN":"10鄰","STREET":"興南街","SECT":" ","MAREA":" ","LANE":"２５２巷","ALLEY":"８０弄","HOUSE_NO":"２３號","E_COORD97":165925.53,"N_COORD97":2536028.3999999999,"ADDRESS":"興南街２５２巷８０弄２３號","OBJECTID":90771},"geometry":{"x":165925.53000000119,"y":2536028.4000000022}},{"attributes":{"ID":90772,"DIS_CODE":0,"TOWNNAME":"南區","LI":"松安里","LIN":"10鄰","STREET":"興南街","SECT":" ","MAREA":" ","LANE":"２５２巷","ALLEY":"８０弄","HOUSE_NO":"２４號","E_COORD97":165903.14000000001,"N_COORD97":2535981.1200000001,"ADDRESS":"興南街２５２巷８０弄２４號","OBJECTID":90772},"geometry":{"x":165903.14000000153,"y":2535981.120000001}},{"attributes":{"ID":90773,"DIS_CODE":0,"TOWNNAME":"將軍區","LI":"西和里","LIN":"15鄰","STREET":" ","SECT":" ","MAREA":"西湖","LANE":" ","ALLEY":" ","HOUSE_NO":"７號","E_COORD97":163170.10000000001,"N_COORD97":2566282.8100000001,"ADDRESS":"西湖７號","OBJECTID":90773},"geometry":{"x":163170.09999999963,"y":2566282.8100000005}},{"attributes":{"ID":90774,"DIS_CODE":0,"TOWNNAME":"中西區","LI":"大涼里","LIN":" ","STREET":"中正路","SECT":" ","MAREA":" ","LANE":" ","ALLEY":" ","HOUSE_NO":"３４３號之２３","E_COORD97":167247.79000000001,"N_COORD97":2543818.1099999999,"ADDRESS":"中正路３４３號之２３","OBJECTID":90774},"geometry":{"x":167247.79000000004,"y":2543818.1099999994}},{"attributes":{"ID":90775,"DIS_CODE":0,"TOWNNAME":"中西區","LI":"大涼里","LIN":" ","STREET":"金城街","SECT":" ","MAREA":" ","LANE":" ","ALLEY":" ","HOUSE_NO":"４５號","E_COORD97":166917.10000000001,"N_COORD97":2543698.4300000002,"ADDRESS":"金城街４５號","OBJECTID":90775},"geometry":{"x":166917.10000000149,"y":2543698.4299999997}},{"attributes":{"ID":90776,"DIS_CODE":0,"TOWNNAME":"中西區","LI":"大涼里","LIN":" ","STREET":"府前路","SECT":"二段","MAREA":" ","LANE":" ","ALLEY":" ","HOUSE_NO":"３１０號","E_COORD97":166859.75,"N_COORD97":2543672.2599999998,"ADDRESS":"府前路二段３１０號","OBJECTID":90776},"geometry":{"x":166859.75,"y":2543672.2599999998}},{"attributes":{"ID":90777,"DIS_CODE":0,"TOWNNAME":"中西區","LI":"大涼里","LIN":" ","STREET":"府前一街","SECT":" ","MAREA":" ","LANE":" ","ALLEY":" ","HOUSE_NO":"１６５號","E_COORD97":166677.07999999999,"N_COORD97":2544125.25,"ADDRESS":"府前一街１６５號","OBJECTID":90777},"geometry":{"x":166677.08000000194,"y":2544125.2500000019}},{"attributes":{"ID":90778,"DIS_CODE":0,"TOWNNAME":"中西區","LI":"中正里","LIN":" ","STREET":"康樂街","SECT":" ","MAREA":" ","LANE":" ","ALLEY":" ","HOUSE_NO":"１２０號","E_COORD97":167460.12,"N_COORD97":2543853.8599999999,"ADDRESS":"康樂街１２０號","OBJECTID":90778},"geometry":{"x":167460.12000000104,"y":2543853.8599999994}},{"attributes":{"ID":90779,"DIS_CODE":0,"TOWNNAME":"中西區","LI":" ","LIN":" ","STREET":"府前一街","SECT":" ","MAREA":" ","LANE":" ","ALLEY":" ","HOUSE_NO":"１２９號","E_COORD97":166700.42999999999,"N_COORD97":2544060.3100000001,"ADDRESS":"府前一街１２９號","OBJECTID":90779},"geometry":{"x":166700.43000000063,"y":2544060.3100000024}},{"attributes":{"ID":90780,"DIS_CODE":0,"TOWNNAME":"中西區","LI":"中正里","LIN":" ","STREET":"民生路","SECT":"二段","MAREA":" ","LANE":" ","ALLEY":" ","HOUSE_NO":"５１號之３","E_COORD97":167747.51999999999,"N_COORD97":2543902.1899999999,"ADDRESS":"民生路二段５１號之３","OBJECTID":90780},"geometry":{"x":167747.51999999955,"y":2543902.1899999995}},{"attributes":{"ID":90781,"DIS_CODE":0,"TOWNNAME":"中西區","LI":"中正里","LIN":" ","STREET":"國華街","SECT":"三段","MAREA":" ","LANE":" ","ALLEY":" ","HOUSE_NO":"１７號之２","E_COORD97":167727.42000000001,"N_COORD97":2543813.1099999999,"ADDRESS":"國華街三段１７號之２","OBJECTID":90781},"geometry":{"x":167727.42000000086,"y":2543813.1100000013}},{"attributes":{"ID":90782,"DIS_CODE":0,"TOWNNAME":"中西區","LI":"民主里","LIN":" ","STREET":"康樂街","SECT":" ","MAREA":" ","LANE":" ","ALLEY":" ","HOUSE_NO":"１６１號","E_COORD97":167417.54999999999,"N_COORD97":2543764.75,"ADDRESS":"康樂街１６１號","OBJECTID":90782},"geometry":{"x":167417.54999999981,"y":2543764.7500000037}},{"attributes":{"ID":90783,"DIS_CODE":0,"TOWNNAME":"中西區","LI":"元安里","LIN":" ","STREET":"西門路","SECT":"一段","MAREA":" ","LANE":" ","ALLEY":" ","HOUSE_NO":"７２３號","E_COORD97":167705.13,"N_COORD97":2543290.8300000001,"ADDRESS":"西門路一段７２３號","OBJECTID":90783},"geometry":{"x":167705.12999999989,"y":2543290.8300000019}},{"attributes":{"ID":90784,"DIS_CODE":0,"TOWNNAME":"南區","LI":"松安里","LIN":"10鄰","STREET":"興南街","SECT":" ","MAREA":" ","LANE":"２５２巷","ALLEY":"８０弄","HOUSE_NO":"２５號","E_COORD97":165924.81,"N_COORD97":2536036.3700000001,"ADDRESS":"興南街２５２巷８０弄２５號","OBJECTID":90784},"geometry":{"x":165924.80999999959,"y":2536036.3700000029}},{"attributes":{"ID":90785,"DIS_CODE":0,"TOWNNAME":"南區","LI":"松安里","LIN":"10鄰","STREET":"興南街","SECT":" ","MAREA":" ","LANE":"２５２巷","ALLEY":"８０弄","HOUSE_NO":"２６號","E_COORD97":165921.14000000001,"N_COORD97":2535984.5499999998,"ADDRESS":"興南街２５２巷８０弄２６號","OBJECTID":90785},"geometry":{"x":165921.13999999966,"y":2535984.5500000007}},{"attributes":{"ID":90786,"DIS_CODE":0,"TOWNNAME":"南區","LI":"松安里","LIN":"10鄰","STREET":"興南街","SECT":" ","MAREA":" ","LANE":"２５２巷","ALLEY":"８０弄","HOUSE_NO":"２７號","E_COORD97":165923.35999999999,"N_COORD97":2536047.2400000002,"ADDRESS":"興南街２５２巷８０弄２７號","OBJECTID":90786},"geometry":{"x":165923.36000000127,"y":2536047.2400000002}},{"attributes":{"ID":90787,"DIS_CODE":0,"TOWNNAME":"南區","LI":"松安里","LIN":"10鄰","STREET":"興南街","SECT":" ","MAREA":" ","LANE":"２５２巷","ALLEY":"８０弄","HOUSE_NO":"２８號","E_COORD97":165920.92999999999,"N_COORD97":2535979.3500000001,"ADDRESS":"興南街２５２巷８０弄２８號","OBJECTID":90787},"geometry":{"x":165920.9299999997,"y":2535979.3499999978}},{"attributes":{"ID":90788,"DIS_CODE":0,"TOWNNAME":"南區","LI":"松安里","LIN":"10鄰","STREET":"興南街","SECT":" ","MAREA":" ","LANE":"２５２巷","ALLEY":"８０弄","HOUSE_NO":"２號","E_COORD97":165889.09,"N_COORD97":2535977.27,"ADDRESS":"興南街２５２巷８０弄２號","OBJECTID":90788},"geometry":{"x":165889.09000000078,"y":2535977.2700000014}},{"attributes":{"ID":90789,"DIS_CODE":0,"TOWNNAME":"南區","LI":"松安里","LIN":"10鄰","STREET":"興南街","SECT":" ","MAREA":" ","LANE":"２５２巷","ALLEY":"８０弄","HOUSE_NO":"３０號","E_COORD97":165922.48999999999,"N_COORD97":2535973.6400000001,"ADDRESS":"興南街２５２巷８０弄３０號","OBJECTID":90789},"geometry":{"x":165922.49000000115,"y":2535973.6400000006}},{"attributes":{"ID":90790,"DIS_CODE":0,"TOWNNAME":"南區","LI":"松安里","LIN":"10鄰","STREET":"興南街","SECT":" ","MAREA":" ","LANE":"２５２巷","ALLEY":"８０弄","HOUSE_NO":"３２號","E_COORD97":165924.04999999999,"N_COORD97":2535968.1299999999,"ADDRESS":"興南街２５２巷８０弄３２號","OBJECTID":90790},"geometry":{"x":165924.04999999981,"y":2535968.1300000008}},{"attributes":{"ID":90791,"DIS_CODE":0,"TOWNNAME":"南區","LI":"松安里","LIN":"10鄰","STREET":"興南街","SECT":" ","MAREA":" ","LANE":"２５２巷","ALLEY":"８０弄","HOUSE_NO":"３４號","E_COORD97":165925.09,"N_COORD97":2535962.4100000001,"ADDRESS":"興南街２５２巷８０弄３４號","OBJECTID":90791},"geometry":{"x":165925.08999999985,"y":2535962.4100000001}},{"attributes":{"ID":90792,"DIS_CODE":0,"TOWNNAME":"南區","LI":"松安里","LIN":"10鄰","STREET":"興南街","SECT":" ","MAREA":" ","LANE":"２５２巷","ALLEY":"８０弄","HOUSE_NO":"３６號","E_COORD97":165925.60999999999,"N_COORD97":2535957.52,"ADDRESS":"興南街２５２巷８０弄３６號","OBJECTID":90792},"geometry":{"x":165925.61000000034,"y":2535957.5199999996}},{"attributes":{"ID":90793,"DIS_CODE":0,"TOWNNAME":"南區","LI":"松安里","LIN":"10鄰","STREET":"興南街","SECT":" ","MAREA":" ","LANE":"２５２巷","ALLEY":"８０弄","HOUSE_NO":"３８號","E_COORD97":165942.47,"N_COORD97":2535961.1600000001,"ADDRESS":"興南街２５２巷８０弄３８號","OBJECTID":90793},"geometry":{"x":165942.47000000067,"y":2535961.1600000039}},{"attributes":{"ID":90794,"DIS_CODE":0,"TOWNNAME":"南區","LI":"松安里","LIN":"10鄰","STREET":"興南街","SECT":" ","MAREA":" ","LANE":"２５２巷","ALLEY":"８０弄","HOUSE_NO":"３號","E_COORD97":165889.57000000001,"N_COORD97":2535994.3399999999,"ADDRESS":"興南街２５２巷８０弄３號","OBJECTID":90794},"geometry":{"x":165889.57000000123,"y":2535994.3400000017}},{"attributes":{"ID":90795,"DIS_CODE":0,"TOWNNAME":"南區","LI":"松安里","LIN":"10鄰","STREET":"興南街","SECT":" ","MAREA":" ","LANE":"２５２巷","ALLEY":"８０弄","HOUSE_NO":"４０號","E_COORD97":165940.91,"N_COORD97":2535967.9199999999,"ADDRESS":"興南街２５２巷８０弄４０號","OBJECTID":90795},"geometry":{"x":165940.91000000201,"y":2535967.9199999999}},{"attributes":{"ID":90796,"DIS_CODE":0,"TOWNNAME":"南區","LI":"松安里","LIN":"10鄰","STREET":"興南街","SECT":" ","MAREA":" ","LANE":"２５２巷","ALLEY":"８０弄","HOUSE_NO":"４２號","E_COORD97":165938.82000000001,"N_COORD97":2535971.5600000001,"ADDRESS":"興南街２５２巷８０弄４２號","OBJECTID":90796},"geometry":{"x":165938.82000000123,"y":2535971.5600000005}},{"attributes":{"ID":90797,"DIS_CODE":0,"TOWNNAME":"南區","LI":"松安里","LIN":"10鄰","STREET":"興南街","SECT":" ","MAREA":" ","LANE":"２５２巷","ALLEY":"８０弄","HOUSE_NO":"４４號","E_COORD97":165936.73999999999,"N_COORD97":2535977.5899999999,"ADDRESS":"興南街２５２巷８０弄４４號","OBJECTID":90797},"geometry":{"x":165936.74000000022,"y":2535977.5899999999}},{"attributes":{"ID":90798,"DIS_CODE":0,"TOWNNAME":"南區","LI":"松安里","LIN":"10鄰","STREET":"興南街","SECT":" ","MAREA":" ","LANE":"２５２巷","ALLEY":"８０弄","HOUSE_NO":"４６號","E_COORD97":165934.98000000001,"N_COORD97":2535986.1099999999,"ADDRESS":"興南街２５２巷８０弄４６號","OBJECTID":90798},"geometry":{"x":165934.98000000045,"y":2535986.1099999994}},{"attributes":{"ID":90799,"DIS_CODE":0,"TOWNNAME":"南區","LI":"松安里","LIN":"10鄰","STREET":"興南街","SECT":" ","MAREA":" ","LANE":"２５２巷","ALLEY":"８０弄","HOUSE_NO":"４號","E_COORD97":165888.89000000001,"N_COORD97":2535972.6000000001,"ADDRESS":"興南街２５２巷８０弄４號","OBJECTID":90799},"geometry":{"x":165888.88999999966,"y":2535972.6000000015}},{"attributes":{"ID":90800,"DIS_CODE":0,"TOWNNAME":"新營區","LI":"新東里","LIN":"10鄰","STREET":"東仁街","SECT":" ","MAREA":" ","LANE":"８２巷","ALLEY":"８弄","HOUSE_NO":"４１號","E_COORD97":181415.5,"N_COORD97":2579666.8999999999,"ADDRESS":"東仁街８２巷８弄４１號","OBJECTID":90800},"geometry":{"x":181415.50000000186,"y":2579666.9000000004}}]}