{"displayFieldName":"TOWNNAME","fieldAliases":{"ID":"ID","DIS_CODE":"DIS_CODE","TOWNNAME":"TOWNNAME","LI":"LI","LIN":"LIN","STREET":"STREET","SECT":"SECT","MAREA":"MAREA","LANE":"LANE","ALLEY":"ALLEY","HOUSE_NO":"HOUSE_NO","E_COORD97":"E_COORD97","N_COORD97":"N_COORD97","ADDRESS":"ADDRESS","OBJECTID":"OBJECTID"},"geometryType":"esriGeometryPoint","spatialReference":{"wkid":102443,"latestWkid":3826},"fields":[{"name":"ID","type":"esriFieldTypeDouble","alias":"ID"},{"name":"DIS_CODE","type":"esriFieldTypeInteger","alias":"DIS_CODE"},{"name":"TOWNNAME","type":"esriFieldTypeString","alias":"TOWNNAME","length":8},{"name":"LI","type":"esriFieldTypeString","alias":"LI","length":8},{"name":"LIN","type":"esriFieldTypeString","alias":"LIN","length":12},{"name":"STREET","type":"esriFieldTypeString","alias":"STREET","length":20},{"name":"SECT","type":"esriFieldTypeString","alias":"SECT","length":8},{"name":"MAREA","type":"esriFieldTypeString","alias":"MAREA","length":12},{"name":"LANE","type":"esriFieldTypeString","alias":"LANE","length":10},{"name":"ALLEY","type":"esriFieldTypeString","alias":"ALLEY","length":10},{"name":"HOUSE_NO","type":"esriFieldTypeString","alias":"HOUSE_NO","length":20},{"name":"E_COORD97","type":"esriFieldTypeDouble","alias":"E_COORD97"},{"name":"N_COORD97","type":"esriFieldTypeDouble","alias":"N_COORD97"},{"name":"ADDRESS","type":"esriFieldTypeString","alias":"ADDRESS","length":50},{"name":"OBJECTID","type":"esriFieldTypeOID","alias":"OBJECTID"}],"features":[{"attributes":{"ID":415625,"DIS_CODE":0,"TOWNNAME":"仁德區","LI":"田厝里","LIN":"3鄰","STREET":"田厝三街","SECT":" ","MAREA":" ","LANE":"９３巷","ALLEY":" ","HOUSE_NO":"２０號","E_COORD97":172551.94,"N_COORD97":2537484.2400000002,"ADDRESS":"田厝三街９３巷２０號","OBJECTID":415601},"geometry":{"x":172551.94000000041,"y":2537484.2400000021}},{"attributes":{"ID":415626,"DIS_CODE":0,"TOWNNAME":"東區","LI":"南聖里","LIN":"3鄰","STREET":"富農街","SECT":"二段","MAREA":" ","LANE":"１０８巷","ALLEY":" ","HOUSE_NO":"１號","E_COORD97":171651.95000000001,"N_COORD97":2543095.8799999999,"ADDRESS":"富農街二段１０８巷１號","OBJECTID":415602},"geometry":{"x":171651.95000000112,"y":2543095.8800000008}},{"attributes":{"ID":415627,"DIS_CODE":0,"TOWNNAME":"東區","LI":"南聖里","LIN":"3鄰","STREET":"富農街","SECT":"二段","MAREA":" ","LANE":"１０８巷","ALLEY":" ","HOUSE_NO":"９號","E_COORD97":171678.13,"N_COORD97":2543095.2200000002,"ADDRESS":"富農街二段１０８巷９號","OBJECTID":415603},"geometry":{"x":171678.12999999989,"y":2543095.2200000025}},{"attributes":{"ID":415628,"DIS_CODE":0,"TOWNNAME":"東區","LI":"南聖里","LIN":"3鄰","STREET":"富農街","SECT":"二段","MAREA":" ","LANE":"１０８巷","ALLEY":" ","HOUSE_NO":"１１號","E_COORD97":171692.29999999999,"N_COORD97":2543100.0499999998,"ADDRESS":"富農街二段１０８巷１１號","OBJECTID":415604},"geometry":{"x":171692.29999999981,"y":2543100.0500000026}},{"attributes":{"ID":415629,"DIS_CODE":0,"TOWNNAME":"仁德區","LI":"後壁里","LIN":"3鄰","STREET":"中正路","SECT":"二段","MAREA":" ","LANE":"３１８巷","ALLEY":" ","HOUSE_NO":"９號","E_COORD97":173305.88,"N_COORD97":2539035.27,"ADDRESS":"中正路二段３１８巷９號","OBJECTID":415605},"geometry":{"x":173305.87999999989,"y":2539035.2700000014}},{"attributes":{"ID":415630,"DIS_CODE":0,"TOWNNAME":"仁德區","LI":"成功里","LIN":"3鄰","STREET":"保生東路","SECT":" ","MAREA":" ","LANE":"２１８巷","ALLEY":" ","HOUSE_NO":"６８號","E_COORD97":171245.95999999999,"N_COORD97":2539663.0800000001,"ADDRESS":"保生東路２１８巷６８號","OBJECTID":415606},"geometry":{"x":171245.95999999996,"y":2539663.0800000001}},{"attributes":{"ID":415631,"DIS_CODE":0,"TOWNNAME":"永康區","LI":"五王里","LIN":"3鄰","STREET":"成功路","SECT":" ","MAREA":" ","LANE":"１７２巷","ALLEY":" ","HOUSE_NO":"２２號","E_COORD97":171519.89999999999,"N_COORD97":2545663.0800000001,"ADDRESS":"成功路１７２巷２２號","OBJECTID":415607},"geometry":{"x":171519.89999999944,"y":2545663.0800000001}},{"attributes":{"ID":415632,"DIS_CODE":0,"TOWNNAME":"永康區","LI":"大橋里","LIN":"3鄰","STREET":"大橋一街","SECT":" ","MAREA":" ","LANE":"１０３巷","ALLEY":" ","HOUSE_NO":"１５１號","E_COORD97":170817.54000000001,"N_COORD97":2546700.2400000002,"ADDRESS":"大橋一街１０３巷１５１號","OBJECTID":415608},"geometry":{"x":170817.54000000097,"y":2546700.2400000002}},{"attributes":{"ID":415633,"DIS_CODE":0,"TOWNNAME":"永康區","LI":"大橋里","LIN":"3鄰","STREET":"大橋三街","SECT":" ","MAREA":" ","LANE":"１２４巷","ALLEY":" ","HOUSE_NO":"１６號","E_COORD97":170786.48999999999,"N_COORD97":2546655,"ADDRESS":"大橋三街１２４巷１６號","OBJECTID":415609},"geometry":{"x":170786.49000000022,"y":2546654.9999999981}},{"attributes":{"ID":415634,"DIS_CODE":0,"TOWNNAME":"永康區","LI":"大橋里","LIN":"3鄰","STREET":"大橋三街","SECT":" ","MAREA":" ","LANE":"１２４巷","ALLEY":" ","HOUSE_NO":"７號","E_COORD97":170800.07000000001,"N_COORD97":2546688.2400000002,"ADDRESS":"大橋三街１２４巷７號","OBJECTID":415610},"geometry":{"x":170800.07000000216,"y":2546688.2400000021}},{"attributes":{"ID":415635,"DIS_CODE":0,"TOWNNAME":"永康區","LI":"五王里","LIN":"3鄰","STREET":"成功路","SECT":" ","MAREA":" ","LANE":"１７２巷","ALLEY":" ","HOUSE_NO":"１０號","E_COORD97":171485.14999999999,"N_COORD97":2545639.0099999998,"ADDRESS":"成功路１７２巷１０號","OBJECTID":415611},"geometry":{"x":171485.1500000013,"y":2545639.0100000016}},{"attributes":{"ID":415636,"DIS_CODE":0,"TOWNNAME":"永康區","LI":"大橋里","LIN":"3鄰","STREET":"大橋三街","SECT":" ","MAREA":" ","LANE":"１２４巷","ALLEY":" ","HOUSE_NO":"３號","E_COORD97":170790.35999999999,"N_COORD97":2546680.2400000002,"ADDRESS":"大橋三街１２４巷３號","OBJECTID":415612},"geometry":{"x":170790.36000000127,"y":2546680.2400000002}},{"attributes":{"ID":415637,"DIS_CODE":0,"TOWNNAME":"永康區","LI":"五王里","LIN":"3鄰","STREET":"中華二路","SECT":" ","MAREA":" ","LANE":"２０６巷","ALLEY":" ","HOUSE_NO":"３７號","E_COORD97":171597.95000000001,"N_COORD97":2545570.46,"ADDRESS":"中華二路２０６巷３７號","OBJECTID":415613},"geometry":{"x":171597.95000000112,"y":2545570.4600000009}},{"attributes":{"ID":415638,"DIS_CODE":0,"TOWNNAME":"永康區","LI":"大橋里","LIN":"3鄰","STREET":"大橋一街","SECT":" ","MAREA":" ","LANE":"１０３巷","ALLEY":" ","HOUSE_NO":"１５３號","E_COORD97":170824.39999999999,"N_COORD97":2546716.75,"ADDRESS":"大橋一街１０３巷１５３號","OBJECTID":415614},"geometry":{"x":170824.40000000037,"y":2546716.75}},{"attributes":{"ID":415639,"DIS_CODE":0,"TOWNNAME":"永康區","LI":"大橋里","LIN":"3鄰","STREET":"大橋三街","SECT":" ","MAREA":" ","LANE":"１２４巷","ALLEY":" ","HOUSE_NO":"２０號","E_COORD97":170805.5,"N_COORD97":2546624.9700000002,"ADDRESS":"大橋三街１２４巷２０號","OBJECTID":415615},"geometry":{"x":170805.50000000093,"y":2546624.9700000007}},{"attributes":{"ID":415640,"DIS_CODE":0,"TOWNNAME":"永康區","LI":"烏竹里","LIN":"3鄰","STREET":"竹園二街","SECT":" ","MAREA":" ","LANE":"２０６巷","ALLEY":" ","HOUSE_NO":"８號","E_COORD97":174674.98999999999,"N_COORD97":2549354.3300000001,"ADDRESS":"竹園二街２０６巷８號","OBJECTID":415616},"geometry":{"x":174674.99000000022,"y":2549354.3300000001}},{"attributes":{"ID":415641,"DIS_CODE":0,"TOWNNAME":"安南區","LI":"安西里","LIN":"3鄰","STREET":"安和路","SECT":"一段","MAREA":" ","LANE":"２６３巷","ALLEY":" ","HOUSE_NO":"１３號","E_COORD97":169205.89999999999,"N_COORD97":2548007.8999999999,"ADDRESS":"安和路一段２６３巷１３號","OBJECTID":415617},"geometry":{"x":169205.90000000037,"y":2548007.9000000004}},{"attributes":{"ID":415642,"DIS_CODE":0,"TOWNNAME":"安南區","LI":"淵中里","LIN":"3鄰","STREET":"安中路","SECT":"四段","MAREA":" ","LANE":"１１９巷","ALLEY":" ","HOUSE_NO":"２５號","E_COORD97":165059.23000000001,"N_COORD97":2549881.0899999999,"ADDRESS":"安中路四段１１９巷２５號","OBJECTID":415618},"geometry":{"x":165059.23000000231,"y":2549881.0899999999}},{"attributes":{"ID":415643,"DIS_CODE":0,"TOWNNAME":"安南區","LI":"淵中里","LIN":"3鄰","STREET":"安中路","SECT":"四段","MAREA":" ","LANE":"１１９巷","ALLEY":" ","HOUSE_NO":"２７號","E_COORD97":165056.45000000001,"N_COORD97":2549877.1400000001,"ADDRESS":"安中路四段１１９巷２７號","OBJECTID":415619},"geometry":{"x":165056.45000000112,"y":2549877.1400000025}},{"attributes":{"ID":415644,"DIS_CODE":0,"TOWNNAME":"安南區","LI":"淵中里","LIN":"3鄰","STREET":"安中路","SECT":"四段","MAREA":" ","LANE":"１１９巷","ALLEY":" ","HOUSE_NO":"２９號","E_COORD97":165051.87,"N_COORD97":2549871.3999999999,"ADDRESS":"安中路四段１１９巷２９號","OBJECTID":415620},"geometry":{"x":165051.87000000104,"y":2549871.4000000022}},{"attributes":{"ID":415645,"DIS_CODE":0,"TOWNNAME":"安南區","LI":"溪東里","LIN":"3鄰","STREET":"府安路","SECT":"五段","MAREA":" ","LANE":"１１９巷","ALLEY":" ","HOUSE_NO":"１２號","E_COORD97":167984,"N_COORD97":2547153.6000000001,"ADDRESS":"府安路五段１１９巷１２號","OBJECTID":415621},"geometry":{"x":167984,"y":2547153.6000000015}},{"attributes":{"ID":415646,"DIS_CODE":0,"TOWNNAME":"安南區","LI":"溪東里","LIN":"3鄰","STREET":"府安路","SECT":"五段","MAREA":" ","LANE":"１１９巷","ALLEY":" ","HOUSE_NO":"１４號","E_COORD97":167981.48999999999,"N_COORD97":2547159.4199999999,"ADDRESS":"府安路五段１１９巷１４號","OBJECTID":415622},"geometry":{"x":167981.49000000209,"y":2547159.4199999999}},{"attributes":{"ID":415647,"DIS_CODE":0,"TOWNNAME":"安南區","LI":"溪東里","LIN":"3鄰","STREET":"府安路","SECT":"五段","MAREA":" ","LANE":"１１９巷","ALLEY":" ","HOUSE_NO":"１６號","E_COORD97":167980.45999999999,"N_COORD97":2547165.1099999999,"ADDRESS":"府安路五段１１９巷１６號","OBJECTID":415623},"geometry":{"x":167980.45999999996,"y":2547165.1099999994}},{"attributes":{"ID":415648,"DIS_CODE":0,"TOWNNAME":"安南區","LI":"溪東里","LIN":"3鄰","STREET":"府安路","SECT":"五段","MAREA":" ","LANE":"１１９巷","ALLEY":" ","HOUSE_NO":"１８號","E_COORD97":167979.42999999999,"N_COORD97":2547171.3799999999,"ADDRESS":"府安路五段１１９巷１８號","OBJECTID":415624},"geometry":{"x":167979.42999999877,"y":2547171.3800000008}},{"attributes":{"ID":415649,"DIS_CODE":0,"TOWNNAME":"安南區","LI":"溪東里","LIN":"3鄰","STREET":"府安路","SECT":"五段","MAREA":" ","LANE":"１１９巷","ALLEY":" ","HOUSE_NO":"２０號","E_COORD97":167977.60000000001,"N_COORD97":2547177.9399999999,"ADDRESS":"府安路五段１１９巷２０號","OBJECTID":415625},"geometry":{"x":167977.59999999963,"y":2547177.9400000013}},{"attributes":{"ID":415650,"DIS_CODE":0,"TOWNNAME":"安南區","LI":"溪東里","LIN":"3鄰","STREET":"府安路","SECT":"五段","MAREA":" ","LANE":"１１９巷","ALLEY":" ","HOUSE_NO":"２４號","E_COORD97":167976,"N_COORD97":2547189.6800000002,"ADDRESS":"府安路五段１１９巷２４號","OBJECTID":415626},"geometry":{"x":167976.00000000186,"y":2547189.6800000016}},{"attributes":{"ID":415651,"DIS_CODE":0,"TOWNNAME":"安南區","LI":"溪東里","LIN":"3鄰","STREET":"府安路","SECT":"五段","MAREA":" ","LANE":"１１９巷","ALLEY":" ","HOUSE_NO":"２６號","E_COORD97":167974.95999999999,"N_COORD97":2547195.8999999999,"ADDRESS":"府安路五段１１９巷２６號","OBJECTID":415627},"geometry":{"x":167974.96000000089,"y":2547195.9000000022}},{"attributes":{"ID":415652,"DIS_CODE":0,"TOWNNAME":"中西區","LI":"西賢里","LIN":"3鄰","STREET":"湖美街","SECT":" ","MAREA":" ","LANE":"１１３巷","ALLEY":" ","HOUSE_NO":"１０號","E_COORD97":165892.48999999999,"N_COORD97":2544765.1200000001,"ADDRESS":"湖美街１１３巷１０號","OBJECTID":415628},"geometry":{"x":165892.49000000022,"y":2544765.1200000029}},{"attributes":{"ID":415653,"DIS_CODE":0,"TOWNNAME":"中西區","LI":"西賢里","LIN":"3鄰","STREET":"湖美街","SECT":" ","MAREA":" ","LANE":"１１３巷","ALLEY":" ","HOUSE_NO":"２６號","E_COORD97":165846.91,"N_COORD97":2544758.79,"ADDRESS":"湖美街１１３巷２６號","OBJECTID":415629},"geometry":{"x":165846.91000000015,"y":2544758.7899999991}},{"attributes":{"ID":415654,"DIS_CODE":0,"TOWNNAME":"中西區","LI":"西賢里","LIN":"3鄰","STREET":"湖美街","SECT":" ","MAREA":" ","LANE":"１１３巷","ALLEY":" ","HOUSE_NO":"２８號","E_COORD97":165840.29999999999,"N_COORD97":2544759.6099999999,"ADDRESS":"湖美街１１３巷２８號","OBJECTID":415630},"geometry":{"x":165840.30000000075,"y":2544759.6100000013}},{"attributes":{"ID":415655,"DIS_CODE":0,"TOWNNAME":"中西區","LI":"西賢里","LIN":"3鄰","STREET":"湖美街","SECT":" ","MAREA":" ","LANE":"１１３巷","ALLEY":" ","HOUSE_NO":"３０號","E_COORD97":165835.07000000001,"N_COORD97":2544759.3399999999,"ADDRESS":"湖美街１１３巷３０號","OBJECTID":415631},"geometry":{"x":165835.07000000123,"y":2544759.3399999999}},{"attributes":{"ID":415656,"DIS_CODE":0,"TOWNNAME":"中西區","LI":"西賢里","LIN":"3鄰","STREET":"湖美街","SECT":" ","MAREA":" ","LANE":"１１３巷","ALLEY":" ","HOUSE_NO":"３２號","E_COORD97":165828.17999999999,"N_COORD97":2544760.1600000001,"ADDRESS":"湖美街１１３巷３２號","OBJECTID":415632},"geometry":{"x":165828.1799999997,"y":2544760.160000002}},{"attributes":{"ID":415657,"DIS_CODE":0,"TOWNNAME":"中西區","LI":"西賢里","LIN":"3鄰","STREET":"湖美街","SECT":" ","MAREA":" ","LANE":"１１３巷","ALLEY":" ","HOUSE_NO":"６號","E_COORD97":165906.51000000001,"N_COORD97":2544760.6899999999,"ADDRESS":"湖美街１１３巷６號","OBJECTID":415633},"geometry":{"x":165906.51000000071,"y":2544760.6899999995}},{"attributes":{"ID":415658,"DIS_CODE":0,"TOWNNAME":"中西區","LI":"西賢里","LIN":"3鄰","STREET":"湖美街","SECT":" ","MAREA":" ","LANE":"１１３巷","ALLEY":" ","HOUSE_NO":"８號","E_COORD97":165897.64000000001,"N_COORD97":2544765.2999999998,"ADDRESS":"湖美街１１３巷８號","OBJECTID":415634},"geometry":{"x":165897.63999999966,"y":2544765.2999999989}},{"attributes":{"ID":415659,"DIS_CODE":0,"TOWNNAME":"中西區","LI":"藥王里","LIN":"3鄰","STREET":"大福街","SECT":" ","MAREA":" ","LANE":"２４巷","ALLEY":" ","HOUSE_NO":"１１號","E_COORD97":167382.03,"N_COORD97":2544370.0299999998,"ADDRESS":"大福街２４巷１１號","OBJECTID":415635},"geometry":{"x":167382.03000000026,"y":2544370.0300000012}},{"attributes":{"ID":415660,"DIS_CODE":0,"TOWNNAME":"中西區","LI":"藥王里","LIN":"3鄰","STREET":"大福街","SECT":" ","MAREA":" ","LANE":"２４巷","ALLEY":" ","HOUSE_NO":"１３號","E_COORD97":167386.63,"N_COORD97":2544368.3399999999,"ADDRESS":"大福街２４巷１３號","OBJECTID":415636},"geometry":{"x":167386.62999999896,"y":2544368.3400000017}},{"attributes":{"ID":415661,"DIS_CODE":0,"TOWNNAME":"中西區","LI":"藥王里","LIN":"3鄰","STREET":"大福街","SECT":" ","MAREA":" ","LANE":"２４巷","ALLEY":" ","HOUSE_NO":"１５號","E_COORD97":167391.23000000001,"N_COORD97":2544365.9199999999,"ADDRESS":"大福街２４巷１５號","OBJECTID":415637},"geometry":{"x":167391.23000000045,"y":2544365.9199999999}},{"attributes":{"ID":415662,"DIS_CODE":0,"TOWNNAME":"中西區","LI":"藥王里","LIN":"3鄰","STREET":"大福街","SECT":" ","MAREA":" ","LANE":"２４巷","ALLEY":" ","HOUSE_NO":"１７號","E_COORD97":167396.07000000001,"N_COORD97":2544364.23,"ADDRESS":"大福街２４巷１７號","OBJECTID":415638},"geometry":{"x":167396.07000000216,"y":2544364.2300000004}},{"attributes":{"ID":415663,"DIS_CODE":0,"TOWNNAME":"中西區","LI":"藥王里","LIN":"3鄰","STREET":"大福街","SECT":" ","MAREA":" ","LANE":"２４巷","ALLEY":" ","HOUSE_NO":"１９號","E_COORD97":167400.67000000001,"N_COORD97":2544362.0499999998,"ADDRESS":"大福街２４巷１９號","OBJECTID":415639},"geometry":{"x":167400.67000000086,"y":2544362.0500000007}},{"attributes":{"ID":415664,"DIS_CODE":0,"TOWNNAME":"中西區","LI":"藥王里","LIN":"3鄰","STREET":"大福街","SECT":" ","MAREA":" ","LANE":"２４巷","ALLEY":" ","HOUSE_NO":"１號","E_COORD97":167360.48999999999,"N_COORD97":2544378.98,"ADDRESS":"大福街２４巷１號","OBJECTID":415640},"geometry":{"x":167360.49000000022,"y":2544378.9800000023}},{"attributes":{"ID":415665,"DIS_CODE":0,"TOWNNAME":"中西區","LI":"藥王里","LIN":"3鄰","STREET":"大福街","SECT":" ","MAREA":" ","LANE":"２４巷","ALLEY":" ","HOUSE_NO":"３號","E_COORD97":167365.32999999999,"N_COORD97":2544378.02,"ADDRESS":"大福街２４巷３號","OBJECTID":415641},"geometry":{"x":167365.33000000194,"y":2544378.0199999996}},{"attributes":{"ID":415666,"DIS_CODE":0,"TOWNNAME":"中西區","LI":"藥王里","LIN":"3鄰","STREET":"大福街","SECT":" ","MAREA":" ","LANE":"２４巷","ALLEY":" ","HOUSE_NO":"５號","E_COORD97":167368.95999999999,"N_COORD97":2544375.6000000001,"ADDRESS":"大福街２４巷５號","OBJECTID":415642},"geometry":{"x":167368.95999999996,"y":2544375.5999999978}},{"attributes":{"ID":415667,"DIS_CODE":0,"TOWNNAME":"中西區","LI":"藥王里","LIN":"3鄰","STREET":"大福街","SECT":" ","MAREA":" ","LANE":"２４巷","ALLEY":" ","HOUSE_NO":"７號","E_COORD97":167373.32000000001,"N_COORD97":2544373.6600000001,"ADDRESS":"大福街２４巷７號","OBJECTID":415643},"geometry":{"x":167373.3200000003,"y":2544373.660000002}},{"attributes":{"ID":415668,"DIS_CODE":0,"TOWNNAME":"中西區","LI":"藥王里","LIN":"3鄰","STREET":"大福街","SECT":" ","MAREA":" ","LANE":"２４巷","ALLEY":" ","HOUSE_NO":"９號","E_COORD97":167377.67999999999,"N_COORD97":2544372.4500000002,"ADDRESS":"大福街２４巷９號","OBJECTID":415644},"geometry":{"x":167377.68000000156,"y":2544372.4499999993}},{"attributes":{"ID":415669,"DIS_CODE":0,"TOWNNAME":"中西區","LI":"藥王里","LIN":"3鄰","STREET":"大福街","SECT":" ","MAREA":" ","LANE":"３６巷","ALLEY":" ","HOUSE_NO":"１０號","E_COORD97":167382.13,"N_COORD97":2544383.3500000001,"ADDRESS":"大福街３６巷１０號","OBJECTID":415645},"geometry":{"x":167382.13000000082,"y":2544383.3499999996}},{"attributes":{"ID":415670,"DIS_CODE":0,"TOWNNAME":"中西區","LI":"藥王里","LIN":"3鄰","STREET":"大福街","SECT":" ","MAREA":" ","LANE":"３６巷","ALLEY":" ","HOUSE_NO":"１２號","E_COORD97":167387.45000000001,"N_COORD97":2544381.8900000001,"ADDRESS":"大福街３６巷１２號","OBJECTID":415646},"geometry":{"x":167387.45000000019,"y":2544381.8900000025}},{"attributes":{"ID":415671,"DIS_CODE":0,"TOWNNAME":"中西區","LI":"藥王里","LIN":"3鄰","STREET":"大福街","SECT":" ","MAREA":" ","LANE":"３６巷","ALLEY":" ","HOUSE_NO":"１４號","E_COORD97":167390.84,"N_COORD97":2544380.2000000002,"ADDRESS":"大福街３６巷１４號","OBJECTID":415647},"geometry":{"x":167390.84000000078,"y":2544380.1999999993}},{"attributes":{"ID":415672,"DIS_CODE":0,"TOWNNAME":"中西區","LI":"藥王里","LIN":"3鄰","STREET":"大福街","SECT":" ","MAREA":" ","LANE":"３６巷","ALLEY":" ","HOUSE_NO":"１６號","E_COORD97":167395.67999999999,"N_COORD97":2544377.54,"ADDRESS":"大福街３６巷１６號","OBJECTID":415648},"geometry":{"x":167395.6799999997,"y":2544377.5399999991}},{"attributes":{"ID":415673,"DIS_CODE":0,"TOWNNAME":"中西區","LI":"藥王里","LIN":"3鄰","STREET":"大福街","SECT":" ","MAREA":" ","LANE":"３６巷","ALLEY":" ","HOUSE_NO":"１８號","E_COORD97":167401.01000000001,"N_COORD97":2544376.5699999998,"ADDRESS":"大福街３６巷１８號","OBJECTID":415649},"geometry":{"x":167401.01000000164,"y":2544376.570000004}},{"attributes":{"ID":415674,"DIS_CODE":0,"TOWNNAME":"中西區","LI":"藥王里","LIN":"3鄰","STREET":"大福街","SECT":" ","MAREA":" ","LANE":"３６巷","ALLEY":" ","HOUSE_NO":"２０號","E_COORD97":167405.35999999999,"N_COORD97":2544374.8799999999,"ADDRESS":"大福街３６巷２０號","OBJECTID":415650},"geometry":{"x":167405.36000000034,"y":2544374.879999999}},{"attributes":{"ID":415675,"DIS_CODE":0,"TOWNNAME":"中西區","LI":"藥王里","LIN":"3鄰","STREET":"大福街","SECT":" ","MAREA":" ","LANE":"３６巷","ALLEY":" ","HOUSE_NO":"２２號","E_COORD97":167409.23999999999,"N_COORD97":2544371.4900000002,"ADDRESS":"大福街３６巷２２號","OBJECTID":415651},"geometry":{"x":167409.24000000022,"y":2544371.4900000021}},{"attributes":{"ID":415676,"DIS_CODE":0,"TOWNNAME":"中西區","LI":"藥王里","LIN":"3鄰","STREET":"大福街","SECT":" ","MAREA":" ","LANE":"３６巷","ALLEY":" ","HOUSE_NO":"２號","E_COORD97":167364.45999999999,"N_COORD97":2544390.1200000001,"ADDRESS":"大福街３６巷２號","OBJECTID":415652},"geometry":{"x":167364.46000000089,"y":2544390.120000001}},{"attributes":{"ID":415677,"DIS_CODE":0,"TOWNNAME":"中西區","LI":"藥王里","LIN":"3鄰","STREET":"大福街","SECT":" ","MAREA":" ","LANE":"３６巷","ALLEY":" ","HOUSE_NO":"４號","E_COORD97":167368.82000000001,"N_COORD97":2544388.6699999999,"ADDRESS":"大福街３６巷４號","OBJECTID":415653},"geometry":{"x":167368.81999999937,"y":2544388.6699999999}},{"attributes":{"ID":415678,"DIS_CODE":0,"TOWNNAME":"中西區","LI":"藥王里","LIN":"3鄰","STREET":"大福街","SECT":" ","MAREA":" ","LANE":"３６巷","ALLEY":" ","HOUSE_NO":"６號","E_COORD97":167374.14000000001,"N_COORD97":2544387.9399999999,"ADDRESS":"大福街３６巷６號","OBJECTID":415654},"geometry":{"x":167374.13999999966,"y":2544387.9400000013}},{"attributes":{"ID":415679,"DIS_CODE":0,"TOWNNAME":"中西區","LI":"藥王里","LIN":"3鄰","STREET":"大福街","SECT":" ","MAREA":" ","LANE":"３６巷","ALLEY":" ","HOUSE_NO":"８號","E_COORD97":167378.5,"N_COORD97":2544386.25,"ADDRESS":"大福街３６巷８號","OBJECTID":415655},"geometry":{"x":167378.5,"y":2544386.2500000019}},{"attributes":{"ID":415680,"DIS_CODE":0,"TOWNNAME":"中西區","LI":"藥王里","LIN":"3鄰","STREET":"民權路","SECT":"三段","MAREA":" ","LANE":"２３４巷","ALLEY":" ","HOUSE_NO":"２５號","E_COORD97":167410.59,"N_COORD97":2544363.02,"ADDRESS":"民權路三段２３４巷２５號","OBJECTID":415656},"geometry":{"x":167410.58999999892,"y":2544363.0200000014}},{"attributes":{"ID":415681,"DIS_CODE":0,"TOWNNAME":"中西區","LI":"藥王里","LIN":"3鄰","STREET":"大福街","SECT":" ","MAREA":" ","LANE":"２７巷","ALLEY":" ","HOUSE_NO":"１０號","E_COORD97":167283.63,"N_COORD97":2544406.9399999999,"ADDRESS":"大福街２７巷１０號","OBJECTID":415657},"geometry":{"x":167283.63000000082,"y":2544406.9399999995}},{"attributes":{"ID":415682,"DIS_CODE":0,"TOWNNAME":"中西區","LI":"藥王里","LIN":"3鄰","STREET":"大福街","SECT":" ","MAREA":" ","LANE":"２７巷","ALLEY":" ","HOUSE_NO":"６號","E_COORD97":167292.82999999999,"N_COORD97":2544403.7999999998,"ADDRESS":"大福街２７巷６號","OBJECTID":415658},"geometry":{"x":167292.83000000101,"y":2544403.8000000026}},{"attributes":{"ID":415683,"DIS_CODE":0,"TOWNNAME":"中西區","LI":"藥王里","LIN":"3鄰","STREET":"大福街","SECT":" ","MAREA":" ","LANE":"２７巷","ALLEY":" ","HOUSE_NO":"８號","E_COORD97":167287.75,"N_COORD97":2544405.4900000002,"ADDRESS":"大福街２７巷８號","OBJECTID":415659},"geometry":{"x":167287.75000000186,"y":2544405.4900000021}},{"attributes":{"ID":415684,"DIS_CODE":0,"TOWNNAME":"中西區","LI":"藥王里","LIN":"3鄰","STREET":"大福街","SECT":" ","MAREA":" ","LANE":"３９巷","ALLEY":" ","HOUSE_NO":"１７號","E_COORD97":167278.54999999999,"N_COORD97":2544422.9100000001,"ADDRESS":"大福街３９巷１７號","OBJECTID":415660},"geometry":{"x":167278.54999999981,"y":2544422.910000002}},{"attributes":{"ID":415685,"DIS_CODE":0,"TOWNNAME":"中西區","LI":"藥王里","LIN":"3鄰","STREET":"大福街","SECT":" ","MAREA":" ","LANE":"３９巷","ALLEY":" ","HOUSE_NO":"１９號","E_COORD97":167275.16,"N_COORD97":2544425.5699999998,"ADDRESS":"大福街３９巷１９號","OBJECTID":415661},"geometry":{"x":167275.16000000108,"y":2544425.5700000022}},{"attributes":{"ID":415686,"DIS_CODE":0,"TOWNNAME":"中西區","LI":"藥王里","LIN":"3鄰","STREET":"大福街","SECT":" ","MAREA":" ","LANE":"３９巷","ALLEY":" ","HOUSE_NO":"２１號","E_COORD97":167271.04999999999,"N_COORD97":2544425.5699999998,"ADDRESS":"大福街３９巷２１號","OBJECTID":415662},"geometry":{"x":167271.05000000075,"y":2544425.5700000022}},{"attributes":{"ID":415687,"DIS_CODE":0,"TOWNNAME":"中西區","LI":"藥王里","LIN":"3鄰","STREET":"大福街","SECT":" ","MAREA":" ","LANE":"３９巷","ALLEY":" ","HOUSE_NO":"２３號","E_COORD97":167267.66,"N_COORD97":2544427.5,"ADDRESS":"大福街３９巷２３號","OBJECTID":415663},"geometry":{"x":167267.66000000015,"y":2544427.4999999981}},{"attributes":{"ID":415688,"DIS_CODE":0,"TOWNNAME":"中西區","LI":"藥王里","LIN":"3鄰","STREET":"大福街","SECT":" ","MAREA":" ","LANE":"３９巷","ALLEY":" ","HOUSE_NO":"２５號","E_COORD97":167264.26999999999,"N_COORD97":2544428.9500000002,"ADDRESS":"大福街３９巷２５號","OBJECTID":415664},"geometry":{"x":167264.26999999955,"y":2544428.9499999993}},{"attributes":{"ID":415689,"DIS_CODE":0,"TOWNNAME":"中西區","LI":"藥王里","LIN":"3鄰","STREET":"大福街","SECT":" ","MAREA":" ","LANE":"３９巷","ALLEY":" ","HOUSE_NO":"２７號","E_COORD97":167260.39999999999,"N_COORD97":2544430.3999999999,"ADDRESS":"大福街３９巷２７號","OBJECTID":415665},"geometry":{"x":167260.4000000013,"y":2544430.4000000022}},{"attributes":{"ID":415690,"DIS_CODE":0,"TOWNNAME":"永康區","LI":"崑山里","LIN":"3鄰","STREET":"永大路","SECT":"一段","MAREA":" ","LANE":"２８７巷","ALLEY":" ","HOUSE_NO":"１４２號","E_COORD97":173663.17999999999,"N_COORD97":2544343.23,"ADDRESS":"永大路一段２８７巷１４２號","OBJECTID":415666},"geometry":{"x":173663.1799999997,"y":2544343.2300000023}},{"attributes":{"ID":415691,"DIS_CODE":0,"TOWNNAME":"永康區","LI":"崑山里","LIN":"3鄰","STREET":"永大路","SECT":"一段","MAREA":" ","LANE":"２８７巷","ALLEY":" ","HOUSE_NO":"１１６號","E_COORD97":173705.59,"N_COORD97":2544353.9399999999,"ADDRESS":"永大路一段２８７巷１１６號","OBJECTID":415667},"geometry":{"x":173705.59000000078,"y":2544353.9400000013}},{"attributes":{"ID":415692,"DIS_CODE":0,"TOWNNAME":"北區","LI":"玉皇里","LIN":"13鄰","STREET":"公園路","SECT":" ","MAREA":" ","LANE":" ","ALLEY":" ","HOUSE_NO":"１８７號","E_COORD97":168739.98999999999,"N_COORD97":2544411.4900000002,"ADDRESS":"公園路１８７號","OBJECTID":415668},"geometry":{"x":168739.99000000022,"y":2544411.4900000021}},{"attributes":{"ID":415693,"DIS_CODE":0,"TOWNNAME":"永康區","LI":"復國里","LIN":"3鄰","STREET":"復國一路","SECT":" ","MAREA":" ","LANE":"４４巷","ALLEY":" ","HOUSE_NO":"４９號","E_COORD97":172818.31,"N_COORD97":2544820.02,"ADDRESS":"復國一路４４巷４９號","OBJECTID":415669},"geometry":{"x":172818.31000000145,"y":2544820.0199999996}},{"attributes":{"ID":415694,"DIS_CODE":0,"TOWNNAME":"永康區","LI":"崑山里","LIN":"3鄰","STREET":"永大路","SECT":"一段","MAREA":" ","LANE":"２８７巷","ALLEY":" ","HOUSE_NO":"１５６號","E_COORD97":173637.82000000001,"N_COORD97":2544332.6600000001,"ADDRESS":"永大路一段２８７巷１５６號","OBJECTID":415670},"geometry":{"x":173637.82000000216,"y":2544332.660000002}},{"attributes":{"ID":415695,"DIS_CODE":0,"TOWNNAME":"永康區","LI":"復國里","LIN":"3鄰","STREET":"復國一路","SECT":" ","MAREA":" ","LANE":"４４巷","ALLEY":" ","HOUSE_NO":"５３號","E_COORD97":172826.31,"N_COORD97":2544820.27,"ADDRESS":"復國一路４４巷５３號","OBJECTID":415671},"geometry":{"x":172826.30999999959,"y":2544820.2700000014}},{"attributes":{"ID":415696,"DIS_CODE":0,"TOWNNAME":"永康區","LI":"復國里","LIN":"3鄰","STREET":"復國一路","SECT":" ","MAREA":" ","LANE":"４４巷","ALLEY":" ","HOUSE_NO":"１７號","E_COORD97":172763.64000000001,"N_COORD97":2544817.6299999999,"ADDRESS":"復國一路４４巷１７號","OBJECTID":415672},"geometry":{"x":172763.64000000153,"y":2544817.629999999}},{"attributes":{"ID":415697,"DIS_CODE":0,"TOWNNAME":"永康區","LI":"復國里","LIN":"3鄰","STREET":"復國一路","SECT":" ","MAREA":" ","LANE":"４４巷","ALLEY":" ","HOUSE_NO":"２３號","E_COORD97":172775.89000000001,"N_COORD97":2544818.8799999999,"ADDRESS":"復國一路４４巷２３號","OBJECTID":415673},"geometry":{"x":172775.8900000006,"y":2544818.8800000008}},{"attributes":{"ID":415698,"DIS_CODE":0,"TOWNNAME":"永康區","LI":"烏竹里","LIN":"3鄰","STREET":"竹園二街","SECT":" ","MAREA":" ","LANE":"２０６巷","ALLEY":" ","HOUSE_NO":"３８號","E_COORD97":174725.51999999999,"N_COORD97":2549368.6200000001,"ADDRESS":"竹園二街２０６巷３８號","OBJECTID":415674},"geometry":{"x":174725.51999999862,"y":2549368.6200000029}},{"attributes":{"ID":415699,"DIS_CODE":0,"TOWNNAME":"永康區","LI":"崑山里","LIN":"3鄰","STREET":"大灣路","SECT":" ","MAREA":" ","LANE":"８７９巷","ALLEY":" ","HOUSE_NO":"１２號","E_COORD97":173629.37,"N_COORD97":2544362.8599999999,"ADDRESS":"大灣路８７９巷１２號","OBJECTID":415675},"geometry":{"x":173629.37000000104,"y":2544362.8599999994}},{"attributes":{"ID":415700,"DIS_CODE":0,"TOWNNAME":"永康區","LI":"崑山里","LIN":"3鄰","STREET":"永大路","SECT":"一段","MAREA":" ","LANE":"２８７巷","ALLEY":" ","HOUSE_NO":"１４８號","E_COORD97":173651.48000000001,"N_COORD97":2544336.4199999999,"ADDRESS":"永大路一段２８７巷１４８號","OBJECTID":415676},"geometry":{"x":173651.48000000045,"y":2544336.4199999981}},{"attributes":{"ID":415701,"DIS_CODE":0,"TOWNNAME":"永康區","LI":"崑山里","LIN":"3鄰","STREET":"永大路","SECT":"一段","MAREA":" ","LANE":"２８７巷","ALLEY":" ","HOUSE_NO":"１３２號","E_COORD97":173678.51999999999,"N_COORD97":2544346.48,"ADDRESS":"永大路一段２８７巷１３２號","OBJECTID":415677},"geometry":{"x":173678.52000000048,"y":2544346.4800000004}},{"attributes":{"ID":415702,"DIS_CODE":0,"TOWNNAME":"永康區","LI":"崑山里","LIN":"3鄰","STREET":"永大路","SECT":"一段","MAREA":" ","LANE":"２８７巷","ALLEY":" ","HOUSE_NO":"１５０號","E_COORD97":173626.48000000001,"N_COORD97":2544327.96,"ADDRESS":"永大路一段２８７巷１５０號","OBJECTID":415678},"geometry":{"x":173626.48000000045,"y":2544327.9600000028}},{"attributes":{"ID":415703,"DIS_CODE":0,"TOWNNAME":"東區","LI":"德高里","LIN":"3鄰","STREET":"城東街","SECT":" ","MAREA":" ","LANE":"６５巷","ALLEY":" ","HOUSE_NO":"７號","E_COORD97":171595.28,"N_COORD97":2540801.6299999999,"ADDRESS":"城東街６５巷７號","OBJECTID":415679},"geometry":{"x":171595.28000000212,"y":2540801.6300000027}},{"attributes":{"ID":415704,"DIS_CODE":0,"TOWNNAME":"東區","LI":"德高里","LIN":"3鄰","STREET":"城東街","SECT":" ","MAREA":" ","LANE":"６５巷","ALLEY":" ","HOUSE_NO":"９號","E_COORD97":171587.91,"N_COORD97":2540810.5699999998,"ADDRESS":"城東街６５巷９號","OBJECTID":415680},"geometry":{"x":171587.91000000108,"y":2540810.5700000022}},{"attributes":{"ID":415705,"DIS_CODE":0,"TOWNNAME":"東區","LI":"德高里","LIN":"3鄰","STREET":"城東街","SECT":" ","MAREA":" ","LANE":"６５巷","ALLEY":" ","HOUSE_NO":"１１號","E_COORD97":171564.47,"N_COORD97":2540836.1600000001,"ADDRESS":"城東街６５巷１１號","OBJECTID":415681},"geometry":{"x":171564.46999999974,"y":2540836.1599999983}},{"attributes":{"ID":415706,"DIS_CODE":0,"TOWNNAME":"安南區","LI":"淵西里","LIN":"3鄰","STREET":"安中路","SECT":"四段","MAREA":" ","LANE":"２９０巷","ALLEY":" ","HOUSE_NO":"１０７號","E_COORD97":164755.51999999999,"N_COORD97":2550301.3300000001,"ADDRESS":"安中路四段２９０巷１０７號","OBJECTID":415682},"geometry":{"x":164755.51999999955,"y":2550301.3300000038}},{"attributes":{"ID":415707,"DIS_CODE":0,"TOWNNAME":"安南區","LI":"淵西里","LIN":"3鄰","STREET":"安中路","SECT":"四段","MAREA":" ","LANE":"２９０巷","ALLEY":" ","HOUSE_NO":"２０５號","E_COORD97":164939.04999999999,"N_COORD97":2550265.4399999999,"ADDRESS":"安中路四段２９０巷２０５號","OBJECTID":415683},"geometry":{"x":164939.04999999981,"y":2550265.4399999995}},{"attributes":{"ID":415708,"DIS_CODE":0,"TOWNNAME":"安南區","LI":"淵西里","LIN":"3鄰","STREET":"安中路","SECT":"四段","MAREA":" ","LANE":"２９０巷","ALLEY":" ","HOUSE_NO":"２０７號","E_COORD97":164943.92999999999,"N_COORD97":2550265.8100000001,"ADDRESS":"安中路四段２９０巷２０７號","OBJECTID":415684},"geometry":{"x":164943.93000000063,"y":2550265.8100000024}},{"attributes":{"ID":415709,"DIS_CODE":0,"TOWNNAME":"安南區","LI":"淵西里","LIN":"3鄰","STREET":"安中路","SECT":"四段","MAREA":" ","LANE":"２９０巷","ALLEY":" ","HOUSE_NO":"２３１號","E_COORD97":164986.5,"N_COORD97":2550265.8100000001,"ADDRESS":"安中路四段２９０巷２３１號","OBJECTID":415685},"geometry":{"x":164986.50000000093,"y":2550265.8100000024}},{"attributes":{"ID":415710,"DIS_CODE":0,"TOWNNAME":"安南區","LI":"淵西里","LIN":"3鄰","STREET":"安中路","SECT":"四段","MAREA":" ","LANE":"２９０巷","ALLEY":" ","HOUSE_NO":"２４７號","E_COORD97":165023.26999999999,"N_COORD97":2550269.3700000001,"ADDRESS":"安中路四段２９０巷２４７號","OBJECTID":415686},"geometry":{"x":165023.26999999955,"y":2550269.3700000029}},{"attributes":{"ID":415711,"DIS_CODE":0,"TOWNNAME":"安南區","LI":"淵西里","LIN":"3鄰","STREET":"安中路","SECT":"四段","MAREA":" ","LANE":"２９０巷","ALLEY":" ","HOUSE_NO":"２４９號","E_COORD97":165027.51999999999,"N_COORD97":2550270.79,"ADDRESS":"安中路四段２９０巷２４９號","OBJECTID":415687},"geometry":{"x":165027.52000000142,"y":2550270.790000001}},{"attributes":{"ID":415712,"DIS_CODE":0,"TOWNNAME":"安南區","LI":"淵西里","LIN":"3鄰","STREET":"安中路","SECT":"四段","MAREA":" ","LANE":"２９０巷","ALLEY":" ","HOUSE_NO":"２５１號","E_COORD97":165031.76000000001,"N_COORD97":2550272.3599999999,"ADDRESS":"安中路四段２９０巷２５１號","OBJECTID":415688},"geometry":{"x":165031.76000000071,"y":2550272.3599999994}},{"attributes":{"ID":415713,"DIS_CODE":0,"TOWNNAME":"永康區","LI":"烏竹里","LIN":"3鄰","STREET":"竹園二街","SECT":" ","MAREA":" ","LANE":"２０６巷","ALLEY":" ","HOUSE_NO":"２６號","E_COORD97":174697.85000000001,"N_COORD97":2549371.8199999998,"ADDRESS":"竹園二街２０６巷２６號","OBJECTID":415689},"geometry":{"x":174697.84999999963,"y":2549371.8200000003}},{"attributes":{"ID":415714,"DIS_CODE":0,"TOWNNAME":"安南區","LI":"淵西里","LIN":"3鄰","STREET":"安中路","SECT":"四段","MAREA":" ","LANE":"２９０巷","ALLEY":" ","HOUSE_NO":"２５３號","E_COORD97":165036.48000000001,"N_COORD97":2550274.2400000002,"ADDRESS":"安中路四段２９０巷２５３號","OBJECTID":415690},"geometry":{"x":165036.48000000045,"y":2550274.2400000002}},{"attributes":{"ID":415715,"DIS_CODE":0,"TOWNNAME":"安南區","LI":"淵西里","LIN":"3鄰","STREET":"安中路","SECT":"四段","MAREA":" ","LANE":"２９０巷","ALLEY":" ","HOUSE_NO":"２５５號","E_COORD97":165040.72,"N_COORD97":2550275.3399999999,"ADDRESS":"安中路四段２９０巷２５５號","OBJECTID":415691},"geometry":{"x":165040.71999999974,"y":2550275.3399999999}},{"attributes":{"ID":415716,"DIS_CODE":0,"TOWNNAME":"安南區","LI":"淵西里","LIN":"3鄰","STREET":"安中路","SECT":"四段","MAREA":" ","LANE":"２９０巷","ALLEY":" ","HOUSE_NO":"２５７號","E_COORD97":165044.17999999999,"N_COORD97":2550276.75,"ADDRESS":"安中路四段２９０巷２５７號","OBJECTID":415692},"geometry":{"x":165044.18000000063,"y":2550276.75}},{"attributes":{"ID":415717,"DIS_CODE":0,"TOWNNAME":"安南區","LI":"淵西里","LIN":"3鄰","STREET":"安中路","SECT":"四段","MAREA":" ","LANE":"２９０巷","ALLEY":" ","HOUSE_NO":"２５９號","E_COORD97":165049.04999999999,"N_COORD97":2550278.0099999998,"ADDRESS":"安中路四段２９０巷２５９號","OBJECTID":415693},"geometry":{"x":165049.04999999981,"y":2550278.0099999998}},{"attributes":{"ID":415718,"DIS_CODE":0,"TOWNNAME":"安南區","LI":"淵西里","LIN":"3鄰","STREET":"安中路","SECT":"四段","MAREA":" ","LANE":"２９０巷","ALLEY":" ","HOUSE_NO":"２６１號","E_COORD97":165052.51000000001,"N_COORD97":2550280.0499999998,"ADDRESS":"安中路四段２９０巷２６１號","OBJECTID":415694},"geometry":{"x":165052.50999999978,"y":2550280.0500000045}},{"attributes":{"ID":415719,"DIS_CODE":0,"TOWNNAME":"安南區","LI":"新順里","LIN":"3鄰","STREET":"安和路","SECT":"二段","MAREA":" ","LANE":"３１８巷","ALLEY":" ","HOUSE_NO":"３２號","E_COORD97":169823.16,"N_COORD97":2549277.6099999999,"ADDRESS":"安和路二段３１８巷３２號","OBJECTID":415695},"geometry":{"x":169823.16000000108,"y":2549277.6099999994}},{"attributes":{"ID":415720,"DIS_CODE":0,"TOWNNAME":"安南區","LI":"溪心里","LIN":"3鄰","STREET":"安中路","SECT":"二段","MAREA":" ","LANE":"３３６巷","ALLEY":" ","HOUSE_NO":"２１號","E_COORD97":166420.95999999999,"N_COORD97":2549795.21,"ADDRESS":"安中路二段３３６巷２１號","OBJECTID":415696},"geometry":{"x":166420.95999999996,"y":2549795.2100000028}},{"attributes":{"ID":415721,"DIS_CODE":0,"TOWNNAME":"安南區","LI":"溪北里","LIN":"3鄰","STREET":"安和路","SECT":"一段","MAREA":" ","LANE":"９１巷","ALLEY":" ","HOUSE_NO":"３５號","E_COORD97":169381.64000000001,"N_COORD97":2547539.3999999999,"ADDRESS":"安和路一段９１巷３５號","OBJECTID":415697},"geometry":{"x":169381.64000000153,"y":2547539.4000000022}},{"attributes":{"ID":415722,"DIS_CODE":0,"TOWNNAME":"安南區","LI":"溪北里","LIN":"3鄰","STREET":"安和路","SECT":"一段","MAREA":" ","LANE":"９１巷","ALLEY":" ","HOUSE_NO":"５１號","E_COORD97":169330.35000000001,"N_COORD97":2547519.04,"ADDRESS":"安和路一段９１巷５１號","OBJECTID":415698},"geometry":{"x":169330.34999999963,"y":2547519.040000001}},{"attributes":{"ID":415723,"DIS_CODE":0,"TOWNNAME":"安南區","LI":"溪北里","LIN":"3鄰","STREET":"安和路","SECT":"一段","MAREA":" ","LANE":"９１巷","ALLEY":" ","HOUSE_NO":"５７號","E_COORD97":169311.26999999999,"N_COORD97":2547511.6800000002,"ADDRESS":"安和路一段９１巷５７號","OBJECTID":415699},"geometry":{"x":169311.27000000142,"y":2547511.6800000034}},{"attributes":{"ID":415724,"DIS_CODE":0,"TOWNNAME":"安南區","LI":"溪墘里","LIN":"3鄰","STREET":"海佃路","SECT":"一段","MAREA":" ","LANE":"１８８巷","ALLEY":" ","HOUSE_NO":"２８號","E_COORD97":167251.88,"N_COORD97":2547253.3100000001,"ADDRESS":"海佃路一段１８８巷２８號","OBJECTID":415700},"geometry":{"x":167251.88000000082,"y":2547253.3100000005}},{"attributes":{"ID":415725,"DIS_CODE":0,"TOWNNAME":"永康區","LI":"王行里","LIN":"10鄰","STREET":"王行路","SECT":" ","MAREA":" ","LANE":"１０１８巷","ALLEY":" ","HOUSE_NO":"５４號","E_COORD97":175786.17999999999,"N_COORD97":2550211.9900000002,"ADDRESS":"王行路１０１８巷５４號","OBJECTID":415701},"geometry":{"x":175786.18000000063,"y":2550211.9900000039}},{"attributes":{"ID":415726,"DIS_CODE":0,"TOWNNAME":"永康區","LI":"永康里","LIN":"28鄰","STREET":"永平街","SECT":" ","MAREA":" ","LANE":"４６９巷","ALLEY":" ","HOUSE_NO":"２１號","E_COORD97":174154.64000000001,"N_COORD97":2546906.4700000002,"ADDRESS":"永平街４６９巷２１號","OBJECTID":415702},"geometry":{"x":174154.63999999966,"y":2546906.4700000007}},{"attributes":{"ID":415727,"DIS_CODE":0,"TOWNNAME":"永康區","LI":"南灣里","LIN":"23鄰","STREET":"大灣路","SECT":" ","MAREA":" ","LANE":"７６４巷","ALLEY":" ","HOUSE_NO":"６５號","E_COORD97":174204.92000000001,"N_COORD97":2544712.98,"ADDRESS":"大灣路７６４巷６５號","OBJECTID":415703},"geometry":{"x":174204.92000000086,"y":2544712.9800000042}},{"attributes":{"ID":415728,"DIS_CODE":0,"TOWNNAME":"永康區","LI":"成功里","LIN":"11鄰","STREET":"忠孝路","SECT":" ","MAREA":" ","LANE":"１９９巷","ALLEY":" ","HOUSE_NO":"３０號","E_COORD97":172017.87,"N_COORD97":2544871.5,"ADDRESS":"忠孝路１９９巷３０號","OBJECTID":415704},"geometry":{"x":172017.87000000011,"y":2544871.5}},{"attributes":{"ID":415729,"DIS_CODE":0,"TOWNNAME":"安南區","LI":"溪墘里","LIN":"3鄰","STREET":"海佃路","SECT":"一段","MAREA":" ","LANE":"１８８巷","ALLEY":" ","HOUSE_NO":"１８號","E_COORD97":167224.26999999999,"N_COORD97":2547248.6400000001,"ADDRESS":"海佃路一段１８８巷１８號","OBJECTID":415705},"geometry":{"x":167224.26999999862,"y":2547248.6400000025}},{"attributes":{"ID":415730,"DIS_CODE":0,"TOWNNAME":"安南區","LI":"溪墘里","LIN":"3鄰","STREET":"海佃路","SECT":"一段","MAREA":" ","LANE":"１８８巷","ALLEY":" ","HOUSE_NO":"２號","E_COORD97":167186.32999999999,"N_COORD97":2547235.5,"ADDRESS":"海佃路一段１８８巷２號","OBJECTID":415706},"geometry":{"x":167186.33000000101,"y":2547235.5000000019}},{"attributes":{"ID":415731,"DIS_CODE":0,"TOWNNAME":"安南區","LI":"溪墘里","LIN":"3鄰","STREET":"海佃路","SECT":"一段","MAREA":" ","LANE":"１８８巷","ALLEY":" ","HOUSE_NO":"１２號","E_COORD97":167209.95999999999,"N_COORD97":2547244.7400000002,"ADDRESS":"海佃路一段１８８巷１２號","OBJECTID":415707},"geometry":{"x":167209.96000000183,"y":2547244.7400000021}},{"attributes":{"ID":415732,"DIS_CODE":0,"TOWNNAME":"永康區","LI":"烏竹里","LIN":"3鄰","STREET":"竹園二街","SECT":" ","MAREA":" ","LANE":"２０６巷","ALLEY":" ","HOUSE_NO":"４２號","E_COORD97":174712.70000000001,"N_COORD97":2549382.7400000002,"ADDRESS":"竹園二街２０６巷４２號","OBJECTID":415708},"geometry":{"x":174712.70000000019,"y":2549382.7400000002}},{"attributes":{"ID":415733,"DIS_CODE":0,"TOWNNAME":"永康區","LI":"烏竹里","LIN":"3鄰","STREET":"竹園二街","SECT":" ","MAREA":" ","LANE":"２０６巷","ALLEY":" ","HOUSE_NO":"１６號","E_COORD97":174685.64000000001,"N_COORD97":2549361.8199999998,"ADDRESS":"竹園二街２０６巷１６號","OBJECTID":415709},"geometry":{"x":174685.63999999966,"y":2549361.8200000003}},{"attributes":{"ID":415734,"DIS_CODE":0,"TOWNNAME":"永康區","LI":"烏竹里","LIN":"3鄰","STREET":"竹園二街","SECT":" ","MAREA":" ","LANE":"２０６巷","ALLEY":" ","HOUSE_NO":"５２號","E_COORD97":174724.66,"N_COORD97":2549393.2400000002,"ADDRESS":"竹園二街２０６巷５２號","OBJECTID":415710},"geometry":{"x":174724.66000000015,"y":2549393.2400000039}},{"attributes":{"ID":415735,"DIS_CODE":0,"TOWNNAME":"永康區","LI":"龍潭里","LIN":"3鄰","STREET":"龍國街","SECT":" ","MAREA":" ","LANE":"２９１巷","ALLEY":" ","HOUSE_NO":"２０號","E_COORD97":174644.89999999999,"N_COORD97":2548081.1899999999,"ADDRESS":"龍國街２９１巷２０號","OBJECTID":415711},"geometry":{"x":174644.9000000013,"y":2548081.1900000013}},{"attributes":{"ID":415736,"DIS_CODE":0,"TOWNNAME":"永康區","LI":"復興里","LIN":"3鄰","STREET":"復興路","SECT":" ","MAREA":" ","LANE":"２７７巷","ALLEY":" ","HOUSE_NO":"１２０號","E_COORD97":172363.04000000001,"N_COORD97":2543989.98,"ADDRESS":"復興路２７７巷１２０號","OBJECTID":415712},"geometry":{"x":172363.04000000097,"y":2543989.9800000004}},{"attributes":{"ID":415737,"DIS_CODE":0,"TOWNNAME":"永康區","LI":"\u25A0行里","LIN":"3鄰","STREET":"中正路","SECT":" ","MAREA":" ","LANE":"９２６巷","ALLEY":" ","HOUSE_NO":"９號","E_COORD97":172041.78,"N_COORD97":2548922.25,"ADDRESS":"中正路９２６巷９號","OBJECTID":415713},"geometry":{"x":172041.78000000119,"y":2548922.2500000019}},{"attributes":{"ID":415738,"DIS_CODE":0,"TOWNNAME":"永康區","LI":"南灣里","LIN":"3鄰","STREET":"南興路","SECT":" ","MAREA":" ","LANE":"１１２巷","ALLEY":" ","HOUSE_NO":"１０９號","E_COORD97":174670.20000000001,"N_COORD97":2544573.5600000001,"ADDRESS":"南興路１１２巷１０９號","OBJECTID":415714},"geometry":{"x":174670.20000000019,"y":2544573.5600000042}},{"attributes":{"ID":415739,"DIS_CODE":0,"TOWNNAME":"永康區","LI":"復興里","LIN":"3鄰","STREET":"復興路","SECT":" ","MAREA":" ","LANE":"２７７巷","ALLEY":" ","HOUSE_NO":"５２號","E_COORD97":172337.25,"N_COORD97":2544172.7799999998,"ADDRESS":"復興路２７７巷５２號","OBJECTID":415715},"geometry":{"x":172337.25,"y":2544172.7799999993}},{"attributes":{"ID":415740,"DIS_CODE":0,"TOWNNAME":"永康區","LI":"崑山里","LIN":"3鄰","STREET":"大灣路","SECT":" ","MAREA":" ","LANE":"８７９巷","ALLEY":" ","HOUSE_NO":"２７號","E_COORD97":173696.63,"N_COORD97":2544376.21,"ADDRESS":"大灣路８７９巷２７號","OBJECTID":415716},"geometry":{"x":173696.63000000082,"y":2544376.209999999}},{"attributes":{"ID":415741,"DIS_CODE":0,"TOWNNAME":"永康區","LI":"崑山里","LIN":"3鄰","STREET":"大灣路","SECT":" ","MAREA":" ","LANE":"８７９巷","ALLEY":" ","HOUSE_NO":"１８號","E_COORD97":173641.76999999999,"N_COORD97":2544364.8599999999,"ADDRESS":"大灣路８７９巷１８號","OBJECTID":415717},"geometry":{"x":173641.76999999955,"y":2544364.8600000013}},{"attributes":{"ID":415742,"DIS_CODE":0,"TOWNNAME":"永康區","LI":"崑山里","LIN":"3鄰","STREET":"大灣路","SECT":" ","MAREA":" ","LANE":"８７９巷","ALLEY":" ","HOUSE_NO":"４３號","E_COORD97":173665.72,"N_COORD97":2544369.46,"ADDRESS":"大灣路８７９巷４３號","OBJECTID":415718},"geometry":{"x":173665.72000000067,"y":2544369.4600000028}},{"attributes":{"ID":415743,"DIS_CODE":0,"TOWNNAME":"永康區","LI":"崑山里","LIN":"3鄰","STREET":"大灣路","SECT":" ","MAREA":" ","LANE":"８９１巷","ALLEY":" ","HOUSE_NO":"１號","E_COORD97":173618.26999999999,"N_COORD97":2544354.3599999999,"ADDRESS":"大灣路８９１巷１號","OBJECTID":415719},"geometry":{"x":173618.26999999955,"y":2544354.3600000013}},{"attributes":{"ID":415744,"DIS_CODE":0,"TOWNNAME":"永康區","LI":"烏竹里","LIN":"3鄰","STREET":"竹園二街","SECT":" ","MAREA":" ","LANE":"２０６巷","ALLEY":" ","HOUSE_NO":"３６號","E_COORD97":174720.60999999999,"N_COORD97":2549362.9900000002,"ADDRESS":"竹園二街２０６巷３６號","OBJECTID":415720},"geometry":{"x":174720.6099999994,"y":2549362.9900000002}},{"attributes":{"ID":415745,"DIS_CODE":0,"TOWNNAME":"永康區","LI":"崑山里","LIN":"3鄰","STREET":"大灣路","SECT":" ","MAREA":" ","LANE":"８７９巷","ALLEY":" ","HOUSE_NO":"２５號","E_COORD97":173700.47,"N_COORD97":2544376.96,"ADDRESS":"大灣路８７９巷２５號","OBJECTID":415721},"geometry":{"x":173700.46999999881,"y":2544376.9600000009}},{"attributes":{"ID":415746,"DIS_CODE":0,"TOWNNAME":"永康區","LI":"崑山里","LIN":"3鄰","STREET":"大灣路","SECT":" ","MAREA":" ","LANE":"８７９巷","ALLEY":" ","HOUSE_NO":"４１號","E_COORD97":173669.51000000001,"N_COORD97":2544370.21,"ADDRESS":"大灣路８７９巷４１號","OBJECTID":415722},"geometry":{"x":173669.50999999978,"y":2544370.2100000028}},{"attributes":{"ID":415747,"DIS_CODE":0,"TOWNNAME":"永康區","LI":"崑山里","LIN":"3鄰","STREET":"大灣路","SECT":" ","MAREA":" ","LANE":"８７９巷","ALLEY":" ","HOUSE_NO":"４５號","E_COORD97":173661.92000000001,"N_COORD97":2544368.46,"ADDRESS":"大灣路８７９巷４５號","OBJECTID":415723},"geometry":{"x":173661.91999999993,"y":2544368.4600000028}},{"attributes":{"ID":415748,"DIS_CODE":0,"TOWNNAME":"永康區","LI":"烏竹里","LIN":"3鄰","STREET":"竹園二街","SECT":" ","MAREA":" ","LANE":"２０６巷","ALLEY":" ","HOUSE_NO":"２號","E_COORD97":174690.07000000001,"N_COORD97":2549339.23,"ADDRESS":"竹園二街２０６巷２號","OBJECTID":415724},"geometry":{"x":174690.0700000003,"y":2549339.2300000042}},{"attributes":{"ID":415749,"DIS_CODE":0,"TOWNNAME":"永康區","LI":"烏竹里","LIN":"3鄰","STREET":"竹園二街","SECT":" ","MAREA":" ","LANE":"２０６巷","ALLEY":" ","HOUSE_NO":"３０號","E_COORD97":174704.14000000001,"N_COORD97":2549377.0699999998,"ADDRESS":"竹園二街２０６巷３０號","OBJECTID":415725},"geometry":{"x":174704.13999999966,"y":2549377.0700000003}},{"attributes":{"ID":415750,"DIS_CODE":0,"TOWNNAME":"永康區","LI":"崑山里","LIN":"3鄰","STREET":"大灣路","SECT":" ","MAREA":" ","LANE":"８７９巷","ALLEY":" ","HOUSE_NO":"３３號","E_COORD97":173685.42000000001,"N_COORD97":2544373.71,"ADDRESS":"大灣路８７９巷３３號","OBJECTID":415726},"geometry":{"x":173685.41999999993,"y":2544373.7100000028}},{"attributes":{"ID":415751,"DIS_CODE":0,"TOWNNAME":"永康區","LI":"神洲里","LIN":"3鄰","STREET":"忠孝路","SECT":" ","MAREA":" ","LANE":"３６巷","ALLEY":" ","HOUSE_NO":"２２號","E_COORD97":172169.95999999999,"N_COORD97":2544670,"ADDRESS":"忠孝路３６巷２２號","OBJECTID":415727},"geometry":{"x":172169.95999999996,"y":2544670.0000000019}},{"attributes":{"ID":415752,"DIS_CODE":0,"TOWNNAME":"永康區","LI":"烏竹里","LIN":"3鄰","STREET":"竹園二街","SECT":" ","MAREA":" ","LANE":"２０６巷","ALLEY":" ","HOUSE_NO":"２２號","E_COORD97":174694.73999999999,"N_COORD97":2549369.5699999998,"ADDRESS":"竹園二街２０６巷２２號","OBJECTID":415728},"geometry":{"x":174694.74000000115,"y":2549369.5700000003}},{"attributes":{"ID":415753,"DIS_CODE":0,"TOWNNAME":"永康區","LI":"崑山里","LIN":"3鄰","STREET":"大灣路","SECT":" ","MAREA":" ","LANE":"８７９巷","ALLEY":" ","HOUSE_NO":"３７號","E_COORD97":173677.32999999999,"N_COORD97":2544371.96,"ADDRESS":"大灣路８７９巷３７號","OBJECTID":415729},"geometry":{"x":173677.33000000007,"y":2544371.9600000028}},{"attributes":{"ID":415754,"DIS_CODE":0,"TOWNNAME":"永康區","LI":"崑山里","LIN":"3鄰","STREET":"大灣路","SECT":" ","MAREA":" ","LANE":"８７９巷","ALLEY":" ","HOUSE_NO":"３９號","E_COORD97":173673.37,"N_COORD97":2544371.21,"ADDRESS":"大灣路８７９巷３９號","OBJECTID":415730},"geometry":{"x":173673.37000000104,"y":2544371.2100000028}},{"attributes":{"ID":415755,"DIS_CODE":0,"TOWNNAME":"永康區","LI":"北灣里","LIN":"20鄰","STREET":"北興路","SECT":" ","MAREA":" ","LANE":"３２巷","ALLEY":" ","HOUSE_NO":"７號","E_COORD97":174671.54999999999,"N_COORD97":2546008.3199999998,"ADDRESS":"北興路３２巷７號","OBJECTID":415731},"geometry":{"x":174671.55000000168,"y":2546008.3200000003}},{"attributes":{"ID":415756,"DIS_CODE":0,"TOWNNAME":"安南區","LI":"溪心里","LIN":"3鄰","STREET":"安中路","SECT":"二段","MAREA":" ","LANE":"３３６巷","ALLEY":" ","HOUSE_NO":"２２號","E_COORD97":166433.76999999999,"N_COORD97":2549790.25,"ADDRESS":"安中路二段３３６巷２２號","OBJECTID":415732},"geometry":{"x":166433.76999999955,"y":2549790.2500000019}},{"attributes":{"ID":415757,"DIS_CODE":0,"TOWNNAME":"安南區","LI":"溪心里","LIN":"3鄰","STREET":"安中路","SECT":"二段","MAREA":" ","LANE":"３３６巷","ALLEY":" ","HOUSE_NO":"２６號","E_COORD97":166438.03,"N_COORD97":2549794.0899999999,"ADDRESS":"安中路二段３３６巷２６號","OBJECTID":415733},"geometry":{"x":166438.03000000026,"y":2549794.0900000036}},{"attributes":{"ID":415758,"DIS_CODE":0,"TOWNNAME":"安南區","LI":"溪心里","LIN":"3鄰","STREET":"安中路","SECT":"二段","MAREA":" ","LANE":"３３６巷","ALLEY":" ","HOUSE_NO":"３５號","E_COORD97":166455.94,"N_COORD97":2549827.23,"ADDRESS":"安中路二段３３６巷３５號","OBJECTID":415734},"geometry":{"x":166455.94000000041,"y":2549827.2299999986}},{"attributes":{"ID":415759,"DIS_CODE":0,"TOWNNAME":"永康區","LI":"王行里","LIN":"4鄰","STREET":"育樂街","SECT":" ","MAREA":" ","LANE":"１６７巷","ALLEY":" ","HOUSE_NO":"１１號","E_COORD97":175009.09,"N_COORD97":2548293.8900000001,"ADDRESS":"育樂街１６７巷１１號","OBJECTID":415735},"geometry":{"x":175009.09000000078,"y":2548293.8899999987}},{"attributes":{"ID":415760,"DIS_CODE":0,"TOWNNAME":"永康區","LI":"成功里","LIN":"13鄰","STREET":"忠孝路","SECT":" ","MAREA":" ","LANE":"２０７巷","ALLEY":" ","HOUSE_NO":"２９號","E_COORD97":172004.31,"N_COORD97":2544914.7599999998,"ADDRESS":"忠孝路２０７巷２９號","OBJECTID":415736},"geometry":{"x":172004.30999999959,"y":2544914.7600000016}},{"attributes":{"ID":415761,"DIS_CODE":0,"TOWNNAME":"永康區","LI":"王行里","LIN":"6鄰","STREET":"育樂街","SECT":" ","MAREA":" ","LANE":"１８３巷","ALLEY":" ","HOUSE_NO":"１２號","E_COORD97":175009.54000000001,"N_COORD97":2548256.2000000002,"ADDRESS":"育樂街１８３巷１２號","OBJECTID":415737},"geometry":{"x":175009.54000000097,"y":2548256.1999999993}},{"attributes":{"ID":415762,"DIS_CODE":0,"TOWNNAME":"東區","LI":"文聖里","LIN":"3鄰","STREET":"裕農一街","SECT":" ","MAREA":" ","LANE":"１７０巷","ALLEY":" ","HOUSE_NO":"３０號","E_COORD97":171839.47,"N_COORD97":2542732.0699999998,"ADDRESS":"裕農一街１７０巷３０號","OBJECTID":415738},"geometry":{"x":171839.47000000067,"y":2542732.0700000003}},{"attributes":{"ID":415763,"DIS_CODE":0,"TOWNNAME":"東區","LI":"文聖里","LIN":"3鄰","STREET":"裕農一街","SECT":" ","MAREA":" ","LANE":"１７０巷","ALLEY":" ","HOUSE_NO":"２８號","E_COORD97":171845.35999999999,"N_COORD97":2542732.4399999999,"ADDRESS":"裕農一街１７０巷２８號","OBJECTID":415739},"geometry":{"x":171845.36000000034,"y":2542732.4400000032}},{"attributes":{"ID":415764,"DIS_CODE":0,"TOWNNAME":"東區","LI":"文聖里","LIN":"3鄰","STREET":"裕農一街","SECT":" ","MAREA":" ","LANE":"１７０巷","ALLEY":" ","HOUSE_NO":"１０號","E_COORD97":171893.70000000001,"N_COORD97":2542732.0699999998,"ADDRESS":"裕農一街１７０巷１０號","OBJECTID":415740},"geometry":{"x":171893.70000000019,"y":2542732.0700000003}},{"attributes":{"ID":415765,"DIS_CODE":0,"TOWNNAME":"東區","LI":"文聖里","LIN":"3鄰","STREET":"裕農一街","SECT":" ","MAREA":" ","LANE":"１６０巷","ALLEY":" ","HOUSE_NO":"９號","E_COORD97":171877.97,"N_COORD97":2542749.3599999999,"ADDRESS":"裕農一街１６０巷９號","OBJECTID":415741},"geometry":{"x":171877.96999999974,"y":2542749.3599999994}},{"attributes":{"ID":415766,"DIS_CODE":0,"TOWNNAME":"東區","LI":"文聖里","LIN":"3鄰","STREET":"裕農一街","SECT":" ","MAREA":" ","LANE":"１６０巷","ALLEY":" ","HOUSE_NO":"１１號","E_COORD97":171885.51000000001,"N_COORD97":2542760.3199999998,"ADDRESS":"裕農一街１６０巷１１號","OBJECTID":415742},"geometry":{"x":171885.51000000071,"y":2542760.3200000003}},{"attributes":{"ID":415767,"DIS_CODE":0,"TOWNNAME":"東區","LI":"文聖里","LIN":"3鄰","STREET":"裕農一街","SECT":" ","MAREA":" ","LANE":"１６０巷","ALLEY":" ","HOUSE_NO":"１３號","E_COORD97":171876.87,"N_COORD97":2542760.3199999998,"ADDRESS":"裕農一街１６０巷１３號","OBJECTID":415743},"geometry":{"x":171876.87000000011,"y":2542760.3200000003}},{"attributes":{"ID":415768,"DIS_CODE":0,"TOWNNAME":"東區","LI":"文聖里","LIN":"3鄰","STREET":"裕農一街","SECT":" ","MAREA":" ","LANE":"１６０巷","ALLEY":" ","HOUSE_NO":"１５號","E_COORD97":171868.23999999999,"N_COORD97":2542760.3199999998,"ADDRESS":"裕農一街１６０巷１５號","OBJECTID":415744},"geometry":{"x":171868.24000000022,"y":2542760.3200000003}},{"attributes":{"ID":415769,"DIS_CODE":0,"TOWNNAME":"東區","LI":"文聖里","LIN":"3鄰","STREET":"裕農一街","SECT":" ","MAREA":" ","LANE":"１６０巷","ALLEY":" ","HOUSE_NO":"１７號","E_COORD97":171860.70000000001,"N_COORD97":2542760.04,"ADDRESS":"裕農一街１６０巷１７號","OBJECTID":415745},"geometry":{"x":171860.70000000112,"y":2542760.040000001}},{"attributes":{"ID":415770,"DIS_CODE":0,"TOWNNAME":"東區","LI":"文聖里","LIN":"3鄰","STREET":"裕農一街","SECT":" ","MAREA":" ","LANE":"１６０巷","ALLEY":" ","HOUSE_NO":"１９號","E_COORD97":171864.81,"N_COORD97":2542749.77,"ADDRESS":"裕農一街１６０巷１９號","OBJECTID":415746},"geometry":{"x":171864.80999999959,"y":2542749.7699999996}},{"attributes":{"ID":415771,"DIS_CODE":0,"TOWNNAME":"永康區","LI":"埔園里","LIN":"30鄰","STREET":"八德街","SECT":" ","MAREA":" ","LANE":"１８１巷","ALLEY":" ","HOUSE_NO":"５號","E_COORD97":173882.89000000001,"N_COORD97":2548528.52,"ADDRESS":"八德街１８１巷５號","OBJECTID":415747},"geometry":{"x":173882.8900000006,"y":2548528.5199999996}},{"attributes":{"ID":415772,"DIS_CODE":0,"TOWNNAME":"永康區","LI":"永康里","LIN":"28鄰","STREET":"永平街","SECT":" ","MAREA":" ","LANE":"４６９巷","ALLEY":" ","HOUSE_NO":"２６號","E_COORD97":174166.34,"N_COORD97":2546899.6200000001,"ADDRESS":"永平街４６９巷２６號","OBJECTID":415748},"geometry":{"x":174166.34000000078,"y":2546899.6200000048}},{"attributes":{"ID":415773,"DIS_CODE":0,"TOWNNAME":"永康區","LI":"永康里","LIN":"26鄰","STREET":"永明街","SECT":" ","MAREA":" ","LANE":"６９巷","ALLEY":" ","HOUSE_NO":"６號","E_COORD97":174182.47,"N_COORD97":2547290.9900000002,"ADDRESS":"永明街６９巷６號","OBJECTID":415749},"geometry":{"x":174182.47000000067,"y":2547290.9900000021}},{"attributes":{"ID":415774,"DIS_CODE":0,"TOWNNAME":"永康區","LI":"永康里","LIN":"39鄰","STREET":"永福街","SECT":" ","MAREA":" ","LANE":"１１巷","ALLEY":" ","HOUSE_NO":"１２號","E_COORD97":174314.39000000001,"N_COORD97":2546412.5800000001,"ADDRESS":"永福街１１巷１２號","OBJECTID":415750},"geometry":{"x":174314.38999999966,"y":2546412.5800000001}},{"attributes":{"ID":415775,"DIS_CODE":0,"TOWNNAME":"永康區","LI":"西灣里","LIN":"34鄰","STREET":"永華路","SECT":" ","MAREA":" ","LANE":"３６２巷","ALLEY":" ","HOUSE_NO":"９號","E_COORD97":174109.48000000001,"N_COORD97":2545800.0299999998,"ADDRESS":"永華路３６２巷９號","OBJECTID":415751},"geometry":{"x":174109.48000000045,"y":2545800.0300000031}},{"attributes":{"ID":415776,"DIS_CODE":0,"TOWNNAME":"永康區","LI":"南灣里","LIN":"16鄰","STREET":"大灣一街","SECT":" ","MAREA":" ","LANE":"１３１巷","ALLEY":" ","HOUSE_NO":"３３號","E_COORD97":174595.62,"N_COORD97":2544761.5299999998,"ADDRESS":"大灣一街１３１巷３３號","OBJECTID":415752},"geometry":{"x":174595.62000000104,"y":2544761.5299999993}},{"attributes":{"ID":415777,"DIS_CODE":0,"TOWNNAME":"仁德區","LI":"成功里","LIN":"3鄰","STREET":"保生東路","SECT":" ","MAREA":" ","LANE":"２１８巷","ALLEY":" ","HOUSE_NO":"８６號","E_COORD97":171239.23000000001,"N_COORD97":2539635.5800000001,"ADDRESS":"保生東路２１８巷８６號","OBJECTID":415753},"geometry":{"x":171239.23000000045,"y":2539635.5800000001}},{"attributes":{"ID":415778,"DIS_CODE":0,"TOWNNAME":"仁德區","LI":"仁德里","LIN":"3鄰","STREET":"仁德五街","SECT":" ","MAREA":" ","LANE":"２４巷","ALLEY":" ","HOUSE_NO":"１５號","E_COORD97":173384.26000000001,"N_COORD97":2540276.0099999998,"ADDRESS":"仁德五街２４巷１５號","OBJECTID":415754},"geometry":{"x":173384.25999999978,"y":2540276.0099999998}},{"attributes":{"ID":415779,"DIS_CODE":0,"TOWNNAME":"仁德區","LI":"後壁里","LIN":"3鄰","STREET":"中正路","SECT":"二段","MAREA":" ","LANE":"３１８巷","ALLEY":" ","HOUSE_NO":"２號","E_COORD97":173292.98000000001,"N_COORD97":2539022.52,"ADDRESS":"中正路二段３１８巷２號","OBJECTID":415755},"geometry":{"x":173292.98000000138,"y":2539022.5199999996}},{"attributes":{"ID":415780,"DIS_CODE":0,"TOWNNAME":"仁德區","LI":"成功里","LIN":"3鄰","STREET":"保生東路","SECT":" ","MAREA":" ","LANE":"２１８巷","ALLEY":" ","HOUSE_NO":"６０號","E_COORD97":171246.25,"N_COORD97":2539677.5899999999,"ADDRESS":"保生東路２１８巷６０號","OBJECTID":415756},"geometry":{"x":171246.25000000093,"y":2539677.5900000017}},{"attributes":{"ID":415781,"DIS_CODE":0,"TOWNNAME":"仁德區","LI":"成功里","LIN":"3鄰","STREET":"保生東路","SECT":" ","MAREA":" ","LANE":"２１８巷","ALLEY":" ","HOUSE_NO":"７６號","E_COORD97":171243.85999999999,"N_COORD97":2539651.0800000001,"ADDRESS":"保生東路２１８巷７６號","OBJECTID":415757},"geometry":{"x":171243.8600000022,"y":2539651.0800000019}},{"attributes":{"ID":415782,"DIS_CODE":0,"TOWNNAME":"仁德區","LI":"成功里","LIN":"3鄰","STREET":"保生東路","SECT":" ","MAREA":" ","LANE":"２１８巷","ALLEY":" ","HOUSE_NO":"８０號","E_COORD97":171241.59,"N_COORD97":2539643.5800000001,"ADDRESS":"保生東路２１８巷８０號","OBJECTID":415758},"geometry":{"x":171241.58999999985,"y":2539643.5800000038}},{"attributes":{"ID":415783,"DIS_CODE":0,"TOWNNAME":"仁德區","LI":"成功里","LIN":"3鄰","STREET":"保生東路","SECT":" ","MAREA":" ","LANE":"２１８巷","ALLEY":" ","HOUSE_NO":"８８號","E_COORD97":171238.25,"N_COORD97":2539631.8300000001,"ADDRESS":"保生東路２１８巷８８號","OBJECTID":415759},"geometry":{"x":171238.25000000093,"y":2539631.8300000019}},{"attributes":{"ID":415784,"DIS_CODE":0,"TOWNNAME":"仁德區","LI":"成功里","LIN":"3鄰","STREET":"保生東路","SECT":" ","MAREA":" ","LANE":"２１８巷","ALLEY":" ","HOUSE_NO":"５６號","E_COORD97":171245.59,"N_COORD97":2539684.5899999999,"ADDRESS":"保生東路２１８巷５６號","OBJECTID":415760},"geometry":{"x":171245.59000000078,"y":2539684.5900000017}},{"attributes":{"ID":415785,"DIS_CODE":0,"TOWNNAME":"永康區","LI":"正強里","LIN":"48鄰","STREET":"中正路","SECT":" ","MAREA":" ","LANE":"２５６巷","ALLEY":" ","HOUSE_NO":"１３號之２３","E_COORD97":173256.03,"N_COORD97":2548001.6699999999,"ADDRESS":"中正路２５６巷１３號之２３","OBJECTID":415761},"geometry":{"x":173256.03000000026,"y":2548001.6699999999}},{"attributes":{"ID":415786,"DIS_CODE":0,"TOWNNAME":"永康區","LI":"勝利里","LIN":"26鄰","STREET":"勝利街","SECT":" ","MAREA":" ","LANE":"７４巷","ALLEY":" ","HOUSE_NO":"１４號","E_COORD97":171399.94,"N_COORD97":2544701.5,"ADDRESS":"勝利街７４巷１４號","OBJECTID":415762},"geometry":{"x":171399.94000000134,"y":2544701.5}},{"attributes":{"ID":415787,"DIS_CODE":0,"TOWNNAME":"永康區","LI":"南灣里","LIN":"3鄰","STREET":"南興路","SECT":" ","MAREA":" ","LANE":"１１２巷","ALLEY":" ","HOUSE_NO":"９１號","E_COORD97":174619.14000000001,"N_COORD97":2544558.2799999998,"ADDRESS":"南興路１１２巷９１號","OBJECTID":415763},"geometry":{"x":174619.13999999966,"y":2544558.2800000012}},{"attributes":{"ID":415788,"DIS_CODE":0,"TOWNNAME":"永康區","LI":"南灣里","LIN":"3鄰","STREET":"南興路","SECT":" ","MAREA":" ","LANE":"１１２巷","ALLEY":" ","HOUSE_NO":"９３號","E_COORD97":174624.01999999999,"N_COORD97":2544559.79,"ADDRESS":"南興路１１２巷９３號","OBJECTID":415764},"geometry":{"x":174624.02000000142,"y":2544559.7899999991}},{"attributes":{"ID":415789,"DIS_CODE":0,"TOWNNAME":"永康區","LI":"南灣里","LIN":"3鄰","STREET":"南興路","SECT":" ","MAREA":" ","LANE":"１１２巷","ALLEY":" ","HOUSE_NO":"９５號","E_COORD97":174628.63,"N_COORD97":2544561.2400000002,"ADDRESS":"南興路１１２巷９５號","OBJECTID":415765},"geometry":{"x":174628.63000000175,"y":2544561.2400000002}},{"attributes":{"ID":415790,"DIS_CODE":0,"TOWNNAME":"永康區","LI":"王行里","LIN":"15鄰","STREET":"龍昌街","SECT":" ","MAREA":" ","LANE":"８５巷","ALLEY":" ","HOUSE_NO":"４號","E_COORD97":174957.32999999999,"N_COORD97":2548121.9700000002,"ADDRESS":"龍昌街８５巷４號","OBJECTID":415766},"geometry":{"x":174957.33000000007,"y":2548121.9700000025}},{"attributes":{"ID":415791,"DIS_CODE":0,"TOWNNAME":"永康區","LI":"北灣里","LIN":"1鄰","STREET":"大同街","SECT":" ","MAREA":" ","LANE":"８巷","ALLEY":" ","HOUSE_NO":"１１號","E_COORD97":175316.94,"N_COORD97":2545461.52,"ADDRESS":"大同街８巷１１號","OBJECTID":415767},"geometry":{"x":175316.94000000227,"y":2545461.5200000014}},{"attributes":{"ID":415792,"DIS_CODE":0,"TOWNNAME":"永康區","LI":"西勢里","LIN":"21鄰","STREET":"富強路","SECT":"一段","MAREA":" ","LANE":"１４３巷","ALLEY":" ","HOUSE_NO":"３５號","E_COORD97":175454.16,"N_COORD97":2546366.77,"ADDRESS":"富強路一段１４３巷３５號","OBJECTID":415768},"geometry":{"x":175454.16000000201,"y":2546366.7699999996}},{"attributes":{"ID":415793,"DIS_CODE":0,"TOWNNAME":"永康區","LI":"南灣里","LIN":"29鄰","STREET":"立興街","SECT":" ","MAREA":" ","LANE":"７４巷","ALLEY":" ","HOUSE_NO":"３８號","E_COORD97":174495.10000000001,"N_COORD97":2544871.5899999999,"ADDRESS":"立興街７４巷３８號","OBJECTID":415769},"geometry":{"x":174495.10000000056,"y":2544871.5900000017}},{"attributes":{"ID":415794,"DIS_CODE":0,"TOWNNAME":"永康區","LI":"西勢里","LIN":"27鄰","STREET":"廣興街","SECT":" ","MAREA":" ","LANE":"２６巷","ALLEY":" ","HOUSE_NO":"４３號","E_COORD97":176006.44,"N_COORD97":2546399.6400000001,"ADDRESS":"廣興街２６巷４３號","OBJECTID":415770},"geometry":{"x":176006.44000000041,"y":2546399.6400000006}},{"attributes":{"ID":415795,"DIS_CODE":0,"TOWNNAME":"永康區","LI":"成功里","LIN":"41鄰","STREET":"中華路","SECT":" ","MAREA":" ","LANE":"１５４巷","ALLEY":" ","HOUSE_NO":"３７號","E_COORD97":171717.64999999999,"N_COORD97":2544897.2599999998,"ADDRESS":"中華路１５４巷３７號","OBJECTID":415771},"geometry":{"x":171717.65000000037,"y":2544897.2600000016}},{"attributes":{"ID":415796,"DIS_CODE":0,"TOWNNAME":"永康區","LI":"正強里","LIN":"35鄰","STREET":"正強街","SECT":" ","MAREA":" ","LANE":"３１３巷","ALLEY":" ","HOUSE_NO":"２０號","E_COORD97":173207.94,"N_COORD97":2548263.6400000001,"ADDRESS":"正強街３１３巷２０號","OBJECTID":415772},"geometry":{"x":173207.94000000041,"y":2548263.6400000006}},{"attributes":{"ID":415797,"DIS_CODE":0,"TOWNNAME":"永康區","LI":"永康里","LIN":"6鄰","STREET":"中山南路","SECT":" ","MAREA":" ","LANE":"６５３巷","ALLEY":" ","HOUSE_NO":"８號","E_COORD97":173804.45999999999,"N_COORD97":2547453.25,"ADDRESS":"中山南路６５３巷８號","OBJECTID":415773},"geometry":{"x":173804.46000000089,"y":2547453.25}},{"attributes":{"ID":415798,"DIS_CODE":0,"TOWNNAME":"永康區","LI":"尚頂里","LIN":"29鄰","STREET":"南台街","SECT":" ","MAREA":" ","LANE":"７５巷","ALLEY":" ","HOUSE_NO":"１之１號","E_COORD97":170239.97,"N_COORD97":2546988.0800000001,"ADDRESS":"南台街７５巷１之１號","OBJECTID":415774},"geometry":{"x":170239.96999999974,"y":2546988.0800000019}},{"attributes":{"ID":415799,"DIS_CODE":0,"TOWNNAME":"永康區","LI":"東橋里","LIN":"11鄰","STREET":"中山南路","SECT":" ","MAREA":" ","LANE":"２３１巷","ALLEY":" ","HOUSE_NO":"１１號","E_COORD97":171625.29999999999,"N_COORD97":2546242.9100000001,"ADDRESS":"中山南路２３１巷１１號","OBJECTID":415775},"geometry":{"x":171625.30000000168,"y":2546242.910000002}},{"attributes":{"ID":415800,"DIS_CODE":0,"TOWNNAME":"新化區","LI":"竹林里","LIN":"3鄰","STREET":"中山路","SECT":" ","MAREA":" ","LANE":"３７６巷","ALLEY":" ","HOUSE_NO":"３號","E_COORD97":178837.41,"N_COORD97":2548442.25,"ADDRESS":"中山路３７６巷３號","OBJECTID":415776},"geometry":{"x":178837.41000000015,"y":2548442.25}},{"attributes":{"ID":415801,"DIS_CODE":0,"TOWNNAME":"新化區","LI":"竹林里","LIN":"3鄰","STREET":"中山路","SECT":" ","MAREA":" ","LANE":"３７６巷","ALLEY":" ","HOUSE_NO":"３號之１","E_COORD97":178830.73999999999,"N_COORD97":2548450.2599999998,"ADDRESS":"中山路３７６巷３號之１","OBJECTID":415777},"geometry":{"x":178830.74000000115,"y":2548450.2600000035}},{"attributes":{"ID":415802,"DIS_CODE":0,"TOWNNAME":"永康區","LI":"正強里","LIN":"48鄰","STREET":"中正路","SECT":" ","MAREA":" ","LANE":"２５６巷","ALLEY":" ","HOUSE_NO":"１３號之３８","E_COORD97":173256.07999999999,"N_COORD97":2548001.6699999999,"ADDRESS":"中正路２５６巷１３號之３８","OBJECTID":415778},"geometry":{"x":173256.08000000194,"y":2548001.6699999999}},{"attributes":{"ID":415803,"DIS_CODE":0,"TOWNNAME":"永康區","LI":"三合里","LIN":"5鄰","STREET":"南工街","SECT":" ","MAREA":" ","LANE":"９８巷","ALLEY":" ","HOUSE_NO":"８號","E_COORD97":172130.64999999999,"N_COORD97":2545714.75,"ADDRESS":"南工街９８巷８號","OBJECTID":415779},"geometry":{"x":172130.6500000013,"y":2545714.7500000019}},{"attributes":{"ID":415804,"DIS_CODE":0,"TOWNNAME":"永康區","LI":"西灣里","LIN":"25鄰","STREET":"國光七街","SECT":" ","MAREA":" ","LANE":"６巷","ALLEY":" ","HOUSE_NO":"３號","E_COORD97":174345.85999999999,"N_COORD97":2545536.8399999999,"ADDRESS":"國光七街６巷３號","OBJECTID":415780},"geometry":{"x":174345.86000000034,"y":2545536.8399999999}},{"attributes":{"ID":415805,"DIS_CODE":0,"TOWNNAME":"永康區","LI":"正強里","LIN":"12鄰","STREET":"正強街","SECT":" ","MAREA":" ","LANE":"１２２巷","ALLEY":" ","HOUSE_NO":"２８號","E_COORD97":173419.82999999999,"N_COORD97":2547419.21,"ADDRESS":"正強街１２２巷２８號","OBJECTID":415781},"geometry":{"x":173419.83000000007,"y":2547419.2100000028}},{"attributes":{"ID":415806,"DIS_CODE":0,"TOWNNAME":"永康區","LI":"東橋里","LIN":"12鄰","STREET":"中山南路","SECT":" ","MAREA":" ","LANE":"１９５巷","ALLEY":" ","HOUSE_NO":"３號","E_COORD97":171582.20999999999,"N_COORD97":2546186.5800000001,"ADDRESS":"中山南路１９５巷３號","OBJECTID":415782},"geometry":{"x":171582.21000000089,"y":2546186.5799999982}},{"attributes":{"ID":415807,"DIS_CODE":0,"TOWNNAME":"永康區","LI":"成功里","LIN":"12鄰","STREET":"忠孝路","SECT":" ","MAREA":" ","LANE":"２０３巷","ALLEY":" ","HOUSE_NO":"２９號","E_COORD97":171955.76000000001,"N_COORD97":2544850.2400000002,"ADDRESS":"忠孝路２０３巷２９號","OBJECTID":415783},"geometry":{"x":171955.75999999978,"y":2544850.2400000039}},{"attributes":{"ID":415808,"DIS_CODE":0,"TOWNNAME":"永康區","LI":"北灣里","LIN":"21鄰","STREET":"大灣路","SECT":" ","MAREA":" ","LANE":"４０巷","ALLEY":" ","HOUSE_NO":"１０３號","E_COORD97":174952.45999999999,"N_COORD97":2546151.8100000001,"ADDRESS":"大灣路４０巷１０３號","OBJECTID":415784},"geometry":{"x":174952.46000000089,"y":2546151.8100000042}},{"attributes":{"ID":415809,"DIS_CODE":0,"TOWNNAME":"學甲區","LI":"新達里","LIN":"3鄰","STREET":"中山路","SECT":" ","MAREA":" ","LANE":"８８巷","ALLEY":" ","HOUSE_NO":"１７號之３","E_COORD97":166277.5,"N_COORD97":2570630.0800000001,"ADDRESS":"中山路８８巷１７號之３","OBJECTID":415785},"geometry":{"x":166277.50000000186,"y":2570630.0800000001}},{"attributes":{"ID":415810,"DIS_CODE":0,"TOWNNAME":"學甲區","LI":"新達里","LIN":"3鄰","STREET":"中山路","SECT":" ","MAREA":" ","LANE":"８８巷","ALLEY":" ","HOUSE_NO":"１７號","E_COORD97":166271.92999999999,"N_COORD97":2570622.2799999998,"ADDRESS":"中山路８８巷１７號","OBJECTID":415786},"geometry":{"x":166271.9299999997,"y":2570622.2799999975}},{"attributes":{"ID":415811,"DIS_CODE":0,"TOWNNAME":"學甲區","LI":"新達里","LIN":"3鄰","STREET":"中山路","SECT":" ","MAREA":" ","LANE":"９８巷","ALLEY":" ","HOUSE_NO":"１７號","E_COORD97":166240.54000000001,"N_COORD97":2570636.0699999998,"ADDRESS":"中山路９８巷１７號","OBJECTID":415787},"geometry":{"x":166240.54000000097,"y":2570636.0700000022}},{"attributes":{"ID":415812,"DIS_CODE":0,"TOWNNAME":"歸仁區","LI":"許厝里","LIN":"3鄰","STREET":"仁愛南街","SECT":" ","MAREA":" ","LANE":"３５巷","ALLEY":" ","HOUSE_NO":"２號","E_COORD97":178288.10999999999,"N_COORD97":2540567.8999999999,"ADDRESS":"仁愛南街３５巷２號","OBJECTID":415788},"geometry":{"x":178288.11000000127,"y":2540567.9000000022}},{"attributes":{"ID":415813,"DIS_CODE":0,"TOWNNAME":"歸仁區","LI":"媽廟里","LIN":"3鄰","STREET":"和順路","SECT":"一段","MAREA":" ","LANE":"６３巷","ALLEY":" ","HOUSE_NO":"３６號","E_COORD97":177405.12,"N_COORD97":2543627.7200000002,"ADDRESS":"和順路一段６３巷３６號","OBJECTID":415789},"geometry":{"x":177405.12000000011,"y":2543627.7200000025}},{"attributes":{"ID":415814,"DIS_CODE":0,"TOWNNAME":"永康區","LI":"五王里","LIN":"37鄰","STREET":"中華路","SECT":" ","MAREA":" ","LANE":"５７８巷","ALLEY":" ","HOUSE_NO":"１５號之１６","E_COORD97":171276.04999999999,"N_COORD97":2545965.79,"ADDRESS":"中華路５７８巷１５號之１６","OBJECTID":415790},"geometry":{"x":171276.05000000168,"y":2545965.7899999991}},{"attributes":{"ID":415815,"DIS_CODE":0,"TOWNNAME":"永康區","LI":"三民里","LIN":"11鄰","STREET":"和平路","SECT":" ","MAREA":" ","LANE":"２３８巷","ALLEY":" ","HOUSE_NO":"９號","E_COORD97":174798.81,"N_COORD97":2550773.75,"ADDRESS":"和平路２３８巷９號","OBJECTID":415791},"geometry":{"x":174798.81000000052,"y":2550773.7500000019}},{"attributes":{"ID":415816,"DIS_CODE":0,"TOWNNAME":"歸仁區","LI":"崙頂里","LIN":"3鄰","STREET":"信義南路","SECT":" ","MAREA":" ","LANE":"２０２巷","ALLEY":" ","HOUSE_NO":"９號","E_COORD97":178127,"N_COORD97":2540048.6800000002,"ADDRESS":"信義南路２０２巷９號","OBJECTID":415792},"geometry":{"x":178127.00000000093,"y":2540048.6799999997}},{"attributes":{"ID":415817,"DIS_CODE":0,"TOWNNAME":"歸仁區","LI":"看東里","LIN":"3鄰","STREET":"成功六街","SECT":" ","MAREA":" ","LANE":"３８巷","ALLEY":" ","HOUSE_NO":"６２號","E_COORD97":178468.17999999999,"N_COORD97":2540248.8300000001,"ADDRESS":"成功六街３８巷６２號","OBJECTID":415793},"geometry":{"x":178468.18000000063,"y":2540248.8300000038}},{"attributes":{"ID":415818,"DIS_CODE":0,"TOWNNAME":"歸仁區","LI":"看東里","LIN":"3鄰","STREET":"成功六街","SECT":" ","MAREA":" ","LANE":"３８巷","ALLEY":" ","HOUSE_NO":"５８號","E_COORD97":178484.57999999999,"N_COORD97":2540244.8300000001,"ADDRESS":"成功六街３８巷５８號","OBJECTID":415794},"geometry":{"x":178484.58000000101,"y":2540244.8300000001}},{"attributes":{"ID":415819,"DIS_CODE":0,"TOWNNAME":"歸仁區","LI":"看東里","LIN":"3鄰","STREET":"成功六街","SECT":" ","MAREA":" ","LANE":"３８巷","ALLEY":" ","HOUSE_NO":"４６號","E_COORD97":178469.17999999999,"N_COORD97":2540234.8300000001,"ADDRESS":"成功六街３８巷４６號","OBJECTID":415795},"geometry":{"x":178469.1799999997,"y":2540234.8299999982}},{"attributes":{"ID":415820,"DIS_CODE":0,"TOWNNAME":"歸仁區","LI":"崙頂里","LIN":"3鄰","STREET":"成功路","SECT":"二段","MAREA":" ","LANE":"１０巷","ALLEY":" ","HOUSE_NO":"３８號","E_COORD97":178133.47,"N_COORD97":2539930.6800000002,"ADDRESS":"成功路二段１０巷３８號","OBJECTID":415796},"geometry":{"x":178133.4700000016,"y":2539930.6800000034}},{"attributes":{"ID":415821,"DIS_CODE":0,"TOWNNAME":"歸仁區","LI":"許厝里","LIN":"3鄰","STREET":"仁愛一街","SECT":" ","MAREA":" ","LANE":"１２巷","ALLEY":" ","HOUSE_NO":"２８號","E_COORD97":178328.35999999999,"N_COORD97":2540554.8999999999,"ADDRESS":"仁愛一街１２巷２８號","OBJECTID":415797},"geometry":{"x":178328.36000000127,"y":2540554.9000000022}},{"attributes":{"ID":415822,"DIS_CODE":0,"TOWNNAME":"歸仁區","LI":"看東里","LIN":"3鄰","STREET":"成功六街","SECT":" ","MAREA":" ","LANE":"３８巷","ALLEY":" ","HOUSE_NO":"６９號","E_COORD97":178458.07999999999,"N_COORD97":2540275.8300000001,"ADDRESS":"成功六街３８巷６９號","OBJECTID":415798},"geometry":{"x":178458.08000000007,"y":2540275.8300000038}},{"attributes":{"ID":415823,"DIS_CODE":0,"TOWNNAME":"歸仁區","LI":"看東里","LIN":"3鄰","STREET":"成功六街","SECT":" ","MAREA":" ","LANE":"３８巷","ALLEY":" ","HOUSE_NO":"７１號","E_COORD97":178458.17999999999,"N_COORD97":2540284.8300000001,"ADDRESS":"成功六街３８巷７１號","OBJECTID":415799},"geometry":{"x":178458.18000000063,"y":2540284.8300000001}},{"attributes":{"ID":415824,"DIS_CODE":0,"TOWNNAME":"歸仁區","LI":"崙頂里","LIN":"3鄰","STREET":"成功路","SECT":"二段","MAREA":" ","LANE":"１０巷","ALLEY":" ","HOUSE_NO":"４０號","E_COORD97":178120.17000000001,"N_COORD97":2539928.6800000002,"ADDRESS":"成功路二段１０巷４０號","OBJECTID":415800},"geometry":{"x":178120.16999999993,"y":2539928.6800000016}}]}