{"displayFieldName":"TOWNNAME","fieldAliases":{"ID":"ID","DIS_CODE":"DIS_CODE","TOWNNAME":"TOWNNAME","LI":"LI","LIN":"LIN","STREET":"STREET","SECT":"SECT","MAREA":"MAREA","LANE":"LANE","ALLEY":"ALLEY","HOUSE_NO":"HOUSE_NO","E_COORD97":"E_COORD97","N_COORD97":"N_COORD97","ADDRESS":"ADDRESS","OBJECTID":"OBJECTID"},"geometryType":"esriGeometryPoint","spatialReference":{"wkid":102443,"latestWkid":3826},"fields":[{"name":"ID","type":"esriFieldTypeDouble","alias":"ID"},{"name":"DIS_CODE","type":"esriFieldTypeInteger","alias":"DIS_CODE"},{"name":"TOWNNAME","type":"esriFieldTypeString","alias":"TOWNNAME","length":8},{"name":"LI","type":"esriFieldTypeString","alias":"LI","length":8},{"name":"LIN","type":"esriFieldTypeString","alias":"LIN","length":12},{"name":"STREET","type":"esriFieldTypeString","alias":"STREET","length":20},{"name":"SECT","type":"esriFieldTypeString","alias":"SECT","length":8},{"name":"MAREA","type":"esriFieldTypeString","alias":"MAREA","length":12},{"name":"LANE","type":"esriFieldTypeString","alias":"LANE","length":10},{"name":"ALLEY","type":"esriFieldTypeString","alias":"ALLEY","length":10},{"name":"HOUSE_NO","type":"esriFieldTypeString","alias":"HOUSE_NO","length":20},{"name":"E_COORD97","type":"esriFieldTypeDouble","alias":"E_COORD97"},{"name":"N_COORD97","type":"esriFieldTypeDouble","alias":"N_COORD97"},{"name":"ADDRESS","type":"esriFieldTypeString","alias":"ADDRESS","length":50},{"name":"OBJECTID","type":"esriFieldTypeOID","alias":"OBJECTID"}],"features":[{"attributes":{"ID":413625,"DIS_CODE":0,"TOWNNAME":"東區","LI":"大德里","LIN":"16鄰","STREET":"立德十一路","SECT":" ","MAREA":" ","LANE":"５５巷","ALLEY":" ","HOUSE_NO":"１８號","E_COORD97":169507.64999999999,"N_COORD97":2542143.6099999999,"ADDRESS":"立德十一路５５巷１８號","OBJECTID":413601},"geometry":{"x":169507.65000000037,"y":2542143.6099999994}},{"attributes":{"ID":413626,"DIS_CODE":0,"TOWNNAME":"東區","LI":"大德里","LIN":"16鄰","STREET":"立德十一路","SECT":" ","MAREA":" ","LANE":"５５巷","ALLEY":" ","HOUSE_NO":"２０號","E_COORD97":169505.10999999999,"N_COORD97":2542149.0099999998,"ADDRESS":"立德十一路５５巷２０號","OBJECTID":413602},"geometry":{"x":169505.11000000127,"y":2542149.0100000035}},{"attributes":{"ID":413627,"DIS_CODE":0,"TOWNNAME":"東區","LI":"大德里","LIN":"16鄰","STREET":"立德十一路","SECT":" ","MAREA":" ","LANE":"５５巷","ALLEY":" ","HOUSE_NO":"２２號","E_COORD97":169504.14999999999,"N_COORD97":2542152.5099999998,"ADDRESS":"立德十一路５５巷２２號","OBJECTID":413603},"geometry":{"x":169504.15000000037,"y":2542152.5100000035}},{"attributes":{"ID":413628,"DIS_CODE":0,"TOWNNAME":"東區","LI":"南聖里","LIN":"3鄰","STREET":"富農街","SECT":"二段","MAREA":" ","LANE":"１３２巷","ALLEY":" ","HOUSE_NO":"１２號","E_COORD97":171701.64000000001,"N_COORD97":2543150.2000000002,"ADDRESS":"富農街二段１３２巷１２號","OBJECTID":413604},"geometry":{"x":171701.63999999966,"y":2543150.1999999993}},{"attributes":{"ID":413629,"DIS_CODE":0,"TOWNNAME":"東區","LI":"南聖里","LIN":"3鄰","STREET":"富農街","SECT":"二段","MAREA":" ","LANE":"１３２巷","ALLEY":" ","HOUSE_NO":"１４號","E_COORD97":171705.31,"N_COORD97":2543151.3700000001,"ADDRESS":"富農街二段１３２巷１４號","OBJECTID":413605},"geometry":{"x":171705.31000000052,"y":2543151.3699999992}},{"attributes":{"ID":413630,"DIS_CODE":0,"TOWNNAME":"東區","LI":"南聖里","LIN":"3鄰","STREET":"富農街","SECT":"二段","MAREA":" ","LANE":"１３２巷","ALLEY":" ","HOUSE_NO":"１６號","E_COORD97":171709.14000000001,"N_COORD97":2543152.7000000002,"ADDRESS":"富農街二段１３２巷１６號","OBJECTID":413606},"geometry":{"x":171709.14000000153,"y":2543152.6999999993}},{"attributes":{"ID":413631,"DIS_CODE":0,"TOWNNAME":"東區","LI":"南聖里","LIN":"3鄰","STREET":"富農街","SECT":"二段","MAREA":" ","LANE":"１３２巷","ALLEY":" ","HOUSE_NO":"４號","E_COORD97":171680.63,"N_COORD97":2543140.8700000001,"ADDRESS":"富農街二段１３２巷４號","OBJECTID":413607},"geometry":{"x":171680.63000000175,"y":2543140.870000001}},{"attributes":{"ID":413632,"DIS_CODE":0,"TOWNNAME":"東區","LI":"南聖里","LIN":"3鄰","STREET":"富農街","SECT":"二段","MAREA":" ","LANE":"１３２巷","ALLEY":" ","HOUSE_NO":"６號","E_COORD97":171688.97,"N_COORD97":2543141.3599999999,"ADDRESS":"富農街二段１３２巷６號","OBJECTID":413608},"geometry":{"x":171688.97000000067,"y":2543141.3600000013}},{"attributes":{"ID":413633,"DIS_CODE":0,"TOWNNAME":"東區","LI":"南聖里","LIN":"3鄰","STREET":"富農街","SECT":"二段","MAREA":" ","LANE":"１３２巷","ALLEY":" ","HOUSE_NO":"８號","E_COORD97":171701.14000000001,"N_COORD97":2543136.21,"ADDRESS":"富農街二段１３２巷８號","OBJECTID":413609},"geometry":{"x":171701.1400000006,"y":2543136.2100000028}},{"attributes":{"ID":413634,"DIS_CODE":0,"TOWNNAME":"東區","LI":"南聖里","LIN":"3鄰","STREET":"富農街","SECT":"二段","MAREA":" ","LANE":"１３２巷","ALLEY":" ","HOUSE_NO":"１０號","E_COORD97":171697.47,"N_COORD97":2543149.3700000001,"ADDRESS":"富農街二段１３２巷１０號","OBJECTID":413610},"geometry":{"x":171697.47000000067,"y":2543149.3700000029}},{"attributes":{"ID":413635,"DIS_CODE":0,"TOWNNAME":"東區","LI":"南聖里","LIN":"3鄰","STREET":"富農街","SECT":"二段","MAREA":" ","LANE":"１０８巷","ALLEY":" ","HOUSE_NO":"３７號","E_COORD97":171727.82000000001,"N_COORD97":2543108.5499999998,"ADDRESS":"富農街二段１０８巷３７號","OBJECTID":413611},"geometry":{"x":171727.82000000123,"y":2543108.5500000007}},{"attributes":{"ID":413636,"DIS_CODE":0,"TOWNNAME":"東區","LI":"大學里","LIN":"7鄰","STREET":"東寧路","SECT":" ","MAREA":" ","LANE":"１５巷","ALLEY":" ","HOUSE_NO":"１２號","E_COORD97":170111.82000000001,"N_COORD97":2543681.6800000002,"ADDRESS":"東寧路１５巷１２號","OBJECTID":413612},"geometry":{"x":170111.82000000216,"y":2543681.6800000016}},{"attributes":{"ID":413637,"DIS_CODE":0,"TOWNNAME":"東區","LI":"大學里","LIN":"7鄰","STREET":"東寧路","SECT":" ","MAREA":" ","LANE":"１５巷","ALLEY":" ","HOUSE_NO":"１４號","E_COORD97":170124.14000000001,"N_COORD97":2543686.5499999998,"ADDRESS":"東寧路１５巷１４號","OBJECTID":413613},"geometry":{"x":170124.14000000153,"y":2543686.5500000026}},{"attributes":{"ID":413638,"DIS_CODE":0,"TOWNNAME":"永康區","LI":"尚頂里","LIN":"3鄰","STREET":"中正二街","SECT":" ","MAREA":" ","LANE":"１６２巷","ALLEY":" ","HOUSE_NO":"１８號","E_COORD97":171360.60000000001,"N_COORD97":2547600.2400000002,"ADDRESS":"中正二街１６２巷１８號","OBJECTID":413614},"geometry":{"x":171360.60000000056,"y":2547600.2400000021}},{"attributes":{"ID":413639,"DIS_CODE":0,"TOWNNAME":"永康區","LI":"尚頂里","LIN":"3鄰","STREET":"中正二街","SECT":" ","MAREA":" ","LANE":"１６２巷","ALLEY":" ","HOUSE_NO":"２５號","E_COORD97":171386.44,"N_COORD97":2547561.3100000001,"ADDRESS":"中正二街１６２巷２５號","OBJECTID":413615},"geometry":{"x":171386.44000000134,"y":2547561.3100000005}},{"attributes":{"ID":413640,"DIS_CODE":0,"TOWNNAME":"永康區","LI":"尚頂里","LIN":"3鄰","STREET":"中正二街","SECT":" ","MAREA":" ","LANE":"１６２巷","ALLEY":" ","HOUSE_NO":"５號","E_COORD97":171374.37,"N_COORD97":2547639.6800000002,"ADDRESS":"中正二街１６２巷５號","OBJECTID":413616},"geometry":{"x":171374.37000000104,"y":2547639.6799999997}},{"attributes":{"ID":413641,"DIS_CODE":0,"TOWNNAME":"永康區","LI":"尚頂里","LIN":"3鄰","STREET":"中正二街","SECT":" ","MAREA":" ","LANE":"１６２巷","ALLEY":" ","HOUSE_NO":"１號","E_COORD97":171370.82999999999,"N_COORD97":2547658.21,"ADDRESS":"中正二街１６２巷１號","OBJECTID":413617},"geometry":{"x":171370.83000000007,"y":2547658.2100000046}},{"attributes":{"ID":413642,"DIS_CODE":0,"TOWNNAME":"永康區","LI":"\u25A0行里","LIN":"3鄰","STREET":"中正路","SECT":" ","MAREA":" ","LANE":"９２６巷","ALLEY":" ","HOUSE_NO":"１１號","E_COORD97":172048.85999999999,"N_COORD97":2548927.75,"ADDRESS":"中正路９２６巷１１號","OBJECTID":413618},"geometry":{"x":172048.86000000034,"y":2548927.75}},{"attributes":{"ID":413643,"DIS_CODE":0,"TOWNNAME":"永康區","LI":"\u25A0行里","LIN":"3鄰","STREET":"中正路","SECT":" ","MAREA":" ","LANE":"８７２巷","ALLEY":" ","HOUSE_NO":"６號","E_COORD97":172108.51000000001,"N_COORD97":2548833.5,"ADDRESS":"中正路８７２巷６號","OBJECTID":413619},"geometry":{"x":172108.51000000164,"y":2548833.5}},{"attributes":{"ID":413644,"DIS_CODE":0,"TOWNNAME":"永康區","LI":"\u25A0行里","LIN":"3鄰","STREET":"中正路","SECT":" ","MAREA":" ","LANE":"８７２巷","ALLEY":" ","HOUSE_NO":"７號","E_COORD97":172103.12,"N_COORD97":2548842.9900000002,"ADDRESS":"中正路８７２巷７號","OBJECTID":413620},"geometry":{"x":172103.12000000197,"y":2548842.9900000021}},{"attributes":{"ID":413645,"DIS_CODE":0,"TOWNNAME":"東區","LI":"大學里","LIN":"22鄰","STREET":"東寧路","SECT":" ","MAREA":" ","LANE":"９３巷","ALLEY":" ","HOUSE_NO":"３８號","E_COORD97":170396.44,"N_COORD97":2543642.7000000002,"ADDRESS":"東寧路９３巷３８號","OBJECTID":413621},"geometry":{"x":170396.44000000134,"y":2543642.7000000011}},{"attributes":{"ID":413646,"DIS_CODE":0,"TOWNNAME":"東區","LI":"大學里","LIN":"22鄰","STREET":"東寧路","SECT":" ","MAREA":" ","LANE":"９３巷","ALLEY":" ","HOUSE_NO":"４０號","E_COORD97":170382.69,"N_COORD97":2543643.0899999999,"ADDRESS":"東寧路９３巷４０號","OBJECTID":413622},"geometry":{"x":170382.69000000134,"y":2543643.0899999999}},{"attributes":{"ID":413647,"DIS_CODE":0,"TOWNNAME":"東區","LI":"大學里","LIN":"22鄰","STREET":"東寧路","SECT":" ","MAREA":" ","LANE":"９３巷","ALLEY":" ","HOUSE_NO":"４２號","E_COORD97":170398.41,"N_COORD97":2543666.0899999999,"ADDRESS":"東寧路９３巷４２號","OBJECTID":413623},"geometry":{"x":170398.41000000015,"y":2543666.0899999999}},{"attributes":{"ID":413648,"DIS_CODE":0,"TOWNNAME":"東區","LI":"大學里","LIN":"22鄰","STREET":"東寧路","SECT":" ","MAREA":" ","LANE":"９３巷","ALLEY":" ","HOUSE_NO":"４４號","E_COORD97":170384.85000000001,"N_COORD97":2543667.0099999998,"ADDRESS":"東寧路９３巷４４號","OBJECTID":413624},"geometry":{"x":170384.84999999963,"y":2543667.0099999998}},{"attributes":{"ID":413649,"DIS_CODE":0,"TOWNNAME":"東區","LI":"大學里","LIN":"22鄰","STREET":"東寧路","SECT":" ","MAREA":" ","LANE":"９３巷","ALLEY":" ","HOUSE_NO":"４６號","E_COORD97":170399.85000000001,"N_COORD97":2543682.9500000002,"ADDRESS":"東寧路９３巷４６號","OBJECTID":413625},"geometry":{"x":170399.85000000056,"y":2543682.9500000011}},{"attributes":{"ID":413650,"DIS_CODE":0,"TOWNNAME":"東區","LI":"大學里","LIN":"22鄰","STREET":"東寧路","SECT":" ","MAREA":" ","LANE":"９３巷","ALLEY":" ","HOUSE_NO":"４８號","E_COORD97":170386.29000000001,"N_COORD97":2543685.04,"ADDRESS":"東寧路９３巷４８號","OBJECTID":413626},"geometry":{"x":170386.2900000019,"y":2543685.040000001}},{"attributes":{"ID":413651,"DIS_CODE":0,"TOWNNAME":"東區","LI":"大學里","LIN":"22鄰","STREET":"東寧路","SECT":" ","MAREA":" ","LANE":"９３巷","ALLEY":" ","HOUSE_NO":"５０號","E_COORD97":170401.94,"N_COORD97":2543706.3999999999,"ADDRESS":"東寧路９３巷５０號","OBJECTID":413627},"geometry":{"x":170401.94000000041,"y":2543706.3999999985}},{"attributes":{"ID":413652,"DIS_CODE":0,"TOWNNAME":"永康區","LI":"\u25A0行里","LIN":"3鄰","STREET":"中正路","SECT":" ","MAREA":" ","LANE":"９３２巷","ALLEY":" ","HOUSE_NO":"５號","E_COORD97":172030.82999999999,"N_COORD97":2548933.3300000001,"ADDRESS":"中正路９３２巷５號","OBJECTID":413628},"geometry":{"x":172030.83000000101,"y":2548933.3300000001}},{"attributes":{"ID":413653,"DIS_CODE":0,"TOWNNAME":"永康區","LI":"\u25A0行里","LIN":"3鄰","STREET":"中正路","SECT":" ","MAREA":" ","LANE":"９２６巷","ALLEY":" ","HOUSE_NO":"２號","E_COORD97":172029.73999999999,"N_COORD97":2548909.7799999998,"ADDRESS":"中正路９２６巷２號","OBJECTID":413629},"geometry":{"x":172029.74000000115,"y":2548909.7799999993}},{"attributes":{"ID":413654,"DIS_CODE":0,"TOWNNAME":"東區","LI":"大學里","LIN":"22鄰","STREET":"東寧路","SECT":" ","MAREA":" ","LANE":"９３巷","ALLEY":" ","HOUSE_NO":"５２號","E_COORD97":170387.87,"N_COORD97":2543707.7200000002,"ADDRESS":"東寧路９３巷５２號","OBJECTID":413630},"geometry":{"x":170387.87000000104,"y":2543707.7200000007}},{"attributes":{"ID":413655,"DIS_CODE":0,"TOWNNAME":"東區","LI":"大學里","LIN":"22鄰","STREET":"東寧路","SECT":" ","MAREA":" ","LANE":"９３巷","ALLEY":" ","HOUSE_NO":"５４號","E_COORD97":170404.70000000001,"N_COORD97":2543731.5699999998,"ADDRESS":"東寧路９３巷５４號","OBJECTID":413631},"geometry":{"x":170404.70000000112,"y":2543731.5700000003}},{"attributes":{"ID":413656,"DIS_CODE":0,"TOWNNAME":"東區","LI":"大學里","LIN":"22鄰","STREET":"東寧路","SECT":" ","MAREA":" ","LANE":"９３巷","ALLEY":" ","HOUSE_NO":"５６號","E_COORD97":170390.75,"N_COORD97":2543732.5499999998,"ADDRESS":"東寧路９３巷５６號","OBJECTID":413632},"geometry":{"x":170390.75000000093,"y":2543732.5500000007}},{"attributes":{"ID":413657,"DIS_CODE":0,"TOWNNAME":"下營區","LI":"茅港里","LIN":"7鄰","STREET":" ","SECT":" ","MAREA":"茅港尾","LANE":" ","ALLEY":" ","HOUSE_NO":"２１６號之３０","E_COORD97":176602.790301,"N_COORD97":2567763.3110000002,"ADDRESS":"茅港尾２１６號之３０","OBJECTID":413633},"geometry":{"x":176602.7903010007,"y":2567763.3109980021}},{"attributes":{"ID":413658,"DIS_CODE":0,"TOWNNAME":"東區","LI":"大學里","LIN":"22鄰","STREET":"東寧路","SECT":" ","MAREA":" ","LANE":"９３巷","ALLEY":" ","HOUSE_NO":"５８號","E_COORD97":170331.81,"N_COORD97":2543769.29,"ADDRESS":"東寧路９３巷５８號","OBJECTID":413634},"geometry":{"x":170331.81000000052,"y":2543769.2899999991}},{"attributes":{"ID":413659,"DIS_CODE":0,"TOWNNAME":"東區","LI":"大學里","LIN":"22鄰","STREET":"東寧路","SECT":" ","MAREA":" ","LANE":"９３巷","ALLEY":" ","HOUSE_NO":"６０號","E_COORD97":170319.79000000001,"N_COORD97":2543770.4500000002,"ADDRESS":"東寧路９３巷６０號","OBJECTID":413635},"geometry":{"x":170319.79000000004,"y":2543770.4500000011}},{"attributes":{"ID":413660,"DIS_CODE":0,"TOWNNAME":"東區","LI":"大學里","LIN":"22鄰","STREET":"東寧路","SECT":" ","MAREA":" ","LANE":"９３巷","ALLEY":" ","HOUSE_NO":"６２號","E_COORD97":170330.12,"N_COORD97":2543744.79,"ADDRESS":"東寧路９３巷６２號","OBJECTID":413636},"geometry":{"x":170330.12000000104,"y":2543744.790000001}},{"attributes":{"ID":413661,"DIS_CODE":0,"TOWNNAME":"東區","LI":"大學里","LIN":"22鄰","STREET":"東寧路","SECT":" ","MAREA":" ","LANE":"９３巷","ALLEY":" ","HOUSE_NO":"６４號","E_COORD97":170316.85000000001,"N_COORD97":2543745.8599999999,"ADDRESS":"東寧路９３巷６４號","OBJECTID":413637},"geometry":{"x":170316.84999999963,"y":2543745.8599999994}},{"attributes":{"ID":413662,"DIS_CODE":0,"TOWNNAME":"東區","LI":"大同里","LIN":"22鄰","STREET":"大同路","SECT":"一段","MAREA":" ","LANE":"２１５巷","ALLEY":" ","HOUSE_NO":"１０號","E_COORD97":169167.48000000001,"N_COORD97":2542698.0699999998,"ADDRESS":"大同路一段２１５巷１０號","OBJECTID":413638},"geometry":{"x":169167.48000000045,"y":2542698.0700000003}},{"attributes":{"ID":413663,"DIS_CODE":0,"TOWNNAME":"東區","LI":"大同里","LIN":"22鄰","STREET":"大同路","SECT":"一段","MAREA":" ","LANE":"２１５巷","ALLEY":" ","HOUSE_NO":"１２號","E_COORD97":169171.5,"N_COORD97":2542697.8199999998,"ADDRESS":"大同路一段２１５巷１２號","OBJECTID":413639},"geometry":{"x":169171.50000000093,"y":2542697.8200000022}},{"attributes":{"ID":413664,"DIS_CODE":0,"TOWNNAME":"東區","LI":"大同里","LIN":"22鄰","STREET":"大同路","SECT":"一段","MAREA":" ","LANE":"２１５巷","ALLEY":" ","HOUSE_NO":"１４號","E_COORD97":169174.89999999999,"N_COORD97":2542697.3100000001,"ADDRESS":"大同路一段２１５巷１４號","OBJECTID":413640},"geometry":{"x":169174.90000000037,"y":2542697.3100000042}},{"attributes":{"ID":413665,"DIS_CODE":0,"TOWNNAME":"安南區","LI":"溪頂里","LIN":"3鄰","STREET":"府安路","SECT":"四段","MAREA":" ","LANE":"１０９巷","ALLEY":" ","HOUSE_NO":"１０號","E_COORD97":169045.53,"N_COORD97":2547304.6800000002,"ADDRESS":"府安路四段１０９巷１０號","OBJECTID":413641},"geometry":{"x":169045.53000000026,"y":2547304.6800000034}},{"attributes":{"ID":413666,"DIS_CODE":0,"TOWNNAME":"安南區","LI":"溪頂里","LIN":"3鄰","STREET":"府安路","SECT":"四段","MAREA":" ","LANE":"１０９巷","ALLEY":" ","HOUSE_NO":"１１號","E_COORD97":169016.73999999999,"N_COORD97":2547305.75,"ADDRESS":"府安路四段１０９巷１１號","OBJECTID":413642},"geometry":{"x":169016.74000000022,"y":2547305.7500000019}},{"attributes":{"ID":413667,"DIS_CODE":0,"TOWNNAME":"安南區","LI":"溪頂里","LIN":"3鄰","STREET":"府安路","SECT":"四段","MAREA":" ","LANE":"１０９巷","ALLEY":" ","HOUSE_NO":"１２號","E_COORD97":169044.20000000001,"N_COORD97":2547308.8599999999,"ADDRESS":"府安路四段１０９巷１２號","OBJECTID":413643},"geometry":{"x":169044.20000000019,"y":2547308.8599999994}},{"attributes":{"ID":413668,"DIS_CODE":0,"TOWNNAME":"安南區","LI":"溪頂里","LIN":"3鄰","STREET":"府安路","SECT":"四段","MAREA":" ","LANE":"１０９巷","ALLEY":" ","HOUSE_NO":"１３號","E_COORD97":169015.34,"N_COORD97":2547308.6600000001,"ADDRESS":"府安路四段１０９巷１３號","OBJECTID":413644},"geometry":{"x":169015.33999999985,"y":2547308.6600000039}},{"attributes":{"ID":413669,"DIS_CODE":0,"TOWNNAME":"安南區","LI":"溪頂里","LIN":"3鄰","STREET":"府安路","SECT":"四段","MAREA":" ","LANE":"１０９巷","ALLEY":" ","HOUSE_NO":"１４號","E_COORD97":169043.64000000001,"N_COORD97":2547312.23,"ADDRESS":"府安路四段１０９巷１４號","OBJECTID":413645},"geometry":{"x":169043.63999999966,"y":2547312.2300000023}},{"attributes":{"ID":413670,"DIS_CODE":0,"TOWNNAME":"安南區","LI":"溪頂里","LIN":"3鄰","STREET":"府安路","SECT":"四段","MAREA":" ","LANE":"１０９巷","ALLEY":" ","HOUSE_NO":"１５號","E_COORD97":169015.81,"N_COORD97":2547312.9700000002,"ADDRESS":"府安路四段１０９巷１５號","OBJECTID":413646},"geometry":{"x":169015.80999999959,"y":2547312.9700000007}},{"attributes":{"ID":413671,"DIS_CODE":0,"TOWNNAME":"安南區","LI":"溪頂里","LIN":"3鄰","STREET":"府安路","SECT":"四段","MAREA":" ","LANE":"１０９巷","ALLEY":" ","HOUSE_NO":"１６號","E_COORD97":169042.09,"N_COORD97":2547315.75,"ADDRESS":"府安路四段１０９巷１６號","OBJECTID":413647},"geometry":{"x":169042.09000000078,"y":2547315.7500000019}},{"attributes":{"ID":413672,"DIS_CODE":0,"TOWNNAME":"安南區","LI":"溪頂里","LIN":"3鄰","STREET":"府安路","SECT":"四段","MAREA":" ","LANE":"１０９巷","ALLEY":" ","HOUSE_NO":"１７號","E_COORD97":169014.06,"N_COORD97":2547317.3999999999,"ADDRESS":"府安路四段１０９巷１７號","OBJECTID":413648},"geometry":{"x":169014.05999999959,"y":2547317.4000000041}},{"attributes":{"ID":413673,"DIS_CODE":0,"TOWNNAME":"安南區","LI":"溪頂里","LIN":"3鄰","STREET":"府安路","SECT":"四段","MAREA":" ","LANE":"１０９巷","ALLEY":" ","HOUSE_NO":"１８號","E_COORD97":169041.53,"N_COORD97":2547319.6800000002,"ADDRESS":"府安路四段１０９巷１８號","OBJECTID":413649},"geometry":{"x":169041.53000000026,"y":2547319.6800000016}},{"attributes":{"ID":413674,"DIS_CODE":0,"TOWNNAME":"安南區","LI":"溪頂里","LIN":"3鄰","STREET":"府安路","SECT":"四段","MAREA":" ","LANE":"１０９巷","ALLEY":" ","HOUSE_NO":"１９號","E_COORD97":169012.76999999999,"N_COORD97":2547320.8900000001,"ADDRESS":"府安路四段１０９巷１９號","OBJECTID":413650},"geometry":{"x":169012.77000000142,"y":2547320.8899999987}},{"attributes":{"ID":413675,"DIS_CODE":0,"TOWNNAME":"安南區","LI":"溪頂里","LIN":"3鄰","STREET":"府安路","SECT":"四段","MAREA":" ","LANE":"１０９巷","ALLEY":" ","HOUSE_NO":"１號","E_COORD97":169021.64000000001,"N_COORD97":2547286.1800000002,"ADDRESS":"府安路四段１０９巷１號","OBJECTID":413651},"geometry":{"x":169021.63999999966,"y":2547286.1799999997}},{"attributes":{"ID":413676,"DIS_CODE":0,"TOWNNAME":"東區","LI":"大同里","LIN":"23鄰","STREET":"大同路","SECT":"一段","MAREA":" ","LANE":"２４１巷","ALLEY":" ","HOUSE_NO":"５１號","E_COORD97":169216.10999999999,"N_COORD97":2542657.3900000001,"ADDRESS":"大同路一段２４１巷５１號","OBJECTID":413652},"geometry":{"x":169216.11000000034,"y":2542657.3900000025}},{"attributes":{"ID":413677,"DIS_CODE":0,"TOWNNAME":"東區","LI":"大同里","LIN":"23鄰","STREET":"大同路","SECT":"一段","MAREA":" ","LANE":"２４１巷","ALLEY":" ","HOUSE_NO":"６７號","E_COORD97":169238.13,"N_COORD97":2542654.2200000002,"ADDRESS":"大同路一段２４１巷６７號","OBJECTID":413653},"geometry":{"x":169238.13000000082,"y":2542654.2200000025}},{"attributes":{"ID":413678,"DIS_CODE":0,"TOWNNAME":"永康區","LI":"龍潭里","LIN":"3鄰","STREET":"龍國街","SECT":" ","MAREA":" ","LANE":"２９１巷","ALLEY":" ","HOUSE_NO":"２號","E_COORD97":174640.51999999999,"N_COORD97":2548044.3500000001,"ADDRESS":"龍國街２９１巷２號","OBJECTID":413654},"geometry":{"x":174640.51999999955,"y":2548044.3499999996}},{"attributes":{"ID":413679,"DIS_CODE":0,"TOWNNAME":"東區","LI":"大同里","LIN":"23鄰","STREET":"大同路","SECT":"一段","MAREA":" ","LANE":"２４１巷","ALLEY":" ","HOUSE_NO":"６９號","E_COORD97":169230.09,"N_COORD97":2542649.0800000001,"ADDRESS":"大同路一段２４１巷６９號","OBJECTID":413655},"geometry":{"x":169230.09000000078,"y":2542649.0800000001}},{"attributes":{"ID":413680,"DIS_CODE":0,"TOWNNAME":"東區","LI":"大同里","LIN":"23鄰","STREET":"大同路","SECT":"一段","MAREA":" ","LANE":"２４１巷","ALLEY":" ","HOUSE_NO":"７１號","E_COORD97":169233.78,"N_COORD97":2542647.3599999999,"ADDRESS":"大同路一段２４１巷７１號","OBJECTID":413656},"geometry":{"x":169233.77999999933,"y":2542647.3599999994}},{"attributes":{"ID":413681,"DIS_CODE":0,"TOWNNAME":"東區","LI":"大同里","LIN":"23鄰","STREET":"大同路","SECT":"一段","MAREA":" ","LANE":"２４１巷","ALLEY":" ","HOUSE_NO":"７３號","E_COORD97":169236.81,"N_COORD97":2542645.9199999999,"ADDRESS":"大同路一段２４１巷７３號","OBJECTID":413657},"geometry":{"x":169236.81000000052,"y":2542645.9200000018}},{"attributes":{"ID":413682,"DIS_CODE":0,"TOWNNAME":"東區","LI":"大同里","LIN":"23鄰","STREET":"大同路","SECT":"一段","MAREA":" ","LANE":"２４１巷","ALLEY":" ","HOUSE_NO":"７５號","E_COORD97":169240.23999999999,"N_COORD97":2542644.3300000001,"ADDRESS":"大同路一段２４１巷７５號","OBJECTID":413658},"geometry":{"x":169240.24000000022,"y":2542644.3300000001}},{"attributes":{"ID":413683,"DIS_CODE":0,"TOWNNAME":"東區","LI":"大同里","LIN":"23鄰","STREET":"大同路","SECT":"一段","MAREA":" ","LANE":"２４１巷","ALLEY":" ","HOUSE_NO":"７７號","E_COORD97":169243.26999999999,"N_COORD97":2542642.8900000001,"ADDRESS":"大同路一段２４１巷７７號","OBJECTID":413659},"geometry":{"x":169243.26999999862,"y":2542642.8900000025}},{"attributes":{"ID":413684,"DIS_CODE":0,"TOWNNAME":"東區","LI":"大同里","LIN":"23鄰","STREET":"大同路","SECT":"一段","MAREA":" ","LANE":"２４１巷","ALLEY":" ","HOUSE_NO":"７９號","E_COORD97":169246.31,"N_COORD97":2542639.9900000002,"ADDRESS":"大同路一段２４１巷７９號","OBJECTID":413660},"geometry":{"x":169246.30999999959,"y":2542639.9900000002}},{"attributes":{"ID":413685,"DIS_CODE":0,"TOWNNAME":"東區","LI":"大同里","LIN":"23鄰","STREET":"大同路","SECT":"一段","MAREA":" ","LANE":"２４１巷","ALLEY":" ","HOUSE_NO":"８３號","E_COORD97":169270.32000000001,"N_COORD97":2542643.6099999999,"ADDRESS":"大同路一段２４１巷８３號","OBJECTID":413661},"geometry":{"x":169270.3200000003,"y":2542643.6100000013}},{"attributes":{"ID":413686,"DIS_CODE":0,"TOWNNAME":"東區","LI":"大同里","LIN":"23鄰","STREET":"大同路","SECT":"一段","MAREA":" ","LANE":"２４１巷","ALLEY":" ","HOUSE_NO":"８５號","E_COORD97":169271.91,"N_COORD97":2542639.3999999999,"ADDRESS":"大同路一段２４１巷８５號","OBJECTID":413662},"geometry":{"x":169271.91000000201,"y":2542639.4000000022}},{"attributes":{"ID":413687,"DIS_CODE":0,"TOWNNAME":"東區","LI":"大同里","LIN":"23鄰","STREET":"大同路","SECT":"一段","MAREA":" ","LANE":"２４１巷","ALLEY":" ","HOUSE_NO":"８７號","E_COORD97":169273.51000000001,"N_COORD97":2542636.0699999998,"ADDRESS":"大同路一段２４１巷８７號","OBJECTID":413663},"geometry":{"x":169273.50999999978,"y":2542636.0700000003}},{"attributes":{"ID":413688,"DIS_CODE":0,"TOWNNAME":"東區","LI":"大同里","LIN":"23鄰","STREET":"大同路","SECT":"一段","MAREA":" ","LANE":"２４１巷","ALLEY":" ","HOUSE_NO":"８９號","E_COORD97":169274.81,"N_COORD97":2542631.8700000001,"ADDRESS":"大同路一段２４１巷８９號","OBJECTID":413664},"geometry":{"x":169274.80999999959,"y":2542631.870000001}},{"attributes":{"ID":413689,"DIS_CODE":0,"TOWNNAME":"東區","LI":"大同里","LIN":"23鄰","STREET":"大同路","SECT":"一段","MAREA":" ","LANE":"２４１巷","ALLEY":" ","HOUSE_NO":"９號","E_COORD97":169181.94,"N_COORD97":2542664.8199999998,"ADDRESS":"大同路一段２４１巷９號","OBJECTID":413665},"geometry":{"x":169181.94000000041,"y":2542664.8200000003}},{"attributes":{"ID":413690,"DIS_CODE":0,"TOWNNAME":"安南區","LI":"溪頂里","LIN":"3鄰","STREET":"府安路","SECT":"四段","MAREA":" ","LANE":"１０９巷","ALLEY":" ","HOUSE_NO":"２０號","E_COORD97":169039.13,"N_COORD97":2547323.7599999998,"ADDRESS":"府安路四段１０９巷２０號","OBJECTID":413666},"geometry":{"x":169039.12999999989,"y":2547323.7599999998}},{"attributes":{"ID":413691,"DIS_CODE":0,"TOWNNAME":"安南區","LI":"溪頂里","LIN":"3鄰","STREET":"府安路","SECT":"四段","MAREA":" ","LANE":"１０９巷","ALLEY":" ","HOUSE_NO":"２１號","E_COORD97":169011.25,"N_COORD97":2547324.1600000001,"ADDRESS":"府安路四段１０９巷２１號","OBJECTID":413667},"geometry":{"x":169011.25,"y":2547324.1600000001}},{"attributes":{"ID":413692,"DIS_CODE":0,"TOWNNAME":"安南區","LI":"溪頂里","LIN":"3鄰","STREET":"府安路","SECT":"四段","MAREA":" ","LANE":"１０９巷","ALLEY":" ","HOUSE_NO":"２２號","E_COORD97":169037.73000000001,"N_COORD97":2547327.27,"ADDRESS":"府安路四段１０９巷２２號","OBJECTID":413668},"geometry":{"x":169037.73000000231,"y":2547327.2699999996}},{"attributes":{"ID":413693,"DIS_CODE":0,"TOWNNAME":"安南區","LI":"溪頂里","LIN":"3鄰","STREET":"府安路","SECT":"四段","MAREA":" ","LANE":"１０９巷","ALLEY":" ","HOUSE_NO":"２３號","E_COORD97":169009.60000000001,"N_COORD97":2547329.3999999999,"ADDRESS":"府安路四段１０９巷２３號","OBJECTID":413669},"geometry":{"x":169009.60000000056,"y":2547329.4000000004}},{"attributes":{"ID":413694,"DIS_CODE":0,"TOWNNAME":"安南區","LI":"溪頂里","LIN":"3鄰","STREET":"府安路","SECT":"四段","MAREA":" ","LANE":"１０９巷","ALLEY":" ","HOUSE_NO":"２４號","E_COORD97":169037.01999999999,"N_COORD97":2547331.21,"ADDRESS":"府安路四段１０９巷２４號","OBJECTID":413670},"geometry":{"x":169037.02000000048,"y":2547331.2100000009}},{"attributes":{"ID":413695,"DIS_CODE":0,"TOWNNAME":"安南區","LI":"溪頂里","LIN":"3鄰","STREET":"府安路","SECT":"四段","MAREA":" ","LANE":"１０９巷","ALLEY":" ","HOUSE_NO":"２６號","E_COORD97":169036.04000000001,"N_COORD97":2547335.9900000002,"ADDRESS":"府安路四段１０９巷２６號","OBJECTID":413671},"geometry":{"x":169036.04000000097,"y":2547335.9900000002}},{"attributes":{"ID":413696,"DIS_CODE":0,"TOWNNAME":"安南區","LI":"溪頂里","LIN":"3鄰","STREET":"府安路","SECT":"四段","MAREA":" ","LANE":"１０９巷","ALLEY":" ","HOUSE_NO":"２號","E_COORD97":169050.54000000001,"N_COORD97":2547289,"ADDRESS":"府安路四段１０９巷２號","OBJECTID":413672},"geometry":{"x":169050.5400000019,"y":2547288.9999999981}},{"attributes":{"ID":413697,"DIS_CODE":0,"TOWNNAME":"東區","LI":"大同里","LIN":"25鄰","STREET":"大同路","SECT":"一段","MAREA":" ","LANE":"２７５巷","ALLEY":" ","HOUSE_NO":"１３號","E_COORD97":169217.13,"N_COORD97":2542563.1899999999,"ADDRESS":"大同路一段２７５巷１３號","OBJECTID":413673},"geometry":{"x":169217.12999999989,"y":2542563.1899999995}},{"attributes":{"ID":413698,"DIS_CODE":0,"TOWNNAME":"東區","LI":"大同里","LIN":"25鄰","STREET":"大同路","SECT":"一段","MAREA":" ","LANE":"２７５巷","ALLEY":" ","HOUSE_NO":"１號","E_COORD97":169182.42000000001,"N_COORD97":2542565.5800000001,"ADDRESS":"大同路一段２７５巷１號","OBJECTID":413674},"geometry":{"x":169182.42000000086,"y":2542565.5800000001}},{"attributes":{"ID":413699,"DIS_CODE":0,"TOWNNAME":"東區","LI":"大同里","LIN":"25鄰","STREET":"大同路","SECT":"一段","MAREA":" ","LANE":"２７５巷","ALLEY":" ","HOUSE_NO":"３１號","E_COORD97":169239.70999999999,"N_COORD97":2542567.1299999999,"ADDRESS":"大同路一段２７５巷３１號","OBJECTID":413675},"geometry":{"x":169239.71000000089,"y":2542567.129999999}},{"attributes":{"ID":413700,"DIS_CODE":0,"TOWNNAME":"東區","LI":"大同里","LIN":"25鄰","STREET":"大同路","SECT":"一段","MAREA":" ","LANE":"２７５巷","ALLEY":" ","HOUSE_NO":"３３號","E_COORD97":169247.73000000001,"N_COORD97":2542569.5899999999,"ADDRESS":"大同路一段２７５巷３３號","OBJECTID":413676},"geometry":{"x":169247.73000000045,"y":2542569.5900000017}},{"attributes":{"ID":413701,"DIS_CODE":0,"TOWNNAME":"東區","LI":"大同里","LIN":"25鄰","STREET":"大同路","SECT":"一段","MAREA":" ","LANE":"２７５巷","ALLEY":" ","HOUSE_NO":"３５號","E_COORD97":169262.72,"N_COORD97":2542576.1499999999,"ADDRESS":"大同路一段２７５巷３５號","OBJECTID":413677},"geometry":{"x":169262.72000000067,"y":2542576.1500000041}},{"attributes":{"ID":413702,"DIS_CODE":0,"TOWNNAME":"東區","LI":"大同里","LIN":"25鄰","STREET":"大同路","SECT":"一段","MAREA":" ","LANE":"２７５巷","ALLEY":" ","HOUSE_NO":"３７號","E_COORD97":169270.79000000001,"N_COORD97":2542576.1499999999,"ADDRESS":"大同路一段２７５巷３７號","OBJECTID":413678},"geometry":{"x":169270.78999999911,"y":2542576.1500000041}},{"attributes":{"ID":413703,"DIS_CODE":0,"TOWNNAME":"東區","LI":"大同里","LIN":"25鄰","STREET":"大同路","SECT":"一段","MAREA":" ","LANE":"２７５巷","ALLEY":" ","HOUSE_NO":"３號","E_COORD97":169188.41,"N_COORD97":2542573.9500000002,"ADDRESS":"大同路一段２７５巷３號","OBJECTID":413679},"geometry":{"x":169188.41000000015,"y":2542573.9500000011}},{"attributes":{"ID":413704,"DIS_CODE":0,"TOWNNAME":"東區","LI":"大同里","LIN":"25鄰","STREET":"大同路","SECT":"一段","MAREA":" ","LANE":"２７５巷","ALLEY":" ","HOUSE_NO":"５１號","E_COORD97":169277.44,"N_COORD97":2542577.8100000001,"ADDRESS":"大同路一段２７５巷５１號","OBJECTID":413680},"geometry":{"x":169277.44000000134,"y":2542577.8100000005}},{"attributes":{"ID":413705,"DIS_CODE":0,"TOWNNAME":"東區","LI":"大同里","LIN":"25鄰","STREET":"大同路","SECT":"一段","MAREA":" ","LANE":"２７５巷","ALLEY":" ","HOUSE_NO":"５３號","E_COORD97":169285.75,"N_COORD97":2542573.0600000001,"ADDRESS":"大同路一段２７５巷５３號","OBJECTID":413681},"geometry":{"x":169285.75,"y":2542573.0599999987}},{"attributes":{"ID":413706,"DIS_CODE":0,"TOWNNAME":"東區","LI":"大同里","LIN":"26鄰","STREET":"大同路","SECT":"一段","MAREA":" ","LANE":"３２９巷","ALLEY":" ","HOUSE_NO":"１１號","E_COORD97":169249.78,"N_COORD97":2542504.2799999998,"ADDRESS":"大同路一段３２９巷１１號","OBJECTID":413682},"geometry":{"x":169249.78000000119,"y":2542504.2800000012}},{"attributes":{"ID":413707,"DIS_CODE":0,"TOWNNAME":"東區","LI":"大同里","LIN":"26鄰","STREET":"大同路","SECT":"一段","MAREA":" ","LANE":"３２９巷","ALLEY":" ","HOUSE_NO":"１號","E_COORD97":169236.42000000001,"N_COORD97":2542459.1000000001,"ADDRESS":"大同路一段３２９巷１號","OBJECTID":413683},"geometry":{"x":169236.42000000086,"y":2542459.0999999996}},{"attributes":{"ID":413708,"DIS_CODE":0,"TOWNNAME":"東區","LI":"大同里","LIN":"26鄰","STREET":"大同路","SECT":"一段","MAREA":" ","LANE":"３２９巷","ALLEY":" ","HOUSE_NO":"２４號","E_COORD97":169275.10999999999,"N_COORD97":2542508.6299999999,"ADDRESS":"大同路一段３２９巷２４號","OBJECTID":413684},"geometry":{"x":169275.11000000034,"y":2542508.629999999}},{"attributes":{"ID":413709,"DIS_CODE":0,"TOWNNAME":"東區","LI":"大同里","LIN":"26鄰","STREET":"大同路","SECT":"一段","MAREA":" ","LANE":"３２９巷","ALLEY":" ","HOUSE_NO":"２６號","E_COORD97":169280.64000000001,"N_COORD97":2542506.9500000002,"ADDRESS":"大同路一段３２９巷２６號","OBJECTID":413685},"geometry":{"x":169280.6400000006,"y":2542506.9499999993}},{"attributes":{"ID":413710,"DIS_CODE":0,"TOWNNAME":"永康區","LI":"龍潭里","LIN":"3鄰","STREET":"龍國街","SECT":" ","MAREA":" ","LANE":"２９１巷","ALLEY":" ","HOUSE_NO":"８號","E_COORD97":174640.92999999999,"N_COORD97":2548052.1000000001,"ADDRESS":"龍國街２９１巷８號","OBJECTID":413686},"geometry":{"x":174640.9299999997,"y":2548052.1000000015}},{"attributes":{"ID":413711,"DIS_CODE":0,"TOWNNAME":"永康區","LI":"龍潭里","LIN":"3鄰","STREET":"龍國街","SECT":" ","MAREA":" ","LANE":"２９１巷","ALLEY":" ","HOUSE_NO":"６號","E_COORD97":174640.63,"N_COORD97":2548048.1000000001,"ADDRESS":"龍國街２９１巷６號","OBJECTID":413687},"geometry":{"x":174640.63000000082,"y":2548048.1000000015}},{"attributes":{"ID":413712,"DIS_CODE":0,"TOWNNAME":"永康區","LI":"龍潭里","LIN":"3鄰","STREET":"龍安街","SECT":" ","MAREA":" ","LANE":"１７巷","ALLEY":" ","HOUSE_NO":"２號","E_COORD97":174546.91,"N_COORD97":2548090.4500000002,"ADDRESS":"龍安街１７巷２號","OBJECTID":413688},"geometry":{"x":174546.91000000015,"y":2548090.4500000011}},{"attributes":{"ID":413713,"DIS_CODE":0,"TOWNNAME":"永康區","LI":"\u25A0行里","LIN":"3鄰","STREET":"中正路","SECT":" ","MAREA":" ","LANE":"８７２巷","ALLEY":" ","HOUSE_NO":"５號","E_COORD97":172114.07000000001,"N_COORD97":2548828,"ADDRESS":"中正路８７２巷５號","OBJECTID":413689},"geometry":{"x":172114.07000000123,"y":2548828}},{"attributes":{"ID":413714,"DIS_CODE":0,"TOWNNAME":"東區","LI":"大同里","LIN":"26鄰","STREET":"大同路","SECT":"一段","MAREA":" ","LANE":"３２９巷","ALLEY":" ","HOUSE_NO":"３０號","E_COORD97":169293.23000000001,"N_COORD97":2542502.5099999998,"ADDRESS":"大同路一段３２９巷３０號","OBJECTID":413690},"geometry":{"x":169293.23000000045,"y":2542502.5100000016}},{"attributes":{"ID":413715,"DIS_CODE":0,"TOWNNAME":"東區","LI":"大同里","LIN":"26鄰","STREET":"大同路","SECT":"一段","MAREA":" ","LANE":"３２９巷","ALLEY":" ","HOUSE_NO":"３２號","E_COORD97":169299.47,"N_COORD97":2542502.0499999998,"ADDRESS":"大同路一段３２９巷３２號","OBJECTID":413691},"geometry":{"x":169299.46999999974,"y":2542502.0500000007}},{"attributes":{"ID":413716,"DIS_CODE":0,"TOWNNAME":"東區","LI":"大同里","LIN":"26鄰","STREET":"大同路","SECT":"一段","MAREA":" ","LANE":"３２９巷","ALLEY":" ","HOUSE_NO":"３４號","E_COORD97":169305.28,"N_COORD97":2542500.4900000002,"ADDRESS":"大同路一段３２９巷３４號","OBJECTID":413692},"geometry":{"x":169305.28000000119,"y":2542500.4900000021}},{"attributes":{"ID":413717,"DIS_CODE":0,"TOWNNAME":"東區","LI":"大同里","LIN":"26鄰","STREET":"大同路","SECT":"一段","MAREA":" ","LANE":"３２９巷","ALLEY":" ","HOUSE_NO":"３６號","E_COORD97":169309.34,"N_COORD97":2542499.9300000002,"ADDRESS":"大同路一段３２９巷３６號","OBJECTID":413693},"geometry":{"x":169309.34000000171,"y":2542499.9300000016}},{"attributes":{"ID":413718,"DIS_CODE":0,"TOWNNAME":"東區","LI":"大同里","LIN":"26鄰","STREET":"大同路","SECT":"一段","MAREA":" ","LANE":"３２９巷","ALLEY":" ","HOUSE_NO":"４０號","E_COORD97":169289.37,"N_COORD97":2542522.6899999999,"ADDRESS":"大同路一段３２９巷４０號","OBJECTID":413694},"geometry":{"x":169289.37000000104,"y":2542522.6899999995}},{"attributes":{"ID":413719,"DIS_CODE":0,"TOWNNAME":"東區","LI":"大同里","LIN":"26鄰","STREET":"大同路","SECT":"一段","MAREA":" ","LANE":"３２９巷","ALLEY":" ","HOUSE_NO":"４２號","E_COORD97":169290.39999999999,"N_COORD97":2542530.8700000001,"ADDRESS":"大同路一段３２９巷４２號","OBJECTID":413695},"geometry":{"x":169290.40000000037,"y":2542530.8699999992}},{"attributes":{"ID":413720,"DIS_CODE":0,"TOWNNAME":"東區","LI":"大同里","LIN":"26鄰","STREET":"大同路","SECT":"一段","MAREA":" ","LANE":"３２９巷","ALLEY":" ","HOUSE_NO":"４６號","E_COORD97":169284.09,"N_COORD97":2542544.5899999999,"ADDRESS":"大同路一段３２９巷４６號","OBJECTID":413696},"geometry":{"x":169284.09000000078,"y":2542544.5899999999}},{"attributes":{"ID":413721,"DIS_CODE":0,"TOWNNAME":"東區","LI":"大同里","LIN":"26鄰","STREET":"大同路","SECT":"一段","MAREA":" ","LANE":"３２９巷","ALLEY":" ","HOUSE_NO":"４８號","E_COORD97":169271.98000000001,"N_COORD97":2542543.6400000001,"ADDRESS":"大同路一段３２９巷４８號","OBJECTID":413697},"geometry":{"x":169271.98000000138,"y":2542543.6400000025}},{"attributes":{"ID":413722,"DIS_CODE":0,"TOWNNAME":"東區","LI":"大同里","LIN":"26鄰","STREET":"大同路","SECT":"一段","MAREA":" ","LANE":"３２９巷","ALLEY":" ","HOUSE_NO":"７號","E_COORD97":169237.85999999999,"N_COORD97":2542482.7200000002,"ADDRESS":"大同路一段３２９巷７號","OBJECTID":413698},"geometry":{"x":169237.86000000034,"y":2542482.7200000007}},{"attributes":{"ID":413723,"DIS_CODE":0,"TOWNNAME":"東區","LI":"大同里","LIN":"26鄰","STREET":"大同路","SECT":"一段","MAREA":" ","LANE":"３２９巷","ALLEY":" ","HOUSE_NO":"９號","E_COORD97":169242.59,"N_COORD97":2542493.1899999999,"ADDRESS":"大同路一段３２９巷９號","OBJECTID":413699},"geometry":{"x":169242.58999999985,"y":2542493.1899999976}},{"attributes":{"ID":413724,"DIS_CODE":0,"TOWNNAME":"東區","LI":"大同里","LIN":"27鄰","STREET":"大同路","SECT":"一段","MAREA":" ","LANE":"３２９巷","ALLEY":" ","HOUSE_NO":"１８號","E_COORD97":169278.76000000001,"N_COORD97":2542492.3300000001,"ADDRESS":"大同路一段３２９巷１８號","OBJECTID":413700},"geometry":{"x":169278.75999999978,"y":2542492.3300000001}},{"attributes":{"ID":413725,"DIS_CODE":0,"TOWNNAME":"東區","LI":"大同里","LIN":"27鄰","STREET":"大同路","SECT":"一段","MAREA":" ","LANE":"３２９巷","ALLEY":" ","HOUSE_NO":"２０號","E_COORD97":169272.97,"N_COORD97":2542494.5499999998,"ADDRESS":"大同路一段３２９巷２０號","OBJECTID":413701},"geometry":{"x":169272.97000000067,"y":2542494.5500000007}},{"attributes":{"ID":413726,"DIS_CODE":0,"TOWNNAME":"東區","LI":"大同里","LIN":"27鄰","STREET":"大同路","SECT":"一段","MAREA":" ","LANE":"３２９巷","ALLEY":" ","HOUSE_NO":"２２號","E_COORD97":169265.10000000001,"N_COORD97":2542496.3300000001,"ADDRESS":"大同路一段３２９巷２２號","OBJECTID":413702},"geometry":{"x":169265.10000000056,"y":2542496.3300000038}},{"attributes":{"ID":413727,"DIS_CODE":0,"TOWNNAME":"永康區","LI":"龍潭里","LIN":"3鄰","STREET":"龍國街","SECT":" ","MAREA":" ","LANE":"２９１巷","ALLEY":" ","HOUSE_NO":"２６號","E_COORD97":174646.56,"N_COORD97":2548089.1899999999,"ADDRESS":"龍國街２９１巷２６號","OBJECTID":413703},"geometry":{"x":174646.55999999959,"y":2548089.1899999995}},{"attributes":{"ID":413728,"DIS_CODE":0,"TOWNNAME":"永康區","LI":"新樹里","LIN":"3鄰","STREET":"富強路","SECT":"二段","MAREA":" ","LANE":"３９８巷","ALLEY":" ","HOUSE_NO":"１１號","E_COORD97":175634.94,"N_COORD97":2547692.7400000002,"ADDRESS":"富強路二段３９８巷１１號","OBJECTID":413704},"geometry":{"x":175634.94000000041,"y":2547692.7400000021}},{"attributes":{"ID":413729,"DIS_CODE":0,"TOWNNAME":"東區","LI":"大同里","LIN":"27鄰","STREET":"大同路","SECT":"一段","MAREA":" ","LANE":"３２９巷","ALLEY":" ","HOUSE_NO":"２號","E_COORD97":169251.76999999999,"N_COORD97":2542460.3100000001,"ADDRESS":"大同路一段３２９巷２號","OBJECTID":413705},"geometry":{"x":169251.76999999862,"y":2542460.3100000024}},{"attributes":{"ID":413730,"DIS_CODE":0,"TOWNNAME":"東區","LI":"大同里","LIN":"27鄰","STREET":"大同路","SECT":"一段","MAREA":" ","LANE":"３２９巷","ALLEY":" ","HOUSE_NO":"４號","E_COORD97":169258.29999999999,"N_COORD97":2542471.0299999998,"ADDRESS":"大同路一段３２９巷４號","OBJECTID":413706},"geometry":{"x":169258.29999999981,"y":2542471.0300000012}},{"attributes":{"ID":413731,"DIS_CODE":0,"TOWNNAME":"永康區","LI":"新樹里","LIN":"3鄰","STREET":"中山北路","SECT":" ","MAREA":" ","LANE":"７６４巷","ALLEY":" ","HOUSE_NO":"２５號","E_COORD97":176305.89000000001,"N_COORD97":2547853.71,"ADDRESS":"中山北路７６４巷２５號","OBJECTID":413707},"geometry":{"x":176305.88999999966,"y":2547853.7100000009}},{"attributes":{"ID":413732,"DIS_CODE":0,"TOWNNAME":"永康區","LI":"龍潭里","LIN":"3鄰","STREET":"龍國街","SECT":" ","MAREA":" ","LANE":"２９１巷","ALLEY":" ","HOUSE_NO":"４０號","E_COORD97":174649.85000000001,"N_COORD97":2548113.6800000002,"ADDRESS":"龍國街２９１巷４０號","OBJECTID":413708},"geometry":{"x":174649.84999999963,"y":2548113.6799999997}},{"attributes":{"ID":413733,"DIS_CODE":0,"TOWNNAME":"永康區","LI":"網寮里","LIN":"3鄰","STREET":"永二街","SECT":" ","MAREA":" ","LANE":"５４巷","ALLEY":" ","HOUSE_NO":"９號","E_COORD97":173576.76999999999,"N_COORD97":2546691.5600000001,"ADDRESS":"永二街５４巷９號","OBJECTID":413709},"geometry":{"x":173576.77000000048,"y":2546691.5600000005}},{"attributes":{"ID":413734,"DIS_CODE":0,"TOWNNAME":"永康區","LI":"龍潭里","LIN":"3鄰","STREET":"龍潭街","SECT":" ","MAREA":" ","LANE":"８９巷","ALLEY":" ","HOUSE_NO":"２６號","E_COORD97":174717.62,"N_COORD97":2548103.8300000001,"ADDRESS":"龍潭街８９巷２６號","OBJECTID":413710},"geometry":{"x":174717.62000000104,"y":2548103.8300000001}},{"attributes":{"ID":413735,"DIS_CODE":0,"TOWNNAME":"永康區","LI":"龍潭里","LIN":"3鄰","STREET":"龍潭街","SECT":" ","MAREA":" ","LANE":"７５巷","ALLEY":" ","HOUSE_NO":"１４之６號","E_COORD97":174715.88,"N_COORD97":2548072.1299999999,"ADDRESS":"龍潭街７５巷１４之６號","OBJECTID":413711},"geometry":{"x":174715.88000000082,"y":2548072.129999999}},{"attributes":{"ID":413736,"DIS_CODE":0,"TOWNNAME":"永康區","LI":"網寮里","LIN":"3鄰","STREET":"永二街","SECT":" ","MAREA":" ","LANE":"５４巷","ALLEY":" ","HOUSE_NO":"１號","E_COORD97":173593.32000000001,"N_COORD97":2546685.4900000002,"ADDRESS":"永二街５４巷１號","OBJECTID":413712},"geometry":{"x":173593.3200000003,"y":2546685.4900000002}},{"attributes":{"ID":413737,"DIS_CODE":0,"TOWNNAME":"永康區","LI":"新樹里","LIN":"3鄰","STREET":"中山北路","SECT":" ","MAREA":" ","LANE":"６３４巷","ALLEY":" ","HOUSE_NO":"２６號","E_COORD97":176101.04000000001,"N_COORD97":2547776.5899999999,"ADDRESS":"中山北路６３４巷２６號","OBJECTID":413713},"geometry":{"x":176101.04000000097,"y":2547776.5900000036}},{"attributes":{"ID":413738,"DIS_CODE":0,"TOWNNAME":"永康區","LI":"新樹里","LIN":"3鄰","STREET":"中山北路","SECT":" ","MAREA":" ","LANE":"７６４巷","ALLEY":" ","HOUSE_NO":"２７號","E_COORD97":176298.29000000001,"N_COORD97":2547834.29,"ADDRESS":"中山北路７６４巷２７號","OBJECTID":413714},"geometry":{"x":176298.29000000004,"y":2547834.2899999991}},{"attributes":{"ID":413739,"DIS_CODE":0,"TOWNNAME":"永康區","LI":"新樹里","LIN":"3鄰","STREET":"富強路","SECT":"二段","MAREA":" ","LANE":"３８５巷","ALLEY":" ","HOUSE_NO":"２號","E_COORD97":175516.76999999999,"N_COORD97":2547712.02,"ADDRESS":"富強路二段３８５巷２號","OBJECTID":413715},"geometry":{"x":175516.76999999955,"y":2547712.0199999996}},{"attributes":{"ID":413740,"DIS_CODE":0,"TOWNNAME":"永康區","LI":"新樹里","LIN":"3鄰","STREET":"中山北路","SECT":" ","MAREA":" ","LANE":"７６４巷","ALLEY":" ","HOUSE_NO":"４３號之１","E_COORD97":176249.10000000001,"N_COORD97":2547527.7599999998,"ADDRESS":"中山北路７６４巷４３號之１","OBJECTID":413716},"geometry":{"x":176249.10000000149,"y":2547527.7599999979}},{"attributes":{"ID":413741,"DIS_CODE":0,"TOWNNAME":"永康區","LI":"新樹里","LIN":"3鄰","STREET":"中山北路","SECT":" ","MAREA":" ","LANE":"６３４巷","ALLEY":" ","HOUSE_NO":"３０號","E_COORD97":176129.29999999999,"N_COORD97":2547842.2000000002,"ADDRESS":"中山北路６３４巷３０號","OBJECTID":413717},"geometry":{"x":176129.30000000168,"y":2547842.1999999993}},{"attributes":{"ID":413742,"DIS_CODE":0,"TOWNNAME":"永康區","LI":"新樹里","LIN":"3鄰","STREET":"中山北路","SECT":" ","MAREA":" ","LANE":"６３４巷","ALLEY":" ","HOUSE_NO":"３６號","E_COORD97":176172.48999999999,"N_COORD97":2547847.1299999999,"ADDRESS":"中山北路６３４巷３６號","OBJECTID":413718},"geometry":{"x":176172.49000000209,"y":2547847.1300000008}},{"attributes":{"ID":413743,"DIS_CODE":0,"TOWNNAME":"永康區","LI":"新樹里","LIN":"3鄰","STREET":"中山北路","SECT":" ","MAREA":" ","LANE":"６３４巷","ALLEY":" ","HOUSE_NO":"２號","E_COORD97":175980.73999999999,"N_COORD97":2547826.9500000002,"ADDRESS":"中山北路６３４巷２號","OBJECTID":413719},"geometry":{"x":175980.74000000022,"y":2547826.9499999993}},{"attributes":{"ID":413744,"DIS_CODE":0,"TOWNNAME":"永康區","LI":"新樹里","LIN":"3鄰","STREET":"中山北路","SECT":" ","MAREA":" ","LANE":"７６４巷","ALLEY":" ","HOUSE_NO":"３２號","E_COORD97":176258.17999999999,"N_COORD97":2547660.8100000001,"ADDRESS":"中山北路７６４巷３２號","OBJECTID":413720},"geometry":{"x":176258.1799999997,"y":2547660.8100000042}},{"attributes":{"ID":413745,"DIS_CODE":0,"TOWNNAME":"永康區","LI":"蔦松里","LIN":"3鄰","STREET":"蔦松一街","SECT":" ","MAREA":" ","LANE":"３５巷","ALLEY":" ","HOUSE_NO":"１５號","E_COORD97":173969.10000000001,"N_COORD97":2549310.1699999999,"ADDRESS":"蔦松一街３５巷１５號","OBJECTID":413721},"geometry":{"x":173969.10000000149,"y":2549310.1700000018}},{"attributes":{"ID":413746,"DIS_CODE":0,"TOWNNAME":"永康區","LI":"新樹里","LIN":"3鄰","STREET":"富強路","SECT":"二段","MAREA":" ","LANE":"３６８巷","ALLEY":" ","HOUSE_NO":"６號","E_COORD97":175614.88,"N_COORD97":2547612.1099999999,"ADDRESS":"富強路二段３６８巷６號","OBJECTID":413722},"geometry":{"x":175614.87999999989,"y":2547612.1099999994}},{"attributes":{"ID":413747,"DIS_CODE":0,"TOWNNAME":"永康區","LI":"新樹里","LIN":"3鄰","STREET":"富強路","SECT":"二段","MAREA":" ","LANE":"３６８巷","ALLEY":" ","HOUSE_NO":"１號","E_COORD97":175596.72,"N_COORD97":2547632.0600000001,"ADDRESS":"富強路二段３６８巷１號","OBJECTID":413723},"geometry":{"x":175596.71999999974,"y":2547632.0600000024}},{"attributes":{"ID":413748,"DIS_CODE":0,"TOWNNAME":"永康區","LI":"網寮里","LIN":"3鄰","STREET":"永二街","SECT":" ","MAREA":" ","LANE":"５４巷","ALLEY":" ","HOUSE_NO":"６號","E_COORD97":173591.39000000001,"N_COORD97":2546695.71,"ADDRESS":"永二街５４巷６號","OBJECTID":413724},"geometry":{"x":173591.3900000006,"y":2546695.7100000028}},{"attributes":{"ID":413749,"DIS_CODE":0,"TOWNNAME":"永康區","LI":"蔦松里","LIN":"3鄰","STREET":"蔦松一街","SECT":" ","MAREA":" ","LANE":"２１巷","ALLEY":" ","HOUSE_NO":"９號","E_COORD97":173988.79999999999,"N_COORD97":2549286.9900000002,"ADDRESS":"蔦松一街２１巷９號","OBJECTID":413725},"geometry":{"x":173988.80000000075,"y":2549286.9900000021}},{"attributes":{"ID":413750,"DIS_CODE":0,"TOWNNAME":"永康區","LI":"網寮里","LIN":"3鄰","STREET":"永二街","SECT":" ","MAREA":" ","LANE":"５４巷","ALLEY":" ","HOUSE_NO":"１１號","E_COORD97":173573.22,"N_COORD97":2546694.0600000001,"ADDRESS":"永二街５４巷１１號","OBJECTID":413726},"geometry":{"x":173573.21999999974,"y":2546694.0600000024}},{"attributes":{"ID":413751,"DIS_CODE":0,"TOWNNAME":"仁德區","LI":"一甲里","LIN":"3鄰","STREET":"中正路","SECT":"三段","MAREA":" ","LANE":"１１４巷","ALLEY":" ","HOUSE_NO":"２號","E_COORD97":173421.39999999999,"N_COORD97":2541643.98,"ADDRESS":"中正路三段１１４巷２號","OBJECTID":413727},"geometry":{"x":173421.40000000037,"y":2541643.9800000004}},{"attributes":{"ID":413752,"DIS_CODE":0,"TOWNNAME":"仁德區","LI":"一甲里","LIN":"3鄰","STREET":"中正路","SECT":"三段","MAREA":" ","LANE":"１１４巷","ALLEY":" ","HOUSE_NO":"２０號","E_COORD97":173462.64999999999,"N_COORD97":2541643.73,"ADDRESS":"中正路三段１１４巷２０號","OBJECTID":413728},"geometry":{"x":173462.65000000224,"y":2541643.7300000023}},{"attributes":{"ID":413753,"DIS_CODE":0,"TOWNNAME":"仁德區","LI":"土庫里","LIN":"3鄰","STREET":"土庫路","SECT":" ","MAREA":" ","LANE":"１４６巷","ALLEY":" ","HOUSE_NO":"１２號","E_COORD97":174293.13,"N_COORD97":2543035.75,"ADDRESS":"土庫路１４６巷１２號","OBJECTID":413729},"geometry":{"x":174293.13000000082,"y":2543035.7499999981}},{"attributes":{"ID":413754,"DIS_CODE":0,"TOWNNAME":"仁德區","LI":"一甲里","LIN":"3鄰","STREET":"中正路","SECT":"三段","MAREA":" ","LANE":"１１４巷","ALLEY":" ","HOUSE_NO":"１２號","E_COORD97":173444.95999999999,"N_COORD97":2541642.48,"ADDRESS":"中正路三段１１４巷１２號","OBJECTID":413730},"geometry":{"x":173444.96000000183,"y":2541642.4800000023}},{"attributes":{"ID":413755,"DIS_CODE":0,"TOWNNAME":"仁德區","LI":"上崙里","LIN":"3鄰","STREET":"德崙路","SECT":" ","MAREA":" ","LANE":"２３１巷","ALLEY":" ","HOUSE_NO":"２８號","E_COORD97":173798.20999999999,"N_COORD97":2538258.77,"ADDRESS":"德崙路２３１巷２８號","OBJECTID":413731},"geometry":{"x":173798.21000000089,"y":2538258.7700000014}},{"attributes":{"ID":413756,"DIS_CODE":0,"TOWNNAME":"永康區","LI":"北灣里","LIN":"3鄰","STREET":"文賢街","SECT":" ","MAREA":" ","LANE":"１３６巷","ALLEY":" ","HOUSE_NO":"１０號六樓之２","E_COORD97":175429.64999999999,"N_COORD97":2545543.8799999999,"ADDRESS":"文賢街１３６巷１０號六樓之２","OBJECTID":413732},"geometry":{"x":175429.6500000013,"y":2545543.8800000008}},{"attributes":{"ID":413757,"DIS_CODE":0,"TOWNNAME":"仁德區","LI":"上崙里","LIN":"3鄰","STREET":"德崙路","SECT":" ","MAREA":" ","LANE":"２３１巷","ALLEY":" ","HOUSE_NO":"５０號","E_COORD97":173761.13,"N_COORD97":2538287.7599999998,"ADDRESS":"德崙路２３１巷５０號","OBJECTID":413733},"geometry":{"x":173761.13000000082,"y":2538287.7599999998}},{"attributes":{"ID":413758,"DIS_CODE":0,"TOWNNAME":"仁德區","LI":"一甲里","LIN":"3鄰","STREET":"中正路","SECT":"三段","MAREA":" ","LANE":"１１４巷","ALLEY":" ","HOUSE_NO":"１６號","E_COORD97":173453.98000000001,"N_COORD97":2541643.23,"ADDRESS":"中正路三段１１４巷１６號","OBJECTID":413734},"geometry":{"x":173453.98000000138,"y":2541643.2300000042}},{"attributes":{"ID":413759,"DIS_CODE":0,"TOWNNAME":"仁德區","LI":"一甲里","LIN":"3鄰","STREET":"中正路","SECT":"三段","MAREA":" ","LANE":"１１４巷","ALLEY":" ","HOUSE_NO":"２２號","E_COORD97":173466.91,"N_COORD97":2541644.23,"ADDRESS":"中正路三段１１４巷２２號","OBJECTID":413735},"geometry":{"x":173466.91000000015,"y":2541644.2300000023}},{"attributes":{"ID":413760,"DIS_CODE":0,"TOWNNAME":"東區","LI":"東安里","LIN":"3鄰","STREET":"長榮路","SECT":"二段","MAREA":" ","LANE":"２４巷","ALLEY":" ","HOUSE_NO":"３２號","E_COORD97":170002.16,"N_COORD97":2543038.6800000002,"ADDRESS":"長榮路二段２４巷３２號","OBJECTID":413736},"geometry":{"x":170002.16000000015,"y":2543038.6799999997}},{"attributes":{"ID":413761,"DIS_CODE":0,"TOWNNAME":"東區","LI":"東安里","LIN":"3鄰","STREET":"長榮路","SECT":"二段","MAREA":" ","LANE":"２４巷","ALLEY":" ","HOUSE_NO":"３４號","E_COORD97":170003.38,"N_COORD97":2543042.6400000001,"ADDRESS":"長榮路二段２４巷３４號","OBJECTID":413737},"geometry":{"x":170003.37999999989,"y":2543042.6400000006}},{"attributes":{"ID":413762,"DIS_CODE":0,"TOWNNAME":"東區","LI":"東安里","LIN":"3鄰","STREET":"長榮路","SECT":"二段","MAREA":" ","LANE":"２４巷","ALLEY":" ","HOUSE_NO":"３６號","E_COORD97":170004.70000000001,"N_COORD97":2543045.9399999999,"ADDRESS":"長榮路二段２４巷３６號","OBJECTID":413738},"geometry":{"x":170004.70000000112,"y":2543045.9400000013}},{"attributes":{"ID":413763,"DIS_CODE":0,"TOWNNAME":"東區","LI":"東安里","LIN":"3鄰","STREET":"長榮路","SECT":"二段","MAREA":" ","LANE":"２４巷","ALLEY":" ","HOUSE_NO":"３８號","E_COORD97":170005.82999999999,"N_COORD97":2543049.7999999998,"ADDRESS":"長榮路二段２４巷３８號","OBJECTID":413739},"geometry":{"x":170005.83000000007,"y":2543049.7999999989}},{"attributes":{"ID":413764,"DIS_CODE":0,"TOWNNAME":"東區","LI":"東安里","LIN":"3鄰","STREET":"長榮路","SECT":"二段","MAREA":" ","LANE":"２４巷","ALLEY":" ","HOUSE_NO":"４０號","E_COORD97":170007.14999999999,"N_COORD97":2543053.4700000002,"ADDRESS":"長榮路二段２４巷４０號","OBJECTID":413740},"geometry":{"x":170007.15000000037,"y":2543053.4700000025}},{"attributes":{"ID":413765,"DIS_CODE":0,"TOWNNAME":"東區","LI":"大智里","LIN":"3鄰","STREET":"生產路","SECT":" ","MAREA":" ","LANE":"５５０巷","ALLEY":" ","HOUSE_NO":"１９號","E_COORD97":171141.89000000001,"N_COORD97":2540606.2000000002,"ADDRESS":"生產路５５０巷１９號","OBJECTID":413741},"geometry":{"x":171141.8900000006,"y":2540606.2000000011}},{"attributes":{"ID":413766,"DIS_CODE":0,"TOWNNAME":"東區","LI":"大智里","LIN":"3鄰","STREET":"生產路","SECT":" ","MAREA":" ","LANE":"５５０巷","ALLEY":" ","HOUSE_NO":"２０號","E_COORD97":171119.09,"N_COORD97":2540610.9500000002,"ADDRESS":"生產路５５０巷２０號","OBJECTID":413742},"geometry":{"x":171119.08999999985,"y":2540610.9500000011}},{"attributes":{"ID":413767,"DIS_CODE":0,"TOWNNAME":"東區","LI":"大智里","LIN":"3鄰","STREET":"生產路","SECT":" ","MAREA":" ","LANE":"５５０巷","ALLEY":" ","HOUSE_NO":"２２號","E_COORD97":171119.32999999999,"N_COORD97":2540606.4399999999,"ADDRESS":"生產路５５０巷２２號","OBJECTID":413743},"geometry":{"x":171119.33000000007,"y":2540606.4399999976}},{"attributes":{"ID":413768,"DIS_CODE":0,"TOWNNAME":"東區","LI":"大智里","LIN":"3鄰","STREET":"生產路","SECT":" ","MAREA":" ","LANE":"５５０巷","ALLEY":" ","HOUSE_NO":"２３號","E_COORD97":171142.84,"N_COORD97":2540595.0499999998,"ADDRESS":"生產路５５０巷２３號","OBJECTID":413744},"geometry":{"x":171142.83999999985,"y":2540595.0500000026}},{"attributes":{"ID":413769,"DIS_CODE":0,"TOWNNAME":"東區","LI":"大智里","LIN":"3鄰","STREET":"生產路","SECT":" ","MAREA":" ","LANE":"５５０巷","ALLEY":" ","HOUSE_NO":"２４號","E_COORD97":171119.57000000001,"N_COORD97":2540602.4100000001,"ADDRESS":"生產路５５０巷２４號","OBJECTID":413745},"geometry":{"x":171119.5700000003,"y":2540602.410000002}},{"attributes":{"ID":413770,"DIS_CODE":0,"TOWNNAME":"東區","LI":"大智里","LIN":"3鄰","STREET":"生產路","SECT":" ","MAREA":" ","LANE":"５５０巷","ALLEY":" ","HOUSE_NO":"２５號","E_COORD97":171143.07000000001,"N_COORD97":2540588.8799999999,"ADDRESS":"生產路５５０巷２５號","OBJECTID":413746},"geometry":{"x":171143.07000000123,"y":2540588.879999999}},{"attributes":{"ID":413771,"DIS_CODE":0,"TOWNNAME":"東區","LI":"大智里","LIN":"3鄰","STREET":"生產路","SECT":" ","MAREA":" ","LANE":"５５０巷","ALLEY":" ","HOUSE_NO":"２６號","E_COORD97":171120.04000000001,"N_COORD97":2540598.8500000001,"ADDRESS":"生產路５５０巷２６號","OBJECTID":413747},"geometry":{"x":171120.04000000004,"y":2540598.8500000015}},{"attributes":{"ID":413772,"DIS_CODE":0,"TOWNNAME":"東區","LI":"大智里","LIN":"3鄰","STREET":"生產路","SECT":" ","MAREA":" ","LANE":"５５０巷","ALLEY":" ","HOUSE_NO":"３４號","E_COORD97":171121.47,"N_COORD97":2540582.48,"ADDRESS":"生產路５５０巷３４號","OBJECTID":413748},"geometry":{"x":171121.46999999974,"y":2540582.4800000004}},{"attributes":{"ID":413773,"DIS_CODE":0,"TOWNNAME":"東區","LI":"大智里","LIN":"3鄰","STREET":"生產路","SECT":" ","MAREA":" ","LANE":"５５０巷","ALLEY":" ","HOUSE_NO":"３５號","E_COORD97":171145.45000000001,"N_COORD97":2540561.1299999999,"ADDRESS":"生產路５５０巷３５號","OBJECTID":413749},"geometry":{"x":171145.45000000112,"y":2540561.1300000008}},{"attributes":{"ID":413774,"DIS_CODE":0,"TOWNNAME":"東區","LI":"大智里","LIN":"3鄰","STREET":"生產路","SECT":" ","MAREA":" ","LANE":"５５０巷","ALLEY":" ","HOUSE_NO":"３６號","E_COORD97":171120.98999999999,"N_COORD97":2540578.4500000002,"ADDRESS":"生產路５５０巷３６號","OBJECTID":413750},"geometry":{"x":171120.99000000209,"y":2540578.4499999993}},{"attributes":{"ID":413775,"DIS_CODE":0,"TOWNNAME":"東區","LI":"大智里","LIN":"3鄰","STREET":"生產路","SECT":" ","MAREA":" ","LANE":"５５０巷","ALLEY":" ","HOUSE_NO":"３７號","E_COORD97":171145.45000000001,"N_COORD97":2540556.3900000001,"ADDRESS":"生產路５５０巷３７號","OBJECTID":413751},"geometry":{"x":171145.45000000112,"y":2540556.3900000006}},{"attributes":{"ID":413776,"DIS_CODE":0,"TOWNNAME":"東區","LI":"大智里","LIN":"3鄰","STREET":"生產路","SECT":" ","MAREA":" ","LANE":"５５０巷","ALLEY":" ","HOUSE_NO":"３８號","E_COORD97":171121.70999999999,"N_COORD97":2540574.6499999999,"ADDRESS":"生產路５５０巷３８號","OBJECTID":413752},"geometry":{"x":171121.70999999996,"y":2540574.6500000004}},{"attributes":{"ID":413777,"DIS_CODE":0,"TOWNNAME":"東區","LI":"大智里","LIN":"3鄰","STREET":"生產路","SECT":" ","MAREA":" ","LANE":"５５０巷","ALLEY":" ","HOUSE_NO":"３９號","E_COORD97":171146.63,"N_COORD97":2540550.9300000002,"ADDRESS":"生產路５５０巷３９號","OBJECTID":413753},"geometry":{"x":171146.63000000175,"y":2540550.9300000016}},{"attributes":{"ID":413778,"DIS_CODE":0,"TOWNNAME":"東區","LI":"大智里","LIN":"3鄰","STREET":"生產路","SECT":" ","MAREA":" ","LANE":"５５０巷","ALLEY":" ","HOUSE_NO":"４０號","E_COORD97":171122.42000000001,"N_COORD97":2540570.3799999999,"ADDRESS":"生產路５５０巷４０號","OBJECTID":413754},"geometry":{"x":171122.41999999993,"y":2540570.3800000008}},{"attributes":{"ID":413779,"DIS_CODE":0,"TOWNNAME":"東區","LI":"大智里","LIN":"3鄰","STREET":"生產路","SECT":" ","MAREA":" ","LANE":"５５０巷","ALLEY":" ","HOUSE_NO":"４１號","E_COORD97":171146.63,"N_COORD97":2540545.9500000002,"ADDRESS":"生產路５５０巷４１號","OBJECTID":413755},"geometry":{"x":171146.63000000175,"y":2540545.9500000011}},{"attributes":{"ID":413780,"DIS_CODE":0,"TOWNNAME":"東區","LI":"大智里","LIN":"3鄰","STREET":"生產路","SECT":" ","MAREA":" ","LANE":"５５０巷","ALLEY":" ","HOUSE_NO":"４２號","E_COORD97":171124.32000000001,"N_COORD97":2540564.9300000002,"ADDRESS":"生產路５５０巷４２號","OBJECTID":413756},"geometry":{"x":171124.32000000123,"y":2540564.9299999997}},{"attributes":{"ID":413781,"DIS_CODE":0,"TOWNNAME":"東區","LI":"大智里","LIN":"3鄰","STREET":"生產路","SECT":" ","MAREA":" ","LANE":"５５０巷","ALLEY":" ","HOUSE_NO":"４３號","E_COORD97":171146.39999999999,"N_COORD97":2540541.2000000002,"ADDRESS":"生產路５５０巷４３號","OBJECTID":413757},"geometry":{"x":171146.40000000037,"y":2540541.2000000011}},{"attributes":{"ID":413782,"DIS_CODE":0,"TOWNNAME":"東區","LI":"大智里","LIN":"3鄰","STREET":"生產路","SECT":" ","MAREA":" ","LANE":"５５０巷","ALLEY":" ","HOUSE_NO":"４４號","E_COORD97":171122.66,"N_COORD97":2540559,"ADDRESS":"生產路５５０巷４４號","OBJECTID":413758},"geometry":{"x":171122.66000000015,"y":2540559}},{"attributes":{"ID":413783,"DIS_CODE":0,"TOWNNAME":"東區","LI":"大智里","LIN":"3鄰","STREET":"生產路","SECT":" ","MAREA":" ","LANE":"５５０巷","ALLEY":" ","HOUSE_NO":"４６號","E_COORD97":171123.37,"N_COORD97":2540553.54,"ADDRESS":"生產路５５０巷４６號","OBJECTID":413759},"geometry":{"x":171123.37000000197,"y":2540553.5399999991}},{"attributes":{"ID":413784,"DIS_CODE":0,"TOWNNAME":"東區","LI":"大智里","LIN":"3鄰","STREET":"生產路","SECT":" ","MAREA":" ","LANE":"５５０巷","ALLEY":" ","HOUSE_NO":"４８號","E_COORD97":171123.84,"N_COORD97":2540548.3199999998,"ADDRESS":"生產路５５０巷４８號","OBJECTID":413760},"geometry":{"x":171123.84000000078,"y":2540548.3200000022}},{"attributes":{"ID":413785,"DIS_CODE":0,"TOWNNAME":"東區","LI":"大智里","LIN":"3鄰","STREET":"生產路","SECT":" ","MAREA":" ","LANE":"５５０巷","ALLEY":" ","HOUSE_NO":"５０號","E_COORD97":171124.92000000001,"N_COORD97":2540543.8300000001,"ADDRESS":"生產路５５０巷５０號","OBJECTID":413761},"geometry":{"x":171124.92000000086,"y":2540543.8300000038}},{"attributes":{"ID":413786,"DIS_CODE":0,"TOWNNAME":"新營區","LI":"忠政里","LIN":"3鄰","STREET":"中正路","SECT":" ","MAREA":" ","LANE":"３７巷","ALLEY":" ","HOUSE_NO":"５號","E_COORD97":180067.72,"N_COORD97":2579128.3300000001,"ADDRESS":"中正路３７巷５號","OBJECTID":413762},"geometry":{"x":180067.7200000016,"y":2579128.3300000001}},{"attributes":{"ID":413787,"DIS_CODE":0,"TOWNNAME":"東區","LI":"大智里","LIN":"3鄰","STREET":"長東街","SECT":" ","MAREA":" ","LANE":"４１巷","ALLEY":" ","HOUSE_NO":"６９號","E_COORD97":171122.42000000001,"N_COORD97":2540523.6499999999,"ADDRESS":"長東街４１巷６９號","OBJECTID":413763},"geometry":{"x":171122.41999999993,"y":2540523.6500000004}},{"attributes":{"ID":413788,"DIS_CODE":0,"TOWNNAME":"東區","LI":"大智里","LIN":"3鄰","STREET":"長東街","SECT":" ","MAREA":" ","LANE":"４１巷","ALLEY":" ","HOUSE_NO":"７１號","E_COORD97":171125.26999999999,"N_COORD97":2540526.9700000002,"ADDRESS":"長東街４１巷７１號","OBJECTID":413764},"geometry":{"x":171125.27000000048,"y":2540526.9700000025}},{"attributes":{"ID":413789,"DIS_CODE":0,"TOWNNAME":"東區","LI":"大智里","LIN":"3鄰","STREET":"長東街","SECT":" ","MAREA":" ","LANE":"４１巷","ALLEY":" ","HOUSE_NO":"７３號","E_COORD97":171129.78,"N_COORD97":2540523.6499999999,"ADDRESS":"長東街４１巷７３號","OBJECTID":413765},"geometry":{"x":171129.78000000119,"y":2540523.6500000004}},{"attributes":{"ID":413790,"DIS_CODE":0,"TOWNNAME":"東區","LI":"大智里","LIN":"3鄰","STREET":"長東街","SECT":" ","MAREA":" ","LANE":"４１巷","ALLEY":" ","HOUSE_NO":"７７號","E_COORD97":171145.20999999999,"N_COORD97":2540525.7799999998,"ADDRESS":"長東街４１巷７７號","OBJECTID":413766},"geometry":{"x":171145.21000000089,"y":2540525.7799999993}},{"attributes":{"ID":413791,"DIS_CODE":0,"TOWNNAME":"東區","LI":"大智里","LIN":"3鄰","STREET":"長東街","SECT":" ","MAREA":" ","LANE":"４１巷","ALLEY":" ","HOUSE_NO":"７９號","E_COORD97":171148.76999999999,"N_COORD97":2540528.8700000001,"ADDRESS":"長東街４１巷７９號","OBJECTID":413767},"geometry":{"x":171148.77000000142,"y":2540528.8700000029}},{"attributes":{"ID":413792,"DIS_CODE":0,"TOWNNAME":"東區","LI":"大智里","LIN":"3鄰","STREET":"長東街","SECT":" ","MAREA":" ","LANE":"４１巷","ALLEY":" ","HOUSE_NO":"８１號","E_COORD97":171152.57000000001,"N_COORD97":2540525.0699999998,"ADDRESS":"長東街４１巷８１號","OBJECTID":413768},"geometry":{"x":171152.57000000216,"y":2540525.0699999984}},{"attributes":{"ID":413793,"DIS_CODE":0,"TOWNNAME":"東區","LI":"大智里","LIN":"3鄰","STREET":"長東街","SECT":" ","MAREA":" ","LANE":"４１巷","ALLEY":" ","HOUSE_NO":"８３號","E_COORD97":171155.89000000001,"N_COORD97":2540529.1099999999,"ADDRESS":"長東街４１巷８３號","OBJECTID":413769},"geometry":{"x":171155.88999999966,"y":2540529.1099999994}},{"attributes":{"ID":413794,"DIS_CODE":0,"TOWNNAME":"東區","LI":"大智里","LIN":"3鄰","STREET":"長東街","SECT":" ","MAREA":" ","LANE":"４１巷","ALLEY":" ","HOUSE_NO":"８５號","E_COORD97":171160.17000000001,"N_COORD97":2540525.3100000001,"ADDRESS":"長東街４１巷８５號","OBJECTID":413770},"geometry":{"x":171160.17000000086,"y":2540525.3100000024}},{"attributes":{"ID":413795,"DIS_CODE":0,"TOWNNAME":"東區","LI":"大智里","LIN":"3鄰","STREET":"長東街","SECT":" ","MAREA":" ","LANE":"４１巷","ALLEY":" ","HOUSE_NO":"８７號","E_COORD97":171164.67999999999,"N_COORD97":2540528.8700000001,"ADDRESS":"長東街４１巷８７號","OBJECTID":413771},"geometry":{"x":171164.67999999877,"y":2540528.8700000029}},{"attributes":{"ID":413796,"DIS_CODE":0,"TOWNNAME":"東區","LI":"大智里","LIN":"3鄰","STREET":"長東街","SECT":" ","MAREA":" ","LANE":"４１巷","ALLEY":" ","HOUSE_NO":"８９號","E_COORD97":171169.89999999999,"N_COORD97":2540525.5499999998,"ADDRESS":"長東街４１巷８９號","OBJECTID":413772},"geometry":{"x":171169.9000000013,"y":2540525.5500000007}},{"attributes":{"ID":413797,"DIS_CODE":0,"TOWNNAME":"東區","LI":"大智里","LIN":"3鄰","STREET":"長東街","SECT":" ","MAREA":" ","LANE":"４１巷","ALLEY":" ","HOUSE_NO":"９１號","E_COORD97":171175.35999999999,"N_COORD97":2540529.1099999999,"ADDRESS":"長東街４１巷９１號","OBJECTID":413773},"geometry":{"x":171175.36000000034,"y":2540529.1099999994}},{"attributes":{"ID":413798,"DIS_CODE":0,"TOWNNAME":"東區","LI":"大智里","LIN":"3鄰","STREET":"長東街","SECT":" ","MAREA":" ","LANE":"４１巷","ALLEY":" ","HOUSE_NO":"９３號","E_COORD97":171178.92000000001,"N_COORD97":2540532.1899999999,"ADDRESS":"長東街４１巷９３號","OBJECTID":413774},"geometry":{"x":171178.92000000086,"y":2540532.1899999995}},{"attributes":{"ID":413799,"DIS_CODE":0,"TOWNNAME":"東區","LI":"崇明里","LIN":"3鄰","STREET":"大同路","SECT":"二段","MAREA":" ","LANE":"４０３巷","ALLEY":" ","HOUSE_NO":"１０號","E_COORD97":169593.34,"N_COORD97":2541340.7000000002,"ADDRESS":"大同路二段４０３巷１０號","OBJECTID":413775},"geometry":{"x":169593.33999999985,"y":2541340.7000000011}},{"attributes":{"ID":413800,"DIS_CODE":0,"TOWNNAME":"東區","LI":"崇明里","LIN":"3鄰","STREET":"大同路","SECT":"二段","MAREA":" ","LANE":"４０３巷","ALLEY":" ","HOUSE_NO":"１４號","E_COORD97":169574.76999999999,"N_COORD97":2541363.3900000001,"ADDRESS":"大同路二段４０３巷１４號","OBJECTID":413776},"geometry":{"x":169574.77000000048,"y":2541363.3900000006}},{"attributes":{"ID":413801,"DIS_CODE":0,"TOWNNAME":"東區","LI":"崇明里","LIN":"3鄰","STREET":"大同路","SECT":"二段","MAREA":" ","LANE":"４０３巷","ALLEY":" ","HOUSE_NO":"１６號","E_COORD97":169569.64000000001,"N_COORD97":2541374.4399999999,"ADDRESS":"大同路二段４０３巷１６號","OBJECTID":413777},"geometry":{"x":169569.63999999966,"y":2541374.4400000013}},{"attributes":{"ID":413802,"DIS_CODE":0,"TOWNNAME":"東區","LI":"崇明里","LIN":"3鄰","STREET":"大同路","SECT":"二段","MAREA":" ","LANE":"４０３巷","ALLEY":" ","HOUSE_NO":"１８號","E_COORD97":169590.17999999999,"N_COORD97":2541378.3799999999,"ADDRESS":"大同路二段４０３巷１８號","OBJECTID":413778},"geometry":{"x":169590.18000000063,"y":2541378.379999999}},{"attributes":{"ID":413803,"DIS_CODE":0,"TOWNNAME":"東區","LI":"崇明里","LIN":"3鄰","STREET":"大同路","SECT":"二段","MAREA":" ","LANE":"４０３巷","ALLEY":" ","HOUSE_NO":"２０號","E_COORD97":169593.34,"N_COORD97":2541372.0699999998,"ADDRESS":"大同路二段４０３巷２０號","OBJECTID":413779},"geometry":{"x":169593.33999999985,"y":2541372.0700000003}},{"attributes":{"ID":413804,"DIS_CODE":0,"TOWNNAME":"安南區","LI":"鳳凰里","LIN":"3鄰","STREET":"安中路","SECT":"一段","MAREA":" ","LANE":"６２２巷","ALLEY":" ","HOUSE_NO":"７０號","E_COORD97":167999.09899999999,"N_COORD97":2549157.43304,"ADDRESS":"安中路一段６２２巷７０號","OBJECTID":413780},"geometry":{"x":167999.09900000133,"y":2549157.4330370016}},{"attributes":{"ID":413805,"DIS_CODE":0,"TOWNNAME":"安南區","LI":"鳳凰里","LIN":"3鄰","STREET":"安中路","SECT":"一段","MAREA":" ","LANE":"６２２巷","ALLEY":" ","HOUSE_NO":"７２號","E_COORD97":168002.910195,"N_COORD97":2549157.6447000001,"ADDRESS":"安中路一段６２２巷７２號","OBJECTID":413781},"geometry":{"x":168002.9101950014,"y":2549157.6447040029}},{"attributes":{"ID":413806,"DIS_CODE":0,"TOWNNAME":"安南區","LI":"鳳凰里","LIN":"3鄰","STREET":"安中路","SECT":"一段","MAREA":" ","LANE":"６２２巷","ALLEY":" ","HOUSE_NO":"７６號","E_COORD97":168007.144856,"N_COORD97":2549157.6447000001,"ADDRESS":"安中路一段６２２巷７６號","OBJECTID":413782},"geometry":{"x":168007.14485600032,"y":2549157.6447040029}},{"attributes":{"ID":413807,"DIS_CODE":0,"TOWNNAME":"安南區","LI":"鳳凰里","LIN":"3鄰","STREET":"安中路","SECT":"一段","MAREA":" ","LANE":"６２２巷","ALLEY":" ","HOUSE_NO":"７８號","E_COORD97":168011.59125,"N_COORD97":2549159.76137,"ADDRESS":"安中路一段６２２巷７８號","OBJECTID":413783},"geometry":{"x":168011.59125000052,"y":2549159.7613699995}},{"attributes":{"ID":413808,"DIS_CODE":0,"TOWNNAME":"安南區","LI":"鳳凰里","LIN":"3鄰","STREET":"安中路","SECT":"一段","MAREA":" ","LANE":"６２２巷","ALLEY":" ","HOUSE_NO":"８０號","E_COORD97":168015.40244400001,"N_COORD97":2549160.1847000001,"ADDRESS":"安中路一段６２２巷８０號","OBJECTID":413784},"geometry":{"x":168015.40244400129,"y":2549160.1847030018}},{"attributes":{"ID":413809,"DIS_CODE":0,"TOWNNAME":"安南區","LI":"鳳凰里","LIN":"3鄰","STREET":"安中路","SECT":"一段","MAREA":" ","LANE":"６２２巷","ALLEY":" ","HOUSE_NO":"８２號","E_COORD97":168020.06057100001,"N_COORD97":2549161.03137,"ADDRESS":"安中路一段６２２巷８２號","OBJECTID":413785},"geometry":{"x":168020.06057099905,"y":2549161.0313690025}},{"attributes":{"ID":413810,"DIS_CODE":0,"TOWNNAME":"安南區","LI":"鳳凰里","LIN":"3鄰","STREET":"安中路","SECT":"一段","MAREA":" ","LANE":"６２２巷","ALLEY":" ","HOUSE_NO":"８６號","E_COORD97":168024.083499,"N_COORD97":2549161.8780399999,"ADDRESS":"安中路一段６２２巷８６號","OBJECTID":413786},"geometry":{"x":168024.08349900227,"y":2549161.8780349996}},{"attributes":{"ID":413811,"DIS_CODE":0,"TOWNNAME":"永康區","LI":"中華里","LIN":"3鄰","STREET":"小東路","SECT":" ","MAREA":" ","LANE":"６４７巷","ALLEY":" ","HOUSE_NO":"２號","E_COORD97":171949.51000000001,"N_COORD97":2544359.04,"ADDRESS":"小東路６４７巷２號","OBJECTID":413787},"geometry":{"x":171949.51000000071,"y":2544359.040000001}},{"attributes":{"ID":413812,"DIS_CODE":0,"TOWNNAME":"永康區","LI":"中華里","LIN":"3鄰","STREET":"小東路","SECT":" ","MAREA":" ","LANE":"６８５巷","ALLEY":" ","HOUSE_NO":"５號","E_COORD97":172026.16,"N_COORD97":2544367.8300000001,"ADDRESS":"小東路６８５巷５號","OBJECTID":413788},"geometry":{"x":172026.16000000015,"y":2544367.8300000038}},{"attributes":{"ID":413813,"DIS_CODE":0,"TOWNNAME":"安南區","LI":"學東里","LIN":"3鄰","STREET":"公學路","SECT":"七段","MAREA":" ","LANE":"８４巷","ALLEY":" ","HOUSE_NO":"１０號","E_COORD97":161837.76000000001,"N_COORD97":2553436.8799999999,"ADDRESS":"公學路七段８４巷１０號","OBJECTID":413789},"geometry":{"x":161837.76000000071,"y":2553436.8800000008}},{"attributes":{"ID":413814,"DIS_CODE":0,"TOWNNAME":"安南區","LI":"學東里","LIN":"3鄰","STREET":"公學路","SECT":"七段","MAREA":" ","LANE":"８４巷","ALLEY":" ","HOUSE_NO":"１１號","E_COORD97":161813.44,"N_COORD97":2553447.3799999999,"ADDRESS":"公學路七段８４巷１１號","OBJECTID":413790},"geometry":{"x":161813.44000000134,"y":2553447.3800000008}},{"attributes":{"ID":413815,"DIS_CODE":0,"TOWNNAME":"安南區","LI":"學東里","LIN":"3鄰","STREET":"公學路","SECT":"七段","MAREA":" ","LANE":"８４巷","ALLEY":" ","HOUSE_NO":"１２號","E_COORD97":161837.42999999999,"N_COORD97":2553440.6499999999,"ADDRESS":"公學路七段８４巷１２號","OBJECTID":413791},"geometry":{"x":161837.4299999997,"y":2553440.6500000004}},{"attributes":{"ID":413816,"DIS_CODE":0,"TOWNNAME":"安南區","LI":"學東里","LIN":"3鄰","STREET":"公學路","SECT":"七段","MAREA":" ","LANE":"８４巷","ALLEY":" ","HOUSE_NO":"１３號","E_COORD97":161813.44,"N_COORD97":2553451.6499999999,"ADDRESS":"公學路七段８４巷１３號","OBJECTID":413792},"geometry":{"x":161813.44000000134,"y":2553451.6500000004}},{"attributes":{"ID":413817,"DIS_CODE":0,"TOWNNAME":"安南區","LI":"學東里","LIN":"3鄰","STREET":"公學路","SECT":"七段","MAREA":" ","LANE":"８４巷","ALLEY":" ","HOUSE_NO":"１４號","E_COORD97":161838.09,"N_COORD97":2553445.5800000001,"ADDRESS":"公學路七段８４巷１４號","OBJECTID":413793},"geometry":{"x":161838.08999999985,"y":2553445.5800000038}},{"attributes":{"ID":413818,"DIS_CODE":0,"TOWNNAME":"安南區","LI":"學東里","LIN":"3鄰","STREET":"公學路","SECT":"七段","MAREA":" ","LANE":"８４巷","ALLEY":" ","HOUSE_NO":"１５號","E_COORD97":161813.10999999999,"N_COORD97":2553456.8999999999,"ADDRESS":"公學路七段８４巷１５號","OBJECTID":413794},"geometry":{"x":161813.11000000034,"y":2553456.9000000004}},{"attributes":{"ID":413819,"DIS_CODE":0,"TOWNNAME":"南區","LI":"新興里","LIN":"3鄰","STREET":"五妃街","SECT":" ","MAREA":" ","LANE":"４４３巷","ALLEY":" ","HOUSE_NO":"８號","E_COORD97":167529.29999999999,"N_COORD97":2542565.8199999998,"ADDRESS":"五妃街４４３巷８號","OBJECTID":413795},"geometry":{"x":167529.29999999981,"y":2542565.8200000022}},{"attributes":{"ID":413820,"DIS_CODE":0,"TOWNNAME":"安南區","LI":"學東里","LIN":"3鄰","STREET":"公學路","SECT":"七段","MAREA":" ","LANE":"８４巷","ALLEY":" ","HOUSE_NO":"１６號","E_COORD97":161837.67000000001,"N_COORD97":2553449.6000000001,"ADDRESS":"公學路七段８４巷１６號","OBJECTID":413796},"geometry":{"x":161837.66999999993,"y":2553449.6000000015}},{"attributes":{"ID":413821,"DIS_CODE":0,"TOWNNAME":"安南區","LI":"學東里","LIN":"3鄰","STREET":"公學路","SECT":"七段","MAREA":" ","LANE":"８４巷","ALLEY":" ","HOUSE_NO":"１號","E_COORD97":161809.66,"N_COORD97":2553427.0299999998,"ADDRESS":"公學路七段８４巷１號","OBJECTID":413797},"geometry":{"x":161809.66000000201,"y":2553427.0299999993}},{"attributes":{"ID":413822,"DIS_CODE":0,"TOWNNAME":"安南區","LI":"學東里","LIN":"3鄰","STREET":"公學路","SECT":"七段","MAREA":" ","LANE":"８４巷","ALLEY":" ","HOUSE_NO":"２號","E_COORD97":161833.48999999999,"N_COORD97":2553420.6299999999,"ADDRESS":"公學路七段８４巷２號","OBJECTID":413798},"geometry":{"x":161833.49000000115,"y":2553420.6300000027}},{"attributes":{"ID":413823,"DIS_CODE":0,"TOWNNAME":"安南區","LI":"學東里","LIN":"3鄰","STREET":"公學路","SECT":"七段","MAREA":" ","LANE":"８４巷","ALLEY":" ","HOUSE_NO":"３號","E_COORD97":161811.79999999999,"N_COORD97":2553430.9700000002,"ADDRESS":"公學路七段８４巷３號","OBJECTID":413799},"geometry":{"x":161811.80000000168,"y":2553430.9700000025}},{"attributes":{"ID":413824,"DIS_CODE":0,"TOWNNAME":"安南區","LI":"學東里","LIN":"3鄰","STREET":"公學路","SECT":"七段","MAREA":" ","LANE":"８４巷","ALLEY":" ","HOUSE_NO":"４號","E_COORD97":161833.82000000001,"N_COORD97":2553424.2400000002,"ADDRESS":"公學路七段８４巷４號","OBJECTID":413800},"geometry":{"x":161833.8200000003,"y":2553424.2400000039}}]}