{"displayFieldName":"TOWNNAME","fieldAliases":{"ID":"ID","DIS_CODE":"DIS_CODE","TOWNNAME":"TOWNNAME","LI":"LI","LIN":"LIN","STREET":"STREET","SECT":"SECT","MAREA":"MAREA","LANE":"LANE","ALLEY":"ALLEY","HOUSE_NO":"HOUSE_NO","E_COORD97":"E_COORD97","N_COORD97":"N_COORD97","ADDRESS":"ADDRESS","OBJECTID":"OBJECTID"},"geometryType":"esriGeometryPoint","spatialReference":{"wkid":102443,"latestWkid":3826},"fields":[{"name":"ID","type":"esriFieldTypeDouble","alias":"ID"},{"name":"DIS_CODE","type":"esriFieldTypeInteger","alias":"DIS_CODE"},{"name":"TOWNNAME","type":"esriFieldTypeString","alias":"TOWNNAME","length":8},{"name":"LI","type":"esriFieldTypeString","alias":"LI","length":8},{"name":"LIN","type":"esriFieldTypeString","alias":"LIN","length":12},{"name":"STREET","type":"esriFieldTypeString","alias":"STREET","length":20},{"name":"SECT","type":"esriFieldTypeString","alias":"SECT","length":8},{"name":"MAREA","type":"esriFieldTypeString","alias":"MAREA","length":12},{"name":"LANE","type":"esriFieldTypeString","alias":"LANE","length":10},{"name":"ALLEY","type":"esriFieldTypeString","alias":"ALLEY","length":10},{"name":"HOUSE_NO","type":"esriFieldTypeString","alias":"HOUSE_NO","length":20},{"name":"E_COORD97","type":"esriFieldTypeDouble","alias":"E_COORD97"},{"name":"N_COORD97","type":"esriFieldTypeDouble","alias":"N_COORD97"},{"name":"ADDRESS","type":"esriFieldTypeString","alias":"ADDRESS","length":50},{"name":"OBJECTID","type":"esriFieldTypeOID","alias":"OBJECTID"}],"features":[{"attributes":{"ID":552228,"DIS_CODE":0,"TOWNNAME":"安南區","LI":"原佃里","LIN":"10鄰","STREET":"本原街","SECT":"一段","MAREA":" ","LANE":" ","ALLEY":" ","HOUSE_NO":"４０２號","E_COORD97":167540.57000000001,"N_COORD97":2550501.2000000002,"ADDRESS":"本原街一段４０２號","OBJECTID":552201},"geometry":{"x":167540.57000000123,"y":2550501.200000003}},{"attributes":{"ID":552229,"DIS_CODE":0,"TOWNNAME":"安南區","LI":"原佃里","LIN":"10鄰","STREET":"本原街","SECT":"一段","MAREA":" ","LANE":" ","ALLEY":" ","HOUSE_NO":"４０６號","E_COORD97":167520.67999999999,"N_COORD97":2550507.1499999999,"ADDRESS":"本原街一段４０６號","OBJECTID":552202},"geometry":{"x":167520.68000000063,"y":2550507.1500000022}},{"attributes":{"ID":552230,"DIS_CODE":0,"TOWNNAME":"安南區","LI":"原佃里","LIN":"10鄰","STREET":"本原街","SECT":"一段","MAREA":" ","LANE":" ","ALLEY":" ","HOUSE_NO":"４２０號","E_COORD97":167475.62,"N_COORD97":2550510.1099999999,"ADDRESS":"本原街一段４２０號","OBJECTID":552203},"geometry":{"x":167475.62000000104,"y":2550510.1100000013}},{"attributes":{"ID":552231,"DIS_CODE":0,"TOWNNAME":"安南區","LI":"原佃里","LIN":"10鄰","STREET":"本原街","SECT":"一段","MAREA":" ","LANE":" ","ALLEY":" ","HOUSE_NO":"４２２號","E_COORD97":167476.85000000001,"N_COORD97":2550499.8500000001,"ADDRESS":"本原街一段４２２號","OBJECTID":552204},"geometry":{"x":167476.85000000056,"y":2550499.8499999996}},{"attributes":{"ID":552232,"DIS_CODE":0,"TOWNNAME":"安南區","LI":"原佃里","LIN":"10鄰","STREET":"本原街","SECT":"一段","MAREA":" ","LANE":" ","ALLEY":" ","HOUSE_NO":"４２４號","E_COORD97":167472.20999999999,"N_COORD97":2550498.6899999999,"ADDRESS":"本原街一段４２４號","OBJECTID":552205},"geometry":{"x":167472.20999999996,"y":2550498.6900000013}},{"attributes":{"ID":552233,"DIS_CODE":0,"TOWNNAME":"安南區","LI":"原佃里","LIN":"10鄰","STREET":"本原街","SECT":"一段","MAREA":" ","LANE":" ","ALLEY":" ","HOUSE_NO":"４９６號","E_COORD97":167362.67000000001,"N_COORD97":2550647.3399999999,"ADDRESS":"本原街一段４９６號","OBJECTID":552206},"geometry":{"x":167362.66999999899,"y":2550647.3400000017}},{"attributes":{"ID":552234,"DIS_CODE":0,"TOWNNAME":"安南區","LI":"海東里","LIN":"10鄰","STREET":"海佃路","SECT":"二段","MAREA":" ","LANE":" ","ALLEY":" ","HOUSE_NO":"４５９號","E_COORD97":166710.01000000001,"N_COORD97":2549096.1000000001,"ADDRESS":"海佃路二段４５９號","OBJECTID":552207},"geometry":{"x":166710.01000000071,"y":2549096.1000000015}},{"attributes":{"ID":552235,"DIS_CODE":0,"TOWNNAME":"中西區","LI":"小西里","LIN":"10鄰","STREET":"西門路","SECT":"一段","MAREA":" ","LANE":" ","ALLEY":" ","HOUSE_NO":"７１２號","E_COORD97":167756.09,"N_COORD97":2543378.1299999999,"ADDRESS":"西門路一段７１２號","OBJECTID":552208},"geometry":{"x":167756.08999999985,"y":2543378.1300000027}},{"attributes":{"ID":552236,"DIS_CODE":0,"TOWNNAME":"中西區","LI":"小西里","LIN":"10鄰","STREET":"西門路","SECT":"一段","MAREA":" ","LANE":" ","ALLEY":" ","HOUSE_NO":"７１４號","E_COORD97":167756.35000000001,"N_COORD97":2543384.1400000001,"ADDRESS":"西門路一段７１４號","OBJECTID":552209},"geometry":{"x":167756.35000000149,"y":2543384.1400000025}},{"attributes":{"ID":552237,"DIS_CODE":0,"TOWNNAME":"中西區","LI":"小西里","LIN":"10鄰","STREET":"西門路","SECT":"一段","MAREA":" ","LANE":" ","ALLEY":" ","HOUSE_NO":"７１６號","E_COORD97":167758.26999999999,"N_COORD97":2543388.6099999999,"ADDRESS":"西門路一段７１６號","OBJECTID":552210},"geometry":{"x":167758.26999999862,"y":2543388.6099999975}},{"attributes":{"ID":552238,"DIS_CODE":0,"TOWNNAME":"中西區","LI":"小西里","LIN":"10鄰","STREET":"西門路","SECT":"一段","MAREA":" ","LANE":" ","ALLEY":" ","HOUSE_NO":"７２０號","E_COORD97":167768.37,"N_COORD97":2543377.6200000001,"ADDRESS":"西門路一段７２０號","OBJECTID":552211},"geometry":{"x":167768.36999999918,"y":2543377.6200000029}},{"attributes":{"ID":552239,"DIS_CODE":0,"TOWNNAME":"中西區","LI":"小西里","LIN":"10鄰","STREET":"西門路","SECT":"一段","MAREA":" ","LANE":" ","ALLEY":" ","HOUSE_NO":"７３２號","E_COORD97":167789.45000000001,"N_COORD97":2543389.9100000001,"ADDRESS":"西門路一段７３２號","OBJECTID":552212},"geometry":{"x":167789.45000000019,"y":2543389.9100000001}},{"attributes":{"ID":552240,"DIS_CODE":0,"TOWNNAME":"安南區","LI":"溪心里","LIN":"10鄰","STREET":"安中路","SECT":"三段","MAREA":" ","LANE":" ","ALLEY":" ","HOUSE_NO":"２８號","E_COORD97":166291.53,"N_COORD97":2549770.6400000001,"ADDRESS":"安中路三段２８號","OBJECTID":552213},"geometry":{"x":166291.53000000119,"y":2549770.6400000043}},{"attributes":{"ID":552241,"DIS_CODE":0,"TOWNNAME":"安南區","LI":"溪心里","LIN":"10鄰","STREET":"安中路","SECT":"三段","MAREA":" ","LANE":" ","ALLEY":" ","HOUSE_NO":"３０號","E_COORD97":166286.14999999999,"N_COORD97":2549771.98,"ADDRESS":"安中路三段３０號","OBJECTID":552214},"geometry":{"x":166286.15000000037,"y":2549771.9800000023}},{"attributes":{"ID":552242,"DIS_CODE":0,"TOWNNAME":"安南區","LI":"溪心里","LIN":"10鄰","STREET":"安中路","SECT":"三段","MAREA":" ","LANE":" ","ALLEY":" ","HOUSE_NO":"３６號","E_COORD97":166272.26000000001,"N_COORD97":2549774.6699999999,"ADDRESS":"安中路三段３６號","OBJECTID":552215},"geometry":{"x":166272.26000000071,"y":2549774.6700000018}},{"attributes":{"ID":552243,"DIS_CODE":0,"TOWNNAME":"安南區","LI":"溪心里","LIN":"10鄰","STREET":"安中路","SECT":"三段","MAREA":" ","LANE":" ","ALLEY":" ","HOUSE_NO":"４２號","E_COORD97":166255.67000000001,"N_COORD97":2549777.9500000002,"ADDRESS":"安中路三段４２號","OBJECTID":552216},"geometry":{"x":166255.66999999993,"y":2549777.9500000011}},{"attributes":{"ID":552244,"DIS_CODE":0,"TOWNNAME":"安南區","LI":"溪心里","LIN":"10鄰","STREET":"安中路","SECT":"三段","MAREA":" ","LANE":" ","ALLEY":" ","HOUSE_NO":"４６號","E_COORD97":166246.10999999999,"N_COORD97":2549781.0800000001,"ADDRESS":"安中路三段４６號","OBJECTID":552217},"geometry":{"x":166246.11000000034,"y":2549781.0800000019}},{"attributes":{"ID":552245,"DIS_CODE":0,"TOWNNAME":"中西區","LI":"開山里","LIN":"12鄰","STREET":"大同路","SECT":"一段","MAREA":" ","LANE":" ","ALLEY":" ","HOUSE_NO":"２４號底層","E_COORD97":169134.79999999999,"N_COORD97":2543163.1000000001,"ADDRESS":"大同路一段２４號底層","OBJECTID":552218},"geometry":{"x":169134.79999999981,"y":2543163.1000000015}},{"attributes":{"ID":552246,"DIS_CODE":0,"TOWNNAME":"中西區","LI":"開山里","LIN":"12鄰","STREET":"大同路","SECT":"一段","MAREA":" ","LANE":" ","ALLEY":" ","HOUSE_NO":"２６號","E_COORD97":169132.29000000001,"N_COORD97":2543156.7000000002,"ADDRESS":"大同路一段２６號","OBJECTID":552219},"geometry":{"x":169132.29000000097,"y":2543156.6999999993}},{"attributes":{"ID":552247,"DIS_CODE":0,"TOWNNAME":"中西區","LI":"開山里","LIN":"12鄰","STREET":"大同路","SECT":"一段","MAREA":" ","LANE":" ","ALLEY":" ","HOUSE_NO":"２８號","E_COORD97":169133.89000000001,"N_COORD97":2543152.5899999999,"ADDRESS":"大同路一段２８號","OBJECTID":552220},"geometry":{"x":169133.88999999966,"y":2543152.5900000017}},{"attributes":{"ID":552248,"DIS_CODE":0,"TOWNNAME":"中西區","LI":"開山里","LIN":"12鄰","STREET":"大同路","SECT":"一段","MAREA":" ","LANE":" ","ALLEY":" ","HOUSE_NO":"３０號","E_COORD97":169132.06,"N_COORD97":2543147.5600000001,"ADDRESS":"大同路一段３０號","OBJECTID":552221},"geometry":{"x":169132.06000000052,"y":2543147.5600000024}},{"attributes":{"ID":552249,"DIS_CODE":0,"TOWNNAME":"安南區","LI":"溪心里","LIN":"10鄰","STREET":"安中路","SECT":"三段","MAREA":" ","LANE":" ","ALLEY":" ","HOUSE_NO":"５２號","E_COORD97":166233.85999999999,"N_COORD97":2549784.6600000001,"ADDRESS":"安中路三段５２號","OBJECTID":552222},"geometry":{"x":166233.86000000034,"y":2549784.660000002}},{"attributes":{"ID":552250,"DIS_CODE":0,"TOWNNAME":"安南區","LI":"溪心里","LIN":"10鄰","STREET":"安中路","SECT":"三段","MAREA":" ","LANE":" ","ALLEY":" ","HOUSE_NO":"５８號","E_COORD97":166221.01999999999,"N_COORD97":2549786.6099999999,"ADDRESS":"安中路三段５８號","OBJECTID":552223},"geometry":{"x":166221.02000000048,"y":2549786.6100000031}},{"attributes":{"ID":552251,"DIS_CODE":0,"TOWNNAME":"安南區","LI":"溪心里","LIN":"10鄰","STREET":"安中路","SECT":"三段","MAREA":" ","LANE":" ","ALLEY":" ","HOUSE_NO":"６０號","E_COORD97":166214.89000000001,"N_COORD97":2549788.6899999999,"ADDRESS":"安中路三段６０號","OBJECTID":552224},"geometry":{"x":166214.88999999966,"y":2549788.6899999995}},{"attributes":{"ID":552252,"DIS_CODE":0,"TOWNNAME":"安南區","LI":"溪心里","LIN":"10鄰","STREET":"安中路","SECT":"三段","MAREA":" ","LANE":" ","ALLEY":" ","HOUSE_NO":"８４號","E_COORD97":166153.76999999999,"N_COORD97":2549802.1200000001,"ADDRESS":"安中路三段８４號","OBJECTID":552225},"geometry":{"x":166153.77000000048,"y":2549802.1200000029}},{"attributes":{"ID":552253,"DIS_CODE":0,"TOWNNAME":"安南區","LI":"溪心里","LIN":"10鄰","STREET":"安中路","SECT":"三段","MAREA":" ","LANE":" ","ALLEY":" ","HOUSE_NO":"８６號","E_COORD97":166149.64999999999,"N_COORD97":2549806.0499999998,"ADDRESS":"安中路三段８６號","OBJECTID":552226},"geometry":{"x":166149.65000000224,"y":2549806.0500000026}},{"attributes":{"ID":552254,"DIS_CODE":0,"TOWNNAME":"安南區","LI":"溪心里","LIN":"10鄰","STREET":"安中路","SECT":"三段","MAREA":" ","LANE":" ","ALLEY":" ","HOUSE_NO":"８８號","E_COORD97":166146.23999999999,"N_COORD97":2549809.04,"ADDRESS":"安中路三段８８號","OBJECTID":552227},"geometry":{"x":166146.24000000115,"y":2549809.0399999991}},{"attributes":{"ID":552255,"DIS_CODE":0,"TOWNNAME":"安南區","LI":"溪心里","LIN":"10鄰","STREET":"安中路","SECT":"三段","MAREA":" ","LANE":" ","ALLEY":" ","HOUSE_NO":"９０號","E_COORD97":166141.91,"N_COORD97":2549808.21,"ADDRESS":"安中路三段９０號","OBJECTID":552228},"geometry":{"x":166141.91000000015,"y":2549808.2100000028}},{"attributes":{"ID":552256,"DIS_CODE":0,"TOWNNAME":"安南區","LI":"溪心里","LIN":"10鄰","STREET":"海佃路","SECT":"三段","MAREA":" ","LANE":" ","ALLEY":" ","HOUSE_NO":"１１號","E_COORD97":166323.51000000001,"N_COORD97":2549774.96,"ADDRESS":"海佃路三段１１號","OBJECTID":552229},"geometry":{"x":166323.51000000071,"y":2549774.9600000009}},{"attributes":{"ID":552257,"DIS_CODE":0,"TOWNNAME":"安南區","LI":"溪心里","LIN":"10鄰","STREET":"海佃路","SECT":"三段","MAREA":" ","LANE":" ","ALLEY":" ","HOUSE_NO":"１３號","E_COORD97":166318.73000000001,"N_COORD97":2549776.8999999999,"ADDRESS":"海佃路三段１３號","OBJECTID":552230},"geometry":{"x":166318.73000000231,"y":2549776.9000000022}},{"attributes":{"ID":552258,"DIS_CODE":0,"TOWNNAME":"安南區","LI":"溪心里","LIN":"10鄰","STREET":"海佃路","SECT":"三段","MAREA":" ","LANE":" ","ALLEY":" ","HOUSE_NO":"１５號","E_COORD97":166314.54999999999,"N_COORD97":2549779.1400000001,"ADDRESS":"海佃路三段１５號","OBJECTID":552231},"geometry":{"x":166314.55000000075,"y":2549779.1400000006}},{"attributes":{"ID":552259,"DIS_CODE":0,"TOWNNAME":"安南區","LI":"溪心里","LIN":"10鄰","STREET":"海佃路","SECT":"三段","MAREA":" ","LANE":" ","ALLEY":" ","HOUSE_NO":"２３號","E_COORD97":166295.41,"N_COORD97":2549809.21,"ADDRESS":"海佃路三段２３號","OBJECTID":552232},"geometry":{"x":166295.41000000108,"y":2549809.2100000028}},{"attributes":{"ID":552260,"DIS_CODE":0,"TOWNNAME":"安南區","LI":"溪心里","LIN":"10鄰","STREET":"海佃路","SECT":"三段","MAREA":" ","LANE":" ","ALLEY":" ","HOUSE_NO":"９號","E_COORD97":166327.98999999999,"N_COORD97":2549771.98,"ADDRESS":"海佃路三段９號","OBJECTID":552233},"geometry":{"x":166327.99000000022,"y":2549771.9800000023}},{"attributes":{"ID":552261,"DIS_CODE":0,"TOWNNAME":"安南區","LI":"佃東里","LIN":"10鄰","STREET":"公學路","SECT":"四段","MAREA":" ","LANE":" ","ALLEY":" ","HOUSE_NO":"１６６號","E_COORD97":165591.56,"N_COORD97":2551977.8300000001,"ADDRESS":"公學路四段１６６號","OBJECTID":552234},"geometry":{"x":165591.55999999959,"y":2551977.8300000001}},{"attributes":{"ID":552262,"DIS_CODE":0,"TOWNNAME":"安南區","LI":"佃東里","LIN":"10鄰","STREET":"公學路","SECT":"四段","MAREA":" ","LANE":" ","ALLEY":" ","HOUSE_NO":"１７０號","E_COORD97":165584.26999999999,"N_COORD97":2551971.6200000001,"ADDRESS":"公學路四段１７０號","OBJECTID":552235},"geometry":{"x":165584.27000000048,"y":2551971.6200000048}},{"attributes":{"ID":552263,"DIS_CODE":0,"TOWNNAME":"安南區","LI":"佃東里","LIN":"10鄰","STREET":"公學路","SECT":"四段","MAREA":" ","LANE":" ","ALLEY":" ","HOUSE_NO":"１７２號","E_COORD97":165557.16,"N_COORD97":2551993.7400000002,"ADDRESS":"公學路四段１７２號","OBJECTID":552236},"geometry":{"x":165557.16000000015,"y":2551993.7400000039}},{"attributes":{"ID":552264,"DIS_CODE":0,"TOWNNAME":"安南區","LI":"佃東里","LIN":"10鄰","STREET":"公學路","SECT":"四段","MAREA":" ","LANE":" ","ALLEY":" ","HOUSE_NO":"１７６號","E_COORD97":165562.54000000001,"N_COORD97":2551977.6099999999,"ADDRESS":"公學路四段１７６號","OBJECTID":552237},"geometry":{"x":165562.54000000097,"y":2551977.6100000013}},{"attributes":{"ID":552265,"DIS_CODE":0,"TOWNNAME":"安南區","LI":"佃東里","LIN":"10鄰","STREET":"公學路","SECT":"四段","MAREA":" ","LANE":" ","ALLEY":" ","HOUSE_NO":"１８０號","E_COORD97":165566.72,"N_COORD97":2551951.0600000001,"ADDRESS":"公學路四段１８０號","OBJECTID":552238},"geometry":{"x":165566.71999999974,"y":2551951.0600000042}},{"attributes":{"ID":552266,"DIS_CODE":0,"TOWNNAME":"安南區","LI":"佃東里","LIN":"10鄰","STREET":"公學路","SECT":"四段","MAREA":" ","LANE":" ","ALLEY":" ","HOUSE_NO":"１８６號","E_COORD97":165548.98999999999,"N_COORD97":2551949.0299999998,"ADDRESS":"公學路四段１８６號","OBJECTID":552239},"geometry":{"x":165548.99000000115,"y":2551949.0299999993}},{"attributes":{"ID":552267,"DIS_CODE":0,"TOWNNAME":"安南區","LI":"佃東里","LIN":"10鄰","STREET":"公學路","SECT":"四段","MAREA":" ","LANE":" ","ALLEY":" ","HOUSE_NO":"１９４號","E_COORD97":165540.87,"N_COORD97":2551931.98,"ADDRESS":"公學路四段１９４號","OBJECTID":552240},"geometry":{"x":165540.86999999918,"y":2551931.9800000023}},{"attributes":{"ID":552268,"DIS_CODE":0,"TOWNNAME":"安南區","LI":"長安里","LIN":"10鄰","STREET":"公學路","SECT":"二段","MAREA":" ","LANE":" ","ALLEY":" ","HOUSE_NO":"１４５號","E_COORD97":167685.31,"N_COORD97":2552211.9700000002,"ADDRESS":"公學路二段１４５號","OBJECTID":552241},"geometry":{"x":167685.31000000145,"y":2552211.9700000007}},{"attributes":{"ID":552269,"DIS_CODE":0,"TOWNNAME":"安南區","LI":"溪心里","LIN":"10鄰","STREET":"安中路","SECT":"三段","MAREA":" ","LANE":" ","ALLEY":" ","HOUSE_NO":"５６號","E_COORD97":166225.64999999999,"N_COORD97":2549786.0099999998,"ADDRESS":"安中路三段５６號","OBJECTID":552242},"geometry":{"x":166225.65000000037,"y":2549786.0099999998}},{"attributes":{"ID":552270,"DIS_CODE":0,"TOWNNAME":"安南區","LI":"溪心里","LIN":"10鄰","STREET":"安中路","SECT":"三段","MAREA":" ","LANE":" ","ALLEY":" ","HOUSE_NO":"５０號","E_COORD97":166237,"N_COORD97":2549781.98,"ADDRESS":"安中路三段５０號","OBJECTID":552243},"geometry":{"x":166237.00000000093,"y":2549781.9800000042}},{"attributes":{"ID":552271,"DIS_CODE":0,"TOWNNAME":"中西區","LI":"開山里","LIN":"12鄰","STREET":"大同路","SECT":"一段","MAREA":" ","LANE":" ","ALLEY":" ","HOUSE_NO":"４８號","E_COORD97":169129.88,"N_COORD97":2543112.4199999999,"ADDRESS":"大同路一段４８號","OBJECTID":552244},"geometry":{"x":169129.88000000082,"y":2543112.4199999999}},{"attributes":{"ID":552272,"DIS_CODE":0,"TOWNNAME":"中西區","LI":"開山里","LIN":"12鄰","STREET":"大同路","SECT":"一段","MAREA":" ","LANE":" ","ALLEY":" ","HOUSE_NO":"５０號","E_COORD97":169131.03,"N_COORD97":2543108.54,"ADDRESS":"大同路一段５０號","OBJECTID":552245},"geometry":{"x":169131.03000000119,"y":2543108.540000001}},{"attributes":{"ID":552273,"DIS_CODE":0,"TOWNNAME":"中西區","LI":"開山里","LIN":"12鄰","STREET":"大同路","SECT":"一段","MAREA":" ","LANE":" ","ALLEY":" ","HOUSE_NO":"５２號","E_COORD97":169129.88,"N_COORD97":2543104.0800000001,"ADDRESS":"大同路一段５２號","OBJECTID":552246},"geometry":{"x":169129.88000000082,"y":2543104.0800000001}},{"attributes":{"ID":552274,"DIS_CODE":0,"TOWNNAME":"中西區","LI":"開山里","LIN":"12鄰","STREET":"大同路","SECT":"一段","MAREA":" ","LANE":" ","ALLEY":" ","HOUSE_NO":"５４號","E_COORD97":169123.92999999999,"N_COORD97":2543098.9399999999,"ADDRESS":"大同路一段５４號","OBJECTID":552247},"geometry":{"x":169123.93000000063,"y":2543098.9400000013}},{"attributes":{"ID":552275,"DIS_CODE":0,"TOWNNAME":"東區","LI":"德高里","LIN":"4鄰","STREET":"城東街","SECT":" ","MAREA":" ","LANE":" ","ALLEY":" ","HOUSE_NO":"４１號","E_COORD97":171558.79999999999,"N_COORD97":2540747.1000000001,"ADDRESS":"城東街４１號","OBJECTID":552248},"geometry":{"x":171558.79999999981,"y":2540747.0999999996}},{"attributes":{"ID":552276,"DIS_CODE":0,"TOWNNAME":"東區","LI":"德高里","LIN":"13鄰","STREET":"城東街","SECT":" ","MAREA":" ","LANE":" ","ALLEY":" ","HOUSE_NO":"５號","E_COORD97":171484.14000000001,"N_COORD97":2540665,"ADDRESS":"城東街５號","OBJECTID":552249},"geometry":{"x":171484.1400000006,"y":2540665.0000000019}},{"attributes":{"ID":552277,"DIS_CODE":0,"TOWNNAME":"永康區","LI":"烏竹里","LIN":"10鄰","STREET":"竹園二街","SECT":" ","MAREA":" ","LANE":" ","ALLEY":" ","HOUSE_NO":"１５７號","E_COORD97":174535.79999999999,"N_COORD97":2549260.7400000002,"ADDRESS":"竹園二街１５７號","OBJECTID":552250},"geometry":{"x":174535.80000000168,"y":2549260.7399999984}},{"attributes":{"ID":552278,"DIS_CODE":0,"TOWNNAME":"永康區","LI":"南灣里","LIN":"10鄰","STREET":"南興路","SECT":" ","MAREA":" ","LANE":" ","ALLEY":" ","HOUSE_NO":"１５號之９","E_COORD97":174112.85000000001,"N_COORD97":2544091.04,"ADDRESS":"南興路１５號之９","OBJECTID":552251},"geometry":{"x":174112.84999999963,"y":2544091.0400000028}},{"attributes":{"ID":552279,"DIS_CODE":0,"TOWNNAME":"永康區","LI":"烏竹里","LIN":"10鄰","STREET":"竹園二街","SECT":" ","MAREA":" ","LANE":" ","ALLEY":" ","HOUSE_NO":"１５２號","E_COORD97":174549.51000000001,"N_COORD97":2549245.0699999998,"ADDRESS":"竹園二街１５２號","OBJECTID":552252},"geometry":{"x":174549.50999999885,"y":2549245.0699999984}},{"attributes":{"ID":552280,"DIS_CODE":0,"TOWNNAME":"永康區","LI":"烏竹里","LIN":"10鄰","STREET":"竹園二街","SECT":" ","MAREA":" ","LANE":" ","ALLEY":" ","HOUSE_NO":"１３０號","E_COORD97":174513.70000000001,"N_COORD97":2549225.0699999998,"ADDRESS":"竹園二街１３０號","OBJECTID":552253},"geometry":{"x":174513.70000000112,"y":2549225.070000004}},{"attributes":{"ID":552281,"DIS_CODE":0,"TOWNNAME":"永康區","LI":"埔園里","LIN":"10鄰","STREET":"自強路","SECT":" ","MAREA":" ","LANE":" ","ALLEY":" ","HOUSE_NO":"４１８號","E_COORD97":173646.82000000001,"N_COORD97":2547863.2799999998,"ADDRESS":"自強路４１８號","OBJECTID":552254},"geometry":{"x":173646.82000000123,"y":2547863.2800000012}},{"attributes":{"ID":552282,"DIS_CODE":0,"TOWNNAME":"永康區","LI":"烏竹里","LIN":"10鄰","STREET":"竹園二街","SECT":" ","MAREA":" ","LANE":" ","ALLEY":" ","HOUSE_NO":"１５８號","E_COORD97":174558.06,"N_COORD97":2549249.0600000001,"ADDRESS":"竹園二街１５８號","OBJECTID":552255},"geometry":{"x":174558.06000000052,"y":2549249.0600000042}},{"attributes":{"ID":552283,"DIS_CODE":0,"TOWNNAME":"新市區","LI":"新和里","LIN":"10鄰","STREET":"忠孝街","SECT":" ","MAREA":" ","LANE":" ","ALLEY":" ","HOUSE_NO":"２４號","E_COORD97":177631.23000000001,"N_COORD97":2552479.75,"ADDRESS":"忠孝街２４號","OBJECTID":552256},"geometry":{"x":177631.23000000138,"y":2552479.7500000019}},{"attributes":{"ID":552284,"DIS_CODE":0,"TOWNNAME":"安南區","LI":"城東里","LIN":"10鄰","STREET":"城北路","SECT":" ","MAREA":" ","LANE":" ","ALLEY":" ","HOUSE_NO":"１０３號","E_COORD97":160994.07999999999,"N_COORD97":2551613.04,"ADDRESS":"城北路１０３號","OBJECTID":552257},"geometry":{"x":160994.08000000007,"y":2551613.0399999991}},{"attributes":{"ID":552285,"DIS_CODE":0,"TOWNNAME":"安南區","LI":"城東里","LIN":"10鄰","STREET":"城北路","SECT":" ","MAREA":" ","LANE":" ","ALLEY":" ","HOUSE_NO":"１０５號","E_COORD97":160996.44,"N_COORD97":2551616.29,"ADDRESS":"城北路１０５號","OBJECTID":552258},"geometry":{"x":160996.44000000134,"y":2551616.290000001}},{"attributes":{"ID":552286,"DIS_CODE":0,"TOWNNAME":"安南區","LI":"城東里","LIN":"10鄰","STREET":"城北路","SECT":" ","MAREA":" ","LANE":" ","ALLEY":" ","HOUSE_NO":"１１１號","E_COORD97":160999.39999999999,"N_COORD97":2551625.0600000001,"ADDRESS":"城北路１１１號","OBJECTID":552259},"geometry":{"x":160999.40000000037,"y":2551625.0600000005}},{"attributes":{"ID":552287,"DIS_CODE":0,"TOWNNAME":"安南區","LI":"城東里","LIN":"10鄰","STREET":"城北路","SECT":" ","MAREA":" ","LANE":" ","ALLEY":" ","HOUSE_NO":"１１９號","E_COORD97":160997.53,"N_COORD97":2551645.4399999999,"ADDRESS":"城北路１１９號","OBJECTID":552260},"geometry":{"x":160997.53000000119,"y":2551645.4399999976}},{"attributes":{"ID":552288,"DIS_CODE":0,"TOWNNAME":"安南區","LI":"城東里","LIN":"10鄰","STREET":"城北路","SECT":" ","MAREA":" ","LANE":" ","ALLEY":" ","HOUSE_NO":"１２１號","E_COORD97":160996.44,"N_COORD97":2551649.9300000002,"ADDRESS":"城北路１２１號","OBJECTID":552261},"geometry":{"x":160996.44000000134,"y":2551649.9300000016}},{"attributes":{"ID":552289,"DIS_CODE":0,"TOWNNAME":"安南區","LI":"城東里","LIN":"10鄰","STREET":"城北路","SECT":" ","MAREA":" ","LANE":" ","ALLEY":" ","HOUSE_NO":"１２３號","E_COORD97":160996.14999999999,"N_COORD97":2551656.4300000002,"ADDRESS":"城北路１２３號","OBJECTID":552262},"geometry":{"x":160996.14999999944,"y":2551656.4300000016}},{"attributes":{"ID":552290,"DIS_CODE":0,"TOWNNAME":"安南區","LI":"城東里","LIN":"10鄰","STREET":"城北路","SECT":" ","MAREA":" ","LANE":" ","ALLEY":" ","HOUSE_NO":"１３１號","E_COORD97":161001.56,"N_COORD97":2551680.6099999999,"ADDRESS":"城北路１３１號","OBJECTID":552263},"geometry":{"x":161001.56000000052,"y":2551680.6099999994}},{"attributes":{"ID":552291,"DIS_CODE":0,"TOWNNAME":"安南區","LI":"城東里","LIN":"10鄰","STREET":"城北路","SECT":" ","MAREA":" ","LANE":" ","ALLEY":" ","HOUSE_NO":"１３７號","E_COORD97":160984.62,"N_COORD97":2551698.6499999999,"ADDRESS":"城北路１３７號","OBJECTID":552264},"geometry":{"x":160984.62000000104,"y":2551698.6500000004}},{"attributes":{"ID":552292,"DIS_CODE":0,"TOWNNAME":"安南區","LI":"城東里","LIN":"10鄰","STREET":"城北路","SECT":" ","MAREA":" ","LANE":" ","ALLEY":" ","HOUSE_NO":"１３９號","E_COORD97":160975.76000000001,"N_COORD97":2551710.1699999999,"ADDRESS":"城北路１３９號","OBJECTID":552265},"geometry":{"x":160975.75999999978,"y":2551710.1700000018}},{"attributes":{"ID":552293,"DIS_CODE":0,"TOWNNAME":"安南區","LI":"城東里","LIN":"10鄰","STREET":"城北路","SECT":" ","MAREA":" ","LANE":" ","ALLEY":" ","HOUSE_NO":"１４７號","E_COORD97":160969.06,"N_COORD97":2551723.9399999999,"ADDRESS":"城北路１４７號","OBJECTID":552266},"geometry":{"x":160969.06000000052,"y":2551723.9400000013}},{"attributes":{"ID":552294,"DIS_CODE":0,"TOWNNAME":"安南區","LI":"城東里","LIN":"10鄰","STREET":"城北路","SECT":" ","MAREA":" ","LANE":" ","ALLEY":" ","HOUSE_NO":"９９號","E_COORD97":160998.01999999999,"N_COORD97":2551602.2200000002,"ADDRESS":"城北路９９號","OBJECTID":552267},"geometry":{"x":160998.02000000142,"y":2551602.2200000025}},{"attributes":{"ID":552295,"DIS_CODE":0,"TOWNNAME":"新市區","LI":"新和里","LIN":"10鄰","STREET":"忠孝街","SECT":" ","MAREA":" ","LANE":" ","ALLEY":" ","HOUSE_NO":"１９號","E_COORD97":177620.82000000001,"N_COORD97":2552497,"ADDRESS":"忠孝街１９號","OBJECTID":552268},"geometry":{"x":177620.8200000003,"y":2552497.0000000037}},{"attributes":{"ID":552296,"DIS_CODE":0,"TOWNNAME":"新市區","LI":"新和里","LIN":"10鄰","STREET":"忠孝街","SECT":" ","MAREA":" ","LANE":" ","ALLEY":" ","HOUSE_NO":"３０號","E_COORD97":177645.17000000001,"N_COORD97":2552475.75,"ADDRESS":"忠孝街３０號","OBJECTID":552269},"geometry":{"x":177645.16999999993,"y":2552475.7500000019}},{"attributes":{"ID":552297,"DIS_CODE":0,"TOWNNAME":"東區","LI":"崇德里","LIN":"10鄰","STREET":"崇德路","SECT":" ","MAREA":" ","LANE":" ","ALLEY":" ","HOUSE_NO":"５３３號","E_COORD97":170806.69,"N_COORD97":2541602.6600000001,"ADDRESS":"崇德路５３３號","OBJECTID":552270},"geometry":{"x":170806.69000000134,"y":2541602.6600000039}},{"attributes":{"ID":552298,"DIS_CODE":0,"TOWNNAME":"東區","LI":"文聖里","LIN":"10鄰","STREET":"裕忠路","SECT":" ","MAREA":" ","LANE":" ","ALLEY":" ","HOUSE_NO":"２５８號","E_COORD97":172242.41,"N_COORD97":2542632.4199999999,"ADDRESS":"裕忠路２５８號","OBJECTID":552271},"geometry":{"x":172242.41000000108,"y":2542632.4200000018}},{"attributes":{"ID":552299,"DIS_CODE":0,"TOWNNAME":"東區","LI":"莊敬里","LIN":"10鄰","STREET":"東光路","SECT":"二段","MAREA":" ","LANE":" ","ALLEY":" ","HOUSE_NO":"７６號","E_COORD97":171236.73000000001,"N_COORD97":2544160.5099999998,"ADDRESS":"東光路二段７６號","OBJECTID":552272},"geometry":{"x":171236.73000000138,"y":2544160.5100000016}},{"attributes":{"ID":552300,"DIS_CODE":0,"TOWNNAME":"東區","LI":"虎尾里","LIN":"10鄰","STREET":"東門路","SECT":"三段","MAREA":" ","LANE":" ","ALLEY":" ","HOUSE_NO":"８１號","E_COORD97":171248.89000000001,"N_COORD97":2542219.8900000001,"ADDRESS":"東門路三段８１號","OBJECTID":552273},"geometry":{"x":171248.8900000006,"y":2542219.8900000025}},{"attributes":{"ID":552301,"DIS_CODE":0,"TOWNNAME":"東區","LI":"大學里","LIN":"10鄰","STREET":"長榮路","SECT":"三段","MAREA":" ","LANE":" ","ALLEY":" ","HOUSE_NO":"１３１號","E_COORD97":170211.39999999999,"N_COORD97":2543987.27,"ADDRESS":"長榮路三段１３１號","OBJECTID":552274},"geometry":{"x":170211.40000000224,"y":2543987.2699999996}},{"attributes":{"ID":552302,"DIS_CODE":0,"TOWNNAME":"東區","LI":"崇善里","LIN":"10鄰","STREET":"崇善八街","SECT":" ","MAREA":" ","LANE":" ","ALLEY":" ","HOUSE_NO":"５號","E_COORD97":171086.97,"N_COORD97":2541384.4300000002,"ADDRESS":"崇善八街５號","OBJECTID":552275},"geometry":{"x":171086.97000000067,"y":2541384.4300000016}},{"attributes":{"ID":552303,"DIS_CODE":0,"TOWNNAME":"東區","LI":"崇德里","LIN":"10鄰","STREET":"崇德八街","SECT":" ","MAREA":" ","LANE":" ","ALLEY":" ","HOUSE_NO":"１１號","E_COORD97":170840.95999999999,"N_COORD97":2541623.8900000001,"ADDRESS":"崇德八街１１號","OBJECTID":552276},"geometry":{"x":170840.95999999903,"y":2541623.8900000006}},{"attributes":{"ID":552304,"DIS_CODE":0,"TOWNNAME":"東區","LI":"崇德里","LIN":"10鄰","STREET":"崇德八街","SECT":" ","MAREA":" ","LANE":" ","ALLEY":" ","HOUSE_NO":"４８號","E_COORD97":170926.67999999999,"N_COORD97":2541616.8199999998,"ADDRESS":"崇德八街４８號","OBJECTID":552277},"geometry":{"x":170926.6799999997,"y":2541616.8200000022}},{"attributes":{"ID":552305,"DIS_CODE":0,"TOWNNAME":"東區","LI":"崇德里","LIN":"10鄰","STREET":"崇德八街","SECT":" ","MAREA":" ","LANE":" ","ALLEY":" ","HOUSE_NO":"５０號","E_COORD97":170935.73000000001,"N_COORD97":2541620.7799999998,"ADDRESS":"崇德八街５０號","OBJECTID":552278},"geometry":{"x":170935.73000000045,"y":2541620.7799999993}},{"attributes":{"ID":552306,"DIS_CODE":0,"TOWNNAME":"東區","LI":"崇德里","LIN":"10鄰","STREET":"崇德八街","SECT":" ","MAREA":" ","LANE":" ","ALLEY":" ","HOUSE_NO":"６號","E_COORD97":170833.94,"N_COORD97":2541605.8399999999,"ADDRESS":"崇德八街６號","OBJECTID":552279},"geometry":{"x":170833.94000000134,"y":2541605.8400000017}},{"attributes":{"ID":552307,"DIS_CODE":0,"TOWNNAME":"東區","LI":"崇德里","LIN":"10鄰","STREET":"崇德八街","SECT":" ","MAREA":" ","LANE":" ","ALLEY":" ","HOUSE_NO":"８號","E_COORD97":170842.76999999999,"N_COORD97":2541605.5,"ADDRESS":"崇德八街８號","OBJECTID":552280},"geometry":{"x":170842.77000000048,"y":2541605.5}},{"attributes":{"ID":552308,"DIS_CODE":0,"TOWNNAME":"東區","LI":"崇德里","LIN":"10鄰","STREET":"崇德八街","SECT":" ","MAREA":" ","LANE":" ","ALLEY":" ","HOUSE_NO":"７號","E_COORD97":170830.54000000001,"N_COORD97":2541627.23,"ADDRESS":"崇德八街７號","OBJECTID":552281},"geometry":{"x":170830.5400000019,"y":2541627.2300000023}},{"attributes":{"ID":552309,"DIS_CODE":0,"TOWNNAME":"東區","LI":"崇德里","LIN":"10鄰","STREET":"崇德八街","SECT":" ","MAREA":" ","LANE":" ","ALLEY":" ","HOUSE_NO":"９號","E_COORD97":170834.62,"N_COORD97":2541626.8900000001,"ADDRESS":"崇德八街９號","OBJECTID":552282},"geometry":{"x":170834.62000000011,"y":2541626.8900000025}},{"attributes":{"ID":552310,"DIS_CODE":0,"TOWNNAME":"東區","LI":"崇成里","LIN":"10鄰","STREET":"崇德十四街","SECT":" ","MAREA":" ","LANE":" ","ALLEY":" ","HOUSE_NO":"９０號","E_COORD97":171030.17000000001,"N_COORD97":2541237.8199999998,"ADDRESS":"崇德十四街９０號","OBJECTID":552283},"geometry":{"x":171030.17000000086,"y":2541237.8200000003}},{"attributes":{"ID":552311,"DIS_CODE":0,"TOWNNAME":"東區","LI":"德光里","LIN":"10鄰","STREET":"崇德路","SECT":" ","MAREA":" ","LANE":" ","ALLEY":" ","HOUSE_NO":"２６５號","E_COORD97":170177.51999999999,"N_COORD97":2542103.3999999999,"ADDRESS":"崇德路２６５號","OBJECTID":552284},"geometry":{"x":170177.52000000142,"y":2542103.4000000022}},{"attributes":{"ID":552312,"DIS_CODE":0,"TOWNNAME":"東區","LI":"崇德里","LIN":"10鄰","STREET":"崇德路","SECT":" ","MAREA":" ","LANE":" ","ALLEY":" ","HOUSE_NO":"５２９號","E_COORD97":170809.63,"N_COORD97":2541610,"ADDRESS":"崇德路５２９號","OBJECTID":552285},"geometry":{"x":170809.63000000082,"y":2541610}},{"attributes":{"ID":552313,"DIS_CODE":0,"TOWNNAME":"東區","LI":"德光里","LIN":"10鄰","STREET":"崇學路","SECT":" ","MAREA":" ","LANE":" ","ALLEY":" ","HOUSE_NO":"９１號","E_COORD97":170203.04000000001,"N_COORD97":2542104.4199999999,"ADDRESS":"崇學路９１號","OBJECTID":552286},"geometry":{"x":170203.04000000004,"y":2542104.4199999999}},{"attributes":{"ID":552314,"DIS_CODE":0,"TOWNNAME":"東區","LI":"文聖里","LIN":"10鄰","STREET":"裕文路","SECT":" ","MAREA":" ","LANE":" ","ALLEY":" ","HOUSE_NO":"１７５號","E_COORD97":172166.32000000001,"N_COORD97":2542575.7000000002,"ADDRESS":"裕文路１７５號","OBJECTID":552287},"geometry":{"x":172166.32000000216,"y":2542575.7000000011}},{"attributes":{"ID":552315,"DIS_CODE":0,"TOWNNAME":"東區","LI":"文聖里","LIN":"10鄰","STREET":"裕文路","SECT":" ","MAREA":" ","LANE":" ","ALLEY":" ","HOUSE_NO":"１７７號","E_COORD97":172172.12,"N_COORD97":2542575.7000000002,"ADDRESS":"裕文路１７７號","OBJECTID":552288},"geometry":{"x":172172.12000000011,"y":2542575.7000000011}},{"attributes":{"ID":552316,"DIS_CODE":0,"TOWNNAME":"東區","LI":"文聖里","LIN":"10鄰","STREET":"裕文路","SECT":" ","MAREA":" ","LANE":" ","ALLEY":" ","HOUSE_NO":"１８１號","E_COORD97":172184.42999999999,"N_COORD97":2542576.4199999999,"ADDRESS":"裕文路１８１號","OBJECTID":552289},"geometry":{"x":172184.43000000063,"y":2542576.4199999999}},{"attributes":{"ID":552317,"DIS_CODE":0,"TOWNNAME":"東區","LI":"文聖里","LIN":"10鄰","STREET":"裕文路","SECT":" ","MAREA":" ","LANE":" ","ALLEY":" ","HOUSE_NO":"１８３號","E_COORD97":172193.35999999999,"N_COORD97":2542575.9399999999,"ADDRESS":"裕文路１８３號","OBJECTID":552290},"geometry":{"x":172193.36000000127,"y":2542575.9399999995}},{"attributes":{"ID":552318,"DIS_CODE":0,"TOWNNAME":"東區","LI":"文聖里","LIN":"10鄰","STREET":"裕文路","SECT":" ","MAREA":" ","LANE":" ","ALLEY":" ","HOUSE_NO":"１８５號","E_COORD97":172199.88,"N_COORD97":2542575.46,"ADDRESS":"裕文路１８５號","OBJECTID":552291},"geometry":{"x":172199.88000000082,"y":2542575.4600000028}},{"attributes":{"ID":552319,"DIS_CODE":0,"TOWNNAME":"東區","LI":"文聖里","LIN":"10鄰","STREET":"裕文路","SECT":" ","MAREA":" ","LANE":" ","ALLEY":" ","HOUSE_NO":"１８７號","E_COORD97":172205.92000000001,"N_COORD97":2542575.7000000002,"ADDRESS":"裕文路１８７號","OBJECTID":552292},"geometry":{"x":172205.92000000179,"y":2542575.7000000011}},{"attributes":{"ID":552320,"DIS_CODE":0,"TOWNNAME":"東區","LI":"文聖里","LIN":"10鄰","STREET":"裕文路","SECT":" ","MAREA":" ","LANE":" ","ALLEY":" ","HOUSE_NO":"１８９號","E_COORD97":172213.64000000001,"N_COORD97":2542575.9399999999,"ADDRESS":"裕文路１８９號","OBJECTID":552293},"geometry":{"x":172213.63999999966,"y":2542575.9399999995}},{"attributes":{"ID":552321,"DIS_CODE":0,"TOWNNAME":"東區","LI":"文聖里","LIN":"10鄰","STREET":"裕文路","SECT":" ","MAREA":" ","LANE":" ","ALLEY":" ","HOUSE_NO":"１９１號","E_COORD97":172220.64000000001,"N_COORD97":2542575.46,"ADDRESS":"裕文路１９１號","OBJECTID":552294},"geometry":{"x":172220.63999999966,"y":2542575.4600000028}},{"attributes":{"ID":552322,"DIS_CODE":0,"TOWNNAME":"東區","LI":"文聖里","LIN":"10鄰","STREET":"裕文路","SECT":" ","MAREA":" ","LANE":" ","ALLEY":" ","HOUSE_NO":"１９３號","E_COORD97":172227.89000000001,"N_COORD97":2542575.7000000002,"ADDRESS":"裕文路１９３號","OBJECTID":552295},"geometry":{"x":172227.89000000153,"y":2542575.7000000011}},{"attributes":{"ID":552323,"DIS_CODE":0,"TOWNNAME":"東區","LI":"南聖里","LIN":"10鄰","STREET":"裕平一街","SECT":" ","MAREA":" ","LANE":" ","ALLEY":" ","HOUSE_NO":"１８０號","E_COORD97":172374.07999999999,"N_COORD97":2543235.3199999998,"ADDRESS":"裕平一街１８０號","OBJECTID":552296},"geometry":{"x":172374.08000000007,"y":2543235.3200000003}},{"attributes":{"ID":552324,"DIS_CODE":0,"TOWNNAME":"東區","LI":"南聖里","LIN":"10鄰","STREET":"裕平一街","SECT":" ","MAREA":" ","LANE":" ","ALLEY":" ","HOUSE_NO":"１８２號","E_COORD97":172371.17999999999,"N_COORD97":2543238.2200000002,"ADDRESS":"裕平一街１８２號","OBJECTID":552297},"geometry":{"x":172371.1799999997,"y":2543238.2200000025}},{"attributes":{"ID":552325,"DIS_CODE":0,"TOWNNAME":"東區","LI":"南聖里","LIN":"10鄰","STREET":"裕平一街","SECT":" ","MAREA":" ","LANE":" ","ALLEY":" ","HOUSE_NO":"１８６號","E_COORD97":172370.60999999999,"N_COORD97":2543241.6899999999,"ADDRESS":"裕平一街１８６號","OBJECTID":552298},"geometry":{"x":172370.61000000034,"y":2543241.6899999995}},{"attributes":{"ID":552326,"DIS_CODE":0,"TOWNNAME":"東區","LI":"南聖里","LIN":"10鄰","STREET":"裕平一街","SECT":" ","MAREA":" ","LANE":" ","ALLEY":" ","HOUSE_NO":"１８８號","E_COORD97":172368.87,"N_COORD97":2543247.7799999998,"ADDRESS":"裕平一街１８８號","OBJECTID":552299},"geometry":{"x":172368.87000000011,"y":2543247.7799999993}},{"attributes":{"ID":552327,"DIS_CODE":0,"TOWNNAME":"東區","LI":"南聖里","LIN":"10鄰","STREET":"裕平一街","SECT":" ","MAREA":" ","LANE":" ","ALLEY":" ","HOUSE_NO":"１９０號","E_COORD97":172366.84,"N_COORD97":2543252.9900000002,"ADDRESS":"裕平一街１９０號","OBJECTID":552300},"geometry":{"x":172366.83999999985,"y":2543252.9900000021}},{"attributes":{"ID":552328,"DIS_CODE":0,"TOWNNAME":"東區","LI":"南聖里","LIN":"10鄰","STREET":"裕平一街","SECT":" ","MAREA":" ","LANE":" ","ALLEY":" ","HOUSE_NO":"１９２號","E_COORD97":172364.81,"N_COORD97":2543258.79,"ADDRESS":"裕平一街１９２號","OBJECTID":552301},"geometry":{"x":172364.81000000052,"y":2543258.790000001}},{"attributes":{"ID":552329,"DIS_CODE":0,"TOWNNAME":"東區","LI":"裕聖里","LIN":"10鄰","STREET":"裕孝三街","SECT":" ","MAREA":" ","LANE":" ","ALLEY":" ","HOUSE_NO":"２６號","E_COORD97":172519.06,"N_COORD97":2542017.9300000002,"ADDRESS":"裕孝三街２６號","OBJECTID":552302},"geometry":{"x":172519.06000000052,"y":2542017.9300000016}},{"attributes":{"ID":552330,"DIS_CODE":0,"TOWNNAME":"東區","LI":"裕聖里","LIN":"10鄰","STREET":"裕孝三街","SECT":" ","MAREA":" ","LANE":" ","ALLEY":" ","HOUSE_NO":"２８號","E_COORD97":172519.73999999999,"N_COORD97":2542023.8100000001,"ADDRESS":"裕孝三街２８號","OBJECTID":552303},"geometry":{"x":172519.74000000115,"y":2542023.8100000024}},{"attributes":{"ID":552331,"DIS_CODE":0,"TOWNNAME":"中西區","LI":"三民里","LIN":"1鄰","STREET":"中山路","SECT":" ","MAREA":" ","LANE":" ","ALLEY":" ","HOUSE_NO":"１１號","E_COORD97":168554.41,"N_COORD97":2543728.6699999999,"ADDRESS":"中山路１１號","OBJECTID":552304},"geometry":{"x":168554.41000000015,"y":2543728.6700000018}},{"attributes":{"ID":552332,"DIS_CODE":0,"TOWNNAME":"東區","LI":"裕聖里","LIN":"10鄰","STREET":"裕孝三街","SECT":" ","MAREA":" ","LANE":" ","ALLEY":" ","HOUSE_NO":"３０號","E_COORD97":172520.19,"N_COORD97":2542029.02,"ADDRESS":"裕孝三街３０號","OBJECTID":552305},"geometry":{"x":172520.19000000134,"y":2542029.0199999996}},{"attributes":{"ID":552333,"DIS_CODE":0,"TOWNNAME":"東區","LI":"裕聖里","LIN":"10鄰","STREET":"裕孝三街","SECT":" ","MAREA":" ","LANE":" ","ALLEY":" ","HOUSE_NO":"３２號","E_COORD97":172520.19,"N_COORD97":2542034,"ADDRESS":"裕孝三街３２號","OBJECTID":552306},"geometry":{"x":172520.19000000134,"y":2542034.0000000037}},{"attributes":{"ID":552334,"DIS_CODE":0,"TOWNNAME":"東區","LI":"裕聖里","LIN":"10鄰","STREET":"裕孝三街","SECT":" ","MAREA":" ","LANE":" ","ALLEY":" ","HOUSE_NO":"３６號","E_COORD97":172520.42000000001,"N_COORD97":2542038.98,"ADDRESS":"裕孝三街３６號","OBJECTID":552307},"geometry":{"x":172520.41999999993,"y":2542038.9800000023}},{"attributes":{"ID":552335,"DIS_CODE":0,"TOWNNAME":"東區","LI":"裕聖里","LIN":"10鄰","STREET":"裕孝三街","SECT":" ","MAREA":" ","LANE":" ","ALLEY":" ","HOUSE_NO":"３８號","E_COORD97":172520.64000000001,"N_COORD97":2542045.3100000001,"ADDRESS":"裕孝三街３８號","OBJECTID":552308},"geometry":{"x":172520.63999999966,"y":2542045.3100000005}},{"attributes":{"ID":552336,"DIS_CODE":0,"TOWNNAME":"東區","LI":"裕聖里","LIN":"10鄰","STREET":"裕孝三街","SECT":" ","MAREA":" ","LANE":" ","ALLEY":" ","HOUSE_NO":"４０號","E_COORD97":172520.64000000001,"N_COORD97":2542050.9700000002,"ADDRESS":"裕孝三街４０號","OBJECTID":552309},"geometry":{"x":172520.63999999966,"y":2542050.9700000007}},{"attributes":{"ID":552337,"DIS_CODE":0,"TOWNNAME":"東區","LI":"裕聖里","LIN":"10鄰","STREET":"裕孝三街","SECT":" ","MAREA":" ","LANE":" ","ALLEY":" ","HOUSE_NO":"４２號","E_COORD97":172520.42000000001,"N_COORD97":2542056.8599999999,"ADDRESS":"裕孝三街４２號","OBJECTID":552310},"geometry":{"x":172520.41999999993,"y":2542056.8599999994}},{"attributes":{"ID":552338,"DIS_CODE":0,"TOWNNAME":"東區","LI":"裕聖里","LIN":"10鄰","STREET":"裕孝三街","SECT":" ","MAREA":" ","LANE":" ","ALLEY":" ","HOUSE_NO":"４６號","E_COORD97":172520.64000000001,"N_COORD97":2542063.4199999999,"ADDRESS":"裕孝三街４６號","OBJECTID":552311},"geometry":{"x":172520.63999999966,"y":2542063.4199999999}},{"attributes":{"ID":552339,"DIS_CODE":0,"TOWNNAME":"東區","LI":"裕聖里","LIN":"10鄰","STREET":"裕孝三街","SECT":" ","MAREA":" ","LANE":" ","ALLEY":" ","HOUSE_NO":"４８號","E_COORD97":172526.98000000001,"N_COORD97":2542063.8700000001,"ADDRESS":"裕孝三街４８號","OBJECTID":552312},"geometry":{"x":172526.98000000138,"y":2542063.8700000029}},{"attributes":{"ID":552340,"DIS_CODE":0,"TOWNNAME":"東區","LI":"南聖里","LIN":"10鄰","STREET":"裕孝路","SECT":" ","MAREA":" ","LANE":" ","ALLEY":" ","HOUSE_NO":"２２號","E_COORD97":172410.01999999999,"N_COORD97":2543244.71,"ADDRESS":"裕孝路２２號","OBJECTID":552313},"geometry":{"x":172410.02000000142,"y":2543244.7100000028}},{"attributes":{"ID":552341,"DIS_CODE":0,"TOWNNAME":"東區","LI":"南聖里","LIN":"10鄰","STREET":"裕孝路","SECT":" ","MAREA":" ","LANE":" ","ALLEY":" ","HOUSE_NO":"２６號","E_COORD97":172404.92000000001,"N_COORD97":2543243.8700000001,"ADDRESS":"裕孝路２６號","OBJECTID":552314},"geometry":{"x":172404.92000000086,"y":2543243.8700000029}},{"attributes":{"ID":552342,"DIS_CODE":0,"TOWNNAME":"東區","LI":"南聖里","LIN":"10鄰","STREET":"裕孝路","SECT":" ","MAREA":" ","LANE":" ","ALLEY":" ","HOUSE_NO":"３８之１號","E_COORD97":172413.42000000001,"N_COORD97":2543232.8100000001,"ADDRESS":"裕孝路３８之１號","OBJECTID":552315},"geometry":{"x":172413.42000000086,"y":2543232.8100000042}},{"attributes":{"ID":552343,"DIS_CODE":0,"TOWNNAME":"東區","LI":"南聖里","LIN":"10鄰","STREET":"裕孝路","SECT":" ","MAREA":" ","LANE":" ","ALLEY":" ","HOUSE_NO":"２８號","E_COORD97":172399.39000000001,"N_COORD97":2543242.7999999998,"ADDRESS":"裕孝路２８號","OBJECTID":552316},"geometry":{"x":172399.3900000006,"y":2543242.8000000007}},{"attributes":{"ID":552344,"DIS_CODE":0,"TOWNNAME":"東區","LI":"南聖里","LIN":"10鄰","STREET":"裕孝路","SECT":" ","MAREA":" ","LANE":" ","ALLEY":" ","HOUSE_NO":"３０號","E_COORD97":172393.23000000001,"N_COORD97":2543241.7400000002,"ADDRESS":"裕孝路３０號","OBJECTID":552317},"geometry":{"x":172393.23000000138,"y":2543241.7400000002}},{"attributes":{"ID":552345,"DIS_CODE":0,"TOWNNAME":"東區","LI":"南聖里","LIN":"10鄰","STREET":"裕孝路","SECT":" ","MAREA":" ","LANE":" ","ALLEY":" ","HOUSE_NO":"３２號","E_COORD97":172395.35000000001,"N_COORD97":2543231.1099999999,"ADDRESS":"裕孝路３２號","OBJECTID":552318},"geometry":{"x":172395.34999999963,"y":2543231.1100000013}},{"attributes":{"ID":552346,"DIS_CODE":0,"TOWNNAME":"東區","LI":"南聖里","LIN":"10鄰","STREET":"裕孝路","SECT":" ","MAREA":" ","LANE":" ","ALLEY":" ","HOUSE_NO":"３６號","E_COORD97":172400.67000000001,"N_COORD97":2543231.75,"ADDRESS":"裕孝路３６號","OBJECTID":552319},"geometry":{"x":172400.66999999993,"y":2543231.75}},{"attributes":{"ID":552347,"DIS_CODE":0,"TOWNNAME":"善化區","LI":"光文里","LIN":"10鄰","STREET":"民權路","SECT":" ","MAREA":" ","LANE":" ","ALLEY":" ","HOUSE_NO":"５８號","E_COORD97":178646.505928,"N_COORD97":2559089.80351,"ADDRESS":"民權路５８號","OBJECTID":552320},"geometry":{"x":178646.5059280023,"y":2559089.8035070021}},{"attributes":{"ID":552348,"DIS_CODE":0,"TOWNNAME":"善化區","LI":"北關里","LIN":"10鄰","STREET":"三民路","SECT":" ","MAREA":" ","LANE":" ","ALLEY":" ","HOUSE_NO":"９３號之２","E_COORD97":177114.35999999999,"N_COORD97":2559234.77,"ADDRESS":"三民路９３號之２","OBJECTID":552321},"geometry":{"x":177114.3600000022,"y":2559234.7700000033}},{"attributes":{"ID":552349,"DIS_CODE":0,"TOWNNAME":"善化區","LI":"北關里","LIN":"10鄰","STREET":"三民路","SECT":" ","MAREA":" ","LANE":" ","ALLEY":" ","HOUSE_NO":"９６號","E_COORD97":177171.14999999999,"N_COORD97":2559258.7599999998,"ADDRESS":"三民路９６號","OBJECTID":552322},"geometry":{"x":177171.15000000037,"y":2559258.7600000035}},{"attributes":{"ID":552350,"DIS_CODE":0,"TOWNNAME":"善化區","LI":"北關里","LIN":"10鄰","STREET":"三民路","SECT":" ","MAREA":" ","LANE":" ","ALLEY":" ","HOUSE_NO":"９１號之１","E_COORD97":177125.81,"N_COORD97":2559230.77,"ADDRESS":"三民路９１號之１","OBJECTID":552323},"geometry":{"x":177125.81000000145,"y":2559230.7699999996}},{"attributes":{"ID":552351,"DIS_CODE":0,"TOWNNAME":"善化區","LI":"南關里","LIN":"10鄰","STREET":"復興街","SECT":" ","MAREA":" ","LANE":" ","ALLEY":" ","HOUSE_NO":"３９號","E_COORD97":177068.82000000001,"N_COORD97":2559031.5099999998,"ADDRESS":"復興街３９號","OBJECTID":552324},"geometry":{"x":177068.82000000216,"y":2559031.5099999998}},{"attributes":{"ID":552352,"DIS_CODE":0,"TOWNNAME":"善化區","LI":"坐駕里","LIN":"10鄰","STREET":"自立路","SECT":" ","MAREA":" ","LANE":" ","ALLEY":" ","HOUSE_NO":"１２３號","E_COORD97":177966.76999999999,"N_COORD97":2558613.25,"ADDRESS":"自立路１２３號","OBJECTID":552325},"geometry":{"x":177966.77000000142,"y":2558613.25}},{"attributes":{"ID":552353,"DIS_CODE":0,"TOWNNAME":"善化區","LI":"坐駕里","LIN":"10鄰","STREET":"自立路","SECT":" ","MAREA":" ","LANE":" ","ALLEY":" ","HOUSE_NO":"１１６號","E_COORD97":177960.04000000001,"N_COORD97":2558646.25,"ADDRESS":"自立路１１６號","OBJECTID":552326},"geometry":{"x":177960.04000000004,"y":2558646.2500000019}},{"attributes":{"ID":552354,"DIS_CODE":0,"TOWNNAME":"善化區","LI":"坐駕里","LIN":"10鄰","STREET":"建國路","SECT":" ","MAREA":" ","LANE":" ","ALLEY":" ","HOUSE_NO":"４３號","E_COORD97":178019.88,"N_COORD97":2558589.2799999998,"ADDRESS":"建國路４３號","OBJECTID":552327},"geometry":{"x":178019.87999999989,"y":2558589.2799999993}},{"attributes":{"ID":552355,"DIS_CODE":0,"TOWNNAME":"仁德區","LI":"後壁里","LIN":"10鄰","STREET":"德安路","SECT":" ","MAREA":" ","LANE":" ","ALLEY":" ","HOUSE_NO":"１５３號","E_COORD97":173672.73000000001,"N_COORD97":2538808.5600000001,"ADDRESS":"德安路１５３號","OBJECTID":552328},"geometry":{"x":173672.73000000138,"y":2538808.5600000005}},{"attributes":{"ID":552356,"DIS_CODE":0,"TOWNNAME":"仁德區","LI":"上崙里","LIN":"10鄰","STREET":"德善路","SECT":" ","MAREA":" ","LANE":" ","ALLEY":" ","HOUSE_NO":"４３７號","E_COORD97":174047.89999999999,"N_COORD97":2538236.27,"ADDRESS":"德善路４３７號","OBJECTID":552329},"geometry":{"x":174047.9000000013,"y":2538236.2699999996}},{"attributes":{"ID":552357,"DIS_CODE":0,"TOWNNAME":"仁德區","LI":"二行里","LIN":"10鄰","STREET":"行大街","SECT":" ","MAREA":" ","LANE":" ","ALLEY":" ","HOUSE_NO":"１４０號","E_COORD97":170084.34,"N_COORD97":2535147,"ADDRESS":"行大街１４０號","OBJECTID":552330},"geometry":{"x":170084.34000000078,"y":2535147}},{"attributes":{"ID":552358,"DIS_CODE":0,"TOWNNAME":"仁德區","LI":"二行里","LIN":"10鄰","STREET":"行大街","SECT":" ","MAREA":" ","LANE":" ","ALLEY":" ","HOUSE_NO":"１３０號","E_COORD97":170104.23999999999,"N_COORD97":2535112.7400000002,"ADDRESS":"行大街１３０號","OBJECTID":552331},"geometry":{"x":170104.24000000115,"y":2535112.7399999984}},{"attributes":{"ID":552359,"DIS_CODE":0,"TOWNNAME":"仁德區","LI":"一甲里","LIN":"10鄰","STREET":"忠義路","SECT":" ","MAREA":" ","LANE":" ","ALLEY":" ","HOUSE_NO":"２２０號","E_COORD97":173724.39999999999,"N_COORD97":2541873.77,"ADDRESS":"忠義路２２０號","OBJECTID":552332},"geometry":{"x":173724.4000000013,"y":2541873.7700000014}},{"attributes":{"ID":552360,"DIS_CODE":0,"TOWNNAME":"仁德區","LI":"二行里","LIN":"10鄰","STREET":"行大街","SECT":" ","MAREA":" ","LANE":" ","ALLEY":" ","HOUSE_NO":"１４８號","E_COORD97":170082.89999999999,"N_COORD97":2535124.5,"ADDRESS":"行大街１４８號","OBJECTID":552333},"geometry":{"x":170082.9000000013,"y":2535124.5000000037}},{"attributes":{"ID":552361,"DIS_CODE":0,"TOWNNAME":"仁德區","LI":"一甲里","LIN":"10鄰","STREET":"忠義路","SECT":" ","MAREA":" ","LANE":" ","ALLEY":" ","HOUSE_NO":"２５０號","E_COORD97":173616.12,"N_COORD97":2541885.52,"ADDRESS":"忠義路２５０號","OBJECTID":552334},"geometry":{"x":173616.12000000011,"y":2541885.5200000014}},{"attributes":{"ID":552362,"DIS_CODE":0,"TOWNNAME":"仁德區","LI":"一甲里","LIN":"10鄰","STREET":"忠義路","SECT":" ","MAREA":" ","LANE":" ","ALLEY":" ","HOUSE_NO":"２５６號","E_COORD97":173598.60000000001,"N_COORD97":2541940.0099999998,"ADDRESS":"忠義路２５６號","OBJECTID":552335},"geometry":{"x":173598.60000000056,"y":2541940.0100000016}},{"attributes":{"ID":552363,"DIS_CODE":0,"TOWNNAME":"仁德區","LI":"一甲里","LIN":"10鄰","STREET":"忠義路","SECT":" ","MAREA":" ","LANE":" ","ALLEY":" ","HOUSE_NO":"２３６號","E_COORD97":173652.14999999999,"N_COORD97":2541880.52,"ADDRESS":"忠義路２３６號","OBJECTID":552336},"geometry":{"x":173652.15000000037,"y":2541880.5199999996}},{"attributes":{"ID":552364,"DIS_CODE":0,"TOWNNAME":"仁德區","LI":"一甲里","LIN":"10鄰","STREET":"忠義路","SECT":" ","MAREA":" ","LANE":" ","ALLEY":" ","HOUSE_NO":"２３０號","E_COORD97":173665.17000000001,"N_COORD97":2541879.27,"ADDRESS":"忠義路２３０號","OBJECTID":552337},"geometry":{"x":173665.16999999993,"y":2541879.2700000033}},{"attributes":{"ID":552365,"DIS_CODE":0,"TOWNNAME":"仁德區","LI":"一甲里","LIN":"10鄰","STREET":"忠義路","SECT":" ","MAREA":" ","LANE":" ","ALLEY":" ","HOUSE_NO":"２３４號","E_COORD97":173656.42000000001,"N_COORD97":2541880.27,"ADDRESS":"忠義路２３４號","OBJECTID":552338},"geometry":{"x":173656.41999999993,"y":2541880.2700000014}},{"attributes":{"ID":552366,"DIS_CODE":0,"TOWNNAME":"仁德區","LI":"一甲里","LIN":"10鄰","STREET":"忠義路","SECT":" ","MAREA":" ","LANE":" ","ALLEY":" ","HOUSE_NO":"２５２號","E_COORD97":173608.81,"N_COORD97":2541885.77,"ADDRESS":"忠義路２５２號","OBJECTID":552339},"geometry":{"x":173608.81000000052,"y":2541885.7699999977}},{"attributes":{"ID":552367,"DIS_CODE":0,"TOWNNAME":"仁德區","LI":"大甲里","LIN":"10鄰","STREET":"行大一街","SECT":" ","MAREA":" ","LANE":" ","ALLEY":" ","HOUSE_NO":"３２５號","E_COORD97":169589.54999999999,"N_COORD97":2535039,"ADDRESS":"行大一街３２５號","OBJECTID":552340},"geometry":{"x":169589.55000000075,"y":2535039}},{"attributes":{"ID":552368,"DIS_CODE":0,"TOWNNAME":"仁德區","LI":"一甲里","LIN":"10鄰","STREET":"忠義路","SECT":" ","MAREA":" ","LANE":" ","ALLEY":" ","HOUSE_NO":"２３８號","E_COORD97":173648.09,"N_COORD97":2541880.77,"ADDRESS":"忠義路２３８號","OBJECTID":552341},"geometry":{"x":173648.09000000078,"y":2541880.7700000014}},{"attributes":{"ID":552369,"DIS_CODE":0,"TOWNNAME":"仁德區","LI":"一甲里","LIN":"10鄰","STREET":"忠義路","SECT":" ","MAREA":" ","LANE":" ","ALLEY":" ","HOUSE_NO":"２５４號","E_COORD97":173601.17999999999,"N_COORD97":2541886.77,"ADDRESS":"忠義路２５４號","OBJECTID":552342},"geometry":{"x":173601.18000000063,"y":2541886.7700000014}},{"attributes":{"ID":552370,"DIS_CODE":0,"TOWNNAME":"仁德區","LI":"一甲里","LIN":"10鄰","STREET":"忠義路","SECT":" ","MAREA":" ","LANE":" ","ALLEY":" ","HOUSE_NO":"２２４號","E_COORD97":173709.70999999999,"N_COORD97":2541894.02,"ADDRESS":"忠義路２２４號","OBJECTID":552343},"geometry":{"x":173709.71000000089,"y":2541894.0199999996}},{"attributes":{"ID":552371,"DIS_CODE":0,"TOWNNAME":"仁德區","LI":"上崙里","LIN":"10鄰","STREET":"德善路","SECT":" ","MAREA":" ","LANE":" ","ALLEY":" ","HOUSE_NO":"３５９號","E_COORD97":173996.84,"N_COORD97":2538411.7599999998,"ADDRESS":"德善路３５９號","OBJECTID":552344},"geometry":{"x":173996.84000000078,"y":2538411.7600000016}},{"attributes":{"ID":552372,"DIS_CODE":0,"TOWNNAME":"仁德區","LI":"上崙里","LIN":"10鄰","STREET":"德善路","SECT":" ","MAREA":" ","LANE":" ","ALLEY":" ","HOUSE_NO":"４１９號","E_COORD97":174036.79999999999,"N_COORD97":2538273.7599999998,"ADDRESS":"德善路４１９號","OBJECTID":552345},"geometry":{"x":174036.79999999981,"y":2538273.7600000016}},{"attributes":{"ID":552373,"DIS_CODE":0,"TOWNNAME":"仁德區","LI":"二行里","LIN":"10鄰","STREET":"行大街","SECT":" ","MAREA":" ","LANE":" ","ALLEY":" ","HOUSE_NO":"１４６號","E_COORD97":170071.64000000001,"N_COORD97":2535138.75,"ADDRESS":"行大街１４６號","OBJECTID":552346},"geometry":{"x":170071.64000000153,"y":2535138.75}},{"attributes":{"ID":552374,"DIS_CODE":0,"TOWNNAME":"仁德區","LI":"二行里","LIN":"10鄰","STREET":"行大街","SECT":" ","MAREA":" ","LANE":" ","ALLEY":" ","HOUSE_NO":"１３４號","E_COORD97":170102.10999999999,"N_COORD97":2535148,"ADDRESS":"行大街１３４號","OBJECTID":552347},"geometry":{"x":170102.11000000127,"y":2535147.9999999981}},{"attributes":{"ID":552375,"DIS_CODE":0,"TOWNNAME":"仁德區","LI":"二行里","LIN":"10鄰","STREET":"行大街","SECT":" ","MAREA":" ","LANE":" ","ALLEY":" ","HOUSE_NO":"１５６號","E_COORD97":170068.98999999999,"N_COORD97":2535107.4900000002,"ADDRESS":"行大街１５６號","OBJECTID":552348},"geometry":{"x":170068.99000000115,"y":2535107.4900000002}},{"attributes":{"ID":552376,"DIS_CODE":0,"TOWNNAME":"仁德區","LI":"二行里","LIN":"10鄰","STREET":"行大街","SECT":" ","MAREA":" ","LANE":" ","ALLEY":" ","HOUSE_NO":"１６２號","E_COORD97":170063.89999999999,"N_COORD97":2535107.2400000002,"ADDRESS":"行大街１６２號","OBJECTID":552349},"geometry":{"x":170063.90000000224,"y":2535107.2400000021}},{"attributes":{"ID":552377,"DIS_CODE":0,"TOWNNAME":"中西區","LI":"三民里","LIN":"14鄰","STREET":"公園路","SECT":" ","MAREA":" ","LANE":" ","ALLEY":" ","HOUSE_NO":"５６號","E_COORD97":168572.12,"N_COORD97":2543949.77,"ADDRESS":"公園路５６號","OBJECTID":552350},"geometry":{"x":168572.12000000197,"y":2543949.7699999996}},{"attributes":{"ID":552378,"DIS_CODE":0,"TOWNNAME":"中西區","LI":"三民里","LIN":"14鄰","STREET":"公園路","SECT":" ","MAREA":" ","LANE":" ","ALLEY":" ","HOUSE_NO":"５８號","E_COORD97":168572.53,"N_COORD97":2543955.6800000002,"ADDRESS":"公園路５８號","OBJECTID":552351},"geometry":{"x":168572.53000000026,"y":2543955.6800000016}},{"attributes":{"ID":552379,"DIS_CODE":0,"TOWNNAME":"仁德區","LI":"二行里","LIN":"10鄰","STREET":"行大街","SECT":" ","MAREA":" ","LANE":" ","ALLEY":" ","HOUSE_NO":"１５４號","E_COORD97":170073.88,"N_COORD97":2535107.7400000002,"ADDRESS":"行大街１５４號","OBJECTID":552352},"geometry":{"x":170073.88000000082,"y":2535107.7400000021}},{"attributes":{"ID":552380,"DIS_CODE":0,"TOWNNAME":"新化區","LI":"太平里","LIN":"10鄰","STREET":"中正路","SECT":" ","MAREA":" ","LANE":" ","ALLEY":" ","HOUSE_NO":"７９１號","E_COORD97":178663.70999999999,"N_COORD97":2549365.25,"ADDRESS":"中正路７９１號","OBJECTID":552353},"geometry":{"x":178663.70999999996,"y":2549365.25}},{"attributes":{"ID":552381,"DIS_CODE":0,"TOWNNAME":"新化區","LI":"太平里","LIN":"10鄰","STREET":"中正路","SECT":" ","MAREA":" ","LANE":" ","ALLEY":" ","HOUSE_NO":"８５５號之３","E_COORD97":178559.35999999999,"N_COORD97":2549510.2599999998,"ADDRESS":"中正路８５５號之３","OBJECTID":552354},"geometry":{"x":178559.36000000127,"y":2549510.2599999998}},{"attributes":{"ID":552382,"DIS_CODE":0,"TOWNNAME":"新化區","LI":"護國里","LIN":"10鄰","STREET":"中山路","SECT":" ","MAREA":" ","LANE":" ","ALLEY":" ","HOUSE_NO":"４０號","E_COORD97":179890.28764299999,"N_COORD97":2549453.1217999998,"ADDRESS":"中山路４０號","OBJECTID":552355},"geometry":{"x":179890.28764299955,"y":2549453.1217950005}},{"attributes":{"ID":552383,"DIS_CODE":0,"TOWNNAME":"新化區","LI":"太平里","LIN":"10鄰","STREET":"中正路","SECT":" ","MAREA":" ","LANE":" ","ALLEY":" ","HOUSE_NO":"８５５號之７","E_COORD97":178555.54999999999,"N_COORD97":2549518.2599999998,"ADDRESS":"中正路８５５號之７","OBJECTID":552356},"geometry":{"x":178555.55000000075,"y":2549518.2600000035}},{"attributes":{"ID":552384,"DIS_CODE":0,"TOWNNAME":"新化區","LI":"護國里","LIN":"10鄰","STREET":"中山路","SECT":" ","MAREA":" ","LANE":" ","ALLEY":" ","HOUSE_NO":"１００號之３６","E_COORD97":179458.60999999999,"N_COORD97":2549163.2599999998,"ADDRESS":"中山路１００號之３６","OBJECTID":552357},"geometry":{"x":179458.61000000034,"y":2549163.2600000016}},{"attributes":{"ID":552385,"DIS_CODE":0,"TOWNNAME":"新化區","LI":"協興里","LIN":"10鄰","STREET":"正新路","SECT":" ","MAREA":" ","LANE":" ","ALLEY":" ","HOUSE_NO":"３３３號","E_COORD97":178535.22,"N_COORD97":2548805.25,"ADDRESS":"正新路３３３號","OBJECTID":552358},"geometry":{"x":178535.2200000016,"y":2548805.25}},{"attributes":{"ID":552386,"DIS_CODE":0,"TOWNNAME":"新化區","LI":"太平里","LIN":"10鄰","STREET":"中正路","SECT":" ","MAREA":" ","LANE":" ","ALLEY":" ","HOUSE_NO":"７１７號","E_COORD97":178751.51000000001,"N_COORD97":2549204.25,"ADDRESS":"中正路７１７號","OBJECTID":552359},"geometry":{"x":178751.50999999978,"y":2549204.2500000019}},{"attributes":{"ID":552387,"DIS_CODE":0,"TOWNNAME":"中西區","LI":"三民里","LIN":"14鄰","STREET":"民族路","SECT":"二段","MAREA":" ","LANE":" ","ALLEY":" ","HOUSE_NO":"１８７號","E_COORD97":168648.41,"N_COORD97":2543985.1499999999,"ADDRESS":"民族路二段１８７號","OBJECTID":552360},"geometry":{"x":168648.41000000108,"y":2543985.1500000004}},{"attributes":{"ID":552388,"DIS_CODE":0,"TOWNNAME":"中西區","LI":"三民里","LIN":"14鄰","STREET":"民權路","SECT":"二段","MAREA":" ","LANE":" ","ALLEY":" ","HOUSE_NO":"３０號","E_COORD97":168603.92999999999,"N_COORD97":2543876.3199999998,"ADDRESS":"民權路二段３０號","OBJECTID":552361},"geometry":{"x":168603.93000000063,"y":2543876.3200000003}},{"attributes":{"ID":552389,"DIS_CODE":0,"TOWNNAME":"中西區","LI":"三民里","LIN":"14鄰","STREET":"民權路","SECT":"二段","MAREA":" ","LANE":" ","ALLEY":" ","HOUSE_NO":"３２號","E_COORD97":168582.10999999999,"N_COORD97":2543892.8199999998,"ADDRESS":"民權路二段３２號","OBJECTID":552362},"geometry":{"x":168582.11000000034,"y":2543892.8200000003}},{"attributes":{"ID":552390,"DIS_CODE":0,"TOWNNAME":"中西區","LI":"三民里","LIN":"14鄰","STREET":"民權路","SECT":"二段","MAREA":" ","LANE":" ","ALLEY":" ","HOUSE_NO":"３４號","E_COORD97":168574.97,"N_COORD97":2543870.0099999998,"ADDRESS":"民權路二段３４號","OBJECTID":552363},"geometry":{"x":168574.97000000067,"y":2543870.0099999998}},{"attributes":{"ID":552391,"DIS_CODE":0,"TOWNNAME":"中西區","LI":"三民里","LIN":"14鄰","STREET":"民權路","SECT":"二段","MAREA":" ","LANE":" ","ALLEY":" ","HOUSE_NO":"３６號","E_COORD97":168571.51000000001,"N_COORD97":2543871.0299999998,"ADDRESS":"民權路二段３６號","OBJECTID":552364},"geometry":{"x":168571.51000000071,"y":2543871.0300000031}},{"attributes":{"ID":552392,"DIS_CODE":0,"TOWNNAME":"中西區","LI":"三民里","LIN":"14鄰","STREET":"民權路","SECT":"二段","MAREA":" ","LANE":" ","ALLEY":" ","HOUSE_NO":"３６號之１","E_COORD97":168568.04000000001,"N_COORD97":2543872.8599999999,"ADDRESS":"民權路二段３６號之１","OBJECTID":552365},"geometry":{"x":168568.04000000097,"y":2543872.8600000013}},{"attributes":{"ID":552393,"DIS_CODE":0,"TOWNNAME":"新化區","LI":"武安里","LIN":"10鄰","STREET":"和平街","SECT":" ","MAREA":" ","LANE":" ","ALLEY":" ","HOUSE_NO":"１３１號之３","E_COORD97":178911.47,"N_COORD97":2548136.2599999998,"ADDRESS":"和平街１３１號之３","OBJECTID":552366},"geometry":{"x":178911.46999999881,"y":2548136.2600000016}},{"attributes":{"ID":552394,"DIS_CODE":0,"TOWNNAME":"新化區","LI":"太平里","LIN":"10鄰","STREET":"大德路","SECT":" ","MAREA":" ","LANE":" ","ALLEY":" ","HOUSE_NO":"７號","E_COORD97":178629.03,"N_COORD97":2549393.25,"ADDRESS":"大德路７號","OBJECTID":552367},"geometry":{"x":178629.03000000119,"y":2549393.2500000019}},{"attributes":{"ID":552395,"DIS_CODE":0,"TOWNNAME":"新化區","LI":"武安里","LIN":"10鄰","STREET":"和平街","SECT":" ","MAREA":" ","LANE":" ","ALLEY":" ","HOUSE_NO":"１５７號","E_COORD97":178896.92000000001,"N_COORD97":2548236.25,"ADDRESS":"和平街１５７號","OBJECTID":552368},"geometry":{"x":178896.92000000179,"y":2548236.25}},{"attributes":{"ID":552396,"DIS_CODE":0,"TOWNNAME":"中西區","LI":"三民里","LIN":"14鄰","STREET":"民權路","SECT":"二段","MAREA":" ","LANE":" ","ALLEY":" ","HOUSE_NO":"３８號","E_COORD97":168563.54999999999,"N_COORD97":2543873.6699999999,"ADDRESS":"民權路二段３８號","OBJECTID":552369},"geometry":{"x":168563.54999999888,"y":2543873.6699999981}},{"attributes":{"ID":552397,"DIS_CODE":0,"TOWNNAME":"中西區","LI":"三民里","LIN":"14鄰","STREET":"民族路","SECT":"二段","MAREA":" ","LANE":" ","ALLEY":" ","HOUSE_NO":"１７５號","E_COORD97":168668.20000000001,"N_COORD97":2543975.5800000001,"ADDRESS":"民族路二段１７５號","OBJECTID":552370},"geometry":{"x":168668.20000000205,"y":2543975.5800000001}},{"attributes":{"ID":552398,"DIS_CODE":0,"TOWNNAME":"中西區","LI":"三民里","LIN":"14鄰","STREET":"民族路","SECT":"二段","MAREA":" ","LANE":" ","ALLEY":" ","HOUSE_NO":"１７７號","E_COORD97":168664.73000000001,"N_COORD97":2543978.23,"ADDRESS":"民族路二段１７７號","OBJECTID":552371},"geometry":{"x":168664.72999999952,"y":2543978.2300000004}},{"attributes":{"ID":552399,"DIS_CODE":0,"TOWNNAME":"中西區","LI":"三民里","LIN":"14鄰","STREET":"民族路","SECT":"二段","MAREA":" ","LANE":" ","ALLEY":" ","HOUSE_NO":"１７９號","E_COORD97":168661.67000000001,"N_COORD97":2543979.6499999999,"ADDRESS":"民族路二段１７９號","OBJECTID":552372},"geometry":{"x":168661.67000000086,"y":2543979.6500000041}},{"attributes":{"ID":552400,"DIS_CODE":0,"TOWNNAME":"中西區","LI":"三民里","LIN":"14鄰","STREET":"民族路","SECT":"二段","MAREA":" ","LANE":" ","ALLEY":" ","HOUSE_NO":"１８１號","E_COORD97":168659.84,"N_COORD97":2543982.9100000001,"ADDRESS":"民族路二段１８１號","OBJECTID":552373},"geometry":{"x":168659.83999999985,"y":2543982.9100000001}},{"attributes":{"ID":552401,"DIS_CODE":0,"TOWNNAME":"安南區","LI":"大安里","LIN":"10鄰","STREET":"大安街","SECT":" ","MAREA":" ","LANE":" ","ALLEY":" ","HOUSE_NO":"２３８號","E_COORD97":167447.29000000001,"N_COORD97":2548374.2999999998,"ADDRESS":"大安街２３８號","OBJECTID":552374},"geometry":{"x":167447.29000000097,"y":2548374.3000000026}},{"attributes":{"ID":552402,"DIS_CODE":0,"TOWNNAME":"安南區","LI":"大安里","LIN":"10鄰","STREET":"大安街","SECT":" ","MAREA":" ","LANE":" ","ALLEY":" ","HOUSE_NO":"２４０號","E_COORD97":167449.14999999999,"N_COORD97":2548379.04,"ADDRESS":"大安街２４０號","OBJECTID":552375},"geometry":{"x":167449.15000000037,"y":2548379.0399999991}},{"attributes":{"ID":552403,"DIS_CODE":0,"TOWNNAME":"安南區","LI":"大安里","LIN":"10鄰","STREET":"大安街","SECT":" ","MAREA":" ","LANE":" ","ALLEY":" ","HOUSE_NO":"２４２號","E_COORD97":167451.26000000001,"N_COORD97":2548383.1699999999,"ADDRESS":"大安街２４２號","OBJECTID":552376},"geometry":{"x":167451.25999999978,"y":2548383.1700000037}},{"attributes":{"ID":552404,"DIS_CODE":0,"TOWNNAME":"安南區","LI":"大安里","LIN":"10鄰","STREET":"大安街","SECT":" ","MAREA":" ","LANE":" ","ALLEY":" ","HOUSE_NO":"２４４號","E_COORD97":167454.13,"N_COORD97":2548386.96,"ADDRESS":"大安街２４４號","OBJECTID":552377},"geometry":{"x":167454.12999999989,"y":2548386.9600000028}},{"attributes":{"ID":552405,"DIS_CODE":0,"TOWNNAME":"東區","LI":"大福里","LIN":"26鄰","STREET":"榮譽街","SECT":" ","MAREA":" ","LANE":" ","ALLEY":" ","HOUSE_NO":"５６號","E_COORD97":169665.37,"N_COORD97":2541649.1400000001,"ADDRESS":"榮譽街５６號","OBJECTID":552378},"geometry":{"x":169665.37000000197,"y":2541649.1400000006}},{"attributes":{"ID":552406,"DIS_CODE":0,"TOWNNAME":"安南區","LI":"大安里","LIN":"10鄰","STREET":"大安街","SECT":" ","MAREA":" ","LANE":" ","ALLEY":" ","HOUSE_NO":"２５２號之１","E_COORD97":167475.69,"N_COORD97":2548419.1099999999,"ADDRESS":"大安街２５２號之１","OBJECTID":552379},"geometry":{"x":167475.69000000134,"y":2548419.1099999994}},{"attributes":{"ID":552407,"DIS_CODE":0,"TOWNNAME":"安南區","LI":"大安里","LIN":"10鄰","STREET":"大安街","SECT":" ","MAREA":" ","LANE":" ","ALLEY":" ","HOUSE_NO":"２５６號","E_COORD97":167478.79999999999,"N_COORD97":2548422.8199999998,"ADDRESS":"大安街２５６號","OBJECTID":552380},"geometry":{"x":167478.80000000168,"y":2548422.8200000003}},{"attributes":{"ID":552408,"DIS_CODE":0,"TOWNNAME":"安南區","LI":"大安里","LIN":"10鄰","STREET":"大安街","SECT":" ","MAREA":" ","LANE":" ","ALLEY":" ","HOUSE_NO":"２５８號","E_COORD97":167480.69,"N_COORD97":2548426.6099999999,"ADDRESS":"大安街２５８號","OBJECTID":552381},"geometry":{"x":167480.69000000134,"y":2548426.6099999994}},{"attributes":{"ID":552409,"DIS_CODE":0,"TOWNNAME":"安南區","LI":"大安里","LIN":"10鄰","STREET":"理安街","SECT":" ","MAREA":" ","LANE":" ","ALLEY":" ","HOUSE_NO":"２０７號","E_COORD97":167541.39999999999,"N_COORD97":2548325.3700000001,"ADDRESS":"理安街２０７號","OBJECTID":552382},"geometry":{"x":167541.40000000224,"y":2548325.3700000048}},{"attributes":{"ID":552410,"DIS_CODE":0,"TOWNNAME":"安南區","LI":"大安里","LIN":"10鄰","STREET":"理安街","SECT":" ","MAREA":" ","LANE":" ","ALLEY":" ","HOUSE_NO":"２０９號","E_COORD97":167543.17000000001,"N_COORD97":2548330.2599999998,"ADDRESS":"理安街２０９號","OBJECTID":552383},"geometry":{"x":167543.17000000086,"y":2548330.2599999998}},{"attributes":{"ID":552411,"DIS_CODE":0,"TOWNNAME":"安南區","LI":"大安里","LIN":"10鄰","STREET":"理安街","SECT":" ","MAREA":" ","LANE":" ","ALLEY":" ","HOUSE_NO":"２１１號","E_COORD97":167544.56,"N_COORD97":2548333.5899999999,"ADDRESS":"理安街２１１號","OBJECTID":552384},"geometry":{"x":167544.56000000145,"y":2548333.5900000017}},{"attributes":{"ID":552412,"DIS_CODE":0,"TOWNNAME":"安南區","LI":"大安里","LIN":"10鄰","STREET":"理安街","SECT":" ","MAREA":" ","LANE":" ","ALLEY":" ","HOUSE_NO":"２１７號","E_COORD97":167560.5,"N_COORD97":2548357.6400000001,"ADDRESS":"理安街２１７號","OBJECTID":552385},"geometry":{"x":167560.5,"y":2548357.6400000025}},{"attributes":{"ID":552413,"DIS_CODE":0,"TOWNNAME":"安南區","LI":"大安里","LIN":"10鄰","STREET":"理安街","SECT":" ","MAREA":" ","LANE":" ","ALLEY":" ","HOUSE_NO":"２１９號","E_COORD97":167563.60000000001,"N_COORD97":2548362.5800000001,"ADDRESS":"理安街２１９號","OBJECTID":552386},"geometry":{"x":167563.60000000056,"y":2548362.5800000001}},{"attributes":{"ID":552414,"DIS_CODE":0,"TOWNNAME":"安南區","LI":"大安里","LIN":"10鄰","STREET":"理安街","SECT":" ","MAREA":" ","LANE":" ","ALLEY":" ","HOUSE_NO":"２２１號","E_COORD97":167566.23000000001,"N_COORD97":2548365.75,"ADDRESS":"理安街２２１號","OBJECTID":552387},"geometry":{"x":167566.22999999952,"y":2548365.7500000037}},{"attributes":{"ID":552415,"DIS_CODE":0,"TOWNNAME":"安南區","LI":"大安里","LIN":"10鄰","STREET":"理安街","SECT":" ","MAREA":" ","LANE":" ","ALLEY":" ","HOUSE_NO":"２２７號","E_COORD97":167570.51999999999,"N_COORD97":2548379.2000000002,"ADDRESS":"理安街２２７號","OBJECTID":552388},"geometry":{"x":167570.52000000048,"y":2548379.2000000011}},{"attributes":{"ID":552416,"DIS_CODE":0,"TOWNNAME":"南區","LI":"新昌里","LIN":"10鄰","STREET":"西門路","SECT":"一段","MAREA":" ","LANE":" ","ALLEY":" ","HOUSE_NO":"５５５號","E_COORD97":167710.73999999999,"N_COORD97":2542728.96,"ADDRESS":"西門路一段５５５號","OBJECTID":552389},"geometry":{"x":167710.74000000115,"y":2542728.9600000009}},{"attributes":{"ID":552417,"DIS_CODE":0,"TOWNNAME":"南區","LI":"新昌里","LIN":"10鄰","STREET":"西門路","SECT":"一段","MAREA":" ","LANE":" ","ALLEY":" ","HOUSE_NO":"５５７號","E_COORD97":167712.98999999999,"N_COORD97":2542734.1000000001,"ADDRESS":"西門路一段５５７號","OBJECTID":552390},"geometry":{"x":167712.99000000022,"y":2542734.0999999996}},{"attributes":{"ID":552418,"DIS_CODE":0,"TOWNNAME":"南區","LI":"新昌里","LIN":"10鄰","STREET":"西門路","SECT":"一段","MAREA":" ","LANE":" ","ALLEY":" ","HOUSE_NO":"５６１號","E_COORD97":167712.67000000001,"N_COORD97":2542741.1699999999,"ADDRESS":"西門路一段５６１號","OBJECTID":552391},"geometry":{"x":167712.67000000086,"y":2542741.1699999999}},{"attributes":{"ID":552419,"DIS_CODE":0,"TOWNNAME":"南區","LI":"新昌里","LIN":"10鄰","STREET":"西門路","SECT":"一段","MAREA":" ","LANE":" ","ALLEY":" ","HOUSE_NO":"５６３號","E_COORD97":167712.35000000001,"N_COORD97":2542747.5899999999,"ADDRESS":"西門路一段５６３號","OBJECTID":552392},"geometry":{"x":167712.35000000056,"y":2542747.5899999999}},{"attributes":{"ID":552420,"DIS_CODE":0,"TOWNNAME":"南區","LI":"新昌里","LIN":"10鄰","STREET":"西門路","SECT":"一段","MAREA":" ","LANE":" ","ALLEY":" ","HOUSE_NO":"５６５號","E_COORD97":167712.03,"N_COORD97":2542751.4500000002,"ADDRESS":"西門路一段５６５號","OBJECTID":552393},"geometry":{"x":167712.03000000119,"y":2542751.4499999993}},{"attributes":{"ID":552421,"DIS_CODE":0,"TOWNNAME":"南區","LI":"新昌里","LIN":"10鄰","STREET":"西門路","SECT":"一段","MAREA":" ","LANE":" ","ALLEY":" ","HOUSE_NO":"５６７號","E_COORD97":167711.70999999999,"N_COORD97":2542756.27,"ADDRESS":"西門路一段５６７號","OBJECTID":552394},"geometry":{"x":167711.71000000183,"y":2542756.2699999996}},{"attributes":{"ID":552422,"DIS_CODE":0,"TOWNNAME":"南區","LI":"新昌里","LIN":"10鄰","STREET":"西門路","SECT":"一段","MAREA":" ","LANE":" ","ALLEY":" ","HOUSE_NO":"５６９號","E_COORD97":167712.03,"N_COORD97":2542760.4500000002,"ADDRESS":"西門路一段５６９號","OBJECTID":552395},"geometry":{"x":167712.03000000119,"y":2542760.4500000011}},{"attributes":{"ID":552423,"DIS_CODE":0,"TOWNNAME":"南區","LI":"新昌里","LIN":"10鄰","STREET":"西門路","SECT":"一段","MAREA":" ","LANE":" ","ALLEY":" ","HOUSE_NO":"５７１號","E_COORD97":167709.45000000001,"N_COORD97":2542764.9399999999,"ADDRESS":"西門路一段５７１號","OBJECTID":552396},"geometry":{"x":167709.45000000112,"y":2542764.9399999995}},{"attributes":{"ID":552424,"DIS_CODE":0,"TOWNNAME":"中西區","LI":"三民里","LIN":"13鄰","STREET":"民族路","SECT":"二段","MAREA":" ","LANE":" ","ALLEY":" ","HOUSE_NO":"１５３號底一層","E_COORD97":168706.34,"N_COORD97":2543958.4700000002,"ADDRESS":"民族路二段１５３號底一層","OBJECTID":552397},"geometry":{"x":168706.34000000078,"y":2543958.4700000025}},{"attributes":{"ID":552425,"DIS_CODE":0,"TOWNNAME":"中西區","LI":"三民里","LIN":"13鄰","STREET":"民族路","SECT":"二段","MAREA":" ","LANE":" ","ALLEY":" ","HOUSE_NO":"１５３號底二層","E_COORD97":168706.34,"N_COORD97":2543958.4700000002,"ADDRESS":"民族路二段１５３號底二層","OBJECTID":552398},"geometry":{"x":168706.34000000078,"y":2543958.4700000025}},{"attributes":{"ID":552426,"DIS_CODE":0,"TOWNNAME":"中西區","LI":"三民里","LIN":"13鄰","STREET":"民族路","SECT":"二段","MAREA":" ","LANE":" ","ALLEY":" ","HOUSE_NO":"１６１號","E_COORD97":168697.98000000001,"N_COORD97":2543966.21,"ADDRESS":"民族路二段１６１號","OBJECTID":552399},"geometry":{"x":168697.98000000045,"y":2543966.2100000046}},{"attributes":{"ID":552427,"DIS_CODE":0,"TOWNNAME":"中西區","LI":"三民里","LIN":"13鄰","STREET":"民族路","SECT":"二段","MAREA":" ","LANE":" ","ALLEY":" ","HOUSE_NO":"１６３號","E_COORD97":168691.66,"N_COORD97":2543967.23,"ADDRESS":"民族路二段１６３號","OBJECTID":552400},"geometry":{"x":168691.66000000015,"y":2543967.2300000004}}]}