{"displayFieldName":"TOWNNAME","fieldAliases":{"ID":"ID","DIS_CODE":"DIS_CODE","TOWNNAME":"TOWNNAME","LI":"LI","LIN":"LIN","STREET":"STREET","SECT":"SECT","MAREA":"MAREA","LANE":"LANE","ALLEY":"ALLEY","HOUSE_NO":"HOUSE_NO","E_COORD97":"E_COORD97","N_COORD97":"N_COORD97","ADDRESS":"ADDRESS","OBJECTID":"OBJECTID"},"geometryType":"esriGeometryPoint","spatialReference":{"wkid":102443,"latestWkid":3826},"fields":[{"name":"ID","type":"esriFieldTypeDouble","alias":"ID"},{"name":"DIS_CODE","type":"esriFieldTypeInteger","alias":"DIS_CODE"},{"name":"TOWNNAME","type":"esriFieldTypeString","alias":"TOWNNAME","length":8},{"name":"LI","type":"esriFieldTypeString","alias":"LI","length":8},{"name":"LIN","type":"esriFieldTypeString","alias":"LIN","length":12},{"name":"STREET","type":"esriFieldTypeString","alias":"STREET","length":20},{"name":"SECT","type":"esriFieldTypeString","alias":"SECT","length":8},{"name":"MAREA","type":"esriFieldTypeString","alias":"MAREA","length":12},{"name":"LANE","type":"esriFieldTypeString","alias":"LANE","length":10},{"name":"ALLEY","type":"esriFieldTypeString","alias":"ALLEY","length":10},{"name":"HOUSE_NO","type":"esriFieldTypeString","alias":"HOUSE_NO","length":20},{"name":"E_COORD97","type":"esriFieldTypeDouble","alias":"E_COORD97"},{"name":"N_COORD97","type":"esriFieldTypeDouble","alias":"N_COORD97"},{"name":"ADDRESS","type":"esriFieldTypeString","alias":"ADDRESS","length":50},{"name":"OBJECTID","type":"esriFieldTypeOID","alias":"OBJECTID"}],"features":[{"attributes":{"ID":552628,"DIS_CODE":0,"TOWNNAME":"仁德區","LI":"土庫里","LIN":"10鄰","STREET":"土庫路","SECT":" ","MAREA":" ","LANE":" ","ALLEY":" ","HOUSE_NO":"８５號","E_COORD97":174260.00271599999,"N_COORD97":2543214.1859900001,"ADDRESS":"土庫路８５號","OBJECTID":552601},"geometry":{"x":174260.00271600112,"y":2543214.1859879978}},{"attributes":{"ID":552629,"DIS_CODE":0,"TOWNNAME":"仁德區","LI":"土庫里","LIN":"10鄰","STREET":"土庫路","SECT":" ","MAREA":" ","LANE":" ","ALLEY":" ","HOUSE_NO":"５７號","E_COORD97":174232.76000000001,"N_COORD97":2543311.25,"ADDRESS":"土庫路５７號","OBJECTID":552602},"geometry":{"x":174232.76000000071,"y":2543311.2500000019}},{"attributes":{"ID":552630,"DIS_CODE":0,"TOWNNAME":"仁德區","LI":"上崙里","LIN":"10鄰","STREET":"德善路","SECT":" ","MAREA":" ","LANE":" ","ALLEY":" ","HOUSE_NO":"３９９號","E_COORD97":174024.26000000001,"N_COORD97":2538316.5099999998,"ADDRESS":"德善路３９９號","OBJECTID":552603},"geometry":{"x":174024.26000000071,"y":2538316.5099999998}},{"attributes":{"ID":552631,"DIS_CODE":0,"TOWNNAME":"東區","LI":"自強里","LIN":"27鄰","STREET":"中華東路","SECT":"二段","MAREA":" ","LANE":" ","ALLEY":" ","HOUSE_NO":"１５１號","E_COORD97":171389.89999999999,"N_COORD97":2542853.7599999998,"ADDRESS":"中華東路二段１５１號","OBJECTID":552604},"geometry":{"x":171389.9000000013,"y":2542853.7600000016}},{"attributes":{"ID":552632,"DIS_CODE":0,"TOWNNAME":"仁德區","LI":"上崙里","LIN":"10鄰","STREET":"德善路","SECT":" ","MAREA":" ","LANE":" ","ALLEY":" ","HOUSE_NO":"４２３號","E_COORD97":174039.14999999999,"N_COORD97":2538265.52,"ADDRESS":"德善路４２３號","OBJECTID":552605},"geometry":{"x":174039.15000000224,"y":2538265.5199999996}},{"attributes":{"ID":552633,"DIS_CODE":0,"TOWNNAME":"仁德區","LI":"上崙里","LIN":"10鄰","STREET":"德善路","SECT":" ","MAREA":" ","LANE":" ","ALLEY":" ","HOUSE_NO":"３８９號","E_COORD97":174016.34,"N_COORD97":2538342.52,"ADDRESS":"德善路３８９號","OBJECTID":552606},"geometry":{"x":174016.33999999985,"y":2538342.5200000014}},{"attributes":{"ID":552634,"DIS_CODE":0,"TOWNNAME":"仁德區","LI":"仁義里","LIN":"10鄰","STREET":"仁義一街","SECT":" ","MAREA":" ","LANE":" ","ALLEY":" ","HOUSE_NO":"９４號","E_COORD97":173513.04999999999,"N_COORD97":2541187.0099999998,"ADDRESS":"仁義一街９４號","OBJECTID":552607},"geometry":{"x":173513.04999999981,"y":2541187.0100000016}},{"attributes":{"ID":552635,"DIS_CODE":0,"TOWNNAME":"仁德區","LI":"仁義里","LIN":"10鄰","STREET":"仁義一街","SECT":" ","MAREA":" ","LANE":" ","ALLEY":" ","HOUSE_NO":"５０號","E_COORD97":173420.53,"N_COORD97":2541195.2599999998,"ADDRESS":"仁義一街５０號","OBJECTID":552608},"geometry":{"x":173420.53000000026,"y":2541195.2600000016}},{"attributes":{"ID":552636,"DIS_CODE":0,"TOWNNAME":"仁德區","LI":"仁義里","LIN":"10鄰","STREET":"仁義一街","SECT":" ","MAREA":" ","LANE":" ","ALLEY":" ","HOUSE_NO":"８０號","E_COORD97":173490.92000000001,"N_COORD97":2541187.5099999998,"ADDRESS":"仁義一街８０號","OBJECTID":552609},"geometry":{"x":173490.92000000179,"y":2541187.5100000016}},{"attributes":{"ID":552637,"DIS_CODE":0,"TOWNNAME":"仁德區","LI":"上崙里","LIN":"10鄰","STREET":"德善路","SECT":" ","MAREA":" ","LANE":" ","ALLEY":" ","HOUSE_NO":"３９３號","E_COORD97":174018.51999999999,"N_COORD97":2538333.77,"ADDRESS":"德善路３９３號","OBJECTID":552610},"geometry":{"x":174018.51999999955,"y":2538333.7700000014}},{"attributes":{"ID":552638,"DIS_CODE":0,"TOWNNAME":"仁德區","LI":"二行里","LIN":"10鄰","STREET":"行大街","SECT":" ","MAREA":" ","LANE":" ","ALLEY":" ","HOUSE_NO":"９６號","E_COORD97":170112.82999999999,"N_COORD97":2535176.2400000002,"ADDRESS":"行大街９６號","OBJECTID":552611},"geometry":{"x":170112.83000000007,"y":2535176.2400000002}},{"attributes":{"ID":552639,"DIS_CODE":0,"TOWNNAME":"東區","LI":"崇成里","LIN":"25鄰","STREET":"崇明二十四街","SECT":" ","MAREA":" ","LANE":" ","ALLEY":" ","HOUSE_NO":"５７號","E_COORD97":170755.62,"N_COORD97":2540827.3199999998,"ADDRESS":"崇明二十四街５７號","OBJECTID":552612},"geometry":{"x":170755.62000000104,"y":2540827.3200000003}},{"attributes":{"ID":552640,"DIS_CODE":0,"TOWNNAME":"東區","LI":"崇成里","LIN":"19鄰","STREET":"崇明路","SECT":" ","MAREA":" ","LANE":" ","ALLEY":" ","HOUSE_NO":"５７５號","E_COORD97":170622.01999999999,"N_COORD97":2541228.2000000002,"ADDRESS":"崇明路５７５號","OBJECTID":552613},"geometry":{"x":170622.02000000048,"y":2541228.1999999974}},{"attributes":{"ID":552641,"DIS_CODE":0,"TOWNNAME":"仁德區","LI":"土庫里","LIN":"10鄰","STREET":"土庫路","SECT":" ","MAREA":" ","LANE":" ","ALLEY":" ","HOUSE_NO":"８３號","E_COORD97":174258.51935799999,"N_COORD97":2543218.7368200002,"ADDRESS":"土庫路８３號","OBJECTID":552614},"geometry":{"x":174258.51935800072,"y":2543218.7368189991}},{"attributes":{"ID":552642,"DIS_CODE":0,"TOWNNAME":"仁德區","LI":"上崙里","LIN":"10鄰","STREET":"德善路","SECT":" ","MAREA":" ","LANE":" ","ALLEY":" ","HOUSE_NO":"４１１號","E_COORD97":174031.94,"N_COORD97":2538290.2599999998,"ADDRESS":"德善路４１１號","OBJECTID":552615},"geometry":{"x":174031.93999999948,"y":2538290.2600000016}},{"attributes":{"ID":552643,"DIS_CODE":0,"TOWNNAME":"仁德區","LI":"上崙里","LIN":"10鄰","STREET":"德善路","SECT":" ","MAREA":" ","LANE":" ","ALLEY":" ","HOUSE_NO":"３６５號","E_COORD97":174000.25,"N_COORD97":2538399.7599999998,"ADDRESS":"德善路３６５號","OBJECTID":552616},"geometry":{"x":174000.25,"y":2538399.7599999998}},{"attributes":{"ID":552644,"DIS_CODE":0,"TOWNNAME":"仁德區","LI":"上崙里","LIN":"10鄰","STREET":"德善路","SECT":" ","MAREA":" ","LANE":" ","ALLEY":" ","HOUSE_NO":"３６７號","E_COORD97":174001.45000000001,"N_COORD97":2538395.5099999998,"ADDRESS":"德善路３６７號","OBJECTID":552617},"geometry":{"x":174001.45000000112,"y":2538395.5099999998}},{"attributes":{"ID":552645,"DIS_CODE":0,"TOWNNAME":"麻豆區","LI":"保安里","LIN":"10鄰","STREET":"興國路","SECT":" ","MAREA":" ","LANE":" ","ALLEY":" ","HOUSE_NO":"５號","E_COORD97":173068.92999999999,"N_COORD97":2564795.1800000002,"ADDRESS":"興國路５號","OBJECTID":552618},"geometry":{"x":173068.93000000063,"y":2564795.1799999997}},{"attributes":{"ID":552646,"DIS_CODE":0,"TOWNNAME":"仁德區","LI":"上崙里","LIN":"10鄰","STREET":"德善路","SECT":" ","MAREA":" ","LANE":" ","ALLEY":" ","HOUSE_NO":"３６１號","E_COORD97":173998.07999999999,"N_COORD97":2538407.7599999998,"ADDRESS":"德善路３６１號","OBJECTID":552619},"geometry":{"x":173998.08000000007,"y":2538407.7600000035}},{"attributes":{"ID":552647,"DIS_CODE":0,"TOWNNAME":"仁德區","LI":"上崙里","LIN":"10鄰","STREET":"德善路","SECT":" ","MAREA":" ","LANE":" ","ALLEY":" ","HOUSE_NO":"４２９號","E_COORD97":174042.76000000001,"N_COORD97":2538252.77,"ADDRESS":"德善路４２９號","OBJECTID":552620},"geometry":{"x":174042.76000000164,"y":2538252.7700000014}},{"attributes":{"ID":552648,"DIS_CODE":0,"TOWNNAME":"仁德區","LI":"上崙里","LIN":"10鄰","STREET":"德善路","SECT":" ","MAREA":" ","LANE":" ","ALLEY":" ","HOUSE_NO":"４４９號","E_COORD97":174055.95999999999,"N_COORD97":2538211.5099999998,"ADDRESS":"德善路４４９號","OBJECTID":552621},"geometry":{"x":174055.96000000089,"y":2538211.5099999998}},{"attributes":{"ID":552649,"DIS_CODE":0,"TOWNNAME":"永康區","LI":"甲頂里","LIN":"15鄰","STREET":"正新街","SECT":" ","MAREA":" ","LANE":" ","ALLEY":" ","HOUSE_NO":"６５號","E_COORD97":170274.39999999999,"N_COORD97":2546729.5,"ADDRESS":"正新街６５號","OBJECTID":552622},"geometry":{"x":170274.4000000013,"y":2546729.4999999981}},{"attributes":{"ID":552650,"DIS_CODE":0,"TOWNNAME":"仁德區","LI":"上崙里","LIN":"10鄰","STREET":"德善路","SECT":" ","MAREA":" ","LANE":" ","ALLEY":" ","HOUSE_NO":"３９５號","E_COORD97":174022.04999999999,"N_COORD97":2538325.0099999998,"ADDRESS":"德善路３９５號","OBJECTID":552623},"geometry":{"x":174022.04999999888,"y":2538325.0100000016}},{"attributes":{"ID":552651,"DIS_CODE":0,"TOWNNAME":"仁德區","LI":"上崙里","LIN":"10鄰","STREET":"德善路","SECT":" ","MAREA":" ","LANE":" ","ALLEY":" ","HOUSE_NO":"３７５號","E_COORD97":174006.38,"N_COORD97":2538379.7599999998,"ADDRESS":"德善路３７５號","OBJECTID":552624},"geometry":{"x":174006.37999999896,"y":2538379.7599999998}},{"attributes":{"ID":552652,"DIS_CODE":0,"TOWNNAME":"南區","LI":"文華里","LIN":"22鄰","STREET":"德南街","SECT":" ","MAREA":" ","LANE":" ","ALLEY":" ","HOUSE_NO":"８２號","E_COORD97":166709.16,"N_COORD97":2543003.46,"ADDRESS":"德南街８２號","OBJECTID":552625},"geometry":{"x":166709.16000000108,"y":2543003.4600000009}},{"attributes":{"ID":552653,"DIS_CODE":0,"TOWNNAME":"中西區","LI":"三民里","LIN":"10鄰","STREET":"中山路","SECT":" ","MAREA":" ","LANE":" ","ALLEY":" ","HOUSE_NO":"１０９號","E_COORD97":168788.97,"N_COORD97":2543895.0699999998,"ADDRESS":"中山路１０９號","OBJECTID":552626},"geometry":{"x":168788.96999999974,"y":2543895.0699999984}},{"attributes":{"ID":552654,"DIS_CODE":0,"TOWNNAME":"中西區","LI":"三民里","LIN":"10鄰","STREET":"中山路","SECT":" ","MAREA":" ","LANE":" ","ALLEY":" ","HOUSE_NO":"１１１號","E_COORD97":168798.14999999999,"N_COORD97":2543901.04,"ADDRESS":"中山路１１１號","OBJECTID":552627},"geometry":{"x":168798.1500000013,"y":2543901.0400000028}},{"attributes":{"ID":552655,"DIS_CODE":0,"TOWNNAME":"中西區","LI":"三民里","LIN":"10鄰","STREET":"中山路","SECT":" ","MAREA":" ","LANE":" ","ALLEY":" ","HOUSE_NO":"１１３號","E_COORD97":168811.81,"N_COORD97":2543908.98,"ADDRESS":"中山路１１３號","OBJECTID":552628},"geometry":{"x":168811.80999999959,"y":2543908.9800000004}},{"attributes":{"ID":552656,"DIS_CODE":0,"TOWNNAME":"中西區","LI":"三民里","LIN":"10鄰","STREET":"中山路","SECT":" ","MAREA":" ","LANE":" ","ALLEY":" ","HOUSE_NO":"１１５號","E_COORD97":168815.48000000001,"N_COORD97":2543912.2400000002,"ADDRESS":"中山路１１５號","OBJECTID":552629},"geometry":{"x":168815.48000000045,"y":2543912.2400000021}},{"attributes":{"ID":552657,"DIS_CODE":0,"TOWNNAME":"中西區","LI":"三民里","LIN":"10鄰","STREET":"中山路","SECT":" ","MAREA":" ","LANE":" ","ALLEY":" ","HOUSE_NO":"１１７號","E_COORD97":168823.64000000001,"N_COORD97":2543919.3700000001,"ADDRESS":"中山路１１７號","OBJECTID":552630},"geometry":{"x":168823.63999999966,"y":2543919.3700000029}},{"attributes":{"ID":552658,"DIS_CODE":0,"TOWNNAME":"中西區","LI":"三民里","LIN":"10鄰","STREET":"中山路","SECT":" ","MAREA":" ","LANE":" ","ALLEY":" ","HOUSE_NO":"９５號","E_COORD97":168764.29000000001,"N_COORD97":2543900.1499999999,"ADDRESS":"中山路９５號","OBJECTID":552631},"geometry":{"x":168764.29000000097,"y":2543900.1500000004}},{"attributes":{"ID":552659,"DIS_CODE":0,"TOWNNAME":"東區","LI":"關聖里","LIN":"20鄰","STREET":"裕平路","SECT":" ","MAREA":" ","LANE":" ","ALLEY":" ","HOUSE_NO":"２０１號","E_COORD97":172451.73999999999,"N_COORD97":2542840.8900000001,"ADDRESS":"裕平路２０１號","OBJECTID":552632},"geometry":{"x":172451.74000000115,"y":2542840.8900000006}},{"attributes":{"ID":552660,"DIS_CODE":0,"TOWNNAME":"中西區","LI":"三民里","LIN":"10鄰","STREET":"中山路","SECT":" ","MAREA":" ","LANE":" ","ALLEY":" ","HOUSE_NO":"９５號之１","E_COORD97":168753.07000000001,"N_COORD97":2543891.7999999998,"ADDRESS":"中山路９５號之１","OBJECTID":552633},"geometry":{"x":168753.0700000003,"y":2543891.8000000026}},{"attributes":{"ID":552661,"DIS_CODE":0,"TOWNNAME":"中西區","LI":"三民里","LIN":"10鄰","STREET":"中山路","SECT":" ","MAREA":" ","LANE":" ","ALLEY":" ","HOUSE_NO":"９５號之２","E_COORD97":168750.22,"N_COORD97":2543894.8500000001,"ADDRESS":"中山路９５號之２","OBJECTID":552634},"geometry":{"x":168750.21999999974,"y":2543894.8499999996}},{"attributes":{"ID":552662,"DIS_CODE":0,"TOWNNAME":"中西區","LI":"三民里","LIN":"10鄰","STREET":"中山路","SECT":" ","MAREA":" ","LANE":" ","ALLEY":" ","HOUSE_NO":"９５號之３","E_COORD97":168747.76999999999,"N_COORD97":2543898.1099999999,"ADDRESS":"中山路９５號之３","OBJECTID":552635},"geometry":{"x":168747.76999999955,"y":2543898.1100000013}},{"attributes":{"ID":552663,"DIS_CODE":0,"TOWNNAME":"中西區","LI":"三民里","LIN":"10鄰","STREET":"中山路","SECT":" ","MAREA":" ","LANE":" ","ALLEY":" ","HOUSE_NO":"９７號","E_COORD97":168763.07000000001,"N_COORD97":2543877.1400000001,"ADDRESS":"中山路９７號","OBJECTID":552636},"geometry":{"x":168763.07000000123,"y":2543877.1400000006}},{"attributes":{"ID":552664,"DIS_CODE":0,"TOWNNAME":"中西區","LI":"三民里","LIN":"10鄰","STREET":"中山路","SECT":" ","MAREA":" ","LANE":" ","ALLEY":" ","HOUSE_NO":"９９號","E_COORD97":168767.76000000001,"N_COORD97":2543880.2000000002,"ADDRESS":"中山路９９號","OBJECTID":552637},"geometry":{"x":168767.76000000071,"y":2543880.2000000011}},{"attributes":{"ID":552665,"DIS_CODE":0,"TOWNNAME":"東區","LI":"關聖里","LIN":"10鄰","STREET":"裕農一街","SECT":" ","MAREA":" ","LANE":" ","ALLEY":" ","HOUSE_NO":"３６號","E_COORD97":171908.60999999999,"N_COORD97":2543080.6400000001,"ADDRESS":"裕農一街３６號","OBJECTID":552638},"geometry":{"x":171908.61000000127,"y":2543080.6400000006}},{"attributes":{"ID":552666,"DIS_CODE":0,"TOWNNAME":"中西區","LI":"三民里","LIN":"10鄰","STREET":"中山路","SECT":" ","MAREA":" ","LANE":" ","ALLEY":" ","HOUSE_NO":"８１號","E_COORD97":168728.09,"N_COORD97":2543849.02,"ADDRESS":"中山路８１號","OBJECTID":552639},"geometry":{"x":168728.09000000078,"y":2543849.0200000014}},{"attributes":{"ID":552667,"DIS_CODE":0,"TOWNNAME":"中西區","LI":"三民里","LIN":"10鄰","STREET":"中山路","SECT":" ","MAREA":" ","LANE":" ","ALLEY":" ","HOUSE_NO":"８３號","E_COORD97":168730.73999999999,"N_COORD97":2543851.8700000001,"ADDRESS":"中山路８３號","OBJECTID":552640},"geometry":{"x":168730.74000000209,"y":2543851.870000001}},{"attributes":{"ID":552668,"DIS_CODE":0,"TOWNNAME":"中西區","LI":"三民里","LIN":"10鄰","STREET":"中山路","SECT":" ","MAREA":" ","LANE":" ","ALLEY":" ","HOUSE_NO":"８５號","E_COORD97":168734.20999999999,"N_COORD97":2543854.3100000001,"ADDRESS":"中山路８５號","OBJECTID":552641},"geometry":{"x":168734.21000000089,"y":2543854.3100000024}},{"attributes":{"ID":552669,"DIS_CODE":0,"TOWNNAME":"中西區","LI":"三民里","LIN":"10鄰","STREET":"中山路","SECT":" ","MAREA":" ","LANE":" ","ALLEY":" ","HOUSE_NO":"８７號","E_COORD97":168737.67999999999,"N_COORD97":2543856.7599999998,"ADDRESS":"中山路８７號","OBJECTID":552642},"geometry":{"x":168737.68000000063,"y":2543856.7600000016}},{"attributes":{"ID":552670,"DIS_CODE":0,"TOWNNAME":"中西區","LI":"三民里","LIN":"10鄰","STREET":"中山路","SECT":" ","MAREA":" ","LANE":" ","ALLEY":" ","HOUSE_NO":"８９號","E_COORD97":168743.39000000001,"N_COORD97":2543861.0299999998,"ADDRESS":"中山路８９號","OBJECTID":552643},"geometry":{"x":168743.3900000006,"y":2543861.0300000012}},{"attributes":{"ID":552671,"DIS_CODE":0,"TOWNNAME":"中西區","LI":"三民里","LIN":"10鄰","STREET":"中山路","SECT":" ","MAREA":" ","LANE":" ","ALLEY":" ","HOUSE_NO":"９１號","E_COORD97":168749.29999999999,"N_COORD97":2543865.52,"ADDRESS":"中山路９１號","OBJECTID":552644},"geometry":{"x":168749.29999999981,"y":2543865.5200000014}},{"attributes":{"ID":552672,"DIS_CODE":0,"TOWNNAME":"中西區","LI":"三民里","LIN":"10鄰","STREET":"中山路","SECT":" ","MAREA":" ","LANE":" ","ALLEY":" ","HOUSE_NO":"９３號","E_COORD97":168756.03,"N_COORD97":2543870,"ADDRESS":"中山路９３號","OBJECTID":552645},"geometry":{"x":168756.03000000119,"y":2543870}},{"attributes":{"ID":552673,"DIS_CODE":0,"TOWNNAME":"東區","LI":"裕聖里","LIN":"10鄰","STREET":"裕信路","SECT":" ","MAREA":" ","LANE":" ","ALLEY":" ","HOUSE_NO":"３９０之２號","E_COORD97":172582.48999999999,"N_COORD97":2542050.2799999998,"ADDRESS":"裕信路３９０之２號","OBJECTID":552646},"geometry":{"x":172582.49000000115,"y":2542050.2799999993}},{"attributes":{"ID":552674,"DIS_CODE":0,"TOWNNAME":"東區","LI":"裕聖里","LIN":"10鄰","STREET":"裕信路","SECT":" ","MAREA":" ","LANE":" ","ALLEY":" ","HOUSE_NO":"３９０之１號","E_COORD97":172584.70000000001,"N_COORD97":2542055.98,"ADDRESS":"裕信路３９０之１號","OBJECTID":552647},"geometry":{"x":172584.70000000112,"y":2542055.9800000023}},{"attributes":{"ID":552675,"DIS_CODE":0,"TOWNNAME":"東區","LI":"裕聖里","LIN":"10鄰","STREET":"裕信路","SECT":" ","MAREA":" ","LANE":" ","ALLEY":" ","HOUSE_NO":"３９０之３號","E_COORD97":172581.38,"N_COORD97":2542044.3900000001,"ADDRESS":"裕信路３９０之３號","OBJECTID":552648},"geometry":{"x":172581.38000000082,"y":2542044.3900000006}},{"attributes":{"ID":552676,"DIS_CODE":0,"TOWNNAME":"東區","LI":"裕聖里","LIN":"10鄰","STREET":"裕信路","SECT":" ","MAREA":" ","LANE":" ","ALLEY":" ","HOUSE_NO":"３９０之５號","E_COORD97":172580.45999999999,"N_COORD97":2542038.1299999999,"ADDRESS":"裕信路３９０之５號","OBJECTID":552649},"geometry":{"x":172580.46000000183,"y":2542038.129999999}},{"attributes":{"ID":552677,"DIS_CODE":0,"TOWNNAME":"東區","LI":"裕聖里","LIN":"10鄰","STREET":"裕信路","SECT":" ","MAREA":" ","LANE":" ","ALLEY":" ","HOUSE_NO":"３９６號","E_COORD97":172578.98999999999,"N_COORD97":2542029.48,"ADDRESS":"裕信路３９６號","OBJECTID":552650},"geometry":{"x":172578.99000000115,"y":2542029.4800000023}},{"attributes":{"ID":552678,"DIS_CODE":0,"TOWNNAME":"東區","LI":"裕聖里","LIN":"10鄰","STREET":"裕信路","SECT":" ","MAREA":" ","LANE":" ","ALLEY":" ","HOUSE_NO":"３９６之１號","E_COORD97":172578.07000000001,"N_COORD97":2542022.2999999998,"ADDRESS":"裕信路３９６之１號","OBJECTID":552651},"geometry":{"x":172578.0700000003,"y":2542022.3000000007}},{"attributes":{"ID":552679,"DIS_CODE":0,"TOWNNAME":"東區","LI":"裕聖里","LIN":"10鄰","STREET":"裕孝三街","SECT":" ","MAREA":" ","LANE":" ","ALLEY":" ","HOUSE_NO":"６２號","E_COORD97":172556.54000000001,"N_COORD97":2542063.3399999999,"ADDRESS":"裕孝三街６２號","OBJECTID":552652},"geometry":{"x":172556.54000000097,"y":2542063.3400000017}},{"attributes":{"ID":552680,"DIS_CODE":0,"TOWNNAME":"東區","LI":"裕聖里","LIN":"10鄰","STREET":"裕孝三街","SECT":" ","MAREA":" ","LANE":" ","ALLEY":" ","HOUSE_NO":"６６號","E_COORD97":172563.35000000001,"N_COORD97":2542063.5299999998,"ADDRESS":"裕孝三街６６號","OBJECTID":552653},"geometry":{"x":172563.34999999963,"y":2542063.5299999975}},{"attributes":{"ID":552681,"DIS_CODE":0,"TOWNNAME":"東區","LI":"裕聖里","LIN":"10鄰","STREET":"裕孝三街","SECT":" ","MAREA":" ","LANE":" ","ALLEY":" ","HOUSE_NO":"６８號","E_COORD97":172569.97,"N_COORD97":2542063.71,"ADDRESS":"裕孝三街６８號","OBJECTID":552654},"geometry":{"x":172569.9700000016,"y":2542063.7100000009}},{"attributes":{"ID":552682,"DIS_CODE":0,"TOWNNAME":"東區","LI":"裕聖里","LIN":"10鄰","STREET":"裕孝三街","SECT":" ","MAREA":" ","LANE":" ","ALLEY":" ","HOUSE_NO":"７０號","E_COORD97":172577.51999999999,"N_COORD97":2542064.0800000001,"ADDRESS":"裕孝三街７０號","OBJECTID":552655},"geometry":{"x":172577.51999999955,"y":2542064.0800000038}},{"attributes":{"ID":552683,"DIS_CODE":0,"TOWNNAME":"東區","LI":"關聖里","LIN":"10鄰","STREET":"裕農一街","SECT":" ","MAREA":" ","LANE":" ","ALLEY":" ","HOUSE_NO":"３０號","E_COORD97":171907.10000000001,"N_COORD97":2543100.6699999999,"ADDRESS":"裕農一街３０號","OBJECTID":552656},"geometry":{"x":171907.09999999963,"y":2543100.6699999981}},{"attributes":{"ID":552684,"DIS_CODE":0,"TOWNNAME":"東區","LI":"關聖里","LIN":"10鄰","STREET":"裕農一街","SECT":" ","MAREA":" ","LANE":" ","ALLEY":" ","HOUSE_NO":"３２號","E_COORD97":171907.95999999999,"N_COORD97":2543089.6899999999,"ADDRESS":"裕農一街３２號","OBJECTID":552657},"geometry":{"x":171907.96000000089,"y":2543089.6899999995}},{"attributes":{"ID":552685,"DIS_CODE":0,"TOWNNAME":"東區","LI":"關聖里","LIN":"10鄰","STREET":"裕農一街","SECT":" ","MAREA":" ","LANE":" ","ALLEY":" ","HOUSE_NO":"３８號","E_COORD97":171909.47,"N_COORD97":2543070.9399999999,"ADDRESS":"裕農一街３８號","OBJECTID":552658},"geometry":{"x":171909.47000000067,"y":2543070.9399999995}},{"attributes":{"ID":552686,"DIS_CODE":0,"TOWNNAME":"東區","LI":"關聖里","LIN":"10鄰","STREET":"裕農一街","SECT":" ","MAREA":" ","LANE":" ","ALLEY":" ","HOUSE_NO":"５２號","E_COORD97":171909.89999999999,"N_COORD97":2543061.25,"ADDRESS":"裕農一街５２號","OBJECTID":552659},"geometry":{"x":171909.90000000224,"y":2543061.2500000019}},{"attributes":{"ID":552687,"DIS_CODE":0,"TOWNNAME":"東區","LI":"南聖里","LIN":"10鄰","STREET":"裕平一街","SECT":" ","MAREA":" ","LANE":" ","ALLEY":" ","HOUSE_NO":"２９９號","E_COORD97":172346.04000000001,"N_COORD97":2543216.8300000001,"ADDRESS":"裕平一街２９９號","OBJECTID":552660},"geometry":{"x":172346.0400000019,"y":2543216.8300000019}},{"attributes":{"ID":552688,"DIS_CODE":0,"TOWNNAME":"東區","LI":"崇成里","LIN":"10鄰","STREET":"崇德十四街","SECT":" ","MAREA":" ","LANE":" ","ALLEY":" ","HOUSE_NO":"１３號","E_COORD97":170852.32000000001,"N_COORD97":2541249.6499999999,"ADDRESS":"崇德十四街１３號","OBJECTID":552661},"geometry":{"x":170852.3200000003,"y":2541249.6500000004}},{"attributes":{"ID":552689,"DIS_CODE":0,"TOWNNAME":"東區","LI":"崇學里","LIN":"10鄰","STREET":"中華東路","SECT":"三段","MAREA":" ","LANE":" ","ALLEY":" ","HOUSE_NO":"３１８號","E_COORD97":170346.48999999999,"N_COORD97":2541678.96,"ADDRESS":"中華東路三段３１８號","OBJECTID":552662},"geometry":{"x":170346.49000000115,"y":2541678.9600000009}},{"attributes":{"ID":552690,"DIS_CODE":0,"TOWNNAME":"東區","LI":"崇成里","LIN":"10鄰","STREET":"崇德十四街","SECT":" ","MAREA":" ","LANE":" ","ALLEY":" ","HOUSE_NO":"３１號","E_COORD97":170904.73000000001,"N_COORD97":2541254.5099999998,"ADDRESS":"崇德十四街３１號","OBJECTID":552663},"geometry":{"x":170904.73000000138,"y":2541254.5100000016}},{"attributes":{"ID":552691,"DIS_CODE":0,"TOWNNAME":"東區","LI":"南聖里","LIN":"12鄰","STREET":"裕信路","SECT":" ","MAREA":" ","LANE":" ","ALLEY":" ","HOUSE_NO":"３６之８號","E_COORD97":172560.92999999999,"N_COORD97":2543233.04,"ADDRESS":"裕信路３６之８號","OBJECTID":552664},"geometry":{"x":172560.9299999997,"y":2543233.0400000028}},{"attributes":{"ID":552692,"DIS_CODE":0,"TOWNNAME":"東區","LI":"泉南里","LIN":"10鄰","STREET":"光華街","SECT":" ","MAREA":" ","LANE":" ","ALLEY":" ","HOUSE_NO":"１８１號之１","E_COORD97":169684.85999999999,"N_COORD97":2542958.2999999998,"ADDRESS":"光華街１８１號之１","OBJECTID":552665},"geometry":{"x":169684.86000000127,"y":2542958.3000000045}},{"attributes":{"ID":552693,"DIS_CODE":0,"TOWNNAME":"東區","LI":"泉南里","LIN":"10鄰","STREET":"光華街","SECT":" ","MAREA":" ","LANE":" ","ALLEY":" ","HOUSE_NO":"１８５號之６","E_COORD97":169659.51999999999,"N_COORD97":2542932.5499999998,"ADDRESS":"光華街１８５號之６","OBJECTID":552666},"geometry":{"x":169659.52000000048,"y":2542932.5500000007}},{"attributes":{"ID":552694,"DIS_CODE":0,"TOWNNAME":"東區","LI":"泉南里","LIN":"10鄰","STREET":"光華街","SECT":" ","MAREA":" ","LANE":" ","ALLEY":" ","HOUSE_NO":"１８５號之７","E_COORD97":169659.82999999999,"N_COORD97":2542927.7799999998,"ADDRESS":"光華街１８５號之７","OBJECTID":552667},"geometry":{"x":169659.83000000007,"y":2542927.7800000012}},{"attributes":{"ID":552695,"DIS_CODE":0,"TOWNNAME":"東區","LI":"泉南里","LIN":"10鄰","STREET":"光華街","SECT":" ","MAREA":" ","LANE":" ","ALLEY":" ","HOUSE_NO":"１７７號之３","E_COORD97":169683.16,"N_COORD97":2542930.3700000001,"ADDRESS":"光華街１７７號之３","OBJECTID":552668},"geometry":{"x":169683.16000000015,"y":2542930.370000001}},{"attributes":{"ID":552696,"DIS_CODE":0,"TOWNNAME":"東區","LI":"泉南里","LIN":"10鄰","STREET":"光華街","SECT":" ","MAREA":" ","LANE":" ","ALLEY":" ","HOUSE_NO":"１７７號","E_COORD97":169697.09,"N_COORD97":2542934.5699999998,"ADDRESS":"光華街１７７號","OBJECTID":552669},"geometry":{"x":169697.08999999985,"y":2542934.5700000003}},{"attributes":{"ID":552697,"DIS_CODE":0,"TOWNNAME":"東區","LI":"泉南里","LIN":"10鄰","STREET":"光華街","SECT":" ","MAREA":" ","LANE":" ","ALLEY":" ","HOUSE_NO":"１７７號之８","E_COORD97":169684.79999999999,"N_COORD97":2542936.1000000001,"ADDRESS":"光華街１７７號之８","OBJECTID":552670},"geometry":{"x":169684.80000000075,"y":2542936.1000000015}},{"attributes":{"ID":552698,"DIS_CODE":0,"TOWNNAME":"東區","LI":"泉南里","LIN":"10鄰","STREET":"光華街","SECT":" ","MAREA":" ","LANE":" ","ALLEY":" ","HOUSE_NO":"１７７號之１","E_COORD97":169696.26999999999,"N_COORD97":2542928.4300000002,"ADDRESS":"光華街１７７號之１","OBJECTID":552671},"geometry":{"x":169696.27000000048,"y":2542928.4299999997}},{"attributes":{"ID":552699,"DIS_CODE":0,"TOWNNAME":"東區","LI":"泉南里","LIN":"10鄰","STREET":"光華街","SECT":" ","MAREA":" ","LANE":" ","ALLEY":" ","HOUSE_NO":"１７７號之２","E_COORD97":169689.41,"N_COORD97":2542929.3500000001,"ADDRESS":"光華街１７７號之２","OBJECTID":552672},"geometry":{"x":169689.41000000108,"y":2542929.3499999996}},{"attributes":{"ID":552700,"DIS_CODE":0,"TOWNNAME":"東區","LI":"泉南里","LIN":"10鄰","STREET":"光華街","SECT":" ","MAREA":" ","LANE":" ","ALLEY":" ","HOUSE_NO":"１７７號之５","E_COORD97":169671.89000000001,"N_COORD97":2542932.21,"ADDRESS":"光華街１７７號之５","OBJECTID":552673},"geometry":{"x":169671.8900000006,"y":2542932.2100000046}},{"attributes":{"ID":552701,"DIS_CODE":0,"TOWNNAME":"東區","LI":"泉南里","LIN":"10鄰","STREET":"光華街","SECT":" ","MAREA":" ","LANE":" ","ALLEY":" ","HOUSE_NO":"１７７號之６","E_COORD97":169665.54000000001,"N_COORD97":2542933.2400000002,"ADDRESS":"光華街１７７號之６","OBJECTID":552674},"geometry":{"x":169665.54000000004,"y":2542933.2400000002}},{"attributes":{"ID":552702,"DIS_CODE":0,"TOWNNAME":"東區","LI":"泉南里","LIN":"10鄰","STREET":"光華街","SECT":" ","MAREA":" ","LANE":" ","ALLEY":" ","HOUSE_NO":"１７７號之７","E_COORD97":169678.34,"N_COORD97":2542936.5099999998,"ADDRESS":"光華街１７７號之７","OBJECTID":552675},"geometry":{"x":169678.33999999985,"y":2542936.5100000016}},{"attributes":{"ID":552703,"DIS_CODE":0,"TOWNNAME":"東區","LI":"泉南里","LIN":"10鄰","STREET":"光華街","SECT":" ","MAREA":" ","LANE":" ","ALLEY":" ","HOUSE_NO":"１７７號之４","E_COORD97":169677.82999999999,"N_COORD97":2542931.1899999999,"ADDRESS":"光華街１７７號之４","OBJECTID":552676},"geometry":{"x":169677.83000000101,"y":2542931.1900000013}},{"attributes":{"ID":552704,"DIS_CODE":0,"TOWNNAME":"東區","LI":"和平里","LIN":"10鄰","STREET":"仁和路","SECT":" ","MAREA":" ","LANE":" ","ALLEY":" ","HOUSE_NO":"８７號之１","E_COORD97":171268.78,"N_COORD97":2541500.2400000002,"ADDRESS":"仁和路８７號之１","OBJECTID":552677},"geometry":{"x":171268.78000000119,"y":2541500.2399999984}},{"attributes":{"ID":552705,"DIS_CODE":0,"TOWNNAME":"東區","LI":"和平里","LIN":"10鄰","STREET":"仁和路","SECT":" ","MAREA":" ","LANE":" ","ALLEY":" ","HOUSE_NO":"８７號之２","E_COORD97":171270.89000000001,"N_COORD97":2541495.79,"ADDRESS":"仁和路８７號之２","OBJECTID":552678},"geometry":{"x":171270.8900000006,"y":2541495.790000001}},{"attributes":{"ID":552706,"DIS_CODE":0,"TOWNNAME":"東區","LI":"和平里","LIN":"10鄰","STREET":"仁和路","SECT":" ","MAREA":" ","LANE":" ","ALLEY":" ","HOUSE_NO":"８７號之３","E_COORD97":171273.12,"N_COORD97":2541491.8199999998,"ADDRESS":"仁和路８７號之３","OBJECTID":552679},"geometry":{"x":171273.12000000104,"y":2541491.8200000003}},{"attributes":{"ID":552707,"DIS_CODE":0,"TOWNNAME":"東區","LI":"和平里","LIN":"10鄰","STREET":"仁和路","SECT":" ","MAREA":" ","LANE":" ","ALLEY":" ","HOUSE_NO":"８７號之４","E_COORD97":171275.85000000001,"N_COORD97":2541488.6000000001,"ADDRESS":"仁和路８７號之４","OBJECTID":552680},"geometry":{"x":171275.85000000056,"y":2541488.6000000015}},{"attributes":{"ID":552708,"DIS_CODE":0,"TOWNNAME":"東區","LI":"和平里","LIN":"10鄰","STREET":"仁和路","SECT":" ","MAREA":" ","LANE":" ","ALLEY":" ","HOUSE_NO":"８７號之５","E_COORD97":171277.45999999999,"N_COORD97":2541484.6400000001,"ADDRESS":"仁和路８７號之５","OBJECTID":552681},"geometry":{"x":171277.46000000089,"y":2541484.6400000043}},{"attributes":{"ID":552709,"DIS_CODE":0,"TOWNNAME":"東區","LI":"和平里","LIN":"10鄰","STREET":"仁和路","SECT":" ","MAREA":" ","LANE":" ","ALLEY":" ","HOUSE_NO":"８７號之６","E_COORD97":171288.54999999999,"N_COORD97":2541512.96,"ADDRESS":"仁和路８７號之６","OBJECTID":552682},"geometry":{"x":171288.55000000075,"y":2541512.959999999}},{"attributes":{"ID":552710,"DIS_CODE":0,"TOWNNAME":"東區","LI":"和平里","LIN":"10鄰","STREET":"仁和路","SECT":" ","MAREA":" ","LANE":" ","ALLEY":" ","HOUSE_NO":"８７號之７","E_COORD97":171292.42999999999,"N_COORD97":2541514.7799999998,"ADDRESS":"仁和路８７號之７","OBJECTID":552683},"geometry":{"x":171292.43000000063,"y":2541514.7799999993}},{"attributes":{"ID":552711,"DIS_CODE":0,"TOWNNAME":"東區","LI":"和平里","LIN":"10鄰","STREET":"仁和路","SECT":" ","MAREA":" ","LANE":" ","ALLEY":" ","HOUSE_NO":"８７號之８","E_COORD97":171295.97,"N_COORD97":2541516.1499999999,"ADDRESS":"仁和路８７號之８","OBJECTID":552684},"geometry":{"x":171295.96999999974,"y":2541516.1500000022}},{"attributes":{"ID":552712,"DIS_CODE":0,"TOWNNAME":"東區","LI":"和平里","LIN":"10鄰","STREET":"仁和路","SECT":" ","MAREA":" ","LANE":" ","ALLEY":" ","HOUSE_NO":"８７號之９","E_COORD97":171299.28,"N_COORD97":2541517.3999999999,"ADDRESS":"仁和路８７號之９","OBJECTID":552685},"geometry":{"x":171299.28000000119,"y":2541517.4000000022}},{"attributes":{"ID":552713,"DIS_CODE":0,"TOWNNAME":"東區","LI":"和平里","LIN":"10鄰","STREET":"仁和路","SECT":" ","MAREA":" ","LANE":" ","ALLEY":" ","HOUSE_NO":"８７號之１０","E_COORD97":171302.48000000001,"N_COORD97":2541519.5699999998,"ADDRESS":"仁和路８７號之１０","OBJECTID":552686},"geometry":{"x":171302.48000000231,"y":2541519.5700000022}},{"attributes":{"ID":552714,"DIS_CODE":0,"TOWNNAME":"東區","LI":"和平里","LIN":"10鄰","STREET":"仁和路","SECT":" ","MAREA":" ","LANE":" ","ALLEY":" ","HOUSE_NO":"８７號之１１","E_COORD97":171306.59,"N_COORD97":2541521.2799999998,"ADDRESS":"仁和路８７號之１１","OBJECTID":552687},"geometry":{"x":171306.59000000078,"y":2541521.2799999993}},{"attributes":{"ID":552715,"DIS_CODE":0,"TOWNNAME":"東區","LI":"和平里","LIN":"10鄰","STREET":"仁和路","SECT":" ","MAREA":" ","LANE":" ","ALLEY":" ","HOUSE_NO":"８７號之１２","E_COORD97":171313.70000000001,"N_COORD97":2541525.6000000001,"ADDRESS":"仁和路８７號之１２","OBJECTID":552688},"geometry":{"x":171313.70000000019,"y":2541525.6000000015}},{"attributes":{"ID":552716,"DIS_CODE":0,"TOWNNAME":"東區","LI":"虎尾里","LIN":"1鄰","STREET":"東門路","SECT":"三段","MAREA":" ","LANE":" ","ALLEY":" ","HOUSE_NO":"２１７號","E_COORD97":171575.01999999999,"N_COORD97":2541948.77,"ADDRESS":"東門路三段２１７號","OBJECTID":552689},"geometry":{"x":171575.02000000048,"y":2541948.7699999996}},{"attributes":{"ID":552717,"DIS_CODE":0,"TOWNNAME":"東區","LI":"和平里","LIN":"10鄰","STREET":"仁和路","SECT":" ","MAREA":" ","LANE":" ","ALLEY":" ","HOUSE_NO":"８７號之１３","E_COORD97":171315.56,"N_COORD97":2541521.3399999999,"ADDRESS":"仁和路８７號之１３","OBJECTID":552690},"geometry":{"x":171315.55999999959,"y":2541521.3400000017}},{"attributes":{"ID":552718,"DIS_CODE":0,"TOWNNAME":"東區","LI":"和平里","LIN":"10鄰","STREET":"仁和路","SECT":" ","MAREA":" ","LANE":" ","ALLEY":" ","HOUSE_NO":"８７號之１４","E_COORD97":171317.67000000001,"N_COORD97":2541517.1299999999,"ADDRESS":"仁和路８７號之１４","OBJECTID":552691},"geometry":{"x":171317.67000000179,"y":2541517.1300000008}},{"attributes":{"ID":552719,"DIS_CODE":0,"TOWNNAME":"東區","LI":"和平里","LIN":"10鄰","STREET":"仁和路","SECT":" ","MAREA":" ","LANE":" ","ALLEY":" ","HOUSE_NO":"８７號之１５","E_COORD97":171319.64999999999,"N_COORD97":2541514.04,"ADDRESS":"仁和路８７號之１５","OBJECTID":552692},"geometry":{"x":171319.65000000037,"y":2541514.0400000028}},{"attributes":{"ID":552720,"DIS_CODE":0,"TOWNNAME":"東區","LI":"和平里","LIN":"10鄰","STREET":"仁和路","SECT":" ","MAREA":" ","LANE":" ","ALLEY":" ","HOUSE_NO":"８７號之１６","E_COORD97":171321.14000000001,"N_COORD97":2541510.4500000002,"ADDRESS":"仁和路８７號之１６","OBJECTID":552693},"geometry":{"x":171321.1400000006,"y":2541510.4499999993}},{"attributes":{"ID":552721,"DIS_CODE":0,"TOWNNAME":"東區","LI":"自強里","LIN":"27鄰","STREET":"中華東路","SECT":"二段","MAREA":" ","LANE":" ","ALLEY":" ","HOUSE_NO":"１７１號","E_COORD97":171361.07999999999,"N_COORD97":2542827.1800000002,"ADDRESS":"中華東路二段１７１號","OBJECTID":552694},"geometry":{"x":171361.08000000101,"y":2542827.1800000016}},{"attributes":{"ID":552722,"DIS_CODE":0,"TOWNNAME":"永康區","LI":"西橋里","LIN":"10鄰","STREET":"中華西街","SECT":" ","MAREA":" ","LANE":" ","ALLEY":" ","HOUSE_NO":"１２５號","E_COORD97":170668.57000000001,"N_COORD97":2546183.3399999999,"ADDRESS":"中華西街１２５號","OBJECTID":552695},"geometry":{"x":170668.57000000123,"y":2546183.3399999999}},{"attributes":{"ID":552723,"DIS_CODE":0,"TOWNNAME":"東區","LI":"裕聖里","LIN":"6鄰","STREET":"裕孝三街","SECT":" ","MAREA":" ","LANE":" ","ALLEY":" ","HOUSE_NO":"２９號","E_COORD97":172516.88,"N_COORD97":2542084.9199999999,"ADDRESS":"裕孝三街２９號","OBJECTID":552696},"geometry":{"x":172516.88000000082,"y":2542084.9199999999}},{"attributes":{"ID":552724,"DIS_CODE":0,"TOWNNAME":"永康區","LI":"西橋里","LIN":"10鄰","STREET":"中華西街","SECT":" ","MAREA":" ","LANE":" ","ALLEY":" ","HOUSE_NO":"９７號","E_COORD97":170703.07000000001,"N_COORD97":2546123.5,"ADDRESS":"中華西街９７號","OBJECTID":552697},"geometry":{"x":170703.0700000003,"y":2546123.5000000019}},{"attributes":{"ID":552725,"DIS_CODE":0,"TOWNNAME":"永康區","LI":"西勢里","LIN":"10鄰","STREET":"廣盛街","SECT":" ","MAREA":" ","LANE":" ","ALLEY":" ","HOUSE_NO":"１３９號","E_COORD97":176072.23000000001,"N_COORD97":2546689.3999999999,"ADDRESS":"廣盛街１３９號","OBJECTID":552698},"geometry":{"x":176072.23000000045,"y":2546689.4000000004}},{"attributes":{"ID":552726,"DIS_CODE":0,"TOWNNAME":"永康區","LI":"西橋里","LIN":"10鄰","STREET":"中華西街","SECT":" ","MAREA":" ","LANE":" ","ALLEY":" ","HOUSE_NO":"１０７號","E_COORD97":170691.41,"N_COORD97":2546146.4900000002,"ADDRESS":"中華西街１０７號","OBJECTID":552699},"geometry":{"x":170691.41000000108,"y":2546146.4900000002}},{"attributes":{"ID":552727,"DIS_CODE":0,"TOWNNAME":"永康區","LI":"西勢里","LIN":"10鄰","STREET":"西勢路","SECT":" ","MAREA":" ","LANE":" ","ALLEY":" ","HOUSE_NO":"１２５之１號","E_COORD97":176029.42999999999,"N_COORD97":2546738.5499999998,"ADDRESS":"西勢路１２５之１號","OBJECTID":552700},"geometry":{"x":176029.4299999997,"y":2546738.5500000026}},{"attributes":{"ID":552728,"DIS_CODE":0,"TOWNNAME":"中西區","LI":"萬昌里","LIN":"10鄰","STREET":"民權路","SECT":"一段","MAREA":" ","LANE":" ","ALLEY":" ","HOUSE_NO":"１４７號","E_COORD97":168842.79999999999,"N_COORD97":2543491.9700000002,"ADDRESS":"民權路一段１４７號","OBJECTID":552701},"geometry":{"x":168842.79999999981,"y":2543491.9700000007}},{"attributes":{"ID":552729,"DIS_CODE":0,"TOWNNAME":"中西區","LI":"萬昌里","LIN":"10鄰","STREET":"民權路","SECT":"一段","MAREA":" ","LANE":" ","ALLEY":" ","HOUSE_NO":"１４９號","E_COORD97":168844.14999999999,"N_COORD97":2543501.4500000002,"ADDRESS":"民權路一段１４９號","OBJECTID":552702},"geometry":{"x":168844.15000000037,"y":2543501.4499999974}},{"attributes":{"ID":552730,"DIS_CODE":0,"TOWNNAME":"中西區","LI":"萬昌里","LIN":"10鄰","STREET":"民權路","SECT":"一段","MAREA":" ","LANE":" ","ALLEY":" ","HOUSE_NO":"１５１號","E_COORD97":168841.98000000001,"N_COORD97":2543504.2999999998,"ADDRESS":"民權路一段１５１號","OBJECTID":552703},"geometry":{"x":168841.98000000045,"y":2543504.3000000045}},{"attributes":{"ID":552731,"DIS_CODE":0,"TOWNNAME":"東區","LI":"大福里","LIN":"23鄰","STREET":"大同路","SECT":"二段","MAREA":" ","LANE":" ","ALLEY":" ","HOUSE_NO":"３８１號","E_COORD97":169500.73999999999,"N_COORD97":2541469.7000000002,"ADDRESS":"大同路二段３８１號","OBJECTID":552704},"geometry":{"x":169500.74000000115,"y":2541469.7000000011}},{"attributes":{"ID":552732,"DIS_CODE":0,"TOWNNAME":"東區","LI":"裕聖里","LIN":"18鄰","STREET":"裕義路","SECT":" ","MAREA":" ","LANE":" ","ALLEY":" ","HOUSE_NO":"６２８號","E_COORD97":172886.92000000001,"N_COORD97":2542064.3100000001,"ADDRESS":"裕義路６２８號","OBJECTID":552705},"geometry":{"x":172886.91999999993,"y":2542064.3100000024}},{"attributes":{"ID":552733,"DIS_CODE":0,"TOWNNAME":"東區","LI":"裕聖里","LIN":"8鄰","STREET":"裕敬二街","SECT":" ","MAREA":" ","LANE":" ","ALLEY":" ","HOUSE_NO":"８１號","E_COORD97":172669.98000000001,"N_COORD97":2542028.4300000002,"ADDRESS":"裕敬二街８１號","OBJECTID":552706},"geometry":{"x":172669.98000000045,"y":2542028.4300000016}},{"attributes":{"ID":552734,"DIS_CODE":0,"TOWNNAME":"東區","LI":"裕聖里","LIN":"6鄰","STREET":"裕孝三街","SECT":" ","MAREA":" ","LANE":" ","ALLEY":" ","HOUSE_NO":"１１號","E_COORD97":172469.95999999999,"N_COORD97":2542084.3700000001,"ADDRESS":"裕孝三街１１號","OBJECTID":552707},"geometry":{"x":172469.95999999996,"y":2542084.3700000029}},{"attributes":{"ID":552735,"DIS_CODE":0,"TOWNNAME":"東區","LI":"裕聖里","LIN":"6鄰","STREET":"裕孝三街","SECT":" ","MAREA":" ","LANE":" ","ALLEY":" ","HOUSE_NO":"１３號","E_COORD97":172475.67000000001,"N_COORD97":2542084.1800000002,"ADDRESS":"裕孝三街１３號","OBJECTID":552708},"geometry":{"x":172475.67000000086,"y":2542084.1800000016}},{"attributes":{"ID":552736,"DIS_CODE":0,"TOWNNAME":"東區","LI":"裕聖里","LIN":"6鄰","STREET":"裕孝三街","SECT":" ","MAREA":" ","LANE":" ","ALLEY":" ","HOUSE_NO":"１５號","E_COORD97":172481.54999999999,"N_COORD97":2542084.3700000001,"ADDRESS":"裕孝三街１５號","OBJECTID":552709},"geometry":{"x":172481.55000000075,"y":2542084.3700000029}},{"attributes":{"ID":552737,"DIS_CODE":0,"TOWNNAME":"東區","LI":"裕聖里","LIN":"6鄰","STREET":"裕孝三街","SECT":" ","MAREA":" ","LANE":" ","ALLEY":" ","HOUSE_NO":"１７號","E_COORD97":172486.89000000001,"N_COORD97":2542084.5499999998,"ADDRESS":"裕孝三街１７號","OBJECTID":552710},"geometry":{"x":172486.88999999966,"y":2542084.5500000007}},{"attributes":{"ID":552738,"DIS_CODE":0,"TOWNNAME":"東區","LI":"裕聖里","LIN":"6鄰","STREET":"裕孝三街","SECT":" ","MAREA":" ","LANE":" ","ALLEY":" ","HOUSE_NO":"１９號","E_COORD97":172492.59,"N_COORD97":2542084.3700000001,"ADDRESS":"裕孝三街１９號","OBJECTID":552711},"geometry":{"x":172492.58999999985,"y":2542084.3700000029}},{"attributes":{"ID":552739,"DIS_CODE":0,"TOWNNAME":"東區","LI":"裕聖里","LIN":"6鄰","STREET":"裕孝三街","SECT":" ","MAREA":" ","LANE":" ","ALLEY":" ","HOUSE_NO":"２１號","E_COORD97":172497.92999999999,"N_COORD97":2542084,"ADDRESS":"裕孝三街２１號","OBJECTID":552712},"geometry":{"x":172497.93000000063,"y":2542084}},{"attributes":{"ID":552740,"DIS_CODE":0,"TOWNNAME":"東區","LI":"裕聖里","LIN":"6鄰","STREET":"裕孝三街","SECT":" ","MAREA":" ","LANE":" ","ALLEY":" ","HOUSE_NO":"２３號","E_COORD97":172502.70999999999,"N_COORD97":2542084.73,"ADDRESS":"裕孝三街２３號","OBJECTID":552713},"geometry":{"x":172502.71000000089,"y":2542084.7300000023}},{"attributes":{"ID":552741,"DIS_CODE":0,"TOWNNAME":"東區","LI":"裕聖里","LIN":"6鄰","STREET":"裕孝三街","SECT":" ","MAREA":" ","LANE":" ","ALLEY":" ","HOUSE_NO":"２５號","E_COORD97":172508.04999999999,"N_COORD97":2542085.29,"ADDRESS":"裕孝三街２５號","OBJECTID":552714},"geometry":{"x":172508.04999999981,"y":2542085.2899999972}},{"attributes":{"ID":552742,"DIS_CODE":0,"TOWNNAME":"東區","LI":"裕聖里","LIN":"6鄰","STREET":"裕孝三街","SECT":" ","MAREA":" ","LANE":" ","ALLEY":" ","HOUSE_NO":"２７號","E_COORD97":172512.47,"N_COORD97":2542084.1800000002,"ADDRESS":"裕孝三街２７號","OBJECTID":552715},"geometry":{"x":172512.47000000067,"y":2542084.1800000016}},{"attributes":{"ID":552743,"DIS_CODE":0,"TOWNNAME":"東區","LI":"裕聖里","LIN":"6鄰","STREET":"裕孝三街","SECT":" ","MAREA":" ","LANE":" ","ALLEY":" ","HOUSE_NO":"３１號","E_COORD97":172521.12,"N_COORD97":2542085.1000000001,"ADDRESS":"裕孝三街３１號","OBJECTID":552716},"geometry":{"x":172521.12000000011,"y":2542085.1000000015}},{"attributes":{"ID":552744,"DIS_CODE":0,"TOWNNAME":"東區","LI":"裕聖里","LIN":"6鄰","STREET":"裕孝三街","SECT":" ","MAREA":" ","LANE":" ","ALLEY":" ","HOUSE_NO":"５號","E_COORD97":172453.57999999999,"N_COORD97":2542084.3700000001,"ADDRESS":"裕孝三街５號","OBJECTID":552717},"geometry":{"x":172453.58000000007,"y":2542084.3700000029}},{"attributes":{"ID":552745,"DIS_CODE":0,"TOWNNAME":"東區","LI":"裕聖里","LIN":"6鄰","STREET":"裕孝三街","SECT":" ","MAREA":" ","LANE":" ","ALLEY":" ","HOUSE_NO":"７號","E_COORD97":172459.84,"N_COORD97":2542084.73,"ADDRESS":"裕孝三街７號","OBJECTID":552718},"geometry":{"x":172459.83999999985,"y":2542084.7300000023}},{"attributes":{"ID":552746,"DIS_CODE":0,"TOWNNAME":"東區","LI":"裕聖里","LIN":"6鄰","STREET":"裕孝三街","SECT":" ","MAREA":" ","LANE":" ","ALLEY":" ","HOUSE_NO":"９號","E_COORD97":172464.98999999999,"N_COORD97":2542084.9199999999,"ADDRESS":"裕孝三街９號","OBJECTID":552719},"geometry":{"x":172464.99000000022,"y":2542084.9199999999}},{"attributes":{"ID":552747,"DIS_CODE":0,"TOWNNAME":"新化區","LI":"東榮里","LIN":"10鄰","STREET":"信義路","SECT":" ","MAREA":" ","LANE":" ","ALLEY":" ","HOUSE_NO":"１４２號","E_COORD97":179544.42999999999,"N_COORD97":2548489.25,"ADDRESS":"信義路１４２號","OBJECTID":552720},"geometry":{"x":179544.43000000063,"y":2548489.2500000019}},{"attributes":{"ID":552748,"DIS_CODE":0,"TOWNNAME":"新化區","LI":"太平里","LIN":"10鄰","STREET":"中正路","SECT":" ","MAREA":" ","LANE":" ","ALLEY":" ","HOUSE_NO":"８０７號","E_COORD97":178650.72,"N_COORD97":2549396.29,"ADDRESS":"中正路８０７號","OBJECTID":552721},"geometry":{"x":178650.72000000067,"y":2549396.290000001}},{"attributes":{"ID":552749,"DIS_CODE":0,"TOWNNAME":"東區","LI":"和平里","LIN":"20鄰","STREET":"文化路","SECT":" ","MAREA":" ","LANE":" ","ALLEY":" ","HOUSE_NO":"２３號","E_COORD97":171164.76000000001,"N_COORD97":2541942.7799999998,"ADDRESS":"文化路２３號","OBJECTID":552722},"geometry":{"x":171164.76000000071,"y":2541942.7799999993}},{"attributes":{"ID":552750,"DIS_CODE":0,"TOWNNAME":"新化區","LI":"東榮里","LIN":"10鄰","STREET":"信義路","SECT":" ","MAREA":" ","LANE":" ","ALLEY":" ","HOUSE_NO":"１３３號之６","E_COORD97":179617.82999999999,"N_COORD97":2548467.0899999999,"ADDRESS":"信義路１３３號之６","OBJECTID":552723},"geometry":{"x":179617.83000000007,"y":2548467.0899999999}},{"attributes":{"ID":552751,"DIS_CODE":0,"TOWNNAME":"新化區","LI":"武安里","LIN":"10鄰","STREET":"和平街","SECT":" ","MAREA":" ","LANE":" ","ALLEY":" ","HOUSE_NO":"１５１號之１","E_COORD97":178901.07000000001,"N_COORD97":2548200.4100000001,"ADDRESS":"和平街１５１號之１","OBJECTID":552724},"geometry":{"x":178901.0700000003,"y":2548200.4100000001}},{"attributes":{"ID":552752,"DIS_CODE":0,"TOWNNAME":"新化區","LI":"武安里","LIN":"10鄰","STREET":"和平街","SECT":" ","MAREA":" ","LANE":" ","ALLEY":" ","HOUSE_NO":"１５１號之２","E_COORD97":178900.54999999999,"N_COORD97":2548202.8999999999,"ADDRESS":"和平街１５１號之２","OBJECTID":552725},"geometry":{"x":178900.54999999981,"y":2548202.9000000022}},{"attributes":{"ID":552753,"DIS_CODE":0,"TOWNNAME":"新化區","LI":"護國里","LIN":"10鄰","STREET":"中山路","SECT":" ","MAREA":" ","LANE":" ","ALLEY":" ","HOUSE_NO":"１００號之１５之１","E_COORD97":179497.48999999999,"N_COORD97":2549121.2599999998,"ADDRESS":"中山路１００號之１５之１","OBJECTID":552726},"geometry":{"x":179497.49000000115,"y":2549121.2600000035}},{"attributes":{"ID":552754,"DIS_CODE":0,"TOWNNAME":"安南區","LI":"城北里","LIN":"10鄰","STREET":"安中路","SECT":"六段","MAREA":" ","LANE":" ","ALLEY":" ","HOUSE_NO":"４３１號","E_COORD97":161153.17000000001,"N_COORD97":2551287.3900000001,"ADDRESS":"安中路六段４３１號","OBJECTID":552727},"geometry":{"x":161153.16999999899,"y":2551287.3900000006}},{"attributes":{"ID":552755,"DIS_CODE":0,"TOWNNAME":"安南區","LI":"城北里","LIN":"10鄰","STREET":"安中路","SECT":"六段","MAREA":" ","LANE":" ","ALLEY":" ","HOUSE_NO":"４３５號","E_COORD97":161144.04000000001,"N_COORD97":2551288.8300000001,"ADDRESS":"安中路六段４３５號","OBJECTID":552728},"geometry":{"x":161144.03999999911,"y":2551288.8300000019}},{"attributes":{"ID":552756,"DIS_CODE":0,"TOWNNAME":"安南區","LI":"城北里","LIN":"10鄰","STREET":"安中路","SECT":"六段","MAREA":" ","LANE":" ","ALLEY":" ","HOUSE_NO":"４３９號","E_COORD97":161133.23000000001,"N_COORD97":2551285.48,"ADDRESS":"安中路六段４３９號","OBJECTID":552729},"geometry":{"x":161133.23000000231,"y":2551285.4800000004}},{"attributes":{"ID":552757,"DIS_CODE":0,"TOWNNAME":"東區","LI":"東光里","LIN":"6鄰","STREET":"凱旋路","SECT":" ","MAREA":" ","LANE":" ","ALLEY":" ","HOUSE_NO":"１０３號","E_COORD97":171042.78,"N_COORD97":2543704.0699999998,"ADDRESS":"凱旋路１０３號","OBJECTID":552730},"geometry":{"x":171042.78000000212,"y":2543704.0700000003}},{"attributes":{"ID":552758,"DIS_CODE":0,"TOWNNAME":"東區","LI":"關聖里","LIN":"20鄰","STREET":"裕平路","SECT":" ","MAREA":" ","LANE":" ","ALLEY":" ","HOUSE_NO":"２０３號","E_COORD97":172457.92000000001,"N_COORD97":2542840.6899999999,"ADDRESS":"裕平路２０３號","OBJECTID":552731},"geometry":{"x":172457.91999999993,"y":2542840.6900000013}},{"attributes":{"ID":552759,"DIS_CODE":0,"TOWNNAME":"東區","LI":"關聖里","LIN":"20鄰","STREET":"裕平路","SECT":" ","MAREA":" ","LANE":" ","ALLEY":" ","HOUSE_NO":"２０５號","E_COORD97":172464.89999999999,"N_COORD97":2542841.0899999999,"ADDRESS":"裕平路２０５號","OBJECTID":552732},"geometry":{"x":172464.9000000013,"y":2542841.0900000017}},{"attributes":{"ID":552760,"DIS_CODE":0,"TOWNNAME":"東區","LI":"關聖里","LIN":"20鄰","STREET":"裕平路","SECT":" ","MAREA":" ","LANE":" ","ALLEY":" ","HOUSE_NO":"２０７號","E_COORD97":172472.07000000001,"N_COORD97":2542840.8900000001,"ADDRESS":"裕平路２０７號","OBJECTID":552733},"geometry":{"x":172472.07000000123,"y":2542840.8900000006}},{"attributes":{"ID":552761,"DIS_CODE":0,"TOWNNAME":"東區","LI":"關聖里","LIN":"20鄰","STREET":"裕平路","SECT":" ","MAREA":" ","LANE":" ","ALLEY":" ","HOUSE_NO":"２０９號","E_COORD97":172480.44,"N_COORD97":2542840.8900000001,"ADDRESS":"裕平路２０９號","OBJECTID":552734},"geometry":{"x":172480.44000000041,"y":2542840.8900000006}},{"attributes":{"ID":552762,"DIS_CODE":0,"TOWNNAME":"東區","LI":"關聖里","LIN":"20鄰","STREET":"裕平路","SECT":" ","MAREA":" ","LANE":" ","ALLEY":" ","HOUSE_NO":"２１１號","E_COORD97":172488.22,"N_COORD97":2542840.4900000002,"ADDRESS":"裕平路２１１號","OBJECTID":552735},"geometry":{"x":172488.21999999974,"y":2542840.4900000002}},{"attributes":{"ID":552763,"DIS_CODE":0,"TOWNNAME":"東區","LI":"關聖里","LIN":"20鄰","STREET":"裕平路","SECT":" ","MAREA":" ","LANE":" ","ALLEY":" ","HOUSE_NO":"２１３號","E_COORD97":172496.59,"N_COORD97":2542840.29,"ADDRESS":"裕平路２１３號","OBJECTID":552736},"geometry":{"x":172496.59000000078,"y":2542840.2899999991}},{"attributes":{"ID":552764,"DIS_CODE":0,"TOWNNAME":"東區","LI":"關聖里","LIN":"20鄰","STREET":"裕平路","SECT":" ","MAREA":" ","LANE":" ","ALLEY":" ","HOUSE_NO":"２１５號","E_COORD97":172504.76000000001,"N_COORD97":2542840.29,"ADDRESS":"裕平路２１５號","OBJECTID":552737},"geometry":{"x":172504.75999999978,"y":2542840.2899999991}},{"attributes":{"ID":552765,"DIS_CODE":0,"TOWNNAME":"東區","LI":"關聖里","LIN":"20鄰","STREET":"裕平路","SECT":" ","MAREA":" ","LANE":" ","ALLEY":" ","HOUSE_NO":"２１７號","E_COORD97":172512.53,"N_COORD97":2542840.6899999999,"ADDRESS":"裕平路２１７號","OBJECTID":552738},"geometry":{"x":172512.53000000119,"y":2542840.6900000013}},{"attributes":{"ID":552766,"DIS_CODE":0,"TOWNNAME":"東區","LI":"小東里","LIN":"7鄰","STREET":"光明街","SECT":" ","MAREA":" ","LANE":" ","ALLEY":" ","HOUSE_NO":"１９７之１號","E_COORD97":170939.19979799999,"N_COORD97":2544075.7044899999,"ADDRESS":"光明街１９７之１號","OBJECTID":552739},"geometry":{"x":170939.19979799911,"y":2544075.7044870015}},{"attributes":{"ID":552767,"DIS_CODE":0,"TOWNNAME":"東區","LI":"大學里","LIN":"1鄰","STREET":"勝利路","SECT":" ","MAREA":" ","LANE":" ","ALLEY":" ","HOUSE_NO":"１１６號","E_COORD97":169867.41,"N_COORD97":2544031.3900000001,"ADDRESS":"勝利路１１６號","OBJECTID":552740},"geometry":{"x":169867.41000000108,"y":2544031.3900000006}},{"attributes":{"ID":552768,"DIS_CODE":0,"TOWNNAME":"東區","LI":"大學里","LIN":"1鄰","STREET":"勝利路","SECT":" ","MAREA":" ","LANE":" ","ALLEY":" ","HOUSE_NO":"１１８號","E_COORD97":169868.07000000001,"N_COORD97":2544048.0899999999,"ADDRESS":"勝利路１１８號","OBJECTID":552741},"geometry":{"x":169868.07000000123,"y":2544048.0900000017}},{"attributes":{"ID":552769,"DIS_CODE":0,"TOWNNAME":"東區","LI":"大學里","LIN":"1鄰","STREET":"大學路","SECT":" ","MAREA":" ","LANE":" ","ALLEY":" ","HOUSE_NO":"２號","E_COORD97":169877.39999999999,"N_COORD97":2544065.9399999999,"ADDRESS":"大學路２號","OBJECTID":552742},"geometry":{"x":169877.40000000224,"y":2544065.9400000013}},{"attributes":{"ID":552770,"DIS_CODE":0,"TOWNNAME":"安南區","LI":"淵中里","LIN":"10鄰","STREET":"本原街","SECT":"三段","MAREA":" ","LANE":" ","ALLEY":" ","HOUSE_NO":"２６６號","E_COORD97":165315.41,"N_COORD97":2550199.9700000002,"ADDRESS":"本原街三段２６６號","OBJECTID":552743},"geometry":{"x":165315.41000000201,"y":2550199.9700000025}},{"attributes":{"ID":552771,"DIS_CODE":0,"TOWNNAME":"安南區","LI":"淵中里","LIN":"10鄰","STREET":"本原街","SECT":"三段","MAREA":" ","LANE":" ","ALLEY":" ","HOUSE_NO":"２６８號","E_COORD97":165313.95999999999,"N_COORD97":2550195.2400000002,"ADDRESS":"本原街三段２６８號","OBJECTID":552744},"geometry":{"x":165313.95999999996,"y":2550195.2400000002}},{"attributes":{"ID":552772,"DIS_CODE":0,"TOWNNAME":"東區","LI":"和平里","LIN":"20鄰","STREET":"文化一街","SECT":" ","MAREA":" ","LANE":" ","ALLEY":" ","HOUSE_NO":"１１２號","E_COORD97":171198.48999999999,"N_COORD97":2541981.6200000001,"ADDRESS":"文化一街１１２號","OBJECTID":552745},"geometry":{"x":171198.49000000022,"y":2541981.6200000029}},{"attributes":{"ID":552773,"DIS_CODE":0,"TOWNNAME":"東區","LI":"和平里","LIN":"20鄰","STREET":"文化一街","SECT":" ","MAREA":" ","LANE":" ","ALLEY":" ","HOUSE_NO":"１０８號","E_COORD97":171208.97,"N_COORD97":2541982.6000000001,"ADDRESS":"文化一街１０８號","OBJECTID":552746},"geometry":{"x":171208.97000000067,"y":2541982.6000000015}},{"attributes":{"ID":552774,"DIS_CODE":0,"TOWNNAME":"東區","LI":"和平里","LIN":"20鄰","STREET":"文化一街","SECT":" ","MAREA":" ","LANE":" ","ALLEY":" ","HOUSE_NO":"１１０號","E_COORD97":171203.89999999999,"N_COORD97":2541981.9500000002,"ADDRESS":"文化一街１１０號","OBJECTID":552747},"geometry":{"x":171203.90000000037,"y":2541981.9499999993}},{"attributes":{"ID":552775,"DIS_CODE":0,"TOWNNAME":"東區","LI":"和平里","LIN":"20鄰","STREET":"文化一街","SECT":" ","MAREA":" ","LANE":" ","ALLEY":" ","HOUSE_NO":"１１６號","E_COORD97":171193.25,"N_COORD97":2541981.46,"ADDRESS":"文化一街１１６號","OBJECTID":552748},"geometry":{"x":171193.25,"y":2541981.4600000028}},{"attributes":{"ID":552776,"DIS_CODE":0,"TOWNNAME":"安南區","LI":"淵中里","LIN":"10鄰","STREET":"本原街","SECT":"三段","MAREA":" ","LANE":" ","ALLEY":" ","HOUSE_NO":"２７０號","E_COORD97":165312.25,"N_COORD97":2550192.1699999999,"ADDRESS":"本原街三段２７０號","OBJECTID":552749},"geometry":{"x":165312.25,"y":2550192.1699999999}},{"attributes":{"ID":552777,"DIS_CODE":0,"TOWNNAME":"安南區","LI":"淵中里","LIN":"10鄰","STREET":"本原街","SECT":"三段","MAREA":" ","LANE":" ","ALLEY":" ","HOUSE_NO":"２７２號","E_COORD97":165311.42999999999,"N_COORD97":2550188.3799999999,"ADDRESS":"本原街三段２７２號","OBJECTID":552750},"geometry":{"x":165311.43000000156,"y":2550188.3800000008}},{"attributes":{"ID":552778,"DIS_CODE":0,"TOWNNAME":"安南區","LI":"淵中里","LIN":"10鄰","STREET":"本原街","SECT":"三段","MAREA":" ","LANE":" ","ALLEY":" ","HOUSE_NO":"２７６號","E_COORD97":165294.16,"N_COORD97":2550182.7200000002,"ADDRESS":"本原街三段２７６號","OBJECTID":552751},"geometry":{"x":165294.16000000015,"y":2550182.7200000007}},{"attributes":{"ID":552779,"DIS_CODE":0,"TOWNNAME":"安南區","LI":"淵中里","LIN":"10鄰","STREET":"本原街","SECT":"三段","MAREA":" ","LANE":" ","ALLEY":" ","HOUSE_NO":"２８２號","E_COORD97":165300.57999999999,"N_COORD97":2550174.1000000001,"ADDRESS":"本原街三段２８２號","OBJECTID":552752},"geometry":{"x":165300.58000000194,"y":2550174.1000000015}},{"attributes":{"ID":552780,"DIS_CODE":0,"TOWNNAME":"安南區","LI":"淵中里","LIN":"10鄰","STREET":"本原街","SECT":"三段","MAREA":" ","LANE":" ","ALLEY":" ","HOUSE_NO":"２８４號","E_COORD97":165313.23999999999,"N_COORD97":2550171.54,"ADDRESS":"本原街三段２８４號","OBJECTID":552753},"geometry":{"x":165313.24000000209,"y":2550171.5399999991}},{"attributes":{"ID":552781,"DIS_CODE":0,"TOWNNAME":"安南區","LI":"淵中里","LIN":"10鄰","STREET":"本原街","SECT":"三段","MAREA":" ","LANE":" ","ALLEY":" ","HOUSE_NO":"２８６號","E_COORD97":165312.78,"N_COORD97":2550168.2000000002,"ADDRESS":"本原街三段２８６號","OBJECTID":552754},"geometry":{"x":165312.77999999933,"y":2550168.1999999993}},{"attributes":{"ID":552782,"DIS_CODE":0,"TOWNNAME":"安南區","LI":"淵中里","LIN":"10鄰","STREET":"本原街","SECT":"三段","MAREA":" ","LANE":" ","ALLEY":" ","HOUSE_NO":"２８８號","E_COORD97":165310.25,"N_COORD97":2550162.4900000002,"ADDRESS":"本原街三段２８８號","OBJECTID":552755},"geometry":{"x":165310.25000000093,"y":2550162.4900000021}},{"attributes":{"ID":552783,"DIS_CODE":0,"TOWNNAME":"安南區","LI":"淵中里","LIN":"10鄰","STREET":"本原街","SECT":"三段","MAREA":" ","LANE":" ","ALLEY":" ","HOUSE_NO":"２９２號","E_COORD97":165310.34,"N_COORD97":2550157.6099999999,"ADDRESS":"本原街三段２９２號","OBJECTID":552756},"geometry":{"x":165310.34000000171,"y":2550157.6100000013}},{"attributes":{"ID":552784,"DIS_CODE":0,"TOWNNAME":"安南區","LI":"淵中里","LIN":"10鄰","STREET":"本原街","SECT":"三段","MAREA":" ","LANE":" ","ALLEY":" ","HOUSE_NO":"２９６號","E_COORD97":165307.35999999999,"N_COORD97":2550150.02,"ADDRESS":"本原街三段２９６號","OBJECTID":552757},"geometry":{"x":165307.3600000022,"y":2550150.0200000033}},{"attributes":{"ID":552785,"DIS_CODE":0,"TOWNNAME":"安南區","LI":"淵東里","LIN":"10鄰","STREET":"安中路","SECT":"三段","MAREA":" ","LANE":" ","ALLEY":" ","HOUSE_NO":"３９６號","E_COORD97":165444.39999999999,"N_COORD97":2550030.5,"ADDRESS":"安中路三段３９６號","OBJECTID":552758},"geometry":{"x":165444.40000000224,"y":2550030.5}},{"attributes":{"ID":552786,"DIS_CODE":0,"TOWNNAME":"安南區","LI":"佃東里","LIN":"10鄰","STREET":"公學路","SECT":"四段","MAREA":" ","LANE":" ","ALLEY":" ","HOUSE_NO":"１９２號","E_COORD97":165544.35000000001,"N_COORD97":2551936.3399999999,"ADDRESS":"公學路四段１９２號","OBJECTID":552759},"geometry":{"x":165544.35000000056,"y":2551936.3400000017}},{"attributes":{"ID":552787,"DIS_CODE":0,"TOWNNAME":"安南區","LI":"城北里","LIN":"10鄰","STREET":"安中路","SECT":"六段","MAREA":" ","LANE":" ","ALLEY":" ","HOUSE_NO":"４４７號","E_COORD97":161117.76000000001,"N_COORD97":2551286.1800000002,"ADDRESS":"安中路六段４４７號","OBJECTID":552760},"geometry":{"x":161117.76000000071,"y":2551286.1800000016}},{"attributes":{"ID":552788,"DIS_CODE":0,"TOWNNAME":"安南區","LI":"城北里","LIN":"10鄰","STREET":"安中路","SECT":"六段","MAREA":" ","LANE":" ","ALLEY":" ","HOUSE_NO":"４４９號","E_COORD97":161113.63,"N_COORD97":2551286.2999999998,"ADDRESS":"安中路六段４４９號","OBJECTID":552761},"geometry":{"x":161113.63000000082,"y":2551286.3000000026}},{"attributes":{"ID":552789,"DIS_CODE":0,"TOWNNAME":"安南區","LI":"城北里","LIN":"10鄰","STREET":"安中路","SECT":"六段","MAREA":" ","LANE":" ","ALLEY":" ","HOUSE_NO":"４５１號","E_COORD97":161108.54999999999,"N_COORD97":2551286.98,"ADDRESS":"安中路六段４５１號","OBJECTID":552762},"geometry":{"x":161108.55000000075,"y":2551286.9800000042}},{"attributes":{"ID":552790,"DIS_CODE":0,"TOWNNAME":"安南區","LI":"城北里","LIN":"10鄰","STREET":"安中路","SECT":"六段","MAREA":" ","LANE":" ","ALLEY":" ","HOUSE_NO":"４５３號","E_COORD97":161104.64999999999,"N_COORD97":2551286.8100000001,"ADDRESS":"安中路六段４５３號","OBJECTID":552763},"geometry":{"x":161104.64999999944,"y":2551286.8100000005}},{"attributes":{"ID":552791,"DIS_CODE":0,"TOWNNAME":"安南區","LI":"海南里","LIN":"10鄰","STREET":"府安路","SECT":"七段","MAREA":" ","LANE":" ","ALLEY":" ","HOUSE_NO":"１１號","E_COORD97":166119.10999999999,"N_COORD97":2546032.0699999998,"ADDRESS":"府安路七段１１號","OBJECTID":552764},"geometry":{"x":166119.11000000034,"y":2546032.0700000022}},{"attributes":{"ID":552792,"DIS_CODE":0,"TOWNNAME":"安南區","LI":"海南里","LIN":"10鄰","STREET":"府安路","SECT":"七段","MAREA":" ","LANE":" ","ALLEY":" ","HOUSE_NO":"１２號","E_COORD97":166116.04000000001,"N_COORD97":2546029.3500000001,"ADDRESS":"府安路七段１２號","OBJECTID":552765},"geometry":{"x":166116.03999999911,"y":2546029.3500000015}},{"attributes":{"ID":552793,"DIS_CODE":0,"TOWNNAME":"安南區","LI":"海南里","LIN":"10鄰","STREET":"府安路","SECT":"七段","MAREA":" ","LANE":" ","ALLEY":" ","HOUSE_NO":"１３號","E_COORD97":166112.48000000001,"N_COORD97":2546026.98,"ADDRESS":"府安路七段１３號","OBJECTID":552766},"geometry":{"x":166112.48000000138,"y":2546026.9800000004}},{"attributes":{"ID":552794,"DIS_CODE":0,"TOWNNAME":"安南區","LI":"海南里","LIN":"10鄰","STREET":"府安路","SECT":"七段","MAREA":" ","LANE":" ","ALLEY":" ","HOUSE_NO":"１４號","E_COORD97":166108.44,"N_COORD97":2546024.96,"ADDRESS":"府安路七段１４號","OBJECTID":552767},"geometry":{"x":166108.44000000041,"y":2546024.9600000009}},{"attributes":{"ID":552795,"DIS_CODE":0,"TOWNNAME":"安南區","LI":"海南里","LIN":"10鄰","STREET":"府安路","SECT":"七段","MAREA":" ","LANE":" ","ALLEY":" ","HOUSE_NO":"１５號","E_COORD97":166105.76999999999,"N_COORD97":2546021.5800000001,"ADDRESS":"府安路七段１５號","OBJECTID":552768},"geometry":{"x":166105.77000000048,"y":2546021.5800000019}},{"attributes":{"ID":552796,"DIS_CODE":0,"TOWNNAME":"安南區","LI":"海南里","LIN":"10鄰","STREET":"府安路","SECT":"七段","MAREA":" ","LANE":" ","ALLEY":" ","HOUSE_NO":"１６號","E_COORD97":166102.14000000001,"N_COORD97":2546019.2799999998,"ADDRESS":"府安路七段１６號","OBJECTID":552769},"geometry":{"x":166102.1400000006,"y":2546019.2800000012}},{"attributes":{"ID":552797,"DIS_CODE":0,"TOWNNAME":"安南區","LI":"海南里","LIN":"10鄰","STREET":"府安路","SECT":"七段","MAREA":" ","LANE":" ","ALLEY":" ","HOUSE_NO":"１７號","E_COORD97":166098.64999999999,"N_COORD97":2546017.1899999999,"ADDRESS":"府安路七段１７號","OBJECTID":552770},"geometry":{"x":166098.64999999944,"y":2546017.1900000013}},{"attributes":{"ID":552798,"DIS_CODE":0,"TOWNNAME":"安南區","LI":"海南里","LIN":"10鄰","STREET":"府安路","SECT":"七段","MAREA":" ","LANE":" ","ALLEY":" ","HOUSE_NO":"２號","E_COORD97":166150.42000000001,"N_COORD97":2546057.6600000001,"ADDRESS":"府安路七段２號","OBJECTID":552771},"geometry":{"x":166150.41999999993,"y":2546057.6600000039}},{"attributes":{"ID":552799,"DIS_CODE":0,"TOWNNAME":"安南區","LI":"海南里","LIN":"10鄰","STREET":"府安路","SECT":"七段","MAREA":" ","LANE":" ","ALLEY":" ","HOUSE_NO":"４號","E_COORD97":166145.76999999999,"N_COORD97":2546050.4700000002,"ADDRESS":"府安路七段４號","OBJECTID":552772},"geometry":{"x":166145.76999999955,"y":2546050.4700000025}},{"attributes":{"ID":552800,"DIS_CODE":0,"TOWNNAME":"安南區","LI":"海南里","LIN":"10鄰","STREET":"府安路","SECT":"七段","MAREA":" ","LANE":" ","ALLEY":" ","HOUSE_NO":"５號","E_COORD97":166142.32000000001,"N_COORD97":2546048.0299999998,"ADDRESS":"府安路七段５號","OBJECTID":552773},"geometry":{"x":166142.32000000123,"y":2546048.0300000012}},{"attributes":{"ID":552801,"DIS_CODE":0,"TOWNNAME":"安南區","LI":"海南里","LIN":"10鄰","STREET":"府安路","SECT":"七段","MAREA":" ","LANE":" ","ALLEY":" ","HOUSE_NO":"７號","E_COORD97":166134.48000000001,"N_COORD97":2546042.6400000001,"ADDRESS":"府安路七段７號","OBJECTID":552774},"geometry":{"x":166134.48000000138,"y":2546042.6400000025}},{"attributes":{"ID":552802,"DIS_CODE":0,"TOWNNAME":"安南區","LI":"海南里","LIN":"10鄰","STREET":"府安路","SECT":"七段","MAREA":" ","LANE":" ","ALLEY":" ","HOUSE_NO":"８號","E_COORD97":166132.03,"N_COORD97":2546039.8599999999,"ADDRESS":"府安路七段８號","OBJECTID":552775},"geometry":{"x":166132.03000000119,"y":2546039.8600000013}},{"attributes":{"ID":552803,"DIS_CODE":0,"TOWNNAME":"善化區","LI":"北關里","LIN":"10鄰","STREET":"文正路","SECT":" ","MAREA":" ","LANE":" ","ALLEY":" ","HOUSE_NO":"１０號之１","E_COORD97":177078.04999999999,"N_COORD97":2559259.5299999998,"ADDRESS":"文正路１０號之１","OBJECTID":552776},"geometry":{"x":177078.04999999981,"y":2559259.5299999975}},{"attributes":{"ID":552804,"DIS_CODE":0,"TOWNNAME":"善化區","LI":"坐駕里","LIN":"10鄰","STREET":"自強路","SECT":" ","MAREA":" ","LANE":" ","ALLEY":" ","HOUSE_NO":"１２５號","E_COORD97":177954.87,"N_COORD97":2558694.75,"ADDRESS":"自強路１２５號","OBJECTID":552777},"geometry":{"x":177954.87000000197,"y":2558694.75}},{"attributes":{"ID":552805,"DIS_CODE":0,"TOWNNAME":"善化區","LI":"北關里","LIN":"10鄰","STREET":"文正路","SECT":" ","MAREA":" ","LANE":" ","ALLEY":" ","HOUSE_NO":"１２號之１","E_COORD97":177092.22,"N_COORD97":2559259.5299999998,"ADDRESS":"文正路１２號之１","OBJECTID":552778},"geometry":{"x":177092.21999999974,"y":2559259.5299999975}},{"attributes":{"ID":552806,"DIS_CODE":0,"TOWNNAME":"善化區","LI":"西關里","LIN":"10鄰","STREET":"復興街","SECT":" ","MAREA":" ","LANE":" ","ALLEY":" ","HOUSE_NO":"４２號","E_COORD97":176990.23000000001,"N_COORD97":2559056.5099999998,"ADDRESS":"復興街４２號","OBJECTID":552779},"geometry":{"x":176990.23000000138,"y":2559056.5099999998}},{"attributes":{"ID":552807,"DIS_CODE":0,"TOWNNAME":"善化區","LI":"坐駕里","LIN":"10鄰","STREET":"自強路","SECT":" ","MAREA":" ","LANE":" ","ALLEY":" ","HOUSE_NO":"１１３號","E_COORD97":177983.29999999999,"N_COORD97":2558698.5,"ADDRESS":"自強路１１３號","OBJECTID":552780},"geometry":{"x":177983.29999999981,"y":2558698.5000000019}},{"attributes":{"ID":552808,"DIS_CODE":0,"TOWNNAME":"善化區","LI":"北關里","LIN":"10鄰","STREET":"文正路","SECT":" ","MAREA":" ","LANE":" ","ALLEY":" ","HOUSE_NO":"１２之３號","E_COORD97":177108.12,"N_COORD97":2559262.0299999998,"ADDRESS":"文正路１２之３號","OBJECTID":552781},"geometry":{"x":177108.12000000011,"y":2559262.0299999993}},{"attributes":{"ID":552809,"DIS_CODE":0,"TOWNNAME":"善化區","LI":"光文里","LIN":"10鄰","STREET":"中山路","SECT":" ","MAREA":" ","LANE":" ","ALLEY":" ","HOUSE_NO":"４３號之３","E_COORD97":178813.79000000001,"N_COORD97":2559207.02,"ADDRESS":"中山路４３號之３","OBJECTID":552782},"geometry":{"x":178813.79000000097,"y":2559207.0200000014}},{"attributes":{"ID":552810,"DIS_CODE":0,"TOWNNAME":"善化區","LI":"北關里","LIN":"10鄰","STREET":"文正路","SECT":" ","MAREA":" ","LANE":" ","ALLEY":" ","HOUSE_NO":"１２號","E_COORD97":177086.98999999999,"N_COORD97":2559258.7799999998,"ADDRESS":"文正路１２號","OBJECTID":552783},"geometry":{"x":177086.99000000115,"y":2559258.7800000012}},{"attributes":{"ID":552811,"DIS_CODE":0,"TOWNNAME":"東區","LI":"成大里","LIN":"2鄰","STREET":"東寧路","SECT":"西段","MAREA":" ","LANE":" ","ALLEY":" ","HOUSE_NO":"８６號","E_COORD97":169501.89000000001,"N_COORD97":2543720.3300000001,"ADDRESS":"東寧路西段８６號","OBJECTID":552784},"geometry":{"x":169501.88999999966,"y":2543720.3300000038}},{"attributes":{"ID":552812,"DIS_CODE":0,"TOWNNAME":"東區","LI":"文聖里","LIN":"8鄰","STREET":"裕農三街","SECT":" ","MAREA":" ","LANE":" ","ALLEY":" ","HOUSE_NO":"２２０號","E_COORD97":172029.07999999999,"N_COORD97":2542628.25,"ADDRESS":"裕農三街２２０號","OBJECTID":552785},"geometry":{"x":172029.08000000101,"y":2542628.25}},{"attributes":{"ID":552813,"DIS_CODE":0,"TOWNNAME":"善化區","LI":"坐駕里","LIN":"10鄰","STREET":"自強路","SECT":" ","MAREA":" ","LANE":" ","ALLEY":" ","HOUSE_NO":"１２１號","E_COORD97":177963.82000000001,"N_COORD97":2558695.5,"ADDRESS":"自強路１２１號","OBJECTID":552786},"geometry":{"x":177963.82000000216,"y":2558695.5000000019}},{"attributes":{"ID":552814,"DIS_CODE":0,"TOWNNAME":"善化區","LI":"坐駕里","LIN":"10鄰","STREET":"自立路","SECT":" ","MAREA":" ","LANE":" ","ALLEY":" ","HOUSE_NO":"１２１號","E_COORD97":177971.73000000001,"N_COORD97":2558613.75,"ADDRESS":"自立路１２１號","OBJECTID":552787},"geometry":{"x":177971.73000000138,"y":2558613.75}},{"attributes":{"ID":552815,"DIS_CODE":0,"TOWNNAME":"善化區","LI":"光文里","LIN":"10鄰","STREET":"中山路","SECT":" ","MAREA":" ","LANE":" ","ALLEY":" ","HOUSE_NO":"１４３之１４號","E_COORD97":178382.89999999999,"N_COORD97":2559140.02,"ADDRESS":"中山路１４３之１４號","OBJECTID":552788},"geometry":{"x":178382.9000000013,"y":2559140.0199999996}},{"attributes":{"ID":552816,"DIS_CODE":0,"TOWNNAME":"東區","LI":"龍山里","LIN":"7鄰","STREET":"府東街","SECT":" ","MAREA":" ","LANE":" ","ALLEY":" ","HOUSE_NO":"６３號","E_COORD97":169935.03,"N_COORD97":2542909.1400000001,"ADDRESS":"府東街６３號","OBJECTID":552789},"geometry":{"x":169935.03000000026,"y":2542909.1400000025}},{"attributes":{"ID":552817,"DIS_CODE":0,"TOWNNAME":"東區","LI":"東光里","LIN":"6鄰","STREET":"凱旋路","SECT":" ","MAREA":" ","LANE":" ","ALLEY":" ","HOUSE_NO":"１０５號","E_COORD97":171006.17000000001,"N_COORD97":2543712.8900000001,"ADDRESS":"凱旋路１０５號","OBJECTID":552790},"geometry":{"x":171006.17000000086,"y":2543712.8900000006}},{"attributes":{"ID":552818,"DIS_CODE":0,"TOWNNAME":"善化區","LI":"文昌里","LIN":"10鄰","STREET":"大同路","SECT":" ","MAREA":" ","LANE":" ","ALLEY":" ","HOUSE_NO":"３３８號","E_COORD97":177385.10000000001,"N_COORD97":2558901.5,"ADDRESS":"大同路３３８號","OBJECTID":552791},"geometry":{"x":177385.10000000056,"y":2558901.5000000037}},{"attributes":{"ID":552819,"DIS_CODE":0,"TOWNNAME":"善化區","LI":"光文里","LIN":"10鄰","STREET":"中山路","SECT":" ","MAREA":" ","LANE":" ","ALLEY":" ","HOUSE_NO":"３５號","E_COORD97":178849.13,"N_COORD97":2559213,"ADDRESS":"中山路３５號","OBJECTID":552792},"geometry":{"x":178849.12999999989,"y":2559212.9999999981}},{"attributes":{"ID":552820,"DIS_CODE":0,"TOWNNAME":"善化區","LI":"光文里","LIN":"10鄰","STREET":"中山路","SECT":" ","MAREA":" ","LANE":" ","ALLEY":" ","HOUSE_NO":"３１號","E_COORD97":178854.56,"N_COORD97":2559213.25,"ADDRESS":"中山路３１號","OBJECTID":552793},"geometry":{"x":178854.55999999959,"y":2559213.25}},{"attributes":{"ID":552821,"DIS_CODE":0,"TOWNNAME":"善化區","LI":"光文里","LIN":"10鄰","STREET":"中山路","SECT":" ","MAREA":" ","LANE":" ","ALLEY":" ","HOUSE_NO":"４３號之１","E_COORD97":178822.20999999999,"N_COORD97":2559208.52,"ADDRESS":"中山路４３號之１","OBJECTID":552794},"geometry":{"x":178822.21000000089,"y":2559208.5199999996}},{"attributes":{"ID":552822,"DIS_CODE":0,"TOWNNAME":"善化區","LI":"光文里","LIN":"10鄰","STREET":"中山路","SECT":" ","MAREA":" ","LANE":" ","ALLEY":" ","HOUSE_NO":"３３號","E_COORD97":178852.04999999999,"N_COORD97":2559213,"ADDRESS":"中山路３３號","OBJECTID":552795},"geometry":{"x":178852.05000000075,"y":2559212.9999999981}},{"attributes":{"ID":552823,"DIS_CODE":0,"TOWNNAME":"善化區","LI":"光文里","LIN":"10鄰","STREET":"中山路","SECT":" ","MAREA":" ","LANE":" ","ALLEY":" ","HOUSE_NO":"３９號","E_COORD97":178837.26999999999,"N_COORD97":2559210.75,"ADDRESS":"中山路３９號","OBJECTID":552796},"geometry":{"x":178837.27000000048,"y":2559210.75}},{"attributes":{"ID":552824,"DIS_CODE":0,"TOWNNAME":"善化區","LI":"光文里","LIN":"10鄰","STREET":"忠孝路","SECT":" ","MAREA":" ","LANE":" ","ALLEY":" ","HOUSE_NO":"６６號","E_COORD97":178634.29999999999,"N_COORD97":2559138,"ADDRESS":"忠孝路６６號","OBJECTID":552797},"geometry":{"x":178634.29999999981,"y":2559138}},{"attributes":{"ID":552825,"DIS_CODE":0,"TOWNNAME":"善化區","LI":"文昌里","LIN":"10鄰","STREET":"大同路","SECT":" ","MAREA":" ","LANE":" ","ALLEY":" ","HOUSE_NO":"３３６號","E_COORD97":177391.89999999999,"N_COORD97":2558898.5,"ADDRESS":"大同路３３６號","OBJECTID":552798},"geometry":{"x":177391.90000000037,"y":2558898.5000000019}},{"attributes":{"ID":552826,"DIS_CODE":0,"TOWNNAME":"善化區","LI":"文昌里","LIN":"10鄰","STREET":"大同路","SECT":" ","MAREA":" ","LANE":" ","ALLEY":" ","HOUSE_NO":"３４６號","E_COORD97":177379.23999999999,"N_COORD97":2558919.25,"ADDRESS":"大同路３４６號","OBJECTID":552799},"geometry":{"x":177379.24000000022,"y":2558919.25}},{"attributes":{"ID":552827,"DIS_CODE":0,"TOWNNAME":"善化區","LI":"光文里","LIN":"10鄰","STREET":"民權路","SECT":" ","MAREA":" ","LANE":" ","ALLEY":" ","HOUSE_NO":"５６號","E_COORD97":178654.85999999999,"N_COORD97":2559090.5099999998,"ADDRESS":"民權路５６號","OBJECTID":552800},"geometry":{"x":178654.86000000034,"y":2559090.5099999998}}]}