{"displayFieldName":"TOWNNAME","fieldAliases":{"ID":"ID","DIS_CODE":"DIS_CODE","TOWNNAME":"TOWNNAME","LI":"LI","LIN":"LIN","STREET":"STREET","SECT":"SECT","MAREA":"MAREA","LANE":"LANE","ALLEY":"ALLEY","HOUSE_NO":"HOUSE_NO","E_COORD97":"E_COORD97","N_COORD97":"N_COORD97","ADDRESS":"ADDRESS","OBJECTID":"OBJECTID"},"geometryType":"esriGeometryPoint","spatialReference":{"wkid":102443,"latestWkid":3826},"fields":[{"name":"ID","type":"esriFieldTypeDouble","alias":"ID"},{"name":"DIS_CODE","type":"esriFieldTypeInteger","alias":"DIS_CODE"},{"name":"TOWNNAME","type":"esriFieldTypeString","alias":"TOWNNAME","length":8},{"name":"LI","type":"esriFieldTypeString","alias":"LI","length":8},{"name":"LIN","type":"esriFieldTypeString","alias":"LIN","length":12},{"name":"STREET","type":"esriFieldTypeString","alias":"STREET","length":20},{"name":"SECT","type":"esriFieldTypeString","alias":"SECT","length":8},{"name":"MAREA","type":"esriFieldTypeString","alias":"MAREA","length":12},{"name":"LANE","type":"esriFieldTypeString","alias":"LANE","length":10},{"name":"ALLEY","type":"esriFieldTypeString","alias":"ALLEY","length":10},{"name":"HOUSE_NO","type":"esriFieldTypeString","alias":"HOUSE_NO","length":20},{"name":"E_COORD97","type":"esriFieldTypeDouble","alias":"E_COORD97"},{"name":"N_COORD97","type":"esriFieldTypeDouble","alias":"N_COORD97"},{"name":"ADDRESS","type":"esriFieldTypeString","alias":"ADDRESS","length":50},{"name":"OBJECTID","type":"esriFieldTypeOID","alias":"OBJECTID"}],"features":[{"attributes":{"ID":170802,"DIS_CODE":0,"TOWNNAME":"後壁區","LI":"侯伯里","LIN":"13鄰","STREET":" ","SECT":" ","MAREA":"後壁寮","LANE":" ","ALLEY":" ","HOUSE_NO":"１０８號之４６","E_COORD97":185034.84,"N_COORD97":2585379.1000000001,"ADDRESS":"後壁寮１０８號之４６","OBJECTID":170801},"geometry":{"x":185034.83999999985,"y":2585379.1000000034}},{"attributes":{"ID":170803,"DIS_CODE":0,"TOWNNAME":"後壁區","LI":"侯伯里","LIN":"13鄰","STREET":" ","SECT":" ","MAREA":"後壁寮","LANE":" ","ALLEY":" ","HOUSE_NO":"１０８號之４７","E_COORD97":185036.85999999999,"N_COORD97":2585383.2000000002,"ADDRESS":"後壁寮１０８號之４７","OBJECTID":170802},"geometry":{"x":185036.86000000034,"y":2585383.1999999993}},{"attributes":{"ID":170804,"DIS_CODE":0,"TOWNNAME":"後壁區","LI":"侯伯里","LIN":"13鄰","STREET":" ","SECT":" ","MAREA":"後壁寮","LANE":" ","ALLEY":" ","HOUSE_NO":"１０８號之４８","E_COORD97":185039.28,"N_COORD97":2585387.04,"ADDRESS":"後壁寮１０８號之４８","OBJECTID":170803},"geometry":{"x":185039.28000000026,"y":2585387.040000001}},{"attributes":{"ID":170805,"DIS_CODE":0,"TOWNNAME":"後壁區","LI":"侯伯里","LIN":"13鄰","STREET":" ","SECT":" ","MAREA":"後壁寮","LANE":" ","ALLEY":" ","HOUSE_NO":"１０８號之４９","E_COORD97":185041.14000000001,"N_COORD97":2585391.02,"ADDRESS":"後壁寮１０８號之４９","OBJECTID":170804},"geometry":{"x":185041.13999999966,"y":2585391.0200000014}},{"attributes":{"ID":170806,"DIS_CODE":0,"TOWNNAME":"南區","LI":"大忠里","LIN":"27鄰","STREET":"大同路","SECT":"二段","MAREA":" ","LANE":"４８２巷","ALLEY":"１５５弄","HOUSE_NO":"４２號之１","E_COORD97":168939.32000000001,"N_COORD97":2541482.0899999999,"ADDRESS":"大同路二段４８２巷１５５弄４２號之１","OBJECTID":170805},"geometry":{"x":168939.32000000123,"y":2541482.0900000017}},{"attributes":{"ID":170807,"DIS_CODE":0,"TOWNNAME":"南區","LI":"大忠里","LIN":"27鄰","STREET":"大同路","SECT":"二段","MAREA":" ","LANE":"４８２巷","ALLEY":"１５５弄","HOUSE_NO":"４３號","E_COORD97":168988.03,"N_COORD97":2541485.3900000001,"ADDRESS":"大同路二段４８２巷１５５弄４３號","OBJECTID":170806},"geometry":{"x":168988.03000000212,"y":2541485.3900000006}},{"attributes":{"ID":170808,"DIS_CODE":0,"TOWNNAME":"南區","LI":"大忠里","LIN":"27鄰","STREET":"大同路","SECT":"二段","MAREA":" ","LANE":"４８２巷","ALLEY":"１５５弄","HOUSE_NO":"４６號","E_COORD97":168935.25,"N_COORD97":2541478.73,"ADDRESS":"大同路二段４８２巷１５５弄４６號","OBJECTID":170807},"geometry":{"x":168935.25,"y":2541478.7300000004}},{"attributes":{"ID":170809,"DIS_CODE":0,"TOWNNAME":"後壁區","LI":"侯伯里","LIN":"13鄰","STREET":" ","SECT":" ","MAREA":"後壁寮","LANE":" ","ALLEY":" ","HOUSE_NO":"１０８號之４","E_COORD97":184989.76999999999,"N_COORD97":2585437.9399999999,"ADDRESS":"後壁寮１０８號之４","OBJECTID":170808},"geometry":{"x":184989.76999999955,"y":2585437.9400000013}},{"attributes":{"ID":170810,"DIS_CODE":0,"TOWNNAME":"南區","LI":"大忠里","LIN":"19鄰","STREET":"大同路","SECT":"二段","MAREA":" ","LANE":"６４０巷","ALLEY":"１１８弄","HOUSE_NO":"８號","E_COORD97":169156.66,"N_COORD97":2541026.3300000001,"ADDRESS":"大同路二段６４０巷１１８弄８號","OBJECTID":170809},"geometry":{"x":169156.66000000201,"y":2541026.3300000019}},{"attributes":{"ID":170811,"DIS_CODE":0,"TOWNNAME":"南區","LI":"大忠里","LIN":"19鄰","STREET":"大同路","SECT":"二段","MAREA":" ","LANE":"６４０巷","ALLEY":"１１８弄","HOUSE_NO":"９號","E_COORD97":169133.39000000001,"N_COORD97":2541032.48,"ADDRESS":"大同路二段６４０巷１１８弄９號","OBJECTID":170810},"geometry":{"x":169133.38999999966,"y":2541032.4800000023}},{"attributes":{"ID":170812,"DIS_CODE":0,"TOWNNAME":"南區","LI":"大忠里","LIN":"37鄰","STREET":"國民路","SECT":" ","MAREA":" ","LANE":"２７０巷","ALLEY":"２２弄","HOUSE_NO":"１１號","E_COORD97":169094.92999999999,"N_COORD97":2541490.8900000001,"ADDRESS":"國民路２７０巷２２弄１１號","OBJECTID":170811},"geometry":{"x":169094.93000000156,"y":2541490.8900000025}},{"attributes":{"ID":170813,"DIS_CODE":0,"TOWNNAME":"後壁區","LI":"侯伯里","LIN":"13鄰","STREET":" ","SECT":" ","MAREA":"後壁寮","LANE":" ","ALLEY":" ","HOUSE_NO":"１０８號之５０","E_COORD97":185043.03,"N_COORD97":2585395.0899999999,"ADDRESS":"後壁寮１０８號之５０","OBJECTID":170812},"geometry":{"x":185043.03000000026,"y":2585395.0899999999}},{"attributes":{"ID":170814,"DIS_CODE":0,"TOWNNAME":"佳里區","LI":"海澄里","LIN":"12鄰","STREET":" ","SECT":" ","MAREA":"番子寮","LANE":" ","ALLEY":" ","HOUSE_NO":"９１號","E_COORD97":164024.66,"N_COORD97":2564493.0699999998,"ADDRESS":"番子寮９１號","OBJECTID":170813},"geometry":{"x":164024.66000000015,"y":2564493.0700000022}},{"attributes":{"ID":170815,"DIS_CODE":0,"TOWNNAME":"南區","LI":"大忠里","LIN":"37鄰","STREET":"國民路","SECT":" ","MAREA":" ","LANE":"２７０巷","ALLEY":"２２弄","HOUSE_NO":"３７號","E_COORD97":169134.04999999999,"N_COORD97":2541444.8500000001,"ADDRESS":"國民路２７０巷２２弄３７號","OBJECTID":170814},"geometry":{"x":169134.05000000075,"y":2541444.8500000034}},{"attributes":{"ID":170816,"DIS_CODE":0,"TOWNNAME":"南區","LI":"大忠里","LIN":"37鄰","STREET":"國民路","SECT":" ","MAREA":" ","LANE":"２７０巷","ALLEY":"２２弄","HOUSE_NO":"３９號","E_COORD97":169136.85999999999,"N_COORD97":2541441.5800000001,"ADDRESS":"國民路２７０巷２２弄３９號","OBJECTID":170815},"geometry":{"x":169136.8600000022,"y":2541441.5800000019}},{"attributes":{"ID":170817,"DIS_CODE":0,"TOWNNAME":"南區","LI":"大忠里","LIN":"37鄰","STREET":"國民路","SECT":" ","MAREA":" ","LANE":"２７０巷","ALLEY":"２２弄","HOUSE_NO":"４１號","E_COORD97":169139.67000000001,"N_COORD97":2541438.6200000001,"ADDRESS":"國民路２７０巷２２弄４１號","OBJECTID":170816},"geometry":{"x":169139.67000000086,"y":2541438.6200000029}},{"attributes":{"ID":170818,"DIS_CODE":0,"TOWNNAME":"南區","LI":"大忠里","LIN":"37鄰","STREET":"國民路","SECT":" ","MAREA":" ","LANE":"２７０巷","ALLEY":"２２弄","HOUSE_NO":"４３號","E_COORD97":169142.95000000001,"N_COORD97":2541435.3500000001,"ADDRESS":"國民路２７０巷２２弄４３號","OBJECTID":170817},"geometry":{"x":169142.95000000112,"y":2541435.3500000015}},{"attributes":{"ID":170819,"DIS_CODE":0,"TOWNNAME":"南區","LI":"大忠里","LIN":"37鄰","STREET":"國民路","SECT":" ","MAREA":" ","LANE":"２７０巷","ALLEY":"２２弄","HOUSE_NO":"４５號","E_COORD97":169146.07999999999,"N_COORD97":2541432.0800000001,"ADDRESS":"國民路２７０巷２２弄４５號","OBJECTID":170818},"geometry":{"x":169146.08000000007,"y":2541432.0800000001}},{"attributes":{"ID":170820,"DIS_CODE":0,"TOWNNAME":"南區","LI":"大忠里","LIN":"37鄰","STREET":"國民路","SECT":" ","MAREA":" ","LANE":"２７０巷","ALLEY":"２２弄","HOUSE_NO":"４７號","E_COORD97":169148.42000000001,"N_COORD97":2541428.5,"ADDRESS":"國民路２７０巷２２弄４７號","OBJECTID":170819},"geometry":{"x":169148.42000000086,"y":2541428.5000000019}},{"attributes":{"ID":170821,"DIS_CODE":0,"TOWNNAME":"南區","LI":"彰南里","LIN":"11鄰","STREET":"中華西路","SECT":"一段","MAREA":" ","LANE":" ","ALLEY":" ","HOUSE_NO":"９５號","E_COORD97":166356.85999999999,"N_COORD97":2542147.5699999998,"ADDRESS":"中華西路一段９５號","OBJECTID":170820},"geometry":{"x":166356.86000000127,"y":2542147.5700000003}},{"attributes":{"ID":170822,"DIS_CODE":0,"TOWNNAME":"南區","LI":"大忠里","LIN":"37鄰","STREET":"國民路","SECT":" ","MAREA":" ","LANE":"２７０巷","ALLEY":"２２弄","HOUSE_NO":"４９號","E_COORD97":169151.39000000001,"N_COORD97":2541425.0699999998,"ADDRESS":"國民路２７０巷２２弄４９號","OBJECTID":170821},"geometry":{"x":169151.3900000006,"y":2541425.0700000022}},{"attributes":{"ID":170823,"DIS_CODE":0,"TOWNNAME":"南區","LI":"大忠里","LIN":"37鄰","STREET":"國民路","SECT":" ","MAREA":" ","LANE":"２７０巷","ALLEY":"２２弄","HOUSE_NO":"５１號","E_COORD97":169154.67000000001,"N_COORD97":2541421.96,"ADDRESS":"國民路２７０巷２２弄５１號","OBJECTID":170822},"geometry":{"x":169154.67000000179,"y":2541421.9600000028}},{"attributes":{"ID":170824,"DIS_CODE":0,"TOWNNAME":"南區","LI":"大忠里","LIN":"37鄰","STREET":"國民路","SECT":" ","MAREA":" ","LANE":"２７０巷","ALLEY":"２２弄","HOUSE_NO":"５３號","E_COORD97":169157.48000000001,"N_COORD97":2541418.8399999999,"ADDRESS":"國民路２７０巷２２弄５３號","OBJECTID":170823},"geometry":{"x":169157.48000000045,"y":2541418.8400000017}},{"attributes":{"ID":170825,"DIS_CODE":0,"TOWNNAME":"南區","LI":"大忠里","LIN":"37鄰","STREET":"國民路","SECT":" ","MAREA":" ","LANE":"２７０巷","ALLEY":"２２弄","HOUSE_NO":"５５號","E_COORD97":169160.66,"N_COORD97":2541415.54,"ADDRESS":"國民路２７０巷２２弄５５號","OBJECTID":170824},"geometry":{"x":169160.66000000108,"y":2541415.5399999991}},{"attributes":{"ID":170826,"DIS_CODE":0,"TOWNNAME":"南區","LI":"大忠里","LIN":"37鄰","STREET":"國民路","SECT":" ","MAREA":" ","LANE":"２７０巷","ALLEY":"２２弄","HOUSE_NO":"５７號","E_COORD97":169163.35999999999,"N_COORD97":2541412.6499999999,"ADDRESS":"國民路２７０巷２２弄５７號","OBJECTID":170825},"geometry":{"x":169163.36000000034,"y":2541412.6500000004}},{"attributes":{"ID":170827,"DIS_CODE":0,"TOWNNAME":"南區","LI":"大忠里","LIN":"37鄰","STREET":"國民路","SECT":" ","MAREA":" ","LANE":"２７０巷","ALLEY":"２２弄","HOUSE_NO":"５９號","E_COORD97":169166.64000000001,"N_COORD97":2541409.77,"ADDRESS":"國民路２７０巷２２弄５９號","OBJECTID":170826},"geometry":{"x":169166.6400000006,"y":2541409.7699999996}},{"attributes":{"ID":170828,"DIS_CODE":0,"TOWNNAME":"南區","LI":"大忠里","LIN":"37鄰","STREET":"國民路","SECT":" ","MAREA":" ","LANE":"２７０巷","ALLEY":"２２弄","HOUSE_NO":"６１號","E_COORD97":169169.14999999999,"N_COORD97":2541405.73,"ADDRESS":"國民路２７０巷２２弄６１號","OBJECTID":170827},"geometry":{"x":169169.1500000013,"y":2541405.7300000042}},{"attributes":{"ID":170829,"DIS_CODE":0,"TOWNNAME":"南區","LI":"大忠里","LIN":"37鄰","STREET":"國民路","SECT":" ","MAREA":" ","LANE":"２７０巷","ALLEY":"２２弄","HOUSE_NO":"６３號","E_COORD97":169171.85000000001,"N_COORD97":2541402.8399999999,"ADDRESS":"國民路２７０巷２２弄６３號","OBJECTID":170828},"geometry":{"x":169171.85000000056,"y":2541402.8399999999}},{"attributes":{"ID":170830,"DIS_CODE":0,"TOWNNAME":"後壁區","LI":"侯伯里","LIN":"13鄰","STREET":" ","SECT":" ","MAREA":"後壁寮","LANE":" ","ALLEY":" ","HOUSE_NO":"１０８號之５１","E_COORD97":185044.95999999999,"N_COORD97":2585399.1299999999,"ADDRESS":"後壁寮１０８號之５１","OBJECTID":170829},"geometry":{"x":185044.95999999903,"y":2585399.1300000008}},{"attributes":{"ID":170831,"DIS_CODE":0,"TOWNNAME":"後壁區","LI":"侯伯里","LIN":"13鄰","STREET":" ","SECT":" ","MAREA":"後壁寮","LANE":" ","ALLEY":" ","HOUSE_NO":"１０８號之５２","E_COORD97":185047.12,"N_COORD97":2585403.1699999999,"ADDRESS":"後壁寮１０８號之５２","OBJECTID":170830},"geometry":{"x":185047.12000000011,"y":2585403.1700000018}},{"attributes":{"ID":170832,"DIS_CODE":0,"TOWNNAME":"後壁區","LI":"侯伯里","LIN":"13鄰","STREET":" ","SECT":" ","MAREA":"後壁寮","LANE":" ","ALLEY":" ","HOUSE_NO":"１０８號之５３","E_COORD97":185049.66,"N_COORD97":2585408.1600000001,"ADDRESS":"後壁寮１０８號之５３","OBJECTID":170831},"geometry":{"x":185049.66000000108,"y":2585408.1600000001}},{"attributes":{"ID":170833,"DIS_CODE":0,"TOWNNAME":"後壁區","LI":"侯伯里","LIN":"13鄰","STREET":" ","SECT":" ","MAREA":"後壁寮","LANE":" ","ALLEY":" ","HOUSE_NO":"１０８號之５４","E_COORD97":185071.98999999999,"N_COORD97":2585395.5299999998,"ADDRESS":"後壁寮１０８號之５４","OBJECTID":170832},"geometry":{"x":185071.99000000022,"y":2585395.5299999993}},{"attributes":{"ID":170834,"DIS_CODE":0,"TOWNNAME":"後壁區","LI":"侯伯里","LIN":"13鄰","STREET":" ","SECT":" ","MAREA":"後壁寮","LANE":" ","ALLEY":" ","HOUSE_NO":"１０８號之５５","E_COORD97":185066.48999999999,"N_COORD97":2585391.7599999998,"ADDRESS":"後壁寮１０８號之５５","OBJECTID":170833},"geometry":{"x":185066.49000000022,"y":2585391.7600000035}},{"attributes":{"ID":170835,"DIS_CODE":0,"TOWNNAME":"後壁區","LI":"侯伯里","LIN":"13鄰","STREET":" ","SECT":" ","MAREA":"後壁寮","LANE":" ","ALLEY":" ","HOUSE_NO":"１０８號之５６","E_COORD97":185064.54000000001,"N_COORD97":2585387.98,"ADDRESS":"後壁寮１０８號之５６","OBJECTID":170834},"geometry":{"x":185064.54000000004,"y":2585387.9800000023}},{"attributes":{"ID":170836,"DIS_CODE":0,"TOWNNAME":"後壁區","LI":"侯伯里","LIN":"13鄰","STREET":" ","SECT":" ","MAREA":"後壁寮","LANE":" ","ALLEY":" ","HOUSE_NO":"１０８號之５７","E_COORD97":185062.57999999999,"N_COORD97":2585384.0600000001,"ADDRESS":"後壁寮１０８號之５７","OBJECTID":170835},"geometry":{"x":185062.58000000007,"y":2585384.0600000024}},{"attributes":{"ID":170837,"DIS_CODE":0,"TOWNNAME":"佳里區","LI":"漳洲里","LIN":"12鄰","STREET":" ","SECT":" ","MAREA":"番子寮","LANE":" ","ALLEY":" ","HOUSE_NO":"３０７號","E_COORD97":163047.73000000001,"N_COORD97":2564982.2200000002,"ADDRESS":"番子寮３０７號","OBJECTID":170836},"geometry":{"x":163047.73000000138,"y":2564982.2200000007}},{"attributes":{"ID":170838,"DIS_CODE":0,"TOWNNAME":"佳里區","LI":"海澄里","LIN":"12鄰","STREET":" ","SECT":" ","MAREA":"番子寮","LANE":" ","ALLEY":" ","HOUSE_NO":"８２號","E_COORD97":164065.12,"N_COORD97":2564409.1299999999,"ADDRESS":"番子寮８２號","OBJECTID":170837},"geometry":{"x":164065.12000000104,"y":2564409.1300000008}},{"attributes":{"ID":170839,"DIS_CODE":0,"TOWNNAME":"佳里區","LI":"海澄里","LIN":"12鄰","STREET":" ","SECT":" ","MAREA":"番子寮","LANE":" ","ALLEY":" ","HOUSE_NO":"８３號之１","E_COORD97":164091.17000000001,"N_COORD97":2564396.1000000001,"ADDRESS":"番子寮８３號之１","OBJECTID":170838},"geometry":{"x":164091.17000000179,"y":2564396.1000000034}},{"attributes":{"ID":170840,"DIS_CODE":0,"TOWNNAME":"佳里區","LI":"海澄里","LIN":"12鄰","STREET":" ","SECT":" ","MAREA":"番子寮","LANE":" ","ALLEY":" ","HOUSE_NO":"８７號","E_COORD97":164081.57000000001,"N_COORD97":2564485.0899999999,"ADDRESS":"番子寮８７號","OBJECTID":170839},"geometry":{"x":164081.5700000003,"y":2564485.0900000017}},{"attributes":{"ID":170841,"DIS_CODE":0,"TOWNNAME":"南區","LI":"大忠里","LIN":"37鄰","STREET":"國民路","SECT":" ","MAREA":" ","LANE":"２７０巷","ALLEY":"２２弄","HOUSE_NO":"６５號","E_COORD97":169174.54999999999,"N_COORD97":2541399.5699999998,"ADDRESS":"國民路２７０巷２２弄６５號","OBJECTID":170840},"geometry":{"x":169174.55000000075,"y":2541399.5700000003}},{"attributes":{"ID":170842,"DIS_CODE":0,"TOWNNAME":"南區","LI":"大忠里","LIN":"37鄰","STREET":"國民路","SECT":" ","MAREA":" ","LANE":"２７０巷","ALLEY":"２２弄","HOUSE_NO":"６７號","E_COORD97":169177.44,"N_COORD97":2541396.3100000001,"ADDRESS":"國民路２７０巷２２弄６７號","OBJECTID":170841},"geometry":{"x":169177.44000000134,"y":2541396.3100000024}},{"attributes":{"ID":170843,"DIS_CODE":0,"TOWNNAME":"南區","LI":"田寮里","LIN":"12鄰","STREET":"新興路","SECT":" ","MAREA":" ","LANE":" ","ALLEY":" ","HOUSE_NO":"２３號","E_COORD97":167693.81,"N_COORD97":2542238.9900000002,"ADDRESS":"新興路２３號","OBJECTID":170842},"geometry":{"x":167693.81000000145,"y":2542238.9900000021}},{"attributes":{"ID":170844,"DIS_CODE":0,"TOWNNAME":"佳里區","LI":"海澄里","LIN":"12鄰","STREET":" ","SECT":" ","MAREA":"番子寮","LANE":" ","ALLEY":" ","HOUSE_NO":"８８號","E_COORD97":164096.07000000001,"N_COORD97":2564485.6800000002,"ADDRESS":"番子寮８８號","OBJECTID":170843},"geometry":{"x":164096.07000000123,"y":2564485.6799999997}},{"attributes":{"ID":170845,"DIS_CODE":0,"TOWNNAME":"佳里區","LI":"海澄里","LIN":"12鄰","STREET":" ","SECT":" ","MAREA":"番子寮","LANE":" ","ALLEY":" ","HOUSE_NO":"８９號之１","E_COORD97":164048.76999999999,"N_COORD97":2564469.8900000001,"ADDRESS":"番子寮８９號之１","OBJECTID":170844},"geometry":{"x":164048.76999999955,"y":2564469.8900000025}},{"attributes":{"ID":170846,"DIS_CODE":0,"TOWNNAME":"佳里區","LI":"海澄里","LIN":"12鄰","STREET":" ","SECT":" ","MAREA":"番子寮","LANE":" ","ALLEY":" ","HOUSE_NO":"９０號","E_COORD97":164034.26000000001,"N_COORD97":2564526.8700000001,"ADDRESS":"番子寮９０號","OBJECTID":170845},"geometry":{"x":164034.25999999885,"y":2564526.870000001}},{"attributes":{"ID":170847,"DIS_CODE":0,"TOWNNAME":"佳里區","LI":"海澄里","LIN":"12鄰","STREET":" ","SECT":" ","MAREA":"番子寮","LANE":" ","ALLEY":" ","HOUSE_NO":"９３號之１","E_COORD97":164081.98999999999,"N_COORD97":2564522.4300000002,"ADDRESS":"番子寮９３號之１","OBJECTID":170846},"geometry":{"x":164081.99000000022,"y":2564522.4299999978}},{"attributes":{"ID":170848,"DIS_CODE":0,"TOWNNAME":"佳里區","LI":"海澄里","LIN":"12鄰","STREET":" ","SECT":" ","MAREA":"番子寮","LANE":" ","ALLEY":" ","HOUSE_NO":"９３號","E_COORD97":164075,"N_COORD97":2564506.1099999999,"ADDRESS":"番子寮９３號","OBJECTID":170847},"geometry":{"x":164075,"y":2564506.1099999994}},{"attributes":{"ID":170849,"DIS_CODE":0,"TOWNNAME":"後壁區","LI":"侯伯里","LIN":"13鄰","STREET":" ","SECT":" ","MAREA":"後壁寮","LANE":" ","ALLEY":" ","HOUSE_NO":"１０８號之５","E_COORD97":184987,"N_COORD97":2585432.4900000002,"ADDRESS":"後壁寮１０８號之５","OBJECTID":170848},"geometry":{"x":184987,"y":2585432.4900000021}},{"attributes":{"ID":170850,"DIS_CODE":0,"TOWNNAME":"後壁區","LI":"侯伯里","LIN":"13鄰","STREET":" ","SECT":" ","MAREA":"後壁寮","LANE":" ","ALLEY":" ","HOUSE_NO":"１０８號之７５","E_COORD97":184983.45000000001,"N_COORD97":2585356.2400000002,"ADDRESS":"後壁寮１０８號之７５","OBJECTID":170849},"geometry":{"x":184983.45000000112,"y":2585356.2400000021}},{"attributes":{"ID":170851,"DIS_CODE":0,"TOWNNAME":"後壁區","LI":"侯伯里","LIN":"13鄰","STREET":" ","SECT":" ","MAREA":"後壁寮","LANE":" ","ALLEY":" ","HOUSE_NO":"１０８號之７６","E_COORD97":184979.26999999999,"N_COORD97":2585357.3599999999,"ADDRESS":"後壁寮１０８號之７６","OBJECTID":170850},"geometry":{"x":184979.26999999955,"y":2585357.3600000013}},{"attributes":{"ID":170852,"DIS_CODE":0,"TOWNNAME":"後壁區","LI":"侯伯里","LIN":"13鄰","STREET":" ","SECT":" ","MAREA":"後壁寮","LANE":" ","ALLEY":" ","HOUSE_NO":"１０８號之７７","E_COORD97":184975.56,"N_COORD97":2585359.1000000001,"ADDRESS":"後壁寮１０８號之７７","OBJECTID":170851},"geometry":{"x":184975.55999999959,"y":2585359.1000000015}},{"attributes":{"ID":170853,"DIS_CODE":0,"TOWNNAME":"後壁區","LI":"侯伯里","LIN":"13鄰","STREET":" ","SECT":" ","MAREA":"後壁寮","LANE":" ","ALLEY":" ","HOUSE_NO":"１０８號之７８","E_COORD97":184972.20000000001,"N_COORD97":2585360.9300000002,"ADDRESS":"後壁寮１０８號之７８","OBJECTID":170852},"geometry":{"x":184972.20000000019,"y":2585360.9300000016}},{"attributes":{"ID":170854,"DIS_CODE":0,"TOWNNAME":"後壁區","LI":"侯伯里","LIN":"13鄰","STREET":" ","SECT":" ","MAREA":"後壁寮","LANE":" ","ALLEY":" ","HOUSE_NO":"１０８號之７９","E_COORD97":184969.26999999999,"N_COORD97":2585364.1699999999,"ADDRESS":"後壁寮１０８號之７９","OBJECTID":170853},"geometry":{"x":184969.26999999955,"y":2585364.1699999999}},{"attributes":{"ID":170855,"DIS_CODE":0,"TOWNNAME":"後壁區","LI":"侯伯里","LIN":"13鄰","STREET":" ","SECT":" ","MAREA":"後壁寮","LANE":" ","ALLEY":" ","HOUSE_NO":"１０８號之７","E_COORD97":184983.47,"N_COORD97":2585424.9399999999,"ADDRESS":"後壁寮１０８號之７","OBJECTID":170854},"geometry":{"x":184983.46999999974,"y":2585424.9400000013}},{"attributes":{"ID":170856,"DIS_CODE":0,"TOWNNAME":"後壁區","LI":"侯伯里","LIN":"13鄰","STREET":" ","SECT":" ","MAREA":"後壁寮","LANE":" ","ALLEY":" ","HOUSE_NO":"１０８號之８０","E_COORD97":184965.42000000001,"N_COORD97":2585366.0800000001,"ADDRESS":"後壁寮１０８號之８０","OBJECTID":170855},"geometry":{"x":184965.41999999993,"y":2585366.0800000038}},{"attributes":{"ID":170857,"DIS_CODE":0,"TOWNNAME":"後壁區","LI":"侯伯里","LIN":"13鄰","STREET":" ","SECT":" ","MAREA":"後壁寮","LANE":" ","ALLEY":" ","HOUSE_NO":"１０８號之８１","E_COORD97":184960.72,"N_COORD97":2585366.3300000001,"ADDRESS":"後壁寮１０８號之８１","OBJECTID":170856},"geometry":{"x":184960.72000000067,"y":2585366.3300000001}},{"attributes":{"ID":170858,"DIS_CODE":0,"TOWNNAME":"後壁區","LI":"侯伯里","LIN":"13鄰","STREET":" ","SECT":" ","MAREA":"後壁寮","LANE":" ","ALLEY":" ","HOUSE_NO":"１０８號之８２","E_COORD97":184957.31,"N_COORD97":2585368.1899999999,"ADDRESS":"後壁寮１０８號之８２","OBJECTID":170857},"geometry":{"x":184957.30999999959,"y":2585368.1900000032}},{"attributes":{"ID":170859,"DIS_CODE":0,"TOWNNAME":"後壁區","LI":"侯伯里","LIN":"13鄰","STREET":" ","SECT":" ","MAREA":"後壁寮","LANE":" ","ALLEY":" ","HOUSE_NO":"１０８號之８３","E_COORD97":184953.76000000001,"N_COORD97":2585370.1000000001,"ADDRESS":"後壁寮１０８號之８３","OBJECTID":170858},"geometry":{"x":184953.76000000071,"y":2585370.1000000015}},{"attributes":{"ID":170860,"DIS_CODE":0,"TOWNNAME":"將軍區","LI":"將富里","LIN":"13鄰","STREET":" ","SECT":" ","MAREA":"將榮","LANE":" ","ALLEY":" ","HOUSE_NO":"８８號","E_COORD97":161942,"N_COORD97":2568734.5899999999,"ADDRESS":"將榮８８號","OBJECTID":170859},"geometry":{"x":161942,"y":2568734.5899999999}},{"attributes":{"ID":170861,"DIS_CODE":0,"TOWNNAME":"後壁區","LI":"侯伯里","LIN":"13鄰","STREET":" ","SECT":" ","MAREA":"後壁寮","LANE":" ","ALLEY":" ","HOUSE_NO":"１０８號之８４","E_COORD97":184950.03,"N_COORD97":2585371.8700000001,"ADDRESS":"後壁寮１０８號之８４","OBJECTID":170860},"geometry":{"x":184950.03000000212,"y":2585371.8700000048}},{"attributes":{"ID":170862,"DIS_CODE":0,"TOWNNAME":"後壁區","LI":"侯伯里","LIN":"13鄰","STREET":" ","SECT":" ","MAREA":"後壁寮","LANE":" ","ALLEY":" ","HOUSE_NO":"１０８號之８","E_COORD97":184981.20999999999,"N_COORD97":2585420.8300000001,"ADDRESS":"後壁寮１０８號之８","OBJECTID":170861},"geometry":{"x":184981.21000000089,"y":2585420.8300000001}},{"attributes":{"ID":170863,"DIS_CODE":0,"TOWNNAME":"後壁區","LI":"侯伯里","LIN":"13鄰","STREET":" ","SECT":" ","MAREA":"後壁寮","LANE":" ","ALLEY":" ","HOUSE_NO":"１０８號之９","E_COORD97":184978.78,"N_COORD97":2585417.1200000001,"ADDRESS":"後壁寮１０８號之９","OBJECTID":170862},"geometry":{"x":184978.78000000212,"y":2585417.120000001}},{"attributes":{"ID":170864,"DIS_CODE":0,"TOWNNAME":"後壁區","LI":"侯伯里","LIN":"13鄰","STREET":" ","SECT":" ","MAREA":"後壁寮","LANE":" ","ALLEY":" ","HOUSE_NO":"１０９號之１","E_COORD97":185091.45000000001,"N_COORD97":2585473.8199999998,"ADDRESS":"後壁寮１０９號之１","OBJECTID":170863},"geometry":{"x":185091.45000000112,"y":2585473.8200000022}},{"attributes":{"ID":170865,"DIS_CODE":0,"TOWNNAME":"後壁區","LI":"侯伯里","LIN":"13鄰","STREET":" ","SECT":" ","MAREA":"後壁寮","LANE":" ","ALLEY":" ","HOUSE_NO":"１０９號","E_COORD97":185093.51000000001,"N_COORD97":2585461.48,"ADDRESS":"後壁寮１０９號","OBJECTID":170864},"geometry":{"x":185093.50999999978,"y":2585461.4800000004}},{"attributes":{"ID":170866,"DIS_CODE":0,"TOWNNAME":"學甲區","LI":"三慶里","LIN":"5鄰","STREET":" ","SECT":" ","MAREA":"頂洲","LANE":" ","ALLEY":" ","HOUSE_NO":"６３號","E_COORD97":168682.98999999999,"N_COORD97":2576424,"ADDRESS":"頂洲６３號","OBJECTID":170865},"geometry":{"x":168682.99000000022,"y":2576424.0000000019}},{"attributes":{"ID":170867,"DIS_CODE":0,"TOWNNAME":"後壁區","LI":"烏樹里","LIN":"13鄰","STREET":" ","SECT":" ","MAREA":"烏樹林","LANE":" ","ALLEY":" ","HOUSE_NO":"１９５號之１０","E_COORD97":186063.04999999999,"N_COORD97":2582312.2400000002,"ADDRESS":"烏樹林１９５號之１０","OBJECTID":170866},"geometry":{"x":186063.05000000168,"y":2582312.2400000002}},{"attributes":{"ID":170868,"DIS_CODE":0,"TOWNNAME":"後壁區","LI":"烏樹里","LIN":"13鄰","STREET":" ","SECT":" ","MAREA":"烏樹林","LANE":" ","ALLEY":" ","HOUSE_NO":"１９５號之２","E_COORD97":186036.17000000001,"N_COORD97":2582274.7400000002,"ADDRESS":"烏樹林１９５號之２","OBJECTID":170867},"geometry":{"x":186036.16999999993,"y":2582274.7400000021}},{"attributes":{"ID":170869,"DIS_CODE":0,"TOWNNAME":"南區","LI":"大忠里","LIN":"34鄰","STREET":"國民路","SECT":" ","MAREA":" ","LANE":"２７０巷","ALLEY":"６弄","HOUSE_NO":"３３號","E_COORD97":169067.98000000001,"N_COORD97":2541375.9900000002,"ADDRESS":"國民路２７０巷６弄３３號","OBJECTID":170868},"geometry":{"x":169067.98000000045,"y":2541375.9900000002}},{"attributes":{"ID":170870,"DIS_CODE":0,"TOWNNAME":"南區","LI":"大忠里","LIN":"34鄰","STREET":"國民路","SECT":" ","MAREA":" ","LANE":"２７０巷","ALLEY":"６弄","HOUSE_NO":"３５號","E_COORD97":169071.54999999999,"N_COORD97":2541370.9100000001,"ADDRESS":"國民路２７０巷６弄３５號","OBJECTID":170869},"geometry":{"x":169071.54999999981,"y":2541370.910000002}},{"attributes":{"ID":170871,"DIS_CODE":0,"TOWNNAME":"南區","LI":"大忠里","LIN":"34鄰","STREET":"國民路","SECT":" ","MAREA":" ","LANE":"２７０巷","ALLEY":"６弄","HOUSE_NO":"３７號","E_COORD97":169076.89999999999,"N_COORD97":2541365.8300000001,"ADDRESS":"國民路２７０巷６弄３７號","OBJECTID":170870},"geometry":{"x":169076.90000000037,"y":2541365.8300000001}},{"attributes":{"ID":170872,"DIS_CODE":0,"TOWNNAME":"南區","LI":"大忠里","LIN":"34鄰","STREET":"國民路","SECT":" ","MAREA":" ","LANE":"２７０巷","ALLEY":"６弄","HOUSE_NO":"３９號","E_COORD97":169080.73000000001,"N_COORD97":2541360.4900000002,"ADDRESS":"國民路２７０巷６弄３９號","OBJECTID":170871},"geometry":{"x":169080.73000000138,"y":2541360.4900000021}},{"attributes":{"ID":170873,"DIS_CODE":0,"TOWNNAME":"南區","LI":"大忠里","LIN":"34鄰","STREET":"國民路","SECT":" ","MAREA":" ","LANE":"２７０巷","ALLEY":"６弄","HOUSE_NO":"４１號","E_COORD97":169085.82000000001,"N_COORD97":2541355.4100000001,"ADDRESS":"國民路２７０巷６弄４１號","OBJECTID":170872},"geometry":{"x":169085.8200000003,"y":2541355.4100000001}},{"attributes":{"ID":170874,"DIS_CODE":0,"TOWNNAME":"後壁區","LI":"烏樹里","LIN":"13鄰","STREET":" ","SECT":" ","MAREA":"烏樹林","LANE":" ","ALLEY":" ","HOUSE_NO":"１９５號之３","E_COORD97":186059.85999999999,"N_COORD97":2582285.1600000001,"ADDRESS":"烏樹林１９５號之３","OBJECTID":170873},"geometry":{"x":186059.8600000022,"y":2582285.160000002}},{"attributes":{"ID":170875,"DIS_CODE":0,"TOWNNAME":"後壁區","LI":"烏樹里","LIN":"13鄰","STREET":" ","SECT":" ","MAREA":"烏樹林","LANE":" ","ALLEY":" ","HOUSE_NO":"１９５號之４","E_COORD97":186062.10999999999,"N_COORD97":2582303.6299999999,"ADDRESS":"烏樹林１９５號之４","OBJECTID":170874},"geometry":{"x":186062.11000000127,"y":2582303.6300000008}},{"attributes":{"ID":170876,"DIS_CODE":0,"TOWNNAME":"後壁區","LI":"烏樹里","LIN":"13鄰","STREET":" ","SECT":" ","MAREA":"烏樹林","LANE":" ","ALLEY":" ","HOUSE_NO":"１９５號之５","E_COORD97":186061.76000000001,"N_COORD97":2582299.1800000002,"ADDRESS":"烏樹林１９５號之５","OBJECTID":170875},"geometry":{"x":186061.76000000164,"y":2582299.1799999997}},{"attributes":{"ID":170877,"DIS_CODE":0,"TOWNNAME":"後壁區","LI":"烏樹里","LIN":"13鄰","STREET":" ","SECT":" ","MAREA":"烏樹林","LANE":" ","ALLEY":" ","HOUSE_NO":"１９５號之６","E_COORD97":186060.48000000001,"N_COORD97":2582289.8799999999,"ADDRESS":"烏樹林１９５號之６","OBJECTID":170876},"geometry":{"x":186060.48000000045,"y":2582289.879999999}},{"attributes":{"ID":170878,"DIS_CODE":0,"TOWNNAME":"後壁區","LI":"烏樹里","LIN":"13鄰","STREET":" ","SECT":" ","MAREA":"烏樹林","LANE":" ","ALLEY":" ","HOUSE_NO":"１９５號之７","E_COORD97":186061.10999999999,"N_COORD97":2582294.23,"ADDRESS":"烏樹林１９５號之７","OBJECTID":170877},"geometry":{"x":186061.11000000034,"y":2582294.2300000023}},{"attributes":{"ID":170879,"DIS_CODE":0,"TOWNNAME":"後壁區","LI":"烏樹里","LIN":"13鄰","STREET":" ","SECT":" ","MAREA":"烏樹林","LANE":" ","ALLEY":" ","HOUSE_NO":"１９５號之８","E_COORD97":186043.23000000001,"N_COORD97":2582315.75,"ADDRESS":"烏樹林１９５號之８","OBJECTID":170878},"geometry":{"x":186043.23000000045,"y":2582315.75}},{"attributes":{"ID":170880,"DIS_CODE":0,"TOWNNAME":"後壁區","LI":"烏樹里","LIN":"13鄰","STREET":" ","SECT":" ","MAREA":"烏樹林","LANE":" ","ALLEY":" ","HOUSE_NO":"１９５號之９","E_COORD97":186062.45000000001,"N_COORD97":2582308.3900000001,"ADDRESS":"烏樹林１９５號之９","OBJECTID":170879},"geometry":{"x":186062.45000000205,"y":2582308.3900000006}},{"attributes":{"ID":170881,"DIS_CODE":0,"TOWNNAME":"後壁區","LI":"烏樹里","LIN":"13鄰","STREET":" ","SECT":" ","MAREA":"烏樹林","LANE":" ","ALLEY":" ","HOUSE_NO":"１９６號之１","E_COORD97":186040.45000000001,"N_COORD97":2582286.5899999999,"ADDRESS":"烏樹林１９６號之１","OBJECTID":170880},"geometry":{"x":186040.45000000205,"y":2582286.5899999999}},{"attributes":{"ID":170882,"DIS_CODE":0,"TOWNNAME":"後壁區","LI":"烏樹里","LIN":"13鄰","STREET":" ","SECT":" ","MAREA":"烏樹林","LANE":" ","ALLEY":" ","HOUSE_NO":"１９６號之２","E_COORD97":186043.31,"N_COORD97":2582291.1699999999,"ADDRESS":"烏樹林１９６號之２","OBJECTID":170881},"geometry":{"x":186043.31000000052,"y":2582291.1700000018}},{"attributes":{"ID":170883,"DIS_CODE":0,"TOWNNAME":"後壁區","LI":"烏樹里","LIN":"13鄰","STREET":" ","SECT":" ","MAREA":"烏樹林","LANE":" ","ALLEY":" ","HOUSE_NO":"１９６號之３","E_COORD97":186044.29000000001,"N_COORD97":2582308.8700000001,"ADDRESS":"烏樹林１９６號之３","OBJECTID":170882},"geometry":{"x":186044.29000000004,"y":2582308.870000001}},{"attributes":{"ID":170884,"DIS_CODE":0,"TOWNNAME":"後壁區","LI":"烏樹里","LIN":"13鄰","STREET":" ","SECT":" ","MAREA":"烏樹林","LANE":" ","ALLEY":" ","HOUSE_NO":"１９６號之４","E_COORD97":186044.20999999999,"N_COORD97":2582302.1800000002,"ADDRESS":"烏樹林１９６號之４","OBJECTID":170883},"geometry":{"x":186044.21000000089,"y":2582302.1799999997}},{"attributes":{"ID":170885,"DIS_CODE":0,"TOWNNAME":"南區","LI":"大忠里","LIN":"34鄰","STREET":"國民路","SECT":" ","MAREA":" ","LANE":"２７０巷","ALLEY":"６弄","HOUSE_NO":"４３號","E_COORD97":169090.35000000001,"N_COORD97":2541349.7200000002,"ADDRESS":"國民路２７０巷６弄４３號","OBJECTID":170884},"geometry":{"x":169090.35000000149,"y":2541349.7200000025}},{"attributes":{"ID":170886,"DIS_CODE":0,"TOWNNAME":"南區","LI":"大忠里","LIN":"34鄰","STREET":"國民路","SECT":" ","MAREA":" ","LANE":"２７０巷","ALLEY":"６弄","HOUSE_NO":"４５號","E_COORD97":169094.76000000001,"N_COORD97":2541344.5499999998,"ADDRESS":"國民路２７０巷６弄４５號","OBJECTID":170885},"geometry":{"x":169094.76000000071,"y":2541344.5500000026}},{"attributes":{"ID":170887,"DIS_CODE":0,"TOWNNAME":"南區","LI":"大忠里","LIN":" ","STREET":"國民路","SECT":" ","MAREA":" ","LANE":"２７０巷","ALLEY":"７３弄","HOUSE_NO":"３４號","E_COORD97":168860.13,"N_COORD97":2541457.7200000002,"ADDRESS":"國民路２７０巷７３弄３４號","OBJECTID":170886},"geometry":{"x":168860.13000000082,"y":2541457.7200000025}},{"attributes":{"ID":170888,"DIS_CODE":0,"TOWNNAME":"南區","LI":"大忠里","LIN":"19鄰","STREET":"大同路","SECT":"二段","MAREA":" ","LANE":"６４０巷","ALLEY":"９４弄","HOUSE_NO":"１號","E_COORD97":169218.35000000001,"N_COORD97":2541032.0099999998,"ADDRESS":"大同路二段６４０巷９４弄１號","OBJECTID":170887},"geometry":{"x":169218.34999999963,"y":2541032.0099999998}},{"attributes":{"ID":170889,"DIS_CODE":0,"TOWNNAME":"南區","LI":"大林里","LIN":"4鄰","STREET":"大同路","SECT":"二段","MAREA":" ","LANE":"４０６巷","ALLEY":"１２弄","HOUSE_NO":"１號","E_COORD97":169371.29999999999,"N_COORD97":2541711.0299999998,"ADDRESS":"大同路二段４０６巷１２弄１號","OBJECTID":170888},"geometry":{"x":169371.30000000075,"y":2541711.0300000031}},{"attributes":{"ID":170890,"DIS_CODE":0,"TOWNNAME":"南區","LI":"大林里","LIN":"4鄰","STREET":"大同路","SECT":"二段","MAREA":" ","LANE":"４０６巷","ALLEY":"１２弄","HOUSE_NO":"３號","E_COORD97":169364.04000000001,"N_COORD97":2541709.2200000002,"ADDRESS":"大同路二段４０６巷１２弄３號","OBJECTID":170889},"geometry":{"x":169364.0400000019,"y":2541709.2200000025}},{"attributes":{"ID":170891,"DIS_CODE":0,"TOWNNAME":"南區","LI":"大林里","LIN":"4鄰","STREET":"大同路","SECT":"二段","MAREA":" ","LANE":"４０６巷","ALLEY":"１２弄","HOUSE_NO":"５號","E_COORD97":169353.44,"N_COORD97":2541708.4300000002,"ADDRESS":"大同路二段４０６巷１２弄５號","OBJECTID":170890},"geometry":{"x":169353.44000000227,"y":2541708.4299999997}},{"attributes":{"ID":170892,"DIS_CODE":0,"TOWNNAME":"南區","LI":"大林里","LIN":"4鄰","STREET":"大同路","SECT":"二段","MAREA":" ","LANE":"４０６巷","ALLEY":"１２弄","HOUSE_NO":"７號","E_COORD97":169344.37,"N_COORD97":2541706.3599999999,"ADDRESS":"大同路二段４０６巷１２弄７號","OBJECTID":170891},"geometry":{"x":169344.37000000011,"y":2541706.3600000013}},{"attributes":{"ID":170893,"DIS_CODE":0,"TOWNNAME":"南區","LI":"大林里","LIN":"4鄰","STREET":"大同路","SECT":"二段","MAREA":" ","LANE":"４０６巷","ALLEY":"１２弄","HOUSE_NO":"９號","E_COORD97":169334.66,"N_COORD97":2541705.2000000002,"ADDRESS":"大同路二段４０６巷１２弄９號","OBJECTID":170892},"geometry":{"x":169334.66000000201,"y":2541705.1999999993}},{"attributes":{"ID":170894,"DIS_CODE":0,"TOWNNAME":"南區","LI":"大林里","LIN":"4鄰","STREET":"大同路","SECT":"二段","MAREA":" ","LANE":"４０６巷","ALLEY":"１２弄","HOUSE_NO":"１１號","E_COORD97":169325.07999999999,"N_COORD97":2541703.5899999999,"ADDRESS":"大同路二段４０６巷１２弄１１號","OBJECTID":170893},"geometry":{"x":169325.08000000101,"y":2541703.5899999999}},{"attributes":{"ID":170895,"DIS_CODE":0,"TOWNNAME":"中西區","LI":"民生里","LIN":"12鄰","STREET":"大勇街","SECT":" ","MAREA":" ","LANE":" ","ALLEY":" ","HOUSE_NO":"１４６號之２","E_COORD97":167045.89999999999,"N_COORD97":2543421.23,"ADDRESS":"大勇街１４６號之２","OBJECTID":170894},"geometry":{"x":167045.90000000037,"y":2543421.2300000023}},{"attributes":{"ID":170896,"DIS_CODE":0,"TOWNNAME":"永康區","LI":"永康里","LIN":"12鄰","STREET":"永中街","SECT":" ","MAREA":" ","LANE":" ","ALLEY":" ","HOUSE_NO":"１８號","E_COORD97":173873.35999999999,"N_COORD97":2547071.9900000002,"ADDRESS":"永中街１８號","OBJECTID":170895},"geometry":{"x":173873.36000000127,"y":2547071.9900000002}},{"attributes":{"ID":170897,"DIS_CODE":0,"TOWNNAME":"南區","LI":"大林里","LIN":"4鄰","STREET":"大同路","SECT":"二段","MAREA":" ","LANE":"４０６巷","ALLEY":"１２弄","HOUSE_NO":"１３號","E_COORD97":169315.62,"N_COORD97":2541701.7799999998,"ADDRESS":"大同路二段４０６巷１２弄１３號","OBJECTID":170896},"geometry":{"x":169315.62000000011,"y":2541701.7799999993}},{"attributes":{"ID":170898,"DIS_CODE":0,"TOWNNAME":"永康區","LI":"西灣里","LIN":"12鄰","STREET":"大灣五街","SECT":" ","MAREA":" ","LANE":" ","ALLEY":" ","HOUSE_NO":"１９２號","E_COORD97":174438.76999999999,"N_COORD97":2545351.3700000001,"ADDRESS":"大灣五街１９２號","OBJECTID":170897},"geometry":{"x":174438.76999999955,"y":2545351.370000001}},{"attributes":{"ID":170899,"DIS_CODE":0,"TOWNNAME":"永康區","LI":"西灣里","LIN":"12鄰","STREET":"大灣五街","SECT":" ","MAREA":" ","LANE":" ","ALLEY":" ","HOUSE_NO":"１８８號","E_COORD97":174449.92999999999,"N_COORD97":2545343.7000000002,"ADDRESS":"大灣五街１８８號","OBJECTID":170898},"geometry":{"x":174449.92999999877,"y":2545343.6999999993}},{"attributes":{"ID":170900,"DIS_CODE":0,"TOWNNAME":"永康區","LI":"西灣里","LIN":"12鄰","STREET":"大灣五街","SECT":" ","MAREA":" ","LANE":" ","ALLEY":" ","HOUSE_NO":"１７８號","E_COORD97":174476.53,"N_COORD97":2545327.75,"ADDRESS":"大灣五街１７８號","OBJECTID":170899},"geometry":{"x":174476.53000000026,"y":2545327.7500000037}},{"attributes":{"ID":170901,"DIS_CODE":0,"TOWNNAME":"南區","LI":"大林里","LIN":"4鄰","STREET":"大同路","SECT":"二段","MAREA":" ","LANE":"４０６巷","ALLEY":"１２弄","HOUSE_NO":"１５號","E_COORD97":169303.19,"N_COORD97":2541699.5800000001,"ADDRESS":"大同路二段４０６巷１２弄１５號","OBJECTID":170900},"geometry":{"x":169303.19000000134,"y":2541699.5800000019}},{"attributes":{"ID":170902,"DIS_CODE":0,"TOWNNAME":"永康區","LI":"埔園里","LIN":"39鄰","STREET":"自強路","SECT":" ","MAREA":" ","LANE":" ","ALLEY":" ","HOUSE_NO":"５６８號","E_COORD97":174004.98000000001,"N_COORD97":2548136.7999999998,"ADDRESS":"自強路５６８號","OBJECTID":170901},"geometry":{"x":174004.98000000138,"y":2548136.8000000026}},{"attributes":{"ID":170903,"DIS_CODE":0,"TOWNNAME":"南區","LI":"大林里","LIN":"4鄰","STREET":"大同路","SECT":"二段","MAREA":" ","LANE":"４０６巷","ALLEY":"１２弄","HOUSE_NO":"１７號","E_COORD97":169291.57999999999,"N_COORD97":2541696.7400000002,"ADDRESS":"大同路二段４０６巷１２弄１７號","OBJECTID":170902},"geometry":{"x":169291.58000000101,"y":2541696.7400000002}},{"attributes":{"ID":170904,"DIS_CODE":0,"TOWNNAME":"永康區","LI":"南灣里","LIN":"18鄰","STREET":"大灣一街","SECT":" ","MAREA":" ","LANE":" ","ALLEY":" ","HOUSE_NO":"９０號","E_COORD97":174407.04000000001,"N_COORD97":2544722.1800000002,"ADDRESS":"大灣一街９０號","OBJECTID":170903},"geometry":{"x":174407.04000000004,"y":2544722.1800000016}},{"attributes":{"ID":170905,"DIS_CODE":0,"TOWNNAME":"南區","LI":"大林里","LIN":"4鄰","STREET":"大同路","SECT":"二段","MAREA":" ","LANE":"４０６巷","ALLEY":"１２弄","HOUSE_NO":"１９號","E_COORD97":169282.76999999999,"N_COORD97":2541695.4399999999,"ADDRESS":"大同路二段４０６巷１２弄１９號","OBJECTID":170904},"geometry":{"x":169282.77000000048,"y":2541695.4400000013}},{"attributes":{"ID":170906,"DIS_CODE":0,"TOWNNAME":"永康區","LI":"南灣里","LIN":"25鄰","STREET":"立興街","SECT":" ","MAREA":" ","LANE":" ","ALLEY":" ","HOUSE_NO":"７０號","E_COORD97":174568.42000000001,"N_COORD97":2544818.5099999998,"ADDRESS":"立興街７０號","OBJECTID":170905},"geometry":{"x":174568.41999999993,"y":2544818.5100000016}},{"attributes":{"ID":170907,"DIS_CODE":0,"TOWNNAME":"永康區","LI":"埔園里","LIN":"39鄰","STREET":"龍國街","SECT":" ","MAREA":" ","LANE":" ","ALLEY":" ","HOUSE_NO":"１７號","E_COORD97":174031.39999999999,"N_COORD97":2548107.4300000002,"ADDRESS":"龍國街１７號","OBJECTID":170906},"geometry":{"x":174031.4000000013,"y":2548107.4300000016}},{"attributes":{"ID":170908,"DIS_CODE":0,"TOWNNAME":"永康區","LI":"埔園里","LIN":"38鄰","STREET":"龍中街","SECT":" ","MAREA":" ","LANE":" ","ALLEY":" ","HOUSE_NO":"３５１號","E_COORD97":174416.51000000001,"N_COORD97":2547922.4399999999,"ADDRESS":"龍中街３５１號","OBJECTID":170907},"geometry":{"x":174416.51000000071,"y":2547922.4399999995}},{"attributes":{"ID":170909,"DIS_CODE":0,"TOWNNAME":"永康區","LI":"南灣里","LIN":"18鄰","STREET":"立興街","SECT":" ","MAREA":" ","LANE":" ","ALLEY":" ","HOUSE_NO":"１４４號","E_COORD97":174400.54999999999,"N_COORD97":2544665.1499999999,"ADDRESS":"立興街１４４號","OBJECTID":170908},"geometry":{"x":174400.55000000075,"y":2544665.1500000022}},{"attributes":{"ID":170910,"DIS_CODE":0,"TOWNNAME":"南區","LI":"大林里","LIN":"4鄰","STREET":"大同路","SECT":"二段","MAREA":" ","LANE":"４０６巷","ALLEY":"１２弄","HOUSE_NO":"２１號","E_COORD97":169268.64999999999,"N_COORD97":2541692.8599999999,"ADDRESS":"大同路二段４０６巷１２弄２１號","OBJECTID":170909},"geometry":{"x":169268.64999999944,"y":2541692.8600000013}},{"attributes":{"ID":170911,"DIS_CODE":0,"TOWNNAME":"後壁區","LI":"烏樹里","LIN":"13鄰","STREET":" ","SECT":" ","MAREA":"烏樹林","LANE":" ","ALLEY":" ","HOUSE_NO":"３５５號","E_COORD97":186602.79999999999,"N_COORD97":2582357.8399999999,"ADDRESS":"烏樹林３５５號","OBJECTID":170910},"geometry":{"x":186602.80000000075,"y":2582357.8400000017}},{"attributes":{"ID":170912,"DIS_CODE":0,"TOWNNAME":"南區","LI":"大林里","LIN":"4鄰","STREET":"大同路","SECT":"二段","MAREA":" ","LANE":"４０６巷","ALLEY":"１２弄","HOUSE_NO":"２３號","E_COORD97":169259.45999999999,"N_COORD97":2541690.4700000002,"ADDRESS":"大同路二段４０６巷１２弄２３號","OBJECTID":170911},"geometry":{"x":169259.46000000183,"y":2541690.4700000025}},{"attributes":{"ID":170913,"DIS_CODE":0,"TOWNNAME":"南區","LI":"大林里","LIN":"4鄰","STREET":"大同路","SECT":"二段","MAREA":" ","LANE":"４０６巷","ALLEY":"１２弄","HOUSE_NO":"２５號","E_COORD97":169248.06,"N_COORD97":2541688.5299999998,"ADDRESS":"大同路二段４０６巷１２弄２５號","OBJECTID":170912},"geometry":{"x":169248.05999999959,"y":2541688.5300000012}},{"attributes":{"ID":170914,"DIS_CODE":0,"TOWNNAME":"南區","LI":"大林里","LIN":"4鄰","STREET":"大同路","SECT":"二段","MAREA":" ","LANE":"４０６巷","ALLEY":"１２弄","HOUSE_NO":"２７號","E_COORD97":169238.09,"N_COORD97":2541686.7200000002,"ADDRESS":"大同路二段４０６巷１２弄２７號","OBJECTID":170913},"geometry":{"x":169238.09000000171,"y":2541686.7200000007}},{"attributes":{"ID":170915,"DIS_CODE":0,"TOWNNAME":"南區","LI":"大林里","LIN":"6鄰","STREET":"大同路","SECT":"二段","MAREA":" ","LANE":"４８２巷","ALLEY":"７２弄","HOUSE_NO":"１１號","E_COORD97":169315.03,"N_COORD97":2541514.9399999999,"ADDRESS":"大同路二段４８２巷７２弄１１號","OBJECTID":170914},"geometry":{"x":169315.03000000026,"y":2541514.9399999995}},{"attributes":{"ID":170916,"DIS_CODE":0,"TOWNNAME":"南區","LI":"大林里","LIN":"6鄰","STREET":"大同路","SECT":"二段","MAREA":" ","LANE":"４８２巷","ALLEY":"７２弄","HOUSE_NO":"１５號","E_COORD97":169328.54999999999,"N_COORD97":2541526.75,"ADDRESS":"大同路二段４８２巷７２弄１５號","OBJECTID":170915},"geometry":{"x":169328.55000000075,"y":2541526.75}},{"attributes":{"ID":170917,"DIS_CODE":0,"TOWNNAME":"南區","LI":"大林里","LIN":"6鄰","STREET":"大同路","SECT":"二段","MAREA":" ","LANE":"４８２巷","ALLEY":"７２弄","HOUSE_NO":"２２號","E_COORD97":169325.14999999999,"N_COORD97":2541497.3399999999,"ADDRESS":"大同路二段４８２巷７２弄２２號","OBJECTID":170916},"geometry":{"x":169325.1500000013,"y":2541497.3400000017}},{"attributes":{"ID":170918,"DIS_CODE":0,"TOWNNAME":"南區","LI":"大林里","LIN":"6鄰","STREET":"大同路","SECT":"二段","MAREA":" ","LANE":"４８２巷","ALLEY":"７２弄","HOUSE_NO":"２４號","E_COORD97":169329.38,"N_COORD97":2541497.5499999998,"ADDRESS":"大同路二段４８２巷７２弄２４號","OBJECTID":170917},"geometry":{"x":169329.38000000175,"y":2541497.5500000007}},{"attributes":{"ID":170919,"DIS_CODE":0,"TOWNNAME":"南區","LI":"大林里","LIN":"6鄰","STREET":"大同路","SECT":"二段","MAREA":" ","LANE":"４８２巷","ALLEY":"７２弄","HOUSE_NO":"２６號","E_COORD97":169333.17999999999,"N_COORD97":2541498.6099999999,"ADDRESS":"大同路二段４８２巷７２弄２６號","OBJECTID":170918},"geometry":{"x":169333.1799999997,"y":2541498.6100000013}},{"attributes":{"ID":170920,"DIS_CODE":0,"TOWNNAME":"南區","LI":"大林里","LIN":"6鄰","STREET":"大同路","SECT":"二段","MAREA":" ","LANE":"４８２巷","ALLEY":"７２弄","HOUSE_NO":"２８號","E_COORD97":169337.19,"N_COORD97":2541500.0800000001,"ADDRESS":"大同路二段４８２巷７２弄２８號","OBJECTID":170919},"geometry":{"x":169337.19000000134,"y":2541500.0800000001}},{"attributes":{"ID":170921,"DIS_CODE":0,"TOWNNAME":"南區","LI":"大林里","LIN":"6鄰","STREET":"大同路","SECT":"二段","MAREA":" ","LANE":"４８２巷","ALLEY":"７２弄","HOUSE_NO":"３０號","E_COORD97":169341.31,"N_COORD97":2541500.7200000002,"ADDRESS":"大同路二段４８２巷７２弄３０號","OBJECTID":170920},"geometry":{"x":169341.30999999959,"y":2541500.7200000007}},{"attributes":{"ID":170922,"DIS_CODE":0,"TOWNNAME":"永康區","LI":"南灣里","LIN":"25鄰","STREET":"立興街","SECT":" ","MAREA":" ","LANE":" ","ALLEY":" ","HOUSE_NO":"９６號","E_COORD97":174521.91,"N_COORD97":2544762.6699999999,"ADDRESS":"立興街９６號","OBJECTID":170921},"geometry":{"x":174521.91000000201,"y":2544762.6700000018}},{"attributes":{"ID":170923,"DIS_CODE":0,"TOWNNAME":"後壁區","LI":"烏樹里","LIN":"13鄰","STREET":" ","SECT":" ","MAREA":"烏樹林","LANE":" ","ALLEY":" ","HOUSE_NO":"１９６號之５","E_COORD97":186044,"N_COORD97":2582296.8100000001,"ADDRESS":"烏樹林１９６號之５","OBJECTID":170922},"geometry":{"x":186044.00000000093,"y":2582296.8100000042}},{"attributes":{"ID":170924,"DIS_CODE":0,"TOWNNAME":"後壁區","LI":"烏樹里","LIN":"13鄰","STREET":" ","SECT":" ","MAREA":"烏樹林","LANE":" ","ALLEY":" ","HOUSE_NO":"１９６號","E_COORD97":186040.98999999999,"N_COORD97":2582280.4700000002,"ADDRESS":"烏樹林１９６號","OBJECTID":170923},"geometry":{"x":186040.99000000115,"y":2582280.4700000025}},{"attributes":{"ID":170925,"DIS_CODE":0,"TOWNNAME":"後壁區","LI":"烏樹里","LIN":"13鄰","STREET":" ","SECT":" ","MAREA":"烏樹林","LANE":" ","ALLEY":" ","HOUSE_NO":"１９７號之３","E_COORD97":185952.56,"N_COORD97":2582226.3700000001,"ADDRESS":"烏樹林１９７號之３","OBJECTID":170924},"geometry":{"x":185952.56000000145,"y":2582226.3700000029}},{"attributes":{"ID":170926,"DIS_CODE":0,"TOWNNAME":"後壁區","LI":"烏樹里","LIN":"13鄰","STREET":" ","SECT":" ","MAREA":"烏樹林","LANE":" ","ALLEY":" ","HOUSE_NO":"１９９號之１","E_COORD97":185952.69,"N_COORD97":2582210.8399999999,"ADDRESS":"烏樹林１９９號之１","OBJECTID":170925},"geometry":{"x":185952.69000000227,"y":2582210.839999998}},{"attributes":{"ID":170927,"DIS_CODE":0,"TOWNNAME":"南區","LI":"大林里","LIN":"6鄰","STREET":"大同路","SECT":"二段","MAREA":" ","LANE":"４８２巷","ALLEY":"７２弄","HOUSE_NO":"３２號","E_COORD97":169345.32000000001,"N_COORD97":2541501.3500000001,"ADDRESS":"大同路二段４８２巷７２弄３２號","OBJECTID":170926},"geometry":{"x":169345.3200000003,"y":2541501.3499999996}},{"attributes":{"ID":170928,"DIS_CODE":0,"TOWNNAME":"永康區","LI":"西灣里","LIN":"12鄰","STREET":"大灣五街","SECT":" ","MAREA":" ","LANE":" ","ALLEY":" ","HOUSE_NO":"１９６號","E_COORD97":174431.42999999999,"N_COORD97":2545344.8700000001,"ADDRESS":"大灣五街１９６號","OBJECTID":170927},"geometry":{"x":174431.43000000156,"y":2545344.8699999992}},{"attributes":{"ID":170929,"DIS_CODE":0,"TOWNNAME":"永康區","LI":"永康里","LIN":"12鄰","STREET":"永中街","SECT":" ","MAREA":" ","LANE":" ","ALLEY":" ","HOUSE_NO":"３０號","E_COORD97":173880.04000000001,"N_COORD97":2547087.23,"ADDRESS":"永中街３０號","OBJECTID":170928},"geometry":{"x":173880.0400000019,"y":2547087.2300000004}},{"attributes":{"ID":170930,"DIS_CODE":0,"TOWNNAME":"南區","LI":"大林里","LIN":"6鄰","STREET":"大同路","SECT":"二段","MAREA":" ","LANE":"４８２巷","ALLEY":"７２弄","HOUSE_NO":"３４號","E_COORD97":169349.34,"N_COORD97":2541502.1899999999,"ADDRESS":"大同路二段４８２巷７２弄３４號","OBJECTID":170929},"geometry":{"x":169349.33999999985,"y":2541502.1899999995}},{"attributes":{"ID":170931,"DIS_CODE":0,"TOWNNAME":"南區","LI":"大林里","LIN":"6鄰","STREET":"大同路","SECT":"二段","MAREA":" ","LANE":"４８２巷","ALLEY":"７２弄","HOUSE_NO":"３６號","E_COORD97":169353.14000000001,"N_COORD97":2541503.04,"ADDRESS":"大同路二段４８２巷７２弄３６號","OBJECTID":170930},"geometry":{"x":169353.1400000006,"y":2541503.0399999991}},{"attributes":{"ID":170932,"DIS_CODE":0,"TOWNNAME":"南區","LI":"大林里","LIN":"6鄰","STREET":"大同路","SECT":"二段","MAREA":" ","LANE":"４８２巷","ALLEY":"７２弄","HOUSE_NO":"３８號","E_COORD97":169356.73000000001,"N_COORD97":2541503.8799999999,"ADDRESS":"大同路二段４８２巷７２弄３８號","OBJECTID":170931},"geometry":{"x":169356.73000000138,"y":2541503.879999999}},{"attributes":{"ID":170933,"DIS_CODE":0,"TOWNNAME":"永康區","LI":"永康里","LIN":"12鄰","STREET":"永中街","SECT":" ","MAREA":" ","LANE":" ","ALLEY":" ","HOUSE_NO":"１５號","E_COORD97":173849.84,"N_COORD97":2547086.9900000002,"ADDRESS":"永中街１５號","OBJECTID":170932},"geometry":{"x":173849.84000000078,"y":2547086.9900000021}},{"attributes":{"ID":170934,"DIS_CODE":0,"TOWNNAME":"永康區","LI":"永康里","LIN":"12鄰","STREET":"永康街","SECT":" ","MAREA":" ","LANE":" ","ALLEY":" ","HOUSE_NO":"８６號","E_COORD97":173814.42000000001,"N_COORD97":2547149.9900000002,"ADDRESS":"永康街８６號","OBJECTID":170933},"geometry":{"x":173814.41999999993,"y":2547149.9900000002}},{"attributes":{"ID":170935,"DIS_CODE":0,"TOWNNAME":"永康區","LI":"永康里","LIN":"12鄰","STREET":"永中街","SECT":" ","MAREA":" ","LANE":" ","ALLEY":" ","HOUSE_NO":"３２號","E_COORD97":173881.54000000001,"N_COORD97":2547090.48,"ADDRESS":"永中街３２號","OBJECTID":170934},"geometry":{"x":173881.54000000004,"y":2547090.4800000023}},{"attributes":{"ID":170936,"DIS_CODE":0,"TOWNNAME":"永康區","LI":"永康里","LIN":"12鄰","STREET":"永中街","SECT":" ","MAREA":" ","LANE":" ","ALLEY":" ","HOUSE_NO":"１１號","E_COORD97":173840.54999999999,"N_COORD97":2547072.4199999999,"ADDRESS":"永中街１１號","OBJECTID":170935},"geometry":{"x":173840.54999999981,"y":2547072.4199999981}},{"attributes":{"ID":170937,"DIS_CODE":0,"TOWNNAME":"永康區","LI":"永康里","LIN":"12鄰","STREET":"永中街","SECT":" ","MAREA":" ","LANE":" ","ALLEY":" ","HOUSE_NO":"２６號","E_COORD97":173876.64999999999,"N_COORD97":2547079.48,"ADDRESS":"永中街２６號","OBJECTID":170936},"geometry":{"x":173876.6500000013,"y":2547079.4800000042}},{"attributes":{"ID":170938,"DIS_CODE":0,"TOWNNAME":"永康區","LI":"永康里","LIN":"12鄰","STREET":"永康街","SECT":" ","MAREA":" ","LANE":" ","ALLEY":" ","HOUSE_NO":"９０號","E_COORD97":173823.56,"N_COORD97":2547145.4900000002,"ADDRESS":"永康街９０號","OBJECTID":170937},"geometry":{"x":173823.56000000145,"y":2547145.4900000002}},{"attributes":{"ID":170939,"DIS_CODE":0,"TOWNNAME":"永康區","LI":"永康里","LIN":"12鄰","STREET":"永二街","SECT":" ","MAREA":" ","LANE":" ","ALLEY":" ","HOUSE_NO":"２３號","E_COORD97":173789.17000000001,"N_COORD97":2547093.9399999999,"ADDRESS":"永二街２３號","OBJECTID":170938},"geometry":{"x":173789.16999999899,"y":2547093.9400000013}},{"attributes":{"ID":170940,"DIS_CODE":0,"TOWNNAME":"楠西區","LI":"楠西里","LIN":"24鄰","STREET":"中興路","SECT":" ","MAREA":" ","LANE":"６３巷","ALLEY":"３弄","HOUSE_NO":"８號","E_COORD97":197156.72,"N_COORD97":2564324.8900000001,"ADDRESS":"中興路６３巷３弄８號","OBJECTID":170939},"geometry":{"x":197156.71999999974,"y":2564324.8900000025}},{"attributes":{"ID":170941,"DIS_CODE":0,"TOWNNAME":"楠西區","LI":"楠西里","LIN":"20鄰","STREET":"中興南路","SECT":" ","MAREA":" ","LANE":"８５巷","ALLEY":"２３弄","HOUSE_NO":"８號","E_COORD97":197104.51000000001,"N_COORD97":2563968.25,"ADDRESS":"中興南路８５巷２３弄８號","OBJECTID":170940},"geometry":{"x":197104.51000000071,"y":2563968.2500000037}},{"attributes":{"ID":170942,"DIS_CODE":0,"TOWNNAME":"楠西區","LI":"楠西里","LIN":"20鄰","STREET":"中興南路","SECT":" ","MAREA":" ","LANE":"８５巷","ALLEY":"２３弄","HOUSE_NO":"１號","E_COORD97":197105.81,"N_COORD97":2563981.25,"ADDRESS":"中興南路８５巷２３弄１號","OBJECTID":170941},"geometry":{"x":197105.81000000052,"y":2563981.25}},{"attributes":{"ID":170943,"DIS_CODE":0,"TOWNNAME":"後壁區","LI":"烏樹里","LIN":"13鄰","STREET":" ","SECT":" ","MAREA":"烏樹林","LANE":" ","ALLEY":" ","HOUSE_NO":"３５９號","E_COORD97":186429.14999999999,"N_COORD97":2582349.1499999999,"ADDRESS":"烏樹林３５９號","OBJECTID":170942},"geometry":{"x":186429.15000000224,"y":2582349.1500000022}},{"attributes":{"ID":170944,"DIS_CODE":0,"TOWNNAME":"楠西區","LI":"楠西里","LIN":"20鄰","STREET":"中興南路","SECT":" ","MAREA":" ","LANE":"８５巷","ALLEY":"２３弄","HOUSE_NO":"１１號","E_COORD97":197105.56,"N_COORD97":2563955.25,"ADDRESS":"中興南路８５巷２３弄１１號","OBJECTID":170943},"geometry":{"x":197105.56000000052,"y":2563955.2500000019}},{"attributes":{"ID":170945,"DIS_CODE":0,"TOWNNAME":"楠西區","LI":"楠西里","LIN":"24鄰","STREET":"中興路","SECT":" ","MAREA":" ","LANE":"６３巷","ALLEY":"３弄","HOUSE_NO":"３號","E_COORD97":197146.62,"N_COORD97":2564311.8900000001,"ADDRESS":"中興路６３巷３弄３號","OBJECTID":170944},"geometry":{"x":197146.62000000104,"y":2564311.8900000025}},{"attributes":{"ID":170946,"DIS_CODE":0,"TOWNNAME":"楠西區","LI":"楠西里","LIN":"24鄰","STREET":"中興路","SECT":" ","MAREA":" ","LANE":"６３巷","ALLEY":"２弄","HOUSE_NO":"２號","E_COORD97":197186.81,"N_COORD97":2564375.2400000002,"ADDRESS":"中興路６３巷２弄２號","OBJECTID":170945},"geometry":{"x":197186.81000000052,"y":2564375.2400000039}},{"attributes":{"ID":170947,"DIS_CODE":0,"TOWNNAME":"楠西區","LI":"楠西里","LIN":"13鄰","STREET":"民族路","SECT":" ","MAREA":" ","LANE":"９１巷","ALLEY":"３弄","HOUSE_NO":"５號","E_COORD97":197114.23999999999,"N_COORD97":2564037.29,"ADDRESS":"民族路９１巷３弄５號","OBJECTID":170946},"geometry":{"x":197114.24000000022,"y":2564037.2899999991}},{"attributes":{"ID":170948,"DIS_CODE":0,"TOWNNAME":"楠西區","LI":"楠西里","LIN":"14鄰","STREET":"民族路","SECT":" ","MAREA":" ","LANE":"９１巷","ALLEY":"３弄","HOUSE_NO":"１號","E_COORD97":197089.44,"N_COORD97":2564051.29,"ADDRESS":"民族路９１巷３弄１號","OBJECTID":170947},"geometry":{"x":197089.44000000041,"y":2564051.2899999991}},{"attributes":{"ID":170949,"DIS_CODE":0,"TOWNNAME":"楠西區","LI":"楠西里","LIN":"20鄰","STREET":"中興南路","SECT":" ","MAREA":" ","LANE":"８５巷","ALLEY":"２３弄","HOUSE_NO":"９號","E_COORD97":197104.41,"N_COORD97":2563963.25,"ADDRESS":"中興南路８５巷２３弄９號","OBJECTID":170948},"geometry":{"x":197104.41000000015,"y":2563963.25}},{"attributes":{"ID":170950,"DIS_CODE":0,"TOWNNAME":"楠西區","LI":"楠西里","LIN":"20鄰","STREET":"中興南路","SECT":" ","MAREA":" ","LANE":"８５巷","ALLEY":"２３弄","HOUSE_NO":"１０號","E_COORD97":197105.76000000001,"N_COORD97":2563959.25,"ADDRESS":"中興南路８５巷２３弄１０號","OBJECTID":170949},"geometry":{"x":197105.76000000164,"y":2563959.2500000019}},{"attributes":{"ID":170951,"DIS_CODE":0,"TOWNNAME":"安南區","LI":"\u25A0田里","LIN":"1鄰","STREET":"大眾路","SECT":" ","MAREA":" ","LANE":"１０１巷","ALLEY":"１２７弄","HOUSE_NO":"１０號","E_COORD97":162018.31789899999,"N_COORD97":2547459.1970099998,"ADDRESS":"大眾路１０１巷１２７弄１０號","OBJECTID":170950},"geometry":{"x":162018.31789900083,"y":2547459.1970130019}},{"attributes":{"ID":170952,"DIS_CODE":0,"TOWNNAME":"永康區","LI":"永康里","LIN":"12鄰","STREET":"永康街","SECT":" ","MAREA":" ","LANE":" ","ALLEY":" ","HOUSE_NO":"１０２號","E_COORD97":173853.64999999999,"N_COORD97":2547129.9900000002,"ADDRESS":"永康街１０２號","OBJECTID":170951},"geometry":{"x":173853.65000000037,"y":2547129.9899999984}},{"attributes":{"ID":170953,"DIS_CODE":0,"TOWNNAME":"永康區","LI":"南灣里","LIN":"18鄰","STREET":"立興街","SECT":" ","MAREA":" ","LANE":" ","ALLEY":" ","HOUSE_NO":"１３６號","E_COORD97":174421.44,"N_COORD97":2544678.7999999998,"ADDRESS":"立興街１３６號","OBJECTID":170952},"geometry":{"x":174421.44000000041,"y":2544678.8000000026}},{"attributes":{"ID":170954,"DIS_CODE":0,"TOWNNAME":"後壁區","LI":"烏樹里","LIN":"13鄰","STREET":" ","SECT":" ","MAREA":"烏樹林","LANE":" ","ALLEY":" ","HOUSE_NO":"１９９號之３","E_COORD97":185953.23000000001,"N_COORD97":2582205.1400000001,"ADDRESS":"烏樹林１９９號之３","OBJECTID":170953},"geometry":{"x":185953.23000000045,"y":2582205.1400000006}},{"attributes":{"ID":170955,"DIS_CODE":0,"TOWNNAME":"後壁區","LI":"烏樹里","LIN":"13鄰","STREET":" ","SECT":" ","MAREA":"烏樹林","LANE":" ","ALLEY":" ","HOUSE_NO":"１９９號之４","E_COORD97":185953.14999999999,"N_COORD97":2582200.4399999999,"ADDRESS":"烏樹林１９９號之４","OBJECTID":170954},"geometry":{"x":185953.1500000013,"y":2582200.4400000013}},{"attributes":{"ID":170956,"DIS_CODE":0,"TOWNNAME":"後壁區","LI":"烏樹里","LIN":"13鄰","STREET":" ","SECT":" ","MAREA":"烏樹林","LANE":" ","ALLEY":" ","HOUSE_NO":"２０２號","E_COORD97":185952.81,"N_COORD97":2582195.3199999998,"ADDRESS":"烏樹林２０２號","OBJECTID":170955},"geometry":{"x":185952.81000000052,"y":2582195.3200000022}},{"attributes":{"ID":170957,"DIS_CODE":0,"TOWNNAME":"後壁區","LI":"烏樹里","LIN":"13鄰","STREET":" ","SECT":" ","MAREA":"烏樹林","LANE":" ","ALLEY":" ","HOUSE_NO":"２０３號之１","E_COORD97":185932.95000000001,"N_COORD97":2582220.9300000002,"ADDRESS":"烏樹林２０３號之１","OBJECTID":170956},"geometry":{"x":185932.95000000019,"y":2582220.9300000016}},{"attributes":{"ID":170958,"DIS_CODE":0,"TOWNNAME":"後壁區","LI":"烏樹里","LIN":"13鄰","STREET":" ","SECT":" ","MAREA":"烏樹林","LANE":" ","ALLEY":" ","HOUSE_NO":"２０３號之２","E_COORD97":185933.01000000001,"N_COORD97":2582216.04,"ADDRESS":"烏樹林２０３號之２","OBJECTID":170957},"geometry":{"x":185933.01000000071,"y":2582216.040000001}},{"attributes":{"ID":170959,"DIS_CODE":0,"TOWNNAME":"後壁區","LI":"烏樹里","LIN":"13鄰","STREET":" ","SECT":" ","MAREA":"烏樹林","LANE":" ","ALLEY":" ","HOUSE_NO":"２０５號之３","E_COORD97":185935.35999999999,"N_COORD97":2582196.3599999999,"ADDRESS":"烏樹林２０５號之３","OBJECTID":170958},"geometry":{"x":185935.36000000034,"y":2582196.3599999994}},{"attributes":{"ID":170960,"DIS_CODE":0,"TOWNNAME":"後壁區","LI":"烏樹里","LIN":"13鄰","STREET":" ","SECT":" ","MAREA":"烏樹林","LANE":" ","ALLEY":" ","HOUSE_NO":"２０６號之１","E_COORD97":185933.87,"N_COORD97":2582226.4399999999,"ADDRESS":"烏樹林２０６號之１","OBJECTID":170959},"geometry":{"x":185933.87000000011,"y":2582226.4399999995}},{"attributes":{"ID":170961,"DIS_CODE":0,"TOWNNAME":"學甲區","LI":"三慶里","LIN":"7鄰","STREET":" ","SECT":" ","MAREA":"頂洲","LANE":" ","ALLEY":" ","HOUSE_NO":"８７號","E_COORD97":168543.79000000001,"N_COORD97":2576300.6299999999,"ADDRESS":"頂洲８７號","OBJECTID":170960},"geometry":{"x":168543.79000000097,"y":2576300.629999999}},{"attributes":{"ID":170962,"DIS_CODE":0,"TOWNNAME":"後壁區","LI":"烏樹里","LIN":"13鄰","STREET":" ","SECT":" ","MAREA":"烏樹林","LANE":" ","ALLEY":" ","HOUSE_NO":"２０６號之２","E_COORD97":185936.51999999999,"N_COORD97":2582234.1600000001,"ADDRESS":"烏樹林２０６號之２","OBJECTID":170961},"geometry":{"x":185936.52000000048,"y":2582234.160000002}},{"attributes":{"ID":170963,"DIS_CODE":0,"TOWNNAME":"後壁區","LI":"烏樹里","LIN":"13鄰","STREET":" ","SECT":" ","MAREA":"烏樹林","LANE":" ","ALLEY":" ","HOUSE_NO":"２６０號","E_COORD97":186166.67999999999,"N_COORD97":2582189.3900000001,"ADDRESS":"烏樹林２６０號","OBJECTID":170962},"geometry":{"x":186166.6799999997,"y":2582189.3900000025}},{"attributes":{"ID":170964,"DIS_CODE":0,"TOWNNAME":"後壁區","LI":"烏樹里","LIN":"13鄰","STREET":" ","SECT":" ","MAREA":"烏樹林","LANE":" ","ALLEY":" ","HOUSE_NO":"２６２號","E_COORD97":186224.78,"N_COORD97":2582180.3599999999,"ADDRESS":"烏樹林２６２號","OBJECTID":170963},"geometry":{"x":186224.78000000212,"y":2582180.3600000013}},{"attributes":{"ID":170965,"DIS_CODE":0,"TOWNNAME":"後壁區","LI":"烏樹里","LIN":"13鄰","STREET":" ","SECT":" ","MAREA":"烏樹林","LANE":" ","ALLEY":" ","HOUSE_NO":"２７０號","E_COORD97":186333.01999999999,"N_COORD97":2582165.79,"ADDRESS":"烏樹林２７０號","OBJECTID":170964},"geometry":{"x":186333.02000000048,"y":2582165.7899999991}},{"attributes":{"ID":170966,"DIS_CODE":0,"TOWNNAME":"南區","LI":"大恩里","LIN":"11鄰","STREET":"大同路","SECT":"二段","MAREA":" ","LANE":"７５０巷","ALLEY":"１０６弄","HOUSE_NO":"１號","E_COORD97":169257.26000000001,"N_COORD97":2540734.0899999999,"ADDRESS":"大同路二段７５０巷１０６弄１號","OBJECTID":170965},"geometry":{"x":169257.26000000164,"y":2540734.0899999999}},{"attributes":{"ID":170967,"DIS_CODE":0,"TOWNNAME":"後壁區","LI":"烏樹里","LIN":"13鄰","STREET":" ","SECT":" ","MAREA":"烏樹林","LANE":" ","ALLEY":" ","HOUSE_NO":"２７６號","E_COORD97":186191.42999999999,"N_COORD97":2582378.8900000001,"ADDRESS":"烏樹林２７６號","OBJECTID":170966},"geometry":{"x":186191.43000000063,"y":2582378.8900000025}},{"attributes":{"ID":170968,"DIS_CODE":0,"TOWNNAME":"南區","LI":"大恩里","LIN":"3鄰","STREET":"國民路","SECT":" ","MAREA":" ","LANE":"１１６巷","ALLEY":"６弄","HOUSE_NO":"１號","E_COORD97":169311.82000000001,"N_COORD97":2540942.9199999999,"ADDRESS":"國民路１１６巷６弄１號","OBJECTID":170967},"geometry":{"x":169311.82000000123,"y":2540942.9200000037}},{"attributes":{"ID":170969,"DIS_CODE":0,"TOWNNAME":"南區","LI":"大恩里","LIN":"17鄰","STREET":"國民路","SECT":" ","MAREA":" ","LANE":"１６５巷","ALLEY":"２１弄","HOUSE_NO":"１５號","E_COORD97":169234.95999999999,"N_COORD97":2540809.27,"ADDRESS":"國民路１６５巷２１弄１５號","OBJECTID":170968},"geometry":{"x":169234.95999999996,"y":2540809.2700000014}},{"attributes":{"ID":170970,"DIS_CODE":0,"TOWNNAME":"後壁區","LI":"烏樹里","LIN":"13鄰","STREET":" ","SECT":" ","MAREA":"烏樹林","LANE":" ","ALLEY":" ","HOUSE_NO":"２７７號","E_COORD97":186243.70999999999,"N_COORD97":2582372.8100000001,"ADDRESS":"烏樹林２７７號","OBJECTID":170969},"geometry":{"x":186243.71000000089,"y":2582372.8100000024}},{"attributes":{"ID":170971,"DIS_CODE":0,"TOWNNAME":"後壁區","LI":"烏樹里","LIN":"13鄰","STREET":" ","SECT":" ","MAREA":"烏樹林","LANE":" ","ALLEY":" ","HOUSE_NO":"２７８號","E_COORD97":186295.98999999999,"N_COORD97":2582366.73,"ADDRESS":"烏樹林２７８號","OBJECTID":170970},"geometry":{"x":186295.99000000022,"y":2582366.7300000004}},{"attributes":{"ID":170972,"DIS_CODE":0,"TOWNNAME":"後壁區","LI":"烏樹里","LIN":"13鄰","STREET":" ","SECT":" ","MAREA":"烏樹林","LANE":" ","ALLEY":" ","HOUSE_NO":"２７９號","E_COORD97":186348.26000000001,"N_COORD97":2582360.6499999999,"ADDRESS":"烏樹林２７９號","OBJECTID":170971},"geometry":{"x":186348.26000000164,"y":2582360.6500000004}},{"attributes":{"ID":170973,"DIS_CODE":0,"TOWNNAME":"後壁區","LI":"烏樹里","LIN":"13鄰","STREET":" ","SECT":" ","MAREA":"烏樹林","LANE":" ","ALLEY":" ","HOUSE_NO":"３２５號","E_COORD97":186454.64999999999,"N_COORD97":2582069.23,"ADDRESS":"烏樹林３２５號","OBJECTID":170972},"geometry":{"x":186454.65000000224,"y":2582069.2300000004}},{"attributes":{"ID":170974,"DIS_CODE":0,"TOWNNAME":"後壁區","LI":"烏樹里","LIN":"13鄰","STREET":" ","SECT":" ","MAREA":"烏樹林","LANE":" ","ALLEY":" ","HOUSE_NO":"３２８號","E_COORD97":186407.60000000001,"N_COORD97":2582168.1099999999,"ADDRESS":"烏樹林３２８號","OBJECTID":170973},"geometry":{"x":186407.59999999963,"y":2582168.1100000031}},{"attributes":{"ID":170975,"DIS_CODE":0,"TOWNNAME":"後壁區","LI":"烏樹里","LIN":"13鄰","STREET":" ","SECT":" ","MAREA":"烏樹林","LANE":" ","ALLEY":" ","HOUSE_NO":"３３０號","E_COORD97":186441.59,"N_COORD97":2582163.75,"ADDRESS":"烏樹林３３０號","OBJECTID":170974},"geometry":{"x":186441.59000000078,"y":2582163.75}},{"attributes":{"ID":170976,"DIS_CODE":0,"TOWNNAME":"後壁區","LI":"烏樹里","LIN":"13鄰","STREET":" ","SECT":" ","MAREA":"烏樹林","LANE":" ","ALLEY":" ","HOUSE_NO":"３５１號","E_COORD97":186638.79999999999,"N_COORD97":2582229.6899999999,"ADDRESS":"烏樹林３５１號","OBJECTID":170975},"geometry":{"x":186638.79999999981,"y":2582229.6900000013}},{"attributes":{"ID":170977,"DIS_CODE":0,"TOWNNAME":"後壁區","LI":"烏樹里","LIN":"13鄰","STREET":" ","SECT":" ","MAREA":"烏樹林","LANE":" ","ALLEY":" ","HOUSE_NO":"３５２號","E_COORD97":186668.64999999999,"N_COORD97":2582230.2999999998,"ADDRESS":"烏樹林３５２號","OBJECTID":170976},"geometry":{"x":186668.6500000013,"y":2582230.3000000026}},{"attributes":{"ID":170978,"DIS_CODE":0,"TOWNNAME":"後壁區","LI":"烏樹里","LIN":"13鄰","STREET":" ","SECT":" ","MAREA":"烏樹林","LANE":" ","ALLEY":" ","HOUSE_NO":"３５３號","E_COORD97":186697.62,"N_COORD97":2582222.96,"ADDRESS":"烏樹林３５３號","OBJECTID":170977},"geometry":{"x":186697.62000000104,"y":2582222.9600000028}},{"attributes":{"ID":170979,"DIS_CODE":0,"TOWNNAME":"後壁區","LI":"烏樹里","LIN":"13鄰","STREET":" ","SECT":" ","MAREA":"烏樹林","LANE":" ","ALLEY":" ","HOUSE_NO":"３６５號","E_COORD97":186436,"N_COORD97":2582460.48,"ADDRESS":"烏樹林３６５號","OBJECTID":170978},"geometry":{"x":186436,"y":2582460.4800000004}},{"attributes":{"ID":170980,"DIS_CODE":0,"TOWNNAME":"後壁區","LI":"烏樹里","LIN":"13鄰","STREET":" ","SECT":" ","MAREA":"烏樹林","LANE":" ","ALLEY":" ","HOUSE_NO":"３７３號","E_COORD97":186453.57999999999,"N_COORD97":2582580.0099999998,"ADDRESS":"烏樹林３７３號","OBJECTID":170979},"geometry":{"x":186453.58000000101,"y":2582580.0100000016}},{"attributes":{"ID":170981,"DIS_CODE":0,"TOWNNAME":"將軍區","LI":"長榮里","LIN":"13鄰","STREET":" ","SECT":" ","MAREA":"長榮","LANE":" ","ALLEY":" ","HOUSE_NO":"２１５之７號","E_COORD97":163765.20999999999,"N_COORD97":2566091.6699999999,"ADDRESS":"長榮２１５之７號","OBJECTID":170980},"geometry":{"x":163765.20999999996,"y":2566091.6700000018}},{"attributes":{"ID":170982,"DIS_CODE":0,"TOWNNAME":"將軍區","LI":"長榮里","LIN":"13鄰","STREET":" ","SECT":" ","MAREA":"長榮","LANE":" ","ALLEY":" ","HOUSE_NO":"２１５之８號","E_COORD97":163760.29000000001,"N_COORD97":2566091.52,"ADDRESS":"長榮２１５之８號","OBJECTID":170981},"geometry":{"x":163760.29000000097,"y":2566091.5200000033}},{"attributes":{"ID":170983,"DIS_CODE":0,"TOWNNAME":"將軍區","LI":"長榮里","LIN":"13鄰","STREET":" ","SECT":" ","MAREA":"長榮","LANE":" ","ALLEY":" ","HOUSE_NO":"２１５之９號","E_COORD97":163755.37,"N_COORD97":2566092.25,"ADDRESS":"長榮２１５之９號","OBJECTID":170982},"geometry":{"x":163755.37000000011,"y":2566092.25}},{"attributes":{"ID":170984,"DIS_CODE":0,"TOWNNAME":"將軍區","LI":"長榮里","LIN":"13鄰","STREET":" ","SECT":" ","MAREA":"長榮","LANE":" ","ALLEY":" ","HOUSE_NO":"２１６號","E_COORD97":163806.14999999999,"N_COORD97":2566089.75,"ADDRESS":"長榮２１６號","OBJECTID":170983},"geometry":{"x":163806.15000000037,"y":2566089.75}},{"attributes":{"ID":170985,"DIS_CODE":0,"TOWNNAME":"將軍區","LI":"長榮里","LIN":"13鄰","STREET":" ","SECT":" ","MAREA":"長榮","LANE":" ","ALLEY":" ","HOUSE_NO":"２１７號","E_COORD97":163806.07999999999,"N_COORD97":2566095.21,"ADDRESS":"長榮２１７號","OBJECTID":170984},"geometry":{"x":163806.08000000101,"y":2566095.2100000046}},{"attributes":{"ID":170986,"DIS_CODE":0,"TOWNNAME":"南區","LI":"大恩里","LIN":"17鄰","STREET":"國民路","SECT":" ","MAREA":" ","LANE":"１６５巷","ALLEY":"２１弄","HOUSE_NO":"１７號","E_COORD97":169240.22,"N_COORD97":2540807.4399999999,"ADDRESS":"國民路１６５巷２１弄１７號","OBJECTID":170985},"geometry":{"x":169240.21999999974,"y":2540807.4400000013}},{"attributes":{"ID":170987,"DIS_CODE":0,"TOWNNAME":"南區","LI":"大恩里","LIN":"17鄰","STREET":"國民路","SECT":" ","MAREA":" ","LANE":"１６５巷","ALLEY":"２１弄","HOUSE_NO":"１９號","E_COORD97":169246.23999999999,"N_COORD97":2540805.5099999998,"ADDRESS":"國民路１６５巷２１弄１９號","OBJECTID":170986},"geometry":{"x":169246.24000000115,"y":2540805.5099999998}},{"attributes":{"ID":170988,"DIS_CODE":0,"TOWNNAME":"將軍區","LI":"長榮里","LIN":"13鄰","STREET":" ","SECT":" ","MAREA":"長榮","LANE":" ","ALLEY":" ","HOUSE_NO":"２１８號","E_COORD97":163805.95999999999,"N_COORD97":2566099.7400000002,"ADDRESS":"長榮２１８號","OBJECTID":170987},"geometry":{"x":163805.95999999903,"y":2566099.7400000002}},{"attributes":{"ID":170989,"DIS_CODE":0,"TOWNNAME":"將軍區","LI":"長榮里","LIN":"13鄰","STREET":" ","SECT":" ","MAREA":"長榮","LANE":" ","ALLEY":" ","HOUSE_NO":"２２０號","E_COORD97":163799.38,"N_COORD97":2566110.5600000001,"ADDRESS":"長榮２２０號","OBJECTID":170988},"geometry":{"x":163799.37999999989,"y":2566110.5600000024}},{"attributes":{"ID":170990,"DIS_CODE":0,"TOWNNAME":"將軍區","LI":"長榮里","LIN":"13鄰","STREET":" ","SECT":" ","MAREA":"長榮","LANE":" ","ALLEY":" ","HOUSE_NO":"２２１號","E_COORD97":163799.42000000001,"N_COORD97":2566114.9199999999,"ADDRESS":"長榮２２１號","OBJECTID":170989},"geometry":{"x":163799.41999999899,"y":2566114.9199999999}},{"attributes":{"ID":170991,"DIS_CODE":0,"TOWNNAME":"將軍區","LI":"長榮里","LIN":"13鄰","STREET":" ","SECT":" ","MAREA":"長榮","LANE":" ","ALLEY":" ","HOUSE_NO":"２２７之１號","E_COORD97":163709.63,"N_COORD97":2566108.2799999998,"ADDRESS":"長榮２２７之１號","OBJECTID":170990},"geometry":{"x":163709.62999999989,"y":2566108.2799999993}},{"attributes":{"ID":170992,"DIS_CODE":0,"TOWNNAME":"將軍區","LI":"長榮里","LIN":"13鄰","STREET":" ","SECT":" ","MAREA":"長榮","LANE":" ","ALLEY":" ","HOUSE_NO":"２２７之２號","E_COORD97":163709.64999999999,"N_COORD97":2566103.4900000002,"ADDRESS":"長榮２２７之２號","OBJECTID":170991},"geometry":{"x":163709.65000000037,"y":2566103.4900000021}},{"attributes":{"ID":170993,"DIS_CODE":0,"TOWNNAME":"將軍區","LI":"長榮里","LIN":"13鄰","STREET":" ","SECT":" ","MAREA":"長榮","LANE":" ","ALLEY":" ","HOUSE_NO":"２２７之３號","E_COORD97":163709.67000000001,"N_COORD97":2566098.7000000002,"ADDRESS":"長榮２２７之３號","OBJECTID":170992},"geometry":{"x":163709.67000000179,"y":2566098.6999999993}},{"attributes":{"ID":170994,"DIS_CODE":0,"TOWNNAME":"將軍區","LI":"長榮里","LIN":"13鄰","STREET":" ","SECT":" ","MAREA":"長榮","LANE":" ","ALLEY":" ","HOUSE_NO":"２２７之５號","E_COORD97":163709.72,"N_COORD97":2566089.1099999999,"ADDRESS":"長榮２２７之５號","OBJECTID":170993},"geometry":{"x":163709.72000000067,"y":2566089.1100000013}},{"attributes":{"ID":170995,"DIS_CODE":0,"TOWNNAME":"安定區","LI":"保西里","LIN":"12鄰","STREET":" ","SECT":" ","MAREA":"安定","LANE":" ","ALLEY":" ","HOUSE_NO":"４４７號之３","E_COORD97":171765.01919299999,"N_COORD97":2557971.0048199999,"ADDRESS":"安定４４７號之３","OBJECTID":170994},"geometry":{"x":171765.01919300109,"y":2557971.0048190001}},{"attributes":{"ID":170996,"DIS_CODE":0,"TOWNNAME":"安定區","LI":"六嘉里","LIN":"12鄰","STREET":" ","SECT":" ","MAREA":"六塊寮","LANE":" ","ALLEY":" ","HOUSE_NO":"１５６之２號","E_COORD97":170114.76999999999,"N_COORD97":2552706.2999999998,"ADDRESS":"六塊寮１５６之２號","OBJECTID":170995},"geometry":{"x":170114.77000000142,"y":2552706.3000000026}},{"attributes":{"ID":170997,"DIS_CODE":0,"TOWNNAME":"安定區","LI":"保西里","LIN":"12鄰","STREET":" ","SECT":" ","MAREA":"安定","LANE":" ","ALLEY":" ","HOUSE_NO":"４５０號","E_COORD97":171777.01999999999,"N_COORD97":2558007.3199999998,"ADDRESS":"安定４５０號","OBJECTID":170996},"geometry":{"x":171777.01999999955,"y":2558007.3200000003}},{"attributes":{"ID":170998,"DIS_CODE":0,"TOWNNAME":"南區","LI":"大恩里","LIN":"17鄰","STREET":"國民路","SECT":" ","MAREA":" ","LANE":"１６５巷","ALLEY":"２１弄","HOUSE_NO":"１號","E_COORD97":169194.34,"N_COORD97":2540820.1200000001,"ADDRESS":"國民路１６５巷２１弄１號","OBJECTID":170997},"geometry":{"x":169194.34000000078,"y":2540820.120000001}},{"attributes":{"ID":170999,"DIS_CODE":0,"TOWNNAME":"南區","LI":"大恩里","LIN":"17鄰","STREET":"國民路","SECT":" ","MAREA":" ","LANE":"１６５巷","ALLEY":"２１弄","HOUSE_NO":"２１號","E_COORD97":169252.67999999999,"N_COORD97":2540804.3300000001,"ADDRESS":"國民路１６５巷２１弄２１號","OBJECTID":170998},"geometry":{"x":169252.68000000156,"y":2540804.3300000001}},{"attributes":{"ID":171000,"DIS_CODE":0,"TOWNNAME":"南區","LI":"大恩里","LIN":"13鄰","STREET":"國民路","SECT":" ","MAREA":" ","LANE":"１６５巷","ALLEY":"２２弄","HOUSE_NO":"１１號","E_COORD97":169116.82000000001,"N_COORD97":2540822.7999999998,"ADDRESS":"國民路１６５巷２２弄１１號","OBJECTID":170999},"geometry":{"x":169116.82000000123,"y":2540822.8000000026}},{"attributes":{"ID":171001,"DIS_CODE":0,"TOWNNAME":"新營區","LI":"南紙里","LIN":"26鄰","STREET":"建業路","SECT":" ","MAREA":" ","LANE":"２２７巷","ALLEY":"２２弄","HOUSE_NO":"２４號","E_COORD97":178050.67999999999,"N_COORD97":2577378.2599999998,"ADDRESS":"建業路２２７巷２２弄２４號","OBJECTID":171000},"geometry":{"x":178050.68000000156,"y":2577378.2600000016}}]}