{"displayFieldName":"TOWNNAME","fieldAliases":{"ID":"ID","DIS_CODE":"DIS_CODE","TOWNNAME":"TOWNNAME","LI":"LI","LIN":"LIN","STREET":"STREET","SECT":"SECT","MAREA":"MAREA","LANE":"LANE","ALLEY":"ALLEY","HOUSE_NO":"HOUSE_NO","E_COORD97":"E_COORD97","N_COORD97":"N_COORD97","ADDRESS":"ADDRESS","OBJECTID":"OBJECTID"},"geometryType":"esriGeometryPoint","spatialReference":{"wkid":102443,"latestWkid":3826},"fields":[{"name":"ID","type":"esriFieldTypeDouble","alias":"ID"},{"name":"DIS_CODE","type":"esriFieldTypeInteger","alias":"DIS_CODE"},{"name":"TOWNNAME","type":"esriFieldTypeString","alias":"TOWNNAME","length":8},{"name":"LI","type":"esriFieldTypeString","alias":"LI","length":8},{"name":"LIN","type":"esriFieldTypeString","alias":"LIN","length":12},{"name":"STREET","type":"esriFieldTypeString","alias":"STREET","length":20},{"name":"SECT","type":"esriFieldTypeString","alias":"SECT","length":8},{"name":"MAREA","type":"esriFieldTypeString","alias":"MAREA","length":12},{"name":"LANE","type":"esriFieldTypeString","alias":"LANE","length":10},{"name":"ALLEY","type":"esriFieldTypeString","alias":"ALLEY","length":10},{"name":"HOUSE_NO","type":"esriFieldTypeString","alias":"HOUSE_NO","length":20},{"name":"E_COORD97","type":"esriFieldTypeDouble","alias":"E_COORD97"},{"name":"N_COORD97","type":"esriFieldTypeDouble","alias":"N_COORD97"},{"name":"ADDRESS","type":"esriFieldTypeString","alias":"ADDRESS","length":50},{"name":"OBJECTID","type":"esriFieldTypeOID","alias":"OBJECTID"}],"features":[{"attributes":{"ID":509028,"DIS_CODE":0,"TOWNNAME":"東區","LI":"裕農里","LIN":"15鄰","STREET":"裕豐街","SECT":" ","MAREA":" ","LANE":" ","ALLEY":" ","HOUSE_NO":"２０８號","E_COORD97":170789.57000000001,"N_COORD97":2543148.6000000001,"ADDRESS":"裕豐街２０８號","OBJECTID":509001},"geometry":{"x":170789.5700000003,"y":2543148.6000000034}},{"attributes":{"ID":509029,"DIS_CODE":0,"TOWNNAME":"東區","LI":"泉南里","LIN":"15鄰","STREET":"光華街","SECT":" ","MAREA":" ","LANE":" ","ALLEY":" ","HOUSE_NO":"１１３號","E_COORD97":169779.07999999999,"N_COORD97":2542839.2599999998,"ADDRESS":"光華街１１３號","OBJECTID":509002},"geometry":{"x":169779.07999999914,"y":2542839.2600000035}},{"attributes":{"ID":509030,"DIS_CODE":0,"TOWNNAME":"東區","LI":"泉南里","LIN":"15鄰","STREET":"光華街","SECT":" ","MAREA":" ","LANE":" ","ALLEY":" ","HOUSE_NO":"１１５號","E_COORD97":169771.87,"N_COORD97":2542841.3199999998,"ADDRESS":"光華街１１５號","OBJECTID":509003},"geometry":{"x":169771.87000000011,"y":2542841.3200000003}},{"attributes":{"ID":509031,"DIS_CODE":0,"TOWNNAME":"東區","LI":"泉南里","LIN":"15鄰","STREET":"光華街","SECT":" ","MAREA":" ","LANE":" ","ALLEY":" ","HOUSE_NO":"１１７號","E_COORD97":169765.70000000001,"N_COORD97":2542842.1400000001,"ADDRESS":"光華街１１７號","OBJECTID":509004},"geometry":{"x":169765.70000000112,"y":2542842.1400000025}},{"attributes":{"ID":509032,"DIS_CODE":0,"TOWNNAME":"東區","LI":"新東里","LIN":"15鄰","STREET":"裕豐街","SECT":" ","MAREA":" ","LANE":" ","ALLEY":" ","HOUSE_NO":"１３７號","E_COORD97":170754.84,"N_COORD97":2543079.9199999999,"ADDRESS":"裕豐街１３７號","OBJECTID":509005},"geometry":{"x":170754.83999999985,"y":2543079.9200000018}},{"attributes":{"ID":509033,"DIS_CODE":0,"TOWNNAME":"東區","LI":"新東里","LIN":"15鄰","STREET":"裕豐街","SECT":" ","MAREA":" ","LANE":" ","ALLEY":" ","HOUSE_NO":"１４１號","E_COORD97":170759.60999999999,"N_COORD97":2543094.7599999998,"ADDRESS":"裕豐街１４１號","OBJECTID":509006},"geometry":{"x":170759.61000000127,"y":2543094.7600000016}},{"attributes":{"ID":509034,"DIS_CODE":0,"TOWNNAME":"東區","LI":"崇德里","LIN":"15鄰","STREET":"崇明十三街","SECT":" ","MAREA":" ","LANE":" ","ALLEY":" ","HOUSE_NO":"２２號","E_COORD97":170516.82999999999,"N_COORD97":2541610.0899999999,"ADDRESS":"崇明十三街２２號","OBJECTID":509007},"geometry":{"x":170516.83000000101,"y":2541610.0900000017}},{"attributes":{"ID":509035,"DIS_CODE":0,"TOWNNAME":"永康區","LI":"\u25A0行里","LIN":"15鄰","STREET":"中正南路","SECT":" ","MAREA":" ","LANE":" ","ALLEY":" ","HOUSE_NO":"７４２號","E_COORD97":171734.22,"N_COORD97":2548954.7400000002,"ADDRESS":"中正南路７４２號","OBJECTID":509008},"geometry":{"x":171734.2200000016,"y":2548954.7400000002}},{"attributes":{"ID":509036,"DIS_CODE":0,"TOWNNAME":"永康區","LI":"\u25A0行里","LIN":"15鄰","STREET":"中正南路","SECT":" ","MAREA":" ","LANE":" ","ALLEY":" ","HOUSE_NO":"７３０號","E_COORD97":171711.17999999999,"N_COORD97":2548937.75,"ADDRESS":"中正南路７３０號","OBJECTID":509009},"geometry":{"x":171711.18000000063,"y":2548937.75}},{"attributes":{"ID":509037,"DIS_CODE":0,"TOWNNAME":"永康區","LI":"\u25A0行里","LIN":"15鄰","STREET":"中正南路","SECT":" ","MAREA":" ","LANE":" ","ALLEY":" ","HOUSE_NO":"７３２號","E_COORD97":171714.76000000001,"N_COORD97":2548940.5,"ADDRESS":"中正南路７３２號","OBJECTID":509010},"geometry":{"x":171714.75999999978,"y":2548940.5000000037}},{"attributes":{"ID":509038,"DIS_CODE":0,"TOWNNAME":"永康區","LI":"\u25A0行里","LIN":"15鄰","STREET":"中正南路","SECT":" ","MAREA":" ","LANE":" ","ALLEY":" ","HOUSE_NO":"７３８號","E_COORD97":171724.17999999999,"N_COORD97":2548949.4900000002,"ADDRESS":"中正南路７３８號","OBJECTID":509011},"geometry":{"x":171724.18000000156,"y":2548949.4900000002}},{"attributes":{"ID":509039,"DIS_CODE":0,"TOWNNAME":"永康區","LI":"中華里","LIN":"15鄰","STREET":"華興街","SECT":" ","MAREA":" ","LANE":" ","ALLEY":" ","HOUSE_NO":"１０７號","E_COORD97":171779.23999999999,"N_COORD97":2544541.0699999998,"ADDRESS":"華興街１０７號","OBJECTID":509012},"geometry":{"x":171779.24000000115,"y":2544541.0700000022}},{"attributes":{"ID":509040,"DIS_CODE":0,"TOWNNAME":"永康區","LI":"中華里","LIN":"15鄰","STREET":"華興街","SECT":" ","MAREA":" ","LANE":" ","ALLEY":" ","HOUSE_NO":"１０９號","E_COORD97":171758.85000000001,"N_COORD97":2544562.6000000001,"ADDRESS":"華興街１０９號","OBJECTID":509013},"geometry":{"x":171758.85000000056,"y":2544562.6000000015}},{"attributes":{"ID":509041,"DIS_CODE":0,"TOWNNAME":"永康區","LI":"\u25A0行里","LIN":"15鄰","STREET":"中正南路","SECT":" ","MAREA":" ","LANE":" ","ALLEY":" ","HOUSE_NO":"７５２號","E_COORD97":171747.82000000001,"N_COORD97":2548967.2400000002,"ADDRESS":"中正南路７５２號","OBJECTID":509014},"geometry":{"x":171747.82000000123,"y":2548967.2400000021}},{"attributes":{"ID":509042,"DIS_CODE":0,"TOWNNAME":"麻豆區","LI":"\u25A0江里","LIN":"15鄰","STREET":"信義路","SECT":" ","MAREA":" ","LANE":" ","ALLEY":" ","HOUSE_NO":"１６號之４","E_COORD97":173421.54000000001,"N_COORD97":2564608.7000000002,"ADDRESS":"信義路１６號之４","OBJECTID":509015},"geometry":{"x":173421.54000000097,"y":2564608.700000003}},{"attributes":{"ID":509043,"DIS_CODE":0,"TOWNNAME":"新營區","LI":"大宏里","LIN":"26鄰","STREET":"民族路","SECT":" ","MAREA":" ","LANE":" ","ALLEY":" ","HOUSE_NO":"１１號之１","E_COORD97":180288.82999999999,"N_COORD97":2578450.7000000002,"ADDRESS":"民族路１１號之１","OBJECTID":509016},"geometry":{"x":180288.83000000007,"y":2578450.6999999993}},{"attributes":{"ID":509044,"DIS_CODE":0,"TOWNNAME":"新營區","LI":"大宏里","LIN":"26鄰","STREET":"民族路","SECT":" ","MAREA":" ","LANE":" ","ALLEY":" ","HOUSE_NO":"１１號之３","E_COORD97":180261.26999999999,"N_COORD97":2578445.2999999998,"ADDRESS":"民族路１１號之３","OBJECTID":509017},"geometry":{"x":180261.26999999955,"y":2578445.2999999989}},{"attributes":{"ID":509045,"DIS_CODE":0,"TOWNNAME":"麻豆區","LI":"\u25A0江里","LIN":"15鄰","STREET":"信義路","SECT":" ","MAREA":" ","LANE":" ","ALLEY":" ","HOUSE_NO":"１４號之２","E_COORD97":173399.70000000001,"N_COORD97":2564607.8799999999,"ADDRESS":"信義路１４號之２","OBJECTID":509018},"geometry":{"x":173399.70000000112,"y":2564607.8800000008}},{"attributes":{"ID":509046,"DIS_CODE":0,"TOWNNAME":"麻豆區","LI":"\u25A0江里","LIN":"15鄰","STREET":"信義路","SECT":" ","MAREA":" ","LANE":" ","ALLEY":" ","HOUSE_NO":"１４號","E_COORD97":173381.12,"N_COORD97":2564608.3999999999,"ADDRESS":"信義路１４號","OBJECTID":509019},"geometry":{"x":173381.11999999918,"y":2564608.4000000041}},{"attributes":{"ID":509047,"DIS_CODE":0,"TOWNNAME":"麻豆區","LI":"\u25A0江里","LIN":"15鄰","STREET":"信義路","SECT":" ","MAREA":" ","LANE":" ","ALLEY":" ","HOUSE_NO":"１６號之１","E_COORD97":173407.53,"N_COORD97":2564608.6499999999,"ADDRESS":"信義路１６號之１","OBJECTID":509020},"geometry":{"x":173407.53000000212,"y":2564608.6500000004}},{"attributes":{"ID":509048,"DIS_CODE":0,"TOWNNAME":"新營區","LI":"大宏里","LIN":"21鄰","STREET":"大同路","SECT":" ","MAREA":" ","LANE":" ","ALLEY":" ","HOUSE_NO":"３１之１號","E_COORD97":180702.64000000001,"N_COORD97":2578697.9300000002,"ADDRESS":"大同路３１之１號","OBJECTID":509021},"geometry":{"x":180702.6400000006,"y":2578697.9300000034}},{"attributes":{"ID":509049,"DIS_CODE":0,"TOWNNAME":"新營區","LI":"民權里","LIN":" ","STREET":"民權路","SECT":" ","MAREA":" ","LANE":" ","ALLEY":" ","HOUSE_NO":"８號","E_COORD97":179772.94,"N_COORD97":2577996.8100000001,"ADDRESS":"民權路８號","OBJECTID":509022},"geometry":{"x":179772.94000000041,"y":2577996.8100000005}},{"attributes":{"ID":509050,"DIS_CODE":0,"TOWNNAME":"新營區","LI":"王公里","LIN":"26鄰","STREET":"大公街","SECT":" ","MAREA":" ","LANE":" ","ALLEY":" ","HOUSE_NO":"２４號","E_COORD97":180172.78,"N_COORD97":2579658.3199999998,"ADDRESS":"大公街２４號","OBJECTID":509023},"geometry":{"x":180172.78000000026,"y":2579658.3200000003}},{"attributes":{"ID":509051,"DIS_CODE":0,"TOWNNAME":"新營區","LI":"王公里","LIN":"26鄰","STREET":"大公街","SECT":" ","MAREA":" ","LANE":" ","ALLEY":" ","HOUSE_NO":"１４號","E_COORD97":180146.13,"N_COORD97":2579661.7599999998,"ADDRESS":"大公街１４號","OBJECTID":509024},"geometry":{"x":180146.12999999989,"y":2579661.7599999979}},{"attributes":{"ID":509052,"DIS_CODE":0,"TOWNNAME":"新營區","LI":"大宏里","LIN":"21鄰","STREET":"大同路","SECT":" ","MAREA":" ","LANE":" ","ALLEY":" ","HOUSE_NO":"２５號","E_COORD97":180671.17000000001,"N_COORD97":2578630.4700000002,"ADDRESS":"大同路２５號","OBJECTID":509025},"geometry":{"x":180671.16999999993,"y":2578630.4700000007}},{"attributes":{"ID":509053,"DIS_CODE":0,"TOWNNAME":"永康區","LI":"龍潭里","LIN":"15鄰","STREET":"龍潭街","SECT":" ","MAREA":" ","LANE":" ","ALLEY":" ","HOUSE_NO":"１６９號","E_COORD97":174903.60000000001,"N_COORD97":2548315.8599999999,"ADDRESS":"龍潭街１６９號","OBJECTID":509026},"geometry":{"x":174903.60000000056,"y":2548315.8599999994}},{"attributes":{"ID":509054,"DIS_CODE":0,"TOWNNAME":"新營區","LI":"嘉芳里","LIN":" ","STREET":"新工路","SECT":" ","MAREA":" ","LANE":" ","ALLEY":" ","HOUSE_NO":"２２號","E_COORD97":176532.73000000001,"N_COORD97":2578224.0499999998,"ADDRESS":"新工路２２號","OBJECTID":509027},"geometry":{"x":176532.73000000138,"y":2578224.0500000026}},{"attributes":{"ID":509055,"DIS_CODE":0,"TOWNNAME":"新營區","LI":"民權里","LIN":" ","STREET":"中華路","SECT":" ","MAREA":" ","LANE":" ","ALLEY":" ","HOUSE_NO":"３０之２號","E_COORD97":179750.16,"N_COORD97":2578221.79,"ADDRESS":"中華路３０之２號","OBJECTID":509028},"geometry":{"x":179750.16000000108,"y":2578221.7899999991}},{"attributes":{"ID":509056,"DIS_CODE":0,"TOWNNAME":"新營區","LI":"中營里","LIN":"4鄰","STREET":"中山路","SECT":" ","MAREA":" ","LANE":" ","ALLEY":" ","HOUSE_NO":"７３號","E_COORD97":180560.38,"N_COORD97":2578351.9100000001,"ADDRESS":"中山路７３號","OBJECTID":509029},"geometry":{"x":180560.38000000082,"y":2578351.9100000001}},{"attributes":{"ID":509057,"DIS_CODE":0,"TOWNNAME":"新營區","LI":"民權里","LIN":"5鄰","STREET":"中正路","SECT":" ","MAREA":" ","LANE":" ","ALLEY":" ","HOUSE_NO":"１５號","E_COORD97":180025.26000000001,"N_COORD97":2578540.48,"ADDRESS":"中正路１５號","OBJECTID":509030},"geometry":{"x":180025.26000000071,"y":2578540.4800000023}},{"attributes":{"ID":509058,"DIS_CODE":0,"TOWNNAME":"新營區","LI":"中營里","LIN":"4鄰","STREET":"中山路","SECT":" ","MAREA":" ","LANE":" ","ALLEY":" ","HOUSE_NO":"６９號","E_COORD97":180569.57999999999,"N_COORD97":2578356.2999999998,"ADDRESS":"中山路６９號","OBJECTID":509031},"geometry":{"x":180569.58000000101,"y":2578356.3000000007}},{"attributes":{"ID":509059,"DIS_CODE":0,"TOWNNAME":"新營區","LI":"三仙里","LIN":"25鄰","STREET":"育德街","SECT":" ","MAREA":" ","LANE":" ","ALLEY":" ","HOUSE_NO":"２３號","E_COORD97":179598.78,"N_COORD97":2578968.8700000001,"ADDRESS":"育德街２３號","OBJECTID":509032},"geometry":{"x":179598.78000000119,"y":2578968.8700000029}},{"attributes":{"ID":509060,"DIS_CODE":0,"TOWNNAME":"新營區","LI":"王公里","LIN":"32鄰","STREET":"大德街","SECT":" ","MAREA":" ","LANE":" ","ALLEY":" ","HOUSE_NO":"１９之３號","E_COORD97":180214.64000000001,"N_COORD97":2579561.8300000001,"ADDRESS":"大德街１９之３號","OBJECTID":509033},"geometry":{"x":180214.6400000006,"y":2579561.8300000001}},{"attributes":{"ID":509061,"DIS_CODE":0,"TOWNNAME":"新營區","LI":"三仙里","LIN":"12鄰","STREET":"民權路","SECT":" ","MAREA":" ","LANE":" ","ALLEY":" ","HOUSE_NO":"４７號之２","E_COORD97":179694.04999999999,"N_COORD97":2578302.8999999999,"ADDRESS":"民權路４７號之２","OBJECTID":509034},"geometry":{"x":179694.04999999981,"y":2578302.9000000022}},{"attributes":{"ID":509062,"DIS_CODE":0,"TOWNNAME":"新營區","LI":"中營里","LIN":"4鄰","STREET":"中山路","SECT":" ","MAREA":" ","LANE":" ","ALLEY":" ","HOUSE_NO":"７７號","E_COORD97":180543.98000000001,"N_COORD97":2578346.4500000002,"ADDRESS":"中山路７７號","OBJECTID":509035},"geometry":{"x":180543.98000000045,"y":2578346.4499999993}},{"attributes":{"ID":509063,"DIS_CODE":0,"TOWNNAME":"新營區","LI":"三仙里","LIN":" ","STREET":"博愛街","SECT":" ","MAREA":" ","LANE":" ","ALLEY":" ","HOUSE_NO":"８０之１號","E_COORD97":179701.66,"N_COORD97":2578135.6400000001,"ADDRESS":"博愛街８０之１號","OBJECTID":509036},"geometry":{"x":179701.66000000015,"y":2578135.6400000025}},{"attributes":{"ID":509064,"DIS_CODE":0,"TOWNNAME":"新營區","LI":"大宏里","LIN":"26鄰","STREET":"民族路","SECT":" ","MAREA":" ","LANE":" ","ALLEY":" ","HOUSE_NO":"５之２號","E_COORD97":180293.51999999999,"N_COORD97":2578328.8599999999,"ADDRESS":"民族路５之２號","OBJECTID":509037},"geometry":{"x":180293.51999999955,"y":2578328.8600000013}},{"attributes":{"ID":509065,"DIS_CODE":0,"TOWNNAME":"新營區","LI":"三仙里","LIN":"15鄰","STREET":"民權路","SECT":" ","MAREA":" ","LANE":" ","ALLEY":" ","HOUSE_NO":"６３之１號","E_COORD97":179679.23999999999,"N_COORD97":2578382.71,"ADDRESS":"民權路６３之１號","OBJECTID":509038},"geometry":{"x":179679.24000000022,"y":2578382.7100000028}},{"attributes":{"ID":509066,"DIS_CODE":0,"TOWNNAME":"新營區","LI":"民權里","LIN":"10鄰","STREET":"中華路","SECT":" ","MAREA":" ","LANE":" ","ALLEY":" ","HOUSE_NO":"２１之１號","E_COORD97":179871.79000000001,"N_COORD97":2578204.6099999999,"ADDRESS":"中華路２１之１號","OBJECTID":509039},"geometry":{"x":179871.79000000004,"y":2578204.6100000031}},{"attributes":{"ID":509067,"DIS_CODE":0,"TOWNNAME":"新營區","LI":"王公里","LIN":"14鄰","STREET":"中正路","SECT":" ","MAREA":" ","LANE":" ","ALLEY":" ","HOUSE_NO":"１０４號","E_COORD97":180108.17999999999,"N_COORD97":2579374.0099999998,"ADDRESS":"中正路１０４號","OBJECTID":509040},"geometry":{"x":180108.1799999997,"y":2579374.0099999998}},{"attributes":{"ID":509068,"DIS_CODE":0,"TOWNNAME":"新營區","LI":"三仙里","LIN":"17鄰","STREET":"三民路","SECT":" ","MAREA":" ","LANE":" ","ALLEY":" ","HOUSE_NO":"１０１號之９","E_COORD97":179607.57999999999,"N_COORD97":2578380.8399999999,"ADDRESS":"三民路１０１號之９","OBJECTID":509041},"geometry":{"x":179607.58000000007,"y":2578380.8400000017}},{"attributes":{"ID":509069,"DIS_CODE":0,"TOWNNAME":"新營區","LI":"王公里","LIN":"32鄰","STREET":"大德街","SECT":" ","MAREA":" ","LANE":" ","ALLEY":" ","HOUSE_NO":"２號","E_COORD97":180171.95000000001,"N_COORD97":2579533.1600000001,"ADDRESS":"大德街２號","OBJECTID":509042},"geometry":{"x":180171.95000000112,"y":2579533.1600000001}},{"attributes":{"ID":509070,"DIS_CODE":0,"TOWNNAME":"仁德區","LI":"大甲里","LIN":"15鄰","STREET":"行大一街","SECT":" ","MAREA":" ","LANE":" ","ALLEY":" ","HOUSE_NO":"３９１之３號","E_COORD97":169460.85000000001,"N_COORD97":2535162.5499999998,"ADDRESS":"行大一街３９１之３號","OBJECTID":509043},"geometry":{"x":169460.84999999963,"y":2535162.5500000026}},{"attributes":{"ID":509071,"DIS_CODE":0,"TOWNNAME":"仁德區","LI":"大甲里","LIN":"15鄰","STREET":"行大一街","SECT":" ","MAREA":" ","LANE":" ","ALLEY":" ","HOUSE_NO":"４１５號","E_COORD97":169415.57000000001,"N_COORD97":2535177.4900000002,"ADDRESS":"行大一街４１５號","OBJECTID":509044},"geometry":{"x":169415.57000000123,"y":2535177.4900000002}},{"attributes":{"ID":509072,"DIS_CODE":0,"TOWNNAME":"仁德區","LI":"土庫里","LIN":"15鄰","STREET":"土庫一街","SECT":" ","MAREA":" ","LANE":" ","ALLEY":" ","HOUSE_NO":"６號","E_COORD97":174379.59,"N_COORD97":2543056.2400000002,"ADDRESS":"土庫一街６號","OBJECTID":509045},"geometry":{"x":174379.59000000171,"y":2543056.2400000002}},{"attributes":{"ID":509073,"DIS_CODE":0,"TOWNNAME":"仁德區","LI":"大甲里","LIN":"15鄰","STREET":"行大一街","SECT":" ","MAREA":" ","LANE":" ","ALLEY":" ","HOUSE_NO":"３９１之５號","E_COORD97":169447.14999999999,"N_COORD97":2535160.2999999998,"ADDRESS":"行大一街３９１之５號","OBJECTID":509046},"geometry":{"x":169447.1500000013,"y":2535160.2999999989}},{"attributes":{"ID":509074,"DIS_CODE":0,"TOWNNAME":"仁德區","LI":"仁德里","LIN":"15鄰","STREET":"仁德一街","SECT":" ","MAREA":" ","LANE":" ","ALLEY":" ","HOUSE_NO":"１２號","E_COORD97":173138.01000000001,"N_COORD97":2541282.2599999998,"ADDRESS":"仁德一街１２號","OBJECTID":509047},"geometry":{"x":173138.01000000071,"y":2541282.2599999998}},{"attributes":{"ID":509075,"DIS_CODE":0,"TOWNNAME":"仁德區","LI":"土庫里","LIN":"15鄰","STREET":"土庫二街","SECT":" ","MAREA":" ","LANE":" ","ALLEY":" ","HOUSE_NO":"３號","E_COORD97":174409.26999999999,"N_COORD97":2543061.2400000002,"ADDRESS":"土庫二街３號","OBJECTID":509048},"geometry":{"x":174409.27000000048,"y":2543061.2400000021}},{"attributes":{"ID":509076,"DIS_CODE":0,"TOWNNAME":"仁德區","LI":"仁德里","LIN":"15鄰","STREET":"仁德一街","SECT":" ","MAREA":" ","LANE":" ","ALLEY":" ","HOUSE_NO":"２３號","E_COORD97":173188.56,"N_COORD97":2541234.27,"ADDRESS":"仁德一街２３號","OBJECTID":509049},"geometry":{"x":173188.56000000052,"y":2541234.2699999996}},{"attributes":{"ID":509077,"DIS_CODE":0,"TOWNNAME":"仁德區","LI":"仁義里","LIN":"15鄰","STREET":"林頂街","SECT":" ","MAREA":" ","LANE":" ","ALLEY":" ","HOUSE_NO":"２３３號","E_COORD97":174582.07999999999,"N_COORD97":2541416.2599999998,"ADDRESS":"林頂街２３３號","OBJECTID":509050},"geometry":{"x":174582.08000000101,"y":2541416.2600000016}},{"attributes":{"ID":509078,"DIS_CODE":0,"TOWNNAME":"仁德區","LI":"太子里","LIN":"15鄰","STREET":"太子北路","SECT":" ","MAREA":" ","LANE":" ","ALLEY":" ","HOUSE_NO":"１４０號","E_COORD97":174024.51000000001,"N_COORD97":2543691,"ADDRESS":"太子北路１４０號","OBJECTID":509051},"geometry":{"x":174024.51000000071,"y":2543691}},{"attributes":{"ID":509079,"DIS_CODE":0,"TOWNNAME":"仁德區","LI":"仁德里","LIN":"15鄰","STREET":"仁德一街","SECT":" ","MAREA":" ","LANE":" ","ALLEY":" ","HOUSE_NO":"２號","E_COORD97":173137.72,"N_COORD97":2541318.7599999998,"ADDRESS":"仁德一街２號","OBJECTID":509052},"geometry":{"x":173137.7200000016,"y":2541318.7599999998}},{"attributes":{"ID":509080,"DIS_CODE":0,"TOWNNAME":"仁德區","LI":"仁德里","LIN":"15鄰","STREET":"仁德一街","SECT":" ","MAREA":" ","LANE":" ","ALLEY":" ","HOUSE_NO":"２號之１","E_COORD97":173143.25,"N_COORD97":2541302.04,"ADDRESS":"仁德一街２號之１","OBJECTID":509053},"geometry":{"x":173143.25000000093,"y":2541302.040000001}},{"attributes":{"ID":509081,"DIS_CODE":0,"TOWNNAME":"仁德區","LI":"仁德里","LIN":"15鄰","STREET":"仁德一街","SECT":" ","MAREA":" ","LANE":" ","ALLEY":" ","HOUSE_NO":"２號之２","E_COORD97":173143.04999999999,"N_COORD97":2541297.29,"ADDRESS":"仁德一街２號之２","OBJECTID":509054},"geometry":{"x":173143.05000000075,"y":2541297.2899999991}},{"attributes":{"ID":509082,"DIS_CODE":0,"TOWNNAME":"仁德區","LI":"仁德里","LIN":"15鄰","STREET":"仁德一街","SECT":" ","MAREA":" ","LANE":" ","ALLEY":" ","HOUSE_NO":"３４號","E_COORD97":173175.70999999999,"N_COORD97":2541235.52,"ADDRESS":"仁德一街３４號","OBJECTID":509055},"geometry":{"x":173175.71000000089,"y":2541235.5199999996}},{"attributes":{"ID":509083,"DIS_CODE":0,"TOWNNAME":"仁德區","LI":"仁義里","LIN":"15鄰","STREET":"義林路","SECT":" ","MAREA":" ","LANE":" ","ALLEY":" ","HOUSE_NO":"２３０號","E_COORD97":174573.48000000001,"N_COORD97":2541329.27,"ADDRESS":"義林路２３０號","OBJECTID":509056},"geometry":{"x":174573.48000000045,"y":2541329.2699999996}},{"attributes":{"ID":509084,"DIS_CODE":0,"TOWNNAME":"仁德區","LI":"仁德里","LIN":"15鄰","STREET":"仁德一街","SECT":" ","MAREA":" ","LANE":" ","ALLEY":" ","HOUSE_NO":"３８號","E_COORD97":173175.62,"N_COORD97":2541244.77,"ADDRESS":"仁德一街３８號","OBJECTID":509057},"geometry":{"x":173175.62000000011,"y":2541244.7699999996}},{"attributes":{"ID":509085,"DIS_CODE":0,"TOWNNAME":"新營區","LI":"新北里","LIN":"5鄰","STREET":"三興街","SECT":" ","MAREA":" ","LANE":" ","ALLEY":" ","HOUSE_NO":"９５號之１５","E_COORD97":179346.60000000001,"N_COORD97":2579198.27,"ADDRESS":"三興街９５號之１５","OBJECTID":509058},"geometry":{"x":179346.60000000056,"y":2579198.2700000014}},{"attributes":{"ID":509086,"DIS_CODE":0,"TOWNNAME":"新營區","LI":"新南里","LIN":"17鄰","STREET":"隋唐街","SECT":" ","MAREA":" ","LANE":" ","ALLEY":" ","HOUSE_NO":"５９號","E_COORD97":178645.34,"N_COORD97":2578519.3799999999,"ADDRESS":"隋唐街５９號","OBJECTID":509059},"geometry":{"x":178645.34000000078,"y":2578519.379999999}},{"attributes":{"ID":509087,"DIS_CODE":0,"TOWNNAME":"東區","LI":"莊敬里","LIN":"15鄰","STREET":"東光路","SECT":"二段","MAREA":" ","LANE":" ","ALLEY":" ","HOUSE_NO":"２７號","E_COORD97":171194.01999999999,"N_COORD97":2544040.7200000002,"ADDRESS":"東光路二段２７號","OBJECTID":509060},"geometry":{"x":171194.01999999955,"y":2544040.7200000025}},{"attributes":{"ID":509088,"DIS_CODE":0,"TOWNNAME":"東區","LI":"莊敬里","LIN":"15鄰","STREET":"東光路","SECT":"二段","MAREA":" ","LANE":" ","ALLEY":" ","HOUSE_NO":"２９號","E_COORD97":171196.67000000001,"N_COORD97":2544043.8799999999,"ADDRESS":"東光路二段２９號","OBJECTID":509061},"geometry":{"x":171196.66999999993,"y":2544043.879999999}},{"attributes":{"ID":509089,"DIS_CODE":0,"TOWNNAME":"東區","LI":"莊敬里","LIN":"15鄰","STREET":"東光路","SECT":"二段","MAREA":" ","LANE":" ","ALLEY":" ","HOUSE_NO":"３１號","E_COORD97":171196.89999999999,"N_COORD97":2544048.5899999999,"ADDRESS":"東光路二段３１號","OBJECTID":509062},"geometry":{"x":171196.9000000013,"y":2544048.5900000017}},{"attributes":{"ID":509090,"DIS_CODE":0,"TOWNNAME":"東區","LI":"莊敬里","LIN":"15鄰","STREET":"東光路","SECT":"二段","MAREA":" ","LANE":" ","ALLEY":" ","HOUSE_NO":"３５號","E_COORD97":171199.17999999999,"N_COORD97":2544056.3500000001,"ADDRESS":"東光路二段３５號","OBJECTID":509063},"geometry":{"x":171199.18000000063,"y":2544056.3500000015}},{"attributes":{"ID":509091,"DIS_CODE":0,"TOWNNAME":"東區","LI":"莊敬里","LIN":"15鄰","STREET":"東光路","SECT":"二段","MAREA":" ","LANE":" ","ALLEY":" ","HOUSE_NO":"３７號","E_COORD97":171199.54999999999,"N_COORD97":2544060.2400000002,"ADDRESS":"東光路二段３７號","OBJECTID":509064},"geometry":{"x":171199.54999999981,"y":2544060.2400000039}},{"attributes":{"ID":509092,"DIS_CODE":0,"TOWNNAME":"東區","LI":"莊敬里","LIN":"15鄰","STREET":"東光路","SECT":"二段","MAREA":" ","LANE":" ","ALLEY":" ","HOUSE_NO":"３９號","E_COORD97":171200.14000000001,"N_COORD97":2544064.0899999999,"ADDRESS":"東光路二段３９號","OBJECTID":509065},"geometry":{"x":171200.13999999966,"y":2544064.0900000036}},{"attributes":{"ID":509093,"DIS_CODE":0,"TOWNNAME":"東區","LI":"莊敬里","LIN":"15鄰","STREET":"東光路","SECT":"二段","MAREA":" ","LANE":" ","ALLEY":" ","HOUSE_NO":"４１號","E_COORD97":171200.79999999999,"N_COORD97":2544067.9199999999,"ADDRESS":"東光路二段４１號","OBJECTID":509066},"geometry":{"x":171200.79999999981,"y":2544067.9199999999}},{"attributes":{"ID":509094,"DIS_CODE":0,"TOWNNAME":"東區","LI":"莊敬里","LIN":"15鄰","STREET":"東光路","SECT":"二段","MAREA":" ","LANE":" ","ALLEY":" ","HOUSE_NO":"４３號","E_COORD97":171201.32000000001,"N_COORD97":2544072.2799999998,"ADDRESS":"東光路二段４３號","OBJECTID":509067},"geometry":{"x":171201.3200000003,"y":2544072.2799999975}},{"attributes":{"ID":509095,"DIS_CODE":0,"TOWNNAME":"白河區","LI":"永安里","LIN":"15鄰","STREET":"十全西街","SECT":" ","MAREA":" ","LANE":" ","ALLEY":" ","HOUSE_NO":"７６號","E_COORD97":189753.04999999999,"N_COORD97":2583405.8399999999,"ADDRESS":"十全西街７６號","OBJECTID":509068},"geometry":{"x":189753.04999999981,"y":2583405.8400000017}},{"attributes":{"ID":509096,"DIS_CODE":0,"TOWNNAME":"白河區","LI":"永安里","LIN":"15鄰","STREET":"十全西街","SECT":" ","MAREA":" ","LANE":" ","ALLEY":" ","HOUSE_NO":"７８號","E_COORD97":189757.42000000001,"N_COORD97":2583412.4500000002,"ADDRESS":"十全西街７８號","OBJECTID":509069},"geometry":{"x":189757.41999999993,"y":2583412.4499999993}},{"attributes":{"ID":509097,"DIS_CODE":0,"TOWNNAME":"白河區","LI":"永安里","LIN":"15鄰","STREET":"三民路","SECT":" ","MAREA":" ","LANE":" ","ALLEY":" ","HOUSE_NO":"３８１號","E_COORD97":190252.79999999999,"N_COORD97":2583303.96,"ADDRESS":"三民路３８１號","OBJECTID":509070},"geometry":{"x":190252.79999999981,"y":2583303.9600000028}},{"attributes":{"ID":509098,"DIS_CODE":0,"TOWNNAME":"白河區","LI":"永安里","LIN":"15鄰","STREET":"三民路","SECT":" ","MAREA":" ","LANE":" ","ALLEY":" ","HOUSE_NO":"４０９號","E_COORD97":190070.04000000001,"N_COORD97":2583378.6200000001,"ADDRESS":"三民路４０９號","OBJECTID":509071},"geometry":{"x":190070.04000000004,"y":2583378.620000001}},{"attributes":{"ID":509099,"DIS_CODE":0,"TOWNNAME":"白河區","LI":"永安里","LIN":"15鄰","STREET":"三民路","SECT":" ","MAREA":" ","LANE":" ","ALLEY":" ","HOUSE_NO":"４１１號","E_COORD97":190065.82000000001,"N_COORD97":2583381.4300000002,"ADDRESS":"三民路４１１號","OBJECTID":509072},"geometry":{"x":190065.82000000216,"y":2583381.4300000016}},{"attributes":{"ID":509100,"DIS_CODE":0,"TOWNNAME":"白河區","LI":"永安里","LIN":"15鄰","STREET":"三民路","SECT":" ","MAREA":" ","LANE":" ","ALLEY":" ","HOUSE_NO":"４１２號","E_COORD97":190255.16,"N_COORD97":2583339.4300000002,"ADDRESS":"三民路４１２號","OBJECTID":509073},"geometry":{"x":190255.16000000108,"y":2583339.4300000034}},{"attributes":{"ID":509101,"DIS_CODE":0,"TOWNNAME":"白河區","LI":"永安里","LIN":"15鄰","STREET":"三民路","SECT":" ","MAREA":" ","LANE":" ","ALLEY":" ","HOUSE_NO":"４１３號","E_COORD97":190061.72,"N_COORD97":2583383.23,"ADDRESS":"三民路４１３號","OBJECTID":509074},"geometry":{"x":190061.71999999974,"y":2583383.2300000023}},{"attributes":{"ID":509102,"DIS_CODE":0,"TOWNNAME":"白河區","LI":"永安里","LIN":"15鄰","STREET":"三民路","SECT":" ","MAREA":" ","LANE":" ","ALLEY":" ","HOUSE_NO":"４１５號","E_COORD97":190057.73000000001,"N_COORD97":2583384.5499999998,"ADDRESS":"三民路４１５號","OBJECTID":509075},"geometry":{"x":190057.73000000045,"y":2583384.5500000026}},{"attributes":{"ID":509103,"DIS_CODE":0,"TOWNNAME":"白河區","LI":"永安里","LIN":"15鄰","STREET":"三民路","SECT":" ","MAREA":" ","LANE":" ","ALLEY":" ","HOUSE_NO":"４１６號","E_COORD97":190241.35000000001,"N_COORD97":2583341.8300000001,"ADDRESS":"三民路４１６號","OBJECTID":509076},"geometry":{"x":190241.35000000149,"y":2583341.8300000019}},{"attributes":{"ID":509104,"DIS_CODE":0,"TOWNNAME":"白河區","LI":"永安里","LIN":"15鄰","STREET":"三民路","SECT":" ","MAREA":" ","LANE":" ","ALLEY":" ","HOUSE_NO":"４１７號","E_COORD97":190054.14000000001,"N_COORD97":2583385.71,"ADDRESS":"三民路４１７號","OBJECTID":509077},"geometry":{"x":190054.13999999966,"y":2583385.7100000009}},{"attributes":{"ID":509105,"DIS_CODE":0,"TOWNNAME":"白河區","LI":"永安里","LIN":"15鄰","STREET":"三民路","SECT":" ","MAREA":" ","LANE":" ","ALLEY":" ","HOUSE_NO":"４１８號","E_COORD97":190237.22,"N_COORD97":2583342.7999999998,"ADDRESS":"三民路４１８號","OBJECTID":509078},"geometry":{"x":190237.2200000016,"y":2583342.8000000026}},{"attributes":{"ID":509106,"DIS_CODE":0,"TOWNNAME":"白河區","LI":"永安里","LIN":"15鄰","STREET":"三民路","SECT":" ","MAREA":" ","LANE":" ","ALLEY":" ","HOUSE_NO":"４２１號","E_COORD97":190046.5,"N_COORD97":2583387.9300000002,"ADDRESS":"三民路４２１號","OBJECTID":509079},"geometry":{"x":190046.5,"y":2583387.9300000016}},{"attributes":{"ID":509107,"DIS_CODE":0,"TOWNNAME":"白河區","LI":"永安里","LIN":"15鄰","STREET":"三民路","SECT":" ","MAREA":" ","LANE":" ","ALLEY":" ","HOUSE_NO":"４２２號","E_COORD97":190227.42999999999,"N_COORD97":2583345.6899999999,"ADDRESS":"三民路４２２號","OBJECTID":509080},"geometry":{"x":190227.43000000063,"y":2583345.6900000013}},{"attributes":{"ID":509108,"DIS_CODE":0,"TOWNNAME":"白河區","LI":"永安里","LIN":"15鄰","STREET":"三民路","SECT":" ","MAREA":" ","LANE":" ","ALLEY":" ","HOUSE_NO":"４２３號","E_COORD97":190042.54999999999,"N_COORD97":2583389.3599999999,"ADDRESS":"三民路４２３號","OBJECTID":509081},"geometry":{"x":190042.55000000075,"y":2583389.3599999994}},{"attributes":{"ID":509109,"DIS_CODE":0,"TOWNNAME":"白河區","LI":"永安里","LIN":"15鄰","STREET":"三民路","SECT":" ","MAREA":" ","LANE":" ","ALLEY":" ","HOUSE_NO":"４２４號","E_COORD97":190223.62,"N_COORD97":2583347.2599999998,"ADDRESS":"三民路４２４號","OBJECTID":509082},"geometry":{"x":190223.62000000104,"y":2583347.2600000035}},{"attributes":{"ID":509110,"DIS_CODE":0,"TOWNNAME":"白河區","LI":"永安里","LIN":"15鄰","STREET":"三民路","SECT":" ","MAREA":" ","LANE":" ","ALLEY":" ","HOUSE_NO":"４２５號","E_COORD97":190038.32000000001,"N_COORD97":2583392.2799999998,"ADDRESS":"三民路４２５號","OBJECTID":509083},"geometry":{"x":190038.3200000003,"y":2583392.2800000012}},{"attributes":{"ID":509111,"DIS_CODE":0,"TOWNNAME":"白河區","LI":"永安里","LIN":"15鄰","STREET":"三民路","SECT":" ","MAREA":" ","LANE":" ","ALLEY":" ","HOUSE_NO":"４２６號","E_COORD97":190214.14999999999,"N_COORD97":2583354.1200000001,"ADDRESS":"三民路４２６號","OBJECTID":509084},"geometry":{"x":190214.15000000037,"y":2583354.1200000029}},{"attributes":{"ID":509112,"DIS_CODE":0,"TOWNNAME":"白河區","LI":"永安里","LIN":"15鄰","STREET":"三民路","SECT":" ","MAREA":" ","LANE":" ","ALLEY":" ","HOUSE_NO":"４２７號","E_COORD97":190035.32999999999,"N_COORD97":2583393.3100000001,"ADDRESS":"三民路４２７號","OBJECTID":509085},"geometry":{"x":190035.33000000101,"y":2583393.3100000024}},{"attributes":{"ID":509113,"DIS_CODE":0,"TOWNNAME":"白河區","LI":"永安里","LIN":"15鄰","STREET":"三民路","SECT":" ","MAREA":" ","LANE":" ","ALLEY":" ","HOUSE_NO":"４２８號","E_COORD97":190209.84,"N_COORD97":2583355.4700000002,"ADDRESS":"三民路４２８號","OBJECTID":509086},"geometry":{"x":190209.84000000078,"y":2583355.4700000007}},{"attributes":{"ID":509114,"DIS_CODE":0,"TOWNNAME":"白河區","LI":"永安里","LIN":"15鄰","STREET":"三民路","SECT":" ","MAREA":" ","LANE":" ","ALLEY":" ","HOUSE_NO":"４２９號","E_COORD97":190032.47,"N_COORD97":2583394.5,"ADDRESS":"三民路４２９號","OBJECTID":509087},"geometry":{"x":190032.47000000067,"y":2583394.5000000019}},{"attributes":{"ID":509115,"DIS_CODE":0,"TOWNNAME":"新營區","LI":"民權里","LIN":"5鄰","STREET":"信義街","SECT":" ","MAREA":" ","LANE":" ","ALLEY":" ","HOUSE_NO":"６６號之３","E_COORD97":179918.92999999999,"N_COORD97":2578511.1400000001,"ADDRESS":"信義街６６號之３","OBJECTID":509088},"geometry":{"x":179918.93000000063,"y":2578511.1400000025}},{"attributes":{"ID":509116,"DIS_CODE":0,"TOWNNAME":"白河區","LI":"永安里","LIN":"15鄰","STREET":"三民路","SECT":" ","MAREA":" ","LANE":" ","ALLEY":" ","HOUSE_NO":"４３１號","E_COORD97":190028.78,"N_COORD97":2583395.8900000001,"ADDRESS":"三民路４３１號","OBJECTID":509089},"geometry":{"x":190028.78000000212,"y":2583395.8900000025}},{"attributes":{"ID":509117,"DIS_CODE":0,"TOWNNAME":"白河區","LI":"永安里","LIN":"15鄰","STREET":"三民路","SECT":" ","MAREA":" ","LANE":" ","ALLEY":" ","HOUSE_NO":"４３２號","E_COORD97":190200.94,"N_COORD97":2583359.3700000001,"ADDRESS":"三民路４３２號","OBJECTID":509090},"geometry":{"x":190200.94000000134,"y":2583359.3700000029}},{"attributes":{"ID":509118,"DIS_CODE":0,"TOWNNAME":"白河區","LI":"永安里","LIN":"15鄰","STREET":"三民路","SECT":" ","MAREA":" ","LANE":" ","ALLEY":" ","HOUSE_NO":"４３３號","E_COORD97":190024.48999999999,"N_COORD97":2583397.4100000001,"ADDRESS":"三民路４３３號","OBJECTID":509091},"geometry":{"x":190024.49000000115,"y":2583397.4100000039}},{"attributes":{"ID":509119,"DIS_CODE":0,"TOWNNAME":"白河區","LI":"永安里","LIN":"15鄰","STREET":"三民路","SECT":" ","MAREA":" ","LANE":" ","ALLEY":" ","HOUSE_NO":"４３５號","E_COORD97":190020.03,"N_COORD97":2583398.8100000001,"ADDRESS":"三民路４３５號","OBJECTID":509092},"geometry":{"x":190020.03000000026,"y":2583398.8100000042}},{"attributes":{"ID":509120,"DIS_CODE":0,"TOWNNAME":"白河區","LI":"永安里","LIN":"15鄰","STREET":"三民路","SECT":" ","MAREA":" ","LANE":" ","ALLEY":" ","HOUSE_NO":"４３６號","E_COORD97":190194.73000000001,"N_COORD97":2583361.1200000001,"ADDRESS":"三民路４３６號","OBJECTID":509093},"geometry":{"x":190194.73000000045,"y":2583361.1200000029}},{"attributes":{"ID":509121,"DIS_CODE":0,"TOWNNAME":"白河區","LI":"永安里","LIN":"15鄰","STREET":"三民路","SECT":" ","MAREA":" ","LANE":" ","ALLEY":" ","HOUSE_NO":"４３７號","E_COORD97":190016.16,"N_COORD97":2583400.4100000001,"ADDRESS":"三民路４３７號","OBJECTID":509094},"geometry":{"x":190016.16000000108,"y":2583400.4100000001}},{"attributes":{"ID":509122,"DIS_CODE":0,"TOWNNAME":"永康區","LI":"中華里","LIN":"15鄰","STREET":"華興街","SECT":" ","MAREA":" ","LANE":" ","ALLEY":" ","HOUSE_NO":"９７號底二層之５","E_COORD97":171791.75,"N_COORD97":2544563.1299999999,"ADDRESS":"華興街９７號底二層之５","OBJECTID":509095},"geometry":{"x":171791.74999999907,"y":2544563.129999999}},{"attributes":{"ID":509123,"DIS_CODE":0,"TOWNNAME":"永康區","LI":"中華里","LIN":"15鄰","STREET":"華興街","SECT":" ","MAREA":" ","LANE":" ","ALLEY":" ","HOUSE_NO":"９７號底二層之７","E_COORD97":171791.67000000001,"N_COORD97":2544563.1299999999,"ADDRESS":"華興街９７號底二層之７","OBJECTID":509096},"geometry":{"x":171791.66999999993,"y":2544563.129999999}},{"attributes":{"ID":509124,"DIS_CODE":0,"TOWNNAME":"永康區","LI":"中華里","LIN":"15鄰","STREET":"華興街","SECT":" ","MAREA":" ","LANE":" ","ALLEY":" ","HOUSE_NO":"１１３號","E_COORD97":171746.57999999999,"N_COORD97":2544562.6099999999,"ADDRESS":"華興街１１３號","OBJECTID":509097},"geometry":{"x":171746.58000000007,"y":2544562.6100000013}},{"attributes":{"ID":509125,"DIS_CODE":0,"TOWNNAME":"永康區","LI":"中華里","LIN":"15鄰","STREET":"華興街","SECT":" ","MAREA":" ","LANE":" ","ALLEY":" ","HOUSE_NO":"９７號底二層之９","E_COORD97":171791.67999999999,"N_COORD97":2544563.1299999999,"ADDRESS":"華興街９７號底二層之９","OBJECTID":509098},"geometry":{"x":171791.6799999997,"y":2544563.129999999}},{"attributes":{"ID":509126,"DIS_CODE":0,"TOWNNAME":"永康區","LI":"中華里","LIN":"15鄰","STREET":"華興街","SECT":" ","MAREA":" ","LANE":" ","ALLEY":" ","HOUSE_NO":"１１７號","E_COORD97":171737.54000000001,"N_COORD97":2544562.1800000002,"ADDRESS":"華興街１１７號","OBJECTID":509099},"geometry":{"x":171737.54000000097,"y":2544562.1800000016}},{"attributes":{"ID":509127,"DIS_CODE":0,"TOWNNAME":"永康區","LI":"南灣里","LIN":"15鄰","STREET":"立興街","SECT":" ","MAREA":" ","LANE":" ","ALLEY":" ","HOUSE_NO":"１３１號","E_COORD97":174419.07000000001,"N_COORD97":2544657,"ADDRESS":"立興街１３１號","OBJECTID":509100},"geometry":{"x":174419.0700000003,"y":2544657}},{"attributes":{"ID":509128,"DIS_CODE":0,"TOWNNAME":"永康區","LI":"中華里","LIN":"15鄰","STREET":"華興街","SECT":" ","MAREA":" ","LANE":" ","ALLEY":" ","HOUSE_NO":"１０５號","E_COORD97":171779.23999999999,"N_COORD97":2544541.0699999998,"ADDRESS":"華興街１０５號","OBJECTID":509101},"geometry":{"x":171779.24000000115,"y":2544541.0700000022}},{"attributes":{"ID":509129,"DIS_CODE":0,"TOWNNAME":"永康區","LI":"中華里","LIN":"15鄰","STREET":"華興街","SECT":" ","MAREA":" ","LANE":" ","ALLEY":" ","HOUSE_NO":"１１１號","E_COORD97":171750.29000000001,"N_COORD97":2544562.3199999998,"ADDRESS":"華興街１１１號","OBJECTID":509102},"geometry":{"x":171750.29000000004,"y":2544562.3200000022}},{"attributes":{"ID":509130,"DIS_CODE":0,"TOWNNAME":"永康區","LI":"中華里","LIN":"15鄰","STREET":"華興街","SECT":" ","MAREA":" ","LANE":" ","ALLEY":" ","HOUSE_NO":"１０３號","E_COORD97":171779.23999999999,"N_COORD97":2544541.0699999998,"ADDRESS":"華興街１０３號","OBJECTID":509103},"geometry":{"x":171779.24000000115,"y":2544541.0700000022}},{"attributes":{"ID":509131,"DIS_CODE":0,"TOWNNAME":"永康區","LI":"中華里","LIN":"15鄰","STREET":"華興街","SECT":" ","MAREA":" ","LANE":" ","ALLEY":" ","HOUSE_NO":"１１９號","E_COORD97":171729.54999999999,"N_COORD97":2544561.3399999999,"ADDRESS":"華興街１１９號","OBJECTID":509104},"geometry":{"x":171729.54999999981,"y":2544561.3400000017}},{"attributes":{"ID":509132,"DIS_CODE":0,"TOWNNAME":"永康區","LI":"中華里","LIN":"15鄰","STREET":"華興街","SECT":" ","MAREA":" ","LANE":" ","ALLEY":" ","HOUSE_NO":"９７號底二層之１１","E_COORD97":171792.85000000001,"N_COORD97":2544563.1299999999,"ADDRESS":"華興街９７號底二層之１１","OBJECTID":509105},"geometry":{"x":171792.85000000056,"y":2544563.129999999}},{"attributes":{"ID":509133,"DIS_CODE":0,"TOWNNAME":"永康區","LI":"中華里","LIN":"15鄰","STREET":"忠義街","SECT":" ","MAREA":" ","LANE":" ","ALLEY":" ","HOUSE_NO":"５８號","E_COORD97":171731.29999999999,"N_COORD97":2544510.23,"ADDRESS":"忠義街５８號","OBJECTID":509106},"geometry":{"x":171731.29999999981,"y":2544510.2300000004}},{"attributes":{"ID":509134,"DIS_CODE":0,"TOWNNAME":"永康區","LI":"中華里","LIN":"15鄰","STREET":"華興街","SECT":" ","MAREA":" ","LANE":" ","ALLEY":" ","HOUSE_NO":"９７號底一層之１９","E_COORD97":171792.92999999999,"N_COORD97":2544563.1299999999,"ADDRESS":"華興街９７號底一層之１９","OBJECTID":509107},"geometry":{"x":171792.9299999997,"y":2544563.129999999}},{"attributes":{"ID":509135,"DIS_CODE":0,"TOWNNAME":"永康區","LI":"中華里","LIN":"15鄰","STREET":"忠義街","SECT":" ","MAREA":" ","LANE":" ","ALLEY":" ","HOUSE_NO":"５６號","E_COORD97":171731.29999999999,"N_COORD97":2544504.3599999999,"ADDRESS":"忠義街５６號","OBJECTID":509108},"geometry":{"x":171731.29999999981,"y":2544504.3599999994}},{"attributes":{"ID":509136,"DIS_CODE":0,"TOWNNAME":"永康區","LI":"中華里","LIN":"15鄰","STREET":"華興街","SECT":" ","MAREA":" ","LANE":" ","ALLEY":" ","HOUSE_NO":"９７號底二層之１９","E_COORD97":171792.92999999999,"N_COORD97":2544563.1299999999,"ADDRESS":"華興街９７號底二層之１９","OBJECTID":509109},"geometry":{"x":171792.9299999997,"y":2544563.129999999}},{"attributes":{"ID":509137,"DIS_CODE":0,"TOWNNAME":"永康區","LI":"中華里","LIN":"15鄰","STREET":"華興街","SECT":" ","MAREA":" ","LANE":" ","ALLEY":" ","HOUSE_NO":"９７號底一層之１","E_COORD97":171791.60000000001,"N_COORD97":2544563.1299999999,"ADDRESS":"華興街９７號底一層之１","OBJECTID":509110},"geometry":{"x":171791.60000000056,"y":2544563.129999999}},{"attributes":{"ID":509138,"DIS_CODE":0,"TOWNNAME":"安南區","LI":"學東里","LIN":"15鄰","STREET":"公學路","SECT":"七段","MAREA":" ","LANE":" ","ALLEY":" ","HOUSE_NO":"３２２號","E_COORD97":161246.57999999999,"N_COORD97":2553583.79,"ADDRESS":"公學路七段３２２號","OBJECTID":509111},"geometry":{"x":161246.58000000007,"y":2553583.790000001}},{"attributes":{"ID":509139,"DIS_CODE":0,"TOWNNAME":"安南區","LI":"學東里","LIN":"15鄰","STREET":"公學路","SECT":"七段","MAREA":" ","LANE":" ","ALLEY":" ","HOUSE_NO":"３２２號之１０","E_COORD97":161262.44,"N_COORD97":2553541.1200000001,"ADDRESS":"公學路七段３２２號之１０","OBJECTID":509112},"geometry":{"x":161262.44000000134,"y":2553541.1199999992}},{"attributes":{"ID":509140,"DIS_CODE":0,"TOWNNAME":"安南區","LI":"學東里","LIN":"15鄰","STREET":"公學路","SECT":"七段","MAREA":" ","LANE":" ","ALLEY":" ","HOUSE_NO":"３２８號","E_COORD97":161065.28,"N_COORD97":2553547.2400000002,"ADDRESS":"公學路七段３２８號","OBJECTID":509113},"geometry":{"x":161065.28000000119,"y":2553547.2400000021}},{"attributes":{"ID":509141,"DIS_CODE":0,"TOWNNAME":"安南區","LI":"學東里","LIN":"15鄰","STREET":"公學路","SECT":"七段","MAREA":" ","LANE":" ","ALLEY":" ","HOUSE_NO":"３７６號","E_COORD97":160962.88,"N_COORD97":2553528.8199999998,"ADDRESS":"公學路七段３７６號","OBJECTID":509114},"geometry":{"x":160962.87999999989,"y":2553528.8199999984}},{"attributes":{"ID":509142,"DIS_CODE":0,"TOWNNAME":"安南區","LI":"學東里","LIN":"15鄰","STREET":"城北路","SECT":" ","MAREA":" ","LANE":" ","ALLEY":" ","HOUSE_NO":"７５６號之１","E_COORD97":160928.76999999999,"N_COORD97":2553063.4900000002,"ADDRESS":"城北路７５６號之１","OBJECTID":509115},"geometry":{"x":160928.77000000048,"y":2553063.4900000039}},{"attributes":{"ID":509143,"DIS_CODE":0,"TOWNNAME":"安南區","LI":"學東里","LIN":"15鄰","STREET":"城北路","SECT":" ","MAREA":" ","LANE":" ","ALLEY":" ","HOUSE_NO":"７５８號","E_COORD97":160931.16,"N_COORD97":2553070.8300000001,"ADDRESS":"城北路７５８號","OBJECTID":509116},"geometry":{"x":160931.16000000015,"y":2553070.8299999982}},{"attributes":{"ID":509144,"DIS_CODE":0,"TOWNNAME":"新營區","LI":"民權里","LIN":"12鄰","STREET":"武昌街","SECT":" ","MAREA":" ","LANE":" ","ALLEY":" ","HOUSE_NO":"２９號","E_COORD97":179796.22,"N_COORD97":2578327.8300000001,"ADDRESS":"武昌街２９號","OBJECTID":509117},"geometry":{"x":179796.21999999974,"y":2578327.8300000001}},{"attributes":{"ID":509145,"DIS_CODE":0,"TOWNNAME":"新營區","LI":"三仙里","LIN":"17鄰","STREET":"三民路","SECT":" ","MAREA":" ","LANE":" ","ALLEY":" ","HOUSE_NO":"１０１之４號","E_COORD97":179622.12,"N_COORD97":2578368.5899999999,"ADDRESS":"三民路１０１之４號","OBJECTID":509118},"geometry":{"x":179622.12000000011,"y":2578368.5900000017}},{"attributes":{"ID":509146,"DIS_CODE":0,"TOWNNAME":"安南區","LI":"學東里","LIN":"15鄰","STREET":"城北路","SECT":" ","MAREA":" ","LANE":" ","ALLEY":" ","HOUSE_NO":"７６０號","E_COORD97":160933.17999999999,"N_COORD97":2553075.79,"ADDRESS":"城北路７６０號","OBJECTID":509119},"geometry":{"x":160933.18000000063,"y":2553075.7899999991}},{"attributes":{"ID":509147,"DIS_CODE":0,"TOWNNAME":"安南區","LI":"學東里","LIN":"15鄰","STREET":"城北路","SECT":" ","MAREA":" ","LANE":" ","ALLEY":" ","HOUSE_NO":"７６２號","E_COORD97":160933.37,"N_COORD97":2553078.7200000002,"ADDRESS":"城北路７６２號","OBJECTID":509120},"geometry":{"x":160933.36999999918,"y":2553078.7200000007}},{"attributes":{"ID":509148,"DIS_CODE":0,"TOWNNAME":"安南區","LI":"學東里","LIN":"15鄰","STREET":"城北路","SECT":" ","MAREA":" ","LANE":" ","ALLEY":" ","HOUSE_NO":"７６４號","E_COORD97":160933,"N_COORD97":2553082.02,"ADDRESS":"城北路７６４號","OBJECTID":509121},"geometry":{"x":160933.00000000093,"y":2553082.0199999996}},{"attributes":{"ID":509149,"DIS_CODE":0,"TOWNNAME":"安南區","LI":"學東里","LIN":"15鄰","STREET":"城北路","SECT":" ","MAREA":" ","LANE":" ","ALLEY":" ","HOUSE_NO":"７６６號","E_COORD97":160932.82000000001,"N_COORD97":2553084.23,"ADDRESS":"城北路７６６號","OBJECTID":509122},"geometry":{"x":160932.82000000123,"y":2553084.2300000004}},{"attributes":{"ID":509150,"DIS_CODE":0,"TOWNNAME":"安南區","LI":"學東里","LIN":"15鄰","STREET":"城北路","SECT":" ","MAREA":" ","LANE":" ","ALLEY":" ","HOUSE_NO":"７７０號","E_COORD97":160935.14000000001,"N_COORD97":2553112.9199999999,"ADDRESS":"城北路７７０號","OBJECTID":509123},"geometry":{"x":160935.1400000006,"y":2553112.9199999999}},{"attributes":{"ID":509151,"DIS_CODE":0,"TOWNNAME":"安南區","LI":"學東里","LIN":"15鄰","STREET":"城北路","SECT":" ","MAREA":" ","LANE":" ","ALLEY":" ","HOUSE_NO":"７７２號","E_COORD97":160935.78,"N_COORD97":2553117.5,"ADDRESS":"城北路７７２號","OBJECTID":509124},"geometry":{"x":160935.78000000026,"y":2553117.5000000037}},{"attributes":{"ID":509152,"DIS_CODE":0,"TOWNNAME":"安南區","LI":"學東里","LIN":"15鄰","STREET":"城北路","SECT":" ","MAREA":" ","LANE":" ","ALLEY":" ","HOUSE_NO":"７７４號","E_COORD97":160935.51999999999,"N_COORD97":2553121.4399999999,"ADDRESS":"城北路７７４號","OBJECTID":509125},"geometry":{"x":160935.52000000048,"y":2553121.4400000013}},{"attributes":{"ID":509153,"DIS_CODE":0,"TOWNNAME":"安南區","LI":"學東里","LIN":"15鄰","STREET":"城北路","SECT":" ","MAREA":" ","LANE":" ","ALLEY":" ","HOUSE_NO":"７７６號","E_COORD97":160935.39999999999,"N_COORD97":2553125.8999999999,"ADDRESS":"城北路７７６號","OBJECTID":509126},"geometry":{"x":160935.4000000013,"y":2553125.9000000022}},{"attributes":{"ID":509154,"DIS_CODE":0,"TOWNNAME":"安南區","LI":"學東里","LIN":"15鄰","STREET":"城北路","SECT":" ","MAREA":" ","LANE":" ","ALLEY":" ","HOUSE_NO":"７７８號","E_COORD97":160936.29000000001,"N_COORD97":2553133.27,"ADDRESS":"城北路７７８號","OBJECTID":509127},"geometry":{"x":160936.29000000097,"y":2553133.2700000014}},{"attributes":{"ID":509155,"DIS_CODE":0,"TOWNNAME":"安南區","LI":"學東里","LIN":"15鄰","STREET":"城北路","SECT":" ","MAREA":" ","LANE":" ","ALLEY":" ","HOUSE_NO":"７７８號之５","E_COORD97":160938.45999999999,"N_COORD97":2553155.1099999999,"ADDRESS":"城北路７７８號之５","OBJECTID":509128},"geometry":{"x":160938.46000000089,"y":2553155.1099999994}},{"attributes":{"ID":509156,"DIS_CODE":0,"TOWNNAME":"安南區","LI":"學東里","LIN":"15鄰","STREET":"城北路","SECT":" ","MAREA":" ","LANE":" ","ALLEY":" ","HOUSE_NO":"７９２號","E_COORD97":160938.07999999999,"N_COORD97":2553160.8300000001,"ADDRESS":"城北路７９２號","OBJECTID":509129},"geometry":{"x":160938.08000000007,"y":2553160.8300000019}},{"attributes":{"ID":509157,"DIS_CODE":0,"TOWNNAME":"安南區","LI":"學東里","LIN":"15鄰","STREET":"城北路","SECT":" ","MAREA":" ","LANE":" ","ALLEY":" ","HOUSE_NO":"７９４號","E_COORD97":160938.45999999999,"N_COORD97":2553165.79,"ADDRESS":"城北路７９４號","OBJECTID":509130},"geometry":{"x":160938.46000000089,"y":2553165.790000001}},{"attributes":{"ID":509158,"DIS_CODE":0,"TOWNNAME":"新營區","LI":"三仙里","LIN":"14鄰","STREET":"中華路","SECT":" ","MAREA":" ","LANE":" ","ALLEY":" ","HOUSE_NO":"６４號之４","E_COORD97":179532.75,"N_COORD97":2578192.9199999999,"ADDRESS":"中華路６４號之４","OBJECTID":509131},"geometry":{"x":179532.75000000093,"y":2578192.9200000037}},{"attributes":{"ID":509159,"DIS_CODE":0,"TOWNNAME":"安南區","LI":"溪心里","LIN":"15鄰","STREET":"本原街","SECT":"二段","MAREA":" ","LANE":" ","ALLEY":" ","HOUSE_NO":"５３１號","E_COORD97":165883.59,"N_COORD97":2550482.8399999999,"ADDRESS":"本原街二段５３１號","OBJECTID":509132},"geometry":{"x":165883.59000000078,"y":2550482.8399999999}},{"attributes":{"ID":509160,"DIS_CODE":0,"TOWNNAME":"安南區","LI":"溪心里","LIN":"15鄰","STREET":"本原街","SECT":"二段","MAREA":" ","LANE":" ","ALLEY":" ","HOUSE_NO":"５３３號","E_COORD97":165880.20999999999,"N_COORD97":2550479.8999999999,"ADDRESS":"本原街二段５３３號","OBJECTID":509133},"geometry":{"x":165880.20999999996,"y":2550479.9000000004}},{"attributes":{"ID":509161,"DIS_CODE":0,"TOWNNAME":"安南區","LI":"溪心里","LIN":"15鄰","STREET":"本原街","SECT":"二段","MAREA":" ","LANE":" ","ALLEY":" ","HOUSE_NO":"５３５號","E_COORD97":165876.23999999999,"N_COORD97":2550476.8100000001,"ADDRESS":"本原街二段５３５號","OBJECTID":509134},"geometry":{"x":165876.24000000115,"y":2550476.8100000005}},{"attributes":{"ID":509162,"DIS_CODE":0,"TOWNNAME":"安南區","LI":"大安里","LIN":"15鄰","STREET":"義安街","SECT":" ","MAREA":" ","LANE":" ","ALLEY":" ","HOUSE_NO":"１１０號","E_COORD97":167483.42999999999,"N_COORD97":2548114.6099999999,"ADDRESS":"義安街１１０號","OBJECTID":509135},"geometry":{"x":167483.43000000063,"y":2548114.6099999994}},{"attributes":{"ID":509163,"DIS_CODE":0,"TOWNNAME":"安南區","LI":"安東里","LIN":"15鄰","STREET":"安和路","SECT":"一段","MAREA":" ","LANE":" ","ALLEY":" ","HOUSE_NO":"１８６號","E_COORD97":169395.06,"N_COORD97":2547846.6099999999,"ADDRESS":"安和路一段１８６號","OBJECTID":509136},"geometry":{"x":169395.05999999959,"y":2547846.6099999994}},{"attributes":{"ID":509164,"DIS_CODE":0,"TOWNNAME":"善化區","LI":"光文里","LIN":"15鄰","STREET":"民生路","SECT":" ","MAREA":" ","LANE":" ","ALLEY":" ","HOUSE_NO":"２０９號","E_COORD97":178369.76999999999,"N_COORD97":2558937.2599999998,"ADDRESS":"民生路２０９號","OBJECTID":509137},"geometry":{"x":178369.76999999955,"y":2558937.2600000016}},{"attributes":{"ID":509165,"DIS_CODE":0,"TOWNNAME":"善化區","LI":"東關里","LIN":"15鄰","STREET":"中興路","SECT":" ","MAREA":" ","LANE":" ","ALLEY":" ","HOUSE_NO":"１３０號","E_COORD97":177352.67000000001,"N_COORD97":2559046.5,"ADDRESS":"中興路１３０號","OBJECTID":509138},"geometry":{"x":177352.67000000086,"y":2559046.5}},{"attributes":{"ID":509166,"DIS_CODE":0,"TOWNNAME":"新營區","LI":"新東里","LIN":"20鄰","STREET":"東學路","SECT":" ","MAREA":" ","LANE":" ","ALLEY":" ","HOUSE_NO":"３９號","E_COORD97":180861.85000000001,"N_COORD97":2579376,"ADDRESS":"東學路３９號","OBJECTID":509139},"geometry":{"x":180861.85000000149,"y":2579376.0000000019}},{"attributes":{"ID":509167,"DIS_CODE":0,"TOWNNAME":"新營區","LI":"大宏里","LIN":"26鄰","STREET":"民族路","SECT":" ","MAREA":" ","LANE":" ","ALLEY":" ","HOUSE_NO":"７號之１６","E_COORD97":180290.82000000001,"N_COORD97":2578413.04,"ADDRESS":"民族路７號之１６","OBJECTID":509140},"geometry":{"x":180290.8200000003,"y":2578413.040000001}},{"attributes":{"ID":509168,"DIS_CODE":0,"TOWNNAME":"善化區","LI":"坐駕里","LIN":"15鄰","STREET":"大成路","SECT":" ","MAREA":" ","LANE":" ","ALLEY":" ","HOUSE_NO":"１９５號之２７","E_COORD97":178321.20999999999,"N_COORD97":2558674.77,"ADDRESS":"大成路１９５號之２７","OBJECTID":509141},"geometry":{"x":178321.20999999996,"y":2558674.7699999996}},{"attributes":{"ID":509169,"DIS_CODE":0,"TOWNNAME":"善化區","LI":"光文里","LIN":"15鄰","STREET":"民生路","SECT":" ","MAREA":" ","LANE":" ","ALLEY":" ","HOUSE_NO":"２３８號","E_COORD97":178313.88,"N_COORD97":2558947.5099999998,"ADDRESS":"民生路２３８號","OBJECTID":509142},"geometry":{"x":178313.88000000175,"y":2558947.5099999998}},{"attributes":{"ID":509170,"DIS_CODE":0,"TOWNNAME":"善化區","LI":"光文里","LIN":"15鄰","STREET":"大成路","SECT":" ","MAREA":" ","LANE":" ","ALLEY":" ","HOUSE_NO":"２２６號","E_COORD97":178322.17999999999,"N_COORD97":2558869,"ADDRESS":"大成路２２６號","OBJECTID":509143},"geometry":{"x":178322.18000000063,"y":2558869.0000000019}},{"attributes":{"ID":509171,"DIS_CODE":0,"TOWNNAME":"善化區","LI":"文昌里","LIN":"15鄰","STREET":"永福路","SECT":" ","MAREA":" ","LANE":" ","ALLEY":" ","HOUSE_NO":"１３號","E_COORD97":177615.12,"N_COORD97":2558898.25,"ADDRESS":"永福路１３號","OBJECTID":509144},"geometry":{"x":177615.12000000011,"y":2558898.25}},{"attributes":{"ID":509172,"DIS_CODE":0,"TOWNNAME":"新營區","LI":"民權里","LIN":"20鄰","STREET":"仁愛街","SECT":" ","MAREA":" ","LANE":" ","ALLEY":" ","HOUSE_NO":"３７之１號","E_COORD97":179767.76000000001,"N_COORD97":2578266,"ADDRESS":"仁愛街３７之１號","OBJECTID":509145},"geometry":{"x":179767.76000000071,"y":2578266}},{"attributes":{"ID":509173,"DIS_CODE":0,"TOWNNAME":"新營區","LI":"三仙里","LIN":"14鄰","STREET":"中華路","SECT":" ","MAREA":" ","LANE":" ","ALLEY":" ","HOUSE_NO":"６２之６號","E_COORD97":179546.42000000001,"N_COORD97":2578199.5,"ADDRESS":"中華路６２之６號","OBJECTID":509146},"geometry":{"x":179546.42000000086,"y":2578199.5000000037}},{"attributes":{"ID":509174,"DIS_CODE":0,"TOWNNAME":"新營區","LI":"三仙里","LIN":"7鄰","STREET":"博愛街","SECT":" ","MAREA":" ","LANE":" ","ALLEY":" ","HOUSE_NO":"７８號","E_COORD97":179707.31,"N_COORD97":2578136.6600000001,"ADDRESS":"博愛街７８號","OBJECTID":509147},"geometry":{"x":179707.30999999959,"y":2578136.6600000001}},{"attributes":{"ID":509175,"DIS_CODE":0,"TOWNNAME":"善化區","LI":"坐駕里","LIN":"15鄰","STREET":"大成路","SECT":" ","MAREA":" ","LANE":" ","ALLEY":" ","HOUSE_NO":"１９５號之１０","E_COORD97":178323.76000000001,"N_COORD97":2558780.77,"ADDRESS":"大成路１９５號之１０","OBJECTID":509148},"geometry":{"x":178323.76000000071,"y":2558780.7700000014}},{"attributes":{"ID":509176,"DIS_CODE":0,"TOWNNAME":"善化區","LI":"光文里","LIN":"15鄰","STREET":"大成路","SECT":" ","MAREA":" ","LANE":" ","ALLEY":" ","HOUSE_NO":"２３２號","E_COORD97":178308.38,"N_COORD97":2558867,"ADDRESS":"大成路２３２號","OBJECTID":509149},"geometry":{"x":178308.37999999989,"y":2558867}},{"attributes":{"ID":509177,"DIS_CODE":0,"TOWNNAME":"善化區","LI":"光文里","LIN":"15鄰","STREET":"民生路","SECT":" ","MAREA":" ","LANE":" ","ALLEY":" ","HOUSE_NO":"２３６號","E_COORD97":178318.57000000001,"N_COORD97":2558948.2599999998,"ADDRESS":"民生路２３６號","OBJECTID":509150},"geometry":{"x":178318.57000000123,"y":2558948.2600000016}},{"attributes":{"ID":509178,"DIS_CODE":0,"TOWNNAME":"善化區","LI":"坐駕里","LIN":"15鄰","STREET":"大成路","SECT":" ","MAREA":" ","LANE":" ","ALLEY":" ","HOUSE_NO":"１９５號之５","E_COORD97":178326.53,"N_COORD97":2558802.52,"ADDRESS":"大成路１９５號之５","OBJECTID":509151},"geometry":{"x":178326.53000000026,"y":2558802.5200000033}},{"attributes":{"ID":509179,"DIS_CODE":0,"TOWNNAME":"善化區","LI":"光文里","LIN":"15鄰","STREET":"大成路","SECT":" ","MAREA":" ","LANE":" ","ALLEY":" ","HOUSE_NO":"２３４號","E_COORD97":178297.73999999999,"N_COORD97":2558866.25,"ADDRESS":"大成路２３４號","OBJECTID":509152},"geometry":{"x":178297.74000000022,"y":2558866.2500000019}},{"attributes":{"ID":509180,"DIS_CODE":0,"TOWNNAME":"善化區","LI":"坐駕里","LIN":"15鄰","STREET":"大成路","SECT":" ","MAREA":" ","LANE":" ","ALLEY":" ","HOUSE_NO":"１９５號之２０","E_COORD97":178305.56,"N_COORD97":2558717.77,"ADDRESS":"大成路１９５號之２０","OBJECTID":509153},"geometry":{"x":178305.56000000145,"y":2558717.7699999996}},{"attributes":{"ID":509181,"DIS_CODE":0,"TOWNNAME":"善化區","LI":"坐駕里","LIN":"15鄰","STREET":"大成路","SECT":" ","MAREA":" ","LANE":" ","ALLEY":" ","HOUSE_NO":"１９５號之６","E_COORD97":178318.69,"N_COORD97":2558801.52,"ADDRESS":"大成路１９５號之６","OBJECTID":509154},"geometry":{"x":178318.69000000041,"y":2558801.5199999996}},{"attributes":{"ID":509182,"DIS_CODE":0,"TOWNNAME":"善化區","LI":"光文里","LIN":"15鄰","STREET":"大成路","SECT":" ","MAREA":" ","LANE":" ","ALLEY":" ","HOUSE_NO":"２２２之１號","E_COORD97":178327.29999999999,"N_COORD97":2558869.52,"ADDRESS":"大成路２２２之１號","OBJECTID":509155},"geometry":{"x":178327.29999999981,"y":2558869.5199999996}},{"attributes":{"ID":509183,"DIS_CODE":0,"TOWNNAME":"善化區","LI":"光文里","LIN":"15鄰","STREET":"大成路","SECT":" ","MAREA":" ","LANE":" ","ALLEY":" ","HOUSE_NO":"２３０號","E_COORD97":178313.42999999999,"N_COORD97":2558867.75,"ADDRESS":"大成路２３０號","OBJECTID":509156},"geometry":{"x":178313.43000000156,"y":2558867.75}},{"attributes":{"ID":509184,"DIS_CODE":0,"TOWNNAME":"善化區","LI":"坐駕里","LIN":"15鄰","STREET":"大成路","SECT":" ","MAREA":" ","LANE":" ","ALLEY":" ","HOUSE_NO":"１９５號之２","E_COORD97":178315.70999999999,"N_COORD97":2558824.52,"ADDRESS":"大成路１９５號之２","OBJECTID":509157},"geometry":{"x":178315.71000000089,"y":2558824.5199999996}},{"attributes":{"ID":509185,"DIS_CODE":0,"TOWNNAME":"善化區","LI":"光文里","LIN":"15鄰","STREET":"大成路","SECT":" ","MAREA":" ","LANE":" ","ALLEY":" ","HOUSE_NO":"２１４號","E_COORD97":178348.42000000001,"N_COORD97":2558873,"ADDRESS":"大成路２１４號","OBJECTID":509158},"geometry":{"x":178348.42000000086,"y":2558873}},{"attributes":{"ID":509186,"DIS_CODE":0,"TOWNNAME":"新營區","LI":"三仙里","LIN":"29鄰","STREET":"育德街","SECT":" ","MAREA":" ","LANE":" ","ALLEY":" ","HOUSE_NO":"６９號","E_COORD97":179588.12,"N_COORD97":2579105.1400000001,"ADDRESS":"育德街６９號","OBJECTID":509159},"geometry":{"x":179588.12000000104,"y":2579105.1400000025}},{"attributes":{"ID":509187,"DIS_CODE":0,"TOWNNAME":"新營區","LI":"大宏里","LIN":" ","STREET":"大同路","SECT":" ","MAREA":" ","LANE":" ","ALLEY":" ","HOUSE_NO":"２７之２號","E_COORD97":180702.38,"N_COORD97":2578645.8900000001,"ADDRESS":"大同路２７之２號","OBJECTID":509160},"geometry":{"x":180702.37999999896,"y":2578645.8900000025}},{"attributes":{"ID":509188,"DIS_CODE":0,"TOWNNAME":"善化區","LI":"光文里","LIN":"15鄰","STREET":"樹人路","SECT":" ","MAREA":" ","LANE":" ","ALLEY":" ","HOUSE_NO":"３１號之１","E_COORD97":178367.29000000001,"N_COORD97":2558969.77,"ADDRESS":"樹人路３１號之１","OBJECTID":509161},"geometry":{"x":178367.2900000019,"y":2558969.7699999996}},{"attributes":{"ID":509189,"DIS_CODE":0,"TOWNNAME":"善化區","LI":"光文里","LIN":"15鄰","STREET":"民生路","SECT":" ","MAREA":" ","LANE":" ","ALLEY":" ","HOUSE_NO":"２２１號","E_COORD97":178339.95999999999,"N_COORD97":2558933.2599999998,"ADDRESS":"民生路２２１號","OBJECTID":509162},"geometry":{"x":178339.95999999996,"y":2558933.2600000035}},{"attributes":{"ID":509190,"DIS_CODE":0,"TOWNNAME":"善化區","LI":"光文里","LIN":"15鄰","STREET":"樹人路","SECT":" ","MAREA":" ","LANE":" ","ALLEY":" ","HOUSE_NO":"３５號之１","E_COORD97":178365.73999999999,"N_COORD97":2558979.02,"ADDRESS":"樹人路３５號之１","OBJECTID":509163},"geometry":{"x":178365.74000000022,"y":2558979.0200000014}},{"attributes":{"ID":509191,"DIS_CODE":0,"TOWNNAME":"善化區","LI":"光文里","LIN":"15鄰","STREET":"民生路","SECT":" ","MAREA":" ","LANE":" ","ALLEY":" ","HOUSE_NO":"２３１號","E_COORD97":178313.45000000001,"N_COORD97":2558929.7599999998,"ADDRESS":"民生路２３１號","OBJECTID":509164},"geometry":{"x":178313.45000000019,"y":2558929.7600000035}},{"attributes":{"ID":509192,"DIS_CODE":0,"TOWNNAME":"善化區","LI":"坐駕里","LIN":"15鄰","STREET":"大成路","SECT":" ","MAREA":" ","LANE":" ","ALLEY":" ","HOUSE_NO":"１９５號之８","E_COORD97":178293.23999999999,"N_COORD97":2558793.27,"ADDRESS":"大成路１９５號之８","OBJECTID":509165},"geometry":{"x":178293.24000000209,"y":2558793.2699999996}},{"attributes":{"ID":509193,"DIS_CODE":0,"TOWNNAME":"善化區","LI":"光文里","LIN":"15鄰","STREET":"大成路","SECT":" ","MAREA":" ","LANE":" ","ALLEY":" ","HOUSE_NO":"２２０號","E_COORD97":178335.28,"N_COORD97":2558871.25,"ADDRESS":"大成路２２０號","OBJECTID":509166},"geometry":{"x":178335.27999999933,"y":2558871.25}},{"attributes":{"ID":509194,"DIS_CODE":0,"TOWNNAME":"善化區","LI":"坐駕里","LIN":"15鄰","STREET":"大成路","SECT":" ","MAREA":" ","LANE":" ","ALLEY":" ","HOUSE_NO":"１９５號之７","E_COORD97":178303.64999999999,"N_COORD97":2558794.77,"ADDRESS":"大成路１９５號之７","OBJECTID":509167},"geometry":{"x":178303.65000000037,"y":2558794.7700000014}},{"attributes":{"ID":509195,"DIS_CODE":0,"TOWNNAME":"善化區","LI":"光文里","LIN":"15鄰","STREET":"大成路","SECT":" ","MAREA":" ","LANE":" ","ALLEY":" ","HOUSE_NO":"２１８號","E_COORD97":178340.04000000001,"N_COORD97":2558871.75,"ADDRESS":"大成路２１８號","OBJECTID":509168},"geometry":{"x":178340.03999999911,"y":2558871.75}},{"attributes":{"ID":509196,"DIS_CODE":0,"TOWNNAME":"善化區","LI":"光文里","LIN":"15鄰","STREET":"民權路","SECT":" ","MAREA":" ","LANE":" ","ALLEY":" ","HOUSE_NO":"１４１號","E_COORD97":178318.82000000001,"N_COORD97":2559011.5099999998,"ADDRESS":"民權路１４１號","OBJECTID":509169},"geometry":{"x":178318.82000000123,"y":2559011.5099999998}},{"attributes":{"ID":509197,"DIS_CODE":0,"TOWNNAME":"中西區","LI":"三民里","LIN":"15鄰","STREET":"公園路","SECT":" ","MAREA":" ","LANE":" ","ALLEY":" ","HOUSE_NO":"３７號","E_COORD97":168530.88,"N_COORD97":2543888.2400000002,"ADDRESS":"公園路３７號","OBJECTID":509170},"geometry":{"x":168530.87999999896,"y":2543888.2400000021}},{"attributes":{"ID":509198,"DIS_CODE":0,"TOWNNAME":"中西區","LI":"三民里","LIN":"15鄰","STREET":"公園路","SECT":" ","MAREA":" ","LANE":" ","ALLEY":" ","HOUSE_NO":"３９號","E_COORD97":168532.76999999999,"N_COORD97":2543901.1699999999,"ADDRESS":"公園路３９號","OBJECTID":509171},"geometry":{"x":168532.76999999955,"y":2543901.1700000037}},{"attributes":{"ID":509199,"DIS_CODE":0,"TOWNNAME":"中西區","LI":"三民里","LIN":"15鄰","STREET":"公園路","SECT":" ","MAREA":" ","LANE":" ","ALLEY":" ","HOUSE_NO":"４１號","E_COORD97":168533.57999999999,"N_COORD97":2543905.75,"ADDRESS":"公園路４１號","OBJECTID":509172},"geometry":{"x":168533.58000000101,"y":2543905.75}},{"attributes":{"ID":509200,"DIS_CODE":0,"TOWNNAME":"中西區","LI":"三民里","LIN":"15鄰","STREET":"公園路","SECT":" ","MAREA":" ","LANE":" ","ALLEY":" ","HOUSE_NO":"４３號","E_COORD97":168534.66,"N_COORD97":2543909.79,"ADDRESS":"公園路４３號","OBJECTID":509173},"geometry":{"x":168534.66000000108,"y":2543909.790000001}},{"attributes":{"ID":509201,"DIS_CODE":0,"TOWNNAME":"中西區","LI":"三民里","LIN":"15鄰","STREET":"公園路","SECT":" ","MAREA":" ","LANE":" ","ALLEY":" ","HOUSE_NO":"４７號","E_COORD97":168535.60999999999,"N_COORD97":2543915.02,"ADDRESS":"公園路４７號","OBJECTID":509174},"geometry":{"x":168535.61000000127,"y":2543915.0200000033}},{"attributes":{"ID":509202,"DIS_CODE":0,"TOWNNAME":"中西區","LI":"三民里","LIN":"15鄰","STREET":"公園路","SECT":" ","MAREA":" ","LANE":" ","ALLEY":" ","HOUSE_NO":"４９號","E_COORD97":168536.09,"N_COORD97":2543918.7999999998,"ADDRESS":"公園路４９號","OBJECTID":509175},"geometry":{"x":168536.08999999985,"y":2543918.8000000026}},{"attributes":{"ID":509203,"DIS_CODE":0,"TOWNNAME":"中西區","LI":"三民里","LIN":"15鄰","STREET":"公園路","SECT":" ","MAREA":" ","LANE":" ","ALLEY":" ","HOUSE_NO":"５１號","E_COORD97":168536.32000000001,"N_COORD97":2543922.1099999999,"ADDRESS":"公園路５１號","OBJECTID":509176},"geometry":{"x":168536.3200000003,"y":2543922.1100000013}},{"attributes":{"ID":509204,"DIS_CODE":0,"TOWNNAME":"中西區","LI":"三民里","LIN":"15鄰","STREET":"公園路","SECT":" ","MAREA":" ","LANE":" ","ALLEY":" ","HOUSE_NO":"５３號","E_COORD97":168537.26999999999,"N_COORD97":2543926.3700000001,"ADDRESS":"公園路５３號","OBJECTID":509177},"geometry":{"x":168537.27000000048,"y":2543926.370000001}},{"attributes":{"ID":509205,"DIS_CODE":0,"TOWNNAME":"中西區","LI":"三民里","LIN":"15鄰","STREET":"民權路","SECT":"二段","MAREA":" ","LANE":" ","ALLEY":" ","HOUSE_NO":"４２號","E_COORD97":168526.57000000001,"N_COORD97":2543888.5099999998,"ADDRESS":"民權路二段４２號","OBJECTID":509178},"geometry":{"x":168526.5700000003,"y":2543888.5100000035}},{"attributes":{"ID":509206,"DIS_CODE":0,"TOWNNAME":"中西區","LI":"三民里","LIN":"15鄰","STREET":"民權路","SECT":"二段","MAREA":" ","LANE":" ","ALLEY":" ","HOUSE_NO":"４６號","E_COORD97":168522.79000000001,"N_COORD97":2543889.3199999998,"ADDRESS":"民權路二段４６號","OBJECTID":509179},"geometry":{"x":168522.79000000004,"y":2543889.3200000003}},{"attributes":{"ID":509207,"DIS_CODE":0,"TOWNNAME":"中西區","LI":"三民里","LIN":"15鄰","STREET":"民權路","SECT":"二段","MAREA":" ","LANE":" ","ALLEY":" ","HOUSE_NO":"４８號","E_COORD97":168518.75,"N_COORD97":2543889.8599999999,"ADDRESS":"民權路二段４８號","OBJECTID":509180},"geometry":{"x":168518.75000000093,"y":2543889.8600000013}},{"attributes":{"ID":509208,"DIS_CODE":0,"TOWNNAME":"中西區","LI":"三民里","LIN":"15鄰","STREET":"民權路","SECT":"二段","MAREA":" ","LANE":" ","ALLEY":" ","HOUSE_NO":"４８號之１","E_COORD97":168516.04999999999,"N_COORD97":2543892.2799999998,"ADDRESS":"民權路二段４８號之１","OBJECTID":509181},"geometry":{"x":168516.04999999981,"y":2543892.2799999993}},{"attributes":{"ID":509209,"DIS_CODE":0,"TOWNNAME":"中西區","LI":"三民里","LIN":"15鄰","STREET":"民權路","SECT":"二段","MAREA":" ","LANE":" ","ALLEY":" ","HOUSE_NO":"５０號","E_COORD97":168511.73999999999,"N_COORD97":2543892.2799999998,"ADDRESS":"民權路二段５０號","OBJECTID":509182},"geometry":{"x":168511.74000000022,"y":2543892.2799999993}},{"attributes":{"ID":509210,"DIS_CODE":0,"TOWNNAME":"中西區","LI":"三民里","LIN":"15鄰","STREET":"民權路","SECT":"二段","MAREA":" ","LANE":" ","ALLEY":" ","HOUSE_NO":"５２號","E_COORD97":168507.14999999999,"N_COORD97":2543894.4399999999,"ADDRESS":"民權路二段５２號","OBJECTID":509183},"geometry":{"x":168507.15000000037,"y":2543894.4399999995}},{"attributes":{"ID":509211,"DIS_CODE":0,"TOWNNAME":"中西區","LI":"三民里","LIN":"15鄰","STREET":"民權路","SECT":"二段","MAREA":" ","LANE":" ","ALLEY":" ","HOUSE_NO":"５４號","E_COORD97":168502.57000000001,"N_COORD97":2543895.79,"ADDRESS":"民權路二段５４號","OBJECTID":509184},"geometry":{"x":168502.5700000003,"y":2543895.7900000028}},{"attributes":{"ID":509212,"DIS_CODE":0,"TOWNNAME":"中西區","LI":"三民里","LIN":"15鄰","STREET":"民權路","SECT":"二段","MAREA":" ","LANE":" ","ALLEY":" ","HOUSE_NO":"５６號","E_COORD97":168497.44,"N_COORD97":2543897.1299999999,"ADDRESS":"民權路二段５６號","OBJECTID":509185},"geometry":{"x":168497.44000000134,"y":2543897.1300000008}},{"attributes":{"ID":509213,"DIS_CODE":0,"TOWNNAME":"中西區","LI":"三民里","LIN":"15鄰","STREET":"民權路","SECT":"二段","MAREA":" ","LANE":" ","ALLEY":" ","HOUSE_NO":"５８號","E_COORD97":168493.67000000001,"N_COORD97":2543899.02,"ADDRESS":"民權路二段５８號","OBJECTID":509186},"geometry":{"x":168493.67000000086,"y":2543899.0200000014}},{"attributes":{"ID":509214,"DIS_CODE":0,"TOWNNAME":"中西區","LI":"三民里","LIN":"15鄰","STREET":"民權路","SECT":"二段","MAREA":" ","LANE":" ","ALLEY":" ","HOUSE_NO":"６０號","E_COORD97":168490.97,"N_COORD97":2543899.02,"ADDRESS":"民權路二段６０號","OBJECTID":509187},"geometry":{"x":168490.96999999974,"y":2543899.0200000014}},{"attributes":{"ID":509215,"DIS_CODE":0,"TOWNNAME":"中西區","LI":"三民里","LIN":"15鄰","STREET":"民權路","SECT":"二段","MAREA":" ","LANE":" ","ALLEY":" ","HOUSE_NO":"６２號","E_COORD97":168487.20000000001,"N_COORD97":2543900.8999999999,"ADDRESS":"民權路二段６２號","OBJECTID":509188},"geometry":{"x":168487.20000000112,"y":2543900.9000000022}},{"attributes":{"ID":509216,"DIS_CODE":0,"TOWNNAME":"新營區","LI":"民權里","LIN":"7鄰","STREET":"文化街","SECT":" ","MAREA":" ","LANE":" ","ALLEY":" ","HOUSE_NO":"６號","E_COORD97":179828.26000000001,"N_COORD97":2578026.4399999999,"ADDRESS":"文化街６號","OBJECTID":509189},"geometry":{"x":179828.25999999978,"y":2578026.4400000032}},{"attributes":{"ID":509217,"DIS_CODE":0,"TOWNNAME":"新營區","LI":"永生里","LIN":"15鄰","STREET":"康樂街","SECT":" ","MAREA":" ","LANE":" ","ALLEY":" ","HOUSE_NO":"２２號","E_COORD97":179932.25,"N_COORD97":2577890.8399999999,"ADDRESS":"康樂街２２號","OBJECTID":509190},"geometry":{"x":179932.25000000186,"y":2577890.8399999999}},{"attributes":{"ID":509218,"DIS_CODE":0,"TOWNNAME":"中西區","LI":"三民里","LIN":"15鄰","STREET":"公園路","SECT":" ","MAREA":" ","LANE":" ","ALLEY":" ","HOUSE_NO":"５５號","E_COORD97":168537.98000000001,"N_COORD97":2543929.9199999999,"ADDRESS":"公園路５５號","OBJECTID":509191},"geometry":{"x":168537.98000000138,"y":2543929.9200000037}},{"attributes":{"ID":509219,"DIS_CODE":0,"TOWNNAME":"中西區","LI":"三民里","LIN":"15鄰","STREET":"公園路","SECT":" ","MAREA":" ","LANE":" ","ALLEY":" ","HOUSE_NO":"５７號","E_COORD97":168538.69,"N_COORD97":2543933.9399999999,"ADDRESS":"公園路５７號","OBJECTID":509192},"geometry":{"x":168538.69000000134,"y":2543933.9400000013}},{"attributes":{"ID":509220,"DIS_CODE":0,"TOWNNAME":"中西區","LI":"三民里","LIN":"15鄰","STREET":"公園路","SECT":" ","MAREA":" ","LANE":" ","ALLEY":" ","HOUSE_NO":"５９號","E_COORD97":168540.10999999999,"N_COORD97":2543939.1400000001,"ADDRESS":"公園路５９號","OBJECTID":509193},"geometry":{"x":168540.1100000022,"y":2543939.1400000043}},{"attributes":{"ID":509221,"DIS_CODE":0,"TOWNNAME":"中西區","LI":"三民里","LIN":"15鄰","STREET":"公園路","SECT":" ","MAREA":" ","LANE":" ","ALLEY":" ","HOUSE_NO":"６１號","E_COORD97":168541.53,"N_COORD97":2543946.4700000002,"ADDRESS":"公園路６１號","OBJECTID":509194},"geometry":{"x":168541.53000000026,"y":2543946.4700000007}},{"attributes":{"ID":509222,"DIS_CODE":0,"TOWNNAME":"中西區","LI":"三民里","LIN":"15鄰","STREET":"公園路","SECT":" ","MAREA":" ","LANE":" ","ALLEY":" ","HOUSE_NO":"６３號","E_COORD97":168544.85000000001,"N_COORD97":2543955.2200000002,"ADDRESS":"公園路６３號","OBJECTID":509195},"geometry":{"x":168544.85000000056,"y":2543955.2200000007}},{"attributes":{"ID":509223,"DIS_CODE":0,"TOWNNAME":"中西區","LI":"普濟里","LIN":"15鄰","STREET":"國華街","SECT":"三段","MAREA":" ","LANE":" ","ALLEY":" ","HOUSE_NO":"２７５號","E_COORD97":167970.48000000001,"N_COORD97":2544491.9399999999,"ADDRESS":"國華街三段２７５號","OBJECTID":509196},"geometry":{"x":167970.48000000138,"y":2544491.9400000032}},{"attributes":{"ID":509224,"DIS_CODE":0,"TOWNNAME":"中西區","LI":"普濟里","LIN":"15鄰","STREET":"國華街","SECT":"三段","MAREA":" ","LANE":" ","ALLEY":" ","HOUSE_NO":"２７７號","E_COORD97":167971.12,"N_COORD97":2544497.46,"ADDRESS":"國華街三段２７７號","OBJECTID":509197},"geometry":{"x":167971.12000000011,"y":2544497.4600000028}},{"attributes":{"ID":509225,"DIS_CODE":0,"TOWNNAME":"中西區","LI":"普濟里","LIN":"15鄰","STREET":"國華街","SECT":"三段","MAREA":" ","LANE":" ","ALLEY":" ","HOUSE_NO":"２７９號","E_COORD97":167972.19,"N_COORD97":2544503.8399999999,"ADDRESS":"國華街三段２７９號","OBJECTID":509198},"geometry":{"x":167972.19000000134,"y":2544503.8400000017}},{"attributes":{"ID":509226,"DIS_CODE":0,"TOWNNAME":"中西區","LI":"普濟里","LIN":"15鄰","STREET":"成功路","SECT":" ","MAREA":" ","LANE":" ","ALLEY":" ","HOUSE_NO":"３１５號","E_COORD97":168039.29999999999,"N_COORD97":2544486.8300000001,"ADDRESS":"成功路３１５號","OBJECTID":509199},"geometry":{"x":168039.29999999981,"y":2544486.8300000038}},{"attributes":{"ID":509227,"DIS_CODE":0,"TOWNNAME":"中西區","LI":"普濟里","LIN":"15鄰","STREET":"成功路","SECT":" ","MAREA":" ","LANE":" ","ALLEY":" ","HOUSE_NO":"３１７號","E_COORD97":168036.28,"N_COORD97":2544485.8300000001,"ADDRESS":"成功路３１７號","OBJECTID":509200},"geometry":{"x":168036.28000000026,"y":2544485.8300000001}}]}