{"displayFieldName":"TOWNNAME","fieldAliases":{"ID":"ID","DIS_CODE":"DIS_CODE","TOWNNAME":"TOWNNAME","LI":"LI","LIN":"LIN","STREET":"STREET","SECT":"SECT","MAREA":"MAREA","LANE":"LANE","ALLEY":"ALLEY","HOUSE_NO":"HOUSE_NO","E_COORD97":"E_COORD97","N_COORD97":"N_COORD97","ADDRESS":"ADDRESS","OBJECTID":"OBJECTID"},"geometryType":"esriGeometryPoint","spatialReference":{"wkid":102443,"latestWkid":3826},"fields":[{"name":"ID","type":"esriFieldTypeDouble","alias":"ID"},{"name":"DIS_CODE","type":"esriFieldTypeInteger","alias":"DIS_CODE"},{"name":"TOWNNAME","type":"esriFieldTypeString","alias":"TOWNNAME","length":8},{"name":"LI","type":"esriFieldTypeString","alias":"LI","length":8},{"name":"LIN","type":"esriFieldTypeString","alias":"LIN","length":12},{"name":"STREET","type":"esriFieldTypeString","alias":"STREET","length":20},{"name":"SECT","type":"esriFieldTypeString","alias":"SECT","length":8},{"name":"MAREA","type":"esriFieldTypeString","alias":"MAREA","length":12},{"name":"LANE","type":"esriFieldTypeString","alias":"LANE","length":10},{"name":"ALLEY","type":"esriFieldTypeString","alias":"ALLEY","length":10},{"name":"HOUSE_NO","type":"esriFieldTypeString","alias":"HOUSE_NO","length":20},{"name":"E_COORD97","type":"esriFieldTypeDouble","alias":"E_COORD97"},{"name":"N_COORD97","type":"esriFieldTypeDouble","alias":"N_COORD97"},{"name":"ADDRESS","type":"esriFieldTypeString","alias":"ADDRESS","length":50},{"name":"OBJECTID","type":"esriFieldTypeOID","alias":"OBJECTID"}],"features":[{"attributes":{"ID":203202,"DIS_CODE":0,"TOWNNAME":"佳里區","LI":"漳洲里","LIN":"3鄰","STREET":" ","SECT":" ","MAREA":"番子寮","LANE":" ","ALLEY":" ","HOUSE_NO":"１８５號之５","E_COORD97":163539.91,"N_COORD97":2564532.3999999999,"ADDRESS":"番子寮１８５號之５","OBJECTID":203201},"geometry":{"x":163539.91000000015,"y":2564532.4000000004}},{"attributes":{"ID":203203,"DIS_CODE":0,"TOWNNAME":"東區","LI":"後甲里","LIN":"26鄰","STREET":"裕農路","SECT":" ","MAREA":" ","LANE":"５７１巷","ALLEY":"２弄","HOUSE_NO":"１０號","E_COORD97":171497.81,"N_COORD97":2543253.2400000002,"ADDRESS":"裕農路５７１巷２弄１０號","OBJECTID":203202},"geometry":{"x":171497.81000000145,"y":2543253.2400000039}},{"attributes":{"ID":203204,"DIS_CODE":0,"TOWNNAME":"東區","LI":"後甲里","LIN":"26鄰","STREET":"裕農路","SECT":" ","MAREA":" ","LANE":"５７１巷","ALLEY":"２弄","HOUSE_NO":"１４號","E_COORD97":171509.14999999999,"N_COORD97":2543253.48,"ADDRESS":"裕農路５７１巷２弄１４號","OBJECTID":203203},"geometry":{"x":171509.15000000037,"y":2543253.4800000023}},{"attributes":{"ID":203205,"DIS_CODE":0,"TOWNNAME":"東區","LI":"後甲里","LIN":"26鄰","STREET":"裕農路","SECT":" ","MAREA":" ","LANE":"５７１巷","ALLEY":"２弄","HOUSE_NO":"１６號","E_COORD97":171515.42000000001,"N_COORD97":2543253.96,"ADDRESS":"裕農路５７１巷２弄１６號","OBJECTID":203204},"geometry":{"x":171515.41999999993,"y":2543253.9600000028}},{"attributes":{"ID":203206,"DIS_CODE":0,"TOWNNAME":"學甲區","LI":"中洲里","LIN":"3鄰","STREET":" ","SECT":" ","MAREA":"中洲","LANE":" ","ALLEY":" ","HOUSE_NO":"３５號之９","E_COORD97":163926.04999999999,"N_COORD97":2571368.0800000001,"ADDRESS":"中洲３５號之９","OBJECTID":203205},"geometry":{"x":163926.05000000075,"y":2571368.0800000019}},{"attributes":{"ID":203207,"DIS_CODE":0,"TOWNNAME":"東區","LI":"後甲里","LIN":"26鄰","STREET":"裕農路","SECT":" ","MAREA":" ","LANE":"５７１巷","ALLEY":"２弄","HOUSE_NO":"１８號","E_COORD97":171521.20999999999,"N_COORD97":2543254.4399999999,"ADDRESS":"裕農路５７１巷２弄１８號","OBJECTID":203206},"geometry":{"x":171521.21000000089,"y":2543254.4400000032}},{"attributes":{"ID":203208,"DIS_CODE":0,"TOWNNAME":"東區","LI":"後甲里","LIN":"26鄰","STREET":"裕農路","SECT":" ","MAREA":" ","LANE":"５７１巷","ALLEY":"２弄","HOUSE_NO":"２０號","E_COORD97":171527.23999999999,"N_COORD97":2543254.4399999999,"ADDRESS":"裕農路５７１巷２弄２０號","OBJECTID":203207},"geometry":{"x":171527.24000000022,"y":2543254.4400000032}},{"attributes":{"ID":203209,"DIS_CODE":0,"TOWNNAME":"東區","LI":"後甲里","LIN":"26鄰","STREET":"裕農路","SECT":" ","MAREA":" ","LANE":"５７１巷","ALLEY":"２弄","HOUSE_NO":"６號","E_COORD97":171485.51000000001,"N_COORD97":2543253.48,"ADDRESS":"裕農路５７１巷２弄６號","OBJECTID":203208},"geometry":{"x":171485.51000000071,"y":2543253.4800000023}},{"attributes":{"ID":203210,"DIS_CODE":0,"TOWNNAME":"東區","LI":"後甲里","LIN":"26鄰","STREET":"裕農路","SECT":" ","MAREA":" ","LANE":"５７１巷","ALLEY":"２弄","HOUSE_NO":"８號","E_COORD97":171491.29999999999,"N_COORD97":2543253.7200000002,"ADDRESS":"裕農路５７１巷２弄８號","OBJECTID":203209},"geometry":{"x":171491.30000000168,"y":2543253.7200000044}},{"attributes":{"ID":203211,"DIS_CODE":0,"TOWNNAME":"東區","LI":"小東里","LIN":"26鄰","STREET":"小東路","SECT":" ","MAREA":" ","LANE":"１９８巷","ALLEY":"２４弄","HOUSE_NO":"１８號","E_COORD97":170780.91,"N_COORD97":2544401.8500000001,"ADDRESS":"小東路１９８巷２４弄１８號","OBJECTID":203210},"geometry":{"x":170780.91000000108,"y":2544401.8500000015}},{"attributes":{"ID":203212,"DIS_CODE":0,"TOWNNAME":"東區","LI":"小東里","LIN":"26鄰","STREET":"小東路","SECT":" ","MAREA":" ","LANE":"１９８巷","ALLEY":"２４弄","HOUSE_NO":"２０號","E_COORD97":170777.20000000001,"N_COORD97":2544401.9700000002,"ADDRESS":"小東路１９８巷２４弄２０號","OBJECTID":203211},"geometry":{"x":170777.20000000112,"y":2544401.9700000025}},{"attributes":{"ID":203213,"DIS_CODE":0,"TOWNNAME":"東區","LI":"小東里","LIN":"26鄰","STREET":"小東路","SECT":" ","MAREA":" ","LANE":"１９８巷","ALLEY":"２４弄","HOUSE_NO":"２號","E_COORD97":170813.12,"N_COORD97":2544401.6299999999,"ADDRESS":"小東路１９８巷２４弄２號","OBJECTID":203212},"geometry":{"x":170813.12000000197,"y":2544401.629999999}},{"attributes":{"ID":203214,"DIS_CODE":0,"TOWNNAME":"東區","LI":"小東里","LIN":"26鄰","STREET":"小東路","SECT":" ","MAREA":" ","LANE":"１９８巷","ALLEY":"２４弄","HOUSE_NO":"４６號","E_COORD97":170710.5,"N_COORD97":2544405.2200000002,"ADDRESS":"小東路１９８巷２４弄４６號","OBJECTID":203213},"geometry":{"x":170710.50000000093,"y":2544405.2200000007}},{"attributes":{"ID":203215,"DIS_CODE":0,"TOWNNAME":"東區","LI":"小東里","LIN":"26鄰","STREET":"小東路","SECT":" ","MAREA":" ","LANE":"１９８巷","ALLEY":"２４弄","HOUSE_NO":"４號","E_COORD97":170808.84,"N_COORD97":2544401.6299999999,"ADDRESS":"小東路１９８巷２４弄４號","OBJECTID":203214},"geometry":{"x":170808.83999999985,"y":2544401.629999999}},{"attributes":{"ID":203216,"DIS_CODE":0,"TOWNNAME":"東區","LI":"小東里","LIN":"26鄰","STREET":"小東路","SECT":" ","MAREA":" ","LANE":"１９８巷","ALLEY":"２４弄","HOUSE_NO":"６號","E_COORD97":170805.23999999999,"N_COORD97":2544401.8500000001,"ADDRESS":"小東路１９８巷２４弄６號","OBJECTID":203215},"geometry":{"x":170805.24000000022,"y":2544401.8500000015}},{"attributes":{"ID":203217,"DIS_CODE":0,"TOWNNAME":"佳里區","LI":"漳洲里","LIN":"3鄰","STREET":" ","SECT":" ","MAREA":"番子寮","LANE":" ","ALLEY":" ","HOUSE_NO":"１８５號","E_COORD97":163558.26999999999,"N_COORD97":2564553.6800000002,"ADDRESS":"番子寮１８５號","OBJECTID":203216},"geometry":{"x":163558.27000000048,"y":2564553.6799999997}},{"attributes":{"ID":203218,"DIS_CODE":0,"TOWNNAME":"東區","LI":"小東里","LIN":"26鄰","STREET":"小東路","SECT":" ","MAREA":" ","LANE":"１９８巷","ALLEY":"２４弄","HOUSE_NO":"３０號","E_COORD97":170750.51000000001,"N_COORD97":2544404.5499999998,"ADDRESS":"小東路１９８巷２４弄３０號","OBJECTID":203217},"geometry":{"x":170750.50999999978,"y":2544404.5500000045}},{"attributes":{"ID":203219,"DIS_CODE":0,"TOWNNAME":"東區","LI":"小東里","LIN":"26鄰","STREET":"小東路","SECT":" ","MAREA":" ","LANE":"１９８巷","ALLEY":"２４弄","HOUSE_NO":"３２號","E_COORD97":170746.79000000001,"N_COORD97":2544405.8999999999,"ADDRESS":"小東路１９８巷２４弄３２號","OBJECTID":203218},"geometry":{"x":170746.79000000004,"y":2544405.9000000022}},{"attributes":{"ID":203220,"DIS_CODE":0,"TOWNNAME":"東區","LI":"小東里","LIN":"26鄰","STREET":"小東路","SECT":" ","MAREA":" ","LANE":"１９８巷","ALLEY":"２４弄","HOUSE_NO":"３２號之１","E_COORD97":170742.63,"N_COORD97":2544406.9199999999,"ADDRESS":"小東路１９８巷２４弄３２號之１","OBJECTID":203219},"geometry":{"x":170742.62999999989,"y":2544406.9199999999}},{"attributes":{"ID":203221,"DIS_CODE":0,"TOWNNAME":"永康區","LI":"西勢里","LIN":"26鄰","STREET":"廣興街","SECT":" ","MAREA":" ","LANE":"３８巷","ALLEY":"２６弄","HOUSE_NO":"２號","E_COORD97":175994.48999999999,"N_COORD97":2546459.2400000002,"ADDRESS":"廣興街３８巷２６弄２號","OBJECTID":203220},"geometry":{"x":175994.49000000209,"y":2546459.2400000002}},{"attributes":{"ID":203222,"DIS_CODE":0,"TOWNNAME":"東區","LI":"崇誨里","LIN":"26鄰","STREET":"林森路","SECT":"二段","MAREA":" ","LANE":"１９２巷","ALLEY":"７０弄","HOUSE_NO":"１１號","E_COORD97":170735.20999999999,"N_COORD97":2543301.1899999999,"ADDRESS":"林森路二段１９２巷７０弄１１號","OBJECTID":203221},"geometry":{"x":170735.20999999996,"y":2543301.1900000013}},{"attributes":{"ID":203223,"DIS_CODE":0,"TOWNNAME":"東區","LI":"崇誨里","LIN":"26鄰","STREET":"林森路","SECT":"二段","MAREA":" ","LANE":"１９２巷","ALLEY":"７０弄","HOUSE_NO":"１２號","E_COORD97":170689.48999999999,"N_COORD97":2543306.9700000002,"ADDRESS":"林森路二段１９２巷７０弄１２號","OBJECTID":203222},"geometry":{"x":170689.49000000022,"y":2543306.9700000025}},{"attributes":{"ID":203224,"DIS_CODE":0,"TOWNNAME":"東區","LI":"崇誨里","LIN":"26鄰","STREET":"林森路","SECT":"二段","MAREA":" ","LANE":"１９２巷","ALLEY":"７０弄","HOUSE_NO":"１３號","E_COORD97":170737.48999999999,"N_COORD97":2543292.8599999999,"ADDRESS":"林森路二段１９２巷７０弄１３號","OBJECTID":203223},"geometry":{"x":170737.49000000022,"y":2543292.8600000013}},{"attributes":{"ID":203225,"DIS_CODE":0,"TOWNNAME":"永康區","LI":"永康里","LIN":"40鄰","STREET":"永大二路","SECT":" ","MAREA":" ","LANE":" ","ALLEY":" ","HOUSE_NO":"４６號","E_COORD97":174250.79999999999,"N_COORD97":2546582.04,"ADDRESS":"永大二路４６號","OBJECTID":203224},"geometry":{"x":174250.79999999981,"y":2546582.0399999991}},{"attributes":{"ID":203226,"DIS_CODE":0,"TOWNNAME":"佳里區","LI":"漳洲里","LIN":"3鄰","STREET":" ","SECT":" ","MAREA":"番子寮","LANE":" ","ALLEY":" ","HOUSE_NO":"１８６號之１","E_COORD97":163556.35999999999,"N_COORD97":2564495.9700000002,"ADDRESS":"番子寮１８６號之１","OBJECTID":203225},"geometry":{"x":163556.3600000022,"y":2564495.9700000007}},{"attributes":{"ID":203227,"DIS_CODE":0,"TOWNNAME":"佳里區","LI":"漳洲里","LIN":"3鄰","STREET":" ","SECT":" ","MAREA":"番子寮","LANE":" ","ALLEY":" ","HOUSE_NO":"１８６號之２","E_COORD97":163542.42000000001,"N_COORD97":2564494.9300000002,"ADDRESS":"番子寮１８６號之２","OBJECTID":203226},"geometry":{"x":163542.42000000086,"y":2564494.9299999997}},{"attributes":{"ID":203228,"DIS_CODE":0,"TOWNNAME":"佳里區","LI":"漳洲里","LIN":"3鄰","STREET":" ","SECT":" ","MAREA":"番子寮","LANE":" ","ALLEY":" ","HOUSE_NO":"１８７號","E_COORD97":163514.95000000001,"N_COORD97":2564539.0299999998,"ADDRESS":"番子寮１８７號","OBJECTID":203227},"geometry":{"x":163514.95000000112,"y":2564539.0300000012}},{"attributes":{"ID":203229,"DIS_CODE":0,"TOWNNAME":"佳里區","LI":"漳洲里","LIN":"3鄰","STREET":" ","SECT":" ","MAREA":"番子寮","LANE":" ","ALLEY":" ","HOUSE_NO":"１８８號之３","E_COORD97":163517.64999999999,"N_COORD97":2564499.3999999999,"ADDRESS":"番子寮１８８號之３","OBJECTID":203228},"geometry":{"x":163517.6500000013,"y":2564499.4000000004}},{"attributes":{"ID":203230,"DIS_CODE":0,"TOWNNAME":"佳里區","LI":"漳洲里","LIN":"3鄰","STREET":" ","SECT":" ","MAREA":"番子寮","LANE":" ","ALLEY":" ","HOUSE_NO":"１８８號","E_COORD97":163521.82000000001,"N_COORD97":2564524.71,"ADDRESS":"番子寮１８８號","OBJECTID":203229},"geometry":{"x":163521.8200000003,"y":2564524.7100000009}},{"attributes":{"ID":203231,"DIS_CODE":0,"TOWNNAME":"佳里區","LI":"漳洲里","LIN":"3鄰","STREET":" ","SECT":" ","MAREA":"番子寮","LANE":" ","ALLEY":" ","HOUSE_NO":"１９０號","E_COORD97":163577.26000000001,"N_COORD97":2564446.0899999999,"ADDRESS":"番子寮１９０號","OBJECTID":203230},"geometry":{"x":163577.26000000071,"y":2564446.0899999999}},{"attributes":{"ID":203232,"DIS_CODE":0,"TOWNNAME":"安南區","LI":"東和里","LIN":"7鄰","STREET":"長和路","SECT":"一段","MAREA":" ","LANE":"２１７巷","ALLEY":" ","HOUSE_NO":"１８１號","E_COORD97":171223.74228199999,"N_COORD97":2550178.3939100001,"ADDRESS":"長和路一段２１７巷１８１號","OBJECTID":203231},"geometry":{"x":171223.7422820013,"y":2550178.3939080015}},{"attributes":{"ID":203233,"DIS_CODE":0,"TOWNNAME":"佳里區","LI":"漳洲里","LIN":"3鄰","STREET":" ","SECT":" ","MAREA":"番子寮","LANE":" ","ALLEY":" ","HOUSE_NO":"１９２號","E_COORD97":163594.84,"N_COORD97":2564475.7599999998,"ADDRESS":"番子寮１９２號","OBJECTID":203232},"geometry":{"x":163594.84000000171,"y":2564475.7599999998}},{"attributes":{"ID":203234,"DIS_CODE":0,"TOWNNAME":"佳里區","LI":"漳洲里","LIN":"3鄰","STREET":" ","SECT":" ","MAREA":"番子寮","LANE":" ","ALLEY":" ","HOUSE_NO":"１９４號","E_COORD97":163631.79000000001,"N_COORD97":2564431.7000000002,"ADDRESS":"番子寮１９４號","OBJECTID":203233},"geometry":{"x":163631.79000000097,"y":2564431.6999999993}},{"attributes":{"ID":203235,"DIS_CODE":0,"TOWNNAME":"佳里區","LI":"漳洲里","LIN":"3鄰","STREET":" ","SECT":" ","MAREA":"番子寮","LANE":" ","ALLEY":" ","HOUSE_NO":"１９５號","E_COORD97":163598.73999999999,"N_COORD97":2564434.2200000002,"ADDRESS":"番子寮１９５號","OBJECTID":203234},"geometry":{"x":163598.74000000022,"y":2564434.2200000025}},{"attributes":{"ID":203236,"DIS_CODE":0,"TOWNNAME":"學甲區","LI":"中洲里","LIN":"3鄰","STREET":" ","SECT":" ","MAREA":"中洲","LANE":" ","ALLEY":" ","HOUSE_NO":"３２號","E_COORD97":163994.63,"N_COORD97":2571385.1899999999,"ADDRESS":"中洲３２號","OBJECTID":203235},"geometry":{"x":163994.63000000175,"y":2571385.1899999995}},{"attributes":{"ID":203237,"DIS_CODE":0,"TOWNNAME":"學甲區","LI":"中洲里","LIN":"3鄰","STREET":" ","SECT":" ","MAREA":"中洲","LANE":" ","ALLEY":" ","HOUSE_NO":"３３號","E_COORD97":163950.76999999999,"N_COORD97":2571468.54,"ADDRESS":"中洲３３號","OBJECTID":203236},"geometry":{"x":163950.76999999955,"y":2571468.540000001}},{"attributes":{"ID":203238,"DIS_CODE":0,"TOWNNAME":"學甲區","LI":"中洲里","LIN":"3鄰","STREET":" ","SECT":" ","MAREA":"中洲","LANE":" ","ALLEY":" ","HOUSE_NO":"３４號","E_COORD97":163929.37,"N_COORD97":2571462.3500000001,"ADDRESS":"中洲３４號","OBJECTID":203237},"geometry":{"x":163929.37000000104,"y":2571462.3499999996}},{"attributes":{"ID":203239,"DIS_CODE":0,"TOWNNAME":"學甲區","LI":"中洲里","LIN":"3鄰","STREET":" ","SECT":" ","MAREA":"中洲","LANE":" ","ALLEY":" ","HOUSE_NO":"３５號之８","E_COORD97":163921.97,"N_COORD97":2571367.8199999998,"ADDRESS":"中洲３５號之８","OBJECTID":203238},"geometry":{"x":163921.96999999974,"y":2571367.8200000003}},{"attributes":{"ID":203240,"DIS_CODE":0,"TOWNNAME":"學甲區","LI":"中洲里","LIN":"3鄰","STREET":" ","SECT":" ","MAREA":"中洲","LANE":" ","ALLEY":" ","HOUSE_NO":"３６號之１","E_COORD97":163901.01999999999,"N_COORD97":2571368.4700000002,"ADDRESS":"中洲３６號之１","OBJECTID":203239},"geometry":{"x":163901.01999999955,"y":2571368.4700000044}},{"attributes":{"ID":203241,"DIS_CODE":0,"TOWNNAME":"學甲區","LI":"中洲里","LIN":"3鄰","STREET":" ","SECT":" ","MAREA":"中洲","LANE":" ","ALLEY":" ","HOUSE_NO":"３６號","E_COORD97":163901.20000000001,"N_COORD97":2571398.02,"ADDRESS":"中洲３６號","OBJECTID":203240},"geometry":{"x":163901.19999999925,"y":2571398.0200000014}},{"attributes":{"ID":203242,"DIS_CODE":0,"TOWNNAME":"學甲區","LI":"中洲里","LIN":"3鄰","STREET":" ","SECT":" ","MAREA":"中洲","LANE":" ","ALLEY":" ","HOUSE_NO":"３７號之２","E_COORD97":163910.54000000001,"N_COORD97":2571437.4900000002,"ADDRESS":"中洲３７號之２","OBJECTID":203241},"geometry":{"x":163910.54000000004,"y":2571437.4900000002}},{"attributes":{"ID":203243,"DIS_CODE":0,"TOWNNAME":"學甲區","LI":"中洲里","LIN":"3鄰","STREET":" ","SECT":" ","MAREA":"中洲","LANE":" ","ALLEY":" ","HOUSE_NO":"３７號之３","E_COORD97":163911.13,"N_COORD97":2571432.5699999998,"ADDRESS":"中洲３７號之３","OBJECTID":203242},"geometry":{"x":163911.12999999989,"y":2571432.5700000022}},{"attributes":{"ID":203244,"DIS_CODE":0,"TOWNNAME":"學甲區","LI":"中洲里","LIN":"3鄰","STREET":" ","SECT":" ","MAREA":"中洲","LANE":" ","ALLEY":" ","HOUSE_NO":"３７號之４","E_COORD97":163911.66,"N_COORD97":2571427.6099999999,"ADDRESS":"中洲３７號之４","OBJECTID":203243},"geometry":{"x":163911.66000000201,"y":2571427.6100000013}},{"attributes":{"ID":203245,"DIS_CODE":0,"TOWNNAME":"學甲區","LI":"中洲里","LIN":"3鄰","STREET":" ","SECT":" ","MAREA":"中洲","LANE":" ","ALLEY":" ","HOUSE_NO":"３７號","E_COORD97":163908.20999999999,"N_COORD97":2571452.54,"ADDRESS":"中洲３７號","OBJECTID":203244},"geometry":{"x":163908.21000000089,"y":2571452.540000001}},{"attributes":{"ID":203246,"DIS_CODE":0,"TOWNNAME":"玉井區","LI":"沙田里","LIN":"3鄰","STREET":" ","SECT":" ","MAREA":"沙田","LANE":" ","ALLEY":" ","HOUSE_NO":"２２之２２號","E_COORD97":196170.32000000001,"N_COORD97":2557245.29,"ADDRESS":"沙田２２之２２號","OBJECTID":203245},"geometry":{"x":196170.32000000216,"y":2557245.290000001}},{"attributes":{"ID":203247,"DIS_CODE":0,"TOWNNAME":"玉井區","LI":"豐里里","LIN":"3鄰","STREET":" ","SECT":" ","MAREA":"豐里","LANE":" ","ALLEY":" ","HOUSE_NO":"２７之８號","E_COORD97":193272.57000000001,"N_COORD97":2558557.2999999998,"ADDRESS":"豐里２７之８號","OBJECTID":203246},"geometry":{"x":193272.5700000003,"y":2558557.2999999989}},{"attributes":{"ID":203248,"DIS_CODE":0,"TOWNNAME":"玉井區","LI":"豐里里","LIN":"3鄰","STREET":" ","SECT":" ","MAREA":"豐里","LANE":" ","ALLEY":" ","HOUSE_NO":"２７之１號","E_COORD97":193247.57000000001,"N_COORD97":2558430.2999999998,"ADDRESS":"豐里２７之１號","OBJECTID":203247},"geometry":{"x":193247.56999999937,"y":2558430.3000000026}},{"attributes":{"ID":203249,"DIS_CODE":0,"TOWNNAME":"玉井區","LI":"沙田里","LIN":"3鄰","STREET":" ","SECT":" ","MAREA":"沙田","LANE":" ","ALLEY":" ","HOUSE_NO":"２２之６０號","E_COORD97":195916.01000000001,"N_COORD97":2557162.29,"ADDRESS":"沙田２２之６０號","OBJECTID":203248},"geometry":{"x":195916.01000000071,"y":2557162.2899999972}},{"attributes":{"ID":203250,"DIS_CODE":0,"TOWNNAME":"玉井區","LI":"豐里里","LIN":"3鄰","STREET":" ","SECT":" ","MAREA":"豐里","LANE":" ","ALLEY":" ","HOUSE_NO":"２５之１號","E_COORD97":193306.87,"N_COORD97":2558265.29,"ADDRESS":"豐里２５之１號","OBJECTID":203249},"geometry":{"x":193306.87000000104,"y":2558265.290000001}},{"attributes":{"ID":203251,"DIS_CODE":0,"TOWNNAME":"後壁區","LI":"竹新里","LIN":"9鄰","STREET":" ","SECT":" ","MAREA":"竹圍後","LANE":" ","ALLEY":" ","HOUSE_NO":"６６號","E_COORD97":178482.01999999999,"N_COORD97":2582349.23,"ADDRESS":"竹圍後６６號","OBJECTID":203250},"geometry":{"x":178482.01999999862,"y":2582349.2300000023}},{"attributes":{"ID":203252,"DIS_CODE":0,"TOWNNAME":"玉井區","LI":"沙田里","LIN":"3鄰","STREET":" ","SECT":" ","MAREA":"沙田","LANE":" ","ALLEY":" ","HOUSE_NO":"２２之９號","E_COORD97":196414.57000000001,"N_COORD97":2556970.2999999998,"ADDRESS":"沙田２２之９號","OBJECTID":203251},"geometry":{"x":196414.57000000123,"y":2556970.3000000007}},{"attributes":{"ID":203253,"DIS_CODE":0,"TOWNNAME":"玉井區","LI":"望明里","LIN":"3鄰","STREET":" ","SECT":" ","MAREA":"望明","LANE":" ","ALLEY":" ","HOUSE_NO":"３５之１號","E_COORD97":194479.34,"N_COORD97":2556049.2999999998,"ADDRESS":"望明３５之１號","OBJECTID":203252},"geometry":{"x":194479.33999999985,"y":2556049.3000000026}},{"attributes":{"ID":203254,"DIS_CODE":0,"TOWNNAME":"玉井區","LI":"沙田里","LIN":"3鄰","STREET":" ","SECT":" ","MAREA":"沙田","LANE":" ","ALLEY":" ","HOUSE_NO":"２４之１號","E_COORD97":196547.84289,"N_COORD97":2557193.1368300002,"ADDRESS":"沙田２４之１號","OBJECTID":203253},"geometry":{"x":196547.8428900009,"y":2557193.1368300021}},{"attributes":{"ID":203255,"DIS_CODE":0,"TOWNNAME":"玉井區","LI":"望明里","LIN":"3鄰","STREET":" ","SECT":" ","MAREA":"望明","LANE":" ","ALLEY":" ","HOUSE_NO":"３２號","E_COORD97":194532.73000000001,"N_COORD97":2556044.25,"ADDRESS":"望明３２號","OBJECTID":203254},"geometry":{"x":194532.73000000045,"y":2556044.25}},{"attributes":{"ID":203256,"DIS_CODE":0,"TOWNNAME":"東區","LI":"崇誨里","LIN":"26鄰","STREET":"林森路","SECT":"二段","MAREA":" ","LANE":"１９２巷","ALLEY":"７０弄","HOUSE_NO":"１４號","E_COORD97":170693.31,"N_COORD97":2543307.6899999999,"ADDRESS":"林森路二段１９２巷７０弄１４號","OBJECTID":203255},"geometry":{"x":170693.31000000052,"y":2543307.6900000013}},{"attributes":{"ID":203257,"DIS_CODE":0,"TOWNNAME":"東區","LI":"崇誨里","LIN":"26鄰","STREET":"林森路","SECT":"二段","MAREA":" ","LANE":"１９２巷","ALLEY":"７０弄","HOUSE_NO":"１５號","E_COORD97":170739.09,"N_COORD97":2543287.5,"ADDRESS":"林森路二段１９２巷７０弄１５號","OBJECTID":203256},"geometry":{"x":170739.09000000078,"y":2543287.5}},{"attributes":{"ID":203258,"DIS_CODE":0,"TOWNNAME":"中西區","LI":"福安里","LIN":"9鄰","STREET":"永福路","SECT":"二段","MAREA":" ","LANE":" ","ALLEY":" ","HOUSE_NO":"３９號","E_COORD97":168028.48000000001,"N_COORD97":2543520.9500000002,"ADDRESS":"永福路二段３９號","OBJECTID":203257},"geometry":{"x":168028.48000000045,"y":2543520.9499999993}},{"attributes":{"ID":203259,"DIS_CODE":0,"TOWNNAME":"玉井區","LI":"豐里里","LIN":"3鄰","STREET":" ","SECT":" ","MAREA":"豐里","LANE":" ","ALLEY":" ","HOUSE_NO":"２７之６號","E_COORD97":193247.16,"N_COORD97":2558450.2999999998,"ADDRESS":"豐里２７之６號","OBJECTID":203258},"geometry":{"x":193247.16000000108,"y":2558450.3000000026}},{"attributes":{"ID":203260,"DIS_CODE":0,"TOWNNAME":"中西區","LI":"福安里","LIN":"9鄰","STREET":"永福路","SECT":"二段","MAREA":" ","LANE":" ","ALLEY":" ","HOUSE_NO":"４３號","E_COORD97":168029.12,"N_COORD97":2543525.9399999999,"ADDRESS":"永福路二段４３號","OBJECTID":203259},"geometry":{"x":168029.12000000011,"y":2543525.9400000032}},{"attributes":{"ID":203261,"DIS_CODE":0,"TOWNNAME":"白河區","LI":"白河里","LIN":"9鄰","STREET":"中正路","SECT":" ","MAREA":" ","LANE":" ","ALLEY":" ","HOUSE_NO":"３號","E_COORD97":190321.95000000001,"N_COORD97":2583061.9399999999,"ADDRESS":"中正路３號","OBJECTID":203260},"geometry":{"x":190321.95000000019,"y":2583061.9400000013}},{"attributes":{"ID":203262,"DIS_CODE":0,"TOWNNAME":"玉井區","LI":"沙田里","LIN":"3鄰","STREET":" ","SECT":" ","MAREA":"沙田","LANE":" ","ALLEY":" ","HOUSE_NO":"２５號之７","E_COORD97":196656.88,"N_COORD97":2557528.2999999998,"ADDRESS":"沙田２５號之７","OBJECTID":203261},"geometry":{"x":196656.87999999989,"y":2557528.3000000026}},{"attributes":{"ID":203263,"DIS_CODE":0,"TOWNNAME":"玉井區","LI":"沙田里","LIN":"3鄰","STREET":" ","SECT":" ","MAREA":"沙田","LANE":" ","ALLEY":" ","HOUSE_NO":"２５號","E_COORD97":196561.45999999999,"N_COORD97":2557221.29,"ADDRESS":"沙田２５號","OBJECTID":203262},"geometry":{"x":196561.45999999996,"y":2557221.290000001}},{"attributes":{"ID":203264,"DIS_CODE":0,"TOWNNAME":"白河區","LI":"永安里","LIN":"9鄰","STREET":"中正路","SECT":" ","MAREA":" ","LANE":" ","ALLEY":" ","HOUSE_NO":"５４號","E_COORD97":190148.51999999999,"N_COORD97":2583133.3999999999,"ADDRESS":"中正路５４號","OBJECTID":203263},"geometry":{"x":190148.52000000142,"y":2583133.4000000041}},{"attributes":{"ID":203265,"DIS_CODE":0,"TOWNNAME":"東區","LI":"崇誨里","LIN":"26鄰","STREET":"林森路","SECT":"二段","MAREA":" ","LANE":"１９２巷","ALLEY":"７０弄","HOUSE_NO":"１６號","E_COORD97":170700.23999999999,"N_COORD97":2543308.8799999999,"ADDRESS":"林森路二段１９２巷７０弄１６號","OBJECTID":203264},"geometry":{"x":170700.24000000022,"y":2543308.8800000008}},{"attributes":{"ID":203266,"DIS_CODE":0,"TOWNNAME":"東區","LI":"崇誨里","LIN":"26鄰","STREET":"林森路","SECT":"二段","MAREA":" ","LANE":"１９２巷","ALLEY":"７０弄","HOUSE_NO":"１７號","E_COORD97":170741.26000000001,"N_COORD97":2543279.5099999998,"ADDRESS":"林森路二段１９２巷７０弄１７號","OBJECTID":203265},"geometry":{"x":170741.26000000071,"y":2543279.5100000016}},{"attributes":{"ID":203267,"DIS_CODE":0,"TOWNNAME":"東區","LI":"崇誨里","LIN":"26鄰","STREET":"林森路","SECT":"二段","MAREA":" ","LANE":"１９２巷","ALLEY":"７０弄","HOUSE_NO":"１９號","E_COORD97":170743.09,"N_COORD97":2543273.75,"ADDRESS":"林森路二段１９２巷７０弄１９號","OBJECTID":203266},"geometry":{"x":170743.08999999985,"y":2543273.7500000019}},{"attributes":{"ID":203268,"DIS_CODE":0,"TOWNNAME":"永康區","LI":"龍潭里","LIN":"3鄰","STREET":"龍國街","SECT":" ","MAREA":" ","LANE":" ","ALLEY":" ","HOUSE_NO":"２９９號","E_COORD97":174653.57000000001,"N_COORD97":2548025.6000000001,"ADDRESS":"龍國街２９９號","OBJECTID":203267},"geometry":{"x":174653.57000000123,"y":2548025.5999999996}},{"attributes":{"ID":203269,"DIS_CODE":0,"TOWNNAME":"東區","LI":"崇誨里","LIN":"26鄰","STREET":"林森路","SECT":"二段","MAREA":" ","LANE":"１９２巷","ALLEY":"７０弄","HOUSE_NO":"２號","E_COORD97":170684.82999999999,"N_COORD97":2543321.0499999998,"ADDRESS":"林森路二段１９２巷７０弄２號","OBJECTID":203268},"geometry":{"x":170684.83000000101,"y":2543321.0500000026}},{"attributes":{"ID":203270,"DIS_CODE":0,"TOWNNAME":"玉井區","LI":"豐里里","LIN":"3鄰","STREET":" ","SECT":" ","MAREA":"豐里","LANE":" ","ALLEY":" ","HOUSE_NO":"２８號","E_COORD97":193218.17000000001,"N_COORD97":2558255.25,"ADDRESS":"豐里２８號","OBJECTID":203269},"geometry":{"x":193218.17000000086,"y":2558255.2500000037}},{"attributes":{"ID":203271,"DIS_CODE":0,"TOWNNAME":"東區","LI":"崇誨里","LIN":"26鄰","STREET":"林森路","SECT":"二段","MAREA":" ","LANE":"１９２巷","ALLEY":"７０弄","HOUSE_NO":"３４號","E_COORD97":170685.04000000001,"N_COORD97":2543294.04,"ADDRESS":"林森路二段１９２巷７０弄３４號","OBJECTID":203270},"geometry":{"x":170685.04000000097,"y":2543294.0400000028}},{"attributes":{"ID":203272,"DIS_CODE":0,"TOWNNAME":"玉井區","LI":"望明里","LIN":"3鄰","STREET":" ","SECT":" ","MAREA":"望明","LANE":" ","ALLEY":" ","HOUSE_NO":"３６號","E_COORD97":194451.63,"N_COORD97":2556024.2400000002,"ADDRESS":"望明３６號","OBJECTID":203271},"geometry":{"x":194451.62999999989,"y":2556024.2400000002}},{"attributes":{"ID":203273,"DIS_CODE":0,"TOWNNAME":"東區","LI":"崇誨里","LIN":"26鄰","STREET":"林森路","SECT":"二段","MAREA":" ","LANE":"１９２巷","ALLEY":"７０弄","HOUSE_NO":"３６號","E_COORD97":170686.70999999999,"N_COORD97":2543288.6699999999,"ADDRESS":"林森路二段１９２巷７０弄３６號","OBJECTID":203272},"geometry":{"x":170686.70999999903,"y":2543288.6700000018}},{"attributes":{"ID":203274,"DIS_CODE":0,"TOWNNAME":"東區","LI":"崇誨里","LIN":"26鄰","STREET":"林森路","SECT":"二段","MAREA":" ","LANE":"１９２巷","ALLEY":"７０弄","HOUSE_NO":"３８號","E_COORD97":170688.98000000001,"N_COORD97":2543281.1600000001,"ADDRESS":"林森路二段１９２巷７０弄３８號","OBJECTID":203273},"geometry":{"x":170688.98000000231,"y":2543281.160000002}},{"attributes":{"ID":203275,"DIS_CODE":0,"TOWNNAME":"楠西區","LI":"鹿田里","LIN":"9鄰","STREET":" ","SECT":" ","MAREA":"油車","LANE":" ","ALLEY":" ","HOUSE_NO":"３０號","E_COORD97":198020.64000000001,"N_COORD97":2562156.25,"ADDRESS":"油車３０號","OBJECTID":203274},"geometry":{"x":198020.6400000006,"y":2562156.25}},{"attributes":{"ID":203276,"DIS_CODE":0,"TOWNNAME":"東區","LI":"崇誨里","LIN":"26鄰","STREET":"林森路","SECT":"二段","MAREA":" ","LANE":"１９２巷","ALLEY":"７０弄","HOUSE_NO":"４０號","E_COORD97":170690.53,"N_COORD97":2543275.9100000001,"ADDRESS":"林森路二段１９２巷７０弄４０號","OBJECTID":203275},"geometry":{"x":170690.53000000119,"y":2543275.9100000039}},{"attributes":{"ID":203277,"DIS_CODE":0,"TOWNNAME":"東區","LI":"崇誨里","LIN":"26鄰","STREET":"林森路","SECT":"二段","MAREA":" ","LANE":"１９２巷","ALLEY":"７０弄","HOUSE_NO":"４２號","E_COORD97":170692.32000000001,"N_COORD97":2543268.1499999999,"ADDRESS":"林森路二段１９２巷７０弄４２號","OBJECTID":203276},"geometry":{"x":170692.32000000123,"y":2543268.1500000022}},{"attributes":{"ID":203278,"DIS_CODE":0,"TOWNNAME":"東區","LI":"崇誨里","LIN":"26鄰","STREET":"林森路","SECT":"二段","MAREA":" ","LANE":"１９２巷","ALLEY":"７０弄","HOUSE_NO":"４４號","E_COORD97":170693.98999999999,"N_COORD97":2543262.8999999999,"ADDRESS":"林森路二段１９２巷７０弄４４號","OBJECTID":203277},"geometry":{"x":170693.99000000115,"y":2543262.9000000022}},{"attributes":{"ID":203279,"DIS_CODE":0,"TOWNNAME":"東區","LI":"崇誨里","LIN":"26鄰","STREET":"林森路","SECT":"二段","MAREA":" ","LANE":"１９２巷","ALLEY":"７０弄","HOUSE_NO":"４號","E_COORD97":170675.51999999999,"N_COORD97":2543319.6200000001,"ADDRESS":"林森路二段１９２巷７０弄４號","OBJECTID":203278},"geometry":{"x":170675.51999999955,"y":2543319.6200000029}},{"attributes":{"ID":203280,"DIS_CODE":0,"TOWNNAME":"東區","LI":"崇誨里","LIN":"26鄰","STREET":"林森路","SECT":"二段","MAREA":" ","LANE":"１９２巷","ALLEY":"７０弄","HOUSE_NO":"５號","E_COORD97":170733.60999999999,"N_COORD97":2543317.3399999999,"ADDRESS":"林森路二段１９２巷７０弄５號","OBJECTID":203279},"geometry":{"x":170733.6100000022,"y":2543317.3400000017}},{"attributes":{"ID":203281,"DIS_CODE":0,"TOWNNAME":"玉井區","LI":"豐里里","LIN":"3鄰","STREET":" ","SECT":" ","MAREA":"豐里","LANE":" ","ALLEY":" ","HOUSE_NO":"２５號之５","E_COORD97":193291.75,"N_COORD97":2558249.2999999998,"ADDRESS":"豐里２５號之５","OBJECTID":203280},"geometry":{"x":193291.75,"y":2558249.3000000045}},{"attributes":{"ID":203282,"DIS_CODE":0,"TOWNNAME":"玉井區","LI":"豐里里","LIN":"3鄰","STREET":" ","SECT":" ","MAREA":"豐里","LANE":" ","ALLEY":" ","HOUSE_NO":"２８之２號","E_COORD97":193234.85999999999,"N_COORD97":2558266.29,"ADDRESS":"豐里２８之２號","OBJECTID":203281},"geometry":{"x":193234.86000000034,"y":2558266.2899999991}},{"attributes":{"ID":203283,"DIS_CODE":0,"TOWNNAME":"玉井區","LI":"沙田里","LIN":"3鄰","STREET":" ","SECT":" ","MAREA":"沙田","LANE":" ","ALLEY":" ","HOUSE_NO":"２５之３６號","E_COORD97":197141.92000000001,"N_COORD97":2558465.2999999998,"ADDRESS":"沙田２５之３６號","OBJECTID":203282},"geometry":{"x":197141.91999999993,"y":2558465.3000000007}},{"attributes":{"ID":203284,"DIS_CODE":0,"TOWNNAME":"玉井區","LI":"豐里里","LIN":"3鄰","STREET":" ","SECT":" ","MAREA":"豐里","LANE":" ","ALLEY":" ","HOUSE_NO":"２７號之５","E_COORD97":193268.95999999999,"N_COORD97":2558454.2999999998,"ADDRESS":"豐里２７號之５","OBJECTID":203283},"geometry":{"x":193268.96000000089,"y":2558454.3000000007}},{"attributes":{"ID":203285,"DIS_CODE":0,"TOWNNAME":"玉井區","LI":"豐里里","LIN":"3鄰","STREET":" ","SECT":" ","MAREA":"豐里","LANE":" ","ALLEY":" ","HOUSE_NO":"２４號","E_COORD97":193267.26000000001,"N_COORD97":2558200.2400000002,"ADDRESS":"豐里２４號","OBJECTID":203284},"geometry":{"x":193267.25999999978,"y":2558200.2400000002}},{"attributes":{"ID":203286,"DIS_CODE":0,"TOWNNAME":"玉井區","LI":"沙田里","LIN":"3鄰","STREET":" ","SECT":" ","MAREA":"沙田","LANE":" ","ALLEY":" ","HOUSE_NO":"２５之２５號","E_COORD97":197030.70999999999,"N_COORD97":2558680.29,"ADDRESS":"沙田２５之２５號","OBJECTID":203285},"geometry":{"x":197030.71000000089,"y":2558680.2899999991}},{"attributes":{"ID":203287,"DIS_CODE":0,"TOWNNAME":"玉井區","LI":"沙田里","LIN":"3鄰","STREET":" ","SECT":" ","MAREA":"沙田","LANE":" ","ALLEY":" ","HOUSE_NO":"２５之１０號","E_COORD97":196610.62,"N_COORD97":2557679.29,"ADDRESS":"沙田２５之１０號","OBJECTID":203286},"geometry":{"x":196610.62000000104,"y":2557679.290000001}},{"attributes":{"ID":203288,"DIS_CODE":0,"TOWNNAME":"玉井區","LI":"沙田里","LIN":"3鄰","STREET":" ","SECT":" ","MAREA":"沙田","LANE":" ","ALLEY":" ","HOUSE_NO":"２４號","E_COORD97":196563.26000000001,"N_COORD97":2557203.29,"ADDRESS":"沙田２４號","OBJECTID":203287},"geometry":{"x":196563.25999999885,"y":2557203.2900000028}},{"attributes":{"ID":203289,"DIS_CODE":0,"TOWNNAME":"玉井區","LI":"沙田里","LIN":"3鄰","STREET":" ","SECT":" ","MAREA":"沙田","LANE":" ","ALLEY":" ","HOUSE_NO":"２２號之２","E_COORD97":196324.73000000001,"N_COORD97":2556929.29,"ADDRESS":"沙田２２號之２","OBJECTID":203288},"geometry":{"x":196324.73000000045,"y":2556929.290000001}},{"attributes":{"ID":203290,"DIS_CODE":0,"TOWNNAME":"玉井區","LI":"沙田里","LIN":"3鄰","STREET":" ","SECT":" ","MAREA":"沙田","LANE":" ","ALLEY":" ","HOUSE_NO":"２２之１５號","E_COORD97":196265.01000000001,"N_COORD97":2556999.2999999998,"ADDRESS":"沙田２２之１５號","OBJECTID":203289},"geometry":{"x":196265.01000000164,"y":2556999.3000000026}},{"attributes":{"ID":203291,"DIS_CODE":0,"TOWNNAME":"玉井區","LI":"沙田里","LIN":"3鄰","STREET":" ","SECT":" ","MAREA":"沙田","LANE":" ","ALLEY":" ","HOUSE_NO":"２２號","E_COORD97":196454.78020099999,"N_COORD97":2556812.1371900002,"ADDRESS":"沙田２２號","OBJECTID":203290},"geometry":{"x":196454.78020100109,"y":2556812.1371900011}},{"attributes":{"ID":203292,"DIS_CODE":0,"TOWNNAME":"玉井區","LI":"望明里","LIN":"3鄰","STREET":" ","SECT":" ","MAREA":"望明","LANE":" ","ALLEY":" ","HOUSE_NO":"３４之１號","E_COORD97":194538.64000000001,"N_COORD97":2555975.2999999998,"ADDRESS":"望明３４之１號","OBJECTID":203291},"geometry":{"x":194538.6400000006,"y":2555975.3000000026}},{"attributes":{"ID":203293,"DIS_CODE":0,"TOWNNAME":"玉井區","LI":"沙田里","LIN":"3鄰","STREET":" ","SECT":" ","MAREA":"沙田","LANE":" ","ALLEY":" ","HOUSE_NO":"２５號之１１","E_COORD97":196766.75,"N_COORD97":2558118.2999999998,"ADDRESS":"沙田２５號之１１","OBJECTID":203292},"geometry":{"x":196766.75,"y":2558118.3000000026}},{"attributes":{"ID":203294,"DIS_CODE":0,"TOWNNAME":"東區","LI":"崇誨里","LIN":"26鄰","STREET":"林森路","SECT":"二段","MAREA":" ","LANE":"１９２巷","ALLEY":"７０弄","HOUSE_NO":"６號","E_COORD97":170677.79000000001,"N_COORD97":2543303.6299999999,"ADDRESS":"林森路二段１９２巷７０弄６號","OBJECTID":203293},"geometry":{"x":170677.78999999911,"y":2543303.6300000027}},{"attributes":{"ID":203295,"DIS_CODE":0,"TOWNNAME":"東區","LI":"崇誨里","LIN":"26鄰","STREET":"林森路","SECT":"二段","MAREA":" ","LANE":"１９２巷","ALLEY":"７０弄","HOUSE_NO":"７號","E_COORD97":170727.32000000001,"N_COORD97":2543315.9700000002,"ADDRESS":"林森路二段１９２巷７０弄７號","OBJECTID":203294},"geometry":{"x":170727.32000000123,"y":2543315.9700000007}},{"attributes":{"ID":203296,"DIS_CODE":0,"TOWNNAME":"東區","LI":"崇誨里","LIN":"26鄰","STREET":"林森路","SECT":"二段","MAREA":" ","LANE":"１９２巷","ALLEY":"７０弄","HOUSE_NO":"８號","E_COORD97":170681.48999999999,"N_COORD97":2543304.71,"ADDRESS":"林森路二段１９２巷７０弄８號","OBJECTID":203295},"geometry":{"x":170681.49000000022,"y":2543304.7100000009}},{"attributes":{"ID":203297,"DIS_CODE":0,"TOWNNAME":"東區","LI":"崇誨里","LIN":"26鄰","STREET":"林森路","SECT":"二段","MAREA":" ","LANE":"１９２巷","ALLEY":"７０弄","HOUSE_NO":"９號","E_COORD97":170733.14999999999,"N_COORD97":2543306.5,"ADDRESS":"林森路二段１９２巷７０弄９號","OBJECTID":203296},"geometry":{"x":170733.15000000037,"y":2543306.5000000019}},{"attributes":{"ID":203298,"DIS_CODE":0,"TOWNNAME":"東區","LI":"崇誨里","LIN":"26鄰","STREET":"林森路","SECT":"二段","MAREA":" ","LANE":"１９２巷","ALLEY":"７０弄","HOUSE_NO":"２２號","E_COORD97":170715.03,"N_COORD97":2543302.98,"ADDRESS":"林森路二段１９２巷７０弄２２號","OBJECTID":203297},"geometry":{"x":170715.03000000026,"y":2543302.9800000023}},{"attributes":{"ID":203299,"DIS_CODE":0,"TOWNNAME":"東區","LI":"崇誨里","LIN":"26鄰","STREET":"林森路","SECT":"二段","MAREA":" ","LANE":"１９２巷","ALLEY":"７０弄","HOUSE_NO":"２４號","E_COORD97":170719.32999999999,"N_COORD97":2543295.2200000002,"ADDRESS":"林森路二段１９２巷７０弄２４號","OBJECTID":203298},"geometry":{"x":170719.33000000007,"y":2543295.2200000025}},{"attributes":{"ID":203300,"DIS_CODE":0,"TOWNNAME":"東區","LI":"崇誨里","LIN":"26鄰","STREET":"林森路","SECT":"二段","MAREA":" ","LANE":"１９２巷","ALLEY":"７０弄","HOUSE_NO":"２６號","E_COORD97":170713.72,"N_COORD97":2543293.6699999999,"ADDRESS":"林森路二段１９２巷７０弄２６號","OBJECTID":203299},"geometry":{"x":170713.7200000016,"y":2543293.6699999999}},{"attributes":{"ID":203301,"DIS_CODE":0,"TOWNNAME":"東區","LI":"崇誨里","LIN":"26鄰","STREET":"林森路","SECT":"二段","MAREA":" ","LANE":"１９２巷","ALLEY":"７０弄","HOUSE_NO":"２８號","E_COORD97":170708.23000000001,"N_COORD97":2543291.8799999999,"ADDRESS":"林森路二段１９２巷７０弄２８號","OBJECTID":203300},"geometry":{"x":170708.23000000138,"y":2543291.8800000027}},{"attributes":{"ID":203302,"DIS_CODE":0,"TOWNNAME":"東區","LI":"崇誨里","LIN":"26鄰","STREET":"林森路","SECT":"二段","MAREA":" ","LANE":"１９２巷","ALLEY":"７０弄","HOUSE_NO":"３０號","E_COORD97":170703.09,"N_COORD97":2543290.4500000002,"ADDRESS":"林森路二段１９２巷７０弄３０號","OBJECTID":203301},"geometry":{"x":170703.09000000078,"y":2543290.4499999993}},{"attributes":{"ID":203303,"DIS_CODE":0,"TOWNNAME":"東區","LI":"崇誨里","LIN":"26鄰","STREET":"林森路","SECT":"二段","MAREA":" ","LANE":"１９２巷","ALLEY":"７０弄","HOUSE_NO":"５０號","E_COORD97":170717.26999999999,"N_COORD97":2543276.1000000001,"ADDRESS":"林森路二段１９２巷７０弄５０號","OBJECTID":203302},"geometry":{"x":170717.27000000048,"y":2543276.0999999996}},{"attributes":{"ID":203304,"DIS_CODE":0,"TOWNNAME":"東區","LI":"崇誨里","LIN":"26鄰","STREET":"林森路","SECT":"二段","MAREA":" ","LANE":"１９２巷","ALLEY":"７０弄","HOUSE_NO":"５２號","E_COORD97":170723.17000000001,"N_COORD97":2543277.1000000001,"ADDRESS":"林森路二段１９２巷７０弄５２號","OBJECTID":203303},"geometry":{"x":170723.17000000086,"y":2543277.0999999978}},{"attributes":{"ID":203305,"DIS_CODE":0,"TOWNNAME":"東區","LI":"崇誨里","LIN":"26鄰","STREET":"林森路","SECT":"二段","MAREA":" ","LANE":"１９２巷","ALLEY":"７０弄","HOUSE_NO":"５４號","E_COORD97":170721.29000000001,"N_COORD97":2543267.7000000002,"ADDRESS":"林森路二段１９２巷７０弄５４號","OBJECTID":203304},"geometry":{"x":170721.29000000004,"y":2543267.7000000011}},{"attributes":{"ID":203306,"DIS_CODE":0,"TOWNNAME":"東區","LI":"崇誨里","LIN":"26鄰","STREET":"林森路","SECT":"二段","MAREA":" ","LANE":"１９２巷","ALLEY":"７０弄","HOUSE_NO":"３２號","E_COORD97":170703.09,"N_COORD97":2543300.1099999999,"ADDRESS":"林森路二段１９２巷７０弄３２號","OBJECTID":203305},"geometry":{"x":170703.09000000078,"y":2543300.1099999994}},{"attributes":{"ID":203307,"DIS_CODE":0,"TOWNNAME":"東區","LI":"崇誨里","LIN":"26鄰","STREET":"林森路","SECT":"二段","MAREA":" ","LANE":"１９２巷","ALLEY":"７０弄","HOUSE_NO":"４６號","E_COORD97":170707.35999999999,"N_COORD97":2543272.21,"ADDRESS":"林森路二段１９２巷７０弄４６號","OBJECTID":203306},"geometry":{"x":170707.36000000127,"y":2543272.2100000028}},{"attributes":{"ID":203308,"DIS_CODE":0,"TOWNNAME":"永康區","LI":"\u25A0行里","LIN":"5鄰","STREET":"新行街","SECT":" ","MAREA":" ","LANE":"２１巷","ALLEY":" ","HOUSE_NO":"３號","E_COORD97":172198.98999999999,"N_COORD97":2548790.0699999998,"ADDRESS":"新行街２１巷３號","OBJECTID":203307},"geometry":{"x":172198.99000000209,"y":2548790.0700000003}},{"attributes":{"ID":203309,"DIS_CODE":0,"TOWNNAME":"永康區","LI":"永康里","LIN":"40鄰","STREET":"永大二路","SECT":" ","MAREA":" ","LANE":" ","ALLEY":" ","HOUSE_NO":"２５號","E_COORD97":174310.07999999999,"N_COORD97":2546559.1400000001,"ADDRESS":"永大二路２５號","OBJECTID":203308},"geometry":{"x":174310.08000000007,"y":2546559.1400000006}},{"attributes":{"ID":203310,"DIS_CODE":0,"TOWNNAME":"永康區","LI":"龍潭里","LIN":"40鄰","STREET":"永明街","SECT":" ","MAREA":" ","LANE":" ","ALLEY":" ","HOUSE_NO":"３１０號","E_COORD97":174551.26000000001,"N_COORD97":2547194.27,"ADDRESS":"永明街３１０號","OBJECTID":203309},"geometry":{"x":174551.26000000164,"y":2547194.2699999996}},{"attributes":{"ID":203311,"DIS_CODE":0,"TOWNNAME":"永康區","LI":"南灣里","LIN":"40鄰","STREET":"南灣街","SECT":" ","MAREA":" ","LANE":" ","ALLEY":" ","HOUSE_NO":"１２２之１號","E_COORD97":174338.42999999999,"N_COORD97":2544999.6099999999,"ADDRESS":"南灣街１２２之１號","OBJECTID":203310},"geometry":{"x":174338.43000000063,"y":2544999.6100000013}},{"attributes":{"ID":203312,"DIS_CODE":0,"TOWNNAME":"永康區","LI":"正強里","LIN":"40鄰","STREET":"四維街","SECT":" ","MAREA":" ","LANE":" ","ALLEY":" ","HOUSE_NO":"１９１號","E_COORD97":173257.54000000001,"N_COORD97":2548458.0699999998,"ADDRESS":"四維街１９１號","OBJECTID":203311},"geometry":{"x":173257.54000000004,"y":2548458.0700000003}},{"attributes":{"ID":203313,"DIS_CODE":0,"TOWNNAME":"仁德區","LI":"後壁里","LIN":"40鄰","STREET":"德安路","SECT":" ","MAREA":" ","LANE":" ","ALLEY":" ","HOUSE_NO":"１０６號","E_COORD97":173518.06394699999,"N_COORD97":2538991.6955300001,"ADDRESS":"德安路１０６號","OBJECTID":203312},"geometry":{"x":173518.06394700147,"y":2538991.6955270022}},{"attributes":{"ID":203314,"DIS_CODE":0,"TOWNNAME":"仁德區","LI":"後壁里","LIN":"40鄰","STREET":"德安路","SECT":" ","MAREA":" ","LANE":" ","ALLEY":" ","HOUSE_NO":"１２６號","E_COORD97":173557.60000000001,"N_COORD97":2538937.1400000001,"ADDRESS":"德安路１２６號","OBJECTID":203313},"geometry":{"x":173557.60000000056,"y":2538937.1400000006}},{"attributes":{"ID":203315,"DIS_CODE":0,"TOWNNAME":"仁德區","LI":"後壁里","LIN":"40鄰","STREET":"德安路","SECT":" ","MAREA":" ","LANE":" ","ALLEY":" ","HOUSE_NO":"１２８號","E_COORD97":173560.42999999999,"N_COORD97":2538933.1499999999,"ADDRESS":"德安路１２８號","OBJECTID":203314},"geometry":{"x":173560.43000000063,"y":2538933.1500000004}},{"attributes":{"ID":203316,"DIS_CODE":0,"TOWNNAME":"仁德區","LI":"後壁里","LIN":"40鄰","STREET":"德善二街","SECT":" ","MAREA":" ","LANE":" ","ALLEY":" ","HOUSE_NO":"２３號","E_COORD97":173549.51000000001,"N_COORD97":2538911.79,"ADDRESS":"德善二街２３號","OBJECTID":203315},"geometry":{"x":173549.51000000164,"y":2538911.7899999972}},{"attributes":{"ID":203317,"DIS_CODE":0,"TOWNNAME":"東區","LI":"崇誨里","LIN":"26鄰","STREET":"林森路","SECT":"二段","MAREA":" ","LANE":"１９２巷","ALLEY":"７０弄","HOUSE_NO":"４８號","E_COORD97":170711.87,"N_COORD97":2543275.0899999999,"ADDRESS":"林森路二段１９２巷７０弄４８號","OBJECTID":203316},"geometry":{"x":170711.87000000104,"y":2543275.0900000017}},{"attributes":{"ID":203318,"DIS_CODE":0,"TOWNNAME":"永康區","LI":"西灣里","LIN":"26鄰","STREET":"國光七街","SECT":" ","MAREA":" ","LANE":"６巷","ALLEY":"１１弄","HOUSE_NO":"１６號","E_COORD97":174364.98999999999,"N_COORD97":2545666.1299999999,"ADDRESS":"國光七街６巷１１弄１６號","OBJECTID":203317},"geometry":{"x":174364.99000000022,"y":2545666.129999999}},{"attributes":{"ID":203319,"DIS_CODE":0,"TOWNNAME":"永康區","LI":"尚頂里","LIN":"26鄰","STREET":"南台街","SECT":" ","MAREA":" ","LANE":"５４巷","ALLEY":"１０弄","HOUSE_NO":"１０號","E_COORD97":170398.23000000001,"N_COORD97":2547040,"ADDRESS":"南台街５４巷１０弄１０號","OBJECTID":203318},"geometry":{"x":170398.23000000045,"y":2547040}},{"attributes":{"ID":203320,"DIS_CODE":0,"TOWNNAME":"安南區","LI":"頂安里","LIN":"9鄰","STREET":"頂安街","SECT":" ","MAREA":" ","LANE":" ","ALLEY":" ","HOUSE_NO":"３２６號","E_COORD97":169021.22,"N_COORD97":2549400.0600000001,"ADDRESS":"頂安街３２６號","OBJECTID":203319},"geometry":{"x":169021.21999999974,"y":2549400.0600000005}},{"attributes":{"ID":203321,"DIS_CODE":0,"TOWNNAME":"永康區","LI":"尚頂里","LIN":"26鄰","STREET":"南台街","SECT":" ","MAREA":" ","LANE":"５４巷","ALLEY":"１０弄","HOUSE_NO":"１２號","E_COORD97":170402.32000000001,"N_COORD97":2547037.5,"ADDRESS":"南台街５４巷１０弄１２號","OBJECTID":203320},"geometry":{"x":170402.32000000123,"y":2547037.5}},{"attributes":{"ID":203322,"DIS_CODE":0,"TOWNNAME":"永康區","LI":"西灣里","LIN":"26鄰","STREET":"國光七街","SECT":" ","MAREA":" ","LANE":"６巷","ALLEY":"１１弄","HOUSE_NO":"１０號","E_COORD97":174373.17999999999,"N_COORD97":2545663.6299999999,"ADDRESS":"國光七街６巷１１弄１０號","OBJECTID":203321},"geometry":{"x":174373.1799999997,"y":2545663.6300000008}},{"attributes":{"ID":203323,"DIS_CODE":0,"TOWNNAME":"永康區","LI":"西灣里","LIN":"26鄰","STREET":"國光七街","SECT":" ","MAREA":" ","LANE":"６巷","ALLEY":"１１弄","HOUSE_NO":"２號","E_COORD97":174383.17000000001,"N_COORD97":2545656.8799999999,"ADDRESS":"國光七街６巷１１弄２號","OBJECTID":203322},"geometry":{"x":174383.17000000086,"y":2545656.879999999}},{"attributes":{"ID":203324,"DIS_CODE":0,"TOWNNAME":"永康區","LI":"龍潭里","LIN":"39鄰","STREET":"國民路","SECT":" ","MAREA":" ","LANE":" ","ALLEY":" ","HOUSE_NO":"９５號","E_COORD97":174373.01000000001,"N_COORD97":2547286.6600000001,"ADDRESS":"國民路９５號","OBJECTID":203323},"geometry":{"x":174373.00999999978,"y":2547286.6600000001}},{"attributes":{"ID":203325,"DIS_CODE":0,"TOWNNAME":"東區","LI":"泉南里","LIN":"26鄰","STREET":"府連路","SECT":" ","MAREA":" ","LANE":"２６０巷","ALLEY":"３弄","HOUSE_NO":"１０號","E_COORD97":169484.82999999999,"N_COORD97":2542820.1200000001,"ADDRESS":"府連路２６０巷３弄１０號","OBJECTID":203324},"geometry":{"x":169484.83000000101,"y":2542820.120000001}},{"attributes":{"ID":203326,"DIS_CODE":0,"TOWNNAME":"永康區","LI":"\u25A0洲里","LIN":"40鄰","STREET":"洲工街","SECT":" ","MAREA":" ","LANE":" ","ALLEY":" ","HOUSE_NO":"１７６號","E_COORD97":170845.39000000001,"N_COORD97":2548755.4199999999,"ADDRESS":"洲工街１７６號","OBJECTID":203325},"geometry":{"x":170845.3900000006,"y":2548755.4200000018}},{"attributes":{"ID":203327,"DIS_CODE":0,"TOWNNAME":"永康區","LI":"\u25A0行里","LIN":"44鄰","STREET":"\u25A0和街","SECT":" ","MAREA":" ","LANE":" ","ALLEY":" ","HOUSE_NO":"１７６號","E_COORD97":171899.07000000001,"N_COORD97":2547981.5,"ADDRESS":"\u25A0和街１７６號","OBJECTID":203326},"geometry":{"x":171899.07000000123,"y":2547981.5000000019}},{"attributes":{"ID":203328,"DIS_CODE":0,"TOWNNAME":"安南區","LI":"溪北里","LIN":"9鄰","STREET":"府安路","SECT":"四段","MAREA":" ","LANE":" ","ALLEY":" ","HOUSE_NO":"３２號","E_COORD97":169396.67999999999,"N_COORD97":2547318.8300000001,"ADDRESS":"府安路四段３２號","OBJECTID":203327},"geometry":{"x":169396.68000000156,"y":2547318.8300000019}},{"attributes":{"ID":203329,"DIS_CODE":0,"TOWNNAME":"東區","LI":"泉南里","LIN":"26鄰","STREET":"府連路","SECT":" ","MAREA":" ","LANE":"２６０巷","ALLEY":"３弄","HOUSE_NO":"１１號","E_COORD97":169480.73000000001,"N_COORD97":2542832.8399999999,"ADDRESS":"府連路２６０巷３弄１１號","OBJECTID":203328},"geometry":{"x":169480.73000000138,"y":2542832.8400000017}},{"attributes":{"ID":203330,"DIS_CODE":0,"TOWNNAME":"東區","LI":"泉南里","LIN":"26鄰","STREET":"府連路","SECT":" ","MAREA":" ","LANE":"２６０巷","ALLEY":"３弄","HOUSE_NO":"１２號","E_COORD97":169488.01000000001,"N_COORD97":2542818.7599999998,"ADDRESS":"府連路２６０巷３弄１２號","OBJECTID":203329},"geometry":{"x":169488.01000000071,"y":2542818.7600000035}},{"attributes":{"ID":203331,"DIS_CODE":0,"TOWNNAME":"安南區","LI":"溪頂里","LIN":"9鄰","STREET":"惠安街","SECT":" ","MAREA":" ","LANE":" ","ALLEY":" ","HOUSE_NO":"１０１號","E_COORD97":168794.54000000001,"N_COORD97":2547464.73,"ADDRESS":"惠安街１０１號","OBJECTID":203330},"geometry":{"x":168794.5400000019,"y":2547464.7300000023}},{"attributes":{"ID":203332,"DIS_CODE":0,"TOWNNAME":"安南區","LI":"溪頂里","LIN":"9鄰","STREET":"惠安街","SECT":" ","MAREA":" ","LANE":" ","ALLEY":" ","HOUSE_NO":"１０５號","E_COORD97":168777.82999999999,"N_COORD97":2547464.73,"ADDRESS":"惠安街１０５號","OBJECTID":203331},"geometry":{"x":168777.83000000101,"y":2547464.7300000023}},{"attributes":{"ID":203333,"DIS_CODE":0,"TOWNNAME":"永康區","LI":"龍潭里","LIN":"38鄰","STREET":"國民路","SECT":" ","MAREA":" ","LANE":" ","ALLEY":" ","HOUSE_NO":"８３號","E_COORD97":174357.48000000001,"N_COORD97":2547321.0499999998,"ADDRESS":"國民路８３號","OBJECTID":203332},"geometry":{"x":174357.48000000138,"y":2547321.0500000026}},{"attributes":{"ID":203334,"DIS_CODE":0,"TOWNNAME":"永康區","LI":"\u25A0行里","LIN":"10鄰","STREET":"\u25A0平街","SECT":" ","MAREA":" ","LANE":" ","ALLEY":" ","HOUSE_NO":"２０５號","E_COORD97":171988.94,"N_COORD97":2548303.25,"ADDRESS":"\u25A0平街２０５號","OBJECTID":203333},"geometry":{"x":171988.94000000041,"y":2548303.25}},{"attributes":{"ID":203335,"DIS_CODE":0,"TOWNNAME":"東區","LI":"泉南里","LIN":"26鄰","STREET":"府連路","SECT":" ","MAREA":" ","LANE":"２６０巷","ALLEY":"３弄","HOUSE_NO":"１４號","E_COORD97":169497.10000000001,"N_COORD97":2542817.2799999998,"ADDRESS":"府連路２６０巷３弄１４號","OBJECTID":203334},"geometry":{"x":169497.0999999987,"y":2542817.2799999993}},{"attributes":{"ID":203336,"DIS_CODE":0,"TOWNNAME":"東區","LI":"泉南里","LIN":"26鄰","STREET":"府連路","SECT":" ","MAREA":" ","LANE":"２６０巷","ALLEY":"３弄","HOUSE_NO":"１７號","E_COORD97":169493.42000000001,"N_COORD97":2542828.7799999998,"ADDRESS":"府連路２６０巷３弄１７號","OBJECTID":203335},"geometry":{"x":169493.41999999993,"y":2542828.7800000012}},{"attributes":{"ID":203337,"DIS_CODE":0,"TOWNNAME":"南區","LI":"興中里","LIN":" ","STREET":"興中街","SECT":" ","MAREA":" ","LANE":" ","ALLEY":" ","HOUSE_NO":"１００號","E_COORD97":168150.79000000001,"N_COORD97":2542216.8199999998,"ADDRESS":"興中街１００號","OBJECTID":203336},"geometry":{"x":168150.79000000097,"y":2542216.8200000022}},{"attributes":{"ID":203338,"DIS_CODE":0,"TOWNNAME":"南區","LI":"文南里","LIN":"9鄰","STREET":"健康路","SECT":"二段","MAREA":" ","LANE":" ","ALLEY":" ","HOUSE_NO":"２７０號","E_COORD97":166935.13,"N_COORD97":2542505.7599999998,"ADDRESS":"健康路二段２７０號","OBJECTID":203337},"geometry":{"x":166935.12999999989,"y":2542505.7599999998}},{"attributes":{"ID":203339,"DIS_CODE":0,"TOWNNAME":"南區","LI":"大林里","LIN":"1鄰","STREET":"大林路","SECT":" ","MAREA":" ","LANE":" ","ALLEY":" ","HOUSE_NO":"４１號","E_COORD97":169301.66,"N_COORD97":2541813.1899999999,"ADDRESS":"大林路４１號","OBJECTID":203338},"geometry":{"x":169301.66000000015,"y":2541813.1900000013}},{"attributes":{"ID":203340,"DIS_CODE":0,"TOWNNAME":"玉井區","LI":"沙田里","LIN":"3鄰","STREET":" ","SECT":" ","MAREA":"沙田","LANE":" ","ALLEY":" ","HOUSE_NO":"２８號","E_COORD97":196628.25,"N_COORD97":2557233.2799999998,"ADDRESS":"沙田２８號","OBJECTID":203339},"geometry":{"x":196628.25000000093,"y":2557233.2799999993}},{"attributes":{"ID":203341,"DIS_CODE":0,"TOWNNAME":"玉井區","LI":"沙田里","LIN":"3鄰","STREET":" ","SECT":" ","MAREA":"沙田","LANE":" ","ALLEY":" ","HOUSE_NO":"２６號","E_COORD97":196600.07000000001,"N_COORD97":2557205.29,"ADDRESS":"沙田２６號","OBJECTID":203340},"geometry":{"x":196600.0700000003,"y":2557205.2899999991}},{"attributes":{"ID":203342,"DIS_CODE":0,"TOWNNAME":"玉井區","LI":"沙田里","LIN":"3鄰","STREET":" ","SECT":" ","MAREA":"沙田","LANE":" ","ALLEY":" ","HOUSE_NO":"２２之１２號","E_COORD97":196591.20999999999,"N_COORD97":2557013.2999999998,"ADDRESS":"沙田２２之１２號","OBJECTID":203341},"geometry":{"x":196591.21000000089,"y":2557013.3000000007}},{"attributes":{"ID":203343,"DIS_CODE":0,"TOWNNAME":"玉井區","LI":"豐里里","LIN":"3鄰","STREET":" ","SECT":" ","MAREA":"豐里","LANE":" ","ALLEY":" ","HOUSE_NO":"２７號","E_COORD97":193258.67000000001,"N_COORD97":2558408.2400000002,"ADDRESS":"豐里２７號","OBJECTID":203342},"geometry":{"x":193258.67000000086,"y":2558408.2400000039}},{"attributes":{"ID":203344,"DIS_CODE":0,"TOWNNAME":"玉井區","LI":"豐里里","LIN":"3鄰","STREET":" ","SECT":" ","MAREA":"豐里","LANE":" ","ALLEY":" ","HOUSE_NO":"２８之１號","E_COORD97":193189.47,"N_COORD97":2558259.2999999998,"ADDRESS":"豐里２８之１號","OBJECTID":203343},"geometry":{"x":193189.46999999974,"y":2558259.3000000045}},{"attributes":{"ID":203345,"DIS_CODE":0,"TOWNNAME":"學甲區","LI":"新榮里","LIN":"3鄰","STREET":" ","SECT":" ","MAREA":"東寮","LANE":" ","ALLEY":" ","HOUSE_NO":"３６號之５","E_COORD97":166803.89999999999,"N_COORD97":2569346.6899999999,"ADDRESS":"東寮３６號之５","OBJECTID":203344},"geometry":{"x":166803.89999999944,"y":2569346.6900000013}},{"attributes":{"ID":203346,"DIS_CODE":0,"TOWNNAME":"學甲區","LI":"新榮里","LIN":"3鄰","STREET":" ","SECT":" ","MAREA":"東寮","LANE":" ","ALLEY":" ","HOUSE_NO":"３６號","E_COORD97":166800.78,"N_COORD97":2569366.0699999998,"ADDRESS":"東寮３６號","OBJECTID":203345},"geometry":{"x":166800.78000000026,"y":2569366.0700000003}},{"attributes":{"ID":203347,"DIS_CODE":0,"TOWNNAME":"學甲區","LI":"豐和里","LIN":"3鄰","STREET":" ","SECT":" ","MAREA":"美豐","LANE":" ","ALLEY":" ","HOUSE_NO":"１３號","E_COORD97":168071.17999999999,"N_COORD97":2568970.0899999999,"ADDRESS":"美豐１３號","OBJECTID":203346},"geometry":{"x":168071.18000000156,"y":2568970.0900000036}},{"attributes":{"ID":203348,"DIS_CODE":0,"TOWNNAME":"學甲區","LI":"豐和里","LIN":"3鄰","STREET":" ","SECT":" ","MAREA":"美豐","LANE":" ","ALLEY":" ","HOUSE_NO":"１４號","E_COORD97":168084,"N_COORD97":2568974.2999999998,"ADDRESS":"美豐１４號","OBJECTID":203347},"geometry":{"x":168084,"y":2568974.3000000026}},{"attributes":{"ID":203349,"DIS_CODE":0,"TOWNNAME":"學甲區","LI":"豐和里","LIN":"3鄰","STREET":" ","SECT":" ","MAREA":"美豐","LANE":" ","ALLEY":" ","HOUSE_NO":"１５號之１","E_COORD97":168094.82000000001,"N_COORD97":2568980.23,"ADDRESS":"美豐１５號之１","OBJECTID":203348},"geometry":{"x":168094.82000000123,"y":2568980.2300000023}},{"attributes":{"ID":203350,"DIS_CODE":0,"TOWNNAME":"安南區","LI":"學東里","LIN":"9鄰","STREET":"公學路","SECT":"六段","MAREA":" ","LANE":" ","ALLEY":" ","HOUSE_NO":"５９６號","E_COORD97":162447.95000000001,"N_COORD97":2553233.1000000001,"ADDRESS":"公學路六段５９６號","OBJECTID":203349},"geometry":{"x":162447.95000000019,"y":2553233.1000000015}},{"attributes":{"ID":203351,"DIS_CODE":0,"TOWNNAME":"安南區","LI":"總頭里","LIN":"9鄰","STREET":"長溪路","SECT":"二段","MAREA":" ","LANE":" ","ALLEY":" ","HOUSE_NO":"５８３號","E_COORD97":168226.14999999999,"N_COORD97":2550679.9700000002,"ADDRESS":"長溪路二段５８３號","OBJECTID":203350},"geometry":{"x":168226.14999999944,"y":2550679.9700000007}},{"attributes":{"ID":203352,"DIS_CODE":0,"TOWNNAME":"永康區","LI":"龍潭里","LIN":"45鄰","STREET":"西勢路","SECT":" ","MAREA":" ","LANE":" ","ALLEY":" ","HOUSE_NO":"６１０號","E_COORD97":174849.73000000001,"N_COORD97":2546813.2799999998,"ADDRESS":"西勢路６１０號","OBJECTID":203351},"geometry":{"x":174849.73000000045,"y":2546813.2800000012}},{"attributes":{"ID":203353,"DIS_CODE":0,"TOWNNAME":"東區","LI":"泉南里","LIN":"26鄰","STREET":"府連路","SECT":" ","MAREA":" ","LANE":"２６０巷","ALLEY":"３弄","HOUSE_NO":"１９號","E_COORD97":169497.81,"N_COORD97":2542827.6400000001,"ADDRESS":"府連路２６０巷３弄１９號","OBJECTID":203352},"geometry":{"x":169497.81000000052,"y":2542827.6400000025}},{"attributes":{"ID":203354,"DIS_CODE":0,"TOWNNAME":"東區","LI":"泉南里","LIN":"26鄰","STREET":"府連路","SECT":" ","MAREA":" ","LANE":"２６０巷","ALLEY":"３弄","HOUSE_NO":"１號","E_COORD97":169460.39999999999,"N_COORD97":2542843.0800000001,"ADDRESS":"府連路２６０巷３弄１號","OBJECTID":203353},"geometry":{"x":169460.40000000224,"y":2542843.0800000001}},{"attributes":{"ID":203355,"DIS_CODE":0,"TOWNNAME":"東區","LI":"泉南里","LIN":"26鄰","STREET":"府連路","SECT":" ","MAREA":" ","LANE":"２６０巷","ALLEY":"３弄","HOUSE_NO":"２１號","E_COORD97":169501.07000000001,"N_COORD97":2542826.0099999998,"ADDRESS":"府連路２６０巷３弄２１號","OBJECTID":203354},"geometry":{"x":169501.0700000003,"y":2542826.0099999998}},{"attributes":{"ID":203356,"DIS_CODE":0,"TOWNNAME":"東區","LI":"泉南里","LIN":"26鄰","STREET":"府連路","SECT":" ","MAREA":" ","LANE":"２６０巷","ALLEY":"３弄","HOUSE_NO":"２３號","E_COORD97":169505.62,"N_COORD97":2542824.71,"ADDRESS":"府連路２６０巷３弄２３號","OBJECTID":203355},"geometry":{"x":169505.62000000011,"y":2542824.7100000028}},{"attributes":{"ID":203357,"DIS_CODE":0,"TOWNNAME":"東區","LI":"泉南里","LIN":"26鄰","STREET":"府連路","SECT":" ","MAREA":" ","LANE":"２６０巷","ALLEY":"３弄","HOUSE_NO":"２５號","E_COORD97":169510.01000000001,"N_COORD97":2542823.5800000001,"ADDRESS":"府連路２６０巷３弄２５號","OBJECTID":203356},"geometry":{"x":169510.01000000071,"y":2542823.5800000038}},{"attributes":{"ID":203358,"DIS_CODE":0,"TOWNNAME":"東區","LI":"泉南里","LIN":"26鄰","STREET":"府連路","SECT":" ","MAREA":" ","LANE":"２６０巷","ALLEY":"３弄","HOUSE_NO":"２號","E_COORD97":169468.45000000001,"N_COORD97":2542824.8900000001,"ADDRESS":"府連路２６０巷３弄２號","OBJECTID":203357},"geometry":{"x":169468.45000000112,"y":2542824.8900000006}},{"attributes":{"ID":203359,"DIS_CODE":0,"TOWNNAME":"東區","LI":"泉南里","LIN":"26鄰","STREET":"府連路","SECT":" ","MAREA":" ","LANE":"２６０巷","ALLEY":"３弄","HOUSE_NO":"４號","E_COORD97":169472.67000000001,"N_COORD97":2542823.8700000001,"ADDRESS":"府連路２６０巷３弄４號","OBJECTID":203358},"geometry":{"x":169472.66999999993,"y":2542823.8700000029}},{"attributes":{"ID":203360,"DIS_CODE":0,"TOWNNAME":"東區","LI":"泉南里","LIN":"26鄰","STREET":"府連路","SECT":" ","MAREA":" ","LANE":"２６０巷","ALLEY":"３弄","HOUSE_NO":"６號","E_COORD97":169476.64000000001,"N_COORD97":2542822.73,"ADDRESS":"府連路２６０巷３弄６號","OBJECTID":203359},"geometry":{"x":169476.64000000153,"y":2542822.7299999986}},{"attributes":{"ID":203361,"DIS_CODE":0,"TOWNNAME":"東區","LI":"泉南里","LIN":"26鄰","STREET":"府連路","SECT":" ","MAREA":" ","LANE":"２６０巷","ALLEY":"３弄","HOUSE_NO":"７號","E_COORD97":169473.89999999999,"N_COORD97":2542836.25,"ADDRESS":"府連路２６０巷３弄７號","OBJECTID":203360},"geometry":{"x":169473.90000000224,"y":2542836.2500000019}},{"attributes":{"ID":203362,"DIS_CODE":0,"TOWNNAME":"東區","LI":"泉南里","LIN":"26鄰","STREET":"府連路","SECT":" ","MAREA":" ","LANE":"２６０巷","ALLEY":"３弄","HOUSE_NO":"８號","E_COORD97":169480.62,"N_COORD97":2542821.25,"ADDRESS":"府連路２６０巷３弄８號","OBJECTID":203361},"geometry":{"x":169480.62000000197,"y":2542821.25}},{"attributes":{"ID":203363,"DIS_CODE":0,"TOWNNAME":"東區","LI":"泉南里","LIN":"26鄰","STREET":"府連路","SECT":" ","MAREA":" ","LANE":"２６０巷","ALLEY":"３弄","HOUSE_NO":"９號","E_COORD97":169477.14999999999,"N_COORD97":2542834.6299999999,"ADDRESS":"府連路２６０巷３弄９號","OBJECTID":203362},"geometry":{"x":169477.15000000037,"y":2542834.629999999}},{"attributes":{"ID":203364,"DIS_CODE":0,"TOWNNAME":"安平區","LI":"億載里","LIN":"1鄰","STREET":"平豐路","SECT":" ","MAREA":" ","LANE":"３９１巷","ALLEY":"２２弄","HOUSE_NO":"２８號","E_COORD97":164211.19,"N_COORD97":2543893.6699999999,"ADDRESS":"平豐路３９１巷２２弄２８號","OBJECTID":203363},"geometry":{"x":164211.19000000041,"y":2543893.6699999999}},{"attributes":{"ID":203365,"DIS_CODE":0,"TOWNNAME":"永康區","LI":"龍潭里","LIN":"26鄰","STREET":"中山北路","SECT":" ","MAREA":" ","LANE":"４６１巷","ALLEY":"７弄","HOUSE_NO":"４號","E_COORD97":175102.64999999999,"N_COORD97":2547784.46,"ADDRESS":"中山北路４６１巷７弄４號","OBJECTID":203364},"geometry":{"x":175102.6500000013,"y":2547784.4600000009}},{"attributes":{"ID":203366,"DIS_CODE":0,"TOWNNAME":"後壁區","LI":"竹新里","LIN":"9鄰","STREET":" ","SECT":" ","MAREA":"竹圍後","LANE":" ","ALLEY":" ","HOUSE_NO":"７３號","E_COORD97":178570.23999999999,"N_COORD97":2582305.6600000001,"ADDRESS":"竹圍後７３號","OBJECTID":203365},"geometry":{"x":178570.24000000115,"y":2582305.660000002}},{"attributes":{"ID":203367,"DIS_CODE":0,"TOWNNAME":"永康區","LI":"龍潭里","LIN":"26鄰","STREET":"中山北路","SECT":" ","MAREA":" ","LANE":"４６１巷","ALLEY":"８弄","HOUSE_NO":"５６號","E_COORD97":175168.89999999999,"N_COORD97":2547801.4500000002,"ADDRESS":"中山北路４６１巷８弄５６號","OBJECTID":203366},"geometry":{"x":175168.90000000037,"y":2547801.4500000011}},{"attributes":{"ID":203368,"DIS_CODE":0,"TOWNNAME":"永康區","LI":"龍潭里","LIN":"39鄰","STREET":"永明街","SECT":" ","MAREA":" ","LANE":" ","ALLEY":" ","HOUSE_NO":"２６１之１３號","E_COORD97":174627.89000000001,"N_COORD97":2547230.27,"ADDRESS":"永明街２６１之１３號","OBJECTID":203367},"geometry":{"x":174627.88999999966,"y":2547230.2700000014}},{"attributes":{"ID":203369,"DIS_CODE":0,"TOWNNAME":"後壁區","LI":"竹新里","LIN":"9鄰","STREET":" ","SECT":" ","MAREA":"竹圍後","LANE":" ","ALLEY":" ","HOUSE_NO":"７４號之１","E_COORD97":178583.14000000001,"N_COORD97":2582277.2799999998,"ADDRESS":"竹圍後７４號之１","OBJECTID":203368},"geometry":{"x":178583.14000000153,"y":2582277.2799999993}},{"attributes":{"ID":203370,"DIS_CODE":0,"TOWNNAME":"後壁區","LI":"竹新里","LIN":"9鄰","STREET":" ","SECT":" ","MAREA":"竹圍後","LANE":" ","ALLEY":" ","HOUSE_NO":"７４號之２","E_COORD97":178594.95999999999,"N_COORD97":2582296.3199999998,"ADDRESS":"竹圍後７４號之２","OBJECTID":203369},"geometry":{"x":178594.96000000183,"y":2582296.320000004}},{"attributes":{"ID":203371,"DIS_CODE":0,"TOWNNAME":"後壁區","LI":"竹新里","LIN":"9鄰","STREET":" ","SECT":" ","MAREA":"竹圍後","LANE":" ","ALLEY":" ","HOUSE_NO":"７４號","E_COORD97":178556.89999999999,"N_COORD97":2582301.3100000001,"ADDRESS":"竹圍後７４號","OBJECTID":203370},"geometry":{"x":178556.9000000013,"y":2582301.3100000024}},{"attributes":{"ID":203372,"DIS_CODE":0,"TOWNNAME":"後壁區","LI":"竹新里","LIN":"9鄰","STREET":" ","SECT":" ","MAREA":"竹圍後","LANE":" ","ALLEY":" ","HOUSE_NO":"７５號之３","E_COORD97":178527.98999999999,"N_COORD97":2582307.3999999999,"ADDRESS":"竹圍後７５號之３","OBJECTID":203371},"geometry":{"x":178527.99000000022,"y":2582307.4000000022}},{"attributes":{"ID":203373,"DIS_CODE":0,"TOWNNAME":"後壁區","LI":"竹新里","LIN":"9鄰","STREET":" ","SECT":" ","MAREA":"竹圍後","LANE":" ","ALLEY":" ","HOUSE_NO":"７５號之５","E_COORD97":178531.12,"N_COORD97":2582297.5,"ADDRESS":"竹圍後７５號之５","OBJECTID":203372},"geometry":{"x":178531.11999999918,"y":2582297.5}},{"attributes":{"ID":203374,"DIS_CODE":0,"TOWNNAME":"學甲區","LI":"豐和里","LIN":"3鄰","STREET":" ","SECT":" ","MAREA":"美豐","LANE":" ","ALLEY":" ","HOUSE_NO":"１５號之３","E_COORD97":168113.89999999999,"N_COORD97":2568980.0699999998,"ADDRESS":"美豐１５號之３","OBJECTID":203373},"geometry":{"x":168113.90000000037,"y":2568980.0700000003}},{"attributes":{"ID":203375,"DIS_CODE":0,"TOWNNAME":"永康區","LI":"龍潭里","LIN":"26鄰","STREET":"中山北路","SECT":" ","MAREA":" ","LANE":"４６１巷","ALLEY":"８弄","HOUSE_NO":"９號","E_COORD97":175141.17999999999,"N_COORD97":2547791.8599999999,"ADDRESS":"中山北路４６１巷８弄９號","OBJECTID":203374},"geometry":{"x":175141.1799999997,"y":2547791.8600000013}},{"attributes":{"ID":203376,"DIS_CODE":0,"TOWNNAME":"學甲區","LI":"豐和里","LIN":"3鄰","STREET":" ","SECT":" ","MAREA":"美豐","LANE":" ","ALLEY":" ","HOUSE_NO":"１６號之１","E_COORD97":168149.53,"N_COORD97":2568992.4700000002,"ADDRESS":"美豐１６號之１","OBJECTID":203375},"geometry":{"x":168149.53000000119,"y":2568992.4700000025}},{"attributes":{"ID":203377,"DIS_CODE":0,"TOWNNAME":"學甲區","LI":"豐和里","LIN":"3鄰","STREET":" ","SECT":" ","MAREA":"美豐","LANE":" ","ALLEY":" ","HOUSE_NO":"１７號之１","E_COORD97":168122.54000000001,"N_COORD97":2568962.4199999999,"ADDRESS":"美豐１７號之１","OBJECTID":203376},"geometry":{"x":168122.54000000004,"y":2568962.4200000018}},{"attributes":{"ID":203378,"DIS_CODE":0,"TOWNNAME":"學甲區","LI":"豐和里","LIN":"3鄰","STREET":" ","SECT":" ","MAREA":"美豐","LANE":" ","ALLEY":" ","HOUSE_NO":"１８號","E_COORD97":168089.38,"N_COORD97":2568949.27,"ADDRESS":"美豐１８號","OBJECTID":203377},"geometry":{"x":168089.38000000082,"y":2568949.2700000014}},{"attributes":{"ID":203379,"DIS_CODE":0,"TOWNNAME":"學甲區","LI":"豐和里","LIN":"3鄰","STREET":" ","SECT":" ","MAREA":"美豐","LANE":" ","ALLEY":" ","HOUSE_NO":"１９號","E_COORD97":168096.13,"N_COORD97":2568944.77,"ADDRESS":"美豐１９號","OBJECTID":203378},"geometry":{"x":168096.13000000082,"y":2568944.7700000033}},{"attributes":{"ID":203380,"DIS_CODE":0,"TOWNNAME":"學甲區","LI":"豐和里","LIN":"3鄰","STREET":" ","SECT":" ","MAREA":"美豐","LANE":" ","ALLEY":" ","HOUSE_NO":"２０號之１","E_COORD97":168115.67999999999,"N_COORD97":2568908.5699999998,"ADDRESS":"美豐２０號之１","OBJECTID":203379},"geometry":{"x":168115.68000000063,"y":2568908.5700000003}},{"attributes":{"ID":203381,"DIS_CODE":0,"TOWNNAME":"學甲區","LI":"豐和里","LIN":"3鄰","STREET":" ","SECT":" ","MAREA":"美豐","LANE":" ","ALLEY":" ","HOUSE_NO":"２０號之２","E_COORD97":168135.92999999999,"N_COORD97":2568919.6099999999,"ADDRESS":"美豐２０號之２","OBJECTID":203380},"geometry":{"x":168135.93000000063,"y":2568919.6100000013}},{"attributes":{"ID":203382,"DIS_CODE":0,"TOWNNAME":"學甲區","LI":"新榮里","LIN":"3鄰","STREET":" ","SECT":" ","MAREA":"東寮","LANE":" ","ALLEY":" ","HOUSE_NO":"２６號之１０","E_COORD97":166770.72,"N_COORD97":2569455.2400000002,"ADDRESS":"東寮２６號之１０","OBJECTID":203381},"geometry":{"x":166770.7200000016,"y":2569455.2400000021}},{"attributes":{"ID":203383,"DIS_CODE":0,"TOWNNAME":"學甲區","LI":"新榮里","LIN":"3鄰","STREET":" ","SECT":" ","MAREA":"東寮","LANE":" ","ALLEY":" ","HOUSE_NO":"２７號","E_COORD97":166800.95999999999,"N_COORD97":2569508.2200000002,"ADDRESS":"東寮２７號","OBJECTID":203382},"geometry":{"x":166800.95999999996,"y":2569508.2200000007}},{"attributes":{"ID":203384,"DIS_CODE":0,"TOWNNAME":"永康區","LI":"龍潭里","LIN":"26鄰","STREET":"中山北路","SECT":" ","MAREA":" ","LANE":"４６１巷","ALLEY":"７弄","HOUSE_NO":"１０號","E_COORD97":175091.95000000001,"N_COORD97":2547782.71,"ADDRESS":"中山北路４６１巷７弄１０號","OBJECTID":203383},"geometry":{"x":175091.95000000112,"y":2547782.7100000009}},{"attributes":{"ID":203385,"DIS_CODE":0,"TOWNNAME":"東區","LI":"後甲里","LIN":"26鄰","STREET":"裕農路","SECT":" ","MAREA":" ","LANE":"５７１巷","ALLEY":"２弄","HOUSE_NO":"２１號","E_COORD97":171518.56,"N_COORD97":2543282.8700000001,"ADDRESS":"裕農路５７１巷２弄２１號","OBJECTID":203384},"geometry":{"x":171518.56000000052,"y":2543282.870000001}},{"attributes":{"ID":203386,"DIS_CODE":0,"TOWNNAME":"東區","LI":"後甲里","LIN":"26鄰","STREET":"裕農路","SECT":" ","MAREA":" ","LANE":"５７１巷","ALLEY":"２弄","HOUSE_NO":"２３號","E_COORD97":171519.04000000001,"N_COORD97":2543287.6899999999,"ADDRESS":"裕農路５７１巷２弄２３號","OBJECTID":203385},"geometry":{"x":171519.04000000097,"y":2543287.6900000013}},{"attributes":{"ID":203387,"DIS_CODE":0,"TOWNNAME":"學甲區","LI":"新榮里","LIN":"3鄰","STREET":" ","SECT":" ","MAREA":"東寮","LANE":" ","ALLEY":" ","HOUSE_NO":"３０號","E_COORD97":166782.39999999999,"N_COORD97":2569429.04,"ADDRESS":"東寮３０號","OBJECTID":203386},"geometry":{"x":166782.4000000013,"y":2569429.0399999991}},{"attributes":{"ID":203388,"DIS_CODE":0,"TOWNNAME":"東區","LI":"後甲里","LIN":"26鄰","STREET":"裕農路","SECT":" ","MAREA":" ","LANE":"５７１巷","ALLEY":"２弄","HOUSE_NO":"２５號","E_COORD97":171518.56,"N_COORD97":2543292.27,"ADDRESS":"裕農路５７１巷２弄２５號","OBJECTID":203387},"geometry":{"x":171518.56000000052,"y":2543292.2699999996}},{"attributes":{"ID":203389,"DIS_CODE":0,"TOWNNAME":"東區","LI":"後甲里","LIN":"26鄰","STREET":"裕農路","SECT":" ","MAREA":" ","LANE":"５７１巷","ALLEY":"２弄","HOUSE_NO":"２７號","E_COORD97":171518.07999999999,"N_COORD97":2543296.8399999999,"ADDRESS":"裕農路５７１巷２弄２７號","OBJECTID":203388},"geometry":{"x":171518.08000000007,"y":2543296.8400000017}},{"attributes":{"ID":203390,"DIS_CODE":0,"TOWNNAME":"東區","LI":"後甲里","LIN":"26鄰","STREET":"裕農路","SECT":" ","MAREA":" ","LANE":"５７１巷","ALLEY":"２弄","HOUSE_NO":"２９號","E_COORD97":171516.87,"N_COORD97":2543301.4199999999,"ADDRESS":"裕農路５７１巷２弄２９號","OBJECTID":203389},"geometry":{"x":171516.87000000104,"y":2543301.4199999999}},{"attributes":{"ID":203391,"DIS_CODE":0,"TOWNNAME":"東區","LI":"後甲里","LIN":"26鄰","STREET":"裕農路","SECT":" ","MAREA":" ","LANE":"５７１巷","ALLEY":"２弄","HOUSE_NO":"９號之１","E_COORD97":171498.78,"N_COORD97":2543281.1800000002,"ADDRESS":"裕農路５７１巷２弄９號之１","OBJECTID":203390},"geometry":{"x":171498.78000000212,"y":2543281.1800000016}},{"attributes":{"ID":203392,"DIS_CODE":0,"TOWNNAME":"東區","LI":"後甲里","LIN":"26鄰","STREET":"裕農路","SECT":" ","MAREA":" ","LANE":"５７１巷","ALLEY":"２弄","HOUSE_NO":"９號之２","E_COORD97":171499.26000000001,"N_COORD97":2543285.04,"ADDRESS":"裕農路５７１巷２弄９號之２","OBJECTID":203391},"geometry":{"x":171499.25999999978,"y":2543285.040000001}},{"attributes":{"ID":203393,"DIS_CODE":0,"TOWNNAME":"東區","LI":"後甲里","LIN":"26鄰","STREET":"裕農路","SECT":" ","MAREA":" ","LANE":"５７１巷","ALLEY":"２弄","HOUSE_NO":"９號之３","E_COORD97":171498.78,"N_COORD97":2543289.1299999999,"ADDRESS":"裕農路５７１巷２弄９號之３","OBJECTID":203392},"geometry":{"x":171498.78000000212,"y":2543289.129999999}},{"attributes":{"ID":203394,"DIS_CODE":0,"TOWNNAME":"東區","LI":"後甲里","LIN":"26鄰","STREET":"裕農路","SECT":" ","MAREA":" ","LANE":"５７１巷","ALLEY":"２弄","HOUSE_NO":"９號之４","E_COORD97":171498.06,"N_COORD97":2543293.23,"ADDRESS":"裕農路５７１巷２弄９號之４","OBJECTID":203393},"geometry":{"x":171498.06000000052,"y":2543293.2300000004}},{"attributes":{"ID":203395,"DIS_CODE":0,"TOWNNAME":"東區","LI":"富強里","LIN":"26鄰","STREET":"中華東路","SECT":"二段","MAREA":" ","LANE":"２２６巷","ALLEY":"２７弄","HOUSE_NO":"１０號","E_COORD97":171084.29000000001,"N_COORD97":2542647.2999999998,"ADDRESS":"中華東路二段２２６巷２７弄１０號","OBJECTID":203394},"geometry":{"x":171084.29000000004,"y":2542647.3000000026}},{"attributes":{"ID":203396,"DIS_CODE":0,"TOWNNAME":"東區","LI":"富強里","LIN":"26鄰","STREET":"中華東路","SECT":"二段","MAREA":" ","LANE":"２２６巷","ALLEY":"２７弄","HOUSE_NO":"１４號","E_COORD97":171083.60000000001,"N_COORD97":2542661.0699999998,"ADDRESS":"中華東路二段２２６巷２７弄１４號","OBJECTID":203395},"geometry":{"x":171083.59999999963,"y":2542661.070000004}},{"attributes":{"ID":203397,"DIS_CODE":0,"TOWNNAME":"仁德區","LI":"後壁里","LIN":"40鄰","STREET":"德善二街","SECT":" ","MAREA":" ","LANE":" ","ALLEY":" ","HOUSE_NO":"２５號","E_COORD97":173551.95999999999,"N_COORD97":2538913.7400000002,"ADDRESS":"德善二街２５號","OBJECTID":203396},"geometry":{"x":173551.96000000089,"y":2538913.7400000039}},{"attributes":{"ID":203398,"DIS_CODE":0,"TOWNNAME":"中西區","LI":"西湖里","LIN":"40鄰","STREET":"中華西路","SECT":"二段","MAREA":" ","LANE":" ","ALLEY":" ","HOUSE_NO":"６７５號","E_COORD97":166638.91,"N_COORD97":2544724.0600000001,"ADDRESS":"中華西路二段６７５號","OBJECTID":203397},"geometry":{"x":166638.91000000015,"y":2544724.0600000024}},{"attributes":{"ID":203399,"DIS_CODE":0,"TOWNNAME":"新市區","LI":"新和里","LIN":"40鄰","STREET":"勝利街","SECT":" ","MAREA":" ","LANE":" ","ALLEY":" ","HOUSE_NO":"２５號","E_COORD97":177322.95000000001,"N_COORD97":2552940.5099999998,"ADDRESS":"勝利街２５號","OBJECTID":203398},"geometry":{"x":177322.95000000019,"y":2552940.5100000035}},{"attributes":{"ID":203400,"DIS_CODE":0,"TOWNNAME":"新市區","LI":"新和里","LIN":"40鄰","STREET":"勝利街","SECT":" ","MAREA":" ","LANE":" ","ALLEY":" ","HOUSE_NO":"７０號","E_COORD97":177155.07000000001,"N_COORD97":2552959.7599999998,"ADDRESS":"勝利街７０號","OBJECTID":203399},"geometry":{"x":177155.0700000003,"y":2552959.7600000016}},{"attributes":{"ID":203401,"DIS_CODE":0,"TOWNNAME":"新市區","LI":"新和里","LIN":"40鄰","STREET":"勝利街","SECT":" ","MAREA":" ","LANE":" ","ALLEY":" ","HOUSE_NO":"６２號","E_COORD97":177183.79000000001,"N_COORD97":2552953.7599999998,"ADDRESS":"勝利街６２號","OBJECTID":203400},"geometry":{"x":177183.79000000004,"y":2552953.7600000016}}]}