{"displayFieldName":"TOWNNAME","fieldAliases":{"ID":"ID","DIS_CODE":"DIS_CODE","TOWNNAME":"TOWNNAME","LI":"LI","LIN":"LIN","STREET":"STREET","SECT":"SECT","MAREA":"MAREA","LANE":"LANE","ALLEY":"ALLEY","HOUSE_NO":"HOUSE_NO","E_COORD97":"E_COORD97","N_COORD97":"N_COORD97","ADDRESS":"ADDRESS","OBJECTID":"OBJECTID"},"geometryType":"esriGeometryPoint","spatialReference":{"wkid":102443,"latestWkid":3826},"fields":[{"name":"ID","type":"esriFieldTypeDouble","alias":"ID"},{"name":"DIS_CODE","type":"esriFieldTypeInteger","alias":"DIS_CODE"},{"name":"TOWNNAME","type":"esriFieldTypeString","alias":"TOWNNAME","length":8},{"name":"LI","type":"esriFieldTypeString","alias":"LI","length":8},{"name":"LIN","type":"esriFieldTypeString","alias":"LIN","length":12},{"name":"STREET","type":"esriFieldTypeString","alias":"STREET","length":20},{"name":"SECT","type":"esriFieldTypeString","alias":"SECT","length":8},{"name":"MAREA","type":"esriFieldTypeString","alias":"MAREA","length":12},{"name":"LANE","type":"esriFieldTypeString","alias":"LANE","length":10},{"name":"ALLEY","type":"esriFieldTypeString","alias":"ALLEY","length":10},{"name":"HOUSE_NO","type":"esriFieldTypeString","alias":"HOUSE_NO","length":20},{"name":"E_COORD97","type":"esriFieldTypeDouble","alias":"E_COORD97"},{"name":"N_COORD97","type":"esriFieldTypeDouble","alias":"N_COORD97"},{"name":"ADDRESS","type":"esriFieldTypeString","alias":"ADDRESS","length":50},{"name":"OBJECTID","type":"esriFieldTypeOID","alias":"OBJECTID"}],"features":[{"attributes":{"ID":557828,"DIS_CODE":0,"TOWNNAME":"東區","LI":"裕聖里","LIN":"21鄰","STREET":"裕孝路","SECT":" ","MAREA":" ","LANE":" ","ALLEY":" ","HOUSE_NO":"４７８號","E_COORD97":172408.92000000001,"N_COORD97":2542354.0899999999,"ADDRESS":"裕孝路４７８號","OBJECTID":557801},"geometry":{"x":172408.91999999993,"y":2542354.0899999999}},{"attributes":{"ID":557829,"DIS_CODE":0,"TOWNNAME":"東區","LI":"裕聖里","LIN":"21鄰","STREET":"裕孝路","SECT":" ","MAREA":" ","LANE":" ","ALLEY":" ","HOUSE_NO":"４７６號","E_COORD97":172403.19,"N_COORD97":2542354.0899999999,"ADDRESS":"裕孝路４７６號","OBJECTID":557802},"geometry":{"x":172403.19000000134,"y":2542354.0899999999}},{"attributes":{"ID":557830,"DIS_CODE":0,"TOWNNAME":"東區","LI":"裕聖里","LIN":"21鄰","STREET":"裕孝路","SECT":" ","MAREA":" ","LANE":" ","ALLEY":" ","HOUSE_NO":"４８０號","E_COORD97":172412.69,"N_COORD97":2542354.5800000001,"ADDRESS":"裕孝路４８０號","OBJECTID":557803},"geometry":{"x":172412.69000000041,"y":2542354.5800000001}},{"attributes":{"ID":557831,"DIS_CODE":0,"TOWNNAME":"東區","LI":"裕聖里","LIN":"21鄰","STREET":"裕孝路","SECT":" ","MAREA":" ","LANE":" ","ALLEY":" ","HOUSE_NO":"４８２號","E_COORD97":172417.26999999999,"N_COORD97":2542354.0899999999,"ADDRESS":"裕孝路４８２號","OBJECTID":557804},"geometry":{"x":172417.27000000048,"y":2542354.0899999999}},{"attributes":{"ID":557832,"DIS_CODE":0,"TOWNNAME":"東區","LI":"裕聖里","LIN":"21鄰","STREET":"裕孝路","SECT":" ","MAREA":" ","LANE":" ","ALLEY":" ","HOUSE_NO":"４８６號","E_COORD97":172421.85000000001,"N_COORD97":2542356.3799999999,"ADDRESS":"裕孝路４８６號","OBJECTID":557805},"geometry":{"x":172421.85000000056,"y":2542356.3800000008}},{"attributes":{"ID":557833,"DIS_CODE":0,"TOWNNAME":"東區","LI":"裕聖里","LIN":"21鄰","STREET":"裕孝路","SECT":" ","MAREA":" ","LANE":" ","ALLEY":" ","HOUSE_NO":"４８８號","E_COORD97":172421.85000000001,"N_COORD97":2542352.4500000002,"ADDRESS":"裕孝路４８８號","OBJECTID":557806},"geometry":{"x":172421.85000000056,"y":2542352.450000003}},{"attributes":{"ID":557834,"DIS_CODE":0,"TOWNNAME":"東區","LI":"崇文里","LIN":"21鄰","STREET":"崇德二十一街","SECT":" ","MAREA":" ","LANE":" ","ALLEY":" ","HOUSE_NO":"１２５號","E_COORD97":171138.79999999999,"N_COORD97":2540875.7400000002,"ADDRESS":"崇德二十一街１２５號","OBJECTID":557807},"geometry":{"x":171138.80000000168,"y":2540875.7400000002}},{"attributes":{"ID":557835,"DIS_CODE":0,"TOWNNAME":"白河區","LI":"永安里","LIN":"21鄰","STREET":"中山路","SECT":" ","MAREA":" ","LANE":" ","ALLEY":" ","HOUSE_NO":"１之４１號","E_COORD97":189918.25,"N_COORD97":2582693.0800000001,"ADDRESS":"中山路１之４１號","OBJECTID":557808},"geometry":{"x":189918.25,"y":2582693.0800000001}},{"attributes":{"ID":557836,"DIS_CODE":0,"TOWNNAME":"安南區","LI":"新順里","LIN":"21鄰","STREET":"育安三街","SECT":" ","MAREA":" ","LANE":" ","ALLEY":" ","HOUSE_NO":"３５號","E_COORD97":169260.5,"N_COORD97":2549867.1899999999,"ADDRESS":"育安三街３５號","OBJECTID":557809},"geometry":{"x":169260.5,"y":2549867.1899999976}},{"attributes":{"ID":557837,"DIS_CODE":0,"TOWNNAME":"南區","LI":"建南里","LIN":"21鄰","STREET":"中華南路","SECT":"一段","MAREA":" ","LANE":" ","ALLEY":" ","HOUSE_NO":"５６７之１號","E_COORD97":167531.51999999999,"N_COORD97":2540327.8199999998,"ADDRESS":"中華南路一段５６７之１號","OBJECTID":557810},"geometry":{"x":167531.52000000048,"y":2540327.8200000022}},{"attributes":{"ID":557838,"DIS_CODE":0,"TOWNNAME":"南區","LI":"建南里","LIN":"21鄰","STREET":"中華南路","SECT":"一段","MAREA":" ","LANE":" ","ALLEY":" ","HOUSE_NO":"５５１號","E_COORD97":167546.76000000001,"N_COORD97":2540331.6299999999,"ADDRESS":"中華南路一段５５１號","OBJECTID":557811},"geometry":{"x":167546.76000000164,"y":2540331.6300000008}},{"attributes":{"ID":557839,"DIS_CODE":0,"TOWNNAME":"南區","LI":"金華里","LIN":"21鄰","STREET":"賢南街","SECT":" ","MAREA":" ","LANE":" ","ALLEY":" ","HOUSE_NO":"４３號","E_COORD97":166806.16,"N_COORD97":2542401.96,"ADDRESS":"賢南街４３號","OBJECTID":557812},"geometry":{"x":166806.16000000108,"y":2542401.9600000028}},{"attributes":{"ID":557840,"DIS_CODE":0,"TOWNNAME":"東區","LI":"忠孝里","LIN":"21鄰","STREET":"崇明路","SECT":" ","MAREA":" ","LANE":" ","ALLEY":" ","HOUSE_NO":"１９０號","E_COORD97":169806.70000000001,"N_COORD97":2542173.9399999999,"ADDRESS":"崇明路１９０號","OBJECTID":557813},"geometry":{"x":169806.70000000019,"y":2542173.9400000013}},{"attributes":{"ID":557841,"DIS_CODE":0,"TOWNNAME":"安南區","LI":"幸福里","LIN":"21鄰","STREET":"國安街","SECT":" ","MAREA":" ","LANE":" ","ALLEY":" ","HOUSE_NO":"１７５號","E_COORD97":166704.60000000001,"N_COORD97":2546936.2999999998,"ADDRESS":"國安街１７５號","OBJECTID":557814},"geometry":{"x":166704.59999999963,"y":2546936.3000000026}},{"attributes":{"ID":557842,"DIS_CODE":0,"TOWNNAME":"安南區","LI":"幸福里","LIN":"21鄰","STREET":"國安街","SECT":" ","MAREA":" ","LANE":" ","ALLEY":" ","HOUSE_NO":"１７７號","E_COORD97":166700.20999999999,"N_COORD97":2546936.5099999998,"ADDRESS":"國安街１７７號","OBJECTID":557815},"geometry":{"x":166700.21000000089,"y":2546936.5100000035}},{"attributes":{"ID":557843,"DIS_CODE":0,"TOWNNAME":"安南區","LI":"幸福里","LIN":"21鄰","STREET":"國安街","SECT":" ","MAREA":" ","LANE":" ","ALLEY":" ","HOUSE_NO":"１８１號","E_COORD97":166691.95999999999,"N_COORD97":2546936.0800000001,"ADDRESS":"國安街１８１號","OBJECTID":557816},"geometry":{"x":166691.96000000089,"y":2546936.0800000038}},{"attributes":{"ID":557844,"DIS_CODE":0,"TOWNNAME":"安南區","LI":"幸福里","LIN":"21鄰","STREET":"國安街","SECT":" ","MAREA":" ","LANE":" ","ALLEY":" ","HOUSE_NO":"１８５號","E_COORD97":166684.04000000001,"N_COORD97":2546934.6899999999,"ADDRESS":"國安街１８５號","OBJECTID":557817},"geometry":{"x":166684.0400000019,"y":2546934.6900000032}},{"attributes":{"ID":557845,"DIS_CODE":0,"TOWNNAME":"安南區","LI":"幸福里","LIN":"21鄰","STREET":"國安街","SECT":" ","MAREA":" ","LANE":" ","ALLEY":" ","HOUSE_NO":"１８７號","E_COORD97":166680.35000000001,"N_COORD97":2546934.3700000001,"ADDRESS":"國安街１８７號","OBJECTID":557818},"geometry":{"x":166680.35000000056,"y":2546934.370000001}},{"attributes":{"ID":557846,"DIS_CODE":0,"TOWNNAME":"安南區","LI":"幸福里","LIN":"21鄰","STREET":"國安街","SECT":" ","MAREA":" ","LANE":" ","ALLEY":" ","HOUSE_NO":"１８９號","E_COORD97":166676,"N_COORD97":2546933.7000000002,"ADDRESS":"國安街１８９號","OBJECTID":557819},"geometry":{"x":166676.00000000093,"y":2546933.6999999993}},{"attributes":{"ID":557847,"DIS_CODE":0,"TOWNNAME":"安南區","LI":"幸福里","LIN":"21鄰","STREET":"國安街","SECT":" ","MAREA":" ","LANE":" ","ALLEY":" ","HOUSE_NO":"１９１號","E_COORD97":166672.23999999999,"N_COORD97":2546933.79,"ADDRESS":"國安街１９１號","OBJECTID":557820},"geometry":{"x":166672.24000000022,"y":2546933.7900000028}},{"attributes":{"ID":557848,"DIS_CODE":0,"TOWNNAME":"安南區","LI":"幸福里","LIN":"21鄰","STREET":"國安街","SECT":" ","MAREA":" ","LANE":" ","ALLEY":" ","HOUSE_NO":"１９３號","E_COORD97":166668.64000000001,"N_COORD97":2546933.0299999998,"ADDRESS":"國安街１９３號","OBJECTID":557821},"geometry":{"x":166668.63999999966,"y":2546933.0300000012}},{"attributes":{"ID":557849,"DIS_CODE":0,"TOWNNAME":"安南區","LI":"幸福里","LIN":"21鄰","STREET":"國安街","SECT":" ","MAREA":" ","LANE":" ","ALLEY":" ","HOUSE_NO":"１９５號","E_COORD97":166663.95999999999,"N_COORD97":2546932.6200000001,"ADDRESS":"國安街１９５號","OBJECTID":557822},"geometry":{"x":166663.95999999996,"y":2546932.620000001}},{"attributes":{"ID":557850,"DIS_CODE":0,"TOWNNAME":"安南區","LI":"梅花里","LIN":"21鄰","STREET":"同安路","SECT":" ","MAREA":" ","LANE":" ","ALLEY":" ","HOUSE_NO":"２７０號","E_COORD97":167192.16,"N_COORD97":2549158.73,"ADDRESS":"同安路２７０號","OBJECTID":557823},"geometry":{"x":167192.16000000108,"y":2549158.7300000004}},{"attributes":{"ID":557851,"DIS_CODE":0,"TOWNNAME":"安南區","LI":"梅花里","LIN":"21鄰","STREET":"同安路","SECT":" ","MAREA":" ","LANE":" ","ALLEY":" ","HOUSE_NO":"２７２號","E_COORD97":167194.32000000001,"N_COORD97":2549161.8599999999,"ADDRESS":"同安路２７２號","OBJECTID":557824},"geometry":{"x":167194.32000000216,"y":2549161.8600000013}},{"attributes":{"ID":557852,"DIS_CODE":0,"TOWNNAME":"安南區","LI":"梅花里","LIN":"21鄰","STREET":"同安路","SECT":" ","MAREA":" ","LANE":" ","ALLEY":" ","HOUSE_NO":"２７４號","E_COORD97":167196.67000000001,"N_COORD97":2549165,"ADDRESS":"同安路２７４號","OBJECTID":557825},"geometry":{"x":167196.67000000179,"y":2549165.0000000019}},{"attributes":{"ID":557853,"DIS_CODE":0,"TOWNNAME":"安南區","LI":"梅花里","LIN":"21鄰","STREET":"同安路","SECT":" ","MAREA":" ","LANE":" ","ALLEY":" ","HOUSE_NO":"２７６號","E_COORD97":167198.42999999999,"N_COORD97":2549168.1299999999,"ADDRESS":"同安路２７６號","OBJECTID":557826},"geometry":{"x":167198.43000000063,"y":2549168.129999999}},{"attributes":{"ID":557854,"DIS_CODE":0,"TOWNNAME":"安南區","LI":"梅花里","LIN":"21鄰","STREET":"同安路","SECT":" ","MAREA":" ","LANE":" ","ALLEY":" ","HOUSE_NO":"２７８號","E_COORD97":167200.78,"N_COORD97":2549171.2599999998,"ADDRESS":"同安路２７８號","OBJECTID":557827},"geometry":{"x":167200.78000000026,"y":2549171.2599999998}},{"attributes":{"ID":557855,"DIS_CODE":0,"TOWNNAME":"安南區","LI":"梅花里","LIN":"21鄰","STREET":"同安路","SECT":" ","MAREA":" ","LANE":" ","ALLEY":" ","HOUSE_NO":"２８０號","E_COORD97":167203.32999999999,"N_COORD97":2549174.2000000002,"ADDRESS":"同安路２８０號","OBJECTID":557828},"geometry":{"x":167203.33000000101,"y":2549174.1999999993}},{"attributes":{"ID":557856,"DIS_CODE":0,"TOWNNAME":"安南區","LI":"梅花里","LIN":"21鄰","STREET":"同安路","SECT":" ","MAREA":" ","LANE":" ","ALLEY":" ","HOUSE_NO":"２８２號","E_COORD97":167205.67999999999,"N_COORD97":2549177.7200000002,"ADDRESS":"同安路２８２號","OBJECTID":557829},"geometry":{"x":167205.6799999997,"y":2549177.7200000025}},{"attributes":{"ID":557857,"DIS_CODE":0,"TOWNNAME":"安南區","LI":"梅花里","LIN":"21鄰","STREET":"同安路","SECT":" ","MAREA":" ","LANE":" ","ALLEY":" ","HOUSE_NO":"２８４號","E_COORD97":167208.22,"N_COORD97":2549180.6499999999,"ADDRESS":"同安路２８４號","OBJECTID":557830},"geometry":{"x":167208.22000000067,"y":2549180.6500000041}},{"attributes":{"ID":557858,"DIS_CODE":0,"TOWNNAME":"安南區","LI":"梅花里","LIN":"21鄰","STREET":"同安路","SECT":" ","MAREA":" ","LANE":" ","ALLEY":" ","HOUSE_NO":"２８６號","E_COORD97":167210.17999999999,"N_COORD97":2549184.5699999998,"ADDRESS":"同安路２８６號","OBJECTID":557831},"geometry":{"x":167210.18000000063,"y":2549184.5700000022}},{"attributes":{"ID":557859,"DIS_CODE":0,"TOWNNAME":"安南區","LI":"梅花里","LIN":"21鄰","STREET":"同安路","SECT":" ","MAREA":" ","LANE":" ","ALLEY":" ","HOUSE_NO":"２８８號","E_COORD97":167212.14000000001,"N_COORD97":2549188.29,"ADDRESS":"同安路２８８號","OBJECTID":557832},"geometry":{"x":167212.1400000006,"y":2549188.2900000028}},{"attributes":{"ID":557860,"DIS_CODE":0,"TOWNNAME":"安南區","LI":"梅花里","LIN":"21鄰","STREET":"同安路","SECT":" ","MAREA":" ","LANE":" ","ALLEY":" ","HOUSE_NO":"２９０號","E_COORD97":167216.84,"N_COORD97":2549191.25,"ADDRESS":"同安路２９０號","OBJECTID":557833},"geometry":{"x":167216.83999999985,"y":2549191.25}},{"attributes":{"ID":557861,"DIS_CODE":0,"TOWNNAME":"安南區","LI":"鳳凰里","LIN":"21鄰","STREET":"安中路","SECT":"一段","MAREA":" ","LANE":" ","ALLEY":" ","HOUSE_NO":"９０２號之１","E_COORD97":167339.33883299999,"N_COORD97":2549436.6212200001,"ADDRESS":"安中路一段９０２號之１","OBJECTID":557834},"geometry":{"x":167339.33883299958,"y":2549436.621220002}},{"attributes":{"ID":557862,"DIS_CODE":0,"TOWNNAME":"安南區","LI":"州北里","LIN":"21鄰","STREET":"安和路","SECT":"五段","MAREA":" ","LANE":" ","ALLEY":" ","HOUSE_NO":"３５７號","E_COORD97":169636.29000000001,"N_COORD97":2552232.5499999998,"ADDRESS":"安和路五段３５７號","OBJECTID":557835},"geometry":{"x":169636.29000000004,"y":2552232.5499999989}},{"attributes":{"ID":557863,"DIS_CODE":0,"TOWNNAME":"安南區","LI":"鳳凰里","LIN":"21鄰","STREET":"安中路","SECT":"一段","MAREA":" ","LANE":" ","ALLEY":" ","HOUSE_NO":"９２２號","E_COORD97":167308.214076,"N_COORD97":2549455.2478800002,"ADDRESS":"安中路一段９２２號","OBJECTID":557836},"geometry":{"x":167308.2140760012,"y":2549455.2478769999}},{"attributes":{"ID":557864,"DIS_CODE":0,"TOWNNAME":"安南區","LI":"鳳凰里","LIN":"21鄰","STREET":"安中路","SECT":"一段","MAREA":" ","LANE":" ","ALLEY":" ","HOUSE_NO":"９２０號","E_COORD97":167312.02527099999,"N_COORD97":2549453.9778800001,"ADDRESS":"安中路一段９２０號","OBJECTID":557837},"geometry":{"x":167312.02527100127,"y":2549453.9778770003}},{"attributes":{"ID":557865,"DIS_CODE":0,"TOWNNAME":"安南區","LI":"鳳凰里","LIN":"21鄰","STREET":"安中路","SECT":"一段","MAREA":" ","LANE":" ","ALLEY":" ","HOUSE_NO":"９１２號","E_COORD97":167322.40018999999,"N_COORD97":2549447.2045499999,"ADDRESS":"安中路一段９１２號","OBJECTID":557838},"geometry":{"x":167322.40019000042,"y":2549447.2045480013}},{"attributes":{"ID":557866,"DIS_CODE":0,"TOWNNAME":"安南區","LI":"鳳凰里","LIN":"21鄰","STREET":"安中路","SECT":"一段","MAREA":" ","LANE":" ","ALLEY":" ","HOUSE_NO":"９１８號","E_COORD97":167314.98953300001,"N_COORD97":2549451.01455,"ADDRESS":"安中路一段９１８號","OBJECTID":557839},"geometry":{"x":167314.98953299969,"y":2549451.0145460013}},{"attributes":{"ID":557867,"DIS_CODE":0,"TOWNNAME":"安南區","LI":"鳳凰里","LIN":"21鄰","STREET":"安中路","SECT":"一段","MAREA":" ","LANE":" ","ALLEY":" ","HOUSE_NO":"９１０號","E_COORD97":167326.211385,"N_COORD97":2549445.08788,"ADDRESS":"安中路一段９１０號","OBJECTID":557840},"geometry":{"x":167326.2113850005,"y":2549445.087882001}},{"attributes":{"ID":557868,"DIS_CODE":0,"TOWNNAME":"善化區","LI":"光文里","LIN":"21鄰","STREET":"和平路","SECT":" ","MAREA":" ","LANE":" ","ALLEY":" ","HOUSE_NO":"１７９號","E_COORD97":178093.70999999999,"N_COORD97":2559060.5,"ADDRESS":"和平路１７９號","OBJECTID":557841},"geometry":{"x":178093.71000000089,"y":2559060.5000000037}},{"attributes":{"ID":557869,"DIS_CODE":0,"TOWNNAME":"善化區","LI":"胡厝里","LIN":"21鄰","STREET":"南科北路","SECT":" ","MAREA":" ","LANE":" ","ALLEY":" ","HOUSE_NO":"４７號","E_COORD97":175538.98999999999,"N_COORD97":2558677.75,"ADDRESS":"南科北路４７號","OBJECTID":557842},"geometry":{"x":175538.99000000115,"y":2558677.75}},{"attributes":{"ID":557870,"DIS_CODE":0,"TOWNNAME":"善化區","LI":"胡厝里","LIN":"21鄰","STREET":"興農路","SECT":" ","MAREA":" ","LANE":" ","ALLEY":" ","HOUSE_NO":"５７３號","E_COORD97":174730.57000000001,"N_COORD97":2558754.5099999998,"ADDRESS":"興農路５７３號","OBJECTID":557843},"geometry":{"x":174730.5700000003,"y":2558754.5099999998}},{"attributes":{"ID":557871,"DIS_CODE":0,"TOWNNAME":"善化區","LI":"文昌里","LIN":"21鄰","STREET":"中正路","SECT":" ","MAREA":" ","LANE":" ","ALLEY":" ","HOUSE_NO":"８１號","E_COORD97":177691.70999999999,"N_COORD97":2557676.75,"ADDRESS":"中正路８１號","OBJECTID":557844},"geometry":{"x":177691.71000000089,"y":2557676.7500000019}},{"attributes":{"ID":557872,"DIS_CODE":0,"TOWNNAME":"善化區","LI":"光文里","LIN":"21鄰","STREET":"和平路","SECT":" ","MAREA":" ","LANE":" ","ALLEY":" ","HOUSE_NO":"１６３號","E_COORD97":178099.88,"N_COORD97":2559019.5,"ADDRESS":"和平路１６３號","OBJECTID":557845},"geometry":{"x":178099.87999999989,"y":2559019.5}},{"attributes":{"ID":557873,"DIS_CODE":0,"TOWNNAME":"善化區","LI":"胡厝里","LIN":"21鄰","STREET":"興農路","SECT":" ","MAREA":" ","LANE":" ","ALLEY":" ","HOUSE_NO":"４３６號","E_COORD97":175326.94,"N_COORD97":2558976.5099999998,"ADDRESS":"興農路４３６號","OBJECTID":557846},"geometry":{"x":175326.94000000041,"y":2558976.5100000016}},{"attributes":{"ID":557874,"DIS_CODE":0,"TOWNNAME":"善化區","LI":"胡厝里","LIN":"21鄰","STREET":"興農路","SECT":" ","MAREA":" ","LANE":" ","ALLEY":" ","HOUSE_NO":"４５７號","E_COORD97":175173.45000000001,"N_COORD97":2558867.0099999998,"ADDRESS":"興農路４５７號","OBJECTID":557847},"geometry":{"x":175173.45000000019,"y":2558867.0100000035}},{"attributes":{"ID":557875,"DIS_CODE":0,"TOWNNAME":"善化區","LI":"文昌里","LIN":"21鄰","STREET":"中正路","SECT":" ","MAREA":" ","LANE":" ","ALLEY":" ","HOUSE_NO":"２１３號","E_COORD97":177696.29999999999,"N_COORD97":2558174.25,"ADDRESS":"中正路２１３號","OBJECTID":557848},"geometry":{"x":177696.30000000075,"y":2558174.2500000037}},{"attributes":{"ID":557876,"DIS_CODE":0,"TOWNNAME":"善化區","LI":"胡厝里","LIN":"21鄰","STREET":"興農路","SECT":" ","MAREA":" ","LANE":" ","ALLEY":" ","HOUSE_NO":"５７１號","E_COORD97":174737.14999999999,"N_COORD97":2558755.7599999998,"ADDRESS":"興農路５７１號","OBJECTID":557849},"geometry":{"x":174737.15000000037,"y":2558755.7599999998}},{"attributes":{"ID":557877,"DIS_CODE":0,"TOWNNAME":"善化區","LI":"胡厝里","LIN":"21鄰","STREET":"興農路","SECT":" ","MAREA":" ","LANE":" ","ALLEY":" ","HOUSE_NO":"３７６號","E_COORD97":175430.32000000001,"N_COORD97":2559010.5099999998,"ADDRESS":"興農路３７６號","OBJECTID":557850},"geometry":{"x":175430.32000000123,"y":2559010.5100000016}},{"attributes":{"ID":557878,"DIS_CODE":0,"TOWNNAME":"善化區","LI":"小新里","LIN":"21鄰","STREET":"成功路","SECT":" ","MAREA":" ","LANE":" ","ALLEY":" ","HOUSE_NO":"１之１８號","E_COORD97":180617.23999999999,"N_COORD97":2558392.27,"ADDRESS":"成功路１之１８號","OBJECTID":557851},"geometry":{"x":180617.24000000209,"y":2558392.2699999996}},{"attributes":{"ID":557879,"DIS_CODE":0,"TOWNNAME":"善化區","LI":"文昌里","LIN":"21鄰","STREET":"中正路","SECT":" ","MAREA":" ","LANE":" ","ALLEY":" ","HOUSE_NO":"５６號","E_COORD97":177784.10999999999,"N_COORD97":2557733.75,"ADDRESS":"中正路５６號","OBJECTID":557852},"geometry":{"x":177784.11000000127,"y":2557733.7500000019}},{"attributes":{"ID":557880,"DIS_CODE":0,"TOWNNAME":"善化區","LI":"文昌里","LIN":"21鄰","STREET":"中正路","SECT":" ","MAREA":" ","LANE":" ","ALLEY":" ","HOUSE_NO":"１１８號","E_COORD97":177740.89999999999,"N_COORD97":2558015.5,"ADDRESS":"中正路１１８號","OBJECTID":557853},"geometry":{"x":177740.90000000037,"y":2558015.5}},{"attributes":{"ID":557881,"DIS_CODE":0,"TOWNNAME":"善化區","LI":"文昌里","LIN":"21鄰","STREET":"中正路","SECT":" ","MAREA":" ","LANE":" ","ALLEY":" ","HOUSE_NO":"８９號之１","E_COORD97":177692.97,"N_COORD97":2557739.27,"ADDRESS":"中正路８９號之１","OBJECTID":557854},"geometry":{"x":177692.97000000067,"y":2557739.2699999977}},{"attributes":{"ID":557882,"DIS_CODE":0,"TOWNNAME":"善化區","LI":"文昌里","LIN":"21鄰","STREET":"中正路","SECT":" ","MAREA":" ","LANE":" ","ALLEY":" ","HOUSE_NO":"２１１號","E_COORD97":177695.70000000001,"N_COORD97":2558169.25,"ADDRESS":"中正路２１１號","OBJECTID":557855},"geometry":{"x":177695.70000000112,"y":2558169.25}},{"attributes":{"ID":557883,"DIS_CODE":0,"TOWNNAME":"仁德區","LI":"土庫里","LIN":"21鄰","STREET":"太子二街","SECT":" ","MAREA":" ","LANE":" ","ALLEY":" ","HOUSE_NO":"８４號","E_COORD97":174342.5,"N_COORD97":2543296.75,"ADDRESS":"太子二街８４號","OBJECTID":557856},"geometry":{"x":174342.5,"y":2543296.7499999981}},{"attributes":{"ID":557884,"DIS_CODE":0,"TOWNNAME":"仁德區","LI":"土庫里","LIN":"21鄰","STREET":"太子二街","SECT":" ","MAREA":" ","LANE":" ","ALLEY":" ","HOUSE_NO":"１０２號","E_COORD97":174413.45999999999,"N_COORD97":2543306.5099999998,"ADDRESS":"太子二街１０２號","OBJECTID":557857},"geometry":{"x":174413.46000000089,"y":2543306.5100000016}},{"attributes":{"ID":557885,"DIS_CODE":0,"TOWNNAME":"仁德區","LI":"土庫里","LIN":"21鄰","STREET":"太子二街","SECT":" ","MAREA":" ","LANE":" ","ALLEY":" ","HOUSE_NO":"９８號","E_COORD97":174405.67000000001,"N_COORD97":2543306.2599999998,"ADDRESS":"太子二街９８號","OBJECTID":557858},"geometry":{"x":174405.66999999993,"y":2543306.2599999998}},{"attributes":{"ID":557886,"DIS_CODE":0,"TOWNNAME":"仁德區","LI":"土庫里","LIN":"21鄰","STREET":"太子二街","SECT":" ","MAREA":" ","LANE":" ","ALLEY":" ","HOUSE_NO":"９６號","E_COORD97":174386.20999999999,"N_COORD97":2543304.5099999998,"ADDRESS":"太子二街９６號","OBJECTID":557859},"geometry":{"x":174386.21000000089,"y":2543304.5099999998}},{"attributes":{"ID":557887,"DIS_CODE":0,"TOWNNAME":"仁德區","LI":"土庫里","LIN":"21鄰","STREET":"太子二街","SECT":" ","MAREA":" ","LANE":" ","ALLEY":" ","HOUSE_NO":"９２號","E_COORD97":174386.20999999999,"N_COORD97":2543304.5099999998,"ADDRESS":"太子二街９２號","OBJECTID":557860},"geometry":{"x":174386.21000000089,"y":2543304.5099999998}},{"attributes":{"ID":557888,"DIS_CODE":0,"TOWNNAME":"仁德區","LI":"土庫里","LIN":"21鄰","STREET":"太子二街","SECT":" ","MAREA":" ","LANE":" ","ALLEY":" ","HOUSE_NO":"１１８號","E_COORD97":174466.76000000001,"N_COORD97":2543304.2599999998,"ADDRESS":"太子二街１１８號","OBJECTID":557861},"geometry":{"x":174466.76000000071,"y":2543304.2600000016}},{"attributes":{"ID":557889,"DIS_CODE":0,"TOWNNAME":"仁德區","LI":"大甲里","LIN":"21鄰","STREET":"行大街","SECT":" ","MAREA":" ","LANE":" ","ALLEY":" ","HOUSE_NO":"４２０號","E_COORD97":169441.17999999999,"N_COORD97":2535294.4900000002,"ADDRESS":"行大街４２０號","OBJECTID":557862},"geometry":{"x":169441.18000000063,"y":2535294.4900000039}},{"attributes":{"ID":557890,"DIS_CODE":0,"TOWNNAME":"仁德區","LI":"大甲里","LIN":"21鄰","STREET":"行大街","SECT":" ","MAREA":" ","LANE":" ","ALLEY":" ","HOUSE_NO":"４０８之６號","E_COORD97":169448.26999999999,"N_COORD97":2535293.79,"ADDRESS":"行大街４０８之６號","OBJECTID":557863},"geometry":{"x":169448.26999999955,"y":2535293.7899999991}},{"attributes":{"ID":557891,"DIS_CODE":0,"TOWNNAME":"中西區","LI":"福安里","LIN":"21鄰","STREET":"西門路","SECT":"二段","MAREA":" ","LANE":" ","ALLEY":" ","HOUSE_NO":"７６號底一層","E_COORD97":167834.31,"N_COORD97":2543639.8900000001,"ADDRESS":"西門路二段７６號底一層","OBJECTID":557864},"geometry":{"x":167834.30999999866,"y":2543639.8900000025}},{"attributes":{"ID":557892,"DIS_CODE":0,"TOWNNAME":"中西區","LI":"福安里","LIN":"21鄰","STREET":"西門路","SECT":"二段","MAREA":" ","LANE":" ","ALLEY":" ","HOUSE_NO":"８０號","E_COORD97":167837.64000000001,"N_COORD97":2543648.9300000002,"ADDRESS":"西門路二段８０號","OBJECTID":557865},"geometry":{"x":167837.6400000006,"y":2543648.9300000016}},{"attributes":{"ID":557893,"DIS_CODE":0,"TOWNNAME":"中西區","LI":"福安里","LIN":"21鄰","STREET":"西門路","SECT":"二段","MAREA":" ","LANE":" ","ALLEY":" ","HOUSE_NO":"８２號","E_COORD97":167838.29999999999,"N_COORD97":2543652.6400000001,"ADDRESS":"西門路二段８２號","OBJECTID":557866},"geometry":{"x":167838.30000000075,"y":2543652.6400000025}},{"attributes":{"ID":557894,"DIS_CODE":0,"TOWNNAME":"中西區","LI":"福安里","LIN":"21鄰","STREET":"西門路","SECT":"二段","MAREA":" ","LANE":" ","ALLEY":" ","HOUSE_NO":"８４號","E_COORD97":167840.03,"N_COORD97":2543658.2200000002,"ADDRESS":"西門路二段８４號","OBJECTID":557867},"geometry":{"x":167840.03000000026,"y":2543658.2200000025}},{"attributes":{"ID":557895,"DIS_CODE":0,"TOWNNAME":"中西區","LI":"福安里","LIN":"21鄰","STREET":"西門路","SECT":"二段","MAREA":" ","LANE":" ","ALLEY":" ","HOUSE_NO":"８６號","E_COORD97":167854.26000000001,"N_COORD97":2543661.0099999998,"ADDRESS":"西門路二段８６號","OBJECTID":557868},"geometry":{"x":167854.26000000071,"y":2543661.0099999979}},{"attributes":{"ID":557896,"DIS_CODE":0,"TOWNNAME":"中西區","LI":"福安里","LIN":"21鄰","STREET":"西門路","SECT":"二段","MAREA":" ","LANE":" ","ALLEY":" ","HOUSE_NO":"８８號","E_COORD97":167844.01000000001,"N_COORD97":2543669.1400000001,"ADDRESS":"西門路二段８８號","OBJECTID":557869},"geometry":{"x":167844.01000000071,"y":2543669.1400000025}},{"attributes":{"ID":557897,"DIS_CODE":0,"TOWNNAME":"中西區","LI":"福安里","LIN":"21鄰","STREET":"西門路","SECT":"二段","MAREA":" ","LANE":" ","ALLEY":" ","HOUSE_NO":"９０號","E_COORD97":167844.81,"N_COORD97":2543672.9900000002,"ADDRESS":"西門路二段９０號","OBJECTID":557870},"geometry":{"x":167844.81000000052,"y":2543672.9900000021}},{"attributes":{"ID":557898,"DIS_CODE":0,"TOWNNAME":"中西區","LI":"福安里","LIN":"21鄰","STREET":"西門路","SECT":"二段","MAREA":" ","LANE":" ","ALLEY":" ","HOUSE_NO":"９２號","E_COORD97":167845.47,"N_COORD97":2543676.4500000002,"ADDRESS":"西門路二段９２號","OBJECTID":557871},"geometry":{"x":167845.4700000016,"y":2543676.4499999993}},{"attributes":{"ID":557899,"DIS_CODE":0,"TOWNNAME":"中西區","LI":"福安里","LIN":"21鄰","STREET":"西門路","SECT":"二段","MAREA":" ","LANE":" ","ALLEY":" ","HOUSE_NO":"９４號","E_COORD97":167846.79999999999,"N_COORD97":2543679.77,"ADDRESS":"西門路二段９４號","OBJECTID":557872},"geometry":{"x":167846.80000000075,"y":2543679.7700000033}},{"attributes":{"ID":557900,"DIS_CODE":0,"TOWNNAME":"中西區","LI":"福安里","LIN":"21鄰","STREET":"友愛街","SECT":" ","MAREA":" ","LANE":" ","ALLEY":" ","HOUSE_NO":"１１０號","E_COORD97":167876.19,"N_COORD97":2543598.3300000001,"ADDRESS":"友愛街１１０號","OBJECTID":557873},"geometry":{"x":167876.19000000041,"y":2543598.3300000038}},{"attributes":{"ID":557901,"DIS_CODE":0,"TOWNNAME":"中西區","LI":"福安里","LIN":"21鄰","STREET":"友愛街","SECT":" ","MAREA":" ","LANE":" ","ALLEY":" ","HOUSE_NO":"１１２號","E_COORD97":167875,"N_COORD97":2543584.8500000001,"ADDRESS":"友愛街１１２號","OBJECTID":557874},"geometry":{"x":167875.00000000093,"y":2543584.8500000015}},{"attributes":{"ID":557902,"DIS_CODE":0,"TOWNNAME":"東區","LI":"關聖里","LIN":"21鄰","STREET":"裕英街","SECT":" ","MAREA":" ","LANE":" ","ALLEY":" ","HOUSE_NO":"２６１號","E_COORD97":172857.62,"N_COORD97":2543025.7000000002,"ADDRESS":"裕英街２６１號","OBJECTID":557875},"geometry":{"x":172857.62000000104,"y":2543025.7000000011}},{"attributes":{"ID":557903,"DIS_CODE":0,"TOWNNAME":"東區","LI":"關聖里","LIN":"21鄰","STREET":"裕和五街","SECT":" ","MAREA":" ","LANE":" ","ALLEY":" ","HOUSE_NO":"８１號","E_COORD97":172830.91,"N_COORD97":2543104.5499999998,"ADDRESS":"裕和五街８１號","OBJECTID":557876},"geometry":{"x":172830.91000000108,"y":2543104.5500000007}},{"attributes":{"ID":557904,"DIS_CODE":0,"TOWNNAME":"東區","LI":"關聖里","LIN":"21鄰","STREET":"裕和路","SECT":" ","MAREA":" ","LANE":" ","ALLEY":" ","HOUSE_NO":"３６６號","E_COORD97":172743.09,"N_COORD97":2543116.1499999999,"ADDRESS":"裕和路３６６號","OBJECTID":557877},"geometry":{"x":172743.08999999985,"y":2543116.1500000022}},{"attributes":{"ID":557905,"DIS_CODE":0,"TOWNNAME":"東區","LI":"關聖里","LIN":"21鄰","STREET":"裕和路","SECT":" ","MAREA":" ","LANE":" ","ALLEY":" ","HOUSE_NO":"３６８號","E_COORD97":172752.91,"N_COORD97":2543115.1699999999,"ADDRESS":"裕和路３６８號","OBJECTID":557878},"geometry":{"x":172752.91000000108,"y":2543115.1700000018}},{"attributes":{"ID":557906,"DIS_CODE":0,"TOWNNAME":"東區","LI":"關聖里","LIN":"21鄰","STREET":"裕義路","SECT":" ","MAREA":" ","LANE":" ","ALLEY":" ","HOUSE_NO":"１３０號","E_COORD97":172864.25,"N_COORD97":2543109.9300000002,"ADDRESS":"裕義路１３０號","OBJECTID":557879},"geometry":{"x":172864.25,"y":2543109.9300000016}},{"attributes":{"ID":557907,"DIS_CODE":0,"TOWNNAME":"東區","LI":"關聖里","LIN":"21鄰","STREET":"裕善街","SECT":" ","MAREA":" ","LANE":" ","ALLEY":" ","HOUSE_NO":"１７號","E_COORD97":172724.22,"N_COORD97":2543085.21,"ADDRESS":"裕善街１７號","OBJECTID":557880},"geometry":{"x":172724.2200000016,"y":2543085.2100000028}},{"attributes":{"ID":557908,"DIS_CODE":0,"TOWNNAME":"東區","LI":"關聖里","LIN":"21鄰","STREET":"裕善街","SECT":" ","MAREA":" ","LANE":" ","ALLEY":" ","HOUSE_NO":"１９號","E_COORD97":172730.66,"N_COORD97":2543084.7999999998,"ADDRESS":"裕善街１９號","OBJECTID":557881},"geometry":{"x":172730.66000000108,"y":2543084.8000000026}},{"attributes":{"ID":557909,"DIS_CODE":0,"TOWNNAME":"東區","LI":"關聖里","LIN":"21鄰","STREET":"裕英街","SECT":" ","MAREA":" ","LANE":" ","ALLEY":" ","HOUSE_NO":"１８３號","E_COORD97":172648.85999999999,"N_COORD97":2543025.0800000001,"ADDRESS":"裕英街１８３號","OBJECTID":557882},"geometry":{"x":172648.86000000034,"y":2543025.0800000019}},{"attributes":{"ID":557910,"DIS_CODE":0,"TOWNNAME":"東區","LI":"龍山里","LIN":"21鄰","STREET":"富德街","SECT":" ","MAREA":" ","LANE":" ","ALLEY":" ","HOUSE_NO":"３６號","E_COORD97":170460.20999999999,"N_COORD97":2542775.3999999999,"ADDRESS":"富德街３６號","OBJECTID":557883},"geometry":{"x":170460.21000000089,"y":2542775.4000000022}},{"attributes":{"ID":557911,"DIS_CODE":0,"TOWNNAME":"東區","LI":"龍山里","LIN":"21鄰","STREET":"富德街","SECT":" ","MAREA":" ","LANE":" ","ALLEY":" ","HOUSE_NO":"３８號","E_COORD97":170456.48000000001,"N_COORD97":2542777.1400000001,"ADDRESS":"富德街３８號","OBJECTID":557884},"geometry":{"x":170456.48000000045,"y":2542777.1400000025}},{"attributes":{"ID":557912,"DIS_CODE":0,"TOWNNAME":"官田區","LI":"隆本里","LIN":"21鄰","STREET":"忠孝街","SECT":" ","MAREA":" ","LANE":" ","ALLEY":" ","HOUSE_NO":"３０號","E_COORD97":180070.81,"N_COORD97":2566151.04,"ADDRESS":"忠孝街３０號","OBJECTID":557885},"geometry":{"x":180070.81000000052,"y":2566151.0399999991}},{"attributes":{"ID":557913,"DIS_CODE":0,"TOWNNAME":"官田區","LI":"隆本里","LIN":"21鄰","STREET":"忠孝街","SECT":" ","MAREA":" ","LANE":" ","ALLEY":" ","HOUSE_NO":"３２號","E_COORD97":180070.39999999999,"N_COORD97":2566155.3300000001,"ADDRESS":"忠孝街３２號","OBJECTID":557886},"geometry":{"x":180070.39999999944,"y":2566155.3300000019}},{"attributes":{"ID":557914,"DIS_CODE":0,"TOWNNAME":"永康區","LI":"西勢里","LIN":"21鄰","STREET":"富強路","SECT":"一段","MAREA":" ","LANE":" ","ALLEY":" ","HOUSE_NO":"３３號","E_COORD97":175404.64999999999,"N_COORD97":2546074.02,"ADDRESS":"富強路一段３３號","OBJECTID":557887},"geometry":{"x":175404.65000000037,"y":2546074.0199999996}},{"attributes":{"ID":557915,"DIS_CODE":0,"TOWNNAME":"官田區","LI":"隆本里","LIN":"21鄰","STREET":"忠孝街","SECT":" ","MAREA":" ","LANE":" ","ALLEY":" ","HOUSE_NO":"３６號","E_COORD97":180070.01000000001,"N_COORD97":2566162.6499999999,"ADDRESS":"忠孝街３６號","OBJECTID":557888},"geometry":{"x":180070.00999999978,"y":2566162.6499999985}},{"attributes":{"ID":557916,"DIS_CODE":0,"TOWNNAME":"官田區","LI":"隆本里","LIN":"21鄰","STREET":"忠孝街","SECT":" ","MAREA":" ","LANE":" ","ALLEY":" ","HOUSE_NO":"３號","E_COORD97":180063.45999999999,"N_COORD97":2566082.71,"ADDRESS":"忠孝街３號","OBJECTID":557889},"geometry":{"x":180063.46000000089,"y":2566082.7100000028}},{"attributes":{"ID":557917,"DIS_CODE":0,"TOWNNAME":"東區","LI":"崇誨里","LIN":"21鄰","STREET":"東寧路","SECT":" ","MAREA":" ","LANE":" ","ALLEY":" ","HOUSE_NO":"３０２號","E_COORD97":170750.48000000001,"N_COORD97":2543404.5499999998,"ADDRESS":"東寧路３０２號","OBJECTID":557890},"geometry":{"x":170750.48000000138,"y":2543404.5500000026}},{"attributes":{"ID":557918,"DIS_CODE":0,"TOWNNAME":"東區","LI":"崇誨里","LIN":"21鄰","STREET":"東寧路","SECT":" ","MAREA":" ","LANE":" ","ALLEY":" ","HOUSE_NO":"３０４號","E_COORD97":170753.98000000001,"N_COORD97":2543402.8700000001,"ADDRESS":"東寧路３０４號","OBJECTID":557891},"geometry":{"x":170753.98000000138,"y":2543402.8700000029}},{"attributes":{"ID":557919,"DIS_CODE":0,"TOWNNAME":"東區","LI":"崇誨里","LIN":"21鄰","STREET":"東寧路","SECT":" ","MAREA":" ","LANE":" ","ALLEY":" ","HOUSE_NO":"３０６號","E_COORD97":170757.60999999999,"N_COORD97":2543401.1899999999,"ADDRESS":"東寧路３０６號","OBJECTID":557892},"geometry":{"x":170757.61000000127,"y":2543401.1899999995}},{"attributes":{"ID":557920,"DIS_CODE":0,"TOWNNAME":"東區","LI":"崇誨里","LIN":"21鄰","STREET":"東寧路","SECT":" ","MAREA":" ","LANE":" ","ALLEY":" ","HOUSE_NO":"３０８號","E_COORD97":170761.62,"N_COORD97":2543400.1499999999,"ADDRESS":"東寧路３０８號","OBJECTID":557893},"geometry":{"x":170761.62000000011,"y":2543400.1500000022}},{"attributes":{"ID":557921,"DIS_CODE":0,"TOWNNAME":"東區","LI":"崇誨里","LIN":"21鄰","STREET":"東寧路","SECT":" ","MAREA":" ","LANE":" ","ALLEY":" ","HOUSE_NO":"３１０號","E_COORD97":170765.51000000001,"N_COORD97":2543398.73,"ADDRESS":"東寧路３１０號","OBJECTID":557894},"geometry":{"x":170765.50999999978,"y":2543398.7300000004}},{"attributes":{"ID":557922,"DIS_CODE":0,"TOWNNAME":"東區","LI":"崇誨里","LIN":"21鄰","STREET":"東寧路","SECT":" ","MAREA":" ","LANE":" ","ALLEY":" ","HOUSE_NO":"３１２號","E_COORD97":170769.39999999999,"N_COORD97":2543397.5600000001,"ADDRESS":"東寧路３１２號","OBJECTID":557895},"geometry":{"x":170769.4000000013,"y":2543397.5600000024}},{"attributes":{"ID":557923,"DIS_CODE":0,"TOWNNAME":"東區","LI":"崇誨里","LIN":"21鄰","STREET":"東寧路","SECT":" ","MAREA":" ","LANE":" ","ALLEY":" ","HOUSE_NO":"３１６號","E_COORD97":170776.78,"N_COORD97":2543395.23,"ADDRESS":"東寧路３１６號","OBJECTID":557896},"geometry":{"x":170776.78000000119,"y":2543395.2300000004}},{"attributes":{"ID":557924,"DIS_CODE":0,"TOWNNAME":"東區","LI":"崇誨里","LIN":"21鄰","STREET":"東寧路","SECT":" ","MAREA":" ","LANE":" ","ALLEY":" ","HOUSE_NO":"３２０號","E_COORD97":170784.29999999999,"N_COORD97":2543392.6400000001,"ADDRESS":"東寧路３２０號","OBJECTID":557897},"geometry":{"x":170784.29999999888,"y":2543392.6400000006}},{"attributes":{"ID":557925,"DIS_CODE":0,"TOWNNAME":"東區","LI":"崇誨里","LIN":"21鄰","STREET":"東寧路","SECT":" ","MAREA":" ","LANE":" ","ALLEY":" ","HOUSE_NO":"３２２號","E_COORD97":170788.17999999999,"N_COORD97":2543390.96,"ADDRESS":"東寧路３２２號","OBJECTID":557898},"geometry":{"x":170788.1799999997,"y":2543390.9600000009}},{"attributes":{"ID":557926,"DIS_CODE":0,"TOWNNAME":"東區","LI":"崇誨里","LIN":"21鄰","STREET":"東寧路","SECT":" ","MAREA":" ","LANE":" ","ALLEY":" ","HOUSE_NO":"３２８號","E_COORD97":170799.51999999999,"N_COORD97":2543386.6200000001,"ADDRESS":"東寧路３２８號","OBJECTID":557899},"geometry":{"x":170799.52000000142,"y":2543386.620000001}},{"attributes":{"ID":557927,"DIS_CODE":0,"TOWNNAME":"東區","LI":"崇誨里","LIN":"21鄰","STREET":"東寧路","SECT":" ","MAREA":" ","LANE":" ","ALLEY":" ","HOUSE_NO":"３３０號","E_COORD97":170803.26999999999,"N_COORD97":2543385.5899999999,"ADDRESS":"東寧路３３０號","OBJECTID":557900},"geometry":{"x":170803.27000000048,"y":2543385.5899999999}},{"attributes":{"ID":557928,"DIS_CODE":0,"TOWNNAME":"東區","LI":"崇誨里","LIN":"21鄰","STREET":"東寧路","SECT":" ","MAREA":" ","LANE":" ","ALLEY":" ","HOUSE_NO":"３３２號","E_COORD97":170807.03,"N_COORD97":2543384.4199999999,"ADDRESS":"東寧路３３２號","OBJECTID":557901},"geometry":{"x":170807.03000000212,"y":2543384.4200000018}},{"attributes":{"ID":557929,"DIS_CODE":0,"TOWNNAME":"東區","LI":"崇誨里","LIN":"21鄰","STREET":"東寧路","SECT":" ","MAREA":" ","LANE":" ","ALLEY":" ","HOUSE_NO":"３３６之１號","E_COORD97":170810.84,"N_COORD97":2543383.4300000002,"ADDRESS":"東寧路３３６之１號","OBJECTID":557902},"geometry":{"x":170810.83999999985,"y":2543383.4299999978}},{"attributes":{"ID":557930,"DIS_CODE":0,"TOWNNAME":"東區","LI":"崇誨里","LIN":"21鄰","STREET":"東寧路","SECT":" ","MAREA":" ","LANE":" ","ALLEY":" ","HOUSE_NO":"３３８號","E_COORD97":170818.42999999999,"N_COORD97":2543380.54,"ADDRESS":"東寧路３３８號","OBJECTID":557903},"geometry":{"x":170818.4299999997,"y":2543380.540000001}},{"attributes":{"ID":557931,"DIS_CODE":0,"TOWNNAME":"東區","LI":"崇誨里","LIN":"21鄰","STREET":"東寧路","SECT":" ","MAREA":" ","LANE":" ","ALLEY":" ","HOUSE_NO":"３４０號","E_COORD97":170822.32000000001,"N_COORD97":2543379.3799999999,"ADDRESS":"東寧路３４０號","OBJECTID":557904},"geometry":{"x":170822.32000000123,"y":2543379.379999999}},{"attributes":{"ID":557932,"DIS_CODE":0,"TOWNNAME":"永康區","LI":"西勢里","LIN":"21鄰","STREET":"富強路","SECT":"一段","MAREA":" ","LANE":" ","ALLEY":" ","HOUSE_NO":"２０號","E_COORD97":175406.34,"N_COORD97":2546019.8700000001,"ADDRESS":"富強路一段２０號","OBJECTID":557905},"geometry":{"x":175406.33999999985,"y":2546019.8700000048}},{"attributes":{"ID":557933,"DIS_CODE":0,"TOWNNAME":"永康區","LI":"西勢里","LIN":"21鄰","STREET":"富強路","SECT":"一段","MAREA":" ","LANE":" ","ALLEY":" ","HOUSE_NO":"１３３號","E_COORD97":175520.14999999999,"N_COORD97":2546270.52,"ADDRESS":"富強路一段１３３號","OBJECTID":557906},"geometry":{"x":175520.15000000037,"y":2546270.5199999996}},{"attributes":{"ID":557934,"DIS_CODE":0,"TOWNNAME":"永康區","LI":"西勢里","LIN":"21鄰","STREET":"富強路","SECT":"一段","MAREA":" ","LANE":" ","ALLEY":" ","HOUSE_NO":"３２號","E_COORD97":175418.98000000001,"N_COORD97":2546042.1099999999,"ADDRESS":"富強路一段３２號","OBJECTID":557907},"geometry":{"x":175418.98000000138,"y":2546042.1099999994}},{"attributes":{"ID":557935,"DIS_CODE":0,"TOWNNAME":"永康區","LI":"西勢里","LIN":"21鄰","STREET":"富強路","SECT":"一段","MAREA":" ","LANE":" ","ALLEY":" ","HOUSE_NO":"２４號","E_COORD97":175410.54000000001,"N_COORD97":2546027.1200000001,"ADDRESS":"富強路一段２４號","OBJECTID":557908},"geometry":{"x":175410.54000000004,"y":2546027.120000001}},{"attributes":{"ID":557936,"DIS_CODE":0,"TOWNNAME":"永康區","LI":"西勢里","LIN":"21鄰","STREET":"富強路","SECT":"一段","MAREA":" ","LANE":" ","ALLEY":" ","HOUSE_NO":"１０號","E_COORD97":175395.89999999999,"N_COORD97":2546001.1200000001,"ADDRESS":"富強路一段１０號","OBJECTID":557909},"geometry":{"x":175395.9000000013,"y":2546001.1200000048}},{"attributes":{"ID":557937,"DIS_CODE":0,"TOWNNAME":"永康區","LI":"西勢里","LIN":"21鄰","STREET":"富強路","SECT":"一段","MAREA":" ","LANE":" ","ALLEY":" ","HOUSE_NO":"７６號","E_COORD97":175465.44,"N_COORD97":2546118.2799999998,"ADDRESS":"富強路一段７６號","OBJECTID":557910},"geometry":{"x":175465.44000000041,"y":2546118.2800000012}},{"attributes":{"ID":557938,"DIS_CODE":0,"TOWNNAME":"永康區","LI":"西勢里","LIN":"21鄰","STREET":"富強路","SECT":"一段","MAREA":" ","LANE":" ","ALLEY":" ","HOUSE_NO":"１１號","E_COORD97":175379.66,"N_COORD97":2546023.0600000001,"ADDRESS":"富強路一段１１號","OBJECTID":557911},"geometry":{"x":175379.66000000201,"y":2546023.0600000005}},{"attributes":{"ID":557939,"DIS_CODE":0,"TOWNNAME":"永康區","LI":"西勢里","LIN":"21鄰","STREET":"富強路","SECT":"一段","MAREA":" ","LANE":" ","ALLEY":" ","HOUSE_NO":"５０號","E_COORD97":175443.54999999999,"N_COORD97":2546081.02,"ADDRESS":"富強路一段５０號","OBJECTID":557912},"geometry":{"x":175443.55000000075,"y":2546081.0199999996}},{"attributes":{"ID":557940,"DIS_CODE":0,"TOWNNAME":"官田區","LI":"隆本里","LIN":"21鄰","STREET":"忠孝街","SECT":" ","MAREA":" ","LANE":" ","ALLEY":" ","HOUSE_NO":"２８號","E_COORD97":180071.44,"N_COORD97":2566147.0899999999,"ADDRESS":"忠孝街２８號","OBJECTID":557913},"geometry":{"x":180071.44000000041,"y":2566147.0900000017}},{"attributes":{"ID":557941,"DIS_CODE":0,"TOWNNAME":"官田區","LI":"隆本里","LIN":"21鄰","STREET":"忠孝街","SECT":" ","MAREA":" ","LANE":" ","ALLEY":" ","HOUSE_NO":"２９號","E_COORD97":180047.01999999999,"N_COORD97":2566142.29,"ADDRESS":"忠孝街２９號","OBJECTID":557914},"geometry":{"x":180047.02000000048,"y":2566142.2899999991}},{"attributes":{"ID":557942,"DIS_CODE":0,"TOWNNAME":"新化區","LI":"東榮里","LIN":"21鄰","STREET":"和平街","SECT":" ","MAREA":" ","LANE":" ","ALLEY":" ","HOUSE_NO":"３號","E_COORD97":179403.01999999999,"N_COORD97":2548175.25,"ADDRESS":"和平街３號","OBJECTID":557915},"geometry":{"x":179403.02000000048,"y":2548175.25}},{"attributes":{"ID":557943,"DIS_CODE":0,"TOWNNAME":"新化區","LI":"東榮里","LIN":"21鄰","STREET":"復興路","SECT":" ","MAREA":" ","LANE":" ","ALLEY":" ","HOUSE_NO":"１７６號之１","E_COORD97":179441.42999999999,"N_COORD97":2547975.2799999998,"ADDRESS":"復興路１７６號之１","OBJECTID":557916},"geometry":{"x":179441.43000000063,"y":2547975.2800000012}},{"attributes":{"ID":557944,"DIS_CODE":0,"TOWNNAME":"安南區","LI":"\u25A0南里","LIN":"21鄰","STREET":"環福街","SECT":" ","MAREA":" ","LANE":" ","ALLEY":" ","HOUSE_NO":"２０６號","E_COORD97":170289.97,"N_COORD97":2552644.27,"ADDRESS":"環福街２０６號","OBJECTID":557917},"geometry":{"x":170289.9700000016,"y":2552644.2700000014}},{"attributes":{"ID":557945,"DIS_CODE":0,"TOWNNAME":"安南區","LI":"\u25A0南里","LIN":"21鄰","STREET":"環福街","SECT":" ","MAREA":" ","LANE":" ","ALLEY":" ","HOUSE_NO":"１７６號","E_COORD97":170349.09,"N_COORD97":2552596.0800000001,"ADDRESS":"環福街１７６號","OBJECTID":557918},"geometry":{"x":170349.09000000078,"y":2552596.0800000019}},{"attributes":{"ID":557946,"DIS_CODE":0,"TOWNNAME":"善化區","LI":"文昌里","LIN":"21鄰","STREET":"中正路","SECT":" ","MAREA":" ","LANE":" ","ALLEY":" ","HOUSE_NO":"１７５號","E_COORD97":177689.48000000001,"N_COORD97":2558087,"ADDRESS":"中正路１７５號","OBJECTID":557919},"geometry":{"x":177689.48000000045,"y":2558087}},{"attributes":{"ID":557947,"DIS_CODE":0,"TOWNNAME":"善化區","LI":"光文里","LIN":"21鄰","STREET":"建國路","SECT":" ","MAREA":" ","LANE":" ","ALLEY":" ","HOUSE_NO":"１７６號","E_COORD97":178001.48000000001,"N_COORD97":2559049.5299999998,"ADDRESS":"建國路１７６號","OBJECTID":557920},"geometry":{"x":178001.48000000045,"y":2559049.5300000031}},{"attributes":{"ID":557948,"DIS_CODE":0,"TOWNNAME":"善化區","LI":"文昌里","LIN":"21鄰","STREET":"中正路","SECT":" ","MAREA":" ","LANE":" ","ALLEY":" ","HOUSE_NO":"６８號","E_COORD97":177747.76000000001,"N_COORD97":2557787.5,"ADDRESS":"中正路６８號","OBJECTID":557921},"geometry":{"x":177747.75999999978,"y":2557787.5}},{"attributes":{"ID":557949,"DIS_CODE":0,"TOWNNAME":"善化區","LI":"文昌里","LIN":"21鄰","STREET":"中正路","SECT":" ","MAREA":" ","LANE":" ","ALLEY":" ","HOUSE_NO":"１６０號","E_COORD97":177720.88,"N_COORD97":2558127.5,"ADDRESS":"中正路１６０號","OBJECTID":557922},"geometry":{"x":177720.88000000082,"y":2558127.5}},{"attributes":{"ID":557950,"DIS_CODE":0,"TOWNNAME":"善化區","LI":"文昌里","LIN":"21鄰","STREET":"中正路","SECT":" ","MAREA":" ","LANE":" ","ALLEY":" ","HOUSE_NO":"１７２號","E_COORD97":177723.98999999999,"N_COORD97":2558163.04,"ADDRESS":"中正路１７２號","OBJECTID":557923},"geometry":{"x":177723.99000000115,"y":2558163.0399999991}},{"attributes":{"ID":557951,"DIS_CODE":0,"TOWNNAME":"善化區","LI":"光文里","LIN":"21鄰","STREET":"建國路","SECT":" ","MAREA":" ","LANE":" ","ALLEY":" ","HOUSE_NO":"１７４號","E_COORD97":177985.54000000001,"N_COORD97":2559007.5299999998,"ADDRESS":"建國路１７４號","OBJECTID":557924},"geometry":{"x":177985.54000000004,"y":2559007.5299999993}},{"attributes":{"ID":557952,"DIS_CODE":0,"TOWNNAME":"善化區","LI":"文昌里","LIN":"21鄰","STREET":"中正路","SECT":" ","MAREA":" ","LANE":" ","ALLEY":" ","HOUSE_NO":"１７８號","E_COORD97":177717.75,"N_COORD97":2558178.25,"ADDRESS":"中正路１７８號","OBJECTID":557925},"geometry":{"x":177717.75,"y":2558178.2500000019}},{"attributes":{"ID":557953,"DIS_CODE":0,"TOWNNAME":"善化區","LI":"文昌里","LIN":"21鄰","STREET":"中正路","SECT":" ","MAREA":" ","LANE":" ","ALLEY":" ","HOUSE_NO":"８９號之２","E_COORD97":177683.70000000001,"N_COORD97":2557737.02,"ADDRESS":"中正路８９號之２","OBJECTID":557926},"geometry":{"x":177683.70000000112,"y":2557737.0199999996}},{"attributes":{"ID":557954,"DIS_CODE":0,"TOWNNAME":"善化區","LI":"文昌里","LIN":"21鄰","STREET":"中正路","SECT":" ","MAREA":" ","LANE":" ","ALLEY":" ","HOUSE_NO":"１７６號","E_COORD97":177718.25,"N_COORD97":2558173.75,"ADDRESS":"中正路１７６號","OBJECTID":557927},"geometry":{"x":177718.25000000186,"y":2558173.7499999981}},{"attributes":{"ID":557955,"DIS_CODE":0,"TOWNNAME":"善化區","LI":"光文里","LIN":"21鄰","STREET":"中山路","SECT":" ","MAREA":" ","LANE":" ","ALLEY":" ","HOUSE_NO":"２３９號","E_COORD97":178061.53,"N_COORD97":2559089.5,"ADDRESS":"中山路２３９號","OBJECTID":557928},"geometry":{"x":178061.53000000119,"y":2559089.5}},{"attributes":{"ID":557956,"DIS_CODE":0,"TOWNNAME":"善化區","LI":"光文里","LIN":"21鄰","STREET":"建國路","SECT":" ","MAREA":" ","LANE":" ","ALLEY":" ","HOUSE_NO":"１８２號","E_COORD97":177984.85000000001,"N_COORD97":2559026.0299999998,"ADDRESS":"建國路１８２號","OBJECTID":557929},"geometry":{"x":177984.84999999963,"y":2559026.0300000031}},{"attributes":{"ID":557957,"DIS_CODE":0,"TOWNNAME":"善化區","LI":"光文里","LIN":"21鄰","STREET":"建國路","SECT":" ","MAREA":" ","LANE":" ","ALLEY":" ","HOUSE_NO":"１７８號","E_COORD97":177986.04999999999,"N_COORD97":2559016.0299999998,"ADDRESS":"建國路１７８號","OBJECTID":557930},"geometry":{"x":177986.05000000075,"y":2559016.0300000012}},{"attributes":{"ID":557958,"DIS_CODE":0,"TOWNNAME":"善化區","LI":"文昌里","LIN":"21鄰","STREET":"中正路","SECT":" ","MAREA":" ","LANE":" ","ALLEY":" ","HOUSE_NO":"２１５號之１","E_COORD97":177672.04999999999,"N_COORD97":2558180.52,"ADDRESS":"中正路２１５號之１","OBJECTID":557931},"geometry":{"x":177672.05000000168,"y":2558180.5199999996}},{"attributes":{"ID":557959,"DIS_CODE":0,"TOWNNAME":"善化區","LI":"光文里","LIN":"21鄰","STREET":"中山路","SECT":" ","MAREA":" ","LANE":" ","ALLEY":" ","HOUSE_NO":"２５３號","E_COORD97":178012.17999999999,"N_COORD97":2559080,"ADDRESS":"中山路２５３號","OBJECTID":557932},"geometry":{"x":178012.18000000063,"y":2559080}},{"attributes":{"ID":557960,"DIS_CODE":0,"TOWNNAME":"善化區","LI":"文昌里","LIN":"21鄰","STREET":"中正路","SECT":" ","MAREA":" ","LANE":" ","ALLEY":" ","HOUSE_NO":"２之２號","E_COORD97":177735.97,"N_COORD97":2557577.75,"ADDRESS":"中正路２之２號","OBJECTID":557933},"geometry":{"x":177735.96999999974,"y":2557577.7500000019}},{"attributes":{"ID":557961,"DIS_CODE":0,"TOWNNAME":"善化區","LI":"光文里","LIN":"21鄰","STREET":"民權路","SECT":" ","MAREA":" ","LANE":" ","ALLEY":" ","HOUSE_NO":"２５２號","E_COORD97":178046.92999999999,"N_COORD97":2558991.2599999998,"ADDRESS":"民權路２５２號","OBJECTID":557934},"geometry":{"x":178046.9299999997,"y":2558991.2600000016}},{"attributes":{"ID":557962,"DIS_CODE":0,"TOWNNAME":"善化區","LI":"文昌里","LIN":"21鄰","STREET":"中正路","SECT":" ","MAREA":" ","LANE":" ","ALLEY":" ","HOUSE_NO":"１１１號","E_COORD97":177676.98000000001,"N_COORD97":2557861.75,"ADDRESS":"中正路１１１號","OBJECTID":557935},"geometry":{"x":177676.98000000138,"y":2557861.75}},{"attributes":{"ID":557963,"DIS_CODE":0,"TOWNNAME":"永康區","LI":"西灣里","LIN":"21鄰","STREET":"永大路","SECT":"二段","MAREA":" ","LANE":" ","ALLEY":" ","HOUSE_NO":"２３７號","E_COORD97":174358.45999999999,"N_COORD97":2545387.6899999999,"ADDRESS":"永大路二段２３７號","OBJECTID":557936},"geometry":{"x":174358.45999999903,"y":2545387.6899999995}},{"attributes":{"ID":557964,"DIS_CODE":0,"TOWNNAME":"善化區","LI":"文昌里","LIN":"21鄰","STREET":"中正路","SECT":" ","MAREA":" ","LANE":" ","ALLEY":" ","HOUSE_NO":"８３號（該建物係為農","E_COORD97":177697.62,"N_COORD97":2557703.75,"ADDRESS":"中正路８３號（該建物係為農業設施不得設籍）","OBJECTID":557937},"geometry":{"x":177697.62000000104,"y":2557703.7500000019}},{"attributes":{"ID":557965,"DIS_CODE":0,"TOWNNAME":"善化區","LI":"光文里","LIN":"21鄰","STREET":"中山路","SECT":" ","MAREA":" ","LANE":" ","ALLEY":" ","HOUSE_NO":"２５１號","E_COORD97":178016,"N_COORD97":2559080.75,"ADDRESS":"中山路２５１號","OBJECTID":557938},"geometry":{"x":178016,"y":2559080.7500000019}},{"attributes":{"ID":557966,"DIS_CODE":0,"TOWNNAME":"善化區","LI":"光文里","LIN":"21鄰","STREET":"民權路","SECT":" ","MAREA":" ","LANE":" ","ALLEY":" ","HOUSE_NO":"２５０號","E_COORD97":178051.26999999999,"N_COORD97":2558992.0099999998,"ADDRESS":"民權路２５０號","OBJECTID":557939},"geometry":{"x":178051.26999999955,"y":2558992.0099999998}},{"attributes":{"ID":557967,"DIS_CODE":0,"TOWNNAME":"東區","LI":"龍山里","LIN":"21鄰","STREET":"富德街","SECT":" ","MAREA":" ","LANE":" ","ALLEY":" ","HOUSE_NO":"２６號","E_COORD97":170492.79000000001,"N_COORD97":2542761.21,"ADDRESS":"富德街２６號","OBJECTID":557940},"geometry":{"x":170492.79000000004,"y":2542761.2100000009}},{"attributes":{"ID":557968,"DIS_CODE":0,"TOWNNAME":"東區","LI":"龍山里","LIN":"21鄰","STREET":"富德街","SECT":" ","MAREA":" ","LANE":" ","ALLEY":" ","HOUSE_NO":"２０號","E_COORD97":170502.10999999999,"N_COORD97":2542755.5,"ADDRESS":"富德街２０號","OBJECTID":557941},"geometry":{"x":170502.11000000127,"y":2542755.5}},{"attributes":{"ID":557969,"DIS_CODE":0,"TOWNNAME":"東區","LI":"龍山里","LIN":"21鄰","STREET":"富德街","SECT":" ","MAREA":" ","LANE":" ","ALLEY":" ","HOUSE_NO":"２８號","E_COORD97":170489.19,"N_COORD97":2542762.71,"ADDRESS":"富德街２８號","OBJECTID":557942},"geometry":{"x":170489.19000000227,"y":2542762.7100000046}},{"attributes":{"ID":557970,"DIS_CODE":0,"TOWNNAME":"永康區","LI":"西灣里","LIN":"21鄰","STREET":"國光六街","SECT":" ","MAREA":" ","LANE":" ","ALLEY":" ","HOUSE_NO":"１２號","E_COORD97":174285.42000000001,"N_COORD97":2545265.04,"ADDRESS":"國光六街１２號","OBJECTID":557943},"geometry":{"x":174285.41999999993,"y":2545265.040000001}},{"attributes":{"ID":557971,"DIS_CODE":0,"TOWNNAME":"永康區","LI":"西灣里","LIN":"21鄰","STREET":"永大路","SECT":"二段","MAREA":" ","LANE":" ","ALLEY":" ","HOUSE_NO":"１９９之１號","E_COORD97":174333.63,"N_COORD97":2545302.3599999999,"ADDRESS":"永大路二段１９９之１號","OBJECTID":557944},"geometry":{"x":174333.63000000175,"y":2545302.3599999994}},{"attributes":{"ID":557972,"DIS_CODE":0,"TOWNNAME":"永康區","LI":"網寮里","LIN":"21鄰","STREET":"文化路","SECT":" ","MAREA":" ","LANE":" ","ALLEY":" ","HOUSE_NO":"２３８號","E_COORD97":173595.01999999999,"N_COORD97":2546142.54,"ADDRESS":"文化路２３８號","OBJECTID":557945},"geometry":{"x":173595.02000000142,"y":2546142.540000001}},{"attributes":{"ID":557973,"DIS_CODE":0,"TOWNNAME":"永康區","LI":"西灣里","LIN":"21鄰","STREET":"國光六街","SECT":" ","MAREA":" ","LANE":" ","ALLEY":" ","HOUSE_NO":"３０號","E_COORD97":174243.60000000001,"N_COORD97":2545283.2799999998,"ADDRESS":"國光六街３０號","OBJECTID":557946},"geometry":{"x":174243.5999999987,"y":2545283.2800000012}},{"attributes":{"ID":557974,"DIS_CODE":0,"TOWNNAME":"永康區","LI":"西灣里","LIN":"21鄰","STREET":"永大路","SECT":"二段","MAREA":" ","LANE":" ","ALLEY":" ","HOUSE_NO":"２０７號","E_COORD97":174336.47,"N_COORD97":2545317.4300000002,"ADDRESS":"永大路二段２０７號","OBJECTID":557947},"geometry":{"x":174336.47000000067,"y":2545317.4300000016}},{"attributes":{"ID":557975,"DIS_CODE":0,"TOWNNAME":"麻豆區","LI":"\u25A0江里","LIN":"21鄰","STREET":"信義路","SECT":" ","MAREA":" ","LANE":" ","ALLEY":" ","HOUSE_NO":"３６號之１７","E_COORD97":173572.76999999999,"N_COORD97":2564575.5499999998,"ADDRESS":"信義路３６號之１７","OBJECTID":557948},"geometry":{"x":173572.76999999862,"y":2564575.5500000007}},{"attributes":{"ID":557976,"DIS_CODE":0,"TOWNNAME":"麻豆區","LI":"\u25A0江里","LIN":"21鄰","STREET":"信義路","SECT":" ","MAREA":" ","LANE":" ","ALLEY":" ","HOUSE_NO":"３６號之１８","E_COORD97":173572.94,"N_COORD97":2564571.4399999999,"ADDRESS":"信義路３６號之１８","OBJECTID":557949},"geometry":{"x":173572.94000000134,"y":2564571.4400000013}},{"attributes":{"ID":557977,"DIS_CODE":0,"TOWNNAME":"麻豆區","LI":"\u25A0江里","LIN":"21鄰","STREET":"信義路","SECT":" ","MAREA":" ","LANE":" ","ALLEY":" ","HOUSE_NO":"３６號之１９","E_COORD97":173573.17000000001,"N_COORD97":2564567.3799999999,"ADDRESS":"信義路３６號之１９","OBJECTID":557950},"geometry":{"x":173573.16999999993,"y":2564567.3800000008}},{"attributes":{"ID":557978,"DIS_CODE":0,"TOWNNAME":"麻豆區","LI":"\u25A0江里","LIN":"21鄰","STREET":"信義路","SECT":" ","MAREA":" ","LANE":" ","ALLEY":" ","HOUSE_NO":"３６號之２０","E_COORD97":173573.59,"N_COORD97":2564563.21,"ADDRESS":"信義路３６號之２０","OBJECTID":557951},"geometry":{"x":173573.58999999985,"y":2564563.2100000028}},{"attributes":{"ID":557979,"DIS_CODE":0,"TOWNNAME":"麻豆區","LI":"\u25A0江里","LIN":"21鄰","STREET":"信義路","SECT":" ","MAREA":" ","LANE":" ","ALLEY":" ","HOUSE_NO":"３６號之２１","E_COORD97":173573.81,"N_COORD97":2564559.2200000002,"ADDRESS":"信義路３６號之２１","OBJECTID":557952},"geometry":{"x":173573.80999999959,"y":2564559.2200000044}},{"attributes":{"ID":557980,"DIS_CODE":0,"TOWNNAME":"麻豆區","LI":"\u25A0江里","LIN":"21鄰","STREET":"信義路","SECT":" ","MAREA":" ","LANE":" ","ALLEY":" ","HOUSE_NO":"３６號之２７","E_COORD97":173551.91,"N_COORD97":2564570.4300000002,"ADDRESS":"信義路３６號之２７","OBJECTID":557953},"geometry":{"x":173551.91000000015,"y":2564570.4300000016}},{"attributes":{"ID":557981,"DIS_CODE":0,"TOWNNAME":"麻豆區","LI":"\u25A0江里","LIN":"21鄰","STREET":"信義路","SECT":" ","MAREA":" ","LANE":" ","ALLEY":" ","HOUSE_NO":"３６號之２８","E_COORD97":173551.94,"N_COORD97":2564574.7999999998,"ADDRESS":"信義路３６號之２８","OBJECTID":557954},"geometry":{"x":173551.94000000041,"y":2564574.8000000007}},{"attributes":{"ID":557982,"DIS_CODE":0,"TOWNNAME":"麻豆區","LI":"\u25A0江里","LIN":"21鄰","STREET":"信義路","SECT":" ","MAREA":" ","LANE":" ","ALLEY":" ","HOUSE_NO":"３６號之３","E_COORD97":173628.26999999999,"N_COORD97":2564588.96,"ADDRESS":"信義路３６號之３","OBJECTID":557955},"geometry":{"x":173628.26999999955,"y":2564588.9600000028}},{"attributes":{"ID":557983,"DIS_CODE":0,"TOWNNAME":"麻豆區","LI":"\u25A0江里","LIN":"21鄰","STREET":"信義路","SECT":" ","MAREA":" ","LANE":" ","ALLEY":" ","HOUSE_NO":"３６號之４","E_COORD97":173623.60999999999,"N_COORD97":2564586.9900000002,"ADDRESS":"信義路３６號之４","OBJECTID":557956},"geometry":{"x":173623.61000000034,"y":2564586.9899999984}},{"attributes":{"ID":557984,"DIS_CODE":0,"TOWNNAME":"麻豆區","LI":"\u25A0江里","LIN":"21鄰","STREET":"信義路","SECT":" ","MAREA":" ","LANE":" ","ALLEY":" ","HOUSE_NO":"３６號之５","E_COORD97":173619.09,"N_COORD97":2564585.2000000002,"ADDRESS":"信義路３６號之５","OBJECTID":557957},"geometry":{"x":173619.09000000078,"y":2564585.2000000011}},{"attributes":{"ID":557985,"DIS_CODE":0,"TOWNNAME":"麻豆區","LI":"\u25A0江里","LIN":"21鄰","STREET":"信義路","SECT":" ","MAREA":" ","LANE":" ","ALLEY":" ","HOUSE_NO":"４２號","E_COORD97":173606.70999999999,"N_COORD97":2564608.5699999998,"ADDRESS":"信義路４２號","OBJECTID":557958},"geometry":{"x":173606.71000000089,"y":2564608.5700000022}},{"attributes":{"ID":557986,"DIS_CODE":0,"TOWNNAME":"麻豆區","LI":"\u25A0江里","LIN":"21鄰","STREET":"信義路","SECT":" ","MAREA":" ","LANE":" ","ALLEY":" ","HOUSE_NO":"４６號","E_COORD97":173609.98000000001,"N_COORD97":2564609.1400000001,"ADDRESS":"信義路４６號","OBJECTID":557959},"geometry":{"x":173609.98000000138,"y":2564609.1400000006}},{"attributes":{"ID":557987,"DIS_CODE":0,"TOWNNAME":"永康區","LI":"\u25A0行里","LIN":"21鄰","STREET":"正南五街","SECT":" ","MAREA":" ","LANE":" ","ALLEY":" ","HOUSE_NO":"４０５號","E_COORD97":171622.75,"N_COORD97":2548704.46,"ADDRESS":"正南五街４０５號","OBJECTID":557960},"geometry":{"x":171622.75000000093,"y":2548704.4600000028}},{"attributes":{"ID":557988,"DIS_CODE":0,"TOWNNAME":"永康區","LI":"\u25A0行里","LIN":"21鄰","STREET":"正南五街","SECT":" ","MAREA":" ","LANE":" ","ALLEY":" ","HOUSE_NO":"３６３號","E_COORD97":171714.54000000001,"N_COORD97":2548624.5,"ADDRESS":"正南五街３６３號","OBJECTID":557961},"geometry":{"x":171714.54000000004,"y":2548624.5}},{"attributes":{"ID":557989,"DIS_CODE":0,"TOWNNAME":"永康區","LI":"\u25A0行里","LIN":"21鄰","STREET":"正南五街","SECT":" ","MAREA":" ","LANE":" ","ALLEY":" ","HOUSE_NO":"４６２號","E_COORD97":171664.09,"N_COORD97":2548701.71,"ADDRESS":"正南五街４６２號","OBJECTID":557962},"geometry":{"x":171664.09000000078,"y":2548701.7100000009}},{"attributes":{"ID":557990,"DIS_CODE":0,"TOWNNAME":"永康區","LI":"龍潭里","LIN":"21鄰","STREET":"龍潭街","SECT":" ","MAREA":" ","LANE":" ","ALLEY":" ","HOUSE_NO":"３２２號","E_COORD97":174845.98999999999,"N_COORD97":2548482.96,"ADDRESS":"龍潭街３２２號","OBJECTID":557963},"geometry":{"x":174845.99000000115,"y":2548482.9600000009}},{"attributes":{"ID":557991,"DIS_CODE":0,"TOWNNAME":"永康區","LI":"網寮里","LIN":"21鄰","STREET":"文化路","SECT":" ","MAREA":" ","LANE":" ","ALLEY":" ","HOUSE_NO":"２４８號","E_COORD97":173555.59,"N_COORD97":2546133.77,"ADDRESS":"文化路２４８號","OBJECTID":557964},"geometry":{"x":173555.58999999985,"y":2546133.7699999996}},{"attributes":{"ID":557992,"DIS_CODE":0,"TOWNNAME":"永康區","LI":"龍潭里","LIN":"21鄰","STREET":"龍潭街","SECT":" ","MAREA":" ","LANE":" ","ALLEY":" ","HOUSE_NO":"２８２號","E_COORD97":174991.75,"N_COORD97":2548450.0600000001,"ADDRESS":"龍潭街２８２號","OBJECTID":557965},"geometry":{"x":174991.75,"y":2548450.0600000024}},{"attributes":{"ID":557993,"DIS_CODE":0,"TOWNNAME":"永康區","LI":"網寮里","LIN":"21鄰","STREET":"文化路","SECT":" ","MAREA":" ","LANE":" ","ALLEY":" ","HOUSE_NO":"２８９號","E_COORD97":173495.85000000001,"N_COORD97":2546112.5899999999,"ADDRESS":"文化路２８９號","OBJECTID":557966},"geometry":{"x":173495.84999999963,"y":2546112.5900000017}},{"attributes":{"ID":557994,"DIS_CODE":0,"TOWNNAME":"永康區","LI":"龍潭里","LIN":"21鄰","STREET":"龍潭街","SECT":" ","MAREA":" ","LANE":" ","ALLEY":" ","HOUSE_NO":"２８０號","E_COORD97":174986.13,"N_COORD97":2548442.7200000002,"ADDRESS":"龍潭街２８０號","OBJECTID":557967},"geometry":{"x":174986.12999999989,"y":2548442.7200000025}},{"attributes":{"ID":557995,"DIS_CODE":0,"TOWNNAME":"永康區","LI":"網寮里","LIN":"21鄰","STREET":"文化路","SECT":" ","MAREA":" ","LANE":" ","ALLEY":" ","HOUSE_NO":"２３６號","E_COORD97":173598.82000000001,"N_COORD97":2546143.54,"ADDRESS":"文化路２３６號","OBJECTID":557968},"geometry":{"x":173598.82000000216,"y":2546143.540000001}},{"attributes":{"ID":557996,"DIS_CODE":0,"TOWNNAME":"永康區","LI":"網寮里","LIN":"21鄰","STREET":"文化路","SECT":" ","MAREA":" ","LANE":" ","ALLEY":" ","HOUSE_NO":"２３７號","E_COORD97":173634.26999999999,"N_COORD97":2546136.46,"ADDRESS":"文化路２３７號","OBJECTID":557969},"geometry":{"x":173634.27000000048,"y":2546136.4600000009}},{"attributes":{"ID":557997,"DIS_CODE":0,"TOWNNAME":"仁德區","LI":"上崙里","LIN":"21鄰","STREET":"德崙路","SECT":" ","MAREA":" ","LANE":" ","ALLEY":" ","HOUSE_NO":"２７８號","E_COORD97":173767.73000000001,"N_COORD97":2538156.52,"ADDRESS":"德崙路２７８號","OBJECTID":557970},"geometry":{"x":173767.73000000138,"y":2538156.5200000014}},{"attributes":{"ID":557998,"DIS_CODE":0,"TOWNNAME":"仁德區","LI":"土庫里","LIN":"21鄰","STREET":"太子二街","SECT":" ","MAREA":" ","LANE":" ","ALLEY":" ","HOUSE_NO":"１２２號","E_COORD97":174480.88,"N_COORD97":2543290.25,"ADDRESS":"太子二街１２２號","OBJECTID":557971},"geometry":{"x":174480.87999999989,"y":2543290.2500000037}},{"attributes":{"ID":557999,"DIS_CODE":0,"TOWNNAME":"仁德區","LI":"仁義里","LIN":"21鄰","STREET":"中山路","SECT":" ","MAREA":" ","LANE":" ","ALLEY":" ","HOUSE_NO":"３９０號","E_COORD97":173806.38,"N_COORD97":2541280.7400000002,"ADDRESS":"中山路３９０號","OBJECTID":557972},"geometry":{"x":173806.38000000175,"y":2541280.7400000021}},{"attributes":{"ID":558000,"DIS_CODE":0,"TOWNNAME":"仁德區","LI":"太子里","LIN":"21鄰","STREET":"太子北路","SECT":" ","MAREA":" ","LANE":" ","ALLEY":" ","HOUSE_NO":"１７７號","E_COORD97":173893.97,"N_COORD97":2543608.0099999998,"ADDRESS":"太子北路１７７號","OBJECTID":557973},"geometry":{"x":173893.97000000067,"y":2543608.0100000016}},{"attributes":{"ID":558001,"DIS_CODE":0,"TOWNNAME":"仁德區","LI":"太子里","LIN":"21鄰","STREET":"太子北路","SECT":" ","MAREA":" ","LANE":" ","ALLEY":" ","HOUSE_NO":"２５８號","E_COORD97":173879.31,"N_COORD97":2543628.5099999998,"ADDRESS":"太子北路２５８號","OBJECTID":557974},"geometry":{"x":173879.30999999959,"y":2543628.5100000016}},{"attributes":{"ID":558002,"DIS_CODE":0,"TOWNNAME":"仁德區","LI":"太子里","LIN":"21鄰","STREET":"太子北路","SECT":" ","MAREA":" ","LANE":" ","ALLEY":" ","HOUSE_NO":"１７９號","E_COORD97":173892.20000000001,"N_COORD97":2543598.75,"ADDRESS":"太子北路１７９號","OBJECTID":557975},"geometry":{"x":173892.20000000019,"y":2543598.7500000037}},{"attributes":{"ID":558003,"DIS_CODE":0,"TOWNNAME":"東區","LI":"中西里","LIN":"21鄰","STREET":"長榮路","SECT":"二段","MAREA":" ","LANE":" ","ALLEY":" ","HOUSE_NO":"９２號","E_COORD97":170003.35000000001,"N_COORD97":2543248.3900000001,"ADDRESS":"長榮路二段９２號","OBJECTID":557976},"geometry":{"x":170003.34999999963,"y":2543248.3900000006}},{"attributes":{"ID":558004,"DIS_CODE":0,"TOWNNAME":"東區","LI":"小東里","LIN":"21鄰","STREET":"東興路","SECT":" ","MAREA":" ","LANE":" ","ALLEY":" ","HOUSE_NO":"３２３號","E_COORD97":171047.45999999999,"N_COORD97":2544178.8300000001,"ADDRESS":"東興路３２３號","OBJECTID":557977},"geometry":{"x":171047.45999999996,"y":2544178.8300000019}},{"attributes":{"ID":558005,"DIS_CODE":0,"TOWNNAME":"東區","LI":"小東里","LIN":"21鄰","STREET":"東興路","SECT":" ","MAREA":" ","LANE":" ","ALLEY":" ","HOUSE_NO":"３４１號","E_COORD97":171045.26999999999,"N_COORD97":2544215.3199999998,"ADDRESS":"東興路３４１號","OBJECTID":557978},"geometry":{"x":171045.26999999862,"y":2544215.3200000003}},{"attributes":{"ID":558006,"DIS_CODE":0,"TOWNNAME":"安南區","LI":"新順里","LIN":"21鄰","STREET":"育安一街","SECT":" ","MAREA":" ","LANE":" ","ALLEY":" ","HOUSE_NO":"５１號","E_COORD97":169338.42000000001,"N_COORD97":2549866.0899999999,"ADDRESS":"育安一街５１號","OBJECTID":557979},"geometry":{"x":169338.42000000086,"y":2549866.0900000017}},{"attributes":{"ID":558007,"DIS_CODE":0,"TOWNNAME":"安南區","LI":"新順里","LIN":"21鄰","STREET":"育安一街","SECT":" ","MAREA":" ","LANE":" ","ALLEY":" ","HOUSE_NO":"５３號","E_COORD97":169344.64999999999,"N_COORD97":2549865.6099999999,"ADDRESS":"育安一街５３號","OBJECTID":557980},"geometry":{"x":169344.65000000037,"y":2549865.6100000013}},{"attributes":{"ID":558008,"DIS_CODE":0,"TOWNNAME":"安南區","LI":"新順里","LIN":"21鄰","STREET":"育安一街","SECT":" ","MAREA":" ","LANE":" ","ALLEY":" ","HOUSE_NO":"５５號","E_COORD97":169344.20999999999,"N_COORD97":2549874.1299999999,"ADDRESS":"育安一街５５號","OBJECTID":557981},"geometry":{"x":169344.21000000183,"y":2549874.1300000027}},{"attributes":{"ID":558009,"DIS_CODE":0,"TOWNNAME":"安南區","LI":"新順里","LIN":"21鄰","STREET":"育安一街","SECT":" ","MAREA":" ","LANE":" ","ALLEY":" ","HOUSE_NO":"５７號","E_COORD97":169349.06,"N_COORD97":2549876.3700000001,"ADDRESS":"育安一街５７號","OBJECTID":557982},"geometry":{"x":169349.06000000052,"y":2549876.370000001}},{"attributes":{"ID":558010,"DIS_CODE":0,"TOWNNAME":"安南區","LI":"新順里","LIN":"21鄰","STREET":"育安一街","SECT":" ","MAREA":" ","LANE":" ","ALLEY":" ","HOUSE_NO":"５９號","E_COORD97":169351.84,"N_COORD97":2549880.04,"ADDRESS":"育安一街５９號","OBJECTID":557983},"geometry":{"x":169351.84000000078,"y":2549880.0399999991}},{"attributes":{"ID":558011,"DIS_CODE":0,"TOWNNAME":"安南區","LI":"新順里","LIN":"21鄰","STREET":"育安一街","SECT":" ","MAREA":" ","LANE":" ","ALLEY":" ","HOUSE_NO":"６１號","E_COORD97":169359.03,"N_COORD97":2549875.73,"ADDRESS":"育安一街６１號","OBJECTID":557984},"geometry":{"x":169359.03000000026,"y":2549875.7300000023}},{"attributes":{"ID":558012,"DIS_CODE":0,"TOWNNAME":"安南區","LI":"新順里","LIN":"21鄰","STREET":"育安一街","SECT":" ","MAREA":" ","LANE":" ","ALLEY":" ","HOUSE_NO":"６３號","E_COORD97":169363.82000000001,"N_COORD97":2549879.3599999999,"ADDRESS":"育安一街６３號","OBJECTID":557985},"geometry":{"x":169363.8200000003,"y":2549879.3599999994}},{"attributes":{"ID":558013,"DIS_CODE":0,"TOWNNAME":"白河區","LI":"永安里","LIN":"21鄰","STREET":"七賢街","SECT":" ","MAREA":" ","LANE":" ","ALLEY":" ","HOUSE_NO":"１６號","E_COORD97":189936.35000000001,"N_COORD97":2582780.96,"ADDRESS":"七賢街１６號","OBJECTID":557986},"geometry":{"x":189936.35000000056,"y":2582780.9600000046}},{"attributes":{"ID":558014,"DIS_CODE":0,"TOWNNAME":"白河區","LI":"永安里","LIN":"21鄰","STREET":"七賢街","SECT":" ","MAREA":" ","LANE":" ","ALLEY":" ","HOUSE_NO":"１７號","E_COORD97":189922.26999999999,"N_COORD97":2582786.8300000001,"ADDRESS":"七賢街１７號","OBJECTID":557987},"geometry":{"x":189922.26999999955,"y":2582786.8300000001}},{"attributes":{"ID":558015,"DIS_CODE":0,"TOWNNAME":"白河區","LI":"永安里","LIN":"21鄰","STREET":"七賢街","SECT":" ","MAREA":" ","LANE":" ","ALLEY":" ","HOUSE_NO":"１８號","E_COORD97":189939.07000000001,"N_COORD97":2582784.5099999998,"ADDRESS":"七賢街１８號","OBJECTID":557988},"geometry":{"x":189939.07000000123,"y":2582784.5099999998}},{"attributes":{"ID":558016,"DIS_CODE":0,"TOWNNAME":"白河區","LI":"永安里","LIN":"21鄰","STREET":"七賢街","SECT":" ","MAREA":" ","LANE":" ","ALLEY":" ","HOUSE_NO":"１號","E_COORD97":189896.48000000001,"N_COORD97":2582751.98,"ADDRESS":"七賢街１號","OBJECTID":557989},"geometry":{"x":189896.48000000045,"y":2582751.9800000004}},{"attributes":{"ID":558017,"DIS_CODE":0,"TOWNNAME":"白河區","LI":"永安里","LIN":"21鄰","STREET":"七賢街","SECT":" ","MAREA":" ","LANE":" ","ALLEY":" ","HOUSE_NO":"２０號","E_COORD97":189941.78,"N_COORD97":2582788.6499999999,"ADDRESS":"七賢街２０號","OBJECTID":557990},"geometry":{"x":189941.78000000026,"y":2582788.6500000004}},{"attributes":{"ID":558018,"DIS_CODE":0,"TOWNNAME":"白河區","LI":"永安里","LIN":"21鄰","STREET":"七賢街","SECT":" ","MAREA":" ","LANE":" ","ALLEY":" ","HOUSE_NO":"３號","E_COORD97":189899.17000000001,"N_COORD97":2582755.21,"ADDRESS":"七賢街３號","OBJECTID":557991},"geometry":{"x":189899.17000000086,"y":2582755.209999999}},{"attributes":{"ID":558019,"DIS_CODE":0,"TOWNNAME":"白河區","LI":"永安里","LIN":"21鄰","STREET":"七賢街","SECT":" ","MAREA":" ","LANE":" ","ALLEY":" ","HOUSE_NO":"５號","E_COORD97":189901.23000000001,"N_COORD97":2582758.6499999999,"ADDRESS":"七賢街５號","OBJECTID":557992},"geometry":{"x":189901.23000000138,"y":2582758.6500000041}},{"attributes":{"ID":558020,"DIS_CODE":0,"TOWNNAME":"白河區","LI":"永安里","LIN":"21鄰","STREET":"七賢街","SECT":" ","MAREA":" ","LANE":" ","ALLEY":" ","HOUSE_NO":"７號","E_COORD97":189905.31,"N_COORD97":2582764.46,"ADDRESS":"七賢街７號","OBJECTID":557993},"geometry":{"x":189905.30999999959,"y":2582764.4600000028}},{"attributes":{"ID":558021,"DIS_CODE":0,"TOWNNAME":"白河區","LI":"永安里","LIN":"21鄰","STREET":"十全街","SECT":" ","MAREA":" ","LANE":" ","ALLEY":" ","HOUSE_NO":"１６７號","E_COORD97":189968.89000000001,"N_COORD97":2582776.5099999998,"ADDRESS":"十全街１６７號","OBJECTID":557994},"geometry":{"x":189968.8900000006,"y":2582776.5100000016}},{"attributes":{"ID":558022,"DIS_CODE":0,"TOWNNAME":"白河區","LI":"永安里","LIN":"21鄰","STREET":"十全街","SECT":" ","MAREA":" ","LANE":" ","ALLEY":" ","HOUSE_NO":"１６９號","E_COORD97":189963.89999999999,"N_COORD97":2582778.1200000001,"ADDRESS":"十全街１６９號","OBJECTID":557995},"geometry":{"x":189963.9000000013,"y":2582778.1200000029}},{"attributes":{"ID":558023,"DIS_CODE":0,"TOWNNAME":"白河區","LI":"永安里","LIN":"21鄰","STREET":"十全街","SECT":" ","MAREA":" ","LANE":" ","ALLEY":" ","HOUSE_NO":"１７１號","E_COORD97":189958.75,"N_COORD97":2582780.4500000002,"ADDRESS":"十全街１７１號","OBJECTID":557996},"geometry":{"x":189958.75,"y":2582780.4500000011}},{"attributes":{"ID":558024,"DIS_CODE":0,"TOWNNAME":"白河區","LI":"永安里","LIN":"21鄰","STREET":"十全街","SECT":" ","MAREA":" ","LANE":" ","ALLEY":" ","HOUSE_NO":"１７３號","E_COORD97":189947.98000000001,"N_COORD97":2582792.3500000001,"ADDRESS":"十全街１７３號","OBJECTID":557997},"geometry":{"x":189947.98000000231,"y":2582792.3499999996}},{"attributes":{"ID":558025,"DIS_CODE":0,"TOWNNAME":"永康區","LI":"\u25A0洲里","LIN":"21鄰","STREET":"中正南路","SECT":" ","MAREA":" ","LANE":" ","ALLEY":" ","HOUSE_NO":"７５７號","E_COORD97":171644.45000000001,"N_COORD97":2548924,"ADDRESS":"中正南路７５７號","OBJECTID":557998},"geometry":{"x":171644.45000000019,"y":2548924.0000000019}},{"attributes":{"ID":558026,"DIS_CODE":0,"TOWNNAME":"永康區","LI":"中華里","LIN":"21鄰","STREET":"中華路","SECT":" ","MAREA":" ","LANE":" ","ALLEY":" ","HOUSE_NO":"２６號","E_COORD97":171584.76999999999,"N_COORD97":2544547.6699999999,"ADDRESS":"中華路２６號","OBJECTID":557999},"geometry":{"x":171584.77000000048,"y":2544547.6699999999}},{"attributes":{"ID":558027,"DIS_CODE":0,"TOWNNAME":"永康區","LI":"\u25A0洲里","LIN":"21鄰","STREET":"中正南路","SECT":" ","MAREA":" ","LANE":" ","ALLEY":" ","HOUSE_NO":"７４９號","E_COORD97":171634.85999999999,"N_COORD97":2548913.3999999999,"ADDRESS":"中正南路７４９號","OBJECTID":558000},"geometry":{"x":171634.86000000034,"y":2548913.4000000004}}]}