{"displayFieldName":"TOWNNAME","fieldAliases":{"ID":"ID","DIS_CODE":"DIS_CODE","TOWNNAME":"TOWNNAME","LI":"LI","LIN":"LIN","STREET":"STREET","SECT":"SECT","MAREA":"MAREA","LANE":"LANE","ALLEY":"ALLEY","HOUSE_NO":"HOUSE_NO","E_COORD97":"E_COORD97","N_COORD97":"N_COORD97","ADDRESS":"ADDRESS","OBJECTID":"OBJECTID"},"geometryType":"esriGeometryPoint","spatialReference":{"wkid":102443,"latestWkid":3826},"fields":[{"name":"ID","type":"esriFieldTypeDouble","alias":"ID"},{"name":"DIS_CODE","type":"esriFieldTypeInteger","alias":"DIS_CODE"},{"name":"TOWNNAME","type":"esriFieldTypeString","alias":"TOWNNAME","length":8},{"name":"LI","type":"esriFieldTypeString","alias":"LI","length":8},{"name":"LIN","type":"esriFieldTypeString","alias":"LIN","length":12},{"name":"STREET","type":"esriFieldTypeString","alias":"STREET","length":20},{"name":"SECT","type":"esriFieldTypeString","alias":"SECT","length":8},{"name":"MAREA","type":"esriFieldTypeString","alias":"MAREA","length":12},{"name":"LANE","type":"esriFieldTypeString","alias":"LANE","length":10},{"name":"ALLEY","type":"esriFieldTypeString","alias":"ALLEY","length":10},{"name":"HOUSE_NO","type":"esriFieldTypeString","alias":"HOUSE_NO","length":20},{"name":"E_COORD97","type":"esriFieldTypeDouble","alias":"E_COORD97"},{"name":"N_COORD97","type":"esriFieldTypeDouble","alias":"N_COORD97"},{"name":"ADDRESS","type":"esriFieldTypeString","alias":"ADDRESS","length":50},{"name":"OBJECTID","type":"esriFieldTypeOID","alias":"OBJECTID"}],"features":[{"attributes":{"ID":381611,"DIS_CODE":0,"TOWNNAME":"南區","LI":"開南里","LIN":"9鄰","STREET":"中華西路","SECT":"一段","MAREA":" ","LANE":"２巷","ALLEY":" ","HOUSE_NO":"７號三樓","E_COORD97":166399.97,"N_COORD97":2540478.1299999999,"ADDRESS":"中華西路一段２巷７號三樓","OBJECTID":381601},"geometry":{"x":166399.97000000067,"y":2540478.129999999}},{"attributes":{"ID":381612,"DIS_CODE":0,"TOWNNAME":"南區","LI":"開南里","LIN":"9鄰","STREET":"中華西路","SECT":"一段","MAREA":" ","LANE":"２巷","ALLEY":" ","HOUSE_NO":"７號五樓","E_COORD97":166399.97,"N_COORD97":2540478.1299999999,"ADDRESS":"中華西路一段２巷７號五樓","OBJECTID":381602},"geometry":{"x":166399.97000000067,"y":2540478.129999999}},{"attributes":{"ID":381613,"DIS_CODE":0,"TOWNNAME":"南區","LI":"開南里","LIN":"9鄰","STREET":"中華西路","SECT":"一段","MAREA":" ","LANE":"２巷","ALLEY":" ","HOUSE_NO":"７號四樓","E_COORD97":166399.97,"N_COORD97":2540478.1299999999,"ADDRESS":"中華西路一段２巷７號四樓","OBJECTID":381603},"geometry":{"x":166399.97000000067,"y":2540478.129999999}},{"attributes":{"ID":381614,"DIS_CODE":0,"TOWNNAME":"南區","LI":"開南里","LIN":"9鄰","STREET":"中華西路","SECT":"一段","MAREA":" ","LANE":"２巷","ALLEY":" ","HOUSE_NO":"８號二樓","E_COORD97":166406.63,"N_COORD97":2540478.2400000002,"ADDRESS":"中華西路一段２巷８號二樓","OBJECTID":381604},"geometry":{"x":166406.62999999989,"y":2540478.2400000002}},{"attributes":{"ID":381615,"DIS_CODE":0,"TOWNNAME":"南區","LI":"開南里","LIN":"9鄰","STREET":"中華西路","SECT":"一段","MAREA":" ","LANE":"２巷","ALLEY":" ","HOUSE_NO":"８號三樓","E_COORD97":166406.63,"N_COORD97":2540478.2400000002,"ADDRESS":"中華西路一段２巷８號三樓","OBJECTID":381605},"geometry":{"x":166406.62999999989,"y":2540478.2400000002}},{"attributes":{"ID":381616,"DIS_CODE":0,"TOWNNAME":"南區","LI":"開南里","LIN":"9鄰","STREET":"中華西路","SECT":"一段","MAREA":" ","LANE":"２巷","ALLEY":" ","HOUSE_NO":"８號五樓","E_COORD97":166406.63,"N_COORD97":2540478.2400000002,"ADDRESS":"中華西路一段２巷８號五樓","OBJECTID":381606},"geometry":{"x":166406.62999999989,"y":2540478.2400000002}},{"attributes":{"ID":381617,"DIS_CODE":0,"TOWNNAME":"南區","LI":"開南里","LIN":"9鄰","STREET":"中華西路","SECT":"一段","MAREA":" ","LANE":"２巷","ALLEY":" ","HOUSE_NO":"８號四樓","E_COORD97":166406.63,"N_COORD97":2540478.2400000002,"ADDRESS":"中華西路一段２巷８號四樓","OBJECTID":381607},"geometry":{"x":166406.62999999989,"y":2540478.2400000002}},{"attributes":{"ID":381618,"DIS_CODE":0,"TOWNNAME":"南區","LI":"開南里","LIN":"9鄰","STREET":"中華西路","SECT":"一段","MAREA":" ","LANE":"２巷","ALLEY":" ","HOUSE_NO":"９號二樓","E_COORD97":166417.73999999999,"N_COORD97":2540477.9100000001,"ADDRESS":"中華西路一段２巷９號二樓","OBJECTID":381608},"geometry":{"x":166417.74000000022,"y":2540477.9100000001}},{"attributes":{"ID":381619,"DIS_CODE":0,"TOWNNAME":"南區","LI":"開南里","LIN":"9鄰","STREET":"中華西路","SECT":"一段","MAREA":" ","LANE":"２巷","ALLEY":" ","HOUSE_NO":"９號三樓","E_COORD97":166417.73999999999,"N_COORD97":2540477.9100000001,"ADDRESS":"中華西路一段２巷９號三樓","OBJECTID":381609},"geometry":{"x":166417.74000000022,"y":2540477.9100000001}},{"attributes":{"ID":381620,"DIS_CODE":0,"TOWNNAME":"南區","LI":"開南里","LIN":"9鄰","STREET":"中華西路","SECT":"一段","MAREA":" ","LANE":"２巷","ALLEY":" ","HOUSE_NO":"９號五樓","E_COORD97":166417.73999999999,"N_COORD97":2540477.9100000001,"ADDRESS":"中華西路一段２巷９號五樓","OBJECTID":381610},"geometry":{"x":166417.74000000022,"y":2540477.9100000001}},{"attributes":{"ID":381621,"DIS_CODE":0,"TOWNNAME":"永康區","LI":"埔園里","LIN":"9鄰","STREET":"中山路","SECT":" ","MAREA":" ","LANE":"１０１巷","ALLEY":" ","HOUSE_NO":"２號之１八樓之１","E_COORD97":173738.23000000001,"N_COORD97":2547819.29,"ADDRESS":"中山路１０１巷２號之１八樓之１","OBJECTID":381611},"geometry":{"x":173738.23000000045,"y":2547819.290000001}},{"attributes":{"ID":381622,"DIS_CODE":0,"TOWNNAME":"永康區","LI":"埔園里","LIN":"9鄰","STREET":"中山路","SECT":" ","MAREA":" ","LANE":"１０１巷","ALLEY":" ","HOUSE_NO":"２號之１四樓之１","E_COORD97":173738.23000000001,"N_COORD97":2547819.29,"ADDRESS":"中山路１０１巷２號之１四樓之１","OBJECTID":381612},"geometry":{"x":173738.23000000045,"y":2547819.290000001}},{"attributes":{"ID":381623,"DIS_CODE":0,"TOWNNAME":"永康區","LI":"埔園里","LIN":"9鄰","STREET":"中山路","SECT":" ","MAREA":" ","LANE":"１０１巷","ALLEY":" ","HOUSE_NO":"２號之１五樓之２","E_COORD97":173738.35999999999,"N_COORD97":2547819.29,"ADDRESS":"中山路１０１巷２號之１五樓之２","OBJECTID":381613},"geometry":{"x":173738.36000000127,"y":2547819.290000001}},{"attributes":{"ID":381624,"DIS_CODE":0,"TOWNNAME":"永康區","LI":"埔園里","LIN":"9鄰","STREET":"中山路","SECT":" ","MAREA":" ","LANE":"１０１巷","ALLEY":" ","HOUSE_NO":"２號之１五樓之１","E_COORD97":173738.23000000001,"N_COORD97":2547819.29,"ADDRESS":"中山路１０１巷２號之１五樓之１","OBJECTID":381614},"geometry":{"x":173738.23000000045,"y":2547819.290000001}},{"attributes":{"ID":381625,"DIS_CODE":0,"TOWNNAME":"永康區","LI":"埔園里","LIN":"9鄰","STREET":"中山路","SECT":" ","MAREA":" ","LANE":"１０１巷","ALLEY":" ","HOUSE_NO":"２號之１七樓之２","E_COORD97":173738.35999999999,"N_COORD97":2547819.29,"ADDRESS":"中山路１０１巷２號之１七樓之２","OBJECTID":381615},"geometry":{"x":173738.36000000127,"y":2547819.290000001}},{"attributes":{"ID":381626,"DIS_CODE":0,"TOWNNAME":"永康區","LI":"埔園里","LIN":"9鄰","STREET":"中山路","SECT":" ","MAREA":" ","LANE":"１０１巷","ALLEY":" ","HOUSE_NO":"２號之１三樓之２","E_COORD97":173738.35999999999,"N_COORD97":2547819.29,"ADDRESS":"中山路１０１巷２號之１三樓之２","OBJECTID":381616},"geometry":{"x":173738.36000000127,"y":2547819.290000001}},{"attributes":{"ID":381627,"DIS_CODE":0,"TOWNNAME":"南區","LI":"開南里","LIN":"9鄰","STREET":"中華西路","SECT":"一段","MAREA":" ","LANE":"２巷","ALLEY":" ","HOUSE_NO":"９號四樓","E_COORD97":166417.73999999999,"N_COORD97":2540477.9100000001,"ADDRESS":"中華西路一段２巷９號四樓","OBJECTID":381617},"geometry":{"x":166417.74000000022,"y":2540477.9100000001}},{"attributes":{"ID":381628,"DIS_CODE":0,"TOWNNAME":"東區","LI":"崇善里","LIN":"9鄰","STREET":"崇善五街","SECT":" ","MAREA":" ","LANE":"７巷","ALLEY":" ","HOUSE_NO":"１２號十三樓","E_COORD97":171079.67000000001,"N_COORD97":2541636.54,"ADDRESS":"崇善五街７巷１２號十三樓","OBJECTID":381618},"geometry":{"x":171079.66999999993,"y":2541636.540000001}},{"attributes":{"ID":381629,"DIS_CODE":0,"TOWNNAME":"東區","LI":"崇善里","LIN":"9鄰","STREET":"崇善五街","SECT":" ","MAREA":" ","LANE":"７巷","ALLEY":" ","HOUSE_NO":"１２號十樓","E_COORD97":171079.67000000001,"N_COORD97":2541636.54,"ADDRESS":"崇善五街７巷１２號十樓","OBJECTID":381619},"geometry":{"x":171079.66999999993,"y":2541636.540000001}},{"attributes":{"ID":381630,"DIS_CODE":0,"TOWNNAME":"中西區","LI":"三民里","LIN":"9鄰","STREET":"民權路","SECT":"二段","MAREA":" ","LANE":"４巷","ALLEY":" ","HOUSE_NO":"１號三樓","E_COORD97":168660.39999999999,"N_COORD97":2543823.3999999999,"ADDRESS":"民權路二段４巷１號三樓","OBJECTID":381620},"geometry":{"x":168660.4000000013,"y":2543823.4000000022}},{"attributes":{"ID":381631,"DIS_CODE":0,"TOWNNAME":"中西區","LI":"三民里","LIN":"9鄰","STREET":"民權路","SECT":"二段","MAREA":" ","LANE":"４巷","ALLEY":" ","HOUSE_NO":"１號五樓","E_COORD97":168660.39999999999,"N_COORD97":2543823.3999999999,"ADDRESS":"民權路二段４巷１號五樓","OBJECTID":381621},"geometry":{"x":168660.4000000013,"y":2543823.4000000022}},{"attributes":{"ID":381632,"DIS_CODE":0,"TOWNNAME":"中西區","LI":"三民里","LIN":"9鄰","STREET":"民權路","SECT":"二段","MAREA":" ","LANE":"４巷","ALLEY":" ","HOUSE_NO":"１號四樓","E_COORD97":168660.39999999999,"N_COORD97":2543823.3999999999,"ADDRESS":"民權路二段４巷１號四樓","OBJECTID":381622},"geometry":{"x":168660.4000000013,"y":2543823.4000000022}},{"attributes":{"ID":381633,"DIS_CODE":0,"TOWNNAME":"中西區","LI":"五妃里","LIN":"9鄰","STREET":"南寧街","SECT":" ","MAREA":" ","LANE":"３７巷","ALLEY":" ","HOUSE_NO":"１號二樓","E_COORD97":168448.76999999999,"N_COORD97":2542769.1299999999,"ADDRESS":"南寧街３７巷１號二樓","OBJECTID":381623},"geometry":{"x":168448.77000000048,"y":2542769.1300000008}},{"attributes":{"ID":381634,"DIS_CODE":0,"TOWNNAME":"中西區","LI":"五妃里","LIN":"9鄰","STREET":"南寧街","SECT":" ","MAREA":" ","LANE":"３７巷","ALLEY":" ","HOUSE_NO":"１號三樓","E_COORD97":168448.76999999999,"N_COORD97":2542769.1299999999,"ADDRESS":"南寧街３７巷１號三樓","OBJECTID":381624},"geometry":{"x":168448.77000000048,"y":2542769.1300000008}},{"attributes":{"ID":381635,"DIS_CODE":0,"TOWNNAME":"中西區","LI":"五妃里","LIN":"9鄰","STREET":"南寧街","SECT":" ","MAREA":" ","LANE":"３７巷","ALLEY":" ","HOUSE_NO":"１號四樓","E_COORD97":168448.76999999999,"N_COORD97":2542769.1299999999,"ADDRESS":"南寧街３７巷１號四樓","OBJECTID":381625},"geometry":{"x":168448.77000000048,"y":2542769.1300000008}},{"attributes":{"ID":381636,"DIS_CODE":0,"TOWNNAME":"中西區","LI":"五妃里","LIN":"9鄰","STREET":"南寧街","SECT":" ","MAREA":" ","LANE":"３７巷","ALLEY":" ","HOUSE_NO":"２號七樓之１","E_COORD97":168422.79999999999,"N_COORD97":2542790.3700000001,"ADDRESS":"南寧街３７巷２號七樓之１","OBJECTID":381626},"geometry":{"x":168422.79999999981,"y":2542790.3700000029}},{"attributes":{"ID":381637,"DIS_CODE":0,"TOWNNAME":"中西區","LI":"五妃里","LIN":"9鄰","STREET":"南寧街","SECT":" ","MAREA":" ","LANE":"３７巷","ALLEY":" ","HOUSE_NO":"２號七樓之２","E_COORD97":168422.79999999999,"N_COORD97":2542790.3700000001,"ADDRESS":"南寧街３７巷２號七樓之２","OBJECTID":381627},"geometry":{"x":168422.79999999981,"y":2542790.3700000029}},{"attributes":{"ID":381638,"DIS_CODE":0,"TOWNNAME":"善化區","LI":"光文里","LIN":"9鄰","STREET":"民生路","SECT":" ","MAREA":" ","LANE":"３６巷","ALLEY":" ","HOUSE_NO":"２號","E_COORD97":178805.41,"N_COORD97":2559028.5299999998,"ADDRESS":"民生路３６巷２號","OBJECTID":381628},"geometry":{"x":178805.41000000015,"y":2559028.5299999993}},{"attributes":{"ID":381639,"DIS_CODE":0,"TOWNNAME":"中西區","LI":"五妃里","LIN":"9鄰","STREET":"南寧街","SECT":" ","MAREA":" ","LANE":"３７巷","ALLEY":" ","HOUSE_NO":"２號七樓之３","E_COORD97":168422.79999999999,"N_COORD97":2542790.3700000001,"ADDRESS":"南寧街３７巷２號七樓之３","OBJECTID":381629},"geometry":{"x":168422.79999999981,"y":2542790.3700000029}},{"attributes":{"ID":381640,"DIS_CODE":0,"TOWNNAME":"中西區","LI":"五妃里","LIN":"9鄰","STREET":"南寧街","SECT":" ","MAREA":" ","LANE":"３７巷","ALLEY":" ","HOUSE_NO":"２號七樓之４","E_COORD97":168422.79999999999,"N_COORD97":2542790.3700000001,"ADDRESS":"南寧街３７巷２號七樓之４","OBJECTID":381630},"geometry":{"x":168422.79999999981,"y":2542790.3700000029}},{"attributes":{"ID":381641,"DIS_CODE":0,"TOWNNAME":"中西區","LI":"五妃里","LIN":"9鄰","STREET":"南寧街","SECT":" ","MAREA":" ","LANE":"３７巷","ALLEY":" ","HOUSE_NO":"２號七樓之５","E_COORD97":168422.79999999999,"N_COORD97":2542790.3700000001,"ADDRESS":"南寧街３７巷２號七樓之５","OBJECTID":381631},"geometry":{"x":168422.79999999981,"y":2542790.3700000029}},{"attributes":{"ID":381642,"DIS_CODE":0,"TOWNNAME":"中西區","LI":"五妃里","LIN":"9鄰","STREET":"南寧街","SECT":" ","MAREA":" ","LANE":"３７巷","ALLEY":" ","HOUSE_NO":"２號二樓","E_COORD97":168422.79999999999,"N_COORD97":2542790.3700000001,"ADDRESS":"南寧街３７巷２號二樓","OBJECTID":381632},"geometry":{"x":168422.79999999981,"y":2542790.3700000029}},{"attributes":{"ID":381643,"DIS_CODE":0,"TOWNNAME":"中西區","LI":"五妃里","LIN":"9鄰","STREET":"南寧街","SECT":" ","MAREA":" ","LANE":"３７巷","ALLEY":" ","HOUSE_NO":"２號三樓之１","E_COORD97":168422.79999999999,"N_COORD97":2542790.3700000001,"ADDRESS":"南寧街３７巷２號三樓之１","OBJECTID":381633},"geometry":{"x":168422.79999999981,"y":2542790.3700000029}},{"attributes":{"ID":381644,"DIS_CODE":0,"TOWNNAME":"中西區","LI":"五妃里","LIN":"9鄰","STREET":"南寧街","SECT":" ","MAREA":" ","LANE":"３７巷","ALLEY":" ","HOUSE_NO":"２號三樓之２","E_COORD97":168422.79999999999,"N_COORD97":2542790.3700000001,"ADDRESS":"南寧街３７巷２號三樓之２","OBJECTID":381634},"geometry":{"x":168422.79999999981,"y":2542790.3700000029}},{"attributes":{"ID":381645,"DIS_CODE":0,"TOWNNAME":"中西區","LI":"五妃里","LIN":"9鄰","STREET":"南寧街","SECT":" ","MAREA":" ","LANE":"３７巷","ALLEY":" ","HOUSE_NO":"２號三樓之３","E_COORD97":168422.79999999999,"N_COORD97":2542790.3700000001,"ADDRESS":"南寧街３７巷２號三樓之３","OBJECTID":381635},"geometry":{"x":168422.79999999981,"y":2542790.3700000029}},{"attributes":{"ID":381646,"DIS_CODE":0,"TOWNNAME":"中西區","LI":"五妃里","LIN":"9鄰","STREET":"南寧街","SECT":" ","MAREA":" ","LANE":"３７巷","ALLEY":" ","HOUSE_NO":"２號三樓之４","E_COORD97":168422.79999999999,"N_COORD97":2542790.3700000001,"ADDRESS":"南寧街３７巷２號三樓之４","OBJECTID":381636},"geometry":{"x":168422.79999999981,"y":2542790.3700000029}},{"attributes":{"ID":381647,"DIS_CODE":0,"TOWNNAME":"中西區","LI":"五妃里","LIN":"9鄰","STREET":"南寧街","SECT":" ","MAREA":" ","LANE":"３７巷","ALLEY":" ","HOUSE_NO":"２號三樓之５","E_COORD97":168422.79999999999,"N_COORD97":2542790.3700000001,"ADDRESS":"南寧街３７巷２號三樓之５","OBJECTID":381637},"geometry":{"x":168422.79999999981,"y":2542790.3700000029}},{"attributes":{"ID":381648,"DIS_CODE":0,"TOWNNAME":"中西區","LI":"五妃里","LIN":"9鄰","STREET":"南寧街","SECT":" ","MAREA":" ","LANE":"３７巷","ALLEY":" ","HOUSE_NO":"２號五樓之１","E_COORD97":168422.79999999999,"N_COORD97":2542790.3700000001,"ADDRESS":"南寧街３７巷２號五樓之１","OBJECTID":381638},"geometry":{"x":168422.79999999981,"y":2542790.3700000029}},{"attributes":{"ID":381649,"DIS_CODE":0,"TOWNNAME":"中西區","LI":"五妃里","LIN":"9鄰","STREET":"南寧街","SECT":" ","MAREA":" ","LANE":"３７巷","ALLEY":" ","HOUSE_NO":"２號五樓之２","E_COORD97":168422.79999999999,"N_COORD97":2542790.3700000001,"ADDRESS":"南寧街３７巷２號五樓之２","OBJECTID":381639},"geometry":{"x":168422.79999999981,"y":2542790.3700000029}},{"attributes":{"ID":381650,"DIS_CODE":0,"TOWNNAME":"中西區","LI":"五妃里","LIN":"9鄰","STREET":"南寧街","SECT":" ","MAREA":" ","LANE":"３７巷","ALLEY":" ","HOUSE_NO":"２號五樓之３","E_COORD97":168422.79999999999,"N_COORD97":2542790.3700000001,"ADDRESS":"南寧街３７巷２號五樓之３","OBJECTID":381640},"geometry":{"x":168422.79999999981,"y":2542790.3700000029}},{"attributes":{"ID":381651,"DIS_CODE":0,"TOWNNAME":"中西區","LI":"五妃里","LIN":"9鄰","STREET":"南寧街","SECT":" ","MAREA":" ","LANE":"３７巷","ALLEY":" ","HOUSE_NO":"２號五樓之４","E_COORD97":168422.79999999999,"N_COORD97":2542790.3700000001,"ADDRESS":"南寧街３７巷２號五樓之４","OBJECTID":381641},"geometry":{"x":168422.79999999981,"y":2542790.3700000029}},{"attributes":{"ID":381652,"DIS_CODE":0,"TOWNNAME":"中西區","LI":"五妃里","LIN":"9鄰","STREET":"南寧街","SECT":" ","MAREA":" ","LANE":"３７巷","ALLEY":" ","HOUSE_NO":"２號五樓之５","E_COORD97":168422.79999999999,"N_COORD97":2542790.3700000001,"ADDRESS":"南寧街３７巷２號五樓之５","OBJECTID":381642},"geometry":{"x":168422.79999999981,"y":2542790.3700000029}},{"attributes":{"ID":381653,"DIS_CODE":0,"TOWNNAME":"中西區","LI":"五妃里","LIN":"9鄰","STREET":"南寧街","SECT":" ","MAREA":" ","LANE":"３７巷","ALLEY":" ","HOUSE_NO":"２號六樓之１","E_COORD97":168422.79999999999,"N_COORD97":2542790.3700000001,"ADDRESS":"南寧街３７巷２號六樓之１","OBJECTID":381643},"geometry":{"x":168422.79999999981,"y":2542790.3700000029}},{"attributes":{"ID":381654,"DIS_CODE":0,"TOWNNAME":"中西區","LI":"五妃里","LIN":"9鄰","STREET":"南寧街","SECT":" ","MAREA":" ","LANE":"３７巷","ALLEY":" ","HOUSE_NO":"２號六樓之２","E_COORD97":168422.79999999999,"N_COORD97":2542790.3700000001,"ADDRESS":"南寧街３７巷２號六樓之２","OBJECTID":381644},"geometry":{"x":168422.79999999981,"y":2542790.3700000029}},{"attributes":{"ID":381655,"DIS_CODE":0,"TOWNNAME":"中西區","LI":"五妃里","LIN":"9鄰","STREET":"南寧街","SECT":" ","MAREA":" ","LANE":"３７巷","ALLEY":" ","HOUSE_NO":"２號六樓之３","E_COORD97":168422.79999999999,"N_COORD97":2542790.3700000001,"ADDRESS":"南寧街３７巷２號六樓之３","OBJECTID":381645},"geometry":{"x":168422.79999999981,"y":2542790.3700000029}},{"attributes":{"ID":381656,"DIS_CODE":0,"TOWNNAME":"中西區","LI":"五妃里","LIN":"9鄰","STREET":"南寧街","SECT":" ","MAREA":" ","LANE":"３７巷","ALLEY":" ","HOUSE_NO":"２號六樓之４","E_COORD97":168422.79999999999,"N_COORD97":2542790.3700000001,"ADDRESS":"南寧街３７巷２號六樓之４","OBJECTID":381646},"geometry":{"x":168422.79999999981,"y":2542790.3700000029}},{"attributes":{"ID":381657,"DIS_CODE":0,"TOWNNAME":"中西區","LI":"五妃里","LIN":"9鄰","STREET":"南寧街","SECT":" ","MAREA":" ","LANE":"３７巷","ALLEY":" ","HOUSE_NO":"２號六樓之５","E_COORD97":168422.79999999999,"N_COORD97":2542790.3700000001,"ADDRESS":"南寧街３７巷２號六樓之５","OBJECTID":381647},"geometry":{"x":168422.79999999981,"y":2542790.3700000029}},{"attributes":{"ID":381658,"DIS_CODE":0,"TOWNNAME":"中西區","LI":"五妃里","LIN":"9鄰","STREET":"南寧街","SECT":" ","MAREA":" ","LANE":"３７巷","ALLEY":" ","HOUSE_NO":"２號四樓之１","E_COORD97":168422.79999999999,"N_COORD97":2542790.3700000001,"ADDRESS":"南寧街３７巷２號四樓之１","OBJECTID":381648},"geometry":{"x":168422.79999999981,"y":2542790.3700000029}},{"attributes":{"ID":381659,"DIS_CODE":0,"TOWNNAME":"中西區","LI":"五妃里","LIN":"9鄰","STREET":"南寧街","SECT":" ","MAREA":" ","LANE":"３７巷","ALLEY":" ","HOUSE_NO":"２號四樓之２","E_COORD97":168422.79999999999,"N_COORD97":2542790.3700000001,"ADDRESS":"南寧街３７巷２號四樓之２","OBJECTID":381649},"geometry":{"x":168422.79999999981,"y":2542790.3700000029}},{"attributes":{"ID":381660,"DIS_CODE":0,"TOWNNAME":"中西區","LI":"五妃里","LIN":"9鄰","STREET":"南寧街","SECT":" ","MAREA":" ","LANE":"３７巷","ALLEY":" ","HOUSE_NO":"２號四樓之３","E_COORD97":168422.79999999999,"N_COORD97":2542790.3700000001,"ADDRESS":"南寧街３７巷２號四樓之３","OBJECTID":381650},"geometry":{"x":168422.79999999981,"y":2542790.3700000029}},{"attributes":{"ID":381661,"DIS_CODE":0,"TOWNNAME":"白河區","LI":"外角里","LIN":"13鄰","STREET":"三民路","SECT":" ","MAREA":" ","LANE":" ","ALLEY":" ","HOUSE_NO":"１９９號","E_COORD97":190805.54999999999,"N_COORD97":2583288.9500000002,"ADDRESS":"三民路１９９號","OBJECTID":381651},"geometry":{"x":190805.54999999981,"y":2583288.9500000011}},{"attributes":{"ID":381662,"DIS_CODE":0,"TOWNNAME":"中西區","LI":"五妃里","LIN":"9鄰","STREET":"南寧街","SECT":" ","MAREA":" ","LANE":"３７巷","ALLEY":" ","HOUSE_NO":"２號四樓之４","E_COORD97":168422.79999999999,"N_COORD97":2542790.3700000001,"ADDRESS":"南寧街３７巷２號四樓之４","OBJECTID":381652},"geometry":{"x":168422.79999999981,"y":2542790.3700000029}},{"attributes":{"ID":381663,"DIS_CODE":0,"TOWNNAME":"中西區","LI":"五妃里","LIN":"9鄰","STREET":"南寧街","SECT":" ","MAREA":" ","LANE":"３７巷","ALLEY":" ","HOUSE_NO":"２號四樓之５","E_COORD97":168422.79999999999,"N_COORD97":2542790.3700000001,"ADDRESS":"南寧街３７巷２號四樓之５","OBJECTID":381653},"geometry":{"x":168422.79999999981,"y":2542790.3700000029}},{"attributes":{"ID":381664,"DIS_CODE":0,"TOWNNAME":"中西區","LI":"五妃里","LIN":"9鄰","STREET":"南寧街","SECT":" ","MAREA":" ","LANE":"３７巷","ALLEY":" ","HOUSE_NO":"３號二樓","E_COORD97":168451.32999999999,"N_COORD97":2542762.5,"ADDRESS":"南寧街３７巷３號二樓","OBJECTID":381654},"geometry":{"x":168451.33000000007,"y":2542762.5}},{"attributes":{"ID":381665,"DIS_CODE":0,"TOWNNAME":"中西區","LI":"五妃里","LIN":"9鄰","STREET":"南寧街","SECT":" ","MAREA":" ","LANE":"３７巷","ALLEY":" ","HOUSE_NO":"３號三樓","E_COORD97":168451.32999999999,"N_COORD97":2542762.5,"ADDRESS":"南寧街３７巷３號三樓","OBJECTID":381655},"geometry":{"x":168451.33000000007,"y":2542762.5}},{"attributes":{"ID":381666,"DIS_CODE":0,"TOWNNAME":"中西區","LI":"五妃里","LIN":"9鄰","STREET":"南寧街","SECT":" ","MAREA":" ","LANE":"３７巷","ALLEY":" ","HOUSE_NO":"３號四樓","E_COORD97":168451.32999999999,"N_COORD97":2542762.5,"ADDRESS":"南寧街３７巷３號四樓","OBJECTID":381656},"geometry":{"x":168451.33000000007,"y":2542762.5}},{"attributes":{"ID":381667,"DIS_CODE":0,"TOWNNAME":"中西區","LI":"五妃里","LIN":"9鄰","STREET":"南寧街","SECT":" ","MAREA":" ","LANE":"３７巷","ALLEY":" ","HOUSE_NO":"５號二樓","E_COORD97":168443.54000000001,"N_COORD97":2542757.5299999998,"ADDRESS":"南寧街３７巷５號二樓","OBJECTID":381657},"geometry":{"x":168443.53999999911,"y":2542757.5299999993}},{"attributes":{"ID":381668,"DIS_CODE":0,"TOWNNAME":"中西區","LI":"五妃里","LIN":"9鄰","STREET":"南寧街","SECT":" ","MAREA":" ","LANE":"３７巷","ALLEY":" ","HOUSE_NO":"５號三樓","E_COORD97":168443.54000000001,"N_COORD97":2542757.5299999998,"ADDRESS":"南寧街３７巷５號三樓","OBJECTID":381658},"geometry":{"x":168443.53999999911,"y":2542757.5299999993}},{"attributes":{"ID":381669,"DIS_CODE":0,"TOWNNAME":"中西區","LI":"五妃里","LIN":"9鄰","STREET":"南寧街","SECT":" ","MAREA":" ","LANE":"３７巷","ALLEY":" ","HOUSE_NO":"５號四樓","E_COORD97":168443.54000000001,"N_COORD97":2542757.5299999998,"ADDRESS":"南寧街３７巷５號四樓","OBJECTID":381659},"geometry":{"x":168443.53999999911,"y":2542757.5299999993}},{"attributes":{"ID":381670,"DIS_CODE":0,"TOWNNAME":"中西區","LI":"仙草里","LIN":"9鄰","STREET":"南寧街","SECT":" ","MAREA":" ","LANE":"７１巷","ALLEY":" ","HOUSE_NO":"２１號二樓","E_COORD97":167850.98000000001,"N_COORD97":2542763.6200000001,"ADDRESS":"南寧街７１巷２１號二樓","OBJECTID":381660},"geometry":{"x":167850.98000000045,"y":2542763.6200000029}},{"attributes":{"ID":381671,"DIS_CODE":0,"TOWNNAME":"中西區","LI":"仙草里","LIN":"9鄰","STREET":"南寧街","SECT":" ","MAREA":" ","LANE":"７１巷","ALLEY":" ","HOUSE_NO":"２１號三樓","E_COORD97":167850.98000000001,"N_COORD97":2542763.6200000001,"ADDRESS":"南寧街７１巷２１號三樓","OBJECTID":381661},"geometry":{"x":167850.98000000045,"y":2542763.6200000029}},{"attributes":{"ID":381672,"DIS_CODE":0,"TOWNNAME":"中西區","LI":"仙草里","LIN":"9鄰","STREET":"南寧街","SECT":" ","MAREA":" ","LANE":"７１巷","ALLEY":" ","HOUSE_NO":"２１號五樓","E_COORD97":167850.98000000001,"N_COORD97":2542763.6200000001,"ADDRESS":"南寧街７１巷２１號五樓","OBJECTID":381662},"geometry":{"x":167850.98000000045,"y":2542763.6200000029}},{"attributes":{"ID":381673,"DIS_CODE":0,"TOWNNAME":"中西區","LI":"仙草里","LIN":"9鄰","STREET":"南寧街","SECT":" ","MAREA":" ","LANE":"７１巷","ALLEY":" ","HOUSE_NO":"２１號四樓","E_COORD97":167850.98000000001,"N_COORD97":2542763.6200000001,"ADDRESS":"南寧街７１巷２１號四樓","OBJECTID":381663},"geometry":{"x":167850.98000000045,"y":2542763.6200000029}},{"attributes":{"ID":381674,"DIS_CODE":0,"TOWNNAME":"中西區","LI":"仙草里","LIN":"9鄰","STREET":"南寧街","SECT":" ","MAREA":" ","LANE":"７１巷","ALLEY":" ","HOUSE_NO":"２３號二樓","E_COORD97":167850.10999999999,"N_COORD97":2542751.6499999999,"ADDRESS":"南寧街７１巷２３號二樓","OBJECTID":381664},"geometry":{"x":167850.1100000022,"y":2542751.6500000004}},{"attributes":{"ID":381675,"DIS_CODE":0,"TOWNNAME":"中西區","LI":"仙草里","LIN":"9鄰","STREET":"南寧街","SECT":" ","MAREA":" ","LANE":"７１巷","ALLEY":" ","HOUSE_NO":"２３號三樓","E_COORD97":167850.10999999999,"N_COORD97":2542751.6499999999,"ADDRESS":"南寧街７１巷２３號三樓","OBJECTID":381665},"geometry":{"x":167850.1100000022,"y":2542751.6500000004}},{"attributes":{"ID":381676,"DIS_CODE":0,"TOWNNAME":"中西區","LI":"仙草里","LIN":"9鄰","STREET":"南寧街","SECT":" ","MAREA":" ","LANE":"７１巷","ALLEY":" ","HOUSE_NO":"２３號五樓","E_COORD97":167850.10999999999,"N_COORD97":2542751.6499999999,"ADDRESS":"南寧街７１巷２３號五樓","OBJECTID":381666},"geometry":{"x":167850.1100000022,"y":2542751.6500000004}},{"attributes":{"ID":381677,"DIS_CODE":0,"TOWNNAME":"中西區","LI":"仙草里","LIN":"9鄰","STREET":"南寧街","SECT":" ","MAREA":" ","LANE":"７１巷","ALLEY":" ","HOUSE_NO":"２３號四樓","E_COORD97":167850.10999999999,"N_COORD97":2542751.6499999999,"ADDRESS":"南寧街７１巷２３號四樓","OBJECTID":381667},"geometry":{"x":167850.1100000022,"y":2542751.6500000004}},{"attributes":{"ID":381678,"DIS_CODE":0,"TOWNNAME":"中西區","LI":"仙草里","LIN":"9鄰","STREET":"南寧街","SECT":" ","MAREA":" ","LANE":"７１巷","ALLEY":" ","HOUSE_NO":"２５號二樓","E_COORD97":167832.23000000001,"N_COORD97":2542751.6499999999,"ADDRESS":"南寧街７１巷２５號二樓","OBJECTID":381668},"geometry":{"x":167832.23000000045,"y":2542751.6500000004}},{"attributes":{"ID":381679,"DIS_CODE":0,"TOWNNAME":"中西區","LI":"仙草里","LIN":"9鄰","STREET":"南寧街","SECT":" ","MAREA":" ","LANE":"７１巷","ALLEY":" ","HOUSE_NO":"２５號三樓","E_COORD97":167832.23000000001,"N_COORD97":2542751.6499999999,"ADDRESS":"南寧街７１巷２５號三樓","OBJECTID":381669},"geometry":{"x":167832.23000000045,"y":2542751.6500000004}},{"attributes":{"ID":381680,"DIS_CODE":0,"TOWNNAME":"中西區","LI":"仙草里","LIN":"9鄰","STREET":"南寧街","SECT":" ","MAREA":" ","LANE":"７１巷","ALLEY":" ","HOUSE_NO":"２５號五樓","E_COORD97":167832.23000000001,"N_COORD97":2542751.6499999999,"ADDRESS":"南寧街７１巷２５號五樓","OBJECTID":381670},"geometry":{"x":167832.23000000045,"y":2542751.6500000004}},{"attributes":{"ID":381681,"DIS_CODE":0,"TOWNNAME":"中西區","LI":"仙草里","LIN":"9鄰","STREET":"南寧街","SECT":" ","MAREA":" ","LANE":"７１巷","ALLEY":" ","HOUSE_NO":"２５號四樓","E_COORD97":167832.23000000001,"N_COORD97":2542751.6499999999,"ADDRESS":"南寧街７１巷２５號四樓","OBJECTID":381671},"geometry":{"x":167832.23000000045,"y":2542751.6500000004}},{"attributes":{"ID":381682,"DIS_CODE":0,"TOWNNAME":"中西區","LI":"仙草里","LIN":"9鄰","STREET":"南寧街","SECT":" ","MAREA":" ","LANE":"７１巷","ALLEY":" ","HOUSE_NO":"２７號二樓","E_COORD97":167832.57999999999,"N_COORD97":2542764.6600000001,"ADDRESS":"南寧街７１巷２７號二樓","OBJECTID":381672},"geometry":{"x":167832.58000000007,"y":2542764.6600000001}},{"attributes":{"ID":381683,"DIS_CODE":0,"TOWNNAME":"東區","LI":"東明里","LIN":"9鄰","STREET":"怡東路","SECT":" ","MAREA":" ","LANE":"８６巷","ALLEY":" ","HOUSE_NO":"１１號二樓","E_COORD97":170924.92999999999,"N_COORD97":2543704.6099999999,"ADDRESS":"怡東路８６巷１１號二樓","OBJECTID":381673},"geometry":{"x":170924.9299999997,"y":2543704.6100000013}},{"attributes":{"ID":381684,"DIS_CODE":0,"TOWNNAME":"東區","LI":"東明里","LIN":"9鄰","STREET":"怡東路","SECT":" ","MAREA":" ","LANE":"８６巷","ALLEY":" ","HOUSE_NO":"１１號三樓","E_COORD97":170924.92999999999,"N_COORD97":2543704.6099999999,"ADDRESS":"怡東路８６巷１１號三樓","OBJECTID":381674},"geometry":{"x":170924.9299999997,"y":2543704.6100000013}},{"attributes":{"ID":381685,"DIS_CODE":0,"TOWNNAME":"東區","LI":"東明里","LIN":"9鄰","STREET":"怡東路","SECT":" ","MAREA":" ","LANE":"８６巷","ALLEY":" ","HOUSE_NO":"１１號四樓","E_COORD97":170924.92999999999,"N_COORD97":2543704.6099999999,"ADDRESS":"怡東路８６巷１１號四樓","OBJECTID":381675},"geometry":{"x":170924.9299999997,"y":2543704.6100000013}},{"attributes":{"ID":381686,"DIS_CODE":0,"TOWNNAME":"東區","LI":"東明里","LIN":"9鄰","STREET":"怡東路","SECT":" ","MAREA":" ","LANE":"８６巷","ALLEY":" ","HOUSE_NO":"１３號三樓","E_COORD97":170933.26000000001,"N_COORD97":2543702.0299999998,"ADDRESS":"怡東路８６巷１３號三樓","OBJECTID":381676},"geometry":{"x":170933.25999999978,"y":2543702.0300000012}},{"attributes":{"ID":381687,"DIS_CODE":0,"TOWNNAME":"東區","LI":"東明里","LIN":"9鄰","STREET":"怡東路","SECT":" ","MAREA":" ","LANE":"８６巷","ALLEY":" ","HOUSE_NO":"１３號四樓","E_COORD97":170933.26000000001,"N_COORD97":2543702.0299999998,"ADDRESS":"怡東路８６巷１３號四樓","OBJECTID":381677},"geometry":{"x":170933.25999999978,"y":2543702.0300000012}},{"attributes":{"ID":381688,"DIS_CODE":0,"TOWNNAME":"善化區","LI":"光文里","LIN":"9鄰","STREET":"民生路","SECT":" ","MAREA":" ","LANE":"２２巷","ALLEY":" ","HOUSE_NO":"９號","E_COORD97":178855.70000000001,"N_COORD97":2559074.1000000001,"ADDRESS":"民生路２２巷９號","OBJECTID":381678},"geometry":{"x":178855.70000000019,"y":2559074.1000000015}},{"attributes":{"ID":381689,"DIS_CODE":0,"TOWNNAME":"東區","LI":"東明里","LIN":"9鄰","STREET":"怡東路","SECT":" ","MAREA":" ","LANE":"８６巷","ALLEY":" ","HOUSE_NO":"１５號二樓","E_COORD97":170939.32999999999,"N_COORD97":2543701.27,"ADDRESS":"怡東路８６巷１５號二樓","OBJECTID":381679},"geometry":{"x":170939.33000000101,"y":2543701.2700000014}},{"attributes":{"ID":381690,"DIS_CODE":0,"TOWNNAME":"東區","LI":"東明里","LIN":"9鄰","STREET":"怡東路","SECT":" ","MAREA":" ","LANE":"８６巷","ALLEY":" ","HOUSE_NO":"１５號三樓","E_COORD97":170939.32999999999,"N_COORD97":2543701.27,"ADDRESS":"怡東路８６巷１５號三樓","OBJECTID":381680},"geometry":{"x":170939.33000000101,"y":2543701.2700000014}},{"attributes":{"ID":381691,"DIS_CODE":0,"TOWNNAME":"東區","LI":"東明里","LIN":"9鄰","STREET":"怡東路","SECT":" ","MAREA":" ","LANE":"８６巷","ALLEY":" ","HOUSE_NO":"１５號四樓","E_COORD97":170939.32999999999,"N_COORD97":2543701.27,"ADDRESS":"怡東路８６巷１５號四樓","OBJECTID":381681},"geometry":{"x":170939.33000000101,"y":2543701.2700000014}},{"attributes":{"ID":381692,"DIS_CODE":0,"TOWNNAME":"東區","LI":"東明里","LIN":"9鄰","STREET":"怡東路","SECT":" ","MAREA":" ","LANE":"８６巷","ALLEY":" ","HOUSE_NO":"１號二樓","E_COORD97":170892.56,"N_COORD97":2543708.3500000001,"ADDRESS":"怡東路８６巷１號二樓","OBJECTID":381682},"geometry":{"x":170892.56000000145,"y":2543708.3499999996}},{"attributes":{"ID":381693,"DIS_CODE":0,"TOWNNAME":"東區","LI":"東明里","LIN":"9鄰","STREET":"怡東路","SECT":" ","MAREA":" ","LANE":"８６巷","ALLEY":" ","HOUSE_NO":"１號三樓","E_COORD97":170892.56,"N_COORD97":2543708.3500000001,"ADDRESS":"怡東路８６巷１號三樓","OBJECTID":381683},"geometry":{"x":170892.56000000145,"y":2543708.3499999996}},{"attributes":{"ID":381694,"DIS_CODE":0,"TOWNNAME":"東區","LI":"東明里","LIN":"9鄰","STREET":"怡東路","SECT":" ","MAREA":" ","LANE":"８６巷","ALLEY":" ","HOUSE_NO":"１號五樓","E_COORD97":170892.56,"N_COORD97":2543708.3500000001,"ADDRESS":"怡東路８６巷１號五樓","OBJECTID":381684},"geometry":{"x":170892.56000000145,"y":2543708.3499999996}},{"attributes":{"ID":381695,"DIS_CODE":0,"TOWNNAME":"東區","LI":"東明里","LIN":"9鄰","STREET":"怡東路","SECT":" ","MAREA":" ","LANE":"８６巷","ALLEY":" ","HOUSE_NO":"１號四樓","E_COORD97":170892.56,"N_COORD97":2543708.3500000001,"ADDRESS":"怡東路８６巷１號四樓","OBJECTID":381685},"geometry":{"x":170892.56000000145,"y":2543708.3499999996}},{"attributes":{"ID":381696,"DIS_CODE":0,"TOWNNAME":"東區","LI":"東明里","LIN":"9鄰","STREET":"怡東路","SECT":" ","MAREA":" ","LANE":"８６巷","ALLEY":" ","HOUSE_NO":"３號二樓","E_COORD97":170897.94,"N_COORD97":2543707.3300000001,"ADDRESS":"怡東路８６巷３號二樓","OBJECTID":381686},"geometry":{"x":170897.94000000134,"y":2543707.3300000019}},{"attributes":{"ID":381697,"DIS_CODE":0,"TOWNNAME":"東區","LI":"東明里","LIN":"9鄰","STREET":"怡東路","SECT":" ","MAREA":" ","LANE":"８６巷","ALLEY":" ","HOUSE_NO":"３號三樓","E_COORD97":170897.94,"N_COORD97":2543707.3300000001,"ADDRESS":"怡東路８６巷３號三樓","OBJECTID":381687},"geometry":{"x":170897.94000000134,"y":2543707.3300000019}},{"attributes":{"ID":381698,"DIS_CODE":0,"TOWNNAME":"東區","LI":"東明里","LIN":"9鄰","STREET":"怡東路","SECT":" ","MAREA":" ","LANE":"８６巷","ALLEY":" ","HOUSE_NO":"３號五樓","E_COORD97":170897.94,"N_COORD97":2543707.3300000001,"ADDRESS":"怡東路８６巷３號五樓","OBJECTID":381688},"geometry":{"x":170897.94000000134,"y":2543707.3300000019}},{"attributes":{"ID":381699,"DIS_CODE":0,"TOWNNAME":"東區","LI":"東明里","LIN":"9鄰","STREET":"怡東路","SECT":" ","MAREA":" ","LANE":"８６巷","ALLEY":" ","HOUSE_NO":"３號四樓","E_COORD97":170897.94,"N_COORD97":2543707.3300000001,"ADDRESS":"怡東路８６巷３號四樓","OBJECTID":381689},"geometry":{"x":170897.94000000134,"y":2543707.3300000019}},{"attributes":{"ID":381700,"DIS_CODE":0,"TOWNNAME":"東區","LI":"東明里","LIN":"9鄰","STREET":"怡東路","SECT":" ","MAREA":" ","LANE":"８６巷","ALLEY":" ","HOUSE_NO":"５號三樓","E_COORD97":170905.07000000001,"N_COORD97":2543707.3300000001,"ADDRESS":"怡東路８６巷５號三樓","OBJECTID":381690},"geometry":{"x":170905.07000000216,"y":2543707.3300000019}},{"attributes":{"ID":381701,"DIS_CODE":0,"TOWNNAME":"東區","LI":"東明里","LIN":"9鄰","STREET":"怡東路","SECT":" ","MAREA":" ","LANE":"８６巷","ALLEY":" ","HOUSE_NO":"５號五樓","E_COORD97":170905.07000000001,"N_COORD97":2543707.3300000001,"ADDRESS":"怡東路８６巷５號五樓","OBJECTID":381691},"geometry":{"x":170905.07000000216,"y":2543707.3300000019}},{"attributes":{"ID":381702,"DIS_CODE":0,"TOWNNAME":"東區","LI":"東明里","LIN":"9鄰","STREET":"怡東路","SECT":" ","MAREA":" ","LANE":"８６巷","ALLEY":" ","HOUSE_NO":"５號四樓","E_COORD97":170905.07000000001,"N_COORD97":2543707.3300000001,"ADDRESS":"怡東路８６巷５號四樓","OBJECTID":381692},"geometry":{"x":170905.07000000216,"y":2543707.3300000019}},{"attributes":{"ID":381703,"DIS_CODE":0,"TOWNNAME":"東區","LI":"東明里","LIN":"9鄰","STREET":"怡東路","SECT":" ","MAREA":" ","LANE":"８６巷","ALLEY":" ","HOUSE_NO":"７號二樓","E_COORD97":170911.28,"N_COORD97":2543706.5699999998,"ADDRESS":"怡東路８６巷７號二樓","OBJECTID":381693},"geometry":{"x":170911.28000000026,"y":2543706.5700000022}},{"attributes":{"ID":381704,"DIS_CODE":0,"TOWNNAME":"東區","LI":"東明里","LIN":"9鄰","STREET":"怡東路","SECT":" ","MAREA":" ","LANE":"８６巷","ALLEY":" ","HOUSE_NO":"７號三樓","E_COORD97":170911.28,"N_COORD97":2543706.5699999998,"ADDRESS":"怡東路８６巷７號三樓","OBJECTID":381694},"geometry":{"x":170911.28000000026,"y":2543706.5700000022}},{"attributes":{"ID":381705,"DIS_CODE":0,"TOWNNAME":"東區","LI":"東明里","LIN":"9鄰","STREET":"怡東路","SECT":" ","MAREA":" ","LANE":"８６巷","ALLEY":" ","HOUSE_NO":"７號五樓","E_COORD97":170911.28,"N_COORD97":2543706.5699999998,"ADDRESS":"怡東路８６巷７號五樓","OBJECTID":381695},"geometry":{"x":170911.28000000026,"y":2543706.5700000022}},{"attributes":{"ID":381706,"DIS_CODE":0,"TOWNNAME":"東區","LI":"東明里","LIN":"9鄰","STREET":"怡東路","SECT":" ","MAREA":" ","LANE":"８６巷","ALLEY":" ","HOUSE_NO":"７號四樓","E_COORD97":170911.28,"N_COORD97":2543706.5699999998,"ADDRESS":"怡東路８６巷７號四樓","OBJECTID":381696},"geometry":{"x":170911.28000000026,"y":2543706.5700000022}},{"attributes":{"ID":381707,"DIS_CODE":0,"TOWNNAME":"東區","LI":"東明里","LIN":"9鄰","STREET":"怡東路","SECT":" ","MAREA":" ","LANE":"８６巷","ALLEY":" ","HOUSE_NO":"９號二樓","E_COORD97":170919.16,"N_COORD97":2543705.0600000001,"ADDRESS":"怡東路８６巷９號二樓","OBJECTID":381697},"geometry":{"x":170919.16000000015,"y":2543705.0600000005}},{"attributes":{"ID":381708,"DIS_CODE":0,"TOWNNAME":"東區","LI":"東明里","LIN":"9鄰","STREET":"怡東路","SECT":" ","MAREA":" ","LANE":"８６巷","ALLEY":" ","HOUSE_NO":"９號三樓","E_COORD97":170919.16,"N_COORD97":2543705.0600000001,"ADDRESS":"怡東路８６巷９號三樓","OBJECTID":381698},"geometry":{"x":170919.16000000015,"y":2543705.0600000005}},{"attributes":{"ID":381709,"DIS_CODE":0,"TOWNNAME":"東區","LI":"東明里","LIN":"9鄰","STREET":"怡東路","SECT":" ","MAREA":" ","LANE":"８６巷","ALLEY":" ","HOUSE_NO":"９號五樓","E_COORD97":170919.16,"N_COORD97":2543705.0600000001,"ADDRESS":"怡東路８６巷９號五樓","OBJECTID":381699},"geometry":{"x":170919.16000000015,"y":2543705.0600000005}},{"attributes":{"ID":381710,"DIS_CODE":0,"TOWNNAME":"東區","LI":"東明里","LIN":"9鄰","STREET":"怡東路","SECT":" ","MAREA":" ","LANE":"８６巷","ALLEY":" ","HOUSE_NO":"９號四樓","E_COORD97":170919.16,"N_COORD97":2543705.0600000001,"ADDRESS":"怡東路８６巷９號四樓","OBJECTID":381700},"geometry":{"x":170919.16000000015,"y":2543705.0600000005}},{"attributes":{"ID":381711,"DIS_CODE":0,"TOWNNAME":"永康區","LI":"復華里","LIN":"9鄰","STREET":"復國二路","SECT":" ","MAREA":" ","LANE":"２１５巷","ALLEY":" ","HOUSE_NO":"３０號九樓之１","E_COORD97":172918.25,"N_COORD97":2546062.6000000001,"ADDRESS":"復國二路２１５巷３０號九樓之１","OBJECTID":381701},"geometry":{"x":172918.25000000093,"y":2546062.5999999996}},{"attributes":{"ID":381712,"DIS_CODE":0,"TOWNNAME":"永康區","LI":"復華里","LIN":"9鄰","STREET":"復國二路","SECT":" ","MAREA":" ","LANE":"２１５巷","ALLEY":" ","HOUSE_NO":"３２號五樓之１","E_COORD97":172914,"N_COORD97":2546065.1000000001,"ADDRESS":"復國二路２１５巷３２號五樓之１","OBJECTID":381702},"geometry":{"x":172914.00000000186,"y":2546065.1000000015}},{"attributes":{"ID":381713,"DIS_CODE":0,"TOWNNAME":"永康區","LI":"復華里","LIN":"9鄰","STREET":"復國二路","SECT":" ","MAREA":" ","LANE":"２１５巷","ALLEY":" ","HOUSE_NO":"３２號九樓之１","E_COORD97":172914,"N_COORD97":2546065.1000000001,"ADDRESS":"復國二路２１５巷３２號九樓之１","OBJECTID":381703},"geometry":{"x":172914.00000000186,"y":2546065.1000000015}},{"attributes":{"ID":381714,"DIS_CODE":0,"TOWNNAME":"永康區","LI":"復華里","LIN":"9鄰","STREET":"復國二路","SECT":" ","MAREA":" ","LANE":"２１５巷","ALLEY":" ","HOUSE_NO":"３０號十樓之１","E_COORD97":172918.25,"N_COORD97":2546062.6000000001,"ADDRESS":"復國二路２１５巷３０號十樓之１","OBJECTID":381704},"geometry":{"x":172918.25000000093,"y":2546062.5999999996}},{"attributes":{"ID":381715,"DIS_CODE":0,"TOWNNAME":"永康區","LI":"復華里","LIN":"9鄰","STREET":"復國二路","SECT":" ","MAREA":" ","LANE":"２１５巷","ALLEY":" ","HOUSE_NO":"３２號三樓之１","E_COORD97":172914,"N_COORD97":2546065.1000000001,"ADDRESS":"復國二路２１５巷３２號三樓之１","OBJECTID":381705},"geometry":{"x":172914.00000000186,"y":2546065.1000000015}},{"attributes":{"ID":381716,"DIS_CODE":0,"TOWNNAME":"東區","LI":"東明里","LIN":"9鄰","STREET":"怡東路","SECT":" ","MAREA":" ","LANE":"８６巷","ALLEY":" ","HOUSE_NO":"５號二樓","E_COORD97":170905.07000000001,"N_COORD97":2543707.3300000001,"ADDRESS":"怡東路８６巷５號二樓","OBJECTID":381706},"geometry":{"x":170905.07000000216,"y":2543707.3300000019}},{"attributes":{"ID":381717,"DIS_CODE":0,"TOWNNAME":"東區","LI":"東明里","LIN":"9鄰","STREET":"怡東路","SECT":" ","MAREA":" ","LANE":"８６巷","ALLEY":" ","HOUSE_NO":"１１號五樓","E_COORD97":170924.92999999999,"N_COORD97":2543704.6099999999,"ADDRESS":"怡東路８６巷１１號五樓","OBJECTID":381707},"geometry":{"x":170924.9299999997,"y":2543704.6100000013}},{"attributes":{"ID":381718,"DIS_CODE":0,"TOWNNAME":"東區","LI":"東明里","LIN":"9鄰","STREET":"怡東路","SECT":" ","MAREA":" ","LANE":"８６巷","ALLEY":" ","HOUSE_NO":"１３號二樓","E_COORD97":170933.26000000001,"N_COORD97":2543702.0299999998,"ADDRESS":"怡東路８６巷１３號二樓","OBJECTID":381708},"geometry":{"x":170933.25999999978,"y":2543702.0300000012}},{"attributes":{"ID":381719,"DIS_CODE":0,"TOWNNAME":"東區","LI":"東明里","LIN":"9鄰","STREET":"怡東路","SECT":" ","MAREA":" ","LANE":"８６巷","ALLEY":" ","HOUSE_NO":"１３號五樓","E_COORD97":170933.26000000001,"N_COORD97":2543702.0299999998,"ADDRESS":"怡東路８６巷１３號五樓","OBJECTID":381709},"geometry":{"x":170933.25999999978,"y":2543702.0300000012}},{"attributes":{"ID":381720,"DIS_CODE":0,"TOWNNAME":"東區","LI":"東明里","LIN":"9鄰","STREET":"怡東路","SECT":" ","MAREA":" ","LANE":"８６巷","ALLEY":" ","HOUSE_NO":"１５號五樓","E_COORD97":170939.32999999999,"N_COORD97":2543701.27,"ADDRESS":"怡東路８６巷１５號五樓","OBJECTID":381710},"geometry":{"x":170939.33000000101,"y":2543701.2700000014}},{"attributes":{"ID":381721,"DIS_CODE":0,"TOWNNAME":"中西區","LI":"建國里","LIN":"9鄰","STREET":"民生路","SECT":"一段","MAREA":" ","LANE":"２０５巷","ALLEY":" ","HOUSE_NO":"７號一樓之１","E_COORD97":167935.51999999999,"N_COORD97":2543829.8300000001,"ADDRESS":"民生路一段２０５巷７號一樓之１","OBJECTID":381711},"geometry":{"x":167935.52000000048,"y":2543829.8300000019}},{"attributes":{"ID":381722,"DIS_CODE":0,"TOWNNAME":"中西區","LI":"建國里","LIN":"9鄰","STREET":"民生路","SECT":"一段","MAREA":" ","LANE":"２０５巷","ALLEY":" ","HOUSE_NO":"７號一樓之２","E_COORD97":167938.67000000001,"N_COORD97":2543828.5499999998,"ADDRESS":"民生路一段２０５巷７號一樓之２","OBJECTID":381712},"geometry":{"x":167938.66999999993,"y":2543828.5500000026}},{"attributes":{"ID":381723,"DIS_CODE":0,"TOWNNAME":"中西區","LI":"建國里","LIN":"9鄰","STREET":"民生路","SECT":"一段","MAREA":" ","LANE":"２０５巷","ALLEY":" ","HOUSE_NO":"７號一樓之３","E_COORD97":167942.25,"N_COORD97":2543826.9700000002,"ADDRESS":"民生路一段２０５巷７號一樓之３","OBJECTID":381713},"geometry":{"x":167942.25000000093,"y":2543826.9700000007}},{"attributes":{"ID":381724,"DIS_CODE":0,"TOWNNAME":"中西區","LI":"建國里","LIN":"9鄰","STREET":"民生路","SECT":"一段","MAREA":" ","LANE":"２０５巷","ALLEY":" ","HOUSE_NO":"７號一樓之４","E_COORD97":167946.82000000001,"N_COORD97":2543824.1200000001,"ADDRESS":"民生路一段２０５巷７號一樓之４","OBJECTID":381714},"geometry":{"x":167946.8200000003,"y":2543824.120000001}},{"attributes":{"ID":381725,"DIS_CODE":0,"TOWNNAME":"中西區","LI":"建國里","LIN":"9鄰","STREET":"民生路","SECT":"一段","MAREA":" ","LANE":"２０５巷","ALLEY":" ","HOUSE_NO":"７號一樓之５","E_COORD97":167951.69,"N_COORD97":2543822.1200000001,"ADDRESS":"民生路一段２０５巷７號一樓之５","OBJECTID":381715},"geometry":{"x":167951.69000000134,"y":2543822.1200000029}},{"attributes":{"ID":381726,"DIS_CODE":0,"TOWNNAME":"中西區","LI":"建國里","LIN":"9鄰","STREET":"民生路","SECT":"一段","MAREA":" ","LANE":"２０５巷","ALLEY":" ","HOUSE_NO":"７號一樓之６","E_COORD97":167955.12,"N_COORD97":2543820.3999999999,"ADDRESS":"民生路一段２０５巷７號一樓之６","OBJECTID":381716},"geometry":{"x":167955.12000000104,"y":2543820.4000000004}},{"attributes":{"ID":381727,"DIS_CODE":0,"TOWNNAME":"中西區","LI":"建國里","LIN":"9鄰","STREET":"民生路","SECT":"一段","MAREA":" ","LANE":"２０５巷","ALLEY":" ","HOUSE_NO":"７號四樓之７","E_COORD97":167955.12,"N_COORD97":2543820.3999999999,"ADDRESS":"民生路一段２０５巷７號四樓之７","OBJECTID":381717},"geometry":{"x":167955.12000000104,"y":2543820.4000000004}},{"attributes":{"ID":381728,"DIS_CODE":0,"TOWNNAME":"永康區","LI":"復華里","LIN":"9鄰","STREET":"復國二路","SECT":" ","MAREA":" ","LANE":"２１５巷","ALLEY":" ","HOUSE_NO":"３２號八樓之２","E_COORD97":172914.13,"N_COORD97":2546065.1000000001,"ADDRESS":"復國二路２１５巷３２號八樓之２","OBJECTID":381718},"geometry":{"x":172914.12999999989,"y":2546065.1000000015}},{"attributes":{"ID":381729,"DIS_CODE":0,"TOWNNAME":"永康區","LI":"復華里","LIN":"9鄰","STREET":"復國二路","SECT":" ","MAREA":" ","LANE":"２１５巷","ALLEY":" ","HOUSE_NO":"３６號三樓之３","E_COORD97":172910.5,"N_COORD97":2546067.8500000001,"ADDRESS":"復國二路２１５巷３６號三樓之３","OBJECTID":381719},"geometry":{"x":172910.5,"y":2546067.8499999996}},{"attributes":{"ID":381730,"DIS_CODE":0,"TOWNNAME":"永康區","LI":"復華里","LIN":"9鄰","STREET":"復國二路","SECT":" ","MAREA":" ","LANE":"２１５巷","ALLEY":" ","HOUSE_NO":"３６號十樓之２","E_COORD97":172910.54000000001,"N_COORD97":2546067.8500000001,"ADDRESS":"復國二路２１５巷３６號十樓之２","OBJECTID":381720},"geometry":{"x":172910.5400000019,"y":2546067.8499999996}},{"attributes":{"ID":381731,"DIS_CODE":0,"TOWNNAME":"永康區","LI":"復華里","LIN":"9鄰","STREET":"復國二路","SECT":" ","MAREA":" ","LANE":"２１５巷","ALLEY":" ","HOUSE_NO":"３６號三樓之１","E_COORD97":172910.41,"N_COORD97":2546067.8500000001,"ADDRESS":"復國二路２１５巷３６號三樓之１","OBJECTID":381721},"geometry":{"x":172910.41000000108,"y":2546067.8499999996}},{"attributes":{"ID":381732,"DIS_CODE":0,"TOWNNAME":"永康區","LI":"復華里","LIN":"9鄰","STREET":"復國二路","SECT":" ","MAREA":" ","LANE":"２１５巷","ALLEY":" ","HOUSE_NO":"３２號四樓之２","E_COORD97":172914.13,"N_COORD97":2546065.1000000001,"ADDRESS":"復國二路２１５巷３２號四樓之２","OBJECTID":381722},"geometry":{"x":172914.12999999989,"y":2546065.1000000015}},{"attributes":{"ID":381733,"DIS_CODE":0,"TOWNNAME":"永康區","LI":"復華里","LIN":"9鄰","STREET":"復國二路","SECT":" ","MAREA":" ","LANE":"２１５巷","ALLEY":" ","HOUSE_NO":"３６號九樓之１","E_COORD97":172910.41,"N_COORD97":2546067.8500000001,"ADDRESS":"復國二路２１５巷３６號九樓之１","OBJECTID":381723},"geometry":{"x":172910.41000000108,"y":2546067.8499999996}},{"attributes":{"ID":381734,"DIS_CODE":0,"TOWNNAME":"永康區","LI":"復華里","LIN":"9鄰","STREET":"復國二路","SECT":" ","MAREA":" ","LANE":"２１５巷","ALLEY":" ","HOUSE_NO":"３０號十一樓之１","E_COORD97":172919.5,"N_COORD97":2546062.6000000001,"ADDRESS":"復國二路２１５巷３０號十一樓之１","OBJECTID":381724},"geometry":{"x":172919.50000000093,"y":2546062.5999999996}},{"attributes":{"ID":381735,"DIS_CODE":0,"TOWNNAME":"永康區","LI":"復華里","LIN":"9鄰","STREET":"復國二路","SECT":" ","MAREA":" ","LANE":"２１５巷","ALLEY":" ","HOUSE_NO":"３０號十一樓之２","E_COORD97":172919.63,"N_COORD97":2546062.6000000001,"ADDRESS":"復國二路２１５巷３０號十一樓之２","OBJECTID":381725},"geometry":{"x":172919.62999999989,"y":2546062.5999999996}},{"attributes":{"ID":381736,"DIS_CODE":0,"TOWNNAME":"永康區","LI":"復華里","LIN":"9鄰","STREET":"復國二路","SECT":" ","MAREA":" ","LANE":"２１５巷","ALLEY":" ","HOUSE_NO":"３６號四樓之３","E_COORD97":172910.5,"N_COORD97":2546067.8500000001,"ADDRESS":"復國二路２１５巷３６號四樓之３","OBJECTID":381726},"geometry":{"x":172910.5,"y":2546067.8499999996}},{"attributes":{"ID":381737,"DIS_CODE":0,"TOWNNAME":"永康區","LI":"復華里","LIN":"9鄰","STREET":"復國二路","SECT":" ","MAREA":" ","LANE":"２１５巷","ALLEY":" ","HOUSE_NO":"３０號六樓之１","E_COORD97":172918.25,"N_COORD97":2546062.6000000001,"ADDRESS":"復國二路２１５巷３０號六樓之１","OBJECTID":381727},"geometry":{"x":172918.25000000093,"y":2546062.5999999996}},{"attributes":{"ID":381738,"DIS_CODE":0,"TOWNNAME":"永康區","LI":"復華里","LIN":"9鄰","STREET":"復國二路","SECT":" ","MAREA":" ","LANE":"２１５巷","ALLEY":" ","HOUSE_NO":"３６號四樓之１","E_COORD97":172910.41,"N_COORD97":2546067.8500000001,"ADDRESS":"復國二路２１５巷３６號四樓之１","OBJECTID":381728},"geometry":{"x":172910.41000000108,"y":2546067.8499999996}},{"attributes":{"ID":381739,"DIS_CODE":0,"TOWNNAME":"永康區","LI":"復國里","LIN":"9鄰","STREET":"復國一路","SECT":" ","MAREA":" ","LANE":"２１０巷","ALLEY":" ","HOUSE_NO":"３３號","E_COORD97":172790.85000000001,"N_COORD97":2545235.02,"ADDRESS":"復國一路２１０巷３３號","OBJECTID":381729},"geometry":{"x":172790.8499999987,"y":2545235.0200000014}},{"attributes":{"ID":381740,"DIS_CODE":0,"TOWNNAME":"永康區","LI":"復國里","LIN":"9鄰","STREET":"復國一路","SECT":" ","MAREA":" ","LANE":"２１０巷","ALLEY":" ","HOUSE_NO":"１８號","E_COORD97":172803.09,"N_COORD97":2545196.0600000001,"ADDRESS":"復國一路２１０巷１８號","OBJECTID":381730},"geometry":{"x":172803.09000000171,"y":2545196.0600000005}},{"attributes":{"ID":381741,"DIS_CODE":0,"TOWNNAME":"永康區","LI":"復國里","LIN":"9鄰","STREET":"復國一路","SECT":" ","MAREA":" ","LANE":"２１０巷","ALLEY":" ","HOUSE_NO":"３７號","E_COORD97":172785.76000000001,"N_COORD97":2545213.6699999999,"ADDRESS":"復國一路２１０巷３７號","OBJECTID":381731},"geometry":{"x":172785.76000000071,"y":2545213.6700000018}},{"attributes":{"ID":381742,"DIS_CODE":0,"TOWNNAME":"永康區","LI":"復國里","LIN":"9鄰","STREET":"復國一路","SECT":" ","MAREA":" ","LANE":"２１０巷","ALLEY":" ","HOUSE_NO":"４３號","E_COORD97":172798.01000000001,"N_COORD97":2545212.4199999999,"ADDRESS":"復國一路２１０巷４３號","OBJECTID":381732},"geometry":{"x":172798.00999999978,"y":2545212.4200000018}},{"attributes":{"ID":381743,"DIS_CODE":0,"TOWNNAME":"永康區","LI":"勝利里","LIN":"9鄰","STREET":"勝利街","SECT":" ","MAREA":" ","LANE":"５１巷","ALLEY":" ","HOUSE_NO":"２號","E_COORD97":171311.67999999999,"N_COORD97":2544667.0099999998,"ADDRESS":"勝利街５１巷２號","OBJECTID":381733},"geometry":{"x":171311.6799999997,"y":2544667.0099999998}},{"attributes":{"ID":381744,"DIS_CODE":0,"TOWNNAME":"永康區","LI":"復國里","LIN":"9鄰","STREET":"復國一路","SECT":" ","MAREA":" ","LANE":"２１０巷","ALLEY":" ","HOUSE_NO":"１９號","E_COORD97":172777.19,"N_COORD97":2545245.02,"ADDRESS":"復國一路２１０巷１９號","OBJECTID":381734},"geometry":{"x":172777.19000000041,"y":2545245.0200000014}},{"attributes":{"ID":381745,"DIS_CODE":0,"TOWNNAME":"永康區","LI":"復國里","LIN":"9鄰","STREET":"復國一路","SECT":" ","MAREA":" ","LANE":"２１０巷","ALLEY":" ","HOUSE_NO":"５７號","E_COORD97":172825.26000000001,"N_COORD97":2545210.9300000002,"ADDRESS":"復國一路２１０巷５７號","OBJECTID":381735},"geometry":{"x":172825.25999999978,"y":2545210.9300000034}},{"attributes":{"ID":381746,"DIS_CODE":0,"TOWNNAME":"永康區","LI":"復國里","LIN":"9鄰","STREET":"復國一路","SECT":" ","MAREA":" ","LANE":"２１０巷","ALLEY":" ","HOUSE_NO":"１６號","E_COORD97":172796.54999999999,"N_COORD97":2545196.3100000001,"ADDRESS":"復國一路２１０巷１６號","OBJECTID":381736},"geometry":{"x":172796.55000000168,"y":2545196.3100000024}},{"attributes":{"ID":381747,"DIS_CODE":0,"TOWNNAME":"永康區","LI":"復國里","LIN":"9鄰","STREET":"復國一路","SECT":" ","MAREA":" ","LANE":"２１０巷","ALLEY":" ","HOUSE_NO":"３５號","E_COORD97":172790.10000000001,"N_COORD97":2545231.02,"ADDRESS":"復國一路２１０巷３５號","OBJECTID":381737},"geometry":{"x":172790.09999999963,"y":2545231.0200000014}},{"attributes":{"ID":381748,"DIS_CODE":0,"TOWNNAME":"永康區","LI":"復國里","LIN":"9鄰","STREET":"復國一路","SECT":" ","MAREA":" ","LANE":"２１０巷","ALLEY":" ","HOUSE_NO":"２０號","E_COORD97":172809.64000000001,"N_COORD97":2545195.3100000001,"ADDRESS":"復國一路２１０巷２０號","OBJECTID":381738},"geometry":{"x":172809.6400000006,"y":2545195.3100000005}},{"attributes":{"ID":381749,"DIS_CODE":0,"TOWNNAME":"永康區","LI":"復國里","LIN":"9鄰","STREET":"復國一路","SECT":" ","MAREA":" ","LANE":"２１０巷","ALLEY":" ","HOUSE_NO":"４１號","E_COORD97":172794.22,"N_COORD97":2545212.9100000001,"ADDRESS":"復國一路２１０巷４１號","OBJECTID":381739},"geometry":{"x":172794.22000000067,"y":2545212.910000002}},{"attributes":{"ID":381750,"DIS_CODE":0,"TOWNNAME":"永康區","LI":"大橋里","LIN":"9鄰","STREET":"大橋三街","SECT":" ","MAREA":" ","LANE":"２６１巷","ALLEY":" ","HOUSE_NO":"１４號","E_COORD97":171040.60999999999,"N_COORD97":2546933,"ADDRESS":"大橋三街２６１巷１４號","OBJECTID":381740},"geometry":{"x":171040.6100000022,"y":2546932.9999999981}},{"attributes":{"ID":381751,"DIS_CODE":0,"TOWNNAME":"永康區","LI":"大橋里","LIN":"9鄰","STREET":"大橋一街","SECT":" ","MAREA":" ","LANE":"２４７巷","ALLEY":" ","HOUSE_NO":"１６１號","E_COORD97":171041.19,"N_COORD97":2547010.25,"ADDRESS":"大橋一街２４７巷１６１號","OBJECTID":381741},"geometry":{"x":171041.19000000041,"y":2547010.2500000019}},{"attributes":{"ID":381752,"DIS_CODE":0,"TOWNNAME":"永康區","LI":"大橋里","LIN":"9鄰","STREET":"大橋一街","SECT":" ","MAREA":" ","LANE":"２４７巷","ALLEY":" ","HOUSE_NO":"１５７號","E_COORD97":171054.03,"N_COORD97":2546999.0899999999,"ADDRESS":"大橋一街２４７巷１５７號","OBJECTID":381742},"geometry":{"x":171054.03000000026,"y":2546999.0899999999}},{"attributes":{"ID":381753,"DIS_CODE":0,"TOWNNAME":"永康區","LI":"大橋里","LIN":"9鄰","STREET":"大橋一街","SECT":" ","MAREA":" ","LANE":"２４７巷","ALLEY":" ","HOUSE_NO":"１４５號","E_COORD97":171064.25,"N_COORD97":2546980.5299999998,"ADDRESS":"大橋一街２４７巷１４５號","OBJECTID":381743},"geometry":{"x":171064.25,"y":2546980.5300000012}},{"attributes":{"ID":381754,"DIS_CODE":0,"TOWNNAME":"永康區","LI":"大橋里","LIN":"9鄰","STREET":"大橋一街","SECT":" ","MAREA":" ","LANE":"２４７巷","ALLEY":" ","HOUSE_NO":"１３０號","E_COORD97":171072.94,"N_COORD97":2547009.9900000002,"ADDRESS":"大橋一街２４７巷１３０號","OBJECTID":381744},"geometry":{"x":171072.94000000134,"y":2547009.9900000002}},{"attributes":{"ID":381755,"DIS_CODE":0,"TOWNNAME":"仁德區","LI":"仁德里","LIN":"9鄰","STREET":"仁德二街","SECT":" ","MAREA":" ","LANE":"２７巷","ALLEY":" ","HOUSE_NO":"３號","E_COORD97":173251.64000000001,"N_COORD97":2541045.52,"ADDRESS":"仁德二街２７巷３號","OBJECTID":381745},"geometry":{"x":173251.63999999966,"y":2541045.5199999996}},{"attributes":{"ID":381756,"DIS_CODE":0,"TOWNNAME":"中西區","LI":"文賢里","LIN":"9鄰","STREET":"和善街","SECT":" ","MAREA":" ","LANE":"９１巷","ALLEY":" ","HOUSE_NO":"５２號","E_COORD97":166844.35999999999,"N_COORD97":2544680.9300000002,"ADDRESS":"和善街９１巷５２號","OBJECTID":381746},"geometry":{"x":166844.36000000034,"y":2544680.9299999997}},{"attributes":{"ID":381757,"DIS_CODE":0,"TOWNNAME":"中西區","LI":"文賢里","LIN":"9鄰","STREET":"和善街","SECT":" ","MAREA":" ","LANE":"９１巷","ALLEY":" ","HOUSE_NO":"４２號","E_COORD97":166865.39000000001,"N_COORD97":2544696.2999999998,"ADDRESS":"和善街９１巷４２號","OBJECTID":381747},"geometry":{"x":166865.38999999966,"y":2544696.3000000007}},{"attributes":{"ID":381758,"DIS_CODE":0,"TOWNNAME":"善化區","LI":"光文里","LIN":"9鄰","STREET":"民生路","SECT":" ","MAREA":" ","LANE":"２２巷","ALLEY":" ","HOUSE_NO":"１號","E_COORD97":178859.59,"N_COORD97":2559049.6800000002,"ADDRESS":"民生路２２巷１號","OBJECTID":381748},"geometry":{"x":178859.58999999985,"y":2559049.6800000016}},{"attributes":{"ID":381759,"DIS_CODE":0,"TOWNNAME":"善化區","LI":"光文里","LIN":"9鄰","STREET":"民生路","SECT":" ","MAREA":" ","LANE":"２２巷","ALLEY":" ","HOUSE_NO":"２號","E_COORD97":178871.60999999999,"N_COORD97":2559051.9900000002,"ADDRESS":"民生路２２巷２號","OBJECTID":381749},"geometry":{"x":178871.61000000034,"y":2559051.9900000021}},{"attributes":{"ID":381760,"DIS_CODE":0,"TOWNNAME":"善化區","LI":"光文里","LIN":"9鄰","STREET":"民生路","SECT":" ","MAREA":" ","LANE":"２２巷","ALLEY":" ","HOUSE_NO":"３號","E_COORD97":178858.59,"N_COORD97":2559055.6400000001,"ADDRESS":"民生路２２巷３號","OBJECTID":381750},"geometry":{"x":178858.59000000078,"y":2559055.6400000006}},{"attributes":{"ID":381761,"DIS_CODE":0,"TOWNNAME":"善化區","LI":"光文里","LIN":"9鄰","STREET":"民生路","SECT":" ","MAREA":" ","LANE":"２２巷","ALLEY":" ","HOUSE_NO":"５號","E_COORD97":178857.51000000001,"N_COORD97":2559061.9100000001,"ADDRESS":"民生路２２巷５號","OBJECTID":381751},"geometry":{"x":178857.51000000071,"y":2559061.910000002}},{"attributes":{"ID":381762,"DIS_CODE":0,"TOWNNAME":"善化區","LI":"光文里","LIN":"9鄰","STREET":"民生路","SECT":" ","MAREA":" ","LANE":"２２巷","ALLEY":" ","HOUSE_NO":"６號","E_COORD97":178870.87,"N_COORD97":2559056.71,"ADDRESS":"民生路２２巷６號","OBJECTID":381752},"geometry":{"x":178870.87000000104,"y":2559056.7100000046}},{"attributes":{"ID":381763,"DIS_CODE":0,"TOWNNAME":"善化區","LI":"光文里","LIN":"9鄰","STREET":"民生路","SECT":" ","MAREA":" ","LANE":"２２巷","ALLEY":" ","HOUSE_NO":"７號","E_COORD97":178856.45000000001,"N_COORD97":2559068.25,"ADDRESS":"民生路２２巷７號","OBJECTID":381753},"geometry":{"x":178856.45000000112,"y":2559068.25}},{"attributes":{"ID":381764,"DIS_CODE":0,"TOWNNAME":"善化區","LI":"光文里","LIN":"9鄰","STREET":"民生路","SECT":" ","MAREA":" ","LANE":"２２巷","ALLEY":" ","HOUSE_NO":"１０號","E_COORD97":178870.01999999999,"N_COORD97":2559066.02,"ADDRESS":"民生路２２巷１０號","OBJECTID":381754},"geometry":{"x":178870.01999999955,"y":2559066.0199999996}},{"attributes":{"ID":381765,"DIS_CODE":0,"TOWNNAME":"善化區","LI":"光文里","LIN":"9鄰","STREET":"民生路","SECT":" ","MAREA":" ","LANE":"３６巷","ALLEY":" ","HOUSE_NO":"３號","E_COORD97":178804.69,"N_COORD97":2559033.6699999999,"ADDRESS":"民生路３６巷３號","OBJECTID":381755},"geometry":{"x":178804.69000000134,"y":2559033.6700000018}},{"attributes":{"ID":381766,"DIS_CODE":0,"TOWNNAME":"善化區","LI":"光文里","LIN":"9鄰","STREET":"民生路","SECT":" ","MAREA":" ","LANE":"３６巷","ALLEY":" ","HOUSE_NO":"５號","E_COORD97":178803.78,"N_COORD97":2559038.5499999998,"ADDRESS":"民生路３６巷５號","OBJECTID":381756},"geometry":{"x":178803.78000000119,"y":2559038.5500000026}},{"attributes":{"ID":381767,"DIS_CODE":0,"TOWNNAME":"善化區","LI":"光文里","LIN":"9鄰","STREET":"民生路","SECT":" ","MAREA":" ","LANE":"３６巷","ALLEY":" ","HOUSE_NO":"６號","E_COORD97":178802.76999999999,"N_COORD97":2559043.98,"ADDRESS":"民生路３６巷６號","OBJECTID":381757},"geometry":{"x":178802.77000000048,"y":2559043.9799999986}},{"attributes":{"ID":381768,"DIS_CODE":0,"TOWNNAME":"善化區","LI":"光文里","LIN":"9鄰","STREET":"民生路","SECT":" ","MAREA":" ","LANE":"３６巷","ALLEY":" ","HOUSE_NO":"７號","E_COORD97":178802.23999999999,"N_COORD97":2559048.7400000002,"ADDRESS":"民生路３６巷７號","OBJECTID":381758},"geometry":{"x":178802.24000000115,"y":2559048.7400000002}},{"attributes":{"ID":381769,"DIS_CODE":0,"TOWNNAME":"善化區","LI":"光文里","LIN":"9鄰","STREET":"民生路","SECT":" ","MAREA":" ","LANE":"３６巷","ALLEY":" ","HOUSE_NO":"８號","E_COORD97":178801.17999999999,"N_COORD97":2559053.9399999999,"ADDRESS":"民生路３６巷８號","OBJECTID":381759},"geometry":{"x":178801.1799999997,"y":2559053.9400000013}},{"attributes":{"ID":381770,"DIS_CODE":0,"TOWNNAME":"善化區","LI":"光文里","LIN":"9鄰","STREET":"民權路","SECT":" ","MAREA":" ","LANE":"１３巷","ALLEY":" ","HOUSE_NO":"１號","E_COORD97":178838.92000000001,"N_COORD97":2559071.5299999998,"ADDRESS":"民權路１３巷１號","OBJECTID":381760},"geometry":{"x":178838.91999999993,"y":2559071.5300000012}},{"attributes":{"ID":381771,"DIS_CODE":0,"TOWNNAME":"善化區","LI":"光文里","LIN":"9鄰","STREET":"民權路","SECT":" ","MAREA":" ","LANE":"１３巷","ALLEY":" ","HOUSE_NO":"２號","E_COORD97":178830.85000000001,"N_COORD97":2559070.8300000001,"ADDRESS":"民權路１３巷２號","OBJECTID":381761},"geometry":{"x":178830.85000000149,"y":2559070.8300000001}},{"attributes":{"ID":381772,"DIS_CODE":0,"TOWNNAME":"善化區","LI":"光文里","LIN":"9鄰","STREET":"民權路","SECT":" ","MAREA":" ","LANE":"１３巷","ALLEY":" ","HOUSE_NO":"３號","E_COORD97":178839.67000000001,"N_COORD97":2559065.3799999999,"ADDRESS":"民權路１３巷３號","OBJECTID":381762},"geometry":{"x":178839.67000000086,"y":2559065.379999999}},{"attributes":{"ID":381773,"DIS_CODE":0,"TOWNNAME":"善化區","LI":"光文里","LIN":"9鄰","STREET":"民權路","SECT":" ","MAREA":" ","LANE":"１３巷","ALLEY":" ","HOUSE_NO":"６號","E_COORD97":178831.60000000001,"N_COORD97":2559064.6800000002,"ADDRESS":"民權路１３巷６號","OBJECTID":381763},"geometry":{"x":178831.60000000056,"y":2559064.6799999997}},{"attributes":{"ID":381774,"DIS_CODE":0,"TOWNNAME":"善化區","LI":"光文里","LIN":"9鄰","STREET":"成功路","SECT":" ","MAREA":" ","LANE":"２６６巷","ALLEY":" ","HOUSE_NO":"３０號","E_COORD97":179115.92000000001,"N_COORD97":2558941.3900000001,"ADDRESS":"成功路２６６巷３０號","OBJECTID":381764},"geometry":{"x":179115.92000000086,"y":2558941.3900000025}},{"attributes":{"ID":381775,"DIS_CODE":0,"TOWNNAME":"善化區","LI":"光文里","LIN":"9鄰","STREET":"成功路","SECT":" ","MAREA":" ","LANE":"２６６巷","ALLEY":" ","HOUSE_NO":"３２號","E_COORD97":179104.06,"N_COORD97":2558942.5899999999,"ADDRESS":"成功路２６６巷３２號","OBJECTID":381765},"geometry":{"x":179104.06000000145,"y":2558942.5900000017}},{"attributes":{"ID":381776,"DIS_CODE":0,"TOWNNAME":"善化區","LI":"光文里","LIN":"9鄰","STREET":"成功路","SECT":" ","MAREA":" ","LANE":"２６６巷","ALLEY":" ","HOUSE_NO":"３６號","E_COORD97":179091.69,"N_COORD97":2558933.2999999998,"ADDRESS":"成功路２６６巷３６號","OBJECTID":381766},"geometry":{"x":179091.69000000041,"y":2558933.3000000007}},{"attributes":{"ID":381777,"DIS_CODE":0,"TOWNNAME":"善化區","LI":"光文里","LIN":"9鄰","STREET":"成功路","SECT":" ","MAREA":" ","LANE":"２６６巷","ALLEY":" ","HOUSE_NO":"３８號","E_COORD97":179078.73000000001,"N_COORD97":2558931.6899999999,"ADDRESS":"成功路２６６巷３８號","OBJECTID":381767},"geometry":{"x":179078.73000000138,"y":2558931.6899999995}},{"attributes":{"ID":381778,"DIS_CODE":0,"TOWNNAME":"中西區","LI":"保安里","LIN":"9鄰","STREET":"友愛街","SECT":" ","MAREA":" ","LANE":"１４６巷","ALLEY":" ","HOUSE_NO":"１０號","E_COORD97":167752.07999999999,"N_COORD97":2543638.9900000002,"ADDRESS":"友愛街１４６巷１０號","OBJECTID":381768},"geometry":{"x":167752.08000000101,"y":2543638.9900000021}},{"attributes":{"ID":381779,"DIS_CODE":0,"TOWNNAME":"中西區","LI":"保安里","LIN":"9鄰","STREET":"友愛街","SECT":" ","MAREA":" ","LANE":"１４６巷","ALLEY":" ","HOUSE_NO":"１２號","E_COORD97":167752.07999999999,"N_COORD97":2543642.73,"ADDRESS":"友愛街１４６巷１２號","OBJECTID":381769},"geometry":{"x":167752.08000000101,"y":2543642.7300000004}},{"attributes":{"ID":381780,"DIS_CODE":0,"TOWNNAME":"中西區","LI":"保安里","LIN":"9鄰","STREET":"友愛街","SECT":" ","MAREA":" ","LANE":"１４６巷","ALLEY":" ","HOUSE_NO":"１４號","E_COORD97":167753.01999999999,"N_COORD97":2543646.1000000001,"ADDRESS":"友愛街１４６巷１４號","OBJECTID":381770},"geometry":{"x":167753.01999999955,"y":2543646.0999999996}},{"attributes":{"ID":381781,"DIS_CODE":0,"TOWNNAME":"中西區","LI":"保安里","LIN":"9鄰","STREET":"友愛街","SECT":" ","MAREA":" ","LANE":"１４６巷","ALLEY":" ","HOUSE_NO":"１６號","E_COORD97":167753.95999999999,"N_COORD97":2543649.46,"ADDRESS":"友愛街１４６巷１６號","OBJECTID":381771},"geometry":{"x":167753.95999999996,"y":2543649.4600000028}},{"attributes":{"ID":381782,"DIS_CODE":0,"TOWNNAME":"中西區","LI":"保安里","LIN":"9鄰","STREET":"友愛街","SECT":" ","MAREA":" ","LANE":"１４６巷","ALLEY":" ","HOUSE_NO":"１８號","E_COORD97":167754.32999999999,"N_COORD97":2543652.6400000001,"ADDRESS":"友愛街１４６巷１８號","OBJECTID":381772},"geometry":{"x":167754.33000000007,"y":2543652.6400000025}},{"attributes":{"ID":381783,"DIS_CODE":0,"TOWNNAME":"中西區","LI":"保安里","LIN":"9鄰","STREET":"友愛街","SECT":" ","MAREA":" ","LANE":"１４６巷","ALLEY":" ","HOUSE_NO":"２０號","E_COORD97":167755.45000000001,"N_COORD97":2543656.7599999998,"ADDRESS":"友愛街１４６巷２０號","OBJECTID":381773},"geometry":{"x":167755.45000000019,"y":2543656.7600000016}},{"attributes":{"ID":381784,"DIS_CODE":0,"TOWNNAME":"中西區","LI":"保安里","LIN":"9鄰","STREET":"友愛街","SECT":" ","MAREA":" ","LANE":"１４６巷","ALLEY":" ","HOUSE_NO":"２２號","E_COORD97":167756.01999999999,"N_COORD97":2543659.75,"ADDRESS":"友愛街１４６巷２２號","OBJECTID":381774},"geometry":{"x":167756.01999999955,"y":2543659.7500000037}},{"attributes":{"ID":381785,"DIS_CODE":0,"TOWNNAME":"中西區","LI":"保安里","LIN":"9鄰","STREET":"友愛街","SECT":" ","MAREA":" ","LANE":"１４６巷","ALLEY":" ","HOUSE_NO":"２４號","E_COORD97":167756.39000000001,"N_COORD97":2543662.7400000002,"ADDRESS":"友愛街１４６巷２４號","OBJECTID":381775},"geometry":{"x":167756.3900000006,"y":2543662.7400000002}},{"attributes":{"ID":381786,"DIS_CODE":0,"TOWNNAME":"中西區","LI":"保安里","LIN":"9鄰","STREET":"友愛街","SECT":" ","MAREA":" ","LANE":"１４６巷","ALLEY":" ","HOUSE_NO":"２６號","E_COORD97":167756.76000000001,"N_COORD97":2543665.5499999998,"ADDRESS":"友愛街１４６巷２６號","OBJECTID":381776},"geometry":{"x":167756.75999999978,"y":2543665.5500000045}},{"attributes":{"ID":381787,"DIS_CODE":0,"TOWNNAME":"中西區","LI":"保安里","LIN":"9鄰","STREET":"友愛街","SECT":" ","MAREA":" ","LANE":"１４６巷","ALLEY":" ","HOUSE_NO":"２８號","E_COORD97":167760.88,"N_COORD97":2543668.73,"ADDRESS":"友愛街１４６巷２８號","OBJECTID":381777},"geometry":{"x":167760.87999999989,"y":2543668.7300000023}},{"attributes":{"ID":381788,"DIS_CODE":0,"TOWNNAME":"中西區","LI":"保安里","LIN":"9鄰","STREET":"友愛街","SECT":" ","MAREA":" ","LANE":"１４６巷","ALLEY":" ","HOUSE_NO":"２號","E_COORD97":167749.28,"N_COORD97":2543627.29,"ADDRESS":"友愛街１４６巷２號","OBJECTID":381778},"geometry":{"x":167749.28000000119,"y":2543627.2899999991}},{"attributes":{"ID":381789,"DIS_CODE":0,"TOWNNAME":"中西區","LI":"保安里","LIN":"9鄰","STREET":"友愛街","SECT":" ","MAREA":" ","LANE":"１４６巷","ALLEY":" ","HOUSE_NO":"３０號","E_COORD97":167761.63,"N_COORD97":2543672.2799999998,"ADDRESS":"友愛街１４６巷３０號","OBJECTID":381779},"geometry":{"x":167761.63000000082,"y":2543672.2799999975}},{"attributes":{"ID":381790,"DIS_CODE":0,"TOWNNAME":"中西區","LI":"保安里","LIN":"9鄰","STREET":"友愛街","SECT":" ","MAREA":" ","LANE":"１４６巷","ALLEY":" ","HOUSE_NO":"４號","E_COORD97":167749.28,"N_COORD97":2543629.5299999998,"ADDRESS":"友愛街１４６巷４號","OBJECTID":381780},"geometry":{"x":167749.28000000119,"y":2543629.5299999993}},{"attributes":{"ID":381791,"DIS_CODE":0,"TOWNNAME":"中西區","LI":"保安里","LIN":"9鄰","STREET":"友愛街","SECT":" ","MAREA":" ","LANE":"１４６巷","ALLEY":" ","HOUSE_NO":"６號","E_COORD97":167750.39999999999,"N_COORD97":2543632.1499999999,"ADDRESS":"友愛街１４６巷６號","OBJECTID":381781},"geometry":{"x":167750.4000000013,"y":2543632.1500000004}},{"attributes":{"ID":381792,"DIS_CODE":0,"TOWNNAME":"中西區","LI":"保安里","LIN":"9鄰","STREET":"友愛街","SECT":" ","MAREA":" ","LANE":"１４６巷","ALLEY":" ","HOUSE_NO":"８號","E_COORD97":167750.95999999999,"N_COORD97":2543635.7000000002,"ADDRESS":"友愛街１４６巷８號","OBJECTID":381782},"geometry":{"x":167750.96000000089,"y":2543635.700000003}},{"attributes":{"ID":381793,"DIS_CODE":0,"TOWNNAME":"中西區","LI":"保安里","LIN":"9鄰","STREET":"中正路","SECT":" ","MAREA":" ","LANE":"１９３巷","ALLEY":" ","HOUSE_NO":"１號","E_COORD97":167766.5,"N_COORD97":2543692.3199999998,"ADDRESS":"中正路１９３巷１號","OBJECTID":381783},"geometry":{"x":167766.50000000093,"y":2543692.3200000003}},{"attributes":{"ID":381794,"DIS_CODE":0,"TOWNNAME":"中西區","LI":"保安里","LIN":"9鄰","STREET":"中正路","SECT":" ","MAREA":" ","LANE":"１９３巷","ALLEY":" ","HOUSE_NO":"３號","E_COORD97":167766.20000000001,"N_COORD97":2543689.2200000002,"ADDRESS":"中正路１９３巷３號","OBJECTID":381784},"geometry":{"x":167766.19999999925,"y":2543689.2200000025}},{"attributes":{"ID":381795,"DIS_CODE":0,"TOWNNAME":"中西區","LI":"保安里","LIN":"9鄰","STREET":"中正路","SECT":" ","MAREA":" ","LANE":"１９３巷","ALLEY":" ","HOUSE_NO":"５號","E_COORD97":167765.56,"N_COORD97":2543686.6800000002,"ADDRESS":"中正路１９３巷５號","OBJECTID":381785},"geometry":{"x":167765.56000000052,"y":2543686.6799999997}},{"attributes":{"ID":381796,"DIS_CODE":0,"TOWNNAME":"中西區","LI":"保安里","LIN":"9鄰","STREET":"中正路","SECT":" ","MAREA":" ","LANE":"１９３巷","ALLEY":" ","HOUSE_NO":"７號","E_COORD97":167764.95999999999,"N_COORD97":2543683.8700000001,"ADDRESS":"中正路１９３巷７號","OBJECTID":381786},"geometry":{"x":167764.96000000089,"y":2543683.8700000048}},{"attributes":{"ID":381797,"DIS_CODE":0,"TOWNNAME":"中西區","LI":"保安里","LIN":"9鄰","STREET":"中正路","SECT":" ","MAREA":" ","LANE":"１９３巷","ALLEY":" ","HOUSE_NO":"９號","E_COORD97":167764.20999999999,"N_COORD97":2543681.1400000001,"ADDRESS":"中正路１９３巷９號","OBJECTID":381787},"geometry":{"x":167764.20999999903,"y":2543681.1400000006}},{"attributes":{"ID":381798,"DIS_CODE":0,"TOWNNAME":"中西區","LI":"西賢里","LIN":"9鄰","STREET":"西賢一街","SECT":" ","MAREA":" ","LANE":"８８巷","ALLEY":" ","HOUSE_NO":"２５號","E_COORD97":165763.57000000001,"N_COORD97":2544644.9900000002,"ADDRESS":"西賢一街８８巷２５號","OBJECTID":381788},"geometry":{"x":165763.57000000216,"y":2544644.9900000039}},{"attributes":{"ID":381799,"DIS_CODE":0,"TOWNNAME":"中西區","LI":"西賢里","LIN":"9鄰","STREET":"西賢一街","SECT":" ","MAREA":" ","LANE":"８８巷","ALLEY":" ","HOUSE_NO":"２７號","E_COORD97":165768.76999999999,"N_COORD97":2544645.1299999999,"ADDRESS":"西賢一街８８巷２７號","OBJECTID":381789},"geometry":{"x":165768.77000000048,"y":2544645.129999999}},{"attributes":{"ID":381800,"DIS_CODE":0,"TOWNNAME":"中西區","LI":"西賢里","LIN":"9鄰","STREET":"西賢一街","SECT":" ","MAREA":" ","LANE":"８８巷","ALLEY":" ","HOUSE_NO":"２９號","E_COORD97":165799.04999999999,"N_COORD97":2544636.4300000002,"ADDRESS":"西賢一街８８巷２９號","OBJECTID":381790},"geometry":{"x":165799.05000000075,"y":2544636.4299999997}},{"attributes":{"ID":381801,"DIS_CODE":0,"TOWNNAME":"中西區","LI":"西賢里","LIN":"9鄰","STREET":"西賢一街","SECT":" ","MAREA":" ","LANE":"８８巷","ALLEY":" ","HOUSE_NO":"３１號","E_COORD97":165805.92999999999,"N_COORD97":2544636.6299999999,"ADDRESS":"西賢一街８８巷３１號","OBJECTID":381791},"geometry":{"x":165805.9299999997,"y":2544636.6300000008}},{"attributes":{"ID":381802,"DIS_CODE":0,"TOWNNAME":"中西區","LI":"西賢里","LIN":"9鄰","STREET":"西賢一街","SECT":" ","MAREA":" ","LANE":"８８巷","ALLEY":" ","HOUSE_NO":"３３號","E_COORD97":165810.17999999999,"N_COORD97":2544636.6299999999,"ADDRESS":"西賢一街８８巷３３號","OBJECTID":381792},"geometry":{"x":165810.18000000063,"y":2544636.6300000008}},{"attributes":{"ID":381803,"DIS_CODE":0,"TOWNNAME":"中西區","LI":"西賢里","LIN":"9鄰","STREET":"西賢一街","SECT":" ","MAREA":" ","LANE":"８８巷","ALLEY":" ","HOUSE_NO":"３５號","E_COORD97":165817.26999999999,"N_COORD97":2544636.6299999999,"ADDRESS":"西賢一街８８巷３５號","OBJECTID":381793},"geometry":{"x":165817.26999999862,"y":2544636.6300000008}},{"attributes":{"ID":381804,"DIS_CODE":0,"TOWNNAME":"中西區","LI":"西賢里","LIN":"9鄰","STREET":"西賢一街","SECT":" ","MAREA":" ","LANE":"８８巷","ALLEY":" ","HOUSE_NO":"３號","E_COORD97":165740.29000000001,"N_COORD97":2544628.8199999998,"ADDRESS":"西賢一街８８巷３號","OBJECTID":381794},"geometry":{"x":165740.29000000097,"y":2544628.8200000003}},{"attributes":{"ID":381805,"DIS_CODE":0,"TOWNNAME":"中西區","LI":"西賢里","LIN":"9鄰","STREET":"西賢一街","SECT":" ","MAREA":" ","LANE":"８８巷","ALLEY":" ","HOUSE_NO":"５號","E_COORD97":165752.73000000001,"N_COORD97":2544628.96,"ADDRESS":"西賢一街８８巷５號","OBJECTID":381795},"geometry":{"x":165752.73000000138,"y":2544628.9600000046}},{"attributes":{"ID":381806,"DIS_CODE":0,"TOWNNAME":"中西區","LI":"西賢里","LIN":"9鄰","STREET":"西賢一街","SECT":" ","MAREA":" ","LANE":"８８巷","ALLEY":" ","HOUSE_NO":"７號","E_COORD97":165758.35999999999,"N_COORD97":2544629.3999999999,"ADDRESS":"西賢一街８８巷７號","OBJECTID":381796},"geometry":{"x":165758.3600000022,"y":2544629.4000000022}},{"attributes":{"ID":381807,"DIS_CODE":0,"TOWNNAME":"中西區","LI":"西賢里","LIN":"9鄰","STREET":"西賢一街","SECT":" ","MAREA":" ","LANE":"８８巷","ALLEY":" ","HOUSE_NO":"９號","E_COORD97":165763.28,"N_COORD97":2544628.96,"ADDRESS":"西賢一街８８巷９號","OBJECTID":381797},"geometry":{"x":165763.28000000026,"y":2544628.9600000046}},{"attributes":{"ID":381808,"DIS_CODE":0,"TOWNNAME":"中西區","LI":"西賢里","LIN":"9鄰","STREET":"西賢一街","SECT":" ","MAREA":" ","LANE":"１１８巷","ALLEY":" ","HOUSE_NO":"１０號","E_COORD97":165744.32000000001,"N_COORD97":2544671.4900000002,"ADDRESS":"西賢一街１１８巷１０號","OBJECTID":381798},"geometry":{"x":165744.3200000003,"y":2544671.4900000002}},{"attributes":{"ID":381809,"DIS_CODE":0,"TOWNNAME":"中西區","LI":"西賢里","LIN":"9鄰","STREET":"西賢一街","SECT":" ","MAREA":" ","LANE":"１１８巷","ALLEY":" ","HOUSE_NO":"１２號","E_COORD97":165744.03,"N_COORD97":2544662.6800000002,"ADDRESS":"西賢一街１１８巷１２號","OBJECTID":381799},"geometry":{"x":165744.03000000119,"y":2544662.6799999997}},{"attributes":{"ID":381810,"DIS_CODE":0,"TOWNNAME":"中西區","LI":"西賢里","LIN":"9鄰","STREET":"西賢一街","SECT":" ","MAREA":" ","LANE":"１１８巷","ALLEY":" ","HOUSE_NO":"１６號","E_COORD97":165744.03,"N_COORD97":2544658.0600000001,"ADDRESS":"西賢一街１１８巷１６號","OBJECTID":381800},"geometry":{"x":165744.03000000119,"y":2544658.0600000005}}]}