{"displayFieldName":"TOWNNAME","fieldAliases":{"ID":"ID","DIS_CODE":"DIS_CODE","TOWNNAME":"TOWNNAME","LI":"LI","LIN":"LIN","STREET":"STREET","SECT":"SECT","MAREA":"MAREA","LANE":"LANE","ALLEY":"ALLEY","HOUSE_NO":"HOUSE_NO","E_COORD97":"E_COORD97","N_COORD97":"N_COORD97","ADDRESS":"ADDRESS","OBJECTID":"OBJECTID"},"geometryType":"esriGeometryPoint","spatialReference":{"wkid":102443,"latestWkid":3826},"fields":[{"name":"ID","type":"esriFieldTypeDouble","alias":"ID"},{"name":"DIS_CODE","type":"esriFieldTypeInteger","alias":"DIS_CODE"},{"name":"TOWNNAME","type":"esriFieldTypeString","alias":"TOWNNAME","length":8},{"name":"LI","type":"esriFieldTypeString","alias":"LI","length":8},{"name":"LIN","type":"esriFieldTypeString","alias":"LIN","length":12},{"name":"STREET","type":"esriFieldTypeString","alias":"STREET","length":20},{"name":"SECT","type":"esriFieldTypeString","alias":"SECT","length":8},{"name":"MAREA","type":"esriFieldTypeString","alias":"MAREA","length":12},{"name":"LANE","type":"esriFieldTypeString","alias":"LANE","length":10},{"name":"ALLEY","type":"esriFieldTypeString","alias":"ALLEY","length":10},{"name":"HOUSE_NO","type":"esriFieldTypeString","alias":"HOUSE_NO","length":20},{"name":"E_COORD97","type":"esriFieldTypeDouble","alias":"E_COORD97"},{"name":"N_COORD97","type":"esriFieldTypeDouble","alias":"N_COORD97"},{"name":"ADDRESS","type":"esriFieldTypeString","alias":"ADDRESS","length":50},{"name":"OBJECTID","type":"esriFieldTypeOID","alias":"OBJECTID"}],"features":[{"attributes":{"ID":142601,"DIS_CODE":0,"TOWNNAME":"永康區","LI":"復興里","LIN":"22鄰","STREET":"復興路","SECT":" ","MAREA":" ","LANE":"２４６巷","ALLEY":"１１弄","HOUSE_NO":"２６號","E_COORD97":172353.26999999999,"N_COORD97":2544443.1099999999,"ADDRESS":"復興路２４６巷１１弄２６號","OBJECTID":142601},"geometry":{"x":172353.26999999955,"y":2544443.1099999975}},{"attributes":{"ID":142602,"DIS_CODE":0,"TOWNNAME":"永康區","LI":"復國里","LIN":"22鄰","STREET":"復華六街","SECT":" ","MAREA":" ","LANE":"９３巷","ALLEY":"２０弄","HOUSE_NO":"１２號","E_COORD97":172577.16,"N_COORD97":2545802.3399999999,"ADDRESS":"復華六街９３巷２０弄１２號","OBJECTID":142602},"geometry":{"x":172577.16000000015,"y":2545802.3400000017}},{"attributes":{"ID":142603,"DIS_CODE":0,"TOWNNAME":"永康區","LI":"復國里","LIN":"22鄰","STREET":"復華六街","SECT":" ","MAREA":" ","LANE":"９３巷","ALLEY":"１１弄","HOUSE_NO":"１２號","E_COORD97":172644.23999999999,"N_COORD97":2545767.9900000002,"ADDRESS":"復華六街９３巷１１弄１２號","OBJECTID":142603},"geometry":{"x":172644.24000000022,"y":2545767.9900000021}},{"attributes":{"ID":142604,"DIS_CODE":0,"TOWNNAME":"永康區","LI":"復國里","LIN":"22鄰","STREET":"復華六街","SECT":" ","MAREA":" ","LANE":"９３巷","ALLEY":"２０弄","HOUSE_NO":"８號","E_COORD97":172585.41,"N_COORD97":2545801.8399999999,"ADDRESS":"復華六街９３巷２０弄８號","OBJECTID":142604},"geometry":{"x":172585.41000000015,"y":2545801.8400000036}},{"attributes":{"ID":142605,"DIS_CODE":0,"TOWNNAME":"永康區","LI":"復國里","LIN":"22鄰","STREET":"復華六街","SECT":" ","MAREA":" ","LANE":"９３巷","ALLEY":"１１弄","HOUSE_NO":"１１號","E_COORD97":172649.66,"N_COORD97":2545786.3500000001,"ADDRESS":"復華六街９３巷１１弄１１號","OBJECTID":142605},"geometry":{"x":172649.66000000015,"y":2545786.3499999996}},{"attributes":{"ID":142606,"DIS_CODE":0,"TOWNNAME":"永康區","LI":"復國里","LIN":"22鄰","STREET":"復華六街","SECT":" ","MAREA":" ","LANE":"９３巷","ALLEY":"１１弄","HOUSE_NO":"５號","E_COORD97":172636.26000000001,"N_COORD97":2545787.6000000001,"ADDRESS":"復華六街９３巷１１弄５號","OBJECTID":142606},"geometry":{"x":172636.26000000071,"y":2545787.6000000015}},{"attributes":{"ID":142607,"DIS_CODE":0,"TOWNNAME":"永康區","LI":"復國里","LIN":"22鄰","STREET":"復華六街","SECT":" ","MAREA":" ","LANE":"９３巷","ALLEY":"３４弄","HOUSE_NO":"２號","E_COORD97":172588.89999999999,"N_COORD97":2545749.8900000001,"ADDRESS":"復華六街９３巷３４弄２號","OBJECTID":142607},"geometry":{"x":172588.90000000037,"y":2545749.8900000006}},{"attributes":{"ID":142608,"DIS_CODE":0,"TOWNNAME":"永康區","LI":"復國里","LIN":"22鄰","STREET":"復華六街","SECT":" ","MAREA":" ","LANE":"９３巷","ALLEY":"２０弄","HOUSE_NO":"６號","E_COORD97":172589.32000000001,"N_COORD97":2545801.5899999999,"ADDRESS":"復華六街９３巷２０弄６號","OBJECTID":142608},"geometry":{"x":172589.3200000003,"y":2545801.5900000017}},{"attributes":{"ID":142609,"DIS_CODE":0,"TOWNNAME":"永康區","LI":"勝利里","LIN":"25鄰","STREET":"中華路","SECT":" ","MAREA":" ","LANE":"１５５巷","ALLEY":"３４弄","HOUSE_NO":"１２號","E_COORD97":171448.60000000001,"N_COORD97":2544826.2400000002,"ADDRESS":"中華路１５５巷３４弄１２號","OBJECTID":142609},"geometry":{"x":171448.60000000056,"y":2544826.2400000039}},{"attributes":{"ID":142610,"DIS_CODE":0,"TOWNNAME":"永康區","LI":"埔園里","LIN":"12鄰","STREET":"四維街","SECT":" ","MAREA":" ","LANE":"５８巷","ALLEY":"２６弄","HOUSE_NO":"２號","E_COORD97":173520.04000000001,"N_COORD97":2548054.4900000002,"ADDRESS":"四維街５８巷２６弄２號","OBJECTID":142610},"geometry":{"x":173520.04000000004,"y":2548054.4900000002}},{"attributes":{"ID":142611,"DIS_CODE":0,"TOWNNAME":"西港區","LI":"後營里","LIN":" ","STREET":" ","SECT":" ","MAREA":"後營","LANE":" ","ALLEY":" ","HOUSE_NO":"２７３號","E_COORD97":169816.78,"N_COORD97":2560091.5800000001,"ADDRESS":"後營２７３號","OBJECTID":142611},"geometry":{"x":169816.78000000026,"y":2560091.5800000019}},{"attributes":{"ID":142612,"DIS_CODE":0,"TOWNNAME":"西港區","LI":"營西里","LIN":" ","STREET":" ","SECT":" ","MAREA":"後營","LANE":" ","ALLEY":" ","HOUSE_NO":"２７之４號","E_COORD97":169559.57000000001,"N_COORD97":2560231.96,"ADDRESS":"後營２７之４號","OBJECTID":142612},"geometry":{"x":169559.57000000123,"y":2560231.9600000028}},{"attributes":{"ID":142613,"DIS_CODE":0,"TOWNNAME":"永康區","LI":"復國里","LIN":"22鄰","STREET":"復華六街","SECT":" ","MAREA":" ","LANE":"９３巷","ALLEY":"１１弄","HOUSE_NO":"１號","E_COORD97":172625.32999999999,"N_COORD97":2545790.73,"ADDRESS":"復華六街９３巷１１弄１號","OBJECTID":142613},"geometry":{"x":172625.32999999914,"y":2545790.7300000023}},{"attributes":{"ID":142614,"DIS_CODE":0,"TOWNNAME":"西港區","LI":"後營里","LIN":" ","STREET":" ","SECT":" ","MAREA":"後營","LANE":" ","ALLEY":" ","HOUSE_NO":"２８０之３號","E_COORD97":169807.14000000001,"N_COORD97":2560044.5099999998,"ADDRESS":"後營２８０之３號","OBJECTID":142614},"geometry":{"x":169807.14000000153,"y":2560044.5100000016}},{"attributes":{"ID":142615,"DIS_CODE":0,"TOWNNAME":"永康區","LI":"復國里","LIN":"22鄰","STREET":"復華六街","SECT":" ","MAREA":" ","LANE":"９３巷","ALLEY":"２０弄","HOUSE_NO":"１１號","E_COORD97":172570.85999999999,"N_COORD97":2545778.3399999999,"ADDRESS":"復華六街９３巷２０弄１１號","OBJECTID":142615},"geometry":{"x":172570.86000000034,"y":2545778.3400000017}},{"attributes":{"ID":142616,"DIS_CODE":0,"TOWNNAME":"永康區","LI":"復國里","LIN":"22鄰","STREET":"復華六街","SECT":" ","MAREA":" ","LANE":"９３巷","ALLEY":"１１弄","HOUSE_NO":"３號","E_COORD97":172632.26000000001,"N_COORD97":2545787.8500000001,"ADDRESS":"復華六街９３巷１１弄３號","OBJECTID":142616},"geometry":{"x":172632.25999999885,"y":2545787.8500000034}},{"attributes":{"ID":142617,"DIS_CODE":0,"TOWNNAME":"永康區","LI":"復國里","LIN":"22鄰","STREET":"復華六街","SECT":" ","MAREA":" ","LANE":"９３巷","ALLEY":"３４弄","HOUSE_NO":"８號","E_COORD97":172575.95999999999,"N_COORD97":2545750.8900000001,"ADDRESS":"復華六街９３巷３４弄８號","OBJECTID":142617},"geometry":{"x":172575.96000000089,"y":2545750.8900000006}},{"attributes":{"ID":142618,"DIS_CODE":0,"TOWNNAME":"永康區","LI":"復國里","LIN":"22鄰","STREET":"復華六街","SECT":" ","MAREA":" ","LANE":"９３巷","ALLEY":"１１弄","HOUSE_NO":"９號","E_COORD97":172644.54999999999,"N_COORD97":2545786.3500000001,"ADDRESS":"復華六街９３巷１１弄９號","OBJECTID":142618},"geometry":{"x":172644.55000000075,"y":2545786.3499999996}},{"attributes":{"ID":142619,"DIS_CODE":0,"TOWNNAME":"永康區","LI":"復國里","LIN":"22鄰","STREET":"復華六街","SECT":" ","MAREA":" ","LANE":"９３巷","ALLEY":"１１弄","HOUSE_NO":"１３號","E_COORD97":172654.10000000001,"N_COORD97":2545786.1000000001,"ADDRESS":"復華六街９３巷１１弄１３號","OBJECTID":142619},"geometry":{"x":172654.10000000056,"y":2545786.1000000034}},{"attributes":{"ID":142620,"DIS_CODE":0,"TOWNNAME":"西港區","LI":"後營里","LIN":" ","STREET":" ","SECT":" ","MAREA":"後營","LANE":" ","ALLEY":" ","HOUSE_NO":"２８０之４號","E_COORD97":169806.78,"N_COORD97":2560040.8700000001,"ADDRESS":"後營２８０之４號","OBJECTID":142620},"geometry":{"x":169806.77999999933,"y":2560040.870000001}},{"attributes":{"ID":142621,"DIS_CODE":0,"TOWNNAME":"南區","LI":"金華里","LIN":"33鄰","STREET":"新孝路","SECT":" ","MAREA":" ","LANE":"１７２巷","ALLEY":" ","HOUSE_NO":"１９號","E_COORD97":166463.57000000001,"N_COORD97":2542132.9900000002,"ADDRESS":"新孝路１７２巷１９號","OBJECTID":142621},"geometry":{"x":166463.5700000003,"y":2542132.9900000039}},{"attributes":{"ID":142622,"DIS_CODE":0,"TOWNNAME":"鹽水區","LI":"岸內里","LIN":"14鄰","STREET":"蔦松路","SECT":" ","MAREA":" ","LANE":" ","ALLEY":" ","HOUSE_NO":"４８號","E_COORD97":175579.38,"N_COORD97":2580423.8599999999,"ADDRESS":"蔦松路４８號","OBJECTID":142622},"geometry":{"x":175579.37999999989,"y":2580423.8600000031}},{"attributes":{"ID":142623,"DIS_CODE":0,"TOWNNAME":"安平區","LI":"育平里","LIN":"33鄰","STREET":"光州六街","SECT":" ","MAREA":" ","LANE":" ","ALLEY":" ","HOUSE_NO":"４５號","E_COORD97":164383.53,"N_COORD97":2543534.71,"ADDRESS":"光州六街４５號","OBJECTID":142623},"geometry":{"x":164383.53000000026,"y":2543534.7100000009}},{"attributes":{"ID":142624,"DIS_CODE":0,"TOWNNAME":"西港區","LI":"後營里","LIN":" ","STREET":" ","SECT":" ","MAREA":"後營","LANE":" ","ALLEY":" ","HOUSE_NO":"２８０之５號","E_COORD97":169806.45000000001,"N_COORD97":2560037.1400000001,"ADDRESS":"後營２８０之５號","OBJECTID":142624},"geometry":{"x":169806.45000000112,"y":2560037.1400000025}},{"attributes":{"ID":142625,"DIS_CODE":0,"TOWNNAME":"西港區","LI":"後營里","LIN":" ","STREET":" ","SECT":" ","MAREA":"後營","LANE":" ","ALLEY":" ","HOUSE_NO":"２８０之６號","E_COORD97":169806.29999999999,"N_COORD97":2560033.3799999999,"ADDRESS":"後營２８０之６號","OBJECTID":142625},"geometry":{"x":169806.30000000168,"y":2560033.3800000027}},{"attributes":{"ID":142626,"DIS_CODE":0,"TOWNNAME":"永康區","LI":"復國里","LIN":"22鄰","STREET":"復華六街","SECT":" ","MAREA":" ","LANE":"９３巷","ALLEY":"１１弄","HOUSE_NO":"１８號","E_COORD97":172656.48999999999,"N_COORD97":2545769.4900000002,"ADDRESS":"復華六街９３巷１１弄１８號","OBJECTID":142626},"geometry":{"x":172656.49000000022,"y":2545769.4900000002}},{"attributes":{"ID":142627,"DIS_CODE":0,"TOWNNAME":"西港區","LI":"後營里","LIN":" ","STREET":" ","SECT":" ","MAREA":"後營","LANE":" ","ALLEY":" ","HOUSE_NO":"２８１之１號","E_COORD97":169856.73999999999,"N_COORD97":2559960.0699999998,"ADDRESS":"後營２８１之１號","OBJECTID":142627},"geometry":{"x":169856.74000000115,"y":2559960.0700000022}},{"attributes":{"ID":142628,"DIS_CODE":0,"TOWNNAME":"永康區","LI":"復國里","LIN":"22鄰","STREET":"復華六街","SECT":" ","MAREA":" ","LANE":"９３巷","ALLEY":"３４弄","HOUSE_NO":"６號","E_COORD97":172584.76000000001,"N_COORD97":2545750.3900000001,"ADDRESS":"復華六街９３巷３４弄６號","OBJECTID":142628},"geometry":{"x":172584.75999999885,"y":2545750.3900000006}},{"attributes":{"ID":142629,"DIS_CODE":0,"TOWNNAME":"西港區","LI":"後營里","LIN":" ","STREET":" ","SECT":" ","MAREA":"後營","LANE":" ","ALLEY":" ","HOUSE_NO":"２８２之２號","E_COORD97":169853.57000000001,"N_COORD97":2559898.9399999999,"ADDRESS":"後營２８２之２號","OBJECTID":142629},"geometry":{"x":169853.5700000003,"y":2559898.9400000013}},{"attributes":{"ID":142630,"DIS_CODE":0,"TOWNNAME":"西港區","LI":"後營里","LIN":" ","STREET":" ","SECT":" ","MAREA":"後營","LANE":" ","ALLEY":" ","HOUSE_NO":"２８３之６號","E_COORD97":169917.25,"N_COORD97":2560011.8900000001,"ADDRESS":"後營２８３之６號","OBJECTID":142630},"geometry":{"x":169917.25000000093,"y":2560011.8900000025}},{"attributes":{"ID":142631,"DIS_CODE":0,"TOWNNAME":"西港區","LI":"營西里","LIN":" ","STREET":" ","SECT":" ","MAREA":"後營","LANE":" ","ALLEY":" ","HOUSE_NO":"２８之１號","E_COORD97":169639.26000000001,"N_COORD97":2560248.9100000001,"ADDRESS":"後營２８之１號","OBJECTID":142631},"geometry":{"x":169639.26000000071,"y":2560248.910000002}},{"attributes":{"ID":142632,"DIS_CODE":0,"TOWNNAME":"西港區","LI":"營西里","LIN":" ","STREET":" ","SECT":" ","MAREA":"後營","LANE":" ","ALLEY":" ","HOUSE_NO":"２之２６號","E_COORD97":169179.89000000001,"N_COORD97":2559547.1400000001,"ADDRESS":"後營２之２６號","OBJECTID":142632},"geometry":{"x":169179.89000000153,"y":2559547.1400000006}},{"attributes":{"ID":142633,"DIS_CODE":0,"TOWNNAME":"西港區","LI":"後營里","LIN":" ","STREET":" ","SECT":" ","MAREA":"後營","LANE":" ","ALLEY":" ","HOUSE_NO":"３２６號","E_COORD97":170221.10999999999,"N_COORD97":2560042.0299999998,"ADDRESS":"後營３２６號","OBJECTID":142633},"geometry":{"x":170221.11000000034,"y":2560042.0299999993}},{"attributes":{"ID":142634,"DIS_CODE":0,"TOWNNAME":"西港區","LI":"後營里","LIN":" ","STREET":" ","SECT":" ","MAREA":"後營","LANE":" ","ALLEY":" ","HOUSE_NO":"３９２之１號","E_COORD97":169790.39000000001,"N_COORD97":2559867.6499999999,"ADDRESS":"後營３９２之１號","OBJECTID":142634},"geometry":{"x":169790.3900000006,"y":2559867.6500000022}},{"attributes":{"ID":142635,"DIS_CODE":0,"TOWNNAME":"西港區","LI":"營西里","LIN":" ","STREET":" ","SECT":" ","MAREA":"後營","LANE":" ","ALLEY":" ","HOUSE_NO":"３號","E_COORD97":169542.07000000001,"N_COORD97":2560087.9100000001,"ADDRESS":"後營３號","OBJECTID":142635},"geometry":{"x":169542.06999999937,"y":2560087.9100000001}},{"attributes":{"ID":142636,"DIS_CODE":0,"TOWNNAME":"西港區","LI":"營西里","LIN":" ","STREET":" ","SECT":" ","MAREA":"後營","LANE":" ","ALLEY":" ","HOUSE_NO":"４１９號","E_COORD97":169699,"N_COORD97":2559648.1099999999,"ADDRESS":"後營４１９號","OBJECTID":142636},"geometry":{"x":169699.00000000093,"y":2559648.1099999994}},{"attributes":{"ID":142637,"DIS_CODE":0,"TOWNNAME":"永康區","LI":"復國里","LIN":"22鄰","STREET":"復華六街","SECT":" ","MAREA":" ","LANE":"９３巷","ALLEY":"１１弄","HOUSE_NO":"１４號","E_COORD97":172648.54000000001,"N_COORD97":2545769.7400000002,"ADDRESS":"復華六街９３巷１１弄１４號","OBJECTID":142637},"geometry":{"x":172648.54000000004,"y":2545769.7400000021}},{"attributes":{"ID":142638,"DIS_CODE":0,"TOWNNAME":"西港區","LI":"營西里","LIN":" ","STREET":" ","SECT":" ","MAREA":"後營","LANE":" ","ALLEY":" ","HOUSE_NO":"４２１之１０號","E_COORD97":169709.45000000001,"N_COORD97":2559872.25,"ADDRESS":"後營４２１之１０號","OBJECTID":142638},"geometry":{"x":169709.45000000112,"y":2559872.25}},{"attributes":{"ID":142639,"DIS_CODE":0,"TOWNNAME":"西港區","LI":"營西里","LIN":"5鄰","STREET":" ","SECT":" ","MAREA":"後營","LANE":" ","ALLEY":" ","HOUSE_NO":"４３之５號","E_COORD97":169745.56,"N_COORD97":2560237.6600000001,"ADDRESS":"後營４３之５號","OBJECTID":142639},"geometry":{"x":169745.56000000052,"y":2560237.660000002}},{"attributes":{"ID":142640,"DIS_CODE":0,"TOWNNAME":"西港區","LI":"營西里","LIN":" ","STREET":" ","SECT":" ","MAREA":"後營","LANE":" ","ALLEY":" ","HOUSE_NO":"４４之１號","E_COORD97":169746.87,"N_COORD97":2560244.2799999998,"ADDRESS":"後營４４之１號","OBJECTID":142640},"geometry":{"x":169746.87000000197,"y":2560244.2799999993}},{"attributes":{"ID":142641,"DIS_CODE":0,"TOWNNAME":"西港區","LI":"營西里","LIN":" ","STREET":" ","SECT":" ","MAREA":"後營","LANE":" ","ALLEY":" ","HOUSE_NO":"４５５之１號","E_COORD97":169632.95999999999,"N_COORD97":2559600.6800000002,"ADDRESS":"後營４５５之１號","OBJECTID":142641},"geometry":{"x":169632.96000000089,"y":2559600.6799999997}},{"attributes":{"ID":142642,"DIS_CODE":0,"TOWNNAME":"西港區","LI":"營西里","LIN":" ","STREET":" ","SECT":" ","MAREA":"後營","LANE":" ","ALLEY":" ","HOUSE_NO":"４７１號","E_COORD97":169586.85000000001,"N_COORD97":2559422.04,"ADDRESS":"後營４７１號","OBJECTID":142642},"geometry":{"x":169586.84999999963,"y":2559422.0400000028}},{"attributes":{"ID":142643,"DIS_CODE":0,"TOWNNAME":"西港區","LI":"營西里","LIN":" ","STREET":" ","SECT":" ","MAREA":"後營","LANE":" ","ALLEY":" ","HOUSE_NO":"４８１之１號","E_COORD97":169505.89000000001,"N_COORD97":2559245.6000000001,"ADDRESS":"後營４８１之１號","OBJECTID":142643},"geometry":{"x":169505.8900000006,"y":2559245.5999999996}},{"attributes":{"ID":142644,"DIS_CODE":0,"TOWNNAME":"西港區","LI":"營西里","LIN":" ","STREET":" ","SECT":" ","MAREA":"後營","LANE":" ","ALLEY":" ","HOUSE_NO":"４８１之２號","E_COORD97":169511.10999999999,"N_COORD97":2559224.9300000002,"ADDRESS":"後營４８１之２號","OBJECTID":142644},"geometry":{"x":169511.11000000034,"y":2559224.9300000016}},{"attributes":{"ID":142645,"DIS_CODE":0,"TOWNNAME":"西港區","LI":"營西里","LIN":" ","STREET":" ","SECT":" ","MAREA":"後營","LANE":" ","ALLEY":" ","HOUSE_NO":"４８２號","E_COORD97":169383.89999999999,"N_COORD97":2559115.5699999998,"ADDRESS":"後營４８２號","OBJECTID":142645},"geometry":{"x":169383.90000000037,"y":2559115.5700000022}},{"attributes":{"ID":142646,"DIS_CODE":0,"TOWNNAME":"西港區","LI":"營西里","LIN":" ","STREET":" ","SECT":" ","MAREA":"後營","LANE":" ","ALLEY":" ","HOUSE_NO":"５３０之１號","E_COORD97":167911.92000000001,"N_COORD97":2559774.0499999998,"ADDRESS":"後營５３０之１號","OBJECTID":142646},"geometry":{"x":167911.91999999899,"y":2559774.0500000026}},{"attributes":{"ID":142647,"DIS_CODE":0,"TOWNNAME":"西港區","LI":"營西里","LIN":" ","STREET":" ","SECT":" ","MAREA":"後營","LANE":" ","ALLEY":" ","HOUSE_NO":"５３號","E_COORD97":169719.23999999999,"N_COORD97":2560320.1699999999,"ADDRESS":"後營５３號","OBJECTID":142647},"geometry":{"x":169719.24000000115,"y":2560320.1699999999}},{"attributes":{"ID":142648,"DIS_CODE":0,"TOWNNAME":"西港區","LI":"金砂里","LIN":" ","STREET":" ","SECT":" ","MAREA":"後營","LANE":" ","ALLEY":" ","HOUSE_NO":"５６之１號","E_COORD97":167222.22,"N_COORD97":2560635.54,"ADDRESS":"後營５６之１號","OBJECTID":142648},"geometry":{"x":167222.22000000067,"y":2560635.5399999991}},{"attributes":{"ID":142649,"DIS_CODE":0,"TOWNNAME":"西港區","LI":"營西里","LIN":" ","STREET":" ","SECT":" ","MAREA":"後營","LANE":" ","ALLEY":" ","HOUSE_NO":"６０之１號","E_COORD97":169593.69,"N_COORD97":2560389.1400000001,"ADDRESS":"後營６０之１號","OBJECTID":142649},"geometry":{"x":169593.69000000041,"y":2560389.1399999987}},{"attributes":{"ID":142650,"DIS_CODE":0,"TOWNNAME":"西港區","LI":"營西里","LIN":" ","STREET":" ","SECT":" ","MAREA":"後營","LANE":" ","ALLEY":" ","HOUSE_NO":"６０之２號","E_COORD97":169585.48000000001,"N_COORD97":2560401.4300000002,"ADDRESS":"後營６０之２號","OBJECTID":142650},"geometry":{"x":169585.48000000138,"y":2560401.4300000016}},{"attributes":{"ID":142651,"DIS_CODE":0,"TOWNNAME":"西港區","LI":"營西里","LIN":" ","STREET":" ","SECT":" ","MAREA":"後營","LANE":" ","ALLEY":" ","HOUSE_NO":"６１之１號","E_COORD97":169666.22,"N_COORD97":2560323.8599999999,"ADDRESS":"後營６１之１號","OBJECTID":142651},"geometry":{"x":169666.22000000067,"y":2560323.8599999994}},{"attributes":{"ID":142652,"DIS_CODE":0,"TOWNNAME":"西港區","LI":"營西里","LIN":" ","STREET":" ","SECT":" ","MAREA":"後營","LANE":" ","ALLEY":" ","HOUSE_NO":"６９之２號","E_COORD97":169604.85000000001,"N_COORD97":2560394.8799999999,"ADDRESS":"後營６９之２號","OBJECTID":142652},"geometry":{"x":169604.84999999963,"y":2560394.879999999}},{"attributes":{"ID":142653,"DIS_CODE":0,"TOWNNAME":"西港區","LI":"營西里","LIN":" ","STREET":" ","SECT":" ","MAREA":"後營","LANE":" ","ALLEY":" ","HOUSE_NO":"６之１號","E_COORD97":169744.70000000001,"N_COORD97":2560031.9399999999,"ADDRESS":"後營６之１號","OBJECTID":142653},"geometry":{"x":169744.70000000205,"y":2560031.9399999995}},{"attributes":{"ID":142654,"DIS_CODE":0,"TOWNNAME":"永康區","LI":"復華里","LIN":"22鄰","STREET":"國華街","SECT":" ","MAREA":" ","LANE":"１３２巷","ALLEY":"２弄","HOUSE_NO":"１４號","E_COORD97":172766.79000000001,"N_COORD97":2546110.75,"ADDRESS":"國華街１３２巷２弄１４號","OBJECTID":142654},"geometry":{"x":172766.79000000097,"y":2546110.75}},{"attributes":{"ID":142655,"DIS_CODE":0,"TOWNNAME":"永康區","LI":"復國里","LIN":"22鄰","STREET":"復華六街","SECT":" ","MAREA":" ","LANE":"９３巷","ALLEY":"１１弄","HOUSE_NO":"８號","E_COORD97":172635.23999999999,"N_COORD97":2545770.2400000002,"ADDRESS":"復華六街９３巷１１弄８號","OBJECTID":142655},"geometry":{"x":172635.24000000115,"y":2545770.2400000021}},{"attributes":{"ID":142656,"DIS_CODE":0,"TOWNNAME":"永康區","LI":"復國里","LIN":"22鄰","STREET":"復華六街","SECT":" ","MAREA":" ","LANE":"９３巷","ALLEY":"１１弄","HOUSE_NO":"１６號","E_COORD97":172652.60000000001,"N_COORD97":2545769.7400000002,"ADDRESS":"復華六街９３巷１１弄１６號","OBJECTID":142656},"geometry":{"x":172652.60000000056,"y":2545769.7400000021}},{"attributes":{"ID":142657,"DIS_CODE":0,"TOWNNAME":"鹽水區","LI":"福得里","LIN":"5鄰","STREET":" ","SECT":" ","MAREA":"後厝","LANE":" ","ALLEY":" ","HOUSE_NO":"８７號","E_COORD97":175388.39999999999,"N_COORD97":2579818.75,"ADDRESS":"後厝８７號","OBJECTID":142657},"geometry":{"x":175388.40000000224,"y":2579818.7500000019}},{"attributes":{"ID":142658,"DIS_CODE":0,"TOWNNAME":"永康區","LI":"復國里","LIN":"22鄰","STREET":"復華六街","SECT":" ","MAREA":" ","LANE":"９３巷","ALLEY":"２０弄","HOUSE_NO":"１０號","E_COORD97":172581.79999999999,"N_COORD97":2545802.0899999999,"ADDRESS":"復華六街９３巷２０弄１０號","OBJECTID":142658},"geometry":{"x":172581.80000000075,"y":2545802.0899999999}},{"attributes":{"ID":142659,"DIS_CODE":0,"TOWNNAME":"永康區","LI":"復國里","LIN":"22鄰","STREET":"復華六街","SECT":" ","MAREA":" ","LANE":"９３巷","ALLEY":"３４弄","HOUSE_NO":"５號","E_COORD97":172583.76000000001,"N_COORD97":2545737.4500000002,"ADDRESS":"復華六街９３巷３４弄５號","OBJECTID":142659},"geometry":{"x":172583.76000000071,"y":2545737.4500000011}},{"attributes":{"ID":142660,"DIS_CODE":0,"TOWNNAME":"永康區","LI":"崑山里","LIN":"16鄰","STREET":"大灣路","SECT":" ","MAREA":" ","LANE":"９４２巷","ALLEY":"７１弄","HOUSE_NO":"７５號","E_COORD97":173591.09,"N_COORD97":2544551.5,"ADDRESS":"大灣路９４２巷７１弄７５號","OBJECTID":142660},"geometry":{"x":173591.08999999985,"y":2544551.5}},{"attributes":{"ID":142661,"DIS_CODE":0,"TOWNNAME":"仁德區","LI":"三甲里","LIN":"1鄰","STREET":" ","SECT":" ","MAREA":"三甲子","LANE":" ","ALLEY":" ","HOUSE_NO":"１２號之７","E_COORD97":171914.91,"N_COORD97":2537119.5499999998,"ADDRESS":"三甲子１２號之７","OBJECTID":142661},"geometry":{"x":171914.91000000108,"y":2537119.5500000026}},{"attributes":{"ID":142662,"DIS_CODE":0,"TOWNNAME":"西港區","LI":"營西里","LIN":" ","STREET":" ","SECT":" ","MAREA":"後營","LANE":" ","ALLEY":" ","HOUSE_NO":"７號","E_COORD97":169765.84,"N_COORD97":2560033.6499999999,"ADDRESS":"後營７號","OBJECTID":142662},"geometry":{"x":169765.84000000078,"y":2560033.6500000022}},{"attributes":{"ID":142663,"DIS_CODE":0,"TOWNNAME":"西港區","LI":"營西里","LIN":" ","STREET":" ","SECT":" ","MAREA":"後營","LANE":" ","ALLEY":" ","HOUSE_NO":"８６之１號","E_COORD97":169671.69,"N_COORD97":2560461.1699999999,"ADDRESS":"後營８６之１號","OBJECTID":142663},"geometry":{"x":169671.69000000041,"y":2560461.1700000018}},{"attributes":{"ID":142664,"DIS_CODE":0,"TOWNNAME":"永康區","LI":"復興里","LIN":"22鄰","STREET":"復興路","SECT":" ","MAREA":" ","LANE":"２４６巷","ALLEY":"１１弄","HOUSE_NO":"２２號","E_COORD97":172359.66,"N_COORD97":2544440.1099999999,"ADDRESS":"復興路２４６巷１１弄２２號","OBJECTID":142664},"geometry":{"x":172359.66000000015,"y":2544440.1100000031}},{"attributes":{"ID":142665,"DIS_CODE":0,"TOWNNAME":"西港區","LI":"金砂里","LIN":" ","STREET":" ","SECT":" ","MAREA":"施寮","LANE":" ","ALLEY":" ","HOUSE_NO":"２２號","E_COORD97":169047.17000000001,"N_COORD97":2561352.3700000001,"ADDRESS":"施寮２２號","OBJECTID":142665},"geometry":{"x":169047.16999999993,"y":2561352.3700000029}},{"attributes":{"ID":142666,"DIS_CODE":0,"TOWNNAME":"永康區","LI":"復興里","LIN":"22鄰","STREET":"復興路","SECT":" ","MAREA":" ","LANE":"２４６巷","ALLEY":"２７弄","HOUSE_NO":"４１號","E_COORD97":172343.85999999999,"N_COORD97":2544482.1299999999,"ADDRESS":"復興路２４６巷２７弄４１號","OBJECTID":142666},"geometry":{"x":172343.86000000034,"y":2544482.129999999}},{"attributes":{"ID":142667,"DIS_CODE":0,"TOWNNAME":"永康區","LI":"復興里","LIN":"22鄰","STREET":"復興路","SECT":" ","MAREA":" ","LANE":"２４６巷","ALLEY":"１１弄","HOUSE_NO":"２８號","E_COORD97":172344.95000000001,"N_COORD97":2544446.7799999998,"ADDRESS":"復興路２４６巷１１弄２８號","OBJECTID":142667},"geometry":{"x":172344.95000000205,"y":2544446.7800000012}},{"attributes":{"ID":142668,"DIS_CODE":0,"TOWNNAME":"西港區","LI":"金砂里","LIN":" ","STREET":" ","SECT":" ","MAREA":"施寮","LANE":" ","ALLEY":" ","HOUSE_NO":"５號","E_COORD97":169025.09,"N_COORD97":2561006.3700000001,"ADDRESS":"施寮５號","OBJECTID":142668},"geometry":{"x":169025.09000000078,"y":2561006.3700000029}},{"attributes":{"ID":142669,"DIS_CODE":0,"TOWNNAME":"永康區","LI":"復興里","LIN":"22鄰","STREET":"復興路","SECT":" ","MAREA":" ","LANE":"２４６巷","ALLEY":"２７弄","HOUSE_NO":"３５號","E_COORD97":172344.60000000001,"N_COORD97":2544465.2999999998,"ADDRESS":"復興路２４６巷２７弄３５號","OBJECTID":142669},"geometry":{"x":172344.59999999963,"y":2544465.3000000026}},{"attributes":{"ID":142670,"DIS_CODE":0,"TOWNNAME":"西港區","LI":"金砂里","LIN":" ","STREET":" ","SECT":" ","MAREA":"砂凹子","LANE":" ","ALLEY":" ","HOUSE_NO":"１０之１號","E_COORD97":168673.34,"N_COORD97":2561842.75,"ADDRESS":"砂凹子１０之１號","OBJECTID":142670},"geometry":{"x":168673.33999999985,"y":2561842.7500000019}},{"attributes":{"ID":142671,"DIS_CODE":0,"TOWNNAME":"西港區","LI":"金砂里","LIN":" ","STREET":" ","SECT":" ","MAREA":"砂凹子","LANE":" ","ALLEY":" ","HOUSE_NO":"１４之１號","E_COORD97":168764.37,"N_COORD97":2561684.0699999998,"ADDRESS":"砂凹子１４之１號","OBJECTID":142671},"geometry":{"x":168764.37000000104,"y":2561684.0700000003}},{"attributes":{"ID":142672,"DIS_CODE":0,"TOWNNAME":"西港區","LI":"金砂里","LIN":" ","STREET":" ","SECT":" ","MAREA":"砂凹子","LANE":" ","ALLEY":" ","HOUSE_NO":"１８號","E_COORD97":168743.59,"N_COORD97":2561696.6499999999,"ADDRESS":"砂凹子１８號","OBJECTID":142672},"geometry":{"x":168743.59000000078,"y":2561696.6500000004}},{"attributes":{"ID":142673,"DIS_CODE":0,"TOWNNAME":"永康區","LI":"勝利里","LIN":"25鄰","STREET":"中華路","SECT":" ","MAREA":" ","LANE":"１５５巷","ALLEY":"３４弄","HOUSE_NO":"１７號","E_COORD97":171458.10999999999,"N_COORD97":2544810.8999999999,"ADDRESS":"中華路１５５巷３４弄１７號","OBJECTID":142673},"geometry":{"x":171458.11000000127,"y":2544810.9000000004}},{"attributes":{"ID":142674,"DIS_CODE":0,"TOWNNAME":"西港區","LI":"金砂里","LIN":" ","STREET":" ","SECT":" ","MAREA":"砂凹子","LANE":" ","ALLEY":" ","HOUSE_NO":"４０號","E_COORD97":168867.48999999999,"N_COORD97":2561835.3700000001,"ADDRESS":"砂凹子４０號","OBJECTID":142674},"geometry":{"x":168867.49000000022,"y":2561835.370000001}},{"attributes":{"ID":142675,"DIS_CODE":0,"TOWNNAME":"西港區","LI":"港東里","LIN":" ","STREET":" ","SECT":" ","MAREA":"烏竹林","LANE":" ","ALLEY":" ","HOUSE_NO":"１８號","E_COORD97":169965.60000000001,"N_COORD97":2557954.4399999999,"ADDRESS":"烏竹林１８號","OBJECTID":142675},"geometry":{"x":169965.60000000056,"y":2557954.4399999995}},{"attributes":{"ID":142676,"DIS_CODE":0,"TOWNNAME":"西港區","LI":"港東里","LIN":" ","STREET":" ","SECT":" ","MAREA":"烏竹林","LANE":" ","ALLEY":" ","HOUSE_NO":"２５之１號","E_COORD97":170032.89999999999,"N_COORD97":2557966.4900000002,"ADDRESS":"烏竹林２５之１號","OBJECTID":142676},"geometry":{"x":170032.90000000037,"y":2557966.4900000021}},{"attributes":{"ID":142677,"DIS_CODE":0,"TOWNNAME":"西港區","LI":"港東里","LIN":" ","STREET":" ","SECT":" ","MAREA":"烏竹林","LANE":" ","ALLEY":" ","HOUSE_NO":"５８號","E_COORD97":169687.37,"N_COORD97":2558124.5899999999,"ADDRESS":"烏竹林５８號","OBJECTID":142677},"geometry":{"x":169687.37000000197,"y":2558124.5900000017}},{"attributes":{"ID":142678,"DIS_CODE":0,"TOWNNAME":"西港區","LI":"劉厝里","LIN":" ","STREET":" ","SECT":" ","MAREA":"蚶西港","LANE":" ","ALLEY":" ","HOUSE_NO":"２９號","E_COORD97":166022.09,"N_COORD97":2559168.8999999999,"ADDRESS":"蚶西港２９號","OBJECTID":142678},"geometry":{"x":166022.08999999985,"y":2559168.9000000004}},{"attributes":{"ID":142679,"DIS_CODE":0,"TOWNNAME":"永康區","LI":"埔園里","LIN":"35鄰","STREET":"永大路","SECT":"三段","MAREA":" ","LANE":"４５０巷","ALLEY":"２弄","HOUSE_NO":"２８號","E_COORD97":174148.95000000001,"N_COORD97":2548347.4900000002,"ADDRESS":"永大路三段４５０巷２弄２８號","OBJECTID":142679},"geometry":{"x":174148.95000000112,"y":2548347.4900000039}},{"attributes":{"ID":142680,"DIS_CODE":0,"TOWNNAME":"永康區","LI":"崑山里","LIN":"6鄰","STREET":"崑大路","SECT":" ","MAREA":" ","LANE":"１５５巷","ALLEY":"８５弄","HOUSE_NO":"９號","E_COORD97":173660.39000000001,"N_COORD97":2544042.4300000002,"ADDRESS":"崑大路１５５巷８５弄９號","OBJECTID":142680},"geometry":{"x":173660.39000000153,"y":2544042.4300000016}},{"attributes":{"ID":142681,"DIS_CODE":0,"TOWNNAME":"西港區","LI":"劉厝里","LIN":" ","STREET":" ","SECT":" ","MAREA":"蚶西港","LANE":" ","ALLEY":" ","HOUSE_NO":"３之６號","E_COORD97":166060.67999999999,"N_COORD97":2559015.8999999999,"ADDRESS":"蚶西港３之６號","OBJECTID":142681},"geometry":{"x":166060.68000000156,"y":2559015.9000000004}},{"attributes":{"ID":142682,"DIS_CODE":0,"TOWNNAME":"西港區","LI":"新復里","LIN":" ","STREET":" ","SECT":" ","MAREA":"新港","LANE":" ","ALLEY":" ","HOUSE_NO":"１３之１號","E_COORD97":166518.04000000001,"N_COORD97":2556445.73,"ADDRESS":"新港１３之１號","OBJECTID":142682},"geometry":{"x":166518.04000000097,"y":2556445.7300000042}},{"attributes":{"ID":142683,"DIS_CODE":0,"TOWNNAME":"西港區","LI":"新復里","LIN":" ","STREET":" ","SECT":" ","MAREA":"新港","LANE":" ","ALLEY":" ","HOUSE_NO":"３９號","E_COORD97":166503.10000000001,"N_COORD97":2556472.8199999998,"ADDRESS":"新港３９號","OBJECTID":142683},"geometry":{"x":166503.09999999963,"y":2556472.8200000022}},{"attributes":{"ID":142684,"DIS_CODE":0,"TOWNNAME":"永康區","LI":"崑山里","LIN":"6鄰","STREET":"崑大路","SECT":" ","MAREA":" ","LANE":"１５５巷","ALLEY":"８５弄","HOUSE_NO":"２６號","E_COORD97":173667.84,"N_COORD97":2544035.6400000001,"ADDRESS":"崑大路１５５巷８５弄２６號","OBJECTID":142684},"geometry":{"x":173667.84000000078,"y":2544035.6400000025}},{"attributes":{"ID":142685,"DIS_CODE":0,"TOWNNAME":"西港區","LI":"金砂里","LIN":" ","STREET":" ","SECT":" ","MAREA":"新寮","LANE":" ","ALLEY":" ","HOUSE_NO":"２１之４號","E_COORD97":168334.32999999999,"N_COORD97":2562034.6200000001,"ADDRESS":"新寮２１之４號","OBJECTID":142685},"geometry":{"x":168334.33000000007,"y":2562034.6200000029}},{"attributes":{"ID":142686,"DIS_CODE":0,"TOWNNAME":"永康區","LI":"二王里","LIN":"22鄰","STREET":"中山南路","SECT":" ","MAREA":" ","LANE":"５６８巷","ALLEY":"１弄","HOUSE_NO":"２１號","E_COORD97":172297.39999999999,"N_COORD97":2546585.8599999999,"ADDRESS":"中山南路５６８巷１弄２１號","OBJECTID":142686},"geometry":{"x":172297.40000000037,"y":2546585.8600000013}},{"attributes":{"ID":142687,"DIS_CODE":0,"TOWNNAME":"西港區","LI":"金砂里","LIN":"8鄰","STREET":" ","SECT":" ","MAREA":"新寮","LANE":" ","ALLEY":" ","HOUSE_NO":"９之５號","E_COORD97":168173.87629799999,"N_COORD97":2561691.5715999999,"ADDRESS":"新寮９之５號","OBJECTID":142687},"geometry":{"x":168173.87629800104,"y":2561691.5716019999}},{"attributes":{"ID":142688,"DIS_CODE":0,"TOWNNAME":"西港區","LI":"港東里","LIN":" ","STREET":" ","SECT":" ","MAREA":"\u25A0張\u25A0","LANE":" ","ALLEY":" ","HOUSE_NO":"１５號","E_COORD97":169341.20000000001,"N_COORD97":2557830,"ADDRESS":"\u25A0張\u25A0１５號","OBJECTID":142688},"geometry":{"x":169341.20000000205,"y":2557830.0000000037}},{"attributes":{"ID":142689,"DIS_CODE":0,"TOWNNAME":"安平區","LI":"育平里","LIN":"33鄰","STREET":"郡平路","SECT":" ","MAREA":" ","LANE":"２７４巷","ALLEY":" ","HOUSE_NO":"４５號","E_COORD97":164427.82000000001,"N_COORD97":2543525.0499999998,"ADDRESS":"郡平路２７４巷４５號","OBJECTID":142689},"geometry":{"x":164427.82000000216,"y":2543525.0500000007}},{"attributes":{"ID":142690,"DIS_CODE":0,"TOWNNAME":"西港區","LI":"港東里","LIN":" ","STREET":" ","SECT":" ","MAREA":"\u25A0張\u25A0","LANE":" ","ALLEY":" ","HOUSE_NO":"１號","E_COORD97":168867.42000000001,"N_COORD97":2557965.0600000001,"ADDRESS":"\u25A0張\u25A0１號","OBJECTID":142690},"geometry":{"x":168867.41999999993,"y":2557965.0600000005}},{"attributes":{"ID":142691,"DIS_CODE":0,"TOWNNAME":"鹽水區","LI":"岸內里","LIN":"14鄰","STREET":"蔦松路","SECT":" ","MAREA":" ","LANE":" ","ALLEY":" ","HOUSE_NO":"５０號","E_COORD97":175579.14999999999,"N_COORD97":2580428,"ADDRESS":"蔦松路５０號","OBJECTID":142691},"geometry":{"x":175579.15000000037,"y":2580428.0000000019}},{"attributes":{"ID":142692,"DIS_CODE":0,"TOWNNAME":"歸仁區","LI":"南興里","LIN":"33鄰","STREET":"文化九街","SECT":" ","MAREA":" ","LANE":" ","ALLEY":" ","HOUSE_NO":"１４號","E_COORD97":176352.64000000001,"N_COORD97":2541147.3300000001,"ADDRESS":"文化九街１４號","OBJECTID":142692},"geometry":{"x":176352.6400000006,"y":2541147.3300000019}},{"attributes":{"ID":142693,"DIS_CODE":0,"TOWNNAME":"永康區","LI":"二王里","LIN":"22鄰","STREET":"中山南路","SECT":" ","MAREA":" ","LANE":"５６８巷","ALLEY":"１弄","HOUSE_NO":"３５號","E_COORD97":172322.54999999999,"N_COORD97":2546603.1099999999,"ADDRESS":"中山南路５６８巷１弄３５號","OBJECTID":142693},"geometry":{"x":172322.55000000075,"y":2546603.1100000031}},{"attributes":{"ID":142694,"DIS_CODE":0,"TOWNNAME":"西港區","LI":"港東里","LIN":" ","STREET":" ","SECT":" ","MAREA":"\u25A0張\u25A0","LANE":" ","ALLEY":" ","HOUSE_NO":"２號","E_COORD97":169253.07999999999,"N_COORD97":2557925.6600000001,"ADDRESS":"\u25A0張\u25A0２號","OBJECTID":142694},"geometry":{"x":169253.08000000007,"y":2557925.6600000001}},{"attributes":{"ID":142695,"DIS_CODE":0,"TOWNNAME":"西港區","LI":"港東里","LIN":" ","STREET":" ","SECT":" ","MAREA":"\u25A0張\u25A0","LANE":" ","ALLEY":" ","HOUSE_NO":"７之１號","E_COORD97":169329.38,"N_COORD97":2557758.0699999998,"ADDRESS":"\u25A0張\u25A0７之１號","OBJECTID":142695},"geometry":{"x":169329.38000000175,"y":2557758.0700000003}},{"attributes":{"ID":142696,"DIS_CODE":0,"TOWNNAME":"西港區","LI":"西港里","LIN":" ","STREET":" ","SECT":" ","MAREA":"堀子頭","LANE":" ","ALLEY":" ","HOUSE_NO":"１４之１號","E_COORD97":168567.19,"N_COORD97":2557722.9900000002,"ADDRESS":"堀子頭１４之１號","OBJECTID":142696},"geometry":{"x":168567.19000000134,"y":2557722.9900000021}},{"attributes":{"ID":142697,"DIS_CODE":0,"TOWNNAME":"西港區","LI":"西港里","LIN":" ","STREET":" ","SECT":" ","MAREA":"堀子頭","LANE":" ","ALLEY":" ","HOUSE_NO":"１之１號","E_COORD97":168567.45999999999,"N_COORD97":2557528.8999999999,"ADDRESS":"堀子頭１之１號","OBJECTID":142697},"geometry":{"x":168567.45999999996,"y":2557528.9000000004}},{"attributes":{"ID":142698,"DIS_CODE":0,"TOWNNAME":"西港區","LI":"西港里","LIN":" ","STREET":" ","SECT":" ","MAREA":"堀子頭","LANE":" ","ALLEY":" ","HOUSE_NO":"２４之２號","E_COORD97":168685.62,"N_COORD97":2557737.0699999998,"ADDRESS":"堀子頭２４之２號","OBJECTID":142698},"geometry":{"x":168685.62000000197,"y":2557737.0700000003}},{"attributes":{"ID":142699,"DIS_CODE":0,"TOWNNAME":"西港區","LI":"西港里","LIN":" ","STREET":" ","SECT":" ","MAREA":"堀子頭","LANE":" ","ALLEY":" ","HOUSE_NO":"３０之１號","E_COORD97":168671.26000000001,"N_COORD97":2557685.96,"ADDRESS":"堀子頭３０之１號","OBJECTID":142699},"geometry":{"x":168671.26000000071,"y":2557685.9600000028}},{"attributes":{"ID":142700,"DIS_CODE":0,"TOWNNAME":"西港區","LI":"西港里","LIN":" ","STREET":" ","SECT":" ","MAREA":"堀子頭","LANE":" ","ALLEY":" ","HOUSE_NO":"４６之１號","E_COORD97":168586.79999999999,"N_COORD97":2557580.48,"ADDRESS":"堀子頭４６之１號","OBJECTID":142700},"geometry":{"x":168586.79999999981,"y":2557580.4800000023}},{"attributes":{"ID":142701,"DIS_CODE":0,"TOWNNAME":"西港區","LI":"西港里","LIN":" ","STREET":" ","SECT":" ","MAREA":"堀子頭","LANE":" ","ALLEY":" ","HOUSE_NO":"５７之１號","E_COORD97":168726.45999999999,"N_COORD97":2557609.0800000001,"ADDRESS":"堀子頭５７之１號","OBJECTID":142701},"geometry":{"x":168726.45999999996,"y":2557609.0800000038}},{"attributes":{"ID":142702,"DIS_CODE":0,"TOWNNAME":"西港區","LI":"西港里","LIN":" ","STREET":" ","SECT":" ","MAREA":"堀子頭","LANE":" ","ALLEY":" ","HOUSE_NO":"６５號","E_COORD97":168801.10999999999,"N_COORD97":2557558.5,"ADDRESS":"堀子頭６５號","OBJECTID":142702},"geometry":{"x":168801.1100000022,"y":2557558.4999999981}},{"attributes":{"ID":142703,"DIS_CODE":0,"TOWNNAME":"南區","LI":"金華里","LIN":" ","STREET":"聖南街","SECT":" ","MAREA":" ","LANE":" ","ALLEY":" ","HOUSE_NO":"２５號","E_COORD97":167050.76000000001,"N_COORD97":2542346.3999999999,"ADDRESS":"聖南街２５號","OBJECTID":142703},"geometry":{"x":167050.76000000071,"y":2542346.4000000004}},{"attributes":{"ID":142704,"DIS_CODE":0,"TOWNNAME":"永康區","LI":"二王里","LIN":"22鄰","STREET":"中山南路","SECT":" ","MAREA":" ","LANE":"５６８巷","ALLEY":"１弄","HOUSE_NO":"１４號","E_COORD97":172295.39999999999,"N_COORD97":2546565.9199999999,"ADDRESS":"中山南路５６８巷１弄１４號","OBJECTID":142704},"geometry":{"x":172295.4000000013,"y":2546565.9199999999}},{"attributes":{"ID":142705,"DIS_CODE":0,"TOWNNAME":"西港區","LI":"西港里","LIN":" ","STREET":" ","SECT":" ","MAREA":"堀子頭","LANE":" ","ALLEY":" ","HOUSE_NO":"８３之１７號","E_COORD97":168591.35999999999,"N_COORD97":2557405.5,"ADDRESS":"堀子頭８３之１７號","OBJECTID":142705},"geometry":{"x":168591.36000000127,"y":2557405.5}},{"attributes":{"ID":142706,"DIS_CODE":0,"TOWNNAME":"西港區","LI":"西港里","LIN":" ","STREET":" ","SECT":" ","MAREA":"堀子頭","LANE":" ","ALLEY":" ","HOUSE_NO":"８７號","E_COORD97":168770.98000000001,"N_COORD97":2556987.3599999999,"ADDRESS":"堀子頭８７號","OBJECTID":142706},"geometry":{"x":168770.98000000045,"y":2556987.3600000013}},{"attributes":{"ID":142707,"DIS_CODE":0,"TOWNNAME":"西港區","LI":"西港里","LIN":" ","STREET":" ","SECT":" ","MAREA":"堀子頭","LANE":" ","ALLEY":" ","HOUSE_NO":"９０之１５號","E_COORD97":168582.06,"N_COORD97":2557455.1499999999,"ADDRESS":"堀子頭９０之１５號","OBJECTID":142707},"geometry":{"x":168582.06000000145,"y":2557455.1500000004}},{"attributes":{"ID":142708,"DIS_CODE":0,"TOWNNAME":"永康區","LI":"二王里","LIN":"22鄰","STREET":"中山南路","SECT":" ","MAREA":" ","LANE":"５６８巷","ALLEY":"１弄","HOUSE_NO":"１７號","E_COORD97":172290.04999999999,"N_COORD97":2546580.6099999999,"ADDRESS":"中山南路５６８巷１弄１７號","OBJECTID":142708},"geometry":{"x":172290.05000000075,"y":2546580.6100000013}},{"attributes":{"ID":142709,"DIS_CODE":0,"TOWNNAME":"西港區","LI":"西港里","LIN":" ","STREET":" ","SECT":" ","MAREA":"堀子頭","LANE":" ","ALLEY":" ","HOUSE_NO":"９之５號","E_COORD97":168496.23000000001,"N_COORD97":2557743.3999999999,"ADDRESS":"堀子頭９之５號","OBJECTID":142709},"geometry":{"x":168496.23000000045,"y":2557743.4000000022}},{"attributes":{"ID":142710,"DIS_CODE":0,"TOWNNAME":"永康區","LI":"勝利里","LIN":"16鄰","STREET":"勝利街","SECT":" ","MAREA":" ","LANE":"１０７巷","ALLEY":"６１弄","HOUSE_NO":"５號","E_COORD97":171224.59,"N_COORD97":2544909.75,"ADDRESS":"勝利街１０７巷６１弄５號","OBJECTID":142710},"geometry":{"x":171224.58999999985,"y":2544909.75}},{"attributes":{"ID":142711,"DIS_CODE":0,"TOWNNAME":"永康區","LI":"二王里","LIN":"22鄰","STREET":"中山南路","SECT":" ","MAREA":" ","LANE":"５６８巷","ALLEY":"１弄","HOUSE_NO":"９號","E_COORD97":172274.51000000001,"N_COORD97":2546570.8599999999,"ADDRESS":"中山南路５６８巷１弄９號","OBJECTID":142711},"geometry":{"x":172274.50999999978,"y":2546570.8600000031}},{"attributes":{"ID":142712,"DIS_CODE":0,"TOWNNAME":"永康區","LI":"二王里","LIN":"22鄰","STREET":"中山南路","SECT":" ","MAREA":" ","LANE":"５６８巷","ALLEY":"１弄","HOUSE_NO":"４號","E_COORD97":172275.95999999999,"N_COORD97":2546552.9300000002,"ADDRESS":"中山南路５６８巷１弄４號","OBJECTID":142712},"geometry":{"x":172275.96000000089,"y":2546552.9299999997}},{"attributes":{"ID":142713,"DIS_CODE":0,"TOWNNAME":"永康區","LI":"二王里","LIN":"22鄰","STREET":"中山南路","SECT":" ","MAREA":" ","LANE":"５６８巷","ALLEY":"１弄","HOUSE_NO":"３３號","E_COORD97":172318.85000000001,"N_COORD97":2546601.1099999999,"ADDRESS":"中山南路５６８巷１弄３３號","OBJECTID":142713},"geometry":{"x":172318.84999999963,"y":2546601.1100000013}},{"attributes":{"ID":142714,"DIS_CODE":0,"TOWNNAME":"永康區","LI":"二王里","LIN":"22鄰","STREET":"中山南路","SECT":" ","MAREA":" ","LANE":"５６８巷","ALLEY":"１弄","HOUSE_NO":"２３號","E_COORD97":172301.26000000001,"N_COORD97":2546588.1099999999,"ADDRESS":"中山南路５６８巷１弄２３號","OBJECTID":142714},"geometry":{"x":172301.25999999978,"y":2546588.1099999994}},{"attributes":{"ID":142715,"DIS_CODE":0,"TOWNNAME":"永康區","LI":"二王里","LIN":"22鄰","STREET":"中山南路","SECT":" ","MAREA":" ","LANE":"５６８巷","ALLEY":"１弄","HOUSE_NO":"５號","E_COORD97":172267.31,"N_COORD97":2546565.6099999999,"ADDRESS":"中山南路５６８巷１弄５號","OBJECTID":142715},"geometry":{"x":172267.31000000145,"y":2546565.6100000031}},{"attributes":{"ID":142716,"DIS_CODE":0,"TOWNNAME":"永康區","LI":"二王里","LIN":"22鄰","STREET":"中山南路","SECT":" ","MAREA":" ","LANE":"５６８巷","ALLEY":"１弄","HOUSE_NO":"１６號","E_COORD97":172300.14999999999,"N_COORD97":2546569.6699999999,"ADDRESS":"中山南路５６８巷１弄１６號","OBJECTID":142716},"geometry":{"x":172300.1500000013,"y":2546569.6700000018}},{"attributes":{"ID":142717,"DIS_CODE":0,"TOWNNAME":"永康區","LI":"二王里","LIN":"22鄰","STREET":"中山南路","SECT":" ","MAREA":" ","LANE":"５６８巷","ALLEY":"１弄","HOUSE_NO":"２５號","E_COORD97":172304.81,"N_COORD97":2546590.6099999999,"ADDRESS":"中山南路５６８巷１弄２５號","OBJECTID":142717},"geometry":{"x":172304.81000000052,"y":2546590.6100000013}},{"attributes":{"ID":142718,"DIS_CODE":0,"TOWNNAME":"永康區","LI":"二王里","LIN":"22鄰","STREET":"中山南路","SECT":" ","MAREA":" ","LANE":"５６８巷","ALLEY":"１弄","HOUSE_NO":"１號","E_COORD97":172260.32999999999,"N_COORD97":2546560.3300000001,"ADDRESS":"中山南路５６８巷１弄１號","OBJECTID":142718},"geometry":{"x":172260.33000000007,"y":2546560.3300000001}},{"attributes":{"ID":142719,"DIS_CODE":0,"TOWNNAME":"永康區","LI":"二王里","LIN":"22鄰","STREET":"中山南路","SECT":" ","MAREA":" ","LANE":"５６８巷","ALLEY":"１弄","HOUSE_NO":"７號","E_COORD97":172271.01000000001,"N_COORD97":2546568.1099999999,"ADDRESS":"中山南路５６８巷１弄７號","OBJECTID":142719},"geometry":{"x":172271.00999999978,"y":2546568.1099999994}},{"attributes":{"ID":142720,"DIS_CODE":0,"TOWNNAME":"西港區","LI":"檨林里","LIN":" ","STREET":" ","SECT":" ","MAREA":"檨子林","LANE":" ","ALLEY":" ","HOUSE_NO":"３１號","E_COORD97":171352.56,"N_COORD97":2559362.3799999999,"ADDRESS":"檨子林３１號","OBJECTID":142720},"geometry":{"x":171352.56000000052,"y":2559362.3800000008}},{"attributes":{"ID":142721,"DIS_CODE":0,"TOWNNAME":"西港區","LI":"檨林里","LIN":" ","STREET":" ","SECT":" ","MAREA":"檨子林","LANE":" ","ALLEY":" ","HOUSE_NO":"３９之１號","E_COORD97":171114.70999999999,"N_COORD97":2559451.6800000002,"ADDRESS":"檨子林３９之１號","OBJECTID":142721},"geometry":{"x":171114.71000000089,"y":2559451.6799999997}},{"attributes":{"ID":142722,"DIS_CODE":0,"TOWNNAME":"永康區","LI":"二王里","LIN":"22鄰","STREET":"中山南路","SECT":" ","MAREA":" ","LANE":"５６８巷","ALLEY":"１弄","HOUSE_NO":"１５號","E_COORD97":172286.54999999999,"N_COORD97":2546578.3599999999,"ADDRESS":"中山南路５６８巷１弄１５號","OBJECTID":142722},"geometry":{"x":172286.55000000075,"y":2546578.3600000013}},{"attributes":{"ID":142723,"DIS_CODE":0,"TOWNNAME":"仁德區","LI":"一甲里","LIN":"20鄰","STREET":"太乙五街","SECT":" ","MAREA":" ","LANE":" ","ALLEY":" ","HOUSE_NO":"７號","E_COORD97":173251.60000000001,"N_COORD97":2542249,"ADDRESS":"太乙五街７號","OBJECTID":142723},"geometry":{"x":173251.59999999963,"y":2542249.0000000019}},{"attributes":{"ID":142724,"DIS_CODE":0,"TOWNNAME":"西港區","LI":"檨林里","LIN":" ","STREET":" ","SECT":" ","MAREA":"檨子林","LANE":" ","ALLEY":" ","HOUSE_NO":"４５之２號","E_COORD97":171277.69,"N_COORD97":2559463.1099999999,"ADDRESS":"檨子林４５之２號","OBJECTID":142724},"geometry":{"x":171277.69000000134,"y":2559463.1100000013}},{"attributes":{"ID":142725,"DIS_CODE":0,"TOWNNAME":"永康區","LI":"二王里","LIN":"22鄰","STREET":"中山南路","SECT":" ","MAREA":" ","LANE":"５６８巷","ALLEY":"１弄","HOUSE_NO":"８號","E_COORD97":172283.35999999999,"N_COORD97":2546557.9199999999,"ADDRESS":"中山南路５６８巷１弄８號","OBJECTID":142725},"geometry":{"x":172283.36000000127,"y":2546557.9200000018}},{"attributes":{"ID":142726,"DIS_CODE":0,"TOWNNAME":"仁德區","LI":"上崙里","LIN":"6鄰","STREET":"德南路","SECT":" ","MAREA":" ","LANE":" ","ALLEY":" ","HOUSE_NO":"４０１號","E_COORD97":173927.92999999999,"N_COORD97":2538250.5099999998,"ADDRESS":"德南路４０１號","OBJECTID":142726},"geometry":{"x":173927.93000000156,"y":2538250.5100000016}},{"attributes":{"ID":142727,"DIS_CODE":0,"TOWNNAME":"北區","LI":"成德里","LIN":"33鄰","STREET":"文成五街","SECT":" ","MAREA":" ","LANE":" ","ALLEY":" ","HOUSE_NO":"２３號","E_COORD97":168588.95000000001,"N_COORD97":2546585.2000000002,"ADDRESS":"文成五街２３號","OBJECTID":142727},"geometry":{"x":168588.95000000112,"y":2546585.200000003}},{"attributes":{"ID":142728,"DIS_CODE":0,"TOWNNAME":"安平區","LI":"華平里","LIN":"33鄰","STREET":"永華八街","SECT":" ","MAREA":" ","LANE":" ","ALLEY":" ","HOUSE_NO":"３５１號","E_COORD97":165197.26000000001,"N_COORD97":2544108.6099999999,"ADDRESS":"永華八街３５１號","OBJECTID":142728},"geometry":{"x":165197.26000000164,"y":2544108.6100000013}},{"attributes":{"ID":142729,"DIS_CODE":0,"TOWNNAME":"安平區","LI":"華平里","LIN":"33鄰","STREET":"永華八街","SECT":" ","MAREA":" ","LANE":" ","ALLEY":" ","HOUSE_NO":"３５３號","E_COORD97":165196.91,"N_COORD97":2544114.3100000001,"ADDRESS":"永華八街３５３號","OBJECTID":142729},"geometry":{"x":165196.91000000108,"y":2544114.3100000042}},{"attributes":{"ID":142730,"DIS_CODE":0,"TOWNNAME":"安平區","LI":"育平里","LIN":"33鄰","STREET":"平豐路","SECT":" ","MAREA":" ","LANE":" ","ALLEY":" ","HOUSE_NO":"２６０號","E_COORD97":164310.13,"N_COORD97":2543552.1299999999,"ADDRESS":"平豐路２６０號","OBJECTID":142730},"geometry":{"x":164310.13000000082,"y":2543552.1300000008}},{"attributes":{"ID":142731,"DIS_CODE":0,"TOWNNAME":"安平區","LI":"育平里","LIN":"33鄰","STREET":"平豐路","SECT":" ","MAREA":" ","LANE":" ","ALLEY":" ","HOUSE_NO":"２６２號","E_COORD97":164309.01999999999,"N_COORD97":2543557.52,"ADDRESS":"平豐路２６２號","OBJECTID":142731},"geometry":{"x":164309.02000000048,"y":2543557.5199999996}},{"attributes":{"ID":142732,"DIS_CODE":0,"TOWNNAME":"安平區","LI":"育平里","LIN":"33鄰","STREET":"永華路","SECT":"二段","MAREA":" ","LANE":" ","ALLEY":" ","HOUSE_NO":"１０５９之１號","E_COORD97":164504.17999999999,"N_COORD97":2543581.2799999998,"ADDRESS":"永華路二段１０５９之１號","OBJECTID":142732},"geometry":{"x":164504.1799999997,"y":2543581.2800000012}},{"attributes":{"ID":142733,"DIS_CODE":0,"TOWNNAME":"安平區","LI":"育平里","LIN":"33鄰","STREET":"永華路","SECT":"二段","MAREA":" ","LANE":" ","ALLEY":" ","HOUSE_NO":"８５７號","E_COORD97":164612.06,"N_COORD97":2543576.23,"ADDRESS":"永華路二段８５７號","OBJECTID":142733},"geometry":{"x":164612.06000000052,"y":2543576.2300000023}},{"attributes":{"ID":142734,"DIS_CODE":0,"TOWNNAME":"安平區","LI":"育平里","LIN":"33鄰","STREET":"永華路","SECT":"二段","MAREA":" ","LANE":" ","ALLEY":" ","HOUSE_NO":"８５９號","E_COORD97":164607.54000000001,"N_COORD97":2543576,"ADDRESS":"永華路二段８５９號","OBJECTID":142734},"geometry":{"x":164607.5400000019,"y":2543576}},{"attributes":{"ID":142735,"DIS_CODE":0,"TOWNNAME":"永康區","LI":"二王里","LIN":"22鄰","STREET":"中山南路","SECT":" ","MAREA":" ","LANE":"５６８巷","ALLEY":"１弄","HOUSE_NO":"１１號","E_COORD97":172279.10000000001,"N_COORD97":2546573.3599999999,"ADDRESS":"中山南路５６８巷１弄１１號","OBJECTID":142735},"geometry":{"x":172279.10000000149,"y":2546573.3599999994}},{"attributes":{"ID":142736,"DIS_CODE":0,"TOWNNAME":"永康區","LI":"神洲里","LIN":"16鄰","STREET":"忠孝路","SECT":" ","MAREA":" ","LANE":"７６巷","ALLEY":"４９弄","HOUSE_NO":"１５號","E_COORD97":172213.87,"N_COORD97":2544963.25,"ADDRESS":"忠孝路７６巷４９弄１５號","OBJECTID":142736},"geometry":{"x":172213.87000000104,"y":2544963.2500000019}},{"attributes":{"ID":142737,"DIS_CODE":0,"TOWNNAME":"永康區","LI":"西橋里","LIN":"22鄰","STREET":"大橋三街","SECT":" ","MAREA":" ","LANE":"５７巷","ALLEY":"１９弄","HOUSE_NO":"１１號","E_COORD97":170508.48000000001,"N_COORD97":2546536.5,"ADDRESS":"大橋三街５７巷１９弄１１號","OBJECTID":142737},"geometry":{"x":170508.48000000045,"y":2546536.5000000037}},{"attributes":{"ID":142738,"DIS_CODE":0,"TOWNNAME":"永康區","LI":"尚頂里","LIN":"22鄰","STREET":"南台街","SECT":" ","MAREA":" ","LANE":"１３巷","ALLEY":"３８弄","HOUSE_NO":"１８號","E_COORD97":170341.38,"N_COORD97":2546884.4900000002,"ADDRESS":"南台街１３巷３８弄１８號","OBJECTID":142738},"geometry":{"x":170341.37999999896,"y":2546884.4900000002}},{"attributes":{"ID":142739,"DIS_CODE":0,"TOWNNAME":"仁德區","LI":"仁愛里","LIN":"20鄰","STREET":" ","SECT":" ","MAREA":"仁愛","LANE":" ","ALLEY":" ","HOUSE_NO":"４２４號","E_COORD97":170127.57179399999,"N_COORD97":2540157.0411899998,"ADDRESS":"仁愛４２４號","OBJECTID":142739},"geometry":{"x":170127.57179399952,"y":2540157.0411890019}},{"attributes":{"ID":142740,"DIS_CODE":0,"TOWNNAME":"永康區","LI":"西勢里","LIN":"22鄰","STREET":"富強路","SECT":"一段","MAREA":" ","LANE":"１９４巷","ALLEY":"５弄","HOUSE_NO":"３６號","E_COORD97":175702.34,"N_COORD97":2546311.3799999999,"ADDRESS":"富強路一段１９４巷５弄３６號","OBJECTID":142740},"geometry":{"x":175702.34000000078,"y":2546311.379999999}},{"attributes":{"ID":142741,"DIS_CODE":0,"TOWNNAME":"永康區","LI":"二王里","LIN":"22鄰","STREET":"中山南路","SECT":" ","MAREA":" ","LANE":"５６８巷","ALLEY":"１弄","HOUSE_NO":"１３號","E_COORD97":172282.60000000001,"N_COORD97":2546575.6099999999,"ADDRESS":"中山南路５６８巷１弄１３號","OBJECTID":142741},"geometry":{"x":172282.60000000056,"y":2546575.6099999975}},{"attributes":{"ID":142742,"DIS_CODE":0,"TOWNNAME":"西港區","LI":"檨林里","LIN":" ","STREET":" ","SECT":" ","MAREA":"檨子林","LANE":" ","ALLEY":" ","HOUSE_NO":"６２號","E_COORD97":171328.42000000001,"N_COORD97":2559510.0600000001,"ADDRESS":"檨子林６２號","OBJECTID":142742},"geometry":{"x":171328.42000000086,"y":2559510.0600000005}},{"attributes":{"ID":142743,"DIS_CODE":0,"TOWNNAME":"西港區","LI":"檨林里","LIN":" ","STREET":" ","SECT":" ","MAREA":"檨子林","LANE":" ","ALLEY":" ","HOUSE_NO":"７１之７號","E_COORD97":171401.62,"N_COORD97":2559704.5299999998,"ADDRESS":"檨子林７１之７號","OBJECTID":142743},"geometry":{"x":171401.62000000104,"y":2559704.5300000012}},{"attributes":{"ID":142744,"DIS_CODE":0,"TOWNNAME":"永康區","LI":"二王里","LIN":"22鄰","STREET":"中山南路","SECT":" ","MAREA":" ","LANE":"５６８巷","ALLEY":"１弄","HOUSE_NO":"２７號","E_COORD97":172307.94,"N_COORD97":2546593.6099999999,"ADDRESS":"中山南路５６８巷１弄２７號","OBJECTID":142744},"geometry":{"x":172307.93999999948,"y":2546593.6100000013}},{"attributes":{"ID":142745,"DIS_CODE":0,"TOWNNAME":"永康區","LI":"二王里","LIN":"22鄰","STREET":"中山南路","SECT":" ","MAREA":" ","LANE":"５６８巷","ALLEY":"１弄","HOUSE_NO":"６號","E_COORD97":172279.62,"N_COORD97":2546555.4300000002,"ADDRESS":"中山南路５６８巷１弄６號","OBJECTID":142745},"geometry":{"x":172279.62000000104,"y":2546555.4299999997}},{"attributes":{"ID":142746,"DIS_CODE":0,"TOWNNAME":"永康區","LI":"二王里","LIN":"22鄰","STREET":"中山南路","SECT":" ","MAREA":" ","LANE":"５６８巷","ALLEY":"１弄","HOUSE_NO":"１０號","E_COORD97":172288.12,"N_COORD97":2546560.4199999999,"ADDRESS":"中山南路５６８巷１弄１０號","OBJECTID":142746},"geometry":{"x":172288.12000000104,"y":2546560.4199999999}},{"attributes":{"ID":142747,"DIS_CODE":0,"TOWNNAME":"安南區","LI":"安慶里","LIN":"22鄰","STREET":"安中路","SECT":"一段","MAREA":" ","LANE":"１８９巷","ALLEY":"８５弄","HOUSE_NO":"３號之１","E_COORD97":168810.06,"N_COORD97":2548279.4300000002,"ADDRESS":"安中路一段１８９巷８５弄３號之１","OBJECTID":142747},"geometry":{"x":168810.05999999959,"y":2548279.4300000034}},{"attributes":{"ID":142748,"DIS_CODE":0,"TOWNNAME":"仁德區","LI":"仁德里","LIN":"22鄰","STREET":"中山路","SECT":" ","MAREA":" ","LANE":"８７５巷","ALLEY":"８８弄","HOUSE_NO":"１號","E_COORD97":172339.34,"N_COORD97":2541285.7200000002,"ADDRESS":"中山路８７５巷８８弄１號","OBJECTID":142748},"geometry":{"x":172339.34000000078,"y":2541285.7200000025}},{"attributes":{"ID":142749,"DIS_CODE":0,"TOWNNAME":"西港區","LI":"檨林里","LIN":" ","STREET":" ","SECT":" ","MAREA":"檨子林","LANE":" ","ALLEY":" ","HOUSE_NO":"７４號","E_COORD97":171373.87,"N_COORD97":2559719.3999999999,"ADDRESS":"檨子林７４號","OBJECTID":142749},"geometry":{"x":171373.87000000011,"y":2559719.4000000041}},{"attributes":{"ID":142750,"DIS_CODE":0,"TOWNNAME":"西港區","LI":"檨林里","LIN":" ","STREET":" ","SECT":" ","MAREA":"檨子林","LANE":" ","ALLEY":" ","HOUSE_NO":"８６之３號","E_COORD97":171316.79000000001,"N_COORD97":2559773.0699999998,"ADDRESS":"檨子林８６之３號","OBJECTID":142750},"geometry":{"x":171316.79000000004,"y":2559773.0700000022}},{"attributes":{"ID":142751,"DIS_CODE":0,"TOWNNAME":"西港區","LI":"檨林里","LIN":" ","STREET":" ","SECT":" ","MAREA":"檨子林","LANE":" ","ALLEY":" ","HOUSE_NO":"９７號","E_COORD97":171191.54999999999,"N_COORD97":2559872.5,"ADDRESS":"檨子林９７號","OBJECTID":142751},"geometry":{"x":171191.55000000075,"y":2559872.5000000019}},{"attributes":{"ID":142752,"DIS_CODE":0,"TOWNNAME":"大內區","LI":"石湖里","LIN":" ","STREET":" ","SECT":" ","MAREA":"石子瀨","LANE":" ","ALLEY":" ","HOUSE_NO":"３３３之６號","E_COORD97":183767.76999999999,"N_COORD97":2558294.2999999998,"ADDRESS":"石子瀨３３３之６號","OBJECTID":142752},"geometry":{"x":183767.77000000142,"y":2558294.3000000026}},{"attributes":{"ID":142753,"DIS_CODE":0,"TOWNNAME":"大內區","LI":"石湖里","LIN":" ","STREET":" ","SECT":" ","MAREA":"石子瀨","LANE":" ","ALLEY":" ","HOUSE_NO":"２９３之６號","E_COORD97":183934.87,"N_COORD97":2558253.2999999998,"ADDRESS":"石子瀨２９３之６號","OBJECTID":142753},"geometry":{"x":183934.87000000011,"y":2558253.3000000026}},{"attributes":{"ID":142754,"DIS_CODE":0,"TOWNNAME":"大內區","LI":"曲溪里","LIN":" ","STREET":" ","SECT":" ","MAREA":"二重溪","LANE":" ","ALLEY":" ","HOUSE_NO":"３１之１號","E_COORD97":187330.69,"N_COORD97":2557538.3100000001,"ADDRESS":"二重溪３１之１號","OBJECTID":142754},"geometry":{"x":187330.68999999948,"y":2557538.3100000024}},{"attributes":{"ID":142755,"DIS_CODE":0,"TOWNNAME":"大內區","LI":"石湖里","LIN":" ","STREET":" ","SECT":" ","MAREA":"石子瀨","LANE":" ","ALLEY":" ","HOUSE_NO":"２９０之４號","E_COORD97":183955.47,"N_COORD97":2558215.2999999998,"ADDRESS":"石子瀨２９０之４號","OBJECTID":142755},"geometry":{"x":183955.47000000067,"y":2558215.3000000045}},{"attributes":{"ID":142756,"DIS_CODE":0,"TOWNNAME":"大內區","LI":"石林里","LIN":" ","STREET":" ","SECT":" ","MAREA":"石子瀨","LANE":" ","ALLEY":" ","HOUSE_NO":"２２２之１號","E_COORD97":184198.07000000001,"N_COORD97":2558394.2999999998,"ADDRESS":"石子瀨２２２之１號","OBJECTID":142756},"geometry":{"x":184198.0700000003,"y":2558394.3000000007}},{"attributes":{"ID":142757,"DIS_CODE":0,"TOWNNAME":"仁德區","LI":"仁德里","LIN":"22鄰","STREET":"中山路","SECT":" ","MAREA":" ","LANE":"８７５巷","ALLEY":"８８弄","HOUSE_NO":"２號","E_COORD97":172344.48999999999,"N_COORD97":2541296.9700000002,"ADDRESS":"中山路８７５巷８８弄２號","OBJECTID":142757},"geometry":{"x":172344.49000000022,"y":2541296.9700000025}},{"attributes":{"ID":142758,"DIS_CODE":0,"TOWNNAME":"永康區","LI":"北灣里","LIN":"22鄰","STREET":"大灣路","SECT":" ","MAREA":" ","LANE":"４０巷","ALLEY":"９８弄","HOUSE_NO":"８號","E_COORD97":174972.17999999999,"N_COORD97":2546223.5499999998,"ADDRESS":"大灣路４０巷９８弄８號","OBJECTID":142758},"geometry":{"x":174972.18000000156,"y":2546223.5500000007}},{"attributes":{"ID":142759,"DIS_CODE":0,"TOWNNAME":"永康區","LI":"北灣里","LIN":"22鄰","STREET":"大灣路","SECT":" ","MAREA":" ","LANE":"４０巷","ALLEY":"９８弄","HOUSE_NO":"１３號","E_COORD97":174980.67999999999,"N_COORD97":2546253.3199999998,"ADDRESS":"大灣路４０巷９８弄１３號","OBJECTID":142759},"geometry":{"x":174980.68000000156,"y":2546253.320000004}},{"attributes":{"ID":142760,"DIS_CODE":0,"TOWNNAME":"永康區","LI":"北灣里","LIN":"22鄰","STREET":"大灣路","SECT":" ","MAREA":" ","LANE":"４０巷","ALLEY":"９８弄","HOUSE_NO":"５４號","E_COORD97":175006.17000000001,"N_COORD97":2546280.6400000001,"ADDRESS":"大灣路４０巷９８弄５４號","OBJECTID":142760},"geometry":{"x":175006.16999999993,"y":2546280.6400000006}},{"attributes":{"ID":142761,"DIS_CODE":0,"TOWNNAME":"永康區","LI":"北灣里","LIN":"22鄰","STREET":"大灣路","SECT":" ","MAREA":" ","LANE":"４０巷","ALLEY":"９８弄","HOUSE_NO":"６８號","E_COORD97":174984.04000000001,"N_COORD97":2546301.3300000001,"ADDRESS":"大灣路４０巷９８弄６８號","OBJECTID":142761},"geometry":{"x":174984.04000000097,"y":2546301.3300000019}},{"attributes":{"ID":142762,"DIS_CODE":0,"TOWNNAME":"永康區","LI":"北灣里","LIN":"22鄰","STREET":"大灣路","SECT":" ","MAREA":" ","LANE":"４０巷","ALLEY":"９８弄","HOUSE_NO":"７６號","E_COORD97":174972.42000000001,"N_COORD97":2546312.1499999999,"ADDRESS":"大灣路４０巷９８弄７６號","OBJECTID":142762},"geometry":{"x":174972.42000000179,"y":2546312.1500000041}},{"attributes":{"ID":142763,"DIS_CODE":0,"TOWNNAME":"永康區","LI":"北灣里","LIN":"22鄰","STREET":"大灣路","SECT":" ","MAREA":" ","LANE":"４０巷","ALLEY":"９８弄","HOUSE_NO":"２０號","E_COORD97":174989.76000000001,"N_COORD97":2546241.5499999998,"ADDRESS":"大灣路４０巷９８弄２０號","OBJECTID":142763},"geometry":{"x":174989.75999999978,"y":2546241.5500000007}},{"attributes":{"ID":142764,"DIS_CODE":0,"TOWNNAME":"永康區","LI":"北灣里","LIN":"22鄰","STREET":"大灣路","SECT":" ","MAREA":" ","LANE":"４０巷","ALLEY":"９８弄","HOUSE_NO":"２６號","E_COORD97":174997.92000000001,"N_COORD97":2546249.79,"ADDRESS":"大灣路４０巷９８弄２６號","OBJECTID":142764},"geometry":{"x":174997.92000000179,"y":2546249.790000001}},{"attributes":{"ID":142765,"DIS_CODE":0,"TOWNNAME":"永康區","LI":"北灣里","LIN":"22鄰","STREET":"大灣路","SECT":" ","MAREA":" ","LANE":"４０巷","ALLEY":"９８弄","HOUSE_NO":"７４號","E_COORD97":174975.81,"N_COORD97":2546309.1499999999,"ADDRESS":"大灣路４０巷９８弄７４號","OBJECTID":142765},"geometry":{"x":174975.80999999959,"y":2546309.1500000022}},{"attributes":{"ID":142766,"DIS_CODE":0,"TOWNNAME":"永康區","LI":"北灣里","LIN":"22鄰","STREET":"大灣路","SECT":" ","MAREA":" ","LANE":"４０巷","ALLEY":"９８弄","HOUSE_NO":"５６號","E_COORD97":175003.31,"N_COORD97":2546283.3900000001,"ADDRESS":"大灣路４０巷９８弄５６號","OBJECTID":142766},"geometry":{"x":175003.30999999866,"y":2546283.3899999987}},{"attributes":{"ID":142767,"DIS_CODE":0,"TOWNNAME":"永康區","LI":"北灣里","LIN":"22鄰","STREET":"大灣路","SECT":" ","MAREA":" ","LANE":"４０巷","ALLEY":"９８弄","HOUSE_NO":"２５號","E_COORD97":174976.54999999999,"N_COORD97":2546278.7999999998,"ADDRESS":"大灣路４０巷９８弄２５號","OBJECTID":142767},"geometry":{"x":174976.55000000168,"y":2546278.8000000026}},{"attributes":{"ID":142768,"DIS_CODE":0,"TOWNNAME":"永康區","LI":"北灣里","LIN":"22鄰","STREET":"大灣路","SECT":" ","MAREA":" ","LANE":"４０巷","ALLEY":"９８弄","HOUSE_NO":"４２號","E_COORD97":175024.26000000001,"N_COORD97":2546263.8900000001,"ADDRESS":"大灣路４０巷９８弄４２號","OBJECTID":142768},"geometry":{"x":175024.26000000164,"y":2546263.8900000025}},{"attributes":{"ID":142769,"DIS_CODE":0,"TOWNNAME":"永康區","LI":"北灣里","LIN":"22鄰","STREET":"大灣路","SECT":" ","MAREA":" ","LANE":"４０巷","ALLEY":"９８弄","HOUSE_NO":"２１號","E_COORD97":174991.25,"N_COORD97":2546265.3199999998,"ADDRESS":"大灣路４０巷９８弄２１號","OBJECTID":142769},"geometry":{"x":174991.25000000093,"y":2546265.3200000003}},{"attributes":{"ID":142770,"DIS_CODE":0,"TOWNNAME":"永康區","LI":"北灣里","LIN":"22鄰","STREET":"大灣路","SECT":" ","MAREA":" ","LANE":"４０巷","ALLEY":"９８弄","HOUSE_NO":"１７號","E_COORD97":174985.76999999999,"N_COORD97":2546259.3199999998,"ADDRESS":"大灣路４０巷９８弄１７號","OBJECTID":142770},"geometry":{"x":174985.77000000048,"y":2546259.3200000003}},{"attributes":{"ID":142771,"DIS_CODE":0,"TOWNNAME":"永康區","LI":"北灣里","LIN":"22鄰","STREET":"大灣路","SECT":" ","MAREA":" ","LANE":"４０巷","ALLEY":"９８弄","HOUSE_NO":"２３號","E_COORD97":174995.17999999999,"N_COORD97":2546268.8199999998,"ADDRESS":"大灣路４０巷９８弄２３號","OBJECTID":142771},"geometry":{"x":174995.1799999997,"y":2546268.8200000003}},{"attributes":{"ID":142772,"DIS_CODE":0,"TOWNNAME":"永康區","LI":"北灣里","LIN":"22鄰","STREET":"大灣路","SECT":" ","MAREA":" ","LANE":"４０巷","ALLEY":"９８弄","HOUSE_NO":"９號","E_COORD97":174974.09,"N_COORD97":2546247.0800000001,"ADDRESS":"大灣路４０巷９８弄９號","OBJECTID":142772},"geometry":{"x":174974.08999999985,"y":2546247.0800000001}},{"attributes":{"ID":142773,"DIS_CODE":0,"TOWNNAME":"永康區","LI":"北灣里","LIN":"22鄰","STREET":"大灣路","SECT":" ","MAREA":" ","LANE":"４０巷","ALLEY":"９８弄","HOUSE_NO":"２４號","E_COORD97":174995.42000000001,"N_COORD97":2546247.2999999998,"ADDRESS":"大灣路４０巷９８弄２４號","OBJECTID":142773},"geometry":{"x":174995.41999999993,"y":2546247.3000000045}},{"attributes":{"ID":142774,"DIS_CODE":0,"TOWNNAME":"永康區","LI":"北灣里","LIN":"22鄰","STREET":"大灣路","SECT":" ","MAREA":" ","LANE":"４０巷","ALLEY":"９８弄","HOUSE_NO":"６號","E_COORD97":174969.31,"N_COORD97":2546220.5499999998,"ADDRESS":"大灣路４０巷９８弄６號","OBJECTID":142774},"geometry":{"x":174969.30999999959,"y":2546220.5500000007}},{"attributes":{"ID":142775,"DIS_CODE":0,"TOWNNAME":"永康區","LI":"北灣里","LIN":"22鄰","STREET":"大灣路","SECT":" ","MAREA":" ","LANE":"４０巷","ALLEY":"９８弄","HOUSE_NO":"４４號","E_COORD97":175020.92000000001,"N_COORD97":2546266.6400000001,"ADDRESS":"大灣路４０巷９８弄４４號","OBJECTID":142775},"geometry":{"x":175020.91999999993,"y":2546266.6400000025}},{"attributes":{"ID":142776,"DIS_CODE":0,"TOWNNAME":"北區","LI":"大港里","LIN":"33鄰","STREET":"大興街","SECT":" ","MAREA":" ","LANE":" ","ALLEY":" ","HOUSE_NO":"５４２號","E_COORD97":165984.75,"N_COORD97":2545440.4300000002,"ADDRESS":"大興街５４２號","OBJECTID":142776},"geometry":{"x":165984.75000000093,"y":2545440.4299999997}},{"attributes":{"ID":142777,"DIS_CODE":0,"TOWNNAME":"北區","LI":"大港里","LIN":"33鄰","STREET":"大興街","SECT":" ","MAREA":" ","LANE":" ","ALLEY":" ","HOUSE_NO":"５４２號之１","E_COORD97":165980.48000000001,"N_COORD97":2545439.04,"ADDRESS":"大興街５４２號之１","OBJECTID":142777},"geometry":{"x":165980.48000000138,"y":2545439.0399999991}},{"attributes":{"ID":142778,"DIS_CODE":0,"TOWNNAME":"北區","LI":"大港里","LIN":"33鄰","STREET":"大興街","SECT":" ","MAREA":" ","LANE":" ","ALLEY":" ","HOUSE_NO":"５４６號","E_COORD97":165977,"N_COORD97":2545436.96,"ADDRESS":"大興街５４６號","OBJECTID":142778},"geometry":{"x":165977,"y":2545436.9600000028}},{"attributes":{"ID":142779,"DIS_CODE":0,"TOWNNAME":"北區","LI":"大港里","LIN":"33鄰","STREET":"大興街","SECT":" ","MAREA":" ","LANE":" ","ALLEY":" ","HOUSE_NO":"５４８號","E_COORD97":165972.12,"N_COORD97":2545435.9700000002,"ADDRESS":"大興街５４８號","OBJECTID":142779},"geometry":{"x":165972.12000000104,"y":2545435.9700000025}},{"attributes":{"ID":142780,"DIS_CODE":0,"TOWNNAME":"鹽水區","LI":"下中里","LIN":"3鄰","STREET":" ","SECT":" ","MAREA":"樹子腳","LANE":" ","ALLEY":" ","HOUSE_NO":"１４號之２","E_COORD97":172584.88,"N_COORD97":2579979.7000000002,"ADDRESS":"樹子腳１４號之２","OBJECTID":142780},"geometry":{"x":172584.88000000082,"y":2579979.6999999993}},{"attributes":{"ID":142781,"DIS_CODE":0,"TOWNNAME":"大內區","LI":"曲溪里","LIN":" ","STREET":" ","SECT":" ","MAREA":"二重溪","LANE":" ","ALLEY":" ","HOUSE_NO":"７０之７號","E_COORD97":187325.98999999999,"N_COORD97":2557768.3100000001,"ADDRESS":"二重溪７０之７號","OBJECTID":142781},"geometry":{"x":187325.99000000115,"y":2557768.3100000024}},{"attributes":{"ID":142782,"DIS_CODE":0,"TOWNNAME":"大內區","LI":"石林里","LIN":" ","STREET":" ","SECT":" ","MAREA":"石子瀨","LANE":" ","ALLEY":" ","HOUSE_NO":"２１６之２號","E_COORD97":184204.07000000001,"N_COORD97":2558365.2999999998,"ADDRESS":"石子瀨２１６之２號","OBJECTID":142782},"geometry":{"x":184204.07000000123,"y":2558365.3000000026}},{"attributes":{"ID":142783,"DIS_CODE":0,"TOWNNAME":"大內區","LI":"石城里","LIN":" ","STREET":" ","SECT":" ","MAREA":"石子瀨","LANE":" ","ALLEY":" ","HOUSE_NO":"３５之８號","E_COORD97":183792.32000000001,"N_COORD97":2558037.2999999998,"ADDRESS":"石子瀨３５之８號","OBJECTID":142783},"geometry":{"x":183792.32000000123,"y":2558037.3000000007}},{"attributes":{"ID":142784,"DIS_CODE":0,"TOWNNAME":"大內區","LI":"內江里","LIN":" ","STREET":" ","SECT":" ","MAREA":"內庄","LANE":" ","ALLEY":" ","HOUSE_NO":"３１９之１號","E_COORD97":184995.88,"N_COORD97":2556867.2999999998,"ADDRESS":"內庄３１９之１號","OBJECTID":142784},"geometry":{"x":184995.87999999989,"y":2556867.3000000026}},{"attributes":{"ID":142785,"DIS_CODE":0,"TOWNNAME":"大內區","LI":"石林里","LIN":" ","STREET":" ","SECT":" ","MAREA":"石子瀨","LANE":" ","ALLEY":" ","HOUSE_NO":"１９９之３號","E_COORD97":184151.47,"N_COORD97":2558098.2999999998,"ADDRESS":"石子瀨１９９之３號","OBJECTID":142785},"geometry":{"x":184151.4700000016,"y":2558098.3000000007}},{"attributes":{"ID":142786,"DIS_CODE":0,"TOWNNAME":"大內區","LI":"頭社里","LIN":" ","STREET":" ","SECT":" ","MAREA":"頭社","LANE":" ","ALLEY":" ","HOUSE_NO":"６８之４號","E_COORD97":187275.34,"N_COORD97":2560348.2999999998,"ADDRESS":"頭社６８之４號","OBJECTID":142786},"geometry":{"x":187275.34000000078,"y":2560348.3000000026}},{"attributes":{"ID":142787,"DIS_CODE":0,"TOWNNAME":"大內區","LI":"頭社里","LIN":" ","STREET":" ","SECT":" ","MAREA":"頭社","LANE":" ","ALLEY":" ","HOUSE_NO":"１６８之１號","E_COORD97":186835.69,"N_COORD97":2561197.2999999998,"ADDRESS":"頭社１６８之１號","OBJECTID":142787},"geometry":{"x":186835.68999999948,"y":2561197.3000000007}},{"attributes":{"ID":142788,"DIS_CODE":0,"TOWNNAME":"大內區","LI":"石城里","LIN":" ","STREET":" ","SECT":" ","MAREA":"石子瀨","LANE":" ","ALLEY":" ","HOUSE_NO":"２１之７號","E_COORD97":184113.92000000001,"N_COORD97":2558351.2999999998,"ADDRESS":"石子瀨２１之７號","OBJECTID":142788},"geometry":{"x":184113.91999999993,"y":2558351.3000000026}},{"attributes":{"ID":142789,"DIS_CODE":0,"TOWNNAME":"鹽水區","LI":"南港里","LIN":"3鄰","STREET":" ","SECT":" ","MAREA":"?頭港","LANE":" ","ALLEY":" ","HOUSE_NO":"１４２號","E_COORD97":172960.81,"N_COORD97":2572543.1499999999,"ADDRESS":"?頭港１４２號","OBJECTID":142789},"geometry":{"x":172960.81000000145,"y":2572543.1500000004}},{"attributes":{"ID":142790,"DIS_CODE":0,"TOWNNAME":"鹽水區","LI":"福得里","LIN":"5鄰","STREET":" ","SECT":" ","MAREA":"後厝","LANE":" ","ALLEY":" ","HOUSE_NO":"８８號","E_COORD97":175386.04999999999,"N_COORD97":2579822.48,"ADDRESS":"後厝８８號","OBJECTID":142790},"geometry":{"x":175386.04999999981,"y":2579822.4800000004}},{"attributes":{"ID":142791,"DIS_CODE":0,"TOWNNAME":"大內區","LI":"石林里","LIN":" ","STREET":" ","SECT":" ","MAREA":"石子瀨","LANE":" ","ALLEY":" ","HOUSE_NO":"１６３之１號","E_COORD97":184068.26999999999,"N_COORD97":2558146.2999999998,"ADDRESS":"石子瀨１６３之１號","OBJECTID":142791},"geometry":{"x":184068.27000000048,"y":2558146.3000000007}},{"attributes":{"ID":142792,"DIS_CODE":0,"TOWNNAME":"大內區","LI":"曲溪里","LIN":" ","STREET":" ","SECT":" ","MAREA":"二重溪","LANE":" ","ALLEY":" ","HOUSE_NO":"４０號","E_COORD97":188340.79000000001,"N_COORD97":2558185.3100000001,"ADDRESS":"二重溪４０號","OBJECTID":142792},"geometry":{"x":188340.79000000097,"y":2558185.3100000024}},{"attributes":{"ID":142793,"DIS_CODE":0,"TOWNNAME":"大內區","LI":"石城里","LIN":" ","STREET":" ","SECT":" ","MAREA":"石子瀨","LANE":" ","ALLEY":" ","HOUSE_NO":"７４之５號","E_COORD97":184270.42000000001,"N_COORD97":2557753.2999999998,"ADDRESS":"石子瀨７４之５號","OBJECTID":142793},"geometry":{"x":184270.41999999993,"y":2557753.3000000007}},{"attributes":{"ID":142794,"DIS_CODE":0,"TOWNNAME":"大內區","LI":"頭社里","LIN":" ","STREET":" ","SECT":" ","MAREA":"頭社","LANE":" ","ALLEY":" ","HOUSE_NO":"１６８之３號","E_COORD97":186798.48999999999,"N_COORD97":2561155.2999999998,"ADDRESS":"頭社１６８之３號","OBJECTID":142794},"geometry":{"x":186798.49000000115,"y":2561155.3000000026}},{"attributes":{"ID":142795,"DIS_CODE":0,"TOWNNAME":"大內區","LI":"大內里","LIN":" ","STREET":" ","SECT":" ","MAREA":"內庄","LANE":" ","ALLEY":" ","HOUSE_NO":"７之２號","E_COORD97":184476.78,"N_COORD97":2557569.2999999998,"ADDRESS":"內庄７之２號","OBJECTID":142795},"geometry":{"x":184476.78000000026,"y":2557569.3000000007}},{"attributes":{"ID":142796,"DIS_CODE":0,"TOWNNAME":"大內區","LI":"曲溪里","LIN":" ","STREET":" ","SECT":" ","MAREA":"二重溪","LANE":" ","ALLEY":" ","HOUSE_NO":"１０５之１號","E_COORD97":187397.54000000001,"N_COORD97":2557814.3100000001,"ADDRESS":"二重溪１０５之１號","OBJECTID":142796},"geometry":{"x":187397.5400000019,"y":2557814.3100000005}},{"attributes":{"ID":142797,"DIS_CODE":0,"TOWNNAME":"大內區","LI":"石湖里","LIN":" ","STREET":" ","SECT":" ","MAREA":"石子瀨","LANE":" ","ALLEY":" ","HOUSE_NO":"２９０之１號","E_COORD97":183966.37,"N_COORD97":2558217.2999999998,"ADDRESS":"石子瀨２９０之１號","OBJECTID":142797},"geometry":{"x":183966.37000000104,"y":2558217.3000000007}},{"attributes":{"ID":142798,"DIS_CODE":0,"TOWNNAME":"大內區","LI":"石城里","LIN":" ","STREET":" ","SECT":" ","MAREA":"石子瀨","LANE":" ","ALLEY":" ","HOUSE_NO":"１１３之１３號","E_COORD97":183980.32000000001,"N_COORD97":2557800.2999999998,"ADDRESS":"石子瀨１１３之１３號","OBJECTID":142798},"geometry":{"x":183980.32000000123,"y":2557800.3000000007}},{"attributes":{"ID":142799,"DIS_CODE":0,"TOWNNAME":"大內區","LI":"石湖里","LIN":" ","STREET":" ","SECT":" ","MAREA":"石子瀨","LANE":" ","ALLEY":" ","HOUSE_NO":"３２０之３號","E_COORD97":183905.97,"N_COORD97":2558470.2999999998,"ADDRESS":"石子瀨３２０之３號","OBJECTID":142799},"geometry":{"x":183905.97000000067,"y":2558470.3000000026}},{"attributes":{"ID":142800,"DIS_CODE":0,"TOWNNAME":"大內區","LI":"石城里","LIN":" ","STREET":" ","SECT":" ","MAREA":"石子瀨","LANE":" ","ALLEY":" ","HOUSE_NO":"１１４之２８號","E_COORD97":183896.92000000001,"N_COORD97":2557923.2999999998,"ADDRESS":"石子瀨１１４之２８號","OBJECTID":142800},"geometry":{"x":183896.91999999993,"y":2557923.2999999989}}]}