{"displayFieldName":"TOWNNAME","fieldAliases":{"ID":"ID","DIS_CODE":"DIS_CODE","TOWNNAME":"TOWNNAME","LI":"LI","LIN":"LIN","STREET":"STREET","SECT":"SECT","MAREA":"MAREA","LANE":"LANE","ALLEY":"ALLEY","HOUSE_NO":"HOUSE_NO","E_COORD97":"E_COORD97","N_COORD97":"N_COORD97","ADDRESS":"ADDRESS","OBJECTID":"OBJECTID"},"geometryType":"esriGeometryPoint","spatialReference":{"wkid":102443,"latestWkid":3826},"fields":[{"name":"ID","type":"esriFieldTypeDouble","alias":"ID"},{"name":"DIS_CODE","type":"esriFieldTypeInteger","alias":"DIS_CODE"},{"name":"TOWNNAME","type":"esriFieldTypeString","alias":"TOWNNAME","length":8},{"name":"LI","type":"esriFieldTypeString","alias":"LI","length":8},{"name":"LIN","type":"esriFieldTypeString","alias":"LIN","length":12},{"name":"STREET","type":"esriFieldTypeString","alias":"STREET","length":20},{"name":"SECT","type":"esriFieldTypeString","alias":"SECT","length":8},{"name":"MAREA","type":"esriFieldTypeString","alias":"MAREA","length":12},{"name":"LANE","type":"esriFieldTypeString","alias":"LANE","length":10},{"name":"ALLEY","type":"esriFieldTypeString","alias":"ALLEY","length":10},{"name":"HOUSE_NO","type":"esriFieldTypeString","alias":"HOUSE_NO","length":20},{"name":"E_COORD97","type":"esriFieldTypeDouble","alias":"E_COORD97"},{"name":"N_COORD97","type":"esriFieldTypeDouble","alias":"N_COORD97"},{"name":"ADDRESS","type":"esriFieldTypeString","alias":"ADDRESS","length":50},{"name":"OBJECTID","type":"esriFieldTypeOID","alias":"OBJECTID"}],"features":[{"attributes":{"ID":599628,"DIS_CODE":0,"TOWNNAME":"中西區","LI":"藥王里","LIN":"18鄰","STREET":"美麗街","SECT":" ","MAREA":" ","LANE":" ","ALLEY":" ","HOUSE_NO":"１８號","E_COORD97":166912.13,"N_COORD97":2544499.7999999998,"ADDRESS":"美麗街１８號","OBJECTID":599601},"geometry":{"x":166912.13000000175,"y":2544499.8000000007}},{"attributes":{"ID":599629,"DIS_CODE":0,"TOWNNAME":"東區","LI":"大智里","LIN":"25鄰","STREET":"文東街","SECT":" ","MAREA":" ","LANE":" ","ALLEY":" ","HOUSE_NO":"９７號","E_COORD97":171418.22,"N_COORD97":2540214.6899999999,"ADDRESS":"文東街９７號","OBJECTID":599602},"geometry":{"x":171418.21999999974,"y":2540214.6899999995}},{"attributes":{"ID":599630,"DIS_CODE":0,"TOWNNAME":"中西區","LI":"藥王里","LIN":"14鄰","STREET":"西和路","SECT":" ","MAREA":" ","LANE":" ","ALLEY":" ","HOUSE_NO":"１０２號","E_COORD97":166869.22,"N_COORD97":2544554.3900000001,"ADDRESS":"西和路１０２號","OBJECTID":599603},"geometry":{"x":166869.22000000067,"y":2544554.3900000043}},{"attributes":{"ID":599631,"DIS_CODE":0,"TOWNNAME":"中西區","LI":"藥王里","LIN":"14鄰","STREET":"和真街","SECT":" ","MAREA":" ","LANE":" ","ALLEY":" ","HOUSE_NO":"２５號","E_COORD97":166956.35999999999,"N_COORD97":2544498.3500000001,"ADDRESS":"和真街２５號","OBJECTID":599604},"geometry":{"x":166956.36000000034,"y":2544498.3499999996}},{"attributes":{"ID":599632,"DIS_CODE":0,"TOWNNAME":"中西區","LI":"藥王里","LIN":"14鄰","STREET":"和真街","SECT":" ","MAREA":" ","LANE":" ","ALLEY":" ","HOUSE_NO":"２７號","E_COORD97":166952.94,"N_COORD97":2544502.2999999998,"ADDRESS":"和真街２７號","OBJECTID":599605},"geometry":{"x":166952.94000000227,"y":2544502.3000000026}},{"attributes":{"ID":599633,"DIS_CODE":0,"TOWNNAME":"中西區","LI":"藥王里","LIN":"14鄰","STREET":"和真街","SECT":" ","MAREA":" ","LANE":" ","ALLEY":" ","HOUSE_NO":"２９號","E_COORD97":166951.09,"N_COORD97":2544506.77,"ADDRESS":"和真街２９號","OBJECTID":599606},"geometry":{"x":166951.08999999985,"y":2544506.7700000033}},{"attributes":{"ID":599634,"DIS_CODE":0,"TOWNNAME":"中西區","LI":"藥王里","LIN":"14鄰","STREET":"和真街","SECT":" ","MAREA":" ","LANE":" ","ALLEY":" ","HOUSE_NO":"３１號","E_COORD97":166946.35999999999,"N_COORD97":2544508.6099999999,"ADDRESS":"和真街３１號","OBJECTID":599607},"geometry":{"x":166946.36000000034,"y":2544508.6100000013}},{"attributes":{"ID":599635,"DIS_CODE":0,"TOWNNAME":"中西區","LI":"藥王里","LIN":"14鄰","STREET":"和真街","SECT":" ","MAREA":" ","LANE":" ","ALLEY":" ","HOUSE_NO":"３３號","E_COORD97":166944.25,"N_COORD97":2544512.0299999998,"ADDRESS":"和真街３３號","OBJECTID":599608},"geometry":{"x":166944.25000000093,"y":2544512.0300000012}},{"attributes":{"ID":599636,"DIS_CODE":0,"TOWNNAME":"中西區","LI":"藥王里","LIN":"14鄰","STREET":"和真街","SECT":" ","MAREA":" ","LANE":" ","ALLEY":" ","HOUSE_NO":"３５號","E_COORD97":166941.88,"N_COORD97":2544515.98,"ADDRESS":"和真街３５號","OBJECTID":599609},"geometry":{"x":166941.87999999989,"y":2544515.9800000004}},{"attributes":{"ID":599637,"DIS_CODE":0,"TOWNNAME":"中西區","LI":"藥王里","LIN":"14鄰","STREET":"和真街","SECT":" ","MAREA":" ","LANE":" ","ALLEY":" ","HOUSE_NO":"３７號","E_COORD97":166938.98000000001,"N_COORD97":2544519.6600000001,"ADDRESS":"和真街３７號","OBJECTID":599610},"geometry":{"x":166938.98000000045,"y":2544519.660000002}},{"attributes":{"ID":599638,"DIS_CODE":0,"TOWNNAME":"中西區","LI":"藥王里","LIN":"14鄰","STREET":"和真街","SECT":" ","MAREA":" ","LANE":" ","ALLEY":" ","HOUSE_NO":"４７號","E_COORD97":166921.34,"N_COORD97":2544541.7599999998,"ADDRESS":"和真街４７號","OBJECTID":599611},"geometry":{"x":166921.34000000078,"y":2544541.7600000016}},{"attributes":{"ID":599639,"DIS_CODE":0,"TOWNNAME":"中西區","LI":"藥王里","LIN":"14鄰","STREET":"和真街","SECT":" ","MAREA":" ","LANE":" ","ALLEY":" ","HOUSE_NO":"４９號","E_COORD97":166918.19,"N_COORD97":2544545.1800000002,"ADDRESS":"和真街４９號","OBJECTID":599612},"geometry":{"x":166918.19000000041,"y":2544545.1800000016}},{"attributes":{"ID":599640,"DIS_CODE":0,"TOWNNAME":"中西區","LI":"藥王里","LIN":"14鄰","STREET":"和真街","SECT":" ","MAREA":" ","LANE":" ","ALLEY":" ","HOUSE_NO":"５１號","E_COORD97":166915.82000000001,"N_COORD97":2544548.0699999998,"ADDRESS":"和真街５１號","OBJECTID":599613},"geometry":{"x":166915.8200000003,"y":2544548.0700000003}},{"attributes":{"ID":599641,"DIS_CODE":0,"TOWNNAME":"中西區","LI":"藥王里","LIN":"14鄰","STREET":"和真街","SECT":" ","MAREA":" ","LANE":" ","ALLEY":" ","HOUSE_NO":"５３號","E_COORD97":166913.45000000001,"N_COORD97":2544552.5499999998,"ADDRESS":"和真街５３號","OBJECTID":599614},"geometry":{"x":166913.45000000019,"y":2544552.5500000007}},{"attributes":{"ID":599642,"DIS_CODE":0,"TOWNNAME":"中西區","LI":"藥王里","LIN":"14鄰","STREET":"和真街","SECT":" ","MAREA":" ","LANE":" ","ALLEY":" ","HOUSE_NO":"５５號","E_COORD97":166906.07000000001,"N_COORD97":2544555.4399999999,"ADDRESS":"和真街５５號","OBJECTID":599615},"geometry":{"x":166906.06999999937,"y":2544555.4399999995}},{"attributes":{"ID":599643,"DIS_CODE":0,"TOWNNAME":"中西區","LI":"藥王里","LIN":"14鄰","STREET":"和真街","SECT":" ","MAREA":" ","LANE":" ","ALLEY":" ","HOUSE_NO":"５７號","E_COORD97":166902.64999999999,"N_COORD97":2544560.1800000002,"ADDRESS":"和真街５７號","OBJECTID":599616},"geometry":{"x":166902.6500000013,"y":2544560.1799999997}},{"attributes":{"ID":599644,"DIS_CODE":0,"TOWNNAME":"中西區","LI":"西賢里","LIN":"6鄰","STREET":"湖美街","SECT":" ","MAREA":" ","LANE":" ","ALLEY":" ","HOUSE_NO":"２４１號","E_COORD97":165895.72,"N_COORD97":2544987.9399999999,"ADDRESS":"湖美街２４１號","OBJECTID":599617},"geometry":{"x":165895.71999999974,"y":2544987.9400000013}},{"attributes":{"ID":599645,"DIS_CODE":0,"TOWNNAME":"六甲區","LI":"六甲里","LIN":"10鄰","STREET":"民生街","SECT":" ","MAREA":" ","LANE":" ","ALLEY":" ","HOUSE_NO":"７７之１號","E_COORD97":183675.07000000001,"N_COORD97":2569696.1800000002,"ADDRESS":"民生街７７之１號","OBJECTID":599618},"geometry":{"x":183675.07000000216,"y":2569696.1800000016}},{"attributes":{"ID":599646,"DIS_CODE":0,"TOWNNAME":"中西區","LI":"藥王里","LIN":"18鄰","STREET":"美麗街","SECT":" ","MAREA":" ","LANE":" ","ALLEY":" ","HOUSE_NO":"２２號","E_COORD97":166899.75,"N_COORD97":2544494.48,"ADDRESS":"美麗街２２號","OBJECTID":599619},"geometry":{"x":166899.75000000093,"y":2544494.4800000004}},{"attributes":{"ID":599647,"DIS_CODE":0,"TOWNNAME":"東區","LI":"大智里","LIN":"25鄰","STREET":"文東街","SECT":" ","MAREA":" ","LANE":" ","ALLEY":" ","HOUSE_NO":"７４號","E_COORD97":171417.20000000001,"N_COORD97":2540193,"ADDRESS":"文東街７４號","OBJECTID":599620},"geometry":{"x":171417.20000000019,"y":2540193.0000000037}},{"attributes":{"ID":599648,"DIS_CODE":0,"TOWNNAME":"中西區","LI":"藥王里","LIN":"19鄰","STREET":"中和街","SECT":" ","MAREA":" ","LANE":" ","ALLEY":" ","HOUSE_NO":"２９號","E_COORD97":166983.09,"N_COORD97":2544531.3199999998,"ADDRESS":"中和街２９號","OBJECTID":599621},"geometry":{"x":166983.08999999985,"y":2544531.3200000022}},{"attributes":{"ID":599649,"DIS_CODE":0,"TOWNNAME":"中西區","LI":"藥王里","LIN":"19鄰","STREET":"中和街","SECT":" ","MAREA":" ","LANE":" ","ALLEY":" ","HOUSE_NO":"３１號","E_COORD97":166986.72,"N_COORD97":2544534.0899999999,"ADDRESS":"中和街３１號","OBJECTID":599622},"geometry":{"x":166986.72000000067,"y":2544534.0899999999}},{"attributes":{"ID":599650,"DIS_CODE":0,"TOWNNAME":"中西區","LI":"藥王里","LIN":"19鄰","STREET":"中和街","SECT":" ","MAREA":" ","LANE":" ","ALLEY":" ","HOUSE_NO":"３３號","E_COORD97":166991,"N_COORD97":2544537.5099999998,"ADDRESS":"中和街３３號","OBJECTID":599623},"geometry":{"x":166990.99999999907,"y":2544537.5100000016}},{"attributes":{"ID":599651,"DIS_CODE":0,"TOWNNAME":"中西區","LI":"藥王里","LIN":"19鄰","STREET":"中和街","SECT":" ","MAREA":" ","LANE":" ","ALLEY":" ","HOUSE_NO":"３５號","E_COORD97":166993.76999999999,"N_COORD97":2544540.4900000002,"ADDRESS":"中和街３５號","OBJECTID":599624},"geometry":{"x":166993.76999999862,"y":2544540.4900000021}},{"attributes":{"ID":599652,"DIS_CODE":0,"TOWNNAME":"中西區","LI":"藥王里","LIN":"19鄰","STREET":"中和街","SECT":" ","MAREA":" ","LANE":" ","ALLEY":" ","HOUSE_NO":"３７號","E_COORD97":166998.26000000001,"N_COORD97":2544543.0600000001,"ADDRESS":"中和街３７號","OBJECTID":599625},"geometry":{"x":166998.26000000071,"y":2544543.0600000042}},{"attributes":{"ID":599653,"DIS_CODE":0,"TOWNNAME":"中西區","LI":"藥王里","LIN":"19鄰","STREET":"中和街","SECT":" ","MAREA":" ","LANE":" ","ALLEY":" ","HOUSE_NO":"３９號","E_COORD97":167002.53,"N_COORD97":2544545.3999999999,"ADDRESS":"中和街３９號","OBJECTID":599626},"geometry":{"x":167002.53000000026,"y":2544545.4000000022}},{"attributes":{"ID":599654,"DIS_CODE":0,"TOWNNAME":"中西區","LI":"藥王里","LIN":"19鄰","STREET":"中和街","SECT":" ","MAREA":" ","LANE":" ","ALLEY":" ","HOUSE_NO":"４１號","E_COORD97":167005.31,"N_COORD97":2544548.8199999998,"ADDRESS":"中和街４１號","OBJECTID":599627},"geometry":{"x":167005.30999999959,"y":2544548.8200000022}},{"attributes":{"ID":599655,"DIS_CODE":0,"TOWNNAME":"安南區","LI":"溪頂里","LIN":"22鄰","STREET":"惠安街","SECT":" ","MAREA":" ","LANE":" ","ALLEY":" ","HOUSE_NO":"１２４號","E_COORD97":168728.82999999999,"N_COORD97":2547489.4500000002,"ADDRESS":"惠安街１２４號","OBJECTID":599628},"geometry":{"x":168728.83000000101,"y":2547489.4500000011}},{"attributes":{"ID":599656,"DIS_CODE":0,"TOWNNAME":"永康區","LI":"崑山里","LIN":"22鄰","STREET":"國光二街","SECT":" ","MAREA":" ","LANE":" ","ALLEY":" ","HOUSE_NO":"５號","E_COORD97":174079.57999999999,"N_COORD97":2544651.3399999999,"ADDRESS":"國光二街５號","OBJECTID":599629},"geometry":{"x":174079.58000000007,"y":2544651.3399999999}},{"attributes":{"ID":599657,"DIS_CODE":0,"TOWNNAME":"永康區","LI":"崑山里","LIN":"22鄰","STREET":"國光二街","SECT":" ","MAREA":" ","LANE":" ","ALLEY":" ","HOUSE_NO":"１９號","E_COORD97":174026.10999999999,"N_COORD97":2544670.8300000001,"ADDRESS":"國光二街１９號","OBJECTID":599630},"geometry":{"x":174026.11000000127,"y":2544670.8300000019}},{"attributes":{"ID":599658,"DIS_CODE":0,"TOWNNAME":"永康區","LI":"崑山里","LIN":"22鄰","STREET":"國光二街","SECT":" ","MAREA":" ","LANE":" ","ALLEY":" ","HOUSE_NO":"１３號","E_COORD97":174063.67000000001,"N_COORD97":2544657.5899999999,"ADDRESS":"國光二街１３號","OBJECTID":599631},"geometry":{"x":174063.66999999993,"y":2544657.5900000036}},{"attributes":{"ID":599659,"DIS_CODE":0,"TOWNNAME":"永康區","LI":"龍潭里","LIN":"22鄰","STREET":"龍安街","SECT":" ","MAREA":" ","LANE":" ","ALLEY":" ","HOUSE_NO":"２６０號","E_COORD97":174743.14999999999,"N_COORD97":2548561.8100000001,"ADDRESS":"龍安街２６０號","OBJECTID":599632},"geometry":{"x":174743.1500000013,"y":2548561.8100000005}},{"attributes":{"ID":599660,"DIS_CODE":0,"TOWNNAME":"永康區","LI":"東橋里","LIN":"22鄰","STREET":"自強路","SECT":" ","MAREA":" ","LANE":" ","ALLEY":" ","HOUSE_NO":"１１３號","E_COORD97":172842.60999999999,"N_COORD97":2547294.9900000002,"ADDRESS":"自強路１１３號","OBJECTID":599633},"geometry":{"x":172842.6100000022,"y":2547294.9900000002}},{"attributes":{"ID":599661,"DIS_CODE":0,"TOWNNAME":"永康區","LI":"\u25A0行里","LIN":"22鄰","STREET":"正南五街","SECT":" ","MAREA":" ","LANE":" ","ALLEY":" ","HOUSE_NO":"４９８號","E_COORD97":171617.95000000001,"N_COORD97":2548747.2400000002,"ADDRESS":"正南五街４９８號","OBJECTID":599634},"geometry":{"x":171617.95000000112,"y":2548747.2400000021}},{"attributes":{"ID":599662,"DIS_CODE":0,"TOWNNAME":"永康區","LI":"復華里","LIN":"22鄰","STREET":"復華七街","SECT":" ","MAREA":" ","LANE":" ","ALLEY":" ","HOUSE_NO":"１０９號","E_COORD97":172829.29999999999,"N_COORD97":2546151.04,"ADDRESS":"復華七街１０９號","OBJECTID":599635},"geometry":{"x":172829.30000000075,"y":2546151.0399999991}},{"attributes":{"ID":599663,"DIS_CODE":0,"TOWNNAME":"中西區","LI":"藥王里","LIN":"21鄰","STREET":"西和路","SECT":" ","MAREA":" ","LANE":" ","ALLEY":" ","HOUSE_NO":"１１４號","E_COORD97":166914.56,"N_COORD97":2544594.9199999999,"ADDRESS":"西和路１１４號","OBJECTID":599636},"geometry":{"x":166914.56000000052,"y":2544594.9200000018}},{"attributes":{"ID":599664,"DIS_CODE":0,"TOWNNAME":"永康區","LI":"\u25A0洲里","LIN":"22鄰","STREET":"\u25A0忠街","SECT":" ","MAREA":" ","LANE":" ","ALLEY":" ","HOUSE_NO":"２８號","E_COORD97":171547.79999999999,"N_COORD97":2548931.2000000002,"ADDRESS":"\u25A0忠街２８號","OBJECTID":599637},"geometry":{"x":171547.80000000075,"y":2548931.1999999974}},{"attributes":{"ID":599665,"DIS_CODE":0,"TOWNNAME":"永康區","LI":"中興里","LIN":"22鄰","STREET":"中華路","SECT":" ","MAREA":" ","LANE":" ","ALLEY":" ","HOUSE_NO":"２００號之１４","E_COORD97":171637.42000000001,"N_COORD97":2545014.54,"ADDRESS":"中華路２００號之１４","OBJECTID":599638},"geometry":{"x":171637.41999999993,"y":2545014.540000001}},{"attributes":{"ID":599666,"DIS_CODE":0,"TOWNNAME":"永康區","LI":"崑山里","LIN":"22鄰","STREET":"國光二街","SECT":" ","MAREA":" ","LANE":" ","ALLEY":" ","HOUSE_NO":"９號","E_COORD97":174071.17000000001,"N_COORD97":2544654.3399999999,"ADDRESS":"國光二街９號","OBJECTID":599639},"geometry":{"x":174071.17000000086,"y":2544654.3399999999}},{"attributes":{"ID":599667,"DIS_CODE":0,"TOWNNAME":"永康區","LI":"崑山里","LIN":"22鄰","STREET":"國光一街","SECT":" ","MAREA":" ","LANE":" ","ALLEY":" ","HOUSE_NO":"３０號","E_COORD97":173970.03,"N_COORD97":2544600.3100000001,"ADDRESS":"國光一街３０號","OBJECTID":599640},"geometry":{"x":173970.03000000026,"y":2544600.3100000024}},{"attributes":{"ID":599668,"DIS_CODE":0,"TOWNNAME":"永康區","LI":"崑山里","LIN":"22鄰","STREET":"國光二街","SECT":" ","MAREA":" ","LANE":" ","ALLEY":" ","HOUSE_NO":"１７號","E_COORD97":174030.14999999999,"N_COORD97":2544669.3300000001,"ADDRESS":"國光二街１７號","OBJECTID":599641},"geometry":{"x":174030.15000000037,"y":2544669.3300000001}},{"attributes":{"ID":599669,"DIS_CODE":0,"TOWNNAME":"永康區","LI":"崑山里","LIN":"22鄰","STREET":"永大路","SECT":"二段","MAREA":" ","LANE":" ","ALLEY":" ","HOUSE_NO":"３號","E_COORD97":174070.28,"N_COORD97":2544573.5899999999,"ADDRESS":"永大路二段３號","OBJECTID":599642},"geometry":{"x":174070.28000000212,"y":2544573.5900000017}},{"attributes":{"ID":599670,"DIS_CODE":0,"TOWNNAME":"永康區","LI":"崑山里","LIN":"22鄰","STREET":"國光二街","SECT":" ","MAREA":" ","LANE":" ","ALLEY":" ","HOUSE_NO":"１１號","E_COORD97":174067.79000000001,"N_COORD97":2544656.0899999999,"ADDRESS":"國光二街１１號","OBJECTID":599643},"geometry":{"x":174067.79000000004,"y":2544656.0899999999}},{"attributes":{"ID":599671,"DIS_CODE":0,"TOWNNAME":"永康區","LI":"崑山里","LIN":"22鄰","STREET":"國光一街","SECT":" ","MAREA":" ","LANE":" ","ALLEY":" ","HOUSE_NO":"２６號","E_COORD97":173978.57999999999,"N_COORD97":2544597.5800000001,"ADDRESS":"國光一街２６號","OBJECTID":599644},"geometry":{"x":173978.58000000101,"y":2544597.5800000019}},{"attributes":{"ID":599672,"DIS_CODE":0,"TOWNNAME":"中西區","LI":"藥王里","LIN":"19鄰","STREET":"和真街","SECT":" ","MAREA":" ","LANE":" ","ALLEY":" ","HOUSE_NO":"２８號","E_COORD97":166968.35000000001,"N_COORD97":2544527.8999999999,"ADDRESS":"和真街２８號","OBJECTID":599645},"geometry":{"x":166968.35000000056,"y":2544527.9000000022}},{"attributes":{"ID":599673,"DIS_CODE":0,"TOWNNAME":"中西區","LI":"藥王里","LIN":"19鄰","STREET":"和真街","SECT":" ","MAREA":" ","LANE":" ","ALLEY":" ","HOUSE_NO":"４２號","E_COORD97":166948,"N_COORD97":2544546.25,"ADDRESS":"和真街４２號","OBJECTID":599646},"geometry":{"x":166948,"y":2544546.2500000019}},{"attributes":{"ID":599674,"DIS_CODE":0,"TOWNNAME":"中西區","LI":"藥王里","LIN":"19鄰","STREET":"和真街","SECT":" ","MAREA":" ","LANE":" ","ALLEY":" ","HOUSE_NO":"４４號","E_COORD97":166943.79000000001,"N_COORD97":2544549.1400000001,"ADDRESS":"和真街４４號","OBJECTID":599647},"geometry":{"x":166943.79000000097,"y":2544549.1400000006}},{"attributes":{"ID":599675,"DIS_CODE":0,"TOWNNAME":"中西區","LI":"藥王里","LIN":"19鄰","STREET":"和真街","SECT":" ","MAREA":" ","LANE":" ","ALLEY":" ","HOUSE_NO":"４６號","E_COORD97":166937.47,"N_COORD97":2544553.8799999999,"ADDRESS":"和真街４６號","OBJECTID":599648},"geometry":{"x":166937.47000000067,"y":2544553.8800000008}},{"attributes":{"ID":599676,"DIS_CODE":0,"TOWNNAME":"中西區","LI":"藥王里","LIN":"21鄰","STREET":"西和路","SECT":" ","MAREA":" ","LANE":" ","ALLEY":" ","HOUSE_NO":"１１８號","E_COORD97":166923.25,"N_COORD97":2544600.9700000002,"ADDRESS":"西和路１１８號","OBJECTID":599649},"geometry":{"x":166923.25000000186,"y":2544600.9700000007}},{"attributes":{"ID":599677,"DIS_CODE":0,"TOWNNAME":"中西區","LI":"藥王里","LIN":"21鄰","STREET":"西和路","SECT":" ","MAREA":" ","LANE":" ","ALLEY":" ","HOUSE_NO":"１２０號","E_COORD97":166927.45999999999,"N_COORD97":2544603.8700000001,"ADDRESS":"西和路１２０號","OBJECTID":599650},"geometry":{"x":166927.46000000089,"y":2544603.8700000029}},{"attributes":{"ID":599678,"DIS_CODE":0,"TOWNNAME":"中西區","LI":"藥王里","LIN":"21鄰","STREET":"西和路","SECT":" ","MAREA":" ","LANE":" ","ALLEY":" ","HOUSE_NO":"１２２號","E_COORD97":166932.98999999999,"N_COORD97":2544607.29,"ADDRESS":"西和路１２２號","OBJECTID":599651},"geometry":{"x":166932.99000000022,"y":2544607.2899999991}},{"attributes":{"ID":599679,"DIS_CODE":0,"TOWNNAME":"中西區","LI":"藥王里","LIN":"21鄰","STREET":"西和路","SECT":" ","MAREA":" ","LANE":" ","ALLEY":" ","HOUSE_NO":"１２４號","E_COORD97":166937.98999999999,"N_COORD97":2544609.6499999999,"ADDRESS":"西和路１２４號","OBJECTID":599652},"geometry":{"x":166937.99000000022,"y":2544609.6500000004}},{"attributes":{"ID":599680,"DIS_CODE":0,"TOWNNAME":"中西區","LI":"藥王里","LIN":"21鄰","STREET":"西和路","SECT":" ","MAREA":" ","LANE":" ","ALLEY":" ","HOUSE_NO":"１２６號","E_COORD97":166943.51999999999,"N_COORD97":2544613.3399999999,"ADDRESS":"西和路１２６號","OBJECTID":599653},"geometry":{"x":166943.52000000048,"y":2544613.3400000017}},{"attributes":{"ID":599681,"DIS_CODE":0,"TOWNNAME":"中西區","LI":"藥王里","LIN":"21鄰","STREET":"西和路","SECT":" ","MAREA":" ","LANE":" ","ALLEY":" ","HOUSE_NO":"１２８號","E_COORD97":166947.20999999999,"N_COORD97":2544616.4900000002,"ADDRESS":"西和路１２８號","OBJECTID":599654},"geometry":{"x":166947.21000000183,"y":2544616.4900000002}},{"attributes":{"ID":599682,"DIS_CODE":0,"TOWNNAME":"中西區","LI":"藥王里","LIN":"21鄰","STREET":"西和路","SECT":" ","MAREA":" ","LANE":" ","ALLEY":" ","HOUSE_NO":"１３０號","E_COORD97":166951.69,"N_COORD97":2544619.3900000001,"ADDRESS":"西和路１３０號","OBJECTID":599655},"geometry":{"x":166951.69000000134,"y":2544619.3900000025}},{"attributes":{"ID":599683,"DIS_CODE":0,"TOWNNAME":"中西區","LI":"藥王里","LIN":"21鄰","STREET":"西和路","SECT":" ","MAREA":" ","LANE":" ","ALLEY":" ","HOUSE_NO":"１３２號","E_COORD97":166955.10999999999,"N_COORD97":2544621.7599999998,"ADDRESS":"西和路１３２號","OBJECTID":599656},"geometry":{"x":166955.1100000022,"y":2544621.7599999998}},{"attributes":{"ID":599684,"DIS_CODE":0,"TOWNNAME":"中西區","LI":"藥王里","LIN":"21鄰","STREET":"西和路","SECT":" ","MAREA":" ","LANE":" ","ALLEY":" ","HOUSE_NO":"１３４號","E_COORD97":166960.10999999999,"N_COORD97":2544623.3300000001,"ADDRESS":"西和路１３４號","OBJECTID":599657},"geometry":{"x":166960.1100000022,"y":2544623.3300000019}},{"attributes":{"ID":599685,"DIS_CODE":0,"TOWNNAME":"永康區","LI":"勝利里","LIN":"22鄰","STREET":"勝華街","SECT":" ","MAREA":" ","LANE":" ","ALLEY":" ","HOUSE_NO":"２１號","E_COORD97":171507.19,"N_COORD97":2545199.0099999998,"ADDRESS":"勝華街２１號","OBJECTID":599658},"geometry":{"x":171507.19000000041,"y":2545199.0099999998}},{"attributes":{"ID":599686,"DIS_CODE":0,"TOWNNAME":"中西區","LI":"藥王里","LIN":"20鄰","STREET":"和真街","SECT":" ","MAREA":" ","LANE":" ","ALLEY":" ","HOUSE_NO":"５２號","E_COORD97":166939.57000000001,"N_COORD97":2544572.29,"ADDRESS":"和真街５２號","OBJECTID":599659},"geometry":{"x":166939.5700000003,"y":2544572.2899999991}},{"attributes":{"ID":599687,"DIS_CODE":0,"TOWNNAME":"中西區","LI":"藥王里","LIN":"20鄰","STREET":"和真街","SECT":" ","MAREA":" ","LANE":" ","ALLEY":" ","HOUSE_NO":"５６號","E_COORD97":166948.53,"N_COORD97":2544577.5600000001,"ADDRESS":"和真街５６號","OBJECTID":599660},"geometry":{"x":166948.53000000026,"y":2544577.5600000024}},{"attributes":{"ID":599688,"DIS_CODE":0,"TOWNNAME":"永康區","LI":"崑山里","LIN":"22鄰","STREET":"國光一街","SECT":" ","MAREA":" ","LANE":" ","ALLEY":" ","HOUSE_NO":"３２號","E_COORD97":173966.31,"N_COORD97":2544602.0600000001,"ADDRESS":"國光一街３２號","OBJECTID":599661},"geometry":{"x":173966.31000000052,"y":2544602.0600000024}},{"attributes":{"ID":599689,"DIS_CODE":0,"TOWNNAME":"安南區","LI":"海東里","LIN":"22鄰","STREET":"同安路","SECT":" ","MAREA":" ","LANE":" ","ALLEY":" ","HOUSE_NO":"７５號","E_COORD97":166913.12,"N_COORD97":2548931.0800000001,"ADDRESS":"同安路７５號","OBJECTID":599662},"geometry":{"x":166913.12000000104,"y":2548931.0800000019}},{"attributes":{"ID":599690,"DIS_CODE":0,"TOWNNAME":"安南區","LI":"新順里","LIN":"22鄰","STREET":"培安路","SECT":" ","MAREA":" ","LANE":" ","ALLEY":" ","HOUSE_NO":"７９號","E_COORD97":169260.28,"N_COORD97":2549618.3999999999,"ADDRESS":"培安路７９號","OBJECTID":599663},"geometry":{"x":169260.28000000026,"y":2549618.4000000004}},{"attributes":{"ID":599691,"DIS_CODE":0,"TOWNNAME":"安南區","LI":"新順里","LIN":"22鄰","STREET":"培安路","SECT":" ","MAREA":" ","LANE":" ","ALLEY":" ","HOUSE_NO":"３１號","E_COORD97":169236.64999999999,"N_COORD97":2549800.7799999998,"ADDRESS":"培安路３１號","OBJECTID":599664},"geometry":{"x":169236.65000000224,"y":2549800.7799999993}},{"attributes":{"ID":599692,"DIS_CODE":0,"TOWNNAME":"安南區","LI":"海東里","LIN":"22鄰","STREET":"同安路","SECT":" ","MAREA":" ","LANE":" ","ALLEY":" ","HOUSE_NO":"７７號","E_COORD97":166918.57999999999,"N_COORD97":2548935.27,"ADDRESS":"同安路７７號","OBJECTID":599665},"geometry":{"x":166918.58000000007,"y":2548935.2700000014}},{"attributes":{"ID":599693,"DIS_CODE":0,"TOWNNAME":"安南區","LI":"海東里","LIN":"22鄰","STREET":"同安路","SECT":" ","MAREA":" ","LANE":" ","ALLEY":" ","HOUSE_NO":"７９號","E_COORD97":166922.14000000001,"N_COORD97":2548938.8300000001,"ADDRESS":"同安路７９號","OBJECTID":599666},"geometry":{"x":166922.1400000006,"y":2548938.8300000019}},{"attributes":{"ID":599694,"DIS_CODE":0,"TOWNNAME":"安南區","LI":"海東里","LIN":"22鄰","STREET":"同安路","SECT":" ","MAREA":" ","LANE":" ","ALLEY":" ","HOUSE_NO":"８１號","E_COORD97":166925.56,"N_COORD97":2548942.1299999999,"ADDRESS":"同安路８１號","OBJECTID":599667},"geometry":{"x":166925.55999999959,"y":2548942.1300000008}},{"attributes":{"ID":599695,"DIS_CODE":0,"TOWNNAME":"安南區","LI":"海東里","LIN":"22鄰","STREET":"同安路","SECT":" ","MAREA":" ","LANE":" ","ALLEY":" ","HOUSE_NO":"９１號","E_COORD97":166949.06,"N_COORD97":2548961.9399999999,"ADDRESS":"同安路９１號","OBJECTID":599668},"geometry":{"x":166949.05999999959,"y":2548961.9400000013}},{"attributes":{"ID":599696,"DIS_CODE":0,"TOWNNAME":"安南區","LI":"海東里","LIN":"22鄰","STREET":"同安路","SECT":" ","MAREA":" ","LANE":" ","ALLEY":" ","HOUSE_NO":"８９號","E_COORD97":166944.87,"N_COORD97":2548958.77,"ADDRESS":"同安路８９號","OBJECTID":599669},"geometry":{"x":166944.87000000104,"y":2548958.7700000014}},{"attributes":{"ID":599697,"DIS_CODE":0,"TOWNNAME":"安南區","LI":"海東里","LIN":"22鄰","STREET":"同安路","SECT":" ","MAREA":" ","LANE":" ","ALLEY":" ","HOUSE_NO":"８５號","E_COORD97":166941.44,"N_COORD97":2548954.8300000001,"ADDRESS":"同安路８５號","OBJECTID":599670},"geometry":{"x":166941.44000000134,"y":2548954.8299999982}},{"attributes":{"ID":599698,"DIS_CODE":0,"TOWNNAME":"中西區","LI":"藥王里","LIN":"20鄰","STREET":"和真街","SECT":" ","MAREA":" ","LANE":" ","ALLEY":" ","HOUSE_NO":"５８號","E_COORD97":166954.57999999999,"N_COORD97":2544582.8199999998,"ADDRESS":"和真街５８號","OBJECTID":599671},"geometry":{"x":166954.58000000007,"y":2544582.8200000022}},{"attributes":{"ID":599699,"DIS_CODE":0,"TOWNNAME":"中西區","LI":"藥王里","LIN":"20鄰","STREET":"和真街","SECT":" ","MAREA":" ","LANE":" ","ALLEY":" ","HOUSE_NO":"６０號","E_COORD97":166959.85000000001,"N_COORD97":2544586.7599999998,"ADDRESS":"和真街６０號","OBJECTID":599672},"geometry":{"x":166959.85000000056,"y":2544586.7599999998}},{"attributes":{"ID":599700,"DIS_CODE":0,"TOWNNAME":"中西區","LI":"藥王里","LIN":"20鄰","STREET":"和真街","SECT":" ","MAREA":" ","LANE":" ","ALLEY":" ","HOUSE_NO":"６２號","E_COORD97":166967.73999999999,"N_COORD97":2544591.7599999998,"ADDRESS":"和真街６２號","OBJECTID":599673},"geometry":{"x":166967.74000000209,"y":2544591.7600000035}},{"attributes":{"ID":599701,"DIS_CODE":0,"TOWNNAME":"東區","LI":"大智里","LIN":"25鄰","STREET":"文東街","SECT":" ","MAREA":" ","LANE":" ","ALLEY":" ","HOUSE_NO":"９９號","E_COORD97":171421.81,"N_COORD97":2540217.4199999999,"ADDRESS":"文東街９９號","OBJECTID":599674},"geometry":{"x":171421.81000000052,"y":2540217.4200000037}},{"attributes":{"ID":599702,"DIS_CODE":0,"TOWNNAME":"安南區","LI":"海東里","LIN":"22鄰","STREET":"同安路","SECT":" ","MAREA":" ","LANE":" ","ALLEY":" ","HOUSE_NO":"１號地下一層","E_COORD97":166795.54999999999,"N_COORD97":2548847.9300000002,"ADDRESS":"同安路１號地下一層","OBJECTID":599675},"geometry":{"x":166795.55000000168,"y":2548847.9299999997}},{"attributes":{"ID":599703,"DIS_CODE":0,"TOWNNAME":"東區","LI":"東光里","LIN":"22鄰","STREET":"東安路","SECT":" ","MAREA":" ","LANE":" ","ALLEY":" ","HOUSE_NO":"１４６之１號","E_COORD97":170749.03,"N_COORD97":2543861.8799999999,"ADDRESS":"東安路１４６之１號","OBJECTID":599676},"geometry":{"x":170749.03000000026,"y":2543861.8800000008}},{"attributes":{"ID":599704,"DIS_CODE":0,"TOWNNAME":"東區","LI":"東安里","LIN":"22鄰","STREET":"林森路","SECT":"二段","MAREA":" ","LANE":" ","ALLEY":" ","HOUSE_NO":"３９號","E_COORD97":170280.75,"N_COORD97":2542990.1600000001,"ADDRESS":"林森路二段３９號","OBJECTID":599677},"geometry":{"x":170280.75,"y":2542990.160000002}},{"attributes":{"ID":599705,"DIS_CODE":0,"TOWNNAME":"仁德區","LI":"後壁里","LIN":"22鄰","STREET":"中正路","SECT":"二段","MAREA":" ","LANE":" ","ALLEY":" ","HOUSE_NO":"１７７號","E_COORD97":173202.57000000001,"N_COORD97":2538679.0299999998,"ADDRESS":"中正路二段１７７號","OBJECTID":599678},"geometry":{"x":173202.57000000123,"y":2538679.0299999993}},{"attributes":{"ID":599706,"DIS_CODE":0,"TOWNNAME":"仁德區","LI":"後壁里","LIN":"22鄰","STREET":"中正路","SECT":"二段","MAREA":" ","LANE":" ","ALLEY":" ","HOUSE_NO":"１５５號","E_COORD97":173197.70999999999,"N_COORD97":2538629.02,"ADDRESS":"中正路二段１５５號","OBJECTID":599679},"geometry":{"x":173197.71000000089,"y":2538629.0199999996}},{"attributes":{"ID":599707,"DIS_CODE":0,"TOWNNAME":"仁德區","LI":"保安里","LIN":"22鄰","STREET":"文賢路","SECT":"一段","MAREA":" ","LANE":" ","ALLEY":" ","HOUSE_NO":"７０４號","E_COORD97":171254.14999999999,"N_COORD97":2536438.0699999998,"ADDRESS":"文賢路一段７０４號","OBJECTID":599680},"geometry":{"x":171254.1500000013,"y":2536438.0700000022}},{"attributes":{"ID":599708,"DIS_CODE":0,"TOWNNAME":"仁德區","LI":"後壁里","LIN":"22鄰","STREET":"中正路","SECT":"二段","MAREA":" ","LANE":" ","ALLEY":" ","HOUSE_NO":"１９７號","E_COORD97":173206.17999999999,"N_COORD97":2538724.52,"ADDRESS":"中正路二段１９７號","OBJECTID":599681},"geometry":{"x":173206.18000000063,"y":2538724.5200000033}},{"attributes":{"ID":599709,"DIS_CODE":0,"TOWNNAME":"仁德區","LI":"保安里","LIN":"22鄰","STREET":"文賢路","SECT":"一段","MAREA":" ","LANE":" ","ALLEY":" ","HOUSE_NO":"６９０號","E_COORD97":171237.37,"N_COORD97":2536464.0800000001,"ADDRESS":"文賢路一段６９０號","OBJECTID":599682},"geometry":{"x":171237.37000000104,"y":2536464.0800000019}},{"attributes":{"ID":599710,"DIS_CODE":0,"TOWNNAME":"仁德區","LI":"保安里","LIN":"22鄰","STREET":"文賢路","SECT":"一段","MAREA":" ","LANE":" ","ALLEY":" ","HOUSE_NO":"７０８號","E_COORD97":171260.22,"N_COORD97":2536432.0699999998,"ADDRESS":"文賢路一段７０８號","OBJECTID":599683},"geometry":{"x":171260.22000000067,"y":2536432.0700000003}},{"attributes":{"ID":599711,"DIS_CODE":0,"TOWNNAME":"仁德區","LI":"後壁里","LIN":"22鄰","STREET":"中正路","SECT":"二段","MAREA":" ","LANE":" ","ALLEY":" ","HOUSE_NO":"１５９之１號","E_COORD97":173200.45999999999,"N_COORD97":2538637.0499999998,"ADDRESS":"中正路二段１５９之１號","OBJECTID":599684},"geometry":{"x":173200.45999999996,"y":2538637.0500000007}},{"attributes":{"ID":599712,"DIS_CODE":0,"TOWNNAME":"仁德區","LI":"成功里","LIN":"22鄰","STREET":"保生路","SECT":" ","MAREA":" ","LANE":" ","ALLEY":" ","HOUSE_NO":"５７號","E_COORD97":170772.14999999999,"N_COORD97":2539777.25,"ADDRESS":"保生路５７號","OBJECTID":599685},"geometry":{"x":170772.15000000037,"y":2539777.25}},{"attributes":{"ID":599713,"DIS_CODE":0,"TOWNNAME":"仁德區","LI":"後壁里","LIN":"22鄰","STREET":"中正路","SECT":"二段","MAREA":" ","LANE":" ","ALLEY":" ","HOUSE_NO":"１１７號","E_COORD97":173171.42999999999,"N_COORD97":2538536.2799999998,"ADDRESS":"中正路二段１１７號","OBJECTID":599686},"geometry":{"x":173171.4299999997,"y":2538536.2800000031}},{"attributes":{"ID":599714,"DIS_CODE":0,"TOWNNAME":"仁德區","LI":"保安里","LIN":"22鄰","STREET":"文賢路","SECT":"一段","MAREA":" ","LANE":" ","ALLEY":" ","HOUSE_NO":"７４２號","E_COORD97":171321.34,"N_COORD97":2536375.8300000001,"ADDRESS":"文賢路一段７４２號","OBJECTID":599687},"geometry":{"x":171321.33999999985,"y":2536375.8300000001}},{"attributes":{"ID":599715,"DIS_CODE":0,"TOWNNAME":"仁德區","LI":"後壁里","LIN":"22鄰","STREET":"中正路","SECT":"二段","MAREA":" ","LANE":" ","ALLEY":" ","HOUSE_NO":"１６５號","E_COORD97":173200.01999999999,"N_COORD97":2538651.7799999998,"ADDRESS":"中正路二段１６５號","OBJECTID":599688},"geometry":{"x":173200.02000000142,"y":2538651.7800000012}},{"attributes":{"ID":599716,"DIS_CODE":0,"TOWNNAME":"仁德區","LI":"後壁里","LIN":"22鄰","STREET":"中正路","SECT":"二段","MAREA":" ","LANE":" ","ALLEY":" ","HOUSE_NO":"１９５號","E_COORD97":173205.62,"N_COORD97":2538720.77,"ADDRESS":"中正路二段１９５號","OBJECTID":599689},"geometry":{"x":173205.62000000104,"y":2538720.7700000014}},{"attributes":{"ID":599717,"DIS_CODE":0,"TOWNNAME":"仁德區","LI":"成功里","LIN":"22鄰","STREET":"保生路","SECT":" ","MAREA":" ","LANE":" ","ALLEY":" ","HOUSE_NO":"４７號","E_COORD97":170792.25,"N_COORD97":2539773.9900000002,"ADDRESS":"保生路４７號","OBJECTID":599690},"geometry":{"x":170792.25000000093,"y":2539773.9900000021}},{"attributes":{"ID":599718,"DIS_CODE":0,"TOWNNAME":"仁德區","LI":"保安里","LIN":"22鄰","STREET":"文賢路","SECT":"一段","MAREA":" ","LANE":" ","ALLEY":" ","HOUSE_NO":"７１０號","E_COORD97":171262.95999999999,"N_COORD97":2536429.8199999998,"ADDRESS":"文賢路一段７１０號","OBJECTID":599691},"geometry":{"x":171262.95999999996,"y":2536429.8200000003}},{"attributes":{"ID":599719,"DIS_CODE":0,"TOWNNAME":"仁德區","LI":"後壁里","LIN":"22鄰","STREET":"中正路","SECT":"二段","MAREA":" ","LANE":" ","ALLEY":" ","HOUSE_NO":"１２５號","E_COORD97":173177.04000000001,"N_COORD97":2538555.0299999998,"ADDRESS":"中正路二段１２５號","OBJECTID":599692},"geometry":{"x":173177.04000000097,"y":2538555.0300000012}},{"attributes":{"ID":599720,"DIS_CODE":0,"TOWNNAME":"仁德區","LI":"保安里","LIN":"22鄰","STREET":"文賢路","SECT":"一段","MAREA":" ","LANE":" ","ALLEY":" ","HOUSE_NO":"７１４號","E_COORD97":171268.57000000001,"N_COORD97":2536423.5699999998,"ADDRESS":"文賢路一段７１４號","OBJECTID":599693},"geometry":{"x":171268.57000000123,"y":2536423.5700000022}},{"attributes":{"ID":599721,"DIS_CODE":0,"TOWNNAME":"仁德區","LI":"成功里","LIN":"22鄰","STREET":"成功二街","SECT":" ","MAREA":" ","LANE":" ","ALLEY":" ","HOUSE_NO":"２００號","E_COORD97":170889.69,"N_COORD97":2539585.77,"ADDRESS":"成功二街２００號","OBJECTID":599694},"geometry":{"x":170889.69000000134,"y":2539585.7699999996}},{"attributes":{"ID":599722,"DIS_CODE":0,"TOWNNAME":"仁德區","LI":"後壁里","LIN":"22鄰","STREET":"中正路","SECT":"二段","MAREA":" ","LANE":" ","ALLEY":" ","HOUSE_NO":"１５９號","E_COORD97":173197.62,"N_COORD97":2538633.27,"ADDRESS":"中正路二段１５９號","OBJECTID":599695},"geometry":{"x":173197.62000000011,"y":2538633.2699999996}},{"attributes":{"ID":599723,"DIS_CODE":0,"TOWNNAME":"仁德區","LI":"成功里","LIN":"22鄰","STREET":"保生路","SECT":" ","MAREA":" ","LANE":" ","ALLEY":" ","HOUSE_NO":"６１號","E_COORD97":170764.32999999999,"N_COORD97":2539778.5,"ADDRESS":"保生路６１號","OBJECTID":599696},"geometry":{"x":170764.33000000101,"y":2539778.5}},{"attributes":{"ID":599724,"DIS_CODE":0,"TOWNNAME":"仁德區","LI":"成功里","LIN":"22鄰","STREET":"保生路","SECT":" ","MAREA":" ","LANE":" ","ALLEY":" ","HOUSE_NO":"５９號","E_COORD97":170768.01999999999,"N_COORD97":2539777.75,"ADDRESS":"保生路５９號","OBJECTID":599697},"geometry":{"x":170768.02000000048,"y":2539777.7500000037}},{"attributes":{"ID":599725,"DIS_CODE":0,"TOWNNAME":"仁德區","LI":"太子里","LIN":"22鄰","STREET":"長興四街","SECT":" ","MAREA":" ","LANE":" ","ALLEY":" ","HOUSE_NO":"８４號","E_COORD97":173854.17999999999,"N_COORD97":2543571.5,"ADDRESS":"長興四街８４號","OBJECTID":599698},"geometry":{"x":173854.18000000063,"y":2543571.5000000019}},{"attributes":{"ID":599726,"DIS_CODE":0,"TOWNNAME":"仁德區","LI":"後壁里","LIN":"22鄰","STREET":"中正路","SECT":"二段","MAREA":" ","LANE":" ","ALLEY":" ","HOUSE_NO":"１０７號","E_COORD97":173161.78,"N_COORD97":2538512.77,"ADDRESS":"中正路二段１０７號","OBJECTID":599699},"geometry":{"x":173161.78000000119,"y":2538512.7700000033}},{"attributes":{"ID":599727,"DIS_CODE":0,"TOWNNAME":"仁德區","LI":"保安里","LIN":"22鄰","STREET":"文賢路","SECT":"一段","MAREA":" ","LANE":" ","ALLEY":" ","HOUSE_NO":"６７６號","E_COORD97":171225.87,"N_COORD97":2536490.8300000001,"ADDRESS":"文賢路一段６７６號","OBJECTID":599700},"geometry":{"x":171225.87000000011,"y":2536490.8300000001}},{"attributes":{"ID":599728,"DIS_CODE":0,"TOWNNAME":"仁德區","LI":"保安里","LIN":"22鄰","STREET":"文賢路","SECT":"一段","MAREA":" ","LANE":" ","ALLEY":" ","HOUSE_NO":"６７８號","E_COORD97":171227.82000000001,"N_COORD97":2536487.0800000001,"ADDRESS":"文賢路一段６７８號","OBJECTID":599701},"geometry":{"x":171227.82000000123,"y":2536487.0800000038}},{"attributes":{"ID":599729,"DIS_CODE":0,"TOWNNAME":"仁德區","LI":"成功里","LIN":"22鄰","STREET":"保生路","SECT":" ","MAREA":" ","LANE":" ","ALLEY":" ","HOUSE_NO":"３９號","E_COORD97":170810.12,"N_COORD97":2539771.9900000002,"ADDRESS":"保生路３９號","OBJECTID":599702},"geometry":{"x":170810.12000000104,"y":2539771.9900000002}},{"attributes":{"ID":599730,"DIS_CODE":0,"TOWNNAME":"永康區","LI":"六合里","LIN":"22鄰","STREET":"中華二路","SECT":" ","MAREA":" ","LANE":" ","ALLEY":" ","HOUSE_NO":"３４２號","E_COORD97":171177.29000000001,"N_COORD97":2545432.7400000002,"ADDRESS":"中華二路３４２號","OBJECTID":599703},"geometry":{"x":171177.29000000004,"y":2545432.7400000002}},{"attributes":{"ID":599731,"DIS_CODE":0,"TOWNNAME":"永康區","LI":"六合里","LIN":"22鄰","STREET":"中華二路","SECT":" ","MAREA":" ","LANE":" ","ALLEY":" ","HOUSE_NO":"３４６號","E_COORD97":171167.59,"N_COORD97":2545431.9900000002,"ADDRESS":"中華二路３４６號","OBJECTID":599704},"geometry":{"x":171167.59000000078,"y":2545431.9900000021}},{"attributes":{"ID":599732,"DIS_CODE":0,"TOWNNAME":"永康區","LI":"六合里","LIN":"22鄰","STREET":"中華二路","SECT":" ","MAREA":" ","LANE":" ","ALLEY":" ","HOUSE_NO":"３４８號","E_COORD97":171158.63,"N_COORD97":2545431.2400000002,"ADDRESS":"中華二路３４８號","OBJECTID":599705},"geometry":{"x":171158.63000000175,"y":2545431.2400000021}},{"attributes":{"ID":599733,"DIS_CODE":0,"TOWNNAME":"永康區","LI":"六合里","LIN":"22鄰","STREET":"中華二路","SECT":" ","MAREA":" ","LANE":" ","ALLEY":" ","HOUSE_NO":"３５０號","E_COORD97":171138.92999999999,"N_COORD97":2545431.4900000002,"ADDRESS":"中華二路３５０號","OBJECTID":599706},"geometry":{"x":171138.9299999997,"y":2545431.4900000039}},{"attributes":{"ID":599734,"DIS_CODE":0,"TOWNNAME":"仁德區","LI":"保安里","LIN":"22鄰","STREET":"文賢路","SECT":"一段","MAREA":" ","LANE":" ","ALLEY":" ","HOUSE_NO":"７１８號","E_COORD97":171274.63,"N_COORD97":2536418.3199999998,"ADDRESS":"文賢路一段７１８號","OBJECTID":599707},"geometry":{"x":171274.63000000082,"y":2536418.3200000022}},{"attributes":{"ID":599735,"DIS_CODE":0,"TOWNNAME":"下營區","LI":"營前里","LIN":"22鄰","STREET":"營前街","SECT":" ","MAREA":" ","LANE":" ","ALLEY":" ","HOUSE_NO":"１０號","E_COORD97":174657.92999999999,"N_COORD97":2569938.8199999998,"ADDRESS":"營前街１０號","OBJECTID":599708},"geometry":{"x":174657.9299999997,"y":2569938.8200000022}},{"attributes":{"ID":599736,"DIS_CODE":0,"TOWNNAME":"下營區","LI":"營前里","LIN":"22鄰","STREET":"營前街","SECT":" ","MAREA":" ","LANE":" ","ALLEY":" ","HOUSE_NO":"１１號","E_COORD97":174653.87,"N_COORD97":2569938.6499999999,"ADDRESS":"營前街１１號","OBJECTID":599709},"geometry":{"x":174653.87000000011,"y":2569938.6500000004}},{"attributes":{"ID":599737,"DIS_CODE":0,"TOWNNAME":"下營區","LI":"營前里","LIN":"22鄰","STREET":"營前街","SECT":" ","MAREA":" ","LANE":" ","ALLEY":" ","HOUSE_NO":"１２號","E_COORD97":174644.92000000001,"N_COORD97":2569936.9500000002,"ADDRESS":"營前街１２號","OBJECTID":599710},"geometry":{"x":174644.91999999993,"y":2569936.9500000011}},{"attributes":{"ID":599738,"DIS_CODE":0,"TOWNNAME":"下營區","LI":"營前里","LIN":"22鄰","STREET":"營前街","SECT":" ","MAREA":" ","LANE":" ","ALLEY":" ","HOUSE_NO":"１３號","E_COORD97":174640.95999999999,"N_COORD97":2569936.6899999999,"ADDRESS":"營前街１３號","OBJECTID":599711},"geometry":{"x":174640.95999999996,"y":2569936.6900000013}},{"attributes":{"ID":599739,"DIS_CODE":0,"TOWNNAME":"下營區","LI":"營前里","LIN":"22鄰","STREET":"營前街","SECT":" ","MAREA":" ","LANE":" ","ALLEY":" ","HOUSE_NO":"１５號","E_COORD97":174636.70000000001,"N_COORD97":2569936.1699999999,"ADDRESS":"營前街１５號","OBJECTID":599712},"geometry":{"x":174636.70000000019,"y":2569936.1700000018}},{"attributes":{"ID":599740,"DIS_CODE":0,"TOWNNAME":"下營區","LI":"營前里","LIN":"22鄰","STREET":"營前街","SECT":" ","MAREA":" ","LANE":" ","ALLEY":" ","HOUSE_NO":"１６號","E_COORD97":174625.26000000001,"N_COORD97":2569941,"ADDRESS":"營前街１６號","OBJECTID":599713},"geometry":{"x":174625.25999999978,"y":2569941.0000000019}},{"attributes":{"ID":599741,"DIS_CODE":0,"TOWNNAME":"下營區","LI":"營前里","LIN":"22鄰","STREET":"營前街","SECT":" ","MAREA":" ","LANE":" ","ALLEY":" ","HOUSE_NO":"１號","E_COORD97":174691.95999999999,"N_COORD97":2569938.5800000001,"ADDRESS":"營前街１號","OBJECTID":599714},"geometry":{"x":174691.95999999996,"y":2569938.5800000001}},{"attributes":{"ID":599742,"DIS_CODE":0,"TOWNNAME":"下營區","LI":"營前里","LIN":"22鄰","STREET":"營前街","SECT":" ","MAREA":" ","LANE":" ","ALLEY":" ","HOUSE_NO":"２號","E_COORD97":174686.04999999999,"N_COORD97":2569941.3199999998,"ADDRESS":"營前街２號","OBJECTID":599715},"geometry":{"x":174686.04999999981,"y":2569941.3200000003}},{"attributes":{"ID":599743,"DIS_CODE":0,"TOWNNAME":"下營區","LI":"營前里","LIN":"22鄰","STREET":"營前街","SECT":" ","MAREA":" ","LANE":" ","ALLEY":" ","HOUSE_NO":"３號","E_COORD97":174682.03,"N_COORD97":2569940.7799999998,"ADDRESS":"營前街３號","OBJECTID":599716},"geometry":{"x":174682.03000000026,"y":2569940.7799999993}},{"attributes":{"ID":599744,"DIS_CODE":0,"TOWNNAME":"下營區","LI":"營前里","LIN":"22鄰","STREET":"營前街","SECT":" ","MAREA":" ","LANE":" ","ALLEY":" ","HOUSE_NO":"５號","E_COORD97":174678.32000000001,"N_COORD97":2569940.5600000001,"ADDRESS":"營前街５號","OBJECTID":599717},"geometry":{"x":174678.3200000003,"y":2569940.5600000042}},{"attributes":{"ID":599745,"DIS_CODE":0,"TOWNNAME":"下營區","LI":"營前里","LIN":"22鄰","STREET":"營前街","SECT":" ","MAREA":" ","LANE":" ","ALLEY":" ","HOUSE_NO":"６號","E_COORD97":174674.39999999999,"N_COORD97":2569940.2599999998,"ADDRESS":"營前街６號","OBJECTID":599718},"geometry":{"x":174674.40000000037,"y":2569940.2599999998}},{"attributes":{"ID":599746,"DIS_CODE":0,"TOWNNAME":"下營區","LI":"營前里","LIN":"22鄰","STREET":"營前街","SECT":" ","MAREA":" ","LANE":" ","ALLEY":" ","HOUSE_NO":"７號","E_COORD97":174670.31,"N_COORD97":2569939.8799999999,"ADDRESS":"營前街７號","OBJECTID":599719},"geometry":{"x":174670.30999999959,"y":2569939.8800000027}},{"attributes":{"ID":599747,"DIS_CODE":0,"TOWNNAME":"下營區","LI":"營前里","LIN":"22鄰","STREET":"營前街","SECT":" ","MAREA":" ","LANE":" ","ALLEY":" ","HOUSE_NO":"８號","E_COORD97":174666.07999999999,"N_COORD97":2569939.4100000001,"ADDRESS":"營前街８號","OBJECTID":599720},"geometry":{"x":174666.08000000007,"y":2569939.4100000001}},{"attributes":{"ID":599748,"DIS_CODE":0,"TOWNNAME":"下營區","LI":"營前里","LIN":"22鄰","STREET":"營前街","SECT":" ","MAREA":" ","LANE":" ","ALLEY":" ","HOUSE_NO":"９號","E_COORD97":174662.01999999999,"N_COORD97":2569939.1499999999,"ADDRESS":"營前街９號","OBJECTID":599721},"geometry":{"x":174662.02000000048,"y":2569939.1500000004}},{"attributes":{"ID":599749,"DIS_CODE":0,"TOWNNAME":"新化區","LI":"東榮里","LIN":"22鄰","STREET":"復興路","SECT":" ","MAREA":" ","LANE":" ","ALLEY":" ","HOUSE_NO":"２２５號之４","E_COORD97":179372.76000000001,"N_COORD97":2548134.2599999998,"ADDRESS":"復興路２２５號之４","OBJECTID":599722},"geometry":{"x":179372.76000000071,"y":2548134.2599999998}},{"attributes":{"ID":599750,"DIS_CODE":0,"TOWNNAME":"中西區","LI":"大涼里","LIN":"22鄰","STREET":"府前路","SECT":"二段","MAREA":" ","LANE":" ","ALLEY":" ","HOUSE_NO":"２４１號","E_COORD97":167021.29000000001,"N_COORD97":2543604.6099999999,"ADDRESS":"府前路二段２４１號","OBJECTID":599723},"geometry":{"x":167021.2900000019,"y":2543604.6099999994}},{"attributes":{"ID":599751,"DIS_CODE":0,"TOWNNAME":"中西區","LI":"大涼里","LIN":"22鄰","STREET":"府前路","SECT":"二段","MAREA":" ","LANE":" ","ALLEY":" ","HOUSE_NO":"２４３號","E_COORD97":167015.98999999999,"N_COORD97":2543605.1299999999,"ADDRESS":"府前路二段２４３號","OBJECTID":599724},"geometry":{"x":167015.99000000022,"y":2543605.1300000027}},{"attributes":{"ID":599752,"DIS_CODE":0,"TOWNNAME":"中西區","LI":"大涼里","LIN":"22鄰","STREET":"府前路","SECT":"二段","MAREA":" ","LANE":" ","ALLEY":" ","HOUSE_NO":"２４７號","E_COORD97":167009.07000000001,"N_COORD97":2543603.3399999999,"ADDRESS":"府前路二段２４７號","OBJECTID":599725},"geometry":{"x":167009.0700000003,"y":2543603.3399999999}},{"attributes":{"ID":599753,"DIS_CODE":0,"TOWNNAME":"中西區","LI":"大涼里","LIN":"22鄰","STREET":"府前路","SECT":"二段","MAREA":" ","LANE":" ","ALLEY":" ","HOUSE_NO":"２４９號","E_COORD97":167004.79999999999,"N_COORD97":2543604.79,"ADDRESS":"府前路二段２４９號","OBJECTID":599726},"geometry":{"x":167004.80000000075,"y":2543604.790000001}},{"attributes":{"ID":599754,"DIS_CODE":0,"TOWNNAME":"中西區","LI":"大涼里","LIN":"22鄰","STREET":"府前路","SECT":"二段","MAREA":" ","LANE":" ","ALLEY":" ","HOUSE_NO":"２５１號","E_COORD97":166999.42000000001,"N_COORD97":2543606.5800000001,"ADDRESS":"府前路二段２５１號","OBJECTID":599727},"geometry":{"x":166999.41999999993,"y":2543606.5799999982}},{"attributes":{"ID":599755,"DIS_CODE":0,"TOWNNAME":"中西區","LI":"大涼里","LIN":"22鄰","STREET":"府前路","SECT":"二段","MAREA":" ","LANE":" ","ALLEY":" ","HOUSE_NO":"２５３號","E_COORD97":166994.67999999999,"N_COORD97":2543607.6699999999,"ADDRESS":"府前路二段２５３號","OBJECTID":599728},"geometry":{"x":166994.68000000156,"y":2543607.6700000018}},{"attributes":{"ID":599756,"DIS_CODE":0,"TOWNNAME":"中西區","LI":"大涼里","LIN":"22鄰","STREET":"府前路","SECT":"二段","MAREA":" ","LANE":" ","ALLEY":" ","HOUSE_NO":"２６３號","E_COORD97":166974.04999999999,"N_COORD97":2543616.5800000001,"ADDRESS":"府前路二段２６３號","OBJECTID":599729},"geometry":{"x":166974.05000000075,"y":2543616.5800000001}},{"attributes":{"ID":599757,"DIS_CODE":0,"TOWNNAME":"中西區","LI":"西賢里","LIN":"6鄰","STREET":"湖美街","SECT":" ","MAREA":" ","LANE":" ","ALLEY":" ","HOUSE_NO":"２４３號","E_COORD97":165891.09,"N_COORD97":2544987.9399999999,"ADDRESS":"湖美街２４３號","OBJECTID":599730},"geometry":{"x":165891.08999999985,"y":2544987.9400000013}},{"attributes":{"ID":599758,"DIS_CODE":0,"TOWNNAME":"中西區","LI":"西賢里","LIN":"6鄰","STREET":"湖美街","SECT":" ","MAREA":" ","LANE":" ","ALLEY":" ","HOUSE_NO":"２４５號","E_COORD97":165885.34,"N_COORD97":2544987.9399999999,"ADDRESS":"湖美街２４５號","OBJECTID":599731},"geometry":{"x":165885.34000000078,"y":2544987.9400000013}},{"attributes":{"ID":599759,"DIS_CODE":0,"TOWNNAME":"中西區","LI":"西賢里","LIN":"6鄰","STREET":"湖美街","SECT":" ","MAREA":" ","LANE":" ","ALLEY":" ","HOUSE_NO":"２４７號","E_COORD97":165884.48999999999,"N_COORD97":2545007.9700000002,"ADDRESS":"湖美街２４７號","OBJECTID":599732},"geometry":{"x":165884.49000000209,"y":2545007.9700000007}},{"attributes":{"ID":599760,"DIS_CODE":0,"TOWNNAME":"中西區","LI":"西賢里","LIN":"6鄰","STREET":"湖美街","SECT":" ","MAREA":" ","LANE":" ","ALLEY":" ","HOUSE_NO":"２４９號","E_COORD97":165890.53,"N_COORD97":2545006.9900000002,"ADDRESS":"湖美街２４９號","OBJECTID":599733},"geometry":{"x":165890.53000000026,"y":2545006.9900000002}},{"attributes":{"ID":599761,"DIS_CODE":0,"TOWNNAME":"中西區","LI":"西賢里","LIN":"6鄰","STREET":"湖美街","SECT":" ","MAREA":" ","LANE":" ","ALLEY":" ","HOUSE_NO":"２５１號","E_COORD97":165897.39999999999,"N_COORD97":2545005.7200000002,"ADDRESS":"湖美街２５１號","OBJECTID":599734},"geometry":{"x":165897.4000000013,"y":2545005.7200000007}},{"attributes":{"ID":599762,"DIS_CODE":0,"TOWNNAME":"中西區","LI":"西賢里","LIN":"6鄰","STREET":"湖美街","SECT":" ","MAREA":" ","LANE":" ","ALLEY":" ","HOUSE_NO":"２５３號","E_COORD97":165902.87,"N_COORD97":2545005.8599999999,"ADDRESS":"湖美街２５３號","OBJECTID":599735},"geometry":{"x":165902.87000000104,"y":2545005.8600000013}},{"attributes":{"ID":599763,"DIS_CODE":0,"TOWNNAME":"中西區","LI":"西賢里","LIN":"6鄰","STREET":"湖美街","SECT":" ","MAREA":" ","LANE":" ","ALLEY":" ","HOUSE_NO":"２５５號","E_COORD97":165908.06,"N_COORD97":2545006.1499999999,"ADDRESS":"湖美街２５５號","OBJECTID":599736},"geometry":{"x":165908.05999999959,"y":2545006.1500000004}},{"attributes":{"ID":599764,"DIS_CODE":0,"TOWNNAME":"中西區","LI":"西賢里","LIN":"6鄰","STREET":"湖美街","SECT":" ","MAREA":" ","LANE":" ","ALLEY":" ","HOUSE_NO":"２５７號","E_COORD97":165914.66,"N_COORD97":2545006.0099999998,"ADDRESS":"湖美街２５７號","OBJECTID":599737},"geometry":{"x":165914.66000000015,"y":2545006.0099999998}},{"attributes":{"ID":599765,"DIS_CODE":0,"TOWNNAME":"中西區","LI":"西賢里","LIN":"6鄰","STREET":"湖美街","SECT":" ","MAREA":" ","LANE":" ","ALLEY":" ","HOUSE_NO":"２５９號","E_COORD97":165919.85000000001,"N_COORD97":2545005.5800000001,"ADDRESS":"湖美街２５９號","OBJECTID":599738},"geometry":{"x":165919.84999999963,"y":2545005.5800000001}},{"attributes":{"ID":599766,"DIS_CODE":0,"TOWNNAME":"中西區","LI":"西賢里","LIN":"6鄰","STREET":"湖美街","SECT":" ","MAREA":" ","LANE":" ","ALLEY":" ","HOUSE_NO":"２６１號","E_COORD97":165927.28,"N_COORD97":2545005.4399999999,"ADDRESS":"湖美街２６１號","OBJECTID":599739},"geometry":{"x":165927.28000000119,"y":2545005.4400000013}},{"attributes":{"ID":599767,"DIS_CODE":0,"TOWNNAME":"中西區","LI":"大涼里","LIN":"22鄰","STREET":"府前路","SECT":"二段","MAREA":" ","LANE":" ","ALLEY":" ","HOUSE_NO":"２７１號","E_COORD97":166951.75,"N_COORD97":2543622.1400000001,"ADDRESS":"府前路二段２７１號","OBJECTID":599740},"geometry":{"x":166951.75,"y":2543622.1400000025}},{"attributes":{"ID":599768,"DIS_CODE":0,"TOWNNAME":"中西區","LI":"大涼里","LIN":"22鄰","STREET":"府前路","SECT":"二段","MAREA":" ","LANE":" ","ALLEY":" ","HOUSE_NO":"２７７號","E_COORD97":166928.32999999999,"N_COORD97":2543627.1600000001,"ADDRESS":"府前路二段２７７號","OBJECTID":599741},"geometry":{"x":166928.33000000101,"y":2543627.160000002}},{"attributes":{"ID":599769,"DIS_CODE":0,"TOWNNAME":"佳里區","LI":"建南里","LIN":"22鄰","STREET":"祥和五街","SECT":" ","MAREA":" ","LANE":" ","ALLEY":" ","HOUSE_NO":"１０５號","E_COORD97":165597.62,"N_COORD97":2561470.0699999998,"ADDRESS":"祥和五街１０５號","OBJECTID":599742},"geometry":{"x":165597.62000000104,"y":2561470.0700000003}},{"attributes":{"ID":599770,"DIS_CODE":0,"TOWNNAME":"佳里區","LI":"建南里","LIN":"22鄰","STREET":"祥和五街","SECT":" ","MAREA":" ","LANE":" ","ALLEY":" ","HOUSE_NO":"１０７號","E_COORD97":165592.54999999999,"N_COORD97":2561470.1099999999,"ADDRESS":"祥和五街１０７號","OBJECTID":599743},"geometry":{"x":165592.55000000075,"y":2561470.1100000013}},{"attributes":{"ID":599771,"DIS_CODE":0,"TOWNNAME":"佳里區","LI":"建南里","LIN":"22鄰","STREET":"祥和五街","SECT":" ","MAREA":" ","LANE":" ","ALLEY":" ","HOUSE_NO":"１０９號","E_COORD97":165581.28,"N_COORD97":2561473.3399999999,"ADDRESS":"祥和五街１０９號","OBJECTID":599744},"geometry":{"x":165581.28000000119,"y":2561473.3400000017}},{"attributes":{"ID":599772,"DIS_CODE":0,"TOWNNAME":"佳里區","LI":"建南里","LIN":"22鄰","STREET":"祥和五街","SECT":" ","MAREA":" ","LANE":" ","ALLEY":" ","HOUSE_NO":"１１９號","E_COORD97":165540.92999999999,"N_COORD97":2561470.9700000002,"ADDRESS":"祥和五街１１９號","OBJECTID":599745},"geometry":{"x":165540.93000000063,"y":2561470.9700000007}},{"attributes":{"ID":599773,"DIS_CODE":0,"TOWNNAME":"佳里區","LI":"建南里","LIN":"22鄰","STREET":"祥和五街","SECT":" ","MAREA":" ","LANE":" ","ALLEY":" ","HOUSE_NO":"１２１號","E_COORD97":165536.44,"N_COORD97":2561471.8599999999,"ADDRESS":"祥和五街１２１號","OBJECTID":599746},"geometry":{"x":165536.44000000134,"y":2561471.8600000013}},{"attributes":{"ID":599774,"DIS_CODE":0,"TOWNNAME":"佳里區","LI":"建南里","LIN":"22鄰","STREET":"祥和五街","SECT":" ","MAREA":" ","LANE":" ","ALLEY":" ","HOUSE_NO":"１２３號","E_COORD97":165532.07999999999,"N_COORD97":2561472.27,"ADDRESS":"祥和五街１２３號","OBJECTID":599747},"geometry":{"x":165532.08000000007,"y":2561472.2700000033}},{"attributes":{"ID":599775,"DIS_CODE":0,"TOWNNAME":"佳里區","LI":"建南里","LIN":"22鄰","STREET":"祥和五街","SECT":" ","MAREA":" ","LANE":" ","ALLEY":" ","HOUSE_NO":"１２５號","E_COORD97":165527.75,"N_COORD97":2561472.54,"ADDRESS":"祥和五街１２５號","OBJECTID":599748},"geometry":{"x":165527.75,"y":2561472.5399999991}},{"attributes":{"ID":599776,"DIS_CODE":0,"TOWNNAME":"佳里區","LI":"建南里","LIN":"22鄰","STREET":"祥和五街","SECT":" ","MAREA":" ","LANE":" ","ALLEY":" ","HOUSE_NO":"１２７號","E_COORD97":165522.70000000001,"N_COORD97":2561473.2599999998,"ADDRESS":"祥和五街１２７號","OBJECTID":599749},"geometry":{"x":165522.70000000112,"y":2561473.2600000016}},{"attributes":{"ID":599777,"DIS_CODE":0,"TOWNNAME":"佳里區","LI":"建南里","LIN":"22鄰","STREET":"祥和五街","SECT":" ","MAREA":" ","LANE":" ","ALLEY":" ","HOUSE_NO":"１２９號","E_COORD97":165518.07999999999,"N_COORD97":2561473.6800000002,"ADDRESS":"祥和五街１２９號","OBJECTID":599750},"geometry":{"x":165518.08000000101,"y":2561473.6800000016}},{"attributes":{"ID":599778,"DIS_CODE":0,"TOWNNAME":"佳里區","LI":"建南里","LIN":"22鄰","STREET":"祥和五街","SECT":" ","MAREA":" ","LANE":" ","ALLEY":" ","HOUSE_NO":"１３１號","E_COORD97":165513.70000000001,"N_COORD97":2561474.1200000001,"ADDRESS":"祥和五街１３１號","OBJECTID":599751},"geometry":{"x":165513.70000000112,"y":2561474.120000001}},{"attributes":{"ID":599779,"DIS_CODE":0,"TOWNNAME":"佳里區","LI":"建南里","LIN":"22鄰","STREET":"祥和五街","SECT":" ","MAREA":" ","LANE":" ","ALLEY":" ","HOUSE_NO":"３２號","E_COORD97":165796.01000000001,"N_COORD97":2561492.1400000001,"ADDRESS":"祥和五街３２號","OBJECTID":599752},"geometry":{"x":165796.01000000071,"y":2561492.1400000025}},{"attributes":{"ID":599780,"DIS_CODE":0,"TOWNNAME":"佳里區","LI":"建南里","LIN":"22鄰","STREET":"祥和五街","SECT":" ","MAREA":" ","LANE":" ","ALLEY":" ","HOUSE_NO":"３４號","E_COORD97":165789.5,"N_COORD97":2561487.8700000001,"ADDRESS":"祥和五街３４號","OBJECTID":599753},"geometry":{"x":165789.50000000093,"y":2561487.8700000029}},{"attributes":{"ID":599781,"DIS_CODE":0,"TOWNNAME":"佳里區","LI":"建南里","LIN":"22鄰","STREET":"祥和五街","SECT":" ","MAREA":" ","LANE":" ","ALLEY":" ","HOUSE_NO":"３６號","E_COORD97":165784.89000000001,"N_COORD97":2561488.1400000001,"ADDRESS":"祥和五街３６號","OBJECTID":599754},"geometry":{"x":165784.8900000006,"y":2561488.1400000025}},{"attributes":{"ID":599782,"DIS_CODE":0,"TOWNNAME":"佳里區","LI":"建南里","LIN":"22鄰","STREET":"祥和五街","SECT":" ","MAREA":" ","LANE":" ","ALLEY":" ","HOUSE_NO":"３８號","E_COORD97":165780.62,"N_COORD97":2561488.29,"ADDRESS":"祥和五街３８號","OBJECTID":599755},"geometry":{"x":165780.62000000104,"y":2561488.2899999991}},{"attributes":{"ID":599783,"DIS_CODE":0,"TOWNNAME":"佳里區","LI":"建南里","LIN":"22鄰","STREET":"勝利路","SECT":" ","MAREA":" ","LANE":" ","ALLEY":" ","HOUSE_NO":"６號","E_COORD97":165844.75,"N_COORD97":2561552.9500000002,"ADDRESS":"勝利路６號","OBJECTID":599756},"geometry":{"x":165844.75,"y":2561552.9500000011}},{"attributes":{"ID":599784,"DIS_CODE":0,"TOWNNAME":"佳里區","LI":"建南里","LIN":"22鄰","STREET":"勝利路","SECT":" ","MAREA":" ","LANE":" ","ALLEY":" ","HOUSE_NO":"１４號","E_COORD97":165844.92999999999,"N_COORD97":2561535.9100000001,"ADDRESS":"勝利路１４號","OBJECTID":599757},"geometry":{"x":165844.9299999997,"y":2561535.9100000001}},{"attributes":{"ID":599785,"DIS_CODE":0,"TOWNNAME":"佳里區","LI":"建南里","LIN":"22鄰","STREET":"勝利路","SECT":" ","MAREA":" ","LANE":" ","ALLEY":" ","HOUSE_NO":"１６號","E_COORD97":165832.38,"N_COORD97":2561528.4900000002,"ADDRESS":"勝利路１６號","OBJECTID":599758},"geometry":{"x":165832.38000000175,"y":2561528.4900000002}},{"attributes":{"ID":599786,"DIS_CODE":0,"TOWNNAME":"佳里區","LI":"建南里","LIN":"22鄰","STREET":"勝利路","SECT":" ","MAREA":" ","LANE":" ","ALLEY":" ","HOUSE_NO":"２２號","E_COORD97":165842.60000000001,"N_COORD97":2561520.0699999998,"ADDRESS":"勝利路２２號","OBJECTID":599759},"geometry":{"x":165842.60000000056,"y":2561520.0700000022}},{"attributes":{"ID":599787,"DIS_CODE":0,"TOWNNAME":"學甲區","LI":"明宜里","LIN":"22鄰","STREET":"中山路","SECT":" ","MAREA":" ","LANE":" ","ALLEY":" ","HOUSE_NO":"１９６號","E_COORD97":165823.04000000001,"N_COORD97":2570579.0899999999,"ADDRESS":"中山路１９６號","OBJECTID":599760},"geometry":{"x":165823.04000000097,"y":2570579.0899999999}},{"attributes":{"ID":599788,"DIS_CODE":0,"TOWNNAME":"學甲區","LI":"明宜里","LIN":"22鄰","STREET":"中山路","SECT":" ","MAREA":" ","LANE":" ","ALLEY":" ","HOUSE_NO":"１９８號之１０","E_COORD97":165765.14999999999,"N_COORD97":2570620.6400000001,"ADDRESS":"中山路１９８號之１０","OBJECTID":599761},"geometry":{"x":165765.1500000013,"y":2570620.6400000006}},{"attributes":{"ID":599789,"DIS_CODE":0,"TOWNNAME":"學甲區","LI":"明宜里","LIN":"22鄰","STREET":"中山路","SECT":" ","MAREA":" ","LANE":" ","ALLEY":" ","HOUSE_NO":"１９８號之１１","E_COORD97":165764.51999999999,"N_COORD97":2570625.4900000002,"ADDRESS":"中山路１９８號之１１","OBJECTID":599762},"geometry":{"x":165764.51999999955,"y":2570625.4900000039}},{"attributes":{"ID":599790,"DIS_CODE":0,"TOWNNAME":"學甲區","LI":"明宜里","LIN":"22鄰","STREET":"中山路","SECT":" ","MAREA":" ","LANE":" ","ALLEY":" ","HOUSE_NO":"１９８號之２","E_COORD97":165784.78,"N_COORD97":2570591.0699999998,"ADDRESS":"中山路１９８號之２","OBJECTID":599763},"geometry":{"x":165784.78000000119,"y":2570591.070000004}},{"attributes":{"ID":599791,"DIS_CODE":0,"TOWNNAME":"學甲區","LI":"明宜里","LIN":"22鄰","STREET":"中山路","SECT":" ","MAREA":" ","LANE":" ","ALLEY":" ","HOUSE_NO":"１９８號之３","E_COORD97":165772.31,"N_COORD97":2570588.8799999999,"ADDRESS":"中山路１９８號之３","OBJECTID":599764},"geometry":{"x":165772.30999999959,"y":2570588.8800000008}},{"attributes":{"ID":599792,"DIS_CODE":0,"TOWNNAME":"學甲區","LI":"明宜里","LIN":"22鄰","STREET":"中山路","SECT":" ","MAREA":" ","LANE":" ","ALLEY":" ","HOUSE_NO":"１９８號之５","E_COORD97":165767.17999999999,"N_COORD97":2570590.27,"ADDRESS":"中山路１９８號之５","OBJECTID":599765},"geometry":{"x":165767.17999999877,"y":2570590.2700000014}},{"attributes":{"ID":599793,"DIS_CODE":0,"TOWNNAME":"學甲區","LI":"明宜里","LIN":"22鄰","STREET":"中山路","SECT":" ","MAREA":" ","LANE":" ","ALLEY":" ","HOUSE_NO":"１９８號之６","E_COORD97":165762.23999999999,"N_COORD97":2570592.04,"ADDRESS":"中山路１９８號之６","OBJECTID":599766},"geometry":{"x":165762.23999999929,"y":2570592.0399999991}},{"attributes":{"ID":599794,"DIS_CODE":0,"TOWNNAME":"學甲區","LI":"明宜里","LIN":"22鄰","STREET":"中山路","SECT":" ","MAREA":" ","LANE":" ","ALLEY":" ","HOUSE_NO":"１９８號之７","E_COORD97":165764.98000000001,"N_COORD97":2570607.4199999999,"ADDRESS":"中山路１９８號之７","OBJECTID":599767},"geometry":{"x":165764.98000000138,"y":2570607.4199999999}},{"attributes":{"ID":599795,"DIS_CODE":0,"TOWNNAME":"學甲區","LI":"明宜里","LIN":"22鄰","STREET":"中山路","SECT":" ","MAREA":" ","LANE":" ","ALLEY":" ","HOUSE_NO":"１９８號之８","E_COORD97":165765.12,"N_COORD97":2570611.9300000002,"ADDRESS":"中山路１９８號之８","OBJECTID":599768},"geometry":{"x":165765.12000000104,"y":2570611.9300000034}},{"attributes":{"ID":599796,"DIS_CODE":0,"TOWNNAME":"學甲區","LI":"明宜里","LIN":"22鄰","STREET":"中山路","SECT":" ","MAREA":" ","LANE":" ","ALLEY":" ","HOUSE_NO":"１９８號之９","E_COORD97":165764.95999999999,"N_COORD97":2570616.0899999999,"ADDRESS":"中山路１９８號之９","OBJECTID":599769},"geometry":{"x":165764.95999999996,"y":2570616.0899999999}},{"attributes":{"ID":599797,"DIS_CODE":0,"TOWNNAME":"學甲區","LI":"明宜里","LIN":"22鄰","STREET":"中山路","SECT":" ","MAREA":" ","LANE":" ","ALLEY":" ","HOUSE_NO":"１９８號","E_COORD97":165793.97,"N_COORD97":2570589.8799999999,"ADDRESS":"中山路１９８號","OBJECTID":599770},"geometry":{"x":165793.96999999974,"y":2570589.879999999}},{"attributes":{"ID":599798,"DIS_CODE":0,"TOWNNAME":"學甲區","LI":"秀昌里","LIN":"22鄰","STREET":"中正路","SECT":" ","MAREA":" ","LANE":" ","ALLEY":" ","HOUSE_NO":"３４５號","E_COORD97":166208.98000000001,"N_COORD97":2570683.23,"ADDRESS":"中正路３４５號","OBJECTID":599771},"geometry":{"x":166208.98000000138,"y":2570683.2300000023}},{"attributes":{"ID":599799,"DIS_CODE":0,"TOWNNAME":"學甲區","LI":"秀昌里","LIN":"22鄰","STREET":"中正路","SECT":" ","MAREA":" ","LANE":" ","ALLEY":" ","HOUSE_NO":"３６１號","E_COORD97":166235.41,"N_COORD97":2570720.0099999998,"ADDRESS":"中正路３６１號","OBJECTID":599772},"geometry":{"x":166235.41000000015,"y":2570720.0100000035}},{"attributes":{"ID":599800,"DIS_CODE":0,"TOWNNAME":"學甲區","LI":"秀昌里","LIN":"22鄰","STREET":"中正路","SECT":" ","MAREA":" ","LANE":" ","ALLEY":" ","HOUSE_NO":"３６３號","E_COORD97":166242.69,"N_COORD97":2570718.0499999998,"ADDRESS":"中正路３６３號","OBJECTID":599773},"geometry":{"x":166242.69000000227,"y":2570718.0500000026}},{"attributes":{"ID":599801,"DIS_CODE":0,"TOWNNAME":"學甲區","LI":"秀昌里","LIN":"22鄰","STREET":"中正路","SECT":" ","MAREA":" ","LANE":" ","ALLEY":" ","HOUSE_NO":"３６５號","E_COORD97":166247.5,"N_COORD97":2570725.9900000002,"ADDRESS":"中正路３６５號","OBJECTID":599774},"geometry":{"x":166247.50000000093,"y":2570725.9900000002}},{"attributes":{"ID":599802,"DIS_CODE":0,"TOWNNAME":"學甲區","LI":"秀昌里","LIN":"22鄰","STREET":"中正路","SECT":" ","MAREA":" ","LANE":" ","ALLEY":" ","HOUSE_NO":"３６７號","E_COORD97":166250.60000000001,"N_COORD97":2570728.8799999999,"ADDRESS":"中正路３６７號","OBJECTID":599775},"geometry":{"x":166250.59999999963,"y":2570728.879999999}},{"attributes":{"ID":599803,"DIS_CODE":0,"TOWNNAME":"學甲區","LI":"秀昌里","LIN":"22鄰","STREET":"中正路","SECT":" ","MAREA":" ","LANE":" ","ALLEY":" ","HOUSE_NO":"３６９號","E_COORD97":166253.20000000001,"N_COORD97":2570731.5899999999,"ADDRESS":"中正路３６９號","OBJECTID":599776},"geometry":{"x":166253.20000000112,"y":2570731.5899999999}},{"attributes":{"ID":599804,"DIS_CODE":0,"TOWNNAME":"學甲區","LI":"秀昌里","LIN":"22鄰","STREET":"中正路","SECT":" ","MAREA":" ","LANE":" ","ALLEY":" ","HOUSE_NO":"３７１號","E_COORD97":166256.92000000001,"N_COORD97":2570737.21,"ADDRESS":"中正路３７１號","OBJECTID":599777},"geometry":{"x":166256.91999999993,"y":2570737.2100000028}},{"attributes":{"ID":599805,"DIS_CODE":0,"TOWNNAME":"學甲區","LI":"秀昌里","LIN":"22鄰","STREET":"中正路","SECT":" ","MAREA":" ","LANE":" ","ALLEY":" ","HOUSE_NO":"３７３號","E_COORD97":166259.22,"N_COORD97":2570740.9199999999,"ADDRESS":"中正路３７３號","OBJECTID":599778},"geometry":{"x":166259.22000000067,"y":2570740.9200000037}},{"attributes":{"ID":599806,"DIS_CODE":0,"TOWNNAME":"學甲區","LI":"秀昌里","LIN":"22鄰","STREET":"中正路","SECT":" ","MAREA":" ","LANE":" ","ALLEY":" ","HOUSE_NO":"３７７號","E_COORD97":166264.73000000001,"N_COORD97":2570745.7000000002,"ADDRESS":"中正路３７７號","OBJECTID":599779},"geometry":{"x":166264.73000000138,"y":2570745.7000000011}},{"attributes":{"ID":599807,"DIS_CODE":0,"TOWNNAME":"學甲區","LI":"秀昌里","LIN":"22鄰","STREET":"中正路","SECT":" ","MAREA":" ","LANE":" ","ALLEY":" ","HOUSE_NO":"３７９號","E_COORD97":166268.5,"N_COORD97":2570750.2799999998,"ADDRESS":"中正路３７９號","OBJECTID":599780},"geometry":{"x":166268.5,"y":2570750.2799999993}},{"attributes":{"ID":599808,"DIS_CODE":0,"TOWNNAME":"學甲區","LI":"秀昌里","LIN":"22鄰","STREET":"中正路","SECT":" ","MAREA":" ","LANE":" ","ALLEY":" ","HOUSE_NO":"３８１號","E_COORD97":166272.23000000001,"N_COORD97":2570753.7400000002,"ADDRESS":"中正路３８１號","OBJECTID":599781},"geometry":{"x":166272.23000000045,"y":2570753.7400000021}},{"attributes":{"ID":599809,"DIS_CODE":0,"TOWNNAME":"學甲區","LI":"秀昌里","LIN":"22鄰","STREET":"中正路","SECT":" ","MAREA":" ","LANE":" ","ALLEY":" ","HOUSE_NO":"３８９號","E_COORD97":166288.39000000001,"N_COORD97":2570764.48,"ADDRESS":"中正路３８９號","OBJECTID":599782},"geometry":{"x":166288.3900000006,"y":2570764.4800000004}},{"attributes":{"ID":599810,"DIS_CODE":0,"TOWNNAME":"學甲區","LI":"秀昌里","LIN":"22鄰","STREET":"中正路","SECT":" ","MAREA":" ","LANE":" ","ALLEY":" ","HOUSE_NO":"３９１號","E_COORD97":166293.25,"N_COORD97":2570768.0800000001,"ADDRESS":"中正路３９１號","OBJECTID":599783},"geometry":{"x":166293.25000000093,"y":2570768.0800000019}},{"attributes":{"ID":599811,"DIS_CODE":0,"TOWNNAME":"學甲區","LI":"秀昌里","LIN":"22鄰","STREET":"中正路","SECT":" ","MAREA":" ","LANE":" ","ALLEY":" ","HOUSE_NO":"３９３號","E_COORD97":166297.14999999999,"N_COORD97":2570773.1899999999,"ADDRESS":"中正路３９３號","OBJECTID":599784},"geometry":{"x":166297.15000000224,"y":2570773.1900000013}},{"attributes":{"ID":599812,"DIS_CODE":0,"TOWNNAME":"學甲區","LI":"秀昌里","LIN":"22鄰","STREET":"中正路","SECT":" ","MAREA":" ","LANE":" ","ALLEY":" ","HOUSE_NO":"３９５號","E_COORD97":166302.78,"N_COORD97":2570778.5899999999,"ADDRESS":"中正路３９５號","OBJECTID":599785},"geometry":{"x":166302.77999999933,"y":2570778.5900000017}},{"attributes":{"ID":599813,"DIS_CODE":0,"TOWNNAME":"歸仁區","LI":"辜厝里","LIN":"22鄰","STREET":"大順街","SECT":" ","MAREA":" ","LANE":" ","ALLEY":" ","HOUSE_NO":"３１號","E_COORD97":177424.57999999999,"N_COORD97":2540575.1499999999,"ADDRESS":"大順街３１號","OBJECTID":599786},"geometry":{"x":177424.58000000194,"y":2540575.1500000004}},{"attributes":{"ID":599814,"DIS_CODE":0,"TOWNNAME":"歸仁區","LI":"辜厝里","LIN":"22鄰","STREET":"大順街","SECT":" ","MAREA":" ","LANE":" ","ALLEY":" ","HOUSE_NO":"３７號","E_COORD97":177416.38,"N_COORD97":2540580.1499999999,"ADDRESS":"大順街３７號","OBJECTID":599787},"geometry":{"x":177416.37999999989,"y":2540580.1500000022}},{"attributes":{"ID":599815,"DIS_CODE":0,"TOWNNAME":"安平區","LI":"平通里","LIN":"22鄰","STREET":"育平九街","SECT":" ","MAREA":" ","LANE":" ","ALLEY":" ","HOUSE_NO":"４３６號","E_COORD97":164470.22,"N_COORD97":2544044.46,"ADDRESS":"育平九街４３６號","OBJECTID":599788},"geometry":{"x":164470.2200000016,"y":2544044.4600000009}},{"attributes":{"ID":599816,"DIS_CODE":0,"TOWNNAME":"安平區","LI":"平通里","LIN":"22鄰","STREET":"育平九街","SECT":" ","MAREA":" ","LANE":" ","ALLEY":" ","HOUSE_NO":"４１６號","E_COORD97":164514.85999999999,"N_COORD97":2544046.5600000001,"ADDRESS":"育平九街４１６號","OBJECTID":599789},"geometry":{"x":164514.86000000034,"y":2544046.5600000005}},{"attributes":{"ID":599817,"DIS_CODE":0,"TOWNNAME":"安平區","LI":"文平里","LIN":"22鄰","STREET":"健康一街","SECT":" ","MAREA":" ","LANE":" ","ALLEY":" ","HOUSE_NO":"６０號","E_COORD97":165947.73999999999,"N_COORD97":2542802.23,"ADDRESS":"健康一街６０號","OBJECTID":599790},"geometry":{"x":165947.74000000115,"y":2542802.2300000004}},{"attributes":{"ID":599818,"DIS_CODE":0,"TOWNNAME":"安平區","LI":"文平里","LIN":"22鄰","STREET":"健康一街","SECT":" ","MAREA":" ","LANE":" ","ALLEY":" ","HOUSE_NO":"６８號","E_COORD97":165951.23000000001,"N_COORD97":2542828.4199999999,"ADDRESS":"健康一街６８號","OBJECTID":599791},"geometry":{"x":165951.23000000138,"y":2542828.4200000018}},{"attributes":{"ID":599819,"DIS_CODE":0,"TOWNNAME":"安平區","LI":"文平里","LIN":"22鄰","STREET":"健康一街","SECT":" ","MAREA":" ","LANE":" ","ALLEY":" ","HOUSE_NO":"７０號","E_COORD97":165951.70000000001,"N_COORD97":2542832.71,"ADDRESS":"健康一街７０號","OBJECTID":599792},"geometry":{"x":165951.70000000019,"y":2542832.7100000009}},{"attributes":{"ID":599820,"DIS_CODE":0,"TOWNNAME":"安平區","LI":"文平里","LIN":"22鄰","STREET":"健康一街","SECT":" ","MAREA":" ","LANE":" ","ALLEY":" ","HOUSE_NO":"７２號","E_COORD97":165953.92999999999,"N_COORD97":2542836.04,"ADDRESS":"健康一街７２號","OBJECTID":599793},"geometry":{"x":165953.93000000063,"y":2542836.0399999991}},{"attributes":{"ID":599821,"DIS_CODE":0,"TOWNNAME":"安平區","LI":"平通里","LIN":"22鄰","STREET":"育平九街","SECT":" ","MAREA":" ","LANE":" ","ALLEY":" ","HOUSE_NO":"３８０號","E_COORD97":164555.56,"N_COORD97":2544051.79,"ADDRESS":"育平九街３８０號","OBJECTID":599794},"geometry":{"x":164555.55999999959,"y":2544051.7900000028}},{"attributes":{"ID":599822,"DIS_CODE":0,"TOWNNAME":"安平區","LI":"平通里","LIN":"22鄰","STREET":"育平九街","SECT":" ","MAREA":" ","LANE":" ","ALLEY":" ","HOUSE_NO":"３７８號","E_COORD97":164561.59,"N_COORD97":2544052.5899999999,"ADDRESS":"育平九街３７８號","OBJECTID":599795},"geometry":{"x":164561.59000000078,"y":2544052.5899999999}},{"attributes":{"ID":599823,"DIS_CODE":0,"TOWNNAME":"安平區","LI":"文平里","LIN":"22鄰","STREET":"健康一街","SECT":" ","MAREA":" ","LANE":" ","ALLEY":" ","HOUSE_NO":"６０號","E_COORD97":165948.69,"N_COORD97":2542806.3599999999,"ADDRESS":"健康一街６０號","OBJECTID":599796},"geometry":{"x":165948.69000000041,"y":2542806.3599999994}},{"attributes":{"ID":599824,"DIS_CODE":0,"TOWNNAME":"安平區","LI":"文平里","LIN":"22鄰","STREET":"健康一街","SECT":" ","MAREA":" ","LANE":" ","ALLEY":" ","HOUSE_NO":"６２號","E_COORD97":165949.48000000001,"N_COORD97":2542810.6400000001,"ADDRESS":"健康一街６２號","OBJECTID":599797},"geometry":{"x":165949.48000000138,"y":2542810.6400000025}},{"attributes":{"ID":599825,"DIS_CODE":0,"TOWNNAME":"安平區","LI":"文平里","LIN":"22鄰","STREET":"健康一街","SECT":" ","MAREA":" ","LANE":" ","ALLEY":" ","HOUSE_NO":"６６號","E_COORD97":165949.95999999999,"N_COORD97":2542814.9300000002,"ADDRESS":"健康一街６６號","OBJECTID":599798},"geometry":{"x":165949.95999999996,"y":2542814.9300000016}},{"attributes":{"ID":599826,"DIS_CODE":0,"TOWNNAME":"新營區","LI":"民權里","LIN":"22鄰","STREET":"仁愛街","SECT":" ","MAREA":" ","LANE":" ","ALLEY":" ","HOUSE_NO":"１２３號","E_COORD97":179741.10999999999,"N_COORD97":2578535.1899999999,"ADDRESS":"仁愛街１２３號","OBJECTID":599799},"geometry":{"x":179741.11000000034,"y":2578535.1899999995}},{"attributes":{"ID":599827,"DIS_CODE":0,"TOWNNAME":"新營區","LI":"王公里","LIN":"22鄰","STREET":"大仁街","SECT":" ","MAREA":" ","LANE":" ","ALLEY":" ","HOUSE_NO":"８３號","E_COORD97":180480.39999999999,"N_COORD97":2579392.1800000002,"ADDRESS":"大仁街８３號","OBJECTID":599800},"geometry":{"x":180480.40000000037,"y":2579392.1800000016}}]}