{"displayFieldName":"TOWNNAME","fieldAliases":{"ID":"ID","DIS_CODE":"DIS_CODE","TOWNNAME":"TOWNNAME","LI":"LI","LIN":"LIN","STREET":"STREET","SECT":"SECT","MAREA":"MAREA","LANE":"LANE","ALLEY":"ALLEY","HOUSE_NO":"HOUSE_NO","E_COORD97":"E_COORD97","N_COORD97":"N_COORD97","ADDRESS":"ADDRESS","OBJECTID":"OBJECTID"},"geometryType":"esriGeometryPoint","spatialReference":{"wkid":102443,"latestWkid":3826},"fields":[{"name":"ID","type":"esriFieldTypeDouble","alias":"ID"},{"name":"DIS_CODE","type":"esriFieldTypeInteger","alias":"DIS_CODE"},{"name":"TOWNNAME","type":"esriFieldTypeString","alias":"TOWNNAME","length":8},{"name":"LI","type":"esriFieldTypeString","alias":"LI","length":8},{"name":"LIN","type":"esriFieldTypeString","alias":"LIN","length":12},{"name":"STREET","type":"esriFieldTypeString","alias":"STREET","length":20},{"name":"SECT","type":"esriFieldTypeString","alias":"SECT","length":8},{"name":"MAREA","type":"esriFieldTypeString","alias":"MAREA","length":12},{"name":"LANE","type":"esriFieldTypeString","alias":"LANE","length":10},{"name":"ALLEY","type":"esriFieldTypeString","alias":"ALLEY","length":10},{"name":"HOUSE_NO","type":"esriFieldTypeString","alias":"HOUSE_NO","length":20},{"name":"E_COORD97","type":"esriFieldTypeDouble","alias":"E_COORD97"},{"name":"N_COORD97","type":"esriFieldTypeDouble","alias":"N_COORD97"},{"name":"ADDRESS","type":"esriFieldTypeString","alias":"ADDRESS","length":50},{"name":"OBJECTID","type":"esriFieldTypeOID","alias":"OBJECTID"}],"features":[{"attributes":{"ID":612028,"DIS_CODE":0,"TOWNNAME":"東區","LI":"德高里","LIN":"3鄰","STREET":"城東街","SECT":" ","MAREA":" ","LANE":" ","ALLEY":" ","HOUSE_NO":"７７號","E_COORD97":171600.88,"N_COORD97":2540821.9100000001,"ADDRESS":"城東街７７號","OBJECTID":612001},"geometry":{"x":171600.87999999896,"y":2540821.910000002}},{"attributes":{"ID":612029,"DIS_CODE":0,"TOWNNAME":"東區","LI":"德高里","LIN":"3鄰","STREET":"城東街","SECT":" ","MAREA":" ","LANE":" ","ALLEY":" ","HOUSE_NO":"８１號","E_COORD97":171590.31,"N_COORD97":2540834.3999999999,"ADDRESS":"城東街８１號","OBJECTID":612002},"geometry":{"x":171590.30999999959,"y":2540834.4000000004}},{"attributes":{"ID":612030,"DIS_CODE":0,"TOWNNAME":"東區","LI":"德高里","LIN":"3鄰","STREET":"城東街","SECT":" ","MAREA":" ","LANE":" ","ALLEY":" ","HOUSE_NO":"７９號","E_COORD97":171596.92000000001,"N_COORD97":2540826.9500000002,"ADDRESS":"城東街７９號","OBJECTID":612003},"geometry":{"x":171596.91999999993,"y":2540826.9500000011}},{"attributes":{"ID":612031,"DIS_CODE":0,"TOWNNAME":"東區","LI":"崇德里","LIN":"3鄰","STREET":"崇德路","SECT":" ","MAREA":" ","LANE":" ","ALLEY":" ","HOUSE_NO":"４５１號","E_COORD97":170639.84,"N_COORD97":2541752.0899999999,"ADDRESS":"崇德路４５１號","OBJECTID":612004},"geometry":{"x":170639.83999999985,"y":2541752.0900000036}},{"attributes":{"ID":612032,"DIS_CODE":0,"TOWNNAME":"安南區","LI":"公\u25A0里","LIN":"3鄰","STREET":"安興街","SECT":" ","MAREA":" ","LANE":" ","ALLEY":" ","HOUSE_NO":"６３號","E_COORD97":164296.51999999999,"N_COORD97":2552236.02,"ADDRESS":"安興街６３號","OBJECTID":612005},"geometry":{"x":164296.51999999955,"y":2552236.0200000014}},{"attributes":{"ID":612033,"DIS_CODE":0,"TOWNNAME":"白河區","LI":"永安里","LIN":"3鄰","STREET":"中正路","SECT":" ","MAREA":" ","LANE":" ","ALLEY":" ","HOUSE_NO":"４５號","E_COORD97":190068.53,"N_COORD97":2583113.3100000001,"ADDRESS":"中正路４５號","OBJECTID":612006},"geometry":{"x":190068.53000000119,"y":2583113.3100000005}},{"attributes":{"ID":612034,"DIS_CODE":0,"TOWNNAME":"白河區","LI":"永安里","LIN":"3鄰","STREET":"中正路","SECT":" ","MAREA":" ","LANE":" ","ALLEY":" ","HOUSE_NO":"５９號","E_COORD97":190030.01000000001,"N_COORD97":2583116.2400000002,"ADDRESS":"中正路５９號","OBJECTID":612007},"geometry":{"x":190030.00999999885,"y":2583116.2400000002}},{"attributes":{"ID":612035,"DIS_CODE":0,"TOWNNAME":"白河區","LI":"永安里","LIN":"3鄰","STREET":"中正路","SECT":" ","MAREA":" ","LANE":" ","ALLEY":" ","HOUSE_NO":"７３號","E_COORD97":189982.92000000001,"N_COORD97":2583115.4900000002,"ADDRESS":"中正路７３號","OBJECTID":612008},"geometry":{"x":189982.91999999993,"y":2583115.4900000039}},{"attributes":{"ID":612036,"DIS_CODE":0,"TOWNNAME":"白河區","LI":"永安里","LIN":"3鄰","STREET":"中正路","SECT":" ","MAREA":" ","LANE":" ","ALLEY":" ","HOUSE_NO":"７７號","E_COORD97":189974.26999999999,"N_COORD97":2583115.3999999999,"ADDRESS":"中正路７７號","OBJECTID":612009},"geometry":{"x":189974.27000000048,"y":2583115.4000000004}},{"attributes":{"ID":612037,"DIS_CODE":0,"TOWNNAME":"安南區","LI":"理想里","LIN":"3鄰","STREET":"大安街","SECT":" ","MAREA":" ","LANE":" ","ALLEY":" ","HOUSE_NO":"７００號","E_COORD97":167097.56,"N_COORD97":2548964.0800000001,"ADDRESS":"大安街７００號","OBJECTID":612010},"geometry":{"x":167097.56000000052,"y":2548964.0800000019}},{"attributes":{"ID":612038,"DIS_CODE":0,"TOWNNAME":"安南區","LI":"淵中里","LIN":"3鄰","STREET":"安中路","SECT":"四段","MAREA":" ","LANE":" ","ALLEY":" ","HOUSE_NO":"４１號","E_COORD97":165231.69,"N_COORD97":2550059.0899999999,"ADDRESS":"安中路四段４１號","OBJECTID":612011},"geometry":{"x":165231.69000000041,"y":2550059.0900000017}},{"attributes":{"ID":612039,"DIS_CODE":0,"TOWNNAME":"安南區","LI":"淵中里","LIN":"3鄰","STREET":"安中路","SECT":"四段","MAREA":" ","LANE":" ","ALLEY":" ","HOUSE_NO":"６３號","E_COORD97":165201.45999999999,"N_COORD97":2550031.9300000002,"ADDRESS":"安中路四段６３號","OBJECTID":612012},"geometry":{"x":165201.46000000089,"y":2550031.9299999978}},{"attributes":{"ID":612040,"DIS_CODE":0,"TOWNNAME":"安南區","LI":"理想里","LIN":"3鄰","STREET":"大安街","SECT":" ","MAREA":" ","LANE":" ","ALLEY":" ","HOUSE_NO":"７０２號","E_COORD97":167093.82000000001,"N_COORD97":2548967.1000000001,"ADDRESS":"大安街７０２號","OBJECTID":612013},"geometry":{"x":167093.8200000003,"y":2548967.1000000015}},{"attributes":{"ID":612041,"DIS_CODE":0,"TOWNNAME":"安南區","LI":"淵中里","LIN":"3鄰","STREET":"安中路","SECT":"四段","MAREA":" ","LANE":" ","ALLEY":" ","HOUSE_NO":"５９號","E_COORD97":165209.26999999999,"N_COORD97":2550037.23,"ADDRESS":"安中路四段５９號","OBJECTID":612014},"geometry":{"x":165209.27000000048,"y":2550037.2300000004}},{"attributes":{"ID":612042,"DIS_CODE":0,"TOWNNAME":"安南區","LI":"理想里","LIN":"3鄰","STREET":"大安街","SECT":" ","MAREA":" ","LANE":" ","ALLEY":" ","HOUSE_NO":"７０６號","E_COORD97":167083.32000000001,"N_COORD97":2548975.8100000001,"ADDRESS":"大安街７０６號","OBJECTID":612015},"geometry":{"x":167083.3200000003,"y":2548975.8099999987}},{"attributes":{"ID":612043,"DIS_CODE":0,"TOWNNAME":"永康區","LI":"正強里","LIN":"14鄰","STREET":"正強街","SECT":" ","MAREA":" ","LANE":" ","ALLEY":" ","HOUSE_NO":"７３號","E_COORD97":173334.89999999999,"N_COORD97":2547326.7400000002,"ADDRESS":"正強街７３號","OBJECTID":612016},"geometry":{"x":173334.90000000037,"y":2547326.7400000021}},{"attributes":{"ID":612044,"DIS_CODE":0,"TOWNNAME":"永康區","LI":"復華里","LIN":"16鄰","STREET":"復華七街","SECT":" ","MAREA":" ","LANE":" ","ALLEY":" ","HOUSE_NO":"１１２號","E_COORD97":172871.23000000001,"N_COORD97":2546185.7599999998,"ADDRESS":"復華七街１１２號","OBJECTID":612017},"geometry":{"x":172871.23000000138,"y":2546185.7600000016}},{"attributes":{"ID":612045,"DIS_CODE":0,"TOWNNAME":"永康區","LI":"南灣里","LIN":"3鄰","STREET":"大灣路","SECT":" ","MAREA":" ","LANE":" ","ALLEY":" ","HOUSE_NO":"５２１號","E_COORD97":174510.28,"N_COORD97":2544583.2799999998,"ADDRESS":"大灣路５２１號","OBJECTID":612018},"geometry":{"x":174510.28000000026,"y":2544583.2799999993}},{"attributes":{"ID":612046,"DIS_CODE":0,"TOWNNAME":"安南區","LI":"新順里","LIN":"3鄰","STREET":"安和路","SECT":"三段","MAREA":" ","LANE":" ","ALLEY":" ","HOUSE_NO":"５８號","E_COORD97":169798.66,"N_COORD97":2549451.8599999999,"ADDRESS":"安和路三段５８號","OBJECTID":612019},"geometry":{"x":169798.66000000015,"y":2549451.8599999994}},{"attributes":{"ID":612047,"DIS_CODE":0,"TOWNNAME":"安南區","LI":"新順里","LIN":"3鄰","STREET":"安和路","SECT":"三段","MAREA":" ","LANE":" ","ALLEY":" ","HOUSE_NO":"６２號","E_COORD97":169803.82000000001,"N_COORD97":2549461.2599999998,"ADDRESS":"安和路三段６２號","OBJECTID":612020},"geometry":{"x":169803.82000000123,"y":2549461.2600000016}},{"attributes":{"ID":612048,"DIS_CODE":0,"TOWNNAME":"安南區","LI":"溪心里","LIN":"3鄰","STREET":"安中路","SECT":"二段","MAREA":" ","LANE":" ","ALLEY":" ","HOUSE_NO":"３１６號","E_COORD97":166420.75,"N_COORD97":2549751.9300000002,"ADDRESS":"安中路二段３１６號","OBJECTID":612021},"geometry":{"x":166420.75,"y":2549751.9300000016}},{"attributes":{"ID":612049,"DIS_CODE":0,"TOWNNAME":"安南區","LI":"溪心里","LIN":"3鄰","STREET":"安中路","SECT":"二段","MAREA":" ","LANE":" ","ALLEY":" ","HOUSE_NO":"３２４號","E_COORD97":166395.70000000001,"N_COORD97":2549744.8900000001,"ADDRESS":"安中路二段３２４號","OBJECTID":612022},"geometry":{"x":166395.70000000112,"y":2549744.8900000006}},{"attributes":{"ID":612050,"DIS_CODE":0,"TOWNNAME":"安南區","LI":"鳳凰里","LIN":"3鄰","STREET":"安中路","SECT":"一段","MAREA":" ","LANE":" ","ALLEY":" ","HOUSE_NO":"６２０號","E_COORD97":167819.48000000001,"N_COORD97":2549122.9399999999,"ADDRESS":"安中路一段６２０號","OBJECTID":612023},"geometry":{"x":167819.48000000138,"y":2549122.9399999995}},{"attributes":{"ID":612051,"DIS_CODE":0,"TOWNNAME":"安南區","LI":"鳳凰里","LIN":"3鄰","STREET":"安中路","SECT":"一段","MAREA":" ","LANE":" ","ALLEY":" ","HOUSE_NO":"５９２號","E_COORD97":167877.85549399999,"N_COORD97":2549086.8685699999,"ADDRESS":"安中路一段５９２號","OBJECTID":612024},"geometry":{"x":167877.85549400095,"y":2549086.8685720004}},{"attributes":{"ID":612052,"DIS_CODE":0,"TOWNNAME":"安南區","LI":"鳳凰里","LIN":"3鄰","STREET":"安中路","SECT":"一段","MAREA":" ","LANE":" ","ALLEY":" ","HOUSE_NO":"６０８號","E_COORD97":167864.09284600001,"N_COORD97":2549096.3935699998,"ADDRESS":"安中路一段６０８號","OBJECTID":612025},"geometry":{"x":167864.09284599964,"y":2549096.3935670033}},{"attributes":{"ID":612053,"DIS_CODE":0,"TOWNNAME":"安南區","LI":"鳳凰里","LIN":"3鄰","STREET":"安中路","SECT":"一段","MAREA":" ","LANE":" ","ALLEY":" ","HOUSE_NO":"６１０號","E_COORD97":167843.47,"N_COORD97":2549112.8900000001,"ADDRESS":"安中路一段６１０號","OBJECTID":612026},"geometry":{"x":167843.46999999974,"y":2549112.8900000006}},{"attributes":{"ID":612054,"DIS_CODE":0,"TOWNNAME":"安南區","LI":"鳳凰里","LIN":"3鄰","STREET":"安中路","SECT":"一段","MAREA":" ","LANE":" ","ALLEY":" ","HOUSE_NO":"６１２號","E_COORD97":167838.73000000001,"N_COORD97":2549114.27,"ADDRESS":"安中路一段６１２號","OBJECTID":612027},"geometry":{"x":167838.73000000045,"y":2549114.2700000033}},{"attributes":{"ID":612055,"DIS_CODE":0,"TOWNNAME":"安南區","LI":"鳳凰里","LIN":"3鄰","STREET":"安中路","SECT":"一段","MAREA":" ","LANE":" ","ALLEY":" ","HOUSE_NO":"６１４號","E_COORD97":167834.48999999999,"N_COORD97":2549115.6499999999,"ADDRESS":"安中路一段６１４號","OBJECTID":612028},"geometry":{"x":167834.49000000115,"y":2549115.6500000004}},{"attributes":{"ID":612056,"DIS_CODE":0,"TOWNNAME":"安南區","LI":"學東里","LIN":"3鄰","STREET":"公學路","SECT":"七段","MAREA":" ","LANE":" ","ALLEY":" ","HOUSE_NO":"８２號","E_COORD97":161825.98999999999,"N_COORD97":2553406.1000000001,"ADDRESS":"公學路七段８２號","OBJECTID":612029},"geometry":{"x":161825.99000000022,"y":2553406.0999999996}},{"attributes":{"ID":612057,"DIS_CODE":0,"TOWNNAME":"安南區","LI":"總頭里","LIN":"3鄰","STREET":"總安街","SECT":"二段","MAREA":" ","LANE":" ","ALLEY":" ","HOUSE_NO":"３６６號","E_COORD97":168318.10000000001,"N_COORD97":2550507.5699999998,"ADDRESS":"總安街二段３６６號","OBJECTID":612030},"geometry":{"x":168318.10000000056,"y":2550507.5700000022}},{"attributes":{"ID":612058,"DIS_CODE":0,"TOWNNAME":"永康區","LI":"北灣里","LIN":"39鄰","STREET":"永大路","SECT":"二段","MAREA":" ","LANE":" ","ALLEY":" ","HOUSE_NO":"１０８０號","E_COORD97":174425.26000000001,"N_COORD97":2546514.52,"ADDRESS":"永大路二段１０８０號","OBJECTID":612031},"geometry":{"x":174425.25999999978,"y":2546514.5199999996}},{"attributes":{"ID":612059,"DIS_CODE":0,"TOWNNAME":"永康區","LI":"\u25A0行里","LIN":"3鄰","STREET":"中正七街","SECT":" ","MAREA":" ","LANE":" ","ALLEY":" ","HOUSE_NO":"１２號","E_COORD97":172077.26000000001,"N_COORD97":2548867.2000000002,"ADDRESS":"中正七街１２號","OBJECTID":612032},"geometry":{"x":172077.25999999978,"y":2548867.200000003}},{"attributes":{"ID":612060,"DIS_CODE":0,"TOWNNAME":"永康區","LI":"中華里","LIN":"3鄰","STREET":"小東路","SECT":" ","MAREA":" ","LANE":" ","ALLEY":" ","HOUSE_NO":"６７９號","E_COORD97":172022.45999999999,"N_COORD97":2544342.5600000001,"ADDRESS":"小東路６７９號","OBJECTID":612033},"geometry":{"x":172022.45999999996,"y":2544342.5600000005}},{"attributes":{"ID":612061,"DIS_CODE":0,"TOWNNAME":"永康區","LI":"\u25A0洲里","LIN":"3鄰","STREET":"\u25A0洲二街","SECT":" ","MAREA":" ","LANE":" ","ALLEY":" ","HOUSE_NO":"２１０之５號","E_COORD97":171792.32000000001,"N_COORD97":2549428.6400000001,"ADDRESS":"\u25A0洲二街２１０之５號","OBJECTID":612034},"geometry":{"x":171792.32000000123,"y":2549428.6400000025}},{"attributes":{"ID":612062,"DIS_CODE":0,"TOWNNAME":"永康區","LI":"\u25A0行里","LIN":"3鄰","STREET":"中正路","SECT":" ","MAREA":" ","LANE":" ","ALLEY":" ","HOUSE_NO":"８４０號","E_COORD97":172146.04000000001,"N_COORD97":2548757.2400000002,"ADDRESS":"中正路８４０號","OBJECTID":612035},"geometry":{"x":172146.0400000019,"y":2548757.2400000021}},{"attributes":{"ID":612063,"DIS_CODE":0,"TOWNNAME":"永康區","LI":"龍潭里","LIN":"3鄰","STREET":"龍國街","SECT":" ","MAREA":" ","LANE":" ","ALLEY":" ","HOUSE_NO":"２６１號","E_COORD97":174557.26000000001,"N_COORD97":2548038.8500000001,"ADDRESS":"龍國街２６１號","OBJECTID":612036},"geometry":{"x":174557.25999999978,"y":2548038.8499999978}},{"attributes":{"ID":612064,"DIS_CODE":0,"TOWNNAME":"永康區","LI":"\u25A0洲里","LIN":"3鄰","STREET":"\u25A0行路","SECT":" ","MAREA":" ","LANE":" ","ALLEY":" ","HOUSE_NO":"７６號","E_COORD97":171589.13,"N_COORD97":2549243.1699999999,"ADDRESS":"\u25A0行路７６號","OBJECTID":612037},"geometry":{"x":171589.13000000175,"y":2549243.1699999999}},{"attributes":{"ID":612065,"DIS_CODE":0,"TOWNNAME":"永康區","LI":"六合里","LIN":"3鄰","STREET":"中山南路","SECT":" ","MAREA":" ","LANE":" ","ALLEY":" ","HOUSE_NO":"１４２號","E_COORD97":171122.82999999999,"N_COORD97":2545960.2400000002,"ADDRESS":"中山南路１４２號","OBJECTID":612038},"geometry":{"x":171122.83000000007,"y":2545960.2400000021}},{"attributes":{"ID":612066,"DIS_CODE":0,"TOWNNAME":"永康區","LI":"埔園里","LIN":"3鄰","STREET":"聖龍街","SECT":" ","MAREA":" ","LANE":" ","ALLEY":" ","HOUSE_NO":"３６號","E_COORD97":173865.5,"N_COORD97":2547786.25,"ADDRESS":"聖龍街３６號","OBJECTID":612039},"geometry":{"x":173865.50000000093,"y":2547786.2500000019}},{"attributes":{"ID":612067,"DIS_CODE":0,"TOWNNAME":"永康區","LI":"六合里","LIN":"3鄰","STREET":"中山南路","SECT":" ","MAREA":" ","LANE":" ","ALLEY":" ","HOUSE_NO":"７４號","E_COORD97":170931.53,"N_COORD97":2545898.8900000001,"ADDRESS":"中山南路７４號","OBJECTID":612040},"geometry":{"x":170931.53000000119,"y":2545898.8900000006}},{"attributes":{"ID":612068,"DIS_CODE":0,"TOWNNAME":"永康區","LI":"東灣里","LIN":"17鄰","STREET":"大灣三街","SECT":" ","MAREA":" ","LANE":" ","ALLEY":" ","HOUSE_NO":"４７號","E_COORD97":174956.32000000001,"N_COORD97":2544936.4399999999,"ADDRESS":"大灣三街４７號","OBJECTID":612041},"geometry":{"x":174956.3200000003,"y":2544936.4400000013}},{"attributes":{"ID":612069,"DIS_CODE":0,"TOWNNAME":"永康區","LI":"安康里","LIN":"7鄰","STREET":"中華西街","SECT":" ","MAREA":" ","LANE":" ","ALLEY":" ","HOUSE_NO":"２號","E_COORD97":170848.73999999999,"N_COORD97":2545910.5,"ADDRESS":"中華西街２號","OBJECTID":612042},"geometry":{"x":170848.74000000115,"y":2545910.5000000019}},{"attributes":{"ID":612070,"DIS_CODE":0,"TOWNNAME":"永康區","LI":"西橋里","LIN":"11鄰","STREET":"大橋一街","SECT":" ","MAREA":" ","LANE":" ","ALLEY":" ","HOUSE_NO":"１０號","E_COORD97":170575.59,"N_COORD97":2546162.6600000001,"ADDRESS":"大橋一街１０號","OBJECTID":612043},"geometry":{"x":170575.59000000171,"y":2546162.6600000039}},{"attributes":{"ID":612071,"DIS_CODE":0,"TOWNNAME":"東區","LI":"仁和里","LIN":"27鄰","STREET":"仁東街","SECT":" ","MAREA":" ","LANE":" ","ALLEY":" ","HOUSE_NO":"５８號","E_COORD97":171675.57999999999,"N_COORD97":2541172.9900000002,"ADDRESS":"仁東街５８號","OBJECTID":612044},"geometry":{"x":171675.58000000007,"y":2541172.9899999984}},{"attributes":{"ID":612072,"DIS_CODE":0,"TOWNNAME":"東區","LI":"仁和里","LIN":"27鄰","STREET":"仁東街","SECT":" ","MAREA":" ","LANE":" ","ALLEY":" ","HOUSE_NO":"６０號","E_COORD97":171678.92999999999,"N_COORD97":2541171.4700000002,"ADDRESS":"仁東街６０號","OBJECTID":612045},"geometry":{"x":171678.93000000063,"y":2541171.4700000025}},{"attributes":{"ID":612073,"DIS_CODE":0,"TOWNNAME":"永康區","LI":"南灣里","LIN":"22鄰","STREET":"大灣路","SECT":" ","MAREA":" ","LANE":" ","ALLEY":" ","HOUSE_NO":"７６６號","E_COORD97":174137.97,"N_COORD97":2544534.8100000001,"ADDRESS":"大灣路７６６號","OBJECTID":612046},"geometry":{"x":174137.9700000016,"y":2544534.8100000042}},{"attributes":{"ID":612074,"DIS_CODE":0,"TOWNNAME":"永康區","LI":"永康里","LIN":"11鄰","STREET":"永平街","SECT":" ","MAREA":" ","LANE":" ","ALLEY":" ","HOUSE_NO":"６５號","E_COORD97":173707.16,"N_COORD97":2547098.9900000002,"ADDRESS":"永平街６５號","OBJECTID":612047},"geometry":{"x":173707.16000000108,"y":2547098.9900000002}},{"attributes":{"ID":612075,"DIS_CODE":0,"TOWNNAME":"安南區","LI":"顯宮里","LIN":"3鄰","STREET":"顯宮一街","SECT":" ","MAREA":" ","LANE":" ","ALLEY":" ","HOUSE_NO":"３７之３５８號","E_COORD97":161243.5,"N_COORD97":2549731.3599999999,"ADDRESS":"顯宮一街３７之３５８號","OBJECTID":612048},"geometry":{"x":161243.50000000093,"y":2549731.3600000013}},{"attributes":{"ID":612076,"DIS_CODE":0,"TOWNNAME":"白河區","LI":"永安里","LIN":"3鄰","STREET":"中正路","SECT":" ","MAREA":" ","LANE":" ","ALLEY":" ","HOUSE_NO":"８９號","E_COORD97":189942.13,"N_COORD97":2583109.6499999999,"ADDRESS":"中正路８９號","OBJECTID":612049},"geometry":{"x":189942.12999999989,"y":2583109.6500000004}},{"attributes":{"ID":612077,"DIS_CODE":0,"TOWNNAME":"安南區","LI":"東和里","LIN":"3鄰","STREET":"長和路","SECT":"一段","MAREA":" ","LANE":" ","ALLEY":" ","HOUSE_NO":"９２６號","E_COORD97":170673.07000000001,"N_COORD97":2551564.4100000001,"ADDRESS":"長和路一段９２６號","OBJECTID":612050},"geometry":{"x":170673.07000000123,"y":2551564.4100000001}},{"attributes":{"ID":612078,"DIS_CODE":0,"TOWNNAME":"永康區","LI":"網寮里","LIN":"17鄰","STREET":"永興路","SECT":" ","MAREA":" ","LANE":" ","ALLEY":" ","HOUSE_NO":"３５１號","E_COORD97":173399.26000000001,"N_COORD97":2546809.2400000002,"ADDRESS":"永興路３５１號","OBJECTID":612051},"geometry":{"x":173399.26000000071,"y":2546809.2400000002}},{"attributes":{"ID":612079,"DIS_CODE":0,"TOWNNAME":"白河區","LI":"永安里","LIN":"3鄰","STREET":"中正路","SECT":" ","MAREA":" ","LANE":" ","ALLEY":" ","HOUSE_NO":"８３號","E_COORD97":189962.38,"N_COORD97":2583113.4100000001,"ADDRESS":"中正路８３號","OBJECTID":612052},"geometry":{"x":189962.38000000082,"y":2583113.410000002}},{"attributes":{"ID":612080,"DIS_CODE":0,"TOWNNAME":"白河區","LI":"永安里","LIN":"3鄰","STREET":"中正路","SECT":" ","MAREA":" ","LANE":" ","ALLEY":" ","HOUSE_NO":"８５號","E_COORD97":189958.39999999999,"N_COORD97":2583112.6400000001,"ADDRESS":"中正路８５號","OBJECTID":612053},"geometry":{"x":189958.40000000037,"y":2583112.6400000025}},{"attributes":{"ID":612081,"DIS_CODE":0,"TOWNNAME":"白河區","LI":"永安里","LIN":"3鄰","STREET":"中正路","SECT":" ","MAREA":" ","LANE":" ","ALLEY":" ","HOUSE_NO":"８７之１號","E_COORD97":189950.48999999999,"N_COORD97":2583111.4700000002,"ADDRESS":"中正路８７之１號","OBJECTID":612054},"geometry":{"x":189950.49000000022,"y":2583111.4700000007}},{"attributes":{"ID":612082,"DIS_CODE":0,"TOWNNAME":"永康區","LI":"西灣里","LIN":"36鄰","STREET":"國光八街","SECT":" ","MAREA":" ","LANE":" ","ALLEY":" ","HOUSE_NO":"１１１號","E_COORD97":174181.38,"N_COORD97":2545743.6600000001,"ADDRESS":"國光八街１１１號","OBJECTID":612055},"geometry":{"x":174181.38000000082,"y":2545743.660000002}},{"attributes":{"ID":612083,"DIS_CODE":0,"TOWNNAME":"永康區","LI":"東灣里","LIN":"16鄰","STREET":"大灣三街","SECT":" ","MAREA":" ","LANE":" ","ALLEY":" ","HOUSE_NO":"５２號","E_COORD97":174941.60000000001,"N_COORD97":2544959.6200000001,"ADDRESS":"大灣三街５２號","OBJECTID":612056},"geometry":{"x":174941.59999999963,"y":2544959.620000001}},{"attributes":{"ID":612084,"DIS_CODE":0,"TOWNNAME":"東區","LI":"東智里","LIN":"3鄰","STREET":"崇德二十六街","SECT":" ","MAREA":" ","LANE":" ","ALLEY":" ","HOUSE_NO":"８６號","E_COORD97":170984.56,"N_COORD97":2540320.3500000001,"ADDRESS":"崇德二十六街８６號","OBJECTID":612057},"geometry":{"x":170984.56000000052,"y":2540320.3500000015}},{"attributes":{"ID":612085,"DIS_CODE":0,"TOWNNAME":"東區","LI":"東智里","LIN":"3鄰","STREET":"崇德二十六街","SECT":" ","MAREA":" ","LANE":" ","ALLEY":" ","HOUSE_NO":"６７號","E_COORD97":170983.57000000001,"N_COORD97":2540333.6200000001,"ADDRESS":"崇德二十六街６７號","OBJECTID":612058},"geometry":{"x":170983.57000000123,"y":2540333.6200000029}},{"attributes":{"ID":612086,"DIS_CODE":0,"TOWNNAME":"東區","LI":"東智里","LIN":"3鄰","STREET":"崇德二十六街","SECT":" ","MAREA":" ","LANE":" ","ALLEY":" ","HOUSE_NO":"８４號","E_COORD97":170980.45999999999,"N_COORD97":2540320.0600000001,"ADDRESS":"崇德二十六街８４號","OBJECTID":612059},"geometry":{"x":170980.46000000089,"y":2540320.0600000024}},{"attributes":{"ID":612087,"DIS_CODE":0,"TOWNNAME":"東區","LI":"東智里","LIN":"3鄰","STREET":"崇德二十六街","SECT":" ","MAREA":" ","LANE":" ","ALLEY":" ","HOUSE_NO":"６５號","E_COORD97":170979.44,"N_COORD97":2540333.5499999998,"ADDRESS":"崇德二十六街６５號","OBJECTID":612060},"geometry":{"x":170979.44000000134,"y":2540333.5500000026}},{"attributes":{"ID":612088,"DIS_CODE":0,"TOWNNAME":"東區","LI":"東智里","LIN":"3鄰","STREET":"崇德二十六街","SECT":" ","MAREA":" ","LANE":" ","ALLEY":" ","HOUSE_NO":"８２號","E_COORD97":170976.64999999999,"N_COORD97":2540320.0600000001,"ADDRESS":"崇德二十六街８２號","OBJECTID":612061},"geometry":{"x":170976.6500000013,"y":2540320.0600000024}},{"attributes":{"ID":612089,"DIS_CODE":0,"TOWNNAME":"東區","LI":"東智里","LIN":"3鄰","STREET":"崇德二十六街","SECT":" ","MAREA":" ","LANE":" ","ALLEY":" ","HOUSE_NO":"６３號","E_COORD97":170974.81,"N_COORD97":2540332.7799999998,"ADDRESS":"崇德二十六街６３號","OBJECTID":612062},"geometry":{"x":170974.80999999959,"y":2540332.7800000031}},{"attributes":{"ID":612090,"DIS_CODE":0,"TOWNNAME":"東區","LI":"東智里","LIN":"3鄰","STREET":"崇德二十六街","SECT":" ","MAREA":" ","LANE":" ","ALLEY":" ","HOUSE_NO":"８０號","E_COORD97":170971.85000000001,"N_COORD97":2540320.0600000001,"ADDRESS":"崇德二十六街８０號","OBJECTID":612063},"geometry":{"x":170971.84999999963,"y":2540320.0600000024}},{"attributes":{"ID":612091,"DIS_CODE":0,"TOWNNAME":"東區","LI":"東智里","LIN":"3鄰","STREET":"崇德二十六街","SECT":" ","MAREA":" ","LANE":" ","ALLEY":" ","HOUSE_NO":"６１號","E_COORD97":170969.97,"N_COORD97":2540332.2200000002,"ADDRESS":"崇德二十六街６１號","OBJECTID":612064},"geometry":{"x":170969.97000000067,"y":2540332.2200000025}},{"attributes":{"ID":612092,"DIS_CODE":0,"TOWNNAME":"東區","LI":"東智里","LIN":"3鄰","STREET":"崇德二十六街","SECT":" ","MAREA":" ","LANE":" ","ALLEY":" ","HOUSE_NO":"７８號","E_COORD97":170966.48999999999,"N_COORD97":2540319.5,"ADDRESS":"崇德二十六街７８號","OBJECTID":612065},"geometry":{"x":170966.48999999929,"y":2540319.5000000019}},{"attributes":{"ID":612093,"DIS_CODE":0,"TOWNNAME":"東區","LI":"東智里","LIN":"3鄰","STREET":"崇德二十六街","SECT":" ","MAREA":" ","LANE":" ","ALLEY":" ","HOUSE_NO":"９６號","E_COORD97":171008.07000000001,"N_COORD97":2540321.8999999999,"ADDRESS":"崇德二十六街９６號","OBJECTID":612066},"geometry":{"x":171008.0700000003,"y":2540321.9000000004}},{"attributes":{"ID":612094,"DIS_CODE":0,"TOWNNAME":"東區","LI":"東智里","LIN":"3鄰","STREET":"崇德二十六街","SECT":" ","MAREA":" ","LANE":" ","ALLEY":" ","HOUSE_NO":"７６號","E_COORD97":170960.98000000001,"N_COORD97":2540319.6400000001,"ADDRESS":"崇德二十六街７６號","OBJECTID":612067},"geometry":{"x":170960.98000000045,"y":2540319.6400000025}},{"attributes":{"ID":612095,"DIS_CODE":0,"TOWNNAME":"東區","LI":"東智里","LIN":"3鄰","STREET":"崇德二十六街","SECT":" ","MAREA":" ","LANE":" ","ALLEY":" ","HOUSE_NO":"７４號","E_COORD97":170956.32000000001,"N_COORD97":2540319.7799999998,"ADDRESS":"崇德二十六街７４號","OBJECTID":612068},"geometry":{"x":170956.32000000123,"y":2540319.7800000012}},{"attributes":{"ID":612096,"DIS_CODE":0,"TOWNNAME":"東區","LI":"東智里","LIN":"3鄰","STREET":"崇德二十六街","SECT":" ","MAREA":" ","LANE":" ","ALLEY":" ","HOUSE_NO":"７２號","E_COORD97":170951.51999999999,"N_COORD97":2540319.6400000001,"ADDRESS":"崇德二十六街７２號","OBJECTID":612069},"geometry":{"x":170951.51999999955,"y":2540319.6400000025}},{"attributes":{"ID":612097,"DIS_CODE":0,"TOWNNAME":"東區","LI":"東智里","LIN":"3鄰","STREET":"崇德二十六街","SECT":" ","MAREA":" ","LANE":" ","ALLEY":" ","HOUSE_NO":"５９號","E_COORD97":170944.42999999999,"N_COORD97":2540334.52,"ADDRESS":"崇德二十六街５９號","OBJECTID":612070},"geometry":{"x":170944.43000000156,"y":2540334.5199999996}},{"attributes":{"ID":612098,"DIS_CODE":0,"TOWNNAME":"東區","LI":"東智里","LIN":"3鄰","STREET":"崇德二十六街","SECT":" ","MAREA":" ","LANE":" ","ALLEY":" ","HOUSE_NO":"７０號","E_COORD97":170944.79999999999,"N_COORD97":2540320.4900000002,"ADDRESS":"崇德二十六街７０號","OBJECTID":612071},"geometry":{"x":170944.79999999981,"y":2540320.4900000021}},{"attributes":{"ID":612099,"DIS_CODE":0,"TOWNNAME":"東區","LI":"東智里","LIN":"3鄰","STREET":"崇德二十六街","SECT":" ","MAREA":" ","LANE":" ","ALLEY":" ","HOUSE_NO":"５７號","E_COORD97":170940.19,"N_COORD97":2540334.6600000001,"ADDRESS":"崇德二十六街５７號","OBJECTID":612072},"geometry":{"x":170940.19000000134,"y":2540334.6600000039}},{"attributes":{"ID":612100,"DIS_CODE":0,"TOWNNAME":"東區","LI":"東智里","LIN":"3鄰","STREET":"崇德二十六街","SECT":" ","MAREA":" ","LANE":" ","ALLEY":" ","HOUSE_NO":"６８號","E_COORD97":170940,"N_COORD97":2540320.4900000002,"ADDRESS":"崇德二十六街６８號","OBJECTID":612073},"geometry":{"x":170940.00000000093,"y":2540320.4900000021}},{"attributes":{"ID":612101,"DIS_CODE":0,"TOWNNAME":"東區","LI":"東智里","LIN":"3鄰","STREET":"崇德二十六街","SECT":" ","MAREA":" ","LANE":" ","ALLEY":" ","HOUSE_NO":"５５號","E_COORD97":170936.38,"N_COORD97":2540334.3799999999,"ADDRESS":"崇德二十六街５５號","OBJECTID":612074},"geometry":{"x":170936.37999999896,"y":2540334.379999999}},{"attributes":{"ID":612102,"DIS_CODE":0,"TOWNNAME":"東區","LI":"東智里","LIN":"3鄰","STREET":"崇德二十六街","SECT":" ","MAREA":" ","LANE":" ","ALLEY":" ","HOUSE_NO":"６６號","E_COORD97":170936.32999999999,"N_COORD97":2540320.6299999999,"ADDRESS":"崇德二十六街６６號","OBJECTID":612075},"geometry":{"x":170936.33000000007,"y":2540320.6300000008}},{"attributes":{"ID":612103,"DIS_CODE":0,"TOWNNAME":"東區","LI":"東智里","LIN":"3鄰","STREET":"崇德二十六街","SECT":" ","MAREA":" ","LANE":" ","ALLEY":" ","HOUSE_NO":"５３號","E_COORD97":170931.85999999999,"N_COORD97":2540334.2400000002,"ADDRESS":"崇德二十六街５３號","OBJECTID":612076},"geometry":{"x":170931.8599999994,"y":2540334.2400000039}},{"attributes":{"ID":612104,"DIS_CODE":0,"TOWNNAME":"東區","LI":"東智里","LIN":"3鄰","STREET":"崇德二十六街","SECT":" ","MAREA":" ","LANE":" ","ALLEY":" ","HOUSE_NO":"６４號","E_COORD97":170931.95000000001,"N_COORD97":2540320.77,"ADDRESS":"崇德二十六街６４號","OBJECTID":612077},"geometry":{"x":170931.95000000112,"y":2540320.7700000014}},{"attributes":{"ID":612105,"DIS_CODE":0,"TOWNNAME":"東區","LI":"東智里","LIN":"3鄰","STREET":"崇德二十六街","SECT":" ","MAREA":" ","LANE":" ","ALLEY":" ","HOUSE_NO":"５１號","E_COORD97":170927.76999999999,"N_COORD97":2540334.3799999999,"ADDRESS":"崇德二十六街５１號","OBJECTID":612078},"geometry":{"x":170927.76999999955,"y":2540334.379999999}},{"attributes":{"ID":612106,"DIS_CODE":0,"TOWNNAME":"東區","LI":"東智里","LIN":"3鄰","STREET":"崇德二十六街","SECT":" ","MAREA":" ","LANE":" ","ALLEY":" ","HOUSE_NO":"６２號","E_COORD97":170927.57000000001,"N_COORD97":2540321.0499999998,"ADDRESS":"崇德二十六街６２號","OBJECTID":612079},"geometry":{"x":170927.57000000123,"y":2540321.0500000007}},{"attributes":{"ID":612107,"DIS_CODE":0,"TOWNNAME":"東區","LI":"東智里","LIN":"3鄰","STREET":"崇德二十六街","SECT":" ","MAREA":" ","LANE":" ","ALLEY":" ","HOUSE_NO":"４９號","E_COORD97":170923.81,"N_COORD97":2540334.2400000002,"ADDRESS":"崇德二十六街４９號","OBJECTID":612080},"geometry":{"x":170923.81000000052,"y":2540334.2400000039}},{"attributes":{"ID":612108,"DIS_CODE":0,"TOWNNAME":"東區","LI":"東智里","LIN":"3鄰","STREET":"崇德二十六街","SECT":" ","MAREA":" ","LANE":" ","ALLEY":" ","HOUSE_NO":"６０號","E_COORD97":170924.04000000001,"N_COORD97":2540321.0499999998,"ADDRESS":"崇德二十六街６０號","OBJECTID":612081},"geometry":{"x":170924.04000000097,"y":2540321.0500000007}},{"attributes":{"ID":612109,"DIS_CODE":0,"TOWNNAME":"東區","LI":"東智里","LIN":"3鄰","STREET":"崇德二十六街","SECT":" ","MAREA":" ","LANE":" ","ALLEY":" ","HOUSE_NO":"４７號","E_COORD97":170920.42000000001,"N_COORD97":2540333.96,"ADDRESS":"崇德二十六街４７號","OBJECTID":612082},"geometry":{"x":170920.41999999993,"y":2540333.9600000028}},{"attributes":{"ID":612110,"DIS_CODE":0,"TOWNNAME":"東區","LI":"東智里","LIN":"3鄰","STREET":"崇德二十六街","SECT":" ","MAREA":" ","LANE":" ","ALLEY":" ","HOUSE_NO":"５８號","E_COORD97":170919.95000000001,"N_COORD97":2540321.0499999998,"ADDRESS":"崇德二十六街５８號","OBJECTID":612083},"geometry":{"x":170919.95000000112,"y":2540321.0500000007}},{"attributes":{"ID":612111,"DIS_CODE":0,"TOWNNAME":"東區","LI":"東智里","LIN":"3鄰","STREET":"崇德二十六街","SECT":" ","MAREA":" ","LANE":" ","ALLEY":" ","HOUSE_NO":"９４號","E_COORD97":171002.20999999999,"N_COORD97":2540321.4700000002,"ADDRESS":"崇德二十六街９４號","OBJECTID":612084},"geometry":{"x":171002.21000000183,"y":2540321.4700000007}},{"attributes":{"ID":612112,"DIS_CODE":0,"TOWNNAME":"東區","LI":"東智里","LIN":"3鄰","STREET":"崇德二十六街","SECT":" ","MAREA":" ","LANE":" ","ALLEY":" ","HOUSE_NO":"４５號","E_COORD97":170915.62,"N_COORD97":2540334.2400000002,"ADDRESS":"崇德二十六街４５號","OBJECTID":612085},"geometry":{"x":170915.62000000011,"y":2540334.2400000039}},{"attributes":{"ID":612113,"DIS_CODE":0,"TOWNNAME":"永康區","LI":"大灣里","LIN":"28鄰","STREET":"民族路","SECT":" ","MAREA":" ","LANE":" ","ALLEY":" ","HOUSE_NO":"１８２號","E_COORD97":175148.10000000001,"N_COORD97":2545046.2799999998,"ADDRESS":"民族路１８２號","OBJECTID":612086},"geometry":{"x":175148.09999999963,"y":2545046.2800000012}},{"attributes":{"ID":612114,"DIS_CODE":0,"TOWNNAME":"東區","LI":"東智里","LIN":"3鄰","STREET":"崇德二十六街","SECT":" ","MAREA":" ","LANE":" ","ALLEY":" ","HOUSE_NO":"５６號","E_COORD97":170916.98000000001,"N_COORD97":2540321.0499999998,"ADDRESS":"崇德二十六街５６號","OBJECTID":612087},"geometry":{"x":170916.98000000045,"y":2540321.0500000007}},{"attributes":{"ID":612115,"DIS_CODE":0,"TOWNNAME":"東區","LI":"東智里","LIN":"3鄰","STREET":"崇德二十六街","SECT":" ","MAREA":" ","LANE":" ","ALLEY":" ","HOUSE_NO":"４３號","E_COORD97":170911.67000000001,"N_COORD97":2540334.3799999999,"ADDRESS":"崇德二十六街４３號","OBJECTID":612088},"geometry":{"x":170911.66999999993,"y":2540334.379999999}},{"attributes":{"ID":612116,"DIS_CODE":0,"TOWNNAME":"東區","LI":"東智里","LIN":"3鄰","STREET":"崇德二十六街","SECT":" ","MAREA":" ","LANE":" ","ALLEY":" ","HOUSE_NO":"４１號","E_COORD97":170907.57000000001,"N_COORD97":2540334.7999999998,"ADDRESS":"崇德二十六街４１號","OBJECTID":612089},"geometry":{"x":170907.57000000123,"y":2540334.8000000026}},{"attributes":{"ID":612117,"DIS_CODE":0,"TOWNNAME":"東區","LI":"東智里","LIN":"3鄰","STREET":"崇德二十六街","SECT":" ","MAREA":" ","LANE":" ","ALLEY":" ","HOUSE_NO":"５２號","E_COORD97":170907.67000000001,"N_COORD97":2540321.6099999999,"ADDRESS":"崇德二十六街５２號","OBJECTID":612090},"geometry":{"x":170907.67000000086,"y":2540321.6100000013}},{"attributes":{"ID":612118,"DIS_CODE":0,"TOWNNAME":"東區","LI":"東智里","LIN":"3鄰","STREET":"崇德二十六街","SECT":" ","MAREA":" ","LANE":" ","ALLEY":" ","HOUSE_NO":"３９號","E_COORD97":170904.19,"N_COORD97":2540334.52,"ADDRESS":"崇德二十六街３９號","OBJECTID":612091},"geometry":{"x":170904.19000000041,"y":2540334.5199999996}},{"attributes":{"ID":612119,"DIS_CODE":0,"TOWNNAME":"東區","LI":"東智里","LIN":"3鄰","STREET":"崇德二十六街","SECT":" ","MAREA":" ","LANE":" ","ALLEY":" ","HOUSE_NO":"５０號","E_COORD97":170903.98999999999,"N_COORD97":2540321.6099999999,"ADDRESS":"崇德二十六街５０號","OBJECTID":612092},"geometry":{"x":170903.99000000209,"y":2540321.6100000013}},{"attributes":{"ID":612120,"DIS_CODE":0,"TOWNNAME":"東區","LI":"東智里","LIN":"3鄰","STREET":"崇德二十六街","SECT":" ","MAREA":" ","LANE":" ","ALLEY":" ","HOUSE_NO":"７５號","E_COORD97":171002.09,"N_COORD97":2540334.3900000001,"ADDRESS":"崇德二十六街７５號","OBJECTID":612093},"geometry":{"x":171002.08999999985,"y":2540334.3900000025}},{"attributes":{"ID":612121,"DIS_CODE":0,"TOWNNAME":"東區","LI":"東智里","LIN":"3鄰","STREET":"崇德二十六街","SECT":" ","MAREA":" ","LANE":" ","ALLEY":" ","HOUSE_NO":"９２號","E_COORD97":170998.10999999999,"N_COORD97":2540320.4900000002,"ADDRESS":"崇德二十六街９２號","OBJECTID":612094},"geometry":{"x":170998.1100000022,"y":2540320.4900000021}},{"attributes":{"ID":612122,"DIS_CODE":0,"TOWNNAME":"東區","LI":"東智里","LIN":"3鄰","STREET":"崇德二十六街","SECT":" ","MAREA":" ","LANE":" ","ALLEY":" ","HOUSE_NO":"７３號","E_COORD97":170997.25,"N_COORD97":2540334.46,"ADDRESS":"崇德二十六街７３號","OBJECTID":612095},"geometry":{"x":170997.25000000093,"y":2540334.4600000028}},{"attributes":{"ID":612123,"DIS_CODE":0,"TOWNNAME":"東區","LI":"東智里","LIN":"3鄰","STREET":"崇德二十六街","SECT":" ","MAREA":" ","LANE":" ","ALLEY":" ","HOUSE_NO":"９０號","E_COORD97":170993.60000000001,"N_COORD97":2540320.6299999999,"ADDRESS":"崇德二十六街９０號","OBJECTID":612096},"geometry":{"x":170993.59999999963,"y":2540320.6300000008}},{"attributes":{"ID":612124,"DIS_CODE":0,"TOWNNAME":"東區","LI":"東智里","LIN":"3鄰","STREET":"崇德二十六街","SECT":" ","MAREA":" ","LANE":" ","ALLEY":" ","HOUSE_NO":"７１號","E_COORD97":170993.39000000001,"N_COORD97":2540334.1099999999,"ADDRESS":"崇德二十六街７１號","OBJECTID":612097},"geometry":{"x":170993.38999999966,"y":2540334.1100000031}},{"attributes":{"ID":612125,"DIS_CODE":0,"TOWNNAME":"東區","LI":"東智里","LIN":"3鄰","STREET":"崇德二十六街","SECT":" ","MAREA":" ","LANE":" ","ALLEY":" ","HOUSE_NO":"８８號","E_COORD97":170989.07999999999,"N_COORD97":2540320.3500000001,"ADDRESS":"崇德二十六街８８號","OBJECTID":612098},"geometry":{"x":170989.08000000007,"y":2540320.3500000015}},{"attributes":{"ID":612126,"DIS_CODE":0,"TOWNNAME":"東區","LI":"東智里","LIN":"3鄰","STREET":"崇德二十六街","SECT":" ","MAREA":" ","LANE":" ","ALLEY":" ","HOUSE_NO":"５２之１號","E_COORD97":170911.48000000001,"N_COORD97":2540321.1899999999,"ADDRESS":"崇德二十六街５２之１號","OBJECTID":612099},"geometry":{"x":170911.48000000138,"y":2540321.1900000013}},{"attributes":{"ID":612127,"DIS_CODE":0,"TOWNNAME":"東區","LI":"泉南里","LIN":"3鄰","STREET":"府東街","SECT":" ","MAREA":" ","LANE":" ","ALLEY":" ","HOUSE_NO":"１６１號","E_COORD97":169549.14000000001,"N_COORD97":2543032.6800000002,"ADDRESS":"府東街１６１號","OBJECTID":612100},"geometry":{"x":169549.13999999966,"y":2543032.6800000034}},{"attributes":{"ID":612128,"DIS_CODE":0,"TOWNNAME":"東區","LI":"泉南里","LIN":"3鄰","STREET":"府東街","SECT":" ","MAREA":" ","LANE":" ","ALLEY":" ","HOUSE_NO":"１５３號","E_COORD97":169574.57000000001,"N_COORD97":2543023.0299999998,"ADDRESS":"府東街１５３號","OBJECTID":612101},"geometry":{"x":169574.57000000123,"y":2543023.0299999975}},{"attributes":{"ID":612129,"DIS_CODE":0,"TOWNNAME":"東區","LI":"泉南里","LIN":"3鄰","STREET":"府東街","SECT":" ","MAREA":" ","LANE":" ","ALLEY":" ","HOUSE_NO":"１５５號","E_COORD97":169569.48000000001,"N_COORD97":2543025.0600000001,"ADDRESS":"府東街１５５號","OBJECTID":612102},"geometry":{"x":169569.48000000045,"y":2543025.0600000024}},{"attributes":{"ID":612130,"DIS_CODE":0,"TOWNNAME":"東區","LI":"泉南里","LIN":"3鄰","STREET":"府東街","SECT":" ","MAREA":" ","LANE":" ","ALLEY":" ","HOUSE_NO":"１５７號","E_COORD97":169563.89000000001,"N_COORD97":2543028.1099999999,"ADDRESS":"府東街１５７號","OBJECTID":612103},"geometry":{"x":169563.8900000006,"y":2543028.1099999994}},{"attributes":{"ID":612131,"DIS_CODE":0,"TOWNNAME":"東區","LI":"泉南里","LIN":"3鄰","STREET":"府東街","SECT":" ","MAREA":" ","LANE":" ","ALLEY":" ","HOUSE_NO":"１５９號","E_COORD97":169557.28,"N_COORD97":2543029.7999999998,"ADDRESS":"府東街１５９號","OBJECTID":612104},"geometry":{"x":169557.28000000026,"y":2543029.8000000045}},{"attributes":{"ID":612132,"DIS_CODE":0,"TOWNNAME":"東區","LI":"自強里","LIN":"3鄰","STREET":"東門路","SECT":"三段","MAREA":" ","LANE":" ","ALLEY":" ","HOUSE_NO":"６１號","E_COORD97":171182.95999999999,"N_COORD97":2542263.8799999999,"ADDRESS":"東門路三段６１號","OBJECTID":612105},"geometry":{"x":171182.95999999996,"y":2542263.879999999}},{"attributes":{"ID":612133,"DIS_CODE":0,"TOWNNAME":"永康區","LI":"正強里","LIN":"5鄰","STREET":"中正路","SECT":" ","MAREA":" ","LANE":" ","ALLEY":" ","HOUSE_NO":"５７號之１","E_COORD97":173590.45999999999,"N_COORD97":2547796.98,"ADDRESS":"中正路５７號之１","OBJECTID":612106},"geometry":{"x":173590.45999999996,"y":2547796.9800000004}},{"attributes":{"ID":612134,"DIS_CODE":0,"TOWNNAME":"仁德區","LI":"仁德里","LIN":"3鄰","STREET":"仁中三街","SECT":" ","MAREA":" ","LANE":" ","ALLEY":" ","HOUSE_NO":"７５號","E_COORD97":173269.56,"N_COORD97":2540411.75,"ADDRESS":"仁中三街７５號","OBJECTID":612107},"geometry":{"x":173269.56000000052,"y":2540411.7500000037}},{"attributes":{"ID":612135,"DIS_CODE":0,"TOWNNAME":"仁德區","LI":"保安里","LIN":"3鄰","STREET":"保安路","SECT":"一段","MAREA":" ","LANE":" ","ALLEY":" ","HOUSE_NO":"１５４號","E_COORD97":171160.67999999999,"N_COORD97":2536846.0600000001,"ADDRESS":"保安路一段１５４號","OBJECTID":612108},"geometry":{"x":171160.6799999997,"y":2536846.0600000005}},{"attributes":{"ID":612136,"DIS_CODE":0,"TOWNNAME":"學甲區","LI":"慈福里","LIN":"3鄰","STREET":"仁愛路","SECT":" ","MAREA":" ","LANE":" ","ALLEY":" ","HOUSE_NO":"８號之１","E_COORD97":166404.85999999999,"N_COORD97":2570159.48,"ADDRESS":"仁愛路８號之１","OBJECTID":612109},"geometry":{"x":166404.86000000127,"y":2570159.4800000023}},{"attributes":{"ID":612137,"DIS_CODE":0,"TOWNNAME":"仁德區","LI":"後壁里","LIN":"3鄰","STREET":"中正路","SECT":"二段","MAREA":" ","LANE":" ","ALLEY":" ","HOUSE_NO":"２９６號","E_COORD97":173256.48000000001,"N_COORD97":2539005.27,"ADDRESS":"中正路二段２９６號","OBJECTID":612110},"geometry":{"x":173256.48000000045,"y":2539005.2700000014}},{"attributes":{"ID":612138,"DIS_CODE":0,"TOWNNAME":"仁德區","LI":"成功里","LIN":"3鄰","STREET":"保生東路","SECT":" ","MAREA":" ","LANE":" ","ALLEY":" ","HOUSE_NO":"２０６號","E_COORD97":171196.98999999999,"N_COORD97":2539732.2599999998,"ADDRESS":"保生東路２０６號","OBJECTID":612111},"geometry":{"x":171196.99000000022,"y":2539732.2599999998}},{"attributes":{"ID":612139,"DIS_CODE":0,"TOWNNAME":"永康區","LI":"大灣里","LIN":"25鄰","STREET":"民族路","SECT":" ","MAREA":" ","LANE":" ","ALLEY":" ","HOUSE_NO":"２００號","E_COORD97":175118,"N_COORD97":2545085.04,"ADDRESS":"民族路２００號","OBJECTID":612112},"geometry":{"x":175118.00000000093,"y":2545085.040000001}},{"attributes":{"ID":612140,"DIS_CODE":0,"TOWNNAME":"永康區","LI":"網寮里","LIN":"3鄰","STREET":"永和街","SECT":" ","MAREA":" ","LANE":" ","ALLEY":" ","HOUSE_NO":"１８７號","E_COORD97":173478.78,"N_COORD97":2546504.1600000001,"ADDRESS":"永和街１８７號","OBJECTID":612113},"geometry":{"x":173478.78000000119,"y":2546504.1600000001}},{"attributes":{"ID":612141,"DIS_CODE":0,"TOWNNAME":"永康區","LI":"甲頂里","LIN":"3鄰","STREET":"中正南路","SECT":" ","MAREA":" ","LANE":" ","ALLEY":" ","HOUSE_NO":"１５０號","E_COORD97":168393.73999999999,"N_COORD97":2547654.3900000001,"ADDRESS":"中正南路１５０號","OBJECTID":612114},"geometry":{"x":168393.74000000115,"y":2547654.3900000025}},{"attributes":{"ID":612142,"DIS_CODE":0,"TOWNNAME":"永康區","LI":"甲頂里","LIN":"3鄰","STREET":"中正南路","SECT":" ","MAREA":" ","LANE":" ","ALLEY":" ","HOUSE_NO":"１５２號","E_COORD97":168400.31,"N_COORD97":2547659.3500000001,"ADDRESS":"中正南路１５２號","OBJECTID":612115},"geometry":{"x":168400.30999999959,"y":2547659.3500000034}},{"attributes":{"ID":612143,"DIS_CODE":0,"TOWNNAME":"永康區","LI":"王行里","LIN":"14鄰","STREET":"環工路","SECT":" ","MAREA":" ","LANE":" ","ALLEY":" ","HOUSE_NO":"９１號","E_COORD97":174933.37,"N_COORD97":2549844.75,"ADDRESS":"環工路９１號","OBJECTID":612116},"geometry":{"x":174933.37000000011,"y":2549844.7500000019}},{"attributes":{"ID":612144,"DIS_CODE":0,"TOWNNAME":"東區","LI":"仁和里","LIN":"17鄰","STREET":"仁東街","SECT":" ","MAREA":" ","LANE":" ","ALLEY":" ","HOUSE_NO":"１３號","E_COORD97":171541.16,"N_COORD97":2541153.4399999999,"ADDRESS":"仁東街１３號","OBJECTID":612117},"geometry":{"x":171541.16000000015,"y":2541153.4400000013}},{"attributes":{"ID":612145,"DIS_CODE":0,"TOWNNAME":"永康區","LI":"西灣里","LIN":"9鄰","STREET":"大灣五街","SECT":" ","MAREA":" ","LANE":" ","ALLEY":" ","HOUSE_NO":"１５３號","E_COORD97":174398.60000000001,"N_COORD97":2545339.6000000001,"ADDRESS":"大灣五街１５３號","OBJECTID":612118},"geometry":{"x":174398.60000000056,"y":2545339.6000000015}},{"attributes":{"ID":612146,"DIS_CODE":0,"TOWNNAME":"永康區","LI":"永康里","LIN":"10鄰","STREET":"中山南路","SECT":" ","MAREA":" ","LANE":" ","ALLEY":" ","HOUSE_NO":"１０６４號","E_COORD97":173741.98999999999,"N_COORD97":2547307.1800000002,"ADDRESS":"中山南路１０６４號","OBJECTID":612119},"geometry":{"x":173741.99000000115,"y":2547307.1799999997}},{"attributes":{"ID":612147,"DIS_CODE":0,"TOWNNAME":"永康區","LI":"永康里","LIN":"42鄰","STREET":"永大五路","SECT":" ","MAREA":" ","LANE":" ","ALLEY":" ","HOUSE_NO":"９９號","E_COORD97":174143.41,"N_COORD97":2546690.7400000002,"ADDRESS":"永大五路９９號","OBJECTID":612120},"geometry":{"x":174143.41000000015,"y":2546690.7400000002}},{"attributes":{"ID":612148,"DIS_CODE":0,"TOWNNAME":"永康區","LI":"西橋里","LIN":"19鄰","STREET":"大橋三街","SECT":" ","MAREA":" ","LANE":" ","ALLEY":" ","HOUSE_NO":"１５號","E_COORD97":170469.32999999999,"N_COORD97":2546343.75,"ADDRESS":"大橋三街１５號","OBJECTID":612121},"geometry":{"x":170469.33000000101,"y":2546343.75}},{"attributes":{"ID":612149,"DIS_CODE":0,"TOWNNAME":"永康區","LI":"正強里","LIN":"16鄰","STREET":"自強路","SECT":" ","MAREA":" ","LANE":" ","ALLEY":" ","HOUSE_NO":"１８０號","E_COORD97":173151.5,"N_COORD97":2547493.7400000002,"ADDRESS":"自強路１８０號","OBJECTID":612122},"geometry":{"x":173151.50000000186,"y":2547493.7400000002}},{"attributes":{"ID":612150,"DIS_CODE":0,"TOWNNAME":"永康區","LI":"尚頂里","LIN":"31鄰","STREET":"中正南路","SECT":" ","MAREA":" ","LANE":" ","ALLEY":" ","HOUSE_NO":"２４１號","E_COORD97":170068.67999999999,"N_COORD97":2547334.2999999998,"ADDRESS":"中正南路２４１號","OBJECTID":612123},"geometry":{"x":170068.68000000063,"y":2547334.3000000007}},{"attributes":{"ID":612151,"DIS_CODE":0,"TOWNNAME":"永康區","LI":"西勢里","LIN":"21鄰","STREET":"富強路","SECT":"一段","MAREA":" ","LANE":" ","ALLEY":" ","HOUSE_NO":"３８號","E_COORD97":175425.32000000001,"N_COORD97":2546053.1099999999,"ADDRESS":"富強路一段３８號","OBJECTID":612124},"geometry":{"x":175425.32000000123,"y":2546053.1099999994}},{"attributes":{"ID":612152,"DIS_CODE":0,"TOWNNAME":"永康區","LI":"勝利里","LIN":"21鄰","STREET":"勝利街","SECT":" ","MAREA":" ","LANE":" ","ALLEY":" ","HOUSE_NO":"１７１號","E_COORD97":171363.12,"N_COORD97":2545059.7599999998,"ADDRESS":"勝利街１７１號","OBJECTID":612125},"geometry":{"x":171363.12000000011,"y":2545059.7600000035}},{"attributes":{"ID":612153,"DIS_CODE":0,"TOWNNAME":"永康區","LI":"龍潭里","LIN":"9鄰","STREET":"龍埔街","SECT":" ","MAREA":" ","LANE":" ","ALLEY":" ","HOUSE_NO":"７２號","E_COORD97":174633.23000000001,"N_COORD97":2548243.3799999999,"ADDRESS":"龍埔街７２號","OBJECTID":612126},"geometry":{"x":174633.23000000045,"y":2548243.379999999}},{"attributes":{"ID":612154,"DIS_CODE":0,"TOWNNAME":"永康區","LI":"大橋里","LIN":"3鄰","STREET":"大橋二街","SECT":" ","MAREA":" ","LANE":" ","ALLEY":" ","HOUSE_NO":"９３號","E_COORD97":170795.51999999999,"N_COORD97":2546599.8100000001,"ADDRESS":"大橋二街９３號","OBJECTID":612127},"geometry":{"x":170795.51999999955,"y":2546599.8100000024}},{"attributes":{"ID":612155,"DIS_CODE":0,"TOWNNAME":"新化區","LI":"竹林里","LIN":"3鄰","STREET":"民權街","SECT":" ","MAREA":" ","LANE":" ","ALLEY":" ","HOUSE_NO":"１２號","E_COORD97":178768.76000000001,"N_COORD97":2548454.25,"ADDRESS":"民權街１２號","OBJECTID":612128},"geometry":{"x":178768.75999999978,"y":2548454.2500000019}},{"attributes":{"ID":612156,"DIS_CODE":0,"TOWNNAME":"新化區","LI":"清水里","LIN":"3鄰","STREET":"信義路","SECT":" ","MAREA":" ","LANE":" ","ALLEY":" ","HOUSE_NO":"４２６號之６","E_COORD97":178675.17999999999,"N_COORD97":2548286.2599999998,"ADDRESS":"信義路４２６號之６","OBJECTID":612129},"geometry":{"x":178675.18000000063,"y":2548286.2599999998}},{"attributes":{"ID":612157,"DIS_CODE":0,"TOWNNAME":"永康區","LI":"網寮里","LIN":"26鄰","STREET":"永吉路","SECT":" ","MAREA":" ","LANE":" ","ALLEY":" ","HOUSE_NO":"１５１號","E_COORD97":173938.64000000001,"N_COORD97":2546567.4100000001,"ADDRESS":"永吉路１５１號","OBJECTID":612130},"geometry":{"x":173938.6400000006,"y":2546567.4100000001}},{"attributes":{"ID":612158,"DIS_CODE":0,"TOWNNAME":"永康區","LI":"王行里","LIN":"14鄰","STREET":"經華路","SECT":" ","MAREA":" ","LANE":" ","ALLEY":" ","HOUSE_NO":"１６號","E_COORD97":175326.28,"N_COORD97":2549531.3500000001,"ADDRESS":"經華路１６號","OBJECTID":612131},"geometry":{"x":175326.27999999933,"y":2549531.3500000015}},{"attributes":{"ID":612159,"DIS_CODE":0,"TOWNNAME":"永康區","LI":"永康里","LIN":"8鄰","STREET":"永康街","SECT":" ","MAREA":" ","LANE":" ","ALLEY":" ","HOUSE_NO":"１７號","E_COORD97":173792.42000000001,"N_COORD97":2547284.4399999999,"ADDRESS":"永康街１７號","OBJECTID":612132},"geometry":{"x":173792.41999999993,"y":2547284.4399999995}},{"attributes":{"ID":612160,"DIS_CODE":0,"TOWNNAME":"永康區","LI":"正強里","LIN":"21鄰","STREET":"自強路","SECT":" ","MAREA":" ","LANE":" ","ALLEY":" ","HOUSE_NO":"３４３號","E_COORD97":173497.64000000001,"N_COORD97":2547776.71,"ADDRESS":"自強路３４３號","OBJECTID":612133},"geometry":{"x":173497.64000000153,"y":2547776.709999999}},{"attributes":{"ID":612161,"DIS_CODE":0,"TOWNNAME":"學甲區","LI":"明宜里","LIN":"3鄰","STREET":"中正路","SECT":" ","MAREA":" ","LANE":" ","ALLEY":" ","HOUSE_NO":"２４９號","E_COORD97":166079.56,"N_COORD97":2570386.79,"ADDRESS":"中正路２４９號","OBJECTID":612134},"geometry":{"x":166079.55999999959,"y":2570386.7899999991}},{"attributes":{"ID":612162,"DIS_CODE":0,"TOWNNAME":"學甲區","LI":"明宜里","LIN":"3鄰","STREET":"中正路","SECT":" ","MAREA":" ","LANE":" ","ALLEY":" ","HOUSE_NO":"２５１號","E_COORD97":166079.26999999999,"N_COORD97":2570391.0899999999,"ADDRESS":"中正路２５１號","OBJECTID":612135},"geometry":{"x":166079.27000000048,"y":2570391.0900000017}},{"attributes":{"ID":612163,"DIS_CODE":0,"TOWNNAME":"學甲區","LI":"明宜里","LIN":"3鄰","STREET":"中正路","SECT":" ","MAREA":" ","LANE":" ","ALLEY":" ","HOUSE_NO":"２５３號","E_COORD97":166080.29000000001,"N_COORD97":2570394.9900000002,"ADDRESS":"中正路２５３號","OBJECTID":612136},"geometry":{"x":166080.29000000004,"y":2570394.9900000039}},{"attributes":{"ID":612164,"DIS_CODE":0,"TOWNNAME":"學甲區","LI":"明宜里","LIN":"3鄰","STREET":"中正路","SECT":" ","MAREA":" ","LANE":" ","ALLEY":" ","HOUSE_NO":"２５５號","E_COORD97":166081.16,"N_COORD97":2570398.98,"ADDRESS":"中正路２５５號","OBJECTID":612137},"geometry":{"x":166081.16000000015,"y":2570398.9800000023}},{"attributes":{"ID":612165,"DIS_CODE":0,"TOWNNAME":"學甲區","LI":"明宜里","LIN":"3鄰","STREET":"中正路","SECT":" ","MAREA":" ","LANE":" ","ALLEY":" ","HOUSE_NO":"２５７號","E_COORD97":166084.59,"N_COORD97":2570401.8799999999,"ADDRESS":"中正路２５７號","OBJECTID":612138},"geometry":{"x":166084.58999999985,"y":2570401.8800000008}},{"attributes":{"ID":612166,"DIS_CODE":0,"TOWNNAME":"學甲區","LI":"明宜里","LIN":"3鄰","STREET":"中正路","SECT":" ","MAREA":" ","LANE":" ","ALLEY":" ","HOUSE_NO":"２５９號","E_COORD97":166085.64000000001,"N_COORD97":2570406.8799999999,"ADDRESS":"中正路２５９號","OBJECTID":612139},"geometry":{"x":166085.63999999966,"y":2570406.879999999}},{"attributes":{"ID":612167,"DIS_CODE":0,"TOWNNAME":"學甲區","LI":"新達里","LIN":"3鄰","STREET":"中正路","SECT":" ","MAREA":" ","LANE":" ","ALLEY":" ","HOUSE_NO":"３３６號","E_COORD97":166180.60999999999,"N_COORD97":2570586.3300000001,"ADDRESS":"中正路３３６號","OBJECTID":612140},"geometry":{"x":166180.61000000127,"y":2570586.3300000019}},{"attributes":{"ID":612168,"DIS_CODE":0,"TOWNNAME":"學甲區","LI":"新達里","LIN":"3鄰","STREET":"中正路","SECT":" ","MAREA":" ","LANE":" ","ALLEY":" ","HOUSE_NO":"３４６號","E_COORD97":166193.42999999999,"N_COORD97":2570615.2000000002,"ADDRESS":"中正路３４６號","OBJECTID":612141},"geometry":{"x":166193.43000000063,"y":2570615.1999999993}},{"attributes":{"ID":612169,"DIS_CODE":0,"TOWNNAME":"學甲區","LI":"新達里","LIN":"3鄰","STREET":"中正路","SECT":" ","MAREA":" ","LANE":" ","ALLEY":" ","HOUSE_NO":"３５２號","E_COORD97":166199.78,"N_COORD97":2570631.5,"ADDRESS":"中正路３５２號","OBJECTID":612142},"geometry":{"x":166199.78000000119,"y":2570631.5}},{"attributes":{"ID":612170,"DIS_CODE":0,"TOWNNAME":"學甲區","LI":"新達里","LIN":"3鄰","STREET":"中正路","SECT":" ","MAREA":" ","LANE":" ","ALLEY":" ","HOUSE_NO":"３６０號","E_COORD97":166219.60999999999,"N_COORD97":2570649.4399999999,"ADDRESS":"中正路３６０號","OBJECTID":612143},"geometry":{"x":166219.61000000127,"y":2570649.4400000013}},{"attributes":{"ID":612171,"DIS_CODE":0,"TOWNNAME":"學甲區","LI":"新達里","LIN":"3鄰","STREET":"中正路","SECT":" ","MAREA":" ","LANE":" ","ALLEY":" ","HOUSE_NO":"３７０號","E_COORD97":166237.45999999999,"N_COORD97":2570668.5800000001,"ADDRESS":"中正路３７０號","OBJECTID":612144},"geometry":{"x":166237.46000000089,"y":2570668.5799999982}},{"attributes":{"ID":612172,"DIS_CODE":0,"TOWNNAME":"學甲區","LI":"新達里","LIN":"3鄰","STREET":"中正路","SECT":" ","MAREA":" ","LANE":" ","ALLEY":" ","HOUSE_NO":"３７６號","E_COORD97":166244.94,"N_COORD97":2570676.6400000001,"ADDRESS":"中正路３７６號","OBJECTID":612145},"geometry":{"x":166244.94000000134,"y":2570676.6400000025}},{"attributes":{"ID":612173,"DIS_CODE":0,"TOWNNAME":"學甲區","LI":"慈福里","LIN":"3鄰","STREET":"仁愛路","SECT":" ","MAREA":" ","LANE":" ","ALLEY":" ","HOUSE_NO":"８號之２","E_COORD97":166404.04000000001,"N_COORD97":2570154.7799999998,"ADDRESS":"仁愛路８號之２","OBJECTID":612146},"geometry":{"x":166404.04000000004,"y":2570154.7800000031}},{"attributes":{"ID":612174,"DIS_CODE":0,"TOWNNAME":"學甲區","LI":"慈福里","LIN":"3鄰","STREET":"仁愛路","SECT":" ","MAREA":" ","LANE":" ","ALLEY":" ","HOUSE_NO":"８號","E_COORD97":166407.67000000001,"N_COORD97":2570163.96,"ADDRESS":"仁愛路８號","OBJECTID":612147},"geometry":{"x":166407.66999999993,"y":2570163.9600000009}},{"attributes":{"ID":612175,"DIS_CODE":0,"TOWNNAME":"歸仁區","LI":"看東里","LIN":"3鄰","STREET":"忠孝南路","SECT":" ","MAREA":" ","LANE":" ","ALLEY":" ","HOUSE_NO":"１６０號","E_COORD97":178541.67000000001,"N_COORD97":2540265.8300000001,"ADDRESS":"忠孝南路１６０號","OBJECTID":612148},"geometry":{"x":178541.67000000086,"y":2540265.8300000019}},{"attributes":{"ID":612176,"DIS_CODE":0,"TOWNNAME":"歸仁區","LI":"辜厝里","LIN":"3鄰","STREET":"中正二街","SECT":" ","MAREA":" ","LANE":" ","ALLEY":" ","HOUSE_NO":"７１號","E_COORD97":177425.79000000001,"N_COORD97":2540730.54,"ADDRESS":"中正二街７１號","OBJECTID":612149},"geometry":{"x":177425.79000000004,"y":2540730.5399999991}},{"attributes":{"ID":612177,"DIS_CODE":0,"TOWNNAME":"歸仁區","LI":"南保里","LIN":"3鄰","STREET":"民權二街","SECT":" ","MAREA":" ","LANE":" ","ALLEY":" ","HOUSE_NO":"５７號","E_COORD97":176921.20999999999,"N_COORD97":2541410.25,"ADDRESS":"民權二街５７號","OBJECTID":612150},"geometry":{"x":176921.20999999996,"y":2541410.2500000019}},{"attributes":{"ID":612178,"DIS_CODE":0,"TOWNNAME":"歸仁區","LI":"南保里","LIN":"3鄰","STREET":"民權二街","SECT":" ","MAREA":" ","LANE":" ","ALLEY":" ","HOUSE_NO":"７３號","E_COORD97":176946.91,"N_COORD97":2541431.25,"ADDRESS":"民權二街７３號","OBJECTID":612151},"geometry":{"x":176946.91000000015,"y":2541431.25}},{"attributes":{"ID":612179,"DIS_CODE":0,"TOWNNAME":"歸仁區","LI":"歸南里","LIN":"3鄰","STREET":"民權南路","SECT":" ","MAREA":" ","LANE":" ","ALLEY":" ","HOUSE_NO":"２４４號","E_COORD97":176941.51000000001,"N_COORD97":2540239.5,"ADDRESS":"民權南路２４４號","OBJECTID":612152},"geometry":{"x":176941.51000000164,"y":2540239.5}},{"attributes":{"ID":612180,"DIS_CODE":0,"TOWNNAME":"歸仁區","LI":"許厝里","LIN":"3鄰","STREET":"仁愛南街","SECT":" ","MAREA":" ","LANE":" ","ALLEY":" ","HOUSE_NO":"３１號","E_COORD97":178287.70999999999,"N_COORD97":2540587.8999999999,"ADDRESS":"仁愛南街３１號","OBJECTID":612153},"geometry":{"x":178287.70999999996,"y":2540587.9000000022}},{"attributes":{"ID":612181,"DIS_CODE":0,"TOWNNAME":"歸仁區","LI":"新厝里","LIN":"3鄰","STREET":"中正一街","SECT":" ","MAREA":" ","LANE":" ","ALLEY":" ","HOUSE_NO":"５１號","E_COORD97":177735.39000000001,"N_COORD97":2540705.6800000002,"ADDRESS":"中正一街５１號","OBJECTID":612154},"geometry":{"x":177735.38999999966,"y":2540705.6799999997}},{"attributes":{"ID":612182,"DIS_CODE":0,"TOWNNAME":"歸仁區","LI":"崙頂里","LIN":"3鄰","STREET":"信義南路","SECT":" ","MAREA":" ","LANE":" ","ALLEY":" ","HOUSE_NO":"２９０號","E_COORD97":178163.38,"N_COORD97":2539935.25,"ADDRESS":"信義南路２９０號","OBJECTID":612155},"geometry":{"x":178163.38000000082,"y":2539935.2500000019}},{"attributes":{"ID":612183,"DIS_CODE":0,"TOWNNAME":"歸仁區","LI":"辜厝里","LIN":"3鄰","STREET":"中正二街","SECT":" ","MAREA":" ","LANE":" ","ALLEY":" ","HOUSE_NO":"２１號","E_COORD97":177557.56,"N_COORD97":2540714.1099999999,"ADDRESS":"中正二街２１號","OBJECTID":612156},"geometry":{"x":177557.55999999959,"y":2540714.1100000031}},{"attributes":{"ID":612184,"DIS_CODE":0,"TOWNNAME":"歸仁區","LI":"辜厝里","LIN":"3鄰","STREET":"中正六街","SECT":" ","MAREA":" ","LANE":" ","ALLEY":" ","HOUSE_NO":"６６號","E_COORD97":177508.16,"N_COORD97":2540677.1099999999,"ADDRESS":"中正六街６６號","OBJECTID":612157},"geometry":{"x":177508.16000000015,"y":2540677.1100000013}},{"attributes":{"ID":612185,"DIS_CODE":0,"TOWNNAME":"歸仁區","LI":"許厝里","LIN":"3鄰","STREET":"仁愛南街","SECT":" ","MAREA":" ","LANE":" ","ALLEY":" ","HOUSE_NO":"２３號","E_COORD97":178286.81,"N_COORD97":2540604.8999999999,"ADDRESS":"仁愛南街２３號","OBJECTID":612158},"geometry":{"x":178286.80999999959,"y":2540604.9000000022}},{"attributes":{"ID":612186,"DIS_CODE":0,"TOWNNAME":"歸仁區","LI":"新厝里","LIN":"3鄰","STREET":"和平南街","SECT":" ","MAREA":" ","LANE":" ","ALLEY":" ","HOUSE_NO":"１８號","E_COORD97":177815.29999999999,"N_COORD97":2540697.6800000002,"ADDRESS":"和平南街１８號","OBJECTID":612159},"geometry":{"x":177815.29999999981,"y":2540697.6800000016}},{"attributes":{"ID":612187,"DIS_CODE":0,"TOWNNAME":"歸仁區","LI":"辜厝里","LIN":"3鄰","STREET":"中正二街","SECT":" ","MAREA":" ","LANE":" ","ALLEY":" ","HOUSE_NO":"４１號","E_COORD97":177509.45999999999,"N_COORD97":2540722.1099999999,"ADDRESS":"中正二街４１號","OBJECTID":612160},"geometry":{"x":177509.45999999996,"y":2540722.1100000013}},{"attributes":{"ID":612188,"DIS_CODE":0,"TOWNNAME":"歸仁區","LI":"辜厝里","LIN":"3鄰","STREET":"中正南路","SECT":"一段","MAREA":" ","LANE":" ","ALLEY":" ","HOUSE_NO":"１８號","E_COORD97":177610.26000000001,"N_COORD97":2540697.1200000001,"ADDRESS":"中正南路一段１８號","OBJECTID":612161},"geometry":{"x":177610.26000000071,"y":2540697.120000001}},{"attributes":{"ID":612189,"DIS_CODE":0,"TOWNNAME":"歸仁區","LI":"辜厝里","LIN":"3鄰","STREET":"中正六街","SECT":" ","MAREA":" ","LANE":" ","ALLEY":" ","HOUSE_NO":"１００號","E_COORD97":177432.04000000001,"N_COORD97":2540687.54,"ADDRESS":"中正六街１００號","OBJECTID":612162},"geometry":{"x":177432.04000000097,"y":2540687.540000001}},{"attributes":{"ID":612190,"DIS_CODE":0,"TOWNNAME":"歸仁區","LI":"許厝里","LIN":"3鄰","STREET":"仁愛南街","SECT":" ","MAREA":" ","LANE":" ","ALLEY":" ","HOUSE_NO":"１７號","E_COORD97":178286.91,"N_COORD97":2540618.8999999999,"ADDRESS":"仁愛南街１７號","OBJECTID":612163},"geometry":{"x":178286.91000000201,"y":2540618.9000000022}},{"attributes":{"ID":612191,"DIS_CODE":0,"TOWNNAME":"永康區","LI":"尚頂里","LIN":"7鄰","STREET":"尚頂路","SECT":" ","MAREA":" ","LANE":" ","ALLEY":" ","HOUSE_NO":"１０３號","E_COORD97":170966.17999999999,"N_COORD97":2547684.5299999998,"ADDRESS":"尚頂路１０３號","OBJECTID":612164},"geometry":{"x":170966.1799999997,"y":2547684.5299999993}},{"attributes":{"ID":612192,"DIS_CODE":0,"TOWNNAME":"歸仁區","LI":"崙頂里","LIN":"3鄰","STREET":"崙頂一街","SECT":" ","MAREA":" ","LANE":" ","ALLEY":" ","HOUSE_NO":"９７號","E_COORD97":178115.75,"N_COORD97":2540007.6800000002,"ADDRESS":"崙頂一街９７號","OBJECTID":612165},"geometry":{"x":178115.75000000093,"y":2540007.6799999997}},{"attributes":{"ID":612193,"DIS_CODE":0,"TOWNNAME":"歸仁區","LI":"許厝里","LIN":"3鄰","STREET":"仁愛南街","SECT":" ","MAREA":" ","LANE":" ","ALLEY":" ","HOUSE_NO":"２５號","E_COORD97":178286.81,"N_COORD97":2540600.8999999999,"ADDRESS":"仁愛南街２５號","OBJECTID":612166},"geometry":{"x":178286.80999999959,"y":2540600.9000000041}},{"attributes":{"ID":612194,"DIS_CODE":0,"TOWNNAME":"歸仁區","LI":"新厝里","LIN":"3鄰","STREET":"和平南街","SECT":" ","MAREA":" ","LANE":" ","ALLEY":" ","HOUSE_NO":"１６號","E_COORD97":177815.39999999999,"N_COORD97":2540701.6800000002,"ADDRESS":"和平南街１６號","OBJECTID":612167},"geometry":{"x":177815.40000000037,"y":2540701.6800000016}},{"attributes":{"ID":612195,"DIS_CODE":0,"TOWNNAME":"歸仁區","LI":"歸仁里","LIN":"3鄰","STREET":"中正北路","SECT":"一段","MAREA":" ","LANE":" ","ALLEY":" ","HOUSE_NO":"７６號","E_COORD97":177699.17999999999,"N_COORD97":2541023.04,"ADDRESS":"中正北路一段７６號","OBJECTID":612168},"geometry":{"x":177699.1799999997,"y":2541023.040000001}},{"attributes":{"ID":612196,"DIS_CODE":0,"TOWNNAME":"歸仁區","LI":"許厝里","LIN":"3鄰","STREET":"仁愛南街","SECT":" ","MAREA":" ","LANE":" ","ALLEY":" ","HOUSE_NO":"２１號","E_COORD97":178285.81,"N_COORD97":2540608.8999999999,"ADDRESS":"仁愛南街２１號","OBJECTID":612169},"geometry":{"x":178285.81000000052,"y":2540608.9000000022}},{"attributes":{"ID":612197,"DIS_CODE":0,"TOWNNAME":"歸仁區","LI":"許厝里","LIN":"3鄰","STREET":"仁愛南街","SECT":" ","MAREA":" ","LANE":" ","ALLEY":" ","HOUSE_NO":"３３號","E_COORD97":178287.70999999999,"N_COORD97":2540583.8900000001,"ADDRESS":"仁愛南街３３號","OBJECTID":612170},"geometry":{"x":178287.70999999996,"y":2540583.8900000006}},{"attributes":{"ID":612198,"DIS_CODE":0,"TOWNNAME":"北區","LI":"小康里","LIN":"3鄰","STREET":"大武街","SECT":" ","MAREA":" ","LANE":" ","ALLEY":" ","HOUSE_NO":"３５２號","E_COORD97":169815.45999999999,"N_COORD97":2546354.6000000001,"ADDRESS":"大武街３５２號","OBJECTID":612171},"geometry":{"x":169815.46000000183,"y":2546354.5999999996}},{"attributes":{"ID":612199,"DIS_CODE":0,"TOWNNAME":"北區","LI":"小康里","LIN":"3鄰","STREET":"大武街","SECT":" ","MAREA":" ","LANE":" ","ALLEY":" ","HOUSE_NO":"３５２號之１","E_COORD97":169825.57000000001,"N_COORD97":2546325.5099999998,"ADDRESS":"大武街３５２號之１","OBJECTID":612172},"geometry":{"x":169825.57000000123,"y":2546325.5099999998}},{"attributes":{"ID":612200,"DIS_CODE":0,"TOWNNAME":"北區","LI":"小康里","LIN":"3鄰","STREET":"大武街","SECT":" ","MAREA":" ","LANE":" ","ALLEY":" ","HOUSE_NO":"３５２號之２","E_COORD97":169825.57000000001,"N_COORD97":2546320.6600000001,"ADDRESS":"大武街３５２號之２","OBJECTID":612173},"geometry":{"x":169825.57000000123,"y":2546320.6600000001}},{"attributes":{"ID":612201,"DIS_CODE":0,"TOWNNAME":"北區","LI":"小康里","LIN":"3鄰","STREET":"大武街","SECT":" ","MAREA":" ","LANE":" ","ALLEY":" ","HOUSE_NO":"３５４號之１","E_COORD97":169841.70000000001,"N_COORD97":2546334.0600000001,"ADDRESS":"大武街３５４號之１","OBJECTID":612174},"geometry":{"x":169841.70000000112,"y":2546334.0600000024}},{"attributes":{"ID":612202,"DIS_CODE":0,"TOWNNAME":"北區","LI":"小康里","LIN":"3鄰","STREET":"大武街","SECT":" ","MAREA":" ","LANE":" ","ALLEY":" ","HOUSE_NO":"３５４號之２","E_COORD97":169840.20999999999,"N_COORD97":2546325.9700000002,"ADDRESS":"大武街３５４號之２","OBJECTID":612175},"geometry":{"x":169840.20999999996,"y":2546325.9700000007}},{"attributes":{"ID":612203,"DIS_CODE":0,"TOWNNAME":"北區","LI":"小康里","LIN":"3鄰","STREET":"大武街","SECT":" ","MAREA":" ","LANE":" ","ALLEY":" ","HOUSE_NO":"３５４之３號","E_COORD97":169840.62,"N_COORD97":2546319.6800000002,"ADDRESS":"大武街３５４號之３","OBJECTID":612176},"geometry":{"x":169840.62000000104,"y":2546319.6800000016}},{"attributes":{"ID":612204,"DIS_CODE":0,"TOWNNAME":"北區","LI":"小康里","LIN":"3鄰","STREET":"大武街","SECT":" ","MAREA":" ","LANE":" ","ALLEY":" ","HOUSE_NO":"３５４號之５","E_COORD97":169841.85999999999,"N_COORD97":2546308.5,"ADDRESS":"大武街３５４號之５","OBJECTID":612177},"geometry":{"x":169841.8599999994,"y":2546308.5}},{"attributes":{"ID":612205,"DIS_CODE":0,"TOWNNAME":"北區","LI":"小康里","LIN":"3鄰","STREET":"大武街","SECT":" ","MAREA":" ","LANE":" ","ALLEY":" ","HOUSE_NO":"３５４號之６","E_COORD97":169842.95999999999,"N_COORD97":2546301.9100000001,"ADDRESS":"大武街３５４號之６","OBJECTID":612178},"geometry":{"x":169842.96000000089,"y":2546301.9100000001}},{"attributes":{"ID":612206,"DIS_CODE":0,"TOWNNAME":"北區","LI":"小康里","LIN":"3鄰","STREET":"大武街","SECT":" ","MAREA":" ","LANE":" ","ALLEY":" ","HOUSE_NO":"３５４號之８","E_COORD97":169839.66,"N_COORD97":2546293.5,"ADDRESS":"大武街３５４號之８","OBJECTID":612179},"geometry":{"x":169839.65999999922,"y":2546293.5000000019}},{"attributes":{"ID":612207,"DIS_CODE":0,"TOWNNAME":"北區","LI":"小康里","LIN":"3鄰","STREET":"大武街","SECT":" ","MAREA":" ","LANE":" ","ALLEY":" ","HOUSE_NO":"３５４號之９","E_COORD97":169841.76999999999,"N_COORD97":2546285.8199999998,"ADDRESS":"大武街３５４號之９","OBJECTID":612180},"geometry":{"x":169841.77000000142,"y":2546285.8200000003}},{"attributes":{"ID":612208,"DIS_CODE":0,"TOWNNAME":"永康區","LI":"北灣里","LIN":"4鄰","STREET":"信義街","SECT":" ","MAREA":" ","LANE":" ","ALLEY":" ","HOUSE_NO":"８４號","E_COORD97":175312.48000000001,"N_COORD97":2545658.23,"ADDRESS":"信義街８４號","OBJECTID":612181},"geometry":{"x":175312.48000000138,"y":2545658.2300000023}},{"attributes":{"ID":612209,"DIS_CODE":0,"TOWNNAME":"安平區","LI":"國平里","LIN":"3鄰","STREET":"建平五街","SECT":" ","MAREA":" ","LANE":" ","ALLEY":" ","HOUSE_NO":"２７３號","E_COORD97":165493.76000000001,"N_COORD97":2543305.21,"ADDRESS":"建平五街２７３號","OBJECTID":612182},"geometry":{"x":165493.75999999978,"y":2543305.2100000046}},{"attributes":{"ID":612210,"DIS_CODE":0,"TOWNNAME":"安平區","LI":"建平里","LIN":"3鄰","STREET":"建平十七街","SECT":" ","MAREA":" ","LANE":" ","ALLEY":" ","HOUSE_NO":"５９號","E_COORD97":166106.78,"N_COORD97":2544229.77,"ADDRESS":"建平十七街５９號","OBJECTID":612183},"geometry":{"x":166106.78000000119,"y":2544229.7700000014}},{"attributes":{"ID":612211,"DIS_CODE":0,"TOWNNAME":"安平區","LI":"建平里","LIN":"3鄰","STREET":"建平十七街","SECT":" ","MAREA":" ","LANE":" ","ALLEY":" ","HOUSE_NO":"６１號","E_COORD97":166100.95999999999,"N_COORD97":2544231.6200000001,"ADDRESS":"建平十七街６１號","OBJECTID":612184},"geometry":{"x":166100.95999999996,"y":2544231.6200000048}},{"attributes":{"ID":612212,"DIS_CODE":0,"TOWNNAME":"安平區","LI":"建平里","LIN":"3鄰","STREET":"慶平路","SECT":" ","MAREA":" ","LANE":" ","ALLEY":" ","HOUSE_NO":"２９號","E_COORD97":166325.29999999999,"N_COORD97":2544158.27,"ADDRESS":"慶平路２９號","OBJECTID":612185},"geometry":{"x":166325.29999999981,"y":2544158.2700000014}},{"attributes":{"ID":612213,"DIS_CODE":0,"TOWNNAME":"新營區","LI":"新南里","LIN":"3鄰","STREET":"新北街","SECT":" ","MAREA":" ","LANE":" ","ALLEY":" ","HOUSE_NO":"３號","E_COORD97":178890.20000000001,"N_COORD97":2578635.5899999999,"ADDRESS":"新北街３號","OBJECTID":612186},"geometry":{"x":178890.20000000205,"y":2578635.589999998}},{"attributes":{"ID":612214,"DIS_CODE":0,"TOWNNAME":"安平區","LI":"建平里","LIN":"3鄰","STREET":"慶平路","SECT":" ","MAREA":" ","LANE":" ","ALLEY":" ","HOUSE_NO":"３９號","E_COORD97":166302.81,"N_COORD97":2544158.6699999999,"ADDRESS":"慶平路３９號","OBJECTID":612187},"geometry":{"x":166302.81000000052,"y":2544158.6700000037}},{"attributes":{"ID":612215,"DIS_CODE":0,"TOWNNAME":"安平區","LI":"建平里","LIN":"3鄰","STREET":"慶平路","SECT":" ","MAREA":" ","LANE":" ","ALLEY":" ","HOUSE_NO":"３７號","E_COORD97":166308.10999999999,"N_COORD97":2544158.9300000002,"ADDRESS":"慶平路３７號","OBJECTID":612188},"geometry":{"x":166308.11000000127,"y":2544158.9299999997}},{"attributes":{"ID":612216,"DIS_CODE":0,"TOWNNAME":"安平區","LI":"建平里","LIN":"3鄰","STREET":"慶平路","SECT":" ","MAREA":" ","LANE":" ","ALLEY":" ","HOUSE_NO":"３５號","E_COORD97":166311.94,"N_COORD97":2544159.2000000002,"ADDRESS":"慶平路３５號","OBJECTID":612189},"geometry":{"x":166311.94000000041,"y":2544159.2000000011}},{"attributes":{"ID":612217,"DIS_CODE":0,"TOWNNAME":"安平區","LI":"建平里","LIN":"3鄰","STREET":"慶平路","SECT":" ","MAREA":" ","LANE":" ","ALLEY":" ","HOUSE_NO":"３１號","E_COORD97":166321.73000000001,"N_COORD97":2544158.54,"ADDRESS":"慶平路３１號","OBJECTID":612190},"geometry":{"x":166321.73000000045,"y":2544158.5400000028}},{"attributes":{"ID":612218,"DIS_CODE":0,"TOWNNAME":"安平區","LI":"億載里","LIN":"3鄰","STREET":"永華十二街","SECT":" ","MAREA":" ","LANE":" ","ALLEY":" ","HOUSE_NO":"２２號","E_COORD97":163767.48999999999,"N_COORD97":2543681.0899999999,"ADDRESS":"永華十二街２２號","OBJECTID":612191},"geometry":{"x":163767.49000000115,"y":2543681.0900000036}},{"attributes":{"ID":612219,"DIS_CODE":0,"TOWNNAME":"安平區","LI":"金城里","LIN":"3鄰","STREET":"運河路","SECT":" ","MAREA":" ","LANE":" ","ALLEY":" ","HOUSE_NO":"４３號之１","E_COORD97":164004.34,"N_COORD97":2544342.0899999999,"ADDRESS":"運河路４３號之１","OBJECTID":612192},"geometry":{"x":164004.33999999985,"y":2544342.0900000036}},{"attributes":{"ID":612220,"DIS_CODE":0,"TOWNNAME":"新營區","LI":"新東里","LIN":"3鄰","STREET":"東大街","SECT":" ","MAREA":" ","LANE":" ","ALLEY":" ","HOUSE_NO":"１０號","E_COORD97":181005.48000000001,"N_COORD97":2579050.8500000001,"ADDRESS":"東大街１０號","OBJECTID":612193},"geometry":{"x":181005.48000000045,"y":2579050.8500000034}},{"attributes":{"ID":612221,"DIS_CODE":0,"TOWNNAME":"新營區","LI":"新東里","LIN":"3鄰","STREET":"東大街","SECT":" ","MAREA":" ","LANE":" ","ALLEY":" ","HOUSE_NO":"２７號","E_COORD97":180995.62,"N_COORD97":2579112.9100000001,"ADDRESS":"東大街２７號","OBJECTID":612194},"geometry":{"x":180995.62000000011,"y":2579112.910000002}},{"attributes":{"ID":612222,"DIS_CODE":0,"TOWNNAME":"新營區","LI":"中營里","LIN":"3鄰","STREET":"中山路","SECT":" ","MAREA":" ","LANE":" ","ALLEY":" ","HOUSE_NO":"５０號之１","E_COORD97":180544.17000000001,"N_COORD97":2578367.5499999998,"ADDRESS":"中山路５０號之１","OBJECTID":612195},"geometry":{"x":180544.16999999993,"y":2578367.5500000007}},{"attributes":{"ID":612223,"DIS_CODE":0,"TOWNNAME":"新營區","LI":"民權里","LIN":"3鄰","STREET":"信義街","SECT":" ","MAREA":" ","LANE":" ","ALLEY":" ","HOUSE_NO":"２０號","E_COORD97":179953.14999999999,"N_COORD97":2578200.8300000001,"ADDRESS":"信義街２０號","OBJECTID":612196},"geometry":{"x":179953.15000000037,"y":2578200.8300000019}},{"attributes":{"ID":612224,"DIS_CODE":0,"TOWNNAME":"新營區","LI":"三仙里","LIN":"3鄰","STREET":"正義街","SECT":" ","MAREA":" ","LANE":" ","ALLEY":" ","HOUSE_NO":"２０號之２","E_COORD97":179668.54999999999,"N_COORD97":2578103.6800000002,"ADDRESS":"正義街２０號之２","OBJECTID":612197},"geometry":{"x":179668.54999999981,"y":2578103.6800000016}},{"attributes":{"ID":612225,"DIS_CODE":0,"TOWNNAME":"新營區","LI":"新南里","LIN":"3鄰","STREET":"新北街","SECT":" ","MAREA":" ","LANE":" ","ALLEY":" ","HOUSE_NO":"４１號","E_COORD97":178837.51999999999,"N_COORD97":2578695.6400000001,"ADDRESS":"新北街４１號","OBJECTID":612198},"geometry":{"x":178837.51999999955,"y":2578695.6400000006}},{"attributes":{"ID":612226,"DIS_CODE":0,"TOWNNAME":"新營區","LI":"新北里","LIN":"3鄰","STREET":"周武街","SECT":" ","MAREA":" ","LANE":" ","ALLEY":" ","HOUSE_NO":"１０８號","E_COORD97":179351.92000000001,"N_COORD97":2579073.0499999998,"ADDRESS":"周武街１０８號","OBJECTID":612199},"geometry":{"x":179351.92000000086,"y":2579073.0500000007}},{"attributes":{"ID":612227,"DIS_CODE":0,"TOWNNAME":"新營區","LI":"新南里","LIN":"3鄰","STREET":"新北街","SECT":" ","MAREA":" ","LANE":" ","ALLEY":" ","HOUSE_NO":"９９號","E_COORD97":178739.73000000001,"N_COORD97":2578801.3199999998,"ADDRESS":"新北街９９號","OBJECTID":612200},"geometry":{"x":178739.73000000138,"y":2578801.3200000022}}]}