{"displayFieldName":"TOWNNAME","fieldAliases":{"ID":"ID","DIS_CODE":"DIS_CODE","TOWNNAME":"TOWNNAME","LI":"LI","LIN":"LIN","STREET":"STREET","SECT":"SECT","MAREA":"MAREA","LANE":"LANE","ALLEY":"ALLEY","HOUSE_NO":"HOUSE_NO","E_COORD97":"E_COORD97","N_COORD97":"N_COORD97","ADDRESS":"ADDRESS","OBJECTID":"OBJECTID"},"geometryType":"esriGeometryPoint","spatialReference":{"wkid":102443,"latestWkid":3826},"fields":[{"name":"ID","type":"esriFieldTypeDouble","alias":"ID"},{"name":"DIS_CODE","type":"esriFieldTypeInteger","alias":"DIS_CODE"},{"name":"TOWNNAME","type":"esriFieldTypeString","alias":"TOWNNAME","length":8},{"name":"LI","type":"esriFieldTypeString","alias":"LI","length":8},{"name":"LIN","type":"esriFieldTypeString","alias":"LIN","length":12},{"name":"STREET","type":"esriFieldTypeString","alias":"STREET","length":20},{"name":"SECT","type":"esriFieldTypeString","alias":"SECT","length":8},{"name":"MAREA","type":"esriFieldTypeString","alias":"MAREA","length":12},{"name":"LANE","type":"esriFieldTypeString","alias":"LANE","length":10},{"name":"ALLEY","type":"esriFieldTypeString","alias":"ALLEY","length":10},{"name":"HOUSE_NO","type":"esriFieldTypeString","alias":"HOUSE_NO","length":20},{"name":"E_COORD97","type":"esriFieldTypeDouble","alias":"E_COORD97"},{"name":"N_COORD97","type":"esriFieldTypeDouble","alias":"N_COORD97"},{"name":"ADDRESS","type":"esriFieldTypeString","alias":"ADDRESS","length":50},{"name":"OBJECTID","type":"esriFieldTypeOID","alias":"OBJECTID"}],"features":[{"attributes":{"ID":554828,"DIS_CODE":0,"TOWNNAME":"永康區","LI":"三合里","LIN":"21鄰","STREET":"南工街","SECT":" ","MAREA":" ","LANE":" ","ALLEY":" ","HOUSE_NO":"２９７號","E_COORD97":171872.51999999999,"N_COORD97":2546056.9900000002,"ADDRESS":"南工街２９７號","OBJECTID":554801},"geometry":{"x":171872.51999999862,"y":2546056.9900000021}},{"attributes":{"ID":554829,"DIS_CODE":0,"TOWNNAME":"中西區","LI":"公正里","LIN":"5鄰","STREET":"民族路","SECT":"二段","MAREA":" ","LANE":" ","ALLEY":" ","HOUSE_NO":"５０號","E_COORD97":169085.72,"N_COORD97":2543900.9100000001,"ADDRESS":"民族路二段５０號","OBJECTID":554802},"geometry":{"x":169085.71999999974,"y":2543900.910000002}},{"attributes":{"ID":554830,"DIS_CODE":0,"TOWNNAME":"中西區","LI":"公正里","LIN":"5鄰","STREET":"民族路","SECT":"二段","MAREA":" ","LANE":" ","ALLEY":" ","HOUSE_NO":"５２號","E_COORD97":169081.06,"N_COORD97":2543900.9100000001,"ADDRESS":"民族路二段５２號","OBJECTID":554803},"geometry":{"x":169081.06000000052,"y":2543900.910000002}},{"attributes":{"ID":554831,"DIS_CODE":0,"TOWNNAME":"中西區","LI":"公正里","LIN":"5鄰","STREET":"民族路","SECT":"二段","MAREA":" ","LANE":" ","ALLEY":" ","HOUSE_NO":"５４號","E_COORD97":169076,"N_COORD97":2543901.1099999999,"ADDRESS":"民族路二段５４號","OBJECTID":554804},"geometry":{"x":169076,"y":2543901.1100000013}},{"attributes":{"ID":554832,"DIS_CODE":0,"TOWNNAME":"中西區","LI":"公正里","LIN":"5鄰","STREET":"民族路","SECT":"二段","MAREA":" ","LANE":" ","ALLEY":" ","HOUSE_NO":"５６號","E_COORD97":169071.14000000001,"N_COORD97":2543901.1099999999,"ADDRESS":"民族路二段５６號","OBJECTID":554805},"geometry":{"x":169071.13999999966,"y":2543901.1100000013}},{"attributes":{"ID":554833,"DIS_CODE":0,"TOWNNAME":"中西區","LI":"萬昌里","LIN":"9鄰","STREET":"城隍街","SECT":" ","MAREA":" ","LANE":" ","ALLEY":" ","HOUSE_NO":"８６號","E_COORD97":168870.48999999999,"N_COORD97":2543439.21,"ADDRESS":"城隍街８６號","OBJECTID":554806},"geometry":{"x":168870.49000000115,"y":2543439.2100000009}},{"attributes":{"ID":554834,"DIS_CODE":0,"TOWNNAME":"中西區","LI":"公正里","LIN":"5鄰","STREET":"民族路","SECT":"二段","MAREA":" ","LANE":" ","ALLEY":" ","HOUSE_NO":"６６號底一層","E_COORD97":169028.42000000001,"N_COORD97":2543909.3999999999,"ADDRESS":"民族路二段６６號底一層","OBJECTID":554807},"geometry":{"x":169028.41999999993,"y":2543909.4000000004}},{"attributes":{"ID":554835,"DIS_CODE":0,"TOWNNAME":"永康區","LI":"網寮里","LIN":"21鄰","STREET":"永勝街","SECT":" ","MAREA":" ","LANE":" ","ALLEY":" ","HOUSE_NO":"１７號","E_COORD97":173615.38,"N_COORD97":2546216.4399999999,"ADDRESS":"永勝街１７號","OBJECTID":554808},"geometry":{"x":173615.38000000082,"y":2546216.4399999995}},{"attributes":{"ID":554836,"DIS_CODE":0,"TOWNNAME":"永康區","LI":"西灣里","LIN":"21鄰","STREET":"永大路","SECT":"二段","MAREA":" ","LANE":" ","ALLEY":" ","HOUSE_NO":"１８１號","E_COORD97":174316.04999999999,"N_COORD97":2545257.4199999999,"ADDRESS":"永大路二段１８１號","OBJECTID":554809},"geometry":{"x":174316.05000000075,"y":2545257.4199999999}},{"attributes":{"ID":554837,"DIS_CODE":0,"TOWNNAME":"永康區","LI":"西灣里","LIN":"21鄰","STREET":"永大路","SECT":"二段","MAREA":" ","LANE":" ","ALLEY":" ","HOUSE_NO":"１８３號","E_COORD97":174317.41,"N_COORD97":2545262.5499999998,"ADDRESS":"永大路二段１８３號","OBJECTID":554810},"geometry":{"x":174317.41000000108,"y":2545262.5500000026}},{"attributes":{"ID":554838,"DIS_CODE":0,"TOWNNAME":"永康區","LI":"西灣里","LIN":"21鄰","STREET":"永大路","SECT":"二段","MAREA":" ","LANE":" ","ALLEY":" ","HOUSE_NO":"１８５號","E_COORD97":174318.92000000001,"N_COORD97":2545267.5299999998,"ADDRESS":"永大路二段１８５號","OBJECTID":554811},"geometry":{"x":174318.92000000086,"y":2545267.5300000031}},{"attributes":{"ID":554839,"DIS_CODE":0,"TOWNNAME":"永康區","LI":"西灣里","LIN":"21鄰","STREET":"永大路","SECT":"二段","MAREA":" ","LANE":" ","ALLEY":" ","HOUSE_NO":"１８７號","E_COORD97":174320.73000000001,"N_COORD97":2545272.3599999999,"ADDRESS":"永大路二段１８７號","OBJECTID":554812},"geometry":{"x":174320.73000000138,"y":2545272.3600000031}},{"attributes":{"ID":554840,"DIS_CODE":0,"TOWNNAME":"永康區","LI":"西灣里","LIN":"21鄰","STREET":"永大路","SECT":"二段","MAREA":" ","LANE":" ","ALLEY":" ","HOUSE_NO":"１８９號","E_COORD97":174322.09,"N_COORD97":2545277.3399999999,"ADDRESS":"永大路二段１８９號","OBJECTID":554813},"geometry":{"x":174322.09000000171,"y":2545277.3400000017}},{"attributes":{"ID":554841,"DIS_CODE":0,"TOWNNAME":"永康區","LI":"西灣里","LIN":"21鄰","STREET":"永大路","SECT":"二段","MAREA":" ","LANE":" ","ALLEY":" ","HOUSE_NO":"１９１號","E_COORD97":174323.29999999999,"N_COORD97":2545281.7200000002,"ADDRESS":"永大路二段１９１號","OBJECTID":554814},"geometry":{"x":174323.29999999981,"y":2545281.7200000025}},{"attributes":{"ID":554842,"DIS_CODE":0,"TOWNNAME":"永康區","LI":"西灣里","LIN":"21鄰","STREET":"永大路","SECT":"二段","MAREA":" ","LANE":" ","ALLEY":" ","HOUSE_NO":"１９３號","E_COORD97":174325.10999999999,"N_COORD97":2545286.8500000001,"ADDRESS":"永大路二段１９３號","OBJECTID":554815},"geometry":{"x":174325.11000000034,"y":2545286.8500000015}},{"attributes":{"ID":554843,"DIS_CODE":0,"TOWNNAME":"永康區","LI":"西灣里","LIN":"21鄰","STREET":"永大路","SECT":"二段","MAREA":" ","LANE":" ","ALLEY":" ","HOUSE_NO":"２４５號","E_COORD97":174361.79000000001,"N_COORD97":2545410.23,"ADDRESS":"永大路二段２４５號","OBJECTID":554816},"geometry":{"x":174361.79000000097,"y":2545410.2300000023}},{"attributes":{"ID":554844,"DIS_CODE":0,"TOWNNAME":"中西區","LI":"藥王里","LIN":"21鄰","STREET":"西和路","SECT":" ","MAREA":" ","LANE":" ","ALLEY":" ","HOUSE_NO":"１１２號","E_COORD97":166907.98000000001,"N_COORD97":2544592.0299999998,"ADDRESS":"西和路１１２號","OBJECTID":554817},"geometry":{"x":166907.98000000045,"y":2544592.0299999993}},{"attributes":{"ID":554845,"DIS_CODE":0,"TOWNNAME":"東區","LI":"崇德里","LIN":"21鄰","STREET":"崇德路","SECT":" ","MAREA":" ","LANE":" ","ALLEY":" ","HOUSE_NO":"４４２號之１","E_COORD97":170656.48000000001,"N_COORD97":2541698.46,"ADDRESS":"崇德路４４２號之１","OBJECTID":554818},"geometry":{"x":170656.48000000045,"y":2541698.4600000009}},{"attributes":{"ID":554846,"DIS_CODE":0,"TOWNNAME":"東區","LI":"龍山里","LIN":"21鄰","STREET":"富德街","SECT":" ","MAREA":" ","LANE":" ","ALLEY":" ","HOUSE_NO":"１２號","E_COORD97":170514.44,"N_COORD97":2542749.4900000002,"ADDRESS":"富德街１２號","OBJECTID":554819},"geometry":{"x":170514.43999999948,"y":2542749.4900000002}},{"attributes":{"ID":554847,"DIS_CODE":0,"TOWNNAME":"東區","LI":"龍山里","LIN":"21鄰","STREET":"富德街","SECT":" ","MAREA":" ","LANE":" ","ALLEY":" ","HOUSE_NO":"６６號","E_COORD97":170412.14999999999,"N_COORD97":2542804.71,"ADDRESS":"富德街６６號","OBJECTID":554820},"geometry":{"x":170412.1500000013,"y":2542804.7100000028}},{"attributes":{"ID":554848,"DIS_CODE":0,"TOWNNAME":"東區","LI":"龍山里","LIN":"21鄰","STREET":"富德街","SECT":" ","MAREA":" ","LANE":" ","ALLEY":" ","HOUSE_NO":"６８號","E_COORD97":170406.72,"N_COORD97":2542802.8999999999,"ADDRESS":"富德街６８號","OBJECTID":554821},"geometry":{"x":170406.71999999881,"y":2542802.9000000022}},{"attributes":{"ID":554849,"DIS_CODE":0,"TOWNNAME":"中西區","LI":"西賢里","LIN":"21鄰","STREET":"西賢一街","SECT":" ","MAREA":" ","LANE":" ","ALLEY":" ","HOUSE_NO":"２０５號","E_COORD97":165656.94,"N_COORD97":2544997.5699999998,"ADDRESS":"西賢一街２０５號","OBJECTID":554822},"geometry":{"x":165656.94000000134,"y":2544997.5700000022}},{"attributes":{"ID":554850,"DIS_CODE":0,"TOWNNAME":"中西區","LI":"西賢里","LIN":"21鄰","STREET":"西賢一街","SECT":" ","MAREA":" ","LANE":" ","ALLEY":" ","HOUSE_NO":"２０７號","E_COORD97":165651.84,"N_COORD97":2544997.1899999999,"ADDRESS":"西賢一街２０７號","OBJECTID":554823},"geometry":{"x":165651.84000000078,"y":2544997.1899999995}},{"attributes":{"ID":554851,"DIS_CODE":0,"TOWNNAME":"中西區","LI":"西賢里","LIN":"21鄰","STREET":"西賢一街","SECT":" ","MAREA":" ","LANE":" ","ALLEY":" ","HOUSE_NO":"２０９號","E_COORD97":165647.5,"N_COORD97":2544997.0600000001,"ADDRESS":"西賢一街２０９號","OBJECTID":554824},"geometry":{"x":165647.50000000093,"y":2544997.0600000005}},{"attributes":{"ID":554852,"DIS_CODE":0,"TOWNNAME":"中西區","LI":"西賢里","LIN":"21鄰","STREET":"西賢一街","SECT":" ","MAREA":" ","LANE":" ","ALLEY":" ","HOUSE_NO":"２１１號","E_COORD97":165643.41,"N_COORD97":2544996.9399999999,"ADDRESS":"西賢一街２１１號","OBJECTID":554825},"geometry":{"x":165643.41000000015,"y":2544996.9399999976}},{"attributes":{"ID":554853,"DIS_CODE":0,"TOWNNAME":"中西區","LI":"西賢里","LIN":"21鄰","STREET":"西賢一街","SECT":" ","MAREA":" ","LANE":" ","ALLEY":" ","HOUSE_NO":"２１３號","E_COORD97":165637.28,"N_COORD97":2544996.8100000001,"ADDRESS":"西賢一街２１３號","OBJECTID":554826},"geometry":{"x":165637.28000000119,"y":2544996.8100000024}},{"attributes":{"ID":554854,"DIS_CODE":0,"TOWNNAME":"中西區","LI":"西賢里","LIN":"21鄰","STREET":"西賢一街","SECT":" ","MAREA":" ","LANE":" ","ALLEY":" ","HOUSE_NO":"２１５號","E_COORD97":165637.67000000001,"N_COORD97":2545009.0899999999,"ADDRESS":"西賢一街２１５號","OBJECTID":554827},"geometry":{"x":165637.67000000086,"y":2545009.0899999999}},{"attributes":{"ID":554855,"DIS_CODE":0,"TOWNNAME":"中西區","LI":"西賢里","LIN":"21鄰","STREET":"西賢一街","SECT":" ","MAREA":" ","LANE":" ","ALLEY":" ","HOUSE_NO":"２１７號","E_COORD97":165642.64999999999,"N_COORD97":2545009.3500000001,"ADDRESS":"西賢一街２１７號","OBJECTID":554828},"geometry":{"x":165642.64999999944,"y":2545009.3500000015}},{"attributes":{"ID":554856,"DIS_CODE":0,"TOWNNAME":"中西區","LI":"西賢里","LIN":"21鄰","STREET":"西賢一街","SECT":" ","MAREA":" ","LANE":" ","ALLEY":" ","HOUSE_NO":"２１９號","E_COORD97":165647.5,"N_COORD97":2545009.0899999999,"ADDRESS":"西賢一街２１９號","OBJECTID":554829},"geometry":{"x":165647.50000000093,"y":2545009.0899999999}},{"attributes":{"ID":554857,"DIS_CODE":0,"TOWNNAME":"中西區","LI":"西賢里","LIN":"21鄰","STREET":"西賢一街","SECT":" ","MAREA":" ","LANE":" ","ALLEY":" ","HOUSE_NO":"２２１號","E_COORD97":165651.97,"N_COORD97":2545009.48,"ADDRESS":"西賢一街２２１號","OBJECTID":554830},"geometry":{"x":165651.97000000067,"y":2545009.4800000023}},{"attributes":{"ID":554858,"DIS_CODE":0,"TOWNNAME":"中西區","LI":"公正里","LIN":"1鄰","STREET":"北門路","SECT":"一段","MAREA":" ","LANE":" ","ALLEY":" ","HOUSE_NO":"１４３號","E_COORD97":169183.17000000001,"N_COORD97":2543988.4100000001,"ADDRESS":"北門路一段１４３號","OBJECTID":554831},"geometry":{"x":169183.16999999993,"y":2543988.410000002}},{"attributes":{"ID":554859,"DIS_CODE":0,"TOWNNAME":"中西區","LI":"公正里","LIN":"1鄰","STREET":"北門路","SECT":"一段","MAREA":" ","LANE":" ","ALLEY":" ","HOUSE_NO":"１４５號","E_COORD97":169184.51000000001,"N_COORD97":2543994.1099999999,"ADDRESS":"北門路一段１４５號","OBJECTID":554832},"geometry":{"x":169184.51000000071,"y":2543994.1099999994}},{"attributes":{"ID":554860,"DIS_CODE":0,"TOWNNAME":"中西區","LI":"公正里","LIN":"1鄰","STREET":"北門路","SECT":"一段","MAREA":" ","LANE":" ","ALLEY":" ","HOUSE_NO":"１４５號","E_COORD97":169184.51000000001,"N_COORD97":2543994.1099999999,"ADDRESS":"北門路一段１４５號","OBJECTID":554833},"geometry":{"x":169184.51000000071,"y":2543994.1099999994}},{"attributes":{"ID":554861,"DIS_CODE":0,"TOWNNAME":"中西區","LI":"西賢里","LIN":"21鄰","STREET":"西賢一街","SECT":" ","MAREA":" ","LANE":" ","ALLEY":" ","HOUSE_NO":"２２３號","E_COORD97":165655.92999999999,"N_COORD97":2545009.6000000001,"ADDRESS":"西賢一街２２３號","OBJECTID":554834},"geometry":{"x":165655.93000000063,"y":2545009.5999999978}},{"attributes":{"ID":554862,"DIS_CODE":0,"TOWNNAME":"中西區","LI":"西賢里","LIN":"21鄰","STREET":"西賢一街","SECT":" ","MAREA":" ","LANE":" ","ALLEY":" ","HOUSE_NO":"２２５號","E_COORD97":165661.54000000001,"N_COORD97":2545009.48,"ADDRESS":"西賢一街２２５號","OBJECTID":554835},"geometry":{"x":165661.54000000004,"y":2545009.4800000023}},{"attributes":{"ID":554863,"DIS_CODE":0,"TOWNNAME":"中西區","LI":"西賢里","LIN":"21鄰","STREET":"西賢一街","SECT":" ","MAREA":" ","LANE":" ","ALLEY":" ","HOUSE_NO":"２２７號","E_COORD97":165666.64999999999,"N_COORD97":2545009.3500000001,"ADDRESS":"西賢一街２２７號","OBJECTID":554836},"geometry":{"x":165666.6500000013,"y":2545009.3500000015}},{"attributes":{"ID":554864,"DIS_CODE":0,"TOWNNAME":"中西區","LI":"西賢里","LIN":"21鄰","STREET":"西賢一街","SECT":" ","MAREA":" ","LANE":" ","ALLEY":" ","HOUSE_NO":"２２９號","E_COORD97":165671.75,"N_COORD97":2545009.6000000001,"ADDRESS":"西賢一街２２９號","OBJECTID":554837},"geometry":{"x":165671.75,"y":2545009.5999999978}},{"attributes":{"ID":554865,"DIS_CODE":0,"TOWNNAME":"中西區","LI":"西賢里","LIN":"21鄰","STREET":"西賢一街","SECT":" ","MAREA":" ","LANE":" ","ALLEY":" ","HOUSE_NO":"２３１號","E_COORD97":165675.84,"N_COORD97":2545009.9900000002,"ADDRESS":"西賢一街２３１號","OBJECTID":554838},"geometry":{"x":165675.83999999985,"y":2545009.9900000002}},{"attributes":{"ID":554866,"DIS_CODE":0,"TOWNNAME":"中西區","LI":"西賢里","LIN":"21鄰","STREET":"西賢一街","SECT":" ","MAREA":" ","LANE":" ","ALLEY":" ","HOUSE_NO":"２３３號","E_COORD97":165679.79000000001,"N_COORD97":2545009.6000000001,"ADDRESS":"西賢一街２３３號","OBJECTID":554839},"geometry":{"x":165679.79000000004,"y":2545009.5999999978}},{"attributes":{"ID":554867,"DIS_CODE":0,"TOWNNAME":"安南區","LI":"新順里","LIN":"21鄰","STREET":"培安二街","SECT":" ","MAREA":" ","LANE":" ","ALLEY":" ","HOUSE_NO":"７５號","E_COORD97":169304.04000000001,"N_COORD97":2549847.52,"ADDRESS":"培安二街７５號","OBJECTID":554840},"geometry":{"x":169304.04000000004,"y":2549847.5199999996}},{"attributes":{"ID":554868,"DIS_CODE":0,"TOWNNAME":"安南區","LI":"新順里","LIN":"21鄰","STREET":"培安二街","SECT":" ","MAREA":" ","LANE":" ","ALLEY":" ","HOUSE_NO":"７７號","E_COORD97":169300.16,"N_COORD97":2549851.0899999999,"ADDRESS":"培安二街７７號","OBJECTID":554841},"geometry":{"x":169300.16000000015,"y":2549851.0899999999}},{"attributes":{"ID":554869,"DIS_CODE":0,"TOWNNAME":"中西區","LI":"建國里","LIN":"21鄰","STREET":"新美街","SECT":" ","MAREA":" ","LANE":" ","ALLEY":" ","HOUSE_NO":"５２號","E_COORD97":168019.01000000001,"N_COORD97":2543961.77,"ADDRESS":"新美街５２號","OBJECTID":554842},"geometry":{"x":168019.00999999978,"y":2543961.7700000014}},{"attributes":{"ID":554870,"DIS_CODE":0,"TOWNNAME":"中西區","LI":"建國里","LIN":"21鄰","STREET":"新美街","SECT":" ","MAREA":" ","LANE":" ","ALLEY":" ","HOUSE_NO":"５４號","E_COORD97":168022.14999999999,"N_COORD97":2543963.8900000001,"ADDRESS":"新美街５４號","OBJECTID":554843},"geometry":{"x":168022.15000000037,"y":2543963.8900000006}},{"attributes":{"ID":554871,"DIS_CODE":0,"TOWNNAME":"中西區","LI":"建國里","LIN":"21鄰","STREET":"新美街","SECT":" ","MAREA":" ","LANE":" ","ALLEY":" ","HOUSE_NO":"５６號","E_COORD97":168023.35999999999,"N_COORD97":2543967.7000000002,"ADDRESS":"新美街５６號","OBJECTID":554844},"geometry":{"x":168023.36000000127,"y":2543967.6999999974}},{"attributes":{"ID":554872,"DIS_CODE":0,"TOWNNAME":"中西區","LI":"建國里","LIN":"21鄰","STREET":"新美街","SECT":" ","MAREA":" ","LANE":" ","ALLEY":" ","HOUSE_NO":"５８號","E_COORD97":168024.42000000001,"N_COORD97":2543971.8900000001,"ADDRESS":"新美街５８號","OBJECTID":554845},"geometry":{"x":168024.42000000086,"y":2543971.8900000025}},{"attributes":{"ID":554873,"DIS_CODE":0,"TOWNNAME":"中西區","LI":"建國里","LIN":"21鄰","STREET":"新美街","SECT":" ","MAREA":" ","LANE":" ","ALLEY":" ","HOUSE_NO":"６０號","E_COORD97":168025.14000000001,"N_COORD97":2543976.27,"ADDRESS":"新美街６０號","OBJECTID":554846},"geometry":{"x":168025.13999999966,"y":2543976.2699999996}},{"attributes":{"ID":554874,"DIS_CODE":0,"TOWNNAME":"中西區","LI":"建國里","LIN":"21鄰","STREET":"新美街","SECT":" ","MAREA":" ","LANE":" ","ALLEY":" ","HOUSE_NO":"６２號","E_COORD97":168026.39999999999,"N_COORD97":2543979.6499999999,"ADDRESS":"新美街６２號","OBJECTID":554847},"geometry":{"x":168026.4000000013,"y":2543979.6500000041}},{"attributes":{"ID":554875,"DIS_CODE":0,"TOWNNAME":"中西區","LI":"建國里","LIN":"21鄰","STREET":"新美街","SECT":" ","MAREA":" ","LANE":" ","ALLEY":" ","HOUSE_NO":"６４號","E_COORD97":168030.26000000001,"N_COORD97":2543978.54,"ADDRESS":"新美街６４號","OBJECTID":554848},"geometry":{"x":168030.26000000071,"y":2543978.5399999991}},{"attributes":{"ID":554876,"DIS_CODE":0,"TOWNNAME":"中西區","LI":"建國里","LIN":"21鄰","STREET":"新美街","SECT":" ","MAREA":" ","LANE":" ","ALLEY":" ","HOUSE_NO":"６６號","E_COORD97":168030.70999999999,"N_COORD97":2543982.8999999999,"ADDRESS":"新美街６６號","OBJECTID":554849},"geometry":{"x":168030.71000000089,"y":2543982.9000000022}},{"attributes":{"ID":554877,"DIS_CODE":0,"TOWNNAME":"中西區","LI":"建國里","LIN":"21鄰","STREET":"新美街","SECT":" ","MAREA":" ","LANE":" ","ALLEY":" ","HOUSE_NO":"６６號之１","E_COORD97":168031.91,"N_COORD97":2543987.5600000001,"ADDRESS":"新美街６６號之１","OBJECTID":554850},"geometry":{"x":168031.91000000015,"y":2543987.5600000024}},{"attributes":{"ID":554878,"DIS_CODE":0,"TOWNNAME":"中西區","LI":"建國里","LIN":"21鄰","STREET":"新美街","SECT":" ","MAREA":" ","LANE":" ","ALLEY":" ","HOUSE_NO":"６８號","E_COORD97":168033.26999999999,"N_COORD97":2543992.1400000001,"ADDRESS":"新美街６８號","OBJECTID":554851},"geometry":{"x":168033.27000000048,"y":2543992.1400000006}},{"attributes":{"ID":554879,"DIS_CODE":0,"TOWNNAME":"中西區","LI":"建國里","LIN":"21鄰","STREET":"新美街","SECT":" ","MAREA":" ","LANE":" ","ALLEY":" ","HOUSE_NO":"７０號","E_COORD97":168034.47,"N_COORD97":2543996.3500000001,"ADDRESS":"新美街７０號","OBJECTID":554852},"geometry":{"x":168034.46999999974,"y":2543996.3499999996}},{"attributes":{"ID":554880,"DIS_CODE":0,"TOWNNAME":"中西區","LI":"建國里","LIN":"21鄰","STREET":"新美街","SECT":" ","MAREA":" ","LANE":" ","ALLEY":" ","HOUSE_NO":"７２號","E_COORD97":168035.82999999999,"N_COORD97":2544001.1600000001,"ADDRESS":"新美街７２號","OBJECTID":554853},"geometry":{"x":168035.83000000007,"y":2544001.160000002}},{"attributes":{"ID":554881,"DIS_CODE":0,"TOWNNAME":"中西區","LI":"建國里","LIN":"21鄰","STREET":"新美街","SECT":" ","MAREA":" ","LANE":" ","ALLEY":" ","HOUSE_NO":"７４號","E_COORD97":168037.03,"N_COORD97":2544004.9199999999,"ADDRESS":"新美街７４號","OBJECTID":554854},"geometry":{"x":168037.03000000212,"y":2544004.9200000018}},{"attributes":{"ID":554882,"DIS_CODE":0,"TOWNNAME":"中西區","LI":"建國里","LIN":"21鄰","STREET":"新美街","SECT":" ","MAREA":" ","LANE":" ","ALLEY":" ","HOUSE_NO":"７６號","E_COORD97":168038.69,"N_COORD97":2544009.8799999999,"ADDRESS":"新美街７６號","OBJECTID":554855},"geometry":{"x":168038.69000000134,"y":2544009.879999999}},{"attributes":{"ID":554883,"DIS_CODE":0,"TOWNNAME":"中西區","LI":"建國里","LIN":"21鄰","STREET":"新美街","SECT":" ","MAREA":" ","LANE":" ","ALLEY":" ","HOUSE_NO":"７８號","E_COORD97":168054.23000000001,"N_COORD97":2543987.2799999998,"ADDRESS":"新美街７８號","OBJECTID":554856},"geometry":{"x":168054.23000000045,"y":2543987.2799999993}},{"attributes":{"ID":554884,"DIS_CODE":0,"TOWNNAME":"安南區","LI":"新順里","LIN":"21鄰","STREET":"育安三街","SECT":" ","MAREA":" ","LANE":" ","ALLEY":" ","HOUSE_NO":"３７號","E_COORD97":169263.78,"N_COORD97":2549870.1699999999,"ADDRESS":"育安三街３７號","OBJECTID":554857},"geometry":{"x":169263.78000000026,"y":2549870.1699999999}},{"attributes":{"ID":554885,"DIS_CODE":0,"TOWNNAME":"安南區","LI":"溪東里","LIN":"21鄰","STREET":"郡安路","SECT":"五段","MAREA":" ","LANE":" ","ALLEY":" ","HOUSE_NO":"４１號","E_COORD97":168158.14999999999,"N_COORD97":2547677.4100000001,"ADDRESS":"郡安路五段４１號","OBJECTID":554858},"geometry":{"x":168158.15000000037,"y":2547677.410000002}},{"attributes":{"ID":554886,"DIS_CODE":0,"TOWNNAME":"安南區","LI":"溪東里","LIN":"21鄰","STREET":"郡安路","SECT":"五段","MAREA":" ","LANE":" ","ALLEY":" ","HOUSE_NO":"２７號","E_COORD97":168229.60000000001,"N_COORD97":2547672.8300000001,"ADDRESS":"郡安路五段２７號","OBJECTID":554859},"geometry":{"x":168229.60000000056,"y":2547672.8300000001}},{"attributes":{"ID":554887,"DIS_CODE":0,"TOWNNAME":"安南區","LI":"溪東里","LIN":"21鄰","STREET":"郡安路","SECT":"五段","MAREA":" ","LANE":" ","ALLEY":" ","HOUSE_NO":"２８號","E_COORD97":168224.85999999999,"N_COORD97":2547673.1800000002,"ADDRESS":"郡安路五段２８號","OBJECTID":554860},"geometry":{"x":168224.8600000022,"y":2547673.1799999997}},{"attributes":{"ID":554888,"DIS_CODE":0,"TOWNNAME":"安南區","LI":"溪東里","LIN":"21鄰","STREET":"郡安路","SECT":"五段","MAREA":" ","LANE":" ","ALLEY":" ","HOUSE_NO":"３０號","E_COORD97":168214.82999999999,"N_COORD97":2547673.75,"ADDRESS":"郡安路五段３０號","OBJECTID":554861},"geometry":{"x":168214.83000000101,"y":2547673.7499999981}},{"attributes":{"ID":554889,"DIS_CODE":0,"TOWNNAME":"安南區","LI":"溪頂里","LIN":"21鄰","STREET":"聖安街","SECT":" ","MAREA":" ","LANE":" ","ALLEY":" ","HOUSE_NO":"５２號","E_COORD97":168594.48000000001,"N_COORD97":2547483.4900000002,"ADDRESS":"聖安街５２號","OBJECTID":554862},"geometry":{"x":168594.48000000138,"y":2547483.4900000021}},{"attributes":{"ID":554890,"DIS_CODE":0,"TOWNNAME":"安南區","LI":"溪頂里","LIN":"21鄰","STREET":"聖安街","SECT":" ","MAREA":" ","LANE":" ","ALLEY":" ","HOUSE_NO":"４２號","E_COORD97":168620.70999999999,"N_COORD97":2547487.3100000001,"ADDRESS":"聖安街４２號","OBJECTID":554863},"geometry":{"x":168620.71000000089,"y":2547487.3100000005}},{"attributes":{"ID":554891,"DIS_CODE":0,"TOWNNAME":"安南區","LI":"溪頂里","LIN":"21鄰","STREET":"聖安街","SECT":" ","MAREA":" ","LANE":" ","ALLEY":" ","HOUSE_NO":"３８號","E_COORD97":168629.34,"N_COORD97":2547487.6200000001,"ADDRESS":"聖安街３８號","OBJECTID":554864},"geometry":{"x":168629.33999999985,"y":2547487.6200000029}},{"attributes":{"ID":554892,"DIS_CODE":0,"TOWNNAME":"安南區","LI":"溪頂里","LIN":"21鄰","STREET":"聖安街","SECT":" ","MAREA":" ","LANE":" ","ALLEY":" ","HOUSE_NO":"３４號","E_COORD97":168638.10000000001,"N_COORD97":2547488.8900000001,"ADDRESS":"聖安街３４號","OBJECTID":554865},"geometry":{"x":168638.10000000056,"y":2547488.8900000025}},{"attributes":{"ID":554893,"DIS_CODE":0,"TOWNNAME":"安南區","LI":"溪頂里","LIN":"21鄰","STREET":"聖安街","SECT":" ","MAREA":" ","LANE":" ","ALLEY":" ","HOUSE_NO":"３０號","E_COORD97":168646.70000000001,"N_COORD97":2547489.21,"ADDRESS":"聖安街３０號","OBJECTID":554866},"geometry":{"x":168646.70000000112,"y":2547489.2100000028}},{"attributes":{"ID":554894,"DIS_CODE":0,"TOWNNAME":"安南區","LI":"溪頂里","LIN":"21鄰","STREET":"聖安街","SECT":" ","MAREA":" ","LANE":" ","ALLEY":" ","HOUSE_NO":"２８號","E_COORD97":168650.85000000001,"N_COORD97":2547490.0099999998,"ADDRESS":"聖安街２８號","OBJECTID":554867},"geometry":{"x":168650.84999999963,"y":2547490.0100000016}},{"attributes":{"ID":554895,"DIS_CODE":0,"TOWNNAME":"安南區","LI":"鳳凰里","LIN":"21鄰","STREET":"安中路","SECT":"一段","MAREA":" ","LANE":" ","ALLEY":" ","HOUSE_NO":"９６０號","E_COORD97":167233.26057799999,"N_COORD97":2549500.75618,"ADDRESS":"安中路一段９６０號","OBJECTID":554868},"geometry":{"x":167233.26057799999,"y":2549500.7561849989}},{"attributes":{"ID":554896,"DIS_CODE":0,"TOWNNAME":"中西區","LI":"三民里","LIN":"6鄰","STREET":"公園路","SECT":" ","MAREA":" ","LANE":" ","ALLEY":" ","HOUSE_NO":"２５號底層","E_COORD97":168506.87,"N_COORD97":2543834.7799999998,"ADDRESS":"公園路２５號底層","OBJECTID":554869},"geometry":{"x":168506.87000000011,"y":2543834.7799999993}},{"attributes":{"ID":554897,"DIS_CODE":0,"TOWNNAME":"中西區","LI":"三民里","LIN":"6鄰","STREET":"民權路","SECT":"二段","MAREA":" ","LANE":" ","ALLEY":" ","HOUSE_NO":"６１號","E_COORD97":168521.09,"N_COORD97":2543868.4100000001,"ADDRESS":"民權路二段６１號","OBJECTID":554870},"geometry":{"x":168521.09000000171,"y":2543868.4100000001}},{"attributes":{"ID":554898,"DIS_CODE":0,"TOWNNAME":"中西區","LI":"三民里","LIN":"6鄰","STREET":"民權路","SECT":"二段","MAREA":" ","LANE":" ","ALLEY":" ","HOUSE_NO":"６３號","E_COORD97":168517.64000000001,"N_COORD97":2543870.75,"ADDRESS":"民權路二段６３號","OBJECTID":554871},"geometry":{"x":168517.6400000006,"y":2543870.7500000019}},{"attributes":{"ID":554899,"DIS_CODE":0,"TOWNNAME":"安南區","LI":"鳳凰里","LIN":"21鄰","STREET":"安中路","SECT":"一段","MAREA":" ","LANE":" ","ALLEY":" ","HOUSE_NO":"９４２號","E_COORD97":167267.137865,"N_COORD97":2549478.5312000001,"ADDRESS":"安中路一段９４２號","OBJECTID":554872},"geometry":{"x":167267.13786500134,"y":2549478.531197004}},{"attributes":{"ID":554900,"DIS_CODE":0,"TOWNNAME":"永康區","LI":"勝利里","LIN":"21鄰","STREET":"勝利街","SECT":" ","MAREA":" ","LANE":" ","ALLEY":" ","HOUSE_NO":"１５６號","E_COORD97":171377.89999999999,"N_COORD97":2545071.3399999999,"ADDRESS":"勝利街１５６號","OBJECTID":554873},"geometry":{"x":171377.9000000013,"y":2545071.3399999999}},{"attributes":{"ID":554901,"DIS_CODE":0,"TOWNNAME":"永康區","LI":"勝利里","LIN":"21鄰","STREET":"勝利街","SECT":" ","MAREA":" ","LANE":" ","ALLEY":" ","HOUSE_NO":"１６２號","E_COORD97":171380.29000000001,"N_COORD97":2545095.0899999999,"ADDRESS":"勝利街１６２號","OBJECTID":554874},"geometry":{"x":171380.29000000097,"y":2545095.0900000036}},{"attributes":{"ID":554902,"DIS_CODE":0,"TOWNNAME":"永康區","LI":"勝利里","LIN":"21鄰","STREET":"勝利街","SECT":" ","MAREA":" ","LANE":" ","ALLEY":" ","HOUSE_NO":"１８１號","E_COORD97":171365.64999999999,"N_COORD97":2545094.5099999998,"ADDRESS":"勝利街１８１號","OBJECTID":554875},"geometry":{"x":171365.64999999944,"y":2545094.5099999998}},{"attributes":{"ID":554903,"DIS_CODE":0,"TOWNNAME":"永康區","LI":"勝利里","LIN":"21鄰","STREET":"勝利街","SECT":" ","MAREA":" ","LANE":" ","ALLEY":" ","HOUSE_NO":"１７８號","E_COORD97":171380.57999999999,"N_COORD97":2545138,"ADDRESS":"勝利街１７８號","OBJECTID":554876},"geometry":{"x":171380.58000000007,"y":2545138}},{"attributes":{"ID":554904,"DIS_CODE":0,"TOWNNAME":"永康區","LI":"\u25A0行里","LIN":"21鄰","STREET":"正南五街","SECT":" ","MAREA":" ","LANE":" ","ALLEY":" ","HOUSE_NO":"４５２號","E_COORD97":171682.89000000001,"N_COORD97":2548689.1000000001,"ADDRESS":"正南五街４５２號","OBJECTID":554877},"geometry":{"x":171682.8900000006,"y":2548689.1000000015}},{"attributes":{"ID":554905,"DIS_CODE":0,"TOWNNAME":"永康區","LI":"\u25A0洲里","LIN":"21鄰","STREET":"中正南路","SECT":" ","MAREA":" ","LANE":" ","ALLEY":" ","HOUSE_NO":"７６３號","E_COORD97":171655.54000000001,"N_COORD97":2548933,"ADDRESS":"中正南路７６３號","OBJECTID":554878},"geometry":{"x":171655.54000000004,"y":2548933}},{"attributes":{"ID":554906,"DIS_CODE":0,"TOWNNAME":"永康區","LI":"中華里","LIN":"21鄰","STREET":"中華路","SECT":" ","MAREA":" ","LANE":" ","ALLEY":" ","HOUSE_NO":"１８號","E_COORD97":171582.45000000001,"N_COORD97":2544521.8399999999,"ADDRESS":"中華路１８號","OBJECTID":554879},"geometry":{"x":171582.45000000112,"y":2544521.8400000017}},{"attributes":{"ID":554907,"DIS_CODE":0,"TOWNNAME":"永康區","LI":"埔園里","LIN":"21鄰","STREET":"四維街","SECT":" ","MAREA":" ","LANE":" ","ALLEY":" ","HOUSE_NO":"８２號","E_COORD97":173394.84,"N_COORD97":2548125.1200000001,"ADDRESS":"四維街８２號","OBJECTID":554880},"geometry":{"x":173394.84000000171,"y":2548125.1200000029}},{"attributes":{"ID":554908,"DIS_CODE":0,"TOWNNAME":"永康區","LI":"埔園里","LIN":"21鄰","STREET":"埔園街","SECT":" ","MAREA":" ","LANE":" ","ALLEY":" ","HOUSE_NO":"２８９號","E_COORD97":173414.51000000001,"N_COORD97":2548159.0600000001,"ADDRESS":"埔園街２８９號","OBJECTID":554881},"geometry":{"x":173414.51000000071,"y":2548159.0600000005}},{"attributes":{"ID":554909,"DIS_CODE":0,"TOWNNAME":"永康區","LI":"埔園里","LIN":"21鄰","STREET":"埔園街","SECT":" ","MAREA":" ","LANE":" ","ALLEY":" ","HOUSE_NO":"２９３號","E_COORD97":173406.26000000001,"N_COORD97":2548156.5600000001,"ADDRESS":"埔園街２９３號","OBJECTID":554882},"geometry":{"x":173406.25999999978,"y":2548156.5600000005}},{"attributes":{"ID":554910,"DIS_CODE":0,"TOWNNAME":"永康區","LI":"勝利里","LIN":"21鄰","STREET":"勝利街","SECT":" ","MAREA":" ","LANE":" ","ALLEY":" ","HOUSE_NO":"２０７號之３","E_COORD97":171353.28,"N_COORD97":2545153.79,"ADDRESS":"勝利街２０７號之３","OBJECTID":554883},"geometry":{"x":171353.28000000119,"y":2545153.7900000028}},{"attributes":{"ID":554911,"DIS_CODE":0,"TOWNNAME":"永康區","LI":"勝利里","LIN":"21鄰","STREET":"勝利街","SECT":" ","MAREA":" ","LANE":" ","ALLEY":" ","HOUSE_NO":"２２１號","E_COORD97":171374.10000000001,"N_COORD97":2545197.2599999998,"ADDRESS":"勝利街２２１號","OBJECTID":554884},"geometry":{"x":171374.10000000056,"y":2545197.2599999998}},{"attributes":{"ID":554912,"DIS_CODE":0,"TOWNNAME":"永康區","LI":"勝利里","LIN":"21鄰","STREET":"勝利街","SECT":" ","MAREA":" ","LANE":" ","ALLEY":" ","HOUSE_NO":"１５４號","E_COORD97":171377.66,"N_COORD97":2545063.8399999999,"ADDRESS":"勝利街１５４號","OBJECTID":554885},"geometry":{"x":171377.66000000108,"y":2545063.8400000017}},{"attributes":{"ID":554913,"DIS_CODE":0,"TOWNNAME":"永康區","LI":"勝利里","LIN":"21鄰","STREET":"勝利街","SECT":" ","MAREA":" ","LANE":" ","ALLEY":" ","HOUSE_NO":"２０５號","E_COORD97":171371.67999999999,"N_COORD97":2545145.75,"ADDRESS":"勝利街２０５號","OBJECTID":554886},"geometry":{"x":171371.68000000156,"y":2545145.7500000019}},{"attributes":{"ID":554914,"DIS_CODE":0,"TOWNNAME":"永康區","LI":"埔園里","LIN":"21鄰","STREET":"埔園街","SECT":" ","MAREA":" ","LANE":" ","ALLEY":" ","HOUSE_NO":"２９５號","E_COORD97":173401.69,"N_COORD97":2548155.0600000001,"ADDRESS":"埔園街２９５號","OBJECTID":554887},"geometry":{"x":173401.69000000134,"y":2548155.0600000024}},{"attributes":{"ID":554915,"DIS_CODE":0,"TOWNNAME":"永康區","LI":"埔園里","LIN":"21鄰","STREET":"埔園街","SECT":" ","MAREA":" ","LANE":" ","ALLEY":" ","HOUSE_NO":"２７９號","E_COORD97":173435.35999999999,"N_COORD97":2548165.5699999998,"ADDRESS":"埔園街２７９號","OBJECTID":554888},"geometry":{"x":173435.36000000034,"y":2548165.5700000003}},{"attributes":{"ID":554916,"DIS_CODE":0,"TOWNNAME":"永康區","LI":"崑山里","LIN":"21鄰","STREET":"大仁街","SECT":" ","MAREA":" ","LANE":" ","ALLEY":" ","HOUSE_NO":"１３號","E_COORD97":173793.85999999999,"N_COORD97":2544554.25,"ADDRESS":"大仁街１３號","OBJECTID":554889},"geometry":{"x":173793.86000000127,"y":2544554.25}},{"attributes":{"ID":554917,"DIS_CODE":0,"TOWNNAME":"永康區","LI":"勝利里","LIN":"21鄰","STREET":"勝利街","SECT":" ","MAREA":" ","LANE":" ","ALLEY":" ","HOUSE_NO":"２０５號之２","E_COORD97":171358.54999999999,"N_COORD97":2545147.79,"ADDRESS":"勝利街２０５號之２","OBJECTID":554890},"geometry":{"x":171358.54999999981,"y":2545147.790000001}},{"attributes":{"ID":554918,"DIS_CODE":0,"TOWNNAME":"永康區","LI":"勝利里","LIN":"21鄰","STREET":"勝利街","SECT":" ","MAREA":" ","LANE":" ","ALLEY":" ","HOUSE_NO":"２１５號","E_COORD97":171372.28,"N_COORD97":2545179.75,"ADDRESS":"勝利街２１５號","OBJECTID":554891},"geometry":{"x":171372.28000000119,"y":2545179.7500000019}},{"attributes":{"ID":554919,"DIS_CODE":0,"TOWNNAME":"永康區","LI":"勝利里","LIN":"21鄰","STREET":"勝利街","SECT":" ","MAREA":" ","LANE":" ","ALLEY":" ","HOUSE_NO":"１９４號","E_COORD97":171383.97,"N_COORD97":2545185.0099999998,"ADDRESS":"勝利街１９４號","OBJECTID":554892},"geometry":{"x":171383.97000000067,"y":2545185.0100000016}},{"attributes":{"ID":554920,"DIS_CODE":0,"TOWNNAME":"永康區","LI":"埔園里","LIN":"21鄰","STREET":"埔園街","SECT":" ","MAREA":" ","LANE":" ","ALLEY":" ","HOUSE_NO":"２７５號","E_COORD97":173445.75,"N_COORD97":2548168.3199999998,"ADDRESS":"埔園街２７５號","OBJECTID":554893},"geometry":{"x":173445.75,"y":2548168.3200000003}},{"attributes":{"ID":554921,"DIS_CODE":0,"TOWNNAME":"永康區","LI":"勝利里","LIN":"21鄰","STREET":"勝利街","SECT":" ","MAREA":" ","LANE":" ","ALLEY":" ","HOUSE_NO":"１８０號","E_COORD97":171391.89999999999,"N_COORD97":2545147.75,"ADDRESS":"勝利街１８０號","OBJECTID":554894},"geometry":{"x":171391.9000000013,"y":2545147.75}},{"attributes":{"ID":554922,"DIS_CODE":0,"TOWNNAME":"永康區","LI":"崑山里","LIN":"21鄰","STREET":"大仁街","SECT":" ","MAREA":" ","LANE":" ","ALLEY":" ","HOUSE_NO":"３５號","E_COORD97":173787.17999999999,"N_COORD97":2544607.8900000001,"ADDRESS":"大仁街３５號","OBJECTID":554895},"geometry":{"x":173787.18000000156,"y":2544607.8900000006}},{"attributes":{"ID":554923,"DIS_CODE":0,"TOWNNAME":"永康區","LI":"埔園里","LIN":"21鄰","STREET":"埔園街","SECT":" ","MAREA":" ","LANE":" ","ALLEY":" ","HOUSE_NO":"２８３號","E_COORD97":173427.10999999999,"N_COORD97":2548162.8100000001,"ADDRESS":"埔園街２８３號","OBJECTID":554896},"geometry":{"x":173427.11000000034,"y":2548162.8100000024}},{"attributes":{"ID":554924,"DIS_CODE":0,"TOWNNAME":"永康區","LI":"勝利里","LIN":"21鄰","STREET":"勝利街","SECT":" ","MAREA":" ","LANE":" ","ALLEY":" ","HOUSE_NO":"１８３號","E_COORD97":171366.85000000001,"N_COORD97":2545102.0099999998,"ADDRESS":"勝利街１８３號","OBJECTID":554897},"geometry":{"x":171366.8499999987,"y":2545102.0100000035}},{"attributes":{"ID":554925,"DIS_CODE":0,"TOWNNAME":"永康區","LI":"勝利里","LIN":"21鄰","STREET":"勝利街","SECT":" ","MAREA":" ","LANE":" ","ALLEY":" ","HOUSE_NO":"１６４號","E_COORD97":171387.70999999999,"N_COORD97":2545102.7599999998,"ADDRESS":"勝利街１６４號","OBJECTID":554898},"geometry":{"x":171387.71000000089,"y":2545102.7599999998}},{"attributes":{"ID":554926,"DIS_CODE":0,"TOWNNAME":"永康區","LI":"勝利里","LIN":"21鄰","STREET":"勝利街","SECT":" ","MAREA":" ","LANE":" ","ALLEY":" ","HOUSE_NO":"１５８號","E_COORD97":171377.97,"N_COORD97":2545075.3399999999,"ADDRESS":"勝利街１５８號","OBJECTID":554899},"geometry":{"x":171377.96999999974,"y":2545075.3399999999}},{"attributes":{"ID":554927,"DIS_CODE":0,"TOWNNAME":"安南區","LI":"安順里","LIN":"21鄰","STREET":"總安街","SECT":"一段","MAREA":" ","LANE":" ","ALLEY":" ","HOUSE_NO":"１８５號","E_COORD97":169441.10999999999,"N_COORD97":2550233.7599999998,"ADDRESS":"總安街一段１８５號","OBJECTID":554900},"geometry":{"x":169441.11000000034,"y":2550233.7600000016}},{"attributes":{"ID":554928,"DIS_CODE":0,"TOWNNAME":"東區","LI":"龍山里","LIN":"21鄰","STREET":"富德街","SECT":" ","MAREA":" ","LANE":" ","ALLEY":" ","HOUSE_NO":"６２號","E_COORD97":170419.17000000001,"N_COORD97":2542796.3399999999,"ADDRESS":"富德街６２號","OBJECTID":554901},"geometry":{"x":170419.17000000179,"y":2542796.3399999999}},{"attributes":{"ID":554929,"DIS_CODE":0,"TOWNNAME":"東區","LI":"龍山里","LIN":"21鄰","STREET":"富德街","SECT":" ","MAREA":" ","LANE":" ","ALLEY":" ","HOUSE_NO":"６２之１號","E_COORD97":170417.13,"N_COORD97":2542801.3199999998,"ADDRESS":"富德街６２之１號","OBJECTID":554902},"geometry":{"x":170417.12999999989,"y":2542801.3200000003}},{"attributes":{"ID":554930,"DIS_CODE":0,"TOWNNAME":"仁德區","LI":"保安里","LIN":"21鄰","STREET":"文賢路","SECT":"一段","MAREA":" ","LANE":" ","ALLEY":" ","HOUSE_NO":"６２２號","E_COORD97":171127.26000000001,"N_COORD97":2536706.5800000001,"ADDRESS":"文賢路一段６２２號","OBJECTID":554903},"geometry":{"x":171127.26000000071,"y":2536706.5800000001}},{"attributes":{"ID":554931,"DIS_CODE":0,"TOWNNAME":"仁德區","LI":"後壁里","LIN":"21鄰","STREET":"中正路","SECT":"二段","MAREA":" ","LANE":" ","ALLEY":" ","HOUSE_NO":"３９號","E_COORD97":173082.82000000001,"N_COORD97":2538342.5299999998,"ADDRESS":"中正路二段３９號","OBJECTID":554904},"geometry":{"x":173082.8200000003,"y":2538342.5300000012}},{"attributes":{"ID":554932,"DIS_CODE":0,"TOWNNAME":"仁德區","LI":"保安里","LIN":"21鄰","STREET":"文賢路","SECT":"一段","MAREA":" ","LANE":" ","ALLEY":" ","HOUSE_NO":"６１８號","E_COORD97":171124.95999999999,"N_COORD97":2536723.5699999998,"ADDRESS":"文賢路一段６１８號","OBJECTID":554905},"geometry":{"x":171124.96000000089,"y":2536723.5700000003}},{"attributes":{"ID":554933,"DIS_CODE":0,"TOWNNAME":"仁德區","LI":"保安里","LIN":"21鄰","STREET":"文賢路","SECT":"一段","MAREA":" ","LANE":" ","ALLEY":" ","HOUSE_NO":"６５２號","E_COORD97":171154.92000000001,"N_COORD97":2536621.0699999998,"ADDRESS":"文賢路一段６５２號","OBJECTID":554906},"geometry":{"x":171154.92000000179,"y":2536621.0700000022}},{"attributes":{"ID":554934,"DIS_CODE":0,"TOWNNAME":"仁德區","LI":"保安里","LIN":"21鄰","STREET":"文賢路","SECT":"一段","MAREA":" ","LANE":" ","ALLEY":" ","HOUSE_NO":"６５４號","E_COORD97":171161.64999999999,"N_COORD97":2536619.5699999998,"ADDRESS":"文賢路一段６５４號","OBJECTID":554907},"geometry":{"x":171161.65000000037,"y":2536619.570000004}},{"attributes":{"ID":554935,"DIS_CODE":0,"TOWNNAME":"仁德區","LI":"後壁里","LIN":"21鄰","STREET":"中正路","SECT":"二段","MAREA":" ","LANE":" ","ALLEY":" ","HOUSE_NO":"２９號","E_COORD97":173084.88,"N_COORD97":2538309.77,"ADDRESS":"中正路二段２９號","OBJECTID":554908},"geometry":{"x":173084.88000000082,"y":2538309.7700000014}},{"attributes":{"ID":554936,"DIS_CODE":0,"TOWNNAME":"中西區","LI":"三民里","LIN":"8鄰","STREET":"忠義路","SECT":"二段","MAREA":" ","LANE":" ","ALLEY":" ","HOUSE_NO":"１００號","E_COORD97":168339.70999999999,"N_COORD97":2543883.98,"ADDRESS":"忠義路二段１００號","OBJECTID":554909},"geometry":{"x":168339.71000000089,"y":2543883.9800000023}},{"attributes":{"ID":554937,"DIS_CODE":0,"TOWNNAME":"中西區","LI":"三民里","LIN":"8鄰","STREET":"忠義路","SECT":"二段","MAREA":" ","LANE":" ","ALLEY":" ","HOUSE_NO":"１０２號","E_COORD97":168340.70000000001,"N_COORD97":2543887.54,"ADDRESS":"忠義路二段１０２號","OBJECTID":554910},"geometry":{"x":168340.70000000019,"y":2543887.5400000028}},{"attributes":{"ID":554938,"DIS_CODE":0,"TOWNNAME":"仁德區","LI":"後壁里","LIN":"21鄰","STREET":"中正路","SECT":"二段","MAREA":" ","LANE":" ","ALLEY":" ","HOUSE_NO":"５５號","E_COORD97":173083.20000000001,"N_COORD97":2538387.27,"ADDRESS":"中正路二段５５號","OBJECTID":554911},"geometry":{"x":173083.20000000112,"y":2538387.2700000033}},{"attributes":{"ID":554939,"DIS_CODE":0,"TOWNNAME":"仁德區","LI":"保安里","LIN":"21鄰","STREET":"文賢路","SECT":"一段","MAREA":" ","LANE":" ","ALLEY":" ","HOUSE_NO":"６６２號","E_COORD97":171169,"N_COORD97":2536600.8300000001,"ADDRESS":"文賢路一段６６２號","OBJECTID":554912},"geometry":{"x":171169,"y":2536600.8300000019}},{"attributes":{"ID":554940,"DIS_CODE":0,"TOWNNAME":"仁德區","LI":"太子里","LIN":"21鄰","STREET":"長興四街","SECT":" ","MAREA":" ","LANE":" ","ALLEY":" ","HOUSE_NO":"７２號","E_COORD97":173902.98999999999,"N_COORD97":2543569,"ADDRESS":"長興四街７２號","OBJECTID":554913},"geometry":{"x":173902.99000000115,"y":2543569}},{"attributes":{"ID":554941,"DIS_CODE":0,"TOWNNAME":"永康區","LI":"五王里","LIN":"21鄰","STREET":"振興路","SECT":" ","MAREA":" ","LANE":" ","ALLEY":" ","HOUSE_NO":"４３號","E_COORD97":171460.73999999999,"N_COORD97":2545811.6099999999,"ADDRESS":"振興路４３號","OBJECTID":554914},"geometry":{"x":171460.74000000115,"y":2545811.6099999994}},{"attributes":{"ID":554942,"DIS_CODE":0,"TOWNNAME":"永康區","LI":"西灣里","LIN":"21鄰","STREET":"國光六街","SECT":" ","MAREA":" ","LANE":" ","ALLEY":" ","HOUSE_NO":"２號","E_COORD97":174296.67999999999,"N_COORD97":2545262.5600000001,"ADDRESS":"國光六街２號","OBJECTID":554915},"geometry":{"x":174296.6799999997,"y":2545262.5600000024}},{"attributes":{"ID":554943,"DIS_CODE":0,"TOWNNAME":"永康區","LI":"西灣里","LIN":"21鄰","STREET":"國光六街","SECT":" ","MAREA":" ","LANE":" ","ALLEY":" ","HOUSE_NO":"６號","E_COORD97":174288.09,"N_COORD97":2545264.6600000001,"ADDRESS":"國光六街６號","OBJECTID":554916},"geometry":{"x":174288.09000000171,"y":2545264.660000002}},{"attributes":{"ID":554944,"DIS_CODE":0,"TOWNNAME":"永康區","LI":"西灣里","LIN":"21鄰","STREET":"國光六街","SECT":" ","MAREA":" ","LANE":" ","ALLEY":" ","HOUSE_NO":"８號","E_COORD97":174291.72,"N_COORD97":2545263.7999999998,"ADDRESS":"國光六街８號","OBJECTID":554917},"geometry":{"x":174291.71999999974,"y":2545263.8000000045}},{"attributes":{"ID":554945,"DIS_CODE":0,"TOWNNAME":"永康區","LI":"復華里","LIN":"21鄰","STREET":"復華七街","SECT":" ","MAREA":" ","LANE":" ","ALLEY":" ","HOUSE_NO":"２１９號","E_COORD97":172937.85000000001,"N_COORD97":2546426.9700000002,"ADDRESS":"復華七街２１９號","OBJECTID":554918},"geometry":{"x":172937.84999999963,"y":2546426.9700000025}},{"attributes":{"ID":554946,"DIS_CODE":0,"TOWNNAME":"永康區","LI":"龍潭里","LIN":"21鄰","STREET":"龍安街","SECT":" ","MAREA":" ","LANE":" ","ALLEY":" ","HOUSE_NO":"２９６號","E_COORD97":174811.89999999999,"N_COORD97":2548610.8399999999,"ADDRESS":"龍安街２９６號","OBJECTID":554919},"geometry":{"x":174811.90000000037,"y":2548610.8399999999}},{"attributes":{"ID":554947,"DIS_CODE":0,"TOWNNAME":"永康區","LI":"龍潭里","LIN":"21鄰","STREET":"龍安街","SECT":" ","MAREA":" ","LANE":" ","ALLEY":" ","HOUSE_NO":"２９８號","E_COORD97":174812.75,"N_COORD97":2548605.4300000002,"ADDRESS":"龍安街２９８號","OBJECTID":554920},"geometry":{"x":174812.75000000186,"y":2548605.4300000016}},{"attributes":{"ID":554948,"DIS_CODE":0,"TOWNNAME":"永康區","LI":"龍潭里","LIN":"21鄰","STREET":"龍安街","SECT":" ","MAREA":" ","LANE":" ","ALLEY":" ","HOUSE_NO":"３００號","E_COORD97":174811.5,"N_COORD97":2548598.9700000002,"ADDRESS":"龍安街３００號","OBJECTID":554921},"geometry":{"x":174811.50000000093,"y":2548598.9700000044}},{"attributes":{"ID":554949,"DIS_CODE":0,"TOWNNAME":"中西區","LI":"萬昌里","LIN":"8鄰","STREET":"城隍街","SECT":" ","MAREA":" ","LANE":" ","ALLEY":" ","HOUSE_NO":"５６號","E_COORD97":168838.56,"N_COORD97":2543391.73,"ADDRESS":"城隍街５６號","OBJECTID":554922},"geometry":{"x":168838.56000000052,"y":2543391.7300000004}},{"attributes":{"ID":554950,"DIS_CODE":0,"TOWNNAME":"永康區","LI":"龍潭里","LIN":"21鄰","STREET":"龍安街","SECT":" ","MAREA":" ","LANE":" ","ALLEY":" ","HOUSE_NO":"３０２號","E_COORD97":174826.03,"N_COORD97":2548608.1299999999,"ADDRESS":"龍安街３０２號","OBJECTID":554923},"geometry":{"x":174826.03000000026,"y":2548608.129999999}},{"attributes":{"ID":554951,"DIS_CODE":0,"TOWNNAME":"永康區","LI":"龍潭里","LIN":"21鄰","STREET":"龍安街","SECT":" ","MAREA":" ","LANE":" ","ALLEY":" ","HOUSE_NO":"３０６號","E_COORD97":174825.79999999999,"N_COORD97":2548625.8900000001,"ADDRESS":"龍安街３０６號","OBJECTID":554924},"geometry":{"x":174825.80000000168,"y":2548625.8900000006}},{"attributes":{"ID":554952,"DIS_CODE":0,"TOWNNAME":"永康區","LI":"龍潭里","LIN":"21鄰","STREET":"龍安街","SECT":" ","MAREA":" ","LANE":" ","ALLEY":" ","HOUSE_NO":"３０８號","E_COORD97":174835.06,"N_COORD97":2548633.2999999998,"ADDRESS":"龍安街３０８號","OBJECTID":554925},"geometry":{"x":174835.05999999959,"y":2548633.3000000007}},{"attributes":{"ID":554953,"DIS_CODE":0,"TOWNNAME":"永康區","LI":"龍潭里","LIN":"21鄰","STREET":"龍安街","SECT":" ","MAREA":" ","LANE":" ","ALLEY":" ","HOUSE_NO":"３１０號","E_COORD97":174846.67999999999,"N_COORD97":2548629.9300000002,"ADDRESS":"龍安街３１０號","OBJECTID":554926},"geometry":{"x":174846.68000000156,"y":2548629.9300000016}},{"attributes":{"ID":554954,"DIS_CODE":0,"TOWNNAME":"永康區","LI":"龍潭里","LIN":"21鄰","STREET":"龍安街","SECT":" ","MAREA":" ","LANE":" ","ALLEY":" ","HOUSE_NO":"３１２號","E_COORD97":174848.51999999999,"N_COORD97":2548626.6600000001,"ADDRESS":"龍安街３１２號","OBJECTID":554927},"geometry":{"x":174848.51999999955,"y":2548626.6600000001}},{"attributes":{"ID":554955,"DIS_CODE":0,"TOWNNAME":"永康區","LI":"龍潭里","LIN":"21鄰","STREET":"龍安街","SECT":" ","MAREA":" ","LANE":" ","ALLEY":" ","HOUSE_NO":"３１６號","E_COORD97":174850.26000000001,"N_COORD97":2548623.3300000001,"ADDRESS":"龍安街３１６號","OBJECTID":554928},"geometry":{"x":174850.26000000071,"y":2548623.3300000019}},{"attributes":{"ID":554956,"DIS_CODE":0,"TOWNNAME":"永康區","LI":"龍潭里","LIN":"21鄰","STREET":"龍安街","SECT":" ","MAREA":" ","LANE":" ","ALLEY":" ","HOUSE_NO":"３１８號","E_COORD97":174852.20999999999,"N_COORD97":2548620.0600000001,"ADDRESS":"龍安街３１８號","OBJECTID":554929},"geometry":{"x":174852.21000000089,"y":2548620.0600000005}},{"attributes":{"ID":554957,"DIS_CODE":0,"TOWNNAME":"永康區","LI":"龍潭里","LIN":"21鄰","STREET":"龍安街","SECT":" ","MAREA":" ","LANE":" ","ALLEY":" ","HOUSE_NO":"３２０號","E_COORD97":174853.64000000001,"N_COORD97":2548616.5299999998,"ADDRESS":"龍安街３２０號","OBJECTID":554930},"geometry":{"x":174853.63999999873,"y":2548616.5299999993}},{"attributes":{"ID":554958,"DIS_CODE":0,"TOWNNAME":"永康區","LI":"龍潭里","LIN":"21鄰","STREET":"龍安街","SECT":" ","MAREA":" ","LANE":" ","ALLEY":" ","HOUSE_NO":"３２２號","E_COORD97":174855.62,"N_COORD97":2548613.21,"ADDRESS":"龍安街３２２號","OBJECTID":554931},"geometry":{"x":174855.62000000011,"y":2548613.2100000009}},{"attributes":{"ID":554959,"DIS_CODE":0,"TOWNNAME":"永康區","LI":"龍潭里","LIN":"21鄰","STREET":"龍安街","SECT":" ","MAREA":" ","LANE":" ","ALLEY":" ","HOUSE_NO":"３２６號","E_COORD97":174857.69,"N_COORD97":2548610.0099999998,"ADDRESS":"龍安街３２６號","OBJECTID":554932},"geometry":{"x":174857.69000000227,"y":2548610.0099999998}},{"attributes":{"ID":554960,"DIS_CODE":0,"TOWNNAME":"永康區","LI":"龍潭里","LIN":"21鄰","STREET":"龍安街","SECT":" ","MAREA":" ","LANE":" ","ALLEY":" ","HOUSE_NO":"３２８號","E_COORD97":174859.57999999999,"N_COORD97":2548606.9300000002,"ADDRESS":"龍安街３２８號","OBJECTID":554933},"geometry":{"x":174859.57999999914,"y":2548606.9299999997}},{"attributes":{"ID":554961,"DIS_CODE":0,"TOWNNAME":"永康區","LI":"龍潭里","LIN":"21鄰","STREET":"龍安街","SECT":" ","MAREA":" ","LANE":" ","ALLEY":" ","HOUSE_NO":"３３０號","E_COORD97":174861.22,"N_COORD97":2548603.1299999999,"ADDRESS":"龍安街３３０號","OBJECTID":554934},"geometry":{"x":174861.21999999974,"y":2548603.1300000008}},{"attributes":{"ID":554962,"DIS_CODE":0,"TOWNNAME":"永康區","LI":"龍潭里","LIN":"21鄰","STREET":"龍安街","SECT":" ","MAREA":" ","LANE":" ","ALLEY":" ","HOUSE_NO":"３３６號","E_COORD97":174869.07999999999,"N_COORD97":2548587.6000000001,"ADDRESS":"龍安街３３６號","OBJECTID":554935},"geometry":{"x":174869.08000000007,"y":2548587.6000000015}},{"attributes":{"ID":554963,"DIS_CODE":0,"TOWNNAME":"永康區","LI":"龍潭里","LIN":"21鄰","STREET":"龍安街","SECT":" ","MAREA":" ","LANE":" ","ALLEY":" ","HOUSE_NO":"３３８號","E_COORD97":174872.17999999999,"N_COORD97":2548581.9399999999,"ADDRESS":"龍安街３３８號","OBJECTID":554936},"geometry":{"x":174872.18000000156,"y":2548581.9400000013}},{"attributes":{"ID":554964,"DIS_CODE":0,"TOWNNAME":"永康區","LI":"龍潭里","LIN":"21鄰","STREET":"龍安街","SECT":" ","MAREA":" ","LANE":" ","ALLEY":" ","HOUSE_NO":"３４０號","E_COORD97":174874.85000000001,"N_COORD97":2548576.3900000001,"ADDRESS":"龍安街３４０號","OBJECTID":554937},"geometry":{"x":174874.85000000056,"y":2548576.3900000025}},{"attributes":{"ID":554965,"DIS_CODE":0,"TOWNNAME":"永康區","LI":"龍潭里","LIN":"21鄰","STREET":"龍安街","SECT":" ","MAREA":" ","LANE":" ","ALLEY":" ","HOUSE_NO":"３４２號","E_COORD97":174878.20999999999,"N_COORD97":2548570.52,"ADDRESS":"龍安街３４２號","OBJECTID":554938},"geometry":{"x":174878.20999999996,"y":2548570.5200000014}},{"attributes":{"ID":554966,"DIS_CODE":0,"TOWNNAME":"永康區","LI":"龍潭里","LIN":"21鄰","STREET":"龍安街","SECT":" ","MAREA":" ","LANE":" ","ALLEY":" ","HOUSE_NO":"３４６號","E_COORD97":174881.04999999999,"N_COORD97":2548565.8399999999,"ADDRESS":"龍安街３４６號","OBJECTID":554939},"geometry":{"x":174881.04999999981,"y":2548565.8400000017}},{"attributes":{"ID":554967,"DIS_CODE":0,"TOWNNAME":"永康區","LI":"龍潭里","LIN":"21鄰","STREET":"龍安街","SECT":" ","MAREA":" ","LANE":" ","ALLEY":" ","HOUSE_NO":"３５０號","E_COORD97":174884.19,"N_COORD97":2548560.1000000001,"ADDRESS":"龍安街３５０號","OBJECTID":554940},"geometry":{"x":174884.19000000041,"y":2548560.1000000015}},{"attributes":{"ID":554968,"DIS_CODE":0,"TOWNNAME":"永康區","LI":"龍潭里","LIN":"21鄰","STREET":"龍安街","SECT":" ","MAREA":" ","LANE":" ","ALLEY":" ","HOUSE_NO":"３５２號","E_COORD97":174887.14000000001,"N_COORD97":2548554.5099999998,"ADDRESS":"龍安街３５２號","OBJECTID":554941},"geometry":{"x":174887.13999999966,"y":2548554.5100000016}},{"attributes":{"ID":554969,"DIS_CODE":0,"TOWNNAME":"永康區","LI":"龍潭里","LIN":"21鄰","STREET":"龍安街","SECT":" ","MAREA":" ","LANE":" ","ALLEY":" ","HOUSE_NO":"３５６號","E_COORD97":174890.13,"N_COORD97":2548549.0099999998,"ADDRESS":"龍安街３５６號","OBJECTID":554942},"geometry":{"x":174890.13000000082,"y":2548549.0099999998}},{"attributes":{"ID":554970,"DIS_CODE":0,"TOWNNAME":"中西區","LI":"三民里","LIN":"4鄰","STREET":"民生路","SECT":"一段","MAREA":" ","LANE":" ","ALLEY":" ","HOUSE_NO":"２８號","E_COORD97":168399.07999999999,"N_COORD97":2543751.6200000001,"ADDRESS":"民生路一段２８號","OBJECTID":554943},"geometry":{"x":168399.08000000007,"y":2543751.620000001}},{"attributes":{"ID":554971,"DIS_CODE":0,"TOWNNAME":"中西區","LI":"三民里","LIN":"4鄰","STREET":"民生路","SECT":"一段","MAREA":" ","LANE":" ","ALLEY":" ","HOUSE_NO":"３０號","E_COORD97":168395.07000000001,"N_COORD97":2543752.2400000002,"ADDRESS":"民生路一段３０號","OBJECTID":554944},"geometry":{"x":168395.07000000123,"y":2543752.2400000021}},{"attributes":{"ID":554972,"DIS_CODE":0,"TOWNNAME":"永康區","LI":"西灣里","LIN":"21鄰","STREET":"永大路","SECT":"二段","MAREA":" ","LANE":" ","ALLEY":" ","HOUSE_NO":"２５９號","E_COORD97":174358.23000000001,"N_COORD97":2545464.5,"ADDRESS":"永大路二段２５９號","OBJECTID":554945},"geometry":{"x":174358.23000000045,"y":2545464.5}},{"attributes":{"ID":554973,"DIS_CODE":0,"TOWNNAME":"永康區","LI":"西灣里","LIN":"21鄰","STREET":"永大路","SECT":"二段","MAREA":" ","LANE":" ","ALLEY":" ","HOUSE_NO":"２６１號","E_COORD97":174359.53,"N_COORD97":2545468.9900000002,"ADDRESS":"永大路二段２６１號","OBJECTID":554946},"geometry":{"x":174359.53000000026,"y":2545468.9900000039}},{"attributes":{"ID":554974,"DIS_CODE":0,"TOWNNAME":"永康區","LI":"西灣里","LIN":"21鄰","STREET":"永大路","SECT":"二段","MAREA":" ","LANE":" ","ALLEY":" ","HOUSE_NO":"２６３號","E_COORD97":174361.92999999999,"N_COORD97":2545472.8399999999,"ADDRESS":"永大路二段２６３號","OBJECTID":554947},"geometry":{"x":174361.93000000156,"y":2545472.8400000036}},{"attributes":{"ID":554975,"DIS_CODE":0,"TOWNNAME":"永康區","LI":"正強里","LIN":"21鄰","STREET":"自強路","SECT":" ","MAREA":" ","LANE":" ","ALLEY":" ","HOUSE_NO":"３５７號","E_COORD97":173511.72,"N_COORD97":2547804.9700000002,"ADDRESS":"自強路３５７號","OBJECTID":554948},"geometry":{"x":173511.71999999974,"y":2547804.9700000007}},{"attributes":{"ID":554976,"DIS_CODE":0,"TOWNNAME":"下營區","LI":"營前里","LIN":"21鄰","STREET":"裕農街","SECT":" ","MAREA":" ","LANE":" ","ALLEY":" ","HOUSE_NO":"５號","E_COORD97":175058.87,"N_COORD97":2570368.8799999999,"ADDRESS":"裕農街５號","OBJECTID":554949},"geometry":{"x":175058.87000000011,"y":2570368.8800000008}},{"attributes":{"ID":554977,"DIS_CODE":0,"TOWNNAME":"中西區","LI":"萬昌里","LIN":"1鄰","STREET":"民權路","SECT":"一段","MAREA":" ","LANE":" ","ALLEY":" ","HOUSE_NO":"２５號","E_COORD97":169069.62,"N_COORD97":2543323,"ADDRESS":"民權路一段２５號","OBJECTID":554950},"geometry":{"x":169069.62000000011,"y":2543323.0000000019}},{"attributes":{"ID":554978,"DIS_CODE":0,"TOWNNAME":"中西區","LI":"萬昌里","LIN":"1鄰","STREET":"民權路","SECT":"一段","MAREA":" ","LANE":" ","ALLEY":" ","HOUSE_NO":"２７號","E_COORD97":169065.39999999999,"N_COORD97":2543323.1899999999,"ADDRESS":"民權路一段２７號","OBJECTID":554951},"geometry":{"x":169065.40000000224,"y":2543323.1899999995}},{"attributes":{"ID":554979,"DIS_CODE":0,"TOWNNAME":"中西區","LI":"萬昌里","LIN":"1鄰","STREET":"民權路","SECT":"一段","MAREA":" ","LANE":" ","ALLEY":" ","HOUSE_NO":"２９號","E_COORD97":169060.82999999999,"N_COORD97":2543324.8599999999,"ADDRESS":"民權路一段２９號","OBJECTID":554952},"geometry":{"x":169060.83000000101,"y":2543324.8599999994}},{"attributes":{"ID":554980,"DIS_CODE":0,"TOWNNAME":"中西區","LI":"萬昌里","LIN":"1鄰","STREET":"民權路","SECT":"一段","MAREA":" ","LANE":" ","ALLEY":" ","HOUSE_NO":"３１號","E_COORD97":169057.32000000001,"N_COORD97":2543327.5699999998,"ADDRESS":"民權路一段３１號","OBJECTID":554953},"geometry":{"x":169057.32000000216,"y":2543327.5700000003}},{"attributes":{"ID":554981,"DIS_CODE":0,"TOWNNAME":"中西區","LI":"萬昌里","LIN":"1鄰","STREET":"民權路","SECT":"一段","MAREA":" ","LANE":" ","ALLEY":" ","HOUSE_NO":"３３號","E_COORD97":169053.5,"N_COORD97":2543330.27,"ADDRESS":"民權路一段３３號","OBJECTID":554954},"geometry":{"x":169053.5,"y":2543330.2700000033}},{"attributes":{"ID":554982,"DIS_CODE":0,"TOWNNAME":"中西區","LI":"萬昌里","LIN":"1鄰","STREET":"民權路","SECT":"一段","MAREA":" ","LANE":" ","ALLEY":" ","HOUSE_NO":"３５號","E_COORD97":169052.38,"N_COORD97":2543337.27,"ADDRESS":"民權路一段３５號","OBJECTID":554955},"geometry":{"x":169052.37999999989,"y":2543337.2700000033}},{"attributes":{"ID":554983,"DIS_CODE":0,"TOWNNAME":"中西區","LI":"萬昌里","LIN":"1鄰","STREET":"民權路","SECT":"一段","MAREA":" ","LANE":" ","ALLEY":" ","HOUSE_NO":"３７號","E_COORD97":169048.23999999999,"N_COORD97":2543339.0299999998,"ADDRESS":"民權路一段３７號","OBJECTID":554956},"geometry":{"x":169048.24000000115,"y":2543339.0300000012}},{"attributes":{"ID":554984,"DIS_CODE":0,"TOWNNAME":"中西區","LI":"萬昌里","LIN":"1鄰","STREET":"民權路","SECT":"一段","MAREA":" ","LANE":" ","ALLEY":" ","HOUSE_NO":"３９號","E_COORD97":169044.89000000001,"N_COORD97":2543341.8900000001,"ADDRESS":"民權路一段３９號","OBJECTID":554957},"geometry":{"x":169044.8900000006,"y":2543341.8900000025}},{"attributes":{"ID":554985,"DIS_CODE":0,"TOWNNAME":"中西區","LI":"萬昌里","LIN":"1鄰","STREET":"民權路","SECT":"一段","MAREA":" ","LANE":" ","ALLEY":" ","HOUSE_NO":"３號","E_COORD97":169098.20999999999,"N_COORD97":2543298.2799999998,"ADDRESS":"民權路一段３號","OBJECTID":554958},"geometry":{"x":169098.20999999996,"y":2543298.2799999993}},{"attributes":{"ID":554986,"DIS_CODE":0,"TOWNNAME":"中西區","LI":"萬昌里","LIN":"1鄰","STREET":"民權路","SECT":"一段","MAREA":" ","LANE":" ","ALLEY":" ","HOUSE_NO":"４１號","E_COORD97":169035.48999999999,"N_COORD97":2543347.7000000002,"ADDRESS":"民權路一段４１號","OBJECTID":554959},"geometry":{"x":169035.49000000022,"y":2543347.7000000011}},{"attributes":{"ID":554987,"DIS_CODE":0,"TOWNNAME":"中西區","LI":"萬昌里","LIN":"1鄰","STREET":"民權路","SECT":"一段","MAREA":" ","LANE":" ","ALLEY":" ","HOUSE_NO":"４３號","E_COORD97":169032.78,"N_COORD97":2543352.1600000001,"ADDRESS":"民權路一段４３號","OBJECTID":554960},"geometry":{"x":169032.78000000119,"y":2543352.1600000039}},{"attributes":{"ID":554988,"DIS_CODE":0,"TOWNNAME":"中西區","LI":"萬昌里","LIN":"1鄰","STREET":"民權路","SECT":"一段","MAREA":" ","LANE":" ","ALLEY":" ","HOUSE_NO":"４５號","E_COORD97":169030.07000000001,"N_COORD97":2543354.8599999999,"ADDRESS":"民權路一段４５號","OBJECTID":554961},"geometry":{"x":169030.0700000003,"y":2543354.8600000013}},{"attributes":{"ID":554989,"DIS_CODE":0,"TOWNNAME":"中西區","LI":"萬昌里","LIN":"1鄰","STREET":"民權路","SECT":"一段","MAREA":" ","LANE":" ","ALLEY":" ","HOUSE_NO":"４７號","E_COORD97":169028,"N_COORD97":2543357.4100000001,"ADDRESS":"民權路一段４７號","OBJECTID":554962},"geometry":{"x":169028,"y":2543357.410000002}},{"attributes":{"ID":554990,"DIS_CODE":0,"TOWNNAME":"佳里區","LI":"建南里","LIN":"21鄰","STREET":"祥和五街","SECT":" ","MAREA":" ","LANE":" ","ALLEY":" ","HOUSE_NO":"３９號","E_COORD97":165776.85000000001,"N_COORD97":2561469.48,"ADDRESS":"祥和五街３９號","OBJECTID":554963},"geometry":{"x":165776.85000000056,"y":2561469.4800000023}},{"attributes":{"ID":554991,"DIS_CODE":0,"TOWNNAME":"佳里區","LI":"建南里","LIN":"21鄰","STREET":"祥和五街","SECT":" ","MAREA":" ","LANE":" ","ALLEY":" ","HOUSE_NO":"４０號","E_COORD97":165770.66,"N_COORD97":2561487.8199999998,"ADDRESS":"祥和五街４０號","OBJECTID":554964},"geometry":{"x":165770.66000000015,"y":2561487.8200000022}},{"attributes":{"ID":554992,"DIS_CODE":0,"TOWNNAME":"佳里區","LI":"建南里","LIN":"21鄰","STREET":"祥和五街","SECT":" ","MAREA":" ","LANE":" ","ALLEY":" ","HOUSE_NO":"４１號","E_COORD97":165770.48000000001,"N_COORD97":2561469.3300000001,"ADDRESS":"祥和五街４１號","OBJECTID":554965},"geometry":{"x":165770.48000000045,"y":2561469.3300000019}},{"attributes":{"ID":554993,"DIS_CODE":0,"TOWNNAME":"佳里區","LI":"建南里","LIN":"21鄰","STREET":"祥和五街","SECT":" ","MAREA":" ","LANE":" ","ALLEY":" ","HOUSE_NO":"４２號","E_COORD97":165766.54999999999,"N_COORD97":2561487.3399999999,"ADDRESS":"祥和五街４２號","OBJECTID":554966},"geometry":{"x":165766.55000000168,"y":2561487.3399999999}},{"attributes":{"ID":554994,"DIS_CODE":0,"TOWNNAME":"佳里區","LI":"建南里","LIN":"21鄰","STREET":"祥和五街","SECT":" ","MAREA":" ","LANE":" ","ALLEY":" ","HOUSE_NO":"４３號","E_COORD97":165766.09,"N_COORD97":2561469.0699999998,"ADDRESS":"祥和五街４３號","OBJECTID":554967},"geometry":{"x":165766.08999999985,"y":2561469.0700000022}},{"attributes":{"ID":554995,"DIS_CODE":0,"TOWNNAME":"佳里區","LI":"建南里","LIN":"21鄰","STREET":"祥和五街","SECT":" ","MAREA":" ","LANE":" ","ALLEY":" ","HOUSE_NO":"４５號","E_COORD97":165761.67999999999,"N_COORD97":2561469.3199999998,"ADDRESS":"祥和五街４５號","OBJECTID":554968},"geometry":{"x":165761.6799999997,"y":2561469.320000004}},{"attributes":{"ID":554996,"DIS_CODE":0,"TOWNNAME":"佳里區","LI":"建南里","LIN":"21鄰","STREET":"祥和五街","SECT":" ","MAREA":" ","LANE":" ","ALLEY":" ","HOUSE_NO":"４６號","E_COORD97":165762.59,"N_COORD97":2561487.48,"ADDRESS":"祥和五街４６號","OBJECTID":554969},"geometry":{"x":165762.58999999985,"y":2561487.4800000004}},{"attributes":{"ID":554997,"DIS_CODE":0,"TOWNNAME":"佳里區","LI":"建南里","LIN":"21鄰","STREET":"祥和五街","SECT":" ","MAREA":" ","LANE":" ","ALLEY":" ","HOUSE_NO":"４７號","E_COORD97":165757.22,"N_COORD97":2561469.2599999998,"ADDRESS":"祥和五街４７號","OBJECTID":554970},"geometry":{"x":165757.22000000067,"y":2561469.2600000035}},{"attributes":{"ID":554998,"DIS_CODE":0,"TOWNNAME":"佳里區","LI":"建南里","LIN":"21鄰","STREET":"祥和五街","SECT":" ","MAREA":" ","LANE":" ","ALLEY":" ","HOUSE_NO":"４８號","E_COORD97":165758.67000000001,"N_COORD97":2561487.6000000001,"ADDRESS":"祥和五街４８號","OBJECTID":554971},"geometry":{"x":165758.66999999993,"y":2561487.6000000015}},{"attributes":{"ID":554999,"DIS_CODE":0,"TOWNNAME":"佳里區","LI":"建南里","LIN":"21鄰","STREET":"祥和五街","SECT":" ","MAREA":" ","LANE":" ","ALLEY":" ","HOUSE_NO":"５０號","E_COORD97":165754.10000000001,"N_COORD97":2561487.3500000001,"ADDRESS":"祥和五街５０號","OBJECTID":554972},"geometry":{"x":165754.0999999987,"y":2561487.3499999996}},{"attributes":{"ID":555000,"DIS_CODE":0,"TOWNNAME":"佳里區","LI":"建南里","LIN":"21鄰","STREET":"祥和五街","SECT":" ","MAREA":" ","LANE":" ","ALLEY":" ","HOUSE_NO":"５１號","E_COORD97":165749.57999999999,"N_COORD97":2561469.2599999998,"ADDRESS":"祥和五街５１號","OBJECTID":554973},"geometry":{"x":165749.58000000007,"y":2561469.2600000035}},{"attributes":{"ID":555001,"DIS_CODE":0,"TOWNNAME":"佳里區","LI":"建南里","LIN":"21鄰","STREET":"祥和五街","SECT":" ","MAREA":" ","LANE":" ","ALLEY":" ","HOUSE_NO":"５２號","E_COORD97":165744.29999999999,"N_COORD97":2561487.1899999999,"ADDRESS":"祥和五街５２號","OBJECTID":554974},"geometry":{"x":165744.29999999981,"y":2561487.1900000013}},{"attributes":{"ID":555002,"DIS_CODE":0,"TOWNNAME":"佳里區","LI":"建南里","LIN":"21鄰","STREET":"祥和五街","SECT":" ","MAREA":" ","LANE":" ","ALLEY":" ","HOUSE_NO":"５３號","E_COORD97":165745.17999999999,"N_COORD97":2561469.5600000001,"ADDRESS":"祥和五街５３號","OBJECTID":554975},"geometry":{"x":165745.17999999877,"y":2561469.5600000024}},{"attributes":{"ID":555003,"DIS_CODE":0,"TOWNNAME":"佳里區","LI":"建南里","LIN":"21鄰","STREET":"祥和五街","SECT":" ","MAREA":" ","LANE":" ","ALLEY":" ","HOUSE_NO":"５４號","E_COORD97":165740.34,"N_COORD97":2561487.1899999999,"ADDRESS":"祥和五街５４號","OBJECTID":554976},"geometry":{"x":165740.33999999985,"y":2561487.1900000013}},{"attributes":{"ID":555004,"DIS_CODE":0,"TOWNNAME":"佳里區","LI":"建南里","LIN":"21鄰","STREET":"祥和五街","SECT":" ","MAREA":" ","LANE":" ","ALLEY":" ","HOUSE_NO":"５５號","E_COORD97":165740.62,"N_COORD97":2561469.8100000001,"ADDRESS":"祥和五街５５號","OBJECTID":554977},"geometry":{"x":165740.62000000011,"y":2561469.8100000042}},{"attributes":{"ID":555005,"DIS_CODE":0,"TOWNNAME":"佳里區","LI":"建南里","LIN":"21鄰","STREET":"祥和五街","SECT":" ","MAREA":" ","LANE":" ","ALLEY":" ","HOUSE_NO":"５６號","E_COORD97":165736.20999999999,"N_COORD97":2561487.1299999999,"ADDRESS":"祥和五街５６號","OBJECTID":554978},"geometry":{"x":165736.20999999996,"y":2561487.1300000008}},{"attributes":{"ID":555006,"DIS_CODE":0,"TOWNNAME":"佳里區","LI":"建南里","LIN":"21鄰","STREET":"祥和五街","SECT":" ","MAREA":" ","LANE":" ","ALLEY":" ","HOUSE_NO":"５７號","E_COORD97":165736.60999999999,"N_COORD97":2561469.8300000001,"ADDRESS":"祥和五街５７號","OBJECTID":554979},"geometry":{"x":165736.61000000127,"y":2561469.8300000019}},{"attributes":{"ID":555007,"DIS_CODE":0,"TOWNNAME":"佳里區","LI":"建南里","LIN":"21鄰","STREET":"祥和五街","SECT":" ","MAREA":" ","LANE":" ","ALLEY":" ","HOUSE_NO":"５８號","E_COORD97":165731.81,"N_COORD97":2561487.1400000001,"ADDRESS":"祥和五街５８號","OBJECTID":554980},"geometry":{"x":165731.80999999959,"y":2561487.1400000006}},{"attributes":{"ID":555008,"DIS_CODE":0,"TOWNNAME":"佳里區","LI":"建南里","LIN":"21鄰","STREET":"祥和五街","SECT":" ","MAREA":" ","LANE":" ","ALLEY":" ","HOUSE_NO":"５９號","E_COORD97":165732.04999999999,"N_COORD97":2561469.77,"ADDRESS":"祥和五街５９號","OBJECTID":554981},"geometry":{"x":165732.04999999981,"y":2561469.7700000014}},{"attributes":{"ID":555009,"DIS_CODE":0,"TOWNNAME":"佳里區","LI":"建南里","LIN":"21鄰","STREET":"祥和五街","SECT":" ","MAREA":" ","LANE":" ","ALLEY":" ","HOUSE_NO":"６０號","E_COORD97":165728.17999999999,"N_COORD97":2561487.6800000002,"ADDRESS":"祥和五街６０號","OBJECTID":554982},"geometry":{"x":165728.17999999877,"y":2561487.6800000016}},{"attributes":{"ID":555010,"DIS_CODE":0,"TOWNNAME":"佳里區","LI":"建南里","LIN":"21鄰","STREET":"祥和五街","SECT":" ","MAREA":" ","LANE":" ","ALLEY":" ","HOUSE_NO":"６１號","E_COORD97":165728.01000000001,"N_COORD97":2561469.9500000002,"ADDRESS":"祥和五街６１號","OBJECTID":554983},"geometry":{"x":165728.01000000071,"y":2561469.9499999993}},{"attributes":{"ID":555011,"DIS_CODE":0,"TOWNNAME":"佳里區","LI":"建南里","LIN":"21鄰","STREET":"祥和五街","SECT":" ","MAREA":" ","LANE":" ","ALLEY":" ","HOUSE_NO":"６２號","E_COORD97":165723.98999999999,"N_COORD97":2561487.2400000002,"ADDRESS":"祥和五街６２號","OBJECTID":554984},"geometry":{"x":165723.99000000115,"y":2561487.2400000021}},{"attributes":{"ID":555012,"DIS_CODE":0,"TOWNNAME":"佳里區","LI":"建南里","LIN":"21鄰","STREET":"祥和五街","SECT":" ","MAREA":" ","LANE":" ","ALLEY":" ","HOUSE_NO":"６３號","E_COORD97":165724.29000000001,"N_COORD97":2561470.04,"ADDRESS":"祥和五街６３號","OBJECTID":554985},"geometry":{"x":165724.29000000004,"y":2561470.0400000028}},{"attributes":{"ID":555013,"DIS_CODE":0,"TOWNNAME":"佳里區","LI":"建南里","LIN":"21鄰","STREET":"祥和五街","SECT":" ","MAREA":" ","LANE":" ","ALLEY":" ","HOUSE_NO":"６４號","E_COORD97":165719.78,"N_COORD97":2561487.6899999999,"ADDRESS":"祥和五街６４號","OBJECTID":554986},"geometry":{"x":165719.78000000212,"y":2561487.6900000013}},{"attributes":{"ID":555014,"DIS_CODE":0,"TOWNNAME":"佳里區","LI":"建南里","LIN":"21鄰","STREET":"祥和五街","SECT":" ","MAREA":" ","LANE":" ","ALLEY":" ","HOUSE_NO":"６５號","E_COORD97":165720.13,"N_COORD97":2561469.9700000002,"ADDRESS":"祥和五街６５號","OBJECTID":554987},"geometry":{"x":165720.12999999989,"y":2561469.9700000025}},{"attributes":{"ID":555015,"DIS_CODE":0,"TOWNNAME":"佳里區","LI":"建南里","LIN":"21鄰","STREET":"祥和五街","SECT":" ","MAREA":" ","LANE":" ","ALLEY":" ","HOUSE_NO":"６６號","E_COORD97":165715.32999999999,"N_COORD97":2561487.6000000001,"ADDRESS":"祥和五街６６號","OBJECTID":554988},"geometry":{"x":165715.33000000007,"y":2561487.6000000015}},{"attributes":{"ID":555016,"DIS_CODE":0,"TOWNNAME":"佳里區","LI":"建南里","LIN":"21鄰","STREET":"祥和五街","SECT":" ","MAREA":" ","LANE":" ","ALLEY":" ","HOUSE_NO":"６７號","E_COORD97":165715.57999999999,"N_COORD97":2561469.5899999999,"ADDRESS":"祥和五街６７號","OBJECTID":554989},"geometry":{"x":165715.58000000007,"y":2561469.5899999999}},{"attributes":{"ID":555017,"DIS_CODE":0,"TOWNNAME":"佳里區","LI":"建南里","LIN":"21鄰","STREET":"祥和五街","SECT":" ","MAREA":" ","LANE":" ","ALLEY":" ","HOUSE_NO":"６８號","E_COORD97":165711.07999999999,"N_COORD97":2561487.7799999998,"ADDRESS":"祥和五街６８號","OBJECTID":554990},"geometry":{"x":165711.08000000101,"y":2561487.7799999993}},{"attributes":{"ID":555018,"DIS_CODE":0,"TOWNNAME":"佳里區","LI":"建南里","LIN":"21鄰","STREET":"祥和五街","SECT":" ","MAREA":" ","LANE":" ","ALLEY":" ","HOUSE_NO":"６９號","E_COORD97":165711.42999999999,"N_COORD97":2561469.7999999998,"ADDRESS":"祥和五街６９號","OBJECTID":554991},"geometry":{"x":165711.43000000156,"y":2561469.8000000045}},{"attributes":{"ID":555019,"DIS_CODE":0,"TOWNNAME":"佳里區","LI":"建南里","LIN":"21鄰","STREET":"祥和五街","SECT":" ","MAREA":" ","LANE":" ","ALLEY":" ","HOUSE_NO":"７１號","E_COORD97":165676.95999999999,"N_COORD97":2561464.46,"ADDRESS":"祥和五街７１號","OBJECTID":554992},"geometry":{"x":165676.95999999996,"y":2561464.4600000009}},{"attributes":{"ID":555020,"DIS_CODE":0,"TOWNNAME":"佳里區","LI":"建南里","LIN":"21鄰","STREET":"祥和五街","SECT":" ","MAREA":" ","LANE":" ","ALLEY":" ","HOUSE_NO":"７２號","E_COORD97":165680.07000000001,"N_COORD97":2561489.4100000001,"ADDRESS":"祥和五街７２號","OBJECTID":554993},"geometry":{"x":165680.0700000003,"y":2561489.410000002}},{"attributes":{"ID":555021,"DIS_CODE":0,"TOWNNAME":"學甲區","LI":"明宜里","LIN":"21鄰","STREET":"中山路","SECT":" ","MAREA":" ","LANE":" ","ALLEY":" ","HOUSE_NO":"１８２號之１","E_COORD97":165875.70000000001,"N_COORD97":2570570.27,"ADDRESS":"中山路１８２號之１","OBJECTID":554994},"geometry":{"x":165875.70000000019,"y":2570570.2700000014}},{"attributes":{"ID":555022,"DIS_CODE":0,"TOWNNAME":"學甲區","LI":"明宜里","LIN":"21鄰","STREET":"中山路","SECT":" ","MAREA":" ","LANE":" ","ALLEY":" ","HOUSE_NO":"１８２號","E_COORD97":165880.42000000001,"N_COORD97":2570569.3700000001,"ADDRESS":"中山路１８２號","OBJECTID":554995},"geometry":{"x":165880.41999999993,"y":2570569.3700000048}},{"attributes":{"ID":555023,"DIS_CODE":0,"TOWNNAME":"學甲區","LI":"明宜里","LIN":"21鄰","STREET":"中山路","SECT":" ","MAREA":" ","LANE":" ","ALLEY":" ","HOUSE_NO":"１８６號之１","E_COORD97":165856.75,"N_COORD97":2570573.1699999999,"ADDRESS":"中山路１８６號之１","OBJECTID":554996},"geometry":{"x":165856.75,"y":2570573.1700000037}},{"attributes":{"ID":555024,"DIS_CODE":0,"TOWNNAME":"歸仁區","LI":"辜厝里","LIN":"21鄰","STREET":"大順街","SECT":" ","MAREA":" ","LANE":" ","ALLEY":" ","HOUSE_NO":"２３號","E_COORD97":177441.88,"N_COORD97":2540560.1499999999,"ADDRESS":"大順街２３號","OBJECTID":554997},"geometry":{"x":177441.87999999989,"y":2540560.1500000022}},{"attributes":{"ID":555025,"DIS_CODE":0,"TOWNNAME":"歸仁區","LI":"許厝里","LIN":"21鄰","STREET":"仁愛北街","SECT":" ","MAREA":" ","LANE":" ","ALLEY":" ","HOUSE_NO":"４５號","E_COORD97":178223.73000000001,"N_COORD97":2540817.25,"ADDRESS":"仁愛北街４５號","OBJECTID":554998},"geometry":{"x":178223.73000000045,"y":2540817.25}},{"attributes":{"ID":555026,"DIS_CODE":0,"TOWNNAME":"歸仁區","LI":"許厝里","LIN":"21鄰","STREET":"仁愛六街","SECT":" ","MAREA":" ","LANE":" ","ALLEY":" ","HOUSE_NO":"３６號","E_COORD97":178223.04000000001,"N_COORD97":2540790.5600000001,"ADDRESS":"仁愛六街３６號","OBJECTID":554999},"geometry":{"x":178223.03999999911,"y":2540790.5600000024}},{"attributes":{"ID":555027,"DIS_CODE":0,"TOWNNAME":"歸仁區","LI":"許厝里","LIN":"21鄰","STREET":"仁愛六街","SECT":" ","MAREA":" ","LANE":" ","ALLEY":" ","HOUSE_NO":"３０號","E_COORD97":178234.34,"N_COORD97":2540789.5600000001,"ADDRESS":"仁愛六街３０號","OBJECTID":555000},"geometry":{"x":178234.33999999985,"y":2540789.5600000005}}]}