{"displayFieldName":"TOWNNAME","fieldAliases":{"ID":"ID","DIS_CODE":"DIS_CODE","TOWNNAME":"TOWNNAME","LI":"LI","LIN":"LIN","STREET":"STREET","SECT":"SECT","MAREA":"MAREA","LANE":"LANE","ALLEY":"ALLEY","HOUSE_NO":"HOUSE_NO","E_COORD97":"E_COORD97","N_COORD97":"N_COORD97","ADDRESS":"ADDRESS","OBJECTID":"OBJECTID"},"geometryType":"esriGeometryPoint","spatialReference":{"wkid":102443,"latestWkid":3826},"fields":[{"name":"ID","type":"esriFieldTypeDouble","alias":"ID"},{"name":"DIS_CODE","type":"esriFieldTypeInteger","alias":"DIS_CODE"},{"name":"TOWNNAME","type":"esriFieldTypeString","alias":"TOWNNAME","length":8},{"name":"LI","type":"esriFieldTypeString","alias":"LI","length":8},{"name":"LIN","type":"esriFieldTypeString","alias":"LIN","length":12},{"name":"STREET","type":"esriFieldTypeString","alias":"STREET","length":20},{"name":"SECT","type":"esriFieldTypeString","alias":"SECT","length":8},{"name":"MAREA","type":"esriFieldTypeString","alias":"MAREA","length":12},{"name":"LANE","type":"esriFieldTypeString","alias":"LANE","length":10},{"name":"ALLEY","type":"esriFieldTypeString","alias":"ALLEY","length":10},{"name":"HOUSE_NO","type":"esriFieldTypeString","alias":"HOUSE_NO","length":20},{"name":"E_COORD97","type":"esriFieldTypeDouble","alias":"E_COORD97"},{"name":"N_COORD97","type":"esriFieldTypeDouble","alias":"N_COORD97"},{"name":"ADDRESS","type":"esriFieldTypeString","alias":"ADDRESS","length":50},{"name":"OBJECTID","type":"esriFieldTypeOID","alias":"OBJECTID"}],"features":[{"attributes":{"ID":383611,"DIS_CODE":0,"TOWNNAME":"安南區","LI":"城南里","LIN":"9鄰","STREET":"城西街","SECT":"一段","MAREA":" ","LANE":"２４９巷","ALLEY":" ","HOUSE_NO":"１０５號","E_COORD97":160340.12,"N_COORD97":2551114.0800000001,"ADDRESS":"城西街一段２４９巷１０５號","OBJECTID":383601},"geometry":{"x":160340.12000000197,"y":2551114.0800000019}},{"attributes":{"ID":383612,"DIS_CODE":0,"TOWNNAME":"安南區","LI":"城南里","LIN":"9鄰","STREET":"城西街","SECT":"一段","MAREA":" ","LANE":"２４９巷","ALLEY":" ","HOUSE_NO":"１０７號","E_COORD97":160335.39000000001,"N_COORD97":2551112.3399999999,"ADDRESS":"城西街一段２４９巷１０７號","OBJECTID":383602},"geometry":{"x":160335.38999999966,"y":2551112.3400000017}},{"attributes":{"ID":383613,"DIS_CODE":0,"TOWNNAME":"安南區","LI":"城南里","LIN":"9鄰","STREET":"城西街","SECT":"一段","MAREA":" ","LANE":"２４９巷","ALLEY":" ","HOUSE_NO":"１０９號","E_COORD97":160330.92000000001,"N_COORD97":2551110.3500000001,"ADDRESS":"城西街一段２４９巷１０９號","OBJECTID":383603},"geometry":{"x":160330.91999999993,"y":2551110.3499999996}},{"attributes":{"ID":383614,"DIS_CODE":0,"TOWNNAME":"安南區","LI":"城南里","LIN":"9鄰","STREET":"城西街","SECT":"一段","MAREA":" ","LANE":"２４９巷","ALLEY":" ","HOUSE_NO":"８１號","E_COORD97":160375.92000000001,"N_COORD97":2551058.3199999998,"ADDRESS":"城西街一段２４９巷８１號","OBJECTID":383604},"geometry":{"x":160375.92000000086,"y":2551058.3200000022}},{"attributes":{"ID":383615,"DIS_CODE":0,"TOWNNAME":"東區","LI":"圍下里","LIN":"18鄰","STREET":"慶東街","SECT":" ","MAREA":" ","LANE":"１６２巷","ALLEY":" ","HOUSE_NO":"９號","E_COORD97":169711.51000000001,"N_COORD97":2543422.8500000001,"ADDRESS":"慶東街１６２巷９號","OBJECTID":383605},"geometry":{"x":169711.51000000164,"y":2543422.8500000015}},{"attributes":{"ID":383616,"DIS_CODE":0,"TOWNNAME":"東區","LI":"圍下里","LIN":"18鄰","STREET":"慶東街","SECT":" ","MAREA":" ","LANE":"１６２巷","ALLEY":" ","HOUSE_NO":"１０號","E_COORD97":169711.73000000001,"N_COORD97":2543410.4700000002,"ADDRESS":"慶東街１６２巷１０號","OBJECTID":383606},"geometry":{"x":169711.73000000045,"y":2543410.4700000007}},{"attributes":{"ID":383617,"DIS_CODE":0,"TOWNNAME":"東區","LI":"圍下里","LIN":"18鄰","STREET":"慶東街","SECT":" ","MAREA":" ","LANE":"１８０巷","ALLEY":" ","HOUSE_NO":"１號","E_COORD97":169700.79000000001,"N_COORD97":2543477.73,"ADDRESS":"慶東街１８０巷１號","OBJECTID":383607},"geometry":{"x":169700.79000000004,"y":2543477.7300000023}},{"attributes":{"ID":383618,"DIS_CODE":0,"TOWNNAME":"東區","LI":"圍下里","LIN":"18鄰","STREET":"慶東街","SECT":" ","MAREA":" ","LANE":"１８０巷","ALLEY":" ","HOUSE_NO":"２號","E_COORD97":169694.57000000001,"N_COORD97":2543472.5499999998,"ADDRESS":"慶東街１８０巷２號","OBJECTID":383608},"geometry":{"x":169694.5700000003,"y":2543472.5500000026}},{"attributes":{"ID":383619,"DIS_CODE":0,"TOWNNAME":"東區","LI":"圍下里","LIN":"18鄰","STREET":"慶東街","SECT":" ","MAREA":" ","LANE":"１８０巷","ALLEY":" ","HOUSE_NO":"３號","E_COORD97":169702.17000000001,"N_COORD97":2543470.48,"ADDRESS":"慶東街１８０巷３號","OBJECTID":383609},"geometry":{"x":169702.17000000179,"y":2543470.4800000023}},{"attributes":{"ID":383620,"DIS_CODE":0,"TOWNNAME":"東區","LI":"圍下里","LIN":"18鄰","STREET":"慶東街","SECT":" ","MAREA":" ","LANE":"１８０巷","ALLEY":" ","HOUSE_NO":"５號","E_COORD97":169702.85999999999,"N_COORD97":2543463,"ADDRESS":"慶東街１８０巷５號","OBJECTID":383610},"geometry":{"x":169702.8599999994,"y":2543463.0000000019}},{"attributes":{"ID":383621,"DIS_CODE":0,"TOWNNAME":"安南區","LI":"城南里","LIN":"9鄰","STREET":"城西街","SECT":"一段","MAREA":" ","LANE":"２４９巷","ALLEY":" ","HOUSE_NO":"９３號","E_COORD97":160365.48000000001,"N_COORD97":2551088.5099999998,"ADDRESS":"城西街一段２４９巷９３號","OBJECTID":383611},"geometry":{"x":160365.48000000138,"y":2551088.5099999998}},{"attributes":{"ID":383622,"DIS_CODE":0,"TOWNNAME":"安南區","LI":"城南里","LIN":"9鄰","STREET":"城西街","SECT":"一段","MAREA":" ","LANE":"２４９巷","ALLEY":" ","HOUSE_NO":"９５號","E_COORD97":160352.29999999999,"N_COORD97":2551095.46,"ADDRESS":"城西街一段２４９巷９５號","OBJECTID":383612},"geometry":{"x":160352.30000000168,"y":2551095.4600000028}},{"attributes":{"ID":383623,"DIS_CODE":0,"TOWNNAME":"安南區","LI":"城南里","LIN":"9鄰","STREET":"城西街","SECT":"一段","MAREA":" ","LANE":"２４９巷","ALLEY":" ","HOUSE_NO":"９７號","E_COORD97":160352.04999999999,"N_COORD97":2551100.1800000002,"ADDRESS":"城西街一段２４９巷９７號","OBJECTID":383613},"geometry":{"x":160352.04999999888,"y":2551100.1799999997}},{"attributes":{"ID":383624,"DIS_CODE":0,"TOWNNAME":"安南區","LI":"城南里","LIN":"9鄰","STREET":"城西街","SECT":"一段","MAREA":" ","LANE":"２４９巷","ALLEY":" ","HOUSE_NO":"９９號","E_COORD97":160350.06,"N_COORD97":2551104.8900000001,"ADDRESS":"城西街一段２４９巷９９號","OBJECTID":383614},"geometry":{"x":160350.05999999866,"y":2551104.8900000043}},{"attributes":{"ID":383625,"DIS_CODE":0,"TOWNNAME":"東區","LI":"圍下里","LIN":"18鄰","STREET":"慶東街","SECT":" ","MAREA":" ","LANE":"１４８巷","ALLEY":" ","HOUSE_NO":"１號","E_COORD97":169686.48999999999,"N_COORD97":2543383.04,"ADDRESS":"慶東街１４８巷１號","OBJECTID":383615},"geometry":{"x":169686.49000000022,"y":2543383.040000001}},{"attributes":{"ID":383626,"DIS_CODE":0,"TOWNNAME":"東區","LI":"圍下里","LIN":"18鄰","STREET":"慶東街","SECT":" ","MAREA":" ","LANE":"１４８巷","ALLEY":" ","HOUSE_NO":"２號","E_COORD97":169688.91,"N_COORD97":2543373.1699999999,"ADDRESS":"慶東街１４８巷２號","OBJECTID":383616},"geometry":{"x":169688.91000000201,"y":2543373.1700000018}},{"attributes":{"ID":383627,"DIS_CODE":0,"TOWNNAME":"東區","LI":"圍下里","LIN":"18鄰","STREET":"慶東街","SECT":" ","MAREA":" ","LANE":"１４８巷","ALLEY":" ","HOUSE_NO":"４號","E_COORD97":169696.39999999999,"N_COORD97":2543373.0600000001,"ADDRESS":"慶東街１４８巷４號","OBJECTID":383617},"geometry":{"x":169696.4000000013,"y":2543373.0600000005}},{"attributes":{"ID":383628,"DIS_CODE":0,"TOWNNAME":"新市區","LI":"永就里","LIN":"9鄰","STREET":"中山路","SECT":" ","MAREA":" ","LANE":"工業巷","ALLEY":" ","HOUSE_NO":"１２號","E_COORD97":177561.13,"N_COORD97":2551984.25,"ADDRESS":"中山路工業巷１２號","OBJECTID":383618},"geometry":{"x":177561.12999999989,"y":2551984.2500000019}},{"attributes":{"ID":383629,"DIS_CODE":0,"TOWNNAME":"安南區","LI":"州南里","LIN":"9鄰","STREET":"安和路","SECT":"五段","MAREA":" ","LANE":"８１巷","ALLEY":" ","HOUSE_NO":"９３號","E_COORD97":169717.53833099999,"N_COORD97":2551590.53412,"ADDRESS":"安和路五段８１巷９３號","OBJECTID":383619},"geometry":{"x":169717.53833100107,"y":2551590.5341190007}},{"attributes":{"ID":383630,"DIS_CODE":0,"TOWNNAME":"安南區","LI":"州南里","LIN":"9鄰","STREET":"安和路","SECT":"五段","MAREA":" ","LANE":"８１巷","ALLEY":" ","HOUSE_NO":"５１號","E_COORD97":169804.98407800001,"N_COORD97":2551629.4807600002,"ADDRESS":"安和路五段８１巷５１號","OBJECTID":383620},"geometry":{"x":169804.98407800123,"y":2551629.4807640016}},{"attributes":{"ID":383631,"DIS_CODE":0,"TOWNNAME":"安南區","LI":"州南里","LIN":"9鄰","STREET":"安和路","SECT":"五段","MAREA":" ","LANE":"８１巷","ALLEY":" ","HOUSE_NO":"５３號","E_COORD97":169801.59635000001,"N_COORD97":2551627.9991000001,"ADDRESS":"安和路五段８１巷５３號","OBJECTID":383621},"geometry":{"x":169801.59635000024,"y":2551627.9990979992}},{"attributes":{"ID":383632,"DIS_CODE":0,"TOWNNAME":"安南區","LI":"州南里","LIN":"9鄰","STREET":"安和路","SECT":"五段","MAREA":" ","LANE":"８１巷","ALLEY":" ","HOUSE_NO":"５５號","E_COORD97":169798.420354,"N_COORD97":2551626.51743,"ADDRESS":"安和路五段８１巷５５號","OBJECTID":383622},"geometry":{"x":169798.42035400029,"y":2551626.5174329989}},{"attributes":{"ID":383633,"DIS_CODE":0,"TOWNNAME":"安南區","LI":"州南里","LIN":"9鄰","STREET":"安和路","SECT":"五段","MAREA":" ","LANE":"８１巷","ALLEY":" ","HOUSE_NO":"５９號","E_COORD97":169786.77503700001,"N_COORD97":2551621.6491,"ADDRESS":"安和路五段８１巷５９號","OBJECTID":383623},"geometry":{"x":169786.77503700089,"y":2551621.6491020005}},{"attributes":{"ID":383634,"DIS_CODE":0,"TOWNNAME":"安南區","LI":"州南里","LIN":"9鄰","STREET":"安和路","SECT":"五段","MAREA":" ","LANE":"８１巷","ALLEY":" ","HOUSE_NO":"６３號","E_COORD97":169780.211312,"N_COORD97":2551620.16744,"ADDRESS":"安和路五段８１巷６３號","OBJECTID":383624},"geometry":{"x":169780.21131200064,"y":2551620.167436}},{"attributes":{"ID":383635,"DIS_CODE":0,"TOWNNAME":"安南區","LI":"州南里","LIN":"9鄰","STREET":"安和路","SECT":"五段","MAREA":" ","LANE":"８１巷","ALLEY":" ","HOUSE_NO":"６１號","E_COORD97":169783.59904100001,"N_COORD97":2551620.3791,"ADDRESS":"安和路五段８１巷６１號","OBJECTID":383625},"geometry":{"x":169783.59904100094,"y":2551620.3791030012}},{"attributes":{"ID":383636,"DIS_CODE":0,"TOWNNAME":"安南區","LI":"州南里","LIN":"9鄰","STREET":"安和路","SECT":"五段","MAREA":" ","LANE":"８１巷","ALLEY":" ","HOUSE_NO":"４９號","E_COORD97":169808.58353999999,"N_COORD97":2551631.8091000002,"ADDRESS":"安和路五段８１巷４９號","OBJECTID":383626},"geometry":{"x":169808.58354000095,"y":2551631.809096003}},{"attributes":{"ID":383637,"DIS_CODE":0,"TOWNNAME":"安南區","LI":"安和里","LIN":"9鄰","STREET":"安和路","SECT":"一段","MAREA":" ","LANE":"１８巷","ALLEY":" ","HOUSE_NO":"２７號","E_COORD97":169670.51000000001,"N_COORD97":2547483.6600000001,"ADDRESS":"安和路一段１８巷２７號","OBJECTID":383627},"geometry":{"x":169670.50999999978,"y":2547483.6600000001}},{"attributes":{"ID":383638,"DIS_CODE":0,"TOWNNAME":"安南區","LI":"安和里","LIN":"9鄰","STREET":"安和路","SECT":"一段","MAREA":" ","LANE":"１８巷","ALLEY":" ","HOUSE_NO":"３０號","E_COORD97":169673.01000000001,"N_COORD97":2547505,"ADDRESS":"安和路一段１８巷３０號","OBJECTID":383628},"geometry":{"x":169673.01000000071,"y":2547505}},{"attributes":{"ID":383639,"DIS_CODE":0,"TOWNNAME":"安南區","LI":"安和里","LIN":"9鄰","STREET":"安和路","SECT":"一段","MAREA":" ","LANE":"１８巷","ALLEY":" ","HOUSE_NO":"３１號","E_COORD97":169689.14000000001,"N_COORD97":2547517.9300000002,"ADDRESS":"安和路一段１８巷３１號","OBJECTID":383629},"geometry":{"x":169689.1400000006,"y":2547517.9300000016}},{"attributes":{"ID":383640,"DIS_CODE":0,"TOWNNAME":"安南區","LI":"安和里","LIN":"9鄰","STREET":"安和路","SECT":"一段","MAREA":" ","LANE":"１８巷","ALLEY":" ","HOUSE_NO":"３３號","E_COORD97":169711.63,"N_COORD97":2547511.1200000001,"ADDRESS":"安和路一段１８巷３３號","OBJECTID":383630},"geometry":{"x":169711.63000000082,"y":2547511.1200000029}},{"attributes":{"ID":383641,"DIS_CODE":0,"TOWNNAME":"安南區","LI":"安和里","LIN":"9鄰","STREET":"安和路","SECT":"一段","MAREA":" ","LANE":"１８巷","ALLEY":" ","HOUSE_NO":"３４號","E_COORD97":169715.26999999999,"N_COORD97":2547514.98,"ADDRESS":"安和路一段１８巷３４號","OBJECTID":383631},"geometry":{"x":169715.27000000048,"y":2547514.9800000023}},{"attributes":{"ID":383642,"DIS_CODE":0,"TOWNNAME":"安南區","LI":"溪墘里","LIN":"9鄰","STREET":"海佃路","SECT":"一段","MAREA":" ","LANE":"２７０巷","ALLEY":" ","HOUSE_NO":"１２號","E_COORD97":167182.95000000001,"N_COORD97":2547396.3300000001,"ADDRESS":"海佃路一段２７０巷１２號","OBJECTID":383632},"geometry":{"x":167182.95000000019,"y":2547396.3300000019}},{"attributes":{"ID":383643,"DIS_CODE":0,"TOWNNAME":"安南區","LI":"溪墘里","LIN":"9鄰","STREET":"海佃路","SECT":"一段","MAREA":" ","LANE":"２７０巷","ALLEY":" ","HOUSE_NO":"１４號","E_COORD97":167188.98999999999,"N_COORD97":2547398.2799999998,"ADDRESS":"海佃路一段２７０巷１４號","OBJECTID":383633},"geometry":{"x":167188.99000000022,"y":2547398.2799999975}},{"attributes":{"ID":383644,"DIS_CODE":0,"TOWNNAME":"安南區","LI":"溪墘里","LIN":"9鄰","STREET":"海佃路","SECT":"一段","MAREA":" ","LANE":"２７０巷","ALLEY":" ","HOUSE_NO":"１６號","E_COORD97":167194.84,"N_COORD97":2547399.3500000001,"ADDRESS":"海佃路一段２７０巷１６號","OBJECTID":383634},"geometry":{"x":167194.83999999985,"y":2547399.3500000015}},{"attributes":{"ID":383645,"DIS_CODE":0,"TOWNNAME":"安南區","LI":"溪墘里","LIN":"9鄰","STREET":"海佃路","SECT":"一段","MAREA":" ","LANE":"２７０巷","ALLEY":" ","HOUSE_NO":"２０號","E_COORD97":167209.76000000001,"N_COORD97":2547402.1899999999,"ADDRESS":"海佃路一段２７０巷２０號","OBJECTID":383635},"geometry":{"x":167209.76000000071,"y":2547402.1899999995}},{"attributes":{"ID":383646,"DIS_CODE":0,"TOWNNAME":"安南區","LI":"溪墘里","LIN":"9鄰","STREET":"海佃路","SECT":"一段","MAREA":" ","LANE":"２７０巷","ALLEY":" ","HOUSE_NO":"２２號","E_COORD97":167214.54999999999,"N_COORD97":2547403.25,"ADDRESS":"海佃路一段２７０巷２２號","OBJECTID":383636},"geometry":{"x":167214.55000000075,"y":2547403.2500000019}},{"attributes":{"ID":383647,"DIS_CODE":0,"TOWNNAME":"安南區","LI":"溪墘里","LIN":"9鄰","STREET":"海佃路","SECT":"一段","MAREA":" ","LANE":"２７０巷","ALLEY":" ","HOUSE_NO":"２４號","E_COORD97":167220.76000000001,"N_COORD97":2547404.6699999999,"ADDRESS":"海佃路一段２７０巷２４號","OBJECTID":383637},"geometry":{"x":167220.75999999978,"y":2547404.6700000018}},{"attributes":{"ID":383648,"DIS_CODE":0,"TOWNNAME":"安南區","LI":"溪墘里","LIN":"9鄰","STREET":"海佃路","SECT":"一段","MAREA":" ","LANE":"２７０巷","ALLEY":" ","HOUSE_NO":"２６號","E_COORD97":167225.03,"N_COORD97":2547406.2599999998,"ADDRESS":"海佃路一段２７０巷２６號","OBJECTID":383638},"geometry":{"x":167225.03000000212,"y":2547406.2600000016}},{"attributes":{"ID":383649,"DIS_CODE":0,"TOWNNAME":"安南區","LI":"溪墘里","LIN":"9鄰","STREET":"海佃路","SECT":"一段","MAREA":" ","LANE":"２７０巷","ALLEY":" ","HOUSE_NO":"２８號","E_COORD97":167230.35000000001,"N_COORD97":2547410.5099999998,"ADDRESS":"海佃路一段２７０巷２８號","OBJECTID":383639},"geometry":{"x":167230.34999999963,"y":2547410.5099999998}},{"attributes":{"ID":383650,"DIS_CODE":0,"TOWNNAME":"安南區","LI":"溪墘里","LIN":"9鄰","STREET":"海佃路","SECT":"一段","MAREA":" ","LANE":"２７０巷","ALLEY":" ","HOUSE_NO":"２號","E_COORD97":167154.89999999999,"N_COORD97":2547394.7400000002,"ADDRESS":"海佃路一段２７０巷２號","OBJECTID":383640},"geometry":{"x":167154.90000000224,"y":2547394.7400000002}},{"attributes":{"ID":383651,"DIS_CODE":0,"TOWNNAME":"安南區","LI":"溪墘里","LIN":"9鄰","STREET":"海佃路","SECT":"一段","MAREA":" ","LANE":"２７０巷","ALLEY":" ","HOUSE_NO":"３０號","E_COORD97":167236.51000000001,"N_COORD97":2547410.7799999998,"ADDRESS":"海佃路一段２７０巷３０號","OBJECTID":383641},"geometry":{"x":167236.51000000164,"y":2547410.7799999993}},{"attributes":{"ID":383652,"DIS_CODE":0,"TOWNNAME":"六甲區","LI":"二甲里","LIN":"9鄰","STREET":"光復街","SECT":" ","MAREA":" ","LANE":"１４１巷","ALLEY":" ","HOUSE_NO":"１號","E_COORD97":182989.59,"N_COORD97":2569928.4900000002,"ADDRESS":"光復街１４１巷１號","OBJECTID":383642},"geometry":{"x":182989.59000000171,"y":2569928.4900000021}},{"attributes":{"ID":383653,"DIS_CODE":0,"TOWNNAME":"安南區","LI":"溪墘里","LIN":"9鄰","STREET":"海佃路","SECT":"一段","MAREA":" ","LANE":"２７０巷","ALLEY":" ","HOUSE_NO":"３２號","E_COORD97":167242.14000000001,"N_COORD97":2547412.1800000002,"ADDRESS":"海佃路一段２７０巷３２號","OBJECTID":383643},"geometry":{"x":167242.13999999966,"y":2547412.1799999997}},{"attributes":{"ID":383654,"DIS_CODE":0,"TOWNNAME":"安南區","LI":"溪墘里","LIN":"9鄰","STREET":"海佃路","SECT":"一段","MAREA":" ","LANE":"２７０巷","ALLEY":" ","HOUSE_NO":"３４號","E_COORD97":167248.17000000001,"N_COORD97":2547413.0499999998,"ADDRESS":"海佃路一段２７０巷３４號","OBJECTID":383644},"geometry":{"x":167248.17000000086,"y":2547413.0500000026}},{"attributes":{"ID":383655,"DIS_CODE":0,"TOWNNAME":"安南區","LI":"溪墘里","LIN":"9鄰","STREET":"海佃路","SECT":"一段","MAREA":" ","LANE":"２７０巷","ALLEY":" ","HOUSE_NO":"３６號","E_COORD97":167254,"N_COORD97":2547413.5899999999,"ADDRESS":"海佃路一段２７０巷３６號","OBJECTID":383645},"geometry":{"x":167254.00000000093,"y":2547413.589999998}},{"attributes":{"ID":383656,"DIS_CODE":0,"TOWNNAME":"安南區","LI":"溪墘里","LIN":"9鄰","STREET":"海佃路","SECT":"一段","MAREA":" ","LANE":"２７０巷","ALLEY":" ","HOUSE_NO":"３８號","E_COORD97":167262.47,"N_COORD97":2547415.6600000001,"ADDRESS":"海佃路一段２７０巷３８號","OBJECTID":383646},"geometry":{"x":167262.47000000067,"y":2547415.6600000001}},{"attributes":{"ID":383657,"DIS_CODE":0,"TOWNNAME":"安南區","LI":"溪墘里","LIN":"9鄰","STREET":"海佃路","SECT":"一段","MAREA":" ","LANE":"２７０巷","ALLEY":" ","HOUSE_NO":"４２號","E_COORD97":167273.85999999999,"N_COORD97":2547417.54,"ADDRESS":"海佃路一段２７０巷４２號","OBJECTID":383647},"geometry":{"x":167273.8600000022,"y":2547417.540000001}},{"attributes":{"ID":383658,"DIS_CODE":0,"TOWNNAME":"安南區","LI":"溪墘里","LIN":"9鄰","STREET":"海佃路","SECT":"一段","MAREA":" ","LANE":"２７０巷","ALLEY":" ","HOUSE_NO":"４６號","E_COORD97":167285.42999999999,"N_COORD97":2547420.0800000001,"ADDRESS":"海佃路一段２７０巷４６號","OBJECTID":383648},"geometry":{"x":167285.4299999997,"y":2547420.0800000001}},{"attributes":{"ID":383659,"DIS_CODE":0,"TOWNNAME":"安南區","LI":"溪墘里","LIN":"9鄰","STREET":"海佃路","SECT":"一段","MAREA":" ","LANE":"２７０巷","ALLEY":" ","HOUSE_NO":"５０號","E_COORD97":167296.69,"N_COORD97":2547422.2200000002,"ADDRESS":"海佃路一段２７０巷５０號","OBJECTID":383649},"geometry":{"x":167296.69000000041,"y":2547422.2200000025}},{"attributes":{"ID":383660,"DIS_CODE":0,"TOWNNAME":"安南區","LI":"溪墘里","LIN":"9鄰","STREET":"海佃路","SECT":"一段","MAREA":" ","LANE":"２７０巷","ALLEY":" ","HOUSE_NO":"５２號","E_COORD97":167302.92000000001,"N_COORD97":2547423.8399999999,"ADDRESS":"海佃路一段２７０巷５２號","OBJECTID":383650},"geometry":{"x":167302.91999999993,"y":2547423.8400000017}},{"attributes":{"ID":383661,"DIS_CODE":0,"TOWNNAME":"東區","LI":"大智里","LIN":"13鄰","STREET":"長東街","SECT":" ","MAREA":" ","LANE":"１４１巷","ALLEY":" ","HOUSE_NO":"２８號","E_COORD97":171099.28,"N_COORD97":2540126.04,"ADDRESS":"長東街１４１巷２８號","OBJECTID":383651},"geometry":{"x":171099.28000000119,"y":2540126.0399999991}},{"attributes":{"ID":383662,"DIS_CODE":0,"TOWNNAME":"東區","LI":"泉南里","LIN":"24鄰","STREET":"府連路","SECT":" ","MAREA":" ","LANE":"３４４巷","ALLEY":" ","HOUSE_NO":"５６號","E_COORD97":169597.04999999999,"N_COORD97":2542634.6099999999,"ADDRESS":"府連路３４４巷５６號","OBJECTID":383652},"geometry":{"x":169597.04999999981,"y":2542634.6099999994}},{"attributes":{"ID":383663,"DIS_CODE":0,"TOWNNAME":"東區","LI":"泉南里","LIN":"24鄰","STREET":"府連路","SECT":" ","MAREA":" ","LANE":"３４４巷","ALLEY":" ","HOUSE_NO":"１４號","E_COORD97":169596.20999999999,"N_COORD97":2542744.2200000002,"ADDRESS":"府連路３４４巷１４號","OBJECTID":383653},"geometry":{"x":169596.20999999996,"y":2542744.2200000007}},{"attributes":{"ID":383664,"DIS_CODE":0,"TOWNNAME":"東區","LI":"大智里","LIN":"8鄰","STREET":"長東街","SECT":" ","MAREA":" ","LANE":"１０３巷","ALLEY":" ","HOUSE_NO":"３１號","E_COORD97":171090.53,"N_COORD97":2540351.5499999998,"ADDRESS":"長東街１０３巷３１號","OBJECTID":383654},"geometry":{"x":171090.53000000119,"y":2540351.5500000007}},{"attributes":{"ID":383665,"DIS_CODE":0,"TOWNNAME":"東區","LI":"大智里","LIN":"15鄰","STREET":"長東街","SECT":" ","MAREA":" ","LANE":"１４５巷","ALLEY":" ","HOUSE_NO":"７號","E_COORD97":171052.26999999999,"N_COORD97":2540068.5600000001,"ADDRESS":"長東街１４５巷７號","OBJECTID":383655},"geometry":{"x":171052.27000000142,"y":2540068.5600000024}},{"attributes":{"ID":383666,"DIS_CODE":0,"TOWNNAME":"東區","LI":"大智里","LIN":"6鄰","STREET":"長東街","SECT":" ","MAREA":" ","LANE":"７９巷","ALLEY":" ","HOUSE_NO":"２號","E_COORD97":171038.60999999999,"N_COORD97":2540402.4199999999,"ADDRESS":"長東街７９巷２號","OBJECTID":383656},"geometry":{"x":171038.61000000034,"y":2540402.4199999999}},{"attributes":{"ID":383667,"DIS_CODE":0,"TOWNNAME":"東區","LI":"大智里","LIN":"6鄰","STREET":"長東街","SECT":" ","MAREA":" ","LANE":"７９巷","ALLEY":" ","HOUSE_NO":"３號","E_COORD97":171041.22,"N_COORD97":2540422.8999999999,"ADDRESS":"長東街７９巷３號","OBJECTID":383657},"geometry":{"x":171041.22000000067,"y":2540422.9000000022}},{"attributes":{"ID":383668,"DIS_CODE":0,"TOWNNAME":"東區","LI":"小東里","LIN":"19鄰","STREET":"東興路","SECT":" ","MAREA":" ","LANE":"３１４巷","ALLEY":" ","HOUSE_NO":"３６號","E_COORD97":171098.72,"N_COORD97":2544146.6899999999,"ADDRESS":"東興路３１４巷３６號","OBJECTID":383658},"geometry":{"x":171098.72000000067,"y":2544146.6899999995}},{"attributes":{"ID":383669,"DIS_CODE":0,"TOWNNAME":"東區","LI":"大智里","LIN":"12鄰","STREET":"長東街","SECT":" ","MAREA":" ","LANE":"１３３巷","ALLEY":" ","HOUSE_NO":"１３號","E_COORD97":171058.89999999999,"N_COORD97":2540182.9100000001,"ADDRESS":"長東街１３３巷１３號","OBJECTID":383659},"geometry":{"x":171058.90000000224,"y":2540182.9100000001}},{"attributes":{"ID":383670,"DIS_CODE":0,"TOWNNAME":"東區","LI":"大智里","LIN":"12鄰","STREET":"長東街","SECT":" ","MAREA":" ","LANE":"１３３巷","ALLEY":" ","HOUSE_NO":"１５號","E_COORD97":171064.19,"N_COORD97":2540182.4500000002,"ADDRESS":"長東街１３３巷１５號","OBJECTID":383660},"geometry":{"x":171064.19000000134,"y":2540182.450000003}},{"attributes":{"ID":383671,"DIS_CODE":0,"TOWNNAME":"安南區","LI":"溪墘里","LIN":"9鄰","STREET":"海佃路","SECT":"一段","MAREA":" ","LANE":"２７０巷","ALLEY":" ","HOUSE_NO":"６號","E_COORD97":167166.44,"N_COORD97":2547395.0899999999,"ADDRESS":"海佃路一段２７０巷６號","OBJECTID":383661},"geometry":{"x":167166.43999999948,"y":2547395.0900000017}},{"attributes":{"ID":383672,"DIS_CODE":0,"TOWNNAME":"安南區","LI":"溪墘里","LIN":"9鄰","STREET":"海佃路","SECT":"一段","MAREA":" ","LANE":"２７０巷","ALLEY":" ","HOUSE_NO":"８號","E_COORD97":167171.76000000001,"N_COORD97":2547395.6200000001,"ADDRESS":"海佃路一段２７０巷８號","OBJECTID":383662},"geometry":{"x":167171.75999999978,"y":2547395.6200000029}},{"attributes":{"ID":383673,"DIS_CODE":0,"TOWNNAME":"下營區","LI":"仁里里","LIN":"9鄰","STREET":"博愛街","SECT":" ","MAREA":" ","LANE":"１３３巷","ALLEY":" ","HOUSE_NO":"５２號","E_COORD97":173699.51000000001,"N_COORD97":2570374.3599999999,"ADDRESS":"博愛街１３３巷５２號","OBJECTID":383663},"geometry":{"x":173699.50999999978,"y":2570374.3599999975}},{"attributes":{"ID":383674,"DIS_CODE":0,"TOWNNAME":"下營區","LI":"仁里里","LIN":"9鄰","STREET":"博愛街","SECT":" ","MAREA":" ","LANE":"１３３巷","ALLEY":" ","HOUSE_NO":"５５號","E_COORD97":173726.59,"N_COORD97":2570334.54,"ADDRESS":"博愛街１３３巷５５號","OBJECTID":383664},"geometry":{"x":173726.58999999985,"y":2570334.5399999991}},{"attributes":{"ID":383675,"DIS_CODE":0,"TOWNNAME":"下營區","LI":"仁里里","LIN":"9鄰","STREET":"博愛街","SECT":" ","MAREA":" ","LANE":"１３３巷","ALLEY":" ","HOUSE_NO":"６６號","E_COORD97":173707.82999999999,"N_COORD97":2570351.04,"ADDRESS":"博愛街１３３巷６６號","OBJECTID":383665},"geometry":{"x":173707.83000000007,"y":2570351.0399999991}},{"attributes":{"ID":383676,"DIS_CODE":0,"TOWNNAME":"下營區","LI":"仁里里","LIN":"9鄰","STREET":"博愛街","SECT":" ","MAREA":" ","LANE":"１３３巷","ALLEY":" ","HOUSE_NO":"６８號","E_COORD97":173703.62,"N_COORD97":2570349.9500000002,"ADDRESS":"博愛街１３３巷６８號","OBJECTID":383666},"geometry":{"x":173703.62000000104,"y":2570349.9499999974}},{"attributes":{"ID":383677,"DIS_CODE":0,"TOWNNAME":"下營區","LI":"仁里里","LIN":"9鄰","STREET":"博愛街","SECT":" ","MAREA":" ","LANE":"１９６巷","ALLEY":" ","HOUSE_NO":"６８號","E_COORD97":173509.97,"N_COORD97":2570351.27,"ADDRESS":"博愛街１９６巷６８號","OBJECTID":383667},"geometry":{"x":173509.96999999974,"y":2570351.2699999996}},{"attributes":{"ID":383678,"DIS_CODE":0,"TOWNNAME":"東區","LI":"小東里","LIN":"34鄰","STREET":"東興路","SECT":" ","MAREA":" ","LANE":"３０９巷","ALLEY":" ","HOUSE_NO":"１６號","E_COORD97":171024.47,"N_COORD97":2544130.8700000001,"ADDRESS":"東興路３０９巷１６號","OBJECTID":383668},"geometry":{"x":171024.47000000067,"y":2544130.870000001}},{"attributes":{"ID":383679,"DIS_CODE":0,"TOWNNAME":"東區","LI":"大智里","LIN":"14鄰","STREET":"長東街","SECT":" ","MAREA":" ","LANE":"１４３巷","ALLEY":" ","HOUSE_NO":"５號","E_COORD97":171045.88,"N_COORD97":2540106.3900000001,"ADDRESS":"長東街１４３巷５號","OBJECTID":383669},"geometry":{"x":171045.87999999989,"y":2540106.3900000043}},{"attributes":{"ID":383680,"DIS_CODE":0,"TOWNNAME":"東區","LI":"大智里","LIN":"8鄰","STREET":"長東街","SECT":" ","MAREA":" ","LANE":"１０３巷","ALLEY":" ","HOUSE_NO":"１８號","E_COORD97":171128.5,"N_COORD97":2540327.1299999999,"ADDRESS":"長東街１０３巷１８號","OBJECTID":383670},"geometry":{"x":171128.5,"y":2540327.1300000008}},{"attributes":{"ID":383681,"DIS_CODE":0,"TOWNNAME":"東區","LI":"大智里","LIN":"6鄰","STREET":"長東街","SECT":" ","MAREA":" ","LANE":"７９巷","ALLEY":" ","HOUSE_NO":"２３號","E_COORD97":171085.39000000001,"N_COORD97":2540426.8100000001,"ADDRESS":"長東街７９巷２３號","OBJECTID":383671},"geometry":{"x":171085.39000000153,"y":2540426.8100000024}},{"attributes":{"ID":383682,"DIS_CODE":0,"TOWNNAME":"東區","LI":"大智里","LIN":"6鄰","STREET":"長東街","SECT":" ","MAREA":" ","LANE":"７９巷","ALLEY":" ","HOUSE_NO":"２７號","E_COORD97":171093.48999999999,"N_COORD97":2540427.3399999999,"ADDRESS":"長東街７９巷２７號","OBJECTID":383672},"geometry":{"x":171093.49000000022,"y":2540427.3399999999}},{"attributes":{"ID":383683,"DIS_CODE":0,"TOWNNAME":"東區","LI":"大智里","LIN":"6鄰","STREET":"長東街","SECT":" ","MAREA":" ","LANE":"７９巷","ALLEY":" ","HOUSE_NO":"２８號","E_COORD97":171095.60999999999,"N_COORD97":2540408.2599999998,"ADDRESS":"長東街７９巷２８號","OBJECTID":383673},"geometry":{"x":171095.61000000034,"y":2540408.2600000035}},{"attributes":{"ID":383684,"DIS_CODE":0,"TOWNNAME":"東區","LI":"大智里","LIN":"6鄰","STREET":"長東街","SECT":" ","MAREA":" ","LANE":"７９巷","ALLEY":" ","HOUSE_NO":"３８號","E_COORD97":171117.10000000001,"N_COORD97":2540407.6699999999,"ADDRESS":"長東街７９巷３８號","OBJECTID":383674},"geometry":{"x":171117.09999999963,"y":2540407.6699999999}},{"attributes":{"ID":383685,"DIS_CODE":0,"TOWNNAME":"新營區","LI":"南紙里","LIN":"9鄰","STREET":"南紙街","SECT":" ","MAREA":" ","LANE":"８５巷","ALLEY":" ","HOUSE_NO":"１６號","E_COORD97":177924.75,"N_COORD97":2577581.52,"ADDRESS":"南紙街８５巷１６號","OBJECTID":383675},"geometry":{"x":177924.75,"y":2577581.5200000033}},{"attributes":{"ID":383686,"DIS_CODE":0,"TOWNNAME":"安平區","LI":"文平里","LIN":"9鄰","STREET":"建平七街","SECT":" ","MAREA":" ","LANE":"１８２巷","ALLEY":" ","HOUSE_NO":"２６號","E_COORD97":166098.39999999999,"N_COORD97":2543320.3799999999,"ADDRESS":"建平七街１８２巷２６號","OBJECTID":383676},"geometry":{"x":166098.40000000037,"y":2543320.3800000008}},{"attributes":{"ID":383687,"DIS_CODE":0,"TOWNNAME":"安平區","LI":"文平里","LIN":"9鄰","STREET":"建平七街","SECT":" ","MAREA":" ","LANE":"１８２巷","ALLEY":" ","HOUSE_NO":"２８號","E_COORD97":166089.63,"N_COORD97":2543320.8500000001,"ADDRESS":"建平七街１８２巷２８號","OBJECTID":383677},"geometry":{"x":166089.62999999989,"y":2543320.8500000015}},{"attributes":{"ID":383688,"DIS_CODE":0,"TOWNNAME":"安平區","LI":"文平里","LIN":"9鄰","STREET":"建平七街","SECT":" ","MAREA":" ","LANE":"１８２巷","ALLEY":" ","HOUSE_NO":"３２號","E_COORD97":166078.64000000001,"N_COORD97":2543322.1299999999,"ADDRESS":"建平七街１８２巷３２號","OBJECTID":383678},"geometry":{"x":166078.63999999966,"y":2543322.1300000008}},{"attributes":{"ID":383689,"DIS_CODE":0,"TOWNNAME":"安平區","LI":"文平里","LIN":"9鄰","STREET":"建平七街","SECT":" ","MAREA":" ","LANE":"１８２巷","ALLEY":" ","HOUSE_NO":"３９號","E_COORD97":166050,"N_COORD97":2543296.8500000001,"ADDRESS":"建平七街１８２巷３９號","OBJECTID":383679},"geometry":{"x":166050,"y":2543296.8500000015}},{"attributes":{"ID":383690,"DIS_CODE":0,"TOWNNAME":"安平區","LI":"文平里","LIN":"9鄰","STREET":"建平七街","SECT":" ","MAREA":" ","LANE":"１８２巷","ALLEY":" ","HOUSE_NO":"５２號","E_COORD97":166028.20999999999,"N_COORD97":2543328.3999999999,"ADDRESS":"建平七街１８２巷５２號","OBJECTID":383680},"geometry":{"x":166028.20999999996,"y":2543328.4000000022}},{"attributes":{"ID":383691,"DIS_CODE":0,"TOWNNAME":"安平區","LI":"文平里","LIN":"9鄰","STREET":"建平七街","SECT":" ","MAREA":" ","LANE":"１８２巷","ALLEY":" ","HOUSE_NO":"６７號","E_COORD97":165972.89000000001,"N_COORD97":2543308.6299999999,"ADDRESS":"建平七街１８２巷６７號","OBJECTID":383681},"geometry":{"x":165972.8900000006,"y":2543308.629999999}},{"attributes":{"ID":383692,"DIS_CODE":0,"TOWNNAME":"安平區","LI":"文平里","LIN":"9鄰","STREET":"建平七街","SECT":" ","MAREA":" ","LANE":"１８２巷","ALLEY":" ","HOUSE_NO":"６９號","E_COORD97":165967.64000000001,"N_COORD97":2543308.8700000001,"ADDRESS":"建平七街１８２巷６９號","OBJECTID":383682},"geometry":{"x":165967.64000000153,"y":2543308.8700000029}},{"attributes":{"ID":383693,"DIS_CODE":0,"TOWNNAME":"安平區","LI":"華平里","LIN":"9鄰","STREET":"怡平路","SECT":" ","MAREA":" ","LANE":"４１０巷","ALLEY":" ","HOUSE_NO":"３７號","E_COORD97":165408.35000000001,"N_COORD97":2543928.6299999999,"ADDRESS":"怡平路４１０巷３７號","OBJECTID":383683},"geometry":{"x":165408.35000000149,"y":2543928.6300000008}},{"attributes":{"ID":383694,"DIS_CODE":0,"TOWNNAME":"東區","LI":"崇明里","LIN":"8鄰","STREET":"大同路","SECT":"二段","MAREA":" ","LANE":"４４９巷","ALLEY":" ","HOUSE_NO":"９號","E_COORD97":169608.73999999999,"N_COORD97":2541300.8399999999,"ADDRESS":"大同路二段４４９巷９號","OBJECTID":383684},"geometry":{"x":169608.74000000209,"y":2541300.8400000017}},{"attributes":{"ID":383695,"DIS_CODE":0,"TOWNNAME":"安平區","LI":"文平里","LIN":"9鄰","STREET":"建平七街","SECT":" ","MAREA":" ","LANE":"１８２巷","ALLEY":" ","HOUSE_NO":"１０號","E_COORD97":166128.19,"N_COORD97":2543293.6899999999,"ADDRESS":"建平七街１８２巷１０號","OBJECTID":383685},"geometry":{"x":166128.19000000134,"y":2543293.6900000032}},{"attributes":{"ID":383696,"DIS_CODE":0,"TOWNNAME":"安平區","LI":"華平里","LIN":"9鄰","STREET":"怡平路","SECT":" ","MAREA":" ","LANE":"４１０巷","ALLEY":" ","HOUSE_NO":"５０號","E_COORD97":165424.70999999999,"N_COORD97":2543933.3999999999,"ADDRESS":"怡平路４１０巷５０號","OBJECTID":383686},"geometry":{"x":165424.70999999996,"y":2543933.4000000004}},{"attributes":{"ID":383697,"DIS_CODE":0,"TOWNNAME":"安平區","LI":"文平里","LIN":"9鄰","STREET":"建平七街","SECT":" ","MAREA":" ","LANE":"１８２巷","ALLEY":" ","HOUSE_NO":"２５號","E_COORD97":166086.12,"N_COORD97":2543292.4100000001,"ADDRESS":"建平七街１８２巷２５號","OBJECTID":383687},"geometry":{"x":166086.12000000011,"y":2543292.4100000001}},{"attributes":{"ID":383698,"DIS_CODE":0,"TOWNNAME":"新營區","LI":"新北里","LIN":"9鄰","STREET":"長榮路","SECT":"二段","MAREA":" ","LANE":"２９３巷","ALLEY":" ","HOUSE_NO":"１號","E_COORD97":179214.63,"N_COORD97":2579763.6400000001,"ADDRESS":"長榮路二段２９３巷１號","OBJECTID":383688},"geometry":{"x":179214.63000000082,"y":2579763.6400000006}},{"attributes":{"ID":383699,"DIS_CODE":0,"TOWNNAME":"新營區","LI":"新北里","LIN":"9鄰","STREET":"長榮路","SECT":"二段","MAREA":" ","LANE":"２９３巷","ALLEY":" ","HOUSE_NO":"１１號","E_COORD97":179219.88,"N_COORD97":2579742.5699999998,"ADDRESS":"長榮路二段２９３巷１１號","OBJECTID":383689},"geometry":{"x":179219.88000000082,"y":2579742.5700000022}},{"attributes":{"ID":383700,"DIS_CODE":0,"TOWNNAME":"新營區","LI":"新東里","LIN":"9鄰","STREET":"東仁街","SECT":" ","MAREA":" ","LANE":"２１巷","ALLEY":" ","HOUSE_NO":"１７號","E_COORD97":181225.79999999999,"N_COORD97":2579580.29,"ADDRESS":"東仁街２１巷１７號","OBJECTID":383690},"geometry":{"x":181225.80000000075,"y":2579580.290000001}},{"attributes":{"ID":383701,"DIS_CODE":0,"TOWNNAME":"新營區","LI":"新東里","LIN":"9鄰","STREET":"東仁街","SECT":" ","MAREA":" ","LANE":"２１巷","ALLEY":" ","HOUSE_NO":"３０號","E_COORD97":181200.44,"N_COORD97":2579604.77,"ADDRESS":"東仁街２１巷３０號","OBJECTID":383691},"geometry":{"x":181200.44000000041,"y":2579604.7700000014}},{"attributes":{"ID":383702,"DIS_CODE":0,"TOWNNAME":"新營區","LI":"護鎮里","LIN":"9鄰","STREET":"建國路","SECT":" ","MAREA":" ","LANE":"３１３巷","ALLEY":" ","HOUSE_NO":"１１號","E_COORD97":178486.01999999999,"N_COORD97":2580903.3999999999,"ADDRESS":"建國路３１３巷１１號","OBJECTID":383692},"geometry":{"x":178486.02000000048,"y":2580903.4000000022}},{"attributes":{"ID":383703,"DIS_CODE":0,"TOWNNAME":"新營區","LI":"護鎮里","LIN":"9鄰","STREET":"中正路","SECT":" ","MAREA":" ","LANE":"４３９巷","ALLEY":" ","HOUSE_NO":"１８５號","E_COORD97":178814.01999999999,"N_COORD97":2580159.8199999998,"ADDRESS":"中正路４３９巷１８５號","OBJECTID":383693},"geometry":{"x":178814.01999999955,"y":2580159.8200000003}},{"attributes":{"ID":383704,"DIS_CODE":0,"TOWNNAME":"新營區","LI":"興業里","LIN":"9鄰","STREET":"中興路","SECT":" ","MAREA":" ","LANE":"１３巷","ALLEY":" ","HOUSE_NO":"１號","E_COORD97":180146.16,"N_COORD97":2577981.7400000002,"ADDRESS":"中興路１３巷１號","OBJECTID":383694},"geometry":{"x":180146.16000000015,"y":2577981.7400000021}},{"attributes":{"ID":383705,"DIS_CODE":0,"TOWNNAME":"新營區","LI":"護鎮里","LIN":"9鄰","STREET":"建國路","SECT":" ","MAREA":" ","LANE":"３１３巷","ALLEY":" ","HOUSE_NO":"２９號","E_COORD97":178416.5,"N_COORD97":2580682.23,"ADDRESS":"建國路３１３巷２９號","OBJECTID":383695},"geometry":{"x":178416.5,"y":2580682.2300000004}},{"attributes":{"ID":383706,"DIS_CODE":0,"TOWNNAME":"新營區","LI":"新東里","LIN":"9鄰","STREET":"東仁街","SECT":" ","MAREA":" ","LANE":"２１巷","ALLEY":" ","HOUSE_NO":"２６號","E_COORD97":181216.78,"N_COORD97":2579604.6899999999,"ADDRESS":"東仁街２１巷２６號","OBJECTID":383696},"geometry":{"x":181216.78000000026,"y":2579604.6900000032}},{"attributes":{"ID":383707,"DIS_CODE":0,"TOWNNAME":"新營區","LI":"新東里","LIN":"9鄰","STREET":"東仁街","SECT":" ","MAREA":" ","LANE":"２１巷","ALLEY":" ","HOUSE_NO":"２１號","E_COORD97":181216.67000000001,"N_COORD97":2579581.4399999999,"ADDRESS":"東仁街２１巷２１號","OBJECTID":383697},"geometry":{"x":181216.67000000086,"y":2579581.4399999995}},{"attributes":{"ID":383708,"DIS_CODE":0,"TOWNNAME":"東區","LI":"小東里","LIN":"21鄰","STREET":"東興路","SECT":" ","MAREA":" ","LANE":"３４５巷","ALLEY":" ","HOUSE_NO":"１３號","E_COORD97":171004.03,"N_COORD97":2544224.0299999998,"ADDRESS":"東興路３４５巷１３號","OBJECTID":383698},"geometry":{"x":171004.03000000119,"y":2544224.0300000012}},{"attributes":{"ID":383709,"DIS_CODE":0,"TOWNNAME":"東區","LI":"小東里","LIN":"21鄰","STREET":"東興路","SECT":" ","MAREA":" ","LANE":"３４５巷","ALLEY":" ","HOUSE_NO":"１５號","E_COORD97":170999.17000000001,"N_COORD97":2544221.6800000002,"ADDRESS":"東興路３４５巷１５號","OBJECTID":383699},"geometry":{"x":170999.17000000086,"y":2544221.6799999997}},{"attributes":{"ID":383710,"DIS_CODE":0,"TOWNNAME":"東區","LI":"小東里","LIN":"21鄰","STREET":"東興路","SECT":" ","MAREA":" ","LANE":"３４５巷","ALLEY":" ","HOUSE_NO":"６號","E_COORD97":171002.78,"N_COORD97":2544240.79,"ADDRESS":"東興路３４５巷６號","OBJECTID":383700},"geometry":{"x":171002.78000000119,"y":2544240.7899999991}},{"attributes":{"ID":383711,"DIS_CODE":0,"TOWNNAME":"新營區","LI":"新東里","LIN":"9鄰","STREET":"東仁街","SECT":" ","MAREA":" ","LANE":"２１巷","ALLEY":" ","HOUSE_NO":"３３號","E_COORD97":181179.87,"N_COORD97":2579581.6099999999,"ADDRESS":"東仁街２１巷３３號","OBJECTID":383701},"geometry":{"x":181179.87000000104,"y":2579581.6100000013}},{"attributes":{"ID":383712,"DIS_CODE":0,"TOWNNAME":"新營區","LI":"新東里","LIN":"9鄰","STREET":"東仁街","SECT":" ","MAREA":" ","LANE":"２１巷","ALLEY":" ","HOUSE_NO":"８號","E_COORD97":181250.26999999999,"N_COORD97":2579597.8900000001,"ADDRESS":"東仁街２１巷８號","OBJECTID":383702},"geometry":{"x":181250.26999999862,"y":2579597.8900000025}},{"attributes":{"ID":383713,"DIS_CODE":0,"TOWNNAME":"新營區","LI":"新東里","LIN":"9鄰","STREET":"東仁街","SECT":" ","MAREA":" ","LANE":"２１巷","ALLEY":" ","HOUSE_NO":"２９號","E_COORD97":181193.14999999999,"N_COORD97":2579581.5499999998,"ADDRESS":"東仁街２１巷２９號","OBJECTID":383703},"geometry":{"x":181193.1500000013,"y":2579581.5500000007}},{"attributes":{"ID":383714,"DIS_CODE":0,"TOWNNAME":"新營區","LI":"新東里","LIN":"9鄰","STREET":"東仁街","SECT":" ","MAREA":" ","LANE":"２１巷","ALLEY":" ","HOUSE_NO":"２５號","E_COORD97":181205.42000000001,"N_COORD97":2579580.3900000001,"ADDRESS":"東仁街２１巷２５號","OBJECTID":383704},"geometry":{"x":181205.41999999993,"y":2579580.3900000043}},{"attributes":{"ID":383715,"DIS_CODE":0,"TOWNNAME":"新營區","LI":"新北里","LIN":"9鄰","STREET":"長榮路","SECT":"二段","MAREA":" ","LANE":"２９３巷","ALLEY":" ","HOUSE_NO":"３號","E_COORD97":179216.75,"N_COORD97":2579760.3100000001,"ADDRESS":"長榮路二段２９３巷３號","OBJECTID":383705},"geometry":{"x":179216.75000000186,"y":2579760.3100000005}},{"attributes":{"ID":383716,"DIS_CODE":0,"TOWNNAME":"新營區","LI":"延平里","LIN":"9鄰","STREET":"復興路","SECT":" ","MAREA":" ","LANE":"２９巷","ALLEY":" ","HOUSE_NO":"１０之１號","E_COORD97":179687.47,"N_COORD97":2577964.0499999998,"ADDRESS":"復興路２９巷１０之１號","OBJECTID":383706},"geometry":{"x":179687.46999999974,"y":2577964.0500000026}},{"attributes":{"ID":383717,"DIS_CODE":0,"TOWNNAME":"新營區","LI":"南興里","LIN":"9鄰","STREET":"和平路","SECT":" ","MAREA":" ","LANE":"１０２巷","ALLEY":" ","HOUSE_NO":"１２之２號","E_COORD97":179373.82000000001,"N_COORD97":2577614.48,"ADDRESS":"和平路１０２巷１２之２號","OBJECTID":383707},"geometry":{"x":179373.8200000003,"y":2577614.4800000023}},{"attributes":{"ID":383718,"DIS_CODE":0,"TOWNNAME":"六甲區","LI":"二甲里","LIN":"9鄰","STREET":"中山路","SECT":" ","MAREA":" ","LANE":"２７７巷","ALLEY":" ","HOUSE_NO":"４５號","E_COORD97":182986.54999999999,"N_COORD97":2570019.8599999999,"ADDRESS":"中山路２７７巷４５號","OBJECTID":383708},"geometry":{"x":182986.55000000075,"y":2570019.8600000013}},{"attributes":{"ID":383719,"DIS_CODE":0,"TOWNNAME":"六甲區","LI":"二甲里","LIN":"9鄰","STREET":"中山路","SECT":" ","MAREA":" ","LANE":"２７７巷","ALLEY":" ","HOUSE_NO":"５１號","E_COORD97":182985.81,"N_COORD97":2570002.3300000001,"ADDRESS":"中山路２７７巷５１號","OBJECTID":383709},"geometry":{"x":182985.80999999959,"y":2570002.3299999982}},{"attributes":{"ID":383720,"DIS_CODE":0,"TOWNNAME":"六甲區","LI":"二甲里","LIN":"9鄰","STREET":"中山路","SECT":" ","MAREA":" ","LANE":"２７７巷","ALLEY":" ","HOUSE_NO":"７號","E_COORD97":183017.57000000001,"N_COORD97":2570093.8999999999,"ADDRESS":"中山路２７７巷７號","OBJECTID":383710},"geometry":{"x":183017.57000000123,"y":2570093.9000000041}},{"attributes":{"ID":383721,"DIS_CODE":0,"TOWNNAME":"六甲區","LI":"二甲里","LIN":"9鄰","STREET":"中山路","SECT":" ","MAREA":" ","LANE":"２７７巷","ALLEY":" ","HOUSE_NO":"８號","E_COORD97":182977.23999999999,"N_COORD97":2570093.8999999999,"ADDRESS":"中山路２７７巷８號","OBJECTID":383711},"geometry":{"x":182977.24000000115,"y":2570093.9000000041}},{"attributes":{"ID":383722,"DIS_CODE":0,"TOWNNAME":"六甲區","LI":"六甲里","LIN":"9鄰","STREET":"中正路","SECT":" ","MAREA":" ","LANE":"３９４巷","ALLEY":" ","HOUSE_NO":"１５號","E_COORD97":183624.95000000001,"N_COORD97":2569619.7200000002,"ADDRESS":"中正路３９４巷１５號","OBJECTID":383712},"geometry":{"x":183624.95000000112,"y":2569619.7200000007}},{"attributes":{"ID":383723,"DIS_CODE":0,"TOWNNAME":"六甲區","LI":"六甲里","LIN":"9鄰","STREET":"中正路","SECT":" ","MAREA":" ","LANE":"３９４巷","ALLEY":" ","HOUSE_NO":"１７號","E_COORD97":183626.82000000001,"N_COORD97":2569623.71,"ADDRESS":"中正路３９４巷１７號","OBJECTID":383713},"geometry":{"x":183626.8200000003,"y":2569623.7100000009}},{"attributes":{"ID":383724,"DIS_CODE":0,"TOWNNAME":"六甲區","LI":"六甲里","LIN":"9鄰","STREET":"中正路","SECT":" ","MAREA":" ","LANE":"３９４巷","ALLEY":" ","HOUSE_NO":"１９號","E_COORD97":183628.73999999999,"N_COORD97":2569627.75,"ADDRESS":"中正路３９４巷１９號","OBJECTID":383714},"geometry":{"x":183628.74000000115,"y":2569627.7500000019}},{"attributes":{"ID":383725,"DIS_CODE":0,"TOWNNAME":"六甲區","LI":"六甲里","LIN":"9鄰","STREET":"中正路","SECT":" ","MAREA":" ","LANE":"３９４巷","ALLEY":" ","HOUSE_NO":"２１號","E_COORD97":183630.54000000001,"N_COORD97":2569632,"ADDRESS":"中正路３９４巷２１號","OBJECTID":383715},"geometry":{"x":183630.54000000004,"y":2569632.0000000037}},{"attributes":{"ID":383726,"DIS_CODE":0,"TOWNNAME":"六甲區","LI":"六甲里","LIN":"9鄰","STREET":"中正路","SECT":" ","MAREA":" ","LANE":"３９４巷","ALLEY":" ","HOUSE_NO":"２３號","E_COORD97":183631.81,"N_COORD97":2569636.3500000001,"ADDRESS":"中正路３９４巷２３號","OBJECTID":383716},"geometry":{"x":183631.80999999866,"y":2569636.3500000015}},{"attributes":{"ID":383727,"DIS_CODE":0,"TOWNNAME":"六甲區","LI":"六甲里","LIN":"9鄰","STREET":"中正路","SECT":" ","MAREA":" ","LANE":"３９４巷","ALLEY":" ","HOUSE_NO":"２５號","E_COORD97":183633.57999999999,"N_COORD97":2569640.2200000002,"ADDRESS":"中正路３９４巷２５號","OBJECTID":383717},"geometry":{"x":183633.58000000007,"y":2569640.2200000007}},{"attributes":{"ID":383728,"DIS_CODE":0,"TOWNNAME":"六甲區","LI":"六甲里","LIN":"9鄰","STREET":"中正路","SECT":" ","MAREA":" ","LANE":"３９４巷","ALLEY":" ","HOUSE_NO":"２７號","E_COORD97":183635.10000000001,"N_COORD97":2569644,"ADDRESS":"中正路３９４巷２７號","OBJECTID":383718},"geometry":{"x":183635.10000000149,"y":2569644}},{"attributes":{"ID":383729,"DIS_CODE":0,"TOWNNAME":"六甲區","LI":"六甲里","LIN":"9鄰","STREET":"中正路","SECT":" ","MAREA":" ","LANE":"３９４巷","ALLEY":" ","HOUSE_NO":"９之３號","E_COORD97":183581.92000000001,"N_COORD97":2569610.9199999999,"ADDRESS":"中正路３９４巷９之３號","OBJECTID":383719},"geometry":{"x":183581.91999999993,"y":2569610.9199999999}},{"attributes":{"ID":383730,"DIS_CODE":0,"TOWNNAME":"六甲區","LI":"六甲里","LIN":"9鄰","STREET":"中正路","SECT":" ","MAREA":" ","LANE":"４２２巷","ALLEY":" ","HOUSE_NO":"１０號","E_COORD97":183602.42000000001,"N_COORD97":2569630.9500000002,"ADDRESS":"中正路４２２巷１０號","OBJECTID":383720},"geometry":{"x":183602.41999999993,"y":2569630.9499999993}},{"attributes":{"ID":383731,"DIS_CODE":0,"TOWNNAME":"六甲區","LI":"六甲里","LIN":"9鄰","STREET":"中正路","SECT":" ","MAREA":" ","LANE":"４２２巷","ALLEY":" ","HOUSE_NO":"１１號","E_COORD97":183611.06,"N_COORD97":2569644.2200000002,"ADDRESS":"中正路４２２巷１１號","OBJECTID":383721},"geometry":{"x":183611.05999999959,"y":2569644.2200000007}},{"attributes":{"ID":383732,"DIS_CODE":0,"TOWNNAME":"六甲區","LI":"六甲里","LIN":"9鄰","STREET":"中正路","SECT":" ","MAREA":" ","LANE":"４２２巷","ALLEY":" ","HOUSE_NO":"１２號","E_COORD97":183607.13,"N_COORD97":2569629.54,"ADDRESS":"中正路４２２巷１２號","OBJECTID":383722},"geometry":{"x":183607.13000000082,"y":2569629.5399999991}},{"attributes":{"ID":383733,"DIS_CODE":0,"TOWNNAME":"六甲區","LI":"六甲里","LIN":"9鄰","STREET":"中正路","SECT":" ","MAREA":" ","LANE":"４２２巷","ALLEY":" ","HOUSE_NO":"１３號","E_COORD97":183615.35000000001,"N_COORD97":2569642.9399999999,"ADDRESS":"中正路４２２巷１３號","OBJECTID":383723},"geometry":{"x":183615.35000000056,"y":2569642.9400000013}},{"attributes":{"ID":383734,"DIS_CODE":0,"TOWNNAME":"六甲區","LI":"六甲里","LIN":"9鄰","STREET":"中正路","SECT":" ","MAREA":" ","LANE":"４２２巷","ALLEY":" ","HOUSE_NO":"１４號","E_COORD97":183609.85000000001,"N_COORD97":2569628.2799999998,"ADDRESS":"中正路４２２巷１４號","OBJECTID":383724},"geometry":{"x":183609.85000000056,"y":2569628.2799999993}},{"attributes":{"ID":383735,"DIS_CODE":0,"TOWNNAME":"六甲區","LI":"六甲里","LIN":"9鄰","STREET":"中正路","SECT":" ","MAREA":" ","LANE":"４２２巷","ALLEY":" ","HOUSE_NO":"１５號","E_COORD97":183619.70999999999,"N_COORD97":2569641.8900000001,"ADDRESS":"中正路４２２巷１５號","OBJECTID":383725},"geometry":{"x":183619.71000000089,"y":2569641.8900000006}},{"attributes":{"ID":383736,"DIS_CODE":0,"TOWNNAME":"六甲區","LI":"六甲里","LIN":"9鄰","STREET":"中正路","SECT":" ","MAREA":" ","LANE":"４２２巷","ALLEY":" ","HOUSE_NO":"１６號","E_COORD97":183614.01000000001,"N_COORD97":2569627.1099999999,"ADDRESS":"中正路４２２巷１６號","OBJECTID":383726},"geometry":{"x":183614.01000000071,"y":2569627.1100000031}},{"attributes":{"ID":383737,"DIS_CODE":0,"TOWNNAME":"六甲區","LI":"六甲里","LIN":"9鄰","STREET":"中正路","SECT":" ","MAREA":" ","LANE":"４２２巷","ALLEY":" ","HOUSE_NO":"１７號","E_COORD97":183624.54000000001,"N_COORD97":2569639.2000000002,"ADDRESS":"中正路４２２巷１７號","OBJECTID":383727},"geometry":{"x":183624.54000000097,"y":2569639.1999999993}},{"attributes":{"ID":383738,"DIS_CODE":0,"TOWNNAME":"六甲區","LI":"六甲里","LIN":"9鄰","STREET":"中正路","SECT":" ","MAREA":" ","LANE":"４２２巷","ALLEY":" ","HOUSE_NO":"１８號","E_COORD97":183619.76000000001,"N_COORD97":2569625.2999999998,"ADDRESS":"中正路４２２巷１８號","OBJECTID":383728},"geometry":{"x":183619.75999999978,"y":2569625.3000000026}},{"attributes":{"ID":383739,"DIS_CODE":0,"TOWNNAME":"六甲區","LI":"六甲里","LIN":"9鄰","STREET":"中正路","SECT":" ","MAREA":" ","LANE":"４２２巷","ALLEY":" ","HOUSE_NO":"１９號","E_COORD97":183626.01999999999,"N_COORD97":2569642.7799999998,"ADDRESS":"中正路４２２巷１９號","OBJECTID":383729},"geometry":{"x":183626.02000000048,"y":2569642.7800000031}},{"attributes":{"ID":383740,"DIS_CODE":0,"TOWNNAME":"六甲區","LI":"六甲里","LIN":"9鄰","STREET":"中正路","SECT":" ","MAREA":" ","LANE":"４２２巷","ALLEY":" ","HOUSE_NO":"１號","E_COORD97":183589.26000000001,"N_COORD97":2569651.1699999999,"ADDRESS":"中正路４２２巷１號","OBJECTID":383730},"geometry":{"x":183589.25999999978,"y":2569651.1700000018}},{"attributes":{"ID":383741,"DIS_CODE":0,"TOWNNAME":"六甲區","LI":"六甲里","LIN":"9鄰","STREET":"中正路","SECT":" ","MAREA":" ","LANE":"４２２巷","ALLEY":" ","HOUSE_NO":"２０號","E_COORD97":183621.16,"N_COORD97":2569629.6499999999,"ADDRESS":"中正路４２２巷２０號","OBJECTID":383731},"geometry":{"x":183621.16000000015,"y":2569629.6500000004}},{"attributes":{"ID":383742,"DIS_CODE":0,"TOWNNAME":"六甲區","LI":"六甲里","LIN":"9鄰","STREET":"中正路","SECT":" ","MAREA":" ","LANE":"４２２巷","ALLEY":" ","HOUSE_NO":"２１號","E_COORD97":183627.25,"N_COORD97":2569646.79,"ADDRESS":"中正路４２２巷２１號","OBJECTID":383732},"geometry":{"x":183627.25,"y":2569646.790000001}},{"attributes":{"ID":383743,"DIS_CODE":0,"TOWNNAME":"六甲區","LI":"六甲里","LIN":"9鄰","STREET":"中正路","SECT":" ","MAREA":" ","LANE":"４２２巷","ALLEY":" ","HOUSE_NO":"６號","E_COORD97":183595.56,"N_COORD97":2569638.6400000001,"ADDRESS":"中正路４２２巷６號","OBJECTID":383733},"geometry":{"x":183595.55999999959,"y":2569638.6400000025}},{"attributes":{"ID":383744,"DIS_CODE":0,"TOWNNAME":"六甲區","LI":"六甲里","LIN":"9鄰","STREET":"中正路","SECT":" ","MAREA":" ","LANE":"４２２巷","ALLEY":" ","HOUSE_NO":"７號","E_COORD97":183602.42000000001,"N_COORD97":2569646.9500000002,"ADDRESS":"中正路４２２巷７號","OBJECTID":383734},"geometry":{"x":183602.41999999993,"y":2569646.9499999993}},{"attributes":{"ID":383745,"DIS_CODE":0,"TOWNNAME":"六甲區","LI":"六甲里","LIN":"9鄰","STREET":"中正路","SECT":" ","MAREA":" ","LANE":"４２２巷","ALLEY":" ","HOUSE_NO":"８號","E_COORD97":183599.66,"N_COORD97":2569637.5800000001,"ADDRESS":"中正路４２２巷８號","OBJECTID":383735},"geometry":{"x":183599.66000000201,"y":2569637.5800000001}},{"attributes":{"ID":383746,"DIS_CODE":0,"TOWNNAME":"六甲區","LI":"六甲里","LIN":"9鄰","STREET":"中正路","SECT":" ","MAREA":" ","LANE":"４２２巷","ALLEY":" ","HOUSE_NO":"９號","E_COORD97":183607.29999999999,"N_COORD97":2569645.7599999998,"ADDRESS":"中正路４２２巷９號","OBJECTID":383736},"geometry":{"x":183607.30000000075,"y":2569645.7599999998}},{"attributes":{"ID":383747,"DIS_CODE":0,"TOWNNAME":"六甲區","LI":"龍湖里","LIN":"9鄰","STREET":"中華路","SECT":" ","MAREA":" ","LANE":"２０８巷","ALLEY":" ","HOUSE_NO":"８號","E_COORD97":182879.29999999999,"N_COORD97":2569239.3900000001,"ADDRESS":"中華路２０８巷８號","OBJECTID":383737},"geometry":{"x":182879.29999999981,"y":2569239.3900000006}},{"attributes":{"ID":383748,"DIS_CODE":0,"TOWNNAME":"六甲區","LI":"龍湖里","LIN":"9鄰","STREET":"中華路","SECT":" ","MAREA":" ","LANE":"２０８巷","ALLEY":" ","HOUSE_NO":"９號","E_COORD97":182842.35000000001,"N_COORD97":2569288.0800000001,"ADDRESS":"中華路２０８巷９號","OBJECTID":383738},"geometry":{"x":182842.35000000056,"y":2569288.0800000001}},{"attributes":{"ID":383749,"DIS_CODE":0,"TOWNNAME":"六甲區","LI":"龍湖里","LIN":"9鄰","STREET":"中華路","SECT":" ","MAREA":" ","LANE":"２１４巷","ALLEY":" ","HOUSE_NO":"５６號","E_COORD97":182833.35999999999,"N_COORD97":2569312.8599999999,"ADDRESS":"中華路２１４巷５６號","OBJECTID":383739},"geometry":{"x":182833.36000000034,"y":2569312.8599999994}},{"attributes":{"ID":383750,"DIS_CODE":0,"TOWNNAME":"六甲區","LI":"水林里","LIN":"9鄰","STREET":"民族街","SECT":" ","MAREA":" ","LANE":"２７５巷","ALLEY":" ","HOUSE_NO":"２４號之２２","E_COORD97":183089.07000000001,"N_COORD97":2570235.54,"ADDRESS":"民族街２７５巷２４號之２２","OBJECTID":383740},"geometry":{"x":183089.07000000123,"y":2570235.540000001}},{"attributes":{"ID":383751,"DIS_CODE":0,"TOWNNAME":"六甲區","LI":"二甲里","LIN":"9鄰","STREET":"光復街","SECT":" ","MAREA":" ","LANE":"１４１巷","ALLEY":" ","HOUSE_NO":"２號","E_COORD97":182967.38,"N_COORD97":2569919.7000000002,"ADDRESS":"光復街１４１巷２號","OBJECTID":383741},"geometry":{"x":182967.38000000082,"y":2569919.6999999993}},{"attributes":{"ID":383752,"DIS_CODE":0,"TOWNNAME":"六甲區","LI":"水林里","LIN":"9鄰","STREET":"民族街","SECT":" ","MAREA":" ","LANE":"２７５巷","ALLEY":" ","HOUSE_NO":"２４號之２４","E_COORD97":183083.97,"N_COORD97":2570235.6000000001,"ADDRESS":"民族街２７５巷２４號之２４","OBJECTID":383742},"geometry":{"x":183083.97000000067,"y":2570235.6000000015}},{"attributes":{"ID":383753,"DIS_CODE":0,"TOWNNAME":"六甲區","LI":"水林里","LIN":"9鄰","STREET":"民族街","SECT":" ","MAREA":" ","LANE":"２７５巷","ALLEY":" ","HOUSE_NO":"２４號","E_COORD97":183099.25,"N_COORD97":2570268.6699999999,"ADDRESS":"民族街２７５巷２４號","OBJECTID":383743},"geometry":{"x":183099.25000000093,"y":2570268.6700000018}},{"attributes":{"ID":383754,"DIS_CODE":0,"TOWNNAME":"六甲區","LI":"水林里","LIN":"9鄰","STREET":"民族街","SECT":" ","MAREA":" ","LANE":"２７５巷","ALLEY":" ","HOUSE_NO":"２６號","E_COORD97":183083.67999999999,"N_COORD97":2570256.8999999999,"ADDRESS":"民族街２７５巷２６號","OBJECTID":383744},"geometry":{"x":183083.68000000156,"y":2570256.9000000041}},{"attributes":{"ID":383755,"DIS_CODE":0,"TOWNNAME":"六甲區","LI":"水林里","LIN":"9鄰","STREET":"民族街","SECT":" ","MAREA":" ","LANE":"２７５巷","ALLEY":" ","HOUSE_NO":"２８號","E_COORD97":183083.84,"N_COORD97":2570251.8399999999,"ADDRESS":"民族街２７５巷２８號","OBJECTID":383745},"geometry":{"x":183083.83999999985,"y":2570251.8399999999}},{"attributes":{"ID":383756,"DIS_CODE":0,"TOWNNAME":"六甲區","LI":"甲南里","LIN":"9鄰","STREET":"文化街","SECT":" ","MAREA":" ","LANE":"１７巷","ALLEY":" ","HOUSE_NO":"１０號","E_COORD97":183809.85999999999,"N_COORD97":2569714.1499999999,"ADDRESS":"文化街１７巷１０號","OBJECTID":383746},"geometry":{"x":183809.86000000034,"y":2569714.1500000022}},{"attributes":{"ID":383757,"DIS_CODE":0,"TOWNNAME":"六甲區","LI":"甲南里","LIN":"9鄰","STREET":"文化街","SECT":" ","MAREA":" ","LANE":"１７巷","ALLEY":" ","HOUSE_NO":"２號","E_COORD97":183807.82999999999,"N_COORD97":2569701.1000000001,"ADDRESS":"文化街１７巷２號","OBJECTID":383747},"geometry":{"x":183807.83000000007,"y":2569701.0999999996}},{"attributes":{"ID":383758,"DIS_CODE":0,"TOWNNAME":"六甲區","LI":"甲南里","LIN":"9鄰","STREET":"文化街","SECT":" ","MAREA":" ","LANE":"１７巷","ALLEY":" ","HOUSE_NO":"６號","E_COORD97":183808.95000000001,"N_COORD97":2569705.4399999999,"ADDRESS":"文化街１７巷６號","OBJECTID":383748},"geometry":{"x":183808.95000000019,"y":2569705.4399999995}},{"attributes":{"ID":383759,"DIS_CODE":0,"TOWNNAME":"六甲區","LI":"甲南里","LIN":"9鄰","STREET":"文化街","SECT":" ","MAREA":" ","LANE":"１７巷","ALLEY":" ","HOUSE_NO":"８號","E_COORD97":183809.01999999999,"N_COORD97":2569709.8300000001,"ADDRESS":"文化街１７巷８號","OBJECTID":383749},"geometry":{"x":183809.02000000048,"y":2569709.8300000001}},{"attributes":{"ID":383760,"DIS_CODE":0,"TOWNNAME":"六甲區","LI":"甲南里","LIN":"9鄰","STREET":"文化街","SECT":" ","MAREA":" ","LANE":"２５巷","ALLEY":" ","HOUSE_NO":"１號","E_COORD97":183821.97,"N_COORD97":2569722.52,"ADDRESS":"文化街２５巷１號","OBJECTID":383750},"geometry":{"x":183821.96999999974,"y":2569722.5199999977}},{"attributes":{"ID":383761,"DIS_CODE":0,"TOWNNAME":"六甲區","LI":"甲南里","LIN":"9鄰","STREET":"文化街","SECT":" ","MAREA":" ","LANE":"２５巷","ALLEY":" ","HOUSE_NO":"３號","E_COORD97":183834.26000000001,"N_COORD97":2569725,"ADDRESS":"文化街２５巷３號","OBJECTID":383751},"geometry":{"x":183834.26000000164,"y":2569725.0000000019}},{"attributes":{"ID":383762,"DIS_CODE":0,"TOWNNAME":"六甲區","LI":"水林里","LIN":"9鄰","STREET":"民族街","SECT":" ","MAREA":" ","LANE":"２７５巷","ALLEY":" ","HOUSE_NO":"３０之１號","E_COORD97":183095.92000000001,"N_COORD97":2570242.4199999999,"ADDRESS":"民族街２７５巷３０之１號","OBJECTID":383752},"geometry":{"x":183095.92000000179,"y":2570242.4200000037}},{"attributes":{"ID":383763,"DIS_CODE":0,"TOWNNAME":"六甲區","LI":"水林里","LIN":"9鄰","STREET":"民族街","SECT":" ","MAREA":" ","LANE":"２７５巷","ALLEY":" ","HOUSE_NO":"３０號","E_COORD97":183095.70999999999,"N_COORD97":2570246.25,"ADDRESS":"民族街２７５巷３０號","OBJECTID":383753},"geometry":{"x":183095.71000000183,"y":2570246.25}},{"attributes":{"ID":383764,"DIS_CODE":0,"TOWNNAME":"六甲區","LI":"水林里","LIN":"9鄰","STREET":"民族街","SECT":" ","MAREA":" ","LANE":"２７５巷","ALLEY":" ","HOUSE_NO":"３２號","E_COORD97":183079.23000000001,"N_COORD97":2570235.23,"ADDRESS":"民族街２７５巷３２號","OBJECTID":383754},"geometry":{"x":183079.23000000138,"y":2570235.2300000023}},{"attributes":{"ID":383765,"DIS_CODE":0,"TOWNNAME":"新營區","LI":"興業里","LIN":"9鄰","STREET":"中興路","SECT":" ","MAREA":" ","LANE":"１３巷","ALLEY":" ","HOUSE_NO":"１之２號","E_COORD97":180148.66,"N_COORD97":2577981.79,"ADDRESS":"中興路１３巷１之２號","OBJECTID":383755},"geometry":{"x":180148.66000000108,"y":2577981.7899999991}},{"attributes":{"ID":383766,"DIS_CODE":0,"TOWNNAME":"新營區","LI":"民生里","LIN":"9鄰","STREET":"復興路","SECT":" ","MAREA":" ","LANE":"１４８巷","ALLEY":" ","HOUSE_NO":"７之３號","E_COORD97":179265.57000000001,"N_COORD97":2578119.9900000002,"ADDRESS":"復興路１４８巷７之３號","OBJECTID":383756},"geometry":{"x":179265.5700000003,"y":2578119.9900000002}},{"attributes":{"ID":383767,"DIS_CODE":0,"TOWNNAME":"新營區","LI":"大宏里","LIN":"9鄰","STREET":"民治路","SECT":" ","MAREA":" ","LANE":"２９巷","ALLEY":" ","HOUSE_NO":"４９號","E_COORD97":180194.87,"N_COORD97":2578702.4700000002,"ADDRESS":"民治路２９巷４９號","OBJECTID":383757},"geometry":{"x":180194.87000000104,"y":2578702.4700000025}},{"attributes":{"ID":383768,"DIS_CODE":0,"TOWNNAME":"新營區","LI":"南興里","LIN":"9鄰","STREET":"和平路","SECT":" ","MAREA":" ","LANE":"１０２巷","ALLEY":" ","HOUSE_NO":"３８號","E_COORD97":179297.78,"N_COORD97":2577618.1099999999,"ADDRESS":"和平路１０２巷３８號","OBJECTID":383758},"geometry":{"x":179297.78000000026,"y":2577618.1100000031}},{"attributes":{"ID":383769,"DIS_CODE":0,"TOWNNAME":"新營區","LI":"新東里","LIN":"9鄰","STREET":"東仁街","SECT":" ","MAREA":" ","LANE":"４３巷","ALLEY":" ","HOUSE_NO":"１７號","E_COORD97":181234.26000000001,"N_COORD97":2579638.9399999999,"ADDRESS":"東仁街４３巷１７號","OBJECTID":383759},"geometry":{"x":181234.26000000071,"y":2579638.9399999995}},{"attributes":{"ID":383770,"DIS_CODE":0,"TOWNNAME":"新營區","LI":"南興里","LIN":"9鄰","STREET":"和平路","SECT":" ","MAREA":" ","LANE":"１０２巷","ALLEY":" ","HOUSE_NO":"３６號","E_COORD97":179308.01000000001,"N_COORD97":2577616.9500000002,"ADDRESS":"和平路１０２巷３６號","OBJECTID":383760},"geometry":{"x":179308.01000000164,"y":2577616.9500000011}},{"attributes":{"ID":383771,"DIS_CODE":0,"TOWNNAME":"新營區","LI":"興安里","LIN":"9鄰","STREET":"新進路","SECT":" ","MAREA":" ","LANE":"２８１巷","ALLEY":" ","HOUSE_NO":"８號","E_COORD97":179980.62,"N_COORD97":2577785.3999999999,"ADDRESS":"新進路２８１巷８號","OBJECTID":383761},"geometry":{"x":179980.62000000197,"y":2577785.4000000004}},{"attributes":{"ID":383772,"DIS_CODE":0,"TOWNNAME":"柳營區","LI":"士林里","LIN":"9鄰","STREET":"中山西路","SECT":"三段","MAREA":" ","LANE":"６６巷","ALLEY":" ","HOUSE_NO":"２號","E_COORD97":179552.17000000001,"N_COORD97":2575115.5800000001,"ADDRESS":"中山西路三段６６巷２號","OBJECTID":383762},"geometry":{"x":179552.16999999993,"y":2575115.5800000001}},{"attributes":{"ID":383773,"DIS_CODE":0,"TOWNNAME":"東區","LI":"新東里","LIN":"15鄰","STREET":"裕豐街","SECT":" ","MAREA":" ","LANE":"１３３巷","ALLEY":" ","HOUSE_NO":"４８號","E_COORD97":170641.34,"N_COORD97":2543056.7999999998,"ADDRESS":"裕豐街１３３巷４８號","OBJECTID":383763},"geometry":{"x":170641.33999999985,"y":2543056.8000000045}},{"attributes":{"ID":383774,"DIS_CODE":0,"TOWNNAME":"東區","LI":"新東里","LIN":"15鄰","STREET":"裕豐街","SECT":" ","MAREA":" ","LANE":"１３３巷","ALLEY":" ","HOUSE_NO":"３５號","E_COORD97":170652.20000000001,"N_COORD97":2543031.6099999999,"ADDRESS":"裕豐街１３３巷３５號","OBJECTID":383764},"geometry":{"x":170652.20000000112,"y":2543031.6099999994}},{"attributes":{"ID":383775,"DIS_CODE":0,"TOWNNAME":"東區","LI":"富裕里","LIN":"6鄰","STREET":"裕農路","SECT":" ","MAREA":" ","LANE":"２８８巷","ALLEY":" ","HOUSE_NO":"１２號","E_COORD97":170816.57999999999,"N_COORD97":2542932.3999999999,"ADDRESS":"裕農路２８８巷１２號","OBJECTID":383765},"geometry":{"x":170816.57999999914,"y":2542932.4000000004}},{"attributes":{"ID":383776,"DIS_CODE":0,"TOWNNAME":"東區","LI":"富裕里","LIN":"6鄰","STREET":"裕農路","SECT":" ","MAREA":" ","LANE":"２８８巷","ALLEY":" ","HOUSE_NO":"１４號","E_COORD97":170820.95000000001,"N_COORD97":2542931.9500000002,"ADDRESS":"裕農路２８８巷１４號","OBJECTID":383766},"geometry":{"x":170820.94999999925,"y":2542931.9499999974}},{"attributes":{"ID":383777,"DIS_CODE":0,"TOWNNAME":"東區","LI":"富裕里","LIN":"6鄰","STREET":"裕農路","SECT":" ","MAREA":" ","LANE":"２８８巷","ALLEY":" ","HOUSE_NO":"１６號","E_COORD97":170825.38,"N_COORD97":2542931.8900000001,"ADDRESS":"裕農路２８８巷１６號","OBJECTID":383767},"geometry":{"x":170825.38000000082,"y":2542931.8900000025}},{"attributes":{"ID":383778,"DIS_CODE":0,"TOWNNAME":"東區","LI":"富裕里","LIN":"6鄰","STREET":"裕農路","SECT":" ","MAREA":" ","LANE":"２８８巷","ALLEY":" ","HOUSE_NO":"２號","E_COORD97":170797.17000000001,"N_COORD97":2542934.3900000001,"ADDRESS":"裕農路２８８巷２號","OBJECTID":383768},"geometry":{"x":170797.17000000179,"y":2542934.3900000025}},{"attributes":{"ID":383779,"DIS_CODE":0,"TOWNNAME":"東區","LI":"富裕里","LIN":"6鄰","STREET":"裕農路","SECT":" ","MAREA":" ","LANE":"２８８巷","ALLEY":" ","HOUSE_NO":"４號","E_COORD97":170800.69,"N_COORD97":2542932.7999999998,"ADDRESS":"裕農路２８８巷４號","OBJECTID":383769},"geometry":{"x":170800.69000000041,"y":2542932.8000000026}},{"attributes":{"ID":383780,"DIS_CODE":0,"TOWNNAME":"東區","LI":"富裕里","LIN":"6鄰","STREET":"裕農路","SECT":" ","MAREA":" ","LANE":"２８８巷","ALLEY":" ","HOUSE_NO":"６號","E_COORD97":170804.54999999999,"N_COORD97":2542931.8399999999,"ADDRESS":"裕農路２８８巷６號","OBJECTID":383770},"geometry":{"x":170804.54999999981,"y":2542931.8399999999}},{"attributes":{"ID":383781,"DIS_CODE":0,"TOWNNAME":"東區","LI":"富裕里","LIN":"6鄰","STREET":"裕農路","SECT":" ","MAREA":" ","LANE":"２８８巷","ALLEY":" ","HOUSE_NO":"８號","E_COORD97":170808.57999999999,"N_COORD97":2542931.4900000002,"ADDRESS":"裕農路２８８巷８號","OBJECTID":383771},"geometry":{"x":170808.58000000101,"y":2542931.4900000002}},{"attributes":{"ID":383782,"DIS_CODE":0,"TOWNNAME":"北區","LI":"國姓里","LIN":"9鄰","STREET":"公園路","SECT":" ","MAREA":" ","LANE":"４２７巷","ALLEY":" ","HOUSE_NO":"１３號","E_COORD97":168945.10000000001,"N_COORD97":2545278.9199999999,"ADDRESS":"公園路４２７巷１３號","OBJECTID":383772},"geometry":{"x":168945.10000000056,"y":2545278.9199999981}},{"attributes":{"ID":383783,"DIS_CODE":0,"TOWNNAME":"北區","LI":"國姓里","LIN":"9鄰","STREET":"公園路","SECT":" ","MAREA":" ","LANE":"４２７巷","ALLEY":" ","HOUSE_NO":"１４號","E_COORD97":168903.25,"N_COORD97":2545271.0299999998,"ADDRESS":"公園路４２７巷１４號","OBJECTID":383773},"geometry":{"x":168903.25000000186,"y":2545271.0300000031}},{"attributes":{"ID":383784,"DIS_CODE":0,"TOWNNAME":"北區","LI":"國姓里","LIN":"9鄰","STREET":"公園路","SECT":" ","MAREA":" ","LANE":"４２７巷","ALLEY":" ","HOUSE_NO":"１５號","E_COORD97":168940.39000000001,"N_COORD97":2545272.8300000001,"ADDRESS":"公園路４２７巷１５號","OBJECTID":383774},"geometry":{"x":168940.38999999966,"y":2545272.8300000001}},{"attributes":{"ID":383785,"DIS_CODE":0,"TOWNNAME":"北區","LI":"國姓里","LIN":"9鄰","STREET":"公園路","SECT":" ","MAREA":" ","LANE":"４２７巷","ALLEY":" ","HOUSE_NO":"２３號","E_COORD97":168883.73999999999,"N_COORD97":2545250.1299999999,"ADDRESS":"公園路４２７巷２３號","OBJECTID":383775},"geometry":{"x":168883.74000000115,"y":2545250.1300000008}},{"attributes":{"ID":383786,"DIS_CODE":0,"TOWNNAME":"北區","LI":"國姓里","LIN":"9鄰","STREET":"公園路","SECT":" ","MAREA":" ","LANE":"４２７巷","ALLEY":" ","HOUSE_NO":"２７號","E_COORD97":168867.04999999999,"N_COORD97":2545245.3300000001,"ADDRESS":"公園路４２７巷２７號","OBJECTID":383776},"geometry":{"x":168867.05000000168,"y":2545245.3300000001}},{"attributes":{"ID":383787,"DIS_CODE":0,"TOWNNAME":"北區","LI":"國姓里","LIN":"9鄰","STREET":"公園路","SECT":" ","MAREA":" ","LANE":"４２７巷","ALLEY":" ","HOUSE_NO":"２９號","E_COORD97":168860.82999999999,"N_COORD97":2545245.3300000001,"ADDRESS":"公園路４２７巷２９號","OBJECTID":383777},"geometry":{"x":168860.83000000101,"y":2545245.3300000001}},{"attributes":{"ID":383788,"DIS_CODE":0,"TOWNNAME":"北區","LI":"國姓里","LIN":"9鄰","STREET":"公園路","SECT":" ","MAREA":" ","LANE":"４２７巷","ALLEY":" ","HOUSE_NO":"３１號","E_COORD97":168853.78,"N_COORD97":2545247.2200000002,"ADDRESS":"公園路４２７巷３１號","OBJECTID":383778},"geometry":{"x":168853.78000000026,"y":2545247.2199999988}},{"attributes":{"ID":383789,"DIS_CODE":0,"TOWNNAME":"北區","LI":"國姓里","LIN":"9鄰","STREET":"公園路","SECT":" ","MAREA":" ","LANE":"４２７巷","ALLEY":" ","HOUSE_NO":"８號","E_COORD97":168944.48000000001,"N_COORD97":2545294.9900000002,"ADDRESS":"公園路４２７巷８號","OBJECTID":383779},"geometry":{"x":168944.48000000231,"y":2545294.9900000002}},{"attributes":{"ID":383790,"DIS_CODE":0,"TOWNNAME":"北區","LI":"國姓里","LIN":"9鄰","STREET":"公園路","SECT":" ","MAREA":" ","LANE":"４２７巷","ALLEY":" ","HOUSE_NO":"９號","E_COORD97":168954.81,"N_COORD97":2545286.1299999999,"ADDRESS":"公園路４２７巷９號","OBJECTID":383780},"geometry":{"x":168954.80999999959,"y":2545286.129999999}},{"attributes":{"ID":383791,"DIS_CODE":0,"TOWNNAME":"南區","LI":"大忠里","LIN":"9鄰","STREET":"大同路","SECT":"二段","MAREA":" ","LANE":"４８２巷","ALLEY":" ","HOUSE_NO":"７５號之１","E_COORD97":169252.09,"N_COORD97":2541489.3799999999,"ADDRESS":"大同路二段４８２巷７５號之１","OBJECTID":383781},"geometry":{"x":169252.09000000078,"y":2541489.3800000008}},{"attributes":{"ID":383792,"DIS_CODE":0,"TOWNNAME":"南區","LI":"明興里","LIN":"9鄰","STREET":"金華路","SECT":"一段","MAREA":" ","LANE":"１１６巷","ALLEY":" ","HOUSE_NO":"４１號","E_COORD97":167024.06,"N_COORD97":2540551.0099999998,"ADDRESS":"金華路一段１１６巷４１號","OBJECTID":383782},"geometry":{"x":167024.05999999866,"y":2540551.0099999998}},{"attributes":{"ID":383793,"DIS_CODE":0,"TOWNNAME":"南區","LI":"再興里","LIN":"9鄰","STREET":"仁慈街","SECT":" ","MAREA":" ","LANE":"７６巷","ALLEY":" ","HOUSE_NO":"２９號","E_COORD97":167253.42999999999,"N_COORD97":2542234.9300000002,"ADDRESS":"仁慈街７６巷２９號","OBJECTID":383783},"geometry":{"x":167253.4299999997,"y":2542234.9300000016}},{"attributes":{"ID":383794,"DIS_CODE":0,"TOWNNAME":"南區","LI":"再興里","LIN":"9鄰","STREET":"仁慈街","SECT":" ","MAREA":" ","LANE":"７６巷","ALLEY":" ","HOUSE_NO":"２７號","E_COORD97":167252.16,"N_COORD97":2542231.4399999999,"ADDRESS":"仁慈街７６巷２７號","OBJECTID":383784},"geometry":{"x":167252.16000000015,"y":2542231.4400000013}},{"attributes":{"ID":383795,"DIS_CODE":0,"TOWNNAME":"南區","LI":"明興里","LIN":"9鄰","STREET":"金華路","SECT":"一段","MAREA":" ","LANE":"１１６巷","ALLEY":" ","HOUSE_NO":"２號","E_COORD97":166934.54999999999,"N_COORD97":2540534.3799999999,"ADDRESS":"金華路一段１１６巷２號","OBJECTID":383785},"geometry":{"x":166934.55000000168,"y":2540534.379999999}},{"attributes":{"ID":383796,"DIS_CODE":0,"TOWNNAME":"南區","LI":"光明里","LIN":"9鄰","STREET":"新建路","SECT":" ","MAREA":" ","LANE":"１９巷","ALLEY":" ","HOUSE_NO":"４６號","E_COORD97":166651.87,"N_COORD97":2541440.98,"ADDRESS":"新建路１９巷４６號","OBJECTID":383786},"geometry":{"x":166651.87000000104,"y":2541440.9800000004}},{"attributes":{"ID":383797,"DIS_CODE":0,"TOWNNAME":"南區","LI":"光明里","LIN":"9鄰","STREET":"新建路","SECT":" ","MAREA":" ","LANE":"１９巷","ALLEY":" ","HOUSE_NO":"４８號","E_COORD97":166656.44,"N_COORD97":2541438.6299999999,"ADDRESS":"新建路１９巷４８號","OBJECTID":383787},"geometry":{"x":166656.44000000134,"y":2541438.6299999971}},{"attributes":{"ID":383798,"DIS_CODE":0,"TOWNNAME":"南區","LI":"光明里","LIN":"9鄰","STREET":"新建路","SECT":" ","MAREA":" ","LANE":"１９巷","ALLEY":" ","HOUSE_NO":"５０號","E_COORD97":166660.12,"N_COORD97":2541442.3100000001,"ADDRESS":"新建路１９巷５０號","OBJECTID":383788},"geometry":{"x":166660.12000000104,"y":2541442.3100000005}},{"attributes":{"ID":383799,"DIS_CODE":0,"TOWNNAME":"南區","LI":"文南里","LIN":"9鄰","STREET":"長南街","SECT":" ","MAREA":" ","LANE":"３６巷","ALLEY":" ","HOUSE_NO":"２９號","E_COORD97":166977.03,"N_COORD97":2542714.1899999999,"ADDRESS":"長南街３６巷２９號","OBJECTID":383789},"geometry":{"x":166977.03000000026,"y":2542714.1900000013}},{"attributes":{"ID":383800,"DIS_CODE":0,"TOWNNAME":"南區","LI":"文南里","LIN":"9鄰","STREET":"長南街","SECT":" ","MAREA":" ","LANE":"３６巷","ALLEY":" ","HOUSE_NO":"３１號","E_COORD97":166977.45000000001,"N_COORD97":2542718.6499999999,"ADDRESS":"長南街３６巷３１號","OBJECTID":383790},"geometry":{"x":166977.45000000019,"y":2542718.6500000022}},{"attributes":{"ID":383801,"DIS_CODE":0,"TOWNNAME":"南區","LI":"文南里","LIN":"9鄰","STREET":"長南街","SECT":" ","MAREA":" ","LANE":"３６巷","ALLEY":" ","HOUSE_NO":"４１號","E_COORD97":166978.57000000001,"N_COORD97":2542742.71,"ADDRESS":"長南街３６巷４１號","OBJECTID":383791},"geometry":{"x":166978.5700000003,"y":2542742.7100000028}},{"attributes":{"ID":383802,"DIS_CODE":0,"TOWNNAME":"南區","LI":"文南里","LIN":"9鄰","STREET":"長南街","SECT":" ","MAREA":" ","LANE":"３６巷","ALLEY":" ","HOUSE_NO":"４３號","E_COORD97":166978.57000000001,"N_COORD97":2542747.0299999998,"ADDRESS":"長南街３６巷４３號","OBJECTID":383792},"geometry":{"x":166978.5700000003,"y":2542747.0299999993}},{"attributes":{"ID":383803,"DIS_CODE":0,"TOWNNAME":"南區","LI":"文南里","LIN":"9鄰","STREET":"長南街","SECT":" ","MAREA":" ","LANE":"３６巷","ALLEY":" ","HOUSE_NO":"４５號","E_COORD97":166978.98000000001,"N_COORD97":2542751.8999999999,"ADDRESS":"長南街３６巷４５號","OBJECTID":383793},"geometry":{"x":166978.98000000045,"y":2542751.9000000022}},{"attributes":{"ID":383804,"DIS_CODE":0,"TOWNNAME":"南區","LI":"文南里","LIN":"9鄰","STREET":"長南街","SECT":" ","MAREA":" ","LANE":"３６巷","ALLEY":" ","HOUSE_NO":"４７號","E_COORD97":166979.67999999999,"N_COORD97":2542756.0899999999,"ADDRESS":"長南街３６巷４７號","OBJECTID":383794},"geometry":{"x":166979.68000000063,"y":2542756.0900000017}},{"attributes":{"ID":383805,"DIS_CODE":0,"TOWNNAME":"南區","LI":"文南里","LIN":"9鄰","STREET":"長南街","SECT":" ","MAREA":" ","LANE":"３６巷","ALLEY":" ","HOUSE_NO":"５號","E_COORD97":166972.70999999999,"N_COORD97":2542658.2799999998,"ADDRESS":"長南街３６巷５號","OBJECTID":383795},"geometry":{"x":166972.71000000183,"y":2542658.2799999993}},{"attributes":{"ID":383806,"DIS_CODE":0,"TOWNNAME":"南區","LI":"文南里","LIN":"9鄰","STREET":"長南街","SECT":" ","MAREA":" ","LANE":"３６巷","ALLEY":" ","HOUSE_NO":"７號","E_COORD97":166973.54000000001,"N_COORD97":2542663.1600000001,"ADDRESS":"長南街３６巷７號","OBJECTID":383796},"geometry":{"x":166973.54000000004,"y":2542663.1600000001}},{"attributes":{"ID":383807,"DIS_CODE":0,"TOWNNAME":"南區","LI":"文南里","LIN":"9鄰","STREET":"長南街","SECT":" ","MAREA":" ","LANE":"３６巷","ALLEY":" ","HOUSE_NO":"９號","E_COORD97":166973.67999999999,"N_COORD97":2542667.8999999999,"ADDRESS":"長南街３６巷９號","OBJECTID":383797},"geometry":{"x":166973.6799999997,"y":2542667.9000000004}},{"attributes":{"ID":383808,"DIS_CODE":0,"TOWNNAME":"南區","LI":"文南里","LIN":"9鄰","STREET":"金華路","SECT":"二段","MAREA":" ","LANE":"２８９巷","ALLEY":" ","HOUSE_NO":"３９號","E_COORD97":166982.32999999999,"N_COORD97":2542779.0800000001,"ADDRESS":"金華路二段２８９巷３９號","OBJECTID":383798},"geometry":{"x":166982.33000000101,"y":2542779.0800000001}},{"attributes":{"ID":383809,"DIS_CODE":0,"TOWNNAME":"南區","LI":"日新里","LIN":"9鄰","STREET":"利南街","SECT":" ","MAREA":" ","LANE":"１４８巷","ALLEY":" ","HOUSE_NO":"１０號","E_COORD97":166904.85000000001,"N_COORD97":2541551.73,"ADDRESS":"利南街１４８巷１０號","OBJECTID":383799},"geometry":{"x":166904.84999999963,"y":2541551.7300000042}},{"attributes":{"ID":383810,"DIS_CODE":0,"TOWNNAME":"南區","LI":"日新里","LIN":"9鄰","STREET":"利南街","SECT":" ","MAREA":" ","LANE":"１４８巷","ALLEY":" ","HOUSE_NO":"８號","E_COORD97":166900.73999999999,"N_COORD97":2541545.7999999998,"ADDRESS":"利南街１４８巷８號","OBJECTID":383800},"geometry":{"x":166900.74000000022,"y":2541545.8000000026}}]}