{"displayFieldName":"TOWNNAME","fieldAliases":{"ID":"ID","DIS_CODE":"DIS_CODE","TOWNNAME":"TOWNNAME","LI":"LI","LIN":"LIN","STREET":"STREET","SECT":"SECT","MAREA":"MAREA","LANE":"LANE","ALLEY":"ALLEY","HOUSE_NO":"HOUSE_NO","E_COORD97":"E_COORD97","N_COORD97":"N_COORD97","ADDRESS":"ADDRESS","OBJECTID":"OBJECTID"},"geometryType":"esriGeometryPoint","spatialReference":{"wkid":102443,"latestWkid":3826},"fields":[{"name":"ID","type":"esriFieldTypeDouble","alias":"ID"},{"name":"DIS_CODE","type":"esriFieldTypeInteger","alias":"DIS_CODE"},{"name":"TOWNNAME","type":"esriFieldTypeString","alias":"TOWNNAME","length":8},{"name":"LI","type":"esriFieldTypeString","alias":"LI","length":8},{"name":"LIN","type":"esriFieldTypeString","alias":"LIN","length":12},{"name":"STREET","type":"esriFieldTypeString","alias":"STREET","length":20},{"name":"SECT","type":"esriFieldTypeString","alias":"SECT","length":8},{"name":"MAREA","type":"esriFieldTypeString","alias":"MAREA","length":12},{"name":"LANE","type":"esriFieldTypeString","alias":"LANE","length":10},{"name":"ALLEY","type":"esriFieldTypeString","alias":"ALLEY","length":10},{"name":"HOUSE_NO","type":"esriFieldTypeString","alias":"HOUSE_NO","length":20},{"name":"E_COORD97","type":"esriFieldTypeDouble","alias":"E_COORD97"},{"name":"N_COORD97","type":"esriFieldTypeDouble","alias":"N_COORD97"},{"name":"ADDRESS","type":"esriFieldTypeString","alias":"ADDRESS","length":50},{"name":"OBJECTID","type":"esriFieldTypeOID","alias":"OBJECTID"}],"features":[{"attributes":{"ID":519628,"DIS_CODE":0,"TOWNNAME":"永康區","LI":"尚頂里","LIN":"35鄰","STREET":"國聖街","SECT":" ","MAREA":" ","LANE":" ","ALLEY":" ","HOUSE_NO":"７６號","E_COORD97":170393.73000000001,"N_COORD97":2547934.0499999998,"ADDRESS":"國聖街７６號","OBJECTID":519601},"geometry":{"x":170393.73000000045,"y":2547934.0500000045}},{"attributes":{"ID":519629,"DIS_CODE":0,"TOWNNAME":"永康區","LI":"埔園里","LIN":"35鄰","STREET":"八德街","SECT":" ","MAREA":" ","LANE":" ","ALLEY":" ","HOUSE_NO":"７７號","E_COORD97":174161.57000000001,"N_COORD97":2548508.52,"ADDRESS":"八德街７７號","OBJECTID":519602},"geometry":{"x":174161.57000000216,"y":2548508.5199999996}},{"attributes":{"ID":519630,"DIS_CODE":0,"TOWNNAME":"北區","LI":"成德里","LIN":"20鄰","STREET":"育德一街","SECT":" ","MAREA":" ","LANE":" ","ALLEY":" ","HOUSE_NO":"５５號","E_COORD97":168519.37854199999,"N_COORD97":2546131.1370199998,"ADDRESS":"育德一街５５號","OBJECTID":519603},"geometry":{"x":168519.37854200043,"y":2546131.1370150037}},{"attributes":{"ID":519631,"DIS_CODE":0,"TOWNNAME":"永康區","LI":"尚頂里","LIN":"35鄰","STREET":"國聖街","SECT":" ","MAREA":" ","LANE":" ","ALLEY":" ","HOUSE_NO":"７７之１２號","E_COORD97":170427.42999999999,"N_COORD97":2548075.2999999998,"ADDRESS":"國聖街７７之１２號","OBJECTID":519604},"geometry":{"x":170427.43000000156,"y":2548075.3000000026}},{"attributes":{"ID":519632,"DIS_CODE":0,"TOWNNAME":"永康區","LI":"西灣里","LIN":"35鄰","STREET":"國光八街","SECT":" ","MAREA":" ","LANE":" ","ALLEY":" ","HOUSE_NO":"７９號","E_COORD97":174248.88,"N_COORD97":2545753.7400000002,"ADDRESS":"國光八街７９號","OBJECTID":519605},"geometry":{"x":174248.88000000175,"y":2545753.7400000002}},{"attributes":{"ID":519633,"DIS_CODE":0,"TOWNNAME":"永康區","LI":"尚頂里","LIN":"35鄰","STREET":"國聖街","SECT":" ","MAREA":" ","LANE":" ","ALLEY":" ","HOUSE_NO":"６９號","E_COORD97":170392.48999999999,"N_COORD97":2547967.6200000001,"ADDRESS":"國聖街６９號","OBJECTID":519606},"geometry":{"x":170392.49000000115,"y":2547967.6200000048}},{"attributes":{"ID":519634,"DIS_CODE":0,"TOWNNAME":"永康區","LI":"尚頂里","LIN":"35鄰","STREET":"國聖街","SECT":" ","MAREA":" ","LANE":" ","ALLEY":" ","HOUSE_NO":"７７之１１號","E_COORD97":170419.88,"N_COORD97":2548084.7999999998,"ADDRESS":"國聖街７７之１１號","OBJECTID":519607},"geometry":{"x":170419.88000000082,"y":2548084.8000000045}},{"attributes":{"ID":519635,"DIS_CODE":0,"TOWNNAME":"永康區","LI":"西灣里","LIN":"35鄰","STREET":"國光八街","SECT":" ","MAREA":" ","LANE":" ","ALLEY":" ","HOUSE_NO":"７１號","E_COORD97":174265.28,"N_COORD97":2545757.0299999998,"ADDRESS":"國光八街７１號","OBJECTID":519608},"geometry":{"x":174265.28000000212,"y":2545757.0300000012}},{"attributes":{"ID":519636,"DIS_CODE":0,"TOWNNAME":"佳里區","LI":"安西里","LIN":"35鄰","STREET":"光華街","SECT":" ","MAREA":" ","LANE":" ","ALLEY":" ","HOUSE_NO":"１３８號","E_COORD97":165025.92000000001,"N_COORD97":2562823.9399999999,"ADDRESS":"光華街１３８號","OBJECTID":519609},"geometry":{"x":165025.92000000086,"y":2562823.9400000032}},{"attributes":{"ID":519637,"DIS_CODE":0,"TOWNNAME":"佳里區","LI":"安西里","LIN":"35鄰","STREET":"光華街","SECT":" ","MAREA":" ","LANE":" ","ALLEY":" ","HOUSE_NO":"１３９號","E_COORD97":165052.57999999999,"N_COORD97":2562801.3700000001,"ADDRESS":"光華街１３９號","OBJECTID":519610},"geometry":{"x":165052.58000000007,"y":2562801.370000001}},{"attributes":{"ID":519638,"DIS_CODE":0,"TOWNNAME":"佳里區","LI":"安西里","LIN":"35鄰","STREET":"光華街","SECT":" ","MAREA":" ","LANE":" ","ALLEY":" ","HOUSE_NO":"１４０號","E_COORD97":165021.29999999999,"N_COORD97":2562824.1000000001,"ADDRESS":"光華街１４０號","OBJECTID":519611},"geometry":{"x":165021.30000000075,"y":2562824.1000000015}},{"attributes":{"ID":519639,"DIS_CODE":0,"TOWNNAME":"佳里區","LI":"安西里","LIN":"35鄰","STREET":"光華街","SECT":" ","MAREA":" ","LANE":" ","ALLEY":" ","HOUSE_NO":"１４１號","E_COORD97":165048.12,"N_COORD97":2562801.4100000001,"ADDRESS":"光華街１４１號","OBJECTID":519612},"geometry":{"x":165048.12000000104,"y":2562801.410000002}},{"attributes":{"ID":519640,"DIS_CODE":0,"TOWNNAME":"佳里區","LI":"安西里","LIN":"35鄰","STREET":"光華街","SECT":" ","MAREA":" ","LANE":" ","ALLEY":" ","HOUSE_NO":"１４２號","E_COORD97":165015.70999999999,"N_COORD97":2562824.2000000002,"ADDRESS":"光華街１４２號","OBJECTID":519613},"geometry":{"x":165015.70999999996,"y":2562824.1999999993}},{"attributes":{"ID":519641,"DIS_CODE":0,"TOWNNAME":"佳里區","LI":"安西里","LIN":"35鄰","STREET":"光華街","SECT":" ","MAREA":" ","LANE":" ","ALLEY":" ","HOUSE_NO":"１４３號","E_COORD97":165043.94,"N_COORD97":2562801.3300000001,"ADDRESS":"光華街１４３號","OBJECTID":519614},"geometry":{"x":165043.94000000041,"y":2562801.3300000038}},{"attributes":{"ID":519642,"DIS_CODE":0,"TOWNNAME":"佳里區","LI":"安西里","LIN":"35鄰","STREET":"光華街","SECT":" ","MAREA":" ","LANE":" ","ALLEY":" ","HOUSE_NO":"１４５號","E_COORD97":165038.67999999999,"N_COORD97":2562801.4100000001,"ADDRESS":"光華街１４５號","OBJECTID":519615},"geometry":{"x":165038.68000000063,"y":2562801.410000002}},{"attributes":{"ID":519643,"DIS_CODE":0,"TOWNNAME":"佳里區","LI":"安西里","LIN":"35鄰","STREET":"光華街","SECT":" ","MAREA":" ","LANE":" ","ALLEY":" ","HOUSE_NO":"１４６號","E_COORD97":165008.82000000001,"N_COORD97":2562824.23,"ADDRESS":"光華街１４６號","OBJECTID":519616},"geometry":{"x":165008.8200000003,"y":2562824.2300000023}},{"attributes":{"ID":519644,"DIS_CODE":0,"TOWNNAME":"佳里區","LI":"安西里","LIN":"35鄰","STREET":"光華街","SECT":" ","MAREA":" ","LANE":" ","ALLEY":" ","HOUSE_NO":"１４７號","E_COORD97":165034.95000000001,"N_COORD97":2562801.2599999998,"ADDRESS":"光華街１４７號","OBJECTID":519617},"geometry":{"x":165034.95000000019,"y":2562801.2599999998}},{"attributes":{"ID":519645,"DIS_CODE":0,"TOWNNAME":"佳里區","LI":"安西里","LIN":"35鄰","STREET":"光華街","SECT":" ","MAREA":" ","LANE":" ","ALLEY":" ","HOUSE_NO":"１４８號","E_COORD97":165002.23000000001,"N_COORD97":2562824.73,"ADDRESS":"光華街１４８號","OBJECTID":519618},"geometry":{"x":165002.23000000138,"y":2562824.7300000004}},{"attributes":{"ID":519646,"DIS_CODE":0,"TOWNNAME":"佳里區","LI":"安西里","LIN":"35鄰","STREET":"光華街","SECT":" ","MAREA":" ","LANE":" ","ALLEY":" ","HOUSE_NO":"１４９號","E_COORD97":165030.17999999999,"N_COORD97":2562801.6299999999,"ADDRESS":"光華街１４９號","OBJECTID":519619},"geometry":{"x":165030.18000000063,"y":2562801.6300000027}},{"attributes":{"ID":519647,"DIS_CODE":0,"TOWNNAME":"佳里區","LI":"安西里","LIN":"35鄰","STREET":"光華街","SECT":" ","MAREA":" ","LANE":" ","ALLEY":" ","HOUSE_NO":"１５１號","E_COORD97":165025,"N_COORD97":2562801.5699999998,"ADDRESS":"光華街１５１號","OBJECTID":519620},"geometry":{"x":165025.00000000093,"y":2562801.5700000022}},{"attributes":{"ID":519648,"DIS_CODE":0,"TOWNNAME":"佳里區","LI":"安西里","LIN":"35鄰","STREET":"光華街","SECT":" ","MAREA":" ","LANE":" ","ALLEY":" ","HOUSE_NO":"１５３號","E_COORD97":165020.95999999999,"N_COORD97":2562801.7599999998,"ADDRESS":"光華街１５３號","OBJECTID":519621},"geometry":{"x":165020.95999999996,"y":2562801.7600000035}},{"attributes":{"ID":519649,"DIS_CODE":0,"TOWNNAME":"佳里區","LI":"安西里","LIN":"35鄰","STREET":"光華街","SECT":" ","MAREA":" ","LANE":" ","ALLEY":" ","HOUSE_NO":"１９５號","E_COORD97":164870.10999999999,"N_COORD97":2562801.6800000002,"ADDRESS":"光華街１９５號","OBJECTID":519622},"geometry":{"x":164870.1100000022,"y":2562801.6799999997}},{"attributes":{"ID":519650,"DIS_CODE":0,"TOWNNAME":"佳里區","LI":"安西里","LIN":"35鄰","STREET":"光華街","SECT":" ","MAREA":" ","LANE":" ","ALLEY":" ","HOUSE_NO":"１９７號","E_COORD97":164871.29000000001,"N_COORD97":2562808.0899999999,"ADDRESS":"光華街１９７號","OBJECTID":519623},"geometry":{"x":164871.29000000004,"y":2562808.0899999999}},{"attributes":{"ID":519651,"DIS_CODE":0,"TOWNNAME":"佳里區","LI":"安西里","LIN":"35鄰","STREET":"光華街","SECT":" ","MAREA":" ","LANE":" ","ALLEY":" ","HOUSE_NO":"１９９號","E_COORD97":164889.14000000001,"N_COORD97":2562805.0800000001,"ADDRESS":"光華街１９９號","OBJECTID":519624},"geometry":{"x":164889.13999999966,"y":2562805.0800000001}},{"attributes":{"ID":519652,"DIS_CODE":0,"TOWNNAME":"佳里區","LI":"安西里","LIN":"35鄰","STREET":"光華街","SECT":" ","MAREA":" ","LANE":" ","ALLEY":" ","HOUSE_NO":"２０１號","E_COORD97":164888.09,"N_COORD97":2562799.0600000001,"ADDRESS":"光華街２０１號","OBJECTID":519625},"geometry":{"x":164888.08999999985,"y":2562799.0600000005}},{"attributes":{"ID":519653,"DIS_CODE":0,"TOWNNAME":"佳里區","LI":"安西里","LIN":"35鄰","STREET":"光華街","SECT":" ","MAREA":" ","LANE":" ","ALLEY":" ","HOUSE_NO":"２０３號","E_COORD97":164886.48000000001,"N_COORD97":2562792.9399999999,"ADDRESS":"光華街２０３號","OBJECTID":519626},"geometry":{"x":164886.48000000138,"y":2562792.9399999995}},{"attributes":{"ID":519654,"DIS_CODE":0,"TOWNNAME":"佳里區","LI":"安西里","LIN":"35鄰","STREET":"光華街","SECT":" ","MAREA":" ","LANE":" ","ALLEY":" ","HOUSE_NO":"２０５號","E_COORD97":164885.89000000001,"N_COORD97":2562786.7999999998,"ADDRESS":"光華街２０５號","OBJECTID":519627},"geometry":{"x":164885.88999999966,"y":2562786.8000000026}},{"attributes":{"ID":519655,"DIS_CODE":0,"TOWNNAME":"佳里區","LI":"安西里","LIN":"35鄰","STREET":"光華街","SECT":" ","MAREA":" ","LANE":" ","ALLEY":" ","HOUSE_NO":"２０７號","E_COORD97":164884.56,"N_COORD97":2562780.8199999998,"ADDRESS":"光華街２０７號","OBJECTID":519628},"geometry":{"x":164884.55999999959,"y":2562780.8200000003}},{"attributes":{"ID":519656,"DIS_CODE":0,"TOWNNAME":"佳里區","LI":"安西里","LIN":"35鄰","STREET":"光華街","SECT":" ","MAREA":" ","LANE":" ","ALLEY":" ","HOUSE_NO":"２０９號","E_COORD97":164883.48000000001,"N_COORD97":2562774.3599999999,"ADDRESS":"光華街２０９號","OBJECTID":519629},"geometry":{"x":164883.48000000138,"y":2562774.3600000013}},{"attributes":{"ID":519657,"DIS_CODE":0,"TOWNNAME":"佳里區","LI":"安西里","LIN":"35鄰","STREET":"光華街","SECT":" ","MAREA":" ","LANE":" ","ALLEY":" ","HOUSE_NO":"２１１號","E_COORD97":164863.10000000001,"N_COORD97":2562803.6499999999,"ADDRESS":"光華街２１１號","OBJECTID":519630},"geometry":{"x":164863.10000000056,"y":2562803.6500000022}},{"attributes":{"ID":519658,"DIS_CODE":0,"TOWNNAME":"北區","LI":"成德里","LIN":"8鄰","STREET":"立賢路","SECT":"一段","MAREA":" ","LANE":" ","ALLEY":" ","HOUSE_NO":"１１５號","E_COORD97":168440.87,"N_COORD97":2545560.9700000002,"ADDRESS":"立賢路一段１１５號","OBJECTID":519631},"geometry":{"x":168440.87000000011,"y":2545560.9700000044}},{"attributes":{"ID":519659,"DIS_CODE":0,"TOWNNAME":"北區","LI":"成德里","LIN":"8鄰","STREET":"立賢路","SECT":"一段","MAREA":" ","LANE":" ","ALLEY":" ","HOUSE_NO":"１１３號","E_COORD97":168446.60000000001,"N_COORD97":2545555.2400000002,"ADDRESS":"立賢路一段１１３號","OBJECTID":519632},"geometry":{"x":168446.60000000056,"y":2545555.2400000039}},{"attributes":{"ID":519660,"DIS_CODE":0,"TOWNNAME":"北區","LI":"成德里","LIN":"8鄰","STREET":"立賢路","SECT":"一段","MAREA":" ","LANE":" ","ALLEY":" ","HOUSE_NO":"１１１號","E_COORD97":168451.51000000001,"N_COORD97":2545554.48,"ADDRESS":"立賢路一段１１１號","OBJECTID":519633},"geometry":{"x":168451.50999999978,"y":2545554.4800000023}},{"attributes":{"ID":519661,"DIS_CODE":0,"TOWNNAME":"北區","LI":"成德里","LIN":"8鄰","STREET":"立賢路","SECT":"一段","MAREA":" ","LANE":" ","ALLEY":" ","HOUSE_NO":"１０９號","E_COORD97":168456.41,"N_COORD97":2545553.73,"ADDRESS":"立賢路一段１０９號","OBJECTID":519634},"geometry":{"x":168456.40999999922,"y":2545553.7300000023}},{"attributes":{"ID":519662,"DIS_CODE":0,"TOWNNAME":"北區","LI":"成德里","LIN":"8鄰","STREET":"立賢路","SECT":"一段","MAREA":" ","LANE":" ","ALLEY":" ","HOUSE_NO":"１０７號","E_COORD97":168461.32000000001,"N_COORD97":2545552.9700000002,"ADDRESS":"立賢路一段１０７號","OBJECTID":519635},"geometry":{"x":168461.32000000123,"y":2545552.9700000007}},{"attributes":{"ID":519663,"DIS_CODE":0,"TOWNNAME":"北區","LI":"成德里","LIN":"8鄰","STREET":"立賢路","SECT":"一段","MAREA":" ","LANE":" ","ALLEY":" ","HOUSE_NO":"１０５號","E_COORD97":168466.42000000001,"N_COORD97":2545550.4900000002,"ADDRESS":"立賢路一段１０５號","OBJECTID":519636},"geometry":{"x":168466.42000000179,"y":2545550.4900000039}},{"attributes":{"ID":519664,"DIS_CODE":0,"TOWNNAME":"北區","LI":"成德里","LIN":"8鄰","STREET":"立賢路","SECT":"一段","MAREA":" ","LANE":" ","ALLEY":" ","HOUSE_NO":"１０３號","E_COORD97":168470.10000000001,"N_COORD97":2545559.0699999998,"ADDRESS":"立賢路一段１０３號","OBJECTID":519637},"geometry":{"x":168470.10000000056,"y":2545559.0700000003}},{"attributes":{"ID":519665,"DIS_CODE":0,"TOWNNAME":"北區","LI":"成德里","LIN":"8鄰","STREET":"立賢路","SECT":"一段","MAREA":" ","LANE":" ","ALLEY":" ","HOUSE_NO":"１０１號","E_COORD97":168478.12,"N_COORD97":2545561.0600000001,"ADDRESS":"立賢路一段１０１號","OBJECTID":519638},"geometry":{"x":168478.12000000011,"y":2545561.0600000024}},{"attributes":{"ID":519666,"DIS_CODE":0,"TOWNNAME":"北區","LI":"文成里","LIN":"5鄰","STREET":"文賢路","SECT":" ","MAREA":" ","LANE":" ","ALLEY":" ","HOUSE_NO":"５９０號","E_COORD97":167378.10000000001,"N_COORD97":2545460.2599999998,"ADDRESS":"文賢路５９０號","OBJECTID":519639},"geometry":{"x":167378.0999999987,"y":2545460.2600000016}},{"attributes":{"ID":519667,"DIS_CODE":0,"TOWNNAME":"北區","LI":"和順里","LIN":"35鄰","STREET":"公園南路","SECT":" ","MAREA":" ","LANE":" ","ALLEY":" ","HOUSE_NO":"３６６號七樓之１","E_COORD97":168211.42999999999,"N_COORD97":2544862.6600000001,"ADDRESS":"公園南路３６６號七樓之１","OBJECTID":519640},"geometry":{"x":168211.4299999997,"y":2544862.6600000001}},{"attributes":{"ID":519668,"DIS_CODE":0,"TOWNNAME":"北區","LI":"和順里","LIN":"35鄰","STREET":"公園南路","SECT":" ","MAREA":" ","LANE":" ","ALLEY":" ","HOUSE_NO":"３６６號七樓之２","E_COORD97":168211.42999999999,"N_COORD97":2544862.6600000001,"ADDRESS":"公園南路３６６號七樓之２","OBJECTID":519641},"geometry":{"x":168211.4299999997,"y":2544862.6600000001}},{"attributes":{"ID":519669,"DIS_CODE":0,"TOWNNAME":"北區","LI":"和順里","LIN":"35鄰","STREET":"公園南路","SECT":" ","MAREA":" ","LANE":" ","ALLEY":" ","HOUSE_NO":"３６６號九樓之１","E_COORD97":168211.42999999999,"N_COORD97":2544862.6600000001,"ADDRESS":"公園南路３６６號九樓之１","OBJECTID":519642},"geometry":{"x":168211.4299999997,"y":2544862.6600000001}},{"attributes":{"ID":519670,"DIS_CODE":0,"TOWNNAME":"北區","LI":"和順里","LIN":"35鄰","STREET":"公園南路","SECT":" ","MAREA":" ","LANE":" ","ALLEY":" ","HOUSE_NO":"３６６號九樓之２","E_COORD97":168211.42999999999,"N_COORD97":2544862.6600000001,"ADDRESS":"公園南路３６６號九樓之２","OBJECTID":519643},"geometry":{"x":168211.4299999997,"y":2544862.6600000001}},{"attributes":{"ID":519671,"DIS_CODE":0,"TOWNNAME":"仁德區","LI":"成功里","LIN":"35鄰","STREET":"成功一街","SECT":" ","MAREA":" ","LANE":" ","ALLEY":" ","HOUSE_NO":"６９號","E_COORD97":170537.01000000001,"N_COORD97":2540049.2599999998,"ADDRESS":"成功一街６９號","OBJECTID":519644},"geometry":{"x":170537.00999999885,"y":2540049.2600000016}},{"attributes":{"ID":519672,"DIS_CODE":0,"TOWNNAME":"北區","LI":"和順里","LIN":"35鄰","STREET":"公園南路","SECT":" ","MAREA":" ","LANE":" ","ALLEY":" ","HOUSE_NO":"３６６號八樓之１","E_COORD97":168211.42999999999,"N_COORD97":2544862.6600000001,"ADDRESS":"公園南路３６６號八樓之１","OBJECTID":519645},"geometry":{"x":168211.4299999997,"y":2544862.6600000001}},{"attributes":{"ID":519673,"DIS_CODE":0,"TOWNNAME":"北區","LI":"和順里","LIN":"35鄰","STREET":"公園南路","SECT":" ","MAREA":" ","LANE":" ","ALLEY":" ","HOUSE_NO":"３６６號八樓之２","E_COORD97":168211.42999999999,"N_COORD97":2544862.6600000001,"ADDRESS":"公園南路３６６號八樓之２","OBJECTID":519646},"geometry":{"x":168211.4299999997,"y":2544862.6600000001}},{"attributes":{"ID":519674,"DIS_CODE":0,"TOWNNAME":"北區","LI":"和順里","LIN":"35鄰","STREET":"公園南路","SECT":" ","MAREA":" ","LANE":" ","ALLEY":" ","HOUSE_NO":"３６６號十一樓之１","E_COORD97":168211.42999999999,"N_COORD97":2544862.6600000001,"ADDRESS":"公園南路３６６號十一樓之１","OBJECTID":519647},"geometry":{"x":168211.4299999997,"y":2544862.6600000001}},{"attributes":{"ID":519675,"DIS_CODE":0,"TOWNNAME":"北區","LI":"和順里","LIN":"35鄰","STREET":"公園南路","SECT":" ","MAREA":" ","LANE":" ","ALLEY":" ","HOUSE_NO":"３６６號十一樓之２","E_COORD97":168211.42999999999,"N_COORD97":2544862.6600000001,"ADDRESS":"公園南路３６６號十一樓之２","OBJECTID":519648},"geometry":{"x":168211.4299999997,"y":2544862.6600000001}},{"attributes":{"ID":519676,"DIS_CODE":0,"TOWNNAME":"北區","LI":"和順里","LIN":"35鄰","STREET":"公園南路","SECT":" ","MAREA":" ","LANE":" ","ALLEY":" ","HOUSE_NO":"３６６號十二樓之１","E_COORD97":168211.42999999999,"N_COORD97":2544862.6600000001,"ADDRESS":"公園南路３６６號十二樓之１","OBJECTID":519649},"geometry":{"x":168211.4299999997,"y":2544862.6600000001}},{"attributes":{"ID":519677,"DIS_CODE":0,"TOWNNAME":"北區","LI":"和順里","LIN":"35鄰","STREET":"公園南路","SECT":" ","MAREA":" ","LANE":" ","ALLEY":" ","HOUSE_NO":"３６６號十二樓之２","E_COORD97":168211.42999999999,"N_COORD97":2544862.6600000001,"ADDRESS":"公園南路３６６號十二樓之２","OBJECTID":519650},"geometry":{"x":168211.4299999997,"y":2544862.6600000001}},{"attributes":{"ID":519678,"DIS_CODE":0,"TOWNNAME":"北區","LI":"和順里","LIN":"35鄰","STREET":"公園南路","SECT":" ","MAREA":" ","LANE":" ","ALLEY":" ","HOUSE_NO":"３６６號十三樓之１","E_COORD97":168211.42999999999,"N_COORD97":2544862.6600000001,"ADDRESS":"公園南路３６６號十三樓之１","OBJECTID":519651},"geometry":{"x":168211.4299999997,"y":2544862.6600000001}},{"attributes":{"ID":519679,"DIS_CODE":0,"TOWNNAME":"北區","LI":"和順里","LIN":"35鄰","STREET":"公園南路","SECT":" ","MAREA":" ","LANE":" ","ALLEY":" ","HOUSE_NO":"３６６號十三樓之２","E_COORD97":168211.42999999999,"N_COORD97":2544862.6600000001,"ADDRESS":"公園南路３６６號十三樓之２","OBJECTID":519652},"geometry":{"x":168211.4299999997,"y":2544862.6600000001}},{"attributes":{"ID":519680,"DIS_CODE":0,"TOWNNAME":"北區","LI":"和順里","LIN":"35鄰","STREET":"公園南路","SECT":" ","MAREA":" ","LANE":" ","ALLEY":" ","HOUSE_NO":"３６６號十五樓之１","E_COORD97":168211.42999999999,"N_COORD97":2544862.6600000001,"ADDRESS":"公園南路３６６號十五樓之１","OBJECTID":519653},"geometry":{"x":168211.4299999997,"y":2544862.6600000001}},{"attributes":{"ID":519681,"DIS_CODE":0,"TOWNNAME":"北區","LI":"和順里","LIN":"35鄰","STREET":"公園南路","SECT":" ","MAREA":" ","LANE":" ","ALLEY":" ","HOUSE_NO":"３６６號十五樓之２","E_COORD97":168211.42999999999,"N_COORD97":2544862.6600000001,"ADDRESS":"公園南路３６６號十五樓之２","OBJECTID":519654},"geometry":{"x":168211.4299999997,"y":2544862.6600000001}},{"attributes":{"ID":519682,"DIS_CODE":0,"TOWNNAME":"北區","LI":"和順里","LIN":"35鄰","STREET":"公園南路","SECT":" ","MAREA":" ","LANE":" ","ALLEY":" ","HOUSE_NO":"３６６號十六樓之１","E_COORD97":168211.42999999999,"N_COORD97":2544862.6600000001,"ADDRESS":"公園南路３６６號十六樓之１","OBJECTID":519655},"geometry":{"x":168211.4299999997,"y":2544862.6600000001}},{"attributes":{"ID":519683,"DIS_CODE":0,"TOWNNAME":"北區","LI":"和順里","LIN":"35鄰","STREET":"公園南路","SECT":" ","MAREA":" ","LANE":" ","ALLEY":" ","HOUSE_NO":"３６６號十六樓之２","E_COORD97":168211.42999999999,"N_COORD97":2544862.6600000001,"ADDRESS":"公園南路３６６號十六樓之２","OBJECTID":519656},"geometry":{"x":168211.4299999997,"y":2544862.6600000001}},{"attributes":{"ID":519684,"DIS_CODE":0,"TOWNNAME":"北區","LI":"和順里","LIN":"35鄰","STREET":"公園南路","SECT":" ","MAREA":" ","LANE":" ","ALLEY":" ","HOUSE_NO":"３６６號十四樓之１","E_COORD97":168211.42999999999,"N_COORD97":2544862.6600000001,"ADDRESS":"公園南路３６６號十四樓之１","OBJECTID":519657},"geometry":{"x":168211.4299999997,"y":2544862.6600000001}},{"attributes":{"ID":519685,"DIS_CODE":0,"TOWNNAME":"北區","LI":"和順里","LIN":"35鄰","STREET":"公園南路","SECT":" ","MAREA":" ","LANE":" ","ALLEY":" ","HOUSE_NO":"３６６號十四樓之２","E_COORD97":168211.42999999999,"N_COORD97":2544862.6600000001,"ADDRESS":"公園南路３６６號十四樓之２","OBJECTID":519658},"geometry":{"x":168211.4299999997,"y":2544862.6600000001}},{"attributes":{"ID":519686,"DIS_CODE":0,"TOWNNAME":"北區","LI":"和順里","LIN":"35鄰","STREET":"公園南路","SECT":" ","MAREA":" ","LANE":" ","ALLEY":" ","HOUSE_NO":"３６６號十樓之１","E_COORD97":168211.42999999999,"N_COORD97":2544862.6600000001,"ADDRESS":"公園南路３６６號十樓之１","OBJECTID":519659},"geometry":{"x":168211.4299999997,"y":2544862.6600000001}},{"attributes":{"ID":519687,"DIS_CODE":0,"TOWNNAME":"北區","LI":"和順里","LIN":"35鄰","STREET":"公園南路","SECT":" ","MAREA":" ","LANE":" ","ALLEY":" ","HOUSE_NO":"３６６號十樓之２","E_COORD97":168211.42999999999,"N_COORD97":2544862.6600000001,"ADDRESS":"公園南路３６６號十樓之２","OBJECTID":519660},"geometry":{"x":168211.4299999997,"y":2544862.6600000001}},{"attributes":{"ID":519688,"DIS_CODE":0,"TOWNNAME":"北區","LI":"和順里","LIN":"35鄰","STREET":"公園南路","SECT":" ","MAREA":" ","LANE":" ","ALLEY":" ","HOUSE_NO":"３６６號三樓之１","E_COORD97":168211.42999999999,"N_COORD97":2544862.6600000001,"ADDRESS":"公園南路３６６號三樓之１","OBJECTID":519661},"geometry":{"x":168211.4299999997,"y":2544862.6600000001}},{"attributes":{"ID":519689,"DIS_CODE":0,"TOWNNAME":"北區","LI":"和順里","LIN":"35鄰","STREET":"公園南路","SECT":" ","MAREA":" ","LANE":" ","ALLEY":" ","HOUSE_NO":"３６６號三樓之２","E_COORD97":168211.42999999999,"N_COORD97":2544862.6600000001,"ADDRESS":"公園南路３６６號三樓之２","OBJECTID":519662},"geometry":{"x":168211.4299999997,"y":2544862.6600000001}},{"attributes":{"ID":519690,"DIS_CODE":0,"TOWNNAME":"北區","LI":"和順里","LIN":"35鄰","STREET":"公園南路","SECT":" ","MAREA":" ","LANE":" ","ALLEY":" ","HOUSE_NO":"３６６號五樓之１","E_COORD97":168211.42999999999,"N_COORD97":2544862.6600000001,"ADDRESS":"公園南路３６６號五樓之１","OBJECTID":519663},"geometry":{"x":168211.4299999997,"y":2544862.6600000001}},{"attributes":{"ID":519691,"DIS_CODE":0,"TOWNNAME":"北區","LI":"和順里","LIN":"35鄰","STREET":"公園南路","SECT":" ","MAREA":" ","LANE":" ","ALLEY":" ","HOUSE_NO":"３６６號五樓之２","E_COORD97":168211.42999999999,"N_COORD97":2544862.6600000001,"ADDRESS":"公園南路３６６號五樓之２","OBJECTID":519664},"geometry":{"x":168211.4299999997,"y":2544862.6600000001}},{"attributes":{"ID":519692,"DIS_CODE":0,"TOWNNAME":"北區","LI":"和順里","LIN":"35鄰","STREET":"公園南路","SECT":" ","MAREA":" ","LANE":" ","ALLEY":" ","HOUSE_NO":"３６６號六樓之１","E_COORD97":168211.42999999999,"N_COORD97":2544862.6600000001,"ADDRESS":"公園南路３６６號六樓之１","OBJECTID":519665},"geometry":{"x":168211.4299999997,"y":2544862.6600000001}},{"attributes":{"ID":519693,"DIS_CODE":0,"TOWNNAME":"北區","LI":"和順里","LIN":"35鄰","STREET":"公園南路","SECT":" ","MAREA":" ","LANE":" ","ALLEY":" ","HOUSE_NO":"３６６號六樓之２","E_COORD97":168211.42999999999,"N_COORD97":2544862.6600000001,"ADDRESS":"公園南路３６６號六樓之２","OBJECTID":519666},"geometry":{"x":168211.4299999997,"y":2544862.6600000001}},{"attributes":{"ID":519694,"DIS_CODE":0,"TOWNNAME":"北區","LI":"和順里","LIN":"35鄰","STREET":"公園南路","SECT":" ","MAREA":" ","LANE":" ","ALLEY":" ","HOUSE_NO":"３６６號四樓之１","E_COORD97":168211.42999999999,"N_COORD97":2544862.6600000001,"ADDRESS":"公園南路３６６號四樓之１","OBJECTID":519667},"geometry":{"x":168211.4299999997,"y":2544862.6600000001}},{"attributes":{"ID":519695,"DIS_CODE":0,"TOWNNAME":"北區","LI":"和順里","LIN":"35鄰","STREET":"公園南路","SECT":" ","MAREA":" ","LANE":" ","ALLEY":" ","HOUSE_NO":"３６６號四樓之２","E_COORD97":168211.42999999999,"N_COORD97":2544862.6600000001,"ADDRESS":"公園南路３６６號四樓之２","OBJECTID":519668},"geometry":{"x":168211.4299999997,"y":2544862.6600000001}},{"attributes":{"ID":519696,"DIS_CODE":0,"TOWNNAME":"南區","LI":"光明里","LIN":"35鄰","STREET":"新興路","SECT":" ","MAREA":" ","LANE":" ","ALLEY":" ","HOUSE_NO":"５３９號五樓","E_COORD97":166547.89000000001,"N_COORD97":2541640.4399999999,"ADDRESS":"新興路５３９號五樓","OBJECTID":519669},"geometry":{"x":166547.8900000006,"y":2541640.4399999976}},{"attributes":{"ID":519697,"DIS_CODE":0,"TOWNNAME":"北區","LI":"和順里","LIN":"35鄰","STREET":"公園南路","SECT":" ","MAREA":" ","LANE":" ","ALLEY":" ","HOUSE_NO":"３６８號七樓之１","E_COORD97":168196.92999999999,"N_COORD97":2544866.3999999999,"ADDRESS":"公園南路３６８號七樓之１","OBJECTID":519670},"geometry":{"x":168196.93000000063,"y":2544866.4000000041}},{"attributes":{"ID":519698,"DIS_CODE":0,"TOWNNAME":"北區","LI":"和順里","LIN":"35鄰","STREET":"公園南路","SECT":" ","MAREA":" ","LANE":" ","ALLEY":" ","HOUSE_NO":"３６８號七樓之２","E_COORD97":168196.92999999999,"N_COORD97":2544866.3999999999,"ADDRESS":"公園南路３６８號七樓之２","OBJECTID":519671},"geometry":{"x":168196.93000000063,"y":2544866.4000000041}},{"attributes":{"ID":519699,"DIS_CODE":0,"TOWNNAME":"北區","LI":"和順里","LIN":"35鄰","STREET":"公園南路","SECT":" ","MAREA":" ","LANE":" ","ALLEY":" ","HOUSE_NO":"３６８號九樓之１","E_COORD97":168196.92999999999,"N_COORD97":2544866.3999999999,"ADDRESS":"公園南路３６８號九樓之１","OBJECTID":519672},"geometry":{"x":168196.93000000063,"y":2544866.4000000041}},{"attributes":{"ID":519700,"DIS_CODE":0,"TOWNNAME":"北區","LI":"和順里","LIN":"35鄰","STREET":"公園南路","SECT":" ","MAREA":" ","LANE":" ","ALLEY":" ","HOUSE_NO":"３６８號九樓之２","E_COORD97":168196.92999999999,"N_COORD97":2544866.3999999999,"ADDRESS":"公園南路３６８號九樓之２","OBJECTID":519673},"geometry":{"x":168196.93000000063,"y":2544866.4000000041}},{"attributes":{"ID":519701,"DIS_CODE":0,"TOWNNAME":"北區","LI":"和順里","LIN":"35鄰","STREET":"公園南路","SECT":" ","MAREA":" ","LANE":" ","ALLEY":" ","HOUSE_NO":"３６８號八樓之１","E_COORD97":168196.92999999999,"N_COORD97":2544866.3999999999,"ADDRESS":"公園南路３６８號八樓之１","OBJECTID":519674},"geometry":{"x":168196.93000000063,"y":2544866.4000000041}},{"attributes":{"ID":519702,"DIS_CODE":0,"TOWNNAME":"北區","LI":"和順里","LIN":"35鄰","STREET":"公園南路","SECT":" ","MAREA":" ","LANE":" ","ALLEY":" ","HOUSE_NO":"３６８號八樓之２","E_COORD97":168196.92999999999,"N_COORD97":2544866.3999999999,"ADDRESS":"公園南路３６８號八樓之２","OBJECTID":519675},"geometry":{"x":168196.93000000063,"y":2544866.4000000041}},{"attributes":{"ID":519703,"DIS_CODE":0,"TOWNNAME":"北區","LI":"和順里","LIN":"35鄰","STREET":"公園南路","SECT":" ","MAREA":" ","LANE":" ","ALLEY":" ","HOUSE_NO":"３６８號十一樓之１","E_COORD97":168196.92999999999,"N_COORD97":2544866.3999999999,"ADDRESS":"公園南路３６８號十一樓之１","OBJECTID":519676},"geometry":{"x":168196.93000000063,"y":2544866.4000000041}},{"attributes":{"ID":519704,"DIS_CODE":0,"TOWNNAME":"北區","LI":"和順里","LIN":"35鄰","STREET":"公園南路","SECT":" ","MAREA":" ","LANE":" ","ALLEY":" ","HOUSE_NO":"３６８號五樓之２","E_COORD97":168196.92999999999,"N_COORD97":2544866.3999999999,"ADDRESS":"公園南路３６８號五樓之２","OBJECTID":519677},"geometry":{"x":168196.93000000063,"y":2544866.4000000041}},{"attributes":{"ID":519705,"DIS_CODE":0,"TOWNNAME":"北區","LI":"和順里","LIN":"35鄰","STREET":"公園南路","SECT":" ","MAREA":" ","LANE":" ","ALLEY":" ","HOUSE_NO":"３６８號六樓之１","E_COORD97":168196.92999999999,"N_COORD97":2544866.3999999999,"ADDRESS":"公園南路３６８號六樓之１","OBJECTID":519678},"geometry":{"x":168196.93000000063,"y":2544866.4000000041}},{"attributes":{"ID":519706,"DIS_CODE":0,"TOWNNAME":"北區","LI":"和順里","LIN":"35鄰","STREET":"公園南路","SECT":" ","MAREA":" ","LANE":" ","ALLEY":" ","HOUSE_NO":"３６８號六樓之２","E_COORD97":168196.92999999999,"N_COORD97":2544866.3999999999,"ADDRESS":"公園南路３６８號六樓之２","OBJECTID":519679},"geometry":{"x":168196.93000000063,"y":2544866.4000000041}},{"attributes":{"ID":519707,"DIS_CODE":0,"TOWNNAME":"北區","LI":"和順里","LIN":"35鄰","STREET":"公園南路","SECT":" ","MAREA":" ","LANE":" ","ALLEY":" ","HOUSE_NO":"３６８號四樓之１","E_COORD97":168196.92999999999,"N_COORD97":2544866.3999999999,"ADDRESS":"公園南路３６８號四樓之１","OBJECTID":519680},"geometry":{"x":168196.93000000063,"y":2544866.4000000041}},{"attributes":{"ID":519708,"DIS_CODE":0,"TOWNNAME":"北區","LI":"和順里","LIN":"35鄰","STREET":"公園南路","SECT":" ","MAREA":" ","LANE":" ","ALLEY":" ","HOUSE_NO":"３６８號四樓之２","E_COORD97":168196.92999999999,"N_COORD97":2544866.3999999999,"ADDRESS":"公園南路３６８號四樓之２","OBJECTID":519681},"geometry":{"x":168196.93000000063,"y":2544866.4000000041}},{"attributes":{"ID":519709,"DIS_CODE":0,"TOWNNAME":"南區","LI":"光明里","LIN":"35鄰","STREET":"新興路","SECT":" ","MAREA":" ","LANE":" ","ALLEY":" ","HOUSE_NO":"５３９號十三樓","E_COORD97":166547.89000000001,"N_COORD97":2541640.4399999999,"ADDRESS":"新興路５３９號十三樓","OBJECTID":519682},"geometry":{"x":166547.8900000006,"y":2541640.4399999976}},{"attributes":{"ID":519710,"DIS_CODE":0,"TOWNNAME":"南區","LI":"光明里","LIN":"35鄰","STREET":"新興路","SECT":" ","MAREA":" ","LANE":" ","ALLEY":" ","HOUSE_NO":"５３９號十三樓之１","E_COORD97":166547.89000000001,"N_COORD97":2541640.4399999999,"ADDRESS":"新興路５３９號十三樓之１","OBJECTID":519683},"geometry":{"x":166547.8900000006,"y":2541640.4399999976}},{"attributes":{"ID":519711,"DIS_CODE":0,"TOWNNAME":"南區","LI":"光明里","LIN":"35鄰","STREET":"新興路","SECT":" ","MAREA":" ","LANE":" ","ALLEY":" ","HOUSE_NO":"５３９號七樓之１","E_COORD97":166547.89000000001,"N_COORD97":2541640.4399999999,"ADDRESS":"新興路５３９號七樓之１","OBJECTID":519684},"geometry":{"x":166547.8900000006,"y":2541640.4399999976}},{"attributes":{"ID":519712,"DIS_CODE":0,"TOWNNAME":"南區","LI":"光明里","LIN":"35鄰","STREET":"新興路","SECT":" ","MAREA":" ","LANE":" ","ALLEY":" ","HOUSE_NO":"５３９號七樓之２","E_COORD97":166547.89000000001,"N_COORD97":2541640.4399999999,"ADDRESS":"新興路５３９號七樓之２","OBJECTID":519685},"geometry":{"x":166547.8900000006,"y":2541640.4399999976}},{"attributes":{"ID":519713,"DIS_CODE":0,"TOWNNAME":"南區","LI":"光明里","LIN":"35鄰","STREET":"新興路","SECT":" ","MAREA":" ","LANE":" ","ALLEY":" ","HOUSE_NO":"５３９號七樓之３","E_COORD97":166547.89000000001,"N_COORD97":2541640.4399999999,"ADDRESS":"新興路５３９號七樓之３","OBJECTID":519686},"geometry":{"x":166547.8900000006,"y":2541640.4399999976}},{"attributes":{"ID":519714,"DIS_CODE":0,"TOWNNAME":"南區","LI":"光明里","LIN":"35鄰","STREET":"新興路","SECT":" ","MAREA":" ","LANE":" ","ALLEY":" ","HOUSE_NO":"５３９號九樓","E_COORD97":166547.89000000001,"N_COORD97":2541640.4399999999,"ADDRESS":"新興路５３９號九樓","OBJECTID":519687},"geometry":{"x":166547.8900000006,"y":2541640.4399999976}},{"attributes":{"ID":519715,"DIS_CODE":0,"TOWNNAME":"南區","LI":"光明里","LIN":"35鄰","STREET":"新興路","SECT":" ","MAREA":" ","LANE":" ","ALLEY":" ","HOUSE_NO":"５３９號九樓之１","E_COORD97":166547.89000000001,"N_COORD97":2541640.4399999999,"ADDRESS":"新興路５３９號九樓之１","OBJECTID":519688},"geometry":{"x":166547.8900000006,"y":2541640.4399999976}},{"attributes":{"ID":519716,"DIS_CODE":0,"TOWNNAME":"南區","LI":"光明里","LIN":"35鄰","STREET":"新興路","SECT":" ","MAREA":" ","LANE":" ","ALLEY":" ","HOUSE_NO":"５３９號九樓之２","E_COORD97":166547.89000000001,"N_COORD97":2541640.4399999999,"ADDRESS":"新興路５３９號九樓之２","OBJECTID":519689},"geometry":{"x":166547.8900000006,"y":2541640.4399999976}},{"attributes":{"ID":519717,"DIS_CODE":0,"TOWNNAME":"南區","LI":"光明里","LIN":"35鄰","STREET":"新興路","SECT":" ","MAREA":" ","LANE":" ","ALLEY":" ","HOUSE_NO":"５３９號九樓之３","E_COORD97":166547.89000000001,"N_COORD97":2541640.4399999999,"ADDRESS":"新興路５３９號九樓之３","OBJECTID":519690},"geometry":{"x":166547.8900000006,"y":2541640.4399999976}},{"attributes":{"ID":519718,"DIS_CODE":0,"TOWNNAME":"南區","LI":"光明里","LIN":"35鄰","STREET":"新興路","SECT":" ","MAREA":" ","LANE":" ","ALLEY":" ","HOUSE_NO":"５３９號二樓","E_COORD97":166547.89000000001,"N_COORD97":2541640.4399999999,"ADDRESS":"新興路５３９號二樓","OBJECTID":519691},"geometry":{"x":166547.8900000006,"y":2541640.4399999976}},{"attributes":{"ID":519719,"DIS_CODE":0,"TOWNNAME":"南區","LI":"光明里","LIN":"35鄰","STREET":"新興路","SECT":" ","MAREA":" ","LANE":" ","ALLEY":" ","HOUSE_NO":"５３９號二樓之１","E_COORD97":166547.89000000001,"N_COORD97":2541640.4399999999,"ADDRESS":"新興路５３９號二樓之１","OBJECTID":519692},"geometry":{"x":166547.8900000006,"y":2541640.4399999976}},{"attributes":{"ID":519720,"DIS_CODE":0,"TOWNNAME":"南區","LI":"光明里","LIN":"35鄰","STREET":"新興路","SECT":" ","MAREA":" ","LANE":" ","ALLEY":" ","HOUSE_NO":"５３９號二樓之２","E_COORD97":166547.89000000001,"N_COORD97":2541640.4399999999,"ADDRESS":"新興路５３９號二樓之２","OBJECTID":519693},"geometry":{"x":166547.8900000006,"y":2541640.4399999976}},{"attributes":{"ID":519721,"DIS_CODE":0,"TOWNNAME":"南區","LI":"光明里","LIN":"35鄰","STREET":"新興路","SECT":" ","MAREA":" ","LANE":" ","ALLEY":" ","HOUSE_NO":"５３９號二樓之３","E_COORD97":166547.89000000001,"N_COORD97":2541640.4399999999,"ADDRESS":"新興路５３９號二樓之３","OBJECTID":519694},"geometry":{"x":166547.8900000006,"y":2541640.4399999976}},{"attributes":{"ID":519722,"DIS_CODE":0,"TOWNNAME":"南區","LI":"光明里","LIN":"35鄰","STREET":"新興路","SECT":" ","MAREA":" ","LANE":" ","ALLEY":" ","HOUSE_NO":"５３９號八樓","E_COORD97":166547.89000000001,"N_COORD97":2541640.4399999999,"ADDRESS":"新興路５３９號八樓","OBJECTID":519695},"geometry":{"x":166547.8900000006,"y":2541640.4399999976}},{"attributes":{"ID":519723,"DIS_CODE":0,"TOWNNAME":"南區","LI":"光明里","LIN":"35鄰","STREET":"新興路","SECT":" ","MAREA":" ","LANE":" ","ALLEY":" ","HOUSE_NO":"５３９號八樓之１","E_COORD97":166547.89000000001,"N_COORD97":2541640.4399999999,"ADDRESS":"新興路５３９號八樓之１","OBJECTID":519696},"geometry":{"x":166547.8900000006,"y":2541640.4399999976}},{"attributes":{"ID":519724,"DIS_CODE":0,"TOWNNAME":"南區","LI":"光明里","LIN":"35鄰","STREET":"新興路","SECT":" ","MAREA":" ","LANE":" ","ALLEY":" ","HOUSE_NO":"５３９號八樓之２","E_COORD97":166547.89000000001,"N_COORD97":2541640.4399999999,"ADDRESS":"新興路５３９號八樓之２","OBJECTID":519697},"geometry":{"x":166547.8900000006,"y":2541640.4399999976}},{"attributes":{"ID":519725,"DIS_CODE":0,"TOWNNAME":"南區","LI":"光明里","LIN":"35鄰","STREET":"新興路","SECT":" ","MAREA":" ","LANE":" ","ALLEY":" ","HOUSE_NO":"５３９號八樓之３","E_COORD97":166547.89000000001,"N_COORD97":2541640.4399999999,"ADDRESS":"新興路５３９號八樓之３","OBJECTID":519698},"geometry":{"x":166547.8900000006,"y":2541640.4399999976}},{"attributes":{"ID":519726,"DIS_CODE":0,"TOWNNAME":"南區","LI":"光明里","LIN":"35鄰","STREET":"新興路","SECT":" ","MAREA":" ","LANE":" ","ALLEY":" ","HOUSE_NO":"５３９號十一樓","E_COORD97":166547.89000000001,"N_COORD97":2541640.4399999999,"ADDRESS":"新興路５３９號十一樓","OBJECTID":519699},"geometry":{"x":166547.8900000006,"y":2541640.4399999976}},{"attributes":{"ID":519727,"DIS_CODE":0,"TOWNNAME":"南區","LI":"光明里","LIN":"35鄰","STREET":"新興路","SECT":" ","MAREA":" ","LANE":" ","ALLEY":" ","HOUSE_NO":"５３９號十一樓之１","E_COORD97":166547.89000000001,"N_COORD97":2541640.4399999999,"ADDRESS":"新興路５３９號十一樓之１","OBJECTID":519700},"geometry":{"x":166547.8900000006,"y":2541640.4399999976}},{"attributes":{"ID":519728,"DIS_CODE":0,"TOWNNAME":"南區","LI":"光明里","LIN":"35鄰","STREET":"新興路","SECT":" ","MAREA":" ","LANE":" ","ALLEY":" ","HOUSE_NO":"５３９號十一樓之２","E_COORD97":166547.89000000001,"N_COORD97":2541640.4399999999,"ADDRESS":"新興路５３９號十一樓之２","OBJECTID":519701},"geometry":{"x":166547.8900000006,"y":2541640.4399999976}},{"attributes":{"ID":519729,"DIS_CODE":0,"TOWNNAME":"南區","LI":"光明里","LIN":"35鄰","STREET":"新興路","SECT":" ","MAREA":" ","LANE":" ","ALLEY":" ","HOUSE_NO":"５３９號十一樓之３","E_COORD97":166547.89000000001,"N_COORD97":2541640.4399999999,"ADDRESS":"新興路５３９號十一樓之３","OBJECTID":519702},"geometry":{"x":166547.8900000006,"y":2541640.4399999976}},{"attributes":{"ID":519730,"DIS_CODE":0,"TOWNNAME":"南區","LI":"光明里","LIN":"35鄰","STREET":"新興路","SECT":" ","MAREA":" ","LANE":" ","ALLEY":" ","HOUSE_NO":"５３９號十二樓","E_COORD97":166547.89000000001,"N_COORD97":2541640.4399999999,"ADDRESS":"新興路５３９號十二樓","OBJECTID":519703},"geometry":{"x":166547.8900000006,"y":2541640.4399999976}},{"attributes":{"ID":519731,"DIS_CODE":0,"TOWNNAME":"南區","LI":"光明里","LIN":"35鄰","STREET":"新興路","SECT":" ","MAREA":" ","LANE":" ","ALLEY":" ","HOUSE_NO":"５３９號十二樓之１","E_COORD97":166547.89000000001,"N_COORD97":2541640.4399999999,"ADDRESS":"新興路５３９號十二樓之１","OBJECTID":519704},"geometry":{"x":166547.8900000006,"y":2541640.4399999976}},{"attributes":{"ID":519732,"DIS_CODE":0,"TOWNNAME":"南區","LI":"光明里","LIN":"35鄰","STREET":"新興路","SECT":" ","MAREA":" ","LANE":" ","ALLEY":" ","HOUSE_NO":"５３９號十二樓之２","E_COORD97":166547.89000000001,"N_COORD97":2541640.4399999999,"ADDRESS":"新興路５３９號十二樓之２","OBJECTID":519705},"geometry":{"x":166547.8900000006,"y":2541640.4399999976}},{"attributes":{"ID":519733,"DIS_CODE":0,"TOWNNAME":"南區","LI":"光明里","LIN":"35鄰","STREET":"新興路","SECT":" ","MAREA":" ","LANE":" ","ALLEY":" ","HOUSE_NO":"５３９號十二樓之３","E_COORD97":166547.89000000001,"N_COORD97":2541640.4399999999,"ADDRESS":"新興路５３９號十二樓之３","OBJECTID":519706},"geometry":{"x":166547.8900000006,"y":2541640.4399999976}},{"attributes":{"ID":519734,"DIS_CODE":0,"TOWNNAME":"南區","LI":"光明里","LIN":"35鄰","STREET":"新興路","SECT":" ","MAREA":" ","LANE":" ","ALLEY":" ","HOUSE_NO":"５３９號十三樓之２","E_COORD97":166547.89000000001,"N_COORD97":2541640.4399999999,"ADDRESS":"新興路５３９號十三樓之２","OBJECTID":519707},"geometry":{"x":166547.8900000006,"y":2541640.4399999976}},{"attributes":{"ID":519735,"DIS_CODE":0,"TOWNNAME":"南區","LI":"光明里","LIN":"35鄰","STREET":"新興路","SECT":" ","MAREA":" ","LANE":" ","ALLEY":" ","HOUSE_NO":"５３９號十三樓之３","E_COORD97":166547.89000000001,"N_COORD97":2541640.4399999999,"ADDRESS":"新興路５３９號十三樓之３","OBJECTID":519708},"geometry":{"x":166547.8900000006,"y":2541640.4399999976}},{"attributes":{"ID":519736,"DIS_CODE":0,"TOWNNAME":"南區","LI":"光明里","LIN":"35鄰","STREET":"新興路","SECT":" ","MAREA":" ","LANE":" ","ALLEY":" ","HOUSE_NO":"５３９號十五樓","E_COORD97":166547.89000000001,"N_COORD97":2541640.4399999999,"ADDRESS":"新興路５３９號十五樓","OBJECTID":519709},"geometry":{"x":166547.8900000006,"y":2541640.4399999976}},{"attributes":{"ID":519737,"DIS_CODE":0,"TOWNNAME":"南區","LI":"光明里","LIN":"35鄰","STREET":"新興路","SECT":" ","MAREA":" ","LANE":" ","ALLEY":" ","HOUSE_NO":"５３９號十五樓之１","E_COORD97":166547.89000000001,"N_COORD97":2541640.4399999999,"ADDRESS":"新興路５３９號十五樓之１","OBJECTID":519710},"geometry":{"x":166547.8900000006,"y":2541640.4399999976}},{"attributes":{"ID":519738,"DIS_CODE":0,"TOWNNAME":"南區","LI":"光明里","LIN":"35鄰","STREET":"新興路","SECT":" ","MAREA":" ","LANE":" ","ALLEY":" ","HOUSE_NO":"５３９號十五樓之２","E_COORD97":166547.89000000001,"N_COORD97":2541640.4399999999,"ADDRESS":"新興路５３９號十五樓之２","OBJECTID":519711},"geometry":{"x":166547.8900000006,"y":2541640.4399999976}},{"attributes":{"ID":519739,"DIS_CODE":0,"TOWNNAME":"南區","LI":"光明里","LIN":"35鄰","STREET":"新興路","SECT":" ","MAREA":" ","LANE":" ","ALLEY":" ","HOUSE_NO":"５３９號十五樓之３","E_COORD97":166547.89000000001,"N_COORD97":2541640.4399999999,"ADDRESS":"新興路５３９號十五樓之３","OBJECTID":519712},"geometry":{"x":166547.8900000006,"y":2541640.4399999976}},{"attributes":{"ID":519740,"DIS_CODE":0,"TOWNNAME":"南區","LI":"光明里","LIN":"35鄰","STREET":"新興路","SECT":" ","MAREA":" ","LANE":" ","ALLEY":" ","HOUSE_NO":"５３９號十六樓","E_COORD97":166547.89000000001,"N_COORD97":2541640.4399999999,"ADDRESS":"新興路５３９號十六樓","OBJECTID":519713},"geometry":{"x":166547.8900000006,"y":2541640.4399999976}},{"attributes":{"ID":519741,"DIS_CODE":0,"TOWNNAME":"安平區","LI":"平安里","LIN":"17鄰","STREET":"安平路","SECT":" ","MAREA":" ","LANE":" ","ALLEY":" ","HOUSE_NO":"６０２號之１","E_COORD97":164843.5,"N_COORD97":2544402.9199999999,"ADDRESS":"安平路６０２號之１","OBJECTID":519714},"geometry":{"x":164843.50000000093,"y":2544402.9199999999}},{"attributes":{"ID":519742,"DIS_CODE":0,"TOWNNAME":"安平區","LI":"平安里","LIN":"17鄰","STREET":"安平路","SECT":" ","MAREA":" ","LANE":" ","ALLEY":" ","HOUSE_NO":"６０２號之２","E_COORD97":164837.20999999999,"N_COORD97":2544405.52,"ADDRESS":"安平路６０２號之２","OBJECTID":519715},"geometry":{"x":164837.21000000089,"y":2544405.5199999996}},{"attributes":{"ID":519743,"DIS_CODE":0,"TOWNNAME":"安平區","LI":"平安里","LIN":"8鄰","STREET":"安平路","SECT":" ","MAREA":" ","LANE":" ","ALLEY":" ","HOUSE_NO":"４０８號之３","E_COORD97":165384.28,"N_COORD97":2544332.6400000001,"ADDRESS":"安平路４０８號之３","OBJECTID":519716},"geometry":{"x":165384.28000000119,"y":2544332.6400000043}},{"attributes":{"ID":519744,"DIS_CODE":0,"TOWNNAME":"南區","LI":"光明里","LIN":"35鄰","STREET":"新興路","SECT":" ","MAREA":" ","LANE":" ","ALLEY":" ","HOUSE_NO":"５３９號十六樓之２","E_COORD97":166547.89000000001,"N_COORD97":2541640.4399999999,"ADDRESS":"新興路５３９號十六樓之２","OBJECTID":519717},"geometry":{"x":166547.8900000006,"y":2541640.4399999976}},{"attributes":{"ID":519745,"DIS_CODE":0,"TOWNNAME":"南區","LI":"光明里","LIN":"35鄰","STREET":"新興路","SECT":" ","MAREA":" ","LANE":" ","ALLEY":" ","HOUSE_NO":"５３９號十六樓之３","E_COORD97":166547.89000000001,"N_COORD97":2541640.4399999999,"ADDRESS":"新興路５３９號十六樓之３","OBJECTID":519718},"geometry":{"x":166547.8900000006,"y":2541640.4399999976}},{"attributes":{"ID":519746,"DIS_CODE":0,"TOWNNAME":"南區","LI":"光明里","LIN":"35鄰","STREET":"新興路","SECT":" ","MAREA":" ","LANE":" ","ALLEY":" ","HOUSE_NO":"５３９號十四樓","E_COORD97":166547.89000000001,"N_COORD97":2541640.4399999999,"ADDRESS":"新興路５３９號十四樓","OBJECTID":519719},"geometry":{"x":166547.8900000006,"y":2541640.4399999976}},{"attributes":{"ID":519747,"DIS_CODE":0,"TOWNNAME":"南區","LI":"光明里","LIN":"35鄰","STREET":"新興路","SECT":" ","MAREA":" ","LANE":" ","ALLEY":" ","HOUSE_NO":"５３９號十四樓之１","E_COORD97":166547.89000000001,"N_COORD97":2541640.4399999999,"ADDRESS":"新興路５３９號十四樓之１","OBJECTID":519720},"geometry":{"x":166547.8900000006,"y":2541640.4399999976}},{"attributes":{"ID":519748,"DIS_CODE":0,"TOWNNAME":"南區","LI":"光明里","LIN":"35鄰","STREET":"新興路","SECT":" ","MAREA":" ","LANE":" ","ALLEY":" ","HOUSE_NO":"５３９號十四樓之２","E_COORD97":166547.89000000001,"N_COORD97":2541640.4399999999,"ADDRESS":"新興路５３９號十四樓之２","OBJECTID":519721},"geometry":{"x":166547.8900000006,"y":2541640.4399999976}},{"attributes":{"ID":519749,"DIS_CODE":0,"TOWNNAME":"南區","LI":"光明里","LIN":"35鄰","STREET":"新興路","SECT":" ","MAREA":" ","LANE":" ","ALLEY":" ","HOUSE_NO":"５３９號十四樓之３","E_COORD97":166547.89000000001,"N_COORD97":2541640.4399999999,"ADDRESS":"新興路５３９號十四樓之３","OBJECTID":519722},"geometry":{"x":166547.8900000006,"y":2541640.4399999976}},{"attributes":{"ID":519750,"DIS_CODE":0,"TOWNNAME":"南區","LI":"光明里","LIN":"35鄰","STREET":"新興路","SECT":" ","MAREA":" ","LANE":" ","ALLEY":" ","HOUSE_NO":"５３９號十樓","E_COORD97":166547.89000000001,"N_COORD97":2541640.4399999999,"ADDRESS":"新興路５３９號十樓","OBJECTID":519723},"geometry":{"x":166547.8900000006,"y":2541640.4399999976}},{"attributes":{"ID":519751,"DIS_CODE":0,"TOWNNAME":"南區","LI":"光明里","LIN":"35鄰","STREET":"新興路","SECT":" ","MAREA":" ","LANE":" ","ALLEY":" ","HOUSE_NO":"５３９號十樓之１","E_COORD97":166547.89000000001,"N_COORD97":2541640.4399999999,"ADDRESS":"新興路５３９號十樓之１","OBJECTID":519724},"geometry":{"x":166547.8900000006,"y":2541640.4399999976}},{"attributes":{"ID":519752,"DIS_CODE":0,"TOWNNAME":"南區","LI":"光明里","LIN":"35鄰","STREET":"新興路","SECT":" ","MAREA":" ","LANE":" ","ALLEY":" ","HOUSE_NO":"５３９號十樓之２","E_COORD97":166547.89000000001,"N_COORD97":2541640.4399999999,"ADDRESS":"新興路５３９號十樓之２","OBJECTID":519725},"geometry":{"x":166547.8900000006,"y":2541640.4399999976}},{"attributes":{"ID":519753,"DIS_CODE":0,"TOWNNAME":"南區","LI":"光明里","LIN":"35鄰","STREET":"新興路","SECT":" ","MAREA":" ","LANE":" ","ALLEY":" ","HOUSE_NO":"５３９號十樓之３","E_COORD97":166547.89000000001,"N_COORD97":2541640.4399999999,"ADDRESS":"新興路５３９號十樓之３","OBJECTID":519726},"geometry":{"x":166547.8900000006,"y":2541640.4399999976}},{"attributes":{"ID":519754,"DIS_CODE":0,"TOWNNAME":"南區","LI":"光明里","LIN":"35鄰","STREET":"新興路","SECT":" ","MAREA":" ","LANE":" ","ALLEY":" ","HOUSE_NO":"５３９號三樓","E_COORD97":166547.89000000001,"N_COORD97":2541640.4399999999,"ADDRESS":"新興路５３９號三樓","OBJECTID":519727},"geometry":{"x":166547.8900000006,"y":2541640.4399999976}},{"attributes":{"ID":519755,"DIS_CODE":0,"TOWNNAME":"南區","LI":"光明里","LIN":"35鄰","STREET":"新興路","SECT":" ","MAREA":" ","LANE":" ","ALLEY":" ","HOUSE_NO":"５３９號三樓之１","E_COORD97":166547.89000000001,"N_COORD97":2541640.4399999999,"ADDRESS":"新興路５３９號三樓之１","OBJECTID":519728},"geometry":{"x":166547.8900000006,"y":2541640.4399999976}},{"attributes":{"ID":519756,"DIS_CODE":0,"TOWNNAME":"南區","LI":"光明里","LIN":"35鄰","STREET":"新興路","SECT":" ","MAREA":" ","LANE":" ","ALLEY":" ","HOUSE_NO":"５３９號三樓之２","E_COORD97":166547.89000000001,"N_COORD97":2541640.4399999999,"ADDRESS":"新興路５３９號三樓之２","OBJECTID":519729},"geometry":{"x":166547.8900000006,"y":2541640.4399999976}},{"attributes":{"ID":519757,"DIS_CODE":0,"TOWNNAME":"南區","LI":"光明里","LIN":"35鄰","STREET":"新興路","SECT":" ","MAREA":" ","LANE":" ","ALLEY":" ","HOUSE_NO":"５３９號三樓之３","E_COORD97":166547.89000000001,"N_COORD97":2541640.4399999999,"ADDRESS":"新興路５３９號三樓之３","OBJECTID":519730},"geometry":{"x":166547.8900000006,"y":2541640.4399999976}},{"attributes":{"ID":519758,"DIS_CODE":0,"TOWNNAME":"南區","LI":"光明里","LIN":"35鄰","STREET":"新興路","SECT":" ","MAREA":" ","LANE":" ","ALLEY":" ","HOUSE_NO":"５３９號五樓之１","E_COORD97":166547.89000000001,"N_COORD97":2541640.4399999999,"ADDRESS":"新興路５３９號五樓之１","OBJECTID":519731},"geometry":{"x":166547.8900000006,"y":2541640.4399999976}},{"attributes":{"ID":519759,"DIS_CODE":0,"TOWNNAME":"南區","LI":"光明里","LIN":"35鄰","STREET":"新興路","SECT":" ","MAREA":" ","LANE":" ","ALLEY":" ","HOUSE_NO":"５３９號五樓之２","E_COORD97":166547.89000000001,"N_COORD97":2541640.4399999999,"ADDRESS":"新興路５３９號五樓之２","OBJECTID":519732},"geometry":{"x":166547.8900000006,"y":2541640.4399999976}},{"attributes":{"ID":519760,"DIS_CODE":0,"TOWNNAME":"安平區","LI":"國平里","LIN":"31鄰","STREET":"健康路","SECT":"三段","MAREA":" ","LANE":" ","ALLEY":" ","HOUSE_NO":"３６２號","E_COORD97":164765.38,"N_COORD97":2542845.2400000002,"ADDRESS":"健康路三段３６２號","OBJECTID":519733},"geometry":{"x":164765.37999999989,"y":2542845.2400000002}},{"attributes":{"ID":519761,"DIS_CODE":0,"TOWNNAME":"安平區","LI":"港仔里","LIN":"20鄰","STREET":"安平路","SECT":" ","MAREA":" ","LANE":" ","ALLEY":" ","HOUSE_NO":"７７２號","E_COORD97":164099.69,"N_COORD97":2544556.04,"ADDRESS":"安平路７７２號","OBJECTID":519734},"geometry":{"x":164099.69000000041,"y":2544556.040000001}},{"attributes":{"ID":519762,"DIS_CODE":0,"TOWNNAME":"安平區","LI":"育平里","LIN":"34鄰","STREET":"郡平路","SECT":" ","MAREA":" ","LANE":" ","ALLEY":" ","HOUSE_NO":"２５０號","E_COORD97":164491.046221,"N_COORD97":2543370.6410500002,"ADDRESS":"郡平路２５０號","OBJECTID":519735},"geometry":{"x":164491.04622100014,"y":2543370.6410470009}},{"attributes":{"ID":519763,"DIS_CODE":0,"TOWNNAME":"安平區","LI":"育平里","LIN":"34鄰","STREET":"郡平路","SECT":" ","MAREA":" ","LANE":" ","ALLEY":" ","HOUSE_NO":"２４８號","E_COORD97":164496.132002,"N_COORD97":2543369.7943799999,"ADDRESS":"郡平路２４８號","OBJECTID":519736},"geometry":{"x":164496.1320020007,"y":2543369.7943810038}},{"attributes":{"ID":519764,"DIS_CODE":0,"TOWNNAME":"南區","LI":"光明里","LIN":"35鄰","STREET":"新興路","SECT":" ","MAREA":" ","LANE":" ","ALLEY":" ","HOUSE_NO":"５３９號五樓之３","E_COORD97":166547.89000000001,"N_COORD97":2541640.4399999999,"ADDRESS":"新興路５３９號五樓之３","OBJECTID":519737},"geometry":{"x":166547.8900000006,"y":2541640.4399999976}},{"attributes":{"ID":519765,"DIS_CODE":0,"TOWNNAME":"南區","LI":"光明里","LIN":"35鄰","STREET":"新興路","SECT":" ","MAREA":" ","LANE":" ","ALLEY":" ","HOUSE_NO":"５３９號六樓","E_COORD97":166547.89000000001,"N_COORD97":2541640.4399999999,"ADDRESS":"新興路５３９號六樓","OBJECTID":519738},"geometry":{"x":166547.8900000006,"y":2541640.4399999976}},{"attributes":{"ID":519766,"DIS_CODE":0,"TOWNNAME":"南區","LI":"光明里","LIN":"35鄰","STREET":"新興路","SECT":" ","MAREA":" ","LANE":" ","ALLEY":" ","HOUSE_NO":"５３９號六樓之１","E_COORD97":166547.89000000001,"N_COORD97":2541640.4399999999,"ADDRESS":"新興路５３９號六樓之１","OBJECTID":519739},"geometry":{"x":166547.8900000006,"y":2541640.4399999976}},{"attributes":{"ID":519767,"DIS_CODE":0,"TOWNNAME":"南區","LI":"光明里","LIN":"35鄰","STREET":"新興路","SECT":" ","MAREA":" ","LANE":" ","ALLEY":" ","HOUSE_NO":"５３９號六樓之２","E_COORD97":166547.89000000001,"N_COORD97":2541640.4399999999,"ADDRESS":"新興路５３９號六樓之２","OBJECTID":519740},"geometry":{"x":166547.8900000006,"y":2541640.4399999976}},{"attributes":{"ID":519768,"DIS_CODE":0,"TOWNNAME":"南區","LI":"光明里","LIN":"35鄰","STREET":"新興路","SECT":" ","MAREA":" ","LANE":" ","ALLEY":" ","HOUSE_NO":"５３９號六樓之３","E_COORD97":166547.89000000001,"N_COORD97":2541640.4399999999,"ADDRESS":"新興路５３９號六樓之３","OBJECTID":519741},"geometry":{"x":166547.8900000006,"y":2541640.4399999976}},{"attributes":{"ID":519769,"DIS_CODE":0,"TOWNNAME":"南區","LI":"光明里","LIN":"35鄰","STREET":"新興路","SECT":" ","MAREA":" ","LANE":" ","ALLEY":" ","HOUSE_NO":"５３９號四樓","E_COORD97":166547.89000000001,"N_COORD97":2541640.4399999999,"ADDRESS":"新興路５３９號四樓","OBJECTID":519742},"geometry":{"x":166547.8900000006,"y":2541640.4399999976}},{"attributes":{"ID":519770,"DIS_CODE":0,"TOWNNAME":"南區","LI":"光明里","LIN":"35鄰","STREET":"新興路","SECT":" ","MAREA":" ","LANE":" ","ALLEY":" ","HOUSE_NO":"５３９號四樓之１","E_COORD97":166547.89000000001,"N_COORD97":2541640.4399999999,"ADDRESS":"新興路５３９號四樓之１","OBJECTID":519743},"geometry":{"x":166547.8900000006,"y":2541640.4399999976}},{"attributes":{"ID":519771,"DIS_CODE":0,"TOWNNAME":"南區","LI":"光明里","LIN":"35鄰","STREET":"新興路","SECT":" ","MAREA":" ","LANE":" ","ALLEY":" ","HOUSE_NO":"５３９號四樓之２","E_COORD97":166547.89000000001,"N_COORD97":2541640.4399999999,"ADDRESS":"新興路５３９號四樓之２","OBJECTID":519744},"geometry":{"x":166547.8900000006,"y":2541640.4399999976}},{"attributes":{"ID":519772,"DIS_CODE":0,"TOWNNAME":"永康區","LI":"五王里","LIN":"35鄰","STREET":"中山南路","SECT":" ","MAREA":" ","LANE":" ","ALLEY":" ","HOUSE_NO":"１６２號之４","E_COORD97":171254.38,"N_COORD97":2546001.7999999998,"ADDRESS":"中山南路１６２號之４","OBJECTID":519745},"geometry":{"x":171254.37999999989,"y":2546001.8000000007}},{"attributes":{"ID":519773,"DIS_CODE":0,"TOWNNAME":"南區","LI":"光明里","LIN":"35鄰","STREET":"新興路","SECT":" ","MAREA":" ","LANE":" ","ALLEY":" ","HOUSE_NO":"５３９號四樓之３","E_COORD97":166547.89000000001,"N_COORD97":2541640.4399999999,"ADDRESS":"新興路５３９號四樓之３","OBJECTID":519746},"geometry":{"x":166547.8900000006,"y":2541640.4399999976}},{"attributes":{"ID":519774,"DIS_CODE":0,"TOWNNAME":"安平區","LI":"國平里","LIN":"31鄰","STREET":"健康路","SECT":"三段","MAREA":" ","LANE":" ","ALLEY":" ","HOUSE_NO":"３５８號","E_COORD97":164778.85999999999,"N_COORD97":2542844.27,"ADDRESS":"健康路三段３５８號","OBJECTID":519747},"geometry":{"x":164778.86000000127,"y":2542844.2699999996}},{"attributes":{"ID":519775,"DIS_CODE":0,"TOWNNAME":"東區","LI":"小東里","LIN":"35鄰","STREET":"東興路","SECT":" ","MAREA":" ","LANE":" ","ALLEY":" ","HOUSE_NO":"３６７號七樓之１","E_COORD97":171012.20999999999,"N_COORD97":2544295.2400000002,"ADDRESS":"東興路３６７號七樓之１","OBJECTID":519748},"geometry":{"x":171012.20999999903,"y":2544295.2400000021}},{"attributes":{"ID":519776,"DIS_CODE":0,"TOWNNAME":"東區","LI":"小東里","LIN":"35鄰","STREET":"東興路","SECT":" ","MAREA":" ","LANE":" ","ALLEY":" ","HOUSE_NO":"３６７號七樓之２","E_COORD97":171012.20999999999,"N_COORD97":2544295.2400000002,"ADDRESS":"東興路３６７號七樓之２","OBJECTID":519749},"geometry":{"x":171012.20999999903,"y":2544295.2400000021}},{"attributes":{"ID":519777,"DIS_CODE":0,"TOWNNAME":"東區","LI":"小東里","LIN":"35鄰","STREET":"東興路","SECT":" ","MAREA":" ","LANE":" ","ALLEY":" ","HOUSE_NO":"３６７號七樓之３","E_COORD97":171012.20999999999,"N_COORD97":2544295.2400000002,"ADDRESS":"東興路３６７號七樓之３","OBJECTID":519750},"geometry":{"x":171012.20999999903,"y":2544295.2400000021}},{"attributes":{"ID":519778,"DIS_CODE":0,"TOWNNAME":"東區","LI":"小東里","LIN":"35鄰","STREET":"東興路","SECT":" ","MAREA":" ","LANE":" ","ALLEY":" ","HOUSE_NO":"３６７號二樓之２","E_COORD97":171012.20999999999,"N_COORD97":2544295.2400000002,"ADDRESS":"東興路３６７號二樓之２","OBJECTID":519751},"geometry":{"x":171012.20999999903,"y":2544295.2400000021}},{"attributes":{"ID":519779,"DIS_CODE":0,"TOWNNAME":"東區","LI":"小東里","LIN":"35鄰","STREET":"東興路","SECT":" ","MAREA":" ","LANE":" ","ALLEY":" ","HOUSE_NO":"３６７號三樓之１","E_COORD97":171012.20999999999,"N_COORD97":2544295.2400000002,"ADDRESS":"東興路３６７號三樓之１","OBJECTID":519752},"geometry":{"x":171012.20999999903,"y":2544295.2400000021}},{"attributes":{"ID":519780,"DIS_CODE":0,"TOWNNAME":"東區","LI":"小東里","LIN":"35鄰","STREET":"東興路","SECT":" ","MAREA":" ","LANE":" ","ALLEY":" ","HOUSE_NO":"３６７號三樓之２","E_COORD97":171012.20999999999,"N_COORD97":2544295.2400000002,"ADDRESS":"東興路３６７號三樓之２","OBJECTID":519753},"geometry":{"x":171012.20999999903,"y":2544295.2400000021}},{"attributes":{"ID":519781,"DIS_CODE":0,"TOWNNAME":"東區","LI":"小東里","LIN":"35鄰","STREET":"東興路","SECT":" ","MAREA":" ","LANE":" ","ALLEY":" ","HOUSE_NO":"３６７號五樓之２","E_COORD97":171012.20999999999,"N_COORD97":2544295.2400000002,"ADDRESS":"東興路３６７號五樓之２","OBJECTID":519754},"geometry":{"x":171012.20999999903,"y":2544295.2400000021}},{"attributes":{"ID":519782,"DIS_CODE":0,"TOWNNAME":"東區","LI":"小東里","LIN":"35鄰","STREET":"東興路","SECT":" ","MAREA":" ","LANE":" ","ALLEY":" ","HOUSE_NO":"３６７號五樓之３","E_COORD97":171012.20999999999,"N_COORD97":2544295.2400000002,"ADDRESS":"東興路３６７號五樓之３","OBJECTID":519755},"geometry":{"x":171012.20999999903,"y":2544295.2400000021}},{"attributes":{"ID":519783,"DIS_CODE":0,"TOWNNAME":"東區","LI":"小東里","LIN":"35鄰","STREET":"東興路","SECT":" ","MAREA":" ","LANE":" ","ALLEY":" ","HOUSE_NO":"３６７號五樓之４","E_COORD97":171012.20999999999,"N_COORD97":2544295.2400000002,"ADDRESS":"東興路３６７號五樓之４","OBJECTID":519756},"geometry":{"x":171012.20999999903,"y":2544295.2400000021}},{"attributes":{"ID":519784,"DIS_CODE":0,"TOWNNAME":"東區","LI":"小東里","LIN":"35鄰","STREET":"東興路","SECT":" ","MAREA":" ","LANE":" ","ALLEY":" ","HOUSE_NO":"３６７號六樓之１","E_COORD97":171012.20999999999,"N_COORD97":2544295.2400000002,"ADDRESS":"東興路３６７號六樓之１","OBJECTID":519757},"geometry":{"x":171012.20999999903,"y":2544295.2400000021}},{"attributes":{"ID":519785,"DIS_CODE":0,"TOWNNAME":"東區","LI":"小東里","LIN":"35鄰","STREET":"東興路","SECT":" ","MAREA":" ","LANE":" ","ALLEY":" ","HOUSE_NO":"３６７號六樓之２","E_COORD97":171012.20999999999,"N_COORD97":2544295.2400000002,"ADDRESS":"東興路３６７號六樓之２","OBJECTID":519758},"geometry":{"x":171012.20999999903,"y":2544295.2400000021}},{"attributes":{"ID":519786,"DIS_CODE":0,"TOWNNAME":"東區","LI":"小東里","LIN":"35鄰","STREET":"東興路","SECT":" ","MAREA":" ","LANE":" ","ALLEY":" ","HOUSE_NO":"３６７號六樓之３","E_COORD97":171012.20999999999,"N_COORD97":2544295.2400000002,"ADDRESS":"東興路３６７號六樓之３","OBJECTID":519759},"geometry":{"x":171012.20999999903,"y":2544295.2400000021}},{"attributes":{"ID":519787,"DIS_CODE":0,"TOWNNAME":"東區","LI":"小東里","LIN":"35鄰","STREET":"東興路","SECT":" ","MAREA":" ","LANE":" ","ALLEY":" ","HOUSE_NO":"３６７號六樓之４","E_COORD97":171012.20999999999,"N_COORD97":2544295.2400000002,"ADDRESS":"東興路３６７號六樓之４","OBJECTID":519760},"geometry":{"x":171012.20999999903,"y":2544295.2400000021}},{"attributes":{"ID":519788,"DIS_CODE":0,"TOWNNAME":"東區","LI":"小東里","LIN":"35鄰","STREET":"東興路","SECT":" ","MAREA":" ","LANE":" ","ALLEY":" ","HOUSE_NO":"３６７號四樓之１","E_COORD97":171012.20999999999,"N_COORD97":2544295.2400000002,"ADDRESS":"東興路３６７號四樓之１","OBJECTID":519761},"geometry":{"x":171012.20999999903,"y":2544295.2400000021}},{"attributes":{"ID":519789,"DIS_CODE":0,"TOWNNAME":"東區","LI":"小東里","LIN":"35鄰","STREET":"東興路","SECT":" ","MAREA":" ","LANE":" ","ALLEY":" ","HOUSE_NO":"３６７號四樓之２","E_COORD97":171012.20999999999,"N_COORD97":2544295.2400000002,"ADDRESS":"東興路３６７號四樓之２","OBJECTID":519762},"geometry":{"x":171012.20999999903,"y":2544295.2400000021}},{"attributes":{"ID":519790,"DIS_CODE":0,"TOWNNAME":"東區","LI":"小東里","LIN":"35鄰","STREET":"東興路","SECT":" ","MAREA":" ","LANE":" ","ALLEY":" ","HOUSE_NO":"３６７號四樓之３","E_COORD97":171012.20999999999,"N_COORD97":2544295.2400000002,"ADDRESS":"東興路３６７號四樓之３","OBJECTID":519763},"geometry":{"x":171012.20999999903,"y":2544295.2400000021}},{"attributes":{"ID":519791,"DIS_CODE":0,"TOWNNAME":"東區","LI":"小東里","LIN":"35鄰","STREET":"東興路","SECT":" ","MAREA":" ","LANE":" ","ALLEY":" ","HOUSE_NO":"３６７號四樓之５","E_COORD97":171012.20999999999,"N_COORD97":2544295.2400000002,"ADDRESS":"東興路３６７號四樓之５","OBJECTID":519764},"geometry":{"x":171012.20999999903,"y":2544295.2400000021}},{"attributes":{"ID":519792,"DIS_CODE":0,"TOWNNAME":"東區","LI":"小東里","LIN":"35鄰","STREET":"東興路","SECT":" ","MAREA":" ","LANE":" ","ALLEY":" ","HOUSE_NO":"３６７號二樓之１","E_COORD97":171012.20999999999,"N_COORD97":2544295.2400000002,"ADDRESS":"東興路３６７號二樓之１","OBJECTID":519765},"geometry":{"x":171012.20999999903,"y":2544295.2400000021}},{"attributes":{"ID":519793,"DIS_CODE":0,"TOWNNAME":"東區","LI":"小東里","LIN":"35鄰","STREET":"東興路","SECT":" ","MAREA":" ","LANE":" ","ALLEY":" ","HOUSE_NO":"３６７號三樓之３","E_COORD97":171012.20999999999,"N_COORD97":2544295.2400000002,"ADDRESS":"東興路３６７號三樓之３","OBJECTID":519766},"geometry":{"x":171012.20999999903,"y":2544295.2400000021}},{"attributes":{"ID":519794,"DIS_CODE":0,"TOWNNAME":"東區","LI":"小東里","LIN":"35鄰","STREET":"東興路","SECT":" ","MAREA":" ","LANE":" ","ALLEY":" ","HOUSE_NO":"３６７號五樓之１","E_COORD97":171012.20999999999,"N_COORD97":2544295.2400000002,"ADDRESS":"東興路３６７號五樓之１","OBJECTID":519767},"geometry":{"x":171012.20999999903,"y":2544295.2400000021}},{"attributes":{"ID":519795,"DIS_CODE":0,"TOWNNAME":"東區","LI":"小東里","LIN":"35鄰","STREET":"東興路","SECT":" ","MAREA":" ","LANE":" ","ALLEY":" ","HOUSE_NO":"３６７號三樓之４","E_COORD97":171012.20999999999,"N_COORD97":2544295.2400000002,"ADDRESS":"東興路３６７號三樓之４","OBJECTID":519768},"geometry":{"x":171012.20999999903,"y":2544295.2400000021}},{"attributes":{"ID":519796,"DIS_CODE":0,"TOWNNAME":"永康區","LI":"復華里","LIN":"35鄰","STREET":"復華七街","SECT":" ","MAREA":" ","LANE":" ","ALLEY":" ","HOUSE_NO":"４１號","E_COORD97":172657.10000000001,"N_COORD97":2545996.2200000002,"ADDRESS":"復華七街４１號","OBJECTID":519769},"geometry":{"x":172657.10000000149,"y":2545996.2200000007}},{"attributes":{"ID":519797,"DIS_CODE":0,"TOWNNAME":"永康區","LI":"復華里","LIN":"35鄰","STREET":"復國一路","SECT":" ","MAREA":" ","LANE":" ","ALLEY":" ","HOUSE_NO":"４４５號","E_COORD97":172655.60000000001,"N_COORD97":2546074.6699999999,"ADDRESS":"復國一路４４５號","OBJECTID":519770},"geometry":{"x":172655.60000000056,"y":2546074.6700000018}},{"attributes":{"ID":519798,"DIS_CODE":0,"TOWNNAME":"永康區","LI":"復華里","LIN":"35鄰","STREET":"復國一路","SECT":" ","MAREA":" ","LANE":" ","ALLEY":" ","HOUSE_NO":"４５３號","E_COORD97":172643.23999999999,"N_COORD97":2546089.9199999999,"ADDRESS":"復國一路４５３號","OBJECTID":519771},"geometry":{"x":172643.24000000209,"y":2546089.9200000018}},{"attributes":{"ID":519799,"DIS_CODE":0,"TOWNNAME":"永康區","LI":"復華里","LIN":"35鄰","STREET":"復國一路","SECT":" ","MAREA":" ","LANE":" ","ALLEY":" ","HOUSE_NO":"４５５號","E_COORD97":172640.04000000001,"N_COORD97":2546094.4300000002,"ADDRESS":"復國一路４５５號","OBJECTID":519772},"geometry":{"x":172640.04000000097,"y":2546094.4299999997}},{"attributes":{"ID":519800,"DIS_CODE":0,"TOWNNAME":"永康區","LI":"五王里","LIN":"35鄰","STREET":"中華路","SECT":" ","MAREA":" ","LANE":" ","ALLEY":" ","HOUSE_NO":"５９２號","E_COORD97":171190.04000000001,"N_COORD97":2545943.9900000002,"ADDRESS":"中華路５９２號","OBJECTID":519773},"geometry":{"x":171190.04000000097,"y":2545943.9900000021}},{"attributes":{"ID":519801,"DIS_CODE":0,"TOWNNAME":"永康區","LI":"五王里","LIN":"35鄰","STREET":"中山南路","SECT":" ","MAREA":" ","LANE":" ","ALLEY":" ","HOUSE_NO":"１６２號之６","E_COORD97":171262.17000000001,"N_COORD97":2546004.0499999998,"ADDRESS":"中山南路１６２號之６","OBJECTID":519774},"geometry":{"x":171262.17000000086,"y":2546004.0500000007}},{"attributes":{"ID":519802,"DIS_CODE":0,"TOWNNAME":"永康區","LI":"五王里","LIN":"35鄰","STREET":"中山南路","SECT":" ","MAREA":" ","LANE":" ","ALLEY":" ","HOUSE_NO":"１５２號之５","E_COORD97":171203.28,"N_COORD97":2545983.79,"ADDRESS":"中山南路１５２號之５","OBJECTID":519775},"geometry":{"x":171203.28000000026,"y":2545983.7899999991}},{"attributes":{"ID":519803,"DIS_CODE":0,"TOWNNAME":"永康區","LI":"五王里","LIN":"35鄰","STREET":"中山南路","SECT":" ","MAREA":" ","LANE":" ","ALLEY":" ","HOUSE_NO":"１５２號之２","E_COORD97":171191.17000000001,"N_COORD97":2545979.79,"ADDRESS":"中山南路１５２號之２","OBJECTID":519776},"geometry":{"x":171191.17000000086,"y":2545979.7899999991}},{"attributes":{"ID":519804,"DIS_CODE":0,"TOWNNAME":"永康區","LI":"五王里","LIN":"35鄰","STREET":"中華路","SECT":" ","MAREA":" ","LANE":" ","ALLEY":" ","HOUSE_NO":"５８０號","E_COORD97":171204.73999999999,"N_COORD97":2545925.75,"ADDRESS":"中華路５８０號","OBJECTID":519777},"geometry":{"x":171204.74000000115,"y":2545925.7500000019}},{"attributes":{"ID":519805,"DIS_CODE":0,"TOWNNAME":"永康區","LI":"五王里","LIN":"35鄰","STREET":"中山南路","SECT":" ","MAREA":" ","LANE":" ","ALLEY":" ","HOUSE_NO":"１６２號之５","E_COORD97":171258.28,"N_COORD97":2546002.7999999998,"ADDRESS":"中山南路１６２號之５","OBJECTID":519778},"geometry":{"x":171258.28000000119,"y":2546002.7999999989}},{"attributes":{"ID":519806,"DIS_CODE":0,"TOWNNAME":"仁德區","LI":"仁德里","LIN":"35鄰","STREET":"文山路","SECT":" ","MAREA":" ","LANE":" ","ALLEY":" ","HOUSE_NO":"１３５號","E_COORD97":172807.01999999999,"N_COORD97":2541715.5699999998,"ADDRESS":"文山路１３５號","OBJECTID":519779},"geometry":{"x":172807.02000000048,"y":2541715.5700000022}},{"attributes":{"ID":519807,"DIS_CODE":0,"TOWNNAME":"仁德區","LI":"仁德里","LIN":"35鄰","STREET":"文山路","SECT":" ","MAREA":" ","LANE":" ","ALLEY":" ","HOUSE_NO":"１２１號","E_COORD97":172815.73000000001,"N_COORD97":2541707.0699999998,"ADDRESS":"文山路１２１號","OBJECTID":519780},"geometry":{"x":172815.73000000045,"y":2541707.0700000003}},{"attributes":{"ID":519808,"DIS_CODE":0,"TOWNNAME":"仁德區","LI":"仁義里","LIN":"35鄰","STREET":"勝利路","SECT":" ","MAREA":" ","LANE":" ","ALLEY":" ","HOUSE_NO":"７２號","E_COORD97":173670.12,"N_COORD97":2539857.75,"ADDRESS":"勝利路７２號","OBJECTID":519781},"geometry":{"x":173670.12000000104,"y":2539857.75}},{"attributes":{"ID":519809,"DIS_CODE":0,"TOWNNAME":"仁德區","LI":"仁德里","LIN":"35鄰","STREET":"文山路","SECT":" ","MAREA":" ","LANE":" ","ALLEY":" ","HOUSE_NO":"１２９號","E_COORD97":172807.42000000001,"N_COORD97":2541702.3199999998,"ADDRESS":"文山路１２９號","OBJECTID":519782},"geometry":{"x":172807.41999999993,"y":2541702.3200000003}},{"attributes":{"ID":519810,"DIS_CODE":0,"TOWNNAME":"仁德區","LI":"仁德里","LIN":"35鄰","STREET":"文山路","SECT":" ","MAREA":" ","LANE":" ","ALLEY":" ","HOUSE_NO":"１１９號","E_COORD97":172815.85999999999,"N_COORD97":2541711.3199999998,"ADDRESS":"文山路１１９號","OBJECTID":519783},"geometry":{"x":172815.86000000127,"y":2541711.3200000022}},{"attributes":{"ID":519811,"DIS_CODE":0,"TOWNNAME":"仁德區","LI":"仁德里","LIN":"35鄰","STREET":"文山路","SECT":" ","MAREA":" ","LANE":" ","ALLEY":" ","HOUSE_NO":"９６號","E_COORD97":172785.29000000001,"N_COORD97":2541771.0800000001,"ADDRESS":"文山路９６號","OBJECTID":519784},"geometry":{"x":172785.29000000097,"y":2541771.0800000001}},{"attributes":{"ID":519812,"DIS_CODE":0,"TOWNNAME":"仁德區","LI":"仁德里","LIN":"35鄰","STREET":"文山路","SECT":" ","MAREA":" ","LANE":" ","ALLEY":" ","HOUSE_NO":"１７５號","E_COORD97":172720.64999999999,"N_COORD97":2541763.0800000001,"ADDRESS":"文山路１７５號","OBJECTID":519785},"geometry":{"x":172720.6500000013,"y":2541763.0800000019}},{"attributes":{"ID":519813,"DIS_CODE":0,"TOWNNAME":"仁德區","LI":"仁德里","LIN":"35鄰","STREET":"裕華三街","SECT":" ","MAREA":" ","LANE":" ","ALLEY":" ","HOUSE_NO":"２９７號","E_COORD97":172848.70000000001,"N_COORD97":2541789.5,"ADDRESS":"裕華三街２９７號","OBJECTID":519786},"geometry":{"x":172848.70000000112,"y":2541789.5}},{"attributes":{"ID":519814,"DIS_CODE":0,"TOWNNAME":"仁德區","LI":"仁德里","LIN":"35鄰","STREET":"文山路","SECT":" ","MAREA":" ","LANE":" ","ALLEY":" ","HOUSE_NO":"１０７號","E_COORD97":172817.51000000001,"N_COORD97":2541747.3300000001,"ADDRESS":"文山路１０７號","OBJECTID":519787},"geometry":{"x":172817.51000000071,"y":2541747.3300000038}},{"attributes":{"ID":519815,"DIS_CODE":0,"TOWNNAME":"仁德區","LI":"仁德里","LIN":"35鄰","STREET":"裕華三街","SECT":" ","MAREA":" ","LANE":" ","ALLEY":" ","HOUSE_NO":"２８６號","E_COORD97":172697.42999999999,"N_COORD97":2541746.5,"ADDRESS":"裕華三街２８６號","OBJECTID":519788},"geometry":{"x":172697.43000000063,"y":2541746.5000000019}},{"attributes":{"ID":519816,"DIS_CODE":0,"TOWNNAME":"仁德區","LI":"仁德里","LIN":"35鄰","STREET":"文山路","SECT":" ","MAREA":" ","LANE":" ","ALLEY":" ","HOUSE_NO":"９９號","E_COORD97":172833.29999999999,"N_COORD97":2541748.0800000001,"ADDRESS":"文山路９９號","OBJECTID":519789},"geometry":{"x":172833.29999999981,"y":2541748.0800000001}},{"attributes":{"ID":519817,"DIS_CODE":0,"TOWNNAME":"仁德區","LI":"仁義里","LIN":"35鄰","STREET":"中正路","SECT":"二段","MAREA":" ","LANE":" ","ALLEY":" ","HOUSE_NO":"６９６號","E_COORD97":173411.73000000001,"N_COORD97":2539967.52,"ADDRESS":"中正路二段６９６號","OBJECTID":519790},"geometry":{"x":173411.73000000138,"y":2539967.5199999996}},{"attributes":{"ID":519818,"DIS_CODE":0,"TOWNNAME":"仁德區","LI":"仁義里","LIN":"35鄰","STREET":"中正路","SECT":"二段","MAREA":" ","LANE":" ","ALLEY":" ","HOUSE_NO":"６８２號","E_COORD97":173396.28,"N_COORD97":2539887.5299999998,"ADDRESS":"中正路二段６８２號","OBJECTID":519791},"geometry":{"x":173396.28000000119,"y":2539887.5300000012}},{"attributes":{"ID":519819,"DIS_CODE":0,"TOWNNAME":"仁德區","LI":"仁德里","LIN":"35鄰","STREET":"文山路","SECT":" ","MAREA":" ","LANE":" ","ALLEY":" ","HOUSE_NO":"７８號","E_COORD97":172817.85999999999,"N_COORD97":2541770.0800000001,"ADDRESS":"文山路７８號","OBJECTID":519792},"geometry":{"x":172817.86000000127,"y":2541770.0800000019}},{"attributes":{"ID":519820,"DIS_CODE":0,"TOWNNAME":"仁德區","LI":"仁德里","LIN":"35鄰","STREET":"文山路","SECT":" ","MAREA":" ","LANE":" ","ALLEY":" ","HOUSE_NO":"１０９號","E_COORD97":172815.70000000001,"N_COORD97":2541732.5699999998,"ADDRESS":"文山路１０９號","OBJECTID":519793},"geometry":{"x":172815.70000000019,"y":2541732.5700000022}},{"attributes":{"ID":519821,"DIS_CODE":0,"TOWNNAME":"仁德區","LI":"仁德里","LIN":"35鄰","STREET":"文山路","SECT":" ","MAREA":" ","LANE":" ","ALLEY":" ","HOUSE_NO":"９７號","E_COORD97":172837.84,"N_COORD97":2541747.8300000001,"ADDRESS":"文山路９７號","OBJECTID":519794},"geometry":{"x":172837.84000000078,"y":2541747.8300000019}},{"attributes":{"ID":519822,"DIS_CODE":0,"TOWNNAME":"仁德區","LI":"仁德里","LIN":"35鄰","STREET":"文山路","SECT":" ","MAREA":" ","LANE":" ","ALLEY":" ","HOUSE_NO":"８５號","E_COORD97":172840.98999999999,"N_COORD97":2541713.8199999998,"ADDRESS":"文山路８５號","OBJECTID":519795},"geometry":{"x":172840.99000000022,"y":2541713.8200000022}},{"attributes":{"ID":519823,"DIS_CODE":0,"TOWNNAME":"仁德區","LI":"仁德里","LIN":"35鄰","STREET":"文山路","SECT":" ","MAREA":" ","LANE":" ","ALLEY":" ","HOUSE_NO":"７９號","E_COORD97":172840.98999999999,"N_COORD97":2541699.8199999998,"ADDRESS":"文山路７９號","OBJECTID":519796},"geometry":{"x":172840.99000000022,"y":2541699.8199999984}},{"attributes":{"ID":519824,"DIS_CODE":0,"TOWNNAME":"仁德區","LI":"仁德里","LIN":"35鄰","STREET":"裕華三街","SECT":" ","MAREA":" ","LANE":" ","ALLEY":" ","HOUSE_NO":"２９１號","E_COORD97":172834.95999999999,"N_COORD97":2541789.75,"ADDRESS":"裕華三街２９１號","OBJECTID":519797},"geometry":{"x":172834.96000000089,"y":2541789.7500000019}},{"attributes":{"ID":519825,"DIS_CODE":0,"TOWNNAME":"仁德區","LI":"仁德里","LIN":"35鄰","STREET":"裕華三街","SECT":" ","MAREA":" ","LANE":" ","ALLEY":" ","HOUSE_NO":"２８３號","E_COORD97":172816.25,"N_COORD97":2541789.75,"ADDRESS":"裕華三街２８３號","OBJECTID":519798},"geometry":{"x":172816.25000000093,"y":2541789.7500000019}},{"attributes":{"ID":519826,"DIS_CODE":0,"TOWNNAME":"仁德區","LI":"仁德里","LIN":"35鄰","STREET":"裕華三街","SECT":" ","MAREA":" ","LANE":" ","ALLEY":" ","HOUSE_NO":"３２９號","E_COORD97":172784.95000000001,"N_COORD97":2541716.2400000002,"ADDRESS":"裕華三街３２９號","OBJECTID":519799},"geometry":{"x":172784.95000000019,"y":2541716.2400000002}},{"attributes":{"ID":519827,"DIS_CODE":0,"TOWNNAME":"仁德區","LI":"太子里","LIN":"35鄰","STREET":"太子路","SECT":" ","MAREA":" ","LANE":" ","ALLEY":" ","HOUSE_NO":"４５１號","E_COORD97":174239.51000000001,"N_COORD97":2543493.25,"ADDRESS":"太子路４５１號","OBJECTID":519800},"geometry":{"x":174239.51000000164,"y":2543493.25}}]}