{"displayFieldName":"TOWNNAME","fieldAliases":{"ID":"ID","DIS_CODE":"DIS_CODE","TOWNNAME":"TOWNNAME","LI":"LI","LIN":"LIN","STREET":"STREET","SECT":"SECT","MAREA":"MAREA","LANE":"LANE","ALLEY":"ALLEY","HOUSE_NO":"HOUSE_NO","E_COORD97":"E_COORD97","N_COORD97":"N_COORD97","ADDRESS":"ADDRESS","OBJECTID":"OBJECTID"},"geometryType":"esriGeometryPoint","spatialReference":{"wkid":102443,"latestWkid":3826},"fields":[{"name":"ID","type":"esriFieldTypeDouble","alias":"ID"},{"name":"DIS_CODE","type":"esriFieldTypeInteger","alias":"DIS_CODE"},{"name":"TOWNNAME","type":"esriFieldTypeString","alias":"TOWNNAME","length":8},{"name":"LI","type":"esriFieldTypeString","alias":"LI","length":8},{"name":"LIN","type":"esriFieldTypeString","alias":"LIN","length":12},{"name":"STREET","type":"esriFieldTypeString","alias":"STREET","length":20},{"name":"SECT","type":"esriFieldTypeString","alias":"SECT","length":8},{"name":"MAREA","type":"esriFieldTypeString","alias":"MAREA","length":12},{"name":"LANE","type":"esriFieldTypeString","alias":"LANE","length":10},{"name":"ALLEY","type":"esriFieldTypeString","alias":"ALLEY","length":10},{"name":"HOUSE_NO","type":"esriFieldTypeString","alias":"HOUSE_NO","length":20},{"name":"E_COORD97","type":"esriFieldTypeDouble","alias":"E_COORD97"},{"name":"N_COORD97","type":"esriFieldTypeDouble","alias":"N_COORD97"},{"name":"ADDRESS","type":"esriFieldTypeString","alias":"ADDRESS","length":50},{"name":"OBJECTID","type":"esriFieldTypeOID","alias":"OBJECTID"}],"features":[{"attributes":{"ID":519828,"DIS_CODE":0,"TOWNNAME":"仁德區","LI":"太子里","LIN":"35鄰","STREET":"太子路","SECT":" ","MAREA":" ","LANE":" ","ALLEY":" ","HOUSE_NO":"４５７之１號","E_COORD97":174199.79000000001,"N_COORD97":2543490.79,"ADDRESS":"太子路４５７之１號","OBJECTID":519801},"geometry":{"x":174199.79000000004,"y":2543490.7899999991}},{"attributes":{"ID":519829,"DIS_CODE":0,"TOWNNAME":"仁德區","LI":"仁德里","LIN":"35鄰","STREET":"文山路","SECT":" ","MAREA":" ","LANE":" ","ALLEY":" ","HOUSE_NO":"１８３號","E_COORD97":172704.81,"N_COORD97":2541767.8300000001,"ADDRESS":"文山路１８３號","OBJECTID":519802},"geometry":{"x":172704.81000000145,"y":2541767.8300000019}},{"attributes":{"ID":519830,"DIS_CODE":0,"TOWNNAME":"仁德區","LI":"仁德里","LIN":"35鄰","STREET":"文山路","SECT":" ","MAREA":" ","LANE":" ","ALLEY":" ","HOUSE_NO":"１２３號","E_COORD97":172815.85999999999,"N_COORD97":2541702.3199999998,"ADDRESS":"文山路１２３號","OBJECTID":519803},"geometry":{"x":172815.86000000127,"y":2541702.3200000003}},{"attributes":{"ID":519831,"DIS_CODE":0,"TOWNNAME":"仁德區","LI":"仁德里","LIN":"35鄰","STREET":"文山路","SECT":" ","MAREA":" ","LANE":" ","ALLEY":" ","HOUSE_NO":"８６號","E_COORD97":172803.85000000001,"N_COORD97":2541770.8300000001,"ADDRESS":"文山路８６號","OBJECTID":519804},"geometry":{"x":172803.84999999963,"y":2541770.8300000038}},{"attributes":{"ID":519832,"DIS_CODE":0,"TOWNNAME":"仁德區","LI":"仁德里","LIN":"35鄰","STREET":"裕華三街","SECT":" ","MAREA":" ","LANE":" ","ALLEY":" ","HOUSE_NO":"２８７號","E_COORD97":172825.44,"N_COORD97":2541789.75,"ADDRESS":"裕華三街２８７號","OBJECTID":519805},"geometry":{"x":172825.44000000134,"y":2541789.7500000019}},{"attributes":{"ID":519833,"DIS_CODE":0,"TOWNNAME":"仁德區","LI":"仁德里","LIN":"35鄰","STREET":"裕華三街","SECT":" ","MAREA":" ","LANE":" ","ALLEY":" ","HOUSE_NO":"２８２號","E_COORD97":172701.14999999999,"N_COORD97":2541745.75,"ADDRESS":"裕華三街２８２號","OBJECTID":519806},"geometry":{"x":172701.15000000037,"y":2541745.7500000019}},{"attributes":{"ID":519834,"DIS_CODE":0,"TOWNNAME":"仁德區","LI":"仁德里","LIN":"35鄰","STREET":"文山路","SECT":" ","MAREA":" ","LANE":" ","ALLEY":" ","HOUSE_NO":"１５３號","E_COORD97":172786.91,"N_COORD97":2541747.0800000001,"ADDRESS":"文山路１５３號","OBJECTID":519807},"geometry":{"x":172786.91000000015,"y":2541747.0800000019}},{"attributes":{"ID":519835,"DIS_CODE":0,"TOWNNAME":"仁德區","LI":"仁德里","LIN":"35鄰","STREET":"文山路","SECT":" ","MAREA":" ","LANE":" ","ALLEY":" ","HOUSE_NO":"１６３號","E_COORD97":172746.53,"N_COORD97":2541754.0800000001,"ADDRESS":"文山路１６３號","OBJECTID":519808},"geometry":{"x":172746.53000000119,"y":2541754.0800000001}},{"attributes":{"ID":519836,"DIS_CODE":0,"TOWNNAME":"仁德區","LI":"成功里","LIN":"35鄰","STREET":"保華路","SECT":" ","MAREA":" ","LANE":" ","ALLEY":" ","HOUSE_NO":"７０號","E_COORD97":170575.89999999999,"N_COORD97":2539991.5,"ADDRESS":"保華路７０號","OBJECTID":519809},"geometry":{"x":170575.90000000224,"y":2539991.5}},{"attributes":{"ID":519837,"DIS_CODE":0,"TOWNNAME":"仁德區","LI":"仁義里","LIN":"35鄰","STREET":"中正路","SECT":"二段","MAREA":" ","LANE":" ","ALLEY":" ","HOUSE_NO":"６９６號之１","E_COORD97":173419.12,"N_COORD97":2539979.04,"ADDRESS":"中正路二段６９６號之１","OBJECTID":519810},"geometry":{"x":173419.12000000104,"y":2539979.040000001}},{"attributes":{"ID":519838,"DIS_CODE":0,"TOWNNAME":"仁德區","LI":"仁德里","LIN":"35鄰","STREET":"裕華三街","SECT":" ","MAREA":" ","LANE":" ","ALLEY":" ","HOUSE_NO":"２７９號","E_COORD97":172806.34,"N_COORD97":2541790.25,"ADDRESS":"裕華三街２７９號","OBJECTID":519811},"geometry":{"x":172806.33999999985,"y":2541790.25}},{"attributes":{"ID":519839,"DIS_CODE":0,"TOWNNAME":"仁德區","LI":"仁德里","LIN":"35鄰","STREET":"裕華三街","SECT":" ","MAREA":" ","LANE":" ","ALLEY":" ","HOUSE_NO":"３００號","E_COORD97":172698.23000000001,"N_COORD97":2541735.9900000002,"ADDRESS":"裕華三街３００號","OBJECTID":519812},"geometry":{"x":172698.23000000138,"y":2541735.9900000039}},{"attributes":{"ID":519840,"DIS_CODE":0,"TOWNNAME":"仁德區","LI":"仁德里","LIN":"35鄰","STREET":"文山路","SECT":" ","MAREA":" ","LANE":" ","ALLEY":" ","HOUSE_NO":"１４９號","E_COORD97":172796.5,"N_COORD97":2541747.0800000001,"ADDRESS":"文山路１４９號","OBJECTID":519813},"geometry":{"x":172796.5,"y":2541747.0800000019}},{"attributes":{"ID":519841,"DIS_CODE":0,"TOWNNAME":"仁德區","LI":"仁德里","LIN":"35鄰","STREET":"裕華三街","SECT":" ","MAREA":" ","LANE":" ","ALLEY":" ","HOUSE_NO":"２７１號","E_COORD97":172787.95000000001,"N_COORD97":2541790.25,"ADDRESS":"裕華三街２７１號","OBJECTID":519814},"geometry":{"x":172787.95000000112,"y":2541790.25}},{"attributes":{"ID":519842,"DIS_CODE":0,"TOWNNAME":"仁德區","LI":"仁德里","LIN":"35鄰","STREET":"裕華三街","SECT":" ","MAREA":" ","LANE":" ","ALLEY":" ","HOUSE_NO":"２８８號","E_COORD97":172693.42999999999,"N_COORD97":2541747.75,"ADDRESS":"裕華三街２８８號","OBJECTID":519815},"geometry":{"x":172693.4299999997,"y":2541747.7500000037}},{"attributes":{"ID":519843,"DIS_CODE":0,"TOWNNAME":"仁德區","LI":"仁德里","LIN":"35鄰","STREET":"裕華三街","SECT":" ","MAREA":" ","LANE":" ","ALLEY":" ","HOUSE_NO":"２９３號","E_COORD97":172839.34,"N_COORD97":2541789.75,"ADDRESS":"裕華三街２９３號","OBJECTID":519816},"geometry":{"x":172839.34000000078,"y":2541789.7500000019}},{"attributes":{"ID":519844,"DIS_CODE":0,"TOWNNAME":"仁德區","LI":"仁德里","LIN":"35鄰","STREET":"裕華三街","SECT":" ","MAREA":" ","LANE":" ","ALLEY":" ","HOUSE_NO":"２９０號","E_COORD97":172689.5,"N_COORD97":2541749,"ADDRESS":"裕華三街２９０號","OBJECTID":519817},"geometry":{"x":172689.5,"y":2541749}},{"attributes":{"ID":519845,"DIS_CODE":0,"TOWNNAME":"新市區","LI":"新和里","LIN":"35鄰","STREET":"仁愛街","SECT":" ","MAREA":" ","LANE":" ","ALLEY":" ","HOUSE_NO":"２５７號","E_COORD97":177624.44,"N_COORD97":2552945.0299999998,"ADDRESS":"仁愛街２５７號","OBJECTID":519818},"geometry":{"x":177624.44000000134,"y":2552945.0300000012}},{"attributes":{"ID":519846,"DIS_CODE":0,"TOWNNAME":"仁德區","LI":"仁義里","LIN":"35鄰","STREET":"勝利路","SECT":" ","MAREA":" ","LANE":" ","ALLEY":" ","HOUSE_NO":"３８號","E_COORD97":173512.42000000001,"N_COORD97":2539937.25,"ADDRESS":"勝利路３８號","OBJECTID":519819},"geometry":{"x":173512.41999999993,"y":2539937.2500000037}},{"attributes":{"ID":519847,"DIS_CODE":0,"TOWNNAME":"安平區","LI":"億載里","LIN":"13鄰","STREET":"光州五街","SECT":" ","MAREA":" ","LANE":" ","ALLEY":" ","HOUSE_NO":"１４３號","E_COORD97":164223.92000000001,"N_COORD97":2543324.7200000002,"ADDRESS":"光州五街１４３號","OBJECTID":519820},"geometry":{"x":164223.92000000086,"y":2543324.7200000007}},{"attributes":{"ID":519848,"DIS_CODE":0,"TOWNNAME":"安平區","LI":"億載里","LIN":"13鄰","STREET":"光州五街","SECT":" ","MAREA":" ","LANE":" ","ALLEY":" ","HOUSE_NO":"１４５號","E_COORD97":164227.38,"N_COORD97":2543327.0899999999,"ADDRESS":"光州五街１４５號","OBJECTID":519821},"geometry":{"x":164227.38000000082,"y":2543327.0899999999}},{"attributes":{"ID":519849,"DIS_CODE":0,"TOWNNAME":"新營區","LI":"民榮里","LIN":"25鄰","STREET":"新進路","SECT":"二段","MAREA":" ","LANE":" ","ALLEY":" ","HOUSE_NO":"１６５號","E_COORD97":179319.59,"N_COORD97":2577712.54,"ADDRESS":"新進路二段１６５號","OBJECTID":519822},"geometry":{"x":179319.59000000078,"y":2577712.5399999991}},{"attributes":{"ID":519850,"DIS_CODE":0,"TOWNNAME":"新營區","LI":"嘉芳里","LIN":"14鄰","STREET":"四維路","SECT":" ","MAREA":" ","LANE":" ","ALLEY":" ","HOUSE_NO":"６號","E_COORD97":176489.20999999999,"N_COORD97":2578577.9300000002,"ADDRESS":"四維路６號","OBJECTID":519823},"geometry":{"x":176489.20999999996,"y":2578577.9299999997}},{"attributes":{"ID":519851,"DIS_CODE":0,"TOWNNAME":"新營區","LI":"民生里","LIN":"7鄰","STREET":"民生路","SECT":" ","MAREA":" ","LANE":" ","ALLEY":" ","HOUSE_NO":"３３號","E_COORD97":179324.48000000001,"N_COORD97":2578282.9399999999,"ADDRESS":"民生路３３號","OBJECTID":519824},"geometry":{"x":179324.48000000138,"y":2578282.9399999995}},{"attributes":{"ID":519852,"DIS_CODE":0,"TOWNNAME":"永康區","LI":"復華里","LIN":"35鄰","STREET":"復華七街","SECT":" ","MAREA":" ","LANE":" ","ALLEY":" ","HOUSE_NO":"５３號","E_COORD97":172683.81,"N_COORD97":2546010.9700000002,"ADDRESS":"復華七街５３號","OBJECTID":519825},"geometry":{"x":172683.80999999959,"y":2546010.9700000007}},{"attributes":{"ID":519853,"DIS_CODE":0,"TOWNNAME":"永康區","LI":"復華里","LIN":"35鄰","STREET":"復國一路","SECT":" ","MAREA":" ","LANE":" ","ALLEY":" ","HOUSE_NO":"４４９號","E_COORD97":172649.69,"N_COORD97":2546082.4199999999,"ADDRESS":"復國一路４４９號","OBJECTID":519826},"geometry":{"x":172649.69000000041,"y":2546082.4199999981}},{"attributes":{"ID":519854,"DIS_CODE":0,"TOWNNAME":"永康區","LI":"復華里","LIN":"35鄰","STREET":"復國一路","SECT":" ","MAREA":" ","LANE":" ","ALLEY":" ","HOUSE_NO":"４６７號","E_COORD97":172619.04999999999,"N_COORD97":2546121.6800000002,"ADDRESS":"復國一路４６７號","OBJECTID":519827},"geometry":{"x":172619.05000000075,"y":2546121.6800000016}},{"attributes":{"ID":519855,"DIS_CODE":0,"TOWNNAME":"永康區","LI":"東橋里","LIN":"17鄰","STREET":"東橋十街","SECT":" ","MAREA":" ","LANE":" ","ALLEY":" ","HOUSE_NO":"６８號","E_COORD97":171335.5,"N_COORD97":2546913.7799999998,"ADDRESS":"東橋十街６８號","OBJECTID":519828},"geometry":{"x":171335.5,"y":2546913.7800000031}},{"attributes":{"ID":519856,"DIS_CODE":0,"TOWNNAME":"永康區","LI":"復華里","LIN":"35鄰","STREET":"復國一路","SECT":" ","MAREA":" ","LANE":" ","ALLEY":" ","HOUSE_NO":"４５７號","E_COORD97":172636.94,"N_COORD97":2546098.4300000002,"ADDRESS":"復國一路４５７號","OBJECTID":519829},"geometry":{"x":172636.94000000227,"y":2546098.4299999997}},{"attributes":{"ID":519857,"DIS_CODE":0,"TOWNNAME":"仁德區","LI":"仁德里","LIN":"35鄰","STREET":"文山路","SECT":" ","MAREA":" ","LANE":" ","ALLEY":" ","HOUSE_NO":"１１７號","E_COORD97":172815.67999999999,"N_COORD97":2541715.3199999998,"ADDRESS":"文山路１１７號","OBJECTID":519830},"geometry":{"x":172815.6799999997,"y":2541715.3200000003}},{"attributes":{"ID":519858,"DIS_CODE":0,"TOWNNAME":"仁德區","LI":"仁義里","LIN":"35鄰","STREET":"勝利路","SECT":" ","MAREA":" ","LANE":" ","ALLEY":" ","HOUSE_NO":"６２號","E_COORD97":173589.32999999999,"N_COORD97":2539903.2599999998,"ADDRESS":"勝利路６２號","OBJECTID":519831},"geometry":{"x":173589.33000000007,"y":2539903.2600000016}},{"attributes":{"ID":519859,"DIS_CODE":0,"TOWNNAME":"仁德區","LI":"仁德里","LIN":"35鄰","STREET":"文山路","SECT":" ","MAREA":" ","LANE":" ","ALLEY":" ","HOUSE_NO":"１７３號","E_COORD97":172725.01000000001,"N_COORD97":2541761.3300000001,"ADDRESS":"文山路１７３號","OBJECTID":519832},"geometry":{"x":172725.00999999978,"y":2541761.3300000019}},{"attributes":{"ID":519860,"DIS_CODE":0,"TOWNNAME":"仁德區","LI":"仁德里","LIN":"35鄰","STREET":"裕華三街","SECT":" ","MAREA":" ","LANE":" ","ALLEY":" ","HOUSE_NO":"３２６號","E_COORD97":172742.04999999999,"N_COORD97":2541721.4900000002,"ADDRESS":"裕華三街３２６號","OBJECTID":519833},"geometry":{"x":172742.04999999981,"y":2541721.4900000002}},{"attributes":{"ID":519861,"DIS_CODE":0,"TOWNNAME":"仁德區","LI":"仁德里","LIN":"35鄰","STREET":"文山路","SECT":" ","MAREA":" ","LANE":" ","ALLEY":" ","HOUSE_NO":"６８號","E_COORD97":172836.92000000001,"N_COORD97":2541770.3300000001,"ADDRESS":"文山路６８號","OBJECTID":519834},"geometry":{"x":172836.92000000086,"y":2541770.3300000001}},{"attributes":{"ID":519862,"DIS_CODE":0,"TOWNNAME":"仁德區","LI":"仁德里","LIN":"35鄰","STREET":"裕華三街","SECT":" ","MAREA":" ","LANE":" ","ALLEY":" ","HOUSE_NO":"３２３號","E_COORD97":172785,"N_COORD97":2541728.4900000002,"ADDRESS":"裕華三街３２３號","OBJECTID":519835},"geometry":{"x":172785,"y":2541728.4900000002}},{"attributes":{"ID":519863,"DIS_CODE":0,"TOWNNAME":"仁德區","LI":"仁德里","LIN":"35鄰","STREET":"文山路","SECT":" ","MAREA":" ","LANE":" ","ALLEY":" ","HOUSE_NO":"９５號","E_COORD97":172842.17999999999,"N_COORD97":2541747.8300000001,"ADDRESS":"文山路９５號","OBJECTID":519836},"geometry":{"x":172842.1799999997,"y":2541747.8300000019}},{"attributes":{"ID":519864,"DIS_CODE":0,"TOWNNAME":"仁德區","LI":"仁德里","LIN":"35鄰","STREET":"裕華三街","SECT":" ","MAREA":" ","LANE":" ","ALLEY":" ","HOUSE_NO":"２９８號","E_COORD97":172694.26000000001,"N_COORD97":2541736.9900000002,"ADDRESS":"裕華三街２９８號","OBJECTID":519837},"geometry":{"x":172694.25999999978,"y":2541736.9900000021}},{"attributes":{"ID":519865,"DIS_CODE":0,"TOWNNAME":"仁德區","LI":"仁德里","LIN":"35鄰","STREET":"裕華三街","SECT":" ","MAREA":" ","LANE":" ","ALLEY":" ","HOUSE_NO":"２８９號","E_COORD97":172830.06,"N_COORD97":2541789.75,"ADDRESS":"裕華三街２８９號","OBJECTID":519838},"geometry":{"x":172830.05999999866,"y":2541789.7500000019}},{"attributes":{"ID":519866,"DIS_CODE":0,"TOWNNAME":"仁德區","LI":"仁德里","LIN":"35鄰","STREET":"文山路","SECT":" ","MAREA":" ","LANE":" ","ALLEY":" ","HOUSE_NO":"１８１號","E_COORD97":172708.53,"N_COORD97":2541766.8300000001,"ADDRESS":"文山路１８１號","OBJECTID":519839},"geometry":{"x":172708.53000000026,"y":2541766.8300000001}},{"attributes":{"ID":519867,"DIS_CODE":0,"TOWNNAME":"仁德區","LI":"仁德里","LIN":"35鄰","STREET":"裕華三街","SECT":" ","MAREA":" ","LANE":" ","ALLEY":" ","HOUSE_NO":"３１６號","E_COORD97":172724.39999999999,"N_COORD97":2541727.4900000002,"ADDRESS":"裕華三街３１６號","OBJECTID":519840},"geometry":{"x":172724.4000000013,"y":2541727.4900000021}},{"attributes":{"ID":519868,"DIS_CODE":0,"TOWNNAME":"仁德區","LI":"仁德里","LIN":"35鄰","STREET":"文山路","SECT":" ","MAREA":" ","LANE":" ","ALLEY":" ","HOUSE_NO":"１６１號","E_COORD97":172751.34,"N_COORD97":2541752.8300000001,"ADDRESS":"文山路１６１號","OBJECTID":519841},"geometry":{"x":172751.34000000078,"y":2541752.8300000001}},{"attributes":{"ID":519869,"DIS_CODE":0,"TOWNNAME":"東區","LI":"小東里","LIN":"35鄰","STREET":"東興路","SECT":" ","MAREA":" ","LANE":" ","ALLEY":" ","HOUSE_NO":"３５１號","E_COORD97":171017.85999999999,"N_COORD97":2544255.8799999999,"ADDRESS":"東興路３５１號","OBJECTID":519842},"geometry":{"x":171017.86000000034,"y":2544255.8800000008}},{"attributes":{"ID":519870,"DIS_CODE":0,"TOWNNAME":"仁德區","LI":"仁德里","LIN":"35鄰","STREET":"文山路","SECT":" ","MAREA":" ","LANE":" ","ALLEY":" ","HOUSE_NO":"９３號","E_COORD97":172841.45000000001,"N_COORD97":2541732.3199999998,"ADDRESS":"文山路９３號","OBJECTID":519843},"geometry":{"x":172841.45000000019,"y":2541732.3200000003}},{"attributes":{"ID":519871,"DIS_CODE":0,"TOWNNAME":"永康區","LI":"東橋里","LIN":"17鄰","STREET":"東橋三路","SECT":" ","MAREA":" ","LANE":" ","ALLEY":" ","HOUSE_NO":"２２３號","E_COORD97":171420.73000000001,"N_COORD97":2546933.3700000001,"ADDRESS":"東橋三路２２３號","OBJECTID":519844},"geometry":{"x":171420.73000000045,"y":2546933.3700000029}},{"attributes":{"ID":519872,"DIS_CODE":0,"TOWNNAME":"永康區","LI":"王行里","LIN":"1鄰","STREET":"王行路","SECT":" ","MAREA":" ","LANE":" ","ALLEY":" ","HOUSE_NO":"２４１號","E_COORD97":175407.42999999999,"N_COORD97":2548484.8799999999,"ADDRESS":"王行路２４１號","OBJECTID":519845},"geometry":{"x":175407.4299999997,"y":2548484.879999999}},{"attributes":{"ID":519873,"DIS_CODE":0,"TOWNNAME":"仁德區","LI":"仁德里","LIN":"35鄰","STREET":"裕華三街","SECT":" ","MAREA":" ","LANE":" ","ALLEY":" ","HOUSE_NO":"２８０號","E_COORD97":172705.5,"N_COORD97":2541743.75,"ADDRESS":"裕華三街２８０號","OBJECTID":519846},"geometry":{"x":172705.50000000186,"y":2541743.75}},{"attributes":{"ID":519874,"DIS_CODE":0,"TOWNNAME":"仁德區","LI":"仁德里","LIN":"35鄰","STREET":"裕華三街","SECT":" ","MAREA":" ","LANE":" ","ALLEY":" ","HOUSE_NO":"３２０號","E_COORD97":172733.31,"N_COORD97":2541724.4900000002,"ADDRESS":"裕華三街３２０號","OBJECTID":519847},"geometry":{"x":172733.30999999959,"y":2541724.4900000002}},{"attributes":{"ID":519875,"DIS_CODE":0,"TOWNNAME":"仁德區","LI":"仁德里","LIN":"35鄰","STREET":"文山路","SECT":" ","MAREA":" ","LANE":" ","ALLEY":" ","HOUSE_NO":"１２７號","E_COORD97":172807.51999999999,"N_COORD97":2541697.8199999998,"ADDRESS":"文山路１２７號","OBJECTID":519848},"geometry":{"x":172807.51999999955,"y":2541697.8200000022}},{"attributes":{"ID":519876,"DIS_CODE":0,"TOWNNAME":"仁德區","LI":"太子里","LIN":"35鄰","STREET":"太子路","SECT":" ","MAREA":" ","LANE":" ","ALLEY":" ","HOUSE_NO":"４４３號","E_COORD97":174257.22,"N_COORD97":2543493.5,"ADDRESS":"太子路４４３號","OBJECTID":519849},"geometry":{"x":174257.22000000067,"y":2543493.5000000019}},{"attributes":{"ID":519877,"DIS_CODE":0,"TOWNNAME":"仁德區","LI":"成功里","LIN":"35鄰","STREET":"成功一街","SECT":" ","MAREA":" ","LANE":" ","ALLEY":" ","HOUSE_NO":"８７號","E_COORD97":170539.79999999999,"N_COORD97":2540001.52,"ADDRESS":"成功一街８７號","OBJECTID":519850},"geometry":{"x":170539.79999999981,"y":2540001.5199999996}},{"attributes":{"ID":519878,"DIS_CODE":0,"TOWNNAME":"仁德區","LI":"仁德里","LIN":"35鄰","STREET":"文山路","SECT":" ","MAREA":" ","LANE":" ","ALLEY":" ","HOUSE_NO":"６３號","E_COORD97":172851.95000000001,"N_COORD97":2541695.8199999998,"ADDRESS":"文山路６３號","OBJECTID":519851},"geometry":{"x":172851.95000000205,"y":2541695.8200000003}},{"attributes":{"ID":519879,"DIS_CODE":0,"TOWNNAME":"仁德區","LI":"仁德里","LIN":"35鄰","STREET":"文山路","SECT":" ","MAREA":" ","LANE":" ","ALLEY":" ","HOUSE_NO":"１５１號","E_COORD97":172791.67999999999,"N_COORD97":2541747.3300000001,"ADDRESS":"文山路１５１號","OBJECTID":519852},"geometry":{"x":172791.6799999997,"y":2541747.3300000038}},{"attributes":{"ID":519880,"DIS_CODE":0,"TOWNNAME":"仁德區","LI":"仁德里","LIN":"35鄰","STREET":"裕華三街","SECT":" ","MAREA":" ","LANE":" ","ALLEY":" ","HOUSE_NO":"２９２號","E_COORD97":172686.75,"N_COORD97":2541739.2400000002,"ADDRESS":"裕華三街２９２號","OBJECTID":519853},"geometry":{"x":172686.75,"y":2541739.2400000021}},{"attributes":{"ID":519881,"DIS_CODE":0,"TOWNNAME":"仁德區","LI":"仁德里","LIN":"35鄰","STREET":"文山路","SECT":" ","MAREA":" ","LANE":" ","ALLEY":" ","HOUSE_NO":"５５號","E_COORD97":172851.95000000001,"N_COORD97":2541724.3199999998,"ADDRESS":"文山路５５號","OBJECTID":519854},"geometry":{"x":172851.95000000205,"y":2541724.3200000022}},{"attributes":{"ID":519882,"DIS_CODE":0,"TOWNNAME":"仁德區","LI":"仁德里","LIN":"35鄰","STREET":"裕華三街","SECT":" ","MAREA":" ","LANE":" ","ALLEY":" ","HOUSE_NO":"２７８號","E_COORD97":172710.13,"N_COORD97":2541742.4900000002,"ADDRESS":"裕華三街２７８號","OBJECTID":519855},"geometry":{"x":172710.13000000082,"y":2541742.4900000002}},{"attributes":{"ID":519883,"DIS_CODE":0,"TOWNNAME":"仁德區","LI":"仁義里","LIN":"35鄰","STREET":"中正路","SECT":"二段","MAREA":" ","LANE":" ","ALLEY":" ","HOUSE_NO":"６５８號","E_COORD97":173391.20000000001,"N_COORD97":2539832.77,"ADDRESS":"中正路二段６５８號","OBJECTID":519856},"geometry":{"x":173391.20000000112,"y":2539832.7700000014}},{"attributes":{"ID":519884,"DIS_CODE":0,"TOWNNAME":"仁德區","LI":"仁德里","LIN":"35鄰","STREET":"文山路","SECT":" ","MAREA":" ","LANE":" ","ALLEY":" ","HOUSE_NO":"１４５號","E_COORD97":172805.89999999999,"N_COORD97":2541747.3300000001,"ADDRESS":"文山路１４５號","OBJECTID":519857},"geometry":{"x":172805.90000000037,"y":2541747.3300000038}},{"attributes":{"ID":519885,"DIS_CODE":0,"TOWNNAME":"仁德區","LI":"後壁里","LIN":"35鄰","STREET":"德洋路","SECT":" ","MAREA":" ","LANE":" ","ALLEY":" ","HOUSE_NO":"１８９號","E_COORD97":172488.57999999999,"N_COORD97":2539451.7599999998,"ADDRESS":"德洋路１８９號","OBJECTID":519858},"geometry":{"x":172488.58000000101,"y":2539451.7599999979}},{"attributes":{"ID":519886,"DIS_CODE":0,"TOWNNAME":"仁德區","LI":"後壁里","LIN":"35鄰","STREET":"德洋二街","SECT":" ","MAREA":" ","LANE":" ","ALLEY":" ","HOUSE_NO":"３８號","E_COORD97":172376.62,"N_COORD97":2539476.27,"ADDRESS":"德洋二街３８號","OBJECTID":519859},"geometry":{"x":172376.62000000104,"y":2539476.2700000014}},{"attributes":{"ID":519887,"DIS_CODE":0,"TOWNNAME":"永康區","LI":"埔園里","LIN":"35鄰","STREET":"八德街","SECT":" ","MAREA":" ","LANE":" ","ALLEY":" ","HOUSE_NO":"３號","E_COORD97":174343.98000000001,"N_COORD97":2548483.3199999998,"ADDRESS":"八德街３號","OBJECTID":519860},"geometry":{"x":174343.98000000138,"y":2548483.3200000003}},{"attributes":{"ID":519888,"DIS_CODE":0,"TOWNNAME":"永康區","LI":"埔園里","LIN":"35鄰","STREET":"八德街","SECT":" ","MAREA":" ","LANE":" ","ALLEY":" ","HOUSE_NO":"５號","E_COORD97":174339.64999999999,"N_COORD97":2548483.7999999998,"ADDRESS":"八德街５號","OBJECTID":519861},"geometry":{"x":174339.6500000013,"y":2548483.8000000007}},{"attributes":{"ID":519889,"DIS_CODE":0,"TOWNNAME":"永康區","LI":"埔園里","LIN":"35鄰","STREET":"八德街","SECT":" ","MAREA":" ","LANE":" ","ALLEY":" ","HOUSE_NO":"７號","E_COORD97":174335.23000000001,"N_COORD97":2548484.3799999999,"ADDRESS":"八德街７號","OBJECTID":519862},"geometry":{"x":174335.23000000231,"y":2548484.379999999}},{"attributes":{"ID":519890,"DIS_CODE":0,"TOWNNAME":"永康區","LI":"埔園里","LIN":"35鄰","STREET":"八德街","SECT":" ","MAREA":" ","LANE":" ","ALLEY":" ","HOUSE_NO":"９號","E_COORD97":174330.89999999999,"N_COORD97":2548484.77,"ADDRESS":"八德街９號","OBJECTID":519863},"geometry":{"x":174330.9000000013,"y":2548484.7700000014}},{"attributes":{"ID":519891,"DIS_CODE":0,"TOWNNAME":"永康區","LI":"永康里","LIN":"35鄰","STREET":"大同街","SECT":" ","MAREA":" ","LANE":" ","ALLEY":" ","HOUSE_NO":"９６０號","E_COORD97":174413.67999999999,"N_COORD97":2547068.1699999999,"ADDRESS":"大同街９６０號","OBJECTID":519864},"geometry":{"x":174413.6799999997,"y":2547068.1700000018}},{"attributes":{"ID":519892,"DIS_CODE":0,"TOWNNAME":"永康區","LI":"永康里","LIN":"35鄰","STREET":"大同街","SECT":" ","MAREA":" ","LANE":" ","ALLEY":" ","HOUSE_NO":"９６２號","E_COORD97":174412.98999999999,"N_COORD97":2547071.8300000001,"ADDRESS":"大同街９６２號","OBJECTID":519865},"geometry":{"x":174412.99000000209,"y":2547071.8300000001}},{"attributes":{"ID":519893,"DIS_CODE":0,"TOWNNAME":"東區","LI":"虎尾里","LIN":"35鄰","STREET":"富農街","SECT":"一段","MAREA":" ","LANE":" ","ALLEY":" ","HOUSE_NO":"１５號之１９","E_COORD97":171479.78,"N_COORD97":2542105.6499999999,"ADDRESS":"富農街一段１５號之１９","OBJECTID":519866},"geometry":{"x":171479.78000000026,"y":2542105.6500000022}},{"attributes":{"ID":519894,"DIS_CODE":0,"TOWNNAME":"東區","LI":"虎尾里","LIN":"35鄰","STREET":"富農街","SECT":"一段","MAREA":" ","LANE":" ","ALLEY":" ","HOUSE_NO":"１５號之１６","E_COORD97":171481.54999999999,"N_COORD97":2542093.0800000001,"ADDRESS":"富農街一段１５號之１６","OBJECTID":519867},"geometry":{"x":171481.55000000075,"y":2542093.0800000001}},{"attributes":{"ID":519895,"DIS_CODE":0,"TOWNNAME":"東區","LI":"虎尾里","LIN":"35鄰","STREET":"富農街","SECT":"一段","MAREA":" ","LANE":" ","ALLEY":" ","HOUSE_NO":"１５號之２２","E_COORD97":171466.60000000001,"N_COORD97":2542106.6499999999,"ADDRESS":"富農街一段１５號之２２","OBJECTID":519868},"geometry":{"x":171466.59999999963,"y":2542106.6500000004}},{"attributes":{"ID":519896,"DIS_CODE":0,"TOWNNAME":"東區","LI":"虎尾里","LIN":"35鄰","STREET":"富農街","SECT":"一段","MAREA":" ","LANE":" ","ALLEY":" ","HOUSE_NO":"１５號之５","E_COORD97":171466.60000000001,"N_COORD97":2542074.3999999999,"ADDRESS":"富農街一段１５號之５","OBJECTID":519869},"geometry":{"x":171466.59999999963,"y":2542074.4000000004}},{"attributes":{"ID":519897,"DIS_CODE":0,"TOWNNAME":"東區","LI":"虎尾里","LIN":"35鄰","STREET":"富農街","SECT":"一段","MAREA":" ","LANE":" ","ALLEY":" ","HOUSE_NO":"１５號之９","E_COORD97":171448.69,"N_COORD97":2542071.2599999998,"ADDRESS":"富農街一段１５號之９","OBJECTID":519870},"geometry":{"x":171448.69000000227,"y":2542071.2599999998}},{"attributes":{"ID":519898,"DIS_CODE":0,"TOWNNAME":"東區","LI":"虎尾里","LIN":"35鄰","STREET":"富農街","SECT":"一段","MAREA":" ","LANE":" ","ALLEY":" ","HOUSE_NO":"１５號之８","E_COORD97":171453.41,"N_COORD97":2542071.8500000001,"ADDRESS":"富農街一段１５號之８","OBJECTID":519871},"geometry":{"x":171453.41000000015,"y":2542071.8499999978}},{"attributes":{"ID":519899,"DIS_CODE":0,"TOWNNAME":"東區","LI":"虎尾里","LIN":"35鄰","STREET":"富農街","SECT":"一段","MAREA":" ","LANE":" ","ALLEY":" ","HOUSE_NO":"１５號之１１","E_COORD97":171449.87,"N_COORD97":2542092.8900000001,"ADDRESS":"富農街一段１５號之１１","OBJECTID":519872},"geometry":{"x":171449.87000000011,"y":2542092.8899999987}},{"attributes":{"ID":519900,"DIS_CODE":0,"TOWNNAME":"東區","LI":"虎尾里","LIN":"35鄰","STREET":"富農街","SECT":"一段","MAREA":" ","LANE":" ","ALLEY":" ","HOUSE_NO":"１５號之１３","E_COORD97":171458.92000000001,"N_COORD97":2542093.6699999999,"ADDRESS":"富農街一段１５號之１３","OBJECTID":519873},"geometry":{"x":171458.92000000086,"y":2542093.6699999981}},{"attributes":{"ID":519901,"DIS_CODE":0,"TOWNNAME":"東區","LI":"虎尾里","LIN":"35鄰","STREET":"富農街","SECT":"一段","MAREA":" ","LANE":" ","ALLEY":" ","HOUSE_NO":"１５號之７","E_COORD97":171457.73999999999,"N_COORD97":2542073.0299999998,"ADDRESS":"富農街一段１５號之７","OBJECTID":519874},"geometry":{"x":171457.74000000022,"y":2542073.0299999993}},{"attributes":{"ID":519902,"DIS_CODE":0,"TOWNNAME":"東區","LI":"虎尾里","LIN":"35鄰","STREET":"富農街","SECT":"一段","MAREA":" ","LANE":" ","ALLEY":" ","HOUSE_NO":"１５號之２５","E_COORD97":171452.82000000001,"N_COORD97":2542104.6800000002,"ADDRESS":"富農街一段１５號之２５","OBJECTID":519875},"geometry":{"x":171452.82000000123,"y":2542104.6800000016}},{"attributes":{"ID":519903,"DIS_CODE":0,"TOWNNAME":"東區","LI":"虎尾里","LIN":"35鄰","STREET":"富農街","SECT":"一段","MAREA":" ","LANE":" ","ALLEY":" ","HOUSE_NO":"１５號之２３","E_COORD97":171462.07000000001,"N_COORD97":2542105.8599999999,"ADDRESS":"富農街一段１５號之２３","OBJECTID":519876},"geometry":{"x":171462.0700000003,"y":2542105.8600000031}},{"attributes":{"ID":519904,"DIS_CODE":0,"TOWNNAME":"東區","LI":"虎尾里","LIN":"35鄰","STREET":"富農街","SECT":"一段","MAREA":" ","LANE":" ","ALLEY":" ","HOUSE_NO":"１５號之６","E_COORD97":171462.07000000001,"N_COORD97":2542073.8199999998,"ADDRESS":"富農街一段１５號之６","OBJECTID":519877},"geometry":{"x":171462.0700000003,"y":2542073.8200000022}},{"attributes":{"ID":519905,"DIS_CODE":0,"TOWNNAME":"東區","LI":"虎尾里","LIN":"35鄰","STREET":"富農街","SECT":"一段","MAREA":" ","LANE":" ","ALLEY":" ","HOUSE_NO":"１５號之１５","E_COORD97":171467.78,"N_COORD97":2542095.2400000002,"ADDRESS":"富農街一段１５號之１５","OBJECTID":519878},"geometry":{"x":171467.78000000026,"y":2542095.2400000021}},{"attributes":{"ID":519906,"DIS_CODE":0,"TOWNNAME":"東區","LI":"虎尾里","LIN":"35鄰","STREET":"富農街","SECT":"一段","MAREA":" ","LANE":" ","ALLEY":" ","HOUSE_NO":"１５號","E_COORD97":171482.14000000001,"N_COORD97":2542073.6200000001,"ADDRESS":"富農街一段１５號","OBJECTID":519879},"geometry":{"x":171482.14000000153,"y":2542073.620000001}},{"attributes":{"ID":519907,"DIS_CODE":0,"TOWNNAME":"東區","LI":"虎尾里","LIN":"35鄰","STREET":"富農街","SECT":"一段","MAREA":" ","LANE":" ","ALLEY":" ","HOUSE_NO":"１５號之１","E_COORD97":171481.94,"N_COORD97":2542077.75,"ADDRESS":"富農街一段１５號之１","OBJECTID":519880},"geometry":{"x":171481.94000000041,"y":2542077.7500000019}},{"attributes":{"ID":519908,"DIS_CODE":0,"TOWNNAME":"東區","LI":"虎尾里","LIN":"35鄰","STREET":"富農街","SECT":"一段","MAREA":" ","LANE":" ","ALLEY":" ","HOUSE_NO":"１５號之２","E_COORD97":171480.95999999999,"N_COORD97":2542081.8799999999,"ADDRESS":"富農街一段１５號之２","OBJECTID":519881},"geometry":{"x":171480.96000000089,"y":2542081.8800000008}},{"attributes":{"ID":519909,"DIS_CODE":0,"TOWNNAME":"東區","LI":"虎尾里","LIN":"35鄰","STREET":"富農街","SECT":"一段","MAREA":" ","LANE":" ","ALLEY":" ","HOUSE_NO":"１５號之３","E_COORD97":171470.92000000001,"N_COORD97":2542075.3900000001,"ADDRESS":"富農街一段１５號之３","OBJECTID":519882},"geometry":{"x":171470.92000000086,"y":2542075.3900000006}},{"attributes":{"ID":519910,"DIS_CODE":0,"TOWNNAME":"永康區","LI":"埔園里","LIN":"35鄰","STREET":"龍中街","SECT":" ","MAREA":" ","LANE":" ","ALLEY":" ","HOUSE_NO":"４６５號","E_COORD97":174369.92000000001,"N_COORD97":2548314.7999999998,"ADDRESS":"龍中街４６５號","OBJECTID":519883},"geometry":{"x":174369.91999999993,"y":2548314.8000000007}},{"attributes":{"ID":519911,"DIS_CODE":0,"TOWNNAME":"歸仁區","LI":"後市里","LIN":"35鄰","STREET":"中山八街","SECT":" ","MAREA":" ","LANE":" ","ALLEY":" ","HOUSE_NO":"２６號","E_COORD97":177231.32999999999,"N_COORD97":2540970.7400000002,"ADDRESS":"中山八街２６號","OBJECTID":519884},"geometry":{"x":177231.33000000194,"y":2540970.7400000002}},{"attributes":{"ID":519912,"DIS_CODE":0,"TOWNNAME":"東區","LI":"小東里","LIN":"35鄰","STREET":"東和路","SECT":" ","MAREA":" ","LANE":" ","ALLEY":" ","HOUSE_NO":"４５號三樓","E_COORD97":171010.79999999999,"N_COORD97":2544329.2200000002,"ADDRESS":"東和路４５號三樓","OBJECTID":519885},"geometry":{"x":171010.79999999981,"y":2544329.2200000025}},{"attributes":{"ID":519913,"DIS_CODE":0,"TOWNNAME":"永康區","LI":"東橋里","LIN":"14鄰","STREET":"東橋一路","SECT":" ","MAREA":" ","LANE":" ","ALLEY":" ","HOUSE_NO":"２７８號","E_COORD97":171396.94,"N_COORD97":2546669.4100000001,"ADDRESS":"東橋一路２７８號","OBJECTID":519886},"geometry":{"x":171396.94000000041,"y":2546669.4100000039}},{"attributes":{"ID":519914,"DIS_CODE":0,"TOWNNAME":"安平區","LI":"育平里","LIN":"35鄰","STREET":"平豐路","SECT":" ","MAREA":" ","LANE":" ","ALLEY":" ","HOUSE_NO":"２２２號","E_COORD97":164321.12,"N_COORD97":2543408.2799999998,"ADDRESS":"平豐路２２２號","OBJECTID":519887},"geometry":{"x":164321.12000000104,"y":2543408.2800000012}},{"attributes":{"ID":519915,"DIS_CODE":0,"TOWNNAME":"安平區","LI":"育平里","LIN":"35鄰","STREET":"建平七街","SECT":" ","MAREA":" ","LANE":" ","ALLEY":" ","HOUSE_NO":"８８５號","E_COORD97":164363.64999999999,"N_COORD97":2543477.7400000002,"ADDRESS":"建平七街８８５號","OBJECTID":519888},"geometry":{"x":164363.6500000013,"y":2543477.7400000021}},{"attributes":{"ID":519916,"DIS_CODE":0,"TOWNNAME":"安平區","LI":"育平里","LIN":"35鄰","STREET":"郡平路","SECT":" ","MAREA":" ","LANE":" ","ALLEY":" ","HOUSE_NO":"２８８號","E_COORD97":164375.53,"N_COORD97":2543385.6200000001,"ADDRESS":"郡平路２８８號","OBJECTID":519889},"geometry":{"x":164375.53000000212,"y":2543385.620000001}},{"attributes":{"ID":519917,"DIS_CODE":0,"TOWNNAME":"歸仁區","LI":"後市里","LIN":"35鄰","STREET":"國光街","SECT":" ","MAREA":" ","LANE":" ","ALLEY":" ","HOUSE_NO":"７９號","E_COORD97":177232.09,"N_COORD97":2540952.7400000002,"ADDRESS":"國光街７９號","OBJECTID":519890},"geometry":{"x":177232.08999999985,"y":2540952.7400000021}},{"attributes":{"ID":519918,"DIS_CODE":0,"TOWNNAME":"歸仁區","LI":"南興里","LIN":"35鄰","STREET":"民生一街","SECT":" ","MAREA":" ","LANE":" ","ALLEY":" ","HOUSE_NO":"３０號","E_COORD97":176359.09,"N_COORD97":2541024.29,"ADDRESS":"民生一街３０號","OBJECTID":519891},"geometry":{"x":176359.08999999985,"y":2541024.2900000028}},{"attributes":{"ID":519919,"DIS_CODE":0,"TOWNNAME":"歸仁區","LI":"後市里","LIN":"35鄰","STREET":"國光街","SECT":" ","MAREA":" ","LANE":" ","ALLEY":" ","HOUSE_NO":"９５號","E_COORD97":177270.09,"N_COORD97":2540962.7400000002,"ADDRESS":"國光街９５號","OBJECTID":519892},"geometry":{"x":177270.09000000078,"y":2540962.7400000021}},{"attributes":{"ID":519920,"DIS_CODE":0,"TOWNNAME":"歸仁區","LI":"後市里","LIN":"35鄰","STREET":"中山八街","SECT":" ","MAREA":" ","LANE":" ","ALLEY":" ","HOUSE_NO":"３６號","E_COORD97":177232.42999999999,"N_COORD97":2540989.7400000002,"ADDRESS":"中山八街３６號","OBJECTID":519893},"geometry":{"x":177232.43000000063,"y":2540989.7400000021}},{"attributes":{"ID":519921,"DIS_CODE":0,"TOWNNAME":"歸仁區","LI":"南興里","LIN":"35鄰","STREET":"中山路","SECT":"三段","MAREA":" ","LANE":" ","ALLEY":" ","HOUSE_NO":"２６０號","E_COORD97":176349.95999999999,"N_COORD97":2540954.2799999998,"ADDRESS":"中山路三段２６０號","OBJECTID":519894},"geometry":{"x":176349.95999999996,"y":2540954.2800000012}},{"attributes":{"ID":519922,"DIS_CODE":0,"TOWNNAME":"歸仁區","LI":"後市里","LIN":"35鄰","STREET":"國光街","SECT":" ","MAREA":" ","LANE":" ","ALLEY":" ","HOUSE_NO":"１０３號","E_COORD97":177296.04000000001,"N_COORD97":2540983.7400000002,"ADDRESS":"國光街１０３號","OBJECTID":519895},"geometry":{"x":177296.04000000097,"y":2540983.7400000002}},{"attributes":{"ID":519923,"DIS_CODE":0,"TOWNNAME":"歸仁區","LI":"南保里","LIN":"35鄰","STREET":"民權八街","SECT":" ","MAREA":" ","LANE":" ","ALLEY":" ","HOUSE_NO":"７１號","E_COORD97":176720.98999999999,"N_COORD97":2541006.29,"ADDRESS":"民權八街７１號","OBJECTID":519896},"geometry":{"x":176720.99000000022,"y":2541006.2899999991}},{"attributes":{"ID":519924,"DIS_CODE":0,"TOWNNAME":"玉井區","LI":"玉田里","LIN":"35鄰","STREET":"民族路","SECT":" ","MAREA":" ","LANE":" ","ALLEY":" ","HOUSE_NO":"２６７號","E_COORD97":195663.07999999999,"N_COORD97":2558093.2799999998,"ADDRESS":"民族路２６７號","OBJECTID":519897},"geometry":{"x":195663.08000000194,"y":2558093.2800000012}},{"attributes":{"ID":519925,"DIS_CODE":0,"TOWNNAME":"玉井區","LI":"玉田里","LIN":"35鄰","STREET":"大勇街","SECT":" ","MAREA":" ","LANE":" ","ALLEY":" ","HOUSE_NO":"１號","E_COORD97":195676.57000000001,"N_COORD97":2558181.25,"ADDRESS":"大勇街１號","OBJECTID":519898},"geometry":{"x":195676.5700000003,"y":2558181.2500000019}},{"attributes":{"ID":519926,"DIS_CODE":0,"TOWNNAME":"玉井區","LI":"玉田里","LIN":"35鄰","STREET":"大勇街","SECT":" ","MAREA":" ","LANE":" ","ALLEY":" ","HOUSE_NO":"５號","E_COORD97":195665.87,"N_COORD97":2558181.25,"ADDRESS":"大勇街５號","OBJECTID":519899},"geometry":{"x":195665.87000000011,"y":2558181.2500000019}},{"attributes":{"ID":519927,"DIS_CODE":0,"TOWNNAME":"玉井區","LI":"玉田里","LIN":"35鄰","STREET":"大勇街","SECT":" ","MAREA":" ","LANE":" ","ALLEY":" ","HOUSE_NO":"１１號","E_COORD97":195650.41,"N_COORD97":2558181.25,"ADDRESS":"大勇街１１號","OBJECTID":519900},"geometry":{"x":195650.41000000015,"y":2558181.2500000019}},{"attributes":{"ID":519928,"DIS_CODE":0,"TOWNNAME":"玉井區","LI":"玉田里","LIN":"35鄰","STREET":"大成路","SECT":" ","MAREA":" ","LANE":" ","ALLEY":" ","HOUSE_NO":"１８２號","E_COORD97":195700.45999999999,"N_COORD97":2558180.2599999998,"ADDRESS":"大成路１８２號","OBJECTID":519901},"geometry":{"x":195700.45999999996,"y":2558180.2599999979}},{"attributes":{"ID":519929,"DIS_CODE":0,"TOWNNAME":"玉井區","LI":"玉田里","LIN":"35鄰","STREET":"大成路","SECT":" ","MAREA":" ","LANE":" ","ALLEY":" ","HOUSE_NO":"１８０號","E_COORD97":195699.16,"N_COORD97":2558174.2599999998,"ADDRESS":"大成路１８０號","OBJECTID":519902},"geometry":{"x":195699.16000000015,"y":2558174.2600000016}},{"attributes":{"ID":519930,"DIS_CODE":0,"TOWNNAME":"玉井區","LI":"玉田里","LIN":"35鄰","STREET":"大成路","SECT":" ","MAREA":" ","LANE":" ","ALLEY":" ","HOUSE_NO":"１８６號","E_COORD97":195711.66,"N_COORD97":2558188.2599999998,"ADDRESS":"大成路１８６號","OBJECTID":519903},"geometry":{"x":195711.65999999922,"y":2558188.2600000016}},{"attributes":{"ID":519931,"DIS_CODE":0,"TOWNNAME":"玉井區","LI":"玉田里","LIN":"35鄰","STREET":"民族路","SECT":" ","MAREA":" ","LANE":" ","ALLEY":" ","HOUSE_NO":"２５９號","E_COORD97":195642.39000000001,"N_COORD97":2558092.2799999998,"ADDRESS":"民族路２５９號","OBJECTID":519904},"geometry":{"x":195642.3900000006,"y":2558092.2800000012}},{"attributes":{"ID":519932,"DIS_CODE":0,"TOWNNAME":"歸仁區","LI":"南興里","LIN":"35鄰","STREET":"民生北街","SECT":" ","MAREA":" ","LANE":" ","ALLEY":" ","HOUSE_NO":"２８號","E_COORD97":176282.19,"N_COORD97":2541012.29,"ADDRESS":"民生北街２８號","OBJECTID":519905},"geometry":{"x":176282.19000000134,"y":2541012.290000001}},{"attributes":{"ID":519933,"DIS_CODE":0,"TOWNNAME":"東區","LI":"小東里","LIN":"35鄰","STREET":"東和路","SECT":" ","MAREA":" ","LANE":" ","ALLEY":" ","HOUSE_NO":"４５號七樓","E_COORD97":171010.79999999999,"N_COORD97":2544329.2200000002,"ADDRESS":"東和路４５號七樓","OBJECTID":519906},"geometry":{"x":171010.79999999981,"y":2544329.2200000025}},{"attributes":{"ID":519934,"DIS_CODE":0,"TOWNNAME":"東區","LI":"小東里","LIN":"35鄰","STREET":"東和路","SECT":" ","MAREA":" ","LANE":" ","ALLEY":" ","HOUSE_NO":"４５號二樓","E_COORD97":171010.79999999999,"N_COORD97":2544329.2200000002,"ADDRESS":"東和路４５號二樓","OBJECTID":519907},"geometry":{"x":171010.79999999981,"y":2544329.2200000025}},{"attributes":{"ID":519935,"DIS_CODE":0,"TOWNNAME":"東區","LI":"小東里","LIN":"35鄰","STREET":"東和路","SECT":" ","MAREA":" ","LANE":" ","ALLEY":" ","HOUSE_NO":"４５號五樓","E_COORD97":171010.79999999999,"N_COORD97":2544329.2200000002,"ADDRESS":"東和路４５號五樓","OBJECTID":519908},"geometry":{"x":171010.79999999981,"y":2544329.2200000025}},{"attributes":{"ID":519936,"DIS_CODE":0,"TOWNNAME":"東區","LI":"小東里","LIN":"35鄰","STREET":"東和路","SECT":" ","MAREA":" ","LANE":" ","ALLEY":" ","HOUSE_NO":"４５號六樓","E_COORD97":171010.79999999999,"N_COORD97":2544329.2200000002,"ADDRESS":"東和路４５號六樓","OBJECTID":519909},"geometry":{"x":171010.79999999981,"y":2544329.2200000025}},{"attributes":{"ID":519937,"DIS_CODE":0,"TOWNNAME":"東區","LI":"小東里","LIN":"35鄰","STREET":"東和路","SECT":" ","MAREA":" ","LANE":" ","ALLEY":" ","HOUSE_NO":"４５號四樓","E_COORD97":171010.79999999999,"N_COORD97":2544329.2200000002,"ADDRESS":"東和路４５號四樓","OBJECTID":519910},"geometry":{"x":171010.79999999981,"y":2544329.2200000025}},{"attributes":{"ID":519938,"DIS_CODE":0,"TOWNNAME":"東區","LI":"小東里","LIN":"35鄰","STREET":"東和路","SECT":" ","MAREA":" ","LANE":" ","ALLEY":" ","HOUSE_NO":"４７號七樓","E_COORD97":171005.47,"N_COORD97":2544329.6899999999,"ADDRESS":"東和路４７號七樓","OBJECTID":519911},"geometry":{"x":171005.47000000067,"y":2544329.6899999995}},{"attributes":{"ID":519939,"DIS_CODE":0,"TOWNNAME":"東區","LI":"小東里","LIN":"35鄰","STREET":"東和路","SECT":" ","MAREA":" ","LANE":" ","ALLEY":" ","HOUSE_NO":"４７號二樓","E_COORD97":171005.47,"N_COORD97":2544329.6899999999,"ADDRESS":"東和路４７號二樓","OBJECTID":519912},"geometry":{"x":171005.47000000067,"y":2544329.6899999995}},{"attributes":{"ID":519940,"DIS_CODE":0,"TOWNNAME":"東區","LI":"小東里","LIN":"35鄰","STREET":"東和路","SECT":" ","MAREA":" ","LANE":" ","ALLEY":" ","HOUSE_NO":"４７號三樓","E_COORD97":171005.47,"N_COORD97":2544329.6899999999,"ADDRESS":"東和路４７號三樓","OBJECTID":519913},"geometry":{"x":171005.47000000067,"y":2544329.6899999995}},{"attributes":{"ID":519941,"DIS_CODE":0,"TOWNNAME":"東區","LI":"小東里","LIN":"35鄰","STREET":"東和路","SECT":" ","MAREA":" ","LANE":" ","ALLEY":" ","HOUSE_NO":"４７號五樓","E_COORD97":171005.47,"N_COORD97":2544329.6899999999,"ADDRESS":"東和路４７號五樓","OBJECTID":519914},"geometry":{"x":171005.47000000067,"y":2544329.6899999995}},{"attributes":{"ID":519942,"DIS_CODE":0,"TOWNNAME":"東區","LI":"小東里","LIN":"35鄰","STREET":"東和路","SECT":" ","MAREA":" ","LANE":" ","ALLEY":" ","HOUSE_NO":"４７號四樓","E_COORD97":171005.47,"N_COORD97":2544329.6899999999,"ADDRESS":"東和路４７號四樓","OBJECTID":519915},"geometry":{"x":171005.47000000067,"y":2544329.6899999995}},{"attributes":{"ID":519943,"DIS_CODE":0,"TOWNNAME":"東區","LI":"小東里","LIN":"35鄰","STREET":"東和路","SECT":" ","MAREA":" ","LANE":" ","ALLEY":" ","HOUSE_NO":"４９號二樓","E_COORD97":171001.85999999999,"N_COORD97":2544328.8999999999,"ADDRESS":"東和路４９號二樓","OBJECTID":519916},"geometry":{"x":171001.86000000127,"y":2544328.9000000004}},{"attributes":{"ID":519944,"DIS_CODE":0,"TOWNNAME":"東區","LI":"小東里","LIN":"35鄰","STREET":"東和路","SECT":" ","MAREA":" ","LANE":" ","ALLEY":" ","HOUSE_NO":"４９號八樓","E_COORD97":171001.85999999999,"N_COORD97":2544328.8999999999,"ADDRESS":"東和路４９號八樓","OBJECTID":519917},"geometry":{"x":171001.86000000127,"y":2544328.9000000004}},{"attributes":{"ID":519945,"DIS_CODE":0,"TOWNNAME":"東區","LI":"小東里","LIN":"35鄰","STREET":"東和路","SECT":" ","MAREA":" ","LANE":" ","ALLEY":" ","HOUSE_NO":"４９號三樓","E_COORD97":171001.85999999999,"N_COORD97":2544328.8999999999,"ADDRESS":"東和路４９號三樓","OBJECTID":519918},"geometry":{"x":171001.86000000127,"y":2544328.9000000004}},{"attributes":{"ID":519946,"DIS_CODE":0,"TOWNNAME":"東區","LI":"小東里","LIN":"35鄰","STREET":"東和路","SECT":" ","MAREA":" ","LANE":" ","ALLEY":" ","HOUSE_NO":"４９號六樓","E_COORD97":171001.85999999999,"N_COORD97":2544328.8999999999,"ADDRESS":"東和路４９號六樓","OBJECTID":519919},"geometry":{"x":171001.86000000127,"y":2544328.9000000004}},{"attributes":{"ID":519947,"DIS_CODE":0,"TOWNNAME":"東區","LI":"小東里","LIN":"35鄰","STREET":"東和路","SECT":" ","MAREA":" ","LANE":" ","ALLEY":" ","HOUSE_NO":"４９號四樓","E_COORD97":171001.85999999999,"N_COORD97":2544328.8999999999,"ADDRESS":"東和路４９號四樓","OBJECTID":519920},"geometry":{"x":171001.86000000127,"y":2544328.9000000004}},{"attributes":{"ID":519948,"DIS_CODE":0,"TOWNNAME":"東區","LI":"小東里","LIN":"35鄰","STREET":"東和路","SECT":" ","MAREA":" ","LANE":" ","ALLEY":" ","HOUSE_NO":"５１號七樓","E_COORD97":170998.57000000001,"N_COORD97":2544328.5899999999,"ADDRESS":"東和路５１號七樓","OBJECTID":519921},"geometry":{"x":170998.57000000123,"y":2544328.5900000036}},{"attributes":{"ID":519949,"DIS_CODE":0,"TOWNNAME":"東區","LI":"小東里","LIN":"35鄰","STREET":"東和路","SECT":" ","MAREA":" ","LANE":" ","ALLEY":" ","HOUSE_NO":"５１號二樓","E_COORD97":170998.57000000001,"N_COORD97":2544328.5899999999,"ADDRESS":"東和路５１號二樓","OBJECTID":519922},"geometry":{"x":170998.57000000123,"y":2544328.5900000036}},{"attributes":{"ID":519950,"DIS_CODE":0,"TOWNNAME":"東區","LI":"小東里","LIN":"35鄰","STREET":"東和路","SECT":" ","MAREA":" ","LANE":" ","ALLEY":" ","HOUSE_NO":"５１號八樓","E_COORD97":170998.57000000001,"N_COORD97":2544328.5899999999,"ADDRESS":"東和路５１號八樓","OBJECTID":519923},"geometry":{"x":170998.57000000123,"y":2544328.5900000036}},{"attributes":{"ID":519951,"DIS_CODE":0,"TOWNNAME":"東區","LI":"小東里","LIN":"35鄰","STREET":"東和路","SECT":" ","MAREA":" ","LANE":" ","ALLEY":" ","HOUSE_NO":"５１號五樓","E_COORD97":170998.57000000001,"N_COORD97":2544328.5899999999,"ADDRESS":"東和路５１號五樓","OBJECTID":519924},"geometry":{"x":170998.57000000123,"y":2544328.5900000036}},{"attributes":{"ID":519952,"DIS_CODE":0,"TOWNNAME":"東區","LI":"小東里","LIN":"35鄰","STREET":"東和路","SECT":" ","MAREA":" ","LANE":" ","ALLEY":" ","HOUSE_NO":"５１號六樓","E_COORD97":170998.57000000001,"N_COORD97":2544328.5899999999,"ADDRESS":"東和路５１號六樓","OBJECTID":519925},"geometry":{"x":170998.57000000123,"y":2544328.5900000036}},{"attributes":{"ID":519953,"DIS_CODE":0,"TOWNNAME":"東區","LI":"小東里","LIN":"35鄰","STREET":"東和路","SECT":" ","MAREA":" ","LANE":" ","ALLEY":" ","HOUSE_NO":"５１號四樓","E_COORD97":170998.57000000001,"N_COORD97":2544328.5899999999,"ADDRESS":"東和路５１號四樓","OBJECTID":519926},"geometry":{"x":170998.57000000123,"y":2544328.5900000036}},{"attributes":{"ID":519954,"DIS_CODE":0,"TOWNNAME":"東區","LI":"小東里","LIN":"35鄰","STREET":"東和路","SECT":" ","MAREA":" ","LANE":" ","ALLEY":" ","HOUSE_NO":"５３號三樓","E_COORD97":170994.64999999999,"N_COORD97":2544327.8100000001,"ADDRESS":"東和路５３號三樓","OBJECTID":519927},"geometry":{"x":170994.6500000013,"y":2544327.8100000042}},{"attributes":{"ID":519955,"DIS_CODE":0,"TOWNNAME":"東區","LI":"小東里","LIN":"35鄰","STREET":"東和路","SECT":" ","MAREA":" ","LANE":" ","ALLEY":" ","HOUSE_NO":"５３號四樓","E_COORD97":170994.64999999999,"N_COORD97":2544327.8100000001,"ADDRESS":"東和路５３號四樓","OBJECTID":519928},"geometry":{"x":170994.6500000013,"y":2544327.8100000042}},{"attributes":{"ID":519956,"DIS_CODE":0,"TOWNNAME":"東區","LI":"小東里","LIN":"35鄰","STREET":"東和路","SECT":" ","MAREA":" ","LANE":" ","ALLEY":" ","HOUSE_NO":"５５號七樓","E_COORD97":170989.95000000001,"N_COORD97":2544326.8700000001,"ADDRESS":"東和路５５號七樓","OBJECTID":519929},"geometry":{"x":170989.95000000019,"y":2544326.870000001}},{"attributes":{"ID":519957,"DIS_CODE":0,"TOWNNAME":"東區","LI":"小東里","LIN":"35鄰","STREET":"東和路","SECT":" ","MAREA":" ","LANE":" ","ALLEY":" ","HOUSE_NO":"５５號三樓","E_COORD97":170989.95000000001,"N_COORD97":2544326.8700000001,"ADDRESS":"東和路５５號三樓","OBJECTID":519930},"geometry":{"x":170989.95000000019,"y":2544326.870000001}},{"attributes":{"ID":519958,"DIS_CODE":0,"TOWNNAME":"東區","LI":"小東里","LIN":"35鄰","STREET":"東和路","SECT":" ","MAREA":" ","LANE":" ","ALLEY":" ","HOUSE_NO":"５５號五樓","E_COORD97":170989.95000000001,"N_COORD97":2544326.8700000001,"ADDRESS":"東和路５５號五樓","OBJECTID":519931},"geometry":{"x":170989.95000000019,"y":2544326.870000001}},{"attributes":{"ID":519959,"DIS_CODE":0,"TOWNNAME":"東區","LI":"小東里","LIN":"35鄰","STREET":"東和路","SECT":" ","MAREA":" ","LANE":" ","ALLEY":" ","HOUSE_NO":"４９號五樓","E_COORD97":171001.85999999999,"N_COORD97":2544328.8999999999,"ADDRESS":"東和路４９號五樓","OBJECTID":519932},"geometry":{"x":171001.86000000127,"y":2544328.9000000004}},{"attributes":{"ID":519960,"DIS_CODE":0,"TOWNNAME":"東區","LI":"小東里","LIN":"35鄰","STREET":"東和路","SECT":" ","MAREA":" ","LANE":" ","ALLEY":" ","HOUSE_NO":"５３號二樓","E_COORD97":170994.64999999999,"N_COORD97":2544327.8100000001,"ADDRESS":"東和路５３號二樓","OBJECTID":519933},"geometry":{"x":170994.6500000013,"y":2544327.8100000042}},{"attributes":{"ID":519961,"DIS_CODE":0,"TOWNNAME":"東區","LI":"小東里","LIN":"35鄰","STREET":"東和路","SECT":" ","MAREA":" ","LANE":" ","ALLEY":" ","HOUSE_NO":"５３號五樓","E_COORD97":170994.64999999999,"N_COORD97":2544327.8100000001,"ADDRESS":"東和路５３號五樓","OBJECTID":519934},"geometry":{"x":170994.6500000013,"y":2544327.8100000042}},{"attributes":{"ID":519962,"DIS_CODE":0,"TOWNNAME":"東區","LI":"小東里","LIN":"35鄰","STREET":"東和路","SECT":" ","MAREA":" ","LANE":" ","ALLEY":" ","HOUSE_NO":"５３號六樓","E_COORD97":170994.64999999999,"N_COORD97":2544327.8100000001,"ADDRESS":"東和路５３號六樓","OBJECTID":519935},"geometry":{"x":170994.6500000013,"y":2544327.8100000042}},{"attributes":{"ID":519963,"DIS_CODE":0,"TOWNNAME":"東區","LI":"小東里","LIN":"35鄰","STREET":"東和路","SECT":" ","MAREA":" ","LANE":" ","ALLEY":" ","HOUSE_NO":"５３號七樓","E_COORD97":170994.64999999999,"N_COORD97":2544327.8100000001,"ADDRESS":"東和路５３號七樓","OBJECTID":519936},"geometry":{"x":170994.6500000013,"y":2544327.8100000042}},{"attributes":{"ID":519964,"DIS_CODE":0,"TOWNNAME":"東區","LI":"小東里","LIN":"35鄰","STREET":"東和路","SECT":" ","MAREA":" ","LANE":" ","ALLEY":" ","HOUSE_NO":"５５號二樓","E_COORD97":170989.95000000001,"N_COORD97":2544326.8700000001,"ADDRESS":"東和路５５號二樓","OBJECTID":519937},"geometry":{"x":170989.95000000019,"y":2544326.870000001}},{"attributes":{"ID":519965,"DIS_CODE":0,"TOWNNAME":"東區","LI":"小東里","LIN":"35鄰","STREET":"東和路","SECT":" ","MAREA":" ","LANE":" ","ALLEY":" ","HOUSE_NO":"４７號六樓","E_COORD97":171005.47,"N_COORD97":2544329.6899999999,"ADDRESS":"東和路４７號六樓","OBJECTID":519938},"geometry":{"x":171005.47000000067,"y":2544329.6899999995}},{"attributes":{"ID":519966,"DIS_CODE":0,"TOWNNAME":"東區","LI":"小東里","LIN":"35鄰","STREET":"東和路","SECT":" ","MAREA":" ","LANE":" ","ALLEY":" ","HOUSE_NO":"４９號七樓","E_COORD97":171001.85999999999,"N_COORD97":2544328.8999999999,"ADDRESS":"東和路４９號七樓","OBJECTID":519939},"geometry":{"x":171001.86000000127,"y":2544328.9000000004}},{"attributes":{"ID":519967,"DIS_CODE":0,"TOWNNAME":"東區","LI":"小東里","LIN":"35鄰","STREET":"東和路","SECT":" ","MAREA":" ","LANE":" ","ALLEY":" ","HOUSE_NO":"５１號三樓","E_COORD97":170998.57000000001,"N_COORD97":2544328.5899999999,"ADDRESS":"東和路５１號三樓","OBJECTID":519940},"geometry":{"x":170998.57000000123,"y":2544328.5900000036}},{"attributes":{"ID":519968,"DIS_CODE":0,"TOWNNAME":"東區","LI":"東光里","LIN":"35鄰","STREET":"莊敬路","SECT":" ","MAREA":" ","LANE":" ","ALLEY":" ","HOUSE_NO":"１號七樓之１","E_COORD97":171319.73000000001,"N_COORD97":2543718.73,"ADDRESS":"莊敬路１號七樓之１","OBJECTID":519941},"geometry":{"x":171319.73000000138,"y":2543718.7300000023}},{"attributes":{"ID":519969,"DIS_CODE":0,"TOWNNAME":"東區","LI":"東光里","LIN":"35鄰","STREET":"莊敬路","SECT":" ","MAREA":" ","LANE":" ","ALLEY":" ","HOUSE_NO":"１號七樓之２","E_COORD97":171319.73000000001,"N_COORD97":2543718.73,"ADDRESS":"莊敬路１號七樓之２","OBJECTID":519942},"geometry":{"x":171319.73000000138,"y":2543718.7300000023}},{"attributes":{"ID":519970,"DIS_CODE":0,"TOWNNAME":"東區","LI":"東光里","LIN":"35鄰","STREET":"莊敬路","SECT":" ","MAREA":" ","LANE":" ","ALLEY":" ","HOUSE_NO":"１號七樓之３","E_COORD97":171319.73000000001,"N_COORD97":2543718.73,"ADDRESS":"莊敬路１號七樓之３","OBJECTID":519943},"geometry":{"x":171319.73000000138,"y":2543718.7300000023}},{"attributes":{"ID":519971,"DIS_CODE":0,"TOWNNAME":"東區","LI":"東光里","LIN":"35鄰","STREET":"莊敬路","SECT":" ","MAREA":" ","LANE":" ","ALLEY":" ","HOUSE_NO":"１號九樓","E_COORD97":171319.73000000001,"N_COORD97":2543718.73,"ADDRESS":"莊敬路１號九樓","OBJECTID":519944},"geometry":{"x":171319.73000000138,"y":2543718.7300000023}},{"attributes":{"ID":519972,"DIS_CODE":0,"TOWNNAME":"東區","LI":"東光里","LIN":"35鄰","STREET":"莊敬路","SECT":" ","MAREA":" ","LANE":" ","ALLEY":" ","HOUSE_NO":"１號九樓之１","E_COORD97":171319.73000000001,"N_COORD97":2543718.73,"ADDRESS":"莊敬路１號九樓之１","OBJECTID":519945},"geometry":{"x":171319.73000000138,"y":2543718.7300000023}},{"attributes":{"ID":519973,"DIS_CODE":0,"TOWNNAME":"東區","LI":"東光里","LIN":"35鄰","STREET":"莊敬路","SECT":" ","MAREA":" ","LANE":" ","ALLEY":" ","HOUSE_NO":"１號九樓之２","E_COORD97":171319.73000000001,"N_COORD97":2543718.73,"ADDRESS":"莊敬路１號九樓之２","OBJECTID":519946},"geometry":{"x":171319.73000000138,"y":2543718.7300000023}},{"attributes":{"ID":519974,"DIS_CODE":0,"TOWNNAME":"東區","LI":"東光里","LIN":"35鄰","STREET":"莊敬路","SECT":" ","MAREA":" ","LANE":" ","ALLEY":" ","HOUSE_NO":"１號九樓之３","E_COORD97":171319.73000000001,"N_COORD97":2543718.73,"ADDRESS":"莊敬路１號九樓之３","OBJECTID":519947},"geometry":{"x":171319.73000000138,"y":2543718.7300000023}},{"attributes":{"ID":519975,"DIS_CODE":0,"TOWNNAME":"東區","LI":"東光里","LIN":"35鄰","STREET":"莊敬路","SECT":" ","MAREA":" ","LANE":" ","ALLEY":" ","HOUSE_NO":"１號八樓","E_COORD97":171319.73000000001,"N_COORD97":2543718.73,"ADDRESS":"莊敬路１號八樓","OBJECTID":519948},"geometry":{"x":171319.73000000138,"y":2543718.7300000023}},{"attributes":{"ID":519976,"DIS_CODE":0,"TOWNNAME":"東區","LI":"東光里","LIN":"35鄰","STREET":"莊敬路","SECT":" ","MAREA":" ","LANE":" ","ALLEY":" ","HOUSE_NO":"１號八樓之１","E_COORD97":171319.73000000001,"N_COORD97":2543718.73,"ADDRESS":"莊敬路１號八樓之１","OBJECTID":519949},"geometry":{"x":171319.73000000138,"y":2543718.7300000023}},{"attributes":{"ID":519977,"DIS_CODE":0,"TOWNNAME":"東區","LI":"東光里","LIN":"35鄰","STREET":"莊敬路","SECT":" ","MAREA":" ","LANE":" ","ALLEY":" ","HOUSE_NO":"１號八樓之２","E_COORD97":171319.73000000001,"N_COORD97":2543718.73,"ADDRESS":"莊敬路１號八樓之２","OBJECTID":519950},"geometry":{"x":171319.73000000138,"y":2543718.7300000023}},{"attributes":{"ID":519978,"DIS_CODE":0,"TOWNNAME":"東區","LI":"東光里","LIN":"35鄰","STREET":"莊敬路","SECT":" ","MAREA":" ","LANE":" ","ALLEY":" ","HOUSE_NO":"１號八樓之３","E_COORD97":171319.73000000001,"N_COORD97":2543718.73,"ADDRESS":"莊敬路１號八樓之３","OBJECTID":519951},"geometry":{"x":171319.73000000138,"y":2543718.7300000023}},{"attributes":{"ID":519979,"DIS_CODE":0,"TOWNNAME":"東區","LI":"東光里","LIN":"35鄰","STREET":"莊敬路","SECT":" ","MAREA":" ","LANE":" ","ALLEY":" ","HOUSE_NO":"１號三樓","E_COORD97":171319.73000000001,"N_COORD97":2543718.73,"ADDRESS":"莊敬路１號三樓","OBJECTID":519952},"geometry":{"x":171319.73000000138,"y":2543718.7300000023}},{"attributes":{"ID":519980,"DIS_CODE":0,"TOWNNAME":"東區","LI":"東光里","LIN":"35鄰","STREET":"莊敬路","SECT":" ","MAREA":" ","LANE":" ","ALLEY":" ","HOUSE_NO":"１號三樓之１","E_COORD97":171319.73000000001,"N_COORD97":2543718.73,"ADDRESS":"莊敬路１號三樓之１","OBJECTID":519953},"geometry":{"x":171319.73000000138,"y":2543718.7300000023}},{"attributes":{"ID":519981,"DIS_CODE":0,"TOWNNAME":"東區","LI":"東光里","LIN":"35鄰","STREET":"莊敬路","SECT":" ","MAREA":" ","LANE":" ","ALLEY":" ","HOUSE_NO":"１號三樓之２","E_COORD97":171319.73000000001,"N_COORD97":2543718.73,"ADDRESS":"莊敬路１號三樓之２","OBJECTID":519954},"geometry":{"x":171319.73000000138,"y":2543718.7300000023}},{"attributes":{"ID":519982,"DIS_CODE":0,"TOWNNAME":"東區","LI":"東光里","LIN":"35鄰","STREET":"莊敬路","SECT":" ","MAREA":" ","LANE":" ","ALLEY":" ","HOUSE_NO":"１號三樓之３","E_COORD97":171319.73000000001,"N_COORD97":2543718.73,"ADDRESS":"莊敬路１號三樓之３","OBJECTID":519955},"geometry":{"x":171319.73000000138,"y":2543718.7300000023}},{"attributes":{"ID":519983,"DIS_CODE":0,"TOWNNAME":"東區","LI":"東光里","LIN":"35鄰","STREET":"莊敬路","SECT":" ","MAREA":" ","LANE":" ","ALLEY":" ","HOUSE_NO":"１號五樓","E_COORD97":171319.73000000001,"N_COORD97":2543718.73,"ADDRESS":"莊敬路１號五樓","OBJECTID":519956},"geometry":{"x":171319.73000000138,"y":2543718.7300000023}},{"attributes":{"ID":519984,"DIS_CODE":0,"TOWNNAME":"東區","LI":"東光里","LIN":"35鄰","STREET":"莊敬路","SECT":" ","MAREA":" ","LANE":" ","ALLEY":" ","HOUSE_NO":"１號五樓之１","E_COORD97":171319.73000000001,"N_COORD97":2543718.73,"ADDRESS":"莊敬路１號五樓之１","OBJECTID":519957},"geometry":{"x":171319.73000000138,"y":2543718.7300000023}},{"attributes":{"ID":519985,"DIS_CODE":0,"TOWNNAME":"東區","LI":"東光里","LIN":"35鄰","STREET":"莊敬路","SECT":" ","MAREA":" ","LANE":" ","ALLEY":" ","HOUSE_NO":"１號五樓之２","E_COORD97":171319.73000000001,"N_COORD97":2543718.73,"ADDRESS":"莊敬路１號五樓之２","OBJECTID":519958},"geometry":{"x":171319.73000000138,"y":2543718.7300000023}},{"attributes":{"ID":519986,"DIS_CODE":0,"TOWNNAME":"東區","LI":"東光里","LIN":"35鄰","STREET":"莊敬路","SECT":" ","MAREA":" ","LANE":" ","ALLEY":" ","HOUSE_NO":"１號五樓之３","E_COORD97":171319.73000000001,"N_COORD97":2543718.73,"ADDRESS":"莊敬路１號五樓之３","OBJECTID":519959},"geometry":{"x":171319.73000000138,"y":2543718.7300000023}},{"attributes":{"ID":519987,"DIS_CODE":0,"TOWNNAME":"東區","LI":"東光里","LIN":"35鄰","STREET":"莊敬路","SECT":" ","MAREA":" ","LANE":" ","ALLEY":" ","HOUSE_NO":"１號六樓","E_COORD97":171319.73000000001,"N_COORD97":2543718.73,"ADDRESS":"莊敬路１號六樓","OBJECTID":519960},"geometry":{"x":171319.73000000138,"y":2543718.7300000023}},{"attributes":{"ID":519988,"DIS_CODE":0,"TOWNNAME":"東區","LI":"東光里","LIN":"35鄰","STREET":"莊敬路","SECT":" ","MAREA":" ","LANE":" ","ALLEY":" ","HOUSE_NO":"１號六樓之１","E_COORD97":171319.73000000001,"N_COORD97":2543718.73,"ADDRESS":"莊敬路１號六樓之１","OBJECTID":519961},"geometry":{"x":171319.73000000138,"y":2543718.7300000023}},{"attributes":{"ID":519989,"DIS_CODE":0,"TOWNNAME":"東區","LI":"東光里","LIN":"35鄰","STREET":"莊敬路","SECT":" ","MAREA":" ","LANE":" ","ALLEY":" ","HOUSE_NO":"１號六樓之２","E_COORD97":171319.73000000001,"N_COORD97":2543718.73,"ADDRESS":"莊敬路１號六樓之２","OBJECTID":519962},"geometry":{"x":171319.73000000138,"y":2543718.7300000023}},{"attributes":{"ID":519990,"DIS_CODE":0,"TOWNNAME":"東區","LI":"東光里","LIN":"35鄰","STREET":"莊敬路","SECT":" ","MAREA":" ","LANE":" ","ALLEY":" ","HOUSE_NO":"１號四樓","E_COORD97":171319.73000000001,"N_COORD97":2543718.73,"ADDRESS":"莊敬路１號四樓","OBJECTID":519963},"geometry":{"x":171319.73000000138,"y":2543718.7300000023}},{"attributes":{"ID":519991,"DIS_CODE":0,"TOWNNAME":"東區","LI":"東光里","LIN":"35鄰","STREET":"莊敬路","SECT":" ","MAREA":" ","LANE":" ","ALLEY":" ","HOUSE_NO":"１號四樓之１","E_COORD97":171319.73000000001,"N_COORD97":2543718.73,"ADDRESS":"莊敬路１號四樓之１","OBJECTID":519964},"geometry":{"x":171319.73000000138,"y":2543718.7300000023}},{"attributes":{"ID":519992,"DIS_CODE":0,"TOWNNAME":"東區","LI":"東光里","LIN":"35鄰","STREET":"莊敬路","SECT":" ","MAREA":" ","LANE":" ","ALLEY":" ","HOUSE_NO":"１號四樓之２","E_COORD97":171319.73000000001,"N_COORD97":2543718.73,"ADDRESS":"莊敬路１號四樓之２","OBJECTID":519965},"geometry":{"x":171319.73000000138,"y":2543718.7300000023}},{"attributes":{"ID":519993,"DIS_CODE":0,"TOWNNAME":"東區","LI":"東光里","LIN":"35鄰","STREET":"莊敬路","SECT":" ","MAREA":" ","LANE":" ","ALLEY":" ","HOUSE_NO":"１號四樓之３","E_COORD97":171319.73000000001,"N_COORD97":2543718.73,"ADDRESS":"莊敬路１號四樓之３","OBJECTID":519966},"geometry":{"x":171319.73000000138,"y":2543718.7300000023}},{"attributes":{"ID":519994,"DIS_CODE":0,"TOWNNAME":"東區","LI":"東光里","LIN":"35鄰","STREET":"莊敬路","SECT":" ","MAREA":" ","LANE":" ","ALLEY":" ","HOUSE_NO":"９號七樓","E_COORD97":171321.09,"N_COORD97":2543736.1899999999,"ADDRESS":"莊敬路９號七樓","OBJECTID":519967},"geometry":{"x":171321.08999999985,"y":2543736.1899999995}},{"attributes":{"ID":519995,"DIS_CODE":0,"TOWNNAME":"東區","LI":"東光里","LIN":"35鄰","STREET":"莊敬路","SECT":" ","MAREA":" ","LANE":" ","ALLEY":" ","HOUSE_NO":"９號七樓之１","E_COORD97":171321.09,"N_COORD97":2543736.1899999999,"ADDRESS":"莊敬路９號七樓之１","OBJECTID":519968},"geometry":{"x":171321.08999999985,"y":2543736.1899999995}},{"attributes":{"ID":519996,"DIS_CODE":0,"TOWNNAME":"東區","LI":"東光里","LIN":"35鄰","STREET":"莊敬路","SECT":" ","MAREA":" ","LANE":" ","ALLEY":" ","HOUSE_NO":"９號七樓之２","E_COORD97":171321.09,"N_COORD97":2543736.1899999999,"ADDRESS":"莊敬路９號七樓之２","OBJECTID":519969},"geometry":{"x":171321.08999999985,"y":2543736.1899999995}},{"attributes":{"ID":519997,"DIS_CODE":0,"TOWNNAME":"東區","LI":"東光里","LIN":"35鄰","STREET":"莊敬路","SECT":" ","MAREA":" ","LANE":" ","ALLEY":" ","HOUSE_NO":"９號九樓之１","E_COORD97":171321.09,"N_COORD97":2543736.1899999999,"ADDRESS":"莊敬路９號九樓之１","OBJECTID":519970},"geometry":{"x":171321.08999999985,"y":2543736.1899999995}},{"attributes":{"ID":519998,"DIS_CODE":0,"TOWNNAME":"東區","LI":"東光里","LIN":"35鄰","STREET":"莊敬路","SECT":" ","MAREA":" ","LANE":" ","ALLEY":" ","HOUSE_NO":"９號八樓","E_COORD97":171321.09,"N_COORD97":2543736.1899999999,"ADDRESS":"莊敬路９號八樓","OBJECTID":519971},"geometry":{"x":171321.08999999985,"y":2543736.1899999995}},{"attributes":{"ID":519999,"DIS_CODE":0,"TOWNNAME":"東區","LI":"東光里","LIN":"35鄰","STREET":"莊敬路","SECT":" ","MAREA":" ","LANE":" ","ALLEY":" ","HOUSE_NO":"９號八樓之１","E_COORD97":171321.09,"N_COORD97":2543736.1899999999,"ADDRESS":"莊敬路９號八樓之１","OBJECTID":519972},"geometry":{"x":171321.08999999985,"y":2543736.1899999995}},{"attributes":{"ID":520000,"DIS_CODE":0,"TOWNNAME":"東區","LI":"東光里","LIN":"35鄰","STREET":"莊敬路","SECT":" ","MAREA":" ","LANE":" ","ALLEY":" ","HOUSE_NO":"９號八樓之２","E_COORD97":171321.09,"N_COORD97":2543736.1899999999,"ADDRESS":"莊敬路９號八樓之２","OBJECTID":519973},"geometry":{"x":171321.08999999985,"y":2543736.1899999995}},{"attributes":{"ID":520001,"DIS_CODE":0,"TOWNNAME":"東區","LI":"東光里","LIN":"35鄰","STREET":"莊敬路","SECT":" ","MAREA":" ","LANE":" ","ALLEY":" ","HOUSE_NO":"９號三樓","E_COORD97":171321.09,"N_COORD97":2543736.1899999999,"ADDRESS":"莊敬路９號三樓","OBJECTID":519974},"geometry":{"x":171321.08999999985,"y":2543736.1899999995}},{"attributes":{"ID":520002,"DIS_CODE":0,"TOWNNAME":"東區","LI":"東光里","LIN":"35鄰","STREET":"莊敬路","SECT":" ","MAREA":" ","LANE":" ","ALLEY":" ","HOUSE_NO":"９號三樓之１","E_COORD97":171321.09,"N_COORD97":2543736.1899999999,"ADDRESS":"莊敬路９號三樓之１","OBJECTID":519975},"geometry":{"x":171321.08999999985,"y":2543736.1899999995}},{"attributes":{"ID":520003,"DIS_CODE":0,"TOWNNAME":"東區","LI":"東光里","LIN":"35鄰","STREET":"莊敬路","SECT":" ","MAREA":" ","LANE":" ","ALLEY":" ","HOUSE_NO":"９號三樓之２","E_COORD97":171321.09,"N_COORD97":2543736.1899999999,"ADDRESS":"莊敬路９號三樓之２","OBJECTID":519976},"geometry":{"x":171321.08999999985,"y":2543736.1899999995}},{"attributes":{"ID":520004,"DIS_CODE":0,"TOWNNAME":"東區","LI":"東光里","LIN":"35鄰","STREET":"莊敬路","SECT":" ","MAREA":" ","LANE":" ","ALLEY":" ","HOUSE_NO":"９號三樓之３","E_COORD97":171321.09,"N_COORD97":2543736.1899999999,"ADDRESS":"莊敬路９號三樓之３","OBJECTID":519977},"geometry":{"x":171321.08999999985,"y":2543736.1899999995}},{"attributes":{"ID":520005,"DIS_CODE":0,"TOWNNAME":"東區","LI":"東光里","LIN":"35鄰","STREET":"莊敬路","SECT":" ","MAREA":" ","LANE":" ","ALLEY":" ","HOUSE_NO":"９號五樓","E_COORD97":171321.09,"N_COORD97":2543736.1899999999,"ADDRESS":"莊敬路９號五樓","OBJECTID":519978},"geometry":{"x":171321.08999999985,"y":2543736.1899999995}},{"attributes":{"ID":520006,"DIS_CODE":0,"TOWNNAME":"東區","LI":"東光里","LIN":"35鄰","STREET":"莊敬路","SECT":" ","MAREA":" ","LANE":" ","ALLEY":" ","HOUSE_NO":"９號五樓之１","E_COORD97":171321.09,"N_COORD97":2543736.1899999999,"ADDRESS":"莊敬路９號五樓之１","OBJECTID":519979},"geometry":{"x":171321.08999999985,"y":2543736.1899999995}},{"attributes":{"ID":520007,"DIS_CODE":0,"TOWNNAME":"東區","LI":"東光里","LIN":"35鄰","STREET":"莊敬路","SECT":" ","MAREA":" ","LANE":" ","ALLEY":" ","HOUSE_NO":"９號五樓之２","E_COORD97":171321.09,"N_COORD97":2543736.1899999999,"ADDRESS":"莊敬路９號五樓之２","OBJECTID":519980},"geometry":{"x":171321.08999999985,"y":2543736.1899999995}},{"attributes":{"ID":520008,"DIS_CODE":0,"TOWNNAME":"東區","LI":"東光里","LIN":"35鄰","STREET":"莊敬路","SECT":" ","MAREA":" ","LANE":" ","ALLEY":" ","HOUSE_NO":"９號六樓","E_COORD97":171321.09,"N_COORD97":2543736.1899999999,"ADDRESS":"莊敬路９號六樓","OBJECTID":519981},"geometry":{"x":171321.08999999985,"y":2543736.1899999995}},{"attributes":{"ID":520009,"DIS_CODE":0,"TOWNNAME":"東區","LI":"東光里","LIN":"35鄰","STREET":"莊敬路","SECT":" ","MAREA":" ","LANE":" ","ALLEY":" ","HOUSE_NO":"９號六樓之１","E_COORD97":171321.09,"N_COORD97":2543736.1899999999,"ADDRESS":"莊敬路９號六樓之１","OBJECTID":519982},"geometry":{"x":171321.08999999985,"y":2543736.1899999995}},{"attributes":{"ID":520010,"DIS_CODE":0,"TOWNNAME":"東區","LI":"東光里","LIN":"35鄰","STREET":"莊敬路","SECT":" ","MAREA":" ","LANE":" ","ALLEY":" ","HOUSE_NO":"９號六樓之２","E_COORD97":171321.09,"N_COORD97":2543736.1899999999,"ADDRESS":"莊敬路９號六樓之２","OBJECTID":519983},"geometry":{"x":171321.08999999985,"y":2543736.1899999995}},{"attributes":{"ID":520011,"DIS_CODE":0,"TOWNNAME":"東區","LI":"東光里","LIN":"35鄰","STREET":"莊敬路","SECT":" ","MAREA":" ","LANE":" ","ALLEY":" ","HOUSE_NO":"９號四樓","E_COORD97":171321.09,"N_COORD97":2543736.1899999999,"ADDRESS":"莊敬路９號四樓","OBJECTID":519984},"geometry":{"x":171321.08999999985,"y":2543736.1899999995}},{"attributes":{"ID":520012,"DIS_CODE":0,"TOWNNAME":"東區","LI":"東光里","LIN":"35鄰","STREET":"莊敬路","SECT":" ","MAREA":" ","LANE":" ","ALLEY":" ","HOUSE_NO":"９號四樓之１","E_COORD97":171321.09,"N_COORD97":2543736.1899999999,"ADDRESS":"莊敬路９號四樓之１","OBJECTID":519985},"geometry":{"x":171321.08999999985,"y":2543736.1899999995}},{"attributes":{"ID":520013,"DIS_CODE":0,"TOWNNAME":"東區","LI":"東光里","LIN":"35鄰","STREET":"凱旋路","SECT":" ","MAREA":" ","LANE":" ","ALLEY":" ","HOUSE_NO":"４２號七樓","E_COORD97":171281.87,"N_COORD97":2543718.0299999998,"ADDRESS":"凱旋路４２號七樓","OBJECTID":519986},"geometry":{"x":171281.87000000011,"y":2543718.0299999975}},{"attributes":{"ID":520014,"DIS_CODE":0,"TOWNNAME":"東區","LI":"東光里","LIN":"35鄰","STREET":"凱旋路","SECT":" ","MAREA":" ","LANE":" ","ALLEY":" ","HOUSE_NO":"４２號七樓之１","E_COORD97":171281.87,"N_COORD97":2543718.0299999998,"ADDRESS":"凱旋路４２號七樓之１","OBJECTID":519987},"geometry":{"x":171281.87000000011,"y":2543718.0299999975}},{"attributes":{"ID":520015,"DIS_CODE":0,"TOWNNAME":"東區","LI":"東光里","LIN":"35鄰","STREET":"凱旋路","SECT":" ","MAREA":" ","LANE":" ","ALLEY":" ","HOUSE_NO":"４２號七樓之２","E_COORD97":171281.87,"N_COORD97":2543718.0299999998,"ADDRESS":"凱旋路４２號七樓之２","OBJECTID":519988},"geometry":{"x":171281.87000000011,"y":2543718.0299999975}},{"attributes":{"ID":520016,"DIS_CODE":0,"TOWNNAME":"東區","LI":"東光里","LIN":"35鄰","STREET":"凱旋路","SECT":" ","MAREA":" ","LANE":" ","ALLEY":" ","HOUSE_NO":"４２號七樓之３","E_COORD97":171281.87,"N_COORD97":2543718.0299999998,"ADDRESS":"凱旋路４２號七樓之３","OBJECTID":519989},"geometry":{"x":171281.87000000011,"y":2543718.0299999975}},{"attributes":{"ID":520017,"DIS_CODE":0,"TOWNNAME":"東區","LI":"東光里","LIN":"35鄰","STREET":"凱旋路","SECT":" ","MAREA":" ","LANE":" ","ALLEY":" ","HOUSE_NO":"４２號九樓","E_COORD97":171281.87,"N_COORD97":2543718.0299999998,"ADDRESS":"凱旋路４２號九樓","OBJECTID":519990},"geometry":{"x":171281.87000000011,"y":2543718.0299999975}},{"attributes":{"ID":520018,"DIS_CODE":0,"TOWNNAME":"東區","LI":"東光里","LIN":"35鄰","STREET":"凱旋路","SECT":" ","MAREA":" ","LANE":" ","ALLEY":" ","HOUSE_NO":"４２號九樓之１","E_COORD97":171281.87,"N_COORD97":2543718.0299999998,"ADDRESS":"凱旋路４２號九樓之１","OBJECTID":519991},"geometry":{"x":171281.87000000011,"y":2543718.0299999975}},{"attributes":{"ID":520019,"DIS_CODE":0,"TOWNNAME":"東區","LI":"東光里","LIN":"35鄰","STREET":"凱旋路","SECT":" ","MAREA":" ","LANE":" ","ALLEY":" ","HOUSE_NO":"４２號九樓之２","E_COORD97":171281.87,"N_COORD97":2543718.0299999998,"ADDRESS":"凱旋路４２號九樓之２","OBJECTID":519992},"geometry":{"x":171281.87000000011,"y":2543718.0299999975}},{"attributes":{"ID":520020,"DIS_CODE":0,"TOWNNAME":"東區","LI":"東光里","LIN":"35鄰","STREET":"凱旋路","SECT":" ","MAREA":" ","LANE":" ","ALLEY":" ","HOUSE_NO":"４２號九樓之３","E_COORD97":171281.87,"N_COORD97":2543718.0299999998,"ADDRESS":"凱旋路４２號九樓之３","OBJECTID":519993},"geometry":{"x":171281.87000000011,"y":2543718.0299999975}},{"attributes":{"ID":520021,"DIS_CODE":0,"TOWNNAME":"東區","LI":"東光里","LIN":"35鄰","STREET":"凱旋路","SECT":" ","MAREA":" ","LANE":" ","ALLEY":" ","HOUSE_NO":"４２號二樓","E_COORD97":171281.87,"N_COORD97":2543718.0299999998,"ADDRESS":"凱旋路４２號二樓","OBJECTID":519994},"geometry":{"x":171281.87000000011,"y":2543718.0299999975}},{"attributes":{"ID":520022,"DIS_CODE":0,"TOWNNAME":"東區","LI":"東光里","LIN":"35鄰","STREET":"凱旋路","SECT":" ","MAREA":" ","LANE":" ","ALLEY":" ","HOUSE_NO":"４２號二樓之１","E_COORD97":171281.87,"N_COORD97":2543718.0299999998,"ADDRESS":"凱旋路４２號二樓之１","OBJECTID":519995},"geometry":{"x":171281.87000000011,"y":2543718.0299999975}},{"attributes":{"ID":520023,"DIS_CODE":0,"TOWNNAME":"東區","LI":"東光里","LIN":"35鄰","STREET":"凱旋路","SECT":" ","MAREA":" ","LANE":" ","ALLEY":" ","HOUSE_NO":"４２號二樓之２","E_COORD97":171281.87,"N_COORD97":2543718.0299999998,"ADDRESS":"凱旋路４２號二樓之２","OBJECTID":519996},"geometry":{"x":171281.87000000011,"y":2543718.0299999975}},{"attributes":{"ID":520024,"DIS_CODE":0,"TOWNNAME":"東區","LI":"東光里","LIN":"35鄰","STREET":"凱旋路","SECT":" ","MAREA":" ","LANE":" ","ALLEY":" ","HOUSE_NO":"４２號二樓之３","E_COORD97":171281.87,"N_COORD97":2543718.0299999998,"ADDRESS":"凱旋路４２號二樓之３","OBJECTID":519997},"geometry":{"x":171281.87000000011,"y":2543718.0299999975}},{"attributes":{"ID":520025,"DIS_CODE":0,"TOWNNAME":"東區","LI":"東光里","LIN":"35鄰","STREET":"凱旋路","SECT":" ","MAREA":" ","LANE":" ","ALLEY":" ","HOUSE_NO":"４２號八樓","E_COORD97":171281.87,"N_COORD97":2543718.0299999998,"ADDRESS":"凱旋路４２號八樓","OBJECTID":519998},"geometry":{"x":171281.87000000011,"y":2543718.0299999975}},{"attributes":{"ID":520026,"DIS_CODE":0,"TOWNNAME":"東區","LI":"東光里","LIN":"35鄰","STREET":"凱旋路","SECT":" ","MAREA":" ","LANE":" ","ALLEY":" ","HOUSE_NO":"４２號八樓之１","E_COORD97":171281.87,"N_COORD97":2543718.0299999998,"ADDRESS":"凱旋路４２號八樓之１","OBJECTID":519999},"geometry":{"x":171281.87000000011,"y":2543718.0299999975}},{"attributes":{"ID":520027,"DIS_CODE":0,"TOWNNAME":"東區","LI":"東光里","LIN":"35鄰","STREET":"凱旋路","SECT":" ","MAREA":" ","LANE":" ","ALLEY":" ","HOUSE_NO":"４２號八樓之２","E_COORD97":171281.87,"N_COORD97":2543718.0299999998,"ADDRESS":"凱旋路４２號八樓之２","OBJECTID":520000},"geometry":{"x":171281.87000000011,"y":2543718.0299999975}}]}