{"displayFieldName":"TOWNNAME","fieldAliases":{"ID":"ID","DIS_CODE":"DIS_CODE","TOWNNAME":"TOWNNAME","LI":"LI","LIN":"LIN","STREET":"STREET","SECT":"SECT","MAREA":"MAREA","LANE":"LANE","ALLEY":"ALLEY","HOUSE_NO":"HOUSE_NO","E_COORD97":"E_COORD97","N_COORD97":"N_COORD97","ADDRESS":"ADDRESS","OBJECTID":"OBJECTID"},"geometryType":"esriGeometryPoint","spatialReference":{"wkid":102443,"latestWkid":3826},"fields":[{"name":"ID","type":"esriFieldTypeDouble","alias":"ID"},{"name":"DIS_CODE","type":"esriFieldTypeInteger","alias":"DIS_CODE"},{"name":"TOWNNAME","type":"esriFieldTypeString","alias":"TOWNNAME","length":8},{"name":"LI","type":"esriFieldTypeString","alias":"LI","length":8},{"name":"LIN","type":"esriFieldTypeString","alias":"LIN","length":12},{"name":"STREET","type":"esriFieldTypeString","alias":"STREET","length":20},{"name":"SECT","type":"esriFieldTypeString","alias":"SECT","length":8},{"name":"MAREA","type":"esriFieldTypeString","alias":"MAREA","length":12},{"name":"LANE","type":"esriFieldTypeString","alias":"LANE","length":10},{"name":"ALLEY","type":"esriFieldTypeString","alias":"ALLEY","length":10},{"name":"HOUSE_NO","type":"esriFieldTypeString","alias":"HOUSE_NO","length":20},{"name":"E_COORD97","type":"esriFieldTypeDouble","alias":"E_COORD97"},{"name":"N_COORD97","type":"esriFieldTypeDouble","alias":"N_COORD97"},{"name":"ADDRESS","type":"esriFieldTypeString","alias":"ADDRESS","length":50},{"name":"OBJECTID","type":"esriFieldTypeOID","alias":"OBJECTID"}],"features":[{"attributes":{"ID":437226,"DIS_CODE":0,"TOWNNAME":"永康區","LI":"西橋里","LIN":"24鄰","STREET":"大橋三街","SECT":" ","MAREA":" ","LANE":"５７巷","ALLEY":" ","HOUSE_NO":"８號","E_COORD97":170579.01999999999,"N_COORD97":2546545.1299999999,"ADDRESS":"大橋三街５７巷８號","OBJECTID":437201},"geometry":{"x":170579.01999999955,"y":2546545.1300000008}},{"attributes":{"ID":437227,"DIS_CODE":0,"TOWNNAME":"永康區","LI":"二王里","LIN":"39鄰","STREET":"中山南路","SECT":" ","MAREA":" ","LANE":"３１６巷","ALLEY":" ","HOUSE_NO":"２９號","E_COORD97":171912.37747899999,"N_COORD97":2546276.0914400001,"ADDRESS":"中山南路３１６巷２９號","OBJECTID":437202},"geometry":{"x":171912.37747900095,"y":2546276.0914360024}},{"attributes":{"ID":437228,"DIS_CODE":0,"TOWNNAME":"歸仁區","LI":"大廟里","LIN":"24鄰","STREET":"大廟一街","SECT":" ","MAREA":" ","LANE":"１５６巷","ALLEY":" ","HOUSE_NO":"３５號","E_COORD97":175542.62,"N_COORD97":2543774.1499999999,"ADDRESS":"大廟一街１５６巷３５號","OBJECTID":437203},"geometry":{"x":175542.62000000197,"y":2543774.1500000022}},{"attributes":{"ID":437229,"DIS_CODE":0,"TOWNNAME":"歸仁區","LI":"大廟里","LIN":"24鄰","STREET":"大廟一街","SECT":" ","MAREA":" ","LANE":"１５６巷","ALLEY":" ","HOUSE_NO":"３３之１號","E_COORD97":175555.12,"N_COORD97":2543757.1099999999,"ADDRESS":"大廟一街１５６巷３３之１號","OBJECTID":437204},"geometry":{"x":175555.12000000104,"y":2543757.1099999994}},{"attributes":{"ID":437230,"DIS_CODE":0,"TOWNNAME":"仁德區","LI":"田厝里","LIN":" ","STREET":"田厝二街","SECT":" ","MAREA":" ","LANE":"６４巷","ALLEY":" ","HOUSE_NO":"３３號","E_COORD97":172431.13,"N_COORD97":2537777.2400000002,"ADDRESS":"田厝二街６４巷３３號","OBJECTID":437205},"geometry":{"x":172431.12999999989,"y":2537777.2400000002}},{"attributes":{"ID":437231,"DIS_CODE":0,"TOWNNAME":"麻豆區","LI":"大埕里","LIN":"8鄰","STREET":" ","SECT":" ","MAREA":"大埕","LANE":" ","ALLEY":" ","HOUSE_NO":"１５號之１７","E_COORD97":173151.91816999999,"N_COORD97":2565318.81635,"ADDRESS":"大埕１５號之１７","OBJECTID":437206},"geometry":{"x":173151.91817000136,"y":2565318.81635}},{"attributes":{"ID":437232,"DIS_CODE":0,"TOWNNAME":"仁德區","LI":"田厝里","LIN":" ","STREET":"保安路","SECT":"二段","MAREA":" ","LANE":"６３０巷","ALLEY":" ","HOUSE_NO":"４２號","E_COORD97":172778.79999999999,"N_COORD97":2537479.9300000002,"ADDRESS":"保安路二段６３０巷４２號","OBJECTID":437207},"geometry":{"x":172778.79999999981,"y":2537479.9299999997}},{"attributes":{"ID":437233,"DIS_CODE":0,"TOWNNAME":"仁德區","LI":"土庫里","LIN":" ","STREET":"中正路","SECT":"三段","MAREA":" ","LANE":"５２３巷","ALLEY":" ","HOUSE_NO":"４號","E_COORD97":173928.62,"N_COORD97":2543076.52,"ADDRESS":"中正路三段５２３巷４號","OBJECTID":437208},"geometry":{"x":173928.62000000011,"y":2543076.5199999996}},{"attributes":{"ID":437234,"DIS_CODE":0,"TOWNNAME":"仁德區","LI":"田厝里","LIN":" ","STREET":"田厝二街","SECT":" ","MAREA":" ","LANE":"９０巷","ALLEY":" ","HOUSE_NO":"１３號","E_COORD97":172349.07999999999,"N_COORD97":2537772.9900000002,"ADDRESS":"田厝二街９０巷１３號","OBJECTID":437209},"geometry":{"x":172349.08000000194,"y":2537772.9900000021}},{"attributes":{"ID":437235,"DIS_CODE":0,"TOWNNAME":"仁德區","LI":"太子里","LIN":" ","STREET":"太子路","SECT":" ","MAREA":" ","LANE":"３１巷","ALLEY":" ","HOUSE_NO":"２２號","E_COORD97":175302.26000000001,"N_COORD97":2543385,"ADDRESS":"太子路３１巷２２號","OBJECTID":437210},"geometry":{"x":175302.26000000164,"y":2543385.0000000019}},{"attributes":{"ID":437236,"DIS_CODE":0,"TOWNNAME":"仁德區","LI":"太子里","LIN":" ","STREET":"長興一街","SECT":" ","MAREA":" ","LANE":"８６巷","ALLEY":" ","HOUSE_NO":"８之２號","E_COORD97":174462.98999999999,"N_COORD97":2543937.5499999998,"ADDRESS":"長興一街８６巷８之２號","OBJECTID":437211},"geometry":{"x":174462.99000000022,"y":2543937.5500000026}},{"attributes":{"ID":437237,"DIS_CODE":0,"TOWNNAME":"仁德區","LI":"太子里","LIN":" ","STREET":"永大路","SECT":"一段","MAREA":" ","LANE":"５巷","ALLEY":" ","HOUSE_NO":"６６號","E_COORD97":173688.16,"N_COORD97":2543747.7799999998,"ADDRESS":"永大路一段５巷６６號","OBJECTID":437212},"geometry":{"x":173688.16000000108,"y":2543747.7800000012}},{"attributes":{"ID":437238,"DIS_CODE":0,"TOWNNAME":"仁德區","LI":"田厝里","LIN":" ","STREET":"田厝三街","SECT":" ","MAREA":" ","LANE":"１２９巷","ALLEY":" ","HOUSE_NO":"１２號","E_COORD97":172580.07000000001,"N_COORD97":2537522.5,"ADDRESS":"田厝三街１２９巷１２號","OBJECTID":437213},"geometry":{"x":172580.07000000216,"y":2537522.5000000019}},{"attributes":{"ID":437239,"DIS_CODE":0,"TOWNNAME":"仁德區","LI":"田厝里","LIN":"6鄰","STREET":"田厝三街","SECT":" ","MAREA":" ","LANE":"７２巷","ALLEY":" ","HOUSE_NO":"１號","E_COORD97":172549.53822700001,"N_COORD97":2537406.4843899999,"ADDRESS":"田厝三街７２巷１號","OBJECTID":437214},"geometry":{"x":172549.53822700027,"y":2537406.4843879994}},{"attributes":{"ID":437240,"DIS_CODE":0,"TOWNNAME":"仁德區","LI":"田厝里","LIN":" ","STREET":"田厝三街","SECT":" ","MAREA":" ","LANE":"７０巷","ALLEY":" ","HOUSE_NO":"７號","E_COORD97":172540.51999999999,"N_COORD97":2537382.9900000002,"ADDRESS":"田厝三街７０巷７號","OBJECTID":437215},"geometry":{"x":172540.52000000142,"y":2537382.9900000039}},{"attributes":{"ID":437241,"DIS_CODE":0,"TOWNNAME":"仁德區","LI":"土庫里","LIN":" ","STREET":"太子二街","SECT":" ","MAREA":" ","LANE":"１２１巷","ALLEY":" ","HOUSE_NO":"２號","E_COORD97":174489.44,"N_COORD97":2543317.5099999998,"ADDRESS":"太子二街１２１巷２號","OBJECTID":437216},"geometry":{"x":174489.44000000041,"y":2543317.5099999998}},{"attributes":{"ID":437242,"DIS_CODE":0,"TOWNNAME":"仁德區","LI":"二行里","LIN":" ","STREET":"中正西路","SECT":" ","MAREA":" ","LANE":"１２巷","ALLEY":" ","HOUSE_NO":"２６號","E_COORD97":170468.19,"N_COORD97":2535538.25,"ADDRESS":"中正西路１２巷２６號","OBJECTID":437217},"geometry":{"x":170468.19000000041,"y":2535538.25}},{"attributes":{"ID":437243,"DIS_CODE":0,"TOWNNAME":"仁德區","LI":"仁德里","LIN":" ","STREET":"中山路","SECT":" ","MAREA":" ","LANE":"８７０巷","ALLEY":" ","HOUSE_NO":"２１１之１號","E_COORD97":172083.29000000001,"N_COORD97":2542220.04,"ADDRESS":"中山路８７０巷２１１之１號","OBJECTID":437218},"geometry":{"x":172083.2900000019,"y":2542220.040000001}},{"attributes":{"ID":437244,"DIS_CODE":0,"TOWNNAME":"仁德區","LI":"太子里","LIN":" ","STREET":"長興一街","SECT":" ","MAREA":" ","LANE":"４０巷","ALLEY":" ","HOUSE_NO":"１５號","E_COORD97":174533.88,"N_COORD97":2543887,"ADDRESS":"長興一街４０巷１５號","OBJECTID":437219},"geometry":{"x":174533.88000000082,"y":2543887}},{"attributes":{"ID":437245,"DIS_CODE":0,"TOWNNAME":"仁德區","LI":"後壁里","LIN":"34鄰","STREET":"德洋二街","SECT":" ","MAREA":" ","LANE":"５巷","ALLEY":" ","HOUSE_NO":"８號之３","E_COORD97":172486.60999999999,"N_COORD97":2539336.79,"ADDRESS":"德洋二街５巷８號之３","OBJECTID":437220},"geometry":{"x":172486.6100000022,"y":2539336.790000001}},{"attributes":{"ID":437246,"DIS_CODE":0,"TOWNNAME":"仁德區","LI":"田厝里","LIN":" ","STREET":"保安路","SECT":"二段","MAREA":" ","LANE":"６３０巷","ALLEY":" ","HOUSE_NO":"３５號","E_COORD97":172801.07000000001,"N_COORD97":2537494.5600000001,"ADDRESS":"保安路二段６３０巷３５號","OBJECTID":437221},"geometry":{"x":172801.07000000123,"y":2537494.5600000042}},{"attributes":{"ID":437247,"DIS_CODE":0,"TOWNNAME":"仁德區","LI":"土庫里","LIN":" ","STREET":"太子二街","SECT":" ","MAREA":" ","LANE":"１５６巷","ALLEY":" ","HOUSE_NO":"８號","E_COORD97":174461,"N_COORD97":2543204.2599999998,"ADDRESS":"太子二街１５６巷８號","OBJECTID":437222},"geometry":{"x":174461,"y":2543204.2599999998}},{"attributes":{"ID":437248,"DIS_CODE":0,"TOWNNAME":"仁德區","LI":"後壁里","LIN":" ","STREET":"民安路","SECT":"一段","MAREA":" ","LANE":"３９２巷","ALLEY":" ","HOUSE_NO":"６之２號","E_COORD97":173123.48999999999,"N_COORD97":2539322.5800000001,"ADDRESS":"民安路一段３９２巷６之２號","OBJECTID":437223},"geometry":{"x":173123.49000000115,"y":2539322.5800000019}},{"attributes":{"ID":437249,"DIS_CODE":0,"TOWNNAME":"仁德區","LI":"仁義里","LIN":" ","STREET":"中山路","SECT":" ","MAREA":" ","LANE":"５５５巷","ALLEY":" ","HOUSE_NO":"５號","E_COORD97":173432.78,"N_COORD97":2541279.4900000002,"ADDRESS":"中山路５５５巷５號","OBJECTID":437224},"geometry":{"x":173432.77999999933,"y":2541279.4900000021}},{"attributes":{"ID":437250,"DIS_CODE":0,"TOWNNAME":"仁德區","LI":"一甲里","LIN":" ","STREET":"忠義一街","SECT":" ","MAREA":" ","LANE":"３８巷","ALLEY":" ","HOUSE_NO":"８號","E_COORD97":174075.64000000001,"N_COORD97":2542151.2599999998,"ADDRESS":"忠義一街３８巷８號","OBJECTID":437225},"geometry":{"x":174075.64000000153,"y":2542151.2600000016}},{"attributes":{"ID":437251,"DIS_CODE":0,"TOWNNAME":"仁德區","LI":"一甲里","LIN":" ","STREET":"中正路","SECT":"三段","MAREA":" ","LANE":"１６２巷","ALLEY":" ","HOUSE_NO":"６號","E_COORD97":173511.84,"N_COORD97":2541757.7799999998,"ADDRESS":"中正路三段１６２巷６號","OBJECTID":437226},"geometry":{"x":173511.84000000078,"y":2541757.7800000012}},{"attributes":{"ID":437252,"DIS_CODE":0,"TOWNNAME":"仁德區","LI":"一甲里","LIN":" ","STREET":"中清路","SECT":" ","MAREA":" ","LANE":"２４８巷","ALLEY":" ","HOUSE_NO":"２１號","E_COORD97":173901.63,"N_COORD97":2541735.79,"ADDRESS":"中清路２４８巷２１號","OBJECTID":437227},"geometry":{"x":173901.63000000082,"y":2541735.7899999991}},{"attributes":{"ID":437253,"DIS_CODE":0,"TOWNNAME":"仁德區","LI":"成功里","LIN":" ","STREET":"保華路","SECT":" ","MAREA":" ","LANE":"１２９巷","ALLEY":" ","HOUSE_NO":"４０號","E_COORD97":171095.69,"N_COORD97":2539951.7400000002,"ADDRESS":"保華路１２９巷４０號","OBJECTID":437228},"geometry":{"x":171095.69000000041,"y":2539951.7400000021}},{"attributes":{"ID":437254,"DIS_CODE":0,"TOWNNAME":"仁德區","LI":"後壁里","LIN":" ","STREET":"德洋二街","SECT":" ","MAREA":" ","LANE":"５巷","ALLEY":" ","HOUSE_NO":"８之４號","E_COORD97":172485.66,"N_COORD97":2539330.79,"ADDRESS":"德洋二街５巷８之４號","OBJECTID":437229},"geometry":{"x":172485.66000000015,"y":2539330.7899999991}},{"attributes":{"ID":437255,"DIS_CODE":0,"TOWNNAME":"仁德區","LI":"一甲里","LIN":" ","STREET":"中正路","SECT":"三段","MAREA":" ","LANE":"２４２巷","ALLEY":" ","HOUSE_NO":"２８號","E_COORD97":173704.84,"N_COORD97":2541921.02,"ADDRESS":"中正路三段２４２巷２８號","OBJECTID":437230},"geometry":{"x":173704.83999999892,"y":2541921.0199999996}},{"attributes":{"ID":437256,"DIS_CODE":0,"TOWNNAME":"新市區","LI":"新和里","LIN":" ","STREET":"勝利街","SECT":" ","MAREA":" ","LANE":"１２巷","ALLEY":" ","HOUSE_NO":"１４號","E_COORD97":177387.23000000001,"N_COORD97":2552999.7599999998,"ADDRESS":"勝利街１２巷１４號","OBJECTID":437231},"geometry":{"x":177387.23000000138,"y":2552999.7599999979}},{"attributes":{"ID":437257,"DIS_CODE":0,"TOWNNAME":"新市區","LI":"新市里","LIN":" ","STREET":"復興路","SECT":" ","MAREA":" ","LANE":"６２巷","ALLEY":" ","HOUSE_NO":"９之１６號","E_COORD97":177963.10000000001,"N_COORD97":2553491.5499999998,"ADDRESS":"復興路６２巷９之１６號","OBJECTID":437232},"geometry":{"x":177963.10000000056,"y":2553491.5500000026}},{"attributes":{"ID":437258,"DIS_CODE":0,"TOWNNAME":"新市區","LI":"新和里","LIN":" ","STREET":"忠孝街","SECT":" ","MAREA":" ","LANE":"２２７巷","ALLEY":" ","HOUSE_NO":"２之７號","E_COORD97":177686.56,"N_COORD97":2552952.2999999998,"ADDRESS":"忠孝街２２７巷２之７號","OBJECTID":437233},"geometry":{"x":177686.55999999959,"y":2552952.3000000007}},{"attributes":{"ID":437259,"DIS_CODE":0,"TOWNNAME":"新市區","LI":"新市里","LIN":" ","STREET":"復興路","SECT":" ","MAREA":" ","LANE":"６２巷","ALLEY":" ","HOUSE_NO":"９之９號","E_COORD97":177927.14999999999,"N_COORD97":2553490.0499999998,"ADDRESS":"復興路６２巷９之９號","OBJECTID":437234},"geometry":{"x":177927.15000000037,"y":2553490.0500000007}},{"attributes":{"ID":437260,"DIS_CODE":0,"TOWNNAME":"新市區","LI":"新市里","LIN":" ","STREET":"復興路","SECT":" ","MAREA":" ","LANE":"６２巷","ALLEY":" ","HOUSE_NO":"９之２６號","E_COORD97":177922.60000000001,"N_COORD97":2553509.2999999998,"ADDRESS":"復興路６２巷９之２６號","OBJECTID":437235},"geometry":{"x":177922.60000000056,"y":2553509.3000000045}},{"attributes":{"ID":437261,"DIS_CODE":0,"TOWNNAME":"下營區","LI":"宅內里","LIN":" ","STREET":"人和三街","SECT":" ","MAREA":" ","LANE":"７１巷","ALLEY":" ","HOUSE_NO":"１０號","E_COORD97":174229.17000000001,"N_COORD97":2570649.1299999999,"ADDRESS":"人和三街７１巷１０號","OBJECTID":437236},"geometry":{"x":174229.16999999993,"y":2570649.129999999}},{"attributes":{"ID":437262,"DIS_CODE":0,"TOWNNAME":"下營區","LI":"宅內里","LIN":" ","STREET":"人和三街","SECT":" ","MAREA":" ","LANE":"７１巷","ALLEY":" ","HOUSE_NO":"１７號","E_COORD97":174249.32999999999,"N_COORD97":2570644.6099999999,"ADDRESS":"人和三街７１巷１７號","OBJECTID":437237},"geometry":{"x":174249.32999999914,"y":2570644.6100000013}},{"attributes":{"ID":437263,"DIS_CODE":0,"TOWNNAME":"下營區","LI":"宅內里","LIN":" ","STREET":"人和三街","SECT":" ","MAREA":" ","LANE":"７１巷","ALLEY":" ","HOUSE_NO":"１號","E_COORD97":174242.5,"N_COORD97":2570706.1200000001,"ADDRESS":"人和三街７１巷１號","OBJECTID":437238},"geometry":{"x":174242.5,"y":2570706.120000001}},{"attributes":{"ID":437264,"DIS_CODE":0,"TOWNNAME":"下營區","LI":"新興里","LIN":" ","STREET":"大同街","SECT":" ","MAREA":" ","LANE":"２２巷","ALLEY":" ","HOUSE_NO":"５號","E_COORD97":174630.16,"N_COORD97":2570728.5800000001,"ADDRESS":"大同街２２巷５號","OBJECTID":437239},"geometry":{"x":174630.16000000015,"y":2570728.5800000001}},{"attributes":{"ID":437265,"DIS_CODE":0,"TOWNNAME":"下營區","LI":"下營里","LIN":" ","STREET":"中山路","SECT":"一段","MAREA":" ","LANE":"９巷","ALLEY":" ","HOUSE_NO":"５號","E_COORD97":174393.70000000001,"N_COORD97":2570513.1099999999,"ADDRESS":"中山路一段９巷５號","OBJECTID":437240},"geometry":{"x":174393.70000000019,"y":2570513.1100000013}},{"attributes":{"ID":437266,"DIS_CODE":0,"TOWNNAME":"下營區","LI":"仁里里","LIN":" ","STREET":"中山路","SECT":"二段","MAREA":" ","LANE":"３４８巷","ALLEY":" ","HOUSE_NO":"３８號","E_COORD97":174532.51000000001,"N_COORD97":2568781.27,"ADDRESS":"中山路二段３４８巷３８號","OBJECTID":437241},"geometry":{"x":174532.50999999978,"y":2568781.2699999996}},{"attributes":{"ID":437267,"DIS_CODE":0,"TOWNNAME":"下營區","LI":"營前里","LIN":" ","STREET":"中山路","SECT":"二段","MAREA":" ","LANE":"４１巷","ALLEY":" ","HOUSE_NO":"１２號","E_COORD97":174441.14000000001,"N_COORD97":2570362.2999999998,"ADDRESS":"中山路二段４１巷１２號","OBJECTID":437242},"geometry":{"x":174441.13999999966,"y":2570362.3000000007}},{"attributes":{"ID":437268,"DIS_CODE":0,"TOWNNAME":"下營區","LI":"後街里","LIN":" ","STREET":"中正北路","SECT":" ","MAREA":" ","LANE":"１０６巷","ALLEY":" ","HOUSE_NO":"１２號","E_COORD97":174526.10000000001,"N_COORD97":2570716.73,"ADDRESS":"中正北路１０６巷１２號","OBJECTID":437243},"geometry":{"x":174526.09999999963,"y":2570716.7300000023}},{"attributes":{"ID":437269,"DIS_CODE":0,"TOWNNAME":"下營區","LI":"宅內里","LIN":" ","STREET":"中正北路","SECT":" ","MAREA":" ","LANE":"２３５巷","ALLEY":" ","HOUSE_NO":"２３號","E_COORD97":173641.85999999999,"N_COORD97":2571575.4300000002,"ADDRESS":"中正北路２３５巷２３號","OBJECTID":437244},"geometry":{"x":173641.86000000034,"y":2571575.4300000016}},{"attributes":{"ID":437270,"DIS_CODE":0,"TOWNNAME":"下營區","LI":"新興里","LIN":" ","STREET":"中華街","SECT":" ","MAREA":" ","LANE":"２０２巷","ALLEY":" ","HOUSE_NO":"８２號","E_COORD97":175368.32999999999,"N_COORD97":2570684.3700000001,"ADDRESS":"中華街２０２巷８２號","OBJECTID":437245},"geometry":{"x":175368.33000000194,"y":2570684.370000001}},{"attributes":{"ID":437271,"DIS_CODE":0,"TOWNNAME":"下營區","LI":"宅內里","LIN":" ","STREET":"友愛街","SECT":" ","MAREA":" ","LANE":"９０巷","ALLEY":" ","HOUSE_NO":"３號","E_COORD97":174221.32999999999,"N_COORD97":2570515.5800000001,"ADDRESS":"友愛街９０巷３號","OBJECTID":437246},"geometry":{"x":174221.33000000101,"y":2570515.5800000001}},{"attributes":{"ID":437272,"DIS_CODE":0,"TOWNNAME":"下營區","LI":"後街里","LIN":" ","STREET":"東興二街","SECT":" ","MAREA":" ","LANE":"５３巷","ALLEY":" ","HOUSE_NO":"２３號","E_COORD97":174625.56,"N_COORD97":2570811.6800000002,"ADDRESS":"東興二街５３巷２３號","OBJECTID":437247},"geometry":{"x":174625.56000000052,"y":2570811.6800000016}},{"attributes":{"ID":437273,"DIS_CODE":0,"TOWNNAME":"下營區","LI":"宅內里","LIN":" ","STREET":"博愛街","SECT":" ","MAREA":" ","LANE":"９０巷","ALLEY":" ","HOUSE_NO":"１２號","E_COORD97":173713.69,"N_COORD97":2570604.3500000001,"ADDRESS":"博愛街９０巷１２號","OBJECTID":437248},"geometry":{"x":173713.69000000134,"y":2570604.3499999996}},{"attributes":{"ID":437274,"DIS_CODE":0,"TOWNNAME":"下營區","LI":"營前里","LIN":" ","STREET":"新進東街","SECT":" ","MAREA":" ","LANE":"８６巷","ALLEY":" ","HOUSE_NO":"４５號","E_COORD97":174944.67999999999,"N_COORD97":2569955.4100000001,"ADDRESS":"新進東街８６巷４５號","OBJECTID":437249},"geometry":{"x":174944.6799999997,"y":2569955.410000002}},{"attributes":{"ID":437275,"DIS_CODE":0,"TOWNNAME":"玉井區","LI":"竹圍里","LIN":"9鄰","STREET":"\u25A0吧哖東路","SECT":" ","MAREA":" ","LANE":"２０７巷","ALLEY":" ","HOUSE_NO":"２０號","E_COORD97":196087.42999999999,"N_COORD97":2558985.1699999999,"ADDRESS":"\u25A0吧哖東路２０７巷２０號","OBJECTID":437250},"geometry":{"x":196087.43000000156,"y":2558985.1700000018}},{"attributes":{"ID":437276,"DIS_CODE":0,"TOWNNAME":"玉井區","LI":"玉井里","LIN":" ","STREET":"中正路","SECT":" ","MAREA":" ","LANE":"２１巷","ALLEY":" ","HOUSE_NO":"６０號","E_COORD97":194623.23000000001,"N_COORD97":2558065.1499999999,"ADDRESS":"中正路２１巷６０號","OBJECTID":437251},"geometry":{"x":194623.23000000231,"y":2558065.1500000004}},{"attributes":{"ID":437277,"DIS_CODE":0,"TOWNNAME":"玉井區","LI":"玉田里","LIN":" ","STREET":"民主街","SECT":" ","MAREA":" ","LANE":"１０巷","ALLEY":" ","HOUSE_NO":"１號","E_COORD97":194835.32999999999,"N_COORD97":2558020.29,"ADDRESS":"民主街１０巷１號","OBJECTID":437252},"geometry":{"x":194835.33000000007,"y":2558020.2900000028}},{"attributes":{"ID":437278,"DIS_CODE":0,"TOWNNAME":"玉井區","LI":"玉田里","LIN":" ","STREET":"中山路","SECT":" ","MAREA":" ","LANE":"３巷","ALLEY":" ","HOUSE_NO":"３之１號","E_COORD97":194893.35000000001,"N_COORD97":2557730.2999999998,"ADDRESS":"中山路３巷３之１號","OBJECTID":437253},"geometry":{"x":194893.35000000056,"y":2557730.3000000045}},{"attributes":{"ID":437279,"DIS_CODE":0,"TOWNNAME":"玉井區","LI":"玉田里","LIN":" ","STREET":"中華路","SECT":" ","MAREA":" ","LANE":"１５１巷","ALLEY":" ","HOUSE_NO":"７號","E_COORD97":195151.64999999999,"N_COORD97":2557927.25,"ADDRESS":"中華路１５１巷７號","OBJECTID":437254},"geometry":{"x":195151.6500000013,"y":2557927.2500000019}},{"attributes":{"ID":437280,"DIS_CODE":0,"TOWNNAME":"楠西區","LI":"楠西里","LIN":" ","STREET":"中興路","SECT":" ","MAREA":" ","LANE":"７７巷","ALLEY":" ","HOUSE_NO":"１４號","E_COORD97":197158.56,"N_COORD97":2564409.25,"ADDRESS":"中興路７７巷１４號","OBJECTID":437255},"geometry":{"x":197158.56000000052,"y":2564409.2500000019}},{"attributes":{"ID":437281,"DIS_CODE":0,"TOWNNAME":"楠西區","LI":"楠西里","LIN":" ","STREET":"中興路","SECT":" ","MAREA":" ","LANE":"７７巷","ALLEY":" ","HOUSE_NO":"１０號","E_COORD97":197166.06,"N_COORD97":2564408.25,"ADDRESS":"中興路７７巷１０號","OBJECTID":437256},"geometry":{"x":197166.05999999959,"y":2564408.25}},{"attributes":{"ID":437282,"DIS_CODE":0,"TOWNNAME":"楠西區","LI":"楠西里","LIN":" ","STREET":"民族路","SECT":" ","MAREA":" ","LANE":"１２３巷","ALLEY":" ","HOUSE_NO":"１１號","E_COORD97":197111.85000000001,"N_COORD97":2564295.9300000002,"ADDRESS":"民族路１２３巷１１號","OBJECTID":437257},"geometry":{"x":197111.85000000149,"y":2564295.9300000016}},{"attributes":{"ID":437283,"DIS_CODE":0,"TOWNNAME":"楠西區","LI":"楠西里","LIN":"19鄰","STREET":"中正路","SECT":" ","MAREA":" ","LANE":"９６巷","ALLEY":" ","HOUSE_NO":"２２號","E_COORD97":197237.81,"N_COORD97":2563966.25,"ADDRESS":"中正路９６巷８號","OBJECTID":437258},"geometry":{"x":197237.81000000052,"y":2563966.2500000019}},{"attributes":{"ID":437284,"DIS_CODE":0,"TOWNNAME":"楠西區","LI":"楠西里","LIN":" ","STREET":"民族路","SECT":" ","MAREA":" ","LANE":"１５０巷","ALLEY":" ","HOUSE_NO":"３５號","E_COORD97":197128.35000000001,"N_COORD97":2564280.9300000002,"ADDRESS":"民族路１５０巷３５號","OBJECTID":437259},"geometry":{"x":197128.34999999963,"y":2564280.9299999997}},{"attributes":{"ID":437285,"DIS_CODE":0,"TOWNNAME":"楠西區","LI":"楠西里","LIN":" ","STREET":"民族路","SECT":" ","MAREA":" ","LANE":"１２３巷","ALLEY":" ","HOUSE_NO":"７號","E_COORD97":197103.70000000001,"N_COORD97":2564298.9300000002,"ADDRESS":"民族路１２３巷７號","OBJECTID":437260},"geometry":{"x":197103.70000000112,"y":2564298.9300000034}},{"attributes":{"ID":437286,"DIS_CODE":0,"TOWNNAME":"楠西區","LI":"楠西里","LIN":" ","STREET":"民族路","SECT":" ","MAREA":" ","LANE":"１４５巷","ALLEY":" ","HOUSE_NO":"５號","E_COORD97":197111.20000000001,"N_COORD97":2564359.9300000002,"ADDRESS":"民族路１４５巷５號","OBJECTID":437261},"geometry":{"x":197111.20000000019,"y":2564359.9300000034}},{"attributes":{"ID":437287,"DIS_CODE":0,"TOWNNAME":"楠西區","LI":"東勢里","LIN":" ","STREET":"茄拔路","SECT":" ","MAREA":" ","LANE":"１７７巷","ALLEY":" ","HOUSE_NO":"３０號","E_COORD97":197459.23000000001,"N_COORD97":2563843.2000000002,"ADDRESS":"茄拔路１７７巷３０號","OBJECTID":437262},"geometry":{"x":197459.22999999952,"y":2563843.2000000011}},{"attributes":{"ID":437288,"DIS_CODE":0,"TOWNNAME":"楠西區","LI":"東勢里","LIN":" ","STREET":"茄拔路","SECT":" ","MAREA":" ","LANE":"１７７巷","ALLEY":" ","HOUSE_NO":"１２號","E_COORD97":197447.03,"N_COORD97":2563800.2000000002,"ADDRESS":"茄拔路１７７巷１２號","OBJECTID":437263},"geometry":{"x":197447.03000000212,"y":2563800.1999999993}},{"attributes":{"ID":437289,"DIS_CODE":0,"TOWNNAME":"楠西區","LI":"東勢里","LIN":" ","STREET":"茄拔路","SECT":" ","MAREA":" ","LANE":"１７７巷","ALLEY":" ","HOUSE_NO":"１４號","E_COORD97":197448.23000000001,"N_COORD97":2563804.2000000002,"ADDRESS":"茄拔路１７７巷１４號","OBJECTID":437264},"geometry":{"x":197448.23000000138,"y":2563804.1999999993}},{"attributes":{"ID":437290,"DIS_CODE":0,"TOWNNAME":"楠西區","LI":"東勢里","LIN":" ","STREET":"茄拔路","SECT":" ","MAREA":" ","LANE":"１７７巷","ALLEY":" ","HOUSE_NO":"１９號","E_COORD97":197442.13,"N_COORD97":2563820.2000000002,"ADDRESS":"茄拔路１７７巷１９號","OBJECTID":437265},"geometry":{"x":197442.12999999989,"y":2563820.2000000011}},{"attributes":{"ID":437291,"DIS_CODE":0,"TOWNNAME":"楠西區","LI":"楠西里","LIN":" ","STREET":"民族路","SECT":" ","MAREA":" ","LANE":"１１７巷","ALLEY":" ","HOUSE_NO":"７之１號","E_COORD97":197104.89000000001,"N_COORD97":2564260.2999999998,"ADDRESS":"民族路１１７巷７之１號","OBJECTID":437266},"geometry":{"x":197104.89000000153,"y":2564260.3000000045}},{"attributes":{"ID":437292,"DIS_CODE":0,"TOWNNAME":"楠西區","LI":"東勢里","LIN":" ","STREET":"茄拔路","SECT":" ","MAREA":" ","LANE":"１７７巷","ALLEY":" ","HOUSE_NO":"２４號","E_COORD97":197453.63,"N_COORD97":2563825.2000000002,"ADDRESS":"茄拔路１７７巷２４號","OBJECTID":437267},"geometry":{"x":197453.62999999989,"y":2563825.200000003}},{"attributes":{"ID":437293,"DIS_CODE":0,"TOWNNAME":"楠西區","LI":"楠西里","LIN":"4鄰","STREET":"中華路","SECT":" ","MAREA":" ","LANE":"１５０巷","ALLEY":" ","HOUSE_NO":"３５號","E_COORD97":197138.51999999999,"N_COORD97":2564267.8900000001,"ADDRESS":"中華路１５０巷３５號","OBJECTID":437268},"geometry":{"x":197138.52000000048,"y":2564267.8900000006}},{"attributes":{"ID":437294,"DIS_CODE":0,"TOWNNAME":"楠西區","LI":"東勢里","LIN":" ","STREET":"茄拔路","SECT":" ","MAREA":" ","LANE":"１７７巷","ALLEY":" ","HOUSE_NO":"２２號","E_COORD97":197452.03,"N_COORD97":2563821.2000000002,"ADDRESS":"茄拔路１７７巷２２號","OBJECTID":437269},"geometry":{"x":197452.03000000212,"y":2563821.1999999993}},{"attributes":{"ID":437295,"DIS_CODE":0,"TOWNNAME":"楠西區","LI":"楠西里","LIN":" ","STREET":"民族路","SECT":" ","MAREA":" ","LANE":"１１７巷","ALLEY":" ","HOUSE_NO":"１號","E_COORD97":197080.98999999999,"N_COORD97":2564262.29,"ADDRESS":"民族路１１７巷１號","OBJECTID":437270},"geometry":{"x":197080.99000000209,"y":2564262.290000001}},{"attributes":{"ID":437296,"DIS_CODE":0,"TOWNNAME":"楠西區","LI":"楠西里","LIN":" ","STREET":"民族路","SECT":" ","MAREA":" ","LANE":"１１７巷","ALLEY":" ","HOUSE_NO":"１之１號","E_COORD97":197086.89000000001,"N_COORD97":2564262.2999999998,"ADDRESS":"民族路１１７巷１之１號","OBJECTID":437271},"geometry":{"x":197086.8900000006,"y":2564262.3000000007}},{"attributes":{"ID":437297,"DIS_CODE":0,"TOWNNAME":"玉井區","LI":"玉田里","LIN":" ","STREET":"中華路","SECT":" ","MAREA":" ","LANE":"１５１巷","ALLEY":" ","HOUSE_NO":"４號","E_COORD97":195131.54999999999,"N_COORD97":2557933.25,"ADDRESS":"中華路１５１巷４號","OBJECTID":437272},"geometry":{"x":195131.54999999981,"y":2557933.2500000037}},{"attributes":{"ID":437298,"DIS_CODE":0,"TOWNNAME":"玉井區","LI":"玉井里","LIN":" ","STREET":"中正路","SECT":" ","MAREA":" ","LANE":"２１巷","ALLEY":" ","HOUSE_NO":"１９號","E_COORD97":194666.82000000001,"N_COORD97":2558019.1600000001,"ADDRESS":"中正路２１巷１９號","OBJECTID":437273},"geometry":{"x":194666.82000000123,"y":2558019.160000002}},{"attributes":{"ID":437299,"DIS_CODE":0,"TOWNNAME":"玉井區","LI":"玉田里","LIN":" ","STREET":"中華路","SECT":" ","MAREA":" ","LANE":"１５１巷","ALLEY":" ","HOUSE_NO":"１０號","E_COORD97":195117.10000000001,"N_COORD97":2557947.25,"ADDRESS":"中華路１５１巷１０號","OBJECTID":437274},"geometry":{"x":195117.10000000056,"y":2557947.2500000019}},{"attributes":{"ID":437300,"DIS_CODE":0,"TOWNNAME":"玉井區","LI":"中正里","LIN":" ","STREET":"健康街","SECT":" ","MAREA":" ","LANE":"１２２巷","ALLEY":" ","HOUSE_NO":"２０號","E_COORD97":195533.42999999999,"N_COORD97":2558922.29,"ADDRESS":"健康街１２２巷２０號","OBJECTID":437275},"geometry":{"x":195533.43000000063,"y":2558922.2900000028}},{"attributes":{"ID":437301,"DIS_CODE":0,"TOWNNAME":"玉井區","LI":"玉田里","LIN":"39鄰","STREET":"和平街","SECT":" ","MAREA":" ","LANE":"２２巷","ALLEY":" ","HOUSE_NO":"３０號","E_COORD97":194958.63,"N_COORD97":2557606.25,"ADDRESS":"和平街２２巷３０號","OBJECTID":437276},"geometry":{"x":194958.62999999989,"y":2557606.25}},{"attributes":{"ID":437302,"DIS_CODE":0,"TOWNNAME":"玉井區","LI":"中正里","LIN":" ","STREET":"後旦街","SECT":" ","MAREA":" ","LANE":"５０巷","ALLEY":" ","HOUSE_NO":"９號","E_COORD97":195362.20999999999,"N_COORD97":2558656.3199999998,"ADDRESS":"後旦街５０巷９號","OBJECTID":437277},"geometry":{"x":195362.21000000089,"y":2558656.3200000022}},{"attributes":{"ID":437303,"DIS_CODE":0,"TOWNNAME":"玉井區","LI":"中正里","LIN":" ","STREET":"健康街","SECT":" ","MAREA":" ","LANE":"１２２巷","ALLEY":" ","HOUSE_NO":"３０號","E_COORD97":195548.03,"N_COORD97":2558938.2999999998,"ADDRESS":"健康街１２２巷３０號","OBJECTID":437278},"geometry":{"x":195548.03000000026,"y":2558938.3000000026}},{"attributes":{"ID":437304,"DIS_CODE":0,"TOWNNAME":"玉井區","LI":"玉田里","LIN":" ","STREET":"中正路","SECT":" ","MAREA":" ","LANE":"１６１巷","ALLEY":" ","HOUSE_NO":"８號","E_COORD97":194967.95999999999,"N_COORD97":2558276.2400000002,"ADDRESS":"中正路１６１巷８號","OBJECTID":437279},"geometry":{"x":194967.95999999996,"y":2558276.2400000039}},{"attributes":{"ID":437305,"DIS_CODE":0,"TOWNNAME":"玉井區","LI":"玉井里","LIN":" ","STREET":"中正路","SECT":" ","MAREA":" ","LANE":"５１巷","ALLEY":" ","HOUSE_NO":"６之１號","E_COORD97":194823.20999999999,"N_COORD97":2558200.29,"ADDRESS":"中正路５１巷６之１號","OBJECTID":437280},"geometry":{"x":194823.21000000089,"y":2558200.290000001}},{"attributes":{"ID":437306,"DIS_CODE":0,"TOWNNAME":"歸仁區","LI":"大廟里","LIN":" ","STREET":"和順路","SECT":"二段","MAREA":" ","LANE":"８７巷","ALLEY":" ","HOUSE_NO":"８８號","E_COORD97":176200.88,"N_COORD97":2543497.9500000002,"ADDRESS":"和順路二段８７巷８８號","OBJECTID":437281},"geometry":{"x":176200.88000000082,"y":2543497.9499999993}},{"attributes":{"ID":437307,"DIS_CODE":0,"TOWNNAME":"六甲區","LI":"甲南里","LIN":"12鄰","STREET":"永安街","SECT":" ","MAREA":" ","LANE":"１３巷","ALLEY":" ","HOUSE_NO":"１號之１","E_COORD97":183910.59,"N_COORD97":2569821.4900000002,"ADDRESS":"永安街１３巷１號之１","OBJECTID":437282},"geometry":{"x":183910.59000000078,"y":2569821.4900000002}},{"attributes":{"ID":437308,"DIS_CODE":0,"TOWNNAME":"六甲區","LI":"二甲里","LIN":"5鄰","STREET":"民權街","SECT":" ","MAREA":" ","LANE":"２２９巷","ALLEY":" ","HOUSE_NO":"５號之１","E_COORD97":183035.51999999999,"N_COORD97":2569703.2799999998,"ADDRESS":"民權街２２９巷５號之１","OBJECTID":437283},"geometry":{"x":183035.52000000142,"y":2569703.2799999993}},{"attributes":{"ID":437309,"DIS_CODE":0,"TOWNNAME":"六甲區","LI":"七甲里","LIN":" ","STREET":"七甲街","SECT":" ","MAREA":" ","LANE":"１０８巷","ALLEY":" ","HOUSE_NO":"１０之１號","E_COORD97":183096.91,"N_COORD97":2569077.1400000001,"ADDRESS":"七甲街１０８巷１０之１號","OBJECTID":437284},"geometry":{"x":183096.91000000108,"y":2569077.1400000006}},{"attributes":{"ID":437310,"DIS_CODE":0,"TOWNNAME":"六甲區","LI":"七甲里","LIN":" ","STREET":"七甲街","SECT":" ","MAREA":" ","LANE":"９２巷","ALLEY":" ","HOUSE_NO":"１６號","E_COORD97":183113.82999999999,"N_COORD97":2569075.6000000001,"ADDRESS":"七甲街９２巷１６號","OBJECTID":437285},"geometry":{"x":183113.83000000101,"y":2569075.6000000015}},{"attributes":{"ID":437311,"DIS_CODE":0,"TOWNNAME":"六甲區","LI":"七甲里","LIN":" ","STREET":"七甲街","SECT":" ","MAREA":" ","LANE":"９３巷","ALLEY":" ","HOUSE_NO":"３４號","E_COORD97":182912.01000000001,"N_COORD97":2568906.3500000001,"ADDRESS":"七甲街９３巷３４號","OBJECTID":437286},"geometry":{"x":182912.01000000164,"y":2568906.3499999996}},{"attributes":{"ID":437312,"DIS_CODE":0,"TOWNNAME":"六甲區","LI":"六甲里","LIN":" ","STREET":"中正路","SECT":" ","MAREA":" ","LANE":"４８５巷","ALLEY":" ","HOUSE_NO":"１２號","E_COORD97":183570.66,"N_COORD97":2569895.6200000001,"ADDRESS":"中正路４８５巷１２號","OBJECTID":437287},"geometry":{"x":183570.65999999922,"y":2569895.620000001}},{"attributes":{"ID":437313,"DIS_CODE":0,"TOWNNAME":"六甲區","LI":"六甲里","LIN":" ","STREET":"中正路","SECT":" ","MAREA":" ","LANE":"４８５巷","ALLEY":" ","HOUSE_NO":"４４號","E_COORD97":183531.81,"N_COORD97":2569932.1699999999,"ADDRESS":"中正路４８５巷４４號","OBJECTID":437288},"geometry":{"x":183531.80999999866,"y":2569932.1700000037}},{"attributes":{"ID":437314,"DIS_CODE":0,"TOWNNAME":"六甲區","LI":"六甲里","LIN":"23鄰","STREET":"中正路","SECT":" ","MAREA":" ","LANE":"４８５巷","ALLEY":" ","HOUSE_NO":"６２號","E_COORD97":183533.35000000001,"N_COORD97":2569943.8100000001,"ADDRESS":"中正路４８５巷４６號","OBJECTID":437289},"geometry":{"x":183533.35000000149,"y":2569943.8100000024}},{"attributes":{"ID":437315,"DIS_CODE":0,"TOWNNAME":"六甲區","LI":"六甲里","LIN":" ","STREET":"中正路","SECT":" ","MAREA":" ","LANE":"４８５巷","ALLEY":" ","HOUSE_NO":"６之１號","E_COORD97":183586.60999999999,"N_COORD97":2569891.5,"ADDRESS":"中正路４８５巷６之１號","OBJECTID":437290},"geometry":{"x":183586.6100000022,"y":2569891.5}},{"attributes":{"ID":437316,"DIS_CODE":0,"TOWNNAME":"六甲區","LI":"六甲里","LIN":" ","STREET":"中正路","SECT":" ","MAREA":" ","LANE":"８４５巷","ALLEY":" ","HOUSE_NO":"１之５號","E_COORD97":183809.60000000001,"N_COORD97":2570469.6699999999,"ADDRESS":"中正路８４５巷１之５號","OBJECTID":437291},"geometry":{"x":183809.60000000149,"y":2570469.6699999999}},{"attributes":{"ID":437317,"DIS_CODE":0,"TOWNNAME":"六甲區","LI":"甲東里","LIN":" ","STREET":"中正路","SECT":" ","MAREA":" ","LANE":"８５０巷","ALLEY":" ","HOUSE_NO":"１７之１號","E_COORD97":184040.20999999999,"N_COORD97":2570389.8399999999,"ADDRESS":"中正路８５０巷１７之１號","OBJECTID":437292},"geometry":{"x":184040.21000000089,"y":2570389.8400000017}},{"attributes":{"ID":437318,"DIS_CODE":0,"TOWNNAME":"六甲區","LI":"二甲里","LIN":" ","STREET":"中華路","SECT":" ","MAREA":" ","LANE":"１５２巷","ALLEY":" ","HOUSE_NO":"１８號","E_COORD97":183115.53,"N_COORD97":2569332.48,"ADDRESS":"中華路１５２巷１８號","OBJECTID":437293},"geometry":{"x":183115.53000000026,"y":2569332.4800000004}},{"attributes":{"ID":437319,"DIS_CODE":0,"TOWNNAME":"六甲區","LI":"龍湖里","LIN":" ","STREET":"中華路","SECT":" ","MAREA":" ","LANE":"２００巷","ALLEY":" ","HOUSE_NO":"８號","E_COORD97":182894.66,"N_COORD97":2569224.8100000001,"ADDRESS":"中華路２００巷８號","OBJECTID":437294},"geometry":{"x":182894.66000000108,"y":2569224.8100000024}},{"attributes":{"ID":437320,"DIS_CODE":0,"TOWNNAME":"六甲區","LI":"龍湖里","LIN":" ","STREET":"中華路","SECT":" ","MAREA":" ","LANE":"２１５巷","ALLEY":" ","HOUSE_NO":"１０之１號","E_COORD97":183148.01000000001,"N_COORD97":2569254.1299999999,"ADDRESS":"中華路２１５巷１０之１號","OBJECTID":437295},"geometry":{"x":183148.01000000071,"y":2569254.1300000008}},{"attributes":{"ID":437321,"DIS_CODE":0,"TOWNNAME":"六甲區","LI":"龍湖里","LIN":" ","STREET":"中華路","SECT":" ","MAREA":" ","LANE":"２４８巷","ALLEY":" ","HOUSE_NO":"１４號","E_COORD97":182319.54999999999,"N_COORD97":2569160.0499999998,"ADDRESS":"中華路２４８巷１４號","OBJECTID":437296},"geometry":{"x":182319.54999999981,"y":2569160.0500000007}},{"attributes":{"ID":437322,"DIS_CODE":0,"TOWNNAME":"六甲區","LI":"水林里","LIN":" ","STREET":"民族街","SECT":" ","MAREA":" ","LANE":"４１８巷","ALLEY":" ","HOUSE_NO":"１２號","E_COORD97":182866.64000000001,"N_COORD97":2570431.8500000001,"ADDRESS":"民族街４１８巷１２號","OBJECTID":437297},"geometry":{"x":182866.63999999966,"y":2570431.8499999996}},{"attributes":{"ID":437323,"DIS_CODE":0,"TOWNNAME":"六甲區","LI":"二甲里","LIN":" ","STREET":"民權街","SECT":" ","MAREA":" ","LANE":"２２８巷","ALLEY":" ","HOUSE_NO":"４２號","E_COORD97":183097.72,"N_COORD97":2569873.7799999998,"ADDRESS":"民權街２２８巷４２號","OBJECTID":437298},"geometry":{"x":183097.72000000067,"y":2569873.7800000012}},{"attributes":{"ID":437324,"DIS_CODE":0,"TOWNNAME":"六甲區","LI":"二甲里","LIN":"5鄰","STREET":"民權街","SECT":" ","MAREA":" ","LANE":"２２９巷","ALLEY":" ","HOUSE_NO":"９號","E_COORD97":183030.03,"N_COORD97":2569677.6899999999,"ADDRESS":"民權街２２９巷８號","OBJECTID":437299},"geometry":{"x":183030.03000000119,"y":2569677.6900000013}},{"attributes":{"ID":437325,"DIS_CODE":0,"TOWNNAME":"六甲區","LI":"二甲里","LIN":" ","STREET":"民權街","SECT":" ","MAREA":" ","LANE":"２５５巷","ALLEY":" ","HOUSE_NO":"１９號","E_COORD97":182980.32000000001,"N_COORD97":2569699.6299999999,"ADDRESS":"民權街２５５巷１９號","OBJECTID":437300},"geometry":{"x":182980.32000000123,"y":2569699.629999999}},{"attributes":{"ID":437326,"DIS_CODE":0,"TOWNNAME":"六甲區","LI":"二甲里","LIN":" ","STREET":"民權街","SECT":" ","MAREA":" ","LANE":"２８５巷","ALLEY":" ","HOUSE_NO":"１１號","E_COORD97":182965.34,"N_COORD97":2569732,"ADDRESS":"民權街２８５巷１１號","OBJECTID":437301},"geometry":{"x":182965.33999999985,"y":2569732}},{"attributes":{"ID":437327,"DIS_CODE":0,"TOWNNAME":"六甲區","LI":"甲南里","LIN":" ","STREET":"永安街","SECT":" ","MAREA":" ","LANE":"１３巷","ALLEY":" ","HOUSE_NO":"３號","E_COORD97":183921.81,"N_COORD97":2569821.3700000001,"ADDRESS":"永安街１３巷３號","OBJECTID":437302},"geometry":{"x":183921.81000000145,"y":2569821.3700000029}},{"attributes":{"ID":437328,"DIS_CODE":0,"TOWNNAME":"六甲區","LI":"二甲里","LIN":" ","STREET":"光復街","SECT":" ","MAREA":" ","LANE":"７６巷","ALLEY":" ","HOUSE_NO":"８號","E_COORD97":183177.16,"N_COORD97":2569930.0899999999,"ADDRESS":"光復街７６巷８號","OBJECTID":437303},"geometry":{"x":183177.16000000015,"y":2569930.0900000017}},{"attributes":{"ID":437329,"DIS_CODE":0,"TOWNNAME":"六甲區","LI":"二甲里","LIN":"18鄰","STREET":"和平街","SECT":" ","MAREA":" ","LANE":"４４７巷","ALLEY":" ","HOUSE_NO":"３０３號","E_COORD97":181909.53,"N_COORD97":2570243.4399999999,"ADDRESS":"和平街３４７巷３０３號","OBJECTID":437304},"geometry":{"x":181909.53000000119,"y":2570243.4400000013}},{"attributes":{"ID":437330,"DIS_CODE":0,"TOWNNAME":"六甲區","LI":"甲南里","LIN":" ","STREET":"忠孝街","SECT":" ","MAREA":" ","LANE":"１２３巷","ALLEY":" ","HOUSE_NO":"３號","E_COORD97":183968.98999999999,"N_COORD97":2569800.25,"ADDRESS":"忠孝街１２３巷３號","OBJECTID":437305},"geometry":{"x":183968.99000000115,"y":2569800.2500000019}},{"attributes":{"ID":437331,"DIS_CODE":0,"TOWNNAME":"六甲區","LI":"甲東里","LIN":" ","STREET":"忠孝街","SECT":" ","MAREA":" ","LANE":"１８２巷","ALLEY":" ","HOUSE_NO":"１８２之１號","E_COORD97":184040.81,"N_COORD97":2569958.2000000002,"ADDRESS":"忠孝街１８２巷１８２之１號","OBJECTID":437306},"geometry":{"x":184040.81000000052,"y":2569958.1999999993}},{"attributes":{"ID":437332,"DIS_CODE":0,"TOWNNAME":"六甲區","LI":"甲東里","LIN":" ","STREET":"忠孝街","SECT":" ","MAREA":" ","LANE":"２５０巷","ALLEY":" ","HOUSE_NO":"２號","E_COORD97":184146.29000000001,"N_COORD97":2570149.3300000001,"ADDRESS":"忠孝街２５０巷２號","OBJECTID":437307},"geometry":{"x":184146.2900000019,"y":2570149.3300000019}},{"attributes":{"ID":437333,"DIS_CODE":0,"TOWNNAME":"六甲區","LI":"甲東里","LIN":" ","STREET":"珊瑚路","SECT":" ","MAREA":" ","LANE":"１２１巷","ALLEY":" ","HOUSE_NO":"２５之１號","E_COORD97":183965.62,"N_COORD97":2569357.8500000001,"ADDRESS":"珊瑚路１２１巷２５之１號","OBJECTID":437308},"geometry":{"x":183965.62000000011,"y":2569357.8500000034}},{"attributes":{"ID":437334,"DIS_CODE":0,"TOWNNAME":"六甲區","LI":"甲南里","LIN":" ","STREET":"珊瑚路","SECT":" ","MAREA":" ","LANE":"１２２巷","ALLEY":" ","HOUSE_NO":"４號","E_COORD97":183906.28,"N_COORD97":2569135.25,"ADDRESS":"珊瑚路１２２巷４號","OBJECTID":437309},"geometry":{"x":183906.28000000119,"y":2569135.2500000037}},{"attributes":{"ID":437335,"DIS_CODE":0,"TOWNNAME":"六甲區","LI":"龍湖里","LIN":" ","STREET":"珊瑚路","SECT":" ","MAREA":" ","LANE":"３１５巷","ALLEY":" ","HOUSE_NO":"２號","E_COORD97":184939.54999999999,"N_COORD97":2568311.0600000001,"ADDRESS":"珊瑚路３１５巷２號","OBJECTID":437310},"geometry":{"x":184939.55000000075,"y":2568311.0600000024}},{"attributes":{"ID":437336,"DIS_CODE":0,"TOWNNAME":"六甲區","LI":"甲東里","LIN":" ","STREET":"曾文街","SECT":" ","MAREA":" ","LANE":"１３０巷","ALLEY":" ","HOUSE_NO":"１號","E_COORD97":184820.35999999999,"N_COORD97":2570432.4399999999,"ADDRESS":"曾文街１３０巷１號","OBJECTID":437311},"geometry":{"x":184820.36000000034,"y":2570432.4400000013}},{"attributes":{"ID":437337,"DIS_CODE":0,"TOWNNAME":"六甲區","LI":"二甲里","LIN":" ","STREET":"進化街","SECT":" ","MAREA":" ","LANE":"８１巷","ALLEY":" ","HOUSE_NO":"１６０號","E_COORD97":182933.26000000001,"N_COORD97":2569378.23,"ADDRESS":"進化街８１巷１６０號","OBJECTID":437312},"geometry":{"x":182933.25999999978,"y":2569378.2300000004}},{"attributes":{"ID":437338,"DIS_CODE":0,"TOWNNAME":"關廟區","LI":"山西里","LIN":"7鄰","STREET":"中山路","SECT":"二段","MAREA":" ","LANE":"２６２巷","ALLEY":" ","HOUSE_NO":"１０之６號","E_COORD97":179920.01000000001,"N_COORD97":2540791.2999999998,"ADDRESS":"中山路２段２６２巷１０之６號","OBJECTID":437313},"geometry":{"x":179920.01000000164,"y":2540791.3000000007}},{"attributes":{"ID":437339,"DIS_CODE":0,"TOWNNAME":"關廟區","LI":"香洋里","LIN":" ","STREET":"忠孝街","SECT":" ","MAREA":" ","LANE":"１０６巷","ALLEY":" ","HOUSE_NO":"２號","E_COORD97":181050.84,"N_COORD97":2540246.25,"ADDRESS":"忠孝街１０６巷２號","OBJECTID":437314},"geometry":{"x":181050.84000000078,"y":2540246.2500000019}},{"attributes":{"ID":437340,"DIS_CODE":0,"TOWNNAME":"仁德區","LI":"土庫里","LIN":" ","STREET":"土庫一街","SECT":" ","MAREA":" ","LANE":"５６巷","ALLEY":" ","HOUSE_NO":"１１號","E_COORD97":174545.09,"N_COORD97":2543077.2400000002,"ADDRESS":"土庫一街５６巷１１號","OBJECTID":437315},"geometry":{"x":174545.08999999985,"y":2543077.2400000021}},{"attributes":{"ID":437341,"DIS_CODE":0,"TOWNNAME":"仁德區","LI":"仁義里","LIN":" ","STREET":"中山路","SECT":" ","MAREA":" ","LANE":"８６２巷","ALLEY":" ","HOUSE_NO":"４５號","E_COORD97":173908.98000000001,"N_COORD97":2539916.75,"ADDRESS":"中山路８６２巷４５號","OBJECTID":437316},"geometry":{"x":173908.98000000045,"y":2539916.7500000037}},{"attributes":{"ID":437342,"DIS_CODE":0,"TOWNNAME":"仁德區","LI":"成功里","LIN":" ","STREET":"成功三街","SECT":" ","MAREA":" ","LANE":"１３巷","ALLEY":" ","HOUSE_NO":"３號","E_COORD97":171186.60000000001,"N_COORD97":2540012.02,"ADDRESS":"成功三街１３巷３號","OBJECTID":437317},"geometry":{"x":171186.59999999963,"y":2540012.0199999996}},{"attributes":{"ID":437343,"DIS_CODE":0,"TOWNNAME":"仁德區","LI":"後壁里","LIN":"34鄰","STREET":"德洋二街","SECT":" ","MAREA":" ","LANE":"５巷","ALLEY":" ","HOUSE_NO":"８號之２","E_COORD97":172488.70999999999,"N_COORD97":2539342.54,"ADDRESS":"德洋二街５巷８號之２","OBJECTID":437318},"geometry":{"x":172488.70999999903,"y":2539342.540000001}},{"attributes":{"ID":437344,"DIS_CODE":0,"TOWNNAME":"仁德區","LI":"成功里","LIN":"8鄰","STREET":"保華路","SECT":" ","MAREA":" ","LANE":"１２９巷","ALLEY":" ","HOUSE_NO":"２２號","E_COORD97":171092.47,"N_COORD97":2539992,"ADDRESS":"保華路１２９巷２２號","OBJECTID":437319},"geometry":{"x":171092.47000000067,"y":2539992}},{"attributes":{"ID":437345,"DIS_CODE":0,"TOWNNAME":"仁德區","LI":"後壁里","LIN":" ","STREET":"中正路","SECT":"二段","MAREA":" ","LANE":"３１８巷","ALLEY":" ","HOUSE_NO":"７號","E_COORD97":173301.54000000001,"N_COORD97":2539037.27,"ADDRESS":"中正路二段３１８巷７號","OBJECTID":437320},"geometry":{"x":173301.54000000004,"y":2539037.2699999996}},{"attributes":{"ID":437346,"DIS_CODE":0,"TOWNNAME":"仁德區","LI":"新田里","LIN":" ","STREET":"新田路","SECT":" ","MAREA":" ","LANE":"３４巷","ALLEY":" ","HOUSE_NO":"１號","E_COORD97":174499.85000000001,"N_COORD97":2538971,"ADDRESS":"新田路３４巷１號","OBJECTID":437321},"geometry":{"x":174499.85000000056,"y":2538971}},{"attributes":{"ID":437347,"DIS_CODE":0,"TOWNNAME":"仁德區","LI":"一甲里","LIN":" ","STREET":"忠義一街","SECT":" ","MAREA":" ","LANE":"３８巷","ALLEY":" ","HOUSE_NO":"６號","E_COORD97":174117.94,"N_COORD97":2542104.02,"ADDRESS":"忠義一街３８巷６號","OBJECTID":437322},"geometry":{"x":174117.94000000041,"y":2542104.0199999996}},{"attributes":{"ID":437348,"DIS_CODE":0,"TOWNNAME":"仁德區","LI":"保安里","LIN":" ","STREET":"文賢路","SECT":"一段","MAREA":" ","LANE":"５５４巷","ALLEY":" ","HOUSE_NO":"１１號","E_COORD97":171044.53,"N_COORD97":2536869.8199999998,"ADDRESS":"文賢路一段５５４巷１１號","OBJECTID":437323},"geometry":{"x":171044.53000000119,"y":2536869.8200000022}},{"attributes":{"ID":437349,"DIS_CODE":0,"TOWNNAME":"仁德區","LI":"上崙里","LIN":" ","STREET":"德崙路","SECT":" ","MAREA":" ","LANE":"４０６巷","ALLEY":" ","HOUSE_NO":"１號","E_COORD97":174114.79000000001,"N_COORD97":2538055.77,"ADDRESS":"德崙路４０６巷１號","OBJECTID":437324},"geometry":{"x":174114.79000000097,"y":2538055.7700000014}},{"attributes":{"ID":437350,"DIS_CODE":0,"TOWNNAME":"仁德區","LI":"田厝里","LIN":" ","STREET":"中正路","SECT":"一段","MAREA":" ","LANE":"４４５巷","ALLEY":" ","HOUSE_NO":"２０２號","E_COORD97":172540.60999999999,"N_COORD97":2537199.7799999998,"ADDRESS":"中正路一段４４５巷２０２號","OBJECTID":437325},"geometry":{"x":172540.6099999994,"y":2537199.7799999993}},{"attributes":{"ID":437351,"DIS_CODE":0,"TOWNNAME":"仁德區","LI":"田厝里","LIN":" ","STREET":"田厝二街","SECT":" ","MAREA":" ","LANE":"５８巷","ALLEY":" ","HOUSE_NO":"１０號","E_COORD97":172441.57000000001,"N_COORD97":2537667.7400000002,"ADDRESS":"田厝二街５８巷１０號","OBJECTID":437326},"geometry":{"x":172441.57000000123,"y":2537667.7400000002}},{"attributes":{"ID":437352,"DIS_CODE":0,"TOWNNAME":"仁德區","LI":"田厝里","LIN":" ","STREET":"田厝二街","SECT":" ","MAREA":" ","LANE":"９０巷","ALLEY":" ","HOUSE_NO":"１５號","E_COORD97":172352.69,"N_COORD97":2537784.4900000002,"ADDRESS":"田厝二街９０巷１５號","OBJECTID":437327},"geometry":{"x":172352.69000000134,"y":2537784.4900000021}},{"attributes":{"ID":437353,"DIS_CODE":0,"TOWNNAME":"仁德區","LI":"保安里","LIN":" ","STREET":"中正路","SECT":"一段","MAREA":" ","LANE":"３３巷","ALLEY":" ","HOUSE_NO":"２號","E_COORD97":170786.23999999999,"N_COORD97":2535564.5299999998,"ADDRESS":"中正路一段３３巷２號","OBJECTID":437328},"geometry":{"x":170786.24000000022,"y":2535564.5300000031}},{"attributes":{"ID":437354,"DIS_CODE":0,"TOWNNAME":"仁德區","LI":"一甲里","LIN":" ","STREET":"中正路","SECT":"三段","MAREA":" ","LANE":"１６２巷","ALLEY":" ","HOUSE_NO":"１４號","E_COORD97":173501.16,"N_COORD97":2541726.5899999999,"ADDRESS":"中正路三段１６２巷１４號","OBJECTID":437329},"geometry":{"x":173501.16000000015,"y":2541726.5899999999}},{"attributes":{"ID":437355,"DIS_CODE":0,"TOWNNAME":"仁德區","LI":"後壁里","LIN":" ","STREET":"德洋路","SECT":" ","MAREA":" ","LANE":"２０５巷","ALLEY":" ","HOUSE_NO":"２３號","E_COORD97":172430.98999999999,"N_COORD97":2539513.27,"ADDRESS":"德洋路２０５巷２３號","OBJECTID":437330},"geometry":{"x":172430.99000000022,"y":2539513.2700000014}},{"attributes":{"ID":437356,"DIS_CODE":0,"TOWNNAME":"仁德區","LI":"新田里","LIN":" ","STREET":"勝利一街","SECT":" ","MAREA":" ","LANE":"１１巷","ALLEY":" ","HOUSE_NO":"１２號","E_COORD97":173993.45000000001,"N_COORD97":2539546.75,"ADDRESS":"勝利一街１１巷１２號","OBJECTID":437331},"geometry":{"x":173993.45000000112,"y":2539546.75}},{"attributes":{"ID":437357,"DIS_CODE":0,"TOWNNAME":"新市區","LI":"新和里","LIN":" ","STREET":"成功街","SECT":" ","MAREA":" ","LANE":"２巷","ALLEY":" ","HOUSE_NO":"２之５號","E_COORD97":177479.67000000001,"N_COORD97":2552538.7999999998,"ADDRESS":"成功街２巷２之５號","OBJECTID":437332},"geometry":{"x":177479.67000000179,"y":2552538.8000000007}},{"attributes":{"ID":437358,"DIS_CODE":0,"TOWNNAME":"新市區","LI":"新和里","LIN":" ","STREET":"成功街","SECT":" ","MAREA":" ","LANE":"２巷","ALLEY":" ","HOUSE_NO":"２之１號","E_COORD97":177491.60000000001,"N_COORD97":2552558.2999999998,"ADDRESS":"成功街２巷２之１號","OBJECTID":437333},"geometry":{"x":177491.5999999987,"y":2552558.3000000007}},{"attributes":{"ID":437359,"DIS_CODE":0,"TOWNNAME":"新市區","LI":"港墘里","LIN":" ","STREET":"中山路","SECT":" ","MAREA":" ","LANE":"１３巷","ALLEY":" ","HOUSE_NO":"１１號","E_COORD97":179212.26999999999,"N_COORD97":2553806.5,"ADDRESS":"中山路１３巷１１號","OBJECTID":437334},"geometry":{"x":179212.26999999955,"y":2553806.5000000019}},{"attributes":{"ID":437360,"DIS_CODE":0,"TOWNNAME":"新市區","LI":"新和里","LIN":" ","STREET":"成功街","SECT":" ","MAREA":" ","LANE":"２巷","ALLEY":" ","HOUSE_NO":"２之３號","E_COORD97":177491.92000000001,"N_COORD97":2552547.7999999998,"ADDRESS":"成功街２巷２之３號","OBJECTID":437335},"geometry":{"x":177491.92000000086,"y":2552547.8000000026}},{"attributes":{"ID":437361,"DIS_CODE":0,"TOWNNAME":"新市區","LI":"新和里","LIN":" ","STREET":"成功街","SECT":" ","MAREA":" ","LANE":"２巷","ALLEY":" ","HOUSE_NO":"２之４號","E_COORD97":177491.81,"N_COORD97":2552539.7999999998,"ADDRESS":"成功街２巷２之４號","OBJECTID":437336},"geometry":{"x":177491.80999999866,"y":2552539.8000000045}},{"attributes":{"ID":437362,"DIS_CODE":0,"TOWNNAME":"新市區","LI":"港墘里","LIN":" ","STREET":"南昌街","SECT":" ","MAREA":" ","LANE":"３８巷","ALLEY":" ","HOUSE_NO":"１號","E_COORD97":177998.10000000001,"N_COORD97":2552984.25,"ADDRESS":"南昌街３８巷１號","OBJECTID":437337},"geometry":{"x":177998.09999999963,"y":2552984.2500000019}},{"attributes":{"ID":437363,"DIS_CODE":0,"TOWNNAME":"新市區","LI":"新和里","LIN":" ","STREET":"忠孝街","SECT":" ","MAREA":" ","LANE":"２２７巷","ALLEY":" ","HOUSE_NO":"２之９號","E_COORD97":177669.35000000001,"N_COORD97":2552948.0499999998,"ADDRESS":"忠孝街２２７巷２之９號","OBJECTID":437338},"geometry":{"x":177669.34999999963,"y":2552948.0500000045}},{"attributes":{"ID":437364,"DIS_CODE":0,"TOWNNAME":"西港區","LI":"慶安里","LIN":" ","STREET":"中山路","SECT":" ","MAREA":" ","LANE":"１１７巷","ALLEY":" ","HOUSE_NO":"８之１號","E_COORD97":168432.47,"N_COORD97":2557492.77,"ADDRESS":"中山路１１７巷８之１號","OBJECTID":437339},"geometry":{"x":168432.47000000067,"y":2557492.7700000014}},{"attributes":{"ID":437365,"DIS_CODE":0,"TOWNNAME":"西港區","LI":"慶安里","LIN":" ","STREET":"中山路","SECT":" ","MAREA":" ","LANE":"２４３巷","ALLEY":" ","HOUSE_NO":"８號","E_COORD97":168381.39000000001,"N_COORD97":2557883.6800000002,"ADDRESS":"中山路２４３巷８號","OBJECTID":437340},"geometry":{"x":168381.38999999873,"y":2557883.6800000016}},{"attributes":{"ID":437366,"DIS_CODE":0,"TOWNNAME":"西港區","LI":"西港里","LIN":" ","STREET":"文化路","SECT":" ","MAREA":" ","LANE":"６９巷","ALLEY":" ","HOUSE_NO":"２號","E_COORD97":168762.87,"N_COORD97":2558420.98,"ADDRESS":"文化路６９巷２號","OBJECTID":437341},"geometry":{"x":168762.87000000011,"y":2558420.9800000023}},{"attributes":{"ID":437367,"DIS_CODE":0,"TOWNNAME":"西港區","LI":"西港里","LIN":" ","STREET":"文化路","SECT":" ","MAREA":" ","LANE":"６９巷","ALLEY":" ","HOUSE_NO":"７之１號","E_COORD97":168592.12,"N_COORD97":2558777.5800000001,"ADDRESS":"文化路６９巷７之１號","OBJECTID":437342},"geometry":{"x":168592.12000000011,"y":2558777.5800000001}},{"attributes":{"ID":437368,"DIS_CODE":0,"TOWNNAME":"西港區","LI":"慶安里","LIN":" ","STREET":"進學街","SECT":" ","MAREA":" ","LANE":"４９巷","ALLEY":" ","HOUSE_NO":"２號","E_COORD97":168283.19,"N_COORD97":2558025.2799999998,"ADDRESS":"進學街４９巷２號","OBJECTID":437343},"geometry":{"x":168283.19000000041,"y":2558025.2800000012}},{"attributes":{"ID":437369,"DIS_CODE":0,"TOWNNAME":"西港區","LI":"慶安里","LIN":" ","STREET":"進學街","SECT":" ","MAREA":" ","LANE":"４９巷","ALLEY":" ","HOUSE_NO":"３號","E_COORD97":168282.92000000001,"N_COORD97":2558021.2200000002,"ADDRESS":"進學街４９巷３號","OBJECTID":437344},"geometry":{"x":168282.91999999993,"y":2558021.2200000007}},{"attributes":{"ID":437370,"DIS_CODE":0,"TOWNNAME":"西港區","LI":"慶安里","LIN":" ","STREET":"進學街","SECT":" ","MAREA":" ","LANE":"４９巷","ALLEY":" ","HOUSE_NO":"４號","E_COORD97":168282.57000000001,"N_COORD97":2558017.6299999999,"ADDRESS":"進學街４９巷４號","OBJECTID":437345},"geometry":{"x":168282.56999999937,"y":2558017.6300000027}},{"attributes":{"ID":437371,"DIS_CODE":0,"TOWNNAME":"西港區","LI":"慶安里","LIN":" ","STREET":"新興街","SECT":" ","MAREA":" ","LANE":"１０７巷","ALLEY":" ","HOUSE_NO":"３之１號","E_COORD97":168145.70000000001,"N_COORD97":2558162.4199999999,"ADDRESS":"新興街１０７巷３之１號","OBJECTID":437346},"geometry":{"x":168145.70000000019,"y":2558162.4199999981}},{"attributes":{"ID":437372,"DIS_CODE":0,"TOWNNAME":"西港區","LI":"慶安里","LIN":" ","STREET":"新興街","SECT":" ","MAREA":" ","LANE":"１０７巷","ALLEY":" ","HOUSE_NO":"３之２號","E_COORD97":168143.73000000001,"N_COORD97":2558169.3900000001,"ADDRESS":"新興街１０７巷３之２號","OBJECTID":437347},"geometry":{"x":168143.73000000045,"y":2558169.3900000006}},{"attributes":{"ID":437373,"DIS_CODE":0,"TOWNNAME":"西港區","LI":"慶安里","LIN":" ","STREET":"新興街","SECT":" ","MAREA":" ","LANE":"１０７巷","ALLEY":" ","HOUSE_NO":"３之３號","E_COORD97":168144.38,"N_COORD97":2558175.25,"ADDRESS":"新興街１０７巷３之３號","OBJECTID":437348},"geometry":{"x":168144.37999999896,"y":2558175.2500000019}},{"attributes":{"ID":437374,"DIS_CODE":0,"TOWNNAME":"西港區","LI":"慶安里","LIN":" ","STREET":"新興街","SECT":" ","MAREA":" ","LANE":"１０７巷","ALLEY":" ","HOUSE_NO":"５之１號","E_COORD97":168141.37,"N_COORD97":2558125.5,"ADDRESS":"新興街１０７巷５之１號","OBJECTID":437349},"geometry":{"x":168141.37000000197,"y":2558125.5000000019}},{"attributes":{"ID":437375,"DIS_CODE":0,"TOWNNAME":"西港區","LI":"慶安里","LIN":" ","STREET":"新興街","SECT":" ","MAREA":" ","LANE":"１０７巷","ALLEY":" ","HOUSE_NO":"５之２號","E_COORD97":168141.32000000001,"N_COORD97":2558129.9199999999,"ADDRESS":"新興街１０７巷５之２號","OBJECTID":437350},"geometry":{"x":168141.3200000003,"y":2558129.9200000018}},{"attributes":{"ID":437376,"DIS_CODE":0,"TOWNNAME":"西港區","LI":"慶安里","LIN":" ","STREET":"新興街","SECT":" ","MAREA":" ","LANE":"１０７巷","ALLEY":" ","HOUSE_NO":"５之３號","E_COORD97":168145.97,"N_COORD97":2558142.2799999998,"ADDRESS":"新興街１０７巷５之３號","OBJECTID":437351},"geometry":{"x":168145.97000000067,"y":2558142.2799999993}},{"attributes":{"ID":437377,"DIS_CODE":0,"TOWNNAME":"西港區","LI":"慶安里","LIN":" ","STREET":"新興街","SECT":" ","MAREA":" ","LANE":"１０７巷","ALLEY":" ","HOUSE_NO":"７之１號","E_COORD97":168145.29999999999,"N_COORD97":2558094.7999999998,"ADDRESS":"新興街１０７巷７之１號","OBJECTID":437352},"geometry":{"x":168145.30000000075,"y":2558094.8000000007}},{"attributes":{"ID":437378,"DIS_CODE":0,"TOWNNAME":"西港區","LI":"慶安里","LIN":" ","STREET":"新興街","SECT":" ","MAREA":" ","LANE":"１０７巷","ALLEY":" ","HOUSE_NO":"７之３號","E_COORD97":168141.20999999999,"N_COORD97":2558111.3399999999,"ADDRESS":"新興街１０７巷７之３號","OBJECTID":437353},"geometry":{"x":168141.21000000089,"y":2558111.3399999999}},{"attributes":{"ID":437379,"DIS_CODE":0,"TOWNNAME":"西港區","LI":"慶安里","LIN":" ","STREET":"新興街","SECT":" ","MAREA":" ","LANE":"１０７巷","ALLEY":" ","HOUSE_NO":"７之５號","E_COORD97":168147.39999999999,"N_COORD97":2558111.8799999999,"ADDRESS":"新興街１０７巷７之５號","OBJECTID":437354},"geometry":{"x":168147.4000000013,"y":2558111.8800000008}},{"attributes":{"ID":437380,"DIS_CODE":0,"TOWNNAME":"西港區","LI":"慶安里","LIN":" ","STREET":"新興街","SECT":" ","MAREA":" ","LANE":"１２巷","ALLEY":" ","HOUSE_NO":"３號","E_COORD97":168255.75,"N_COORD97":2557782.48,"ADDRESS":"新興街１２巷３號","OBJECTID":437355},"geometry":{"x":168255.75000000186,"y":2557782.4800000004}},{"attributes":{"ID":437381,"DIS_CODE":0,"TOWNNAME":"西港區","LI":"慶安里","LIN":" ","STREET":"新興街","SECT":" ","MAREA":" ","LANE":"１５巷","ALLEY":" ","HOUSE_NO":"１６號","E_COORD97":168172.16,"N_COORD97":2557773.9100000001,"ADDRESS":"新興街１５巷１６號","OBJECTID":437356},"geometry":{"x":168172.16000000108,"y":2557773.910000002}},{"attributes":{"ID":437382,"DIS_CODE":0,"TOWNNAME":"西港區","LI":"慶安里","LIN":" ","STREET":"新興街","SECT":" ","MAREA":" ","LANE":"２０１巷","ALLEY":" ","HOUSE_NO":"４號","E_COORD97":168125.60000000001,"N_COORD97":2558564.6000000001,"ADDRESS":"新興街２０１巷４號","OBJECTID":437357},"geometry":{"x":168125.59999999963,"y":2558564.6000000034}},{"attributes":{"ID":437383,"DIS_CODE":0,"TOWNNAME":"西港區","LI":"慶安里","LIN":" ","STREET":"慶安路","SECT":" ","MAREA":" ","LANE":"１８巷","ALLEY":" ","HOUSE_NO":"５號","E_COORD97":168353.35999999999,"N_COORD97":2557973.1800000002,"ADDRESS":"慶安路１８巷５號","OBJECTID":437358},"geometry":{"x":168353.36000000034,"y":2557973.1799999997}},{"attributes":{"ID":437384,"DIS_CODE":0,"TOWNNAME":"西港區","LI":"慶安里","LIN":" ","STREET":"慶安路","SECT":" ","MAREA":" ","LANE":"３３巷","ALLEY":" ","HOUSE_NO":"１號","E_COORD97":168327.34,"N_COORD97":2557888.25,"ADDRESS":"慶安路３３巷１號","OBJECTID":437359},"geometry":{"x":168327.33999999985,"y":2557888.25}},{"attributes":{"ID":437385,"DIS_CODE":0,"TOWNNAME":"西港區","LI":"慶安里","LIN":" ","STREET":"慶安路","SECT":" ","MAREA":" ","LANE":"５９巷","ALLEY":" ","HOUSE_NO":"９號","E_COORD97":168294.32000000001,"N_COORD97":2557859.8100000001,"ADDRESS":"慶安路５９巷９號","OBJECTID":437360},"geometry":{"x":168294.3200000003,"y":2557859.8100000024}},{"attributes":{"ID":437386,"DIS_CODE":0,"TOWNNAME":"西港區","LI":"慶安里","LIN":" ","STREET":"慶安路","SECT":" ","MAREA":" ","LANE":"９７巷","ALLEY":" ","HOUSE_NO":"３４號","E_COORD97":168104.32000000001,"N_COORD97":2557789.8599999999,"ADDRESS":"慶安路９７巷３４號","OBJECTID":437361},"geometry":{"x":168104.3200000003,"y":2557789.8600000013}},{"attributes":{"ID":437387,"DIS_CODE":0,"TOWNNAME":"新市區","LI":"新市里","LIN":" ","STREET":"復興路","SECT":" ","MAREA":" ","LANE":"６２巷","ALLEY":" ","HOUSE_NO":"９之２５號","E_COORD97":177915.79000000001,"N_COORD97":2553508.7999999998,"ADDRESS":"復興路６２巷９之２５號","OBJECTID":437362},"geometry":{"x":177915.79000000004,"y":2553508.8000000007}},{"attributes":{"ID":437388,"DIS_CODE":0,"TOWNNAME":"新市區","LI":"永就里","LIN":" ","STREET":"中山路","SECT":" ","MAREA":" ","LANE":"２７１巷","ALLEY":" ","HOUSE_NO":"２２號","E_COORD97":176770.23999999999,"N_COORD97":2551491.25,"ADDRESS":"中山路２７１巷２２號","OBJECTID":437363},"geometry":{"x":176770.24000000022,"y":2551491.25}},{"attributes":{"ID":437389,"DIS_CODE":0,"TOWNNAME":"新市區","LI":"新和里","LIN":" ","STREET":"民生路","SECT":" ","MAREA":" ","LANE":"２巷","ALLEY":" ","HOUSE_NO":"３號","E_COORD97":177381.26000000001,"N_COORD97":2553188.79,"ADDRESS":"民生路２巷３號","OBJECTID":437364},"geometry":{"x":177381.26000000071,"y":2553188.7900000028}},{"attributes":{"ID":437390,"DIS_CODE":0,"TOWNNAME":"新市區","LI":"永就里","LIN":" ","STREET":"中華路","SECT":" ","MAREA":" ","LANE":"５３巷","ALLEY":" ","HOUSE_NO":"９號","E_COORD97":177714.70999999999,"N_COORD97":2551596.5,"ADDRESS":"中華路５３巷９號","OBJECTID":437365},"geometry":{"x":177714.70999999996,"y":2551596.5000000019}},{"attributes":{"ID":437391,"DIS_CODE":0,"TOWNNAME":"新市區","LI":"新市里","LIN":" ","STREET":"復興路","SECT":" ","MAREA":" ","LANE":"６２巷","ALLEY":" ","HOUSE_NO":"９之２７號","E_COORD97":177928.98999999999,"N_COORD97":2553509.5499999998,"ADDRESS":"復興路６２巷９之２７號","OBJECTID":437366},"geometry":{"x":177928.99000000115,"y":2553509.5500000007}},{"attributes":{"ID":437392,"DIS_CODE":0,"TOWNNAME":"新市區","LI":"新市里","LIN":" ","STREET":"復興路","SECT":" ","MAREA":" ","LANE":"６２巷","ALLEY":" ","HOUSE_NO":"９之３２號","E_COORD97":177968.73999999999,"N_COORD97":2553511.2999999998,"ADDRESS":"復興路６２巷９之３２號","OBJECTID":437367},"geometry":{"x":177968.74000000022,"y":2553511.3000000007}},{"attributes":{"ID":437393,"DIS_CODE":0,"TOWNNAME":"新市區","LI":"新市里","LIN":" ","STREET":"復興路","SECT":" ","MAREA":" ","LANE":"６２巷","ALLEY":" ","HOUSE_NO":"９之１１號","E_COORD97":177936.48999999999,"N_COORD97":2553490.5499999998,"ADDRESS":"復興路６２巷９之１１號","OBJECTID":437368},"geometry":{"x":177936.49000000022,"y":2553490.5500000045}},{"attributes":{"ID":437394,"DIS_CODE":0,"TOWNNAME":"新市區","LI":"新市里","LIN":" ","STREET":"復興路","SECT":" ","MAREA":" ","LANE":"６２巷","ALLEY":" ","HOUSE_NO":"９之６號","E_COORD97":177908.09,"N_COORD97":2553489.2999999998,"ADDRESS":"復興路６２巷９之６號","OBJECTID":437369},"geometry":{"x":177908.09000000078,"y":2553489.3000000026}},{"attributes":{"ID":437395,"DIS_CODE":0,"TOWNNAME":"新市區","LI":"新市里","LIN":" ","STREET":"復興路","SECT":" ","MAREA":" ","LANE":"６２巷","ALLEY":" ","HOUSE_NO":"９之１號","E_COORD97":177884.98999999999,"N_COORD97":2553488.5499999998,"ADDRESS":"復興路６２巷９之１號","OBJECTID":437370},"geometry":{"x":177884.99000000115,"y":2553488.5500000026}},{"attributes":{"ID":437396,"DIS_CODE":0,"TOWNNAME":"新市區","LI":"新市里","LIN":" ","STREET":"復興路","SECT":" ","MAREA":" ","LANE":"６２巷","ALLEY":" ","HOUSE_NO":"９之２０號","E_COORD97":177979.20000000001,"N_COORD97":2553492.2999999998,"ADDRESS":"復興路６２巷９之２０號","OBJECTID":437371},"geometry":{"x":177979.20000000019,"y":2553492.3000000045}},{"attributes":{"ID":437397,"DIS_CODE":0,"TOWNNAME":"新市區","LI":"新市里","LIN":" ","STREET":"復興路","SECT":" ","MAREA":" ","LANE":"６２巷","ALLEY":" ","HOUSE_NO":"９之１５號","E_COORD97":177959.04000000001,"N_COORD97":2553491.2999999998,"ADDRESS":"復興路６２巷９之１５號","OBJECTID":437372},"geometry":{"x":177959.04000000097,"y":2553491.3000000007}},{"attributes":{"ID":437398,"DIS_CODE":0,"TOWNNAME":"仁德區","LI":"保安里","LIN":" ","STREET":"文賢路","SECT":"一段","MAREA":" ","LANE":"５２９巷","ALLEY":" ","HOUSE_NO":"５號","E_COORD97":171159.67000000001,"N_COORD97":2537052.8199999998,"ADDRESS":"文賢路一段５２９巷５號","OBJECTID":437373},"geometry":{"x":171159.66999999993,"y":2537052.8200000022}},{"attributes":{"ID":437399,"DIS_CODE":0,"TOWNNAME":"仁德區","LI":"上崙里","LIN":"11鄰","STREET":"德崙路","SECT":" ","MAREA":" ","LANE":"３６９巷","ALLEY":" ","HOUSE_NO":"１４號","E_COORD97":174120.59,"N_COORD97":2538164.5499999998,"ADDRESS":"德崙路３６９巷１４號","OBJECTID":437374},"geometry":{"x":174120.59000000078,"y":2538164.5500000007}},{"attributes":{"ID":437400,"DIS_CODE":0,"TOWNNAME":"仁德區","LI":"保安里","LIN":" ","STREET":"保安路","SECT":"一段","MAREA":" ","LANE":"７２巷","ALLEY":" ","HOUSE_NO":"４號","E_COORD97":170757.29000000001,"N_COORD97":2536298.3199999998,"ADDRESS":"保安路一段７２巷４號","OBJECTID":437375},"geometry":{"x":170757.29000000004,"y":2536298.3200000003}},{"attributes":{"ID":437401,"DIS_CODE":0,"TOWNNAME":"仁德區","LI":"成功里","LIN":"6鄰","STREET":"成功三街","SECT":" ","MAREA":" ","LANE":"５７巷","ALLEY":" ","HOUSE_NO":"３號之１","E_COORD97":171270.37,"N_COORD97":2539922.7999999998,"ADDRESS":"成功三街５７巷３號之１","OBJECTID":437376},"geometry":{"x":171270.37000000011,"y":2539922.8000000007}},{"attributes":{"ID":437402,"DIS_CODE":0,"TOWNNAME":"仁德區","LI":"田厝里","LIN":" ","STREET":"田厝二街","SECT":" ","MAREA":" ","LANE":"６４巷","ALLEY":" ","HOUSE_NO":"３２號","E_COORD97":172468.91,"N_COORD97":2537728.5,"ADDRESS":"田厝二街６４巷３２號","OBJECTID":437377},"geometry":{"x":172468.90999999922,"y":2537728.5000000037}},{"attributes":{"ID":437403,"DIS_CODE":0,"TOWNNAME":"仁德區","LI":"成功里","LIN":" ","STREET":"成功三街","SECT":" ","MAREA":" ","LANE":"５７巷","ALLEY":" ","HOUSE_NO":"５號","E_COORD97":171253.66,"N_COORD97":2539909.27,"ADDRESS":"成功三街５７巷５號","OBJECTID":437378},"geometry":{"x":171253.66000000201,"y":2539909.2699999977}},{"attributes":{"ID":437404,"DIS_CODE":0,"TOWNNAME":"仁德區","LI":"上崙里","LIN":" ","STREET":"德崙路","SECT":" ","MAREA":" ","LANE":"４４２巷","ALLEY":" ","HOUSE_NO":"１１號","E_COORD97":174162.57000000001,"N_COORD97":2538049.52,"ADDRESS":"德崙路４４２巷１１號","OBJECTID":437379},"geometry":{"x":174162.5700000003,"y":2538049.5199999977}},{"attributes":{"ID":437405,"DIS_CODE":0,"TOWNNAME":"仁德區","LI":"上崙里","LIN":" ","STREET":"德崙路","SECT":" ","MAREA":" ","LANE":"２９１巷","ALLEY":" ","HOUSE_NO":"１３之１號","E_COORD97":173861.09,"N_COORD97":2538185.04,"ADDRESS":"德崙路２９１巷１３之１號","OBJECTID":437380},"geometry":{"x":173861.09000000078,"y":2538185.0400000028}},{"attributes":{"ID":437406,"DIS_CODE":0,"TOWNNAME":"仁德區","LI":"保安里","LIN":" ","STREET":"文賢路","SECT":"一段","MAREA":" ","LANE":"８０５巷","ALLEY":" ","HOUSE_NO":"１號","E_COORD97":171564.45999999999,"N_COORD97":2536081.0800000001,"ADDRESS":"文賢路一段８０５巷１號","OBJECTID":437381},"geometry":{"x":171564.45999999996,"y":2536081.0800000019}},{"attributes":{"ID":437407,"DIS_CODE":0,"TOWNNAME":"仁德區","LI":"成功里","LIN":" ","STREET":"成功一街","SECT":" ","MAREA":" ","LANE":"２０１巷","ALLEY":" ","HOUSE_NO":"４號","E_COORD97":170600.45999999999,"N_COORD97":2539734.2599999998,"ADDRESS":"成功一街２０１巷４號","OBJECTID":437382},"geometry":{"x":170600.46000000183,"y":2539734.2600000016}},{"attributes":{"ID":437408,"DIS_CODE":0,"TOWNNAME":"仁德區","LI":"田厝里","LIN":" ","STREET":"田厝二街","SECT":" ","MAREA":" ","LANE":"７１巷","ALLEY":" ","HOUSE_NO":"１號","E_COORD97":172322.10999999999,"N_COORD97":2537655.2400000002,"ADDRESS":"田厝二街７１巷１號","OBJECTID":437383},"geometry":{"x":172322.1100000022,"y":2537655.2400000002}},{"attributes":{"ID":437409,"DIS_CODE":0,"TOWNNAME":"仁德區","LI":"成功里","LIN":" ","STREET":"成功二街","SECT":" ","MAREA":" ","LANE":"３１巷","ALLEY":" ","HOUSE_NO":"１號","E_COORD97":170921.31,"N_COORD97":2539861.7599999998,"ADDRESS":"成功二街３１巷１號","OBJECTID":437384},"geometry":{"x":170921.31000000145,"y":2539861.7599999998}},{"attributes":{"ID":437410,"DIS_CODE":0,"TOWNNAME":"仁德區","LI":"上崙里","LIN":" ","STREET":"上崙一街","SECT":" ","MAREA":" ","LANE":"２９巷","ALLEY":" ","HOUSE_NO":"６號","E_COORD97":173850.45000000001,"N_COORD97":2538048.5,"ADDRESS":"上崙一街２９巷６號","OBJECTID":437385},"geometry":{"x":173850.45000000205,"y":2538048.5000000019}},{"attributes":{"ID":437411,"DIS_CODE":0,"TOWNNAME":"仁德區","LI":"土庫里","LIN":" ","STREET":"土庫三街","SECT":" ","MAREA":" ","LANE":"３９巷","ALLEY":" ","HOUSE_NO":"１０號","E_COORD97":174226.14999999999,"N_COORD97":2543144.9900000002,"ADDRESS":"土庫三街３９巷１０號","OBJECTID":437386},"geometry":{"x":174226.1500000013,"y":2543144.9900000002}},{"attributes":{"ID":437412,"DIS_CODE":0,"TOWNNAME":"仁德區","LI":"土庫里","LIN":" ","STREET":"土庫一街","SECT":" ","MAREA":" ","LANE":"２２巷","ALLEY":" ","HOUSE_NO":"１３號","E_COORD97":174495.10000000001,"N_COORD97":2543060.7400000002,"ADDRESS":"土庫一街２２巷１３號","OBJECTID":437387},"geometry":{"x":174495.10000000056,"y":2543060.7400000021}},{"attributes":{"ID":437413,"DIS_CODE":0,"TOWNNAME":"仁德區","LI":"土庫里","LIN":" ","STREET":"太子二街","SECT":" ","MAREA":" ","LANE":"１３８巷","ALLEY":" ","HOUSE_NO":"４號","E_COORD97":174470.92000000001,"N_COORD97":2543255.5,"ADDRESS":"太子二街１３８巷４號","OBJECTID":437388},"geometry":{"x":174470.92000000086,"y":2543255.5000000019}},{"attributes":{"ID":437414,"DIS_CODE":0,"TOWNNAME":"仁德區","LI":"上崙里","LIN":" ","STREET":"德崙路","SECT":" ","MAREA":" ","LANE":"２９１巷","ALLEY":" ","HOUSE_NO":"２１號","E_COORD97":173827.54000000001,"N_COORD97":2538221.52,"ADDRESS":"德崙路２９１巷２１號","OBJECTID":437389},"geometry":{"x":173827.5400000019,"y":2538221.5199999996}},{"attributes":{"ID":437415,"DIS_CODE":0,"TOWNNAME":"仁德區","LI":"土庫里","LIN":"4鄰","STREET":"中正路","SECT":"三段","MAREA":" ","LANE":"５２３巷","ALLEY":" ","HOUSE_NO":"２號","E_COORD97":173938.03,"N_COORD97":2543076.27,"ADDRESS":"中正路三段５２３巷２號","OBJECTID":437390},"geometry":{"x":173938.03000000212,"y":2543076.2700000033}},{"attributes":{"ID":437416,"DIS_CODE":0,"TOWNNAME":"仁德區","LI":"田厝里","LIN":" ","STREET":"田厝二街","SECT":" ","MAREA":" ","LANE":"９０巷","ALLEY":" ","HOUSE_NO":"１７號","E_COORD97":172355.75,"N_COORD97":2537794.2400000002,"ADDRESS":"田厝二街９０巷１７號","OBJECTID":437391},"geometry":{"x":172355.75,"y":2537794.2400000002}},{"attributes":{"ID":437417,"DIS_CODE":0,"TOWNNAME":"仁德區","LI":"田厝里","LIN":" ","STREET":"田厝二街","SECT":" ","MAREA":" ","LANE":"７１巷","ALLEY":" ","HOUSE_NO":"５號","E_COORD97":172329.67000000001,"N_COORD97":2537649.5,"ADDRESS":"田厝二街７１巷５號","OBJECTID":437392},"geometry":{"x":172329.67000000179,"y":2537649.5}},{"attributes":{"ID":437418,"DIS_CODE":0,"TOWNNAME":"仁德區","LI":"土庫里","LIN":"22鄰","STREET":"太子路","SECT":" ","MAREA":" ","LANE":"１７９巷","ALLEY":"１１弄","HOUSE_NO":"１５號","E_COORD97":174469.09794000001,"N_COORD97":2543419.0642200001,"ADDRESS":"太子路１７９巷１１弄１５號","OBJECTID":437393},"geometry":{"x":174469.09793999977,"y":2543419.0642200019}},{"attributes":{"ID":437419,"DIS_CODE":0,"TOWNNAME":"仁德區","LI":"田厝里","LIN":" ","STREET":"田厝二街","SECT":" ","MAREA":" ","LANE":"９６巷","ALLEY":" ","HOUSE_NO":"７號","E_COORD97":172326.53,"N_COORD97":2537734.75,"ADDRESS":"田厝二街９６巷７號","OBJECTID":437394},"geometry":{"x":172326.53000000119,"y":2537734.7500000019}},{"attributes":{"ID":437420,"DIS_CODE":0,"TOWNNAME":"六甲區","LI":"甲東里","LIN":"14鄰","STREET":"忠孝街","SECT":" ","MAREA":" ","LANE":"１５６巷","ALLEY":" ","HOUSE_NO":"２號","E_COORD97":184011.35999999999,"N_COORD97":2569845.8100000001,"ADDRESS":"忠孝街１５６巷２號","OBJECTID":437395},"geometry":{"x":184011.36000000034,"y":2569845.8100000005}},{"attributes":{"ID":437421,"DIS_CODE":0,"TOWNNAME":"仁德區","LI":"仁德里","LIN":"12鄰","STREET":"中山路","SECT":" ","MAREA":" ","LANE":"６０６巷","ALLEY":" ","HOUSE_NO":"９號","E_COORD97":173226.99073399999,"N_COORD97":2541460.5634400002,"ADDRESS":"中山路６０６巷９號","OBJECTID":437396},"geometry":{"x":173226.99073400162,"y":2541460.5634359997}},{"attributes":{"ID":437422,"DIS_CODE":0,"TOWNNAME":"仁德區","LI":"保安里","LIN":" ","STREET":"中正路","SECT":"一段","MAREA":" ","LANE":"２１０巷","ALLEY":" ","HOUSE_NO":"１０號","E_COORD97":171644.23999999999,"N_COORD97":2535750.7799999998,"ADDRESS":"中正路一段２１０巷１０號","OBJECTID":437397},"geometry":{"x":171644.24000000022,"y":2535750.7800000012}},{"attributes":{"ID":437423,"DIS_CODE":0,"TOWNNAME":"仁德區","LI":"太子里","LIN":" ","STREET":"長興路","SECT":" ","MAREA":" ","LANE":"８７巷","ALLEY":" ","HOUSE_NO":"１０號","E_COORD97":174088.45000000001,"N_COORD97":2543818.0099999998,"ADDRESS":"長興路８７巷１０號","OBJECTID":437398},"geometry":{"x":174088.45000000112,"y":2543818.0100000016}},{"attributes":{"ID":437424,"DIS_CODE":0,"TOWNNAME":"仁德區","LI":"新田里","LIN":" ","STREET":"中正路","SECT":" ","MAREA":" ","LANE":"８６２巷","ALLEY":" ","HOUSE_NO":"４５號","E_COORD97":174256.01999999999,"N_COORD97":2540159.4900000002,"ADDRESS":"中正路８６２巷４５號","OBJECTID":437399},"geometry":{"x":174256.02000000142,"y":2540159.4900000039}},{"attributes":{"ID":437425,"DIS_CODE":0,"TOWNNAME":"仁德區","LI":"太子里","LIN":" ","STREET":"永大路","SECT":"一段","MAREA":" ","LANE":"５巷","ALLEY":" ","HOUSE_NO":"８８號","E_COORD97":173619.37,"N_COORD97":2543722.0299999998,"ADDRESS":"永大路一段５巷８８號","OBJECTID":437400},"geometry":{"x":173619.37000000104,"y":2543722.0300000012}}]}