{"displayFieldName":"TOWNNAME","fieldAliases":{"ID":"ID","DIS_CODE":"DIS_CODE","TOWNNAME":"TOWNNAME","LI":"LI","LIN":"LIN","STREET":"STREET","SECT":"SECT","MAREA":"MAREA","LANE":"LANE","ALLEY":"ALLEY","HOUSE_NO":"HOUSE_NO","E_COORD97":"E_COORD97","N_COORD97":"N_COORD97","ADDRESS":"ADDRESS","OBJECTID":"OBJECTID"},"geometryType":"esriGeometryPoint","spatialReference":{"wkid":102443,"latestWkid":3826},"fields":[{"name":"ID","type":"esriFieldTypeDouble","alias":"ID"},{"name":"DIS_CODE","type":"esriFieldTypeInteger","alias":"DIS_CODE"},{"name":"TOWNNAME","type":"esriFieldTypeString","alias":"TOWNNAME","length":8},{"name":"LI","type":"esriFieldTypeString","alias":"LI","length":8},{"name":"LIN","type":"esriFieldTypeString","alias":"LIN","length":12},{"name":"STREET","type":"esriFieldTypeString","alias":"STREET","length":20},{"name":"SECT","type":"esriFieldTypeString","alias":"SECT","length":8},{"name":"MAREA","type":"esriFieldTypeString","alias":"MAREA","length":12},{"name":"LANE","type":"esriFieldTypeString","alias":"LANE","length":10},{"name":"ALLEY","type":"esriFieldTypeString","alias":"ALLEY","length":10},{"name":"HOUSE_NO","type":"esriFieldTypeString","alias":"HOUSE_NO","length":20},{"name":"E_COORD97","type":"esriFieldTypeDouble","alias":"E_COORD97"},{"name":"N_COORD97","type":"esriFieldTypeDouble","alias":"N_COORD97"},{"name":"ADDRESS","type":"esriFieldTypeString","alias":"ADDRESS","length":50},{"name":"OBJECTID","type":"esriFieldTypeOID","alias":"OBJECTID"}],"features":[{"attributes":{"ID":371411,"DIS_CODE":0,"TOWNNAME":"東區","LI":"後甲里","LIN":"12鄰","STREET":"裕農路","SECT":" ","MAREA":" ","LANE":"６６１巷","ALLEY":" ","HOUSE_NO":"１２號","E_COORD97":171732.89000000001,"N_COORD97":2543275.5699999998,"ADDRESS":"裕農路６６１巷１２號","OBJECTID":371401},"geometry":{"x":171732.89000000153,"y":2543275.5700000022}},{"attributes":{"ID":371412,"DIS_CODE":0,"TOWNNAME":"東區","LI":"後甲里","LIN":"12鄰","STREET":"裕農路","SECT":" ","MAREA":" ","LANE":"６６１巷","ALLEY":" ","HOUSE_NO":"３２號","E_COORD97":171732.09,"N_COORD97":2543319.2400000002,"ADDRESS":"裕農路６６１巷３２號","OBJECTID":371402},"geometry":{"x":171732.09000000078,"y":2543319.2400000021}},{"attributes":{"ID":371413,"DIS_CODE":0,"TOWNNAME":"東區","LI":"後甲里","LIN":"12鄰","STREET":"裕農路","SECT":" ","MAREA":" ","LANE":"６６１巷","ALLEY":" ","HOUSE_NO":"３４號","E_COORD97":171732.09,"N_COORD97":2543323.7400000002,"ADDRESS":"裕農路６６１巷３４號","OBJECTID":371403},"geometry":{"x":171732.09000000078,"y":2543323.7400000002}},{"attributes":{"ID":371414,"DIS_CODE":0,"TOWNNAME":"東區","LI":"後甲里","LIN":"12鄰","STREET":"裕農路","SECT":" ","MAREA":" ","LANE":"６６１巷","ALLEY":" ","HOUSE_NO":"３８號","E_COORD97":171731.82999999999,"N_COORD97":2543333.7999999998,"ADDRESS":"裕農路６６１巷３８號","OBJECTID":371404},"geometry":{"x":171731.83000000007,"y":2543333.8000000007}},{"attributes":{"ID":371415,"DIS_CODE":0,"TOWNNAME":"東區","LI":"後甲里","LIN":"12鄰","STREET":"裕農路","SECT":" ","MAREA":" ","LANE":"６６１巷","ALLEY":" ","HOUSE_NO":"１４號","E_COORD97":171732.35999999999,"N_COORD97":2543279.27,"ADDRESS":"裕農路６６１巷１４號","OBJECTID":371405},"geometry":{"x":171732.36000000127,"y":2543279.2699999977}},{"attributes":{"ID":371416,"DIS_CODE":0,"TOWNNAME":"東區","LI":"後甲里","LIN":"12鄰","STREET":"裕農路","SECT":" ","MAREA":" ","LANE":"６６１巷","ALLEY":" ","HOUSE_NO":"１４號之１","E_COORD97":171756.20999999999,"N_COORD97":2543279.7999999998,"ADDRESS":"裕農路６６１巷１４號之１","OBJECTID":371406},"geometry":{"x":171756.20999999996,"y":2543279.8000000007}},{"attributes":{"ID":371417,"DIS_CODE":0,"TOWNNAME":"東區","LI":"後甲里","LIN":"12鄰","STREET":"裕農路","SECT":" ","MAREA":" ","LANE":"６６１巷","ALLEY":" ","HOUSE_NO":"１４號之２","E_COORD97":171766.81,"N_COORD97":2543283.5099999998,"ADDRESS":"裕農路６６１巷１４號之２","OBJECTID":371407},"geometry":{"x":171766.80999999959,"y":2543283.5099999998}},{"attributes":{"ID":371418,"DIS_CODE":0,"TOWNNAME":"東區","LI":"後甲里","LIN":"12鄰","STREET":"裕農路","SECT":" ","MAREA":" ","LANE":"６６１巷","ALLEY":" ","HOUSE_NO":"１４號之３","E_COORD97":171754.88,"N_COORD97":2543290.1299999999,"ADDRESS":"裕農路６６１巷１４號之３","OBJECTID":371408},"geometry":{"x":171754.87999999989,"y":2543290.1300000027}},{"attributes":{"ID":371419,"DIS_CODE":0,"TOWNNAME":"東區","LI":"後甲里","LIN":"12鄰","STREET":"裕農路","SECT":" ","MAREA":" ","LANE":"６６１巷","ALLEY":" ","HOUSE_NO":"１８號","E_COORD97":171731.56,"N_COORD97":2543291.98,"ADDRESS":"裕農路６６１巷１８號","OBJECTID":371409},"geometry":{"x":171731.55999999866,"y":2543291.9800000004}},{"attributes":{"ID":371420,"DIS_CODE":0,"TOWNNAME":"東區","LI":"後甲里","LIN":"12鄰","STREET":"裕農路","SECT":" ","MAREA":" ","LANE":"６６１巷","ALLEY":" ","HOUSE_NO":"２０號","E_COORD97":171732.62,"N_COORD97":2543296.48,"ADDRESS":"裕農路６６１巷２０號","OBJECTID":371410},"geometry":{"x":171732.62000000104,"y":2543296.4800000023}},{"attributes":{"ID":371421,"DIS_CODE":0,"TOWNNAME":"東區","LI":"後甲里","LIN":"12鄰","STREET":"裕農路","SECT":" ","MAREA":" ","LANE":"６６１巷","ALLEY":" ","HOUSE_NO":"２２號","E_COORD97":171732.89000000001,"N_COORD97":2543299.6600000001,"ADDRESS":"裕農路６６１巷２２號","OBJECTID":371411},"geometry":{"x":171732.89000000153,"y":2543299.6600000001}},{"attributes":{"ID":371422,"DIS_CODE":0,"TOWNNAME":"東區","LI":"後甲里","LIN":"12鄰","STREET":"裕農路","SECT":" ","MAREA":" ","LANE":"６６１巷","ALLEY":" ","HOUSE_NO":"２４號","E_COORD97":171732.89000000001,"N_COORD97":2543303.8900000001,"ADDRESS":"裕農路６６１巷２４號","OBJECTID":371412},"geometry":{"x":171732.89000000153,"y":2543303.8900000025}},{"attributes":{"ID":371423,"DIS_CODE":0,"TOWNNAME":"東區","LI":"後甲里","LIN":"12鄰","STREET":"裕農路","SECT":" ","MAREA":" ","LANE":"６６１巷","ALLEY":" ","HOUSE_NO":"２６號","E_COORD97":171732.89000000001,"N_COORD97":2543307.8599999999,"ADDRESS":"裕農路６６１巷２６號","OBJECTID":371413},"geometry":{"x":171732.89000000153,"y":2543307.8599999994}},{"attributes":{"ID":371424,"DIS_CODE":0,"TOWNNAME":"東區","LI":"大德里","LIN":"12鄰","STREET":"立德十路","SECT":" ","MAREA":" ","LANE":"６６巷","ALLEY":" ","HOUSE_NO":"１５號","E_COORD97":169568.14999999999,"N_COORD97":2542007.4300000002,"ADDRESS":"立德十路６６巷１５號","OBJECTID":371414},"geometry":{"x":169568.15000000037,"y":2542007.4300000016}},{"attributes":{"ID":371425,"DIS_CODE":0,"TOWNNAME":"東區","LI":"大德里","LIN":"12鄰","STREET":"立德十路","SECT":" ","MAREA":" ","LANE":"６６巷","ALLEY":" ","HOUSE_NO":"１８號","E_COORD97":169526.5,"N_COORD97":2542019.4500000002,"ADDRESS":"立德十路６６巷１８號","OBJECTID":371415},"geometry":{"x":169526.5,"y":2542019.4499999993}},{"attributes":{"ID":371426,"DIS_CODE":0,"TOWNNAME":"新化區","LI":"協興里","LIN":"6鄰","STREET":"忠孝路","SECT":" ","MAREA":" ","LANE":"１９６巷","ALLEY":" ","HOUSE_NO":"９號","E_COORD97":178350.32000000001,"N_COORD97":2548583.25,"ADDRESS":"忠孝路１９６巷９號","OBJECTID":371416},"geometry":{"x":178350.32000000216,"y":2548583.2500000019}},{"attributes":{"ID":371427,"DIS_CODE":0,"TOWNNAME":"東區","LI":"大德里","LIN":"12鄰","STREET":"立德十路","SECT":" ","MAREA":" ","LANE":"６６巷","ALLEY":" ","HOUSE_NO":"２０號","E_COORD97":169529.79000000001,"N_COORD97":2542020.27,"ADDRESS":"立德十路６６巷２０號","OBJECTID":371417},"geometry":{"x":169529.79000000004,"y":2542020.2699999996}},{"attributes":{"ID":371428,"DIS_CODE":0,"TOWNNAME":"東區","LI":"大德里","LIN":"12鄰","STREET":"立德十路","SECT":" ","MAREA":" ","LANE":"６６巷","ALLEY":" ","HOUSE_NO":"２２號","E_COORD97":169533.89000000001,"N_COORD97":2542021.2999999998,"ADDRESS":"立德十路６６巷２２號","OBJECTID":371418},"geometry":{"x":169533.88999999966,"y":2542021.3000000007}},{"attributes":{"ID":371429,"DIS_CODE":0,"TOWNNAME":"東區","LI":"大德里","LIN":"12鄰","STREET":"立德十路","SECT":" ","MAREA":" ","LANE":"６６巷","ALLEY":" ","HOUSE_NO":"２４號","E_COORD97":169537.38,"N_COORD97":2542021.9100000001,"ADDRESS":"立德十路６６巷２４號","OBJECTID":371419},"geometry":{"x":169537.37999999989,"y":2542021.910000002}},{"attributes":{"ID":371430,"DIS_CODE":0,"TOWNNAME":"東區","LI":"大德里","LIN":"12鄰","STREET":"立德十路","SECT":" ","MAREA":" ","LANE":"６６巷","ALLEY":" ","HOUSE_NO":"２６號","E_COORD97":169541.07000000001,"N_COORD97":2542023.1400000001,"ADDRESS":"立德十路６６巷２６號","OBJECTID":371420},"geometry":{"x":169541.07000000123,"y":2542023.1400000006}},{"attributes":{"ID":371431,"DIS_CODE":0,"TOWNNAME":"東區","LI":"大德里","LIN":"12鄰","STREET":"立德十路","SECT":" ","MAREA":" ","LANE":"６６巷","ALLEY":" ","HOUSE_NO":"３０號","E_COORD97":169550.51000000001,"N_COORD97":2542013.7200000002,"ADDRESS":"立德十路６６巷３０號","OBJECTID":371421},"geometry":{"x":169550.51000000164,"y":2542013.7200000025}},{"attributes":{"ID":371432,"DIS_CODE":0,"TOWNNAME":"東區","LI":"大德里","LIN":"12鄰","STREET":"立德十路","SECT":" ","MAREA":" ","LANE":"６６巷","ALLEY":" ","HOUSE_NO":"３２號","E_COORD97":169546.82000000001,"N_COORD97":2542013.3100000001,"ADDRESS":"立德十路６６巷３２號","OBJECTID":371422},"geometry":{"x":169546.8200000003,"y":2542013.3100000024}},{"attributes":{"ID":371433,"DIS_CODE":0,"TOWNNAME":"東區","LI":"大德里","LIN":"12鄰","STREET":"立德十路","SECT":" ","MAREA":" ","LANE":"６６巷","ALLEY":" ","HOUSE_NO":"３４號","E_COORD97":169542.10000000001,"N_COORD97":2542012.0800000001,"ADDRESS":"立德十路６６巷３４號","OBJECTID":371423},"geometry":{"x":169542.10000000056,"y":2542012.0800000001}},{"attributes":{"ID":371434,"DIS_CODE":0,"TOWNNAME":"東區","LI":"大德里","LIN":"12鄰","STREET":"立德十路","SECT":" ","MAREA":" ","LANE":"６６巷","ALLEY":" ","HOUSE_NO":"３６號","E_COORD97":169538.60999999999,"N_COORD97":2542011.6699999999,"ADDRESS":"立德十路６６巷３６號","OBJECTID":371424},"geometry":{"x":169538.6100000022,"y":2542011.6699999999}},{"attributes":{"ID":371435,"DIS_CODE":0,"TOWNNAME":"東區","LI":"大德里","LIN":"12鄰","STREET":"立德十路","SECT":" ","MAREA":" ","LANE":"６６巷","ALLEY":" ","HOUSE_NO":"４０號","E_COORD97":169531.01999999999,"N_COORD97":2542010.0299999998,"ADDRESS":"立德十路６６巷４０號","OBJECTID":371425},"geometry":{"x":169531.01999999955,"y":2542010.0300000012}},{"attributes":{"ID":371436,"DIS_CODE":0,"TOWNNAME":"東區","LI":"大德里","LIN":"12鄰","STREET":"立德十路","SECT":" ","MAREA":" ","LANE":"６６巷","ALLEY":" ","HOUSE_NO":"４２號","E_COORD97":169525.07000000001,"N_COORD97":2542009.21,"ADDRESS":"立德十路６６巷４２號","OBJECTID":371426},"geometry":{"x":169525.0700000003,"y":2542009.2100000009}},{"attributes":{"ID":371437,"DIS_CODE":0,"TOWNNAME":"東區","LI":"大德里","LIN":"12鄰","STREET":"立德十路","SECT":" ","MAREA":" ","LANE":"６６巷","ALLEY":" ","HOUSE_NO":"１０號","E_COORD97":169531.01999999999,"N_COORD97":2542035.8599999999,"ADDRESS":"立德十路６６巷１０號","OBJECTID":371427},"geometry":{"x":169531.01999999955,"y":2542035.8600000013}},{"attributes":{"ID":371438,"DIS_CODE":0,"TOWNNAME":"東區","LI":"大德里","LIN":"12鄰","STREET":"立德十路","SECT":" ","MAREA":" ","LANE":"６６巷","ALLEY":" ","HOUSE_NO":"１６號","E_COORD97":169522.20000000001,"N_COORD97":2542018.4300000002,"ADDRESS":"立德十路６６巷１６號","OBJECTID":371428},"geometry":{"x":169522.20000000019,"y":2542018.4300000016}},{"attributes":{"ID":371439,"DIS_CODE":0,"TOWNNAME":"東區","LI":"大德里","LIN":"12鄰","STREET":"立德十路","SECT":" ","MAREA":" ","LANE":"６６巷","ALLEY":" ","HOUSE_NO":"２８號","E_COORD97":169547.64000000001,"N_COORD97":2542024.3700000001,"ADDRESS":"立德十路６６巷２８號","OBJECTID":371429},"geometry":{"x":169547.63999999966,"y":2542024.370000001}},{"attributes":{"ID":371440,"DIS_CODE":0,"TOWNNAME":"東區","LI":"大德里","LIN":"12鄰","STREET":"立德十路","SECT":" ","MAREA":" ","LANE":"６６巷","ALLEY":" ","HOUSE_NO":"３８號","E_COORD97":169534.51000000001,"N_COORD97":2542010.6400000001,"ADDRESS":"立德十路６６巷３８號","OBJECTID":371430},"geometry":{"x":169534.50999999978,"y":2542010.6400000025}},{"attributes":{"ID":371441,"DIS_CODE":0,"TOWNNAME":"東區","LI":"小東里","LIN":"12鄰","STREET":"光明街","SECT":" ","MAREA":" ","LANE":"６０巷","ALLEY":" ","HOUSE_NO":"１４號","E_COORD97":170852.97,"N_COORD97":2544274.1800000002,"ADDRESS":"光明街６０巷１４號","OBJECTID":371431},"geometry":{"x":170852.97000000067,"y":2544274.1800000016}},{"attributes":{"ID":371442,"DIS_CODE":0,"TOWNNAME":"東區","LI":"小東里","LIN":"12鄰","STREET":"光明街","SECT":" ","MAREA":" ","LANE":"６０巷","ALLEY":" ","HOUSE_NO":"１７號","E_COORD97":170833.37,"N_COORD97":2544248.5899999999,"ADDRESS":"光明街６０巷１７號","OBJECTID":371432},"geometry":{"x":170833.37000000197,"y":2544248.5900000017}},{"attributes":{"ID":371443,"DIS_CODE":0,"TOWNNAME":"東區","LI":"小東里","LIN":"12鄰","STREET":"光明街","SECT":" ","MAREA":" ","LANE":"６０巷","ALLEY":" ","HOUSE_NO":"１８號","E_COORD97":170844.35000000001,"N_COORD97":2544274.0299999998,"ADDRESS":"光明街６０巷１８號","OBJECTID":371433},"geometry":{"x":170844.34999999963,"y":2544274.0299999975}},{"attributes":{"ID":371444,"DIS_CODE":0,"TOWNNAME":"東區","LI":"小東里","LIN":"12鄰","STREET":"光明街","SECT":" ","MAREA":" ","LANE":"６０巷","ALLEY":" ","HOUSE_NO":"１９號","E_COORD97":170828.98000000001,"N_COORD97":2544248.5899999999,"ADDRESS":"光明街６０巷１９號","OBJECTID":371434},"geometry":{"x":170828.98000000045,"y":2544248.5900000017}},{"attributes":{"ID":371445,"DIS_CODE":0,"TOWNNAME":"東區","LI":"小東里","LIN":"12鄰","STREET":"光明街","SECT":" ","MAREA":" ","LANE":"６０巷","ALLEY":" ","HOUSE_NO":"２０號","E_COORD97":170839.01999999999,"N_COORD97":2544273.71,"ADDRESS":"光明街６０巷２０號","OBJECTID":371435},"geometry":{"x":170839.02000000048,"y":2544273.7100000009}},{"attributes":{"ID":371446,"DIS_CODE":0,"TOWNNAME":"東區","LI":"小東里","LIN":"12鄰","STREET":"光明街","SECT":" ","MAREA":" ","LANE":"６０巷","ALLEY":" ","HOUSE_NO":"２２號","E_COORD97":170835.73000000001,"N_COORD97":2544273.3999999999,"ADDRESS":"光明街６０巷２２號","OBJECTID":371436},"geometry":{"x":170835.73000000045,"y":2544273.4000000022}},{"attributes":{"ID":371447,"DIS_CODE":0,"TOWNNAME":"東區","LI":"小東里","LIN":"12鄰","STREET":"光明街","SECT":" ","MAREA":" ","LANE":"６０巷","ALLEY":" ","HOUSE_NO":"２３號","E_COORD97":170819.45000000001,"N_COORD97":2544252.9300000002,"ADDRESS":"光明街６０巷２３號","OBJECTID":371437},"geometry":{"x":170819.45000000205,"y":2544252.9300000016}},{"attributes":{"ID":371448,"DIS_CODE":0,"TOWNNAME":"東區","LI":"小東里","LIN":"12鄰","STREET":"光明街","SECT":" ","MAREA":" ","LANE":"６０巷","ALLEY":" ","HOUSE_NO":"２４號","E_COORD97":170831.64999999999,"N_COORD97":2544273.3999999999,"ADDRESS":"光明街６０巷２４號","OBJECTID":371438},"geometry":{"x":170831.64999999944,"y":2544273.4000000022}},{"attributes":{"ID":371449,"DIS_CODE":0,"TOWNNAME":"東區","LI":"小東里","LIN":"12鄰","STREET":"光明街","SECT":" ","MAREA":" ","LANE":"６０巷","ALLEY":" ","HOUSE_NO":"２６號","E_COORD97":170828.20000000001,"N_COORD97":2544273.2400000002,"ADDRESS":"光明街６０巷２６號","OBJECTID":371439},"geometry":{"x":170828.20000000112,"y":2544273.2400000002}},{"attributes":{"ID":371450,"DIS_CODE":0,"TOWNNAME":"東區","LI":"小東里","LIN":"12鄰","STREET":"光明街","SECT":" ","MAREA":" ","LANE":"６０巷","ALLEY":" ","HOUSE_NO":"２８號","E_COORD97":170824.89999999999,"N_COORD97":2544266.7400000002,"ADDRESS":"光明街６０巷２８號","OBJECTID":371440},"geometry":{"x":170824.90000000224,"y":2544266.7399999984}},{"attributes":{"ID":371451,"DIS_CODE":0,"TOWNNAME":"東區","LI":"小東里","LIN":"12鄰","STREET":"光明街","SECT":" ","MAREA":" ","LANE":"６０巷","ALLEY":" ","HOUSE_NO":"３０號","E_COORD97":170820.39999999999,"N_COORD97":2544266.52,"ADDRESS":"光明街６０巷３０號","OBJECTID":371441},"geometry":{"x":170820.4000000013,"y":2544266.5199999996}},{"attributes":{"ID":371452,"DIS_CODE":0,"TOWNNAME":"東區","LI":"小東里","LIN":"12鄰","STREET":"光明街","SECT":" ","MAREA":" ","LANE":"６０巷","ALLEY":" ","HOUSE_NO":"３２號","E_COORD97":170816.48999999999,"N_COORD97":2544266,"ADDRESS":"光明街６０巷３２號","OBJECTID":371442},"geometry":{"x":170816.49000000115,"y":2544266.0000000019}},{"attributes":{"ID":371453,"DIS_CODE":0,"TOWNNAME":"東區","LI":"和平里","LIN":"1鄰","STREET":"文化一街","SECT":" ","MAREA":" ","LANE":" ","ALLEY":" ","HOUSE_NO":"６號四樓","E_COORD97":171099.45000000001,"N_COORD97":2542097.2200000002,"ADDRESS":"文化一街６號四樓","OBJECTID":371443},"geometry":{"x":171099.45000000112,"y":2542097.2200000007}},{"attributes":{"ID":371454,"DIS_CODE":0,"TOWNNAME":"東區","LI":"小東里","LIN":"12鄰","STREET":"光明街","SECT":" ","MAREA":" ","LANE":"６０巷","ALLEY":" ","HOUSE_NO":"３４號","E_COORD97":170813.39000000001,"N_COORD97":2544265.9300000002,"ADDRESS":"光明街６０巷３４號","OBJECTID":371444},"geometry":{"x":170813.38999999966,"y":2544265.9300000016}},{"attributes":{"ID":371455,"DIS_CODE":0,"TOWNNAME":"東區","LI":"小東里","LIN":"12鄰","STREET":"光明街","SECT":" ","MAREA":" ","LANE":"６０巷","ALLEY":" ","HOUSE_NO":"４號","E_COORD97":170872.73000000001,"N_COORD97":2544274.3399999999,"ADDRESS":"光明街６０巷４號","OBJECTID":371445},"geometry":{"x":170872.73000000138,"y":2544274.3400000017}},{"attributes":{"ID":371456,"DIS_CODE":0,"TOWNNAME":"東區","LI":"小東里","LIN":"12鄰","STREET":"光明街","SECT":" ","MAREA":" ","LANE":"６０巷","ALLEY":" ","HOUSE_NO":"６號","E_COORD97":170869.91,"N_COORD97":2544274.3399999999,"ADDRESS":"光明街６０巷６號","OBJECTID":371446},"geometry":{"x":170869.91000000015,"y":2544274.3400000017}},{"attributes":{"ID":371457,"DIS_CODE":0,"TOWNNAME":"東區","LI":"小東里","LIN":"12鄰","STREET":"光明街","SECT":" ","MAREA":" ","LANE":"６０巷","ALLEY":" ","HOUSE_NO":"８號","E_COORD97":170865.82999999999,"N_COORD97":2544274.3399999999,"ADDRESS":"光明街６０巷８號","OBJECTID":371447},"geometry":{"x":170865.83000000194,"y":2544274.3400000017}},{"attributes":{"ID":371458,"DIS_CODE":0,"TOWNNAME":"東區","LI":"小東里","LIN":"12鄰","STREET":"光明街","SECT":" ","MAREA":" ","LANE":"６０巷","ALLEY":" ","HOUSE_NO":"９號","E_COORD97":170849.67999999999,"N_COORD97":2544249.8399999999,"ADDRESS":"光明街６０巷９號","OBJECTID":371448},"geometry":{"x":170849.68000000063,"y":2544249.8400000017}},{"attributes":{"ID":371459,"DIS_CODE":0,"TOWNNAME":"東區","LI":"小東里","LIN":"12鄰","STREET":"光明街","SECT":" ","MAREA":" ","LANE":"６０巷","ALLEY":" ","HOUSE_NO":"１５號","E_COORD97":170836.82000000001,"N_COORD97":2544249.0600000001,"ADDRESS":"光明街６０巷１５號","OBJECTID":371449},"geometry":{"x":170836.8200000003,"y":2544249.0600000024}},{"attributes":{"ID":371460,"DIS_CODE":0,"TOWNNAME":"東區","LI":"小東里","LIN":"12鄰","STREET":"光明街","SECT":" ","MAREA":" ","LANE":"６０巷","ALLEY":" ","HOUSE_NO":"１６號","E_COORD97":170848.42999999999,"N_COORD97":2544274.1800000002,"ADDRESS":"光明街６０巷１６號","OBJECTID":371450},"geometry":{"x":170848.43000000063,"y":2544274.1800000016}},{"attributes":{"ID":371461,"DIS_CODE":0,"TOWNNAME":"東區","LI":"小東里","LIN":"12鄰","STREET":"光明街","SECT":" ","MAREA":" ","LANE":"６０巷","ALLEY":" ","HOUSE_NO":"２１號","E_COORD97":170824.42999999999,"N_COORD97":2544253.2999999998,"ADDRESS":"光明街６０巷２１號","OBJECTID":371451},"geometry":{"x":170824.43000000063,"y":2544253.2999999989}},{"attributes":{"ID":371462,"DIS_CODE":0,"TOWNNAME":"東區","LI":"小東里","LIN":"12鄰","STREET":"光明街","SECT":" ","MAREA":" ","LANE":"６０巷","ALLEY":" ","HOUSE_NO":"１０號","E_COORD97":170861.13,"N_COORD97":2544274.1800000002,"ADDRESS":"光明街６０巷１０號","OBJECTID":371452},"geometry":{"x":170861.12999999989,"y":2544274.1800000016}},{"attributes":{"ID":371463,"DIS_CODE":0,"TOWNNAME":"東區","LI":"小東里","LIN":"12鄰","STREET":"光明街","SECT":" ","MAREA":" ","LANE":"６０巷","ALLEY":" ","HOUSE_NO":"５號","E_COORD97":170858.45999999999,"N_COORD97":2544249.6899999999,"ADDRESS":"光明街６０巷５號","OBJECTID":371453},"geometry":{"x":170858.46000000089,"y":2544249.6900000032}},{"attributes":{"ID":371464,"DIS_CODE":0,"TOWNNAME":"東區","LI":"小東里","LIN":"12鄰","STREET":"光明街","SECT":" ","MAREA":" ","LANE":"６０巷","ALLEY":" ","HOUSE_NO":"７號","E_COORD97":170854.54000000001,"N_COORD97":2544249.5299999998,"ADDRESS":"光明街６０巷７號","OBJECTID":371454},"geometry":{"x":170854.54000000097,"y":2544249.5299999993}},{"attributes":{"ID":371465,"DIS_CODE":0,"TOWNNAME":"東區","LI":"崇學里","LIN":"12鄰","STREET":"崇明十街","SECT":" ","MAREA":" ","LANE":"７０巷","ALLEY":" ","HOUSE_NO":"１７號","E_COORD97":170249.07000000001,"N_COORD97":2541864.5800000001,"ADDRESS":"崇明十街７０巷１７號","OBJECTID":371455},"geometry":{"x":170249.07000000216,"y":2541864.5800000019}},{"attributes":{"ID":371466,"DIS_CODE":0,"TOWNNAME":"東區","LI":"崇學里","LIN":"12鄰","STREET":"崇明十街","SECT":" ","MAREA":" ","LANE":"７０巷","ALLEY":" ","HOUSE_NO":"１９號","E_COORD97":170251.76999999999,"N_COORD97":2541861.0499999998,"ADDRESS":"崇明十街７０巷１９號","OBJECTID":371456},"geometry":{"x":170251.76999999955,"y":2541861.0500000007}},{"attributes":{"ID":371467,"DIS_CODE":0,"TOWNNAME":"東區","LI":"崇學里","LIN":"12鄰","STREET":"崇明十街","SECT":" ","MAREA":" ","LANE":"７０巷","ALLEY":" ","HOUSE_NO":"２１號","E_COORD97":170255.14000000001,"N_COORD97":2541858.3500000001,"ADDRESS":"崇明十街７０巷２１號","OBJECTID":371457},"geometry":{"x":170255.1400000006,"y":2541858.3500000034}},{"attributes":{"ID":371468,"DIS_CODE":0,"TOWNNAME":"東區","LI":"崇學里","LIN":"12鄰","STREET":"崇明十街","SECT":" ","MAREA":" ","LANE":"７０巷","ALLEY":" ","HOUSE_NO":"２３號","E_COORD97":170257.67000000001,"N_COORD97":2541855.3199999998,"ADDRESS":"崇明十街７０巷２３號","OBJECTID":371458},"geometry":{"x":170257.66999999993,"y":2541855.3200000003}},{"attributes":{"ID":371469,"DIS_CODE":0,"TOWNNAME":"東區","LI":"崇學里","LIN":"12鄰","STREET":"崇明十街","SECT":" ","MAREA":" ","LANE":"７０巷","ALLEY":" ","HOUSE_NO":"２５號","E_COORD97":170259.70000000001,"N_COORD97":2541852.1200000001,"ADDRESS":"崇明十街７０巷２５號","OBJECTID":371459},"geometry":{"x":170259.70000000019,"y":2541852.1200000029}},{"attributes":{"ID":371470,"DIS_CODE":0,"TOWNNAME":"東區","LI":"崇學里","LIN":"12鄰","STREET":"崇明十街","SECT":" ","MAREA":" ","LANE":"７０巷","ALLEY":" ","HOUSE_NO":"２７號","E_COORD97":170262.73000000001,"N_COORD97":2541848.0800000001,"ADDRESS":"崇明十街７０巷２７號","OBJECTID":371460},"geometry":{"x":170262.73000000045,"y":2541848.0800000019}},{"attributes":{"ID":371471,"DIS_CODE":0,"TOWNNAME":"東區","LI":"崇學里","LIN":"12鄰","STREET":"崇明十街","SECT":" ","MAREA":" ","LANE":"７０巷","ALLEY":" ","HOUSE_NO":"２９號","E_COORD97":170266.10000000001,"N_COORD97":2541845.5499999998,"ADDRESS":"崇明十街７０巷２９號","OBJECTID":371461},"geometry":{"x":170266.09999999963,"y":2541845.5500000026}},{"attributes":{"ID":371472,"DIS_CODE":0,"TOWNNAME":"善化區","LI":"坐駕里","LIN":"12鄰","STREET":"大成路","SECT":" ","MAREA":" ","LANE":"２７１巷","ALLEY":" ","HOUSE_NO":"２號","E_COORD97":178215.03,"N_COORD97":2558803.25,"ADDRESS":"大成路２７１巷２號","OBJECTID":371462},"geometry":{"x":178215.03000000212,"y":2558803.25}},{"attributes":{"ID":371473,"DIS_CODE":0,"TOWNNAME":"東區","LI":"衛國里","LIN":"12鄰","STREET":"衛國街","SECT":" ","MAREA":" ","LANE":"１１４巷","ALLEY":" ","HOUSE_NO":"１０號之１","E_COORD97":170467.45000000001,"N_COORD97":2543132.02,"ADDRESS":"衛國街１１４巷１０號之１","OBJECTID":371463},"geometry":{"x":170467.45000000112,"y":2543132.0200000033}},{"attributes":{"ID":371474,"DIS_CODE":0,"TOWNNAME":"東區","LI":"衛國里","LIN":"12鄰","STREET":"衛國街","SECT":" ","MAREA":" ","LANE":"１１４巷","ALLEY":" ","HOUSE_NO":"１２號","E_COORD97":170473.97,"N_COORD97":2543122.2400000002,"ADDRESS":"衛國街１１４巷１２號","OBJECTID":371464},"geometry":{"x":170473.96999999974,"y":2543122.2400000021}},{"attributes":{"ID":371475,"DIS_CODE":0,"TOWNNAME":"東區","LI":"衛國里","LIN":"12鄰","STREET":"衛國街","SECT":" ","MAREA":" ","LANE":"１１４巷","ALLEY":" ","HOUSE_NO":"１４號","E_COORD97":170481.64000000001,"N_COORD97":2543123.3900000001,"ADDRESS":"衛國街１１４巷１４號","OBJECTID":371465},"geometry":{"x":170481.63999999966,"y":2543123.3900000006}},{"attributes":{"ID":371476,"DIS_CODE":0,"TOWNNAME":"東區","LI":"衛國里","LIN":"12鄰","STREET":"衛國街","SECT":" ","MAREA":" ","LANE":"１１４巷","ALLEY":" ","HOUSE_NO":"１６號","E_COORD97":170484.51999999999,"N_COORD97":2543134.5099999998,"ADDRESS":"衛國街１１４巷１６號","OBJECTID":371466},"geometry":{"x":170484.52000000048,"y":2543134.5099999998}},{"attributes":{"ID":371477,"DIS_CODE":0,"TOWNNAME":"東區","LI":"裕農里","LIN":"12鄰","STREET":"東寧路","SECT":" ","MAREA":" ","LANE":"５１０巷","ALLEY":" ","HOUSE_NO":"２３號","E_COORD97":171067.97,"N_COORD97":2543247.5099999998,"ADDRESS":"東寧路５１０巷２３號","OBJECTID":371467},"geometry":{"x":171067.9700000016,"y":2543247.5100000035}},{"attributes":{"ID":371478,"DIS_CODE":0,"TOWNNAME":"東區","LI":"裕農里","LIN":"12鄰","STREET":"東寧路","SECT":" ","MAREA":" ","LANE":"５１０巷","ALLEY":" ","HOUSE_NO":"２５號","E_COORD97":171068.95999999999,"N_COORD97":2543242.8900000001,"ADDRESS":"東寧路５１０巷２５號","OBJECTID":371468},"geometry":{"x":171068.96000000089,"y":2543242.8900000025}},{"attributes":{"ID":371479,"DIS_CODE":0,"TOWNNAME":"東區","LI":"裕農里","LIN":"12鄰","STREET":"東寧路","SECT":" ","MAREA":" ","LANE":"５１０巷","ALLEY":" ","HOUSE_NO":"２７號","E_COORD97":171068.29999999999,"N_COORD97":2543237.9399999999,"ADDRESS":"東寧路５１０巷２７號","OBJECTID":371469},"geometry":{"x":171068.30000000075,"y":2543237.9400000013}},{"attributes":{"ID":371480,"DIS_CODE":0,"TOWNNAME":"東區","LI":"裕農里","LIN":"12鄰","STREET":"東寧路","SECT":" ","MAREA":" ","LANE":"５１０巷","ALLEY":" ","HOUSE_NO":"２９號","E_COORD97":171051.45000000001,"N_COORD97":2543237.9399999999,"ADDRESS":"東寧路５１０巷２９號","OBJECTID":371470},"geometry":{"x":171051.44999999925,"y":2543237.9400000013}},{"attributes":{"ID":371481,"DIS_CODE":0,"TOWNNAME":"東區","LI":"裕農里","LIN":"12鄰","STREET":"東寧路","SECT":" ","MAREA":" ","LANE":"５１０巷","ALLEY":" ","HOUSE_NO":"３１號","E_COORD97":171052.76999999999,"N_COORD97":2543242.8900000001,"ADDRESS":"東寧路５１０巷３１號","OBJECTID":371471},"geometry":{"x":171052.77000000048,"y":2543242.8900000025}},{"attributes":{"ID":371482,"DIS_CODE":0,"TOWNNAME":"東區","LI":"裕農里","LIN":"12鄰","STREET":"東寧路","SECT":" ","MAREA":" ","LANE":"５１０巷","ALLEY":" ","HOUSE_NO":"３３號","E_COORD97":171052.76999999999,"N_COORD97":2543246.8500000001,"ADDRESS":"東寧路５１０巷３３號","OBJECTID":371472},"geometry":{"x":171052.77000000048,"y":2543246.8499999996}},{"attributes":{"ID":371483,"DIS_CODE":0,"TOWNNAME":"東區","LI":"裕農里","LIN":"12鄰","STREET":"東寧路","SECT":" ","MAREA":" ","LANE":"５１０巷","ALLEY":" ","HOUSE_NO":"３５號","E_COORD97":171053.42999999999,"N_COORD97":2543251.1400000001,"ADDRESS":"東寧路５１０巷３５號","OBJECTID":371473},"geometry":{"x":171053.43000000063,"y":2543251.1400000043}},{"attributes":{"ID":371484,"DIS_CODE":0,"TOWNNAME":"東區","LI":"裕農里","LIN":"12鄰","STREET":"東寧路","SECT":" ","MAREA":" ","LANE":"５１０巷","ALLEY":" ","HOUSE_NO":"３７號","E_COORD97":171050.92999999999,"N_COORD97":2543261.6000000001,"ADDRESS":"東寧路５１０巷３７號","OBJECTID":371474},"geometry":{"x":171050.9299999997,"y":2543261.6000000015}},{"attributes":{"ID":371485,"DIS_CODE":0,"TOWNNAME":"東區","LI":"裕農里","LIN":"12鄰","STREET":"東寧路","SECT":" ","MAREA":" ","LANE":"５１０巷","ALLEY":" ","HOUSE_NO":"４３號","E_COORD97":171026.01000000001,"N_COORD97":2543259.3999999999,"ADDRESS":"東寧路５１０巷４３號","OBJECTID":371475},"geometry":{"x":171026.01000000071,"y":2543259.4000000022}},{"attributes":{"ID":371486,"DIS_CODE":0,"TOWNNAME":"東區","LI":"裕農里","LIN":"12鄰","STREET":"東寧路","SECT":" ","MAREA":" ","LANE":"５１０巷","ALLEY":" ","HOUSE_NO":"４５號","E_COORD97":171027.01000000001,"N_COORD97":2543254.4500000002,"ADDRESS":"東寧路５１０巷４５號","OBJECTID":371476},"geometry":{"x":171027.01000000164,"y":2543254.450000003}},{"attributes":{"ID":371487,"DIS_CODE":0,"TOWNNAME":"東區","LI":"裕農里","LIN":"12鄰","STREET":"東寧路","SECT":" ","MAREA":" ","LANE":"５１０巷","ALLEY":" ","HOUSE_NO":"４７號","E_COORD97":171027.34,"N_COORD97":2543247.52,"ADDRESS":"東寧路５１０巷４７號","OBJECTID":371477},"geometry":{"x":171027.34000000078,"y":2543247.5200000014}},{"attributes":{"ID":371488,"DIS_CODE":0,"TOWNNAME":"東區","LI":"裕農里","LIN":"12鄰","STREET":"東寧路","SECT":" ","MAREA":" ","LANE":"５１０巷","ALLEY":" ","HOUSE_NO":"４９號","E_COORD97":171027.67000000001,"N_COORD97":2543241.9199999999,"ADDRESS":"東寧路５１０巷４９號","OBJECTID":371478},"geometry":{"x":171027.66999999899,"y":2543241.9200000018}},{"attributes":{"ID":371489,"DIS_CODE":0,"TOWNNAME":"東區","LI":"裕農里","LIN":"12鄰","STREET":"東寧路","SECT":" ","MAREA":" ","LANE":"５１０巷","ALLEY":" ","HOUSE_NO":"５１號","E_COORD97":171028,"N_COORD97":2543237.2999999998,"ADDRESS":"東寧路５１０巷５１號","OBJECTID":371479},"geometry":{"x":171028.00000000093,"y":2543237.3000000026}},{"attributes":{"ID":371490,"DIS_CODE":0,"TOWNNAME":"東區","LI":"裕農里","LIN":"12鄰","STREET":"東寧路","SECT":" ","MAREA":" ","LANE":"５１０巷","ALLEY":" ","HOUSE_NO":"５３號","E_COORD97":171028.98999999999,"N_COORD97":2543231.6899999999,"ADDRESS":"東寧路５１０巷５３號","OBJECTID":371480},"geometry":{"x":171028.99000000022,"y":2543231.6899999995}},{"attributes":{"ID":371491,"DIS_CODE":0,"TOWNNAME":"東區","LI":"崇學里","LIN":"12鄰","STREET":"崇明十街","SECT":" ","MAREA":" ","LANE":"７０巷","ALLEY":" ","HOUSE_NO":"４號","E_COORD97":170216.41,"N_COORD97":2541865.3599999999,"ADDRESS":"崇明十街７０巷４號","OBJECTID":371481},"geometry":{"x":170216.41000000108,"y":2541865.3600000013}},{"attributes":{"ID":371492,"DIS_CODE":0,"TOWNNAME":"東區","LI":"東安里","LIN":"12鄰","STREET":"長榮路","SECT":"二段","MAREA":" ","LANE":"３２巷","ALLEY":" ","HOUSE_NO":"９４號","E_COORD97":170160.48000000001,"N_COORD97":2543197.3599999999,"ADDRESS":"長榮路二段３２巷９４號","OBJECTID":371482},"geometry":{"x":170160.48000000138,"y":2543197.3600000031}},{"attributes":{"ID":371493,"DIS_CODE":0,"TOWNNAME":"東區","LI":"東安里","LIN":"12鄰","STREET":"長榮路","SECT":"二段","MAREA":" ","LANE":"３２巷","ALLEY":" ","HOUSE_NO":"１１０號","E_COORD97":170165.69,"N_COORD97":2543160.7799999998,"ADDRESS":"長榮路二段３２巷１１０號","OBJECTID":371483},"geometry":{"x":170165.69000000134,"y":2543160.7800000012}},{"attributes":{"ID":371494,"DIS_CODE":0,"TOWNNAME":"東區","LI":"東安里","LIN":"12鄰","STREET":"長榮路","SECT":"二段","MAREA":" ","LANE":"３２巷","ALLEY":" ","HOUSE_NO":"１２２號","E_COORD97":170199.17000000001,"N_COORD97":2543149.3399999999,"ADDRESS":"長榮路二段３２巷１２２號","OBJECTID":371484},"geometry":{"x":170199.17000000086,"y":2543149.3399999999}},{"attributes":{"ID":371495,"DIS_CODE":0,"TOWNNAME":"東區","LI":"東安里","LIN":"12鄰","STREET":"長榮路","SECT":"二段","MAREA":" ","LANE":"３２巷","ALLEY":" ","HOUSE_NO":"１３２號","E_COORD97":170176.51999999999,"N_COORD97":2543137.6400000001,"ADDRESS":"長榮路二段３２巷１３２號","OBJECTID":371485},"geometry":{"x":170176.52000000048,"y":2543137.6400000006}},{"attributes":{"ID":371496,"DIS_CODE":0,"TOWNNAME":"東區","LI":"富強里","LIN":"12鄰","STREET":"裕農路","SECT":" ","MAREA":" ","LANE":"２８８巷","ALLEY":" ","HOUSE_NO":"２２３號","E_COORD97":171088.45000000001,"N_COORD97":2542771.0800000001,"ADDRESS":"裕農路２８８巷２２３號","OBJECTID":371486},"geometry":{"x":171088.45000000019,"y":2542771.0800000001}},{"attributes":{"ID":371497,"DIS_CODE":0,"TOWNNAME":"東區","LI":"東安里","LIN":"12鄰","STREET":"長榮路","SECT":"二段","MAREA":" ","LANE":"３２巷","ALLEY":" ","HOUSE_NO":"１４２號","E_COORD97":170189.10999999999,"N_COORD97":2543127.1099999999,"ADDRESS":"長榮路二段３２巷１４２號","OBJECTID":371487},"geometry":{"x":170189.11000000034,"y":2543127.1099999994}},{"attributes":{"ID":371498,"DIS_CODE":0,"TOWNNAME":"東區","LI":"東安里","LIN":"12鄰","STREET":"長榮路","SECT":"二段","MAREA":" ","LANE":"３２巷","ALLEY":" ","HOUSE_NO":"１００號","E_COORD97":170171.60999999999,"N_COORD97":2543182.5099999998,"ADDRESS":"長榮路二段３２巷１００號","OBJECTID":371488},"geometry":{"x":170171.61000000127,"y":2543182.5099999998}},{"attributes":{"ID":371499,"DIS_CODE":0,"TOWNNAME":"東區","LI":"東安里","LIN":"12鄰","STREET":"長榮路","SECT":"二段","MAREA":" ","LANE":"３２巷","ALLEY":" ","HOUSE_NO":"１０６號","E_COORD97":170174.35999999999,"N_COORD97":2543166.3199999998,"ADDRESS":"長榮路二段３２巷１０６號","OBJECTID":371489},"geometry":{"x":170174.3600000022,"y":2543166.3200000022}},{"attributes":{"ID":371500,"DIS_CODE":0,"TOWNNAME":"東區","LI":"東安里","LIN":"12鄰","STREET":"長榮路","SECT":"二段","MAREA":" ","LANE":"３２巷","ALLEY":" ","HOUSE_NO":"１０８號","E_COORD97":170169.73000000001,"N_COORD97":2543162.1200000001,"ADDRESS":"長榮路二段３２巷１０８號","OBJECTID":371490},"geometry":{"x":170169.73000000045,"y":2543162.120000001}},{"attributes":{"ID":371501,"DIS_CODE":0,"TOWNNAME":"東區","LI":"東安里","LIN":"12鄰","STREET":"長榮路","SECT":"二段","MAREA":" ","LANE":"３２巷","ALLEY":" ","HOUSE_NO":"１１２號","E_COORD97":170162.67000000001,"N_COORD97":2543158.9300000002,"ADDRESS":"長榮路二段３２巷１１２號","OBJECTID":371491},"geometry":{"x":170162.66999999993,"y":2543158.9299999997}},{"attributes":{"ID":371502,"DIS_CODE":0,"TOWNNAME":"東區","LI":"東安里","LIN":"12鄰","STREET":"長榮路","SECT":"二段","MAREA":" ","LANE":"３２巷","ALLEY":" ","HOUSE_NO":"１１４號","E_COORD97":170155.35000000001,"N_COORD97":2543158.25,"ADDRESS":"長榮路二段３２巷１１４號","OBJECTID":371492},"geometry":{"x":170155.35000000056,"y":2543158.2500000037}},{"attributes":{"ID":371503,"DIS_CODE":0,"TOWNNAME":"東區","LI":"東安里","LIN":"12鄰","STREET":"長榮路","SECT":"二段","MAREA":" ","LANE":"３２巷","ALLEY":" ","HOUSE_NO":"１１８號","E_COORD97":170177.35999999999,"N_COORD97":2543157.27,"ADDRESS":"長榮路二段３２巷１１８號","OBJECTID":371493},"geometry":{"x":170177.36000000034,"y":2543157.2700000033}},{"attributes":{"ID":371504,"DIS_CODE":0,"TOWNNAME":"東區","LI":"東安里","LIN":"12鄰","STREET":"長榮路","SECT":"二段","MAREA":" ","LANE":"３２巷","ALLEY":" ","HOUSE_NO":"１２０號","E_COORD97":170184.29000000001,"N_COORD97":2543157.0800000001,"ADDRESS":"長榮路二段３２巷１２０號","OBJECTID":371494},"geometry":{"x":170184.29000000004,"y":2543157.0800000019}},{"attributes":{"ID":371505,"DIS_CODE":0,"TOWNNAME":"東區","LI":"東安里","LIN":"12鄰","STREET":"長榮路","SECT":"二段","MAREA":" ","LANE":"３２巷","ALLEY":" ","HOUSE_NO":"１２４號","E_COORD97":170188.91,"N_COORD97":2543147.1600000001,"ADDRESS":"長榮路二段３２巷１２４號","OBJECTID":371495},"geometry":{"x":170188.91000000201,"y":2543147.1600000001}},{"attributes":{"ID":371506,"DIS_CODE":0,"TOWNNAME":"東區","LI":"東安里","LIN":"12鄰","STREET":"長榮路","SECT":"二段","MAREA":" ","LANE":"３２巷","ALLEY":" ","HOUSE_NO":"１２６號","E_COORD97":170177.51000000001,"N_COORD97":2543143.1699999999,"ADDRESS":"長榮路二段３２巷１２６號","OBJECTID":371496},"geometry":{"x":170177.50999999978,"y":2543143.1700000018}},{"attributes":{"ID":371507,"DIS_CODE":0,"TOWNNAME":"東區","LI":"東安里","LIN":"12鄰","STREET":"長榮路","SECT":"二段","MAREA":" ","LANE":"３２巷","ALLEY":" ","HOUSE_NO":"１３８號","E_COORD97":170201.44,"N_COORD97":2543145.0699999998,"ADDRESS":"長榮路二段３２巷１３８號","OBJECTID":371497},"geometry":{"x":170201.44000000134,"y":2543145.0700000003}},{"attributes":{"ID":371508,"DIS_CODE":0,"TOWNNAME":"東區","LI":"東安里","LIN":"12鄰","STREET":"長榮路","SECT":"二段","MAREA":" ","LANE":"３２巷","ALLEY":" ","HOUSE_NO":"１４０號","E_COORD97":170202.79999999999,"N_COORD97":2543141.8100000001,"ADDRESS":"長榮路二段３２巷１４０號","OBJECTID":371498},"geometry":{"x":170202.79999999888,"y":2543141.8100000024}},{"attributes":{"ID":371509,"DIS_CODE":0,"TOWNNAME":"東區","LI":"東安里","LIN":"12鄰","STREET":"長榮路","SECT":"二段","MAREA":" ","LANE":"３２巷","ALLEY":" ","HOUSE_NO":"９２號","E_COORD97":170155.23000000001,"N_COORD97":2543191.6699999999,"ADDRESS":"長榮路二段３２巷９２號","OBJECTID":371499},"geometry":{"x":170155.23000000138,"y":2543191.6699999999}},{"attributes":{"ID":371510,"DIS_CODE":0,"TOWNNAME":"東區","LI":"東安里","LIN":"12鄰","STREET":"長榮路","SECT":"二段","MAREA":" ","LANE":"３２巷","ALLEY":" ","HOUSE_NO":"９６號","E_COORD97":170169.84,"N_COORD97":2543192.1000000001,"ADDRESS":"長榮路二段３２巷９６號","OBJECTID":371500},"geometry":{"x":170169.83999999985,"y":2543192.0999999996}},{"attributes":{"ID":371511,"DIS_CODE":0,"TOWNNAME":"東區","LI":"東安里","LIN":"12鄰","STREET":"長榮路","SECT":"二段","MAREA":" ","LANE":"３２巷","ALLEY":" ","HOUSE_NO":"９８號","E_COORD97":170176.73999999999,"N_COORD97":2543184.9500000002,"ADDRESS":"長榮路二段３２巷９８號","OBJECTID":371501},"geometry":{"x":170176.74000000209,"y":2543184.9499999993}},{"attributes":{"ID":371512,"DIS_CODE":0,"TOWNNAME":"東區","LI":"崇學里","LIN":"12鄰","STREET":"崇明十街","SECT":" ","MAREA":" ","LANE":"７０巷","ALLEY":" ","HOUSE_NO":"６號","E_COORD97":170222.31,"N_COORD97":2541861.3199999998,"ADDRESS":"崇明十街７０巷６號","OBJECTID":371502},"geometry":{"x":170222.30999999959,"y":2541861.3200000003}},{"attributes":{"ID":371513,"DIS_CODE":0,"TOWNNAME":"永康區","LI":"西橋里","LIN":"12鄰","STREET":"中華西街","SECT":" ","MAREA":" ","LANE":"１２７巷","ALLEY":" ","HOUSE_NO":"１８號","E_COORD97":170606.67000000001,"N_COORD97":2546164.2400000002,"ADDRESS":"中華西街１２７巷１８號","OBJECTID":371503},"geometry":{"x":170606.66999999993,"y":2546164.2400000002}},{"attributes":{"ID":371514,"DIS_CODE":0,"TOWNNAME":"永康區","LI":"西勢里","LIN":"12鄰","STREET":"廣興街","SECT":" ","MAREA":" ","LANE":"１５１巷","ALLEY":" ","HOUSE_NO":"７號","E_COORD97":176137,"N_COORD97":2546576.9900000002,"ADDRESS":"廣興街１５１巷７號","OBJECTID":371504},"geometry":{"x":176137.00000000093,"y":2546576.9900000002}},{"attributes":{"ID":371515,"DIS_CODE":0,"TOWNNAME":"永康區","LI":"甲頂里","LIN":"12鄰","STREET":"中正南路","SECT":" ","MAREA":" ","LANE":"５２巷","ALLEY":" ","HOUSE_NO":"９６號","E_COORD97":170126.09,"N_COORD97":2546796.6000000001,"ADDRESS":"中正南路５２巷９６號","OBJECTID":371505},"geometry":{"x":170126.08999999985,"y":2546796.6000000034}},{"attributes":{"ID":371516,"DIS_CODE":0,"TOWNNAME":"東區","LI":"大智里","LIN":"12鄰","STREET":"長東街","SECT":" ","MAREA":" ","LANE":"１３３巷","ALLEY":" ","HOUSE_NO":"３號","E_COORD97":171036.60999999999,"N_COORD97":2540179.2000000002,"ADDRESS":"長東街１３３巷３號","OBJECTID":371506},"geometry":{"x":171036.61000000034,"y":2540179.1999999993}},{"attributes":{"ID":371517,"DIS_CODE":0,"TOWNNAME":"永康區","LI":"甲頂里","LIN":"12鄰","STREET":"中正南路","SECT":" ","MAREA":" ","LANE":"５２巷","ALLEY":" ","HOUSE_NO":"９０號","E_COORD97":170105.60999999999,"N_COORD97":2546796.7799999998,"ADDRESS":"中正南路５２巷９０號","OBJECTID":371507},"geometry":{"x":170105.61000000034,"y":2546796.7799999993}},{"attributes":{"ID":371518,"DIS_CODE":0,"TOWNNAME":"永康區","LI":"西橋里","LIN":"12鄰","STREET":"中華西街","SECT":" ","MAREA":" ","LANE":"１２７巷","ALLEY":" ","HOUSE_NO":"２４號","E_COORD97":170599.98000000001,"N_COORD97":2546158.2400000002,"ADDRESS":"中華西街１２７巷２４號","OBJECTID":371508},"geometry":{"x":170599.98000000045,"y":2546158.2400000002}},{"attributes":{"ID":371519,"DIS_CODE":0,"TOWNNAME":"新化區","LI":"東榮里","LIN":"13鄰","STREET":"中興路","SECT":" ","MAREA":" ","LANE":"５８０巷","ALLEY":" ","HOUSE_NO":"２２號之１","E_COORD97":179857.16,"N_COORD97":2548029.25,"ADDRESS":"中興路５８０巷２２號之１","OBJECTID":371509},"geometry":{"x":179857.16000000108,"y":2548029.25}},{"attributes":{"ID":371520,"DIS_CODE":0,"TOWNNAME":"永康區","LI":"西灣里","LIN":"12鄰","STREET":"大灣五街","SECT":" ","MAREA":" ","LANE":"２１０巷","ALLEY":" ","HOUSE_NO":"１５號","E_COORD97":174453.67999999999,"N_COORD97":2545382.25,"ADDRESS":"大灣五街２１０巷１５號","OBJECTID":371510},"geometry":{"x":174453.68000000063,"y":2545382.2500000037}},{"attributes":{"ID":371521,"DIS_CODE":0,"TOWNNAME":"永康區","LI":"甲頂里","LIN":"12鄰","STREET":"中正南路","SECT":" ","MAREA":" ","LANE":"５２巷","ALLEY":" ","HOUSE_NO":"９６號","E_COORD97":170132.44,"N_COORD97":2546796.1000000001,"ADDRESS":"中正南路５２巷９６號","OBJECTID":371511},"geometry":{"x":170132.44000000041,"y":2546796.0999999996}},{"attributes":{"ID":371522,"DIS_CODE":0,"TOWNNAME":"永康區","LI":"西橋里","LIN":"12鄰","STREET":"中華西街","SECT":" ","MAREA":" ","LANE":"１２７巷","ALLEY":" ","HOUSE_NO":"４號之３","E_COORD97":170622.20000000001,"N_COORD97":2546197.2999999998,"ADDRESS":"中華西街１２７巷４號之３","OBJECTID":371512},"geometry":{"x":170622.20000000019,"y":2546197.3000000026}},{"attributes":{"ID":371523,"DIS_CODE":0,"TOWNNAME":"永康區","LI":"甲頂里","LIN":"12鄰","STREET":"中正南路","SECT":" ","MAREA":" ","LANE":"５２巷","ALLEY":" ","HOUSE_NO":"９６號","E_COORD97":170120.57000000001,"N_COORD97":2546794.6000000001,"ADDRESS":"中正南路５２巷９６號","OBJECTID":371513},"geometry":{"x":170120.57000000123,"y":2546794.6000000015}},{"attributes":{"ID":371524,"DIS_CODE":0,"TOWNNAME":"永康區","LI":"甲頂里","LIN":"12鄰","STREET":"中正南路","SECT":" ","MAREA":" ","LANE":"５２巷","ALLEY":" ","HOUSE_NO":"９６號","E_COORD97":170133.01999999999,"N_COORD97":2546796.5600000001,"ADDRESS":"中正南路５２巷９６號","OBJECTID":371514},"geometry":{"x":170133.01999999955,"y":2546796.5600000005}},{"attributes":{"ID":371525,"DIS_CODE":0,"TOWNNAME":"永康區","LI":"甲頂里","LIN":"12鄰","STREET":"中正南路","SECT":" ","MAREA":" ","LANE":"５２巷","ALLEY":" ","HOUSE_NO":"８４號","E_COORD97":170090.25,"N_COORD97":2546796.0299999998,"ADDRESS":"中正南路５２巷８４號","OBJECTID":371515},"geometry":{"x":170090.25000000093,"y":2546796.0299999993}},{"attributes":{"ID":371526,"DIS_CODE":0,"TOWNNAME":"永康區","LI":"甲頂里","LIN":"12鄰","STREET":"中正南路","SECT":" ","MAREA":" ","LANE":"５２巷","ALLEY":" ","HOUSE_NO":"９６號","E_COORD97":170120.67000000001,"N_COORD97":2546794.6000000001,"ADDRESS":"中正南路５２巷９６號","OBJECTID":371516},"geometry":{"x":170120.66999999993,"y":2546794.6000000015}},{"attributes":{"ID":371527,"DIS_CODE":0,"TOWNNAME":"永康區","LI":"甲頂里","LIN":"12鄰","STREET":"中正南路","SECT":" ","MAREA":" ","LANE":"５２巷","ALLEY":" ","HOUSE_NO":"８２號","E_COORD97":170085.16,"N_COORD97":2546796.0299999998,"ADDRESS":"中正南路５２巷８２號","OBJECTID":371517},"geometry":{"x":170085.16000000015,"y":2546796.0299999993}},{"attributes":{"ID":371528,"DIS_CODE":0,"TOWNNAME":"永康區","LI":"甲頂里","LIN":"12鄰","STREET":"中正南路","SECT":" ","MAREA":" ","LANE":"５２巷","ALLEY":" ","HOUSE_NO":"９６號","E_COORD97":170126.13,"N_COORD97":2546796.6000000001,"ADDRESS":"中正南路５２巷９６號","OBJECTID":371518},"geometry":{"x":170126.13000000175,"y":2546796.6000000034}},{"attributes":{"ID":371529,"DIS_CODE":0,"TOWNNAME":"永康區","LI":"甲頂里","LIN":"12鄰","STREET":"中正南路","SECT":" ","MAREA":" ","LANE":"５２巷","ALLEY":" ","HOUSE_NO":"９６號","E_COORD97":170126.13,"N_COORD97":2546796.6000000001,"ADDRESS":"中正南路５２巷９６號","OBJECTID":371519},"geometry":{"x":170126.13000000175,"y":2546796.6000000034}},{"attributes":{"ID":371530,"DIS_CODE":0,"TOWNNAME":"永康區","LI":"尚頂里","LIN":"12鄰","STREET":"正南一街","SECT":" ","MAREA":" ","LANE":"９２巷","ALLEY":" ","HOUSE_NO":"４８號","E_COORD97":171146.48000000001,"N_COORD97":2547397.9700000002,"ADDRESS":"正南一街９２巷４８號","OBJECTID":371520},"geometry":{"x":171146.47999999952,"y":2547397.9700000007}},{"attributes":{"ID":371531,"DIS_CODE":0,"TOWNNAME":"永康區","LI":"甲頂里","LIN":"12鄰","STREET":"中正南路","SECT":" ","MAREA":" ","LANE":"５２巷","ALLEY":" ","HOUSE_NO":"９６號","E_COORD97":170137.47,"N_COORD97":2546796.5600000001,"ADDRESS":"中正南路５２巷９６號","OBJECTID":371521},"geometry":{"x":170137.47000000067,"y":2546796.5600000005}},{"attributes":{"ID":371532,"DIS_CODE":0,"TOWNNAME":"永康區","LI":"甲頂里","LIN":"12鄰","STREET":"中正南路","SECT":" ","MAREA":" ","LANE":"５２巷","ALLEY":" ","HOUSE_NO":"７４號","E_COORD97":170065.45999999999,"N_COORD97":2546795.7799999998,"ADDRESS":"中正南路５２巷７４號","OBJECTID":371522},"geometry":{"x":170065.46000000089,"y":2546795.7800000012}},{"attributes":{"ID":371533,"DIS_CODE":0,"TOWNNAME":"永康區","LI":"甲頂里","LIN":"12鄰","STREET":"中正南路","SECT":" ","MAREA":" ","LANE":"５２巷","ALLEY":" ","HOUSE_NO":"７８號","E_COORD97":170075.29999999999,"N_COORD97":2546796.0299999998,"ADDRESS":"中正南路５２巷７８號","OBJECTID":371523},"geometry":{"x":170075.29999999981,"y":2546796.0299999993}},{"attributes":{"ID":371534,"DIS_CODE":0,"TOWNNAME":"永康區","LI":"西勢里","LIN":"12鄰","STREET":"廣興街","SECT":" ","MAREA":" ","LANE":"１４７巷","ALLEY":" ","HOUSE_NO":"５號","E_COORD97":176119.16,"N_COORD97":2546596.9900000002,"ADDRESS":"廣興街１４７巷５號","OBJECTID":371524},"geometry":{"x":176119.16000000108,"y":2546596.9900000002}},{"attributes":{"ID":371535,"DIS_CODE":0,"TOWNNAME":"永康區","LI":"西勢里","LIN":"12鄰","STREET":"廣興街","SECT":" ","MAREA":" ","LANE":"１４７巷","ALLEY":" ","HOUSE_NO":"１６號","E_COORD97":176140.82000000001,"N_COORD97":2546644.8300000001,"ADDRESS":"廣興街１４７巷１６號","OBJECTID":371525},"geometry":{"x":176140.8200000003,"y":2546644.8300000001}},{"attributes":{"ID":371536,"DIS_CODE":0,"TOWNNAME":"永康區","LI":"甲頂里","LIN":"12鄰","STREET":"中正南路","SECT":" ","MAREA":" ","LANE":"５２巷","ALLEY":" ","HOUSE_NO":"９６號","E_COORD97":170120.70999999999,"N_COORD97":2546794.6000000001,"ADDRESS":"中正南路５２巷９６號","OBJECTID":371526},"geometry":{"x":170120.71000000183,"y":2546794.6000000015}},{"attributes":{"ID":371537,"DIS_CODE":0,"TOWNNAME":"永康區","LI":"西灣里","LIN":"12鄰","STREET":"大灣五街","SECT":" ","MAREA":" ","LANE":"２１０巷","ALLEY":" ","HOUSE_NO":"１７號","E_COORD97":174457.73000000001,"N_COORD97":2545381,"ADDRESS":"大灣五街２１０巷１７號","OBJECTID":371527},"geometry":{"x":174457.73000000138,"y":2545381.0000000019}},{"attributes":{"ID":371538,"DIS_CODE":0,"TOWNNAME":"永康區","LI":"西灣里","LIN":"12鄰","STREET":"大灣五街","SECT":" ","MAREA":" ","LANE":"１６６巷","ALLEY":" ","HOUSE_NO":"６號","E_COORD97":174509.04000000001,"N_COORD97":2545353.4399999999,"ADDRESS":"大灣五街１６６巷６號","OBJECTID":371528},"geometry":{"x":174509.0400000019,"y":2545353.4400000013}},{"attributes":{"ID":371539,"DIS_CODE":0,"TOWNNAME":"永康區","LI":"西橋里","LIN":"12鄰","STREET":"中華西街","SECT":" ","MAREA":" ","LANE":"１２７巷","ALLEY":" ","HOUSE_NO":"１６號","E_COORD97":170612.66,"N_COORD97":2546167.7400000002,"ADDRESS":"中華西街１２７巷１６號","OBJECTID":371529},"geometry":{"x":170612.65999999922,"y":2546167.7400000002}},{"attributes":{"ID":371540,"DIS_CODE":0,"TOWNNAME":"永康區","LI":"甲頂里","LIN":"12鄰","STREET":"中正南路","SECT":" ","MAREA":" ","LANE":"５２巷","ALLEY":" ","HOUSE_NO":"８０號","E_COORD97":170080.41,"N_COORD97":2546796.0299999998,"ADDRESS":"中正南路５２巷８０號","OBJECTID":371530},"geometry":{"x":170080.41000000201,"y":2546796.0299999993}},{"attributes":{"ID":371541,"DIS_CODE":0,"TOWNNAME":"永康區","LI":"西灣里","LIN":"12鄰","STREET":"大灣五街","SECT":" ","MAREA":" ","LANE":"２１０巷","ALLEY":" ","HOUSE_NO":"１１號","E_COORD97":174442.48000000001,"N_COORD97":2545389.5,"ADDRESS":"大灣五街２１０巷１１號","OBJECTID":371531},"geometry":{"x":174442.48000000138,"y":2545389.5}},{"attributes":{"ID":371542,"DIS_CODE":0,"TOWNNAME":"永康區","LI":"\u25A0洲里","LIN":"12鄰","STREET":"\u25A0洲一街","SECT":" ","MAREA":" ","LANE":"１１巷","ALLEY":" ","HOUSE_NO":"２９號","E_COORD97":171555.72,"N_COORD97":2549113,"ADDRESS":"\u25A0洲一街１１巷２９號","OBJECTID":371532},"geometry":{"x":171555.71999999974,"y":2549112.9999999981}},{"attributes":{"ID":371543,"DIS_CODE":0,"TOWNNAME":"永康區","LI":"\u25A0洲里","LIN":"12鄰","STREET":"\u25A0洲一街","SECT":" ","MAREA":" ","LANE":"１１巷","ALLEY":" ","HOUSE_NO":"３７號","E_COORD97":171568.19,"N_COORD97":2549125,"ADDRESS":"\u25A0洲一街１１巷３７號","OBJECTID":371533},"geometry":{"x":171568.19000000041,"y":2549125.0000000019}},{"attributes":{"ID":371544,"DIS_CODE":0,"TOWNNAME":"永康區","LI":"\u25A0洲里","LIN":"12鄰","STREET":"\u25A0洲一街","SECT":" ","MAREA":" ","LANE":"１１巷","ALLEY":" ","HOUSE_NO":"３６號","E_COORD97":171558.35999999999,"N_COORD97":2549091.4900000002,"ADDRESS":"\u25A0洲一街１１巷３６號","OBJECTID":371534},"geometry":{"x":171558.36000000127,"y":2549091.4900000002}},{"attributes":{"ID":371545,"DIS_CODE":0,"TOWNNAME":"新化區","LI":"豐榮里","LIN":"12鄰","STREET":"民治路","SECT":" ","MAREA":" ","LANE":"４３巷","ALLEY":" ","HOUSE_NO":"５６號","E_COORD97":178611.70999999999,"N_COORD97":2548097.25,"ADDRESS":"民治路４３巷５６號","OBJECTID":371535},"geometry":{"x":178611.70999999903,"y":2548097.25}},{"attributes":{"ID":371546,"DIS_CODE":0,"TOWNNAME":"新化區","LI":"豐榮里","LIN":"12鄰","STREET":"民治路","SECT":" ","MAREA":" ","LANE":"４３巷","ALLEY":" ","HOUSE_NO":"５２號","E_COORD97":178616.20999999999,"N_COORD97":2548098.25,"ADDRESS":"民治路４３巷５２號","OBJECTID":371536},"geometry":{"x":178616.20999999996,"y":2548098.2500000019}},{"attributes":{"ID":371547,"DIS_CODE":0,"TOWNNAME":"新化區","LI":"協興里","LIN":"12鄰","STREET":"大新路","SECT":" ","MAREA":" ","LANE":"１１６巷","ALLEY":" ","HOUSE_NO":"１５號","E_COORD97":178218.23999999999,"N_COORD97":2548843.5600000001,"ADDRESS":"大新路１１６巷１５號","OBJECTID":371537},"geometry":{"x":178218.24000000022,"y":2548843.5600000024}},{"attributes":{"ID":371548,"DIS_CODE":0,"TOWNNAME":"新化區","LI":"協興里","LIN":"12鄰","STREET":"大新路","SECT":" ","MAREA":" ","LANE":"１１６巷","ALLEY":" ","HOUSE_NO":"１７號","E_COORD97":178222.64000000001,"N_COORD97":2548845.98,"ADDRESS":"大新路１１６巷１７號","OBJECTID":371538},"geometry":{"x":178222.6400000006,"y":2548845.9800000042}},{"attributes":{"ID":371549,"DIS_CODE":0,"TOWNNAME":"新化區","LI":"協興里","LIN":"12鄰","STREET":"大新路","SECT":" ","MAREA":" ","LANE":"１１６巷","ALLEY":" ","HOUSE_NO":"１９號","E_COORD97":178205.89999999999,"N_COORD97":2548862.48,"ADDRESS":"大新路１１６巷１９號","OBJECTID":371539},"geometry":{"x":178205.90000000224,"y":2548862.4800000004}},{"attributes":{"ID":371550,"DIS_CODE":0,"TOWNNAME":"新化區","LI":"協興里","LIN":"12鄰","STREET":"大新路","SECT":" ","MAREA":" ","LANE":"１１６巷","ALLEY":" ","HOUSE_NO":"２１號","E_COORD97":178201.76999999999,"N_COORD97":2548871.6400000001,"ADDRESS":"大新路１１６巷２１號","OBJECTID":371540},"geometry":{"x":178201.76999999955,"y":2548871.6400000006}},{"attributes":{"ID":371551,"DIS_CODE":0,"TOWNNAME":"新化區","LI":"協興里","LIN":"12鄰","STREET":"大新路","SECT":" ","MAREA":" ","LANE":"１１６巷","ALLEY":" ","HOUSE_NO":"２３號","E_COORD97":178197.07999999999,"N_COORD97":2548881.0899999999,"ADDRESS":"大新路１１６巷２３號","OBJECTID":371541},"geometry":{"x":178197.08000000007,"y":2548881.0899999999}},{"attributes":{"ID":371552,"DIS_CODE":0,"TOWNNAME":"新化區","LI":"協興里","LIN":"12鄰","STREET":"大新路","SECT":" ","MAREA":" ","LANE":"１１６巷","ALLEY":" ","HOUSE_NO":"２５號","E_COORD97":178192.26000000001,"N_COORD97":2548890.5,"ADDRESS":"大新路１１６巷２５號","OBJECTID":371542},"geometry":{"x":178192.25999999978,"y":2548890.5000000019}},{"attributes":{"ID":371553,"DIS_CODE":0,"TOWNNAME":"安南區","LI":"城南里","LIN":"12鄰","STREET":"城西街","SECT":"二段","MAREA":" ","LANE":"２６２巷","ALLEY":" ","HOUSE_NO":"１０號","E_COORD97":159697.5,"N_COORD97":2551029.2999999998,"ADDRESS":"城西街二段２６２巷１０號","OBJECTID":371543},"geometry":{"x":159697.50000000093,"y":2551029.3000000007}},{"attributes":{"ID":371554,"DIS_CODE":0,"TOWNNAME":"安南區","LI":"城南里","LIN":"12鄰","STREET":"城西街","SECT":"二段","MAREA":" ","LANE":"２６２巷","ALLEY":" ","HOUSE_NO":"３號","E_COORD97":159677.07000000001,"N_COORD97":2551039.0499999998,"ADDRESS":"城西街二段２６２巷３號","OBJECTID":371544},"geometry":{"x":159677.0700000003,"y":2551039.0500000007}},{"attributes":{"ID":371555,"DIS_CODE":0,"TOWNNAME":"安南區","LI":"城南里","LIN":"12鄰","STREET":"城西街","SECT":"二段","MAREA":" ","LANE":"２６２巷","ALLEY":" ","HOUSE_NO":"５號","E_COORD97":159685.91,"N_COORD97":2551039.6600000001,"ADDRESS":"城西街二段２６２巷５號","OBJECTID":371545},"geometry":{"x":159685.91000000108,"y":2551039.660000002}},{"attributes":{"ID":371556,"DIS_CODE":0,"TOWNNAME":"安南區","LI":"城南里","LIN":"12鄰","STREET":"城西街","SECT":"二段","MAREA":" ","LANE":"２６２巷","ALLEY":" ","HOUSE_NO":"６號","E_COORD97":159704.82000000001,"N_COORD97":2551016.8199999998,"ADDRESS":"城西街二段２６２巷６號","OBJECTID":371546},"geometry":{"x":159704.8200000003,"y":2551016.820000004}},{"attributes":{"ID":371557,"DIS_CODE":0,"TOWNNAME":"安南區","LI":"城南里","LIN":"12鄰","STREET":"城西街","SECT":"二段","MAREA":" ","LANE":"３１８巷","ALLEY":" ","HOUSE_NO":"５６８號","E_COORD97":159341.89000000001,"N_COORD97":2551845.5899999999,"ADDRESS":"城西街二段３１８巷５６８號","OBJECTID":371547},"geometry":{"x":159341.8900000006,"y":2551845.5900000017}},{"attributes":{"ID":371558,"DIS_CODE":0,"TOWNNAME":"安南區","LI":"安和里","LIN":"12鄰","STREET":"安和路","SECT":"一段","MAREA":" ","LANE":"５２巷","ALLEY":" ","HOUSE_NO":"２２號","E_COORD97":169621.97,"N_COORD97":2547513.6200000001,"ADDRESS":"安和路一段５２巷２２號","OBJECTID":371548},"geometry":{"x":169621.9700000016,"y":2547513.6200000029}},{"attributes":{"ID":371559,"DIS_CODE":0,"TOWNNAME":"安南區","LI":"安和里","LIN":"12鄰","STREET":"安和路","SECT":"一段","MAREA":" ","LANE":"５２巷","ALLEY":" ","HOUSE_NO":"２４號","E_COORD97":169626.85999999999,"N_COORD97":2547517.4500000002,"ADDRESS":"安和路一段５２巷２４號","OBJECTID":371549},"geometry":{"x":169626.86000000127,"y":2547517.4500000011}},{"attributes":{"ID":371560,"DIS_CODE":0,"TOWNNAME":"安南區","LI":"安和里","LIN":"12鄰","STREET":"安和路","SECT":"一段","MAREA":" ","LANE":"５２巷","ALLEY":" ","HOUSE_NO":"２６號","E_COORD97":169630.92000000001,"N_COORD97":2547520.7200000002,"ADDRESS":"安和路一段５２巷２６號","OBJECTID":371550},"geometry":{"x":169630.92000000179,"y":2547520.7200000007}},{"attributes":{"ID":371561,"DIS_CODE":0,"TOWNNAME":"安南區","LI":"安和里","LIN":"12鄰","STREET":"安和路","SECT":"一段","MAREA":" ","LANE":"５２巷","ALLEY":" ","HOUSE_NO":"３２號","E_COORD97":169643.20000000001,"N_COORD97":2547533.0899999999,"ADDRESS":"安和路一段５２巷３２號","OBJECTID":371551},"geometry":{"x":169643.20000000112,"y":2547533.0900000017}},{"attributes":{"ID":371562,"DIS_CODE":0,"TOWNNAME":"安南區","LI":"安和里","LIN":"12鄰","STREET":"安和路","SECT":"一段","MAREA":" ","LANE":"５２巷","ALLEY":" ","HOUSE_NO":"３４號","E_COORD97":169647.38,"N_COORD97":2547536.8100000001,"ADDRESS":"安和路一段５２巷３４號","OBJECTID":371552},"geometry":{"x":169647.37999999989,"y":2547536.8100000024}},{"attributes":{"ID":371563,"DIS_CODE":0,"TOWNNAME":"安南區","LI":"安和里","LIN":"12鄰","STREET":"安和路","SECT":"一段","MAREA":" ","LANE":"５２巷","ALLEY":" ","HOUSE_NO":"３６號","E_COORD97":169651.32999999999,"N_COORD97":2547541.2200000002,"ADDRESS":"安和路一段５２巷３６號","OBJECTID":371553},"geometry":{"x":169651.33000000007,"y":2547541.2200000007}},{"attributes":{"ID":371564,"DIS_CODE":0,"TOWNNAME":"安南區","LI":"安和里","LIN":"12鄰","STREET":"安和路","SECT":"一段","MAREA":" ","LANE":"５２巷","ALLEY":" ","HOUSE_NO":"３８號","E_COORD97":169655.98000000001,"N_COORD97":2547545.3999999999,"ADDRESS":"安和路一段５２巷３８號","OBJECTID":371554},"geometry":{"x":169655.98000000045,"y":2547545.4000000022}},{"attributes":{"ID":371565,"DIS_CODE":0,"TOWNNAME":"安南區","LI":"安和里","LIN":"12鄰","STREET":"安和路","SECT":"一段","MAREA":" ","LANE":"５２巷","ALLEY":" ","HOUSE_NO":"４２號","E_COORD97":169664.34,"N_COORD97":2547553.52,"ADDRESS":"安和路一段５２巷４２號","OBJECTID":371555},"geometry":{"x":169664.34000000078,"y":2547553.5200000014}},{"attributes":{"ID":371566,"DIS_CODE":0,"TOWNNAME":"善化區","LI":"文昌里","LIN":"12鄰","STREET":"中和街","SECT":" ","MAREA":" ","LANE":"４０巷","ALLEY":" ","HOUSE_NO":"５之１號","E_COORD97":177418.67000000001,"N_COORD97":2558890.52,"ADDRESS":"中和街４０巷５之１號","OBJECTID":371556},"geometry":{"x":177418.67000000179,"y":2558890.5200000033}},{"attributes":{"ID":371567,"DIS_CODE":0,"TOWNNAME":"善化區","LI":"坐駕里","LIN":"12鄰","STREET":"大成路","SECT":" ","MAREA":" ","LANE":"２７１巷","ALLEY":" ","HOUSE_NO":"８號","E_COORD97":178213.98000000001,"N_COORD97":2558794.25,"ADDRESS":"大成路２７１巷８號","OBJECTID":371557},"geometry":{"x":178213.98000000138,"y":2558794.2499999981}},{"attributes":{"ID":371568,"DIS_CODE":0,"TOWNNAME":"善化區","LI":"坐駕里","LIN":"12鄰","STREET":"大成路","SECT":" ","MAREA":" ","LANE":"２７１巷","ALLEY":" ","HOUSE_NO":"７號","E_COORD97":178239.98000000001,"N_COORD97":2558791.75,"ADDRESS":"大成路２７１巷７號","OBJECTID":371558},"geometry":{"x":178239.98000000138,"y":2558791.7500000019}},{"attributes":{"ID":371569,"DIS_CODE":0,"TOWNNAME":"善化區","LI":"坐駕里","LIN":"12鄰","STREET":"大成路","SECT":" ","MAREA":" ","LANE":"２７１巷","ALLEY":" ","HOUSE_NO":"３號","E_COORD97":178241.16,"N_COORD97":2558801,"ADDRESS":"大成路２７１巷３號","OBJECTID":371559},"geometry":{"x":178241.16000000201,"y":2558801.0000000019}},{"attributes":{"ID":371570,"DIS_CODE":0,"TOWNNAME":"善化區","LI":"坐駕里","LIN":"12鄰","STREET":"大成路","SECT":" ","MAREA":" ","LANE":"２７１巷","ALLEY":" ","HOUSE_NO":"１２號","E_COORD97":178212.82000000001,"N_COORD97":2558785.75,"ADDRESS":"大成路２７１巷１２號","OBJECTID":371560},"geometry":{"x":178212.8200000003,"y":2558785.7500000019}},{"attributes":{"ID":371571,"DIS_CODE":0,"TOWNNAME":"善化區","LI":"坐駕里","LIN":"12鄰","STREET":"大成路","SECT":" ","MAREA":" ","LANE":"２７１巷","ALLEY":" ","HOUSE_NO":"５號","E_COORD97":178240.94,"N_COORD97":2558796.5,"ADDRESS":"大成路２７１巷５號","OBJECTID":371561},"geometry":{"x":178240.94000000041,"y":2558796.5000000019}},{"attributes":{"ID":371572,"DIS_CODE":0,"TOWNNAME":"善化區","LI":"坐駕里","LIN":"12鄰","STREET":"大成路","SECT":" ","MAREA":" ","LANE":"２７１巷","ALLEY":" ","HOUSE_NO":"１號","E_COORD97":178240.87,"N_COORD97":2558805,"ADDRESS":"大成路２７１巷１號","OBJECTID":371562},"geometry":{"x":178240.87000000011,"y":2558805}},{"attributes":{"ID":371573,"DIS_CODE":0,"TOWNNAME":"善化區","LI":"光文里","LIN":"12鄰","STREET":"仁愛路","SECT":" ","MAREA":" ","LANE":"２４巷","ALLEY":" ","HOUSE_NO":"４號","E_COORD97":178550.5,"N_COORD97":2558946.0099999998,"ADDRESS":"仁愛路２４巷４號","OBJECTID":371563},"geometry":{"x":178550.50000000186,"y":2558946.0100000016}},{"attributes":{"ID":371574,"DIS_CODE":0,"TOWNNAME":"善化區","LI":"文正里","LIN":"12鄰","STREET":"文正路","SECT":" ","MAREA":" ","LANE":"２５巷","ALLEY":" ","HOUSE_NO":"１之２號","E_COORD97":176949.95000000001,"N_COORD97":2559253.0299999998,"ADDRESS":"文正路２５巷１之２號","OBJECTID":371564},"geometry":{"x":176949.95000000112,"y":2559253.0300000031}},{"attributes":{"ID":371575,"DIS_CODE":0,"TOWNNAME":"善化區","LI":"文昌里","LIN":"12鄰","STREET":"中和街","SECT":" ","MAREA":" ","LANE":"４０巷","ALLEY":" ","HOUSE_NO":"５號","E_COORD97":177412.91,"N_COORD97":2558894.75,"ADDRESS":"中和街４０巷５號","OBJECTID":371565},"geometry":{"x":177412.91000000108,"y":2558894.75}},{"attributes":{"ID":371576,"DIS_CODE":0,"TOWNNAME":"善化區","LI":"文正里","LIN":"12鄰","STREET":"文正路","SECT":" ","MAREA":" ","LANE":"２５巷","ALLEY":" ","HOUSE_NO":"１之５號","E_COORD97":176949.35999999999,"N_COORD97":2559267.02,"ADDRESS":"文正路２５巷１之５號","OBJECTID":371566},"geometry":{"x":176949.36000000034,"y":2559267.0200000033}},{"attributes":{"ID":371577,"DIS_CODE":0,"TOWNNAME":"善化區","LI":"光文里","LIN":"12鄰","STREET":"民生路","SECT":" ","MAREA":" ","LANE":"１６９巷","ALLEY":" ","HOUSE_NO":"１０號","E_COORD97":178489.35000000001,"N_COORD97":2558927.7599999998,"ADDRESS":"民生路１６９巷１０號","OBJECTID":371567},"geometry":{"x":178489.34999999963,"y":2558927.7600000016}},{"attributes":{"ID":371578,"DIS_CODE":0,"TOWNNAME":"善化區","LI":"光文里","LIN":"12鄰","STREET":"民生路","SECT":" ","MAREA":" ","LANE":"３３巷","ALLEY":" ","HOUSE_NO":"１０號","E_COORD97":178822.13,"N_COORD97":2558991.2599999998,"ADDRESS":"民生路３３巷１０號","OBJECTID":371568},"geometry":{"x":178822.12999999989,"y":2558991.2600000016}},{"attributes":{"ID":371579,"DIS_CODE":0,"TOWNNAME":"善化區","LI":"光文里","LIN":"12鄰","STREET":"民生路","SECT":" ","MAREA":" ","LANE":"９８巷","ALLEY":" ","HOUSE_NO":"５號","E_COORD97":178684.82000000001,"N_COORD97":2559031.5099999998,"ADDRESS":"民生路９８巷５號","OBJECTID":371569},"geometry":{"x":178684.82000000123,"y":2559031.5099999998}},{"attributes":{"ID":371580,"DIS_CODE":0,"TOWNNAME":"善化區","LI":"西關里","LIN":"12鄰","STREET":"復興街","SECT":" ","MAREA":" ","LANE":"９４巷","ALLEY":" ","HOUSE_NO":"１０號","E_COORD97":176830.10999999999,"N_COORD97":2559053.0099999998,"ADDRESS":"復興街９４巷１０號","OBJECTID":371570},"geometry":{"x":176830.11000000127,"y":2559053.0099999998}},{"attributes":{"ID":371581,"DIS_CODE":0,"TOWNNAME":"善化區","LI":"西關里","LIN":"12鄰","STREET":"復興街","SECT":" ","MAREA":" ","LANE":"９６巷","ALLEY":" ","HOUSE_NO":"９號","E_COORD97":176806.48999999999,"N_COORD97":2559069.0099999998,"ADDRESS":"復興街９６巷９號","OBJECTID":371571},"geometry":{"x":176806.49000000209,"y":2559069.0099999998}},{"attributes":{"ID":371582,"DIS_CODE":0,"TOWNNAME":"善化區","LI":"光文里","LIN":"12鄰","STREET":"民生路","SECT":" ","MAREA":" ","LANE":"１６９巷","ALLEY":" ","HOUSE_NO":"１６號","E_COORD97":178491.26999999999,"N_COORD97":2558915.7599999998,"ADDRESS":"民生路１６９巷１６號","OBJECTID":371572},"geometry":{"x":178491.27000000048,"y":2558915.7599999998}},{"attributes":{"ID":371583,"DIS_CODE":0,"TOWNNAME":"善化區","LI":"光文里","LIN":"12鄰","STREET":"民生路","SECT":" ","MAREA":" ","LANE":"３３巷","ALLEY":" ","HOUSE_NO":"１８號","E_COORD97":178824.73000000001,"N_COORD97":2558975.5099999998,"ADDRESS":"民生路３３巷１８號","OBJECTID":371573},"geometry":{"x":178824.73000000138,"y":2558975.5100000035}},{"attributes":{"ID":371584,"DIS_CODE":0,"TOWNNAME":"善化區","LI":"西關里","LIN":"12鄰","STREET":"復興街","SECT":" ","MAREA":" ","LANE":"９６巷","ALLEY":" ","HOUSE_NO":"１號","E_COORD97":176803.39999999999,"N_COORD97":2559040.5099999998,"ADDRESS":"復興街９６巷１號","OBJECTID":371574},"geometry":{"x":176803.40000000037,"y":2559040.5100000016}},{"attributes":{"ID":371585,"DIS_CODE":0,"TOWNNAME":"善化區","LI":"光文里","LIN":"12鄰","STREET":"民生路","SECT":" ","MAREA":" ","LANE":"３３巷","ALLEY":" ","HOUSE_NO":"２０號","E_COORD97":178825.82000000001,"N_COORD97":2558969.7599999998,"ADDRESS":"民生路３３巷２０號","OBJECTID":371575},"geometry":{"x":178825.82000000123,"y":2558969.7599999998}},{"attributes":{"ID":371586,"DIS_CODE":0,"TOWNNAME":"善化區","LI":"西關里","LIN":"12鄰","STREET":"復興街","SECT":" ","MAREA":" ","LANE":"９４巷","ALLEY":" ","HOUSE_NO":"２０號","E_COORD97":176832.14999999999,"N_COORD97":2559074.5099999998,"ADDRESS":"復興街９４巷２０號","OBJECTID":371576},"geometry":{"x":176832.15000000037,"y":2559074.5100000016}},{"attributes":{"ID":371587,"DIS_CODE":0,"TOWNNAME":"東區","LI":"大學里","LIN":"12鄰","STREET":"長榮路","SECT":"三段","MAREA":" ","LANE":"６６巷","ALLEY":" ","HOUSE_NO":"４５號","E_COORD97":170361.44,"N_COORD97":2543797.7000000002,"ADDRESS":"長榮路三段６６巷４５號","OBJECTID":371577},"geometry":{"x":170361.44000000041,"y":2543797.6999999993}},{"attributes":{"ID":371588,"DIS_CODE":0,"TOWNNAME":"東區","LI":"大學里","LIN":"12鄰","STREET":"長榮路","SECT":"三段","MAREA":" ","LANE":"６６巷","ALLEY":" ","HOUSE_NO":"４９號","E_COORD97":170376.95999999999,"N_COORD97":2543790.1299999999,"ADDRESS":"長榮路三段６６巷４９號","OBJECTID":371578},"geometry":{"x":170376.96000000089,"y":2543790.129999999}},{"attributes":{"ID":371589,"DIS_CODE":0,"TOWNNAME":"東區","LI":"大學里","LIN":"12鄰","STREET":"長榮路","SECT":"三段","MAREA":" ","LANE":"６６巷","ALLEY":" ","HOUSE_NO":"５１號","E_COORD97":170384.67000000001,"N_COORD97":2543788.79,"ADDRESS":"長榮路三段６６巷５１號","OBJECTID":371579},"geometry":{"x":170384.66999999993,"y":2543788.790000001}},{"attributes":{"ID":371590,"DIS_CODE":0,"TOWNNAME":"東區","LI":"大學里","LIN":"12鄰","STREET":"長榮路","SECT":"三段","MAREA":" ","LANE":"６６巷","ALLEY":" ","HOUSE_NO":"５３號","E_COORD97":170390.85999999999,"N_COORD97":2543787.4399999999,"ADDRESS":"長榮路三段６６巷５３號","OBJECTID":371580},"geometry":{"x":170390.86000000034,"y":2543787.4400000013}},{"attributes":{"ID":371591,"DIS_CODE":0,"TOWNNAME":"東區","LI":"大學里","LIN":"12鄰","STREET":"長榮路","SECT":"三段","MAREA":" ","LANE":"６６巷","ALLEY":" ","HOUSE_NO":"５５號","E_COORD97":170398.31,"N_COORD97":2543786.6800000002,"ADDRESS":"長榮路三段６６巷５５號","OBJECTID":371581},"geometry":{"x":170398.31000000052,"y":2543786.6800000016}},{"attributes":{"ID":371592,"DIS_CODE":0,"TOWNNAME":"東區","LI":"大學里","LIN":"12鄰","STREET":"長榮路","SECT":"三段","MAREA":" ","LANE":"６６巷","ALLEY":" ","HOUSE_NO":"６２號","E_COORD97":170344.35000000001,"N_COORD97":2543779.7400000002,"ADDRESS":"長榮路三段６６巷６２號","OBJECTID":371582},"geometry":{"x":170344.34999999963,"y":2543779.7400000021}},{"attributes":{"ID":371593,"DIS_CODE":0,"TOWNNAME":"東區","LI":"大學里","LIN":"12鄰","STREET":"長榮路","SECT":"三段","MAREA":" ","LANE":"６６巷","ALLEY":" ","HOUSE_NO":"６６號","E_COORD97":170374.76999999999,"N_COORD97":2543776.2799999998,"ADDRESS":"長榮路三段６６巷６６號","OBJECTID":371583},"geometry":{"x":170374.77000000048,"y":2543776.2799999993}},{"attributes":{"ID":371594,"DIS_CODE":0,"TOWNNAME":"東區","LI":"大學里","LIN":"12鄰","STREET":"長榮路","SECT":"三段","MAREA":" ","LANE":"６６巷","ALLEY":" ","HOUSE_NO":"７０號","E_COORD97":170386.26000000001,"N_COORD97":2543774.8799999999,"ADDRESS":"長榮路三段６６巷７０號","OBJECTID":371584},"geometry":{"x":170386.26000000164,"y":2543774.879999999}},{"attributes":{"ID":371595,"DIS_CODE":0,"TOWNNAME":"東區","LI":"大同里","LIN":"12鄰","STREET":"大同路","SECT":"一段","MAREA":" ","LANE":"１５５巷","ALLEY":" ","HOUSE_NO":"２１號","E_COORD97":169205.95000000001,"N_COORD97":2542889.8199999998,"ADDRESS":"大同路一段１５５巷２１號","OBJECTID":371585},"geometry":{"x":169205.95000000112,"y":2542889.8199999984}},{"attributes":{"ID":371596,"DIS_CODE":0,"TOWNNAME":"東區","LI":"大學里","LIN":"12鄰","STREET":"長榮路","SECT":"三段","MAREA":" ","LANE":"６６巷","ALLEY":" ","HOUSE_NO":"６０號","E_COORD97":170336.10000000001,"N_COORD97":2543779.6099999999,"ADDRESS":"長榮路三段６６巷６０號","OBJECTID":371586},"geometry":{"x":170336.09999999963,"y":2543779.6100000013}},{"attributes":{"ID":371597,"DIS_CODE":0,"TOWNNAME":"東區","LI":"崇學里","LIN":"12鄰","STREET":"崇明十街","SECT":" ","MAREA":" ","LANE":"７０巷","ALLEY":" ","HOUSE_NO":"１０號","E_COORD97":170224.5,"N_COORD97":2541855.25,"ADDRESS":"崇明十街７０巷１０號","OBJECTID":371587},"geometry":{"x":170224.50000000093,"y":2541855.25}},{"attributes":{"ID":371598,"DIS_CODE":0,"TOWNNAME":"東區","LI":"崇學里","LIN":"12鄰","STREET":"崇明十街","SECT":" ","MAREA":" ","LANE":"７０巷","ALLEY":" ","HOUSE_NO":"２４號","E_COORD97":170245.41,"N_COORD97":2541829.79,"ADDRESS":"崇明十街７０巷２４號","OBJECTID":371588},"geometry":{"x":170245.41000000108,"y":2541829.7899999991}},{"attributes":{"ID":371599,"DIS_CODE":0,"TOWNNAME":"東區","LI":"崇誨里","LIN":"12鄰","STREET":"林森路","SECT":"二段","MAREA":" ","LANE":"１９２巷","ALLEY":" ","HOUSE_NO":"２５號之１","E_COORD97":170521.76000000001,"N_COORD97":2543383.9700000002,"ADDRESS":"林森路二段１９２巷２５號之１","OBJECTID":371589},"geometry":{"x":170521.75999999885,"y":2543383.9700000007}},{"attributes":{"ID":371600,"DIS_CODE":0,"TOWNNAME":"東區","LI":"崇誨里","LIN":"12鄰","STREET":"林森路","SECT":"二段","MAREA":" ","LANE":"１９２巷","ALLEY":" ","HOUSE_NO":"２７號之１０","E_COORD97":170523.84,"N_COORD97":2543390.6200000001,"ADDRESS":"林森路二段１９２巷２７號之１０","OBJECTID":371590},"geometry":{"x":170523.84000000078,"y":2543390.6200000048}},{"attributes":{"ID":371601,"DIS_CODE":0,"TOWNNAME":"東區","LI":"富裕里","LIN":"12鄰","STREET":"裕豐街","SECT":" ","MAREA":" ","LANE":"７６巷","ALLEY":" ","HOUSE_NO":"１５號","E_COORD97":170775.07999999999,"N_COORD97":2542828.5600000001,"ADDRESS":"裕豐街７６巷１５號","OBJECTID":371591},"geometry":{"x":170775.08000000101,"y":2542828.5600000024}},{"attributes":{"ID":371602,"DIS_CODE":0,"TOWNNAME":"東區","LI":"富裕里","LIN":"12鄰","STREET":"裕豐街","SECT":" ","MAREA":" ","LANE":"７６巷","ALLEY":" ","HOUSE_NO":"１６號","E_COORD97":170767.85999999999,"N_COORD97":2542811.7400000002,"ADDRESS":"裕豐街７６巷１６號","OBJECTID":371592},"geometry":{"x":170767.86000000127,"y":2542811.7400000002}},{"attributes":{"ID":371603,"DIS_CODE":0,"TOWNNAME":"東區","LI":"富裕里","LIN":"12鄰","STREET":"裕豐街","SECT":" ","MAREA":" ","LANE":"７６巷","ALLEY":" ","HOUSE_NO":"１７號","E_COORD97":170782.17000000001,"N_COORD97":2542829.1800000002,"ADDRESS":"裕豐街７６巷１７號","OBJECTID":371593},"geometry":{"x":170782.17000000086,"y":2542829.1800000034}},{"attributes":{"ID":371604,"DIS_CODE":0,"TOWNNAME":"東區","LI":"富裕里","LIN":"12鄰","STREET":"裕豐街","SECT":" ","MAREA":" ","LANE":"７６巷","ALLEY":" ","HOUSE_NO":"２０號","E_COORD97":170777,"N_COORD97":2542812.5899999999,"ADDRESS":"裕豐街７６巷２０號","OBJECTID":371594},"geometry":{"x":170777.00000000093,"y":2542812.5899999999}},{"attributes":{"ID":371605,"DIS_CODE":0,"TOWNNAME":"東區","LI":"富裕里","LIN":"12鄰","STREET":"裕豐街","SECT":" ","MAREA":" ","LANE":"７６巷","ALLEY":" ","HOUSE_NO":"２２號","E_COORD97":170781.95000000001,"N_COORD97":2542813.0699999998,"ADDRESS":"裕豐街７６巷２２號","OBJECTID":371595},"geometry":{"x":170781.94999999925,"y":2542813.0700000003}},{"attributes":{"ID":371606,"DIS_CODE":0,"TOWNNAME":"東區","LI":"富裕里","LIN":"12鄰","STREET":"裕豐街","SECT":" ","MAREA":" ","LANE":"７６巷","ALLEY":" ","HOUSE_NO":"２４號","E_COORD97":170786.66,"N_COORD97":2542813.5800000001,"ADDRESS":"裕豐街７６巷２４號","OBJECTID":371596},"geometry":{"x":170786.66000000015,"y":2542813.5800000038}},{"attributes":{"ID":371607,"DIS_CODE":0,"TOWNNAME":"東區","LI":"富裕里","LIN":"12鄰","STREET":"裕豐街","SECT":" ","MAREA":" ","LANE":"７６巷","ALLEY":" ","HOUSE_NO":"２６號","E_COORD97":170792.47,"N_COORD97":2542814.1299999999,"ADDRESS":"裕豐街７６巷２６號","OBJECTID":371597},"geometry":{"x":170792.46999999974,"y":2542814.129999999}},{"attributes":{"ID":371608,"DIS_CODE":0,"TOWNNAME":"東區","LI":"富裕里","LIN":"12鄰","STREET":"裕豐街","SECT":" ","MAREA":" ","LANE":"７６巷","ALLEY":" ","HOUSE_NO":"５號","E_COORD97":170760.25,"N_COORD97":2542822.1400000001,"ADDRESS":"裕豐街７６巷５號","OBJECTID":371598},"geometry":{"x":170760.25000000093,"y":2542822.1400000006}},{"attributes":{"ID":371609,"DIS_CODE":0,"TOWNNAME":"東區","LI":"富裕里","LIN":"12鄰","STREET":"裕豐街","SECT":" ","MAREA":" ","LANE":"８４巷","ALLEY":" ","HOUSE_NO":"１３號","E_COORD97":170774.57000000001,"N_COORD97":2542844.1800000002,"ADDRESS":"裕豐街８４巷１３號","OBJECTID":371599},"geometry":{"x":170774.57000000216,"y":2542844.1800000016}},{"attributes":{"ID":371610,"DIS_CODE":0,"TOWNNAME":"東區","LI":"富裕里","LIN":"12鄰","STREET":"裕豐街","SECT":" ","MAREA":" ","LANE":"８４巷","ALLEY":" ","HOUSE_NO":"１號","E_COORD97":170751.64999999999,"N_COORD97":2542843.1600000001,"ADDRESS":"裕豐街８４巷１號","OBJECTID":371600},"geometry":{"x":170751.65000000037,"y":2542843.1600000001}}]}