{"displayFieldName":"TOWNNAME","fieldAliases":{"ID":"ID","DIS_CODE":"DIS_CODE","TOWNNAME":"TOWNNAME","LI":"LI","LIN":"LIN","STREET":"STREET","SECT":"SECT","MAREA":"MAREA","LANE":"LANE","ALLEY":"ALLEY","HOUSE_NO":"HOUSE_NO","E_COORD97":"E_COORD97","N_COORD97":"N_COORD97","ADDRESS":"ADDRESS","OBJECTID":"OBJECTID"},"geometryType":"esriGeometryPoint","spatialReference":{"wkid":102443,"latestWkid":3826},"fields":[{"name":"ID","type":"esriFieldTypeDouble","alias":"ID"},{"name":"DIS_CODE","type":"esriFieldTypeInteger","alias":"DIS_CODE"},{"name":"TOWNNAME","type":"esriFieldTypeString","alias":"TOWNNAME","length":8},{"name":"LI","type":"esriFieldTypeString","alias":"LI","length":8},{"name":"LIN","type":"esriFieldTypeString","alias":"LIN","length":12},{"name":"STREET","type":"esriFieldTypeString","alias":"STREET","length":20},{"name":"SECT","type":"esriFieldTypeString","alias":"SECT","length":8},{"name":"MAREA","type":"esriFieldTypeString","alias":"MAREA","length":12},{"name":"LANE","type":"esriFieldTypeString","alias":"LANE","length":10},{"name":"ALLEY","type":"esriFieldTypeString","alias":"ALLEY","length":10},{"name":"HOUSE_NO","type":"esriFieldTypeString","alias":"HOUSE_NO","length":20},{"name":"E_COORD97","type":"esriFieldTypeDouble","alias":"E_COORD97"},{"name":"N_COORD97","type":"esriFieldTypeDouble","alias":"N_COORD97"},{"name":"ADDRESS","type":"esriFieldTypeString","alias":"ADDRESS","length":50},{"name":"OBJECTID","type":"esriFieldTypeOID","alias":"OBJECTID"}],"features":[{"attributes":{"ID":315409,"DIS_CODE":0,"TOWNNAME":"新營區","LI":"興業里","LIN":"4鄰","STREET":"公誠街","SECT":" ","MAREA":" ","LANE":"７巷","ALLEY":" ","HOUSE_NO":"２號","E_COORD97":180318.41,"N_COORD97":2578052.9199999999,"ADDRESS":"公誠街７巷２號","OBJECTID":315401},"geometry":{"x":180318.41000000108,"y":2578052.9199999999}},{"attributes":{"ID":315410,"DIS_CODE":0,"TOWNNAME":"新營區","LI":"南興里","LIN":"7鄰","STREET":"和平路","SECT":" ","MAREA":" ","LANE":"９５巷","ALLEY":" ","HOUSE_NO":"２２號","E_COORD97":179475.67999999999,"N_COORD97":2577601.7599999998,"ADDRESS":"和平街９５巷２２號","OBJECTID":315402},"geometry":{"x":179475.6799999997,"y":2577601.7600000016}},{"attributes":{"ID":315411,"DIS_CODE":0,"TOWNNAME":"東區","LI":"仁和里","LIN":"7鄰","STREET":"仁和路","SECT":" ","MAREA":" ","LANE":"１１３巷","ALLEY":" ","HOUSE_NO":"９號","E_COORD97":171408.56,"N_COORD97":2541277.75,"ADDRESS":"仁和路１１３巷９號","OBJECTID":315403},"geometry":{"x":171408.56000000052,"y":2541277.7500000019}},{"attributes":{"ID":315412,"DIS_CODE":0,"TOWNNAME":"東區","LI":"仁和里","LIN":"7鄰","STREET":"仁和路","SECT":" ","MAREA":" ","LANE":"１１３巷","ALLEY":" ","HOUSE_NO":"１１號","E_COORD97":171412.70999999999,"N_COORD97":2541277.6299999999,"ADDRESS":"仁和路１１３巷１１號","OBJECTID":315404},"geometry":{"x":171412.71000000089,"y":2541277.6300000008}},{"attributes":{"ID":315413,"DIS_CODE":0,"TOWNNAME":"東區","LI":"仁和里","LIN":"7鄰","STREET":"仁和路","SECT":" ","MAREA":" ","LANE":"１１３巷","ALLEY":" ","HOUSE_NO":"４號","E_COORD97":171408.19,"N_COORD97":2541262.9100000001,"ADDRESS":"仁和路１１３巷４號","OBJECTID":315405},"geometry":{"x":171408.19000000134,"y":2541262.910000002}},{"attributes":{"ID":315414,"DIS_CODE":0,"TOWNNAME":"東區","LI":"仁和里","LIN":"7鄰","STREET":"仁和路","SECT":" ","MAREA":" ","LANE":"１１３巷","ALLEY":" ","HOUSE_NO":"６號","E_COORD97":171412.17000000001,"N_COORD97":2541260.02,"ADDRESS":"仁和路１１３巷６號","OBJECTID":315406},"geometry":{"x":171412.16999999993,"y":2541260.0199999996}},{"attributes":{"ID":315415,"DIS_CODE":0,"TOWNNAME":"東區","LI":"仁和里","LIN":"7鄰","STREET":"仁和路","SECT":" ","MAREA":" ","LANE":"１１３巷","ALLEY":" ","HOUSE_NO":"８號","E_COORD97":171415.47,"N_COORD97":2541262.6299999999,"ADDRESS":"仁和路１１３巷８號","OBJECTID":315407},"geometry":{"x":171415.4700000016,"y":2541262.6300000027}},{"attributes":{"ID":315416,"DIS_CODE":0,"TOWNNAME":"東區","LI":"仁和里","LIN":"7鄰","STREET":"仁和路","SECT":" ","MAREA":" ","LANE":"１１３巷","ALLEY":" ","HOUSE_NO":"１３號","E_COORD97":171416.35999999999,"N_COORD97":2541278,"ADDRESS":"仁和路１１３巷１３號","OBJECTID":315408},"geometry":{"x":171416.36000000034,"y":2541278.0000000037}},{"attributes":{"ID":315417,"DIS_CODE":0,"TOWNNAME":"新營區","LI":"嘉芳里","LIN":"4鄰","STREET":" ","SECT":" ","MAREA":"茄苳腳","LANE":" ","ALLEY":" ","HOUSE_NO":"５０之３４號","E_COORD97":176813.29999999999,"N_COORD97":2578363.3700000001,"ADDRESS":"茄苳腳５０之３４號","OBJECTID":315409},"geometry":{"x":176813.30000000075,"y":2578363.370000001}},{"attributes":{"ID":315418,"DIS_CODE":0,"TOWNNAME":"東區","LI":"仁和里","LIN":"7鄰","STREET":"仁和路","SECT":" ","MAREA":" ","LANE":"１１３巷","ALLEY":" ","HOUSE_NO":"１５號","E_COORD97":171419.38,"N_COORD97":2541277.5,"ADDRESS":"仁和路１１３巷１５號","OBJECTID":315410},"geometry":{"x":171419.37999999989,"y":2541277.5}},{"attributes":{"ID":315419,"DIS_CODE":0,"TOWNNAME":"東區","LI":"仁和里","LIN":"7鄰","STREET":"仁和路","SECT":" ","MAREA":" ","LANE":"１１３巷","ALLEY":" ","HOUSE_NO":"１７號","E_COORD97":171423.66,"N_COORD97":2541277.8799999999,"ADDRESS":"仁和路１１３巷１７號","OBJECTID":315411},"geometry":{"x":171423.66000000108,"y":2541277.8800000027}},{"attributes":{"ID":315420,"DIS_CODE":0,"TOWNNAME":"新營區","LI":"嘉芳里","LIN":"5鄰","STREET":" ","SECT":" ","MAREA":"茄苳腳","LANE":" ","ALLEY":" ","HOUSE_NO":"６１號之１６","E_COORD97":176792.06,"N_COORD97":2578415.5299999998,"ADDRESS":"茄苳腳６１之１６號","OBJECTID":315412},"geometry":{"x":176792.06000000052,"y":2578415.5300000031}},{"attributes":{"ID":315421,"DIS_CODE":0,"TOWNNAME":"新營區","LI":"嘉芳里","LIN":" ","STREET":" ","SECT":" ","MAREA":"茄苳腳","LANE":" ","ALLEY":" ","HOUSE_NO":"１９號","E_COORD97":177097.04999999999,"N_COORD97":2578381.8399999999,"ADDRESS":"茄苳腳１９號","OBJECTID":315413},"geometry":{"x":177097.04999999981,"y":2578381.8399999999}},{"attributes":{"ID":315422,"DIS_CODE":0,"TOWNNAME":"東區","LI":"仁和里","LIN":"7鄰","STREET":"仁和路","SECT":" ","MAREA":" ","LANE":"１１３巷","ALLEY":" ","HOUSE_NO":"１０號","E_COORD97":171418.91,"N_COORD97":2541260.5699999998,"ADDRESS":"仁和路１１３巷１０號","OBJECTID":315414},"geometry":{"x":171418.91000000015,"y":2541260.5700000003}},{"attributes":{"ID":315423,"DIS_CODE":0,"TOWNNAME":"新營區","LI":"土庫里","LIN":" ","STREET":" ","SECT":" ","MAREA":"土庫","LANE":" ","ALLEY":" ","HOUSE_NO":"３３之１號","E_COORD97":183263.48000000001,"N_COORD97":2579980.7799999998,"ADDRESS":"土庫３３之１號","OBJECTID":315415},"geometry":{"x":183263.48000000045,"y":2579980.7800000012}},{"attributes":{"ID":315424,"DIS_CODE":0,"TOWNNAME":"新營區","LI":"嘉芳里","LIN":"8鄰","STREET":" ","SECT":" ","MAREA":"茄苳腳","LANE":" ","ALLEY":" ","HOUSE_NO":"７９號之５","E_COORD97":176789.42000000001,"N_COORD97":2578544,"ADDRESS":"茄苳腳７９之５號","OBJECTID":315416},"geometry":{"x":176789.41999999993,"y":2578544}},{"attributes":{"ID":315425,"DIS_CODE":0,"TOWNNAME":"東區","LI":"仁和里","LIN":"7鄰","STREET":"仁和路","SECT":" ","MAREA":" ","LANE":"１１３巷","ALLEY":" ","HOUSE_NO":"１２號","E_COORD97":171422.62,"N_COORD97":2541262.3599999999,"ADDRESS":"仁和路１１３巷１２號","OBJECTID":315417},"geometry":{"x":171422.62000000011,"y":2541262.3600000013}},{"attributes":{"ID":315426,"DIS_CODE":0,"TOWNNAME":"東區","LI":"仁和里","LIN":"7鄰","STREET":"仁和路","SECT":" ","MAREA":" ","LANE":"１１３巷","ALLEY":" ","HOUSE_NO":"１４號","E_COORD97":171425.92000000001,"N_COORD97":2541260.5699999998,"ADDRESS":"仁和路１１３巷１４號","OBJECTID":315418},"geometry":{"x":171425.91999999993,"y":2541260.5700000003}},{"attributes":{"ID":315427,"DIS_CODE":0,"TOWNNAME":"東區","LI":"仁和里","LIN":"7鄰","STREET":"仁和路","SECT":" ","MAREA":" ","LANE":"１１３巷","ALLEY":" ","HOUSE_NO":"１６號","E_COORD97":171429.5,"N_COORD97":2541262.77,"ADDRESS":"仁和路１１３巷１６號","OBJECTID":315419},"geometry":{"x":171429.50000000093,"y":2541262.7700000014}},{"attributes":{"ID":315428,"DIS_CODE":0,"TOWNNAME":"新營區","LI":"嘉芳里","LIN":"6鄰","STREET":" ","SECT":" ","MAREA":"茄苳腳","LANE":" ","ALLEY":" ","HOUSE_NO":"６１號之２","E_COORD97":176790.67000000001,"N_COORD97":2578385.6299999999,"ADDRESS":"茄苳腳６１之２號","OBJECTID":315420},"geometry":{"x":176790.66999999993,"y":2578385.629999999}},{"attributes":{"ID":315429,"DIS_CODE":0,"TOWNNAME":"東區","LI":"仁和里","LIN":"7鄰","STREET":"仁和路","SECT":" ","MAREA":" ","LANE":"１１３巷","ALLEY":" ","HOUSE_NO":"１８號","E_COORD97":171433.34,"N_COORD97":2541261.3999999999,"ADDRESS":"仁和路１１３巷１８號","OBJECTID":315421},"geometry":{"x":171433.34000000171,"y":2541261.4000000004}},{"attributes":{"ID":315430,"DIS_CODE":0,"TOWNNAME":"新營區","LI":"民權里","LIN":"17鄰","STREET":"文化街","SECT":" ","MAREA":" ","LANE":" ","ALLEY":" ","HOUSE_NO":"２１號","E_COORD97":179791.76000000001,"N_COORD97":2578033.27,"ADDRESS":"文化街２１號","OBJECTID":315422},"geometry":{"x":179791.76000000071,"y":2578033.2699999996}},{"attributes":{"ID":315431,"DIS_CODE":0,"TOWNNAME":"歸仁區","LI":"看東里","LIN":"11鄰","STREET":"中山一街","SECT":" ","MAREA":" ","LANE":" ","ALLEY":" ","HOUSE_NO":"１１２之７號","E_COORD97":178621.935891,"N_COORD97":2540362.0080800001,"ADDRESS":"中山一街１１２之７號","OBJECTID":315423},"geometry":{"x":178621.93589099962,"y":2540362.0080779996}},{"attributes":{"ID":315432,"DIS_CODE":0,"TOWNNAME":"新營區","LI":"嘉芳里","LIN":"5鄰","STREET":" ","SECT":" ","MAREA":"茄苳腳","LANE":" ","ALLEY":" ","HOUSE_NO":"５８號之１３","E_COORD97":176910.78,"N_COORD97":2578426.02,"ADDRESS":"茄苳腳５８之１３號","OBJECTID":315424},"geometry":{"x":176910.78000000026,"y":2578426.0200000033}},{"attributes":{"ID":315433,"DIS_CODE":0,"TOWNNAME":"新營區","LI":"嘉芳里","LIN":" ","STREET":" ","SECT":" ","MAREA":"茄苳腳","LANE":" ","ALLEY":" ","HOUSE_NO":"３５號","E_COORD97":176984.98000000001,"N_COORD97":2578453.27,"ADDRESS":"茄苳腳３５號","OBJECTID":315425},"geometry":{"x":176984.98000000138,"y":2578453.2699999996}},{"attributes":{"ID":315434,"DIS_CODE":0,"TOWNNAME":"新營區","LI":"民權里","LIN":"17鄰","STREET":"文化街","SECT":" ","MAREA":" ","LANE":" ","ALLEY":" ","HOUSE_NO":"２５號之１","E_COORD97":179800.25,"N_COORD97":2578080.8999999999,"ADDRESS":"文化街２５號之１","OBJECTID":315426},"geometry":{"x":179800.25000000093,"y":2578080.9000000004}},{"attributes":{"ID":315435,"DIS_CODE":0,"TOWNNAME":"東區","LI":"仁和里","LIN":"7鄰","STREET":"仁和路","SECT":" ","MAREA":" ","LANE":"１１３巷","ALLEY":" ","HOUSE_NO":"１９號","E_COORD97":171434.12,"N_COORD97":2541277.6400000001,"ADDRESS":"仁和路１１３巷１９號","OBJECTID":315427},"geometry":{"x":171434.12000000104,"y":2541277.6400000043}},{"attributes":{"ID":315436,"DIS_CODE":0,"TOWNNAME":"東區","LI":"仁和里","LIN":"7鄰","STREET":"仁和路","SECT":" ","MAREA":" ","LANE":"１１３巷","ALLEY":" ","HOUSE_NO":"２１號","E_COORD97":171437.97,"N_COORD97":2541276.1400000001,"ADDRESS":"仁和路１１３巷２１號","OBJECTID":315428},"geometry":{"x":171437.97000000067,"y":2541276.1400000006}},{"attributes":{"ID":315437,"DIS_CODE":0,"TOWNNAME":"新營區","LI":"嘉芳里","LIN":" ","STREET":" ","SECT":" ","MAREA":"茄苳腳","LANE":" ","ALLEY":" ","HOUSE_NO":"７號","E_COORD97":177196.35000000001,"N_COORD97":2578230.73,"ADDRESS":"茄苳腳７號","OBJECTID":315429},"geometry":{"x":177196.34999999963,"y":2578230.7300000004}},{"attributes":{"ID":315438,"DIS_CODE":0,"TOWNNAME":"東區","LI":"仁和里","LIN":"7鄰","STREET":"仁和路","SECT":" ","MAREA":" ","LANE":"１１３巷","ALLEY":" ","HOUSE_NO":"２３號","E_COORD97":171441.59,"N_COORD97":2541278.7000000002,"ADDRESS":"仁和路１１３巷２３號","OBJECTID":315430},"geometry":{"x":171441.58999999985,"y":2541278.6999999993}},{"attributes":{"ID":315439,"DIS_CODE":0,"TOWNNAME":"東區","LI":"仁和里","LIN":"7鄰","STREET":"仁和路","SECT":" ","MAREA":" ","LANE":"１１３巷","ALLEY":" ","HOUSE_NO":"２５號","E_COORD97":171445.01000000001,"N_COORD97":2541276.77,"ADDRESS":"仁和路１１３巷２５號","OBJECTID":315431},"geometry":{"x":171445.00999999978,"y":2541276.7700000014}},{"attributes":{"ID":315440,"DIS_CODE":0,"TOWNNAME":"新營區","LI":"嘉芳里","LIN":" ","STREET":" ","SECT":" ","MAREA":"茄苳腳","LANE":" ","ALLEY":" ","HOUSE_NO":"７９號","E_COORD97":176789.01999999999,"N_COORD97":2578552.7999999998,"ADDRESS":"茄苳腳７９號","OBJECTID":315432},"geometry":{"x":176789.02000000048,"y":2578552.8000000007}},{"attributes":{"ID":315441,"DIS_CODE":0,"TOWNNAME":"東區","LI":"仁和里","LIN":"7鄰","STREET":"仁和路","SECT":" ","MAREA":" ","LANE":"１１３巷","ALLEY":" ","HOUSE_NO":"２０號","E_COORD97":171436.92000000001,"N_COORD97":2541263.46,"ADDRESS":"仁和路１１３巷２０號","OBJECTID":315433},"geometry":{"x":171436.92000000086,"y":2541263.4600000028}},{"attributes":{"ID":315442,"DIS_CODE":0,"TOWNNAME":"東區","LI":"仁和里","LIN":"7鄰","STREET":"仁和路","SECT":" ","MAREA":" ","LANE":"１１３巷","ALLEY":" ","HOUSE_NO":"２２號","E_COORD97":171441.04000000001,"N_COORD97":2541262.3599999999,"ADDRESS":"仁和路１１３巷２２號","OBJECTID":315434},"geometry":{"x":171441.04000000097,"y":2541262.3600000013}},{"attributes":{"ID":315443,"DIS_CODE":0,"TOWNNAME":"新營區","LI":"嘉芳里","LIN":" ","STREET":" ","SECT":" ","MAREA":"茄苳腳","LANE":" ","ALLEY":" ","HOUSE_NO":"６１之１號","E_COORD97":176798.87,"N_COORD97":2578390.02,"ADDRESS":"茄苳腳６１之１號","OBJECTID":315435},"geometry":{"x":176798.87000000197,"y":2578390.0200000014}},{"attributes":{"ID":315444,"DIS_CODE":0,"TOWNNAME":"東區","LI":"仁和里","LIN":"7鄰","STREET":"仁和路","SECT":" ","MAREA":" ","LANE":"１１３巷","ALLEY":" ","HOUSE_NO":"２４號","E_COORD97":171443.66,"N_COORD97":2541264.8300000001,"ADDRESS":"仁和路１１３巷２４號","OBJECTID":315436},"geometry":{"x":171443.66000000108,"y":2541264.8300000001}},{"attributes":{"ID":315445,"DIS_CODE":0,"TOWNNAME":"東區","LI":"仁和里","LIN":"7鄰","STREET":"仁和路","SECT":" ","MAREA":" ","LANE":"１１３巷","ALLEY":" ","HOUSE_NO":"２６號","E_COORD97":171447.64000000001,"N_COORD97":2541262.6299999999,"ADDRESS":"仁和路１１３巷２６號","OBJECTID":315437},"geometry":{"x":171447.63999999966,"y":2541262.6300000027}},{"attributes":{"ID":315446,"DIS_CODE":0,"TOWNNAME":"新營區","LI":"嘉芳里","LIN":" ","STREET":" ","SECT":" ","MAREA":"茄苳腳","LANE":" ","ALLEY":" ","HOUSE_NO":"１７號","E_COORD97":177127.91,"N_COORD97":2578417.1299999999,"ADDRESS":"茄苳腳１７號","OBJECTID":315438},"geometry":{"x":177127.91000000108,"y":2578417.129999999}},{"attributes":{"ID":315447,"DIS_CODE":0,"TOWNNAME":"新營區","LI":"太北里","LIN":"4鄰","STREET":" ","SECT":" ","MAREA":"太子宮","LANE":" ","ALLEY":" ","HOUSE_NO":"３３之１號","E_COORD97":175973.60000000001,"N_COORD97":2577183.6699999999,"ADDRESS":"太子宮３３之１號","OBJECTID":315439},"geometry":{"x":175973.60000000056,"y":2577183.6699999999}},{"attributes":{"ID":315448,"DIS_CODE":0,"TOWNNAME":"東區","LI":"仁和里","LIN":"7鄰","STREET":"仁和路","SECT":" ","MAREA":" ","LANE":"１１３巷","ALLEY":" ","HOUSE_NO":"２７號","E_COORD97":171448.64000000001,"N_COORD97":2541279.3399999999,"ADDRESS":"仁和路１１３巷２７號","OBJECTID":315440},"geometry":{"x":171448.6400000006,"y":2541279.3400000017}},{"attributes":{"ID":315449,"DIS_CODE":0,"TOWNNAME":"新營區","LI":"太南里","LIN":"20鄰","STREET":" ","SECT":" ","MAREA":"太子宮","LANE":" ","ALLEY":" ","HOUSE_NO":"３４２之１４號","E_COORD97":176346.57999999999,"N_COORD97":2577010.1600000001,"ADDRESS":"太子宮３４２之１４號","OBJECTID":315441},"geometry":{"x":176346.58000000101,"y":2577010.1600000001}},{"attributes":{"ID":315450,"DIS_CODE":0,"TOWNNAME":"東區","LI":"仁和里","LIN":"7鄰","STREET":"仁和路","SECT":" ","MAREA":" ","LANE":"１１３巷","ALLEY":" ","HOUSE_NO":"２９號","E_COORD97":171452.69,"N_COORD97":2541276.77,"ADDRESS":"仁和路１１３巷２９號","OBJECTID":315442},"geometry":{"x":171452.69000000134,"y":2541276.7700000014}},{"attributes":{"ID":315451,"DIS_CODE":0,"TOWNNAME":"東區","LI":"仁和里","LIN":"7鄰","STREET":"仁和路","SECT":" ","MAREA":" ","LANE":"１１３巷","ALLEY":" ","HOUSE_NO":"３１號","E_COORD97":171455.25,"N_COORD97":2541279.77,"ADDRESS":"仁和路１１３巷３１號","OBJECTID":315443},"geometry":{"x":171455.25000000093,"y":2541279.7700000014}},{"attributes":{"ID":315452,"DIS_CODE":0,"TOWNNAME":"新營區","LI":"護鎮里","LIN":"4鄰","STREET":" ","SECT":" ","MAREA":"後鎮","LANE":" ","ALLEY":" ","HOUSE_NO":"３８號之２","E_COORD97":179222.04999999999,"N_COORD97":2581152.4199999999,"ADDRESS":"後鎮３８之２號","OBJECTID":315444},"geometry":{"x":179222.05000000075,"y":2581152.4199999999}},{"attributes":{"ID":315453,"DIS_CODE":0,"TOWNNAME":"新營區","LI":"護鎮里","LIN":"4鄰","STREET":" ","SECT":" ","MAREA":"後鎮","LANE":" ","ALLEY":" ","HOUSE_NO":"４３號之１３","E_COORD97":179157.23999999999,"N_COORD97":2581241.3300000001,"ADDRESS":"後鎮４３之１３號","OBJECTID":315445},"geometry":{"x":179157.24000000022,"y":2581241.3300000001}},{"attributes":{"ID":315454,"DIS_CODE":0,"TOWNNAME":"大內區","LI":"環湖里","LIN":"6鄰","STREET":" ","SECT":" ","MAREA":"環湖","LANE":" ","ALLEY":" ","HOUSE_NO":"７８號之３","E_COORD97":190528.86601,"N_COORD97":2560619.90227,"ADDRESS":"環湖７８號之３","OBJECTID":315446},"geometry":{"x":190528.86601,"y":2560619.9022699986}},{"attributes":{"ID":315455,"DIS_CODE":0,"TOWNNAME":"東山區","LI":"嶺南里","LIN":"4鄰","STREET":" ","SECT":" ","MAREA":"牛稠子","LANE":" ","ALLEY":" ","HOUSE_NO":"３０號之１","E_COORD97":192460.48000000001,"N_COORD97":2572565.3399999999,"ADDRESS":"牛稠子３０號之１","OBJECTID":315447},"geometry":{"x":192460.48000000138,"y":2572565.3400000036}},{"attributes":{"ID":315456,"DIS_CODE":0,"TOWNNAME":"東區","LI":"仁和里","LIN":"7鄰","STREET":"仁和路","SECT":" ","MAREA":" ","LANE":"１１３巷","ALLEY":" ","HOUSE_NO":"３３號","E_COORD97":171459.31,"N_COORD97":2541277.4199999999,"ADDRESS":"仁和路１１３巷３３號","OBJECTID":315448},"geometry":{"x":171459.31000000052,"y":2541277.4199999999}},{"attributes":{"ID":315457,"DIS_CODE":0,"TOWNNAME":"新營區","LI":"太北里","LIN":"1鄰","STREET":" ","SECT":" ","MAREA":"太子宮","LANE":" ","ALLEY":" ","HOUSE_NO":"１之８０號","E_COORD97":176607.94465300001,"N_COORD97":2577407.61253,"ADDRESS":"太子宮１之８０號","OBJECTID":315449},"geometry":{"x":176607.94465299975,"y":2577407.6125350017}},{"attributes":{"ID":315458,"DIS_CODE":0,"TOWNNAME":"新營區","LI":"太北里","LIN":"18鄰","STREET":" ","SECT":" ","MAREA":"太子宮","LANE":" ","ALLEY":" ","HOUSE_NO":"８之４１號","E_COORD97":176193.89000000001,"N_COORD97":2577258.98,"ADDRESS":"太子宮８之４１號","OBJECTID":315450},"geometry":{"x":176193.88999999966,"y":2577258.9800000023}},{"attributes":{"ID":315459,"DIS_CODE":0,"TOWNNAME":"新營區","LI":"太北里","LIN":"18鄰","STREET":" ","SECT":" ","MAREA":"太子宮","LANE":" ","ALLEY":" ","HOUSE_NO":"１０號之２","E_COORD97":176235.73999999999,"N_COORD97":2577094.8700000001,"ADDRESS":"太子宮１０號之２","OBJECTID":315451},"geometry":{"x":176235.74000000115,"y":2577094.870000001}},{"attributes":{"ID":315460,"DIS_CODE":0,"TOWNNAME":"新營區","LI":"民生里","LIN":"18鄰","STREET":"民治路","SECT":" ","MAREA":" ","LANE":"１８３巷","ALLEY":" ","HOUSE_NO":"１６號","E_COORD97":178898.45999999999,"N_COORD97":2578410.7400000002,"ADDRESS":"民治路１８３巷１６號","OBJECTID":315452},"geometry":{"x":178898.46000000089,"y":2578410.7400000002}},{"attributes":{"ID":315461,"DIS_CODE":0,"TOWNNAME":"新營區","LI":"民生里","LIN":"20鄰","STREET":"進修街","SECT":" ","MAREA":" ","LANE":"２９巷","ALLEY":" ","HOUSE_NO":"２２號","E_COORD97":178927.45999999999,"N_COORD97":2578470.3999999999,"ADDRESS":"進修街２９巷２２號","OBJECTID":315453},"geometry":{"x":178927.46000000089,"y":2578470.4000000004}},{"attributes":{"ID":315462,"DIS_CODE":0,"TOWNNAME":"新營區","LI":"護鎮里","LIN":"2鄰","STREET":" ","SECT":" ","MAREA":"後鎮","LANE":" ","ALLEY":" ","HOUSE_NO":"１７號之１５","E_COORD97":179353.94,"N_COORD97":2580902.6200000001,"ADDRESS":"後鎮１７之１５號","OBJECTID":315454},"geometry":{"x":179353.94000000134,"y":2580902.6200000029}},{"attributes":{"ID":315463,"DIS_CODE":0,"TOWNNAME":"新營區","LI":"太北里","LIN":"20鄰","STREET":" ","SECT":" ","MAREA":"太子宮","LANE":" ","ALLEY":" ","HOUSE_NO":"１４０之４５號","E_COORD97":175127.85999999999,"N_COORD97":2576350.6800000002,"ADDRESS":"太子宮１４０之４５號","OBJECTID":315455},"geometry":{"x":175127.86000000127,"y":2576350.6800000016}},{"attributes":{"ID":315464,"DIS_CODE":0,"TOWNNAME":"新營區","LI":"南紙里","LIN":"20鄰","STREET":"南紙街","SECT":" ","MAREA":" ","LANE":"１１７巷","ALLEY":" ","HOUSE_NO":"３５號","E_COORD97":177934.66,"N_COORD97":2577495.1000000001,"ADDRESS":"南紙街１１７巷３５號","OBJECTID":315456},"geometry":{"x":177934.66000000108,"y":2577495.0999999996}},{"attributes":{"ID":315465,"DIS_CODE":0,"TOWNNAME":"東區","LI":"仁和里","LIN":"7鄰","STREET":"仁和路","SECT":" ","MAREA":" ","LANE":"１１３巷","ALLEY":" ","HOUSE_NO":"３５號","E_COORD97":171462.92999999999,"N_COORD97":2541278.9199999999,"ADDRESS":"仁和路１１３巷３５號","OBJECTID":315457},"geometry":{"x":171462.9299999997,"y":2541278.9200000018}},{"attributes":{"ID":315466,"DIS_CODE":0,"TOWNNAME":"楠西區","LI":"密枝里","LIN":"7鄰","STREET":" ","SECT":" ","MAREA":"密枝","LANE":" ","ALLEY":" ","HOUSE_NO":"８２號","E_COORD97":198664.26999999999,"N_COORD97":2568973.2799999998,"ADDRESS":"密枝８２號","OBJECTID":315458},"geometry":{"x":198664.26999999955,"y":2568973.2799999993}},{"attributes":{"ID":315467,"DIS_CODE":0,"TOWNNAME":"新營區","LI":"護鎮里","LIN":"4鄰","STREET":" ","SECT":" ","MAREA":"後鎮","LANE":" ","ALLEY":" ","HOUSE_NO":"４３號之２０","E_COORD97":179152,"N_COORD97":2581213.6699999999,"ADDRESS":"後鎮４３之２０號","OBJECTID":315459},"geometry":{"x":179152,"y":2581213.6700000018}},{"attributes":{"ID":315468,"DIS_CODE":0,"TOWNNAME":"東山區","LI":"水雲里","LIN":"4鄰","STREET":" ","SECT":" ","MAREA":"牛肉崎","LANE":" ","ALLEY":" ","HOUSE_NO":"２５之２號","E_COORD97":190251.48999999999,"N_COORD97":2574299.0499999998,"ADDRESS":"牛肉崎２５之２號","OBJECTID":315460},"geometry":{"x":190251.49000000115,"y":2574299.0500000026}},{"attributes":{"ID":315469,"DIS_CODE":0,"TOWNNAME":"東山區","LI":"水雲里","LIN":"4鄰","STREET":" ","SECT":" ","MAREA":"牛肉崎","LANE":" ","ALLEY":" ","HOUSE_NO":"２５之３號","E_COORD97":190373.32000000001,"N_COORD97":2574402.3999999999,"ADDRESS":"牛肉崎２５之３號","OBJECTID":315461},"geometry":{"x":190373.32000000123,"y":2574402.4000000004}},{"attributes":{"ID":315470,"DIS_CODE":0,"TOWNNAME":"東山區","LI":"水雲里","LIN":"4鄰","STREET":" ","SECT":" ","MAREA":"牛肉崎","LANE":" ","ALLEY":" ","HOUSE_NO":"２５號之３","E_COORD97":190373.32000000001,"N_COORD97":2574402.3999999999,"ADDRESS":"牛肉崎２５號之３","OBJECTID":315462},"geometry":{"x":190373.32000000123,"y":2574402.4000000004}},{"attributes":{"ID":315471,"DIS_CODE":0,"TOWNNAME":"東山區","LI":"水雲里","LIN":"4鄰","STREET":" ","SECT":" ","MAREA":"牛肉崎","LANE":" ","ALLEY":" ","HOUSE_NO":"２５之４號","E_COORD97":190365.76999999999,"N_COORD97":2574444.3700000001,"ADDRESS":"牛肉崎２５之４號","OBJECTID":315463},"geometry":{"x":190365.77000000048,"y":2574444.370000001}},{"attributes":{"ID":315472,"DIS_CODE":0,"TOWNNAME":"新營區","LI":"王公里","LIN":"17鄰","STREET":"大智街","SECT":" ","MAREA":" ","LANE":" ","ALLEY":" ","HOUSE_NO":"２４號","E_COORD97":180232.51000000001,"N_COORD97":2579312.5,"ADDRESS":"大智街２４號","OBJECTID":315464},"geometry":{"x":180232.51000000071,"y":2579312.5000000019}},{"attributes":{"ID":315473,"DIS_CODE":0,"TOWNNAME":"東山區","LI":"水雲里","LIN":"4鄰","STREET":" ","SECT":" ","MAREA":"牛肉崎","LANE":" ","ALLEY":" ","HOUSE_NO":"２５之５號","E_COORD97":190268.25,"N_COORD97":2574295.1400000001,"ADDRESS":"牛肉崎２５之５號","OBJECTID":315465},"geometry":{"x":190268.25000000093,"y":2574295.1400000006}},{"attributes":{"ID":315474,"DIS_CODE":0,"TOWNNAME":"新營區","LI":"王公里","LIN":"17鄰","STREET":"大智街","SECT":" ","MAREA":" ","LANE":" ","ALLEY":" ","HOUSE_NO":"２５號","E_COORD97":180228.48000000001,"N_COORD97":2579323.5899999999,"ADDRESS":"大智街２５號","OBJECTID":315466},"geometry":{"x":180228.48000000138,"y":2579323.5899999999}},{"attributes":{"ID":315475,"DIS_CODE":0,"TOWNNAME":"新營區","LI":"三仙里","LIN":"17鄰","STREET":"三民路","SECT":" ","MAREA":" ","LANE":" ","ALLEY":" ","HOUSE_NO":"１０９號","E_COORD97":179528.63,"N_COORD97":2578380.04,"ADDRESS":"三民路１０９號","OBJECTID":315467},"geometry":{"x":179528.62999999989,"y":2578380.0399999991}},{"attributes":{"ID":315476,"DIS_CODE":0,"TOWNNAME":"東山區","LI":"嶺南里","LIN":"14鄰","STREET":" ","SECT":" ","MAREA":"牛稠子","LANE":" ","ALLEY":" ","HOUSE_NO":"１０號","E_COORD97":192510.70000000001,"N_COORD97":2573625.0499999998,"ADDRESS":"牛稠子１０號","OBJECTID":315468},"geometry":{"x":192510.70000000019,"y":2573625.0500000007}},{"attributes":{"ID":315477,"DIS_CODE":0,"TOWNNAME":"佳里區","LI":"建南里","LIN":"9鄰","STREET":"中和街","SECT":" ","MAREA":" ","LANE":"１８巷","ALLEY":" ","HOUSE_NO":"２７號","E_COORD97":165653.39992699999,"N_COORD97":2562130.03553,"ADDRESS":"中和街１８巷２７號","OBJECTID":315469},"geometry":{"x":165653.39992700052,"y":2562130.0355290025}},{"attributes":{"ID":315478,"DIS_CODE":0,"TOWNNAME":"東區","LI":"忠孝里","LIN":"7鄰","STREET":"榮譽街","SECT":" ","MAREA":" ","LANE":"８４巷","ALLEY":" ","HOUSE_NO":"１０９號","E_COORD97":169800.01000000001,"N_COORD97":2541596.3199999998,"ADDRESS":"榮譽街８４巷１０９號","OBJECTID":315470},"geometry":{"x":169800.01000000071,"y":2541596.3200000022}},{"attributes":{"ID":315479,"DIS_CODE":0,"TOWNNAME":"南區","LI":"南都里","LIN":"17鄰","STREET":"明興路","SECT":" ","MAREA":" ","LANE":" ","ALLEY":" ","HOUSE_NO":"１１６號","E_COORD97":166633.98999999999,"N_COORD97":2539980.7599999998,"ADDRESS":"明興路１１６號","OBJECTID":315471},"geometry":{"x":166633.99000000115,"y":2539980.7599999979}},{"attributes":{"ID":315480,"DIS_CODE":0,"TOWNNAME":"東山區","LI":"聖賢里","LIN":"3鄰","STREET":" ","SECT":" ","MAREA":"北勢寮","LANE":" ","ALLEY":" ","HOUSE_NO":"３０號","E_COORD97":184975.26000000001,"N_COORD97":2579666.5699999998,"ADDRESS":"北勢寮３０號","OBJECTID":315472},"geometry":{"x":184975.26000000071,"y":2579666.5700000003}},{"attributes":{"ID":315481,"DIS_CODE":0,"TOWNNAME":"南區","LI":"南都里","LIN":"17鄰","STREET":"明興路","SECT":" ","MAREA":" ","LANE":" ","ALLEY":" ","HOUSE_NO":"１１８號","E_COORD97":166628.17999999999,"N_COORD97":2539977.54,"ADDRESS":"明興路１１８號","OBJECTID":315473},"geometry":{"x":166628.1799999997,"y":2539977.5399999991}},{"attributes":{"ID":315482,"DIS_CODE":0,"TOWNNAME":"佳里區","LI":"建南里","LIN":"9鄰","STREET":"中和街","SECT":" ","MAREA":" ","LANE":"１８巷","ALLEY":" ","HOUSE_NO":"２０號","E_COORD97":165648.95071100001,"N_COORD97":2562152.6838500001,"ADDRESS":"中和街１８巷２０號","OBJECTID":315474},"geometry":{"x":165648.95071100071,"y":2562152.6838500034}},{"attributes":{"ID":315483,"DIS_CODE":0,"TOWNNAME":"佳里區","LI":"建南里","LIN":"9鄰","STREET":"中和街","SECT":" ","MAREA":" ","LANE":"１８巷","ALLEY":" ","HOUSE_NO":"２１號","E_COORD97":165653.18805900001,"N_COORD97":2562153.2130200001,"ADDRESS":"中和街１８巷２１號","OBJECTID":315475},"geometry":{"x":165653.1880590003,"y":2562153.2130170017}},{"attributes":{"ID":315484,"DIS_CODE":0,"TOWNNAME":"東區","LI":"忠孝里","LIN":"7鄰","STREET":"榮譽街","SECT":" ","MAREA":" ","LANE":"８４巷","ALLEY":" ","HOUSE_NO":"１２９號","E_COORD97":169882.39000000001,"N_COORD97":2541625.0600000001,"ADDRESS":"榮譽街８４巷１２９號","OBJECTID":315476},"geometry":{"x":169882.3900000006,"y":2541625.0600000024}},{"attributes":{"ID":315485,"DIS_CODE":0,"TOWNNAME":"東區","LI":"莊敬里","LIN":"7鄰","STREET":"東光路","SECT":"二段","MAREA":" ","LANE":"１０９巷","ALLEY":" ","HOUSE_NO":"６號","E_COORD97":171197.13,"N_COORD97":2544223.1899999999,"ADDRESS":"東光路二段１０９巷６號","OBJECTID":315477},"geometry":{"x":171197.12999999989,"y":2544223.1900000013}},{"attributes":{"ID":315486,"DIS_CODE":0,"TOWNNAME":"東區","LI":"莊敬里","LIN":"7鄰","STREET":"東光路","SECT":"二段","MAREA":" ","LANE":"１０９巷","ALLEY":" ","HOUSE_NO":"８號","E_COORD97":171193.63,"N_COORD97":2544221.29,"ADDRESS":"東光路二段１０９巷８號","OBJECTID":315478},"geometry":{"x":171193.62999999989,"y":2544221.2900000028}},{"attributes":{"ID":315487,"DIS_CODE":0,"TOWNNAME":"麻豆區","LI":"埤頭里","LIN":"4鄰","STREET":" ","SECT":" ","MAREA":"埤頭","LANE":" ","ALLEY":" ","HOUSE_NO":"３３號之２３","E_COORD97":170685.17999999999,"N_COORD97":2565874.2000000002,"ADDRESS":"埤頭３３號之２３","OBJECTID":315479},"geometry":{"x":170685.18000000156,"y":2565874.2000000011}},{"attributes":{"ID":315488,"DIS_CODE":0,"TOWNNAME":"東區","LI":"莊敬里","LIN":"7鄰","STREET":"東光路","SECT":"二段","MAREA":" ","LANE":"１０９巷","ALLEY":" ","HOUSE_NO":"１０號","E_COORD97":171190.94,"N_COORD97":2544218.7000000002,"ADDRESS":"東光路二段１０９巷１０號","OBJECTID":315480},"geometry":{"x":171190.94000000227,"y":2544218.700000003}},{"attributes":{"ID":315489,"DIS_CODE":0,"TOWNNAME":"東區","LI":"莊敬里","LIN":"7鄰","STREET":"東光路","SECT":"二段","MAREA":" ","LANE":"１０９巷","ALLEY":" ","HOUSE_NO":"１２號","E_COORD97":171187.94,"N_COORD97":2544215.8999999999,"ADDRESS":"東光路二段１０９巷１２號","OBJECTID":315481},"geometry":{"x":171187.94000000134,"y":2544215.9000000022}},{"attributes":{"ID":315490,"DIS_CODE":0,"TOWNNAME":"東區","LI":"莊敬里","LIN":"7鄰","STREET":"東光路","SECT":"二段","MAREA":" ","LANE":"１０９巷","ALLEY":" ","HOUSE_NO":"１４號","E_COORD97":171185.44,"N_COORD97":2544212.8100000001,"ADDRESS":"東光路二段１０９巷１４號","OBJECTID":315482},"geometry":{"x":171185.44000000041,"y":2544212.8100000042}},{"attributes":{"ID":315491,"DIS_CODE":0,"TOWNNAME":"下營區","LI":"下營里","LIN":"11鄰","STREET":"民族一街","SECT":" ","MAREA":" ","LANE":" ","ALLEY":" ","HOUSE_NO":"１號","E_COORD97":174500.099399,"N_COORD97":2570560.8319999999,"ADDRESS":"民族一街１號","OBJECTID":315483},"geometry":{"x":174500.09939900227,"y":2570560.8320039995}},{"attributes":{"ID":315492,"DIS_CODE":0,"TOWNNAME":"東區","LI":"莊敬里","LIN":"7鄰","STREET":"東光路","SECT":"二段","MAREA":" ","LANE":"１０９巷","ALLEY":" ","HOUSE_NO":"１６號","E_COORD97":171183.14999999999,"N_COORD97":2544209.4199999999,"ADDRESS":"東光路二段１０９巷１６號","OBJECTID":315484},"geometry":{"x":171183.1500000013,"y":2544209.4200000018}},{"attributes":{"ID":315493,"DIS_CODE":0,"TOWNNAME":"東區","LI":"莊敬里","LIN":"7鄰","STREET":"東光路","SECT":"二段","MAREA":" ","LANE":"１０９巷","ALLEY":" ","HOUSE_NO":"１８號","E_COORD97":171180.04000000001,"N_COORD97":2544206.5800000001,"ADDRESS":"東光路二段１０９巷１８號","OBJECTID":315485},"geometry":{"x":171180.04000000097,"y":2544206.5800000001}},{"attributes":{"ID":315494,"DIS_CODE":0,"TOWNNAME":"東區","LI":"莊敬里","LIN":"7鄰","STREET":"東光路","SECT":"二段","MAREA":" ","LANE":"１０９巷","ALLEY":" ","HOUSE_NO":"２０號","E_COORD97":171177.54000000001,"N_COORD97":2544203.79,"ADDRESS":"東光路二段１０９巷２０號","OBJECTID":315486},"geometry":{"x":171177.54000000004,"y":2544203.7899999991}},{"attributes":{"ID":315495,"DIS_CODE":0,"TOWNNAME":"東區","LI":"莊敬里","LIN":"7鄰","STREET":"東光路","SECT":"二段","MAREA":" ","LANE":"１０９巷","ALLEY":" ","HOUSE_NO":"２２號","E_COORD97":171174.25,"N_COORD97":2544200.7999999998,"ADDRESS":"東光路二段１０９巷２２號","OBJECTID":315487},"geometry":{"x":171174.25,"y":2544200.8000000026}},{"attributes":{"ID":315496,"DIS_CODE":0,"TOWNNAME":"東區","LI":"莊敬里","LIN":"7鄰","STREET":"東光路","SECT":"二段","MAREA":" ","LANE":"１０９巷","ALLEY":" ","HOUSE_NO":"２４號","E_COORD97":171171.85000000001,"N_COORD97":2544197.7000000002,"ADDRESS":"東光路二段１０９巷２４號","OBJECTID":315488},"geometry":{"x":171171.84999999963,"y":2544197.6999999993}},{"attributes":{"ID":315497,"DIS_CODE":0,"TOWNNAME":"東區","LI":"莊敬里","LIN":"7鄰","STREET":"東光路","SECT":"二段","MAREA":" ","LANE":"１０９巷","ALLEY":" ","HOUSE_NO":"２６號","E_COORD97":171169.14999999999,"N_COORD97":2544195.21,"ADDRESS":"東光路二段１０９巷２６號","OBJECTID":315489},"geometry":{"x":171169.15000000224,"y":2544195.2100000009}},{"attributes":{"ID":315498,"DIS_CODE":0,"TOWNNAME":"麻豆區","LI":"埤頭里","LIN":"4鄰","STREET":" ","SECT":" ","MAREA":"埤頭","LANE":" ","ALLEY":" ","HOUSE_NO":"３３號之２４","E_COORD97":170689.98000000001,"N_COORD97":2565874.9700000002,"ADDRESS":"埤頭３３號之２４","OBJECTID":315490},"geometry":{"x":170689.98000000045,"y":2565874.9700000007}},{"attributes":{"ID":315499,"DIS_CODE":0,"TOWNNAME":"東區","LI":"莊敬里","LIN":"7鄰","STREET":"東光路","SECT":"二段","MAREA":" ","LANE":"１０９巷","ALLEY":" ","HOUSE_NO":"２８號","E_COORD97":171166.45000000001,"N_COORD97":2544191.9100000001,"ADDRESS":"東光路二段１０９巷２８號","OBJECTID":315491},"geometry":{"x":171166.45000000019,"y":2544191.910000002}},{"attributes":{"ID":315500,"DIS_CODE":0,"TOWNNAME":"東區","LI":"莊敬里","LIN":"7鄰","STREET":"東光路","SECT":"二段","MAREA":" ","LANE":"１０９巷","ALLEY":" ","HOUSE_NO":"３０號","E_COORD97":171160.26000000001,"N_COORD97":2544188.6200000001,"ADDRESS":"東光路二段１０９巷３０號","OBJECTID":315492},"geometry":{"x":171160.25999999978,"y":2544188.6200000029}},{"attributes":{"ID":315501,"DIS_CODE":0,"TOWNNAME":"仁德區","LI":"太子里","LIN":"1鄰","STREET":"長興路","SECT":" ","MAREA":" ","LANE":"１２巷","ALLEY":" ","HOUSE_NO":"１１號","E_COORD97":174157.79037,"N_COORD97":2543569.3548300001,"ADDRESS":"長興路１２巷１１號","OBJECTID":315493},"geometry":{"x":174157.79037000053,"y":2543569.3548300005}},{"attributes":{"ID":315502,"DIS_CODE":0,"TOWNNAME":"東區","LI":"莊敬里","LIN":"7鄰","STREET":"東光路","SECT":"二段","MAREA":" ","LANE":"１０９巷","ALLEY":" ","HOUSE_NO":"３２號","E_COORD97":171150.39000000001,"N_COORD97":2544190.6000000001,"ADDRESS":"東光路二段１０９巷３２號","OBJECTID":315494},"geometry":{"x":171150.3900000006,"y":2544190.6000000015}},{"attributes":{"ID":315503,"DIS_CODE":0,"TOWNNAME":"東區","LI":"莊敬里","LIN":"7鄰","STREET":"東光路","SECT":"二段","MAREA":" ","LANE":"１０９巷","ALLEY":" ","HOUSE_NO":"３４號","E_COORD97":171146.64999999999,"N_COORD97":2544189.3100000001,"ADDRESS":"東光路二段１０９巷３４號","OBJECTID":315495},"geometry":{"x":171146.65000000037,"y":2544189.3100000024}},{"attributes":{"ID":315504,"DIS_CODE":0,"TOWNNAME":"東區","LI":"莊敬里","LIN":"7鄰","STREET":"東光路","SECT":"二段","MAREA":" ","LANE":"１０９巷","ALLEY":" ","HOUSE_NO":"３６號","E_COORD97":171142.64999999999,"N_COORD97":2544191,"ADDRESS":"東光路二段１０９巷３６號","OBJECTID":315496},"geometry":{"x":171142.6500000013,"y":2544191.0000000019}},{"attributes":{"ID":315505,"DIS_CODE":0,"TOWNNAME":"東區","LI":"莊敬里","LIN":"7鄰","STREET":"東光路","SECT":"二段","MAREA":" ","LANE":"１０９巷","ALLEY":" ","HOUSE_NO":"３８號","E_COORD97":171138.35999999999,"N_COORD97":2544189.6099999999,"ADDRESS":"東光路二段１０９巷３８號","OBJECTID":315497},"geometry":{"x":171138.36000000034,"y":2544189.6100000013}},{"attributes":{"ID":315506,"DIS_CODE":0,"TOWNNAME":"東區","LI":"莊敬里","LIN":"7鄰","STREET":"東光路","SECT":"二段","MAREA":" ","LANE":"１０９巷","ALLEY":" ","HOUSE_NO":"４０號","E_COORD97":171134.35999999999,"N_COORD97":2544191.3999999999,"ADDRESS":"東光路二段１０９巷４０號","OBJECTID":315498},"geometry":{"x":171134.36000000127,"y":2544191.4000000041}},{"attributes":{"ID":315507,"DIS_CODE":0,"TOWNNAME":"東區","LI":"莊敬里","LIN":"7鄰","STREET":"東光路","SECT":"二段","MAREA":" ","LANE":"１２１巷","ALLEY":" ","HOUSE_NO":"２１號","E_COORD97":171163.13,"N_COORD97":2544224.8700000001,"ADDRESS":"東光路二段１２１巷２１號","OBJECTID":315499},"geometry":{"x":171163.12999999989,"y":2544224.870000001}},{"attributes":{"ID":315508,"DIS_CODE":0,"TOWNNAME":"東區","LI":"莊敬里","LIN":"7鄰","STREET":"東光路","SECT":"二段","MAREA":" ","LANE":"１２１巷","ALLEY":" ","HOUSE_NO":"２３號","E_COORD97":171160.92999999999,"N_COORD97":2544222.3799999999,"ADDRESS":"東光路二段１２１巷２３號","OBJECTID":315500},"geometry":{"x":171160.9299999997,"y":2544222.379999999}},{"attributes":{"ID":315509,"DIS_CODE":0,"TOWNNAME":"東區","LI":"莊敬里","LIN":"7鄰","STREET":"東光路","SECT":"二段","MAREA":" ","LANE":"１２１巷","ALLEY":" ","HOUSE_NO":"２５號","E_COORD97":171158.53,"N_COORD97":2544219.5800000001,"ADDRESS":"東光路二段１２１巷２５號","OBJECTID":315501},"geometry":{"x":171158.53000000119,"y":2544219.5800000001}},{"attributes":{"ID":315510,"DIS_CODE":0,"TOWNNAME":"東區","LI":"莊敬里","LIN":"7鄰","STREET":"東光路","SECT":"二段","MAREA":" ","LANE":"１２１巷","ALLEY":" ","HOUSE_NO":"２７號","E_COORD97":171156.03,"N_COORD97":2544216.2799999998,"ADDRESS":"東光路二段１２１巷２７號","OBJECTID":315502},"geometry":{"x":171156.03000000026,"y":2544216.2800000012}},{"attributes":{"ID":315511,"DIS_CODE":0,"TOWNNAME":"歸仁區","LI":"沙崙里","LIN":"8鄰","STREET":" ","SECT":" ","MAREA":"沙崙","LANE":" ","ALLEY":" ","HOUSE_NO":"２３７號","E_COORD97":179342.39849600001,"N_COORD97":2537698.0021199998,"ADDRESS":"沙崙２３７號","OBJECTID":315503},"geometry":{"x":179342.39849600103,"y":2537698.0021160003}},{"attributes":{"ID":315512,"DIS_CODE":0,"TOWNNAME":"北區","LI":"光武里","LIN":"4鄰","STREET":"長榮路","SECT":"五段","MAREA":" ","LANE":"３８３巷","ALLEY":" ","HOUSE_NO":"３１號","E_COORD97":169550.17000000001,"N_COORD97":2545871.21,"ADDRESS":"長榮路五段３８３巷３１號","OBJECTID":315504},"geometry":{"x":169550.17000000086,"y":2545871.2100000009}},{"attributes":{"ID":315513,"DIS_CODE":0,"TOWNNAME":"北區","LI":"長德里","LIN":"4鄰","STREET":"公園南路","SECT":" ","MAREA":" ","LANE":"１５２巷","ALLEY":" ","HOUSE_NO":"２５號","E_COORD97":168596.95999999999,"N_COORD97":2544724.0800000001,"ADDRESS":"公園南路１５２巷２５號","OBJECTID":315505},"geometry":{"x":168596.96000000089,"y":2544724.0800000001}},{"attributes":{"ID":315514,"DIS_CODE":0,"TOWNNAME":"北區","LI":"長德里","LIN":"4鄰","STREET":"公園南路","SECT":" ","MAREA":" ","LANE":"１５２巷","ALLEY":" ","HOUSE_NO":"２７號","E_COORD97":168591.76000000001,"N_COORD97":2544723.73,"ADDRESS":"公園南路１５２巷２７號","OBJECTID":315506},"geometry":{"x":168591.76000000071,"y":2544723.7300000004}},{"attributes":{"ID":315515,"DIS_CODE":0,"TOWNNAME":"北區","LI":"長德里","LIN":"4鄰","STREET":"公園南路","SECT":" ","MAREA":" ","LANE":"２２２巷","ALLEY":" ","HOUSE_NO":"６號","E_COORD97":168577.56,"N_COORD97":2544731.3500000001,"ADDRESS":"公園南路２２２巷６號","OBJECTID":315507},"geometry":{"x":168577.56000000052,"y":2544731.3500000015}},{"attributes":{"ID":315516,"DIS_CODE":0,"TOWNNAME":"北區","LI":"長德里","LIN":"4鄰","STREET":"公園南路","SECT":" ","MAREA":" ","LANE":"１５２巷","ALLEY":" ","HOUSE_NO":"１９號","E_COORD97":168619.82999999999,"N_COORD97":2544723.04,"ADDRESS":"公園南路１５２巷１９號","OBJECTID":315508},"geometry":{"x":168619.83000000101,"y":2544723.040000001}},{"attributes":{"ID":315517,"DIS_CODE":0,"TOWNNAME":"北區","LI":"長德里","LIN":"4鄰","STREET":"公園南路","SECT":" ","MAREA":" ","LANE":"１５２巷","ALLEY":" ","HOUSE_NO":"２１號","E_COORD97":168615.32000000001,"N_COORD97":2544729.96,"ADDRESS":"公園南路１５２巷２１號","OBJECTID":315509},"geometry":{"x":168615.32000000123,"y":2544729.9600000009}},{"attributes":{"ID":315518,"DIS_CODE":0,"TOWNNAME":"北區","LI":"長德里","LIN":"4鄰","STREET":"公園南路","SECT":" ","MAREA":" ","LANE":"１５２巷","ALLEY":" ","HOUSE_NO":"２３號","E_COORD97":168609.09,"N_COORD97":2544728.23,"ADDRESS":"公園南路１５２巷２３號","OBJECTID":315510},"geometry":{"x":168609.08999999892,"y":2544728.2300000042}},{"attributes":{"ID":315519,"DIS_CODE":0,"TOWNNAME":"南區","LI":"南都里","LIN":"17鄰","STREET":"明興路","SECT":" ","MAREA":" ","LANE":" ","ALLEY":" ","HOUSE_NO":"１２２號","E_COORD97":166617.54000000001,"N_COORD97":2539954.98,"ADDRESS":"明興路１２２號","OBJECTID":315511},"geometry":{"x":166617.54000000004,"y":2539954.9800000004}},{"attributes":{"ID":315520,"DIS_CODE":0,"TOWNNAME":"南區","LI":"南都里","LIN":"17鄰","STREET":"明興路","SECT":" ","MAREA":" ","LANE":" ","ALLEY":" ","HOUSE_NO":"１４６號","E_COORD97":166602.70999999999,"N_COORD97":2539886.8100000001,"ADDRESS":"明興路１４６號","OBJECTID":315512},"geometry":{"x":166602.70999999996,"y":2539886.8100000024}},{"attributes":{"ID":315521,"DIS_CODE":0,"TOWNNAME":"南區","LI":"南都里","LIN":"17鄰","STREET":"明興路","SECT":" ","MAREA":" ","LANE":" ","ALLEY":" ","HOUSE_NO":"２６號","E_COORD97":166745.53,"N_COORD97":2540106.3500000001,"ADDRESS":"明興路２６號","OBJECTID":315513},"geometry":{"x":166745.53000000119,"y":2540106.3500000015}},{"attributes":{"ID":315522,"DIS_CODE":0,"TOWNNAME":"南區","LI":"南都里","LIN":"17鄰","STREET":"明興路","SECT":" ","MAREA":" ","LANE":" ","ALLEY":" ","HOUSE_NO":"２８號","E_COORD97":166740.37,"N_COORD97":2540103.1299999999,"ADDRESS":"明興路２８號","OBJECTID":315514},"geometry":{"x":166740.37000000011,"y":2540103.1300000027}},{"attributes":{"ID":315523,"DIS_CODE":0,"TOWNNAME":"南區","LI":"南都里","LIN":"17鄰","STREET":"明興路","SECT":" ","MAREA":" ","LANE":" ","ALLEY":" ","HOUSE_NO":"３０號","E_COORD97":166738.12,"N_COORD97":2540099.5899999999,"ADDRESS":"明興路３０號","OBJECTID":315515},"geometry":{"x":166738.12000000104,"y":2540099.5899999999}},{"attributes":{"ID":315524,"DIS_CODE":0,"TOWNNAME":"南區","LI":"南都里","LIN":"17鄰","STREET":"明興路","SECT":" ","MAREA":" ","LANE":" ","ALLEY":" ","HOUSE_NO":"３２號","E_COORD97":166735.85999999999,"N_COORD97":2540096.0499999998,"ADDRESS":"明興路３２號","OBJECTID":315516},"geometry":{"x":166735.86000000034,"y":2540096.0500000026}},{"attributes":{"ID":315525,"DIS_CODE":0,"TOWNNAME":"南區","LI":"南都里","LIN":"17鄰","STREET":"明興路","SECT":" ","MAREA":" ","LANE":" ","ALLEY":" ","HOUSE_NO":"３４號","E_COORD97":166731.98999999999,"N_COORD97":2540091.8700000001,"ADDRESS":"明興路３４號","OBJECTID":315517},"geometry":{"x":166731.99000000209,"y":2540091.870000001}},{"attributes":{"ID":315526,"DIS_CODE":0,"TOWNNAME":"南區","LI":"南都里","LIN":"17鄰","STREET":"明興路","SECT":" ","MAREA":" ","LANE":" ","ALLEY":" ","HOUSE_NO":"３６號","E_COORD97":166728.12,"N_COORD97":2540086.3900000001,"ADDRESS":"明興路３６號","OBJECTID":315518},"geometry":{"x":166728.12000000104,"y":2540086.3900000025}},{"attributes":{"ID":315527,"DIS_CODE":0,"TOWNNAME":"北區","LI":"長德里","LIN":"13鄰","STREET":"長北街","SECT":" ","MAREA":" ","LANE":"２１０巷","ALLEY":" ","HOUSE_NO":"３號","E_COORD97":168612.07000000001,"N_COORD97":2545030.1000000001,"ADDRESS":"長北街２１０巷３號","OBJECTID":315519},"geometry":{"x":168612.07000000123,"y":2545030.1000000034}},{"attributes":{"ID":315528,"DIS_CODE":0,"TOWNNAME":"北區","LI":"安民里","LIN":"7鄰","STREET":"成功路","SECT":" ","MAREA":" ","LANE":"４１０巷","ALLEY":" ","HOUSE_NO":"２８號","E_COORD97":167786.97,"N_COORD97":2544641.1600000001,"ADDRESS":"成功路４１０巷２８號","OBJECTID":315520},"geometry":{"x":167786.96999999974,"y":2544641.160000002}},{"attributes":{"ID":315529,"DIS_CODE":0,"TOWNNAME":"將軍區","LI":"長沙里","LIN":"1鄰","STREET":" ","SECT":" ","MAREA":"長沙","LANE":" ","ALLEY":" ","HOUSE_NO":"９號","E_COORD97":157384.01626599999,"N_COORD97":2568671.7629499999,"ADDRESS":"長沙９號","OBJECTID":315521},"geometry":{"x":157384.01626600139,"y":2568671.7629490029}},{"attributes":{"ID":315530,"DIS_CODE":0,"TOWNNAME":"東區","LI":"莊敬里","LIN":"7鄰","STREET":"東光路","SECT":"二段","MAREA":" ","LANE":"１２１巷","ALLEY":" ","HOUSE_NO":"２９號","E_COORD97":171153.64000000001,"N_COORD97":2544213.5899999999,"ADDRESS":"東光路二段１２１巷２９號","OBJECTID":315522},"geometry":{"x":171153.6400000006,"y":2544213.5900000036}},{"attributes":{"ID":315531,"DIS_CODE":0,"TOWNNAME":"東區","LI":"莊敬里","LIN":"7鄰","STREET":"東光路","SECT":"二段","MAREA":" ","LANE":"１２１巷","ALLEY":" ","HOUSE_NO":"３１號","E_COORD97":171151.14000000001,"N_COORD97":2544211.1899999999,"ADDRESS":"東光路二段１２１巷３１號","OBJECTID":315523},"geometry":{"x":171151.13999999966,"y":2544211.1899999995}},{"attributes":{"ID":315532,"DIS_CODE":0,"TOWNNAME":"東區","LI":"莊敬里","LIN":"7鄰","STREET":"東光路","SECT":"二段","MAREA":" ","LANE":"１２１巷","ALLEY":" ","HOUSE_NO":"３３號","E_COORD97":171148.44,"N_COORD97":2544208.3999999999,"ADDRESS":"東光路二段１２１巷３３號","OBJECTID":315524},"geometry":{"x":171148.43999999948,"y":2544208.4000000041}},{"attributes":{"ID":315533,"DIS_CODE":0,"TOWNNAME":"新市區","LI":"新市里","LIN":"7鄰","STREET":"中正路","SECT":" ","MAREA":" ","LANE":"２６８巷","ALLEY":" ","HOUSE_NO":"３號","E_COORD97":177490.10000000001,"N_COORD97":2553032.5,"ADDRESS":"中正路２６８巷３號","OBJECTID":315525},"geometry":{"x":177490.10000000149,"y":2553032.5000000037}},{"attributes":{"ID":315534,"DIS_CODE":0,"TOWNNAME":"鹽水區","LI":"河南里","LIN":"10鄰","STREET":" ","SECT":" ","MAREA":"?頭港","LANE":" ","ALLEY":" ","HOUSE_NO":"８２號","E_COORD97":172780.63,"N_COORD97":2572582.2200000002,"ADDRESS":"?頭港８２號","OBJECTID":315526},"geometry":{"x":172780.62999999989,"y":2572582.2200000025}},{"attributes":{"ID":315535,"DIS_CODE":0,"TOWNNAME":"新市區","LI":"新市里","LIN":"7鄰","STREET":"中正路","SECT":" ","MAREA":" ","LANE":"２６８巷","ALLEY":" ","HOUSE_NO":"６９號","E_COORD97":177608.48999999999,"N_COORD97":2553057.5,"ADDRESS":"中正路２６８巷６９號","OBJECTID":315527},"geometry":{"x":177608.49000000115,"y":2553057.5000000019}},{"attributes":{"ID":315536,"DIS_CODE":0,"TOWNNAME":"安南區","LI":"溪北里","LIN":"7鄰","STREET":"安和路","SECT":"一段","MAREA":" ","LANE":"１５巷","ALLEY":" ","HOUSE_NO":"２２號","E_COORD97":169483.85999999999,"N_COORD97":2547381.71,"ADDRESS":"安和路一段１５巷２２號","OBJECTID":315528},"geometry":{"x":169483.86000000034,"y":2547381.7100000028}},{"attributes":{"ID":315537,"DIS_CODE":0,"TOWNNAME":"鹽水區","LI":"河南里","LIN":"13鄰","STREET":" ","SECT":" ","MAREA":"?頭港","LANE":" ","ALLEY":" ","HOUSE_NO":"１０６號","E_COORD97":172734.95000000001,"N_COORD97":2572535.8300000001,"ADDRESS":"?頭港１０６號","OBJECTID":315529},"geometry":{"x":172734.95000000205,"y":2572535.8300000019}},{"attributes":{"ID":315538,"DIS_CODE":0,"TOWNNAME":"安南區","LI":"安西里","LIN":"7鄰","STREET":"安和路","SECT":"一段","MAREA":" ","LANE":"３２１巷","ALLEY":" ","HOUSE_NO":"７０號","E_COORD97":169102.97,"N_COORD97":2548109.7000000002,"ADDRESS":"安和路一段３２１巷７０號","OBJECTID":315530},"geometry":{"x":169102.96999999974,"y":2548109.6999999993}},{"attributes":{"ID":315539,"DIS_CODE":0,"TOWNNAME":"安南區","LI":"海東里","LIN":"7鄰","STREET":"海佃路","SECT":"二段","MAREA":" ","LANE":"４８３巷","ALLEY":" ","HOUSE_NO":"７８號","E_COORD97":166458.35999999999,"N_COORD97":2549062.6499999999,"ADDRESS":"海佃路二段４８３巷７８號","OBJECTID":315531},"geometry":{"x":166458.3600000022,"y":2549062.6500000022}},{"attributes":{"ID":315540,"DIS_CODE":0,"TOWNNAME":"安南區","LI":"海東里","LIN":"7鄰","STREET":"海佃路","SECT":"二段","MAREA":" ","LANE":"４８３巷","ALLEY":" ","HOUSE_NO":"８２號","E_COORD97":166449.89999999999,"N_COORD97":2549057.9300000002,"ADDRESS":"海佃路二段４８３巷８２號","OBJECTID":315532},"geometry":{"x":166449.9000000013,"y":2549057.9299999997}},{"attributes":{"ID":315541,"DIS_CODE":0,"TOWNNAME":"安南區","LI":"海東里","LIN":"7鄰","STREET":"海佃路","SECT":"二段","MAREA":" ","LANE":"４８３巷","ALLEY":" ","HOUSE_NO":"８４號","E_COORD97":166446.23000000001,"N_COORD97":2549055.3100000001,"ADDRESS":"海佃路二段４８３巷８４號","OBJECTID":315533},"geometry":{"x":166446.23000000138,"y":2549055.3100000024}},{"attributes":{"ID":315542,"DIS_CODE":0,"TOWNNAME":"安南區","LI":"海東里","LIN":"7鄰","STREET":"海佃路","SECT":"二段","MAREA":" ","LANE":"５０９巷","ALLEY":" ","HOUSE_NO":"９１號","E_COORD97":166445.92000000001,"N_COORD97":2549077.1699999999,"ADDRESS":"海佃路二段５０９巷９１號","OBJECTID":315534},"geometry":{"x":166445.92000000086,"y":2549077.1699999999}},{"attributes":{"ID":315543,"DIS_CODE":0,"TOWNNAME":"安南區","LI":"海東里","LIN":"7鄰","STREET":"海佃路","SECT":"二段","MAREA":" ","LANE":"５０９巷","ALLEY":" ","HOUSE_NO":"９３號","E_COORD97":166442.51999999999,"N_COORD97":2549075.2000000002,"ADDRESS":"海佃路二段５０９巷９３號","OBJECTID":315535},"geometry":{"x":166442.51999999955,"y":2549075.2000000011}},{"attributes":{"ID":315544,"DIS_CODE":0,"TOWNNAME":"安南區","LI":"海東里","LIN":"7鄰","STREET":"海佃路","SECT":"二段","MAREA":" ","LANE":"５０９巷","ALLEY":" ","HOUSE_NO":"９５號","E_COORD97":166438.70000000001,"N_COORD97":2549073.2999999998,"ADDRESS":"海佃路二段５０９巷９５號","OBJECTID":315536},"geometry":{"x":166438.70000000019,"y":2549073.3000000007}},{"attributes":{"ID":315545,"DIS_CODE":0,"TOWNNAME":"安南區","LI":"海東里","LIN":"7鄰","STREET":"海佃路","SECT":"二段","MAREA":" ","LANE":"５０９巷","ALLEY":" ","HOUSE_NO":"９７號","E_COORD97":166435.29999999999,"N_COORD97":2549071.6600000001,"ADDRESS":"海佃路二段５０９巷９７號","OBJECTID":315537},"geometry":{"x":166435.30000000075,"y":2549071.6600000039}},{"attributes":{"ID":315546,"DIS_CODE":0,"TOWNNAME":"安南區","LI":"海東里","LIN":"7鄰","STREET":"海佃路","SECT":"二段","MAREA":" ","LANE":"５０９巷","ALLEY":" ","HOUSE_NO":"８９號","E_COORD97":166448.92000000001,"N_COORD97":2549079.8999999999,"ADDRESS":"海佃路二段５０９巷８９號","OBJECTID":315538},"geometry":{"x":166448.91999999993,"y":2549079.9000000004}},{"attributes":{"ID":315547,"DIS_CODE":0,"TOWNNAME":"安南區","LI":"海東里","LIN":"7鄰","STREET":"海佃路","SECT":"二段","MAREA":" ","LANE":"４８３巷","ALLEY":" ","HOUSE_NO":"７６號","E_COORD97":166462.38,"N_COORD97":2549067.02,"ADDRESS":"海佃路二段４８３巷７６號","OBJECTID":315539},"geometry":{"x":166462.37999999989,"y":2549067.0199999996}},{"attributes":{"ID":315548,"DIS_CODE":0,"TOWNNAME":"南區","LI":"南都里","LIN":"17鄰","STREET":"明興路","SECT":" ","MAREA":" ","LANE":" ","ALLEY":" ","HOUSE_NO":"３８號","E_COORD97":166724.89999999999,"N_COORD97":2540083.8199999998,"ADDRESS":"明興路３８號","OBJECTID":315540},"geometry":{"x":166724.9000000013,"y":2540083.8200000022}},{"attributes":{"ID":315549,"DIS_CODE":0,"TOWNNAME":"南區","LI":"南都里","LIN":"17鄰","STREET":"明興路","SECT":" ","MAREA":" ","LANE":" ","ALLEY":" ","HOUSE_NO":"４０號","E_COORD97":166722.64000000001,"N_COORD97":2540080.6000000001,"ADDRESS":"明興路４０號","OBJECTID":315541},"geometry":{"x":166722.6400000006,"y":2540080.6000000015}},{"attributes":{"ID":315550,"DIS_CODE":0,"TOWNNAME":"鹽水區","LI":"河南里","LIN":"13鄰","STREET":" ","SECT":" ","MAREA":"?頭港","LANE":" ","ALLEY":" ","HOUSE_NO":"１０７號","E_COORD97":172674.03,"N_COORD97":2572546.7799999998,"ADDRESS":"?頭港１０７號","OBJECTID":315542},"geometry":{"x":172674.03000000119,"y":2572546.7799999993}},{"attributes":{"ID":315551,"DIS_CODE":0,"TOWNNAME":"鹽水區","LI":"河南里","LIN":"13鄰","STREET":" ","SECT":" ","MAREA":"?頭港","LANE":" ","ALLEY":" ","HOUSE_NO":"１０８號之１","E_COORD97":172705.92999999999,"N_COORD97":2572518.8599999999,"ADDRESS":"?頭港１０８號之１","OBJECTID":315543},"geometry":{"x":172705.93000000063,"y":2572518.8600000013}},{"attributes":{"ID":315552,"DIS_CODE":0,"TOWNNAME":"柳營區","LI":"果毅里","LIN":"7鄰","STREET":" ","SECT":" ","MAREA":"果毅後","LANE":" ","ALLEY":" ","HOUSE_NO":"７９號","E_COORD97":185748.94,"N_COORD97":2572879.3700000001,"ADDRESS":"果毅後７９號","OBJECTID":315544},"geometry":{"x":185748.94000000041,"y":2572879.3700000029}},{"attributes":{"ID":315553,"DIS_CODE":0,"TOWNNAME":"歸仁區","LI":"武東里","LIN":"16鄰","STREET":"光明街","SECT":" ","MAREA":" ","LANE":" ","ALLEY":" ","HOUSE_NO":"７８號","E_COORD97":175763.08181,"N_COORD97":2536542.06231,"ADDRESS":"光明街７８號","OBJECTID":315545},"geometry":{"x":175763.08180999942,"y":2536542.0623059999}},{"attributes":{"ID":315554,"DIS_CODE":0,"TOWNNAME":"安南區","LI":"海東里","LIN":"7鄰","STREET":"海佃路","SECT":"二段","MAREA":" ","LANE":"４８３巷","ALLEY":" ","HOUSE_NO":"８８號","E_COORD97":166440.75,"N_COORD97":2549051.9300000002,"ADDRESS":"海佃路二段４８３巷８８號","OBJECTID":315546},"geometry":{"x":166440.75000000093,"y":2549051.9299999997}},{"attributes":{"ID":315555,"DIS_CODE":0,"TOWNNAME":"安南區","LI":"海東里","LIN":"7鄰","STREET":"海佃路","SECT":"二段","MAREA":" ","LANE":"４８３巷","ALLEY":" ","HOUSE_NO":"９０號","E_COORD97":166429.57000000001,"N_COORD97":2549060.96,"ADDRESS":"海佃路二段４８３巷９０號","OBJECTID":315547},"geometry":{"x":166429.5700000003,"y":2549060.9600000028}},{"attributes":{"ID":315556,"DIS_CODE":0,"TOWNNAME":"安南區","LI":"海東里","LIN":"7鄰","STREET":"海佃路","SECT":"二段","MAREA":" ","LANE":"４８３巷","ALLEY":" ","HOUSE_NO":"９２號","E_COORD97":166425.63,"N_COORD97":2549058.46,"ADDRESS":"海佃路二段４８３巷９２號","OBJECTID":315548},"geometry":{"x":166425.63000000175,"y":2549058.4600000028}},{"attributes":{"ID":315557,"DIS_CODE":0,"TOWNNAME":"中西區","LI":"郡王里","LIN":"7鄰","STREET":"大埔街","SECT":" ","MAREA":" ","LANE":"８９巷","ALLEY":" ","HOUSE_NO":"１１號","E_COORD97":168777.01000000001,"N_COORD97":2543038.3700000001,"ADDRESS":"大埔街８９巷１１號","OBJECTID":315549},"geometry":{"x":168777.00999999978,"y":2543038.370000001}},{"attributes":{"ID":315558,"DIS_CODE":0,"TOWNNAME":"柳營區","LI":"光福里","LIN":"15鄰","STREET":" ","SECT":" ","MAREA":"柳營","LANE":" ","ALLEY":" ","HOUSE_NO":"２６７號","E_COORD97":179743.76000000001,"N_COORD97":2575345.6600000001,"ADDRESS":"柳營２６７號","OBJECTID":315550},"geometry":{"x":179743.76000000164,"y":2575345.6600000001}},{"attributes":{"ID":315559,"DIS_CODE":0,"TOWNNAME":"鹽水區","LI":"南港里","LIN":"12鄰","STREET":" ","SECT":" ","MAREA":"?頭港","LANE":" ","ALLEY":" ","HOUSE_NO":"２００號之２６","E_COORD97":173203.42999999999,"N_COORD97":2572435.5499999998,"ADDRESS":"?頭港２００號之２６","OBJECTID":315551},"geometry":{"x":173203.4299999997,"y":2572435.5500000007}},{"attributes":{"ID":315560,"DIS_CODE":0,"TOWNNAME":"鹽水區","LI":"下中里","LIN":"8鄰","STREET":" ","SECT":" ","MAREA":"下中","LANE":" ","ALLEY":" ","HOUSE_NO":"１號之１０","E_COORD97":172349.89999999999,"N_COORD97":2579849.21,"ADDRESS":"下中１號之１０","OBJECTID":315552},"geometry":{"x":172349.90000000037,"y":2579849.2100000009}},{"attributes":{"ID":315561,"DIS_CODE":0,"TOWNNAME":"鹽水區","LI":"下中里","LIN":"8鄰","STREET":" ","SECT":" ","MAREA":"下中","LANE":" ","ALLEY":" ","HOUSE_NO":"１號之１１","E_COORD97":172350.35999999999,"N_COORD97":2579845.2200000002,"ADDRESS":"下中１號之１１","OBJECTID":315553},"geometry":{"x":172350.36000000034,"y":2579845.2200000007}},{"attributes":{"ID":315562,"DIS_CODE":0,"TOWNNAME":"鹽水區","LI":"下中里","LIN":"8鄰","STREET":" ","SECT":" ","MAREA":"下中","LANE":" ","ALLEY":" ","HOUSE_NO":"１號之１２","E_COORD97":172351.41,"N_COORD97":2579840.8399999999,"ADDRESS":"下中１號之１２","OBJECTID":315554},"geometry":{"x":172351.41000000015,"y":2579840.8399999999}},{"attributes":{"ID":315563,"DIS_CODE":0,"TOWNNAME":"鹽水區","LI":"下中里","LIN":"8鄰","STREET":" ","SECT":" ","MAREA":"下中","LANE":" ","ALLEY":" ","HOUSE_NO":"１號之１３","E_COORD97":172346.31,"N_COORD97":2579831.8300000001,"ADDRESS":"下中１號之１３","OBJECTID":315555},"geometry":{"x":172346.30999999959,"y":2579831.8300000019}},{"attributes":{"ID":315564,"DIS_CODE":0,"TOWNNAME":"鹽水區","LI":"下中里","LIN":"8鄰","STREET":" ","SECT":" ","MAREA":"下中","LANE":" ","ALLEY":" ","HOUSE_NO":"１號之１","E_COORD97":172373.25,"N_COORD97":2579885.7000000002,"ADDRESS":"下中１號之１","OBJECTID":315556},"geometry":{"x":172373.25000000186,"y":2579885.700000003}},{"attributes":{"ID":315565,"DIS_CODE":0,"TOWNNAME":"鹽水區","LI":"下中里","LIN":"8鄰","STREET":" ","SECT":" ","MAREA":"下中","LANE":" ","ALLEY":" ","HOUSE_NO":"１號之７","E_COORD97":172347.78,"N_COORD97":2579861.7599999998,"ADDRESS":"下中１號之７","OBJECTID":315557},"geometry":{"x":172347.78000000026,"y":2579861.7599999979}},{"attributes":{"ID":315566,"DIS_CODE":0,"TOWNNAME":"鹽水區","LI":"下中里","LIN":"8鄰","STREET":" ","SECT":" ","MAREA":"下中","LANE":" ","ALLEY":" ","HOUSE_NO":"１號之９","E_COORD97":172349.47,"N_COORD97":2579853.3900000001,"ADDRESS":"下中１號之９","OBJECTID":315558},"geometry":{"x":172349.4700000016,"y":2579853.3900000025}},{"attributes":{"ID":315567,"DIS_CODE":0,"TOWNNAME":"鹽水區","LI":"水秀里","LIN":"6鄰","STREET":" ","SECT":" ","MAREA":"土庫","LANE":" ","ALLEY":" ","HOUSE_NO":"６６之４號","E_COORD97":176154.51000000001,"N_COORD97":2579951.1400000001,"ADDRESS":"土庫６６之４號","OBJECTID":315559},"geometry":{"x":176154.50999999978,"y":2579951.1400000006}},{"attributes":{"ID":315568,"DIS_CODE":0,"TOWNNAME":"鹽水區","LI":"水秀里","LIN":"6鄰","STREET":" ","SECT":" ","MAREA":"土庫","LANE":" ","ALLEY":" ","HOUSE_NO":"６６號之４","E_COORD97":176154.51000000001,"N_COORD97":2579951.1400000001,"ADDRESS":"土庫６６號之４","OBJECTID":315560},"geometry":{"x":176154.50999999978,"y":2579951.1400000006}},{"attributes":{"ID":315569,"DIS_CODE":0,"TOWNNAME":"鹽水區","LI":"大豐里","LIN":"8鄰","STREET":" ","SECT":" ","MAREA":"大豐","LANE":" ","ALLEY":" ","HOUSE_NO":"７４號","E_COORD97":170413.60000000001,"N_COORD97":2573696.4900000002,"ADDRESS":"大豐７４號","OBJECTID":315561},"geometry":{"x":170413.59999999963,"y":2573696.4900000002}},{"attributes":{"ID":315570,"DIS_CODE":0,"TOWNNAME":"中西區","LI":"郡王里","LIN":"7鄰","STREET":"大埔街","SECT":" ","MAREA":" ","LANE":"８９巷","ALLEY":" ","HOUSE_NO":"１５號","E_COORD97":168783.38,"N_COORD97":2543034.7599999998,"ADDRESS":"大埔街８９巷１５號","OBJECTID":315562},"geometry":{"x":168783.37999999989,"y":2543034.7599999998}},{"attributes":{"ID":315571,"DIS_CODE":0,"TOWNNAME":"中西區","LI":"郡王里","LIN":"7鄰","STREET":"大埔街","SECT":" ","MAREA":" ","LANE":"８９巷","ALLEY":" ","HOUSE_NO":"１號","E_COORD97":168775.19,"N_COORD97":2543069.23,"ADDRESS":"大埔街８９巷１號","OBJECTID":315563},"geometry":{"x":168775.19000000227,"y":2543069.2300000004}},{"attributes":{"ID":315572,"DIS_CODE":0,"TOWNNAME":"鹽水區","LI":"大豐里","LIN":"8鄰","STREET":" ","SECT":" ","MAREA":"大豐","LANE":" ","ALLEY":" ","HOUSE_NO":"７５號","E_COORD97":170403.81,"N_COORD97":2573712.3300000001,"ADDRESS":"大豐７５號","OBJECTID":315564},"geometry":{"x":170403.80999999959,"y":2573712.3300000019}},{"attributes":{"ID":315573,"DIS_CODE":0,"TOWNNAME":"中西區","LI":"郡王里","LIN":"7鄰","STREET":"大埔街","SECT":" ","MAREA":" ","LANE":"８９巷","ALLEY":" ","HOUSE_NO":"３號","E_COORD97":168787.10999999999,"N_COORD97":2543058.1299999999,"ADDRESS":"大埔街８９巷３號","OBJECTID":315565},"geometry":{"x":168787.11000000034,"y":2543058.129999999}},{"attributes":{"ID":315574,"DIS_CODE":0,"TOWNNAME":"中西區","LI":"郡王里","LIN":"7鄰","STREET":"大埔街","SECT":" ","MAREA":" ","LANE":"８９巷","ALLEY":" ","HOUSE_NO":"７號","E_COORD97":168769.39000000001,"N_COORD97":2543045.3500000001,"ADDRESS":"大埔街８９巷７號","OBJECTID":315566},"geometry":{"x":168769.38999999966,"y":2543045.3500000015}},{"attributes":{"ID":315575,"DIS_CODE":0,"TOWNNAME":"中西區","LI":"郡王里","LIN":"7鄰","STREET":"大埔街","SECT":" ","MAREA":" ","LANE":"８９巷","ALLEY":" ","HOUSE_NO":"９號","E_COORD97":168763.95000000001,"N_COORD97":2543046.48,"ADDRESS":"大埔街８９巷９號","OBJECTID":315567},"geometry":{"x":168763.95000000019,"y":2543046.4800000023}},{"attributes":{"ID":315576,"DIS_CODE":0,"TOWNNAME":"鹽水區","LI":"大豐里","LIN":"8鄰","STREET":" ","SECT":" ","MAREA":"大豐","LANE":" ","ALLEY":" ","HOUSE_NO":"７６號","E_COORD97":170395.35999999999,"N_COORD97":2573712.4700000002,"ADDRESS":"大豐７６號","OBJECTID":315568},"geometry":{"x":170395.36000000127,"y":2573712.4700000025}},{"attributes":{"ID":315577,"DIS_CODE":0,"TOWNNAME":"中西區","LI":"仙草里","LIN":"7鄰","STREET":"永福路","SECT":"一段","MAREA":" ","LANE":"６１巷","ALLEY":" ","HOUSE_NO":"１０號","E_COORD97":167958.28,"N_COORD97":2542642.2999999998,"ADDRESS":"永福路一段６１巷１０號","OBJECTID":315569},"geometry":{"x":167958.28000000026,"y":2542642.3000000007}},{"attributes":{"ID":315578,"DIS_CODE":0,"TOWNNAME":"中西區","LI":"仙草里","LIN":"7鄰","STREET":"永福路","SECT":"一段","MAREA":" ","LANE":"６１巷","ALLEY":" ","HOUSE_NO":"１２號","E_COORD97":167953.89999999999,"N_COORD97":2542643.1600000001,"ADDRESS":"永福路一段６１巷１２號","OBJECTID":315570},"geometry":{"x":167953.9000000013,"y":2542643.1600000001}},{"attributes":{"ID":315579,"DIS_CODE":0,"TOWNNAME":"鹽水區","LI":"大豐里","LIN":"8鄰","STREET":" ","SECT":" ","MAREA":"大豐","LANE":" ","ALLEY":" ","HOUSE_NO":"７７號","E_COORD97":170396.20000000001,"N_COORD97":2573691.2400000002,"ADDRESS":"大豐７７號","OBJECTID":315571},"geometry":{"x":170396.20000000112,"y":2573691.2400000002}},{"attributes":{"ID":315580,"DIS_CODE":0,"TOWNNAME":"中西區","LI":"仙草里","LIN":"7鄰","STREET":"永福路","SECT":"一段","MAREA":" ","LANE":"６１巷","ALLEY":" ","HOUSE_NO":"１４號","E_COORD97":167957.19,"N_COORD97":2542653.4500000002,"ADDRESS":"永福路一段６１巷１４號","OBJECTID":315572},"geometry":{"x":167957.19000000134,"y":2542653.4499999993}},{"attributes":{"ID":315581,"DIS_CODE":0,"TOWNNAME":"鹽水區","LI":"大豐里","LIN":"8鄰","STREET":" ","SECT":" ","MAREA":"大豐","LANE":" ","ALLEY":" ","HOUSE_NO":"８０號","E_COORD97":170381.72,"N_COORD97":2573705.6899999999,"ADDRESS":"大豐８０號","OBJECTID":315573},"geometry":{"x":170381.72000000067,"y":2573705.6900000013}},{"attributes":{"ID":315582,"DIS_CODE":0,"TOWNNAME":"鹽水區","LI":"大豐里","LIN":"8鄰","STREET":" ","SECT":" ","MAREA":"大豐","LANE":" ","ALLEY":" ","HOUSE_NO":"８１之１號","E_COORD97":170340.59,"N_COORD97":2573685.52,"ADDRESS":"大豐８１之１號","OBJECTID":315574},"geometry":{"x":170340.59000000078,"y":2573685.5199999996}},{"attributes":{"ID":315583,"DIS_CODE":0,"TOWNNAME":"鹽水區","LI":"大豐里","LIN":"8鄰","STREET":" ","SECT":" ","MAREA":"大豐","LANE":" ","ALLEY":" ","HOUSE_NO":"８１號","E_COORD97":170366.60000000001,"N_COORD97":2573705.3799999999,"ADDRESS":"大豐８１號","OBJECTID":315575},"geometry":{"x":170366.59999999963,"y":2573705.379999999}},{"attributes":{"ID":315584,"DIS_CODE":0,"TOWNNAME":"鹽水區","LI":"大豐里","LIN":"8鄰","STREET":" ","SECT":" ","MAREA":"大豐","LANE":" ","ALLEY":" ","HOUSE_NO":"８５號","E_COORD97":170395.22,"N_COORD97":2573750.3799999999,"ADDRESS":"大豐８５號","OBJECTID":315576},"geometry":{"x":170395.22000000067,"y":2573750.379999999}},{"attributes":{"ID":315585,"DIS_CODE":0,"TOWNNAME":"鹽水區","LI":"大豐里","LIN":"8鄰","STREET":" ","SECT":" ","MAREA":"大豐","LANE":" ","ALLEY":" ","HOUSE_NO":"８６號","E_COORD97":170418.39000000001,"N_COORD97":2573745.0299999998,"ADDRESS":"大豐８６號","OBJECTID":315577},"geometry":{"x":170418.38999999966,"y":2573745.0300000012}},{"attributes":{"ID":315586,"DIS_CODE":0,"TOWNNAME":"鹽水區","LI":"大豐里","LIN":"7鄰","STREET":" ","SECT":" ","MAREA":"大豐","LANE":" ","ALLEY":" ","HOUSE_NO":"６３號","E_COORD97":170535.84,"N_COORD97":2573668.8700000001,"ADDRESS":"大豐６３號","OBJECTID":315578},"geometry":{"x":170535.83999999985,"y":2573668.8700000029}},{"attributes":{"ID":315587,"DIS_CODE":0,"TOWNNAME":"鹽水區","LI":"岸內里","LIN":"19鄰","STREET":"北門路","SECT":" ","MAREA":" ","LANE":"１巷","ALLEY":" ","HOUSE_NO":"３３號","E_COORD97":175052.10999999999,"N_COORD97":2580429.4199999999,"ADDRESS":"北門路１巷３３號","OBJECTID":315579},"geometry":{"x":175052.11000000127,"y":2580429.4199999999}},{"attributes":{"ID":315588,"DIS_CODE":0,"TOWNNAME":"鹽水區","LI":"岸內里","LIN":"19鄰","STREET":"北門路","SECT":" ","MAREA":" ","LANE":"１巷","ALLEY":" ","HOUSE_NO":"３４號","E_COORD97":175052.04999999999,"N_COORD97":2580433.5600000001,"ADDRESS":"北門路１巷３４號","OBJECTID":315580},"geometry":{"x":175052.04999999981,"y":2580433.5600000042}},{"attributes":{"ID":315589,"DIS_CODE":0,"TOWNNAME":"鹽水區","LI":"岸內里","LIN":"19鄰","STREET":"北門路","SECT":" ","MAREA":" ","LANE":"１巷","ALLEY":" ","HOUSE_NO":"３５號","E_COORD97":175051.60999999999,"N_COORD97":2580436.9700000002,"ADDRESS":"北門路１巷３５號","OBJECTID":315581},"geometry":{"x":175051.61000000127,"y":2580436.9700000007}},{"attributes":{"ID":315590,"DIS_CODE":0,"TOWNNAME":"鹽水區","LI":"岸內里","LIN":"19鄰","STREET":"北門路","SECT":" ","MAREA":" ","LANE":"１巷","ALLEY":" ","HOUSE_NO":"３６號","E_COORD97":175051.09,"N_COORD97":2580441.2599999998,"ADDRESS":"北門路１巷３６號","OBJECTID":315582},"geometry":{"x":175051.09000000078,"y":2580441.2599999998}},{"attributes":{"ID":315591,"DIS_CODE":0,"TOWNNAME":"鹽水區","LI":"岸內里","LIN":"16鄰","STREET":"北門路","SECT":" ","MAREA":" ","LANE":"１巷","ALLEY":" ","HOUSE_NO":"６１號","E_COORD97":175137.92999999999,"N_COORD97":2580329.9199999999,"ADDRESS":"北門路１巷６１號","OBJECTID":315583},"geometry":{"x":175137.9299999997,"y":2580329.9200000018}},{"attributes":{"ID":315592,"DIS_CODE":0,"TOWNNAME":"中西區","LI":"仙草里","LIN":"7鄰","STREET":"永福路","SECT":"一段","MAREA":" ","LANE":"６１巷","ALLEY":" ","HOUSE_NO":"１６號","E_COORD97":167957.01000000001,"N_COORD97":2542656.9199999999,"ADDRESS":"永福路一段６１巷１６號","OBJECTID":315584},"geometry":{"x":167957.01000000164,"y":2542656.9199999999}},{"attributes":{"ID":315593,"DIS_CODE":0,"TOWNNAME":"中西區","LI":"仙草里","LIN":"7鄰","STREET":"永福路","SECT":"一段","MAREA":" ","LANE":"６１巷","ALLEY":" ","HOUSE_NO":"２０號","E_COORD97":167956.32000000001,"N_COORD97":2542664.5499999998,"ADDRESS":"永福路一段６１巷２０號","OBJECTID":315585},"geometry":{"x":167956.32000000123,"y":2542664.5500000007}},{"attributes":{"ID":315594,"DIS_CODE":0,"TOWNNAME":"中西區","LI":"仙草里","LIN":"7鄰","STREET":"永福路","SECT":"一段","MAREA":" ","LANE":"６１巷","ALLEY":" ","HOUSE_NO":"２２號","E_COORD97":167956.67000000001,"N_COORD97":2542668.71,"ADDRESS":"永福路一段６１巷２２號","OBJECTID":315586},"geometry":{"x":167956.67000000086,"y":2542668.7100000028}},{"attributes":{"ID":315595,"DIS_CODE":0,"TOWNNAME":"中西區","LI":"仙草里","LIN":"7鄰","STREET":"永福路","SECT":"一段","MAREA":" ","LANE":"６１巷","ALLEY":" ","HOUSE_NO":"２４號","E_COORD97":167956.84,"N_COORD97":2542672.1800000002,"ADDRESS":"永福路一段６１巷２４號","OBJECTID":315587},"geometry":{"x":167956.84000000078,"y":2542672.1799999997}},{"attributes":{"ID":315596,"DIS_CODE":0,"TOWNNAME":"中西區","LI":"仙草里","LIN":"7鄰","STREET":"永福路","SECT":"一段","MAREA":" ","LANE":"６１巷","ALLEY":" ","HOUSE_NO":"２６號","E_COORD97":167956.14999999999,"N_COORD97":2542676.52,"ADDRESS":"永福路一段６１巷２６號","OBJECTID":315588},"geometry":{"x":167956.15000000037,"y":2542676.5199999996}},{"attributes":{"ID":315597,"DIS_CODE":0,"TOWNNAME":"中西區","LI":"仙草里","LIN":"7鄰","STREET":"永福路","SECT":"一段","MAREA":" ","LANE":"６１巷","ALLEY":" ","HOUSE_NO":"２８號","E_COORD97":167947,"N_COORD97":2542645.21,"ADDRESS":"永福路一段６１巷２８號","OBJECTID":315589},"geometry":{"x":167947,"y":2542645.2100000028}},{"attributes":{"ID":315598,"DIS_CODE":0,"TOWNNAME":"中西區","LI":"仙草里","LIN":"7鄰","STREET":"永福路","SECT":"一段","MAREA":" ","LANE":"６１巷","ALLEY":" ","HOUSE_NO":"２號","E_COORD97":167971.07000000001,"N_COORD97":2542647.8399999999,"ADDRESS":"永福路一段６１巷２號","OBJECTID":315590},"geometry":{"x":167971.07000000123,"y":2542647.8399999999}},{"attributes":{"ID":315599,"DIS_CODE":0,"TOWNNAME":"中西區","LI":"仙草里","LIN":"7鄰","STREET":"永福路","SECT":"一段","MAREA":" ","LANE":"６１巷","ALLEY":" ","HOUSE_NO":"３２號","E_COORD97":167937.92000000001,"N_COORD97":2542644.2200000002,"ADDRESS":"永福路一段６１巷３２號","OBJECTID":315591},"geometry":{"x":167937.92000000086,"y":2542644.2200000025}},{"attributes":{"ID":315600,"DIS_CODE":0,"TOWNNAME":"南區","LI":"南都里","LIN":"17鄰","STREET":"明興路","SECT":" ","MAREA":" ","LANE":" ","ALLEY":" ","HOUSE_NO":"４２號","E_COORD97":166719.42000000001,"N_COORD97":2540078.02,"ADDRESS":"明興路４２號","OBJECTID":315592},"geometry":{"x":166719.42000000086,"y":2540078.0200000014}},{"attributes":{"ID":315601,"DIS_CODE":0,"TOWNNAME":"南區","LI":"南都里","LIN":"17鄰","STREET":"明興路","SECT":" ","MAREA":" ","LANE":" ","ALLEY":" ","HOUSE_NO":"４６號","E_COORD97":166716.51999999999,"N_COORD97":2540074.48,"ADDRESS":"明興路４６號","OBJECTID":315593},"geometry":{"x":166716.52000000048,"y":2540074.4800000004}},{"attributes":{"ID":315602,"DIS_CODE":0,"TOWNNAME":"南區","LI":"南都里","LIN":"17鄰","STREET":"明興路","SECT":" ","MAREA":" ","LANE":" ","ALLEY":" ","HOUSE_NO":"４８號","E_COORD97":166704.26999999999,"N_COORD97":2540068.0499999998,"ADDRESS":"明興路４８號","OBJECTID":315594},"geometry":{"x":166704.27000000048,"y":2540068.0500000045}},{"attributes":{"ID":315603,"DIS_CODE":0,"TOWNNAME":"南區","LI":"南都里","LIN":"17鄰","STREET":"明興路","SECT":" ","MAREA":" ","LANE":" ","ALLEY":" ","HOUSE_NO":"５０號","E_COORD97":166702.98000000001,"N_COORD97":2540063.54,"ADDRESS":"明興路５０號","OBJECTID":315595},"geometry":{"x":166702.98000000045,"y":2540063.540000001}},{"attributes":{"ID":315604,"DIS_CODE":0,"TOWNNAME":"南區","LI":"南都里","LIN":"17鄰","STREET":"明興路","SECT":" ","MAREA":" ","LANE":" ","ALLEY":" ","HOUSE_NO":"５２號","E_COORD97":166700.39999999999,"N_COORD97":2540060.3199999998,"ADDRESS":"明興路５２號","OBJECTID":315596},"geometry":{"x":166700.40000000037,"y":2540060.3200000022}},{"attributes":{"ID":315605,"DIS_CODE":0,"TOWNNAME":"鹽水區","LI":"中境里","LIN":"4鄰","STREET":"中正路","SECT":" ","MAREA":" ","LANE":" ","ALLEY":" ","HOUSE_NO":"２號","E_COORD97":175077.35999999999,"N_COORD97":2579993.1299999999,"ADDRESS":"中正路２號","OBJECTID":315597},"geometry":{"x":175077.36000000127,"y":2579993.129999999}},{"attributes":{"ID":315606,"DIS_CODE":0,"TOWNNAME":"鹽水區","LI":"岸內里","LIN":"22鄰","STREET":"北門路","SECT":" ","MAREA":" ","LANE":"７巷","ALLEY":" ","HOUSE_NO":"１８號","E_COORD97":175326.81,"N_COORD97":2580370.96,"ADDRESS":"北門路７巷１８號","OBJECTID":315598},"geometry":{"x":175326.80999999959,"y":2580370.9600000028}},{"attributes":{"ID":315607,"DIS_CODE":0,"TOWNNAME":"鹽水區","LI":"岸內里","LIN":"22鄰","STREET":"北門路","SECT":" ","MAREA":" ","LANE":"７巷","ALLEY":" ","HOUSE_NO":"１號","E_COORD97":175324.01000000001,"N_COORD97":2580333.0699999998,"ADDRESS":"北門路７巷１號","OBJECTID":315599},"geometry":{"x":175324.00999999978,"y":2580333.0700000022}},{"attributes":{"ID":315608,"DIS_CODE":0,"TOWNNAME":"鹽水區","LI":"岸內里","LIN":"22鄰","STREET":"北門路","SECT":" ","MAREA":" ","LANE":"７巷","ALLEY":" ","HOUSE_NO":"２０號","E_COORD97":175326.45000000001,"N_COORD97":2580374.3199999998,"ADDRESS":"北門路７巷２０號","OBJECTID":315600},"geometry":{"x":175326.45000000019,"y":2580374.3200000022}}]}