{"displayFieldName":"TOWNNAME","fieldAliases":{"ID":"ID","DIS_CODE":"DIS_CODE","TOWNNAME":"TOWNNAME","LI":"LI","LIN":"LIN","STREET":"STREET","SECT":"SECT","MAREA":"MAREA","LANE":"LANE","ALLEY":"ALLEY","HOUSE_NO":"HOUSE_NO","E_COORD97":"E_COORD97","N_COORD97":"N_COORD97","ADDRESS":"ADDRESS","OBJECTID":"OBJECTID"},"geometryType":"esriGeometryPoint","spatialReference":{"wkid":102443,"latestWkid":3826},"fields":[{"name":"ID","type":"esriFieldTypeDouble","alias":"ID"},{"name":"DIS_CODE","type":"esriFieldTypeInteger","alias":"DIS_CODE"},{"name":"TOWNNAME","type":"esriFieldTypeString","alias":"TOWNNAME","length":8},{"name":"LI","type":"esriFieldTypeString","alias":"LI","length":8},{"name":"LIN","type":"esriFieldTypeString","alias":"LIN","length":12},{"name":"STREET","type":"esriFieldTypeString","alias":"STREET","length":20},{"name":"SECT","type":"esriFieldTypeString","alias":"SECT","length":8},{"name":"MAREA","type":"esriFieldTypeString","alias":"MAREA","length":12},{"name":"LANE","type":"esriFieldTypeString","alias":"LANE","length":10},{"name":"ALLEY","type":"esriFieldTypeString","alias":"ALLEY","length":10},{"name":"HOUSE_NO","type":"esriFieldTypeString","alias":"HOUSE_NO","length":20},{"name":"E_COORD97","type":"esriFieldTypeDouble","alias":"E_COORD97"},{"name":"N_COORD97","type":"esriFieldTypeDouble","alias":"N_COORD97"},{"name":"ADDRESS","type":"esriFieldTypeString","alias":"ADDRESS","length":50},{"name":"OBJECTID","type":"esriFieldTypeOID","alias":"OBJECTID"}],"features":[{"attributes":{"ID":359011,"DIS_CODE":0,"TOWNNAME":"永康區","LI":"西灣里","LIN":"25鄰","STREET":"國光七街","SECT":" ","MAREA":" ","LANE":"６巷","ALLEY":" ","HOUSE_NO":"７號之５","E_COORD97":174355.64999999999,"N_COORD97":2545563.6299999999,"ADDRESS":"國光七街６巷７號之５","OBJECTID":359001},"geometry":{"x":174355.65000000037,"y":2545563.629999999}},{"attributes":{"ID":359012,"DIS_CODE":0,"TOWNNAME":"永康區","LI":"西灣里","LIN":"25鄰","STREET":"國光七街","SECT":" ","MAREA":" ","LANE":"６巷","ALLEY":" ","HOUSE_NO":"７號之１１","E_COORD97":174362.76000000001,"N_COORD97":2545590.3900000001,"ADDRESS":"國光七街６巷７號之１１","OBJECTID":359002},"geometry":{"x":174362.75999999978,"y":2545590.3900000006}},{"attributes":{"ID":359013,"DIS_CODE":0,"TOWNNAME":"南區","LI":"明亮里","LIN":"7鄰","STREET":"新都路","SECT":" ","MAREA":" ","LANE":"５０６巷","ALLEY":" ","HOUSE_NO":"１１號","E_COORD97":167153.70999999999,"N_COORD97":2540927.8199999998,"ADDRESS":"新都路５０６巷１１號","OBJECTID":359003},"geometry":{"x":167153.70999999996,"y":2540927.8200000022}},{"attributes":{"ID":359014,"DIS_CODE":0,"TOWNNAME":"南區","LI":"明亮里","LIN":"7鄰","STREET":"新都路","SECT":" ","MAREA":" ","LANE":"５０６巷","ALLEY":" ","HOUSE_NO":"１２號","E_COORD97":167176.16,"N_COORD97":2540926.29,"ADDRESS":"新都路５０６巷１２號","OBJECTID":359004},"geometry":{"x":167176.16000000015,"y":2540926.290000001}},{"attributes":{"ID":359015,"DIS_CODE":0,"TOWNNAME":"南區","LI":"明亮里","LIN":"7鄰","STREET":"新都路","SECT":" ","MAREA":" ","LANE":"５０６巷","ALLEY":" ","HOUSE_NO":"１３號","E_COORD97":167154.84,"N_COORD97":2540931.5800000001,"ADDRESS":"新都路５０６巷１３號","OBJECTID":359005},"geometry":{"x":167154.84000000171,"y":2540931.5799999982}},{"attributes":{"ID":359016,"DIS_CODE":0,"TOWNNAME":"南區","LI":"明亮里","LIN":"7鄰","STREET":"新都路","SECT":" ","MAREA":" ","LANE":"５０６巷","ALLEY":" ","HOUSE_NO":"１４號","E_COORD97":167176.78,"N_COORD97":2540929.9700000002,"ADDRESS":"新都路５０６巷１４號","OBJECTID":359006},"geometry":{"x":167176.78000000026,"y":2540929.9700000044}},{"attributes":{"ID":359017,"DIS_CODE":0,"TOWNNAME":"南區","LI":"明亮里","LIN":"6鄰","STREET":"新都路","SECT":" ","MAREA":" ","LANE":"５２０巷","ALLEY":" ","HOUSE_NO":"６９號","E_COORD97":167146.10999999999,"N_COORD97":2540959.8599999999,"ADDRESS":"新都路５２０巷６９號","OBJECTID":359007},"geometry":{"x":167146.11000000034,"y":2540959.8600000031}},{"attributes":{"ID":359018,"DIS_CODE":0,"TOWNNAME":"下營區","LI":"後街里","LIN":"19鄰","STREET":"大孝街","SECT":" ","MAREA":" ","LANE":"５８巷","ALLEY":" ","HOUSE_NO":"１２號","E_COORD97":174583.25,"N_COORD97":2571135.4100000001,"ADDRESS":"大孝街５８巷１２號","OBJECTID":359008},"geometry":{"x":174583.25,"y":2571135.410000002}},{"attributes":{"ID":359019,"DIS_CODE":0,"TOWNNAME":"下營區","LI":"後街里","LIN":"19鄰","STREET":"大孝街","SECT":" ","MAREA":" ","LANE":"５８巷","ALLEY":" ","HOUSE_NO":"１６號","E_COORD97":174586.72,"N_COORD97":2571135.73,"ADDRESS":"大孝街５８巷１６號","OBJECTID":359009},"geometry":{"x":174586.71999999974,"y":2571135.7300000004}},{"attributes":{"ID":359020,"DIS_CODE":0,"TOWNNAME":"下營區","LI":"後街里","LIN":"19鄰","STREET":"大孝街","SECT":" ","MAREA":" ","LANE":"５８巷","ALLEY":" ","HOUSE_NO":"１號","E_COORD97":174565.48999999999,"N_COORD97":2571156.04,"ADDRESS":"大孝街５８巷１號","OBJECTID":359010},"geometry":{"x":174565.49000000209,"y":2571156.0399999972}},{"attributes":{"ID":359021,"DIS_CODE":0,"TOWNNAME":"下營區","LI":"後街里","LIN":"19鄰","STREET":"大孝街","SECT":" ","MAREA":" ","LANE":"５８巷","ALLEY":" ","HOUSE_NO":"２號","E_COORD97":174566.79000000001,"N_COORD97":2571134.02,"ADDRESS":"大孝街５８巷２號","OBJECTID":359011},"geometry":{"x":174566.79000000097,"y":2571134.0200000014}},{"attributes":{"ID":359022,"DIS_CODE":0,"TOWNNAME":"下營區","LI":"後街里","LIN":"19鄰","STREET":"大孝街","SECT":" ","MAREA":" ","LANE":"５８巷","ALLEY":" ","HOUSE_NO":"５號","E_COORD97":174573.51999999999,"N_COORD97":2571156.8900000001,"ADDRESS":"大孝街５８巷５號","OBJECTID":359012},"geometry":{"x":174573.52000000048,"y":2571156.8900000025}},{"attributes":{"ID":359023,"DIS_CODE":0,"TOWNNAME":"下營區","LI":"後街里","LIN":"19鄰","STREET":"大孝街","SECT":" ","MAREA":" ","LANE":"５８巷","ALLEY":" ","HOUSE_NO":"６號","E_COORD97":174570.76999999999,"N_COORD97":2571134.54,"ADDRESS":"大孝街５８巷６號","OBJECTID":359013},"geometry":{"x":174570.76999999955,"y":2571134.5399999991}},{"attributes":{"ID":359024,"DIS_CODE":0,"TOWNNAME":"下營區","LI":"後街里","LIN":"19鄰","STREET":"大孝街","SECT":" ","MAREA":" ","LANE":"５８巷","ALLEY":" ","HOUSE_NO":"７號","E_COORD97":174578.09,"N_COORD97":2571156.9700000002,"ADDRESS":"大孝街５８巷７號","OBJECTID":359014},"geometry":{"x":174578.09000000171,"y":2571156.9700000007}},{"attributes":{"ID":359025,"DIS_CODE":0,"TOWNNAME":"下營區","LI":"後街里","LIN":"19鄰","STREET":"大孝街","SECT":" ","MAREA":" ","LANE":"５８巷","ALLEY":" ","HOUSE_NO":"８號","E_COORD97":174574.70999999999,"N_COORD97":2571134.9700000002,"ADDRESS":"大孝街５８巷８號","OBJECTID":359015},"geometry":{"x":174574.71000000089,"y":2571134.9700000025}},{"attributes":{"ID":359026,"DIS_CODE":0,"TOWNNAME":"下營區","LI":"後街里","LIN":"19鄰","STREET":"大孝街","SECT":" ","MAREA":" ","LANE":"５８巷","ALLEY":" ","HOUSE_NO":"９號","E_COORD97":174581.67000000001,"N_COORD97":2571157.3999999999,"ADDRESS":"大孝街５８巷９號","OBJECTID":359016},"geometry":{"x":174581.67000000086,"y":2571157.4000000004}},{"attributes":{"ID":359027,"DIS_CODE":0,"TOWNNAME":"下營區","LI":"後街里","LIN":"19鄰","STREET":"大和街","SECT":" ","MAREA":" ","LANE":"１１３巷","ALLEY":" ","HOUSE_NO":"１０號","E_COORD97":174598.17000000001,"N_COORD97":2571193.2599999998,"ADDRESS":"大和街１１３巷１０號","OBJECTID":359017},"geometry":{"x":174598.17000000086,"y":2571193.2600000016}},{"attributes":{"ID":359028,"DIS_CODE":0,"TOWNNAME":"下營區","LI":"後街里","LIN":"19鄰","STREET":"大和街","SECT":" ","MAREA":" ","LANE":"１１３巷","ALLEY":" ","HOUSE_NO":"１２號","E_COORD97":174598.48000000001,"N_COORD97":2571188.6899999999,"ADDRESS":"大和街１１３巷１２號","OBJECTID":359018},"geometry":{"x":174598.48000000138,"y":2571188.6899999995}},{"attributes":{"ID":359029,"DIS_CODE":0,"TOWNNAME":"東區","LI":"崇成里","LIN":"8鄰","STREET":"崇德十三街","SECT":" ","MAREA":" ","LANE":" ","ALLEY":" ","HOUSE_NO":"２７號六樓","E_COORD97":170864.35999999999,"N_COORD97":2541317.29,"ADDRESS":"崇德十三街２７號六樓","OBJECTID":359019},"geometry":{"x":170864.36000000127,"y":2541317.290000001}},{"attributes":{"ID":359030,"DIS_CODE":0,"TOWNNAME":"東區","LI":"崇成里","LIN":"8鄰","STREET":"崇德十三街","SECT":" ","MAREA":" ","LANE":" ","ALLEY":" ","HOUSE_NO":"２７號四樓","E_COORD97":170864.35999999999,"N_COORD97":2541317.29,"ADDRESS":"崇德十三街２７號四樓","OBJECTID":359020},"geometry":{"x":170864.36000000127,"y":2541317.290000001}},{"attributes":{"ID":359031,"DIS_CODE":0,"TOWNNAME":"歸仁區","LI":"後市里","LIN":"41鄰","STREET":"國光街","SECT":" ","MAREA":" ","LANE":"６６巷","ALLEY":" ","HOUSE_NO":"３號","E_COORD97":177154.48999999999,"N_COORD97":2540918.7400000002,"ADDRESS":"國光街６６巷３號","OBJECTID":359021},"geometry":{"x":177154.49000000115,"y":2540918.7400000021}},{"attributes":{"ID":359032,"DIS_CODE":0,"TOWNNAME":"下營區","LI":"後街里","LIN":"19鄰","STREET":"大和街","SECT":" ","MAREA":" ","LANE":"１１３巷","ALLEY":" ","HOUSE_NO":"１６號","E_COORD97":174599.04000000001,"N_COORD97":2571184.1499999999,"ADDRESS":"大和街１１３巷１６號","OBJECTID":359022},"geometry":{"x":174599.04000000097,"y":2571184.1500000041}},{"attributes":{"ID":359033,"DIS_CODE":0,"TOWNNAME":"下營區","LI":"後街里","LIN":"19鄰","STREET":"大和街","SECT":" ","MAREA":" ","LANE":"１１３巷","ALLEY":" ","HOUSE_NO":"１８號","E_COORD97":174599.67000000001,"N_COORD97":2571179.5,"ADDRESS":"大和街１１３巷１８號","OBJECTID":359023},"geometry":{"x":174599.67000000179,"y":2571179.5}},{"attributes":{"ID":359034,"DIS_CODE":0,"TOWNNAME":"下營區","LI":"後街里","LIN":"19鄰","STREET":"大和街","SECT":" ","MAREA":" ","LANE":"１１３巷","ALLEY":" ","HOUSE_NO":"２０號","E_COORD97":174600.01999999999,"N_COORD97":2571175.2200000002,"ADDRESS":"大和街１１３巷２０號","OBJECTID":359024},"geometry":{"x":174600.01999999955,"y":2571175.2200000025}},{"attributes":{"ID":359035,"DIS_CODE":0,"TOWNNAME":"下營區","LI":"後街里","LIN":"19鄰","STREET":"大和街","SECT":" ","MAREA":" ","LANE":"１１３巷","ALLEY":" ","HOUSE_NO":"２２號","E_COORD97":174601.16,"N_COORD97":2571169.8100000001,"ADDRESS":"大和街１１３巷２２號","OBJECTID":359025},"geometry":{"x":174601.16000000015,"y":2571169.8100000024}},{"attributes":{"ID":359036,"DIS_CODE":0,"TOWNNAME":"下營區","LI":"後街里","LIN":"19鄰","STREET":"大和街","SECT":" ","MAREA":" ","LANE":"１１３巷","ALLEY":" ","HOUSE_NO":"２６號","E_COORD97":174601.01000000001,"N_COORD97":2571165.04,"ADDRESS":"大和街１１３巷２６號","OBJECTID":359026},"geometry":{"x":174601.01000000071,"y":2571165.0399999991}},{"attributes":{"ID":359037,"DIS_CODE":0,"TOWNNAME":"下營區","LI":"後街里","LIN":"19鄰","STREET":"大和街","SECT":" ","MAREA":" ","LANE":"１１３巷","ALLEY":" ","HOUSE_NO":"２８號","E_COORD97":174601.17999999999,"N_COORD97":2571161.1800000002,"ADDRESS":"大和街１１３巷２８號","OBJECTID":359027},"geometry":{"x":174601.18000000063,"y":2571161.1799999997}},{"attributes":{"ID":359038,"DIS_CODE":0,"TOWNNAME":"下營區","LI":"後街里","LIN":"19鄰","STREET":"大和街","SECT":" ","MAREA":" ","LANE":"１１３巷","ALLEY":" ","HOUSE_NO":"２號","E_COORD97":174597.19,"N_COORD97":2571206.52,"ADDRESS":"大和街１１３巷２號","OBJECTID":359028},"geometry":{"x":174597.19000000134,"y":2571206.5199999996}},{"attributes":{"ID":359039,"DIS_CODE":0,"TOWNNAME":"下營區","LI":"後街里","LIN":"19鄰","STREET":"大和街","SECT":" ","MAREA":" ","LANE":"１１３巷","ALLEY":" ","HOUSE_NO":"３０號","E_COORD97":174601.5,"N_COORD97":2571156.4199999999,"ADDRESS":"大和街１１３巷３０號","OBJECTID":359029},"geometry":{"x":174601.50000000093,"y":2571156.4199999999}},{"attributes":{"ID":359040,"DIS_CODE":0,"TOWNNAME":"下營區","LI":"後街里","LIN":"19鄰","STREET":"大和街","SECT":" ","MAREA":" ","LANE":"１１３巷","ALLEY":" ","HOUSE_NO":"３２號","E_COORD97":174602.03,"N_COORD97":2571151.7999999998,"ADDRESS":"大和街１１３巷３２號","OBJECTID":359030},"geometry":{"x":174602.03000000026,"y":2571151.8000000007}},{"attributes":{"ID":359041,"DIS_CODE":0,"TOWNNAME":"下營區","LI":"後街里","LIN":"19鄰","STREET":"大和街","SECT":" ","MAREA":" ","LANE":"１１３巷","ALLEY":" ","HOUSE_NO":"３６號","E_COORD97":174602.42999999999,"N_COORD97":2571147.0600000001,"ADDRESS":"大和街１１３巷３６號","OBJECTID":359031},"geometry":{"x":174602.4299999997,"y":2571147.0600000005}},{"attributes":{"ID":359042,"DIS_CODE":0,"TOWNNAME":"下營區","LI":"後街里","LIN":"19鄰","STREET":"大和街","SECT":" ","MAREA":" ","LANE":"１１３巷","ALLEY":" ","HOUSE_NO":"３８號","E_COORD97":174602.97,"N_COORD97":2571142.6600000001,"ADDRESS":"大和街１１３巷３８號","OBJECTID":359032},"geometry":{"x":174602.97000000067,"y":2571142.6600000001}},{"attributes":{"ID":359043,"DIS_CODE":0,"TOWNNAME":"仁德區","LI":"仁和里","LIN":"25鄰","STREET":" ","SECT":" ","MAREA":"仁和","LANE":" ","ALLEY":" ","HOUSE_NO":"５０４號","E_COORD97":170430.82600500001,"N_COORD97":2539781.25,"ADDRESS":"仁和５０４號","OBJECTID":359033},"geometry":{"x":170430.82600500155,"y":2539781.2500000037}},{"attributes":{"ID":359044,"DIS_CODE":0,"TOWNNAME":"官田區","LI":"官田里","LIN":"25鄰","STREET":" ","SECT":" ","MAREA":"官田","LANE":" ","ALLEY":" ","HOUSE_NO":"３９６號","E_COORD97":182212.76000000001,"N_COORD97":2565261.0099999998,"ADDRESS":"官田３９６號","OBJECTID":359034},"geometry":{"x":182212.75999999978,"y":2565261.0099999979}},{"attributes":{"ID":359045,"DIS_CODE":0,"TOWNNAME":"下營區","LI":"後街里","LIN":"19鄰","STREET":"大和街","SECT":" ","MAREA":" ","LANE":"１１３巷","ALLEY":" ","HOUSE_NO":"４０號","E_COORD97":174603.48999999999,"N_COORD97":2571138.04,"ADDRESS":"大和街１１３巷４０號","OBJECTID":359035},"geometry":{"x":174603.49000000115,"y":2571138.0399999991}},{"attributes":{"ID":359046,"DIS_CODE":0,"TOWNNAME":"東區","LI":"崇成里","LIN":"8鄰","STREET":"崇德十三街","SECT":" ","MAREA":" ","LANE":" ","ALLEY":" ","HOUSE_NO":"２９號三樓","E_COORD97":170858.19,"N_COORD97":2541310.04,"ADDRESS":"崇德十三街２９號三樓","OBJECTID":359036},"geometry":{"x":170858.19000000041,"y":2541310.0399999991}},{"attributes":{"ID":359047,"DIS_CODE":0,"TOWNNAME":"東區","LI":"泉南里","LIN":"25鄰","STREET":"光華街","SECT":" ","MAREA":" ","LANE":"２２９巷","ALLEY":" ","HOUSE_NO":"２１號","E_COORD97":169465.03,"N_COORD97":2542942.23,"ADDRESS":"光華街２２９巷２１號","OBJECTID":359037},"geometry":{"x":169465.03000000119,"y":2542942.2300000023}},{"attributes":{"ID":359048,"DIS_CODE":0,"TOWNNAME":"東區","LI":"泉南里","LIN":"25鄰","STREET":"光華街","SECT":" ","MAREA":" ","LANE":"２２９巷","ALLEY":" ","HOUSE_NO":"１９號","E_COORD97":169466.34,"N_COORD97":2542946.98,"ADDRESS":"光華街２２９巷１９號","OBJECTID":359038},"geometry":{"x":169466.33999999985,"y":2542946.9800000042}},{"attributes":{"ID":359049,"DIS_CODE":0,"TOWNNAME":"下營區","LI":"後街里","LIN":"19鄰","STREET":"大和街","SECT":" ","MAREA":" ","LANE":"１１３巷","ALLEY":" ","HOUSE_NO":"４２號","E_COORD97":174604.01999999999,"N_COORD97":2571133.6400000001,"ADDRESS":"大和街１１３巷４２號","OBJECTID":359039},"geometry":{"x":174604.02000000048,"y":2571133.6400000043}},{"attributes":{"ID":359050,"DIS_CODE":0,"TOWNNAME":"下營區","LI":"後街里","LIN":"19鄰","STREET":"大和街","SECT":" ","MAREA":" ","LANE":"１１３巷","ALLEY":" ","HOUSE_NO":"４６號","E_COORD97":174604.57000000001,"N_COORD97":2571129.2599999998,"ADDRESS":"大和街１１３巷４６號","OBJECTID":359040},"geometry":{"x":174604.57000000123,"y":2571129.2600000016}},{"attributes":{"ID":359051,"DIS_CODE":0,"TOWNNAME":"下營區","LI":"後街里","LIN":"19鄰","STREET":"大孝街","SECT":" ","MAREA":" ","LANE":"５８巷","ALLEY":" ","HOUSE_NO":"１０號","E_COORD97":174579.07000000001,"N_COORD97":2571135.25,"ADDRESS":"大孝街５８巷１０號","OBJECTID":359041},"geometry":{"x":174579.07000000123,"y":2571135.2499999981}},{"attributes":{"ID":359052,"DIS_CODE":0,"TOWNNAME":"下營區","LI":"後街里","LIN":"19鄰","STREET":"大孝街","SECT":" ","MAREA":" ","LANE":"５８巷","ALLEY":" ","HOUSE_NO":"１１號","E_COORD97":174585.54000000001,"N_COORD97":2571158.3500000001,"ADDRESS":"大孝街５８巷１１號","OBJECTID":359042},"geometry":{"x":174585.54000000097,"y":2571158.3500000015}},{"attributes":{"ID":359053,"DIS_CODE":0,"TOWNNAME":"下營區","LI":"後街里","LIN":"19鄰","STREET":"大和街","SECT":" ","MAREA":" ","LANE":"１１３巷","ALLEY":" ","HOUSE_NO":"６號","E_COORD97":174597.39999999999,"N_COORD97":2571202.0600000001,"ADDRESS":"大和街１１３巷６號","OBJECTID":359043},"geometry":{"x":174597.4000000013,"y":2571202.0600000024}},{"attributes":{"ID":359054,"DIS_CODE":0,"TOWNNAME":"官田區","LI":"官田里","LIN":"25鄰","STREET":" ","SECT":" ","MAREA":"官田","LANE":" ","ALLEY":" ","HOUSE_NO":"４０１號之２３","E_COORD97":182388.17999999999,"N_COORD97":2565390.54,"ADDRESS":"官田４０１號之２３","OBJECTID":359044},"geometry":{"x":182388.1799999997,"y":2565390.540000001}},{"attributes":{"ID":359055,"DIS_CODE":0,"TOWNNAME":"下營區","LI":"後街里","LIN":"19鄰","STREET":"大和街","SECT":" ","MAREA":" ","LANE":"１１３巷","ALLEY":" ","HOUSE_NO":"８號","E_COORD97":174597.73999999999,"N_COORD97":2571197.7400000002,"ADDRESS":"大和街１１３巷８號","OBJECTID":359045},"geometry":{"x":174597.74000000209,"y":2571197.7400000021}},{"attributes":{"ID":359056,"DIS_CODE":0,"TOWNNAME":"南區","LI":"明亮里","LIN":"8鄰","STREET":"新都路","SECT":" ","MAREA":" ","LANE":"４８８巷","ALLEY":" ","HOUSE_NO":"１１號","E_COORD97":167204.12,"N_COORD97":2540922.6099999999,"ADDRESS":"新都路４８８巷１１號","OBJECTID":359046},"geometry":{"x":167204.12000000104,"y":2540922.6099999994}},{"attributes":{"ID":359057,"DIS_CODE":0,"TOWNNAME":"南區","LI":"明亮里","LIN":"8鄰","STREET":"新都路","SECT":" ","MAREA":" ","LANE":"４８８巷","ALLEY":" ","HOUSE_NO":"１２號","E_COORD97":167214.87,"N_COORD97":2540922.9100000001,"ADDRESS":"新都路４８８巷１２號","OBJECTID":359047},"geometry":{"x":167214.87000000104,"y":2540922.9100000039}},{"attributes":{"ID":359058,"DIS_CODE":0,"TOWNNAME":"南區","LI":"明亮里","LIN":"8鄰","STREET":"新都路","SECT":" ","MAREA":" ","LANE":"４８８巷","ALLEY":" ","HOUSE_NO":"１３號","E_COORD97":167205.64999999999,"N_COORD97":2540926.29,"ADDRESS":"新都路４８８巷１３號","OBJECTID":359048},"geometry":{"x":167205.64999999944,"y":2540926.290000001}},{"attributes":{"ID":359059,"DIS_CODE":0,"TOWNNAME":"南區","LI":"明亮里","LIN":"8鄰","STREET":"新都路","SECT":" ","MAREA":" ","LANE":"４８８巷","ALLEY":" ","HOUSE_NO":"１４號","E_COORD97":167216.70999999999,"N_COORD97":2540927.21,"ADDRESS":"新都路４８８巷１４號","OBJECTID":359049},"geometry":{"x":167216.71000000183,"y":2540927.2100000009}},{"attributes":{"ID":359060,"DIS_CODE":0,"TOWNNAME":"南區","LI":"明亮里","LIN":"8鄰","STREET":"新都路","SECT":" ","MAREA":" ","LANE":"４８８巷","ALLEY":" ","HOUSE_NO":"１５號","E_COORD97":167206.26999999999,"N_COORD97":2540931.5,"ADDRESS":"新都路４８８巷１５號","OBJECTID":359050},"geometry":{"x":167206.27000000048,"y":2540931.5}},{"attributes":{"ID":359061,"DIS_CODE":0,"TOWNNAME":"東區","LI":"崇成里","LIN":"8鄰","STREET":"崇德十三街","SECT":" ","MAREA":" ","LANE":" ","ALLEY":" ","HOUSE_NO":"２９號五樓","E_COORD97":170858.19,"N_COORD97":2541310.04,"ADDRESS":"崇德十三街２９號五樓","OBJECTID":359051},"geometry":{"x":170858.19000000041,"y":2541310.0399999991}},{"attributes":{"ID":359062,"DIS_CODE":0,"TOWNNAME":"東區","LI":"崇成里","LIN":"8鄰","STREET":"崇德十三街","SECT":" ","MAREA":" ","LANE":" ","ALLEY":" ","HOUSE_NO":"２９號六樓","E_COORD97":170858.19,"N_COORD97":2541310.04,"ADDRESS":"崇德十三街２９號六樓","OBJECTID":359052},"geometry":{"x":170858.19000000041,"y":2541310.0399999991}},{"attributes":{"ID":359063,"DIS_CODE":0,"TOWNNAME":"永康區","LI":"西勢里","LIN":"25鄰","STREET":"廣興街","SECT":" ","MAREA":" ","LANE":"２６巷","ALLEY":" ","HOUSE_NO":"２８號","E_COORD97":175929.26000000001,"N_COORD97":2546454.25,"ADDRESS":"廣興街２６巷２８號","OBJECTID":359053},"geometry":{"x":175929.25999999978,"y":2546454.2500000019}},{"attributes":{"ID":359064,"DIS_CODE":0,"TOWNNAME":"南區","LI":"明亮里","LIN":"8鄰","STREET":"新都路","SECT":" ","MAREA":" ","LANE":"４８８巷","ALLEY":" ","HOUSE_NO":"１６號","E_COORD97":167217.63,"N_COORD97":2540932.4300000002,"ADDRESS":"新都路４８８巷１６號","OBJECTID":359054},"geometry":{"x":167217.63000000082,"y":2540932.4300000034}},{"attributes":{"ID":359065,"DIS_CODE":0,"TOWNNAME":"南區","LI":"明亮里","LIN":"8鄰","STREET":"新都路","SECT":" ","MAREA":" ","LANE":"４８８巷","ALLEY":" ","HOUSE_NO":"１７號","E_COORD97":167207.5,"N_COORD97":2540935.4900000002,"ADDRESS":"新都路４８８巷１７號","OBJECTID":359055},"geometry":{"x":167207.5,"y":2540935.4900000002}},{"attributes":{"ID":359066,"DIS_CODE":0,"TOWNNAME":"中西區","LI":"青年里","LIN":"19鄰","STREET":"中山路","SECT":" ","MAREA":" ","LANE":"８巷","ALLEY":" ","HOUSE_NO":"３號","E_COORD97":168596.97,"N_COORD97":2543703.02,"ADDRESS":"中山路８巷３號","OBJECTID":359056},"geometry":{"x":168596.97000000067,"y":2543703.0200000014}},{"attributes":{"ID":359067,"DIS_CODE":0,"TOWNNAME":"中西區","LI":"青年里","LIN":"19鄰","STREET":"中山路","SECT":" ","MAREA":" ","LANE":"８巷","ALLEY":" ","HOUSE_NO":"３號之１","E_COORD97":168598.60999999999,"N_COORD97":2543697.73,"ADDRESS":"中山路８巷３號之１","OBJECTID":359057},"geometry":{"x":168598.61000000034,"y":2543697.7300000042}},{"attributes":{"ID":359068,"DIS_CODE":0,"TOWNNAME":"中西區","LI":"青年里","LIN":"19鄰","STREET":"中山路","SECT":" ","MAREA":" ","LANE":"８巷","ALLEY":" ","HOUSE_NO":"５號","E_COORD97":168598.73000000001,"N_COORD97":2543691.3900000001,"ADDRESS":"中山路８巷５號","OBJECTID":359058},"geometry":{"x":168598.73000000231,"y":2543691.3900000025}},{"attributes":{"ID":359069,"DIS_CODE":0,"TOWNNAME":"中西區","LI":"青年里","LIN":"19鄰","STREET":"中山路","SECT":" ","MAREA":" ","LANE":"８巷","ALLEY":" ","HOUSE_NO":"７號","E_COORD97":168600.60999999999,"N_COORD97":2543686.2200000002,"ADDRESS":"中山路８巷７號","OBJECTID":359059},"geometry":{"x":168600.61000000034,"y":2543686.2200000007}},{"attributes":{"ID":359070,"DIS_CODE":0,"TOWNNAME":"新市區","LI":"新市里","LIN":"19鄰","STREET":"和平街","SECT":" ","MAREA":" ","LANE":"１５巷","ALLEY":" ","HOUSE_NO":"１６號","E_COORD97":177750.54000000001,"N_COORD97":2553390.75,"ADDRESS":"和平街１５巷１６號","OBJECTID":359060},"geometry":{"x":177750.54000000097,"y":2553390.7500000019}},{"attributes":{"ID":359071,"DIS_CODE":0,"TOWNNAME":"新市區","LI":"新市里","LIN":"19鄰","STREET":"和平街","SECT":" ","MAREA":" ","LANE":"１５巷","ALLEY":" ","HOUSE_NO":"４號","E_COORD97":177746.95000000001,"N_COORD97":2553424.5,"ADDRESS":"和平街１５巷４號","OBJECTID":359061},"geometry":{"x":177746.95000000019,"y":2553424.5}},{"attributes":{"ID":359072,"DIS_CODE":0,"TOWNNAME":"安南區","LI":"頂安里","LIN":"19鄰","STREET":"北安路","SECT":"三段","MAREA":" ","LANE":"３９６巷","ALLEY":" ","HOUSE_NO":"１２號","E_COORD97":168866.25,"N_COORD97":2549569.6600000001,"ADDRESS":"北安路三段３９６巷１２號","OBJECTID":359062},"geometry":{"x":168866.25000000093,"y":2549569.6600000001}},{"attributes":{"ID":359073,"DIS_CODE":0,"TOWNNAME":"安南區","LI":"頂安里","LIN":"19鄰","STREET":"北安路","SECT":"三段","MAREA":" ","LANE":"３９６巷","ALLEY":" ","HOUSE_NO":"１４號","E_COORD97":168867.79999999999,"N_COORD97":2549564.3999999999,"ADDRESS":"北安路三段３９６巷１４號","OBJECTID":359063},"geometry":{"x":168867.80000000075,"y":2549564.4000000004}},{"attributes":{"ID":359074,"DIS_CODE":0,"TOWNNAME":"東區","LI":"自強里","LIN":"19鄰","STREET":"中華東路","SECT":"二段","MAREA":" ","LANE":"２４３巷","ALLEY":" ","HOUSE_NO":"１５號","E_COORD97":171299.37,"N_COORD97":2542591.23,"ADDRESS":"中華東路二段２４３巷１５號","OBJECTID":359064},"geometry":{"x":171299.37000000011,"y":2542591.2300000004}},{"attributes":{"ID":359075,"DIS_CODE":0,"TOWNNAME":"東區","LI":"自強里","LIN":"19鄰","STREET":"中華東路","SECT":"二段","MAREA":" ","LANE":"２４３巷","ALLEY":" ","HOUSE_NO":"１７號","E_COORD97":171304.51999999999,"N_COORD97":2542586.8599999999,"ADDRESS":"中華東路二段２４３巷１７號","OBJECTID":359065},"geometry":{"x":171304.51999999955,"y":2542586.8599999975}},{"attributes":{"ID":359076,"DIS_CODE":0,"TOWNNAME":"東區","LI":"自強里","LIN":"19鄰","STREET":"中華東路","SECT":"二段","MAREA":" ","LANE":"２４３巷","ALLEY":" ","HOUSE_NO":"１９號","E_COORD97":171309.94,"N_COORD97":2542583.25,"ADDRESS":"中華東路二段２４３巷１９號","OBJECTID":359066},"geometry":{"x":171309.94000000134,"y":2542583.2500000019}},{"attributes":{"ID":359077,"DIS_CODE":0,"TOWNNAME":"東區","LI":"自強里","LIN":"19鄰","STREET":"中華東路","SECT":"二段","MAREA":" ","LANE":"２４３巷","ALLEY":" ","HOUSE_NO":"２１號","E_COORD97":171316.38,"N_COORD97":2542576.5600000001,"ADDRESS":"中華東路二段２４３巷２１號","OBJECTID":359067},"geometry":{"x":171316.38000000082,"y":2542576.5599999987}},{"attributes":{"ID":359078,"DIS_CODE":0,"TOWNNAME":"東區","LI":"自強里","LIN":"19鄰","STREET":"中華東路","SECT":"二段","MAREA":" ","LANE":"２４３巷","ALLEY":" ","HOUSE_NO":"２３號","E_COORD97":171324.37,"N_COORD97":2542578.1000000001,"ADDRESS":"中華東路二段２４３巷２３號","OBJECTID":359068},"geometry":{"x":171324.37000000011,"y":2542578.0999999996}},{"attributes":{"ID":359079,"DIS_CODE":0,"TOWNNAME":"東區","LI":"自強里","LIN":"19鄰","STREET":"中華東路","SECT":"二段","MAREA":" ","LANE":"２４３巷","ALLEY":" ","HOUSE_NO":"２５號","E_COORD97":171331.59,"N_COORD97":2542577.5899999999,"ADDRESS":"中華東路二段２４３巷２５號","OBJECTID":359069},"geometry":{"x":171331.58999999892,"y":2542577.5899999999}},{"attributes":{"ID":359080,"DIS_CODE":0,"TOWNNAME":"永康區","LI":"南灣里","LIN":"19鄰","STREET":"大灣一街","SECT":" ","MAREA":" ","LANE":"６２巷","ALLEY":" ","HOUSE_NO":"１２號","E_COORD97":174338.60000000001,"N_COORD97":2544729.29,"ADDRESS":"大灣一街６２巷１２號","OBJECTID":359070},"geometry":{"x":174338.60000000149,"y":2544729.2899999991}},{"attributes":{"ID":359081,"DIS_CODE":0,"TOWNNAME":"永康區","LI":"南灣里","LIN":"19鄰","STREET":"大灣一街","SECT":" ","MAREA":" ","LANE":"６２巷","ALLEY":" ","HOUSE_NO":"８號","E_COORD97":174342.19,"N_COORD97":2544738.04,"ADDRESS":"大灣一街６２巷８號","OBJECTID":359071},"geometry":{"x":174342.19000000227,"y":2544738.0399999991}},{"attributes":{"ID":359082,"DIS_CODE":0,"TOWNNAME":"永康區","LI":"南灣里","LIN":"19鄰","STREET":"大灣一街","SECT":" ","MAREA":" ","LANE":"６２巷","ALLEY":" ","HOUSE_NO":"２６號","E_COORD97":174330.89000000001,"N_COORD97":2544699.7999999998,"ADDRESS":"大灣一街６２巷２６號","OBJECTID":359072},"geometry":{"x":174330.88999999966,"y":2544699.8000000007}},{"attributes":{"ID":359083,"DIS_CODE":0,"TOWNNAME":"永康區","LI":"南灣里","LIN":"19鄰","STREET":"大灣一街","SECT":" ","MAREA":" ","LANE":"６２巷","ALLEY":" ","HOUSE_NO":"１６號","E_COORD97":174336.23999999999,"N_COORD97":2544725.04,"ADDRESS":"大灣一街６２巷１６號","OBJECTID":359073},"geometry":{"x":174336.24000000022,"y":2544725.0400000028}},{"attributes":{"ID":359084,"DIS_CODE":0,"TOWNNAME":"永康區","LI":"南灣里","LIN":"19鄰","STREET":"大灣路","SECT":" ","MAREA":" ","LANE":"７６４巷","ALLEY":" ","HOUSE_NO":"１０８號","E_COORD97":174224.31,"N_COORD97":2544708.7200000002,"ADDRESS":"大灣路７６４巷１０８號","OBJECTID":359074},"geometry":{"x":174224.31000000052,"y":2544708.7200000025}},{"attributes":{"ID":359085,"DIS_CODE":0,"TOWNNAME":"永康區","LI":"東橋里","LIN":"19鄰","STREET":"中山南路","SECT":" ","MAREA":" ","LANE":"４６７巷","ALLEY":" ","HOUSE_NO":"１０號","E_COORD97":172942.10999999999,"N_COORD97":2546963.2000000002,"ADDRESS":"中山南路４６７巷１０號","OBJECTID":359075},"geometry":{"x":172942.11000000034,"y":2546963.2000000011}},{"attributes":{"ID":359086,"DIS_CODE":0,"TOWNNAME":"永康區","LI":"南灣里","LIN":"19鄰","STREET":"大灣路","SECT":" ","MAREA":" ","LANE":"７６４巷","ALLEY":" ","HOUSE_NO":"１４８號","E_COORD97":174286.28,"N_COORD97":2544734.3500000001,"ADDRESS":"大灣路７６４巷１４８號","OBJECTID":359076},"geometry":{"x":174286.28000000119,"y":2544734.3500000015}},{"attributes":{"ID":359087,"DIS_CODE":0,"TOWNNAME":"永康區","LI":"東橋里","LIN":"19鄰","STREET":"中山南路","SECT":" ","MAREA":" ","LANE":"４６７巷","ALLEY":" ","HOUSE_NO":"５號","E_COORD97":172929.63,"N_COORD97":2546929.1299999999,"ADDRESS":"中山南路４６７巷５號","OBJECTID":359077},"geometry":{"x":172929.62999999989,"y":2546929.1300000008}},{"attributes":{"ID":359088,"DIS_CODE":0,"TOWNNAME":"永康區","LI":"南灣里","LIN":"19鄰","STREET":"大灣路","SECT":" ","MAREA":" ","LANE":"７６４巷","ALLEY":" ","HOUSE_NO":"１６０號","E_COORD97":174264.28,"N_COORD97":2544744.8900000001,"ADDRESS":"大灣路７６４巷１６０號","OBJECTID":359078},"geometry":{"x":174264.28000000119,"y":2544744.8900000025}},{"attributes":{"ID":359089,"DIS_CODE":0,"TOWNNAME":"永康區","LI":"南灣里","LIN":"19鄰","STREET":"大灣路","SECT":" ","MAREA":" ","LANE":"７６４巷","ALLEY":" ","HOUSE_NO":"１６８號","E_COORD97":174247.73999999999,"N_COORD97":2544778.8199999998,"ADDRESS":"大灣路７６４巷１６８號","OBJECTID":359079},"geometry":{"x":174247.74000000022,"y":2544778.8200000022}},{"attributes":{"ID":359090,"DIS_CODE":0,"TOWNNAME":"永康區","LI":"南灣里","LIN":"19鄰","STREET":"大灣一街","SECT":" ","MAREA":" ","LANE":"６２巷","ALLEY":" ","HOUSE_NO":"２８號","E_COORD97":174329.44,"N_COORD97":2544695.7999999998,"ADDRESS":"大灣一街６２巷２８號","OBJECTID":359080},"geometry":{"x":174329.44000000134,"y":2544695.8000000026}},{"attributes":{"ID":359091,"DIS_CODE":0,"TOWNNAME":"永康區","LI":"東灣里","LIN":"19鄰","STREET":"大灣三街","SECT":" ","MAREA":" ","LANE":"７３巷","ALLEY":" ","HOUSE_NO":"１７號","E_COORD97":174869.88,"N_COORD97":2544903.29,"ADDRESS":"大灣三街７３巷１７號","OBJECTID":359081},"geometry":{"x":174869.88000000082,"y":2544903.290000001}},{"attributes":{"ID":359092,"DIS_CODE":0,"TOWNNAME":"永康區","LI":"東橋里","LIN":"19鄰","STREET":"中山南路","SECT":" ","MAREA":" ","LANE":"４６７巷","ALLEY":" ","HOUSE_NO":"１２號","E_COORD97":172941.01999999999,"N_COORD97":2546967.7000000002,"ADDRESS":"中山南路４６７巷１２號","OBJECTID":359082},"geometry":{"x":172941.02000000048,"y":2546967.6999999993}},{"attributes":{"ID":359093,"DIS_CODE":0,"TOWNNAME":"東區","LI":"崇成里","LIN":"8鄰","STREET":"崇德十三街","SECT":" ","MAREA":" ","LANE":" ","ALLEY":" ","HOUSE_NO":"２９號四樓","E_COORD97":170858.19,"N_COORD97":2541310.04,"ADDRESS":"崇德十三街２９號四樓","OBJECTID":359083},"geometry":{"x":170858.19000000041,"y":2541310.0399999991}},{"attributes":{"ID":359094,"DIS_CODE":0,"TOWNNAME":"西港區","LI":"西港里","LIN":"25鄰","STREET":" ","SECT":" ","MAREA":"堀子頭","LANE":" ","ALLEY":" ","HOUSE_NO":"３３號","E_COORD97":168639.37,"N_COORD97":2557624.3599999999,"ADDRESS":"堀子頭３３號","OBJECTID":359084},"geometry":{"x":168639.37000000011,"y":2557624.3600000013}},{"attributes":{"ID":359095,"DIS_CODE":0,"TOWNNAME":"西港區","LI":"西港里","LIN":"25鄰","STREET":" ","SECT":" ","MAREA":"堀子頭","LANE":" ","ALLEY":" ","HOUSE_NO":"３０號之１０","E_COORD97":168646.38,"N_COORD97":2557662.5499999998,"ADDRESS":"堀子頭３０號之１０","OBJECTID":359085},"geometry":{"x":168646.38000000175,"y":2557662.5500000007}},{"attributes":{"ID":359096,"DIS_CODE":0,"TOWNNAME":"永康區","LI":"西勢里","LIN":"25鄰","STREET":"廣興街","SECT":" ","MAREA":" ","LANE":"２６巷","ALLEY":" ","HOUSE_NO":"７０號","E_COORD97":175989.31,"N_COORD97":2546393.7400000002,"ADDRESS":"廣興街２６巷７０號","OBJECTID":359086},"geometry":{"x":175989.30999999959,"y":2546393.7400000021}},{"attributes":{"ID":359097,"DIS_CODE":0,"TOWNNAME":"西港區","LI":"西港里","LIN":"25鄰","STREET":" ","SECT":" ","MAREA":"堀子頭","LANE":" ","ALLEY":" ","HOUSE_NO":"３０號之１１","E_COORD97":168646.73000000001,"N_COORD97":2557658.7000000002,"ADDRESS":"堀子頭３０號之１１","OBJECTID":359087},"geometry":{"x":168646.73000000138,"y":2557658.7000000011}},{"attributes":{"ID":359098,"DIS_CODE":0,"TOWNNAME":"永康區","LI":"西勢里","LIN":"25鄰","STREET":"廣興街","SECT":" ","MAREA":" ","LANE":"２６巷","ALLEY":" ","HOUSE_NO":"６４號","E_COORD97":175979.67000000001,"N_COORD97":2546401.7400000002,"ADDRESS":"廣興街２６巷６４號","OBJECTID":359088},"geometry":{"x":175979.67000000086,"y":2546401.7400000002}},{"attributes":{"ID":359099,"DIS_CODE":0,"TOWNNAME":"西港區","LI":"西港里","LIN":"25鄰","STREET":" ","SECT":" ","MAREA":"堀子頭","LANE":" ","ALLEY":" ","HOUSE_NO":"３０號之１２","E_COORD97":168604.70000000001,"N_COORD97":2557675.5600000001,"ADDRESS":"堀子頭３０號之１２","OBJECTID":359089},"geometry":{"x":168604.70000000019,"y":2557675.5600000024}},{"attributes":{"ID":359100,"DIS_CODE":0,"TOWNNAME":"永康區","LI":"\u25A0洲里","LIN":"25鄰","STREET":"洲工街","SECT":" ","MAREA":" ","LANE":"２２巷","ALLEY":" ","HOUSE_NO":"８號","E_COORD97":170649.97,"N_COORD97":2548179.0099999998,"ADDRESS":"洲工街２２巷８號","OBJECTID":359090},"geometry":{"x":170649.97000000067,"y":2548179.0099999998}},{"attributes":{"ID":359101,"DIS_CODE":0,"TOWNNAME":"永康區","LI":"\u25A0行里","LIN":"25鄰","STREET":"\u25A0和街","SECT":" ","MAREA":" ","LANE":"２４７巷","ALLEY":" ","HOUSE_NO":"２號","E_COORD97":171527.62,"N_COORD97":2548380.96,"ADDRESS":"\u25A0和街２４７巷２號","OBJECTID":359091},"geometry":{"x":171527.62000000011,"y":2548380.9600000009}},{"attributes":{"ID":359102,"DIS_CODE":0,"TOWNNAME":"歸仁區","LI":"許厝里","LIN":"1鄰","STREET":"中山路","SECT":"一段","MAREA":" ","LANE":"３４３巷","ALLEY":" ","HOUSE_NO":"１號","E_COORD97":178413.54000000001,"N_COORD97":2540642.0099999998,"ADDRESS":"中山路一段３４３巷１號","OBJECTID":359092},"geometry":{"x":178413.54000000097,"y":2540642.0100000016}},{"attributes":{"ID":359103,"DIS_CODE":0,"TOWNNAME":"永康區","LI":"東橋里","LIN":"19鄰","STREET":"中山南路","SECT":" ","MAREA":" ","LANE":"３６５巷","ALLEY":" ","HOUSE_NO":"２號","E_COORD97":172707.25,"N_COORD97":2546819.8999999999,"ADDRESS":"中山南路３６５巷２號","OBJECTID":359093},"geometry":{"x":172707.25000000186,"y":2546819.9000000022}},{"attributes":{"ID":359104,"DIS_CODE":0,"TOWNNAME":"中西區","LI":"保安里","LIN":"8鄰","STREET":"府前路","SECT":"二段","MAREA":" ","LANE":" ","ALLEY":" ","HOUSE_NO":"３６號二樓","E_COORD97":167640.54000000001,"N_COORD97":2543498.8500000001,"ADDRESS":"府前路二段３６號二樓","OBJECTID":359094},"geometry":{"x":167640.54000000097,"y":2543498.8499999996}},{"attributes":{"ID":359105,"DIS_CODE":0,"TOWNNAME":"中西區","LI":"保安里","LIN":"8鄰","STREET":"府前路","SECT":"二段","MAREA":" ","LANE":" ","ALLEY":" ","HOUSE_NO":"３６號三樓","E_COORD97":167640.54000000001,"N_COORD97":2543498.8500000001,"ADDRESS":"府前路二段３６號三樓","OBJECTID":359095},"geometry":{"x":167640.54000000097,"y":2543498.8499999996}},{"attributes":{"ID":359106,"DIS_CODE":0,"TOWNNAME":"中西區","LI":"保安里","LIN":"8鄰","STREET":"府前路","SECT":"二段","MAREA":" ","LANE":" ","ALLEY":" ","HOUSE_NO":"３６號五樓","E_COORD97":167640.54000000001,"N_COORD97":2543498.8500000001,"ADDRESS":"府前路二段３６號五樓","OBJECTID":359096},"geometry":{"x":167640.54000000097,"y":2543498.8499999996}},{"attributes":{"ID":359107,"DIS_CODE":0,"TOWNNAME":"中西區","LI":"保安里","LIN":"8鄰","STREET":"府前路","SECT":"二段","MAREA":" ","LANE":" ","ALLEY":" ","HOUSE_NO":"３６號四樓","E_COORD97":167640.54000000001,"N_COORD97":2543498.8500000001,"ADDRESS":"府前路二段３６號四樓","OBJECTID":359097},"geometry":{"x":167640.54000000097,"y":2543498.8499999996}},{"attributes":{"ID":359108,"DIS_CODE":0,"TOWNNAME":"永康區","LI":"二王里","LIN":"8鄰","STREET":"二王路","SECT":" ","MAREA":" ","LANE":" ","ALLEY":" ","HOUSE_NO":"１６號十二樓之１","E_COORD97":172976.29999999999,"N_COORD97":2546819.7999999998,"ADDRESS":"二王路１６號十二樓之１","OBJECTID":359098},"geometry":{"x":172976.30000000168,"y":2546819.7999999989}},{"attributes":{"ID":359109,"DIS_CODE":0,"TOWNNAME":"東區","LI":"虎尾里","LIN":"25鄰","STREET":"富農街","SECT":"一段","MAREA":" ","LANE":"１８８巷","ALLEY":" ","HOUSE_NO":"２８號","E_COORD97":171631.26000000001,"N_COORD97":2542473.6899999999,"ADDRESS":"富農街一段１８８巷２８號","OBJECTID":359099},"geometry":{"x":171631.26000000071,"y":2542473.6900000013}},{"attributes":{"ID":359110,"DIS_CODE":0,"TOWNNAME":"東區","LI":"虎尾里","LIN":"25鄰","STREET":"富農街","SECT":"一段","MAREA":" ","LANE":"１８８巷","ALLEY":" ","HOUSE_NO":"３０號","E_COORD97":171635.57000000001,"N_COORD97":2542473.8500000001,"ADDRESS":"富農街一段１８８巷３０號","OBJECTID":359100},"geometry":{"x":171635.5700000003,"y":2542473.8499999996}},{"attributes":{"ID":359111,"DIS_CODE":0,"TOWNNAME":"東區","LI":"虎尾里","LIN":"25鄰","STREET":"富農街","SECT":"一段","MAREA":" ","LANE":"１８８巷","ALLEY":" ","HOUSE_NO":"３２號","E_COORD97":171639.41,"N_COORD97":2542474.6499999999,"ADDRESS":"富農街一段１８８巷３２號","OBJECTID":359101},"geometry":{"x":171639.41000000015,"y":2542474.6500000022}},{"attributes":{"ID":359112,"DIS_CODE":0,"TOWNNAME":"東區","LI":"虎尾里","LIN":"25鄰","STREET":"富農街","SECT":"一段","MAREA":" ","LANE":"１８８巷","ALLEY":" ","HOUSE_NO":"３４號","E_COORD97":171643.56,"N_COORD97":2542476.2400000002,"ADDRESS":"富農街一段１８８巷３４號","OBJECTID":359102},"geometry":{"x":171643.56000000145,"y":2542476.2400000002}},{"attributes":{"ID":359113,"DIS_CODE":0,"TOWNNAME":"東區","LI":"虎尾里","LIN":"25鄰","STREET":"富農街","SECT":"一段","MAREA":" ","LANE":"１８８巷","ALLEY":" ","HOUSE_NO":"３８號","E_COORD97":171651.07000000001,"N_COORD97":2542477.6800000002,"ADDRESS":"富農街一段１８８巷３８號","OBJECTID":359103},"geometry":{"x":171651.07000000216,"y":2542477.6800000016}},{"attributes":{"ID":359114,"DIS_CODE":0,"TOWNNAME":"東區","LI":"虎尾里","LIN":"25鄰","STREET":"富農街","SECT":"一段","MAREA":" ","LANE":"１８８巷","ALLEY":" ","HOUSE_NO":"４０號","E_COORD97":171655.07000000001,"N_COORD97":2542477.6800000002,"ADDRESS":"富農街一段１８８巷４０號","OBJECTID":359104},"geometry":{"x":171655.07000000123,"y":2542477.6800000016}},{"attributes":{"ID":359115,"DIS_CODE":0,"TOWNNAME":"東區","LI":"虎尾里","LIN":"25鄰","STREET":"富農街","SECT":"一段","MAREA":" ","LANE":"１８８巷","ALLEY":" ","HOUSE_NO":"４２號","E_COORD97":171659.85999999999,"N_COORD97":2542477.6800000002,"ADDRESS":"富農街一段１８８巷４２號","OBJECTID":359105},"geometry":{"x":171659.86000000127,"y":2542477.6800000016}},{"attributes":{"ID":359116,"DIS_CODE":0,"TOWNNAME":"永康區","LI":"南灣里","LIN":"19鄰","STREET":"大灣路","SECT":" ","MAREA":" ","LANE":"７６４巷","ALLEY":" ","HOUSE_NO":"１４０之３號","E_COORD97":174309.67000000001,"N_COORD97":2544726.4300000002,"ADDRESS":"大灣路７６４巷１４０之３號","OBJECTID":359106},"geometry":{"x":174309.67000000179,"y":2544726.4300000034}},{"attributes":{"ID":359117,"DIS_CODE":0,"TOWNNAME":"永康區","LI":"南灣里","LIN":"19鄰","STREET":"立興街","SECT":" ","MAREA":" ","LANE":"１７６巷","ALLEY":" ","HOUSE_NO":"１１號","E_COORD97":174310.07000000001,"N_COORD97":2544676.1400000001,"ADDRESS":"立興街１７６巷１１號","OBJECTID":359107},"geometry":{"x":174310.0700000003,"y":2544676.1400000025}},{"attributes":{"ID":359118,"DIS_CODE":0,"TOWNNAME":"安南區","LI":"頂安里","LIN":"19鄰","STREET":"北安路","SECT":"三段","MAREA":" ","LANE":"３９６巷","ALLEY":" ","HOUSE_NO":"１８號","E_COORD97":168872.45000000001,"N_COORD97":2549552.3199999998,"ADDRESS":"北安路三段３９６巷１８號","OBJECTID":359108},"geometry":{"x":168872.45000000019,"y":2549552.320000004}},{"attributes":{"ID":359119,"DIS_CODE":0,"TOWNNAME":"安南區","LI":"頂安里","LIN":"19鄰","STREET":"北安路","SECT":"三段","MAREA":" ","LANE":"３９６巷","ALLEY":" ","HOUSE_NO":"２０號","E_COORD97":168875.85999999999,"N_COORD97":2549549.5299999998,"ADDRESS":"北安路三段３９６巷２０號","OBJECTID":359109},"geometry":{"x":168875.8600000022,"y":2549549.5300000031}},{"attributes":{"ID":359120,"DIS_CODE":0,"TOWNNAME":"安南區","LI":"頂安里","LIN":"19鄰","STREET":"北安路","SECT":"三段","MAREA":" ","LANE":"３９６巷","ALLEY":" ","HOUSE_NO":"２２號","E_COORD97":168878.03,"N_COORD97":2549546.1200000001,"ADDRESS":"北安路三段３９６巷２２號","OBJECTID":359110},"geometry":{"x":168878.03000000119,"y":2549546.120000001}},{"attributes":{"ID":359121,"DIS_CODE":0,"TOWNNAME":"安南區","LI":"頂安里","LIN":"19鄰","STREET":"北安路","SECT":"三段","MAREA":" ","LANE":"３９６巷","ALLEY":" ","HOUSE_NO":"２６號","E_COORD97":168881.75,"N_COORD97":2549543.6400000001,"ADDRESS":"北安路三段３９６巷２６號","OBJECTID":359111},"geometry":{"x":168881.75000000093,"y":2549543.6400000043}},{"attributes":{"ID":359122,"DIS_CODE":0,"TOWNNAME":"安南區","LI":"頂安里","LIN":"19鄰","STREET":"北安路","SECT":"三段","MAREA":" ","LANE":"３９６巷","ALLEY":" ","HOUSE_NO":"３０號","E_COORD97":168888.26000000001,"N_COORD97":2549537.1400000001,"ADDRESS":"北安路三段３９６巷３０號","OBJECTID":359112},"geometry":{"x":168888.26000000071,"y":2549537.1400000025}},{"attributes":{"ID":359123,"DIS_CODE":0,"TOWNNAME":"安南區","LI":"頂安里","LIN":"19鄰","STREET":"北安路","SECT":"三段","MAREA":" ","LANE":"３９６巷","ALLEY":" ","HOUSE_NO":"３２號","E_COORD97":168889.81,"N_COORD97":2549533.4199999999,"ADDRESS":"北安路三段３９６巷３２號","OBJECTID":359113},"geometry":{"x":168889.80999999959,"y":2549533.4199999999}},{"attributes":{"ID":359124,"DIS_CODE":0,"TOWNNAME":"安南區","LI":"頂安里","LIN":"19鄰","STREET":"北安路","SECT":"三段","MAREA":" ","LANE":"３９６巷","ALLEY":" ","HOUSE_NO":"３６號","E_COORD97":168892.60000000001,"N_COORD97":2549530.0099999998,"ADDRESS":"北安路三段３９６巷３６號","OBJECTID":359114},"geometry":{"x":168892.60000000056,"y":2549530.0100000035}},{"attributes":{"ID":359125,"DIS_CODE":0,"TOWNNAME":"安南區","LI":"頂安里","LIN":"19鄰","STREET":"北安路","SECT":"三段","MAREA":" ","LANE":"３９６巷","ALLEY":" ","HOUSE_NO":"３８號","E_COORD97":168894.14999999999,"N_COORD97":2549526.6099999999,"ADDRESS":"北安路三段３９６巷３８號","OBJECTID":359115},"geometry":{"x":168894.15000000224,"y":2549526.6100000013}},{"attributes":{"ID":359126,"DIS_CODE":0,"TOWNNAME":"安南區","LI":"頂安里","LIN":"19鄰","STREET":"北安路","SECT":"三段","MAREA":" ","LANE":"３９６巷","ALLEY":" ","HOUSE_NO":"４０號","E_COORD97":168896.01000000001,"N_COORD97":2549523.2000000002,"ADDRESS":"北安路三段３９６巷４０號","OBJECTID":359116},"geometry":{"x":168896.00999999978,"y":2549523.1999999993}},{"attributes":{"ID":359127,"DIS_CODE":0,"TOWNNAME":"東區","LI":"大同里","LIN":"19鄰","STREET":"大同路","SECT":"一段","MAREA":" ","LANE":"１７５巷","ALLEY":" ","HOUSE_NO":"３９號","E_COORD97":169283.01000000001,"N_COORD97":2542736.4300000002,"ADDRESS":"大同路一段１７５巷３９號","OBJECTID":359117},"geometry":{"x":169283.01000000071,"y":2542736.4300000016}},{"attributes":{"ID":359128,"DIS_CODE":0,"TOWNNAME":"東區","LI":"大同里","LIN":"19鄰","STREET":"大同路","SECT":"一段","MAREA":" ","LANE":"１７５巷","ALLEY":" ","HOUSE_NO":"４１號","E_COORD97":169278.67000000001,"N_COORD97":2542727.5800000001,"ADDRESS":"大同路一段１７５巷４１號","OBJECTID":359118},"geometry":{"x":169278.67000000086,"y":2542727.5800000001}},{"attributes":{"ID":359129,"DIS_CODE":0,"TOWNNAME":"東區","LI":"大同里","LIN":"19鄰","STREET":"大同路","SECT":"一段","MAREA":" ","LANE":"１７５巷","ALLEY":" ","HOUSE_NO":"４３號","E_COORD97":169284.14000000001,"N_COORD97":2542726.8100000001,"ADDRESS":"大同路一段１７５巷４３號","OBJECTID":359119},"geometry":{"x":169284.1400000006,"y":2542726.8100000005}},{"attributes":{"ID":359130,"DIS_CODE":0,"TOWNNAME":"永康區","LI":"二王里","LIN":"8鄰","STREET":"二王路","SECT":" ","MAREA":" ","LANE":" ","ALLEY":" ","HOUSE_NO":"１２號七樓之３","E_COORD97":172965.44,"N_COORD97":2546841.48,"ADDRESS":"二王路１２號七樓之３","OBJECTID":359120},"geometry":{"x":172965.44000000041,"y":2546841.4800000004}},{"attributes":{"ID":359131,"DIS_CODE":0,"TOWNNAME":"佳里區","LI":"建南里","LIN":"8鄰","STREET":"建南街","SECT":" ","MAREA":" ","LANE":" ","ALLEY":" ","HOUSE_NO":"１６１號二樓","E_COORD97":165684.72,"N_COORD97":2562158.5499999998,"ADDRESS":"建南街１６１號二樓","OBJECTID":359121},"geometry":{"x":165684.72000000067,"y":2562158.5500000007}},{"attributes":{"ID":359132,"DIS_CODE":0,"TOWNNAME":"佳里區","LI":"建南里","LIN":"8鄰","STREET":"建南街","SECT":" ","MAREA":" ","LANE":" ","ALLEY":" ","HOUSE_NO":"１６１號三樓","E_COORD97":165684.72,"N_COORD97":2562158.5499999998,"ADDRESS":"建南街１６１號三樓","OBJECTID":359122},"geometry":{"x":165684.72000000067,"y":2562158.5500000007}},{"attributes":{"ID":359133,"DIS_CODE":0,"TOWNNAME":"佳里區","LI":"建南里","LIN":"8鄰","STREET":"建南街","SECT":" ","MAREA":" ","LANE":" ","ALLEY":" ","HOUSE_NO":"１６１號五樓","E_COORD97":165684.72,"N_COORD97":2562158.5499999998,"ADDRESS":"建南街１６１號五樓","OBJECTID":359123},"geometry":{"x":165684.72000000067,"y":2562158.5500000007}},{"attributes":{"ID":359134,"DIS_CODE":0,"TOWNNAME":"佳里區","LI":"建南里","LIN":"8鄰","STREET":"建南街","SECT":" ","MAREA":" ","LANE":" ","ALLEY":" ","HOUSE_NO":"１６１號四樓","E_COORD97":165684.72,"N_COORD97":2562158.5499999998,"ADDRESS":"建南街１６１號四樓","OBJECTID":359124},"geometry":{"x":165684.72000000067,"y":2562158.5500000007}},{"attributes":{"ID":359135,"DIS_CODE":0,"TOWNNAME":"永康區","LI":"二王里","LIN":"8鄰","STREET":"二王路","SECT":" ","MAREA":" ","LANE":" ","ALLEY":" ","HOUSE_NO":"１２號十三樓之３","E_COORD97":172966.69,"N_COORD97":2546841.48,"ADDRESS":"二王路１２號十三樓之３","OBJECTID":359125},"geometry":{"x":172966.69000000041,"y":2546841.4800000004}},{"attributes":{"ID":359136,"DIS_CODE":0,"TOWNNAME":"永康區","LI":"二王里","LIN":"8鄰","STREET":"二王路","SECT":" ","MAREA":" ","LANE":" ","ALLEY":" ","HOUSE_NO":"１２號十樓之１","E_COORD97":172965.34,"N_COORD97":2546841.48,"ADDRESS":"二王路１２號十樓之１","OBJECTID":359126},"geometry":{"x":172965.33999999985,"y":2546841.4800000004}},{"attributes":{"ID":359137,"DIS_CODE":0,"TOWNNAME":"永康區","LI":"二王里","LIN":"8鄰","STREET":"二王路","SECT":" ","MAREA":" ","LANE":" ","ALLEY":" ","HOUSE_NO":"１２號十樓之２","E_COORD97":172965.47,"N_COORD97":2546841.48,"ADDRESS":"二王路１２號十樓之２","OBJECTID":359127},"geometry":{"x":172965.47000000067,"y":2546841.4800000004}},{"attributes":{"ID":359138,"DIS_CODE":0,"TOWNNAME":"永康區","LI":"尚頂里","LIN":"25鄰","STREET":"南台街","SECT":" ","MAREA":" ","LANE":"１５４巷","ALLEY":" ","HOUSE_NO":"１７號","E_COORD97":170096.76000000001,"N_COORD97":2547103.2599999998,"ADDRESS":"南台街１５４巷１７號","OBJECTID":359128},"geometry":{"x":170096.76000000071,"y":2547103.2599999998}},{"attributes":{"ID":359139,"DIS_CODE":0,"TOWNNAME":"永康區","LI":"西灣里","LIN":"25鄰","STREET":"國光七街","SECT":" ","MAREA":" ","LANE":"６巷","ALLEY":" ","HOUSE_NO":"７號之７","E_COORD97":174357.89999999999,"N_COORD97":2545572.1299999999,"ADDRESS":"國光七街６巷７號之７","OBJECTID":359129},"geometry":{"x":174357.9000000013,"y":2545572.1300000008}},{"attributes":{"ID":359140,"DIS_CODE":0,"TOWNNAME":"東區","LI":"大同里","LIN":"19鄰","STREET":"大同路","SECT":"一段","MAREA":" ","LANE":"１７５巷","ALLEY":" ","HOUSE_NO":"４５號","E_COORD97":169289.23000000001,"N_COORD97":2542725.3100000001,"ADDRESS":"大同路一段１７５巷４５號","OBJECTID":359130},"geometry":{"x":169289.23000000138,"y":2542725.3100000024}},{"attributes":{"ID":359141,"DIS_CODE":0,"TOWNNAME":"東區","LI":"大同里","LIN":"19鄰","STREET":"大同路","SECT":"一段","MAREA":" ","LANE":"１７５巷","ALLEY":" ","HOUSE_NO":"４７號","E_COORD97":169292.82000000001,"N_COORD97":2542722.8599999999,"ADDRESS":"大同路一段１７５巷４７號","OBJECTID":359131},"geometry":{"x":169292.8200000003,"y":2542722.8600000031}},{"attributes":{"ID":359142,"DIS_CODE":0,"TOWNNAME":"東區","LI":"大同里","LIN":"19鄰","STREET":"大同路","SECT":"一段","MAREA":" ","LANE":"１７５巷","ALLEY":" ","HOUSE_NO":"４９號","E_COORD97":169296.01999999999,"N_COORD97":2542721.1699999999,"ADDRESS":"大同路一段１７５巷４９號","OBJECTID":359132},"geometry":{"x":169296.02000000142,"y":2542721.1700000037}},{"attributes":{"ID":359143,"DIS_CODE":0,"TOWNNAME":"東區","LI":"大同里","LIN":"19鄰","STREET":"大同路","SECT":"一段","MAREA":" ","LANE":"１９７巷","ALLEY":" ","HOUSE_NO":"９７號","E_COORD97":169326.66,"N_COORD97":2542719.6899999999,"ADDRESS":"大同路一段１９７巷９７號","OBJECTID":359133},"geometry":{"x":169326.66000000108,"y":2542719.6899999995}},{"attributes":{"ID":359144,"DIS_CODE":0,"TOWNNAME":"東區","LI":"大同里","LIN":"19鄰","STREET":"大同路","SECT":"一段","MAREA":" ","LANE":"１９７巷","ALLEY":" ","HOUSE_NO":"９９號","E_COORD97":169337.75,"N_COORD97":2542731.3599999999,"ADDRESS":"大同路一段１９７巷９９號","OBJECTID":359134},"geometry":{"x":169337.75000000093,"y":2542731.3599999994}},{"attributes":{"ID":359145,"DIS_CODE":0,"TOWNNAME":"麻豆區","LI":"南勢里","LIN":"25鄰","STREET":" ","SECT":" ","MAREA":"南勢","LANE":" ","ALLEY":" ","HOUSE_NO":"８５號之１２","E_COORD97":174736.17000000001,"N_COORD97":2565410.0699999998,"ADDRESS":"南勢８５號之１２","OBJECTID":359135},"geometry":{"x":174736.16999999993,"y":2565410.0700000003}},{"attributes":{"ID":359146,"DIS_CODE":0,"TOWNNAME":"東區","LI":"大同里","LIN":"19鄰","STREET":"府連路","SECT":" ","MAREA":" ","LANE":"１６６巷","ALLEY":" ","HOUSE_NO":"１號","E_COORD97":169214.87,"N_COORD97":2542802.48,"ADDRESS":"府連路１６６巷１號","OBJECTID":359136},"geometry":{"x":169214.87000000104,"y":2542802.4800000023}},{"attributes":{"ID":359147,"DIS_CODE":0,"TOWNNAME":"東區","LI":"崇信里","LIN":"8鄰","STREET":"中華東路","SECT":"三段","MAREA":" ","LANE":" ","ALLEY":" ","HOUSE_NO":"６０號七樓","E_COORD97":170850.25,"N_COORD97":2542259.1099999999,"ADDRESS":"中華東路三段６０號七樓","OBJECTID":359137},"geometry":{"x":170850.25,"y":2542259.1099999994}},{"attributes":{"ID":359148,"DIS_CODE":0,"TOWNNAME":"麻豆區","LI":"南勢里","LIN":"25鄰","STREET":" ","SECT":" ","MAREA":"南勢","LANE":" ","ALLEY":" ","HOUSE_NO":"８５號之１３","E_COORD97":174746.03854800001,"N_COORD97":2565424.3308299999,"ADDRESS":"南勢８５號之１３","OBJECTID":359138},"geometry":{"x":174746.03854800109,"y":2565424.3308329992}},{"attributes":{"ID":359149,"DIS_CODE":0,"TOWNNAME":"東區","LI":"崇信里","LIN":"8鄰","STREET":"中華東路","SECT":"三段","MAREA":" ","LANE":" ","ALLEY":" ","HOUSE_NO":"６０號七樓之１","E_COORD97":170850.25,"N_COORD97":2542259.1099999999,"ADDRESS":"中華東路三段６０號七樓之１","OBJECTID":359139},"geometry":{"x":170850.25,"y":2542259.1099999994}},{"attributes":{"ID":359150,"DIS_CODE":0,"TOWNNAME":"麻豆區","LI":"南勢里","LIN":"25鄰","STREET":" ","SECT":" ","MAREA":"南勢","LANE":" ","ALLEY":" ","HOUSE_NO":"８５號之１４","E_COORD97":174755.76000000001,"N_COORD97":2565415.4300000002,"ADDRESS":"南勢８５號之１４","OBJECTID":359140},"geometry":{"x":174755.75999999978,"y":2565415.4300000016}},{"attributes":{"ID":359151,"DIS_CODE":0,"TOWNNAME":"麻豆區","LI":"南勢里","LIN":"25鄰","STREET":" ","SECT":" ","MAREA":"南勢","LANE":" ","ALLEY":" ","HOUSE_NO":"８６號之８","E_COORD97":175146.59,"N_COORD97":2565407.5499999998,"ADDRESS":"南勢８６號之８","OBJECTID":359141},"geometry":{"x":175146.59000000078,"y":2565407.5499999989}},{"attributes":{"ID":359152,"DIS_CODE":0,"TOWNNAME":"麻豆區","LI":"南勢里","LIN":"25鄰","STREET":" ","SECT":" ","MAREA":"南勢","LANE":" ","ALLEY":" ","HOUSE_NO":"８６號之２","E_COORD97":175553.67000000001,"N_COORD97":2565250,"ADDRESS":"南勢８６號之２","OBJECTID":359142},"geometry":{"x":175553.66999999993,"y":2565250}},{"attributes":{"ID":359153,"DIS_CODE":0,"TOWNNAME":"麻豆區","LI":"南勢里","LIN":"25鄰","STREET":" ","SECT":" ","MAREA":"南勢","LANE":" ","ALLEY":" ","HOUSE_NO":"８６號之３","E_COORD97":174839.04000000001,"N_COORD97":2565287.3500000001,"ADDRESS":"南勢８６號之３","OBJECTID":359143},"geometry":{"x":174839.04000000004,"y":2565287.3500000015}},{"attributes":{"ID":359154,"DIS_CODE":0,"TOWNNAME":"麻豆區","LI":"南勢里","LIN":"25鄰","STREET":" ","SECT":" ","MAREA":"南勢","LANE":" ","ALLEY":" ","HOUSE_NO":"８６號之４","E_COORD97":174892.10000000001,"N_COORD97":2565311.6400000001,"ADDRESS":"南勢８６號之４","OBJECTID":359144},"geometry":{"x":174892.10000000056,"y":2565311.6400000006}},{"attributes":{"ID":359155,"DIS_CODE":0,"TOWNNAME":"麻豆區","LI":"南勢里","LIN":"25鄰","STREET":" ","SECT":" ","MAREA":"南勢","LANE":" ","ALLEY":" ","HOUSE_NO":"８６號之５６","E_COORD97":175300.41,"N_COORD97":2565383.7200000002,"ADDRESS":"南勢８６號之５６","OBJECTID":359145},"geometry":{"x":175300.41000000108,"y":2565383.7200000025}},{"attributes":{"ID":359156,"DIS_CODE":0,"TOWNNAME":"麻豆區","LI":"南勢里","LIN":"25鄰","STREET":" ","SECT":" ","MAREA":"南勢","LANE":" ","ALLEY":" ","HOUSE_NO":"８６號之６０","E_COORD97":175356.85999999999,"N_COORD97":2565380.6400000001,"ADDRESS":"南勢８６號之６０","OBJECTID":359146},"geometry":{"x":175356.86000000127,"y":2565380.6400000025}},{"attributes":{"ID":359157,"DIS_CODE":0,"TOWNNAME":"麻豆區","LI":"南勢里","LIN":"25鄰","STREET":" ","SECT":" ","MAREA":"南勢","LANE":" ","ALLEY":" ","HOUSE_NO":"８６號之６","E_COORD97":175682.70000000001,"N_COORD97":2565433.7000000002,"ADDRESS":"南勢８６號之６","OBJECTID":359147},"geometry":{"x":175682.70000000019,"y":2565433.7000000011}},{"attributes":{"ID":359158,"DIS_CODE":0,"TOWNNAME":"麻豆區","LI":"南勢里","LIN":"25鄰","STREET":" ","SECT":" ","MAREA":"南勢","LANE":" ","ALLEY":" ","HOUSE_NO":"８６號之９","E_COORD97":175609.75,"N_COORD97":2565265.04,"ADDRESS":"南勢８６號之９","OBJECTID":359148},"geometry":{"x":175609.75000000093,"y":2565265.040000001}},{"attributes":{"ID":359159,"DIS_CODE":0,"TOWNNAME":"麻豆區","LI":"南勢里","LIN":"25鄰","STREET":" ","SECT":" ","MAREA":"南勢","LANE":" ","ALLEY":" ","HOUSE_NO":"８６號","E_COORD97":174867.37,"N_COORD97":2565239.9300000002,"ADDRESS":"南勢８６號","OBJECTID":359149},"geometry":{"x":174867.37000000011,"y":2565239.9299999997}},{"attributes":{"ID":359160,"DIS_CODE":0,"TOWNNAME":"麻豆區","LI":"南勢里","LIN":"25鄰","STREET":" ","SECT":" ","MAREA":"南勢","LANE":" ","ALLEY":" ","HOUSE_NO":"８７號之１０","E_COORD97":175426.64000000001,"N_COORD97":2565455.4700000002,"ADDRESS":"南勢８７號之１０","OBJECTID":359150},"geometry":{"x":175426.63999999873,"y":2565455.4699999988}},{"attributes":{"ID":359161,"DIS_CODE":0,"TOWNNAME":"麻豆區","LI":"南勢里","LIN":"25鄰","STREET":" ","SECT":" ","MAREA":"南勢","LANE":" ","ALLEY":" ","HOUSE_NO":"８７號之１１","E_COORD97":175400.54000000001,"N_COORD97":2566076.0299999998,"ADDRESS":"南勢８７號之１１","OBJECTID":359151},"geometry":{"x":175400.53999999911,"y":2566076.0300000012}},{"attributes":{"ID":359162,"DIS_CODE":0,"TOWNNAME":"麻豆區","LI":"南勢里","LIN":"25鄰","STREET":" ","SECT":" ","MAREA":"南勢","LANE":" ","ALLEY":" ","HOUSE_NO":"８７號之１２","E_COORD97":175431.51999999999,"N_COORD97":2565502.6899999999,"ADDRESS":"南勢８７號之１２","OBJECTID":359152},"geometry":{"x":175431.52000000048,"y":2565502.6899999995}},{"attributes":{"ID":359163,"DIS_CODE":0,"TOWNNAME":"麻豆區","LI":"南勢里","LIN":"25鄰","STREET":" ","SECT":" ","MAREA":"南勢","LANE":" ","ALLEY":" ","HOUSE_NO":"８７號之１３","E_COORD97":175386.09,"N_COORD97":2566150.5899999999,"ADDRESS":"南勢８７號之１３","OBJECTID":359153},"geometry":{"x":175386.08999999985,"y":2566150.5900000017}},{"attributes":{"ID":359164,"DIS_CODE":0,"TOWNNAME":"東區","LI":"忠孝里","LIN":"25鄰","STREET":"崇明三街","SECT":" ","MAREA":" ","LANE":"３８巷","ALLEY":" ","HOUSE_NO":"５號","E_COORD97":169640.89000000001,"N_COORD97":2542324.79,"ADDRESS":"崇明三街３８巷５號","OBJECTID":359154},"geometry":{"x":169640.88999999966,"y":2542324.7899999991}},{"attributes":{"ID":359165,"DIS_CODE":0,"TOWNNAME":"永康區","LI":"\u25A0洲里","LIN":"25鄰","STREET":"國聖街","SECT":" ","MAREA":" ","LANE":"１６７巷","ALLEY":" ","HOUSE_NO":"２３號","E_COORD97":170587.89999999999,"N_COORD97":2548295.75,"ADDRESS":"國聖街１６７巷２３號","OBJECTID":359155},"geometry":{"x":170587.9000000013,"y":2548295.7500000019}},{"attributes":{"ID":359166,"DIS_CODE":0,"TOWNNAME":"歸仁區","LI":"崙頂里","LIN":"24鄰","STREET":"崙頂二街","SECT":" ","MAREA":" ","LANE":"１７巷","ALLEY":" ","HOUSE_NO":"１４號","E_COORD97":177789.57999999999,"N_COORD97":2539941.25,"ADDRESS":"崙頂二街１７巷１４號","OBJECTID":359156},"geometry":{"x":177789.58000000101,"y":2539941.2500000019}},{"attributes":{"ID":359167,"DIS_CODE":0,"TOWNNAME":"東區","LI":"崇信里","LIN":"8鄰","STREET":"中華東路","SECT":"三段","MAREA":" ","LANE":" ","ALLEY":" ","HOUSE_NO":"６０號九樓","E_COORD97":170850.25,"N_COORD97":2542259.1099999999,"ADDRESS":"中華東路三段６０號九樓","OBJECTID":359157},"geometry":{"x":170850.25,"y":2542259.1099999994}},{"attributes":{"ID":359168,"DIS_CODE":0,"TOWNNAME":"東區","LI":"崇信里","LIN":"8鄰","STREET":"中華東路","SECT":"三段","MAREA":" ","LANE":" ","ALLEY":" ","HOUSE_NO":"６０號九樓之１","E_COORD97":170850.25,"N_COORD97":2542259.1099999999,"ADDRESS":"中華東路三段６０號九樓之１","OBJECTID":359158},"geometry":{"x":170850.25,"y":2542259.1099999994}},{"attributes":{"ID":359169,"DIS_CODE":0,"TOWNNAME":"東區","LI":"忠孝里","LIN":"25鄰","STREET":"崇明路","SECT":" ","MAREA":" ","LANE":" ","ALLEY":" ","HOUSE_NO":"７２號","E_COORD97":169695.29999999999,"N_COORD97":2542342.0499999998,"ADDRESS":"崇明路７２號","OBJECTID":359159},"geometry":{"x":169695.29999999981,"y":2542342.0500000007}},{"attributes":{"ID":359170,"DIS_CODE":0,"TOWNNAME":"東區","LI":"莊敬里","LIN":"25鄰","STREET":"東光路","SECT":"二段","MAREA":" ","LANE":"１４巷","ALLEY":" ","HOUSE_NO":"２號","E_COORD97":171232.73999999999,"N_COORD97":2543994.4100000001,"ADDRESS":"東光路二段１４巷２號","OBJECTID":359160},"geometry":{"x":171232.74000000209,"y":2543994.4100000039}},{"attributes":{"ID":359171,"DIS_CODE":0,"TOWNNAME":"東區","LI":"後甲里","LIN":"25鄰","STREET":"中華東路","SECT":"一段","MAREA":" ","LANE":"２０７巷","ALLEY":" ","HOUSE_NO":"１號","E_COORD97":171479.57000000001,"N_COORD97":2543403.8999999999,"ADDRESS":"中華東路一段２０７巷１號","OBJECTID":359161},"geometry":{"x":171479.5700000003,"y":2543403.9000000004}},{"attributes":{"ID":359172,"DIS_CODE":0,"TOWNNAME":"東區","LI":"後甲里","LIN":"25鄰","STREET":"中華東路","SECT":"一段","MAREA":" ","LANE":"２０７巷","ALLEY":" ","HOUSE_NO":"３號","E_COORD97":171482.95000000001,"N_COORD97":2543407.5099999998,"ADDRESS":"中華東路一段２０７巷３號","OBJECTID":359162},"geometry":{"x":171482.95000000112,"y":2543407.5100000016}},{"attributes":{"ID":359173,"DIS_CODE":0,"TOWNNAME":"東區","LI":"後甲里","LIN":"25鄰","STREET":"中華東路","SECT":"一段","MAREA":" ","LANE":"２０７巷","ALLEY":" ","HOUSE_NO":"１９號","E_COORD97":171514.54999999999,"N_COORD97":2543416.4300000002,"ADDRESS":"中華東路一段２０７巷１９號","OBJECTID":359163},"geometry":{"x":171514.54999999981,"y":2543416.4299999997}},{"attributes":{"ID":359174,"DIS_CODE":0,"TOWNNAME":"東區","LI":"後甲里","LIN":"25鄰","STREET":"中華東路","SECT":"一段","MAREA":" ","LANE":"２０７巷","ALLEY":" ","HOUSE_NO":"１１號","E_COORD97":171499.35000000001,"N_COORD97":2543412.3300000001,"ADDRESS":"中華東路一段２０７巷１１號","OBJECTID":359164},"geometry":{"x":171499.35000000056,"y":2543412.3300000019}},{"attributes":{"ID":359175,"DIS_CODE":0,"TOWNNAME":"東區","LI":"後甲里","LIN":"25鄰","STREET":"中華東路","SECT":"一段","MAREA":" ","LANE":"２０７巷","ALLEY":" ","HOUSE_NO":"１３號","E_COORD97":171503.20999999999,"N_COORD97":2543412.5699999998,"ADDRESS":"中華東路一段２０７巷１３號","OBJECTID":359165},"geometry":{"x":171503.20999999996,"y":2543412.5700000003}},{"attributes":{"ID":359176,"DIS_CODE":0,"TOWNNAME":"東區","LI":"後甲里","LIN":"25鄰","STREET":"中華東路","SECT":"一段","MAREA":" ","LANE":"２０７巷","ALLEY":" ","HOUSE_NO":"１５號","E_COORD97":171506.82999999999,"N_COORD97":2543413.2999999998,"ADDRESS":"中華東路一段２０７巷１５號","OBJECTID":359166},"geometry":{"x":171506.83000000101,"y":2543413.3000000026}},{"attributes":{"ID":359177,"DIS_CODE":0,"TOWNNAME":"東區","LI":"後甲里","LIN":"25鄰","STREET":"中華東路","SECT":"一段","MAREA":" ","LANE":"２０７巷","ALLEY":" ","HOUSE_NO":"２１號","E_COORD97":171518.64999999999,"N_COORD97":2543415.9500000002,"ADDRESS":"中華東路一段２０７巷２１號","OBJECTID":359167},"geometry":{"x":171518.6500000013,"y":2543415.9499999993}},{"attributes":{"ID":359178,"DIS_CODE":0,"TOWNNAME":"東區","LI":"後甲里","LIN":"25鄰","STREET":"中華東路","SECT":"一段","MAREA":" ","LANE":"２０７巷","ALLEY":" ","HOUSE_NO":"２３號","E_COORD97":171522.98999999999,"N_COORD97":2543415.4700000002,"ADDRESS":"中華東路一段２０７巷２３號","OBJECTID":359168},"geometry":{"x":171522.99000000115,"y":2543415.4700000025}},{"attributes":{"ID":359179,"DIS_CODE":0,"TOWNNAME":"東區","LI":"後甲里","LIN":"25鄰","STREET":"中華東路","SECT":"一段","MAREA":" ","LANE":"２０７巷","ALLEY":" ","HOUSE_NO":"２５號","E_COORD97":171526.37,"N_COORD97":2543417.8700000001,"ADDRESS":"中華東路一段２０７巷２５號","OBJECTID":359169},"geometry":{"x":171526.37000000011,"y":2543417.870000001}},{"attributes":{"ID":359180,"DIS_CODE":0,"TOWNNAME":"東區","LI":"後甲里","LIN":"25鄰","STREET":"中華東路","SECT":"一段","MAREA":" ","LANE":"２０７巷","ALLEY":" ","HOUSE_NO":"２７號","E_COORD97":171530.23000000001,"N_COORD97":2543418.8399999999,"ADDRESS":"中華東路一段２０７巷２７號","OBJECTID":359170},"geometry":{"x":171530.23000000138,"y":2543418.8400000017}},{"attributes":{"ID":359181,"DIS_CODE":0,"TOWNNAME":"東區","LI":"後甲里","LIN":"25鄰","STREET":"中華東路","SECT":"一段","MAREA":" ","LANE":"２０７巷","ALLEY":" ","HOUSE_NO":"２９號","E_COORD97":171534.09,"N_COORD97":2543419.0800000001,"ADDRESS":"中華東路一段２０７巷２９號","OBJECTID":359171},"geometry":{"x":171534.09000000078,"y":2543419.0800000001}},{"attributes":{"ID":359182,"DIS_CODE":0,"TOWNNAME":"東區","LI":"後甲里","LIN":"25鄰","STREET":"中華東路","SECT":"一段","MAREA":" ","LANE":"２０７巷","ALLEY":" ","HOUSE_NO":"３１號","E_COORD97":171539.88,"N_COORD97":2543418.6000000001,"ADDRESS":"中華東路一段２０７巷３１號","OBJECTID":359172},"geometry":{"x":171539.87999999896,"y":2543418.5999999996}},{"attributes":{"ID":359183,"DIS_CODE":0,"TOWNNAME":"東區","LI":"大同里","LIN":"19鄰","STREET":"府連路","SECT":" ","MAREA":" ","LANE":"１６６巷","ALLEY":" ","HOUSE_NO":"２４號","E_COORD97":169229.59,"N_COORD97":2542762.4500000002,"ADDRESS":"府連路１６６巷２４號","OBJECTID":359173},"geometry":{"x":169229.59000000171,"y":2542762.450000003}},{"attributes":{"ID":359184,"DIS_CODE":0,"TOWNNAME":"東區","LI":"崇信里","LIN":"8鄰","STREET":"中華東路","SECT":"三段","MAREA":" ","LANE":" ","ALLEY":" ","HOUSE_NO":"６０號八樓","E_COORD97":170850.25,"N_COORD97":2542259.1099999999,"ADDRESS":"中華東路三段６０號八樓","OBJECTID":359174},"geometry":{"x":170850.25,"y":2542259.1099999994}},{"attributes":{"ID":359185,"DIS_CODE":0,"TOWNNAME":"東區","LI":"崇信里","LIN":"8鄰","STREET":"中華東路","SECT":"三段","MAREA":" ","LANE":" ","ALLEY":" ","HOUSE_NO":"６０號八樓之１","E_COORD97":170850.25,"N_COORD97":2542259.1099999999,"ADDRESS":"中華東路三段６０號八樓之１","OBJECTID":359175},"geometry":{"x":170850.25,"y":2542259.1099999994}},{"attributes":{"ID":359186,"DIS_CODE":0,"TOWNNAME":"東區","LI":"崇信里","LIN":"8鄰","STREET":"中華東路","SECT":"三段","MAREA":" ","LANE":" ","ALLEY":" ","HOUSE_NO":"６０號十一樓","E_COORD97":170850.25,"N_COORD97":2542259.1099999999,"ADDRESS":"中華東路三段６０號十一樓","OBJECTID":359176},"geometry":{"x":170850.25,"y":2542259.1099999994}},{"attributes":{"ID":359187,"DIS_CODE":0,"TOWNNAME":"東區","LI":"崇信里","LIN":"8鄰","STREET":"中華東路","SECT":"三段","MAREA":" ","LANE":" ","ALLEY":" ","HOUSE_NO":"６０號十一樓之１","E_COORD97":170850.25,"N_COORD97":2542259.1099999999,"ADDRESS":"中華東路三段６０號十一樓之１","OBJECTID":359177},"geometry":{"x":170850.25,"y":2542259.1099999994}},{"attributes":{"ID":359188,"DIS_CODE":0,"TOWNNAME":"東區","LI":"崇信里","LIN":"8鄰","STREET":"中華東路","SECT":"三段","MAREA":" ","LANE":" ","ALLEY":" ","HOUSE_NO":"６０號十七樓","E_COORD97":170850.25,"N_COORD97":2542259.1099999999,"ADDRESS":"中華東路三段６０號十七樓","OBJECTID":359178},"geometry":{"x":170850.25,"y":2542259.1099999994}},{"attributes":{"ID":359189,"DIS_CODE":0,"TOWNNAME":"下營區","LI":"仁里里","LIN":"8鄰","STREET":"公園路","SECT":" ","MAREA":" ","LANE":" ","ALLEY":" ","HOUSE_NO":"１９０號","E_COORD97":173996.54000000001,"N_COORD97":2570288.4700000002,"ADDRESS":"公園路１９０號","OBJECTID":359179},"geometry":{"x":173996.54000000004,"y":2570288.4700000025}},{"attributes":{"ID":359190,"DIS_CODE":0,"TOWNNAME":"東區","LI":"崇信里","LIN":"8鄰","STREET":"中華東路","SECT":"三段","MAREA":" ","LANE":" ","ALLEY":" ","HOUSE_NO":"６０號十七樓之１","E_COORD97":170850.25,"N_COORD97":2542259.1099999999,"ADDRESS":"中華東路三段６０號十七樓之１","OBJECTID":359180},"geometry":{"x":170850.25,"y":2542259.1099999994}},{"attributes":{"ID":359191,"DIS_CODE":0,"TOWNNAME":"東區","LI":"崇信里","LIN":"8鄰","STREET":"中華東路","SECT":"三段","MAREA":" ","LANE":" ","ALLEY":" ","HOUSE_NO":"６０號十二樓","E_COORD97":170850.25,"N_COORD97":2542259.1099999999,"ADDRESS":"中華東路三段６０號十二樓","OBJECTID":359181},"geometry":{"x":170850.25,"y":2542259.1099999994}},{"attributes":{"ID":359192,"DIS_CODE":0,"TOWNNAME":"東區","LI":"崇信里","LIN":"8鄰","STREET":"中華東路","SECT":"三段","MAREA":" ","LANE":" ","ALLEY":" ","HOUSE_NO":"６０號十二樓之１","E_COORD97":170850.25,"N_COORD97":2542259.1099999999,"ADDRESS":"中華東路三段６０號十二樓之１","OBJECTID":359182},"geometry":{"x":170850.25,"y":2542259.1099999994}},{"attributes":{"ID":359193,"DIS_CODE":0,"TOWNNAME":"東區","LI":"崇信里","LIN":"8鄰","STREET":"中華東路","SECT":"三段","MAREA":" ","LANE":" ","ALLEY":" ","HOUSE_NO":"６０號十三樓","E_COORD97":170850.25,"N_COORD97":2542259.1099999999,"ADDRESS":"中華東路三段６０號十三樓","OBJECTID":359183},"geometry":{"x":170850.25,"y":2542259.1099999994}},{"attributes":{"ID":359194,"DIS_CODE":0,"TOWNNAME":"東區","LI":"崇信里","LIN":"8鄰","STREET":"中華東路","SECT":"三段","MAREA":" ","LANE":" ","ALLEY":" ","HOUSE_NO":"６０號十三樓之１","E_COORD97":170850.25,"N_COORD97":2542259.1099999999,"ADDRESS":"中華東路三段６０號十三樓之１","OBJECTID":359184},"geometry":{"x":170850.25,"y":2542259.1099999994}},{"attributes":{"ID":359195,"DIS_CODE":0,"TOWNNAME":"東區","LI":"崇信里","LIN":"8鄰","STREET":"中華東路","SECT":"三段","MAREA":" ","LANE":" ","ALLEY":" ","HOUSE_NO":"６０號十五樓","E_COORD97":170850.25,"N_COORD97":2542259.1099999999,"ADDRESS":"中華東路三段６０號十五樓","OBJECTID":359185},"geometry":{"x":170850.25,"y":2542259.1099999994}},{"attributes":{"ID":359196,"DIS_CODE":0,"TOWNNAME":"安南區","LI":"安東里","LIN":"8鄰","STREET":"安和路","SECT":"一段","MAREA":" ","LANE":" ","ALLEY":" ","HOUSE_NO":"２５２號","E_COORD97":169322.31,"N_COORD97":2547983.21,"ADDRESS":"安和路一段２５２號","OBJECTID":359186},"geometry":{"x":169322.30999999959,"y":2547983.2100000009}},{"attributes":{"ID":359197,"DIS_CODE":0,"TOWNNAME":"仁德區","LI":"仁愛里","LIN":"25鄰","STREET":"大同路","SECT":"三段","MAREA":" ","LANE":" ","ALLEY":" ","HOUSE_NO":"１３之１號","E_COORD97":169754.09793799999,"N_COORD97":2540086.81904,"ADDRESS":"大同路三段１３之１號","OBJECTID":359187},"geometry":{"x":169754.09793800022,"y":2540086.8190390039}},{"attributes":{"ID":359198,"DIS_CODE":0,"TOWNNAME":"仁德區","LI":"仁愛里","LIN":"25鄰","STREET":"大同路","SECT":"三段","MAREA":" ","LANE":" ","ALLEY":" ","HOUSE_NO":"１３號","E_COORD97":169732.05710899999,"N_COORD97":2540084.49071,"ADDRESS":"大同路三段１３號","OBJECTID":359188},"geometry":{"x":169732.05710900109,"y":2540084.4907070007}},{"attributes":{"ID":359199,"DIS_CODE":0,"TOWNNAME":"仁德區","LI":"仁愛里","LIN":"25鄰","STREET":"大同路","SECT":"三段","MAREA":" ","LANE":" ","ALLEY":" ","HOUSE_NO":"１１號","E_COORD97":169732.05710899999,"N_COORD97":2540088.9357099999,"ADDRESS":"大同路三段１１號","OBJECTID":359189},"geometry":{"x":169732.05710900109,"y":2540088.9357050005}},{"attributes":{"ID":359200,"DIS_CODE":0,"TOWNNAME":"仁德區","LI":"仁愛里","LIN":"25鄰","STREET":"大同路","SECT":"三段","MAREA":" ","LANE":" ","ALLEY":" ","HOUSE_NO":"１５號","E_COORD97":169753.250214,"N_COORD97":2540080.9982099999,"ADDRESS":"大同路三段１５號","OBJECTID":359190},"geometry":{"x":169753.2502139993,"y":2540080.9982089996}},{"attributes":{"ID":359201,"DIS_CODE":0,"TOWNNAME":"仁德區","LI":"仁愛里","LIN":"25鄰","STREET":"大同路","SECT":"三段","MAREA":" ","LANE":" ","ALLEY":" ","HOUSE_NO":"３５號","E_COORD97":169735.44800599999,"N_COORD97":2540049.9890600001,"ADDRESS":"大同路三段３５號","OBJECTID":359191},"geometry":{"x":169735.44800600037,"y":2540049.9890590012}},{"attributes":{"ID":359202,"DIS_CODE":0,"TOWNNAME":"仁德區","LI":"仁愛里","LIN":"25鄰","STREET":"大同路","SECT":"三段","MAREA":" ","LANE":" ","ALLEY":" ","HOUSE_NO":"１７號","E_COORD97":169731.84517799999,"N_COORD97":2540076.6590499999,"ADDRESS":"大同路三段１７號","OBJECTID":359192},"geometry":{"x":169731.8451779997,"y":2540076.6590449996}},{"attributes":{"ID":359203,"DIS_CODE":0,"TOWNNAME":"仁德區","LI":"仁愛里","LIN":"25鄰","STREET":"保仁路","SECT":" ","MAREA":" ","LANE":" ","ALLEY":" ","HOUSE_NO":"２９７號","E_COORD97":169815.32292999999,"N_COORD97":2540060.1047499999,"ADDRESS":"保仁路２９７號","OBJECTID":359193},"geometry":{"x":169815.32293000072,"y":2540060.1047500018}},{"attributes":{"ID":359204,"DIS_CODE":0,"TOWNNAME":"仁德區","LI":"仁愛里","LIN":"25鄰","STREET":"大同路","SECT":"三段","MAREA":" ","LANE":" ","ALLEY":" ","HOUSE_NO":"５７號","E_COORD97":169741.011271,"N_COORD97":2540002.2847899999,"ADDRESS":"大同路三段５７號","OBJECTID":359194},"geometry":{"x":169741.01127100177,"y":2540002.2847850025}},{"attributes":{"ID":359205,"DIS_CODE":0,"TOWNNAME":"仁德區","LI":"仁愛里","LIN":"25鄰","STREET":"大同路","SECT":"三段","MAREA":" ","LANE":" ","ALLEY":" ","HOUSE_NO":"４９號","E_COORD97":169738.89196000001,"N_COORD97":2540015.8489399999,"ADDRESS":"大同路三段４９號","OBJECTID":359195},"geometry":{"x":169738.89196000062,"y":2540015.8489400037}},{"attributes":{"ID":359206,"DIS_CODE":0,"TOWNNAME":"仁德區","LI":"仁愛里","LIN":"25鄰","STREET":"大同路","SECT":"三段","MAREA":" ","LANE":" ","ALLEY":" ","HOUSE_NO":"６９號","E_COORD97":169742.91865100001,"N_COORD97":2539978.8956300002,"ADDRESS":"大同路三段６９號","OBJECTID":359196},"geometry":{"x":169742.9186510006,"y":2539978.8956310023}},{"attributes":{"ID":359207,"DIS_CODE":0,"TOWNNAME":"仁德區","LI":"仁愛里","LIN":"25鄰","STREET":"大同路","SECT":"三段","MAREA":" ","LANE":" ","ALLEY":" ","HOUSE_NO":"７７號","E_COORD97":169744.402168,"N_COORD97":2539964.6081400001,"ADDRESS":"大同路三段７７號","OBJECTID":359197},"geometry":{"x":169744.40216800105,"y":2539964.6081390027}},{"attributes":{"ID":359208,"DIS_CODE":0,"TOWNNAME":"仁德區","LI":"仁愛里","LIN":"25鄰","STREET":"大同路","SECT":"三段","MAREA":" ","LANE":" ","ALLEY":" ","HOUSE_NO":"７９號","E_COORD97":169745.03796099999,"N_COORD97":2539958.1523099998,"ADDRESS":"大同路三段７９號","OBJECTID":359198},"geometry":{"x":169745.03796099965,"y":2539958.1523090024}},{"attributes":{"ID":359209,"DIS_CODE":0,"TOWNNAME":"仁德區","LI":"仁愛里","LIN":"25鄰","STREET":"大同路","SECT":"三段","MAREA":" ","LANE":" ","ALLEY":" ","HOUSE_NO":"８５號","E_COORD97":169746.30954700001,"N_COORD97":2539948.9448099998,"ADDRESS":"大同路三段８５號","OBJECTID":359199},"geometry":{"x":169746.30954700056,"y":2539948.9448140021}},{"attributes":{"ID":359210,"DIS_CODE":0,"TOWNNAME":"仁德區","LI":"仁愛里","LIN":"25鄰","STREET":"大同路","SECT":"三段","MAREA":" ","LANE":" ","ALLEY":" ","HOUSE_NO":"９７號","E_COORD97":169747.79306500001,"N_COORD97":2539930.42399,"ADDRESS":"大同路三段９７號","OBJECTID":359200},"geometry":{"x":169747.79306499939,"y":2539930.4239909984}}]}