{"displayFieldName":"TOWNNAME","fieldAliases":{"ID":"ID","DIS_CODE":"DIS_CODE","TOWNNAME":"TOWNNAME","LI":"LI","LIN":"LIN","STREET":"STREET","SECT":"SECT","MAREA":"MAREA","LANE":"LANE","ALLEY":"ALLEY","HOUSE_NO":"HOUSE_NO","E_COORD97":"E_COORD97","N_COORD97":"N_COORD97","ADDRESS":"ADDRESS","OBJECTID":"OBJECTID"},"geometryType":"esriGeometryPoint","spatialReference":{"wkid":102443,"latestWkid":3826},"fields":[{"name":"ID","type":"esriFieldTypeDouble","alias":"ID"},{"name":"DIS_CODE","type":"esriFieldTypeInteger","alias":"DIS_CODE"},{"name":"TOWNNAME","type":"esriFieldTypeString","alias":"TOWNNAME","length":8},{"name":"LI","type":"esriFieldTypeString","alias":"LI","length":8},{"name":"LIN","type":"esriFieldTypeString","alias":"LIN","length":12},{"name":"STREET","type":"esriFieldTypeString","alias":"STREET","length":20},{"name":"SECT","type":"esriFieldTypeString","alias":"SECT","length":8},{"name":"MAREA","type":"esriFieldTypeString","alias":"MAREA","length":12},{"name":"LANE","type":"esriFieldTypeString","alias":"LANE","length":10},{"name":"ALLEY","type":"esriFieldTypeString","alias":"ALLEY","length":10},{"name":"HOUSE_NO","type":"esriFieldTypeString","alias":"HOUSE_NO","length":20},{"name":"E_COORD97","type":"esriFieldTypeDouble","alias":"E_COORD97"},{"name":"N_COORD97","type":"esriFieldTypeDouble","alias":"N_COORD97"},{"name":"ADDRESS","type":"esriFieldTypeString","alias":"ADDRESS","length":50},{"name":"OBJECTID","type":"esriFieldTypeOID","alias":"OBJECTID"}],"features":[{"attributes":{"ID":370211,"DIS_CODE":0,"TOWNNAME":"北區","LI":"成德里","LIN":"12鄰","STREET":"育德二路","SECT":" ","MAREA":" ","LANE":"５１巷","ALLEY":" ","HOUSE_NO":"８號","E_COORD97":168212.29000000001,"N_COORD97":2545377.6099999999,"ADDRESS":"育德二路５１巷８號","OBJECTID":370201},"geometry":{"x":168212.29000000004,"y":2545377.6099999994}},{"attributes":{"ID":370212,"DIS_CODE":0,"TOWNNAME":"北區","LI":"力行里","LIN":"12鄰","STREET":"開南街","SECT":" ","MAREA":" ","LANE":"２７５巷","ALLEY":" ","HOUSE_NO":"５１號","E_COORD97":170985.44,"N_COORD97":2545207.4300000002,"ADDRESS":"開南街２７５巷５１號","OBJECTID":370202},"geometry":{"x":170985.44000000041,"y":2545207.4299999978}},{"attributes":{"ID":370213,"DIS_CODE":0,"TOWNNAME":"北區","LI":"力行里","LIN":"12鄰","STREET":"開南街","SECT":" ","MAREA":" ","LANE":"２７５巷","ALLEY":" ","HOUSE_NO":"５３號","E_COORD97":170985.59,"N_COORD97":2545216.1800000002,"ADDRESS":"開南街２７５巷５３號","OBJECTID":370203},"geometry":{"x":170985.58999999985,"y":2545216.1800000034}},{"attributes":{"ID":370214,"DIS_CODE":0,"TOWNNAME":"北區","LI":"力行里","LIN":"12鄰","STREET":"開南街","SECT":" ","MAREA":" ","LANE":"２７５巷","ALLEY":" ","HOUSE_NO":"５５號","E_COORD97":170985.73999999999,"N_COORD97":2545222.7000000002,"ADDRESS":"開南街２７５巷５５號","OBJECTID":370204},"geometry":{"x":170985.74000000115,"y":2545222.7000000011}},{"attributes":{"ID":370215,"DIS_CODE":0,"TOWNNAME":"北區","LI":"力行里","LIN":"12鄰","STREET":"開南街","SECT":" ","MAREA":" ","LANE":"２７５巷","ALLEY":" ","HOUSE_NO":"５７號","E_COORD97":170986.17999999999,"N_COORD97":2545229.2200000002,"ADDRESS":"開南街２７５巷５７號","OBJECTID":370205},"geometry":{"x":170986.1799999997,"y":2545229.2200000007}},{"attributes":{"ID":370216,"DIS_CODE":0,"TOWNNAME":"北區","LI":"力行里","LIN":"12鄰","STREET":"開南街","SECT":" ","MAREA":" ","LANE":"２７５巷","ALLEY":" ","HOUSE_NO":"５９號","E_COORD97":170986.78,"N_COORD97":2545235.1499999999,"ADDRESS":"開南街２７５巷５９號","OBJECTID":370206},"geometry":{"x":170986.78000000212,"y":2545235.1500000022}},{"attributes":{"ID":370217,"DIS_CODE":0,"TOWNNAME":"北區","LI":"力行里","LIN":"12鄰","STREET":"開南街","SECT":" ","MAREA":" ","LANE":"２７５巷","ALLEY":" ","HOUSE_NO":"６１號","E_COORD97":170987.51999999999,"N_COORD97":2545241.0800000001,"ADDRESS":"開南街２７５巷６１號","OBJECTID":370207},"geometry":{"x":170987.51999999955,"y":2545241.0800000038}},{"attributes":{"ID":370218,"DIS_CODE":0,"TOWNNAME":"北區","LI":"力行里","LIN":"12鄰","STREET":"開南街","SECT":" ","MAREA":" ","LANE":"２７５巷","ALLEY":" ","HOUSE_NO":"６３號","E_COORD97":170987.97,"N_COORD97":2545246.4500000002,"ADDRESS":"開南街２７５巷６３號","OBJECTID":370208},"geometry":{"x":170987.96999999974,"y":2545246.4499999993}},{"attributes":{"ID":370219,"DIS_CODE":0,"TOWNNAME":"北區","LI":"力行里","LIN":"12鄰","STREET":"開南街","SECT":" ","MAREA":" ","LANE":"２７５巷","ALLEY":" ","HOUSE_NO":"６５號","E_COORD97":170988.26000000001,"N_COORD97":2545253.8700000001,"ADDRESS":"開南街２７５巷６５號","OBJECTID":370209},"geometry":{"x":170988.26000000071,"y":2545253.8700000029}},{"attributes":{"ID":370220,"DIS_CODE":0,"TOWNNAME":"北區","LI":"力行里","LIN":"12鄰","STREET":"開南街","SECT":" ","MAREA":" ","LANE":"２７５巷","ALLEY":" ","HOUSE_NO":"６７號","E_COORD97":170988.56,"N_COORD97":2545258.02,"ADDRESS":"開南街２７５巷６７號","OBJECTID":370210},"geometry":{"x":170988.55999999959,"y":2545258.0200000014}},{"attributes":{"ID":370221,"DIS_CODE":0,"TOWNNAME":"北區","LI":"力行里","LIN":"12鄰","STREET":"開南街","SECT":" ","MAREA":" ","LANE":"２７５巷","ALLEY":" ","HOUSE_NO":"６９號","E_COORD97":170989.16,"N_COORD97":2545263.5699999998,"ADDRESS":"開南街２７５巷６９號","OBJECTID":370211},"geometry":{"x":170989.16000000201,"y":2545263.5700000003}},{"attributes":{"ID":370222,"DIS_CODE":0,"TOWNNAME":"北區","LI":"力行里","LIN":"12鄰","STREET":"開南街","SECT":" ","MAREA":" ","LANE":"２７５巷","ALLEY":" ","HOUSE_NO":"７１號","E_COORD97":170990.64000000001,"N_COORD97":2545268.3100000001,"ADDRESS":"開南街２７５巷７１號","OBJECTID":370212},"geometry":{"x":170990.6400000006,"y":2545268.3100000024}},{"attributes":{"ID":370223,"DIS_CODE":0,"TOWNNAME":"北區","LI":"力行里","LIN":"12鄰","STREET":"開南街","SECT":" ","MAREA":" ","LANE":"２７５巷","ALLEY":" ","HOUSE_NO":"７３號","E_COORD97":170990.79000000001,"N_COORD97":2545272.46,"ADDRESS":"開南街２７５巷７３號","OBJECTID":370213},"geometry":{"x":170990.79000000004,"y":2545272.4600000009}},{"attributes":{"ID":370224,"DIS_CODE":0,"TOWNNAME":"北區","LI":"力行里","LIN":"12鄰","STREET":"開南街","SECT":" ","MAREA":" ","LANE":"２７５巷","ALLEY":" ","HOUSE_NO":"７５號","E_COORD97":170991.09,"N_COORD97":2545277.3500000001,"ADDRESS":"開南街２７５巷７５號","OBJECTID":370214},"geometry":{"x":170991.09000000078,"y":2545277.3500000015}},{"attributes":{"ID":370225,"DIS_CODE":0,"TOWNNAME":"北區","LI":"力行里","LIN":"12鄰","STREET":"開南街","SECT":" ","MAREA":" ","LANE":"２７５巷","ALLEY":" ","HOUSE_NO":"７７號","E_COORD97":170991.53,"N_COORD97":2545280.6099999999,"ADDRESS":"開南街２７５巷７７號","OBJECTID":370215},"geometry":{"x":170991.53000000026,"y":2545280.6100000031}},{"attributes":{"ID":370226,"DIS_CODE":0,"TOWNNAME":"北區","LI":"力行里","LIN":"12鄰","STREET":"開南街","SECT":" ","MAREA":" ","LANE":"２７５巷","ALLEY":" ","HOUSE_NO":"７９號","E_COORD97":170990.48999999999,"N_COORD97":2545288.8500000001,"ADDRESS":"開南街２７５巷７９號","OBJECTID":370216},"geometry":{"x":170990.49000000115,"y":2545288.8499999996}},{"attributes":{"ID":370227,"DIS_CODE":0,"TOWNNAME":"北區","LI":"力行里","LIN":"12鄰","STREET":"開南街","SECT":" ","MAREA":" ","LANE":"２７５巷","ALLEY":" ","HOUSE_NO":"８１號","E_COORD97":170991.98000000001,"N_COORD97":2545293.4500000002,"ADDRESS":"開南街２７５巷８１號","OBJECTID":370217},"geometry":{"x":170991.98000000045,"y":2545293.4500000011}},{"attributes":{"ID":370228,"DIS_CODE":0,"TOWNNAME":"北區","LI":"力行里","LIN":"12鄰","STREET":"開南街","SECT":" ","MAREA":" ","LANE":"２７５巷","ALLEY":" ","HOUSE_NO":"８３號","E_COORD97":170990.81,"N_COORD97":2545297.0499999998,"ADDRESS":"開南街２７５巷８３號","OBJECTID":370218},"geometry":{"x":170990.80999999866,"y":2545297.0500000026}},{"attributes":{"ID":370229,"DIS_CODE":0,"TOWNNAME":"北區","LI":"力行里","LIN":"12鄰","STREET":"開南街","SECT":" ","MAREA":" ","LANE":"２７５巷","ALLEY":" ","HOUSE_NO":"８５號","E_COORD97":170990.81,"N_COORD97":2545300.1400000001,"ADDRESS":"開南街２７５巷８５號","OBJECTID":370219},"geometry":{"x":170990.80999999866,"y":2545300.1400000025}},{"attributes":{"ID":370230,"DIS_CODE":0,"TOWNNAME":"歸仁區","LI":"歸南里","LIN":"12鄰","STREET":"民生南街","SECT":"二段","MAREA":" ","LANE":"２６９巷","ALLEY":" ","HOUSE_NO":"２７號","E_COORD97":176158.10999999999,"N_COORD97":2540018.25,"ADDRESS":"民生南街二段２６９巷２７號","OBJECTID":370220},"geometry":{"x":176158.11000000034,"y":2540018.2499999981}},{"attributes":{"ID":370231,"DIS_CODE":0,"TOWNNAME":"歸仁區","LI":"歸南里","LIN":"12鄰","STREET":"民生南街","SECT":"二段","MAREA":" ","LANE":"２６９巷","ALLEY":" ","HOUSE_NO":"１３號","E_COORD97":176127.31,"N_COORD97":2540013.25,"ADDRESS":"民生南街二段２６９巷１３號","OBJECTID":370221},"geometry":{"x":176127.31000000145,"y":2540013.2500000019}},{"attributes":{"ID":370232,"DIS_CODE":0,"TOWNNAME":"歸仁區","LI":"歸南里","LIN":"12鄰","STREET":"民生南街","SECT":"二段","MAREA":" ","LANE":"２６９巷","ALLEY":" ","HOUSE_NO":"４３號","E_COORD97":176205.31,"N_COORD97":2540025.25,"ADDRESS":"民生南街二段２６９巷４３號","OBJECTID":370222},"geometry":{"x":176205.31000000145,"y":2540025.2500000037}},{"attributes":{"ID":370233,"DIS_CODE":0,"TOWNNAME":"歸仁區","LI":"歸南里","LIN":"12鄰","STREET":"民生南街","SECT":"二段","MAREA":" ","LANE":"２６９巷","ALLEY":" ","HOUSE_NO":"５號","E_COORD97":176110.66,"N_COORD97":2540012.25,"ADDRESS":"民生南街二段２６９巷５號","OBJECTID":370223},"geometry":{"x":176110.66000000108,"y":2540012.2500000019}},{"attributes":{"ID":370234,"DIS_CODE":0,"TOWNNAME":"歸仁區","LI":"新厝里","LIN":"12鄰","STREET":"中正南路","SECT":"一段","MAREA":" ","LANE":"７３巷","ALLEY":" ","HOUSE_NO":"７號","E_COORD97":177630,"N_COORD97":2540536.5899999999,"ADDRESS":"中正南路一段７３巷７號","OBJECTID":370224},"geometry":{"x":177629.99999999907,"y":2540536.5899999999}},{"attributes":{"ID":370235,"DIS_CODE":0,"TOWNNAME":"歸仁區","LI":"歸南里","LIN":"12鄰","STREET":"民生南街","SECT":"二段","MAREA":" ","LANE":"２６９巷","ALLEY":" ","HOUSE_NO":"２５號","E_COORD97":176153.01000000001,"N_COORD97":2540017.25,"ADDRESS":"民生南街二段２６９巷２５號","OBJECTID":370225},"geometry":{"x":176153.00999999978,"y":2540017.25}},{"attributes":{"ID":370236,"DIS_CODE":0,"TOWNNAME":"歸仁區","LI":"新厝里","LIN":"12鄰","STREET":"中正南路","SECT":"一段","MAREA":" ","LANE":"８５巷","ALLEY":" ","HOUSE_NO":"４９號","E_COORD97":177649.45000000001,"N_COORD97":2540475.5899999999,"ADDRESS":"中正南路一段８５巷４９號","OBJECTID":370226},"geometry":{"x":177649.45000000112,"y":2540475.5899999999}},{"attributes":{"ID":370237,"DIS_CODE":0,"TOWNNAME":"歸仁區","LI":"歸南里","LIN":"12鄰","STREET":"民生南街","SECT":"二段","MAREA":" ","LANE":"２６９巷","ALLEY":" ","HOUSE_NO":"１９號","E_COORD97":176139.60999999999,"N_COORD97":2540015.25,"ADDRESS":"民生南街二段２６９巷１９號","OBJECTID":370227},"geometry":{"x":176139.6100000022,"y":2540015.2500000037}},{"attributes":{"ID":370238,"DIS_CODE":0,"TOWNNAME":"歸仁區","LI":"歸仁里","LIN":"12鄰","STREET":"信義北路","SECT":" ","MAREA":" ","LANE":"９１巷","ALLEY":" ","HOUSE_NO":"６號","E_COORD97":177960.07000000001,"N_COORD97":2541028.9100000001,"ADDRESS":"信義北路９１巷６號","OBJECTID":370228},"geometry":{"x":177960.0700000003,"y":2541028.910000002}},{"attributes":{"ID":370239,"DIS_CODE":0,"TOWNNAME":"歸仁區","LI":"歸南里","LIN":"12鄰","STREET":"民生南街","SECT":"二段","MAREA":" ","LANE":"２６９巷","ALLEY":" ","HOUSE_NO":"２３號","E_COORD97":176147.81,"N_COORD97":2540017.25,"ADDRESS":"民生南街二段２６９巷２３號","OBJECTID":370229},"geometry":{"x":176147.81000000052,"y":2540017.25}},{"attributes":{"ID":370240,"DIS_CODE":0,"TOWNNAME":"歸仁區","LI":"歸仁里","LIN":"12鄰","STREET":"信義北路","SECT":" ","MAREA":" ","LANE":"８１巷","ALLEY":" ","HOUSE_NO":"６號","E_COORD97":177946.81,"N_COORD97":2540996.48,"ADDRESS":"信義北路８１巷６號","OBJECTID":370230},"geometry":{"x":177946.81000000052,"y":2540996.4800000004}},{"attributes":{"ID":370241,"DIS_CODE":0,"TOWNNAME":"歸仁區","LI":"歸南里","LIN":"12鄰","STREET":"民生南街","SECT":"二段","MAREA":" ","LANE":"２６９巷","ALLEY":" ","HOUSE_NO":"３５號","E_COORD97":176179.60999999999,"N_COORD97":2540021.25,"ADDRESS":"民生南街二段２６９巷３５號","OBJECTID":370231},"geometry":{"x":176179.61000000034,"y":2540021.25}},{"attributes":{"ID":370242,"DIS_CODE":0,"TOWNNAME":"歸仁區","LI":"歸南里","LIN":"12鄰","STREET":"民生南街","SECT":"二段","MAREA":" ","LANE":"２６９巷","ALLEY":" ","HOUSE_NO":"１７號","E_COORD97":176135.51000000001,"N_COORD97":2540015.25,"ADDRESS":"民生南街二段２６９巷１７號","OBJECTID":370232},"geometry":{"x":176135.50999999978,"y":2540015.2500000037}},{"attributes":{"ID":370243,"DIS_CODE":0,"TOWNNAME":"歸仁區","LI":"新厝里","LIN":"12鄰","STREET":"中正南路","SECT":"一段","MAREA":" ","LANE":"８５巷","ALLEY":" ","HOUSE_NO":"７號","E_COORD97":177645.29999999999,"N_COORD97":2540523.5899999999,"ADDRESS":"中正南路一段８５巷７號","OBJECTID":370233},"geometry":{"x":177645.30000000075,"y":2540523.5899999999}},{"attributes":{"ID":370244,"DIS_CODE":0,"TOWNNAME":"歸仁區","LI":"新厝里","LIN":"12鄰","STREET":"中正南路","SECT":"一段","MAREA":" ","LANE":"８５巷","ALLEY":" ","HOUSE_NO":"１號","E_COORD97":177597.10000000001,"N_COORD97":2540523.5899999999,"ADDRESS":"中正南路一段８５巷１號","OBJECTID":370234},"geometry":{"x":177597.10000000056,"y":2540523.5899999999}},{"attributes":{"ID":370245,"DIS_CODE":0,"TOWNNAME":"歸仁區","LI":"新厝里","LIN":"12鄰","STREET":"中正南路","SECT":"一段","MAREA":" ","LANE":"８５巷","ALLEY":" ","HOUSE_NO":"４７號","E_COORD97":177643.25,"N_COORD97":2540479.5899999999,"ADDRESS":"中正南路一段８５巷４７號","OBJECTID":370235},"geometry":{"x":177643.25,"y":2540479.5899999999}},{"attributes":{"ID":370246,"DIS_CODE":0,"TOWNNAME":"歸仁區","LI":"歸南里","LIN":"12鄰","STREET":"民生南街","SECT":"二段","MAREA":" ","LANE":"２６９巷","ALLEY":" ","HOUSE_NO":"２１號","E_COORD97":176143.70999999999,"N_COORD97":2540016.25,"ADDRESS":"民生南街二段２６９巷２１號","OBJECTID":370236},"geometry":{"x":176143.71000000183,"y":2540016.2500000019}},{"attributes":{"ID":370247,"DIS_CODE":0,"TOWNNAME":"歸仁區","LI":"歸仁里","LIN":"12鄰","STREET":"信義北路","SECT":" ","MAREA":" ","LANE":"９１巷","ALLEY":" ","HOUSE_NO":"２號","E_COORD97":177964.17000000001,"N_COORD97":2541028.9100000001,"ADDRESS":"信義北路９１巷２號","OBJECTID":370237},"geometry":{"x":177964.16999999993,"y":2541028.910000002}},{"attributes":{"ID":370248,"DIS_CODE":0,"TOWNNAME":"歸仁區","LI":"看東里","LIN":"12鄰","STREET":"忠孝南路","SECT":" ","MAREA":" ","LANE":"２５巷","ALLEY":" ","HOUSE_NO":"３２號","E_COORD97":178566.70000000001,"N_COORD97":2540507.48,"ADDRESS":"忠孝南路２５巷３２號","OBJECTID":370238},"geometry":{"x":178566.70000000112,"y":2540507.4800000004}},{"attributes":{"ID":370249,"DIS_CODE":0,"TOWNNAME":"歸仁區","LI":"歸南里","LIN":"12鄰","STREET":"民生南街","SECT":"二段","MAREA":" ","LANE":"２６９巷","ALLEY":" ","HOUSE_NO":"３９號","E_COORD97":176192.01000000001,"N_COORD97":2540023.25,"ADDRESS":"民生南街二段２６９巷３９號","OBJECTID":370239},"geometry":{"x":176192.00999999978,"y":2540023.2500000019}},{"attributes":{"ID":370250,"DIS_CODE":0,"TOWNNAME":"歸仁區","LI":"歸南里","LIN":"12鄰","STREET":"民生南街","SECT":"二段","MAREA":" ","LANE":"２６９巷","ALLEY":" ","HOUSE_NO":"４１號","E_COORD97":176199.10999999999,"N_COORD97":2540024.25,"ADDRESS":"民生南街二段２６９巷４１號","OBJECTID":370240},"geometry":{"x":176199.11000000127,"y":2540024.25}},{"attributes":{"ID":370251,"DIS_CODE":0,"TOWNNAME":"新化區","LI":"協興里","LIN":"6鄰","STREET":"忠孝路","SECT":" ","MAREA":" ","LANE":"１９６巷","ALLEY":" ","HOUSE_NO":"１１號","E_COORD97":178346.57000000001,"N_COORD97":2548581.25,"ADDRESS":"忠孝路１９６巷１１號","OBJECTID":370241},"geometry":{"x":178346.5700000003,"y":2548581.25}},{"attributes":{"ID":370252,"DIS_CODE":0,"TOWNNAME":"歸仁區","LI":"許厝里","LIN":"12鄰","STREET":"信義南路","SECT":" ","MAREA":" ","LANE":"５３巷","ALLEY":" ","HOUSE_NO":"１６號","E_COORD97":178085.38,"N_COORD97":2540620.96,"ADDRESS":"信義南路５３巷１６號","OBJECTID":370242},"geometry":{"x":178085.38000000082,"y":2540620.9600000009}},{"attributes":{"ID":370253,"DIS_CODE":0,"TOWNNAME":"歸仁區","LI":"崙頂里","LIN":"12鄰","STREET":"凱旋路","SECT":"一段","MAREA":" ","LANE":"６０１巷","ALLEY":" ","HOUSE_NO":"２７５號","E_COORD97":177794.03,"N_COORD97":2538988.25,"ADDRESS":"凱旋路一段６０１巷２７５號","OBJECTID":370243},"geometry":{"x":177794.03000000026,"y":2538988.2500000019}},{"attributes":{"ID":370254,"DIS_CODE":0,"TOWNNAME":"歸仁區","LI":"南興里","LIN":"12鄰","STREET":"南興街","SECT":" ","MAREA":" ","LANE":"１５３巷","ALLEY":" ","HOUSE_NO":"９號","E_COORD97":175844.39000000001,"N_COORD97":2541351.25,"ADDRESS":"南興街１５３巷９號","OBJECTID":370244},"geometry":{"x":175844.3900000006,"y":2541351.2500000019}},{"attributes":{"ID":370255,"DIS_CODE":0,"TOWNNAME":"歸仁區","LI":"南興里","LIN":"12鄰","STREET":"南興街","SECT":" ","MAREA":" ","LANE":"１５３巷","ALLEY":" ","HOUSE_NO":"５號","E_COORD97":175844.48999999999,"N_COORD97":2541368.25,"ADDRESS":"南興街１５３巷５號","OBJECTID":370245},"geometry":{"x":175844.49000000115,"y":2541368.2500000019}},{"attributes":{"ID":370256,"DIS_CODE":0,"TOWNNAME":"歸仁區","LI":"七甲里","LIN":"12鄰","STREET":"南丁路","SECT":" ","MAREA":" ","LANE":"３５９巷","ALLEY":" ","HOUSE_NO":"１５３號","E_COORD97":175708.01000000001,"N_COORD97":2542560.25,"ADDRESS":"南丁路３５９巷１５３號","OBJECTID":370246},"geometry":{"x":175708.01000000071,"y":2542560.25}},{"attributes":{"ID":370257,"DIS_CODE":0,"TOWNNAME":"歸仁區","LI":"七甲里","LIN":"12鄰","STREET":"南丁路","SECT":" ","MAREA":" ","LANE":"２７１巷","ALLEY":" ","HOUSE_NO":"１７１號","E_COORD97":175518.79000000001,"N_COORD97":2542397.25,"ADDRESS":"南丁路２７１巷１７１號","OBJECTID":370247},"geometry":{"x":175518.79000000004,"y":2542397.25}},{"attributes":{"ID":370258,"DIS_CODE":0,"TOWNNAME":"新營區","LI":"忠政里","LIN":"12鄰","STREET":"府西路","SECT":" ","MAREA":" ","LANE":"２０２巷","ALLEY":" ","HOUSE_NO":"５３號","E_COORD97":179960.47,"N_COORD97":2579545.2400000002,"ADDRESS":"府西路２０２巷５３號","OBJECTID":370248},"geometry":{"x":179960.46999999974,"y":2579545.2400000021}},{"attributes":{"ID":370259,"DIS_CODE":0,"TOWNNAME":"新營區","LI":"忠政里","LIN":"12鄰","STREET":"府西路","SECT":" ","MAREA":" ","LANE":"２０２巷","ALLEY":" ","HOUSE_NO":"４５號","E_COORD97":179940.07999999999,"N_COORD97":2579545.3399999999,"ADDRESS":"府西路２０２巷４５號","OBJECTID":370249},"geometry":{"x":179940.07999999914,"y":2579545.3399999999}},{"attributes":{"ID":370260,"DIS_CODE":0,"TOWNNAME":"新營區","LI":"南紙里","LIN":"12鄰","STREET":"太子路","SECT":" ","MAREA":" ","LANE":"１５３巷","ALLEY":" ","HOUSE_NO":"２７號","E_COORD97":177940.14000000001,"N_COORD97":2577785.2200000002,"ADDRESS":"太子路１５３巷２７號","OBJECTID":370250},"geometry":{"x":177940.13999999966,"y":2577785.2200000025}},{"attributes":{"ID":370261,"DIS_CODE":0,"TOWNNAME":"新營區","LI":"忠政里","LIN":"12鄰","STREET":"府西路","SECT":" ","MAREA":" ","LANE":"２０２巷","ALLEY":" ","HOUSE_NO":"１７號","E_COORD97":179870.45000000001,"N_COORD97":2579543.4500000002,"ADDRESS":"府西路２０２巷１７號","OBJECTID":370251},"geometry":{"x":179870.45000000112,"y":2579543.4499999993}},{"attributes":{"ID":370262,"DIS_CODE":0,"TOWNNAME":"新營區","LI":"忠政里","LIN":"12鄰","STREET":"府西路","SECT":" ","MAREA":" ","LANE":"２０２巷","ALLEY":" ","HOUSE_NO":"２６號","E_COORD97":179863.28,"N_COORD97":2579527.98,"ADDRESS":"府西路２０２巷２６號","OBJECTID":370252},"geometry":{"x":179863.28000000119,"y":2579527.9800000004}},{"attributes":{"ID":370263,"DIS_CODE":0,"TOWNNAME":"新營區","LI":"南紙里","LIN":"12鄰","STREET":"太子路","SECT":" ","MAREA":" ","LANE":"１５３巷","ALLEY":" ","HOUSE_NO":"２１號","E_COORD97":177937.12,"N_COORD97":2577796.3199999998,"ADDRESS":"太子路１５３巷２１號","OBJECTID":370253},"geometry":{"x":177937.12000000011,"y":2577796.3200000003}},{"attributes":{"ID":370264,"DIS_CODE":0,"TOWNNAME":"新營區","LI":"忠政里","LIN":"12鄰","STREET":"府西路","SECT":" ","MAREA":" ","LANE":"２０２巷","ALLEY":" ","HOUSE_NO":"１０６號","E_COORD97":180011.76000000001,"N_COORD97":2579532.8199999998,"ADDRESS":"府西路２０２巷１０６號","OBJECTID":370254},"geometry":{"x":180011.76000000071,"y":2579532.8200000003}},{"attributes":{"ID":370265,"DIS_CODE":0,"TOWNNAME":"新營區","LI":"忠政里","LIN":"12鄰","STREET":"府西路","SECT":" ","MAREA":" ","LANE":"２０２巷","ALLEY":" ","HOUSE_NO":"４３號","E_COORD97":179936,"N_COORD97":2579547.5600000001,"ADDRESS":"府西路２０２巷４３號","OBJECTID":370255},"geometry":{"x":179936.00000000093,"y":2579547.5600000005}},{"attributes":{"ID":370266,"DIS_CODE":0,"TOWNNAME":"新營區","LI":"南紙里","LIN":"12鄰","STREET":"太子路","SECT":" ","MAREA":" ","LANE":"１５３巷","ALLEY":" ","HOUSE_NO":"２３號","E_COORD97":177937.10000000001,"N_COORD97":2577791.8900000001,"ADDRESS":"太子路１５３巷２３號","OBJECTID":370256},"geometry":{"x":177937.09999999963,"y":2577791.8900000025}},{"attributes":{"ID":370267,"DIS_CODE":0,"TOWNNAME":"新營區","LI":"忠政里","LIN":"12鄰","STREET":"中正路","SECT":" ","MAREA":" ","LANE":"５９巷","ALLEY":" ","HOUSE_NO":"７號","E_COORD97":180027.82000000001,"N_COORD97":2579556,"ADDRESS":"中正路５９巷７號","OBJECTID":370257},"geometry":{"x":180027.8200000003,"y":2579556.0000000019}},{"attributes":{"ID":370268,"DIS_CODE":0,"TOWNNAME":"新營區","LI":"忠政里","LIN":"12鄰","STREET":"府西路","SECT":" ","MAREA":" ","LANE":"２０２巷","ALLEY":" ","HOUSE_NO":"２７號","E_COORD97":179895.04999999999,"N_COORD97":2579543.3399999999,"ADDRESS":"府西路２０２巷２７號","OBJECTID":370258},"geometry":{"x":179895.05000000075,"y":2579543.3400000017}},{"attributes":{"ID":370269,"DIS_CODE":0,"TOWNNAME":"新營區","LI":"忠政里","LIN":"12鄰","STREET":"府西路","SECT":" ","MAREA":" ","LANE":"２０２巷","ALLEY":" ","HOUSE_NO":"４１號","E_COORD97":179930.87,"N_COORD97":2579544.27,"ADDRESS":"府西路２０２巷４１號","OBJECTID":370259},"geometry":{"x":179930.87000000011,"y":2579544.2700000014}},{"attributes":{"ID":370270,"DIS_CODE":0,"TOWNNAME":"新營區","LI":"忠政里","LIN":"12鄰","STREET":"中正路","SECT":" ","MAREA":" ","LANE":"５９巷","ALLEY":" ","HOUSE_NO":"３８號","E_COORD97":179948.42000000001,"N_COORD97":2579577.4199999999,"ADDRESS":"中正路５９巷３８號","OBJECTID":370260},"geometry":{"x":179948.42000000086,"y":2579577.4200000018}},{"attributes":{"ID":370271,"DIS_CODE":0,"TOWNNAME":"新營區","LI":"南紙里","LIN":"12鄰","STREET":"太子路","SECT":" ","MAREA":" ","LANE":"１５３巷","ALLEY":" ","HOUSE_NO":"４７號","E_COORD97":177954.28,"N_COORD97":2577746.3999999999,"ADDRESS":"太子路１５３巷４７號","OBJECTID":370261},"geometry":{"x":177954.28000000119,"y":2577746.4000000022}},{"attributes":{"ID":370272,"DIS_CODE":0,"TOWNNAME":"新營區","LI":"南紙里","LIN":"12鄰","STREET":"太子路","SECT":" ","MAREA":" ","LANE":"１５３巷","ALLEY":" ","HOUSE_NO":"３９號","E_COORD97":177949.25,"N_COORD97":2577761.9199999999,"ADDRESS":"太子路１５３巷３９號","OBJECTID":370262},"geometry":{"x":177949.25000000093,"y":2577761.9199999999}},{"attributes":{"ID":370273,"DIS_CODE":0,"TOWNNAME":"新營區","LI":"南紙里","LIN":"12鄰","STREET":"太子路","SECT":" ","MAREA":" ","LANE":"１５３巷","ALLEY":" ","HOUSE_NO":"４２號","E_COORD97":177945.04999999999,"N_COORD97":2577740.8999999999,"ADDRESS":"太子路１５３巷４２號","OBJECTID":370263},"geometry":{"x":177945.05000000075,"y":2577740.9000000022}},{"attributes":{"ID":370274,"DIS_CODE":0,"TOWNNAME":"新營區","LI":"忠政里","LIN":"12鄰","STREET":"中正路","SECT":" ","MAREA":" ","LANE":"５９巷","ALLEY":" ","HOUSE_NO":"４６號","E_COORD97":179921.82999999999,"N_COORD97":2579578.6499999999,"ADDRESS":"中正路５９巷４６號","OBJECTID":370264},"geometry":{"x":179921.83000000101,"y":2579578.6500000041}},{"attributes":{"ID":370275,"DIS_CODE":0,"TOWNNAME":"新營區","LI":"南紙里","LIN":"12鄰","STREET":"太子路","SECT":" ","MAREA":" ","LANE":"１５３巷","ALLEY":" ","HOUSE_NO":"４１號","E_COORD97":177950.23999999999,"N_COORD97":2577757.4900000002,"ADDRESS":"太子路１５３巷４１號","OBJECTID":370265},"geometry":{"x":177950.24000000022,"y":2577757.4900000002}},{"attributes":{"ID":370276,"DIS_CODE":0,"TOWNNAME":"新營區","LI":"忠政里","LIN":"12鄰","STREET":"中正路","SECT":" ","MAREA":" ","LANE":"５９巷","ALLEY":" ","HOUSE_NO":"４７號","E_COORD97":179879.87,"N_COORD97":2579573.3199999998,"ADDRESS":"中正路５９巷４７號","OBJECTID":370266},"geometry":{"x":179879.87000000011,"y":2579573.3200000003}},{"attributes":{"ID":370277,"DIS_CODE":0,"TOWNNAME":"新營區","LI":"南紙里","LIN":"12鄰","STREET":"太子路","SECT":" ","MAREA":" ","LANE":"１５３巷","ALLEY":" ","HOUSE_NO":"５１號","E_COORD97":177958.26999999999,"N_COORD97":2577738.6200000001,"ADDRESS":"太子路１５３巷５１號","OBJECTID":370267},"geometry":{"x":177958.26999999862,"y":2577738.6200000048}},{"attributes":{"ID":370278,"DIS_CODE":0,"TOWNNAME":"新營區","LI":"南紙里","LIN":"12鄰","STREET":"太子路","SECT":" ","MAREA":" ","LANE":"１５３巷","ALLEY":" ","HOUSE_NO":"５２號","E_COORD97":177953.03,"N_COORD97":2577713.1800000002,"ADDRESS":"太子路１５３巷５２號","OBJECTID":370268},"geometry":{"x":177953.03000000119,"y":2577713.1800000016}},{"attributes":{"ID":370279,"DIS_CODE":0,"TOWNNAME":"新營區","LI":"忠政里","LIN":"12鄰","STREET":"中正路","SECT":" ","MAREA":" ","LANE":"５９巷","ALLEY":" ","HOUSE_NO":"３７號","E_COORD97":179897.25,"N_COORD97":2579571.02,"ADDRESS":"中正路５９巷３７號","OBJECTID":370269},"geometry":{"x":179897.25000000093,"y":2579571.0199999996}},{"attributes":{"ID":370280,"DIS_CODE":0,"TOWNNAME":"新營區","LI":"南紙里","LIN":"12鄰","STREET":"太子路","SECT":" ","MAREA":" ","LANE":"１５３巷","ALLEY":" ","HOUSE_NO":"４６號","E_COORD97":177947.06,"N_COORD97":2577735.3599999999,"ADDRESS":"太子路１５３巷４６號","OBJECTID":370270},"geometry":{"x":177947.06000000052,"y":2577735.3600000031}},{"attributes":{"ID":370281,"DIS_CODE":0,"TOWNNAME":"新營區","LI":"南紙里","LIN":"12鄰","STREET":"太子路","SECT":" ","MAREA":" ","LANE":"１５３巷","ALLEY":" ","HOUSE_NO":"５９號","E_COORD97":177963.31,"N_COORD97":2577723.1000000001,"ADDRESS":"太子路１５３巷５９號","OBJECTID":370271},"geometry":{"x":177963.31000000145,"y":2577723.0999999996}},{"attributes":{"ID":370282,"DIS_CODE":0,"TOWNNAME":"新營區","LI":"南紙里","LIN":"12鄰","STREET":"太子路","SECT":" ","MAREA":" ","LANE":"１５３巷","ALLEY":" ","HOUSE_NO":"５５號","E_COORD97":177960.28,"N_COORD97":2577730.8599999999,"ADDRESS":"太子路１５３巷５５號","OBJECTID":370272},"geometry":{"x":177960.28000000026,"y":2577730.8599999994}},{"attributes":{"ID":370283,"DIS_CODE":0,"TOWNNAME":"新營區","LI":"南紙里","LIN":"12鄰","STREET":"太子路","SECT":" ","MAREA":" ","LANE":"１５３巷","ALLEY":" ","HOUSE_NO":"４５號","E_COORD97":177953.26999999999,"N_COORD97":2577749.7200000002,"ADDRESS":"太子路１５３巷４５號","OBJECTID":370273},"geometry":{"x":177953.27000000142,"y":2577749.7200000007}},{"attributes":{"ID":370284,"DIS_CODE":0,"TOWNNAME":"新營區","LI":"南紙里","LIN":"12鄰","STREET":"太子路","SECT":" ","MAREA":" ","LANE":"１５３巷","ALLEY":" ","HOUSE_NO":"４９號","E_COORD97":177956.29999999999,"N_COORD97":2577741.96,"ADDRESS":"太子路１５３巷４９號","OBJECTID":370274},"geometry":{"x":177956.29999999981,"y":2577741.9600000009}},{"attributes":{"ID":370285,"DIS_CODE":0,"TOWNNAME":"新營區","LI":"南紙里","LIN":"12鄰","STREET":"太子路","SECT":" ","MAREA":" ","LANE":"１５３巷","ALLEY":" ","HOUSE_NO":"３７號","E_COORD97":177947.22,"N_COORD97":2577765.25,"ADDRESS":"太子路１５３巷３７號","OBJECTID":370275},"geometry":{"x":177947.22000000067,"y":2577765.2500000019}},{"attributes":{"ID":370286,"DIS_CODE":0,"TOWNNAME":"新營區","LI":"忠政里","LIN":"12鄰","STREET":"府西路","SECT":" ","MAREA":" ","LANE":"２０２巷","ALLEY":" ","HOUSE_NO":"７６號","E_COORD97":179970.64000000001,"N_COORD97":2579530.7999999998,"ADDRESS":"府西路２０２巷７６號","OBJECTID":370276},"geometry":{"x":179970.6400000006,"y":2579530.8000000026}},{"attributes":{"ID":370287,"DIS_CODE":0,"TOWNNAME":"新營區","LI":"忠政里","LIN":"12鄰","STREET":"府西路","SECT":" ","MAREA":" ","LANE":"２０２巷","ALLEY":" ","HOUSE_NO":"７８號","E_COORD97":179979.85000000001,"N_COORD97":2579529.6499999999,"ADDRESS":"府西路２０２巷７８號","OBJECTID":370277},"geometry":{"x":179979.84999999963,"y":2579529.6500000004}},{"attributes":{"ID":370288,"DIS_CODE":0,"TOWNNAME":"新營區","LI":"忠政里","LIN":"12鄰","STREET":"府西路","SECT":" ","MAREA":" ","LANE":"２０２巷","ALLEY":" ","HOUSE_NO":"２８號","E_COORD97":179867.37,"N_COORD97":2579527.96,"ADDRESS":"府西路２０２巷２８號","OBJECTID":370278},"geometry":{"x":179867.37000000104,"y":2579527.9600000009}},{"attributes":{"ID":370289,"DIS_CODE":0,"TOWNNAME":"新營區","LI":"忠政里","LIN":"12鄰","STREET":"府西路","SECT":" ","MAREA":" ","LANE":"２０２巷","ALLEY":" ","HOUSE_NO":"３５號","E_COORD97":179917.57999999999,"N_COORD97":2579543.23,"ADDRESS":"府西路２０２巷３５號","OBJECTID":370279},"geometry":{"x":179917.58000000007,"y":2579543.2300000004}},{"attributes":{"ID":370290,"DIS_CODE":0,"TOWNNAME":"新營區","LI":"忠政里","LIN":"12鄰","STREET":"府西路","SECT":" ","MAREA":" ","LANE":"２０２巷","ALLEY":" ","HOUSE_NO":"６３號","E_COORD97":180002.41,"N_COORD97":2579548.3599999999,"ADDRESS":"府西路２０２巷６３號","OBJECTID":370280},"geometry":{"x":180002.41000000201,"y":2579548.3599999994}},{"attributes":{"ID":370291,"DIS_CODE":0,"TOWNNAME":"新營區","LI":"忠政里","LIN":"12鄰","STREET":"府西路","SECT":" ","MAREA":" ","LANE":"２０２巷","ALLEY":" ","HOUSE_NO":"５９號","E_COORD97":179993.22,"N_COORD97":2579547.2999999998,"ADDRESS":"府西路２０２巷５９號","OBJECTID":370281},"geometry":{"x":179993.2200000016,"y":2579547.3000000045}},{"attributes":{"ID":370292,"DIS_CODE":0,"TOWNNAME":"新營區","LI":"忠政里","LIN":"12鄰","STREET":"中正路","SECT":" ","MAREA":" ","LANE":"５９巷","ALLEY":" ","HOUSE_NO":"３６號","E_COORD97":179959.67000000001,"N_COORD97":2579576.2599999998,"ADDRESS":"中正路５９巷３６號","OBJECTID":370282},"geometry":{"x":179959.67000000179,"y":2579576.2599999998}},{"attributes":{"ID":370293,"DIS_CODE":0,"TOWNNAME":"新營區","LI":"忠政里","LIN":"12鄰","STREET":"府西路","SECT":" ","MAREA":" ","LANE":"２０２巷","ALLEY":" ","HOUSE_NO":"６６號","E_COORD97":179941.98999999999,"N_COORD97":2579532.04,"ADDRESS":"府西路２０２巷６６號","OBJECTID":370283},"geometry":{"x":179941.99000000022,"y":2579532.040000001}},{"attributes":{"ID":370294,"DIS_CODE":0,"TOWNNAME":"新營區","LI":"忠政里","LIN":"12鄰","STREET":"府西路","SECT":" ","MAREA":" ","LANE":"２０２巷","ALLEY":" ","HOUSE_NO":"６８號","E_COORD97":179952.20999999999,"N_COORD97":2579530.8799999999,"ADDRESS":"府西路２０２巷６８號","OBJECTID":370284},"geometry":{"x":179952.20999999996,"y":2579530.879999999}},{"attributes":{"ID":370295,"DIS_CODE":0,"TOWNNAME":"新營區","LI":"忠政里","LIN":"12鄰","STREET":"府西路","SECT":" ","MAREA":" ","LANE":"２０２巷","ALLEY":" ","HOUSE_NO":"４９號","E_COORD97":179952.37,"N_COORD97":2579547.48,"ADDRESS":"府西路２０２巷４９號","OBJECTID":370285},"geometry":{"x":179952.37000000104,"y":2579547.4800000023}},{"attributes":{"ID":370296,"DIS_CODE":0,"TOWNNAME":"新營區","LI":"忠政里","LIN":"12鄰","STREET":"府西路","SECT":" ","MAREA":" ","LANE":"２０２巷","ALLEY":" ","HOUSE_NO":"３２號","E_COORD97":179876.60999999999,"N_COORD97":2579531.2400000002,"ADDRESS":"府西路２０２巷３２號","OBJECTID":370286},"geometry":{"x":179876.61000000127,"y":2579531.2400000021}},{"attributes":{"ID":370297,"DIS_CODE":0,"TOWNNAME":"新營區","LI":"忠政里","LIN":"12鄰","STREET":"中正路","SECT":" ","MAREA":" ","LANE":"５９巷","ALLEY":" ","HOUSE_NO":"１１號","E_COORD97":180018.78,"N_COORD97":2579551.6200000001,"ADDRESS":"中正路５９巷１１號","OBJECTID":370287},"geometry":{"x":180018.78000000212,"y":2579551.620000001}},{"attributes":{"ID":370298,"DIS_CODE":0,"TOWNNAME":"新營區","LI":"忠政里","LIN":"12鄰","STREET":"府西路","SECT":" ","MAREA":" ","LANE":"２０２巷","ALLEY":" ","HOUSE_NO":"６７號","E_COORD97":180015.72,"N_COORD97":2579551.6299999999,"ADDRESS":"府西路２０２巷６７號","OBJECTID":370288},"geometry":{"x":180015.72000000067,"y":2579551.6300000008}},{"attributes":{"ID":370299,"DIS_CODE":0,"TOWNNAME":"新營區","LI":"三仙里","LIN":"12鄰","STREET":"民權路","SECT":" ","MAREA":" ","LANE":"４１巷","ALLEY":" ","HOUSE_NO":"４之３號","E_COORD97":179663.22,"N_COORD97":2578270.9199999999,"ADDRESS":"民權路４１巷４之３號","OBJECTID":370289},"geometry":{"x":179663.22000000067,"y":2578270.9200000037}},{"attributes":{"ID":370300,"DIS_CODE":0,"TOWNNAME":"新營區","LI":"南興里","LIN":"12鄰","STREET":"和平路","SECT":" ","MAREA":" ","LANE":"１０４巷","ALLEY":" ","HOUSE_NO":"３９號","E_COORD97":179292.37,"N_COORD97":2577555,"ADDRESS":"和平路１０４巷３９號","OBJECTID":370290},"geometry":{"x":179292.37000000197,"y":2577555.0000000037}},{"attributes":{"ID":370301,"DIS_CODE":0,"TOWNNAME":"歸仁區","LI":"西埔里","LIN":"12鄰","STREET":"西埔一街","SECT":" ","MAREA":" ","LANE":"１８５巷","ALLEY":" ","HOUSE_NO":"３２號","E_COORD97":176929.44,"N_COORD97":2544671.25,"ADDRESS":"西埔一街１８５巷３２號","OBJECTID":370291},"geometry":{"x":176929.44000000134,"y":2544671.2500000019}},{"attributes":{"ID":370302,"DIS_CODE":0,"TOWNNAME":"歸仁區","LI":"許厝里","LIN":"12鄰","STREET":"信義南路","SECT":" ","MAREA":" ","LANE":"５３巷","ALLEY":" ","HOUSE_NO":"２２號","E_COORD97":178090.38,"N_COORD97":2540644.25,"ADDRESS":"信義南路５３巷２２號","OBJECTID":370292},"geometry":{"x":178090.38000000082,"y":2540644.25}},{"attributes":{"ID":370303,"DIS_CODE":0,"TOWNNAME":"歸仁區","LI":"文化里","LIN":"12鄰","STREET":"文化北一街","SECT":" ","MAREA":" ","LANE":"４３巷","ALLEY":" ","HOUSE_NO":"３號","E_COORD97":177329.17000000001,"N_COORD97":2541427.2599999998,"ADDRESS":"文化北一街４３巷３號","OBJECTID":370293},"geometry":{"x":177329.17000000086,"y":2541427.2599999998}},{"attributes":{"ID":370304,"DIS_CODE":0,"TOWNNAME":"關廟區","LI":"北勢里","LIN":"12鄰","STREET":"仁愛路","SECT":" ","MAREA":" ","LANE":"２９２巷","ALLEY":" ","HOUSE_NO":"１５號","E_COORD97":181544.64000000001,"N_COORD97":2540625.2799999998,"ADDRESS":"仁愛路２９２巷１５號","OBJECTID":370294},"geometry":{"x":181544.64000000153,"y":2540625.2800000012}},{"attributes":{"ID":370305,"DIS_CODE":0,"TOWNNAME":"關廟區","LI":"北勢里","LIN":"12鄰","STREET":"仁愛路","SECT":" ","MAREA":" ","LANE":"２９２巷","ALLEY":" ","HOUSE_NO":"５號","E_COORD97":181524.19,"N_COORD97":2540632.2799999998,"ADDRESS":"仁愛路２９２巷５號","OBJECTID":370295},"geometry":{"x":181524.19000000041,"y":2540632.2800000012}},{"attributes":{"ID":370306,"DIS_CODE":0,"TOWNNAME":"關廟區","LI":"五甲里","LIN":"12鄰","STREET":"東興路","SECT":" ","MAREA":" ","LANE":"１７巷","ALLEY":" ","HOUSE_NO":"１９號","E_COORD97":181278.47,"N_COORD97":2539603.25,"ADDRESS":"東興路１７巷１９號","OBJECTID":370296},"geometry":{"x":181278.47000000067,"y":2539603.25}},{"attributes":{"ID":370307,"DIS_CODE":0,"TOWNNAME":"關廟區","LI":"北花里","LIN":"12鄰","STREET":"園中街","SECT":" ","MAREA":" ","LANE":"５巷","ALLEY":" ","HOUSE_NO":"２號","E_COORD97":181756.91,"N_COORD97":2540228.25,"ADDRESS":"園中街５巷２號","OBJECTID":370297},"geometry":{"x":181756.91000000201,"y":2540228.25}},{"attributes":{"ID":370308,"DIS_CODE":0,"TOWNNAME":"關廟區","LI":"埤頭里","LIN":"12鄰","STREET":"保東二街","SECT":" ","MAREA":" ","LANE":"１３１巷","ALLEY":" ","HOUSE_NO":"６６號","E_COORD97":178577.37,"N_COORD97":2544445.2999999998,"ADDRESS":"保東二街１３１巷６６號","OBJECTID":370298},"geometry":{"x":178577.37000000104,"y":2544445.3000000007}},{"attributes":{"ID":370309,"DIS_CODE":0,"TOWNNAME":"關廟區","LI":"埤頭里","LIN":"12鄰","STREET":"保東二街","SECT":" ","MAREA":" ","LANE":"１３１巷","ALLEY":" ","HOUSE_NO":"１０７號","E_COORD97":178560.32000000001,"N_COORD97":2544528.2999999998,"ADDRESS":"保東二街１３１巷１０７號","OBJECTID":370299},"geometry":{"x":178560.3200000003,"y":2544528.3000000045}},{"attributes":{"ID":370310,"DIS_CODE":0,"TOWNNAME":"關廟區","LI":"埤頭里","LIN":"12鄰","STREET":"保東路","SECT":" ","MAREA":" ","LANE":"８８巷","ALLEY":" ","HOUSE_NO":"１２８號","E_COORD97":178825.82000000001,"N_COORD97":2544373.25,"ADDRESS":"保東路８８巷１２８號","OBJECTID":370300},"geometry":{"x":178825.82000000123,"y":2544373.2500000019}},{"attributes":{"ID":370311,"DIS_CODE":0,"TOWNNAME":"關廟區","LI":"埤頭里","LIN":"12鄰","STREET":"保東二街","SECT":" ","MAREA":" ","LANE":"１３１巷","ALLEY":" ","HOUSE_NO":"５２號","E_COORD97":178596.01999999999,"N_COORD97":2544440.2999999998,"ADDRESS":"保東二街１３１巷５２號","OBJECTID":370301},"geometry":{"x":178596.02000000048,"y":2544440.3000000026}},{"attributes":{"ID":370312,"DIS_CODE":0,"TOWNNAME":"關廟區","LI":"南花里","LIN":"12鄰","STREET":"明德街","SECT":" ","MAREA":" ","LANE":"１５巷","ALLEY":" ","HOUSE_NO":"６３號","E_COORD97":181713.69,"N_COORD97":2539973.27,"ADDRESS":"明德街１５巷６３號","OBJECTID":370302},"geometry":{"x":181713.69000000134,"y":2539973.2699999996}},{"attributes":{"ID":370313,"DIS_CODE":0,"TOWNNAME":"關廟區","LI":"埤頭里","LIN":"12鄰","STREET":"保東二街","SECT":" ","MAREA":" ","LANE":"１３１巷","ALLEY":" ","HOUSE_NO":"５８號","E_COORD97":178588.01999999999,"N_COORD97":2544442.2999999998,"ADDRESS":"保東二街１３１巷５８號","OBJECTID":370303},"geometry":{"x":178588.02000000048,"y":2544442.3000000007}},{"attributes":{"ID":370314,"DIS_CODE":0,"TOWNNAME":"關廟區","LI":"埤頭里","LIN":"12鄰","STREET":"保東路","SECT":" ","MAREA":" ","LANE":"８８巷","ALLEY":" ","HOUSE_NO":"１０８號","E_COORD97":178807.32000000001,"N_COORD97":2544332.25,"ADDRESS":"保東路８８巷１０８號","OBJECTID":370304},"geometry":{"x":178807.3200000003,"y":2544332.2500000019}},{"attributes":{"ID":370315,"DIS_CODE":0,"TOWNNAME":"關廟區","LI":"埤頭里","LIN":"12鄰","STREET":"保東路","SECT":" ","MAREA":" ","LANE":"３５６巷","ALLEY":" ","HOUSE_NO":"３９７號","E_COORD97":178095.12,"N_COORD97":2545009.2999999998,"ADDRESS":"保東路３５６巷３９７號","OBJECTID":370305},"geometry":{"x":178095.12000000011,"y":2545009.3000000007}},{"attributes":{"ID":370316,"DIS_CODE":0,"TOWNNAME":"關廟區","LI":"香洋里","LIN":"12鄰","STREET":"中央路","SECT":" ","MAREA":" ","LANE":"１６５巷","ALLEY":" ","HOUSE_NO":"６號","E_COORD97":181241.16,"N_COORD97":2540032.3199999998,"ADDRESS":"中央路１６５巷６號","OBJECTID":370306},"geometry":{"x":181241.16000000015,"y":2540032.3200000022}},{"attributes":{"ID":370317,"DIS_CODE":0,"TOWNNAME":"關廟區","LI":"深坑里","LIN":"12鄰","STREET":"深坑二街","SECT":" ","MAREA":" ","LANE":"３２巷","ALLEY":" ","HOUSE_NO":"１０號","E_COORD97":181608.51999999999,"N_COORD97":2537660.2999999998,"ADDRESS":"深坑二街３２巷１０號","OBJECTID":370307},"geometry":{"x":181608.52000000048,"y":2537660.3000000026}},{"attributes":{"ID":370318,"DIS_CODE":0,"TOWNNAME":"關廟區","LI":"埤頭里","LIN":"12鄰","STREET":"關新路","SECT":"二段","MAREA":" ","LANE":"１０３巷","ALLEY":" ","HOUSE_NO":"１２６號","E_COORD97":178827.32000000001,"N_COORD97":2544329.25,"ADDRESS":"關新路二段１０３巷１２６號","OBJECTID":370308},"geometry":{"x":178827.32000000123,"y":2544329.2500000019}},{"attributes":{"ID":370319,"DIS_CODE":0,"TOWNNAME":"關廟區","LI":"埤頭里","LIN":"12鄰","STREET":"保東二街","SECT":" ","MAREA":" ","LANE":"１３１巷","ALLEY":" ","HOUSE_NO":"６８號","E_COORD97":178573.87,"N_COORD97":2544446.2999999998,"ADDRESS":"保東二街１３１巷６８號","OBJECTID":370309},"geometry":{"x":178573.87000000104,"y":2544446.3000000007}},{"attributes":{"ID":370320,"DIS_CODE":0,"TOWNNAME":"關廟區","LI":"關廟里","LIN":"12鄰","STREET":"民生街","SECT":" ","MAREA":" ","LANE":"１５２巷","ALLEY":" ","HOUSE_NO":"１７號","E_COORD97":180922.23999999999,"N_COORD97":2539833.29,"ADDRESS":"民生街１５２巷１７號","OBJECTID":370310},"geometry":{"x":180922.24000000022,"y":2539833.2899999991}},{"attributes":{"ID":370321,"DIS_CODE":0,"TOWNNAME":"關廟區","LI":"關廟里","LIN":"12鄰","STREET":"民生街","SECT":" ","MAREA":" ","LANE":"１５２巷","ALLEY":" ","HOUSE_NO":"２３號","E_COORD97":180929.14000000001,"N_COORD97":2539849.29,"ADDRESS":"民生街１５２巷２３號","OBJECTID":370311},"geometry":{"x":180929.13999999966,"y":2539849.290000001}},{"attributes":{"ID":370322,"DIS_CODE":0,"TOWNNAME":"關廟區","LI":"南花里","LIN":"12鄰","STREET":"明德街","SECT":" ","MAREA":" ","LANE":"１５巷","ALLEY":" ","HOUSE_NO":"６１號","E_COORD97":181714.09,"N_COORD97":2539969.27,"ADDRESS":"明德街１５巷６１號","OBJECTID":370312},"geometry":{"x":181714.08999999985,"y":2539969.2699999996}},{"attributes":{"ID":370323,"DIS_CODE":0,"TOWNNAME":"關廟區","LI":"埤頭里","LIN":"12鄰","STREET":"保東二街","SECT":" ","MAREA":" ","LANE":"１３１巷","ALLEY":" ","HOUSE_NO":"４２號","E_COORD97":178633.12,"N_COORD97":2544453.25,"ADDRESS":"保東二街１３１巷４２號","OBJECTID":370313},"geometry":{"x":178633.12000000104,"y":2544453.2500000037}},{"attributes":{"ID":370324,"DIS_CODE":0,"TOWNNAME":"關廟區","LI":"松腳里","LIN":"12鄰","STREET":"東興路","SECT":" ","MAREA":" ","LANE":"２０９巷","ALLEY":" ","HOUSE_NO":"１０號","E_COORD97":181758.72,"N_COORD97":2539610.25,"ADDRESS":"東興路２０９巷１０號","OBJECTID":370314},"geometry":{"x":181758.71999999974,"y":2539610.25}},{"attributes":{"ID":370325,"DIS_CODE":0,"TOWNNAME":"關廟區","LI":"南花里","LIN":"12鄰","STREET":"明德街","SECT":" ","MAREA":" ","LANE":"１５巷","ALLEY":" ","HOUSE_NO":"６５號","E_COORD97":181713.69,"N_COORD97":2539977.27,"ADDRESS":"明德街１５巷６５號","OBJECTID":370315},"geometry":{"x":181713.69000000134,"y":2539977.2700000033}},{"attributes":{"ID":370326,"DIS_CODE":0,"TOWNNAME":"關廟區","LI":"松腳里","LIN":"12鄰","STREET":"東興路","SECT":" ","MAREA":" ","LANE":"２０５巷","ALLEY":" ","HOUSE_NO":"５號","E_COORD97":181730.26999999999,"N_COORD97":2539610.25,"ADDRESS":"東興路２０５巷５號","OBJECTID":370316},"geometry":{"x":181730.27000000142,"y":2539610.25}},{"attributes":{"ID":370327,"DIS_CODE":0,"TOWNNAME":"關廟區","LI":"南花里","LIN":"12鄰","STREET":"明德街","SECT":" ","MAREA":" ","LANE":"１５巷","ALLEY":" ","HOUSE_NO":"５６號","E_COORD97":181745.89000000001,"N_COORD97":2539984.27,"ADDRESS":"明德街１５巷５６號","OBJECTID":370317},"geometry":{"x":181745.88999999966,"y":2539984.2700000033}},{"attributes":{"ID":370328,"DIS_CODE":0,"TOWNNAME":"新化區","LI":"東榮里","LIN":"12鄰","STREET":"中興路","SECT":" ","MAREA":" ","LANE":"５５４巷","ALLEY":" ","HOUSE_NO":"３２號","E_COORD97":179921.35999999999,"N_COORD97":2548020.25,"ADDRESS":"中興路５５４巷３２號","OBJECTID":370318},"geometry":{"x":179921.36000000034,"y":2548020.2500000019}},{"attributes":{"ID":370329,"DIS_CODE":0,"TOWNNAME":"北區","LI":"開元里","LIN":"12鄰","STREET":"北園街","SECT":" ","MAREA":" ","LANE":"８７巷","ALLEY":" ","HOUSE_NO":"１９５號","E_COORD97":170158.95000000001,"N_COORD97":2546054.7400000002,"ADDRESS":"北園街８７巷１９５號","OBJECTID":370319},"geometry":{"x":170158.95000000112,"y":2546054.7400000021}},{"attributes":{"ID":370330,"DIS_CODE":0,"TOWNNAME":"北區","LI":"開元里","LIN":"12鄰","STREET":"北園街","SECT":" ","MAREA":" ","LANE":"８７巷","ALLEY":" ","HOUSE_NO":"１８１號","E_COORD97":170158.85999999999,"N_COORD97":2546020.7200000002,"ADDRESS":"北園街８７巷１８１號","OBJECTID":370320},"geometry":{"x":170158.8599999994,"y":2546020.7200000025}},{"attributes":{"ID":370331,"DIS_CODE":0,"TOWNNAME":"北區","LI":"開元里","LIN":"12鄰","STREET":"北園街","SECT":" ","MAREA":" ","LANE":"８７巷","ALLEY":" ","HOUSE_NO":"１８３號","E_COORD97":170157.89000000001,"N_COORD97":2546025.8100000001,"ADDRESS":"北園街８７巷１８３號","OBJECTID":370321},"geometry":{"x":170157.88999999966,"y":2546025.8100000005}},{"attributes":{"ID":370332,"DIS_CODE":0,"TOWNNAME":"北區","LI":"裕民里","LIN":"12鄰","STREET":"臨安路","SECT":"二段","MAREA":" ","LANE":"１４３巷","ALLEY":" ","HOUSE_NO":"１１號","E_COORD97":167748.37,"N_COORD97":2544887.6499999999,"ADDRESS":"臨安路二段１４３巷１１號","OBJECTID":370322},"geometry":{"x":167748.37000000104,"y":2544887.6500000004}},{"attributes":{"ID":370333,"DIS_CODE":0,"TOWNNAME":"北區","LI":"裕民里","LIN":"12鄰","STREET":"臨安路","SECT":"二段","MAREA":" ","LANE":"１４３巷","ALLEY":" ","HOUSE_NO":"１３號","E_COORD97":167742.82999999999,"N_COORD97":2544886.54,"ADDRESS":"臨安路二段１４３巷１３號","OBJECTID":370323},"geometry":{"x":167742.83000000007,"y":2544886.5399999991}},{"attributes":{"ID":370334,"DIS_CODE":0,"TOWNNAME":"北區","LI":"裕民里","LIN":"12鄰","STREET":"臨安路","SECT":"二段","MAREA":" ","LANE":"１４３巷","ALLEY":" ","HOUSE_NO":"１５號","E_COORD97":167738.39999999999,"N_COORD97":2544886.1699999999,"ADDRESS":"臨安路二段１４３巷１５號","OBJECTID":370324},"geometry":{"x":167738.4000000013,"y":2544886.1699999999}},{"attributes":{"ID":370335,"DIS_CODE":0,"TOWNNAME":"北區","LI":"裕民里","LIN":"12鄰","STREET":"臨安路","SECT":"二段","MAREA":" ","LANE":"１４３巷","ALLEY":" ","HOUSE_NO":"１７號","E_COORD97":167733.22,"N_COORD97":2544885.4300000002,"ADDRESS":"臨安路二段１４３巷１７號","OBJECTID":370325},"geometry":{"x":167733.21999999974,"y":2544885.4300000034}},{"attributes":{"ID":370336,"DIS_CODE":0,"TOWNNAME":"北區","LI":"裕民里","LIN":"12鄰","STREET":"臨安路","SECT":"二段","MAREA":" ","LANE":"１４３巷","ALLEY":" ","HOUSE_NO":"１９號","E_COORD97":167728.42000000001,"N_COORD97":2544885.7999999998,"ADDRESS":"臨安路二段１４３巷１９號","OBJECTID":370326},"geometry":{"x":167728.41999999993,"y":2544885.8000000026}},{"attributes":{"ID":370337,"DIS_CODE":0,"TOWNNAME":"北區","LI":"裕民里","LIN":"12鄰","STREET":"臨安路","SECT":"二段","MAREA":" ","LANE":"１４３巷","ALLEY":" ","HOUSE_NO":"２１號","E_COORD97":167725.10000000001,"N_COORD97":2544885.4300000002,"ADDRESS":"臨安路二段１４３巷２１號","OBJECTID":370327},"geometry":{"x":167725.09999999963,"y":2544885.4300000034}},{"attributes":{"ID":370338,"DIS_CODE":0,"TOWNNAME":"北區","LI":"裕民里","LIN":"12鄰","STREET":"臨安路","SECT":"二段","MAREA":" ","LANE":"１４３巷","ALLEY":" ","HOUSE_NO":"５號","E_COORD97":167760.56,"N_COORD97":2544886.1699999999,"ADDRESS":"臨安路二段１４３巷５號","OBJECTID":370328},"geometry":{"x":167760.56000000052,"y":2544886.1699999999}},{"attributes":{"ID":370339,"DIS_CODE":0,"TOWNNAME":"北區","LI":"裕民里","LIN":"12鄰","STREET":"臨安路","SECT":"二段","MAREA":" ","LANE":"１４３巷","ALLEY":" ","HOUSE_NO":"７號","E_COORD97":167760.56,"N_COORD97":2544890.23,"ADDRESS":"臨安路二段１４３巷７號","OBJECTID":370329},"geometry":{"x":167760.56000000052,"y":2544890.2300000004}},{"attributes":{"ID":370340,"DIS_CODE":0,"TOWNNAME":"北區","LI":"裕民里","LIN":"12鄰","STREET":"臨安路","SECT":"二段","MAREA":" ","LANE":"９１巷","ALLEY":" ","HOUSE_NO":"１０號","E_COORD97":167656.38,"N_COORD97":2544889.8599999999,"ADDRESS":"臨安路二段９１巷１０號","OBJECTID":370330},"geometry":{"x":167656.38000000175,"y":2544889.8600000013}},{"attributes":{"ID":370341,"DIS_CODE":0,"TOWNNAME":"北區","LI":"裕民里","LIN":"12鄰","STREET":"臨安路","SECT":"二段","MAREA":" ","LANE":"９１巷","ALLEY":" ","HOUSE_NO":"１２號","E_COORD97":167652.31,"N_COORD97":2544891.3399999999,"ADDRESS":"臨安路二段９１巷１２號","OBJECTID":370331},"geometry":{"x":167652.30999999959,"y":2544891.3400000017}},{"attributes":{"ID":370342,"DIS_CODE":0,"TOWNNAME":"北區","LI":"裕民里","LIN":"12鄰","STREET":"臨安路","SECT":"二段","MAREA":" ","LANE":"９１巷","ALLEY":" ","HOUSE_NO":"１４號","E_COORD97":167648.98999999999,"N_COORD97":2544892.8100000001,"ADDRESS":"臨安路二段９１巷１４號","OBJECTID":370332},"geometry":{"x":167648.98999999929,"y":2544892.8100000005}},{"attributes":{"ID":370343,"DIS_CODE":0,"TOWNNAME":"北區","LI":"裕民里","LIN":"12鄰","STREET":"臨安路","SECT":"二段","MAREA":" ","LANE":"９１巷","ALLEY":" ","HOUSE_NO":"１６號","E_COORD97":167645.66,"N_COORD97":2544893.9199999999,"ADDRESS":"臨安路二段９１巷１６號","OBJECTID":370333},"geometry":{"x":167645.66000000015,"y":2544893.9200000018}},{"attributes":{"ID":370344,"DIS_CODE":0,"TOWNNAME":"北區","LI":"裕民里","LIN":"12鄰","STREET":"臨安路","SECT":"二段","MAREA":" ","LANE":"９１巷","ALLEY":" ","HOUSE_NO":"１８號","E_COORD97":167641.23000000001,"N_COORD97":2544895.3999999999,"ADDRESS":"臨安路二段９１巷１８號","OBJECTID":370334},"geometry":{"x":167641.23000000138,"y":2544895.4000000004}},{"attributes":{"ID":370345,"DIS_CODE":0,"TOWNNAME":"北區","LI":"裕民里","LIN":"12鄰","STREET":"臨安路","SECT":"二段","MAREA":" ","LANE":"９１巷","ALLEY":" ","HOUSE_NO":"２０號","E_COORD97":167636.79999999999,"N_COORD97":2544897.2400000002,"ADDRESS":"臨安路二段９１巷２０號","OBJECTID":370335},"geometry":{"x":167636.80000000075,"y":2544897.2400000002}},{"attributes":{"ID":370346,"DIS_CODE":0,"TOWNNAME":"北區","LI":"裕民里","LIN":"12鄰","STREET":"臨安路","SECT":"二段","MAREA":" ","LANE":"９１巷","ALLEY":" ","HOUSE_NO":"２２號","E_COORD97":167632.35999999999,"N_COORD97":2544898.3500000001,"ADDRESS":"臨安路二段９１巷２２號","OBJECTID":370336},"geometry":{"x":167632.36000000034,"y":2544898.3499999996}},{"attributes":{"ID":370347,"DIS_CODE":0,"TOWNNAME":"北區","LI":"裕民里","LIN":"12鄰","STREET":"臨安路","SECT":"二段","MAREA":" ","LANE":"９１巷","ALLEY":" ","HOUSE_NO":"２４號","E_COORD97":167628,"N_COORD97":2544898.8500000001,"ADDRESS":"臨安路二段９１巷２４號","OBJECTID":370337},"geometry":{"x":167628,"y":2544898.8499999996}},{"attributes":{"ID":370348,"DIS_CODE":0,"TOWNNAME":"北區","LI":"裕民里","LIN":"12鄰","STREET":"臨安路","SECT":"二段","MAREA":" ","LANE":"９１巷","ALLEY":" ","HOUSE_NO":"２６號","E_COORD97":167624.39000000001,"N_COORD97":2544900.79,"ADDRESS":"臨安路二段９１巷２６號","OBJECTID":370338},"geometry":{"x":167624.3900000006,"y":2544900.790000001}},{"attributes":{"ID":370349,"DIS_CODE":0,"TOWNNAME":"北區","LI":"裕民里","LIN":"12鄰","STREET":"臨安路","SECT":"二段","MAREA":" ","LANE":"９１巷","ALLEY":" ","HOUSE_NO":"２８號","E_COORD97":167620.5,"N_COORD97":2544902.1600000001,"ADDRESS":"臨安路二段９１巷２８號","OBJECTID":370339},"geometry":{"x":167620.50000000093,"y":2544902.160000002}},{"attributes":{"ID":370350,"DIS_CODE":0,"TOWNNAME":"北區","LI":"裕民里","LIN":"12鄰","STREET":"臨安路","SECT":"二段","MAREA":" ","LANE":"９１巷","ALLEY":" ","HOUSE_NO":"２號","E_COORD97":167672.63,"N_COORD97":2544883.96,"ADDRESS":"臨安路二段９１巷２號","OBJECTID":370340},"geometry":{"x":167672.62999999989,"y":2544883.9600000028}},{"attributes":{"ID":370351,"DIS_CODE":0,"TOWNNAME":"北區","LI":"裕民里","LIN":"12鄰","STREET":"臨安路","SECT":"二段","MAREA":" ","LANE":"９１巷","ALLEY":" ","HOUSE_NO":"３０號","E_COORD97":167616.26999999999,"N_COORD97":2544903.2000000002,"ADDRESS":"臨安路二段９１巷３０號","OBJECTID":370341},"geometry":{"x":167616.27000000048,"y":2544903.1999999993}},{"attributes":{"ID":370352,"DIS_CODE":0,"TOWNNAME":"北區","LI":"裕民里","LIN":"12鄰","STREET":"臨安路","SECT":"二段","MAREA":" ","LANE":"９１巷","ALLEY":" ","HOUSE_NO":"３２號","E_COORD97":167612.16,"N_COORD97":2544903.8399999999,"ADDRESS":"臨安路二段９１巷３２號","OBJECTID":370342},"geometry":{"x":167612.15999999922,"y":2544903.8400000017}},{"attributes":{"ID":370353,"DIS_CODE":0,"TOWNNAME":"北區","LI":"裕民里","LIN":"12鄰","STREET":"臨安路","SECT":"二段","MAREA":" ","LANE":"９１巷","ALLEY":" ","HOUSE_NO":"３４號","E_COORD97":167606.97,"N_COORD97":2544904.0600000001,"ADDRESS":"臨安路二段９１巷３４號","OBJECTID":370343},"geometry":{"x":167606.97000000067,"y":2544904.0600000024}},{"attributes":{"ID":370354,"DIS_CODE":0,"TOWNNAME":"北區","LI":"裕民里","LIN":"12鄰","STREET":"臨安路","SECT":"二段","MAREA":" ","LANE":"９１巷","ALLEY":" ","HOUSE_NO":"３６號","E_COORD97":167603.29000000001,"N_COORD97":2544905.3599999999,"ADDRESS":"臨安路二段９１巷３６號","OBJECTID":370344},"geometry":{"x":167603.29000000097,"y":2544905.3599999994}},{"attributes":{"ID":370355,"DIS_CODE":0,"TOWNNAME":"北區","LI":"裕民里","LIN":"12鄰","STREET":"臨安路","SECT":"二段","MAREA":" ","LANE":"９１巷","ALLEY":" ","HOUSE_NO":"３８號","E_COORD97":167598.95999999999,"N_COORD97":2544906,"ADDRESS":"臨安路二段９１巷３８號","OBJECTID":370345},"geometry":{"x":167598.96000000089,"y":2544906.0000000037}},{"attributes":{"ID":370356,"DIS_CODE":0,"TOWNNAME":"北區","LI":"裕民里","LIN":"12鄰","STREET":"臨安路","SECT":"二段","MAREA":" ","LANE":"９１巷","ALLEY":" ","HOUSE_NO":"４０號","E_COORD97":167595.07000000001,"N_COORD97":2544906.6499999999,"ADDRESS":"臨安路二段９１巷４０號","OBJECTID":370346},"geometry":{"x":167595.07000000123,"y":2544906.6500000022}},{"attributes":{"ID":370357,"DIS_CODE":0,"TOWNNAME":"北區","LI":"裕民里","LIN":"12鄰","STREET":"臨安路","SECT":"二段","MAREA":" ","LANE":"９１巷","ALLEY":" ","HOUSE_NO":"４２之１號","E_COORD97":167586,"N_COORD97":2544910.0800000001,"ADDRESS":"臨安路二段９１巷４２之１號","OBJECTID":370347},"geometry":{"x":167585.99999999907,"y":2544910.0800000019}},{"attributes":{"ID":370358,"DIS_CODE":0,"TOWNNAME":"北區","LI":"裕民里","LIN":"12鄰","STREET":"臨安路","SECT":"二段","MAREA":" ","LANE":"９１巷","ALLEY":" ","HOUSE_NO":"４２號","E_COORD97":167591.17000000001,"N_COORD97":2544909.25,"ADDRESS":"臨安路二段９１巷４２號","OBJECTID":370348},"geometry":{"x":167591.16999999993,"y":2544909.25}},{"attributes":{"ID":370359,"DIS_CODE":0,"TOWNNAME":"北區","LI":"裕民里","LIN":"12鄰","STREET":"臨安路","SECT":"二段","MAREA":" ","LANE":"９１巷","ALLEY":" ","HOUSE_NO":"４６號","E_COORD97":167581.98999999999,"N_COORD97":2544911.0800000001,"ADDRESS":"臨安路二段９１巷４６號","OBJECTID":370349},"geometry":{"x":167581.99000000115,"y":2544911.0800000001}},{"attributes":{"ID":370360,"DIS_CODE":0,"TOWNNAME":"北區","LI":"裕民里","LIN":"12鄰","STREET":"臨安路","SECT":"二段","MAREA":" ","LANE":"９１巷","ALLEY":" ","HOUSE_NO":"４８號","E_COORD97":167576.79000000001,"N_COORD97":2544911.48,"ADDRESS":"臨安路二段９１巷４８號","OBJECTID":370350},"geometry":{"x":167576.79000000004,"y":2544911.4800000004}},{"attributes":{"ID":370361,"DIS_CODE":0,"TOWNNAME":"北區","LI":"裕民里","LIN":"12鄰","STREET":"臨安路","SECT":"二段","MAREA":" ","LANE":"９１巷","ALLEY":" ","HOUSE_NO":"４號","E_COORD97":167668.57000000001,"N_COORD97":2544886.9100000001,"ADDRESS":"臨安路二段９１巷４號","OBJECTID":370351},"geometry":{"x":167668.5700000003,"y":2544886.910000002}},{"attributes":{"ID":370362,"DIS_CODE":0,"TOWNNAME":"北區","LI":"裕民里","LIN":"12鄰","STREET":"臨安路","SECT":"二段","MAREA":" ","LANE":"９１巷","ALLEY":" ","HOUSE_NO":"５０號","E_COORD97":167572.98999999999,"N_COORD97":2544913.48,"ADDRESS":"臨安路二段９１巷５０號","OBJECTID":370352},"geometry":{"x":167572.99000000115,"y":2544913.4800000023}},{"attributes":{"ID":370363,"DIS_CODE":0,"TOWNNAME":"北區","LI":"裕民里","LIN":"12鄰","STREET":"臨安路","SECT":"二段","MAREA":" ","LANE":"９１巷","ALLEY":" ","HOUSE_NO":"５２號","E_COORD97":167568.17999999999,"N_COORD97":2544914.8799999999,"ADDRESS":"臨安路二段９１巷５２號","OBJECTID":370353},"geometry":{"x":167568.18000000063,"y":2544914.879999999}},{"attributes":{"ID":370364,"DIS_CODE":0,"TOWNNAME":"北區","LI":"裕民里","LIN":"12鄰","STREET":"臨安路","SECT":"二段","MAREA":" ","LANE":"９１巷","ALLEY":" ","HOUSE_NO":"５４號","E_COORD97":167563.78,"N_COORD97":2544914.6800000002,"ADDRESS":"臨安路二段９１巷５４號","OBJECTID":370354},"geometry":{"x":167563.78000000026,"y":2544914.6800000016}},{"attributes":{"ID":370365,"DIS_CODE":0,"TOWNNAME":"北區","LI":"裕民里","LIN":"12鄰","STREET":"臨安路","SECT":"二段","MAREA":" ","LANE":"９１巷","ALLEY":" ","HOUSE_NO":"５６號","E_COORD97":167559.57000000001,"N_COORD97":2544916.0800000001,"ADDRESS":"臨安路二段９１巷５６號","OBJECTID":370355},"geometry":{"x":167559.57000000123,"y":2544916.0800000019}},{"attributes":{"ID":370366,"DIS_CODE":0,"TOWNNAME":"北區","LI":"裕民里","LIN":"12鄰","STREET":"臨安路","SECT":"二段","MAREA":" ","LANE":"９１巷","ALLEY":" ","HOUSE_NO":"５８號","E_COORD97":167553.97,"N_COORD97":2544915.6800000002,"ADDRESS":"臨安路二段９１巷５８號","OBJECTID":370356},"geometry":{"x":167553.97000000067,"y":2544915.6800000016}},{"attributes":{"ID":370367,"DIS_CODE":0,"TOWNNAME":"北區","LI":"裕民里","LIN":"12鄰","STREET":"臨安路","SECT":"二段","MAREA":" ","LANE":"９１巷","ALLEY":" ","HOUSE_NO":"６０號","E_COORD97":167547.16,"N_COORD97":2544915.2799999998,"ADDRESS":"臨安路二段９１巷６０號","OBJECTID":370357},"geometry":{"x":167547.16000000015,"y":2544915.2799999993}},{"attributes":{"ID":370368,"DIS_CODE":0,"TOWNNAME":"北區","LI":"裕民里","LIN":"12鄰","STREET":"臨安路","SECT":"二段","MAREA":" ","LANE":"９１巷","ALLEY":" ","HOUSE_NO":"６２號","E_COORD97":167541.76000000001,"N_COORD97":2544915.6800000002,"ADDRESS":"臨安路二段９１巷６２號","OBJECTID":370358},"geometry":{"x":167541.76000000164,"y":2544915.6800000016}},{"attributes":{"ID":370369,"DIS_CODE":0,"TOWNNAME":"北區","LI":"裕民里","LIN":"12鄰","STREET":"臨安路","SECT":"二段","MAREA":" ","LANE":"９１巷","ALLEY":" ","HOUSE_NO":"６４號","E_COORD97":167537.35999999999,"N_COORD97":2544916.0800000001,"ADDRESS":"臨安路二段９１巷６４號","OBJECTID":370359},"geometry":{"x":167537.36000000127,"y":2544916.0800000019}},{"attributes":{"ID":370370,"DIS_CODE":0,"TOWNNAME":"北區","LI":"裕民里","LIN":"12鄰","STREET":"臨安路","SECT":"二段","MAREA":" ","LANE":"９１巷","ALLEY":" ","HOUSE_NO":"６４號之２","E_COORD97":167535.44,"N_COORD97":2544916.6099999999,"ADDRESS":"臨安路二段９１巷６４號之２","OBJECTID":370360},"geometry":{"x":167535.44000000041,"y":2544916.6099999994}},{"attributes":{"ID":370371,"DIS_CODE":0,"TOWNNAME":"北區","LI":"裕民里","LIN":"12鄰","STREET":"臨安路","SECT":"二段","MAREA":" ","LANE":"９１巷","ALLEY":" ","HOUSE_NO":"６號","E_COORD97":167664.5,"N_COORD97":2544888.02,"ADDRESS":"臨安路二段９１巷６號","OBJECTID":370361},"geometry":{"x":167664.50000000093,"y":2544888.0199999977}},{"attributes":{"ID":370372,"DIS_CODE":0,"TOWNNAME":"南區","LI":"建南里","LIN":"12鄰","STREET":"中華南路","SECT":"二段","MAREA":" ","LANE":"１７７巷","ALLEY":" ","HOUSE_NO":"７１號","E_COORD97":167101.29999999999,"N_COORD97":2540056.6699999999,"ADDRESS":"中華南路二段１７７巷７１號","OBJECTID":370362},"geometry":{"x":167101.30000000075,"y":2540056.6700000018}},{"attributes":{"ID":370373,"DIS_CODE":0,"TOWNNAME":"南區","LI":"建南里","LIN":"12鄰","STREET":"中華南路","SECT":"二段","MAREA":" ","LANE":"１７７巷","ALLEY":" ","HOUSE_NO":"７３號","E_COORD97":167107.17999999999,"N_COORD97":2540056.2000000002,"ADDRESS":"中華南路二段１７７巷７３號","OBJECTID":370363},"geometry":{"x":167107.18000000063,"y":2540056.2000000011}},{"attributes":{"ID":370374,"DIS_CODE":0,"TOWNNAME":"南區","LI":"建南里","LIN":"12鄰","STREET":"中華南路","SECT":"二段","MAREA":" ","LANE":"１７７巷","ALLEY":" ","HOUSE_NO":"８１號","E_COORD97":167112.59,"N_COORD97":2540040.23,"ADDRESS":"中華南路二段１７７巷８１號","OBJECTID":370364},"geometry":{"x":167112.59000000078,"y":2540040.2300000023}},{"attributes":{"ID":370375,"DIS_CODE":0,"TOWNNAME":"南區","LI":"建南里","LIN":"12鄰","STREET":"中華南路","SECT":"二段","MAREA":" ","LANE":"１７７巷","ALLEY":" ","HOUSE_NO":"８３號","E_COORD97":167107.17999999999,"N_COORD97":2540040,"ADDRESS":"中華南路二段１７７巷８３號","OBJECTID":370365},"geometry":{"x":167107.18000000063,"y":2540040}},{"attributes":{"ID":370376,"DIS_CODE":0,"TOWNNAME":"南區","LI":"建南里","LIN":"12鄰","STREET":"中華南路","SECT":"二段","MAREA":" ","LANE":"１７７巷","ALLEY":" ","HOUSE_NO":"８５號","E_COORD97":167102.01000000001,"N_COORD97":2540040.4700000002,"ADDRESS":"中華南路二段１７７巷８５號","OBJECTID":370366},"geometry":{"x":167102.00999999978,"y":2540040.4700000007}},{"attributes":{"ID":370377,"DIS_CODE":0,"TOWNNAME":"南區","LI":"建南里","LIN":"12鄰","STREET":"德興路","SECT":" ","MAREA":" ","LANE":"２７４巷","ALLEY":" ","HOUSE_NO":"２號","E_COORD97":167117.53,"N_COORD97":2540029.2000000002,"ADDRESS":"德興路２７４巷２號","OBJECTID":370367},"geometry":{"x":167117.53000000026,"y":2540029.2000000011}},{"attributes":{"ID":370378,"DIS_CODE":0,"TOWNNAME":"南區","LI":"建南里","LIN":"12鄰","STREET":"德興路","SECT":" ","MAREA":" ","LANE":"２７４巷","ALLEY":" ","HOUSE_NO":"４號","E_COORD97":167109.76999999999,"N_COORD97":2540028.73,"ADDRESS":"德興路２７４巷４號","OBJECTID":370368},"geometry":{"x":167109.77000000048,"y":2540028.7300000004}},{"attributes":{"ID":370379,"DIS_CODE":0,"TOWNNAME":"南區","LI":"建南里","LIN":"12鄰","STREET":"德興路","SECT":" ","MAREA":" ","LANE":"２７４巷","ALLEY":" ","HOUSE_NO":"６號","E_COORD97":167106.48000000001,"N_COORD97":2540029.8999999999,"ADDRESS":"德興路２７４巷６號","OBJECTID":370369},"geometry":{"x":167106.48000000045,"y":2540029.9000000004}},{"attributes":{"ID":370380,"DIS_CODE":0,"TOWNNAME":"南區","LI":"建南里","LIN":"12鄰","STREET":"德興路","SECT":" ","MAREA":" ","LANE":"２７４巷","ALLEY":" ","HOUSE_NO":"８號","E_COORD97":167100.35999999999,"N_COORD97":2540029.4300000002,"ADDRESS":"德興路２７４巷８號","OBJECTID":370370},"geometry":{"x":167100.36000000034,"y":2540029.4299999997}},{"attributes":{"ID":370381,"DIS_CODE":0,"TOWNNAME":"南區","LI":"建南里","LIN":"12鄰","STREET":"中華南路","SECT":"二段","MAREA":" ","LANE":"１７７巷","ALLEY":" ","HOUSE_NO":"７５號","E_COORD97":167112.12,"N_COORD97":2540055.73,"ADDRESS":"中華南路二段１７７巷７５號","OBJECTID":370371},"geometry":{"x":167112.12000000011,"y":2540055.7300000004}},{"attributes":{"ID":370382,"DIS_CODE":0,"TOWNNAME":"南區","LI":"建南里","LIN":"12鄰","STREET":"中華南路","SECT":"二段","MAREA":" ","LANE":"１７７巷","ALLEY":" ","HOUSE_NO":"７９號","E_COORD97":167118.47,"N_COORD97":2540040.4700000002,"ADDRESS":"中華南路二段１７７巷７９號","OBJECTID":370372},"geometry":{"x":167118.47000000067,"y":2540040.4700000007}},{"attributes":{"ID":370383,"DIS_CODE":0,"TOWNNAME":"南區","LI":"大林里","LIN":"12鄰","STREET":"國民路","SECT":" ","MAREA":" ","LANE":"６０９巷","ALLEY":" ","HOUSE_NO":"６號之２","E_COORD97":168438.73999999999,"N_COORD97":2541631.48,"ADDRESS":"國民路６０９巷６號之２","OBJECTID":370373},"geometry":{"x":168438.74000000022,"y":2541631.4800000042}},{"attributes":{"ID":370384,"DIS_CODE":0,"TOWNNAME":"南區","LI":"大林里","LIN":"12鄰","STREET":"國民路","SECT":" ","MAREA":" ","LANE":"６０９巷","ALLEY":" ","HOUSE_NO":"６號之３","E_COORD97":168431.66,"N_COORD97":2541629.6099999999,"ADDRESS":"國民路６０９巷６號之３","OBJECTID":370374},"geometry":{"x":168431.66000000108,"y":2541629.6100000013}},{"attributes":{"ID":370385,"DIS_CODE":0,"TOWNNAME":"南區","LI":"大林里","LIN":"12鄰","STREET":"國民路","SECT":" ","MAREA":" ","LANE":"６０９巷","ALLEY":" ","HOUSE_NO":"６號之４","E_COORD97":168422.13,"N_COORD97":2541627.8399999999,"ADDRESS":"國民路６０９巷６號之４","OBJECTID":370375},"geometry":{"x":168422.12999999989,"y":2541627.8399999999}},{"attributes":{"ID":370386,"DIS_CODE":0,"TOWNNAME":"安平區","LI":"西門里","LIN":"12鄰","STREET":"安北路","SECT":" ","MAREA":" ","LANE":"１９６巷","ALLEY":" ","HOUSE_NO":"１０號","E_COORD97":163696.70000000001,"N_COORD97":2544839.0600000001,"ADDRESS":"安北路１９６巷１０號","OBJECTID":370376},"geometry":{"x":163696.70000000112,"y":2544839.0600000024}},{"attributes":{"ID":370387,"DIS_CODE":0,"TOWNNAME":"安平區","LI":"西門里","LIN":"12鄰","STREET":"安北路","SECT":" ","MAREA":" ","LANE":"１９６巷","ALLEY":" ","HOUSE_NO":"８號","E_COORD97":163701.69,"N_COORD97":2544828.0299999998,"ADDRESS":"安北路１９６巷８號","OBJECTID":370377},"geometry":{"x":163701.69000000134,"y":2544828.0300000012}},{"attributes":{"ID":370388,"DIS_CODE":0,"TOWNNAME":"安平區","LI":"西門里","LIN":"12鄰","STREET":"安北路","SECT":" ","MAREA":" ","LANE":"１９６巷","ALLEY":" ","HOUSE_NO":"９號","E_COORD97":163698.82000000001,"N_COORD97":2544832.6000000001,"ADDRESS":"安北路１９６巷９號","OBJECTID":370378},"geometry":{"x":163698.82000000216,"y":2544832.5999999996}},{"attributes":{"ID":370389,"DIS_CODE":0,"TOWNNAME":"安平區","LI":"港仔里","LIN":"12鄰","STREET":"延平街","SECT":" ","MAREA":" ","LANE":"２１巷","ALLEY":" ","HOUSE_NO":"２號","E_COORD97":164280.57999999999,"N_COORD97":2544551.8399999999,"ADDRESS":"延平街２１巷２號","OBJECTID":370379},"geometry":{"x":164280.58000000101,"y":2544551.8400000017}},{"attributes":{"ID":370390,"DIS_CODE":0,"TOWNNAME":"安平區","LI":"港仔里","LIN":"12鄰","STREET":"延平街","SECT":" ","MAREA":" ","LANE":"２１巷","ALLEY":" ","HOUSE_NO":"６號","E_COORD97":164279.44,"N_COORD97":2544541.3199999998,"ADDRESS":"延平街２１巷６號","OBJECTID":370380},"geometry":{"x":164279.44000000041,"y":2544541.320000004}},{"attributes":{"ID":370391,"DIS_CODE":0,"TOWNNAME":"安平區","LI":"港仔里","LIN":"12鄰","STREET":"延平街","SECT":" ","MAREA":" ","LANE":"２１巷","ALLEY":" ","HOUSE_NO":"１０號","E_COORD97":164277.28,"N_COORD97":2544532.5800000001,"ADDRESS":"延平街２１巷１０號","OBJECTID":370381},"geometry":{"x":164277.28000000212,"y":2544532.5800000038}},{"attributes":{"ID":370392,"DIS_CODE":0,"TOWNNAME":"安平區","LI":"港仔里","LIN":"12鄰","STREET":"延平街","SECT":" ","MAREA":" ","LANE":"２１巷","ALLEY":" ","HOUSE_NO":"１２號","E_COORD97":164275.12,"N_COORD97":2544530.04,"ADDRESS":"延平街２１巷１２號","OBJECTID":370382},"geometry":{"x":164275.12000000104,"y":2544530.0399999991}},{"attributes":{"ID":370393,"DIS_CODE":0,"TOWNNAME":"安平區","LI":"港仔里","LIN":"12鄰","STREET":"延平街","SECT":" ","MAREA":" ","LANE":"２１巷","ALLEY":" ","HOUSE_NO":"１４號","E_COORD97":164275.88,"N_COORD97":2544525.2200000002,"ADDRESS":"延平街２１巷１４號","OBJECTID":370383},"geometry":{"x":164275.87999999989,"y":2544525.2200000044}},{"attributes":{"ID":370394,"DIS_CODE":0,"TOWNNAME":"安平區","LI":"港仔里","LIN":"12鄰","STREET":"延平街","SECT":" ","MAREA":" ","LANE":"２１巷","ALLEY":" ","HOUSE_NO":"８號","E_COORD97":164277.41,"N_COORD97":2544536.8900000001,"ADDRESS":"延平街２１巷８號","OBJECTID":370384},"geometry":{"x":164277.41000000015,"y":2544536.8900000006}},{"attributes":{"ID":370395,"DIS_CODE":0,"TOWNNAME":"安平區","LI":"文平里","LIN":"12鄰","STREET":"永華四街","SECT":" ","MAREA":" ","LANE":"１７巷","ALLEY":" ","HOUSE_NO":"４６號","E_COORD97":165810.59,"N_COORD97":2543211.0699999998,"ADDRESS":"永華四街１７巷４６號","OBJECTID":370385},"geometry":{"x":165810.59000000078,"y":2543211.0700000022}},{"attributes":{"ID":370396,"DIS_CODE":0,"TOWNNAME":"安平區","LI":"文平里","LIN":"12鄰","STREET":"永華四街","SECT":" ","MAREA":" ","LANE":"１７巷","ALLEY":" ","HOUSE_NO":"２７號","E_COORD97":165846.92999999999,"N_COORD97":2543183.8900000001,"ADDRESS":"永華四街１７巷２７號","OBJECTID":370386},"geometry":{"x":165846.93000000156,"y":2543183.8900000006}},{"attributes":{"ID":370397,"DIS_CODE":0,"TOWNNAME":"安平區","LI":"文平里","LIN":"12鄰","STREET":"永華四街","SECT":" ","MAREA":" ","LANE":"１７巷","ALLEY":" ","HOUSE_NO":"２９號","E_COORD97":165842.28,"N_COORD97":2543186.6000000001,"ADDRESS":"永華四街１７巷２９號","OBJECTID":370387},"geometry":{"x":165842.28000000119,"y":2543186.6000000015}},{"attributes":{"ID":370398,"DIS_CODE":0,"TOWNNAME":"安平區","LI":"文平里","LIN":"12鄰","STREET":"永華四街","SECT":" ","MAREA":" ","LANE":"１７巷","ALLEY":" ","HOUSE_NO":"３１號","E_COORD97":165838.01999999999,"N_COORD97":2543188.1499999999,"ADDRESS":"永華四街１７巷３１號","OBJECTID":370388},"geometry":{"x":165838.02000000048,"y":2543188.1500000004}},{"attributes":{"ID":370399,"DIS_CODE":0,"TOWNNAME":"安平區","LI":"文平里","LIN":"12鄰","STREET":"永華四街","SECT":" ","MAREA":" ","LANE":"１７巷","ALLEY":" ","HOUSE_NO":"３３號","E_COORD97":165829.89999999999,"N_COORD97":2543189.8199999998,"ADDRESS":"永華四街１７巷３３號","OBJECTID":370389},"geometry":{"x":165829.9000000013,"y":2543189.8200000022}},{"attributes":{"ID":370400,"DIS_CODE":0,"TOWNNAME":"鹽水區","LI":"武廟里","LIN":"12鄰","STREET":"武廟路","SECT":" ","MAREA":" ","LANE":"７０巷","ALLEY":" ","HOUSE_NO":"２６號","E_COORD97":174964.51000000001,"N_COORD97":2580155.27,"ADDRESS":"武廟路７０巷２６號","OBJECTID":370390},"geometry":{"x":174964.50999999978,"y":2580155.2699999996}},{"attributes":{"ID":370401,"DIS_CODE":0,"TOWNNAME":"鹽水區","LI":"武廟里","LIN":"12鄰","STREET":"武廟路","SECT":" ","MAREA":" ","LANE":"７０巷","ALLEY":" ","HOUSE_NO":"２７號","E_COORD97":174975.59,"N_COORD97":2580154.4300000002,"ADDRESS":"武廟路７０巷２７號","OBJECTID":370391},"geometry":{"x":174975.58999999985,"y":2580154.4299999997}},{"attributes":{"ID":370402,"DIS_CODE":0,"TOWNNAME":"鹽水區","LI":"武廟里","LIN":"12鄰","STREET":"武廟路","SECT":" ","MAREA":" ","LANE":"７０巷","ALLEY":" ","HOUSE_NO":"２８號","E_COORD97":174979.12,"N_COORD97":2580145.7000000002,"ADDRESS":"武廟路７０巷２８號","OBJECTID":370392},"geometry":{"x":174979.12000000011,"y":2580145.6999999993}},{"attributes":{"ID":370403,"DIS_CODE":0,"TOWNNAME":"鹽水區","LI":"武廟里","LIN":"12鄰","STREET":"武廟路","SECT":" ","MAREA":" ","LANE":"７０巷","ALLEY":" ","HOUSE_NO":"２９號","E_COORD97":174993,"N_COORD97":2580149.1600000001,"ADDRESS":"武廟路７０巷２９號","OBJECTID":370393},"geometry":{"x":174993.00000000093,"y":2580149.160000002}},{"attributes":{"ID":370404,"DIS_CODE":0,"TOWNNAME":"北區","LI":"成德里","LIN":"12鄰","STREET":"育德二路","SECT":" ","MAREA":" ","LANE":"５１巷","ALLEY":" ","HOUSE_NO":"７８號","E_COORD97":168085.26000000001,"N_COORD97":2545378.0800000001,"ADDRESS":"育德二路５１巷７８號","OBJECTID":370394},"geometry":{"x":168085.25999999978,"y":2545378.0800000019}},{"attributes":{"ID":370405,"DIS_CODE":0,"TOWNNAME":"北區","LI":"成德里","LIN":"12鄰","STREET":"海安路","SECT":"三段","MAREA":" ","LANE":"３３８巷","ALLEY":" ","HOUSE_NO":"８號","E_COORD97":168044.42999999999,"N_COORD97":2545493.0899999999,"ADDRESS":"海安路三段３３８巷８號","OBJECTID":370395},"geometry":{"x":168044.43000000063,"y":2545493.0900000017}},{"attributes":{"ID":370406,"DIS_CODE":0,"TOWNNAME":"北區","LI":"成德里","LIN":"12鄰","STREET":"海安路","SECT":"三段","MAREA":" ","LANE":"３３８巷","ALLEY":" ","HOUSE_NO":"６７號","E_COORD97":168163.64999999999,"N_COORD97":2545519.7599999998,"ADDRESS":"海安路三段３３８巷６７號","OBJECTID":370396},"geometry":{"x":168163.65000000224,"y":2545519.7599999998}},{"attributes":{"ID":370407,"DIS_CODE":0,"TOWNNAME":"北區","LI":"成德里","LIN":"12鄰","STREET":"海安路","SECT":"三段","MAREA":" ","LANE":"３３８巷","ALLEY":" ","HOUSE_NO":"６２號","E_COORD97":168206.67000000001,"N_COORD97":2545495.79,"ADDRESS":"海安路三段３３８巷６２號","OBJECTID":370397},"geometry":{"x":168206.66999999993,"y":2545495.7899999991}},{"attributes":{"ID":370408,"DIS_CODE":0,"TOWNNAME":"北區","LI":"成德里","LIN":"12鄰","STREET":"海安路","SECT":"三段","MAREA":" ","LANE":"３３８巷","ALLEY":" ","HOUSE_NO":"６０號","E_COORD97":168188.89000000001,"N_COORD97":2545494.04,"ADDRESS":"海安路三段３３８巷６０號","OBJECTID":370398},"geometry":{"x":168188.8900000006,"y":2545494.0399999991}},{"attributes":{"ID":370409,"DIS_CODE":0,"TOWNNAME":"北區","LI":"成德里","LIN":"12鄰","STREET":"海安路","SECT":"三段","MAREA":" ","LANE":"３３８巷","ALLEY":" ","HOUSE_NO":"５６之２號","E_COORD97":168140.47,"N_COORD97":2545487.0600000001,"ADDRESS":"海安路三段３３８巷５６之２號","OBJECTID":370399},"geometry":{"x":168140.4700000016,"y":2545487.0600000024}},{"attributes":{"ID":370410,"DIS_CODE":0,"TOWNNAME":"北區","LI":"成德里","LIN":"12鄰","STREET":"海安路","SECT":"三段","MAREA":" ","LANE":"３３８巷","ALLEY":" ","HOUSE_NO":"５６之１號","E_COORD97":168140.31,"N_COORD97":2545492.46,"ADDRESS":"海安路三段３３８巷５６之１號","OBJECTID":370400},"geometry":{"x":168140.31000000052,"y":2545492.4600000009}}]}