{"displayFieldName":"TOWNNAME","fieldAliases":{"ID":"ID","DIS_CODE":"DIS_CODE","TOWNNAME":"TOWNNAME","LI":"LI","LIN":"LIN","STREET":"STREET","SECT":"SECT","MAREA":"MAREA","LANE":"LANE","ALLEY":"ALLEY","HOUSE_NO":"HOUSE_NO","E_COORD97":"E_COORD97","N_COORD97":"N_COORD97","ADDRESS":"ADDRESS","OBJECTID":"OBJECTID"},"geometryType":"esriGeometryPoint","spatialReference":{"wkid":102443,"latestWkid":3826},"fields":[{"name":"ID","type":"esriFieldTypeDouble","alias":"ID"},{"name":"DIS_CODE","type":"esriFieldTypeInteger","alias":"DIS_CODE"},{"name":"TOWNNAME","type":"esriFieldTypeString","alias":"TOWNNAME","length":8},{"name":"LI","type":"esriFieldTypeString","alias":"LI","length":8},{"name":"LIN","type":"esriFieldTypeString","alias":"LIN","length":12},{"name":"STREET","type":"esriFieldTypeString","alias":"STREET","length":20},{"name":"SECT","type":"esriFieldTypeString","alias":"SECT","length":8},{"name":"MAREA","type":"esriFieldTypeString","alias":"MAREA","length":12},{"name":"LANE","type":"esriFieldTypeString","alias":"LANE","length":10},{"name":"ALLEY","type":"esriFieldTypeString","alias":"ALLEY","length":10},{"name":"HOUSE_NO","type":"esriFieldTypeString","alias":"HOUSE_NO","length":20},{"name":"E_COORD97","type":"esriFieldTypeDouble","alias":"E_COORD97"},{"name":"N_COORD97","type":"esriFieldTypeDouble","alias":"N_COORD97"},{"name":"ADDRESS","type":"esriFieldTypeString","alias":"ADDRESS","length":50},{"name":"OBJECTID","type":"esriFieldTypeOID","alias":"OBJECTID"}],"features":[{"attributes":{"ID":154202,"DIS_CODE":0,"TOWNNAME":"楠西區","LI":"照興里","LIN":"12鄰","STREET":" ","SECT":" ","MAREA":"興南","LANE":" ","ALLEY":" ","HOUSE_NO":"３１號","E_COORD97":195578.67000000001,"N_COORD97":2563397.25,"ADDRESS":"興南３１號","OBJECTID":154201},"geometry":{"x":195578.66999999993,"y":2563397.25}},{"attributes":{"ID":154203,"DIS_CODE":0,"TOWNNAME":"北區","LI":"國興里","LIN":"2鄰","STREET":"開元路","SECT":" ","MAREA":" ","LANE":"３４２巷","ALLEY":"７弄","HOUSE_NO":"１０號","E_COORD97":170513.73999999999,"N_COORD97":2545536.0699999998,"ADDRESS":"開元路３４２巷７弄１０號","OBJECTID":154202},"geometry":{"x":170513.74000000022,"y":2545536.070000004}},{"attributes":{"ID":154204,"DIS_CODE":0,"TOWNNAME":"北區","LI":"國興里","LIN":"2鄰","STREET":"開元路","SECT":" ","MAREA":" ","LANE":"３４２巷","ALLEY":"７弄","HOUSE_NO":"１１號","E_COORD97":170510,"N_COORD97":2545548.3500000001,"ADDRESS":"開元路３４２巷７弄１１號","OBJECTID":154203},"geometry":{"x":170510,"y":2545548.3500000015}},{"attributes":{"ID":154205,"DIS_CODE":0,"TOWNNAME":"北區","LI":"國興里","LIN":"2鄰","STREET":"開元路","SECT":" ","MAREA":" ","LANE":"３４２巷","ALLEY":"７弄","HOUSE_NO":"１２號","E_COORD97":170517.57999999999,"N_COORD97":2545538.71,"ADDRESS":"開元路３４２巷７弄１２號","OBJECTID":154204},"geometry":{"x":170517.58000000007,"y":2545538.7100000009}},{"attributes":{"ID":154206,"DIS_CODE":0,"TOWNNAME":"北區","LI":"國興里","LIN":"2鄰","STREET":"開元路","SECT":" ","MAREA":" ","LANE":"３４２巷","ALLEY":"７弄","HOUSE_NO":"１３號","E_COORD97":170513.94,"N_COORD97":2545550.5499999998,"ADDRESS":"開元路３４２巷７弄１３號","OBJECTID":154205},"geometry":{"x":170513.94000000041,"y":2545550.5500000045}},{"attributes":{"ID":154207,"DIS_CODE":0,"TOWNNAME":"北區","LI":"國興里","LIN":"2鄰","STREET":"開元路","SECT":" ","MAREA":" ","LANE":"３４２巷","ALLEY":"７弄","HOUSE_NO":"１４號","E_COORD97":170522.09,"N_COORD97":2545540.3399999999,"ADDRESS":"開元路３４２巷７弄１４號","OBJECTID":154206},"geometry":{"x":170522.09000000078,"y":2545540.3399999999}},{"attributes":{"ID":154208,"DIS_CODE":0,"TOWNNAME":"北區","LI":"國興里","LIN":"2鄰","STREET":"開元路","SECT":" ","MAREA":" ","LANE":"３４２巷","ALLEY":"７弄","HOUSE_NO":"１５號","E_COORD97":170517.48999999999,"N_COORD97":2545552.5699999998,"ADDRESS":"開元路３４２巷７弄１５號","OBJECTID":154207},"geometry":{"x":170517.49000000209,"y":2545552.5700000003}},{"attributes":{"ID":154209,"DIS_CODE":0,"TOWNNAME":"北區","LI":"國興里","LIN":"2鄰","STREET":"開元路","SECT":" ","MAREA":" ","LANE":"３４２巷","ALLEY":"７弄","HOUSE_NO":"１６號","E_COORD97":170526.03,"N_COORD97":2545541.6800000002,"ADDRESS":"開元路３４２巷７弄１６號","OBJECTID":154208},"geometry":{"x":170526.03000000119,"y":2545541.6800000034}},{"attributes":{"ID":154210,"DIS_CODE":0,"TOWNNAME":"北區","LI":"國興里","LIN":"2鄰","STREET":"開元路","SECT":" ","MAREA":" ","LANE":"３４２巷","ALLEY":"７弄","HOUSE_NO":"１７號","E_COORD97":170520.66,"N_COORD97":2545554.8700000001,"ADDRESS":"開元路３４２巷７弄１７號","OBJECTID":154209},"geometry":{"x":170520.66000000015,"y":2545554.870000001}},{"attributes":{"ID":154211,"DIS_CODE":0,"TOWNNAME":"南區","LI":"田寮里","LIN":"2鄰","STREET":"新興路","SECT":" ","MAREA":" ","LANE":"２６７巷","ALLEY":"１５弄","HOUSE_NO":"１３號","E_COORD97":167287.54000000001,"N_COORD97":2541804.4199999999,"ADDRESS":"新興路２６７巷１５弄１３號","OBJECTID":154210},"geometry":{"x":167287.5400000019,"y":2541804.4200000018}},{"attributes":{"ID":154212,"DIS_CODE":0,"TOWNNAME":"南區","LI":"田寮里","LIN":"2鄰","STREET":"新興路","SECT":" ","MAREA":" ","LANE":"２６７巷","ALLEY":"１５弄","HOUSE_NO":"１５號","E_COORD97":167296.26999999999,"N_COORD97":2541802.1800000002,"ADDRESS":"新興路２６７巷１５弄１５號","OBJECTID":154211},"geometry":{"x":167296.27000000048,"y":2541802.1800000034}},{"attributes":{"ID":154213,"DIS_CODE":0,"TOWNNAME":"永康區","LI":"西勢里","LIN":"15鄰","STREET":"西勢路","SECT":" ","MAREA":" ","LANE":" ","ALLEY":" ","HOUSE_NO":"３８號","E_COORD97":176209,"N_COORD97":2546770.21,"ADDRESS":"西勢路３８號","OBJECTID":154212},"geometry":{"x":176209,"y":2546770.2100000046}},{"attributes":{"ID":154214,"DIS_CODE":0,"TOWNNAME":"永康區","LI":"甲頂里","LIN":"15鄰","STREET":"正新街","SECT":" ","MAREA":" ","LANE":" ","ALLEY":" ","HOUSE_NO":"１１號","E_COORD97":170420.20999999999,"N_COORD97":2546627.1099999999,"ADDRESS":"正新街１１號","OBJECTID":154213},"geometry":{"x":170420.20999999996,"y":2546627.1100000013}},{"attributes":{"ID":154215,"DIS_CODE":0,"TOWNNAME":"永康區","LI":"甲頂里","LIN":"15鄰","STREET":"正新街","SECT":" ","MAREA":" ","LANE":" ","ALLEY":" ","HOUSE_NO":"１５號","E_COORD97":170411.64999999999,"N_COORD97":2546633.1099999999,"ADDRESS":"正新街１５號","OBJECTID":154214},"geometry":{"x":170411.6500000013,"y":2546633.1099999994}},{"attributes":{"ID":154216,"DIS_CODE":0,"TOWNNAME":"永康區","LI":"甲頂里","LIN":"15鄰","STREET":"正新街","SECT":" ","MAREA":" ","LANE":" ","ALLEY":" ","HOUSE_NO":"５７號","E_COORD97":170287.91,"N_COORD97":2546720.5,"ADDRESS":"正新街５７號","OBJECTID":154215},"geometry":{"x":170287.91000000108,"y":2546720.5000000019}},{"attributes":{"ID":154217,"DIS_CODE":0,"TOWNNAME":"安定區","LI":"海寮里","LIN":"5鄰","STREET":" ","SECT":" ","MAREA":"海寮","LANE":" ","ALLEY":" ","HOUSE_NO":"５８之３號","E_COORD97":169430.09,"N_COORD97":2555433.2999999998,"ADDRESS":"海寮５８之３號","OBJECTID":154216},"geometry":{"x":169430.09000000078,"y":2555433.3000000026}},{"attributes":{"ID":154218,"DIS_CODE":0,"TOWNNAME":"安定區","LI":"新吉里","LIN":"5鄰","STREET":" ","SECT":" ","MAREA":"新吉","LANE":" ","ALLEY":" ","HOUSE_NO":"４１之３號","E_COORD97":169288.47,"N_COORD97":2554114.2999999998,"ADDRESS":"新吉４１之３號","OBJECTID":154217},"geometry":{"x":169288.47000000067,"y":2554114.3000000026}},{"attributes":{"ID":154219,"DIS_CODE":0,"TOWNNAME":"安定區","LI":"中沙里","LIN":"5鄰","STREET":" ","SECT":" ","MAREA":"沙崙","LANE":" ","ALLEY":" ","HOUSE_NO":"６之１號","E_COORD97":168597.92000000001,"N_COORD97":2552300.2999999998,"ADDRESS":"沙崙６之１號","OBJECTID":154218},"geometry":{"x":168597.91999999993,"y":2552300.3000000026}},{"attributes":{"ID":154220,"DIS_CODE":0,"TOWNNAME":"安定區","LI":"中沙里","LIN":"5鄰","STREET":" ","SECT":" ","MAREA":"沙崙","LANE":" ","ALLEY":" ","HOUSE_NO":"３之１號","E_COORD97":168685.72,"N_COORD97":2552193.2999999998,"ADDRESS":"沙崙３之１號","OBJECTID":154219},"geometry":{"x":168685.71999999974,"y":2552193.3000000007}},{"attributes":{"ID":154221,"DIS_CODE":0,"TOWNNAME":"安定區","LI":"新吉里","LIN":"5鄰","STREET":" ","SECT":" ","MAREA":"新吉","LANE":" ","ALLEY":" ","HOUSE_NO":"３５之１號","E_COORD97":169338.87,"N_COORD97":2554118.2999999998,"ADDRESS":"新吉３５之１號","OBJECTID":154220},"geometry":{"x":169338.87000000104,"y":2554118.3000000007}},{"attributes":{"ID":154222,"DIS_CODE":0,"TOWNNAME":"安定區","LI":"新吉里","LIN":"5鄰","STREET":" ","SECT":" ","MAREA":"新吉","LANE":" ","ALLEY":" ","HOUSE_NO":"４３之１號","E_COORD97":169265.26999999999,"N_COORD97":2554108.2999999998,"ADDRESS":"新吉４３之１號","OBJECTID":154221},"geometry":{"x":169265.26999999955,"y":2554108.3000000007}},{"attributes":{"ID":154223,"DIS_CODE":0,"TOWNNAME":"永康區","LI":"甲頂里","LIN":"15鄰","STREET":"正新街","SECT":" ","MAREA":" ","LANE":" ","ALLEY":" ","HOUSE_NO":"２６號","E_COORD97":170391.48999999999,"N_COORD97":2546666.1000000001,"ADDRESS":"正新街２６號","OBJECTID":154222},"geometry":{"x":170391.49000000022,"y":2546666.0999999996}},{"attributes":{"ID":154224,"DIS_CODE":0,"TOWNNAME":"六甲區","LI":"中社里","LIN":"19鄰","STREET":" ","SECT":" ","MAREA":"林鳳營","LANE":" ","ALLEY":" ","HOUSE_NO":"１９８號","E_COORD97":180338.91,"N_COORD97":2571261.8300000001,"ADDRESS":"林鳳營１９８號","OBJECTID":154223},"geometry":{"x":180338.91000000108,"y":2571261.8300000019}},{"attributes":{"ID":154225,"DIS_CODE":0,"TOWNNAME":"六甲區","LI":"中社里","LIN":"19鄰","STREET":" ","SECT":" ","MAREA":"林鳳營","LANE":" ","ALLEY":" ","HOUSE_NO":"１９９號","E_COORD97":180341.73000000001,"N_COORD97":2571267.8399999999,"ADDRESS":"林鳳營１９９號","OBJECTID":154224},"geometry":{"x":180341.73000000138,"y":2571267.8400000017}},{"attributes":{"ID":154226,"DIS_CODE":0,"TOWNNAME":"六甲區","LI":"中社里","LIN":"19鄰","STREET":" ","SECT":" ","MAREA":"林鳳營","LANE":" ","ALLEY":" ","HOUSE_NO":"２００號","E_COORD97":180344.31,"N_COORD97":2571274.0299999998,"ADDRESS":"林鳳營２００號","OBJECTID":154225},"geometry":{"x":180344.30999999959,"y":2571274.0299999993}},{"attributes":{"ID":154227,"DIS_CODE":0,"TOWNNAME":"六甲區","LI":"中社里","LIN":"19鄰","STREET":" ","SECT":" ","MAREA":"林鳳營","LANE":" ","ALLEY":" ","HOUSE_NO":"２０１號","E_COORD97":180346.87,"N_COORD97":2571280.5499999998,"ADDRESS":"林鳳營２０１號","OBJECTID":154226},"geometry":{"x":180346.87000000197,"y":2571280.5500000026}},{"attributes":{"ID":154228,"DIS_CODE":0,"TOWNNAME":"六甲區","LI":"中社里","LIN":"19鄰","STREET":" ","SECT":" ","MAREA":"林鳳營","LANE":" ","ALLEY":" ","HOUSE_NO":"２０２號","E_COORD97":180349.98999999999,"N_COORD97":2571285.6899999999,"ADDRESS":"林鳳營２０２號","OBJECTID":154227},"geometry":{"x":180349.99000000115,"y":2571285.6900000013}},{"attributes":{"ID":154229,"DIS_CODE":0,"TOWNNAME":"六甲區","LI":"中社里","LIN":"19鄰","STREET":" ","SECT":" ","MAREA":"林鳳營","LANE":" ","ALLEY":" ","HOUSE_NO":"２０３號","E_COORD97":180352.23000000001,"N_COORD97":2571292.5899999999,"ADDRESS":"林鳳營２０３號","OBJECTID":154228},"geometry":{"x":180352.23000000138,"y":2571292.5900000017}},{"attributes":{"ID":154230,"DIS_CODE":0,"TOWNNAME":"六甲區","LI":"中社里","LIN":"19鄰","STREET":" ","SECT":" ","MAREA":"林鳳營","LANE":" ","ALLEY":" ","HOUSE_NO":"２０４號","E_COORD97":180354.91,"N_COORD97":2571298.27,"ADDRESS":"林鳳營２０４號","OBJECTID":154229},"geometry":{"x":180354.90999999922,"y":2571298.2700000014}},{"attributes":{"ID":154231,"DIS_CODE":0,"TOWNNAME":"六甲區","LI":"中社里","LIN":"19鄰","STREET":" ","SECT":" ","MAREA":"林鳳營","LANE":" ","ALLEY":" ","HOUSE_NO":"２０５號","E_COORD97":180357.51000000001,"N_COORD97":2571304.5600000001,"ADDRESS":"林鳳營２０５號","OBJECTID":154230},"geometry":{"x":180357.51000000071,"y":2571304.5600000024}},{"attributes":{"ID":154232,"DIS_CODE":0,"TOWNNAME":"六甲區","LI":"中社里","LIN":"19鄰","STREET":" ","SECT":" ","MAREA":"林鳳營","LANE":" ","ALLEY":" ","HOUSE_NO":"２０６號","E_COORD97":180360,"N_COORD97":2571310.5600000001,"ADDRESS":"林鳳營２０６號","OBJECTID":154231},"geometry":{"x":180360.00000000093,"y":2571310.5600000024}},{"attributes":{"ID":154233,"DIS_CODE":0,"TOWNNAME":"六甲區","LI":"中社里","LIN":"19鄰","STREET":" ","SECT":" ","MAREA":"林鳳營","LANE":" ","ALLEY":" ","HOUSE_NO":"２０８號","E_COORD97":180376.45000000001,"N_COORD97":2571332.52,"ADDRESS":"林鳳營２０８號","OBJECTID":154232},"geometry":{"x":180376.45000000019,"y":2571332.5199999996}},{"attributes":{"ID":154234,"DIS_CODE":0,"TOWNNAME":"六甲區","LI":"中社里","LIN":"19鄰","STREET":" ","SECT":" ","MAREA":"林鳳營","LANE":" ","ALLEY":" ","HOUSE_NO":"２１４號","E_COORD97":180335.10000000001,"N_COORD97":2571306.9700000002,"ADDRESS":"林鳳營２１４號","OBJECTID":154233},"geometry":{"x":180335.10000000056,"y":2571306.9700000007}},{"attributes":{"ID":154235,"DIS_CODE":0,"TOWNNAME":"六甲區","LI":"中社里","LIN":"19鄰","STREET":" ","SECT":" ","MAREA":"林鳳營","LANE":" ","ALLEY":" ","HOUSE_NO":"２１７之１號","E_COORD97":180297.20999999999,"N_COORD97":2571341.25,"ADDRESS":"林鳳營２１７之１號","OBJECTID":154234},"geometry":{"x":180297.21000000089,"y":2571341.25}},{"attributes":{"ID":154236,"DIS_CODE":0,"TOWNNAME":"六甲區","LI":"中社里","LIN":"19鄰","STREET":" ","SECT":" ","MAREA":"林鳳營","LANE":" ","ALLEY":" ","HOUSE_NO":"２１７號","E_COORD97":180301.53,"N_COORD97":2571340.79,"ADDRESS":"林鳳營２１７號","OBJECTID":154235},"geometry":{"x":180301.53000000026,"y":2571340.7899999972}},{"attributes":{"ID":154237,"DIS_CODE":0,"TOWNNAME":"學甲區","LI":"大灣里","LIN":"5鄰","STREET":" ","SECT":" ","MAREA":"大灣","LANE":" ","ALLEY":" ","HOUSE_NO":"４３號之１","E_COORD97":166828.48999999999,"N_COORD97":2567868.1000000001,"ADDRESS":"大灣４３號之１","OBJECTID":154236},"geometry":{"x":166828.49000000022,"y":2567868.1000000015}},{"attributes":{"ID":154238,"DIS_CODE":0,"TOWNNAME":"安定區","LI":"港口里","LIN":"5鄰","STREET":" ","SECT":" ","MAREA":"港口","LANE":" ","ALLEY":" ","HOUSE_NO":"２６４號之１５","E_COORD97":171501.23000000001,"N_COORD97":2554687.2999999998,"ADDRESS":"港口２６４號之１５","OBJECTID":154237},"geometry":{"x":171501.23000000138,"y":2554687.3000000026}},{"attributes":{"ID":154239,"DIS_CODE":0,"TOWNNAME":"佳里區","LI":"蚶寮里","LIN":"5鄰","STREET":" ","SECT":" ","MAREA":"蚶寮","LANE":" ","ALLEY":" ","HOUSE_NO":"４２號之１","E_COORD97":163688.04999999999,"N_COORD97":2558561.4900000002,"ADDRESS":"蚶寮４２號之１","OBJECTID":154238},"geometry":{"x":163688.04999999981,"y":2558561.4900000002}},{"attributes":{"ID":154240,"DIS_CODE":0,"TOWNNAME":"佳里區","LI":"蚶寮里","LIN":"5鄰","STREET":" ","SECT":" ","MAREA":"蚶寮","LANE":" ","ALLEY":" ","HOUSE_NO":"４３號","E_COORD97":163713.95999999999,"N_COORD97":2558550.21,"ADDRESS":"蚶寮４３號","OBJECTID":154239},"geometry":{"x":163713.95999999996,"y":2558550.2100000009}},{"attributes":{"ID":154241,"DIS_CODE":0,"TOWNNAME":"南區","LI":"田寮里","LIN":"2鄰","STREET":"新興路","SECT":" ","MAREA":" ","LANE":"２６７巷","ALLEY":"１５弄","HOUSE_NO":"１７號","E_COORD97":167302.88,"N_COORD97":2541799.9399999999,"ADDRESS":"新興路２６７巷１５弄１７號","OBJECTID":154240},"geometry":{"x":167302.87999999989,"y":2541799.9400000032}},{"attributes":{"ID":154242,"DIS_CODE":0,"TOWNNAME":"南區","LI":"田寮里","LIN":"2鄰","STREET":"新興路","SECT":" ","MAREA":" ","LANE":"２６７巷","ALLEY":"１５弄","HOUSE_NO":"１９號","E_COORD97":167307.14000000001,"N_COORD97":2541798.9900000002,"ADDRESS":"新興路２６７巷１５弄１９號","OBJECTID":154241},"geometry":{"x":167307.1400000006,"y":2541798.9900000002}},{"attributes":{"ID":154243,"DIS_CODE":0,"TOWNNAME":"南區","LI":"田寮里","LIN":"2鄰","STREET":"新興路","SECT":" ","MAREA":" ","LANE":"２６７巷","ALLEY":"１５弄","HOUSE_NO":"２１號","E_COORD97":167312.57000000001,"N_COORD97":2541797.8199999998,"ADDRESS":"新興路２６７巷１５弄２１號","OBJECTID":154242},"geometry":{"x":167312.5700000003,"y":2541797.8200000003}},{"attributes":{"ID":154244,"DIS_CODE":0,"TOWNNAME":"南區","LI":"田寮里","LIN":"2鄰","STREET":"新興路","SECT":" ","MAREA":" ","LANE":"２６７巷","ALLEY":"１５弄","HOUSE_NO":"２１號之１","E_COORD97":167318,"N_COORD97":2541795.46,"ADDRESS":"新興路２６７巷１５弄２１號之１","OBJECTID":154243},"geometry":{"x":167318,"y":2541795.4600000028}},{"attributes":{"ID":154245,"DIS_CODE":0,"TOWNNAME":"南區","LI":"佛壇里","LIN":"2鄰","STREET":"興南街","SECT":" ","MAREA":" ","LANE":"２２２巷","ALLEY":"１５弄","HOUSE_NO":"２號","E_COORD97":165946.89000000001,"N_COORD97":2535800.9100000001,"ADDRESS":"興南街２２２巷１５弄２號","OBJECTID":154244},"geometry":{"x":165946.88999999966,"y":2535800.910000002}},{"attributes":{"ID":154246,"DIS_CODE":0,"TOWNNAME":"南區","LI":"佛壇里","LIN":"2鄰","STREET":"興南街","SECT":" ","MAREA":" ","LANE":"２２２巷","ALLEY":"１５弄","HOUSE_NO":"４號","E_COORD97":165942.60999999999,"N_COORD97":2535799.6400000001,"ADDRESS":"興南街２２２巷１５弄４號","OBJECTID":154245},"geometry":{"x":165942.61000000034,"y":2535799.6400000025}},{"attributes":{"ID":154247,"DIS_CODE":0,"TOWNNAME":"南區","LI":"佛壇里","LIN":"2鄰","STREET":"興南街","SECT":" ","MAREA":" ","LANE":"２２２巷","ALLEY":"３０弄","HOUSE_NO":"２號","E_COORD97":165986.25,"N_COORD97":2535845.3199999998,"ADDRESS":"興南街２２２巷３０弄２號","OBJECTID":154246},"geometry":{"x":165986.25000000093,"y":2535845.3200000022}},{"attributes":{"ID":154248,"DIS_CODE":0,"TOWNNAME":"六甲區","LI":"中社里","LIN":"19鄰","STREET":" ","SECT":" ","MAREA":"林鳳營","LANE":" ","ALLEY":" ","HOUSE_NO":"２２１號之１０","E_COORD97":180188.84,"N_COORD97":2571324.0099999998,"ADDRESS":"林鳳營２２１號之１０","OBJECTID":154247},"geometry":{"x":180188.83999999985,"y":2571324.0100000016}},{"attributes":{"ID":154249,"DIS_CODE":0,"TOWNNAME":"六甲區","LI":"中社里","LIN":"19鄰","STREET":" ","SECT":" ","MAREA":"林鳳營","LANE":" ","ALLEY":" ","HOUSE_NO":"２２１號之１１","E_COORD97":180187.54000000001,"N_COORD97":2571318.5699999998,"ADDRESS":"林鳳營２２１號之１１","OBJECTID":154248},"geometry":{"x":180187.54000000004,"y":2571318.5700000003}},{"attributes":{"ID":154250,"DIS_CODE":0,"TOWNNAME":"六甲區","LI":"中社里","LIN":"19鄰","STREET":" ","SECT":" ","MAREA":"林鳳營","LANE":" ","ALLEY":" ","HOUSE_NO":"２２１號之１２","E_COORD97":180185.98999999999,"N_COORD97":2571313.4700000002,"ADDRESS":"林鳳營２２１號之１２","OBJECTID":154249},"geometry":{"x":180185.99000000022,"y":2571313.4700000007}},{"attributes":{"ID":154251,"DIS_CODE":0,"TOWNNAME":"六甲區","LI":"中社里","LIN":"19鄰","STREET":" ","SECT":" ","MAREA":"林鳳營","LANE":" ","ALLEY":" ","HOUSE_NO":"２２１號之１３","E_COORD97":180184.51999999999,"N_COORD97":2571308.2999999998,"ADDRESS":"林鳳營２２１號之１３","OBJECTID":154250},"geometry":{"x":180184.52000000048,"y":2571308.3000000007}},{"attributes":{"ID":154252,"DIS_CODE":0,"TOWNNAME":"六甲區","LI":"中社里","LIN":"19鄰","STREET":" ","SECT":" ","MAREA":"林鳳營","LANE":" ","ALLEY":" ","HOUSE_NO":"２２１號之１４","E_COORD97":180182.98999999999,"N_COORD97":2571303.1000000001,"ADDRESS":"林鳳營２２１號之１４","OBJECTID":154251},"geometry":{"x":180182.99000000022,"y":2571303.1000000015}},{"attributes":{"ID":154253,"DIS_CODE":0,"TOWNNAME":"六甲區","LI":"中社里","LIN":"19鄰","STREET":" ","SECT":" ","MAREA":"林鳳營","LANE":" ","ALLEY":" ","HOUSE_NO":"２２１號之１５","E_COORD97":180181.16,"N_COORD97":2571298.0099999998,"ADDRESS":"林鳳營２２１號之１５","OBJECTID":154252},"geometry":{"x":180181.16000000108,"y":2571298.0099999998}},{"attributes":{"ID":154254,"DIS_CODE":0,"TOWNNAME":"六甲區","LI":"中社里","LIN":"19鄰","STREET":" ","SECT":" ","MAREA":"林鳳營","LANE":" ","ALLEY":" ","HOUSE_NO":"２２１號之１６","E_COORD97":180180.03,"N_COORD97":2571292.7799999998,"ADDRESS":"林鳳營２２１號之１６","OBJECTID":154253},"geometry":{"x":180180.03000000119,"y":2571292.7799999993}},{"attributes":{"ID":154255,"DIS_CODE":0,"TOWNNAME":"六甲區","LI":"中社里","LIN":"19鄰","STREET":" ","SECT":" ","MAREA":"林鳳營","LANE":" ","ALLEY":" ","HOUSE_NO":"２２１號之１８","E_COORD97":180176.64999999999,"N_COORD97":2571282.2400000002,"ADDRESS":"林鳳營２２１號之１８","OBJECTID":154254},"geometry":{"x":180176.65000000037,"y":2571282.2400000021}},{"attributes":{"ID":154256,"DIS_CODE":0,"TOWNNAME":"六甲區","LI":"中社里","LIN":"19鄰","STREET":" ","SECT":" ","MAREA":"林鳳營","LANE":" ","ALLEY":" ","HOUSE_NO":"２２１號之１９","E_COORD97":180175.37,"N_COORD97":2571277.3700000001,"ADDRESS":"林鳳營２２１號之１９","OBJECTID":154255},"geometry":{"x":180175.37000000011,"y":2571277.370000001}},{"attributes":{"ID":154257,"DIS_CODE":0,"TOWNNAME":"六甲區","LI":"中社里","LIN":"19鄰","STREET":" ","SECT":" ","MAREA":"林鳳營","LANE":" ","ALLEY":" ","HOUSE_NO":"２２１號之１","E_COORD97":180201.76999999999,"N_COORD97":2571370.0899999999,"ADDRESS":"林鳳營２２１號之１","OBJECTID":154256},"geometry":{"x":180201.77000000048,"y":2571370.089999998}},{"attributes":{"ID":154258,"DIS_CODE":0,"TOWNNAME":"六甲區","LI":"中社里","LIN":"19鄰","STREET":" ","SECT":" ","MAREA":"林鳳營","LANE":" ","ALLEY":" ","HOUSE_NO":"２２１號之２０","E_COORD97":180173.91,"N_COORD97":2571271.9199999999,"ADDRESS":"林鳳營２２１號之２０","OBJECTID":154257},"geometry":{"x":180173.91000000108,"y":2571271.9199999999}},{"attributes":{"ID":154259,"DIS_CODE":0,"TOWNNAME":"六甲區","LI":"中社里","LIN":"19鄰","STREET":" ","SECT":" ","MAREA":"林鳳營","LANE":" ","ALLEY":" ","HOUSE_NO":"２２１號之２１","E_COORD97":180172.66,"N_COORD97":2571266.8999999999,"ADDRESS":"林鳳營２２１號之２１","OBJECTID":154258},"geometry":{"x":180172.66000000108,"y":2571266.9000000041}},{"attributes":{"ID":154260,"DIS_CODE":0,"TOWNNAME":"六甲區","LI":"中社里","LIN":"19鄰","STREET":" ","SECT":" ","MAREA":"林鳳營","LANE":" ","ALLEY":" ","HOUSE_NO":"２２１號之２２","E_COORD97":180171.17999999999,"N_COORD97":2571261.8100000001,"ADDRESS":"林鳳營２２１號之２２","OBJECTID":154259},"geometry":{"x":180171.1799999997,"y":2571261.8100000024}},{"attributes":{"ID":154261,"DIS_CODE":0,"TOWNNAME":"永康區","LI":"甲頂里","LIN":"15鄰","STREET":"正新街","SECT":" ","MAREA":" ","LANE":" ","ALLEY":" ","HOUSE_NO":"２９號","E_COORD97":170380.14999999999,"N_COORD97":2546659.1099999999,"ADDRESS":"正新街２９號","OBJECTID":154260},"geometry":{"x":170380.15000000037,"y":2546659.1099999994}},{"attributes":{"ID":154262,"DIS_CODE":0,"TOWNNAME":"六甲區","LI":"中社里","LIN":"19鄰","STREET":" ","SECT":" ","MAREA":"林鳳營","LANE":" ","ALLEY":" ","HOUSE_NO":"２２１號之２","E_COORD97":180199.98000000001,"N_COORD97":2571364.96,"ADDRESS":"林鳳營２２１號之２","OBJECTID":154261},"geometry":{"x":180199.98000000045,"y":2571364.9600000009}},{"attributes":{"ID":154263,"DIS_CODE":0,"TOWNNAME":"佳里區","LI":"蚶寮里","LIN":"5鄰","STREET":" ","SECT":" ","MAREA":"蚶寮","LANE":" ","ALLEY":" ","HOUSE_NO":"４５號之１","E_COORD97":163730.92000000001,"N_COORD97":2558598.1099999999,"ADDRESS":"蚶寮４５號之１","OBJECTID":154262},"geometry":{"x":163730.91999999993,"y":2558598.1100000031}},{"attributes":{"ID":154264,"DIS_CODE":0,"TOWNNAME":"佳里區","LI":"蚶寮里","LIN":"5鄰","STREET":" ","SECT":" ","MAREA":"蚶寮","LANE":" ","ALLEY":" ","HOUSE_NO":"４５號之２","E_COORD97":163674.26000000001,"N_COORD97":2558607.8399999999,"ADDRESS":"蚶寮４５號之２","OBJECTID":154263},"geometry":{"x":163674.25999999978,"y":2558607.8400000017}},{"attributes":{"ID":154265,"DIS_CODE":0,"TOWNNAME":"佳里區","LI":"蚶寮里","LIN":"5鄰","STREET":" ","SECT":" ","MAREA":"蚶寮","LANE":" ","ALLEY":" ","HOUSE_NO":"４５號之３","E_COORD97":163637.85000000001,"N_COORD97":2558600.04,"ADDRESS":"蚶寮４５號之３","OBJECTID":154264},"geometry":{"x":163637.84999999963,"y":2558600.0399999991}},{"attributes":{"ID":154266,"DIS_CODE":0,"TOWNNAME":"佳里區","LI":"蚶寮里","LIN":"5鄰","STREET":" ","SECT":" ","MAREA":"蚶寮","LANE":" ","ALLEY":" ","HOUSE_NO":"４５號之４","E_COORD97":163637.84,"N_COORD97":2558626.0600000001,"ADDRESS":"蚶寮４５號之４","OBJECTID":154265},"geometry":{"x":163637.84000000078,"y":2558626.0600000005}},{"attributes":{"ID":154267,"DIS_CODE":0,"TOWNNAME":"佳里區","LI":"蚶寮里","LIN":"5鄰","STREET":" ","SECT":" ","MAREA":"蚶寮","LANE":" ","ALLEY":" ","HOUSE_NO":"４５號","E_COORD97":163697.45999999999,"N_COORD97":2558617.1600000001,"ADDRESS":"蚶寮４５號","OBJECTID":154266},"geometry":{"x":163697.45999999903,"y":2558617.160000002}},{"attributes":{"ID":154268,"DIS_CODE":0,"TOWNNAME":"佳里區","LI":"蚶寮里","LIN":"5鄰","STREET":" ","SECT":" ","MAREA":"蚶寮","LANE":" ","ALLEY":" ","HOUSE_NO":"４６號之１","E_COORD97":163668.95000000001,"N_COORD97":2558578.8599999999,"ADDRESS":"蚶寮４６號之１","OBJECTID":154267},"geometry":{"x":163668.94999999925,"y":2558578.8599999994}},{"attributes":{"ID":154269,"DIS_CODE":0,"TOWNNAME":"佳里區","LI":"蚶寮里","LIN":"5鄰","STREET":" ","SECT":" ","MAREA":"蚶寮","LANE":" ","ALLEY":" ","HOUSE_NO":"４６號","E_COORD97":163649.32999999999,"N_COORD97":2558580.79,"ADDRESS":"蚶寮４６號","OBJECTID":154268},"geometry":{"x":163649.33000000194,"y":2558580.790000001}},{"attributes":{"ID":154270,"DIS_CODE":0,"TOWNNAME":"佳里區","LI":"蚶寮里","LIN":"5鄰","STREET":" ","SECT":" ","MAREA":"蚶寮","LANE":" ","ALLEY":" ","HOUSE_NO":"４７號之１０","E_COORD97":163595.14999999999,"N_COORD97":2558584.0299999998,"ADDRESS":"蚶寮４７號之１０","OBJECTID":154269},"geometry":{"x":163595.1500000013,"y":2558584.0299999993}},{"attributes":{"ID":154271,"DIS_CODE":0,"TOWNNAME":"南區","LI":"佛壇里","LIN":"2鄰","STREET":"興南街","SECT":" ","MAREA":" ","LANE":"２２２巷","ALLEY":"３０弄","HOUSE_NO":"４號","E_COORD97":165991,"N_COORD97":2535846.9399999999,"ADDRESS":"興南街２２２巷３０弄４號","OBJECTID":154270},"geometry":{"x":165991.00000000186,"y":2535846.9400000013}},{"attributes":{"ID":154272,"DIS_CODE":0,"TOWNNAME":"南區","LI":"佛壇里","LIN":"2鄰","STREET":"興南街","SECT":" ","MAREA":" ","LANE":"２２２巷","ALLEY":"３０弄","HOUSE_NO":"６號","E_COORD97":165995.98000000001,"N_COORD97":2535849.02,"ADDRESS":"興南街２２２巷３０弄６號","OBJECTID":154271},"geometry":{"x":165995.98000000045,"y":2535849.0199999996}},{"attributes":{"ID":154273,"DIS_CODE":0,"TOWNNAME":"學甲區","LI":"大灣里","LIN":"5鄰","STREET":" ","SECT":" ","MAREA":"大灣","LANE":" ","ALLEY":" ","HOUSE_NO":"５３號","E_COORD97":166818.20000000001,"N_COORD97":2567937.6099999999,"ADDRESS":"大灣５３號","OBJECTID":154272},"geometry":{"x":166818.20000000019,"y":2567937.6099999994}},{"attributes":{"ID":154274,"DIS_CODE":0,"TOWNNAME":"南區","LI":"佛壇里","LIN":"2鄰","STREET":"興南街","SECT":" ","MAREA":" ","LANE":"２２２巷","ALLEY":"３０弄","HOUSE_NO":"８號","E_COORD97":165999.57000000001,"N_COORD97":2535850.1800000002,"ADDRESS":"興南街２２２巷３０弄８號","OBJECTID":154273},"geometry":{"x":165999.57000000123,"y":2535850.1800000016}},{"attributes":{"ID":154275,"DIS_CODE":0,"TOWNNAME":"南區","LI":"佛壇里","LIN":"2鄰","STREET":"興南街","SECT":" ","MAREA":" ","LANE":"２２２巷","ALLEY":"３２弄","HOUSE_NO":"１０號","E_COORD97":165974.54999999999,"N_COORD97":2535867.5899999999,"ADDRESS":"興南街２２２巷３２弄１０號","OBJECTID":154274},"geometry":{"x":165974.54999999981,"y":2535867.5900000017}},{"attributes":{"ID":154276,"DIS_CODE":0,"TOWNNAME":"南區","LI":"佛壇里","LIN":"2鄰","STREET":"興南街","SECT":" ","MAREA":" ","LANE":"２２２巷","ALLEY":"３２弄","HOUSE_NO":"１２號","E_COORD97":165978.60999999999,"N_COORD97":2535869.8999999999,"ADDRESS":"興南街２２２巷３２弄１２號","OBJECTID":154275},"geometry":{"x":165978.6100000022,"y":2535869.9000000004}},{"attributes":{"ID":154277,"DIS_CODE":0,"TOWNNAME":"南區","LI":"佛壇里","LIN":"2鄰","STREET":"興南街","SECT":" ","MAREA":" ","LANE":"２２２巷","ALLEY":"３２弄","HOUSE_NO":"１４號","E_COORD97":165982.54999999999,"N_COORD97":2535872.6800000002,"ADDRESS":"興南街２２２巷３２弄１４號","OBJECTID":154276},"geometry":{"x":165982.55000000075,"y":2535872.6800000016}},{"attributes":{"ID":154278,"DIS_CODE":0,"TOWNNAME":"南區","LI":"佛壇里","LIN":"2鄰","STREET":"興南街","SECT":" ","MAREA":" ","LANE":"２２２巷","ALLEY":"３２弄","HOUSE_NO":"１６號","E_COORD97":165986.60000000001,"N_COORD97":2535874.6400000001,"ADDRESS":"興南街２２２巷３２弄１６號","OBJECTID":154277},"geometry":{"x":165986.60000000056,"y":2535874.6400000025}},{"attributes":{"ID":154279,"DIS_CODE":0,"TOWNNAME":"南區","LI":"佛壇里","LIN":"2鄰","STREET":"興南街","SECT":" ","MAREA":" ","LANE":"２２２巷","ALLEY":"３２弄","HOUSE_NO":"２號","E_COORD97":165958.22,"N_COORD97":2535862.1499999999,"ADDRESS":"興南街２２２巷３２弄２號","OBJECTID":154278},"geometry":{"x":165958.21999999974,"y":2535862.1500000004}},{"attributes":{"ID":154280,"DIS_CODE":0,"TOWNNAME":"南區","LI":"佛壇里","LIN":"2鄰","STREET":"興南街","SECT":" ","MAREA":" ","LANE":"２２２巷","ALLEY":"３２弄","HOUSE_NO":"４號","E_COORD97":165962.85000000001,"N_COORD97":2535862.8399999999,"ADDRESS":"興南街２２２巷３２弄４號","OBJECTID":154279},"geometry":{"x":165962.85000000149,"y":2535862.8399999999}},{"attributes":{"ID":154281,"DIS_CODE":0,"TOWNNAME":"南區","LI":"佛壇里","LIN":"2鄰","STREET":"興南街","SECT":" ","MAREA":" ","LANE":"２２２巷","ALLEY":"３２弄","HOUSE_NO":"６號","E_COORD97":165966.79000000001,"N_COORD97":2535863.3100000001,"ADDRESS":"興南街２２２巷３２弄６號","OBJECTID":154280},"geometry":{"x":165966.79000000004,"y":2535863.3100000024}},{"attributes":{"ID":154282,"DIS_CODE":0,"TOWNNAME":"佳里區","LI":"蚶寮里","LIN":"5鄰","STREET":" ","SECT":" ","MAREA":"蚶寮","LANE":" ","ALLEY":" ","HOUSE_NO":"４７號之１１","E_COORD97":163589.32000000001,"N_COORD97":2558583.8100000001,"ADDRESS":"蚶寮４７號之１１","OBJECTID":154281},"geometry":{"x":163589.32000000123,"y":2558583.8100000005}},{"attributes":{"ID":154283,"DIS_CODE":0,"TOWNNAME":"佳里區","LI":"蚶寮里","LIN":"5鄰","STREET":" ","SECT":" ","MAREA":"蚶寮","LANE":" ","ALLEY":" ","HOUSE_NO":"４７號之１２","E_COORD97":163583.79999999999,"N_COORD97":2558583.5,"ADDRESS":"蚶寮４７號之１２","OBJECTID":154282},"geometry":{"x":163583.80000000075,"y":2558583.5000000019}},{"attributes":{"ID":154284,"DIS_CODE":0,"TOWNNAME":"佳里區","LI":"蚶寮里","LIN":"5鄰","STREET":" ","SECT":" ","MAREA":"蚶寮","LANE":" ","ALLEY":" ","HOUSE_NO":"４７號之１３","E_COORD97":163578.32999999999,"N_COORD97":2558583.8399999999,"ADDRESS":"蚶寮４７號之１３","OBJECTID":154283},"geometry":{"x":163578.33000000101,"y":2558583.8400000017}},{"attributes":{"ID":154285,"DIS_CODE":0,"TOWNNAME":"佳里區","LI":"蚶寮里","LIN":"5鄰","STREET":" ","SECT":" ","MAREA":"蚶寮","LANE":" ","ALLEY":" ","HOUSE_NO":"４７號之１４","E_COORD97":163573.60000000001,"N_COORD97":2558583.8500000001,"ADDRESS":"蚶寮４７號之１４","OBJECTID":154284},"geometry":{"x":163573.59999999963,"y":2558583.8500000015}},{"attributes":{"ID":154286,"DIS_CODE":0,"TOWNNAME":"佳里區","LI":"蚶寮里","LIN":"5鄰","STREET":" ","SECT":" ","MAREA":"蚶寮","LANE":" ","ALLEY":" ","HOUSE_NO":"４７號之１","E_COORD97":163637.76000000001,"N_COORD97":2558551.8799999999,"ADDRESS":"蚶寮４７號之１","OBJECTID":154285},"geometry":{"x":163637.76000000164,"y":2558551.8800000027}},{"attributes":{"ID":154287,"DIS_CODE":0,"TOWNNAME":"佳里區","LI":"蚶寮里","LIN":"5鄰","STREET":" ","SECT":" ","MAREA":"蚶寮","LANE":" ","ALLEY":" ","HOUSE_NO":"４７號之２","E_COORD97":163610.14000000001,"N_COORD97":2558578.27,"ADDRESS":"蚶寮４７號之２","OBJECTID":154286},"geometry":{"x":163610.1400000006,"y":2558578.2700000014}},{"attributes":{"ID":154288,"DIS_CODE":0,"TOWNNAME":"佳里區","LI":"蚶寮里","LIN":"5鄰","STREET":" ","SECT":" ","MAREA":"蚶寮","LANE":" ","ALLEY":" ","HOUSE_NO":"４７號之３","E_COORD97":163609.5,"N_COORD97":2558572.6800000002,"ADDRESS":"蚶寮４７號之３","OBJECTID":154287},"geometry":{"x":163609.50000000093,"y":2558572.6799999997}},{"attributes":{"ID":154289,"DIS_CODE":0,"TOWNNAME":"佳里區","LI":"蚶寮里","LIN":"5鄰","STREET":" ","SECT":" ","MAREA":"蚶寮","LANE":" ","ALLEY":" ","HOUSE_NO":"４７號之４","E_COORD97":163609.85000000001,"N_COORD97":2558568.2400000002,"ADDRESS":"蚶寮４７號之４","OBJECTID":154288},"geometry":{"x":163609.85000000149,"y":2558568.2400000021}},{"attributes":{"ID":154290,"DIS_CODE":0,"TOWNNAME":"佳里區","LI":"蚶寮里","LIN":"5鄰","STREET":" ","SECT":" ","MAREA":"蚶寮","LANE":" ","ALLEY":" ","HOUSE_NO":"４７號之５","E_COORD97":163614.89999999999,"N_COORD97":2558559.27,"ADDRESS":"蚶寮４７號之５","OBJECTID":154289},"geometry":{"x":163614.90000000037,"y":2558559.2699999996}},{"attributes":{"ID":154291,"DIS_CODE":0,"TOWNNAME":"佳里區","LI":"頂\u25A0里","LIN":"6鄰","STREET":" ","SECT":" ","MAREA":"頂\u25A0","LANE":" ","ALLEY":" ","HOUSE_NO":"５８號","E_COORD97":163104.92999999999,"N_COORD97":2563861.9500000002,"ADDRESS":"頂\u25A0５８號","OBJECTID":154290},"geometry":{"x":163104.93000000063,"y":2563861.9500000011}},{"attributes":{"ID":154292,"DIS_CODE":0,"TOWNNAME":"佳里區","LI":"海澄里","LIN":"5鄰","STREET":" ","SECT":" ","MAREA":"番子寮","LANE":" ","ALLEY":" ","HOUSE_NO":"１８號","E_COORD97":164194.64999999999,"N_COORD97":2564815.8199999998,"ADDRESS":"番子寮１８號","OBJECTID":154291},"geometry":{"x":164194.65000000037,"y":2564815.820000004}},{"attributes":{"ID":154293,"DIS_CODE":0,"TOWNNAME":"佳里區","LI":"海澄里","LIN":"5鄰","STREET":" ","SECT":" ","MAREA":"番子寮","LANE":" ","ALLEY":" ","HOUSE_NO":"１７號","E_COORD97":164248.95999999999,"N_COORD97":2564812.46,"ADDRESS":"番子寮１７號","OBJECTID":154292},"geometry":{"x":164248.96000000089,"y":2564812.4600000028}},{"attributes":{"ID":154294,"DIS_CODE":0,"TOWNNAME":"佳里區","LI":"海澄里","LIN":"5鄰","STREET":" ","SECT":" ","MAREA":"番子寮","LANE":" ","ALLEY":" ","HOUSE_NO":"１８號之１","E_COORD97":164192.10000000001,"N_COORD97":2564844.3300000001,"ADDRESS":"番子寮１８號之１","OBJECTID":154293},"geometry":{"x":164192.09999999963,"y":2564844.3300000001}},{"attributes":{"ID":154295,"DIS_CODE":0,"TOWNNAME":"佳里區","LI":"海澄里","LIN":"5鄰","STREET":" ","SECT":" ","MAREA":"番子寮","LANE":" ","ALLEY":" ","HOUSE_NO":"２０號","E_COORD97":164243.72,"N_COORD97":2564847.6800000002,"ADDRESS":"番子寮２０號","OBJECTID":154294},"geometry":{"x":164243.72000000067,"y":2564847.6800000016}},{"attributes":{"ID":154296,"DIS_CODE":0,"TOWNNAME":"佳里區","LI":"漳洲里","LIN":"5鄰","STREET":" ","SECT":" ","MAREA":"番子寮","LANE":" ","ALLEY":" ","HOUSE_NO":"２１８號","E_COORD97":163342.20000000001,"N_COORD97":2564397.4900000002,"ADDRESS":"番子寮２１８號","OBJECTID":154295},"geometry":{"x":163342.20000000112,"y":2564397.4900000039}},{"attributes":{"ID":154297,"DIS_CODE":0,"TOWNNAME":"佳里區","LI":"漳洲里","LIN":"5鄰","STREET":" ","SECT":" ","MAREA":"番子寮","LANE":" ","ALLEY":" ","HOUSE_NO":"２１９號","E_COORD97":163329.53,"N_COORD97":2564439.5699999998,"ADDRESS":"番子寮２１９號","OBJECTID":154296},"geometry":{"x":163329.53000000212,"y":2564439.5700000003}},{"attributes":{"ID":154298,"DIS_CODE":0,"TOWNNAME":"佳里區","LI":"海澄里","LIN":"5鄰","STREET":" ","SECT":" ","MAREA":"番子寮","LANE":" ","ALLEY":" ","HOUSE_NO":"２１號之１","E_COORD97":164273.56,"N_COORD97":2564840.04,"ADDRESS":"番子寮２１號之１","OBJECTID":154297},"geometry":{"x":164273.56000000052,"y":2564840.0400000028}},{"attributes":{"ID":154299,"DIS_CODE":0,"TOWNNAME":"佳里區","LI":"海澄里","LIN":"5鄰","STREET":" ","SECT":" ","MAREA":"番子寮","LANE":" ","ALLEY":" ","HOUSE_NO":"２１號之２","E_COORD97":164276.14999999999,"N_COORD97":2564832.1299999999,"ADDRESS":"番子寮２１號之２","OBJECTID":154298},"geometry":{"x":164276.15000000037,"y":2564832.129999999}},{"attributes":{"ID":154300,"DIS_CODE":0,"TOWNNAME":"南區","LI":"佛壇里","LIN":"2鄰","STREET":"興南街","SECT":" ","MAREA":" ","LANE":"２２２巷","ALLEY":"３２弄","HOUSE_NO":"８號","E_COORD97":165971.19,"N_COORD97":2535865.04,"ADDRESS":"興南街２２２巷３２弄８號","OBJECTID":154299},"geometry":{"x":165971.19000000041,"y":2535865.0399999991}},{"attributes":{"ID":154301,"DIS_CODE":0,"TOWNNAME":"南區","LI":"佛壇里","LIN":"2鄰","STREET":"興南街","SECT":" ","MAREA":" ","LANE":"２２２巷","ALLEY":"３３弄","HOUSE_NO":"１號","E_COORD97":165937.04999999999,"N_COORD97":2535826.1000000001,"ADDRESS":"興南街２２２巷３３弄１號","OBJECTID":154300},"geometry":{"x":165937.04999999981,"y":2535826.1000000015}},{"attributes":{"ID":154302,"DIS_CODE":0,"TOWNNAME":"南區","LI":"佛壇里","LIN":"2鄰","STREET":"興南街","SECT":" ","MAREA":" ","LANE":"２２２巷","ALLEY":"３３弄","HOUSE_NO":"２號","E_COORD97":165931.72,"N_COORD97":2535841.77,"ADDRESS":"興南街２２２巷３３弄２號","OBJECTID":154301},"geometry":{"x":165931.72000000067,"y":2535841.7700000014}},{"attributes":{"ID":154303,"DIS_CODE":0,"TOWNNAME":"南區","LI":"佛壇里","LIN":"2鄰","STREET":"興南街","SECT":" ","MAREA":" ","LANE":"２２２巷","ALLEY":"３３弄","HOUSE_NO":"３號","E_COORD97":165931.48999999999,"N_COORD97":2535828.4100000001,"ADDRESS":"興南街２２２巷３３弄３號","OBJECTID":154302},"geometry":{"x":165931.49000000022,"y":2535828.410000002}},{"attributes":{"ID":154304,"DIS_CODE":0,"TOWNNAME":"麻豆區","LI":"油車里","LIN":"19鄰","STREET":"自由路","SECT":" ","MAREA":" ","LANE":" ","ALLEY":" ","HOUSE_NO":"６５號之２","E_COORD97":172517.03,"N_COORD97":2565164.3399999999,"ADDRESS":"自由路６５號之２","OBJECTID":154303},"geometry":{"x":172517.03000000026,"y":2565164.3400000036}},{"attributes":{"ID":154305,"DIS_CODE":0,"TOWNNAME":"麻豆區","LI":"油車里","LIN":"19鄰","STREET":"自由路","SECT":" ","MAREA":" ","LANE":" ","ALLEY":" ","HOUSE_NO":"６５號之３","E_COORD97":172510.20000000001,"N_COORD97":2565163.9700000002,"ADDRESS":"自由路６５號之３","OBJECTID":154304},"geometry":{"x":172510.20000000112,"y":2565163.9699999988}},{"attributes":{"ID":154306,"DIS_CODE":0,"TOWNNAME":"學甲區","LI":"大灣里","LIN":"5鄰","STREET":" ","SECT":" ","MAREA":"大灣","LANE":" ","ALLEY":" ","HOUSE_NO":"４３號之２","E_COORD97":166807.54999999999,"N_COORD97":2567876.4100000001,"ADDRESS":"大灣４３號之２","OBJECTID":154305},"geometry":{"x":166807.55000000168,"y":2567876.4100000039}},{"attributes":{"ID":154307,"DIS_CODE":0,"TOWNNAME":"南區","LI":"佛壇里","LIN":"2鄰","STREET":"興南街","SECT":" ","MAREA":" ","LANE":"２２２巷","ALLEY":"３５弄","HOUSE_NO":"１號","E_COORD97":165945.73000000001,"N_COORD97":2535857.9700000002,"ADDRESS":"興南街２２２巷３５弄１號","OBJECTID":154306},"geometry":{"x":165945.73000000231,"y":2535857.9700000044}},{"attributes":{"ID":154308,"DIS_CODE":0,"TOWNNAME":"南區","LI":"佛壇里","LIN":"2鄰","STREET":"興南街","SECT":" ","MAREA":" ","LANE":"２２２巷","ALLEY":"３５弄","HOUSE_NO":"３號","E_COORD97":165938.89999999999,"N_COORD97":2535854.6099999999,"ADDRESS":"興南街２２２巷３５弄３號","OBJECTID":154307},"geometry":{"x":165938.90000000037,"y":2535854.6099999994}},{"attributes":{"ID":154309,"DIS_CODE":0,"TOWNNAME":"麻豆區","LI":"油車里","LIN":"19鄰","STREET":"自由路","SECT":" ","MAREA":" ","LANE":" ","ALLEY":" ","HOUSE_NO":"６５號之４","E_COORD97":172503.37,"N_COORD97":2565163.6000000001,"ADDRESS":"自由路６５號之４","OBJECTID":154308},"geometry":{"x":172503.37000000104,"y":2565163.6000000015}},{"attributes":{"ID":154310,"DIS_CODE":0,"TOWNNAME":"南區","LI":"佛壇里","LIN":"2鄰","STREET":"興南街","SECT":" ","MAREA":" ","LANE":"２２２巷","ALLEY":"３５弄","HOUSE_NO":"５號","E_COORD97":165935.54000000001,"N_COORD97":2535850.1000000001,"ADDRESS":"興南街２２２巷３５弄５號","OBJECTID":154309},"geometry":{"x":165935.54000000097,"y":2535850.1000000015}},{"attributes":{"ID":154311,"DIS_CODE":0,"TOWNNAME":"南區","LI":"佛壇里","LIN":"2鄰","STREET":"興南街","SECT":" ","MAREA":" ","LANE":"２２２巷","ALLEY":"３５弄","HOUSE_NO":"７號","E_COORD97":165929.04999999999,"N_COORD97":2535850.4500000002,"ADDRESS":"興南街２２２巷３５弄７號","OBJECTID":154310},"geometry":{"x":165929.04999999981,"y":2535850.4500000011}},{"attributes":{"ID":154312,"DIS_CODE":0,"TOWNNAME":"歸仁區","LI":"看西里","LIN":"2鄰","STREET":"成功六街","SECT":" ","MAREA":" ","LANE":"１１６巷","ALLEY":"１７弄","HOUSE_NO":"５號","E_COORD97":178447.41,"N_COORD97":2540371.2000000002,"ADDRESS":"成功六街１１６巷１７弄５號","OBJECTID":154311},"geometry":{"x":178447.41000000015,"y":2540371.2000000011}},{"attributes":{"ID":154313,"DIS_CODE":0,"TOWNNAME":"麻豆區","LI":"油車里","LIN":"19鄰","STREET":"自由路","SECT":" ","MAREA":" ","LANE":" ","ALLEY":" ","HOUSE_NO":"６５號之５","E_COORD97":172496.54000000001,"N_COORD97":2565163.2400000002,"ADDRESS":"自由路６５號之５","OBJECTID":154312},"geometry":{"x":172496.54000000004,"y":2565163.2400000021}},{"attributes":{"ID":154314,"DIS_CODE":0,"TOWNNAME":"麻豆區","LI":"油車里","LIN":"19鄰","STREET":"自由路","SECT":" ","MAREA":" ","LANE":" ","ALLEY":" ","HOUSE_NO":"６５號之６","E_COORD97":172489.70000000001,"N_COORD97":2565162.8700000001,"ADDRESS":"自由路６５號之６","OBJECTID":154313},"geometry":{"x":172489.70000000112,"y":2565162.8700000029}},{"attributes":{"ID":154315,"DIS_CODE":0,"TOWNNAME":"歸仁區","LI":"看西里","LIN":"2鄰","STREET":"成功六街","SECT":" ","MAREA":" ","LANE":"１１６巷","ALLEY":"１７弄","HOUSE_NO":"１１號","E_COORD97":178449.76000000001,"N_COORD97":2540382.2000000002,"ADDRESS":"成功六街１１６巷１７弄１１號","OBJECTID":154314},"geometry":{"x":178449.75999999978,"y":2540382.2000000011}},{"attributes":{"ID":154316,"DIS_CODE":0,"TOWNNAME":"佳里區","LI":"海澄里","LIN":"5鄰","STREET":" ","SECT":" ","MAREA":"番子寮","LANE":" ","ALLEY":" ","HOUSE_NO":"２１號","E_COORD97":164275.26999999999,"N_COORD97":2564855.46,"ADDRESS":"番子寮２１號","OBJECTID":154315},"geometry":{"x":164275.27000000048,"y":2564855.4600000009}},{"attributes":{"ID":154317,"DIS_CODE":0,"TOWNNAME":"佳里區","LI":"漳洲里","LIN":"5鄰","STREET":" ","SECT":" ","MAREA":"番子寮","LANE":" ","ALLEY":" ","HOUSE_NO":"２２０號","E_COORD97":163322.87,"N_COORD97":2564425.8199999998,"ADDRESS":"番子寮２２０號","OBJECTID":154316},"geometry":{"x":163322.87000000011,"y":2564425.820000004}},{"attributes":{"ID":154318,"DIS_CODE":0,"TOWNNAME":"麻豆區","LI":"油車里","LIN":"19鄰","STREET":"自由路","SECT":" ","MAREA":" ","LANE":" ","ALLEY":" ","HOUSE_NO":"６５號之７","E_COORD97":172475.95999999999,"N_COORD97":2565155.5800000001,"ADDRESS":"自由路６５號之７","OBJECTID":154317},"geometry":{"x":172475.96000000089,"y":2565155.5800000001}},{"attributes":{"ID":154319,"DIS_CODE":0,"TOWNNAME":"麻豆區","LI":"油車里","LIN":"19鄰","STREET":"自由路","SECT":" ","MAREA":" ","LANE":" ","ALLEY":" ","HOUSE_NO":"６５號","E_COORD97":172534.98000000001,"N_COORD97":2565159.4300000002,"ADDRESS":"自由路６５號","OBJECTID":154318},"geometry":{"x":172534.98000000231,"y":2565159.4299999997}},{"attributes":{"ID":154320,"DIS_CODE":0,"TOWNNAME":"新營區","LI":"民生里","LIN":"19鄰","STREET":"民治路","SECT":" ","MAREA":" ","LANE":" ","ALLEY":" ","HOUSE_NO":"１６１號","E_COORD97":178859.38,"N_COORD97":2578530.54,"ADDRESS":"民治路１６１號","OBJECTID":154319},"geometry":{"x":178859.37999999989,"y":2578530.5400000028}},{"attributes":{"ID":154321,"DIS_CODE":0,"TOWNNAME":"新營區","LI":"民權里","LIN":"19鄰","STREET":"博愛街","SECT":" ","MAREA":" ","LANE":" ","ALLEY":" ","HOUSE_NO":"５４號之１","E_COORD97":179797.44,"N_COORD97":2578144.04,"ADDRESS":"博愛街５４號之１","OBJECTID":154320},"geometry":{"x":179797.44000000227,"y":2578144.0400000028}},{"attributes":{"ID":154322,"DIS_CODE":0,"TOWNNAME":"歸仁區","LI":"西埔里","LIN":"2鄰","STREET":"保大路","SECT":"二段","MAREA":" ","LANE":"１４５巷","ALLEY":"１２弄","HOUSE_NO":"８號","E_COORD97":176912.72,"N_COORD97":2544034.2799999998,"ADDRESS":"保大路二段１４５巷１２弄８號","OBJECTID":154321},"geometry":{"x":176912.71999999974,"y":2544034.2799999993}},{"attributes":{"ID":154323,"DIS_CODE":0,"TOWNNAME":"歸仁區","LI":"七甲里","LIN":"2鄰","STREET":"七甲五街","SECT":" ","MAREA":" ","LANE":"１０２巷","ALLEY":"１弄","HOUSE_NO":"９號","E_COORD97":177168.54999999999,"N_COORD97":2542609.9300000002,"ADDRESS":"七甲五街１０２巷１弄９號","OBJECTID":154322},"geometry":{"x":177168.55000000168,"y":2542609.9299999997}},{"attributes":{"ID":154324,"DIS_CODE":0,"TOWNNAME":"新營區","LI":"民權里","LIN":"19鄰","STREET":"博愛街","SECT":" ","MAREA":" ","LANE":" ","ALLEY":" ","HOUSE_NO":"５２號","E_COORD97":179806.56,"N_COORD97":2578145.0499999998,"ADDRESS":"博愛街５２號","OBJECTID":154323},"geometry":{"x":179806.56000000052,"y":2578145.0500000007}},{"attributes":{"ID":154325,"DIS_CODE":0,"TOWNNAME":"佳里區","LI":"漳洲里","LIN":"5鄰","STREET":" ","SECT":" ","MAREA":"番子寮","LANE":" ","ALLEY":" ","HOUSE_NO":"２２１號","E_COORD97":163319.73000000001,"N_COORD97":2564400.8700000001,"ADDRESS":"番子寮２２１號","OBJECTID":154324},"geometry":{"x":163319.73000000045,"y":2564400.870000001}},{"attributes":{"ID":154326,"DIS_CODE":0,"TOWNNAME":"佳里區","LI":"漳洲里","LIN":"5鄰","STREET":" ","SECT":" ","MAREA":"番子寮","LANE":" ","ALLEY":" ","HOUSE_NO":"２２４號","E_COORD97":163304.54999999999,"N_COORD97":2564440.0899999999,"ADDRESS":"番子寮２２４號","OBJECTID":154325},"geometry":{"x":163304.54999999981,"y":2564440.089999998}},{"attributes":{"ID":154327,"DIS_CODE":0,"TOWNNAME":"佳里區","LI":"漳洲里","LIN":"5鄰","STREET":" ","SECT":" ","MAREA":"番子寮","LANE":" ","ALLEY":" ","HOUSE_NO":"２２５號","E_COORD97":163293.31,"N_COORD97":2564442.9100000001,"ADDRESS":"番子寮２２５號","OBJECTID":154326},"geometry":{"x":163293.31000000052,"y":2564442.910000002}},{"attributes":{"ID":154328,"DIS_CODE":0,"TOWNNAME":"佳里區","LI":"漳洲里","LIN":"5鄰","STREET":" ","SECT":" ","MAREA":"番子寮","LANE":" ","ALLEY":" ","HOUSE_NO":"２２７號","E_COORD97":163298.62,"N_COORD97":2564418.9300000002,"ADDRESS":"番子寮２２７號","OBJECTID":154327},"geometry":{"x":163298.62000000104,"y":2564418.9300000016}},{"attributes":{"ID":154329,"DIS_CODE":0,"TOWNNAME":"佳里區","LI":"漳洲里","LIN":"5鄰","STREET":" ","SECT":" ","MAREA":"番子寮","LANE":" ","ALLEY":" ","HOUSE_NO":"２２８號","E_COORD97":163283.70000000001,"N_COORD97":2564412.4900000002,"ADDRESS":"番子寮２２８號","OBJECTID":154328},"geometry":{"x":163283.70000000019,"y":2564412.4900000021}},{"attributes":{"ID":154330,"DIS_CODE":0,"TOWNNAME":"佳里區","LI":"海澄里","LIN":"5鄰","STREET":" ","SECT":" ","MAREA":"番子寮","LANE":" ","ALLEY":" ","HOUSE_NO":"２２號","E_COORD97":164263.06,"N_COORD97":2564881.77,"ADDRESS":"番子寮２２號","OBJECTID":154329},"geometry":{"x":164263.06000000052,"y":2564881.7699999996}},{"attributes":{"ID":154331,"DIS_CODE":0,"TOWNNAME":"佳里區","LI":"海澄里","LIN":"5鄰","STREET":" ","SECT":" ","MAREA":"番子寮","LANE":" ","ALLEY":" ","HOUSE_NO":"２３號之１","E_COORD97":164219.64000000001,"N_COORD97":2564874.3900000001,"ADDRESS":"番子寮２３號之１","OBJECTID":154330},"geometry":{"x":164219.63999999966,"y":2564874.3900000025}},{"attributes":{"ID":154332,"DIS_CODE":0,"TOWNNAME":"佳里區","LI":"海澄里","LIN":"5鄰","STREET":" ","SECT":" ","MAREA":"番子寮","LANE":" ","ALLEY":" ","HOUSE_NO":"２３號","E_COORD97":164228.64000000001,"N_COORD97":2564860.5600000001,"ADDRESS":"番子寮２３號","OBJECTID":154331},"geometry":{"x":164228.6400000006,"y":2564860.5600000005}},{"attributes":{"ID":154333,"DIS_CODE":0,"TOWNNAME":"佳里區","LI":"海澄里","LIN":"5鄰","STREET":" ","SECT":" ","MAREA":"番子寮","LANE":" ","ALLEY":" ","HOUSE_NO":"２４號","E_COORD97":164193.76000000001,"N_COORD97":2564861.04,"ADDRESS":"番子寮２４號","OBJECTID":154332},"geometry":{"x":164193.76000000164,"y":2564861.040000001}},{"attributes":{"ID":154334,"DIS_CODE":0,"TOWNNAME":"學甲區","LI":"大灣里","LIN":"5鄰","STREET":" ","SECT":" ","MAREA":"大灣","LANE":" ","ALLEY":" ","HOUSE_NO":"４０號之１０","E_COORD97":166748.32000000001,"N_COORD97":2567865.6400000001,"ADDRESS":"大灣４０號之１０","OBJECTID":154333},"geometry":{"x":166748.3200000003,"y":2567865.6400000025}},{"attributes":{"ID":154335,"DIS_CODE":0,"TOWNNAME":"學甲區","LI":"大灣里","LIN":"5鄰","STREET":" ","SECT":" ","MAREA":"大灣","LANE":" ","ALLEY":" ","HOUSE_NO":"４０號之１１","E_COORD97":166750.70000000001,"N_COORD97":2567859.8900000001,"ADDRESS":"大灣４０號之１１","OBJECTID":154334},"geometry":{"x":166750.70000000019,"y":2567859.8900000043}},{"attributes":{"ID":154336,"DIS_CODE":0,"TOWNNAME":"新營區","LI":"王公里","LIN":"19鄰","STREET":"民族路","SECT":" ","MAREA":" ","LANE":" ","ALLEY":" ","HOUSE_NO":"１１６號","E_COORD97":180364.17999999999,"N_COORD97":2579219.9700000002,"ADDRESS":"民族路１１６號","OBJECTID":154335},"geometry":{"x":180364.1799999997,"y":2579219.9700000007}},{"attributes":{"ID":154337,"DIS_CODE":0,"TOWNNAME":"歸仁區","LI":"七甲里","LIN":"19鄰","STREET":"南潭三街","SECT":" ","MAREA":" ","LANE":" ","ALLEY":" ","HOUSE_NO":"１６８號","E_COORD97":176455.23000000001,"N_COORD97":2543210.8100000001,"ADDRESS":"南潭三街１６８號","OBJECTID":154336},"geometry":{"x":176455.23000000045,"y":2543210.8100000005}},{"attributes":{"ID":154338,"DIS_CODE":0,"TOWNNAME":"北區","LI":"公園里","LIN":"2鄰","STREET":"北忠街","SECT":" ","MAREA":" ","LANE":"１６巷","ALLEY":"３３弄","HOUSE_NO":"１１號","E_COORD97":169191.67999999999,"N_COORD97":2544421.6299999999,"ADDRESS":"北忠街１６巷３３弄１１號","OBJECTID":154337},"geometry":{"x":169191.68000000156,"y":2544421.629999999}},{"attributes":{"ID":154339,"DIS_CODE":0,"TOWNNAME":"北區","LI":"公園里","LIN":"2鄰","STREET":"北忠街","SECT":" ","MAREA":" ","LANE":"１６巷","ALLEY":"３３弄","HOUSE_NO":"１３號","E_COORD97":169181.95999999999,"N_COORD97":2544424,"ADDRESS":"北忠街１６巷３３弄１３號","OBJECTID":154338},"geometry":{"x":169181.96000000089,"y":2544424}},{"attributes":{"ID":154340,"DIS_CODE":0,"TOWNNAME":"柳營區","LI":"果毅里","LIN":"19鄰","STREET":" ","SECT":" ","MAREA":"南湖","LANE":" ","ALLEY":" ","HOUSE_NO":"２９號","E_COORD97":185581.53,"N_COORD97":2571427.1899999999,"ADDRESS":"南湖２９號","OBJECTID":154339},"geometry":{"x":185581.53000000026,"y":2571427.1900000013}},{"attributes":{"ID":154341,"DIS_CODE":0,"TOWNNAME":"學甲區","LI":"大灣里","LIN":"5鄰","STREET":" ","SECT":" ","MAREA":"大灣","LANE":" ","ALLEY":" ","HOUSE_NO":"４０號之１２","E_COORD97":166752.92000000001,"N_COORD97":2567854.1400000001,"ADDRESS":"大灣４０號之１２","OBJECTID":154340},"geometry":{"x":166752.92000000086,"y":2567854.1400000006}},{"attributes":{"ID":154342,"DIS_CODE":0,"TOWNNAME":"北區","LI":"公園里","LIN":"2鄰","STREET":"北忠街","SECT":" ","MAREA":" ","LANE":"１６巷","ALLEY":"３３弄","HOUSE_NO":"１號","E_COORD97":169225.22,"N_COORD97":2544411.4199999999,"ADDRESS":"北忠街１６巷３３弄１號","OBJECTID":154341},"geometry":{"x":169225.2200000016,"y":2544411.4200000037}},{"attributes":{"ID":154343,"DIS_CODE":0,"TOWNNAME":"學甲區","LI":"大灣里","LIN":"5鄰","STREET":" ","SECT":" ","MAREA":"大灣","LANE":" ","ALLEY":" ","HOUSE_NO":"４０號之１３","E_COORD97":166755.48000000001,"N_COORD97":2567848.25,"ADDRESS":"大灣４０號之１３","OBJECTID":154342},"geometry":{"x":166755.48000000045,"y":2567848.2500000019}},{"attributes":{"ID":154344,"DIS_CODE":0,"TOWNNAME":"學甲區","LI":"大灣里","LIN":"5鄰","STREET":" ","SECT":" ","MAREA":"大灣","LANE":" ","ALLEY":" ","HOUSE_NO":"４０號之１４","E_COORD97":166757.70000000001,"N_COORD97":2567842.2799999998,"ADDRESS":"大灣４０號之１４","OBJECTID":154343},"geometry":{"x":166757.70000000205,"y":2567842.2799999975}},{"attributes":{"ID":154345,"DIS_CODE":0,"TOWNNAME":"學甲區","LI":"大灣里","LIN":"5鄰","STREET":" ","SECT":" ","MAREA":"大灣","LANE":" ","ALLEY":" ","HOUSE_NO":"４０號之１５","E_COORD97":166760.39999999999,"N_COORD97":2567836.5699999998,"ADDRESS":"大灣４０號之１５","OBJECTID":154344},"geometry":{"x":166760.4000000013,"y":2567836.5700000003}},{"attributes":{"ID":154346,"DIS_CODE":0,"TOWNNAME":"學甲區","LI":"大灣里","LIN":"5鄰","STREET":" ","SECT":" ","MAREA":"大灣","LANE":" ","ALLEY":" ","HOUSE_NO":"４０號之１６","E_COORD97":166762.88,"N_COORD97":2567830.8900000001,"ADDRESS":"大灣４０號之１６","OBJECTID":154345},"geometry":{"x":166762.88000000175,"y":2567830.8900000025}},{"attributes":{"ID":154347,"DIS_CODE":0,"TOWNNAME":"學甲區","LI":"大灣里","LIN":"5鄰","STREET":" ","SECT":" ","MAREA":"大灣","LANE":" ","ALLEY":" ","HOUSE_NO":"４０號之１７","E_COORD97":166765.39999999999,"N_COORD97":2567825,"ADDRESS":"大灣４０號之１７","OBJECTID":154346},"geometry":{"x":166765.4000000013,"y":2567825.0000000019}},{"attributes":{"ID":154348,"DIS_CODE":0,"TOWNNAME":"學甲區","LI":"大灣里","LIN":"5鄰","STREET":" ","SECT":" ","MAREA":"大灣","LANE":" ","ALLEY":" ","HOUSE_NO":"４０號之１８","E_COORD97":166721.54999999999,"N_COORD97":2567899.3599999999,"ADDRESS":"大灣４０號之１８","OBJECTID":154347},"geometry":{"x":166721.55000000075,"y":2567899.3599999975}},{"attributes":{"ID":154349,"DIS_CODE":0,"TOWNNAME":"學甲區","LI":"大灣里","LIN":"5鄰","STREET":" ","SECT":" ","MAREA":"大灣","LANE":" ","ALLEY":" ","HOUSE_NO":"４０號之１９","E_COORD97":166717.04999999999,"N_COORD97":2567897.4500000002,"ADDRESS":"大灣４０號之１９","OBJECTID":154348},"geometry":{"x":166717.04999999981,"y":2567897.4499999993}},{"attributes":{"ID":154350,"DIS_CODE":0,"TOWNNAME":"北區","LI":"公園里","LIN":"2鄰","STREET":"北忠街","SECT":" ","MAREA":" ","LANE":"１６巷","ALLEY":"３３弄","HOUSE_NO":"３號","E_COORD97":169220.60999999999,"N_COORD97":2544412.4199999999,"ADDRESS":"北忠街１６巷３３弄３號","OBJECTID":154349},"geometry":{"x":169220.61000000127,"y":2544412.4200000018}},{"attributes":{"ID":154351,"DIS_CODE":0,"TOWNNAME":"學甲區","LI":"大灣里","LIN":"5鄰","STREET":" ","SECT":" ","MAREA":"大灣","LANE":" ","ALLEY":" ","HOUSE_NO":"４０號之１","E_COORD97":166792.63,"N_COORD97":2567938.4199999999,"ADDRESS":"大灣４０號之１","OBJECTID":154350},"geometry":{"x":166792.62999999989,"y":2567938.4200000018}},{"attributes":{"ID":154352,"DIS_CODE":0,"TOWNNAME":"學甲區","LI":"大灣里","LIN":"5鄰","STREET":" ","SECT":" ","MAREA":"大灣","LANE":" ","ALLEY":" ","HOUSE_NO":"４０號之２０","E_COORD97":166725.31,"N_COORD97":2567875.5299999998,"ADDRESS":"大灣４０號之２０","OBJECTID":154351},"geometry":{"x":166725.30999999959,"y":2567875.5300000012}},{"attributes":{"ID":154353,"DIS_CODE":0,"TOWNNAME":"北區","LI":"公園里","LIN":"2鄰","STREET":"北忠街","SECT":" ","MAREA":" ","LANE":"１６巷","ALLEY":"３３弄","HOUSE_NO":"５號","E_COORD97":169216.12,"N_COORD97":2544419.8900000001,"ADDRESS":"北忠街１６巷３３弄５號","OBJECTID":154352},"geometry":{"x":169216.12000000197,"y":2544419.8900000025}},{"attributes":{"ID":154354,"DIS_CODE":0,"TOWNNAME":"學甲區","LI":"大灣里","LIN":"5鄰","STREET":" ","SECT":" ","MAREA":"大灣","LANE":" ","ALLEY":" ","HOUSE_NO":"４０號之２１","E_COORD97":166727.57999999999,"N_COORD97":2567869.79,"ADDRESS":"大灣４０號之２１","OBJECTID":154353},"geometry":{"x":166727.58000000007,"y":2567869.790000001}},{"attributes":{"ID":154355,"DIS_CODE":0,"TOWNNAME":"學甲區","LI":"大灣里","LIN":"5鄰","STREET":" ","SECT":" ","MAREA":"大灣","LANE":" ","ALLEY":" ","HOUSE_NO":"４０號之２２","E_COORD97":166729.76999999999,"N_COORD97":2567864.21,"ADDRESS":"大灣４０號之２２","OBJECTID":154354},"geometry":{"x":166729.77000000048,"y":2567864.2100000009}},{"attributes":{"ID":154356,"DIS_CODE":0,"TOWNNAME":"北區","LI":"公園里","LIN":"2鄰","STREET":"北忠街","SECT":" ","MAREA":" ","LANE":"１６巷","ALLEY":"３３弄","HOUSE_NO":"７號","E_COORD97":169206.01999999999,"N_COORD97":2544419.6400000001,"ADDRESS":"北忠街１６巷３３弄７號","OBJECTID":154355},"geometry":{"x":169206.02000000142,"y":2544419.6400000006}},{"attributes":{"ID":154357,"DIS_CODE":0,"TOWNNAME":"學甲區","LI":"大灣里","LIN":"5鄰","STREET":" ","SECT":" ","MAREA":"大灣","LANE":" ","ALLEY":" ","HOUSE_NO":"４０號之２３","E_COORD97":166731.95000000001,"N_COORD97":2567858.6200000001,"ADDRESS":"大灣４０號之２３","OBJECTID":154356},"geometry":{"x":166731.95000000019,"y":2567858.620000001}},{"attributes":{"ID":154358,"DIS_CODE":0,"TOWNNAME":"學甲區","LI":"大灣里","LIN":"5鄰","STREET":" ","SECT":" ","MAREA":"大灣","LANE":" ","ALLEY":" ","HOUSE_NO":"４０號之２４","E_COORD97":166734.10999999999,"N_COORD97":2567852.3599999999,"ADDRESS":"大灣４０號之２４","OBJECTID":154357},"geometry":{"x":166734.11000000034,"y":2567852.3600000031}},{"attributes":{"ID":154359,"DIS_CODE":0,"TOWNNAME":"學甲區","LI":"大灣里","LIN":"5鄰","STREET":" ","SECT":" ","MAREA":"大灣","LANE":" ","ALLEY":" ","HOUSE_NO":"４０號之２５","E_COORD97":166736.23000000001,"N_COORD97":2567846.7799999998,"ADDRESS":"大灣４０號之２５","OBJECTID":154358},"geometry":{"x":166736.23000000138,"y":2567846.7800000012}},{"attributes":{"ID":154360,"DIS_CODE":0,"TOWNNAME":"學甲區","LI":"大灣里","LIN":"5鄰","STREET":" ","SECT":" ","MAREA":"大灣","LANE":" ","ALLEY":" ","HOUSE_NO":"４０號之２６","E_COORD97":166738.41,"N_COORD97":2567841.3999999999,"ADDRESS":"大灣４０號之２６","OBJECTID":154359},"geometry":{"x":166738.41000000015,"y":2567841.4000000004}},{"attributes":{"ID":154361,"DIS_CODE":0,"TOWNNAME":"學甲區","LI":"大灣里","LIN":"5鄰","STREET":" ","SECT":" ","MAREA":"大灣","LANE":" ","ALLEY":" ","HOUSE_NO":"４０號之２７","E_COORD97":166741.07000000001,"N_COORD97":2567835.4500000002,"ADDRESS":"大灣４０號之２７","OBJECTID":154360},"geometry":{"x":166741.0700000003,"y":2567835.4500000011}},{"attributes":{"ID":154362,"DIS_CODE":0,"TOWNNAME":"學甲區","LI":"大灣里","LIN":"5鄰","STREET":" ","SECT":" ","MAREA":"大灣","LANE":" ","ALLEY":" ","HOUSE_NO":"４０號之２８","E_COORD97":166743.32000000001,"N_COORD97":2567829.6000000001,"ADDRESS":"大灣４０號之２８","OBJECTID":154361},"geometry":{"x":166743.31999999937,"y":2567829.5999999996}},{"attributes":{"ID":154363,"DIS_CODE":0,"TOWNNAME":"學甲區","LI":"大灣里","LIN":"5鄰","STREET":" ","SECT":" ","MAREA":"大灣","LANE":" ","ALLEY":" ","HOUSE_NO":"４０號之２９","E_COORD97":166745.67000000001,"N_COORD97":2567824.0299999998,"ADDRESS":"大灣４０號之２９","OBJECTID":154362},"geometry":{"x":166745.67000000179,"y":2567824.0300000031}},{"attributes":{"ID":154364,"DIS_CODE":0,"TOWNNAME":"學甲區","LI":"大灣里","LIN":"5鄰","STREET":" ","SECT":" ","MAREA":"大灣","LANE":" ","ALLEY":" ","HOUSE_NO":"４０號之３０","E_COORD97":166747.87,"N_COORD97":2567818.4300000002,"ADDRESS":"大灣４０號之３０","OBJECTID":154363},"geometry":{"x":166747.86999999918,"y":2567818.4300000016}},{"attributes":{"ID":154365,"DIS_CODE":0,"TOWNNAME":"學甲區","LI":"大灣里","LIN":"5鄰","STREET":" ","SECT":" ","MAREA":"大灣","LANE":" ","ALLEY":" ","HOUSE_NO":"４０號之３１","E_COORD97":166750.03,"N_COORD97":2567812.4199999999,"ADDRESS":"大灣４０號之３１","OBJECTID":154364},"geometry":{"x":166750.03000000026,"y":2567812.4200000018}},{"attributes":{"ID":154366,"DIS_CODE":0,"TOWNNAME":"學甲區","LI":"大灣里","LIN":"5鄰","STREET":" ","SECT":" ","MAREA":"大灣","LANE":" ","ALLEY":" ","HOUSE_NO":"４０號之３２","E_COORD97":166713.06,"N_COORD97":2567891.29,"ADDRESS":"大灣４０號之３２","OBJECTID":154365},"geometry":{"x":166713.06000000052,"y":2567891.290000001}},{"attributes":{"ID":154367,"DIS_CODE":0,"TOWNNAME":"學甲區","LI":"大灣里","LIN":"5鄰","STREET":" ","SECT":" ","MAREA":"大灣","LANE":" ","ALLEY":" ","HOUSE_NO":"４０號之３","E_COORD97":166737,"N_COORD97":2567906.27,"ADDRESS":"大灣４０號之３","OBJECTID":154366},"geometry":{"x":166737.00000000093,"y":2567906.2699999996}},{"attributes":{"ID":154368,"DIS_CODE":0,"TOWNNAME":"學甲區","LI":"大灣里","LIN":"5鄰","STREET":" ","SECT":" ","MAREA":"大灣","LANE":" ","ALLEY":" ","HOUSE_NO":"４０號之５","E_COORD97":166733.19,"N_COORD97":2567904.3399999999,"ADDRESS":"大灣４０號之５","OBJECTID":154367},"geometry":{"x":166733.19000000134,"y":2567904.3400000017}},{"attributes":{"ID":154369,"DIS_CODE":0,"TOWNNAME":"學甲區","LI":"大灣里","LIN":"5鄰","STREET":" ","SECT":" ","MAREA":"大灣","LANE":" ","ALLEY":" ","HOUSE_NO":"４０號之６","E_COORD97":166739.23000000001,"N_COORD97":2567888.4700000002,"ADDRESS":"大灣４０號之６","OBJECTID":154368},"geometry":{"x":166739.23000000231,"y":2567888.4700000007}},{"attributes":{"ID":154370,"DIS_CODE":0,"TOWNNAME":"學甲區","LI":"大灣里","LIN":"5鄰","STREET":" ","SECT":" ","MAREA":"大灣","LANE":" ","ALLEY":" ","HOUSE_NO":"４０號之７","E_COORD97":166741.32999999999,"N_COORD97":2567882.9399999999,"ADDRESS":"大灣４０號之７","OBJECTID":154369},"geometry":{"x":166741.32999999914,"y":2567882.9400000013}},{"attributes":{"ID":154371,"DIS_CODE":0,"TOWNNAME":"柳營區","LI":"果毅里","LIN":"19鄰","STREET":" ","SECT":" ","MAREA":"南湖","LANE":" ","ALLEY":" ","HOUSE_NO":"１３號","E_COORD97":186107.35000000001,"N_COORD97":2571249.25,"ADDRESS":"南湖１３號","OBJECTID":154370},"geometry":{"x":186107.35000000056,"y":2571249.25}},{"attributes":{"ID":154372,"DIS_CODE":0,"TOWNNAME":"柳營區","LI":"果毅里","LIN":"19鄰","STREET":" ","SECT":" ","MAREA":"南湖","LANE":" ","ALLEY":" ","HOUSE_NO":"１２號","E_COORD97":186223.64999999999,"N_COORD97":2571540.3199999998,"ADDRESS":"南湖１２號","OBJECTID":154371},"geometry":{"x":186223.65000000037,"y":2571540.3200000022}},{"attributes":{"ID":154373,"DIS_CODE":0,"TOWNNAME":"柳營區","LI":"果毅里","LIN":"19鄰","STREET":" ","SECT":" ","MAREA":"南湖","LANE":" ","ALLEY":" ","HOUSE_NO":"１４號之１","E_COORD97":186282.85999999999,"N_COORD97":2571578.5499999998,"ADDRESS":"南湖１４號之１","OBJECTID":154372},"geometry":{"x":186282.86000000034,"y":2571578.5500000045}},{"attributes":{"ID":154374,"DIS_CODE":0,"TOWNNAME":"學甲區","LI":"大灣里","LIN":"5鄰","STREET":" ","SECT":" ","MAREA":"大灣","LANE":" ","ALLEY":" ","HOUSE_NO":"４０號之８","E_COORD97":166743.54000000001,"N_COORD97":2567877.1299999999,"ADDRESS":"大灣４０號之８","OBJECTID":154373},"geometry":{"x":166743.54000000097,"y":2567877.1300000027}},{"attributes":{"ID":154375,"DIS_CODE":0,"TOWNNAME":"學甲區","LI":"大灣里","LIN":"5鄰","STREET":" ","SECT":" ","MAREA":"大灣","LANE":" ","ALLEY":" ","HOUSE_NO":"４０號之９","E_COORD97":166746.14000000001,"N_COORD97":2567871.2400000002,"ADDRESS":"大灣４０號之９","OBJECTID":154374},"geometry":{"x":166746.1400000006,"y":2567871.2400000021}},{"attributes":{"ID":154376,"DIS_CODE":0,"TOWNNAME":"北區","LI":"公園里","LIN":"2鄰","STREET":"北忠街","SECT":" ","MAREA":" ","LANE":"１６巷","ALLEY":"３３弄","HOUSE_NO":"９號","E_COORD97":169199.29000000001,"N_COORD97":2544420.3900000001,"ADDRESS":"北忠街１６巷３３弄９號","OBJECTID":154375},"geometry":{"x":169199.29000000004,"y":2544420.3900000025}},{"attributes":{"ID":154377,"DIS_CODE":0,"TOWNNAME":"學甲區","LI":"大灣里","LIN":"5鄰","STREET":" ","SECT":" ","MAREA":"大灣","LANE":" ","ALLEY":" ","HOUSE_NO":"４０號","E_COORD97":166786.29999999999,"N_COORD97":2567947.6000000001,"ADDRESS":"大灣４０號","OBJECTID":154376},"geometry":{"x":166786.29999999981,"y":2567947.5999999996}},{"attributes":{"ID":154378,"DIS_CODE":0,"TOWNNAME":"北區","LI":"正覺里","LIN":"2鄰","STREET":"西門路","SECT":"四段","MAREA":" ","LANE":"３８０巷","ALLEY":"１弄","HOUSE_NO":"１１號","E_COORD97":169050.98999999999,"N_COORD97":2546145.79,"ADDRESS":"西門路四段３８０巷１弄１１號","OBJECTID":154377},"geometry":{"x":169050.99000000209,"y":2546145.7899999991}},{"attributes":{"ID":154379,"DIS_CODE":0,"TOWNNAME":"學甲區","LI":"中洲里","LIN":"5鄰","STREET":" ","SECT":" ","MAREA":"中洲","LANE":" ","ALLEY":" ","HOUSE_NO":"５２號","E_COORD97":163883.13,"N_COORD97":2571550.9199999999,"ADDRESS":"中洲５２號","OBJECTID":154378},"geometry":{"x":163883.13000000082,"y":2571550.9199999999}},{"attributes":{"ID":154380,"DIS_CODE":0,"TOWNNAME":"學甲區","LI":"中洲里","LIN":"5鄰","STREET":" ","SECT":" ","MAREA":"中洲","LANE":" ","ALLEY":" ","HOUSE_NO":"５３號","E_COORD97":163863.76999999999,"N_COORD97":2571554.3799999999,"ADDRESS":"中洲５３號","OBJECTID":154379},"geometry":{"x":163863.76999999955,"y":2571554.3800000008}},{"attributes":{"ID":154381,"DIS_CODE":0,"TOWNNAME":"北區","LI":"正覺里","LIN":"2鄰","STREET":"西門路","SECT":"四段","MAREA":" ","LANE":"３８０巷","ALLEY":"１弄","HOUSE_NO":"１３號","E_COORD97":169053.23999999999,"N_COORD97":2546152.25,"ADDRESS":"西門路四段３８０巷１弄１３號","OBJECTID":154380},"geometry":{"x":169053.24000000115,"y":2546152.2500000019}},{"attributes":{"ID":154382,"DIS_CODE":0,"TOWNNAME":"學甲區","LI":"中洲里","LIN":"5鄰","STREET":" ","SECT":" ","MAREA":"中洲","LANE":" ","ALLEY":" ","HOUSE_NO":"５４號之１","E_COORD97":163859.56,"N_COORD97":2571586.3700000001,"ADDRESS":"中洲５４號之１","OBJECTID":154381},"geometry":{"x":163859.56000000052,"y":2571586.3699999992}},{"attributes":{"ID":154383,"DIS_CODE":0,"TOWNNAME":"學甲區","LI":"中洲里","LIN":"5鄰","STREET":" ","SECT":" ","MAREA":"中洲","LANE":" ","ALLEY":" ","HOUSE_NO":"５４號之２","E_COORD97":163854.59,"N_COORD97":2571586.7999999998,"ADDRESS":"中洲５４號之２","OBJECTID":154382},"geometry":{"x":163854.59000000078,"y":2571586.8000000045}},{"attributes":{"ID":154384,"DIS_CODE":0,"TOWNNAME":"北區","LI":"正覺里","LIN":"2鄰","STREET":"西門路","SECT":"四段","MAREA":" ","LANE":"３８０巷","ALLEY":"１弄","HOUSE_NO":"１５號","E_COORD97":169055.60000000001,"N_COORD97":2546157.4700000002,"ADDRESS":"西門路四段３８０巷１弄１５號","OBJECTID":154383},"geometry":{"x":169055.59999999963,"y":2546157.4699999988}},{"attributes":{"ID":154385,"DIS_CODE":0,"TOWNNAME":"學甲區","LI":"中洲里","LIN":"5鄰","STREET":" ","SECT":" ","MAREA":"中洲","LANE":" ","ALLEY":" ","HOUSE_NO":"５４號","E_COORD97":163863.85999999999,"N_COORD97":2571585.9700000002,"ADDRESS":"中洲５４號","OBJECTID":154384},"geometry":{"x":163863.86000000127,"y":2571585.9700000025}},{"attributes":{"ID":154386,"DIS_CODE":0,"TOWNNAME":"玉井區","LI":"豐里里","LIN":"5鄰","STREET":" ","SECT":" ","MAREA":"豐里","LANE":" ","ALLEY":" ","HOUSE_NO":"５３號","E_COORD97":193126.37,"N_COORD97":2557994.2400000002,"ADDRESS":"豐里５３號","OBJECTID":154385},"geometry":{"x":193126.37000000011,"y":2557994.2400000002}},{"attributes":{"ID":154387,"DIS_CODE":0,"TOWNNAME":"北區","LI":"正覺里","LIN":"2鄰","STREET":"西門路","SECT":"四段","MAREA":" ","LANE":"３８０巷","ALLEY":"１弄","HOUSE_NO":"１７號","E_COORD97":169058.63,"N_COORD97":2546163.8300000001,"ADDRESS":"西門路四段３８０巷１弄１７號","OBJECTID":154386},"geometry":{"x":169058.63000000082,"y":2546163.8300000001}},{"attributes":{"ID":154388,"DIS_CODE":0,"TOWNNAME":"北區","LI":"正覺里","LIN":"2鄰","STREET":"西門路","SECT":"四段","MAREA":" ","LANE":"３８０巷","ALLEY":"１弄","HOUSE_NO":"１９號","E_COORD97":169059.70999999999,"N_COORD97":2546167.9399999999,"ADDRESS":"西門路四段３８０巷１弄１９號","OBJECTID":154387},"geometry":{"x":169059.71000000089,"y":2546167.9400000013}},{"attributes":{"ID":154389,"DIS_CODE":0,"TOWNNAME":"歸仁區","LI":"大廟里","LIN":"19鄰","STREET":"大廟一街","SECT":" ","MAREA":" ","LANE":"２８巷","ALLEY":" ","HOUSE_NO":"８號","E_COORD97":175795.67000000001,"N_COORD97":2544146.25,"ADDRESS":"大廟一街２８巷８號","OBJECTID":154388},"geometry":{"x":175795.66999999993,"y":2544146.2500000019}},{"attributes":{"ID":154390,"DIS_CODE":0,"TOWNNAME":"玉井區","LI":"沙田里","LIN":"5鄰","STREET":" ","SECT":" ","MAREA":"沙田","LANE":" ","ALLEY":" ","HOUSE_NO":"５３之２號","E_COORD97":197749.75,"N_COORD97":2556560.2999999998,"ADDRESS":"沙田５３之２號","OBJECTID":154389},"geometry":{"x":197749.75,"y":2556560.3000000007}},{"attributes":{"ID":154391,"DIS_CODE":0,"TOWNNAME":"永康區","LI":"甲頂里","LIN":"15鄰","STREET":"正新街","SECT":" ","MAREA":" ","LANE":" ","ALLEY":" ","HOUSE_NO":"２８號","E_COORD97":170387.53,"N_COORD97":2546669.1000000001,"ADDRESS":"正新街２８號","OBJECTID":154390},"geometry":{"x":170387.53000000026,"y":2546669.1000000015}},{"attributes":{"ID":154392,"DIS_CODE":0,"TOWNNAME":"玉井區","LI":"三和里","LIN":"5鄰","STREET":" ","SECT":" ","MAREA":"三和","LANE":" ","ALLEY":" ","HOUSE_NO":"５０號之２","E_COORD97":194746,"N_COORD97":2555492.29,"ADDRESS":"三和５０號之２","OBJECTID":154391},"geometry":{"x":194746,"y":2555492.290000001}},{"attributes":{"ID":154393,"DIS_CODE":0,"TOWNNAME":"玉井區","LI":"三和里","LIN":"5鄰","STREET":" ","SECT":" ","MAREA":"三和","LANE":" ","ALLEY":" ","HOUSE_NO":"１０２號之１","E_COORD97":195404.82999999999,"N_COORD97":2554284.2999999998,"ADDRESS":"三和１０２號之１","OBJECTID":154392},"geometry":{"x":195404.83000000007,"y":2554284.3000000007}},{"attributes":{"ID":154394,"DIS_CODE":0,"TOWNNAME":"永康區","LI":"甲頂里","LIN":"15鄰","STREET":"正新街","SECT":" ","MAREA":" ","LANE":" ","ALLEY":" ","HOUSE_NO":"３２號","E_COORD97":170379.87,"N_COORD97":2546674.3500000001,"ADDRESS":"正新街３２號","OBJECTID":154393},"geometry":{"x":170379.87000000104,"y":2546674.3500000015}},{"attributes":{"ID":154395,"DIS_CODE":0,"TOWNNAME":"永康區","LI":"永康里","LIN":"15鄰","STREET":"永中街","SECT":" ","MAREA":" ","LANE":" ","ALLEY":" ","HOUSE_NO":"７６號","E_COORD97":173929.06,"N_COORD97":2547175.02,"ADDRESS":"永中街７６號","OBJECTID":154394},"geometry":{"x":173929.06000000052,"y":2547175.0199999996}},{"attributes":{"ID":154396,"DIS_CODE":0,"TOWNNAME":"新化區","LI":"太平里","LIN":"15鄰","STREET":"太平街","SECT":" ","MAREA":" ","LANE":" ","ALLEY":" ","HOUSE_NO":"３５號","E_COORD97":178925.26999999999,"N_COORD97":2548798.25,"ADDRESS":"太平街３５號","OBJECTID":154395},"geometry":{"x":178925.27000000048,"y":2548798.25}},{"attributes":{"ID":154397,"DIS_CODE":0,"TOWNNAME":"新化區","LI":"協興里","LIN":"15鄰","STREET":"大新路","SECT":" ","MAREA":" ","LANE":" ","ALLEY":" ","HOUSE_NO":"７９號之１","E_COORD97":178075.10999999999,"N_COORD97":2548720.2599999998,"ADDRESS":"大新路７９號之１","OBJECTID":154396},"geometry":{"x":178075.11000000034,"y":2548720.2599999998}},{"attributes":{"ID":154398,"DIS_CODE":0,"TOWNNAME":"北區","LI":"正覺里","LIN":"2鄰","STREET":"西門路","SECT":"四段","MAREA":" ","LANE":"３８０巷","ALLEY":"１弄","HOUSE_NO":"１號","E_COORD97":169040,"N_COORD97":2546118.7400000002,"ADDRESS":"西門路四段３８０巷１弄１號","OBJECTID":154397},"geometry":{"x":169040,"y":2546118.7400000021}},{"attributes":{"ID":154399,"DIS_CODE":0,"TOWNNAME":"柳營區","LI":"東昇里","LIN":"19鄰","STREET":"建國路","SECT":" ","MAREA":" ","LANE":" ","ALLEY":" ","HOUSE_NO":"８０號","E_COORD97":180523.92999999999,"N_COORD97":2575234.8100000001,"ADDRESS":"建國路８０號","OBJECTID":154398},"geometry":{"x":180523.93000000156,"y":2575234.8100000024}},{"attributes":{"ID":154400,"DIS_CODE":0,"TOWNNAME":"北區","LI":"正覺里","LIN":"2鄰","STREET":"西門路","SECT":"四段","MAREA":" ","LANE":"３８０巷","ALLEY":"１弄","HOUSE_NO":"２１號","E_COORD97":169062.35999999999,"N_COORD97":2546173.3199999998,"ADDRESS":"西門路四段３８０巷１弄２１號","OBJECTID":154399},"geometry":{"x":169062.36000000127,"y":2546173.3200000022}},{"attributes":{"ID":154401,"DIS_CODE":0,"TOWNNAME":"北區","LI":"正覺里","LIN":"2鄰","STREET":"西門路","SECT":"四段","MAREA":" ","LANE":"３８０巷","ALLEY":"１弄","HOUSE_NO":"２３號","E_COORD97":169064.89999999999,"N_COORD97":2546179.1000000001,"ADDRESS":"西門路四段３８０巷１弄２３號","OBJECTID":154400},"geometry":{"x":169064.90000000037,"y":2546179.0999999996}}]}