{"displayFieldName":"TOWNNAME","fieldAliases":{"ID":"ID","DIS_CODE":"DIS_CODE","TOWNNAME":"TOWNNAME","LI":"LI","LIN":"LIN","STREET":"STREET","SECT":"SECT","MAREA":"MAREA","LANE":"LANE","ALLEY":"ALLEY","HOUSE_NO":"HOUSE_NO","E_COORD97":"E_COORD97","N_COORD97":"N_COORD97","ADDRESS":"ADDRESS","OBJECTID":"OBJECTID"},"geometryType":"esriGeometryPoint","spatialReference":{"wkid":102443,"latestWkid":3826},"fields":[{"name":"ID","type":"esriFieldTypeDouble","alias":"ID"},{"name":"DIS_CODE","type":"esriFieldTypeInteger","alias":"DIS_CODE"},{"name":"TOWNNAME","type":"esriFieldTypeString","alias":"TOWNNAME","length":8},{"name":"LI","type":"esriFieldTypeString","alias":"LI","length":8},{"name":"LIN","type":"esriFieldTypeString","alias":"LIN","length":12},{"name":"STREET","type":"esriFieldTypeString","alias":"STREET","length":20},{"name":"SECT","type":"esriFieldTypeString","alias":"SECT","length":8},{"name":"MAREA","type":"esriFieldTypeString","alias":"MAREA","length":12},{"name":"LANE","type":"esriFieldTypeString","alias":"LANE","length":10},{"name":"ALLEY","type":"esriFieldTypeString","alias":"ALLEY","length":10},{"name":"HOUSE_NO","type":"esriFieldTypeString","alias":"HOUSE_NO","length":20},{"name":"E_COORD97","type":"esriFieldTypeDouble","alias":"E_COORD97"},{"name":"N_COORD97","type":"esriFieldTypeDouble","alias":"N_COORD97"},{"name":"ADDRESS","type":"esriFieldTypeString","alias":"ADDRESS","length":50},{"name":"OBJECTID","type":"esriFieldTypeOID","alias":"OBJECTID"}],"features":[{"attributes":{"ID":626228,"DIS_CODE":0,"TOWNNAME":"永康區","LI":"烏竹里","LIN":"17鄰","STREET":"竹園一街","SECT":" ","MAREA":" ","LANE":" ","ALLEY":" ","HOUSE_NO":"５１號二樓之２","E_COORD97":174398.45000000001,"N_COORD97":2548942.0800000001,"ADDRESS":"竹園一街５１號二樓之２","OBJECTID":626201},"geometry":{"x":174398.45000000112,"y":2548942.0800000001}},{"attributes":{"ID":626229,"DIS_CODE":0,"TOWNNAME":"永康區","LI":"烏竹里","LIN":"17鄰","STREET":"竹園一街","SECT":" ","MAREA":" ","LANE":" ","ALLEY":" ","HOUSE_NO":"５１號五樓之２","E_COORD97":174398.45000000001,"N_COORD97":2548942.0800000001,"ADDRESS":"竹園一街５１號五樓之２","OBJECTID":626202},"geometry":{"x":174398.45000000112,"y":2548942.0800000001}},{"attributes":{"ID":626230,"DIS_CODE":0,"TOWNNAME":"永康區","LI":"埔園里","LIN":"15鄰","STREET":"龍埔街","SECT":" ","MAREA":" ","LANE":" ","ALLEY":" ","HOUSE_NO":"５５２號六樓之２","E_COORD97":173503.67000000001,"N_COORD97":2548395.5499999998,"ADDRESS":"龍埔街５５２號六樓之２","OBJECTID":626203},"geometry":{"x":173503.66999999993,"y":2548395.5500000026}},{"attributes":{"ID":626231,"DIS_CODE":0,"TOWNNAME":"永康區","LI":"埔園里","LIN":"38鄰","STREET":"龍中街","SECT":" ","MAREA":" ","LANE":" ","ALLEY":" ","HOUSE_NO":"３５９號三樓之３","E_COORD97":174402.79999999999,"N_COORD97":2547932.0800000001,"ADDRESS":"龍中街３５９號三樓之３","OBJECTID":626204},"geometry":{"x":174402.79999999981,"y":2547932.0800000001}},{"attributes":{"ID":626232,"DIS_CODE":0,"TOWNNAME":"永康區","LI":"烏竹里","LIN":"17鄰","STREET":"竹園一街","SECT":" ","MAREA":" ","LANE":" ","ALLEY":" ","HOUSE_NO":"５１號五樓之１","E_COORD97":174398.32000000001,"N_COORD97":2548942.0800000001,"ADDRESS":"竹園一街５１號五樓之１","OBJECTID":626205},"geometry":{"x":174398.3200000003,"y":2548942.0800000001}},{"attributes":{"ID":626233,"DIS_CODE":0,"TOWNNAME":"永康區","LI":"烏竹里","LIN":"17鄰","STREET":"竹園一街","SECT":" ","MAREA":" ","LANE":" ","ALLEY":" ","HOUSE_NO":"５１號三樓之１","E_COORD97":174398.32000000001,"N_COORD97":2548942.0800000001,"ADDRESS":"竹園一街５１號三樓之１","OBJECTID":626206},"geometry":{"x":174398.3200000003,"y":2548942.0800000001}},{"attributes":{"ID":626234,"DIS_CODE":0,"TOWNNAME":"永康區","LI":"埔園里","LIN":"15鄰","STREET":"龍埔街","SECT":" ","MAREA":" ","LANE":" ","ALLEY":" ","HOUSE_NO":"５５０號七樓之４","E_COORD97":173517.14000000001,"N_COORD97":2548397.0499999998,"ADDRESS":"龍埔街５５０號七樓之４","OBJECTID":626207},"geometry":{"x":173517.13999999966,"y":2548397.0500000007}},{"attributes":{"ID":626235,"DIS_CODE":0,"TOWNNAME":"永康區","LI":"埔園里","LIN":"15鄰","STREET":"龍埔街","SECT":" ","MAREA":" ","LANE":" ","ALLEY":" ","HOUSE_NO":"５５０號二樓之３","E_COORD97":173517.20999999999,"N_COORD97":2548397.0499999998,"ADDRESS":"龍埔街５５０號二樓之３","OBJECTID":626208},"geometry":{"x":173517.20999999996,"y":2548397.0500000007}},{"attributes":{"ID":626236,"DIS_CODE":0,"TOWNNAME":"永康區","LI":"埔園里","LIN":"15鄰","STREET":"龍埔街","SECT":" ","MAREA":" ","LANE":" ","ALLEY":" ","HOUSE_NO":"５５０號五樓之１","E_COORD97":173517.10999999999,"N_COORD97":2548397.0499999998,"ADDRESS":"龍埔街５５０號五樓之１","OBJECTID":626209},"geometry":{"x":173517.1100000022,"y":2548397.0500000007}},{"attributes":{"ID":626237,"DIS_CODE":0,"TOWNNAME":"永康區","LI":"埔園里","LIN":"38鄰","STREET":"龍中街","SECT":" ","MAREA":" ","LANE":" ","ALLEY":" ","HOUSE_NO":"３５９號五樓之３","E_COORD97":174402.79999999999,"N_COORD97":2547932.0800000001,"ADDRESS":"龍中街３５９號五樓之３","OBJECTID":626210},"geometry":{"x":174402.79999999981,"y":2547932.0800000001}},{"attributes":{"ID":626238,"DIS_CODE":0,"TOWNNAME":"永康區","LI":"埔園里","LIN":"38鄰","STREET":"龍中街","SECT":" ","MAREA":" ","LANE":" ","ALLEY":" ","HOUSE_NO":"３５９號四樓之２","E_COORD97":174402.84,"N_COORD97":2547932.0800000001,"ADDRESS":"龍中街３５９號四樓之２","OBJECTID":626211},"geometry":{"x":174402.83999999985,"y":2547932.0800000001}},{"attributes":{"ID":626239,"DIS_CODE":0,"TOWNNAME":"永康區","LI":"埔園里","LIN":"38鄰","STREET":"龍中街","SECT":" ","MAREA":" ","LANE":" ","ALLEY":" ","HOUSE_NO":"３５９號七樓之２","E_COORD97":174402.84,"N_COORD97":2547932.0800000001,"ADDRESS":"龍中街３５９號七樓之２","OBJECTID":626212},"geometry":{"x":174402.83999999985,"y":2547932.0800000001}},{"attributes":{"ID":626240,"DIS_CODE":0,"TOWNNAME":"永康區","LI":"烏竹里","LIN":"17鄰","STREET":"竹園一街","SECT":" ","MAREA":" ","LANE":" ","ALLEY":" ","HOUSE_NO":"５３號三樓之２","E_COORD97":174393.59,"N_COORD97":2548940.3300000001,"ADDRESS":"竹園一街５３號三樓之２","OBJECTID":626213},"geometry":{"x":174393.59000000078,"y":2548940.3300000001}},{"attributes":{"ID":626241,"DIS_CODE":0,"TOWNNAME":"永康區","LI":"烏竹里","LIN":"17鄰","STREET":"竹園一街","SECT":" ","MAREA":" ","LANE":" ","ALLEY":" ","HOUSE_NO":"５３號六樓之１","E_COORD97":174393.45999999999,"N_COORD97":2548940.3300000001,"ADDRESS":"竹園一街５３號六樓之１","OBJECTID":626214},"geometry":{"x":174393.45999999996,"y":2548940.3300000001}},{"attributes":{"ID":626242,"DIS_CODE":0,"TOWNNAME":"永康區","LI":"烏竹里","LIN":"17鄰","STREET":"竹園一街","SECT":" ","MAREA":" ","LANE":" ","ALLEY":" ","HOUSE_NO":"５１號六樓之１","E_COORD97":174398.32000000001,"N_COORD97":2548942.0800000001,"ADDRESS":"竹園一街５１號六樓之１","OBJECTID":626215},"geometry":{"x":174398.3200000003,"y":2548942.0800000001}},{"attributes":{"ID":626243,"DIS_CODE":0,"TOWNNAME":"永康區","LI":"崑山里","LIN":"38鄰","STREET":"崑山街","SECT":" ","MAREA":" ","LANE":" ","ALLEY":" ","HOUSE_NO":"１９３號六樓之１","E_COORD97":174058.26999999999,"N_COORD97":2544972.3999999999,"ADDRESS":"崑山街１９３號六樓之１","OBJECTID":626216},"geometry":{"x":174058.27000000048,"y":2544972.4000000022}},{"attributes":{"ID":626244,"DIS_CODE":0,"TOWNNAME":"永康區","LI":"崑山里","LIN":"38鄰","STREET":"崑山街","SECT":" ","MAREA":" ","LANE":" ","ALLEY":" ","HOUSE_NO":"１９３號五樓之１","E_COORD97":174058.26999999999,"N_COORD97":2544972.3999999999,"ADDRESS":"崑山街１９３號五樓之１","OBJECTID":626217},"geometry":{"x":174058.27000000048,"y":2544972.4000000022}},{"attributes":{"ID":626245,"DIS_CODE":0,"TOWNNAME":"永康區","LI":"埔園里","LIN":"38鄰","STREET":"龍中街","SECT":" ","MAREA":" ","LANE":" ","ALLEY":" ","HOUSE_NO":"３５９號四樓之３","E_COORD97":174402.79999999999,"N_COORD97":2547932.0800000001,"ADDRESS":"龍中街３５９號四樓之３","OBJECTID":626218},"geometry":{"x":174402.79999999981,"y":2547932.0800000001}},{"attributes":{"ID":626246,"DIS_CODE":0,"TOWNNAME":"永康區","LI":"埔園里","LIN":"15鄰","STREET":"龍埔街","SECT":" ","MAREA":" ","LANE":" ","ALLEY":" ","HOUSE_NO":"５５２號八樓之２","E_COORD97":173503.67000000001,"N_COORD97":2548395.5499999998,"ADDRESS":"龍埔街５５２號八樓之２","OBJECTID":626219},"geometry":{"x":173503.66999999993,"y":2548395.5500000026}},{"attributes":{"ID":626247,"DIS_CODE":0,"TOWNNAME":"永康區","LI":"埔園里","LIN":"38鄰","STREET":"龍中街","SECT":" ","MAREA":" ","LANE":" ","ALLEY":" ","HOUSE_NO":"３５９號六樓之３","E_COORD97":174402.79999999999,"N_COORD97":2547932.0800000001,"ADDRESS":"龍中街３５９號六樓之３","OBJECTID":626220},"geometry":{"x":174402.79999999981,"y":2547932.0800000001}},{"attributes":{"ID":626248,"DIS_CODE":0,"TOWNNAME":"永康區","LI":"烏竹里","LIN":"17鄰","STREET":"竹園一街","SECT":" ","MAREA":" ","LANE":" ","ALLEY":" ","HOUSE_NO":"５１號三樓之２","E_COORD97":174398.45000000001,"N_COORD97":2548942.0800000001,"ADDRESS":"竹園一街５１號三樓之２","OBJECTID":626221},"geometry":{"x":174398.45000000112,"y":2548942.0800000001}},{"attributes":{"ID":626249,"DIS_CODE":0,"TOWNNAME":"東區","LI":"大福里","LIN":"24鄰","STREET":"中華東路","SECT":"三段","MAREA":" ","LANE":" ","ALLEY":" ","HOUSE_NO":"５２４號四樓之３","E_COORD97":169690.23000000001,"N_COORD97":2541533.2999999998,"ADDRESS":"中華東路三段５２４號四樓之３","OBJECTID":626222},"geometry":{"x":169690.23000000045,"y":2541533.3000000007}},{"attributes":{"ID":626250,"DIS_CODE":0,"TOWNNAME":"東區","LI":"路東里","LIN":"1鄰","STREET":"大同路","SECT":"二段","MAREA":" ","LANE":" ","ALLEY":" ","HOUSE_NO":"６３號四樓之６","E_COORD97":169325.60000000001,"N_COORD97":2542231.3199999998,"ADDRESS":"大同路二段６３號四樓之６","OBJECTID":626223},"geometry":{"x":169325.59999999963,"y":2542231.3200000003}},{"attributes":{"ID":626251,"DIS_CODE":0,"TOWNNAME":"東區","LI":"莊敬里","LIN":"28鄰","STREET":"中華東路","SECT":"一段","MAREA":" ","LANE":" ","ALLEY":" ","HOUSE_NO":"６６號四樓","E_COORD97":171487.25,"N_COORD97":2544076.27,"ADDRESS":"中華東路一段６６號四樓","OBJECTID":626224},"geometry":{"x":171487.25000000093,"y":2544076.2700000033}},{"attributes":{"ID":626252,"DIS_CODE":0,"TOWNNAME":"東區","LI":"莊敬里","LIN":"11鄰","STREET":"中華東路","SECT":"一段","MAREA":" ","LANE":" ","ALLEY":" ","HOUSE_NO":"１２號五樓之５","E_COORD97":171508.60000000001,"N_COORD97":2544229.4100000001,"ADDRESS":"中華東路一段１２號五樓之５","OBJECTID":626225},"geometry":{"x":171508.59999999963,"y":2544229.410000002}},{"attributes":{"ID":626253,"DIS_CODE":0,"TOWNNAME":"東區","LI":"莊敬里","LIN":"11鄰","STREET":"中華東路","SECT":"一段","MAREA":" ","LANE":" ","ALLEY":" ","HOUSE_NO":"１２號六樓之３","E_COORD97":171508.60000000001,"N_COORD97":2544229.4100000001,"ADDRESS":"中華東路一段１２號六樓之３","OBJECTID":626226},"geometry":{"x":171508.59999999963,"y":2544229.410000002}},{"attributes":{"ID":626254,"DIS_CODE":0,"TOWNNAME":"東區","LI":"莊敬里","LIN":"11鄰","STREET":"中華東路","SECT":"一段","MAREA":" ","LANE":" ","ALLEY":" ","HOUSE_NO":"１２號九樓之２","E_COORD97":171508.60000000001,"N_COORD97":2544229.4100000001,"ADDRESS":"中華東路一段１２號九樓之２","OBJECTID":626227},"geometry":{"x":171508.59999999963,"y":2544229.410000002}},{"attributes":{"ID":626255,"DIS_CODE":0,"TOWNNAME":"東區","LI":"莊敬里","LIN":"11鄰","STREET":"中華東路","SECT":"一段","MAREA":" ","LANE":" ","ALLEY":" ","HOUSE_NO":"１２號十一樓之２","E_COORD97":171508.60000000001,"N_COORD97":2544229.4100000001,"ADDRESS":"中華東路一段１２號十一樓之２","OBJECTID":626228},"geometry":{"x":171508.59999999963,"y":2544229.410000002}},{"attributes":{"ID":626256,"DIS_CODE":0,"TOWNNAME":"東區","LI":"中西里","LIN":"22鄰","STREET":"長榮路","SECT":"二段","MAREA":" ","LANE":" ","ALLEY":" ","HOUSE_NO":"１０６號七樓之１","E_COORD97":170014.82000000001,"N_COORD97":2543281.4900000002,"ADDRESS":"長榮路二段１０６號七樓之１","OBJECTID":626229},"geometry":{"x":170014.8200000003,"y":2543281.4900000002}},{"attributes":{"ID":626257,"DIS_CODE":0,"TOWNNAME":"東區","LI":"崇信里","LIN":"19鄰","STREET":"崇信街","SECT":" ","MAREA":" ","LANE":" ","ALLEY":" ","HOUSE_NO":"１４８號二樓","E_COORD97":170806.51999999999,"N_COORD97":2542226.9900000002,"ADDRESS":"崇信街１４８號二樓","OBJECTID":626230},"geometry":{"x":170806.52000000048,"y":2542226.9900000002}},{"attributes":{"ID":626258,"DIS_CODE":0,"TOWNNAME":"東區","LI":"崇信里","LIN":"19鄰","STREET":"崇信街","SECT":" ","MAREA":" ","LANE":" ","ALLEY":" ","HOUSE_NO":"１４８號三樓","E_COORD97":170806.51999999999,"N_COORD97":2542226.9900000002,"ADDRESS":"崇信街１４８號三樓","OBJECTID":626231},"geometry":{"x":170806.52000000048,"y":2542226.9900000002}},{"attributes":{"ID":626259,"DIS_CODE":0,"TOWNNAME":"東區","LI":"崇信里","LIN":"19鄰","STREET":"崇信街","SECT":" ","MAREA":" ","LANE":" ","ALLEY":" ","HOUSE_NO":"１４８號四樓","E_COORD97":170806.51999999999,"N_COORD97":2542226.9900000002,"ADDRESS":"崇信街１４８號四樓","OBJECTID":626232},"geometry":{"x":170806.52000000048,"y":2542226.9900000002}},{"attributes":{"ID":626260,"DIS_CODE":0,"TOWNNAME":"東區","LI":"南聖里","LIN":"11鄰","STREET":"裕農路","SECT":" ","MAREA":" ","LANE":" ","ALLEY":" ","HOUSE_NO":"８５８號二樓","E_COORD97":172200.81,"N_COORD97":2543290.7000000002,"ADDRESS":"裕農路８５８號二樓","OBJECTID":626233},"geometry":{"x":172200.80999999959,"y":2543290.7000000011}},{"attributes":{"ID":626261,"DIS_CODE":0,"TOWNNAME":"東區","LI":"成大里","LIN":"11鄰","STREET":"育樂街","SECT":" ","MAREA":" ","LANE":" ","ALLEY":" ","HOUSE_NO":"１６６號之２三樓","E_COORD97":169489.70000000001,"N_COORD97":2543950.8700000001,"ADDRESS":"育樂街１６６號之２三樓","OBJECTID":626234},"geometry":{"x":169489.70000000019,"y":2543950.870000001}},{"attributes":{"ID":626262,"DIS_CODE":0,"TOWNNAME":"東區","LI":"中西里","LIN":"30鄰","STREET":"東寧路","SECT":" ","MAREA":" ","LANE":" ","ALLEY":" ","HOUSE_NO":"１８６號三樓之１","E_COORD97":170458.85000000001,"N_COORD97":2543507.6000000001,"ADDRESS":"東寧路１８６號三樓之１","OBJECTID":626235},"geometry":{"x":170458.85000000056,"y":2543507.5999999978}},{"attributes":{"ID":626263,"DIS_CODE":0,"TOWNNAME":"東區","LI":"中西里","LIN":"30鄰","STREET":"東寧路","SECT":" ","MAREA":" ","LANE":" ","ALLEY":" ","HOUSE_NO":"１８６號三樓之２","E_COORD97":170458.85000000001,"N_COORD97":2543507.6000000001,"ADDRESS":"東寧路１８６號三樓之２","OBJECTID":626236},"geometry":{"x":170458.85000000056,"y":2543507.5999999978}},{"attributes":{"ID":626264,"DIS_CODE":0,"TOWNNAME":"東區","LI":"和平里","LIN":"2鄰","STREET":"文化路","SECT":" ","MAREA":" ","LANE":" ","ALLEY":" ","HOUSE_NO":"９９號二樓","E_COORD97":171289.29999999999,"N_COORD97":2541983.5699999998,"ADDRESS":"文化路９９號二樓","OBJECTID":626237},"geometry":{"x":171289.29999999981,"y":2541983.5700000022}},{"attributes":{"ID":626265,"DIS_CODE":0,"TOWNNAME":"東區","LI":"和平里","LIN":"2鄰","STREET":"文化路","SECT":" ","MAREA":" ","LANE":" ","ALLEY":" ","HOUSE_NO":"９９號三樓","E_COORD97":171289.29999999999,"N_COORD97":2541983.5699999998,"ADDRESS":"文化路９９號三樓","OBJECTID":626238},"geometry":{"x":171289.29999999981,"y":2541983.5700000022}},{"attributes":{"ID":626266,"DIS_CODE":0,"TOWNNAME":"東區","LI":"和平里","LIN":"2鄰","STREET":"文化路","SECT":" ","MAREA":" ","LANE":" ","ALLEY":" ","HOUSE_NO":"９９號四樓","E_COORD97":171289.29999999999,"N_COORD97":2541983.5699999998,"ADDRESS":"文化路９９號四樓","OBJECTID":626239},"geometry":{"x":171289.29999999981,"y":2541983.5700000022}},{"attributes":{"ID":626267,"DIS_CODE":0,"TOWNNAME":"東區","LI":"和平里","LIN":"2鄰","STREET":"文化路","SECT":" ","MAREA":" ","LANE":" ","ALLEY":" ","HOUSE_NO":"９９號五樓","E_COORD97":171289.29999999999,"N_COORD97":2541983.5699999998,"ADDRESS":"文化路９９號五樓","OBJECTID":626240},"geometry":{"x":171289.29999999981,"y":2541983.5700000022}},{"attributes":{"ID":626268,"DIS_CODE":0,"TOWNNAME":"東區","LI":"和平里","LIN":"2鄰","STREET":"文化路","SECT":" ","MAREA":" ","LANE":" ","ALLEY":" ","HOUSE_NO":"９９號六樓","E_COORD97":171289.29999999999,"N_COORD97":2541983.5699999998,"ADDRESS":"文化路９９號六樓","OBJECTID":626241},"geometry":{"x":171289.29999999981,"y":2541983.5700000022}},{"attributes":{"ID":626269,"DIS_CODE":0,"TOWNNAME":"東區","LI":"南聖里","LIN":"11鄰","STREET":"裕農路","SECT":" ","MAREA":" ","LANE":" ","ALLEY":" ","HOUSE_NO":"８５８號三樓","E_COORD97":172200.81,"N_COORD97":2543290.7000000002,"ADDRESS":"裕農路８５８號三樓","OBJECTID":626242},"geometry":{"x":172200.80999999959,"y":2543290.7000000011}},{"attributes":{"ID":626270,"DIS_CODE":0,"TOWNNAME":"東區","LI":"南聖里","LIN":"11鄰","STREET":"裕農路","SECT":" ","MAREA":" ","LANE":" ","ALLEY":" ","HOUSE_NO":"８５８號四樓","E_COORD97":172200.81,"N_COORD97":2543290.7000000002,"ADDRESS":"裕農路８５８號四樓","OBJECTID":626243},"geometry":{"x":172200.80999999959,"y":2543290.7000000011}},{"attributes":{"ID":626271,"DIS_CODE":0,"TOWNNAME":"東區","LI":"大福里","LIN":"24鄰","STREET":"中華東路","SECT":"三段","MAREA":" ","LANE":" ","ALLEY":" ","HOUSE_NO":"５２４號五樓之９","E_COORD97":169690.23000000001,"N_COORD97":2541533.2999999998,"ADDRESS":"中華東路三段５２４號五樓之９","OBJECTID":626244},"geometry":{"x":169690.23000000045,"y":2541533.3000000007}},{"attributes":{"ID":626272,"DIS_CODE":0,"TOWNNAME":"東區","LI":"莊敬里","LIN":"11鄰","STREET":"中華東路","SECT":"一段","MAREA":" ","LANE":" ","ALLEY":" ","HOUSE_NO":"１２號十樓之９","E_COORD97":171508.60000000001,"N_COORD97":2544229.4100000001,"ADDRESS":"中華東路一段１２號十樓之９","OBJECTID":626245},"geometry":{"x":171508.59999999963,"y":2544229.410000002}},{"attributes":{"ID":626273,"DIS_CODE":0,"TOWNNAME":"東區","LI":"莊敬里","LIN":"11鄰","STREET":"中華東路","SECT":"一段","MAREA":" ","LANE":" ","ALLEY":" ","HOUSE_NO":"１２號七樓之９","E_COORD97":171508.60000000001,"N_COORD97":2544229.4100000001,"ADDRESS":"中華東路一段１２號七樓之９","OBJECTID":626246},"geometry":{"x":171508.59999999963,"y":2544229.410000002}},{"attributes":{"ID":626274,"DIS_CODE":0,"TOWNNAME":"東區","LI":"莊敬里","LIN":"11鄰","STREET":"中華東路","SECT":"一段","MAREA":" ","LANE":" ","ALLEY":" ","HOUSE_NO":"１２號十四樓之９","E_COORD97":171508.60000000001,"N_COORD97":2544229.4100000001,"ADDRESS":"中華東路一段１２號十四樓之９","OBJECTID":626247},"geometry":{"x":171508.59999999963,"y":2544229.410000002}},{"attributes":{"ID":626275,"DIS_CODE":0,"TOWNNAME":"東區","LI":"莊敬里","LIN":"11鄰","STREET":"中華東路","SECT":"一段","MAREA":" ","LANE":" ","ALLEY":" ","HOUSE_NO":"１２號十一樓之９","E_COORD97":171508.60000000001,"N_COORD97":2544229.4100000001,"ADDRESS":"中華東路一段１２號十一樓之９","OBJECTID":626248},"geometry":{"x":171508.59999999963,"y":2544229.410000002}},{"attributes":{"ID":626276,"DIS_CODE":0,"TOWNNAME":"東區","LI":"崇成里","LIN":"18鄰","STREET":"崇德路","SECT":" ","MAREA":" ","LANE":" ","ALLEY":" ","HOUSE_NO":"６４６號二樓","E_COORD97":170765.07000000001,"N_COORD97":2541153.1800000002,"ADDRESS":"崇德路６４６號二樓","OBJECTID":626249},"geometry":{"x":170765.07000000123,"y":2541153.1799999997}},{"attributes":{"ID":626277,"DIS_CODE":0,"TOWNNAME":"東區","LI":"莊敬里","LIN":"25鄰","STREET":"東平路","SECT":" ","MAREA":" ","LANE":" ","ALLEY":" ","HOUSE_NO":"６０號十一樓","E_COORD97":171272.25,"N_COORD97":2543970.6299999999,"ADDRESS":"東平路６０號十一樓","OBJECTID":626250},"geometry":{"x":171272.25000000093,"y":2543970.629999999}},{"attributes":{"ID":626278,"DIS_CODE":0,"TOWNNAME":"東區","LI":"莊敬里","LIN":"25鄰","STREET":"東平路","SECT":" ","MAREA":" ","LANE":" ","ALLEY":" ","HOUSE_NO":"６０號十二樓","E_COORD97":171272.25,"N_COORD97":2543970.6299999999,"ADDRESS":"東平路６０號十二樓","OBJECTID":626251},"geometry":{"x":171272.25000000093,"y":2543970.629999999}},{"attributes":{"ID":626279,"DIS_CODE":0,"TOWNNAME":"善化區","LI":"嘉北里","LIN":" ","STREET":"中山路","SECT":" ","MAREA":" ","LANE":" ","ALLEY":" ","HOUSE_NO":"３００之２號一樓","E_COORD97":180629.63,"N_COORD97":2578414.2999999998,"ADDRESS":"中山路３００之２號一樓","OBJECTID":626252},"geometry":{"x":180629.63000000175,"y":2578414.3000000007}},{"attributes":{"ID":626280,"DIS_CODE":0,"TOWNNAME":"仁德區","LI":"上崙里","LIN":"4鄰","STREET":"德崙路","SECT":" ","MAREA":" ","LANE":" ","ALLEY":" ","HOUSE_NO":"２５９號五樓之３","E_COORD97":173819.92000000001,"N_COORD97":2538185.79,"ADDRESS":"德崙路２５９號五樓之３","OBJECTID":626253},"geometry":{"x":173819.92000000086,"y":2538185.7899999991}},{"attributes":{"ID":626281,"DIS_CODE":0,"TOWNNAME":"仁德區","LI":"上崙里","LIN":"4鄰","STREET":"德崙路","SECT":" ","MAREA":" ","LANE":" ","ALLEY":" ","HOUSE_NO":"２５９號二樓之３","E_COORD97":173819.92000000001,"N_COORD97":2538185.79,"ADDRESS":"德崙路２５９號二樓之３","OBJECTID":626254},"geometry":{"x":173819.92000000086,"y":2538185.7899999991}},{"attributes":{"ID":626282,"DIS_CODE":0,"TOWNNAME":"仁德區","LI":"上崙里","LIN":"4鄰","STREET":"德崙路","SECT":" ","MAREA":" ","LANE":" ","ALLEY":" ","HOUSE_NO":"２５１號五樓之２","E_COORD97":173796.85999999999,"N_COORD97":2538191.79,"ADDRESS":"德崙路２５１號五樓之２","OBJECTID":626255},"geometry":{"x":173796.8600000022,"y":2538191.7899999991}},{"attributes":{"ID":626283,"DIS_CODE":0,"TOWNNAME":"仁德區","LI":"上崙里","LIN":"4鄰","STREET":"德崙路","SECT":" ","MAREA":" ","LANE":" ","ALLEY":" ","HOUSE_NO":"２５１號四樓之５","E_COORD97":173796.88,"N_COORD97":2538191.79,"ADDRESS":"德崙路２５１號四樓之５","OBJECTID":626256},"geometry":{"x":173796.88000000082,"y":2538191.7899999991}},{"attributes":{"ID":626284,"DIS_CODE":0,"TOWNNAME":"仁德區","LI":"上崙里","LIN":"4鄰","STREET":"德崙路","SECT":" ","MAREA":" ","LANE":" ","ALLEY":" ","HOUSE_NO":"２５９號六樓之２","E_COORD97":173819.95999999999,"N_COORD97":2538185.79,"ADDRESS":"德崙路２５９號六樓之２","OBJECTID":626257},"geometry":{"x":173819.96000000089,"y":2538185.7899999991}},{"attributes":{"ID":626285,"DIS_CODE":0,"TOWNNAME":"仁德區","LI":"上崙里","LIN":"4鄰","STREET":"德崙路","SECT":" ","MAREA":" ","LANE":" ","ALLEY":" ","HOUSE_NO":"２５９號四樓之１","E_COORD97":173819.82000000001,"N_COORD97":2538185.79,"ADDRESS":"德崙路２５９號四樓之１","OBJECTID":626258},"geometry":{"x":173819.82000000123,"y":2538185.7899999991}},{"attributes":{"ID":626286,"DIS_CODE":0,"TOWNNAME":"仁德區","LI":"後壁里","LIN":"42鄰","STREET":"德崙路","SECT":" ","MAREA":" ","LANE":" ","ALLEY":" ","HOUSE_NO":"７０號五樓之２","E_COORD97":173359.64999999999,"N_COORD97":2538515.54,"ADDRESS":"德崙路７０號五樓之２","OBJECTID":626259},"geometry":{"x":173359.6500000013,"y":2538515.5399999991}},{"attributes":{"ID":626287,"DIS_CODE":0,"TOWNNAME":"仁德區","LI":"上崙里","LIN":"4鄰","STREET":"德崙路","SECT":" ","MAREA":" ","LANE":" ","ALLEY":" ","HOUSE_NO":"２５１號七樓之１","E_COORD97":173796.72,"N_COORD97":2538191.79,"ADDRESS":"德崙路２５１號七樓之１","OBJECTID":626260},"geometry":{"x":173796.71999999974,"y":2538191.7899999991}},{"attributes":{"ID":626288,"DIS_CODE":0,"TOWNNAME":"仁德區","LI":"上崙里","LIN":"4鄰","STREET":"德崙路","SECT":" ","MAREA":" ","LANE":" ","ALLEY":" ","HOUSE_NO":"２５１號六樓之４","E_COORD97":173796.75,"N_COORD97":2538191.79,"ADDRESS":"德崙路２５１號六樓之４","OBJECTID":626261},"geometry":{"x":173796.75,"y":2538191.7899999991}},{"attributes":{"ID":626289,"DIS_CODE":0,"TOWNNAME":"仁德區","LI":"上崙里","LIN":"4鄰","STREET":"德崙路","SECT":" ","MAREA":" ","LANE":" ","ALLEY":" ","HOUSE_NO":"２５１號三樓之１","E_COORD97":173796.72,"N_COORD97":2538191.79,"ADDRESS":"德崙路２５１號三樓之１","OBJECTID":626262},"geometry":{"x":173796.71999999974,"y":2538191.7899999991}},{"attributes":{"ID":626290,"DIS_CODE":0,"TOWNNAME":"仁德區","LI":"上崙里","LIN":"4鄰","STREET":"德崙路","SECT":" ","MAREA":" ","LANE":" ","ALLEY":" ","HOUSE_NO":"２５１號四樓之３","E_COORD97":173796.82000000001,"N_COORD97":2538191.79,"ADDRESS":"德崙路２５１號四樓之３","OBJECTID":626263},"geometry":{"x":173796.8200000003,"y":2538191.7899999991}},{"attributes":{"ID":626291,"DIS_CODE":0,"TOWNNAME":"仁德區","LI":"上崙里","LIN":"4鄰","STREET":"德崙路","SECT":" ","MAREA":" ","LANE":" ","ALLEY":" ","HOUSE_NO":"２５１號五樓之３","E_COORD97":173796.82000000001,"N_COORD97":2538191.79,"ADDRESS":"德崙路２５１號五樓之３","OBJECTID":626264},"geometry":{"x":173796.8200000003,"y":2538191.7899999991}},{"attributes":{"ID":626292,"DIS_CODE":0,"TOWNNAME":"仁德區","LI":"上崙里","LIN":"4鄰","STREET":"德崙路","SECT":" ","MAREA":" ","LANE":" ","ALLEY":" ","HOUSE_NO":"２５１號六樓之３","E_COORD97":173796.82000000001,"N_COORD97":2538191.79,"ADDRESS":"德崙路２５１號六樓之３","OBJECTID":626265},"geometry":{"x":173796.8200000003,"y":2538191.7899999991}},{"attributes":{"ID":626293,"DIS_CODE":0,"TOWNNAME":"仁德區","LI":"上崙里","LIN":"4鄰","STREET":"德崙路","SECT":" ","MAREA":" ","LANE":" ","ALLEY":" ","HOUSE_NO":"２５１號三樓之５","E_COORD97":173796.88,"N_COORD97":2538191.79,"ADDRESS":"德崙路２５１號三樓之５","OBJECTID":626266},"geometry":{"x":173796.88000000082,"y":2538191.7899999991}},{"attributes":{"ID":626294,"DIS_CODE":0,"TOWNNAME":"仁德區","LI":"上崙里","LIN":"4鄰","STREET":"德崙路","SECT":" ","MAREA":" ","LANE":" ","ALLEY":" ","HOUSE_NO":"２５１號四樓之６","E_COORD97":173796.82999999999,"N_COORD97":2538191.79,"ADDRESS":"德崙路２５１號四樓之６","OBJECTID":626267},"geometry":{"x":173796.83000000194,"y":2538191.7899999991}},{"attributes":{"ID":626295,"DIS_CODE":0,"TOWNNAME":"仁德區","LI":"上崙里","LIN":"4鄰","STREET":"德崙路","SECT":" ","MAREA":" ","LANE":" ","ALLEY":" ","HOUSE_NO":"２５１號二樓之１","E_COORD97":173796.72,"N_COORD97":2538191.79,"ADDRESS":"德崙路２５１號二樓之１","OBJECTID":626268},"geometry":{"x":173796.71999999974,"y":2538191.7899999991}},{"attributes":{"ID":626296,"DIS_CODE":0,"TOWNNAME":"仁德區","LI":"上崙里","LIN":"4鄰","STREET":"德崙路","SECT":" ","MAREA":" ","LANE":" ","ALLEY":" ","HOUSE_NO":"２５９號四樓之２","E_COORD97":173819.95999999999,"N_COORD97":2538185.79,"ADDRESS":"德崙路２５９號四樓之２","OBJECTID":626269},"geometry":{"x":173819.96000000089,"y":2538185.7899999991}},{"attributes":{"ID":626297,"DIS_CODE":0,"TOWNNAME":"仁德區","LI":"上崙里","LIN":"4鄰","STREET":"德崙路","SECT":" ","MAREA":" ","LANE":" ","ALLEY":" ","HOUSE_NO":"２５１號二樓之３","E_COORD97":173796.82000000001,"N_COORD97":2538191.79,"ADDRESS":"德崙路２５１號二樓之３","OBJECTID":626270},"geometry":{"x":173796.8200000003,"y":2538191.7899999991}},{"attributes":{"ID":626298,"DIS_CODE":0,"TOWNNAME":"仁德區","LI":"上崙里","LIN":"4鄰","STREET":"德崙路","SECT":" ","MAREA":" ","LANE":" ","ALLEY":" ","HOUSE_NO":"２５１號七樓之２","E_COORD97":173796.85999999999,"N_COORD97":2538191.79,"ADDRESS":"德崙路２５１號七樓之２","OBJECTID":626271},"geometry":{"x":173796.8600000022,"y":2538191.7899999991}},{"attributes":{"ID":626299,"DIS_CODE":0,"TOWNNAME":"仁德區","LI":"上崙里","LIN":"4鄰","STREET":"德崙路","SECT":" ","MAREA":" ","LANE":" ","ALLEY":" ","HOUSE_NO":"２５１號三樓之２","E_COORD97":173796.85999999999,"N_COORD97":2538191.79,"ADDRESS":"德崙路２５１號三樓之２","OBJECTID":626272},"geometry":{"x":173796.8600000022,"y":2538191.7899999991}},{"attributes":{"ID":626300,"DIS_CODE":0,"TOWNNAME":"仁德區","LI":"上崙里","LIN":"4鄰","STREET":"德崙路","SECT":" ","MAREA":" ","LANE":" ","ALLEY":" ","HOUSE_NO":"２５９號三樓之２","E_COORD97":173819.95999999999,"N_COORD97":2538185.79,"ADDRESS":"德崙路２５９號三樓之２","OBJECTID":626273},"geometry":{"x":173819.96000000089,"y":2538185.7899999991}},{"attributes":{"ID":626301,"DIS_CODE":0,"TOWNNAME":"仁德區","LI":"上崙里","LIN":"4鄰","STREET":"德崙路","SECT":" ","MAREA":" ","LANE":" ","ALLEY":" ","HOUSE_NO":"２５１號四樓之２","E_COORD97":173796.85999999999,"N_COORD97":2538191.79,"ADDRESS":"德崙路２５１號四樓之２","OBJECTID":626274},"geometry":{"x":173796.8600000022,"y":2538191.7899999991}},{"attributes":{"ID":626302,"DIS_CODE":0,"TOWNNAME":"新化區","LI":"太平里","LIN":"4鄰","STREET":"中正路","SECT":" ","MAREA":" ","LANE":" ","ALLEY":" ","HOUSE_NO":"５７８號九樓之５","E_COORD97":178895.87,"N_COORD97":2549000.2599999998,"ADDRESS":"中正路５７８號九樓之５","OBJECTID":626275},"geometry":{"x":178895.87000000104,"y":2549000.2600000016}},{"attributes":{"ID":626303,"DIS_CODE":0,"TOWNNAME":"新化區","LI":"北勢里","LIN":"8鄰","STREET":"永新路","SECT":" ","MAREA":" ","LANE":" ","ALLEY":" ","HOUSE_NO":"２３號五樓之２","E_COORD97":177802.42999999999,"N_COORD97":2550963.2999999998,"ADDRESS":"永新路２３號五樓之２","OBJECTID":626276},"geometry":{"x":177802.4299999997,"y":2550963.3000000045}},{"attributes":{"ID":626304,"DIS_CODE":0,"TOWNNAME":"南區","LI":"新昌里","LIN":"12鄰","STREET":"西門路","SECT":"一段","MAREA":" ","LANE":" ","ALLEY":" ","HOUSE_NO":"６０１號二樓","E_COORD97":167704.63,"N_COORD97":2542835.9100000001,"ADDRESS":"西門路一段６０１號二樓","OBJECTID":626277},"geometry":{"x":167704.62999999989,"y":2542835.910000002}},{"attributes":{"ID":626305,"DIS_CODE":0,"TOWNNAME":"南區","LI":"新昌里","LIN":"12鄰","STREET":"西門路","SECT":"一段","MAREA":" ","LANE":" ","ALLEY":" ","HOUSE_NO":"６０１號五樓","E_COORD97":167704.63,"N_COORD97":2542835.9100000001,"ADDRESS":"西門路一段６０１號五樓","OBJECTID":626278},"geometry":{"x":167704.62999999989,"y":2542835.910000002}},{"attributes":{"ID":626306,"DIS_CODE":0,"TOWNNAME":"南區","LI":"新昌里","LIN":"12鄰","STREET":"南寧街","SECT":" ","MAREA":" ","LANE":" ","ALLEY":" ","HOUSE_NO":"１１５號三樓","E_COORD97":167667.64000000001,"N_COORD97":2542847.1499999999,"ADDRESS":"南寧街１１５號三樓","OBJECTID":626279},"geometry":{"x":167667.63999999966,"y":2542847.1500000041}},{"attributes":{"ID":626307,"DIS_CODE":0,"TOWNNAME":"南區","LI":"新昌里","LIN":"10鄰","STREET":"西門路","SECT":"一段","MAREA":" ","LANE":" ","ALLEY":" ","HOUSE_NO":"５７９號二樓","E_COORD97":167709.13,"N_COORD97":2542779.9199999999,"ADDRESS":"西門路一段５７９號二樓","OBJECTID":626280},"geometry":{"x":167709.13000000082,"y":2542779.9199999999}},{"attributes":{"ID":626308,"DIS_CODE":0,"TOWNNAME":"南區","LI":"新昌里","LIN":"10鄰","STREET":"西門路","SECT":"一段","MAREA":" ","LANE":" ","ALLEY":" ","HOUSE_NO":"５７９號三樓","E_COORD97":167709.13,"N_COORD97":2542779.9199999999,"ADDRESS":"西門路一段５７９號三樓","OBJECTID":626281},"geometry":{"x":167709.13000000082,"y":2542779.9199999999}},{"attributes":{"ID":626309,"DIS_CODE":0,"TOWNNAME":"南區","LI":"新昌里","LIN":"10鄰","STREET":"西門路","SECT":"一段","MAREA":" ","LANE":" ","ALLEY":" ","HOUSE_NO":"５７９號四樓","E_COORD97":167709.13,"N_COORD97":2542779.9199999999,"ADDRESS":"西門路一段５７９號四樓","OBJECTID":626282},"geometry":{"x":167709.13000000082,"y":2542779.9199999999}},{"attributes":{"ID":626310,"DIS_CODE":0,"TOWNNAME":"南區","LI":"新昌里","LIN":"10鄰","STREET":"西門路","SECT":"一段","MAREA":" ","LANE":" ","ALLEY":" ","HOUSE_NO":"５７９號五樓","E_COORD97":167709.13,"N_COORD97":2542779.9199999999,"ADDRESS":"西門路一段５７９號五樓","OBJECTID":626283},"geometry":{"x":167709.13000000082,"y":2542779.9199999999}},{"attributes":{"ID":626311,"DIS_CODE":0,"TOWNNAME":"南區","LI":"新昌里","LIN":"10鄰","STREET":"西門路","SECT":"一段","MAREA":" ","LANE":" ","ALLEY":" ","HOUSE_NO":"５７９號六樓","E_COORD97":167709.13,"N_COORD97":2542779.9199999999,"ADDRESS":"西門路一段５７９號六樓","OBJECTID":626284},"geometry":{"x":167709.13000000082,"y":2542779.9199999999}},{"attributes":{"ID":626312,"DIS_CODE":0,"TOWNNAME":"南區","LI":"新昌里","LIN":"10鄰","STREET":"西門路","SECT":"一段","MAREA":" ","LANE":" ","ALLEY":" ","HOUSE_NO":"５７９號七樓","E_COORD97":167709.13,"N_COORD97":2542779.9199999999,"ADDRESS":"西門路一段５７９號七樓","OBJECTID":626285},"geometry":{"x":167709.13000000082,"y":2542779.9199999999}},{"attributes":{"ID":626313,"DIS_CODE":0,"TOWNNAME":"南區","LI":"新興里","LIN":"3鄰","STREET":"五妃街","SECT":" ","MAREA":" ","LANE":" ","ALLEY":" ","HOUSE_NO":"４４５號四樓之１","E_COORD97":167529.45999999999,"N_COORD97":2542573.0899999999,"ADDRESS":"五妃街４４５號四樓之１","OBJECTID":626286},"geometry":{"x":167529.46000000089,"y":2542573.0900000017}},{"attributes":{"ID":626314,"DIS_CODE":0,"TOWNNAME":"南區","LI":"新興里","LIN":"3鄰","STREET":"五妃街","SECT":" ","MAREA":" ","LANE":" ","ALLEY":" ","HOUSE_NO":"４４５號四樓之２","E_COORD97":167529.45999999999,"N_COORD97":2542573.0899999999,"ADDRESS":"五妃街４４５號四樓之２","OBJECTID":626287},"geometry":{"x":167529.46000000089,"y":2542573.0900000017}},{"attributes":{"ID":626315,"DIS_CODE":0,"TOWNNAME":"南區","LI":"新興里","LIN":"3鄰","STREET":"五妃街","SECT":" ","MAREA":" ","LANE":" ","ALLEY":" ","HOUSE_NO":"４４５號二樓之１","E_COORD97":167529.45999999999,"N_COORD97":2542573.0899999999,"ADDRESS":"五妃街４４５號二樓之１","OBJECTID":626288},"geometry":{"x":167529.46000000089,"y":2542573.0900000017}},{"attributes":{"ID":626316,"DIS_CODE":0,"TOWNNAME":"南區","LI":"新興里","LIN":"3鄰","STREET":"五妃街","SECT":" ","MAREA":" ","LANE":" ","ALLEY":" ","HOUSE_NO":"４４５號三樓之１","E_COORD97":167529.45999999999,"N_COORD97":2542573.0899999999,"ADDRESS":"五妃街４４５號三樓之１","OBJECTID":626289},"geometry":{"x":167529.46000000089,"y":2542573.0900000017}},{"attributes":{"ID":626317,"DIS_CODE":0,"TOWNNAME":"南區","LI":"新興里","LIN":"3鄰","STREET":"五妃街","SECT":" ","MAREA":" ","LANE":" ","ALLEY":" ","HOUSE_NO":"４４５號三樓之２","E_COORD97":167529.45999999999,"N_COORD97":2542573.0899999999,"ADDRESS":"五妃街４４５號三樓之２","OBJECTID":626290},"geometry":{"x":167529.46000000089,"y":2542573.0900000017}},{"attributes":{"ID":626318,"DIS_CODE":0,"TOWNNAME":"南區","LI":"國宅里","LIN":"10鄰","STREET":"新興路","SECT":" ","MAREA":" ","LANE":" ","ALLEY":" ","HOUSE_NO":"３６８號五樓之３","E_COORD97":166888.51000000001,"N_COORD97":2541791.9500000002,"ADDRESS":"新興路３６８號五樓之３","OBJECTID":626291},"geometry":{"x":166888.50999999978,"y":2541791.9499999993}},{"attributes":{"ID":626319,"DIS_CODE":0,"TOWNNAME":"南區","LI":"文南里","LIN":"20鄰","STREET":"仁南二街","SECT":" ","MAREA":" ","LANE":" ","ALLEY":" ","HOUSE_NO":"２號二樓之４","E_COORD97":166403.17999999999,"N_COORD97":2542665.9700000002,"ADDRESS":"仁南二街２號二樓之４","OBJECTID":626292},"geometry":{"x":166403.18000000063,"y":2542665.9700000025}},{"attributes":{"ID":626320,"DIS_CODE":0,"TOWNNAME":"南區","LI":"文南里","LIN":"20鄰","STREET":"仁南二街","SECT":" ","MAREA":" ","LANE":" ","ALLEY":" ","HOUSE_NO":"２號三樓之４","E_COORD97":166403.17999999999,"N_COORD97":2542665.9700000002,"ADDRESS":"仁南二街２號三樓之４","OBJECTID":626293},"geometry":{"x":166403.18000000063,"y":2542665.9700000025}},{"attributes":{"ID":626321,"DIS_CODE":0,"TOWNNAME":"南區","LI":"文南里","LIN":"20鄰","STREET":"仁南二街","SECT":" ","MAREA":" ","LANE":" ","ALLEY":" ","HOUSE_NO":"２號四樓之４","E_COORD97":166403.17999999999,"N_COORD97":2542665.9700000002,"ADDRESS":"仁南二街２號四樓之４","OBJECTID":626294},"geometry":{"x":166403.18000000063,"y":2542665.9700000025}},{"attributes":{"ID":626322,"DIS_CODE":0,"TOWNNAME":"南區","LI":"文南里","LIN":"20鄰","STREET":"仁南二街","SECT":" ","MAREA":" ","LANE":" ","ALLEY":" ","HOUSE_NO":"２號五樓之４","E_COORD97":166403.17999999999,"N_COORD97":2542665.9700000002,"ADDRESS":"仁南二街２號五樓之４","OBJECTID":626295},"geometry":{"x":166403.18000000063,"y":2542665.9700000025}},{"attributes":{"ID":626323,"DIS_CODE":0,"TOWNNAME":"南區","LI":"文南里","LIN":"20鄰","STREET":"仁南二街","SECT":" ","MAREA":" ","LANE":" ","ALLEY":" ","HOUSE_NO":"２號六樓之４","E_COORD97":166403.17999999999,"N_COORD97":2542665.9700000002,"ADDRESS":"仁南二街２號六樓之４","OBJECTID":626296},"geometry":{"x":166403.18000000063,"y":2542665.9700000025}},{"attributes":{"ID":626324,"DIS_CODE":0,"TOWNNAME":"新化區","LI":"太平里","LIN":"4鄰","STREET":"中正路","SECT":" ","MAREA":" ","LANE":" ","ALLEY":" ","HOUSE_NO":"５７８號八樓之２","E_COORD97":178895.85999999999,"N_COORD97":2549000.2599999998,"ADDRESS":"中正路５７８號八樓之２","OBJECTID":626297},"geometry":{"x":178895.8599999994,"y":2549000.2600000016}},{"attributes":{"ID":626325,"DIS_CODE":0,"TOWNNAME":"新化區","LI":"太平里","LIN":"4鄰","STREET":"中正路","SECT":" ","MAREA":" ","LANE":" ","ALLEY":" ","HOUSE_NO":"５７８號十一樓之５","E_COORD97":178896.12,"N_COORD97":2549000.2599999998,"ADDRESS":"中正路５７８號十一樓之５","OBJECTID":626298},"geometry":{"x":178896.12000000104,"y":2549000.2600000016}},{"attributes":{"ID":626326,"DIS_CODE":0,"TOWNNAME":"新化區","LI":"太平里","LIN":"4鄰","STREET":"中正路","SECT":" ","MAREA":" ","LANE":" ","ALLEY":" ","HOUSE_NO":"５７８號十一樓之３","E_COORD97":178896.10999999999,"N_COORD97":2549000.2599999998,"ADDRESS":"中正路５７８號十一樓之３","OBJECTID":626299},"geometry":{"x":178896.1100000022,"y":2549000.2600000016}},{"attributes":{"ID":626327,"DIS_CODE":0,"TOWNNAME":"新化區","LI":"太平里","LIN":"4鄰","STREET":"中正路","SECT":" ","MAREA":" ","LANE":" ","ALLEY":" ","HOUSE_NO":"５７８號十三樓之１","E_COORD97":178896.09,"N_COORD97":2549000.2599999998,"ADDRESS":"中正路５７８號十三樓之１","OBJECTID":626300},"geometry":{"x":178896.09000000078,"y":2549000.2600000016}},{"attributes":{"ID":626328,"DIS_CODE":0,"TOWNNAME":"新化區","LI":"太平里","LIN":"4鄰","STREET":"中正路","SECT":" ","MAREA":" ","LANE":" ","ALLEY":" ","HOUSE_NO":"５７８號六樓之１","E_COORD97":178895.84,"N_COORD97":2549000.2599999998,"ADDRESS":"中正路５７８號六樓之１","OBJECTID":626301},"geometry":{"x":178895.84000000078,"y":2549000.2600000016}},{"attributes":{"ID":626329,"DIS_CODE":0,"TOWNNAME":"新化區","LI":"太平里","LIN":"4鄰","STREET":"中正路","SECT":" ","MAREA":" ","LANE":" ","ALLEY":" ","HOUSE_NO":"５７８號六樓之７","E_COORD97":178895.85000000001,"N_COORD97":2549000.2599999998,"ADDRESS":"中正路５７８號六樓之７","OBJECTID":626302},"geometry":{"x":178895.85000000056,"y":2549000.2600000016}},{"attributes":{"ID":626330,"DIS_CODE":0,"TOWNNAME":"新化區","LI":"北勢里","LIN":"7鄰","STREET":"金華街","SECT":"一段","MAREA":" ","LANE":" ","ALLEY":" ","HOUSE_NO":"２號六樓之２","E_COORD97":177906.34,"N_COORD97":2550965.2999999998,"ADDRESS":"金華街一段２號六樓之２","OBJECTID":626303},"geometry":{"x":177906.34000000078,"y":2550965.3000000007}},{"attributes":{"ID":626331,"DIS_CODE":0,"TOWNNAME":"新化區","LI":"太平里","LIN":"4鄰","STREET":"中正路","SECT":" ","MAREA":" ","LANE":" ","ALLEY":" ","HOUSE_NO":"５７８號五樓之６","E_COORD97":178895.85999999999,"N_COORD97":2549000.2599999998,"ADDRESS":"中正路５７８號五樓之６","OBJECTID":626304},"geometry":{"x":178895.8599999994,"y":2549000.2600000016}},{"attributes":{"ID":626332,"DIS_CODE":0,"TOWNNAME":"西港區","LI":"慶安里","LIN":"32鄰","STREET":"新興街","SECT":" ","MAREA":" ","LANE":" ","ALLEY":" ","HOUSE_NO":"８號之１８９二樓之１","E_COORD97":168303.64000000001,"N_COORD97":2557583.7000000002,"ADDRESS":"新興街８號之１８９二樓之１","OBJECTID":626305},"geometry":{"x":168303.64000000153,"y":2557583.700000003}},{"attributes":{"ID":626333,"DIS_CODE":0,"TOWNNAME":"西港區","LI":"慶安里","LIN":"32鄰","STREET":"新興街","SECT":" ","MAREA":" ","LANE":" ","ALLEY":" ","HOUSE_NO":"８號之１８９二樓之２","E_COORD97":168303.64000000001,"N_COORD97":2557583.7000000002,"ADDRESS":"新興街８號之１８９二樓之２","OBJECTID":626306},"geometry":{"x":168303.64000000153,"y":2557583.700000003}},{"attributes":{"ID":626334,"DIS_CODE":0,"TOWNNAME":"西港區","LI":"慶安里","LIN":"32鄰","STREET":"新興街","SECT":" ","MAREA":" ","LANE":" ","ALLEY":" ","HOUSE_NO":"８號之１８９二樓之３","E_COORD97":168303.64000000001,"N_COORD97":2557583.7000000002,"ADDRESS":"新興街８號之１８９二樓之３","OBJECTID":626307},"geometry":{"x":168303.64000000153,"y":2557583.700000003}},{"attributes":{"ID":626335,"DIS_CODE":0,"TOWNNAME":"西港區","LI":"慶安里","LIN":"32鄰","STREET":"新興街","SECT":" ","MAREA":" ","LANE":" ","ALLEY":" ","HOUSE_NO":"８號之１８９八樓之１","E_COORD97":168303.64000000001,"N_COORD97":2557583.7000000002,"ADDRESS":"新興街８號之１８９八樓之１","OBJECTID":626308},"geometry":{"x":168303.64000000153,"y":2557583.700000003}},{"attributes":{"ID":626336,"DIS_CODE":0,"TOWNNAME":"西港區","LI":"慶安里","LIN":"32鄰","STREET":"新興街","SECT":" ","MAREA":" ","LANE":" ","ALLEY":" ","HOUSE_NO":"８號之１８９八樓之２","E_COORD97":168303.64000000001,"N_COORD97":2557583.7000000002,"ADDRESS":"新興街８號之１８９八樓之２","OBJECTID":626309},"geometry":{"x":168303.64000000153,"y":2557583.700000003}},{"attributes":{"ID":626337,"DIS_CODE":0,"TOWNNAME":"西港區","LI":"慶安里","LIN":"32鄰","STREET":"新興街","SECT":" ","MAREA":" ","LANE":" ","ALLEY":" ","HOUSE_NO":"８號之１８９八樓之３","E_COORD97":168303.64000000001,"N_COORD97":2557583.7000000002,"ADDRESS":"新興街８號之１８９八樓之３","OBJECTID":626310},"geometry":{"x":168303.64000000153,"y":2557583.700000003}},{"attributes":{"ID":626338,"DIS_CODE":0,"TOWNNAME":"永康區","LI":"西灣里","LIN":"25鄰","STREET":"國光七街","SECT":" ","MAREA":" ","LANE":" ","ALLEY":" ","HOUSE_NO":"２２號三樓","E_COORD97":174302.25,"N_COORD97":2545539.3900000001,"ADDRESS":"國光七街２２號三樓","OBJECTID":626311},"geometry":{"x":174302.25,"y":2545539.3900000025}},{"attributes":{"ID":626339,"DIS_CODE":0,"TOWNNAME":"永康區","LI":"西橋里","LIN":"25鄰","STREET":"中華路","SECT":" ","MAREA":" ","LANE":" ","ALLEY":" ","HOUSE_NO":"８２５號之１二樓","E_COORD97":170530.95000000001,"N_COORD97":2546621.7999999998,"ADDRESS":"中華路８２５號之１二樓","OBJECTID":626312},"geometry":{"x":170530.95000000019,"y":2546621.8000000007}},{"attributes":{"ID":626340,"DIS_CODE":0,"TOWNNAME":"東區","LI":" ","LIN":" ","STREET":"林森路","SECT":"二段","MAREA":" ","LANE":" ","ALLEY":" ","HOUSE_NO":"９０號十六樓之８","E_COORD97":170380.85000000001,"N_COORD97":2543093.7599999998,"ADDRESS":"林森路二段９０號十六樓之８","OBJECTID":626313},"geometry":{"x":170380.85000000056,"y":2543093.7600000016}},{"attributes":{"ID":626341,"DIS_CODE":0,"TOWNNAME":"東區","LI":"東聖里","LIN":"20鄰","STREET":"中華東路","SECT":"二段","MAREA":" ","LANE":" ","ALLEY":" ","HOUSE_NO":"１１１號四樓之７","E_COORD97":171409.84,"N_COORD97":2542921.8599999999,"ADDRESS":"中華東路二段１１１號四樓之７","OBJECTID":626314},"geometry":{"x":171409.84000000078,"y":2542921.8599999994}},{"attributes":{"ID":626342,"DIS_CODE":0,"TOWNNAME":"東區","LI":"大智里","LIN":"26鄰","STREET":"德東街","SECT":" ","MAREA":" ","LANE":" ","ALLEY":" ","HOUSE_NO":"２１０號五樓之３","E_COORD97":171363.01000000001,"N_COORD97":2540246.9900000002,"ADDRESS":"德東街２１０號五樓之３","OBJECTID":626315},"geometry":{"x":171363.01000000071,"y":2540246.9900000002}},{"attributes":{"ID":626343,"DIS_CODE":0,"TOWNNAME":"東區","LI":"衛國里","LIN":"25鄰","STREET":"林森路","SECT":"二段","MAREA":" ","LANE":" ","ALLEY":" ","HOUSE_NO":"９０號十六樓之５","E_COORD97":170384.75,"N_COORD97":2543098.96,"ADDRESS":"林森路二段９０號十六樓之５","OBJECTID":626316},"geometry":{"x":170384.74999999907,"y":2543098.9600000009}},{"attributes":{"ID":626344,"DIS_CODE":0,"TOWNNAME":"東區","LI":"東光里","LIN":"3鄰","STREET":"東興路","SECT":" ","MAREA":" ","LANE":" ","ALLEY":" ","HOUSE_NO":"９２號七樓","E_COORD97":170983.97,"N_COORD97":2543609.25,"ADDRESS":"東興路９２號七樓","OBJECTID":626317},"geometry":{"x":170983.97000000067,"y":2543609.2500000019}},{"attributes":{"ID":626345,"DIS_CODE":0,"TOWNNAME":"東區","LI":"東光里","LIN":"3鄰","STREET":"東興路","SECT":" ","MAREA":" ","LANE":" ","ALLEY":" ","HOUSE_NO":"９２號十一樓","E_COORD97":170983.97,"N_COORD97":2543609.25,"ADDRESS":"東興路９２號十一樓","OBJECTID":626318},"geometry":{"x":170983.97000000067,"y":2543609.2500000019}},{"attributes":{"ID":626346,"DIS_CODE":0,"TOWNNAME":"東區","LI":"東光里","LIN":"3鄰","STREET":"東興路","SECT":" ","MAREA":" ","LANE":" ","ALLEY":" ","HOUSE_NO":"９２號九樓","E_COORD97":170983.97,"N_COORD97":2543609.25,"ADDRESS":"東興路９２號九樓","OBJECTID":626319},"geometry":{"x":170983.97000000067,"y":2543609.2500000019}},{"attributes":{"ID":626347,"DIS_CODE":0,"TOWNNAME":"東區","LI":"東光里","LIN":"3鄰","STREET":"東興路","SECT":" ","MAREA":" ","LANE":" ","ALLEY":" ","HOUSE_NO":"９２號四樓","E_COORD97":170983.97,"N_COORD97":2543609.25,"ADDRESS":"東興路９２號四樓","OBJECTID":626320},"geometry":{"x":170983.97000000067,"y":2543609.2500000019}},{"attributes":{"ID":626348,"DIS_CODE":0,"TOWNNAME":"東區","LI":"東光里","LIN":"3鄰","STREET":"東興路","SECT":" ","MAREA":" ","LANE":" ","ALLEY":" ","HOUSE_NO":"９２號八樓","E_COORD97":170983.97,"N_COORD97":2543609.25,"ADDRESS":"東興路９２號八樓","OBJECTID":626321},"geometry":{"x":170983.97000000067,"y":2543609.2500000019}},{"attributes":{"ID":626349,"DIS_CODE":0,"TOWNNAME":"東區","LI":"東光里","LIN":"3鄰","STREET":"東興路","SECT":" ","MAREA":" ","LANE":" ","ALLEY":" ","HOUSE_NO":"９２號六樓","E_COORD97":170983.97,"N_COORD97":2543609.25,"ADDRESS":"東興路９２號六樓","OBJECTID":626322},"geometry":{"x":170983.97000000067,"y":2543609.2500000019}},{"attributes":{"ID":626350,"DIS_CODE":0,"TOWNNAME":"東區","LI":"東光里","LIN":"3鄰","STREET":"東興路","SECT":" ","MAREA":" ","LANE":" ","ALLEY":" ","HOUSE_NO":"９６號十四樓","E_COORD97":170984.14999999999,"N_COORD97":2543622.3999999999,"ADDRESS":"東興路９６號十四樓","OBJECTID":626323},"geometry":{"x":170984.15000000037,"y":2543622.4000000022}},{"attributes":{"ID":626351,"DIS_CODE":0,"TOWNNAME":"東區","LI":"小東里","LIN":"6鄰","STREET":"光明街","SECT":" ","MAREA":" ","LANE":" ","ALLEY":" ","HOUSE_NO":"６９號二樓","E_COORD97":170898.53,"N_COORD97":2544388.5499999998,"ADDRESS":"光明街６９號二樓","OBJECTID":626324},"geometry":{"x":170898.53000000212,"y":2544388.5500000026}},{"attributes":{"ID":626352,"DIS_CODE":0,"TOWNNAME":"東區","LI":"小東里","LIN":"6鄰","STREET":"光明街","SECT":" ","MAREA":" ","LANE":" ","ALLEY":" ","HOUSE_NO":"６９號五樓","E_COORD97":170898.53,"N_COORD97":2544388.5499999998,"ADDRESS":"光明街６９號五樓","OBJECTID":626325},"geometry":{"x":170898.53000000212,"y":2544388.5500000026}},{"attributes":{"ID":626353,"DIS_CODE":0,"TOWNNAME":"東區","LI":"小東里","LIN":"6鄰","STREET":"光明街","SECT":" ","MAREA":" ","LANE":" ","ALLEY":" ","HOUSE_NO":"６９號三樓","E_COORD97":170898.53,"N_COORD97":2544388.5499999998,"ADDRESS":"光明街６９號三樓","OBJECTID":626326},"geometry":{"x":170898.53000000212,"y":2544388.5500000026}},{"attributes":{"ID":626354,"DIS_CODE":0,"TOWNNAME":"東區","LI":"小東里","LIN":"6鄰","STREET":"光明街","SECT":" ","MAREA":" ","LANE":" ","ALLEY":" ","HOUSE_NO":"６９號四樓","E_COORD97":170898.53,"N_COORD97":2544388.5499999998,"ADDRESS":"光明街６９號四樓","OBJECTID":626327},"geometry":{"x":170898.53000000212,"y":2544388.5500000026}},{"attributes":{"ID":626355,"DIS_CODE":0,"TOWNNAME":"東區","LI":"文聖里","LIN":"3鄰","STREET":"裕農一街","SECT":" ","MAREA":" ","LANE":" ","ALLEY":" ","HOUSE_NO":"１５８號三樓","E_COORD97":171913.16,"N_COORD97":2542787.7200000002,"ADDRESS":"裕農一街１５８號三樓","OBJECTID":626328},"geometry":{"x":171913.16000000108,"y":2542787.7200000007}},{"attributes":{"ID":626356,"DIS_CODE":0,"TOWNNAME":"東區","LI":"文聖里","LIN":"3鄰","STREET":"裕農一街","SECT":" ","MAREA":" ","LANE":" ","ALLEY":" ","HOUSE_NO":"１５８號二樓","E_COORD97":171913.16,"N_COORD97":2542787.7200000002,"ADDRESS":"裕農一街１５８號二樓","OBJECTID":626329},"geometry":{"x":171913.16000000108,"y":2542787.7200000007}},{"attributes":{"ID":626357,"DIS_CODE":0,"TOWNNAME":"東區","LI":"崇成里","LIN":"22鄰","STREET":"崇德路","SECT":" ","MAREA":" ","LANE":" ","ALLEY":" ","HOUSE_NO":"６７２號三樓之２","E_COORD97":170769.31,"N_COORD97":2540890.3900000001,"ADDRESS":"崇德路６７２號三樓之２","OBJECTID":626330},"geometry":{"x":170769.31000000052,"y":2540890.3900000025}},{"attributes":{"ID":626358,"DIS_CODE":0,"TOWNNAME":"東區","LI":"龍山里","LIN":"20鄰","STREET":"崇善路","SECT":" ","MAREA":" ","LANE":" ","ALLEY":" ","HOUSE_NO":"１５５號三樓","E_COORD97":170323.70000000001,"N_COORD97":2542395.9500000002,"ADDRESS":"崇善路１５５號三樓","OBJECTID":626331},"geometry":{"x":170323.70000000019,"y":2542395.9499999993}},{"attributes":{"ID":626359,"DIS_CODE":0,"TOWNNAME":"東區","LI":"龍山里","LIN":"20鄰","STREET":"崇善路","SECT":" ","MAREA":" ","LANE":" ","ALLEY":" ","HOUSE_NO":"１５５號二樓","E_COORD97":170323.70000000001,"N_COORD97":2542395.9500000002,"ADDRESS":"崇善路１５５號二樓","OBJECTID":626332},"geometry":{"x":170323.70000000019,"y":2542395.9499999993}},{"attributes":{"ID":626360,"DIS_CODE":0,"TOWNNAME":"東區","LI":"龍山里","LIN":"20鄰","STREET":"崇善路","SECT":" ","MAREA":" ","LANE":" ","ALLEY":" ","HOUSE_NO":"１５５號四樓","E_COORD97":170323.70000000001,"N_COORD97":2542395.9500000002,"ADDRESS":"崇善路１５５號四樓","OBJECTID":626333},"geometry":{"x":170323.70000000019,"y":2542395.9499999993}},{"attributes":{"ID":626361,"DIS_CODE":0,"TOWNNAME":"東區","LI":"崇德里","LIN":"25鄰","STREET":"崇道路","SECT":" ","MAREA":" ","LANE":" ","ALLEY":" ","HOUSE_NO":"３１號二樓","E_COORD97":170671.17000000001,"N_COORD97":2541421.8100000001,"ADDRESS":"崇道路３１號二樓","OBJECTID":626334},"geometry":{"x":170671.16999999993,"y":2541421.8100000005}},{"attributes":{"ID":626362,"DIS_CODE":0,"TOWNNAME":"東區","LI":"崇德里","LIN":"25鄰","STREET":"崇道路","SECT":" ","MAREA":" ","LANE":" ","ALLEY":" ","HOUSE_NO":"３１號三樓","E_COORD97":170671.17000000001,"N_COORD97":2541421.8100000001,"ADDRESS":"崇道路３１號三樓","OBJECTID":626335},"geometry":{"x":170671.16999999993,"y":2541421.8100000005}},{"attributes":{"ID":626363,"DIS_CODE":0,"TOWNNAME":"東區","LI":"崇德里","LIN":"25鄰","STREET":"崇道路","SECT":" ","MAREA":" ","LANE":" ","ALLEY":" ","HOUSE_NO":"３１號四樓","E_COORD97":170671.17000000001,"N_COORD97":2541421.8100000001,"ADDRESS":"崇道路３１號四樓","OBJECTID":626336},"geometry":{"x":170671.16999999993,"y":2541421.8100000005}},{"attributes":{"ID":626364,"DIS_CODE":0,"TOWNNAME":"東區","LI":"崇德里","LIN":"25鄰","STREET":"崇道路","SECT":" ","MAREA":" ","LANE":" ","ALLEY":" ","HOUSE_NO":"３１號五樓","E_COORD97":170671.17000000001,"N_COORD97":2541421.8100000001,"ADDRESS":"崇道路３１號五樓","OBJECTID":626337},"geometry":{"x":170671.16999999993,"y":2541421.8100000005}},{"attributes":{"ID":626365,"DIS_CODE":0,"TOWNNAME":"東區","LI":"自強里","LIN":"8鄰","STREET":"東門路","SECT":"三段","MAREA":" ","LANE":" ","ALLEY":" ","HOUSE_NO":"１３號四樓之１","E_COORD97":171098.26000000001,"N_COORD97":2542396.1299999999,"ADDRESS":"東門路三段１３號四樓之１","OBJECTID":626338},"geometry":{"x":171098.26000000164,"y":2542396.1300000008}},{"attributes":{"ID":626366,"DIS_CODE":0,"TOWNNAME":"東區","LI":"德光里","LIN":"12鄰","STREET":"崇學路","SECT":" ","MAREA":" ","LANE":" ","ALLEY":" ","HOUSE_NO":"１６９號二樓","E_COORD97":170374.54000000001,"N_COORD97":2542302.75,"ADDRESS":"崇學路１６９號二樓","OBJECTID":626339},"geometry":{"x":170374.5400000019,"y":2542302.75}},{"attributes":{"ID":626367,"DIS_CODE":0,"TOWNNAME":"東區","LI":"德光里","LIN":"12鄰","STREET":"崇學路","SECT":" ","MAREA":" ","LANE":" ","ALLEY":" ","HOUSE_NO":"１６９號三樓","E_COORD97":170374.54000000001,"N_COORD97":2542302.75,"ADDRESS":"崇學路１６９號三樓","OBJECTID":626340},"geometry":{"x":170374.5400000019,"y":2542302.75}},{"attributes":{"ID":626368,"DIS_CODE":0,"TOWNNAME":"東區","LI":"德光里","LIN":"12鄰","STREET":"崇學路","SECT":" ","MAREA":" ","LANE":" ","ALLEY":" ","HOUSE_NO":"１６９號四樓","E_COORD97":170374.54000000001,"N_COORD97":2542302.75,"ADDRESS":"崇學路１６９號四樓","OBJECTID":626341},"geometry":{"x":170374.5400000019,"y":2542302.75}},{"attributes":{"ID":626369,"DIS_CODE":0,"TOWNNAME":"南區","LI":"新昌里","LIN":"14鄰","STREET":"府緯街","SECT":" ","MAREA":" ","LANE":" ","ALLEY":" ","HOUSE_NO":"１２２號四樓之４","E_COORD97":167573.14000000001,"N_COORD97":2542736.0499999998,"ADDRESS":"府緯街１２２號四樓之４","OBJECTID":626342},"geometry":{"x":167573.1400000006,"y":2542736.0500000007}},{"attributes":{"ID":626370,"DIS_CODE":0,"TOWNNAME":"南區","LI":"金華里","LIN":"18鄰","STREET":"尊南街","SECT":" ","MAREA":" ","LANE":" ","ALLEY":" ","HOUSE_NO":"２１９號三樓","E_COORD97":166834.69,"N_COORD97":2542275.71,"ADDRESS":"尊南街２１９號三樓","OBJECTID":626343},"geometry":{"x":166834.69000000134,"y":2542275.7100000028}},{"attributes":{"ID":626371,"DIS_CODE":0,"TOWNNAME":"南區","LI":"金華里","LIN":"20鄰","STREET":"尊南街","SECT":" ","MAREA":" ","LANE":" ","ALLEY":" ","HOUSE_NO":"２５１號四樓之３","E_COORD97":166842.81,"N_COORD97":2542371.6699999999,"ADDRESS":"尊南街２５１號四樓之３","OBJECTID":626344},"geometry":{"x":166842.81000000145,"y":2542371.6699999981}},{"attributes":{"ID":626372,"DIS_CODE":0,"TOWNNAME":"南區","LI":"文南里","LIN":"20鄰","STREET":"仁南二街","SECT":" ","MAREA":" ","LANE":" ","ALLEY":" ","HOUSE_NO":"２號五樓之１","E_COORD97":166403.17999999999,"N_COORD97":2542665.9700000002,"ADDRESS":"仁南二街２號五樓之１","OBJECTID":626345},"geometry":{"x":166403.18000000063,"y":2542665.9700000025}},{"attributes":{"ID":626373,"DIS_CODE":0,"TOWNNAME":"南區","LI":"竹溪里","LIN":"1鄰","STREET":"竹溪街","SECT":" ","MAREA":" ","LANE":" ","ALLEY":" ","HOUSE_NO":"６６號二樓之２","E_COORD97":169007.41,"N_COORD97":2542271.5800000001,"ADDRESS":"竹溪街６６號二樓之２","OBJECTID":626346},"geometry":{"x":169007.41000000201,"y":2542271.5800000019}},{"attributes":{"ID":626374,"DIS_CODE":0,"TOWNNAME":"南區","LI":"竹溪里","LIN":"1鄰","STREET":"竹溪街","SECT":" ","MAREA":" ","LANE":" ","ALLEY":" ","HOUSE_NO":"６６號三樓之２","E_COORD97":169007.41,"N_COORD97":2542271.5800000001,"ADDRESS":"竹溪街６６號三樓之２","OBJECTID":626347},"geometry":{"x":169007.41000000201,"y":2542271.5800000019}},{"attributes":{"ID":626375,"DIS_CODE":0,"TOWNNAME":"南區","LI":"竹溪里","LIN":"1鄰","STREET":"竹溪街","SECT":" ","MAREA":" ","LANE":" ","ALLEY":" ","HOUSE_NO":"６６號四樓之２","E_COORD97":169007.41,"N_COORD97":2542271.5800000001,"ADDRESS":"竹溪街６６號四樓之２","OBJECTID":626348},"geometry":{"x":169007.41000000201,"y":2542271.5800000019}},{"attributes":{"ID":626376,"DIS_CODE":0,"TOWNNAME":"南區","LI":"竹溪里","LIN":"1鄰","STREET":"竹溪街","SECT":" ","MAREA":" ","LANE":" ","ALLEY":" ","HOUSE_NO":"６６號五樓之２","E_COORD97":169007.41,"N_COORD97":2542271.5800000001,"ADDRESS":"竹溪街６６號五樓之２","OBJECTID":626349},"geometry":{"x":169007.41000000201,"y":2542271.5800000019}},{"attributes":{"ID":626377,"DIS_CODE":0,"TOWNNAME":"南區","LI":"新昌里","LIN":"14鄰","STREET":"府緯街","SECT":" ","MAREA":" ","LANE":" ","ALLEY":" ","HOUSE_NO":"１２２號二樓之４","E_COORD97":167566.45999999999,"N_COORD97":2542737.4100000001,"ADDRESS":"府緯街１２２號二樓之４","OBJECTID":626350},"geometry":{"x":167566.46000000089,"y":2542737.410000002}},{"attributes":{"ID":626378,"DIS_CODE":0,"TOWNNAME":"南區","LI":"郡南里","LIN":"5鄰","STREET":"永興一街","SECT":" ","MAREA":" ","LANE":" ","ALLEY":" ","HOUSE_NO":"１１號七樓之３","E_COORD97":167266.70000000001,"N_COORD97":2540699.1400000001,"ADDRESS":"永興一街１１號七樓之３","OBJECTID":626351},"geometry":{"x":167266.70000000112,"y":2540699.1400000025}},{"attributes":{"ID":626379,"DIS_CODE":0,"TOWNNAME":"東區","LI":"忠孝里","LIN":"26鄰","STREET":"林森路","SECT":"一段","MAREA":" ","LANE":" ","ALLEY":" ","HOUSE_NO":"１５８號五樓之１","E_COORD97":169532.14000000001,"N_COORD97":2542473.0800000001,"ADDRESS":"林森路一段１５８號五樓之１","OBJECTID":626352},"geometry":{"x":169532.13999999966,"y":2542473.0800000001}},{"attributes":{"ID":626380,"DIS_CODE":0,"TOWNNAME":"安南區","LI":"安順里","LIN":"20鄰","STREET":"育安一街","SECT":" ","MAREA":" ","LANE":" ","ALLEY":" ","HOUSE_NO":"１３４號二樓","E_COORD97":169483.12,"N_COORD97":2549939.6099999999,"ADDRESS":"育安一街１３４號二樓","OBJECTID":626353},"geometry":{"x":169483.12000000104,"y":2549939.6100000013}},{"attributes":{"ID":626381,"DIS_CODE":0,"TOWNNAME":"安南區","LI":"安順里","LIN":"20鄰","STREET":"育安一街","SECT":" ","MAREA":" ","LANE":" ","ALLEY":" ","HOUSE_NO":"１３４號三樓","E_COORD97":169483.12,"N_COORD97":2549939.6099999999,"ADDRESS":"育安一街１３４號三樓","OBJECTID":626354},"geometry":{"x":169483.12000000104,"y":2549939.6100000013}},{"attributes":{"ID":626382,"DIS_CODE":0,"TOWNNAME":"安南區","LI":"安順里","LIN":"20鄰","STREET":"育安一街","SECT":" ","MAREA":" ","LANE":" ","ALLEY":" ","HOUSE_NO":"１３４號四樓","E_COORD97":169483.12,"N_COORD97":2549939.6099999999,"ADDRESS":"育安一街１３４號四樓","OBJECTID":626355},"geometry":{"x":169483.12000000104,"y":2549939.6100000013}},{"attributes":{"ID":626383,"DIS_CODE":0,"TOWNNAME":"安南區","LI":"安順里","LIN":"20鄰","STREET":"育安一街","SECT":" ","MAREA":" ","LANE":" ","ALLEY":" ","HOUSE_NO":"１３４號五樓","E_COORD97":169483.12,"N_COORD97":2549939.6099999999,"ADDRESS":"育安一街１３４號五樓","OBJECTID":626356},"geometry":{"x":169483.12000000104,"y":2549939.6100000013}},{"attributes":{"ID":626384,"DIS_CODE":0,"TOWNNAME":"安南區","LI":"安順里","LIN":"20鄰","STREET":"育安一街","SECT":" ","MAREA":" ","LANE":" ","ALLEY":" ","HOUSE_NO":"１３４號六樓","E_COORD97":169483.12,"N_COORD97":2549939.6099999999,"ADDRESS":"育安一街１３４號六樓","OBJECTID":626357},"geometry":{"x":169483.12000000104,"y":2549939.6100000013}},{"attributes":{"ID":626385,"DIS_CODE":0,"TOWNNAME":"仁德區","LI":"上崙里","LIN":"4鄰","STREET":"德崙路","SECT":" ","MAREA":" ","LANE":" ","ALLEY":" ","HOUSE_NO":"２５１號三樓之３","E_COORD97":173796.82000000001,"N_COORD97":2538191.79,"ADDRESS":"德崙路２５１號三樓之３","OBJECTID":626358},"geometry":{"x":173796.8200000003,"y":2538191.7899999991}},{"attributes":{"ID":626386,"DIS_CODE":0,"TOWNNAME":"仁德區","LI":"上崙里","LIN":"4鄰","STREET":"德崙路","SECT":" ","MAREA":" ","LANE":" ","ALLEY":" ","HOUSE_NO":"２５１號五樓之４","E_COORD97":173796.75,"N_COORD97":2538191.79,"ADDRESS":"德崙路２５１號五樓之４","OBJECTID":626359},"geometry":{"x":173796.75,"y":2538191.7899999991}},{"attributes":{"ID":626387,"DIS_CODE":0,"TOWNNAME":"仁德區","LI":"上崙里","LIN":"4鄰","STREET":"德崙路","SECT":" ","MAREA":" ","LANE":" ","ALLEY":" ","HOUSE_NO":"２５９號二樓之１","E_COORD97":173819.82000000001,"N_COORD97":2538185.79,"ADDRESS":"德崙路２５９號二樓之１","OBJECTID":626360},"geometry":{"x":173819.82000000123,"y":2538185.7899999991}},{"attributes":{"ID":626388,"DIS_CODE":0,"TOWNNAME":"東區","LI":"德光里","LIN":"4鄰","STREET":"崇明路","SECT":" ","MAREA":" ","LANE":" ","ALLEY":" ","HOUSE_NO":"８３號","E_COORD97":169752.29000000001,"N_COORD97":2542319.6400000001,"ADDRESS":"崇明路８３號","OBJECTID":626361},"geometry":{"x":169752.2900000019,"y":2542319.6400000025}},{"attributes":{"ID":626389,"DIS_CODE":0,"TOWNNAME":"中西區","LI":"五妃里","LIN":"4鄰","STREET":"南門路","SECT":" ","MAREA":" ","LANE":" ","ALLEY":" ","HOUSE_NO":"２３３號七樓之１","E_COORD97":168400.95000000001,"N_COORD97":2542668.8100000001,"ADDRESS":"南門路２３３號七樓之１","OBJECTID":626362},"geometry":{"x":168400.95000000112,"y":2542668.8100000005}},{"attributes":{"ID":626390,"DIS_CODE":0,"TOWNNAME":"中西區","LI":"五妃里","LIN":"4鄰","STREET":"南門路","SECT":" ","MAREA":" ","LANE":" ","ALLEY":" ","HOUSE_NO":"２３３號七樓之２","E_COORD97":168400.95000000001,"N_COORD97":2542668.8100000001,"ADDRESS":"南門路２３３號七樓之２","OBJECTID":626363},"geometry":{"x":168400.95000000112,"y":2542668.8100000005}},{"attributes":{"ID":626391,"DIS_CODE":0,"TOWNNAME":"中西區","LI":"五妃里","LIN":"4鄰","STREET":"南門路","SECT":" ","MAREA":" ","LANE":" ","ALLEY":" ","HOUSE_NO":"２３３號七樓之３","E_COORD97":168400.95000000001,"N_COORD97":2542668.8100000001,"ADDRESS":"南門路２３３號七樓之３","OBJECTID":626364},"geometry":{"x":168400.95000000112,"y":2542668.8100000005}},{"attributes":{"ID":626392,"DIS_CODE":0,"TOWNNAME":"中西區","LI":"五妃里","LIN":"4鄰","STREET":"南門路","SECT":" ","MAREA":" ","LANE":" ","ALLEY":" ","HOUSE_NO":"２３３號七樓之４","E_COORD97":168400.95000000001,"N_COORD97":2542668.8100000001,"ADDRESS":"南門路２３３號七樓之４","OBJECTID":626365},"geometry":{"x":168400.95000000112,"y":2542668.8100000005}},{"attributes":{"ID":626393,"DIS_CODE":0,"TOWNNAME":"中西區","LI":"五妃里","LIN":"4鄰","STREET":"南門路","SECT":" ","MAREA":" ","LANE":" ","ALLEY":" ","HOUSE_NO":"２３３號五樓之１","E_COORD97":168400.95000000001,"N_COORD97":2542668.8100000001,"ADDRESS":"南門路２３３號五樓之１","OBJECTID":626366},"geometry":{"x":168400.95000000112,"y":2542668.8100000005}},{"attributes":{"ID":626394,"DIS_CODE":0,"TOWNNAME":"中西區","LI":"五妃里","LIN":"4鄰","STREET":"南門路","SECT":" ","MAREA":" ","LANE":" ","ALLEY":" ","HOUSE_NO":"２３３號五樓之２","E_COORD97":168400.95000000001,"N_COORD97":2542668.8100000001,"ADDRESS":"南門路２３３號五樓之２","OBJECTID":626367},"geometry":{"x":168400.95000000112,"y":2542668.8100000005}},{"attributes":{"ID":626395,"DIS_CODE":0,"TOWNNAME":"中西區","LI":"五妃里","LIN":"4鄰","STREET":"南門路","SECT":" ","MAREA":" ","LANE":" ","ALLEY":" ","HOUSE_NO":"２３３號五樓之３","E_COORD97":168400.95000000001,"N_COORD97":2542668.8100000001,"ADDRESS":"南門路２３３號五樓之３","OBJECTID":626368},"geometry":{"x":168400.95000000112,"y":2542668.8100000005}},{"attributes":{"ID":626396,"DIS_CODE":0,"TOWNNAME":"東區","LI":"文聖里","LIN":"11鄰","STREET":"裕和二街","SECT":" ","MAREA":" ","LANE":" ","ALLEY":" ","HOUSE_NO":"１０２號三樓","E_COORD97":172122.84,"N_COORD97":2542804.3700000001,"ADDRESS":"裕和二街１０２號三樓","OBJECTID":626369},"geometry":{"x":172122.83999999985,"y":2542804.370000001}},{"attributes":{"ID":626397,"DIS_CODE":0,"TOWNNAME":"中西區","LI":"五妃里","LIN":"4鄰","STREET":"南門路","SECT":" ","MAREA":" ","LANE":" ","ALLEY":" ","HOUSE_NO":"２３３號五樓之４","E_COORD97":168400.95000000001,"N_COORD97":2542668.8100000001,"ADDRESS":"南門路２３３號五樓之４","OBJECTID":626370},"geometry":{"x":168400.95000000112,"y":2542668.8100000005}},{"attributes":{"ID":626398,"DIS_CODE":0,"TOWNNAME":"中西區","LI":"五妃里","LIN":"4鄰","STREET":"南門路","SECT":" ","MAREA":" ","LANE":" ","ALLEY":" ","HOUSE_NO":"２３３號六樓之１","E_COORD97":168400.95000000001,"N_COORD97":2542668.8100000001,"ADDRESS":"南門路２３３號六樓之１","OBJECTID":626371},"geometry":{"x":168400.95000000112,"y":2542668.8100000005}},{"attributes":{"ID":626399,"DIS_CODE":0,"TOWNNAME":"中西區","LI":"五妃里","LIN":"4鄰","STREET":"南門路","SECT":" ","MAREA":" ","LANE":" ","ALLEY":" ","HOUSE_NO":"２３３號六樓之２","E_COORD97":168400.95000000001,"N_COORD97":2542668.8100000001,"ADDRESS":"南門路２３３號六樓之２","OBJECTID":626372},"geometry":{"x":168400.95000000112,"y":2542668.8100000005}},{"attributes":{"ID":626400,"DIS_CODE":0,"TOWNNAME":"中西區","LI":"五妃里","LIN":"6鄰","STREET":"慶中街","SECT":" ","MAREA":" ","LANE":" ","ALLEY":" ","HOUSE_NO":"３７號一樓","E_COORD97":168533.19,"N_COORD97":2542741.8999999999,"ADDRESS":"慶中街３７號一樓","OBJECTID":626373},"geometry":{"x":168533.19000000134,"y":2542741.9000000022}},{"attributes":{"ID":626401,"DIS_CODE":0,"TOWNNAME":"中西區","LI":"福安里","LIN":"19鄰","STREET":"中正路","SECT":" ","MAREA":" ","LANE":" ","ALLEY":" ","HOUSE_NO":"１４７號二樓","E_COORD97":167930.42999999999,"N_COORD97":2543671,"ADDRESS":"中正路１４７號二樓","OBJECTID":626374},"geometry":{"x":167930.43000000156,"y":2543671}},{"attributes":{"ID":626402,"DIS_CODE":0,"TOWNNAME":"中西區","LI":"福安里","LIN":"19鄰","STREET":"中正路","SECT":" ","MAREA":" ","LANE":" ","ALLEY":" ","HOUSE_NO":"１４７號三樓","E_COORD97":167930.42999999999,"N_COORD97":2543671,"ADDRESS":"中正路１４７號三樓","OBJECTID":626375},"geometry":{"x":167930.43000000156,"y":2543671}},{"attributes":{"ID":626403,"DIS_CODE":0,"TOWNNAME":"中西區","LI":"福安里","LIN":"19鄰","STREET":"中正路","SECT":" ","MAREA":" ","LANE":" ","ALLEY":" ","HOUSE_NO":"１４７號五樓","E_COORD97":167930.42999999999,"N_COORD97":2543671,"ADDRESS":"中正路１４７號五樓","OBJECTID":626376},"geometry":{"x":167930.43000000156,"y":2543671}},{"attributes":{"ID":626404,"DIS_CODE":0,"TOWNNAME":"中西區","LI":"五妃里","LIN":"4鄰","STREET":"南門路","SECT":" ","MAREA":" ","LANE":" ","ALLEY":" ","HOUSE_NO":"２３３號六樓之３","E_COORD97":168400.95000000001,"N_COORD97":2542668.8100000001,"ADDRESS":"南門路２３３號六樓之３","OBJECTID":626377},"geometry":{"x":168400.95000000112,"y":2542668.8100000005}},{"attributes":{"ID":626405,"DIS_CODE":0,"TOWNNAME":"中西區","LI":"五妃里","LIN":"4鄰","STREET":"南門路","SECT":" ","MAREA":" ","LANE":" ","ALLEY":" ","HOUSE_NO":"２３３號四樓之３","E_COORD97":168400.95000000001,"N_COORD97":2542668.8100000001,"ADDRESS":"南門路２３３號四樓之３","OBJECTID":626378},"geometry":{"x":168400.95000000112,"y":2542668.8100000005}},{"attributes":{"ID":626406,"DIS_CODE":0,"TOWNNAME":"中西區","LI":"五妃里","LIN":"4鄰","STREET":"南門路","SECT":" ","MAREA":" ","LANE":" ","ALLEY":" ","HOUSE_NO":"２３３號四樓之４","E_COORD97":168400.95000000001,"N_COORD97":2542668.8100000001,"ADDRESS":"南門路２３３號四樓之４","OBJECTID":626379},"geometry":{"x":168400.95000000112,"y":2542668.8100000005}},{"attributes":{"ID":626407,"DIS_CODE":0,"TOWNNAME":"中西區","LI":"五妃里","LIN":"4鄰","STREET":"南門路","SECT":" ","MAREA":" ","LANE":" ","ALLEY":" ","HOUSE_NO":"２３３號四樓之５","E_COORD97":168400.95000000001,"N_COORD97":2542668.8100000001,"ADDRESS":"南門路２３３號四樓之５","OBJECTID":626380},"geometry":{"x":168400.95000000112,"y":2542668.8100000005}},{"attributes":{"ID":626408,"DIS_CODE":0,"TOWNNAME":"中西區","LI":"五妃里","LIN":"4鄰","STREET":"南門路","SECT":" ","MAREA":" ","LANE":" ","ALLEY":" ","HOUSE_NO":"２３３號四樓之６","E_COORD97":168400.95000000001,"N_COORD97":2542668.8100000001,"ADDRESS":"南門路２３３號四樓之６","OBJECTID":626381},"geometry":{"x":168400.95000000112,"y":2542668.8100000005}},{"attributes":{"ID":626409,"DIS_CODE":0,"TOWNNAME":"中西區","LI":"五妃里","LIN":"4鄰","STREET":"南門路","SECT":" ","MAREA":" ","LANE":" ","ALLEY":" ","HOUSE_NO":"２３３號四樓之７","E_COORD97":168400.95000000001,"N_COORD97":2542668.8100000001,"ADDRESS":"南門路２３３號四樓之７","OBJECTID":626382},"geometry":{"x":168400.95000000112,"y":2542668.8100000005}},{"attributes":{"ID":626410,"DIS_CODE":0,"TOWNNAME":"中西區","LI":"五妃里","LIN":"4鄰","STREET":"南門路","SECT":" ","MAREA":" ","LANE":" ","ALLEY":" ","HOUSE_NO":"２３３號四樓之８","E_COORD97":168400.95000000001,"N_COORD97":2542668.8100000001,"ADDRESS":"南門路２３３號四樓之８","OBJECTID":626383},"geometry":{"x":168400.95000000112,"y":2542668.8100000005}},{"attributes":{"ID":626411,"DIS_CODE":0,"TOWNNAME":"中西區","LI":"五妃里","LIN":"4鄰","STREET":"南門路","SECT":" ","MAREA":" ","LANE":" ","ALLEY":" ","HOUSE_NO":"２３５號七樓","E_COORD97":168411.14000000001,"N_COORD97":2542681.1699999999,"ADDRESS":"南門路２３５號七樓","OBJECTID":626384},"geometry":{"x":168411.1400000006,"y":2542681.1700000018}},{"attributes":{"ID":626412,"DIS_CODE":0,"TOWNNAME":"中西區","LI":"五妃里","LIN":"4鄰","STREET":"南門路","SECT":" ","MAREA":" ","LANE":" ","ALLEY":" ","HOUSE_NO":"２３５號三樓","E_COORD97":168411.14000000001,"N_COORD97":2542681.1699999999,"ADDRESS":"南門路２３５號三樓","OBJECTID":626385},"geometry":{"x":168411.1400000006,"y":2542681.1700000018}},{"attributes":{"ID":626413,"DIS_CODE":0,"TOWNNAME":"中西區","LI":"五妃里","LIN":"4鄰","STREET":"南門路","SECT":" ","MAREA":" ","LANE":" ","ALLEY":" ","HOUSE_NO":"２３５號之１七樓","E_COORD97":168409.69,"N_COORD97":2542653.5299999998,"ADDRESS":"南門路２３５號之１七樓","OBJECTID":626386},"geometry":{"x":168409.69000000134,"y":2542653.5300000031}},{"attributes":{"ID":626414,"DIS_CODE":0,"TOWNNAME":"中西區","LI":"五妃里","LIN":"4鄰","STREET":"南門路","SECT":" ","MAREA":" ","LANE":" ","ALLEY":" ","HOUSE_NO":"２３５號之１二樓","E_COORD97":168409.69,"N_COORD97":2542653.5299999998,"ADDRESS":"南門路２３５號之１二樓","OBJECTID":626387},"geometry":{"x":168409.69000000134,"y":2542653.5300000031}},{"attributes":{"ID":626415,"DIS_CODE":0,"TOWNNAME":"中西區","LI":"五妃里","LIN":"4鄰","STREET":"南門路","SECT":" ","MAREA":" ","LANE":" ","ALLEY":" ","HOUSE_NO":"２３５號之１三樓","E_COORD97":168409.69,"N_COORD97":2542653.5299999998,"ADDRESS":"南門路２３５號之１三樓","OBJECTID":626388},"geometry":{"x":168409.69000000134,"y":2542653.5300000031}},{"attributes":{"ID":626416,"DIS_CODE":0,"TOWNNAME":"中西區","LI":"五妃里","LIN":"4鄰","STREET":"南門路","SECT":" ","MAREA":" ","LANE":" ","ALLEY":" ","HOUSE_NO":"２３５號之１五樓","E_COORD97":168409.69,"N_COORD97":2542653.5299999998,"ADDRESS":"南門路２３５號之１五樓","OBJECTID":626389},"geometry":{"x":168409.69000000134,"y":2542653.5300000031}},{"attributes":{"ID":626417,"DIS_CODE":0,"TOWNNAME":"中西區","LI":"五妃里","LIN":"4鄰","STREET":"南門路","SECT":" ","MAREA":" ","LANE":" ","ALLEY":" ","HOUSE_NO":"２３５號之１六樓","E_COORD97":168409.69,"N_COORD97":2542653.5299999998,"ADDRESS":"南門路２３５號之１六樓","OBJECTID":626390},"geometry":{"x":168409.69000000134,"y":2542653.5300000031}},{"attributes":{"ID":626418,"DIS_CODE":0,"TOWNNAME":"中西區","LI":"五妃里","LIN":"4鄰","STREET":"南門路","SECT":" ","MAREA":" ","LANE":" ","ALLEY":" ","HOUSE_NO":"２３５號之１四樓","E_COORD97":168409.69,"N_COORD97":2542653.5299999998,"ADDRESS":"南門路２３５號之１四樓","OBJECTID":626391},"geometry":{"x":168409.69000000134,"y":2542653.5300000031}},{"attributes":{"ID":626419,"DIS_CODE":0,"TOWNNAME":"中西區","LI":"五妃里","LIN":"4鄰","STREET":"南門路","SECT":" ","MAREA":" ","LANE":" ","ALLEY":" ","HOUSE_NO":"２３５號五樓","E_COORD97":168411.14000000001,"N_COORD97":2542681.1699999999,"ADDRESS":"南門路２３５號五樓","OBJECTID":626392},"geometry":{"x":168411.1400000006,"y":2542681.1700000018}},{"attributes":{"ID":626420,"DIS_CODE":0,"TOWNNAME":"東區","LI":"龍山里","LIN":"5鄰","STREET":"崇仁街","SECT":" ","MAREA":" ","LANE":" ","ALLEY":" ","HOUSE_NO":"７２號二樓","E_COORD97":170359.12,"N_COORD97":2542719.2000000002,"ADDRESS":"崇仁街７２號二樓","OBJECTID":626393},"geometry":{"x":170359.12000000104,"y":2542719.1999999993}},{"attributes":{"ID":626421,"DIS_CODE":0,"TOWNNAME":"東區","LI":"文聖里","LIN":"11鄰","STREET":"裕和二街","SECT":" ","MAREA":" ","LANE":" ","ALLEY":" ","HOUSE_NO":"１００號二樓","E_COORD97":172128.76000000001,"N_COORD97":2542804.25,"ADDRESS":"裕和二街１００號二樓","OBJECTID":626394},"geometry":{"x":172128.75999999885,"y":2542804.25}},{"attributes":{"ID":626422,"DIS_CODE":0,"TOWNNAME":"東區","LI":"文聖里","LIN":"11鄰","STREET":"裕和二街","SECT":" ","MAREA":" ","LANE":" ","ALLEY":" ","HOUSE_NO":"１００號三樓","E_COORD97":172128.76000000001,"N_COORD97":2542804.25,"ADDRESS":"裕和二街１００號三樓","OBJECTID":626395},"geometry":{"x":172128.75999999885,"y":2542804.25}},{"attributes":{"ID":626423,"DIS_CODE":0,"TOWNNAME":"東區","LI":"文聖里","LIN":"11鄰","STREET":"裕和二街","SECT":" ","MAREA":" ","LANE":" ","ALLEY":" ","HOUSE_NO":"１００號四樓","E_COORD97":172128.76000000001,"N_COORD97":2542804.25,"ADDRESS":"裕和二街１００號四樓","OBJECTID":626396},"geometry":{"x":172128.75999999885,"y":2542804.25}},{"attributes":{"ID":626424,"DIS_CODE":0,"TOWNNAME":"東區","LI":"文聖里","LIN":"11鄰","STREET":"裕和二街","SECT":" ","MAREA":" ","LANE":" ","ALLEY":" ","HOUSE_NO":"１００號五樓","E_COORD97":172128.76000000001,"N_COORD97":2542804.25,"ADDRESS":"裕和二街１００號五樓","OBJECTID":626397},"geometry":{"x":172128.75999999885,"y":2542804.25}},{"attributes":{"ID":626425,"DIS_CODE":0,"TOWNNAME":"東區","LI":"文聖里","LIN":"11鄰","STREET":"裕和二街","SECT":" ","MAREA":" ","LANE":" ","ALLEY":" ","HOUSE_NO":"１００號六樓","E_COORD97":172128.76000000001,"N_COORD97":2542804.25,"ADDRESS":"裕和二街１００號六樓","OBJECTID":626398},"geometry":{"x":172128.75999999885,"y":2542804.25}},{"attributes":{"ID":626426,"DIS_CODE":0,"TOWNNAME":"東區","LI":"文聖里","LIN":"11鄰","STREET":"裕和二街","SECT":" ","MAREA":" ","LANE":" ","ALLEY":" ","HOUSE_NO":"１００號七樓","E_COORD97":172128.76000000001,"N_COORD97":2542804.25,"ADDRESS":"裕和二街１００號七樓","OBJECTID":626399},"geometry":{"x":172128.75999999885,"y":2542804.25}},{"attributes":{"ID":626427,"DIS_CODE":0,"TOWNNAME":"東區","LI":"文聖里","LIN":"11鄰","STREET":"裕和二街","SECT":" ","MAREA":" ","LANE":" ","ALLEY":" ","HOUSE_NO":"１０２號二樓","E_COORD97":172122.84,"N_COORD97":2542804.3700000001,"ADDRESS":"裕和二街１０２號二樓","OBJECTID":626400},"geometry":{"x":172122.83999999985,"y":2542804.370000001}}]}