{"displayFieldName":"TOWNNAME","fieldAliases":{"ID":"ID","DIS_CODE":"DIS_CODE","TOWNNAME":"TOWNNAME","LI":"LI","LIN":"LIN","STREET":"STREET","SECT":"SECT","MAREA":"MAREA","LANE":"LANE","ALLEY":"ALLEY","HOUSE_NO":"HOUSE_NO","E_COORD97":"E_COORD97","N_COORD97":"N_COORD97","ADDRESS":"ADDRESS","OBJECTID":"OBJECTID"},"geometryType":"esriGeometryPoint","spatialReference":{"wkid":102443,"latestWkid":3826},"fields":[{"name":"ID","type":"esriFieldTypeDouble","alias":"ID"},{"name":"DIS_CODE","type":"esriFieldTypeInteger","alias":"DIS_CODE"},{"name":"TOWNNAME","type":"esriFieldTypeString","alias":"TOWNNAME","length":8},{"name":"LI","type":"esriFieldTypeString","alias":"LI","length":8},{"name":"LIN","type":"esriFieldTypeString","alias":"LIN","length":12},{"name":"STREET","type":"esriFieldTypeString","alias":"STREET","length":20},{"name":"SECT","type":"esriFieldTypeString","alias":"SECT","length":8},{"name":"MAREA","type":"esriFieldTypeString","alias":"MAREA","length":12},{"name":"LANE","type":"esriFieldTypeString","alias":"LANE","length":10},{"name":"ALLEY","type":"esriFieldTypeString","alias":"ALLEY","length":10},{"name":"HOUSE_NO","type":"esriFieldTypeString","alias":"HOUSE_NO","length":20},{"name":"E_COORD97","type":"esriFieldTypeDouble","alias":"E_COORD97"},{"name":"N_COORD97","type":"esriFieldTypeDouble","alias":"N_COORD97"},{"name":"ADDRESS","type":"esriFieldTypeString","alias":"ADDRESS","length":50},{"name":"OBJECTID","type":"esriFieldTypeOID","alias":"OBJECTID"}],"features":[{"attributes":{"ID":573828,"DIS_CODE":0,"TOWNNAME":"東山區","LI":"東中里","LIN":"23鄰","STREET":"鳳安一街","SECT":" ","MAREA":" ","LANE":" ","ALLEY":" ","HOUSE_NO":"９２號","E_COORD97":188684.23999999999,"N_COORD97":2579759,"ADDRESS":"鳳安一街９２號","OBJECTID":573801},"geometry":{"x":188684.24000000022,"y":2579759.0000000037}},{"attributes":{"ID":573829,"DIS_CODE":0,"TOWNNAME":"新化區","LI":"東榮里","LIN":"23鄰","STREET":"光明路","SECT":" ","MAREA":" ","LANE":" ","ALLEY":" ","HOUSE_NO":"３３號","E_COORD97":179324.37,"N_COORD97":2548057.25,"ADDRESS":"光明路３３號","OBJECTID":573802},"geometry":{"x":179324.37000000011,"y":2548057.2500000037}},{"attributes":{"ID":573830,"DIS_CODE":0,"TOWNNAME":"永康區","LI":"復華里","LIN":"23鄰","STREET":"復華七街","SECT":" ","MAREA":" ","LANE":" ","ALLEY":" ","HOUSE_NO":"７３號","E_COORD97":172755.64999999999,"N_COORD97":2546081.02,"ADDRESS":"復華七街７３號","OBJECTID":573803},"geometry":{"x":172755.65000000037,"y":2546081.0199999996}},{"attributes":{"ID":573831,"DIS_CODE":0,"TOWNNAME":"新化區","LI":"東榮里","LIN":"23鄰","STREET":"光明路","SECT":" ","MAREA":" ","LANE":" ","ALLEY":" ","HOUSE_NO":"３０號","E_COORD97":179334.07000000001,"N_COORD97":2548078.25,"ADDRESS":"光明路３０號","OBJECTID":573804},"geometry":{"x":179334.07000000123,"y":2548078.2500000019}},{"attributes":{"ID":573832,"DIS_CODE":0,"TOWNNAME":"北區","LI":"文元里","LIN":"23鄰","STREET":"文成三路","SECT":" ","MAREA":" ","LANE":" ","ALLEY":" ","HOUSE_NO":"６８８號","E_COORD97":167921,"N_COORD97":2546294.6200000001,"ADDRESS":"文成三路６８８號","OBJECTID":573805},"geometry":{"x":167921,"y":2546294.620000001}},{"attributes":{"ID":573833,"DIS_CODE":0,"TOWNNAME":"北區","LI":"文元里","LIN":"23鄰","STREET":"海安路","SECT":"三段","MAREA":" ","LANE":" ","ALLEY":" ","HOUSE_NO":"８３９號","E_COORD97":167982.89999999999,"N_COORD97":2546357.7599999998,"ADDRESS":"海安路三段８３９號","OBJECTID":573806},"geometry":{"x":167982.9000000013,"y":2546357.7599999998}},{"attributes":{"ID":573834,"DIS_CODE":0,"TOWNNAME":"仁德區","LI":"太子里","LIN":"23鄰","STREET":"太子路","SECT":" ","MAREA":" ","LANE":" ","ALLEY":" ","HOUSE_NO":"３６２號","E_COORD97":173756.25,"N_COORD97":2543537.0099999998,"ADDRESS":"太子路３６２號","OBJECTID":573807},"geometry":{"x":173756.25,"y":2543537.0100000016}},{"attributes":{"ID":573835,"DIS_CODE":0,"TOWNNAME":"永康區","LI":"網寮里","LIN":"23鄰","STREET":"永華路","SECT":" ","MAREA":" ","LANE":" ","ALLEY":" ","HOUSE_NO":"５２２號","E_COORD97":173936.89000000001,"N_COORD97":2546356.4900000002,"ADDRESS":"永華路５２２號","OBJECTID":573808},"geometry":{"x":173936.8900000006,"y":2546356.4900000002}},{"attributes":{"ID":573836,"DIS_CODE":0,"TOWNNAME":"歸仁區","LI":"歸仁里","LIN":"23鄰","STREET":"忠孝北路","SECT":" ","MAREA":" ","LANE":" ","ALLEY":" ","HOUSE_NO":"２０９號","E_COORD97":178084.32000000001,"N_COORD97":2541237.3300000001,"ADDRESS":"忠孝北路２０９號","OBJECTID":573809},"geometry":{"x":178084.32000000216,"y":2541237.3300000001}},{"attributes":{"ID":573837,"DIS_CODE":0,"TOWNNAME":"歸仁區","LI":"大廟里","LIN":"23鄰","STREET":"大廟一街","SECT":" ","MAREA":" ","LANE":" ","ALLEY":" ","HOUSE_NO":"１１２號","E_COORD97":175701.70000000001,"N_COORD97":2543896.1699999999,"ADDRESS":"大廟一街１１２號","OBJECTID":573810},"geometry":{"x":175701.70000000112,"y":2543896.1699999999}},{"attributes":{"ID":573838,"DIS_CODE":0,"TOWNNAME":"楠西區","LI":"楠西里","LIN":"23鄰","STREET":"茄拔路","SECT":" ","MAREA":" ","LANE":" ","ALLEY":" ","HOUSE_NO":"７３號","E_COORD97":197146.48999999999,"N_COORD97":2563861.2799999998,"ADDRESS":"茄拔路７３號","OBJECTID":573811},"geometry":{"x":197146.49000000022,"y":2563861.2799999993}},{"attributes":{"ID":573839,"DIS_CODE":0,"TOWNNAME":"官田區","LI":"二鎮里","LIN":"23鄰","STREET":"工社北街","SECT":" ","MAREA":" ","LANE":" ","ALLEY":" ","HOUSE_NO":"３０號","E_COORD97":180915.07999999999,"N_COORD97":2568695,"ADDRESS":"工社北街３０號","OBJECTID":573812},"geometry":{"x":180915.08000000101,"y":2568695}},{"attributes":{"ID":573840,"DIS_CODE":0,"TOWNNAME":"南區","LI":"文華里","LIN":"23鄰","STREET":"文南三街","SECT":" ","MAREA":" ","LANE":" ","ALLEY":" ","HOUSE_NO":"６０號","E_COORD97":166823.26999999999,"N_COORD97":2542968.4300000002,"ADDRESS":"文南三街６０號","OBJECTID":573813},"geometry":{"x":166823.27000000048,"y":2542968.4299999997}},{"attributes":{"ID":573841,"DIS_CODE":0,"TOWNNAME":"麻豆區","LI":"大埕里","LIN":"18鄰","STREET":"大同街","SECT":" ","MAREA":" ","LANE":" ","ALLEY":" ","HOUSE_NO":"２號","E_COORD97":172898.39999999999,"N_COORD97":2564981.4100000001,"ADDRESS":"大同街２號","OBJECTID":573814},"geometry":{"x":172898.4000000013,"y":2564981.410000002}},{"attributes":{"ID":573842,"DIS_CODE":0,"TOWNNAME":"麻豆區","LI":"大埕里","LIN":"15鄰","STREET":"大同街","SECT":" ","MAREA":" ","LANE":" ","ALLEY":" ","HOUSE_NO":"３０號之１","E_COORD97":172909.39000000001,"N_COORD97":2565092.3700000001,"ADDRESS":"大同街３０號之１","OBJECTID":573815},"geometry":{"x":172909.39000000153,"y":2565092.370000001}},{"attributes":{"ID":573843,"DIS_CODE":0,"TOWNNAME":"麻豆區","LI":"大埕里","LIN":"15鄰","STREET":"大同街","SECT":" ","MAREA":" ","LANE":" ","ALLEY":" ","HOUSE_NO":"３４號之１","E_COORD97":172915.98999999999,"N_COORD97":2565138.4100000001,"ADDRESS":"大同街３４號之１","OBJECTID":573816},"geometry":{"x":172915.98999999929,"y":2565138.410000002}},{"attributes":{"ID":573844,"DIS_CODE":0,"TOWNNAME":"麻豆區","LI":"大埕里","LIN":"15鄰","STREET":"大同街","SECT":" ","MAREA":" ","LANE":" ","ALLEY":" ","HOUSE_NO":"３４號之２","E_COORD97":172885.12,"N_COORD97":2565125.3100000001,"ADDRESS":"大同街３４號之２","OBJECTID":573817},"geometry":{"x":172885.12000000104,"y":2565125.3100000024}},{"attributes":{"ID":573845,"DIS_CODE":0,"TOWNNAME":"麻豆區","LI":"大埕里","LIN":"15鄰","STREET":"大同街","SECT":" ","MAREA":" ","LANE":" ","ALLEY":" ","HOUSE_NO":"３６號之１","E_COORD97":172905.07999999999,"N_COORD97":2565150.7799999998,"ADDRESS":"大同街３６號之１","OBJECTID":573818},"geometry":{"x":172905.08000000194,"y":2565150.7800000012}},{"attributes":{"ID":573846,"DIS_CODE":0,"TOWNNAME":"麻豆區","LI":"大埕里","LIN":"15鄰","STREET":"大同街","SECT":" ","MAREA":" ","LANE":" ","ALLEY":" ","HOUSE_NO":"３６號","E_COORD97":172870.60999999999,"N_COORD97":2565140.0499999998,"ADDRESS":"大同街３６號","OBJECTID":573819},"geometry":{"x":172870.61000000034,"y":2565140.0500000045}},{"attributes":{"ID":573847,"DIS_CODE":0,"TOWNNAME":"南區","LI":"文華里","LIN":"23鄰","STREET":"文南三街","SECT":" ","MAREA":" ","LANE":" ","ALLEY":" ","HOUSE_NO":"６２號","E_COORD97":166817.81,"N_COORD97":2542963.9399999999,"ADDRESS":"文南三街６２號","OBJECTID":573820},"geometry":{"x":166817.81000000052,"y":2542963.9400000013}},{"attributes":{"ID":573848,"DIS_CODE":0,"TOWNNAME":"南區","LI":"文華里","LIN":"23鄰","STREET":"文南三街","SECT":" ","MAREA":" ","LANE":" ","ALLEY":" ","HOUSE_NO":"６４號","E_COORD97":166813.53,"N_COORD97":2542960.2999999998,"ADDRESS":"文南三街６４號","OBJECTID":573821},"geometry":{"x":166813.53000000119,"y":2542960.3000000007}},{"attributes":{"ID":573849,"DIS_CODE":0,"TOWNNAME":"南區","LI":"文華里","LIN":"23鄰","STREET":"文南三街","SECT":" ","MAREA":" ","LANE":" ","ALLEY":" ","HOUSE_NO":"６６號","E_COORD97":166808.92000000001,"N_COORD97":2542956.4500000002,"ADDRESS":"文南三街６６號","OBJECTID":573822},"geometry":{"x":166808.92000000086,"y":2542956.4500000011}},{"attributes":{"ID":573850,"DIS_CODE":0,"TOWNNAME":"南區","LI":"文華里","LIN":"23鄰","STREET":"文南三街","SECT":" ","MAREA":" ","LANE":" ","ALLEY":" ","HOUSE_NO":"６８號","E_COORD97":166804.20999999999,"N_COORD97":2542952.8100000001,"ADDRESS":"文南三街６８號","OBJECTID":573823},"geometry":{"x":166804.20999999996,"y":2542952.8100000024}},{"attributes":{"ID":573851,"DIS_CODE":0,"TOWNNAME":"南區","LI":"文華里","LIN":"23鄰","STREET":"文南三街","SECT":" ","MAREA":" ","LANE":" ","ALLEY":" ","HOUSE_NO":"７０號","E_COORD97":166799.82000000001,"N_COORD97":2542949.1800000002,"ADDRESS":"文南三街７０號","OBJECTID":573824},"geometry":{"x":166799.82000000123,"y":2542949.1800000016}},{"attributes":{"ID":573852,"DIS_CODE":0,"TOWNNAME":"南區","LI":"文華里","LIN":"23鄰","STREET":"文南三街","SECT":" ","MAREA":" ","LANE":" ","ALLEY":" ","HOUSE_NO":"７２號","E_COORD97":166794.35999999999,"N_COORD97":2542945.3300000001,"ADDRESS":"文南三街７２號","OBJECTID":573825},"geometry":{"x":166794.36000000127,"y":2542945.3300000019}},{"attributes":{"ID":573853,"DIS_CODE":0,"TOWNNAME":"南區","LI":"文華里","LIN":"23鄰","STREET":"文南三街","SECT":" ","MAREA":" ","LANE":" ","ALLEY":" ","HOUSE_NO":"７４號","E_COORD97":166789.54000000001,"N_COORD97":2542941.1499999999,"ADDRESS":"文南三街７４號","OBJECTID":573826},"geometry":{"x":166789.54000000097,"y":2542941.1500000004}},{"attributes":{"ID":573854,"DIS_CODE":0,"TOWNNAME":"南區","LI":"文華里","LIN":"23鄰","STREET":"文南三街","SECT":" ","MAREA":" ","LANE":" ","ALLEY":" ","HOUSE_NO":"７６號","E_COORD97":166780.44,"N_COORD97":2542932.9399999999,"ADDRESS":"文南三街７６號","OBJECTID":573827},"geometry":{"x":166780.44000000134,"y":2542932.9400000013}},{"attributes":{"ID":573855,"DIS_CODE":0,"TOWNNAME":"南區","LI":"文華里","LIN":"23鄰","STREET":"文南三街","SECT":" ","MAREA":" ","LANE":" ","ALLEY":" ","HOUSE_NO":"８２號","E_COORD97":166769.67999999999,"N_COORD97":2542914.02,"ADDRESS":"文南三街８２號","OBJECTID":573828},"geometry":{"x":166769.68000000063,"y":2542914.0199999996}},{"attributes":{"ID":573856,"DIS_CODE":0,"TOWNNAME":"南區","LI":"文華里","LIN":"23鄰","STREET":"文南三街","SECT":" ","MAREA":" ","LANE":" ","ALLEY":" ","HOUSE_NO":"８４號","E_COORD97":166769.78,"N_COORD97":2542908.8799999999,"ADDRESS":"文南三街８４號","OBJECTID":573829},"geometry":{"x":166769.78000000119,"y":2542908.8800000008}},{"attributes":{"ID":573857,"DIS_CODE":0,"TOWNNAME":"南區","LI":"文華里","LIN":"23鄰","STREET":"文南三街","SECT":" ","MAREA":" ","LANE":" ","ALLEY":" ","HOUSE_NO":"８６號","E_COORD97":166768.39000000001,"N_COORD97":2542902.3599999999,"ADDRESS":"文南三街８６號","OBJECTID":573830},"geometry":{"x":166768.3900000006,"y":2542902.3600000031}},{"attributes":{"ID":573858,"DIS_CODE":0,"TOWNNAME":"南區","LI":"文華里","LIN":"23鄰","STREET":"文南三街","SECT":" ","MAREA":" ","LANE":" ","ALLEY":" ","HOUSE_NO":"８８號","E_COORD97":166767.64000000001,"N_COORD97":2542896.4700000002,"ADDRESS":"文南三街８８號","OBJECTID":573831},"geometry":{"x":166767.64000000153,"y":2542896.4700000025}},{"attributes":{"ID":573859,"DIS_CODE":0,"TOWNNAME":"南區","LI":"文華里","LIN":"23鄰","STREET":"建南路","SECT":" ","MAREA":" ","LANE":" ","ALLEY":" ","HOUSE_NO":"１７６號","E_COORD97":166769.14000000001,"N_COORD97":2542876.0600000001,"ADDRESS":"建南路１７６號","OBJECTID":573832},"geometry":{"x":166769.13999999966,"y":2542876.0600000024}},{"attributes":{"ID":573860,"DIS_CODE":0,"TOWNNAME":"南區","LI":"文華里","LIN":"23鄰","STREET":"建南路","SECT":" ","MAREA":" ","LANE":" ","ALLEY":" ","HOUSE_NO":"１７８號","E_COORD97":166763.82999999999,"N_COORD97":2542876.0600000001,"ADDRESS":"建南路１７８號","OBJECTID":573833},"geometry":{"x":166763.83000000101,"y":2542876.0600000024}},{"attributes":{"ID":573861,"DIS_CODE":0,"TOWNNAME":"南區","LI":"文華里","LIN":"23鄰","STREET":"建南路","SECT":" ","MAREA":" ","LANE":" ","ALLEY":" ","HOUSE_NO":"１８０號","E_COORD97":166758.20000000001,"N_COORD97":2542876.3799999999,"ADDRESS":"建南路１８０號","OBJECTID":573834},"geometry":{"x":166758.20000000112,"y":2542876.379999999}},{"attributes":{"ID":573862,"DIS_CODE":0,"TOWNNAME":"南區","LI":"文華里","LIN":"23鄰","STREET":"建南路","SECT":" ","MAREA":" ","LANE":" ","ALLEY":" ","HOUSE_NO":"１８２號","E_COORD97":166752.89000000001,"N_COORD97":2542876.8100000001,"ADDRESS":"建南路１８２號","OBJECTID":573835},"geometry":{"x":166752.8900000006,"y":2542876.8100000042}},{"attributes":{"ID":573863,"DIS_CODE":0,"TOWNNAME":"南區","LI":"文華里","LIN":"23鄰","STREET":"建南路","SECT":" ","MAREA":" ","LANE":" ","ALLEY":" ","HOUSE_NO":"１８４號","E_COORD97":166748.22,"N_COORD97":2542877.6600000001,"ADDRESS":"建南路１８４號","OBJECTID":573836},"geometry":{"x":166748.21999999974,"y":2542877.660000002}},{"attributes":{"ID":573864,"DIS_CODE":0,"TOWNNAME":"南區","LI":"文華里","LIN":"23鄰","STREET":"建南路","SECT":" ","MAREA":" ","LANE":" ","ALLEY":" ","HOUSE_NO":"１８６號","E_COORD97":166742.81,"N_COORD97":2542877.9700000002,"ADDRESS":"建南路１８６號","OBJECTID":573837},"geometry":{"x":166742.81000000145,"y":2542877.9700000007}},{"attributes":{"ID":573865,"DIS_CODE":0,"TOWNNAME":"南區","LI":"文華里","LIN":"23鄰","STREET":"建南路","SECT":" ","MAREA":" ","LANE":" ","ALLEY":" ","HOUSE_NO":"１８８號","E_COORD97":166737.17999999999,"N_COORD97":2542878.7200000002,"ADDRESS":"建南路１８８號","OBJECTID":573838},"geometry":{"x":166737.18000000063,"y":2542878.7200000025}},{"attributes":{"ID":573866,"DIS_CODE":0,"TOWNNAME":"南區","LI":"文華里","LIN":"23鄰","STREET":"建南路","SECT":" ","MAREA":" ","LANE":" ","ALLEY":" ","HOUSE_NO":"１９０號","E_COORD97":166733.04000000001,"N_COORD97":2542879.25,"ADDRESS":"建南路１９０號","OBJECTID":573839},"geometry":{"x":166733.03999999911,"y":2542879.25}},{"attributes":{"ID":573867,"DIS_CODE":0,"TOWNNAME":"南區","LI":"文華里","LIN":"23鄰","STREET":"美南街","SECT":" ","MAREA":" ","LANE":" ","ALLEY":" ","HOUSE_NO":"８９號","E_COORD97":166802.07000000001,"N_COORD97":2542993.0499999998,"ADDRESS":"美南街８９號","OBJECTID":573840},"geometry":{"x":166802.0700000003,"y":2542993.0500000007}},{"attributes":{"ID":573868,"DIS_CODE":0,"TOWNNAME":"南區","LI":"文華里","LIN":"23鄰","STREET":"美南街","SECT":" ","MAREA":" ","LANE":" ","ALLEY":" ","HOUSE_NO":"９１號","E_COORD97":166796.92999999999,"N_COORD97":2542989.9500000002,"ADDRESS":"美南街９１號","OBJECTID":573841},"geometry":{"x":166796.93000000063,"y":2542989.950000003}},{"attributes":{"ID":573869,"DIS_CODE":0,"TOWNNAME":"南區","LI":"文華里","LIN":"23鄰","STREET":"美南街","SECT":" ","MAREA":" ","LANE":" ","ALLEY":" ","HOUSE_NO":"９３號","E_COORD97":166793.07000000001,"N_COORD97":2542986.4199999999,"ADDRESS":"美南街９３號","OBJECTID":573842},"geometry":{"x":166793.07000000123,"y":2542986.4199999999}},{"attributes":{"ID":573870,"DIS_CODE":0,"TOWNNAME":"南區","LI":"文華里","LIN":"23鄰","STREET":"美南街","SECT":" ","MAREA":" ","LANE":" ","ALLEY":" ","HOUSE_NO":"９５號","E_COORD97":166788.89999999999,"N_COORD97":2542982.25,"ADDRESS":"美南街９５號","OBJECTID":573843},"geometry":{"x":166788.9000000013,"y":2542982.2500000019}},{"attributes":{"ID":573871,"DIS_CODE":0,"TOWNNAME":"南區","LI":"文華里","LIN":"23鄰","STREET":"美南街","SECT":" ","MAREA":" ","LANE":" ","ALLEY":" ","HOUSE_NO":"９７號","E_COORD97":166783.32999999999,"N_COORD97":2542978.8199999998,"ADDRESS":"美南街９７號","OBJECTID":573844},"geometry":{"x":166783.33000000007,"y":2542978.8200000022}},{"attributes":{"ID":573872,"DIS_CODE":0,"TOWNNAME":"南區","LI":"文華里","LIN":"23鄰","STREET":"美南街","SECT":" ","MAREA":" ","LANE":" ","ALLEY":" ","HOUSE_NO":"９９號","E_COORD97":166778.87,"N_COORD97":2542974.9199999999,"ADDRESS":"美南街９９號","OBJECTID":573845},"geometry":{"x":166778.87000000104,"y":2542974.9200000018}},{"attributes":{"ID":573873,"DIS_CODE":0,"TOWNNAME":"南區","LI":"文華里","LIN":"23鄰","STREET":"美南街","SECT":" ","MAREA":" ","LANE":" ","ALLEY":" ","HOUSE_NO":"１０１號","E_COORD97":166773.62,"N_COORD97":2542970.54,"ADDRESS":"美南街１０１號","OBJECTID":573846},"geometry":{"x":166773.62000000104,"y":2542970.5399999991}},{"attributes":{"ID":573874,"DIS_CODE":0,"TOWNNAME":"南區","LI":"文華里","LIN":"23鄰","STREET":"美南街","SECT":" ","MAREA":" ","LANE":" ","ALLEY":" ","HOUSE_NO":"１０３號","E_COORD97":166768.48000000001,"N_COORD97":2542967.4399999999,"ADDRESS":"美南街１０３號","OBJECTID":573847},"geometry":{"x":166768.48000000138,"y":2542967.4400000013}},{"attributes":{"ID":573875,"DIS_CODE":0,"TOWNNAME":"麻豆區","LI":"油車里","LIN":"3鄰","STREET":"大同街","SECT":" ","MAREA":" ","LANE":" ","ALLEY":" ","HOUSE_NO":"１１號","E_COORD97":172814.04999999999,"N_COORD97":2565197.52,"ADDRESS":"大同街１１號","OBJECTID":573848},"geometry":{"x":172814.05000000075,"y":2565197.5200000014}},{"attributes":{"ID":573876,"DIS_CODE":0,"TOWNNAME":"南區","LI":"文華里","LIN":"23鄰","STREET":"美南街","SECT":" ","MAREA":" ","LANE":" ","ALLEY":" ","HOUSE_NO":"１０５號","E_COORD97":166763.87,"N_COORD97":2542963.3700000001,"ADDRESS":"美南街１０５號","OBJECTID":573849},"geometry":{"x":166763.87000000104,"y":2542963.370000001}},{"attributes":{"ID":573877,"DIS_CODE":0,"TOWNNAME":"南區","LI":"文華里","LIN":"23鄰","STREET":"美南街","SECT":" ","MAREA":" ","LANE":" ","ALLEY":" ","HOUSE_NO":"１０７號","E_COORD97":166759.59,"N_COORD97":2542959.6299999999,"ADDRESS":"美南街１０７號","OBJECTID":573850},"geometry":{"x":166759.58999999985,"y":2542959.629999999}},{"attributes":{"ID":573878,"DIS_CODE":0,"TOWNNAME":"南區","LI":"文華里","LIN":"23鄰","STREET":"美南街","SECT":" ","MAREA":" ","LANE":" ","ALLEY":" ","HOUSE_NO":"１１３號","E_COORD97":166740.32999999999,"N_COORD97":2542917.4399999999,"ADDRESS":"美南街１１３號","OBJECTID":573851},"geometry":{"x":166740.33000000101,"y":2542917.4399999995}},{"attributes":{"ID":573879,"DIS_CODE":0,"TOWNNAME":"南區","LI":"文華里","LIN":"23鄰","STREET":"美南街","SECT":" ","MAREA":" ","LANE":" ","ALLEY":" ","HOUSE_NO":"１１５號","E_COORD97":166739.16,"N_COORD97":2542910.9199999999,"ADDRESS":"美南街１１５號","OBJECTID":573852},"geometry":{"x":166739.15999999922,"y":2542910.9200000018}},{"attributes":{"ID":573880,"DIS_CODE":0,"TOWNNAME":"南區","LI":"文華里","LIN":"23鄰","STREET":"美南街","SECT":" ","MAREA":" ","LANE":" ","ALLEY":" ","HOUSE_NO":"１１７號","E_COORD97":166737.54999999999,"N_COORD97":2542904.6099999999,"ADDRESS":"美南街１１７號","OBJECTID":573853},"geometry":{"x":166737.54999999981,"y":2542904.6100000013}},{"attributes":{"ID":573881,"DIS_CODE":0,"TOWNNAME":"南區","LI":"文華里","LIN":"23鄰","STREET":"美南街","SECT":" ","MAREA":" ","LANE":" ","ALLEY":" ","HOUSE_NO":"１１９號","E_COORD97":166736.79999999999,"N_COORD97":2542898.7200000002,"ADDRESS":"美南街１１９號","OBJECTID":573854},"geometry":{"x":166736.80000000075,"y":2542898.7200000025}},{"attributes":{"ID":573882,"DIS_CODE":0,"TOWNNAME":"南區","LI":"文華里","LIN":"23鄰","STREET":"敬南街","SECT":" ","MAREA":" ","LANE":" ","ALLEY":" ","HOUSE_NO":"１４號","E_COORD97":166812.88,"N_COORD97":2543001.29,"ADDRESS":"敬南街１４號","OBJECTID":573855},"geometry":{"x":166812.88000000082,"y":2543001.290000001}},{"attributes":{"ID":573883,"DIS_CODE":0,"TOWNNAME":"南區","LI":"文華里","LIN":"23鄰","STREET":"敬南街","SECT":" ","MAREA":" ","LANE":" ","ALLEY":" ","HOUSE_NO":"１６號","E_COORD97":166816.20000000001,"N_COORD97":2542996.2599999998,"ADDRESS":"敬南街１６號","OBJECTID":573856},"geometry":{"x":166816.20000000019,"y":2542996.2600000016}},{"attributes":{"ID":573884,"DIS_CODE":0,"TOWNNAME":"南區","LI":"文華里","LIN":"23鄰","STREET":"敬南街","SECT":" ","MAREA":" ","LANE":" ","ALLEY":" ","HOUSE_NO":"１８號","E_COORD97":166821.88,"N_COORD97":2542991.8799999999,"ADDRESS":"敬南街１８號","OBJECTID":573857},"geometry":{"x":166821.87999999989,"y":2542991.879999999}},{"attributes":{"ID":573885,"DIS_CODE":0,"TOWNNAME":"南區","LI":"文華里","LIN":"23鄰","STREET":"敬南街","SECT":" ","MAREA":" ","LANE":" ","ALLEY":" ","HOUSE_NO":"２０號","E_COORD97":166826.59,"N_COORD97":2542987.3799999999,"ADDRESS":"敬南街２０號","OBJECTID":573858},"geometry":{"x":166826.59000000078,"y":2542987.3800000008}},{"attributes":{"ID":573886,"DIS_CODE":0,"TOWNNAME":"南區","LI":"文華里","LIN":"23鄰","STREET":"敬南街","SECT":" ","MAREA":" ","LANE":" ","ALLEY":" ","HOUSE_NO":"２２號","E_COORD97":166830.20999999999,"N_COORD97":2542981.4300000002,"ADDRESS":"敬南街２２號","OBJECTID":573859},"geometry":{"x":166830.21000000183,"y":2542981.4300000016}},{"attributes":{"ID":573887,"DIS_CODE":0,"TOWNNAME":"南區","LI":"文華里","LIN":"23鄰","STREET":"敬南街","SECT":" ","MAREA":" ","LANE":" ","ALLEY":" ","HOUSE_NO":"２４號","E_COORD97":166833.53,"N_COORD97":2542978.02,"ADDRESS":"敬南街２４號","OBJECTID":573860},"geometry":{"x":166833.53000000212,"y":2542978.0199999996}},{"attributes":{"ID":573888,"DIS_CODE":0,"TOWNNAME":"永康區","LI":"永康里","LIN":"23鄰","STREET":"中山南路","SECT":" ","MAREA":" ","LANE":" ","ALLEY":" ","HOUSE_NO":"６２７號","E_COORD97":173583.41,"N_COORD97":2547244.5,"ADDRESS":"中山南路６２７號","OBJECTID":573861},"geometry":{"x":173583.41000000108,"y":2547244.5}},{"attributes":{"ID":573889,"DIS_CODE":0,"TOWNNAME":"永康區","LI":"甲頂里","LIN":"23鄰","STREET":"中正南路","SECT":" ","MAREA":" ","LANE":" ","ALLEY":" ","HOUSE_NO":"９６號","E_COORD97":169672.10000000001,"N_COORD97":2546856.4100000001,"ADDRESS":"中正南路９６號","OBJECTID":573862},"geometry":{"x":169672.10000000056,"y":2546856.410000002}},{"attributes":{"ID":573890,"DIS_CODE":0,"TOWNNAME":"永康區","LI":"永康里","LIN":"23鄰","STREET":"中山南路","SECT":" ","MAREA":" ","LANE":" ","ALLEY":" ","HOUSE_NO":"５７３號","E_COORD97":173474.76000000001,"N_COORD97":2547171.75,"ADDRESS":"中山南路５７３號","OBJECTID":573863},"geometry":{"x":173474.75999999885,"y":2547171.75}},{"attributes":{"ID":573891,"DIS_CODE":0,"TOWNNAME":"永康區","LI":"永康里","LIN":"23鄰","STREET":"中山南路","SECT":" ","MAREA":" ","LANE":" ","ALLEY":" ","HOUSE_NO":"５９３號","E_COORD97":173520.73999999999,"N_COORD97":2547199.4900000002,"ADDRESS":"中山南路５９３號","OBJECTID":573864},"geometry":{"x":173520.74000000022,"y":2547199.4900000021}},{"attributes":{"ID":573892,"DIS_CODE":0,"TOWNNAME":"永康區","LI":"永康里","LIN":"23鄰","STREET":"中山南路","SECT":" ","MAREA":" ","LANE":" ","ALLEY":" ","HOUSE_NO":"５２１號","E_COORD97":173366.04999999999,"N_COORD97":2547106.5099999998,"ADDRESS":"中山南路５２１號","OBJECTID":573865},"geometry":{"x":173366.04999999888,"y":2547106.5100000016}},{"attributes":{"ID":573893,"DIS_CODE":0,"TOWNNAME":"永康區","LI":"永康里","LIN":"23鄰","STREET":"中山南路","SECT":" ","MAREA":" ","LANE":" ","ALLEY":" ","HOUSE_NO":"５６５號","E_COORD97":173458.76000000001,"N_COORD97":2547162.54,"ADDRESS":"中山南路５６５號","OBJECTID":573866},"geometry":{"x":173458.76000000071,"y":2547162.5400000028}},{"attributes":{"ID":573894,"DIS_CODE":0,"TOWNNAME":"永康區","LI":"永康里","LIN":"23鄰","STREET":"中山南路","SECT":" ","MAREA":" ","LANE":" ","ALLEY":" ","HOUSE_NO":"５４５號","E_COORD97":173422.45999999999,"N_COORD97":2547138.9300000002,"ADDRESS":"中山南路５４５號","OBJECTID":573867},"geometry":{"x":173422.45999999996,"y":2547138.9299999997}},{"attributes":{"ID":573895,"DIS_CODE":0,"TOWNNAME":"永康區","LI":"永康里","LIN":"23鄰","STREET":"中山南路","SECT":" ","MAREA":" ","LANE":" ","ALLEY":" ","HOUSE_NO":"５６９號","E_COORD97":173467.67000000001,"N_COORD97":2547167.6600000001,"ADDRESS":"中山南路５６９號","OBJECTID":573868},"geometry":{"x":173467.67000000086,"y":2547167.660000002}},{"attributes":{"ID":573896,"DIS_CODE":0,"TOWNNAME":"永康區","LI":"永康里","LIN":"23鄰","STREET":"中山南路","SECT":" ","MAREA":" ","LANE":" ","ALLEY":" ","HOUSE_NO":"５６７號","E_COORD97":173463.54999999999,"N_COORD97":2547165.1600000001,"ADDRESS":"中山南路５６７號","OBJECTID":573869},"geometry":{"x":173463.55000000075,"y":2547165.1600000001}},{"attributes":{"ID":573897,"DIS_CODE":0,"TOWNNAME":"永康區","LI":"永康里","LIN":"23鄰","STREET":"中山南路","SECT":" ","MAREA":" ","LANE":" ","ALLEY":" ","HOUSE_NO":"５４７號","E_COORD97":173426.29999999999,"N_COORD97":2547141.3399999999,"ADDRESS":"中山南路５４７號","OBJECTID":573870},"geometry":{"x":173426.30000000075,"y":2547141.3400000017}},{"attributes":{"ID":573898,"DIS_CODE":0,"TOWNNAME":"永康區","LI":"永康里","LIN":"23鄰","STREET":"中山南路","SECT":" ","MAREA":" ","LANE":" ","ALLEY":" ","HOUSE_NO":"５８３號之１","E_COORD97":173502.39000000001,"N_COORD97":2547186.54,"ADDRESS":"中山南路５８３號之１","OBJECTID":573871},"geometry":{"x":173502.38999999966,"y":2547186.540000001}},{"attributes":{"ID":573899,"DIS_CODE":0,"TOWNNAME":"永康區","LI":"永康里","LIN":"23鄰","STREET":"中山南路","SECT":" ","MAREA":" ","LANE":" ","ALLEY":" ","HOUSE_NO":"５２５號","E_COORD97":173375.04000000001,"N_COORD97":2547111.2400000002,"ADDRESS":"中山南路５２５號","OBJECTID":573872},"geometry":{"x":173375.0400000019,"y":2547111.2399999984}},{"attributes":{"ID":573900,"DIS_CODE":0,"TOWNNAME":"永康區","LI":"永康里","LIN":"23鄰","STREET":"中山南路","SECT":" ","MAREA":" ","LANE":" ","ALLEY":" ","HOUSE_NO":"５３７號","E_COORD97":173405.87,"N_COORD97":2547130.75,"ADDRESS":"中山南路５３７號","OBJECTID":573873},"geometry":{"x":173405.87000000011,"y":2547130.75}},{"attributes":{"ID":573901,"DIS_CODE":0,"TOWNNAME":"永康區","LI":"永康里","LIN":"23鄰","STREET":"正強街","SECT":" ","MAREA":" ","LANE":" ","ALLEY":" ","HOUSE_NO":"３６號","E_COORD97":173376.98999999999,"N_COORD97":2547228.29,"ADDRESS":"正強街３６號","OBJECTID":573874},"geometry":{"x":173376.99000000022,"y":2547228.2899999991}},{"attributes":{"ID":573902,"DIS_CODE":0,"TOWNNAME":"永康區","LI":"西灣里","LIN":"23鄰","STREET":"大勇路","SECT":" ","MAREA":" ","LANE":" ","ALLEY":" ","HOUSE_NO":"６４號","E_COORD97":174233.32999999999,"N_COORD97":2545461.75,"ADDRESS":"大勇路６４號","OBJECTID":573875},"geometry":{"x":174233.33000000007,"y":2545461.7500000019}},{"attributes":{"ID":573903,"DIS_CODE":0,"TOWNNAME":"永康區","LI":"永康里","LIN":"23鄰","STREET":"正強街","SECT":" ","MAREA":" ","LANE":" ","ALLEY":" ","HOUSE_NO":"６０號","E_COORD97":173360.12,"N_COORD97":2547287.21,"ADDRESS":"正強街６０號","OBJECTID":573876},"geometry":{"x":173360.12000000011,"y":2547287.2100000009}},{"attributes":{"ID":573904,"DIS_CODE":0,"TOWNNAME":"永康區","LI":"永康里","LIN":"23鄰","STREET":"中山南路","SECT":" ","MAREA":" ","LANE":" ","ALLEY":" ","HOUSE_NO":"５９５號","E_COORD97":173523.79999999999,"N_COORD97":2547201.2400000002,"ADDRESS":"中山南路５９５號","OBJECTID":573877},"geometry":{"x":173523.80000000168,"y":2547201.2400000021}},{"attributes":{"ID":573905,"DIS_CODE":0,"TOWNNAME":"永康區","LI":"永康里","LIN":"23鄰","STREET":"正強街","SECT":" ","MAREA":" ","LANE":" ","ALLEY":" ","HOUSE_NO":"４２號","E_COORD97":173368.79000000001,"N_COORD97":2547240.2999999998,"ADDRESS":"正強街４２號","OBJECTID":573878},"geometry":{"x":173368.79000000097,"y":2547240.2999999989}},{"attributes":{"ID":573906,"DIS_CODE":0,"TOWNNAME":"仁德區","LI":"土庫里","LIN":"23鄰","STREET":"太子路","SECT":" ","MAREA":" ","LANE":" ","ALLEY":" ","HOUSE_NO":"１８１號","E_COORD97":174437.28,"N_COORD97":2543503.25,"ADDRESS":"太子路１８１號","OBJECTID":573879},"geometry":{"x":174437.28000000026,"y":2543503.25}},{"attributes":{"ID":573907,"DIS_CODE":0,"TOWNNAME":"仁德區","LI":"仁德里","LIN":"23鄰","STREET":"文心路","SECT":" ","MAREA":" ","LANE":" ","ALLEY":" ","HOUSE_NO":"６０號","E_COORD97":172178.98000000001,"N_COORD97":2541392.9199999999,"ADDRESS":"文心路６０號","OBJECTID":573880},"geometry":{"x":172178.98000000231,"y":2541392.9199999999}},{"attributes":{"ID":573908,"DIS_CODE":0,"TOWNNAME":"仁德區","LI":"仁德里","LIN":"23鄰","STREET":"中山路","SECT":" ","MAREA":" ","LANE":" ","ALLEY":" ","HOUSE_NO":"８８９號","E_COORD97":172390.42999999999,"N_COORD97":2541592.2400000002,"ADDRESS":"中山路８８９號","OBJECTID":573881},"geometry":{"x":172390.43000000156,"y":2541592.2400000021}},{"attributes":{"ID":573909,"DIS_CODE":0,"TOWNNAME":"仁德區","LI":"仁德里","LIN":"23鄰","STREET":"文心路","SECT":" ","MAREA":" ","LANE":" ","ALLEY":" ","HOUSE_NO":"５２號","E_COORD97":172174.42999999999,"N_COORD97":2541376.9300000002,"ADDRESS":"文心路５２號","OBJECTID":573882},"geometry":{"x":172174.4299999997,"y":2541376.9300000016}},{"attributes":{"ID":573910,"DIS_CODE":0,"TOWNNAME":"仁德區","LI":"太子里","LIN":"23鄰","STREET":"長興五街","SECT":" ","MAREA":" ","LANE":" ","ALLEY":" ","HOUSE_NO":"４１號","E_COORD97":173561.45999999999,"N_COORD97":2543668.75,"ADDRESS":"長興五街４１號","OBJECTID":573883},"geometry":{"x":173561.45999999996,"y":2543668.75}},{"attributes":{"ID":573911,"DIS_CODE":0,"TOWNNAME":"仁德區","LI":"仁德里","LIN":"23鄰","STREET":"文心路","SECT":" ","MAREA":" ","LANE":" ","ALLEY":" ","HOUSE_NO":"１２６號","E_COORD97":172207.72,"N_COORD97":2541505.5699999998,"ADDRESS":"文心路１２６號","OBJECTID":573884},"geometry":{"x":172207.72000000067,"y":2541505.5700000022}},{"attributes":{"ID":573912,"DIS_CODE":0,"TOWNNAME":"仁德區","LI":"太子里","LIN":"23鄰","STREET":"中正路","SECT":"三段","MAREA":" ","LANE":" ","ALLEY":" ","HOUSE_NO":"７２５號","E_COORD97":173750.29999999999,"N_COORD97":2543723.5299999998,"ADDRESS":"中正路三段７２５號","OBJECTID":573885},"geometry":{"x":173750.29999999981,"y":2543723.5299999993}},{"attributes":{"ID":573913,"DIS_CODE":0,"TOWNNAME":"仁德區","LI":"仁義里","LIN":"23鄰","STREET":"中清路","SECT":" ","MAREA":" ","LANE":" ","ALLEY":" ","HOUSE_NO":"１３８號","E_COORD97":173733.70000000001,"N_COORD97":2541442.2999999998,"ADDRESS":"中清路１３８號","OBJECTID":573886},"geometry":{"x":173733.70000000112,"y":2541442.3000000007}},{"attributes":{"ID":573914,"DIS_CODE":0,"TOWNNAME":"仁德區","LI":"仁義里","LIN":"23鄰","STREET":"中清路","SECT":" ","MAREA":" ","LANE":" ","ALLEY":" ","HOUSE_NO":"１６６號","E_COORD97":173737.48000000001,"N_COORD97":2541502.54,"ADDRESS":"中清路１６６號","OBJECTID":573887},"geometry":{"x":173737.48000000138,"y":2541502.5399999991}},{"attributes":{"ID":573915,"DIS_CODE":0,"TOWNNAME":"仁德區","LI":"仁義里","LIN":"23鄰","STREET":"中清路","SECT":" ","MAREA":" ","LANE":" ","ALLEY":" ","HOUSE_NO":"１５４號","E_COORD97":173735.78,"N_COORD97":2541477.0499999998,"ADDRESS":"中清路１５４號","OBJECTID":573888},"geometry":{"x":173735.78000000026,"y":2541477.0500000007}},{"attributes":{"ID":573916,"DIS_CODE":0,"TOWNNAME":"仁德區","LI":"仁義里","LIN":"23鄰","STREET":"中清路","SECT":" ","MAREA":" ","LANE":" ","ALLEY":" ","HOUSE_NO":"１４２號","E_COORD97":173734.35000000001,"N_COORD97":2541452.5499999998,"ADDRESS":"中清路１４２號","OBJECTID":573889},"geometry":{"x":173734.34999999963,"y":2541452.5500000026}},{"attributes":{"ID":573917,"DIS_CODE":0,"TOWNNAME":"仁德區","LI":"太子里","LIN":"23鄰","STREET":"太子路","SECT":" ","MAREA":" ","LANE":" ","ALLEY":" ","HOUSE_NO":"３７４號","E_COORD97":173732.75,"N_COORD97":2543536.5099999998,"ADDRESS":"太子路３７４號","OBJECTID":573890},"geometry":{"x":173732.74999999907,"y":2543536.5100000016}},{"attributes":{"ID":573918,"DIS_CODE":0,"TOWNNAME":"永康區","LI":"永康里","LIN":"23鄰","STREET":"中山南路","SECT":" ","MAREA":" ","LANE":" ","ALLEY":" ","HOUSE_NO":"５３３號","E_COORD97":173390.95000000001,"N_COORD97":2547138.5,"ADDRESS":"中山南路５３３號","OBJECTID":573891},"geometry":{"x":173390.95000000205,"y":2547138.5}},{"attributes":{"ID":573919,"DIS_CODE":0,"TOWNNAME":"永康區","LI":"永康里","LIN":"23鄰","STREET":"中山南路","SECT":" ","MAREA":" ","LANE":" ","ALLEY":" ","HOUSE_NO":"６１３號","E_COORD97":173558.66,"N_COORD97":2547223.4900000002,"ADDRESS":"中山南路６１３號","OBJECTID":573892},"geometry":{"x":173558.66000000015,"y":2547223.4900000002}},{"attributes":{"ID":573920,"DIS_CODE":0,"TOWNNAME":"永康區","LI":"永康里","LIN":"23鄰","STREET":"中山南路","SECT":" ","MAREA":" ","LANE":" ","ALLEY":" ","HOUSE_NO":"６１７號","E_COORD97":173565.70999999999,"N_COORD97":2547226.4900000002,"ADDRESS":"中山南路６１７號","OBJECTID":573893},"geometry":{"x":173565.71000000089,"y":2547226.4900000021}},{"attributes":{"ID":573921,"DIS_CODE":0,"TOWNNAME":"永康區","LI":"永康里","LIN":"23鄰","STREET":"正強街","SECT":" ","MAREA":" ","LANE":" ","ALLEY":" ","HOUSE_NO":"４０號","E_COORD97":173369.84,"N_COORD97":2547235.7999999998,"ADDRESS":"正強街４０號","OBJECTID":573894},"geometry":{"x":173369.84000000078,"y":2547235.8000000007}},{"attributes":{"ID":573922,"DIS_CODE":0,"TOWNNAME":"永康區","LI":"永康里","LIN":"23鄰","STREET":"中山南路","SECT":" ","MAREA":" ","LANE":" ","ALLEY":" ","HOUSE_NO":"５５５號","E_COORD97":173439.48999999999,"N_COORD97":2547149.8700000001,"ADDRESS":"中山南路５５５號","OBJECTID":573895},"geometry":{"x":173439.49000000022,"y":2547149.8700000029}},{"attributes":{"ID":573923,"DIS_CODE":0,"TOWNNAME":"永康區","LI":"埔園里","LIN":"23鄰","STREET":"四維街","SECT":" ","MAREA":" ","LANE":" ","ALLEY":" ","HOUSE_NO":"１４號","E_COORD97":173454.62,"N_COORD97":2547953.8199999998,"ADDRESS":"四維街１４號","OBJECTID":573896},"geometry":{"x":173454.62000000104,"y":2547953.8200000003}},{"attributes":{"ID":573924,"DIS_CODE":0,"TOWNNAME":"永康區","LI":"永康里","LIN":"23鄰","STREET":"中山南路","SECT":" ","MAREA":" ","LANE":" ","ALLEY":" ","HOUSE_NO":"５９９號","E_COORD97":173531.04999999999,"N_COORD97":2547206.4900000002,"ADDRESS":"中山南路５９９號","OBJECTID":573897},"geometry":{"x":173531.05000000075,"y":2547206.4900000002}},{"attributes":{"ID":573925,"DIS_CODE":0,"TOWNNAME":"永康區","LI":"永康里","LIN":"23鄰","STREET":"正強街","SECT":" ","MAREA":" ","LANE":" ","ALLEY":" ","HOUSE_NO":"１０號","E_COORD97":173393.14999999999,"N_COORD97":2547167.75,"ADDRESS":"正強街１０號","OBJECTID":573898},"geometry":{"x":173393.15000000224,"y":2547167.75}},{"attributes":{"ID":573926,"DIS_CODE":0,"TOWNNAME":"永康區","LI":"永康里","LIN":"23鄰","STREET":"中山南路","SECT":" ","MAREA":" ","LANE":" ","ALLEY":" ","HOUSE_NO":"５２３號","E_COORD97":173370.23999999999,"N_COORD97":2547108.7599999998,"ADDRESS":"中山南路５２３號","OBJECTID":573899},"geometry":{"x":173370.23999999929,"y":2547108.7600000016}},{"attributes":{"ID":573927,"DIS_CODE":0,"TOWNNAME":"永康區","LI":"龍潭里","LIN":"23鄰","STREET":"龍中街","SECT":" ","MAREA":" ","LANE":" ","ALLEY":" ","HOUSE_NO":"１５６號","E_COORD97":174411.20999999999,"N_COORD97":2548326.77,"ADDRESS":"龍中街１５６號","OBJECTID":573900},"geometry":{"x":174411.21000000183,"y":2548326.7699999996}},{"attributes":{"ID":573928,"DIS_CODE":0,"TOWNNAME":"永康區","LI":"勝利里","LIN":"23鄰","STREET":"勝利街","SECT":" ","MAREA":" ","LANE":" ","ALLEY":" ","HOUSE_NO":"１１８號之２","E_COORD97":171360.47,"N_COORD97":2544899.5499999998,"ADDRESS":"勝利街１１８號之２","OBJECTID":573901},"geometry":{"x":171360.46999999974,"y":2544899.5500000045}},{"attributes":{"ID":573929,"DIS_CODE":0,"TOWNNAME":"永康區","LI":"網寮里","LIN":"23鄰","STREET":"文化路","SECT":" ","MAREA":" ","LANE":" ","ALLEY":" ","HOUSE_NO":"８８號","E_COORD97":174095.51999999999,"N_COORD97":2546307.8100000001,"ADDRESS":"文化路８８號","OBJECTID":573902},"geometry":{"x":174095.52000000048,"y":2546307.8100000042}},{"attributes":{"ID":573930,"DIS_CODE":0,"TOWNNAME":"永康區","LI":"中興里","LIN":"23鄰","STREET":"中華路","SECT":" ","MAREA":" ","LANE":" ","ALLEY":" ","HOUSE_NO":"２１８號之２４","E_COORD97":171694.63,"N_COORD97":2545120.6099999999,"ADDRESS":"中華路２１８號之２４","OBJECTID":573903},"geometry":{"x":171694.63000000082,"y":2545120.6099999994}},{"attributes":{"ID":573931,"DIS_CODE":0,"TOWNNAME":"永康區","LI":"勝利里","LIN":"23鄰","STREET":"中華一路","SECT":" ","MAREA":" ","LANE":" ","ALLEY":" ","HOUSE_NO":"１９３號","E_COORD97":171471.14000000001,"N_COORD97":2544957.25,"ADDRESS":"中華一路１９３號","OBJECTID":573904},"geometry":{"x":171471.13999999966,"y":2544957.25}},{"attributes":{"ID":573932,"DIS_CODE":0,"TOWNNAME":"永康區","LI":"西勢里","LIN":"23鄰","STREET":"富強路","SECT":"一段","MAREA":" ","LANE":" ","ALLEY":" ","HOUSE_NO":"１５４號","E_COORD97":175547.64000000001,"N_COORD97":2546267.77,"ADDRESS":"富強路一段１５４號","OBJECTID":573905},"geometry":{"x":175547.6400000006,"y":2546267.7700000014}},{"attributes":{"ID":573933,"DIS_CODE":0,"TOWNNAME":"永康區","LI":"復國里","LIN":"23鄰","STREET":"復國一路","SECT":" ","MAREA":" ","LANE":" ","ALLEY":" ","HOUSE_NO":"３１７號","E_COORD97":172745.39999999999,"N_COORD97":2545636.02,"ADDRESS":"復國一路３１７號","OBJECTID":573906},"geometry":{"x":172745.40000000037,"y":2545636.0199999996}},{"attributes":{"ID":573934,"DIS_CODE":0,"TOWNNAME":"永康區","LI":"網寮里","LIN":"23鄰","STREET":"文化路","SECT":" ","MAREA":" ","LANE":" ","ALLEY":" ","HOUSE_NO":"１５６號","E_COORD97":173835.01000000001,"N_COORD97":2546219.4100000001,"ADDRESS":"文化路１５６號","OBJECTID":573907},"geometry":{"x":173835.01000000071,"y":2546219.410000002}},{"attributes":{"ID":573935,"DIS_CODE":0,"TOWNNAME":"永康區","LI":"三合里","LIN":"23鄰","STREET":"中山東路","SECT":" ","MAREA":" ","LANE":" ","ALLEY":" ","HOUSE_NO":"６９號","E_COORD97":171728.23000000001,"N_COORD97":2545999.5299999998,"ADDRESS":"中山東路６９號","OBJECTID":573908},"geometry":{"x":171728.23000000138,"y":2545999.5299999993}},{"attributes":{"ID":573936,"DIS_CODE":0,"TOWNNAME":"永康區","LI":"中興里","LIN":"23鄰","STREET":"中華路","SECT":" ","MAREA":" ","LANE":" ","ALLEY":" ","HOUSE_NO":"２１８號之２","E_COORD97":171666.53,"N_COORD97":2545060.5499999998,"ADDRESS":"中華路２１８號之２","OBJECTID":573909},"geometry":{"x":171666.53000000212,"y":2545060.5500000007}},{"attributes":{"ID":573937,"DIS_CODE":0,"TOWNNAME":"佳里區","LI":"鎮山里","LIN":"23鄰","STREET":"鎮山街","SECT":" ","MAREA":" ","LANE":" ","ALLEY":" ","HOUSE_NO":"６３號","E_COORD97":166311.25,"N_COORD97":2561204.9300000002,"ADDRESS":"鎮山街６３號","OBJECTID":573910},"geometry":{"x":166311.25000000186,"y":2561204.9300000016}},{"attributes":{"ID":573938,"DIS_CODE":0,"TOWNNAME":"永康區","LI":"永康里","LIN":"23鄰","STREET":"中山南路","SECT":" ","MAREA":" ","LANE":" ","ALLEY":" ","HOUSE_NO":"５７９號","E_COORD97":173489.04999999999,"N_COORD97":2547179.5,"ADDRESS":"中山南路５７９號","OBJECTID":573911},"geometry":{"x":173489.04999999981,"y":2547179.5}},{"attributes":{"ID":573939,"DIS_CODE":0,"TOWNNAME":"永康區","LI":"三合里","LIN":"23鄰","STREET":"南工街","SECT":" ","MAREA":" ","LANE":" ","ALLEY":" ","HOUSE_NO":"３２９號","E_COORD97":171769.5,"N_COORD97":2546040.27,"ADDRESS":"南工街３２９號","OBJECTID":573912},"geometry":{"x":171769.5,"y":2546040.2700000014}},{"attributes":{"ID":573940,"DIS_CODE":0,"TOWNNAME":"永康區","LI":"尚頂里","LIN":"23鄰","STREET":"南台街","SECT":" ","MAREA":" ","LANE":" ","ALLEY":" ","HOUSE_NO":"１９號","E_COORD97":170387.01999999999,"N_COORD97":2546944.4100000001,"ADDRESS":"南台街１９號","OBJECTID":573913},"geometry":{"x":170387.01999999955,"y":2546944.410000002}},{"attributes":{"ID":573941,"DIS_CODE":0,"TOWNNAME":"佳里區","LI":"鎮山里","LIN":"23鄰","STREET":"鎮山街","SECT":" ","MAREA":" ","LANE":" ","ALLEY":" ","HOUSE_NO":"６５號","E_COORD97":166311.03,"N_COORD97":2561201.04,"ADDRESS":"鎮山街６５號","OBJECTID":573914},"geometry":{"x":166311.03000000026,"y":2561201.0399999991}},{"attributes":{"ID":573942,"DIS_CODE":0,"TOWNNAME":"佳里區","LI":"鎮山里","LIN":"23鄰","STREET":"鎮山街","SECT":" ","MAREA":" ","LANE":" ","ALLEY":" ","HOUSE_NO":"６７號","E_COORD97":166310.70000000001,"N_COORD97":2561197.2999999998,"ADDRESS":"鎮山街６７號","OBJECTID":573915},"geometry":{"x":166310.70000000112,"y":2561197.3000000007}},{"attributes":{"ID":573943,"DIS_CODE":0,"TOWNNAME":"佳里區","LI":"鎮山里","LIN":"23鄰","STREET":"鎮山街","SECT":" ","MAREA":" ","LANE":" ","ALLEY":" ","HOUSE_NO":"６９號","E_COORD97":166310.92000000001,"N_COORD97":2561193.3999999999,"ADDRESS":"鎮山街６９號","OBJECTID":573916},"geometry":{"x":166310.91999999993,"y":2561193.4000000004}},{"attributes":{"ID":573944,"DIS_CODE":0,"TOWNNAME":"佳里區","LI":"安西里","LIN":"23鄰","STREET":"忠孝路","SECT":" ","MAREA":" ","LANE":" ","ALLEY":" ","HOUSE_NO":"１５６號","E_COORD97":165166.76000000001,"N_COORD97":2563231.4700000002,"ADDRESS":"忠孝路１５６號","OBJECTID":573917},"geometry":{"x":165166.76000000164,"y":2563231.4699999988}},{"attributes":{"ID":573945,"DIS_CODE":0,"TOWNNAME":"南區","LI":"明亮里","LIN":"23鄰","STREET":"金華路","SECT":"一段","MAREA":" ","LANE":" ","ALLEY":" ","HOUSE_NO":"３９２號","E_COORD97":167016.53,"N_COORD97":2541273.29,"ADDRESS":"金華路一段３９２號","OBJECTID":573918},"geometry":{"x":167016.53000000212,"y":2541273.290000001}},{"attributes":{"ID":573946,"DIS_CODE":0,"TOWNNAME":"南區","LI":"明興里","LIN":"23鄰","STREET":"德興路","SECT":" ","MAREA":" ","LANE":" ","ALLEY":" ","HOUSE_NO":"７８號","E_COORD97":167151.03,"N_COORD97":2540651.4700000002,"ADDRESS":"德興路７８號","OBJECTID":573919},"geometry":{"x":167151.03000000119,"y":2540651.4699999988}},{"attributes":{"ID":573947,"DIS_CODE":0,"TOWNNAME":"南區","LI":"明興里","LIN":"23鄰","STREET":"德興路","SECT":" ","MAREA":" ","LANE":" ","ALLEY":" ","HOUSE_NO":"７０號","E_COORD97":167151.35999999999,"N_COORD97":2540668.5800000001,"ADDRESS":"德興路７０號","OBJECTID":573920},"geometry":{"x":167151.36000000034,"y":2540668.5800000019}},{"attributes":{"ID":573948,"DIS_CODE":0,"TOWNNAME":"南區","LI":"明興里","LIN":"23鄰","STREET":"德興路","SECT":" ","MAREA":" ","LANE":" ","ALLEY":" ","HOUSE_NO":"８０號","E_COORD97":167150.57999999999,"N_COORD97":2540646.6600000001,"ADDRESS":"德興路８０號","OBJECTID":573921},"geometry":{"x":167150.58000000101,"y":2540646.6600000039}},{"attributes":{"ID":573949,"DIS_CODE":0,"TOWNNAME":"南區","LI":"明興里","LIN":"23鄰","STREET":"德興路","SECT":" ","MAREA":" ","LANE":" ","ALLEY":" ","HOUSE_NO":"７２號","E_COORD97":167151.69,"N_COORD97":2540663.1499999999,"ADDRESS":"德興路７２號","OBJECTID":573922},"geometry":{"x":167151.69000000134,"y":2540663.1500000004}},{"attributes":{"ID":573950,"DIS_CODE":0,"TOWNNAME":"南區","LI":"明興里","LIN":"23鄰","STREET":"永春街","SECT":" ","MAREA":" ","LANE":" ","ALLEY":" ","HOUSE_NO":"２８號","E_COORD97":167114.85999999999,"N_COORD97":2540664.96,"ADDRESS":"永春街２８號","OBJECTID":573923},"geometry":{"x":167114.86000000127,"y":2540664.9600000009}},{"attributes":{"ID":573951,"DIS_CODE":0,"TOWNNAME":"南區","LI":"明興里","LIN":"23鄰","STREET":"永春街","SECT":" ","MAREA":" ","LANE":" ","ALLEY":" ","HOUSE_NO":"３０號","E_COORD97":167115.62,"N_COORD97":2540669.54,"ADDRESS":"永春街３０號","OBJECTID":573924},"geometry":{"x":167115.62000000011,"y":2540669.5399999991}},{"attributes":{"ID":573952,"DIS_CODE":0,"TOWNNAME":"南區","LI":"明興里","LIN":"23鄰","STREET":"永春街","SECT":" ","MAREA":" ","LANE":" ","ALLEY":" ","HOUSE_NO":"４０號","E_COORD97":167115.70999999999,"N_COORD97":2540693.8900000001,"ADDRESS":"永春街４０號","OBJECTID":573925},"geometry":{"x":167115.71000000089,"y":2540693.8900000025}},{"attributes":{"ID":573953,"DIS_CODE":0,"TOWNNAME":"南區","LI":"明興里","LIN":"23鄰","STREET":"永春街","SECT":" ","MAREA":" ","LANE":" ","ALLEY":" ","HOUSE_NO":"４２號","E_COORD97":167116.04999999999,"N_COORD97":2540697.6200000001,"ADDRESS":"永春街４２號","OBJECTID":573926},"geometry":{"x":167116.05000000168,"y":2540697.620000001}},{"attributes":{"ID":573954,"DIS_CODE":0,"TOWNNAME":"南區","LI":"明興里","LIN":"23鄰","STREET":"永春街","SECT":" ","MAREA":" ","LANE":" ","ALLEY":" ","HOUSE_NO":"４６號","E_COORD97":167117.07000000001,"N_COORD97":2540706.5299999998,"ADDRESS":"永春街４６號","OBJECTID":573927},"geometry":{"x":167117.07000000123,"y":2540706.5299999993}},{"attributes":{"ID":573955,"DIS_CODE":0,"TOWNNAME":"南區","LI":"明興里","LIN":"23鄰","STREET":"永春街","SECT":" ","MAREA":" ","LANE":" ","ALLEY":" ","HOUSE_NO":"４８號","E_COORD97":167116.81,"N_COORD97":2540711.1099999999,"ADDRESS":"永春街４８號","OBJECTID":573928},"geometry":{"x":167116.80999999959,"y":2540711.1100000013}},{"attributes":{"ID":573956,"DIS_CODE":0,"TOWNNAME":"南區","LI":"明興里","LIN":"23鄰","STREET":"永春街","SECT":" ","MAREA":" ","LANE":" ","ALLEY":" ","HOUSE_NO":"５０號","E_COORD97":167117.92000000001,"N_COORD97":2540717.73,"ADDRESS":"永春街５０號","OBJECTID":573929},"geometry":{"x":167117.91999999993,"y":2540717.7300000042}},{"attributes":{"ID":573957,"DIS_CODE":0,"TOWNNAME":"南區","LI":"明興里","LIN":"23鄰","STREET":"永興三街","SECT":" ","MAREA":" ","LANE":" ","ALLEY":" ","HOUSE_NO":"９６號","E_COORD97":167146.81,"N_COORD97":2540622.73,"ADDRESS":"永興三街９６號","OBJECTID":573930},"geometry":{"x":167146.81000000052,"y":2540622.7300000042}},{"attributes":{"ID":573958,"DIS_CODE":0,"TOWNNAME":"南區","LI":"明興里","LIN":"23鄰","STREET":"永興三街","SECT":" ","MAREA":" ","LANE":" ","ALLEY":" ","HOUSE_NO":"９８號","E_COORD97":167138.57000000001,"N_COORD97":2540622.73,"ADDRESS":"永興三街９８號","OBJECTID":573931},"geometry":{"x":167138.57000000123,"y":2540622.7300000042}},{"attributes":{"ID":573959,"DIS_CODE":0,"TOWNNAME":"南區","LI":"明興里","LIN":"23鄰","STREET":"永興三街","SECT":" ","MAREA":" ","LANE":" ","ALLEY":" ","HOUSE_NO":"９８號之１","E_COORD97":167133.98000000001,"N_COORD97":2540622.8999999999,"ADDRESS":"永興三街９８號之１","OBJECTID":573932},"geometry":{"x":167133.97999999952,"y":2540622.9000000022}},{"attributes":{"ID":573960,"DIS_CODE":0,"TOWNNAME":"南區","LI":"明興里","LIN":"23鄰","STREET":"德興路","SECT":" ","MAREA":" ","LANE":" ","ALLEY":" ","HOUSE_NO":"５６號","E_COORD97":167153.57999999999,"N_COORD97":2540706.6299999999,"ADDRESS":"德興路５６號","OBJECTID":573933},"geometry":{"x":167153.58000000101,"y":2540706.6300000027}},{"attributes":{"ID":573961,"DIS_CODE":0,"TOWNNAME":"南區","LI":"明興里","LIN":"23鄰","STREET":"德興路","SECT":" ","MAREA":" ","LANE":" ","ALLEY":" ","HOUSE_NO":"５８號","E_COORD97":167153.47,"N_COORD97":2540698,"ADDRESS":"德興路５８號","OBJECTID":573934},"geometry":{"x":167153.46999999974,"y":2540698}},{"attributes":{"ID":573962,"DIS_CODE":0,"TOWNNAME":"南區","LI":"明興里","LIN":"23鄰","STREET":"德興路","SECT":" ","MAREA":" ","LANE":" ","ALLEY":" ","HOUSE_NO":"６２號","E_COORD97":167153.13,"N_COORD97":2540688.3999999999,"ADDRESS":"德興路６２號","OBJECTID":573935},"geometry":{"x":167153.13000000082,"y":2540688.4000000004}},{"attributes":{"ID":573963,"DIS_CODE":0,"TOWNNAME":"南區","LI":"明興里","LIN":"23鄰","STREET":"德興路","SECT":" ","MAREA":" ","LANE":" ","ALLEY":" ","HOUSE_NO":"６４號","E_COORD97":167153.47,"N_COORD97":2540683.3100000001,"ADDRESS":"德興路６４號","OBJECTID":573936},"geometry":{"x":167153.46999999974,"y":2540683.3100000042}},{"attributes":{"ID":573964,"DIS_CODE":0,"TOWNNAME":"南區","LI":"明興里","LIN":"23鄰","STREET":"德興路","SECT":" ","MAREA":" ","LANE":" ","ALLEY":" ","HOUSE_NO":"６６號","E_COORD97":167152.03,"N_COORD97":2540678.4300000002,"ADDRESS":"德興路６６號","OBJECTID":573937},"geometry":{"x":167152.03000000026,"y":2540678.4300000016}},{"attributes":{"ID":573965,"DIS_CODE":0,"TOWNNAME":"南區","LI":"明興里","LIN":"23鄰","STREET":"德興路","SECT":" ","MAREA":" ","LANE":" ","ALLEY":" ","HOUSE_NO":"６８號","E_COORD97":167152.25,"N_COORD97":2540673.7799999998,"ADDRESS":"德興路６８號","OBJECTID":573938},"geometry":{"x":167152.25000000186,"y":2540673.7799999993}},{"attributes":{"ID":573966,"DIS_CODE":0,"TOWNNAME":"南區","LI":"明興里","LIN":"23鄰","STREET":"德興路","SECT":" ","MAREA":" ","LANE":" ","ALLEY":" ","HOUSE_NO":"７４號","E_COORD97":167152.14000000001,"N_COORD97":2540659.6699999999,"ADDRESS":"德興路７４號","OBJECTID":573939},"geometry":{"x":167152.13999999966,"y":2540659.6700000037}},{"attributes":{"ID":573967,"DIS_CODE":0,"TOWNNAME":"南區","LI":"明興里","LIN":"23鄰","STREET":"德興路","SECT":" ","MAREA":" ","LANE":" ","ALLEY":" ","HOUSE_NO":"７６號","E_COORD97":167151.69,"N_COORD97":2540656.23,"ADDRESS":"德興路７６號","OBJECTID":573940},"geometry":{"x":167151.69000000134,"y":2540656.2300000004}},{"attributes":{"ID":573968,"DIS_CODE":0,"TOWNNAME":"西港區","LI":"慶安里","LIN":"23鄰","STREET":"中山路","SECT":" ","MAREA":" ","LANE":" ","ALLEY":" ","HOUSE_NO":"２３３號","E_COORD97":168407.54000000001,"N_COORD97":2557808.3500000001,"ADDRESS":"中山路２３３號","OBJECTID":573941},"geometry":{"x":168407.54000000004,"y":2557808.3500000015}},{"attributes":{"ID":573969,"DIS_CODE":0,"TOWNNAME":"西港區","LI":"慶安里","LIN":"23鄰","STREET":"中山路","SECT":" ","MAREA":" ","LANE":" ","ALLEY":" ","HOUSE_NO":"２３５號","E_COORD97":168402.37,"N_COORD97":2557821.3999999999,"ADDRESS":"中山路２３５號","OBJECTID":573942},"geometry":{"x":168402.36999999918,"y":2557821.4000000022}},{"attributes":{"ID":573970,"DIS_CODE":0,"TOWNNAME":"西港區","LI":"慶安里","LIN":"23鄰","STREET":"中山路","SECT":" ","MAREA":" ","LANE":" ","ALLEY":" ","HOUSE_NO":"２３７號之１","E_COORD97":168399.5,"N_COORD97":2557839.8700000001,"ADDRESS":"中山路２３７號之１","OBJECTID":573943},"geometry":{"x":168399.5,"y":2557839.8700000029}},{"attributes":{"ID":573971,"DIS_CODE":0,"TOWNNAME":"西港區","LI":"慶安里","LIN":"23鄰","STREET":"中山路","SECT":" ","MAREA":" ","LANE":" ","ALLEY":" ","HOUSE_NO":"２３７號之２","E_COORD97":168399.06,"N_COORD97":2557844.6099999999,"ADDRESS":"中山路２３７號之２","OBJECTID":573944},"geometry":{"x":168399.06000000145,"y":2557844.6099999994}},{"attributes":{"ID":573972,"DIS_CODE":0,"TOWNNAME":"西港區","LI":"慶安里","LIN":"23鄰","STREET":"中山路","SECT":" ","MAREA":" ","LANE":" ","ALLEY":" ","HOUSE_NO":"２３７號","E_COORD97":168400.16,"N_COORD97":2557835,"ADDRESS":"中山路２３７號","OBJECTID":573945},"geometry":{"x":168400.16000000015,"y":2557835}},{"attributes":{"ID":573973,"DIS_CODE":0,"TOWNNAME":"西港區","LI":"慶安里","LIN":"23鄰","STREET":"中山路","SECT":" ","MAREA":" ","LANE":" ","ALLEY":" ","HOUSE_NO":"２３９號","E_COORD97":168398.23999999999,"N_COORD97":2557849.54,"ADDRESS":"中山路２３９號","OBJECTID":573946},"geometry":{"x":168398.24000000022,"y":2557849.540000001}},{"attributes":{"ID":573974,"DIS_CODE":0,"TOWNNAME":"東區","LI":"忠孝里","LIN":"23鄰","STREET":"崇明六街","SECT":" ","MAREA":" ","LANE":" ","ALLEY":" ","HOUSE_NO":"３３號","E_COORD97":169741.42999999999,"N_COORD97":2542236.8399999999,"ADDRESS":"崇明六街３３號","OBJECTID":573947},"geometry":{"x":169741.43000000063,"y":2542236.8399999999}},{"attributes":{"ID":573975,"DIS_CODE":0,"TOWNNAME":"東區","LI":"忠孝里","LIN":"23鄰","STREET":"崇明六街","SECT":" ","MAREA":" ","LANE":" ","ALLEY":" ","HOUSE_NO":"２５號","E_COORD97":169699.98999999999,"N_COORD97":2542220.8900000001,"ADDRESS":"崇明六街２５號","OBJECTID":573948},"geometry":{"x":169699.99000000022,"y":2542220.8900000006}},{"attributes":{"ID":573976,"DIS_CODE":0,"TOWNNAME":"東區","LI":"新東里","LIN":"23鄰","STREET":"裕豐街","SECT":" ","MAREA":" ","LANE":" ","ALLEY":" ","HOUSE_NO":"１０１號","E_COORD97":170742.34,"N_COORD97":2542985.7599999998,"ADDRESS":"裕豐街１０１號","OBJECTID":573949},"geometry":{"x":170742.34000000078,"y":2542985.7600000016}},{"attributes":{"ID":573977,"DIS_CODE":0,"TOWNNAME":"新市區","LI":"新市里","LIN":"23鄰","STREET":"復興路","SECT":" ","MAREA":" ","LANE":" ","ALLEY":" ","HOUSE_NO":"８１號","E_COORD97":177798.57000000001,"N_COORD97":2553531.0299999998,"ADDRESS":"復興路８１號","OBJECTID":573950},"geometry":{"x":177798.57000000123,"y":2553531.0300000012}},{"attributes":{"ID":573978,"DIS_CODE":0,"TOWNNAME":"新市區","LI":"新市里","LIN":"23鄰","STREET":"和平街","SECT":" ","MAREA":" ","LANE":" ","ALLEY":" ","HOUSE_NO":"８號","E_COORD97":177771.39000000001,"N_COORD97":2553476,"ADDRESS":"和平街８號","OBJECTID":573951},"geometry":{"x":177771.3900000006,"y":2553476}},{"attributes":{"ID":573979,"DIS_CODE":0,"TOWNNAME":"新市區","LI":"新市里","LIN":"23鄰","STREET":"和平街","SECT":" ","MAREA":" ","LANE":" ","ALLEY":" ","HOUSE_NO":"１０號","E_COORD97":177768.89999999999,"N_COORD97":2553475,"ADDRESS":"和平街１０號","OBJECTID":573952},"geometry":{"x":177768.9000000013,"y":2553475}},{"attributes":{"ID":573980,"DIS_CODE":0,"TOWNNAME":"新市區","LI":"新市里","LIN":"23鄰","STREET":"和平街","SECT":" ","MAREA":" ","LANE":" ","ALLEY":" ","HOUSE_NO":"２號","E_COORD97":177783.23999999999,"N_COORD97":2553479.25,"ADDRESS":"和平街２號","OBJECTID":573953},"geometry":{"x":177783.24000000115,"y":2553479.2500000019}},{"attributes":{"ID":573981,"DIS_CODE":0,"TOWNNAME":"新市區","LI":"新市里","LIN":"23鄰","STREET":"自強街","SECT":" ","MAREA":" ","LANE":" ","ALLEY":" ","HOUSE_NO":"３號","E_COORD97":177775.64000000001,"N_COORD97":2553514.75,"ADDRESS":"自強街３號","OBJECTID":573954},"geometry":{"x":177775.63999999966,"y":2553514.75}},{"attributes":{"ID":573982,"DIS_CODE":0,"TOWNNAME":"新市區","LI":"新市里","LIN":"23鄰","STREET":"和平街","SECT":" ","MAREA":" ","LANE":" ","ALLEY":" ","HOUSE_NO":"６號","E_COORD97":177775.48999999999,"N_COORD97":2553477.25,"ADDRESS":"和平街６號","OBJECTID":573955},"geometry":{"x":177775.49000000022,"y":2553477.25}},{"attributes":{"ID":573983,"DIS_CODE":0,"TOWNNAME":"新市區","LI":"新市里","LIN":"23鄰","STREET":"和平街","SECT":" ","MAREA":" ","LANE":" ","ALLEY":" ","HOUSE_NO":"４號","E_COORD97":177779.48000000001,"N_COORD97":2553478.25,"ADDRESS":"和平街４號","OBJECTID":573956},"geometry":{"x":177779.48000000045,"y":2553478.2500000037}},{"attributes":{"ID":573984,"DIS_CODE":0,"TOWNNAME":"南區","LI":"郡南里","LIN":"23鄰","STREET":"德興路","SECT":" ","MAREA":" ","LANE":" ","ALLEY":" ","HOUSE_NO":"１２５號","E_COORD97":167215.07999999999,"N_COORD97":2540484.4199999999,"ADDRESS":"德興路１２５號","OBJECTID":573957},"geometry":{"x":167215.08000000101,"y":2540484.4199999999}},{"attributes":{"ID":573985,"DIS_CODE":0,"TOWNNAME":"南區","LI":"郡南里","LIN":"23鄰","STREET":"德興路","SECT":" ","MAREA":" ","LANE":" ","ALLEY":" ","HOUSE_NO":"１２９號","E_COORD97":167217.10000000001,"N_COORD97":2540475.54,"ADDRESS":"德興路１２９號","OBJECTID":573958},"geometry":{"x":167217.10000000149,"y":2540475.5399999991}},{"attributes":{"ID":573986,"DIS_CODE":0,"TOWNNAME":"南區","LI":"郡南里","LIN":"23鄰","STREET":"德興路","SECT":" ","MAREA":" ","LANE":" ","ALLEY":" ","HOUSE_NO":"１３１號","E_COORD97":167217.85000000001,"N_COORD97":2540470.3599999999,"ADDRESS":"德興路１３１號","OBJECTID":573959},"geometry":{"x":167217.85000000056,"y":2540470.3599999994}},{"attributes":{"ID":573987,"DIS_CODE":0,"TOWNNAME":"南區","LI":"郡南里","LIN":"23鄰","STREET":"德興路","SECT":" ","MAREA":" ","LANE":" ","ALLEY":" ","HOUSE_NO":"１３３號","E_COORD97":167218.32999999999,"N_COORD97":2540466.3900000001,"ADDRESS":"德興路１３３號","OBJECTID":573960},"geometry":{"x":167218.33000000101,"y":2540466.3900000025}},{"attributes":{"ID":573988,"DIS_CODE":0,"TOWNNAME":"南區","LI":"郡南里","LIN":"23鄰","STREET":"德興路","SECT":" ","MAREA":" ","LANE":" ","ALLEY":" ","HOUSE_NO":"１３７號","E_COORD97":167219.28,"N_COORD97":2540458.29,"ADDRESS":"德興路１３７號","OBJECTID":573961},"geometry":{"x":167219.28000000026,"y":2540458.2900000028}},{"attributes":{"ID":573989,"DIS_CODE":0,"TOWNNAME":"永康區","LI":"埔園里","LIN":"23鄰","STREET":"四維街","SECT":" ","MAREA":" ","LANE":" ","ALLEY":" ","HOUSE_NO":"１８號","E_COORD97":173452.20999999999,"N_COORD97":2547961.5800000001,"ADDRESS":"四維街１８號","OBJECTID":573962},"geometry":{"x":173452.21000000089,"y":2547961.5800000019}},{"attributes":{"ID":573990,"DIS_CODE":0,"TOWNNAME":"永康區","LI":"埔園里","LIN":"23鄰","STREET":"四維街","SECT":" ","MAREA":" ","LANE":" ","ALLEY":" ","HOUSE_NO":"２２號","E_COORD97":173450.29999999999,"N_COORD97":2547969.0800000001,"ADDRESS":"四維街２２號","OBJECTID":573963},"geometry":{"x":173450.29999999981,"y":2547969.0800000001}},{"attributes":{"ID":573991,"DIS_CODE":0,"TOWNNAME":"永康區","LI":"埔園里","LIN":"23鄰","STREET":"四維街","SECT":" ","MAREA":" ","LANE":" ","ALLEY":" ","HOUSE_NO":"８號","E_COORD97":173457.45999999999,"N_COORD97":2547942.5699999998,"ADDRESS":"四維街８號","OBJECTID":573964},"geometry":{"x":173457.46000000089,"y":2547942.5700000003}},{"attributes":{"ID":573992,"DIS_CODE":0,"TOWNNAME":"永康區","LI":"埔園里","LIN":"23鄰","STREET":"四維街","SECT":" ","MAREA":" ","LANE":" ","ALLEY":" ","HOUSE_NO":"２０號","E_COORD97":173450.73000000001,"N_COORD97":2547965.3300000001,"ADDRESS":"四維街２０號","OBJECTID":573965},"geometry":{"x":173450.73000000138,"y":2547965.3300000038}},{"attributes":{"ID":573993,"DIS_CODE":0,"TOWNNAME":"永康區","LI":"東灣里","LIN":"23鄰","STREET":"大灣二街","SECT":" ","MAREA":" ","LANE":" ","ALLEY":" ","HOUSE_NO":"７８號","E_COORD97":174856.81,"N_COORD97":2544748.8900000001,"ADDRESS":"大灣二街７８號","OBJECTID":573966},"geometry":{"x":174856.80999999959,"y":2544748.8900000025}},{"attributes":{"ID":573994,"DIS_CODE":0,"TOWNNAME":"永康區","LI":"東灣里","LIN":"23鄰","STREET":"大灣二街","SECT":" ","MAREA":" ","LANE":" ","ALLEY":" ","HOUSE_NO":"３６號","E_COORD97":174918.63,"N_COORD97":2544735.2400000002,"ADDRESS":"大灣二街３６號","OBJECTID":573967},"geometry":{"x":174918.63000000082,"y":2544735.2400000021}},{"attributes":{"ID":573995,"DIS_CODE":0,"TOWNNAME":"永康區","LI":"東灣里","LIN":"23鄰","STREET":"大灣二街","SECT":" ","MAREA":" ","LANE":" ","ALLEY":" ","HOUSE_NO":"８０號","E_COORD97":174853.01000000001,"N_COORD97":2544749.8900000001,"ADDRESS":"大灣二街８０號","OBJECTID":573968},"geometry":{"x":174853.01000000164,"y":2544749.8900000006}},{"attributes":{"ID":573996,"DIS_CODE":0,"TOWNNAME":"東區","LI":"崇成里","LIN":"23鄰","STREET":"崇明二十三街","SECT":" ","MAREA":" ","LANE":" ","ALLEY":" ","HOUSE_NO":"１０號","E_COORD97":170665.64999999999,"N_COORD97":2540849.7400000002,"ADDRESS":"崇明二十三街１０號","OBJECTID":573969},"geometry":{"x":170665.65000000224,"y":2540849.7400000021}},{"attributes":{"ID":573997,"DIS_CODE":0,"TOWNNAME":"東區","LI":"崇成里","LIN":"23鄰","STREET":"崇明二十四街","SECT":" ","MAREA":" ","LANE":" ","ALLEY":" ","HOUSE_NO":"１５號","E_COORD97":170637.20999999999,"N_COORD97":2540832.4300000002,"ADDRESS":"崇明二十四街１５號","OBJECTID":573970},"geometry":{"x":170637.20999999996,"y":2540832.4299999997}},{"attributes":{"ID":573998,"DIS_CODE":0,"TOWNNAME":"善化區","LI":"光文里","LIN":"23鄰","STREET":"中山路","SECT":" ","MAREA":" ","LANE":" ","ALLEY":" ","HOUSE_NO":"１６０號","E_COORD97":178440.04999999999,"N_COORD97":2559170,"ADDRESS":"中山路１６０號","OBJECTID":573971},"geometry":{"x":178440.05000000075,"y":2559170.0000000019}},{"attributes":{"ID":573999,"DIS_CODE":0,"TOWNNAME":"仁德區","LI":"太子里","LIN":"23鄰","STREET":"長興五街","SECT":" ","MAREA":" ","LANE":" ","ALLEY":" ","HOUSE_NO":"３７號","E_COORD97":173561.48000000001,"N_COORD97":2543660.75,"ADDRESS":"長興五街３７號","OBJECTID":573972},"geometry":{"x":173561.48000000045,"y":2543660.7500000019}},{"attributes":{"ID":574000,"DIS_CODE":0,"TOWNNAME":"仁德區","LI":"大甲里","LIN":"23鄰","STREET":"行大街","SECT":" ","MAREA":" ","LANE":" ","ALLEY":" ","HOUSE_NO":"３７６號","E_COORD97":169530.85000000001,"N_COORD97":2535226.75,"ADDRESS":"行大街３７６號","OBJECTID":573973},"geometry":{"x":169530.84999999963,"y":2535226.75}},{"attributes":{"ID":574001,"DIS_CODE":0,"TOWNNAME":"善化區","LI":"光文里","LIN":"14鄰","STREET":"樹人路","SECT":" ","MAREA":" ","LANE":" ","ALLEY":" ","HOUSE_NO":"２號","E_COORD97":178399.92999999999,"N_COORD97":2558899,"ADDRESS":"樹人路２號","OBJECTID":573974},"geometry":{"x":178399.93000000156,"y":2558899.0000000019}},{"attributes":{"ID":574002,"DIS_CODE":0,"TOWNNAME":"仁德區","LI":"上崙里","LIN":"23鄰","STREET":"德崙路","SECT":" ","MAREA":" ","LANE":" ","ALLEY":" ","HOUSE_NO":"１３２號","E_COORD97":173517.95999999999,"N_COORD97":2538387.0099999998,"ADDRESS":"德崙路１３２號","OBJECTID":573975},"geometry":{"x":173517.96000000089,"y":2538387.0100000016}},{"attributes":{"ID":574003,"DIS_CODE":0,"TOWNNAME":"仁德區","LI":"上崙里","LIN":"23鄰","STREET":"德崙路","SECT":" ","MAREA":" ","LANE":" ","ALLEY":" ","HOUSE_NO":"１７４號","E_COORD97":173603.95000000001,"N_COORD97":2538318.2599999998,"ADDRESS":"德崙路１７４號","OBJECTID":573976},"geometry":{"x":173603.95000000019,"y":2538318.2599999998}},{"attributes":{"ID":574004,"DIS_CODE":0,"TOWNNAME":"仁德區","LI":"上崙里","LIN":"23鄰","STREET":"德崙路","SECT":" ","MAREA":" ","LANE":" ","ALLEY":" ","HOUSE_NO":"１２０號","E_COORD97":173452.14999999999,"N_COORD97":2538354.02,"ADDRESS":"德崙路１２０號","OBJECTID":573977},"geometry":{"x":173452.15000000037,"y":2538354.0199999996}},{"attributes":{"ID":574005,"DIS_CODE":0,"TOWNNAME":"仁德區","LI":"上崙里","LIN":"23鄰","STREET":"德崙路","SECT":" ","MAREA":" ","LANE":" ","ALLEY":" ","HOUSE_NO":"１５６號","E_COORD97":173563.73999999999,"N_COORD97":2538341.27,"ADDRESS":"德崙路１５６號","OBJECTID":573978},"geometry":{"x":173563.74000000209,"y":2538341.2700000014}},{"attributes":{"ID":574006,"DIS_CODE":0,"TOWNNAME":"仁德區","LI":"上崙里","LIN":"23鄰","STREET":"德崙路","SECT":" ","MAREA":" ","LANE":" ","ALLEY":" ","HOUSE_NO":"１６０號","E_COORD97":173572.64000000001,"N_COORD97":2538341.77,"ADDRESS":"德崙路１６０號","OBJECTID":573979},"geometry":{"x":173572.6400000006,"y":2538341.7699999996}},{"attributes":{"ID":574007,"DIS_CODE":0,"TOWNNAME":"仁德區","LI":"上崙里","LIN":"23鄰","STREET":"德崙路","SECT":" ","MAREA":" ","LANE":" ","ALLEY":" ","HOUSE_NO":"１２８號","E_COORD97":173511.56,"N_COORD97":2538391.7599999998,"ADDRESS":"德崙路１２８號","OBJECTID":573980},"geometry":{"x":173511.56000000145,"y":2538391.7600000016}},{"attributes":{"ID":574008,"DIS_CODE":0,"TOWNNAME":"仁德區","LI":"上崙里","LIN":"23鄰","STREET":"德崙路","SECT":" ","MAREA":" ","LANE":" ","ALLEY":" ","HOUSE_NO":"１４４號","E_COORD97":173541.67999999999,"N_COORD97":2538368.52,"ADDRESS":"德崙路１４４號","OBJECTID":573981},"geometry":{"x":173541.68000000063,"y":2538368.5200000033}},{"attributes":{"ID":574009,"DIS_CODE":0,"TOWNNAME":"仁德區","LI":"上崙里","LIN":"23鄰","STREET":"德崙路","SECT":" ","MAREA":" ","LANE":" ","ALLEY":" ","HOUSE_NO":"１５８號","E_COORD97":173567.48000000001,"N_COORD97":2538340.27,"ADDRESS":"德崙路１５８號","OBJECTID":573982},"geometry":{"x":173567.48000000138,"y":2538340.2700000014}},{"attributes":{"ID":574010,"DIS_CODE":0,"TOWNNAME":"仁德區","LI":"上崙里","LIN":"23鄰","STREET":"德崙路","SECT":" ","MAREA":" ","LANE":" ","ALLEY":" ","HOUSE_NO":"１４８號","E_COORD97":173549.23999999999,"N_COORD97":2538362.52,"ADDRESS":"德崙路１４８號","OBJECTID":573983},"geometry":{"x":173549.24000000022,"y":2538362.5200000014}},{"attributes":{"ID":574011,"DIS_CODE":0,"TOWNNAME":"仁德區","LI":"上崙里","LIN":"23鄰","STREET":"德崙路","SECT":" ","MAREA":" ","LANE":" ","ALLEY":" ","HOUSE_NO":"１５２號","E_COORD97":173554.29000000001,"N_COORD97":2538343.02,"ADDRESS":"德崙路１５２號","OBJECTID":573984},"geometry":{"x":173554.29000000004,"y":2538343.0200000014}},{"attributes":{"ID":574012,"DIS_CODE":0,"TOWNNAME":"仁德區","LI":"上崙里","LIN":"23鄰","STREET":"德崙路","SECT":" ","MAREA":" ","LANE":" ","ALLEY":" ","HOUSE_NO":"１４６號","E_COORD97":173545.47,"N_COORD97":2538366.02,"ADDRESS":"德崙路１４６號","OBJECTID":573985},"geometry":{"x":173545.46999999974,"y":2538366.0200000014}},{"attributes":{"ID":574013,"DIS_CODE":0,"TOWNNAME":"仁德區","LI":"上崙里","LIN":"23鄰","STREET":"德崙路","SECT":" ","MAREA":" ","LANE":" ","ALLEY":" ","HOUSE_NO":"１３６號","E_COORD97":173524.95999999999,"N_COORD97":2538381.2599999998,"ADDRESS":"德崙路１３６號","OBJECTID":573986},"geometry":{"x":173524.96000000089,"y":2538381.2600000016}},{"attributes":{"ID":574014,"DIS_CODE":0,"TOWNNAME":"仁德區","LI":"上崙里","LIN":"23鄰","STREET":"德崙路","SECT":" ","MAREA":" ","LANE":" ","ALLEY":" ","HOUSE_NO":"１３４號","E_COORD97":173521.06,"N_COORD97":2538384.5099999998,"ADDRESS":"德崙路１３４號","OBJECTID":573987},"geometry":{"x":173521.05999999959,"y":2538384.5099999998}},{"attributes":{"ID":574015,"DIS_CODE":0,"TOWNNAME":"仁德區","LI":"上崙里","LIN":"23鄰","STREET":"德崙路","SECT":" ","MAREA":" ","LANE":" ","ALLEY":" ","HOUSE_NO":"１２２號","E_COORD97":173452.14999999999,"N_COORD97":2538354.02,"ADDRESS":"德崙路１２２號","OBJECTID":573988},"geometry":{"x":173452.15000000037,"y":2538354.0199999996}},{"attributes":{"ID":574016,"DIS_CODE":0,"TOWNNAME":"仁德區","LI":"上崙里","LIN":"23鄰","STREET":"德崙路","SECT":" ","MAREA":" ","LANE":" ","ALLEY":" ","HOUSE_NO":"９０號","E_COORD97":173353.92000000001,"N_COORD97":2538470.02,"ADDRESS":"德崙路９０號","OBJECTID":573989},"geometry":{"x":173353.92000000086,"y":2538470.0199999977}},{"attributes":{"ID":574017,"DIS_CODE":0,"TOWNNAME":"仁德區","LI":"上崙里","LIN":"23鄰","STREET":"德崙路","SECT":" ","MAREA":" ","LANE":" ","ALLEY":" ","HOUSE_NO":"１３０號","E_COORD97":173514.62,"N_COORD97":2538389.5099999998,"ADDRESS":"德崙路１３０號","OBJECTID":573990},"geometry":{"x":173514.62000000011,"y":2538389.5100000016}},{"attributes":{"ID":574018,"DIS_CODE":0,"TOWNNAME":"仁德區","LI":"上崙里","LIN":"23鄰","STREET":"德崙路","SECT":" ","MAREA":" ","LANE":" ","ALLEY":" ","HOUSE_NO":"１４２號","E_COORD97":173537.59,"N_COORD97":2538371.77,"ADDRESS":"德崙路１４２號","OBJECTID":573991},"geometry":{"x":173537.59000000078,"y":2538371.7700000014}},{"attributes":{"ID":574019,"DIS_CODE":0,"TOWNNAME":"仁德區","LI":"上崙里","LIN":"23鄰","STREET":"德崙路","SECT":" ","MAREA":" ","LANE":" ","ALLEY":" ","HOUSE_NO":"１８０號","E_COORD97":173613.28,"N_COORD97":2538311.2599999998,"ADDRESS":"德崙路１８０號","OBJECTID":573992},"geometry":{"x":173613.28000000119,"y":2538311.2599999998}},{"attributes":{"ID":574020,"DIS_CODE":0,"TOWNNAME":"新化區","LI":"東榮里","LIN":"23鄰","STREET":"光明路","SECT":" ","MAREA":" ","LANE":" ","ALLEY":" ","HOUSE_NO":"２３號","E_COORD97":179346.07000000001,"N_COORD97":2548063.25,"ADDRESS":"光明路２３號","OBJECTID":573993},"geometry":{"x":179346.07000000123,"y":2548063.25}},{"attributes":{"ID":574021,"DIS_CODE":0,"TOWNNAME":"南區","LI":"廣州里","LIN":"23鄰","STREET":"健康路","SECT":"二段","MAREA":" ","LANE":" ","ALLEY":" ","HOUSE_NO":"１６４號","E_COORD97":167276.25,"N_COORD97":2542483.5,"ADDRESS":"健康路二段１６４號","OBJECTID":573994},"geometry":{"x":167276.25000000093,"y":2542483.5}},{"attributes":{"ID":574022,"DIS_CODE":0,"TOWNNAME":"南區","LI":"廣州里","LIN":"23鄰","STREET":"健康路","SECT":"二段","MAREA":" ","LANE":" ","ALLEY":" ","HOUSE_NO":"１６６號","E_COORD97":167271.17999999999,"N_COORD97":2542480.9700000002,"ADDRESS":"健康路二段１６６號","OBJECTID":573995},"geometry":{"x":167271.18000000063,"y":2542480.9700000007}},{"attributes":{"ID":574023,"DIS_CODE":0,"TOWNNAME":"南區","LI":"廣州里","LIN":"23鄰","STREET":"健康路","SECT":"二段","MAREA":" ","LANE":" ","ALLEY":" ","HOUSE_NO":"１６８號","E_COORD97":167266.54000000001,"N_COORD97":2542483.5,"ADDRESS":"健康路二段１６８號","OBJECTID":573996},"geometry":{"x":167266.54000000004,"y":2542483.5}},{"attributes":{"ID":574024,"DIS_CODE":0,"TOWNNAME":"南區","LI":"廣州里","LIN":"23鄰","STREET":"健康路","SECT":"二段","MAREA":" ","LANE":" ","ALLEY":" ","HOUSE_NO":"１７０號","E_COORD97":167261.47,"N_COORD97":2542479.71,"ADDRESS":"健康路二段１７０號","OBJECTID":573997},"geometry":{"x":167261.46999999974,"y":2542479.7100000009}},{"attributes":{"ID":574025,"DIS_CODE":0,"TOWNNAME":"南區","LI":"廣州里","LIN":"23鄰","STREET":"健康路","SECT":"二段","MAREA":" ","LANE":" ","ALLEY":" ","HOUSE_NO":"１７２號","E_COORD97":167257.67000000001,"N_COORD97":2542483.5,"ADDRESS":"健康路二段１７２號","OBJECTID":573998},"geometry":{"x":167257.67000000179,"y":2542483.5}},{"attributes":{"ID":574026,"DIS_CODE":0,"TOWNNAME":"南區","LI":"廣州里","LIN":"23鄰","STREET":"健康路","SECT":"二段","MAREA":" ","LANE":" ","ALLEY":" ","HOUSE_NO":"１７６號","E_COORD97":167247.12,"N_COORD97":2542483.5,"ADDRESS":"健康路二段１７６號","OBJECTID":573999},"geometry":{"x":167247.12000000104,"y":2542483.5}},{"attributes":{"ID":574027,"DIS_CODE":0,"TOWNNAME":"南區","LI":"廣州里","LIN":"23鄰","STREET":"健康路","SECT":"二段","MAREA":" ","LANE":" ","ALLEY":" ","HOUSE_NO":"１７８號","E_COORD97":167241.20999999999,"N_COORD97":2542480.9700000002,"ADDRESS":"健康路二段１７８號","OBJECTID":574000},"geometry":{"x":167241.21000000089,"y":2542480.9700000007}}]}