{"displayFieldName":"TOWNNAME","fieldAliases":{"ID":"ID","DIS_CODE":"DIS_CODE","TOWNNAME":"TOWNNAME","LI":"LI","LIN":"LIN","STREET":"STREET","SECT":"SECT","MAREA":"MAREA","LANE":"LANE","ALLEY":"ALLEY","HOUSE_NO":"HOUSE_NO","E_COORD97":"E_COORD97","N_COORD97":"N_COORD97","ADDRESS":"ADDRESS","OBJECTID":"OBJECTID"},"geometryType":"esriGeometryPoint","spatialReference":{"wkid":102443,"latestWkid":3826},"fields":[{"name":"ID","type":"esriFieldTypeDouble","alias":"ID"},{"name":"DIS_CODE","type":"esriFieldTypeInteger","alias":"DIS_CODE"},{"name":"TOWNNAME","type":"esriFieldTypeString","alias":"TOWNNAME","length":8},{"name":"LI","type":"esriFieldTypeString","alias":"LI","length":8},{"name":"LIN","type":"esriFieldTypeString","alias":"LIN","length":12},{"name":"STREET","type":"esriFieldTypeString","alias":"STREET","length":20},{"name":"SECT","type":"esriFieldTypeString","alias":"SECT","length":8},{"name":"MAREA","type":"esriFieldTypeString","alias":"MAREA","length":12},{"name":"LANE","type":"esriFieldTypeString","alias":"LANE","length":10},{"name":"ALLEY","type":"esriFieldTypeString","alias":"ALLEY","length":10},{"name":"HOUSE_NO","type":"esriFieldTypeString","alias":"HOUSE_NO","length":20},{"name":"E_COORD97","type":"esriFieldTypeDouble","alias":"E_COORD97"},{"name":"N_COORD97","type":"esriFieldTypeDouble","alias":"N_COORD97"},{"name":"ADDRESS","type":"esriFieldTypeString","alias":"ADDRESS","length":50},{"name":"OBJECTID","type":"esriFieldTypeOID","alias":"OBJECTID"}],"features":[{"attributes":{"ID":112801,"DIS_CODE":0,"TOWNNAME":"佳里區","LI":"安西里","LIN":"51鄰","STREET":" ","SECT":" ","MAREA":"安西","LANE":" ","ALLEY":" ","HOUSE_NO":"１２７號二樓之９","E_COORD97":164161.25,"N_COORD97":2562159.1000000001,"ADDRESS":"安西１２７號二樓之９","OBJECTID":112801},"geometry":{"x":164161.25,"y":2562159.1000000015}},{"attributes":{"ID":112802,"DIS_CODE":0,"TOWNNAME":"佳里區","LI":"安西里","LIN":"51鄰","STREET":" ","SECT":" ","MAREA":"安西","LANE":" ","ALLEY":" ","HOUSE_NO":"１２７號三樓之１","E_COORD97":164161.25,"N_COORD97":2562159.1000000001,"ADDRESS":"安西１２７號三樓之１","OBJECTID":112802},"geometry":{"x":164161.25,"y":2562159.1000000015}},{"attributes":{"ID":112803,"DIS_CODE":0,"TOWNNAME":"佳里區","LI":"安西里","LIN":"51鄰","STREET":" ","SECT":" ","MAREA":"安西","LANE":" ","ALLEY":" ","HOUSE_NO":"１２７號三樓之１０","E_COORD97":164161.25,"N_COORD97":2562159.1000000001,"ADDRESS":"安西１２７號三樓之１０","OBJECTID":112803},"geometry":{"x":164161.25,"y":2562159.1000000015}},{"attributes":{"ID":112804,"DIS_CODE":0,"TOWNNAME":"佳里區","LI":"安西里","LIN":"51鄰","STREET":" ","SECT":" ","MAREA":"安西","LANE":" ","ALLEY":" ","HOUSE_NO":"１２７號三樓之１１","E_COORD97":164161.25,"N_COORD97":2562159.1000000001,"ADDRESS":"安西１２７號三樓之１１","OBJECTID":112804},"geometry":{"x":164161.25,"y":2562159.1000000015}},{"attributes":{"ID":112805,"DIS_CODE":0,"TOWNNAME":"佳里區","LI":"安西里","LIN":"51鄰","STREET":" ","SECT":" ","MAREA":"安西","LANE":" ","ALLEY":" ","HOUSE_NO":"１２７號三樓之１２","E_COORD97":164161.25,"N_COORD97":2562159.1000000001,"ADDRESS":"安西１２７號三樓之１２","OBJECTID":112805},"geometry":{"x":164161.25,"y":2562159.1000000015}},{"attributes":{"ID":112806,"DIS_CODE":0,"TOWNNAME":"佳里區","LI":"安西里","LIN":"51鄰","STREET":" ","SECT":" ","MAREA":"安西","LANE":" ","ALLEY":" ","HOUSE_NO":"１２７號三樓之１３","E_COORD97":164161.25,"N_COORD97":2562159.1000000001,"ADDRESS":"安西１２７號三樓之１３","OBJECTID":112806},"geometry":{"x":164161.25,"y":2562159.1000000015}},{"attributes":{"ID":112807,"DIS_CODE":0,"TOWNNAME":"佳里區","LI":"安西里","LIN":"51鄰","STREET":" ","SECT":" ","MAREA":"安西","LANE":" ","ALLEY":" ","HOUSE_NO":"１２７號三樓之１４","E_COORD97":164161.25,"N_COORD97":2562159.1000000001,"ADDRESS":"安西１２７號三樓之１４","OBJECTID":112807},"geometry":{"x":164161.25,"y":2562159.1000000015}},{"attributes":{"ID":112808,"DIS_CODE":0,"TOWNNAME":"佳里區","LI":"安西里","LIN":"51鄰","STREET":" ","SECT":" ","MAREA":"安西","LANE":" ","ALLEY":" ","HOUSE_NO":"１２７號三樓之２","E_COORD97":164161.25,"N_COORD97":2562159.1000000001,"ADDRESS":"安西１２７號三樓之２","OBJECTID":112808},"geometry":{"x":164161.25,"y":2562159.1000000015}},{"attributes":{"ID":112809,"DIS_CODE":0,"TOWNNAME":"佳里區","LI":"安西里","LIN":"51鄰","STREET":" ","SECT":" ","MAREA":"安西","LANE":" ","ALLEY":" ","HOUSE_NO":"１２７號三樓之３","E_COORD97":164161.25,"N_COORD97":2562159.1000000001,"ADDRESS":"安西１２７號三樓之３","OBJECTID":112809},"geometry":{"x":164161.25,"y":2562159.1000000015}},{"attributes":{"ID":112810,"DIS_CODE":0,"TOWNNAME":"佳里區","LI":"安西里","LIN":"51鄰","STREET":" ","SECT":" ","MAREA":"安西","LANE":" ","ALLEY":" ","HOUSE_NO":"１２７號三樓之４","E_COORD97":164161.25,"N_COORD97":2562159.1000000001,"ADDRESS":"安西１２７號三樓之４","OBJECTID":112810},"geometry":{"x":164161.25,"y":2562159.1000000015}},{"attributes":{"ID":112811,"DIS_CODE":0,"TOWNNAME":"佳里區","LI":"安西里","LIN":"51鄰","STREET":" ","SECT":" ","MAREA":"安西","LANE":" ","ALLEY":" ","HOUSE_NO":"１２７號三樓之５","E_COORD97":164161.25,"N_COORD97":2562159.1000000001,"ADDRESS":"安西１２７號三樓之５","OBJECTID":112811},"geometry":{"x":164161.25,"y":2562159.1000000015}},{"attributes":{"ID":112812,"DIS_CODE":0,"TOWNNAME":"佳里區","LI":"安西里","LIN":"51鄰","STREET":" ","SECT":" ","MAREA":"安西","LANE":" ","ALLEY":" ","HOUSE_NO":"１２７號三樓之６","E_COORD97":164161.25,"N_COORD97":2562159.1000000001,"ADDRESS":"安西１２７號三樓之６","OBJECTID":112812},"geometry":{"x":164161.25,"y":2562159.1000000015}},{"attributes":{"ID":112813,"DIS_CODE":0,"TOWNNAME":"佳里區","LI":"安西里","LIN":"51鄰","STREET":" ","SECT":" ","MAREA":"安西","LANE":" ","ALLEY":" ","HOUSE_NO":"１２７號三樓之７","E_COORD97":164161.25,"N_COORD97":2562159.1000000001,"ADDRESS":"安西１２７號三樓之７","OBJECTID":112813},"geometry":{"x":164161.25,"y":2562159.1000000015}},{"attributes":{"ID":112814,"DIS_CODE":0,"TOWNNAME":"佳里區","LI":"安西里","LIN":"51鄰","STREET":" ","SECT":" ","MAREA":"安西","LANE":" ","ALLEY":" ","HOUSE_NO":"１２７號三樓之８","E_COORD97":164161.25,"N_COORD97":2562159.1000000001,"ADDRESS":"安西１２７號三樓之８","OBJECTID":112814},"geometry":{"x":164161.25,"y":2562159.1000000015}},{"attributes":{"ID":112815,"DIS_CODE":0,"TOWNNAME":"佳里區","LI":"安西里","LIN":"51鄰","STREET":" ","SECT":" ","MAREA":"安西","LANE":" ","ALLEY":" ","HOUSE_NO":"１２７號三樓之９","E_COORD97":164161.25,"N_COORD97":2562159.1000000001,"ADDRESS":"安西１２７號三樓之９","OBJECTID":112815},"geometry":{"x":164161.25,"y":2562159.1000000015}},{"attributes":{"ID":112816,"DIS_CODE":0,"TOWNNAME":"佳里區","LI":"安西里","LIN":"51鄰","STREET":" ","SECT":" ","MAREA":"安西","LANE":" ","ALLEY":" ","HOUSE_NO":"１２７號五樓之１","E_COORD97":164161.25,"N_COORD97":2562159.1000000001,"ADDRESS":"安西１２７號五樓之１","OBJECTID":112816},"geometry":{"x":164161.25,"y":2562159.1000000015}},{"attributes":{"ID":112817,"DIS_CODE":0,"TOWNNAME":"佳里區","LI":"安西里","LIN":"51鄰","STREET":" ","SECT":" ","MAREA":"安西","LANE":" ","ALLEY":" ","HOUSE_NO":"１２７號五樓之１０","E_COORD97":164161.25,"N_COORD97":2562159.1000000001,"ADDRESS":"安西１２７號五樓之１０","OBJECTID":112817},"geometry":{"x":164161.25,"y":2562159.1000000015}},{"attributes":{"ID":112818,"DIS_CODE":0,"TOWNNAME":"永康區","LI":"埔園里","LIN":"37鄰","STREET":"龍國街","SECT":" ","MAREA":" ","LANE":"１３１巷","ALLEY":"８弄","HOUSE_NO":"８號","E_COORD97":174330.34,"N_COORD97":2548104.1699999999,"ADDRESS":"龍國街１３１巷８弄８號","OBJECTID":112818},"geometry":{"x":174330.33999999892,"y":2548104.1699999999}},{"attributes":{"ID":112819,"DIS_CODE":0,"TOWNNAME":"永康區","LI":"埔園里","LIN":"37鄰","STREET":"龍國街","SECT":" ","MAREA":" ","LANE":"１３１巷","ALLEY":"１１弄","HOUSE_NO":"１號","E_COORD97":174317.85000000001,"N_COORD97":2548155.29,"ADDRESS":"龍國街１３１巷１１弄１號","OBJECTID":112819},"geometry":{"x":174317.84999999963,"y":2548155.290000001}},{"attributes":{"ID":112820,"DIS_CODE":0,"TOWNNAME":"永康區","LI":"埔園里","LIN":"37鄰","STREET":"龍國街","SECT":" ","MAREA":" ","LANE":"１３１巷","ALLEY":"８弄","HOUSE_NO":"２號","E_COORD97":174321.82999999999,"N_COORD97":2548105.4199999999,"ADDRESS":"龍國街１３１巷８弄２號","OBJECTID":112820},"geometry":{"x":174321.83000000007,"y":2548105.4199999999}},{"attributes":{"ID":112821,"DIS_CODE":0,"TOWNNAME":"歸仁區","LI":"歸仁里","LIN":"8鄰","STREET":"大通一街","SECT":" ","MAREA":" ","LANE":" ","ALLEY":" ","HOUSE_NO":"８５號","E_COORD97":177874.31,"N_COORD97":2540966.4900000002,"ADDRESS":"大通一街８５號","OBJECTID":112821},"geometry":{"x":177874.30999999959,"y":2540966.4900000039}},{"attributes":{"ID":112822,"DIS_CODE":0,"TOWNNAME":"永康區","LI":"永康里","LIN":"1鄰","STREET":"中山北路","SECT":" ","MAREA":" ","LANE":" ","ALLEY":" ","HOUSE_NO":"１１１號","E_COORD97":174077.35999999999,"N_COORD97":2547472.75,"ADDRESS":"中山北路１１１號","OBJECTID":112822},"geometry":{"x":174077.36000000127,"y":2547472.75}},{"attributes":{"ID":112823,"DIS_CODE":0,"TOWNNAME":"永康區","LI":"埔園里","LIN":"37鄰","STREET":"龍國街","SECT":" ","MAREA":" ","LANE":"１３１巷","ALLEY":"８弄","HOUSE_NO":"１１號","E_COORD97":174345.51999999999,"N_COORD97":2548122.98,"ADDRESS":"龍國街１３１巷８弄１１號","OBJECTID":112823},"geometry":{"x":174345.51999999955,"y":2548122.9800000004}},{"attributes":{"ID":112824,"DIS_CODE":0,"TOWNNAME":"永康區","LI":"埔園里","LIN":"37鄰","STREET":"永大路","SECT":"三段","MAREA":" ","LANE":"３６０巷","ALLEY":"３０弄","HOUSE_NO":"１之１號","E_COORD97":174217.42000000001,"N_COORD97":2548166.0899999999,"ADDRESS":"永大路三段３６０巷３０弄１之１號","OBJECTID":112824},"geometry":{"x":174217.41999999993,"y":2548166.0899999999}},{"attributes":{"ID":112825,"DIS_CODE":0,"TOWNNAME":"中西區","LI":"保安里","LIN":"1鄰","STREET":"尊王路","SECT":" ","MAREA":" ","LANE":" ","ALLEY":" ","HOUSE_NO":"３２號","E_COORD97":167700.35000000001,"N_COORD97":2543565.3999999999,"ADDRESS":"尊王路３２號","OBJECTID":112825},"geometry":{"x":167700.35000000149,"y":2543565.4000000022}},{"attributes":{"ID":112826,"DIS_CODE":0,"TOWNNAME":"永康區","LI":"埔園里","LIN":"37鄰","STREET":"龍國街","SECT":" ","MAREA":" ","LANE":"１３１巷","ALLEY":"１２弄","HOUSE_NO":"１６號","E_COORD97":174351.64999999999,"N_COORD97":2548151.4100000001,"ADDRESS":"龍國街１３１巷１２弄１６號","OBJECTID":112826},"geometry":{"x":174351.6500000013,"y":2548151.410000002}},{"attributes":{"ID":112827,"DIS_CODE":0,"TOWNNAME":"永康區","LI":"埔園里","LIN":"37鄰","STREET":"龍國街","SECT":" ","MAREA":" ","LANE":"１３１巷","ALLEY":"８弄","HOUSE_NO":"６號","E_COORD97":174325.92000000001,"N_COORD97":2548104.6699999999,"ADDRESS":"龍國街１３１巷８弄６號","OBJECTID":112827},"geometry":{"x":174325.91999999993,"y":2548104.6699999999}},{"attributes":{"ID":112828,"DIS_CODE":0,"TOWNNAME":"永康區","LI":"埔園里","LIN":"37鄰","STREET":"龍國街","SECT":" ","MAREA":" ","LANE":"１３１巷","ALLEY":"１１弄","HOUSE_NO":"３號","E_COORD97":174313.35000000001,"N_COORD97":2548155.79,"ADDRESS":"龍國街１３１巷１１弄３號","OBJECTID":112828},"geometry":{"x":174313.35000000149,"y":2548155.790000001}},{"attributes":{"ID":112829,"DIS_CODE":0,"TOWNNAME":"永康區","LI":"埔園里","LIN":"37鄰","STREET":"龍國街","SECT":" ","MAREA":" ","LANE":"１３１巷","ALLEY":"８弄","HOUSE_NO":"１６號","E_COORD97":174343.79000000001,"N_COORD97":2548102.6699999999,"ADDRESS":"龍國街１３１巷８弄１６號","OBJECTID":112829},"geometry":{"x":174343.79000000004,"y":2548102.6700000018}},{"attributes":{"ID":112830,"DIS_CODE":0,"TOWNNAME":"東區","LI":"富強里","LIN":"9鄰","STREET":"裕農路","SECT":" ","MAREA":" ","LANE":"４４６巷","ALLEY":"９０弄","HOUSE_NO":"２０號","E_COORD97":171174.92000000001,"N_COORD97":2542911.79,"ADDRESS":"裕農路４４６巷９０弄２０號","OBJECTID":112830},"geometry":{"x":171174.91999999993,"y":2542911.7899999991}},{"attributes":{"ID":112831,"DIS_CODE":0,"TOWNNAME":"安定區","LI":"南安里","LIN":"1鄰","STREET":" ","SECT":" ","MAREA":"油車","LANE":" ","ALLEY":" ","HOUSE_NO":"８之６號","E_COORD97":170797.89000000001,"N_COORD97":2555930.2999999998,"ADDRESS":"油車８之６號","OBJECTID":112831},"geometry":{"x":170797.8900000006,"y":2555930.3000000026}},{"attributes":{"ID":112832,"DIS_CODE":0,"TOWNNAME":"安定區","LI":"中榮里","LIN":"1鄰","STREET":" ","SECT":" ","MAREA":"許中營","LANE":" ","ALLEY":" ","HOUSE_NO":"１號之１","E_COORD97":172130.35612000001,"N_COORD97":2554976.1170800002,"ADDRESS":"許中營１之１號","OBJECTID":112832},"geometry":{"x":172130.35612000059,"y":2554976.1170799993}},{"attributes":{"ID":112833,"DIS_CODE":0,"TOWNNAME":"安定區","LI":"海寮里","LIN":"1鄰","STREET":" ","SECT":" ","MAREA":"海寮","LANE":" ","ALLEY":" ","HOUSE_NO":"７之３２號","E_COORD97":169094.19,"N_COORD97":2554689.2999999998,"ADDRESS":"海寮７之３２號","OBJECTID":112833},"geometry":{"x":169094.19000000134,"y":2554689.3000000045}},{"attributes":{"ID":112834,"DIS_CODE":0,"TOWNNAME":"安定區","LI":"南安里","LIN":"1鄰","STREET":" ","SECT":" ","MAREA":"油車","LANE":" ","ALLEY":" ","HOUSE_NO":"６之２７號","E_COORD97":170764.04000000001,"N_COORD97":2555976.2999999998,"ADDRESS":"油車６之２７號","OBJECTID":112834},"geometry":{"x":170764.04000000004,"y":2555976.3000000007}},{"attributes":{"ID":112835,"DIS_CODE":0,"TOWNNAME":"安定區","LI":"南安里","LIN":"1鄰","STREET":" ","SECT":" ","MAREA":"油車","LANE":" ","ALLEY":" ","HOUSE_NO":"６號之７","E_COORD97":170790.60000000001,"N_COORD97":2555957.2999999998,"ADDRESS":"油車６號之７","OBJECTID":112835},"geometry":{"x":170790.60000000149,"y":2555957.3000000045}},{"attributes":{"ID":112836,"DIS_CODE":0,"TOWNNAME":"安定區","LI":"南安里","LIN":"1鄰","STREET":" ","SECT":" ","MAREA":"油車","LANE":" ","ALLEY":" ","HOUSE_NO":"６之２２號","E_COORD97":170779.34,"N_COORD97":2555973.2999999998,"ADDRESS":"油車６之２２號","OBJECTID":112836},"geometry":{"x":170779.34000000078,"y":2555973.3000000007}},{"attributes":{"ID":112837,"DIS_CODE":0,"TOWNNAME":"安定區","LI":"南安里","LIN":"1鄰","STREET":" ","SECT":" ","MAREA":"油車","LANE":" ","ALLEY":" ","HOUSE_NO":"６之１８號","E_COORD97":170761.94,"N_COORD97":2555949.2999999998,"ADDRESS":"油車６之１８號","OBJECTID":112837},"geometry":{"x":170761.93999999948,"y":2555949.3000000007}},{"attributes":{"ID":112838,"DIS_CODE":0,"TOWNNAME":"安定區","LI":"海寮里","LIN":"1鄰","STREET":" ","SECT":" ","MAREA":"海寮","LANE":" ","ALLEY":" ","HOUSE_NO":"６之６號","E_COORD97":169018.45548599999,"N_COORD97":2555098.3351599998,"ADDRESS":"海寮６之６號","OBJECTID":112838},"geometry":{"x":169018.45548600052,"y":2555098.3351640012}},{"attributes":{"ID":112839,"DIS_CODE":0,"TOWNNAME":"安南區","LI":"安順里","LIN":"1鄰","STREET":"安和路","SECT":"四段","MAREA":" ","LANE":" ","ALLEY":" ","HOUSE_NO":"２３號","E_COORD97":169937.73000000001,"N_COORD97":2550150.2799999998,"ADDRESS":"安和路四段２３號","OBJECTID":112839},"geometry":{"x":169937.73000000045,"y":2550150.2799999993}},{"attributes":{"ID":112840,"DIS_CODE":0,"TOWNNAME":"永康區","LI":"埔園里","LIN":"37鄰","STREET":"龍國街","SECT":" ","MAREA":" ","LANE":"１３１巷","ALLEY":"８弄","HOUSE_NO":"９號","E_COORD97":174340.07000000001,"N_COORD97":2548123.73,"ADDRESS":"龍國街１３１巷８弄９號","OBJECTID":112840},"geometry":{"x":174340.07000000123,"y":2548123.7300000023}},{"attributes":{"ID":112841,"DIS_CODE":0,"TOWNNAME":"安南區","LI":"溪頂里","LIN":"1鄰","STREET":"文安街","SECT":" ","MAREA":" ","LANE":" ","ALLEY":" ","HOUSE_NO":"１３２號","E_COORD97":169085.56,"N_COORD97":2547437.0499999998,"ADDRESS":"文安街１３２號","OBJECTID":112841},"geometry":{"x":169085.56000000145,"y":2547437.0500000026}},{"attributes":{"ID":112842,"DIS_CODE":0,"TOWNNAME":"永康區","LI":"埔園里","LIN":"37鄰","STREET":"龍國街","SECT":" ","MAREA":" ","LANE":"１３１巷","ALLEY":"８弄","HOUSE_NO":"７號","E_COORD97":174335.85999999999,"N_COORD97":2548124.23,"ADDRESS":"龍國街１３１巷８弄７號","OBJECTID":112842},"geometry":{"x":174335.8599999994,"y":2548124.2300000004}},{"attributes":{"ID":112843,"DIS_CODE":0,"TOWNNAME":"永康區","LI":"埔園里","LIN":"37鄰","STREET":"永大路","SECT":"三段","MAREA":" ","LANE":"３６０巷","ALLEY":"３０弄","HOUSE_NO":"１３號","E_COORD97":174195.29000000001,"N_COORD97":2548108.9300000002,"ADDRESS":"永大路三段３６０巷３０弄１３號","OBJECTID":112843},"geometry":{"x":174195.28999999911,"y":2548108.9299999997}},{"attributes":{"ID":112844,"DIS_CODE":0,"TOWNNAME":"永康區","LI":"埔園里","LIN":"37鄰","STREET":"永大路","SECT":"三段","MAREA":" ","LANE":"３６０巷","ALLEY":"３０弄","HOUSE_NO":"１之２號","E_COORD97":174213.91,"N_COORD97":2548157.5800000001,"ADDRESS":"永大路三段３６０巷３０弄１之２號","OBJECTID":112844},"geometry":{"x":174213.91000000108,"y":2548157.5800000019}},{"attributes":{"ID":112845,"DIS_CODE":0,"TOWNNAME":"永康區","LI":"埔園里","LIN":"37鄰","STREET":"永大路","SECT":"三段","MAREA":" ","LANE":"３６０巷","ALLEY":"３０弄","HOUSE_NO":"９號","E_COORD97":174194.92999999999,"N_COORD97":2548118.9199999999,"ADDRESS":"永大路三段３６０巷３０弄９號","OBJECTID":112845},"geometry":{"x":174194.93000000063,"y":2548118.9199999999}},{"attributes":{"ID":112846,"DIS_CODE":0,"TOWNNAME":"永康區","LI":"埔園里","LIN":"37鄰","STREET":"永大路","SECT":"三段","MAREA":" ","LANE":"３６０巷","ALLEY":"３０弄","HOUSE_NO":"３號","E_COORD97":174200.47,"N_COORD97":2548147.8100000001,"ADDRESS":"永大路三段３６０巷３０弄３號","OBJECTID":112846},"geometry":{"x":174200.46999999974,"y":2548147.8100000005}},{"attributes":{"ID":112847,"DIS_CODE":0,"TOWNNAME":"永康區","LI":"埔園里","LIN":"37鄰","STREET":"永大路","SECT":"三段","MAREA":" ","LANE":"３６０巷","ALLEY":"３０弄","HOUSE_NO":"２５號","E_COORD97":174209.12,"N_COORD97":2548121.3700000001,"ADDRESS":"永大路三段３６０巷３０弄２５號","OBJECTID":112847},"geometry":{"x":174209.12000000104,"y":2548121.370000001}},{"attributes":{"ID":112848,"DIS_CODE":0,"TOWNNAME":"永康區","LI":"埔園里","LIN":"37鄰","STREET":"龍國街","SECT":" ","MAREA":" ","LANE":"１３１巷","ALLEY":"８弄","HOUSE_NO":"１２號","E_COORD97":174339.73999999999,"N_COORD97":2548103.1699999999,"ADDRESS":"龍國街１３１巷８弄１２號","OBJECTID":112848},"geometry":{"x":174339.74000000022,"y":2548103.1700000018}},{"attributes":{"ID":112849,"DIS_CODE":0,"TOWNNAME":"永康區","LI":"埔園里","LIN":"37鄰","STREET":"龍國街","SECT":" ","MAREA":" ","LANE":"１３１巷","ALLEY":"８弄","HOUSE_NO":"１０號","E_COORD97":174335.63,"N_COORD97":2548103.6699999999,"ADDRESS":"龍國街１３１巷８弄１０號","OBJECTID":112849},"geometry":{"x":174335.63000000082,"y":2548103.6699999999}},{"attributes":{"ID":112850,"DIS_CODE":0,"TOWNNAME":"永康區","LI":"埔園里","LIN":"37鄰","STREET":"永大路","SECT":"三段","MAREA":" ","LANE":"３６０巷","ALLEY":"３０弄","HOUSE_NO":"２７號","E_COORD97":174209.78,"N_COORD97":2548126.6200000001,"ADDRESS":"永大路三段３６０巷３０弄２７號","OBJECTID":112850},"geometry":{"x":174209.78000000119,"y":2548126.620000001}},{"attributes":{"ID":112851,"DIS_CODE":0,"TOWNNAME":"永康區","LI":"埔園里","LIN":"37鄰","STREET":"龍國街","SECT":" ","MAREA":" ","LANE":"１３１巷","ALLEY":"８弄","HOUSE_NO":"５號","E_COORD97":174331.66,"N_COORD97":2548124.73,"ADDRESS":"龍國街１３１巷８弄５號","OBJECTID":112851},"geometry":{"x":174331.66000000015,"y":2548124.7300000004}},{"attributes":{"ID":112852,"DIS_CODE":0,"TOWNNAME":"永康區","LI":"尚頂里","LIN":"28鄰","STREET":"南台街","SECT":" ","MAREA":" ","LANE":"５４巷","ALLEY":"４１弄","HOUSE_NO":"３５號","E_COORD97":170262.29999999999,"N_COORD97":2547061,"ADDRESS":"南台街５４巷４１弄３５號","OBJECTID":112852},"geometry":{"x":170262.30000000168,"y":2547061}},{"attributes":{"ID":112853,"DIS_CODE":0,"TOWNNAME":"永康區","LI":"埔園里","LIN":"37鄰","STREET":"永大路","SECT":"三段","MAREA":" ","LANE":"３６０巷","ALLEY":"３０弄","HOUSE_NO":"２３號","E_COORD97":174208.38,"N_COORD97":2548116.6200000001,"ADDRESS":"永大路三段３６０巷３０弄２３號","OBJECTID":112853},"geometry":{"x":174208.38000000082,"y":2548116.6200000048}},{"attributes":{"ID":112854,"DIS_CODE":0,"TOWNNAME":"安定區","LI":"南安里","LIN":"1鄰","STREET":" ","SECT":" ","MAREA":"油車","LANE":" ","ALLEY":" ","HOUSE_NO":"１０之１號","E_COORD97":170781.23999999999,"N_COORD97":2555881.2999999998,"ADDRESS":"油車１０之１號","OBJECTID":112854},"geometry":{"x":170781.24000000022,"y":2555881.3000000007}},{"attributes":{"ID":112855,"DIS_CODE":0,"TOWNNAME":"新化區","LI":"北勢里","LIN":"1鄰","STREET":" ","SECT":" ","MAREA":"北勢","LANE":" ","ALLEY":" ","HOUSE_NO":"１４１號之１","E_COORD97":177301.81,"N_COORD97":2549513.2599999998,"ADDRESS":"北勢１４１號之１","OBJECTID":112855},"geometry":{"x":177301.80999999959,"y":2549513.2599999998}},{"attributes":{"ID":112856,"DIS_CODE":0,"TOWNNAME":"新化區","LI":"北勢里","LIN":"1鄰","STREET":" ","SECT":" ","MAREA":"北勢","LANE":" ","ALLEY":" ","HOUSE_NO":"１５４號之５","E_COORD97":177323.54000000001,"N_COORD97":2549435.2599999998,"ADDRESS":"北勢１５４號之５","OBJECTID":112856},"geometry":{"x":177323.54000000097,"y":2549435.2599999998}},{"attributes":{"ID":112857,"DIS_CODE":0,"TOWNNAME":"新化區","LI":"北勢里","LIN":"1鄰","STREET":" ","SECT":" ","MAREA":"北勢","LANE":" ","ALLEY":" ","HOUSE_NO":"１４０號","E_COORD97":177290.38,"N_COORD97":2549485.2599999998,"ADDRESS":"北勢１４０號","OBJECTID":112857},"geometry":{"x":177290.38000000082,"y":2549485.2600000016}},{"attributes":{"ID":112858,"DIS_CODE":0,"TOWNNAME":"新化區","LI":"北勢里","LIN":"1鄰","STREET":" ","SECT":" ","MAREA":"北勢","LANE":" ","ALLEY":" ","HOUSE_NO":"１４３號","E_COORD97":177318.67999999999,"N_COORD97":2549533.2599999998,"ADDRESS":"北勢１４３號","OBJECTID":112858},"geometry":{"x":177318.68000000063,"y":2549533.2600000016}},{"attributes":{"ID":112859,"DIS_CODE":0,"TOWNNAME":"新化區","LI":"全興里","LIN":"1鄰","STREET":" ","SECT":" ","MAREA":"竹子\u25A0","LANE":" ","ALLEY":" ","HOUSE_NO":"１號之３","E_COORD97":177737.78,"N_COORD97":2547844.2599999998,"ADDRESS":"竹子\u25A0１號之３","OBJECTID":112859},"geometry":{"x":177737.78000000119,"y":2547844.2600000016}},{"attributes":{"ID":112860,"DIS_CODE":0,"TOWNNAME":"新化區","LI":"北勢里","LIN":"1鄰","STREET":" ","SECT":" ","MAREA":"北勢","LANE":" ","ALLEY":" ","HOUSE_NO":"１６２號","E_COORD97":177357.67999999999,"N_COORD97":2549439.2599999998,"ADDRESS":"北勢１６２號","OBJECTID":112860},"geometry":{"x":177357.68000000063,"y":2549439.2599999998}},{"attributes":{"ID":112861,"DIS_CODE":0,"TOWNNAME":"新化區","LI":"全興里","LIN":"1鄰","STREET":" ","SECT":" ","MAREA":"竹子\u25A0","LANE":" ","ALLEY":" ","HOUSE_NO":"１３號","E_COORD97":177668.48000000001,"N_COORD97":2547874.25,"ADDRESS":"竹子\u25A0１３號","OBJECTID":112861},"geometry":{"x":177668.48000000138,"y":2547874.2500000037}},{"attributes":{"ID":112862,"DIS_CODE":0,"TOWNNAME":"永康區","LI":"埔園里","LIN":"37鄰","STREET":"龍國街","SECT":" ","MAREA":" ","LANE":"１３１巷","ALLEY":"１１弄","HOUSE_NO":"７號","E_COORD97":174305.56,"N_COORD97":2548157.04,"ADDRESS":"龍國街１３１巷１１弄７號","OBJECTID":112862},"geometry":{"x":174305.56000000052,"y":2548157.040000001}},{"attributes":{"ID":112863,"DIS_CODE":0,"TOWNNAME":"永康區","LI":"埔園里","LIN":"37鄰","STREET":"龍國街","SECT":" ","MAREA":" ","LANE":"１３１巷","ALLEY":"１２弄","HOUSE_NO":"２號","E_COORD97":174329.54000000001,"N_COORD97":2548154.4100000001,"ADDRESS":"龍國街１３１巷１２弄２號","OBJECTID":112863},"geometry":{"x":174329.54000000097,"y":2548154.4100000039}},{"attributes":{"ID":112864,"DIS_CODE":0,"TOWNNAME":"永康區","LI":"埔園里","LIN":"37鄰","STREET":"永大路","SECT":"三段","MAREA":" ","LANE":"３６０巷","ALLEY":"３０弄","HOUSE_NO":"３之２號","E_COORD97":174212.70000000001,"N_COORD97":2548151.5800000001,"ADDRESS":"永大路三段３６０巷３０弄３之２號","OBJECTID":112864},"geometry":{"x":174212.70000000019,"y":2548151.5800000001}},{"attributes":{"ID":112865,"DIS_CODE":0,"TOWNNAME":"永康區","LI":"埔園里","LIN":"37鄰","STREET":"永大路","SECT":"三段","MAREA":" ","LANE":"３６０巷","ALLEY":"３０弄","HOUSE_NO":"２１號","E_COORD97":174207.59,"N_COORD97":2548111.6299999999,"ADDRESS":"永大路三段３６０巷３０弄２１號","OBJECTID":112865},"geometry":{"x":174207.58999999985,"y":2548111.6300000008}},{"attributes":{"ID":112866,"DIS_CODE":0,"TOWNNAME":"永康區","LI":"埔園里","LIN":"37鄰","STREET":"永大路","SECT":"三段","MAREA":" ","LANE":"３６０巷","ALLEY":"３０弄","HOUSE_NO":"１９號","E_COORD97":174207.32999999999,"N_COORD97":2548107.1299999999,"ADDRESS":"永大路三段３６０巷３０弄１９號","OBJECTID":112866},"geometry":{"x":174207.33000000101,"y":2548107.129999999}},{"attributes":{"ID":112867,"DIS_CODE":0,"TOWNNAME":"永康區","LI":"埔園里","LIN":"37鄰","STREET":"永大路","SECT":"三段","MAREA":" ","LANE":"３６０巷","ALLEY":"３０弄","HOUSE_NO":"７號","E_COORD97":174195.79000000001,"N_COORD97":2548123.6699999999,"ADDRESS":"永大路三段３６０巷３０弄７號","OBJECTID":112867},"geometry":{"x":174195.79000000097,"y":2548123.6700000018}},{"attributes":{"ID":112868,"DIS_CODE":0,"TOWNNAME":"永康區","LI":"埔園里","LIN":"37鄰","STREET":"永大路","SECT":"三段","MAREA":" ","LANE":"３６０巷","ALLEY":"３０弄","HOUSE_NO":"１５號","E_COORD97":174194.35000000001,"N_COORD97":2548104.6800000002,"ADDRESS":"永大路三段３６０巷３０弄１５號","OBJECTID":112868},"geometry":{"x":174194.34999999963,"y":2548104.6800000034}},{"attributes":{"ID":112869,"DIS_CODE":0,"TOWNNAME":"永康區","LI":"埔園里","LIN":"37鄰","STREET":"永大路","SECT":"三段","MAREA":" ","LANE":"３６０巷","ALLEY":"３０弄","HOUSE_NO":"５號","E_COORD97":174196.39999999999,"N_COORD97":2548128.6699999999,"ADDRESS":"永大路三段３６０巷３０弄５號","OBJECTID":112869},"geometry":{"x":174196.40000000037,"y":2548128.6700000037}},{"attributes":{"ID":112870,"DIS_CODE":0,"TOWNNAME":"永康區","LI":"埔園里","LIN":"37鄰","STREET":"龍國街","SECT":" ","MAREA":" ","LANE":"１３１巷","ALLEY":"５弄","HOUSE_NO":"６號","E_COORD97":174309.22,"N_COORD97":2548127.0800000001,"ADDRESS":"龍國街１３１巷５弄６號","OBJECTID":112870},"geometry":{"x":174309.2200000016,"y":2548127.0800000019}},{"attributes":{"ID":112871,"DIS_CODE":0,"TOWNNAME":"永康區","LI":"埔園里","LIN":"37鄰","STREET":"龍國街","SECT":" ","MAREA":" ","LANE":"１３１巷","ALLEY":"５弄","HOUSE_NO":"３號","E_COORD97":174307.39999999999,"N_COORD97":2548108.6699999999,"ADDRESS":"龍國街１３１巷５弄３號","OBJECTID":112871},"geometry":{"x":174307.4000000013,"y":2548108.6700000037}},{"attributes":{"ID":112872,"DIS_CODE":0,"TOWNNAME":"永康區","LI":"埔園里","LIN":"37鄰","STREET":"龍國街","SECT":" ","MAREA":" ","LANE":"１３１巷","ALLEY":"１２弄","HOUSE_NO":"８號","E_COORD97":174337.54000000001,"N_COORD97":2548152.9100000001,"ADDRESS":"龍國街１３１巷１２弄８號","OBJECTID":112872},"geometry":{"x":174337.54000000004,"y":2548152.9100000001}},{"attributes":{"ID":112873,"DIS_CODE":0,"TOWNNAME":"永康區","LI":"埔園里","LIN":"37鄰","STREET":"永大路","SECT":"三段","MAREA":" ","LANE":"３６０巷","ALLEY":"３０弄","HOUSE_NO":"１１號","E_COORD97":174195.73000000001,"N_COORD97":2548113.9199999999,"ADDRESS":"永大路三段３６０巷３０弄１１號","OBJECTID":112873},"geometry":{"x":174195.73000000045,"y":2548113.9200000018}},{"attributes":{"ID":112874,"DIS_CODE":0,"TOWNNAME":"新市區","LI":"新和里","LIN":"37鄰","STREET":"仁愛街","SECT":" ","MAREA":" ","LANE":"２４１巷","ALLEY":"１９弄","HOUSE_NO":"４號","E_COORD97":177562.42000000001,"N_COORD97":2552883.2799999998,"ADDRESS":"仁愛街２４１巷１９弄４號","OBJECTID":112874},"geometry":{"x":177562.41999999993,"y":2552883.2799999993}},{"attributes":{"ID":112875,"DIS_CODE":0,"TOWNNAME":"新市區","LI":"新和里","LIN":"37鄰","STREET":"仁愛街","SECT":" ","MAREA":" ","LANE":"２４１巷","ALLEY":"１９弄","HOUSE_NO":"２號","E_COORD97":177564.53,"N_COORD97":2552889.2799999998,"ADDRESS":"仁愛街２４１巷１９弄２號","OBJECTID":112875},"geometry":{"x":177564.53000000119,"y":2552889.2799999993}},{"attributes":{"ID":112876,"DIS_CODE":0,"TOWNNAME":"永康區","LI":"埔園里","LIN":"37鄰","STREET":"龍國街","SECT":" ","MAREA":" ","LANE":"１３１巷","ALLEY":"５弄","HOUSE_NO":"７號","E_COORD97":174299.32999999999,"N_COORD97":2548109.9199999999,"ADDRESS":"龍國街１３１巷５弄７號","OBJECTID":112876},"geometry":{"x":174299.33000000101,"y":2548109.9199999981}},{"attributes":{"ID":112877,"DIS_CODE":0,"TOWNNAME":"永康區","LI":"埔園里","LIN":"37鄰","STREET":"龍國街","SECT":" ","MAREA":" ","LANE":"１３１巷","ALLEY":"５弄","HOUSE_NO":"１０號","E_COORD97":174302.07000000001,"N_COORD97":2548128.0800000001,"ADDRESS":"龍國街１３１巷５弄１０號","OBJECTID":112877},"geometry":{"x":174302.0700000003,"y":2548128.0800000001}},{"attributes":{"ID":112878,"DIS_CODE":0,"TOWNNAME":"東區","LI":"泉南里","LIN":"9鄰","STREET":"東門路","SECT":"一段","MAREA":" ","LANE":"５２巷","ALLEY":"３弄","HOUSE_NO":"１１號","E_COORD97":169329.20000000001,"N_COORD97":2543172.4199999999,"ADDRESS":"東門路一段５２巷３弄１１號","OBJECTID":112878},"geometry":{"x":169329.19999999925,"y":2543172.4199999999}},{"attributes":{"ID":112879,"DIS_CODE":0,"TOWNNAME":"佳里區","LI":"安西里","LIN":"51鄰","STREET":" ","SECT":" ","MAREA":"安西","LANE":" ","ALLEY":" ","HOUSE_NO":"１２７號五樓之１１","E_COORD97":164161.25,"N_COORD97":2562159.1000000001,"ADDRESS":"安西１２７號五樓之１１","OBJECTID":112879},"geometry":{"x":164161.25,"y":2562159.1000000015}},{"attributes":{"ID":112880,"DIS_CODE":0,"TOWNNAME":"佳里區","LI":"安西里","LIN":"51鄰","STREET":" ","SECT":" ","MAREA":"安西","LANE":" ","ALLEY":" ","HOUSE_NO":"１２７號五樓之１２","E_COORD97":164161.25,"N_COORD97":2562159.1000000001,"ADDRESS":"安西１２７號五樓之１２","OBJECTID":112880},"geometry":{"x":164161.25,"y":2562159.1000000015}},{"attributes":{"ID":112881,"DIS_CODE":0,"TOWNNAME":"佳里區","LI":"安西里","LIN":"51鄰","STREET":" ","SECT":" ","MAREA":"安西","LANE":" ","ALLEY":" ","HOUSE_NO":"１２７號五樓之１３","E_COORD97":164161.25,"N_COORD97":2562159.1000000001,"ADDRESS":"安西１２７號五樓之１３","OBJECTID":112881},"geometry":{"x":164161.25,"y":2562159.1000000015}},{"attributes":{"ID":112882,"DIS_CODE":0,"TOWNNAME":"安南區","LI":"新順里","LIN":"1鄰","STREET":"培安二街","SECT":" ","MAREA":" ","LANE":"１４巷","ALLEY":" ","HOUSE_NO":"２號","E_COORD97":169411.94,"N_COORD97":2549632.0099999998,"ADDRESS":"培安二街１４巷２號","OBJECTID":112882},"geometry":{"x":169411.94000000041,"y":2549632.0100000016}},{"attributes":{"ID":112883,"DIS_CODE":0,"TOWNNAME":"佳里區","LI":"安西里","LIN":"51鄰","STREET":" ","SECT":" ","MAREA":"安西","LANE":" ","ALLEY":" ","HOUSE_NO":"１２７號五樓之１４","E_COORD97":164161.25,"N_COORD97":2562159.1000000001,"ADDRESS":"安西１２７號五樓之１４","OBJECTID":112883},"geometry":{"x":164161.25,"y":2562159.1000000015}},{"attributes":{"ID":112884,"DIS_CODE":0,"TOWNNAME":"佳里區","LI":"安西里","LIN":"51鄰","STREET":" ","SECT":" ","MAREA":"安西","LANE":" ","ALLEY":" ","HOUSE_NO":"１２７號五樓之２","E_COORD97":164161.25,"N_COORD97":2562159.1000000001,"ADDRESS":"安西１２７號五樓之２","OBJECTID":112884},"geometry":{"x":164161.25,"y":2562159.1000000015}},{"attributes":{"ID":112885,"DIS_CODE":0,"TOWNNAME":"佳里區","LI":"安西里","LIN":"51鄰","STREET":" ","SECT":" ","MAREA":"安西","LANE":" ","ALLEY":" ","HOUSE_NO":"１２７號五樓之３","E_COORD97":164161.25,"N_COORD97":2562159.1000000001,"ADDRESS":"安西１２７號五樓之３","OBJECTID":112885},"geometry":{"x":164161.25,"y":2562159.1000000015}},{"attributes":{"ID":112886,"DIS_CODE":0,"TOWNNAME":"佳里區","LI":"安西里","LIN":"51鄰","STREET":" ","SECT":" ","MAREA":"安西","LANE":" ","ALLEY":" ","HOUSE_NO":"１２７號五樓之４","E_COORD97":164161.25,"N_COORD97":2562159.1000000001,"ADDRESS":"安西１２７號五樓之４","OBJECTID":112886},"geometry":{"x":164161.25,"y":2562159.1000000015}},{"attributes":{"ID":112887,"DIS_CODE":0,"TOWNNAME":"佳里區","LI":"安西里","LIN":"51鄰","STREET":" ","SECT":" ","MAREA":"安西","LANE":" ","ALLEY":" ","HOUSE_NO":"１２７號五樓之５","E_COORD97":164161.25,"N_COORD97":2562159.1000000001,"ADDRESS":"安西１２７號五樓之５","OBJECTID":112887},"geometry":{"x":164161.25,"y":2562159.1000000015}},{"attributes":{"ID":112888,"DIS_CODE":0,"TOWNNAME":"佳里區","LI":"安西里","LIN":"51鄰","STREET":" ","SECT":" ","MAREA":"安西","LANE":" ","ALLEY":" ","HOUSE_NO":"１２７號五樓之６","E_COORD97":164161.25,"N_COORD97":2562159.1000000001,"ADDRESS":"安西１２７號五樓之６","OBJECTID":112888},"geometry":{"x":164161.25,"y":2562159.1000000015}},{"attributes":{"ID":112889,"DIS_CODE":0,"TOWNNAME":"佳里區","LI":"安西里","LIN":"51鄰","STREET":" ","SECT":" ","MAREA":"安西","LANE":" ","ALLEY":" ","HOUSE_NO":"１２７號五樓之７","E_COORD97":164161.25,"N_COORD97":2562159.1000000001,"ADDRESS":"安西１２７號五樓之７","OBJECTID":112889},"geometry":{"x":164161.25,"y":2562159.1000000015}},{"attributes":{"ID":112890,"DIS_CODE":0,"TOWNNAME":"佳里區","LI":"安西里","LIN":"51鄰","STREET":" ","SECT":" ","MAREA":"安西","LANE":" ","ALLEY":" ","HOUSE_NO":"１２７號五樓之８","E_COORD97":164161.25,"N_COORD97":2562159.1000000001,"ADDRESS":"安西１２７號五樓之８","OBJECTID":112890},"geometry":{"x":164161.25,"y":2562159.1000000015}},{"attributes":{"ID":112891,"DIS_CODE":0,"TOWNNAME":"佳里區","LI":"安西里","LIN":"51鄰","STREET":" ","SECT":" ","MAREA":"安西","LANE":" ","ALLEY":" ","HOUSE_NO":"１２７號五樓之９","E_COORD97":164161.25,"N_COORD97":2562159.1000000001,"ADDRESS":"安西１２７號五樓之９","OBJECTID":112891},"geometry":{"x":164161.25,"y":2562159.1000000015}},{"attributes":{"ID":112892,"DIS_CODE":0,"TOWNNAME":"佳里區","LI":"安西里","LIN":"51鄰","STREET":" ","SECT":" ","MAREA":"安西","LANE":" ","ALLEY":" ","HOUSE_NO":"１２７號四樓之１","E_COORD97":164161.25,"N_COORD97":2562159.1000000001,"ADDRESS":"安西１２７號四樓之１","OBJECTID":112892},"geometry":{"x":164161.25,"y":2562159.1000000015}},{"attributes":{"ID":112893,"DIS_CODE":0,"TOWNNAME":"佳里區","LI":"安西里","LIN":"51鄰","STREET":" ","SECT":" ","MAREA":"安西","LANE":" ","ALLEY":" ","HOUSE_NO":"１２７號四樓之１０","E_COORD97":164161.25,"N_COORD97":2562159.1000000001,"ADDRESS":"安西１２７號四樓之１０","OBJECTID":112893},"geometry":{"x":164161.25,"y":2562159.1000000015}},{"attributes":{"ID":112894,"DIS_CODE":0,"TOWNNAME":"安南區","LI":"淵中里","LIN":"1鄰","STREET":"安中路","SECT":"三段","MAREA":" ","LANE":" ","ALLEY":" ","HOUSE_NO":"３６３號","E_COORD97":165546.10000000001,"N_COORD97":2549917.5,"ADDRESS":"安中路三段３６３號","OBJECTID":112894},"geometry":{"x":165546.10000000056,"y":2549917.5000000019}},{"attributes":{"ID":112895,"DIS_CODE":0,"TOWNNAME":"安南區","LI":"淵中里","LIN":"1鄰","STREET":"安中路","SECT":"三段","MAREA":" ","LANE":" ","ALLEY":" ","HOUSE_NO":"３６５號","E_COORD97":165541.42000000001,"N_COORD97":2549918.1000000001,"ADDRESS":"安中路三段３６５號","OBJECTID":112895},"geometry":{"x":165541.41999999993,"y":2549918.0999999996}},{"attributes":{"ID":112896,"DIS_CODE":0,"TOWNNAME":"東區","LI":"泉南里","LIN":"9鄰","STREET":"東門路","SECT":"一段","MAREA":" ","LANE":"５２巷","ALLEY":"３弄","HOUSE_NO":"１３號","E_COORD97":169336.42000000001,"N_COORD97":2543170.8500000001,"ADDRESS":"東門路一段５２巷３弄１３號","OBJECTID":112896},"geometry":{"x":169336.42000000086,"y":2543170.8500000015}},{"attributes":{"ID":112897,"DIS_CODE":0,"TOWNNAME":"東區","LI":"泉南里","LIN":"9鄰","STREET":"東門路","SECT":"一段","MAREA":" ","LANE":"５２巷","ALLEY":"３弄","HOUSE_NO":"１５號","E_COORD97":169343.22,"N_COORD97":2543167.71,"ADDRESS":"東門路一段５２巷３弄１５號","OBJECTID":112897},"geometry":{"x":169343.21999999974,"y":2543167.7100000009}},{"attributes":{"ID":112898,"DIS_CODE":0,"TOWNNAME":"東區","LI":"泉南里","LIN":"9鄰","STREET":"東門路","SECT":"一段","MAREA":" ","LANE":"５２巷","ALLEY":"３弄","HOUSE_NO":"５號","E_COORD97":169308.39000000001,"N_COORD97":2543179.3199999998,"ADDRESS":"東門路一段５２巷３弄５號","OBJECTID":112898},"geometry":{"x":169308.38999999966,"y":2543179.3200000022}},{"attributes":{"ID":112899,"DIS_CODE":0,"TOWNNAME":"東區","LI":"泉南里","LIN":"9鄰","STREET":"東門路","SECT":"一段","MAREA":" ","LANE":"５２巷","ALLEY":"３弄","HOUSE_NO":"７號","E_COORD97":169316.44,"N_COORD97":2543177.02,"ADDRESS":"東門路一段５２巷３弄７號","OBJECTID":112899},"geometry":{"x":169316.44000000134,"y":2543177.0200000014}},{"attributes":{"ID":112900,"DIS_CODE":0,"TOWNNAME":"東區","LI":"泉南里","LIN":"9鄰","STREET":"東門路","SECT":"一段","MAREA":" ","LANE":"５２巷","ALLEY":"３弄","HOUSE_NO":"９號","E_COORD97":169322.09,"N_COORD97":2543175.2400000002,"ADDRESS":"東門路一段５２巷３弄９號","OBJECTID":112900},"geometry":{"x":169322.08999999985,"y":2543175.2400000039}},{"attributes":{"ID":112901,"DIS_CODE":0,"TOWNNAME":"永康區","LI":"北灣里","LIN":"37鄰","STREET":"大同街","SECT":" ","MAREA":" ","LANE":"３６９巷","ALLEY":"５弄","HOUSE_NO":"３號","E_COORD97":174692.87,"N_COORD97":2546145.2400000002,"ADDRESS":"大同街３６９巷５弄３號","OBJECTID":112901},"geometry":{"x":174692.87000000011,"y":2546145.2400000039}},{"attributes":{"ID":112902,"DIS_CODE":0,"TOWNNAME":"永康區","LI":"埔園里","LIN":"37鄰","STREET":"龍國街","SECT":" ","MAREA":" ","LANE":"１３１巷","ALLEY":"５弄","HOUSE_NO":"２號","E_COORD97":174313.10999999999,"N_COORD97":2548126.5800000001,"ADDRESS":"龍國街１３１巷５弄２號","OBJECTID":112902},"geometry":{"x":174313.11000000034,"y":2548126.5800000019}},{"attributes":{"ID":112903,"DIS_CODE":0,"TOWNNAME":"安南區","LI":"淵中里","LIN":"1鄰","STREET":"安中路","SECT":"三段","MAREA":" ","LANE":" ","ALLEY":" ","HOUSE_NO":"３６７號","E_COORD97":165536.59,"N_COORD97":2549918.7799999998,"ADDRESS":"安中路三段３６７號","OBJECTID":112903},"geometry":{"x":165536.59000000078,"y":2549918.7800000012}},{"attributes":{"ID":112904,"DIS_CODE":0,"TOWNNAME":"安南區","LI":"淵中里","LIN":"1鄰","STREET":"安中路","SECT":"三段","MAREA":" ","LANE":" ","ALLEY":" ","HOUSE_NO":"３７１號","E_COORD97":165527.95000000001,"N_COORD97":2549920.21,"ADDRESS":"安中路三段３７１號","OBJECTID":112904},"geometry":{"x":165527.95000000019,"y":2549920.2100000028}},{"attributes":{"ID":112905,"DIS_CODE":0,"TOWNNAME":"佳里區","LI":"安西里","LIN":"51鄰","STREET":" ","SECT":" ","MAREA":"安西","LANE":" ","ALLEY":" ","HOUSE_NO":"１２７號四樓之１１","E_COORD97":164161.25,"N_COORD97":2562159.1000000001,"ADDRESS":"安西１２７號四樓之１１","OBJECTID":112905},"geometry":{"x":164161.25,"y":2562159.1000000015}},{"attributes":{"ID":112906,"DIS_CODE":0,"TOWNNAME":"佳里區","LI":"安西里","LIN":"51鄰","STREET":" ","SECT":" ","MAREA":"安西","LANE":" ","ALLEY":" ","HOUSE_NO":"１２７號四樓之１２","E_COORD97":164161.25,"N_COORD97":2562159.1000000001,"ADDRESS":"安西１２７號四樓之１２","OBJECTID":112906},"geometry":{"x":164161.25,"y":2562159.1000000015}},{"attributes":{"ID":112907,"DIS_CODE":0,"TOWNNAME":"佳里區","LI":"安西里","LIN":"51鄰","STREET":" ","SECT":" ","MAREA":"安西","LANE":" ","ALLEY":" ","HOUSE_NO":"１２７號四樓之１３","E_COORD97":164161.25,"N_COORD97":2562159.1000000001,"ADDRESS":"安西１２７號四樓之１３","OBJECTID":112907},"geometry":{"x":164161.25,"y":2562159.1000000015}},{"attributes":{"ID":112908,"DIS_CODE":0,"TOWNNAME":"佳里區","LI":"安西里","LIN":"51鄰","STREET":" ","SECT":" ","MAREA":"安西","LANE":" ","ALLEY":" ","HOUSE_NO":"１２７號四樓之１４","E_COORD97":164161.25,"N_COORD97":2562159.1000000001,"ADDRESS":"安西１２７號四樓之１４","OBJECTID":112908},"geometry":{"x":164161.25,"y":2562159.1000000015}},{"attributes":{"ID":112909,"DIS_CODE":0,"TOWNNAME":"佳里區","LI":"安西里","LIN":"51鄰","STREET":" ","SECT":" ","MAREA":"安西","LANE":" ","ALLEY":" ","HOUSE_NO":"１２７號四樓之２","E_COORD97":164161.25,"N_COORD97":2562159.1000000001,"ADDRESS":"安西１２７號四樓之２","OBJECTID":112909},"geometry":{"x":164161.25,"y":2562159.1000000015}},{"attributes":{"ID":112910,"DIS_CODE":0,"TOWNNAME":"佳里區","LI":"安西里","LIN":"51鄰","STREET":" ","SECT":" ","MAREA":"安西","LANE":" ","ALLEY":" ","HOUSE_NO":"１２７號四樓之３","E_COORD97":164161.25,"N_COORD97":2562159.1000000001,"ADDRESS":"安西１２７號四樓之３","OBJECTID":112910},"geometry":{"x":164161.25,"y":2562159.1000000015}},{"attributes":{"ID":112911,"DIS_CODE":0,"TOWNNAME":"柳營區","LI":"重溪里","LIN":"21鄰","STREET":" ","SECT":" ","MAREA":"小腳腿","LANE":" ","ALLEY":" ","HOUSE_NO":"５號之９","E_COORD97":185123.12,"N_COORD97":2576070.23,"ADDRESS":"小腳腿５號之９","OBJECTID":112911},"geometry":{"x":185123.12000000011,"y":2576070.2300000023}},{"attributes":{"ID":112912,"DIS_CODE":0,"TOWNNAME":"柳營區","LI":"旭山里","LIN":"21鄰","STREET":" ","SECT":" ","MAREA":"山子腳","LANE":" ","ALLEY":" ","HOUSE_NO":"７５號","E_COORD97":186729.44,"N_COORD97":2573935.9300000002,"ADDRESS":"山子腳７５號","OBJECTID":112912},"geometry":{"x":186729.44000000134,"y":2573935.9300000016}},{"attributes":{"ID":112913,"DIS_CODE":0,"TOWNNAME":"東山區","LI":"大客里","LIN":"21鄰","STREET":" ","SECT":" ","MAREA":"凹子\u25A0","LANE":" ","ALLEY":" ","HOUSE_NO":"４１號之１９","E_COORD97":190899.79999999999,"N_COORD97":2579701.8399999999,"ADDRESS":"凹子\u25A0４１號之１９","OBJECTID":112913},"geometry":{"x":190899.80000000075,"y":2579701.8399999999}},{"attributes":{"ID":112914,"DIS_CODE":0,"TOWNNAME":"東山區","LI":"大客里","LIN":"21鄰","STREET":" ","SECT":" ","MAREA":"凹子\u25A0","LANE":" ","ALLEY":" ","HOUSE_NO":"４１號之２０","E_COORD97":190895.60999999999,"N_COORD97":2579702.0699999998,"ADDRESS":"凹子\u25A0４１號之２０","OBJECTID":112914},"geometry":{"x":190895.61000000034,"y":2579702.0700000022}},{"attributes":{"ID":112915,"DIS_CODE":0,"TOWNNAME":"東山區","LI":"大客里","LIN":"21鄰","STREET":" ","SECT":" ","MAREA":"凹子\u25A0","LANE":" ","ALLEY":" ","HOUSE_NO":"４１號之２１","E_COORD97":190889.70999999999,"N_COORD97":2579702.6699999999,"ADDRESS":"凹子\u25A0４１號之２１","OBJECTID":112915},"geometry":{"x":190889.70999999996,"y":2579702.6699999999}},{"attributes":{"ID":112916,"DIS_CODE":0,"TOWNNAME":"東山區","LI":"大客里","LIN":"21鄰","STREET":" ","SECT":" ","MAREA":"凹子\u25A0","LANE":" ","ALLEY":" ","HOUSE_NO":"４１號之２２","E_COORD97":190883.82000000001,"N_COORD97":2579703.27,"ADDRESS":"凹子\u25A0４１號之２２","OBJECTID":112916},"geometry":{"x":190883.8200000003,"y":2579703.2700000014}},{"attributes":{"ID":112917,"DIS_CODE":0,"TOWNNAME":"東山區","LI":"大客里","LIN":"21鄰","STREET":" ","SECT":" ","MAREA":"凹子\u25A0","LANE":" ","ALLEY":" ","HOUSE_NO":"４１號之２３","E_COORD97":190877.92000000001,"N_COORD97":2579703.8700000001,"ADDRESS":"凹子\u25A0４１號之２３","OBJECTID":112917},"geometry":{"x":190877.91999999993,"y":2579703.8700000029}},{"attributes":{"ID":112918,"DIS_CODE":0,"TOWNNAME":"東山區","LI":"大客里","LIN":"21鄰","STREET":" ","SECT":" ","MAREA":"凹子\u25A0","LANE":" ","ALLEY":" ","HOUSE_NO":"４１號之２４","E_COORD97":190896.12,"N_COORD97":2579688.6400000001,"ADDRESS":"凹子\u25A0４１號之２４","OBJECTID":112918},"geometry":{"x":190896.12000000104,"y":2579688.6400000025}},{"attributes":{"ID":112919,"DIS_CODE":0,"TOWNNAME":"東山區","LI":"大客里","LIN":"21鄰","STREET":" ","SECT":" ","MAREA":"凹子\u25A0","LANE":" ","ALLEY":" ","HOUSE_NO":"４１號之２５","E_COORD97":190895.34,"N_COORD97":2579679.98,"ADDRESS":"凹子\u25A0４１號之２５","OBJECTID":112919},"geometry":{"x":190895.33999999985,"y":2579679.9800000004}},{"attributes":{"ID":112920,"DIS_CODE":0,"TOWNNAME":"東山區","LI":"大客里","LIN":"21鄰","STREET":" ","SECT":" ","MAREA":"凹子\u25A0","LANE":" ","ALLEY":" ","HOUSE_NO":"４１號之２６","E_COORD97":190891.20000000001,"N_COORD97":2579683.4900000002,"ADDRESS":"凹子\u25A0４１號之２６","OBJECTID":112920},"geometry":{"x":190891.20000000112,"y":2579683.4900000002}},{"attributes":{"ID":112921,"DIS_CODE":0,"TOWNNAME":"東山區","LI":"大客里","LIN":"21鄰","STREET":" ","SECT":" ","MAREA":"凹子\u25A0","LANE":" ","ALLEY":" ","HOUSE_NO":"４１號之２７","E_COORD97":190885.51000000001,"N_COORD97":2579684.4100000001,"ADDRESS":"凹子\u25A0４１號之２７","OBJECTID":112921},"geometry":{"x":190885.50999999978,"y":2579684.4100000001}},{"attributes":{"ID":112922,"DIS_CODE":0,"TOWNNAME":"東山區","LI":"大客里","LIN":"21鄰","STREET":" ","SECT":" ","MAREA":"凹子\u25A0","LANE":" ","ALLEY":" ","HOUSE_NO":"４１號之２８","E_COORD97":190879.39000000001,"N_COORD97":2579685.25,"ADDRESS":"凹子\u25A0４１號之２８","OBJECTID":112922},"geometry":{"x":190879.38999999966,"y":2579685.25}},{"attributes":{"ID":112923,"DIS_CODE":0,"TOWNNAME":"東山區","LI":"大客里","LIN":"21鄰","STREET":" ","SECT":" ","MAREA":"凹子\u25A0","LANE":" ","ALLEY":" ","HOUSE_NO":"４１號之２９","E_COORD97":190873.45999999999,"N_COORD97":2579686.7200000002,"ADDRESS":"凹子\u25A0４１號之２９","OBJECTID":112923},"geometry":{"x":190873.46000000089,"y":2579686.7199999988}},{"attributes":{"ID":112924,"DIS_CODE":0,"TOWNNAME":"東山區","LI":"大客里","LIN":"21鄰","STREET":" ","SECT":" ","MAREA":"凹子\u25A0","LANE":" ","ALLEY":" ","HOUSE_NO":"４１號之３","E_COORD97":190859.89000000001,"N_COORD97":2579808.6099999999,"ADDRESS":"凹子\u25A0４１號之３","OBJECTID":112924},"geometry":{"x":190859.8900000006,"y":2579808.6100000013}},{"attributes":{"ID":112925,"DIS_CODE":0,"TOWNNAME":"東山區","LI":"大客里","LIN":"21鄰","STREET":" ","SECT":" ","MAREA":"凹子\u25A0","LANE":" ","ALLEY":" ","HOUSE_NO":"４１號之４","E_COORD97":190912.88,"N_COORD97":2579746.3700000001,"ADDRESS":"凹子\u25A0４１號之４","OBJECTID":112925},"geometry":{"x":190912.88000000082,"y":2579746.370000001}},{"attributes":{"ID":112926,"DIS_CODE":0,"TOWNNAME":"東山區","LI":"大客里","LIN":"21鄰","STREET":" ","SECT":" ","MAREA":"凹子\u25A0","LANE":" ","ALLEY":" ","HOUSE_NO":"４１號之５","E_COORD97":190855.95000000001,"N_COORD97":2579773.3900000001,"ADDRESS":"凹子\u25A0４１號之５","OBJECTID":112926},"geometry":{"x":190855.95000000019,"y":2579773.3900000006}},{"attributes":{"ID":112927,"DIS_CODE":0,"TOWNNAME":"中西區","LI":"西湖里","LIN":"32鄰","STREET":"和緯路","SECT":"五段","MAREA":" ","LANE":"１６１巷","ALLEY":"８弄","HOUSE_NO":"８號","E_COORD97":166320.16,"N_COORD97":2545120.0699999998,"ADDRESS":"和緯路五段１６１巷８弄８號","OBJECTID":112927},"geometry":{"x":166320.16000000015,"y":2545120.0700000022}},{"attributes":{"ID":112928,"DIS_CODE":0,"TOWNNAME":"中西區","LI":"西湖里","LIN":"32鄰","STREET":"中華西路","SECT":"二段","MAREA":" ","LANE":"８５１巷","ALLEY":"１５１弄","HOUSE_NO":"５６號","E_COORD97":166271.26000000001,"N_COORD97":2544974.5800000001,"ADDRESS":"中華西路二段８５１巷１５１弄５６號","OBJECTID":112928},"geometry":{"x":166271.25999999978,"y":2544974.5800000019}},{"attributes":{"ID":112929,"DIS_CODE":0,"TOWNNAME":"中西區","LI":"西湖里","LIN":"32鄰","STREET":"中華西路","SECT":"二段","MAREA":" ","LANE":"８５１巷","ALLEY":"１５１弄","HOUSE_NO":"５８號","E_COORD97":166270.45999999999,"N_COORD97":2544969.1800000002,"ADDRESS":"中華西路二段８５１巷１５１弄５８號","OBJECTID":112929},"geometry":{"x":166270.45999999996,"y":2544969.1800000016}},{"attributes":{"ID":112930,"DIS_CODE":0,"TOWNNAME":"安平區","LI":"平通里","LIN":"27鄰","STREET":"育平九街","SECT":" ","MAREA":" ","LANE":"３７２巷","ALLEY":"８９弄","HOUSE_NO":"６９號","E_COORD97":164440.47,"N_COORD97":2543958.54,"ADDRESS":"育平九街３７２巷８９弄６９號","OBJECTID":112930},"geometry":{"x":164440.47000000067,"y":2543958.5400000028}},{"attributes":{"ID":112931,"DIS_CODE":0,"TOWNNAME":"官田區","LI":"隆田里","LIN":"28鄰","STREET":"中山路","SECT":"二段","MAREA":" ","LANE":"８５巷","ALLEY":"２弄","HOUSE_NO":"１０號","E_COORD97":178913.92999999999,"N_COORD97":2565982.7200000002,"ADDRESS":"中山路二段８５巷２弄１０號","OBJECTID":112931},"geometry":{"x":178913.93000000063,"y":2565982.7199999988}},{"attributes":{"ID":112932,"DIS_CODE":0,"TOWNNAME":"官田區","LI":"隆田里","LIN":"28鄰","STREET":"中山路","SECT":"二段","MAREA":" ","LANE":"８５巷","ALLEY":"２弄","HOUSE_NO":"１２號","E_COORD97":178907.60999999999,"N_COORD97":2565985.73,"ADDRESS":"中山路二段８５巷２弄１２號","OBJECTID":112932},"geometry":{"x":178907.61000000034,"y":2565985.7300000004}},{"attributes":{"ID":112933,"DIS_CODE":0,"TOWNNAME":"官田區","LI":"隆田里","LIN":"28鄰","STREET":"中山路","SECT":"二段","MAREA":" ","LANE":"８５巷","ALLEY":"２弄","HOUSE_NO":"１號","E_COORD97":178919.32999999999,"N_COORD97":2565962.9199999999,"ADDRESS":"中山路二段８５巷２弄１號","OBJECTID":112933},"geometry":{"x":178919.33000000007,"y":2565962.9199999999}},{"attributes":{"ID":112934,"DIS_CODE":0,"TOWNNAME":"官田區","LI":"隆田里","LIN":"28鄰","STREET":"中山路","SECT":"二段","MAREA":" ","LANE":"８５巷","ALLEY":"２弄","HOUSE_NO":"２號","E_COORD97":178938.29000000001,"N_COORD97":2565972.6800000002,"ADDRESS":"中山路二段８５巷２弄２號","OBJECTID":112934},"geometry":{"x":178938.29000000004,"y":2565972.6800000016}},{"attributes":{"ID":112935,"DIS_CODE":0,"TOWNNAME":"官田區","LI":"隆田里","LIN":"28鄰","STREET":"中山路","SECT":"二段","MAREA":" ","LANE":"８５巷","ALLEY":"２弄","HOUSE_NO":"３號","E_COORD97":178915.62,"N_COORD97":2565964.5699999998,"ADDRESS":"中山路二段８５巷２弄３號","OBJECTID":112935},"geometry":{"x":178915.62000000011,"y":2565964.5700000022}},{"attributes":{"ID":112936,"DIS_CODE":0,"TOWNNAME":"官田區","LI":"隆田里","LIN":"28鄰","STREET":"中山路","SECT":"二段","MAREA":" ","LANE":"８５巷","ALLEY":"２弄","HOUSE_NO":"４號","E_COORD97":178932.06,"N_COORD97":2565975.0299999998,"ADDRESS":"中山路二段８５巷２弄４號","OBJECTID":112936},"geometry":{"x":178932.05999999959,"y":2565975.0299999993}},{"attributes":{"ID":112937,"DIS_CODE":0,"TOWNNAME":"官田區","LI":"隆田里","LIN":"28鄰","STREET":"中山路","SECT":"二段","MAREA":" ","LANE":"８５巷","ALLEY":"２弄","HOUSE_NO":"５號","E_COORD97":178912.06,"N_COORD97":2565966.3599999999,"ADDRESS":"中山路二段８５巷２弄５號","OBJECTID":112937},"geometry":{"x":178912.05999999959,"y":2565966.3599999994}},{"attributes":{"ID":112938,"DIS_CODE":0,"TOWNNAME":"官田區","LI":"隆田里","LIN":"28鄰","STREET":"中山路","SECT":"二段","MAREA":" ","LANE":"８５巷","ALLEY":"２弄","HOUSE_NO":"６號","E_COORD97":178926.19,"N_COORD97":2565978.1400000001,"ADDRESS":"中山路二段８５巷２弄６號","OBJECTID":112938},"geometry":{"x":178926.19000000134,"y":2565978.1400000025}},{"attributes":{"ID":112939,"DIS_CODE":0,"TOWNNAME":"官田區","LI":"隆田里","LIN":"28鄰","STREET":"中山路","SECT":"二段","MAREA":" ","LANE":"８５巷","ALLEY":"２弄","HOUSE_NO":"７號","E_COORD97":178908.35999999999,"N_COORD97":2565968.0299999998,"ADDRESS":"中山路二段８５巷２弄７號","OBJECTID":112939},"geometry":{"x":178908.36000000127,"y":2565968.0299999993}},{"attributes":{"ID":112940,"DIS_CODE":0,"TOWNNAME":"新化區","LI":"\u25A0拔里","LIN":"1鄰","STREET":" ","SECT":" ","MAREA":"\u25A0拔林","LANE":" ","ALLEY":" ","HOUSE_NO":"１２號之８","E_COORD97":183017.92999999999,"N_COORD97":2551865.2599999998,"ADDRESS":"\u25A0拔林１２號之８","OBJECTID":112940},"geometry":{"x":183017.93000000063,"y":2551865.2600000016}},{"attributes":{"ID":112941,"DIS_CODE":0,"TOWNNAME":"官田區","LI":"隆田里","LIN":"28鄰","STREET":"中山路","SECT":"二段","MAREA":" ","LANE":"８５巷","ALLEY":"２弄","HOUSE_NO":"８號","E_COORD97":178919.92000000001,"N_COORD97":2565980.6800000002,"ADDRESS":"中山路二段８５巷２弄８號","OBJECTID":112941},"geometry":{"x":178919.91999999993,"y":2565980.6799999997}},{"attributes":{"ID":112942,"DIS_CODE":0,"TOWNNAME":"永康區","LI":"東灣里","LIN":"28鄰","STREET":"民族路","SECT":" ","MAREA":" ","LANE":"１８１巷","ALLEY":"１弄","HOUSE_NO":"１１號","E_COORD97":175266.60000000001,"N_COORD97":2544835.0899999999,"ADDRESS":"民族路１８１巷１弄１１號","OBJECTID":112942},"geometry":{"x":175266.60000000056,"y":2544835.0900000017}},{"attributes":{"ID":112943,"DIS_CODE":0,"TOWNNAME":"永康區","LI":"西灣里","LIN":"28鄰","STREET":"公園路","SECT":" ","MAREA":" ","LANE":"７巷","ALLEY":"３０弄","HOUSE_NO":"４２號","E_COORD97":174363.45000000001,"N_COORD97":2545907.25,"ADDRESS":"公園路７巷３０弄４２號","OBJECTID":112943},"geometry":{"x":174363.45000000019,"y":2545907.25}},{"attributes":{"ID":112944,"DIS_CODE":0,"TOWNNAME":"永康區","LI":"西灣里","LIN":"28鄰","STREET":"公園路","SECT":" ","MAREA":" ","LANE":"７巷","ALLEY":"３０弄","HOUSE_NO":"１３號","E_COORD97":174426.67999999999,"N_COORD97":2545905.5699999998,"ADDRESS":"公園路７巷３０弄１３號","OBJECTID":112944},"geometry":{"x":174426.68000000063,"y":2545905.5699999984}},{"attributes":{"ID":112945,"DIS_CODE":0,"TOWNNAME":"永康區","LI":"西勢里","LIN":"28鄰","STREET":"廣興街","SECT":" ","MAREA":" ","LANE":"３８巷","ALLEY":"３４弄","HOUSE_NO":"３３號","E_COORD97":176025.29999999999,"N_COORD97":2546358.73,"ADDRESS":"廣興街３８巷３４弄３３號","OBJECTID":112945},"geometry":{"x":176025.29999999981,"y":2546358.7300000004}},{"attributes":{"ID":112946,"DIS_CODE":0,"TOWNNAME":"永康區","LI":"西灣里","LIN":"28鄰","STREET":"公園路","SECT":" ","MAREA":" ","LANE":"７巷","ALLEY":"１０弄","HOUSE_NO":"２６號","E_COORD97":174416.39999999999,"N_COORD97":2545962.8399999999,"ADDRESS":"公園路７巷１０弄２６號","OBJECTID":112946},"geometry":{"x":174416.40000000037,"y":2545962.8399999999}},{"attributes":{"ID":112947,"DIS_CODE":0,"TOWNNAME":"永康區","LI":"西灣里","LIN":"28鄰","STREET":"公園路","SECT":" ","MAREA":" ","LANE":"７巷","ALLEY":"１０弄","HOUSE_NO":"１８號","E_COORD97":174433.62,"N_COORD97":2545965.7599999998,"ADDRESS":"公園路７巷１０弄１８號","OBJECTID":112947},"geometry":{"x":174433.62000000011,"y":2545965.7600000016}},{"attributes":{"ID":112948,"DIS_CODE":0,"TOWNNAME":"永康區","LI":"西灣里","LIN":"28鄰","STREET":"公園路","SECT":" ","MAREA":" ","LANE":"７巷","ALLEY":"３０弄","HOUSE_NO":"１２號","E_COORD97":174447.14999999999,"N_COORD97":2545926.73,"ADDRESS":"公園路７巷３０弄１２號","OBJECTID":112948},"geometry":{"x":174447.15000000037,"y":2545926.7300000023}},{"attributes":{"ID":112949,"DIS_CODE":0,"TOWNNAME":"東山區","LI":"大客里","LIN":"21鄰","STREET":" ","SECT":" ","MAREA":"凹子\u25A0","LANE":" ","ALLEY":" ","HOUSE_NO":"４１號之６","E_COORD97":190934.23999999999,"N_COORD97":2579721.52,"ADDRESS":"凹子\u25A0４１號之６","OBJECTID":112949},"geometry":{"x":190934.24000000209,"y":2579721.5200000014}},{"attributes":{"ID":112950,"DIS_CODE":0,"TOWNNAME":"東山區","LI":"大客里","LIN":"21鄰","STREET":" ","SECT":" ","MAREA":"凹子\u25A0","LANE":" ","ALLEY":" ","HOUSE_NO":"４１號之７","E_COORD97":190930.89999999999,"N_COORD97":2579748.0800000001,"ADDRESS":"凹子\u25A0４１號之７","OBJECTID":112950},"geometry":{"x":190930.90000000037,"y":2579748.0800000038}},{"attributes":{"ID":112951,"DIS_CODE":0,"TOWNNAME":"東山區","LI":"大客里","LIN":"21鄰","STREET":" ","SECT":" ","MAREA":"凹子\u25A0","LANE":" ","ALLEY":" ","HOUSE_NO":"４１之８號","E_COORD97":190918.20000000001,"N_COORD97":2579694.0499999998,"ADDRESS":"凹子\u25A0４１之８號","OBJECTID":112951},"geometry":{"x":190918.20000000112,"y":2579694.0500000007}},{"attributes":{"ID":112952,"DIS_CODE":0,"TOWNNAME":"東山區","LI":"大客里","LIN":"21鄰","STREET":" ","SECT":" ","MAREA":"凹子\u25A0","LANE":" ","ALLEY":" ","HOUSE_NO":"４１號之８","E_COORD97":190918.20000000001,"N_COORD97":2579694.0499999998,"ADDRESS":"凹子\u25A0４１號之８","OBJECTID":112952},"geometry":{"x":190918.20000000112,"y":2579694.0500000007}},{"attributes":{"ID":112953,"DIS_CODE":0,"TOWNNAME":"東山區","LI":"大客里","LIN":"21鄰","STREET":" ","SECT":" ","MAREA":"凹子\u25A0","LANE":" ","ALLEY":" ","HOUSE_NO":"４１號之９","E_COORD97":190924.29999999999,"N_COORD97":2579692.8999999999,"ADDRESS":"凹子\u25A0４１號之９","OBJECTID":112953},"geometry":{"x":190924.29999999981,"y":2579692.9000000022}},{"attributes":{"ID":112954,"DIS_CODE":0,"TOWNNAME":"東山區","LI":"大客里","LIN":"21鄰","STREET":" ","SECT":" ","MAREA":"凹子\u25A0","LANE":" ","ALLEY":" ","HOUSE_NO":"５６號之１","E_COORD97":190963.14000000001,"N_COORD97":2579801.5,"ADDRESS":"凹子\u25A0５６號之１","OBJECTID":112954},"geometry":{"x":190963.14000000153,"y":2579801.5}},{"attributes":{"ID":112955,"DIS_CODE":0,"TOWNNAME":"東山區","LI":"大客里","LIN":"21鄰","STREET":" ","SECT":" ","MAREA":"凹子\u25A0","LANE":" ","ALLEY":" ","HOUSE_NO":"５６號之２","E_COORD97":190926.19,"N_COORD97":2579791.1600000001,"ADDRESS":"凹子\u25A0５６號之２","OBJECTID":112955},"geometry":{"x":190926.18999999948,"y":2579791.1600000001}},{"attributes":{"ID":112956,"DIS_CODE":0,"TOWNNAME":"柳營區","LI":"光福里","LIN":"23鄰","STREET":" ","SECT":" ","MAREA":"柳營","LANE":" ","ALLEY":" ","HOUSE_NO":"２５６之３號","E_COORD97":179657.48999999999,"N_COORD97":2575356.7200000002,"ADDRESS":"柳營２５６之３號","OBJECTID":112956},"geometry":{"x":179657.49000000022,"y":2575356.7200000007}},{"attributes":{"ID":112957,"DIS_CODE":0,"TOWNNAME":"柳營區","LI":"光福里","LIN":"23鄰","STREET":" ","SECT":" ","MAREA":"柳營","LANE":" ","ALLEY":" ","HOUSE_NO":"２５６之４號","E_COORD97":179656.67999999999,"N_COORD97":2575360.5899999999,"ADDRESS":"柳營２５６之４號","OBJECTID":112957},"geometry":{"x":179656.68000000063,"y":2575360.589999998}},{"attributes":{"ID":112958,"DIS_CODE":0,"TOWNNAME":"柳營區","LI":"光福里","LIN":"23鄰","STREET":" ","SECT":" ","MAREA":"柳營","LANE":" ","ALLEY":" ","HOUSE_NO":"２５６之５號","E_COORD97":179655.87,"N_COORD97":2575364.4500000002,"ADDRESS":"柳營２５６之５號","OBJECTID":112958},"geometry":{"x":179655.87000000104,"y":2575364.450000003}},{"attributes":{"ID":112959,"DIS_CODE":0,"TOWNNAME":"柳營區","LI":"光福里","LIN":"23鄰","STREET":" ","SECT":" ","MAREA":"柳營","LANE":" ","ALLEY":" ","HOUSE_NO":"２５６之６號","E_COORD97":179655.06,"N_COORD97":2575368.3100000001,"ADDRESS":"柳營２５６之６號","OBJECTID":112959},"geometry":{"x":179655.06000000145,"y":2575368.3100000024}},{"attributes":{"ID":112960,"DIS_CODE":0,"TOWNNAME":"柳營區","LI":"光福里","LIN":"23鄰","STREET":" ","SECT":" ","MAREA":"柳營","LANE":" ","ALLEY":" ","HOUSE_NO":"２５６之７號","E_COORD97":179654.25,"N_COORD97":2575372.1800000002,"ADDRESS":"柳營２５６之７號","OBJECTID":112960},"geometry":{"x":179654.25000000186,"y":2575372.1799999997}},{"attributes":{"ID":112961,"DIS_CODE":0,"TOWNNAME":"柳營區","LI":"光福里","LIN":"23鄰","STREET":" ","SECT":" ","MAREA":"柳營","LANE":" ","ALLEY":" ","HOUSE_NO":"２５６之８號","E_COORD97":179653.44,"N_COORD97":2575376.04,"ADDRESS":"柳營２５６之８號","OBJECTID":112961},"geometry":{"x":179653.44000000134,"y":2575376.0399999991}},{"attributes":{"ID":112962,"DIS_CODE":0,"TOWNNAME":"柳營區","LI":"光福里","LIN":"23鄰","STREET":" ","SECT":" ","MAREA":"柳營","LANE":" ","ALLEY":" ","HOUSE_NO":"２５６之９號","E_COORD97":179652.63,"N_COORD97":2575379.9100000001,"ADDRESS":"柳營２５６之９號","OBJECTID":112962},"geometry":{"x":179652.62999999989,"y":2575379.910000002}},{"attributes":{"ID":112963,"DIS_CODE":0,"TOWNNAME":"柳營區","LI":"東昇里","LIN":"23鄰","STREET":" ","SECT":" ","MAREA":"柳營","LANE":" ","ALLEY":" ","HOUSE_NO":"４５３之３號","E_COORD97":180329.29999999999,"N_COORD97":2575475.9199999999,"ADDRESS":"柳營４５３之３號","OBJECTID":112963},"geometry":{"x":180329.29999999981,"y":2575475.9199999999}},{"attributes":{"ID":112964,"DIS_CODE":0,"TOWNNAME":"柳營區","LI":"東昇里","LIN":"23鄰","STREET":" ","SECT":" ","MAREA":"柳營","LANE":" ","ALLEY":" ","HOUSE_NO":"４５３之４號","E_COORD97":180344.75,"N_COORD97":2575478.73,"ADDRESS":"柳營４５３之４號","OBJECTID":112964},"geometry":{"x":180344.75000000093,"y":2575478.7300000004}},{"attributes":{"ID":112965,"DIS_CODE":0,"TOWNNAME":"柳營區","LI":"東昇里","LIN":"23鄰","STREET":" ","SECT":" ","MAREA":"柳營","LANE":" ","ALLEY":" ","HOUSE_NO":"４５３之５號","E_COORD97":180347.10000000001,"N_COORD97":2575460.4100000001,"ADDRESS":"柳營４５３之５號","OBJECTID":112965},"geometry":{"x":180347.10000000056,"y":2575460.4099999983}},{"attributes":{"ID":112966,"DIS_CODE":0,"TOWNNAME":"柳營區","LI":"東昇里","LIN":"23鄰","STREET":" ","SECT":" ","MAREA":"柳營","LANE":" ","ALLEY":" ","HOUSE_NO":"４５３號之５","E_COORD97":180347.10000000001,"N_COORD97":2575460.4100000001,"ADDRESS":"柳營４５３號之５","OBJECTID":112966},"geometry":{"x":180347.10000000056,"y":2575460.4099999983}},{"attributes":{"ID":112967,"DIS_CODE":0,"TOWNNAME":"柳營區","LI":"東昇里","LIN":"23鄰","STREET":" ","SECT":" ","MAREA":"柳營","LANE":" ","ALLEY":" ","HOUSE_NO":"４５９號之３１","E_COORD97":180344.09,"N_COORD97":2575416.1400000001,"ADDRESS":"柳營４５９號之３１","OBJECTID":112967},"geometry":{"x":180344.09000000078,"y":2575416.1400000025}},{"attributes":{"ID":112968,"DIS_CODE":0,"TOWNNAME":"永康區","LI":"西灣里","LIN":"28鄰","STREET":"公園路","SECT":" ","MAREA":" ","LANE":"７巷","ALLEY":"４４弄","HOUSE_NO":"１２號","E_COORD97":174413.38,"N_COORD97":2545868.6099999999,"ADDRESS":"公園路７巷４４弄１２號","OBJECTID":112968},"geometry":{"x":174413.38000000175,"y":2545868.6100000013}},{"attributes":{"ID":112969,"DIS_CODE":0,"TOWNNAME":"永康區","LI":"西灣里","LIN":"28鄰","STREET":"公園路","SECT":" ","MAREA":" ","LANE":"７巷","ALLEY":"３０弄","HOUSE_NO":"８號","E_COORD97":174455.07000000001,"N_COORD97":2545928.23,"ADDRESS":"公園路７巷３０弄８號","OBJECTID":112969},"geometry":{"x":174455.07000000123,"y":2545928.2300000004}},{"attributes":{"ID":112970,"DIS_CODE":0,"TOWNNAME":"永康區","LI":"西灣里","LIN":"28鄰","STREET":"公園路","SECT":" ","MAREA":" ","LANE":"７巷","ALLEY":"３０弄","HOUSE_NO":"３３號","E_COORD97":174386.98999999999,"N_COORD97":2545900.4700000002,"ADDRESS":"公園路７巷３０弄３３號","OBJECTID":112970},"geometry":{"x":174386.99000000022,"y":2545900.4700000025}},{"attributes":{"ID":112971,"DIS_CODE":0,"TOWNNAME":"永康區","LI":"西灣里","LIN":"28鄰","STREET":"公園路","SECT":" ","MAREA":" ","LANE":"７巷","ALLEY":"１０弄","HOUSE_NO":"１號","E_COORD97":174470.73000000001,"N_COORD97":2545958.3799999999,"ADDRESS":"公園路７巷１０弄１號","OBJECTID":112971},"geometry":{"x":174470.72999999952,"y":2545958.379999999}},{"attributes":{"ID":112972,"DIS_CODE":0,"TOWNNAME":"永康區","LI":"西灣里","LIN":"28鄰","STREET":"公園路","SECT":" ","MAREA":" ","LANE":"７巷","ALLEY":"３０弄","HOUSE_NO":"１６號","E_COORD97":174432.38,"N_COORD97":2545922.1099999999,"ADDRESS":"公園路７巷３０弄１６號","OBJECTID":112972},"geometry":{"x":174432.38000000082,"y":2545922.1100000013}},{"attributes":{"ID":112973,"DIS_CODE":0,"TOWNNAME":"永康區","LI":"尚頂里","LIN":"28鄰","STREET":"南台街","SECT":" ","MAREA":" ","LANE":"５４巷","ALLEY":"４１弄","HOUSE_NO":"３４號","E_COORD97":170263.20999999999,"N_COORD97":2547056.75,"ADDRESS":"南台街５４巷４１弄３４號","OBJECTID":112973},"geometry":{"x":170263.21000000089,"y":2547056.7499999981}},{"attributes":{"ID":112974,"DIS_CODE":0,"TOWNNAME":"永康區","LI":"尚頂里","LIN":"28鄰","STREET":"南台街","SECT":" ","MAREA":" ","LANE":"５４巷","ALLEY":"４１弄","HOUSE_NO":"４６號","E_COORD97":170302.85000000001,"N_COORD97":2547075,"ADDRESS":"南台街５４巷４１弄４６號","OBJECTID":112974},"geometry":{"x":170302.85000000056,"y":2547075}},{"attributes":{"ID":112975,"DIS_CODE":0,"TOWNNAME":"永康區","LI":"尚頂里","LIN":"28鄰","STREET":"南台街","SECT":" ","MAREA":" ","LANE":"５４巷","ALLEY":"４１弄","HOUSE_NO":"４０號","E_COORD97":170277.01000000001,"N_COORD97":2547076,"ADDRESS":"南台街５４巷４１弄４０號","OBJECTID":112975},"geometry":{"x":170277.00999999978,"y":2547076.0000000019}},{"attributes":{"ID":112976,"DIS_CODE":0,"TOWNNAME":"永康區","LI":"尚頂里","LIN":"28鄰","STREET":"南台街","SECT":" ","MAREA":" ","LANE":"５４巷","ALLEY":"４１弄","HOUSE_NO":"３８號","E_COORD97":170262.56,"N_COORD97":2547073.75,"ADDRESS":"南台街５４巷４１弄３８號","OBJECTID":112976},"geometry":{"x":170262.56000000052,"y":2547073.7499999981}},{"attributes":{"ID":112977,"DIS_CODE":0,"TOWNNAME":"永康區","LI":"尚頂里","LIN":"28鄰","STREET":"南台街","SECT":" ","MAREA":" ","LANE":"５４巷","ALLEY":"４１弄","HOUSE_NO":"１８號","E_COORD97":170239.47,"N_COORD97":2547089.7400000002,"ADDRESS":"南台街５４巷４１弄１８號","OBJECTID":112977},"geometry":{"x":170239.47000000067,"y":2547089.7400000002}},{"attributes":{"ID":112978,"DIS_CODE":0,"TOWNNAME":"永康區","LI":"尚頂里","LIN":"28鄰","STREET":"南台街","SECT":" ","MAREA":" ","LANE":"５４巷","ALLEY":"４１弄","HOUSE_NO":"１７號之１","E_COORD97":170238.03,"N_COORD97":2547101.54,"ADDRESS":"南台街５４巷４１弄１７號之１","OBJECTID":112978},"geometry":{"x":170238.03000000119,"y":2547101.5400000028}},{"attributes":{"ID":112979,"DIS_CODE":0,"TOWNNAME":"鹽水區","LI":"下林里","LIN":"3鄰","STREET":" ","SECT":" ","MAREA":"下林","LANE":" ","ALLEY":" ","HOUSE_NO":"１０號","E_COORD97":173239.42999999999,"N_COORD97":2573374.3999999999,"ADDRESS":"下林１０號","OBJECTID":112979},"geometry":{"x":173239.4299999997,"y":2573374.4000000004}},{"attributes":{"ID":112980,"DIS_CODE":0,"TOWNNAME":"柳營區","LI":"東昇里","LIN":"23鄰","STREET":" ","SECT":" ","MAREA":"柳營","LANE":" ","ALLEY":" ","HOUSE_NO":"４５９之３２號","E_COORD97":180348.54999999999,"N_COORD97":2575416.1299999999,"ADDRESS":"柳營４５９之３２號","OBJECTID":112980},"geometry":{"x":180348.54999999888,"y":2575416.129999999}},{"attributes":{"ID":112981,"DIS_CODE":0,"TOWNNAME":"歸仁區","LI":"歸南里","LIN":"8鄰","STREET":"中正十六街","SECT":" ","MAREA":" ","LANE":" ","ALLEY":" ","HOUSE_NO":"７號","E_COORD97":176527.81,"N_COORD97":2539853.9500000002,"ADDRESS":"中正十六街７號","OBJECTID":112981},"geometry":{"x":176527.81000000052,"y":2539853.9500000011}},{"attributes":{"ID":112982,"DIS_CODE":0,"TOWNNAME":"柳營區","LI":"東昇里","LIN":"23鄰","STREET":" ","SECT":" ","MAREA":"柳營","LANE":" ","ALLEY":" ","HOUSE_NO":"４５９號之３３","E_COORD97":180353.59,"N_COORD97":2575416.7400000002,"ADDRESS":"柳營４５９號之３３","OBJECTID":112982},"geometry":{"x":180353.59000000171,"y":2575416.7400000002}},{"attributes":{"ID":112983,"DIS_CODE":0,"TOWNNAME":"歸仁區","LI":"歸仁里","LIN":"8鄰","STREET":"大通一街","SECT":" ","MAREA":" ","LANE":" ","ALLEY":" ","HOUSE_NO":"６９號","E_COORD97":177876.31,"N_COORD97":2540939.4900000002,"ADDRESS":"大通一街６９號","OBJECTID":112983},"geometry":{"x":177876.30999999959,"y":2540939.4900000039}},{"attributes":{"ID":112984,"DIS_CODE":0,"TOWNNAME":"歸仁區","LI":"歸仁里","LIN":"8鄰","STREET":"和平北街","SECT":" ","MAREA":" ","LANE":" ","ALLEY":" ","HOUSE_NO":"２０號","E_COORD97":177849.59,"N_COORD97":2540844.1699999999,"ADDRESS":"和平北街２０號","OBJECTID":112984},"geometry":{"x":177849.58999999892,"y":2540844.1700000018}},{"attributes":{"ID":112985,"DIS_CODE":0,"TOWNNAME":"歸仁區","LI":"新厝里","LIN":"8鄰","STREET":"中正三街","SECT":" ","MAREA":" ","LANE":" ","ALLEY":" ","HOUSE_NO":"６６號","E_COORD97":177769.5,"N_COORD97":2540554.27,"ADDRESS":"中正三街６６號","OBJECTID":112985},"geometry":{"x":177769.50000000093,"y":2540554.2700000014}},{"attributes":{"ID":112986,"DIS_CODE":0,"TOWNNAME":"歸仁區","LI":"歸仁里","LIN":"8鄰","STREET":"大通一街","SECT":" ","MAREA":" ","LANE":" ","ALLEY":" ","HOUSE_NO":"８９號","E_COORD97":177884.60999999999,"N_COORD97":2540965.4900000002,"ADDRESS":"大通一街８９號","OBJECTID":112986},"geometry":{"x":177884.61000000127,"y":2540965.4900000002}},{"attributes":{"ID":112987,"DIS_CODE":0,"TOWNNAME":"歸仁區","LI":"歸仁里","LIN":"8鄰","STREET":"大通一街","SECT":" ","MAREA":" ","LANE":" ","ALLEY":" ","HOUSE_NO":"１２５號","E_COORD97":177902.32000000001,"N_COORD97":2541007.9199999999,"ADDRESS":"大通一街１２５號","OBJECTID":112987},"geometry":{"x":177902.3200000003,"y":2541007.9200000018}},{"attributes":{"ID":112988,"DIS_CODE":0,"TOWNNAME":"歸仁區","LI":"媽廟里","LIN":"8鄰","STREET":"和順路","SECT":"一段","MAREA":" ","LANE":" ","ALLEY":" ","HOUSE_NO":"６４號","E_COORD97":177355.57000000001,"N_COORD97":2543714.7200000002,"ADDRESS":"和順路一段６４號","OBJECTID":112988},"geometry":{"x":177355.57000000123,"y":2543714.7199999988}},{"attributes":{"ID":112989,"DIS_CODE":0,"TOWNNAME":"歸仁區","LI":"新厝里","LIN":"8鄰","STREET":"中正三街","SECT":" ","MAREA":" ","LANE":" ","ALLEY":" ","HOUSE_NO":"７２號","E_COORD97":177781.79999999999,"N_COORD97":2540553.27,"ADDRESS":"中正三街７２號","OBJECTID":112989},"geometry":{"x":177781.79999999981,"y":2540553.2699999996}},{"attributes":{"ID":112990,"DIS_CODE":0,"TOWNNAME":"歸仁區","LI":"媽廟里","LIN":"8鄰","STREET":"和順路","SECT":"一段","MAREA":" ","LANE":" ","ALLEY":" ","HOUSE_NO":"２６號","E_COORD97":177456.07000000001,"N_COORD97":2543719.7200000002,"ADDRESS":"和順路一段２６號","OBJECTID":112990},"geometry":{"x":177456.07000000123,"y":2543719.7200000025}},{"attributes":{"ID":112991,"DIS_CODE":0,"TOWNNAME":"歸仁區","LI":"媽廟里","LIN":"8鄰","STREET":"和順路","SECT":"一段","MAREA":" ","LANE":" ","ALLEY":" ","HOUSE_NO":"４２號","E_COORD97":177422.26999999999,"N_COORD97":2543720.7200000002,"ADDRESS":"和順路一段４２號","OBJECTID":112991},"geometry":{"x":177422.26999999955,"y":2543720.7200000007}},{"attributes":{"ID":112992,"DIS_CODE":0,"TOWNNAME":"歸仁區","LI":"歸仁里","LIN":"8鄰","STREET":"和平北街","SECT":" ","MAREA":" ","LANE":" ","ALLEY":" ","HOUSE_NO":"２６號","E_COORD97":177850.69,"N_COORD97":2540856.1699999999,"ADDRESS":"和平北街２６號","OBJECTID":112992},"geometry":{"x":177850.69000000041,"y":2540856.1699999981}},{"attributes":{"ID":112993,"DIS_CODE":0,"TOWNNAME":"歸仁區","LI":"媽廟里","LIN":"8鄰","STREET":"和順路","SECT":"一段","MAREA":" ","LANE":" ","ALLEY":" ","HOUSE_NO":"５６號","E_COORD97":177374.07000000001,"N_COORD97":2543716.7200000002,"ADDRESS":"和順路一段５６號","OBJECTID":112993},"geometry":{"x":177374.07000000216,"y":2543716.7200000007}},{"attributes":{"ID":112994,"DIS_CODE":0,"TOWNNAME":"新化區","LI":"全興里","LIN":"1鄰","STREET":" ","SECT":" ","MAREA":"竹子\u25A0","LANE":" ","ALLEY":" ","HOUSE_NO":"１０號之１","E_COORD97":177721.20999999999,"N_COORD97":2547806.2599999998,"ADDRESS":"竹子\u25A0１０號之１","OBJECTID":112994},"geometry":{"x":177721.20999999996,"y":2547806.2600000016}},{"attributes":{"ID":112995,"DIS_CODE":0,"TOWNNAME":"新化區","LI":"全興里","LIN":"1鄰","STREET":" ","SECT":" ","MAREA":"竹子\u25A0","LANE":" ","ALLEY":" ","HOUSE_NO":"１４號之１","E_COORD97":177653.20999999999,"N_COORD97":2547868.2599999998,"ADDRESS":"竹子\u25A0１４號之１","OBJECTID":112995},"geometry":{"x":177653.20999999996,"y":2547868.2600000016}},{"attributes":{"ID":112996,"DIS_CODE":0,"TOWNNAME":"安南區","LI":"新順里","LIN":"1鄰","STREET":"安豐五街","SECT":" ","MAREA":" ","LANE":" ","ALLEY":" ","HOUSE_NO":"９號","E_COORD97":169461.82000000001,"N_COORD97":2549719.2999999998,"ADDRESS":"安豐五街９號","OBJECTID":112996},"geometry":{"x":169461.8200000003,"y":2549719.3000000026}},{"attributes":{"ID":112997,"DIS_CODE":0,"TOWNNAME":"新化區","LI":"全興里","LIN":"1鄰","STREET":" ","SECT":" ","MAREA":"竹子\u25A0","LANE":" ","ALLEY":" ","HOUSE_NO":"１３號之３","E_COORD97":177661.13,"N_COORD97":2547868.2599999998,"ADDRESS":"竹子\u25A0１３號之３","OBJECTID":112997},"geometry":{"x":177661.12999999989,"y":2547868.2600000016}},{"attributes":{"ID":112998,"DIS_CODE":0,"TOWNNAME":"新化區","LI":"全興里","LIN":"1鄰","STREET":" ","SECT":" ","MAREA":"竹子\u25A0","LANE":" ","ALLEY":" ","HOUSE_NO":"１２號","E_COORD97":177689.98000000001,"N_COORD97":2547837.25,"ADDRESS":"竹子\u25A0１２號","OBJECTID":112998},"geometry":{"x":177689.98000000231,"y":2547837.2500000019}},{"attributes":{"ID":112999,"DIS_CODE":0,"TOWNNAME":"新化區","LI":"全興里","LIN":"1鄰","STREET":" ","SECT":" ","MAREA":"竹子\u25A0","LANE":" ","ALLEY":" ","HOUSE_NO":"２０號","E_COORD97":177690.78,"N_COORD97":2547800.25,"ADDRESS":"竹子\u25A0２０號","OBJECTID":112999},"geometry":{"x":177690.78000000026,"y":2547800.2500000019}},{"attributes":{"ID":113000,"DIS_CODE":0,"TOWNNAME":"新化區","LI":"全興里","LIN":"1鄰","STREET":" ","SECT":" ","MAREA":"竹子\u25A0","LANE":" ","ALLEY":" ","HOUSE_NO":"５號","E_COORD97":177709.53,"N_COORD97":2547838.25,"ADDRESS":"竹子\u25A0５號","OBJECTID":113000},"geometry":{"x":177709.53000000026,"y":2547838.2500000019}}]}