{"displayFieldName":"TOWNNAME","fieldAliases":{"ID":"ID","DIS_CODE":"DIS_CODE","TOWNNAME":"TOWNNAME","LI":"LI","LIN":"LIN","STREET":"STREET","SECT":"SECT","MAREA":"MAREA","LANE":"LANE","ALLEY":"ALLEY","HOUSE_NO":"HOUSE_NO","E_COORD97":"E_COORD97","N_COORD97":"N_COORD97","ADDRESS":"ADDRESS","OBJECTID":"OBJECTID"},"geometryType":"esriGeometryPoint","spatialReference":{"wkid":102443,"latestWkid":3826},"fields":[{"name":"ID","type":"esriFieldTypeDouble","alias":"ID"},{"name":"DIS_CODE","type":"esriFieldTypeInteger","alias":"DIS_CODE"},{"name":"TOWNNAME","type":"esriFieldTypeString","alias":"TOWNNAME","length":8},{"name":"LI","type":"esriFieldTypeString","alias":"LI","length":8},{"name":"LIN","type":"esriFieldTypeString","alias":"LIN","length":12},{"name":"STREET","type":"esriFieldTypeString","alias":"STREET","length":20},{"name":"SECT","type":"esriFieldTypeString","alias":"SECT","length":8},{"name":"MAREA","type":"esriFieldTypeString","alias":"MAREA","length":12},{"name":"LANE","type":"esriFieldTypeString","alias":"LANE","length":10},{"name":"ALLEY","type":"esriFieldTypeString","alias":"ALLEY","length":10},{"name":"HOUSE_NO","type":"esriFieldTypeString","alias":"HOUSE_NO","length":20},{"name":"E_COORD97","type":"esriFieldTypeDouble","alias":"E_COORD97"},{"name":"N_COORD97","type":"esriFieldTypeDouble","alias":"N_COORD97"},{"name":"ADDRESS","type":"esriFieldTypeString","alias":"ADDRESS","length":50},{"name":"OBJECTID","type":"esriFieldTypeOID","alias":"OBJECTID"}],"features":[{"attributes":{"ID":451826,"DIS_CODE":0,"TOWNNAME":"中西區","LI":"仙草里","LIN":"20鄰","STREET":"健康路","SECT":"一段","MAREA":" ","LANE":"３９０巷","ALLEY":" ","HOUSE_NO":"７７號四樓之４","E_COORD97":167839.76000000001,"N_COORD97":2542565.8700000001,"ADDRESS":"健康路一段３９０巷７７號四樓之４","OBJECTID":451801},"geometry":{"x":167839.75999999978,"y":2542565.8700000029}},{"attributes":{"ID":451827,"DIS_CODE":0,"TOWNNAME":"中西區","LI":"仙草里","LIN":"20鄰","STREET":"健康路","SECT":"一段","MAREA":" ","LANE":"３９０巷","ALLEY":" ","HOUSE_NO":"７７號四樓之５","E_COORD97":167839.76000000001,"N_COORD97":2542565.8700000001,"ADDRESS":"健康路一段３９０巷７７號四樓之５","OBJECTID":451802},"geometry":{"x":167839.75999999978,"y":2542565.8700000029}},{"attributes":{"ID":451828,"DIS_CODE":0,"TOWNNAME":"中西區","LI":"仙草里","LIN":"20鄰","STREET":"健康路","SECT":"一段","MAREA":" ","LANE":"３９０巷","ALLEY":" ","HOUSE_NO":"７７號四樓之６","E_COORD97":167839.76000000001,"N_COORD97":2542565.8700000001,"ADDRESS":"健康路一段３９０巷７７號四樓之６","OBJECTID":451803},"geometry":{"x":167839.75999999978,"y":2542565.8700000029}},{"attributes":{"ID":451829,"DIS_CODE":0,"TOWNNAME":"佳里區","LI":"鎮山里","LIN":"20鄰","STREET":"鎮山街","SECT":" ","MAREA":" ","LANE":"１６０巷","ALLEY":" ","HOUSE_NO":"４８號","E_COORD97":166152.59,"N_COORD97":2560960.98,"ADDRESS":"鎮山街１６０巷４８號","OBJECTID":451804},"geometry":{"x":166152.58999999985,"y":2560960.9800000023}},{"attributes":{"ID":451830,"DIS_CODE":0,"TOWNNAME":"永康區","LI":"網寮里","LIN":"20鄰","STREET":"文化路","SECT":" ","MAREA":" ","LANE":"３２３巷","ALLEY":" ","HOUSE_NO":"１號二樓","E_COORD97":173430.29999999999,"N_COORD97":2546130.1099999999,"ADDRESS":"文化路３２３巷１號二樓","OBJECTID":451805},"geometry":{"x":173430.29999999981,"y":2546130.1099999994}},{"attributes":{"ID":451831,"DIS_CODE":0,"TOWNNAME":"北區","LI":"永祥里","LIN":"8鄰","STREET":"實踐街","SECT":" ","MAREA":" ","LANE":"７１巷","ALLEY":" ","HOUSE_NO":"２１號","E_COORD97":169960.59,"N_COORD97":2546089.2799999998,"ADDRESS":"實踐街７１巷２１號","OBJECTID":451806},"geometry":{"x":169960.59000000078,"y":2546089.2799999993}},{"attributes":{"ID":451832,"DIS_CODE":0,"TOWNNAME":"佳里區","LI":"鎮山里","LIN":"20鄰","STREET":"鎮山街","SECT":" ","MAREA":" ","LANE":"１６０巷","ALLEY":" ","HOUSE_NO":"４９號","E_COORD97":166148.87,"N_COORD97":2560941.5299999998,"ADDRESS":"鎮山街１６０巷４９號","OBJECTID":451807},"geometry":{"x":166148.87000000011,"y":2560941.5300000031}},{"attributes":{"ID":451833,"DIS_CODE":0,"TOWNNAME":"永康區","LI":"網寮里","LIN":"20鄰","STREET":"永二街","SECT":" ","MAREA":" ","LANE":"２４５巷","ALLEY":" ","HOUSE_NO":"２７號之６七樓","E_COORD97":173349.64000000001,"N_COORD97":2546117.2400000002,"ADDRESS":"永二街２４５巷２７號之６七樓","OBJECTID":451808},"geometry":{"x":173349.63999999966,"y":2546117.2400000002}},{"attributes":{"ID":451834,"DIS_CODE":0,"TOWNNAME":"永康區","LI":"網寮里","LIN":"20鄰","STREET":"永二街","SECT":" ","MAREA":" ","LANE":"２４５巷","ALLEY":" ","HOUSE_NO":"２７號之７五樓","E_COORD97":173341.14999999999,"N_COORD97":2546120.3799999999,"ADDRESS":"永二街２４５巷２７號之７五樓","OBJECTID":451809},"geometry":{"x":173341.1500000013,"y":2546120.3800000008}},{"attributes":{"ID":451835,"DIS_CODE":0,"TOWNNAME":"永康區","LI":"網寮里","LIN":"20鄰","STREET":"永二街","SECT":" ","MAREA":" ","LANE":"２４５巷","ALLEY":" ","HOUSE_NO":"２７號之３六樓","E_COORD97":173337.70000000001,"N_COORD97":2546133.6200000001,"ADDRESS":"永二街２４５巷２７號之３六樓","OBJECTID":451810},"geometry":{"x":173337.70000000019,"y":2546133.6200000048}},{"attributes":{"ID":451836,"DIS_CODE":0,"TOWNNAME":"永康區","LI":"網寮里","LIN":"20鄰","STREET":"永二街","SECT":" ","MAREA":" ","LANE":"２４５巷","ALLEY":" ","HOUSE_NO":"２７號之３二樓","E_COORD97":173337.70000000001,"N_COORD97":2546133.6200000001,"ADDRESS":"永二街２４５巷２７號之３二樓","OBJECTID":451811},"geometry":{"x":173337.70000000019,"y":2546133.6200000048}},{"attributes":{"ID":451837,"DIS_CODE":0,"TOWNNAME":"永康區","LI":"網寮里","LIN":"20鄰","STREET":"永二街","SECT":" ","MAREA":" ","LANE":"２４５巷","ALLEY":" ","HOUSE_NO":"２７號之１二樓","E_COORD97":173321.64000000001,"N_COORD97":2546140.1200000001,"ADDRESS":"永二街２４５巷２７號之１二樓","OBJECTID":451812},"geometry":{"x":173321.6400000006,"y":2546140.1200000048}},{"attributes":{"ID":451838,"DIS_CODE":0,"TOWNNAME":"六甲區","LI":"二甲里","LIN":"26鄰","STREET":"中華路","SECT":" ","MAREA":" ","LANE":"１３４巷","ALLEY":" ","HOUSE_NO":"９號","E_COORD97":183135.56,"N_COORD97":2569320.5099999998,"ADDRESS":"中華路１３４巷９號","OBJECTID":451813},"geometry":{"x":183135.56000000052,"y":2569320.5100000016}},{"attributes":{"ID":451839,"DIS_CODE":0,"TOWNNAME":"永康區","LI":"網寮里","LIN":"20鄰","STREET":"永二街","SECT":" ","MAREA":" ","LANE":"２４５巷","ALLEY":" ","HOUSE_NO":"２７號之５四樓","E_COORD97":173353.69,"N_COORD97":2546127.6200000001,"ADDRESS":"永二街２４５巷２７號之５四樓","OBJECTID":451814},"geometry":{"x":173353.69000000041,"y":2546127.6200000029}},{"attributes":{"ID":451840,"DIS_CODE":0,"TOWNNAME":"永康區","LI":"網寮里","LIN":"20鄰","STREET":"永二街","SECT":" ","MAREA":" ","LANE":"２４５巷","ALLEY":" ","HOUSE_NO":"２７號之６三樓","E_COORD97":173349.64000000001,"N_COORD97":2546117.2400000002,"ADDRESS":"永二街２４５巷２７號之６三樓","OBJECTID":451815},"geometry":{"x":173349.63999999966,"y":2546117.2400000002}},{"attributes":{"ID":451841,"DIS_CODE":0,"TOWNNAME":"永康區","LI":"\u25A0行里","LIN":"20鄰","STREET":"正南五街","SECT":" ","MAREA":" ","LANE":"２８９巷","ALLEY":" ","HOUSE_NO":"７２號七樓","E_COORD97":171788.73000000001,"N_COORD97":2548315.6200000001,"ADDRESS":"正南五街２８９巷７２號七樓","OBJECTID":451816},"geometry":{"x":171788.73000000045,"y":2548315.620000001}},{"attributes":{"ID":451842,"DIS_CODE":0,"TOWNNAME":"東區","LI":"莊敬里","LIN":"20鄰","STREET":"東光路","SECT":"二段","MAREA":" ","LANE":"３６巷","ALLEY":" ","HOUSE_NO":"２號四樓","E_COORD97":171238.17000000001,"N_COORD97":2544046.48,"ADDRESS":"東光路二段３６巷２號四樓","OBJECTID":451817},"geometry":{"x":171238.17000000086,"y":2544046.4800000023}},{"attributes":{"ID":451843,"DIS_CODE":0,"TOWNNAME":"東區","LI":"莊敬里","LIN":"20鄰","STREET":"東光路","SECT":"二段","MAREA":" ","LANE":"３６巷","ALLEY":" ","HOUSE_NO":"４號二樓","E_COORD97":171245.41,"N_COORD97":2544046.04,"ADDRESS":"東光路二段３６巷４號二樓","OBJECTID":451818},"geometry":{"x":171245.41000000108,"y":2544046.0399999991}},{"attributes":{"ID":451844,"DIS_CODE":0,"TOWNNAME":"東區","LI":"莊敬里","LIN":"20鄰","STREET":"東光路","SECT":"二段","MAREA":" ","LANE":"３６巷","ALLEY":" ","HOUSE_NO":"４號三樓","E_COORD97":171245.41,"N_COORD97":2544046.04,"ADDRESS":"東光路二段３６巷４號三樓","OBJECTID":451819},"geometry":{"x":171245.41000000108,"y":2544046.0399999991}},{"attributes":{"ID":451845,"DIS_CODE":0,"TOWNNAME":"東區","LI":"莊敬里","LIN":"20鄰","STREET":"東光路","SECT":"二段","MAREA":" ","LANE":"３６巷","ALLEY":" ","HOUSE_NO":"４號四樓","E_COORD97":171245.41,"N_COORD97":2544046.04,"ADDRESS":"東光路二段３６巷４號四樓","OBJECTID":451820},"geometry":{"x":171245.41000000108,"y":2544046.0399999991}},{"attributes":{"ID":451846,"DIS_CODE":0,"TOWNNAME":"東區","LI":"莊敬里","LIN":"20鄰","STREET":"東光路","SECT":"二段","MAREA":" ","LANE":"３６巷","ALLEY":" ","HOUSE_NO":"６號二樓","E_COORD97":171250.92999999999,"N_COORD97":2544045.5899999999,"ADDRESS":"東光路二段３６巷６號二樓","OBJECTID":451821},"geometry":{"x":171250.9299999997,"y":2544045.5899999999}},{"attributes":{"ID":451847,"DIS_CODE":0,"TOWNNAME":"東區","LI":"莊敬里","LIN":"20鄰","STREET":"東光路","SECT":"二段","MAREA":" ","LANE":"３６巷","ALLEY":" ","HOUSE_NO":"６號三樓","E_COORD97":171250.92999999999,"N_COORD97":2544045.5899999999,"ADDRESS":"東光路二段３６巷６號三樓","OBJECTID":451822},"geometry":{"x":171250.9299999997,"y":2544045.5899999999}},{"attributes":{"ID":451848,"DIS_CODE":0,"TOWNNAME":"東區","LI":"莊敬里","LIN":"20鄰","STREET":"東光路","SECT":"二段","MAREA":" ","LANE":"３６巷","ALLEY":" ","HOUSE_NO":"６號四樓","E_COORD97":171250.92999999999,"N_COORD97":2544045.5899999999,"ADDRESS":"東光路二段３６巷６號四樓","OBJECTID":451823},"geometry":{"x":171250.9299999997,"y":2544045.5899999999}},{"attributes":{"ID":451849,"DIS_CODE":0,"TOWNNAME":"東區","LI":"莊敬里","LIN":"20鄰","STREET":"東光路","SECT":"二段","MAREA":" ","LANE":"３６巷","ALLEY":" ","HOUSE_NO":"８號二樓","E_COORD97":171258.23000000001,"N_COORD97":2544045.1499999999,"ADDRESS":"東光路二段３６巷８號二樓","OBJECTID":451824},"geometry":{"x":171258.23000000045,"y":2544045.1500000022}},{"attributes":{"ID":451850,"DIS_CODE":0,"TOWNNAME":"東區","LI":"莊敬里","LIN":"20鄰","STREET":"東光路","SECT":"二段","MAREA":" ","LANE":"３６巷","ALLEY":" ","HOUSE_NO":"８號三樓","E_COORD97":171258.23000000001,"N_COORD97":2544045.1499999999,"ADDRESS":"東光路二段３６巷８號三樓","OBJECTID":451825},"geometry":{"x":171258.23000000045,"y":2544045.1500000022}},{"attributes":{"ID":451851,"DIS_CODE":0,"TOWNNAME":"東區","LI":"莊敬里","LIN":"20鄰","STREET":"東光路","SECT":"二段","MAREA":" ","LANE":"３６巷","ALLEY":" ","HOUSE_NO":"８號四樓","E_COORD97":171258.23000000001,"N_COORD97":2544045.1499999999,"ADDRESS":"東光路二段３６巷８號四樓","OBJECTID":451826},"geometry":{"x":171258.23000000045,"y":2544045.1500000022}},{"attributes":{"ID":451852,"DIS_CODE":0,"TOWNNAME":"永康區","LI":"網寮里","LIN":"20鄰","STREET":"永二街","SECT":" ","MAREA":" ","LANE":"２４５巷","ALLEY":" ","HOUSE_NO":"２７號之１四樓","E_COORD97":173321.64000000001,"N_COORD97":2546140.1200000001,"ADDRESS":"永二街２４５巷２７號之１四樓","OBJECTID":451827},"geometry":{"x":173321.6400000006,"y":2546140.1200000048}},{"attributes":{"ID":451853,"DIS_CODE":0,"TOWNNAME":"中西區","LI":"法華里","LIN":"20鄰","STREET":"健康路","SECT":"一段","MAREA":" ","LANE":"１６０巷","ALLEY":" ","HOUSE_NO":"１３號三樓","E_COORD97":168734.94,"N_COORD97":2542514.2000000002,"ADDRESS":"健康路一段１６０巷１３號三樓","OBJECTID":451828},"geometry":{"x":168734.94000000134,"y":2542514.2000000011}},{"attributes":{"ID":451854,"DIS_CODE":0,"TOWNNAME":"中西區","LI":"法華里","LIN":"20鄰","STREET":"健康路","SECT":"一段","MAREA":" ","LANE":"１６０巷","ALLEY":" ","HOUSE_NO":"１３號五樓","E_COORD97":168734.94,"N_COORD97":2542514.2000000002,"ADDRESS":"健康路一段１６０巷１３號五樓","OBJECTID":451829},"geometry":{"x":168734.94000000134,"y":2542514.2000000011}},{"attributes":{"ID":451855,"DIS_CODE":0,"TOWNNAME":"中西區","LI":"法華里","LIN":"20鄰","STREET":"健康路","SECT":"一段","MAREA":" ","LANE":"１６０巷","ALLEY":" ","HOUSE_NO":"１３號四樓","E_COORD97":168734.94,"N_COORD97":2542514.2000000002,"ADDRESS":"健康路一段１６０巷１３號四樓","OBJECTID":451830},"geometry":{"x":168734.94000000134,"y":2542514.2000000011}},{"attributes":{"ID":451856,"DIS_CODE":0,"TOWNNAME":"中西區","LI":"法華里","LIN":"20鄰","STREET":"健康路","SECT":"一段","MAREA":" ","LANE":"１７０巷","ALLEY":" ","HOUSE_NO":"２號一樓","E_COORD97":168719.62,"N_COORD97":2542459.54,"ADDRESS":"健康路一段１７０巷２號一樓","OBJECTID":451831},"geometry":{"x":168719.62000000104,"y":2542459.5399999991}},{"attributes":{"ID":451857,"DIS_CODE":0,"TOWNNAME":"中西區","LI":"法華里","LIN":"20鄰","STREET":"健康路","SECT":"一段","MAREA":" ","LANE":"１７０巷","ALLEY":" ","HOUSE_NO":"２號二樓之１","E_COORD97":168719.19,"N_COORD97":2542471.0800000001,"ADDRESS":"健康路一段１７０巷２號二樓之１","OBJECTID":451832},"geometry":{"x":168719.18999999948,"y":2542471.0800000038}},{"attributes":{"ID":451858,"DIS_CODE":0,"TOWNNAME":"中西區","LI":"法華里","LIN":"20鄰","STREET":"健康路","SECT":"一段","MAREA":" ","LANE":"１７０巷","ALLEY":" ","HOUSE_NO":"２號二樓之２","E_COORD97":168719.19,"N_COORD97":2542471.0800000001,"ADDRESS":"健康路一段１７０巷２號二樓之２","OBJECTID":451833},"geometry":{"x":168719.18999999948,"y":2542471.0800000038}},{"attributes":{"ID":451859,"DIS_CODE":0,"TOWNNAME":"中西區","LI":"法華里","LIN":"20鄰","STREET":"健康路","SECT":"一段","MAREA":" ","LANE":"１７０巷","ALLEY":" ","HOUSE_NO":"２號二樓之３","E_COORD97":168720.31,"N_COORD97":2542450.5699999998,"ADDRESS":"健康路一段１７０巷２號二樓之３","OBJECTID":451834},"geometry":{"x":168720.30999999959,"y":2542450.5700000003}},{"attributes":{"ID":451860,"DIS_CODE":0,"TOWNNAME":"中西區","LI":"法華里","LIN":"20鄰","STREET":"健康路","SECT":"一段","MAREA":" ","LANE":"１７０巷","ALLEY":" ","HOUSE_NO":"２號二樓之４","E_COORD97":168720.31,"N_COORD97":2542450.5699999998,"ADDRESS":"健康路一段１７０巷２號二樓之４","OBJECTID":451835},"geometry":{"x":168720.30999999959,"y":2542450.5700000003}},{"attributes":{"ID":451861,"DIS_CODE":0,"TOWNNAME":"中西區","LI":"法華里","LIN":"20鄰","STREET":"健康路","SECT":"一段","MAREA":" ","LANE":"１７０巷","ALLEY":" ","HOUSE_NO":"２號三樓之１","E_COORD97":168719.19,"N_COORD97":2542471.0800000001,"ADDRESS":"健康路一段１７０巷２號三樓之１","OBJECTID":451836},"geometry":{"x":168719.18999999948,"y":2542471.0800000038}},{"attributes":{"ID":451862,"DIS_CODE":0,"TOWNNAME":"中西區","LI":"法華里","LIN":"20鄰","STREET":"健康路","SECT":"一段","MAREA":" ","LANE":"１７０巷","ALLEY":" ","HOUSE_NO":"２號三樓之２","E_COORD97":168719.19,"N_COORD97":2542471.0800000001,"ADDRESS":"健康路一段１７０巷２號三樓之２","OBJECTID":451837},"geometry":{"x":168719.18999999948,"y":2542471.0800000038}},{"attributes":{"ID":451863,"DIS_CODE":0,"TOWNNAME":"中西區","LI":"法華里","LIN":"20鄰","STREET":"健康路","SECT":"一段","MAREA":" ","LANE":"１７０巷","ALLEY":" ","HOUSE_NO":"２號三樓之３","E_COORD97":168720.31,"N_COORD97":2542450.5699999998,"ADDRESS":"健康路一段１７０巷２號三樓之３","OBJECTID":451838},"geometry":{"x":168720.30999999959,"y":2542450.5700000003}},{"attributes":{"ID":451864,"DIS_CODE":0,"TOWNNAME":"中西區","LI":"法華里","LIN":"20鄰","STREET":"健康路","SECT":"一段","MAREA":" ","LANE":"１７０巷","ALLEY":" ","HOUSE_NO":"２號三樓之４","E_COORD97":168720.31,"N_COORD97":2542450.5699999998,"ADDRESS":"健康路一段１７０巷２號三樓之４","OBJECTID":451839},"geometry":{"x":168720.30999999959,"y":2542450.5700000003}},{"attributes":{"ID":451865,"DIS_CODE":0,"TOWNNAME":"中西區","LI":"法華里","LIN":"20鄰","STREET":"健康路","SECT":"一段","MAREA":" ","LANE":"１７０巷","ALLEY":" ","HOUSE_NO":"２號五樓之１","E_COORD97":168719.19,"N_COORD97":2542471.0800000001,"ADDRESS":"健康路一段１７０巷２號五樓之１","OBJECTID":451840},"geometry":{"x":168719.18999999948,"y":2542471.0800000038}},{"attributes":{"ID":451866,"DIS_CODE":0,"TOWNNAME":"中西區","LI":"法華里","LIN":"20鄰","STREET":"健康路","SECT":"一段","MAREA":" ","LANE":"１７０巷","ALLEY":" ","HOUSE_NO":"２號五樓之２","E_COORD97":168719.19,"N_COORD97":2542471.0800000001,"ADDRESS":"健康路一段１７０巷２號五樓之２","OBJECTID":451841},"geometry":{"x":168719.18999999948,"y":2542471.0800000038}},{"attributes":{"ID":451867,"DIS_CODE":0,"TOWNNAME":"中西區","LI":"法華里","LIN":"20鄰","STREET":"健康路","SECT":"一段","MAREA":" ","LANE":"１７０巷","ALLEY":" ","HOUSE_NO":"２號五樓之３","E_COORD97":168720.31,"N_COORD97":2542450.5699999998,"ADDRESS":"健康路一段１７０巷２號五樓之３","OBJECTID":451842},"geometry":{"x":168720.30999999959,"y":2542450.5700000003}},{"attributes":{"ID":451868,"DIS_CODE":0,"TOWNNAME":"中西區","LI":"法華里","LIN":"20鄰","STREET":"健康路","SECT":"一段","MAREA":" ","LANE":"１７０巷","ALLEY":" ","HOUSE_NO":"２號五樓之４","E_COORD97":168720.31,"N_COORD97":2542450.5699999998,"ADDRESS":"健康路一段１７０巷２號五樓之４","OBJECTID":451843},"geometry":{"x":168720.30999999959,"y":2542450.5700000003}},{"attributes":{"ID":451869,"DIS_CODE":0,"TOWNNAME":"中西區","LI":"法華里","LIN":"20鄰","STREET":"健康路","SECT":"一段","MAREA":" ","LANE":"１７０巷","ALLEY":" ","HOUSE_NO":"２號六樓之１","E_COORD97":168719.19,"N_COORD97":2542471.0800000001,"ADDRESS":"健康路一段１７０巷２號六樓之１","OBJECTID":451844},"geometry":{"x":168719.18999999948,"y":2542471.0800000038}},{"attributes":{"ID":451870,"DIS_CODE":0,"TOWNNAME":"中西區","LI":"法華里","LIN":"20鄰","STREET":"健康路","SECT":"一段","MAREA":" ","LANE":"１７０巷","ALLEY":" ","HOUSE_NO":"２號六樓之２","E_COORD97":168719.19,"N_COORD97":2542471.0800000001,"ADDRESS":"健康路一段１７０巷２號六樓之２","OBJECTID":451845},"geometry":{"x":168719.18999999948,"y":2542471.0800000038}},{"attributes":{"ID":451871,"DIS_CODE":0,"TOWNNAME":"中西區","LI":"法華里","LIN":"20鄰","STREET":"健康路","SECT":"一段","MAREA":" ","LANE":"１７０巷","ALLEY":" ","HOUSE_NO":"２號六樓之３","E_COORD97":168720.31,"N_COORD97":2542450.5699999998,"ADDRESS":"健康路一段１７０巷２號六樓之３","OBJECTID":451846},"geometry":{"x":168720.30999999959,"y":2542450.5700000003}},{"attributes":{"ID":451872,"DIS_CODE":0,"TOWNNAME":"中西區","LI":"法華里","LIN":"20鄰","STREET":"健康路","SECT":"一段","MAREA":" ","LANE":"１７０巷","ALLEY":" ","HOUSE_NO":"２號六樓之４","E_COORD97":168720.31,"N_COORD97":2542450.5699999998,"ADDRESS":"健康路一段１７０巷２號六樓之４","OBJECTID":451847},"geometry":{"x":168720.30999999959,"y":2542450.5700000003}},{"attributes":{"ID":451873,"DIS_CODE":0,"TOWNNAME":"中西區","LI":"法華里","LIN":"20鄰","STREET":"健康路","SECT":"一段","MAREA":" ","LANE":"１７０巷","ALLEY":" ","HOUSE_NO":"２號四樓之１","E_COORD97":168719.19,"N_COORD97":2542471.0800000001,"ADDRESS":"健康路一段１７０巷２號四樓之１","OBJECTID":451848},"geometry":{"x":168719.18999999948,"y":2542471.0800000038}},{"attributes":{"ID":451874,"DIS_CODE":0,"TOWNNAME":"中西區","LI":"法華里","LIN":"20鄰","STREET":"健康路","SECT":"一段","MAREA":" ","LANE":"１７０巷","ALLEY":" ","HOUSE_NO":"２號四樓之２","E_COORD97":168719.19,"N_COORD97":2542471.0800000001,"ADDRESS":"健康路一段１７０巷２號四樓之２","OBJECTID":451849},"geometry":{"x":168719.18999999948,"y":2542471.0800000038}},{"attributes":{"ID":451875,"DIS_CODE":0,"TOWNNAME":"中西區","LI":"法華里","LIN":"20鄰","STREET":"健康路","SECT":"一段","MAREA":" ","LANE":"１７０巷","ALLEY":" ","HOUSE_NO":"２號四樓之３","E_COORD97":168720.31,"N_COORD97":2542450.5699999998,"ADDRESS":"健康路一段１７０巷２號四樓之３","OBJECTID":451850},"geometry":{"x":168720.30999999959,"y":2542450.5700000003}},{"attributes":{"ID":451876,"DIS_CODE":0,"TOWNNAME":"仁德區","LI":"仁德里","LIN":"20鄰","STREET":"中山路","SECT":" ","MAREA":" ","LANE":"８７５巷","ALLEY":" ","HOUSE_NO":"３１號一樓","E_COORD97":172405.39000000001,"N_COORD97":2541446.0099999998,"ADDRESS":"中山路８７５巷３１號一樓","OBJECTID":451851},"geometry":{"x":172405.38999999966,"y":2541446.0099999998}},{"attributes":{"ID":451877,"DIS_CODE":0,"TOWNNAME":"永康區","LI":"網寮里","LIN":"20鄰","STREET":"文化路","SECT":" ","MAREA":" ","LANE":"３２３巷","ALLEY":" ","HOUSE_NO":"１號四樓之２","E_COORD97":173432.57000000001,"N_COORD97":2546130.1099999999,"ADDRESS":"文化路３２３巷１號四樓之２","OBJECTID":451852},"geometry":{"x":173432.57000000216,"y":2546130.1099999994}},{"attributes":{"ID":451878,"DIS_CODE":0,"TOWNNAME":"永康區","LI":"網寮里","LIN":"20鄰","STREET":"文化路","SECT":" ","MAREA":" ","LANE":"３２３巷","ALLEY":" ","HOUSE_NO":"７號二樓之２","E_COORD97":173450.39000000001,"N_COORD97":2546115.3599999999,"ADDRESS":"文化路３２３巷７號二樓之２","OBJECTID":451853},"geometry":{"x":173450.3900000006,"y":2546115.3599999994}},{"attributes":{"ID":451879,"DIS_CODE":0,"TOWNNAME":"永康區","LI":"網寮里","LIN":"20鄰","STREET":"文化路","SECT":" ","MAREA":" ","LANE":"３２３巷","ALLEY":" ","HOUSE_NO":"７號四樓之２","E_COORD97":173450.39000000001,"N_COORD97":2546115.3599999999,"ADDRESS":"文化路３２３巷７號四樓之２","OBJECTID":451854},"geometry":{"x":173450.3900000006,"y":2546115.3599999994}},{"attributes":{"ID":451880,"DIS_CODE":0,"TOWNNAME":"永康區","LI":"網寮里","LIN":"20鄰","STREET":"文化路","SECT":" ","MAREA":" ","LANE":"３２３巷","ALLEY":" ","HOUSE_NO":"７號三樓之１","E_COORD97":173450.26000000001,"N_COORD97":2546115.3599999999,"ADDRESS":"文化路３２３巷７號三樓之１","OBJECTID":451855},"geometry":{"x":173450.26000000071,"y":2546115.3599999994}},{"attributes":{"ID":451881,"DIS_CODE":0,"TOWNNAME":"佳里區","LI":"建南里","LIN":"17鄰","STREET":"建南街","SECT":" ","MAREA":" ","LANE":"６５巷","ALLEY":" ","HOUSE_NO":"７號","E_COORD97":165589.42999999999,"N_COORD97":2561925.6699999999,"ADDRESS":"建南街６５巷７號","OBJECTID":451856},"geometry":{"x":165589.43000000156,"y":2561925.6700000018}},{"attributes":{"ID":451882,"DIS_CODE":0,"TOWNNAME":"永康區","LI":"網寮里","LIN":"20鄰","STREET":"文化路","SECT":" ","MAREA":" ","LANE":"３２３巷","ALLEY":" ","HOUSE_NO":"３號六樓之１","E_COORD97":173433.95000000001,"N_COORD97":2546121.6099999999,"ADDRESS":"文化路３２３巷３號六樓之１","OBJECTID":451857},"geometry":{"x":173433.95000000112,"y":2546121.6100000031}},{"attributes":{"ID":451883,"DIS_CODE":0,"TOWNNAME":"永康區","LI":"網寮里","LIN":"20鄰","STREET":"文化路","SECT":" ","MAREA":" ","LANE":"３２３巷","ALLEY":" ","HOUSE_NO":"７號七樓之２","E_COORD97":173450.39000000001,"N_COORD97":2546115.3599999999,"ADDRESS":"文化路３２３巷７號七樓之２","OBJECTID":451858},"geometry":{"x":173450.3900000006,"y":2546115.3599999994}},{"attributes":{"ID":451884,"DIS_CODE":0,"TOWNNAME":"永康區","LI":"網寮里","LIN":"20鄰","STREET":"文化路","SECT":" ","MAREA":" ","LANE":"３２３巷","ALLEY":" ","HOUSE_NO":"３號五樓之１","E_COORD97":173433.95000000001,"N_COORD97":2546121.6099999999,"ADDRESS":"文化路３２３巷３號五樓之１","OBJECTID":451859},"geometry":{"x":173433.95000000112,"y":2546121.6100000031}},{"attributes":{"ID":451885,"DIS_CODE":0,"TOWNNAME":"永康區","LI":"網寮里","LIN":"20鄰","STREET":"文化路","SECT":" ","MAREA":" ","LANE":"３２３巷","ALLEY":" ","HOUSE_NO":"７號八樓之２","E_COORD97":173450.39000000001,"N_COORD97":2546115.3599999999,"ADDRESS":"文化路３２３巷７號八樓之２","OBJECTID":451860},"geometry":{"x":173450.3900000006,"y":2546115.3599999994}},{"attributes":{"ID":451886,"DIS_CODE":0,"TOWNNAME":"永康區","LI":"網寮里","LIN":"20鄰","STREET":"文化路","SECT":" ","MAREA":" ","LANE":"３２３巷","ALLEY":" ","HOUSE_NO":"３號六樓之２","E_COORD97":173434.07999999999,"N_COORD97":2546121.6099999999,"ADDRESS":"文化路３２３巷３號六樓之２","OBJECTID":451861},"geometry":{"x":173434.08000000194,"y":2546121.6100000031}},{"attributes":{"ID":451887,"DIS_CODE":0,"TOWNNAME":"永康區","LI":"網寮里","LIN":"20鄰","STREET":"文化路","SECT":" ","MAREA":" ","LANE":"３２３巷","ALLEY":" ","HOUSE_NO":"３號七樓之２","E_COORD97":173434.07999999999,"N_COORD97":2546121.6099999999,"ADDRESS":"文化路３２３巷３號七樓之２","OBJECTID":451862},"geometry":{"x":173434.08000000194,"y":2546121.6100000031}},{"attributes":{"ID":451888,"DIS_CODE":0,"TOWNNAME":"永康區","LI":"網寮里","LIN":"20鄰","STREET":"文化路","SECT":" ","MAREA":" ","LANE":"３２３巷","ALLEY":" ","HOUSE_NO":"３號七樓之１","E_COORD97":173433.95000000001,"N_COORD97":2546121.6099999999,"ADDRESS":"文化路３２３巷３號七樓之１","OBJECTID":451863},"geometry":{"x":173433.95000000112,"y":2546121.6100000031}},{"attributes":{"ID":451889,"DIS_CODE":0,"TOWNNAME":"永康區","LI":"網寮里","LIN":"20鄰","STREET":"文化路","SECT":" ","MAREA":" ","LANE":"３２３巷","ALLEY":" ","HOUSE_NO":"７號五樓之１","E_COORD97":173450.26000000001,"N_COORD97":2546115.3599999999,"ADDRESS":"文化路３２３巷７號五樓之１","OBJECTID":451864},"geometry":{"x":173450.26000000071,"y":2546115.3599999994}},{"attributes":{"ID":451890,"DIS_CODE":0,"TOWNNAME":"永康區","LI":"網寮里","LIN":"20鄰","STREET":"永二街","SECT":" ","MAREA":" ","LANE":"２４５巷","ALLEY":" ","HOUSE_NO":"２７號五樓","E_COORD97":173314.14000000001,"N_COORD97":2546144.7400000002,"ADDRESS":"永二街２４５巷２７號五樓","OBJECTID":451865},"geometry":{"x":173314.13999999966,"y":2546144.7400000002}},{"attributes":{"ID":451891,"DIS_CODE":0,"TOWNNAME":"永康區","LI":"網寮里","LIN":"20鄰","STREET":"永二街","SECT":" ","MAREA":" ","LANE":"２４５巷","ALLEY":" ","HOUSE_NO":"２７號之８六樓","E_COORD97":173332.64999999999,"N_COORD97":2546121.3799999999,"ADDRESS":"永二街２４５巷２７號之８六樓","OBJECTID":451866},"geometry":{"x":173332.6500000013,"y":2546121.379999999}},{"attributes":{"ID":451892,"DIS_CODE":0,"TOWNNAME":"永康區","LI":"網寮里","LIN":"20鄰","STREET":"永二街","SECT":" ","MAREA":" ","LANE":"２４５巷","ALLEY":" ","HOUSE_NO":"２７號之８四樓","E_COORD97":173332.64999999999,"N_COORD97":2546121.3799999999,"ADDRESS":"永二街２４５巷２７號之８四樓","OBJECTID":451867},"geometry":{"x":173332.6500000013,"y":2546121.379999999}},{"attributes":{"ID":451893,"DIS_CODE":0,"TOWNNAME":"永康區","LI":"網寮里","LIN":"20鄰","STREET":"永二街","SECT":" ","MAREA":" ","LANE":"２４５巷","ALLEY":" ","HOUSE_NO":"２７號之９七樓","E_COORD97":173324.48999999999,"N_COORD97":2546124.6299999999,"ADDRESS":"永二街２４５巷２７號之９七樓","OBJECTID":451868},"geometry":{"x":173324.48999999929,"y":2546124.6300000008}},{"attributes":{"ID":451894,"DIS_CODE":0,"TOWNNAME":"永康區","LI":"網寮里","LIN":"20鄰","STREET":"永二街","SECT":" ","MAREA":" ","LANE":"２４５巷","ALLEY":" ","HOUSE_NO":"２７號之８三樓","E_COORD97":173332.64999999999,"N_COORD97":2546121.3799999999,"ADDRESS":"永二街２４５巷２７號之８三樓","OBJECTID":451869},"geometry":{"x":173332.6500000013,"y":2546121.379999999}},{"attributes":{"ID":451895,"DIS_CODE":0,"TOWNNAME":"永康區","LI":"網寮里","LIN":"20鄰","STREET":"永二街","SECT":" ","MAREA":" ","LANE":"２４５巷","ALLEY":" ","HOUSE_NO":"２７號之７六樓","E_COORD97":173341.14999999999,"N_COORD97":2546120.3799999999,"ADDRESS":"永二街２４５巷２７號之７六樓","OBJECTID":451870},"geometry":{"x":173341.1500000013,"y":2546120.3800000008}},{"attributes":{"ID":451896,"DIS_CODE":0,"TOWNNAME":"永康區","LI":"網寮里","LIN":"20鄰","STREET":"永二街","SECT":" ","MAREA":" ","LANE":"２４５巷","ALLEY":" ","HOUSE_NO":"２７號之２四樓","E_COORD97":173329.41,"N_COORD97":2546137.1200000001,"ADDRESS":"永二街２４５巷２７號之２四樓","OBJECTID":451871},"geometry":{"x":173329.41000000015,"y":2546137.1200000029}},{"attributes":{"ID":451897,"DIS_CODE":0,"TOWNNAME":"永康區","LI":"網寮里","LIN":"20鄰","STREET":"永二街","SECT":" ","MAREA":" ","LANE":"２４５巷","ALLEY":" ","HOUSE_NO":"２７號之９三樓","E_COORD97":173324.48999999999,"N_COORD97":2546124.6299999999,"ADDRESS":"永二街２４５巷２７號之９三樓","OBJECTID":451872},"geometry":{"x":173324.48999999929,"y":2546124.6300000008}},{"attributes":{"ID":451898,"DIS_CODE":0,"TOWNNAME":"白河區","LI":"永安里","LIN":"20鄰","STREET":"中正路","SECT":" ","MAREA":" ","LANE":"１２４巷","ALLEY":" ","HOUSE_NO":"２０號","E_COORD97":189891.37,"N_COORD97":2583177.0099999998,"ADDRESS":"中正路１２４巷２０號","OBJECTID":451873},"geometry":{"x":189891.37000000104,"y":2583177.0100000016}},{"attributes":{"ID":451899,"DIS_CODE":0,"TOWNNAME":"永康區","LI":"網寮里","LIN":"20鄰","STREET":"永二街","SECT":" ","MAREA":" ","LANE":"２４５巷","ALLEY":" ","HOUSE_NO":"２７號之６五樓","E_COORD97":173349.64000000001,"N_COORD97":2546117.2400000002,"ADDRESS":"永二街２４５巷２７號之６五樓","OBJECTID":451874},"geometry":{"x":173349.63999999966,"y":2546117.2400000002}},{"attributes":{"ID":451900,"DIS_CODE":0,"TOWNNAME":"永康區","LI":"網寮里","LIN":"20鄰","STREET":"永二街","SECT":" ","MAREA":" ","LANE":"２４５巷","ALLEY":" ","HOUSE_NO":"２７號之４七樓","E_COORD97":173345.34,"N_COORD97":2546131.1200000001,"ADDRESS":"永二街２４５巷２７號之４七樓","OBJECTID":451875},"geometry":{"x":173345.33999999985,"y":2546131.1200000029}},{"attributes":{"ID":451901,"DIS_CODE":0,"TOWNNAME":"永康區","LI":"網寮里","LIN":"20鄰","STREET":"永二街","SECT":" ","MAREA":" ","LANE":"２４５巷","ALLEY":" ","HOUSE_NO":"２７號七樓","E_COORD97":173314.14000000001,"N_COORD97":2546144.7400000002,"ADDRESS":"永二街２４５巷２７號七樓","OBJECTID":451876},"geometry":{"x":173314.13999999966,"y":2546144.7400000002}},{"attributes":{"ID":451902,"DIS_CODE":0,"TOWNNAME":"東區","LI":"泉南里","LIN":"20鄰","STREET":"府連東路","SECT":" ","MAREA":" ","LANE":"２２巷","ALLEY":" ","HOUSE_NO":"２號","E_COORD97":169723.23999999999,"N_COORD97":2542764.6800000002,"ADDRESS":"府連東路２２巷２號","OBJECTID":451877},"geometry":{"x":169723.24000000022,"y":2542764.6799999978}},{"attributes":{"ID":451903,"DIS_CODE":0,"TOWNNAME":"東區","LI":"泉南里","LIN":"20鄰","STREET":"府連東路","SECT":" ","MAREA":" ","LANE":"２２巷","ALLEY":" ","HOUSE_NO":"４號","E_COORD97":169715.42999999999,"N_COORD97":2542765.0899999999,"ADDRESS":"府連東路２２巷４號","OBJECTID":451878},"geometry":{"x":169715.43000000156,"y":2542765.0899999999}},{"attributes":{"ID":451904,"DIS_CODE":0,"TOWNNAME":"東區","LI":"泉南里","LIN":"20鄰","STREET":"府連東路","SECT":" ","MAREA":" ","LANE":"２２巷","ALLEY":" ","HOUSE_NO":"６號","E_COORD97":169709.53,"N_COORD97":2542767.1499999999,"ADDRESS":"府連東路２２巷６號","OBJECTID":451879},"geometry":{"x":169709.53000000026,"y":2542767.1500000022}},{"attributes":{"ID":451905,"DIS_CODE":0,"TOWNNAME":"中西區","LI":"西湖里","LIN":"20鄰","STREET":"湖美街","SECT":" ","MAREA":" ","LANE":"１２巷","ALLEY":" ","HOUSE_NO":"９號","E_COORD97":165985.92000000001,"N_COORD97":2544483.8999999999,"ADDRESS":"湖美街１２巷９號","OBJECTID":451880},"geometry":{"x":165985.91999999993,"y":2544483.9000000022}},{"attributes":{"ID":451906,"DIS_CODE":0,"TOWNNAME":"中西區","LI":"開山里","LIN":"20鄰","STREET":"開山路","SECT":" ","MAREA":" ","LANE":"２３５巷","ALLEY":" ","HOUSE_NO":"１３號","E_COORD97":169017.03,"N_COORD97":2543022.4300000002,"ADDRESS":"開山路２３５巷１３號","OBJECTID":451881},"geometry":{"x":169017.03000000212,"y":2543022.4300000016}},{"attributes":{"ID":451907,"DIS_CODE":0,"TOWNNAME":"中西區","LI":"開山里","LIN":"20鄰","STREET":"開山路","SECT":" ","MAREA":" ","LANE":"２３５巷","ALLEY":" ","HOUSE_NO":"５號","E_COORD97":169010.98000000001,"N_COORD97":2543009.2200000002,"ADDRESS":"開山路２３５巷５號","OBJECTID":451882},"geometry":{"x":169010.98000000138,"y":2543009.2200000007}},{"attributes":{"ID":451908,"DIS_CODE":0,"TOWNNAME":"中西區","LI":"開山里","LIN":"20鄰","STREET":"開山路","SECT":" ","MAREA":" ","LANE":"２３５巷","ALLEY":" ","HOUSE_NO":"５號之１","E_COORD97":169009.44,"N_COORD97":2543006.0499999998,"ADDRESS":"開山路２３５巷５號之１","OBJECTID":451883},"geometry":{"x":169009.44000000134,"y":2543006.0500000007}},{"attributes":{"ID":451909,"DIS_CODE":0,"TOWNNAME":"中西區","LI":"開山里","LIN":"20鄰","STREET":"開山路","SECT":" ","MAREA":" ","LANE":"２３５巷","ALLEY":" ","HOUSE_NO":"７號","E_COORD97":169011.29000000001,"N_COORD97":2543013.0099999998,"ADDRESS":"開山路２３５巷７號","OBJECTID":451884},"geometry":{"x":169011.29000000004,"y":2543013.0099999998}},{"attributes":{"ID":451910,"DIS_CODE":0,"TOWNNAME":"中西區","LI":"開山里","LIN":"20鄰","STREET":"開山路","SECT":" ","MAREA":" ","LANE":"２３５巷","ALLEY":" ","HOUSE_NO":"９號","E_COORD97":169013.34,"N_COORD97":2543016.29,"ADDRESS":"開山路２３５巷９號","OBJECTID":451885},"geometry":{"x":169013.34000000078,"y":2543016.2899999991}},{"attributes":{"ID":451911,"DIS_CODE":0,"TOWNNAME":"東區","LI":"忠孝里","LIN":"20鄰","STREET":"崇明路","SECT":" ","MAREA":" ","LANE":"２６６巷","ALLEY":" ","HOUSE_NO":"２８號","E_COORD97":169910.84,"N_COORD97":2542024.4300000002,"ADDRESS":"崇明路２６６巷２８號","OBJECTID":451886},"geometry":{"x":169910.83999999985,"y":2542024.4300000016}},{"attributes":{"ID":451912,"DIS_CODE":0,"TOWNNAME":"東區","LI":"忠孝里","LIN":"20鄰","STREET":"崇明路","SECT":" ","MAREA":" ","LANE":"２６６巷","ALLEY":" ","HOUSE_NO":"４０號","E_COORD97":169925.81,"N_COORD97":2541998.4900000002,"ADDRESS":"崇明路２６６巷４０號","OBJECTID":451887},"geometry":{"x":169925.80999999959,"y":2541998.4900000021}},{"attributes":{"ID":451913,"DIS_CODE":0,"TOWNNAME":"東區","LI":"忠孝里","LIN":"20鄰","STREET":"崇明路","SECT":" ","MAREA":" ","LANE":"２６６巷","ALLEY":" ","HOUSE_NO":"４２號","E_COORD97":169928.09,"N_COORD97":2541994.3300000001,"ADDRESS":"崇明路２６６巷４２號","OBJECTID":451888},"geometry":{"x":169928.09000000171,"y":2541994.3300000001}},{"attributes":{"ID":451914,"DIS_CODE":0,"TOWNNAME":"東區","LI":"忠孝里","LIN":"20鄰","STREET":"崇明路","SECT":" ","MAREA":" ","LANE":"２６６巷","ALLEY":" ","HOUSE_NO":"４６號","E_COORD97":169934.12,"N_COORD97":2541986.4500000002,"ADDRESS":"崇明路２６６巷４６號","OBJECTID":451889},"geometry":{"x":169934.12000000011,"y":2541986.450000003}},{"attributes":{"ID":451915,"DIS_CODE":0,"TOWNNAME":"東區","LI":"忠孝里","LIN":"20鄰","STREET":"崇明路","SECT":" ","MAREA":" ","LANE":"２６６巷","ALLEY":" ","HOUSE_NO":"４８號","E_COORD97":169936.20000000001,"N_COORD97":2541981.8799999999,"ADDRESS":"崇明路２６６巷４８號","OBJECTID":451890},"geometry":{"x":169936.20000000205,"y":2541981.879999999}},{"attributes":{"ID":451916,"DIS_CODE":0,"TOWNNAME":"東區","LI":"忠孝里","LIN":"20鄰","STREET":"崇明路","SECT":" ","MAREA":" ","LANE":"２６６巷","ALLEY":" ","HOUSE_NO":"５０號","E_COORD97":169940.14000000001,"N_COORD97":2541976.6899999999,"ADDRESS":"崇明路２６６巷５０號","OBJECTID":451891},"geometry":{"x":169940.1400000006,"y":2541976.6899999995}},{"attributes":{"ID":451917,"DIS_CODE":0,"TOWNNAME":"永康區","LI":"三合里","LIN":"20鄰","STREET":"南工街","SECT":" ","MAREA":" ","LANE":"２７９巷","ALLEY":" ","HOUSE_NO":"４號","E_COORD97":171861.89999999999,"N_COORD97":2546004.5,"ADDRESS":"南工街２７９巷４號","OBJECTID":451892},"geometry":{"x":171861.90000000037,"y":2546004.5000000037}},{"attributes":{"ID":451918,"DIS_CODE":0,"TOWNNAME":"永康區","LI":"三合里","LIN":"20鄰","STREET":"南工街","SECT":" ","MAREA":" ","LANE":"２７９巷","ALLEY":" ","HOUSE_NO":"５號","E_COORD97":171854.97,"N_COORD97":2545998,"ADDRESS":"南工街２７９巷５號","OBJECTID":451893},"geometry":{"x":171854.97000000067,"y":2545998.0000000019}},{"attributes":{"ID":451919,"DIS_CODE":0,"TOWNNAME":"永康區","LI":"三合里","LIN":"20鄰","STREET":"南工街","SECT":" ","MAREA":" ","LANE":"２６９巷","ALLEY":" ","HOUSE_NO":"５號","E_COORD97":171850.34,"N_COORD97":2545965.7400000002,"ADDRESS":"南工街２６９巷５號","OBJECTID":451894},"geometry":{"x":171850.33999999892,"y":2545965.7400000039}},{"attributes":{"ID":451920,"DIS_CODE":0,"TOWNNAME":"永康區","LI":"中興里","LIN":"20鄰","STREET":"中華路","SECT":" ","MAREA":" ","LANE":"２１６巷","ALLEY":" ","HOUSE_NO":"５７號","E_COORD97":171890.20999999999,"N_COORD97":2545165.75,"ADDRESS":"中華路２１６巷５７號","OBJECTID":451895},"geometry":{"x":171890.20999999996,"y":2545165.7500000019}},{"attributes":{"ID":451921,"DIS_CODE":0,"TOWNNAME":"永康區","LI":"中興里","LIN":"20鄰","STREET":"中華路","SECT":" ","MAREA":" ","LANE":"２１６巷","ALLEY":" ","HOUSE_NO":"２３號","E_COORD97":171822.07999999999,"N_COORD97":2545159.3300000001,"ADDRESS":"中華路２１６巷２３號","OBJECTID":451896},"geometry":{"x":171822.08000000101,"y":2545159.3300000019}},{"attributes":{"ID":451922,"DIS_CODE":0,"TOWNNAME":"永康區","LI":"中興里","LIN":"20鄰","STREET":"中華路","SECT":" ","MAREA":" ","LANE":"２１６巷","ALLEY":" ","HOUSE_NO":"７號","E_COORD97":171789.23999999999,"N_COORD97":2545156.29,"ADDRESS":"中華路２１６巷７號","OBJECTID":451897},"geometry":{"x":171789.24000000115,"y":2545156.2899999991}},{"attributes":{"ID":451923,"DIS_CODE":0,"TOWNNAME":"白河區","LI":"永安里","LIN":"20鄰","STREET":"中正路","SECT":" ","MAREA":" ","LANE":"１２４巷","ALLEY":" ","HOUSE_NO":"１４號","E_COORD97":189880.07000000001,"N_COORD97":2583172.3900000001,"ADDRESS":"中正路１２４巷１４號","OBJECTID":451898},"geometry":{"x":189880.07000000123,"y":2583172.3900000025}},{"attributes":{"ID":451924,"DIS_CODE":0,"TOWNNAME":"白河區","LI":"永安里","LIN":"20鄰","STREET":"中正路","SECT":" ","MAREA":" ","LANE":"１２４巷","ALLEY":" ","HOUSE_NO":"１５號","E_COORD97":189881.07000000001,"N_COORD97":2583189.2799999998,"ADDRESS":"中正路１２４巷１５號","OBJECTID":451899},"geometry":{"x":189881.07000000216,"y":2583189.2799999993}},{"attributes":{"ID":451925,"DIS_CODE":0,"TOWNNAME":"白河區","LI":"永安里","LIN":"20鄰","STREET":"中正路","SECT":" ","MAREA":" ","LANE":"１２４巷","ALLEY":" ","HOUSE_NO":"１６號","E_COORD97":189883.88,"N_COORD97":2583173.9500000002,"ADDRESS":"中正路１２４巷１６號","OBJECTID":451900},"geometry":{"x":189883.88000000082,"y":2583173.9500000011}},{"attributes":{"ID":451926,"DIS_CODE":0,"TOWNNAME":"白河區","LI":"永安里","LIN":"20鄰","STREET":"中正路","SECT":" ","MAREA":" ","LANE":"１２４巷","ALLEY":" ","HOUSE_NO":"１７號","E_COORD97":189885.14000000001,"N_COORD97":2583190.9199999999,"ADDRESS":"中正路１２４巷１７號","OBJECTID":451901},"geometry":{"x":189885.1400000006,"y":2583190.9200000018}},{"attributes":{"ID":451927,"DIS_CODE":0,"TOWNNAME":"白河區","LI":"永安里","LIN":"20鄰","STREET":"中正路","SECT":" ","MAREA":" ","LANE":"１２４巷","ALLEY":" ","HOUSE_NO":"１８號","E_COORD97":189887.45000000001,"N_COORD97":2583175.7000000002,"ADDRESS":"中正路１２４巷１８號","OBJECTID":451902},"geometry":{"x":189887.45000000112,"y":2583175.7000000011}},{"attributes":{"ID":451928,"DIS_CODE":0,"TOWNNAME":"白河區","LI":"永安里","LIN":"20鄰","STREET":"中正路","SECT":" ","MAREA":" ","LANE":"１２４巷","ALLEY":" ","HOUSE_NO":"１９之１號","E_COORD97":189893.38,"N_COORD97":2583194.3500000001,"ADDRESS":"中正路１２４巷１９之１號","OBJECTID":451903},"geometry":{"x":189893.37999999989,"y":2583194.3500000015}},{"attributes":{"ID":451929,"DIS_CODE":0,"TOWNNAME":"白河區","LI":"永安里","LIN":"20鄰","STREET":"中正路","SECT":" ","MAREA":" ","LANE":"１２４巷","ALLEY":" ","HOUSE_NO":"１９號","E_COORD97":189889.51999999999,"N_COORD97":2583192.6299999999,"ADDRESS":"中正路１２４巷１９號","OBJECTID":451904},"geometry":{"x":189889.52000000048,"y":2583192.6300000008}},{"attributes":{"ID":451930,"DIS_CODE":0,"TOWNNAME":"白河區","LI":"永安里","LIN":"20鄰","STREET":"中正路","SECT":" ","MAREA":" ","LANE":"１２４巷","ALLEY":" ","HOUSE_NO":"１號","E_COORD97":189851.91,"N_COORD97":2583176.8399999999,"ADDRESS":"中正路１２４巷１號","OBJECTID":451905},"geometry":{"x":189851.91000000108,"y":2583176.8399999999}},{"attributes":{"ID":451931,"DIS_CODE":0,"TOWNNAME":"白河區","LI":"永安里","LIN":"20鄰","STREET":"中正路","SECT":" ","MAREA":" ","LANE":"１２４巷","ALLEY":" ","HOUSE_NO":"２０之１號","E_COORD97":189895.70000000001,"N_COORD97":2583178.52,"ADDRESS":"中正路１２４巷２０之１號","OBJECTID":451906},"geometry":{"x":189895.70000000112,"y":2583178.5199999996}},{"attributes":{"ID":451932,"DIS_CODE":0,"TOWNNAME":"白河區","LI":"永安里","LIN":"20鄰","STREET":"中正路","SECT":" ","MAREA":" ","LANE":"１２４巷","ALLEY":" ","HOUSE_NO":"２１號","E_COORD97":189842.54999999999,"N_COORD97":2583206.96,"ADDRESS":"中正路１２４巷２１號","OBJECTID":451907},"geometry":{"x":189842.54999999981,"y":2583206.9600000009}},{"attributes":{"ID":451933,"DIS_CODE":0,"TOWNNAME":"白河區","LI":"永安里","LIN":"20鄰","STREET":"中正路","SECT":" ","MAREA":" ","LANE":"１２４巷","ALLEY":" ","HOUSE_NO":"２２號","E_COORD97":189848.42999999999,"N_COORD97":2583194.04,"ADDRESS":"中正路１２４巷２２號","OBJECTID":451908},"geometry":{"x":189848.4299999997,"y":2583194.0399999991}},{"attributes":{"ID":451934,"DIS_CODE":0,"TOWNNAME":"安南區","LI":"州北里","LIN":"20鄰","STREET":"安和路","SECT":"五段","MAREA":" ","LANE":"２５８巷","ALLEY":" ","HOUSE_NO":"１號","E_COORD97":169792.07000000001,"N_COORD97":2552025.5499999998,"ADDRESS":"安和路五段２５８巷１號","OBJECTID":451909},"geometry":{"x":169792.07000000123,"y":2552025.5500000007}},{"attributes":{"ID":451935,"DIS_CODE":0,"TOWNNAME":"安南區","LI":"州北里","LIN":"20鄰","STREET":"安和路","SECT":"五段","MAREA":" ","LANE":"２５８巷","ALLEY":" ","HOUSE_NO":"３號","E_COORD97":169796.39000000001,"N_COORD97":2552026.9500000002,"ADDRESS":"安和路五段２５８巷３號","OBJECTID":451910},"geometry":{"x":169796.38999999966,"y":2552026.9499999993}},{"attributes":{"ID":451936,"DIS_CODE":0,"TOWNNAME":"安南區","LI":"州北里","LIN":"20鄰","STREET":"安和路","SECT":"五段","MAREA":" ","LANE":"２５８巷","ALLEY":" ","HOUSE_NO":"５號","E_COORD97":169801.69,"N_COORD97":2552028.6200000001,"ADDRESS":"安和路五段２５８巷５號","OBJECTID":451911},"geometry":{"x":169801.69000000041,"y":2552028.620000001}},{"attributes":{"ID":451937,"DIS_CODE":0,"TOWNNAME":"安南區","LI":"州北里","LIN":"20鄰","STREET":"安昌街","SECT":" ","MAREA":" ","LANE":"１９巷","ALLEY":" ","HOUSE_NO":"１１號","E_COORD97":169810.63,"N_COORD97":2552012.9700000002,"ADDRESS":"安昌街１９巷１１號","OBJECTID":451912},"geometry":{"x":169810.62999999989,"y":2552012.9700000044}},{"attributes":{"ID":451938,"DIS_CODE":0,"TOWNNAME":"安南區","LI":"州北里","LIN":"20鄰","STREET":"安昌街","SECT":" ","MAREA":" ","LANE":"１９巷","ALLEY":" ","HOUSE_NO":"１３號","E_COORD97":169810.63,"N_COORD97":2552019.6499999999,"ADDRESS":"安昌街１９巷１３號","OBJECTID":451913},"geometry":{"x":169810.62999999989,"y":2552019.6500000022}},{"attributes":{"ID":451939,"DIS_CODE":0,"TOWNNAME":"安南區","LI":"州北里","LIN":"20鄰","STREET":"安昌街","SECT":" ","MAREA":" ","LANE":"１９巷","ALLEY":" ","HOUSE_NO":"１５號","E_COORD97":169810.63,"N_COORD97":2552026,"ADDRESS":"安昌街１９巷１５號","OBJECTID":451914},"geometry":{"x":169810.62999999989,"y":2552026.0000000019}},{"attributes":{"ID":451940,"DIS_CODE":0,"TOWNNAME":"安南區","LI":"州北里","LIN":"20鄰","STREET":"安昌街","SECT":" ","MAREA":" ","LANE":"１９巷","ALLEY":" ","HOUSE_NO":"１６號","E_COORD97":169831.26999999999,"N_COORD97":2552039.54,"ADDRESS":"安昌街１９巷１６號","OBJECTID":451915},"geometry":{"x":169831.26999999955,"y":2552039.540000001}},{"attributes":{"ID":451941,"DIS_CODE":0,"TOWNNAME":"安南區","LI":"州北里","LIN":"20鄰","STREET":"安昌街","SECT":" ","MAREA":" ","LANE":"１９巷","ALLEY":" ","HOUSE_NO":"１７號","E_COORD97":169810.63,"N_COORD97":2552032.27,"ADDRESS":"安昌街１９巷１７號","OBJECTID":451916},"geometry":{"x":169810.62999999989,"y":2552032.2699999996}},{"attributes":{"ID":451942,"DIS_CODE":0,"TOWNNAME":"安南區","LI":"州北里","LIN":"20鄰","STREET":"安昌街","SECT":" ","MAREA":" ","LANE":"１９巷","ALLEY":" ","HOUSE_NO":"１９號","E_COORD97":169810.48999999999,"N_COORD97":2552038.5299999998,"ADDRESS":"安昌街１９巷１９號","OBJECTID":451917},"geometry":{"x":169810.49000000209,"y":2552038.5300000012}},{"attributes":{"ID":451943,"DIS_CODE":0,"TOWNNAME":"安南區","LI":"州北里","LIN":"20鄰","STREET":"安昌街","SECT":" ","MAREA":" ","LANE":"１９巷","ALLEY":" ","HOUSE_NO":"１號","E_COORD97":169811.89000000001,"N_COORD97":2551982.0499999998,"ADDRESS":"安昌街１９巷１號","OBJECTID":451918},"geometry":{"x":169811.88999999966,"y":2551982.0500000045}},{"attributes":{"ID":451944,"DIS_CODE":0,"TOWNNAME":"安南區","LI":"州北里","LIN":"20鄰","STREET":"安昌街","SECT":" ","MAREA":" ","LANE":"１９巷","ALLEY":" ","HOUSE_NO":"５號","E_COORD97":169811.60999999999,"N_COORD97":2551994.1699999999,"ADDRESS":"安昌街１９巷５號","OBJECTID":451919},"geometry":{"x":169811.6100000022,"y":2551994.1700000018}},{"attributes":{"ID":451945,"DIS_CODE":0,"TOWNNAME":"安南區","LI":"州北里","LIN":"20鄰","STREET":"安昌街","SECT":" ","MAREA":" ","LANE":"１９巷","ALLEY":" ","HOUSE_NO":"７號","E_COORD97":169811.04999999999,"N_COORD97":2552000.9900000002,"ADDRESS":"安昌街１９巷７號","OBJECTID":451920},"geometry":{"x":169811.04999999981,"y":2552000.9900000002}},{"attributes":{"ID":451946,"DIS_CODE":0,"TOWNNAME":"安南區","LI":"鳳凰里","LIN":"20鄰","STREET":"怡安路","SECT":"二段","MAREA":" ","LANE":"５３５巷","ALLEY":" ","HOUSE_NO":"４號","E_COORD97":167564.23999999999,"N_COORD97":2549410.4199999999,"ADDRESS":"怡安路二段５３５巷４號","OBJECTID":451921},"geometry":{"x":167564.23999999929,"y":2549410.4199999999}},{"attributes":{"ID":451947,"DIS_CODE":0,"TOWNNAME":"仁德區","LI":"保安里","LIN":"20鄰","STREET":"文賢路","SECT":"一段","MAREA":" ","LANE":"５５４巷","ALLEY":" ","HOUSE_NO":"９號","E_COORD97":171083.32000000001,"N_COORD97":2536883.3300000001,"ADDRESS":"文賢路一段５５４巷９號","OBJECTID":451922},"geometry":{"x":171083.32000000123,"y":2536883.3300000019}},{"attributes":{"ID":451948,"DIS_CODE":0,"TOWNNAME":"東區","LI":"後甲里","LIN":"20鄰","STREET":"建東街","SECT":" ","MAREA":" ","LANE":"１２巷","ALLEY":" ","HOUSE_NO":"１０號","E_COORD97":171821.54999999999,"N_COORD97":2543302.1699999999,"ADDRESS":"建東街１２巷１０號","OBJECTID":451923},"geometry":{"x":171821.54999999981,"y":2543302.1700000018}},{"attributes":{"ID":451949,"DIS_CODE":0,"TOWNNAME":"東區","LI":"後甲里","LIN":"20鄰","STREET":"建東街","SECT":" ","MAREA":" ","LANE":"１２巷","ALLEY":" ","HOUSE_NO":"１１號","E_COORD97":171822.60999999999,"N_COORD97":2543323.9300000002,"ADDRESS":"建東街１２巷１１號","OBJECTID":451924},"geometry":{"x":171822.61000000127,"y":2543323.9300000016}},{"attributes":{"ID":451950,"DIS_CODE":0,"TOWNNAME":"東區","LI":"後甲里","LIN":"20鄰","STREET":"建東街","SECT":" ","MAREA":" ","LANE":"１２巷","ALLEY":" ","HOUSE_NO":"１２號","E_COORD97":171825,"N_COORD97":2543308.2599999998,"ADDRESS":"建東街１２巷１２號","OBJECTID":451925},"geometry":{"x":171825,"y":2543308.2600000016}},{"attributes":{"ID":451951,"DIS_CODE":0,"TOWNNAME":"東區","LI":"後甲里","LIN":"20鄰","STREET":"建東街","SECT":" ","MAREA":" ","LANE":"１２巷","ALLEY":" ","HOUSE_NO":"１３號","E_COORD97":171826.59,"N_COORD97":2543324.7200000002,"ADDRESS":"建東街１２巷１３號","OBJECTID":451926},"geometry":{"x":171826.58999999892,"y":2543324.7200000007}},{"attributes":{"ID":451952,"DIS_CODE":0,"TOWNNAME":"東區","LI":"後甲里","LIN":"20鄰","STREET":"建東街","SECT":" ","MAREA":" ","LANE":"１２巷","ALLEY":" ","HOUSE_NO":"１４號","E_COORD97":171828.97,"N_COORD97":2543305.8799999999,"ADDRESS":"建東街１２巷１４號","OBJECTID":451927},"geometry":{"x":171828.96999999881,"y":2543305.8800000008}},{"attributes":{"ID":451953,"DIS_CODE":0,"TOWNNAME":"東區","LI":"後甲里","LIN":"20鄰","STREET":"建東街","SECT":" ","MAREA":" ","LANE":"１２巷","ALLEY":" ","HOUSE_NO":"１５號","E_COORD97":171830.29999999999,"N_COORD97":2543326.8399999999,"ADDRESS":"建東街１２巷１５號","OBJECTID":451928},"geometry":{"x":171830.30000000168,"y":2543326.8400000036}},{"attributes":{"ID":451954,"DIS_CODE":0,"TOWNNAME":"東區","LI":"後甲里","LIN":"20鄰","STREET":"建東街","SECT":" ","MAREA":" ","LANE":"１２巷","ALLEY":" ","HOUSE_NO":"１６號","E_COORD97":171832.67999999999,"N_COORD97":2543310.1099999999,"ADDRESS":"建東街１２巷１６號","OBJECTID":451929},"geometry":{"x":171832.68000000156,"y":2543310.1099999994}},{"attributes":{"ID":451955,"DIS_CODE":0,"TOWNNAME":"東區","LI":"後甲里","LIN":"20鄰","STREET":"建東街","SECT":" ","MAREA":" ","LANE":"１２巷","ALLEY":" ","HOUSE_NO":"１７號","E_COORD97":171834.54000000001,"N_COORD97":2543325.7799999998,"ADDRESS":"建東街１２巷１７號","OBJECTID":451930},"geometry":{"x":171834.54000000097,"y":2543325.7799999993}},{"attributes":{"ID":451956,"DIS_CODE":0,"TOWNNAME":"東區","LI":"後甲里","LIN":"20鄰","STREET":"建東街","SECT":" ","MAREA":" ","LANE":"１２巷","ALLEY":" ","HOUSE_NO":"１８號","E_COORD97":171837.19,"N_COORD97":2543306.6699999999,"ADDRESS":"建東街１２巷１８號","OBJECTID":451931},"geometry":{"x":171837.19000000134,"y":2543306.6699999999}},{"attributes":{"ID":451957,"DIS_CODE":0,"TOWNNAME":"東區","LI":"後甲里","LIN":"20鄰","STREET":"建東街","SECT":" ","MAREA":" ","LANE":"１２巷","ALLEY":" ","HOUSE_NO":"１９號","E_COORD97":171837.98000000001,"N_COORD97":2543328.6899999999,"ADDRESS":"建東街１２巷１９號","OBJECTID":451932},"geometry":{"x":171837.98000000045,"y":2543328.6900000013}},{"attributes":{"ID":451958,"DIS_CODE":0,"TOWNNAME":"東區","LI":"後甲里","LIN":"20鄰","STREET":"建東街","SECT":" ","MAREA":" ","LANE":"１２巷","ALLEY":" ","HOUSE_NO":"２０號","E_COORD97":171840.89999999999,"N_COORD97":2543310.6400000001,"ADDRESS":"建東街１２巷２０號","OBJECTID":451933},"geometry":{"x":171840.9000000013,"y":2543310.6400000006}},{"attributes":{"ID":451959,"DIS_CODE":0,"TOWNNAME":"東區","LI":"後甲里","LIN":"20鄰","STREET":"建東街","SECT":" ","MAREA":" ","LANE":"１２巷","ALLEY":" ","HOUSE_NO":"２１號","E_COORD97":171842.48999999999,"N_COORD97":2543326.5699999998,"ADDRESS":"建東街１２巷２１號","OBJECTID":451934},"geometry":{"x":171842.49000000022,"y":2543326.5700000022}},{"attributes":{"ID":451960,"DIS_CODE":0,"TOWNNAME":"東區","LI":"後甲里","LIN":"20鄰","STREET":"建東街","SECT":" ","MAREA":" ","LANE":"１２巷","ALLEY":" ","HOUSE_NO":"２２號","E_COORD97":171845.41,"N_COORD97":2543307.2000000002,"ADDRESS":"建東街１２巷２２號","OBJECTID":451935},"geometry":{"x":171845.41000000108,"y":2543307.2000000011}},{"attributes":{"ID":451961,"DIS_CODE":0,"TOWNNAME":"東區","LI":"後甲里","LIN":"20鄰","STREET":"建東街","SECT":" ","MAREA":" ","LANE":"１２巷","ALLEY":" ","HOUSE_NO":"２３號","E_COORD97":171846.47,"N_COORD97":2543329.2200000002,"ADDRESS":"建東街１２巷２３號","OBJECTID":451936},"geometry":{"x":171846.47000000067,"y":2543329.2200000025}},{"attributes":{"ID":451962,"DIS_CODE":0,"TOWNNAME":"東區","LI":"後甲里","LIN":"20鄰","STREET":"建東街","SECT":" ","MAREA":" ","LANE":"１２巷","ALLEY":" ","HOUSE_NO":"２４號","E_COORD97":171848.85000000001,"N_COORD97":2543312.4900000002,"ADDRESS":"建東街１２巷２４號","OBJECTID":451937},"geometry":{"x":171848.85000000056,"y":2543312.4900000039}},{"attributes":{"ID":451963,"DIS_CODE":0,"TOWNNAME":"東區","LI":"後甲里","LIN":"20鄰","STREET":"建東街","SECT":" ","MAREA":" ","LANE":"１２巷","ALLEY":" ","HOUSE_NO":"２５號","E_COORD97":171850.44,"N_COORD97":2543327.6299999999,"ADDRESS":"建東街１２巷２５號","OBJECTID":451938},"geometry":{"x":171850.44000000227,"y":2543327.6300000008}},{"attributes":{"ID":451964,"DIS_CODE":0,"TOWNNAME":"東區","LI":"後甲里","LIN":"20鄰","STREET":"建東街","SECT":" ","MAREA":" ","LANE":"１２巷","ALLEY":" ","HOUSE_NO":"２７號","E_COORD97":171854.67999999999,"N_COORD97":2543330.54,"ADDRESS":"建東街１２巷２７號","OBJECTID":451939},"geometry":{"x":171854.68000000156,"y":2543330.5399999991}},{"attributes":{"ID":451965,"DIS_CODE":0,"TOWNNAME":"東區","LI":"後甲里","LIN":"20鄰","STREET":"建東街","SECT":" ","MAREA":" ","LANE":"１２巷","ALLEY":" ","HOUSE_NO":"２８號","E_COORD97":171856.79999999999,"N_COORD97":2543312.4900000002,"ADDRESS":"建東街１２巷２８號","OBJECTID":451940},"geometry":{"x":171856.79999999981,"y":2543312.4900000039}},{"attributes":{"ID":451966,"DIS_CODE":0,"TOWNNAME":"東區","LI":"後甲里","LIN":"20鄰","STREET":"建東街","SECT":" ","MAREA":" ","LANE":"１２巷","ALLEY":" ","HOUSE_NO":"２９號","E_COORD97":171858.66,"N_COORD97":2543329.48,"ADDRESS":"建東街１２巷２９號","OBJECTID":451941},"geometry":{"x":171858.66000000201,"y":2543329.4800000004}},{"attributes":{"ID":451967,"DIS_CODE":0,"TOWNNAME":"東區","LI":"後甲里","LIN":"20鄰","STREET":"建東街","SECT":" ","MAREA":" ","LANE":"１２巷","ALLEY":" ","HOUSE_NO":"２號","E_COORD97":171804.85999999999,"N_COORD97":2543304.02,"ADDRESS":"建東街１２巷２號","OBJECTID":451942},"geometry":{"x":171804.86000000034,"y":2543304.0199999996}},{"attributes":{"ID":451968,"DIS_CODE":0,"TOWNNAME":"東區","LI":"後甲里","LIN":"20鄰","STREET":"建東街","SECT":" ","MAREA":" ","LANE":"１２巷","ALLEY":" ","HOUSE_NO":"３０號","E_COORD97":171861.04000000001,"N_COORD97":2543309.8500000001,"ADDRESS":"建東街１２巷３０號","OBJECTID":451943},"geometry":{"x":171861.03999999911,"y":2543309.8500000015}},{"attributes":{"ID":451969,"DIS_CODE":0,"TOWNNAME":"東區","LI":"後甲里","LIN":"20鄰","STREET":"建東街","SECT":" ","MAREA":" ","LANE":"１２巷","ALLEY":" ","HOUSE_NO":"３號","E_COORD97":171806.45000000001,"N_COORD97":2543323.1299999999,"ADDRESS":"建東街１２巷３號","OBJECTID":451944},"geometry":{"x":171806.45000000112,"y":2543323.129999999}},{"attributes":{"ID":451970,"DIS_CODE":0,"TOWNNAME":"東區","LI":"後甲里","LIN":"20鄰","STREET":"建東街","SECT":" ","MAREA":" ","LANE":"１２巷","ALLEY":" ","HOUSE_NO":"４號","E_COORD97":171809.10000000001,"N_COORD97":2543303.23,"ADDRESS":"建東街１２巷４號","OBJECTID":451945},"geometry":{"x":171809.09999999963,"y":2543303.2300000004}},{"attributes":{"ID":451971,"DIS_CODE":0,"TOWNNAME":"東區","LI":"後甲里","LIN":"20鄰","STREET":"建東街","SECT":" ","MAREA":" ","LANE":"１２巷","ALLEY":" ","HOUSE_NO":"５號","E_COORD97":171810.16,"N_COORD97":2543324.7200000002,"ADDRESS":"建東街１２巷５號","OBJECTID":451946},"geometry":{"x":171810.16000000108,"y":2543324.7200000007}},{"attributes":{"ID":451972,"DIS_CODE":0,"TOWNNAME":"東區","LI":"後甲里","LIN":"20鄰","STREET":"建東街","SECT":" ","MAREA":" ","LANE":"１２巷","ALLEY":" ","HOUSE_NO":"６號","E_COORD97":171813.60000000001,"N_COORD97":2543300.5800000001,"ADDRESS":"建東街１２巷６號","OBJECTID":451947},"geometry":{"x":171813.60000000056,"y":2543300.5800000001}},{"attributes":{"ID":451973,"DIS_CODE":0,"TOWNNAME":"東區","LI":"後甲里","LIN":"20鄰","STREET":"建東街","SECT":" ","MAREA":" ","LANE":"１２巷","ALLEY":" ","HOUSE_NO":"９號","E_COORD97":171818.37,"N_COORD97":2543323.9300000002,"ADDRESS":"建東街１２巷９號","OBJECTID":451948},"geometry":{"x":171818.37000000197,"y":2543323.9300000016}},{"attributes":{"ID":451974,"DIS_CODE":0,"TOWNNAME":"東區","LI":"德高里","LIN":"20鄰","STREET":"仁和路","SECT":" ","MAREA":" ","LANE":"１３９巷","ALLEY":" ","HOUSE_NO":"６號之１３","E_COORD97":171586.32999999999,"N_COORD97":2541012.73,"ADDRESS":"仁和路１３９巷６號之１３","OBJECTID":451949},"geometry":{"x":171586.33000000194,"y":2541012.7300000042}},{"attributes":{"ID":451975,"DIS_CODE":0,"TOWNNAME":"東區","LI":"德高里","LIN":"20鄰","STREET":"仁和路","SECT":" ","MAREA":" ","LANE":"１３９巷","ALLEY":" ","HOUSE_NO":"６號之１２","E_COORD97":171584.63,"N_COORD97":2541016.8399999999,"ADDRESS":"仁和路１３９巷６號之１２","OBJECTID":451950},"geometry":{"x":171584.63000000082,"y":2541016.8399999999}},{"attributes":{"ID":451976,"DIS_CODE":0,"TOWNNAME":"東區","LI":"德高里","LIN":"20鄰","STREET":"仁和路","SECT":" ","MAREA":" ","LANE":"１３９巷","ALLEY":" ","HOUSE_NO":"６號之１","E_COORD97":171569.17000000001,"N_COORD97":2541058.0299999998,"ADDRESS":"仁和路１３９巷６號之１","OBJECTID":451951},"geometry":{"x":171569.17000000086,"y":2541058.0300000012}},{"attributes":{"ID":451977,"DIS_CODE":0,"TOWNNAME":"東區","LI":"大智里","LIN":"20鄰","STREET":"崇善十四街","SECT":" ","MAREA":" ","LANE":"１巷","ALLEY":" ","HOUSE_NO":"１號","E_COORD97":171372.06,"N_COORD97":2540666.8100000001,"ADDRESS":"崇善十四街１巷１號","OBJECTID":451952},"geometry":{"x":171372.05999999959,"y":2540666.8100000024}},{"attributes":{"ID":451978,"DIS_CODE":0,"TOWNNAME":"東區","LI":"德高里","LIN":"20鄰","STREET":"仁和路","SECT":" ","MAREA":" ","LANE":"１３９巷","ALLEY":" ","HOUSE_NO":"６號之１４","E_COORD97":171588.17999999999,"N_COORD97":2541009.3300000001,"ADDRESS":"仁和路１３９巷６號之１４","OBJECTID":451953},"geometry":{"x":171588.1799999997,"y":2541009.3300000019}},{"attributes":{"ID":451979,"DIS_CODE":0,"TOWNNAME":"東區","LI":"德高里","LIN":"20鄰","STREET":"仁和路","SECT":" ","MAREA":" ","LANE":"１３９巷","ALLEY":" ","HOUSE_NO":"６號之２","E_COORD97":171570.73000000001,"N_COORD97":2541054.3500000001,"ADDRESS":"仁和路１３９巷６號之２","OBJECTID":451954},"geometry":{"x":171570.73000000138,"y":2541054.3499999996}},{"attributes":{"ID":451980,"DIS_CODE":0,"TOWNNAME":"東區","LI":"德高里","LIN":"20鄰","STREET":"仁和路","SECT":" ","MAREA":" ","LANE":"１３９巷","ALLEY":" ","HOUSE_NO":"６號之１１","E_COORD97":171583.64000000001,"N_COORD97":2541019.8199999998,"ADDRESS":"仁和路１３９巷６號之１１","OBJECTID":451955},"geometry":{"x":171583.63999999873,"y":2541019.8200000022}},{"attributes":{"ID":451981,"DIS_CODE":0,"TOWNNAME":"東區","LI":"德高里","LIN":"20鄰","STREET":"仁和路","SECT":" ","MAREA":" ","LANE":"１３９巷","ALLEY":" ","HOUSE_NO":"６號","E_COORD97":171564.20000000001,"N_COORD97":2541063.1400000001,"ADDRESS":"仁和路１３９巷６號","OBJECTID":451956},"geometry":{"x":171564.20000000112,"y":2541063.1400000006}},{"attributes":{"ID":451982,"DIS_CODE":0,"TOWNNAME":"東區","LI":"德高里","LIN":"20鄰","STREET":"仁和路","SECT":" ","MAREA":" ","LANE":"１３９巷","ALLEY":" ","HOUSE_NO":"６號之３","E_COORD97":171572.29000000001,"N_COORD97":2541050.8100000001,"ADDRESS":"仁和路１３９巷６號之３","OBJECTID":451957},"geometry":{"x":171572.29000000004,"y":2541050.8100000024}},{"attributes":{"ID":451983,"DIS_CODE":0,"TOWNNAME":"東區","LI":"德高里","LIN":"20鄰","STREET":"仁和路","SECT":" ","MAREA":" ","LANE":"１３９巷","ALLEY":" ","HOUSE_NO":"６號之４","E_COORD97":171573.56,"N_COORD97":2541046.8399999999,"ADDRESS":"仁和路１３９巷６號之４","OBJECTID":451958},"geometry":{"x":171573.55999999959,"y":2541046.8399999999}},{"attributes":{"ID":451984,"DIS_CODE":0,"TOWNNAME":"東區","LI":"德高里","LIN":"20鄰","STREET":"仁和路","SECT":" ","MAREA":" ","LANE":"１３９巷","ALLEY":" ","HOUSE_NO":"６號之５","E_COORD97":171574.98000000001,"N_COORD97":2541043.5800000001,"ADDRESS":"仁和路１３９巷６號之５","OBJECTID":451959},"geometry":{"x":171574.98000000045,"y":2541043.5800000038}},{"attributes":{"ID":451985,"DIS_CODE":0,"TOWNNAME":"東區","LI":"德高里","LIN":"20鄰","STREET":"仁和路","SECT":" ","MAREA":" ","LANE":"１３９巷","ALLEY":" ","HOUSE_NO":"６號之８","E_COORD97":171579.66,"N_COORD97":2541032.0899999999,"ADDRESS":"仁和路１３９巷６號之８","OBJECTID":451960},"geometry":{"x":171579.66000000108,"y":2541032.0899999999}},{"attributes":{"ID":451986,"DIS_CODE":0,"TOWNNAME":"東區","LI":"德高里","LIN":"20鄰","STREET":"仁和路","SECT":" ","MAREA":" ","LANE":"１３９巷","ALLEY":" ","HOUSE_NO":"６號之９","E_COORD97":171581.07999999999,"N_COORD97":2541028.1299999999,"ADDRESS":"仁和路１３９巷６號之９","OBJECTID":451961},"geometry":{"x":171581.07999999914,"y":2541028.129999999}},{"attributes":{"ID":451987,"DIS_CODE":0,"TOWNNAME":"東區","LI":"德高里","LIN":"20鄰","STREET":"仁和路","SECT":" ","MAREA":" ","LANE":"１３９巷","ALLEY":" ","HOUSE_NO":"６號之１０","E_COORD97":171582.64000000001,"N_COORD97":2541024.4399999999,"ADDRESS":"仁和路１３９巷６號之１０","OBJECTID":451962},"geometry":{"x":171582.6400000006,"y":2541024.4400000013}},{"attributes":{"ID":451988,"DIS_CODE":0,"TOWNNAME":"東區","LI":"德高里","LIN":"20鄰","STREET":"仁和路","SECT":" ","MAREA":" ","LANE":"１３９巷","ALLEY":" ","HOUSE_NO":"６號之１５","E_COORD97":171589.31,"N_COORD97":2541004.9300000002,"ADDRESS":"仁和路１３９巷６號之１５","OBJECTID":451963},"geometry":{"x":171589.31000000145,"y":2541004.9300000016}},{"attributes":{"ID":451989,"DIS_CODE":0,"TOWNNAME":"東區","LI":"德高里","LIN":"20鄰","STREET":"仁和路","SECT":" ","MAREA":" ","LANE":"１３９巷","ALLEY":" ","HOUSE_NO":"６號之１６","E_COORD97":171591.72,"N_COORD97":2541001.6699999999,"ADDRESS":"仁和路１３９巷６號之１６","OBJECTID":451964},"geometry":{"x":171591.7200000016,"y":2541001.6699999999}},{"attributes":{"ID":451990,"DIS_CODE":0,"TOWNNAME":"東區","LI":"德高里","LIN":"20鄰","STREET":"仁和路","SECT":" ","MAREA":" ","LANE":"１３９巷","ALLEY":" ","HOUSE_NO":"８號","E_COORD97":171569.45000000001,"N_COORD97":2541064.8399999999,"ADDRESS":"仁和路１３９巷８號","OBJECTID":451965},"geometry":{"x":171569.45000000112,"y":2541064.8399999999}},{"attributes":{"ID":451991,"DIS_CODE":0,"TOWNNAME":"東區","LI":"德高里","LIN":"20鄰","STREET":"仁和路","SECT":" ","MAREA":" ","LANE":"１３９巷","ALLEY":" ","HOUSE_NO":"６號之６","E_COORD97":171576.39999999999,"N_COORD97":2541039.6099999999,"ADDRESS":"仁和路１３９巷６號之６","OBJECTID":451966},"geometry":{"x":171576.4000000013,"y":2541039.6100000031}},{"attributes":{"ID":451992,"DIS_CODE":0,"TOWNNAME":"東區","LI":"大智里","LIN":"20鄰","STREET":"崇善十五街","SECT":" ","MAREA":" ","LANE":"１０巷","ALLEY":" ","HOUSE_NO":"１０號","E_COORD97":171386.92999999999,"N_COORD97":2540619.3100000001,"ADDRESS":"崇善十五街１０巷１０號","OBJECTID":451967},"geometry":{"x":171386.93000000156,"y":2540619.3100000024}},{"attributes":{"ID":451993,"DIS_CODE":0,"TOWNNAME":"東區","LI":"大智里","LIN":"20鄰","STREET":"崇善十五街","SECT":" ","MAREA":" ","LANE":"１０巷","ALLEY":" ","HOUSE_NO":"１２號","E_COORD97":171385.09,"N_COORD97":2540622.98,"ADDRESS":"崇善十五街１０巷１２號","OBJECTID":451968},"geometry":{"x":171385.08999999985,"y":2540622.9800000004}},{"attributes":{"ID":451994,"DIS_CODE":0,"TOWNNAME":"東區","LI":"大智里","LIN":"20鄰","STREET":"崇善十五街","SECT":" ","MAREA":" ","LANE":"１０巷","ALLEY":" ","HOUSE_NO":"１４號","E_COORD97":171382.70999999999,"N_COORD97":2540625.9100000001,"ADDRESS":"崇善十五街１０巷１４號","OBJECTID":451969},"geometry":{"x":171382.70999999996,"y":2540625.910000002}},{"attributes":{"ID":451995,"DIS_CODE":0,"TOWNNAME":"東區","LI":"大智里","LIN":"20鄰","STREET":"崇善十五街","SECT":" ","MAREA":" ","LANE":"１０巷","ALLEY":" ","HOUSE_NO":"１６號","E_COORD97":171378.12,"N_COORD97":2540628.8500000001,"ADDRESS":"崇善十五街１０巷１６號","OBJECTID":451970},"geometry":{"x":171378.12000000104,"y":2540628.8500000015}},{"attributes":{"ID":451996,"DIS_CODE":0,"TOWNNAME":"東區","LI":"大智里","LIN":"20鄰","STREET":"崇善十五街","SECT":" ","MAREA":" ","LANE":"１０巷","ALLEY":" ","HOUSE_NO":"１８號","E_COORD97":171369.48999999999,"N_COORD97":2540637.1000000001,"ADDRESS":"崇善十五街１０巷１８號","OBJECTID":451971},"geometry":{"x":171369.49000000022,"y":2540637.1000000015}},{"attributes":{"ID":451997,"DIS_CODE":0,"TOWNNAME":"東區","LI":"大智里","LIN":"20鄰","STREET":"崇善十五街","SECT":" ","MAREA":" ","LANE":"１０巷","ALLEY":" ","HOUSE_NO":"１號","E_COORD97":171391.70000000001,"N_COORD97":2540572.3300000001,"ADDRESS":"崇善十五街１０巷１號","OBJECTID":451972},"geometry":{"x":171391.70000000019,"y":2540572.3300000019}},{"attributes":{"ID":451998,"DIS_CODE":0,"TOWNNAME":"東區","LI":"大智里","LIN":"20鄰","STREET":"崇善十五街","SECT":" ","MAREA":" ","LANE":"１０巷","ALLEY":" ","HOUSE_NO":"２０號","E_COORD97":171367.10000000001,"N_COORD97":2540644.7999999998,"ADDRESS":"崇善十五街１０巷２０號","OBJECTID":451973},"geometry":{"x":171367.10000000149,"y":2540644.8000000007}},{"attributes":{"ID":451999,"DIS_CODE":0,"TOWNNAME":"東區","LI":"大智里","LIN":"20鄰","STREET":"崇善十五街","SECT":" ","MAREA":" ","LANE":"１０巷","ALLEY":" ","HOUSE_NO":"２號","E_COORD97":171403.45000000001,"N_COORD97":2540591.98,"ADDRESS":"崇善十五街１０巷２號","OBJECTID":451974},"geometry":{"x":171403.45000000019,"y":2540591.9800000023}},{"attributes":{"ID":452000,"DIS_CODE":0,"TOWNNAME":"東區","LI":"大智里","LIN":"20鄰","STREET":"崇善十五街","SECT":" ","MAREA":" ","LANE":"１０巷","ALLEY":" ","HOUSE_NO":"３號","E_COORD97":171390.04999999999,"N_COORD97":2540578.3799999999,"ADDRESS":"崇善十五街１０巷３號","OBJECTID":451975},"geometry":{"x":171390.05000000075,"y":2540578.379999999}},{"attributes":{"ID":452001,"DIS_CODE":0,"TOWNNAME":"東區","LI":"大智里","LIN":"20鄰","STREET":"崇善十五街","SECT":" ","MAREA":" ","LANE":"１０巷","ALLEY":" ","HOUSE_NO":"４號","E_COORD97":171395.73999999999,"N_COORD97":2540605.3700000001,"ADDRESS":"崇善十五街１０巷４號","OBJECTID":451976},"geometry":{"x":171395.74000000115,"y":2540605.3700000048}},{"attributes":{"ID":452002,"DIS_CODE":0,"TOWNNAME":"東區","LI":"大智里","LIN":"20鄰","STREET":"崇善十五街","SECT":" ","MAREA":" ","LANE":"１０巷","ALLEY":" ","HOUSE_NO":"５號","E_COORD97":171383.62,"N_COORD97":2540584.4300000002,"ADDRESS":"崇善十五街１０巷５號","OBJECTID":451977},"geometry":{"x":171383.62000000011,"y":2540584.4300000016}},{"attributes":{"ID":452003,"DIS_CODE":0,"TOWNNAME":"東區","LI":"大智里","LIN":"20鄰","STREET":"崇善十五街","SECT":" ","MAREA":" ","LANE":"１０巷","ALLEY":" ","HOUSE_NO":"６號","E_COORD97":171394.64000000001,"N_COORD97":2540610.8700000001,"ADDRESS":"崇善十五街１０巷６號","OBJECTID":451978},"geometry":{"x":171394.6400000006,"y":2540610.870000001}},{"attributes":{"ID":452004,"DIS_CODE":0,"TOWNNAME":"東區","LI":"大智里","LIN":"20鄰","STREET":"崇善十五街","SECT":" ","MAREA":" ","LANE":"１０巷","ALLEY":" ","HOUSE_NO":"７號","E_COORD97":171382.70999999999,"N_COORD97":2540589.75,"ADDRESS":"崇善十五街１０巷７號","OBJECTID":451979},"geometry":{"x":171382.70999999996,"y":2540589.7500000019}},{"attributes":{"ID":452005,"DIS_CODE":0,"TOWNNAME":"東區","LI":"大智里","LIN":"20鄰","STREET":"崇善十五街","SECT":" ","MAREA":" ","LANE":"１０巷","ALLEY":" ","HOUSE_NO":"８號","E_COORD97":171390.97,"N_COORD97":2540615.46,"ADDRESS":"崇善十五街１０巷８號","OBJECTID":451980},"geometry":{"x":171390.96999999974,"y":2540615.4600000028}},{"attributes":{"ID":452006,"DIS_CODE":0,"TOWNNAME":"東區","LI":"大智里","LIN":"20鄰","STREET":"崇善十五街","SECT":" ","MAREA":" ","LANE":"１０巷","ALLEY":" ","HOUSE_NO":"９號","E_COORD97":171379.04000000001,"N_COORD97":2540597.6400000001,"ADDRESS":"崇善十五街１０巷９號","OBJECTID":451981},"geometry":{"x":171379.04000000004,"y":2540597.6400000025}},{"attributes":{"ID":452007,"DIS_CODE":0,"TOWNNAME":"東區","LI":"大智里","LIN":"20鄰","STREET":"崇善十五街","SECT":" ","MAREA":" ","LANE":"３３巷","ALLEY":" ","HOUSE_NO":"５號","E_COORD97":171345.20999999999,"N_COORD97":2540526.48,"ADDRESS":"崇善十五街３３巷５號","OBJECTID":451982},"geometry":{"x":171345.21000000089,"y":2540526.4800000023}},{"attributes":{"ID":452008,"DIS_CODE":0,"TOWNNAME":"東區","LI":"大智里","LIN":"20鄰","STREET":"崇善十五街","SECT":" ","MAREA":" ","LANE":"３３巷","ALLEY":" ","HOUSE_NO":"７號","E_COORD97":171345.88,"N_COORD97":2540521.7999999998,"ADDRESS":"崇善十五街３３巷７號","OBJECTID":451983},"geometry":{"x":171345.87999999989,"y":2540521.8000000026}},{"attributes":{"ID":452009,"DIS_CODE":0,"TOWNNAME":"東區","LI":"大智里","LIN":"20鄰","STREET":"崇善十五街","SECT":" ","MAREA":" ","LANE":"３３巷","ALLEY":" ","HOUSE_NO":"９號","E_COORD97":171346.42000000001,"N_COORD97":2540514.1800000002,"ADDRESS":"崇善十五街３３巷９號","OBJECTID":451984},"geometry":{"x":171346.42000000179,"y":2540514.1800000016}},{"attributes":{"ID":452010,"DIS_CODE":0,"TOWNNAME":"東區","LI":"大智里","LIN":"20鄰","STREET":"崇善十四街","SECT":" ","MAREA":" ","LANE":"１巷","ALLEY":" ","HOUSE_NO":"１１號","E_COORD97":171384.91,"N_COORD97":2540638.2000000002,"ADDRESS":"崇善十四街１巷１１號","OBJECTID":451985},"geometry":{"x":171384.91000000108,"y":2540638.1999999993}},{"attributes":{"ID":452011,"DIS_CODE":0,"TOWNNAME":"東區","LI":"大智里","LIN":"20鄰","STREET":"崇善十四街","SECT":" ","MAREA":" ","LANE":"１巷","ALLEY":" ","HOUSE_NO":"２號","E_COORD97":171356.26999999999,"N_COORD97":2540659.8399999999,"ADDRESS":"崇善十四街１巷２號","OBJECTID":451986},"geometry":{"x":171356.27000000048,"y":2540659.8400000017}},{"attributes":{"ID":452012,"DIS_CODE":0,"TOWNNAME":"東區","LI":"大智里","LIN":"20鄰","STREET":"崇善十四街","SECT":" ","MAREA":" ","LANE":"１巷","ALLEY":" ","HOUSE_NO":"３號","E_COORD97":171375,"N_COORD97":2540661.3100000001,"ADDRESS":"崇善十四街１巷３號","OBJECTID":451987},"geometry":{"x":171375.00000000093,"y":2540661.3100000005}},{"attributes":{"ID":452013,"DIS_CODE":0,"TOWNNAME":"東區","LI":"大智里","LIN":"20鄰","STREET":"崇善十四街","SECT":" ","MAREA":" ","LANE":"１巷","ALLEY":" ","HOUSE_NO":"４號","E_COORD97":171359.76000000001,"N_COORD97":2540654.8900000001,"ADDRESS":"崇善十四街１巷４號","OBJECTID":451988},"geometry":{"x":171359.76000000071,"y":2540654.8900000006}},{"attributes":{"ID":452014,"DIS_CODE":0,"TOWNNAME":"永康區","LI":"三合里","LIN":"20鄰","STREET":"南工街","SECT":" ","MAREA":" ","LANE":"２６９巷","ALLEY":" ","HOUSE_NO":"２號","E_COORD97":171865.19,"N_COORD97":2545974.9900000002,"ADDRESS":"南工街２６９巷２號","OBJECTID":451989},"geometry":{"x":171865.19000000041,"y":2545974.9900000021}},{"attributes":{"ID":452015,"DIS_CODE":0,"TOWNNAME":"永康區","LI":"三合里","LIN":"20鄰","STREET":"南工街","SECT":" ","MAREA":" ","LANE":"２７９巷","ALLEY":" ","HOUSE_NO":"６號","E_COORD97":171855.48999999999,"N_COORD97":2546005.5,"ADDRESS":"南工街２７９巷６號","OBJECTID":451990},"geometry":{"x":171855.49000000115,"y":2546005.5000000019}},{"attributes":{"ID":452016,"DIS_CODE":0,"TOWNNAME":"永康區","LI":"中興里","LIN":"20鄰","STREET":"中華路","SECT":" ","MAREA":" ","LANE":"２１６巷","ALLEY":" ","HOUSE_NO":"６１號","E_COORD97":171897.12,"N_COORD97":2545166.5,"ADDRESS":"中華路２１６巷６１號","OBJECTID":451991},"geometry":{"x":171897.12000000011,"y":2545166.5}},{"attributes":{"ID":452017,"DIS_CODE":0,"TOWNNAME":"永康區","LI":"三合里","LIN":"20鄰","STREET":"南工街","SECT":" ","MAREA":" ","LANE":"２６７巷","ALLEY":" ","HOUSE_NO":"８號","E_COORD97":171878.59,"N_COORD97":2545943.2400000002,"ADDRESS":"南工街２６７巷８號","OBJECTID":451992},"geometry":{"x":171878.58999999985,"y":2545943.2400000021}},{"attributes":{"ID":452018,"DIS_CODE":0,"TOWNNAME":"中西區","LI":"西賢里","LIN":"20鄰","STREET":"西賢一街","SECT":" ","MAREA":" ","LANE":"１５９巷","ALLEY":" ","HOUSE_NO":"２號","E_COORD97":165660.06,"N_COORD97":2544874.5800000001,"ADDRESS":"西賢一街１５９巷２號","OBJECTID":451993},"geometry":{"x":165660.06000000052,"y":2544874.5799999982}},{"attributes":{"ID":452019,"DIS_CODE":0,"TOWNNAME":"中西區","LI":"西賢里","LIN":"20鄰","STREET":"西賢一街","SECT":" ","MAREA":" ","LANE":"１８７巷","ALLEY":" ","HOUSE_NO":"１０號","E_COORD97":165669.10999999999,"N_COORD97":2544960.0499999998,"ADDRESS":"西賢一街１８７巷１０號","OBJECTID":451994},"geometry":{"x":165669.11000000127,"y":2544960.0500000007}},{"attributes":{"ID":452020,"DIS_CODE":0,"TOWNNAME":"中西區","LI":"西賢里","LIN":"20鄰","STREET":"西賢一街","SECT":" ","MAREA":" ","LANE":"１８７巷","ALLEY":" ","HOUSE_NO":"１２號","E_COORD97":165664.98999999999,"N_COORD97":2544960.0499999998,"ADDRESS":"西賢一街１８７巷１２號","OBJECTID":451995},"geometry":{"x":165664.99000000022,"y":2544960.0500000007}},{"attributes":{"ID":452021,"DIS_CODE":0,"TOWNNAME":"中西區","LI":"西賢里","LIN":"20鄰","STREET":"西賢一街","SECT":" ","MAREA":" ","LANE":"１８７巷","ALLEY":" ","HOUSE_NO":"１６號","E_COORD97":165660.88,"N_COORD97":2544960.6000000001,"ADDRESS":"西賢一街１８７巷１６號","OBJECTID":451996},"geometry":{"x":165660.87999999989,"y":2544960.6000000015}},{"attributes":{"ID":452022,"DIS_CODE":0,"TOWNNAME":"中西區","LI":"西賢里","LIN":"20鄰","STREET":"西賢一街","SECT":" ","MAREA":" ","LANE":"１８７巷","ALLEY":" ","HOUSE_NO":"１８號","E_COORD97":165656.20999999999,"N_COORD97":2544961.1400000001,"ADDRESS":"西賢一街１８７巷１８號","OBJECTID":451997},"geometry":{"x":165656.21000000089,"y":2544961.1400000025}},{"attributes":{"ID":452023,"DIS_CODE":0,"TOWNNAME":"東區","LI":"大智里","LIN":"20鄰","STREET":"崇善十五街","SECT":" ","MAREA":" ","LANE":"１０巷","ALLEY":" ","HOUSE_NO":"２２號","E_COORD97":171364.53,"N_COORD97":2540649.3900000001,"ADDRESS":"崇善十五街１０巷２２號","OBJECTID":451998},"geometry":{"x":171364.53000000026,"y":2540649.3900000025}},{"attributes":{"ID":452024,"DIS_CODE":0,"TOWNNAME":"東區","LI":"泉南里","LIN":"20鄰","STREET":"府連東路","SECT":" ","MAREA":" ","LANE":"２２巷","ALLEY":" ","HOUSE_NO":"８號","E_COORD97":169700.76000000001,"N_COORD97":2542770.8500000001,"ADDRESS":"府連東路２２巷８號","OBJECTID":451999},"geometry":{"x":169700.75999999978,"y":2542770.8500000015}},{"attributes":{"ID":452025,"DIS_CODE":0,"TOWNNAME":"中西區","LI":"西賢里","LIN":"20鄰","STREET":"西賢一街","SECT":" ","MAREA":" ","LANE":"１８７巷","ALLEY":" ","HOUSE_NO":"２２號","E_COORD97":165656.35000000001,"N_COORD97":2544980.8799999999,"ADDRESS":"西賢一街１８７巷２２號","OBJECTID":452000},"geometry":{"x":165656.35000000056,"y":2544980.8800000008}}]}