{"displayFieldName":"TOWNNAME","fieldAliases":{"ID":"ID","DIS_CODE":"DIS_CODE","TOWNNAME":"TOWNNAME","LI":"LI","LIN":"LIN","STREET":"STREET","SECT":"SECT","MAREA":"MAREA","LANE":"LANE","ALLEY":"ALLEY","HOUSE_NO":"HOUSE_NO","E_COORD97":"E_COORD97","N_COORD97":"N_COORD97","ADDRESS":"ADDRESS","OBJECTID":"OBJECTID"},"geometryType":"esriGeometryPoint","spatialReference":{"wkid":102443,"latestWkid":3826},"fields":[{"name":"ID","type":"esriFieldTypeDouble","alias":"ID"},{"name":"DIS_CODE","type":"esriFieldTypeInteger","alias":"DIS_CODE"},{"name":"TOWNNAME","type":"esriFieldTypeString","alias":"TOWNNAME","length":8},{"name":"LI","type":"esriFieldTypeString","alias":"LI","length":8},{"name":"LIN","type":"esriFieldTypeString","alias":"LIN","length":12},{"name":"STREET","type":"esriFieldTypeString","alias":"STREET","length":20},{"name":"SECT","type":"esriFieldTypeString","alias":"SECT","length":8},{"name":"MAREA","type":"esriFieldTypeString","alias":"MAREA","length":12},{"name":"LANE","type":"esriFieldTypeString","alias":"LANE","length":10},{"name":"ALLEY","type":"esriFieldTypeString","alias":"ALLEY","length":10},{"name":"HOUSE_NO","type":"esriFieldTypeString","alias":"HOUSE_NO","length":20},{"name":"E_COORD97","type":"esriFieldTypeDouble","alias":"E_COORD97"},{"name":"N_COORD97","type":"esriFieldTypeDouble","alias":"N_COORD97"},{"name":"ADDRESS","type":"esriFieldTypeString","alias":"ADDRESS","length":50},{"name":"OBJECTID","type":"esriFieldTypeOID","alias":"OBJECTID"}],"features":[{"attributes":{"ID":585828,"DIS_CODE":0,"TOWNNAME":"南區","LI":"彰南里","LIN":"11鄰","STREET":"新樂路","SECT":" ","MAREA":" ","LANE":" ","ALLEY":" ","HOUSE_NO":"５號之１","E_COORD97":165804.56,"N_COORD97":2542139.6499999999,"ADDRESS":"新樂路５號之１","OBJECTID":585801},"geometry":{"x":165804.55999999959,"y":2542139.6500000022}},{"attributes":{"ID":585829,"DIS_CODE":0,"TOWNNAME":"南區","LI":"文南里","LIN":"11鄰","STREET":"建南路","SECT":" ","MAREA":" ","LANE":" ","ALLEY":" ","HOUSE_NO":"２４３號","E_COORD97":166712.62,"N_COORD97":2542859.04,"ADDRESS":"建南路２４３號","OBJECTID":585802},"geometry":{"x":166712.62000000104,"y":2542859.0399999991}},{"attributes":{"ID":585830,"DIS_CODE":0,"TOWNNAME":"南區","LI":"文南里","LIN":"11鄰","STREET":"建南路","SECT":" ","MAREA":" ","LANE":" ","ALLEY":" ","HOUSE_NO":"２４５號","E_COORD97":166708.01999999999,"N_COORD97":2542861.3500000001,"ADDRESS":"建南路２４５號","OBJECTID":585803},"geometry":{"x":166708.02000000048,"y":2542861.3499999996}},{"attributes":{"ID":585831,"DIS_CODE":0,"TOWNNAME":"南區","LI":"文南里","LIN":"11鄰","STREET":"建南路","SECT":" ","MAREA":" ","LANE":" ","ALLEY":" ","HOUSE_NO":"２４７號","E_COORD97":166703.42000000001,"N_COORD97":2542861.73,"ADDRESS":"建南路２４７號","OBJECTID":585804},"geometry":{"x":166703.42000000179,"y":2542861.7300000023}},{"attributes":{"ID":585832,"DIS_CODE":0,"TOWNNAME":"南區","LI":"文南里","LIN":"11鄰","STREET":"建南路","SECT":" ","MAREA":" ","LANE":" ","ALLEY":" ","HOUSE_NO":"２４９號","E_COORD97":166699.01000000001,"N_COORD97":2542861.73,"ADDRESS":"建南路２４９號","OBJECTID":585805},"geometry":{"x":166699.00999999978,"y":2542861.7300000023}},{"attributes":{"ID":585833,"DIS_CODE":0,"TOWNNAME":"南區","LI":"文南里","LIN":"11鄰","STREET":"建南路","SECT":" ","MAREA":" ","LANE":" ","ALLEY":" ","HOUSE_NO":"２５１號","E_COORD97":166694.98000000001,"N_COORD97":2542862.8700000001,"ADDRESS":"建南路２５１號","OBJECTID":585806},"geometry":{"x":166694.98000000231,"y":2542862.870000001}},{"attributes":{"ID":585834,"DIS_CODE":0,"TOWNNAME":"南區","LI":"文南里","LIN":"11鄰","STREET":"建南路","SECT":" ","MAREA":" ","LANE":" ","ALLEY":" ","HOUSE_NO":"２５３號","E_COORD97":166690.38,"N_COORD97":2542863.0699999998,"ADDRESS":"建南路２５３號","OBJECTID":585807},"geometry":{"x":166690.38000000082,"y":2542863.0700000003}},{"attributes":{"ID":585835,"DIS_CODE":0,"TOWNNAME":"南區","LI":"文南里","LIN":"11鄰","STREET":"建南路","SECT":" ","MAREA":" ","LANE":" ","ALLEY":" ","HOUSE_NO":"２５５號","E_COORD97":166685.76999999999,"N_COORD97":2542863.8300000001,"ADDRESS":"建南路２５５號","OBJECTID":585808},"geometry":{"x":166685.77000000048,"y":2542863.8300000019}},{"attributes":{"ID":585836,"DIS_CODE":0,"TOWNNAME":"南區","LI":"文南里","LIN":"11鄰","STREET":"建南路","SECT":" ","MAREA":" ","LANE":" ","ALLEY":" ","HOUSE_NO":"２５７號","E_COORD97":166681.37,"N_COORD97":2542864.2200000002,"ADDRESS":"建南路２５７號","OBJECTID":585809},"geometry":{"x":166681.37000000011,"y":2542864.2200000044}},{"attributes":{"ID":585837,"DIS_CODE":0,"TOWNNAME":"南區","LI":"文南里","LIN":"11鄰","STREET":"建南路","SECT":" ","MAREA":" ","LANE":" ","ALLEY":" ","HOUSE_NO":"２５９號","E_COORD97":166676.95000000001,"N_COORD97":2542864.4100000001,"ADDRESS":"建南路２５９號","OBJECTID":585810},"geometry":{"x":166676.95000000112,"y":2542864.4100000001}},{"attributes":{"ID":585838,"DIS_CODE":0,"TOWNNAME":"東區","LI":"東智里","LIN":"6鄰","STREET":"德東街","SECT":" ","MAREA":" ","LANE":" ","ALLEY":" ","HOUSE_NO":"１號","E_COORD97":170796.73000000001,"N_COORD97":2540254.6899999999,"ADDRESS":"德東街１號","OBJECTID":585811},"geometry":{"x":170796.73000000045,"y":2540254.6899999995}},{"attributes":{"ID":585839,"DIS_CODE":0,"TOWNNAME":"南區","LI":"文南里","LIN":"11鄰","STREET":"建南路","SECT":" ","MAREA":" ","LANE":" ","ALLEY":" ","HOUSE_NO":"２６１號","E_COORD97":166672.73000000001,"N_COORD97":2542864.6000000001,"ADDRESS":"建南路２６１號","OBJECTID":585812},"geometry":{"x":166672.73000000045,"y":2542864.6000000015}},{"attributes":{"ID":585840,"DIS_CODE":0,"TOWNNAME":"南區","LI":"文南里","LIN":"11鄰","STREET":"建南路","SECT":" ","MAREA":" ","LANE":" ","ALLEY":" ","HOUSE_NO":"２６３號","E_COORD97":166668.32999999999,"N_COORD97":2542864.98,"ADDRESS":"建南路２６３號","OBJECTID":585813},"geometry":{"x":166668.33000000007,"y":2542864.9800000004}},{"attributes":{"ID":585841,"DIS_CODE":0,"TOWNNAME":"南區","LI":"文南里","LIN":"11鄰","STREET":"建南路","SECT":" ","MAREA":" ","LANE":" ","ALLEY":" ","HOUSE_NO":"２６５號","E_COORD97":166664.31,"N_COORD97":2542865.3700000001,"ADDRESS":"建南路２６５號","OBJECTID":585814},"geometry":{"x":166664.30999999959,"y":2542865.370000001}},{"attributes":{"ID":585842,"DIS_CODE":0,"TOWNNAME":"南區","LI":"文南里","LIN":"11鄰","STREET":"建南路","SECT":" ","MAREA":" ","LANE":" ","ALLEY":" ","HOUSE_NO":"２６７號","E_COORD97":166659.51000000001,"N_COORD97":2542865.9399999999,"ADDRESS":"建南路２６７號","OBJECTID":585815},"geometry":{"x":166659.50999999978,"y":2542865.9400000013}},{"attributes":{"ID":585843,"DIS_CODE":0,"TOWNNAME":"南區","LI":"文南里","LIN":"11鄰","STREET":"建南路","SECT":" ","MAREA":" ","LANE":" ","ALLEY":" ","HOUSE_NO":"２６９號","E_COORD97":166654.70999999999,"N_COORD97":2542866.1400000001,"ADDRESS":"建南路２６９號","OBJECTID":585816},"geometry":{"x":166654.71000000089,"y":2542866.1400000006}},{"attributes":{"ID":585844,"DIS_CODE":0,"TOWNNAME":"南區","LI":"文南里","LIN":"11鄰","STREET":"建南路","SECT":" ","MAREA":" ","LANE":" ","ALLEY":" ","HOUSE_NO":"２７１號","E_COORD97":166650.5,"N_COORD97":2542866.52,"ADDRESS":"建南路２７１號","OBJECTID":585817},"geometry":{"x":166650.50000000093,"y":2542866.5199999996}},{"attributes":{"ID":585845,"DIS_CODE":0,"TOWNNAME":"南區","LI":"文南里","LIN":"11鄰","STREET":"建南路","SECT":" ","MAREA":" ","LANE":" ","ALLEY":" ","HOUSE_NO":"２７３號","E_COORD97":166646.28,"N_COORD97":2542867.2799999998,"ADDRESS":"建南路２７３號","OBJECTID":585818},"geometry":{"x":166646.28000000026,"y":2542867.2799999993}},{"attributes":{"ID":585846,"DIS_CODE":0,"TOWNNAME":"南區","LI":"文南里","LIN":"11鄰","STREET":"建南路","SECT":" ","MAREA":" ","LANE":" ","ALLEY":" ","HOUSE_NO":"２７５號","E_COORD97":166641.29999999999,"N_COORD97":2542867.4700000002,"ADDRESS":"建南路２７５號","OBJECTID":585819},"geometry":{"x":166641.30000000168,"y":2542867.4700000007}},{"attributes":{"ID":585847,"DIS_CODE":0,"TOWNNAME":"南區","LI":"文南里","LIN":"11鄰","STREET":"建南路","SECT":" ","MAREA":" ","LANE":" ","ALLEY":" ","HOUSE_NO":"２７７號","E_COORD97":166637.07999999999,"N_COORD97":2542867.8599999999,"ADDRESS":"建南路２７７號","OBJECTID":585820},"geometry":{"x":166637.08000000101,"y":2542867.8599999994}},{"attributes":{"ID":585848,"DIS_CODE":0,"TOWNNAME":"南區","LI":"文南里","LIN":"11鄰","STREET":"建南路","SECT":" ","MAREA":" ","LANE":" ","ALLEY":" ","HOUSE_NO":"２７９號","E_COORD97":166628.06,"N_COORD97":2542867.6600000001,"ADDRESS":"建南路２７９號","OBJECTID":585821},"geometry":{"x":166628.06000000052,"y":2542867.660000002}},{"attributes":{"ID":585849,"DIS_CODE":0,"TOWNNAME":"南區","LI":"文南里","LIN":"11鄰","STREET":"建南路","SECT":" ","MAREA":" ","LANE":" ","ALLEY":" ","HOUSE_NO":"２８１號","E_COORD97":166620.20000000001,"N_COORD97":2542868.0499999998,"ADDRESS":"建南路２８１號","OBJECTID":585822},"geometry":{"x":166620.20000000019,"y":2542868.0500000007}},{"attributes":{"ID":585850,"DIS_CODE":0,"TOWNNAME":"南區","LI":"文南里","LIN":"11鄰","STREET":"建南路","SECT":" ","MAREA":" ","LANE":" ","ALLEY":" ","HOUSE_NO":"２８３號","E_COORD97":166609.45999999999,"N_COORD97":2542868.4300000002,"ADDRESS":"建南路２８３號","OBJECTID":585823},"geometry":{"x":166609.45999999996,"y":2542868.4300000034}},{"attributes":{"ID":585851,"DIS_CODE":0,"TOWNNAME":"南區","LI":"再興里","LIN":"11鄰","STREET":"仁慈街","SECT":" ","MAREA":" ","LANE":" ","ALLEY":" ","HOUSE_NO":"４１號","E_COORD97":167209.04999999999,"N_COORD97":2542131.6499999999,"ADDRESS":"仁慈街４１號","OBJECTID":585824},"geometry":{"x":167209.04999999981,"y":2542131.6499999985}},{"attributes":{"ID":585852,"DIS_CODE":0,"TOWNNAME":"南區","LI":"再興里","LIN":"11鄰","STREET":"仁慈街","SECT":" ","MAREA":" ","LANE":" ","ALLEY":" ","HOUSE_NO":"４３號","E_COORD97":167204.64999999999,"N_COORD97":2542131.3300000001,"ADDRESS":"仁慈街４３號","OBJECTID":585825},"geometry":{"x":167204.6500000013,"y":2542131.3300000019}},{"attributes":{"ID":585853,"DIS_CODE":0,"TOWNNAME":"南區","LI":"興農里","LIN":"11鄰","STREET":"明興路","SECT":" ","MAREA":" ","LANE":" ","ALLEY":" ","HOUSE_NO":"１１５３號","E_COORD97":166547.60999999999,"N_COORD97":2536423.6099999999,"ADDRESS":"明興路１１５３號","OBJECTID":585826},"geometry":{"x":166547.61000000034,"y":2536423.6099999994}},{"attributes":{"ID":585854,"DIS_CODE":0,"TOWNNAME":"南區","LI":"喜東里","LIN":"11鄰","STREET":"明興路","SECT":" ","MAREA":" ","LANE":" ","ALLEY":" ","HOUSE_NO":"７０８號","E_COORD97":166058.41,"N_COORD97":2538024.4199999999,"ADDRESS":"明興路７０８號","OBJECTID":585827},"geometry":{"x":166058.41000000108,"y":2538024.4200000018}},{"attributes":{"ID":585855,"DIS_CODE":0,"TOWNNAME":"南區","LI":"明興里","LIN":"11鄰","STREET":"永興四街","SECT":" ","MAREA":" ","LANE":" ","ALLEY":" ","HOUSE_NO":"３９號","E_COORD97":167154.12,"N_COORD97":2540558.71,"ADDRESS":"永興四街３９號","OBJECTID":585828},"geometry":{"x":167154.12000000011,"y":2540558.7100000046}},{"attributes":{"ID":585856,"DIS_CODE":0,"TOWNNAME":"歸仁區","LI":"後市里","LIN":"11鄰","STREET":"民權五街","SECT":" ","MAREA":" ","LANE":" ","ALLEY":" ","HOUSE_NO":"１８號","E_COORD97":177040.48999999999,"N_COORD97":2540769.25,"ADDRESS":"民權五街１８號","OBJECTID":585829},"geometry":{"x":177040.49000000209,"y":2540769.2500000019}},{"attributes":{"ID":585857,"DIS_CODE":0,"TOWNNAME":"歸仁區","LI":"崙頂里","LIN":"11鄰","STREET":"成功路","SECT":"二段","MAREA":" ","LANE":" ","ALLEY":" ","HOUSE_NO":"９１號","E_COORD97":178077.04000000001,"N_COORD97":2539768.3799999999,"ADDRESS":"成功路二段９１號","OBJECTID":585830},"geometry":{"x":178077.04000000004,"y":2539768.379999999}},{"attributes":{"ID":585858,"DIS_CODE":0,"TOWNNAME":"歸仁區","LI":"看西里","LIN":"11鄰","STREET":"成功六街","SECT":" ","MAREA":" ","LANE":" ","ALLEY":" ","HOUSE_NO":"８０號","E_COORD97":178405.03,"N_COORD97":2540281.8300000001,"ADDRESS":"成功六街８０號","OBJECTID":585831},"geometry":{"x":178405.03000000119,"y":2540281.8300000001}},{"attributes":{"ID":585859,"DIS_CODE":0,"TOWNNAME":"歸仁區","LI":"後市里","LIN":"11鄰","STREET":"民權五街","SECT":" ","MAREA":" ","LANE":" ","ALLEY":" ","HOUSE_NO":"１２號","E_COORD97":177027.19,"N_COORD97":2540776.25,"ADDRESS":"民權五街１２號","OBJECTID":585832},"geometry":{"x":177027.19000000041,"y":2540776.2500000019}},{"attributes":{"ID":585860,"DIS_CODE":0,"TOWNNAME":"歸仁區","LI":"崙頂里","LIN":"11鄰","STREET":"成功路","SECT":"二段","MAREA":" ","LANE":" ","ALLEY":" ","HOUSE_NO":"１５１號","E_COORD97":177949.07999999999,"N_COORD97":2539697.25,"ADDRESS":"成功路二段１５１號","OBJECTID":585833},"geometry":{"x":177949.08000000101,"y":2539697.2500000019}},{"attributes":{"ID":585861,"DIS_CODE":0,"TOWNNAME":"歸仁區","LI":"後市里","LIN":"11鄰","STREET":"民權五街","SECT":" ","MAREA":" ","LANE":" ","ALLEY":" ","HOUSE_NO":"１０號","E_COORD97":177023.09,"N_COORD97":2540776.25,"ADDRESS":"民權五街１０號","OBJECTID":585834},"geometry":{"x":177023.09000000078,"y":2540776.2500000019}},{"attributes":{"ID":585862,"DIS_CODE":0,"TOWNNAME":"歸仁區","LI":"許厝里","LIN":"11鄰","STREET":"公園路","SECT":" ","MAREA":" ","LANE":" ","ALLEY":" ","HOUSE_NO":"７１號","E_COORD97":177948.67999999999,"N_COORD97":2540393.25,"ADDRESS":"公園路７１號","OBJECTID":585835},"geometry":{"x":177948.6799999997,"y":2540393.25}},{"attributes":{"ID":585863,"DIS_CODE":0,"TOWNNAME":"歸仁區","LI":"崙頂里","LIN":"11鄰","STREET":"成功路","SECT":"二段","MAREA":" ","LANE":" ","ALLEY":" ","HOUSE_NO":"１０５號","E_COORD97":178062.89000000001,"N_COORD97":2539759.3799999999,"ADDRESS":"成功路二段１０５號","OBJECTID":585836},"geometry":{"x":178062.8900000006,"y":2539759.3800000008}},{"attributes":{"ID":585864,"DIS_CODE":0,"TOWNNAME":"歸仁區","LI":"看西里","LIN":"11鄰","STREET":"成功六街","SECT":" ","MAREA":" ","LANE":" ","ALLEY":" ","HOUSE_NO":"５０號","E_COORD97":178395.53,"N_COORD97":2540210.8300000001,"ADDRESS":"成功六街５０號","OBJECTID":585837},"geometry":{"x":178395.53000000026,"y":2540210.8300000001}},{"attributes":{"ID":585865,"DIS_CODE":0,"TOWNNAME":"歸仁區","LI":"看西里","LIN":"11鄰","STREET":"成功六街","SECT":" ","MAREA":" ","LANE":" ","ALLEY":" ","HOUSE_NO":"６２號","E_COORD97":178397.63,"N_COORD97":2540234.8300000001,"ADDRESS":"成功六街６２號","OBJECTID":585838},"geometry":{"x":178397.63000000082,"y":2540234.8299999982}},{"attributes":{"ID":585866,"DIS_CODE":0,"TOWNNAME":"歸仁區","LI":"後市里","LIN":"11鄰","STREET":"民權七街","SECT":" ","MAREA":" ","LANE":" ","ALLEY":" ","HOUSE_NO":"２７號","E_COORD97":177059.69,"N_COORD97":2540728.25,"ADDRESS":"民權七街２７號","OBJECTID":585839},"geometry":{"x":177059.69000000227,"y":2540728.2500000019}},{"attributes":{"ID":585867,"DIS_CODE":0,"TOWNNAME":"歸仁區","LI":"後市里","LIN":"11鄰","STREET":"民權七街","SECT":" ","MAREA":" ","LANE":" ","ALLEY":" ","HOUSE_NO":"２３號","E_COORD97":177049.48999999999,"N_COORD97":2540731.25,"ADDRESS":"民權七街２３號","OBJECTID":585840},"geometry":{"x":177049.49000000115,"y":2540731.2500000019}},{"attributes":{"ID":585868,"DIS_CODE":0,"TOWNNAME":"歸仁區","LI":"許厝里","LIN":"11鄰","STREET":"信義南路","SECT":" ","MAREA":" ","LANE":" ","ALLEY":" ","HOUSE_NO":"１０３號","E_COORD97":178140.81,"N_COORD97":2540447.1000000001,"ADDRESS":"信義南路１０３號","OBJECTID":585841},"geometry":{"x":178140.80999999959,"y":2540447.1000000015}},{"attributes":{"ID":585869,"DIS_CODE":0,"TOWNNAME":"歸仁區","LI":"南興里","LIN":"11鄰","STREET":"民生二街","SECT":" ","MAREA":" ","LANE":" ","ALLEY":" ","HOUSE_NO":"１５６號","E_COORD97":176005.14000000001,"N_COORD97":2541349.29,"ADDRESS":"民生二街１５６號","OBJECTID":585842},"geometry":{"x":176005.1400000006,"y":2541349.2899999991}},{"attributes":{"ID":585870,"DIS_CODE":0,"TOWNNAME":"歸仁區","LI":"許厝里","LIN":"11鄰","STREET":"信義南路","SECT":" ","MAREA":" ","LANE":" ","ALLEY":" ","HOUSE_NO":"７３號","E_COORD97":178120.32000000001,"N_COORD97":2540524.1000000001,"ADDRESS":"信義南路７３號","OBJECTID":585843},"geometry":{"x":178120.32000000123,"y":2540524.0999999978}},{"attributes":{"ID":585871,"DIS_CODE":0,"TOWNNAME":"歸仁區","LI":"南興里","LIN":"11鄰","STREET":"民生二街","SECT":" ","MAREA":" ","LANE":" ","ALLEY":" ","HOUSE_NO":"１３６號","E_COORD97":176056.34,"N_COORD97":2541347.29,"ADDRESS":"民生二街１３６號","OBJECTID":585844},"geometry":{"x":176056.34000000078,"y":2541347.290000001}},{"attributes":{"ID":585872,"DIS_CODE":0,"TOWNNAME":"歸仁區","LI":"文化里","LIN":"11鄰","STREET":"文化北街","SECT":" ","MAREA":" ","LANE":" ","ALLEY":" ","HOUSE_NO":"７８號","E_COORD97":177286.95999999999,"N_COORD97":2541410.3399999999,"ADDRESS":"文化北街７８號","OBJECTID":585845},"geometry":{"x":177286.96000000089,"y":2541410.3399999999}},{"attributes":{"ID":585873,"DIS_CODE":0,"TOWNNAME":"歸仁區","LI":"六甲里","LIN":"11鄰","STREET":"中正南路","SECT":"一段","MAREA":" ","LANE":" ","ALLEY":" ","HOUSE_NO":"１２０３號","E_COORD97":175970.59,"N_COORD97":2538698.8300000001,"ADDRESS":"中正南路一段１２０３號","OBJECTID":585846},"geometry":{"x":175970.58999999985,"y":2538698.8300000001}},{"attributes":{"ID":585874,"DIS_CODE":0,"TOWNNAME":"歸仁區","LI":"許厝里","LIN":"11鄰","STREET":"信義南路","SECT":" ","MAREA":" ","LANE":" ","ALLEY":" ","HOUSE_NO":"８７號","E_COORD97":178136.62,"N_COORD97":2540487.1000000001,"ADDRESS":"信義南路８７號","OBJECTID":585847},"geometry":{"x":178136.62000000104,"y":2540487.1000000034}},{"attributes":{"ID":585875,"DIS_CODE":0,"TOWNNAME":"歸仁區","LI":"許厝里","LIN":"11鄰","STREET":"信義南路","SECT":" ","MAREA":" ","LANE":" ","ALLEY":" ","HOUSE_NO":"６９號","E_COORD97":178116.32000000001,"N_COORD97":2540533.1000000001,"ADDRESS":"信義南路６９號","OBJECTID":585848},"geometry":{"x":178116.31999999937,"y":2540533.0999999996}},{"attributes":{"ID":585876,"DIS_CODE":0,"TOWNNAME":"歸仁區","LI":"後市里","LIN":"11鄰","STREET":"民權七街","SECT":" ","MAREA":" ","LANE":" ","ALLEY":" ","HOUSE_NO":"３號","E_COORD97":177014.12,"N_COORD97":2540734.29,"ADDRESS":"民權七街３號","OBJECTID":585849},"geometry":{"x":177014.12000000197,"y":2540734.290000001}},{"attributes":{"ID":585877,"DIS_CODE":0,"TOWNNAME":"歸仁區","LI":"六甲里","LIN":"11鄰","STREET":"六甲路","SECT":" ","MAREA":" ","LANE":" ","ALLEY":" ","HOUSE_NO":"２２１號","E_COORD97":176006.66,"N_COORD97":2539192.25,"ADDRESS":"六甲路２２１號","OBJECTID":585850},"geometry":{"x":176006.66000000015,"y":2539192.2500000019}},{"attributes":{"ID":585878,"DIS_CODE":0,"TOWNNAME":"歸仁區","LI":"文化里","LIN":"11鄰","STREET":"文化北街","SECT":" ","MAREA":" ","LANE":" ","ALLEY":" ","HOUSE_NO":"６２號","E_COORD97":177319.76000000001,"N_COORD97":2541408.3399999999,"ADDRESS":"文化北街６２號","OBJECTID":585851},"geometry":{"x":177319.76000000071,"y":2541408.3400000017}},{"attributes":{"ID":585879,"DIS_CODE":0,"TOWNNAME":"歸仁區","LI":"六甲里","LIN":"11鄰","STREET":"中正南路","SECT":"一段","MAREA":" ","LANE":" ","ALLEY":" ","HOUSE_NO":"１０１３號","E_COORD97":175992.95000000001,"N_COORD97":2539169.2799999998,"ADDRESS":"中正南路一段１０１３號","OBJECTID":585852},"geometry":{"x":175992.94999999925,"y":2539169.2799999993}},{"attributes":{"ID":585880,"DIS_CODE":0,"TOWNNAME":"歸仁區","LI":"六甲里","LIN":"11鄰","STREET":"中正南路","SECT":"一段","MAREA":" ","LANE":" ","ALLEY":" ","HOUSE_NO":"１０５７號","E_COORD97":175983.35000000001,"N_COORD97":2539083.2799999998,"ADDRESS":"中正南路一段１０５７號","OBJECTID":585853},"geometry":{"x":175983.35000000056,"y":2539083.2800000012}},{"attributes":{"ID":585881,"DIS_CODE":0,"TOWNNAME":"歸仁區","LI":"文化里","LIN":"11鄰","STREET":"文化北街","SECT":" ","MAREA":" ","LANE":" ","ALLEY":" ","HOUSE_NO":"７６號","E_COORD97":177291.06,"N_COORD97":2541409.3399999999,"ADDRESS":"文化北街７６號","OBJECTID":585854},"geometry":{"x":177291.05999999959,"y":2541409.3400000017}},{"attributes":{"ID":585882,"DIS_CODE":0,"TOWNNAME":"歸仁區","LI":"六甲里","LIN":"11鄰","STREET":"凱旋路","SECT":"二段","MAREA":" ","LANE":" ","ALLEY":" ","HOUSE_NO":"２７５號","E_COORD97":176942.26999999999,"N_COORD97":2539160.2799999998,"ADDRESS":"凱旋路二段２７５號","OBJECTID":585855},"geometry":{"x":176942.26999999955,"y":2539160.2800000012}},{"attributes":{"ID":585883,"DIS_CODE":0,"TOWNNAME":"歸仁區","LI":"西埔里","LIN":"11鄰","STREET":"西埔一街","SECT":" ","MAREA":" ","LANE":" ","ALLEY":" ","HOUSE_NO":"２５６號","E_COORD97":177050.29000000001,"N_COORD97":2544750.9500000002,"ADDRESS":"西埔一街２５６號","OBJECTID":585856},"geometry":{"x":177050.29000000097,"y":2544750.9500000011}},{"attributes":{"ID":585884,"DIS_CODE":0,"TOWNNAME":"歸仁區","LI":"六甲里","LIN":"11鄰","STREET":"六甲路","SECT":" ","MAREA":" ","LANE":" ","ALLEY":" ","HOUSE_NO":"２０９號","E_COORD97":176016.95999999999,"N_COORD97":2539192.25,"ADDRESS":"六甲路２０９號","OBJECTID":585857},"geometry":{"x":176016.96000000089,"y":2539192.2500000019}},{"attributes":{"ID":585885,"DIS_CODE":0,"TOWNNAME":"歸仁區","LI":"六甲里","LIN":"11鄰","STREET":"凱旋路","SECT":"三段","MAREA":" ","LANE":" ","ALLEY":" ","HOUSE_NO":"２６１號","E_COORD97":175989.57000000001,"N_COORD97":2538962.2799999998,"ADDRESS":"凱旋路三段２６１號","OBJECTID":585858},"geometry":{"x":175989.57000000123,"y":2538962.2799999993}},{"attributes":{"ID":585886,"DIS_CODE":0,"TOWNNAME":"歸仁區","LI":"六甲里","LIN":"11鄰","STREET":"中正南路","SECT":"一段","MAREA":" ","LANE":" ","ALLEY":" ","HOUSE_NO":"１２０９號","E_COORD97":175955.69,"N_COORD97":2538591.8300000001,"ADDRESS":"中正南路一段１２０９號","OBJECTID":585859},"geometry":{"x":175955.69000000041,"y":2538591.8300000019}},{"attributes":{"ID":585887,"DIS_CODE":0,"TOWNNAME":"歸仁區","LI":"六甲里","LIN":"11鄰","STREET":"中正南路","SECT":"一段","MAREA":" ","LANE":" ","ALLEY":" ","HOUSE_NO":"１０５５號","E_COORD97":175986.45000000001,"N_COORD97":2539091.2799999998,"ADDRESS":"中正南路一段１０５５號","OBJECTID":585860},"geometry":{"x":175986.45000000112,"y":2539091.2799999993}},{"attributes":{"ID":585888,"DIS_CODE":0,"TOWNNAME":"歸仁區","LI":"六甲里","LIN":"11鄰","STREET":"中正南路","SECT":"一段","MAREA":" ","LANE":" ","ALLEY":" ","HOUSE_NO":"１０１５號","E_COORD97":175991.95000000001,"N_COORD97":2539163.2799999998,"ADDRESS":"中正南路一段１０１５號","OBJECTID":585861},"geometry":{"x":175991.95000000112,"y":2539163.2800000031}},{"attributes":{"ID":585889,"DIS_CODE":0,"TOWNNAME":"歸仁區","LI":"西埔里","LIN":"11鄰","STREET":"西埔一街","SECT":" ","MAREA":" ","LANE":" ","ALLEY":" ","HOUSE_NO":"２６８號","E_COORD97":177060.69,"N_COORD97":2544783.9500000002,"ADDRESS":"西埔一街２６８號","OBJECTID":585862},"geometry":{"x":177060.69000000041,"y":2544783.9500000011}},{"attributes":{"ID":585890,"DIS_CODE":0,"TOWNNAME":"歸仁區","LI":"六甲里","LIN":"11鄰","STREET":"中正南路","SECT":"一段","MAREA":" ","LANE":" ","ALLEY":" ","HOUSE_NO":"１２０７號","E_COORD97":175960.09,"N_COORD97":2538646.8300000001,"ADDRESS":"中正南路一段１２０７號","OBJECTID":585863},"geometry":{"x":175960.09000000078,"y":2538646.8300000001}},{"attributes":{"ID":585891,"DIS_CODE":0,"TOWNNAME":"歸仁區","LI":"六甲里","LIN":"11鄰","STREET":"中正南路","SECT":"一段","MAREA":" ","LANE":" ","ALLEY":" ","HOUSE_NO":"１０５３號","E_COORD97":175986.45000000001,"N_COORD97":2539096.2799999998,"ADDRESS":"中正南路一段１０５３號","OBJECTID":585864},"geometry":{"x":175986.45000000112,"y":2539096.2800000012}},{"attributes":{"ID":585892,"DIS_CODE":0,"TOWNNAME":"歸仁區","LI":"六甲里","LIN":"11鄰","STREET":"凱旋路","SECT":"三段","MAREA":" ","LANE":" ","ALLEY":" ","HOUSE_NO":"１５０號","E_COORD97":176166.17000000001,"N_COORD97":2538997.2799999998,"ADDRESS":"凱旋路三段１５０號","OBJECTID":585865},"geometry":{"x":176166.17000000086,"y":2538997.2800000031}},{"attributes":{"ID":585893,"DIS_CODE":0,"TOWNNAME":"玉井區","LI":"玉井里","LIN":"11鄰","STREET":"中正路","SECT":" ","MAREA":" ","LANE":" ","ALLEY":" ","HOUSE_NO":"８１號","E_COORD97":194837.79999999999,"N_COORD97":2558157.25,"ADDRESS":"中正路８１號","OBJECTID":585866},"geometry":{"x":194837.80000000075,"y":2558157.2500000037}},{"attributes":{"ID":585894,"DIS_CODE":0,"TOWNNAME":"歸仁區","LI":"六甲里","LIN":"11鄰","STREET":"中正南路","SECT":"一段","MAREA":" ","LANE":" ","ALLEY":" ","HOUSE_NO":"１０９９號","E_COORD97":175980.85999999999,"N_COORD97":2539002.2799999998,"ADDRESS":"中正南路一段１０９９號","OBJECTID":585867},"geometry":{"x":175980.86000000127,"y":2539002.2799999993}},{"attributes":{"ID":585895,"DIS_CODE":0,"TOWNNAME":"歸仁區","LI":"武東里","LIN":"11鄰","STREET":"光明街","SECT":" ","MAREA":" ","LANE":" ","ALLEY":" ","HOUSE_NO":"４１０號","E_COORD97":175436.04000000001,"N_COORD97":2535793.25,"ADDRESS":"光明街４１０號","OBJECTID":585868},"geometry":{"x":175436.04000000004,"y":2535793.25}},{"attributes":{"ID":585896,"DIS_CODE":0,"TOWNNAME":"歸仁區","LI":"六甲里","LIN":"11鄰","STREET":"六甲路","SECT":" ","MAREA":" ","LANE":" ","ALLEY":" ","HOUSE_NO":"２２５號","E_COORD97":175992.26000000001,"N_COORD97":2539187.25,"ADDRESS":"六甲路２２５號","OBJECTID":585869},"geometry":{"x":175992.26000000164,"y":2539187.25}},{"attributes":{"ID":585897,"DIS_CODE":0,"TOWNNAME":"歸仁區","LI":"武東里","LIN":"11鄰","STREET":"光明街","SECT":" ","MAREA":" ","LANE":" ","ALLEY":" ","HOUSE_NO":"４０６號","E_COORD97":175491.94,"N_COORD97":2535897.25,"ADDRESS":"光明街４０６號","OBJECTID":585870},"geometry":{"x":175491.94000000134,"y":2535897.2500000019}},{"attributes":{"ID":585898,"DIS_CODE":0,"TOWNNAME":"歸仁區","LI":"六甲里","LIN":"11鄰","STREET":"中正南路","SECT":"一段","MAREA":" ","LANE":" ","ALLEY":" ","HOUSE_NO":"１０６５號","E_COORD97":175983.25,"N_COORD97":2539072.2799999998,"ADDRESS":"中正南路一段１０６５號","OBJECTID":585871},"geometry":{"x":175983.25,"y":2539072.2800000012}},{"attributes":{"ID":585899,"DIS_CODE":0,"TOWNNAME":"歸仁區","LI":"武東里","LIN":"11鄰","STREET":"光明街","SECT":" ","MAREA":" ","LANE":" ","ALLEY":" ","HOUSE_NO":"４０８號","E_COORD97":175481.44,"N_COORD97":2535853.25,"ADDRESS":"光明街４０８號","OBJECTID":585872},"geometry":{"x":175481.44000000227,"y":2535853.2500000019}},{"attributes":{"ID":585900,"DIS_CODE":0,"TOWNNAME":"歸仁區","LI":"六甲里","LIN":"11鄰","STREET":"六甲路","SECT":" ","MAREA":" ","LANE":" ","ALLEY":" ","HOUSE_NO":"２０５號","E_COORD97":176033.35999999999,"N_COORD97":2539192.25,"ADDRESS":"六甲路２０５號","OBJECTID":585873},"geometry":{"x":176033.36000000127,"y":2539192.2500000019}},{"attributes":{"ID":585901,"DIS_CODE":0,"TOWNNAME":"歸仁區","LI":"六甲里","LIN":"11鄰","STREET":"中正南路","SECT":"一段","MAREA":" ","LANE":" ","ALLEY":" ","HOUSE_NO":"１０２３號","E_COORD97":175995.95000000001,"N_COORD97":2539148.2799999998,"ADDRESS":"中正南路一段１０２３號","OBJECTID":585874},"geometry":{"x":175995.95000000019,"y":2539148.2799999993}},{"attributes":{"ID":585902,"DIS_CODE":0,"TOWNNAME":"歸仁區","LI":"看東里","LIN":"11鄰","STREET":"忠孝南路","SECT":" ","MAREA":" ","LANE":" ","ALLEY":" ","HOUSE_NO":"１０９號","E_COORD97":178539,"N_COORD97":2540379.48,"ADDRESS":"忠孝南路１０９號","OBJECTID":585875},"geometry":{"x":178539.00000000093,"y":2540379.4800000004}},{"attributes":{"ID":585903,"DIS_CODE":0,"TOWNNAME":"歸仁區","LI":"後市里","LIN":"11鄰","STREET":"民權七街","SECT":" ","MAREA":" ","LANE":" ","ALLEY":" ","HOUSE_NO":"２９號","E_COORD97":177062.79000000001,"N_COORD97":2540729.25,"ADDRESS":"民權七街２９號","OBJECTID":585876},"geometry":{"x":177062.79000000097,"y":2540729.25}},{"attributes":{"ID":585904,"DIS_CODE":0,"TOWNNAME":"玉井區","LI":"玉田里","LIN":"11鄰","STREET":"神農街","SECT":" ","MAREA":" ","LANE":" ","ALLEY":" ","HOUSE_NO":"４８號","E_COORD97":194822.98000000001,"N_COORD97":2557990.27,"ADDRESS":"神農街４８號","OBJECTID":585877},"geometry":{"x":194822.98000000045,"y":2557990.2700000033}},{"attributes":{"ID":585905,"DIS_CODE":0,"TOWNNAME":"玉井區","LI":"玉井里","LIN":"11鄰","STREET":"中正路","SECT":" ","MAREA":" ","LANE":" ","ALLEY":" ","HOUSE_NO":"６７號","E_COORD97":194803.89999999999,"N_COORD97":2558148.25,"ADDRESS":"中正路６７號","OBJECTID":585878},"geometry":{"x":194803.9000000013,"y":2558148.2500000019}},{"attributes":{"ID":585906,"DIS_CODE":0,"TOWNNAME":"玉井區","LI":"玉井里","LIN":"11鄰","STREET":"中正路","SECT":" ","MAREA":" ","LANE":" ","ALLEY":" ","HOUSE_NO":"８９號","E_COORD97":194844.70999999999,"N_COORD97":2558170.2400000002,"ADDRESS":"中正路８９號","OBJECTID":585879},"geometry":{"x":194844.70999999996,"y":2558170.2400000002}},{"attributes":{"ID":585907,"DIS_CODE":0,"TOWNNAME":"玉井區","LI":"玉井里","LIN":"11鄰","STREET":"中正路","SECT":" ","MAREA":" ","LANE":" ","ALLEY":" ","HOUSE_NO":"９１號","E_COORD97":194846.39999999999,"N_COORD97":2558173.2400000002,"ADDRESS":"中正路９１號","OBJECTID":585880},"geometry":{"x":194846.4000000013,"y":2558173.2400000002}},{"attributes":{"ID":585908,"DIS_CODE":0,"TOWNNAME":"玉井區","LI":"玉井里","LIN":"11鄰","STREET":"中正路","SECT":" ","MAREA":" ","LANE":" ","ALLEY":" ","HOUSE_NO":"７５號","E_COORD97":194823.20999999999,"N_COORD97":2558145.25,"ADDRESS":"中正路７５號","OBJECTID":585881},"geometry":{"x":194823.21000000089,"y":2558145.25}},{"attributes":{"ID":585909,"DIS_CODE":0,"TOWNNAME":"玉井區","LI":"玉井里","LIN":"11鄰","STREET":"中正路","SECT":" ","MAREA":" ","LANE":" ","ALLEY":" ","HOUSE_NO":"７１號","E_COORD97":194812.39999999999,"N_COORD97":2558145.25,"ADDRESS":"中正路７１號","OBJECTID":585882},"geometry":{"x":194812.4000000013,"y":2558145.25}},{"attributes":{"ID":585910,"DIS_CODE":0,"TOWNNAME":"玉井區","LI":"玉井里","LIN":"11鄰","STREET":"中正路","SECT":" ","MAREA":" ","LANE":" ","ALLEY":" ","HOUSE_NO":"８７號","E_COORD97":194843.10999999999,"N_COORD97":2558167.2400000002,"ADDRESS":"中正路８７號","OBJECTID":585883},"geometry":{"x":194843.11000000127,"y":2558167.2400000002}},{"attributes":{"ID":585911,"DIS_CODE":0,"TOWNNAME":"玉井區","LI":"玉井里","LIN":"11鄰","STREET":"中正路","SECT":" ","MAREA":" ","LANE":" ","ALLEY":" ","HOUSE_NO":"６５號","E_COORD97":194798.10000000001,"N_COORD97":2558148.25,"ADDRESS":"中正路６５號","OBJECTID":585884},"geometry":{"x":194798.10000000056,"y":2558148.2500000019}},{"attributes":{"ID":585912,"DIS_CODE":0,"TOWNNAME":"歸仁區","LI":"大廟里","LIN":"11鄰","STREET":"大廟五街","SECT":" ","MAREA":" ","LANE":" ","ALLEY":" ","HOUSE_NO":"２０號","E_COORD97":175932.03,"N_COORD97":2544187.25,"ADDRESS":"大廟五街２０號","OBJECTID":585885},"geometry":{"x":175932.03000000119,"y":2544187.25}},{"attributes":{"ID":585913,"DIS_CODE":0,"TOWNNAME":"玉井區","LI":"玉井里","LIN":"11鄰","STREET":"中正路","SECT":" ","MAREA":" ","LANE":" ","ALLEY":" ","HOUSE_NO":"８３號","E_COORD97":194839.70999999999,"N_COORD97":2558160.2400000002,"ADDRESS":"中正路８３號","OBJECTID":585886},"geometry":{"x":194839.70999999996,"y":2558160.2400000002}},{"attributes":{"ID":585914,"DIS_CODE":0,"TOWNNAME":"玉井區","LI":"玉井里","LIN":"11鄰","STREET":"中正路","SECT":" ","MAREA":" ","LANE":" ","ALLEY":" ","HOUSE_NO":"７７號","E_COORD97":194829.20999999999,"N_COORD97":2558146.25,"ADDRESS":"中正路７７號","OBJECTID":585887},"geometry":{"x":194829.20999999996,"y":2558146.25}},{"attributes":{"ID":585915,"DIS_CODE":0,"TOWNNAME":"玉井區","LI":"玉井里","LIN":"11鄰","STREET":"中正路","SECT":" ","MAREA":" ","LANE":" ","ALLEY":" ","HOUSE_NO":"６９號","E_COORD97":194807.89999999999,"N_COORD97":2558147.25,"ADDRESS":"中正路６９號","OBJECTID":585888},"geometry":{"x":194807.90000000037,"y":2558147.2500000019}},{"attributes":{"ID":585916,"DIS_CODE":0,"TOWNNAME":"玉井區","LI":"玉井里","LIN":"11鄰","STREET":"中正路","SECT":" ","MAREA":" ","LANE":" ","ALLEY":" ","HOUSE_NO":"８５號","E_COORD97":194841.39999999999,"N_COORD97":2558163.2400000002,"ADDRESS":"中正路８５號","OBJECTID":585889},"geometry":{"x":194841.4000000013,"y":2558163.2400000002}},{"attributes":{"ID":585917,"DIS_CODE":0,"TOWNNAME":"玉井區","LI":"玉井里","LIN":"11鄰","STREET":"中正路","SECT":" ","MAREA":" ","LANE":" ","ALLEY":" ","HOUSE_NO":"７３號","E_COORD97":194818.10999999999,"N_COORD97":2558144.25,"ADDRESS":"中正路７３號","OBJECTID":585890},"geometry":{"x":194818.11000000034,"y":2558144.2500000019}},{"attributes":{"ID":585918,"DIS_CODE":0,"TOWNNAME":"歸仁區","LI":"新厝里","LIN":"11鄰","STREET":"公園十街","SECT":" ","MAREA":" ","LANE":" ","ALLEY":" ","HOUSE_NO":"１２號","E_COORD97":177685.42999999999,"N_COORD97":2540447,"ADDRESS":"公園十街１２號","OBJECTID":585891},"geometry":{"x":177685.4299999997,"y":2540447}},{"attributes":{"ID":585919,"DIS_CODE":0,"TOWNNAME":"南區","LI":"文南里","LIN":"11鄰","STREET":"南明街","SECT":" ","MAREA":" ","LANE":" ","ALLEY":" ","HOUSE_NO":"５４號","E_COORD97":166704.95000000001,"N_COORD97":2542812.5,"ADDRESS":"南明街５４號","OBJECTID":585892},"geometry":{"x":166704.95000000019,"y":2542812.5}},{"attributes":{"ID":585920,"DIS_CODE":0,"TOWNNAME":"南區","LI":"文南里","LIN":"11鄰","STREET":"南明街","SECT":" ","MAREA":" ","LANE":" ","ALLEY":" ","HOUSE_NO":"５６號","E_COORD97":166698.42999999999,"N_COORD97":2542812.8799999999,"ADDRESS":"南明街５６號","OBJECTID":585893},"geometry":{"x":166698.43000000063,"y":2542812.879999999}},{"attributes":{"ID":585921,"DIS_CODE":0,"TOWNNAME":"南區","LI":"文南里","LIN":"11鄰","STREET":"南明街","SECT":" ","MAREA":" ","LANE":" ","ALLEY":" ","HOUSE_NO":"５８號","E_COORD97":166692.48999999999,"N_COORD97":2542813.6400000001,"ADDRESS":"南明街５８號","OBJECTID":585894},"geometry":{"x":166692.49000000022,"y":2542813.6400000043}},{"attributes":{"ID":585922,"DIS_CODE":0,"TOWNNAME":"南區","LI":"文南里","LIN":"11鄰","STREET":"南明街","SECT":" ","MAREA":" ","LANE":" ","ALLEY":" ","HOUSE_NO":"６０號","E_COORD97":166686.35000000001,"N_COORD97":2542814.4100000001,"ADDRESS":"南明街６０號","OBJECTID":585895},"geometry":{"x":166686.34999999963,"y":2542814.4099999983}},{"attributes":{"ID":585923,"DIS_CODE":0,"TOWNNAME":"麻豆區","LI":"東角里","LIN":"11鄰","STREET":"同仁街","SECT":" ","MAREA":" ","LANE":" ","ALLEY":" ","HOUSE_NO":"２１號","E_COORD97":173883.54999999999,"N_COORD97":2564557.4300000002,"ADDRESS":"同仁街２１號","OBJECTID":585896},"geometry":{"x":173883.55000000075,"y":2564557.4300000016}},{"attributes":{"ID":585924,"DIS_CODE":0,"TOWNNAME":"麻豆區","LI":"保安里","LIN":"11鄰","STREET":"民族路","SECT":" ","MAREA":" ","LANE":" ","ALLEY":" ","HOUSE_NO":"２號","E_COORD97":173174.04000000001,"N_COORD97":2564787.3500000001,"ADDRESS":"民族路２號","OBJECTID":585897},"geometry":{"x":173174.04000000097,"y":2564787.3499999978}},{"attributes":{"ID":585925,"DIS_CODE":0,"TOWNNAME":"麻豆區","LI":"保安里","LIN":"11鄰","STREET":"民族路","SECT":" ","MAREA":" ","LANE":" ","ALLEY":" ","HOUSE_NO":"４號之１","E_COORD97":173172.14000000001,"N_COORD97":2564780.9500000002,"ADDRESS":"民族路４號之１","OBJECTID":585898},"geometry":{"x":173172.14000000153,"y":2564780.9500000011}},{"attributes":{"ID":585926,"DIS_CODE":0,"TOWNNAME":"北區","LI":"正覺里","LIN":"11鄰","STREET":"正覺街","SECT":" ","MAREA":" ","LANE":" ","ALLEY":" ","HOUSE_NO":"３號","E_COORD97":169309.69,"N_COORD97":2546171.9900000002,"ADDRESS":"正覺街３號","OBJECTID":585899},"geometry":{"x":169309.69000000134,"y":2546171.9900000021}},{"attributes":{"ID":585927,"DIS_CODE":0,"TOWNNAME":"北區","LI":"正風里","LIN":"11鄰","STREET":"公園路","SECT":" ","MAREA":" ","LANE":" ","ALLEY":" ","HOUSE_NO":"１０６４號","E_COORD97":169624.03,"N_COORD97":2546506.8399999999,"ADDRESS":"公園路１０６４號","OBJECTID":585900},"geometry":{"x":169624.03000000119,"y":2546506.8400000036}},{"attributes":{"ID":585928,"DIS_CODE":0,"TOWNNAME":"北區","LI":"正風里","LIN":"11鄰","STREET":"公園路","SECT":" ","MAREA":" ","LANE":" ","ALLEY":" ","HOUSE_NO":"１０６４號之２","E_COORD97":169622.54999999999,"N_COORD97":2546511,"ADDRESS":"公園路１０６４號之２","OBJECTID":585901},"geometry":{"x":169622.54999999981,"y":2546511.0000000019}},{"attributes":{"ID":585929,"DIS_CODE":0,"TOWNNAME":"北區","LI":"正風里","LIN":"11鄰","STREET":"公園路","SECT":" ","MAREA":" ","LANE":" ","ALLEY":" ","HOUSE_NO":"１０６６號","E_COORD97":169622.70999999999,"N_COORD97":2546516.1600000001,"ADDRESS":"公園路１０６６號","OBJECTID":585902},"geometry":{"x":169622.71000000089,"y":2546516.160000002}},{"attributes":{"ID":585930,"DIS_CODE":0,"TOWNNAME":"北區","LI":"正風里","LIN":"11鄰","STREET":"公園路","SECT":" ","MAREA":" ","LANE":" ","ALLEY":" ","HOUSE_NO":"１０６６號之１","E_COORD97":169623.85999999999,"N_COORD97":2546521.5,"ADDRESS":"公園路１０６６號之１","OBJECTID":585903},"geometry":{"x":169623.86000000127,"y":2546521.5}},{"attributes":{"ID":585931,"DIS_CODE":0,"TOWNNAME":"北區","LI":"正風里","LIN":"11鄰","STREET":"公園路","SECT":" ","MAREA":" ","LANE":" ","ALLEY":" ","HOUSE_NO":"１０６８號","E_COORD97":169624.85000000001,"N_COORD97":2546525.1800000002,"ADDRESS":"公園路１０６８號","OBJECTID":585904},"geometry":{"x":169624.85000000056,"y":2546525.1800000016}},{"attributes":{"ID":585932,"DIS_CODE":0,"TOWNNAME":"北區","LI":"正覺里","LIN":"11鄰","STREET":"正覺街","SECT":" ","MAREA":" ","LANE":" ","ALLEY":" ","HOUSE_NO":"３１號之１","E_COORD97":169305.94,"N_COORD97":2546277.6400000001,"ADDRESS":"正覺街３１號之１","OBJECTID":585905},"geometry":{"x":169305.94000000227,"y":2546277.6400000006}},{"attributes":{"ID":585933,"DIS_CODE":0,"TOWNNAME":"北區","LI":"正風里","LIN":"11鄰","STREET":"公園路","SECT":" ","MAREA":" ","LANE":" ","ALLEY":" ","HOUSE_NO":"１０７０號","E_COORD97":169625.98999999999,"N_COORD97":2546530.5800000001,"ADDRESS":"公園路１０７０號","OBJECTID":585906},"geometry":{"x":169625.99000000115,"y":2546530.5800000019}},{"attributes":{"ID":585934,"DIS_CODE":0,"TOWNNAME":"北區","LI":"正風里","LIN":"11鄰","STREET":"公園路","SECT":" ","MAREA":" ","LANE":" ","ALLEY":" ","HOUSE_NO":"１０７２號","E_COORD97":169626.64999999999,"N_COORD97":2546534.2799999998,"ADDRESS":"公園路１０７２號","OBJECTID":585907},"geometry":{"x":169626.6500000013,"y":2546534.2800000012}},{"attributes":{"ID":585935,"DIS_CODE":0,"TOWNNAME":"北區","LI":"正風里","LIN":"11鄰","STREET":"公園路","SECT":" ","MAREA":" ","LANE":" ","ALLEY":" ","HOUSE_NO":"１０７２號之１","E_COORD97":169627.95999999999,"N_COORD97":2546539.0499999998,"ADDRESS":"公園路１０７２號之１","OBJECTID":585908},"geometry":{"x":169627.96000000089,"y":2546539.0500000007}},{"attributes":{"ID":585936,"DIS_CODE":0,"TOWNNAME":"北區","LI":"正風里","LIN":"11鄰","STREET":"公園路","SECT":" ","MAREA":" ","LANE":" ","ALLEY":" ","HOUSE_NO":"１０７２號之２","E_COORD97":169629.19,"N_COORD97":2546543.3999999999,"ADDRESS":"公園路１０７２號之２","OBJECTID":585909},"geometry":{"x":169629.19000000041,"y":2546543.4000000004}},{"attributes":{"ID":585937,"DIS_CODE":0,"TOWNNAME":"北區","LI":"正風里","LIN":"11鄰","STREET":"公園路","SECT":" ","MAREA":" ","LANE":" ","ALLEY":" ","HOUSE_NO":"１０７２號之３","E_COORD97":169630.01000000001,"N_COORD97":2546547.98,"ADDRESS":"公園路１０７２號之３","OBJECTID":585910},"geometry":{"x":169630.00999999978,"y":2546547.9800000023}},{"attributes":{"ID":585938,"DIS_CODE":0,"TOWNNAME":"北區","LI":"正風里","LIN":"11鄰","STREET":"公園路","SECT":" ","MAREA":" ","LANE":" ","ALLEY":" ","HOUSE_NO":"１０７６號","E_COORD97":169634.84,"N_COORD97":2546564.6600000001,"ADDRESS":"公園路１０７６號","OBJECTID":585911},"geometry":{"x":169634.84000000171,"y":2546564.6600000001}},{"attributes":{"ID":585939,"DIS_CODE":0,"TOWNNAME":"北區","LI":"正風里","LIN":"11鄰","STREET":"公園路","SECT":" ","MAREA":" ","LANE":" ","ALLEY":" ","HOUSE_NO":"１０７８號","E_COORD97":169635.76000000001,"N_COORD97":2546570.2999999998,"ADDRESS":"公園路１０７８號","OBJECTID":585912},"geometry":{"x":169635.76000000071,"y":2546570.3000000026}},{"attributes":{"ID":585940,"DIS_CODE":0,"TOWNNAME":"北區","LI":"正風里","LIN":"11鄰","STREET":"公園路","SECT":" ","MAREA":" ","LANE":" ","ALLEY":" ","HOUSE_NO":"１０８０號","E_COORD97":169636.69,"N_COORD97":2546576.3900000001,"ADDRESS":"公園路１０８０號","OBJECTID":585913},"geometry":{"x":169636.69000000134,"y":2546576.3900000025}},{"attributes":{"ID":585941,"DIS_CODE":0,"TOWNNAME":"北區","LI":"正風里","LIN":"11鄰","STREET":"公園路","SECT":" ","MAREA":" ","LANE":" ","ALLEY":" ","HOUSE_NO":"１０８２號","E_COORD97":169638.63,"N_COORD97":2546582.3999999999,"ADDRESS":"公園路１０８２號","OBJECTID":585914},"geometry":{"x":169638.63000000082,"y":2546582.4000000022}},{"attributes":{"ID":585942,"DIS_CODE":0,"TOWNNAME":"北區","LI":"正風里","LIN":"11鄰","STREET":"公園路","SECT":" ","MAREA":" ","LANE":" ","ALLEY":" ","HOUSE_NO":"１０８４號","E_COORD97":169639.45999999999,"N_COORD97":2546586.4500000002,"ADDRESS":"公園路１０８４號","OBJECTID":585915},"geometry":{"x":169639.46000000089,"y":2546586.4499999993}},{"attributes":{"ID":585943,"DIS_CODE":0,"TOWNNAME":"北區","LI":"正風里","LIN":"11鄰","STREET":"公園路","SECT":" ","MAREA":" ","LANE":" ","ALLEY":" ","HOUSE_NO":"１０８６號","E_COORD97":169640.38,"N_COORD97":2546591.4399999999,"ADDRESS":"公園路１０８６號","OBJECTID":585916},"geometry":{"x":169640.38000000082,"y":2546591.4400000013}},{"attributes":{"ID":585944,"DIS_CODE":0,"TOWNNAME":"北區","LI":"正風里","LIN":"11鄰","STREET":"公園路","SECT":" ","MAREA":" ","LANE":" ","ALLEY":" ","HOUSE_NO":"１０８８號","E_COORD97":169641.95000000001,"N_COORD97":2546595.77,"ADDRESS":"公園路１０８８號","OBJECTID":585917},"geometry":{"x":169641.95000000112,"y":2546595.7700000014}},{"attributes":{"ID":585945,"DIS_CODE":0,"TOWNNAME":"北區","LI":"正風里","LIN":"11鄰","STREET":"公園路","SECT":" ","MAREA":" ","LANE":" ","ALLEY":" ","HOUSE_NO":"１０９０號","E_COORD97":169642.51000000001,"N_COORD97":2546599.9199999999,"ADDRESS":"公園路１０９０號","OBJECTID":585918},"geometry":{"x":169642.51000000071,"y":2546599.9199999999}},{"attributes":{"ID":585946,"DIS_CODE":0,"TOWNNAME":"北區","LI":"正覺里","LIN":"11鄰","STREET":"北安路","SECT":"一段","MAREA":" ","LANE":" ","ALLEY":" ","HOUSE_NO":"１０號","E_COORD97":169276.23999999999,"N_COORD97":2546194.3900000001,"ADDRESS":"北安路一段１０號","OBJECTID":585919},"geometry":{"x":169276.24000000022,"y":2546194.3900000006}},{"attributes":{"ID":585947,"DIS_CODE":0,"TOWNNAME":"北區","LI":"正覺里","LIN":"11鄰","STREET":"北安路","SECT":"一段","MAREA":" ","LANE":" ","ALLEY":" ","HOUSE_NO":"１２號","E_COORD97":169272.23000000001,"N_COORD97":2546196.77,"ADDRESS":"北安路一段１２號","OBJECTID":585920},"geometry":{"x":169272.23000000138,"y":2546196.7700000014}},{"attributes":{"ID":585948,"DIS_CODE":0,"TOWNNAME":"北區","LI":"正覺里","LIN":"11鄰","STREET":"北安路","SECT":"一段","MAREA":" ","LANE":" ","ALLEY":" ","HOUSE_NO":"１４號","E_COORD97":169268.70000000001,"N_COORD97":2546198.2000000002,"ADDRESS":"北安路一段１４號","OBJECTID":585921},"geometry":{"x":169268.70000000112,"y":2546198.1999999993}},{"attributes":{"ID":585949,"DIS_CODE":0,"TOWNNAME":"北區","LI":"正覺里","LIN":"11鄰","STREET":"北安路","SECT":"一段","MAREA":" ","LANE":" ","ALLEY":" ","HOUSE_NO":"２６號","E_COORD97":169243.69,"N_COORD97":2546218.48,"ADDRESS":"北安路一段２６號","OBJECTID":585922},"geometry":{"x":169243.69000000134,"y":2546218.4800000042}},{"attributes":{"ID":585950,"DIS_CODE":0,"TOWNNAME":"北區","LI":"正覺里","LIN":"11鄰","STREET":"北安路","SECT":"一段","MAREA":" ","LANE":" ","ALLEY":" ","HOUSE_NO":"２８號","E_COORD97":169236.95999999999,"N_COORD97":2546221.8999999999,"ADDRESS":"北安路一段２８號","OBJECTID":585923},"geometry":{"x":169236.95999999996,"y":2546221.9000000004}},{"attributes":{"ID":585951,"DIS_CODE":0,"TOWNNAME":"北區","LI":"正覺里","LIN":"11鄰","STREET":"北安路","SECT":"一段","MAREA":" ","LANE":" ","ALLEY":" ","HOUSE_NO":"２號","E_COORD97":169286.64999999999,"N_COORD97":2546184.1099999999,"ADDRESS":"北安路一段２號","OBJECTID":585924},"geometry":{"x":169286.65000000037,"y":2546184.1100000013}},{"attributes":{"ID":585952,"DIS_CODE":0,"TOWNNAME":"北區","LI":"正覺里","LIN":"11鄰","STREET":"北安路","SECT":"一段","MAREA":" ","LANE":" ","ALLEY":" ","HOUSE_NO":"３０號","E_COORD97":169232.78,"N_COORD97":2546224.5499999998,"ADDRESS":"北安路一段３０號","OBJECTID":585925},"geometry":{"x":169232.78000000119,"y":2546224.5500000007}},{"attributes":{"ID":585953,"DIS_CODE":0,"TOWNNAME":"北區","LI":"正覺里","LIN":"11鄰","STREET":"北安路","SECT":"一段","MAREA":" ","LANE":" ","ALLEY":" ","HOUSE_NO":"４８號","E_COORD97":169200.89000000001,"N_COORD97":2546249.5,"ADDRESS":"北安路一段４８號","OBJECTID":585926},"geometry":{"x":169200.8900000006,"y":2546249.5000000019}},{"attributes":{"ID":585954,"DIS_CODE":0,"TOWNNAME":"北區","LI":"正覺里","LIN":"11鄰","STREET":"北安路","SECT":"一段","MAREA":" ","LANE":" ","ALLEY":" ","HOUSE_NO":"５０號","E_COORD97":169197.98000000001,"N_COORD97":2546251.8599999999,"ADDRESS":"北安路一段５０號","OBJECTID":585927},"geometry":{"x":169197.98000000045,"y":2546251.8599999975}},{"attributes":{"ID":585955,"DIS_CODE":0,"TOWNNAME":"北區","LI":"正覺里","LIN":"11鄰","STREET":"北安路","SECT":"一段","MAREA":" ","LANE":" ","ALLEY":" ","HOUSE_NO":"５２號","E_COORD97":169193.70000000001,"N_COORD97":2546254.04,"ADDRESS":"北安路一段５２號","OBJECTID":585928},"geometry":{"x":169193.70000000205,"y":2546254.0400000028}},{"attributes":{"ID":585956,"DIS_CODE":0,"TOWNNAME":"北區","LI":"正覺里","LIN":"11鄰","STREET":"北安路","SECT":"一段","MAREA":" ","LANE":" ","ALLEY":" ","HOUSE_NO":"５４號","E_COORD97":169192.25,"N_COORD97":2546257.04,"ADDRESS":"北安路一段５４號","OBJECTID":585929},"geometry":{"x":169192.25000000093,"y":2546257.0399999972}},{"attributes":{"ID":585957,"DIS_CODE":0,"TOWNNAME":"北區","LI":"正覺里","LIN":"11鄰","STREET":"北安路","SECT":"一段","MAREA":" ","LANE":" ","ALLEY":" ","HOUSE_NO":"６號","E_COORD97":169280.69,"N_COORD97":2546187.5,"ADDRESS":"北安路一段６號","OBJECTID":585930},"geometry":{"x":169280.69000000134,"y":2546187.5000000037}},{"attributes":{"ID":585958,"DIS_CODE":0,"TOWNNAME":"北區","LI":"正覺里","LIN":"11鄰","STREET":"北安路","SECT":"一段","MAREA":" ","LANE":" ","ALLEY":" ","HOUSE_NO":"８號","E_COORD97":169278.12,"N_COORD97":2546191.2599999998,"ADDRESS":"北安路一段８號","OBJECTID":585931},"geometry":{"x":169278.12000000011,"y":2546191.2599999998}},{"attributes":{"ID":585959,"DIS_CODE":0,"TOWNNAME":"北區","LI":"正覺里","LIN":"11鄰","STREET":"正覺街","SECT":" ","MAREA":" ","LANE":" ","ALLEY":" ","HOUSE_NO":"１１號","E_COORD97":169305.64999999999,"N_COORD97":2546205.5499999998,"ADDRESS":"正覺街１１號","OBJECTID":585932},"geometry":{"x":169305.65000000037,"y":2546205.5500000026}},{"attributes":{"ID":585960,"DIS_CODE":0,"TOWNNAME":"北區","LI":"正覺里","LIN":"11鄰","STREET":"正覺街","SECT":" ","MAREA":" ","LANE":" ","ALLEY":" ","HOUSE_NO":"１３號","E_COORD97":169306.51000000001,"N_COORD97":2546214.0299999998,"ADDRESS":"正覺街１３號","OBJECTID":585933},"geometry":{"x":169306.51000000164,"y":2546214.0300000012}},{"attributes":{"ID":585961,"DIS_CODE":0,"TOWNNAME":"北區","LI":"正覺里","LIN":"11鄰","STREET":"正覺街","SECT":" ","MAREA":" ","LANE":" ","ALLEY":" ","HOUSE_NO":"１５號","E_COORD97":169306.70000000001,"N_COORD97":2546217.79,"ADDRESS":"正覺街１５號","OBJECTID":585934},"geometry":{"x":169306.70000000019,"y":2546217.7899999991}},{"attributes":{"ID":585962,"DIS_CODE":0,"TOWNNAME":"北區","LI":"正覺里","LIN":"11鄰","STREET":"正覺街","SECT":" ","MAREA":" ","LANE":" ","ALLEY":" ","HOUSE_NO":"１７號","E_COORD97":169306.70999999999,"N_COORD97":2546221.1200000001,"ADDRESS":"正覺街１７號","OBJECTID":585935},"geometry":{"x":169306.70999999996,"y":2546221.120000001}},{"attributes":{"ID":585963,"DIS_CODE":0,"TOWNNAME":"北區","LI":"正覺里","LIN":"11鄰","STREET":"正覺街","SECT":" ","MAREA":" ","LANE":" ","ALLEY":" ","HOUSE_NO":"１９號","E_COORD97":169306.60999999999,"N_COORD97":2546225.0299999998,"ADDRESS":"正覺街１９號","OBJECTID":585936},"geometry":{"x":169306.61000000127,"y":2546225.0300000012}},{"attributes":{"ID":585964,"DIS_CODE":0,"TOWNNAME":"北區","LI":"正覺里","LIN":"11鄰","STREET":"正覺街","SECT":" ","MAREA":" ","LANE":" ","ALLEY":" ","HOUSE_NO":"２１號","E_COORD97":169306.98999999999,"N_COORD97":2546231.1299999999,"ADDRESS":"正覺街２１號","OBJECTID":585937},"geometry":{"x":169306.99000000209,"y":2546231.129999999}},{"attributes":{"ID":585965,"DIS_CODE":0,"TOWNNAME":"北區","LI":"正覺里","LIN":"11鄰","STREET":"正覺街","SECT":" ","MAREA":" ","LANE":" ","ALLEY":" ","HOUSE_NO":"２９號之１","E_COORD97":169305.26999999999,"N_COORD97":2546263.9900000002,"ADDRESS":"正覺街２９號之１","OBJECTID":585938},"geometry":{"x":169305.26999999955,"y":2546263.9900000002}},{"attributes":{"ID":585966,"DIS_CODE":0,"TOWNNAME":"北區","LI":"正覺里","LIN":"11鄰","STREET":"正覺街","SECT":" ","MAREA":" ","LANE":" ","ALLEY":" ","HOUSE_NO":"２９號之２","E_COORD97":169304.98000000001,"N_COORD97":2546267.9900000002,"ADDRESS":"正覺街２９號之２","OBJECTID":585939},"geometry":{"x":169304.98000000045,"y":2546267.9900000002}},{"attributes":{"ID":585967,"DIS_CODE":0,"TOWNNAME":"北區","LI":"正覺里","LIN":"11鄰","STREET":"正覺街","SECT":" ","MAREA":" ","LANE":" ","ALLEY":" ","HOUSE_NO":"３１號","E_COORD97":169304.03,"N_COORD97":2546274.1099999999,"ADDRESS":"正覺街３１號","OBJECTID":585940},"geometry":{"x":169304.03000000119,"y":2546274.1100000031}},{"attributes":{"ID":585968,"DIS_CODE":0,"TOWNNAME":"北區","LI":"正覺里","LIN":"11鄰","STREET":"正覺街","SECT":" ","MAREA":" ","LANE":" ","ALLEY":" ","HOUSE_NO":"３１號之２","E_COORD97":169305.07999999999,"N_COORD97":2546282.6000000001,"ADDRESS":"正覺街３１號之２","OBJECTID":585941},"geometry":{"x":169305.08000000101,"y":2546282.6000000015}},{"attributes":{"ID":585969,"DIS_CODE":0,"TOWNNAME":"北區","LI":"正覺里","LIN":"11鄰","STREET":"正覺街","SECT":" ","MAREA":" ","LANE":" ","ALLEY":" ","HOUSE_NO":"３５號","E_COORD97":169303.73999999999,"N_COORD97":2546299.9300000002,"ADDRESS":"正覺街３５號","OBJECTID":585942},"geometry":{"x":169303.74000000209,"y":2546299.9300000016}},{"attributes":{"ID":585970,"DIS_CODE":0,"TOWNNAME":"北區","LI":"正覺里","LIN":"11鄰","STREET":"正覺街","SECT":" ","MAREA":" ","LANE":" ","ALLEY":" ","HOUSE_NO":"３７號","E_COORD97":169303.64000000001,"N_COORD97":2546304.98,"ADDRESS":"正覺街３７號","OBJECTID":585943},"geometry":{"x":169303.64000000153,"y":2546304.9800000004}},{"attributes":{"ID":585971,"DIS_CODE":0,"TOWNNAME":"北區","LI":"正覺里","LIN":"11鄰","STREET":"正覺街","SECT":" ","MAREA":" ","LANE":" ","ALLEY":" ","HOUSE_NO":"３９號","E_COORD97":169302.5,"N_COORD97":2546307.9399999999,"ADDRESS":"正覺街３９號","OBJECTID":585944},"geometry":{"x":169302.5,"y":2546307.9399999995}},{"attributes":{"ID":585972,"DIS_CODE":0,"TOWNNAME":"北區","LI":"正覺里","LIN":"11鄰","STREET":"正覺街","SECT":" ","MAREA":" ","LANE":" ","ALLEY":" ","HOUSE_NO":"４１號","E_COORD97":169302.20999999999,"N_COORD97":2546311.75,"ADDRESS":"正覺街４１號","OBJECTID":585945},"geometry":{"x":169302.21000000089,"y":2546311.7500000019}},{"attributes":{"ID":585973,"DIS_CODE":0,"TOWNNAME":"北區","LI":"正覺里","LIN":"11鄰","STREET":"正覺街","SECT":" ","MAREA":" ","LANE":" ","ALLEY":" ","HOUSE_NO":"４３號","E_COORD97":169301.54999999999,"N_COORD97":2546315.8500000001,"ADDRESS":"正覺街４３號","OBJECTID":585946},"geometry":{"x":169301.55000000075,"y":2546315.8499999996}},{"attributes":{"ID":585974,"DIS_CODE":0,"TOWNNAME":"北區","LI":"正覺里","LIN":"11鄰","STREET":"正覺街","SECT":" ","MAREA":" ","LANE":" ","ALLEY":" ","HOUSE_NO":"４５號","E_COORD97":169299.92000000001,"N_COORD97":2546320.8999999999,"ADDRESS":"正覺街４５號","OBJECTID":585947},"geometry":{"x":169299.91999999993,"y":2546320.9000000022}},{"attributes":{"ID":585975,"DIS_CODE":0,"TOWNNAME":"北區","LI":"正覺里","LIN":"11鄰","STREET":"正覺街","SECT":" ","MAREA":" ","LANE":" ","ALLEY":" ","HOUSE_NO":"４７號","E_COORD97":169300.42999999999,"N_COORD97":2546327.6000000001,"ADDRESS":"正覺街４７號","OBJECTID":585948},"geometry":{"x":169300.43000000063,"y":2546327.5999999996}},{"attributes":{"ID":585976,"DIS_CODE":0,"TOWNNAME":"北區","LI":"正覺里","LIN":"11鄰","STREET":"正覺街","SECT":" ","MAREA":" ","LANE":" ","ALLEY":" ","HOUSE_NO":"５３號","E_COORD97":169298.72,"N_COORD97":2546339,"ADDRESS":"正覺街５３號","OBJECTID":585949},"geometry":{"x":169298.72000000067,"y":2546339}},{"attributes":{"ID":585977,"DIS_CODE":0,"TOWNNAME":"北區","LI":"正覺里","LIN":"11鄰","STREET":"正覺街","SECT":" ","MAREA":" ","LANE":" ","ALLEY":" ","HOUSE_NO":"５７號","E_COORD97":169297.45000000001,"N_COORD97":2546350.8100000001,"ADDRESS":"正覺街５７號","OBJECTID":585950},"geometry":{"x":169297.45000000112,"y":2546350.8100000005}},{"attributes":{"ID":585978,"DIS_CODE":0,"TOWNNAME":"北區","LI":"正覺里","LIN":"11鄰","STREET":"正覺街","SECT":" ","MAREA":" ","LANE":" ","ALLEY":" ","HOUSE_NO":"５９號","E_COORD97":169299.35999999999,"N_COORD97":2546355.4199999999,"ADDRESS":"正覺街５９號","OBJECTID":585951},"geometry":{"x":169299.36000000034,"y":2546355.4200000018}},{"attributes":{"ID":585979,"DIS_CODE":0,"TOWNNAME":"北區","LI":"正覺里","LIN":"11鄰","STREET":"正覺街","SECT":" ","MAREA":" ","LANE":" ","ALLEY":" ","HOUSE_NO":"６１號","E_COORD97":169299.92999999999,"N_COORD97":2546359.71,"ADDRESS":"正覺街６１號","OBJECTID":585952},"geometry":{"x":169299.9299999997,"y":2546359.7100000046}},{"attributes":{"ID":585980,"DIS_CODE":0,"TOWNNAME":"北區","LI":"正覺里","LIN":"11鄰","STREET":"正覺街","SECT":" ","MAREA":" ","LANE":" ","ALLEY":" ","HOUSE_NO":"６３號","E_COORD97":169268.44,"N_COORD97":2546372.8300000001,"ADDRESS":"正覺街６３號","OBJECTID":585953},"geometry":{"x":169268.43999999948,"y":2546372.8300000019}},{"attributes":{"ID":585981,"DIS_CODE":0,"TOWNNAME":"北區","LI":"正覺里","LIN":"11鄰","STREET":"正覺街","SECT":" ","MAREA":" ","LANE":" ","ALLEY":" ","HOUSE_NO":"６５號","E_COORD97":169298.01999999999,"N_COORD97":2546370.5899999999,"ADDRESS":"正覺街６５號","OBJECTID":585954},"geometry":{"x":169298.02000000048,"y":2546370.5900000017}},{"attributes":{"ID":585982,"DIS_CODE":0,"TOWNNAME":"北區","LI":"正覺里","LIN":"11鄰","STREET":"正覺街","SECT":" ","MAREA":" ","LANE":" ","ALLEY":" ","HOUSE_NO":"６９號","E_COORD97":169298.12,"N_COORD97":2546377.5499999998,"ADDRESS":"正覺街６９號","OBJECTID":585955},"geometry":{"x":169298.12000000104,"y":2546377.5500000045}},{"attributes":{"ID":585983,"DIS_CODE":0,"TOWNNAME":"北區","LI":"正覺里","LIN":"11鄰","STREET":"正覺街","SECT":" ","MAREA":" ","LANE":" ","ALLEY":" ","HOUSE_NO":"７１號","E_COORD97":169299.82999999999,"N_COORD97":2546383.77,"ADDRESS":"正覺街７１號","OBJECTID":585956},"geometry":{"x":169299.83000000101,"y":2546383.7699999996}},{"attributes":{"ID":585984,"DIS_CODE":0,"TOWNNAME":"北區","LI":"正覺里","LIN":"11鄰","STREET":"正覺街","SECT":" ","MAREA":" ","LANE":" ","ALLEY":" ","HOUSE_NO":"７３號","E_COORD97":169298.29999999999,"N_COORD97":2546388.1600000001,"ADDRESS":"正覺街７３號","OBJECTID":585957},"geometry":{"x":169298.30000000075,"y":2546388.1600000001}},{"attributes":{"ID":585985,"DIS_CODE":0,"TOWNNAME":"麻豆區","LI":"東角里","LIN":"11鄰","STREET":"同仁街","SECT":" ","MAREA":" ","LANE":" ","ALLEY":" ","HOUSE_NO":"１５號之１","E_COORD97":173804.60999999999,"N_COORD97":2564672.54,"ADDRESS":"同仁街１５號之１","OBJECTID":585958},"geometry":{"x":173804.61000000034,"y":2564672.5399999991}},{"attributes":{"ID":585986,"DIS_CODE":0,"TOWNNAME":"麻豆區","LI":"東角里","LIN":"11鄰","STREET":"同仁街","SECT":" ","MAREA":" ","LANE":" ","ALLEY":" ","HOUSE_NO":"１５號","E_COORD97":173825.92999999999,"N_COORD97":2564674.23,"ADDRESS":"同仁街１５號","OBJECTID":585959},"geometry":{"x":173825.9299999997,"y":2564674.2300000042}},{"attributes":{"ID":585987,"DIS_CODE":0,"TOWNNAME":"麻豆區","LI":"東角里","LIN":"11鄰","STREET":"同仁街","SECT":" ","MAREA":" ","LANE":" ","ALLEY":" ","HOUSE_NO":"１９號之１","E_COORD97":173835.85000000001,"N_COORD97":2564599.6499999999,"ADDRESS":"同仁街１９號之１","OBJECTID":585960},"geometry":{"x":173835.85000000056,"y":2564599.6499999985}},{"attributes":{"ID":585988,"DIS_CODE":0,"TOWNNAME":"麻豆區","LI":"東角里","LIN":"11鄰","STREET":"同仁街","SECT":" ","MAREA":" ","LANE":" ","ALLEY":" ","HOUSE_NO":"１９號之２","E_COORD97":173865.10000000001,"N_COORD97":2564599.3399999999,"ADDRESS":"同仁街１９號之２","OBJECTID":585961},"geometry":{"x":173865.09999999963,"y":2564599.3400000017}},{"attributes":{"ID":585989,"DIS_CODE":0,"TOWNNAME":"麻豆區","LI":"東角里","LIN":"11鄰","STREET":"同仁街","SECT":" ","MAREA":" ","LANE":" ","ALLEY":" ","HOUSE_NO":"１９號","E_COORD97":173818.72,"N_COORD97":2564598.9900000002,"ADDRESS":"同仁街１９號","OBJECTID":585962},"geometry":{"x":173818.71999999974,"y":2564598.9900000021}},{"attributes":{"ID":585990,"DIS_CODE":0,"TOWNNAME":"麻豆區","LI":"東角里","LIN":"11鄰","STREET":"同仁街","SECT":" ","MAREA":" ","LANE":" ","ALLEY":" ","HOUSE_NO":"２３號之１","E_COORD97":173837.79000000001,"N_COORD97":2564569.1400000001,"ADDRESS":"同仁街２３號之１","OBJECTID":585963},"geometry":{"x":173837.7900000019,"y":2564569.1400000006}},{"attributes":{"ID":585991,"DIS_CODE":0,"TOWNNAME":"麻豆區","LI":"東角里","LIN":"11鄰","STREET":"同仁街","SECT":" ","MAREA":" ","LANE":" ","ALLEY":" ","HOUSE_NO":"２３號之２","E_COORD97":173844.26999999999,"N_COORD97":2564570.02,"ADDRESS":"同仁街２３號之２","OBJECTID":585964},"geometry":{"x":173844.27000000048,"y":2564570.0200000014}},{"attributes":{"ID":585992,"DIS_CODE":0,"TOWNNAME":"麻豆區","LI":"東角里","LIN":"11鄰","STREET":"同仁街","SECT":" ","MAREA":" ","LANE":" ","ALLEY":" ","HOUSE_NO":"２３號之５","E_COORD97":173857.72,"N_COORD97":2564572.6800000002,"ADDRESS":"同仁街２３號之５","OBJECTID":585965},"geometry":{"x":173857.71999999974,"y":2564572.6800000016}},{"attributes":{"ID":585993,"DIS_CODE":0,"TOWNNAME":"麻豆區","LI":"東角里","LIN":"11鄰","STREET":"同仁街","SECT":" ","MAREA":" ","LANE":" ","ALLEY":" ","HOUSE_NO":"２３號之６","E_COORD97":173861.81,"N_COORD97":2564573.3599999999,"ADDRESS":"同仁街２３號之６","OBJECTID":585966},"geometry":{"x":173861.80999999959,"y":2564573.3599999994}},{"attributes":{"ID":585994,"DIS_CODE":0,"TOWNNAME":"麻豆區","LI":"東角里","LIN":"11鄰","STREET":"同仁街","SECT":" ","MAREA":" ","LANE":" ","ALLEY":" ","HOUSE_NO":"２３號之７","E_COORD97":173866.01000000001,"N_COORD97":2564574.25,"ADDRESS":"同仁街２３號之７","OBJECTID":585967},"geometry":{"x":173866.00999999978,"y":2564574.25}},{"attributes":{"ID":585995,"DIS_CODE":0,"TOWNNAME":"麻豆區","LI":"東角里","LIN":"11鄰","STREET":"同仁街","SECT":" ","MAREA":" ","LANE":" ","ALLEY":" ","HOUSE_NO":"２３號","E_COORD97":173818.16,"N_COORD97":2564568.4199999999,"ADDRESS":"同仁街２３號","OBJECTID":585968},"geometry":{"x":173818.16000000015,"y":2564568.4200000018}},{"attributes":{"ID":585996,"DIS_CODE":0,"TOWNNAME":"善化區","LI":"胡厝里","LIN":"21鄰","STREET":"北園一路","SECT":" ","MAREA":" ","LANE":" ","ALLEY":" ","HOUSE_NO":"７號","E_COORD97":174924.25,"N_COORD97":2557721.8100000001,"ADDRESS":"北園一路７號","OBJECTID":585969},"geometry":{"x":174924.25,"y":2557721.8100000005}},{"attributes":{"ID":585997,"DIS_CODE":0,"TOWNNAME":"麻豆區","LI":"東角里","LIN":"11鄰","STREET":"同仁街","SECT":" ","MAREA":" ","LANE":" ","ALLEY":" ","HOUSE_NO":"２５號","E_COORD97":173818.42999999999,"N_COORD97":2564564.75,"ADDRESS":"同仁街２５號","OBJECTID":585970},"geometry":{"x":173818.43000000063,"y":2564564.7500000037}},{"attributes":{"ID":585998,"DIS_CODE":0,"TOWNNAME":"麻豆區","LI":"東角里","LIN":"11鄰","STREET":"同仁街","SECT":" ","MAREA":" ","LANE":" ","ALLEY":" ","HOUSE_NO":"２７號","E_COORD97":173818.67999999999,"N_COORD97":2564560.4399999999,"ADDRESS":"同仁街２７號","OBJECTID":585971},"geometry":{"x":173818.6799999997,"y":2564560.4400000013}},{"attributes":{"ID":585999,"DIS_CODE":0,"TOWNNAME":"麻豆區","LI":"東角里","LIN":"11鄰","STREET":"同仁街","SECT":" ","MAREA":" ","LANE":" ","ALLEY":" ","HOUSE_NO":"２９號","E_COORD97":173819.31,"N_COORD97":2564556.8599999999,"ADDRESS":"同仁街２９號","OBJECTID":585972},"geometry":{"x":173819.30999999959,"y":2564556.8600000031}},{"attributes":{"ID":586000,"DIS_CODE":0,"TOWNNAME":"麻豆區","LI":"東角里","LIN":"11鄰","STREET":"同仁街","SECT":" ","MAREA":" ","LANE":" ","ALLEY":" ","HOUSE_NO":"３７號","E_COORD97":173824.44,"N_COORD97":2564539.8599999999,"ADDRESS":"同仁街３７號","OBJECTID":585973},"geometry":{"x":173824.44000000041,"y":2564539.8600000031}},{"attributes":{"ID":586001,"DIS_CODE":0,"TOWNNAME":"麻豆區","LI":"東角里","LIN":"11鄰","STREET":"同仁街","SECT":" ","MAREA":" ","LANE":" ","ALLEY":" ","HOUSE_NO":"３９號之１","E_COORD97":173839.20999999999,"N_COORD97":2564543.5299999998,"ADDRESS":"同仁街３９號之１","OBJECTID":585974},"geometry":{"x":173839.20999999996,"y":2564543.5300000012}},{"attributes":{"ID":586002,"DIS_CODE":0,"TOWNNAME":"麻豆區","LI":"東角里","LIN":"11鄰","STREET":"同仁街","SECT":" ","MAREA":" ","LANE":" ","ALLEY":" ","HOUSE_NO":"３９號之２","E_COORD97":173844.32999999999,"N_COORD97":2564544.5099999998,"ADDRESS":"同仁街３９號之２","OBJECTID":585975},"geometry":{"x":173844.33000000194,"y":2564544.5099999998}},{"attributes":{"ID":586003,"DIS_CODE":0,"TOWNNAME":"麻豆區","LI":"東角里","LIN":"11鄰","STREET":"同仁街","SECT":" ","MAREA":" ","LANE":" ","ALLEY":" ","HOUSE_NO":"３９號之３","E_COORD97":173852.57999999999,"N_COORD97":2564550.0899999999,"ADDRESS":"同仁街３９號之３","OBJECTID":585976},"geometry":{"x":173852.58000000007,"y":2564550.0900000017}},{"attributes":{"ID":586004,"DIS_CODE":0,"TOWNNAME":"麻豆區","LI":"東角里","LIN":"11鄰","STREET":"同仁街","SECT":" ","MAREA":" ","LANE":" ","ALLEY":" ","HOUSE_NO":"３９號之６","E_COORD97":173862.51999999999,"N_COORD97":2564549.96,"ADDRESS":"同仁街３９號之６","OBJECTID":585977},"geometry":{"x":173862.51999999955,"y":2564549.9600000009}},{"attributes":{"ID":586005,"DIS_CODE":0,"TOWNNAME":"麻豆區","LI":"東角里","LIN":"11鄰","STREET":"同仁街","SECT":" ","MAREA":" ","LANE":" ","ALLEY":" ","HOUSE_NO":"３９號之７","E_COORD97":173866.54999999999,"N_COORD97":2564550.5099999998,"ADDRESS":"同仁街３９號之７","OBJECTID":585978},"geometry":{"x":173866.55000000075,"y":2564550.5100000016}},{"attributes":{"ID":586006,"DIS_CODE":0,"TOWNNAME":"新市區","LI":"新市里","LIN":"4鄰","STREET":"華興街","SECT":" ","MAREA":" ","LANE":" ","ALLEY":" ","HOUSE_NO":"３４號","E_COORD97":177741.92999999999,"N_COORD97":2553007,"ADDRESS":"華興街３４號","OBJECTID":585979},"geometry":{"x":177741.9299999997,"y":2553007.0000000019}},{"attributes":{"ID":586007,"DIS_CODE":0,"TOWNNAME":"六甲區","LI":"龍湖里","LIN":"11鄰","STREET":"珊瑚路","SECT":" ","MAREA":" ","LANE":" ","ALLEY":" ","HOUSE_NO":"２０２號","E_COORD97":184855.39000000001,"N_COORD97":2568521.0800000001,"ADDRESS":"珊瑚路２０２號","OBJECTID":585980},"geometry":{"x":184855.39000000153,"y":2568521.0800000001}},{"attributes":{"ID":586008,"DIS_CODE":0,"TOWNNAME":"六甲區","LI":"龍湖里","LIN":"11鄰","STREET":"珊瑚路","SECT":" ","MAREA":" ","LANE":" ","ALLEY":" ","HOUSE_NO":"２０４號","E_COORD97":184880.06,"N_COORD97":2568520.3900000001,"ADDRESS":"珊瑚路２０４號","OBJECTID":585981},"geometry":{"x":184880.06000000052,"y":2568520.3900000006}},{"attributes":{"ID":586009,"DIS_CODE":0,"TOWNNAME":"六甲區","LI":"龍湖里","LIN":"11鄰","STREET":"珊瑚路","SECT":" ","MAREA":" ","LANE":" ","ALLEY":" ","HOUSE_NO":"３０１號","E_COORD97":185020.48999999999,"N_COORD97":2568508.5,"ADDRESS":"珊瑚路３０１號","OBJECTID":585982},"geometry":{"x":185020.49000000115,"y":2568508.5}},{"attributes":{"ID":586010,"DIS_CODE":0,"TOWNNAME":"六甲區","LI":"龍湖里","LIN":"11鄰","STREET":"珊瑚路","SECT":" ","MAREA":" ","LANE":" ","ALLEY":" ","HOUSE_NO":"３０５號","E_COORD97":184935.03,"N_COORD97":2568419.27,"ADDRESS":"珊瑚路３０５號","OBJECTID":585983},"geometry":{"x":184935.03000000119,"y":2568419.2700000033}},{"attributes":{"ID":586011,"DIS_CODE":0,"TOWNNAME":"六甲區","LI":"龍湖里","LIN":"11鄰","STREET":"珊瑚路","SECT":" ","MAREA":" ","LANE":" ","ALLEY":" ","HOUSE_NO":"３０７號","E_COORD97":184955.39999999999,"N_COORD97":2568403.8599999999,"ADDRESS":"珊瑚路３０７號","OBJECTID":585984},"geometry":{"x":184955.40000000037,"y":2568403.8599999994}},{"attributes":{"ID":586012,"DIS_CODE":0,"TOWNNAME":"六甲區","LI":"龍湖里","LIN":"11鄰","STREET":"珊瑚路","SECT":" ","MAREA":" ","LANE":" ","ALLEY":" ","HOUSE_NO":"３０９號","E_COORD97":184928.53,"N_COORD97":2568379.1600000001,"ADDRESS":"珊瑚路３０９號","OBJECTID":585985},"geometry":{"x":184928.53000000119,"y":2568379.1600000001}},{"attributes":{"ID":586013,"DIS_CODE":0,"TOWNNAME":"六甲區","LI":"甲東里","LIN":"11鄰","STREET":"曾文街","SECT":" ","MAREA":" ","LANE":" ","ALLEY":" ","HOUSE_NO":"１２５之１號","E_COORD97":184446.85000000001,"N_COORD97":2570446.7400000002,"ADDRESS":"曾文街１２５之１號","OBJECTID":585986},"geometry":{"x":184446.84999999963,"y":2570446.7400000002}},{"attributes":{"ID":586014,"DIS_CODE":0,"TOWNNAME":"六甲區","LI":"甲東里","LIN":"11鄰","STREET":"曾文街","SECT":" ","MAREA":" ","LANE":" ","ALLEY":" ","HOUSE_NO":"１２５之８號","E_COORD97":184507.06,"N_COORD97":2570449.46,"ADDRESS":"曾文街１２５之８號","OBJECTID":585987},"geometry":{"x":184507.06000000052,"y":2570449.4600000009}},{"attributes":{"ID":586015,"DIS_CODE":0,"TOWNNAME":"六甲區","LI":"甲東里","LIN":"11鄰","STREET":"曾文街","SECT":" ","MAREA":" ","LANE":" ","ALLEY":" ","HOUSE_NO":"１２７號","E_COORD97":184524.17999999999,"N_COORD97":2570449.73,"ADDRESS":"曾文街１２７號","OBJECTID":585988},"geometry":{"x":184524.1799999997,"y":2570449.7300000004}},{"attributes":{"ID":586016,"DIS_CODE":0,"TOWNNAME":"六甲區","LI":"甲東里","LIN":"11鄰","STREET":"曾文街","SECT":" ","MAREA":" ","LANE":" ","ALLEY":" ","HOUSE_NO":"１３２號","E_COORD97":184829.82999999999,"N_COORD97":2570425.4900000002,"ADDRESS":"曾文街１３２號","OBJECTID":585989},"geometry":{"x":184829.83000000101,"y":2570425.4900000039}},{"attributes":{"ID":586017,"DIS_CODE":0,"TOWNNAME":"六甲區","LI":"甲東里","LIN":"11鄰","STREET":"曾文街","SECT":" ","MAREA":" ","LANE":" ","ALLEY":" ","HOUSE_NO":"１４０號","E_COORD97":184992.35000000001,"N_COORD97":2570475.1699999999,"ADDRESS":"曾文街１４０號","OBJECTID":585990},"geometry":{"x":184992.34999999963,"y":2570475.1700000018}},{"attributes":{"ID":586018,"DIS_CODE":0,"TOWNNAME":"六甲區","LI":"甲東里","LIN":"11鄰","STREET":"曾文街","SECT":" ","MAREA":" ","LANE":" ","ALLEY":" ","HOUSE_NO":"１４１號","E_COORD97":185036.41,"N_COORD97":2570572.79,"ADDRESS":"曾文街１４１號","OBJECTID":585991},"geometry":{"x":185036.41000000015,"y":2570572.790000001}},{"attributes":{"ID":586019,"DIS_CODE":0,"TOWNNAME":"六甲區","LI":"甲東里","LIN":"11鄰","STREET":"曾文街","SECT":" ","MAREA":" ","LANE":" ","ALLEY":" ","HOUSE_NO":"１４３號","E_COORD97":185068.29999999999,"N_COORD97":2570591.9700000002,"ADDRESS":"曾文街１４３號","OBJECTID":585992},"geometry":{"x":185068.30000000075,"y":2570591.9699999988}},{"attributes":{"ID":586020,"DIS_CODE":0,"TOWNNAME":"六甲區","LI":"甲東里","LIN":"11鄰","STREET":"曾文街","SECT":" ","MAREA":" ","LANE":" ","ALLEY":" ","HOUSE_NO":"１４６號","E_COORD97":185142.92999999999,"N_COORD97":2570584.4500000002,"ADDRESS":"曾文街１４６號","OBJECTID":585993},"geometry":{"x":185142.9299999997,"y":2570584.4500000011}},{"attributes":{"ID":586021,"DIS_CODE":0,"TOWNNAME":"六甲區","LI":"甲東里","LIN":"11鄰","STREET":"曾文街","SECT":" ","MAREA":" ","LANE":" ","ALLEY":" ","HOUSE_NO":"１４７號","E_COORD97":185211.22,"N_COORD97":2570778.9700000002,"ADDRESS":"曾文街１４７號","OBJECTID":585994},"geometry":{"x":185211.22000000067,"y":2570778.9700000025}},{"attributes":{"ID":586022,"DIS_CODE":0,"TOWNNAME":"六甲區","LI":"甲東里","LIN":"11鄰","STREET":"曾文街","SECT":" ","MAREA":" ","LANE":" ","ALLEY":" ","HOUSE_NO":"１４８號","E_COORD97":185141.04999999999,"N_COORD97":2570544.6000000001,"ADDRESS":"曾文街１４８號","OBJECTID":585995},"geometry":{"x":185141.05000000168,"y":2570544.5999999996}},{"attributes":{"ID":586023,"DIS_CODE":0,"TOWNNAME":"六甲區","LI":"甲東里","LIN":"11鄰","STREET":"曾文街","SECT":" ","MAREA":" ","LANE":" ","ALLEY":" ","HOUSE_NO":"１４９號","E_COORD97":185426.01999999999,"N_COORD97":2570577.5499999998,"ADDRESS":"曾文街１４９號","OBJECTID":585996},"geometry":{"x":185426.02000000048,"y":2570577.5500000007}},{"attributes":{"ID":586024,"DIS_CODE":0,"TOWNNAME":"六甲區","LI":"甲東里","LIN":"11鄰","STREET":"曾文街","SECT":" ","MAREA":" ","LANE":" ","ALLEY":" ","HOUSE_NO":"１５０之２號","E_COORD97":185502.72,"N_COORD97":2570541.29,"ADDRESS":"曾文街１５０之２號","OBJECTID":585997},"geometry":{"x":185502.72000000067,"y":2570541.290000001}},{"attributes":{"ID":586025,"DIS_CODE":0,"TOWNNAME":"六甲區","LI":"甲東里","LIN":"11鄰","STREET":"曾文街","SECT":" ","MAREA":" ","LANE":" ","ALLEY":" ","HOUSE_NO":"１５０之６號","E_COORD97":185494.91,"N_COORD97":2570503.5499999998,"ADDRESS":"曾文街１５０之６號","OBJECTID":585998},"geometry":{"x":185494.91000000201,"y":2570503.5500000045}},{"attributes":{"ID":586026,"DIS_CODE":0,"TOWNNAME":"六甲區","LI":"甲東里","LIN":"11鄰","STREET":"曾文街","SECT":" ","MAREA":" ","LANE":" ","ALLEY":" ","HOUSE_NO":"１５１號","E_COORD97":185537.14000000001,"N_COORD97":2570611.9100000001,"ADDRESS":"曾文街１５１號","OBJECTID":585999},"geometry":{"x":185537.1400000006,"y":2570611.9100000001}},{"attributes":{"ID":586027,"DIS_CODE":0,"TOWNNAME":"六甲區","LI":"甲東里","LIN":"11鄰","STREET":"曾文街","SECT":" ","MAREA":" ","LANE":" ","ALLEY":" ","HOUSE_NO":"１５２號","E_COORD97":185536.85000000001,"N_COORD97":2570537.5299999998,"ADDRESS":"曾文街１５２號","OBJECTID":586000},"geometry":{"x":185536.84999999963,"y":2570537.5300000012}}]}