{"displayFieldName":"TOWNNAME","fieldAliases":{"ID":"ID","DIS_CODE":"DIS_CODE","TOWNNAME":"TOWNNAME","LI":"LI","LIN":"LIN","STREET":"STREET","SECT":"SECT","MAREA":"MAREA","LANE":"LANE","ALLEY":"ALLEY","HOUSE_NO":"HOUSE_NO","E_COORD97":"E_COORD97","N_COORD97":"N_COORD97","ADDRESS":"ADDRESS","OBJECTID":"OBJECTID"},"geometryType":"esriGeometryPoint","spatialReference":{"wkid":102443,"latestWkid":3826},"fields":[{"name":"ID","type":"esriFieldTypeDouble","alias":"ID"},{"name":"DIS_CODE","type":"esriFieldTypeInteger","alias":"DIS_CODE"},{"name":"TOWNNAME","type":"esriFieldTypeString","alias":"TOWNNAME","length":8},{"name":"LI","type":"esriFieldTypeString","alias":"LI","length":8},{"name":"LIN","type":"esriFieldTypeString","alias":"LIN","length":12},{"name":"STREET","type":"esriFieldTypeString","alias":"STREET","length":20},{"name":"SECT","type":"esriFieldTypeString","alias":"SECT","length":8},{"name":"MAREA","type":"esriFieldTypeString","alias":"MAREA","length":12},{"name":"LANE","type":"esriFieldTypeString","alias":"LANE","length":10},{"name":"ALLEY","type":"esriFieldTypeString","alias":"ALLEY","length":10},{"name":"HOUSE_NO","type":"esriFieldTypeString","alias":"HOUSE_NO","length":20},{"name":"E_COORD97","type":"esriFieldTypeDouble","alias":"E_COORD97"},{"name":"N_COORD97","type":"esriFieldTypeDouble","alias":"N_COORD97"},{"name":"ADDRESS","type":"esriFieldTypeString","alias":"ADDRESS","length":50},{"name":"OBJECTID","type":"esriFieldTypeOID","alias":"OBJECTID"}],"features":[{"attributes":{"ID":507028,"DIS_CODE":0,"TOWNNAME":"歸仁區","LI":"八甲里","LIN":"15鄰","STREET":"大仁七街","SECT":" ","MAREA":" ","LANE":" ","ALLEY":" ","HOUSE_NO":"６０號二樓之１０","E_COORD97":178121.70999999999,"N_COORD97":2541730.6200000001,"ADDRESS":"大仁七街６０號二樓之１０","OBJECTID":507001},"geometry":{"x":178121.70999999996,"y":2541730.6200000029}},{"attributes":{"ID":507029,"DIS_CODE":0,"TOWNNAME":"新營區","LI":"民生里","LIN":"15鄰","STREET":"三民路","SECT":" ","MAREA":" ","LANE":" ","ALLEY":" ","HOUSE_NO":"１３１號十樓之１","E_COORD97":179295.62,"N_COORD97":2578269.8100000001,"ADDRESS":"三民路１３１號十樓之１","OBJECTID":507002},"geometry":{"x":179295.61999999918,"y":2578269.8100000024}},{"attributes":{"ID":507030,"DIS_CODE":0,"TOWNNAME":"新營區","LI":"民權里","LIN":"15鄰","STREET":"信義街","SECT":" ","MAREA":" ","LANE":" ","ALLEY":" ","HOUSE_NO":"６７之６號六樓","E_COORD97":179898.10999999999,"N_COORD97":2578496.8500000001,"ADDRESS":"信義街６７之６號六樓","OBJECTID":507003},"geometry":{"x":179898.11000000127,"y":2578496.8499999996}},{"attributes":{"ID":507031,"DIS_CODE":0,"TOWNNAME":"新營區","LI":"民生里","LIN":"15鄰","STREET":"三民路","SECT":" ","MAREA":" ","LANE":" ","ALLEY":" ","HOUSE_NO":"１３１號八樓之５","E_COORD97":179295.64000000001,"N_COORD97":2578269.8100000001,"ADDRESS":"三民路１３１號八樓之５","OBJECTID":507004},"geometry":{"x":179295.6400000006,"y":2578269.8100000024}},{"attributes":{"ID":507032,"DIS_CODE":0,"TOWNNAME":"新營區","LI":"民權里","LIN":"15鄰","STREET":"信義街","SECT":" ","MAREA":" ","LANE":" ","ALLEY":" ","HOUSE_NO":"６７之５號六樓","E_COORD97":179898.10999999999,"N_COORD97":2578496.8500000001,"ADDRESS":"信義街６７之５號六樓","OBJECTID":507005},"geometry":{"x":179898.11000000127,"y":2578496.8499999996}},{"attributes":{"ID":507033,"DIS_CODE":0,"TOWNNAME":"新營區","LI":"民生里","LIN":"15鄰","STREET":"三民路","SECT":" ","MAREA":" ","LANE":" ","ALLEY":" ","HOUSE_NO":"１３１號五樓之５","E_COORD97":179295.64000000001,"N_COORD97":2578269.8100000001,"ADDRESS":"三民路１３１號五樓之５","OBJECTID":507006},"geometry":{"x":179295.6400000006,"y":2578269.8100000024}},{"attributes":{"ID":507034,"DIS_CODE":0,"TOWNNAME":"新營區","LI":"民權里","LIN":"15鄰","STREET":"信義街","SECT":" ","MAREA":" ","LANE":" ","ALLEY":" ","HOUSE_NO":"６７之５號七樓","E_COORD97":179898.10999999999,"N_COORD97":2578496.8500000001,"ADDRESS":"信義街６７之５號七樓","OBJECTID":507007},"geometry":{"x":179898.11000000127,"y":2578496.8499999996}},{"attributes":{"ID":507035,"DIS_CODE":0,"TOWNNAME":"新營區","LI":"民生里","LIN":"15鄰","STREET":"三民路","SECT":" ","MAREA":" ","LANE":" ","ALLEY":" ","HOUSE_NO":"１３１號六樓之２","E_COORD97":179295.62,"N_COORD97":2578269.8100000001,"ADDRESS":"三民路１３１號六樓之２","OBJECTID":507008},"geometry":{"x":179295.61999999918,"y":2578269.8100000024}},{"attributes":{"ID":507036,"DIS_CODE":0,"TOWNNAME":"新營區","LI":"民權里","LIN":"15鄰","STREET":"信義街","SECT":" ","MAREA":" ","LANE":" ","ALLEY":" ","HOUSE_NO":"６７之５號三樓","E_COORD97":179898.10999999999,"N_COORD97":2578496.8500000001,"ADDRESS":"信義街６７之５號三樓","OBJECTID":507009},"geometry":{"x":179898.11000000127,"y":2578496.8499999996}},{"attributes":{"ID":507037,"DIS_CODE":0,"TOWNNAME":"南區","LI":"興農里","LIN":"4鄰","STREET":"明興路","SECT":" ","MAREA":" ","LANE":" ","ALLEY":" ","HOUSE_NO":"１１５６號之９","E_COORD97":166534.53,"N_COORD97":2536494.7999999998,"ADDRESS":"明興路１１５６號之９","OBJECTID":507010},"geometry":{"x":166534.53000000026,"y":2536494.8000000007}},{"attributes":{"ID":507038,"DIS_CODE":0,"TOWNNAME":"南區","LI":"文南里","LIN":"12鄰","STREET":"永南四街","SECT":" ","MAREA":" ","LANE":" ","ALLEY":" ","HOUSE_NO":"２６號","E_COORD97":166848,"N_COORD97":2542751.3700000001,"ADDRESS":"永南四街２６號","OBJECTID":507011},"geometry":{"x":166848,"y":2542751.3700000048}},{"attributes":{"ID":507039,"DIS_CODE":0,"TOWNNAME":"南區","LI":"省躬里","LIN":"15鄰","STREET":"灣裡路","SECT":" ","MAREA":" ","LANE":" ","ALLEY":" ","HOUSE_NO":"６３號三樓之１","E_COORD97":165970.22,"N_COORD97":2537058.6800000002,"ADDRESS":"灣裡路６３號三樓之１","OBJECTID":507012},"geometry":{"x":165970.21999999974,"y":2537058.6799999978}},{"attributes":{"ID":507040,"DIS_CODE":0,"TOWNNAME":"南區","LI":"省躬里","LIN":"15鄰","STREET":"灣裡路","SECT":" ","MAREA":" ","LANE":" ","ALLEY":" ","HOUSE_NO":"６３號三樓之２","E_COORD97":165970.22,"N_COORD97":2537058.6800000002,"ADDRESS":"灣裡路６３號三樓之２","OBJECTID":507013},"geometry":{"x":165970.21999999974,"y":2537058.6799999978}},{"attributes":{"ID":507041,"DIS_CODE":0,"TOWNNAME":"南區","LI":"省躬里","LIN":"15鄰","STREET":"灣裡路","SECT":" ","MAREA":" ","LANE":" ","ALLEY":" ","HOUSE_NO":"６３號四樓之１","E_COORD97":165970.22,"N_COORD97":2537058.6800000002,"ADDRESS":"灣裡路６３號四樓之１","OBJECTID":507014},"geometry":{"x":165970.21999999974,"y":2537058.6799999978}},{"attributes":{"ID":507042,"DIS_CODE":0,"TOWNNAME":"南區","LI":"省躬里","LIN":"15鄰","STREET":"灣裡路","SECT":" ","MAREA":" ","LANE":" ","ALLEY":" ","HOUSE_NO":"６３號四樓之２","E_COORD97":165970.22,"N_COORD97":2537058.6800000002,"ADDRESS":"灣裡路６３號四樓之２","OBJECTID":507015},"geometry":{"x":165970.21999999974,"y":2537058.6799999978}},{"attributes":{"ID":507043,"DIS_CODE":0,"TOWNNAME":"南區","LI":"喜東里","LIN":"5鄰","STREET":"喜樹路","SECT":" ","MAREA":" ","LANE":" ","ALLEY":" ","HOUSE_NO":"７３號之６","E_COORD97":165908.72,"N_COORD97":2538445.6899999999,"ADDRESS":"喜樹路７３號之６","OBJECTID":507016},"geometry":{"x":165908.71999999974,"y":2538445.6900000013}},{"attributes":{"ID":507044,"DIS_CODE":0,"TOWNNAME":"南區","LI":"明興里","LIN":"17鄰","STREET":"中華南路","SECT":"二段","MAREA":" ","LANE":" ","ALLEY":" ","HOUSE_NO":"１７０號","E_COORD97":167058.75,"N_COORD97":2540266.8199999998,"ADDRESS":"中華南路二段１７０號","OBJECTID":507017},"geometry":{"x":167058.74999999907,"y":2540266.8200000022}},{"attributes":{"ID":507045,"DIS_CODE":0,"TOWNNAME":"南區","LI":"明興里","LIN":"17鄰","STREET":"中華南路","SECT":"二段","MAREA":" ","LANE":" ","ALLEY":" ","HOUSE_NO":"１７２號","E_COORD97":167054.29000000001,"N_COORD97":2540265.6600000001,"ADDRESS":"中華南路二段１７２號","OBJECTID":507018},"geometry":{"x":167054.29000000097,"y":2540265.6600000001}},{"attributes":{"ID":507046,"DIS_CODE":0,"TOWNNAME":"鹽水區","LI":"橋南里","LIN":"15鄰","STREET":"月津路","SECT":" ","MAREA":" ","LANE":" ","ALLEY":" ","HOUSE_NO":"２７號一樓","E_COORD97":174995.09,"N_COORD97":2579425.8599999999,"ADDRESS":"月津路２７號一樓","OBJECTID":507019},"geometry":{"x":174995.09000000171,"y":2579425.8599999994}},{"attributes":{"ID":507047,"DIS_CODE":0,"TOWNNAME":"新營區","LI":"民生里","LIN":"15鄰","STREET":"三民路","SECT":" ","MAREA":" ","LANE":" ","ALLEY":" ","HOUSE_NO":"１３１號八樓之３","E_COORD97":179295.57999999999,"N_COORD97":2578269.8100000001,"ADDRESS":"三民路１３１號八樓之３","OBJECTID":507020},"geometry":{"x":179295.58000000007,"y":2578269.8100000024}},{"attributes":{"ID":507048,"DIS_CODE":0,"TOWNNAME":"新營區","LI":"民生里","LIN":"15鄰","STREET":"三民路","SECT":" ","MAREA":" ","LANE":" ","ALLEY":" ","HOUSE_NO":"１３１號十樓之１","E_COORD97":179295.59,"N_COORD97":2578269.8100000001,"ADDRESS":"三民路１３１號十樓之１","OBJECTID":507021},"geometry":{"x":179295.58999999892,"y":2578269.8100000024}},{"attributes":{"ID":507049,"DIS_CODE":0,"TOWNNAME":"新營區","LI":"民生里","LIN":"15鄰","STREET":"三民路","SECT":" ","MAREA":" ","LANE":" ","ALLEY":" ","HOUSE_NO":"１３１號四樓之２","E_COORD97":179295.62,"N_COORD97":2578269.8100000001,"ADDRESS":"三民路１３１號四樓之２","OBJECTID":507022},"geometry":{"x":179295.61999999918,"y":2578269.8100000024}},{"attributes":{"ID":507050,"DIS_CODE":0,"TOWNNAME":"新營區","LI":"民生里","LIN":"15鄰","STREET":"三民路","SECT":" ","MAREA":" ","LANE":" ","ALLEY":" ","HOUSE_NO":"１３１號三樓之２","E_COORD97":179295.92000000001,"N_COORD97":2578269.8100000001,"ADDRESS":"三民路１３１號三樓之２","OBJECTID":507023},"geometry":{"x":179295.92000000086,"y":2578269.8100000024}},{"attributes":{"ID":507051,"DIS_CODE":0,"TOWNNAME":"新營區","LI":"民生里","LIN":"15鄰","STREET":"三民路","SECT":" ","MAREA":" ","LANE":" ","ALLEY":" ","HOUSE_NO":"１３１號七樓之４","E_COORD97":179295.51000000001,"N_COORD97":2578269.8100000001,"ADDRESS":"三民路１３１號七樓之４","OBJECTID":507024},"geometry":{"x":179295.50999999978,"y":2578269.8100000024}},{"attributes":{"ID":507052,"DIS_CODE":0,"TOWNNAME":"新營區","LI":"民生里","LIN":"15鄰","STREET":"三民路","SECT":" ","MAREA":" ","LANE":" ","ALLEY":" ","HOUSE_NO":"１３１號六樓之３","E_COORD97":179295.57999999999,"N_COORD97":2578269.8100000001,"ADDRESS":"三民路１３１號六樓之３","OBJECTID":507025},"geometry":{"x":179295.58000000007,"y":2578269.8100000024}},{"attributes":{"ID":507053,"DIS_CODE":0,"TOWNNAME":"新營區","LI":"民權里","LIN":"15鄰","STREET":"信義街","SECT":" ","MAREA":" ","LANE":" ","ALLEY":" ","HOUSE_NO":"６７之５號五樓","E_COORD97":179898.10999999999,"N_COORD97":2578496.8500000001,"ADDRESS":"信義街６７之５號五樓","OBJECTID":507026},"geometry":{"x":179898.11000000127,"y":2578496.8499999996}},{"attributes":{"ID":507054,"DIS_CODE":0,"TOWNNAME":"新營區","LI":"民生里","LIN":"15鄰","STREET":"三民路","SECT":" ","MAREA":" ","LANE":" ","ALLEY":" ","HOUSE_NO":"１３１號三樓之３","E_COORD97":179295.57999999999,"N_COORD97":2578269.8100000001,"ADDRESS":"三民路１３１號三樓之３","OBJECTID":507027},"geometry":{"x":179295.58000000007,"y":2578269.8100000024}},{"attributes":{"ID":507055,"DIS_CODE":0,"TOWNNAME":"新營區","LI":"民生里","LIN":"15鄰","STREET":"三民路","SECT":" ","MAREA":" ","LANE":" ","ALLEY":" ","HOUSE_NO":"１３１號六樓之５","E_COORD97":179295.95000000001,"N_COORD97":2578269.8100000001,"ADDRESS":"三民路１３１號六樓之５","OBJECTID":507028},"geometry":{"x":179295.95000000112,"y":2578269.8100000024}},{"attributes":{"ID":507056,"DIS_CODE":0,"TOWNNAME":"安平區","LI":"怡平里","LIN":"15鄰","STREET":"文平路","SECT":" ","MAREA":" ","LANE":" ","ALLEY":" ","HOUSE_NO":"４７９號一樓","E_COORD97":165804.41,"N_COORD97":2543913.77,"ADDRESS":"文平路４７９號一樓","OBJECTID":507029},"geometry":{"x":165804.41000000015,"y":2543913.7700000014}},{"attributes":{"ID":507057,"DIS_CODE":0,"TOWNNAME":"安平區","LI":"怡平里","LIN":"15鄰","STREET":"文平路","SECT":" ","MAREA":" ","LANE":" ","ALLEY":" ","HOUSE_NO":"４７９號二樓","E_COORD97":165804.41,"N_COORD97":2543913.77,"ADDRESS":"文平路４７９號二樓","OBJECTID":507030},"geometry":{"x":165804.41000000015,"y":2543913.7700000014}},{"attributes":{"ID":507058,"DIS_CODE":0,"TOWNNAME":"安平區","LI":"怡平里","LIN":"15鄰","STREET":"文平路","SECT":" ","MAREA":" ","LANE":" ","ALLEY":" ","HOUSE_NO":"４７９號三樓","E_COORD97":165804.41,"N_COORD97":2543913.77,"ADDRESS":"文平路４７９號三樓","OBJECTID":507031},"geometry":{"x":165804.41000000015,"y":2543913.7700000014}},{"attributes":{"ID":507059,"DIS_CODE":0,"TOWNNAME":"安平區","LI":"怡平里","LIN":"15鄰","STREET":"文平路","SECT":" ","MAREA":" ","LANE":" ","ALLEY":" ","HOUSE_NO":"４７９號四樓","E_COORD97":165804.41,"N_COORD97":2543913.77,"ADDRESS":"文平路４７９號四樓","OBJECTID":507032},"geometry":{"x":165804.41000000015,"y":2543913.7700000014}},{"attributes":{"ID":507060,"DIS_CODE":0,"TOWNNAME":"安平區","LI":"怡平里","LIN":"15鄰","STREET":"文平路","SECT":" ","MAREA":" ","LANE":" ","ALLEY":" ","HOUSE_NO":"４７９號五樓之１","E_COORD97":165804.41,"N_COORD97":2543913.77,"ADDRESS":"文平路４７９號五樓之１","OBJECTID":507033},"geometry":{"x":165804.41000000015,"y":2543913.7700000014}},{"attributes":{"ID":507061,"DIS_CODE":0,"TOWNNAME":"安平區","LI":"怡平里","LIN":"15鄰","STREET":"文平路","SECT":" ","MAREA":" ","LANE":" ","ALLEY":" ","HOUSE_NO":"４７９號五樓之２","E_COORD97":165804.41,"N_COORD97":2543913.77,"ADDRESS":"文平路４７９號五樓之２","OBJECTID":507034},"geometry":{"x":165804.41000000015,"y":2543913.7700000014}},{"attributes":{"ID":507062,"DIS_CODE":0,"TOWNNAME":"新營區","LI":"民權里","LIN":"15鄰","STREET":"信義街","SECT":" ","MAREA":" ","LANE":" ","ALLEY":" ","HOUSE_NO":"６７之６號五樓","E_COORD97":179898.10999999999,"N_COORD97":2578496.8500000001,"ADDRESS":"信義街６７之６號五樓","OBJECTID":507035},"geometry":{"x":179898.11000000127,"y":2578496.8499999996}},{"attributes":{"ID":507063,"DIS_CODE":0,"TOWNNAME":"新營區","LI":"民生里","LIN":"15鄰","STREET":"三民路","SECT":" ","MAREA":" ","LANE":" ","ALLEY":" ","HOUSE_NO":"１３１號六樓之４","E_COORD97":179295.51000000001,"N_COORD97":2578269.8100000001,"ADDRESS":"三民路１３１號六樓之４","OBJECTID":507036},"geometry":{"x":179295.50999999978,"y":2578269.8100000024}},{"attributes":{"ID":507064,"DIS_CODE":0,"TOWNNAME":"新營區","LI":"民生里","LIN":"15鄰","STREET":"三民路","SECT":" ","MAREA":" ","LANE":" ","ALLEY":" ","HOUSE_NO":"１３１號四樓之１","E_COORD97":179295.79000000001,"N_COORD97":2578269.8100000001,"ADDRESS":"三民路１３１號四樓之１","OBJECTID":507037},"geometry":{"x":179295.79000000004,"y":2578269.8100000024}},{"attributes":{"ID":507065,"DIS_CODE":0,"TOWNNAME":"新營區","LI":"民生里","LIN":"15鄰","STREET":"三民路","SECT":" ","MAREA":" ","LANE":" ","ALLEY":" ","HOUSE_NO":"１３１號九樓之１","E_COORD97":179295.79000000001,"N_COORD97":2578269.8100000001,"ADDRESS":"三民路１３１號九樓之１","OBJECTID":507038},"geometry":{"x":179295.79000000004,"y":2578269.8100000024}},{"attributes":{"ID":507066,"DIS_CODE":0,"TOWNNAME":"新營區","LI":"民生里","LIN":"15鄰","STREET":"三民路","SECT":" ","MAREA":" ","LANE":" ","ALLEY":" ","HOUSE_NO":"１３１號九樓之３","E_COORD97":179295.89000000001,"N_COORD97":2578270.48,"ADDRESS":"三民路１３１號九樓之３","OBJECTID":507039},"geometry":{"x":179295.8900000006,"y":2578270.4800000004}},{"attributes":{"ID":507067,"DIS_CODE":0,"TOWNNAME":"新營區","LI":"民生里","LIN":"15鄰","STREET":"三民路","SECT":" ","MAREA":" ","LANE":" ","ALLEY":" ","HOUSE_NO":"１３１號三樓之１","E_COORD97":179295.45000000001,"N_COORD97":2578270.48,"ADDRESS":"三民路１３１號三樓之１","OBJECTID":507040},"geometry":{"x":179295.45000000112,"y":2578270.4800000004}},{"attributes":{"ID":507068,"DIS_CODE":0,"TOWNNAME":"新營區","LI":"民生里","LIN":"15鄰","STREET":"三民路","SECT":" ","MAREA":" ","LANE":" ","ALLEY":" ","HOUSE_NO":"１３１號十樓之１","E_COORD97":179295.47,"N_COORD97":2578270.48,"ADDRESS":"三民路１３１號十樓之１","OBJECTID":507041},"geometry":{"x":179295.47000000067,"y":2578270.4800000004}},{"attributes":{"ID":507069,"DIS_CODE":0,"TOWNNAME":"新營區","LI":"民生里","LIN":"15鄰","STREET":"三民路","SECT":" ","MAREA":" ","LANE":" ","ALLEY":" ","HOUSE_NO":"１３１號十樓之１","E_COORD97":179295.45000000001,"N_COORD97":2578270.48,"ADDRESS":"三民路１３１號十樓之１","OBJECTID":507042},"geometry":{"x":179295.45000000112,"y":2578270.4800000004}},{"attributes":{"ID":507070,"DIS_CODE":0,"TOWNNAME":"歸仁區","LI":"辜厝里","LIN":"15鄰","STREET":"中正南路","SECT":"一段","MAREA":" ","LANE":" ","ALLEY":" ","HOUSE_NO":"１１０號五樓","E_COORD97":177511.14999999999,"N_COORD97":2540503.6899999999,"ADDRESS":"中正南路一段１１０號五樓","OBJECTID":507043},"geometry":{"x":177511.1500000013,"y":2540503.6900000013}},{"attributes":{"ID":507071,"DIS_CODE":0,"TOWNNAME":"歸仁區","LI":"辜厝里","LIN":"15鄰","STREET":"中正南路","SECT":"一段","MAREA":" ","LANE":" ","ALLEY":" ","HOUSE_NO":"１１０號五樓之１","E_COORD97":177511.57999999999,"N_COORD97":2540503.7000000002,"ADDRESS":"中正南路一段１１０號五樓之１","OBJECTID":507044},"geometry":{"x":177511.58000000101,"y":2540503.7000000011}},{"attributes":{"ID":507072,"DIS_CODE":0,"TOWNNAME":"歸仁區","LI":"辜厝里","LIN":"15鄰","STREET":"中正南路","SECT":"一段","MAREA":" ","LANE":" ","ALLEY":" ","HOUSE_NO":"１１０號八樓","E_COORD97":177511.14999999999,"N_COORD97":2540503.6899999999,"ADDRESS":"中正南路一段１１０號八樓","OBJECTID":507045},"geometry":{"x":177511.1500000013,"y":2540503.6900000013}},{"attributes":{"ID":507073,"DIS_CODE":0,"TOWNNAME":"歸仁區","LI":"辜厝里","LIN":"15鄰","STREET":"中正南路","SECT":"一段","MAREA":" ","LANE":" ","ALLEY":" ","HOUSE_NO":"１１０號六樓之１","E_COORD97":177511.57999999999,"N_COORD97":2540503.7000000002,"ADDRESS":"中正南路一段１１０號六樓之１","OBJECTID":507046},"geometry":{"x":177511.58000000101,"y":2540503.7000000011}},{"attributes":{"ID":507074,"DIS_CODE":0,"TOWNNAME":"歸仁區","LI":"辜厝里","LIN":"15鄰","STREET":"中正南路","SECT":"一段","MAREA":" ","LANE":" ","ALLEY":" ","HOUSE_NO":"１１０號十二樓","E_COORD97":177511.39999999999,"N_COORD97":2540503.6899999999,"ADDRESS":"中正南路一段１１０號十二樓","OBJECTID":507047},"geometry":{"x":177511.4000000013,"y":2540503.6900000013}},{"attributes":{"ID":507075,"DIS_CODE":0,"TOWNNAME":"歸仁區","LI":"辜厝里","LIN":"15鄰","STREET":"中正南路","SECT":"一段","MAREA":" ","LANE":" ","ALLEY":" ","HOUSE_NO":"１１０號十二樓之１","E_COORD97":177511.82999999999,"N_COORD97":2540503.7000000002,"ADDRESS":"中正南路一段１１０號十二樓之１","OBJECTID":507048},"geometry":{"x":177511.83000000007,"y":2540503.7000000011}},{"attributes":{"ID":507076,"DIS_CODE":0,"TOWNNAME":"歸仁區","LI":"歸仁里","LIN":"15鄰","STREET":"信義北路","SECT":" ","MAREA":" ","LANE":" ","ALLEY":" ","HOUSE_NO":"９４號六樓","E_COORD97":178002.97,"N_COORD97":2541042.1099999999,"ADDRESS":"信義北路９４號六樓","OBJECTID":507049},"geometry":{"x":178002.9700000016,"y":2541042.1099999994}},{"attributes":{"ID":507077,"DIS_CODE":0,"TOWNNAME":"安平區","LI":"平通里","LIN":"15鄰","STREET":"健康三街","SECT":" ","MAREA":" ","LANE":" ","ALLEY":" ","HOUSE_NO":"４５６號五樓","E_COORD97":164841.66,"N_COORD97":2543889.1000000001,"ADDRESS":"健康三街４５６號五樓","OBJECTID":507050},"geometry":{"x":164841.66000000015,"y":2543889.1000000015}},{"attributes":{"ID":507078,"DIS_CODE":0,"TOWNNAME":"安平區","LI":"平通里","LIN":"15鄰","STREET":"健康三街","SECT":" ","MAREA":" ","LANE":" ","ALLEY":" ","HOUSE_NO":"４５６號四樓","E_COORD97":164841.66,"N_COORD97":2543889.1000000001,"ADDRESS":"健康三街４５６號四樓","OBJECTID":507051},"geometry":{"x":164841.66000000015,"y":2543889.1000000015}},{"attributes":{"ID":507079,"DIS_CODE":0,"TOWNNAME":"安平區","LI":"平通里","LIN":"15鄰","STREET":"健康三街","SECT":" ","MAREA":" ","LANE":" ","ALLEY":" ","HOUSE_NO":"４５８號二樓","E_COORD97":164843.19,"N_COORD97":2543898.3199999998,"ADDRESS":"健康三街４５８號二樓","OBJECTID":507052},"geometry":{"x":164843.19000000134,"y":2543898.3200000022}},{"attributes":{"ID":507080,"DIS_CODE":0,"TOWNNAME":"安平區","LI":"平通里","LIN":"15鄰","STREET":"健康三街","SECT":" ","MAREA":" ","LANE":" ","ALLEY":" ","HOUSE_NO":"４５８號三樓","E_COORD97":164843.19,"N_COORD97":2543898.3199999998,"ADDRESS":"健康三街４５８號三樓","OBJECTID":507053},"geometry":{"x":164843.19000000134,"y":2543898.3200000022}},{"attributes":{"ID":507081,"DIS_CODE":0,"TOWNNAME":"安平區","LI":"平通里","LIN":"15鄰","STREET":"健康三街","SECT":" ","MAREA":" ","LANE":" ","ALLEY":" ","HOUSE_NO":"４５８號五樓","E_COORD97":164843.19,"N_COORD97":2543898.3199999998,"ADDRESS":"健康三街４５８號五樓","OBJECTID":507054},"geometry":{"x":164843.19000000134,"y":2543898.3200000022}},{"attributes":{"ID":507082,"DIS_CODE":0,"TOWNNAME":"安平區","LI":"平通里","LIN":"15鄰","STREET":"健康三街","SECT":" ","MAREA":" ","LANE":" ","ALLEY":" ","HOUSE_NO":"４５８號四樓","E_COORD97":164843.19,"N_COORD97":2543898.3199999998,"ADDRESS":"健康三街４５８號四樓","OBJECTID":507055},"geometry":{"x":164843.19000000134,"y":2543898.3200000022}},{"attributes":{"ID":507083,"DIS_CODE":0,"TOWNNAME":"安平區","LI":"育平里","LIN":"15鄰","STREET":"育平路","SECT":" ","MAREA":" ","LANE":" ","ALLEY":" ","HOUSE_NO":"２１２號七樓之１１","E_COORD97":164690.60999999999,"N_COORD97":2543415.9199999999,"ADDRESS":"育平路２１２號七樓之１１","OBJECTID":507056},"geometry":{"x":164690.61000000127,"y":2543415.9200000018}},{"attributes":{"ID":507084,"DIS_CODE":0,"TOWNNAME":"安平區","LI":"育平里","LIN":"15鄰","STREET":"育平路","SECT":" ","MAREA":" ","LANE":" ","ALLEY":" ","HOUSE_NO":"２１２號七樓之１３","E_COORD97":164690.60999999999,"N_COORD97":2543415.9199999999,"ADDRESS":"育平路２１２號七樓之１３","OBJECTID":507057},"geometry":{"x":164690.61000000127,"y":2543415.9200000018}},{"attributes":{"ID":507085,"DIS_CODE":0,"TOWNNAME":"安平區","LI":"育平里","LIN":"15鄰","STREET":"育平路","SECT":" ","MAREA":" ","LANE":" ","ALLEY":" ","HOUSE_NO":"２１２號七樓之１５","E_COORD97":164690.60999999999,"N_COORD97":2543415.9199999999,"ADDRESS":"育平路２１２號七樓之１５","OBJECTID":507058},"geometry":{"x":164690.61000000127,"y":2543415.9200000018}},{"attributes":{"ID":507086,"DIS_CODE":0,"TOWNNAME":"安平區","LI":"育平里","LIN":"15鄰","STREET":"育平路","SECT":" ","MAREA":" ","LANE":" ","ALLEY":" ","HOUSE_NO":"２１２號七樓之１７","E_COORD97":164690.60999999999,"N_COORD97":2543415.9199999999,"ADDRESS":"育平路２１２號七樓之１７","OBJECTID":507059},"geometry":{"x":164690.61000000127,"y":2543415.9200000018}},{"attributes":{"ID":507087,"DIS_CODE":0,"TOWNNAME":"安平區","LI":"育平里","LIN":"15鄰","STREET":"育平路","SECT":" ","MAREA":" ","LANE":" ","ALLEY":" ","HOUSE_NO":"２１２號七樓之１９","E_COORD97":164690.60999999999,"N_COORD97":2543415.9199999999,"ADDRESS":"育平路２１２號七樓之１９","OBJECTID":507060},"geometry":{"x":164690.61000000127,"y":2543415.9200000018}},{"attributes":{"ID":507088,"DIS_CODE":0,"TOWNNAME":"安平區","LI":"育平里","LIN":"15鄰","STREET":"育平路","SECT":" ","MAREA":" ","LANE":" ","ALLEY":" ","HOUSE_NO":"２１２號七樓之２１","E_COORD97":164690.60999999999,"N_COORD97":2543415.9199999999,"ADDRESS":"育平路２１２號七樓之２１","OBJECTID":507061},"geometry":{"x":164690.61000000127,"y":2543415.9200000018}},{"attributes":{"ID":507089,"DIS_CODE":0,"TOWNNAME":"安平區","LI":"育平里","LIN":"15鄰","STREET":"育平路","SECT":" ","MAREA":" ","LANE":" ","ALLEY":" ","HOUSE_NO":"２１２號九樓之１１","E_COORD97":164690.60999999999,"N_COORD97":2543415.9199999999,"ADDRESS":"育平路２１２號九樓之１１","OBJECTID":507062},"geometry":{"x":164690.61000000127,"y":2543415.9200000018}},{"attributes":{"ID":507090,"DIS_CODE":0,"TOWNNAME":"安平區","LI":"育平里","LIN":"15鄰","STREET":"育平路","SECT":" ","MAREA":" ","LANE":" ","ALLEY":" ","HOUSE_NO":"２１２號九樓之１３","E_COORD97":164690.60999999999,"N_COORD97":2543415.9199999999,"ADDRESS":"育平路２１２號九樓之１３","OBJECTID":507063},"geometry":{"x":164690.61000000127,"y":2543415.9200000018}},{"attributes":{"ID":507091,"DIS_CODE":0,"TOWNNAME":"安平區","LI":"育平里","LIN":"15鄰","STREET":"育平路","SECT":" ","MAREA":" ","LANE":" ","ALLEY":" ","HOUSE_NO":"２１２號九樓之１５","E_COORD97":164690.60999999999,"N_COORD97":2543415.9199999999,"ADDRESS":"育平路２１２號九樓之１５","OBJECTID":507064},"geometry":{"x":164690.61000000127,"y":2543415.9200000018}},{"attributes":{"ID":507092,"DIS_CODE":0,"TOWNNAME":"安平區","LI":"育平里","LIN":"15鄰","STREET":"育平路","SECT":" ","MAREA":" ","LANE":" ","ALLEY":" ","HOUSE_NO":"２１２號九樓之１７","E_COORD97":164690.60999999999,"N_COORD97":2543415.9199999999,"ADDRESS":"育平路２１２號九樓之１７","OBJECTID":507065},"geometry":{"x":164690.61000000127,"y":2543415.9200000018}},{"attributes":{"ID":507093,"DIS_CODE":0,"TOWNNAME":"安平區","LI":"育平里","LIN":"15鄰","STREET":"育平路","SECT":" ","MAREA":" ","LANE":" ","ALLEY":" ","HOUSE_NO":"２１２號九樓之１９","E_COORD97":164690.60999999999,"N_COORD97":2543415.9199999999,"ADDRESS":"育平路２１２號九樓之１９","OBJECTID":507066},"geometry":{"x":164690.61000000127,"y":2543415.9200000018}},{"attributes":{"ID":507094,"DIS_CODE":0,"TOWNNAME":"安平區","LI":"育平里","LIN":"15鄰","STREET":"育平路","SECT":" ","MAREA":" ","LANE":" ","ALLEY":" ","HOUSE_NO":"２１２號九樓之２１","E_COORD97":164690.60999999999,"N_COORD97":2543415.9199999999,"ADDRESS":"育平路２１２號九樓之２１","OBJECTID":507067},"geometry":{"x":164690.61000000127,"y":2543415.9200000018}},{"attributes":{"ID":507095,"DIS_CODE":0,"TOWNNAME":"安平區","LI":"育平里","LIN":"15鄰","STREET":"育平路","SECT":" ","MAREA":" ","LANE":" ","ALLEY":" ","HOUSE_NO":"２１２號八樓之１１","E_COORD97":164690.60999999999,"N_COORD97":2543415.9199999999,"ADDRESS":"育平路２１２號八樓之１１","OBJECTID":507068},"geometry":{"x":164690.61000000127,"y":2543415.9200000018}},{"attributes":{"ID":507096,"DIS_CODE":0,"TOWNNAME":"安平區","LI":"育平里","LIN":"15鄰","STREET":"育平路","SECT":" ","MAREA":" ","LANE":" ","ALLEY":" ","HOUSE_NO":"２１２號八樓之１３","E_COORD97":164690.60999999999,"N_COORD97":2543415.9199999999,"ADDRESS":"育平路２１２號八樓之１３","OBJECTID":507069},"geometry":{"x":164690.61000000127,"y":2543415.9200000018}},{"attributes":{"ID":507097,"DIS_CODE":0,"TOWNNAME":"安平區","LI":"育平里","LIN":"15鄰","STREET":"育平路","SECT":" ","MAREA":" ","LANE":" ","ALLEY":" ","HOUSE_NO":"２１２號八樓之１５","E_COORD97":164690.60999999999,"N_COORD97":2543415.9199999999,"ADDRESS":"育平路２１２號八樓之１５","OBJECTID":507070},"geometry":{"x":164690.61000000127,"y":2543415.9200000018}},{"attributes":{"ID":507098,"DIS_CODE":0,"TOWNNAME":"安平區","LI":"育平里","LIN":"15鄰","STREET":"育平路","SECT":" ","MAREA":" ","LANE":" ","ALLEY":" ","HOUSE_NO":"２１２號八樓之１７","E_COORD97":164690.60999999999,"N_COORD97":2543415.9199999999,"ADDRESS":"育平路２１２號八樓之１７","OBJECTID":507071},"geometry":{"x":164690.61000000127,"y":2543415.9200000018}},{"attributes":{"ID":507099,"DIS_CODE":0,"TOWNNAME":"安平區","LI":"育平里","LIN":"15鄰","STREET":"育平路","SECT":" ","MAREA":" ","LANE":" ","ALLEY":" ","HOUSE_NO":"２１２號八樓之１９","E_COORD97":164690.60999999999,"N_COORD97":2543415.9199999999,"ADDRESS":"育平路２１２號八樓之１９","OBJECTID":507072},"geometry":{"x":164690.61000000127,"y":2543415.9200000018}},{"attributes":{"ID":507100,"DIS_CODE":0,"TOWNNAME":"安平區","LI":"育平里","LIN":"15鄰","STREET":"育平路","SECT":" ","MAREA":" ","LANE":" ","ALLEY":" ","HOUSE_NO":"２１２號八樓之２１","E_COORD97":164690.60999999999,"N_COORD97":2543415.9199999999,"ADDRESS":"育平路２１２號八樓之２１","OBJECTID":507073},"geometry":{"x":164690.61000000127,"y":2543415.9200000018}},{"attributes":{"ID":507101,"DIS_CODE":0,"TOWNNAME":"安平區","LI":"育平里","LIN":"15鄰","STREET":"育平路","SECT":" ","MAREA":" ","LANE":" ","ALLEY":" ","HOUSE_NO":"２１２號十一樓之１１","E_COORD97":164690.60999999999,"N_COORD97":2543415.9199999999,"ADDRESS":"育平路２１２號十一樓之１１","OBJECTID":507074},"geometry":{"x":164690.61000000127,"y":2543415.9200000018}},{"attributes":{"ID":507102,"DIS_CODE":0,"TOWNNAME":"安平區","LI":"育平里","LIN":"15鄰","STREET":"育平路","SECT":" ","MAREA":" ","LANE":" ","ALLEY":" ","HOUSE_NO":"２１２號十一樓之１３","E_COORD97":164690.60999999999,"N_COORD97":2543415.9199999999,"ADDRESS":"育平路２１２號十一樓之１３","OBJECTID":507075},"geometry":{"x":164690.61000000127,"y":2543415.9200000018}},{"attributes":{"ID":507103,"DIS_CODE":0,"TOWNNAME":"安平區","LI":"育平里","LIN":"15鄰","STREET":"育平路","SECT":" ","MAREA":" ","LANE":" ","ALLEY":" ","HOUSE_NO":"２１２號十一樓之１５","E_COORD97":164690.60999999999,"N_COORD97":2543415.9199999999,"ADDRESS":"育平路２１２號十一樓之１５","OBJECTID":507076},"geometry":{"x":164690.61000000127,"y":2543415.9200000018}},{"attributes":{"ID":507104,"DIS_CODE":0,"TOWNNAME":"安平區","LI":"育平里","LIN":"15鄰","STREET":"育平路","SECT":" ","MAREA":" ","LANE":" ","ALLEY":" ","HOUSE_NO":"２１２號十一樓之１７","E_COORD97":164690.60999999999,"N_COORD97":2543415.9199999999,"ADDRESS":"育平路２１２號十一樓之１７","OBJECTID":507077},"geometry":{"x":164690.61000000127,"y":2543415.9200000018}},{"attributes":{"ID":507105,"DIS_CODE":0,"TOWNNAME":"安平區","LI":"育平里","LIN":"15鄰","STREET":"育平路","SECT":" ","MAREA":" ","LANE":" ","ALLEY":" ","HOUSE_NO":"２１２號十一樓之１９","E_COORD97":164690.60999999999,"N_COORD97":2543415.9199999999,"ADDRESS":"育平路２１２號十一樓之１９","OBJECTID":507078},"geometry":{"x":164690.61000000127,"y":2543415.9200000018}},{"attributes":{"ID":507106,"DIS_CODE":0,"TOWNNAME":"安平區","LI":"育平里","LIN":"15鄰","STREET":"育平路","SECT":" ","MAREA":" ","LANE":" ","ALLEY":" ","HOUSE_NO":"２１２號十一樓之２１","E_COORD97":164690.60999999999,"N_COORD97":2543415.9199999999,"ADDRESS":"育平路２１２號十一樓之２１","OBJECTID":507079},"geometry":{"x":164690.61000000127,"y":2543415.9200000018}},{"attributes":{"ID":507107,"DIS_CODE":0,"TOWNNAME":"玉井區","LI":"玉井里","LIN":"15鄰","STREET":"中華路","SECT":" ","MAREA":" ","LANE":" ","ALLEY":" ","HOUSE_NO":"４號","E_COORD97":194911.45999999999,"N_COORD97":2558176.2400000002,"ADDRESS":"中華路４號","OBJECTID":507080},"geometry":{"x":194911.46000000089,"y":2558176.2400000002}},{"attributes":{"ID":507108,"DIS_CODE":0,"TOWNNAME":"安平區","LI":"育平里","LIN":"15鄰","STREET":"育平路","SECT":" ","MAREA":" ","LANE":" ","ALLEY":" ","HOUSE_NO":"２１２號十一樓之２３","E_COORD97":164690.60999999999,"N_COORD97":2543415.9199999999,"ADDRESS":"育平路２１２號十一樓之２３","OBJECTID":507081},"geometry":{"x":164690.61000000127,"y":2543415.9200000018}},{"attributes":{"ID":507109,"DIS_CODE":0,"TOWNNAME":"安平區","LI":"育平里","LIN":"15鄰","STREET":"育平路","SECT":" ","MAREA":" ","LANE":" ","ALLEY":" ","HOUSE_NO":"２１２號十七樓之１１","E_COORD97":164690.60999999999,"N_COORD97":2543415.9199999999,"ADDRESS":"育平路２１２號十七樓之１１","OBJECTID":507082},"geometry":{"x":164690.61000000127,"y":2543415.9200000018}},{"attributes":{"ID":507110,"DIS_CODE":0,"TOWNNAME":"安平區","LI":"育平里","LIN":"15鄰","STREET":"育平路","SECT":" ","MAREA":" ","LANE":" ","ALLEY":" ","HOUSE_NO":"２１２號十七樓之１３","E_COORD97":164690.60999999999,"N_COORD97":2543415.9199999999,"ADDRESS":"育平路２１２號十七樓之１３","OBJECTID":507083},"geometry":{"x":164690.61000000127,"y":2543415.9200000018}},{"attributes":{"ID":507111,"DIS_CODE":0,"TOWNNAME":"安平區","LI":"育平里","LIN":"15鄰","STREET":"育平路","SECT":" ","MAREA":" ","LANE":" ","ALLEY":" ","HOUSE_NO":"２１２號十七樓之１５","E_COORD97":164690.60999999999,"N_COORD97":2543415.9199999999,"ADDRESS":"育平路２１２號十七樓之１５","OBJECTID":507084},"geometry":{"x":164690.61000000127,"y":2543415.9200000018}},{"attributes":{"ID":507112,"DIS_CODE":0,"TOWNNAME":"安平區","LI":"育平里","LIN":"15鄰","STREET":"育平路","SECT":" ","MAREA":" ","LANE":" ","ALLEY":" ","HOUSE_NO":"２１２號十七樓之１７","E_COORD97":164690.60999999999,"N_COORD97":2543415.9199999999,"ADDRESS":"育平路２１２號十七樓之１７","OBJECTID":507085},"geometry":{"x":164690.61000000127,"y":2543415.9200000018}},{"attributes":{"ID":507113,"DIS_CODE":0,"TOWNNAME":"安平區","LI":"育平里","LIN":"15鄰","STREET":"育平路","SECT":" ","MAREA":" ","LANE":" ","ALLEY":" ","HOUSE_NO":"２１２號十七樓之１９","E_COORD97":164690.60999999999,"N_COORD97":2543415.9199999999,"ADDRESS":"育平路２１２號十七樓之１９","OBJECTID":507086},"geometry":{"x":164690.61000000127,"y":2543415.9200000018}},{"attributes":{"ID":507114,"DIS_CODE":0,"TOWNNAME":"北區","LI":"成德里","LIN":"15鄰","STREET":"文成一路","SECT":" ","MAREA":" ","LANE":" ","ALLEY":" ","HOUSE_NO":"１９號","E_COORD97":168879.85999999999,"N_COORD97":2546000.4700000002,"ADDRESS":"文成一路１９號","OBJECTID":507087},"geometry":{"x":168879.86000000127,"y":2546000.4700000007}},{"attributes":{"ID":507115,"DIS_CODE":0,"TOWNNAME":"北區","LI":"成德里","LIN":"15鄰","STREET":"文成一路","SECT":" ","MAREA":" ","LANE":" ","ALLEY":" ","HOUSE_NO":"２１號","E_COORD97":168875.57999999999,"N_COORD97":2546001.29,"ADDRESS":"文成一路２１號","OBJECTID":507088},"geometry":{"x":168875.57999999914,"y":2546001.2900000028}},{"attributes":{"ID":507116,"DIS_CODE":0,"TOWNNAME":"北區","LI":"成德里","LIN":"15鄰","STREET":"文成一路","SECT":" ","MAREA":" ","LANE":" ","ALLEY":" ","HOUSE_NO":"２３號","E_COORD97":168870.69,"N_COORD97":2546001.4900000002,"ADDRESS":"文成一路２３號","OBJECTID":507089},"geometry":{"x":168870.69000000134,"y":2546001.4900000021}},{"attributes":{"ID":507117,"DIS_CODE":0,"TOWNNAME":"北區","LI":"成德里","LIN":"15鄰","STREET":"文成一路","SECT":" ","MAREA":" ","LANE":" ","ALLEY":" ","HOUSE_NO":"２５號","E_COORD97":168866.20999999999,"N_COORD97":2546001.7000000002,"ADDRESS":"文成一路２５號","OBJECTID":507090},"geometry":{"x":168866.21000000183,"y":2546001.6999999993}},{"attributes":{"ID":507118,"DIS_CODE":0,"TOWNNAME":"北區","LI":"成德里","LIN":"15鄰","STREET":"文成一路","SECT":" ","MAREA":" ","LANE":" ","ALLEY":" ","HOUSE_NO":"２７號","E_COORD97":168861.92999999999,"N_COORD97":2546002.3100000001,"ADDRESS":"文成一路２７號","OBJECTID":507091},"geometry":{"x":168861.9299999997,"y":2546002.3100000005}},{"attributes":{"ID":507119,"DIS_CODE":0,"TOWNNAME":"北區","LI":"成德里","LIN":"15鄰","STREET":"文成一路","SECT":" ","MAREA":" ","LANE":" ","ALLEY":" ","HOUSE_NO":"２９號","E_COORD97":168857.66,"N_COORD97":2546003.1200000001,"ADDRESS":"文成一路２９號","OBJECTID":507092},"geometry":{"x":168857.66000000015,"y":2546003.120000001}},{"attributes":{"ID":507120,"DIS_CODE":0,"TOWNNAME":"北區","LI":"成德里","LIN":"15鄰","STREET":"文成一路","SECT":" ","MAREA":" ","LANE":" ","ALLEY":" ","HOUSE_NO":"３１號","E_COORD97":168853.57999999999,"N_COORD97":2546004.75,"ADDRESS":"文成一路３１號","OBJECTID":507093},"geometry":{"x":168853.58000000194,"y":2546004.75}},{"attributes":{"ID":507121,"DIS_CODE":0,"TOWNNAME":"北區","LI":"成德里","LIN":"15鄰","STREET":"文成一路","SECT":" ","MAREA":" ","LANE":" ","ALLEY":" ","HOUSE_NO":"３３號","E_COORD97":168848.89999999999,"N_COORD97":2546004.9500000002,"ADDRESS":"文成一路３３號","OBJECTID":507094},"geometry":{"x":168848.9000000013,"y":2546004.9500000011}},{"attributes":{"ID":507122,"DIS_CODE":0,"TOWNNAME":"北區","LI":"成德里","LIN":"15鄰","STREET":"文成一路","SECT":" ","MAREA":" ","LANE":" ","ALLEY":" ","HOUSE_NO":"３９號","E_COORD97":168839.73000000001,"N_COORD97":2546006.7799999998,"ADDRESS":"文成一路３９號","OBJECTID":507095},"geometry":{"x":168839.73000000138,"y":2546006.7799999993}},{"attributes":{"ID":507123,"DIS_CODE":0,"TOWNNAME":"北區","LI":"成德里","LIN":"15鄰","STREET":"文成一路","SECT":" ","MAREA":" ","LANE":" ","ALLEY":" ","HOUSE_NO":"３號","E_COORD97":168914.48999999999,"N_COORD97":2545989.4900000002,"ADDRESS":"文成一路３號","OBJECTID":507096},"geometry":{"x":168914.49000000115,"y":2545989.4900000002}},{"attributes":{"ID":507124,"DIS_CODE":0,"TOWNNAME":"北區","LI":"成德里","LIN":"15鄰","STREET":"文成一路","SECT":" ","MAREA":" ","LANE":" ","ALLEY":" ","HOUSE_NO":"４１號","E_COORD97":168831.57999999999,"N_COORD97":2546008.6099999999,"ADDRESS":"文成一路４１號","OBJECTID":507097},"geometry":{"x":168831.58000000194,"y":2546008.6099999994}},{"attributes":{"ID":507125,"DIS_CODE":0,"TOWNNAME":"北區","LI":"成德里","LIN":"15鄰","STREET":"文成一路","SECT":" ","MAREA":" ","LANE":" ","ALLEY":" ","HOUSE_NO":"４３號","E_COORD97":168826.95999999999,"N_COORD97":2546009.2000000002,"ADDRESS":"文成一路４３號","OBJECTID":507098},"geometry":{"x":168826.95999999996,"y":2546009.2000000011}},{"attributes":{"ID":507126,"DIS_CODE":0,"TOWNNAME":"安平區","LI":"育平里","LIN":"15鄰","STREET":"育平路","SECT":" ","MAREA":" ","LANE":" ","ALLEY":" ","HOUSE_NO":"２１２號十七樓之２１","E_COORD97":164690.60999999999,"N_COORD97":2543415.9199999999,"ADDRESS":"育平路２１２號十七樓之２１","OBJECTID":507099},"geometry":{"x":164690.61000000127,"y":2543415.9200000018}},{"attributes":{"ID":507127,"DIS_CODE":0,"TOWNNAME":"安平區","LI":"育平里","LIN":"15鄰","STREET":"育平路","SECT":" ","MAREA":" ","LANE":" ","ALLEY":" ","HOUSE_NO":"２１２號十二樓之１１","E_COORD97":164690.60999999999,"N_COORD97":2543415.9199999999,"ADDRESS":"育平路２１２號十二樓之１１","OBJECTID":507100},"geometry":{"x":164690.61000000127,"y":2543415.9200000018}},{"attributes":{"ID":507128,"DIS_CODE":0,"TOWNNAME":"安平區","LI":"育平里","LIN":"15鄰","STREET":"育平路","SECT":" ","MAREA":" ","LANE":" ","ALLEY":" ","HOUSE_NO":"２１２號十二樓之１３","E_COORD97":164690.60999999999,"N_COORD97":2543415.9199999999,"ADDRESS":"育平路２１２號十二樓之１３","OBJECTID":507101},"geometry":{"x":164690.61000000127,"y":2543415.9200000018}},{"attributes":{"ID":507129,"DIS_CODE":0,"TOWNNAME":"安平區","LI":"育平里","LIN":"15鄰","STREET":"育平路","SECT":" ","MAREA":" ","LANE":" ","ALLEY":" ","HOUSE_NO":"２１２號十二樓之１５","E_COORD97":164690.60999999999,"N_COORD97":2543415.9199999999,"ADDRESS":"育平路２１２號十二樓之１５","OBJECTID":507102},"geometry":{"x":164690.61000000127,"y":2543415.9200000018}},{"attributes":{"ID":507130,"DIS_CODE":0,"TOWNNAME":"安平區","LI":"育平里","LIN":"15鄰","STREET":"育平路","SECT":" ","MAREA":" ","LANE":" ","ALLEY":" ","HOUSE_NO":"２１２號十二樓之１７","E_COORD97":164690.60999999999,"N_COORD97":2543415.9199999999,"ADDRESS":"育平路２１２號十二樓之１７","OBJECTID":507103},"geometry":{"x":164690.61000000127,"y":2543415.9200000018}},{"attributes":{"ID":507131,"DIS_CODE":0,"TOWNNAME":"安平區","LI":"育平里","LIN":"15鄰","STREET":"育平路","SECT":" ","MAREA":" ","LANE":" ","ALLEY":" ","HOUSE_NO":"２１２號十二樓之１９","E_COORD97":164690.60999999999,"N_COORD97":2543415.9199999999,"ADDRESS":"育平路２１２號十二樓之１９","OBJECTID":507104},"geometry":{"x":164690.61000000127,"y":2543415.9200000018}},{"attributes":{"ID":507132,"DIS_CODE":0,"TOWNNAME":"安平區","LI":"育平里","LIN":"15鄰","STREET":"育平路","SECT":" ","MAREA":" ","LANE":" ","ALLEY":" ","HOUSE_NO":"２１２號十二樓之２１","E_COORD97":164690.60999999999,"N_COORD97":2543415.9199999999,"ADDRESS":"育平路２１２號十二樓之２１","OBJECTID":507105},"geometry":{"x":164690.61000000127,"y":2543415.9200000018}},{"attributes":{"ID":507133,"DIS_CODE":0,"TOWNNAME":"安平區","LI":"育平里","LIN":"15鄰","STREET":"育平路","SECT":" ","MAREA":" ","LANE":" ","ALLEY":" ","HOUSE_NO":"２１２號十三樓之１１","E_COORD97":164690.60999999999,"N_COORD97":2543415.9199999999,"ADDRESS":"育平路２１２號十三樓之１１","OBJECTID":507106},"geometry":{"x":164690.61000000127,"y":2543415.9200000018}},{"attributes":{"ID":507134,"DIS_CODE":0,"TOWNNAME":"安平區","LI":"育平里","LIN":"15鄰","STREET":"育平路","SECT":" ","MAREA":" ","LANE":" ","ALLEY":" ","HOUSE_NO":"２１２號十三樓之１３","E_COORD97":164690.60999999999,"N_COORD97":2543415.9199999999,"ADDRESS":"育平路２１２號十三樓之１３","OBJECTID":507107},"geometry":{"x":164690.61000000127,"y":2543415.9200000018}},{"attributes":{"ID":507135,"DIS_CODE":0,"TOWNNAME":"安平區","LI":"育平里","LIN":"15鄰","STREET":"育平路","SECT":" ","MAREA":" ","LANE":" ","ALLEY":" ","HOUSE_NO":"２１２號十三樓之１５","E_COORD97":164690.60999999999,"N_COORD97":2543415.9199999999,"ADDRESS":"育平路２１２號十三樓之１５","OBJECTID":507108},"geometry":{"x":164690.61000000127,"y":2543415.9200000018}},{"attributes":{"ID":507136,"DIS_CODE":0,"TOWNNAME":"安平區","LI":"育平里","LIN":"15鄰","STREET":"育平路","SECT":" ","MAREA":" ","LANE":" ","ALLEY":" ","HOUSE_NO":"２１２號十三樓之１７","E_COORD97":164690.60999999999,"N_COORD97":2543415.9199999999,"ADDRESS":"育平路２１２號十三樓之１７","OBJECTID":507109},"geometry":{"x":164690.61000000127,"y":2543415.9200000018}},{"attributes":{"ID":507137,"DIS_CODE":0,"TOWNNAME":"安平區","LI":"育平里","LIN":"15鄰","STREET":"育平路","SECT":" ","MAREA":" ","LANE":" ","ALLEY":" ","HOUSE_NO":"２１２號十三樓之１９","E_COORD97":164690.60999999999,"N_COORD97":2543415.9199999999,"ADDRESS":"育平路２１２號十三樓之１９","OBJECTID":507110},"geometry":{"x":164690.61000000127,"y":2543415.9200000018}},{"attributes":{"ID":507138,"DIS_CODE":0,"TOWNNAME":"安平區","LI":"育平里","LIN":"15鄰","STREET":"育平路","SECT":" ","MAREA":" ","LANE":" ","ALLEY":" ","HOUSE_NO":"２１２號十三樓之２１","E_COORD97":164690.60999999999,"N_COORD97":2543415.9199999999,"ADDRESS":"育平路２１２號十三樓之２１","OBJECTID":507111},"geometry":{"x":164690.61000000127,"y":2543415.9200000018}},{"attributes":{"ID":507139,"DIS_CODE":0,"TOWNNAME":"安平區","LI":"育平里","LIN":"15鄰","STREET":"育平路","SECT":" ","MAREA":" ","LANE":" ","ALLEY":" ","HOUSE_NO":"２１２號十五樓之１１","E_COORD97":164690.60999999999,"N_COORD97":2543415.9199999999,"ADDRESS":"育平路２１２號十五樓之１１","OBJECTID":507112},"geometry":{"x":164690.61000000127,"y":2543415.9200000018}},{"attributes":{"ID":507140,"DIS_CODE":0,"TOWNNAME":"安平區","LI":"育平里","LIN":"15鄰","STREET":"育平路","SECT":" ","MAREA":" ","LANE":" ","ALLEY":" ","HOUSE_NO":"２１２號十五樓之１３","E_COORD97":164690.60999999999,"N_COORD97":2543415.9199999999,"ADDRESS":"育平路２１２號十五樓之１３","OBJECTID":507113},"geometry":{"x":164690.61000000127,"y":2543415.9200000018}},{"attributes":{"ID":507141,"DIS_CODE":0,"TOWNNAME":"安平區","LI":"育平里","LIN":"15鄰","STREET":"育平路","SECT":" ","MAREA":" ","LANE":" ","ALLEY":" ","HOUSE_NO":"２１２號十五樓之１５","E_COORD97":164690.60999999999,"N_COORD97":2543415.9199999999,"ADDRESS":"育平路２１２號十五樓之１５","OBJECTID":507114},"geometry":{"x":164690.61000000127,"y":2543415.9200000018}},{"attributes":{"ID":507142,"DIS_CODE":0,"TOWNNAME":"安平區","LI":"育平里","LIN":"15鄰","STREET":"育平路","SECT":" ","MAREA":" ","LANE":" ","ALLEY":" ","HOUSE_NO":"２１２號十五樓之１７","E_COORD97":164690.60999999999,"N_COORD97":2543415.9199999999,"ADDRESS":"育平路２１２號十五樓之１７","OBJECTID":507115},"geometry":{"x":164690.61000000127,"y":2543415.9200000018}},{"attributes":{"ID":507143,"DIS_CODE":0,"TOWNNAME":"安平區","LI":"育平里","LIN":"15鄰","STREET":"育平路","SECT":" ","MAREA":" ","LANE":" ","ALLEY":" ","HOUSE_NO":"２１２號十五樓之１９","E_COORD97":164690.60999999999,"N_COORD97":2543415.9199999999,"ADDRESS":"育平路２１２號十五樓之１９","OBJECTID":507116},"geometry":{"x":164690.61000000127,"y":2543415.9200000018}},{"attributes":{"ID":507144,"DIS_CODE":0,"TOWNNAME":"安平區","LI":"育平里","LIN":"15鄰","STREET":"育平路","SECT":" ","MAREA":" ","LANE":" ","ALLEY":" ","HOUSE_NO":"２１２號十五樓之２１","E_COORD97":164690.60999999999,"N_COORD97":2543415.9199999999,"ADDRESS":"育平路２１２號十五樓之２１","OBJECTID":507117},"geometry":{"x":164690.61000000127,"y":2543415.9200000018}},{"attributes":{"ID":507145,"DIS_CODE":0,"TOWNNAME":"安平區","LI":"育平里","LIN":"15鄰","STREET":"育平路","SECT":" ","MAREA":" ","LANE":" ","ALLEY":" ","HOUSE_NO":"２１２號十六樓之１１","E_COORD97":164690.60999999999,"N_COORD97":2543415.9199999999,"ADDRESS":"育平路２１２號十六樓之１１","OBJECTID":507118},"geometry":{"x":164690.61000000127,"y":2543415.9200000018}},{"attributes":{"ID":507146,"DIS_CODE":0,"TOWNNAME":"安平區","LI":"育平里","LIN":"15鄰","STREET":"育平路","SECT":" ","MAREA":" ","LANE":" ","ALLEY":" ","HOUSE_NO":"２１２號十六樓之１３","E_COORD97":164690.60999999999,"N_COORD97":2543415.9199999999,"ADDRESS":"育平路２１２號十六樓之１３","OBJECTID":507119},"geometry":{"x":164690.61000000127,"y":2543415.9200000018}},{"attributes":{"ID":507147,"DIS_CODE":0,"TOWNNAME":"安平區","LI":"育平里","LIN":"15鄰","STREET":"育平路","SECT":" ","MAREA":" ","LANE":" ","ALLEY":" ","HOUSE_NO":"２１２號十六樓之１５","E_COORD97":164690.60999999999,"N_COORD97":2543415.9199999999,"ADDRESS":"育平路２１２號十六樓之１５","OBJECTID":507120},"geometry":{"x":164690.61000000127,"y":2543415.9200000018}},{"attributes":{"ID":507148,"DIS_CODE":0,"TOWNNAME":"安平區","LI":"育平里","LIN":"15鄰","STREET":"育平路","SECT":" ","MAREA":" ","LANE":" ","ALLEY":" ","HOUSE_NO":"２１２號十六樓之１７","E_COORD97":164690.60999999999,"N_COORD97":2543415.9199999999,"ADDRESS":"育平路２１２號十六樓之１７","OBJECTID":507121},"geometry":{"x":164690.61000000127,"y":2543415.9200000018}},{"attributes":{"ID":507149,"DIS_CODE":0,"TOWNNAME":"安平區","LI":"育平里","LIN":"15鄰","STREET":"育平路","SECT":" ","MAREA":" ","LANE":" ","ALLEY":" ","HOUSE_NO":"２１２號十六樓之１９","E_COORD97":164690.60999999999,"N_COORD97":2543415.9199999999,"ADDRESS":"育平路２１２號十六樓之１９","OBJECTID":507122},"geometry":{"x":164690.61000000127,"y":2543415.9200000018}},{"attributes":{"ID":507150,"DIS_CODE":0,"TOWNNAME":"安平區","LI":"育平里","LIN":"15鄰","STREET":"育平路","SECT":" ","MAREA":" ","LANE":" ","ALLEY":" ","HOUSE_NO":"２１２號十六樓之２１","E_COORD97":164690.60999999999,"N_COORD97":2543415.9199999999,"ADDRESS":"育平路２１２號十六樓之２１","OBJECTID":507123},"geometry":{"x":164690.61000000127,"y":2543415.9200000018}},{"attributes":{"ID":507151,"DIS_CODE":0,"TOWNNAME":"安平區","LI":"育平里","LIN":"15鄰","STREET":"育平路","SECT":" ","MAREA":" ","LANE":" ","ALLEY":" ","HOUSE_NO":"２１２號十四樓之１１","E_COORD97":164690.60999999999,"N_COORD97":2543415.9199999999,"ADDRESS":"育平路２１２號十四樓之１１","OBJECTID":507124},"geometry":{"x":164690.61000000127,"y":2543415.9200000018}},{"attributes":{"ID":507152,"DIS_CODE":0,"TOWNNAME":"安平區","LI":"育平里","LIN":"15鄰","STREET":"育平路","SECT":" ","MAREA":" ","LANE":" ","ALLEY":" ","HOUSE_NO":"２１２號十四樓之１３","E_COORD97":164690.60999999999,"N_COORD97":2543415.9199999999,"ADDRESS":"育平路２１２號十四樓之１３","OBJECTID":507125},"geometry":{"x":164690.61000000127,"y":2543415.9200000018}},{"attributes":{"ID":507153,"DIS_CODE":0,"TOWNNAME":"安平區","LI":"育平里","LIN":"15鄰","STREET":"育平路","SECT":" ","MAREA":" ","LANE":" ","ALLEY":" ","HOUSE_NO":"２１２號十四樓之１５","E_COORD97":164690.60999999999,"N_COORD97":2543415.9199999999,"ADDRESS":"育平路２１２號十四樓之１５","OBJECTID":507126},"geometry":{"x":164690.61000000127,"y":2543415.9200000018}},{"attributes":{"ID":507154,"DIS_CODE":0,"TOWNNAME":"安平區","LI":"育平里","LIN":"15鄰","STREET":"育平路","SECT":" ","MAREA":" ","LANE":" ","ALLEY":" ","HOUSE_NO":"２１２號十四樓之１７","E_COORD97":164690.60999999999,"N_COORD97":2543415.9199999999,"ADDRESS":"育平路２１２號十四樓之１７","OBJECTID":507127},"geometry":{"x":164690.61000000127,"y":2543415.9200000018}},{"attributes":{"ID":507155,"DIS_CODE":0,"TOWNNAME":"安平區","LI":"育平里","LIN":"15鄰","STREET":"育平路","SECT":" ","MAREA":" ","LANE":" ","ALLEY":" ","HOUSE_NO":"２１２號十四樓之１９","E_COORD97":164690.60999999999,"N_COORD97":2543415.9199999999,"ADDRESS":"育平路２１２號十四樓之１９","OBJECTID":507128},"geometry":{"x":164690.61000000127,"y":2543415.9200000018}},{"attributes":{"ID":507156,"DIS_CODE":0,"TOWNNAME":"安平區","LI":"育平里","LIN":"15鄰","STREET":"育平路","SECT":" ","MAREA":" ","LANE":" ","ALLEY":" ","HOUSE_NO":"２１２號十四樓之２１","E_COORD97":164690.60999999999,"N_COORD97":2543415.9199999999,"ADDRESS":"育平路２１２號十四樓之２１","OBJECTID":507129},"geometry":{"x":164690.61000000127,"y":2543415.9200000018}},{"attributes":{"ID":507157,"DIS_CODE":0,"TOWNNAME":"安平區","LI":"育平里","LIN":"15鄰","STREET":"育平路","SECT":" ","MAREA":" ","LANE":" ","ALLEY":" ","HOUSE_NO":"２１２號十樓之１１","E_COORD97":164690.60999999999,"N_COORD97":2543415.9199999999,"ADDRESS":"育平路２１２號十樓之１１","OBJECTID":507130},"geometry":{"x":164690.61000000127,"y":2543415.9200000018}},{"attributes":{"ID":507158,"DIS_CODE":0,"TOWNNAME":"安平區","LI":"育平里","LIN":"15鄰","STREET":"育平路","SECT":" ","MAREA":" ","LANE":" ","ALLEY":" ","HOUSE_NO":"２１２號十樓之１３","E_COORD97":164690.60999999999,"N_COORD97":2543415.9199999999,"ADDRESS":"育平路２１２號十樓之１３","OBJECTID":507131},"geometry":{"x":164690.61000000127,"y":2543415.9200000018}},{"attributes":{"ID":507159,"DIS_CODE":0,"TOWNNAME":"安平區","LI":"育平里","LIN":"15鄰","STREET":"育平路","SECT":" ","MAREA":" ","LANE":" ","ALLEY":" ","HOUSE_NO":"２１２號十樓之１５","E_COORD97":164690.60999999999,"N_COORD97":2543415.9199999999,"ADDRESS":"育平路２１２號十樓之１５","OBJECTID":507132},"geometry":{"x":164690.61000000127,"y":2543415.9200000018}},{"attributes":{"ID":507160,"DIS_CODE":0,"TOWNNAME":"安平區","LI":"育平里","LIN":"15鄰","STREET":"育平路","SECT":" ","MAREA":" ","LANE":" ","ALLEY":" ","HOUSE_NO":"２１２號十樓之１７","E_COORD97":164690.60999999999,"N_COORD97":2543415.9199999999,"ADDRESS":"育平路２１２號十樓之１７","OBJECTID":507133},"geometry":{"x":164690.61000000127,"y":2543415.9200000018}},{"attributes":{"ID":507161,"DIS_CODE":0,"TOWNNAME":"安平區","LI":"育平里","LIN":"15鄰","STREET":"育平路","SECT":" ","MAREA":" ","LANE":" ","ALLEY":" ","HOUSE_NO":"２１２號十樓之１９","E_COORD97":164690.60999999999,"N_COORD97":2543415.9199999999,"ADDRESS":"育平路２１２號十樓之１９","OBJECTID":507134},"geometry":{"x":164690.61000000127,"y":2543415.9200000018}},{"attributes":{"ID":507162,"DIS_CODE":0,"TOWNNAME":"安平區","LI":"育平里","LIN":"15鄰","STREET":"育平路","SECT":" ","MAREA":" ","LANE":" ","ALLEY":" ","HOUSE_NO":"２１２號十樓之２１","E_COORD97":164690.60999999999,"N_COORD97":2543415.9199999999,"ADDRESS":"育平路２１２號十樓之２１","OBJECTID":507135},"geometry":{"x":164690.61000000127,"y":2543415.9200000018}},{"attributes":{"ID":507163,"DIS_CODE":0,"TOWNNAME":"安平區","LI":"育平里","LIN":"15鄰","STREET":"育平路","SECT":" ","MAREA":" ","LANE":" ","ALLEY":" ","HOUSE_NO":"２１２號五樓之１１","E_COORD97":164690.60999999999,"N_COORD97":2543415.9199999999,"ADDRESS":"育平路２１２號五樓之１１","OBJECTID":507136},"geometry":{"x":164690.61000000127,"y":2543415.9200000018}},{"attributes":{"ID":507164,"DIS_CODE":0,"TOWNNAME":"歸仁區","LI":"八甲里","LIN":"15鄰","STREET":"大仁七街","SECT":" ","MAREA":" ","LANE":" ","ALLEY":" ","HOUSE_NO":"６０號五樓之２","E_COORD97":178121.48000000001,"N_COORD97":2541730.6200000001,"ADDRESS":"大仁七街６０號五樓之２","OBJECTID":507137},"geometry":{"x":178121.48000000045,"y":2541730.6200000029}},{"attributes":{"ID":507165,"DIS_CODE":0,"TOWNNAME":"安平區","LI":"育平里","LIN":"15鄰","STREET":"育平路","SECT":" ","MAREA":" ","LANE":" ","ALLEY":" ","HOUSE_NO":"２１２號五樓之１３","E_COORD97":164690.60999999999,"N_COORD97":2543415.9199999999,"ADDRESS":"育平路２１２號五樓之１３","OBJECTID":507138},"geometry":{"x":164690.61000000127,"y":2543415.9200000018}},{"attributes":{"ID":507166,"DIS_CODE":0,"TOWNNAME":"安平區","LI":"育平里","LIN":"15鄰","STREET":"育平路","SECT":" ","MAREA":" ","LANE":" ","ALLEY":" ","HOUSE_NO":"２１２號五樓之１５","E_COORD97":164690.60999999999,"N_COORD97":2543415.9199999999,"ADDRESS":"育平路２１２號五樓之１５","OBJECTID":507139},"geometry":{"x":164690.61000000127,"y":2543415.9200000018}},{"attributes":{"ID":507167,"DIS_CODE":0,"TOWNNAME":"安平區","LI":"育平里","LIN":"15鄰","STREET":"育平路","SECT":" ","MAREA":" ","LANE":" ","ALLEY":" ","HOUSE_NO":"２１２號五樓之１７","E_COORD97":164690.60999999999,"N_COORD97":2543415.9199999999,"ADDRESS":"育平路２１２號五樓之１７","OBJECTID":507140},"geometry":{"x":164690.61000000127,"y":2543415.9200000018}},{"attributes":{"ID":507168,"DIS_CODE":0,"TOWNNAME":"安平區","LI":"育平里","LIN":"15鄰","STREET":"育平路","SECT":" ","MAREA":" ","LANE":" ","ALLEY":" ","HOUSE_NO":"２１２號五樓之１９","E_COORD97":164690.60999999999,"N_COORD97":2543415.9199999999,"ADDRESS":"育平路２１２號五樓之１９","OBJECTID":507141},"geometry":{"x":164690.61000000127,"y":2543415.9200000018}},{"attributes":{"ID":507169,"DIS_CODE":0,"TOWNNAME":"安平區","LI":"育平里","LIN":"15鄰","STREET":"育平路","SECT":" ","MAREA":" ","LANE":" ","ALLEY":" ","HOUSE_NO":"２１２號五樓之２１","E_COORD97":164690.60999999999,"N_COORD97":2543415.9199999999,"ADDRESS":"育平路２１２號五樓之２１","OBJECTID":507142},"geometry":{"x":164690.61000000127,"y":2543415.9200000018}},{"attributes":{"ID":507170,"DIS_CODE":0,"TOWNNAME":"北區","LI":"成德里","LIN":"15鄰","STREET":"西門路","SECT":"四段","MAREA":" ","LANE":" ","ALLEY":" ","HOUSE_NO":"２７３之８號","E_COORD97":168877.95999999999,"N_COORD97":2545982.0099999998,"ADDRESS":"西門路四段２７３之８號","OBJECTID":507143},"geometry":{"x":168877.95999999903,"y":2545982.0099999998}},{"attributes":{"ID":507171,"DIS_CODE":0,"TOWNNAME":"安平區","LI":"育平里","LIN":"15鄰","STREET":"育平路","SECT":" ","MAREA":" ","LANE":" ","ALLEY":" ","HOUSE_NO":"２１２號六樓之１１","E_COORD97":164690.60999999999,"N_COORD97":2543415.9199999999,"ADDRESS":"育平路２１２號六樓之１１","OBJECTID":507144},"geometry":{"x":164690.61000000127,"y":2543415.9200000018}},{"attributes":{"ID":507172,"DIS_CODE":0,"TOWNNAME":"安平區","LI":"育平里","LIN":"15鄰","STREET":"育平路","SECT":" ","MAREA":" ","LANE":" ","ALLEY":" ","HOUSE_NO":"２１２號六樓之１３","E_COORD97":164690.60999999999,"N_COORD97":2543415.9199999999,"ADDRESS":"育平路２１２號六樓之１３","OBJECTID":507145},"geometry":{"x":164690.61000000127,"y":2543415.9200000018}},{"attributes":{"ID":507173,"DIS_CODE":0,"TOWNNAME":"安平區","LI":"育平里","LIN":"15鄰","STREET":"育平路","SECT":" ","MAREA":" ","LANE":" ","ALLEY":" ","HOUSE_NO":"２１２號六樓之１５","E_COORD97":164690.60999999999,"N_COORD97":2543415.9199999999,"ADDRESS":"育平路２１２號六樓之１５","OBJECTID":507146},"geometry":{"x":164690.61000000127,"y":2543415.9200000018}},{"attributes":{"ID":507174,"DIS_CODE":0,"TOWNNAME":"安平區","LI":"育平里","LIN":"15鄰","STREET":"育平路","SECT":" ","MAREA":" ","LANE":" ","ALLEY":" ","HOUSE_NO":"２１２號六樓之１７","E_COORD97":164690.60999999999,"N_COORD97":2543415.9199999999,"ADDRESS":"育平路２１２號六樓之１７","OBJECTID":507147},"geometry":{"x":164690.61000000127,"y":2543415.9200000018}},{"attributes":{"ID":507175,"DIS_CODE":0,"TOWNNAME":"安平區","LI":"育平里","LIN":"15鄰","STREET":"育平路","SECT":" ","MAREA":" ","LANE":" ","ALLEY":" ","HOUSE_NO":"２１２號六樓之１９","E_COORD97":164690.60999999999,"N_COORD97":2543415.9199999999,"ADDRESS":"育平路２１２號六樓之１９","OBJECTID":507148},"geometry":{"x":164690.61000000127,"y":2543415.9200000018}},{"attributes":{"ID":507176,"DIS_CODE":0,"TOWNNAME":"安平區","LI":"育平里","LIN":"15鄰","STREET":"育平路","SECT":" ","MAREA":" ","LANE":" ","ALLEY":" ","HOUSE_NO":"２１２號六樓之２１","E_COORD97":164690.60999999999,"N_COORD97":2543415.9199999999,"ADDRESS":"育平路２１２號六樓之２１","OBJECTID":507149},"geometry":{"x":164690.61000000127,"y":2543415.9200000018}},{"attributes":{"ID":507177,"DIS_CODE":0,"TOWNNAME":"安平區","LI":"育平里","LIN":"15鄰","STREET":"育平路","SECT":" ","MAREA":" ","LANE":" ","ALLEY":" ","HOUSE_NO":"２１２號四樓之１１","E_COORD97":164690.60999999999,"N_COORD97":2543415.9199999999,"ADDRESS":"育平路２１２號四樓之１１","OBJECTID":507150},"geometry":{"x":164690.61000000127,"y":2543415.9200000018}},{"attributes":{"ID":507178,"DIS_CODE":0,"TOWNNAME":"安平區","LI":"育平里","LIN":"15鄰","STREET":"育平路","SECT":" ","MAREA":" ","LANE":" ","ALLEY":" ","HOUSE_NO":"２１２號四樓之１３","E_COORD97":164690.60999999999,"N_COORD97":2543415.9199999999,"ADDRESS":"育平路２１２號四樓之１３","OBJECTID":507151},"geometry":{"x":164690.61000000127,"y":2543415.9200000018}},{"attributes":{"ID":507179,"DIS_CODE":0,"TOWNNAME":"安平區","LI":"育平里","LIN":"15鄰","STREET":"育平路","SECT":" ","MAREA":" ","LANE":" ","ALLEY":" ","HOUSE_NO":"２１２號四樓之１５","E_COORD97":164690.60999999999,"N_COORD97":2543415.9199999999,"ADDRESS":"育平路２１２號四樓之１５","OBJECTID":507152},"geometry":{"x":164690.61000000127,"y":2543415.9200000018}},{"attributes":{"ID":507180,"DIS_CODE":0,"TOWNNAME":"安平區","LI":"育平里","LIN":"15鄰","STREET":"育平路","SECT":" ","MAREA":" ","LANE":" ","ALLEY":" ","HOUSE_NO":"２１２號四樓之１７","E_COORD97":164690.60999999999,"N_COORD97":2543415.9199999999,"ADDRESS":"育平路２１２號四樓之１７","OBJECTID":507153},"geometry":{"x":164690.61000000127,"y":2543415.9200000018}},{"attributes":{"ID":507181,"DIS_CODE":0,"TOWNNAME":"安平區","LI":"育平里","LIN":"15鄰","STREET":"育平路","SECT":" ","MAREA":" ","LANE":" ","ALLEY":" ","HOUSE_NO":"２１２號四樓之１９","E_COORD97":164690.60999999999,"N_COORD97":2543415.9199999999,"ADDRESS":"育平路２１２號四樓之１９","OBJECTID":507154},"geometry":{"x":164690.61000000127,"y":2543415.9200000018}},{"attributes":{"ID":507182,"DIS_CODE":0,"TOWNNAME":"安平區","LI":"育平里","LIN":"15鄰","STREET":"育平路","SECT":" ","MAREA":" ","LANE":" ","ALLEY":" ","HOUSE_NO":"２１２號四樓之２１","E_COORD97":164690.60999999999,"N_COORD97":2543415.9199999999,"ADDRESS":"育平路２１２號四樓之２１","OBJECTID":507155},"geometry":{"x":164690.61000000127,"y":2543415.9200000018}},{"attributes":{"ID":507183,"DIS_CODE":0,"TOWNNAME":"新營區","LI":"民生里","LIN":"15鄰","STREET":"三民路","SECT":" ","MAREA":" ","LANE":" ","ALLEY":" ","HOUSE_NO":"１３１號十樓之１","E_COORD97":179295.59,"N_COORD97":2578270.48,"ADDRESS":"三民路１３１號十樓之１","OBJECTID":507156},"geometry":{"x":179295.58999999892,"y":2578270.4800000004}},{"attributes":{"ID":507184,"DIS_CODE":0,"TOWNNAME":"新營區","LI":"民生里","LIN":"15鄰","STREET":"三民路","SECT":" ","MAREA":" ","LANE":" ","ALLEY":" ","HOUSE_NO":"１３１號十樓之１","E_COORD97":179295.54000000001,"N_COORD97":2578270.48,"ADDRESS":"三民路１３１號十樓之１","OBJECTID":507157},"geometry":{"x":179295.54000000004,"y":2578270.4800000004}},{"attributes":{"ID":507185,"DIS_CODE":0,"TOWNNAME":"新營區","LI":"民生里","LIN":"15鄰","STREET":"三民路","SECT":" ","MAREA":" ","LANE":" ","ALLEY":" ","HOUSE_NO":"１３１號八樓之２","E_COORD97":179295.57999999999,"N_COORD97":2578270.48,"ADDRESS":"三民路１３１號八樓之２","OBJECTID":507158},"geometry":{"x":179295.58000000007,"y":2578270.4800000004}},{"attributes":{"ID":507186,"DIS_CODE":0,"TOWNNAME":"新營區","LI":"民生里","LIN":"15鄰","STREET":"三民路","SECT":" ","MAREA":" ","LANE":" ","ALLEY":" ","HOUSE_NO":"１３１號七樓之２","E_COORD97":179295.57999999999,"N_COORD97":2578270.48,"ADDRESS":"三民路１３１號七樓之２","OBJECTID":507159},"geometry":{"x":179295.58000000007,"y":2578270.4800000004}},{"attributes":{"ID":507187,"DIS_CODE":0,"TOWNNAME":"新營區","LI":"民生里","LIN":"15鄰","STREET":"三民路","SECT":" ","MAREA":" ","LANE":" ","ALLEY":" ","HOUSE_NO":"１３１號十樓之１","E_COORD97":179295.53,"N_COORD97":2578270.48,"ADDRESS":"三民路１３１號十樓之１","OBJECTID":507160},"geometry":{"x":179295.53000000119,"y":2578270.4800000004}},{"attributes":{"ID":507188,"DIS_CODE":0,"TOWNNAME":"新營區","LI":"民權里","LIN":"15鄰","STREET":"信義街","SECT":" ","MAREA":" ","LANE":" ","ALLEY":" ","HOUSE_NO":"６７號四樓","E_COORD97":179895.60999999999,"N_COORD97":2578496.8100000001,"ADDRESS":"信義街６７號四樓","OBJECTID":507161},"geometry":{"x":179895.61000000034,"y":2578496.8100000024}},{"attributes":{"ID":507189,"DIS_CODE":0,"TOWNNAME":"新營區","LI":"民生里","LIN":"15鄰","STREET":"三民路","SECT":" ","MAREA":" ","LANE":" ","ALLEY":" ","HOUSE_NO":"１３１號七樓之３","E_COORD97":179295.54000000001,"N_COORD97":2578270.48,"ADDRESS":"三民路１３１號七樓之３","OBJECTID":507162},"geometry":{"x":179295.54000000004,"y":2578270.4800000004}},{"attributes":{"ID":507190,"DIS_CODE":0,"TOWNNAME":"新營區","LI":"民生里","LIN":"15鄰","STREET":"三民路","SECT":" ","MAREA":" ","LANE":" ","ALLEY":" ","HOUSE_NO":"１３１號七樓之１","E_COORD97":179295.45000000001,"N_COORD97":2578270.48,"ADDRESS":"三民路１３１號七樓之１","OBJECTID":507163},"geometry":{"x":179295.45000000112,"y":2578270.4800000004}},{"attributes":{"ID":507191,"DIS_CODE":0,"TOWNNAME":"新營區","LI":"民生里","LIN":"15鄰","STREET":"三民路","SECT":" ","MAREA":" ","LANE":" ","ALLEY":" ","HOUSE_NO":"１３１號九樓之２","E_COORD97":179295.57999999999,"N_COORD97":2578270.48,"ADDRESS":"三民路１３１號九樓之２","OBJECTID":507164},"geometry":{"x":179295.58000000007,"y":2578270.4800000004}},{"attributes":{"ID":507192,"DIS_CODE":0,"TOWNNAME":"歸仁區","LI":"八甲里","LIN":"15鄰","STREET":"大仁七街","SECT":" ","MAREA":" ","LANE":" ","ALLEY":" ","HOUSE_NO":"６０號四樓之１２","E_COORD97":178121.73000000001,"N_COORD97":2541730.6200000001,"ADDRESS":"大仁七街６０號四樓之１２","OBJECTID":507165},"geometry":{"x":178121.73000000045,"y":2541730.6200000029}},{"attributes":{"ID":507193,"DIS_CODE":0,"TOWNNAME":"歸仁區","LI":"八甲里","LIN":"15鄰","STREET":"大仁七街","SECT":" ","MAREA":" ","LANE":" ","ALLEY":" ","HOUSE_NO":"６０號三樓之１９","E_COORD97":178121.72,"N_COORD97":2541730.6200000001,"ADDRESS":"大仁七街６０號三樓之１９","OBJECTID":507166},"geometry":{"x":178121.7200000016,"y":2541730.6200000029}},{"attributes":{"ID":507194,"DIS_CODE":0,"TOWNNAME":"歸仁區","LI":"八甲里","LIN":"15鄰","STREET":"大仁七街","SECT":" ","MAREA":" ","LANE":" ","ALLEY":" ","HOUSE_NO":"６０號三樓之１１","E_COORD97":178121.70000000001,"N_COORD97":2541730.6200000001,"ADDRESS":"大仁七街６０號三樓之１１","OBJECTID":507167},"geometry":{"x":178121.70000000019,"y":2541730.6200000029}},{"attributes":{"ID":507195,"DIS_CODE":0,"TOWNNAME":"歸仁區","LI":"八甲里","LIN":"15鄰","STREET":"大仁七街","SECT":" ","MAREA":" ","LANE":" ","ALLEY":" ","HOUSE_NO":"６０號三樓之１３","E_COORD97":178121.72,"N_COORD97":2541730.6200000001,"ADDRESS":"大仁七街６０號三樓之１３","OBJECTID":507168},"geometry":{"x":178121.7200000016,"y":2541730.6200000029}},{"attributes":{"ID":507196,"DIS_CODE":0,"TOWNNAME":"歸仁區","LI":"八甲里","LIN":"15鄰","STREET":"大仁七街","SECT":" ","MAREA":" ","LANE":" ","ALLEY":" ","HOUSE_NO":"６０號三樓之１６","E_COORD97":178121.72,"N_COORD97":2541730.6200000001,"ADDRESS":"大仁七街６０號三樓之１６","OBJECTID":507169},"geometry":{"x":178121.7200000016,"y":2541730.6200000029}},{"attributes":{"ID":507197,"DIS_CODE":0,"TOWNNAME":"歸仁區","LI":"八甲里","LIN":"15鄰","STREET":"大仁七街","SECT":" ","MAREA":" ","LANE":" ","ALLEY":" ","HOUSE_NO":"６０號五樓之９","E_COORD97":178121.47,"N_COORD97":2541730.6200000001,"ADDRESS":"大仁七街６０號五樓之９","OBJECTID":507170},"geometry":{"x":178121.46999999974,"y":2541730.6200000029}},{"attributes":{"ID":507198,"DIS_CODE":0,"TOWNNAME":"北區","LI":"成德里","LIN":"15鄰","STREET":"西門路","SECT":"四段","MAREA":" ","LANE":" ","ALLEY":" ","HOUSE_NO":"２７１號地下一層之１","E_COORD97":168908.44,"N_COORD97":2545951.8100000001,"ADDRESS":"西門路四段２７１號地下一層之１","OBJECTID":507171},"geometry":{"x":168908.44000000041,"y":2545951.8100000042}},{"attributes":{"ID":507199,"DIS_CODE":0,"TOWNNAME":"北區","LI":"成德里","LIN":"15鄰","STREET":"西門路","SECT":"四段","MAREA":" ","LANE":" ","ALLEY":" ","HOUSE_NO":"２７１號地下一層之２","E_COORD97":168908.44,"N_COORD97":2545951.8100000001,"ADDRESS":"西門路四段２７１號地下一層之２","OBJECTID":507172},"geometry":{"x":168908.44000000041,"y":2545951.8100000042}},{"attributes":{"ID":507200,"DIS_CODE":0,"TOWNNAME":"北區","LI":"成德里","LIN":"15鄰","STREET":"西門路","SECT":"四段","MAREA":" ","LANE":" ","ALLEY":" ","HOUSE_NO":"２７１號地下一層之３","E_COORD97":168908.44,"N_COORD97":2545951.8100000001,"ADDRESS":"西門路四段２７１號地下一層之３","OBJECTID":507173},"geometry":{"x":168908.44000000041,"y":2545951.8100000042}},{"attributes":{"ID":507201,"DIS_CODE":0,"TOWNNAME":"北區","LI":"成德里","LIN":"15鄰","STREET":"西門路","SECT":"四段","MAREA":" ","LANE":" ","ALLEY":" ","HOUSE_NO":"２７３之１號","E_COORD97":168873.70999999999,"N_COORD97":2545936.0899999999,"ADDRESS":"西門路四段２７３之１號","OBJECTID":507174},"geometry":{"x":168873.71000000089,"y":2545936.0900000017}},{"attributes":{"ID":507202,"DIS_CODE":0,"TOWNNAME":"歸仁區","LI":"八甲里","LIN":"15鄰","STREET":"大仁七街","SECT":" ","MAREA":" ","LANE":" ","ALLEY":" ","HOUSE_NO":"６０號三樓之３","E_COORD97":178121.47,"N_COORD97":2541730.6200000001,"ADDRESS":"大仁七街６０號三樓之３","OBJECTID":507175},"geometry":{"x":178121.46999999974,"y":2541730.6200000029}},{"attributes":{"ID":507203,"DIS_CODE":0,"TOWNNAME":"歸仁區","LI":"八甲里","LIN":"15鄰","STREET":"大仁七街","SECT":" ","MAREA":" ","LANE":" ","ALLEY":" ","HOUSE_NO":"６０號三樓之１４","E_COORD97":178121.70999999999,"N_COORD97":2541730.6200000001,"ADDRESS":"大仁七街６０號三樓之１４","OBJECTID":507176},"geometry":{"x":178121.70999999996,"y":2541730.6200000029}},{"attributes":{"ID":507204,"DIS_CODE":0,"TOWNNAME":"歸仁區","LI":"八甲里","LIN":"15鄰","STREET":"大仁七街","SECT":" ","MAREA":" ","LANE":" ","ALLEY":" ","HOUSE_NO":"６０號四樓之９","E_COORD97":178121.47,"N_COORD97":2541730.6200000001,"ADDRESS":"大仁七街６０號四樓之９","OBJECTID":507177},"geometry":{"x":178121.46999999974,"y":2541730.6200000029}},{"attributes":{"ID":507205,"DIS_CODE":0,"TOWNNAME":"歸仁區","LI":"八甲里","LIN":"15鄰","STREET":"大仁七街","SECT":" ","MAREA":" ","LANE":" ","ALLEY":" ","HOUSE_NO":"６０號三樓之１７","E_COORD97":178121.72,"N_COORD97":2541730.6200000001,"ADDRESS":"大仁七街６０號三樓之１７","OBJECTID":507178},"geometry":{"x":178121.7200000016,"y":2541730.6200000029}},{"attributes":{"ID":507206,"DIS_CODE":0,"TOWNNAME":"歸仁區","LI":"八甲里","LIN":"15鄰","STREET":"大仁七街","SECT":" ","MAREA":" ","LANE":" ","ALLEY":" ","HOUSE_NO":"６０號六樓之１２","E_COORD97":178121.73000000001,"N_COORD97":2541730.6200000001,"ADDRESS":"大仁七街６０號六樓之１２","OBJECTID":507179},"geometry":{"x":178121.73000000045,"y":2541730.6200000029}},{"attributes":{"ID":507207,"DIS_CODE":0,"TOWNNAME":"歸仁區","LI":"八甲里","LIN":"15鄰","STREET":"大仁七街","SECT":" ","MAREA":" ","LANE":" ","ALLEY":" ","HOUSE_NO":"６０號五樓之３","E_COORD97":178121.47,"N_COORD97":2541730.6200000001,"ADDRESS":"大仁七街６０號五樓之３","OBJECTID":507180},"geometry":{"x":178121.46999999974,"y":2541730.6200000029}},{"attributes":{"ID":507208,"DIS_CODE":0,"TOWNNAME":"歸仁區","LI":"八甲里","LIN":"15鄰","STREET":"大仁七街","SECT":" ","MAREA":" ","LANE":" ","ALLEY":" ","HOUSE_NO":"６０號四樓之６","E_COORD97":178121.47,"N_COORD97":2541730.6200000001,"ADDRESS":"大仁七街６０號四樓之６","OBJECTID":507181},"geometry":{"x":178121.46999999974,"y":2541730.6200000029}},{"attributes":{"ID":507209,"DIS_CODE":0,"TOWNNAME":"歸仁區","LI":"八甲里","LIN":"15鄰","STREET":"大仁七街","SECT":" ","MAREA":" ","LANE":" ","ALLEY":" ","HOUSE_NO":"６０號六樓之７","E_COORD97":178121.47,"N_COORD97":2541730.6200000001,"ADDRESS":"大仁七街６０號六樓之７","OBJECTID":507182},"geometry":{"x":178121.46999999974,"y":2541730.6200000029}},{"attributes":{"ID":507210,"DIS_CODE":0,"TOWNNAME":"歸仁區","LI":"八甲里","LIN":"15鄰","STREET":"大仁七街","SECT":" ","MAREA":" ","LANE":" ","ALLEY":" ","HOUSE_NO":"６０號六樓之１５","E_COORD97":178121.73000000001,"N_COORD97":2541730.6200000001,"ADDRESS":"大仁七街６０號六樓之１５","OBJECTID":507183},"geometry":{"x":178121.73000000045,"y":2541730.6200000029}},{"attributes":{"ID":507211,"DIS_CODE":0,"TOWNNAME":"歸仁區","LI":"八甲里","LIN":"15鄰","STREET":"大仁七街","SECT":" ","MAREA":" ","LANE":" ","ALLEY":" ","HOUSE_NO":"６０號五樓之８","E_COORD97":178121.48000000001,"N_COORD97":2541730.6200000001,"ADDRESS":"大仁七街６０號五樓之８","OBJECTID":507184},"geometry":{"x":178121.48000000045,"y":2541730.6200000029}},{"attributes":{"ID":507212,"DIS_CODE":0,"TOWNNAME":"歸仁區","LI":"八甲里","LIN":"15鄰","STREET":"大仁七街","SECT":" ","MAREA":" ","LANE":" ","ALLEY":" ","HOUSE_NO":"６０號六樓之１０","E_COORD97":178121.70999999999,"N_COORD97":2541730.6200000001,"ADDRESS":"大仁七街６０號六樓之１０","OBJECTID":507185},"geometry":{"x":178121.70999999996,"y":2541730.6200000029}},{"attributes":{"ID":507213,"DIS_CODE":0,"TOWNNAME":"歸仁區","LI":"八甲里","LIN":"15鄰","STREET":"大仁七街","SECT":" ","MAREA":" ","LANE":" ","ALLEY":" ","HOUSE_NO":"６０號四樓之１","E_COORD97":178121.45000000001,"N_COORD97":2541730.6200000001,"ADDRESS":"大仁七街６０號四樓之１","OBJECTID":507186},"geometry":{"x":178121.45000000019,"y":2541730.6200000029}},{"attributes":{"ID":507214,"DIS_CODE":0,"TOWNNAME":"歸仁區","LI":"八甲里","LIN":"15鄰","STREET":"大仁七街","SECT":" ","MAREA":" ","LANE":" ","ALLEY":" ","HOUSE_NO":"６０號六樓之１４","E_COORD97":178121.70999999999,"N_COORD97":2541730.6200000001,"ADDRESS":"大仁七街６０號六樓之１４","OBJECTID":507187},"geometry":{"x":178121.70999999996,"y":2541730.6200000029}},{"attributes":{"ID":507215,"DIS_CODE":0,"TOWNNAME":"歸仁區","LI":"八甲里","LIN":"15鄰","STREET":"大仁七街","SECT":" ","MAREA":" ","LANE":" ","ALLEY":" ","HOUSE_NO":"６０號一樓","E_COORD97":178121.01999999999,"N_COORD97":2541730.6099999999,"ADDRESS":"大仁七街６０號一樓","OBJECTID":507188},"geometry":{"x":178121.02000000142,"y":2541730.6099999994}},{"attributes":{"ID":507216,"DIS_CODE":0,"TOWNNAME":"歸仁區","LI":"八甲里","LIN":"15鄰","STREET":"大仁七街","SECT":" ","MAREA":" ","LANE":" ","ALLEY":" ","HOUSE_NO":"６０號六樓之１６","E_COORD97":178121.72,"N_COORD97":2541730.6200000001,"ADDRESS":"大仁七街６０號六樓之１６","OBJECTID":507189},"geometry":{"x":178121.7200000016,"y":2541730.6200000029}},{"attributes":{"ID":507217,"DIS_CODE":0,"TOWNNAME":"歸仁區","LI":"八甲里","LIN":"15鄰","STREET":"大仁七街","SECT":" ","MAREA":" ","LANE":" ","ALLEY":" ","HOUSE_NO":"６０號三樓之２","E_COORD97":178121.48000000001,"N_COORD97":2541730.6200000001,"ADDRESS":"大仁七街６０號三樓之２","OBJECTID":507190},"geometry":{"x":178121.48000000045,"y":2541730.6200000029}},{"attributes":{"ID":507218,"DIS_CODE":0,"TOWNNAME":"歸仁區","LI":"八甲里","LIN":"15鄰","STREET":"大仁七街","SECT":" ","MAREA":" ","LANE":" ","ALLEY":" ","HOUSE_NO":"６０號四樓之２","E_COORD97":178121.48000000001,"N_COORD97":2541730.6200000001,"ADDRESS":"大仁七街６０號四樓之２","OBJECTID":507191},"geometry":{"x":178121.48000000045,"y":2541730.6200000029}},{"attributes":{"ID":507219,"DIS_CODE":0,"TOWNNAME":"歸仁區","LI":"八甲里","LIN":"15鄰","STREET":"大仁七街","SECT":" ","MAREA":" ","LANE":" ","ALLEY":" ","HOUSE_NO":"６０號三樓之９","E_COORD97":178121.47,"N_COORD97":2541730.6200000001,"ADDRESS":"大仁七街６０號三樓之９","OBJECTID":507192},"geometry":{"x":178121.46999999974,"y":2541730.6200000029}},{"attributes":{"ID":507220,"DIS_CODE":0,"TOWNNAME":"歸仁區","LI":"八甲里","LIN":"15鄰","STREET":"大仁七街","SECT":" ","MAREA":" ","LANE":" ","ALLEY":" ","HOUSE_NO":"６０號二樓之８","E_COORD97":178121.48000000001,"N_COORD97":2541730.6200000001,"ADDRESS":"大仁七街６０號二樓之８","OBJECTID":507193},"geometry":{"x":178121.48000000045,"y":2541730.6200000029}},{"attributes":{"ID":507221,"DIS_CODE":0,"TOWNNAME":"歸仁區","LI":"八甲里","LIN":"15鄰","STREET":"大仁七街","SECT":" ","MAREA":" ","LANE":" ","ALLEY":" ","HOUSE_NO":"６０號四樓之１６","E_COORD97":178121.72,"N_COORD97":2541730.6200000001,"ADDRESS":"大仁七街６０號四樓之１６","OBJECTID":507194},"geometry":{"x":178121.7200000016,"y":2541730.6200000029}},{"attributes":{"ID":507222,"DIS_CODE":0,"TOWNNAME":"歸仁區","LI":"八甲里","LIN":"15鄰","STREET":"大仁七街","SECT":" ","MAREA":" ","LANE":" ","ALLEY":" ","HOUSE_NO":"６０號二樓之２","E_COORD97":178121.48000000001,"N_COORD97":2541730.6200000001,"ADDRESS":"大仁七街６０號二樓之２","OBJECTID":507195},"geometry":{"x":178121.48000000045,"y":2541730.6200000029}},{"attributes":{"ID":507223,"DIS_CODE":0,"TOWNNAME":"歸仁區","LI":"八甲里","LIN":"15鄰","STREET":"大仁七街","SECT":" ","MAREA":" ","LANE":" ","ALLEY":" ","HOUSE_NO":"６０號二樓之６","E_COORD97":178121.47,"N_COORD97":2541730.6200000001,"ADDRESS":"大仁七街６０號二樓之６","OBJECTID":507196},"geometry":{"x":178121.46999999974,"y":2541730.6200000029}},{"attributes":{"ID":507224,"DIS_CODE":0,"TOWNNAME":"歸仁區","LI":"八甲里","LIN":"15鄰","STREET":"大仁七街","SECT":" ","MAREA":" ","LANE":" ","ALLEY":" ","HOUSE_NO":"６０號四樓之１３","E_COORD97":178121.72,"N_COORD97":2541730.6200000001,"ADDRESS":"大仁七街６０號四樓之１３","OBJECTID":507197},"geometry":{"x":178121.7200000016,"y":2541730.6200000029}},{"attributes":{"ID":507225,"DIS_CODE":0,"TOWNNAME":"歸仁區","LI":"八甲里","LIN":"15鄰","STREET":"大仁七街","SECT":" ","MAREA":" ","LANE":" ","ALLEY":" ","HOUSE_NO":"６０號四樓之１５","E_COORD97":178121.73000000001,"N_COORD97":2541730.6200000001,"ADDRESS":"大仁七街６０號四樓之１５","OBJECTID":507198},"geometry":{"x":178121.73000000045,"y":2541730.6200000029}},{"attributes":{"ID":507226,"DIS_CODE":0,"TOWNNAME":"歸仁區","LI":"八甲里","LIN":"15鄰","STREET":"大仁七街","SECT":" ","MAREA":" ","LANE":" ","ALLEY":" ","HOUSE_NO":"６０號五樓之７","E_COORD97":178121.47,"N_COORD97":2541730.6200000001,"ADDRESS":"大仁七街６０號五樓之７","OBJECTID":507199},"geometry":{"x":178121.46999999974,"y":2541730.6200000029}},{"attributes":{"ID":507227,"DIS_CODE":0,"TOWNNAME":"歸仁區","LI":"八甲里","LIN":"15鄰","STREET":"大仁七街","SECT":" ","MAREA":" ","LANE":" ","ALLEY":" ","HOUSE_NO":"６０號五樓之５","E_COORD97":178121.48000000001,"N_COORD97":2541730.6200000001,"ADDRESS":"大仁七街６０號五樓之５","OBJECTID":507200},"geometry":{"x":178121.48000000045,"y":2541730.6200000029}}]}