{"displayFieldName":"TOWNNAME","fieldAliases":{"ID":"ID","DIS_CODE":"DIS_CODE","TOWNNAME":"TOWNNAME","LI":"LI","LIN":"LIN","STREET":"STREET","SECT":"SECT","MAREA":"MAREA","LANE":"LANE","ALLEY":"ALLEY","HOUSE_NO":"HOUSE_NO","E_COORD97":"E_COORD97","N_COORD97":"N_COORD97","ADDRESS":"ADDRESS","OBJECTID":"OBJECTID"},"geometryType":"esriGeometryPoint","spatialReference":{"wkid":102443,"latestWkid":3826},"fields":[{"name":"ID","type":"esriFieldTypeDouble","alias":"ID"},{"name":"DIS_CODE","type":"esriFieldTypeInteger","alias":"DIS_CODE"},{"name":"TOWNNAME","type":"esriFieldTypeString","alias":"TOWNNAME","length":8},{"name":"LI","type":"esriFieldTypeString","alias":"LI","length":8},{"name":"LIN","type":"esriFieldTypeString","alias":"LIN","length":12},{"name":"STREET","type":"esriFieldTypeString","alias":"STREET","length":20},{"name":"SECT","type":"esriFieldTypeString","alias":"SECT","length":8},{"name":"MAREA","type":"esriFieldTypeString","alias":"MAREA","length":12},{"name":"LANE","type":"esriFieldTypeString","alias":"LANE","length":10},{"name":"ALLEY","type":"esriFieldTypeString","alias":"ALLEY","length":10},{"name":"HOUSE_NO","type":"esriFieldTypeString","alias":"HOUSE_NO","length":20},{"name":"E_COORD97","type":"esriFieldTypeDouble","alias":"E_COORD97"},{"name":"N_COORD97","type":"esriFieldTypeDouble","alias":"N_COORD97"},{"name":"ADDRESS","type":"esriFieldTypeString","alias":"ADDRESS","length":50},{"name":"OBJECTID","type":"esriFieldTypeOID","alias":"OBJECTID"}],"features":[{"attributes":{"ID":513828,"DIS_CODE":0,"TOWNNAME":"東區","LI":"路東里","LIN":"1鄰","STREET":"大同路","SECT":"二段","MAREA":" ","LANE":" ","ALLEY":" ","HOUSE_NO":"６３號四樓之１","E_COORD97":169325.60000000001,"N_COORD97":2542231.3199999998,"ADDRESS":"大同路二段６３號四樓之１","OBJECTID":513801},"geometry":{"x":169325.59999999963,"y":2542231.3200000003}},{"attributes":{"ID":513829,"DIS_CODE":0,"TOWNNAME":"東區","LI":"路東里","LIN":"1鄰","STREET":"大同路","SECT":"二段","MAREA":" ","LANE":" ","ALLEY":" ","HOUSE_NO":"６３號四樓之２","E_COORD97":169325.60000000001,"N_COORD97":2542231.3199999998,"ADDRESS":"大同路二段６３號四樓之２","OBJECTID":513802},"geometry":{"x":169325.59999999963,"y":2542231.3200000003}},{"attributes":{"ID":513830,"DIS_CODE":0,"TOWNNAME":"東區","LI":"路東里","LIN":"1鄰","STREET":"大同路","SECT":"二段","MAREA":" ","LANE":" ","ALLEY":" ","HOUSE_NO":"６３號四樓之３","E_COORD97":169325.60000000001,"N_COORD97":2542231.3199999998,"ADDRESS":"大同路二段６３號四樓之３","OBJECTID":513803},"geometry":{"x":169325.59999999963,"y":2542231.3200000003}},{"attributes":{"ID":513831,"DIS_CODE":0,"TOWNNAME":"南區","LI":"新生里","LIN":"1鄰","STREET":"大林路","SECT":" ","MAREA":" ","LANE":" ","ALLEY":" ","HOUSE_NO":"６號八樓之５","E_COORD97":169339.28,"N_COORD97":2541879,"ADDRESS":"大林路６號八樓之５","OBJECTID":513804},"geometry":{"x":169339.28000000119,"y":2541879.0000000019}},{"attributes":{"ID":513832,"DIS_CODE":0,"TOWNNAME":"南區","LI":"新生里","LIN":"1鄰","STREET":"大林路","SECT":" ","MAREA":" ","LANE":" ","ALLEY":" ","HOUSE_NO":"６號十樓之１","E_COORD97":169339.28,"N_COORD97":2541879,"ADDRESS":"大林路６號十樓之１","OBJECTID":513805},"geometry":{"x":169339.28000000119,"y":2541879.0000000019}},{"attributes":{"ID":513833,"DIS_CODE":0,"TOWNNAME":"學甲區","LI":"仁得里","LIN":"1鄰","STREET":"公園街","SECT":" ","MAREA":" ","LANE":" ","ALLEY":" ","HOUSE_NO":"６６號三樓之３","E_COORD97":166290.32000000001,"N_COORD97":2569891.5499999998,"ADDRESS":"公園街６６號三樓之３","OBJECTID":513806},"geometry":{"x":166290.3200000003,"y":2569891.5500000026}},{"attributes":{"ID":513834,"DIS_CODE":0,"TOWNNAME":"學甲區","LI":"仁得里","LIN":"1鄰","STREET":"公園街","SECT":" ","MAREA":" ","LANE":" ","ALLEY":" ","HOUSE_NO":"６６號五樓之１","E_COORD97":166290.32000000001,"N_COORD97":2569891.5499999998,"ADDRESS":"公園街６６號五樓之１","OBJECTID":513807},"geometry":{"x":166290.3200000003,"y":2569891.5500000026}},{"attributes":{"ID":513835,"DIS_CODE":0,"TOWNNAME":"學甲區","LI":"仁得里","LIN":"1鄰","STREET":"公園街","SECT":" ","MAREA":" ","LANE":" ","ALLEY":" ","HOUSE_NO":"６６號五樓之２","E_COORD97":166290.32000000001,"N_COORD97":2569891.5499999998,"ADDRESS":"公園街６６號五樓之２","OBJECTID":513808},"geometry":{"x":166290.3200000003,"y":2569891.5500000026}},{"attributes":{"ID":513836,"DIS_CODE":0,"TOWNNAME":"學甲區","LI":"仁得里","LIN":"1鄰","STREET":"公園街","SECT":" ","MAREA":" ","LANE":" ","ALLEY":" ","HOUSE_NO":"６６號五樓之３","E_COORD97":166290.32000000001,"N_COORD97":2569891.5499999998,"ADDRESS":"公園街６６號五樓之３","OBJECTID":513809},"geometry":{"x":166290.3200000003,"y":2569891.5500000026}},{"attributes":{"ID":513837,"DIS_CODE":0,"TOWNNAME":"學甲區","LI":"仁得里","LIN":"1鄰","STREET":"公園街","SECT":" ","MAREA":" ","LANE":" ","ALLEY":" ","HOUSE_NO":"６６號四樓之１","E_COORD97":166290.32000000001,"N_COORD97":2569891.5499999998,"ADDRESS":"公園街６６號四樓之１","OBJECTID":513810},"geometry":{"x":166290.3200000003,"y":2569891.5500000026}},{"attributes":{"ID":513838,"DIS_CODE":0,"TOWNNAME":"學甲區","LI":"仁得里","LIN":"1鄰","STREET":"公園街","SECT":" ","MAREA":" ","LANE":" ","ALLEY":" ","HOUSE_NO":"６６號四樓之２","E_COORD97":166290.32000000001,"N_COORD97":2569891.5499999998,"ADDRESS":"公園街６６號四樓之２","OBJECTID":513811},"geometry":{"x":166290.3200000003,"y":2569891.5500000026}},{"attributes":{"ID":513839,"DIS_CODE":0,"TOWNNAME":"學甲區","LI":"仁得里","LIN":"1鄰","STREET":"公園街","SECT":" ","MAREA":" ","LANE":" ","ALLEY":" ","HOUSE_NO":"６６號四樓之３","E_COORD97":166290.32000000001,"N_COORD97":2569891.5499999998,"ADDRESS":"公園街６６號四樓之３","OBJECTID":513812},"geometry":{"x":166290.3200000003,"y":2569891.5500000026}},{"attributes":{"ID":513840,"DIS_CODE":0,"TOWNNAME":"歸仁區","LI":"後市里","LIN":"1鄰","STREET":"大順街","SECT":" ","MAREA":" ","LANE":" ","ALLEY":" ","HOUSE_NO":"１４１號三樓","E_COORD97":177057.23000000001,"N_COORD97":2540595.25,"ADDRESS":"大順街１４１號三樓","OBJECTID":513813},"geometry":{"x":177057.23000000045,"y":2540595.2500000019}},{"attributes":{"ID":513841,"DIS_CODE":0,"TOWNNAME":"新營區","LI":"王公里","LIN":"1鄰","STREET":"中正路","SECT":" ","MAREA":" ","LANE":" ","ALLEY":" ","HOUSE_NO":"５８號七樓","E_COORD97":180131.12,"N_COORD97":2578981.8799999999,"ADDRESS":"中正路５８號七樓","OBJECTID":513814},"geometry":{"x":180131.12000000011,"y":2578981.8799999971}},{"attributes":{"ID":513842,"DIS_CODE":0,"TOWNNAME":"南區","LI":"新生里","LIN":"1鄰","STREET":"大林路","SECT":" ","MAREA":" ","LANE":" ","ALLEY":" ","HOUSE_NO":"６號十樓之２","E_COORD97":169339.28,"N_COORD97":2541879,"ADDRESS":"大林路６號十樓之２","OBJECTID":513815},"geometry":{"x":169339.28000000119,"y":2541879.0000000019}},{"attributes":{"ID":513843,"DIS_CODE":0,"TOWNNAME":"南區","LI":"新生里","LIN":"1鄰","STREET":"大林路","SECT":" ","MAREA":" ","LANE":" ","ALLEY":" ","HOUSE_NO":"６號九樓之１","E_COORD97":169339.28,"N_COORD97":2541879,"ADDRESS":"大林路６號九樓之１","OBJECTID":513816},"geometry":{"x":169339.28000000119,"y":2541879.0000000019}},{"attributes":{"ID":513844,"DIS_CODE":0,"TOWNNAME":"南區","LI":"新生里","LIN":"1鄰","STREET":"大林路","SECT":" ","MAREA":" ","LANE":" ","ALLEY":" ","HOUSE_NO":"６號九樓之３","E_COORD97":169339.28,"N_COORD97":2541879,"ADDRESS":"大林路６號九樓之３","OBJECTID":513817},"geometry":{"x":169339.28000000119,"y":2541879.0000000019}},{"attributes":{"ID":513845,"DIS_CODE":0,"TOWNNAME":"安平區","LI":"育平里","LIN":"1鄰","STREET":"永華路","SECT":"二段","MAREA":" ","LANE":" ","ALLEY":" ","HOUSE_NO":"８１９號七樓之１","E_COORD97":164756.10999999999,"N_COORD97":2543515.4199999999,"ADDRESS":"永華路二段８１９號七樓之１","OBJECTID":513818},"geometry":{"x":164756.11000000034,"y":2543515.4199999999}},{"attributes":{"ID":513846,"DIS_CODE":0,"TOWNNAME":"安平區","LI":"育平里","LIN":"1鄰","STREET":"永華路","SECT":"二段","MAREA":" ","LANE":" ","ALLEY":" ","HOUSE_NO":"８１９號七樓之２","E_COORD97":164756.10999999999,"N_COORD97":2543515.4199999999,"ADDRESS":"永華路二段８１９號七樓之２","OBJECTID":513819},"geometry":{"x":164756.11000000034,"y":2543515.4199999999}},{"attributes":{"ID":513847,"DIS_CODE":0,"TOWNNAME":"安平區","LI":"育平里","LIN":"1鄰","STREET":"永華路","SECT":"二段","MAREA":" ","LANE":" ","ALLEY":" ","HOUSE_NO":"８１９號七樓之３","E_COORD97":164756.10999999999,"N_COORD97":2543515.4199999999,"ADDRESS":"永華路二段８１９號七樓之３","OBJECTID":513820},"geometry":{"x":164756.11000000034,"y":2543515.4199999999}},{"attributes":{"ID":513848,"DIS_CODE":0,"TOWNNAME":"安平區","LI":"育平里","LIN":"1鄰","STREET":"永華路","SECT":"二段","MAREA":" ","LANE":" ","ALLEY":" ","HOUSE_NO":"８１９號七樓之４","E_COORD97":164756.10999999999,"N_COORD97":2543515.4199999999,"ADDRESS":"永華路二段８１９號七樓之４","OBJECTID":513821},"geometry":{"x":164756.11000000034,"y":2543515.4199999999}},{"attributes":{"ID":513849,"DIS_CODE":0,"TOWNNAME":"安平區","LI":"育平里","LIN":"1鄰","STREET":"永華路","SECT":"二段","MAREA":" ","LANE":" ","ALLEY":" ","HOUSE_NO":"８１９號九樓之１","E_COORD97":164756.10999999999,"N_COORD97":2543515.4199999999,"ADDRESS":"永華路二段８１９號九樓之１","OBJECTID":513822},"geometry":{"x":164756.11000000034,"y":2543515.4199999999}},{"attributes":{"ID":513850,"DIS_CODE":0,"TOWNNAME":"安平區","LI":"育平里","LIN":"1鄰","STREET":"永華路","SECT":"二段","MAREA":" ","LANE":" ","ALLEY":" ","HOUSE_NO":"８１９號九樓之２","E_COORD97":164756.10999999999,"N_COORD97":2543515.4199999999,"ADDRESS":"永華路二段８１９號九樓之２","OBJECTID":513823},"geometry":{"x":164756.11000000034,"y":2543515.4199999999}},{"attributes":{"ID":513851,"DIS_CODE":0,"TOWNNAME":"安平區","LI":"育平里","LIN":"1鄰","STREET":"永華路","SECT":"二段","MAREA":" ","LANE":" ","ALLEY":" ","HOUSE_NO":"８１９號九樓之３","E_COORD97":164756.10999999999,"N_COORD97":2543515.4199999999,"ADDRESS":"永華路二段８１９號九樓之３","OBJECTID":513824},"geometry":{"x":164756.11000000034,"y":2543515.4199999999}},{"attributes":{"ID":513852,"DIS_CODE":0,"TOWNNAME":"安平區","LI":"育平里","LIN":"1鄰","STREET":"永華路","SECT":"二段","MAREA":" ","LANE":" ","ALLEY":" ","HOUSE_NO":"８１９號九樓之４","E_COORD97":164756.10999999999,"N_COORD97":2543515.4199999999,"ADDRESS":"永華路二段８１９號九樓之４","OBJECTID":513825},"geometry":{"x":164756.11000000034,"y":2543515.4199999999}},{"attributes":{"ID":513853,"DIS_CODE":0,"TOWNNAME":"安平區","LI":"育平里","LIN":"1鄰","STREET":"永華路","SECT":"二段","MAREA":" ","LANE":" ","ALLEY":" ","HOUSE_NO":"８１９號二十一樓之１","E_COORD97":164756.10999999999,"N_COORD97":2543515.4199999999,"ADDRESS":"永華路二段８１９號二十一樓之１","OBJECTID":513826},"geometry":{"x":164756.11000000034,"y":2543515.4199999999}},{"attributes":{"ID":513854,"DIS_CODE":0,"TOWNNAME":"安平區","LI":"育平里","LIN":"1鄰","STREET":"永華路","SECT":"二段","MAREA":" ","LANE":" ","ALLEY":" ","HOUSE_NO":"８１９號二十一樓之２","E_COORD97":164756.10999999999,"N_COORD97":2543515.4199999999,"ADDRESS":"永華路二段８１９號二十一樓之２","OBJECTID":513827},"geometry":{"x":164756.11000000034,"y":2543515.4199999999}},{"attributes":{"ID":513855,"DIS_CODE":0,"TOWNNAME":"安平區","LI":"育平里","LIN":"1鄰","STREET":"永華路","SECT":"二段","MAREA":" ","LANE":" ","ALLEY":" ","HOUSE_NO":"８１９號二十一樓之４","E_COORD97":164756.10999999999,"N_COORD97":2543515.4199999999,"ADDRESS":"永華路二段８１９號二十一樓之４","OBJECTID":513828},"geometry":{"x":164756.11000000034,"y":2543515.4199999999}},{"attributes":{"ID":513856,"DIS_CODE":0,"TOWNNAME":"安平區","LI":"育平里","LIN":"1鄰","STREET":"永華路","SECT":"二段","MAREA":" ","LANE":" ","ALLEY":" ","HOUSE_NO":"８１９號二十二樓之１","E_COORD97":164756.10999999999,"N_COORD97":2543515.4199999999,"ADDRESS":"永華路二段８１９號二十二樓之１","OBJECTID":513829},"geometry":{"x":164756.11000000034,"y":2543515.4199999999}},{"attributes":{"ID":513857,"DIS_CODE":0,"TOWNNAME":"安平區","LI":"育平里","LIN":"1鄰","STREET":"永華路","SECT":"二段","MAREA":" ","LANE":" ","ALLEY":" ","HOUSE_NO":"８１９號二十二樓之２","E_COORD97":164756.10999999999,"N_COORD97":2543515.4199999999,"ADDRESS":"永華路二段８１９號二十二樓之２","OBJECTID":513830},"geometry":{"x":164756.11000000034,"y":2543515.4199999999}},{"attributes":{"ID":513858,"DIS_CODE":0,"TOWNNAME":"安平區","LI":"育平里","LIN":"1鄰","STREET":"永華路","SECT":"二段","MAREA":" ","LANE":" ","ALLEY":" ","HOUSE_NO":"８１９號二十二樓之３","E_COORD97":164756.10999999999,"N_COORD97":2543515.4199999999,"ADDRESS":"永華路二段８１９號二十二樓之３","OBJECTID":513831},"geometry":{"x":164756.11000000034,"y":2543515.4199999999}},{"attributes":{"ID":513859,"DIS_CODE":0,"TOWNNAME":"安平區","LI":"育平里","LIN":"1鄰","STREET":"永華路","SECT":"二段","MAREA":" ","LANE":" ","ALLEY":" ","HOUSE_NO":"８１９號二十二樓之４","E_COORD97":164756.10999999999,"N_COORD97":2543515.4199999999,"ADDRESS":"永華路二段８１９號二十二樓之４","OBJECTID":513832},"geometry":{"x":164756.11000000034,"y":2543515.4199999999}},{"attributes":{"ID":513860,"DIS_CODE":0,"TOWNNAME":"下營區","LI":"仁里里","LIN":"1鄰","STREET":"仁義街","SECT":" ","MAREA":" ","LANE":" ","ALLEY":" ","HOUSE_NO":"６號","E_COORD97":174608.51999999999,"N_COORD97":2569725.2799999998,"ADDRESS":"仁義街６號","OBJECTID":513833},"geometry":{"x":174608.51999999862,"y":2569725.2800000012}},{"attributes":{"ID":513861,"DIS_CODE":0,"TOWNNAME":"北區","LI":"中樓里","LIN":"1鄰","STREET":"前鋒路","SECT":" ","MAREA":" ","LANE":" ","ALLEY":" ","HOUSE_NO":"１７９號四樓之２","E_COORD97":169478.04000000001,"N_COORD97":2544750.5800000001,"ADDRESS":"前鋒路１７９號四樓之２","OBJECTID":513834},"geometry":{"x":169478.04000000097,"y":2544750.5800000019}},{"attributes":{"ID":513862,"DIS_CODE":0,"TOWNNAME":"安平區","LI":"育平里","LIN":"1鄰","STREET":"永華路","SECT":"二段","MAREA":" ","LANE":" ","ALLEY":" ","HOUSE_NO":"８１９號二十三樓之１","E_COORD97":164756.10999999999,"N_COORD97":2543515.4199999999,"ADDRESS":"永華路二段８１９號二十三樓之１","OBJECTID":513835},"geometry":{"x":164756.11000000034,"y":2543515.4199999999}},{"attributes":{"ID":513863,"DIS_CODE":0,"TOWNNAME":"安平區","LI":"育平里","LIN":"1鄰","STREET":"永華路","SECT":"二段","MAREA":" ","LANE":" ","ALLEY":" ","HOUSE_NO":"８１９號二十三樓之２","E_COORD97":164756.10999999999,"N_COORD97":2543515.4199999999,"ADDRESS":"永華路二段８１９號二十三樓之２","OBJECTID":513836},"geometry":{"x":164756.11000000034,"y":2543515.4199999999}},{"attributes":{"ID":513864,"DIS_CODE":0,"TOWNNAME":"安平區","LI":"育平里","LIN":"1鄰","STREET":"永華路","SECT":"二段","MAREA":" ","LANE":" ","ALLEY":" ","HOUSE_NO":"８１９號二十三樓之３","E_COORD97":164756.10999999999,"N_COORD97":2543515.4199999999,"ADDRESS":"永華路二段８１９號二十三樓之３","OBJECTID":513837},"geometry":{"x":164756.11000000034,"y":2543515.4199999999}},{"attributes":{"ID":513865,"DIS_CODE":0,"TOWNNAME":"安平區","LI":"育平里","LIN":"1鄰","STREET":"永華路","SECT":"二段","MAREA":" ","LANE":" ","ALLEY":" ","HOUSE_NO":"８１９號二十三樓之４","E_COORD97":164756.10999999999,"N_COORD97":2543515.4199999999,"ADDRESS":"永華路二段８１９號二十三樓之４","OBJECTID":513838},"geometry":{"x":164756.11000000034,"y":2543515.4199999999}},{"attributes":{"ID":513866,"DIS_CODE":0,"TOWNNAME":"安平區","LI":"育平里","LIN":"1鄰","STREET":"永華路","SECT":"二段","MAREA":" ","LANE":" ","ALLEY":" ","HOUSE_NO":"８１９號二十樓之１","E_COORD97":164756.10999999999,"N_COORD97":2543515.4199999999,"ADDRESS":"永華路二段８１９號二十樓之１","OBJECTID":513839},"geometry":{"x":164756.11000000034,"y":2543515.4199999999}},{"attributes":{"ID":513867,"DIS_CODE":0,"TOWNNAME":"安平區","LI":"育平里","LIN":"1鄰","STREET":"永華路","SECT":"二段","MAREA":" ","LANE":" ","ALLEY":" ","HOUSE_NO":"８１９號二十樓之２","E_COORD97":164756.10999999999,"N_COORD97":2543515.4199999999,"ADDRESS":"永華路二段８１９號二十樓之２","OBJECTID":513840},"geometry":{"x":164756.11000000034,"y":2543515.4199999999}},{"attributes":{"ID":513868,"DIS_CODE":0,"TOWNNAME":"安平區","LI":"育平里","LIN":"1鄰","STREET":"永華路","SECT":"二段","MAREA":" ","LANE":" ","ALLEY":" ","HOUSE_NO":"８１９號二十樓之３","E_COORD97":164756.10999999999,"N_COORD97":2543515.4199999999,"ADDRESS":"永華路二段８１９號二十樓之３","OBJECTID":513841},"geometry":{"x":164756.11000000034,"y":2543515.4199999999}},{"attributes":{"ID":513869,"DIS_CODE":0,"TOWNNAME":"安平區","LI":"育平里","LIN":"1鄰","STREET":"永華路","SECT":"二段","MAREA":" ","LANE":" ","ALLEY":" ","HOUSE_NO":"８１９號二十樓之４","E_COORD97":164756.10999999999,"N_COORD97":2543515.4199999999,"ADDRESS":"永華路二段８１９號二十樓之４","OBJECTID":513842},"geometry":{"x":164756.11000000034,"y":2543515.4199999999}},{"attributes":{"ID":513870,"DIS_CODE":0,"TOWNNAME":"安平區","LI":"育平里","LIN":"1鄰","STREET":"永華路","SECT":"二段","MAREA":" ","LANE":" ","ALLEY":" ","HOUSE_NO":"８１９號八樓之１","E_COORD97":164756.10999999999,"N_COORD97":2543515.4199999999,"ADDRESS":"永華路二段８１９號八樓之１","OBJECTID":513843},"geometry":{"x":164756.11000000034,"y":2543515.4199999999}},{"attributes":{"ID":513871,"DIS_CODE":0,"TOWNNAME":"安平區","LI":"育平里","LIN":"1鄰","STREET":"永華路","SECT":"二段","MAREA":" ","LANE":" ","ALLEY":" ","HOUSE_NO":"８１９號八樓之２","E_COORD97":164756.10999999999,"N_COORD97":2543515.4199999999,"ADDRESS":"永華路二段８１９號八樓之２","OBJECTID":513844},"geometry":{"x":164756.11000000034,"y":2543515.4199999999}},{"attributes":{"ID":513872,"DIS_CODE":0,"TOWNNAME":"安平區","LI":"育平里","LIN":"1鄰","STREET":"永華路","SECT":"二段","MAREA":" ","LANE":" ","ALLEY":" ","HOUSE_NO":"８１９號八樓之３","E_COORD97":164756.10999999999,"N_COORD97":2543515.4199999999,"ADDRESS":"永華路二段８１９號八樓之３","OBJECTID":513845},"geometry":{"x":164756.11000000034,"y":2543515.4199999999}},{"attributes":{"ID":513873,"DIS_CODE":0,"TOWNNAME":"安平區","LI":"育平里","LIN":"1鄰","STREET":"永華路","SECT":"二段","MAREA":" ","LANE":" ","ALLEY":" ","HOUSE_NO":"８１９號八樓之４","E_COORD97":164756.10999999999,"N_COORD97":2543515.4199999999,"ADDRESS":"永華路二段８１９號八樓之４","OBJECTID":513846},"geometry":{"x":164756.11000000034,"y":2543515.4199999999}},{"attributes":{"ID":513874,"DIS_CODE":0,"TOWNNAME":"安平區","LI":"育平里","LIN":"1鄰","STREET":"永華路","SECT":"二段","MAREA":" ","LANE":" ","ALLEY":" ","HOUSE_NO":"８１９號十一樓之１","E_COORD97":164756.10999999999,"N_COORD97":2543515.4199999999,"ADDRESS":"永華路二段８１９號十一樓之１","OBJECTID":513847},"geometry":{"x":164756.11000000034,"y":2543515.4199999999}},{"attributes":{"ID":513875,"DIS_CODE":0,"TOWNNAME":"安平區","LI":"育平里","LIN":"1鄰","STREET":"永華路","SECT":"二段","MAREA":" ","LANE":" ","ALLEY":" ","HOUSE_NO":"８１９號十一樓之２","E_COORD97":164756.10999999999,"N_COORD97":2543515.4199999999,"ADDRESS":"永華路二段８１９號十一樓之２","OBJECTID":513848},"geometry":{"x":164756.11000000034,"y":2543515.4199999999}},{"attributes":{"ID":513876,"DIS_CODE":0,"TOWNNAME":"安平區","LI":"育平里","LIN":"1鄰","STREET":"永華路","SECT":"二段","MAREA":" ","LANE":" ","ALLEY":" ","HOUSE_NO":"８１９號十一樓之３","E_COORD97":164756.10999999999,"N_COORD97":2543515.4199999999,"ADDRESS":"永華路二段８１９號十一樓之３","OBJECTID":513849},"geometry":{"x":164756.11000000034,"y":2543515.4199999999}},{"attributes":{"ID":513877,"DIS_CODE":0,"TOWNNAME":"安平區","LI":"育平里","LIN":"1鄰","STREET":"永華路","SECT":"二段","MAREA":" ","LANE":" ","ALLEY":" ","HOUSE_NO":"８１９號十一樓之４","E_COORD97":164756.10999999999,"N_COORD97":2543515.4199999999,"ADDRESS":"永華路二段８１９號十一樓之４","OBJECTID":513850},"geometry":{"x":164756.11000000034,"y":2543515.4199999999}},{"attributes":{"ID":513878,"DIS_CODE":0,"TOWNNAME":"安平區","LI":"育平里","LIN":"1鄰","STREET":"永華路","SECT":"二段","MAREA":" ","LANE":" ","ALLEY":" ","HOUSE_NO":"８１９號十七樓之１","E_COORD97":164756.10999999999,"N_COORD97":2543515.4199999999,"ADDRESS":"永華路二段８１９號十七樓之１","OBJECTID":513851},"geometry":{"x":164756.11000000034,"y":2543515.4199999999}},{"attributes":{"ID":513879,"DIS_CODE":0,"TOWNNAME":"安平區","LI":"育平里","LIN":"1鄰","STREET":"永華路","SECT":"二段","MAREA":" ","LANE":" ","ALLEY":" ","HOUSE_NO":"８１９號十七樓之２","E_COORD97":164756.10999999999,"N_COORD97":2543515.4199999999,"ADDRESS":"永華路二段８１９號十七樓之２","OBJECTID":513852},"geometry":{"x":164756.11000000034,"y":2543515.4199999999}},{"attributes":{"ID":513880,"DIS_CODE":0,"TOWNNAME":"安平區","LI":"育平里","LIN":"1鄰","STREET":"永華路","SECT":"二段","MAREA":" ","LANE":" ","ALLEY":" ","HOUSE_NO":"８１９號十七樓之３","E_COORD97":164756.10999999999,"N_COORD97":2543515.4199999999,"ADDRESS":"永華路二段８１９號十七樓之３","OBJECTID":513853},"geometry":{"x":164756.11000000034,"y":2543515.4199999999}},{"attributes":{"ID":513881,"DIS_CODE":0,"TOWNNAME":"安平區","LI":"育平里","LIN":"1鄰","STREET":"永華路","SECT":"二段","MAREA":" ","LANE":" ","ALLEY":" ","HOUSE_NO":"８１９號十七樓之４","E_COORD97":164756.10999999999,"N_COORD97":2543515.4199999999,"ADDRESS":"永華路二段８１９號十七樓之４","OBJECTID":513854},"geometry":{"x":164756.11000000034,"y":2543515.4199999999}},{"attributes":{"ID":513882,"DIS_CODE":0,"TOWNNAME":"安平區","LI":"育平里","LIN":"1鄰","STREET":"永華路","SECT":"二段","MAREA":" ","LANE":" ","ALLEY":" ","HOUSE_NO":"８１９號十九樓之１","E_COORD97":164756.10999999999,"N_COORD97":2543515.4199999999,"ADDRESS":"永華路二段８１９號十九樓之１","OBJECTID":513855},"geometry":{"x":164756.11000000034,"y":2543515.4199999999}},{"attributes":{"ID":513883,"DIS_CODE":0,"TOWNNAME":"安平區","LI":"育平里","LIN":"1鄰","STREET":"永華路","SECT":"二段","MAREA":" ","LANE":" ","ALLEY":" ","HOUSE_NO":"８１９號十九樓之２","E_COORD97":164756.10999999999,"N_COORD97":2543515.4199999999,"ADDRESS":"永華路二段８１９號十九樓之２","OBJECTID":513856},"geometry":{"x":164756.11000000034,"y":2543515.4199999999}},{"attributes":{"ID":513884,"DIS_CODE":0,"TOWNNAME":"安平區","LI":"育平里","LIN":"1鄰","STREET":"永華路","SECT":"二段","MAREA":" ","LANE":" ","ALLEY":" ","HOUSE_NO":"８１９號十九樓之３","E_COORD97":164756.10999999999,"N_COORD97":2543515.4199999999,"ADDRESS":"永華路二段８１９號十九樓之３","OBJECTID":513857},"geometry":{"x":164756.11000000034,"y":2543515.4199999999}},{"attributes":{"ID":513885,"DIS_CODE":0,"TOWNNAME":"安平區","LI":"育平里","LIN":"1鄰","STREET":"永華路","SECT":"二段","MAREA":" ","LANE":" ","ALLEY":" ","HOUSE_NO":"８１９號十九樓之４","E_COORD97":164756.10999999999,"N_COORD97":2543515.4199999999,"ADDRESS":"永華路二段８１９號十九樓之４","OBJECTID":513858},"geometry":{"x":164756.11000000034,"y":2543515.4199999999}},{"attributes":{"ID":513886,"DIS_CODE":0,"TOWNNAME":"安平區","LI":"育平里","LIN":"1鄰","STREET":"永華路","SECT":"二段","MAREA":" ","LANE":" ","ALLEY":" ","HOUSE_NO":"８１９號十二樓之１","E_COORD97":164756.10999999999,"N_COORD97":2543515.4199999999,"ADDRESS":"永華路二段８１９號十二樓之１","OBJECTID":513859},"geometry":{"x":164756.11000000034,"y":2543515.4199999999}},{"attributes":{"ID":513887,"DIS_CODE":0,"TOWNNAME":"安平區","LI":"育平里","LIN":"1鄰","STREET":"永華路","SECT":"二段","MAREA":" ","LANE":" ","ALLEY":" ","HOUSE_NO":"８１９號十二樓之２","E_COORD97":164756.10999999999,"N_COORD97":2543515.4199999999,"ADDRESS":"永華路二段８１９號十二樓之２","OBJECTID":513860},"geometry":{"x":164756.11000000034,"y":2543515.4199999999}},{"attributes":{"ID":513888,"DIS_CODE":0,"TOWNNAME":"安平區","LI":"育平里","LIN":"1鄰","STREET":"永華路","SECT":"二段","MAREA":" ","LANE":" ","ALLEY":" ","HOUSE_NO":"８１９號十二樓之３","E_COORD97":164756.10999999999,"N_COORD97":2543515.4199999999,"ADDRESS":"永華路二段８１９號十二樓之３","OBJECTID":513861},"geometry":{"x":164756.11000000034,"y":2543515.4199999999}},{"attributes":{"ID":513889,"DIS_CODE":0,"TOWNNAME":"北區","LI":"中樓里","LIN":"1鄰","STREET":"前鋒路","SECT":" ","MAREA":" ","LANE":" ","ALLEY":" ","HOUSE_NO":"１７９號四樓之１","E_COORD97":169478.04000000001,"N_COORD97":2544750.5800000001,"ADDRESS":"前鋒路１７９號四樓之１","OBJECTID":513862},"geometry":{"x":169478.04000000097,"y":2544750.5800000019}},{"attributes":{"ID":513890,"DIS_CODE":0,"TOWNNAME":"安平區","LI":"育平里","LIN":"1鄰","STREET":"永華路","SECT":"二段","MAREA":" ","LANE":" ","ALLEY":" ","HOUSE_NO":"８１９號十二樓之４","E_COORD97":164756.10999999999,"N_COORD97":2543515.4199999999,"ADDRESS":"永華路二段８１９號十二樓之４","OBJECTID":513863},"geometry":{"x":164756.11000000034,"y":2543515.4199999999}},{"attributes":{"ID":513891,"DIS_CODE":0,"TOWNNAME":"安平區","LI":"育平里","LIN":"1鄰","STREET":"永華路","SECT":"二段","MAREA":" ","LANE":" ","ALLEY":" ","HOUSE_NO":"８１９號十八樓之１","E_COORD97":164756.10999999999,"N_COORD97":2543515.4199999999,"ADDRESS":"永華路二段８１９號十八樓之１","OBJECTID":513864},"geometry":{"x":164756.11000000034,"y":2543515.4199999999}},{"attributes":{"ID":513892,"DIS_CODE":0,"TOWNNAME":"安平區","LI":"育平里","LIN":"1鄰","STREET":"永華路","SECT":"二段","MAREA":" ","LANE":" ","ALLEY":" ","HOUSE_NO":"８１９號十八樓之２","E_COORD97":164756.10999999999,"N_COORD97":2543515.4199999999,"ADDRESS":"永華路二段８１９號十八樓之２","OBJECTID":513865},"geometry":{"x":164756.11000000034,"y":2543515.4199999999}},{"attributes":{"ID":513893,"DIS_CODE":0,"TOWNNAME":"安平區","LI":"育平里","LIN":"1鄰","STREET":"永華路","SECT":"二段","MAREA":" ","LANE":" ","ALLEY":" ","HOUSE_NO":"８１９號十八樓之３","E_COORD97":164756.10999999999,"N_COORD97":2543515.4199999999,"ADDRESS":"永華路二段８１９號十八樓之３","OBJECTID":513866},"geometry":{"x":164756.11000000034,"y":2543515.4199999999}},{"attributes":{"ID":513894,"DIS_CODE":0,"TOWNNAME":"安平區","LI":"育平里","LIN":"1鄰","STREET":"永華路","SECT":"二段","MAREA":" ","LANE":" ","ALLEY":" ","HOUSE_NO":"８１９號十八樓之４","E_COORD97":164756.10999999999,"N_COORD97":2543515.4199999999,"ADDRESS":"永華路二段８１９號十八樓之４","OBJECTID":513867},"geometry":{"x":164756.11000000034,"y":2543515.4199999999}},{"attributes":{"ID":513895,"DIS_CODE":0,"TOWNNAME":"安平區","LI":"育平里","LIN":"1鄰","STREET":"永華路","SECT":"二段","MAREA":" ","LANE":" ","ALLEY":" ","HOUSE_NO":"８１９號十三樓之１","E_COORD97":164756.10999999999,"N_COORD97":2543515.4199999999,"ADDRESS":"永華路二段８１９號十三樓之１","OBJECTID":513868},"geometry":{"x":164756.11000000034,"y":2543515.4199999999}},{"attributes":{"ID":513896,"DIS_CODE":0,"TOWNNAME":"安平區","LI":"育平里","LIN":"1鄰","STREET":"永華路","SECT":"二段","MAREA":" ","LANE":" ","ALLEY":" ","HOUSE_NO":"８１９號十三樓之２","E_COORD97":164756.10999999999,"N_COORD97":2543515.4199999999,"ADDRESS":"永華路二段８１９號十三樓之２","OBJECTID":513869},"geometry":{"x":164756.11000000034,"y":2543515.4199999999}},{"attributes":{"ID":513897,"DIS_CODE":0,"TOWNNAME":"安平區","LI":"育平里","LIN":"1鄰","STREET":"永華路","SECT":"二段","MAREA":" ","LANE":" ","ALLEY":" ","HOUSE_NO":"８１９號十三樓之３","E_COORD97":164756.10999999999,"N_COORD97":2543515.4199999999,"ADDRESS":"永華路二段８１９號十三樓之３","OBJECTID":513870},"geometry":{"x":164756.11000000034,"y":2543515.4199999999}},{"attributes":{"ID":513898,"DIS_CODE":0,"TOWNNAME":"安平區","LI":"育平里","LIN":"1鄰","STREET":"永華路","SECT":"二段","MAREA":" ","LANE":" ","ALLEY":" ","HOUSE_NO":"８１９號十三樓之４","E_COORD97":164756.10999999999,"N_COORD97":2543515.4199999999,"ADDRESS":"永華路二段８１９號十三樓之４","OBJECTID":513871},"geometry":{"x":164756.11000000034,"y":2543515.4199999999}},{"attributes":{"ID":513899,"DIS_CODE":0,"TOWNNAME":"安平區","LI":"育平里","LIN":"1鄰","STREET":"永華路","SECT":"二段","MAREA":" ","LANE":" ","ALLEY":" ","HOUSE_NO":"８１９號十五樓之１","E_COORD97":164756.10999999999,"N_COORD97":2543515.4199999999,"ADDRESS":"永華路二段８１９號十五樓之１","OBJECTID":513872},"geometry":{"x":164756.11000000034,"y":2543515.4199999999}},{"attributes":{"ID":513900,"DIS_CODE":0,"TOWNNAME":"安平區","LI":"育平里","LIN":"1鄰","STREET":"永華路","SECT":"二段","MAREA":" ","LANE":" ","ALLEY":" ","HOUSE_NO":"８１９號十五樓之２","E_COORD97":164756.10999999999,"N_COORD97":2543515.4199999999,"ADDRESS":"永華路二段８１９號十五樓之２","OBJECTID":513873},"geometry":{"x":164756.11000000034,"y":2543515.4199999999}},{"attributes":{"ID":513901,"DIS_CODE":0,"TOWNNAME":"安平區","LI":"育平里","LIN":"1鄰","STREET":"永華路","SECT":"二段","MAREA":" ","LANE":" ","ALLEY":" ","HOUSE_NO":"８１９號十五樓之３","E_COORD97":164756.10999999999,"N_COORD97":2543515.4199999999,"ADDRESS":"永華路二段８１９號十五樓之３","OBJECTID":513874},"geometry":{"x":164756.11000000034,"y":2543515.4199999999}},{"attributes":{"ID":513902,"DIS_CODE":0,"TOWNNAME":"安平區","LI":"育平里","LIN":"1鄰","STREET":"永華路","SECT":"二段","MAREA":" ","LANE":" ","ALLEY":" ","HOUSE_NO":"８１９號十五樓之４","E_COORD97":164756.10999999999,"N_COORD97":2543515.4199999999,"ADDRESS":"永華路二段８１９號十五樓之４","OBJECTID":513875},"geometry":{"x":164756.11000000034,"y":2543515.4199999999}},{"attributes":{"ID":513903,"DIS_CODE":0,"TOWNNAME":"安平區","LI":"育平里","LIN":"1鄰","STREET":"永華路","SECT":"二段","MAREA":" ","LANE":" ","ALLEY":" ","HOUSE_NO":"８１９號十六樓之１","E_COORD97":164756.10999999999,"N_COORD97":2543515.4199999999,"ADDRESS":"永華路二段８１９號十六樓之１","OBJECTID":513876},"geometry":{"x":164756.11000000034,"y":2543515.4199999999}},{"attributes":{"ID":513904,"DIS_CODE":0,"TOWNNAME":"安平區","LI":"育平里","LIN":"1鄰","STREET":"永華路","SECT":"二段","MAREA":" ","LANE":" ","ALLEY":" ","HOUSE_NO":"８１９號十六樓之２","E_COORD97":164756.10999999999,"N_COORD97":2543515.4199999999,"ADDRESS":"永華路二段８１９號十六樓之２","OBJECTID":513877},"geometry":{"x":164756.11000000034,"y":2543515.4199999999}},{"attributes":{"ID":513905,"DIS_CODE":0,"TOWNNAME":"安平區","LI":"育平里","LIN":"1鄰","STREET":"永華路","SECT":"二段","MAREA":" ","LANE":" ","ALLEY":" ","HOUSE_NO":"８１９號十六樓之３","E_COORD97":164756.10999999999,"N_COORD97":2543515.4199999999,"ADDRESS":"永華路二段８１９號十六樓之３","OBJECTID":513878},"geometry":{"x":164756.11000000034,"y":2543515.4199999999}},{"attributes":{"ID":513906,"DIS_CODE":0,"TOWNNAME":"安平區","LI":"育平里","LIN":"1鄰","STREET":"永華路","SECT":"二段","MAREA":" ","LANE":" ","ALLEY":" ","HOUSE_NO":"８１９號十六樓之４","E_COORD97":164756.10999999999,"N_COORD97":2543515.4199999999,"ADDRESS":"永華路二段８１９號十六樓之４","OBJECTID":513879},"geometry":{"x":164756.11000000034,"y":2543515.4199999999}},{"attributes":{"ID":513907,"DIS_CODE":0,"TOWNNAME":"安平區","LI":"育平里","LIN":"1鄰","STREET":"永華路","SECT":"二段","MAREA":" ","LANE":" ","ALLEY":" ","HOUSE_NO":"８１９號十四樓之１","E_COORD97":164756.10999999999,"N_COORD97":2543515.4199999999,"ADDRESS":"永華路二段８１９號十四樓之１","OBJECTID":513880},"geometry":{"x":164756.11000000034,"y":2543515.4199999999}},{"attributes":{"ID":513908,"DIS_CODE":0,"TOWNNAME":"安平區","LI":"育平里","LIN":"1鄰","STREET":"永華路","SECT":"二段","MAREA":" ","LANE":" ","ALLEY":" ","HOUSE_NO":"８１９號十四樓之２","E_COORD97":164756.10999999999,"N_COORD97":2543515.4199999999,"ADDRESS":"永華路二段８１９號十四樓之２","OBJECTID":513881},"geometry":{"x":164756.11000000034,"y":2543515.4199999999}},{"attributes":{"ID":513909,"DIS_CODE":0,"TOWNNAME":"安平區","LI":"育平里","LIN":"1鄰","STREET":"永華路","SECT":"二段","MAREA":" ","LANE":" ","ALLEY":" ","HOUSE_NO":"８１９號十四樓之３","E_COORD97":164756.10999999999,"N_COORD97":2543515.4199999999,"ADDRESS":"永華路二段８１９號十四樓之３","OBJECTID":513882},"geometry":{"x":164756.11000000034,"y":2543515.4199999999}},{"attributes":{"ID":513910,"DIS_CODE":0,"TOWNNAME":"安平區","LI":"育平里","LIN":"1鄰","STREET":"永華路","SECT":"二段","MAREA":" ","LANE":" ","ALLEY":" ","HOUSE_NO":"８１９號十四樓之４","E_COORD97":164756.10999999999,"N_COORD97":2543515.4199999999,"ADDRESS":"永華路二段８１９號十四樓之４","OBJECTID":513883},"geometry":{"x":164756.11000000034,"y":2543515.4199999999}},{"attributes":{"ID":513911,"DIS_CODE":0,"TOWNNAME":"安平區","LI":"育平里","LIN":"1鄰","STREET":"永華路","SECT":"二段","MAREA":" ","LANE":" ","ALLEY":" ","HOUSE_NO":"８１９號十樓之１","E_COORD97":164756.10999999999,"N_COORD97":2543515.4199999999,"ADDRESS":"永華路二段８１９號十樓之１","OBJECTID":513884},"geometry":{"x":164756.11000000034,"y":2543515.4199999999}},{"attributes":{"ID":513912,"DIS_CODE":0,"TOWNNAME":"安平區","LI":"育平里","LIN":"1鄰","STREET":"永華路","SECT":"二段","MAREA":" ","LANE":" ","ALLEY":" ","HOUSE_NO":"８１９號十樓之２","E_COORD97":164756.10999999999,"N_COORD97":2543515.4199999999,"ADDRESS":"永華路二段８１９號十樓之２","OBJECTID":513885},"geometry":{"x":164756.11000000034,"y":2543515.4199999999}},{"attributes":{"ID":513913,"DIS_CODE":0,"TOWNNAME":"安平區","LI":"育平里","LIN":"1鄰","STREET":"永華路","SECT":"二段","MAREA":" ","LANE":" ","ALLEY":" ","HOUSE_NO":"８１９號十樓之３","E_COORD97":164756.10999999999,"N_COORD97":2543515.4199999999,"ADDRESS":"永華路二段８１９號十樓之３","OBJECTID":513886},"geometry":{"x":164756.11000000034,"y":2543515.4199999999}},{"attributes":{"ID":513914,"DIS_CODE":0,"TOWNNAME":"安平區","LI":"育平里","LIN":"1鄰","STREET":"永華路","SECT":"二段","MAREA":" ","LANE":" ","ALLEY":" ","HOUSE_NO":"８１９號十樓之４","E_COORD97":164756.10999999999,"N_COORD97":2543515.4199999999,"ADDRESS":"永華路二段８１９號十樓之４","OBJECTID":513887},"geometry":{"x":164756.11000000034,"y":2543515.4199999999}},{"attributes":{"ID":513915,"DIS_CODE":0,"TOWNNAME":"安平區","LI":"育平里","LIN":"1鄰","STREET":"永華路","SECT":"二段","MAREA":" ","LANE":" ","ALLEY":" ","HOUSE_NO":"８１９號三樓之１","E_COORD97":164756.10999999999,"N_COORD97":2543515.4199999999,"ADDRESS":"永華路二段８１９號三樓之１","OBJECTID":513888},"geometry":{"x":164756.11000000034,"y":2543515.4199999999}},{"attributes":{"ID":513916,"DIS_CODE":0,"TOWNNAME":"安平區","LI":"育平里","LIN":"1鄰","STREET":"永華路","SECT":"二段","MAREA":" ","LANE":" ","ALLEY":" ","HOUSE_NO":"８１９號三樓之２","E_COORD97":164756.10999999999,"N_COORD97":2543515.4199999999,"ADDRESS":"永華路二段８１９號三樓之２","OBJECTID":513889},"geometry":{"x":164756.11000000034,"y":2543515.4199999999}},{"attributes":{"ID":513917,"DIS_CODE":0,"TOWNNAME":"安平區","LI":"育平里","LIN":"1鄰","STREET":"永華路","SECT":"二段","MAREA":" ","LANE":" ","ALLEY":" ","HOUSE_NO":"８１９號三樓之３","E_COORD97":164756.10999999999,"N_COORD97":2543515.4199999999,"ADDRESS":"永華路二段８１９號三樓之３","OBJECTID":513890},"geometry":{"x":164756.11000000034,"y":2543515.4199999999}},{"attributes":{"ID":513918,"DIS_CODE":0,"TOWNNAME":"安平區","LI":"育平里","LIN":"1鄰","STREET":"永華路","SECT":"二段","MAREA":" ","LANE":" ","ALLEY":" ","HOUSE_NO":"８１９號三樓之４","E_COORD97":164756.10999999999,"N_COORD97":2543515.4199999999,"ADDRESS":"永華路二段８１９號三樓之４","OBJECTID":513891},"geometry":{"x":164756.11000000034,"y":2543515.4199999999}},{"attributes":{"ID":513919,"DIS_CODE":0,"TOWNNAME":"安平區","LI":"育平里","LIN":"1鄰","STREET":"永華路","SECT":"二段","MAREA":" ","LANE":" ","ALLEY":" ","HOUSE_NO":"８１９號五樓之１","E_COORD97":164756.10999999999,"N_COORD97":2543515.4199999999,"ADDRESS":"永華路二段８１９號五樓之１","OBJECTID":513892},"geometry":{"x":164756.11000000034,"y":2543515.4199999999}},{"attributes":{"ID":513920,"DIS_CODE":0,"TOWNNAME":"安平區","LI":"育平里","LIN":"1鄰","STREET":"永華路","SECT":"二段","MAREA":" ","LANE":" ","ALLEY":" ","HOUSE_NO":"８１９號五樓之２","E_COORD97":164756.10999999999,"N_COORD97":2543515.4199999999,"ADDRESS":"永華路二段８１９號五樓之２","OBJECTID":513893},"geometry":{"x":164756.11000000034,"y":2543515.4199999999}},{"attributes":{"ID":513921,"DIS_CODE":0,"TOWNNAME":"安平區","LI":"育平里","LIN":"1鄰","STREET":"永華路","SECT":"二段","MAREA":" ","LANE":" ","ALLEY":" ","HOUSE_NO":"８１９號五樓之３","E_COORD97":164756.10999999999,"N_COORD97":2543515.4199999999,"ADDRESS":"永華路二段８１９號五樓之３","OBJECTID":513894},"geometry":{"x":164756.11000000034,"y":2543515.4199999999}},{"attributes":{"ID":513922,"DIS_CODE":0,"TOWNNAME":"安平區","LI":"育平里","LIN":"1鄰","STREET":"永華路","SECT":"二段","MAREA":" ","LANE":" ","ALLEY":" ","HOUSE_NO":"８１９號五樓之４","E_COORD97":164756.10999999999,"N_COORD97":2543515.4199999999,"ADDRESS":"永華路二段８１９號五樓之４","OBJECTID":513895},"geometry":{"x":164756.11000000034,"y":2543515.4199999999}},{"attributes":{"ID":513923,"DIS_CODE":0,"TOWNNAME":"東區","LI":"崇文里","LIN":"1鄰","STREET":"崇德十五街","SECT":" ","MAREA":" ","LANE":" ","ALLEY":" ","HOUSE_NO":"７６號","E_COORD97":171025.92999999999,"N_COORD97":2541167.1099999999,"ADDRESS":"崇德十五街７６號","OBJECTID":513896},"geometry":{"x":171025.93000000063,"y":2541167.1099999994}},{"attributes":{"ID":513924,"DIS_CODE":0,"TOWNNAME":"安平區","LI":"育平里","LIN":"1鄰","STREET":"永華路","SECT":"二段","MAREA":" ","LANE":" ","ALLEY":" ","HOUSE_NO":"８１９號六樓之１","E_COORD97":164756.10999999999,"N_COORD97":2543515.4199999999,"ADDRESS":"永華路二段８１９號六樓之１","OBJECTID":513897},"geometry":{"x":164756.11000000034,"y":2543515.4199999999}},{"attributes":{"ID":513925,"DIS_CODE":0,"TOWNNAME":"安平區","LI":"育平里","LIN":"1鄰","STREET":"永華路","SECT":"二段","MAREA":" ","LANE":" ","ALLEY":" ","HOUSE_NO":"８１９號六樓之２","E_COORD97":164756.10999999999,"N_COORD97":2543515.4199999999,"ADDRESS":"永華路二段８１９號六樓之２","OBJECTID":513898},"geometry":{"x":164756.11000000034,"y":2543515.4199999999}},{"attributes":{"ID":513926,"DIS_CODE":0,"TOWNNAME":"安平區","LI":"育平里","LIN":"1鄰","STREET":"永華路","SECT":"二段","MAREA":" ","LANE":" ","ALLEY":" ","HOUSE_NO":"８１９號六樓之３","E_COORD97":164756.10999999999,"N_COORD97":2543515.4199999999,"ADDRESS":"永華路二段８１９號六樓之３","OBJECTID":513899},"geometry":{"x":164756.11000000034,"y":2543515.4199999999}},{"attributes":{"ID":513927,"DIS_CODE":0,"TOWNNAME":"安平區","LI":"育平里","LIN":"1鄰","STREET":"永華路","SECT":"二段","MAREA":" ","LANE":" ","ALLEY":" ","HOUSE_NO":"８１９號六樓之４","E_COORD97":164756.10999999999,"N_COORD97":2543515.4199999999,"ADDRESS":"永華路二段８１９號六樓之４","OBJECTID":513900},"geometry":{"x":164756.11000000034,"y":2543515.4199999999}},{"attributes":{"ID":513928,"DIS_CODE":0,"TOWNNAME":"安平區","LI":"育平里","LIN":"1鄰","STREET":"永華路","SECT":"二段","MAREA":" ","LANE":" ","ALLEY":" ","HOUSE_NO":"８１９號四樓之１","E_COORD97":164756.10999999999,"N_COORD97":2543515.4199999999,"ADDRESS":"永華路二段８１９號四樓之１","OBJECTID":513901},"geometry":{"x":164756.11000000034,"y":2543515.4199999999}},{"attributes":{"ID":513929,"DIS_CODE":0,"TOWNNAME":"安平區","LI":"育平里","LIN":"1鄰","STREET":"永華路","SECT":"二段","MAREA":" ","LANE":" ","ALLEY":" ","HOUSE_NO":"８１９號四樓之２","E_COORD97":164756.10999999999,"N_COORD97":2543515.4199999999,"ADDRESS":"永華路二段８１９號四樓之２","OBJECTID":513902},"geometry":{"x":164756.11000000034,"y":2543515.4199999999}},{"attributes":{"ID":513930,"DIS_CODE":0,"TOWNNAME":"安平區","LI":"育平里","LIN":"1鄰","STREET":"永華路","SECT":"二段","MAREA":" ","LANE":" ","ALLEY":" ","HOUSE_NO":"８１９號四樓之３","E_COORD97":164756.10999999999,"N_COORD97":2543515.4199999999,"ADDRESS":"永華路二段８１９號四樓之３","OBJECTID":513903},"geometry":{"x":164756.11000000034,"y":2543515.4199999999}},{"attributes":{"ID":513931,"DIS_CODE":0,"TOWNNAME":"安平區","LI":"育平里","LIN":"1鄰","STREET":"永華路","SECT":"二段","MAREA":" ","LANE":" ","ALLEY":" ","HOUSE_NO":"８１９號四樓之４","E_COORD97":164756.10999999999,"N_COORD97":2543515.4199999999,"ADDRESS":"永華路二段８１９號四樓之４","OBJECTID":513904},"geometry":{"x":164756.11000000034,"y":2543515.4199999999}},{"attributes":{"ID":513932,"DIS_CODE":0,"TOWNNAME":"安平區","LI":"育平里","LIN":"1鄰","STREET":"永華路","SECT":"二段","MAREA":" ","LANE":" ","ALLEY":" ","HOUSE_NO":"８１９號地下樓","E_COORD97":164756.10999999999,"N_COORD97":2543515.4199999999,"ADDRESS":"永華路二段８１９號地下樓","OBJECTID":513905},"geometry":{"x":164756.11000000034,"y":2543515.4199999999}},{"attributes":{"ID":513933,"DIS_CODE":0,"TOWNNAME":"永康區","LI":"永康里","LIN":"1鄰","STREET":"中山北路","SECT":" ","MAREA":" ","LANE":" ","ALLEY":" ","HOUSE_NO":"８１號","E_COORD97":174026.01000000001,"N_COORD97":2547418.1400000001,"ADDRESS":"中山北路８１號","OBJECTID":513906},"geometry":{"x":174026.01000000071,"y":2547418.1400000025}},{"attributes":{"ID":513934,"DIS_CODE":0,"TOWNNAME":"北區","LI":"中樓里","LIN":"1鄰","STREET":"前鋒路","SECT":" ","MAREA":" ","LANE":" ","ALLEY":" ","HOUSE_NO":"１７７號一樓之１","E_COORD97":169473.72,"N_COORD97":2544731.9100000001,"ADDRESS":"前鋒路１７７號一樓之１","OBJECTID":513907},"geometry":{"x":169473.71999999974,"y":2544731.9100000001}},{"attributes":{"ID":513935,"DIS_CODE":0,"TOWNNAME":"北區","LI":"中樓里","LIN":"1鄰","STREET":"前鋒路","SECT":" ","MAREA":" ","LANE":" ","ALLEY":" ","HOUSE_NO":"１７７號二樓之１","E_COORD97":169473.72,"N_COORD97":2544731.9100000001,"ADDRESS":"前鋒路１７７號二樓之１","OBJECTID":513908},"geometry":{"x":169473.71999999974,"y":2544731.9100000001}},{"attributes":{"ID":513936,"DIS_CODE":0,"TOWNNAME":"北區","LI":"中樓里","LIN":"1鄰","STREET":"前鋒路","SECT":" ","MAREA":" ","LANE":" ","ALLEY":" ","HOUSE_NO":"１７７號二樓之２","E_COORD97":169473.72,"N_COORD97":2544731.9100000001,"ADDRESS":"前鋒路１７７號二樓之２","OBJECTID":513909},"geometry":{"x":169473.71999999974,"y":2544731.9100000001}},{"attributes":{"ID":513937,"DIS_CODE":0,"TOWNNAME":"北區","LI":"中樓里","LIN":"1鄰","STREET":"前鋒路","SECT":" ","MAREA":" ","LANE":" ","ALLEY":" ","HOUSE_NO":"１７７號三樓之１","E_COORD97":169473.72,"N_COORD97":2544731.9100000001,"ADDRESS":"前鋒路１７７號三樓之１","OBJECTID":513910},"geometry":{"x":169473.71999999974,"y":2544731.9100000001}},{"attributes":{"ID":513938,"DIS_CODE":0,"TOWNNAME":"北區","LI":"中樓里","LIN":"1鄰","STREET":"前鋒路","SECT":" ","MAREA":" ","LANE":" ","ALLEY":" ","HOUSE_NO":"１７７號三樓之２","E_COORD97":169473.72,"N_COORD97":2544731.9100000001,"ADDRESS":"前鋒路１７７號三樓之２","OBJECTID":513911},"geometry":{"x":169473.71999999974,"y":2544731.9100000001}},{"attributes":{"ID":513939,"DIS_CODE":0,"TOWNNAME":"北區","LI":"中樓里","LIN":"1鄰","STREET":"前鋒路","SECT":" ","MAREA":" ","LANE":" ","ALLEY":" ","HOUSE_NO":"１７７號五樓之１","E_COORD97":169473.72,"N_COORD97":2544731.9100000001,"ADDRESS":"前鋒路１７７號五樓之１","OBJECTID":513912},"geometry":{"x":169473.71999999974,"y":2544731.9100000001}},{"attributes":{"ID":513940,"DIS_CODE":0,"TOWNNAME":"北區","LI":"中樓里","LIN":"1鄰","STREET":"前鋒路","SECT":" ","MAREA":" ","LANE":" ","ALLEY":" ","HOUSE_NO":"１７７號五樓之２","E_COORD97":169473.72,"N_COORD97":2544731.9100000001,"ADDRESS":"前鋒路１７７號五樓之２","OBJECTID":513913},"geometry":{"x":169473.71999999974,"y":2544731.9100000001}},{"attributes":{"ID":513941,"DIS_CODE":0,"TOWNNAME":"北區","LI":"中樓里","LIN":"1鄰","STREET":"前鋒路","SECT":" ","MAREA":" ","LANE":" ","ALLEY":" ","HOUSE_NO":"１７７號四樓之１","E_COORD97":169473.72,"N_COORD97":2544731.9100000001,"ADDRESS":"前鋒路１７７號四樓之１","OBJECTID":513914},"geometry":{"x":169473.71999999974,"y":2544731.9100000001}},{"attributes":{"ID":513942,"DIS_CODE":0,"TOWNNAME":"北區","LI":"中樓里","LIN":"1鄰","STREET":"前鋒路","SECT":" ","MAREA":" ","LANE":" ","ALLEY":" ","HOUSE_NO":"１７７號四樓之２","E_COORD97":169473.72,"N_COORD97":2544731.9100000001,"ADDRESS":"前鋒路１７７號四樓之２","OBJECTID":513915},"geometry":{"x":169473.71999999974,"y":2544731.9100000001}},{"attributes":{"ID":513943,"DIS_CODE":0,"TOWNNAME":"北區","LI":"中樓里","LIN":"1鄰","STREET":"前鋒路","SECT":" ","MAREA":" ","LANE":" ","ALLEY":" ","HOUSE_NO":"１７９號二樓之１","E_COORD97":169478.04000000001,"N_COORD97":2544750.5800000001,"ADDRESS":"前鋒路１７９號二樓之１","OBJECTID":513916},"geometry":{"x":169478.04000000097,"y":2544750.5800000019}},{"attributes":{"ID":513944,"DIS_CODE":0,"TOWNNAME":"北區","LI":"中樓里","LIN":"1鄰","STREET":"前鋒路","SECT":" ","MAREA":" ","LANE":" ","ALLEY":" ","HOUSE_NO":"１７９號二樓之２","E_COORD97":169478.04000000001,"N_COORD97":2544750.5800000001,"ADDRESS":"前鋒路１７９號二樓之２","OBJECTID":513917},"geometry":{"x":169478.04000000097,"y":2544750.5800000019}},{"attributes":{"ID":513945,"DIS_CODE":0,"TOWNNAME":"北區","LI":"中樓里","LIN":"1鄰","STREET":"前鋒路","SECT":" ","MAREA":" ","LANE":" ","ALLEY":" ","HOUSE_NO":"１７９號三樓之１","E_COORD97":169478.04000000001,"N_COORD97":2544750.5800000001,"ADDRESS":"前鋒路１７９號三樓之１","OBJECTID":513918},"geometry":{"x":169478.04000000097,"y":2544750.5800000019}},{"attributes":{"ID":513946,"DIS_CODE":0,"TOWNNAME":"北區","LI":"中樓里","LIN":"1鄰","STREET":"前鋒路","SECT":" ","MAREA":" ","LANE":" ","ALLEY":" ","HOUSE_NO":"１７９號三樓之２","E_COORD97":169478.04000000001,"N_COORD97":2544750.5800000001,"ADDRESS":"前鋒路１７９號三樓之２","OBJECTID":513919},"geometry":{"x":169478.04000000097,"y":2544750.5800000019}},{"attributes":{"ID":513947,"DIS_CODE":0,"TOWNNAME":"北區","LI":"中樓里","LIN":"1鄰","STREET":"前鋒路","SECT":" ","MAREA":" ","LANE":" ","ALLEY":" ","HOUSE_NO":"１７９號五樓之１","E_COORD97":169478.04000000001,"N_COORD97":2544750.5800000001,"ADDRESS":"前鋒路１７９號五樓之１","OBJECTID":513920},"geometry":{"x":169478.04000000097,"y":2544750.5800000019}},{"attributes":{"ID":513948,"DIS_CODE":0,"TOWNNAME":"北區","LI":"中樓里","LIN":"1鄰","STREET":"前鋒路","SECT":" ","MAREA":" ","LANE":" ","ALLEY":" ","HOUSE_NO":"１７９號五樓之２","E_COORD97":169478.04000000001,"N_COORD97":2544750.5800000001,"ADDRESS":"前鋒路１７９號五樓之２","OBJECTID":513921},"geometry":{"x":169478.04000000097,"y":2544750.5800000019}},{"attributes":{"ID":513949,"DIS_CODE":0,"TOWNNAME":"北區","LI":"中樓里","LIN":"1鄰","STREET":"前鋒路","SECT":" ","MAREA":" ","LANE":" ","ALLEY":" ","HOUSE_NO":"１８１號二樓之１","E_COORD97":169480.35999999999,"N_COORD97":2544769.4500000002,"ADDRESS":"前鋒路１８１號二樓之１","OBJECTID":513922},"geometry":{"x":169480.36000000034,"y":2544769.4499999974}},{"attributes":{"ID":513950,"DIS_CODE":0,"TOWNNAME":"北區","LI":"中樓里","LIN":"1鄰","STREET":"前鋒路","SECT":" ","MAREA":" ","LANE":" ","ALLEY":" ","HOUSE_NO":"１８１號二樓之２","E_COORD97":169480.35999999999,"N_COORD97":2544769.4500000002,"ADDRESS":"前鋒路１８１號二樓之２","OBJECTID":513923},"geometry":{"x":169480.36000000034,"y":2544769.4499999974}},{"attributes":{"ID":513951,"DIS_CODE":0,"TOWNNAME":"北區","LI":"中樓里","LIN":"1鄰","STREET":"前鋒路","SECT":" ","MAREA":" ","LANE":" ","ALLEY":" ","HOUSE_NO":"１８１號三樓之１","E_COORD97":169480.35999999999,"N_COORD97":2544769.4500000002,"ADDRESS":"前鋒路１８１號三樓之１","OBJECTID":513924},"geometry":{"x":169480.36000000034,"y":2544769.4499999974}},{"attributes":{"ID":513952,"DIS_CODE":0,"TOWNNAME":"北區","LI":"中樓里","LIN":"1鄰","STREET":"前鋒路","SECT":" ","MAREA":" ","LANE":" ","ALLEY":" ","HOUSE_NO":"１８１號三樓之２","E_COORD97":169480.35999999999,"N_COORD97":2544769.4500000002,"ADDRESS":"前鋒路１８１號三樓之２","OBJECTID":513925},"geometry":{"x":169480.36000000034,"y":2544769.4499999974}},{"attributes":{"ID":513953,"DIS_CODE":0,"TOWNNAME":"北區","LI":"中樓里","LIN":"1鄰","STREET":"前鋒路","SECT":" ","MAREA":" ","LANE":" ","ALLEY":" ","HOUSE_NO":"１８１號五樓之１","E_COORD97":169480.35999999999,"N_COORD97":2544769.4500000002,"ADDRESS":"前鋒路１８１號五樓之１","OBJECTID":513926},"geometry":{"x":169480.36000000034,"y":2544769.4499999974}},{"attributes":{"ID":513954,"DIS_CODE":0,"TOWNNAME":"北區","LI":"中樓里","LIN":"1鄰","STREET":"前鋒路","SECT":" ","MAREA":" ","LANE":" ","ALLEY":" ","HOUSE_NO":"１８１號五樓之２","E_COORD97":169480.35999999999,"N_COORD97":2544769.4500000002,"ADDRESS":"前鋒路１８１號五樓之２","OBJECTID":513927},"geometry":{"x":169480.36000000034,"y":2544769.4499999974}},{"attributes":{"ID":513955,"DIS_CODE":0,"TOWNNAME":"北區","LI":"中樓里","LIN":"1鄰","STREET":"前鋒路","SECT":" ","MAREA":" ","LANE":" ","ALLEY":" ","HOUSE_NO":"１８１號四樓之１","E_COORD97":169480.35999999999,"N_COORD97":2544769.4500000002,"ADDRESS":"前鋒路１８１號四樓之１","OBJECTID":513928},"geometry":{"x":169480.36000000034,"y":2544769.4499999974}},{"attributes":{"ID":513956,"DIS_CODE":0,"TOWNNAME":"北區","LI":"中樓里","LIN":"1鄰","STREET":"前鋒路","SECT":" ","MAREA":" ","LANE":" ","ALLEY":" ","HOUSE_NO":"１８１號四樓之２","E_COORD97":169480.35999999999,"N_COORD97":2544769.4500000002,"ADDRESS":"前鋒路１８１號四樓之２","OBJECTID":513929},"geometry":{"x":169480.36000000034,"y":2544769.4499999974}},{"attributes":{"ID":513957,"DIS_CODE":0,"TOWNNAME":"北區","LI":"中樓里","LIN":"1鄰","STREET":"前鋒路","SECT":" ","MAREA":" ","LANE":" ","ALLEY":" ","HOUSE_NO":"１８３號二樓之１","E_COORD97":169483.17999999999,"N_COORD97":2544788.1699999999,"ADDRESS":"前鋒路１８３號二樓之１","OBJECTID":513930},"geometry":{"x":169483.18000000156,"y":2544788.1699999999}},{"attributes":{"ID":513958,"DIS_CODE":0,"TOWNNAME":"北區","LI":"中樓里","LIN":"1鄰","STREET":"前鋒路","SECT":" ","MAREA":" ","LANE":" ","ALLEY":" ","HOUSE_NO":"１８３號二樓之２","E_COORD97":169483.17999999999,"N_COORD97":2544788.1699999999,"ADDRESS":"前鋒路１８３號二樓之２","OBJECTID":513931},"geometry":{"x":169483.18000000156,"y":2544788.1699999999}},{"attributes":{"ID":513959,"DIS_CODE":0,"TOWNNAME":"北區","LI":"中樓里","LIN":"1鄰","STREET":"前鋒路","SECT":" ","MAREA":" ","LANE":" ","ALLEY":" ","HOUSE_NO":"１８３號三樓之１","E_COORD97":169483.17999999999,"N_COORD97":2544788.1699999999,"ADDRESS":"前鋒路１８３號三樓之１","OBJECTID":513932},"geometry":{"x":169483.18000000156,"y":2544788.1699999999}},{"attributes":{"ID":513960,"DIS_CODE":0,"TOWNNAME":"北區","LI":"中樓里","LIN":"1鄰","STREET":"前鋒路","SECT":" ","MAREA":" ","LANE":" ","ALLEY":" ","HOUSE_NO":"１８３號三樓之２","E_COORD97":169483.17999999999,"N_COORD97":2544788.1699999999,"ADDRESS":"前鋒路１８３號三樓之２","OBJECTID":513933},"geometry":{"x":169483.18000000156,"y":2544788.1699999999}},{"attributes":{"ID":513961,"DIS_CODE":0,"TOWNNAME":"北區","LI":"中樓里","LIN":"1鄰","STREET":"前鋒路","SECT":" ","MAREA":" ","LANE":" ","ALLEY":" ","HOUSE_NO":"１８３號五樓之１","E_COORD97":169483.17999999999,"N_COORD97":2544788.1699999999,"ADDRESS":"前鋒路１８３號五樓之１","OBJECTID":513934},"geometry":{"x":169483.18000000156,"y":2544788.1699999999}},{"attributes":{"ID":513962,"DIS_CODE":0,"TOWNNAME":"北區","LI":"中樓里","LIN":"1鄰","STREET":"前鋒路","SECT":" ","MAREA":" ","LANE":" ","ALLEY":" ","HOUSE_NO":"１８３號五樓之２","E_COORD97":169483.17999999999,"N_COORD97":2544788.1699999999,"ADDRESS":"前鋒路１８３號五樓之２","OBJECTID":513935},"geometry":{"x":169483.18000000156,"y":2544788.1699999999}},{"attributes":{"ID":513963,"DIS_CODE":0,"TOWNNAME":"北區","LI":"中樓里","LIN":"1鄰","STREET":"前鋒路","SECT":" ","MAREA":" ","LANE":" ","ALLEY":" ","HOUSE_NO":"１８３號四樓之１","E_COORD97":169483.17999999999,"N_COORD97":2544788.1699999999,"ADDRESS":"前鋒路１８３號四樓之１","OBJECTID":513936},"geometry":{"x":169483.18000000156,"y":2544788.1699999999}},{"attributes":{"ID":513964,"DIS_CODE":0,"TOWNNAME":"北區","LI":"中樓里","LIN":"1鄰","STREET":"前鋒路","SECT":" ","MAREA":" ","LANE":" ","ALLEY":" ","HOUSE_NO":"１８３號四樓之２","E_COORD97":169483.17999999999,"N_COORD97":2544788.1699999999,"ADDRESS":"前鋒路１８３號四樓之２","OBJECTID":513937},"geometry":{"x":169483.18000000156,"y":2544788.1699999999}},{"attributes":{"ID":513965,"DIS_CODE":0,"TOWNNAME":"北區","LI":"華興里","LIN":"1鄰","STREET":"開元路","SECT":" ","MAREA":" ","LANE":" ","ALLEY":" ","HOUSE_NO":"２８０號七樓","E_COORD97":170290.07999999999,"N_COORD97":2545424.3799999999,"ADDRESS":"開元路２８０號七樓","OBJECTID":513938},"geometry":{"x":170290.08000000101,"y":2545424.3800000027}},{"attributes":{"ID":513966,"DIS_CODE":0,"TOWNNAME":"北區","LI":"華興里","LIN":"1鄰","STREET":"開元路","SECT":" ","MAREA":" ","LANE":" ","ALLEY":" ","HOUSE_NO":"２８０號三樓之１","E_COORD97":170290.07999999999,"N_COORD97":2545424.3799999999,"ADDRESS":"開元路２８０號三樓之１","OBJECTID":513939},"geometry":{"x":170290.08000000101,"y":2545424.3800000027}},{"attributes":{"ID":513967,"DIS_CODE":0,"TOWNNAME":"北區","LI":"華興里","LIN":"1鄰","STREET":"開元路","SECT":" ","MAREA":" ","LANE":" ","ALLEY":" ","HOUSE_NO":"２８０號三樓之２","E_COORD97":170290.07999999999,"N_COORD97":2545424.3799999999,"ADDRESS":"開元路２８０號三樓之２","OBJECTID":513940},"geometry":{"x":170290.08000000101,"y":2545424.3800000027}},{"attributes":{"ID":513968,"DIS_CODE":0,"TOWNNAME":"北區","LI":"華興里","LIN":"1鄰","STREET":"開元路","SECT":" ","MAREA":" ","LANE":" ","ALLEY":" ","HOUSE_NO":"２８０號五樓之１","E_COORD97":170290.07999999999,"N_COORD97":2545424.3799999999,"ADDRESS":"開元路２８０號五樓之１","OBJECTID":513941},"geometry":{"x":170290.08000000101,"y":2545424.3800000027}},{"attributes":{"ID":513969,"DIS_CODE":0,"TOWNNAME":"北區","LI":"華興里","LIN":"1鄰","STREET":"開元路","SECT":" ","MAREA":" ","LANE":" ","ALLEY":" ","HOUSE_NO":"２８０號五樓之２","E_COORD97":170290.07999999999,"N_COORD97":2545424.3799999999,"ADDRESS":"開元路２８０號五樓之２","OBJECTID":513942},"geometry":{"x":170290.08000000101,"y":2545424.3800000027}},{"attributes":{"ID":513970,"DIS_CODE":0,"TOWNNAME":"北區","LI":"華興里","LIN":"1鄰","STREET":"開元路","SECT":" ","MAREA":" ","LANE":" ","ALLEY":" ","HOUSE_NO":"２８０號六樓之１","E_COORD97":170290.07999999999,"N_COORD97":2545424.3799999999,"ADDRESS":"開元路２８０號六樓之１","OBJECTID":513943},"geometry":{"x":170290.08000000101,"y":2545424.3800000027}},{"attributes":{"ID":513971,"DIS_CODE":0,"TOWNNAME":"北區","LI":"華興里","LIN":"1鄰","STREET":"開元路","SECT":" ","MAREA":" ","LANE":" ","ALLEY":" ","HOUSE_NO":"２８０號六樓之２","E_COORD97":170290.07999999999,"N_COORD97":2545424.3799999999,"ADDRESS":"開元路２８０號六樓之２","OBJECTID":513944},"geometry":{"x":170290.08000000101,"y":2545424.3800000027}},{"attributes":{"ID":513972,"DIS_CODE":0,"TOWNNAME":"北區","LI":"華興里","LIN":"1鄰","STREET":"開元路","SECT":" ","MAREA":" ","LANE":" ","ALLEY":" ","HOUSE_NO":"２８０號四樓之１","E_COORD97":170290.07999999999,"N_COORD97":2545424.3799999999,"ADDRESS":"開元路２８０號四樓之１","OBJECTID":513945},"geometry":{"x":170290.08000000101,"y":2545424.3800000027}},{"attributes":{"ID":513973,"DIS_CODE":0,"TOWNNAME":"北區","LI":"華興里","LIN":"1鄰","STREET":"開元路","SECT":" ","MAREA":" ","LANE":" ","ALLEY":" ","HOUSE_NO":"２８０號四樓之２","E_COORD97":170290.07999999999,"N_COORD97":2545424.3799999999,"ADDRESS":"開元路２８０號四樓之２","OBJECTID":513946},"geometry":{"x":170290.08000000101,"y":2545424.3800000027}},{"attributes":{"ID":513974,"DIS_CODE":0,"TOWNNAME":"南區","LI":"新生里","LIN":"1鄰","STREET":"大林路","SECT":" ","MAREA":" ","LANE":" ","ALLEY":" ","HOUSE_NO":"６號九樓之５","E_COORD97":169339.28,"N_COORD97":2541879,"ADDRESS":"大林路６號九樓之５","OBJECTID":513947},"geometry":{"x":169339.28000000119,"y":2541879.0000000019}},{"attributes":{"ID":513975,"DIS_CODE":0,"TOWNNAME":"南區","LI":"大成里","LIN":"1鄰","STREET":"健康路","SECT":"一段","MAREA":" ","LANE":" ","ALLEY":" ","HOUSE_NO":"３９５號五樓","E_COORD97":167899.70999999999,"N_COORD97":2542433.5699999998,"ADDRESS":"健康路一段３９５號五樓","OBJECTID":513948},"geometry":{"x":167899.70999999996,"y":2542433.5700000003}},{"attributes":{"ID":513976,"DIS_CODE":0,"TOWNNAME":"東區","LI":"崇文里","LIN":"1鄰","STREET":"崇德十五街","SECT":" ","MAREA":" ","LANE":" ","ALLEY":" ","HOUSE_NO":"７８號","E_COORD97":171024.73000000001,"N_COORD97":2541179.0499999998,"ADDRESS":"崇德十五街７８號","OBJECTID":513949},"geometry":{"x":171024.73000000138,"y":2541179.0500000007}},{"attributes":{"ID":513977,"DIS_CODE":0,"TOWNNAME":"新營區","LI":"王公里","LIN":"1鄰","STREET":"中正路","SECT":" ","MAREA":" ","LANE":" ","ALLEY":" ","HOUSE_NO":"５８號三樓","E_COORD97":180131.12,"N_COORD97":2578981.8799999999,"ADDRESS":"中正路５８號三樓","OBJECTID":513950},"geometry":{"x":180131.12000000011,"y":2578981.8799999971}},{"attributes":{"ID":513978,"DIS_CODE":0,"TOWNNAME":"南區","LI":"南都里","LIN":"1鄰","STREET":"中華南路","SECT":"二段","MAREA":" ","LANE":" ","ALLEY":" ","HOUSE_NO":"３１９號二樓","E_COORD97":166446.10000000001,"N_COORD97":2540259.4199999999,"ADDRESS":"中華南路二段３１９號二樓","OBJECTID":513951},"geometry":{"x":166446.10000000056,"y":2540259.4200000018}},{"attributes":{"ID":513979,"DIS_CODE":0,"TOWNNAME":"下營區","LI":"仁里里","LIN":"1鄰","STREET":"仁義街","SECT":" ","MAREA":" ","LANE":" ","ALLEY":" ","HOUSE_NO":"７號","E_COORD97":174585.01999999999,"N_COORD97":2569708.1800000002,"ADDRESS":"仁義街７號","OBJECTID":513952},"geometry":{"x":174585.02000000142,"y":2569708.1800000034}},{"attributes":{"ID":513980,"DIS_CODE":0,"TOWNNAME":"南區","LI":"南都里","LIN":"1鄰","STREET":"中華南路","SECT":"二段","MAREA":" ","LANE":" ","ALLEY":" ","HOUSE_NO":"３１９號三樓","E_COORD97":166446.10000000001,"N_COORD97":2540259.4199999999,"ADDRESS":"中華南路二段３１９號三樓","OBJECTID":513953},"geometry":{"x":166446.10000000056,"y":2540259.4200000018}},{"attributes":{"ID":513981,"DIS_CODE":0,"TOWNNAME":"南區","LI":"南都里","LIN":"1鄰","STREET":"中華南路","SECT":"二段","MAREA":" ","LANE":" ","ALLEY":" ","HOUSE_NO":"３１９號五樓","E_COORD97":166446.10000000001,"N_COORD97":2540259.4199999999,"ADDRESS":"中華南路二段３１９號五樓","OBJECTID":513954},"geometry":{"x":166446.10000000056,"y":2540259.4200000018}},{"attributes":{"ID":513982,"DIS_CODE":0,"TOWNNAME":"南區","LI":"南都里","LIN":"1鄰","STREET":"中華南路","SECT":"二段","MAREA":" ","LANE":" ","ALLEY":" ","HOUSE_NO":"３１９號四樓","E_COORD97":166446.10000000001,"N_COORD97":2540259.4199999999,"ADDRESS":"中華南路二段３１９號四樓","OBJECTID":513955},"geometry":{"x":166446.10000000056,"y":2540259.4200000018}},{"attributes":{"ID":513983,"DIS_CODE":0,"TOWNNAME":"南區","LI":"南都里","LIN":"1鄰","STREET":"中華南路","SECT":"二段","MAREA":" ","LANE":" ","ALLEY":" ","HOUSE_NO":"３２３號三樓","E_COORD97":166437.89999999999,"N_COORD97":2540259.1400000001,"ADDRESS":"中華南路二段３２３號三樓","OBJECTID":513956},"geometry":{"x":166437.90000000224,"y":2540259.1400000006}},{"attributes":{"ID":513984,"DIS_CODE":0,"TOWNNAME":"南區","LI":"南都里","LIN":"1鄰","STREET":"中華南路","SECT":"二段","MAREA":" ","LANE":" ","ALLEY":" ","HOUSE_NO":"３２３號五樓","E_COORD97":166437.89999999999,"N_COORD97":2540259.1400000001,"ADDRESS":"中華南路二段３２３號五樓","OBJECTID":513957},"geometry":{"x":166437.90000000224,"y":2540259.1400000006}},{"attributes":{"ID":513985,"DIS_CODE":0,"TOWNNAME":"南區","LI":"南都里","LIN":"1鄰","STREET":"中華南路","SECT":"二段","MAREA":" ","LANE":" ","ALLEY":" ","HOUSE_NO":"３２３號四樓","E_COORD97":166437.89999999999,"N_COORD97":2540259.1400000001,"ADDRESS":"中華南路二段３２３號四樓","OBJECTID":513958},"geometry":{"x":166437.90000000224,"y":2540259.1400000006}},{"attributes":{"ID":513986,"DIS_CODE":0,"TOWNNAME":"南區","LI":"南都里","LIN":"1鄰","STREET":"中華南路","SECT":"二段","MAREA":" ","LANE":" ","ALLEY":" ","HOUSE_NO":"３２７號三樓","E_COORD97":166428.57000000001,"N_COORD97":2540258.8599999999,"ADDRESS":"中華南路二段３２７號三樓","OBJECTID":513959},"geometry":{"x":166428.57000000123,"y":2540258.8600000013}},{"attributes":{"ID":513987,"DIS_CODE":0,"TOWNNAME":"南區","LI":"南都里","LIN":"1鄰","STREET":"中華南路","SECT":"二段","MAREA":" ","LANE":" ","ALLEY":" ","HOUSE_NO":"３２７號五樓","E_COORD97":166428.57000000001,"N_COORD97":2540258.8599999999,"ADDRESS":"中華南路二段３２７號五樓","OBJECTID":513960},"geometry":{"x":166428.57000000123,"y":2540258.8600000013}},{"attributes":{"ID":513988,"DIS_CODE":0,"TOWNNAME":"南區","LI":"南都里","LIN":"1鄰","STREET":"中華南路","SECT":"二段","MAREA":" ","LANE":" ","ALLEY":" ","HOUSE_NO":"３２７號四樓","E_COORD97":166428.57000000001,"N_COORD97":2540258.8599999999,"ADDRESS":"中華南路二段３２７號四樓","OBJECTID":513961},"geometry":{"x":166428.57000000123,"y":2540258.8600000013}},{"attributes":{"ID":513989,"DIS_CODE":0,"TOWNNAME":"南區","LI":"南都里","LIN":"1鄰","STREET":"中華南路","SECT":"二段","MAREA":" ","LANE":" ","ALLEY":" ","HOUSE_NO":"３３１號三樓","E_COORD97":166419.31,"N_COORD97":2540260.1099999999,"ADDRESS":"中華南路二段３３１號三樓","OBJECTID":513962},"geometry":{"x":166419.31000000052,"y":2540260.1100000013}},{"attributes":{"ID":513990,"DIS_CODE":0,"TOWNNAME":"南區","LI":"南都里","LIN":"1鄰","STREET":"中華南路","SECT":"二段","MAREA":" ","LANE":" ","ALLEY":" ","HOUSE_NO":"３３１號五樓","E_COORD97":166419.31,"N_COORD97":2540260.1099999999,"ADDRESS":"中華南路二段３３１號五樓","OBJECTID":513963},"geometry":{"x":166419.31000000052,"y":2540260.1100000013}},{"attributes":{"ID":513991,"DIS_CODE":0,"TOWNNAME":"南區","LI":"南都里","LIN":"1鄰","STREET":"中華南路","SECT":"二段","MAREA":" ","LANE":" ","ALLEY":" ","HOUSE_NO":"３３１號四樓","E_COORD97":166419.31,"N_COORD97":2540260.1099999999,"ADDRESS":"中華南路二段３３１號四樓","OBJECTID":513964},"geometry":{"x":166419.31000000052,"y":2540260.1100000013}},{"attributes":{"ID":513992,"DIS_CODE":0,"TOWNNAME":"南區","LI":"南都里","LIN":"1鄰","STREET":"中華南路","SECT":"二段","MAREA":" ","LANE":" ","ALLEY":" ","HOUSE_NO":"３３５號三樓","E_COORD97":166411.29999999999,"N_COORD97":2540259.9500000002,"ADDRESS":"中華南路二段３３５號三樓","OBJECTID":513965},"geometry":{"x":166411.30000000075,"y":2540259.9499999993}},{"attributes":{"ID":513993,"DIS_CODE":0,"TOWNNAME":"南區","LI":"南都里","LIN":"1鄰","STREET":"中華南路","SECT":"二段","MAREA":" ","LANE":" ","ALLEY":" ","HOUSE_NO":"３３５號五樓","E_COORD97":166411.29999999999,"N_COORD97":2540259.9500000002,"ADDRESS":"中華南路二段３３５號五樓","OBJECTID":513966},"geometry":{"x":166411.30000000075,"y":2540259.9499999993}},{"attributes":{"ID":513994,"DIS_CODE":0,"TOWNNAME":"南區","LI":"南都里","LIN":"1鄰","STREET":"中華南路","SECT":"二段","MAREA":" ","LANE":" ","ALLEY":" ","HOUSE_NO":"３３５號四樓","E_COORD97":166411.29999999999,"N_COORD97":2540259.9500000002,"ADDRESS":"中華南路二段３３５號四樓","OBJECTID":513967},"geometry":{"x":166411.30000000075,"y":2540259.9499999993}},{"attributes":{"ID":513995,"DIS_CODE":0,"TOWNNAME":"南區","LI":"南都里","LIN":"1鄰","STREET":"中華南路","SECT":"二段","MAREA":" ","LANE":" ","ALLEY":" ","HOUSE_NO":"３３９號三樓","E_COORD97":166403.78,"N_COORD97":2540259.6299999999,"ADDRESS":"中華南路二段３３９號三樓","OBJECTID":513968},"geometry":{"x":166403.78000000026,"y":2540259.6300000008}},{"attributes":{"ID":513996,"DIS_CODE":0,"TOWNNAME":"南區","LI":"南都里","LIN":"1鄰","STREET":"中華南路","SECT":"二段","MAREA":" ","LANE":" ","ALLEY":" ","HOUSE_NO":"３３９號五樓","E_COORD97":166403.78,"N_COORD97":2540259.6299999999,"ADDRESS":"中華南路二段３３９號五樓","OBJECTID":513969},"geometry":{"x":166403.78000000026,"y":2540259.6300000008}},{"attributes":{"ID":513997,"DIS_CODE":0,"TOWNNAME":"南區","LI":"南都里","LIN":"1鄰","STREET":"中華南路","SECT":"二段","MAREA":" ","LANE":" ","ALLEY":" ","HOUSE_NO":"３３９號四樓","E_COORD97":166403.78,"N_COORD97":2540259.6299999999,"ADDRESS":"中華南路二段３３９號四樓","OBJECTID":513970},"geometry":{"x":166403.78000000026,"y":2540259.6300000008}},{"attributes":{"ID":513998,"DIS_CODE":0,"TOWNNAME":"南區","LI":"南都里","LIN":"1鄰","STREET":"中華南路","SECT":"二段","MAREA":" ","LANE":" ","ALLEY":" ","HOUSE_NO":"３４３號三樓","E_COORD97":166387.59,"N_COORD97":2540257.0699999998,"ADDRESS":"中華南路二段３４３號三樓","OBJECTID":513971},"geometry":{"x":166387.59000000078,"y":2540257.0700000003}},{"attributes":{"ID":513999,"DIS_CODE":0,"TOWNNAME":"南區","LI":"南都里","LIN":"1鄰","STREET":"中華南路","SECT":"二段","MAREA":" ","LANE":" ","ALLEY":" ","HOUSE_NO":"３４３號五樓","E_COORD97":166387.59,"N_COORD97":2540257.0699999998,"ADDRESS":"中華南路二段３４３號五樓","OBJECTID":513972},"geometry":{"x":166387.59000000078,"y":2540257.0700000003}},{"attributes":{"ID":514000,"DIS_CODE":0,"TOWNNAME":"南區","LI":"南都里","LIN":"1鄰","STREET":"中華南路","SECT":"二段","MAREA":" ","LANE":" ","ALLEY":" ","HOUSE_NO":"３４３號四樓","E_COORD97":166387.59,"N_COORD97":2540257.0699999998,"ADDRESS":"中華南路二段３４３號四樓","OBJECTID":513973},"geometry":{"x":166387.59000000078,"y":2540257.0700000003}},{"attributes":{"ID":514001,"DIS_CODE":0,"TOWNNAME":"南區","LI":"南都里","LIN":"1鄰","STREET":"中華南路","SECT":"二段","MAREA":" ","LANE":" ","ALLEY":" ","HOUSE_NO":"３４７號三樓","E_COORD97":166379.59,"N_COORD97":2540256.9100000001,"ADDRESS":"中華南路二段３４７號三樓","OBJECTID":513974},"geometry":{"x":166379.58999999985,"y":2540256.9100000001}},{"attributes":{"ID":514002,"DIS_CODE":0,"TOWNNAME":"南區","LI":"南都里","LIN":"1鄰","STREET":"中華南路","SECT":"二段","MAREA":" ","LANE":" ","ALLEY":" ","HOUSE_NO":"３４７號五樓","E_COORD97":166379.59,"N_COORD97":2540256.9100000001,"ADDRESS":"中華南路二段３４７號五樓","OBJECTID":513975},"geometry":{"x":166379.58999999985,"y":2540256.9100000001}},{"attributes":{"ID":514003,"DIS_CODE":0,"TOWNNAME":"南區","LI":"南都里","LIN":"1鄰","STREET":"中華南路","SECT":"二段","MAREA":" ","LANE":" ","ALLEY":" ","HOUSE_NO":"３４７號四樓","E_COORD97":166379.59,"N_COORD97":2540256.9100000001,"ADDRESS":"中華南路二段３４７號四樓","OBJECTID":513976},"geometry":{"x":166379.58999999985,"y":2540256.9100000001}},{"attributes":{"ID":514004,"DIS_CODE":0,"TOWNNAME":"南區","LI":"南都里","LIN":"1鄰","STREET":"中華南路","SECT":"二段","MAREA":" ","LANE":" ","ALLEY":" ","HOUSE_NO":"３５１號三樓","E_COORD97":166369.82999999999,"N_COORD97":2540257.0699999998,"ADDRESS":"中華南路二段３５１號三樓","OBJECTID":513977},"geometry":{"x":166369.83000000007,"y":2540257.0700000003}},{"attributes":{"ID":514005,"DIS_CODE":0,"TOWNNAME":"南區","LI":"南都里","LIN":"1鄰","STREET":"中華南路","SECT":"二段","MAREA":" ","LANE":" ","ALLEY":" ","HOUSE_NO":"３５１號五樓","E_COORD97":166369.82999999999,"N_COORD97":2540257.0699999998,"ADDRESS":"中華南路二段３５１號五樓","OBJECTID":513978},"geometry":{"x":166369.83000000007,"y":2540257.0700000003}},{"attributes":{"ID":514006,"DIS_CODE":0,"TOWNNAME":"南區","LI":"南都里","LIN":"1鄰","STREET":"中華南路","SECT":"二段","MAREA":" ","LANE":" ","ALLEY":" ","HOUSE_NO":"３５１號四樓","E_COORD97":166369.82999999999,"N_COORD97":2540257.0699999998,"ADDRESS":"中華南路二段３５１號四樓","OBJECTID":513979},"geometry":{"x":166369.83000000007,"y":2540257.0700000003}},{"attributes":{"ID":514007,"DIS_CODE":0,"TOWNNAME":"南區","LI":"南都里","LIN":"1鄰","STREET":"中華南路","SECT":"二段","MAREA":" ","LANE":" ","ALLEY":" ","HOUSE_NO":"３５５號三樓","E_COORD97":166361.66,"N_COORD97":2540257.0699999998,"ADDRESS":"中華南路二段３５５號三樓","OBJECTID":513980},"geometry":{"x":166361.66000000108,"y":2540257.0700000003}},{"attributes":{"ID":514008,"DIS_CODE":0,"TOWNNAME":"南區","LI":"南都里","LIN":"1鄰","STREET":"中華南路","SECT":"二段","MAREA":" ","LANE":" ","ALLEY":" ","HOUSE_NO":"３５５號五樓","E_COORD97":166361.66,"N_COORD97":2540257.0699999998,"ADDRESS":"中華南路二段３５５號五樓","OBJECTID":513981},"geometry":{"x":166361.66000000108,"y":2540257.0700000003}},{"attributes":{"ID":514009,"DIS_CODE":0,"TOWNNAME":"南區","LI":"南都里","LIN":"1鄰","STREET":"中華南路","SECT":"二段","MAREA":" ","LANE":" ","ALLEY":" ","HOUSE_NO":"３５５號四樓","E_COORD97":166361.66,"N_COORD97":2540257.0699999998,"ADDRESS":"中華南路二段３５５號四樓","OBJECTID":513982},"geometry":{"x":166361.66000000108,"y":2540257.0700000003}},{"attributes":{"ID":514010,"DIS_CODE":0,"TOWNNAME":"南區","LI":"南都里","LIN":"1鄰","STREET":"中華南路","SECT":"二段","MAREA":" ","LANE":" ","ALLEY":" ","HOUSE_NO":"３５９號三樓","E_COORD97":166350.94,"N_COORD97":2540257.3900000001,"ADDRESS":"中華南路二段３５９號三樓","OBJECTID":513983},"geometry":{"x":166350.94000000041,"y":2540257.3900000006}},{"attributes":{"ID":514011,"DIS_CODE":0,"TOWNNAME":"南區","LI":"南都里","LIN":"1鄰","STREET":"中華南路","SECT":"二段","MAREA":" ","LANE":" ","ALLEY":" ","HOUSE_NO":"３５９號五樓","E_COORD97":166350.94,"N_COORD97":2540257.3900000001,"ADDRESS":"中華南路二段３５９號五樓","OBJECTID":513984},"geometry":{"x":166350.94000000041,"y":2540257.3900000006}},{"attributes":{"ID":514012,"DIS_CODE":0,"TOWNNAME":"南區","LI":"南都里","LIN":"1鄰","STREET":"中華南路","SECT":"二段","MAREA":" ","LANE":" ","ALLEY":" ","HOUSE_NO":"３５９號四樓","E_COORD97":166350.94,"N_COORD97":2540257.3900000001,"ADDRESS":"中華南路二段３５９號四樓","OBJECTID":513985},"geometry":{"x":166350.94000000041,"y":2540257.3900000006}},{"attributes":{"ID":514013,"DIS_CODE":0,"TOWNNAME":"南區","LI":"南都里","LIN":"1鄰","STREET":"中華南路","SECT":"二段","MAREA":" ","LANE":" ","ALLEY":" ","HOUSE_NO":"３６３號三樓","E_COORD97":166343.10000000001,"N_COORD97":2540257.3900000001,"ADDRESS":"中華南路二段３６３號三樓","OBJECTID":513986},"geometry":{"x":166343.10000000056,"y":2540257.3900000006}},{"attributes":{"ID":514014,"DIS_CODE":0,"TOWNNAME":"南區","LI":"南都里","LIN":"1鄰","STREET":"中華南路","SECT":"二段","MAREA":" ","LANE":" ","ALLEY":" ","HOUSE_NO":"３６３號五樓","E_COORD97":166343.10000000001,"N_COORD97":2540257.3900000001,"ADDRESS":"中華南路二段３６３號五樓","OBJECTID":513987},"geometry":{"x":166343.10000000056,"y":2540257.3900000006}},{"attributes":{"ID":514015,"DIS_CODE":0,"TOWNNAME":"南區","LI":"南都里","LIN":"1鄰","STREET":"中華南路","SECT":"二段","MAREA":" ","LANE":" ","ALLEY":" ","HOUSE_NO":"３６３號四樓","E_COORD97":166343.10000000001,"N_COORD97":2540257.3900000001,"ADDRESS":"中華南路二段３６３號四樓","OBJECTID":513988},"geometry":{"x":166343.10000000056,"y":2540257.3900000006}},{"attributes":{"ID":514016,"DIS_CODE":0,"TOWNNAME":"南區","LI":"南都里","LIN":"1鄰","STREET":"中華南路","SECT":"二段","MAREA":" ","LANE":" ","ALLEY":" ","HOUSE_NO":"３６７號三樓","E_COORD97":166334.29000000001,"N_COORD97":2540257.3900000001,"ADDRESS":"中華南路二段３６７號三樓","OBJECTID":513989},"geometry":{"x":166334.29000000004,"y":2540257.3900000006}},{"attributes":{"ID":514017,"DIS_CODE":0,"TOWNNAME":"南區","LI":"南都里","LIN":"1鄰","STREET":"中華南路","SECT":"二段","MAREA":" ","LANE":" ","ALLEY":" ","HOUSE_NO":"３６７號五樓","E_COORD97":166334.29000000001,"N_COORD97":2540257.3900000001,"ADDRESS":"中華南路二段３６７號五樓","OBJECTID":513990},"geometry":{"x":166334.29000000004,"y":2540257.3900000006}},{"attributes":{"ID":514018,"DIS_CODE":0,"TOWNNAME":"南區","LI":"南都里","LIN":"1鄰","STREET":"中華南路","SECT":"二段","MAREA":" ","LANE":" ","ALLEY":" ","HOUSE_NO":"３６７號四樓","E_COORD97":166334.29000000001,"N_COORD97":2540257.3900000001,"ADDRESS":"中華南路二段３６７號四樓","OBJECTID":513991},"geometry":{"x":166334.29000000004,"y":2540257.3900000006}},{"attributes":{"ID":514019,"DIS_CODE":0,"TOWNNAME":"南區","LI":"南都里","LIN":"1鄰","STREET":"中華南路","SECT":"二段","MAREA":" ","LANE":" ","ALLEY":" ","HOUSE_NO":"３６９號二樓","E_COORD97":166329.97,"N_COORD97":2540258.8300000001,"ADDRESS":"中華南路二段３６９號二樓","OBJECTID":513992},"geometry":{"x":166329.9700000016,"y":2540258.8300000038}},{"attributes":{"ID":514020,"DIS_CODE":0,"TOWNNAME":"南區","LI":"南都里","LIN":"1鄰","STREET":"中華南路","SECT":"二段","MAREA":" ","LANE":" ","ALLEY":" ","HOUSE_NO":"３６９號三樓","E_COORD97":166329.97,"N_COORD97":2540258.8300000001,"ADDRESS":"中華南路二段３６９號三樓","OBJECTID":513993},"geometry":{"x":166329.9700000016,"y":2540258.8300000038}},{"attributes":{"ID":514021,"DIS_CODE":0,"TOWNNAME":"南區","LI":"南都里","LIN":"1鄰","STREET":"中華南路","SECT":"二段","MAREA":" ","LANE":" ","ALLEY":" ","HOUSE_NO":"３６９號五樓","E_COORD97":166329.97,"N_COORD97":2540258.8300000001,"ADDRESS":"中華南路二段３６９號五樓","OBJECTID":513994},"geometry":{"x":166329.9700000016,"y":2540258.8300000038}},{"attributes":{"ID":514022,"DIS_CODE":0,"TOWNNAME":"南區","LI":"南都里","LIN":"1鄰","STREET":"中華南路","SECT":"二段","MAREA":" ","LANE":" ","ALLEY":" ","HOUSE_NO":"３６９號四樓","E_COORD97":166329.97,"N_COORD97":2540258.8300000001,"ADDRESS":"中華南路二段３６９號四樓","OBJECTID":513995},"geometry":{"x":166329.9700000016,"y":2540258.8300000038}},{"attributes":{"ID":514023,"DIS_CODE":0,"TOWNNAME":"南區","LI":"新生里","LIN":"1鄰","STREET":"大林路","SECT":" ","MAREA":" ","LANE":" ","ALLEY":" ","HOUSE_NO":"６號二樓之１","E_COORD97":169339.28,"N_COORD97":2541879,"ADDRESS":"大林路６號二樓之１","OBJECTID":513996},"geometry":{"x":169339.28000000119,"y":2541879.0000000019}},{"attributes":{"ID":514024,"DIS_CODE":0,"TOWNNAME":"南區","LI":"新生里","LIN":"1鄰","STREET":"大林路","SECT":" ","MAREA":" ","LANE":" ","ALLEY":" ","HOUSE_NO":"６號二樓之２","E_COORD97":169339.28,"N_COORD97":2541879,"ADDRESS":"大林路６號二樓之２","OBJECTID":513997},"geometry":{"x":169339.28000000119,"y":2541879.0000000019}},{"attributes":{"ID":514025,"DIS_CODE":0,"TOWNNAME":"安平區","LI":"平通里","LIN":"1鄰","STREET":"國平路","SECT":" ","MAREA":" ","LANE":" ","ALLEY":" ","HOUSE_NO":"５９９號七樓之８","E_COORD97":165057.29000000001,"N_COORD97":2544138.6800000002,"ADDRESS":"國平路５９９號七樓之８","OBJECTID":513998},"geometry":{"x":165057.29000000097,"y":2544138.6800000016}},{"attributes":{"ID":514026,"DIS_CODE":0,"TOWNNAME":"安平區","LI":"平通里","LIN":"1鄰","STREET":"國平路","SECT":" ","MAREA":" ","LANE":" ","ALLEY":" ","HOUSE_NO":"５９９號七樓之９","E_COORD97":165057.29000000001,"N_COORD97":2544138.6800000002,"ADDRESS":"國平路５９９號七樓之９","OBJECTID":513999},"geometry":{"x":165057.29000000097,"y":2544138.6800000016}},{"attributes":{"ID":514027,"DIS_CODE":0,"TOWNNAME":"安平區","LI":"平通里","LIN":"1鄰","STREET":"國平路","SECT":" ","MAREA":" ","LANE":" ","ALLEY":" ","HOUSE_NO":"５９９號五樓之８","E_COORD97":165057.29000000001,"N_COORD97":2544138.6800000002,"ADDRESS":"國平路５９９號五樓之８","OBJECTID":514000},"geometry":{"x":165057.29000000097,"y":2544138.6800000016}}]}