{"displayFieldName":"TOWNNAME","fieldAliases":{"ID":"ID","DIS_CODE":"DIS_CODE","TOWNNAME":"TOWNNAME","LI":"LI","LIN":"LIN","STREET":"STREET","SECT":"SECT","MAREA":"MAREA","LANE":"LANE","ALLEY":"ALLEY","HOUSE_NO":"HOUSE_NO","E_COORD97":"E_COORD97","N_COORD97":"N_COORD97","ADDRESS":"ADDRESS","OBJECTID":"OBJECTID"},"geometryType":"esriGeometryPoint","spatialReference":{"wkid":102443,"latestWkid":3826},"fields":[{"name":"ID","type":"esriFieldTypeDouble","alias":"ID"},{"name":"DIS_CODE","type":"esriFieldTypeInteger","alias":"DIS_CODE"},{"name":"TOWNNAME","type":"esriFieldTypeString","alias":"TOWNNAME","length":8},{"name":"LI","type":"esriFieldTypeString","alias":"LI","length":8},{"name":"LIN","type":"esriFieldTypeString","alias":"LIN","length":12},{"name":"STREET","type":"esriFieldTypeString","alias":"STREET","length":20},{"name":"SECT","type":"esriFieldTypeString","alias":"SECT","length":8},{"name":"MAREA","type":"esriFieldTypeString","alias":"MAREA","length":12},{"name":"LANE","type":"esriFieldTypeString","alias":"LANE","length":10},{"name":"ALLEY","type":"esriFieldTypeString","alias":"ALLEY","length":10},{"name":"HOUSE_NO","type":"esriFieldTypeString","alias":"HOUSE_NO","length":20},{"name":"E_COORD97","type":"esriFieldTypeDouble","alias":"E_COORD97"},{"name":"N_COORD97","type":"esriFieldTypeDouble","alias":"N_COORD97"},{"name":"ADDRESS","type":"esriFieldTypeString","alias":"ADDRESS","length":50},{"name":"OBJECTID","type":"esriFieldTypeOID","alias":"OBJECTID"}],"features":[{"attributes":{"ID":244005,"DIS_CODE":0,"TOWNNAME":"關廟區","LI":"北勢里","LIN":"11鄰","STREET":"成功路","SECT":" ","MAREA":" ","LANE":"２６２巷","ALLEY":" ","HOUSE_NO":"６號","E_COORD97":181497.26999999999,"N_COORD97":2540529.27,"ADDRESS":"成功路２６２巷６號","OBJECTID":244001},"geometry":{"x":181497.26999999955,"y":2540529.2699999996}},{"attributes":{"ID":244006,"DIS_CODE":0,"TOWNNAME":"關廟區","LI":"山西里","LIN":"11鄰","STREET":"南雄路","SECT":"二段","MAREA":" ","LANE":"４４５巷","ALLEY":" ","HOUSE_NO":"１２號","E_COORD97":181059.84,"N_COORD97":2540713.2799999998,"ADDRESS":"南雄路二段４４５巷１２號","OBJECTID":244002},"geometry":{"x":181059.83999999985,"y":2540713.2800000012}},{"attributes":{"ID":244007,"DIS_CODE":0,"TOWNNAME":"東區","LI":"崇文里","LIN":"14鄰","STREET":"崇德十九街","SECT":" ","MAREA":" ","LANE":" ","ALLEY":" ","HOUSE_NO":"５９號七樓之１","E_COORD97":171016.73999999999,"N_COORD97":2540985.0800000001,"ADDRESS":"崇德十九街５９號七樓之１","OBJECTID":244003},"geometry":{"x":171016.74000000022,"y":2540985.0800000001}},{"attributes":{"ID":244008,"DIS_CODE":0,"TOWNNAME":"東區","LI":"崇文里","LIN":"14鄰","STREET":"崇德十九街","SECT":" ","MAREA":" ","LANE":" ","ALLEY":" ","HOUSE_NO":"５９號七樓之２","E_COORD97":171016.73999999999,"N_COORD97":2540985.0800000001,"ADDRESS":"崇德十九街５９號七樓之２","OBJECTID":244004},"geometry":{"x":171016.74000000022,"y":2540985.0800000001}},{"attributes":{"ID":244009,"DIS_CODE":0,"TOWNNAME":"東區","LI":"崇文里","LIN":"14鄰","STREET":"崇德十九街","SECT":" ","MAREA":" ","LANE":" ","ALLEY":" ","HOUSE_NO":"５９號九樓","E_COORD97":171016.73999999999,"N_COORD97":2540985.0800000001,"ADDRESS":"崇德十九街５９號九樓","OBJECTID":244005},"geometry":{"x":171016.74000000022,"y":2540985.0800000001}},{"attributes":{"ID":244010,"DIS_CODE":0,"TOWNNAME":"東區","LI":"崇文里","LIN":"14鄰","STREET":"崇德十九街","SECT":" ","MAREA":" ","LANE":" ","ALLEY":" ","HOUSE_NO":"５９號九樓之１","E_COORD97":171016.73999999999,"N_COORD97":2540985.0800000001,"ADDRESS":"崇德十九街５９號九樓之１","OBJECTID":244006},"geometry":{"x":171016.74000000022,"y":2540985.0800000001}},{"attributes":{"ID":244011,"DIS_CODE":0,"TOWNNAME":"東區","LI":"崇文里","LIN":"14鄰","STREET":"崇德十九街","SECT":" ","MAREA":" ","LANE":" ","ALLEY":" ","HOUSE_NO":"５９號二樓","E_COORD97":171016.73999999999,"N_COORD97":2540985.0800000001,"ADDRESS":"崇德十九街５９號二樓","OBJECTID":244007},"geometry":{"x":171016.74000000022,"y":2540985.0800000001}},{"attributes":{"ID":244012,"DIS_CODE":0,"TOWNNAME":"東區","LI":"崇文里","LIN":"14鄰","STREET":"崇德十九街","SECT":" ","MAREA":" ","LANE":" ","ALLEY":" ","HOUSE_NO":"５９號二樓之１","E_COORD97":171016.73999999999,"N_COORD97":2540985.0800000001,"ADDRESS":"崇德十九街５９號二樓之１","OBJECTID":244008},"geometry":{"x":171016.74000000022,"y":2540985.0800000001}},{"attributes":{"ID":244013,"DIS_CODE":0,"TOWNNAME":"東區","LI":"崇文里","LIN":"14鄰","STREET":"崇德十九街","SECT":" ","MAREA":" ","LANE":" ","ALLEY":" ","HOUSE_NO":"５９號二樓之２","E_COORD97":171016.73999999999,"N_COORD97":2540985.0800000001,"ADDRESS":"崇德十九街５９號二樓之２","OBJECTID":244009},"geometry":{"x":171016.74000000022,"y":2540985.0800000001}},{"attributes":{"ID":244014,"DIS_CODE":0,"TOWNNAME":"東區","LI":"崇文里","LIN":"14鄰","STREET":"崇德十九街","SECT":" ","MAREA":" ","LANE":" ","ALLEY":" ","HOUSE_NO":"５９號八樓","E_COORD97":171016.73999999999,"N_COORD97":2540985.0800000001,"ADDRESS":"崇德十九街５９號八樓","OBJECTID":244010},"geometry":{"x":171016.74000000022,"y":2540985.0800000001}},{"attributes":{"ID":244015,"DIS_CODE":0,"TOWNNAME":"東區","LI":"崇文里","LIN":"14鄰","STREET":"崇德十九街","SECT":" ","MAREA":" ","LANE":" ","ALLEY":" ","HOUSE_NO":"５９號八樓之１","E_COORD97":171016.73999999999,"N_COORD97":2540985.0800000001,"ADDRESS":"崇德十九街５９號八樓之１","OBJECTID":244011},"geometry":{"x":171016.74000000022,"y":2540985.0800000001}},{"attributes":{"ID":244016,"DIS_CODE":0,"TOWNNAME":"東區","LI":"崇文里","LIN":"14鄰","STREET":"崇德十九街","SECT":" ","MAREA":" ","LANE":" ","ALLEY":" ","HOUSE_NO":"５９號八樓之２","E_COORD97":171016.73999999999,"N_COORD97":2540985.0800000001,"ADDRESS":"崇德十九街５９號八樓之２","OBJECTID":244012},"geometry":{"x":171016.74000000022,"y":2540985.0800000001}},{"attributes":{"ID":244017,"DIS_CODE":0,"TOWNNAME":"北區","LI":"開元里","LIN":"11鄰","STREET":"北園街","SECT":" ","MAREA":" ","LANE":"１２８巷","ALLEY":" ","HOUSE_NO":"２７號","E_COORD97":170259.85999999999,"N_COORD97":2546098.1600000001,"ADDRESS":"北園街１２８巷２７號","OBJECTID":244013},"geometry":{"x":170259.86000000034,"y":2546098.1600000039}},{"attributes":{"ID":244018,"DIS_CODE":0,"TOWNNAME":"北區","LI":"開元里","LIN":"11鄰","STREET":"北園街","SECT":" ","MAREA":" ","LANE":"１２８巷","ALLEY":" ","HOUSE_NO":"２７號之１","E_COORD97":170242.88,"N_COORD97":2546085,"ADDRESS":"北園街１２８巷２７號之１","OBJECTID":244014},"geometry":{"x":170242.87999999989,"y":2546085}},{"attributes":{"ID":244019,"DIS_CODE":0,"TOWNNAME":"北區","LI":"開元里","LIN":"11鄰","STREET":"北園街","SECT":" ","MAREA":" ","LANE":"１２８巷","ALLEY":" ","HOUSE_NO":"２７號之２","E_COORD97":170241.07000000001,"N_COORD97":2546089.7400000002,"ADDRESS":"北園街１２８巷２７號之２","OBJECTID":244015},"geometry":{"x":170241.07000000123,"y":2546089.7400000002}},{"attributes":{"ID":244020,"DIS_CODE":0,"TOWNNAME":"北區","LI":"開元里","LIN":"11鄰","STREET":"北園街","SECT":" ","MAREA":" ","LANE":"１２８巷","ALLEY":" ","HOUSE_NO":"３１號","E_COORD97":170266.91,"N_COORD97":2546123.79,"ADDRESS":"北園街１２８巷３１號","OBJECTID":244016},"geometry":{"x":170266.91000000201,"y":2546123.790000001}},{"attributes":{"ID":244021,"DIS_CODE":0,"TOWNNAME":"北區","LI":"開元里","LIN":"11鄰","STREET":"北園街","SECT":" ","MAREA":" ","LANE":"８７巷","ALLEY":" ","HOUSE_NO":"５０號","E_COORD97":170170.53,"N_COORD97":2546038.1499999999,"ADDRESS":"北園街８７巷５０號","OBJECTID":244017},"geometry":{"x":170170.53000000026,"y":2546038.1500000022}},{"attributes":{"ID":244022,"DIS_CODE":0,"TOWNNAME":"北區","LI":"開元里","LIN":"11鄰","STREET":"北園街","SECT":" ","MAREA":" ","LANE":"８７巷","ALLEY":" ","HOUSE_NO":"５２號","E_COORD97":170171.85000000001,"N_COORD97":2546043.2799999998,"ADDRESS":"北園街８７巷５２號","OBJECTID":244018},"geometry":{"x":170171.85000000149,"y":2546043.2800000012}},{"attributes":{"ID":244023,"DIS_CODE":0,"TOWNNAME":"北區","LI":"開元里","LIN":"11鄰","STREET":"北園街","SECT":" ","MAREA":" ","LANE":"８７巷","ALLEY":" ","HOUSE_NO":"５４號","E_COORD97":170170.70000000001,"N_COORD97":2546061.9100000001,"ADDRESS":"北園街８７巷５４號","OBJECTID":244019},"geometry":{"x":170170.70000000112,"y":2546061.9100000001}},{"attributes":{"ID":244024,"DIS_CODE":0,"TOWNNAME":"北區","LI":"開元里","LIN":"11鄰","STREET":"北園街","SECT":" ","MAREA":" ","LANE":"８７巷","ALLEY":" ","HOUSE_NO":"５６號","E_COORD97":170170.07999999999,"N_COORD97":2546065.8500000001,"ADDRESS":"北園街８７巷５６號","OBJECTID":244020},"geometry":{"x":170170.08000000007,"y":2546065.8500000034}},{"attributes":{"ID":244025,"DIS_CODE":0,"TOWNNAME":"北區","LI":"開元里","LIN":"11鄰","STREET":"北園街","SECT":" ","MAREA":" ","LANE":"８７巷","ALLEY":" ","HOUSE_NO":"５８號","E_COORD97":170170.47,"N_COORD97":2546071.1899999999,"ADDRESS":"北園街８７巷５８號","OBJECTID":244021},"geometry":{"x":170170.46999999974,"y":2546071.1900000013}},{"attributes":{"ID":244026,"DIS_CODE":0,"TOWNNAME":"北區","LI":"開元里","LIN":"11鄰","STREET":"北園街","SECT":" ","MAREA":" ","LANE":"８７巷","ALLEY":" ","HOUSE_NO":"６０號","E_COORD97":170170.07999999999,"N_COORD97":2546075.98,"ADDRESS":"北園街８７巷６０號","OBJECTID":244022},"geometry":{"x":170170.08000000007,"y":2546075.9800000042}},{"attributes":{"ID":244027,"DIS_CODE":0,"TOWNNAME":"北區","LI":"開元里","LIN":"11鄰","STREET":"北園街","SECT":" ","MAREA":" ","LANE":"８７巷","ALLEY":" ","HOUSE_NO":"６４號","E_COORD97":170180.04999999999,"N_COORD97":2546133.1000000001,"ADDRESS":"北園街８７巷６４號","OBJECTID":244023},"geometry":{"x":170180.04999999981,"y":2546133.1000000015}},{"attributes":{"ID":244028,"DIS_CODE":0,"TOWNNAME":"北區","LI":"重興里","LIN":"11鄰","STREET":"東豐路","SECT":" ","MAREA":" ","LANE":"４５１巷","ALLEY":" ","HOUSE_NO":"２０之１０號","E_COORD97":170932.59,"N_COORD97":2544824.5800000001,"ADDRESS":"東豐路４５１巷２０之１０號","OBJECTID":244024},"geometry":{"x":170932.58999999985,"y":2544824.5800000019}},{"attributes":{"ID":244029,"DIS_CODE":0,"TOWNNAME":"北區","LI":"重興里","LIN":"11鄰","STREET":"東豐路","SECT":" ","MAREA":" ","LANE":"４５１巷","ALLEY":" ","HOUSE_NO":"１３之６號","E_COORD97":170849.23999999999,"N_COORD97":2544822.5299999998,"ADDRESS":"東豐路４５１巷１３之６號","OBJECTID":244025},"geometry":{"x":170849.24000000022,"y":2544822.5299999993}},{"attributes":{"ID":244030,"DIS_CODE":0,"TOWNNAME":"南區","LI":"松安里","LIN":"11鄰","STREET":"灣裡路","SECT":" ","MAREA":" ","LANE":"４１８巷","ALLEY":" ","HOUSE_NO":"６號","E_COORD97":166167.41,"N_COORD97":2536100.0600000001,"ADDRESS":"灣裡路４１８巷６號","OBJECTID":244026},"geometry":{"x":166167.41000000015,"y":2536100.0600000005}},{"attributes":{"ID":244031,"DIS_CODE":0,"TOWNNAME":"安平區","LI":"怡平里","LIN":"24鄰","STREET":"平通路","SECT":" ","MAREA":" ","LANE":"３３３巷","ALLEY":" ","HOUSE_NO":"９１之５號","E_COORD97":165734.16,"N_COORD97":2543566.5699999998,"ADDRESS":"平通路３３３巷９１之５號","OBJECTID":244027},"geometry":{"x":165734.16000000108,"y":2543566.570000004}},{"attributes":{"ID":244032,"DIS_CODE":0,"TOWNNAME":"東區","LI":"崇文里","LIN":"14鄰","STREET":"崇德十九街","SECT":" ","MAREA":" ","LANE":" ","ALLEY":" ","HOUSE_NO":"５９號三樓","E_COORD97":171016.73999999999,"N_COORD97":2540985.0800000001,"ADDRESS":"崇德十九街５９號三樓","OBJECTID":244028},"geometry":{"x":171016.74000000022,"y":2540985.0800000001}},{"attributes":{"ID":244033,"DIS_CODE":0,"TOWNNAME":"東區","LI":"崇文里","LIN":"14鄰","STREET":"崇德十九街","SECT":" ","MAREA":" ","LANE":" ","ALLEY":" ","HOUSE_NO":"５９號三樓之１","E_COORD97":171016.73999999999,"N_COORD97":2540985.0800000001,"ADDRESS":"崇德十九街５９號三樓之１","OBJECTID":244029},"geometry":{"x":171016.74000000022,"y":2540985.0800000001}},{"attributes":{"ID":244034,"DIS_CODE":0,"TOWNNAME":"東區","LI":"崇文里","LIN":"14鄰","STREET":"崇德十九街","SECT":" ","MAREA":" ","LANE":" ","ALLEY":" ","HOUSE_NO":"５９號三樓之２","E_COORD97":171016.73999999999,"N_COORD97":2540985.0800000001,"ADDRESS":"崇德十九街５９號三樓之２","OBJECTID":244030},"geometry":{"x":171016.74000000022,"y":2540985.0800000001}},{"attributes":{"ID":244035,"DIS_CODE":0,"TOWNNAME":"東區","LI":"崇文里","LIN":"14鄰","STREET":"崇德十九街","SECT":" ","MAREA":" ","LANE":" ","ALLEY":" ","HOUSE_NO":"５９號五樓","E_COORD97":171016.73999999999,"N_COORD97":2540985.0800000001,"ADDRESS":"崇德十九街５９號五樓","OBJECTID":244031},"geometry":{"x":171016.74000000022,"y":2540985.0800000001}},{"attributes":{"ID":244036,"DIS_CODE":0,"TOWNNAME":"東區","LI":"崇文里","LIN":"14鄰","STREET":"崇德十九街","SECT":" ","MAREA":" ","LANE":" ","ALLEY":" ","HOUSE_NO":"５９號五樓之１","E_COORD97":171016.73999999999,"N_COORD97":2540985.0800000001,"ADDRESS":"崇德十九街５９號五樓之１","OBJECTID":244032},"geometry":{"x":171016.74000000022,"y":2540985.0800000001}},{"attributes":{"ID":244037,"DIS_CODE":0,"TOWNNAME":"東區","LI":"崇文里","LIN":"14鄰","STREET":"崇德十九街","SECT":" ","MAREA":" ","LANE":" ","ALLEY":" ","HOUSE_NO":"５９號六樓","E_COORD97":171016.73999999999,"N_COORD97":2540985.0800000001,"ADDRESS":"崇德十九街５９號六樓","OBJECTID":244033},"geometry":{"x":171016.74000000022,"y":2540985.0800000001}},{"attributes":{"ID":244038,"DIS_CODE":0,"TOWNNAME":"東區","LI":"崇文里","LIN":"14鄰","STREET":"崇德十九街","SECT":" ","MAREA":" ","LANE":" ","ALLEY":" ","HOUSE_NO":"５９號六樓之１","E_COORD97":171016.73999999999,"N_COORD97":2540985.0800000001,"ADDRESS":"崇德十九街５９號六樓之１","OBJECTID":244034},"geometry":{"x":171016.74000000022,"y":2540985.0800000001}},{"attributes":{"ID":244039,"DIS_CODE":0,"TOWNNAME":"東區","LI":"崇文里","LIN":"14鄰","STREET":"崇德十九街","SECT":" ","MAREA":" ","LANE":" ","ALLEY":" ","HOUSE_NO":"５９號六樓之２","E_COORD97":171016.73999999999,"N_COORD97":2540985.0800000001,"ADDRESS":"崇德十九街５９號六樓之２","OBJECTID":244035},"geometry":{"x":171016.74000000022,"y":2540985.0800000001}},{"attributes":{"ID":244040,"DIS_CODE":0,"TOWNNAME":"東區","LI":"崇文里","LIN":"14鄰","STREET":"崇德十九街","SECT":" ","MAREA":" ","LANE":" ","ALLEY":" ","HOUSE_NO":"５９號四樓","E_COORD97":171016.73999999999,"N_COORD97":2540985.0800000001,"ADDRESS":"崇德十九街５９號四樓","OBJECTID":244036},"geometry":{"x":171016.74000000022,"y":2540985.0800000001}},{"attributes":{"ID":244041,"DIS_CODE":0,"TOWNNAME":"東區","LI":"崇文里","LIN":"14鄰","STREET":"崇德十九街","SECT":" ","MAREA":" ","LANE":" ","ALLEY":" ","HOUSE_NO":"５９號四樓之１","E_COORD97":171016.73999999999,"N_COORD97":2540985.0800000001,"ADDRESS":"崇德十九街５９號四樓之１","OBJECTID":244037},"geometry":{"x":171016.74000000022,"y":2540985.0800000001}},{"attributes":{"ID":244042,"DIS_CODE":0,"TOWNNAME":"東區","LI":"崇文里","LIN":"14鄰","STREET":"崇德十九街","SECT":" ","MAREA":" ","LANE":" ","ALLEY":" ","HOUSE_NO":"５９號四樓之２","E_COORD97":171016.73999999999,"N_COORD97":2540985.0800000001,"ADDRESS":"崇德十九街５９號四樓之２","OBJECTID":244038},"geometry":{"x":171016.74000000022,"y":2540985.0800000001}},{"attributes":{"ID":244043,"DIS_CODE":0,"TOWNNAME":"東區","LI":"崇成里","LIN":"14鄰","STREET":"崇明十六街","SECT":" ","MAREA":" ","LANE":" ","ALLEY":" ","HOUSE_NO":"４３號七樓","E_COORD97":170705.81,"N_COORD97":2541311.6000000001,"ADDRESS":"崇明十六街４３號七樓","OBJECTID":244039},"geometry":{"x":170705.80999999959,"y":2541311.6000000015}},{"attributes":{"ID":244044,"DIS_CODE":0,"TOWNNAME":"東區","LI":"崇成里","LIN":"14鄰","STREET":"崇明十六街","SECT":" ","MAREA":" ","LANE":" ","ALLEY":" ","HOUSE_NO":"４３號七樓之１","E_COORD97":170705.81,"N_COORD97":2541311.6000000001,"ADDRESS":"崇明十六街４３號七樓之１","OBJECTID":244040},"geometry":{"x":170705.80999999959,"y":2541311.6000000015}},{"attributes":{"ID":244045,"DIS_CODE":0,"TOWNNAME":"麻豆區","LI":"興農里","LIN":"1鄰","STREET":"仁愛路","SECT":" ","MAREA":" ","LANE":" ","ALLEY":" ","HOUSE_NO":"３７號","E_COORD97":172522.51000000001,"N_COORD97":2564646.7999999998,"ADDRESS":"仁愛路３７號","OBJECTID":244041},"geometry":{"x":172522.51000000071,"y":2564646.8000000045}},{"attributes":{"ID":244046,"DIS_CODE":0,"TOWNNAME":"北區","LI":"重興里","LIN":"11鄰","STREET":"東豐路","SECT":" ","MAREA":" ","LANE":"４５１巷","ALLEY":" ","HOUSE_NO":"１３之１１號","E_COORD97":170886.06,"N_COORD97":2544852.3100000001,"ADDRESS":"東豐路４５１巷１３之１１號","OBJECTID":244042},"geometry":{"x":170886.06000000052,"y":2544852.3100000005}},{"attributes":{"ID":244047,"DIS_CODE":0,"TOWNNAME":"南區","LI":"松安里","LIN":"11鄰","STREET":"灣裡路","SECT":" ","MAREA":" ","LANE":"２８２巷","ALLEY":" ","HOUSE_NO":"９３號","E_COORD97":166035.57999999999,"N_COORD97":2536101.6899999999,"ADDRESS":"灣裡路２８２巷９３號","OBJECTID":244043},"geometry":{"x":166035.58000000007,"y":2536101.6899999995}},{"attributes":{"ID":244048,"DIS_CODE":0,"TOWNNAME":"南區","LI":"松安里","LIN":"11鄰","STREET":"灣裡路","SECT":" ","MAREA":" ","LANE":"４１８巷","ALLEY":" ","HOUSE_NO":"２號","E_COORD97":166171.53,"N_COORD97":2536124.23,"ADDRESS":"灣裡路４１８巷２號","OBJECTID":244044},"geometry":{"x":166171.53000000026,"y":2536124.2300000023}},{"attributes":{"ID":244049,"DIS_CODE":0,"TOWNNAME":"南區","LI":"松安里","LIN":"11鄰","STREET":"灣裡路","SECT":" ","MAREA":" ","LANE":"４１８巷","ALLEY":" ","HOUSE_NO":"３號","E_COORD97":166170.09,"N_COORD97":2536115.6299999999,"ADDRESS":"灣裡路４１８巷３號","OBJECTID":244045},"geometry":{"x":166170.09000000078,"y":2536115.6299999971}},{"attributes":{"ID":244050,"DIS_CODE":0,"TOWNNAME":"南區","LI":"松安里","LIN":"11鄰","STREET":"灣裡路","SECT":" ","MAREA":" ","LANE":"４１８巷","ALLEY":" ","HOUSE_NO":"５號","E_COORD97":166168.84,"N_COORD97":2536107.2200000002,"ADDRESS":"灣裡路４１８巷５號","OBJECTID":244046},"geometry":{"x":166168.84000000078,"y":2536107.2200000025}},{"attributes":{"ID":244051,"DIS_CODE":0,"TOWNNAME":"安平區","LI":"怡平里","LIN":"24鄰","STREET":"平通路","SECT":" ","MAREA":" ","LANE":"３３３巷","ALLEY":" ","HOUSE_NO":"９１之６號","E_COORD97":165739.07999999999,"N_COORD97":2543565.2999999998,"ADDRESS":"平通路３３３巷９１之６號","OBJECTID":244047},"geometry":{"x":165739.08000000007,"y":2543565.3000000045}},{"attributes":{"ID":244052,"DIS_CODE":0,"TOWNNAME":"安平區","LI":"怡平里","LIN":"24鄰","STREET":"平通路","SECT":" ","MAREA":" ","LANE":"３３３巷","ALLEY":" ","HOUSE_NO":"９１之７號","E_COORD97":165743.53,"N_COORD97":2543566.0899999999,"ADDRESS":"平通路３３３巷９１之７號","OBJECTID":244048},"geometry":{"x":165743.53000000212,"y":2543566.0900000017}},{"attributes":{"ID":244053,"DIS_CODE":0,"TOWNNAME":"安平區","LI":"怡平里","LIN":"24鄰","STREET":"平通路","SECT":" ","MAREA":" ","LANE":"３３３巷","ALLEY":" ","HOUSE_NO":"９１之８號","E_COORD97":165748.13,"N_COORD97":2543565.2999999998,"ADDRESS":"平通路３３３巷９１之８號","OBJECTID":244049},"geometry":{"x":165748.13000000082,"y":2543565.3000000045}},{"attributes":{"ID":244054,"DIS_CODE":0,"TOWNNAME":"北區","LI":"振興里","LIN":"13鄰","STREET":"開元路","SECT":" ","MAREA":" ","LANE":"２１２巷","ALLEY":" ","HOUSE_NO":"５４號地下層","E_COORD97":170271.84,"N_COORD97":2545190.0800000001,"ADDRESS":"開元路２１２巷５４號地下層","OBJECTID":244050},"geometry":{"x":170271.83999999985,"y":2545190.0800000038}},{"attributes":{"ID":244055,"DIS_CODE":0,"TOWNNAME":"安平區","LI":"怡平里","LIN":"24鄰","STREET":"平通路","SECT":" ","MAREA":" ","LANE":"３３３巷","ALLEY":" ","HOUSE_NO":"９１號","E_COORD97":165716.54000000001,"N_COORD97":2543569.4300000002,"ADDRESS":"平通路３３３巷９１號","OBJECTID":244051},"geometry":{"x":165716.54000000097,"y":2543569.4299999997}},{"attributes":{"ID":244056,"DIS_CODE":0,"TOWNNAME":"南區","LI":"文南里","LIN":"24鄰","STREET":"文南路","SECT":" ","MAREA":" ","LANE":"１０５巷","ALLEY":" ","HOUSE_NO":"３號","E_COORD97":166903.92999999999,"N_COORD97":2542804.0099999998,"ADDRESS":"文南路１０５巷３號","OBJECTID":244052},"geometry":{"x":166903.9299999997,"y":2542804.0100000016}},{"attributes":{"ID":244057,"DIS_CODE":0,"TOWNNAME":"南區","LI":"文南里","LIN":"24鄰","STREET":"文南路","SECT":" ","MAREA":" ","LANE":"１０５巷","ALLEY":" ","HOUSE_NO":"５號","E_COORD97":166899.73999999999,"N_COORD97":2542804.0099999998,"ADDRESS":"文南路１０５巷５號","OBJECTID":244053},"geometry":{"x":166899.73999999929,"y":2542804.0100000016}},{"attributes":{"ID":244058,"DIS_CODE":0,"TOWNNAME":"南區","LI":"文南里","LIN":"24鄰","STREET":"文南路","SECT":" ","MAREA":" ","LANE":"１０５巷","ALLEY":" ","HOUSE_NO":"７號","E_COORD97":166895.35999999999,"N_COORD97":2542804.5800000001,"ADDRESS":"文南路１０５巷７號","OBJECTID":244054},"geometry":{"x":166895.36000000034,"y":2542804.5800000019}},{"attributes":{"ID":244059,"DIS_CODE":0,"TOWNNAME":"南區","LI":"文南里","LIN":"24鄰","STREET":"文南路","SECT":" ","MAREA":" ","LANE":"１０５巷","ALLEY":" ","HOUSE_NO":"９號","E_COORD97":166889.07999999999,"N_COORD97":2542804.5800000001,"ADDRESS":"文南路１０５巷９號","OBJECTID":244055},"geometry":{"x":166889.08000000101,"y":2542804.5800000019}},{"attributes":{"ID":244060,"DIS_CODE":0,"TOWNNAME":"鹽水區","LI":"橋南里","LIN":"24鄰","STREET":"行昌路","SECT":" ","MAREA":" ","LANE":"２９巷","ALLEY":" ","HOUSE_NO":"１６號","E_COORD97":175040.94,"N_COORD97":2579293.5099999998,"ADDRESS":"行昌路２９巷１６號","OBJECTID":244056},"geometry":{"x":175040.94000000134,"y":2579293.5099999998}},{"attributes":{"ID":244061,"DIS_CODE":0,"TOWNNAME":"歸仁區","LI":"許厝里","LIN":"24鄰","STREET":"大仁街","SECT":" ","MAREA":" ","LANE":"１２６巷","ALLEY":" ","HOUSE_NO":"３５號","E_COORD97":178216.82000000001,"N_COORD97":2540900.1099999999,"ADDRESS":"大仁街１２６巷３５號","OBJECTID":244057},"geometry":{"x":178216.82000000123,"y":2540900.1099999975}},{"attributes":{"ID":244062,"DIS_CODE":0,"TOWNNAME":"歸仁區","LI":"許厝里","LIN":"24鄰","STREET":"大仁街","SECT":" ","MAREA":" ","LANE":"１２６巷","ALLEY":" ","HOUSE_NO":"２９號","E_COORD97":178204.51999999999,"N_COORD97":2540900.1099999999,"ADDRESS":"大仁街１２６巷２９號","OBJECTID":244058},"geometry":{"x":178204.52000000048,"y":2540900.1099999975}},{"attributes":{"ID":244063,"DIS_CODE":0,"TOWNNAME":"歸仁區","LI":"許厝里","LIN":"24鄰","STREET":"大仁街","SECT":" ","MAREA":" ","LANE":"１２６巷","ALLEY":" ","HOUSE_NO":"４３號","E_COORD97":178234.32000000001,"N_COORD97":2540900.1099999999,"ADDRESS":"大仁街１２６巷４３號","OBJECTID":244059},"geometry":{"x":178234.3200000003,"y":2540900.1099999975}},{"attributes":{"ID":244064,"DIS_CODE":0,"TOWNNAME":"歸仁區","LI":"許厝里","LIN":"24鄰","STREET":"大仁街","SECT":" ","MAREA":" ","LANE":"１２６巷","ALLEY":" ","HOUSE_NO":"３１號","E_COORD97":178208.62,"N_COORD97":2540900.1099999999,"ADDRESS":"大仁街１２６巷３１號","OBJECTID":244060},"geometry":{"x":178208.62000000011,"y":2540900.1099999975}},{"attributes":{"ID":244065,"DIS_CODE":0,"TOWNNAME":"歸仁區","LI":"南保里","LIN":"24鄰","STREET":"民權六街","SECT":" ","MAREA":" ","LANE":"８１巷","ALLEY":" ","HOUSE_NO":"１１號","E_COORD97":176801.35999999999,"N_COORD97":2541078.25,"ADDRESS":"民權六街８１巷１１號","OBJECTID":244061},"geometry":{"x":176801.36000000127,"y":2541078.25}},{"attributes":{"ID":244066,"DIS_CODE":0,"TOWNNAME":"歸仁區","LI":"後市里","LIN":"24鄰","STREET":"文化街","SECT":"二段","MAREA":" ","LANE":"３５巷","ALLEY":" ","HOUSE_NO":"３３號","E_COORD97":177574.89000000001,"N_COORD97":2541030.2599999998,"ADDRESS":"文化街二段３５巷３３號","OBJECTID":244062},"geometry":{"x":177574.8900000006,"y":2541030.2599999998}},{"attributes":{"ID":244067,"DIS_CODE":0,"TOWNNAME":"新營區","LI":"新北里","LIN":"24鄰","STREET":"民生路","SECT":" ","MAREA":" ","LANE":"４２０巷","ALLEY":" ","HOUSE_NO":"３４號","E_COORD97":178899.10000000001,"N_COORD97":2579375.3300000001,"ADDRESS":"民生路４２０巷３４號","OBJECTID":244063},"geometry":{"x":178899.10000000056,"y":2579375.3300000001}},{"attributes":{"ID":244068,"DIS_CODE":0,"TOWNNAME":"新營區","LI":"新北里","LIN":"24鄰","STREET":"民生路","SECT":" ","MAREA":" ","LANE":"４２０巷","ALLEY":" ","HOUSE_NO":"２０號","E_COORD97":178864.29000000001,"N_COORD97":2579372.1699999999,"ADDRESS":"民生路４２０巷２０號","OBJECTID":244064},"geometry":{"x":178864.29000000097,"y":2579372.1700000018}},{"attributes":{"ID":244069,"DIS_CODE":0,"TOWNNAME":"東區","LI":"崇成里","LIN":"14鄰","STREET":"崇明十六街","SECT":" ","MAREA":" ","LANE":" ","ALLEY":" ","HOUSE_NO":"４３號七樓之２","E_COORD97":170705.81,"N_COORD97":2541311.6000000001,"ADDRESS":"崇明十六街４３號七樓之２","OBJECTID":244065},"geometry":{"x":170705.80999999959,"y":2541311.6000000015}},{"attributes":{"ID":244070,"DIS_CODE":0,"TOWNNAME":"東區","LI":"忠孝里","LIN":"24鄰","STREET":"崇明四街","SECT":" ","MAREA":" ","LANE":"２０巷","ALLEY":" ","HOUSE_NO":"１號","E_COORD97":169612.69,"N_COORD97":2542282.3999999999,"ADDRESS":"崇明四街２０巷１號","OBJECTID":244066},"geometry":{"x":169612.69000000227,"y":2542282.3999999985}},{"attributes":{"ID":244071,"DIS_CODE":0,"TOWNNAME":"東區","LI":"崇成里","LIN":"14鄰","STREET":"崇明十六街","SECT":" ","MAREA":" ","LANE":" ","ALLEY":" ","HOUSE_NO":"４３號七樓之３","E_COORD97":170705.81,"N_COORD97":2541311.6000000001,"ADDRESS":"崇明十六街４３號七樓之３","OBJECTID":244067},"geometry":{"x":170705.80999999959,"y":2541311.6000000015}},{"attributes":{"ID":244072,"DIS_CODE":0,"TOWNNAME":"東區","LI":"崇成里","LIN":"14鄰","STREET":"崇明十六街","SECT":" ","MAREA":" ","LANE":" ","ALLEY":" ","HOUSE_NO":"４３號三樓","E_COORD97":170705.81,"N_COORD97":2541311.6000000001,"ADDRESS":"崇明十六街４３號三樓","OBJECTID":244068},"geometry":{"x":170705.80999999959,"y":2541311.6000000015}},{"attributes":{"ID":244073,"DIS_CODE":0,"TOWNNAME":"東區","LI":"崇成里","LIN":"14鄰","STREET":"崇明十六街","SECT":" ","MAREA":" ","LANE":" ","ALLEY":" ","HOUSE_NO":"４３號三樓之１","E_COORD97":170705.81,"N_COORD97":2541311.6000000001,"ADDRESS":"崇明十六街４３號三樓之１","OBJECTID":244069},"geometry":{"x":170705.80999999959,"y":2541311.6000000015}},{"attributes":{"ID":244074,"DIS_CODE":0,"TOWNNAME":"新營區","LI":"民權里","LIN":"24鄰","STREET":"民治路","SECT":" ","MAREA":" ","LANE":"５３巷","ALLEY":" ","HOUSE_NO":"１１之１號","E_COORD97":179680.64999999999,"N_COORD97":2578681.71,"ADDRESS":"民治路５３巷１１之１號","OBJECTID":244070},"geometry":{"x":179680.65000000224,"y":2578681.7100000028}},{"attributes":{"ID":244075,"DIS_CODE":0,"TOWNNAME":"新化區","LI":"東榮里","LIN":"24鄰","STREET":"中正路","SECT":" ","MAREA":" ","LANE":"２４４巷","ALLEY":" ","HOUSE_NO":"２號之５","E_COORD97":179135.07000000001,"N_COORD97":2547716.2599999998,"ADDRESS":"中正路２４４巷２號之５","OBJECTID":244071},"geometry":{"x":179135.0700000003,"y":2547716.2599999998}},{"attributes":{"ID":244076,"DIS_CODE":0,"TOWNNAME":"東山區","LI":"大客里","LIN":"11鄰","STREET":" ","SECT":" ","MAREA":"大庄","LANE":" ","ALLEY":" ","HOUSE_NO":"７１號之１","E_COORD97":189865.5,"N_COORD97":2578998.1899999999,"ADDRESS":"大庄７１號之１","OBJECTID":244072},"geometry":{"x":189865.5,"y":2578998.1900000013}},{"attributes":{"ID":244077,"DIS_CODE":0,"TOWNNAME":"東山區","LI":"大客里","LIN":"11鄰","STREET":" ","SECT":" ","MAREA":"大庄","LANE":" ","ALLEY":" ","HOUSE_NO":"７１號","E_COORD97":189855.5,"N_COORD97":2579004.3500000001,"ADDRESS":"大庄７１號","OBJECTID":244073},"geometry":{"x":189855.5,"y":2579004.3500000015}},{"attributes":{"ID":244078,"DIS_CODE":0,"TOWNNAME":"東山區","LI":"大客里","LIN":"11鄰","STREET":" ","SECT":" ","MAREA":"大庄","LANE":" ","ALLEY":" ","HOUSE_NO":"７２號","E_COORD97":189869.82000000001,"N_COORD97":2579013.8500000001,"ADDRESS":"大庄７２號","OBJECTID":244074},"geometry":{"x":189869.82000000123,"y":2579013.8500000034}},{"attributes":{"ID":244079,"DIS_CODE":0,"TOWNNAME":"東山區","LI":"大客里","LIN":"11鄰","STREET":" ","SECT":" ","MAREA":"大庄","LANE":" ","ALLEY":" ","HOUSE_NO":"７３號","E_COORD97":189876.85000000001,"N_COORD97":2579023.4300000002,"ADDRESS":"大庄７３號","OBJECTID":244075},"geometry":{"x":189876.85000000149,"y":2579023.4300000034}},{"attributes":{"ID":244080,"DIS_CODE":0,"TOWNNAME":"東山區","LI":"大客里","LIN":"11鄰","STREET":" ","SECT":" ","MAREA":"大庄","LANE":" ","ALLEY":" ","HOUSE_NO":"７５號","E_COORD97":189930.39000000001,"N_COORD97":2579066.0699999998,"ADDRESS":"大庄７５號","OBJECTID":244076},"geometry":{"x":189930.38999999966,"y":2579066.0700000003}},{"attributes":{"ID":244081,"DIS_CODE":0,"TOWNNAME":"東山區","LI":"大客里","LIN":"11鄰","STREET":" ","SECT":" ","MAREA":"大庄","LANE":" ","ALLEY":" ","HOUSE_NO":"７６號","E_COORD97":189928.35999999999,"N_COORD97":2579041.54,"ADDRESS":"大庄７６號","OBJECTID":244077},"geometry":{"x":189928.3600000022,"y":2579041.5399999991}},{"attributes":{"ID":244082,"DIS_CODE":0,"TOWNNAME":"東山區","LI":"大客里","LIN":"11鄰","STREET":" ","SECT":" ","MAREA":"大庄","LANE":" ","ALLEY":" ","HOUSE_NO":"７７號","E_COORD97":189905.70000000001,"N_COORD97":2579011.7799999998,"ADDRESS":"大庄７７號","OBJECTID":244078},"geometry":{"x":189905.70000000112,"y":2579011.7800000012}},{"attributes":{"ID":244083,"DIS_CODE":0,"TOWNNAME":"東山區","LI":"大客里","LIN":"11鄰","STREET":" ","SECT":" ","MAREA":"大庄","LANE":" ","ALLEY":" ","HOUSE_NO":"８４號","E_COORD97":189944.92000000001,"N_COORD97":2579034.8700000001,"ADDRESS":"大庄８４號","OBJECTID":244079},"geometry":{"x":189944.92000000086,"y":2579034.870000001}},{"attributes":{"ID":244084,"DIS_CODE":0,"TOWNNAME":"麻豆區","LI":"興農里","LIN":"1鄰","STREET":"仁愛路","SECT":" ","MAREA":" ","LANE":" ","ALLEY":" ","HOUSE_NO":"３９號","E_COORD97":172524.47,"N_COORD97":2564710.3500000001,"ADDRESS":"仁愛路３９號","OBJECTID":244080},"geometry":{"x":172524.47000000067,"y":2564710.3500000015}},{"attributes":{"ID":244085,"DIS_CODE":0,"TOWNNAME":"東山區","LI":"大客里","LIN":"11鄰","STREET":" ","SECT":" ","MAREA":"大庄","LANE":" ","ALLEY":" ","HOUSE_NO":"８５號之１","E_COORD97":190020.70000000001,"N_COORD97":2579089.6899999999,"ADDRESS":"大庄８５號之１","OBJECTID":244081},"geometry":{"x":190020.70000000205,"y":2579089.6900000013}},{"attributes":{"ID":244086,"DIS_CODE":0,"TOWNNAME":"東山區","LI":"大客里","LIN":"11鄰","STREET":" ","SECT":" ","MAREA":"大庄","LANE":" ","ALLEY":" ","HOUSE_NO":"８５號之２","E_COORD97":190058.95999999999,"N_COORD97":2579006.75,"ADDRESS":"大庄８５號之２","OBJECTID":244082},"geometry":{"x":190058.95999999996,"y":2579006.75}},{"attributes":{"ID":244087,"DIS_CODE":0,"TOWNNAME":"東山區","LI":"大客里","LIN":"11鄰","STREET":" ","SECT":" ","MAREA":"大庄","LANE":" ","ALLEY":" ","HOUSE_NO":"８５號之３","E_COORD97":190050.69,"N_COORD97":2579008,"ADDRESS":"大庄８５號之３","OBJECTID":244083},"geometry":{"x":190050.69000000134,"y":2579008}},{"attributes":{"ID":244088,"DIS_CODE":0,"TOWNNAME":"東山區","LI":"三榮里","LIN":"11鄰","STREET":" ","SECT":" ","MAREA":"木柵","LANE":" ","ALLEY":" ","HOUSE_NO":"６３號","E_COORD97":187708.94,"N_COORD97":2579702.6400000001,"ADDRESS":"木柵６３號","OBJECTID":244084},"geometry":{"x":187708.94000000227,"y":2579702.6400000006}},{"attributes":{"ID":244089,"DIS_CODE":0,"TOWNNAME":"新營區","LI":"姑爺里","LIN":"11鄰","STREET":" ","SECT":" ","MAREA":"挖仔","LANE":" ","ALLEY":" ","HOUSE_NO":"４１號","E_COORD97":173884.56,"N_COORD97":2575452.1499999999,"ADDRESS":"挖仔４１號","OBJECTID":244085},"geometry":{"x":173884.56000000145,"y":2575452.1500000004}},{"attributes":{"ID":244090,"DIS_CODE":0,"TOWNNAME":"新營區","LI":"嘉芳里","LIN":"11鄰","STREET":"復興路","SECT":" ","MAREA":" ","LANE":"８０３巷","ALLEY":" ","HOUSE_NO":"１６號","E_COORD97":177114.10000000001,"N_COORD97":2578520.1899999999,"ADDRESS":"復興路８０３巷１６號","OBJECTID":244086},"geometry":{"x":177114.10000000056,"y":2578520.1900000013}},{"attributes":{"ID":244091,"DIS_CODE":0,"TOWNNAME":"新營區","LI":"姑爺里","LIN":"11鄰","STREET":" ","SECT":" ","MAREA":"挖仔","LANE":" ","ALLEY":" ","HOUSE_NO":"４３之５３號","E_COORD97":173936.06,"N_COORD97":2575583.7400000002,"ADDRESS":"挖仔４３之５３號","OBJECTID":244087},"geometry":{"x":173936.06000000052,"y":2575583.7399999984}},{"attributes":{"ID":244092,"DIS_CODE":0,"TOWNNAME":"新營區","LI":"姑爺里","LIN":"11鄰","STREET":" ","SECT":" ","MAREA":"挖仔","LANE":" ","ALLEY":" ","HOUSE_NO":"４３之４４號","E_COORD97":173947.45999999999,"N_COORD97":2575613.5800000001,"ADDRESS":"挖仔４３之４４號","OBJECTID":244088},"geometry":{"x":173947.46000000089,"y":2575613.5800000019}},{"attributes":{"ID":244093,"DIS_CODE":0,"TOWNNAME":"新營區","LI":"南興里","LIN":"11鄰","STREET":"和平路","SECT":" ","MAREA":" ","LANE":"１０２巷","ALLEY":" ","HOUSE_NO":"３５號","E_COORD97":179304.82999999999,"N_COORD97":2577594.8199999998,"ADDRESS":"和平路１０２巷３５號","OBJECTID":244089},"geometry":{"x":179304.83000000101,"y":2577594.8200000022}},{"attributes":{"ID":244094,"DIS_CODE":0,"TOWNNAME":"新營區","LI":"土庫里","LIN":"11鄰","STREET":" ","SECT":" ","MAREA":"土庫","LANE":" ","ALLEY":" ","HOUSE_NO":"９０號","E_COORD97":183225.16,"N_COORD97":2579773.7999999998,"ADDRESS":"土庫９０號","OBJECTID":244090},"geometry":{"x":183225.16000000108,"y":2579773.8000000007}},{"attributes":{"ID":244095,"DIS_CODE":0,"TOWNNAME":"新營區","LI":"姑爺里","LIN":"11鄰","STREET":" ","SECT":" ","MAREA":"挖仔","LANE":" ","ALLEY":" ","HOUSE_NO":"４３號之１７","E_COORD97":173964.19,"N_COORD97":2575485.0299999998,"ADDRESS":"挖仔４３之１７號","OBJECTID":244091},"geometry":{"x":173964.19000000227,"y":2575485.0299999993}},{"attributes":{"ID":244096,"DIS_CODE":0,"TOWNNAME":"新化區","LI":"東榮里","LIN":"24鄰","STREET":"中正路","SECT":" ","MAREA":" ","LANE":"２４４巷","ALLEY":" ","HOUSE_NO":"１７號","E_COORD97":179181.56,"N_COORD97":2547773.25,"ADDRESS":"中正路２４４巷１７號","OBJECTID":244092},"geometry":{"x":179181.55999999959,"y":2547773.2500000019}},{"attributes":{"ID":244097,"DIS_CODE":0,"TOWNNAME":"安平區","LI":"文平里","LIN":"24鄰","STREET":"建平三街","SECT":" ","MAREA":" ","LANE":"６２巷","ALLEY":" ","HOUSE_NO":"１號","E_COORD97":166155.95999999999,"N_COORD97":2542900.7799999998,"ADDRESS":"建平三街６２巷１號","OBJECTID":244093},"geometry":{"x":166155.96000000089,"y":2542900.7800000012}},{"attributes":{"ID":244098,"DIS_CODE":0,"TOWNNAME":"安平區","LI":"文平里","LIN":"24鄰","STREET":"建平三街","SECT":" ","MAREA":" ","LANE":"６２巷","ALLEY":" ","HOUSE_NO":"３號","E_COORD97":166156.69,"N_COORD97":2542906.48,"ADDRESS":"建平三街６２巷３號","OBJECTID":244094},"geometry":{"x":166156.69000000134,"y":2542906.4800000023}},{"attributes":{"ID":244099,"DIS_CODE":0,"TOWNNAME":"新化區","LI":"東榮里","LIN":"24鄰","STREET":"中正路","SECT":" ","MAREA":" ","LANE":"２００巷","ALLEY":" ","HOUSE_NO":"９號","E_COORD97":179185.69,"N_COORD97":2547694.98,"ADDRESS":"中正路２００巷９號","OBJECTID":244095},"geometry":{"x":179185.69000000134,"y":2547694.9800000004}},{"attributes":{"ID":244100,"DIS_CODE":0,"TOWNNAME":"永康區","LI":"二王里","LIN":"1鄰","STREET":"二王路","SECT":" ","MAREA":" ","LANE":"２７巷","ALLEY":" ","HOUSE_NO":"１８號","E_COORD97":173058.56315599999,"N_COORD97":2546798.3232300002,"ADDRESS":"二王路２７巷１８號","OBJECTID":244096},"geometry":{"x":173058.56315600034,"y":2546798.3232300021}},{"attributes":{"ID":244101,"DIS_CODE":0,"TOWNNAME":"永康區","LI":"網寮里","LIN":"24鄰","STREET":"永大一路","SECT":" ","MAREA":" ","LANE":"１６０巷","ALLEY":" ","HOUSE_NO":"２２號","E_COORD97":173864.48000000001,"N_COORD97":2546436.75,"ADDRESS":"永大一路１６０巷２２號","OBJECTID":244097},"geometry":{"x":173864.48000000138,"y":2546436.7500000037}},{"attributes":{"ID":244102,"DIS_CODE":0,"TOWNNAME":"東區","LI":"崇成里","LIN":"14鄰","STREET":"崇明十六街","SECT":" ","MAREA":" ","LANE":" ","ALLEY":" ","HOUSE_NO":"４３號三樓之２","E_COORD97":170705.81,"N_COORD97":2541311.6000000001,"ADDRESS":"崇明十六街４３號三樓之２","OBJECTID":244098},"geometry":{"x":170705.80999999959,"y":2541311.6000000015}},{"attributes":{"ID":244103,"DIS_CODE":0,"TOWNNAME":"東區","LI":"崇成里","LIN":"14鄰","STREET":"崇明十六街","SECT":" ","MAREA":" ","LANE":" ","ALLEY":" ","HOUSE_NO":"４３號三樓之３","E_COORD97":170705.81,"N_COORD97":2541311.6000000001,"ADDRESS":"崇明十六街４３號三樓之３","OBJECTID":244099},"geometry":{"x":170705.80999999959,"y":2541311.6000000015}},{"attributes":{"ID":244104,"DIS_CODE":0,"TOWNNAME":"新營區","LI":"南興里","LIN":"11鄰","STREET":"和平路","SECT":" ","MAREA":" ","LANE":"１０４巷","ALLEY":" ","HOUSE_NO":"３２號","E_COORD97":179311.87,"N_COORD97":2577568.2000000002,"ADDRESS":"和平路１０４巷３２號","OBJECTID":244100},"geometry":{"x":179311.87000000011,"y":2577568.2000000011}},{"attributes":{"ID":244105,"DIS_CODE":0,"TOWNNAME":"新營區","LI":"太北里","LIN":"11鄰","STREET":" ","SECT":" ","MAREA":"太子宮","LANE":" ","ALLEY":" ","HOUSE_NO":"８９之１號","E_COORD97":176029.26000000001,"N_COORD97":2577066,"ADDRESS":"太子宮８９之１號","OBJECTID":244101},"geometry":{"x":176029.25999999978,"y":2577066}},{"attributes":{"ID":244106,"DIS_CODE":0,"TOWNNAME":"東山區","LI":"青山里","LIN":"11鄰","STREET":" ","SECT":" ","MAREA":"青山","LANE":" ","ALLEY":" ","HOUSE_NO":"９３號","E_COORD97":196536.82000000001,"N_COORD97":2574510.8399999999,"ADDRESS":"青山９３號","OBJECTID":244102},"geometry":{"x":196536.82000000123,"y":2574510.8399999999}},{"attributes":{"ID":244107,"DIS_CODE":0,"TOWNNAME":"永康區","LI":"網寮里","LIN":"24鄰","STREET":"永大一路","SECT":" ","MAREA":" ","LANE":"１６０巷","ALLEY":" ","HOUSE_NO":"３２號","E_COORD97":173856.44,"N_COORD97":2546464.0899999999,"ADDRESS":"永大一路１６０巷３２號","OBJECTID":244103},"geometry":{"x":173856.44000000134,"y":2546464.0899999999}},{"attributes":{"ID":244108,"DIS_CODE":0,"TOWNNAME":"東區","LI":"崇成里","LIN":"14鄰","STREET":"崇明十六街","SECT":" ","MAREA":" ","LANE":" ","ALLEY":" ","HOUSE_NO":"４３號五樓","E_COORD97":170705.81,"N_COORD97":2541311.6000000001,"ADDRESS":"崇明十六街４３號五樓","OBJECTID":244104},"geometry":{"x":170705.80999999959,"y":2541311.6000000015}},{"attributes":{"ID":244109,"DIS_CODE":0,"TOWNNAME":"東山區","LI":"青山里","LIN":"11鄰","STREET":" ","SECT":" ","MAREA":"青山","LANE":" ","ALLEY":" ","HOUSE_NO":"９５號","E_COORD97":196301.72,"N_COORD97":2574464.4500000002,"ADDRESS":"青山９５號","OBJECTID":244105},"geometry":{"x":196301.71999999974,"y":2574464.4499999993}},{"attributes":{"ID":244110,"DIS_CODE":0,"TOWNNAME":"東山區","LI":"青山里","LIN":"11鄰","STREET":" ","SECT":" ","MAREA":"青山","LANE":" ","ALLEY":" ","HOUSE_NO":"９６號","E_COORD97":196316.85000000001,"N_COORD97":2574296.7000000002,"ADDRESS":"青山９６號","OBJECTID":244106},"geometry":{"x":196316.85000000149,"y":2574296.6999999993}},{"attributes":{"ID":244111,"DIS_CODE":0,"TOWNNAME":"東山區","LI":"青山里","LIN":"11鄰","STREET":" ","SECT":" ","MAREA":"青山","LANE":" ","ALLEY":" ","HOUSE_NO":"９７號","E_COORD97":196298.85000000001,"N_COORD97":2574299.6699999999,"ADDRESS":"青山９７號","OBJECTID":244107},"geometry":{"x":196298.85000000056,"y":2574299.6700000018}},{"attributes":{"ID":244112,"DIS_CODE":0,"TOWNNAME":"東山區","LI":"青山里","LIN":"11鄰","STREET":" ","SECT":" ","MAREA":"青山","LANE":" ","ALLEY":" ","HOUSE_NO":"９９號之１","E_COORD97":196010.5,"N_COORD97":2574434.8300000001,"ADDRESS":"青山９９號之１","OBJECTID":244108},"geometry":{"x":196010.5,"y":2574434.8300000019}},{"attributes":{"ID":244113,"DIS_CODE":0,"TOWNNAME":"東區","LI":"龍山里","LIN":"24鄰","STREET":"崇學路","SECT":" ","MAREA":" ","LANE":"２３９巷","ALLEY":" ","HOUSE_NO":"１０號","E_COORD97":170475.57000000001,"N_COORD97":2542469.3100000001,"ADDRESS":"崇學路２３９巷１０號","OBJECTID":244109},"geometry":{"x":170475.5700000003,"y":2542469.3100000005}},{"attributes":{"ID":244114,"DIS_CODE":0,"TOWNNAME":"東區","LI":"龍山里","LIN":"24鄰","STREET":"崇學路","SECT":" ","MAREA":" ","LANE":"２３９巷","ALLEY":" ","HOUSE_NO":"１２號","E_COORD97":170472.75,"N_COORD97":2542472.54,"ADDRESS":"崇學路２３９巷１２號","OBJECTID":244110},"geometry":{"x":170472.75,"y":2542472.5399999991}},{"attributes":{"ID":244115,"DIS_CODE":0,"TOWNNAME":"北區","LI":"長德里","LIN":"11鄰","STREET":"長北街","SECT":" ","MAREA":" ","LANE":"１９４巷","ALLEY":" ","HOUSE_NO":"１號","E_COORD97":168559.66,"N_COORD97":2544937.1200000001,"ADDRESS":"長北街１９４巷１號","OBJECTID":244111},"geometry":{"x":168559.66000000015,"y":2544937.1200000029}},{"attributes":{"ID":244116,"DIS_CODE":0,"TOWNNAME":"東區","LI":"龍山里","LIN":"24鄰","STREET":"崇學路","SECT":" ","MAREA":" ","LANE":"２３９巷","ALLEY":" ","HOUSE_NO":"１４號","E_COORD97":170468.85000000001,"N_COORD97":2542475.3599999999,"ADDRESS":"崇學路２３９巷１４號","OBJECTID":244112},"geometry":{"x":170468.85000000056,"y":2542475.3600000031}},{"attributes":{"ID":244117,"DIS_CODE":0,"TOWNNAME":"東山區","LI":"科里里","LIN":"11鄰","STREET":" ","SECT":" ","MAREA":"科里","LANE":" ","ALLEY":" ","HOUSE_NO":"５７號","E_COORD97":190950.14999999999,"N_COORD97":2577359.4300000002,"ADDRESS":"科里５７號","OBJECTID":244113},"geometry":{"x":190950.14999999944,"y":2577359.4300000016}},{"attributes":{"ID":244118,"DIS_CODE":0,"TOWNNAME":"東山區","LI":"科里里","LIN":"11鄰","STREET":" ","SECT":" ","MAREA":"科里","LANE":" ","ALLEY":" ","HOUSE_NO":"５８號之１","E_COORD97":191041.78,"N_COORD97":2577383.1200000001,"ADDRESS":"科里５８號之１","OBJECTID":244114},"geometry":{"x":191041.78000000026,"y":2577383.1200000029}},{"attributes":{"ID":244119,"DIS_CODE":0,"TOWNNAME":"東山區","LI":"科里里","LIN":"11鄰","STREET":" ","SECT":" ","MAREA":"科里","LANE":" ","ALLEY":" ","HOUSE_NO":"５８號之２","E_COORD97":190997.64999999999,"N_COORD97":2577376.1800000002,"ADDRESS":"科里５８號之２","OBJECTID":244115},"geometry":{"x":190997.64999999944,"y":2577376.1799999997}},{"attributes":{"ID":244120,"DIS_CODE":0,"TOWNNAME":"東山區","LI":"科里里","LIN":"11鄰","STREET":" ","SECT":" ","MAREA":"科里","LANE":" ","ALLEY":" ","HOUSE_NO":"５８號之３","E_COORD97":191037.14000000001,"N_COORD97":2577381.77,"ADDRESS":"科里５８號之３","OBJECTID":244116},"geometry":{"x":191037.13999999966,"y":2577381.7699999996}},{"attributes":{"ID":244121,"DIS_CODE":0,"TOWNNAME":"東山區","LI":"科里里","LIN":"11鄰","STREET":" ","SECT":" ","MAREA":"科里","LANE":" ","ALLEY":" ","HOUSE_NO":"６２號","E_COORD97":191060.48999999999,"N_COORD97":2577320.8500000001,"ADDRESS":"科里６２號","OBJECTID":244117},"geometry":{"x":191060.49000000115,"y":2577320.8499999996}},{"attributes":{"ID":244122,"DIS_CODE":0,"TOWNNAME":"東山區","LI":"科里里","LIN":"11鄰","STREET":" ","SECT":" ","MAREA":"科里","LANE":" ","ALLEY":" ","HOUSE_NO":"６３號","E_COORD97":191077.79000000001,"N_COORD97":2577345.3100000001,"ADDRESS":"科里６３號","OBJECTID":244118},"geometry":{"x":191077.7900000019,"y":2577345.3100000005}},{"attributes":{"ID":244123,"DIS_CODE":0,"TOWNNAME":"東山區","LI":"科里里","LIN":"11鄰","STREET":" ","SECT":" ","MAREA":"科里","LANE":" ","ALLEY":" ","HOUSE_NO":"６４號","E_COORD97":191064.84,"N_COORD97":2577391.7000000002,"ADDRESS":"科里６４號","OBJECTID":244119},"geometry":{"x":191064.83999999985,"y":2577391.7000000011}},{"attributes":{"ID":244124,"DIS_CODE":0,"TOWNNAME":"東山區","LI":"科里里","LIN":"11鄰","STREET":" ","SECT":" ","MAREA":"科里","LANE":" ","ALLEY":" ","HOUSE_NO":"６５號","E_COORD97":191083.95000000001,"N_COORD97":2577402.9700000002,"ADDRESS":"科里６５號","OBJECTID":244120},"geometry":{"x":191083.95000000112,"y":2577402.9700000007}},{"attributes":{"ID":244125,"DIS_CODE":0,"TOWNNAME":"東山區","LI":"科里里","LIN":"11鄰","STREET":" ","SECT":" ","MAREA":"科里","LANE":" ","ALLEY":" ","HOUSE_NO":"６６號","E_COORD97":191086.60000000001,"N_COORD97":2577375.75,"ADDRESS":"科里６６號","OBJECTID":244121},"geometry":{"x":191086.59999999963,"y":2577375.75}},{"attributes":{"ID":244126,"DIS_CODE":0,"TOWNNAME":"麻豆區","LI":"埤頭里","LIN":"11鄰","STREET":" ","SECT":" ","MAREA":"埤頭","LANE":" ","ALLEY":" ","HOUSE_NO":"９１號之１７","E_COORD97":170698.64999999999,"N_COORD97":2565979.6499999999,"ADDRESS":"埤頭９１號之１７","OBJECTID":244122},"geometry":{"x":170698.6500000013,"y":2565979.6500000041}},{"attributes":{"ID":244127,"DIS_CODE":0,"TOWNNAME":"麻豆區","LI":"埤頭里","LIN":"11鄰","STREET":" ","SECT":" ","MAREA":"埤頭","LANE":" ","ALLEY":" ","HOUSE_NO":"９１號之１８","E_COORD97":170723.82000000001,"N_COORD97":2565910.71,"ADDRESS":"埤頭９１號之１８","OBJECTID":244123},"geometry":{"x":170723.82000000216,"y":2565910.7100000009}},{"attributes":{"ID":244128,"DIS_CODE":0,"TOWNNAME":"麻豆區","LI":"埤頭里","LIN":"11鄰","STREET":" ","SECT":" ","MAREA":"埤頭","LANE":" ","ALLEY":" ","HOUSE_NO":"９１號之２２","E_COORD97":170711.97,"N_COORD97":2565917.0699999998,"ADDRESS":"埤頭９１號之２２","OBJECTID":244124},"geometry":{"x":170711.9700000016,"y":2565917.0700000022}},{"attributes":{"ID":244129,"DIS_CODE":0,"TOWNNAME":"麻豆區","LI":"埤頭里","LIN":"11鄰","STREET":" ","SECT":" ","MAREA":"埤頭","LANE":" ","ALLEY":" ","HOUSE_NO":"９１號之２","E_COORD97":170740.39999999999,"N_COORD97":2565951.7400000002,"ADDRESS":"埤頭９１號之２","OBJECTID":244125},"geometry":{"x":170740.4000000013,"y":2565951.7400000039}},{"attributes":{"ID":244130,"DIS_CODE":0,"TOWNNAME":"麻豆區","LI":"埤頭里","LIN":"11鄰","STREET":" ","SECT":" ","MAREA":"埤頭","LANE":" ","ALLEY":" ","HOUSE_NO":"９１號","E_COORD97":170732.12,"N_COORD97":2565948.4100000001,"ADDRESS":"埤頭９１號","OBJECTID":244126},"geometry":{"x":170732.12000000104,"y":2565948.410000002}},{"attributes":{"ID":244131,"DIS_CODE":0,"TOWNNAME":"麻豆區","LI":"埤頭里","LIN":"11鄰","STREET":" ","SECT":" ","MAREA":"埤頭","LANE":" ","ALLEY":" ","HOUSE_NO":"９３號","E_COORD97":170632.95000000001,"N_COORD97":2565949.9700000002,"ADDRESS":"埤頭９３號","OBJECTID":244127},"geometry":{"x":170632.95000000205,"y":2565949.9700000007}},{"attributes":{"ID":244132,"DIS_CODE":0,"TOWNNAME":"麻豆區","LI":"埤頭里","LIN":"11鄰","STREET":" ","SECT":" ","MAREA":"埤頭","LANE":" ","ALLEY":" ","HOUSE_NO":"９４號","E_COORD97":170635.75,"N_COORD97":2565931.2599999998,"ADDRESS":"埤頭９４號","OBJECTID":244128},"geometry":{"x":170635.75000000186,"y":2565931.2600000016}},{"attributes":{"ID":244133,"DIS_CODE":0,"TOWNNAME":"麻豆區","LI":"埤頭里","LIN":"11鄰","STREET":" ","SECT":" ","MAREA":"埤頭","LANE":" ","ALLEY":" ","HOUSE_NO":"９５號","E_COORD97":170590.53,"N_COORD97":2565926.6299999999,"ADDRESS":"埤頭９５號","OBJECTID":244129},"geometry":{"x":170590.53000000119,"y":2565926.629999999}},{"attributes":{"ID":244134,"DIS_CODE":0,"TOWNNAME":"麻豆區","LI":"埤頭里","LIN":"11鄰","STREET":" ","SECT":" ","MAREA":"埤頭","LANE":" ","ALLEY":" ","HOUSE_NO":"９７號之２","E_COORD97":170448.95999999999,"N_COORD97":2565968.75,"ADDRESS":"埤頭９７號之２","OBJECTID":244130},"geometry":{"x":170448.95999999996,"y":2565968.7500000019}},{"attributes":{"ID":244135,"DIS_CODE":0,"TOWNNAME":"麻豆區","LI":"興農里","LIN":"1鄰","STREET":"仁愛路","SECT":" ","MAREA":" ","LANE":" ","ALLEY":" ","HOUSE_NO":"４１號","E_COORD97":172516.04000000001,"N_COORD97":2564695.1200000001,"ADDRESS":"仁愛路４１號","OBJECTID":244131},"geometry":{"x":172516.04000000097,"y":2564695.120000001}},{"attributes":{"ID":244136,"DIS_CODE":0,"TOWNNAME":"鹽水區","LI":"竹埔里","LIN":"11鄰","STREET":" ","SECT":" ","MAREA":"天保厝","LANE":" ","ALLEY":" ","HOUSE_NO":"１５號","E_COORD97":171406.54000000001,"N_COORD97":2573918.8799999999,"ADDRESS":"天保厝１５號","OBJECTID":244132},"geometry":{"x":171406.54000000004,"y":2573918.879999999}},{"attributes":{"ID":244137,"DIS_CODE":0,"TOWNNAME":"東區","LI":"龍山里","LIN":"24鄰","STREET":"崇學路","SECT":" ","MAREA":" ","LANE":"２３９巷","ALLEY":" ","HOUSE_NO":"１６號","E_COORD97":170466.20000000001,"N_COORD97":2542477.9300000002,"ADDRESS":"崇學路２３９巷１６號","OBJECTID":244133},"geometry":{"x":170466.20000000019,"y":2542477.9299999997}},{"attributes":{"ID":244138,"DIS_CODE":0,"TOWNNAME":"鹽水區","LI":"竹埔里","LIN":"11鄰","STREET":" ","SECT":" ","MAREA":"天保厝","LANE":" ","ALLEY":" ","HOUSE_NO":"１６號","E_COORD97":171411.60000000001,"N_COORD97":2573934.46,"ADDRESS":"天保厝１６號","OBJECTID":244134},"geometry":{"x":171411.60000000056,"y":2573934.4600000009}},{"attributes":{"ID":244139,"DIS_CODE":0,"TOWNNAME":"鹽水區","LI":"竹埔里","LIN":"11鄰","STREET":" ","SECT":" ","MAREA":"天保厝","LANE":" ","ALLEY":" ","HOUSE_NO":"１７號","E_COORD97":171397.91,"N_COORD97":2573932.6800000002,"ADDRESS":"天保厝１７號","OBJECTID":244135},"geometry":{"x":171397.91000000108,"y":2573932.6800000034}},{"attributes":{"ID":244140,"DIS_CODE":0,"TOWNNAME":"鹽水區","LI":"竹埔里","LIN":"11鄰","STREET":" ","SECT":" ","MAREA":"天保厝","LANE":" ","ALLEY":" ","HOUSE_NO":"１８號","E_COORD97":171411.60000000001,"N_COORD97":2573957.3100000001,"ADDRESS":"天保厝１８號","OBJECTID":244136},"geometry":{"x":171411.60000000056,"y":2573957.3100000024}},{"attributes":{"ID":244141,"DIS_CODE":0,"TOWNNAME":"關廟區","LI":"五甲里","LIN":"11鄰","STREET":"五甲路","SECT":" ","MAREA":" ","LANE":"２１０巷","ALLEY":" ","HOUSE_NO":"１１號","E_COORD97":180983.42000000001,"N_COORD97":2538926.25,"ADDRESS":"五甲路２１０巷１１號","OBJECTID":244137},"geometry":{"x":180983.41999999993,"y":2538926.25}},{"attributes":{"ID":244142,"DIS_CODE":0,"TOWNNAME":"關廟區","LI":"五甲里","LIN":"11鄰","STREET":"五甲路","SECT":" ","MAREA":" ","LANE":"２１０巷","ALLEY":" ","HOUSE_NO":"１３號","E_COORD97":180978.42000000001,"N_COORD97":2538924.25,"ADDRESS":"五甲路２１０巷１３號","OBJECTID":244138},"geometry":{"x":180978.41999999899,"y":2538924.2500000019}},{"attributes":{"ID":244143,"DIS_CODE":0,"TOWNNAME":"鹽水區","LI":"竹埔里","LIN":"11鄰","STREET":" ","SECT":" ","MAREA":"天保厝","LANE":" ","ALLEY":" ","HOUSE_NO":"１之１號","E_COORD97":171663.32000000001,"N_COORD97":2574119.6400000001,"ADDRESS":"天保厝１之１號","OBJECTID":244139},"geometry":{"x":171663.32000000123,"y":2574119.6400000006}},{"attributes":{"ID":244144,"DIS_CODE":0,"TOWNNAME":"東區","LI":"龍山里","LIN":"24鄰","STREET":"崇學路","SECT":" ","MAREA":" ","LANE":"２３９巷","ALLEY":" ","HOUSE_NO":"１８號","E_COORD97":170462.29000000001,"N_COORD97":2542480.75,"ADDRESS":"崇學路２３９巷１８號","OBJECTID":244140},"geometry":{"x":170462.29000000004,"y":2542480.7500000019}},{"attributes":{"ID":244145,"DIS_CODE":0,"TOWNNAME":"鹽水區","LI":"竹埔里","LIN":"11鄰","STREET":" ","SECT":" ","MAREA":"天保厝","LANE":" ","ALLEY":" ","HOUSE_NO":"１號","E_COORD97":171495.29000000001,"N_COORD97":2574028.27,"ADDRESS":"天保厝１號","OBJECTID":244141},"geometry":{"x":171495.29000000097,"y":2574028.2700000014}},{"attributes":{"ID":244146,"DIS_CODE":0,"TOWNNAME":"東區","LI":"龍山里","LIN":"24鄰","STREET":"崇學路","SECT":" ","MAREA":" ","LANE":"２３９巷","ALLEY":" ","HOUSE_NO":"２０號","E_COORD97":170459.06,"N_COORD97":2542483.4900000002,"ADDRESS":"崇學路２３９巷２０號","OBJECTID":244142},"geometry":{"x":170459.06000000052,"y":2542483.4900000021}},{"attributes":{"ID":244147,"DIS_CODE":0,"TOWNNAME":"鹽水區","LI":"竹埔里","LIN":"11鄰","STREET":" ","SECT":" ","MAREA":"天保厝","LANE":" ","ALLEY":" ","HOUSE_NO":"２號","E_COORD97":171480.23000000001,"N_COORD97":2573965.98,"ADDRESS":"天保厝２號","OBJECTID":244143},"geometry":{"x":171480.23000000045,"y":2573965.9800000023}},{"attributes":{"ID":244148,"DIS_CODE":0,"TOWNNAME":"鹽水區","LI":"竹埔里","LIN":"11鄰","STREET":" ","SECT":" ","MAREA":"天保厝","LANE":" ","ALLEY":" ","HOUSE_NO":"３號","E_COORD97":171464.98999999999,"N_COORD97":2573918.4700000002,"ADDRESS":"天保厝３號","OBJECTID":244144},"geometry":{"x":171464.99000000209,"y":2573918.4700000025}},{"attributes":{"ID":244149,"DIS_CODE":0,"TOWNNAME":"鹽水區","LI":"竹埔里","LIN":"11鄰","STREET":" ","SECT":" ","MAREA":"天保厝","LANE":" ","ALLEY":" ","HOUSE_NO":"５號之２","E_COORD97":171503.39000000001,"N_COORD97":2573890.4900000002,"ADDRESS":"天保厝５號之２","OBJECTID":244145},"geometry":{"x":171503.38999999966,"y":2573890.4900000039}},{"attributes":{"ID":244150,"DIS_CODE":0,"TOWNNAME":"鹽水區","LI":"竹埔里","LIN":"11鄰","STREET":" ","SECT":" ","MAREA":"天保厝","LANE":" ","ALLEY":" ","HOUSE_NO":"５號","E_COORD97":171482.76999999999,"N_COORD97":2573909.1499999999,"ADDRESS":"天保厝５號","OBJECTID":244146},"geometry":{"x":171482.77000000142,"y":2573909.1500000004}},{"attributes":{"ID":244151,"DIS_CODE":0,"TOWNNAME":"東區","LI":"龍山里","LIN":"24鄰","STREET":"崇學路","SECT":" ","MAREA":" ","LANE":"２３９巷","ALLEY":" ","HOUSE_NO":"２２號","E_COORD97":170455.23999999999,"N_COORD97":2542486.8900000001,"ADDRESS":"崇學路２３９巷２２號","OBJECTID":244147},"geometry":{"x":170455.24000000115,"y":2542486.8900000025}},{"attributes":{"ID":244152,"DIS_CODE":0,"TOWNNAME":"東區","LI":"龍山里","LIN":"24鄰","STREET":"崇學路","SECT":" ","MAREA":" ","LANE":"２３９巷","ALLEY":" ","HOUSE_NO":"２４號","E_COORD97":170451.59,"N_COORD97":2542489.29,"ADDRESS":"崇學路２３９巷２４號","OBJECTID":244148},"geometry":{"x":170451.58999999985,"y":2542489.290000001}},{"attributes":{"ID":244153,"DIS_CODE":0,"TOWNNAME":"東區","LI":"龍山里","LIN":"24鄰","STREET":"崇學路","SECT":" ","MAREA":" ","LANE":"２３９巷","ALLEY":" ","HOUSE_NO":"２６號","E_COORD97":170448.67999999999,"N_COORD97":2542491.4500000002,"ADDRESS":"崇學路２３９巷２６號","OBJECTID":244149},"geometry":{"x":170448.6799999997,"y":2542491.450000003}},{"attributes":{"ID":244154,"DIS_CODE":0,"TOWNNAME":"東區","LI":"龍山里","LIN":"24鄰","STREET":"崇學路","SECT":" ","MAREA":" ","LANE":"２３９巷","ALLEY":" ","HOUSE_NO":"２８號","E_COORD97":170445.35999999999,"N_COORD97":2542494.9300000002,"ADDRESS":"崇學路２３９巷２８號","OBJECTID":244150},"geometry":{"x":170445.3599999994,"y":2542494.9299999997}},{"attributes":{"ID":244155,"DIS_CODE":0,"TOWNNAME":"東區","LI":"龍山里","LIN":"24鄰","STREET":"崇學路","SECT":" ","MAREA":" ","LANE":"２３９巷","ALLEY":" ","HOUSE_NO":"３０號","E_COORD97":170440.97,"N_COORD97":2542497.1699999999,"ADDRESS":"崇學路２３９巷３０號","OBJECTID":244151},"geometry":{"x":170440.97000000067,"y":2542497.1699999981}},{"attributes":{"ID":244156,"DIS_CODE":0,"TOWNNAME":"東區","LI":"龍山里","LIN":"24鄰","STREET":"崇學路","SECT":" ","MAREA":" ","LANE":"２３９巷","ALLEY":" ","HOUSE_NO":"３２號","E_COORD97":170438.31,"N_COORD97":2542500.4900000002,"ADDRESS":"崇學路２３９巷３２號","OBJECTID":244152},"geometry":{"x":170438.31000000145,"y":2542500.4900000021}},{"attributes":{"ID":244157,"DIS_CODE":0,"TOWNNAME":"東區","LI":"龍山里","LIN":"24鄰","STREET":"崇學路","SECT":" ","MAREA":" ","LANE":"２３９巷","ALLEY":" ","HOUSE_NO":"３４號","E_COORD97":170434.91,"N_COORD97":2542504.7200000002,"ADDRESS":"崇學路２３９巷３４號","OBJECTID":244153},"geometry":{"x":170434.91000000108,"y":2542504.7200000044}},{"attributes":{"ID":244158,"DIS_CODE":0,"TOWNNAME":"東區","LI":"龍山里","LIN":"24鄰","STREET":"崇學路","SECT":" ","MAREA":" ","LANE":"２３９巷","ALLEY":" ","HOUSE_NO":"３６號","E_COORD97":170423.89999999999,"N_COORD97":2542504.2400000002,"ADDRESS":"崇學路２３９巷３６號","OBJECTID":244154},"geometry":{"x":170423.9000000013,"y":2542504.2400000021}},{"attributes":{"ID":244159,"DIS_CODE":0,"TOWNNAME":"東區","LI":"崇成里","LIN":"14鄰","STREET":"崇明十六街","SECT":" ","MAREA":" ","LANE":" ","ALLEY":" ","HOUSE_NO":"４３號五樓之１","E_COORD97":170705.81,"N_COORD97":2541311.6000000001,"ADDRESS":"崇明十六街４３號五樓之１","OBJECTID":244155},"geometry":{"x":170705.80999999959,"y":2541311.6000000015}},{"attributes":{"ID":244160,"DIS_CODE":0,"TOWNNAME":"東區","LI":"崇成里","LIN":"14鄰","STREET":"崇明十六街","SECT":" ","MAREA":" ","LANE":" ","ALLEY":" ","HOUSE_NO":"４３號五樓之２","E_COORD97":170705.81,"N_COORD97":2541311.6000000001,"ADDRESS":"崇明十六街４３號五樓之２","OBJECTID":244156},"geometry":{"x":170705.80999999959,"y":2541311.6000000015}},{"attributes":{"ID":244161,"DIS_CODE":0,"TOWNNAME":"關廟區","LI":"埤頭里","LIN":"11鄰","STREET":"關新路","SECT":"二段","MAREA":" ","LANE":"１２８巷","ALLEY":"８１弄","HOUSE_NO":"３６號","E_COORD97":179296.22,"N_COORD97":2544441.2999999998,"ADDRESS":"關新路二段１２８巷８１弄３６號","OBJECTID":244157},"geometry":{"x":179296.21999999974,"y":2544441.3000000026}},{"attributes":{"ID":244162,"DIS_CODE":0,"TOWNNAME":"關廟區","LI":"埤頭里","LIN":"11鄰","STREET":"關新路","SECT":"二段","MAREA":" ","LANE":"２７５巷","ALLEY":" ","HOUSE_NO":"１０１號","E_COORD97":178881.37,"N_COORD97":2544783.2999999998,"ADDRESS":"關新路二段２７５巷１０１號","OBJECTID":244158},"geometry":{"x":178881.37000000011,"y":2544783.3000000026}},{"attributes":{"ID":244163,"DIS_CODE":0,"TOWNNAME":"關廟區","LI":"東勢里","LIN":"11鄰","STREET":"旺萊路","SECT":" ","MAREA":" ","LANE":"３０６巷","ALLEY":" ","HOUSE_NO":"３６號","E_COORD97":182078.89000000001,"N_COORD97":2539454.25,"ADDRESS":"旺萊路３０６巷３６號","OBJECTID":244159},"geometry":{"x":182078.8900000006,"y":2539454.25}},{"attributes":{"ID":244164,"DIS_CODE":0,"TOWNNAME":"關廟區","LI":"埤頭里","LIN":"11鄰","STREET":"關新路","SECT":"二段","MAREA":" ","LANE":"２９８巷","ALLEY":" ","HOUSE_NO":"６２號","E_COORD97":179231.47,"N_COORD97":2544582.2999999998,"ADDRESS":"關新路二段２９８巷６２號","OBJECTID":244160},"geometry":{"x":179231.46999999974,"y":2544582.3000000045}},{"attributes":{"ID":244165,"DIS_CODE":0,"TOWNNAME":"關廟區","LI":"布袋里","LIN":"11鄰","STREET":"南雄南路","SECT":" ","MAREA":" ","LANE":"８５２巷","ALLEY":" ","HOUSE_NO":"３３２號","E_COORD97":181765.79000000001,"N_COORD97":2533649.2999999998,"ADDRESS":"南雄南路８５２巷３３２號","OBJECTID":244161},"geometry":{"x":181765.79000000004,"y":2533649.3000000026}},{"attributes":{"ID":244166,"DIS_CODE":0,"TOWNNAME":"關廟區","LI":"東勢里","LIN":"11鄰","STREET":"東榮街","SECT":" ","MAREA":" ","LANE":"５５巷","ALLEY":" ","HOUSE_NO":"９號","E_COORD97":182043.01999999999,"N_COORD97":2539382.25,"ADDRESS":"東榮街５５巷９號","OBJECTID":244162},"geometry":{"x":182043.01999999955,"y":2539382.2500000019}},{"attributes":{"ID":244167,"DIS_CODE":0,"TOWNNAME":"關廟區","LI":"埤頭里","LIN":"11鄰","STREET":"關新路","SECT":"二段","MAREA":" ","LANE":"１０３巷","ALLEY":" ","HOUSE_NO":"２８號","E_COORD97":179017.92000000001,"N_COORD97":2544359.2999999998,"ADDRESS":"關新路二段１０３巷２８號","OBJECTID":244163},"geometry":{"x":179017.92000000086,"y":2544359.3000000026}},{"attributes":{"ID":244168,"DIS_CODE":0,"TOWNNAME":"北區","LI":"玉皇里","LIN":"11鄰","STREET":"佑民街","SECT":" ","MAREA":" ","LANE":"７８巷","ALLEY":" ","HOUSE_NO":"１號","E_COORD97":168705.10999999999,"N_COORD97":2544465.54,"ADDRESS":"佑民街７８巷１號","OBJECTID":244164},"geometry":{"x":168705.11000000127,"y":2544465.5399999991}},{"attributes":{"ID":244169,"DIS_CODE":0,"TOWNNAME":"關廟區","LI":"東勢里","LIN":"11鄰","STREET":"旺萊路","SECT":" ","MAREA":" ","LANE":"３５６巷","ALLEY":" ","HOUSE_NO":"１２號","E_COORD97":182083.89000000001,"N_COORD97":2539470.25,"ADDRESS":"旺萊路３５６巷１２號","OBJECTID":244165},"geometry":{"x":182083.8900000006,"y":2539470.2500000019}},{"attributes":{"ID":244170,"DIS_CODE":0,"TOWNNAME":"關廟區","LI":"關廟里","LIN":"11鄰","STREET":"大富街","SECT":" ","MAREA":" ","LANE":"３０１巷","ALLEY":" ","HOUSE_NO":"１３號","E_COORD97":180996.17000000001,"N_COORD97":2539702.7799999998,"ADDRESS":"大富街３０１巷１３號","OBJECTID":244166},"geometry":{"x":180996.17000000086,"y":2539702.7800000012}},{"attributes":{"ID":244171,"DIS_CODE":0,"TOWNNAME":"東區","LI":"龍山里","LIN":"24鄰","STREET":"崇學路","SECT":" ","MAREA":" ","LANE":"２３９巷","ALLEY":" ","HOUSE_NO":"３８號","E_COORD97":170418.35999999999,"N_COORD97":2542511.8799999999,"ADDRESS":"崇學路２３９巷３８號","OBJECTID":244167},"geometry":{"x":170418.3600000022,"y":2542511.8800000027}},{"attributes":{"ID":244172,"DIS_CODE":0,"TOWNNAME":"東區","LI":"龍山里","LIN":"24鄰","STREET":"崇學路","SECT":" ","MAREA":" ","LANE":"２３９巷","ALLEY":" ","HOUSE_NO":"４０號","E_COORD97":170414.14000000001,"N_COORD97":2542514.7799999998,"ADDRESS":"崇學路２３９巷４０號","OBJECTID":244168},"geometry":{"x":170414.14000000153,"y":2542514.7799999993}},{"attributes":{"ID":244173,"DIS_CODE":0,"TOWNNAME":"東區","LI":"龍山里","LIN":"24鄰","STREET":"崇學路","SECT":" ","MAREA":" ","LANE":"２３９巷","ALLEY":" ","HOUSE_NO":"４號","E_COORD97":170485.94,"N_COORD97":2542459.27,"ADDRESS":"崇學路２３９巷４號","OBJECTID":244169},"geometry":{"x":170485.94000000134,"y":2542459.2700000014}},{"attributes":{"ID":244174,"DIS_CODE":0,"TOWNNAME":"東區","LI":"崇成里","LIN":"14鄰","STREET":"崇明十六街","SECT":" ","MAREA":" ","LANE":" ","ALLEY":" ","HOUSE_NO":"４３號五樓之３","E_COORD97":170705.81,"N_COORD97":2541311.6000000001,"ADDRESS":"崇明十六街４３號五樓之３","OBJECTID":244170},"geometry":{"x":170705.80999999959,"y":2541311.6000000015}},{"attributes":{"ID":244175,"DIS_CODE":0,"TOWNNAME":"東區","LI":"崇成里","LIN":"14鄰","STREET":"崇明十六街","SECT":" ","MAREA":" ","LANE":" ","ALLEY":" ","HOUSE_NO":"４３號六樓","E_COORD97":170705.81,"N_COORD97":2541311.6000000001,"ADDRESS":"崇明十六街４３號六樓","OBJECTID":244171},"geometry":{"x":170705.80999999959,"y":2541311.6000000015}},{"attributes":{"ID":244176,"DIS_CODE":0,"TOWNNAME":"東區","LI":"崇成里","LIN":"14鄰","STREET":"崇明十六街","SECT":" ","MAREA":" ","LANE":" ","ALLEY":" ","HOUSE_NO":"４３號六樓之１","E_COORD97":170705.81,"N_COORD97":2541311.6000000001,"ADDRESS":"崇明十六街４３號六樓之１","OBJECTID":244172},"geometry":{"x":170705.80999999959,"y":2541311.6000000015}},{"attributes":{"ID":244177,"DIS_CODE":0,"TOWNNAME":"佳里區","LI":"忠仁里","LIN":"14鄰","STREET":"佳東路","SECT":" ","MAREA":" ","LANE":" ","ALLEY":" ","HOUSE_NO":"２５９號","E_COORD97":166370.07999999999,"N_COORD97":2562041.9100000001,"ADDRESS":"佳東路２５９號","OBJECTID":244173},"geometry":{"x":166370.07999999914,"y":2562041.910000002}},{"attributes":{"ID":244178,"DIS_CODE":0,"TOWNNAME":"東區","LI":"崇成里","LIN":"14鄰","STREET":"崇明十六街","SECT":" ","MAREA":" ","LANE":" ","ALLEY":" ","HOUSE_NO":"４３號六樓之２","E_COORD97":170705.81,"N_COORD97":2541311.6000000001,"ADDRESS":"崇明十六街４３號六樓之２","OBJECTID":244174},"geometry":{"x":170705.80999999959,"y":2541311.6000000015}},{"attributes":{"ID":244179,"DIS_CODE":0,"TOWNNAME":"東區","LI":"崇成里","LIN":"14鄰","STREET":"崇明十六街","SECT":" ","MAREA":" ","LANE":" ","ALLEY":" ","HOUSE_NO":"４３號六樓之３","E_COORD97":170705.81,"N_COORD97":2541311.6000000001,"ADDRESS":"崇明十六街４３號六樓之３","OBJECTID":244175},"geometry":{"x":170705.80999999959,"y":2541311.6000000015}},{"attributes":{"ID":244180,"DIS_CODE":0,"TOWNNAME":"東區","LI":"崇成里","LIN":"14鄰","STREET":"崇明十六街","SECT":" ","MAREA":" ","LANE":" ","ALLEY":" ","HOUSE_NO":"４３號四樓","E_COORD97":170705.81,"N_COORD97":2541311.6000000001,"ADDRESS":"崇明十六街４３號四樓","OBJECTID":244176},"geometry":{"x":170705.80999999959,"y":2541311.6000000015}},{"attributes":{"ID":244181,"DIS_CODE":0,"TOWNNAME":"東區","LI":"崇成里","LIN":"14鄰","STREET":"崇明十六街","SECT":" ","MAREA":" ","LANE":" ","ALLEY":" ","HOUSE_NO":"４３號四樓之１","E_COORD97":170705.81,"N_COORD97":2541311.6000000001,"ADDRESS":"崇明十六街４３號四樓之１","OBJECTID":244177},"geometry":{"x":170705.80999999959,"y":2541311.6000000015}},{"attributes":{"ID":244182,"DIS_CODE":0,"TOWNNAME":"東區","LI":"崇成里","LIN":"14鄰","STREET":"崇明十六街","SECT":" ","MAREA":" ","LANE":" ","ALLEY":" ","HOUSE_NO":"４３號四樓之２","E_COORD97":170705.81,"N_COORD97":2541311.6000000001,"ADDRESS":"崇明十六街４３號四樓之２","OBJECTID":244178},"geometry":{"x":170705.80999999959,"y":2541311.6000000015}},{"attributes":{"ID":244183,"DIS_CODE":0,"TOWNNAME":"關廟區","LI":"松腳里","LIN":"11鄰","STREET":"和平路","SECT":" ","MAREA":" ","LANE":"１８６巷","ALLEY":" ","HOUSE_NO":"１號","E_COORD97":181730.64000000001,"N_COORD97":2539664.25,"ADDRESS":"和平路１８６巷１號","OBJECTID":244179},"geometry":{"x":181730.63999999966,"y":2539664.25}},{"attributes":{"ID":244184,"DIS_CODE":0,"TOWNNAME":"關廟區","LI":"松腳里","LIN":"11鄰","STREET":"東興路","SECT":" ","MAREA":" ","LANE":"２２９巷","ALLEY":" ","HOUSE_NO":"１號","E_COORD97":181795.17000000001,"N_COORD97":2539585.2400000002,"ADDRESS":"東興路２２９巷１號","OBJECTID":244180},"geometry":{"x":181795.16999999993,"y":2539585.2400000021}},{"attributes":{"ID":244185,"DIS_CODE":0,"TOWNNAME":"關廟區","LI":"埤頭里","LIN":"11鄰","STREET":"關新路","SECT":"二段","MAREA":" ","LANE":"２９８巷","ALLEY":" ","HOUSE_NO":"１１８號","E_COORD97":179381.47,"N_COORD97":2544627.2999999998,"ADDRESS":"關新路二段２９８巷１１８號","OBJECTID":244181},"geometry":{"x":179381.47000000067,"y":2544627.3000000026}},{"attributes":{"ID":244186,"DIS_CODE":0,"TOWNNAME":"中西區","LI":"郡西里","LIN":"13鄰","STREET":"保安路","SECT":" ","MAREA":" ","LANE":"１２５巷","ALLEY":" ","HOUSE_NO":"８號","E_COORD97":167446.35000000001,"N_COORD97":2543434.9300000002,"ADDRESS":"保安路１２５巷８號","OBJECTID":244182},"geometry":{"x":167446.35000000056,"y":2543434.9300000016}},{"attributes":{"ID":244187,"DIS_CODE":0,"TOWNNAME":"東區","LI":"龍山里","LIN":"24鄰","STREET":"崇學路","SECT":" ","MAREA":" ","LANE":"２３９巷","ALLEY":" ","HOUSE_NO":"６號","E_COORD97":170482.70999999999,"N_COORD97":2542463.3399999999,"ADDRESS":"崇學路２３９巷６號","OBJECTID":244183},"geometry":{"x":170482.70999999996,"y":2542463.3400000017}},{"attributes":{"ID":244188,"DIS_CODE":0,"TOWNNAME":"東區","LI":"龍山里","LIN":"24鄰","STREET":"崇學路","SECT":" ","MAREA":" ","LANE":"２３９巷","ALLEY":" ","HOUSE_NO":"８號","E_COORD97":170479.89000000001,"N_COORD97":2542465.9900000002,"ADDRESS":"崇學路２３９巷８號","OBJECTID":244184},"geometry":{"x":170479.88999999966,"y":2542465.9900000021}},{"attributes":{"ID":244189,"DIS_CODE":0,"TOWNNAME":"東區","LI":"龍山里","LIN":"24鄰","STREET":"崇學路","SECT":" ","MAREA":" ","LANE":"２６１巷","ALLEY":" ","HOUSE_NO":"２７號","E_COORD97":170452.5,"N_COORD97":2542509.8199999998,"ADDRESS":"崇學路２６１巷２７號","OBJECTID":244185},"geometry":{"x":170452.5,"y":2542509.8200000003}},{"attributes":{"ID":244190,"DIS_CODE":0,"TOWNNAME":"北區","LI":"振興里","LIN":"18鄰","STREET":"開元路","SECT":" ","MAREA":" ","LANE":"２１２巷","ALLEY":" ","HOUSE_NO":"１９號","E_COORD97":170459.91,"N_COORD97":2545069.3599999999,"ADDRESS":"開元路２１２巷１９號","OBJECTID":244186},"geometry":{"x":170459.91000000015,"y":2545069.3600000013}},{"attributes":{"ID":244191,"DIS_CODE":0,"TOWNNAME":"永康區","LI":"西橋里","LIN":"24鄰","STREET":"大橋三街","SECT":" ","MAREA":" ","LANE":"５７巷","ALLEY":" ","HOUSE_NO":"１６號","E_COORD97":170566.32000000001,"N_COORD97":2546557.25,"ADDRESS":"大橋三街５７巷１６號","OBJECTID":244187},"geometry":{"x":170566.32000000123,"y":2546557.25}},{"attributes":{"ID":244192,"DIS_CODE":0,"TOWNNAME":"永康區","LI":"西橋里","LIN":"24鄰","STREET":"大橋三街","SECT":" ","MAREA":" ","LANE":"５７巷","ALLEY":" ","HOUSE_NO":"６號","E_COORD97":170581.48000000001,"N_COORD97":2546543.5,"ADDRESS":"大橋三街５７巷６號","OBJECTID":244188},"geometry":{"x":170581.48000000045,"y":2546543.5000000037}},{"attributes":{"ID":244193,"DIS_CODE":0,"TOWNNAME":"東區","LI":"崇成里","LIN":"14鄰","STREET":"崇明十六街","SECT":" ","MAREA":" ","LANE":" ","ALLEY":" ","HOUSE_NO":"４３號四樓之３","E_COORD97":170705.81,"N_COORD97":2541311.6000000001,"ADDRESS":"崇明十六街４３號四樓之３","OBJECTID":244189},"geometry":{"x":170705.80999999959,"y":2541311.6000000015}},{"attributes":{"ID":244194,"DIS_CODE":0,"TOWNNAME":"東區","LI":"崇成里","LIN":"14鄰","STREET":"崇明十六街","SECT":" ","MAREA":" ","LANE":" ","ALLEY":" ","HOUSE_NO":"４９號二樓","E_COORD97":170698.72,"N_COORD97":2541311.5099999998,"ADDRESS":"崇明十六街４９號二樓","OBJECTID":244190},"geometry":{"x":170698.72000000067,"y":2541311.5100000035}},{"attributes":{"ID":244195,"DIS_CODE":0,"TOWNNAME":"東區","LI":"崇成里","LIN":"14鄰","STREET":"崇明十六街","SECT":" ","MAREA":" ","LANE":" ","ALLEY":" ","HOUSE_NO":"５１號二樓","E_COORD97":170708.56,"N_COORD97":2541317.0899999999,"ADDRESS":"崇明十六街５１號二樓","OBJECTID":244191},"geometry":{"x":170708.56000000052,"y":2541317.0899999999}},{"attributes":{"ID":244196,"DIS_CODE":0,"TOWNNAME":"永康區","LI":"\u25A0行里","LIN":"14鄰","STREET":"中正六街","SECT":" ","MAREA":" ","LANE":" ","ALLEY":" ","HOUSE_NO":"１７５號五樓之５","E_COORD97":171858.34,"N_COORD97":2548861.5600000001,"ADDRESS":"中正六街１７５號五樓之５","OBJECTID":244192},"geometry":{"x":171858.33999999985,"y":2548861.5600000005}},{"attributes":{"ID":244197,"DIS_CODE":0,"TOWNNAME":"關廟區","LI":"松腳里","LIN":"11鄰","STREET":"東興路","SECT":" ","MAREA":" ","LANE":"２２９巷","ALLEY":" ","HOUSE_NO":"１２號","E_COORD97":181812.92000000001,"N_COORD97":2539608.25,"ADDRESS":"東興路２２９巷１２號","OBJECTID":244193},"geometry":{"x":181812.92000000086,"y":2539608.2500000037}},{"attributes":{"ID":244198,"DIS_CODE":0,"TOWNNAME":"關廟區","LI":"松腳里","LIN":"11鄰","STREET":"東興路","SECT":" ","MAREA":" ","LANE":"２２９巷","ALLEY":" ","HOUSE_NO":"２７號","E_COORD97":181791.72,"N_COORD97":2539664.25,"ADDRESS":"東興路２２９巷２７號","OBJECTID":244194},"geometry":{"x":181791.7200000016,"y":2539664.25}},{"attributes":{"ID":244199,"DIS_CODE":0,"TOWNNAME":"關廟區","LI":"松腳里","LIN":"11鄰","STREET":"東興路","SECT":" ","MAREA":" ","LANE":"２２９巷","ALLEY":" ","HOUSE_NO":"７號","E_COORD97":181795.87,"N_COORD97":2539598.25,"ADDRESS":"東興路２２９巷７號","OBJECTID":244195},"geometry":{"x":181795.87000000011,"y":2539598.2500000037}},{"attributes":{"ID":244200,"DIS_CODE":0,"TOWNNAME":"關廟區","LI":"松腳里","LIN":"11鄰","STREET":"和平路","SECT":" ","MAREA":" ","LANE":"１８６巷","ALLEY":" ","HOUSE_NO":"１７號","E_COORD97":181790.59,"N_COORD97":2539645.25,"ADDRESS":"和平路１８６巷１７號","OBJECTID":244196},"geometry":{"x":181790.58999999985,"y":2539645.25}},{"attributes":{"ID":244201,"DIS_CODE":0,"TOWNNAME":"關廟區","LI":"松腳里","LIN":"11鄰","STREET":"東興路","SECT":" ","MAREA":" ","LANE":"２２９巷","ALLEY":" ","HOUSE_NO":"１１號","E_COORD97":181797.51999999999,"N_COORD97":2539607.25,"ADDRESS":"東興路２２９巷１１號","OBJECTID":244197},"geometry":{"x":181797.51999999955,"y":2539607.25}},{"attributes":{"ID":244202,"DIS_CODE":0,"TOWNNAME":"關廟區","LI":"松腳里","LIN":"11鄰","STREET":"和平路","SECT":" ","MAREA":" ","LANE":"１８６巷","ALLEY":" ","HOUSE_NO":"１２號","E_COORD97":181781.39000000001,"N_COORD97":2539650.25,"ADDRESS":"和平路１８６巷１２號","OBJECTID":244198},"geometry":{"x":181781.38999999966,"y":2539650.2500000019}},{"attributes":{"ID":244203,"DIS_CODE":0,"TOWNNAME":"關廟區","LI":"松腳里","LIN":"11鄰","STREET":"東興路","SECT":" ","MAREA":" ","LANE":"２２９巷","ALLEY":" ","HOUSE_NO":"１７號","E_COORD97":181797.51999999999,"N_COORD97":2539622.25,"ADDRESS":"東興路２２９巷１７號","OBJECTID":244199},"geometry":{"x":181797.51999999955,"y":2539622.2500000019}},{"attributes":{"ID":244204,"DIS_CODE":0,"TOWNNAME":"永康區","LI":"西橋里","LIN":"24鄰","STREET":"大橋三街","SECT":" ","MAREA":" ","LANE":"５７巷","ALLEY":" ","HOUSE_NO":"５８號","E_COORD97":170504.37,"N_COORD97":2546597.9900000002,"ADDRESS":"大橋三街５７巷５８號","OBJECTID":244200},"geometry":{"x":170504.36999999918,"y":2546597.9900000039}}]}