{"displayFieldName":"TOWNNAME","fieldAliases":{"ID":"ID","DIS_CODE":"DIS_CODE","TOWNNAME":"TOWNNAME","LI":"LI","LIN":"LIN","STREET":"STREET","SECT":"SECT","MAREA":"MAREA","LANE":"LANE","ALLEY":"ALLEY","HOUSE_NO":"HOUSE_NO","E_COORD97":"E_COORD97","N_COORD97":"N_COORD97","ADDRESS":"ADDRESS","OBJECTID":"OBJECTID"},"geometryType":"esriGeometryPoint","spatialReference":{"wkid":102443,"latestWkid":3826},"fields":[{"name":"ID","type":"esriFieldTypeDouble","alias":"ID"},{"name":"DIS_CODE","type":"esriFieldTypeInteger","alias":"DIS_CODE"},{"name":"TOWNNAME","type":"esriFieldTypeString","alias":"TOWNNAME","length":8},{"name":"LI","type":"esriFieldTypeString","alias":"LI","length":8},{"name":"LIN","type":"esriFieldTypeString","alias":"LIN","length":12},{"name":"STREET","type":"esriFieldTypeString","alias":"STREET","length":20},{"name":"SECT","type":"esriFieldTypeString","alias":"SECT","length":8},{"name":"MAREA","type":"esriFieldTypeString","alias":"MAREA","length":12},{"name":"LANE","type":"esriFieldTypeString","alias":"LANE","length":10},{"name":"ALLEY","type":"esriFieldTypeString","alias":"ALLEY","length":10},{"name":"HOUSE_NO","type":"esriFieldTypeString","alias":"HOUSE_NO","length":20},{"name":"E_COORD97","type":"esriFieldTypeDouble","alias":"E_COORD97"},{"name":"N_COORD97","type":"esriFieldTypeDouble","alias":"N_COORD97"},{"name":"ADDRESS","type":"esriFieldTypeString","alias":"ADDRESS","length":50},{"name":"OBJECTID","type":"esriFieldTypeOID","alias":"OBJECTID"}],"features":[{"attributes":{"ID":662428,"DIS_CODE":0,"TOWNNAME":"善化區","LI":"嘉南里","LIN":"2鄰","STREET":" ","SECT":" ","MAREA":"茄拔","LANE":" ","ALLEY":" ","HOUSE_NO":"６２號之１４","E_COORD97":181035.04047000001,"N_COORD97":2558870.7157999999,"ADDRESS":"茄拔６２號之１４","OBJECTID":662401},"geometry":{"x":181035.04047000036,"y":2558870.7158000022}},{"attributes":{"ID":662429,"DIS_CODE":0,"TOWNNAME":"善化區","LI":"嘉南里","LIN":"2鄰","STREET":" ","SECT":" ","MAREA":"茄拔","LANE":" ","ALLEY":" ","HOUSE_NO":"６２之２０號","E_COORD97":181077.41492899999,"N_COORD97":2558839.28333,"ADDRESS":"茄拔６２之２０號","OBJECTID":662402},"geometry":{"x":181077.41492900159,"y":2558839.2833249997}},{"attributes":{"ID":662430,"DIS_CODE":0,"TOWNNAME":"安平區","LI":"文平里","LIN":"14鄰","STREET":"建平五街","SECT":" ","MAREA":" ","LANE":"２２巷","ALLEY":"１５弄","HOUSE_NO":"１０之５號","E_COORD97":166043.90455899999,"N_COORD97":2543179.9294799999,"ADDRESS":"建平五街２２巷１５弄１０之５號","OBJECTID":662403},"geometry":{"x":166043.9045590004,"y":2543179.9294840042}},{"attributes":{"ID":662431,"DIS_CODE":0,"TOWNNAME":"安平區","LI":"文平里","LIN":"12鄰","STREET":"永華四街","SECT":" ","MAREA":" ","LANE":"１７巷","ALLEY":" ","HOUSE_NO":"４１號","E_COORD97":165791.31078999999,"N_COORD97":2543214.6428,"ADDRESS":"永華四街１７巷４１號","OBJECTID":662404},"geometry":{"x":165791.31079000141,"y":2543214.6427980009}},{"attributes":{"ID":662432,"DIS_CODE":0,"TOWNNAME":"安平區","LI":"平安里","LIN":"10鄰","STREET":"安平路","SECT":" ","MAREA":" ","LANE":"５００巷","ALLEY":" ","HOUSE_NO":"３６號","E_COORD97":165169.37850699999,"N_COORD97":2544455.5298199998,"ADDRESS":"安平路５００巷３６號","OBJECTID":662405},"geometry":{"x":165169.37850700039,"y":2544455.5298200008}},{"attributes":{"ID":662433,"DIS_CODE":0,"TOWNNAME":"安平區","LI":"平通里","LIN":"21鄰","STREET":"育平七街","SECT":" ","MAREA":" ","LANE":"６０巷","ALLEY":" ","HOUSE_NO":"１１６號","E_COORD97":164456.90465899999,"N_COORD97":2544171.5954200001,"ADDRESS":"育平七街６０巷１１６號","OBJECTID":662406},"geometry":{"x":164456.90465900023,"y":2544171.5954220016}},{"attributes":{"ID":662434,"DIS_CODE":0,"TOWNNAME":"安平區","LI":"金城里","LIN":"11鄰","STREET":"同平路","SECT":" ","MAREA":" ","LANE":" ","ALLEY":" ","HOUSE_NO":"１８２號","E_COORD97":163119.76818099999,"N_COORD97":2543935.5872200001,"ADDRESS":"同平路１８２號","OBJECTID":662407},"geometry":{"x":163119.76818100084,"y":2543935.5872160029}},{"attributes":{"ID":662435,"DIS_CODE":0,"TOWNNAME":"安平區","LI":"金城里","LIN":"13鄰","STREET":"世平路","SECT":" ","MAREA":" ","LANE":" ","ALLEY":" ","HOUSE_NO":"８９號","E_COORD97":162651.02873799999,"N_COORD97":2544312.1420100001,"ADDRESS":"世平路８９號","OBJECTID":662408},"geometry":{"x":162651.02873800229,"y":2544312.1420130022}},{"attributes":{"ID":662436,"DIS_CODE":0,"TOWNNAME":"安平區","LI":"建平里","LIN":"14鄰","STREET":"建平十三街","SECT":" ","MAREA":" ","LANE":" ","ALLEY":" ","HOUSE_NO":"２７號","E_COORD97":166255.99953999999,"N_COORD97":2543997.6055200002,"ADDRESS":"建平十三街２７號","OBJECTID":662409},"geometry":{"x":166255.99954000022,"y":2543997.6055159997}},{"attributes":{"ID":662437,"DIS_CODE":0,"TOWNNAME":"安平區","LI":"華平里","LIN":"28鄰","STREET":"平通路","SECT":" ","MAREA":" ","LANE":" ","ALLEY":" ","HOUSE_NO":"４１３號","E_COORD97":165419.388634,"N_COORD97":2543743.8173199999,"ADDRESS":"平通路４１３號","OBJECTID":662410},"geometry":{"x":165419.38863399997,"y":2543743.8173200004}},{"attributes":{"ID":662438,"DIS_CODE":0,"TOWNNAME":"安平區","LI":"億載里","LIN":"13鄰","STREET":"光州五街","SECT":" ","MAREA":" ","LANE":" ","ALLEY":" ","HOUSE_NO":"１２５號","E_COORD97":164192.23216099999,"N_COORD97":2543318.3675500001,"ADDRESS":"光州五街１２５號","OBJECTID":662411},"geometry":{"x":164192.2321610013,"y":2543318.3675500005}},{"attributes":{"ID":662439,"DIS_CODE":0,"TOWNNAME":"安平區","LI":"億載里","LIN":"13鄰","STREET":"光州五街","SECT":" ","MAREA":" ","LANE":" ","ALLEY":" ","HOUSE_NO":"１２７號","E_COORD97":164196.046497,"N_COORD97":2543318.7908800002,"ADDRESS":"光州五街１２７號","OBJECTID":662412},"geometry":{"x":164196.04649700131,"y":2543318.7908830028}},{"attributes":{"ID":662440,"DIS_CODE":0,"TOWNNAME":"安平區","LI":"億載里","LIN":"14鄰","STREET":"平豐路","SECT":" ","MAREA":" ","LANE":"１０１巷","ALLEY":"１３弄","HOUSE_NO":"３１號","E_COORD97":164277.418986,"N_COORD97":2543192.0026199999,"ADDRESS":"平豐路１０１巷１３弄３１號","OBJECTID":662413},"geometry":{"x":164277.41898600105,"y":2543192.0026179999}},{"attributes":{"ID":662441,"DIS_CODE":0,"TOWNNAME":"永康區","LI":"\u25A0行里","LIN":"8鄰","STREET":"中正五街","SECT":" ","MAREA":" ","LANE":" ","ALLEY":" ","HOUSE_NO":"１４０號","E_COORD97":172973.728627,"N_COORD97":2548460.0863399999,"ADDRESS":"中正五街１４０號","OBJECTID":662414},"geometry":{"x":172973.72862700094,"y":2548460.0863440018}},{"attributes":{"ID":662442,"DIS_CODE":0,"TOWNNAME":"永康區","LI":"\u25A0行里","LIN":"6鄰","STREET":"新行街","SECT":" ","MAREA":" ","LANE":"３３巷","ALLEY":" ","HOUSE_NO":"３９號","E_COORD97":172171.663921,"N_COORD97":2548841.2977999998,"ADDRESS":"新行街３３巷３９號","OBJECTID":662415},"geometry":{"x":172171.6639209995,"y":2548841.2978040017}},{"attributes":{"ID":662443,"DIS_CODE":0,"TOWNNAME":"永康區","LI":"\u25A0行里","LIN":"6鄰","STREET":"新行街","SECT":" ","MAREA":" ","LANE":"３３巷","ALLEY":" ","HOUSE_NO":"４１號","E_COORD97":172169.33295400001,"N_COORD97":2548840.45114,"ADDRESS":"新行街３３巷４１號","OBJECTID":662416},"geometry":{"x":172169.33295399975,"y":2548840.4511380009}},{"attributes":{"ID":662444,"DIS_CODE":0,"TOWNNAME":"永康區","LI":"\u25A0行里","LIN":"6鄰","STREET":"新行街","SECT":" ","MAREA":" ","LANE":"３３巷","ALLEY":" ","HOUSE_NO":"４３號","E_COORD97":172167.42579899999,"N_COORD97":2548838.3344700001,"ADDRESS":"新行街３３巷４３號","OBJECTID":662417},"geometry":{"x":172167.42579900008,"y":2548838.334472999}},{"attributes":{"ID":662445,"DIS_CODE":0,"TOWNNAME":"仁德區","LI":"仁德里","LIN":"17鄰","STREET":"文華路","SECT":"三段","MAREA":" ","LANE":"４２８巷","ALLEY":" ","HOUSE_NO":"３１號","E_COORD97":172491.000378,"N_COORD97":2541242.74327,"ADDRESS":"文華路三段４２８巷３１號","OBJECTID":662418},"geometry":{"x":172491.00037799962,"y":2541242.7432729993}},{"attributes":{"ID":662446,"DIS_CODE":0,"TOWNNAME":"仁德區","LI":"仁德里","LIN":"17鄰","STREET":"文華路","SECT":"三段","MAREA":" ","LANE":"４２８巷","ALLEY":" ","HOUSE_NO":"３３號","E_COORD97":172499.69037900001,"N_COORD97":2541241.6849400001,"ADDRESS":"文華路三段４２８巷３３號","OBJECTID":662419},"geometry":{"x":172499.69037900027,"y":2541241.684940001}},{"attributes":{"ID":662447,"DIS_CODE":0,"TOWNNAME":"仁德區","LI":"仁德里","LIN":"17鄰","STREET":"文華路","SECT":"三段","MAREA":" ","LANE":"４２８巷","ALLEY":" ","HOUSE_NO":"３５號","E_COORD97":172507.10867300001,"N_COORD97":2541240.8382700002,"ADDRESS":"文華路三段４２８巷３５號","OBJECTID":662420},"geometry":{"x":172507.10867300164,"y":2541240.8382739983}},{"attributes":{"ID":662448,"DIS_CODE":0,"TOWNNAME":"仁德區","LI":"仁德里","LIN":"17鄰","STREET":"文華路","SECT":"三段","MAREA":" ","LANE":"４２８巷","ALLEY":" ","HOUSE_NO":"３７號","E_COORD97":172514.73891799999,"N_COORD97":2541239.7799399998,"ADDRESS":"文華路三段４２８巷３７號","OBJECTID":662421},"geometry":{"x":172514.73891800083,"y":2541239.7799420003}},{"attributes":{"ID":662449,"DIS_CODE":0,"TOWNNAME":"仁德區","LI":"仁德里","LIN":"17鄰","STREET":"文華路","SECT":"三段","MAREA":" ","LANE":"４２８巷","ALLEY":" ","HOUSE_NO":"４１號","E_COORD97":172528.30379899999,"N_COORD97":2541225.38662,"ADDRESS":"文華路三段４２８巷４１號","OBJECTID":662422},"geometry":{"x":172528.3037990015,"y":2541225.3866160009}},{"attributes":{"ID":662450,"DIS_CODE":0,"TOWNNAME":"仁德區","LI":"仁德里","LIN":"17鄰","STREET":"文華路","SECT":"三段","MAREA":" ","LANE":"４２８巷","ALLEY":" ","HOUSE_NO":"４３號","E_COORD97":172534.238434,"N_COORD97":2541221.3649499998,"ADDRESS":"文華路三段４２８巷４３號","OBJECTID":662423},"geometry":{"x":172534.23843399994,"y":2541221.3649509996}},{"attributes":{"ID":662451,"DIS_CODE":0,"TOWNNAME":"下營區","LI":"宅內里","LIN":"6鄰","STREET":"友愛街","SECT":" ","MAREA":" ","LANE":"１８７巷","ALLEY":"１２弄","HOUSE_NO":"２９號","E_COORD97":174052.04327299999,"N_COORD97":2570919.6320699998,"ADDRESS":"友愛街１８７巷１２弄２９號","OBJECTID":662424},"geometry":{"x":174052.04327300098,"y":2570919.6320689991}},{"attributes":{"ID":662452,"DIS_CODE":0,"TOWNNAME":"仁德區","LI":"仁德里","LIN":"17鄰","STREET":"文華路","SECT":"三段","MAREA":" ","LANE":"４２８巷","ALLEY":" ","HOUSE_NO":"４５號","E_COORD97":172541.86867900001,"N_COORD97":2541220.3066199999,"ADDRESS":"文華路三段４２８巷４５號","OBJECTID":662425},"geometry":{"x":172541.86867900006,"y":2541220.3066190016}},{"attributes":{"ID":662453,"DIS_CODE":0,"TOWNNAME":"仁德區","LI":"仁德里","LIN":"17鄰","STREET":"文華路","SECT":"三段","MAREA":" ","LANE":"４２８巷","ALLEY":" ","HOUSE_NO":"４７號","E_COORD97":172548.863071,"N_COORD97":2541218.6132899998,"ADDRESS":"文華路三段４２８巷４７號","OBJECTID":662426},"geometry":{"x":172548.86307100207,"y":2541218.6132860035}},{"attributes":{"ID":662454,"DIS_CODE":0,"TOWNNAME":"仁德區","LI":"仁德里","LIN":"17鄰","STREET":"文華路","SECT":"三段","MAREA":" ","LANE":"４２８巷","ALLEY":" ","HOUSE_NO":"４９號","E_COORD97":172556.49331600001,"N_COORD97":2541217.3432900002,"ADDRESS":"文華路三段４２８巷４９號","OBJECTID":662427},"geometry":{"x":172556.49331600126,"y":2541217.3432870023}},{"attributes":{"ID":662455,"DIS_CODE":0,"TOWNNAME":"仁德區","LI":"仁德里","LIN":"17鄰","STREET":"文華路","SECT":"三段","MAREA":" ","LANE":"４２８巷","ALLEY":" ","HOUSE_NO":"５１號","E_COORD97":172563.69965900001,"N_COORD97":2541215.2266199999,"ADDRESS":"文華路三段４２８巷５１號","OBJECTID":662428},"geometry":{"x":172563.69965900108,"y":2541215.226621002}},{"attributes":{"ID":662456,"DIS_CODE":0,"TOWNNAME":"仁德區","LI":"仁德里","LIN":"17鄰","STREET":"文華路","SECT":"三段","MAREA":" ","LANE":"４２８巷","ALLEY":" ","HOUSE_NO":"５５號","E_COORD97":172578.53624700001,"N_COORD97":2541212.05162,"ADDRESS":"文華路三段４２８巷５５號","OBJECTID":662429},"geometry":{"x":172578.53624700103,"y":2541212.0516230017}},{"attributes":{"ID":662457,"DIS_CODE":0,"TOWNNAME":"仁德區","LI":"仁德里","LIN":"17鄰","STREET":"文華路","SECT":"三段","MAREA":" ","LANE":"４２８巷","ALLEY":" ","HOUSE_NO":"５７號","E_COORD97":172585.95454100001,"N_COORD97":2541210.1466199998,"ADDRESS":"文華路三段４２８巷５７號","OBJECTID":662430},"geometry":{"x":172585.95454099961,"y":2541210.1466239989}},{"attributes":{"ID":662458,"DIS_CODE":0,"TOWNNAME":"仁德區","LI":"仁德里","LIN":"17鄰","STREET":"文華路","SECT":"三段","MAREA":" ","LANE":"４２８巷","ALLEY":" ","HOUSE_NO":"５９號","E_COORD97":172592.948932,"N_COORD97":2541208.6649600002,"ADDRESS":"文華路三段４２８巷５９號","OBJECTID":662431},"geometry":{"x":172592.94893200044,"y":2541208.664958002}},{"attributes":{"ID":662459,"DIS_CODE":0,"TOWNNAME":"仁德區","LI":"仁德里","LIN":"17鄰","STREET":"文華路","SECT":"三段","MAREA":" ","LANE":"４２８巷","ALLEY":" ","HOUSE_NO":"６１號","E_COORD97":172599.73137200001,"N_COORD97":2541207.3949600002,"ADDRESS":"文華路三段４２８巷６１號","OBJECTID":662432},"geometry":{"x":172599.73137199972,"y":2541207.3949590009}},{"attributes":{"ID":662460,"DIS_CODE":0,"TOWNNAME":"仁德區","LI":"仁德里","LIN":"17鄰","STREET":"文華路","SECT":"三段","MAREA":" ","LANE":"４２８巷","ALLEY":" ","HOUSE_NO":"６３號","E_COORD97":172606.725764,"N_COORD97":2541205.2782899998,"ADDRESS":"文華路三段４２８巷６３號","OBJECTID":662433},"geometry":{"x":172606.72576400079,"y":2541205.2782930005}},{"attributes":{"ID":662461,"DIS_CODE":0,"TOWNNAME":"仁德區","LI":"仁德里","LIN":"17鄰","STREET":"文華路","SECT":"三段","MAREA":" ","LANE":"４２８巷","ALLEY":" ","HOUSE_NO":"６５號","E_COORD97":172613.50820400001,"N_COORD97":2541203.5849600001,"ADDRESS":"文華路三段４２８巷６５號","OBJECTID":662434},"geometry":{"x":172613.508204001,"y":2541203.5849610027}},{"attributes":{"ID":662462,"DIS_CODE":0,"TOWNNAME":"仁德區","LI":"仁德里","LIN":"17鄰","STREET":"文華路","SECT":"三段","MAREA":" ","LANE":"４２８巷","ALLEY":" ","HOUSE_NO":"６７號","E_COORD97":172620.07869299999,"N_COORD97":2541201.89163,"ADDRESS":"文華路三段４２８巷６７號","OBJECTID":662435},"geometry":{"x":172620.07869299874,"y":2541201.8916289993}},{"attributes":{"ID":662463,"DIS_CODE":0,"TOWNNAME":"仁德區","LI":"仁德里","LIN":"17鄰","STREET":"文華路","SECT":"三段","MAREA":" ","LANE":"４２８巷","ALLEY":" ","HOUSE_NO":"６９號","E_COORD97":172627.07308500001,"N_COORD97":2541200.1982999998,"ADDRESS":"文華路三段４２８巷６９號","OBJECTID":662436},"geometry":{"x":172627.07308500074,"y":2541200.1982960012}},{"attributes":{"ID":662464,"DIS_CODE":0,"TOWNNAME":"仁德區","LI":"仁德里","LIN":"17鄰","STREET":"文華路","SECT":"三段","MAREA":" ","LANE":"４２８巷","ALLEY":" ","HOUSE_NO":"７１號","E_COORD97":172634.279427,"N_COORD97":2541199.7749600001,"ADDRESS":"文華路三段４２８巷７１號","OBJECTID":662437},"geometry":{"x":172634.27942700218,"y":2541199.7749629989}},{"attributes":{"ID":662465,"DIS_CODE":0,"TOWNNAME":"仁德區","LI":"仁德里","LIN":"17鄰","STREET":"文華路","SECT":"三段","MAREA":" ","LANE":"４２８巷","ALLEY":" ","HOUSE_NO":"７３號","E_COORD97":172641.27381899999,"N_COORD97":2541198.7166300002,"ADDRESS":"文華路三段４２８巷７３號","OBJECTID":662438},"geometry":{"x":172641.2738189986,"y":2541198.7166300006}},{"attributes":{"ID":662466,"DIS_CODE":0,"TOWNNAME":"仁德區","LI":"仁德里","LIN":"17鄰","STREET":"文華路","SECT":"三段","MAREA":" ","LANE":"４２８巷","ALLEY":" ","HOUSE_NO":"７５號","E_COORD97":172643.923209,"N_COORD97":2541230.7841099999,"ADDRESS":"文華路三段４２８巷７５號","OBJECTID":662439},"geometry":{"x":172643.92320900038,"y":2541230.7841130011}},{"attributes":{"ID":662467,"DIS_CODE":0,"TOWNNAME":"仁德區","LI":"仁德里","LIN":"17鄰","STREET":"文華路","SECT":"三段","MAREA":" ","LANE":"４２８巷","ALLEY":" ","HOUSE_NO":"７７號","E_COORD97":172645.19491699999,"N_COORD97":2541236.9224399999,"ADDRESS":"文華路三段４２８巷７７號","OBJECTID":662440},"geometry":{"x":172645.19491700176,"y":2541236.9224430043}},{"attributes":{"ID":662468,"DIS_CODE":0,"TOWNNAME":"仁德區","LI":"仁德里","LIN":"17鄰","STREET":"文華路","SECT":"三段","MAREA":" ","LANE":"４２８巷","ALLEY":" ","HOUSE_NO":"７９號","E_COORD97":172646.04272200001,"N_COORD97":2541243.6957700001,"ADDRESS":"文華路三段４２８巷７９號","OBJECTID":662441},"geometry":{"x":172646.04272199981,"y":2541243.6957729999}},{"attributes":{"ID":662469,"DIS_CODE":0,"TOWNNAME":"仁德區","LI":"仁德里","LIN":"17鄰","STREET":"文華路","SECT":"三段","MAREA":" ","LANE":"４２８巷","ALLEY":" ","HOUSE_NO":"８１號","E_COORD97":172647.73833200001,"N_COORD97":2541251.7390999999,"ADDRESS":"文華路三段４２８巷８１號","OBJECTID":662442},"geometry":{"x":172647.73833199963,"y":2541251.7391020022}},{"attributes":{"ID":662470,"DIS_CODE":0,"TOWNNAME":"東區","LI":"崇善里","LIN":"15鄰","STREET":"崇善路","SECT":" ","MAREA":" ","LANE":" ","ALLEY":" ","HOUSE_NO":"６６５之２號","E_COORD97":171111.96791800001,"N_COORD97":2541228.7928599999,"ADDRESS":"崇善路６６５之２號","OBJECTID":662443},"geometry":{"x":171111.96791800018,"y":2541228.7928609997}},{"attributes":{"ID":662471,"DIS_CODE":0,"TOWNNAME":"東區","LI":"崇善里","LIN":"15鄰","STREET":"崇善十一街","SECT":" ","MAREA":" ","LANE":" ","ALLEY":" ","HOUSE_NO":"１號","E_COORD97":171149.89331000001,"N_COORD97":2541190.69288,"ADDRESS":"崇善十一街１號","OBJECTID":662444},"geometry":{"x":171149.89331000019,"y":2541190.6928820014}},{"attributes":{"ID":662472,"DIS_CODE":0,"TOWNNAME":"新營區","LI":"嘉芳里","LIN":"1鄰","STREET":"復興路","SECT":" ","MAREA":" ","LANE":"７００巷","ALLEY":" ","HOUSE_NO":"９５號","E_COORD97":177323.14720000001,"N_COORD97":2579154.4544000002,"ADDRESS":"復興路７００巷９５號","OBJECTID":662445},"geometry":{"x":177323.14719999954,"y":2579154.4543999992}},{"attributes":{"ID":662473,"DIS_CODE":0,"TOWNNAME":"安南區","LI":"海東里","LIN":"11鄰","STREET":"海環街","SECT":" ","MAREA":" ","LANE":"３２巷","ALLEY":"５７弄","HOUSE_NO":"８之６號","E_COORD97":166472.81444099999,"N_COORD97":2548993.09546,"ADDRESS":"海環街３２巷５７弄８之６號","OBJECTID":662446},"geometry":{"x":166472.81444100011,"y":2548993.0954550002}},{"attributes":{"ID":662474,"DIS_CODE":0,"TOWNNAME":"新營區","LI":"王公里","LIN":"31鄰","STREET":"大勇街","SECT":" ","MAREA":" ","LANE":" ","ALLEY":" ","HOUSE_NO":"３９號","E_COORD97":180294.13472100001,"N_COORD97":2579441.4172899998,"ADDRESS":"大勇街３９號","OBJECTID":662447},"geometry":{"x":180294.13472099975,"y":2579441.4172870032}},{"attributes":{"ID":662475,"DIS_CODE":0,"TOWNNAME":"永康區","LI":"二王里","LIN":"3鄰","STREET":"二王路","SECT":" ","MAREA":" ","LANE":" ","ALLEY":" ","HOUSE_NO":"１３３號","E_COORD97":173040.479058,"N_COORD97":2546597.4609099999,"ADDRESS":"二王路１３３號","OBJECTID":662448},"geometry":{"x":173040.47905800026,"y":2546597.4609059989}},{"attributes":{"ID":662476,"DIS_CODE":0,"TOWNNAME":"新營區","LI":"王公里","LIN":"31鄰","STREET":"大勇街","SECT":" ","MAREA":" ","LANE":" ","ALLEY":" ","HOUSE_NO":"４１號","E_COORD97":180297.94860100001,"N_COORD97":2579442.2639500001,"ADDRESS":"大勇街４１號","OBJECTID":662449},"geometry":{"x":180297.94860100094,"y":2579442.2639530003}},{"attributes":{"ID":662477,"DIS_CODE":0,"TOWNNAME":"永康區","LI":"二王里","LIN":"3鄰","STREET":"二王路","SECT":" ","MAREA":" ","LANE":" ","ALLEY":" ","HOUSE_NO":"１３１號","E_COORD97":173039.63143400001,"N_COORD97":2546602.75257,"ADDRESS":"二王路１３１號","OBJECTID":662450},"geometry":{"x":173039.6314340001,"y":2546602.7525699995}},{"attributes":{"ID":662478,"DIS_CODE":0,"TOWNNAME":"新營區","LI":"王公里","LIN":"31鄰","STREET":"大勇街","SECT":" ","MAREA":" ","LANE":" ","ALLEY":" ","HOUSE_NO":"４３號","E_COORD97":180301.33871700001,"N_COORD97":2579443.1106199999,"ADDRESS":"大勇街４３號","OBJECTID":662451},"geometry":{"x":180301.33871699963,"y":2579443.1106190011}},{"attributes":{"ID":662479,"DIS_CODE":0,"TOWNNAME":"永康區","LI":"二王里","LIN":"3鄰","STREET":"二王路","SECT":" ","MAREA":" ","LANE":" ","ALLEY":" ","HOUSE_NO":"１２９號","E_COORD97":173038.571903,"N_COORD97":2546607.4092299999,"ADDRESS":"二王路１２９號","OBJECTID":662452},"geometry":{"x":173038.57190300152,"y":2546607.4092340004}},{"attributes":{"ID":662480,"DIS_CODE":0,"TOWNNAME":"永康區","LI":"二王里","LIN":"3鄰","STREET":"二王路","SECT":" ","MAREA":" ","LANE":" ","ALLEY":" ","HOUSE_NO":"１２７號","E_COORD97":173038.571903,"N_COORD97":2546613.1242300002,"ADDRESS":"二王路１２７號","OBJECTID":662453},"geometry":{"x":173038.57190300152,"y":2546613.1242309995}},{"attributes":{"ID":662481,"DIS_CODE":0,"TOWNNAME":"永康區","LI":"二王里","LIN":"3鄰","STREET":"二王路","SECT":" ","MAREA":" ","LANE":" ","ALLEY":" ","HOUSE_NO":"１２５號","E_COORD97":173037.72427899999,"N_COORD97":2546617.1458999999,"ADDRESS":"二王路１２５號","OBJECTID":662454},"geometry":{"x":173037.72427900042,"y":2546617.1458950005}},{"attributes":{"ID":662482,"DIS_CODE":0,"TOWNNAME":"永康區","LI":"二王里","LIN":"3鄰","STREET":"二王路","SECT":" ","MAREA":" ","LANE":" ","ALLEY":" ","HOUSE_NO":"１２３號","E_COORD97":173037.72427899999,"N_COORD97":2546621.5908900001,"ADDRESS":"二王路１２３號","OBJECTID":662455},"geometry":{"x":173037.72427900042,"y":2546621.5908930041}},{"attributes":{"ID":662483,"DIS_CODE":0,"TOWNNAME":"將軍區","LI":"將貴里","LIN":"7鄰","STREET":" ","SECT":" ","MAREA":"將貴","LANE":" ","ALLEY":" ","HOUSE_NO":"６３之１５號","E_COORD97":161838.768377,"N_COORD97":2567346.0687500001,"ADDRESS":"將貴６３之１５號","OBJECTID":662456},"geometry":{"x":161838.76837700047,"y":2567346.0687550008}},{"attributes":{"ID":662484,"DIS_CODE":0,"TOWNNAME":"永康區","LI":"大灣里","LIN":"28鄰","STREET":"民族路","SECT":" ","MAREA":" ","LANE":"１９０巷","ALLEY":" ","HOUSE_NO":"１０號","E_COORD97":175204.040656,"N_COORD97":2545093.67588,"ADDRESS":"民族路１９０巷１０號","OBJECTID":662457},"geometry":{"x":175204.04065600038,"y":2545093.6758850012}},{"attributes":{"ID":662485,"DIS_CODE":0,"TOWNNAME":"永康區","LI":"大灣里","LIN":"28鄰","STREET":"民族路","SECT":" ","MAREA":" ","LANE":"１９０巷","ALLEY":" ","HOUSE_NO":"８號","E_COORD97":175197.89537799999,"N_COORD97":2545094.73422,"ADDRESS":"民族路１９０巷８號","OBJECTID":662458},"geometry":{"x":175197.8953780001,"y":2545094.7342179995}},{"attributes":{"ID":662486,"DIS_CODE":0,"TOWNNAME":"永康區","LI":"六合里","LIN":"4鄰","STREET":"新興街","SECT":" ","MAREA":" ","LANE":" ","ALLEY":" ","HOUSE_NO":"１２９號","E_COORD97":171153.41063100001,"N_COORD97":2545846.1710000001,"ADDRESS":"新興街１２９號","OBJECTID":662459},"geometry":{"x":171153.41063100006,"y":2545846.170996001}},{"attributes":{"ID":662487,"DIS_CODE":0,"TOWNNAME":"永康區","LI":"六合里","LIN":"8鄰","STREET":"六合路","SECT":" ","MAREA":" ","LANE":"４７巷","ALLEY":" ","HOUSE_NO":"３６之１號","E_COORD97":171089.41497899999,"N_COORD97":2545593.54697,"ADDRESS":"六合路４７巷３６之１號","OBJECTID":662460},"geometry":{"x":171089.41497899964,"y":2545593.5469659995}},{"attributes":{"ID":662488,"DIS_CODE":0,"TOWNNAME":"永康區","LI":"王行里","LIN":"16鄰","STREET":"永科南路","SECT":" ","MAREA":" ","LANE":" ","ALLEY":" ","HOUSE_NO":"５１號（農業資材室，","E_COORD97":176512.72859000001,"N_COORD97":2548271.0230200002,"ADDRESS":"永科南路５１號（農業資材室，不得設籍）","OBJECTID":662461},"geometry":{"x":176512.72859000042,"y":2548271.0230200011}},{"attributes":{"ID":662489,"DIS_CODE":0,"TOWNNAME":"永康區","LI":"王行里","LIN":"8鄰","STREET":"育樂街","SECT":" ","MAREA":" ","LANE":" ","ALLEY":" ","HOUSE_NO":"８２號","E_COORD97":175347.291638,"N_COORD97":2548378.2558900001,"ADDRESS":"育樂街８２號","OBJECTID":662462},"geometry":{"x":175347.29163799901,"y":2548378.255892003}},{"attributes":{"ID":662490,"DIS_CODE":0,"TOWNNAME":"永康區","LI":"北灣里","LIN":"12鄰","STREET":"大民街","SECT":" ","MAREA":" ","LANE":" ","ALLEY":" ","HOUSE_NO":"１４２之１號","E_COORD97":174948.06048700001,"N_COORD97":2545615.4782199999,"ADDRESS":"大民街１４２之１號","OBJECTID":662463},"geometry":{"x":174948.06048700027,"y":2545615.478217002}},{"attributes":{"ID":662491,"DIS_CODE":0,"TOWNNAME":"永康區","LI":"成功里","LIN":"44鄰","STREET":"中華路","SECT":" ","MAREA":" ","LANE":"５８巷","ALLEY":" ","HOUSE_NO":"２７號","E_COORD97":171673.05123300001,"N_COORD97":2544703.40704,"ADDRESS":"中華路５８巷２７號","OBJECTID":662464},"geometry":{"x":171673.05123300105,"y":2544703.4070430025}},{"attributes":{"ID":662492,"DIS_CODE":0,"TOWNNAME":"永康區","LI":"西勢里","LIN":"31鄰","STREET":"富強路","SECT":"一段","MAREA":" ","LANE":"９３巷","ALLEY":" ","HOUSE_NO":"１３２號（農業資材室","E_COORD97":175344.11304600001,"N_COORD97":2546318.5286699999,"ADDRESS":"富強路一段９３巷１３２號（農業資材室，不得設籍）","OBJECTID":662465},"geometry":{"x":175344.11304600164,"y":2546318.5286710002}},{"attributes":{"ID":662493,"DIS_CODE":0,"TOWNNAME":"永康區","LI":"西勢里","LIN":"23鄰","STREET":"富強路","SECT":"一段","MAREA":" ","LANE":" ","ALLEY":" ","HOUSE_NO":"１６２號","E_COORD97":175564.283516,"N_COORD97":2546290.2711900002,"ADDRESS":"富強路一段１６２號","OBJECTID":662466},"geometry":{"x":175564.28351600002,"y":2546290.2711860016}},{"attributes":{"ID":662494,"DIS_CODE":0,"TOWNNAME":"永康區","LI":"西橋里","LIN":"14鄰","STREET":"中華西街","SECT":" ","MAREA":" ","LANE":" ","ALLEY":" ","HOUSE_NO":"１５９號","E_COORD97":170620.93729199999,"N_COORD97":2546280.6403600001,"ADDRESS":"中華西街１５９號","OBJECTID":662467},"geometry":{"x":170620.93729200121,"y":2546280.6403580029}},{"attributes":{"ID":662495,"DIS_CODE":0,"TOWNNAME":"永康區","LI":"西橋里","LIN":"20鄰","STREET":"大橋三街","SECT":" ","MAREA":" ","LANE":" ","ALLEY":" ","HOUSE_NO":"５１號","E_COORD97":170563.51073099999,"N_COORD97":2546477.59608,"ADDRESS":"大橋三街５１號","OBJECTID":662468},"geometry":{"x":170563.51073100045,"y":2546477.5960850008}},{"attributes":{"ID":662496,"DIS_CODE":0,"TOWNNAME":"東區","LI":"崇誨里","LIN":"1鄰","STREET":"林森路","SECT":"二段","MAREA":" ","LANE":"１９２巷","ALLEY":" ","HOUSE_NO":"２號","E_COORD97":170463.925842,"N_COORD97":2543295.46484,"ADDRESS":"林森路二段１９２巷２號","OBJECTID":662469},"geometry":{"x":170463.92584200203,"y":2543295.4648380019}},{"attributes":{"ID":662497,"DIS_CODE":0,"TOWNNAME":"永康區","LI":"東橋里","LIN":"15鄰","STREET":"東橋七路","SECT":" ","MAREA":" ","LANE":" ","ALLEY":" ","HOUSE_NO":"１９８號","E_COORD97":171811.00212399999,"N_COORD97":2546834.57173,"ADDRESS":"東橋七路１９８號","OBJECTID":662470},"geometry":{"x":171811.00212400034,"y":2546834.5717259999}},{"attributes":{"ID":662498,"DIS_CODE":0,"TOWNNAME":"永康區","LI":"東橋里","LIN":"15鄰","STREET":"東橋七路","SECT":" ","MAREA":" ","LANE":" ","ALLEY":" ","HOUSE_NO":"１９８號二樓","E_COORD97":171811.00212399999,"N_COORD97":2546834.57173,"ADDRESS":"東橋七路１９８號二樓","OBJECTID":662471},"geometry":{"x":171811.00212400034,"y":2546834.5717259999}},{"attributes":{"ID":662499,"DIS_CODE":0,"TOWNNAME":"永康區","LI":"東橋里","LIN":"15鄰","STREET":"東橋七路","SECT":" ","MAREA":" ","LANE":" ","ALLEY":" ","HOUSE_NO":"１９８號三樓","E_COORD97":171811.00212399999,"N_COORD97":2546834.57173,"ADDRESS":"東橋七路１９８號三樓","OBJECTID":662472},"geometry":{"x":171811.00212400034,"y":2546834.5717259999}},{"attributes":{"ID":662500,"DIS_CODE":0,"TOWNNAME":"永康區","LI":"東橋里","LIN":"15鄰","STREET":"東橋七路","SECT":" ","MAREA":" ","LANE":" ","ALLEY":" ","HOUSE_NO":"１９８號四樓","E_COORD97":171811.00212399999,"N_COORD97":2546834.57173,"ADDRESS":"東橋七路１９８號四樓","OBJECTID":662473},"geometry":{"x":171811.00212400034,"y":2546834.5717259999}},{"attributes":{"ID":662501,"DIS_CODE":0,"TOWNNAME":"永康區","LI":"東橋里","LIN":"15鄰","STREET":"東橋七路","SECT":" ","MAREA":" ","LANE":" ","ALLEY":" ","HOUSE_NO":"１９８號五樓","E_COORD97":171811.00212399999,"N_COORD97":2546834.57173,"ADDRESS":"東橋七路１９８號五樓","OBJECTID":662474},"geometry":{"x":171811.00212400034,"y":2546834.5717259999}},{"attributes":{"ID":662502,"DIS_CODE":0,"TOWNNAME":"永康區","LI":"東橋里","LIN":"15鄰","STREET":"東橋七路","SECT":" ","MAREA":" ","LANE":" ","ALLEY":" ","HOUSE_NO":"１９８號六樓","E_COORD97":171811.00212399999,"N_COORD97":2546834.57173,"ADDRESS":"東橋七路１９８號六樓","OBJECTID":662475},"geometry":{"x":171811.00212400034,"y":2546834.5717259999}},{"attributes":{"ID":662503,"DIS_CODE":0,"TOWNNAME":"永康區","LI":"東灣里","LIN":"7鄰","STREET":"大灣路","SECT":" ","MAREA":" ","LANE":" ","ALLEY":" ","HOUSE_NO":"３８８號","E_COORD97":174810.53340799999,"N_COORD97":2545062.60518,"ADDRESS":"大灣路３８８號","OBJECTID":662476},"geometry":{"x":174810.53340800013,"y":2545062.6051830016}},{"attributes":{"ID":662504,"DIS_CODE":0,"TOWNNAME":"東區","LI":"崇德里","LIN":"2鄰","STREET":"崇善路","SECT":" ","MAREA":" ","LANE":"２３２巷","ALLEY":" ","HOUSE_NO":"９８號","E_COORD97":170588.93132599999,"N_COORD97":2541813.48147,"ADDRESS":"崇善路２３２巷９８號","OBJECTID":662477},"geometry":{"x":170588.93132600188,"y":2541813.4814720023}},{"attributes":{"ID":662505,"DIS_CODE":0,"TOWNNAME":"永康區","LI":"南灣里","LIN":"29鄰","STREET":"大安街","SECT":" ","MAREA":" ","LANE":" ","ALLEY":" ","HOUSE_NO":"４０號","E_COORD97":174460.04066699999,"N_COORD97":2544816.33115,"ADDRESS":"大安街４０號","OBJECTID":662478},"geometry":{"x":174460.04066700116,"y":2544816.3311490007}},{"attributes":{"ID":662506,"DIS_CODE":0,"TOWNNAME":"東區","LI":"崇德里","LIN":"2鄰","STREET":"崇善路","SECT":" ","MAREA":" ","LANE":"２３２巷","ALLEY":" ","HOUSE_NO":"１００號","E_COORD97":170595.49940999999,"N_COORD97":2541809.88314,"ADDRESS":"崇善路２３２巷１００號","OBJECTID":662479},"geometry":{"x":170595.49941000156,"y":2541809.8831409998}},{"attributes":{"ID":662507,"DIS_CODE":0,"TOWNNAME":"永康區","LI":"網寮里","LIN":"22鄰","STREET":"文化路","SECT":" ","MAREA":" ","LANE":" ","ALLEY":" ","HOUSE_NO":"２１８號","E_COORD97":173676.19988900001,"N_COORD97":2546168.5629199999,"ADDRESS":"文化路２１８號","OBJECTID":662480},"geometry":{"x":173676.19988899957,"y":2546168.562919002}},{"attributes":{"ID":662508,"DIS_CODE":0,"TOWNNAME":"永康區","LI":"網寮里","LIN":"22鄰","STREET":"文化路","SECT":" ","MAREA":" ","LANE":" ","ALLEY":" ","HOUSE_NO":"２１８之１號","E_COORD97":173678.530856,"N_COORD97":2546169.1979200002,"ADDRESS":"文化路２１８之１號","OBJECTID":662481},"geometry":{"x":173678.53085600026,"y":2546169.1979180016}},{"attributes":{"ID":662509,"DIS_CODE":0,"TOWNNAME":"永康區","LI":"網寮里","LIN":"22鄰","STREET":"永春街","SECT":" ","MAREA":" ","LANE":"１３巷","ALLEY":" ","HOUSE_NO":"４１號","E_COORD97":173671.11414200001,"N_COORD97":2546205.4987300001,"ADDRESS":"永春街１３巷４１號","OBJECTID":662482},"geometry":{"x":173671.11414200068,"y":2546205.4987320006}},{"attributes":{"ID":662510,"DIS_CODE":0,"TOWNNAME":"永康區","LI":"網寮里","LIN":"22鄰","STREET":"永春街","SECT":" ","MAREA":" ","LANE":"１３巷","ALLEY":" ","HOUSE_NO":"４３號","E_COORD97":173667.29983100001,"N_COORD97":2546204.6520699998,"ADDRESS":"永春街１３巷４３號","OBJECTID":662483},"geometry":{"x":173667.29983100109,"y":2546204.6520659998}},{"attributes":{"ID":662511,"DIS_CODE":0,"TOWNNAME":"永康區","LI":"網寮里","LIN":"22鄰","STREET":"永春街","SECT":" ","MAREA":" ","LANE":"１３巷","ALLEY":" ","HOUSE_NO":"４５號","E_COORD97":173662.84980299999,"N_COORD97":2546203.1704000002,"ADDRESS":"永春街１３巷４５號","OBJECTID":662484},"geometry":{"x":173662.84980300069,"y":2546203.170400003}},{"attributes":{"ID":662512,"DIS_CODE":0,"TOWNNAME":"永康區","LI":"網寮里","LIN":"22鄰","STREET":"永春街","SECT":" ","MAREA":" ","LANE":"１３巷","ALLEY":" ","HOUSE_NO":"４７號","E_COORD97":173656.91643099999,"N_COORD97":2546201.6887300001,"ADDRESS":"永春街１３巷４７號","OBJECTID":662485},"geometry":{"x":173656.91643100139,"y":2546201.6887340005}},{"attributes":{"ID":662513,"DIS_CODE":0,"TOWNNAME":"東區","LI":"崇德里","LIN":"23鄰","STREET":"崇德路","SECT":" ","MAREA":" ","LANE":"５３０巷","ALLEY":" ","HOUSE_NO":"１６之１號","E_COORD97":170737.66666399999,"N_COORD97":2541522.6516300002,"ADDRESS":"崇德路５３０巷１６之１號","OBJECTID":662486},"geometry":{"x":170737.6666640006,"y":2541522.6516290028}},{"attributes":{"ID":662514,"DIS_CODE":0,"TOWNNAME":"永康區","LI":"網寮里","LIN":"20鄰","STREET":"永二街","SECT":" ","MAREA":" ","LANE":"２４５巷","ALLEY":"２６弄","HOUSE_NO":"８號","E_COORD97":173276.33301999999,"N_COORD97":2546137.87127,"ADDRESS":"永二街２４５巷２６弄８號","OBJECTID":662487},"geometry":{"x":173276.33302000072,"y":2546137.8712690007}},{"attributes":{"ID":662515,"DIS_CODE":0,"TOWNNAME":"歸仁區","LI":"大潭里","LIN":"2鄰","STREET":"中正南路","SECT":"三段","MAREA":" ","LANE":" ","ALLEY":" ","HOUSE_NO":"２３１號","E_COORD97":175198.900116,"N_COORD97":2534749.7244199999,"ADDRESS":"中正南路三段２３１號","OBJECTID":662488},"geometry":{"x":175198.90011600126,"y":2534749.7244199999}},{"attributes":{"ID":662516,"DIS_CODE":0,"TOWNNAME":"東區","LI":"莊敬里","LIN":"4鄰","STREET":"小東路","SECT":" ","MAREA":" ","LANE":"２５８巷","ALLEY":" ","HOUSE_NO":"２５號","E_COORD97":171184.21685,"N_COORD97":2544310.9018399999,"ADDRESS":"小東路２５８巷２５號","OBJECTID":662489},"geometry":{"x":171184.2168500023,"y":2544310.9018360022}},{"attributes":{"ID":662517,"DIS_CODE":0,"TOWNNAME":"東區","LI":"莊敬里","LIN":"4鄰","STREET":"小東路","SECT":" ","MAREA":" ","LANE":" ","ALLEY":" ","HOUSE_NO":"２９４號","E_COORD97":171218.32851600001,"N_COORD97":2544322.7551600002,"ADDRESS":"小東路２９４號","OBJECTID":662490},"geometry":{"x":171218.32851600088,"y":2544322.755162999}},{"attributes":{"ID":662518,"DIS_CODE":0,"TOWNNAME":"東區","LI":"莊敬里","LIN":"4鄰","STREET":"小東路","SECT":" ","MAREA":" ","LANE":" ","ALLEY":" ","HOUSE_NO":"３９４號之１","E_COORD97":171523.426645,"N_COORD97":2544287.9360199999,"ADDRESS":"小東路３９４號之１","OBJECTID":662491},"geometry":{"x":171523.4266450014,"y":2544287.9360150006}},{"attributes":{"ID":662519,"DIS_CODE":0,"TOWNNAME":"東區","LI":"莊敬里","LIN":"3鄰","STREET":"東光路","SECT":"二段","MAREA":" ","LANE":"１２１巷","ALLEY":" ","HOUSE_NO":"３８號","E_COORD97":171103.28109599999,"N_COORD97":2544214.5935499999,"ADDRESS":"東光路二段１２１巷３８號","OBJECTID":662492},"geometry":{"x":171103.28109600209,"y":2544214.5935539994}},{"attributes":{"ID":662520,"DIS_CODE":0,"TOWNNAME":"善化區","LI":"文昌里","LIN":"7鄰","STREET":"文昌路","SECT":" ","MAREA":" ","LANE":"３６巷","ALLEY":" ","HOUSE_NO":"３號二樓之１","E_COORD97":177325.462753,"N_COORD97":2558763.8488599998,"ADDRESS":"文昌路３６巷３號二樓之１","OBJECTID":662493},"geometry":{"x":177325.46275299974,"y":2558763.8488560002}},{"attributes":{"ID":662521,"DIS_CODE":0,"TOWNNAME":"善化區","LI":"文昌里","LIN":"7鄰","STREET":"文昌路","SECT":" ","MAREA":" ","LANE":"３６巷","ALLEY":" ","HOUSE_NO":"３號二樓之２","E_COORD97":177325.462753,"N_COORD97":2558763.8488599998,"ADDRESS":"文昌路３６巷３號二樓之２","OBJECTID":662494},"geometry":{"x":177325.46275299974,"y":2558763.8488560002}},{"attributes":{"ID":662522,"DIS_CODE":0,"TOWNNAME":"善化區","LI":"文昌里","LIN":"7鄰","STREET":"文昌路","SECT":" ","MAREA":" ","LANE":"３６巷","ALLEY":" ","HOUSE_NO":"３號二樓之３","E_COORD97":177325.462753,"N_COORD97":2558763.8488599998,"ADDRESS":"文昌路３６巷３號二樓之３","OBJECTID":662495},"geometry":{"x":177325.46275299974,"y":2558763.8488560002}},{"attributes":{"ID":662523,"DIS_CODE":0,"TOWNNAME":"善化區","LI":"文昌里","LIN":"7鄰","STREET":"文昌路","SECT":" ","MAREA":" ","LANE":"３６巷","ALLEY":" ","HOUSE_NO":"３號二樓之５","E_COORD97":177325.462753,"N_COORD97":2558763.8488599998,"ADDRESS":"文昌路３６巷３號二樓之５","OBJECTID":662496},"geometry":{"x":177325.46275299974,"y":2558763.8488560002}},{"attributes":{"ID":662524,"DIS_CODE":0,"TOWNNAME":"善化區","LI":"文昌里","LIN":"7鄰","STREET":"文昌路","SECT":" ","MAREA":" ","LANE":"３６巷","ALLEY":" ","HOUSE_NO":"３號二樓之６","E_COORD97":177325.462753,"N_COORD97":2558763.8488599998,"ADDRESS":"文昌路３６巷３號二樓之６","OBJECTID":662497},"geometry":{"x":177325.46275299974,"y":2558763.8488560002}},{"attributes":{"ID":662525,"DIS_CODE":0,"TOWNNAME":"善化區","LI":"文昌里","LIN":"7鄰","STREET":"文昌路","SECT":" ","MAREA":" ","LANE":"３６巷","ALLEY":" ","HOUSE_NO":"３號二樓之７","E_COORD97":177325.462753,"N_COORD97":2558763.8488599998,"ADDRESS":"文昌路３６巷３號二樓之７","OBJECTID":662498},"geometry":{"x":177325.46275299974,"y":2558763.8488560002}},{"attributes":{"ID":662526,"DIS_CODE":0,"TOWNNAME":"善化區","LI":"文昌里","LIN":"7鄰","STREET":"文昌路","SECT":" ","MAREA":" ","LANE":"３６巷","ALLEY":" ","HOUSE_NO":"３號二樓之８","E_COORD97":177325.462753,"N_COORD97":2558763.8488599998,"ADDRESS":"文昌路３６巷３號二樓之８","OBJECTID":662499},"geometry":{"x":177325.46275299974,"y":2558763.8488560002}},{"attributes":{"ID":662527,"DIS_CODE":0,"TOWNNAME":"善化區","LI":"文昌里","LIN":"7鄰","STREET":"文昌路","SECT":" ","MAREA":" ","LANE":"３６巷","ALLEY":" ","HOUSE_NO":"３號二樓之９","E_COORD97":177325.462753,"N_COORD97":2558763.8488599998,"ADDRESS":"文昌路３６巷３號二樓之９","OBJECTID":662500},"geometry":{"x":177325.46275299974,"y":2558763.8488560002}},{"attributes":{"ID":662528,"DIS_CODE":0,"TOWNNAME":"善化區","LI":"文昌里","LIN":"7鄰","STREET":"文昌路","SECT":" ","MAREA":" ","LANE":"３６巷","ALLEY":" ","HOUSE_NO":"３號二樓之１０","E_COORD97":177325.462753,"N_COORD97":2558763.8488599998,"ADDRESS":"文昌路３６巷３號二樓之１０","OBJECTID":662501},"geometry":{"x":177325.46275299974,"y":2558763.8488560002}},{"attributes":{"ID":662529,"DIS_CODE":0,"TOWNNAME":"善化區","LI":"文昌里","LIN":"7鄰","STREET":"文昌路","SECT":" ","MAREA":" ","LANE":"３６巷","ALLEY":" ","HOUSE_NO":"３號二樓之１１","E_COORD97":177325.462753,"N_COORD97":2558763.8488599998,"ADDRESS":"文昌路３６巷３號二樓之１１","OBJECTID":662502},"geometry":{"x":177325.46275299974,"y":2558763.8488560002}},{"attributes":{"ID":662530,"DIS_CODE":0,"TOWNNAME":"善化區","LI":"文昌里","LIN":"7鄰","STREET":"文昌路","SECT":" ","MAREA":" ","LANE":"３６巷","ALLEY":" ","HOUSE_NO":"３號二樓之１２","E_COORD97":177325.462753,"N_COORD97":2558763.8488599998,"ADDRESS":"文昌路３６巷３號二樓之１２","OBJECTID":662503},"geometry":{"x":177325.46275299974,"y":2558763.8488560002}},{"attributes":{"ID":662531,"DIS_CODE":0,"TOWNNAME":"善化區","LI":"文昌里","LIN":"7鄰","STREET":"文昌路","SECT":" ","MAREA":" ","LANE":"３６巷","ALLEY":" ","HOUSE_NO":"３號二樓之１３","E_COORD97":177325.462753,"N_COORD97":2558763.8488599998,"ADDRESS":"文昌路３６巷３號二樓之１３","OBJECTID":662504},"geometry":{"x":177325.46275299974,"y":2558763.8488560002}},{"attributes":{"ID":662532,"DIS_CODE":0,"TOWNNAME":"善化區","LI":"文昌里","LIN":"7鄰","STREET":"文昌路","SECT":" ","MAREA":" ","LANE":"３６巷","ALLEY":" ","HOUSE_NO":"３號二樓之１５","E_COORD97":177325.462753,"N_COORD97":2558763.8488599998,"ADDRESS":"文昌路３６巷３號二樓之１５","OBJECTID":662505},"geometry":{"x":177325.46275299974,"y":2558763.8488560002}},{"attributes":{"ID":662533,"DIS_CODE":0,"TOWNNAME":"善化區","LI":"文昌里","LIN":"7鄰","STREET":"文昌路","SECT":" ","MAREA":" ","LANE":"３６巷","ALLEY":" ","HOUSE_NO":"３號三樓之１","E_COORD97":177325.462753,"N_COORD97":2558763.8488599998,"ADDRESS":"文昌路３６巷３號三樓之１","OBJECTID":662506},"geometry":{"x":177325.46275299974,"y":2558763.8488560002}},{"attributes":{"ID":662534,"DIS_CODE":0,"TOWNNAME":"善化區","LI":"文昌里","LIN":"7鄰","STREET":"文昌路","SECT":" ","MAREA":" ","LANE":"３６巷","ALLEY":" ","HOUSE_NO":"３號三樓之２","E_COORD97":177325.462753,"N_COORD97":2558763.8488599998,"ADDRESS":"文昌路３６巷３號三樓之２","OBJECTID":662507},"geometry":{"x":177325.46275299974,"y":2558763.8488560002}},{"attributes":{"ID":662535,"DIS_CODE":0,"TOWNNAME":"善化區","LI":"文昌里","LIN":"7鄰","STREET":"文昌路","SECT":" ","MAREA":" ","LANE":"３６巷","ALLEY":" ","HOUSE_NO":"３號三樓之３","E_COORD97":177325.462753,"N_COORD97":2558763.8488599998,"ADDRESS":"文昌路３６巷３號三樓之３","OBJECTID":662508},"geometry":{"x":177325.46275299974,"y":2558763.8488560002}},{"attributes":{"ID":662536,"DIS_CODE":0,"TOWNNAME":"善化區","LI":"文昌里","LIN":"7鄰","STREET":"文昌路","SECT":" ","MAREA":" ","LANE":"３６巷","ALLEY":" ","HOUSE_NO":"３號三樓之５","E_COORD97":177325.462753,"N_COORD97":2558763.8488599998,"ADDRESS":"文昌路３６巷３號三樓之５","OBJECTID":662509},"geometry":{"x":177325.46275299974,"y":2558763.8488560002}},{"attributes":{"ID":662537,"DIS_CODE":0,"TOWNNAME":"善化區","LI":"文昌里","LIN":"7鄰","STREET":"文昌路","SECT":" ","MAREA":" ","LANE":"３６巷","ALLEY":" ","HOUSE_NO":"３號三樓之６","E_COORD97":177325.462753,"N_COORD97":2558763.8488599998,"ADDRESS":"文昌路３６巷３號三樓之６","OBJECTID":662510},"geometry":{"x":177325.46275299974,"y":2558763.8488560002}},{"attributes":{"ID":662538,"DIS_CODE":0,"TOWNNAME":"善化區","LI":"文昌里","LIN":"7鄰","STREET":"文昌路","SECT":" ","MAREA":" ","LANE":"３６巷","ALLEY":" ","HOUSE_NO":"３號三樓之７","E_COORD97":177325.462753,"N_COORD97":2558763.8488599998,"ADDRESS":"文昌路３６巷３號三樓之７","OBJECTID":662511},"geometry":{"x":177325.46275299974,"y":2558763.8488560002}},{"attributes":{"ID":662539,"DIS_CODE":0,"TOWNNAME":"善化區","LI":"文昌里","LIN":"7鄰","STREET":"文昌路","SECT":" ","MAREA":" ","LANE":"３６巷","ALLEY":" ","HOUSE_NO":"３號三樓之８","E_COORD97":177325.462753,"N_COORD97":2558763.8488599998,"ADDRESS":"文昌路３６巷３號三樓之８","OBJECTID":662512},"geometry":{"x":177325.46275299974,"y":2558763.8488560002}},{"attributes":{"ID":662540,"DIS_CODE":0,"TOWNNAME":"善化區","LI":"文昌里","LIN":"7鄰","STREET":"文昌路","SECT":" ","MAREA":" ","LANE":"３６巷","ALLEY":" ","HOUSE_NO":"３號三樓之９","E_COORD97":177325.462753,"N_COORD97":2558763.8488599998,"ADDRESS":"文昌路３６巷３號三樓之９","OBJECTID":662513},"geometry":{"x":177325.46275299974,"y":2558763.8488560002}},{"attributes":{"ID":662541,"DIS_CODE":0,"TOWNNAME":"善化區","LI":"文昌里","LIN":"7鄰","STREET":"文昌路","SECT":" ","MAREA":" ","LANE":"３６巷","ALLEY":" ","HOUSE_NO":"３號三樓之１０","E_COORD97":177325.462753,"N_COORD97":2558763.8488599998,"ADDRESS":"文昌路３６巷３號三樓之１０","OBJECTID":662514},"geometry":{"x":177325.46275299974,"y":2558763.8488560002}},{"attributes":{"ID":662542,"DIS_CODE":0,"TOWNNAME":"善化區","LI":"文昌里","LIN":"7鄰","STREET":"文昌路","SECT":" ","MAREA":" ","LANE":"３６巷","ALLEY":" ","HOUSE_NO":"３號三樓之１１","E_COORD97":177325.462753,"N_COORD97":2558763.8488599998,"ADDRESS":"文昌路３６巷３號三樓之１１","OBJECTID":662515},"geometry":{"x":177325.46275299974,"y":2558763.8488560002}},{"attributes":{"ID":662543,"DIS_CODE":0,"TOWNNAME":"善化區","LI":"文昌里","LIN":"7鄰","STREET":"文昌路","SECT":" ","MAREA":" ","LANE":"３６巷","ALLEY":" ","HOUSE_NO":"３號三樓之１２","E_COORD97":177325.462753,"N_COORD97":2558763.8488599998,"ADDRESS":"文昌路３６巷３號三樓之１２","OBJECTID":662516},"geometry":{"x":177325.46275299974,"y":2558763.8488560002}},{"attributes":{"ID":662544,"DIS_CODE":0,"TOWNNAME":"善化區","LI":"文昌里","LIN":"7鄰","STREET":"文昌路","SECT":" ","MAREA":" ","LANE":"３６巷","ALLEY":" ","HOUSE_NO":"３號三樓之１３","E_COORD97":177325.462753,"N_COORD97":2558763.8488599998,"ADDRESS":"文昌路３６巷３號三樓之１３","OBJECTID":662517},"geometry":{"x":177325.46275299974,"y":2558763.8488560002}},{"attributes":{"ID":662545,"DIS_CODE":0,"TOWNNAME":"善化區","LI":"文昌里","LIN":"7鄰","STREET":"文昌路","SECT":" ","MAREA":" ","LANE":"３６巷","ALLEY":" ","HOUSE_NO":"３號四樓之１","E_COORD97":177325.462753,"N_COORD97":2558763.8488599998,"ADDRESS":"文昌路３６巷３號四樓之１","OBJECTID":662518},"geometry":{"x":177325.46275299974,"y":2558763.8488560002}},{"attributes":{"ID":662546,"DIS_CODE":0,"TOWNNAME":"善化區","LI":"文昌里","LIN":"7鄰","STREET":"文昌路","SECT":" ","MAREA":" ","LANE":"３６巷","ALLEY":" ","HOUSE_NO":"３號四樓之２","E_COORD97":177325.462753,"N_COORD97":2558763.8488599998,"ADDRESS":"文昌路３６巷３號四樓之２","OBJECTID":662519},"geometry":{"x":177325.46275299974,"y":2558763.8488560002}},{"attributes":{"ID":662547,"DIS_CODE":0,"TOWNNAME":"善化區","LI":"文昌里","LIN":"7鄰","STREET":"文昌路","SECT":" ","MAREA":" ","LANE":"３６巷","ALLEY":" ","HOUSE_NO":"３號四樓之３","E_COORD97":177325.462753,"N_COORD97":2558763.8488599998,"ADDRESS":"文昌路３６巷３號四樓之３","OBJECTID":662520},"geometry":{"x":177325.46275299974,"y":2558763.8488560002}},{"attributes":{"ID":662548,"DIS_CODE":0,"TOWNNAME":"善化區","LI":"文昌里","LIN":"7鄰","STREET":"文昌路","SECT":" ","MAREA":" ","LANE":"３６巷","ALLEY":" ","HOUSE_NO":"３號四樓之５","E_COORD97":177325.462753,"N_COORD97":2558763.8488599998,"ADDRESS":"文昌路３６巷３號四樓之５","OBJECTID":662521},"geometry":{"x":177325.46275299974,"y":2558763.8488560002}},{"attributes":{"ID":662549,"DIS_CODE":0,"TOWNNAME":"善化區","LI":"文昌里","LIN":"7鄰","STREET":"文昌路","SECT":" ","MAREA":" ","LANE":"３６巷","ALLEY":" ","HOUSE_NO":"３號四樓之６","E_COORD97":177325.462753,"N_COORD97":2558763.8488599998,"ADDRESS":"文昌路３６巷３號四樓之６","OBJECTID":662522},"geometry":{"x":177325.46275299974,"y":2558763.8488560002}},{"attributes":{"ID":662550,"DIS_CODE":0,"TOWNNAME":"善化區","LI":"文昌里","LIN":"7鄰","STREET":"文昌路","SECT":" ","MAREA":" ","LANE":"３６巷","ALLEY":" ","HOUSE_NO":"３號四樓之７","E_COORD97":177325.462753,"N_COORD97":2558763.8488599998,"ADDRESS":"文昌路３６巷３號四樓之７","OBJECTID":662523},"geometry":{"x":177325.46275299974,"y":2558763.8488560002}},{"attributes":{"ID":662551,"DIS_CODE":0,"TOWNNAME":"善化區","LI":"文昌里","LIN":"7鄰","STREET":"文昌路","SECT":" ","MAREA":" ","LANE":"３６巷","ALLEY":" ","HOUSE_NO":"３號四樓之８","E_COORD97":177325.462753,"N_COORD97":2558763.8488599998,"ADDRESS":"文昌路３６巷３號四樓之８","OBJECTID":662524},"geometry":{"x":177325.46275299974,"y":2558763.8488560002}},{"attributes":{"ID":662552,"DIS_CODE":0,"TOWNNAME":"善化區","LI":"文昌里","LIN":"7鄰","STREET":"文昌路","SECT":" ","MAREA":" ","LANE":"３６巷","ALLEY":" ","HOUSE_NO":"３號四樓之９","E_COORD97":177325.462753,"N_COORD97":2558763.8488599998,"ADDRESS":"文昌路３６巷３號四樓之９","OBJECTID":662525},"geometry":{"x":177325.46275299974,"y":2558763.8488560002}},{"attributes":{"ID":662553,"DIS_CODE":0,"TOWNNAME":"善化區","LI":"文昌里","LIN":"7鄰","STREET":"文昌路","SECT":" ","MAREA":" ","LANE":"３６巷","ALLEY":" ","HOUSE_NO":"３號四樓之１０","E_COORD97":177325.462753,"N_COORD97":2558763.8488599998,"ADDRESS":"文昌路３６巷３號四樓之１０","OBJECTID":662526},"geometry":{"x":177325.46275299974,"y":2558763.8488560002}},{"attributes":{"ID":662554,"DIS_CODE":0,"TOWNNAME":"善化區","LI":"文昌里","LIN":"7鄰","STREET":"文昌路","SECT":" ","MAREA":" ","LANE":"３６巷","ALLEY":" ","HOUSE_NO":"３號四樓之１１","E_COORD97":177325.462753,"N_COORD97":2558763.8488599998,"ADDRESS":"文昌路３６巷３號四樓之１１","OBJECTID":662527},"geometry":{"x":177325.46275299974,"y":2558763.8488560002}},{"attributes":{"ID":662555,"DIS_CODE":0,"TOWNNAME":"善化區","LI":"文昌里","LIN":"7鄰","STREET":"文昌路","SECT":" ","MAREA":" ","LANE":"３６巷","ALLEY":" ","HOUSE_NO":"３號四樓之１２","E_COORD97":177325.462753,"N_COORD97":2558763.8488599998,"ADDRESS":"文昌路３６巷３號四樓之１２","OBJECTID":662528},"geometry":{"x":177325.46275299974,"y":2558763.8488560002}},{"attributes":{"ID":662556,"DIS_CODE":0,"TOWNNAME":"善化區","LI":"文昌里","LIN":"7鄰","STREET":"文昌路","SECT":" ","MAREA":" ","LANE":"３６巷","ALLEY":" ","HOUSE_NO":"３號四樓之１３","E_COORD97":177325.462753,"N_COORD97":2558763.8488599998,"ADDRESS":"文昌路３６巷３號四樓之１３","OBJECTID":662529},"geometry":{"x":177325.46275299974,"y":2558763.8488560002}},{"attributes":{"ID":662557,"DIS_CODE":0,"TOWNNAME":"善化區","LI":"文昌里","LIN":"7鄰","STREET":"文昌路","SECT":" ","MAREA":" ","LANE":"３６巷","ALLEY":" ","HOUSE_NO":"３號五樓之１","E_COORD97":177325.462753,"N_COORD97":2558763.8488599998,"ADDRESS":"文昌路３６巷３號五樓之１","OBJECTID":662530},"geometry":{"x":177325.46275299974,"y":2558763.8488560002}},{"attributes":{"ID":662558,"DIS_CODE":0,"TOWNNAME":"善化區","LI":"文昌里","LIN":"7鄰","STREET":"文昌路","SECT":" ","MAREA":" ","LANE":"３６巷","ALLEY":" ","HOUSE_NO":"３號五樓之２","E_COORD97":177325.462753,"N_COORD97":2558763.8488599998,"ADDRESS":"文昌路３６巷３號五樓之２","OBJECTID":662531},"geometry":{"x":177325.46275299974,"y":2558763.8488560002}},{"attributes":{"ID":662559,"DIS_CODE":0,"TOWNNAME":"善化區","LI":"文昌里","LIN":"7鄰","STREET":"文昌路","SECT":" ","MAREA":" ","LANE":"３６巷","ALLEY":" ","HOUSE_NO":"３號五樓之３","E_COORD97":177325.462753,"N_COORD97":2558763.8488599998,"ADDRESS":"文昌路３６巷３號五樓之３","OBJECTID":662532},"geometry":{"x":177325.46275299974,"y":2558763.8488560002}},{"attributes":{"ID":662560,"DIS_CODE":0,"TOWNNAME":"善化區","LI":"文昌里","LIN":"7鄰","STREET":"文昌路","SECT":" ","MAREA":" ","LANE":"３６巷","ALLEY":" ","HOUSE_NO":"３號五樓之５","E_COORD97":177325.462753,"N_COORD97":2558763.8488599998,"ADDRESS":"文昌路３６巷３號五樓之５","OBJECTID":662533},"geometry":{"x":177325.46275299974,"y":2558763.8488560002}},{"attributes":{"ID":662561,"DIS_CODE":0,"TOWNNAME":"善化區","LI":"文昌里","LIN":"7鄰","STREET":"文昌路","SECT":" ","MAREA":" ","LANE":"３６巷","ALLEY":" ","HOUSE_NO":"３號五樓之６","E_COORD97":177325.462753,"N_COORD97":2558763.8488599998,"ADDRESS":"文昌路３６巷３號五樓之６","OBJECTID":662534},"geometry":{"x":177325.46275299974,"y":2558763.8488560002}},{"attributes":{"ID":662562,"DIS_CODE":0,"TOWNNAME":"善化區","LI":"文昌里","LIN":"7鄰","STREET":"文昌路","SECT":" ","MAREA":" ","LANE":"３６巷","ALLEY":" ","HOUSE_NO":"３號五樓之７","E_COORD97":177325.462753,"N_COORD97":2558763.8488599998,"ADDRESS":"文昌路３６巷３號五樓之７","OBJECTID":662535},"geometry":{"x":177325.46275299974,"y":2558763.8488560002}},{"attributes":{"ID":662563,"DIS_CODE":0,"TOWNNAME":"善化區","LI":"文昌里","LIN":"7鄰","STREET":"文昌路","SECT":" ","MAREA":" ","LANE":"３６巷","ALLEY":" ","HOUSE_NO":"３號五樓之８","E_COORD97":177325.462753,"N_COORD97":2558763.8488599998,"ADDRESS":"文昌路３６巷３號五樓之８","OBJECTID":662536},"geometry":{"x":177325.46275299974,"y":2558763.8488560002}},{"attributes":{"ID":662564,"DIS_CODE":0,"TOWNNAME":"善化區","LI":"文昌里","LIN":"7鄰","STREET":"文昌路","SECT":" ","MAREA":" ","LANE":"３６巷","ALLEY":" ","HOUSE_NO":"３號五樓之９","E_COORD97":177325.462753,"N_COORD97":2558763.8488599998,"ADDRESS":"文昌路３６巷３號五樓之９","OBJECTID":662537},"geometry":{"x":177325.46275299974,"y":2558763.8488560002}},{"attributes":{"ID":662565,"DIS_CODE":0,"TOWNNAME":"善化區","LI":"文昌里","LIN":"7鄰","STREET":"文昌路","SECT":" ","MAREA":" ","LANE":"３６巷","ALLEY":" ","HOUSE_NO":"３號五樓之１０","E_COORD97":177325.462753,"N_COORD97":2558763.8488599998,"ADDRESS":"文昌路３６巷３號五樓之１０","OBJECTID":662538},"geometry":{"x":177325.46275299974,"y":2558763.8488560002}},{"attributes":{"ID":662566,"DIS_CODE":0,"TOWNNAME":"善化區","LI":"文昌里","LIN":"7鄰","STREET":"文昌路","SECT":" ","MAREA":" ","LANE":"３６巷","ALLEY":" ","HOUSE_NO":"３號五樓之１１","E_COORD97":177325.462753,"N_COORD97":2558763.8488599998,"ADDRESS":"文昌路３６巷３號五樓之１１","OBJECTID":662539},"geometry":{"x":177325.46275299974,"y":2558763.8488560002}},{"attributes":{"ID":662567,"DIS_CODE":0,"TOWNNAME":"善化區","LI":"文昌里","LIN":"7鄰","STREET":"文昌路","SECT":" ","MAREA":" ","LANE":"３６巷","ALLEY":" ","HOUSE_NO":"３號五樓之１２","E_COORD97":177325.462753,"N_COORD97":2558763.8488599998,"ADDRESS":"文昌路３６巷３號五樓之１２","OBJECTID":662540},"geometry":{"x":177325.46275299974,"y":2558763.8488560002}},{"attributes":{"ID":662568,"DIS_CODE":0,"TOWNNAME":"善化區","LI":"文昌里","LIN":"7鄰","STREET":"文昌路","SECT":" ","MAREA":" ","LANE":"３６巷","ALLEY":" ","HOUSE_NO":"３號五樓之１３","E_COORD97":177325.462753,"N_COORD97":2558763.8488599998,"ADDRESS":"文昌路３６巷３號五樓之１３","OBJECTID":662541},"geometry":{"x":177325.46275299974,"y":2558763.8488560002}},{"attributes":{"ID":662569,"DIS_CODE":0,"TOWNNAME":"東區","LI":"莊敬里","LIN":"5鄰","STREET":"小東路","SECT":" ","MAREA":" ","LANE":" ","ALLEY":" ","HOUSE_NO":"２９６號","E_COORD97":171229.557822,"N_COORD97":2544322.5435000001,"ADDRESS":"小東路２９６號","OBJECTID":662542},"geometry":{"x":171229.5578220021,"y":2544322.5434960015}},{"attributes":{"ID":662570,"DIS_CODE":0,"TOWNNAME":"東區","LI":"莊敬里","LIN":"5鄰","STREET":"小東路","SECT":" ","MAREA":" ","LANE":" ","ALLEY":" ","HOUSE_NO":"２６８號","E_COORD97":171175.31815400001,"N_COORD97":2544342.8634899999,"ADDRESS":"小東路２６８號","OBJECTID":662543},"geometry":{"x":171175.31815400068,"y":2544342.8634850029}},{"attributes":{"ID":662571,"DIS_CODE":0,"TOWNNAME":"東區","LI":"莊敬里","LIN":"22鄰","STREET":"莊敬路","SECT":" ","MAREA":" ","LANE":"１１６巷","ALLEY":" ","HOUSE_NO":"１７號","E_COORD97":171439.73653299999,"N_COORD97":2543977.8445199998,"ADDRESS":"莊敬路１１６巷１７號","OBJECTID":662544},"geometry":{"x":171439.73653300013,"y":2543977.8445149995}},{"attributes":{"ID":662572,"DIS_CODE":0,"TOWNNAME":"麻豆區","LI":"磚井里","LIN":"13鄰","STREET":" ","SECT":" ","MAREA":"磚子井","LANE":" ","ALLEY":" ","HOUSE_NO":"１３８號之１３","E_COORD97":172340.99016700001,"N_COORD97":2563262.54427,"ADDRESS":"磚子井１３８號之１３","OBJECTID":662545},"geometry":{"x":172340.99016700033,"y":2563262.5442699995}},{"attributes":{"ID":662573,"DIS_CODE":0,"TOWNNAME":"安定區","LI":"新吉里","LIN":"14鄰","STREET":" ","SECT":" ","MAREA":"新吉","LANE":" ","ALLEY":" ","HOUSE_NO":"１２３之１６號","E_COORD97":169330.54026099999,"N_COORD97":2553757.7361400002,"ADDRESS":"新吉１２３之１６號","OBJECTID":662546},"geometry":{"x":169330.54026100133,"y":2553757.7361410018}},{"attributes":{"ID":662574,"DIS_CODE":0,"TOWNNAME":"東區","LI":"圍下里","LIN":"13鄰","STREET":"前鋒路","SECT":" ","MAREA":" ","LANE":" ","ALLEY":" ","HOUSE_NO":"８２號","E_COORD97":169363.990483,"N_COORD97":2543631.5714500002,"ADDRESS":"前鋒路８２號","OBJECTID":662547},"geometry":{"x":169363.99048300087,"y":2543631.5714490023}},{"attributes":{"ID":662575,"DIS_CODE":0,"TOWNNAME":"東區","LI":"圍下里","LIN":"13鄰","STREET":"衛民街","SECT":" ","MAREA":" ","LANE":" ","ALLEY":" ","HOUSE_NO":"１號之３０","E_COORD97":169355.30366100001,"N_COORD97":2543664.37977,"ADDRESS":"衛民街１號之３０","OBJECTID":662548},"geometry":{"x":169355.30366099998,"y":2543664.3797650002}},{"attributes":{"ID":662576,"DIS_CODE":0,"TOWNNAME":"安定區","LI":"蘇林里","LIN":"1鄰","STREET":"北園二路","SECT":" ","MAREA":" ","LANE":" ","ALLEY":" ","HOUSE_NO":"１１號","E_COORD97":173326.38813800001,"N_COORD97":2555813.0499700001,"ADDRESS":"北園二路１１號","OBJECTID":662549},"geometry":{"x":173326.38813800085,"y":2555813.0499710012}},{"attributes":{"ID":662577,"DIS_CODE":0,"TOWNNAME":"歸仁區","LI":"媽廟里","LIN":"26鄰","STREET":"保大路","SECT":"一段","MAREA":" ","LANE":"２６０巷","ALLEY":"６４弄","HOUSE_NO":"３１號","E_COORD97":177519.331186,"N_COORD97":2544362.6444799998,"ADDRESS":"保大路一段２６０巷６４弄３１號","OBJECTID":662550},"geometry":{"x":177519.33118600119,"y":2544362.6444820017}},{"attributes":{"ID":662578,"DIS_CODE":0,"TOWNNAME":"安定區","LI":"港口里","LIN":"14鄰","STREET":" ","SECT":" ","MAREA":"港口","LANE":" ","ALLEY":" ","HOUSE_NO":"３３２之２７號","E_COORD97":170836.988549,"N_COORD97":2554689.52391,"ADDRESS":"港口３３２之２７號","OBJECTID":662551},"geometry":{"x":170836.98854899965,"y":2554689.5239109993}},{"attributes":{"ID":662579,"DIS_CODE":0,"TOWNNAME":"新市區","LI":"港墘里","LIN":"4鄰","STREET":"三民街","SECT":" ","MAREA":" ","LANE":"１１２巷","ALLEY":"１２弄","HOUSE_NO":"６號","E_COORD97":178370.508997,"N_COORD97":2553520.50868,"ADDRESS":"三民街１１２巷１２弄６號","OBJECTID":662552},"geometry":{"x":178370.50899699982,"y":2553520.5086759999}},{"attributes":{"ID":662580,"DIS_CODE":0,"TOWNNAME":"安定區","LI":"港南里","LIN":"1鄰","STREET":" ","SECT":" ","MAREA":"港口","LANE":" ","ALLEY":" ","HOUSE_NO":"５之５號","E_COORD97":171053.39657499999,"N_COORD97":2554271.6636600001,"ADDRESS":"港口５之５號","OBJECTID":662553},"geometry":{"x":171053.39657500107,"y":2554271.6636620034}},{"attributes":{"ID":662581,"DIS_CODE":0,"TOWNNAME":"安定區","LI":"六嘉里","LIN":"10鄰","STREET":" ","SECT":" ","MAREA":"六塊寮","LANE":" ","ALLEY":" ","HOUSE_NO":"８１之１６號","E_COORD97":170240.49736199999,"N_COORD97":2552951.6052100002,"ADDRESS":"六塊寮８１之１６號","OBJECTID":662554},"geometry":{"x":170240.49736199994,"y":2552951.6052090023}},{"attributes":{"ID":662582,"DIS_CODE":0,"TOWNNAME":"將軍區","LI":"將貴里","LIN":"7鄰","STREET":" ","SECT":" ","MAREA":"將貴","LANE":" ","ALLEY":" ","HOUSE_NO":"６３之１１號","E_COORD97":161858.26154100001,"N_COORD97":2567354.5354200001,"ADDRESS":"將貴６３之１１號","OBJECTID":662555},"geometry":{"x":161858.26154099964,"y":2567354.5354170017}},{"attributes":{"ID":662583,"DIS_CODE":0,"TOWNNAME":"安定區","LI":"港南里","LIN":"18鄰","STREET":" ","SECT":" ","MAREA":"港口","LANE":" ","ALLEY":" ","HOUSE_NO":"２３９之２５號","E_COORD97":171757.903299,"N_COORD97":2554245.31231,"ADDRESS":"港口２３９之２５號","OBJECTID":662556},"geometry":{"x":171757.90329900105,"y":2554245.3123090006}},{"attributes":{"ID":662584,"DIS_CODE":0,"TOWNNAME":"安定區","LI":"保西里","LIN":"7鄰","STREET":" ","SECT":" ","MAREA":"安定","LANE":" ","ALLEY":" ","HOUSE_NO":"３９６之１號","E_COORD97":171727.77336699999,"N_COORD97":2557748.9229199998,"ADDRESS":"安定３９６之１號","OBJECTID":662557},"geometry":{"x":171727.77336699981,"y":2557748.9229170047}},{"attributes":{"ID":662585,"DIS_CODE":0,"TOWNNAME":"安定區","LI":"保西里","LIN":"7鄰","STREET":" ","SECT":" ","MAREA":"安定","LANE":" ","ALLEY":" ","HOUSE_NO":"３９６之２號","E_COORD97":171737.41070899999,"N_COORD97":2557750.08708,"ADDRESS":"安定３９６之２號","OBJECTID":662558},"geometry":{"x":171737.41070900019,"y":2557750.0870830026}},{"attributes":{"ID":662586,"DIS_CODE":0,"TOWNNAME":"安定區","LI":"保西里","LIN":"7鄰","STREET":" ","SECT":" ","MAREA":"安定","LANE":" ","ALLEY":" ","HOUSE_NO":"３９６之３號","E_COORD97":171737.30480400001,"N_COORD97":2557755.0612499998,"ADDRESS":"安定３９６之３號","OBJECTID":662559},"geometry":{"x":171737.30480400007,"y":2557755.0612470023}},{"attributes":{"ID":662587,"DIS_CODE":0,"TOWNNAME":"安定區","LI":"保西里","LIN":"7鄰","STREET":" ","SECT":" ","MAREA":"安定","LANE":" ","ALLEY":" ","HOUSE_NO":"３９６之５號","E_COORD97":171736.881184,"N_COORD97":2557759.50624,"ADDRESS":"安定３９６之５號","OBJECTID":662560},"geometry":{"x":171736.88118399959,"y":2557759.5062450003}},{"attributes":{"ID":662588,"DIS_CODE":0,"TOWNNAME":"安定區","LI":"保西里","LIN":"7鄰","STREET":" ","SECT":" ","MAREA":"安定","LANE":" ","ALLEY":" ","HOUSE_NO":"３９６之６號","E_COORD97":171736.45756499999,"N_COORD97":2557764.16291,"ADDRESS":"安定３９６之６號","OBJECTID":662561},"geometry":{"x":171736.45756500121,"y":2557764.1629090011}},{"attributes":{"ID":662589,"DIS_CODE":0,"TOWNNAME":"安定區","LI":"港口里","LIN":"14鄰","STREET":" ","SECT":" ","MAREA":"港口","LANE":" ","ALLEY":" ","HOUSE_NO":"３３３之３５號","E_COORD97":170196.07140700001,"N_COORD97":2554824.2203299999,"ADDRESS":"港口３３３之３５號","OBJECTID":662562},"geometry":{"x":170196.07140700053,"y":2554824.2203299999}},{"attributes":{"ID":662590,"DIS_CODE":0,"TOWNNAME":"安定區","LI":"港口里","LIN":"14鄰","STREET":" ","SECT":" ","MAREA":"港口","LANE":" ","ALLEY":" ","HOUSE_NO":"３３２之３１號","E_COORD97":170915.377202,"N_COORD97":2554596.2554500001,"ADDRESS":"港口３３２之３１號","OBJECTID":662563},"geometry":{"x":170915.3772020014,"y":2554596.2554530017}},{"attributes":{"ID":662591,"DIS_CODE":0,"TOWNNAME":"安定區","LI":"港尾里","LIN":"3鄰","STREET":" ","SECT":" ","MAREA":"港子尾","LANE":" ","ALLEY":" ","HOUSE_NO":"１之２９號","E_COORD97":171862.90796499999,"N_COORD97":2556542.3177399999,"ADDRESS":"港子尾１之２９號","OBJECTID":662564},"geometry":{"x":171862.90796499979,"y":2556542.3177350033}},{"attributes":{"ID":662592,"DIS_CODE":0,"TOWNNAME":"安定區","LI":"新吉里","LIN":"7鄰","STREET":" ","SECT":" ","MAREA":"新吉","LANE":" ","ALLEY":" ","HOUSE_NO":"５６之１６５號","E_COORD97":168653.63277900001,"N_COORD97":2553510.4320200002,"ADDRESS":"新吉５６之１６５號","OBJECTID":662565},"geometry":{"x":168653.63277900126,"y":2553510.4320240021}},{"attributes":{"ID":662593,"DIS_CODE":0,"TOWNNAME":"安定區","LI":"新吉里","LIN":"18鄰","STREET":" ","SECT":" ","MAREA":"新吉","LANE":" ","ALLEY":" ","HOUSE_NO":"２８３之６號","E_COORD97":168342.94821199999,"N_COORD97":2554462.7938899999,"ADDRESS":"新吉２８３之６號","OBJECTID":662566},"geometry":{"x":168342.94821199961,"y":2554462.793889001}},{"attributes":{"ID":662594,"DIS_CODE":0,"TOWNNAME":"東區","LI":"文聖里","LIN":"20鄰","STREET":"裕義路","SECT":" ","MAREA":" ","LANE":" ","ALLEY":" ","HOUSE_NO":"２２０號","E_COORD97":172868.96987900001,"N_COORD97":2542787.5446100002,"ADDRESS":"裕義路２２０號","OBJECTID":662567},"geometry":{"x":172868.96987900138,"y":2542787.5446110014}},{"attributes":{"ID":662595,"DIS_CODE":0,"TOWNNAME":"東區","LI":"關聖里","LIN":"22鄰","STREET":"裕平路","SECT":" ","MAREA":" ","LANE":" ","ALLEY":" ","HOUSE_NO":"２５９號","E_COORD97":172649.25685100001,"N_COORD97":2542840.4612500002,"ADDRESS":"裕平路２５９號","OBJECTID":662568},"geometry":{"x":172649.25685100071,"y":2542840.4612490032}},{"attributes":{"ID":662596,"DIS_CODE":0,"TOWNNAME":"仁德區","LI":"上崙里","LIN":"12鄰","STREET":"崑崙路","SECT":" ","MAREA":" ","LANE":" ","ALLEY":" ","HOUSE_NO":"８０２號","E_COORD97":174498.18295799999,"N_COORD97":2537996.25446,"ADDRESS":"崑崙路８０２號","OBJECTID":662569},"geometry":{"x":174498.18295800034,"y":2537996.2544609997}},{"attributes":{"ID":662597,"DIS_CODE":0,"TOWNNAME":"東區","LI":"圍下里","LIN":"13鄰","STREET":"衛民街","SECT":" ","MAREA":" ","LANE":" ","ALLEY":" ","HOUSE_NO":"３４號","E_COORD97":169346.193092,"N_COORD97":2543667.2173899999,"ADDRESS":"衛民街３４號","OBJECTID":662570},"geometry":{"x":169346.19309200067,"y":2543667.2173890006}},{"attributes":{"ID":662598,"DIS_CODE":0,"TOWNNAME":"新營區","LI":"新北里","LIN":"19鄰","STREET":"金華路","SECT":"一段","MAREA":" ","LANE":" ","ALLEY":" ","HOUSE_NO":"３０９號","E_COORD97":179145.634758,"N_COORD97":2579189.6360800001,"ADDRESS":"金華路一段３０９號","OBJECTID":662571},"geometry":{"x":179145.63475800026,"y":2579189.6360809989}},{"attributes":{"ID":662599,"DIS_CODE":0,"TOWNNAME":"新營區","LI":"新北里","LIN":"19鄰","STREET":"金華路","SECT":"一段","MAREA":" ","LANE":" ","ALLEY":" ","HOUSE_NO":"３１１號","E_COORD97":179141.18611400001,"N_COORD97":2579186.4610799998,"ADDRESS":"金華路一段３１１號","OBJECTID":662572},"geometry":{"x":179141.18611400109,"y":2579186.4610830005}},{"attributes":{"ID":662600,"DIS_CODE":0,"TOWNNAME":"新營區","LI":"新北里","LIN":"19鄰","STREET":"金華路","SECT":"一段","MAREA":" ","LANE":" ","ALLEY":" ","HOUSE_NO":"３１３號","E_COORD97":179137.16114899999,"N_COORD97":2579183.4977500001,"ADDRESS":"金華路一段３１３號","OBJECTID":662573},"geometry":{"x":179137.16114900075,"y":2579183.4977510013}},{"attributes":{"ID":662601,"DIS_CODE":0,"TOWNNAME":"新營區","LI":"新北里","LIN":"19鄰","STREET":"金華路","SECT":"一段","MAREA":" ","LANE":" ","ALLEY":" ","HOUSE_NO":"３１５號","E_COORD97":179133.34802,"N_COORD97":2579180.74608,"ADDRESS":"金華路一段３１５號","OBJECTID":662574},"geometry":{"x":179133.34802000131,"y":2579180.74608}},{"attributes":{"ID":662602,"DIS_CODE":0,"TOWNNAME":"永康區","LI":"南灣里","LIN":"9鄰","STREET":"南興路","SECT":" ","MAREA":" ","LANE":"１０１巷","ALLEY":" ","HOUSE_NO":"７號","E_COORD97":174150.19038499999,"N_COORD97":2544381.2251599999,"ADDRESS":"南興路１０１巷７號","OBJECTID":662575},"geometry":{"x":174150.19038500171,"y":2544381.2251639999}},{"attributes":{"ID":662603,"DIS_CODE":0,"TOWNNAME":"永康區","LI":"埔園里","LIN":"34鄰","STREET":"永大路","SECT":"三段","MAREA":" ","LANE":"６１８巷","ALLEY":" ","HOUSE_NO":"５號","E_COORD97":174055.25643800001,"N_COORD97":2548750.76364,"ADDRESS":"永大路三段６１８巷５號","OBJECTID":662576},"geometry":{"x":174055.25643800013,"y":2548750.7636370026}},{"attributes":{"ID":662604,"DIS_CODE":0,"TOWNNAME":"永康區","LI":"埔園里","LIN":"34鄰","STREET":"永大路","SECT":"三段","MAREA":" ","LANE":"６１８巷","ALLEY":" ","HOUSE_NO":"７號","E_COORD97":174057.37549999999,"N_COORD97":2548750.1286399998,"ADDRESS":"永大路三段６１８巷７號","OBJECTID":662577},"geometry":{"x":174057.37550000101,"y":2548750.1286380012}},{"attributes":{"ID":662605,"DIS_CODE":0,"TOWNNAME":"新營區","LI":"新北里","LIN":"19鄰","STREET":"民生路","SECT":" ","MAREA":" ","LANE":"２２６巷","ALLEY":" ","HOUSE_NO":"４９號","E_COORD97":179162.58197500001,"N_COORD97":2579170.4802600001,"ADDRESS":"民生路２２６巷４９號","OBJECTID":662578},"geometry":{"x":179162.58197500091,"y":2579170.4802580029}},{"attributes":{"ID":662606,"DIS_CODE":0,"TOWNNAME":"新營區","LI":"新北里","LIN":"19鄰","STREET":"民生路","SECT":" ","MAREA":" ","LANE":"２２６巷","ALLEY":" ","HOUSE_NO":"４７號","E_COORD97":179158.34517099999,"N_COORD97":2579167.9402600001,"ADDRESS":"民生路２２６巷４７號","OBJECTID":662579},"geometry":{"x":179158.34517100081,"y":2579167.9402590021}},{"attributes":{"ID":662607,"DIS_CODE":0,"TOWNNAME":"新營區","LI":"新北里","LIN":"19鄰","STREET":"民生路","SECT":" ","MAREA":" ","LANE":"２２６巷","ALLEY":" ","HOUSE_NO":"４５號","E_COORD97":179154.10836700001,"N_COORD97":2579164.5535900001,"ADDRESS":"民生路２２６巷４５號","OBJECTID":662580},"geometry":{"x":179154.10836700071,"y":2579164.5535950009}},{"attributes":{"ID":662608,"DIS_CODE":0,"TOWNNAME":"新營區","LI":"新北里","LIN":"19鄰","STREET":"民生路","SECT":" ","MAREA":" ","LANE":"２２６巷","ALLEY":" ","HOUSE_NO":"４３號","E_COORD97":179149.65972200001,"N_COORD97":2579161.3785999999,"ADDRESS":"民生路２２６巷４３號","OBJECTID":662581},"geometry":{"x":179149.65972200036,"y":2579161.3785960022}},{"attributes":{"ID":662609,"DIS_CODE":0,"TOWNNAME":"安定區","LI":"海寮里","LIN":"14鄰","STREET":" ","SECT":" ","MAREA":"海寮","LANE":" ","ALLEY":" ","HOUSE_NO":"１３７之１２號","E_COORD97":169069.48478699999,"N_COORD97":2555621.25979,"ADDRESS":"海寮１３７之１２號","OBJECTID":662582},"geometry":{"x":169069.48478700034,"y":2555621.2597930022}},{"attributes":{"ID":662610,"DIS_CODE":0,"TOWNNAME":"安定區","LI":"海寮里","LIN":"14鄰","STREET":" ","SECT":" ","MAREA":"海寮","LANE":" ","ALLEY":" ","HOUSE_NO":"１３７之５號","E_COORD97":169028.10359700001,"N_COORD97":2555508.93126,"ADDRESS":"海寮１３７之５號","OBJECTID":662583},"geometry":{"x":169028.10359700117,"y":2555508.9312560018}},{"attributes":{"ID":662611,"DIS_CODE":0,"TOWNNAME":"安定區","LI":"管寮里","LIN":"1鄰","STREET":" ","SECT":" ","MAREA":"管寮","LANE":" ","ALLEY":" ","HOUSE_NO":"２之６號","E_COORD97":169890.247435,"N_COORD97":2555844.6738399998,"ADDRESS":"管寮２之６號","OBJECTID":662584},"geometry":{"x":169890.24743499979,"y":2555844.6738389991}},{"attributes":{"ID":662612,"DIS_CODE":0,"TOWNNAME":"安定區","LI":"港口里","LIN":"4鄰","STREET":" ","SECT":" ","MAREA":"港口","LANE":" ","ALLEY":" ","HOUSE_NO":"２５６號","E_COORD97":171471.51286799999,"N_COORD97":2554789.8335799999,"ADDRESS":"港口２５６號","OBJECTID":662585},"geometry":{"x":171471.51286800019,"y":2554789.8335749991}},{"attributes":{"ID":662613,"DIS_CODE":0,"TOWNNAME":"安定區","LI":"蘇林里","LIN":"21鄰","STREET":" ","SECT":" ","MAREA":"蘇厝","LANE":" ","ALLEY":" ","HOUSE_NO":"２３７之２號","E_COORD97":173333.505603,"N_COORD97":2558750.2206000001,"ADDRESS":"蘇厝２３７之２號","OBJECTID":662586},"geometry":{"x":173333.50560299959,"y":2558750.2206030022}},{"attributes":{"ID":662614,"DIS_CODE":0,"TOWNNAME":"安定區","LI":"蘇林里","LIN":"21鄰","STREET":" ","SECT":" ","MAREA":"蘇厝","LANE":" ","ALLEY":" ","HOUSE_NO":"２３７號之１","E_COORD97":173345.26104000001,"N_COORD97":2558748.1568499999,"ADDRESS":"蘇厝２３７之１號","OBJECTID":662587},"geometry":{"x":173345.26104000024,"y":2558748.1568499971}},{"attributes":{"ID":662615,"DIS_CODE":0,"TOWNNAME":"東區","LI":"圍下里","LIN":"7鄰","STREET":"青年路","SECT":" ","MAREA":" ","LANE":"２９３巷","ALLEY":" ","HOUSE_NO":"４號","E_COORD97":169430.60486799999,"N_COORD97":2543585.2164699999,"ADDRESS":"青年路２９３巷４號","OBJECTID":662588},"geometry":{"x":169430.6048680013,"y":2543585.2164740022}},{"attributes":{"ID":662616,"DIS_CODE":0,"TOWNNAME":"安定區","LI":"安定里","LIN":"6鄰","STREET":" ","SECT":" ","MAREA":"安定","LANE":" ","ALLEY":" ","HOUSE_NO":"３８之２５號","E_COORD97":172272.24940299999,"N_COORD97":2557810.0023099999,"ADDRESS":"安定３８之２５號","OBJECTID":662589},"geometry":{"x":172272.24940300174,"y":2557810.0023070015}},{"attributes":{"ID":662617,"DIS_CODE":0,"TOWNNAME":"安定區","LI":"六嘉里","LIN":"12鄰","STREET":" ","SECT":" ","MAREA":"六塊寮","LANE":" ","ALLEY":" ","HOUSE_NO":"１５７之６號","E_COORD97":169817.85136900001,"N_COORD97":2552750.1133699999,"ADDRESS":"六塊寮１５７之６號","OBJECTID":662590},"geometry":{"x":169817.85136900097,"y":2552750.1133730002}},{"attributes":{"ID":662618,"DIS_CODE":0,"TOWNNAME":"東區","LI":"圍下里","LIN":"9鄰","STREET":"東寧路","SECT":"西段","MAREA":" ","LANE":" ","ALLEY":" ","HOUSE_NO":"１１號","E_COORD97":169751.805398,"N_COORD97":2543643.9539399999,"ADDRESS":"東寧路西段１１號","OBJECTID":662591},"geometry":{"x":169751.8053980004,"y":2543643.9539420027}},{"attributes":{"ID":662619,"DIS_CODE":0,"TOWNNAME":"東區","LI":"圍下里","LIN":"9鄰","STREET":"東寧路","SECT":"西段","MAREA":" ","LANE":"２１巷","ALLEY":" ","HOUSE_NO":"７號","E_COORD97":169738.45735499999,"N_COORD97":2543585.7456399999,"ADDRESS":"東寧路西段２１巷７號","OBJECTID":662592},"geometry":{"x":169738.45735500008,"y":2543585.7456410006}},{"attributes":{"ID":662620,"DIS_CODE":0,"TOWNNAME":"善化區","LI":"小新里","LIN":"11鄰","STREET":"蓮潭北二街","SECT":" ","MAREA":" ","LANE":" ","ALLEY":" ","HOUSE_NO":"２１８號","E_COORD97":178717.59594,"N_COORD97":2557401.8609799999,"ADDRESS":"蓮潭北二街２１８號","OBJECTID":662593},"geometry":{"x":178717.59594000131,"y":2557401.8609760012}},{"attributes":{"ID":662621,"DIS_CODE":0,"TOWNNAME":"東區","LI":"圍下里","LIN":"23鄰","STREET":"前鋒路","SECT":" ","MAREA":" ","LANE":"１３７巷","ALLEY":" ","HOUSE_NO":"１４號","E_COORD97":169295.005699,"N_COORD97":2543864.61632,"ADDRESS":"前鋒路１３７巷１４號","OBJECTID":662594},"geometry":{"x":169295.00569900125,"y":2543864.6163229998}},{"attributes":{"ID":662622,"DIS_CODE":0,"TOWNNAME":"東區","LI":"圍下里","LIN":"23鄰","STREET":"前鋒路","SECT":" ","MAREA":" ","LANE":"１３７巷","ALLEY":" ","HOUSE_NO":"１５號","E_COORD97":169297.97193100001,"N_COORD97":2543857.4196600001,"ADDRESS":"前鋒路１３７巷１５號","OBJECTID":662595},"geometry":{"x":169297.97193100024,"y":2543857.4196610022}},{"attributes":{"ID":662623,"DIS_CODE":0,"TOWNNAME":"安定區","LI":"南安里","LIN":"2鄰","STREET":" ","SECT":" ","MAREA":"油車","LANE":" ","ALLEY":" ","HOUSE_NO":"２４之８號","E_COORD97":170596.69032299999,"N_COORD97":2555857.0652899998,"ADDRESS":"油車２４之８號","OBJECTID":662596},"geometry":{"x":170596.69032300077,"y":2555857.0652879998}},{"attributes":{"ID":662624,"DIS_CODE":0,"TOWNNAME":"安定區","LI":"蘇厝里","LIN":"7鄰","STREET":" ","SECT":" ","MAREA":"蘇厝","LANE":" ","ALLEY":" ","HOUSE_NO":"３４０之８號","E_COORD97":173001.78964500001,"N_COORD97":2558184.9740300002,"ADDRESS":"蘇厝３４０之８號","OBJECTID":662597},"geometry":{"x":173001.78964500036,"y":2558184.9740309995}},{"attributes":{"ID":662625,"DIS_CODE":0,"TOWNNAME":"安定區","LI":"中榮里","LIN":"9鄰","STREET":" ","SECT":" ","MAREA":"許中營","LANE":" ","ALLEY":" ","HOUSE_NO":"７７之３６號","E_COORD97":172663.21181400001,"N_COORD97":2555224.39396,"ADDRESS":"許中營７７之３６號","OBJECTID":662598},"geometry":{"x":172663.2118140012,"y":2555224.3939630035}},{"attributes":{"ID":662626,"DIS_CODE":0,"TOWNNAME":"安定區","LI":"新吉里","LIN":"18鄰","STREET":" ","SECT":" ","MAREA":"新吉","LANE":" ","ALLEY":" ","HOUSE_NO":"２８２之３號","E_COORD97":168462.38972199999,"N_COORD97":2553976.8313000002,"ADDRESS":"新吉２８２之３號","OBJECTID":662599},"geometry":{"x":168462.38972199988,"y":2553976.8313040007}},{"attributes":{"ID":662627,"DIS_CODE":0,"TOWNNAME":"仁德區","LI":"太子里","LIN":"27鄰","STREET":"大利路","SECT":" ","MAREA":" ","LANE":" ","ALLEY":" ","HOUSE_NO":"４７號","E_COORD97":173542.989619,"N_COORD97":2543123.8495399999,"ADDRESS":"大利路４７號","OBJECTID":662600},"geometry":{"x":173542.98961900081,"y":2543123.8495370019}}]}