{"displayFieldName":"TOWNNAME","fieldAliases":{"ID":"ID","DIS_CODE":"DIS_CODE","TOWNNAME":"TOWNNAME","LI":"LI","LIN":"LIN","STREET":"STREET","SECT":"SECT","MAREA":"MAREA","LANE":"LANE","ALLEY":"ALLEY","HOUSE_NO":"HOUSE_NO","E_COORD97":"E_COORD97","N_COORD97":"N_COORD97","ADDRESS":"ADDRESS","OBJECTID":"OBJECTID"},"geometryType":"esriGeometryPoint","spatialReference":{"wkid":102443,"latestWkid":3826},"fields":[{"name":"ID","type":"esriFieldTypeDouble","alias":"ID"},{"name":"DIS_CODE","type":"esriFieldTypeInteger","alias":"DIS_CODE"},{"name":"TOWNNAME","type":"esriFieldTypeString","alias":"TOWNNAME","length":8},{"name":"LI","type":"esriFieldTypeString","alias":"LI","length":8},{"name":"LIN","type":"esriFieldTypeString","alias":"LIN","length":12},{"name":"STREET","type":"esriFieldTypeString","alias":"STREET","length":20},{"name":"SECT","type":"esriFieldTypeString","alias":"SECT","length":8},{"name":"MAREA","type":"esriFieldTypeString","alias":"MAREA","length":12},{"name":"LANE","type":"esriFieldTypeString","alias":"LANE","length":10},{"name":"ALLEY","type":"esriFieldTypeString","alias":"ALLEY","length":10},{"name":"HOUSE_NO","type":"esriFieldTypeString","alias":"HOUSE_NO","length":20},{"name":"E_COORD97","type":"esriFieldTypeDouble","alias":"E_COORD97"},{"name":"N_COORD97","type":"esriFieldTypeDouble","alias":"N_COORD97"},{"name":"ADDRESS","type":"esriFieldTypeString","alias":"ADDRESS","length":50},{"name":"OBJECTID","type":"esriFieldTypeOID","alias":"OBJECTID"}],"features":[{"attributes":{"ID":45401,"DIS_CODE":0,"TOWNNAME":"善化區","LI":"坐駕里","LIN":"20鄰","STREET":" ","SECT":" ","MAREA":"坐駕","LANE":" ","ALLEY":" ","HOUSE_NO":"１１０號","E_COORD97":178313.88,"N_COORD97":2558327.25,"ADDRESS":"坐駕１１０號","OBJECTID":45401},"geometry":{"x":178313.88000000175,"y":2558327.2500000019}},{"attributes":{"ID":45402,"DIS_CODE":0,"TOWNNAME":"善化區","LI":"小新里","LIN":"20鄰","STREET":" ","SECT":" ","MAREA":"小新營","LANE":" ","ALLEY":" ","HOUSE_NO":"１６６號之２","E_COORD97":180050.07000000001,"N_COORD97":2558232.02,"ADDRESS":"小新營１６６號之２","OBJECTID":45402},"geometry":{"x":180050.0700000003,"y":2558232.0199999996}},{"attributes":{"ID":45403,"DIS_CODE":0,"TOWNNAME":"善化區","LI":"小新里","LIN":"20鄰","STREET":" ","SECT":" ","MAREA":"小新營","LANE":" ","ALLEY":" ","HOUSE_NO":"１６５號之３","E_COORD97":180132.14999999999,"N_COORD97":2558168.52,"ADDRESS":"小新營１６５號之３","OBJECTID":45403},"geometry":{"x":180132.1500000013,"y":2558168.5200000033}},{"attributes":{"ID":45404,"DIS_CODE":0,"TOWNNAME":"仁德區","LI":"仁義里","LIN":"15鄰","STREET":"義林路","SECT":" ","MAREA":" ","LANE":"２００巷","ALLEY":"６５弄","HOUSE_NO":"１６號","E_COORD97":174626.13,"N_COORD97":2541307.6600000001,"ADDRESS":"義林路２００巷６５弄１６號","OBJECTID":45404},"geometry":{"x":174626.12999999989,"y":2541307.6600000039}},{"attributes":{"ID":45405,"DIS_CODE":0,"TOWNNAME":"學甲區","LI":"仁得里","LIN":"17鄰","STREET":"四維街","SECT":" ","MAREA":" ","LANE":" ","ALLEY":" ","HOUSE_NO":"１７９號之２","E_COORD97":165757.95999999999,"N_COORD97":2569830.0800000001,"ADDRESS":"四維街１７９號之２","OBJECTID":45405},"geometry":{"x":165757.96000000089,"y":2569830.0800000001}},{"attributes":{"ID":45406,"DIS_CODE":0,"TOWNNAME":"善化區","LI":"小新里","LIN":"20鄰","STREET":" ","SECT":" ","MAREA":"小新營","LANE":" ","ALLEY":" ","HOUSE_NO":"１６５之１４號","E_COORD97":180119.10000000001,"N_COORD97":2558189.52,"ADDRESS":"小新營１６５之１４號","OBJECTID":45406},"geometry":{"x":180119.09999999963,"y":2558189.5200000014}},{"attributes":{"ID":45407,"DIS_CODE":0,"TOWNNAME":"佳里區","LI":"安西里","LIN":"40鄰","STREET":"佳西路","SECT":" ","MAREA":" ","LANE":" ","ALLEY":" ","HOUSE_NO":"２５３號","E_COORD97":164763.95000000001,"N_COORD97":2562647.7000000002,"ADDRESS":"佳西路２５３號","OBJECTID":45407},"geometry":{"x":164763.95000000019,"y":2562647.6999999993}},{"attributes":{"ID":45408,"DIS_CODE":0,"TOWNNAME":"佳里區","LI":"安西里","LIN":"40鄰","STREET":"佳西路","SECT":" ","MAREA":" ","LANE":" ","ALLEY":" ","HOUSE_NO":"２５５號","E_COORD97":164763.53,"N_COORD97":2562654.0099999998,"ADDRESS":"佳西路２５５號","OBJECTID":45408},"geometry":{"x":164763.52999999933,"y":2562654.0100000035}},{"attributes":{"ID":45409,"DIS_CODE":0,"TOWNNAME":"歸仁區","LI":"歸仁里","LIN":"26鄰","STREET":"文化街","SECT":"一段","MAREA":" ","LANE":" ","ALLEY":" ","HOUSE_NO":"２５號","E_COORD97":178219.5,"N_COORD97":2541246.6400000001,"ADDRESS":"文化街一段２５號","OBJECTID":45409},"geometry":{"x":178219.5,"y":2541246.6400000006}},{"attributes":{"ID":45410,"DIS_CODE":0,"TOWNNAME":"歸仁區","LI":"歸仁里","LIN":"26鄰","STREET":"文化街","SECT":"一段","MAREA":" ","LANE":" ","ALLEY":" ","HOUSE_NO":"２７號","E_COORD97":178215.57999999999,"N_COORD97":2541244.1000000001,"ADDRESS":"文化街一段２７號","OBJECTID":45410},"geometry":{"x":178215.58000000007,"y":2541244.1000000015}},{"attributes":{"ID":45411,"DIS_CODE":0,"TOWNNAME":"歸仁區","LI":"歸仁里","LIN":"26鄰","STREET":"文化街","SECT":"一段","MAREA":" ","LANE":" ","ALLEY":" ","HOUSE_NO":"２９號","E_COORD97":178211.76000000001,"N_COORD97":2541241.3500000001,"ADDRESS":"文化街一段２９號","OBJECTID":45411},"geometry":{"x":178211.76000000071,"y":2541241.3500000034}},{"attributes":{"ID":45412,"DIS_CODE":0,"TOWNNAME":"歸仁區","LI":"歸仁里","LIN":"26鄰","STREET":"文化街","SECT":"一段","MAREA":" ","LANE":" ","ALLEY":" ","HOUSE_NO":"３１號","E_COORD97":178207.95000000001,"N_COORD97":2541238.4900000002,"ADDRESS":"文化街一段３１號","OBJECTID":45412},"geometry":{"x":178207.95000000019,"y":2541238.4900000021}},{"attributes":{"ID":45413,"DIS_CODE":0,"TOWNNAME":"歸仁區","LI":"歸仁里","LIN":"26鄰","STREET":"文化街","SECT":"一段","MAREA":" ","LANE":" ","ALLEY":" ","HOUSE_NO":"３３號","E_COORD97":178204.23999999999,"N_COORD97":2541235.9500000002,"ADDRESS":"文化街一段３３號","OBJECTID":45413},"geometry":{"x":178204.24000000022,"y":2541235.9499999993}},{"attributes":{"ID":45414,"DIS_CODE":0,"TOWNNAME":"歸仁區","LI":"歸仁里","LIN":"26鄰","STREET":"文化街","SECT":"一段","MAREA":" ","LANE":" ","ALLEY":" ","HOUSE_NO":"３５號","E_COORD97":178200.32000000001,"N_COORD97":2541233.3100000001,"ADDRESS":"文化街一段３５號","OBJECTID":45414},"geometry":{"x":178200.32000000123,"y":2541233.3100000024}},{"attributes":{"ID":45415,"DIS_CODE":0,"TOWNNAME":"仁德區","LI":"仁義里","LIN":"15鄰","STREET":"義林路","SECT":" ","MAREA":" ","LANE":"２００巷","ALLEY":"６５弄","HOUSE_NO":"１０號","E_COORD97":174627.78,"N_COORD97":2541319.9100000001,"ADDRESS":"義林路２００巷６５弄１０號","OBJECTID":45415},"geometry":{"x":174627.78000000026,"y":2541319.910000002}},{"attributes":{"ID":45416,"DIS_CODE":0,"TOWNNAME":"仁德區","LI":"仁義里","LIN":"15鄰","STREET":"義林路","SECT":" ","MAREA":" ","LANE":"２５６巷","ALLEY":"２２弄","HOUSE_NO":"１７號","E_COORD97":174748.34,"N_COORD97":2541402.2599999998,"ADDRESS":"義林路２５６巷２２弄１７號","OBJECTID":45416},"geometry":{"x":174748.33999999985,"y":2541402.2600000016}},{"attributes":{"ID":45417,"DIS_CODE":0,"TOWNNAME":"仁德區","LI":"仁義里","LIN":"15鄰","STREET":"義林路","SECT":" ","MAREA":" ","LANE":"２５６巷","ALLEY":"２２弄","HOUSE_NO":"１１號","E_COORD97":174744.34,"N_COORD97":2541427.5099999998,"ADDRESS":"義林路２５６巷２２弄１１號","OBJECTID":45417},"geometry":{"x":174744.34000000078,"y":2541427.5100000016}},{"attributes":{"ID":45418,"DIS_CODE":0,"TOWNNAME":"仁德區","LI":"仁義里","LIN":"15鄰","STREET":"義林路","SECT":" ","MAREA":" ","LANE":"２５６巷","ALLEY":"２２弄","HOUSE_NO":"３號","E_COORD97":174736.79999999999,"N_COORD97":2541465.27,"ADDRESS":"義林路２５６巷２２弄３號","OBJECTID":45418},"geometry":{"x":174736.79999999981,"y":2541465.2699999996}},{"attributes":{"ID":45419,"DIS_CODE":0,"TOWNNAME":"仁德區","LI":"仁義里","LIN":"15鄰","STREET":"義林路","SECT":" ","MAREA":" ","LANE":"２５６巷","ALLEY":"２２弄","HOUSE_NO":"１３號","E_COORD97":174745.59,"N_COORD97":2541418.5099999998,"ADDRESS":"義林路２５６巷２２弄１３號","OBJECTID":45419},"geometry":{"x":174745.58999999985,"y":2541418.5099999998}},{"attributes":{"ID":45420,"DIS_CODE":0,"TOWNNAME":"仁德區","LI":"保安里","LIN":"15鄰","STREET":"文賢路","SECT":"二段","MAREA":" ","LANE":"１８巷","ALLEY":"１７弄","HOUSE_NO":"３號","E_COORD97":171699.67999999999,"N_COORD97":2535769.8300000001,"ADDRESS":"文賢路二段１８巷１７弄３號","OBJECTID":45420},"geometry":{"x":171699.6799999997,"y":2535769.8300000038}},{"attributes":{"ID":45421,"DIS_CODE":0,"TOWNNAME":"安南區","LI":"溪東里","LIN":"15鄰","STREET":"府安路","SECT":"五段","MAREA":" ","LANE":"１１巷","ALLEY":"５９弄","HOUSE_NO":"９號","E_COORD97":168409.01999999999,"N_COORD97":2547468.1200000001,"ADDRESS":"府安路五段１１巷５９弄９號","OBJECTID":45421},"geometry":{"x":168409.01999999955,"y":2547468.120000001}},{"attributes":{"ID":45422,"DIS_CODE":0,"TOWNNAME":"歸仁區","LI":"歸仁里","LIN":"26鄰","STREET":"文化街","SECT":"一段","MAREA":" ","LANE":" ","ALLEY":" ","HOUSE_NO":"３７號","E_COORD97":178196.72,"N_COORD97":2541230.4500000002,"ADDRESS":"文化街一段３７號","OBJECTID":45422},"geometry":{"x":178196.72000000067,"y":2541230.4500000011}},{"attributes":{"ID":45423,"DIS_CODE":0,"TOWNNAME":"歸仁區","LI":"歸仁里","LIN":"26鄰","STREET":"文化街","SECT":"一段","MAREA":" ","LANE":" ","ALLEY":" ","HOUSE_NO":"３９號","E_COORD97":178192.79999999999,"N_COORD97":2541227.7000000002,"ADDRESS":"文化街一段３９號","OBJECTID":45423},"geometry":{"x":178192.80000000075,"y":2541227.6999999993}},{"attributes":{"ID":45424,"DIS_CODE":0,"TOWNNAME":"歸仁區","LI":"崙頂里","LIN":"26鄰","STREET":"成功十街","SECT":" ","MAREA":" ","LANE":" ","ALLEY":" ","HOUSE_NO":"１０１號","E_COORD97":177774.35000000001,"N_COORD97":2539837.4300000002,"ADDRESS":"成功十街１０１號","OBJECTID":45424},"geometry":{"x":177774.34999999963,"y":2539837.4300000034}},{"attributes":{"ID":45425,"DIS_CODE":0,"TOWNNAME":"東區","LI":"崇德里","LIN":"25鄰","STREET":"崇道路","SECT":" ","MAREA":" ","LANE":" ","ALLEY":" ","HOUSE_NO":"４９號","E_COORD97":170717.07999999999,"N_COORD97":2541422.6499999999,"ADDRESS":"崇道路４９號","OBJECTID":45425},"geometry":{"x":170717.08000000101,"y":2541422.6500000004}},{"attributes":{"ID":45426,"DIS_CODE":0,"TOWNNAME":"安南區","LI":"溪心里","LIN":"15鄰","STREET":"智安四街","SECT":" ","MAREA":" ","LANE":"１０５巷","ALLEY":"２弄","HOUSE_NO":"９號","E_COORD97":166013.31,"N_COORD97":2550414.7200000002,"ADDRESS":"智安四街１０５巷２弄９號","OBJECTID":45426},"geometry":{"x":166013.30999999959,"y":2550414.7200000025}},{"attributes":{"ID":45427,"DIS_CODE":0,"TOWNNAME":"安南區","LI":"溪東里","LIN":"15鄰","STREET":"府安路","SECT":"五段","MAREA":" ","LANE":"１１巷","ALLEY":"５９弄","HOUSE_NO":"１０號","E_COORD97":168406.37,"N_COORD97":2547491.3999999999,"ADDRESS":"府安路五段１１巷５９弄１０號","OBJECTID":45427},"geometry":{"x":168406.37000000104,"y":2547491.4000000022}},{"attributes":{"ID":45428,"DIS_CODE":0,"TOWNNAME":"安南區","LI":"溪東里","LIN":"15鄰","STREET":"府安路","SECT":"五段","MAREA":" ","LANE":"１１巷","ALLEY":"５９弄","HOUSE_NO":"１３號","E_COORD97":168395.81,"N_COORD97":2547466.5099999998,"ADDRESS":"府安路五段１１巷５９弄１３號","OBJECTID":45428},"geometry":{"x":168395.81000000052,"y":2547466.5100000016}},{"attributes":{"ID":45429,"DIS_CODE":0,"TOWNNAME":"安南區","LI":"溪東里","LIN":"15鄰","STREET":"府安路","SECT":"五段","MAREA":" ","LANE":"１１巷","ALLEY":"５９弄","HOUSE_NO":"１８號","E_COORD97":168379.95999999999,"N_COORD97":2547487.27,"ADDRESS":"府安路五段１１巷５９弄１８號","OBJECTID":45429},"geometry":{"x":168379.96000000089,"y":2547487.2700000014}},{"attributes":{"ID":45430,"DIS_CODE":0,"TOWNNAME":"安南區","LI":"溪東里","LIN":"15鄰","STREET":"府安路","SECT":"五段","MAREA":" ","LANE":"１１巷","ALLEY":"５９弄","HOUSE_NO":"２１號","E_COORD97":168370.28,"N_COORD97":2547462.4300000002,"ADDRESS":"府安路五段１１巷５９弄２１號","OBJECTID":45430},"geometry":{"x":168370.28000000026,"y":2547462.4300000034}},{"attributes":{"ID":45431,"DIS_CODE":0,"TOWNNAME":"安南區","LI":"溪東里","LIN":"15鄰","STREET":"府安路","SECT":"五段","MAREA":" ","LANE":"１１巷","ALLEY":"５９弄","HOUSE_NO":"２７號","E_COORD97":168350.81,"N_COORD97":2547460.0800000001,"ADDRESS":"府安路五段１１巷５９弄２７號","OBJECTID":45431},"geometry":{"x":168350.80999999959,"y":2547460.0800000001}},{"attributes":{"ID":45432,"DIS_CODE":0,"TOWNNAME":"安南區","LI":"溪東里","LIN":"15鄰","STREET":"府安路","SECT":"五段","MAREA":" ","LANE":"１１巷","ALLEY":"５９弄","HOUSE_NO":"３７號","E_COORD97":168317.85000000001,"N_COORD97":2547457.46,"ADDRESS":"府安路五段１１巷５９弄３７號","OBJECTID":45432},"geometry":{"x":168317.85000000056,"y":2547457.4600000028}},{"attributes":{"ID":45433,"DIS_CODE":0,"TOWNNAME":"安南區","LI":"溪東里","LIN":"15鄰","STREET":"府安路","SECT":"五段","MAREA":" ","LANE":"１１巷","ALLEY":"５９弄","HOUSE_NO":"３９號","E_COORD97":168303.92999999999,"N_COORD97":2547457.54,"ADDRESS":"府安路五段１１巷５９弄３９號","OBJECTID":45433},"geometry":{"x":168303.93000000063,"y":2547457.5400000028}},{"attributes":{"ID":45434,"DIS_CODE":0,"TOWNNAME":"安南區","LI":"溪東里","LIN":"15鄰","STREET":"府安路","SECT":"五段","MAREA":" ","LANE":"１１巷","ALLEY":"５９弄","HOUSE_NO":"４１號","E_COORD97":168297.48000000001,"N_COORD97":2547457.3599999999,"ADDRESS":"府安路五段１１巷５９弄４１號","OBJECTID":45434},"geometry":{"x":168297.48000000138,"y":2547457.3599999994}},{"attributes":{"ID":45435,"DIS_CODE":0,"TOWNNAME":"歸仁區","LI":"大廟里","LIN":"22鄰","STREET":"大廟一街","SECT":" ","MAREA":" ","LANE":" ","ALLEY":" ","HOUSE_NO":"６２號","E_COORD97":175792.47,"N_COORD97":2544004.25,"ADDRESS":"大廟一街６２號","OBJECTID":45435},"geometry":{"x":175792.4700000016,"y":2544004.25}},{"attributes":{"ID":45436,"DIS_CODE":0,"TOWNNAME":"歸仁區","LI":"崙頂里","LIN":"8鄰","STREET":"成功八街","SECT":" ","MAREA":" ","LANE":" ","ALLEY":" ","HOUSE_NO":"２７號","E_COORD97":178058.10999999999,"N_COORD97":2539896.0600000001,"ADDRESS":"成功八街２７號","OBJECTID":45436},"geometry":{"x":178058.11000000034,"y":2539896.0600000024}},{"attributes":{"ID":45437,"DIS_CODE":0,"TOWNNAME":"歸仁區","LI":"武東里","LIN":"13鄰","STREET":" ","SECT":" ","MAREA":"明德新村","LANE":" ","ALLEY":" ","HOUSE_NO":"２３８號","E_COORD97":175068.44,"N_COORD97":2536095.27,"ADDRESS":"明德新村２３８號","OBJECTID":45437},"geometry":{"x":175068.44000000134,"y":2536095.2700000033}},{"attributes":{"ID":45438,"DIS_CODE":0,"TOWNNAME":"善化區","LI":"小新里","LIN":"20鄰","STREET":" ","SECT":" ","MAREA":"小新營","LANE":" ","ALLEY":" ","HOUSE_NO":"１６５之１５號","E_COORD97":180123.64999999999,"N_COORD97":2558189.02,"ADDRESS":"小新營１６５之１５號","OBJECTID":45438},"geometry":{"x":180123.6500000013,"y":2558189.0200000014}},{"attributes":{"ID":45439,"DIS_CODE":0,"TOWNNAME":"善化區","LI":"小新里","LIN":"20鄰","STREET":" ","SECT":" ","MAREA":"小新營","LANE":" ","ALLEY":" ","HOUSE_NO":"１６３之３號","E_COORD97":179976.14999999999,"N_COORD97":2558196.27,"ADDRESS":"小新營１６３之３號","OBJECTID":45439},"geometry":{"x":179976.1500000013,"y":2558196.2699999996}},{"attributes":{"ID":45440,"DIS_CODE":0,"TOWNNAME":"安南區","LI":"溪東里","LIN":"15鄰","STREET":"府安路","SECT":"五段","MAREA":" ","LANE":"１１巷","ALLEY":"５９弄","HOUSE_NO":"４３號","E_COORD97":168292.95000000001,"N_COORD97":2547456.9900000002,"ADDRESS":"府安路五段１１巷５９弄４３號","OBJECTID":45440},"geometry":{"x":168292.95000000019,"y":2547456.9900000021}},{"attributes":{"ID":45441,"DIS_CODE":0,"TOWNNAME":"安南區","LI":"溪東里","LIN":"15鄰","STREET":"府安路","SECT":"五段","MAREA":" ","LANE":"１１巷","ALLEY":"５９弄","HOUSE_NO":"４４號","E_COORD97":168287.10000000001,"N_COORD97":2547475.0899999999,"ADDRESS":"府安路五段１１巷５９弄４４號","OBJECTID":45441},"geometry":{"x":168287.10000000056,"y":2547475.0900000036}},{"attributes":{"ID":45442,"DIS_CODE":0,"TOWNNAME":"安南區","LI":"溪東里","LIN":"15鄰","STREET":"府安路","SECT":"五段","MAREA":" ","LANE":"１１巷","ALLEY":"５９弄","HOUSE_NO":"４７號","E_COORD97":168281.82999999999,"N_COORD97":2547457.4900000002,"ADDRESS":"府安路五段１１巷５９弄４７號","OBJECTID":45442},"geometry":{"x":168281.83000000007,"y":2547457.4900000002}},{"attributes":{"ID":45443,"DIS_CODE":0,"TOWNNAME":"安南區","LI":"溪東里","LIN":"15鄰","STREET":"府安路","SECT":"五段","MAREA":" ","LANE":"１１巷","ALLEY":"５９弄","HOUSE_NO":"５８號","E_COORD97":168247.16,"N_COORD97":2547471.3100000001,"ADDRESS":"府安路五段１１巷５９弄５８號","OBJECTID":45443},"geometry":{"x":168247.16000000015,"y":2547471.3100000024}},{"attributes":{"ID":45444,"DIS_CODE":0,"TOWNNAME":"安南區","LI":"溪東里","LIN":"15鄰","STREET":"府安路","SECT":"五段","MAREA":" ","LANE":"１１巷","ALLEY":"５９弄","HOUSE_NO":"７３號","E_COORD97":168213.45999999999,"N_COORD97":2547444.8599999999,"ADDRESS":"府安路五段１１巷５９弄７３號","OBJECTID":45444},"geometry":{"x":168213.45999999903,"y":2547444.8599999994}},{"attributes":{"ID":45445,"DIS_CODE":0,"TOWNNAME":"安南區","LI":"溪心里","LIN":"15鄰","STREET":"智安四街","SECT":" ","MAREA":" ","LANE":"１０５巷","ALLEY":"６弄","HOUSE_NO":"１２號","E_COORD97":166001.88,"N_COORD97":2550404.3199999998,"ADDRESS":"智安四街１０５巷６弄１２號","OBJECTID":45445},"geometry":{"x":166001.88000000175,"y":2550404.3200000022}},{"attributes":{"ID":45446,"DIS_CODE":0,"TOWNNAME":"安南區","LI":"佃東里","LIN":"15鄰","STREET":"公學路","SECT":"四段","MAREA":" ","LANE":"１２２巷","ALLEY":"８５弄","HOUSE_NO":"１１號","E_COORD97":165528.45999999999,"N_COORD97":2552207.4100000001,"ADDRESS":"公學路四段１２２巷８５弄１１號","OBJECTID":45446},"geometry":{"x":165528.46000000183,"y":2552207.410000002}},{"attributes":{"ID":45447,"DIS_CODE":0,"TOWNNAME":"安南區","LI":"佃東里","LIN":"15鄰","STREET":"公學路","SECT":"四段","MAREA":" ","LANE":"１２２巷","ALLEY":"８５弄","HOUSE_NO":"１３號","E_COORD97":165529.03,"N_COORD97":2552191.1099999999,"ADDRESS":"公學路四段１２２巷８５弄１３號","OBJECTID":45447},"geometry":{"x":165529.03000000119,"y":2552191.1100000013}},{"attributes":{"ID":45448,"DIS_CODE":0,"TOWNNAME":"安南區","LI":"佃東里","LIN":"15鄰","STREET":"公學路","SECT":"四段","MAREA":" ","LANE":"１２２巷","ALLEY":"８５弄","HOUSE_NO":"１５號","E_COORD97":165530.48000000001,"N_COORD97":2552176.96,"ADDRESS":"公學路四段１２２巷８５弄１５號","OBJECTID":45448},"geometry":{"x":165530.48000000231,"y":2552176.9600000028}},{"attributes":{"ID":45449,"DIS_CODE":0,"TOWNNAME":"安南區","LI":"佃東里","LIN":"15鄰","STREET":"公學路","SECT":"四段","MAREA":" ","LANE":"１２２巷","ALLEY":"８５弄","HOUSE_NO":"１號","E_COORD97":165565.10999999999,"N_COORD97":2552244.8700000001,"ADDRESS":"公學路四段１２２巷８５弄１號","OBJECTID":45449},"geometry":{"x":165565.1100000022,"y":2552244.8700000029}},{"attributes":{"ID":45450,"DIS_CODE":0,"TOWNNAME":"安南區","LI":"佃東里","LIN":"15鄰","STREET":"公學路","SECT":"四段","MAREA":" ","LANE":"１２２巷","ALLEY":"８５弄","HOUSE_NO":"３號","E_COORD97":165551.64999999999,"N_COORD97":2552246.02,"ADDRESS":"公學路四段１２２巷８５弄３號","OBJECTID":45450},"geometry":{"x":165551.6500000013,"y":2552246.0200000014}},{"attributes":{"ID":45451,"DIS_CODE":0,"TOWNNAME":"安南區","LI":"佃東里","LIN":"15鄰","STREET":"公學路","SECT":"四段","MAREA":" ","LANE":"１２２巷","ALLEY":"８５弄","HOUSE_NO":"５號","E_COORD97":165537.91,"N_COORD97":2552247.4500000002,"ADDRESS":"公學路四段１２２巷８５弄５號","OBJECTID":45451},"geometry":{"x":165537.91000000108,"y":2552247.4499999993}},{"attributes":{"ID":45452,"DIS_CODE":0,"TOWNNAME":"安南區","LI":"佃東里","LIN":"15鄰","STREET":"公學路","SECT":"四段","MAREA":" ","LANE":"１２２巷","ALLEY":"８５弄","HOUSE_NO":"７號","E_COORD97":165528.45999999999,"N_COORD97":2552243.1600000001,"ADDRESS":"公學路四段１２２巷８５弄７號","OBJECTID":45452},"geometry":{"x":165528.46000000183,"y":2552243.160000002}},{"attributes":{"ID":45453,"DIS_CODE":0,"TOWNNAME":"安南區","LI":"佃東里","LIN":"15鄰","STREET":"公學路","SECT":"四段","MAREA":" ","LANE":"１２２巷","ALLEY":"８５弄","HOUSE_NO":"９號","E_COORD97":165527.89000000001,"N_COORD97":2552225.1400000001,"ADDRESS":"公學路四段１２２巷８５弄９號","OBJECTID":45453},"geometry":{"x":165527.88999999966,"y":2552225.1400000043}},{"attributes":{"ID":45454,"DIS_CODE":0,"TOWNNAME":"安南區","LI":"淵西里","LIN":"15鄰","STREET":"本原街","SECT":"三段","MAREA":" ","LANE":"２３４巷","ALLEY":"１４１弄","HOUSE_NO":"１１３號","E_COORD97":165139.17000000001,"N_COORD97":2550497.5899999999,"ADDRESS":"本原街三段２３４巷１４１弄１１３號","OBJECTID":45454},"geometry":{"x":165139.17000000086,"y":2550497.5899999999}},{"attributes":{"ID":45455,"DIS_CODE":0,"TOWNNAME":"安南區","LI":"淵西里","LIN":"15鄰","STREET":"本原街","SECT":"三段","MAREA":" ","LANE":"２３４巷","ALLEY":"１４１弄","HOUSE_NO":"１１５號","E_COORD97":165136.91,"N_COORD97":2550500.75,"ADDRESS":"本原街三段２３４巷１４１弄１１５號","OBJECTID":45455},"geometry":{"x":165136.91000000015,"y":2550500.75}},{"attributes":{"ID":45456,"DIS_CODE":0,"TOWNNAME":"安南區","LI":"淵西里","LIN":"15鄰","STREET":"本原街","SECT":"三段","MAREA":" ","LANE":"２３４巷","ALLEY":"１４１弄","HOUSE_NO":"１１７號","E_COORD97":165134.20000000001,"N_COORD97":2550503.6800000002,"ADDRESS":"本原街三段２３４巷１４１弄１１７號","OBJECTID":45456},"geometry":{"x":165134.20000000112,"y":2550503.6799999997}},{"attributes":{"ID":45457,"DIS_CODE":0,"TOWNNAME":"安平區","LI":"億載里","LIN":"17鄰","STREET":"健康路","SECT":"三段","MAREA":" ","LANE":" ","ALLEY":" ","HOUSE_NO":"７５０之１號","E_COORD97":164278.35000000001,"N_COORD97":2542891.5,"ADDRESS":"健康路三段７５０之１號","OBJECTID":45457},"geometry":{"x":164278.35000000056,"y":2542891.5}},{"attributes":{"ID":45458,"DIS_CODE":0,"TOWNNAME":"安平區","LI":"億載里","LIN":"17鄰","STREET":"健康路","SECT":"三段","MAREA":" ","LANE":" ","ALLEY":" ","HOUSE_NO":"７５０之２號","E_COORD97":164261.04999999999,"N_COORD97":2542891.1899999999,"ADDRESS":"健康路三段７５０之２號","OBJECTID":45458},"geometry":{"x":164261.04999999981,"y":2542891.1900000013}},{"attributes":{"ID":45459,"DIS_CODE":0,"TOWNNAME":"善化區","LI":"小新里","LIN":"20鄰","STREET":" ","SECT":" ","MAREA":"小新營","LANE":" ","ALLEY":" ","HOUSE_NO":"１６４號之８","E_COORD97":180041.44,"N_COORD97":2558131.52,"ADDRESS":"小新營１６４號之８","OBJECTID":45459},"geometry":{"x":180041.44000000227,"y":2558131.5200000014}},{"attributes":{"ID":45460,"DIS_CODE":0,"TOWNNAME":"官田區","LI":"官田里","LIN":"20鄰","STREET":" ","SECT":" ","MAREA":"官田","LANE":" ","ALLEY":" ","HOUSE_NO":"２９５號","E_COORD97":182213,"N_COORD97":2564841.3900000001,"ADDRESS":"官田２９５號","OBJECTID":45460},"geometry":{"x":182213.00000000093,"y":2564841.3900000006}},{"attributes":{"ID":45461,"DIS_CODE":0,"TOWNNAME":"官田區","LI":"官田里","LIN":"20鄰","STREET":" ","SECT":" ","MAREA":"官田","LANE":" ","ALLEY":" ","HOUSE_NO":"２９６號","E_COORD97":182206.41,"N_COORD97":2564839.52,"ADDRESS":"官田２９６號","OBJECTID":45461},"geometry":{"x":182206.41000000108,"y":2564839.5199999996}},{"attributes":{"ID":45462,"DIS_CODE":0,"TOWNNAME":"官田區","LI":"官田里","LIN":"20鄰","STREET":" ","SECT":" ","MAREA":"官田","LANE":" ","ALLEY":" ","HOUSE_NO":"２９７號","E_COORD97":182199.98000000001,"N_COORD97":2564838.1000000001,"ADDRESS":"官田２９７號","OBJECTID":45462},"geometry":{"x":182199.98000000138,"y":2564838.1000000015}},{"attributes":{"ID":45463,"DIS_CODE":0,"TOWNNAME":"官田區","LI":"官田里","LIN":"20鄰","STREET":" ","SECT":" ","MAREA":"官田","LANE":" ","ALLEY":" ","HOUSE_NO":"２９８號","E_COORD97":182193.54000000001,"N_COORD97":2564836.1099999999,"ADDRESS":"官田２９８號","OBJECTID":45463},"geometry":{"x":182193.54000000097,"y":2564836.1099999994}},{"attributes":{"ID":45464,"DIS_CODE":0,"TOWNNAME":"官田區","LI":"官田里","LIN":"20鄰","STREET":" ","SECT":" ","MAREA":"官田","LANE":" ","ALLEY":" ","HOUSE_NO":"２９９號","E_COORD97":182187.39999999999,"N_COORD97":2564834.3399999999,"ADDRESS":"官田２９９號","OBJECTID":45464},"geometry":{"x":182187.40000000037,"y":2564834.3399999999}},{"attributes":{"ID":45465,"DIS_CODE":0,"TOWNNAME":"官田區","LI":"官田里","LIN":"20鄰","STREET":" ","SECT":" ","MAREA":"官田","LANE":" ","ALLEY":" ","HOUSE_NO":"３００號","E_COORD97":182181.14999999999,"N_COORD97":2564832.4900000002,"ADDRESS":"官田３００號","OBJECTID":45465},"geometry":{"x":182181.15000000224,"y":2564832.4900000021}},{"attributes":{"ID":45466,"DIS_CODE":0,"TOWNNAME":"官田區","LI":"官田里","LIN":"20鄰","STREET":" ","SECT":" ","MAREA":"官田","LANE":" ","ALLEY":" ","HOUSE_NO":"３０１號之１","E_COORD97":182167.69,"N_COORD97":2564831.1499999999,"ADDRESS":"官田３０１號之１","OBJECTID":45466},"geometry":{"x":182167.69000000134,"y":2564831.1500000022}},{"attributes":{"ID":45467,"DIS_CODE":0,"TOWNNAME":"官田區","LI":"官田里","LIN":"20鄰","STREET":" ","SECT":" ","MAREA":"官田","LANE":" ","ALLEY":" ","HOUSE_NO":"３０１號之２","E_COORD97":182160.85999999999,"N_COORD97":2564828.96,"ADDRESS":"官田３０１號之２","OBJECTID":45467},"geometry":{"x":182160.8599999994,"y":2564828.9600000046}},{"attributes":{"ID":45468,"DIS_CODE":0,"TOWNNAME":"新營區","LI":"太南里","LIN":"17鄰","STREET":" ","SECT":" ","MAREA":"太子宮","LANE":" ","ALLEY":" ","HOUSE_NO":"３１９之２號","E_COORD97":175879.72,"N_COORD97":2575548.4300000002,"ADDRESS":"太子宮３１９之２號","OBJECTID":45468},"geometry":{"x":175879.72000000067,"y":2575548.4300000016}},{"attributes":{"ID":45469,"DIS_CODE":0,"TOWNNAME":"新營區","LI":"土庫里","LIN":"17鄰","STREET":" ","SECT":" ","MAREA":"卯舍","LANE":" ","ALLEY":" ","HOUSE_NO":"５４號","E_COORD97":181491.85999999999,"N_COORD97":2580046.3999999999,"ADDRESS":"卯舍５４號","OBJECTID":45469},"geometry":{"x":181491.86000000127,"y":2580046.4000000004}},{"attributes":{"ID":45470,"DIS_CODE":0,"TOWNNAME":"新營區","LI":"太北里","LIN":"17鄰","STREET":" ","SECT":" ","MAREA":"太子宮","LANE":" ","ALLEY":" ","HOUSE_NO":"１４７之１０號","E_COORD97":175405.79000000001,"N_COORD97":2577299.4900000002,"ADDRESS":"太子宮１４７之１０號","OBJECTID":45470},"geometry":{"x":175405.7900000019,"y":2577299.4900000002}},{"attributes":{"ID":45471,"DIS_CODE":0,"TOWNNAME":"龍崎區","LI":"土崎里","LIN":"15鄰","STREET":" ","SECT":" ","MAREA":"紅水子","LANE":" ","ALLEY":" ","HOUSE_NO":"２之８號","E_COORD97":185968.22,"N_COORD97":2544977.25,"ADDRESS":"紅水子２之８號","OBJECTID":45471},"geometry":{"x":185968.21999999974,"y":2544977.25}},{"attributes":{"ID":45472,"DIS_CODE":0,"TOWNNAME":"安南區","LI":"淵西里","LIN":"15鄰","STREET":"本原街","SECT":"三段","MAREA":" ","LANE":"２３４巷","ALLEY":"１４１弄","HOUSE_NO":"１１９號","E_COORD97":165131.72,"N_COORD97":2550506.3900000001,"ADDRESS":"本原街三段２３４巷１４１弄１１９號","OBJECTID":45472},"geometry":{"x":165131.72000000067,"y":2550506.3900000006}},{"attributes":{"ID":45473,"DIS_CODE":0,"TOWNNAME":"安南區","LI":"淵西里","LIN":"15鄰","STREET":"本原街","SECT":"三段","MAREA":" ","LANE":"２３４巷","ALLEY":"１４１弄","HOUSE_NO":"１１號","E_COORD97":165170.92999999999,"N_COORD97":2550645.2200000002,"ADDRESS":"本原街三段２３４巷１４１弄１１號","OBJECTID":45473},"geometry":{"x":165170.93000000063,"y":2550645.2200000025}},{"attributes":{"ID":45474,"DIS_CODE":0,"TOWNNAME":"安南區","LI":"淵西里","LIN":"15鄰","STREET":"本原街","SECT":"三段","MAREA":" ","LANE":"２３４巷","ALLEY":"１４１弄","HOUSE_NO":"１２１號","E_COORD97":165129,"N_COORD97":2550509.7799999998,"ADDRESS":"本原街三段２３４巷１４１弄１２１號","OBJECTID":45474},"geometry":{"x":165129,"y":2550509.7799999993}},{"attributes":{"ID":45475,"DIS_CODE":0,"TOWNNAME":"安南區","LI":"淵西里","LIN":"15鄰","STREET":"本原街","SECT":"三段","MAREA":" ","LANE":"２３４巷","ALLEY":"１４１弄","HOUSE_NO":"１２３號","E_COORD97":165126.29000000001,"N_COORD97":2550512.71,"ADDRESS":"本原街三段２３４巷１４１弄１２３號","OBJECTID":45475},"geometry":{"x":165126.29000000097,"y":2550512.709999999}},{"attributes":{"ID":45476,"DIS_CODE":0,"TOWNNAME":"安南區","LI":"淵西里","LIN":"15鄰","STREET":"本原街","SECT":"三段","MAREA":" ","LANE":"２３４巷","ALLEY":"１４１弄","HOUSE_NO":"１２５號","E_COORD97":165123.79999999999,"N_COORD97":2550514.9700000002,"ADDRESS":"本原街三段２３４巷１４１弄１２５號","OBJECTID":45476},"geometry":{"x":165123.79999999981,"y":2550514.9700000025}},{"attributes":{"ID":45477,"DIS_CODE":0,"TOWNNAME":"官田區","LI":"官田里","LIN":"20鄰","STREET":" ","SECT":" ","MAREA":"官田","LANE":" ","ALLEY":" ","HOUSE_NO":"３０１號","E_COORD97":182174.60999999999,"N_COORD97":2564830.7400000002,"ADDRESS":"官田３０１號","OBJECTID":45477},"geometry":{"x":182174.6100000022,"y":2564830.7400000021}},{"attributes":{"ID":45478,"DIS_CODE":0,"TOWNNAME":"安南區","LI":"淵西里","LIN":"15鄰","STREET":"本原街","SECT":"三段","MAREA":" ","LANE":"２３４巷","ALLEY":"１４１弄","HOUSE_NO":"１２７號","E_COORD97":165120.41,"N_COORD97":2550517.9100000001,"ADDRESS":"本原街三段２３４巷１４１弄１２７號","OBJECTID":45478},"geometry":{"x":165120.41000000201,"y":2550517.910000002}},{"attributes":{"ID":45479,"DIS_CODE":0,"TOWNNAME":"安南區","LI":"淵西里","LIN":"15鄰","STREET":"本原街","SECT":"三段","MAREA":" ","LANE":"２３４巷","ALLEY":"１４１弄","HOUSE_NO":"１２９號","E_COORD97":165118.14999999999,"N_COORD97":2550521.0699999998,"ADDRESS":"本原街三段２３４巷１４１弄１２９號","OBJECTID":45479},"geometry":{"x":165118.15000000037,"y":2550521.0700000022}},{"attributes":{"ID":45480,"DIS_CODE":0,"TOWNNAME":"將軍區","LI":"鯤鯓里","LIN":"15鄰","STREET":" ","SECT":" ","MAREA":"鯤鯓","LANE":" ","ALLEY":" ","HOUSE_NO":"２５７號","E_COORD97":156942.60000000001,"N_COORD97":2565929.6299999999,"ADDRESS":"鯤鯓２５７號","OBJECTID":45480},"geometry":{"x":156942.60000000149,"y":2565929.629999999}},{"attributes":{"ID":45481,"DIS_CODE":0,"TOWNNAME":"安南區","LI":"淵西里","LIN":"15鄰","STREET":"本原街","SECT":"三段","MAREA":" ","LANE":"２３４巷","ALLEY":"１４１弄","HOUSE_NO":"４３號","E_COORD97":165129.91,"N_COORD97":2550594.4300000002,"ADDRESS":"本原街三段２３４巷１４１弄４３號","OBJECTID":45481},"geometry":{"x":165129.91000000015,"y":2550594.4299999997}},{"attributes":{"ID":45482,"DIS_CODE":0,"TOWNNAME":"南區","LI":"府南里","LIN":"20鄰","STREET":"永成路","SECT":"三段","MAREA":" ","LANE":"４６１巷","ALLEY":"２１弄","HOUSE_NO":"１８號","E_COORD97":167390.75285200001,"N_COORD97":2541493.65912,"ADDRESS":"永成路三段４６１巷２１弄１８號","OBJECTID":45482},"geometry":{"x":167390.75285200123,"y":2541493.6591229998}},{"attributes":{"ID":45483,"DIS_CODE":0,"TOWNNAME":"將軍區","LI":"鯤鯓里","LIN":"15鄰","STREET":" ","SECT":" ","MAREA":"鯤鯓","LANE":" ","ALLEY":" ","HOUSE_NO":"２５８號","E_COORD97":156937.91,"N_COORD97":2565929.3199999998,"ADDRESS":"鯤鯓２５８號","OBJECTID":45483},"geometry":{"x":156937.91000000108,"y":2565929.3200000022}},{"attributes":{"ID":45484,"DIS_CODE":0,"TOWNNAME":"安南區","LI":"淵西里","LIN":"15鄰","STREET":"本原街","SECT":"三段","MAREA":" ","LANE":"２３４巷","ALLEY":"１４１弄","HOUSE_NO":"１３１號","E_COORD97":165115.89000000001,"N_COORD97":2550525.1299999999,"ADDRESS":"本原街三段２３４巷１４１弄１３１號","OBJECTID":45484},"geometry":{"x":165115.88999999966,"y":2550525.1300000027}},{"attributes":{"ID":45485,"DIS_CODE":0,"TOWNNAME":"將軍區","LI":"鯤鯓里","LIN":"15鄰","STREET":" ","SECT":" ","MAREA":"鯤鯓","LANE":" ","ALLEY":" ","HOUSE_NO":"２５９號","E_COORD97":156933.29999999999,"N_COORD97":2565928.4399999999,"ADDRESS":"鯤鯓２５９號","OBJECTID":45485},"geometry":{"x":156933.30000000075,"y":2565928.4399999995}},{"attributes":{"ID":45486,"DIS_CODE":0,"TOWNNAME":"將軍區","LI":"鯤鯓里","LIN":"15鄰","STREET":" ","SECT":" ","MAREA":"鯤鯓","LANE":" ","ALLEY":" ","HOUSE_NO":"２６０號","E_COORD97":156929.22,"N_COORD97":2565927.8700000001,"ADDRESS":"鯤鯓２６０號","OBJECTID":45486},"geometry":{"x":156929.21999999974,"y":2565927.8699999992}},{"attributes":{"ID":45487,"DIS_CODE":0,"TOWNNAME":"新營區","LI":"新東里","LIN":"17鄰","STREET":"東興四街","SECT":" ","MAREA":" ","LANE":" ","ALLEY":" ","HOUSE_NO":"６６號","E_COORD97":180973.17000000001,"N_COORD97":2579138.4900000002,"ADDRESS":"東興四街６６號","OBJECTID":45487},"geometry":{"x":180973.16999999993,"y":2579138.4899999984}},{"attributes":{"ID":45488,"DIS_CODE":0,"TOWNNAME":"新營區","LI":"三仙里","LIN":"17鄰","STREET":"三民路","SECT":" ","MAREA":" ","LANE":" ","ALLEY":" ","HOUSE_NO":"１０１號之２０","E_COORD97":179588.41,"N_COORD97":2578396.4399999999,"ADDRESS":"三民路１０１號之２０","OBJECTID":45488},"geometry":{"x":179588.41000000015,"y":2578396.4400000013}},{"attributes":{"ID":45489,"DIS_CODE":0,"TOWNNAME":"將軍區","LI":"鯤鯓里","LIN":"15鄰","STREET":" ","SECT":" ","MAREA":"鯤鯓","LANE":" ","ALLEY":" ","HOUSE_NO":"２６１號","E_COORD97":156924.29000000001,"N_COORD97":2565927.1899999999,"ADDRESS":"鯤鯓２６１號","OBJECTID":45489},"geometry":{"x":156924.29000000004,"y":2565927.1899999995}},{"attributes":{"ID":45490,"DIS_CODE":0,"TOWNNAME":"將軍區","LI":"鯤鯓里","LIN":"15鄰","STREET":" ","SECT":" ","MAREA":"鯤鯓","LANE":" ","ALLEY":" ","HOUSE_NO":"２６２號","E_COORD97":156919.85000000001,"N_COORD97":2565926.3999999999,"ADDRESS":"鯤鯓２６２號","OBJECTID":45490},"geometry":{"x":156919.84999999963,"y":2565926.4000000004}},{"attributes":{"ID":45491,"DIS_CODE":0,"TOWNNAME":"將軍區","LI":"鯤鯓里","LIN":"15鄰","STREET":" ","SECT":" ","MAREA":"鯤鯓","LANE":" ","ALLEY":" ","HOUSE_NO":"２６６號","E_COORD97":156921.89999999999,"N_COORD97":2565947.0499999998,"ADDRESS":"鯤鯓２６６號","OBJECTID":45491},"geometry":{"x":156921.90000000037,"y":2565947.0500000045}},{"attributes":{"ID":45492,"DIS_CODE":0,"TOWNNAME":"將軍區","LI":"鯤鯓里","LIN":"15鄰","STREET":" ","SECT":" ","MAREA":"鯤鯓","LANE":" ","ALLEY":" ","HOUSE_NO":"２６７號","E_COORD97":156926.45999999999,"N_COORD97":2565947.7000000002,"ADDRESS":"鯤鯓２６７號","OBJECTID":45492},"geometry":{"x":156926.45999999996,"y":2565947.700000003}},{"attributes":{"ID":45493,"DIS_CODE":0,"TOWNNAME":"將軍區","LI":"鯤鯓里","LIN":"15鄰","STREET":" ","SECT":" ","MAREA":"鯤鯓","LANE":" ","ALLEY":" ","HOUSE_NO":"２６８號","E_COORD97":156931.10999999999,"N_COORD97":2565948.3700000001,"ADDRESS":"鯤鯓２６８號","OBJECTID":45493},"geometry":{"x":156931.11000000034,"y":2565948.3700000048}},{"attributes":{"ID":45494,"DIS_CODE":0,"TOWNNAME":"新營區","LI":"三仙里","LIN":"17鄰","STREET":"三民路","SECT":" ","MAREA":" ","LANE":" ","ALLEY":" ","HOUSE_NO":"１１１號","E_COORD97":179521.45999999999,"N_COORD97":2578376.75,"ADDRESS":"三民路１１１號","OBJECTID":45494},"geometry":{"x":179521.45999999996,"y":2578376.75}},{"attributes":{"ID":45495,"DIS_CODE":0,"TOWNNAME":"新營區","LI":"民榮里","LIN":"17鄰","STREET":"新進路","SECT":"二段","MAREA":" ","LANE":" ","ALLEY":" ","HOUSE_NO":"３１４號","E_COORD97":178790.34,"N_COORD97":2577767.8300000001,"ADDRESS":"新進路二段３１４號","OBJECTID":45495},"geometry":{"x":178790.33999999985,"y":2577767.8300000019}},{"attributes":{"ID":45496,"DIS_CODE":0,"TOWNNAME":"將軍區","LI":"鯤鯓里","LIN":"15鄰","STREET":" ","SECT":" ","MAREA":"鯤鯓","LANE":" ","ALLEY":" ","HOUSE_NO":"２６９號","E_COORD97":156935.64000000001,"N_COORD97":2565949.1499999999,"ADDRESS":"鯤鯓２６９號","OBJECTID":45496},"geometry":{"x":156935.64000000153,"y":2565949.1500000041}},{"attributes":{"ID":45497,"DIS_CODE":0,"TOWNNAME":"將軍區","LI":"鯤鯓里","LIN":"15鄰","STREET":" ","SECT":" ","MAREA":"鯤鯓","LANE":" ","ALLEY":" ","HOUSE_NO":"２７０號","E_COORD97":156940.04000000001,"N_COORD97":2565949.7200000002,"ADDRESS":"鯤鯓２７０號","OBJECTID":45497},"geometry":{"x":156940.0400000019,"y":2565949.7200000025}},{"attributes":{"ID":45498,"DIS_CODE":0,"TOWNNAME":"將軍區","LI":"鯤鯓里","LIN":"15鄰","STREET":" ","SECT":" ","MAREA":"鯤鯓","LANE":" ","ALLEY":" ","HOUSE_NO":"２７１號","E_COORD97":156944.10999999999,"N_COORD97":2565950.4399999999,"ADDRESS":"鯤鯓２７１號","OBJECTID":45498},"geometry":{"x":156944.11000000127,"y":2565950.4400000013}},{"attributes":{"ID":45499,"DIS_CODE":0,"TOWNNAME":"將軍區","LI":"鯤鯓里","LIN":"15鄰","STREET":" ","SECT":" ","MAREA":"鯤鯓","LANE":" ","ALLEY":" ","HOUSE_NO":"２８１號","E_COORD97":156928.20999999999,"N_COORD97":2565968.6699999999,"ADDRESS":"鯤鯓２８１號","OBJECTID":45499},"geometry":{"x":156928.20999999996,"y":2565968.6699999981}},{"attributes":{"ID":45500,"DIS_CODE":0,"TOWNNAME":"將軍區","LI":"鯤鯓里","LIN":"15鄰","STREET":" ","SECT":" ","MAREA":"鯤鯓","LANE":" ","ALLEY":" ","HOUSE_NO":"２８２號","E_COORD97":156923.79999999999,"N_COORD97":2565968.0600000001,"ADDRESS":"鯤鯓２８２號","OBJECTID":45500},"geometry":{"x":156923.79999999981,"y":2565968.0600000024}},{"attributes":{"ID":45501,"DIS_CODE":0,"TOWNNAME":"安南區","LI":"淵西里","LIN":"15鄰","STREET":"本原街","SECT":"三段","MAREA":" ","LANE":"２３４巷","ALLEY":"１４１弄","HOUSE_NO":"１３３號","E_COORD97":165113.63,"N_COORD97":2550528.7400000002,"ADDRESS":"本原街三段２３４巷１４１弄１３３號","OBJECTID":45501},"geometry":{"x":165113.63000000175,"y":2550528.7399999984}},{"attributes":{"ID":45502,"DIS_CODE":0,"TOWNNAME":"安南區","LI":"淵西里","LIN":"15鄰","STREET":"本原街","SECT":"三段","MAREA":" ","LANE":"２３４巷","ALLEY":"１４１弄","HOUSE_NO":"１３５號","E_COORD97":165111.14999999999,"N_COORD97":2550532.1299999999,"ADDRESS":"本原街三段２３４巷１４１弄１３５號","OBJECTID":45502},"geometry":{"x":165111.1500000013,"y":2550532.1300000008}},{"attributes":{"ID":45503,"DIS_CODE":0,"TOWNNAME":"西港區","LI":"港東里","LIN":"15鄰","STREET":" ","SECT":" ","MAREA":"八份","LANE":" ","ALLEY":" ","HOUSE_NO":"３５號","E_COORD97":169965.17000000001,"N_COORD97":2558624.1600000001,"ADDRESS":"八份３５號","OBJECTID":45503},"geometry":{"x":169965.17000000086,"y":2558624.1600000001}},{"attributes":{"ID":45504,"DIS_CODE":0,"TOWNNAME":"安南區","LI":"淵西里","LIN":"15鄰","STREET":"本原街","SECT":"三段","MAREA":" ","LANE":"２３４巷","ALLEY":"１４１弄","HOUSE_NO":"１３７號","E_COORD97":165108.66,"N_COORD97":2550535.7400000002,"ADDRESS":"本原街三段２３４巷１４１弄１３７號","OBJECTID":45504},"geometry":{"x":165108.66000000108,"y":2550535.7400000039}},{"attributes":{"ID":45505,"DIS_CODE":0,"TOWNNAME":"安南區","LI":"淵西里","LIN":"15鄰","STREET":"本原街","SECT":"三段","MAREA":" ","LANE":"２３４巷","ALLEY":"１４１弄","HOUSE_NO":"１３９號","E_COORD97":165106.39999999999,"N_COORD97":2550539.3500000001,"ADDRESS":"本原街三段２３４巷１４１弄１３９號","OBJECTID":45505},"geometry":{"x":165106.40000000037,"y":2550539.3500000015}},{"attributes":{"ID":45506,"DIS_CODE":0,"TOWNNAME":"安南區","LI":"淵西里","LIN":"15鄰","STREET":"本原街","SECT":"三段","MAREA":" ","LANE":"２３４巷","ALLEY":"１４１弄","HOUSE_NO":"１３號","E_COORD97":165160.76000000001,"N_COORD97":2550615.6499999999,"ADDRESS":"本原街三段２３４巷１４１弄１３號","OBJECTID":45506},"geometry":{"x":165160.76000000071,"y":2550615.6500000022}},{"attributes":{"ID":45507,"DIS_CODE":0,"TOWNNAME":"安南區","LI":"淵西里","LIN":"15鄰","STREET":"本原街","SECT":"三段","MAREA":" ","LANE":"２３４巷","ALLEY":"１４１弄","HOUSE_NO":"１４１號","E_COORD97":165103.91,"N_COORD97":2550542.5099999998,"ADDRESS":"本原街三段２３４巷１４１弄１４１號","OBJECTID":45507},"geometry":{"x":165103.91000000108,"y":2550542.5099999998}},{"attributes":{"ID":45508,"DIS_CODE":0,"TOWNNAME":"安南區","LI":"淵西里","LIN":"15鄰","STREET":"本原街","SECT":"三段","MAREA":" ","LANE":"２３４巷","ALLEY":"１４１弄","HOUSE_NO":"１４３號","E_COORD97":165100.75,"N_COORD97":2550545.6699999999,"ADDRESS":"本原街三段２３４巷１４１弄１４３號","OBJECTID":45508},"geometry":{"x":165100.75,"y":2550545.6699999999}},{"attributes":{"ID":45509,"DIS_CODE":0,"TOWNNAME":"安南區","LI":"淵西里","LIN":"15鄰","STREET":"本原街","SECT":"三段","MAREA":" ","LANE":"２３４巷","ALLEY":"１４１弄","HOUSE_NO":"１４５號","E_COORD97":165098.72,"N_COORD97":2550549.2799999998,"ADDRESS":"本原街三段２３４巷１４１弄１４５號","OBJECTID":45509},"geometry":{"x":165098.71999999974,"y":2550549.2800000012}},{"attributes":{"ID":45510,"DIS_CODE":0,"TOWNNAME":"安南區","LI":"淵西里","LIN":"15鄰","STREET":"本原街","SECT":"三段","MAREA":" ","LANE":"２３４巷","ALLEY":"１４１弄","HOUSE_NO":"１４７號","E_COORD97":165095.54999999999,"N_COORD97":2550552.4399999999,"ADDRESS":"本原街三段２３４巷１４１弄１４７號","OBJECTID":45510},"geometry":{"x":165095.55000000075,"y":2550552.4399999995}},{"attributes":{"ID":45511,"DIS_CODE":0,"TOWNNAME":"安南區","LI":"淵西里","LIN":"15鄰","STREET":"本原街","SECT":"三段","MAREA":" ","LANE":"２３４巷","ALLEY":"１４１弄","HOUSE_NO":"１４９號","E_COORD97":165092.60999999999,"N_COORD97":2550555.3799999999,"ADDRESS":"本原街三段２３４巷１４１弄１４９號","OBJECTID":45511},"geometry":{"x":165092.61000000127,"y":2550555.3800000008}},{"attributes":{"ID":45512,"DIS_CODE":0,"TOWNNAME":"安南區","LI":"淵西里","LIN":"15鄰","STREET":"本原街","SECT":"三段","MAREA":" ","LANE":"２３４巷","ALLEY":"１４１弄","HOUSE_NO":"１５１號","E_COORD97":165089.89999999999,"N_COORD97":2550558.7599999998,"ADDRESS":"本原街三段２３４巷１４１弄１５１號","OBJECTID":45512},"geometry":{"x":165089.90000000037,"y":2550558.7599999979}},{"attributes":{"ID":45513,"DIS_CODE":0,"TOWNNAME":"安南區","LI":"淵西里","LIN":"15鄰","STREET":"本原街","SECT":"三段","MAREA":" ","LANE":"２３４巷","ALLEY":"１４１弄","HOUSE_NO":"１５３號","E_COORD97":165086.95999999999,"N_COORD97":2550561.7000000002,"ADDRESS":"本原街三段２３４巷１４１弄１５３號","OBJECTID":45513},"geometry":{"x":165086.95999999996,"y":2550561.6999999993}},{"attributes":{"ID":45514,"DIS_CODE":0,"TOWNNAME":"安南區","LI":"淵西里","LIN":"15鄰","STREET":"本原街","SECT":"三段","MAREA":" ","LANE":"２３４巷","ALLEY":"１４１弄","HOUSE_NO":"１５５號","E_COORD97":165084.70000000001,"N_COORD97":2550565.3100000001,"ADDRESS":"本原街三段２３４巷１４１弄１５５號","OBJECTID":45514},"geometry":{"x":165084.70000000112,"y":2550565.3100000005}},{"attributes":{"ID":45515,"DIS_CODE":0,"TOWNNAME":"安南區","LI":"淵西里","LIN":"15鄰","STREET":"本原街","SECT":"三段","MAREA":" ","LANE":"２３４巷","ALLEY":"１４１弄","HOUSE_NO":"１５７號","E_COORD97":165081.98999999999,"N_COORD97":2550568.9199999999,"ADDRESS":"本原街三段２３４巷１４１弄１５７號","OBJECTID":45515},"geometry":{"x":165081.99000000022,"y":2550568.9200000018}},{"attributes":{"ID":45516,"DIS_CODE":0,"TOWNNAME":"將軍區","LI":"鯤鯓里","LIN":"15鄰","STREET":" ","SECT":" ","MAREA":"鯤鯓","LANE":" ","ALLEY":" ","HOUSE_NO":"２８３號","E_COORD97":156919.17999999999,"N_COORD97":2565967.3500000001,"ADDRESS":"鯤鯓２８３號","OBJECTID":45516},"geometry":{"x":156919.18000000063,"y":2565967.3500000034}},{"attributes":{"ID":45517,"DIS_CODE":0,"TOWNNAME":"將軍區","LI":"鯤鯓里","LIN":"15鄰","STREET":" ","SECT":" ","MAREA":"鯤鯓","LANE":" ","ALLEY":" ","HOUSE_NO":"２８４號","E_COORD97":156914.92000000001,"N_COORD97":2565966.8300000001,"ADDRESS":"鯤鯓２８４號","OBJECTID":45517},"geometry":{"x":156914.91999999993,"y":2565966.8300000001}},{"attributes":{"ID":45518,"DIS_CODE":0,"TOWNNAME":"將軍區","LI":"鯤鯓里","LIN":"15鄰","STREET":" ","SECT":" ","MAREA":"鯤鯓","LANE":" ","ALLEY":" ","HOUSE_NO":"２８５號","E_COORD97":156910.45000000001,"N_COORD97":2565966.25,"ADDRESS":"鯤鯓２８５號","OBJECTID":45518},"geometry":{"x":156910.45000000205,"y":2565966.2500000019}},{"attributes":{"ID":45519,"DIS_CODE":0,"TOWNNAME":"將軍區","LI":"鯤鯓里","LIN":"15鄰","STREET":" ","SECT":" ","MAREA":"鯤鯓","LANE":" ","ALLEY":" ","HOUSE_NO":"２８６號","E_COORD97":156905.92000000001,"N_COORD97":2565965.7200000002,"ADDRESS":"鯤鯓２８６號","OBJECTID":45519},"geometry":{"x":156905.92000000086,"y":2565965.7200000007}},{"attributes":{"ID":45520,"DIS_CODE":0,"TOWNNAME":"北區","LI":"小康里","LIN":"17鄰","STREET":"大武街","SECT":" ","MAREA":" ","LANE":" ","ALLEY":" ","HOUSE_NO":"４０３號","E_COORD97":169753.75,"N_COORD97":2546483.04,"ADDRESS":"大武街４０３號","OBJECTID":45520},"geometry":{"x":169753.75,"y":2546483.0399999991}},{"attributes":{"ID":45521,"DIS_CODE":0,"TOWNNAME":"北區","LI":"小康里","LIN":"17鄰","STREET":"大武街","SECT":" ","MAREA":" ","LANE":" ","ALLEY":" ","HOUSE_NO":"４０３號之１","E_COORD97":169757.88,"N_COORD97":2546481.7799999998,"ADDRESS":"大武街４０３號之１","OBJECTID":45521},"geometry":{"x":169757.87999999989,"y":2546481.7799999993}},{"attributes":{"ID":45522,"DIS_CODE":0,"TOWNNAME":"北區","LI":"小康里","LIN":"17鄰","STREET":"大武街","SECT":" ","MAREA":" ","LANE":" ","ALLEY":" ","HOUSE_NO":"４０３號之２","E_COORD97":169762.20999999999,"N_COORD97":2546480.5099999998,"ADDRESS":"大武街４０３號之２","OBJECTID":45522},"geometry":{"x":169762.20999999996,"y":2546480.5099999998}},{"attributes":{"ID":45523,"DIS_CODE":0,"TOWNNAME":"仁德區","LI":"中洲里","LIN":"15鄰","STREET":" ","SECT":" ","MAREA":"中洲","LANE":" ","ALLEY":" ","HOUSE_NO":"３８５號之７","E_COORD97":173424.14999999999,"N_COORD97":2534302.0499999998,"ADDRESS":"中洲３８５號之７","OBJECTID":45523},"geometry":{"x":173424.1500000013,"y":2534302.0500000026}},{"attributes":{"ID":45524,"DIS_CODE":0,"TOWNNAME":"仁德區","LI":"中洲里","LIN":"15鄰","STREET":" ","SECT":" ","MAREA":"中洲","LANE":" ","ALLEY":" ","HOUSE_NO":"３８５號之２８","E_COORD97":173393.85000000001,"N_COORD97":2534308.5499999998,"ADDRESS":"中洲３８５號之２８","OBJECTID":45524},"geometry":{"x":173393.84999999963,"y":2534308.5500000026}},{"attributes":{"ID":45525,"DIS_CODE":0,"TOWNNAME":"龍崎區","LI":"崎頂里","LIN":"15鄰","STREET":" ","SECT":" ","MAREA":"過嶺","LANE":" ","ALLEY":" ","HOUSE_NO":"１１之１號","E_COORD97":187181.67000000001,"N_COORD97":2540043.2999999998,"ADDRESS":"過嶺１１之１號","OBJECTID":45525},"geometry":{"x":187181.67000000086,"y":2540043.3000000026}},{"attributes":{"ID":45526,"DIS_CODE":0,"TOWNNAME":"龍崎區","LI":"崎頂里","LIN":"15鄰","STREET":" ","SECT":" ","MAREA":"過嶺","LANE":" ","ALLEY":" ","HOUSE_NO":"１１號","E_COORD97":187202.67000000001,"N_COORD97":2540087.25,"ADDRESS":"過嶺１１號","OBJECTID":45526},"geometry":{"x":187202.66999999993,"y":2540087.2500000019}},{"attributes":{"ID":45527,"DIS_CODE":0,"TOWNNAME":"龍崎區","LI":"崎頂里","LIN":"15鄰","STREET":" ","SECT":" ","MAREA":"過嶺","LANE":" ","ALLEY":" ","HOUSE_NO":"５號","E_COORD97":187082.51999999999,"N_COORD97":2539535.25,"ADDRESS":"過嶺５號","OBJECTID":45527},"geometry":{"x":187082.52000000048,"y":2539535.2500000019}},{"attributes":{"ID":45528,"DIS_CODE":0,"TOWNNAME":"龍崎區","LI":"崎頂里","LIN":"15鄰","STREET":" ","SECT":" ","MAREA":"過嶺","LANE":" ","ALLEY":" ","HOUSE_NO":"２號","E_COORD97":187063.72,"N_COORD97":2539361.25,"ADDRESS":"過嶺２號","OBJECTID":45528},"geometry":{"x":187063.7200000016,"y":2539361.2500000019}},{"attributes":{"ID":45529,"DIS_CODE":0,"TOWNNAME":"龍崎區","LI":"土崎里","LIN":"15鄰","STREET":" ","SECT":" ","MAREA":"紅水子","LANE":" ","ALLEY":" ","HOUSE_NO":"１３之５號","E_COORD97":183992.62,"N_COORD97":2544708.2999999998,"ADDRESS":"紅水子１３之５號","OBJECTID":45529},"geometry":{"x":183992.62000000011,"y":2544708.3000000026}},{"attributes":{"ID":45530,"DIS_CODE":0,"TOWNNAME":"龍崎區","LI":"土崎里","LIN":"15鄰","STREET":" ","SECT":" ","MAREA":"紅水子","LANE":" ","ALLEY":" ","HOUSE_NO":"２之５號","E_COORD97":185875.82999999999,"N_COORD97":2544912.2599999998,"ADDRESS":"紅水子２之５號","OBJECTID":45530},"geometry":{"x":185875.83000000101,"y":2544912.2599999998}},{"attributes":{"ID":45531,"DIS_CODE":0,"TOWNNAME":"龍崎區","LI":"土崎里","LIN":"15鄰","STREET":" ","SECT":" ","MAREA":"紅水子","LANE":" ","ALLEY":" ","HOUSE_NO":"２之５號","E_COORD97":185893.29999999999,"N_COORD97":2544917.79,"ADDRESS":"紅水子２之５號","OBJECTID":45531},"geometry":{"x":185893.29999999981,"y":2544917.790000001}},{"attributes":{"ID":45532,"DIS_CODE":0,"TOWNNAME":"學甲區","LI":"豐和里","LIN":"15鄰","STREET":" ","SECT":" ","MAREA":"美豐","LANE":" ","ALLEY":" ","HOUSE_NO":"１２２號","E_COORD97":167944.07999999999,"N_COORD97":2568516.2599999998,"ADDRESS":"美豐１２２號","OBJECTID":45532},"geometry":{"x":167944.08000000101,"y":2568516.2599999998}},{"attributes":{"ID":45533,"DIS_CODE":0,"TOWNNAME":"龍崎區","LI":"土崎里","LIN":"15鄰","STREET":" ","SECT":" ","MAREA":"紅水子","LANE":" ","ALLEY":" ","HOUSE_NO":"１３之７號","E_COORD97":184090.22,"N_COORD97":2544509.2999999998,"ADDRESS":"紅水子１３之７號","OBJECTID":45533},"geometry":{"x":184090.21999999974,"y":2544509.3000000026}},{"attributes":{"ID":45534,"DIS_CODE":0,"TOWNNAME":"龍崎區","LI":"土崎里","LIN":"15鄰","STREET":" ","SECT":" ","MAREA":"紅水子","LANE":" ","ALLEY":" ","HOUSE_NO":"１３之１號","E_COORD97":184108.32000000001,"N_COORD97":2544806.2999999998,"ADDRESS":"紅水子１３之１號","OBJECTID":45534},"geometry":{"x":184108.3200000003,"y":2544806.3000000045}},{"attributes":{"ID":45535,"DIS_CODE":0,"TOWNNAME":"龍崎區","LI":"土崎里","LIN":"15鄰","STREET":" ","SECT":" ","MAREA":"紅水子","LANE":" ","ALLEY":" ","HOUSE_NO":"１３之１４號","E_COORD97":184100.47,"N_COORD97":2544723.2999999998,"ADDRESS":"紅水子１３之１４號","OBJECTID":45535},"geometry":{"x":184100.46999999881,"y":2544723.3000000007}},{"attributes":{"ID":45536,"DIS_CODE":0,"TOWNNAME":"西港區","LI":"港東里","LIN":"15鄰","STREET":" ","SECT":" ","MAREA":"八份","LANE":" ","ALLEY":" ","HOUSE_NO":"３６號之１","E_COORD97":169984.34,"N_COORD97":2558588.8599999999,"ADDRESS":"八份３６號之１","OBJECTID":45536},"geometry":{"x":169984.34000000078,"y":2558588.8599999994}},{"attributes":{"ID":45537,"DIS_CODE":0,"TOWNNAME":"西港區","LI":"港東里","LIN":"15鄰","STREET":" ","SECT":" ","MAREA":"八份","LANE":" ","ALLEY":" ","HOUSE_NO":"３６號之２","E_COORD97":169958.45999999999,"N_COORD97":2558575.1699999999,"ADDRESS":"八份３６號之２","OBJECTID":45537},"geometry":{"x":169958.46000000089,"y":2558575.1700000018}},{"attributes":{"ID":45538,"DIS_CODE":0,"TOWNNAME":"西港區","LI":"港東里","LIN":"15鄰","STREET":" ","SECT":" ","MAREA":"八份","LANE":" ","ALLEY":" ","HOUSE_NO":"３６號之３","E_COORD97":169968.38,"N_COORD97":2558533.9500000002,"ADDRESS":"八份３６號之３","OBJECTID":45538},"geometry":{"x":169968.37999999989,"y":2558533.9499999993}},{"attributes":{"ID":45539,"DIS_CODE":0,"TOWNNAME":"西港區","LI":"港東里","LIN":"15鄰","STREET":" ","SECT":" ","MAREA":"八份","LANE":" ","ALLEY":" ","HOUSE_NO":"３６號","E_COORD97":169975.66,"N_COORD97":2558586.2400000002,"ADDRESS":"八份３６號","OBJECTID":45539},"geometry":{"x":169975.66000000108,"y":2558586.2400000002}},{"attributes":{"ID":45540,"DIS_CODE":0,"TOWNNAME":"西港區","LI":"港東里","LIN":"15鄰","STREET":" ","SECT":" ","MAREA":"八份","LANE":" ","ALLEY":" ","HOUSE_NO":"３７號","E_COORD97":169999.67999999999,"N_COORD97":2558564.7799999998,"ADDRESS":"八份３７號","OBJECTID":45540},"geometry":{"x":169999.6799999997,"y":2558564.7799999993}},{"attributes":{"ID":45541,"DIS_CODE":0,"TOWNNAME":"西港區","LI":"港東里","LIN":"15鄰","STREET":" ","SECT":" ","MAREA":"八份","LANE":" ","ALLEY":" ","HOUSE_NO":"３８號","E_COORD97":170002.39999999999,"N_COORD97":2558583.6299999999,"ADDRESS":"八份３８號","OBJECTID":45541},"geometry":{"x":170002.40000000037,"y":2558583.629999999}},{"attributes":{"ID":45542,"DIS_CODE":0,"TOWNNAME":"西港區","LI":"港東里","LIN":"15鄰","STREET":" ","SECT":" ","MAREA":"八份","LANE":" ","ALLEY":" ","HOUSE_NO":"３９號","E_COORD97":170001.63,"N_COORD97":2558539.4199999999,"ADDRESS":"八份３９號","OBJECTID":45542},"geometry":{"x":170001.62999999989,"y":2558539.4200000018}},{"attributes":{"ID":45543,"DIS_CODE":0,"TOWNNAME":"西港區","LI":"港東里","LIN":"15鄰","STREET":" ","SECT":" ","MAREA":"八份","LANE":" ","ALLEY":" ","HOUSE_NO":"４０號之１","E_COORD97":169999.12,"N_COORD97":2558493.9900000002,"ADDRESS":"八份４０號之１","OBJECTID":45543},"geometry":{"x":169999.12000000011,"y":2558493.9900000002}},{"attributes":{"ID":45544,"DIS_CODE":0,"TOWNNAME":"西港區","LI":"港東里","LIN":"15鄰","STREET":" ","SECT":" ","MAREA":"八份","LANE":" ","ALLEY":" ","HOUSE_NO":"４０號","E_COORD97":169996.13,"N_COORD97":2558525.9399999999,"ADDRESS":"八份４０號","OBJECTID":45544},"geometry":{"x":169996.13000000082,"y":2558525.9400000013}},{"attributes":{"ID":45545,"DIS_CODE":0,"TOWNNAME":"西港區","LI":"竹林里","LIN":"15鄰","STREET":" ","SECT":" ","MAREA":"大竹林","LANE":" ","ALLEY":" ","HOUSE_NO":"１２６號之１","E_COORD97":166842.44,"N_COORD97":2557970.6200000001,"ADDRESS":"大竹林１２６號之１","OBJECTID":45545},"geometry":{"x":166842.44000000041,"y":2557970.6200000029}},{"attributes":{"ID":45546,"DIS_CODE":0,"TOWNNAME":"西港區","LI":"竹林里","LIN":"15鄰","STREET":" ","SECT":" ","MAREA":"大竹林","LANE":" ","ALLEY":" ","HOUSE_NO":"１２６號之２","E_COORD97":166824.32999999999,"N_COORD97":2557938.4100000001,"ADDRESS":"大竹林１２６號之２","OBJECTID":45546},"geometry":{"x":166824.33000000007,"y":2557938.4100000001}},{"attributes":{"ID":45547,"DIS_CODE":0,"TOWNNAME":"西港區","LI":"竹林里","LIN":"15鄰","STREET":" ","SECT":" ","MAREA":"大竹林","LANE":" ","ALLEY":" ","HOUSE_NO":"１２６號之３","E_COORD97":166828.79999999999,"N_COORD97":2557937.7400000002,"ADDRESS":"大竹林１２６號之３","OBJECTID":45547},"geometry":{"x":166828.79999999981,"y":2557937.7400000021}},{"attributes":{"ID":45548,"DIS_CODE":0,"TOWNNAME":"安南區","LI":"淵西里","LIN":"15鄰","STREET":"本原街","SECT":"三段","MAREA":" ","LANE":"２３４巷","ALLEY":"１４１弄","HOUSE_NO":"１５９號","E_COORD97":165079.04999999999,"N_COORD97":2550571.6299999999,"ADDRESS":"本原街三段２３４巷１４１弄１５９號","OBJECTID":45548},"geometry":{"x":165079.05000000075,"y":2550571.629999999}},{"attributes":{"ID":45549,"DIS_CODE":0,"TOWNNAME":"西港區","LI":"竹林里","LIN":"15鄰","STREET":" ","SECT":" ","MAREA":"大竹林","LANE":" ","ALLEY":" ","HOUSE_NO":"１２６號","E_COORD97":166840.12,"N_COORD97":2557952.3700000001,"ADDRESS":"大竹林１２６號","OBJECTID":45549},"geometry":{"x":166840.12000000104,"y":2557952.370000001}},{"attributes":{"ID":45550,"DIS_CODE":0,"TOWNNAME":"安南區","LI":"淵西里","LIN":"15鄰","STREET":"本原街","SECT":"三段","MAREA":" ","LANE":"２３４巷","ALLEY":"１４１弄","HOUSE_NO":"１５號","E_COORD97":165165.51000000001,"N_COORD97":2550619.4900000002,"ADDRESS":"本原街三段２３４巷１４１弄１５號","OBJECTID":45550},"geometry":{"x":165165.51000000071,"y":2550619.4900000021}},{"attributes":{"ID":45551,"DIS_CODE":0,"TOWNNAME":"安南區","LI":"淵西里","LIN":"15鄰","STREET":"本原街","SECT":"三段","MAREA":" ","LANE":"２３４巷","ALLEY":"１４１弄","HOUSE_NO":"１６１號","E_COORD97":165076.34,"N_COORD97":2550575.2400000002,"ADDRESS":"本原街三段２３４巷１４１弄１６１號","OBJECTID":45551},"geometry":{"x":165076.33999999892,"y":2550575.2400000002}},{"attributes":{"ID":45552,"DIS_CODE":0,"TOWNNAME":"安南區","LI":"淵西里","LIN":"15鄰","STREET":"本原街","SECT":"三段","MAREA":" ","LANE":"２３４巷","ALLEY":"１４１弄","HOUSE_NO":"１６３號","E_COORD97":165072.72,"N_COORD97":2550579.3100000001,"ADDRESS":"本原街三段２３４巷１４１弄１６３號","OBJECTID":45552},"geometry":{"x":165072.72000000067,"y":2550579.3100000005}},{"attributes":{"ID":45553,"DIS_CODE":0,"TOWNNAME":"安南區","LI":"淵西里","LIN":"15鄰","STREET":"本原街","SECT":"三段","MAREA":" ","LANE":"２３４巷","ALLEY":"１４１弄","HOUSE_NO":"１７號","E_COORD97":165170.03,"N_COORD97":2550622.6499999999,"ADDRESS":"本原街三段２３４巷１４１弄１７號","OBJECTID":45553},"geometry":{"x":165170.03000000026,"y":2550622.6500000022}},{"attributes":{"ID":45554,"DIS_CODE":0,"TOWNNAME":"南區","LI":"新興里","LIN":"17鄰","STREET":"三官路","SECT":" ","MAREA":" ","LANE":" ","ALLEY":" ","HOUSE_NO":"６５號","E_COORD97":167362.98000000001,"N_COORD97":2542280.2200000002,"ADDRESS":"三官路６５號","OBJECTID":45554},"geometry":{"x":167362.98000000231,"y":2542280.2200000007}},{"attributes":{"ID":45555,"DIS_CODE":0,"TOWNNAME":"南區","LI":"新興里","LIN":"17鄰","STREET":"三官路","SECT":" ","MAREA":" ","LANE":" ","ALLEY":" ","HOUSE_NO":"６７號","E_COORD97":167362.66,"N_COORD97":2542276.71,"ADDRESS":"三官路６７號","OBJECTID":45555},"geometry":{"x":167362.66000000015,"y":2542276.7100000009}},{"attributes":{"ID":45556,"DIS_CODE":0,"TOWNNAME":"南區","LI":"新興里","LIN":"17鄰","STREET":"三官路","SECT":" ","MAREA":" ","LANE":" ","ALLEY":" ","HOUSE_NO":"８１號之１","E_COORD97":167365.39999999999,"N_COORD97":2542232.48,"ADDRESS":"三官路８１號之１","OBJECTID":45556},"geometry":{"x":167365.4000000013,"y":2542232.4800000023}},{"attributes":{"ID":45557,"DIS_CODE":0,"TOWNNAME":"南區","LI":"新興里","LIN":"17鄰","STREET":"三官路","SECT":" ","MAREA":" ","LANE":" ","ALLEY":" ","HOUSE_NO":"８３號","E_COORD97":167366.04000000001,"N_COORD97":2542228.0099999998,"ADDRESS":"三官路８３號","OBJECTID":45557},"geometry":{"x":167366.04000000097,"y":2542228.0100000016}},{"attributes":{"ID":45558,"DIS_CODE":0,"TOWNNAME":"南區","LI":"新興里","LIN":"17鄰","STREET":"三官路","SECT":" ","MAREA":" ","LANE":" ","ALLEY":" ","HOUSE_NO":"９１號","E_COORD97":167372.73999999999,"N_COORD97":2542197.1400000001,"ADDRESS":"三官路９１號","OBJECTID":45558},"geometry":{"x":167372.74000000209,"y":2542197.1400000025}},{"attributes":{"ID":45559,"DIS_CODE":0,"TOWNNAME":"安平區","LI":"國平里","LIN":"17鄰","STREET":"健康二街","SECT":" ","MAREA":" ","LANE":" ","ALLEY":" ","HOUSE_NO":"５０號","E_COORD97":165185.26999999999,"N_COORD97":2542883.9900000002,"ADDRESS":"健康二街５０號","OBJECTID":45559},"geometry":{"x":165185.27000000048,"y":2542883.9900000002}},{"attributes":{"ID":45560,"DIS_CODE":0,"TOWNNAME":"安平區","LI":"國平里","LIN":"17鄰","STREET":"健康二街","SECT":" ","MAREA":" ","LANE":" ","ALLEY":" ","HOUSE_NO":"５２號","E_COORD97":165185.85999999999,"N_COORD97":2542887.3599999999,"ADDRESS":"健康二街５２號","OBJECTID":45560},"geometry":{"x":165185.86000000127,"y":2542887.3599999994}},{"attributes":{"ID":45561,"DIS_CODE":0,"TOWNNAME":"安南區","LI":"淵西里","LIN":"15鄰","STREET":"本原街","SECT":"三段","MAREA":" ","LANE":"２３４巷","ALLEY":"１４１弄","HOUSE_NO":"１９號","E_COORD97":165173.87,"N_COORD97":2550625.1299999999,"ADDRESS":"本原街三段２３４巷１４１弄１９號","OBJECTID":45561},"geometry":{"x":165173.87000000104,"y":2550625.129999999}},{"attributes":{"ID":45562,"DIS_CODE":0,"TOWNNAME":"安南區","LI":"淵西里","LIN":"15鄰","STREET":"本原街","SECT":"三段","MAREA":" ","LANE":"２３４巷","ALLEY":"１４１弄","HOUSE_NO":"１號","E_COORD97":165149.45999999999,"N_COORD97":2550631,"ADDRESS":"本原街三段２３４巷１４１弄１號","OBJECTID":45562},"geometry":{"x":165149.46000000089,"y":2550631}},{"attributes":{"ID":45563,"DIS_CODE":0,"TOWNNAME":"玉井區","LI":"望明里","LIN":"17鄰","STREET":" ","SECT":" ","MAREA":"望明","LANE":" ","ALLEY":" ","HOUSE_NO":"１７８號","E_COORD97":191573.29000000001,"N_COORD97":2555510.2400000002,"ADDRESS":"望明１７８號","OBJECTID":45563},"geometry":{"x":191573.29000000097,"y":2555510.2400000021}},{"attributes":{"ID":45564,"DIS_CODE":0,"TOWNNAME":"西港區","LI":"竹林里","LIN":"15鄰","STREET":" ","SECT":" ","MAREA":"大竹林","LANE":" ","ALLEY":" ","HOUSE_NO":"１２８號","E_COORD97":166754.23999999999,"N_COORD97":2558006.8199999998,"ADDRESS":"大竹林１２８號","OBJECTID":45564},"geometry":{"x":166754.24000000115,"y":2558006.8200000003}},{"attributes":{"ID":45565,"DIS_CODE":0,"TOWNNAME":"西港區","LI":"竹林里","LIN":"15鄰","STREET":" ","SECT":" ","MAREA":"大竹林","LANE":" ","ALLEY":" ","HOUSE_NO":"１２９號之１０","E_COORD97":166723.35999999999,"N_COORD97":2558027.4500000002,"ADDRESS":"大竹林１２９號之１０","OBJECTID":45565},"geometry":{"x":166723.36000000127,"y":2558027.4500000011}},{"attributes":{"ID":45566,"DIS_CODE":0,"TOWNNAME":"西港區","LI":"竹林里","LIN":"15鄰","STREET":" ","SECT":" ","MAREA":"大竹林","LANE":" ","ALLEY":" ","HOUSE_NO":"１２９號之３","E_COORD97":166726.88,"N_COORD97":2557995.3700000001,"ADDRESS":"大竹林１２９號之３","OBJECTID":45566},"geometry":{"x":166726.87999999989,"y":2557995.3700000029}},{"attributes":{"ID":45567,"DIS_CODE":0,"TOWNNAME":"西港區","LI":"竹林里","LIN":"15鄰","STREET":" ","SECT":" ","MAREA":"大竹林","LANE":" ","ALLEY":" ","HOUSE_NO":"１２９號之４","E_COORD97":166723.23000000001,"N_COORD97":2557997.2000000002,"ADDRESS":"大竹林１２９號之４","OBJECTID":45567},"geometry":{"x":166723.23000000045,"y":2557997.200000003}},{"attributes":{"ID":45568,"DIS_CODE":0,"TOWNNAME":"西港區","LI":"竹林里","LIN":"15鄰","STREET":" ","SECT":" ","MAREA":"大竹林","LANE":" ","ALLEY":" ","HOUSE_NO":"１２９號之５","E_COORD97":166719.79999999999,"N_COORD97":2557999.1099999999,"ADDRESS":"大竹林１２９號之５","OBJECTID":45568},"geometry":{"x":166719.80000000075,"y":2557999.1100000013}},{"attributes":{"ID":45569,"DIS_CODE":0,"TOWNNAME":"西港區","LI":"竹林里","LIN":"15鄰","STREET":" ","SECT":" ","MAREA":"大竹林","LANE":" ","ALLEY":" ","HOUSE_NO":"１２９號之６","E_COORD97":166716.12,"N_COORD97":2558001.6800000002,"ADDRESS":"大竹林１２９號之６","OBJECTID":45569},"geometry":{"x":166716.12000000104,"y":2558001.6800000016}},{"attributes":{"ID":45570,"DIS_CODE":0,"TOWNNAME":"西港區","LI":"竹林里","LIN":"15鄰","STREET":" ","SECT":" ","MAREA":"大竹林","LANE":" ","ALLEY":" ","HOUSE_NO":"１２９號之７","E_COORD97":166712.54000000001,"N_COORD97":2558003.98,"ADDRESS":"大竹林１２９號之７","OBJECTID":45570},"geometry":{"x":166712.54000000004,"y":2558003.9800000023}},{"attributes":{"ID":45571,"DIS_CODE":0,"TOWNNAME":"西港區","LI":"竹林里","LIN":"15鄰","STREET":" ","SECT":" ","MAREA":"大竹林","LANE":" ","ALLEY":" ","HOUSE_NO":"１２９號之８","E_COORD97":166709.29999999999,"N_COORD97":2558006.5600000001,"ADDRESS":"大竹林１２９號之８","OBJECTID":45571},"geometry":{"x":166709.30000000075,"y":2558006.5600000042}},{"attributes":{"ID":45572,"DIS_CODE":0,"TOWNNAME":"西港區","LI":"竹林里","LIN":"15鄰","STREET":" ","SECT":" ","MAREA":"大竹林","LANE":" ","ALLEY":" ","HOUSE_NO":"１２９號之９","E_COORD97":166720.67000000001,"N_COORD97":2558023.5,"ADDRESS":"大竹林１２９號之９","OBJECTID":45572},"geometry":{"x":166720.67000000086,"y":2558023.5000000019}},{"attributes":{"ID":45573,"DIS_CODE":0,"TOWNNAME":"西港區","LI":"竹林里","LIN":"15鄰","STREET":" ","SECT":" ","MAREA":"大竹林","LANE":" ","ALLEY":" ","HOUSE_NO":"１３０號之１","E_COORD97":166677.44,"N_COORD97":2558025.3399999999,"ADDRESS":"大竹林１３０號之１","OBJECTID":45573},"geometry":{"x":166677.44000000134,"y":2558025.3400000017}},{"attributes":{"ID":45574,"DIS_CODE":0,"TOWNNAME":"西港區","LI":"竹林里","LIN":"15鄰","STREET":" ","SECT":" ","MAREA":"大竹林","LANE":" ","ALLEY":" ","HOUSE_NO":"１３０之２號","E_COORD97":166692.95000000001,"N_COORD97":2558020.0099999998,"ADDRESS":"大竹林１３０之２號","OBJECTID":45574},"geometry":{"x":166692.95000000019,"y":2558020.0100000016}},{"attributes":{"ID":45575,"DIS_CODE":0,"TOWNNAME":"西港區","LI":"竹林里","LIN":"15鄰","STREET":" ","SECT":" ","MAREA":"大竹林","LANE":" ","ALLEY":" ","HOUSE_NO":"１３０號之２","E_COORD97":166692.95000000001,"N_COORD97":2558020.0099999998,"ADDRESS":"大竹林１３０號之２","OBJECTID":45575},"geometry":{"x":166692.95000000019,"y":2558020.0100000016}},{"attributes":{"ID":45576,"DIS_CODE":0,"TOWNNAME":"安南區","LI":"淵西里","LIN":"15鄰","STREET":"本原街","SECT":"三段","MAREA":" ","LANE":"２３４巷","ALLEY":"１４１弄","HOUSE_NO":"２１號","E_COORD97":165177.03,"N_COORD97":2550629.1899999999,"ADDRESS":"本原街三段２３４巷１４１弄２１號","OBJECTID":45576},"geometry":{"x":165177.03000000026,"y":2550629.1899999995}},{"attributes":{"ID":45577,"DIS_CODE":0,"TOWNNAME":"安南區","LI":"淵西里","LIN":"15鄰","STREET":"本原街","SECT":"三段","MAREA":" ","LANE":"２３４巷","ALLEY":"１４１弄","HOUSE_NO":"２３號","E_COORD97":165180.64999999999,"N_COORD97":2550632.8100000001,"ADDRESS":"本原街三段２３４巷１４１弄２３號","OBJECTID":45577},"geometry":{"x":165180.6500000013,"y":2550632.8100000005}},{"attributes":{"ID":45578,"DIS_CODE":0,"TOWNNAME":"安南區","LI":"淵西里","LIN":"15鄰","STREET":"本原街","SECT":"三段","MAREA":" ","LANE":"２３４巷","ALLEY":"１４１弄","HOUSE_NO":"３３號","E_COORD97":165116.35000000001,"N_COORD97":2550612.7200000002,"ADDRESS":"本原街三段２３４巷１４１弄３３號","OBJECTID":45578},"geometry":{"x":165116.34999999963,"y":2550612.7200000007}},{"attributes":{"ID":45579,"DIS_CODE":0,"TOWNNAME":"安南區","LI":"淵西里","LIN":"15鄰","STREET":"本原街","SECT":"三段","MAREA":" ","LANE":"２３４巷","ALLEY":"１４１弄","HOUSE_NO":"３５號","E_COORD97":165119.06,"N_COORD97":2550608.2000000002,"ADDRESS":"本原街三段２３４巷１４１弄３５號","OBJECTID":45579},"geometry":{"x":165119.06000000052,"y":2550608.1999999993}},{"attributes":{"ID":45580,"DIS_CODE":0,"TOWNNAME":"安南區","LI":"淵西里","LIN":"15鄰","STREET":"本原街","SECT":"三段","MAREA":" ","LANE":"２３４巷","ALLEY":"１４１弄","HOUSE_NO":"３７號","E_COORD97":165122,"N_COORD97":2550604.8199999998,"ADDRESS":"本原街三段２３４巷１４１弄３７號","OBJECTID":45580},"geometry":{"x":165122.00000000093,"y":2550604.8200000003}},{"attributes":{"ID":45581,"DIS_CODE":0,"TOWNNAME":"安南區","LI":"淵西里","LIN":"15鄰","STREET":"本原街","SECT":"三段","MAREA":" ","LANE":"２３４巷","ALLEY":"１４１弄","HOUSE_NO":"３９號","E_COORD97":165124.94,"N_COORD97":2550601.4300000002,"ADDRESS":"本原街三段２３４巷１４１弄３９號","OBJECTID":45581},"geometry":{"x":165124.94000000041,"y":2550601.4299999997}},{"attributes":{"ID":45582,"DIS_CODE":0,"TOWNNAME":"安南區","LI":"淵西里","LIN":"15鄰","STREET":"本原街","SECT":"三段","MAREA":" ","LANE":"２３４巷","ALLEY":"１４１弄","HOUSE_NO":"３號","E_COORD97":165153.53,"N_COORD97":2550633.9399999999,"ADDRESS":"本原街三段２３４巷１４１弄３號","OBJECTID":45582},"geometry":{"x":165153.53000000212,"y":2550633.9399999995}},{"attributes":{"ID":45583,"DIS_CODE":0,"TOWNNAME":"安南區","LI":"淵西里","LIN":"15鄰","STREET":"本原街","SECT":"三段","MAREA":" ","LANE":"２３４巷","ALLEY":"１４１弄","HOUSE_NO":"４１號","E_COORD97":165128.32999999999,"N_COORD97":2550598.04,"ADDRESS":"本原街三段２３４巷１４１弄４１號","OBJECTID":45583},"geometry":{"x":165128.33000000101,"y":2550598.040000001}},{"attributes":{"ID":45584,"DIS_CODE":0,"TOWNNAME":"安南區","LI":"淵西里","LIN":"15鄰","STREET":"本原街","SECT":"三段","MAREA":" ","LANE":"２３４巷","ALLEY":"１４１弄","HOUSE_NO":"４５號","E_COORD97":165132.85000000001,"N_COORD97":2550591.7200000002,"ADDRESS":"本原街三段２３４巷１４１弄４５號","OBJECTID":45584},"geometry":{"x":165132.85000000056,"y":2550591.7200000025}},{"attributes":{"ID":45585,"DIS_CODE":0,"TOWNNAME":"歸仁區","LI":"大廟里","LIN":"17鄰","STREET":"保吉路","SECT":" ","MAREA":" ","LANE":"７３巷","ALLEY":" ","HOUSE_NO":"４１號","E_COORD97":175823.67000000001,"N_COORD97":2545236.25,"ADDRESS":"保吉路７３巷４１號","OBJECTID":45585},"geometry":{"x":175823.67000000086,"y":2545236.2500000037}},{"attributes":{"ID":45586,"DIS_CODE":0,"TOWNNAME":"歸仁區","LI":"新厝里","LIN":"17鄰","STREET":"中正南路","SECT":"一段","MAREA":" ","LANE":" ","ALLEY":" ","HOUSE_NO":"１４７號","E_COORD97":177468.14999999999,"N_COORD97":2540424.5899999999,"ADDRESS":"中正南路一段１４７號","OBJECTID":45586},"geometry":{"x":177468.15000000037,"y":2540424.5900000017}},{"attributes":{"ID":45587,"DIS_CODE":0,"TOWNNAME":"歸仁區","LI":"文化里","LIN":"17鄰","STREET":"文化北街","SECT":" ","MAREA":" ","LANE":" ","ALLEY":" ","HOUSE_NO":"１２０號","E_COORD97":177173.41,"N_COORD97":2541416.3399999999,"ADDRESS":"文化北街１２０號","OBJECTID":45587},"geometry":{"x":177173.41000000108,"y":2541416.3399999999}},{"attributes":{"ID":45588,"DIS_CODE":0,"TOWNNAME":"歸仁區","LI":"辜厝里","LIN":"17鄰","STREET":"大順街","SECT":" ","MAREA":" ","LANE":" ","ALLEY":" ","HOUSE_NO":"１３號","E_COORD97":177457.17999999999,"N_COORD97":2540505.9500000002,"ADDRESS":"大順街１３號","OBJECTID":45588},"geometry":{"x":177457.1799999997,"y":2540505.9500000011}},{"attributes":{"ID":45589,"DIS_CODE":0,"TOWNNAME":"歸仁區","LI":"崙頂里","LIN":"17鄰","STREET":"大成路","SECT":" ","MAREA":" ","LANE":" ","ALLEY":" ","HOUSE_NO":"２８７號","E_COORD97":177941.42999999999,"N_COORD97":2540114.25,"ADDRESS":"大成路２８７號","OBJECTID":45589},"geometry":{"x":177941.4299999997,"y":2540114.2500000019}},{"attributes":{"ID":45590,"DIS_CODE":0,"TOWNNAME":"歸仁區","LI":"後市里","LIN":"17鄰","STREET":"中山路","SECT":"二段","MAREA":" ","LANE":" ","ALLEY":" ","HOUSE_NO":"１６１號","E_COORD97":177261.59,"N_COORD97":2540807.5499999998,"ADDRESS":"中山路二段１６１號","OBJECTID":45590},"geometry":{"x":177261.59000000171,"y":2540807.5500000026}},{"attributes":{"ID":45591,"DIS_CODE":0,"TOWNNAME":"玉井區","LI":"玉田里","LIN":"17鄰","STREET":" ","SECT":" ","MAREA":"玉田","LANE":" ","ALLEY":" ","HOUSE_NO":"２１５號","E_COORD97":193892.42000000001,"N_COORD97":2557540.2400000002,"ADDRESS":"玉田２１５號","OBJECTID":45591},"geometry":{"x":193892.41999999899,"y":2557540.2400000039}},{"attributes":{"ID":45592,"DIS_CODE":0,"TOWNNAME":"玉井區","LI":"玉田里","LIN":"17鄰","STREET":" ","SECT":" ","MAREA":"玉田","LANE":" ","ALLEY":" ","HOUSE_NO":"２２２號","E_COORD97":193975.72,"N_COORD97":2557772.2400000002,"ADDRESS":"玉田２２２號","OBJECTID":45592},"geometry":{"x":193975.72000000067,"y":2557772.2400000021}},{"attributes":{"ID":45593,"DIS_CODE":0,"TOWNNAME":"玉井區","LI":"玉田里","LIN":"17鄰","STREET":" ","SECT":" ","MAREA":"玉田","LANE":" ","ALLEY":" ","HOUSE_NO":"２１６之１號","E_COORD97":193855.92000000001,"N_COORD97":2557523.2999999998,"ADDRESS":"玉田２１６之１號","OBJECTID":45593},"geometry":{"x":193855.92000000086,"y":2557523.2999999989}},{"attributes":{"ID":45594,"DIS_CODE":0,"TOWNNAME":"玉井區","LI":"望明里","LIN":"17鄰","STREET":" ","SECT":" ","MAREA":"望明","LANE":" ","ALLEY":" ","HOUSE_NO":"１７８之１號","E_COORD97":191577.09,"N_COORD97":2555533.2999999998,"ADDRESS":"望明１７８之１號","OBJECTID":45594},"geometry":{"x":191577.08999999985,"y":2555533.3000000045}},{"attributes":{"ID":45595,"DIS_CODE":0,"TOWNNAME":"安南區","LI":"淵西里","LIN":"15鄰","STREET":"本原街","SECT":"三段","MAREA":" ","LANE":"２３４巷","ALLEY":"１４１弄","HOUSE_NO":"４７號","E_COORD97":165135.78,"N_COORD97":2550588.3399999999,"ADDRESS":"本原街三段２３４巷１４１弄４７號","OBJECTID":45595},"geometry":{"x":165135.78000000026,"y":2550588.3399999999}},{"attributes":{"ID":45596,"DIS_CODE":0,"TOWNNAME":"安南區","LI":"淵西里","LIN":"15鄰","STREET":"本原街","SECT":"三段","MAREA":" ","LANE":"２３４巷","ALLEY":"１４１弄","HOUSE_NO":"４９號","E_COORD97":165138.26999999999,"N_COORD97":2550584.5,"ADDRESS":"本原街三段２３４巷１４１弄４９號","OBJECTID":45596},"geometry":{"x":165138.27000000048,"y":2550584.5000000037}},{"attributes":{"ID":45597,"DIS_CODE":0,"TOWNNAME":"學甲區","LI":"豐和里","LIN":"15鄰","STREET":" ","SECT":" ","MAREA":"美豐","LANE":" ","ALLEY":" ","HOUSE_NO":"１２３號","E_COORD97":167940.31,"N_COORD97":2568550.21,"ADDRESS":"美豐１２３號","OBJECTID":45597},"geometry":{"x":167940.31000000052,"y":2568550.2100000028}},{"attributes":{"ID":45598,"DIS_CODE":0,"TOWNNAME":"安南區","LI":"淵西里","LIN":"15鄰","STREET":"本原街","SECT":"三段","MAREA":" ","LANE":"２３４巷","ALLEY":"１４１弄","HOUSE_NO":"５１號","E_COORD97":165140.98000000001,"N_COORD97":2550581.79,"ADDRESS":"本原街三段２３４巷１４１弄５１號","OBJECTID":45598},"geometry":{"x":165140.98000000138,"y":2550581.7900000028}},{"attributes":{"ID":45599,"DIS_CODE":0,"TOWNNAME":"安南區","LI":"淵西里","LIN":"15鄰","STREET":"本原街","SECT":"三段","MAREA":" ","LANE":"２３４巷","ALLEY":"１４１弄","HOUSE_NO":"５３號","E_COORD97":165143.47,"N_COORD97":2550577.9500000002,"ADDRESS":"本原街三段２３４巷１４１弄５３號","OBJECTID":45599},"geometry":{"x":165143.47000000067,"y":2550577.9500000011}},{"attributes":{"ID":45600,"DIS_CODE":0,"TOWNNAME":"玉井區","LI":"望明里","LIN":"17鄰","STREET":" ","SECT":" ","MAREA":"望明","LANE":" ","ALLEY":" ","HOUSE_NO":"１７５號","E_COORD97":191579.59,"N_COORD97":2555428.25,"ADDRESS":"望明１７５號","OBJECTID":45600},"geometry":{"x":191579.59000000078,"y":2555428.2500000019}}]}