{"displayFieldName":"TOWNNAME","fieldAliases":{"ID":"ID","DIS_CODE":"DIS_CODE","TOWNNAME":"TOWNNAME","LI":"LI","LIN":"LIN","STREET":"STREET","SECT":"SECT","MAREA":"MAREA","LANE":"LANE","ALLEY":"ALLEY","HOUSE_NO":"HOUSE_NO","E_COORD97":"E_COORD97","N_COORD97":"N_COORD97","ADDRESS":"ADDRESS","OBJECTID":"OBJECTID"},"geometryType":"esriGeometryPoint","spatialReference":{"wkid":102443,"latestWkid":3826},"fields":[{"name":"ID","type":"esriFieldTypeDouble","alias":"ID"},{"name":"DIS_CODE","type":"esriFieldTypeInteger","alias":"DIS_CODE"},{"name":"TOWNNAME","type":"esriFieldTypeString","alias":"TOWNNAME","length":8},{"name":"LI","type":"esriFieldTypeString","alias":"LI","length":8},{"name":"LIN","type":"esriFieldTypeString","alias":"LIN","length":12},{"name":"STREET","type":"esriFieldTypeString","alias":"STREET","length":20},{"name":"SECT","type":"esriFieldTypeString","alias":"SECT","length":8},{"name":"MAREA","type":"esriFieldTypeString","alias":"MAREA","length":12},{"name":"LANE","type":"esriFieldTypeString","alias":"LANE","length":10},{"name":"ALLEY","type":"esriFieldTypeString","alias":"ALLEY","length":10},{"name":"HOUSE_NO","type":"esriFieldTypeString","alias":"HOUSE_NO","length":20},{"name":"E_COORD97","type":"esriFieldTypeDouble","alias":"E_COORD97"},{"name":"N_COORD97","type":"esriFieldTypeDouble","alias":"N_COORD97"},{"name":"ADDRESS","type":"esriFieldTypeString","alias":"ADDRESS","length":50},{"name":"OBJECTID","type":"esriFieldTypeOID","alias":"OBJECTID"}],"features":[{"attributes":{"ID":586628,"DIS_CODE":0,"TOWNNAME":"歸仁區","LI":"後市里","LIN":"11鄰","STREET":"民權七街","SECT":" ","MAREA":" ","LANE":" ","ALLEY":" ","HOUSE_NO":"２１號","E_COORD97":177046.39000000001,"N_COORD97":2540731.25,"ADDRESS":"民權七街２１號","OBJECTID":586601},"geometry":{"x":177046.3900000006,"y":2540731.2500000019}},{"attributes":{"ID":586629,"DIS_CODE":0,"TOWNNAME":"歸仁區","LI":"六甲里","LIN":"11鄰","STREET":"中正南路","SECT":"一段","MAREA":" ","LANE":" ","ALLEY":" ","HOUSE_NO":"１１５５號","E_COORD97":175966.66,"N_COORD97":2538824.2799999998,"ADDRESS":"中正南路一段１１５５號","OBJECTID":586602},"geometry":{"x":175966.66000000108,"y":2538824.2800000031}},{"attributes":{"ID":586630,"DIS_CODE":0,"TOWNNAME":"歸仁區","LI":"後市里","LIN":"11鄰","STREET":"民權七街","SECT":" ","MAREA":" ","LANE":" ","ALLEY":" ","HOUSE_NO":"１５號","E_COORD97":177033.09,"N_COORD97":2540731.25,"ADDRESS":"民權七街１５號","OBJECTID":586603},"geometry":{"x":177033.09000000078,"y":2540731.2500000019}},{"attributes":{"ID":586631,"DIS_CODE":0,"TOWNNAME":"歸仁區","LI":"許厝里","LIN":"11鄰","STREET":"信義南路","SECT":" ","MAREA":" ","LANE":" ","ALLEY":" ","HOUSE_NO":"１０７號","E_COORD97":178139.81,"N_COORD97":2540438.1000000001,"ADDRESS":"信義南路１０７號","OBJECTID":586604},"geometry":{"x":178139.81000000052,"y":2540438.0999999996}},{"attributes":{"ID":586632,"DIS_CODE":0,"TOWNNAME":"歸仁區","LI":"文化里","LIN":"11鄰","STREET":"文化北街","SECT":" ","MAREA":" ","LANE":" ","ALLEY":" ","HOUSE_NO":"５８號","E_COORD97":177327.95999999999,"N_COORD97":2541407.3399999999,"ADDRESS":"文化北街５８號","OBJECTID":586605},"geometry":{"x":177327.95999999996,"y":2541407.3399999999}},{"attributes":{"ID":586633,"DIS_CODE":0,"TOWNNAME":"歸仁區","LI":"南保里","LIN":"11鄰","STREET":"文化街","SECT":"三段","MAREA":" ","LANE":" ","ALLEY":" ","HOUSE_NO":"１７８號","E_COORD97":176583.14000000001,"N_COORD97":2541220.3300000001,"ADDRESS":"文化街三段１７８號","OBJECTID":586606},"geometry":{"x":176583.1400000006,"y":2541220.3300000001}},{"attributes":{"ID":586634,"DIS_CODE":0,"TOWNNAME":"歸仁區","LI":"許厝里","LIN":"11鄰","STREET":"信義南路","SECT":" ","MAREA":" ","LANE":" ","ALLEY":" ","HOUSE_NO":"７１號","E_COORD97":178117.32000000001,"N_COORD97":2540528.1000000001,"ADDRESS":"信義南路７１號","OBJECTID":586607},"geometry":{"x":178117.3200000003,"y":2540528.1000000015}},{"attributes":{"ID":586635,"DIS_CODE":0,"TOWNNAME":"歸仁區","LI":"歸仁里","LIN":"11鄰","STREET":"信義北路","SECT":" ","MAREA":" ","LANE":" ","ALLEY":" ","HOUSE_NO":"７９號","E_COORD97":177960.51000000001,"N_COORD97":2540980.48,"ADDRESS":"信義北路７９號","OBJECTID":586608},"geometry":{"x":177960.51000000071,"y":2540980.4800000042}},{"attributes":{"ID":586636,"DIS_CODE":0,"TOWNNAME":"歸仁區","LI":"後市里","LIN":"11鄰","STREET":"民權七街","SECT":" ","MAREA":" ","LANE":" ","ALLEY":" ","HOUSE_NO":"５號","E_COORD97":177018.22,"N_COORD97":2540733.29,"ADDRESS":"民權七街５號","OBJECTID":586609},"geometry":{"x":177018.22000000067,"y":2540733.290000001}},{"attributes":{"ID":586637,"DIS_CODE":0,"TOWNNAME":"歸仁區","LI":"後市里","LIN":"11鄰","STREET":"民權七街","SECT":" ","MAREA":" ","LANE":" ","ALLEY":" ","HOUSE_NO":"７號","E_COORD97":177022.32000000001,"N_COORD97":2540733.29,"ADDRESS":"民權七街７號","OBJECTID":586610},"geometry":{"x":177022.3200000003,"y":2540733.290000001}},{"attributes":{"ID":586638,"DIS_CODE":0,"TOWNNAME":"歸仁區","LI":"歸仁里","LIN":"11鄰","STREET":"信義北路","SECT":" ","MAREA":" ","LANE":" ","ALLEY":" ","HOUSE_NO":"６１號","E_COORD97":177982.81,"N_COORD97":2540926.48,"ADDRESS":"信義北路６１號","OBJECTID":586611},"geometry":{"x":177982.80999999959,"y":2540926.4800000023}},{"attributes":{"ID":586639,"DIS_CODE":0,"TOWNNAME":"中西區","LI":"文賢里","LIN":"10鄰","STREET":"文和街","SECT":" ","MAREA":" ","LANE":" ","ALLEY":" ","HOUSE_NO":"１９５號之１","E_COORD97":166895.67999999999,"N_COORD97":2544642.27,"ADDRESS":"文和街１９５號之１","OBJECTID":586612},"geometry":{"x":166895.6799999997,"y":2544642.2700000033}},{"attributes":{"ID":586640,"DIS_CODE":0,"TOWNNAME":"中西區","LI":"水仙里","LIN":"9鄰","STREET":"忠明街","SECT":" ","MAREA":" ","LANE":" ","ALLEY":" ","HOUSE_NO":"２號","E_COORD97":167714.32000000001,"N_COORD97":2544075.2999999998,"ADDRESS":"忠明街２號","OBJECTID":586613},"geometry":{"x":167714.3200000003,"y":2544075.3000000026}},{"attributes":{"ID":586641,"DIS_CODE":0,"TOWNNAME":"歸仁區","LI":"歸仁里","LIN":"11鄰","STREET":"信義北路","SECT":" ","MAREA":" ","LANE":" ","ALLEY":" ","HOUSE_NO":"７３號","E_COORD97":177983.10999999999,"N_COORD97":2540971.48,"ADDRESS":"信義北路７３號","OBJECTID":586614},"geometry":{"x":177983.11000000127,"y":2540971.4800000023}},{"attributes":{"ID":586642,"DIS_CODE":0,"TOWNNAME":"歸仁區","LI":"新厝里","LIN":"11鄰","STREET":"公園路","SECT":" ","MAREA":" ","LANE":" ","ALLEY":" ","HOUSE_NO":"２１２號","E_COORD97":177724.32999999999,"N_COORD97":2540429,"ADDRESS":"公園路２１２號","OBJECTID":586615},"geometry":{"x":177724.33000000007,"y":2540429}},{"attributes":{"ID":586643,"DIS_CODE":0,"TOWNNAME":"歸仁區","LI":"新厝里","LIN":"11鄰","STREET":"公園路","SECT":" ","MAREA":" ","LANE":" ","ALLEY":" ","HOUSE_NO":"２１８號","E_COORD97":177712.03,"N_COORD97":2540425,"ADDRESS":"公園路２１８號","OBJECTID":586616},"geometry":{"x":177712.03000000119,"y":2540425.0000000019}},{"attributes":{"ID":586644,"DIS_CODE":0,"TOWNNAME":"歸仁區","LI":"新厝里","LIN":"11鄰","STREET":"公園路","SECT":" ","MAREA":" ","LANE":" ","ALLEY":" ","HOUSE_NO":"２２２號","E_COORD97":177703.82999999999,"N_COORD97":2540422,"ADDRESS":"公園路２２２號","OBJECTID":586617},"geometry":{"x":177703.83000000007,"y":2540422}},{"attributes":{"ID":586645,"DIS_CODE":0,"TOWNNAME":"歸仁區","LI":"歸南里","LIN":"11鄰","STREET":"民生南街","SECT":"二段","MAREA":" ","LANE":" ","ALLEY":" ","HOUSE_NO":"２１９號","E_COORD97":176083.85999999999,"N_COORD97":2540096.25,"ADDRESS":"民生南街二段２１９號","OBJECTID":586618},"geometry":{"x":176083.86000000127,"y":2540096.2499999981}},{"attributes":{"ID":586646,"DIS_CODE":0,"TOWNNAME":"歸仁區","LI":"歸南里","LIN":"11鄰","STREET":"民生南街","SECT":"二段","MAREA":" ","LANE":" ","ALLEY":" ","HOUSE_NO":"２１５號","E_COORD97":176083.95999999999,"N_COORD97":2540105.25,"ADDRESS":"民生南街二段２１５號","OBJECTID":586619},"geometry":{"x":176083.95999999996,"y":2540105.25}},{"attributes":{"ID":586647,"DIS_CODE":0,"TOWNNAME":"歸仁區","LI":"歸南里","LIN":"11鄰","STREET":"民生南街","SECT":"二段","MAREA":" ","LANE":" ","ALLEY":" ","HOUSE_NO":"２０５號","E_COORD97":176087.16,"N_COORD97":2540127.25,"ADDRESS":"民生南街二段２０５號","OBJECTID":586620},"geometry":{"x":176087.16000000108,"y":2540127.2500000037}},{"attributes":{"ID":586648,"DIS_CODE":0,"TOWNNAME":"歸仁區","LI":"歸南里","LIN":"11鄰","STREET":"民生南街","SECT":"二段","MAREA":" ","LANE":" ","ALLEY":" ","HOUSE_NO":"２２７號","E_COORD97":176084.85999999999,"N_COORD97":2540084.25,"ADDRESS":"民生南街二段２２７號","OBJECTID":586621},"geometry":{"x":176084.86000000034,"y":2540084.2500000019}},{"attributes":{"ID":586649,"DIS_CODE":0,"TOWNNAME":"歸仁區","LI":"新厝里","LIN":"11鄰","STREET":"公園十街","SECT":" ","MAREA":" ","LANE":" ","ALLEY":" ","HOUSE_NO":"２號","E_COORD97":177692.28,"N_COORD97":2540431,"ADDRESS":"公園十街２號","OBJECTID":586622},"geometry":{"x":177692.28000000026,"y":2540431.0000000019}},{"attributes":{"ID":586650,"DIS_CODE":0,"TOWNNAME":"歸仁區","LI":"歸南里","LIN":"11鄰","STREET":"民生南街","SECT":"二段","MAREA":" ","LANE":" ","ALLEY":" ","HOUSE_NO":"２０９號","E_COORD97":176086.06,"N_COORD97":2540120.25,"ADDRESS":"民生南街二段２０９號","OBJECTID":586623},"geometry":{"x":176086.05999999959,"y":2540120.2500000037}},{"attributes":{"ID":586651,"DIS_CODE":0,"TOWNNAME":"歸仁區","LI":"看西里","LIN":"11鄰","STREET":"成功六街","SECT":" ","MAREA":" ","LANE":" ","ALLEY":" ","HOUSE_NO":"７６號","E_COORD97":178400.92999999999,"N_COORD97":2540271.8300000001,"ADDRESS":"成功六街７６號","OBJECTID":586624},"geometry":{"x":178400.9299999997,"y":2540271.8300000001}},{"attributes":{"ID":586652,"DIS_CODE":0,"TOWNNAME":"中西區","LI":"普濟里","LIN":"4鄰","STREET":"普濟街","SECT":" ","MAREA":" ","LANE":" ","ALLEY":" ","HOUSE_NO":"６８號","E_COORD97":167862.92999999999,"N_COORD97":2544346.2000000002,"ADDRESS":"普濟街６８號","OBJECTID":586625},"geometry":{"x":167862.93000000063,"y":2544346.1999999993}},{"attributes":{"ID":586653,"DIS_CODE":0,"TOWNNAME":"中西區","LI":"普濟里","LIN":"4鄰","STREET":"普濟街","SECT":" ","MAREA":" ","LANE":" ","ALLEY":" ","HOUSE_NO":"７０號","E_COORD97":167866.67999999999,"N_COORD97":2544348.6600000001,"ADDRESS":"普濟街７０號","OBJECTID":586626},"geometry":{"x":167866.68000000063,"y":2544348.6600000039}},{"attributes":{"ID":586654,"DIS_CODE":0,"TOWNNAME":"歸仁區","LI":"歸南里","LIN":"11鄰","STREET":"民生南街","SECT":"二段","MAREA":" ","LANE":" ","ALLEY":" ","HOUSE_NO":"２１７號","E_COORD97":176083.95999999999,"N_COORD97":2540101.25,"ADDRESS":"民生南街二段２１７號","OBJECTID":586627},"geometry":{"x":176083.95999999996,"y":2540101.2500000019}},{"attributes":{"ID":586655,"DIS_CODE":0,"TOWNNAME":"歸仁區","LI":"新厝里","LIN":"11鄰","STREET":"公園十街","SECT":" ","MAREA":" ","LANE":" ","ALLEY":" ","HOUSE_NO":"１０號","E_COORD97":177687.53,"N_COORD97":2540443,"ADDRESS":"公園十街１０號","OBJECTID":586628},"geometry":{"x":177687.53000000026,"y":2540443}},{"attributes":{"ID":586656,"DIS_CODE":0,"TOWNNAME":"歸仁區","LI":"歸南里","LIN":"11鄰","STREET":"民生南街","SECT":"二段","MAREA":" ","LANE":" ","ALLEY":" ","HOUSE_NO":"２３１號","E_COORD97":176086.85999999999,"N_COORD97":2540074.25,"ADDRESS":"民生南街二段２３１號","OBJECTID":586629},"geometry":{"x":176086.86000000034,"y":2540074.2500000019}},{"attributes":{"ID":586657,"DIS_CODE":0,"TOWNNAME":"歸仁區","LI":"崙頂里","LIN":"11鄰","STREET":"成功路","SECT":"二段","MAREA":" ","LANE":" ","ALLEY":" ","HOUSE_NO":"１０３號","E_COORD97":178066.98999999999,"N_COORD97":2539761.3799999999,"ADDRESS":"成功路二段１０３號","OBJECTID":586630},"geometry":{"x":178066.99000000022,"y":2539761.379999999}},{"attributes":{"ID":586658,"DIS_CODE":0,"TOWNNAME":"歸仁區","LI":"崙頂里","LIN":"11鄰","STREET":"成功路","SECT":"二段","MAREA":" ","LANE":" ","ALLEY":" ","HOUSE_NO":"１０９號","E_COORD97":178054.69,"N_COORD97":2539755.3799999999,"ADDRESS":"成功路二段１０９號","OBJECTID":586631},"geometry":{"x":178054.69000000227,"y":2539755.3800000027}},{"attributes":{"ID":586659,"DIS_CODE":0,"TOWNNAME":"歸仁區","LI":"崙頂里","LIN":"11鄰","STREET":"成功路","SECT":"二段","MAREA":" ","LANE":" ","ALLEY":" ","HOUSE_NO":"１３３號","E_COORD97":177990.17999999999,"N_COORD97":2539718.25,"ADDRESS":"成功路二段１３３號","OBJECTID":586632},"geometry":{"x":177990.18000000063,"y":2539718.2500000019}},{"attributes":{"ID":586660,"DIS_CODE":0,"TOWNNAME":"歸仁區","LI":"看西里","LIN":"11鄰","STREET":"成功六街","SECT":" ","MAREA":" ","LANE":" ","ALLEY":" ","HOUSE_NO":"６６號","E_COORD97":178395.63,"N_COORD97":2540244.8300000001,"ADDRESS":"成功六街６６號","OBJECTID":586633},"geometry":{"x":178395.63000000082,"y":2540244.8300000001}},{"attributes":{"ID":586661,"DIS_CODE":0,"TOWNNAME":"歸仁區","LI":"許厝里","LIN":"11鄰","STREET":"公園路","SECT":" ","MAREA":" ","LANE":" ","ALLEY":" ","HOUSE_NO":"５７號","E_COORD97":178126.37,"N_COORD97":2540554.1000000001,"ADDRESS":"公園路５７號","OBJECTID":586634},"geometry":{"x":178126.37000000104,"y":2540554.0999999996}},{"attributes":{"ID":586662,"DIS_CODE":0,"TOWNNAME":"歸仁區","LI":"後市里","LIN":"11鄰","STREET":"民權五街","SECT":" ","MAREA":" ","LANE":" ","ALLEY":" ","HOUSE_NO":"１４號","E_COORD97":177031.19,"N_COORD97":2540775.25,"ADDRESS":"民權五街１４號","OBJECTID":586635},"geometry":{"x":177031.19000000134,"y":2540775.2500000019}},{"attributes":{"ID":586663,"DIS_CODE":0,"TOWNNAME":"歸仁區","LI":"後市里","LIN":"11鄰","STREET":"民權五街","SECT":" ","MAREA":" ","LANE":" ","ALLEY":" ","HOUSE_NO":"６號","E_COORD97":177020.51999999999,"N_COORD97":2540778.29,"ADDRESS":"民權五街６號","OBJECTID":586636},"geometry":{"x":177020.51999999955,"y":2540778.290000001}},{"attributes":{"ID":586664,"DIS_CODE":0,"TOWNNAME":"歸仁區","LI":"南興里","LIN":"11鄰","STREET":"民生二街","SECT":" ","MAREA":" ","LANE":" ","ALLEY":" ","HOUSE_NO":"１３４號","E_COORD97":176062.54000000001,"N_COORD97":2541347.29,"ADDRESS":"民生二街１３４號","OBJECTID":586637},"geometry":{"x":176062.54000000097,"y":2541347.290000001}},{"attributes":{"ID":586665,"DIS_CODE":0,"TOWNNAME":"歸仁區","LI":"六甲里","LIN":"11鄰","STREET":"中正南路","SECT":"一段","MAREA":" ","LANE":" ","ALLEY":" ","HOUSE_NO":"１０９３號","E_COORD97":175983.06,"N_COORD97":2539016.2799999998,"ADDRESS":"中正南路一段１０９３號","OBJECTID":586638},"geometry":{"x":175983.05999999959,"y":2539016.2799999993}},{"attributes":{"ID":586666,"DIS_CODE":0,"TOWNNAME":"歸仁區","LI":"南興里","LIN":"11鄰","STREET":"民生二街","SECT":" ","MAREA":" ","LANE":" ","ALLEY":" ","HOUSE_NO":"１４８號","E_COORD97":176029.73999999999,"N_COORD97":2541347.29,"ADDRESS":"民生二街１４８號","OBJECTID":586639},"geometry":{"x":176029.74000000022,"y":2541347.290000001}},{"attributes":{"ID":586667,"DIS_CODE":0,"TOWNNAME":"歸仁區","LI":"後市里","LIN":"11鄰","STREET":"民權七街","SECT":" ","MAREA":" ","LANE":" ","ALLEY":" ","HOUSE_NO":"３１號","E_COORD97":177066.89000000001,"N_COORD97":2540729.25,"ADDRESS":"民權七街３１號","OBJECTID":586640},"geometry":{"x":177066.88999999966,"y":2540729.25}},{"attributes":{"ID":586668,"DIS_CODE":0,"TOWNNAME":"歸仁區","LI":"許厝里","LIN":"11鄰","STREET":"信義南路","SECT":" ","MAREA":" ","LANE":" ","ALLEY":" ","HOUSE_NO":"６７號","E_COORD97":178114.22,"N_COORD97":2540536.1000000001,"ADDRESS":"信義南路６７號","OBJECTID":586641},"geometry":{"x":178114.21999999974,"y":2540536.1000000015}},{"attributes":{"ID":586669,"DIS_CODE":0,"TOWNNAME":"歸仁區","LI":"文化里","LIN":"11鄰","STREET":"文化北街","SECT":" ","MAREA":" ","LANE":" ","ALLEY":" ","HOUSE_NO":"６８號","E_COORD97":177307.45999999999,"N_COORD97":2541408.3399999999,"ADDRESS":"文化北街６８號","OBJECTID":586642},"geometry":{"x":177307.45999999996,"y":2541408.3400000017}},{"attributes":{"ID":586670,"DIS_CODE":0,"TOWNNAME":"歸仁區","LI":"文化里","LIN":"11鄰","STREET":"文化北街","SECT":" ","MAREA":" ","LANE":" ","ALLEY":" ","HOUSE_NO":"６４號","E_COORD97":177315.66,"N_COORD97":2541408.3399999999,"ADDRESS":"文化北街６４號","OBJECTID":586643},"geometry":{"x":177315.66000000201,"y":2541408.3400000017}},{"attributes":{"ID":586671,"DIS_CODE":0,"TOWNNAME":"歸仁區","LI":"文化里","LIN":"11鄰","STREET":"文化北街","SECT":" ","MAREA":" ","LANE":" ","ALLEY":" ","HOUSE_NO":"７２號","E_COORD97":177300.26000000001,"N_COORD97":2541409.3399999999,"ADDRESS":"文化北街７２號","OBJECTID":586644},"geometry":{"x":177300.25999999978,"y":2541409.3400000017}},{"attributes":{"ID":586672,"DIS_CODE":0,"TOWNNAME":"歸仁區","LI":"南保里","LIN":"11鄰","STREET":"文化街","SECT":"三段","MAREA":" ","LANE":" ","ALLEY":" ","HOUSE_NO":"１４２號","E_COORD97":176665.14000000001,"N_COORD97":2541213.3300000001,"ADDRESS":"文化街三段１４２號","OBJECTID":586645},"geometry":{"x":176665.13999999966,"y":2541213.3300000001}},{"attributes":{"ID":586673,"DIS_CODE":0,"TOWNNAME":"歸仁區","LI":"許厝里","LIN":"11鄰","STREET":"信義南路","SECT":" ","MAREA":" ","LANE":" ","ALLEY":" ","HOUSE_NO":"８３號","E_COORD97":178130.51999999999,"N_COORD97":2540503.1000000001,"ADDRESS":"信義南路８３號","OBJECTID":586646},"geometry":{"x":178130.51999999955,"y":2540503.0999999996}},{"attributes":{"ID":586674,"DIS_CODE":0,"TOWNNAME":"歸仁區","LI":"南興里","LIN":"11鄰","STREET":"民生二街","SECT":" ","MAREA":" ","LANE":" ","ALLEY":" ","HOUSE_NO":"１３８號","E_COORD97":176051.23999999999,"N_COORD97":2541347.29,"ADDRESS":"民生二街１３８號","OBJECTID":586647},"geometry":{"x":176051.24000000115,"y":2541347.290000001}},{"attributes":{"ID":586675,"DIS_CODE":0,"TOWNNAME":"歸仁區","LI":"許厝里","LIN":"11鄰","STREET":"信義南路","SECT":" ","MAREA":" ","LANE":" ","ALLEY":" ","HOUSE_NO":"９１號","E_COORD97":178136.51999999999,"N_COORD97":2540473.1000000001,"ADDRESS":"信義南路９１號","OBJECTID":586648},"geometry":{"x":178136.52000000048,"y":2540473.0999999996}},{"attributes":{"ID":586676,"DIS_CODE":0,"TOWNNAME":"歸仁區","LI":"許厝里","LIN":"11鄰","STREET":"信義南路","SECT":" ","MAREA":" ","LANE":" ","ALLEY":" ","HOUSE_NO":"８０號","E_COORD97":178111.03,"N_COORD97":2540404.25,"ADDRESS":"信義南路８０號","OBJECTID":586649},"geometry":{"x":178111.03000000026,"y":2540404.25}},{"attributes":{"ID":586677,"DIS_CODE":0,"TOWNNAME":"歸仁區","LI":"許厝里","LIN":"11鄰","STREET":"信義南路","SECT":" ","MAREA":" ","LANE":" ","ALLEY":" ","HOUSE_NO":"１１３號","E_COORD97":178138.70999999999,"N_COORD97":2540426.1000000001,"ADDRESS":"信義南路１１３號","OBJECTID":586650},"geometry":{"x":178138.70999999996,"y":2540426.1000000034}},{"attributes":{"ID":586678,"DIS_CODE":0,"TOWNNAME":"歸仁區","LI":"南保里","LIN":"11鄰","STREET":"文化十街","SECT":" ","MAREA":" ","LANE":" ","ALLEY":" ","HOUSE_NO":"８號","E_COORD97":176563.09,"N_COORD97":2541246.3300000001,"ADDRESS":"文化十街８號","OBJECTID":586651},"geometry":{"x":176563.09000000171,"y":2541246.3300000019}},{"attributes":{"ID":586679,"DIS_CODE":0,"TOWNNAME":"歸仁區","LI":"南興里","LIN":"11鄰","STREET":"民生二街","SECT":" ","MAREA":" ","LANE":" ","ALLEY":" ","HOUSE_NO":"１５２號","E_COORD97":176018.44,"N_COORD97":2541347.29,"ADDRESS":"民生二街１５２號","OBJECTID":586652},"geometry":{"x":176018.44000000041,"y":2541347.290000001}},{"attributes":{"ID":586680,"DIS_CODE":0,"TOWNNAME":"歸仁區","LI":"許厝里","LIN":"11鄰","STREET":"信義南路","SECT":" ","MAREA":" ","LANE":" ","ALLEY":" ","HOUSE_NO":"９３號","E_COORD97":178136.51999999999,"N_COORD97":2540468.1000000001,"ADDRESS":"信義南路９３號","OBJECTID":586653},"geometry":{"x":178136.52000000048,"y":2540468.1000000015}},{"attributes":{"ID":586681,"DIS_CODE":0,"TOWNNAME":"歸仁區","LI":"南保里","LIN":"11鄰","STREET":"文化街","SECT":"三段","MAREA":" ","LANE":" ","ALLEY":" ","HOUSE_NO":"１８８號","E_COORD97":176562.54000000001,"N_COORD97":2541199.3300000001,"ADDRESS":"文化街三段１８８號","OBJECTID":586654},"geometry":{"x":176562.54000000097,"y":2541199.3300000019}},{"attributes":{"ID":586682,"DIS_CODE":0,"TOWNNAME":"歸仁區","LI":"許厝里","LIN":"11鄰","STREET":"信義南路","SECT":" ","MAREA":" ","LANE":" ","ALLEY":" ","HOUSE_NO":"７７號","E_COORD97":178123.42000000001,"N_COORD97":2540516.1000000001,"ADDRESS":"信義南路７７號","OBJECTID":586655},"geometry":{"x":178123.41999999993,"y":2540516.0999999996}},{"attributes":{"ID":586683,"DIS_CODE":0,"TOWNNAME":"歸仁區","LI":"許厝里","LIN":"11鄰","STREET":"信義南路","SECT":" ","MAREA":" ","LANE":" ","ALLEY":" ","HOUSE_NO":"７８號","E_COORD97":178019.03,"N_COORD97":2540469.25,"ADDRESS":"信義南路７８號","OBJECTID":586656},"geometry":{"x":178019.03000000119,"y":2540469.2499999981}},{"attributes":{"ID":586684,"DIS_CODE":0,"TOWNNAME":"歸仁區","LI":"六甲里","LIN":"11鄰","STREET":"凱旋路","SECT":"三段","MAREA":" ","LANE":" ","ALLEY":" ","HOUSE_NO":"２００號","E_COORD97":176097.47,"N_COORD97":2538998.27,"ADDRESS":"凱旋路三段２００號","OBJECTID":586657},"geometry":{"x":176097.46999999881,"y":2538998.2700000014}},{"attributes":{"ID":586685,"DIS_CODE":0,"TOWNNAME":"歸仁區","LI":"許厝里","LIN":"11鄰","STREET":"信義南路","SECT":" ","MAREA":" ","LANE":" ","ALLEY":" ","HOUSE_NO":"８５號","E_COORD97":178130.51999999999,"N_COORD97":2540498.1000000001,"ADDRESS":"信義南路８５號","OBJECTID":586658},"geometry":{"x":178130.51999999955,"y":2540498.1000000015}},{"attributes":{"ID":586686,"DIS_CODE":0,"TOWNNAME":"歸仁區","LI":"西埔里","LIN":"11鄰","STREET":"西埔一街","SECT":" ","MAREA":" ","LANE":" ","ALLEY":" ","HOUSE_NO":"２１０號","E_COORD97":177048.51000000001,"N_COORD97":2544642.25,"ADDRESS":"西埔一街２１０號","OBJECTID":586659},"geometry":{"x":177048.51000000071,"y":2544642.25}},{"attributes":{"ID":586687,"DIS_CODE":0,"TOWNNAME":"歸仁區","LI":"文化里","LIN":"11鄰","STREET":"文化北街","SECT":" ","MAREA":" ","LANE":" ","ALLEY":" ","HOUSE_NO":"７４號","E_COORD97":177288.32000000001,"N_COORD97":2541408.2599999998,"ADDRESS":"文化北街７４號","OBJECTID":586660},"geometry":{"x":177288.32000000123,"y":2541408.2600000035}},{"attributes":{"ID":586688,"DIS_CODE":0,"TOWNNAME":"歸仁區","LI":"南興里","LIN":"11鄰","STREET":"民生二街","SECT":" ","MAREA":" ","LANE":" ","ALLEY":" ","HOUSE_NO":"１５４號","E_COORD97":176011.23999999999,"N_COORD97":2541347.29,"ADDRESS":"民生二街１５４號","OBJECTID":586661},"geometry":{"x":176011.24000000022,"y":2541347.290000001}},{"attributes":{"ID":586689,"DIS_CODE":0,"TOWNNAME":"歸仁區","LI":"南保里","LIN":"11鄰","STREET":"文化街","SECT":"三段","MAREA":" ","LANE":" ","ALLEY":" ","HOUSE_NO":"１８４號","E_COORD97":176586.23999999999,"N_COORD97":2541233.3300000001,"ADDRESS":"文化街三段１８４號","OBJECTID":586662},"geometry":{"x":176586.24000000209,"y":2541233.3300000019}},{"attributes":{"ID":586690,"DIS_CODE":0,"TOWNNAME":"歸仁區","LI":"大廟里","LIN":"11鄰","STREET":"大廟六街","SECT":" ","MAREA":" ","LANE":" ","ALLEY":" ","HOUSE_NO":"３２號","E_COORD97":176035.17999999999,"N_COORD97":2544222.79,"ADDRESS":"大廟六街３２號","OBJECTID":586663},"geometry":{"x":176035.18000000156,"y":2544222.790000001}},{"attributes":{"ID":586691,"DIS_CODE":0,"TOWNNAME":"歸仁區","LI":"歸仁里","LIN":"11鄰","STREET":"信義北路","SECT":" ","MAREA":" ","LANE":" ","ALLEY":" ","HOUSE_NO":"６７號","E_COORD97":177981.91,"N_COORD97":2540943.48,"ADDRESS":"信義北路６７號","OBJECTID":586664},"geometry":{"x":177981.91000000108,"y":2540943.4800000023}},{"attributes":{"ID":586692,"DIS_CODE":0,"TOWNNAME":"歸仁區","LI":"歸南里","LIN":"11鄰","STREET":"民生南街","SECT":"二段","MAREA":" ","LANE":" ","ALLEY":" ","HOUSE_NO":"２１１號","E_COORD97":176095.94,"N_COORD97":2540115.29,"ADDRESS":"民生南街二段２１１號","OBJECTID":586665},"geometry":{"x":176095.94000000041,"y":2540115.2899999991}},{"attributes":{"ID":586693,"DIS_CODE":0,"TOWNNAME":"歸仁區","LI":"崙頂里","LIN":"11鄰","STREET":"成功路","SECT":"二段","MAREA":" ","LANE":" ","ALLEY":" ","HOUSE_NO":"１１１號","E_COORD97":178051.59,"N_COORD97":2539754.3799999999,"ADDRESS":"成功路二段１１１號","OBJECTID":586666},"geometry":{"x":178051.59000000078,"y":2539754.379999999}},{"attributes":{"ID":586694,"DIS_CODE":0,"TOWNNAME":"歸仁區","LI":"歸仁里","LIN":"11鄰","STREET":"信義北路","SECT":" ","MAREA":" ","LANE":" ","ALLEY":" ","HOUSE_NO":"７５號","E_COORD97":177983.10999999999,"N_COORD97":2540974.48,"ADDRESS":"信義北路７５號","OBJECTID":586667},"geometry":{"x":177983.11000000127,"y":2540974.4800000023}},{"attributes":{"ID":586695,"DIS_CODE":0,"TOWNNAME":"歸仁區","LI":"六甲里","LIN":"11鄰","STREET":"凱旋路","SECT":"三段","MAREA":" ","LANE":" ","ALLEY":" ","HOUSE_NO":"１３１號","E_COORD97":176226.57000000001,"N_COORD97":2538969.2799999998,"ADDRESS":"凱旋路三段１３１號","OBJECTID":586668},"geometry":{"x":176226.57000000123,"y":2538969.2799999993}},{"attributes":{"ID":586696,"DIS_CODE":0,"TOWNNAME":"歸仁區","LI":"南保里","LIN":"11鄰","STREET":"文化街","SECT":"三段","MAREA":" ","LANE":" ","ALLEY":" ","HOUSE_NO":"１９０號","E_COORD97":176554.23999999999,"N_COORD97":2541196.3300000001,"ADDRESS":"文化街三段１９０號","OBJECTID":586669},"geometry":{"x":176554.24000000115,"y":2541196.3300000001}},{"attributes":{"ID":586697,"DIS_CODE":0,"TOWNNAME":"歸仁區","LI":"後市里","LIN":"11鄰","STREET":"民權南路","SECT":" ","MAREA":" ","LANE":" ","ALLEY":" ","HOUSE_NO":"１７號","E_COORD97":176993.87,"N_COORD97":2540752.29,"ADDRESS":"民權南路１７號","OBJECTID":586670},"geometry":{"x":176993.87000000104,"y":2540752.2899999991}},{"attributes":{"ID":586698,"DIS_CODE":0,"TOWNNAME":"歸仁區","LI":"歸南里","LIN":"11鄰","STREET":"民生南街","SECT":"二段","MAREA":" ","LANE":" ","ALLEY":" ","HOUSE_NO":"２２５號","E_COORD97":176121.44,"N_COORD97":2540087.29,"ADDRESS":"民生南街二段２２５號","OBJECTID":586671},"geometry":{"x":176121.44000000041,"y":2540087.2899999991}},{"attributes":{"ID":586699,"DIS_CODE":0,"TOWNNAME":"歸仁區","LI":"許厝里","LIN":"11鄰","STREET":"信義南路","SECT":" ","MAREA":" ","LANE":" ","ALLEY":" ","HOUSE_NO":"１２３號","E_COORD97":178139.60999999999,"N_COORD97":2540409.1000000001,"ADDRESS":"信義南路１２３號","OBJECTID":586672},"geometry":{"x":178139.61000000034,"y":2540409.1000000034}},{"attributes":{"ID":586700,"DIS_CODE":0,"TOWNNAME":"歸仁區","LI":"大廟里","LIN":"11鄰","STREET":"大廟六街","SECT":" ","MAREA":" ","LANE":" ","ALLEY":" ","HOUSE_NO":"３０之７號","E_COORD97":176015.17999999999,"N_COORD97":2544207.1299999999,"ADDRESS":"大廟六街３０之７號","OBJECTID":586673},"geometry":{"x":176015.18000000063,"y":2544207.129999999}},{"attributes":{"ID":586701,"DIS_CODE":0,"TOWNNAME":"新營區","LI":"三仙里","LIN":"11鄰","STREET":"中華路","SECT":" ","MAREA":" ","LANE":" ","ALLEY":" ","HOUSE_NO":"４０之３號","E_COORD97":179670.32000000001,"N_COORD97":2578212.21,"ADDRESS":"中華路４０之３號","OBJECTID":586674},"geometry":{"x":179670.3200000003,"y":2578212.209999999}},{"attributes":{"ID":586702,"DIS_CODE":0,"TOWNNAME":"新營區","LI":"忠政里","LIN":"11鄰","STREET":"中正路","SECT":" ","MAREA":" ","LANE":" ","ALLEY":" ","HOUSE_NO":"５５之６０號","E_COORD97":179947.64000000001,"N_COORD97":2579498.8599999999,"ADDRESS":"中正路５５之６０號","OBJECTID":586675},"geometry":{"x":179947.63999999966,"y":2579498.8600000013}},{"attributes":{"ID":586703,"DIS_CODE":0,"TOWNNAME":"新營區","LI":"三仙里","LIN":"11鄰","STREET":"中華路","SECT":" ","MAREA":" ","LANE":" ","ALLEY":" ","HOUSE_NO":"４４之１號","E_COORD97":179669.38,"N_COORD97":2578229.9300000002,"ADDRESS":"中華路４４之１號","OBJECTID":586676},"geometry":{"x":179669.37999999989,"y":2578229.9300000034}},{"attributes":{"ID":586704,"DIS_CODE":0,"TOWNNAME":"新營區","LI":"新南里","LIN":"11鄰","STREET":"新北七街","SECT":" ","MAREA":" ","LANE":" ","ALLEY":" ","HOUSE_NO":"４７號","E_COORD97":178498.12,"N_COORD97":2579156.8799999999,"ADDRESS":"新北七街４７號","OBJECTID":586677},"geometry":{"x":178498.12000000104,"y":2579156.879999999}},{"attributes":{"ID":586705,"DIS_CODE":0,"TOWNNAME":"新營區","LI":"三仙里","LIN":"11鄰","STREET":"中華路","SECT":" ","MAREA":" ","LANE":" ","ALLEY":" ","HOUSE_NO":"４４號之５","E_COORD97":179681.48000000001,"N_COORD97":2578236.5099999998,"ADDRESS":"中華路４４號之５","OBJECTID":586678},"geometry":{"x":179681.48000000045,"y":2578236.5100000035}},{"attributes":{"ID":586706,"DIS_CODE":0,"TOWNNAME":"新營區","LI":"忠政里","LIN":"11鄰","STREET":"中正路","SECT":" ","MAREA":" ","LANE":" ","ALLEY":" ","HOUSE_NO":"５５之６２號","E_COORD97":179942.53,"N_COORD97":2579498.8900000001,"ADDRESS":"中正路５５之６２號","OBJECTID":586679},"geometry":{"x":179942.53000000119,"y":2579498.8899999987}},{"attributes":{"ID":586707,"DIS_CODE":0,"TOWNNAME":"新營區","LI":"新北里","LIN":"11鄰","STREET":"長榮路","SECT":"二段","MAREA":" ","LANE":" ","ALLEY":" ","HOUSE_NO":"３２５號","E_COORD97":179142.51000000001,"N_COORD97":2579752.9100000001,"ADDRESS":"長榮路二段３２５號","OBJECTID":586680},"geometry":{"x":179142.51000000071,"y":2579752.9100000039}},{"attributes":{"ID":586708,"DIS_CODE":0,"TOWNNAME":"新營區","LI":"新北里","LIN":"11鄰","STREET":"長榮路","SECT":"二段","MAREA":" ","LANE":" ","ALLEY":" ","HOUSE_NO":"３２３號","E_COORD97":179146.62,"N_COORD97":2579755.1099999999,"ADDRESS":"長榮路二段３２３號","OBJECTID":586681},"geometry":{"x":179146.62000000197,"y":2579755.1100000013}},{"attributes":{"ID":586709,"DIS_CODE":0,"TOWNNAME":"新營區","LI":"新北里","LIN":"11鄰","STREET":"長榮路","SECT":"二段","MAREA":" ","LANE":" ","ALLEY":" ","HOUSE_NO":"３１９號","E_COORD97":179154.81,"N_COORD97":2579757.29,"ADDRESS":"長榮路二段３１９號","OBJECTID":586682},"geometry":{"x":179154.80999999866,"y":2579757.290000001}},{"attributes":{"ID":586710,"DIS_CODE":0,"TOWNNAME":"新營區","LI":"新北里","LIN":"11鄰","STREET":"長榮路","SECT":"二段","MAREA":" ","LANE":" ","ALLEY":" ","HOUSE_NO":"３１３號","E_COORD97":179166.07999999999,"N_COORD97":2579760.5600000001,"ADDRESS":"長榮路二段３１３號","OBJECTID":586683},"geometry":{"x":179166.08000000101,"y":2579760.5600000024}},{"attributes":{"ID":586711,"DIS_CODE":0,"TOWNNAME":"新營區","LI":"新南里","LIN":"11鄰","STREET":"新北七街","SECT":" ","MAREA":" ","LANE":" ","ALLEY":" ","HOUSE_NO":"３７號","E_COORD97":178513.54000000001,"N_COORD97":2579171.2000000002,"ADDRESS":"新北七街３７號","OBJECTID":586684},"geometry":{"x":178513.54000000097,"y":2579171.2000000011}},{"attributes":{"ID":586712,"DIS_CODE":0,"TOWNNAME":"新營區","LI":"南紙里","LIN":"11鄰","STREET":"太子路","SECT":" ","MAREA":" ","LANE":" ","ALLEY":" ","HOUSE_NO":"２１２之５號","E_COORD97":177856.23000000001,"N_COORD97":2577849.9300000002,"ADDRESS":"太子路２１２之５號","OBJECTID":586685},"geometry":{"x":177856.23000000231,"y":2577849.9299999997}},{"attributes":{"ID":586713,"DIS_CODE":0,"TOWNNAME":"新營區","LI":"三仙里","LIN":"11鄰","STREET":"中華路","SECT":" ","MAREA":" ","LANE":" ","ALLEY":" ","HOUSE_NO":"３８號之１","E_COORD97":179685.32000000001,"N_COORD97":2578214.3500000001,"ADDRESS":"中華路３８號之１","OBJECTID":586686},"geometry":{"x":179685.32000000123,"y":2578214.3500000015}},{"attributes":{"ID":586714,"DIS_CODE":0,"TOWNNAME":"新營區","LI":"新北里","LIN":"11鄰","STREET":"長榮路","SECT":"二段","MAREA":" ","LANE":" ","ALLEY":" ","HOUSE_NO":"２９５號","E_COORD97":179199.87,"N_COORD97":2579773.6899999999,"ADDRESS":"長榮路二段２９５號","OBJECTID":586687},"geometry":{"x":179199.87000000104,"y":2579773.6899999976}},{"attributes":{"ID":586715,"DIS_CODE":0,"TOWNNAME":"新營區","LI":"南紙里","LIN":"11鄰","STREET":"太子路","SECT":" ","MAREA":" ","LANE":" ","ALLEY":" ","HOUSE_NO":"２０４號","E_COORD97":177887.57000000001,"N_COORD97":2577867.4399999999,"ADDRESS":"太子路２０４號","OBJECTID":586688},"geometry":{"x":177887.57000000216,"y":2577867.4400000013}},{"attributes":{"ID":586716,"DIS_CODE":0,"TOWNNAME":"新營區","LI":"三仙里","LIN":"11鄰","STREET":"中華路","SECT":" ","MAREA":" ","LANE":" ","ALLEY":" ","HOUSE_NO":"４２號之２","E_COORD97":179658.82999999999,"N_COORD97":2578210.0499999998,"ADDRESS":"中華路４２號之２","OBJECTID":586689},"geometry":{"x":179658.83000000194,"y":2578210.0500000045}},{"attributes":{"ID":586717,"DIS_CODE":0,"TOWNNAME":"新營區","LI":"新北里","LIN":"11鄰","STREET":"長榮路","SECT":"二段","MAREA":" ","LANE":" ","ALLEY":" ","HOUSE_NO":"３１７號","E_COORD97":179158.89999999999,"N_COORD97":2579758.3799999999,"ADDRESS":"長榮路二段３１７號","OBJECTID":586690},"geometry":{"x":179158.9000000013,"y":2579758.3799999971}},{"attributes":{"ID":586718,"DIS_CODE":0,"TOWNNAME":"新營區","LI":"三仙里","LIN":"11鄰","STREET":"中華路","SECT":" ","MAREA":" ","LANE":" ","ALLEY":" ","HOUSE_NO":"４２號之１","E_COORD97":179662.79000000001,"N_COORD97":2578211.1299999999,"ADDRESS":"中華路４２號之１","OBJECTID":586691},"geometry":{"x":179662.79000000097,"y":2578211.1300000008}},{"attributes":{"ID":586719,"DIS_CODE":0,"TOWNNAME":"新營區","LI":"南紙里","LIN":"11鄰","STREET":"太子路","SECT":" ","MAREA":" ","LANE":" ","ALLEY":" ","HOUSE_NO":"２１２之２號","E_COORD97":177866.48000000001,"N_COORD97":2577854.3100000001,"ADDRESS":"太子路２１２之２號","OBJECTID":586692},"geometry":{"x":177866.48000000138,"y":2577854.3100000005}},{"attributes":{"ID":586720,"DIS_CODE":0,"TOWNNAME":"新營區","LI":"南紙里","LIN":"11鄰","STREET":"太子路","SECT":" ","MAREA":" ","LANE":" ","ALLEY":" ","HOUSE_NO":"２２２號","E_COORD97":177834.23000000001,"N_COORD97":2577836.6899999999,"ADDRESS":"太子路２２２號","OBJECTID":586693},"geometry":{"x":177834.23000000231,"y":2577836.6899999995}},{"attributes":{"ID":586721,"DIS_CODE":0,"TOWNNAME":"新營區","LI":"三仙里","LIN":"11鄰","STREET":"中華路","SECT":" ","MAREA":" ","LANE":" ","ALLEY":" ","HOUSE_NO":"４０號","E_COORD97":179679.07999999999,"N_COORD97":2578214.3199999998,"ADDRESS":"中華路４０號","OBJECTID":586694},"geometry":{"x":179679.08000000194,"y":2578214.320000004}},{"attributes":{"ID":586722,"DIS_CODE":0,"TOWNNAME":"新營區","LI":"三仙里","LIN":"11鄰","STREET":"中華路","SECT":" ","MAREA":" ","LANE":" ","ALLEY":" ","HOUSE_NO":"３６號之２","E_COORD97":179694.67000000001,"N_COORD97":2578214.2999999998,"ADDRESS":"中華路３６號之２","OBJECTID":586695},"geometry":{"x":179694.66999999993,"y":2578214.3000000007}},{"attributes":{"ID":586723,"DIS_CODE":0,"TOWNNAME":"新營區","LI":"南紙里","LIN":"11鄰","STREET":"太子路","SECT":" ","MAREA":" ","LANE":" ","ALLEY":" ","HOUSE_NO":"２１６號","E_COORD97":177845.51999999999,"N_COORD97":2577844.3900000001,"ADDRESS":"太子路２１６號","OBJECTID":586696},"geometry":{"x":177845.52000000048,"y":2577844.3899999987}},{"attributes":{"ID":586724,"DIS_CODE":0,"TOWNNAME":"新營區","LI":"三仙里","LIN":"11鄰","STREET":"中華路","SECT":" ","MAREA":" ","LANE":" ","ALLEY":" ","HOUSE_NO":"４４號之２","E_COORD97":179659.94,"N_COORD97":2578227.7599999998,"ADDRESS":"中華路４４號之２","OBJECTID":586697},"geometry":{"x":179659.93999999948,"y":2578227.7600000035}},{"attributes":{"ID":586725,"DIS_CODE":0,"TOWNNAME":"新營區","LI":"新北里","LIN":"11鄰","STREET":"長榮路","SECT":"二段","MAREA":" ","LANE":" ","ALLEY":" ","HOUSE_NO":"２９９號","E_COORD97":179191.67999999999,"N_COORD97":2579771.5099999998,"ADDRESS":"長榮路二段２９９號","OBJECTID":586698},"geometry":{"x":179191.68000000063,"y":2579771.5099999998}},{"attributes":{"ID":586726,"DIS_CODE":0,"TOWNNAME":"新營區","LI":"南紙里","LIN":"11鄰","STREET":"太子路","SECT":" ","MAREA":" ","LANE":" ","ALLEY":" ","HOUSE_NO":"２１２號","E_COORD97":177872.17999999999,"N_COORD97":2577858.6499999999,"ADDRESS":"太子路２１２號","OBJECTID":586699},"geometry":{"x":177872.1799999997,"y":2577858.6500000004}},{"attributes":{"ID":586727,"DIS_CODE":0,"TOWNNAME":"新營區","LI":"新南里","LIN":"11鄰","STREET":"新北七街","SECT":" ","MAREA":" ","LANE":" ","ALLEY":" ","HOUSE_NO":"２５號","E_COORD97":178530.98000000001,"N_COORD97":2579186.6200000001,"ADDRESS":"新北七街２５號","OBJECTID":586700},"geometry":{"x":178530.98000000138,"y":2579186.6200000029}},{"attributes":{"ID":586728,"DIS_CODE":0,"TOWNNAME":"新營區","LI":"南紙里","LIN":"11鄰","STREET":"太子路","SECT":" ","MAREA":" ","LANE":" ","ALLEY":" ","HOUSE_NO":"２１０號","E_COORD97":177876.29000000001,"N_COORD97":2577861.96,"ADDRESS":"太子路２１０號","OBJECTID":586701},"geometry":{"x":177876.29000000097,"y":2577861.9600000028}},{"attributes":{"ID":586729,"DIS_CODE":0,"TOWNNAME":"新營區","LI":"南紙里","LIN":"11鄰","STREET":"太子路","SECT":" ","MAREA":" ","LANE":" ","ALLEY":" ","HOUSE_NO":"２０８號","E_COORD97":177879.37,"N_COORD97":2577863.0499999998,"ADDRESS":"太子路２０８號","OBJECTID":586702},"geometry":{"x":177879.37000000104,"y":2577863.0500000007}},{"attributes":{"ID":586730,"DIS_CODE":0,"TOWNNAME":"新營區","LI":"南紙里","LIN":"11鄰","STREET":"太子路","SECT":" ","MAREA":" ","LANE":" ","ALLEY":" ","HOUSE_NO":"２３４號","E_COORD97":177811.67000000001,"N_COORD97":2577825.73,"ADDRESS":"太子路２３４號","OBJECTID":586703},"geometry":{"x":177811.66999999993,"y":2577825.7300000023}},{"attributes":{"ID":586731,"DIS_CODE":0,"TOWNNAME":"新營區","LI":"新南里","LIN":"11鄰","STREET":"新北七街","SECT":" ","MAREA":" ","LANE":" ","ALLEY":" ","HOUSE_NO":"４９號","E_COORD97":178495.04000000001,"N_COORD97":2579154.6800000002,"ADDRESS":"新北七街４９號","OBJECTID":586704},"geometry":{"x":178495.04000000097,"y":2579154.6800000016}},{"attributes":{"ID":586732,"DIS_CODE":0,"TOWNNAME":"新營區","LI":"忠政里","LIN":"11鄰","STREET":"中正路","SECT":" ","MAREA":" ","LANE":" ","ALLEY":" ","HOUSE_NO":"５５號之２１","E_COORD97":179973.69,"N_COORD97":2579461.0899999999,"ADDRESS":"中正路５５號之２１","OBJECTID":586705},"geometry":{"x":179973.69000000227,"y":2579461.0900000017}},{"attributes":{"ID":586733,"DIS_CODE":0,"TOWNNAME":"新營區","LI":"忠政里","LIN":"11鄰","STREET":"中正路","SECT":" ","MAREA":" ","LANE":" ","ALLEY":" ","HOUSE_NO":"５５號之２５","E_COORD97":179970.67999999999,"N_COORD97":2579441.1600000001,"ADDRESS":"中正路５５號之２５","OBJECTID":586706},"geometry":{"x":179970.6799999997,"y":2579441.1600000001}},{"attributes":{"ID":586734,"DIS_CODE":0,"TOWNNAME":"新營區","LI":"忠政里","LIN":"11鄰","STREET":"中正路","SECT":" ","MAREA":" ","LANE":" ","ALLEY":" ","HOUSE_NO":"５５之５２號","E_COORD97":179960.92999999999,"N_COORD97":2579497.6800000002,"ADDRESS":"中正路５５之５２號","OBJECTID":586707},"geometry":{"x":179960.9299999997,"y":2579497.6800000016}},{"attributes":{"ID":586735,"DIS_CODE":0,"TOWNNAME":"新營區","LI":"忠政里","LIN":"11鄰","STREET":"中正路","SECT":" ","MAREA":" ","LANE":" ","ALLEY":" ","HOUSE_NO":"５５號之１８","E_COORD97":179951.39000000001,"N_COORD97":2579473.3700000001,"ADDRESS":"中正路５５號之１８","OBJECTID":586708},"geometry":{"x":179951.3900000006,"y":2579473.3700000029}},{"attributes":{"ID":586736,"DIS_CODE":0,"TOWNNAME":"新營區","LI":"忠政里","LIN":"11鄰","STREET":"中正路","SECT":" ","MAREA":" ","LANE":" ","ALLEY":" ","HOUSE_NO":"５５號之１３","E_COORD97":179992.14000000001,"N_COORD97":2579451.0299999998,"ADDRESS":"中正路５５號之１３","OBJECTID":586709},"geometry":{"x":179992.1400000006,"y":2579451.0300000012}},{"attributes":{"ID":586737,"DIS_CODE":0,"TOWNNAME":"新營區","LI":"忠政里","LIN":"11鄰","STREET":"中正路","SECT":" ","MAREA":" ","LANE":" ","ALLEY":" ","HOUSE_NO":"５５號之２９","E_COORD97":179949.12,"N_COORD97":2579437.9399999999,"ADDRESS":"中正路５５號之２９","OBJECTID":586710},"geometry":{"x":179949.12000000104,"y":2579437.9400000013}},{"attributes":{"ID":586738,"DIS_CODE":0,"TOWNNAME":"新營區","LI":"民權里","LIN":"11鄰","STREET":"中華路","SECT":" ","MAREA":" ","LANE":" ","ALLEY":" ","HOUSE_NO":"６之１號","E_COORD97":179919.75,"N_COORD97":2578242.02,"ADDRESS":"中華路６之１號","OBJECTID":586711},"geometry":{"x":179919.75,"y":2578242.0199999996}},{"attributes":{"ID":586739,"DIS_CODE":0,"TOWNNAME":"新營區","LI":"忠政里","LIN":"11鄰","STREET":"中正路","SECT":" ","MAREA":" ","LANE":" ","ALLEY":" ","HOUSE_NO":"５５號之２７","E_COORD97":179970.57999999999,"N_COORD97":2579435.6200000001,"ADDRESS":"中正路５５號之２７","OBJECTID":586712},"geometry":{"x":179970.57999999914,"y":2579435.620000001}},{"attributes":{"ID":586740,"DIS_CODE":0,"TOWNNAME":"新營區","LI":"忠政里","LIN":"11鄰","STREET":"中正路","SECT":" ","MAREA":" ","LANE":" ","ALLEY":" ","HOUSE_NO":"５５號之３７","E_COORD97":179953.32000000001,"N_COORD97":2579462.29,"ADDRESS":"中正路５５號之３７","OBJECTID":586713},"geometry":{"x":179953.3200000003,"y":2579462.290000001}},{"attributes":{"ID":586741,"DIS_CODE":0,"TOWNNAME":"新營區","LI":"忠政里","LIN":"11鄰","STREET":"中正路","SECT":" ","MAREA":" ","LANE":" ","ALLEY":" ","HOUSE_NO":"５５號之１７","E_COORD97":179981.95000000001,"N_COORD97":2579462.1499999999,"ADDRESS":"中正路５５號之１７","OBJECTID":586714},"geometry":{"x":179981.95000000205,"y":2579462.1500000004}},{"attributes":{"ID":586742,"DIS_CODE":0,"TOWNNAME":"新營區","LI":"王公里","LIN":"11鄰","STREET":"義和街","SECT":" ","MAREA":" ","LANE":" ","ALLEY":" ","HOUSE_NO":"２８之６號","E_COORD97":180387.44,"N_COORD97":2579101.4199999999,"ADDRESS":"義和街２８之６號","OBJECTID":586715},"geometry":{"x":180387.44000000134,"y":2579101.4199999981}},{"attributes":{"ID":586743,"DIS_CODE":0,"TOWNNAME":"新營區","LI":"忠政里","LIN":"11鄰","STREET":"中正路","SECT":" ","MAREA":" ","LANE":" ","ALLEY":" ","HOUSE_NO":"５５之５６號","E_COORD97":179956.84,"N_COORD97":2579497.7000000002,"ADDRESS":"中正路５５之５６號","OBJECTID":586716},"geometry":{"x":179956.84000000171,"y":2579497.6999999993}},{"attributes":{"ID":586744,"DIS_CODE":0,"TOWNNAME":"新營區","LI":"忠政里","LIN":"11鄰","STREET":"中正路","SECT":" ","MAREA":" ","LANE":" ","ALLEY":" ","HOUSE_NO":"５５之４８號","E_COORD97":179971.16,"N_COORD97":2579497.6299999999,"ADDRESS":"中正路５５之４８號","OBJECTID":586717},"geometry":{"x":179971.16000000015,"y":2579497.629999999}},{"attributes":{"ID":586745,"DIS_CODE":0,"TOWNNAME":"新營區","LI":"王公里","LIN":"11鄰","STREET":"義和街","SECT":" ","MAREA":" ","LANE":" ","ALLEY":" ","HOUSE_NO":"３０號","E_COORD97":180376.64999999999,"N_COORD97":2579074.8300000001,"ADDRESS":"義和街３０號","OBJECTID":586718},"geometry":{"x":180376.65000000037,"y":2579074.8300000001}},{"attributes":{"ID":586746,"DIS_CODE":0,"TOWNNAME":"新營區","LI":"民權里","LIN":"11鄰","STREET":"中華路","SECT":" ","MAREA":" ","LANE":" ","ALLEY":" ","HOUSE_NO":"６號","E_COORD97":179930.56,"N_COORD97":2578243.02,"ADDRESS":"中華路６號","OBJECTID":586719},"geometry":{"x":179930.55999999959,"y":2578243.0200000014}},{"attributes":{"ID":586747,"DIS_CODE":0,"TOWNNAME":"新營區","LI":"王公里","LIN":"11鄰","STREET":"義和街","SECT":" ","MAREA":" ","LANE":" ","ALLEY":" ","HOUSE_NO":"３２號","E_COORD97":180364.29999999999,"N_COORD97":2579057.1699999999,"ADDRESS":"義和街３２號","OBJECTID":586720},"geometry":{"x":180364.30000000075,"y":2579057.1700000018}},{"attributes":{"ID":586748,"DIS_CODE":0,"TOWNNAME":"歸仁區","LI":"許厝里","LIN":"11鄰","STREET":"公園路","SECT":" ","MAREA":" ","LANE":" ","ALLEY":" ","HOUSE_NO":"５３號","E_COORD97":178133.57000000001,"N_COORD97":2540556.1000000001,"ADDRESS":"公園路５３號","OBJECTID":586721},"geometry":{"x":178133.57000000123,"y":2540556.1000000015}},{"attributes":{"ID":586749,"DIS_CODE":0,"TOWNNAME":"歸仁區","LI":"西埔里","LIN":"11鄰","STREET":"西埔一街","SECT":" ","MAREA":" ","LANE":" ","ALLEY":" ","HOUSE_NO":"２０６號","E_COORD97":177056.70999999999,"N_COORD97":2544640.25,"ADDRESS":"西埔一街２０６號","OBJECTID":586722},"geometry":{"x":177056.70999999996,"y":2544640.2500000019}},{"attributes":{"ID":586750,"DIS_CODE":0,"TOWNNAME":"歸仁區","LI":"八甲里","LIN":"11鄰","STREET":"大明二街","SECT":" ","MAREA":" ","LANE":" ","ALLEY":" ","HOUSE_NO":"６３號","E_COORD97":177878.62,"N_COORD97":2541951.6099999999,"ADDRESS":"大明二街６３號","OBJECTID":586723},"geometry":{"x":177878.62000000197,"y":2541951.6100000031}},{"attributes":{"ID":586751,"DIS_CODE":0,"TOWNNAME":"歸仁區","LI":"六甲里","LIN":"11鄰","STREET":"凱旋路","SECT":"二段","MAREA":" ","LANE":" ","ALLEY":" ","HOUSE_NO":"２７９號","E_COORD97":176856.57000000001,"N_COORD97":2539245.2799999998,"ADDRESS":"凱旋路二段２７９號","OBJECTID":586724},"geometry":{"x":176856.5700000003,"y":2539245.2800000012}},{"attributes":{"ID":586752,"DIS_CODE":0,"TOWNNAME":"歸仁區","LI":"八甲里","LIN":"11鄰","STREET":"大明二街","SECT":" ","MAREA":" ","LANE":" ","ALLEY":" ","HOUSE_NO":"７８號","E_COORD97":177844.82000000001,"N_COORD97":2541973.6099999999,"ADDRESS":"大明二街７８號","OBJECTID":586725},"geometry":{"x":177844.8200000003,"y":2541973.6099999994}},{"attributes":{"ID":586753,"DIS_CODE":0,"TOWNNAME":"歸仁區","LI":"武東里","LIN":"11鄰","STREET":"大武路","SECT":"三段","MAREA":" ","LANE":" ","ALLEY":" ","HOUSE_NO":"４２號","E_COORD97":175374.51999999999,"N_COORD97":2535754.2799999998,"ADDRESS":"大武路三段４２號","OBJECTID":586726},"geometry":{"x":175374.51999999955,"y":2535754.2799999993}},{"attributes":{"ID":586754,"DIS_CODE":0,"TOWNNAME":"歸仁區","LI":"七甲里","LIN":"11鄰","STREET":"大德路","SECT":" ","MAREA":" ","LANE":" ","ALLEY":" ","HOUSE_NO":"１０００號","E_COORD97":176212.42000000001,"N_COORD97":2541585.27,"ADDRESS":"大德路１０００號","OBJECTID":586727},"geometry":{"x":176212.42000000086,"y":2541585.2700000014}},{"attributes":{"ID":586755,"DIS_CODE":0,"TOWNNAME":"歸仁區","LI":"文化里","LIN":"11鄰","STREET":"文化北街","SECT":" ","MAREA":" ","LANE":" ","ALLEY":" ","HOUSE_NO":"４０號","E_COORD97":177352.92000000001,"N_COORD97":2541404.2599999998,"ADDRESS":"文化北街４０號","OBJECTID":586728},"geometry":{"x":177352.92000000086,"y":2541404.2599999998}},{"attributes":{"ID":586756,"DIS_CODE":0,"TOWNNAME":"歸仁區","LI":"南保里","LIN":"11鄰","STREET":"文化街","SECT":"三段","MAREA":" ","LANE":" ","ALLEY":" ","HOUSE_NO":"１４８號","E_COORD97":176651.73999999999,"N_COORD97":2541211.3300000001,"ADDRESS":"文化街三段１４８號","OBJECTID":586729},"geometry":{"x":176651.74000000022,"y":2541211.3300000038}},{"attributes":{"ID":586757,"DIS_CODE":0,"TOWNNAME":"歸仁區","LI":"六甲里","LIN":"11鄰","STREET":"六甲路","SECT":" ","MAREA":" ","LANE":" ","ALLEY":" ","HOUSE_NO":"２０３號","E_COORD97":176039.45999999999,"N_COORD97":2539192.25,"ADDRESS":"六甲路２０３號","OBJECTID":586730},"geometry":{"x":176039.45999999996,"y":2539192.2500000019}},{"attributes":{"ID":586758,"DIS_CODE":0,"TOWNNAME":"歸仁區","LI":"文化里","LIN":"11鄰","STREET":"文化北街","SECT":" ","MAREA":" ","LANE":" ","ALLEY":" ","HOUSE_NO":"７０號","E_COORD97":177297.51999999999,"N_COORD97":2541407.2599999998,"ADDRESS":"文化北街７０號","OBJECTID":586731},"geometry":{"x":177297.52000000048,"y":2541407.2599999998}},{"attributes":{"ID":586759,"DIS_CODE":0,"TOWNNAME":"歸仁區","LI":"八甲里","LIN":"11鄰","STREET":"大光一街","SECT":" ","MAREA":" ","LANE":" ","ALLEY":" ","HOUSE_NO":"８６號","E_COORD97":177848.62,"N_COORD97":2541898.6099999999,"ADDRESS":"大光一街８６號","OBJECTID":586732},"geometry":{"x":177848.62000000104,"y":2541898.6100000013}},{"attributes":{"ID":586760,"DIS_CODE":0,"TOWNNAME":"關廟區","LI":"山西里","LIN":"11鄰","STREET":"崇明街","SECT":" ","MAREA":" ","LANE":" ","ALLEY":" ","HOUSE_NO":"１２號","E_COORD97":181065.12,"N_COORD97":2540639.25,"ADDRESS":"崇明街１２號","OBJECTID":586733},"geometry":{"x":181065.12000000011,"y":2540639.2500000019}},{"attributes":{"ID":586761,"DIS_CODE":0,"TOWNNAME":"關廟區","LI":"北勢里","LIN":"11鄰","STREET":"成功路","SECT":" ","MAREA":" ","LANE":" ","ALLEY":" ","HOUSE_NO":"２５８號","E_COORD97":181483.97,"N_COORD97":2540486.27,"ADDRESS":"成功路２５８號","OBJECTID":586734},"geometry":{"x":181483.97000000067,"y":2540486.2700000014}},{"attributes":{"ID":586762,"DIS_CODE":0,"TOWNNAME":"關廟區","LI":"東勢里","LIN":"11鄰","STREET":"東榮街","SECT":" ","MAREA":" ","LANE":" ","ALLEY":" ","HOUSE_NO":"５７號","E_COORD97":182059.72,"N_COORD97":2539340.25,"ADDRESS":"東榮街５７號","OBJECTID":586735},"geometry":{"x":182059.72000000067,"y":2539340.2499999981}},{"attributes":{"ID":586763,"DIS_CODE":0,"TOWNNAME":"關廟區","LI":"北勢里","LIN":"11鄰","STREET":"成功路","SECT":" ","MAREA":" ","LANE":" ","ALLEY":" ","HOUSE_NO":"２４０號","E_COORD97":181526.97,"N_COORD97":2540499.27,"ADDRESS":"成功路２４０號","OBJECTID":586736},"geometry":{"x":181526.96999999974,"y":2540499.2700000033}},{"attributes":{"ID":586764,"DIS_CODE":0,"TOWNNAME":"關廟區","LI":"松腳里","LIN":"11鄰","STREET":"和平路","SECT":" ","MAREA":" ","LANE":" ","ALLEY":" ","HOUSE_NO":"１９０號","E_COORD97":181694.34,"N_COORD97":2539669.25,"ADDRESS":"和平路１９０號","OBJECTID":586737},"geometry":{"x":181694.34000000171,"y":2539669.2500000037}},{"attributes":{"ID":586765,"DIS_CODE":0,"TOWNNAME":"關廟區","LI":"北勢里","LIN":"11鄰","STREET":"成功路","SECT":" ","MAREA":" ","LANE":" ","ALLEY":" ","HOUSE_NO":"２３８號","E_COORD97":181528.17000000001,"N_COORD97":2540503.27,"ADDRESS":"成功路２３８號","OBJECTID":586738},"geometry":{"x":181528.17000000086,"y":2540503.2700000014}},{"attributes":{"ID":586766,"DIS_CODE":0,"TOWNNAME":"關廟區","LI":"北花里","LIN":"11鄰","STREET":"中正路","SECT":" ","MAREA":" ","LANE":" ","ALLEY":" ","HOUSE_NO":"６７８號","E_COORD97":181729.95999999999,"N_COORD97":2540356.25,"ADDRESS":"中正路６７８號","OBJECTID":586739},"geometry":{"x":181729.96000000089,"y":2540356.25}},{"attributes":{"ID":586767,"DIS_CODE":0,"TOWNNAME":"關廟區","LI":"北勢里","LIN":"11鄰","STREET":"成功路","SECT":" ","MAREA":" ","LANE":" ","ALLEY":" ","HOUSE_NO":"２３２號","E_COORD97":181530.87,"N_COORD97":2540512.27,"ADDRESS":"成功路２３２號","OBJECTID":586740},"geometry":{"x":181530.87000000011,"y":2540512.2699999996}},{"attributes":{"ID":586768,"DIS_CODE":0,"TOWNNAME":"關廟區","LI":"北勢里","LIN":"11鄰","STREET":"成功路","SECT":" ","MAREA":" ","LANE":" ","ALLEY":" ","HOUSE_NO":"２２０號","E_COORD97":181541.97,"N_COORD97":2540514.27,"ADDRESS":"成功路２２０號","OBJECTID":586741},"geometry":{"x":181541.96999999974,"y":2540514.2700000014}},{"attributes":{"ID":586769,"DIS_CODE":0,"TOWNNAME":"關廟區","LI":"山西里","LIN":"11鄰","STREET":"崇明街","SECT":" ","MAREA":" ","LANE":" ","ALLEY":" ","HOUSE_NO":"１８號","E_COORD97":181058.22,"N_COORD97":2540653.25,"ADDRESS":"崇明街１８號","OBJECTID":586742},"geometry":{"x":181058.22000000067,"y":2540653.2500000019}},{"attributes":{"ID":586770,"DIS_CODE":0,"TOWNNAME":"關廟區","LI":"北花里","LIN":"11鄰","STREET":"園中街","SECT":" ","MAREA":" ","LANE":" ","ALLEY":" ","HOUSE_NO":"１９號","E_COORD97":181738.35999999999,"N_COORD97":2540263.25,"ADDRESS":"園中街１９號","OBJECTID":586743},"geometry":{"x":181738.36000000034,"y":2540263.2500000019}},{"attributes":{"ID":586771,"DIS_CODE":0,"TOWNNAME":"關廟區","LI":"北花里","LIN":"11鄰","STREET":"中正路","SECT":" ","MAREA":" ","LANE":" ","ALLEY":" ","HOUSE_NO":"６７２號","E_COORD97":181739.16,"N_COORD97":2540365.25,"ADDRESS":"中正路６７２號","OBJECTID":586744},"geometry":{"x":181739.16000000015,"y":2540365.2500000019}},{"attributes":{"ID":586772,"DIS_CODE":0,"TOWNNAME":"關廟區","LI":"北花里","LIN":"11鄰","STREET":"中正路","SECT":" ","MAREA":" ","LANE":" ","ALLEY":" ","HOUSE_NO":"７６９號","E_COORD97":181743.35999999999,"N_COORD97":2540335.25,"ADDRESS":"中正路７６９號","OBJECTID":586745},"geometry":{"x":181743.36000000034,"y":2540335.2500000019}},{"attributes":{"ID":586773,"DIS_CODE":0,"TOWNNAME":"關廟區","LI":"南花里","LIN":"11鄰","STREET":"四維街","SECT":" ","MAREA":" ","LANE":" ","ALLEY":" ","HOUSE_NO":"１７３號","E_COORD97":181851.66,"N_COORD97":2540003.25,"ADDRESS":"四維街１７３號","OBJECTID":586746},"geometry":{"x":181851.66000000015,"y":2540003.2500000019}},{"attributes":{"ID":586774,"DIS_CODE":0,"TOWNNAME":"關廟區","LI":"香洋里","LIN":"11鄰","STREET":"南雄路","SECT":"二段","MAREA":" ","LANE":" ","ALLEY":" ","HOUSE_NO":"７８號","E_COORD97":181128.64000000001,"N_COORD97":2540176.2799999998,"ADDRESS":"南雄路二段７８號","OBJECTID":586747},"geometry":{"x":181128.63999999966,"y":2540176.2799999993}},{"attributes":{"ID":586775,"DIS_CODE":0,"TOWNNAME":"關廟區","LI":"香洋里","LIN":"11鄰","STREET":"中央路","SECT":" ","MAREA":" ","LANE":" ","ALLEY":" ","HOUSE_NO":"２４０號","E_COORD97":181128.85999999999,"N_COORD97":2540115.3199999998,"ADDRESS":"中央路２４０號","OBJECTID":586748},"geometry":{"x":181128.86000000127,"y":2540115.3200000003}},{"attributes":{"ID":586776,"DIS_CODE":0,"TOWNNAME":"關廟區","LI":"深坑里","LIN":"11鄰","STREET":"深坑二街","SECT":" ","MAREA":" ","LANE":" ","ALLEY":" ","HOUSE_NO":"６７號","E_COORD97":181692.47,"N_COORD97":2537449.2999999998,"ADDRESS":"深坑二街６７號","OBJECTID":586749},"geometry":{"x":181692.47000000067,"y":2537449.3000000045}},{"attributes":{"ID":586777,"DIS_CODE":0,"TOWNNAME":"關廟區","LI":"香洋里","LIN":"11鄰","STREET":"南雄路","SECT":"二段","MAREA":" ","LANE":" ","ALLEY":" ","HOUSE_NO":"８２號","E_COORD97":181130.54000000001,"N_COORD97":2540184.2799999998,"ADDRESS":"南雄路二段８２號","OBJECTID":586750},"geometry":{"x":181130.5400000019,"y":2540184.2800000012}},{"attributes":{"ID":586778,"DIS_CODE":0,"TOWNNAME":"關廟區","LI":"香洋里","LIN":"11鄰","STREET":"中央路","SECT":" ","MAREA":" ","LANE":" ","ALLEY":" ","HOUSE_NO":"２３０號","E_COORD97":181154.95999999999,"N_COORD97":2540107.3199999998,"ADDRESS":"中央路２３０號","OBJECTID":586751},"geometry":{"x":181154.96000000089,"y":2540107.3200000022}},{"attributes":{"ID":586779,"DIS_CODE":0,"TOWNNAME":"關廟區","LI":"南花里","LIN":"11鄰","STREET":"明德街","SECT":" ","MAREA":" ","LANE":" ","ALLEY":" ","HOUSE_NO":"２號","E_COORD97":181835.69,"N_COORD97":2540068.27,"ADDRESS":"明德街２號","OBJECTID":586752},"geometry":{"x":181835.69000000134,"y":2540068.2699999996}},{"attributes":{"ID":586780,"DIS_CODE":0,"TOWNNAME":"關廟區","LI":"五甲里","LIN":"11鄰","STREET":"五義街","SECT":" ","MAREA":" ","LANE":" ","ALLEY":" ","HOUSE_NO":"９８號","E_COORD97":180999.51999999999,"N_COORD97":2539009.27,"ADDRESS":"五義街９８號","OBJECTID":586753},"geometry":{"x":180999.52000000142,"y":2539009.2699999996}},{"attributes":{"ID":586781,"DIS_CODE":0,"TOWNNAME":"關廟區","LI":"北花里","LIN":"11鄰","STREET":"中正路","SECT":" ","MAREA":" ","LANE":" ","ALLEY":" ","HOUSE_NO":"７７１號","E_COORD97":181738.35999999999,"N_COORD97":2540333.25,"ADDRESS":"中正路７７１號","OBJECTID":586754},"geometry":{"x":181738.36000000034,"y":2540333.25}},{"attributes":{"ID":586782,"DIS_CODE":0,"TOWNNAME":"關廟區","LI":"香洋里","LIN":"11鄰","STREET":"南雄路","SECT":"二段","MAREA":" ","LANE":" ","ALLEY":" ","HOUSE_NO":"８０號","E_COORD97":181129.34,"N_COORD97":2540181.2799999998,"ADDRESS":"南雄路二段８０號","OBJECTID":586755},"geometry":{"x":181129.33999999985,"y":2540181.2800000012}},{"attributes":{"ID":586783,"DIS_CODE":0,"TOWNNAME":"關廟區","LI":"深坑里","LIN":"11鄰","STREET":"深坑二街","SECT":" ","MAREA":" ","LANE":" ","ALLEY":" ","HOUSE_NO":"９８號","E_COORD97":181632.76999999999,"N_COORD97":2537450.2999999998,"ADDRESS":"深坑二街９８號","OBJECTID":586756},"geometry":{"x":181632.76999999955,"y":2537450.3000000026}},{"attributes":{"ID":586784,"DIS_CODE":0,"TOWNNAME":"關廟區","LI":"南花里","LIN":"11鄰","STREET":"中山路","SECT":"一段","MAREA":" ","LANE":" ","ALLEY":" ","HOUSE_NO":"２８２號","E_COORD97":181767.35999999999,"N_COORD97":2539935.2799999998,"ADDRESS":"中山路一段２８２號","OBJECTID":586757},"geometry":{"x":181767.36000000034,"y":2539935.2799999993}},{"attributes":{"ID":586785,"DIS_CODE":0,"TOWNNAME":"關廟區","LI":"深坑里","LIN":"11鄰","STREET":"南雄路","SECT":"一段","MAREA":" ","LANE":" ","ALLEY":" ","HOUSE_NO":"４１３號","E_COORD97":181759.47,"N_COORD97":2537585.2999999998,"ADDRESS":"南雄路一段４１３號","OBJECTID":586758},"geometry":{"x":181759.4700000016,"y":2537585.3000000026}},{"attributes":{"ID":586786,"DIS_CODE":0,"TOWNNAME":"關廟區","LI":"香洋里","LIN":"11鄰","STREET":"南雄路","SECT":"二段","MAREA":" ","LANE":" ","ALLEY":" ","HOUSE_NO":"７２號","E_COORD97":181126.64000000001,"N_COORD97":2540165.2799999998,"ADDRESS":"南雄路二段７２號","OBJECTID":586759},"geometry":{"x":181126.6400000006,"y":2540165.2799999993}},{"attributes":{"ID":586787,"DIS_CODE":0,"TOWNNAME":"關廟區","LI":"香洋里","LIN":"11鄰","STREET":"中央路","SECT":" ","MAREA":" ","LANE":" ","ALLEY":" ","HOUSE_NO":"２２２號","E_COORD97":181199.85999999999,"N_COORD97":2540096.3199999998,"ADDRESS":"中央路２２２號","OBJECTID":586760},"geometry":{"x":181199.8600000022,"y":2540096.320000004}},{"attributes":{"ID":586788,"DIS_CODE":0,"TOWNNAME":"關廟區","LI":"香洋里","LIN":"11鄰","STREET":"中央路","SECT":" ","MAREA":" ","LANE":" ","ALLEY":" ","HOUSE_NO":"２３６號","E_COORD97":181132.26000000001,"N_COORD97":2540113.3199999998,"ADDRESS":"中央路２３６號","OBJECTID":586761},"geometry":{"x":181132.26000000071,"y":2540113.320000004}},{"attributes":{"ID":586789,"DIS_CODE":0,"TOWNNAME":"關廟區","LI":"香洋里","LIN":"11鄰","STREET":"中央路","SECT":" ","MAREA":" ","LANE":" ","ALLEY":" ","HOUSE_NO":"２３２號","E_COORD97":181143.85999999999,"N_COORD97":2540110.3199999998,"ADDRESS":"中央路２３２號","OBJECTID":586762},"geometry":{"x":181143.8600000022,"y":2540110.3200000022}},{"attributes":{"ID":586790,"DIS_CODE":0,"TOWNNAME":"關廟區","LI":"南花里","LIN":"11鄰","STREET":"四維街","SECT":" ","MAREA":" ","LANE":" ","ALLEY":" ","HOUSE_NO":"１６９號","E_COORD97":181852.35999999999,"N_COORD97":2539993.25,"ADDRESS":"四維街１６９號","OBJECTID":586763},"geometry":{"x":181852.3600000022,"y":2539993.25}},{"attributes":{"ID":586791,"DIS_CODE":0,"TOWNNAME":"關廟區","LI":"深坑里","LIN":"11鄰","STREET":"深坑二街","SECT":" ","MAREA":" ","LANE":" ","ALLEY":" ","HOUSE_NO":"９２號","E_COORD97":181621.92000000001,"N_COORD97":2537471.2999999998,"ADDRESS":"深坑二街９２號","OBJECTID":586764},"geometry":{"x":181621.91999999993,"y":2537471.3000000007}},{"attributes":{"ID":586792,"DIS_CODE":0,"TOWNNAME":"關廟區","LI":"南花里","LIN":"11鄰","STREET":"四維街","SECT":" ","MAREA":" ","LANE":" ","ALLEY":" ","HOUSE_NO":"１９１號","E_COORD97":181849.35999999999,"N_COORD97":2540069.25,"ADDRESS":"四維街１９１號","OBJECTID":586765},"geometry":{"x":181849.36000000127,"y":2540069.2500000037}},{"attributes":{"ID":586793,"DIS_CODE":0,"TOWNNAME":"關廟區","LI":"深坑里","LIN":"11鄰","STREET":"深坑二街","SECT":" ","MAREA":" ","LANE":" ","ALLEY":" ","HOUSE_NO":"６５號","E_COORD97":181689.37,"N_COORD97":2537452.2999999998,"ADDRESS":"深坑二街６５號","OBJECTID":586766},"geometry":{"x":181689.37000000197,"y":2537452.2999999989}},{"attributes":{"ID":586794,"DIS_CODE":0,"TOWNNAME":"關廟區","LI":"北花里","LIN":"11鄰","STREET":"中正路","SECT":" ","MAREA":" ","LANE":" ","ALLEY":" ","HOUSE_NO":"７５５號","E_COORD97":181784.06,"N_COORD97":2540352.25,"ADDRESS":"中正路７５５號","OBJECTID":586767},"geometry":{"x":181784.05999999866,"y":2540352.2500000019}},{"attributes":{"ID":586795,"DIS_CODE":0,"TOWNNAME":"關廟區","LI":"五甲里","LIN":"11鄰","STREET":"五義街","SECT":" ","MAREA":" ","LANE":" ","ALLEY":" ","HOUSE_NO":"７９號","E_COORD97":180987.62,"N_COORD97":2538990.27,"ADDRESS":"五義街７９號","OBJECTID":586768},"geometry":{"x":180987.62000000197,"y":2538990.2699999996}},{"attributes":{"ID":586796,"DIS_CODE":0,"TOWNNAME":"關廟區","LI":"五甲里","LIN":"11鄰","STREET":"五義街","SECT":" ","MAREA":" ","LANE":" ","ALLEY":" ","HOUSE_NO":"１０６號","E_COORD97":180988.47,"N_COORD97":2539003.27,"ADDRESS":"五義街１０６號","OBJECTID":586769},"geometry":{"x":180988.47000000067,"y":2539003.2699999996}},{"attributes":{"ID":586797,"DIS_CODE":0,"TOWNNAME":"關廟區","LI":"五甲里","LIN":"11鄰","STREET":"五義街","SECT":" ","MAREA":" ","LANE":" ","ALLEY":" ","HOUSE_NO":"９６號","E_COORD97":181004.51999999999,"N_COORD97":2539012.27,"ADDRESS":"五義街９６號","OBJECTID":586770},"geometry":{"x":181004.51999999862,"y":2539012.2700000014}},{"attributes":{"ID":586798,"DIS_CODE":0,"TOWNNAME":"關廟區","LI":"東勢里","LIN":"11鄰","STREET":"東榮街","SECT":" ","MAREA":" ","LANE":" ","ALLEY":" ","HOUSE_NO":"４３號","E_COORD97":182020.92000000001,"N_COORD97":2539354.25,"ADDRESS":"東榮街４３號","OBJECTID":586771},"geometry":{"x":182020.91999999993,"y":2539354.2500000037}},{"attributes":{"ID":586799,"DIS_CODE":0,"TOWNNAME":"關廟區","LI":"北花里","LIN":"11鄰","STREET":"中正路","SECT":" ","MAREA":" ","LANE":" ","ALLEY":" ","HOUSE_NO":"６８２號","E_COORD97":181722.26000000001,"N_COORD97":2540353.25,"ADDRESS":"中正路６８２號","OBJECTID":586772},"geometry":{"x":181722.26000000071,"y":2540353.25}},{"attributes":{"ID":586800,"DIS_CODE":0,"TOWNNAME":"關廟區","LI":"南花里","LIN":"11鄰","STREET":"明德街","SECT":" ","MAREA":" ","LANE":" ","ALLEY":" ","HOUSE_NO":"１１號","E_COORD97":181822.34,"N_COORD97":2540049.27,"ADDRESS":"明德街１１號","OBJECTID":586773},"geometry":{"x":181822.34000000078,"y":2540049.2700000014}},{"attributes":{"ID":586801,"DIS_CODE":0,"TOWNNAME":"關廟區","LI":"五甲里","LIN":"11鄰","STREET":"五義街","SECT":" ","MAREA":" ","LANE":" ","ALLEY":" ","HOUSE_NO":"７１號","E_COORD97":181004.51999999999,"N_COORD97":2538999.27,"ADDRESS":"五義街７１號","OBJECTID":586774},"geometry":{"x":181004.51999999862,"y":2538999.2699999996}},{"attributes":{"ID":586802,"DIS_CODE":0,"TOWNNAME":"關廟區","LI":"南花里","LIN":"11鄰","STREET":"明德街","SECT":" ","MAREA":" ","LANE":" ","ALLEY":" ","HOUSE_NO":"１８號","E_COORD97":181810.54000000001,"N_COORD97":2540059.27,"ADDRESS":"明德街１８號","OBJECTID":586775},"geometry":{"x":181810.54000000097,"y":2540059.2700000014}},{"attributes":{"ID":586803,"DIS_CODE":0,"TOWNNAME":"關廟區","LI":"五甲里","LIN":"11鄰","STREET":"五義街","SECT":" ","MAREA":" ","LANE":" ","ALLEY":" ","HOUSE_NO":"９２號","E_COORD97":181008.72,"N_COORD97":2539014.27,"ADDRESS":"五義街９２號","OBJECTID":586776},"geometry":{"x":181008.72000000067,"y":2539014.2700000033}},{"attributes":{"ID":586804,"DIS_CODE":0,"TOWNNAME":"新化區","LI":"東榮里","LIN":"11鄰","STREET":"中興路","SECT":" ","MAREA":" ","LANE":" ","ALLEY":" ","HOUSE_NO":"５０７號","E_COORD97":180121.31,"N_COORD97":2547796.25,"ADDRESS":"中興路５０７號","OBJECTID":586777},"geometry":{"x":180121.31000000052,"y":2547796.2500000037}},{"attributes":{"ID":586805,"DIS_CODE":0,"TOWNNAME":"新化區","LI":"護國里","LIN":"11鄰","STREET":"中山路","SECT":" ","MAREA":" ","LANE":" ","ALLEY":" ","HOUSE_NO":"６９號","E_COORD97":179872.35999999999,"N_COORD97":2549381.25,"ADDRESS":"中山路６９號","OBJECTID":586778},"geometry":{"x":179872.3600000022,"y":2549381.25}},{"attributes":{"ID":586806,"DIS_CODE":0,"TOWNNAME":"南區","LI":"再興里","LIN":"11鄰","STREET":"仁慈街","SECT":" ","MAREA":" ","LANE":" ","ALLEY":" ","HOUSE_NO":"７０號","E_COORD97":167253.54000000001,"N_COORD97":2542149.1800000002,"ADDRESS":"仁慈街７０號","OBJECTID":586779},"geometry":{"x":167253.5400000019,"y":2542149.1800000016}},{"attributes":{"ID":586807,"DIS_CODE":0,"TOWNNAME":"南區","LI":"再興里","LIN":"11鄰","STREET":"仁慈街","SECT":" ","MAREA":" ","LANE":" ","ALLEY":" ","HOUSE_NO":"７２號","E_COORD97":167249.09,"N_COORD97":2542149.5,"ADDRESS":"仁慈街７２號","OBJECTID":586780},"geometry":{"x":167249.08999999985,"y":2542149.5000000037}},{"attributes":{"ID":586808,"DIS_CODE":0,"TOWNNAME":"南區","LI":"再興里","LIN":"11鄰","STREET":"仁慈街","SECT":" ","MAREA":" ","LANE":" ","ALLEY":" ","HOUSE_NO":"７４號","E_COORD97":167244.64999999999,"N_COORD97":2542149.5,"ADDRESS":"仁慈街７４號","OBJECTID":586781},"geometry":{"x":167244.64999999944,"y":2542149.5000000037}},{"attributes":{"ID":586809,"DIS_CODE":0,"TOWNNAME":"北區","LI":"新勝里","LIN":"11鄰","STREET":"長榮路","SECT":"五段","MAREA":" ","LANE":" ","ALLEY":" ","HOUSE_NO":"１１９號","E_COORD97":170067.98000000001,"N_COORD97":2545647.3999999999,"ADDRESS":"長榮路五段１１９號","OBJECTID":586782},"geometry":{"x":170067.98000000045,"y":2545647.4000000022}},{"attributes":{"ID":586810,"DIS_CODE":0,"TOWNNAME":"北區","LI":"新勝里","LIN":"11鄰","STREET":"長榮路","SECT":"五段","MAREA":" ","LANE":" ","ALLEY":" ","HOUSE_NO":"１２１號","E_COORD97":170067.20000000001,"N_COORD97":2545651.6499999999,"ADDRESS":"長榮路五段１２１號","OBJECTID":586783},"geometry":{"x":170067.20000000112,"y":2545651.6500000022}},{"attributes":{"ID":586811,"DIS_CODE":0,"TOWNNAME":"北區","LI":"新勝里","LIN":"11鄰","STREET":"長榮路","SECT":"五段","MAREA":" ","LANE":" ","ALLEY":" ","HOUSE_NO":"１２３號","E_COORD97":170066.54999999999,"N_COORD97":2545655.8500000001,"ADDRESS":"長榮路五段１２３號","OBJECTID":586784},"geometry":{"x":170066.54999999981,"y":2545655.8500000034}},{"attributes":{"ID":586812,"DIS_CODE":0,"TOWNNAME":"北區","LI":"新勝里","LIN":"11鄰","STREET":"長榮路","SECT":"五段","MAREA":" ","LANE":" ","ALLEY":" ","HOUSE_NO":"１２５號","E_COORD97":170053.72,"N_COORD97":2545652.7000000002,"ADDRESS":"長榮路五段１２５號","OBJECTID":586785},"geometry":{"x":170053.71999999974,"y":2545652.6999999974}},{"attributes":{"ID":586813,"DIS_CODE":0,"TOWNNAME":"北區","LI":"新勝里","LIN":"11鄰","STREET":"長榮路","SECT":"五段","MAREA":" ","LANE":" ","ALLEY":" ","HOUSE_NO":"１３１號","E_COORD97":170065.25,"N_COORD97":2545669.0499999998,"ADDRESS":"長榮路五段１３１號","OBJECTID":586786},"geometry":{"x":170065.25000000093,"y":2545669.0500000045}},{"attributes":{"ID":586814,"DIS_CODE":0,"TOWNNAME":"北區","LI":"新勝里","LIN":"11鄰","STREET":"長榮路","SECT":"五段","MAREA":" ","LANE":" ","ALLEY":" ","HOUSE_NO":"１３１號之１","E_COORD97":170064.81,"N_COORD97":2545674.4900000002,"ADDRESS":"長榮路五段１３１號之１","OBJECTID":586787},"geometry":{"x":170064.80999999959,"y":2545674.4900000002}},{"attributes":{"ID":586815,"DIS_CODE":0,"TOWNNAME":"北區","LI":"新勝里","LIN":"11鄰","STREET":"長榮路","SECT":"五段","MAREA":" ","LANE":" ","ALLEY":" ","HOUSE_NO":"１３３號","E_COORD97":170067.59,"N_COORD97":2545681.2999999998,"ADDRESS":"長榮路五段１３３號","OBJECTID":586788},"geometry":{"x":170067.59000000078,"y":2545681.3000000026}},{"attributes":{"ID":586816,"DIS_CODE":0,"TOWNNAME":"北區","LI":"新勝里","LIN":"11鄰","STREET":"長榮路","SECT":"五段","MAREA":" ","LANE":" ","ALLEY":" ","HOUSE_NO":"１３５號","E_COORD97":170067.45999999999,"N_COORD97":2545685.3300000001,"ADDRESS":"長榮路五段１３５號","OBJECTID":586789},"geometry":{"x":170067.45999999996,"y":2545685.3300000001}},{"attributes":{"ID":586817,"DIS_CODE":0,"TOWNNAME":"北區","LI":"新勝里","LIN":"11鄰","STREET":"長榮路","SECT":"五段","MAREA":" ","LANE":" ","ALLEY":" ","HOUSE_NO":"１５３號","E_COORD97":170059.91,"N_COORD97":2545730.5499999998,"ADDRESS":"長榮路五段１５３號","OBJECTID":586790},"geometry":{"x":170059.91000000015,"y":2545730.5500000026}},{"attributes":{"ID":586818,"DIS_CODE":0,"TOWNNAME":"北區","LI":"新勝里","LIN":"11鄰","STREET":"長榮路","SECT":"五段","MAREA":" ","LANE":" ","ALLEY":" ","HOUSE_NO":"１５５號","E_COORD97":170059.32000000001,"N_COORD97":2545738.0499999998,"ADDRESS":"長榮路五段１５５號","OBJECTID":586791},"geometry":{"x":170059.32000000216,"y":2545738.0500000026}},{"attributes":{"ID":586819,"DIS_CODE":0,"TOWNNAME":"北區","LI":"新勝里","LIN":"11鄰","STREET":"長榮路","SECT":"五段","MAREA":" ","LANE":" ","ALLEY":" ","HOUSE_NO":"１５７號","E_COORD97":170058.92999999999,"N_COORD97":2545744.4300000002,"ADDRESS":"長榮路五段１５７號","OBJECTID":586792},"geometry":{"x":170058.9299999997,"y":2545744.4300000016}},{"attributes":{"ID":586820,"DIS_CODE":0,"TOWNNAME":"北區","LI":"新勝里","LIN":"11鄰","STREET":"長榮路","SECT":"五段","MAREA":" ","LANE":" ","ALLEY":" ","HOUSE_NO":"１５９號","E_COORD97":170058.85000000001,"N_COORD97":2545748.54,"ADDRESS":"長榮路五段１５９號","OBJECTID":586793},"geometry":{"x":170058.85000000056,"y":2545748.5399999972}},{"attributes":{"ID":586821,"DIS_CODE":0,"TOWNNAME":"北區","LI":"新勝里","LIN":"11鄰","STREET":"長榮路","SECT":"五段","MAREA":" ","LANE":" ","ALLEY":" ","HOUSE_NO":"１６１號","E_COORD97":170058.23000000001,"N_COORD97":2545752.9900000002,"ADDRESS":"長榮路五段１６１號","OBJECTID":586794},"geometry":{"x":170058.23000000231,"y":2545752.9900000002}},{"attributes":{"ID":586822,"DIS_CODE":0,"TOWNNAME":"北區","LI":"新勝里","LIN":"11鄰","STREET":"長榮路","SECT":"五段","MAREA":" ","LANE":" ","ALLEY":" ","HOUSE_NO":"１６９號","E_COORD97":170054.63,"N_COORD97":2545770.5600000001,"ADDRESS":"長榮路五段１６９號","OBJECTID":586795},"geometry":{"x":170054.62999999989,"y":2545770.5600000042}},{"attributes":{"ID":586823,"DIS_CODE":0,"TOWNNAME":"北區","LI":"裕民里","LIN":"11鄰","STREET":"成功路","SECT":" ","MAREA":" ","LANE":" ","ALLEY":" ","HOUSE_NO":"６３４號","E_COORD97":167395.20000000001,"N_COORD97":2544881.2599999998,"ADDRESS":"成功路６３４號","OBJECTID":586796},"geometry":{"x":167395.20000000112,"y":2544881.2600000016}},{"attributes":{"ID":586824,"DIS_CODE":0,"TOWNNAME":"北區","LI":"裕民里","LIN":"11鄰","STREET":"成功路","SECT":" ","MAREA":" ","LANE":" ","ALLEY":" ","HOUSE_NO":"６３６號","E_COORD97":167393.04999999999,"N_COORD97":2544882.8999999999,"ADDRESS":"成功路６３６號","OBJECTID":586797},"geometry":{"x":167393.05000000075,"y":2544882.8999999985}},{"attributes":{"ID":586825,"DIS_CODE":0,"TOWNNAME":"北區","LI":"裕民里","LIN":"11鄰","STREET":"成功路","SECT":" ","MAREA":" ","LANE":" ","ALLEY":" ","HOUSE_NO":"６４０號","E_COORD97":167387.48999999999,"N_COORD97":2544887.0699999998,"ADDRESS":"成功路６４０號","OBJECTID":586798},"geometry":{"x":167387.49000000022,"y":2544887.0700000003}},{"attributes":{"ID":586826,"DIS_CODE":0,"TOWNNAME":"北區","LI":"裕民里","LIN":"11鄰","STREET":"成功路","SECT":" ","MAREA":" ","LANE":" ","ALLEY":" ","HOUSE_NO":"６４２之５號","E_COORD97":167399.88,"N_COORD97":2544892.8700000001,"ADDRESS":"成功路６４２之５號","OBJECTID":586799},"geometry":{"x":167399.87999999989,"y":2544892.870000001}},{"attributes":{"ID":586827,"DIS_CODE":0,"TOWNNAME":"北區","LI":"裕民里","LIN":"11鄰","STREET":"成功路","SECT":" ","MAREA":" ","LANE":" ","ALLEY":" ","HOUSE_NO":"６４２號","E_COORD97":167384.45999999999,"N_COORD97":2544889.21,"ADDRESS":"成功路６４２號","OBJECTID":586800},"geometry":{"x":167384.45999999903,"y":2544889.2100000028}}]}