{"displayFieldName":"TOWNNAME","fieldAliases":{"ID":"ID","DIS_CODE":"DIS_CODE","TOWNNAME":"TOWNNAME","LI":"LI","LIN":"LIN","STREET":"STREET","SECT":"SECT","MAREA":"MAREA","LANE":"LANE","ALLEY":"ALLEY","HOUSE_NO":"HOUSE_NO","E_COORD97":"E_COORD97","N_COORD97":"N_COORD97","ADDRESS":"ADDRESS","OBJECTID":"OBJECTID"},"geometryType":"esriGeometryPoint","spatialReference":{"wkid":102443,"latestWkid":3826},"fields":[{"name":"ID","type":"esriFieldTypeDouble","alias":"ID"},{"name":"DIS_CODE","type":"esriFieldTypeInteger","alias":"DIS_CODE"},{"name":"TOWNNAME","type":"esriFieldTypeString","alias":"TOWNNAME","length":8},{"name":"LI","type":"esriFieldTypeString","alias":"LI","length":8},{"name":"LIN","type":"esriFieldTypeString","alias":"LIN","length":12},{"name":"STREET","type":"esriFieldTypeString","alias":"STREET","length":20},{"name":"SECT","type":"esriFieldTypeString","alias":"SECT","length":8},{"name":"MAREA","type":"esriFieldTypeString","alias":"MAREA","length":12},{"name":"LANE","type":"esriFieldTypeString","alias":"LANE","length":10},{"name":"ALLEY","type":"esriFieldTypeString","alias":"ALLEY","length":10},{"name":"HOUSE_NO","type":"esriFieldTypeString","alias":"HOUSE_NO","length":20},{"name":"E_COORD97","type":"esriFieldTypeDouble","alias":"E_COORD97"},{"name":"N_COORD97","type":"esriFieldTypeDouble","alias":"N_COORD97"},{"name":"ADDRESS","type":"esriFieldTypeString","alias":"ADDRESS","length":50},{"name":"OBJECTID","type":"esriFieldTypeOID","alias":"OBJECTID"}],"features":[{"attributes":{"ID":325210,"DIS_CODE":0,"TOWNNAME":"新營區","LI":"民權里","LIN":"17鄰","STREET":"文化街","SECT":" ","MAREA":" ","LANE":" ","ALLEY":" ","HOUSE_NO":"１１號之１","E_COORD97":179826.42000000001,"N_COORD97":2578004.3700000001,"ADDRESS":"文化街１１號之１","OBJECTID":325201},"geometry":{"x":179826.42000000086,"y":2578004.3699999992}},{"attributes":{"ID":325211,"DIS_CODE":0,"TOWNNAME":"新營區","LI":"大宏里","LIN":"17鄰","STREET":"三民路","SECT":" ","MAREA":" ","LANE":" ","ALLEY":" ","HOUSE_NO":"４６之９號","E_COORD97":180344.89999999999,"N_COORD97":2578536.8199999998,"ADDRESS":"三民路４６之９號","OBJECTID":325202},"geometry":{"x":180344.90000000037,"y":2578536.8200000022}},{"attributes":{"ID":325212,"DIS_CODE":0,"TOWNNAME":"南區","LI":"郡南里","LIN":"9鄰","STREET":"永成路","SECT":"三段","MAREA":" ","LANE":"１３７巷","ALLEY":" ","HOUSE_NO":"１９號","E_COORD97":167425.92000000001,"N_COORD97":2540727.3399999999,"ADDRESS":"永成路三段１３７巷１９號","OBJECTID":325203},"geometry":{"x":167425.92000000086,"y":2540727.3400000017}},{"attributes":{"ID":325213,"DIS_CODE":0,"TOWNNAME":"南區","LI":"郡南里","LIN":"9鄰","STREET":"永成路","SECT":"三段","MAREA":" ","LANE":"１３７巷","ALLEY":" ","HOUSE_NO":"２１號","E_COORD97":167422.34,"N_COORD97":2540724.2400000002,"ADDRESS":"永成路三段１３７巷２１號","OBJECTID":325204},"geometry":{"x":167422.33999999985,"y":2540724.2400000039}},{"attributes":{"ID":325214,"DIS_CODE":0,"TOWNNAME":"南區","LI":"郡南里","LIN":"9鄰","STREET":"永成路","SECT":"三段","MAREA":" ","LANE":"１３７巷","ALLEY":" ","HOUSE_NO":"２３號","E_COORD97":167417.07999999999,"N_COORD97":2540724.48,"ADDRESS":"永成路三段１３７巷２３號","OBJECTID":325205},"geometry":{"x":167417.08000000007,"y":2540724.4800000004}},{"attributes":{"ID":325215,"DIS_CODE":0,"TOWNNAME":"南區","LI":"郡南里","LIN":"9鄰","STREET":"永成路","SECT":"三段","MAREA":" ","LANE":"１３７巷","ALLEY":" ","HOUSE_NO":"２５號","E_COORD97":167412.78,"N_COORD97":2540723.5299999998,"ADDRESS":"永成路三段１３７巷２５號","OBJECTID":325206},"geometry":{"x":167412.78000000026,"y":2540723.5299999993}},{"attributes":{"ID":325216,"DIS_CODE":0,"TOWNNAME":"南區","LI":"郡南里","LIN":"10鄰","STREET":"永成路","SECT":"三段","MAREA":" ","LANE":"１２１巷","ALLEY":" ","HOUSE_NO":"１５號","E_COORD97":167439.51000000001,"N_COORD97":2540681.96,"ADDRESS":"永成路三段１２１巷１５號","OBJECTID":325207},"geometry":{"x":167439.50999999978,"y":2540681.9600000009}},{"attributes":{"ID":325217,"DIS_CODE":0,"TOWNNAME":"麻豆區","LI":"中興里","LIN":"4鄰","STREET":"中興街","SECT":" ","MAREA":" ","LANE":"３巷","ALLEY":" ","HOUSE_NO":"１號","E_COORD97":172938.59,"N_COORD97":2564597.6600000001,"ADDRESS":"中興街３巷１號","OBJECTID":325208},"geometry":{"x":172938.58999999892,"y":2564597.660000002}},{"attributes":{"ID":325218,"DIS_CODE":0,"TOWNNAME":"中西區","LI":"赤嵌里","LIN":"15鄰","STREET":"忠義路","SECT":"二段","MAREA":" ","LANE":"２０２巷","ALLEY":" ","HOUSE_NO":"９號二樓","E_COORD97":168482.73000000001,"N_COORD97":2544172.6600000001,"ADDRESS":"忠義路二段２０２巷９號二樓","OBJECTID":325209},"geometry":{"x":168482.73000000045,"y":2544172.6600000039}},{"attributes":{"ID":325219,"DIS_CODE":0,"TOWNNAME":"中西區","LI":"赤嵌里","LIN":"15鄰","STREET":"忠義路","SECT":"二段","MAREA":" ","LANE":"２０２巷","ALLEY":" ","HOUSE_NO":"９號三樓","E_COORD97":168482.73000000001,"N_COORD97":2544172.6600000001,"ADDRESS":"忠義路二段２０２巷９號三樓","OBJECTID":325210},"geometry":{"x":168482.73000000045,"y":2544172.6600000039}},{"attributes":{"ID":325220,"DIS_CODE":0,"TOWNNAME":"中西區","LI":"赤嵌里","LIN":"15鄰","STREET":"忠義路","SECT":"二段","MAREA":" ","LANE":"２０２巷","ALLEY":" ","HOUSE_NO":"９號五樓","E_COORD97":168482.73000000001,"N_COORD97":2544172.6600000001,"ADDRESS":"忠義路二段２０２巷９號五樓","OBJECTID":325211},"geometry":{"x":168482.73000000045,"y":2544172.6600000039}},{"attributes":{"ID":325221,"DIS_CODE":0,"TOWNNAME":"中西區","LI":"赤嵌里","LIN":"15鄰","STREET":"忠義路","SECT":"二段","MAREA":" ","LANE":"２０２巷","ALLEY":" ","HOUSE_NO":"９號四樓","E_COORD97":168482.73000000001,"N_COORD97":2544172.6600000001,"ADDRESS":"忠義路二段２０２巷９號四樓","OBJECTID":325212},"geometry":{"x":168482.73000000045,"y":2544172.6600000039}},{"attributes":{"ID":325222,"DIS_CODE":0,"TOWNNAME":"北區","LI":"力行里","LIN":"15鄰","STREET":"南園街","SECT":" ","MAREA":" ","LANE":"１２７巷","ALLEY":" ","HOUSE_NO":"５６號","E_COORD97":170885.29000000001,"N_COORD97":2545419.1200000001,"ADDRESS":"南園街１２７巷５６號","OBJECTID":325213},"geometry":{"x":170885.29000000097,"y":2545419.1200000029}},{"attributes":{"ID":325223,"DIS_CODE":0,"TOWNNAME":"北區","LI":"力行里","LIN":"15鄰","STREET":"南園街","SECT":" ","MAREA":" ","LANE":"１２７巷","ALLEY":" ","HOUSE_NO":"５８號","E_COORD97":170891,"N_COORD97":2545427.75,"ADDRESS":"南園街１２７巷５８號","OBJECTID":325214},"geometry":{"x":170891,"y":2545427.7500000019}},{"attributes":{"ID":325224,"DIS_CODE":0,"TOWNNAME":"北區","LI":"安民里","LIN":"4鄰","STREET":"海安路","SECT":"三段","MAREA":" ","LANE":"６８巷","ALLEY":" ","HOUSE_NO":"５號","E_COORD97":167966.42000000001,"N_COORD97":2544753.1800000002,"ADDRESS":"海安路三段６８巷５號","OBJECTID":325215},"geometry":{"x":167966.42000000086,"y":2544753.1800000016}},{"attributes":{"ID":325225,"DIS_CODE":0,"TOWNNAME":"東區","LI":"自強里","LIN":"15鄰","STREET":"中華東路","SECT":"二段","MAREA":" ","LANE":"２９５巷","ALLEY":" ","HOUSE_NO":"５５號二樓","E_COORD97":171272.47,"N_COORD97":2542505.6200000001,"ADDRESS":"中華東路二段２９５巷５５號二樓","OBJECTID":325216},"geometry":{"x":171272.46999999974,"y":2542505.6200000048}},{"attributes":{"ID":325226,"DIS_CODE":0,"TOWNNAME":"新營區","LI":"大宏里","LIN":"17鄰","STREET":"三民路","SECT":" ","MAREA":" ","LANE":" ","ALLEY":" ","HOUSE_NO":"４６之２８號","E_COORD97":180346.14999999999,"N_COORD97":2578536.8199999998,"ADDRESS":"三民路４６之２８號","OBJECTID":325217},"geometry":{"x":180346.15000000037,"y":2578536.8200000022}},{"attributes":{"ID":325227,"DIS_CODE":0,"TOWNNAME":"新營區","LI":"民榮里","LIN":"17鄰","STREET":"富強街","SECT":" ","MAREA":" ","LANE":" ","ALLEY":" ","HOUSE_NO":"５１之３號","E_COORD97":178904.29999999999,"N_COORD97":2577821.6099999999,"ADDRESS":"富強街５１之３號","OBJECTID":325218},"geometry":{"x":178904.30000000168,"y":2577821.6100000031}},{"attributes":{"ID":325228,"DIS_CODE":0,"TOWNNAME":"新營區","LI":"太北里","LIN":"17鄰","STREET":"新太路","SECT":" ","MAREA":" ","LANE":" ","ALLEY":" ","HOUSE_NO":"４５號","E_COORD97":175699.94,"N_COORD97":2577781.8900000001,"ADDRESS":"新太路４５號","OBJECTID":325219},"geometry":{"x":175699.94000000041,"y":2577781.8900000025}},{"attributes":{"ID":325229,"DIS_CODE":0,"TOWNNAME":"新營區","LI":"太北里","LIN":"17鄰","STREET":"忠孝路","SECT":" ","MAREA":" ","LANE":" ","ALLEY":" ","HOUSE_NO":"６８號","E_COORD97":175721.13,"N_COORD97":2577942.3700000001,"ADDRESS":"忠孝路６８號","OBJECTID":325220},"geometry":{"x":175721.13000000082,"y":2577942.370000001}},{"attributes":{"ID":325230,"DIS_CODE":0,"TOWNNAME":"新營區","LI":"新東里","LIN":"17鄰","STREET":"東興四街","SECT":" ","MAREA":" ","LANE":" ","ALLEY":" ","HOUSE_NO":"５２號","E_COORD97":180957.97,"N_COORD97":2579167.3500000001,"ADDRESS":"東興四街５２號","OBJECTID":325221},"geometry":{"x":180957.97000000067,"y":2579167.3500000015}},{"attributes":{"ID":325231,"DIS_CODE":0,"TOWNNAME":"新營區","LI":"新南里","LIN":"17鄰","STREET":"隋唐街","SECT":" ","MAREA":" ","LANE":" ","ALLEY":" ","HOUSE_NO":"３７號","E_COORD97":178690.32000000001,"N_COORD97":2578499.2200000002,"ADDRESS":"隋唐街３７號","OBJECTID":325222},"geometry":{"x":178690.3200000003,"y":2578499.2200000007}},{"attributes":{"ID":325232,"DIS_CODE":0,"TOWNNAME":"南區","LI":"郡南里","LIN":"6鄰","STREET":"永興四街","SECT":" ","MAREA":" ","LANE":" ","ALLEY":" ","HOUSE_NO":"７號","E_COORD97":167287.59,"N_COORD97":2540551.0499999998,"ADDRESS":"永興四街７號","OBJECTID":325223},"geometry":{"x":167287.59000000078,"y":2540551.0500000026}},{"attributes":{"ID":325233,"DIS_CODE":0,"TOWNNAME":"南區","LI":"郡南里","LIN":"19鄰","STREET":"德興路","SECT":" ","MAREA":" ","LANE":"１７７巷","ALLEY":" ","HOUSE_NO":"７０號","E_COORD97":167290.41,"N_COORD97":2540340.3399999999,"ADDRESS":"德興路１７７巷７０號","OBJECTID":325224},"geometry":{"x":167290.41000000108,"y":2540340.3400000017}},{"attributes":{"ID":325234,"DIS_CODE":0,"TOWNNAME":"南區","LI":"郡南里","LIN":"19鄰","STREET":"德興路","SECT":" ","MAREA":" ","LANE":"１７７巷","ALLEY":" ","HOUSE_NO":"７１號","E_COORD97":167331.06,"N_COORD97":2540362.8199999998,"ADDRESS":"德興路１７７巷７１號","OBJECTID":325225},"geometry":{"x":167331.06000000145,"y":2540362.8200000003}},{"attributes":{"ID":325235,"DIS_CODE":0,"TOWNNAME":"南區","LI":"郡南里","LIN":"19鄰","STREET":"德興路","SECT":" ","MAREA":" ","LANE":"１７７巷","ALLEY":" ","HOUSE_NO":"７２號","E_COORD97":167286.23000000001,"N_COORD97":2540338.5800000001,"ADDRESS":"德興路１７７巷７２號","OBJECTID":325226},"geometry":{"x":167286.23000000045,"y":2540338.5800000038}},{"attributes":{"ID":325236,"DIS_CODE":0,"TOWNNAME":"東區","LI":"自強里","LIN":"15鄰","STREET":"中華東路","SECT":"二段","MAREA":" ","LANE":"２９５巷","ALLEY":" ","HOUSE_NO":"５７號七樓","E_COORD97":171303.73000000001,"N_COORD97":2542498.5699999998,"ADDRESS":"中華東路二段２９５巷５７號七樓","OBJECTID":325227},"geometry":{"x":171303.73000000045,"y":2542498.570000004}},{"attributes":{"ID":325237,"DIS_CODE":0,"TOWNNAME":"東區","LI":"自強里","LIN":"15鄰","STREET":"中華東路","SECT":"二段","MAREA":" ","LANE":"２９５巷","ALLEY":" ","HOUSE_NO":"５７號七樓之１","E_COORD97":171303.51999999999,"N_COORD97":2542509.4399999999,"ADDRESS":"中華東路二段２９５巷５７號七樓之１","OBJECTID":325228},"geometry":{"x":171303.52000000048,"y":2542509.4400000013}},{"attributes":{"ID":325238,"DIS_CODE":0,"TOWNNAME":"東區","LI":"自強里","LIN":"15鄰","STREET":"中華東路","SECT":"二段","MAREA":" ","LANE":"２９５巷","ALLEY":" ","HOUSE_NO":"５７號七樓之２","E_COORD97":171290.22,"N_COORD97":2542508.2400000002,"ADDRESS":"中華東路二段２９５巷５７號七樓之２","OBJECTID":325229},"geometry":{"x":171290.22000000067,"y":2542508.2400000021}},{"attributes":{"ID":325239,"DIS_CODE":0,"TOWNNAME":"東區","LI":"自強里","LIN":"15鄰","STREET":"中華東路","SECT":"二段","MAREA":" ","LANE":"２９５巷","ALLEY":" ","HOUSE_NO":"５７號二樓","E_COORD97":171303.73000000001,"N_COORD97":2542498.5699999998,"ADDRESS":"中華東路二段２９５巷５７號二樓","OBJECTID":325230},"geometry":{"x":171303.73000000045,"y":2542498.570000004}},{"attributes":{"ID":325240,"DIS_CODE":0,"TOWNNAME":"東區","LI":"自強里","LIN":"15鄰","STREET":"中華東路","SECT":"二段","MAREA":" ","LANE":"２９５巷","ALLEY":" ","HOUSE_NO":"５７號八樓","E_COORD97":171303.73000000001,"N_COORD97":2542498.5699999998,"ADDRESS":"中華東路二段２９５巷５７號八樓","OBJECTID":325231},"geometry":{"x":171303.73000000045,"y":2542498.570000004}},{"attributes":{"ID":325241,"DIS_CODE":0,"TOWNNAME":"東區","LI":"自強里","LIN":"15鄰","STREET":"中華東路","SECT":"二段","MAREA":" ","LANE":"２９５巷","ALLEY":" ","HOUSE_NO":"５７號三樓","E_COORD97":171303.73000000001,"N_COORD97":2542498.5699999998,"ADDRESS":"中華東路二段２９５巷５７號三樓","OBJECTID":325232},"geometry":{"x":171303.73000000045,"y":2542498.570000004}},{"attributes":{"ID":325242,"DIS_CODE":0,"TOWNNAME":"東區","LI":"自強里","LIN":"15鄰","STREET":"中華東路","SECT":"二段","MAREA":" ","LANE":"２９５巷","ALLEY":" ","HOUSE_NO":"５７號三樓之１","E_COORD97":171303.51999999999,"N_COORD97":2542509.4399999999,"ADDRESS":"中華東路二段２９５巷５７號三樓之１","OBJECTID":325233},"geometry":{"x":171303.52000000048,"y":2542509.4400000013}},{"attributes":{"ID":325243,"DIS_CODE":0,"TOWNNAME":"東區","LI":"自強里","LIN":"15鄰","STREET":"中華東路","SECT":"二段","MAREA":" ","LANE":"２９５巷","ALLEY":" ","HOUSE_NO":"５７號三樓之２","E_COORD97":171290.22,"N_COORD97":2542508.2400000002,"ADDRESS":"中華東路二段２９５巷５７號三樓之２","OBJECTID":325234},"geometry":{"x":171290.22000000067,"y":2542508.2400000021}},{"attributes":{"ID":325244,"DIS_CODE":0,"TOWNNAME":"東區","LI":"自強里","LIN":"15鄰","STREET":"中華東路","SECT":"二段","MAREA":" ","LANE":"２９５巷","ALLEY":" ","HOUSE_NO":"５７號五樓","E_COORD97":171303.73000000001,"N_COORD97":2542498.5699999998,"ADDRESS":"中華東路二段２９５巷５７號五樓","OBJECTID":325235},"geometry":{"x":171303.73000000045,"y":2542498.570000004}},{"attributes":{"ID":325245,"DIS_CODE":0,"TOWNNAME":"東區","LI":"自強里","LIN":"15鄰","STREET":"中華東路","SECT":"二段","MAREA":" ","LANE":"２９５巷","ALLEY":" ","HOUSE_NO":"５７號五樓之１","E_COORD97":171303.51999999999,"N_COORD97":2542509.4399999999,"ADDRESS":"中華東路二段２９５巷５７號五樓之１","OBJECTID":325236},"geometry":{"x":171303.52000000048,"y":2542509.4400000013}},{"attributes":{"ID":325246,"DIS_CODE":0,"TOWNNAME":"東區","LI":"自強里","LIN":"15鄰","STREET":"中華東路","SECT":"二段","MAREA":" ","LANE":"２９５巷","ALLEY":" ","HOUSE_NO":"５７號五樓之２","E_COORD97":171290.22,"N_COORD97":2542508.2400000002,"ADDRESS":"中華東路二段２９５巷５７號五樓之２","OBJECTID":325237},"geometry":{"x":171290.22000000067,"y":2542508.2400000021}},{"attributes":{"ID":325247,"DIS_CODE":0,"TOWNNAME":"東區","LI":"自強里","LIN":"15鄰","STREET":"中華東路","SECT":"二段","MAREA":" ","LANE":"２９５巷","ALLEY":" ","HOUSE_NO":"５７號六樓","E_COORD97":171303.73000000001,"N_COORD97":2542498.5699999998,"ADDRESS":"中華東路二段２９５巷５７號六樓","OBJECTID":325238},"geometry":{"x":171303.73000000045,"y":2542498.570000004}},{"attributes":{"ID":325248,"DIS_CODE":0,"TOWNNAME":"東區","LI":"自強里","LIN":"15鄰","STREET":"中華東路","SECT":"二段","MAREA":" ","LANE":"２９５巷","ALLEY":" ","HOUSE_NO":"５７號六樓之１","E_COORD97":171303.51999999999,"N_COORD97":2542509.4399999999,"ADDRESS":"中華東路二段２９５巷５７號六樓之１","OBJECTID":325239},"geometry":{"x":171303.52000000048,"y":2542509.4400000013}},{"attributes":{"ID":325249,"DIS_CODE":0,"TOWNNAME":"東區","LI":"自強里","LIN":"15鄰","STREET":"中華東路","SECT":"二段","MAREA":" ","LANE":"２９５巷","ALLEY":" ","HOUSE_NO":"５７號六樓之２","E_COORD97":171290.22,"N_COORD97":2542508.2400000002,"ADDRESS":"中華東路二段２９５巷５７號六樓之２","OBJECTID":325240},"geometry":{"x":171290.22000000067,"y":2542508.2400000021}},{"attributes":{"ID":325250,"DIS_CODE":0,"TOWNNAME":"東區","LI":"自強里","LIN":"15鄰","STREET":"中華東路","SECT":"二段","MAREA":" ","LANE":"２９５巷","ALLEY":" ","HOUSE_NO":"５７號四樓","E_COORD97":171303.73000000001,"N_COORD97":2542498.5699999998,"ADDRESS":"中華東路二段２９５巷５７號四樓","OBJECTID":325241},"geometry":{"x":171303.73000000045,"y":2542498.570000004}},{"attributes":{"ID":325251,"DIS_CODE":0,"TOWNNAME":"東區","LI":"自強里","LIN":"15鄰","STREET":"中華東路","SECT":"二段","MAREA":" ","LANE":"２９５巷","ALLEY":" ","HOUSE_NO":"５７號四樓之１","E_COORD97":171303.51999999999,"N_COORD97":2542509.4399999999,"ADDRESS":"中華東路二段２９５巷５７號四樓之１","OBJECTID":325242},"geometry":{"x":171303.52000000048,"y":2542509.4400000013}},{"attributes":{"ID":325252,"DIS_CODE":0,"TOWNNAME":"東山區","LI":"東中里","LIN":"17鄰","STREET":"民治街","SECT":" ","MAREA":" ","LANE":" ","ALLEY":" ","HOUSE_NO":"５２號","E_COORD97":189090.91,"N_COORD97":2579903.1699999999,"ADDRESS":"民治街５２號","OBJECTID":325243},"geometry":{"x":189090.91000000108,"y":2579903.1699999981}},{"attributes":{"ID":325253,"DIS_CODE":0,"TOWNNAME":"東山區","LI":"東中里","LIN":"17鄰","STREET":"民治街","SECT":" ","MAREA":" ","LANE":" ","ALLEY":" ","HOUSE_NO":"７號","E_COORD97":189030.85000000001,"N_COORD97":2579914.2400000002,"ADDRESS":"民治街７號","OBJECTID":325244},"geometry":{"x":189030.85000000149,"y":2579914.2400000021}},{"attributes":{"ID":325254,"DIS_CODE":0,"TOWNNAME":"東山區","LI":"東中里","LIN":"17鄰","STREET":"民治街","SECT":" ","MAREA":" ","LANE":" ","ALLEY":" ","HOUSE_NO":"８號","E_COORD97":189009.29999999999,"N_COORD97":2579883.8300000001,"ADDRESS":"民治街８號","OBJECTID":325245},"geometry":{"x":189009.30000000168,"y":2579883.8300000001}},{"attributes":{"ID":325255,"DIS_CODE":0,"TOWNNAME":"東山區","LI":"東中里","LIN":"17鄰","STREET":"民治街","SECT":" ","MAREA":" ","LANE":" ","ALLEY":" ","HOUSE_NO":"９號","E_COORD97":189035.91,"N_COORD97":2579914.2200000002,"ADDRESS":"民治街９號","OBJECTID":325246},"geometry":{"x":189035.91000000015,"y":2579914.2200000044}},{"attributes":{"ID":325256,"DIS_CODE":0,"TOWNNAME":"南區","LI":"國宅里","LIN":"4鄰","STREET":"金華路","SECT":"二段","MAREA":" ","LANE":"１５巷","ALLEY":" ","HOUSE_NO":"１８號","E_COORD97":166965.94,"N_COORD97":2541886.3199999998,"ADDRESS":"金華路二段１５巷１８號","OBJECTID":325247},"geometry":{"x":166965.94000000041,"y":2541886.320000004}},{"attributes":{"ID":325257,"DIS_CODE":0,"TOWNNAME":"南區","LI":"國宅里","LIN":"4鄰","STREET":"金華路","SECT":"二段","MAREA":" ","LANE":"１５巷","ALLEY":" ","HOUSE_NO":"２０號","E_COORD97":166962,"N_COORD97":2541886.79,"ADDRESS":"金華路二段１５巷２０號","OBJECTID":325248},"geometry":{"x":166962,"y":2541886.790000001}},{"attributes":{"ID":325258,"DIS_CODE":0,"TOWNNAME":"南區","LI":"國宅里","LIN":"4鄰","STREET":"金華路","SECT":"二段","MAREA":" ","LANE":"１５巷","ALLEY":" ","HOUSE_NO":"２２號","E_COORD97":166956.42999999999,"N_COORD97":2541887.25,"ADDRESS":"金華路二段１５巷２２號","OBJECTID":325249},"geometry":{"x":166956.43000000063,"y":2541887.2500000019}},{"attributes":{"ID":325259,"DIS_CODE":0,"TOWNNAME":"南區","LI":"國宅里","LIN":"4鄰","STREET":"金華路","SECT":"二段","MAREA":" ","LANE":"１５巷","ALLEY":" ","HOUSE_NO":"２４號","E_COORD97":166951.56,"N_COORD97":2541887.71,"ADDRESS":"金華路二段１５巷２４號","OBJECTID":325250},"geometry":{"x":166951.56000000052,"y":2541887.7100000046}},{"attributes":{"ID":325260,"DIS_CODE":0,"TOWNNAME":"南區","LI":"國宅里","LIN":"4鄰","STREET":"金華路","SECT":"二段","MAREA":" ","LANE":"１５巷","ALLEY":" ","HOUSE_NO":"２６號","E_COORD97":166945.98999999999,"N_COORD97":2541888.4100000001,"ADDRESS":"金華路二段１５巷２６號","OBJECTID":325251},"geometry":{"x":166945.99000000115,"y":2541888.4100000001}},{"attributes":{"ID":325261,"DIS_CODE":0,"TOWNNAME":"東區","LI":"自強里","LIN":"15鄰","STREET":"中華東路","SECT":"二段","MAREA":" ","LANE":"２９５巷","ALLEY":" ","HOUSE_NO":"５７號四樓之２","E_COORD97":171290.22,"N_COORD97":2542508.2400000002,"ADDRESS":"中華東路二段２９５巷５７號四樓之２","OBJECTID":325252},"geometry":{"x":171290.22000000067,"y":2542508.2400000021}},{"attributes":{"ID":325262,"DIS_CODE":0,"TOWNNAME":"南區","LI":"喜東里","LIN":"4鄰","STREET":"明興路","SECT":" ","MAREA":" ","LANE":"４０４巷","ALLEY":" ","HOUSE_NO":"８號","E_COORD97":166273.01999999999,"N_COORD97":2538861.96,"ADDRESS":"明興路４０４巷８號","OBJECTID":325253},"geometry":{"x":166273.01999999955,"y":2538861.9600000046}},{"attributes":{"ID":325263,"DIS_CODE":0,"TOWNNAME":"東區","LI":"自強里","LIN":"15鄰","STREET":"中華東路","SECT":"二段","MAREA":" ","LANE":"２９５巷","ALLEY":" ","HOUSE_NO":"７１號七樓","E_COORD97":171310.51000000001,"N_COORD97":2542484.4900000002,"ADDRESS":"中華東路二段２９５巷７１號七樓","OBJECTID":325254},"geometry":{"x":171310.51000000071,"y":2542484.4900000002}},{"attributes":{"ID":325264,"DIS_CODE":0,"TOWNNAME":"東區","LI":"自強里","LIN":"15鄰","STREET":"中華東路","SECT":"二段","MAREA":" ","LANE":"２９５巷","ALLEY":" ","HOUSE_NO":"７１號七樓之１","E_COORD97":171310.51000000001,"N_COORD97":2542484.4900000002,"ADDRESS":"中華東路二段２９５巷７１號七樓之１","OBJECTID":325255},"geometry":{"x":171310.51000000071,"y":2542484.4900000002}},{"attributes":{"ID":325265,"DIS_CODE":0,"TOWNNAME":"東區","LI":"自強里","LIN":"15鄰","STREET":"中華東路","SECT":"二段","MAREA":" ","LANE":"２９５巷","ALLEY":" ","HOUSE_NO":"７１號七樓之２","E_COORD97":171285.38,"N_COORD97":2542490.3599999999,"ADDRESS":"中華東路二段２９５巷７１號七樓之２","OBJECTID":325256},"geometry":{"x":171285.37999999989,"y":2542490.3600000013}},{"attributes":{"ID":325266,"DIS_CODE":0,"TOWNNAME":"東區","LI":"自強里","LIN":"15鄰","STREET":"中華東路","SECT":"二段","MAREA":" ","LANE":"２９５巷","ALLEY":" ","HOUSE_NO":"７１號七樓之３","E_COORD97":171285.38,"N_COORD97":2542490.3599999999,"ADDRESS":"中華東路二段２９５巷７１號七樓之３","OBJECTID":325257},"geometry":{"x":171285.37999999989,"y":2542490.3600000013}},{"attributes":{"ID":325267,"DIS_CODE":0,"TOWNNAME":"東區","LI":"自強里","LIN":"15鄰","STREET":"中華東路","SECT":"二段","MAREA":" ","LANE":"２９５巷","ALLEY":" ","HOUSE_NO":"７１號八樓","E_COORD97":171310.51000000001,"N_COORD97":2542484.4900000002,"ADDRESS":"中華東路二段２９５巷７１號八樓","OBJECTID":325258},"geometry":{"x":171310.51000000071,"y":2542484.4900000002}},{"attributes":{"ID":325268,"DIS_CODE":0,"TOWNNAME":"東區","LI":"自強里","LIN":"15鄰","STREET":"中華東路","SECT":"二段","MAREA":" ","LANE":"２９５巷","ALLEY":" ","HOUSE_NO":"７１號八樓之１","E_COORD97":171310.51000000001,"N_COORD97":2542484.4900000002,"ADDRESS":"中華東路二段２９５巷７１號八樓之１","OBJECTID":325259},"geometry":{"x":171310.51000000071,"y":2542484.4900000002}},{"attributes":{"ID":325269,"DIS_CODE":0,"TOWNNAME":"東區","LI":"自強里","LIN":"15鄰","STREET":"中華東路","SECT":"二段","MAREA":" ","LANE":"２９５巷","ALLEY":" ","HOUSE_NO":"７１號八樓之２","E_COORD97":171285.38,"N_COORD97":2542490.3599999999,"ADDRESS":"中華東路二段２９５巷７１號八樓之２","OBJECTID":325260},"geometry":{"x":171285.37999999989,"y":2542490.3600000013}},{"attributes":{"ID":325270,"DIS_CODE":0,"TOWNNAME":"山上區","LI":"明和里","LIN":"15鄰","STREET":" ","SECT":" ","MAREA":"明和","LANE":" ","ALLEY":" ","HOUSE_NO":"８號","E_COORD97":183494.54000000001,"N_COORD97":2555999.25,"ADDRESS":"明和８號","OBJECTID":325261},"geometry":{"x":183494.54000000004,"y":2555999.25}},{"attributes":{"ID":325271,"DIS_CODE":0,"TOWNNAME":"東區","LI":"自強里","LIN":"15鄰","STREET":"中華東路","SECT":"二段","MAREA":" ","LANE":"２９５巷","ALLEY":" ","HOUSE_NO":"７１號八樓之３","E_COORD97":171285.38,"N_COORD97":2542490.3599999999,"ADDRESS":"中華東路二段２９５巷７１號八樓之３","OBJECTID":325262},"geometry":{"x":171285.37999999989,"y":2542490.3600000013}},{"attributes":{"ID":325272,"DIS_CODE":0,"TOWNNAME":"東區","LI":"自強里","LIN":"15鄰","STREET":"中華東路","SECT":"二段","MAREA":" ","LANE":"２９５巷","ALLEY":" ","HOUSE_NO":"７１號三樓","E_COORD97":171310.51000000001,"N_COORD97":2542484.4900000002,"ADDRESS":"中華東路二段２９５巷７１號三樓","OBJECTID":325263},"geometry":{"x":171310.51000000071,"y":2542484.4900000002}},{"attributes":{"ID":325273,"DIS_CODE":0,"TOWNNAME":"東區","LI":"自強里","LIN":"15鄰","STREET":"中華東路","SECT":"二段","MAREA":" ","LANE":"２９５巷","ALLEY":" ","HOUSE_NO":"７１號三樓之１","E_COORD97":171310.51000000001,"N_COORD97":2542484.4900000002,"ADDRESS":"中華東路二段２９５巷７１號三樓之１","OBJECTID":325264},"geometry":{"x":171310.51000000071,"y":2542484.4900000002}},{"attributes":{"ID":325274,"DIS_CODE":0,"TOWNNAME":"東區","LI":"自強里","LIN":"15鄰","STREET":"中華東路","SECT":"二段","MAREA":" ","LANE":"２９５巷","ALLEY":" ","HOUSE_NO":"７１號三樓之２","E_COORD97":171285.38,"N_COORD97":2542490.3599999999,"ADDRESS":"中華東路二段２９５巷７１號三樓之２","OBJECTID":325265},"geometry":{"x":171285.37999999989,"y":2542490.3600000013}},{"attributes":{"ID":325275,"DIS_CODE":0,"TOWNNAME":"東區","LI":"自強里","LIN":"15鄰","STREET":"中華東路","SECT":"二段","MAREA":" ","LANE":"２９５巷","ALLEY":" ","HOUSE_NO":"７１號三樓之３","E_COORD97":171285.38,"N_COORD97":2542490.3599999999,"ADDRESS":"中華東路二段２９５巷７１號三樓之３","OBJECTID":325266},"geometry":{"x":171285.37999999989,"y":2542490.3600000013}},{"attributes":{"ID":325276,"DIS_CODE":0,"TOWNNAME":"東區","LI":"自強里","LIN":"15鄰","STREET":"中華東路","SECT":"二段","MAREA":" ","LANE":"２９５巷","ALLEY":" ","HOUSE_NO":"７１號五樓","E_COORD97":171310.51000000001,"N_COORD97":2542484.4900000002,"ADDRESS":"中華東路二段２９５巷７１號五樓","OBJECTID":325267},"geometry":{"x":171310.51000000071,"y":2542484.4900000002}},{"attributes":{"ID":325277,"DIS_CODE":0,"TOWNNAME":"東山區","LI":"東中里","LIN":"17鄰","STREET":"民有街","SECT":" ","MAREA":" ","LANE":" ","ALLEY":" ","HOUSE_NO":"１６號","E_COORD97":189019.56,"N_COORD97":2579958.3599999999,"ADDRESS":"民有街１６號","OBJECTID":325268},"geometry":{"x":189019.56000000052,"y":2579958.3599999994}},{"attributes":{"ID":325278,"DIS_CODE":0,"TOWNNAME":"東山區","LI":"東中里","LIN":"17鄰","STREET":"民有街","SECT":" ","MAREA":" ","LANE":" ","ALLEY":" ","HOUSE_NO":"１８號","E_COORD97":189019.23000000001,"N_COORD97":2579940.5800000001,"ADDRESS":"民有街１８號","OBJECTID":325269},"geometry":{"x":189019.23000000138,"y":2579940.5800000001}},{"attributes":{"ID":325279,"DIS_CODE":0,"TOWNNAME":"東山區","LI":"東中里","LIN":"17鄰","STREET":"民有街","SECT":" ","MAREA":" ","LANE":" ","ALLEY":" ","HOUSE_NO":"２０號","E_COORD97":189018.51999999999,"N_COORD97":2579933.7400000002,"ADDRESS":"民有街２０號","OBJECTID":325270},"geometry":{"x":189018.52000000048,"y":2579933.7400000039}},{"attributes":{"ID":325280,"DIS_CODE":0,"TOWNNAME":"東山區","LI":"東中里","LIN":"17鄰","STREET":"民有街","SECT":" ","MAREA":" ","LANE":" ","ALLEY":" ","HOUSE_NO":"３８號","E_COORD97":189054.09,"N_COORD97":2579955.6499999999,"ADDRESS":"民有街３８號","OBJECTID":325271},"geometry":{"x":189054.08999999985,"y":2579955.6500000022}},{"attributes":{"ID":325281,"DIS_CODE":0,"TOWNNAME":"東山區","LI":"東中里","LIN":"17鄰","STREET":"民有街","SECT":" ","MAREA":" ","LANE":" ","ALLEY":" ","HOUSE_NO":"４２號","E_COORD97":189063.5,"N_COORD97":2579955.0299999998,"ADDRESS":"民有街４２號","OBJECTID":325272},"geometry":{"x":189063.5,"y":2579955.0300000012}},{"attributes":{"ID":325282,"DIS_CODE":0,"TOWNNAME":"東山區","LI":"東中里","LIN":"17鄰","STREET":"民有街","SECT":" ","MAREA":" ","LANE":" ","ALLEY":" ","HOUSE_NO":"４６號","E_COORD97":189068.32999999999,"N_COORD97":2579954.7599999998,"ADDRESS":"民有街４６號","OBJECTID":325273},"geometry":{"x":189068.33000000007,"y":2579954.7600000016}},{"attributes":{"ID":325283,"DIS_CODE":0,"TOWNNAME":"東山區","LI":"東中里","LIN":"17鄰","STREET":"民有街","SECT":" ","MAREA":" ","LANE":" ","ALLEY":" ","HOUSE_NO":"４８號","E_COORD97":189073.10000000001,"N_COORD97":2579954.0800000001,"ADDRESS":"民有街４８號","OBJECTID":325274},"geometry":{"x":189073.0999999987,"y":2579954.0800000001}},{"attributes":{"ID":325284,"DIS_CODE":0,"TOWNNAME":"南區","LI":"國宅里","LIN":"19鄰","STREET":"新興路","SECT":" ","MAREA":" ","LANE":"４１８巷","ALLEY":" ","HOUSE_NO":"１９號","E_COORD97":166695.01999999999,"N_COORD97":2541869.98,"ADDRESS":"新興路４１８巷１９號","OBJECTID":325275},"geometry":{"x":166695.01999999955,"y":2541869.9800000023}},{"attributes":{"ID":325285,"DIS_CODE":0,"TOWNNAME":"南區","LI":"國宅里","LIN":"19鄰","STREET":"新興路","SECT":" ","MAREA":" ","LANE":"４１８巷","ALLEY":" ","HOUSE_NO":"２１號","E_COORD97":166695.01999999999,"N_COORD97":2541873.6899999999,"ADDRESS":"新興路４１８巷２１號","OBJECTID":325276},"geometry":{"x":166695.01999999955,"y":2541873.6900000013}},{"attributes":{"ID":325286,"DIS_CODE":0,"TOWNNAME":"南區","LI":"國宅里","LIN":"19鄰","STREET":"新興路","SECT":" ","MAREA":" ","LANE":"４１８巷","ALLEY":" ","HOUSE_NO":"２３號","E_COORD97":166694.57999999999,"N_COORD97":2541878.4900000002,"ADDRESS":"新興路４１８巷２３號","OBJECTID":325277},"geometry":{"x":166694.58000000101,"y":2541878.4900000039}},{"attributes":{"ID":325287,"DIS_CODE":0,"TOWNNAME":"東區","LI":"自強里","LIN":"15鄰","STREET":"中華東路","SECT":"二段","MAREA":" ","LANE":"２９５巷","ALLEY":" ","HOUSE_NO":"７１號五樓之１","E_COORD97":171310.51000000001,"N_COORD97":2542484.4900000002,"ADDRESS":"中華東路二段２９５巷７１號五樓之１","OBJECTID":325278},"geometry":{"x":171310.51000000071,"y":2542484.4900000002}},{"attributes":{"ID":325288,"DIS_CODE":0,"TOWNNAME":"東區","LI":"自強里","LIN":"15鄰","STREET":"中華東路","SECT":"二段","MAREA":" ","LANE":"２９５巷","ALLEY":" ","HOUSE_NO":"７１號五樓之２","E_COORD97":171285.38,"N_COORD97":2542490.3599999999,"ADDRESS":"中華東路二段２９５巷７１號五樓之２","OBJECTID":325279},"geometry":{"x":171285.37999999989,"y":2542490.3600000013}},{"attributes":{"ID":325289,"DIS_CODE":0,"TOWNNAME":"東區","LI":"自強里","LIN":"15鄰","STREET":"中華東路","SECT":"二段","MAREA":" ","LANE":"２９５巷","ALLEY":" ","HOUSE_NO":"７１號五樓之３","E_COORD97":171285.38,"N_COORD97":2542490.3599999999,"ADDRESS":"中華東路二段２９５巷７１號五樓之３","OBJECTID":325280},"geometry":{"x":171285.37999999989,"y":2542490.3600000013}},{"attributes":{"ID":325290,"DIS_CODE":0,"TOWNNAME":"東山區","LI":"東中里","LIN":"17鄰","STREET":"民有街","SECT":" ","MAREA":" ","LANE":" ","ALLEY":" ","HOUSE_NO":"５０號之１","E_COORD97":189075.62,"N_COORD97":2579942,"ADDRESS":"民有街５０號之１","OBJECTID":325281},"geometry":{"x":189075.62000000104,"y":2579942.0000000037}},{"attributes":{"ID":325291,"DIS_CODE":0,"TOWNNAME":"東山區","LI":"東中里","LIN":"17鄰","STREET":"民有街","SECT":" ","MAREA":" ","LANE":" ","ALLEY":" ","HOUSE_NO":"５２號","E_COORD97":189083.10999999999,"N_COORD97":2579946.5600000001,"ADDRESS":"民有街５２號","OBJECTID":325282},"geometry":{"x":189083.11000000127,"y":2579946.5600000024}},{"attributes":{"ID":325292,"DIS_CODE":0,"TOWNNAME":"東山區","LI":"東中里","LIN":"17鄰","STREET":"民治街","SECT":" ","MAREA":" ","LANE":" ","ALLEY":" ","HOUSE_NO":"１１號","E_COORD97":189040.89999999999,"N_COORD97":2579914.6600000001,"ADDRESS":"民治街１１號","OBJECTID":325283},"geometry":{"x":189040.90000000037,"y":2579914.660000002}},{"attributes":{"ID":325293,"DIS_CODE":0,"TOWNNAME":"關廟區","LI":"五甲里","LIN":"17鄰","STREET":"五義街","SECT":" ","MAREA":" ","LANE":" ","ALLEY":" ","HOUSE_NO":"６８號","E_COORD97":181069.72,"N_COORD97":2539051.27,"ADDRESS":"五義街６８號","OBJECTID":325284},"geometry":{"x":181069.72000000067,"y":2539051.2699999996}},{"attributes":{"ID":325294,"DIS_CODE":0,"TOWNNAME":"東區","LI":"自強里","LIN":"15鄰","STREET":"中華東路","SECT":"二段","MAREA":" ","LANE":"２９５巷","ALLEY":" ","HOUSE_NO":"７１號六樓","E_COORD97":171310.51000000001,"N_COORD97":2542484.4900000002,"ADDRESS":"中華東路二段２９５巷７１號六樓","OBJECTID":325285},"geometry":{"x":171310.51000000071,"y":2542484.4900000002}},{"attributes":{"ID":325295,"DIS_CODE":0,"TOWNNAME":"東區","LI":"自強里","LIN":"15鄰","STREET":"中華東路","SECT":"二段","MAREA":" ","LANE":"２９５巷","ALLEY":" ","HOUSE_NO":"７１號六樓之１","E_COORD97":171310.51000000001,"N_COORD97":2542484.4900000002,"ADDRESS":"中華東路二段２９５巷７１號六樓之１","OBJECTID":325286},"geometry":{"x":171310.51000000071,"y":2542484.4900000002}},{"attributes":{"ID":325296,"DIS_CODE":0,"TOWNNAME":"東區","LI":"自強里","LIN":"15鄰","STREET":"中華東路","SECT":"二段","MAREA":" ","LANE":"２９５巷","ALLEY":" ","HOUSE_NO":"７１號六樓之２","E_COORD97":171285.38,"N_COORD97":2542490.3599999999,"ADDRESS":"中華東路二段２９５巷７１號六樓之２","OBJECTID":325287},"geometry":{"x":171285.37999999989,"y":2542490.3600000013}},{"attributes":{"ID":325297,"DIS_CODE":0,"TOWNNAME":"東區","LI":"自強里","LIN":"15鄰","STREET":"中華東路","SECT":"二段","MAREA":" ","LANE":"２９５巷","ALLEY":" ","HOUSE_NO":"７１號六樓之３","E_COORD97":171285.38,"N_COORD97":2542490.3599999999,"ADDRESS":"中華東路二段２９５巷７１號六樓之３","OBJECTID":325288},"geometry":{"x":171285.37999999989,"y":2542490.3600000013}},{"attributes":{"ID":325298,"DIS_CODE":0,"TOWNNAME":"東區","LI":"自強里","LIN":"15鄰","STREET":"中華東路","SECT":"二段","MAREA":" ","LANE":"２９５巷","ALLEY":" ","HOUSE_NO":"７１號四樓","E_COORD97":171310.51000000001,"N_COORD97":2542484.4900000002,"ADDRESS":"中華東路二段２９５巷７１號四樓","OBJECTID":325289},"geometry":{"x":171310.51000000071,"y":2542484.4900000002}},{"attributes":{"ID":325299,"DIS_CODE":0,"TOWNNAME":"東區","LI":"自強里","LIN":"15鄰","STREET":"中華東路","SECT":"二段","MAREA":" ","LANE":"２９５巷","ALLEY":" ","HOUSE_NO":"７１號四樓之１","E_COORD97":171310.51000000001,"N_COORD97":2542484.4900000002,"ADDRESS":"中華東路二段２９５巷７１號四樓之１","OBJECTID":325290},"geometry":{"x":171310.51000000071,"y":2542484.4900000002}},{"attributes":{"ID":325300,"DIS_CODE":0,"TOWNNAME":"東區","LI":"崇學里","LIN":"15鄰","STREET":"崇學路","SECT":" ","MAREA":" ","LANE":"２０巷","ALLEY":" ","HOUSE_NO":"２號七樓之３","E_COORD97":170164.98000000001,"N_COORD97":2542003.2999999998,"ADDRESS":"崇學路２０巷２號七樓之３","OBJECTID":325291},"geometry":{"x":170164.97999999952,"y":2542003.3000000026}},{"attributes":{"ID":325301,"DIS_CODE":0,"TOWNNAME":"東區","LI":"自強里","LIN":"15鄰","STREET":"中華東路","SECT":"二段","MAREA":" ","LANE":"２９５巷","ALLEY":" ","HOUSE_NO":"７１號四樓之２","E_COORD97":171285.38,"N_COORD97":2542490.3599999999,"ADDRESS":"中華東路二段２９５巷７１號四樓之２","OBJECTID":325292},"geometry":{"x":171285.37999999989,"y":2542490.3600000013}},{"attributes":{"ID":325302,"DIS_CODE":0,"TOWNNAME":"東區","LI":"自強里","LIN":"15鄰","STREET":"中華東路","SECT":"二段","MAREA":" ","LANE":"２９５巷","ALLEY":" ","HOUSE_NO":"７１號四樓之３","E_COORD97":171285.38,"N_COORD97":2542490.3599999999,"ADDRESS":"中華東路二段２９５巷７１號四樓之３","OBJECTID":325293},"geometry":{"x":171285.37999999989,"y":2542490.3600000013}},{"attributes":{"ID":325303,"DIS_CODE":0,"TOWNNAME":"永康區","LI":"中華里","LIN":"15鄰","STREET":"忠義街","SECT":" ","MAREA":" ","LANE":"６０巷","ALLEY":" ","HOUSE_NO":"１號十二樓之７","E_COORD97":171786.45000000001,"N_COORD97":2544541.1200000001,"ADDRESS":"忠義街６０巷１號十二樓之７","OBJECTID":325294},"geometry":{"x":171786.45000000112,"y":2544541.1200000029}},{"attributes":{"ID":325304,"DIS_CODE":0,"TOWNNAME":"永康區","LI":"中華里","LIN":"15鄰","STREET":"忠義街","SECT":" ","MAREA":" ","LANE":"６０巷","ALLEY":" ","HOUSE_NO":"１號十四樓之４","E_COORD97":171786.39999999999,"N_COORD97":2544541.1200000001,"ADDRESS":"忠義街６０巷１號十四樓之４","OBJECTID":325295},"geometry":{"x":171786.4000000013,"y":2544541.1200000029}},{"attributes":{"ID":325305,"DIS_CODE":0,"TOWNNAME":"東山區","LI":"東中里","LIN":"17鄰","STREET":"民治街","SECT":" ","MAREA":" ","LANE":" ","ALLEY":" ","HOUSE_NO":"１３號","E_COORD97":189046.04000000001,"N_COORD97":2579914.4500000002,"ADDRESS":"民治街１３號","OBJECTID":325296},"geometry":{"x":189046.04000000097,"y":2579914.450000003}},{"attributes":{"ID":325306,"DIS_CODE":0,"TOWNNAME":"麻豆區","LI":"中興里","LIN":"4鄰","STREET":"中興街","SECT":" ","MAREA":" ","LANE":"３巷","ALLEY":" ","HOUSE_NO":"６號","E_COORD97":172925.39000000001,"N_COORD97":2564596.9700000002,"ADDRESS":"中興街３巷６號","OBJECTID":325297},"geometry":{"x":172925.3900000006,"y":2564596.9700000007}},{"attributes":{"ID":325307,"DIS_CODE":0,"TOWNNAME":"南區","LI":"喜北里","LIN":" ","STREET":"喜樹路","SECT":" ","MAREA":" ","LANE":"２２２巷","ALLEY":" ","HOUSE_NO":"７２號","E_COORD97":165533.98000000001,"N_COORD97":2538063.2999999998,"ADDRESS":"喜樹路２２２巷７２號","OBJECTID":325298},"geometry":{"x":165533.98000000138,"y":2538063.3000000026}},{"attributes":{"ID":325308,"DIS_CODE":0,"TOWNNAME":"東區","LI":"東安里","LIN":"15鄰","STREET":"長榮路","SECT":"二段","MAREA":" ","LANE":"３２巷","ALLEY":" ","HOUSE_NO":"１６２號二樓之１","E_COORD97":170184.60000000001,"N_COORD97":2543077.5299999998,"ADDRESS":"長榮路二段３２巷１６２號二樓之１","OBJECTID":325299},"geometry":{"x":170184.59999999963,"y":2543077.5300000031}},{"attributes":{"ID":325309,"DIS_CODE":0,"TOWNNAME":"東區","LI":"東安里","LIN":"15鄰","STREET":"長榮路","SECT":"二段","MAREA":" ","LANE":"３２巷","ALLEY":" ","HOUSE_NO":"１６２號二樓之１０","E_COORD97":170184.60000000001,"N_COORD97":2543077.5299999998,"ADDRESS":"長榮路二段３２巷１６２號二樓之１０","OBJECTID":325300},"geometry":{"x":170184.59999999963,"y":2543077.5300000031}},{"attributes":{"ID":325310,"DIS_CODE":0,"TOWNNAME":"東區","LI":"東安里","LIN":"15鄰","STREET":"長榮路","SECT":"二段","MAREA":" ","LANE":"３２巷","ALLEY":" ","HOUSE_NO":"１６２號二樓之１１","E_COORD97":170184.60000000001,"N_COORD97":2543077.5299999998,"ADDRESS":"長榮路二段３２巷１６２號二樓之１１","OBJECTID":325301},"geometry":{"x":170184.59999999963,"y":2543077.5300000031}},{"attributes":{"ID":325311,"DIS_CODE":0,"TOWNNAME":"東區","LI":"東安里","LIN":"15鄰","STREET":"長榮路","SECT":"二段","MAREA":" ","LANE":"３２巷","ALLEY":" ","HOUSE_NO":"１６２號二樓之１２","E_COORD97":170184.60000000001,"N_COORD97":2543077.5299999998,"ADDRESS":"長榮路二段３２巷１６２號二樓之１２","OBJECTID":325302},"geometry":{"x":170184.59999999963,"y":2543077.5300000031}},{"attributes":{"ID":325312,"DIS_CODE":0,"TOWNNAME":"東區","LI":"東安里","LIN":"15鄰","STREET":"長榮路","SECT":"二段","MAREA":" ","LANE":"３２巷","ALLEY":" ","HOUSE_NO":"１６２號二樓之１３","E_COORD97":170184.60000000001,"N_COORD97":2543077.5299999998,"ADDRESS":"長榮路二段３２巷１６２號二樓之１３","OBJECTID":325303},"geometry":{"x":170184.59999999963,"y":2543077.5300000031}},{"attributes":{"ID":325313,"DIS_CODE":0,"TOWNNAME":"東區","LI":"東安里","LIN":"15鄰","STREET":"長榮路","SECT":"二段","MAREA":" ","LANE":"３２巷","ALLEY":" ","HOUSE_NO":"１６２號二樓之１４","E_COORD97":170184.60000000001,"N_COORD97":2543077.5299999998,"ADDRESS":"長榮路二段３２巷１６２號二樓之１４","OBJECTID":325304},"geometry":{"x":170184.59999999963,"y":2543077.5300000031}},{"attributes":{"ID":325314,"DIS_CODE":0,"TOWNNAME":"東區","LI":"東安里","LIN":"15鄰","STREET":"長榮路","SECT":"二段","MAREA":" ","LANE":"３２巷","ALLEY":" ","HOUSE_NO":"１６２號二樓之１５","E_COORD97":170184.60000000001,"N_COORD97":2543077.5299999998,"ADDRESS":"長榮路二段３２巷１６２號二樓之１５","OBJECTID":325305},"geometry":{"x":170184.59999999963,"y":2543077.5300000031}},{"attributes":{"ID":325315,"DIS_CODE":0,"TOWNNAME":"東區","LI":"東安里","LIN":"15鄰","STREET":"長榮路","SECT":"二段","MAREA":" ","LANE":"３２巷","ALLEY":" ","HOUSE_NO":"１６２號二樓之１６","E_COORD97":170184.60000000001,"N_COORD97":2543077.5299999998,"ADDRESS":"長榮路二段３２巷１６２號二樓之１６","OBJECTID":325306},"geometry":{"x":170184.59999999963,"y":2543077.5300000031}},{"attributes":{"ID":325316,"DIS_CODE":0,"TOWNNAME":"東山區","LI":"東中里","LIN":"17鄰","STREET":"民治街","SECT":" ","MAREA":" ","LANE":" ","ALLEY":" ","HOUSE_NO":"１５號","E_COORD97":189051.73999999999,"N_COORD97":2579914.96,"ADDRESS":"民治街１５號","OBJECTID":325307},"geometry":{"x":189051.74000000022,"y":2579914.9600000009}},{"attributes":{"ID":325317,"DIS_CODE":0,"TOWNNAME":"東山區","LI":"東中里","LIN":"17鄰","STREET":"民治街","SECT":" ","MAREA":" ","LANE":" ","ALLEY":" ","HOUSE_NO":"１７號","E_COORD97":189056.32999999999,"N_COORD97":2579915.0800000001,"ADDRESS":"民治街１７號","OBJECTID":325308},"geometry":{"x":189056.33000000007,"y":2579915.0800000019}},{"attributes":{"ID":325318,"DIS_CODE":0,"TOWNNAME":"南區","LI":"喜東里","LIN":"4鄰","STREET":"明興路","SECT":" ","MAREA":" ","LANE":"４０４巷","ALLEY":" ","HOUSE_NO":"１０號","E_COORD97":166269.73999999999,"N_COORD97":2538863.6000000001,"ADDRESS":"明興路４０４巷１０號","OBJECTID":325309},"geometry":{"x":166269.74000000115,"y":2538863.6000000015}},{"attributes":{"ID":325319,"DIS_CODE":0,"TOWNNAME":"南區","LI":"喜東里","LIN":"4鄰","STREET":"明興路","SECT":" ","MAREA":" ","LANE":"４０４巷","ALLEY":" ","HOUSE_NO":"１１號","E_COORD97":166260.53,"N_COORD97":2538845.54,"ADDRESS":"明興路４０４巷１１號","OBJECTID":325310},"geometry":{"x":166260.53000000212,"y":2538845.5399999991}},{"attributes":{"ID":325320,"DIS_CODE":0,"TOWNNAME":"南區","LI":"喜東里","LIN":"4鄰","STREET":"明興路","SECT":" ","MAREA":" ","LANE":"４０４巷","ALLEY":" ","HOUSE_NO":"４號","E_COORD97":166280.57999999999,"N_COORD97":2538860.3100000001,"ADDRESS":"明興路４０４巷４號","OBJECTID":325311},"geometry":{"x":166280.58000000101,"y":2538860.3100000024}},{"attributes":{"ID":325321,"DIS_CODE":0,"TOWNNAME":"南區","LI":"喜東里","LIN":"4鄰","STREET":"明興路","SECT":" ","MAREA":" ","LANE":"４０４巷","ALLEY":" ","HOUSE_NO":"５號","E_COORD97":166271.70999999999,"N_COORD97":2538843.0299999998,"ADDRESS":"明興路４０４巷５號","OBJECTID":325312},"geometry":{"x":166271.70999999996,"y":2538843.0300000031}},{"attributes":{"ID":325322,"DIS_CODE":0,"TOWNNAME":"南區","LI":"喜東里","LIN":"4鄰","STREET":"明興路","SECT":" ","MAREA":" ","LANE":"４０４巷","ALLEY":" ","HOUSE_NO":"６號","E_COORD97":166276.64000000001,"N_COORD97":2538860.8599999999,"ADDRESS":"明興路４０４巷６號","OBJECTID":325313},"geometry":{"x":166276.6400000006,"y":2538860.8599999975}},{"attributes":{"ID":325323,"DIS_CODE":0,"TOWNNAME":"東區","LI":"東安里","LIN":"15鄰","STREET":"長榮路","SECT":"二段","MAREA":" ","LANE":"３２巷","ALLEY":" ","HOUSE_NO":"１６２號二樓之１７","E_COORD97":170184.60000000001,"N_COORD97":2543077.5299999998,"ADDRESS":"長榮路二段３２巷１６２號二樓之１７","OBJECTID":325314},"geometry":{"x":170184.59999999963,"y":2543077.5300000031}},{"attributes":{"ID":325324,"DIS_CODE":0,"TOWNNAME":"東區","LI":"東安里","LIN":"15鄰","STREET":"長榮路","SECT":"二段","MAREA":" ","LANE":"３２巷","ALLEY":" ","HOUSE_NO":"１６２號二樓之１８","E_COORD97":170184.60000000001,"N_COORD97":2543077.5299999998,"ADDRESS":"長榮路二段３２巷１６２號二樓之１８","OBJECTID":325315},"geometry":{"x":170184.59999999963,"y":2543077.5300000031}},{"attributes":{"ID":325325,"DIS_CODE":0,"TOWNNAME":"東區","LI":"東安里","LIN":"15鄰","STREET":"長榮路","SECT":"二段","MAREA":" ","LANE":"３２巷","ALLEY":" ","HOUSE_NO":"１６２號二樓之１９","E_COORD97":170184.60000000001,"N_COORD97":2543077.5299999998,"ADDRESS":"長榮路二段３２巷１６２號二樓之１９","OBJECTID":325316},"geometry":{"x":170184.59999999963,"y":2543077.5300000031}},{"attributes":{"ID":325326,"DIS_CODE":0,"TOWNNAME":"東山區","LI":"東中里","LIN":"17鄰","STREET":"民治街","SECT":" ","MAREA":" ","LANE":" ","ALLEY":" ","HOUSE_NO":"１９號","E_COORD97":189061.60999999999,"N_COORD97":2579920.71,"ADDRESS":"民治街１９號","OBJECTID":325317},"geometry":{"x":189061.61000000034,"y":2579920.7100000009}},{"attributes":{"ID":325327,"DIS_CODE":0,"TOWNNAME":"東山區","LI":"東中里","LIN":"17鄰","STREET":"民治街","SECT":" ","MAREA":" ","LANE":" ","ALLEY":" ","HOUSE_NO":"２１號","E_COORD97":189066.44,"N_COORD97":2579920.3900000001,"ADDRESS":"民治街２１號","OBJECTID":325318},"geometry":{"x":189066.44000000041,"y":2579920.3900000025}},{"attributes":{"ID":325328,"DIS_CODE":0,"TOWNNAME":"東山區","LI":"東中里","LIN":"17鄰","STREET":"民治街","SECT":" ","MAREA":" ","LANE":" ","ALLEY":" ","HOUSE_NO":"２３號","E_COORD97":189071.28,"N_COORD97":2579920.0699999998,"ADDRESS":"民治街２３號","OBJECTID":325319},"geometry":{"x":189071.28000000119,"y":2579920.0700000003}},{"attributes":{"ID":325329,"DIS_CODE":0,"TOWNNAME":"東山區","LI":"東中里","LIN":"17鄰","STREET":"民治街","SECT":" ","MAREA":" ","LANE":" ","ALLEY":" ","HOUSE_NO":"２５號","E_COORD97":189076.10999999999,"N_COORD97":2579919.75,"ADDRESS":"民治街２５號","OBJECTID":325320},"geometry":{"x":189076.11000000127,"y":2579919.7500000037}},{"attributes":{"ID":325330,"DIS_CODE":0,"TOWNNAME":"東山區","LI":"東中里","LIN":"17鄰","STREET":"民治街","SECT":" ","MAREA":" ","LANE":" ","ALLEY":" ","HOUSE_NO":"４０號","E_COORD97":189065.25,"N_COORD97":2579892.1099999999,"ADDRESS":"民治街４０號","OBJECTID":325321},"geometry":{"x":189065.25,"y":2579892.1099999994}},{"attributes":{"ID":325331,"DIS_CODE":0,"TOWNNAME":"南區","LI":"喜東里","LIN":"6鄰","STREET":"喜樹路","SECT":" ","MAREA":" ","LANE":"９５巷","ALLEY":" ","HOUSE_NO":"１號","E_COORD97":165918.89999999999,"N_COORD97":2538316.6000000001,"ADDRESS":"喜樹路９５巷１號","OBJECTID":325322},"geometry":{"x":165918.90000000037,"y":2538316.5999999996}},{"attributes":{"ID":325332,"DIS_CODE":0,"TOWNNAME":"南區","LI":"喜南里","LIN":"4鄰","STREET":"喜樹路","SECT":" ","MAREA":" ","LANE":"３４０巷","ALLEY":" ","HOUSE_NO":"９２號","E_COORD97":165599.59,"N_COORD97":2537758.6699999999,"ADDRESS":"喜樹路３４０巷９２號","OBJECTID":325323},"geometry":{"x":165599.58999999985,"y":2537758.6700000018}},{"attributes":{"ID":325333,"DIS_CODE":0,"TOWNNAME":"南區","LI":"喜南里","LIN":" ","STREET":"喜樹路","SECT":" ","MAREA":" ","LANE":"３４０巷","ALLEY":" ","HOUSE_NO":"４６之１號","E_COORD97":165619.07999999999,"N_COORD97":2537680.4100000001,"ADDRESS":"喜樹路３４０巷４６之１號","OBJECTID":325324},"geometry":{"x":165619.07999999914,"y":2537680.4100000001}},{"attributes":{"ID":325334,"DIS_CODE":0,"TOWNNAME":"麻豆區","LI":"中興里","LIN":"4鄰","STREET":"中興街","SECT":" ","MAREA":" ","LANE":"３巷","ALLEY":" ","HOUSE_NO":"７號","E_COORD97":172939.42000000001,"N_COORD97":2564584.8500000001,"ADDRESS":"中興街３巷７號","OBJECTID":325325},"geometry":{"x":172939.41999999993,"y":2564584.8500000015}},{"attributes":{"ID":325335,"DIS_CODE":0,"TOWNNAME":"南區","LI":"喜南里","LIN":" ","STREET":"喜樹路","SECT":" ","MAREA":" ","LANE":"２２８巷","ALLEY":" ","HOUSE_NO":"６９號","E_COORD97":165550.16,"N_COORD97":2537781.8399999999,"ADDRESS":"喜樹路２２８巷６９號","OBJECTID":325326},"geometry":{"x":165550.16000000015,"y":2537781.8399999999}},{"attributes":{"ID":325336,"DIS_CODE":0,"TOWNNAME":"南區","LI":"喜南里","LIN":"7鄰","STREET":"喜樹路","SECT":" ","MAREA":" ","LANE":"３４０巷","ALLEY":" ","HOUSE_NO":"３１號","E_COORD97":165544.95000000001,"N_COORD97":2537655.0600000001,"ADDRESS":"喜樹路３４０巷３１號","OBJECTID":325327},"geometry":{"x":165544.95000000019,"y":2537655.0600000024}},{"attributes":{"ID":325337,"DIS_CODE":0,"TOWNNAME":"南區","LI":"喜南里","LIN":"7鄰","STREET":"喜樹路","SECT":" ","MAREA":" ","LANE":"３４０巷","ALLEY":" ","HOUSE_NO":"３５號","E_COORD97":165550.91,"N_COORD97":2537666.98,"ADDRESS":"喜樹路３４０巷３５號","OBJECTID":325328},"geometry":{"x":165550.91000000201,"y":2537666.9800000004}},{"attributes":{"ID":325338,"DIS_CODE":0,"TOWNNAME":"南區","LI":"喜南里","LIN":"7鄰","STREET":"喜樹路","SECT":" ","MAREA":" ","LANE":"３４０巷","ALLEY":" ","HOUSE_NO":"３７號","E_COORD97":165531.12,"N_COORD97":2537662.6899999999,"ADDRESS":"喜樹路３４０巷３７號","OBJECTID":325329},"geometry":{"x":165531.12000000104,"y":2537662.6900000013}},{"attributes":{"ID":325339,"DIS_CODE":0,"TOWNNAME":"南區","LI":"喜南里","LIN":"6鄰","STREET":"喜樹路","SECT":" ","MAREA":" ","LANE":"３０２巷","ALLEY":" ","HOUSE_NO":"４１號","E_COORD97":165589.37,"N_COORD97":2537758.9900000002,"ADDRESS":"喜樹路３０２巷４１號","OBJECTID":325330},"geometry":{"x":165589.37000000011,"y":2537758.9899999984}},{"attributes":{"ID":325340,"DIS_CODE":0,"TOWNNAME":"南區","LI":"喜南里","LIN":"6鄰","STREET":"喜樹路","SECT":" ","MAREA":" ","LANE":"３０２巷","ALLEY":" ","HOUSE_NO":"４２號","E_COORD97":165561.85999999999,"N_COORD97":2537777.98,"ADDRESS":"喜樹路３０２巷４２號","OBJECTID":325331},"geometry":{"x":165561.86000000127,"y":2537777.9800000023}},{"attributes":{"ID":325341,"DIS_CODE":0,"TOWNNAME":"南區","LI":"喜南里","LIN":"6鄰","STREET":"喜樹路","SECT":" ","MAREA":" ","LANE":"３０２巷","ALLEY":" ","HOUSE_NO":"４５號","E_COORD97":165568.39000000001,"N_COORD97":2537763.8100000001,"ADDRESS":"喜樹路３０２巷４５號","OBJECTID":325332},"geometry":{"x":165568.38999999966,"y":2537763.8099999987}},{"attributes":{"ID":325342,"DIS_CODE":0,"TOWNNAME":"南區","LI":"喜南里","LIN":"6鄰","STREET":"喜樹路","SECT":" ","MAREA":" ","LANE":"３０２巷","ALLEY":" ","HOUSE_NO":"４７號","E_COORD97":165573.70000000001,"N_COORD97":2537757.79,"ADDRESS":"喜樹路３０２巷４７號","OBJECTID":325333},"geometry":{"x":165573.70000000019,"y":2537757.7899999991}},{"attributes":{"ID":325343,"DIS_CODE":0,"TOWNNAME":"南區","LI":"喜南里","LIN":"6鄰","STREET":"喜樹路","SECT":" ","MAREA":" ","LANE":"３０２巷","ALLEY":" ","HOUSE_NO":"４８號","E_COORD97":165539.91,"N_COORD97":2537757.7799999998,"ADDRESS":"喜樹路３０２巷４８號","OBJECTID":325334},"geometry":{"x":165539.91000000015,"y":2537757.7800000012}},{"attributes":{"ID":325344,"DIS_CODE":0,"TOWNNAME":"南區","LI":"喜南里","LIN":" ","STREET":"喜樹路","SECT":" ","MAREA":" ","LANE":"３４０巷","ALLEY":" ","HOUSE_NO":"６２號之１","E_COORD97":165584.09,"N_COORD97":2537671.3700000001,"ADDRESS":"喜樹路３４０巷６２號之１","OBJECTID":325335},"geometry":{"x":165584.09000000078,"y":2537671.370000001}},{"attributes":{"ID":325345,"DIS_CODE":0,"TOWNNAME":"東山區","LI":"東中里","LIN":"17鄰","STREET":"民治街","SECT":" ","MAREA":" ","LANE":" ","ALLEY":" ","HOUSE_NO":"４２號","E_COORD97":189065.76999999999,"N_COORD97":2579896.9199999999,"ADDRESS":"民治街４２號","OBJECTID":325336},"geometry":{"x":189065.77000000048,"y":2579896.9199999999}},{"attributes":{"ID":325346,"DIS_CODE":0,"TOWNNAME":"東山區","LI":"東中里","LIN":"17鄰","STREET":"民治街","SECT":" ","MAREA":" ","LANE":" ","ALLEY":" ","HOUSE_NO":"４６號","E_COORD97":189065.98000000001,"N_COORD97":2579902.1800000002,"ADDRESS":"民治街４６號","OBJECTID":325337},"geometry":{"x":189065.98000000045,"y":2579902.1799999997}},{"attributes":{"ID":325347,"DIS_CODE":0,"TOWNNAME":"東山區","LI":"東中里","LIN":"17鄰","STREET":"民治街","SECT":" ","MAREA":" ","LANE":" ","ALLEY":" ","HOUSE_NO":"４８號","E_COORD97":189066.48000000001,"N_COORD97":2579907.5299999998,"ADDRESS":"民治街４８號","OBJECTID":325338},"geometry":{"x":189066.48000000231,"y":2579907.5300000012}},{"attributes":{"ID":325348,"DIS_CODE":0,"TOWNNAME":"東山區","LI":"東中里","LIN":"17鄰","STREET":"民治街","SECT":" ","MAREA":" ","LANE":" ","ALLEY":" ","HOUSE_NO":"５０號","E_COORD97":189083.07000000001,"N_COORD97":2579903.6000000001,"ADDRESS":"民治街５０號","OBJECTID":325339},"geometry":{"x":189083.07000000123,"y":2579903.6000000034}},{"attributes":{"ID":325349,"DIS_CODE":0,"TOWNNAME":"東山區","LI":"東中里","LIN":"17鄰","STREET":"青葉路","SECT":"一段","MAREA":" ","LANE":" ","ALLEY":" ","HOUSE_NO":"１７８號","E_COORD97":189101.72,"N_COORD97":2579845.96,"ADDRESS":"青葉路一段１７８號","OBJECTID":325340},"geometry":{"x":189101.72000000067,"y":2579845.9600000028}},{"attributes":{"ID":325350,"DIS_CODE":0,"TOWNNAME":"東山區","LI":"東中里","LIN":"17鄰","STREET":"青葉路","SECT":"一段","MAREA":" ","LANE":" ","ALLEY":" ","HOUSE_NO":"１８０號","E_COORD97":189104.04000000001,"N_COORD97":2579849.4100000001,"ADDRESS":"青葉路一段１８０號","OBJECTID":325341},"geometry":{"x":189104.04000000004,"y":2579849.410000002}},{"attributes":{"ID":325351,"DIS_CODE":0,"TOWNNAME":"東山區","LI":"東中里","LIN":"17鄰","STREET":"青葉路","SECT":"一段","MAREA":" ","LANE":" ","ALLEY":" ","HOUSE_NO":"１８２號","E_COORD97":189106.97,"N_COORD97":2579852.6299999999,"ADDRESS":"青葉路一段１８２號","OBJECTID":325342},"geometry":{"x":189106.97000000067,"y":2579852.6300000008}},{"attributes":{"ID":325352,"DIS_CODE":0,"TOWNNAME":"東山區","LI":"東中里","LIN":"17鄰","STREET":"青葉路","SECT":"一段","MAREA":" ","LANE":" ","ALLEY":" ","HOUSE_NO":"１８６號","E_COORD97":189109.39000000001,"N_COORD97":2579855.6299999999,"ADDRESS":"青葉路一段１８６號","OBJECTID":325343},"geometry":{"x":189109.3900000006,"y":2579855.6300000008}},{"attributes":{"ID":325353,"DIS_CODE":0,"TOWNNAME":"東山區","LI":"東中里","LIN":"17鄰","STREET":"青葉路","SECT":"一段","MAREA":" ","LANE":" ","ALLEY":" ","HOUSE_NO":"１８８號","E_COORD97":189112.07999999999,"N_COORD97":2579858.8799999999,"ADDRESS":"青葉路一段１８８號","OBJECTID":325344},"geometry":{"x":189112.08000000007,"y":2579858.879999999}},{"attributes":{"ID":325354,"DIS_CODE":0,"TOWNNAME":"東山區","LI":"東中里","LIN":"17鄰","STREET":"青葉路","SECT":"一段","MAREA":" ","LANE":" ","ALLEY":" ","HOUSE_NO":"１９０號","E_COORD97":189114.56,"N_COORD97":2579862.2799999998,"ADDRESS":"青葉路一段１９０號","OBJECTID":325345},"geometry":{"x":189114.56000000052,"y":2579862.2800000012}},{"attributes":{"ID":325355,"DIS_CODE":0,"TOWNNAME":"東山區","LI":"東中里","LIN":"17鄰","STREET":"青葉路","SECT":"一段","MAREA":" ","LANE":" ","ALLEY":" ","HOUSE_NO":"１９２號","E_COORD97":189117.17000000001,"N_COORD97":2579865.5099999998,"ADDRESS":"青葉路一段１９２號","OBJECTID":325346},"geometry":{"x":189117.17000000179,"y":2579865.5099999998}},{"attributes":{"ID":325356,"DIS_CODE":0,"TOWNNAME":"山上區","LI":"明和里","LIN":"15鄰","STREET":" ","SECT":" ","MAREA":"明和","LANE":" ","ALLEY":" ","HOUSE_NO":"１１號之１５","E_COORD97":183474.09177599999,"N_COORD97":2555974.85867,"ADDRESS":"明和１１號之１５","OBJECTID":325347},"geometry":{"x":183474.09177600127,"y":2555974.8586729988}},{"attributes":{"ID":325357,"DIS_CODE":0,"TOWNNAME":"東山區","LI":"東中里","LIN":"17鄰","STREET":"青葉路","SECT":"一段","MAREA":" ","LANE":" ","ALLEY":" ","HOUSE_NO":"１９６號","E_COORD97":189119.94,"N_COORD97":2579869.0800000001,"ADDRESS":"青葉路一段１９６號","OBJECTID":325348},"geometry":{"x":189119.94000000134,"y":2579869.0800000001}},{"attributes":{"ID":325358,"DIS_CODE":0,"TOWNNAME":"東山區","LI":"東中里","LIN":"17鄰","STREET":"青葉路","SECT":"一段","MAREA":" ","LANE":" ","ALLEY":" ","HOUSE_NO":"２７１號","E_COORD97":189076.07000000001,"N_COORD97":2579857.4100000001,"ADDRESS":"青葉路一段２７１號","OBJECTID":325349},"geometry":{"x":189076.07000000123,"y":2579857.4100000001}},{"attributes":{"ID":325359,"DIS_CODE":0,"TOWNNAME":"東山區","LI":"東中里","LIN":"17鄰","STREET":"青葉路","SECT":"一段","MAREA":" ","LANE":" ","ALLEY":" ","HOUSE_NO":"２７３號","E_COORD97":189078.75,"N_COORD97":2579860.2400000002,"ADDRESS":"青葉路一段２７３號","OBJECTID":325350},"geometry":{"x":189078.75,"y":2579860.2400000021}},{"attributes":{"ID":325360,"DIS_CODE":0,"TOWNNAME":"東山區","LI":"東中里","LIN":"17鄰","STREET":"青葉路","SECT":"一段","MAREA":" ","LANE":" ","ALLEY":" ","HOUSE_NO":"２７５號","E_COORD97":189081.44,"N_COORD97":2579863.4900000002,"ADDRESS":"青葉路一段２７５號","OBJECTID":325351},"geometry":{"x":189081.44000000041,"y":2579863.4900000002}},{"attributes":{"ID":325361,"DIS_CODE":0,"TOWNNAME":"永康區","LI":"埔園里","LIN":"38鄰","STREET":"龍國街","SECT":" ","MAREA":" ","LANE":"１９８巷","ALLEY":" ","HOUSE_NO":"２２號","E_COORD97":174324.29000000001,"N_COORD97":2547989.0800000001,"ADDRESS":"龍國街１９８巷２２號","OBJECTID":325352},"geometry":{"x":174324.2900000019,"y":2547989.0800000001}},{"attributes":{"ID":325362,"DIS_CODE":0,"TOWNNAME":"永康區","LI":"埔園里","LIN":"18鄰","STREET":"龍埔街","SECT":" ","MAREA":" ","LANE":"４６７巷","ALLEY":" ","HOUSE_NO":"４號","E_COORD97":173525.35000000001,"N_COORD97":2548350.9900000002,"ADDRESS":"龍埔街４６７巷４號","OBJECTID":325353},"geometry":{"x":173525.35000000056,"y":2548350.9900000021}},{"attributes":{"ID":325363,"DIS_CODE":0,"TOWNNAME":"永康區","LI":"埔園里","LIN":"18鄰","STREET":"龍埔街","SECT":" ","MAREA":" ","LANE":"４６７巷","ALLEY":" ","HOUSE_NO":"２６號","E_COORD97":173559.28,"N_COORD97":2548259.2400000002,"ADDRESS":"龍埔街４６７巷２６號","OBJECTID":325354},"geometry":{"x":173559.28000000026,"y":2548259.2400000002}},{"attributes":{"ID":325364,"DIS_CODE":0,"TOWNNAME":"永康區","LI":"埔園里","LIN":"39鄰","STREET":"聖龍街","SECT":" ","MAREA":" ","LANE":"１７９巷","ALLEY":" ","HOUSE_NO":"４１號","E_COORD97":174320.70999999999,"N_COORD97":2547939.6200000001,"ADDRESS":"聖龍街１７９巷４１號","OBJECTID":325355},"geometry":{"x":174320.70999999996,"y":2547939.620000001}},{"attributes":{"ID":325365,"DIS_CODE":0,"TOWNNAME":"永康區","LI":"埔園里","LIN":"34鄰","STREET":"八德街","SECT":" ","MAREA":" ","LANE":"８８巷","ALLEY":" ","HOUSE_NO":"１３號","E_COORD97":174180.72,"N_COORD97":2548557.4300000002,"ADDRESS":"八德街８８巷１３號","OBJECTID":325356},"geometry":{"x":174180.72000000067,"y":2548557.4300000034}},{"attributes":{"ID":325366,"DIS_CODE":0,"TOWNNAME":"永康區","LI":"埔園里","LIN":"4鄰","STREET":"中山路","SECT":" ","MAREA":" ","LANE":"１５８巷","ALLEY":" ","HOUSE_NO":"５０號之９","E_COORD97":173932.48000000001,"N_COORD97":2547849.04,"ADDRESS":"中山路１５８巷５０號之９","OBJECTID":325357},"geometry":{"x":173932.48000000138,"y":2547849.040000001}},{"attributes":{"ID":325367,"DIS_CODE":0,"TOWNNAME":"永康區","LI":"埔園里","LIN":"4鄰","STREET":"自強路","SECT":" ","MAREA":" ","LANE":"４６８巷","ALLEY":" ","HOUSE_NO":"２９號","E_COORD97":173969.53,"N_COORD97":2547828.2400000002,"ADDRESS":"自強路４６８巷２９號","OBJECTID":325358},"geometry":{"x":173969.53000000026,"y":2547828.2400000021}},{"attributes":{"ID":325368,"DIS_CODE":0,"TOWNNAME":"麻豆區","LI":"中興里","LIN":"4鄰","STREET":"中興街","SECT":" ","MAREA":" ","LANE":"３巷","ALLEY":" ","HOUSE_NO":"８號","E_COORD97":172925.48000000001,"N_COORD97":2564592.2000000002,"ADDRESS":"中興街３巷８號","OBJECTID":325359},"geometry":{"x":172925.48000000138,"y":2564592.2000000011}},{"attributes":{"ID":325369,"DIS_CODE":0,"TOWNNAME":"永康區","LI":"埔園里","LIN":"26鄰","STREET":"自強路","SECT":" ","MAREA":" ","LANE":"４１７巷","ALLEY":" ","HOUSE_NO":"１３號","E_COORD97":173753.16,"N_COORD97":2548017.1699999999,"ADDRESS":"自強路４１７巷１３號","OBJECTID":325360},"geometry":{"x":173753.16000000015,"y":2548017.1700000018}},{"attributes":{"ID":325370,"DIS_CODE":0,"TOWNNAME":"永康區","LI":"埔園里","LIN":"4鄰","STREET":"自強路","SECT":" ","MAREA":" ","LANE":"４６８巷","ALLEY":" ","HOUSE_NO":"２８號","E_COORD97":173962.69,"N_COORD97":2547832.2400000002,"ADDRESS":"自強路４６８巷２８號","OBJECTID":325361},"geometry":{"x":173962.69000000134,"y":2547832.2400000002}},{"attributes":{"ID":325371,"DIS_CODE":0,"TOWNNAME":"永康區","LI":"埔園里","LIN":"18鄰","STREET":"龍埔街","SECT":" ","MAREA":" ","LANE":"４６７巷","ALLEY":" ","HOUSE_NO":"１４號","E_COORD97":173542.51999999999,"N_COORD97":2548296.25,"ADDRESS":"龍埔街４６７巷１４號","OBJECTID":325362},"geometry":{"x":173542.52000000048,"y":2548296.25}},{"attributes":{"ID":325372,"DIS_CODE":0,"TOWNNAME":"永康區","LI":"東橋里","LIN":"20鄰","STREET":"自強路","SECT":" ","MAREA":" ","LANE":"２２巷","ALLEY":" ","HOUSE_NO":"２號","E_COORD97":172743.73000000001,"N_COORD97":2547129.21,"ADDRESS":"自強路２２巷２號","OBJECTID":325363},"geometry":{"x":172743.73000000138,"y":2547129.209999999}},{"attributes":{"ID":325373,"DIS_CODE":0,"TOWNNAME":"東山區","LI":"東中里","LIN":"17鄰","STREET":"青葉路","SECT":"一段","MAREA":" ","LANE":" ","ALLEY":" ","HOUSE_NO":"２７７號","E_COORD97":189083.81,"N_COORD97":2579866.46,"ADDRESS":"青葉路一段２７７號","OBJECTID":325364},"geometry":{"x":189083.81000000052,"y":2579866.4600000028}},{"attributes":{"ID":325374,"DIS_CODE":0,"TOWNNAME":"東山區","LI":"東中里","LIN":"17鄰","STREET":"青葉路","SECT":"一段","MAREA":" ","LANE":" ","ALLEY":" ","HOUSE_NO":"２７９號","E_COORD97":189086.54999999999,"N_COORD97":2579869.3599999999,"ADDRESS":"青葉路一段２７９號","OBJECTID":325365},"geometry":{"x":189086.54999999981,"y":2579869.3599999994}},{"attributes":{"ID":325375,"DIS_CODE":0,"TOWNNAME":"東山區","LI":"東中里","LIN":"17鄰","STREET":"青葉路","SECT":"一段","MAREA":" ","LANE":" ","ALLEY":" ","HOUSE_NO":"２８１號","E_COORD97":189088.72,"N_COORD97":2579872.3100000001,"ADDRESS":"青葉路一段２８１號","OBJECTID":325366},"geometry":{"x":189088.71999999974,"y":2579872.3099999987}},{"attributes":{"ID":325376,"DIS_CODE":0,"TOWNNAME":"東山區","LI":"東中里","LIN":"17鄰","STREET":"青葉路","SECT":"一段","MAREA":" ","LANE":" ","ALLEY":" ","HOUSE_NO":"２８３號","E_COORD97":189091.62,"N_COORD97":2579875.8500000001,"ADDRESS":"青葉路一段２８３號","OBJECTID":325367},"geometry":{"x":189091.62000000011,"y":2579875.8500000015}},{"attributes":{"ID":325377,"DIS_CODE":0,"TOWNNAME":"東山區","LI":"東中里","LIN":"17鄰","STREET":"青葉路","SECT":"一段","MAREA":" ","LANE":" ","ALLEY":" ","HOUSE_NO":"２８５號","E_COORD97":189094.45999999999,"N_COORD97":2579878.77,"ADDRESS":"青葉路一段２８５號","OBJECTID":325368},"geometry":{"x":189094.45999999996,"y":2579878.7700000033}},{"attributes":{"ID":325378,"DIS_CODE":0,"TOWNNAME":"東山區","LI":"東中里","LIN":"17鄰","STREET":"青葉路","SECT":"一段","MAREA":" ","LANE":" ","ALLEY":" ","HOUSE_NO":"２８７號","E_COORD97":189097.01999999999,"N_COORD97":2579882.48,"ADDRESS":"青葉路一段２８７號","OBJECTID":325369},"geometry":{"x":189097.01999999955,"y":2579882.4800000023}},{"attributes":{"ID":325379,"DIS_CODE":0,"TOWNNAME":"東山區","LI":"東中里","LIN":"17鄰","STREET":"青葉路","SECT":"一段","MAREA":" ","LANE":" ","ALLEY":" ","HOUSE_NO":"２８９號","E_COORD97":189099.89999999999,"N_COORD97":2579886.1200000001,"ADDRESS":"青葉路一段２８９號","OBJECTID":325370},"geometry":{"x":189099.9000000013,"y":2579886.1200000029}},{"attributes":{"ID":325380,"DIS_CODE":0,"TOWNNAME":"東山區","LI":"東中里","LIN":"17鄰","STREET":"青葉路","SECT":"一段","MAREA":" ","LANE":" ","ALLEY":" ","HOUSE_NO":"２９１號","E_COORD97":189104.06,"N_COORD97":2579895.9700000002,"ADDRESS":"青葉路一段２９１號","OBJECTID":325371},"geometry":{"x":189104.06000000145,"y":2579895.9700000025}},{"attributes":{"ID":325381,"DIS_CODE":0,"TOWNNAME":"東山區","LI":"東中里","LIN":"17鄰","STREET":"青葉路","SECT":"一段","MAREA":" ","LANE":" ","ALLEY":" ","HOUSE_NO":"２９３號","E_COORD97":189104.12,"N_COORD97":2579899.0499999998,"ADDRESS":"青葉路一段２９３號","OBJECTID":325372},"geometry":{"x":189104.12000000197,"y":2579899.0500000026}},{"attributes":{"ID":325382,"DIS_CODE":0,"TOWNNAME":"東山區","LI":"東中里","LIN":"17鄰","STREET":"青葉路","SECT":"一段","MAREA":" ","LANE":" ","ALLEY":" ","HOUSE_NO":"２９５號","E_COORD97":189104.70999999999,"N_COORD97":2579902.5,"ADDRESS":"青葉路一段２９５號","OBJECTID":325373},"geometry":{"x":189104.70999999996,"y":2579902.5000000019}},{"attributes":{"ID":325383,"DIS_CODE":0,"TOWNNAME":"鹽水區","LI":"水正里","LIN":"17鄰","STREET":"中正路","SECT":" ","MAREA":" ","LANE":" ","ALLEY":" ","HOUSE_NO":"１４６號","E_COORD97":175028.72,"N_COORD97":2579682.6899999999,"ADDRESS":"中正路１４６號","OBJECTID":325374},"geometry":{"x":175028.72000000067,"y":2579682.6900000013}},{"attributes":{"ID":325384,"DIS_CODE":0,"TOWNNAME":"鹽水區","LI":"橋南里","LIN":"17鄰","STREET":"仁愛路","SECT":" ","MAREA":" ","LANE":" ","ALLEY":" ","HOUSE_NO":"１１２號之１","E_COORD97":174296.45999999999,"N_COORD97":2579162.3500000001,"ADDRESS":"仁愛路１１２號之１","OBJECTID":325375},"geometry":{"x":174296.46000000089,"y":2579162.3499999996}},{"attributes":{"ID":325385,"DIS_CODE":0,"TOWNNAME":"永康區","LI":"埔園里","LIN":"25鄰","STREET":"自強路","SECT":" ","MAREA":" ","LANE":"４１７巷","ALLEY":" ","HOUSE_NO":"４０號","E_COORD97":173742.85000000001,"N_COORD97":2548086.9100000001,"ADDRESS":"自強路４１７巷４０號","OBJECTID":325376},"geometry":{"x":173742.84999999963,"y":2548086.9100000039}},{"attributes":{"ID":325386,"DIS_CODE":0,"TOWNNAME":"永康區","LI":"南灣里","LIN":"8鄰","STREET":"南興路","SECT":" ","MAREA":" ","LANE":"４８巷","ALLEY":" ","HOUSE_NO":"５號","E_COORD97":174328.14000000001,"N_COORD97":2544151.9500000002,"ADDRESS":"南興路４８巷５號","OBJECTID":325377},"geometry":{"x":174328.13999999873,"y":2544151.9499999993}},{"attributes":{"ID":325387,"DIS_CODE":0,"TOWNNAME":"永康區","LI":"烏竹里","LIN":"7鄰","STREET":"龍橋街","SECT":" ","MAREA":" ","LANE":"４５９巷","ALLEY":" ","HOUSE_NO":"２７號","E_COORD97":174296.09,"N_COORD97":2549294.2400000002,"ADDRESS":"龍橋街４５９巷２７號","OBJECTID":325378},"geometry":{"x":174296.08999999985,"y":2549294.2400000002}},{"attributes":{"ID":325388,"DIS_CODE":0,"TOWNNAME":"永康區","LI":"烏竹里","LIN":"7鄰","STREET":"龍橋街","SECT":" ","MAREA":" ","LANE":"４５９巷","ALLEY":" ","HOUSE_NO":"２６號","E_COORD97":174300.48999999999,"N_COORD97":2549317.0800000001,"ADDRESS":"龍橋街４５９巷２６號","OBJECTID":325379},"geometry":{"x":174300.49000000022,"y":2549317.0800000019}},{"attributes":{"ID":325389,"DIS_CODE":0,"TOWNNAME":"永康區","LI":"神洲里","LIN":"4鄰","STREET":"忠孝路","SECT":" ","MAREA":" ","LANE":"３６巷","ALLEY":" ","HOUSE_NO":"１號","E_COORD97":172097.48999999999,"N_COORD97":2544678.0099999998,"ADDRESS":"忠孝路３６巷１號","OBJECTID":325380},"geometry":{"x":172097.49000000115,"y":2544678.0099999998}},{"attributes":{"ID":325390,"DIS_CODE":0,"TOWNNAME":"永康區","LI":"埔園里","LIN":"4鄰","STREET":"中山路","SECT":" ","MAREA":" ","LANE":"１５８巷","ALLEY":" ","HOUSE_NO":"５０號之４","E_COORD97":173932.42000000001,"N_COORD97":2547849.04,"ADDRESS":"中山路１５８巷５０號之４","OBJECTID":325381},"geometry":{"x":173932.42000000086,"y":2547849.040000001}},{"attributes":{"ID":325391,"DIS_CODE":0,"TOWNNAME":"永康區","LI":"埔園里","LIN":"18鄰","STREET":"龍埔街","SECT":" ","MAREA":" ","LANE":"４６７巷","ALLEY":" ","HOUSE_NO":"２號","E_COORD97":173524.23999999999,"N_COORD97":2548355.2400000002,"ADDRESS":"龍埔街４６７巷２號","OBJECTID":325382},"geometry":{"x":173524.24000000022,"y":2548355.2400000002}},{"attributes":{"ID":325392,"DIS_CODE":0,"TOWNNAME":"永康區","LI":"埔園里","LIN":"26鄰","STREET":"自強路","SECT":" ","MAREA":" ","LANE":"４１７巷","ALLEY":" ","HOUSE_NO":"２５號","E_COORD97":173744.45000000001,"N_COORD97":2548041.1699999999,"ADDRESS":"自強路４１７巷２５號","OBJECTID":325383},"geometry":{"x":173744.45000000019,"y":2548041.1700000018}},{"attributes":{"ID":325393,"DIS_CODE":0,"TOWNNAME":"東區","LI":"東安里","LIN":"15鄰","STREET":"長榮路","SECT":"二段","MAREA":" ","LANE":"３２巷","ALLEY":" ","HOUSE_NO":"１６２號二樓之２","E_COORD97":170184.60000000001,"N_COORD97":2543077.5299999998,"ADDRESS":"長榮路二段３２巷１６２號二樓之２","OBJECTID":325384},"geometry":{"x":170184.59999999963,"y":2543077.5300000031}},{"attributes":{"ID":325394,"DIS_CODE":0,"TOWNNAME":"東區","LI":"東安里","LIN":"15鄰","STREET":"長榮路","SECT":"二段","MAREA":" ","LANE":"３２巷","ALLEY":" ","HOUSE_NO":"１６２號二樓之２０","E_COORD97":170184.60000000001,"N_COORD97":2543077.5299999998,"ADDRESS":"長榮路二段３２巷１６２號二樓之２０","OBJECTID":325385},"geometry":{"x":170184.59999999963,"y":2543077.5300000031}},{"attributes":{"ID":325395,"DIS_CODE":0,"TOWNNAME":"東區","LI":"東安里","LIN":"15鄰","STREET":"長榮路","SECT":"二段","MAREA":" ","LANE":"３２巷","ALLEY":" ","HOUSE_NO":"１６２號二樓之２１","E_COORD97":170184.60000000001,"N_COORD97":2543077.5299999998,"ADDRESS":"長榮路二段３２巷１６２號二樓之２１","OBJECTID":325386},"geometry":{"x":170184.59999999963,"y":2543077.5300000031}},{"attributes":{"ID":325396,"DIS_CODE":0,"TOWNNAME":"東區","LI":"東安里","LIN":"15鄰","STREET":"長榮路","SECT":"二段","MAREA":" ","LANE":"３２巷","ALLEY":" ","HOUSE_NO":"１６２號二樓之２２","E_COORD97":170184.60000000001,"N_COORD97":2543077.5299999998,"ADDRESS":"長榮路二段３２巷１６２號二樓之２２","OBJECTID":325387},"geometry":{"x":170184.59999999963,"y":2543077.5300000031}},{"attributes":{"ID":325397,"DIS_CODE":0,"TOWNNAME":"東區","LI":"東安里","LIN":"15鄰","STREET":"長榮路","SECT":"二段","MAREA":" ","LANE":"３２巷","ALLEY":" ","HOUSE_NO":"１６２號二樓之３","E_COORD97":170184.60000000001,"N_COORD97":2543077.5299999998,"ADDRESS":"長榮路二段３２巷１６２號二樓之３","OBJECTID":325388},"geometry":{"x":170184.59999999963,"y":2543077.5300000031}},{"attributes":{"ID":325398,"DIS_CODE":0,"TOWNNAME":"東區","LI":"東安里","LIN":"15鄰","STREET":"長榮路","SECT":"二段","MAREA":" ","LANE":"３２巷","ALLEY":" ","HOUSE_NO":"１６２號二樓之４","E_COORD97":170184.60000000001,"N_COORD97":2543077.5299999998,"ADDRESS":"長榮路二段３２巷１６２號二樓之４","OBJECTID":325389},"geometry":{"x":170184.59999999963,"y":2543077.5300000031}},{"attributes":{"ID":325399,"DIS_CODE":0,"TOWNNAME":"東區","LI":"東安里","LIN":"15鄰","STREET":"長榮路","SECT":"二段","MAREA":" ","LANE":"３２巷","ALLEY":" ","HOUSE_NO":"１６２號二樓之５","E_COORD97":170184.60000000001,"N_COORD97":2543077.5299999998,"ADDRESS":"長榮路二段３２巷１６２號二樓之５","OBJECTID":325390},"geometry":{"x":170184.59999999963,"y":2543077.5300000031}},{"attributes":{"ID":325400,"DIS_CODE":0,"TOWNNAME":"鹽水區","LI":"橋南里","LIN":"17鄰","STREET":"仁愛路","SECT":" ","MAREA":" ","LANE":" ","ALLEY":" ","HOUSE_NO":"１１２號","E_COORD97":174186.89000000001,"N_COORD97":2579155.3199999998,"ADDRESS":"仁愛路１１２號","OBJECTID":325391},"geometry":{"x":174186.88999999966,"y":2579155.3200000003}},{"attributes":{"ID":325401,"DIS_CODE":0,"TOWNNAME":"鹽水區","LI":"橋南里","LIN":"17鄰","STREET":"仁愛路","SECT":" ","MAREA":" ","LANE":" ","ALLEY":" ","HOUSE_NO":"１９２號","E_COORD97":174169.62,"N_COORD97":2579360.1600000001,"ADDRESS":"仁愛路１９２號","OBJECTID":325392},"geometry":{"x":174169.62000000197,"y":2579360.1600000001}},{"attributes":{"ID":325402,"DIS_CODE":0,"TOWNNAME":"鹽水區","LI":"橋南里","LIN":"17鄰","STREET":"仁愛路","SECT":" ","MAREA":" ","LANE":" ","ALLEY":" ","HOUSE_NO":"１號","E_COORD97":174682.44,"N_COORD97":2578901.3500000001,"ADDRESS":"仁愛路１號","OBJECTID":325393},"geometry":{"x":174682.44000000041,"y":2578901.3499999996}},{"attributes":{"ID":325403,"DIS_CODE":0,"TOWNNAME":"鹽水區","LI":"橋南里","LIN":"17鄰","STREET":"仁愛路","SECT":" ","MAREA":" ","LANE":" ","ALLEY":" ","HOUSE_NO":"２６號","E_COORD97":174398.01000000001,"N_COORD97":2578992.3500000001,"ADDRESS":"仁愛路２６號","OBJECTID":325394},"geometry":{"x":174398.00999999978,"y":2578992.3499999996}},{"attributes":{"ID":325404,"DIS_CODE":0,"TOWNNAME":"鹽水區","LI":"橋南里","LIN":"17鄰","STREET":"仁愛路","SECT":" ","MAREA":" ","LANE":" ","ALLEY":" ","HOUSE_NO":"６號","E_COORD97":174686.04999999999,"N_COORD97":2579014.52,"ADDRESS":"仁愛路６號","OBJECTID":325395},"geometry":{"x":174686.04999999981,"y":2579014.5199999996}},{"attributes":{"ID":325405,"DIS_CODE":0,"TOWNNAME":"鹽水區","LI":"橋南里","LIN":"17鄰","STREET":"月津路","SECT":" ","MAREA":" ","LANE":" ","ALLEY":" ","HOUSE_NO":"２０號","E_COORD97":174908.54999999999,"N_COORD97":2579306.2200000002,"ADDRESS":"月津路２０號","OBJECTID":325396},"geometry":{"x":174908.54999999981,"y":2579306.2200000007}},{"attributes":{"ID":325406,"DIS_CODE":0,"TOWNNAME":"鹽水區","LI":"橋南里","LIN":"17鄰","STREET":"月津路","SECT":" ","MAREA":" ","LANE":" ","ALLEY":" ","HOUSE_NO":"２２號","E_COORD97":174903.62,"N_COORD97":2579296.7400000002,"ADDRESS":"月津路２２號","OBJECTID":325397},"geometry":{"x":174903.62000000197,"y":2579296.7400000021}},{"attributes":{"ID":325407,"DIS_CODE":0,"TOWNNAME":"鹽水區","LI":"橋南里","LIN":"17鄰","STREET":"月津路","SECT":" ","MAREA":" ","LANE":" ","ALLEY":" ","HOUSE_NO":"２４號之２","E_COORD97":174893.42999999999,"N_COORD97":2579280.23,"ADDRESS":"月津路２４號之２","OBJECTID":325398},"geometry":{"x":174893.4299999997,"y":2579280.2300000023}},{"attributes":{"ID":325408,"DIS_CODE":0,"TOWNNAME":"鹽水區","LI":"橋南里","LIN":"17鄰","STREET":"月津路","SECT":" ","MAREA":" ","LANE":" ","ALLEY":" ","HOUSE_NO":"２４號","E_COORD97":174909.20999999999,"N_COORD97":2579285.6699999999,"ADDRESS":"月津路２４號","OBJECTID":325399},"geometry":{"x":174909.20999999996,"y":2579285.6699999999}},{"attributes":{"ID":325409,"DIS_CODE":0,"TOWNNAME":"永康區","LI":"東橋里","LIN":"26鄰","STREET":"中正路","SECT":" ","MAREA":" ","LANE":"２７９巷","ALLEY":" ","HOUSE_NO":"１７號","E_COORD97":172566.67999999999,"N_COORD97":2547991.5,"ADDRESS":"中正路２７９巷１７號","OBJECTID":325400},"geometry":{"x":172566.68000000156,"y":2547991.5000000019}}]}