{"displayFieldName":"TOWNNAME","fieldAliases":{"ID":"ID","DIS_CODE":"DIS_CODE","TOWNNAME":"TOWNNAME","LI":"LI","LIN":"LIN","STREET":"STREET","SECT":"SECT","MAREA":"MAREA","LANE":"LANE","ALLEY":"ALLEY","HOUSE_NO":"HOUSE_NO","E_COORD97":"E_COORD97","N_COORD97":"N_COORD97","ADDRESS":"ADDRESS","OBJECTID":"OBJECTID"},"geometryType":"esriGeometryPoint","spatialReference":{"wkid":102443,"latestWkid":3826},"fields":[{"name":"ID","type":"esriFieldTypeDouble","alias":"ID"},{"name":"DIS_CODE","type":"esriFieldTypeInteger","alias":"DIS_CODE"},{"name":"TOWNNAME","type":"esriFieldTypeString","alias":"TOWNNAME","length":8},{"name":"LI","type":"esriFieldTypeString","alias":"LI","length":8},{"name":"LIN","type":"esriFieldTypeString","alias":"LIN","length":12},{"name":"STREET","type":"esriFieldTypeString","alias":"STREET","length":20},{"name":"SECT","type":"esriFieldTypeString","alias":"SECT","length":8},{"name":"MAREA","type":"esriFieldTypeString","alias":"MAREA","length":12},{"name":"LANE","type":"esriFieldTypeString","alias":"LANE","length":10},{"name":"ALLEY","type":"esriFieldTypeString","alias":"ALLEY","length":10},{"name":"HOUSE_NO","type":"esriFieldTypeString","alias":"HOUSE_NO","length":20},{"name":"E_COORD97","type":"esriFieldTypeDouble","alias":"E_COORD97"},{"name":"N_COORD97","type":"esriFieldTypeDouble","alias":"N_COORD97"},{"name":"ADDRESS","type":"esriFieldTypeString","alias":"ADDRESS","length":50},{"name":"OBJECTID","type":"esriFieldTypeOID","alias":"OBJECTID"}],"features":[{"attributes":{"ID":375411,"DIS_CODE":0,"TOWNNAME":"六甲區","LI":"水林里","LIN":"10鄰","STREET":"民族街","SECT":" ","MAREA":" ","LANE":"３１５巷","ALLEY":" ","HOUSE_NO":"２１號","E_COORD97":183067.57999999999,"N_COORD97":2570316.4100000001,"ADDRESS":"民族街３１５巷２１號","OBJECTID":375401},"geometry":{"x":183067.58000000007,"y":2570316.4100000001}},{"attributes":{"ID":375412,"DIS_CODE":0,"TOWNNAME":"六甲區","LI":"水林里","LIN":"10鄰","STREET":"民族街","SECT":" ","MAREA":" ","LANE":"３１５巷","ALLEY":" ","HOUSE_NO":"２３號","E_COORD97":183073.37,"N_COORD97":2570317.21,"ADDRESS":"民族街３１５巷２３號","OBJECTID":375402},"geometry":{"x":183073.37000000104,"y":2570317.2100000028}},{"attributes":{"ID":375413,"DIS_CODE":0,"TOWNNAME":"六甲區","LI":"水林里","LIN":"10鄰","STREET":"民族街","SECT":" ","MAREA":" ","LANE":"３１５巷","ALLEY":" ","HOUSE_NO":"３號","E_COORD97":183027.98000000001,"N_COORD97":2570311.4100000001,"ADDRESS":"民族街３１５巷３號","OBJECTID":375403},"geometry":{"x":183027.98000000045,"y":2570311.410000002}},{"attributes":{"ID":375414,"DIS_CODE":0,"TOWNNAME":"六甲區","LI":"水林里","LIN":"10鄰","STREET":"民族街","SECT":" ","MAREA":" ","LANE":"３１５巷","ALLEY":" ","HOUSE_NO":"５號","E_COORD97":183049.82000000001,"N_COORD97":2570294.4100000001,"ADDRESS":"民族街３１５巷５號","OBJECTID":375404},"geometry":{"x":183049.82000000123,"y":2570294.410000002}},{"attributes":{"ID":375415,"DIS_CODE":0,"TOWNNAME":"六甲區","LI":"水林里","LIN":"10鄰","STREET":"民族街","SECT":" ","MAREA":" ","LANE":"３１５巷","ALLEY":" ","HOUSE_NO":"７號","E_COORD97":183056.62,"N_COORD97":2570262.8500000001,"ADDRESS":"民族街３１５巷７號","OBJECTID":375405},"geometry":{"x":183056.62000000011,"y":2570262.8499999978}},{"attributes":{"ID":375416,"DIS_CODE":0,"TOWNNAME":"六甲區","LI":"水林里","LIN":"10鄰","STREET":"民族街","SECT":" ","MAREA":" ","LANE":"３１５巷","ALLEY":" ","HOUSE_NO":"９號","E_COORD97":183043.73999999999,"N_COORD97":2570275.6499999999,"ADDRESS":"民族街３１５巷９號","OBJECTID":375406},"geometry":{"x":183043.74000000115,"y":2570275.6500000022}},{"attributes":{"ID":375417,"DIS_CODE":0,"TOWNNAME":"新營區","LI":"王公里","LIN":"10鄰","STREET":"民族路","SECT":" ","MAREA":" ","LANE":"１０６巷","ALLEY":" ","HOUSE_NO":"３號","E_COORD97":180405.64000000001,"N_COORD97":2579197.6099999999,"ADDRESS":"民族路１０６巷３號","OBJECTID":375407},"geometry":{"x":180405.6400000006,"y":2579197.6099999994}},{"attributes":{"ID":375418,"DIS_CODE":0,"TOWNNAME":"新營區","LI":"新北里","LIN":"10鄰","STREET":"長榮路","SECT":"二段","MAREA":" ","LANE":"２７１巷","ALLEY":" ","HOUSE_NO":"８號","E_COORD97":179245.39999999999,"N_COORD97":2579764.6000000001,"ADDRESS":"長榮路二段２７１巷８號","OBJECTID":375408},"geometry":{"x":179245.4000000013,"y":2579764.6000000034}},{"attributes":{"ID":375419,"DIS_CODE":0,"TOWNNAME":"新營區","LI":"新東里","LIN":"10鄰","STREET":"東仁街","SECT":" ","MAREA":" ","LANE":"８２巷","ALLEY":" ","HOUSE_NO":"５２號","E_COORD97":181425.73999999999,"N_COORD97":2579682.3599999999,"ADDRESS":"東仁街８２巷５２號","OBJECTID":375409},"geometry":{"x":181425.74000000022,"y":2579682.3600000013}},{"attributes":{"ID":375420,"DIS_CODE":0,"TOWNNAME":"新營區","LI":"大宏里","LIN":"10鄰","STREET":"民治路","SECT":" ","MAREA":" ","LANE":"２９巷","ALLEY":" ","HOUSE_NO":"６號","E_COORD97":180174.76000000001,"N_COORD97":2578838.7799999998,"ADDRESS":"民治路２９巷６號","OBJECTID":375410},"geometry":{"x":180174.76000000071,"y":2578838.7800000012}},{"attributes":{"ID":375421,"DIS_CODE":0,"TOWNNAME":"新營區","LI":"新東里","LIN":"10鄰","STREET":"東仁街","SECT":" ","MAREA":" ","LANE":"８２巷","ALLEY":" ","HOUSE_NO":"２６號","E_COORD97":181382.91,"N_COORD97":2579699.1699999999,"ADDRESS":"東仁街８２巷２６號","OBJECTID":375411},"geometry":{"x":181382.91000000108,"y":2579699.1699999999}},{"attributes":{"ID":375422,"DIS_CODE":0,"TOWNNAME":"新營區","LI":"南興里","LIN":"10鄰","STREET":"和平路","SECT":" ","MAREA":" ","LANE":"１０４巷","ALLEY":" ","HOUSE_NO":"１４之１號","E_COORD97":179368.48999999999,"N_COORD97":2577566.8799999999,"ADDRESS":"和平路１０４巷１４之１號","OBJECTID":375412},"geometry":{"x":179368.49000000115,"y":2577566.879999999}},{"attributes":{"ID":375423,"DIS_CODE":0,"TOWNNAME":"新營區","LI":"民生里","LIN":"10鄰","STREET":"復興路","SECT":" ","MAREA":" ","LANE":"１４８巷","ALLEY":" ","HOUSE_NO":"６之２號","E_COORD97":179248.13,"N_COORD97":2578114.54,"ADDRESS":"復興路１４８巷６之２號","OBJECTID":375413},"geometry":{"x":179248.13000000082,"y":2578114.540000001}},{"attributes":{"ID":375424,"DIS_CODE":0,"TOWNNAME":"新營區","LI":"南紙里","LIN":"10鄰","STREET":"南紙街","SECT":" ","MAREA":" ","LANE":"７４巷","ALLEY":" ","HOUSE_NO":"６號","E_COORD97":177780.60999999999,"N_COORD97":2577644.2400000002,"ADDRESS":"南紙街７４巷６號","OBJECTID":375414},"geometry":{"x":177780.6100000022,"y":2577644.2400000002}},{"attributes":{"ID":375425,"DIS_CODE":0,"TOWNNAME":"新營區","LI":"新南里","LIN":"10鄰","STREET":"新北五街","SECT":" ","MAREA":" ","LANE":"１４３巷","ALLEY":" ","HOUSE_NO":"１５號","E_COORD97":178528.48000000001,"N_COORD97":2579105.7799999998,"ADDRESS":"新北五街１４３巷１５號","OBJECTID":375415},"geometry":{"x":178528.48000000045,"y":2579105.7800000012}},{"attributes":{"ID":375426,"DIS_CODE":0,"TOWNNAME":"新營區","LI":"南興里","LIN":"10鄰","STREET":"和平路","SECT":" ","MAREA":" ","LANE":"１０４巷","ALLEY":" ","HOUSE_NO":"２４號","E_COORD97":179341.51000000001,"N_COORD97":2577566.9500000002,"ADDRESS":"和平路１０４巷２４號","OBJECTID":375416},"geometry":{"x":179341.50999999978,"y":2577566.9499999993}},{"attributes":{"ID":375427,"DIS_CODE":0,"TOWNNAME":"北區","LI":"國姓里","LIN":"10鄰","STREET":"西門路","SECT":"四段","MAREA":" ","LANE":"１１０巷","ALLEY":" ","HOUSE_NO":"２３號","E_COORD97":168825.92000000001,"N_COORD97":2545394.0499999998,"ADDRESS":"西門路四段１１０巷２３號","OBJECTID":375417},"geometry":{"x":168825.92000000086,"y":2545394.0500000007}},{"attributes":{"ID":375428,"DIS_CODE":0,"TOWNNAME":"北區","LI":"國姓里","LIN":"10鄰","STREET":"西門路","SECT":"四段","MAREA":" ","LANE":"１１０巷","ALLEY":" ","HOUSE_NO":"２４號","E_COORD97":168801.82000000001,"N_COORD97":2545372.7799999998,"ADDRESS":"西門路四段１１０巷２４號","OBJECTID":375418},"geometry":{"x":168801.82000000123,"y":2545372.7799999993}},{"attributes":{"ID":375429,"DIS_CODE":0,"TOWNNAME":"北區","LI":"國姓里","LIN":"10鄰","STREET":"西門路","SECT":"四段","MAREA":" ","LANE":"１１０巷","ALLEY":" ","HOUSE_NO":"２６號","E_COORD97":168801.47,"N_COORD97":2545369.6400000001,"ADDRESS":"西門路四段１１０巷２６號","OBJECTID":375419},"geometry":{"x":168801.4700000016,"y":2545369.6399999987}},{"attributes":{"ID":375430,"DIS_CODE":0,"TOWNNAME":"北區","LI":"國姓里","LIN":"10鄰","STREET":"西門路","SECT":"四段","MAREA":" ","LANE":"１１０巷","ALLEY":" ","HOUSE_NO":"３號","E_COORD97":168767.95999999999,"N_COORD97":2545434.5099999998,"ADDRESS":"西門路四段１１０巷３號","OBJECTID":375420},"geometry":{"x":168767.96000000183,"y":2545434.5100000035}},{"attributes":{"ID":375431,"DIS_CODE":0,"TOWNNAME":"北區","LI":"國姓里","LIN":"10鄰","STREET":"西門路","SECT":"四段","MAREA":" ","LANE":"１１０巷","ALLEY":" ","HOUSE_NO":"５號","E_COORD97":168773.54000000001,"N_COORD97":2545428.5800000001,"ADDRESS":"西門路四段１１０巷５號","OBJECTID":375421},"geometry":{"x":168773.54000000004,"y":2545428.5800000019}},{"attributes":{"ID":375432,"DIS_CODE":0,"TOWNNAME":"北區","LI":"國姓里","LIN":"10鄰","STREET":"西門路","SECT":"四段","MAREA":" ","LANE":"１１０巷","ALLEY":" ","HOUSE_NO":"６號","E_COORD97":168768.29999999999,"N_COORD97":2545400.3300000001,"ADDRESS":"西門路四段１１０巷６號","OBJECTID":375422},"geometry":{"x":168768.29999999981,"y":2545400.3300000001}},{"attributes":{"ID":375433,"DIS_CODE":0,"TOWNNAME":"北區","LI":"國姓里","LIN":"10鄰","STREET":"西門路","SECT":"四段","MAREA":" ","LANE":"１１０巷","ALLEY":" ","HOUSE_NO":"７號","E_COORD97":168778.78,"N_COORD97":2545426.8399999999,"ADDRESS":"西門路四段１１０巷７號","OBJECTID":375423},"geometry":{"x":168778.78000000026,"y":2545426.8400000017}},{"attributes":{"ID":375434,"DIS_CODE":0,"TOWNNAME":"北區","LI":"國姓里","LIN":"10鄰","STREET":"西門路","SECT":"四段","MAREA":" ","LANE":"１１０巷","ALLEY":" ","HOUSE_NO":"８號","E_COORD97":168778.07999999999,"N_COORD97":2545396.8399999999,"ADDRESS":"西門路四段１１０巷８號","OBJECTID":375424},"geometry":{"x":168778.08000000101,"y":2545396.8399999999}},{"attributes":{"ID":375435,"DIS_CODE":0,"TOWNNAME":"北區","LI":"國姓里","LIN":"10鄰","STREET":"西門路","SECT":"四段","MAREA":" ","LANE":"１１０巷","ALLEY":" ","HOUSE_NO":"９號","E_COORD97":168782.26999999999,"N_COORD97":2545423,"ADDRESS":"西門路四段１１０巷９號","OBJECTID":375425},"geometry":{"x":168782.27000000142,"y":2545423}},{"attributes":{"ID":375436,"DIS_CODE":0,"TOWNNAME":"北區","LI":"國姓里","LIN":"10鄰","STREET":"小北路","SECT":" ","MAREA":" ","LANE":"２７巷","ALLEY":" ","HOUSE_NO":"３９號","E_COORD97":168804.97,"N_COORD97":2545347.2200000002,"ADDRESS":"小北路２７巷３９號","OBJECTID":375426},"geometry":{"x":168804.9700000016,"y":2545347.2200000025}},{"attributes":{"ID":375437,"DIS_CODE":0,"TOWNNAME":"北區","LI":"國姓里","LIN":"10鄰","STREET":"小北路","SECT":" ","MAREA":" ","LANE":"２７巷","ALLEY":" ","HOUSE_NO":"４１號","E_COORD97":168808.10999999999,"N_COORD97":2545353.1499999999,"ADDRESS":"小北路２７巷４１號","OBJECTID":375427},"geometry":{"x":168808.11000000127,"y":2545353.1500000022}},{"attributes":{"ID":375438,"DIS_CODE":0,"TOWNNAME":"北區","LI":"國姓里","LIN":"10鄰","STREET":"小北路","SECT":" ","MAREA":" ","LANE":"２７巷","ALLEY":" ","HOUSE_NO":"４３號","E_COORD97":168807.06,"N_COORD97":2545356.6299999999,"ADDRESS":"小北路２７巷４３號","OBJECTID":375428},"geometry":{"x":168807.05999999959,"y":2545356.629999999}},{"attributes":{"ID":375439,"DIS_CODE":0,"TOWNNAME":"北區","LI":"國姓里","LIN":"10鄰","STREET":"小北路","SECT":" ","MAREA":" ","LANE":"２７巷","ALLEY":" ","HOUSE_NO":"４５號","E_COORD97":168816.14000000001,"N_COORD97":2545365.8100000001,"ADDRESS":"小北路２７巷４５號","OBJECTID":375429},"geometry":{"x":168816.1400000006,"y":2545365.8100000024}},{"attributes":{"ID":375440,"DIS_CODE":0,"TOWNNAME":"北區","LI":"國姓里","LIN":"10鄰","STREET":"小北路","SECT":" ","MAREA":" ","LANE":"２７巷","ALLEY":" ","HOUSE_NO":"４７號","E_COORD97":168818.23000000001,"N_COORD97":2545372.0800000001,"ADDRESS":"小北路２７巷４７號","OBJECTID":375430},"geometry":{"x":168818.23000000138,"y":2545372.0800000001}},{"attributes":{"ID":375441,"DIS_CODE":0,"TOWNNAME":"北區","LI":"國姓里","LIN":"10鄰","STREET":"小北路","SECT":" ","MAREA":" ","LANE":"２７巷","ALLEY":" ","HOUSE_NO":"４９號","E_COORD97":168819.63,"N_COORD97":2545375.5699999998,"ADDRESS":"小北路２７巷４９號","OBJECTID":375431},"geometry":{"x":168819.63000000082,"y":2545375.5700000003}},{"attributes":{"ID":375442,"DIS_CODE":0,"TOWNNAME":"北區","LI":"國姓里","LIN":"10鄰","STREET":"小北路","SECT":" ","MAREA":" ","LANE":"２７巷","ALLEY":" ","HOUSE_NO":"５１號","E_COORD97":168821.38,"N_COORD97":2545378.71,"ADDRESS":"小北路２７巷５１號","OBJECTID":375432},"geometry":{"x":168821.38000000082,"y":2545378.7100000009}},{"attributes":{"ID":375443,"DIS_CODE":0,"TOWNNAME":"北區","LI":"國姓里","LIN":"10鄰","STREET":"西門路","SECT":"四段","MAREA":" ","LANE":"１１０巷","ALLEY":" ","HOUSE_NO":"１０號","E_COORD97":168792.04999999999,"N_COORD97":2545390.5699999998,"ADDRESS":"西門路四段１１０巷１０號","OBJECTID":375433},"geometry":{"x":168792.04999999981,"y":2545390.570000004}},{"attributes":{"ID":375444,"DIS_CODE":0,"TOWNNAME":"北區","LI":"國姓里","LIN":"10鄰","STREET":"西門路","SECT":"四段","MAREA":" ","LANE":"１１０巷","ALLEY":" ","HOUSE_NO":"１１號","E_COORD97":168786.10999999999,"N_COORD97":2545420.5600000001,"ADDRESS":"西門路四段１１０巷１１號","OBJECTID":375434},"geometry":{"x":168786.11000000127,"y":2545420.5600000005}},{"attributes":{"ID":375445,"DIS_CODE":0,"TOWNNAME":"北區","LI":"國姓里","LIN":"10鄰","STREET":"西門路","SECT":"四段","MAREA":" ","LANE":"１１０巷","ALLEY":" ","HOUSE_NO":"１２號","E_COORD97":168800.07999999999,"N_COORD97":2545390.2200000002,"ADDRESS":"西門路四段１１０巷１２號","OBJECTID":375435},"geometry":{"x":168800.08000000101,"y":2545390.2200000025}},{"attributes":{"ID":375446,"DIS_CODE":0,"TOWNNAME":"北區","LI":"國姓里","LIN":"10鄰","STREET":"西門路","SECT":"四段","MAREA":" ","LANE":"１１０巷","ALLEY":" ","HOUSE_NO":"１３號","E_COORD97":168791.70000000001,"N_COORD97":2545417.77,"ADDRESS":"西門路四段１１０巷１３號","OBJECTID":375436},"geometry":{"x":168791.70000000019,"y":2545417.7699999996}},{"attributes":{"ID":375447,"DIS_CODE":0,"TOWNNAME":"北區","LI":"國姓里","LIN":"10鄰","STREET":"西門路","SECT":"四段","MAREA":" ","LANE":"１１０巷","ALLEY":" ","HOUSE_NO":"１４號","E_COORD97":168796.23999999999,"N_COORD97":2545382.5499999998,"ADDRESS":"西門路四段１１０巷１４號","OBJECTID":375437},"geometry":{"x":168796.24000000022,"y":2545382.5500000007}},{"attributes":{"ID":375448,"DIS_CODE":0,"TOWNNAME":"北區","LI":"國姓里","LIN":"10鄰","STREET":"西門路","SECT":"四段","MAREA":" ","LANE":"１１０巷","ALLEY":" ","HOUSE_NO":"１５號","E_COORD97":168796.45000000001,"N_COORD97":2545412.7999999998,"ADDRESS":"西門路四段１１０巷１５號","OBJECTID":375438},"geometry":{"x":168796.45000000019,"y":2545412.7999999989}},{"attributes":{"ID":375449,"DIS_CODE":0,"TOWNNAME":"北區","LI":"國姓里","LIN":"10鄰","STREET":"西門路","SECT":"四段","MAREA":" ","LANE":"１１０巷","ALLEY":" ","HOUSE_NO":"１６號","E_COORD97":168794.14000000001,"N_COORD97":2545374.1800000002,"ADDRESS":"西門路四段１１０巷１６號","OBJECTID":375439},"geometry":{"x":168794.1400000006,"y":2545374.1799999997}},{"attributes":{"ID":375450,"DIS_CODE":0,"TOWNNAME":"北區","LI":"國姓里","LIN":"10鄰","STREET":"西門路","SECT":"四段","MAREA":" ","LANE":"１１０巷","ALLEY":" ","HOUSE_NO":"１７號","E_COORD97":168803.38,"N_COORD97":2545410.5099999998,"ADDRESS":"西門路四段１１０巷１７號","OBJECTID":375440},"geometry":{"x":168803.37999999989,"y":2545410.5100000035}},{"attributes":{"ID":375451,"DIS_CODE":0,"TOWNNAME":"北區","LI":"國姓里","LIN":"10鄰","STREET":"西門路","SECT":"四段","MAREA":" ","LANE":"１１０巷","ALLEY":" ","HOUSE_NO":"１９號","E_COORD97":168808.45999999999,"N_COORD97":2545405.5600000001,"ADDRESS":"西門路四段１１０巷１９號","OBJECTID":375441},"geometry":{"x":168808.45999999903,"y":2545405.5600000024}},{"attributes":{"ID":375452,"DIS_CODE":0,"TOWNNAME":"北區","LI":"國姓里","LIN":"10鄰","STREET":"小北路","SECT":" ","MAREA":" ","LANE":"２７巷","ALLEY":" ","HOUSE_NO":"１８號","E_COORD97":168834.04000000001,"N_COORD97":2545348.3599999999,"ADDRESS":"小北路２７巷１８號","OBJECTID":375442},"geometry":{"x":168834.04000000097,"y":2545348.3600000013}},{"attributes":{"ID":375453,"DIS_CODE":0,"TOWNNAME":"南區","LI":"喜東里","LIN":"10鄰","STREET":"明興路","SECT":" ","MAREA":" ","LANE":"６１９巷","ALLEY":" ","HOUSE_NO":"５５１號","E_COORD97":167331.78,"N_COORD97":2538507.8900000001,"ADDRESS":"明興路６１９巷５５１號","OBJECTID":375443},"geometry":{"x":167331.77999999933,"y":2538507.8900000006}},{"attributes":{"ID":375454,"DIS_CODE":0,"TOWNNAME":"南區","LI":"喜東里","LIN":"10鄰","STREET":"明興路","SECT":" ","MAREA":" ","LANE":"６１９巷","ALLEY":" ","HOUSE_NO":"１３５號","E_COORD97":166430.89999999999,"N_COORD97":2537952.6600000001,"ADDRESS":"明興路６１９巷１３５號","OBJECTID":375444},"geometry":{"x":166430.89999999944,"y":2537952.660000002}},{"attributes":{"ID":375455,"DIS_CODE":0,"TOWNNAME":"南區","LI":"喜東里","LIN":"10鄰","STREET":"明興路","SECT":" ","MAREA":" ","LANE":"６１９巷","ALLEY":" ","HOUSE_NO":"３２６號","E_COORD97":166767.20999999999,"N_COORD97":2537914.8199999998,"ADDRESS":"明興路６１９巷３２６號","OBJECTID":375445},"geometry":{"x":166767.20999999996,"y":2537914.8200000003}},{"attributes":{"ID":375456,"DIS_CODE":0,"TOWNNAME":"南區","LI":"郡南里","LIN":"10鄰","STREET":"永成路","SECT":"三段","MAREA":" ","LANE":"１２１巷","ALLEY":" ","HOUSE_NO":"３號","E_COORD97":167467.26999999999,"N_COORD97":2540682.8799999999,"ADDRESS":"永成路三段１２１巷３號","OBJECTID":375446},"geometry":{"x":167467.27000000048,"y":2540682.879999999}},{"attributes":{"ID":375457,"DIS_CODE":0,"TOWNNAME":"南區","LI":"郡南里","LIN":"10鄰","STREET":"永成路","SECT":"三段","MAREA":" ","LANE":"１２１巷","ALLEY":" ","HOUSE_NO":"５號","E_COORD97":167462.19,"N_COORD97":2540683.8100000001,"ADDRESS":"永成路三段１２１巷５號","OBJECTID":375447},"geometry":{"x":167462.19000000134,"y":2540683.8100000024}},{"attributes":{"ID":375458,"DIS_CODE":0,"TOWNNAME":"南區","LI":"郡南里","LIN":"10鄰","STREET":"永成路","SECT":"三段","MAREA":" ","LANE":"１２１巷","ALLEY":" ","HOUSE_NO":"７號","E_COORD97":167458.48000000001,"N_COORD97":2540684.04,"ADDRESS":"永成路三段１２１巷７號","OBJECTID":375448},"geometry":{"x":167458.48000000138,"y":2540684.040000001}},{"attributes":{"ID":375459,"DIS_CODE":0,"TOWNNAME":"南區","LI":"明興里","LIN":"10鄰","STREET":"金華路","SECT":"一段","MAREA":" ","LANE":"１０２巷","ALLEY":" ","HOUSE_NO":"３０號","E_COORD97":167118.10999999999,"N_COORD97":2540524.3700000001,"ADDRESS":"金華路一段１０２巷３０號","OBJECTID":375449},"geometry":{"x":167118.11000000127,"y":2540524.3700000029}},{"attributes":{"ID":375460,"DIS_CODE":0,"TOWNNAME":"南區","LI":"喜東里","LIN":"10鄰","STREET":"明興路","SECT":" ","MAREA":" ","LANE":"６１９巷","ALLEY":" ","HOUSE_NO":"２號之２","E_COORD97":166094.51000000001,"N_COORD97":2537946.1400000001,"ADDRESS":"明興路６１９巷２號之２","OBJECTID":375450},"geometry":{"x":166094.51000000071,"y":2537946.1400000025}},{"attributes":{"ID":375461,"DIS_CODE":0,"TOWNNAME":"南區","LI":"喜東里","LIN":"10鄰","STREET":"明興路","SECT":" ","MAREA":" ","LANE":"６１９巷","ALLEY":" ","HOUSE_NO":"５５０號","E_COORD97":167330.62,"N_COORD97":2538500.0800000001,"ADDRESS":"明興路６１９巷５５０號","OBJECTID":375451},"geometry":{"x":167330.62000000011,"y":2538500.0800000001}},{"attributes":{"ID":375462,"DIS_CODE":0,"TOWNNAME":"南區","LI":"文華里","LIN":"10鄰","STREET":"建南路","SECT":" ","MAREA":" ","LANE":"１０２巷","ALLEY":" ","HOUSE_NO":"１３號","E_COORD97":167079.51999999999,"N_COORD97":2542895.8900000001,"ADDRESS":"建南路１０２巷１３號","OBJECTID":375452},"geometry":{"x":167079.51999999955,"y":2542895.8900000006}},{"attributes":{"ID":375463,"DIS_CODE":0,"TOWNNAME":"南區","LI":"明興里","LIN":"10鄰","STREET":"金華路","SECT":"一段","MAREA":" ","LANE":"１０２巷","ALLEY":" ","HOUSE_NO":"４６號","E_COORD97":167154.89999999999,"N_COORD97":2540528.8700000001,"ADDRESS":"金華路一段１０２巷４６號","OBJECTID":375453},"geometry":{"x":167154.90000000224,"y":2540528.8700000029}},{"attributes":{"ID":375464,"DIS_CODE":0,"TOWNNAME":"南區","LI":"府南里","LIN":"10鄰","STREET":"永成路","SECT":"三段","MAREA":" ","LANE":"３５７巷","ALLEY":" ","HOUSE_NO":"２５號","E_COORD97":167418.44,"N_COORD97":2541278.1400000001,"ADDRESS":"永成路三段３５７巷２５號","OBJECTID":375454},"geometry":{"x":167418.44000000041,"y":2541278.1400000025}},{"attributes":{"ID":375465,"DIS_CODE":0,"TOWNNAME":"南區","LI":"府南里","LIN":"10鄰","STREET":"永成路","SECT":"三段","MAREA":" ","LANE":"３５７巷","ALLEY":" ","HOUSE_NO":"２７號","E_COORD97":167417.70999999999,"N_COORD97":2541282.7400000002,"ADDRESS":"永成路三段３５７巷２７號","OBJECTID":375455},"geometry":{"x":167417.70999999996,"y":2541282.7400000002}},{"attributes":{"ID":375466,"DIS_CODE":0,"TOWNNAME":"南區","LI":"府南里","LIN":"10鄰","STREET":"永成路","SECT":"三段","MAREA":" ","LANE":"３５７巷","ALLEY":" ","HOUSE_NO":"２９號","E_COORD97":167417.07999999999,"N_COORD97":2541286.6400000001,"ADDRESS":"永成路三段３５７巷２９號","OBJECTID":375456},"geometry":{"x":167417.08000000007,"y":2541286.6400000006}},{"attributes":{"ID":375467,"DIS_CODE":0,"TOWNNAME":"南區","LI":"府南里","LIN":"10鄰","STREET":"永成路","SECT":"三段","MAREA":" ","LANE":"３５７巷","ALLEY":" ","HOUSE_NO":"３１號","E_COORD97":167417.07999999999,"N_COORD97":2541290.6200000001,"ADDRESS":"永成路三段３５７巷３１號","OBJECTID":375457},"geometry":{"x":167417.08000000007,"y":2541290.620000001}},{"attributes":{"ID":375468,"DIS_CODE":0,"TOWNNAME":"南區","LI":"府南里","LIN":"10鄰","STREET":"永成路","SECT":"三段","MAREA":" ","LANE":"３５７巷","ALLEY":" ","HOUSE_NO":"３３號","E_COORD97":167416.22,"N_COORD97":2541295.8999999999,"ADDRESS":"永成路三段３５７巷３３號","OBJECTID":375458},"geometry":{"x":167416.21999999974,"y":2541295.8999999985}},{"attributes":{"ID":375469,"DIS_CODE":0,"TOWNNAME":"歸仁區","LI":"崙頂里","LIN":"10鄰","STREET":"成功路","SECT":"二段","MAREA":" ","LANE":"１６８巷","ALLEY":" ","HOUSE_NO":"１６號","E_COORD97":177954.19,"N_COORD97":2539779.25,"ADDRESS":"成功路二段１６８巷１６號","OBJECTID":375459},"geometry":{"x":177954.19000000041,"y":2539779.2500000019}},{"attributes":{"ID":375470,"DIS_CODE":0,"TOWNNAME":"歸仁區","LI":"看東里","LIN":"10鄰","STREET":"忠孝南路","SECT":" ","MAREA":" ","LANE":"１３９巷","ALLEY":" ","HOUSE_NO":"３３號","E_COORD97":178618.87,"N_COORD97":2540271.6800000002,"ADDRESS":"忠孝南路１３９巷３３號","OBJECTID":375460},"geometry":{"x":178618.87000000011,"y":2540271.6799999997}},{"attributes":{"ID":375471,"DIS_CODE":0,"TOWNNAME":"歸仁區","LI":"歸南里","LIN":"10鄰","STREET":"民生九街","SECT":" ","MAREA":" ","LANE":"１３３巷","ALLEY":" ","HOUSE_NO":"２５號","E_COORD97":176278.81,"N_COORD97":2540068.25,"ADDRESS":"民生九街１３３巷２５號","OBJECTID":375461},"geometry":{"x":176278.81000000052,"y":2540068.25}},{"attributes":{"ID":375472,"DIS_CODE":0,"TOWNNAME":"歸仁區","LI":"歸南里","LIN":"10鄰","STREET":"民生九街","SECT":" ","MAREA":" ","LANE":"１３３巷","ALLEY":" ","HOUSE_NO":"３１號","E_COORD97":176294.20999999999,"N_COORD97":2540072.25,"ADDRESS":"民生九街１３３巷３１號","OBJECTID":375462},"geometry":{"x":176294.20999999996,"y":2540072.25}},{"attributes":{"ID":375473,"DIS_CODE":0,"TOWNNAME":"歸仁區","LI":"崙頂里","LIN":"10鄰","STREET":"成功路","SECT":"二段","MAREA":" ","LANE":"１６８巷","ALLEY":" ","HOUSE_NO":"３２號","E_COORD97":177952.19,"N_COORD97":2539795.25,"ADDRESS":"成功路二段１６８巷３２號","OBJECTID":375463},"geometry":{"x":177952.19000000041,"y":2539795.2500000019}},{"attributes":{"ID":375474,"DIS_CODE":0,"TOWNNAME":"歸仁區","LI":"看東里","LIN":"10鄰","STREET":"忠孝南路","SECT":" ","MAREA":" ","LANE":"１３９巷","ALLEY":" ","HOUSE_NO":"１７號","E_COORD97":178615.97,"N_COORD97":2540306.6800000002,"ADDRESS":"忠孝南路１３９巷１７號","OBJECTID":375464},"geometry":{"x":178615.96999999974,"y":2540306.6799999978}},{"attributes":{"ID":375475,"DIS_CODE":0,"TOWNNAME":"歸仁區","LI":"許厝里","LIN":"10鄰","STREET":"公園路","SECT":" ","MAREA":" ","LANE":"３９巷","ALLEY":" ","HOUSE_NO":"２８號","E_COORD97":178170.92000000001,"N_COORD97":2540479.1000000001,"ADDRESS":"公園路３９巷２８號","OBJECTID":375465},"geometry":{"x":178170.91999999993,"y":2540479.0999999996}},{"attributes":{"ID":375476,"DIS_CODE":0,"TOWNNAME":"歸仁區","LI":"許厝里","LIN":"10鄰","STREET":"信義南路","SECT":" ","MAREA":" ","LANE":"１０１巷","ALLEY":" ","HOUSE_NO":"８號","E_COORD97":178170.44,"N_COORD97":2540435.1000000001,"ADDRESS":"信義南路１０１巷８號","OBJECTID":375466},"geometry":{"x":178170.44000000134,"y":2540435.0999999996}},{"attributes":{"ID":375477,"DIS_CODE":0,"TOWNNAME":"歸仁區","LI":"許厝里","LIN":"10鄰","STREET":"信義南路","SECT":" ","MAREA":" ","LANE":"１０１巷","ALLEY":" ","HOUSE_NO":"５號","E_COORD97":178146.47,"N_COORD97":2540455.1000000001,"ADDRESS":"信義南路１０１巷５號","OBJECTID":375467},"geometry":{"x":178146.46999999974,"y":2540455.0999999996}},{"attributes":{"ID":375478,"DIS_CODE":0,"TOWNNAME":"歸仁區","LI":"西埔里","LIN":"10鄰","STREET":"西埔一街","SECT":" ","MAREA":" ","LANE":"３００巷","ALLEY":" ","HOUSE_NO":"３８號","E_COORD97":177229.54000000001,"N_COORD97":2544765.9500000002,"ADDRESS":"西埔一街３００巷３８號","OBJECTID":375468},"geometry":{"x":177229.54000000004,"y":2544765.9499999993}},{"attributes":{"ID":375479,"DIS_CODE":0,"TOWNNAME":"歸仁區","LI":"西埔里","LIN":"10鄰","STREET":"西埔一街","SECT":" ","MAREA":" ","LANE":"１８８巷","ALLEY":" ","HOUSE_NO":"２６號","E_COORD97":177145.51000000001,"N_COORD97":2544614.9700000002,"ADDRESS":"西埔一街１８８巷２６號","OBJECTID":375469},"geometry":{"x":177145.51000000071,"y":2544614.9700000044}},{"attributes":{"ID":375480,"DIS_CODE":0,"TOWNNAME":"歸仁區","LI":"西埔里","LIN":"10鄰","STREET":"西埔一街","SECT":" ","MAREA":" ","LANE":"３００巷","ALLEY":" ","HOUSE_NO":"３６號","E_COORD97":177230.54000000001,"N_COORD97":2544770.9500000002,"ADDRESS":"西埔一街３００巷３６號","OBJECTID":375470},"geometry":{"x":177230.54000000097,"y":2544770.9500000011}},{"attributes":{"ID":375481,"DIS_CODE":0,"TOWNNAME":"歸仁區","LI":"西埔里","LIN":"10鄰","STREET":"西埔一街","SECT":" ","MAREA":" ","LANE":"３００巷","ALLEY":" ","HOUSE_NO":"６６號","E_COORD97":177273.89000000001,"N_COORD97":2544760.4199999999,"ADDRESS":"西埔一街３００巷６６號","OBJECTID":375471},"geometry":{"x":177273.88999999966,"y":2544760.4200000037}},{"attributes":{"ID":375482,"DIS_CODE":0,"TOWNNAME":"歸仁區","LI":"許厝里","LIN":"10鄰","STREET":"信義南路","SECT":" ","MAREA":" ","LANE":"１０１巷","ALLEY":" ","HOUSE_NO":"６號","E_COORD97":178170.54000000001,"N_COORD97":2540439.1000000001,"ADDRESS":"信義南路１０１巷６號","OBJECTID":375472},"geometry":{"x":178170.53999999911,"y":2540439.0999999996}},{"attributes":{"ID":375483,"DIS_CODE":0,"TOWNNAME":"歸仁區","LI":"西埔里","LIN":"10鄰","STREET":"西埔一街","SECT":" ","MAREA":" ","LANE":"３００巷","ALLEY":" ","HOUSE_NO":"２２號","E_COORD97":177195.73999999999,"N_COORD97":2544771.9500000002,"ADDRESS":"西埔一街３００巷２２號","OBJECTID":375473},"geometry":{"x":177195.74000000022,"y":2544771.9499999993}},{"attributes":{"ID":375484,"DIS_CODE":0,"TOWNNAME":"歸仁區","LI":"文化里","LIN":"10鄰","STREET":"民族北街","SECT":" ","MAREA":" ","LANE":"２３７巷","ALLEY":" ","HOUSE_NO":"１號","E_COORD97":177433.5,"N_COORD97":2541458.3300000001,"ADDRESS":"民族北街２３７巷１號","OBJECTID":375474},"geometry":{"x":177433.50000000186,"y":2541458.3300000001}},{"attributes":{"ID":375485,"DIS_CODE":0,"TOWNNAME":"歸仁區","LI":"文化里","LIN":"10鄰","STREET":"民族北街","SECT":" ","MAREA":" ","LANE":"２３７巷","ALLEY":" ","HOUSE_NO":"２２號","E_COORD97":177455.45000000001,"N_COORD97":2541496.3300000001,"ADDRESS":"民族北街２３７巷２２號","OBJECTID":375475},"geometry":{"x":177455.45000000019,"y":2541496.3300000038}},{"attributes":{"ID":375486,"DIS_CODE":0,"TOWNNAME":"歸仁區","LI":"西埔里","LIN":"10鄰","STREET":"西埔一街","SECT":" ","MAREA":" ","LANE":"３００巷","ALLEY":" ","HOUSE_NO":"２８號","E_COORD97":177209.04000000001,"N_COORD97":2544774.9500000002,"ADDRESS":"西埔一街３００巷２８號","OBJECTID":375476},"geometry":{"x":177209.04000000004,"y":2544774.9499999993}},{"attributes":{"ID":375487,"DIS_CODE":0,"TOWNNAME":"歸仁區","LI":"西埔里","LIN":"10鄰","STREET":"西埔一街","SECT":" ","MAREA":" ","LANE":"１８８巷","ALLEY":" ","HOUSE_NO":"３６號","E_COORD97":177219.51000000001,"N_COORD97":2544650.9700000002,"ADDRESS":"西埔一街１８８巷３６號","OBJECTID":375477},"geometry":{"x":177219.51000000164,"y":2544650.9700000007}},{"attributes":{"ID":375488,"DIS_CODE":0,"TOWNNAME":"歸仁區","LI":"西埔里","LIN":"10鄰","STREET":"西埔一街","SECT":" ","MAREA":" ","LANE":"３００巷","ALLEY":" ","HOUSE_NO":"５２號","E_COORD97":177261.59,"N_COORD97":2544773.4199999999,"ADDRESS":"西埔一街３００巷５２號","OBJECTID":375478},"geometry":{"x":177261.59000000171,"y":2544773.4199999999}},{"attributes":{"ID":375489,"DIS_CODE":0,"TOWNNAME":"歸仁區","LI":"西埔里","LIN":"10鄰","STREET":"西埔一街","SECT":" ","MAREA":" ","LANE":"１８８巷","ALLEY":" ","HOUSE_NO":"４５號","E_COORD97":177148.81,"N_COORD97":2544657.9700000002,"ADDRESS":"西埔一街１８８巷４５號","OBJECTID":375479},"geometry":{"x":177148.80999999959,"y":2544657.9700000007}},{"attributes":{"ID":375490,"DIS_CODE":0,"TOWNNAME":"歸仁區","LI":"西埔里","LIN":"10鄰","STREET":"西埔一街","SECT":" ","MAREA":" ","LANE":"１８８巷","ALLEY":" ","HOUSE_NO":"４９號","E_COORD97":177148.81,"N_COORD97":2544666.9700000002,"ADDRESS":"西埔一街１８８巷４９號","OBJECTID":375480},"geometry":{"x":177148.80999999959,"y":2544666.9700000025}},{"attributes":{"ID":375491,"DIS_CODE":0,"TOWNNAME":"歸仁區","LI":"西埔里","LIN":"10鄰","STREET":"西埔一街","SECT":" ","MAREA":" ","LANE":"３００巷","ALLEY":" ","HOUSE_NO":"６０號","E_COORD97":177274.98999999999,"N_COORD97":2544771.4199999999,"ADDRESS":"西埔一街３００巷６０號","OBJECTID":375481},"geometry":{"x":177274.99000000115,"y":2544771.4200000018}},{"attributes":{"ID":375492,"DIS_CODE":0,"TOWNNAME":"歸仁區","LI":"西埔里","LIN":"10鄰","STREET":"西埔一街","SECT":" ","MAREA":" ","LANE":"３００巷","ALLEY":" ","HOUSE_NO":"５４號","E_COORD97":177260.59,"N_COORD97":2544768.4199999999,"ADDRESS":"西埔一街３００巷５４號","OBJECTID":375482},"geometry":{"x":177260.59000000078,"y":2544768.4200000018}},{"attributes":{"ID":375493,"DIS_CODE":0,"TOWNNAME":"歸仁區","LI":"西埔里","LIN":"10鄰","STREET":"西埔一街","SECT":" ","MAREA":" ","LANE":"１８８巷","ALLEY":" ","HOUSE_NO":"５９號","E_COORD97":177145.81,"N_COORD97":2544681.9700000002,"ADDRESS":"西埔一街１８８巷５９號","OBJECTID":375483},"geometry":{"x":177145.80999999959,"y":2544681.9700000007}},{"attributes":{"ID":375494,"DIS_CODE":0,"TOWNNAME":"歸仁區","LI":"西埔里","LIN":"10鄰","STREET":"西埔一街","SECT":" ","MAREA":" ","LANE":"３００巷","ALLEY":" ","HOUSE_NO":"１６號","E_COORD97":177183.44,"N_COORD97":2544787.9500000002,"ADDRESS":"西埔一街３００巷１６號","OBJECTID":375484},"geometry":{"x":177183.44000000227,"y":2544787.9500000011}},{"attributes":{"ID":375495,"DIS_CODE":0,"TOWNNAME":"歸仁區","LI":"西埔里","LIN":"10鄰","STREET":"西埔一街","SECT":" ","MAREA":" ","LANE":"１８８巷","ALLEY":" ","HOUSE_NO":"１９號","E_COORD97":177124.10999999999,"N_COORD97":2544650.9700000002,"ADDRESS":"西埔一街１８８巷１９號","OBJECTID":375485},"geometry":{"x":177124.11000000034,"y":2544650.9700000007}},{"attributes":{"ID":375496,"DIS_CODE":0,"TOWNNAME":"歸仁區","LI":"西埔里","LIN":"10鄰","STREET":"西埔一街","SECT":" ","MAREA":" ","LANE":"１８８巷","ALLEY":" ","HOUSE_NO":"４１號","E_COORD97":177151.81,"N_COORD97":2544648.9700000002,"ADDRESS":"西埔一街１８８巷４１號","OBJECTID":375486},"geometry":{"x":177151.81000000052,"y":2544648.9700000044}},{"attributes":{"ID":375497,"DIS_CODE":0,"TOWNNAME":"歸仁區","LI":"西埔里","LIN":"10鄰","STREET":"西埔一街","SECT":" ","MAREA":" ","LANE":"１８８巷","ALLEY":" ","HOUSE_NO":"６０號","E_COORD97":177165.41,"N_COORD97":2544706.9700000002,"ADDRESS":"西埔一街１８８巷６０號","OBJECTID":375487},"geometry":{"x":177165.41000000108,"y":2544706.9700000025}},{"attributes":{"ID":375498,"DIS_CODE":0,"TOWNNAME":"歸仁區","LI":"西埔里","LIN":"10鄰","STREET":"西埔一街","SECT":" ","MAREA":" ","LANE":"１８８巷","ALLEY":" ","HOUSE_NO":"２３號","E_COORD97":177122.20999999999,"N_COORD97":2544676.9700000002,"ADDRESS":"西埔一街１８８巷２３號","OBJECTID":375488},"geometry":{"x":177122.21000000089,"y":2544676.9700000025}},{"attributes":{"ID":375499,"DIS_CODE":0,"TOWNNAME":"新化區","LI":"太平里","LIN":"10鄰","STREET":"中正路","SECT":" ","MAREA":" ","LANE":"８５３巷","ALLEY":" ","HOUSE_NO":"９號","E_COORD97":178600.10999999999,"N_COORD97":2549449.25,"ADDRESS":"中正路８５３巷９號","OBJECTID":375489},"geometry":{"x":178600.11000000127,"y":2549449.25}},{"attributes":{"ID":375500,"DIS_CODE":0,"TOWNNAME":"歸仁區","LI":"西埔里","LIN":"10鄰","STREET":"西埔一街","SECT":" ","MAREA":" ","LANE":"６３０巷","ALLEY":" ","HOUSE_NO":"２００號","E_COORD97":177486.47,"N_COORD97":2545668.25,"ADDRESS":"西埔一街６３０巷２００號","OBJECTID":375490},"geometry":{"x":177486.47000000067,"y":2545668.2500000019}},{"attributes":{"ID":375501,"DIS_CODE":0,"TOWNNAME":"歸仁區","LI":"西埔里","LIN":"10鄰","STREET":"西埔一街","SECT":" ","MAREA":" ","LANE":"３００巷","ALLEY":" ","HOUSE_NO":"１０號","E_COORD97":177174.23999999999,"N_COORD97":2544784.9500000002,"ADDRESS":"西埔一街３００巷１０號","OBJECTID":375491},"geometry":{"x":177174.24000000022,"y":2544784.9499999993}},{"attributes":{"ID":375502,"DIS_CODE":0,"TOWNNAME":"歸仁區","LI":"南保里","LIN":"10鄰","STREET":"文化十街","SECT":" ","MAREA":" ","LANE":"２８巷","ALLEY":" ","HOUSE_NO":"２號","E_COORD97":176700.54000000001,"N_COORD97":2541324.3300000001,"ADDRESS":"文化十街２８巷２號","OBJECTID":375492},"geometry":{"x":176700.54000000004,"y":2541324.3300000019}},{"attributes":{"ID":375503,"DIS_CODE":0,"TOWNNAME":"歸仁區","LI":"西埔里","LIN":"10鄰","STREET":"西埔一街","SECT":" ","MAREA":" ","LANE":"１８８巷","ALLEY":" ","HOUSE_NO":"４３號","E_COORD97":177150.81,"N_COORD97":2544653.9700000002,"ADDRESS":"西埔一街１８８巷４３號","OBJECTID":375493},"geometry":{"x":177150.80999999959,"y":2544653.9700000025}},{"attributes":{"ID":375504,"DIS_CODE":0,"TOWNNAME":"歸仁區","LI":"南保里","LIN":"10鄰","STREET":"文化十街","SECT":" ","MAREA":" ","LANE":"２８巷","ALLEY":" ","HOUSE_NO":"１２號","E_COORD97":176718.19,"N_COORD97":2541322.3300000001,"ADDRESS":"文化十街２８巷１２號","OBJECTID":375494},"geometry":{"x":176718.19000000041,"y":2541322.3300000001}},{"attributes":{"ID":375505,"DIS_CODE":0,"TOWNNAME":"歸仁區","LI":"文化里","LIN":"10鄰","STREET":"民族北街","SECT":" ","MAREA":" ","LANE":"２３７巷","ALLEY":" ","HOUSE_NO":"５號","E_COORD97":177434.60000000001,"N_COORD97":2541467.3300000001,"ADDRESS":"民族北街２３７巷５號","OBJECTID":375495},"geometry":{"x":177434.60000000056,"y":2541467.3300000019}},{"attributes":{"ID":375506,"DIS_CODE":0,"TOWNNAME":"安南區","LI":"安順里","LIN":"13鄰","STREET":"育安街","SECT":" ","MAREA":" ","LANE":" ","ALLEY":" ","HOUSE_NO":"２８０號","E_COORD97":169609.5,"N_COORD97":2550139.8900000001,"ADDRESS":"育安街２８０號","OBJECTID":375496},"geometry":{"x":169609.5,"y":2550139.8900000025}},{"attributes":{"ID":375507,"DIS_CODE":0,"TOWNNAME":"歸仁區","LI":"西埔里","LIN":"10鄰","STREET":"西埔一街","SECT":" ","MAREA":" ","LANE":"１８８巷","ALLEY":" ","HOUSE_NO":"１７號","E_COORD97":177124.10999999999,"N_COORD97":2544634.9700000002,"ADDRESS":"西埔一街１８８巷１７號","OBJECTID":375497},"geometry":{"x":177124.11000000034,"y":2544634.9700000007}},{"attributes":{"ID":375508,"DIS_CODE":0,"TOWNNAME":"歸仁區","LI":"文化里","LIN":"10鄰","STREET":"民族北街","SECT":" ","MAREA":" ","LANE":"２３７巷","ALLEY":" ","HOUSE_NO":"１４號","E_COORD97":177453.35000000001,"N_COORD97":2541479.3300000001,"ADDRESS":"民族北街２３７巷１４號","OBJECTID":375498},"geometry":{"x":177453.35000000056,"y":2541479.3300000038}},{"attributes":{"ID":375509,"DIS_CODE":0,"TOWNNAME":"歸仁區","LI":"文化里","LIN":"10鄰","STREET":"民族北街","SECT":" ","MAREA":" ","LANE":"２３１巷","ALLEY":" ","HOUSE_NO":"２號","E_COORD97":177453.89999999999,"N_COORD97":2541441.3300000001,"ADDRESS":"民族北街２３１巷２號","OBJECTID":375499},"geometry":{"x":177453.9000000013,"y":2541441.3300000001}},{"attributes":{"ID":375510,"DIS_CODE":0,"TOWNNAME":"歸仁區","LI":"西埔里","LIN":"10鄰","STREET":"西埔一街","SECT":" ","MAREA":" ","LANE":"１８８巷","ALLEY":" ","HOUSE_NO":"６１號","E_COORD97":177145.81,"N_COORD97":2544686.9700000002,"ADDRESS":"西埔一街１８８巷６１號","OBJECTID":375500},"geometry":{"x":177145.80999999959,"y":2544686.9700000025}},{"attributes":{"ID":375511,"DIS_CODE":0,"TOWNNAME":"歸仁區","LI":"西埔里","LIN":"10鄰","STREET":"西埔一街","SECT":" ","MAREA":" ","LANE":"１８８巷","ALLEY":" ","HOUSE_NO":"６５號","E_COORD97":177143.81,"N_COORD97":2544694.96,"ADDRESS":"西埔一街１８８巷６５號","OBJECTID":375501},"geometry":{"x":177143.80999999959,"y":2544694.9600000028}},{"attributes":{"ID":375512,"DIS_CODE":0,"TOWNNAME":"歸仁區","LI":"文化里","LIN":"10鄰","STREET":"民族北街","SECT":" ","MAREA":" ","LANE":"２３１巷","ALLEY":" ","HOUSE_NO":"７號","E_COORD97":177432.29999999999,"N_COORD97":2541424.3300000001,"ADDRESS":"民族北街２３１巷７號","OBJECTID":375502},"geometry":{"x":177432.29999999981,"y":2541424.3300000001}},{"attributes":{"ID":375513,"DIS_CODE":0,"TOWNNAME":"歸仁區","LI":"文化里","LIN":"10鄰","STREET":"民族北街","SECT":" ","MAREA":" ","LANE":"２３７巷","ALLEY":" ","HOUSE_NO":"１６號","E_COORD97":177452.35000000001,"N_COORD97":2541484.3300000001,"ADDRESS":"民族北街２３７巷１６號","OBJECTID":375503},"geometry":{"x":177452.34999999963,"y":2541484.3300000019}},{"attributes":{"ID":375514,"DIS_CODE":0,"TOWNNAME":"歸仁區","LI":"西埔里","LIN":"10鄰","STREET":"西埔一街","SECT":" ","MAREA":" ","LANE":"１８８巷","ALLEY":" ","HOUSE_NO":"２５號","E_COORD97":177130.41,"N_COORD97":2544669.9700000002,"ADDRESS":"西埔一街１８８巷２５號","OBJECTID":375504},"geometry":{"x":177130.41000000015,"y":2544669.9700000025}},{"attributes":{"ID":375515,"DIS_CODE":0,"TOWNNAME":"歸仁區","LI":"文化里","LIN":"10鄰","STREET":"民族北街","SECT":" ","MAREA":" ","LANE":"２３７巷","ALLEY":" ","HOUSE_NO":"１５號","E_COORD97":177439.04999999999,"N_COORD97":2541487.3300000001,"ADDRESS":"民族北街２３７巷１５號","OBJECTID":375505},"geometry":{"x":177439.04999999981,"y":2541487.3300000019}},{"attributes":{"ID":375516,"DIS_CODE":0,"TOWNNAME":"歸仁區","LI":"西埔里","LIN":"10鄰","STREET":"西埔一街","SECT":" ","MAREA":" ","LANE":"１８８巷","ALLEY":" ","HOUSE_NO":"５３號","E_COORD97":177147.81,"N_COORD97":2544669.9700000002,"ADDRESS":"西埔一街１８８巷５３號","OBJECTID":375506},"geometry":{"x":177147.81000000145,"y":2544669.9700000025}},{"attributes":{"ID":375517,"DIS_CODE":0,"TOWNNAME":"歸仁區","LI":"文化里","LIN":"10鄰","STREET":"民族北街","SECT":" ","MAREA":" ","LANE":"２３７巷","ALLEY":" ","HOUSE_NO":"１９號","E_COORD97":177440.04999999999,"N_COORD97":2541496.3300000001,"ADDRESS":"民族北街２３７巷１９號","OBJECTID":375507},"geometry":{"x":177440.05000000075,"y":2541496.3300000038}},{"attributes":{"ID":375518,"DIS_CODE":0,"TOWNNAME":"歸仁區","LI":"文化里","LIN":"10鄰","STREET":"民族北街","SECT":" ","MAREA":" ","LANE":"２３７巷","ALLEY":" ","HOUSE_NO":"１２號","E_COORD97":177453.35000000001,"N_COORD97":2541475.3300000001,"ADDRESS":"民族北街２３７巷１２號","OBJECTID":375508},"geometry":{"x":177453.35000000056,"y":2541475.3300000001}},{"attributes":{"ID":375519,"DIS_CODE":0,"TOWNNAME":"歸仁區","LI":"西埔里","LIN":"10鄰","STREET":"西埔一街","SECT":" ","MAREA":" ","LANE":"３００巷","ALLEY":" ","HOUSE_NO":"８號","E_COORD97":177168.89000000001,"N_COORD97":2544784.9500000002,"ADDRESS":"西埔一街３００巷８號","OBJECTID":375509},"geometry":{"x":177168.88999999966,"y":2544784.9499999993}},{"attributes":{"ID":375520,"DIS_CODE":0,"TOWNNAME":"歸仁區","LI":"西埔里","LIN":"10鄰","STREET":"西埔一街","SECT":" ","MAREA":" ","LANE":"１８８巷","ALLEY":" ","HOUSE_NO":"１１號","E_COORD97":177092.20999999999,"N_COORD97":2544624.9700000002,"ADDRESS":"西埔一街１８８巷１１號","OBJECTID":375510},"geometry":{"x":177092.20999999996,"y":2544624.9700000007}},{"attributes":{"ID":375521,"DIS_CODE":0,"TOWNNAME":"歸仁區","LI":"西埔里","LIN":"10鄰","STREET":"西埔一街","SECT":" ","MAREA":" ","LANE":"１８８巷","ALLEY":" ","HOUSE_NO":"５７號","E_COORD97":177146.81,"N_COORD97":2544677.9700000002,"ADDRESS":"西埔一街１８８巷５７號","OBJECTID":375511},"geometry":{"x":177146.81000000052,"y":2544677.9700000007}},{"attributes":{"ID":375522,"DIS_CODE":0,"TOWNNAME":"歸仁區","LI":"文化里","LIN":"10鄰","STREET":"民族北街","SECT":" ","MAREA":" ","LANE":"２３７巷","ALLEY":" ","HOUSE_NO":"１８號","E_COORD97":177454.45000000001,"N_COORD97":2541487.3300000001,"ADDRESS":"民族北街２３７巷１８號","OBJECTID":375512},"geometry":{"x":177454.45000000205,"y":2541487.3300000019}},{"attributes":{"ID":375523,"DIS_CODE":0,"TOWNNAME":"歸仁區","LI":"文化里","LIN":"10鄰","STREET":"民族北街","SECT":" ","MAREA":" ","LANE":"２３７巷","ALLEY":" ","HOUSE_NO":"１１號","E_COORD97":177438.95000000001,"N_COORD97":2541478.3300000001,"ADDRESS":"民族北街２３７巷１１號","OBJECTID":375513},"geometry":{"x":177438.94999999925,"y":2541478.3300000001}},{"attributes":{"ID":375524,"DIS_CODE":0,"TOWNNAME":"歸仁區","LI":"文化里","LIN":"10鄰","STREET":"民族北街","SECT":" ","MAREA":" ","LANE":"２３１巷","ALLEY":" ","HOUSE_NO":"１號","E_COORD97":177452.79999999999,"N_COORD97":2541422.3300000001,"ADDRESS":"民族北街２３１巷１號","OBJECTID":375514},"geometry":{"x":177452.79999999981,"y":2541422.3300000019}},{"attributes":{"ID":375525,"DIS_CODE":0,"TOWNNAME":"歸仁區","LI":"文化里","LIN":"10鄰","STREET":"民族北街","SECT":" ","MAREA":" ","LANE":"２３７巷","ALLEY":" ","HOUSE_NO":"１７號","E_COORD97":177440.04999999999,"N_COORD97":2541492.3300000001,"ADDRESS":"民族北街２３７巷１７號","OBJECTID":375515},"geometry":{"x":177440.05000000075,"y":2541492.3300000001}},{"attributes":{"ID":375526,"DIS_CODE":0,"TOWNNAME":"歸仁區","LI":"文化里","LIN":"10鄰","STREET":"民族北街","SECT":" ","MAREA":" ","LANE":"２３１巷","ALLEY":" ","HOUSE_NO":"３號","E_COORD97":177445.70000000001,"N_COORD97":2541423.3300000001,"ADDRESS":"民族北街２３１巷３號","OBJECTID":375516},"geometry":{"x":177445.70000000019,"y":2541423.3300000019}},{"attributes":{"ID":375527,"DIS_CODE":0,"TOWNNAME":"歸仁區","LI":"文化里","LIN":"10鄰","STREET":"民族北街","SECT":" ","MAREA":" ","LANE":"２３７巷","ALLEY":" ","HOUSE_NO":"１３號","E_COORD97":177439.04999999999,"N_COORD97":2541483.3199999998,"ADDRESS":"民族北街２３７巷１３號","OBJECTID":375517},"geometry":{"x":177439.04999999981,"y":2541483.3200000022}},{"attributes":{"ID":375528,"DIS_CODE":0,"TOWNNAME":"歸仁區","LI":"西埔里","LIN":"10鄰","STREET":"西埔一街","SECT":" ","MAREA":" ","LANE":"１８８巷","ALLEY":" ","HOUSE_NO":"１６號","E_COORD97":177122.81,"N_COORD97":2544586.9700000002,"ADDRESS":"西埔一街１８８巷１６號","OBJECTID":375518},"geometry":{"x":177122.81000000052,"y":2544586.9700000007}},{"attributes":{"ID":375529,"DIS_CODE":0,"TOWNNAME":"歸仁區","LI":"武東里","LIN":"10鄰","STREET":"武東三街","SECT":" ","MAREA":" ","LANE":"４６巷","ALLEY":" ","HOUSE_NO":"１１號","E_COORD97":175175.69,"N_COORD97":2535276.25,"ADDRESS":"武東三街４６巷１１號","OBJECTID":375519},"geometry":{"x":175175.69000000041,"y":2535276.2500000019}},{"attributes":{"ID":375530,"DIS_CODE":0,"TOWNNAME":"玉井區","LI":"中正里","LIN":"10鄰","STREET":"健康街","SECT":" ","MAREA":" ","LANE":"１６０巷","ALLEY":" ","HOUSE_NO":"２２號","E_COORD97":195505.23000000001,"N_COORD97":2558936.29,"ADDRESS":"健康街１６０巷２２號","OBJECTID":375520},"geometry":{"x":195505.23000000138,"y":2558936.290000001}},{"attributes":{"ID":375531,"DIS_CODE":0,"TOWNNAME":"玉井區","LI":"中正里","LIN":"10鄰","STREET":"健康街","SECT":" ","MAREA":" ","LANE":"１００巷","ALLEY":" ","HOUSE_NO":"２６號","E_COORD97":195617.53,"N_COORD97":2558896.29,"ADDRESS":"健康街１００巷２６號","OBJECTID":375521},"geometry":{"x":195617.53000000026,"y":2558896.290000001}},{"attributes":{"ID":375532,"DIS_CODE":0,"TOWNNAME":"玉井區","LI":"中正里","LIN":"10鄰","STREET":"健康街","SECT":" ","MAREA":" ","LANE":"１２２巷","ALLEY":" ","HOUSE_NO":"２８號","E_COORD97":195561.64000000001,"N_COORD97":2558927.29,"ADDRESS":"健康街１２２巷２８號","OBJECTID":375522},"geometry":{"x":195561.63999999966,"y":2558927.2899999991}},{"attributes":{"ID":375533,"DIS_CODE":0,"TOWNNAME":"玉井區","LI":"中正里","LIN":"10鄰","STREET":"健康街","SECT":" ","MAREA":" ","LANE":"１６０巷","ALLEY":" ","HOUSE_NO":"２號","E_COORD97":195500.89000000001,"N_COORD97":2558913.29,"ADDRESS":"健康街１６０巷２號","OBJECTID":375523},"geometry":{"x":195500.88999999966,"y":2558913.290000001}},{"attributes":{"ID":375534,"DIS_CODE":0,"TOWNNAME":"玉井區","LI":"中正里","LIN":"10鄰","STREET":"健康街","SECT":" ","MAREA":" ","LANE":"１２２巷","ALLEY":" ","HOUSE_NO":"４０號","E_COORD97":195567.34,"N_COORD97":2558944.2999999998,"ADDRESS":"健康街１２２巷４０號","OBJECTID":375524},"geometry":{"x":195567.33999999985,"y":2558944.3000000045}},{"attributes":{"ID":375535,"DIS_CODE":0,"TOWNNAME":"玉井區","LI":"中正里","LIN":"10鄰","STREET":"健康街","SECT":" ","MAREA":" ","LANE":"１００巷","ALLEY":" ","HOUSE_NO":"２８號","E_COORD97":195619.23000000001,"N_COORD97":2558899.29,"ADDRESS":"健康街１００巷２８號","OBJECTID":375525},"geometry":{"x":195619.23000000045,"y":2558899.290000001}},{"attributes":{"ID":375536,"DIS_CODE":0,"TOWNNAME":"玉井區","LI":"玉田里","LIN":"10鄰","STREET":"中華路","SECT":" ","MAREA":" ","LANE":"８２巷","ALLEY":" ","HOUSE_NO":"５號之１","E_COORD97":194929.04000000001,"N_COORD97":2558026.2999999998,"ADDRESS":"中華路８２巷５號之１","OBJECTID":375526},"geometry":{"x":194929.04000000004,"y":2558026.3000000026}},{"attributes":{"ID":375537,"DIS_CODE":0,"TOWNNAME":"玉井區","LI":"玉田里","LIN":"10鄰","STREET":"神農街","SECT":" ","MAREA":" ","LANE":"４６巷","ALLEY":" ","HOUSE_NO":"５號","E_COORD97":194841.17999999999,"N_COORD97":2557994.27,"ADDRESS":"神農街４６巷５號","OBJECTID":375527},"geometry":{"x":194841.1799999997,"y":2557994.2700000014}},{"attributes":{"ID":375538,"DIS_CODE":0,"TOWNNAME":"玉井區","LI":"玉田里","LIN":"10鄰","STREET":"神農街","SECT":" ","MAREA":" ","LANE":"４６巷","ALLEY":" ","HOUSE_NO":"１號","E_COORD97":194865.29000000001,"N_COORD97":2557981.27,"ADDRESS":"神農街４６巷１號","OBJECTID":375528},"geometry":{"x":194865.29000000097,"y":2557981.2700000014}},{"attributes":{"ID":375539,"DIS_CODE":0,"TOWNNAME":"玉井區","LI":"玉田里","LIN":"10鄰","STREET":"中華路","SECT":" ","MAREA":" ","LANE":"８２巷","ALLEY":" ","HOUSE_NO":"２２號","E_COORD97":194947.76000000001,"N_COORD97":2557966.2400000002,"ADDRESS":"中華路８２巷２２號","OBJECTID":375529},"geometry":{"x":194947.75999999885,"y":2557966.2400000002}},{"attributes":{"ID":375540,"DIS_CODE":0,"TOWNNAME":"玉井區","LI":"玉田里","LIN":"10鄰","STREET":"中華路","SECT":" ","MAREA":" ","LANE":"８２巷","ALLEY":" ","HOUSE_NO":"１７號","E_COORD97":194927.26000000001,"N_COORD97":2557973.2400000002,"ADDRESS":"中華路８２巷１７號","OBJECTID":375530},"geometry":{"x":194927.25999999978,"y":2557973.2400000002}},{"attributes":{"ID":375541,"DIS_CODE":0,"TOWNNAME":"玉井區","LI":"玉田里","LIN":"10鄰","STREET":"中華路","SECT":" ","MAREA":" ","LANE":"８２巷","ALLEY":" ","HOUSE_NO":"５號之２","E_COORD97":194930.07999999999,"N_COORD97":2558029.2999999998,"ADDRESS":"中華路８２巷５號之２","OBJECTID":375531},"geometry":{"x":194930.08000000007,"y":2558029.3000000026}},{"attributes":{"ID":375542,"DIS_CODE":0,"TOWNNAME":"玉井區","LI":"玉田里","LIN":"10鄰","STREET":"中華路","SECT":" ","MAREA":" ","LANE":"８２巷","ALLEY":" ","HOUSE_NO":"９號","E_COORD97":194942.70999999999,"N_COORD97":2557962.2400000002,"ADDRESS":"中華路８２巷９號","OBJECTID":375532},"geometry":{"x":194942.70999999996,"y":2557962.2400000021}},{"attributes":{"ID":375543,"DIS_CODE":0,"TOWNNAME":"玉井區","LI":"玉田里","LIN":"10鄰","STREET":"中華路","SECT":" ","MAREA":" ","LANE":"８２巷","ALLEY":" ","HOUSE_NO":"１０號","E_COORD97":194938.76000000001,"N_COORD97":2557965.2400000002,"ADDRESS":"中華路８２巷１０號","OBJECTID":375533},"geometry":{"x":194938.75999999978,"y":2557965.2400000021}},{"attributes":{"ID":375544,"DIS_CODE":0,"TOWNNAME":"玉井區","LI":"玉田里","LIN":"10鄰","STREET":"中華路","SECT":" ","MAREA":" ","LANE":"８２巷","ALLEY":" ","HOUSE_NO":"１１號","E_COORD97":194935.14999999999,"N_COORD97":2557966.2400000002,"ADDRESS":"中華路８２巷１１號","OBJECTID":375534},"geometry":{"x":194935.15000000037,"y":2557966.2400000002}},{"attributes":{"ID":375545,"DIS_CODE":0,"TOWNNAME":"玉井區","LI":"玉田里","LIN":"10鄰","STREET":"中華路","SECT":" ","MAREA":" ","LANE":"８２巷","ALLEY":" ","HOUSE_NO":"５號","E_COORD97":194980.60000000001,"N_COORD97":2557994.2400000002,"ADDRESS":"中華路８２巷５號","OBJECTID":375535},"geometry":{"x":194980.59999999963,"y":2557994.2400000002}},{"attributes":{"ID":375546,"DIS_CODE":0,"TOWNNAME":"玉井區","LI":"中正里","LIN":"10鄰","STREET":"健康街","SECT":" ","MAREA":" ","LANE":"１００巷","ALLEY":" ","HOUSE_NO":"３號","E_COORD97":195588.89000000001,"N_COORD97":2558897.29,"ADDRESS":"健康街１００巷３號","OBJECTID":375536},"geometry":{"x":195588.88999999966,"y":2558897.2899999991}},{"attributes":{"ID":375547,"DIS_CODE":0,"TOWNNAME":"玉井區","LI":"中正里","LIN":"10鄰","STREET":"健康街","SECT":" ","MAREA":" ","LANE":"１００巷","ALLEY":" ","HOUSE_NO":"５號","E_COORD97":195589.98000000001,"N_COORD97":2558903.29,"ADDRESS":"健康街１００巷５號","OBJECTID":375537},"geometry":{"x":195589.98000000138,"y":2558903.290000001}},{"attributes":{"ID":375548,"DIS_CODE":0,"TOWNNAME":"玉井區","LI":"中正里","LIN":"10鄰","STREET":"健康街","SECT":" ","MAREA":" ","LANE":"１００巷","ALLEY":" ","HOUSE_NO":"１２號","E_COORD97":195597.03,"N_COORD97":2558871.2999999998,"ADDRESS":"健康街１００巷１２號","OBJECTID":375538},"geometry":{"x":195597.03000000026,"y":2558871.3000000007}},{"attributes":{"ID":375549,"DIS_CODE":0,"TOWNNAME":"玉井區","LI":"玉井里","LIN":"10鄰","STREET":"民生路","SECT":" ","MAREA":" ","LANE":"１１巷","ALLEY":" ","HOUSE_NO":"７號","E_COORD97":194720.34,"N_COORD97":2558211.2799999998,"ADDRESS":"民生路１１巷７號","OBJECTID":375539},"geometry":{"x":194720.34000000171,"y":2558211.2800000012}},{"attributes":{"ID":375550,"DIS_CODE":0,"TOWNNAME":"玉井區","LI":"玉井里","LIN":"10鄰","STREET":"民生路","SECT":" ","MAREA":" ","LANE":"１１巷","ALLEY":" ","HOUSE_NO":"１３號","E_COORD97":194709.07999999999,"N_COORD97":2558220.29,"ADDRESS":"民生路１１巷１３號","OBJECTID":375540},"geometry":{"x":194709.08000000101,"y":2558220.2900000028}},{"attributes":{"ID":375551,"DIS_CODE":0,"TOWNNAME":"玉井區","LI":"中正里","LIN":"10鄰","STREET":"健康街","SECT":" ","MAREA":" ","LANE":"１００巷","ALLEY":" ","HOUSE_NO":"５之１號","E_COORD97":195594.69,"N_COORD97":2558909.29,"ADDRESS":"健康街１００巷５之１號","OBJECTID":375541},"geometry":{"x":195594.69000000041,"y":2558909.290000001}},{"attributes":{"ID":375552,"DIS_CODE":0,"TOWNNAME":"玉井區","LI":"中正里","LIN":"10鄰","STREET":"健康街","SECT":" ","MAREA":" ","LANE":"１００巷","ALLEY":" ","HOUSE_NO":"２０號","E_COORD97":195608.34,"N_COORD97":2558889.29,"ADDRESS":"健康街１００巷２０號","OBJECTID":375542},"geometry":{"x":195608.33999999985,"y":2558889.290000001}},{"attributes":{"ID":375553,"DIS_CODE":0,"TOWNNAME":"玉井區","LI":"玉井里","LIN":"10鄰","STREET":"民生路","SECT":" ","MAREA":" ","LANE":"１１巷","ALLEY":" ","HOUSE_NO":"９號","E_COORD97":194716.34,"N_COORD97":2558212.2799999998,"ADDRESS":"民生路１１巷９號","OBJECTID":375543},"geometry":{"x":194716.33999999985,"y":2558212.2799999993}},{"attributes":{"ID":375554,"DIS_CODE":0,"TOWNNAME":"玉井區","LI":"玉井里","LIN":"10鄰","STREET":"民生路","SECT":" ","MAREA":" ","LANE":"１１巷","ALLEY":" ","HOUSE_NO":"３號","E_COORD97":194729.73999999999,"N_COORD97":2558212.2799999998,"ADDRESS":"民生路１１巷３號","OBJECTID":375544},"geometry":{"x":194729.74000000209,"y":2558212.2799999993}},{"attributes":{"ID":375555,"DIS_CODE":0,"TOWNNAME":"玉井區","LI":"玉井里","LIN":"10鄰","STREET":"樹糖街","SECT":" ","MAREA":" ","LANE":"１６巷","ALLEY":" ","HOUSE_NO":"３號","E_COORD97":194685.14000000001,"N_COORD97":2558184.2400000002,"ADDRESS":"樹糖街１６巷３號","OBJECTID":375545},"geometry":{"x":194685.13999999966,"y":2558184.2399999984}},{"attributes":{"ID":375556,"DIS_CODE":0,"TOWNNAME":"南區","LI":"文南里","LIN":"10鄰","STREET":"文南路","SECT":" ","MAREA":" ","LANE":"１０５巷","ALLEY":" ","HOUSE_NO":"２號","E_COORD97":166906.01999999999,"N_COORD97":2542815.6699999999,"ADDRESS":"文南路１０５巷２號","OBJECTID":375546},"geometry":{"x":166906.02000000048,"y":2542815.6699999999}},{"attributes":{"ID":375557,"DIS_CODE":0,"TOWNNAME":"南區","LI":"文南里","LIN":"10鄰","STREET":"文南路","SECT":" ","MAREA":" ","LANE":"１０５巷","ALLEY":" ","HOUSE_NO":"６號","E_COORD97":166899.73999999999,"N_COORD97":2542815.8599999999,"ADDRESS":"文南路１０５巷６號","OBJECTID":375547},"geometry":{"x":166899.73999999929,"y":2542815.8600000013}},{"attributes":{"ID":375558,"DIS_CODE":0,"TOWNNAME":"南區","LI":"文南里","LIN":"10鄰","STREET":"文南路","SECT":" ","MAREA":" ","LANE":"１０５巷","ALLEY":" ","HOUSE_NO":"８號","E_COORD97":166892.51999999999,"N_COORD97":2542817,"ADDRESS":"文南路１０５巷８號","OBJECTID":375548},"geometry":{"x":166892.52000000048,"y":2542816.9999999981}},{"attributes":{"ID":375559,"DIS_CODE":0,"TOWNNAME":"南區","LI":"文南里","LIN":"10鄰","STREET":"文南路","SECT":" ","MAREA":" ","LANE":"１０５巷","ALLEY":" ","HOUSE_NO":"１０號","E_COORD97":166885.09,"N_COORD97":2542817.5699999998,"ADDRESS":"文南路１０５巷１０號","OBJECTID":375549},"geometry":{"x":166885.08999999892,"y":2542817.5700000022}},{"attributes":{"ID":375560,"DIS_CODE":0,"TOWNNAME":"南區","LI":"文南里","LIN":"10鄰","STREET":"文南路","SECT":" ","MAREA":" ","LANE":"１０５巷","ALLEY":" ","HOUSE_NO":"１２號","E_COORD97":166879.57999999999,"N_COORD97":2542817.9500000002,"ADDRESS":"文南路１０５巷１２號","OBJECTID":375550},"geometry":{"x":166879.58000000007,"y":2542817.9500000011}},{"attributes":{"ID":375561,"DIS_CODE":0,"TOWNNAME":"南區","LI":"文南里","LIN":"10鄰","STREET":"文南路","SECT":" ","MAREA":" ","LANE":"１０５巷","ALLEY":" ","HOUSE_NO":"１４號","E_COORD97":166872.73000000001,"N_COORD97":2542818.52,"ADDRESS":"文南路１０５巷１４號","OBJECTID":375551},"geometry":{"x":166872.73000000045,"y":2542818.5199999996}},{"attributes":{"ID":375562,"DIS_CODE":0,"TOWNNAME":"南區","LI":"文南里","LIN":"10鄰","STREET":"文南路","SECT":" ","MAREA":" ","LANE":"１０５巷","ALLEY":" ","HOUSE_NO":"１６號","E_COORD97":166866.64000000001,"N_COORD97":2542819.6600000001,"ADDRESS":"文南路１０５巷１６號","OBJECTID":375552},"geometry":{"x":166866.6400000006,"y":2542819.6600000039}},{"attributes":{"ID":375563,"DIS_CODE":0,"TOWNNAME":"南區","LI":"文南里","LIN":"10鄰","STREET":"文南路","SECT":" ","MAREA":" ","LANE":"１０５巷","ALLEY":" ","HOUSE_NO":"１８號","E_COORD97":166860.56,"N_COORD97":2542820.04,"ADDRESS":"文南路１０５巷１８號","OBJECTID":375553},"geometry":{"x":166860.55999999959,"y":2542820.040000001}},{"attributes":{"ID":375564,"DIS_CODE":0,"TOWNNAME":"南區","LI":"文南里","LIN":"10鄰","STREET":"文南路","SECT":" ","MAREA":" ","LANE":"１０５巷","ALLEY":" ","HOUSE_NO":"２０號","E_COORD97":166854.47,"N_COORD97":2542820.04,"ADDRESS":"文南路１０５巷２０號","OBJECTID":375554},"geometry":{"x":166854.47000000067,"y":2542820.040000001}},{"attributes":{"ID":375565,"DIS_CODE":0,"TOWNNAME":"南區","LI":"文南里","LIN":"10鄰","STREET":"文南路","SECT":" ","MAREA":" ","LANE":"１０５巷","ALLEY":" ","HOUSE_NO":"２２號","E_COORD97":166848,"N_COORD97":2542821.1800000002,"ADDRESS":"文南路１０５巷２２號","OBJECTID":375555},"geometry":{"x":166848,"y":2542821.1799999997}},{"attributes":{"ID":375566,"DIS_CODE":0,"TOWNNAME":"南區","LI":"文南里","LIN":"10鄰","STREET":"文南路","SECT":" ","MAREA":" ","LANE":"１０５巷","ALLEY":" ","HOUSE_NO":"２４號","E_COORD97":166841.91,"N_COORD97":2542821.75,"ADDRESS":"文南路１０５巷２４號","OBJECTID":375556},"geometry":{"x":166841.91000000015,"y":2542821.75}},{"attributes":{"ID":375567,"DIS_CODE":0,"TOWNNAME":"南區","LI":"文南里","LIN":"10鄰","STREET":"文南路","SECT":" ","MAREA":" ","LANE":"１０５巷","ALLEY":" ","HOUSE_NO":"２６號","E_COORD97":166835.45000000001,"N_COORD97":2542822.5099999998,"ADDRESS":"文南路１０５巷２６號","OBJECTID":375557},"geometry":{"x":166835.45000000019,"y":2542822.5099999998}},{"attributes":{"ID":375568,"DIS_CODE":0,"TOWNNAME":"南區","LI":"文南里","LIN":"10鄰","STREET":"文南路","SECT":" ","MAREA":" ","LANE":"１０５巷","ALLEY":" ","HOUSE_NO":"２８號","E_COORD97":166829.70000000001,"N_COORD97":2542823.04,"ADDRESS":"文南路１０５巷２８號","OBJECTID":375558},"geometry":{"x":166829.70000000112,"y":2542823.0400000028}},{"attributes":{"ID":375569,"DIS_CODE":0,"TOWNNAME":"南區","LI":"文南里","LIN":"10鄰","STREET":"文南路","SECT":" ","MAREA":" ","LANE":"１０５巷","ALLEY":" ","HOUSE_NO":"３０號","E_COORD97":166823.56,"N_COORD97":2542824,"ADDRESS":"文南路１０５巷３０號","OBJECTID":375559},"geometry":{"x":166823.55999999959,"y":2542824.0000000037}},{"attributes":{"ID":375570,"DIS_CODE":0,"TOWNNAME":"南區","LI":"文南里","LIN":"10鄰","STREET":"文南路","SECT":" ","MAREA":" ","LANE":"１０５巷","ALLEY":" ","HOUSE_NO":"３２號","E_COORD97":166817.62,"N_COORD97":2542823.6099999999,"ADDRESS":"文南路１０５巷３２號","OBJECTID":375560},"geometry":{"x":166817.62000000104,"y":2542823.6100000013}},{"attributes":{"ID":375571,"DIS_CODE":0,"TOWNNAME":"新營區","LI":"南紙里","LIN":"10鄰","STREET":"南紙街","SECT":" ","MAREA":" ","LANE":"５４巷","ALLEY":" ","HOUSE_NO":"５號","E_COORD97":177779.73999999999,"N_COORD97":2577671.9300000002,"ADDRESS":"南紙街５４巷５號","OBJECTID":375561},"geometry":{"x":177779.74000000115,"y":2577671.9300000016}},{"attributes":{"ID":375572,"DIS_CODE":0,"TOWNNAME":"南區","LI":"文南里","LIN":"10鄰","STREET":"文南路","SECT":" ","MAREA":" ","LANE":"１０５巷","ALLEY":" ","HOUSE_NO":"３４號","E_COORD97":166810.72,"N_COORD97":2542824.3799999999,"ADDRESS":"文南路１０５巷３４號","OBJECTID":375562},"geometry":{"x":166810.71999999974,"y":2542824.3800000008}},{"attributes":{"ID":375573,"DIS_CODE":0,"TOWNNAME":"南區","LI":"文南里","LIN":"10鄰","STREET":"文南路","SECT":" ","MAREA":" ","LANE":"１０５巷","ALLEY":" ","HOUSE_NO":"３６號","E_COORD97":166804.95999999999,"N_COORD97":2542824.5699999998,"ADDRESS":"文南路１０５巷３６號","OBJECTID":375563},"geometry":{"x":166804.96000000183,"y":2542824.5700000022}},{"attributes":{"ID":375574,"DIS_CODE":0,"TOWNNAME":"南區","LI":"文南里","LIN":"10鄰","STREET":"文南路","SECT":" ","MAREA":" ","LANE":"１０５巷","ALLEY":" ","HOUSE_NO":"３８號","E_COORD97":166798.64000000001,"N_COORD97":2542825.1499999999,"ADDRESS":"文南路１０５巷３８號","OBJECTID":375564},"geometry":{"x":166798.6400000006,"y":2542825.1500000004}},{"attributes":{"ID":375575,"DIS_CODE":0,"TOWNNAME":"南區","LI":"文南里","LIN":"10鄰","STREET":"文南路","SECT":" ","MAREA":" ","LANE":"１０５巷","ALLEY":" ","HOUSE_NO":"４０號","E_COORD97":166793.26999999999,"N_COORD97":2542826.29,"ADDRESS":"文南路１０５巷４０號","OBJECTID":375565},"geometry":{"x":166793.26999999955,"y":2542826.2899999991}},{"attributes":{"ID":375576,"DIS_CODE":0,"TOWNNAME":"南區","LI":"文南里","LIN":"10鄰","STREET":"文南路","SECT":" ","MAREA":" ","LANE":"１０５巷","ALLEY":" ","HOUSE_NO":"４２號","E_COORD97":166786.17000000001,"N_COORD97":2542826.8700000001,"ADDRESS":"文南路１０５巷４２號","OBJECTID":375566},"geometry":{"x":166786.16999999993,"y":2542826.8700000029}},{"attributes":{"ID":375577,"DIS_CODE":0,"TOWNNAME":"南區","LI":"文南里","LIN":"10鄰","STREET":"文南路","SECT":" ","MAREA":" ","LANE":"１０５巷","ALLEY":" ","HOUSE_NO":"４２號之１","E_COORD97":166780.60999999999,"N_COORD97":2542828.21,"ADDRESS":"文南路１０５巷４２號之１","OBJECTID":375567},"geometry":{"x":166780.6100000022,"y":2542828.2100000028}},{"attributes":{"ID":375578,"DIS_CODE":0,"TOWNNAME":"南區","LI":"文南里","LIN":"10鄰","STREET":"文南路","SECT":" ","MAREA":" ","LANE":"１０５巷","ALLEY":" ","HOUSE_NO":"４６號","E_COORD97":166774.47,"N_COORD97":2542828.3999999999,"ADDRESS":"文南路１０５巷４６號","OBJECTID":375568},"geometry":{"x":166774.47000000067,"y":2542828.4000000041}},{"attributes":{"ID":375579,"DIS_CODE":0,"TOWNNAME":"南區","LI":"文南里","LIN":"10鄰","STREET":"文南路","SECT":" ","MAREA":" ","LANE":"１０５巷","ALLEY":" ","HOUSE_NO":"４８號","E_COORD97":166767.95000000001,"N_COORD97":2542828.5899999999,"ADDRESS":"文南路１０５巷４８號","OBJECTID":375569},"geometry":{"x":166767.95000000205,"y":2542828.5899999999}},{"attributes":{"ID":375580,"DIS_CODE":0,"TOWNNAME":"南區","LI":"文南里","LIN":"10鄰","STREET":"文南路","SECT":" ","MAREA":" ","LANE":"１０５巷","ALLEY":" ","HOUSE_NO":"５０號","E_COORD97":166762.59,"N_COORD97":2542828.79,"ADDRESS":"文南路１０５巷５０號","OBJECTID":375570},"geometry":{"x":166762.58999999985,"y":2542828.790000001}},{"attributes":{"ID":375581,"DIS_CODE":0,"TOWNNAME":"南區","LI":"文南里","LIN":"10鄰","STREET":"文南路","SECT":" ","MAREA":" ","LANE":"１０５巷","ALLEY":" ","HOUSE_NO":"５２號","E_COORD97":166755.48999999999,"N_COORD97":2542829.3599999999,"ADDRESS":"文南路１０５巷５２號","OBJECTID":375571},"geometry":{"x":166755.49000000022,"y":2542829.3600000013}},{"attributes":{"ID":375582,"DIS_CODE":0,"TOWNNAME":"南區","LI":"文南里","LIN":"10鄰","STREET":"文南路","SECT":" ","MAREA":" ","LANE":"１０５巷","ALLEY":" ","HOUSE_NO":"５４號","E_COORD97":166748.98000000001,"N_COORD97":2542829.9399999999,"ADDRESS":"文南路１０５巷５４號","OBJECTID":375572},"geometry":{"x":166748.98000000045,"y":2542829.9399999995}},{"attributes":{"ID":375583,"DIS_CODE":0,"TOWNNAME":"南區","LI":"文南里","LIN":"10鄰","STREET":"文南路","SECT":" ","MAREA":" ","LANE":"１０５巷","ALLEY":" ","HOUSE_NO":"５６號","E_COORD97":166743.42000000001,"N_COORD97":2542830.6899999999,"ADDRESS":"文南路１０５巷５６號","OBJECTID":375573},"geometry":{"x":166743.41999999993,"y":2542830.6899999995}},{"attributes":{"ID":375584,"DIS_CODE":0,"TOWNNAME":"南區","LI":"文南里","LIN":"10鄰","STREET":"文南路","SECT":" ","MAREA":" ","LANE":"１０５巷","ALLEY":" ","HOUSE_NO":"５８號","E_COORD97":166737.07999999999,"N_COORD97":2542831.0800000001,"ADDRESS":"文南路１０５巷５８號","OBJECTID":375574},"geometry":{"x":166737.08000000101,"y":2542831.0800000019}},{"attributes":{"ID":375585,"DIS_CODE":0,"TOWNNAME":"南區","LI":"文南里","LIN":"10鄰","STREET":"文南路","SECT":" ","MAREA":" ","LANE":"１０５巷","ALLEY":" ","HOUSE_NO":"６０號","E_COORD97":166730.95999999999,"N_COORD97":2542832.04,"ADDRESS":"文南路１０５巷６０號","OBJECTID":375575},"geometry":{"x":166730.96000000089,"y":2542832.0399999991}},{"attributes":{"ID":375586,"DIS_CODE":0,"TOWNNAME":"南區","LI":"文南里","LIN":"10鄰","STREET":"文南路","SECT":" ","MAREA":" ","LANE":"１０５巷","ALLEY":" ","HOUSE_NO":"６２號","E_COORD97":166724.23999999999,"N_COORD97":2542832.4300000002,"ADDRESS":"文南路１０５巷６２號","OBJECTID":375576},"geometry":{"x":166724.24000000115,"y":2542832.4300000016}},{"attributes":{"ID":375587,"DIS_CODE":0,"TOWNNAME":"北區","LI":"正風里","LIN":"10鄰","STREET":"公園路","SECT":" ","MAREA":" ","LANE":"１０３２巷","ALLEY":" ","HOUSE_NO":"１號","E_COORD97":169605.73999999999,"N_COORD97":2546431.1600000001,"ADDRESS":"公園路１０３２巷１號","OBJECTID":375577},"geometry":{"x":169605.74000000115,"y":2546431.160000002}},{"attributes":{"ID":375588,"DIS_CODE":0,"TOWNNAME":"北區","LI":"正風里","LIN":"10鄰","STREET":"公園路","SECT":" ","MAREA":" ","LANE":"１０３２巷","ALLEY":" ","HOUSE_NO":"１０號","E_COORD97":169649.81,"N_COORD97":2546413.4199999999,"ADDRESS":"公園路１０３２巷１０號","OBJECTID":375578},"geometry":{"x":169649.80999999959,"y":2546413.4199999999}},{"attributes":{"ID":375589,"DIS_CODE":0,"TOWNNAME":"北區","LI":"正風里","LIN":"10鄰","STREET":"公園路","SECT":" ","MAREA":" ","LANE":"１０３２巷","ALLEY":" ","HOUSE_NO":"１１號","E_COORD97":169625.94,"N_COORD97":2546431.96,"ADDRESS":"公園路１０３２巷１１號","OBJECTID":375579},"geometry":{"x":169625.94000000041,"y":2546431.9600000009}},{"attributes":{"ID":375590,"DIS_CODE":0,"TOWNNAME":"北區","LI":"正風里","LIN":"10鄰","STREET":"公園路","SECT":" ","MAREA":" ","LANE":"１０３２巷","ALLEY":" ","HOUSE_NO":"１３號","E_COORD97":169630.10999999999,"N_COORD97":2546428.2000000002,"ADDRESS":"公園路１０３２巷１３號","OBJECTID":375580},"geometry":{"x":169630.1100000022,"y":2546428.1999999993}},{"attributes":{"ID":375591,"DIS_CODE":0,"TOWNNAME":"北區","LI":"正風里","LIN":"10鄰","STREET":"公園路","SECT":" ","MAREA":" ","LANE":"１０３２巷","ALLEY":" ","HOUSE_NO":"１５號","E_COORD97":169630.60000000001,"N_COORD97":2546443.9399999999,"ADDRESS":"公園路１０３２巷１５號","OBJECTID":375581},"geometry":{"x":169630.59999999963,"y":2546443.9399999995}},{"attributes":{"ID":375592,"DIS_CODE":0,"TOWNNAME":"北區","LI":"正風里","LIN":"10鄰","STREET":"公園路","SECT":" ","MAREA":" ","LANE":"１０３２巷","ALLEY":" ","HOUSE_NO":"１５號之１","E_COORD97":169630.97,"N_COORD97":2546448.1899999999,"ADDRESS":"公園路１０３２巷１５號之１","OBJECTID":375582},"geometry":{"x":169630.97000000067,"y":2546448.1900000013}},{"attributes":{"ID":375593,"DIS_CODE":0,"TOWNNAME":"北區","LI":"正風里","LIN":"10鄰","STREET":"公園路","SECT":" ","MAREA":" ","LANE":"１０３２巷","ALLEY":" ","HOUSE_NO":"１５號之２","E_COORD97":169631.12,"N_COORD97":2546453.3599999999,"ADDRESS":"公園路１０３２巷１５號之２","OBJECTID":375583},"geometry":{"x":169631.12000000011,"y":2546453.3600000013}},{"attributes":{"ID":375594,"DIS_CODE":0,"TOWNNAME":"北區","LI":"正風里","LIN":"10鄰","STREET":"公園路","SECT":" ","MAREA":" ","LANE":"１０３２巷","ALLEY":" ","HOUSE_NO":"１７號","E_COORD97":169641.51000000001,"N_COORD97":2546431.1099999999,"ADDRESS":"公園路１０３２巷１７號","OBJECTID":375584},"geometry":{"x":169641.50999999978,"y":2546431.1100000013}},{"attributes":{"ID":375595,"DIS_CODE":0,"TOWNNAME":"北區","LI":"正風里","LIN":"10鄰","STREET":"公園路","SECT":" ","MAREA":" ","LANE":"１０３２巷","ALLEY":" ","HOUSE_NO":"１９號","E_COORD97":169648.28,"N_COORD97":2546429.5800000001,"ADDRESS":"公園路１０３２巷１９號","OBJECTID":375585},"geometry":{"x":169648.28000000119,"y":2546429.5800000001}},{"attributes":{"ID":375596,"DIS_CODE":0,"TOWNNAME":"北區","LI":"正風里","LIN":"10鄰","STREET":"公園路","SECT":" ","MAREA":" ","LANE":"１０３２巷","ALLEY":" ","HOUSE_NO":"７號","E_COORD97":169616.13,"N_COORD97":2546432.1400000001,"ADDRESS":"公園路１０３２巷７號","OBJECTID":375586},"geometry":{"x":169616.13000000082,"y":2546432.1400000025}},{"attributes":{"ID":375597,"DIS_CODE":0,"TOWNNAME":"北區","LI":"正風里","LIN":"10鄰","STREET":"公園路","SECT":" ","MAREA":" ","LANE":"１０３２巷","ALLEY":" ","HOUSE_NO":"８號","E_COORD97":169644.85999999999,"N_COORD97":2546412.4300000002,"ADDRESS":"公園路１０３２巷８號","OBJECTID":375587},"geometry":{"x":169644.86000000034,"y":2546412.4300000016}},{"attributes":{"ID":375598,"DIS_CODE":0,"TOWNNAME":"北區","LI":"正風里","LIN":"10鄰","STREET":"公園路","SECT":" ","MAREA":" ","LANE":"１０６２巷","ALLEY":" ","HOUSE_NO":"３號","E_COORD97":169626.73999999999,"N_COORD97":2546502.5600000001,"ADDRESS":"公園路１０６２巷３號","OBJECTID":375588},"geometry":{"x":169626.74000000022,"y":2546502.5599999987}},{"attributes":{"ID":375599,"DIS_CODE":0,"TOWNNAME":"北區","LI":"正風里","LIN":"10鄰","STREET":"公園路","SECT":" ","MAREA":" ","LANE":"１０６２巷","ALLEY":" ","HOUSE_NO":"３號之１","E_COORD97":169651.04999999999,"N_COORD97":2546474.5899999999,"ADDRESS":"公園路１０６２巷３號之１","OBJECTID":375589},"geometry":{"x":169651.05000000075,"y":2546474.5900000036}},{"attributes":{"ID":375600,"DIS_CODE":0,"TOWNNAME":"北區","LI":"正風里","LIN":"10鄰","STREET":"公園路","SECT":" ","MAREA":" ","LANE":"１０６２巷","ALLEY":" ","HOUSE_NO":"３號之２","E_COORD97":169637.23999999999,"N_COORD97":2546493.2000000002,"ADDRESS":"公園路１０６２巷３號之２","OBJECTID":375590},"geometry":{"x":169637.24000000022,"y":2546493.1999999993}},{"attributes":{"ID":375601,"DIS_CODE":0,"TOWNNAME":"北區","LI":"正風里","LIN":"10鄰","STREET":"公園路","SECT":" ","MAREA":" ","LANE":"１０６２巷","ALLEY":" ","HOUSE_NO":"３號之３","E_COORD97":169640.97,"N_COORD97":2546492.7400000002,"ADDRESS":"公園路１０６２巷３號之３","OBJECTID":375591},"geometry":{"x":169640.97000000067,"y":2546492.7400000021}},{"attributes":{"ID":375602,"DIS_CODE":0,"TOWNNAME":"北區","LI":"正風里","LIN":"10鄰","STREET":"公園路","SECT":" ","MAREA":" ","LANE":"１０６２巷","ALLEY":" ","HOUSE_NO":"３號之４","E_COORD97":169644.62,"N_COORD97":2546492.3599999999,"ADDRESS":"公園路１０６２巷３號之４","OBJECTID":375592},"geometry":{"x":169644.62000000011,"y":2546492.3599999994}},{"attributes":{"ID":375603,"DIS_CODE":0,"TOWNNAME":"北區","LI":"正風里","LIN":"10鄰","STREET":"公園路","SECT":" ","MAREA":" ","LANE":"１０６２巷","ALLEY":" ","HOUSE_NO":"３號之５","E_COORD97":169647.97,"N_COORD97":2546492.21,"ADDRESS":"公園路１０６２巷３號之５","OBJECTID":375593},"geometry":{"x":169647.97000000067,"y":2546492.2100000046}},{"attributes":{"ID":375604,"DIS_CODE":0,"TOWNNAME":"關廟區","LI":"新埔里","LIN":"10鄰","STREET":"新埔二街","SECT":" ","MAREA":" ","LANE":"７２巷","ALLEY":" ","HOUSE_NO":"６號","E_COORD97":181436.57000000001,"N_COORD97":2541000.25,"ADDRESS":"新埔二街７２巷６號","OBJECTID":375594},"geometry":{"x":181436.5700000003,"y":2541000.25}},{"attributes":{"ID":375605,"DIS_CODE":0,"TOWNNAME":"北區","LI":"正風里","LIN":"10鄰","STREET":"公園路","SECT":" ","MAREA":" ","LANE":"１０６２巷","ALLEY":" ","HOUSE_NO":"３號之６","E_COORD97":169652.07999999999,"N_COORD97":2546492.0600000001,"ADDRESS":"公園路１０６２巷３號之６","OBJECTID":375595},"geometry":{"x":169652.08000000194,"y":2546492.0600000005}},{"attributes":{"ID":375606,"DIS_CODE":0,"TOWNNAME":"安南區","LI":"安順里","LIN":"13鄰","STREET":"育安街","SECT":" ","MAREA":" ","LANE":" ","ALLEY":" ","HOUSE_NO":"２８２號","E_COORD97":169610.01999999999,"N_COORD97":2550144.0499999998,"ADDRESS":"育安街２８２號","OBJECTID":375596},"geometry":{"x":169610.02000000048,"y":2550144.0500000007}},{"attributes":{"ID":375607,"DIS_CODE":0,"TOWNNAME":"北區","LI":"正風里","LIN":"10鄰","STREET":"公園路","SECT":" ","MAREA":" ","LANE":"１０６２巷","ALLEY":" ","HOUSE_NO":"３號之７","E_COORD97":169655.42999999999,"N_COORD97":2546491.8300000001,"ADDRESS":"公園路１０６２巷３號之７","OBJECTID":375597},"geometry":{"x":169655.4299999997,"y":2546491.8300000019}},{"attributes":{"ID":375608,"DIS_CODE":0,"TOWNNAME":"北區","LI":"正風里","LIN":"10鄰","STREET":"公園路","SECT":" ","MAREA":" ","LANE":"１０６２巷","ALLEY":" ","HOUSE_NO":"３號之８","E_COORD97":169659.16,"N_COORD97":2546491.8999999999,"ADDRESS":"公園路１０６２巷３號之８","OBJECTID":375598},"geometry":{"x":169659.16000000108,"y":2546491.9000000004}},{"attributes":{"ID":375609,"DIS_CODE":0,"TOWNNAME":"北區","LI":"正風里","LIN":"10鄰","STREET":"公園路","SECT":" ","MAREA":" ","LANE":"１０６２巷","ALLEY":" ","HOUSE_NO":"３號之９","E_COORD97":169662.98999999999,"N_COORD97":2546482.9199999999,"ADDRESS":"公園路１０６２巷３號之９","OBJECTID":375599},"geometry":{"x":169662.99000000209,"y":2546482.9200000037}},{"attributes":{"ID":375610,"DIS_CODE":0,"TOWNNAME":"北區","LI":"正風里","LIN":"10鄰","STREET":"公園路","SECT":" ","MAREA":" ","LANE":"１０６２巷","ALLEY":" ","HOUSE_NO":"４號","E_COORD97":169639.01000000001,"N_COORD97":2546468.3599999999,"ADDRESS":"公園路１０６２巷４號","OBJECTID":375600},"geometry":{"x":169639.01000000071,"y":2546468.3599999994}}]}