{"displayFieldName":"TOWNNAME","fieldAliases":{"ID":"ID","DIS_CODE":"DIS_CODE","TOWNNAME":"TOWNNAME","LI":"LI","LIN":"LIN","STREET":"STREET","SECT":"SECT","MAREA":"MAREA","LANE":"LANE","ALLEY":"ALLEY","HOUSE_NO":"HOUSE_NO","E_COORD97":"E_COORD97","N_COORD97":"N_COORD97","ADDRESS":"ADDRESS","OBJECTID":"OBJECTID"},"geometryType":"esriGeometryPoint","spatialReference":{"wkid":102443,"latestWkid":3826},"fields":[{"name":"ID","type":"esriFieldTypeDouble","alias":"ID"},{"name":"DIS_CODE","type":"esriFieldTypeInteger","alias":"DIS_CODE"},{"name":"TOWNNAME","type":"esriFieldTypeString","alias":"TOWNNAME","length":8},{"name":"LI","type":"esriFieldTypeString","alias":"LI","length":8},{"name":"LIN","type":"esriFieldTypeString","alias":"LIN","length":12},{"name":"STREET","type":"esriFieldTypeString","alias":"STREET","length":20},{"name":"SECT","type":"esriFieldTypeString","alias":"SECT","length":8},{"name":"MAREA","type":"esriFieldTypeString","alias":"MAREA","length":12},{"name":"LANE","type":"esriFieldTypeString","alias":"LANE","length":10},{"name":"ALLEY","type":"esriFieldTypeString","alias":"ALLEY","length":10},{"name":"HOUSE_NO","type":"esriFieldTypeString","alias":"HOUSE_NO","length":20},{"name":"E_COORD97","type":"esriFieldTypeDouble","alias":"E_COORD97"},{"name":"N_COORD97","type":"esriFieldTypeDouble","alias":"N_COORD97"},{"name":"ADDRESS","type":"esriFieldTypeString","alias":"ADDRESS","length":50},{"name":"OBJECTID","type":"esriFieldTypeOID","alias":"OBJECTID"}],"features":[{"attributes":{"ID":642228,"DIS_CODE":0,"TOWNNAME":"鹽水區","LI":"中境里","LIN":"4鄰","STREET":"中正路","SECT":" ","MAREA":" ","LANE":" ","ALLEY":" ","HOUSE_NO":"２０號","E_COORD97":175107.54000000001,"N_COORD97":2579976.6099999999,"ADDRESS":"中正路２０號","OBJECTID":642201},"geometry":{"x":175107.5400000019,"y":2579976.6099999994}},{"attributes":{"ID":642229,"DIS_CODE":0,"TOWNNAME":"鹽水區","LI":"水正里","LIN":"4鄰","STREET":"中正路","SECT":" ","MAREA":" ","LANE":" ","ALLEY":" ","HOUSE_NO":"２１號","E_COORD97":175133.35000000001,"N_COORD97":2579928.8700000001,"ADDRESS":"中正路２１號","OBJECTID":642202},"geometry":{"x":175133.34999999963,"y":2579928.870000001}},{"attributes":{"ID":642230,"DIS_CODE":0,"TOWNNAME":"鹽水區","LI":"中境里","LIN":"4鄰","STREET":"中正路","SECT":" ","MAREA":" ","LANE":" ","ALLEY":" ","HOUSE_NO":"２２號","E_COORD97":175108.84,"N_COORD97":2579972.5600000001,"ADDRESS":"中正路２２號","OBJECTID":642203},"geometry":{"x":175108.84000000078,"y":2579972.5600000042}},{"attributes":{"ID":642231,"DIS_CODE":0,"TOWNNAME":"鹽水區","LI":"水正里","LIN":"4鄰","STREET":"中正路","SECT":" ","MAREA":" ","LANE":" ","ALLEY":" ","HOUSE_NO":"２３號","E_COORD97":175131.98000000001,"N_COORD97":2579924.3599999999,"ADDRESS":"中正路２３號","OBJECTID":642204},"geometry":{"x":175131.98000000231,"y":2579924.3599999994}},{"attributes":{"ID":642232,"DIS_CODE":0,"TOWNNAME":"鹽水區","LI":"中境里","LIN":"4鄰","STREET":"中正路","SECT":" ","MAREA":" ","LANE":" ","ALLEY":" ","HOUSE_NO":"２４號之１","E_COORD97":175082.07000000001,"N_COORD97":2579977.0600000001,"ADDRESS":"中正路２４號之１","OBJECTID":642205},"geometry":{"x":175082.07000000216,"y":2579977.0600000024}},{"attributes":{"ID":642233,"DIS_CODE":0,"TOWNNAME":"鹽水區","LI":"中境里","LIN":"4鄰","STREET":"中正路","SECT":" ","MAREA":" ","LANE":" ","ALLEY":" ","HOUSE_NO":"２４號","E_COORD97":175108.25,"N_COORD97":2579969.4199999999,"ADDRESS":"中正路２４號","OBJECTID":642206},"geometry":{"x":175108.25000000093,"y":2579969.4200000037}},{"attributes":{"ID":642234,"DIS_CODE":0,"TOWNNAME":"鹽水區","LI":"中境里","LIN":"4鄰","STREET":"中正路","SECT":" ","MAREA":" ","LANE":" ","ALLEY":" ","HOUSE_NO":"２６號","E_COORD97":175107.94,"N_COORD97":2579965.8100000001,"ADDRESS":"中正路２６號","OBJECTID":642207},"geometry":{"x":175107.94000000041,"y":2579965.8100000005}},{"attributes":{"ID":642235,"DIS_CODE":0,"TOWNNAME":"鹽水區","LI":"中境里","LIN":"4鄰","STREET":"中正路","SECT":" ","MAREA":" ","LANE":" ","ALLEY":" ","HOUSE_NO":"２８號","E_COORD97":175111.32999999999,"N_COORD97":2579961.5,"ADDRESS":"中正路２８號","OBJECTID":642208},"geometry":{"x":175111.33000000101,"y":2579961.5}},{"attributes":{"ID":642236,"DIS_CODE":0,"TOWNNAME":"鹽水區","LI":"水正里","LIN":"13鄰","STREET":"中正路","SECT":" ","MAREA":" ","LANE":" ","ALLEY":" ","HOUSE_NO":"１５７號","E_COORD97":175041.04000000001,"N_COORD97":2579603.5899999999,"ADDRESS":"中正路１５７號","OBJECTID":642209},"geometry":{"x":175041.04000000004,"y":2579603.5900000017}},{"attributes":{"ID":642237,"DIS_CODE":0,"TOWNNAME":"鹽水區","LI":"水正里","LIN":"13鄰","STREET":"中正路","SECT":" ","MAREA":" ","LANE":" ","ALLEY":" ","HOUSE_NO":"１５９號","E_COORD97":175033.89000000001,"N_COORD97":2579585.52,"ADDRESS":"中正路１５９號","OBJECTID":642210},"geometry":{"x":175033.8900000006,"y":2579585.5200000033}},{"attributes":{"ID":642238,"DIS_CODE":0,"TOWNNAME":"鹽水區","LI":"水正里","LIN":"13鄰","STREET":"中正路","SECT":" ","MAREA":" ","LANE":" ","ALLEY":" ","HOUSE_NO":"１６５號","E_COORD97":175030.97,"N_COORD97":2579570.73,"ADDRESS":"中正路１６５號","OBJECTID":642211},"geometry":{"x":175030.96999999974,"y":2579570.7300000004}},{"attributes":{"ID":642239,"DIS_CODE":0,"TOWNNAME":"鹽水區","LI":"水正里","LIN":"13鄰","STREET":"中正路","SECT":" ","MAREA":" ","LANE":" ","ALLEY":" ","HOUSE_NO":"１６７號","E_COORD97":175030.29000000001,"N_COORD97":2579566.7400000002,"ADDRESS":"中正路１６７號","OBJECTID":642212},"geometry":{"x":175030.29000000004,"y":2579566.7400000002}},{"attributes":{"ID":642240,"DIS_CODE":0,"TOWNNAME":"鹽水區","LI":"水正里","LIN":"15鄰","STREET":"中正路","SECT":" ","MAREA":" ","LANE":" ","ALLEY":" ","HOUSE_NO":"１５８號","E_COORD97":175022.87,"N_COORD97":2579649.6899999999,"ADDRESS":"中正路１５８號","OBJECTID":642213},"geometry":{"x":175022.87000000104,"y":2579649.6900000013}},{"attributes":{"ID":642241,"DIS_CODE":0,"TOWNNAME":"鹽水區","LI":"水正里","LIN":"15鄰","STREET":"中正路","SECT":" ","MAREA":" ","LANE":" ","ALLEY":" ","HOUSE_NO":"１６０號","E_COORD97":175021.92999999999,"N_COORD97":2579644.5699999998,"ADDRESS":"中正路１６０號","OBJECTID":642214},"geometry":{"x":175021.93000000063,"y":2579644.5700000022}},{"attributes":{"ID":642242,"DIS_CODE":0,"TOWNNAME":"鹽水區","LI":"水正里","LIN":"15鄰","STREET":"中正路","SECT":" ","MAREA":" ","LANE":" ","ALLEY":" ","HOUSE_NO":"１６４號","E_COORD97":175021.14999999999,"N_COORD97":2579639.2599999998,"ADDRESS":"中正路１６４號","OBJECTID":642215},"geometry":{"x":175021.1500000013,"y":2579639.2600000016}},{"attributes":{"ID":642243,"DIS_CODE":0,"TOWNNAME":"鹽水區","LI":"水正里","LIN":"15鄰","STREET":"中正路","SECT":" ","MAREA":" ","LANE":" ","ALLEY":" ","HOUSE_NO":"１６６號","E_COORD97":175020.32000000001,"N_COORD97":2579634.8199999998,"ADDRESS":"中正路１６６號","OBJECTID":642216},"geometry":{"x":175020.3200000003,"y":2579634.820000004}},{"attributes":{"ID":642244,"DIS_CODE":0,"TOWNNAME":"鹽水區","LI":"水正里","LIN":"15鄰","STREET":"中正路","SECT":" ","MAREA":" ","LANE":" ","ALLEY":" ","HOUSE_NO":"１６８號","E_COORD97":175019.10999999999,"N_COORD97":2579630.4900000002,"ADDRESS":"中正路１６８號","OBJECTID":642217},"geometry":{"x":175019.1100000022,"y":2579630.4900000039}},{"attributes":{"ID":642245,"DIS_CODE":0,"TOWNNAME":"鹽水區","LI":"水正里","LIN":"15鄰","STREET":"中正路","SECT":" ","MAREA":" ","LANE":" ","ALLEY":" ","HOUSE_NO":"１７０號","E_COORD97":175017.73999999999,"N_COORD97":2579626.1200000001,"ADDRESS":"中正路１７０號","OBJECTID":642218},"geometry":{"x":175017.74000000022,"y":2579626.120000001}},{"attributes":{"ID":642246,"DIS_CODE":0,"TOWNNAME":"鹽水區","LI":"水正里","LIN":"15鄰","STREET":"中正路","SECT":" ","MAREA":" ","LANE":" ","ALLEY":" ","HOUSE_NO":"１７２號","E_COORD97":175016.69,"N_COORD97":2579621.8500000001,"ADDRESS":"中正路１７２號","OBJECTID":642219},"geometry":{"x":175016.69000000041,"y":2579621.8500000015}},{"attributes":{"ID":642247,"DIS_CODE":0,"TOWNNAME":"鹽水區","LI":"中境里","LIN":"4鄰","STREET":"中正路","SECT":" ","MAREA":" ","LANE":" ","ALLEY":" ","HOUSE_NO":"４號","E_COORD97":175082.44,"N_COORD97":2579992.3700000001,"ADDRESS":"中正路４號","OBJECTID":642220},"geometry":{"x":175082.44000000041,"y":2579992.3700000029}},{"attributes":{"ID":642248,"DIS_CODE":0,"TOWNNAME":"鹽水區","LI":"中境里","LIN":"4鄰","STREET":"中正路","SECT":" ","MAREA":" ","LANE":" ","ALLEY":" ","HOUSE_NO":"６號","E_COORD97":175087.26999999999,"N_COORD97":2579991.9300000002,"ADDRESS":"中正路６號","OBJECTID":642221},"geometry":{"x":175087.27000000048,"y":2579991.9299999997}},{"attributes":{"ID":642249,"DIS_CODE":0,"TOWNNAME":"鹽水區","LI":"水正里","LIN":"8鄰","STREET":"中正路","SECT":" ","MAREA":" ","LANE":" ","ALLEY":" ","HOUSE_NO":"６９號","E_COORD97":175111.85999999999,"N_COORD97":2579812.21,"ADDRESS":"中正路６９號","OBJECTID":642222},"geometry":{"x":175111.86000000034,"y":2579812.2100000009}},{"attributes":{"ID":642250,"DIS_CODE":0,"TOWNNAME":"鹽水區","LI":"水正里","LIN":"8鄰","STREET":"中正路","SECT":" ","MAREA":" ","LANE":" ","ALLEY":" ","HOUSE_NO":"７１號","E_COORD97":175111.39000000001,"N_COORD97":2579807.6299999999,"ADDRESS":"中正路７１號","OBJECTID":642223},"geometry":{"x":175111.39000000153,"y":2579807.6300000027}},{"attributes":{"ID":642251,"DIS_CODE":0,"TOWNNAME":"鹽水區","LI":"中境里","LIN":"4鄰","STREET":"中正路","SECT":" ","MAREA":" ","LANE":" ","ALLEY":" ","HOUSE_NO":"８號","E_COORD97":175091.85999999999,"N_COORD97":2579991.0699999998,"ADDRESS":"中正路８號","OBJECTID":642224},"geometry":{"x":175091.8599999994,"y":2579991.0700000003}},{"attributes":{"ID":642252,"DIS_CODE":0,"TOWNNAME":"鹽水區","LI":"橋南里","LIN":"15鄰","STREET":"月津路","SECT":" ","MAREA":" ","LANE":" ","ALLEY":" ","HOUSE_NO":"７號","E_COORD97":175006.60000000001,"N_COORD97":2579467.6200000001,"ADDRESS":"月津路７號","OBJECTID":642225},"geometry":{"x":175006.60000000149,"y":2579467.6200000048}},{"attributes":{"ID":642253,"DIS_CODE":0,"TOWNNAME":"鹽水區","LI":"武廟里","LIN":"6鄰","STREET":"北門路","SECT":" ","MAREA":" ","LANE":" ","ALLEY":" ","HOUSE_NO":"１００號","E_COORD97":174950.42000000001,"N_COORD97":2580263.0699999998,"ADDRESS":"北門路１００號","OBJECTID":642226},"geometry":{"x":174950.42000000179,"y":2580263.0700000003}},{"attributes":{"ID":642254,"DIS_CODE":0,"TOWNNAME":"鹽水區","LI":"武廟里","LIN":"6鄰","STREET":"北門路","SECT":" ","MAREA":" ","LANE":" ","ALLEY":" ","HOUSE_NO":"１０２號","E_COORD97":174937.17999999999,"N_COORD97":2580261.7200000002,"ADDRESS":"北門路１０２號","OBJECTID":642227},"geometry":{"x":174937.18000000063,"y":2580261.7200000007}},{"attributes":{"ID":642255,"DIS_CODE":0,"TOWNNAME":"鹽水區","LI":"武廟里","LIN":"6鄰","STREET":"北門路","SECT":" ","MAREA":" ","LANE":" ","ALLEY":" ","HOUSE_NO":"２０之１號","E_COORD97":175019.95000000001,"N_COORD97":2580268.8999999999,"ADDRESS":"北門路２０之１號","OBJECTID":642228},"geometry":{"x":175019.94999999925,"y":2580268.9000000022}},{"attributes":{"ID":642256,"DIS_CODE":0,"TOWNNAME":"鹽水區","LI":"岸內里","LIN":"16鄰","STREET":"北門路","SECT":" ","MAREA":" ","LANE":" ","ALLEY":" ","HOUSE_NO":"２８號之３","E_COORD97":175181.95999999999,"N_COORD97":2580279.0800000001,"ADDRESS":"北門路２８號之３","OBJECTID":642229},"geometry":{"x":175181.95999999996,"y":2580279.0800000001}},{"attributes":{"ID":642257,"DIS_CODE":0,"TOWNNAME":"鹽水區","LI":"岸內里","LIN":"16鄰","STREET":"北門路","SECT":" ","MAREA":" ","LANE":" ","ALLEY":" ","HOUSE_NO":"２８號之４","E_COORD97":175170.29999999999,"N_COORD97":2580278.8100000001,"ADDRESS":"北門路２８號之４","OBJECTID":642230},"geometry":{"x":175170.30000000075,"y":2580278.8100000005}},{"attributes":{"ID":642258,"DIS_CODE":0,"TOWNNAME":"鹽水區","LI":"岸內里","LIN":"16鄰","STREET":"北門路","SECT":" ","MAREA":" ","LANE":" ","ALLEY":" ","HOUSE_NO":"２８號之５","E_COORD97":175158.98000000001,"N_COORD97":2580278.1200000001,"ADDRESS":"北門路２８號之５","OBJECTID":642231},"geometry":{"x":175158.97999999952,"y":2580278.1200000048}},{"attributes":{"ID":642259,"DIS_CODE":0,"TOWNNAME":"鹽水區","LI":"岸內里","LIN":"16鄰","STREET":"北門路","SECT":" ","MAREA":" ","LANE":" ","ALLEY":" ","HOUSE_NO":"２８號之６","E_COORD97":175147.39999999999,"N_COORD97":2580277.9700000002,"ADDRESS":"北門路２８號之６","OBJECTID":642232},"geometry":{"x":175147.40000000037,"y":2580277.9700000007}},{"attributes":{"ID":642260,"DIS_CODE":0,"TOWNNAME":"鹽水區","LI":"岸內里","LIN":"16鄰","STREET":"北門路","SECT":" ","MAREA":" ","LANE":" ","ALLEY":" ","HOUSE_NO":"２８號之７","E_COORD97":175135.34,"N_COORD97":2580278.02,"ADDRESS":"北門路２８號之７","OBJECTID":642233},"geometry":{"x":175135.33999999985,"y":2580278.0200000014}},{"attributes":{"ID":642261,"DIS_CODE":0,"TOWNNAME":"鹽水區","LI":"岸內里","LIN":"22鄰","STREET":"北門路","SECT":" ","MAREA":" ","LANE":" ","ALLEY":" ","HOUSE_NO":"５號","E_COORD97":175168.79999999999,"N_COORD97":2580266.3599999999,"ADDRESS":"北門路５號","OBJECTID":642234},"geometry":{"x":175168.80000000075,"y":2580266.3599999994}},{"attributes":{"ID":642262,"DIS_CODE":0,"TOWNNAME":"關廟區","LI":"布袋里","LIN":"4鄰","STREET":"長和街","SECT":" ","MAREA":" ","LANE":" ","ALLEY":" ","HOUSE_NO":"１５１號","E_COORD97":182721.64000000001,"N_COORD97":2535051.25,"ADDRESS":"長和街１５１號","OBJECTID":642235},"geometry":{"x":182721.6400000006,"y":2535051.25}},{"attributes":{"ID":642263,"DIS_CODE":0,"TOWNNAME":"關廟區","LI":"北勢里","LIN":"18鄰","STREET":"成功路","SECT":" ","MAREA":" ","LANE":" ","ALLEY":" ","HOUSE_NO":"３７１號","E_COORD97":181224.57000000001,"N_COORD97":2540516.27,"ADDRESS":"成功路３７１號","OBJECTID":642236},"geometry":{"x":181224.5700000003,"y":2540516.2700000033}},{"attributes":{"ID":642264,"DIS_CODE":0,"TOWNNAME":"關廟區","LI":"山西里","LIN":"18鄰","STREET":"文衡路","SECT":" ","MAREA":" ","LANE":" ","ALLEY":" ","HOUSE_NO":"３４２號","E_COORD97":180909.73999999999,"N_COORD97":2540812.3300000001,"ADDRESS":"文衡路３４２號","OBJECTID":642237},"geometry":{"x":180909.74000000022,"y":2540812.3300000019}},{"attributes":{"ID":642265,"DIS_CODE":0,"TOWNNAME":"關廟區","LI":"東勢里","LIN":"13鄰","STREET":"東榮街","SECT":" ","MAREA":" ","LANE":" ","ALLEY":" ","HOUSE_NO":"８５號","E_COORD97":182110.72,"N_COORD97":2539362.25,"ADDRESS":"東榮街８５號","OBJECTID":642238},"geometry":{"x":182110.72000000067,"y":2539362.2500000019}},{"attributes":{"ID":642266,"DIS_CODE":0,"TOWNNAME":"關廟區","LI":"東勢里","LIN":"13鄰","STREET":"東榮街","SECT":" ","MAREA":" ","LANE":" ","ALLEY":" ","HOUSE_NO":"１０８號","E_COORD97":182108.17000000001,"N_COORD97":2539336.25,"ADDRESS":"東榮街１０８號","OBJECTID":642239},"geometry":{"x":182108.17000000086,"y":2539336.25}},{"attributes":{"ID":642267,"DIS_CODE":0,"TOWNNAME":"關廟區","LI":"山西里","LIN":"4鄰","STREET":"文衡路","SECT":" ","MAREA":" ","LANE":" ","ALLEY":" ","HOUSE_NO":"７５號","E_COORD97":180891.98999999999,"N_COORD97":2540253.3300000001,"ADDRESS":"文衡路７５號","OBJECTID":642240},"geometry":{"x":180891.99000000209,"y":2540253.3300000019}},{"attributes":{"ID":642268,"DIS_CODE":0,"TOWNNAME":"關廟區","LI":"北勢里","LIN":"13鄰","STREET":"仁愛路","SECT":" ","MAREA":" ","LANE":" ","ALLEY":" ","HOUSE_NO":"２１７號","E_COORD97":181440.29000000001,"N_COORD97":2540551.2799999998,"ADDRESS":"仁愛路２１７號","OBJECTID":642241},"geometry":{"x":181440.29000000004,"y":2540551.2800000012}},{"attributes":{"ID":642269,"DIS_CODE":0,"TOWNNAME":"關廟區","LI":"五甲里","LIN":"17鄰","STREET":"大順路","SECT":" ","MAREA":" ","LANE":" ","ALLEY":" ","HOUSE_NO":"５號","E_COORD97":181012.47,"N_COORD97":2539040.25,"ADDRESS":"大順路５號","OBJECTID":642242},"geometry":{"x":181012.47000000067,"y":2539040.2500000019}},{"attributes":{"ID":642270,"DIS_CODE":0,"TOWNNAME":"關廟區","LI":"下湖里","LIN":"4鄰","STREET":"關新路","SECT":"一段","MAREA":" ","LANE":" ","ALLEY":" ","HOUSE_NO":"４６８號","E_COORD97":179276.98999999999,"N_COORD97":2543068.2999999998,"ADDRESS":"關新路一段４６８號","OBJECTID":642243},"geometry":{"x":179276.99000000115,"y":2543068.3000000026}},{"attributes":{"ID":642271,"DIS_CODE":0,"TOWNNAME":"關廟區","LI":"下湖里","LIN":"4鄰","STREET":"下湖二街","SECT":" ","MAREA":" ","LANE":" ","ALLEY":" ","HOUSE_NO":"９１號","E_COORD97":179302.04000000001,"N_COORD97":2543078.25,"ADDRESS":"下湖二街９１號","OBJECTID":642244},"geometry":{"x":179302.04000000097,"y":2543078.2500000019}},{"attributes":{"ID":642272,"DIS_CODE":0,"TOWNNAME":"關廟區","LI":"山西里","LIN":"20鄰","STREET":"崇平路","SECT":" ","MAREA":" ","LANE":" ","ALLEY":" ","HOUSE_NO":"１０３號","E_COORD97":180715.97,"N_COORD97":2540387.25,"ADDRESS":"崇平路１０３號","OBJECTID":642245},"geometry":{"x":180715.97000000067,"y":2540387.25}},{"attributes":{"ID":642273,"DIS_CODE":0,"TOWNNAME":"關廟區","LI":"山西里","LIN":"14鄰","STREET":"成功路","SECT":" ","MAREA":" ","LANE":" ","ALLEY":" ","HOUSE_NO":"４４５號","E_COORD97":181018.37,"N_COORD97":2540560.27,"ADDRESS":"成功路４４５號","OBJECTID":642246},"geometry":{"x":181018.37000000104,"y":2540560.2700000033}},{"attributes":{"ID":642274,"DIS_CODE":0,"TOWNNAME":"關廟區","LI":"山西里","LIN":"14鄰","STREET":"文衡路","SECT":" ","MAREA":" ","LANE":" ","ALLEY":" ","HOUSE_NO":"２１２號","E_COORD97":180925.84,"N_COORD97":2540586.3300000001,"ADDRESS":"文衡路２１２號","OBJECTID":642247},"geometry":{"x":180925.83999999985,"y":2540586.3300000001}},{"attributes":{"ID":642275,"DIS_CODE":0,"TOWNNAME":"關廟區","LI":"五甲里","LIN":"17鄰","STREET":"大富街","SECT":" ","MAREA":" ","LANE":" ","ALLEY":" ","HOUSE_NO":"５０號","E_COORD97":181047.51999999999,"N_COORD97":2539076.25,"ADDRESS":"大富街５０號","OBJECTID":642248},"geometry":{"x":181047.52000000048,"y":2539076.2500000037}},{"attributes":{"ID":642276,"DIS_CODE":0,"TOWNNAME":"關廟區","LI":"五甲里","LIN":"8鄰","STREET":"大富街","SECT":" ","MAREA":" ","LANE":" ","ALLEY":" ","HOUSE_NO":"１００號","E_COORD97":181098.26999999999,"N_COORD97":2539194.25,"ADDRESS":"大富街１００號","OBJECTID":642249},"geometry":{"x":181098.27000000048,"y":2539194.25}},{"attributes":{"ID":642277,"DIS_CODE":0,"TOWNNAME":"關廟區","LI":"東勢里","LIN":"13鄰","STREET":"東榮街","SECT":" ","MAREA":" ","LANE":" ","ALLEY":" ","HOUSE_NO":"８９號","E_COORD97":182116.51999999999,"N_COORD97":2539369.25,"ADDRESS":"東榮街８９號","OBJECTID":642250},"geometry":{"x":182116.51999999862,"y":2539369.2500000019}},{"attributes":{"ID":642278,"DIS_CODE":0,"TOWNNAME":"關廟區","LI":"山西里","LIN":"14鄰","STREET":"成功路","SECT":" ","MAREA":" ","LANE":" ","ALLEY":" ","HOUSE_NO":"４４３號","E_COORD97":181029.57000000001,"N_COORD97":2540578.27,"ADDRESS":"成功路４４３號","OBJECTID":642251},"geometry":{"x":181029.57000000123,"y":2540578.2700000014}},{"attributes":{"ID":642279,"DIS_CODE":0,"TOWNNAME":"關廟區","LI":"北花里","LIN":"4鄰","STREET":"花園二街","SECT":" ","MAREA":" ","LANE":" ","ALLEY":" ","HOUSE_NO":"１１８號","E_COORD97":181953.19,"N_COORD97":2540331.25,"ADDRESS":"花園二街１１８號","OBJECTID":642252},"geometry":{"x":181953.19000000041,"y":2540331.2500000019}},{"attributes":{"ID":642280,"DIS_CODE":0,"TOWNNAME":"關廟區","LI":"北勢里","LIN":"13鄰","STREET":"仁愛路","SECT":" ","MAREA":" ","LANE":" ","ALLEY":" ","HOUSE_NO":"２１５號","E_COORD97":181438.39000000001,"N_COORD97":2540545.2799999998,"ADDRESS":"仁愛路２１５號","OBJECTID":642253},"geometry":{"x":181438.3900000006,"y":2540545.2799999993}},{"attributes":{"ID":642281,"DIS_CODE":0,"TOWNNAME":"關廟區","LI":"東勢里","LIN":"4鄰","STREET":"和平路","SECT":" ","MAREA":" ","LANE":" ","ALLEY":" ","HOUSE_NO":"９２號","E_COORD97":181722.98999999999,"N_COORD97":2539471.25,"ADDRESS":"和平路９２號","OBJECTID":642254},"geometry":{"x":181722.99000000115,"y":2539471.25}},{"attributes":{"ID":642282,"DIS_CODE":0,"TOWNNAME":"關廟區","LI":"田中里","LIN":"4鄰","STREET":"中大街","SECT":" ","MAREA":" ","LANE":" ","ALLEY":" ","HOUSE_NO":"８７號","E_COORD97":184193.39000000001,"N_COORD97":2533741.25,"ADDRESS":"中大街８７號","OBJECTID":642255},"geometry":{"x":184193.3900000006,"y":2533741.25}},{"attributes":{"ID":642283,"DIS_CODE":0,"TOWNNAME":"關廟區","LI":"北勢里","LIN":"18鄰","STREET":"成功路","SECT":" ","MAREA":" ","LANE":" ","ALLEY":" ","HOUSE_NO":"３５９號","E_COORD97":181252.57000000001,"N_COORD97":2540507.27,"ADDRESS":"成功路３５９號","OBJECTID":642256},"geometry":{"x":181252.57000000216,"y":2540507.2700000014}},{"attributes":{"ID":642284,"DIS_CODE":0,"TOWNNAME":"關廟區","LI":"北勢里","LIN":"13鄰","STREET":"仁愛路","SECT":" ","MAREA":" ","LANE":" ","ALLEY":" ","HOUSE_NO":"６２５號","E_COORD97":181999.89000000001,"N_COORD97":2540941.2799999998,"ADDRESS":"仁愛路６２５號","OBJECTID":642257},"geometry":{"x":181999.88999999966,"y":2540941.2800000012}},{"attributes":{"ID":642285,"DIS_CODE":0,"TOWNNAME":"關廟區","LI":"北花里","LIN":"14鄰","STREET":"花園三街","SECT":" ","MAREA":" ","LANE":" ","ALLEY":" ","HOUSE_NO":"３３號","E_COORD97":181960.73999999999,"N_COORD97":2540449.25,"ADDRESS":"花園三街３３號","OBJECTID":642258},"geometry":{"x":181960.74000000115,"y":2540449.2500000037}},{"attributes":{"ID":642286,"DIS_CODE":0,"TOWNNAME":"關廟區","LI":"五甲里","LIN":"4鄰","STREET":"南雄路","SECT":"一段","MAREA":" ","LANE":" ","ALLEY":" ","HOUSE_NO":"８２０號","E_COORD97":181386.98999999999,"N_COORD97":2539123.2799999998,"ADDRESS":"南雄路一段８２０號","OBJECTID":642259},"geometry":{"x":181386.99000000209,"y":2539123.2800000012}},{"attributes":{"ID":642287,"DIS_CODE":0,"TOWNNAME":"關廟區","LI":"田中里","LIN":"4鄰","STREET":"中大街","SECT":" ","MAREA":" ","LANE":" ","ALLEY":" ","HOUSE_NO":"８１號","E_COORD97":184182.59,"N_COORD97":2533747.25,"ADDRESS":"中大街８１號","OBJECTID":642260},"geometry":{"x":184182.58999999985,"y":2533747.2500000019}},{"attributes":{"ID":642288,"DIS_CODE":0,"TOWNNAME":"關廟區","LI":"布袋里","LIN":"4鄰","STREET":"長和街","SECT":" ","MAREA":" ","LANE":" ","ALLEY":" ","HOUSE_NO":"９８號","E_COORD97":182853.94,"N_COORD97":2535127.2999999998,"ADDRESS":"長和街９８號","OBJECTID":642261},"geometry":{"x":182853.94000000134,"y":2535127.3000000026}},{"attributes":{"ID":642289,"DIS_CODE":0,"TOWNNAME":"關廟區","LI":"北勢里","LIN":"4鄰","STREET":"北仁街","SECT":" ","MAREA":" ","LANE":" ","ALLEY":" ","HOUSE_NO":"５６號","E_COORD97":181523.44,"N_COORD97":2540333.25,"ADDRESS":"北仁街５６號","OBJECTID":642262},"geometry":{"x":181523.44000000134,"y":2540333.25}},{"attributes":{"ID":642290,"DIS_CODE":0,"TOWNNAME":"關廟區","LI":"北花里","LIN":"4鄰","STREET":"花園二街","SECT":" ","MAREA":" ","LANE":" ","ALLEY":" ","HOUSE_NO":"８５號","E_COORD97":181969.54000000001,"N_COORD97":2540308.25,"ADDRESS":"花園二街８５號","OBJECTID":642263},"geometry":{"x":181969.5400000019,"y":2540308.2500000019}},{"attributes":{"ID":642291,"DIS_CODE":0,"TOWNNAME":"關廟區","LI":"北勢里","LIN":"18鄰","STREET":"成功路","SECT":" ","MAREA":" ","LANE":" ","ALLEY":" ","HOUSE_NO":"３６５號","E_COORD97":181239.17000000001,"N_COORD97":2540511.27,"ADDRESS":"成功路３６５號","OBJECTID":642264},"geometry":{"x":181239.16999999993,"y":2540511.2699999996}},{"attributes":{"ID":642292,"DIS_CODE":0,"TOWNNAME":"關廟區","LI":"山西里","LIN":"20鄰","STREET":"崇平路","SECT":" ","MAREA":" ","LANE":" ","ALLEY":" ","HOUSE_NO":"１０１號","E_COORD97":180720.17000000001,"N_COORD97":2540386.25,"ADDRESS":"崇平路１０１號","OBJECTID":642265},"geometry":{"x":180720.16999999993,"y":2540386.2500000019}},{"attributes":{"ID":642293,"DIS_CODE":0,"TOWNNAME":"關廟區","LI":"山西里","LIN":"20鄰","STREET":"崇平路","SECT":" ","MAREA":" ","LANE":" ","ALLEY":" ","HOUSE_NO":"８９號","E_COORD97":180743.51999999999,"N_COORD97":2540379.25,"ADDRESS":"崇平路８９號","OBJECTID":642266},"geometry":{"x":180743.52000000142,"y":2540379.2500000019}},{"attributes":{"ID":642294,"DIS_CODE":0,"TOWNNAME":"關廟區","LI":"山西里","LIN":"20鄰","STREET":"崇平路","SECT":" ","MAREA":" ","LANE":" ","ALLEY":" ","HOUSE_NO":"１０５號","E_COORD97":180710.97,"N_COORD97":2540388.25,"ADDRESS":"崇平路１０５號","OBJECTID":642267},"geometry":{"x":180710.97000000067,"y":2540388.2500000037}},{"attributes":{"ID":642295,"DIS_CODE":0,"TOWNNAME":"關廟區","LI":"山西里","LIN":"20鄰","STREET":"崇平路","SECT":" ","MAREA":" ","LANE":" ","ALLEY":" ","HOUSE_NO":"９３號","E_COORD97":180735.42000000001,"N_COORD97":2540382.25,"ADDRESS":"崇平路９３號","OBJECTID":642268},"geometry":{"x":180735.41999999993,"y":2540382.2500000019}},{"attributes":{"ID":642296,"DIS_CODE":0,"TOWNNAME":"關廟區","LI":"山西里","LIN":"14鄰","STREET":"文衡路","SECT":" ","MAREA":" ","LANE":" ","ALLEY":" ","HOUSE_NO":"２１０號","E_COORD97":180925.44,"N_COORD97":2540582.3300000001,"ADDRESS":"文衡路２１０號","OBJECTID":642269},"geometry":{"x":180925.44000000134,"y":2540582.3300000019}},{"attributes":{"ID":642297,"DIS_CODE":0,"TOWNNAME":"關廟區","LI":"五甲里","LIN":"17鄰","STREET":"大富街","SECT":" ","MAREA":" ","LANE":" ","ALLEY":" ","HOUSE_NO":"７０號","E_COORD97":181080.92000000001,"N_COORD97":2539103.25,"ADDRESS":"大富街７０號","OBJECTID":642270},"geometry":{"x":181080.92000000086,"y":2539103.2500000037}},{"attributes":{"ID":642298,"DIS_CODE":0,"TOWNNAME":"關廟區","LI":"五甲里","LIN":"17鄰","STREET":"大富街","SECT":" ","MAREA":" ","LANE":" ","ALLEY":" ","HOUSE_NO":"４８號","E_COORD97":181044.01999999999,"N_COORD97":2539074.25,"ADDRESS":"大富街４８號","OBJECTID":642271},"geometry":{"x":181044.02000000048,"y":2539074.2500000019}},{"attributes":{"ID":642299,"DIS_CODE":0,"TOWNNAME":"關廟區","LI":"下湖里","LIN":"5鄰","STREET":"下湖二街","SECT":" ","MAREA":" ","LANE":" ","ALLEY":" ","HOUSE_NO":"５５號","E_COORD97":179378.23999999999,"N_COORD97":2543020.2999999998,"ADDRESS":"下湖二街５５號","OBJECTID":642272},"geometry":{"x":179378.24000000209,"y":2543020.3000000026}},{"attributes":{"ID":642300,"DIS_CODE":0,"TOWNNAME":"關廟區","LI":"山西里","LIN":"13鄰","STREET":"文衡路","SECT":" ","MAREA":" ","LANE":" ","ALLEY":" ","HOUSE_NO":"１２７號","E_COORD97":180903.82000000001,"N_COORD97":2540534.7799999998,"ADDRESS":"文衡路１２７號","OBJECTID":642273},"geometry":{"x":180903.82000000123,"y":2540534.7799999993}},{"attributes":{"ID":642301,"DIS_CODE":0,"TOWNNAME":"關廟區","LI":"五甲里","LIN":"17鄰","STREET":"大富街","SECT":" ","MAREA":" ","LANE":" ","ALLEY":" ","HOUSE_NO":"４２號","E_COORD97":181037.51999999999,"N_COORD97":2539070.25,"ADDRESS":"大富街４２號","OBJECTID":642274},"geometry":{"x":181037.52000000048,"y":2539070.2500000019}},{"attributes":{"ID":642302,"DIS_CODE":0,"TOWNNAME":"關廟區","LI":"山西里","LIN":"1鄰","STREET":"興中街","SECT":" ","MAREA":" ","LANE":" ","ALLEY":" ","HOUSE_NO":"３號","E_COORD97":180962.97,"N_COORD97":2540248.25,"ADDRESS":"興中街３號","OBJECTID":642275},"geometry":{"x":180962.97000000067,"y":2540248.25}},{"attributes":{"ID":642303,"DIS_CODE":0,"TOWNNAME":"關廟區","LI":"五甲里","LIN":"5鄰","STREET":"大順路","SECT":" ","MAREA":" ","LANE":" ","ALLEY":" ","HOUSE_NO":"６１號","E_COORD97":181081.62,"N_COORD97":2538929.25,"ADDRESS":"大順路６１號","OBJECTID":642276},"geometry":{"x":181081.62000000104,"y":2538929.25}},{"attributes":{"ID":642304,"DIS_CODE":0,"TOWNNAME":"關廟區","LI":"山西里","LIN":"20鄰","STREET":"崇平路","SECT":" ","MAREA":" ","LANE":" ","ALLEY":" ","HOUSE_NO":"８７號","E_COORD97":180748.42000000001,"N_COORD97":2540378.25,"ADDRESS":"崇平路８７號","OBJECTID":642277},"geometry":{"x":180748.42000000086,"y":2540378.2500000019}},{"attributes":{"ID":642305,"DIS_CODE":0,"TOWNNAME":"關廟區","LI":"山西里","LIN":"7鄰","STREET":"成功路","SECT":" ","MAREA":" ","LANE":" ","ALLEY":" ","HOUSE_NO":"５１６號","E_COORD97":180868.59,"N_COORD97":2540632.27,"ADDRESS":"成功路５１６號","OBJECTID":642278},"geometry":{"x":180868.58999999985,"y":2540632.2700000014}},{"attributes":{"ID":642306,"DIS_CODE":0,"TOWNNAME":"關廟區","LI":"下湖里","LIN":"4鄰","STREET":"關新路","SECT":"一段","MAREA":" ","LANE":" ","ALLEY":" ","HOUSE_NO":"４８２號","E_COORD97":179266.94,"N_COORD97":2543100.2999999998,"ADDRESS":"關新路一段４８２號","OBJECTID":642279},"geometry":{"x":179266.94000000134,"y":2543100.3000000007}},{"attributes":{"ID":642307,"DIS_CODE":0,"TOWNNAME":"關廟區","LI":"下湖里","LIN":"4鄰","STREET":"關新路","SECT":"一段","MAREA":" ","LANE":" ","ALLEY":" ","HOUSE_NO":"４７８號","E_COORD97":179266.34,"N_COORD97":2543089.25,"ADDRESS":"關新路一段４７８號","OBJECTID":642280},"geometry":{"x":179266.33999999985,"y":2543089.25}},{"attributes":{"ID":642308,"DIS_CODE":0,"TOWNNAME":"關廟區","LI":"下湖里","LIN":"4鄰","STREET":"關新路","SECT":"一段","MAREA":" ","LANE":" ","ALLEY":" ","HOUSE_NO":"４８０號","E_COORD97":179265.54000000001,"N_COORD97":2543094.25,"ADDRESS":"關新路一段４８０號","OBJECTID":642281},"geometry":{"x":179265.54000000004,"y":2543094.2500000019}},{"attributes":{"ID":642309,"DIS_CODE":0,"TOWNNAME":"關廟區","LI":"山西里","LIN":"20鄰","STREET":"崇平路","SECT":" ","MAREA":" ","LANE":" ","ALLEY":" ","HOUSE_NO":"９１號","E_COORD97":180739.62,"N_COORD97":2540381.25,"ADDRESS":"崇平路９１號","OBJECTID":642282},"geometry":{"x":180739.62000000011,"y":2540381.2500000037}},{"attributes":{"ID":642310,"DIS_CODE":0,"TOWNNAME":"關廟區","LI":"山西里","LIN":"14鄰","STREET":"文衡路","SECT":" ","MAREA":" ","LANE":" ","ALLEY":" ","HOUSE_NO":"２２２號","E_COORD97":180924.34,"N_COORD97":2540598.3300000001,"ADDRESS":"文衡路２２２號","OBJECTID":642283},"geometry":{"x":180924.33999999985,"y":2540598.3300000019}},{"attributes":{"ID":642311,"DIS_CODE":0,"TOWNNAME":"關廟區","LI":"五甲里","LIN":"17鄰","STREET":"大富街","SECT":" ","MAREA":" ","LANE":" ","ALLEY":" ","HOUSE_NO":"７８號","E_COORD97":181089.32000000001,"N_COORD97":2539116.25,"ADDRESS":"大富街７８號","OBJECTID":642284},"geometry":{"x":181089.3200000003,"y":2539116.25}},{"attributes":{"ID":642312,"DIS_CODE":0,"TOWNNAME":"關廟區","LI":"下湖里","LIN":"4鄰","STREET":"下湖二街","SECT":" ","MAREA":" ","LANE":" ","ALLEY":" ","HOUSE_NO":"９３號","E_COORD97":179299.54000000001,"N_COORD97":2543068.2999999998,"ADDRESS":"下湖二街９３號","OBJECTID":642285},"geometry":{"x":179299.53999999911,"y":2543068.3000000026}},{"attributes":{"ID":642313,"DIS_CODE":0,"TOWNNAME":"關廟區","LI":"下湖里","LIN":"4鄰","STREET":"下湖二街","SECT":" ","MAREA":" ","LANE":" ","ALLEY":" ","HOUSE_NO":"９５號","E_COORD97":179299.54000000001,"N_COORD97":2543064.2999999998,"ADDRESS":"下湖二街９５號","OBJECTID":642286},"geometry":{"x":179299.53999999911,"y":2543064.3000000026}},{"attributes":{"ID":642314,"DIS_CODE":0,"TOWNNAME":"關廟區","LI":"五甲里","LIN":"17鄰","STREET":"大富街","SECT":" ","MAREA":" ","LANE":" ","ALLEY":" ","HOUSE_NO":"６２號","E_COORD97":181064.01999999999,"N_COORD97":2539088.25,"ADDRESS":"大富街６２號","OBJECTID":642287},"geometry":{"x":181064.02000000142,"y":2539088.25}},{"attributes":{"ID":642315,"DIS_CODE":0,"TOWNNAME":"關廟區","LI":"山西里","LIN":"13鄰","STREET":"文衡路","SECT":" ","MAREA":" ","LANE":" ","ALLEY":" ","HOUSE_NO":"１３９號","E_COORD97":180900.72,"N_COORD97":2540562.7799999998,"ADDRESS":"文衡路１３９號","OBJECTID":642288},"geometry":{"x":180900.72000000067,"y":2540562.7799999993}},{"attributes":{"ID":642316,"DIS_CODE":0,"TOWNNAME":"關廟區","LI":"東勢里","LIN":"13鄰","STREET":"東榮街","SECT":" ","MAREA":" ","LANE":" ","ALLEY":" ","HOUSE_NO":"１０２號","E_COORD97":182101.97,"N_COORD97":2539331.25,"ADDRESS":"東榮街１０２號","OBJECTID":642289},"geometry":{"x":182101.9700000016,"y":2539331.2500000019}},{"attributes":{"ID":642317,"DIS_CODE":0,"TOWNNAME":"關廟區","LI":"五甲里","LIN":"4鄰","STREET":"旺萊路","SECT":" ","MAREA":" ","LANE":" ","ALLEY":" ","HOUSE_NO":"５號","E_COORD97":181423.54000000001,"N_COORD97":2539107.25,"ADDRESS":"旺萊路５號","OBJECTID":642290},"geometry":{"x":181423.54000000004,"y":2539107.2500000019}},{"attributes":{"ID":642318,"DIS_CODE":0,"TOWNNAME":"關廟區","LI":"北勢里","LIN":"4鄰","STREET":"北美街","SECT":" ","MAREA":" ","LANE":" ","ALLEY":" ","HOUSE_NO":"８號","E_COORD97":181496.89000000001,"N_COORD97":2540277.2999999998,"ADDRESS":"北美街８號","OBJECTID":642291},"geometry":{"x":181496.88999999966,"y":2540277.3000000026}},{"attributes":{"ID":642319,"DIS_CODE":0,"TOWNNAME":"關廟區","LI":"北勢里","LIN":"13鄰","STREET":"仁愛路","SECT":" ","MAREA":" ","LANE":" ","ALLEY":" ","HOUSE_NO":"２０１號","E_COORD97":181419.59,"N_COORD97":2540503.2799999998,"ADDRESS":"仁愛路２０１號","OBJECTID":642292},"geometry":{"x":181419.58999999985,"y":2540503.2800000012}},{"attributes":{"ID":642320,"DIS_CODE":0,"TOWNNAME":"關廟區","LI":"山西里","LIN":"5鄰","STREET":"文衡路","SECT":" ","MAREA":" ","LANE":" ","ALLEY":" ","HOUSE_NO":"８９號","E_COORD97":180895.09,"N_COORD97":2540281.3300000001,"ADDRESS":"文衡路８９號","OBJECTID":642293},"geometry":{"x":180895.09000000078,"y":2540281.3300000001}},{"attributes":{"ID":642321,"DIS_CODE":0,"TOWNNAME":"關廟區","LI":"北花里","LIN":"13鄰","STREET":"中正路","SECT":" ","MAREA":" ","LANE":" ","ALLEY":" ","HOUSE_NO":"３７５號","E_COORD97":182966.35999999999,"N_COORD97":2540802.25,"ADDRESS":"中正路３７５號","OBJECTID":642294},"geometry":{"x":182966.36000000127,"y":2540802.2500000019}},{"attributes":{"ID":642322,"DIS_CODE":0,"TOWNNAME":"關廟區","LI":"北勢里","LIN":"13鄰","STREET":"仁愛路","SECT":" ","MAREA":" ","LANE":" ","ALLEY":" ","HOUSE_NO":"２１３號","E_COORD97":181436.48999999999,"N_COORD97":2540541.2799999998,"ADDRESS":"仁愛路２１３號","OBJECTID":642295},"geometry":{"x":181436.49000000115,"y":2540541.2800000012}},{"attributes":{"ID":642323,"DIS_CODE":0,"TOWNNAME":"關廟區","LI":"東勢里","LIN":"14鄰","STREET":"東榮街","SECT":" ","MAREA":" ","LANE":" ","ALLEY":" ","HOUSE_NO":"１２８號","E_COORD97":182141.97,"N_COORD97":2539359.25,"ADDRESS":"東榮街１２８號","OBJECTID":642296},"geometry":{"x":182141.96999999974,"y":2539359.25}},{"attributes":{"ID":642324,"DIS_CODE":0,"TOWNNAME":"關廟區","LI":"五甲里","LIN":"4鄰","STREET":"旺萊路","SECT":" ","MAREA":" ","LANE":" ","ALLEY":" ","HOUSE_NO":"３號","E_COORD97":181420.44,"N_COORD97":2539104.25,"ADDRESS":"旺萊路３號","OBJECTID":642297},"geometry":{"x":181420.44000000134,"y":2539104.2500000019}},{"attributes":{"ID":642325,"DIS_CODE":0,"TOWNNAME":"關廟區","LI":"田中里","LIN":"4鄰","STREET":"南雄南路","SECT":" ","MAREA":" ","LANE":" ","ALLEY":" ","HOUSE_NO":"５０７號","E_COORD97":184013.29000000001,"N_COORD97":2533957.25,"ADDRESS":"南雄南路５０７號","OBJECTID":642298},"geometry":{"x":184013.29000000004,"y":2533957.2500000019}},{"attributes":{"ID":642326,"DIS_CODE":0,"TOWNNAME":"關廟區","LI":"山西里","LIN":"4鄰","STREET":"文衡路","SECT":" ","MAREA":" ","LANE":" ","ALLEY":" ","HOUSE_NO":"６９號","E_COORD97":180891.19,"N_COORD97":2540240.3300000001,"ADDRESS":"文衡路６９號","OBJECTID":642299},"geometry":{"x":180891.19000000134,"y":2540240.3300000001}},{"attributes":{"ID":642327,"DIS_CODE":0,"TOWNNAME":"關廟區","LI":"山西里","LIN":"18鄰","STREET":"崇明街","SECT":" ","MAREA":" ","LANE":" ","ALLEY":" ","HOUSE_NO":"７８號","E_COORD97":181001.42000000001,"N_COORD97":2540745.25,"ADDRESS":"崇明街７８號","OBJECTID":642300},"geometry":{"x":181001.42000000086,"y":2540745.2500000019}},{"attributes":{"ID":642328,"DIS_CODE":0,"TOWNNAME":"關廟區","LI":"北花里","LIN":"17鄰","STREET":"中正路","SECT":" ","MAREA":" ","LANE":" ","ALLEY":" ","HOUSE_NO":"５４３號","E_COORD97":182326.57999999999,"N_COORD97":2540464.4700000002,"ADDRESS":"中正路５４３號","OBJECTID":642301},"geometry":{"x":182326.58000000007,"y":2540464.4700000007}},{"attributes":{"ID":642329,"DIS_CODE":0,"TOWNNAME":"關廟區","LI":"東勢里","LIN":"17鄰","STREET":"東德街","SECT":" ","MAREA":" ","LANE":" ","ALLEY":" ","HOUSE_NO":"７２號","E_COORD97":181904.62,"N_COORD97":2539273.27,"ADDRESS":"東德街７２號","OBJECTID":642302},"geometry":{"x":181904.62000000197,"y":2539273.2700000014}},{"attributes":{"ID":642330,"DIS_CODE":0,"TOWNNAME":"關廟區","LI":"東勢里","LIN":"4鄰","STREET":"東興路","SECT":" ","MAREA":" ","LANE":" ","ALLEY":" ","HOUSE_NO":"２４０號","E_COORD97":181738.47,"N_COORD97":2539551.25,"ADDRESS":"東興路２４０號","OBJECTID":642303},"geometry":{"x":181738.46999999974,"y":2539551.2500000019}},{"attributes":{"ID":642331,"DIS_CODE":0,"TOWNNAME":"關廟區","LI":"五甲里","LIN":"4鄰","STREET":"南雄路","SECT":"一段","MAREA":" ","LANE":" ","ALLEY":" ","HOUSE_NO":"８７６號","E_COORD97":181337.09,"N_COORD97":2539219.2799999998,"ADDRESS":"南雄路一段８７６號","OBJECTID":642304},"geometry":{"x":181337.09000000078,"y":2539219.2799999993}},{"attributes":{"ID":642332,"DIS_CODE":0,"TOWNNAME":"關廟區","LI":"山西里","LIN":"18鄰","STREET":"崇明街","SECT":" ","MAREA":" ","LANE":" ","ALLEY":" ","HOUSE_NO":"７３號","E_COORD97":180931.22,"N_COORD97":2540834.25,"ADDRESS":"崇明街７３號","OBJECTID":642305},"geometry":{"x":180931.22000000067,"y":2540834.25}},{"attributes":{"ID":642333,"DIS_CODE":0,"TOWNNAME":"關廟區","LI":"北勢里","LIN":"14鄰","STREET":"成功路","SECT":" ","MAREA":" ","LANE":" ","ALLEY":" ","HOUSE_NO":"３１０號","E_COORD97":181353.17000000001,"N_COORD97":2540507.27,"ADDRESS":"成功路３１０號","OBJECTID":642306},"geometry":{"x":181353.17000000179,"y":2540507.2700000014}},{"attributes":{"ID":642334,"DIS_CODE":0,"TOWNNAME":"關廟區","LI":"山西里","LIN":"4鄰","STREET":"文衡路","SECT":" ","MAREA":" ","LANE":" ","ALLEY":" ","HOUSE_NO":"５９號","E_COORD97":180888.59,"N_COORD97":2540215.3300000001,"ADDRESS":"文衡路５９號","OBJECTID":642307},"geometry":{"x":180888.58999999985,"y":2540215.3300000019}},{"attributes":{"ID":642335,"DIS_CODE":0,"TOWNNAME":"關廟區","LI":"北勢里","LIN":"13鄰","STREET":"北安三街","SECT":" ","MAREA":" ","LANE":" ","ALLEY":" ","HOUSE_NO":"１６８號","E_COORD97":181402.73999999999,"N_COORD97":2540624.3199999998,"ADDRESS":"北安三街１６８號","OBJECTID":642308},"geometry":{"x":181402.74000000115,"y":2540624.3200000003}},{"attributes":{"ID":642336,"DIS_CODE":0,"TOWNNAME":"關廟區","LI":"北勢里","LIN":"24鄰","STREET":"北美街","SECT":" ","MAREA":" ","LANE":" ","ALLEY":" ","HOUSE_NO":"４９號","E_COORD97":181475.44,"N_COORD97":2540406.2999999998,"ADDRESS":"北美街４９號","OBJECTID":642309},"geometry":{"x":181475.44000000041,"y":2540406.3000000026}},{"attributes":{"ID":642337,"DIS_CODE":0,"TOWNNAME":"關廟區","LI":"北勢里","LIN":"20鄰","STREET":"北新街","SECT":" ","MAREA":" ","LANE":" ","ALLEY":" ","HOUSE_NO":"５７號","E_COORD97":181301.23999999999,"N_COORD97":2540413.25,"ADDRESS":"北新街５７號","OBJECTID":642310},"geometry":{"x":181301.24000000115,"y":2540413.2500000019}},{"attributes":{"ID":642338,"DIS_CODE":0,"TOWNNAME":"關廟區","LI":"香洋里","LIN":"25鄰","STREET":"中山路","SECT":"二段","MAREA":" ","LANE":" ","ALLEY":" ","HOUSE_NO":"２９號","E_COORD97":181006.10999999999,"N_COORD97":2539980.2799999998,"ADDRESS":"中山路二段２９號","OBJECTID":642311},"geometry":{"x":181006.11000000034,"y":2539980.2800000031}},{"attributes":{"ID":642339,"DIS_CODE":0,"TOWNNAME":"關廟區","LI":"五甲里","LIN":"4鄰","STREET":"南雄路","SECT":"一段","MAREA":" ","LANE":" ","ALLEY":" ","HOUSE_NO":"９０２號","E_COORD97":181293.79000000001,"N_COORD97":2539318.2799999998,"ADDRESS":"南雄路一段９０２號","OBJECTID":642312},"geometry":{"x":181293.79000000097,"y":2539318.2799999993}},{"attributes":{"ID":642340,"DIS_CODE":0,"TOWNNAME":"關廟區","LI":"北勢里","LIN":"20鄰","STREET":"成功路","SECT":" ","MAREA":" ","LANE":" ","ALLEY":" ","HOUSE_NO":"３３１號","E_COORD97":181313.57000000001,"N_COORD97":2540489.27,"ADDRESS":"成功路３３１號","OBJECTID":642313},"geometry":{"x":181313.57000000216,"y":2540489.2700000033}},{"attributes":{"ID":642341,"DIS_CODE":0,"TOWNNAME":"關廟區","LI":"香洋里","LIN":"25鄰","STREET":"中山路","SECT":"二段","MAREA":" ","LANE":" ","ALLEY":" ","HOUSE_NO":"３號","E_COORD97":181052.06,"N_COORD97":2539991.2799999998,"ADDRESS":"中山路二段３號","OBJECTID":642314},"geometry":{"x":181052.06000000052,"y":2539991.2800000012}},{"attributes":{"ID":642342,"DIS_CODE":0,"TOWNNAME":"關廟區","LI":"北花里","LIN":"13鄰","STREET":"中正路","SECT":" ","MAREA":" ","LANE":" ","ALLEY":" ","HOUSE_NO":"４３７號","E_COORD97":182678.38,"N_COORD97":2540714.8399999999,"ADDRESS":"中正路４３７號","OBJECTID":642315},"geometry":{"x":182678.37999999989,"y":2540714.8399999999}},{"attributes":{"ID":642343,"DIS_CODE":0,"TOWNNAME":"關廟區","LI":"北勢里","LIN":"4鄰","STREET":"中正路","SECT":" ","MAREA":" ","LANE":" ","ALLEY":" ","HOUSE_NO":"７９８號","E_COORD97":181443.26000000001,"N_COORD97":2540254.25,"ADDRESS":"中正路７９８號","OBJECTID":642316},"geometry":{"x":181443.25999999978,"y":2540254.25}},{"attributes":{"ID":642344,"DIS_CODE":0,"TOWNNAME":"關廟區","LI":"東勢里","LIN":"4鄰","STREET":"和平路","SECT":" ","MAREA":" ","LANE":" ","ALLEY":" ","HOUSE_NO":"１１６號","E_COORD97":181711.94,"N_COORD97":2539511.25,"ADDRESS":"和平路１１６號","OBJECTID":642317},"geometry":{"x":181711.94000000134,"y":2539511.2500000019}},{"attributes":{"ID":642345,"DIS_CODE":0,"TOWNNAME":"關廟區","LI":"東勢里","LIN":"26鄰","STREET":"光復街","SECT":" ","MAREA":" ","LANE":" ","ALLEY":" ","HOUSE_NO":"１５７號","E_COORD97":181482.04000000001,"N_COORD97":2539651.2799999998,"ADDRESS":"光復街１５７號","OBJECTID":642318},"geometry":{"x":181482.04000000097,"y":2539651.2799999975}},{"attributes":{"ID":642346,"DIS_CODE":0,"TOWNNAME":"關廟區","LI":"北勢里","LIN":"24鄰","STREET":"北美街","SECT":" ","MAREA":" ","LANE":" ","ALLEY":" ","HOUSE_NO":"７號","E_COORD97":181482.69,"N_COORD97":2540287.2999999998,"ADDRESS":"北美街７號","OBJECTID":642319},"geometry":{"x":181482.69000000134,"y":2540287.3000000026}},{"attributes":{"ID":642347,"DIS_CODE":0,"TOWNNAME":"關廟區","LI":"北勢里","LIN":"4鄰","STREET":"北仁街","SECT":" ","MAREA":" ","LANE":" ","ALLEY":" ","HOUSE_NO":"７１號","E_COORD97":181489.34,"N_COORD97":2540316.25,"ADDRESS":"北仁街７１號","OBJECTID":642320},"geometry":{"x":181489.34000000171,"y":2540316.25}},{"attributes":{"ID":642348,"DIS_CODE":0,"TOWNNAME":"關廟區","LI":"深坑里","LIN":"4鄰","STREET":"深坑一街","SECT":" ","MAREA":" ","LANE":" ","ALLEY":" ","HOUSE_NO":"６０號","E_COORD97":182131.57000000001,"N_COORD97":2537585.2999999998,"ADDRESS":"深坑一街６０號","OBJECTID":642321},"geometry":{"x":182131.5700000003,"y":2537585.3000000026}},{"attributes":{"ID":642349,"DIS_CODE":0,"TOWNNAME":"關廟區","LI":"北勢里","LIN":"24鄰","STREET":"北美街","SECT":" ","MAREA":" ","LANE":" ","ALLEY":" ","HOUSE_NO":"１５號","E_COORD97":181476.23999999999,"N_COORD97":2540304.2999999998,"ADDRESS":"北美街１５號","OBJECTID":642322},"geometry":{"x":181476.24000000022,"y":2540304.3000000026}},{"attributes":{"ID":642350,"DIS_CODE":0,"TOWNNAME":"關廟區","LI":"北花里","LIN":"5鄰","STREET":"園東街","SECT":" ","MAREA":" ","LANE":" ","ALLEY":" ","HOUSE_NO":"１３２號","E_COORD97":182049.70999999999,"N_COORD97":2540244.25,"ADDRESS":"園東街１３２號","OBJECTID":642323},"geometry":{"x":182049.71000000183,"y":2540244.25}},{"attributes":{"ID":642351,"DIS_CODE":0,"TOWNNAME":"關廟區","LI":"北勢里","LIN":"24鄰","STREET":"北美街","SECT":" ","MAREA":" ","LANE":" ","ALLEY":" ","HOUSE_NO":"２５號","E_COORD97":181472.44,"N_COORD97":2540351.2999999998,"ADDRESS":"北美街２５號","OBJECTID":642324},"geometry":{"x":181472.44000000134,"y":2540351.3000000045}},{"attributes":{"ID":642352,"DIS_CODE":0,"TOWNNAME":"關廟區","LI":"北勢里","LIN":"4鄰","STREET":"中正路","SECT":" ","MAREA":" ","LANE":" ","ALLEY":" ","HOUSE_NO":"７７８號","E_COORD97":181475.85999999999,"N_COORD97":2540262.25,"ADDRESS":"中正路７７８號","OBJECTID":642325},"geometry":{"x":181475.86000000034,"y":2540262.25}},{"attributes":{"ID":642353,"DIS_CODE":0,"TOWNNAME":"關廟區","LI":"五甲里","LIN":"4鄰","STREET":"南雄路","SECT":"一段","MAREA":" ","LANE":" ","ALLEY":" ","HOUSE_NO":"８９６號","E_COORD97":181323.29000000001,"N_COORD97":2539339.2799999998,"ADDRESS":"南雄路一段８９６號","OBJECTID":642326},"geometry":{"x":181323.29000000004,"y":2539339.2799999975}},{"attributes":{"ID":642354,"DIS_CODE":0,"TOWNNAME":"關廟區","LI":"香洋里","LIN":"18鄰","STREET":"和平路","SECT":" ","MAREA":" ","LANE":" ","ALLEY":" ","HOUSE_NO":"２５９號","E_COORD97":181642.94,"N_COORD97":2540049.25,"ADDRESS":"和平路２５９號","OBJECTID":642327},"geometry":{"x":181642.94000000041,"y":2540049.2500000037}},{"attributes":{"ID":642355,"DIS_CODE":0,"TOWNNAME":"關廟區","LI":"松腳里","LIN":"13鄰","STREET":"和平路","SECT":" ","MAREA":" ","LANE":" ","ALLEY":" ","HOUSE_NO":"１５２號","E_COORD97":181694.73999999999,"N_COORD97":2539595.25,"ADDRESS":"和平路１５２號","OBJECTID":642328},"geometry":{"x":181694.74000000022,"y":2539595.2500000019}},{"attributes":{"ID":642356,"DIS_CODE":0,"TOWNNAME":"關廟區","LI":"深坑里","LIN":"5鄰","STREET":"深坑三街","SECT":" ","MAREA":" ","LANE":" ","ALLEY":" ","HOUSE_NO":"６０號","E_COORD97":181891.87,"N_COORD97":2537712.2799999998,"ADDRESS":"深坑三街６０號","OBJECTID":642329},"geometry":{"x":181891.87000000104,"y":2537712.2800000031}},{"attributes":{"ID":642357,"DIS_CODE":0,"TOWNNAME":"關廟區","LI":"南花里","LIN":"5鄰","STREET":"花園一街","SECT":" ","MAREA":" ","LANE":" ","ALLEY":" ","HOUSE_NO":"７５號","E_COORD97":181943.84,"N_COORD97":2540172.25,"ADDRESS":"花園一街７５號","OBJECTID":642330},"geometry":{"x":181943.84000000078,"y":2540172.2500000019}},{"attributes":{"ID":642358,"DIS_CODE":0,"TOWNNAME":"關廟區","LI":"香洋里","LIN":"20鄰","STREET":"中山路","SECT":"一段","MAREA":" ","LANE":" ","ALLEY":" ","HOUSE_NO":"３７２號","E_COORD97":181576.56,"N_COORD97":2539903.2799999998,"ADDRESS":"中山路一段３７２號","OBJECTID":642331},"geometry":{"x":181576.55999999959,"y":2539903.2800000012}},{"attributes":{"ID":642359,"DIS_CODE":0,"TOWNNAME":"關廟區","LI":"東勢里","LIN":"25鄰","STREET":"光復街","SECT":" ","MAREA":" ","LANE":" ","ALLEY":" ","HOUSE_NO":"１３６號","E_COORD97":181517.04000000001,"N_COORD97":2539473.2799999998,"ADDRESS":"光復街１３６號","OBJECTID":642332},"geometry":{"x":181517.0400000019,"y":2539473.2800000012}},{"attributes":{"ID":642360,"DIS_CODE":0,"TOWNNAME":"關廟區","LI":"東勢里","LIN":"25鄰","STREET":"光復街","SECT":" ","MAREA":" ","LANE":" ","ALLEY":" ","HOUSE_NO":"１７２號","E_COORD97":181517.34,"N_COORD97":2539535.2799999998,"ADDRESS":"光復街１７２號","OBJECTID":642333},"geometry":{"x":181517.33999999985,"y":2539535.2799999993}},{"attributes":{"ID":642361,"DIS_CODE":0,"TOWNNAME":"關廟區","LI":"香洋里","LIN":"13鄰","STREET":"南雄路","SECT":"二段","MAREA":" ","LANE":" ","ALLEY":" ","HOUSE_NO":"２６號","E_COORD97":181106.73999999999,"N_COORD97":2540075.2799999998,"ADDRESS":"南雄路二段２６號","OBJECTID":642334},"geometry":{"x":181106.74000000022,"y":2540075.2800000031}},{"attributes":{"ID":642362,"DIS_CODE":0,"TOWNNAME":"關廟區","LI":"東勢里","LIN":"17鄰","STREET":"東仁街","SECT":" ","MAREA":" ","LANE":" ","ALLEY":" ","HOUSE_NO":"１１號","E_COORD97":181895.82000000001,"N_COORD97":2539317.25,"ADDRESS":"東仁街１１號","OBJECTID":642335},"geometry":{"x":181895.82000000123,"y":2539317.2500000019}},{"attributes":{"ID":642363,"DIS_CODE":0,"TOWNNAME":"關廟區","LI":"深坑里","LIN":"5鄰","STREET":"深坑三街","SECT":" ","MAREA":" ","LANE":" ","ALLEY":" ","HOUSE_NO":"５９號","E_COORD97":181911.26999999999,"N_COORD97":2537722.2999999998,"ADDRESS":"深坑三街５９號","OBJECTID":642336},"geometry":{"x":181911.26999999955,"y":2537722.3000000007}},{"attributes":{"ID":642364,"DIS_CODE":0,"TOWNNAME":"關廟區","LI":"東勢里","LIN":"26鄰","STREET":"光復街","SECT":" ","MAREA":" ","LANE":" ","ALLEY":" ","HOUSE_NO":"１６９號","E_COORD97":181485.54000000001,"N_COORD97":2539679.2799999998,"ADDRESS":"光復街１６９號","OBJECTID":642337},"geometry":{"x":181485.54000000097,"y":2539679.2800000012}},{"attributes":{"ID":642365,"DIS_CODE":0,"TOWNNAME":"關廟區","LI":"田中里","LIN":"4鄰","STREET":"南雄南路","SECT":" ","MAREA":" ","LANE":" ","ALLEY":" ","HOUSE_NO":"５４１號","E_COORD97":183878.59,"N_COORD97":2533864.25,"ADDRESS":"南雄南路５４１號","OBJECTID":642338},"geometry":{"x":183878.59000000078,"y":2533864.25}},{"attributes":{"ID":642366,"DIS_CODE":0,"TOWNNAME":"關廟區","LI":"田中里","LIN":"4鄰","STREET":"田大路","SECT":" ","MAREA":" ","LANE":" ","ALLEY":" ","HOUSE_NO":"５０號","E_COORD97":184171.09,"N_COORD97":2533827.25,"ADDRESS":"田大路５０號","OBJECTID":642339},"geometry":{"x":184171.09000000171,"y":2533827.25}},{"attributes":{"ID":642367,"DIS_CODE":0,"TOWNNAME":"關廟區","LI":"田中里","LIN":"4鄰","STREET":"南雄南路","SECT":" ","MAREA":" ","LANE":" ","ALLEY":" ","HOUSE_NO":"５２９號","E_COORD97":183918.89000000001,"N_COORD97":2533894.25,"ADDRESS":"南雄南路５２９號","OBJECTID":642340},"geometry":{"x":183918.88999999966,"y":2533894.25}},{"attributes":{"ID":642368,"DIS_CODE":0,"TOWNNAME":"關廟區","LI":"香洋里","LIN":"25鄰","STREET":"中山路","SECT":"二段","MAREA":" ","LANE":" ","ALLEY":" ","HOUSE_NO":"４３號","E_COORD97":181013.01000000001,"N_COORD97":2539960.2799999998,"ADDRESS":"中山路二段４３號","OBJECTID":642341},"geometry":{"x":181013.00999999978,"y":2539960.2800000012}},{"attributes":{"ID":642369,"DIS_CODE":0,"TOWNNAME":"關廟區","LI":"龜洞里","LIN":"4鄰","STREET":"南雄南路","SECT":" ","MAREA":" ","LANE":" ","ALLEY":" ","HOUSE_NO":"７５２號","E_COORD97":183307.84,"N_COORD97":2533453.25,"ADDRESS":"南雄南路７５２號","OBJECTID":642342},"geometry":{"x":183307.83999999985,"y":2533453.25}},{"attributes":{"ID":642370,"DIS_CODE":0,"TOWNNAME":"關廟區","LI":"田中里","LIN":"4鄰","STREET":"田大路","SECT":" ","MAREA":" ","LANE":" ","ALLEY":" ","HOUSE_NO":"２２號","E_COORD97":184093.98999999999,"N_COORD97":2533897.25,"ADDRESS":"田大路２２號","OBJECTID":642343},"geometry":{"x":184093.99000000022,"y":2533897.25}},{"attributes":{"ID":642371,"DIS_CODE":0,"TOWNNAME":"關廟區","LI":"北勢里","LIN":"4鄰","STREET":"中正路","SECT":" ","MAREA":" ","LANE":" ","ALLEY":" ","HOUSE_NO":"７６２號","E_COORD97":181524.82515799999,"N_COORD97":2540265.6702700001,"ADDRESS":"中正路７６２號","OBJECTID":642344},"geometry":{"x":181524.82515799999,"y":2540265.6702699997}},{"attributes":{"ID":642372,"DIS_CODE":0,"TOWNNAME":"關廟區","LI":"東勢里","LIN":"25鄰","STREET":"光復街","SECT":" ","MAREA":" ","LANE":" ","ALLEY":" ","HOUSE_NO":"１５８號","E_COORD97":181524.64000000001,"N_COORD97":2539511.2799999998,"ADDRESS":"光復街１５８號","OBJECTID":642345},"geometry":{"x":181524.6400000006,"y":2539511.2799999993}},{"attributes":{"ID":642373,"DIS_CODE":0,"TOWNNAME":"關廟區","LI":"北勢里","LIN":"13鄰","STREET":"北安三街","SECT":" ","MAREA":" ","LANE":" ","ALLEY":" ","HOUSE_NO":"１４６號","E_COORD97":181447.64000000001,"N_COORD97":2540624.3199999998,"ADDRESS":"北安三街１４６號","OBJECTID":642346},"geometry":{"x":181447.63999999966,"y":2540624.3200000003}},{"attributes":{"ID":642374,"DIS_CODE":0,"TOWNNAME":"關廟區","LI":"田中里","LIN":"4鄰","STREET":"田大路","SECT":" ","MAREA":" ","LANE":" ","ALLEY":" ","HOUSE_NO":"６２號","E_COORD97":184191.48999999999,"N_COORD97":2533814.25,"ADDRESS":"田大路６２號","OBJECTID":642347},"geometry":{"x":184191.49000000115,"y":2533814.2500000037}},{"attributes":{"ID":642375,"DIS_CODE":0,"TOWNNAME":"關廟區","LI":"深坑里","LIN":"4鄰","STREET":"深坑一街","SECT":" ","MAREA":" ","LANE":" ","ALLEY":" ","HOUSE_NO":"２３號","E_COORD97":181902.12,"N_COORD97":2537572.2999999998,"ADDRESS":"深坑一街２３號","OBJECTID":642348},"geometry":{"x":181902.12000000011,"y":2537572.3000000026}},{"attributes":{"ID":642376,"DIS_CODE":0,"TOWNNAME":"關廟區","LI":"香洋里","LIN":"20鄰","STREET":"中央路","SECT":" ","MAREA":" ","LANE":" ","ALLEY":" ","HOUSE_NO":"６９號","E_COORD97":181479.20999999999,"N_COORD97":2539976.3199999998,"ADDRESS":"中央路６９號","OBJECTID":642349},"geometry":{"x":181479.21000000089,"y":2539976.3200000003}},{"attributes":{"ID":642377,"DIS_CODE":0,"TOWNNAME":"關廟區","LI":"東勢里","LIN":"26鄰","STREET":"光復街","SECT":" ","MAREA":" ","LANE":" ","ALLEY":" ","HOUSE_NO":"１５１號","E_COORD97":181481.64000000001,"N_COORD97":2539638.2799999998,"ADDRESS":"光復街１５１號","OBJECTID":642350},"geometry":{"x":181481.63999999966,"y":2539638.2800000012}},{"attributes":{"ID":642378,"DIS_CODE":0,"TOWNNAME":"關廟區","LI":"香洋里","LIN":"24鄰","STREET":"中山路","SECT":"一段","MAREA":" ","LANE":" ","ALLEY":" ","HOUSE_NO":"３６７號","E_COORD97":181173.56,"N_COORD97":2539956.2799999998,"ADDRESS":"中山路一段３６７號","OBJECTID":642351},"geometry":{"x":181173.55999999959,"y":2539956.2799999993}},{"attributes":{"ID":642379,"DIS_CODE":0,"TOWNNAME":"關廟區","LI":"五甲里","LIN":"12鄰","STREET":"東興路","SECT":" ","MAREA":" ","LANE":" ","ALLEY":" ","HOUSE_NO":"３號","E_COORD97":181212.87,"N_COORD97":2539542.25,"ADDRESS":"東興路３號","OBJECTID":642352},"geometry":{"x":181212.87000000011,"y":2539542.25}},{"attributes":{"ID":642380,"DIS_CODE":0,"TOWNNAME":"關廟區","LI":"田中里","LIN":"4鄰","STREET":"南雄南路","SECT":" ","MAREA":" ","LANE":" ","ALLEY":" ","HOUSE_NO":"５３１號","E_COORD97":183913.89000000001,"N_COORD97":2533892.25,"ADDRESS":"南雄南路５３１號","OBJECTID":642353},"geometry":{"x":183913.88999999966,"y":2533892.2500000037}},{"attributes":{"ID":642381,"DIS_CODE":0,"TOWNNAME":"關廟區","LI":"五甲里","LIN":"4鄰","STREET":"南雄路","SECT":"一段","MAREA":" ","LANE":" ","ALLEY":" ","HOUSE_NO":"８７０號","E_COORD97":181340.19,"N_COORD97":2539211.2799999998,"ADDRESS":"南雄路一段８７０號","OBJECTID":642354},"geometry":{"x":181340.19000000134,"y":2539211.2800000012}},{"attributes":{"ID":642382,"DIS_CODE":0,"TOWNNAME":"關廟區","LI":"香洋里","LIN":"24鄰","STREET":"中山路","SECT":"一段","MAREA":" ","LANE":" ","ALLEY":" ","HOUSE_NO":"３７５號","E_COORD97":181156.66,"N_COORD97":2539962.2799999998,"ADDRESS":"中山路一段３７５號","OBJECTID":642355},"geometry":{"x":181156.66000000015,"y":2539962.2799999993}},{"attributes":{"ID":642383,"DIS_CODE":0,"TOWNNAME":"關廟區","LI":"香洋里","LIN":"8鄰","STREET":"巡府路","SECT":" ","MAREA":" ","LANE":" ","ALLEY":" ","HOUSE_NO":"７８號","E_COORD97":181014.82000000001,"N_COORD97":2540092.25,"ADDRESS":"巡府路７８號","OBJECTID":642356},"geometry":{"x":181014.8200000003,"y":2540092.25}},{"attributes":{"ID":642384,"DIS_CODE":0,"TOWNNAME":"關廟區","LI":"北勢里","LIN":"4鄰","STREET":"北仁街","SECT":" ","MAREA":" ","LANE":" ","ALLEY":" ","HOUSE_NO":"７６號","E_COORD97":181486.64000000001,"N_COORD97":2540329.25,"ADDRESS":"北仁街７６號","OBJECTID":642357},"geometry":{"x":181486.63999999966,"y":2540329.25}},{"attributes":{"ID":642385,"DIS_CODE":0,"TOWNNAME":"關廟區","LI":"香洋里","LIN":"18鄰","STREET":"和平路","SECT":" ","MAREA":" ","LANE":" ","ALLEY":" ","HOUSE_NO":"２４５號","E_COORD97":181645.94,"N_COORD97":2540009.25,"ADDRESS":"和平路２４５號","OBJECTID":642358},"geometry":{"x":181645.94000000134,"y":2540009.2500000019}},{"attributes":{"ID":642386,"DIS_CODE":0,"TOWNNAME":"關廟區","LI":"北勢里","LIN":"20鄰","STREET":"北新街","SECT":" ","MAREA":" ","LANE":" ","ALLEY":" ","HOUSE_NO":"３９號","E_COORD97":181291.23999999999,"N_COORD97":2540383.25,"ADDRESS":"北新街３９號","OBJECTID":642359},"geometry":{"x":181291.24000000022,"y":2540383.25}},{"attributes":{"ID":642387,"DIS_CODE":0,"TOWNNAME":"關廟區","LI":"東勢里","LIN":"26鄰","STREET":"光復街","SECT":" ","MAREA":" ","LANE":" ","ALLEY":" ","HOUSE_NO":"１６１號","E_COORD97":181482.84,"N_COORD97":2539661.2799999998,"ADDRESS":"光復街１６１號","OBJECTID":642360},"geometry":{"x":181482.84000000078,"y":2539661.2799999993}},{"attributes":{"ID":642388,"DIS_CODE":0,"TOWNNAME":"關廟區","LI":"香洋里","LIN":"25鄰","STREET":"南雄路","SECT":"一段","MAREA":" ","LANE":" ","ALLEY":" ","HOUSE_NO":"１１７１號","E_COORD97":181063.92999999999,"N_COORD97":2539974.9399999999,"ADDRESS":"南雄路一段１１７１號","OBJECTID":642361},"geometry":{"x":181063.9299999997,"y":2539974.9399999995}},{"attributes":{"ID":642389,"DIS_CODE":0,"TOWNNAME":"關廟區","LI":"田中里","LIN":"4鄰","STREET":"田大路","SECT":" ","MAREA":" ","LANE":" ","ALLEY":" ","HOUSE_NO":"２０號","E_COORD97":184088.59,"N_COORD97":2533900.25,"ADDRESS":"田大路２０號","OBJECTID":642362},"geometry":{"x":184088.59000000078,"y":2533900.2500000019}},{"attributes":{"ID":642390,"DIS_CODE":0,"TOWNNAME":"關廟區","LI":"香洋里","LIN":"5鄰","STREET":"市場北街","SECT":" ","MAREA":" ","LANE":" ","ALLEY":" ","HOUSE_NO":"１０２號","E_COORD97":181094.64000000001,"N_COORD97":2540216.25,"ADDRESS":"市場北街１０２號","OBJECTID":642363},"geometry":{"x":181094.63999999966,"y":2540216.2500000019}},{"attributes":{"ID":642391,"DIS_CODE":0,"TOWNNAME":"關廟區","LI":"北勢里","LIN":"14鄰","STREET":"成功路","SECT":" ","MAREA":" ","LANE":" ","ALLEY":" ","HOUSE_NO":"２９８號","E_COORD97":181393.07000000001,"N_COORD97":2540498.27,"ADDRESS":"成功路２９８號","OBJECTID":642364},"geometry":{"x":181393.0700000003,"y":2540498.2699999996}},{"attributes":{"ID":642392,"DIS_CODE":0,"TOWNNAME":"關廟區","LI":"松腳里","LIN":"8鄰","STREET":"勝利街","SECT":" ","MAREA":" ","LANE":" ","ALLEY":" ","HOUSE_NO":"３２號","E_COORD97":181778.32000000001,"N_COORD97":2539773.2599999998,"ADDRESS":"勝利街３２號","OBJECTID":642365},"geometry":{"x":181778.32000000123,"y":2539773.2599999998}},{"attributes":{"ID":642393,"DIS_CODE":0,"TOWNNAME":"安平區","LI":"平安里","LIN":"18鄰","STREET":"安北路","SECT":" ","MAREA":" ","LANE":" ","ALLEY":" ","HOUSE_NO":"４號","E_COORD97":164718.53,"N_COORD97":2544445.29,"ADDRESS":"安北路４號","OBJECTID":642366},"geometry":{"x":164718.53000000119,"y":2544445.2900000028}},{"attributes":{"ID":642394,"DIS_CODE":0,"TOWNNAME":"關廟區","LI":"田中里","LIN":"4鄰","STREET":"中大街","SECT":" ","MAREA":" ","LANE":" ","ALLEY":" ","HOUSE_NO":"４３號","E_COORD97":183972.48999999999,"N_COORD97":2533774.2999999998,"ADDRESS":"中大街４３號","OBJECTID":642367},"geometry":{"x":183972.49000000115,"y":2533774.3000000026}},{"attributes":{"ID":642395,"DIS_CODE":0,"TOWNNAME":"關廟區","LI":"龜洞里","LIN":"4鄰","STREET":"南雄南路","SECT":" ","MAREA":" ","LANE":" ","ALLEY":" ","HOUSE_NO":"８３８號","E_COORD97":182849.54000000001,"N_COORD97":2533244.25,"ADDRESS":"南雄南路８３８號","OBJECTID":642368},"geometry":{"x":182849.54000000097,"y":2533244.25}},{"attributes":{"ID":642396,"DIS_CODE":0,"TOWNNAME":"關廟區","LI":"埤頭里","LIN":"13鄰","STREET":"關新路","SECT":"二段","MAREA":" ","LANE":" ","ALLEY":" ","HOUSE_NO":"５２５號","E_COORD97":179126.26999999999,"N_COORD97":2545353.2999999998,"ADDRESS":"關新路二段５２５號","OBJECTID":642369},"geometry":{"x":179126.27000000142,"y":2545353.3000000026}},{"attributes":{"ID":642397,"DIS_CODE":0,"TOWNNAME":"關廟區","LI":"埤頭里","LIN":"4鄰","STREET":"保東一街","SECT":" ","MAREA":" ","LANE":" ","ALLEY":" ","HOUSE_NO":"３２８號","E_COORD97":178649.87,"N_COORD97":2543228.2999999998,"ADDRESS":"保東一街３２８號","OBJECTID":642370},"geometry":{"x":178649.87000000197,"y":2543228.3000000007}},{"attributes":{"ID":642398,"DIS_CODE":0,"TOWNNAME":"關廟區","LI":"田中里","LIN":"4鄰","STREET":"中大街","SECT":" ","MAREA":" ","LANE":" ","ALLEY":" ","HOUSE_NO":"５０號","E_COORD97":183931.19,"N_COORD97":2533751.25,"ADDRESS":"中大街５０號","OBJECTID":642371},"geometry":{"x":183931.19000000041,"y":2533751.2500000019}},{"attributes":{"ID":642399,"DIS_CODE":0,"TOWNNAME":"關廟區","LI":"香洋里","LIN":"20鄰","STREET":"中山路","SECT":"一段","MAREA":" ","LANE":" ","ALLEY":" ","HOUSE_NO":"４００號","E_COORD97":181536.66,"N_COORD97":2539879.2799999998,"ADDRESS":"中山路一段４００號","OBJECTID":642372},"geometry":{"x":181536.66000000201,"y":2539879.2800000012}},{"attributes":{"ID":642400,"DIS_CODE":0,"TOWNNAME":"關廟區","LI":"南花里","LIN":"13鄰","STREET":"花園一街","SECT":" ","MAREA":" ","LANE":" ","ALLEY":" ","HOUSE_NO":"１７２號","E_COORD97":181700.98999999999,"N_COORD97":2540168.25,"ADDRESS":"花園一街１７２號","OBJECTID":642373},"geometry":{"x":181700.99000000115,"y":2540168.2500000019}},{"attributes":{"ID":642401,"DIS_CODE":0,"TOWNNAME":"關廟區","LI":"南花里","LIN":"13鄰","STREET":"花園一街","SECT":" ","MAREA":" ","LANE":" ","ALLEY":" ","HOUSE_NO":"１７０號","E_COORD97":181706.69,"N_COORD97":2540171.25,"ADDRESS":"花園一街１７０號","OBJECTID":642374},"geometry":{"x":181706.69000000134,"y":2540171.2500000037}},{"attributes":{"ID":642402,"DIS_CODE":0,"TOWNNAME":"關廟區","LI":"香洋里","LIN":"18鄰","STREET":"和平路","SECT":" ","MAREA":" ","LANE":" ","ALLEY":" ","HOUSE_NO":"２４７號","E_COORD97":181644.84,"N_COORD97":2540013.25,"ADDRESS":"和平路２４７號","OBJECTID":642375},"geometry":{"x":181644.83999999985,"y":2540013.2500000019}},{"attributes":{"ID":642403,"DIS_CODE":0,"TOWNNAME":"關廟區","LI":"香洋里","LIN":"13鄰","STREET":"南雄路","SECT":"二段","MAREA":" ","LANE":" ","ALLEY":" ","HOUSE_NO":"６號","E_COORD97":181094.69,"N_COORD97":2540026.2799999998,"ADDRESS":"南雄路二段６號","OBJECTID":642376},"geometry":{"x":181094.69000000134,"y":2540026.2799999993}},{"attributes":{"ID":642404,"DIS_CODE":0,"TOWNNAME":"關廟區","LI":"北勢里","LIN":"24鄰","STREET":"北美街","SECT":" ","MAREA":" ","LANE":" ","ALLEY":" ","HOUSE_NO":"３６號","E_COORD97":181486.23999999999,"N_COORD97":2540387.2999999998,"ADDRESS":"北美街３６號","OBJECTID":642377},"geometry":{"x":181486.24000000022,"y":2540387.3000000007}},{"attributes":{"ID":642405,"DIS_CODE":0,"TOWNNAME":"關廟區","LI":"龜洞里","LIN":"4鄰","STREET":"南雄南路","SECT":" ","MAREA":" ","LANE":" ","ALLEY":" ","HOUSE_NO":"７７８號","E_COORD97":183263.84,"N_COORD97":2533411.2999999998,"ADDRESS":"南雄南路７７８號","OBJECTID":642378},"geometry":{"x":183263.83999999985,"y":2533411.3000000045}},{"attributes":{"ID":642406,"DIS_CODE":0,"TOWNNAME":"關廟區","LI":"香洋里","LIN":"4鄰","STREET":"成功路","SECT":" ","MAREA":" ","LANE":" ","ALLEY":" ","HOUSE_NO":"３７７號","E_COORD97":181208.37,"N_COORD97":2540519.27,"ADDRESS":"成功路３７７號","OBJECTID":642379},"geometry":{"x":181208.37000000104,"y":2540519.2699999996}},{"attributes":{"ID":642407,"DIS_CODE":0,"TOWNNAME":"關廟區","LI":"東勢里","LIN":"26鄰","STREET":"光復街","SECT":" ","MAREA":" ","LANE":" ","ALLEY":" ","HOUSE_NO":"１５９號","E_COORD97":181482.84,"N_COORD97":2539656.2799999998,"ADDRESS":"光復街１５９號","OBJECTID":642380},"geometry":{"x":181482.84000000078,"y":2539656.2800000012}},{"attributes":{"ID":642408,"DIS_CODE":0,"TOWNNAME":"關廟區","LI":"田中里","LIN":"4鄰","STREET":"中大街","SECT":" ","MAREA":" ","LANE":" ","ALLEY":" ","HOUSE_NO":"４９號","E_COORD97":183998.59,"N_COORD97":2533778.2999999998,"ADDRESS":"中大街４９號","OBJECTID":642381},"geometry":{"x":183998.59000000078,"y":2533778.3000000026}},{"attributes":{"ID":642409,"DIS_CODE":0,"TOWNNAME":"關廟區","LI":"田中里","LIN":"4鄰","STREET":"中大街","SECT":" ","MAREA":" ","LANE":" ","ALLEY":" ","HOUSE_NO":"２５號","E_COORD97":183864.59,"N_COORD97":2533776.2999999998,"ADDRESS":"中大街２５號","OBJECTID":642382},"geometry":{"x":183864.59000000078,"y":2533776.3000000007}},{"attributes":{"ID":642410,"DIS_CODE":0,"TOWNNAME":"關廟區","LI":"香洋里","LIN":"18鄰","STREET":"和平路","SECT":" ","MAREA":" ","LANE":" ","ALLEY":" ","HOUSE_NO":"２６７號","E_COORD97":181638.64000000001,"N_COORD97":2540072.25,"ADDRESS":"和平路２６７號","OBJECTID":642383},"geometry":{"x":181638.6400000006,"y":2540072.25}},{"attributes":{"ID":642411,"DIS_CODE":0,"TOWNNAME":"關廟區","LI":"東勢里","LIN":"26鄰","STREET":"民權街","SECT":" ","MAREA":" ","LANE":" ","ALLEY":" ","HOUSE_NO":"８５號","E_COORD97":181468.44,"N_COORD97":2539741.29,"ADDRESS":"民權街８５號","OBJECTID":642384},"geometry":{"x":181468.44000000041,"y":2539741.2899999991}},{"attributes":{"ID":642412,"DIS_CODE":0,"TOWNNAME":"關廟區","LI":"香洋里","LIN":"25鄰","STREET":"中山路","SECT":"二段","MAREA":" ","LANE":" ","ALLEY":" ","HOUSE_NO":"３５號","E_COORD97":181025.31,"N_COORD97":2539985.2799999998,"ADDRESS":"中山路二段３５號","OBJECTID":642385},"geometry":{"x":181025.31000000052,"y":2539985.2800000012}},{"attributes":{"ID":642413,"DIS_CODE":0,"TOWNNAME":"關廟區","LI":"田中里","LIN":"4鄰","STREET":"中大街","SECT":" ","MAREA":" ","LANE":" ","ALLEY":" ","HOUSE_NO":"３１號","E_COORD97":183891.29000000001,"N_COORD97":2533777.25,"ADDRESS":"中大街３１號","OBJECTID":642386},"geometry":{"x":183891.29000000004,"y":2533777.2500000019}},{"attributes":{"ID":642414,"DIS_CODE":0,"TOWNNAME":"關廟區","LI":"龜洞里","LIN":"4鄰","STREET":"南雄南路","SECT":" ","MAREA":" ","LANE":" ","ALLEY":" ","HOUSE_NO":"７５０號","E_COORD97":183311.64000000001,"N_COORD97":2533463.25,"ADDRESS":"南雄南路７５０號","OBJECTID":642387},"geometry":{"x":183311.6400000006,"y":2533463.25}},{"attributes":{"ID":642415,"DIS_CODE":0,"TOWNNAME":"關廟區","LI":"深坑里","LIN":"5鄰","STREET":"深坑三街","SECT":" ","MAREA":" ","LANE":" ","ALLEY":" ","HOUSE_NO":"６１號","E_COORD97":181916.26999999999,"N_COORD97":2537716.2999999998,"ADDRESS":"深坑三街６１號","OBJECTID":642388},"geometry":{"x":181916.26999999955,"y":2537716.3000000007}},{"attributes":{"ID":642416,"DIS_CODE":0,"TOWNNAME":"關廟區","LI":"東勢里","LIN":"26鄰","STREET":"光復街","SECT":" ","MAREA":" ","LANE":" ","ALLEY":" ","HOUSE_NO":"１５５號","E_COORD97":181481.64000000001,"N_COORD97":2539647.2799999998,"ADDRESS":"光復街１５５號","OBJECTID":642389},"geometry":{"x":181481.63999999966,"y":2539647.2799999993}},{"attributes":{"ID":642417,"DIS_CODE":0,"TOWNNAME":"關廟區","LI":"五甲里","LIN":"13鄰","STREET":"光復街","SECT":" ","MAREA":" ","LANE":" ","ALLEY":" ","HOUSE_NO":"５７號","E_COORD97":181434.79000000001,"N_COORD97":2539281.2799999998,"ADDRESS":"光復街５７號","OBJECTID":642390},"geometry":{"x":181434.79000000004,"y":2539281.2799999993}},{"attributes":{"ID":642418,"DIS_CODE":0,"TOWNNAME":"關廟區","LI":"香洋里","LIN":"18鄰","STREET":"和平路","SECT":" ","MAREA":" ","LANE":" ","ALLEY":" ","HOUSE_NO":"２５７號","E_COORD97":181644.84,"N_COORD97":2540038.25,"ADDRESS":"和平路２５７號","OBJECTID":642391},"geometry":{"x":181644.83999999985,"y":2540038.25}},{"attributes":{"ID":642419,"DIS_CODE":0,"TOWNNAME":"關廟區","LI":"東勢里","LIN":"26鄰","STREET":"光復街","SECT":" ","MAREA":" ","LANE":" ","ALLEY":" ","HOUSE_NO":"１５３號","E_COORD97":181481.64000000001,"N_COORD97":2539642.2799999998,"ADDRESS":"光復街１５３號","OBJECTID":642392},"geometry":{"x":181481.63999999966,"y":2539642.2800000012}},{"attributes":{"ID":642420,"DIS_CODE":0,"TOWNNAME":"關廟區","LI":"東勢里","LIN":"25鄰","STREET":"光復街","SECT":" ","MAREA":" ","LANE":" ","ALLEY":" ","HOUSE_NO":"１６０號","E_COORD97":181511.23999999999,"N_COORD97":2539513.2799999998,"ADDRESS":"光復街１６０號","OBJECTID":642393},"geometry":{"x":181511.24000000115,"y":2539513.2800000012}},{"attributes":{"ID":642421,"DIS_CODE":0,"TOWNNAME":"關廟區","LI":"香洋里","LIN":"13鄰","STREET":"南雄路","SECT":"二段","MAREA":" ","LANE":" ","ALLEY":" ","HOUSE_NO":"８號","E_COORD97":181094.69,"N_COORD97":2540026.2799999998,"ADDRESS":"南雄路二段８號","OBJECTID":642394},"geometry":{"x":181094.69000000134,"y":2540026.2799999993}},{"attributes":{"ID":642422,"DIS_CODE":0,"TOWNNAME":"關廟區","LI":"東勢里","LIN":"26鄰","STREET":"光復街","SECT":" ","MAREA":" ","LANE":" ","ALLEY":" ","HOUSE_NO":"１４９號","E_COORD97":181481.64000000001,"N_COORD97":2539633.2799999998,"ADDRESS":"光復街１４９號","OBJECTID":642395},"geometry":{"x":181481.63999999966,"y":2539633.2799999993}},{"attributes":{"ID":642423,"DIS_CODE":0,"TOWNNAME":"關廟區","LI":"香洋里","LIN":"13鄰","STREET":"南雄路","SECT":"二段","MAREA":" ","LANE":" ","ALLEY":" ","HOUSE_NO":"３６號","E_COORD97":181110.54000000001,"N_COORD97":2540096.2799999998,"ADDRESS":"南雄路二段３６號","OBJECTID":642396},"geometry":{"x":181110.54000000097,"y":2540096.2800000012}},{"attributes":{"ID":642424,"DIS_CODE":0,"TOWNNAME":"關廟區","LI":"深坑里","LIN":"4鄰","STREET":"深坑一街","SECT":" ","MAREA":" ","LANE":" ","ALLEY":" ","HOUSE_NO":"３３號","E_COORD97":181976.87,"N_COORD97":2537585.2999999998,"ADDRESS":"深坑一街３３號","OBJECTID":642397},"geometry":{"x":181976.87000000011,"y":2537585.3000000026}},{"attributes":{"ID":642425,"DIS_CODE":0,"TOWNNAME":"關廟區","LI":"香洋里","LIN":"18鄰","STREET":"和平路","SECT":" ","MAREA":" ","LANE":" ","ALLEY":" ","HOUSE_NO":"２６１號","E_COORD97":181642.14000000001,"N_COORD97":2540056.25,"ADDRESS":"和平路２６１號","OBJECTID":642398},"geometry":{"x":181642.13999999966,"y":2540056.2500000019}},{"attributes":{"ID":642426,"DIS_CODE":0,"TOWNNAME":"關廟區","LI":"東勢里","LIN":"26鄰","STREET":"光復街","SECT":" ","MAREA":" ","LANE":" ","ALLEY":" ","HOUSE_NO":"１６５號","E_COORD97":181483.23999999999,"N_COORD97":2539670.2799999998,"ADDRESS":"光復街１６５號","OBJECTID":642399},"geometry":{"x":181483.24000000022,"y":2539670.2799999993}},{"attributes":{"ID":642427,"DIS_CODE":0,"TOWNNAME":"關廟區","LI":"北勢里","LIN":"4鄰","STREET":"北仁街","SECT":" ","MAREA":" ","LANE":" ","ALLEY":" ","HOUSE_NO":"７２號","E_COORD97":181492.73999999999,"N_COORD97":2540329.25,"ADDRESS":"北仁街７２號","OBJECTID":642400},"geometry":{"x":181492.74000000115,"y":2540329.25}}]}