{"displayFieldName":"TOWNNAME","fieldAliases":{"ID":"ID","DIS_CODE":"DIS_CODE","TOWNNAME":"TOWNNAME","LI":"LI","LIN":"LIN","STREET":"STREET","SECT":"SECT","MAREA":"MAREA","LANE":"LANE","ALLEY":"ALLEY","HOUSE_NO":"HOUSE_NO","E_COORD97":"E_COORD97","N_COORD97":"N_COORD97","ADDRESS":"ADDRESS","OBJECTID":"OBJECTID"},"geometryType":"esriGeometryPoint","spatialReference":{"wkid":102443,"latestWkid":3826},"fields":[{"name":"ID","type":"esriFieldTypeDouble","alias":"ID"},{"name":"DIS_CODE","type":"esriFieldTypeInteger","alias":"DIS_CODE"},{"name":"TOWNNAME","type":"esriFieldTypeString","alias":"TOWNNAME","length":8},{"name":"LI","type":"esriFieldTypeString","alias":"LI","length":8},{"name":"LIN","type":"esriFieldTypeString","alias":"LIN","length":12},{"name":"STREET","type":"esriFieldTypeString","alias":"STREET","length":20},{"name":"SECT","type":"esriFieldTypeString","alias":"SECT","length":8},{"name":"MAREA","type":"esriFieldTypeString","alias":"MAREA","length":12},{"name":"LANE","type":"esriFieldTypeString","alias":"LANE","length":10},{"name":"ALLEY","type":"esriFieldTypeString","alias":"ALLEY","length":10},{"name":"HOUSE_NO","type":"esriFieldTypeString","alias":"HOUSE_NO","length":20},{"name":"E_COORD97","type":"esriFieldTypeDouble","alias":"E_COORD97"},{"name":"N_COORD97","type":"esriFieldTypeDouble","alias":"N_COORD97"},{"name":"ADDRESS","type":"esriFieldTypeString","alias":"ADDRESS","length":50},{"name":"OBJECTID","type":"esriFieldTypeOID","alias":"OBJECTID"}],"features":[{"attributes":{"ID":68601,"DIS_CODE":0,"TOWNNAME":"安平區","LI":"國平里","LIN":"6鄰","STREET":"文平路","SECT":" ","MAREA":" ","LANE":"１８７巷","ALLEY":"８８弄","HOUSE_NO":"１之１２號","E_COORD97":165472.47,"N_COORD97":2543101.9100000001,"ADDRESS":"文平路１８７巷８８弄１之１２號","OBJECTID":68601},"geometry":{"x":165472.47000000067,"y":2543101.9100000001}},{"attributes":{"ID":68602,"DIS_CODE":0,"TOWNNAME":"麻豆區","LI":"磚井里","LIN":"7鄰","STREET":" ","SECT":" ","MAREA":"磚子井","LANE":" ","ALLEY":" ","HOUSE_NO":"６８號","E_COORD97":173689.95000000001,"N_COORD97":2563461.8799999999,"ADDRESS":"磚子井６８號","OBJECTID":68602},"geometry":{"x":173689.95000000112,"y":2563461.8800000008}},{"attributes":{"ID":68603,"DIS_CODE":0,"TOWNNAME":"麻豆區","LI":"磚井里","LIN":"7鄰","STREET":" ","SECT":" ","MAREA":"磚子井","LANE":" ","ALLEY":" ","HOUSE_NO":"７０號","E_COORD97":173696.07000000001,"N_COORD97":2563436.04,"ADDRESS":"磚子井７０號","OBJECTID":68603},"geometry":{"x":173696.07000000123,"y":2563436.0399999991}},{"attributes":{"ID":68604,"DIS_CODE":0,"TOWNNAME":"北門區","LI":"中樞里","LIN":"7鄰","STREET":" ","SECT":" ","MAREA":"溪底寮","LANE":" ","ALLEY":" ","HOUSE_NO":"５０之３０號","E_COORD97":160317.66,"N_COORD97":2571511.3900000001,"ADDRESS":"溪底寮５０之３０號","OBJECTID":68604},"geometry":{"x":160317.66000000015,"y":2571511.3900000043}},{"attributes":{"ID":68605,"DIS_CODE":0,"TOWNNAME":"北門區","LI":"中樞里","LIN":"7鄰","STREET":" ","SECT":" ","MAREA":"溪底寮","LANE":" ","ALLEY":" ","HOUSE_NO":"５０號","E_COORD97":160583.64999999999,"N_COORD97":2571261.9300000002,"ADDRESS":"溪底寮５０號","OBJECTID":68605},"geometry":{"x":160583.65000000037,"y":2571261.9299999997}},{"attributes":{"ID":68606,"DIS_CODE":0,"TOWNNAME":"北門區","LI":"中樞里","LIN":"7鄰","STREET":" ","SECT":" ","MAREA":"溪底寮","LANE":" ","ALLEY":" ","HOUSE_NO":"５２號","E_COORD97":160751.10000000001,"N_COORD97":2571325.0699999998,"ADDRESS":"溪底寮５２號","OBJECTID":68606},"geometry":{"x":160751.09999999963,"y":2571325.0700000022}},{"attributes":{"ID":68607,"DIS_CODE":0,"TOWNNAME":"北門區","LI":"中樞里","LIN":"7鄰","STREET":" ","SECT":" ","MAREA":"溪底寮","LANE":" ","ALLEY":" ","HOUSE_NO":"５５之５號","E_COORD97":160733.09,"N_COORD97":2571281.2400000002,"ADDRESS":"溪底寮５５之５號","OBJECTID":68607},"geometry":{"x":160733.08999999985,"y":2571281.2399999984}},{"attributes":{"ID":68608,"DIS_CODE":0,"TOWNNAME":"北門區","LI":"中樞里","LIN":"7鄰","STREET":" ","SECT":" ","MAREA":"溪底寮","LANE":" ","ALLEY":" ","HOUSE_NO":"５５號","E_COORD97":160861.54999999999,"N_COORD97":2571263.5,"ADDRESS":"溪底寮５５號","OBJECTID":68608},"geometry":{"x":160861.55000000075,"y":2571263.5000000019}},{"attributes":{"ID":68609,"DIS_CODE":0,"TOWNNAME":"北門區","LI":"中樞里","LIN":"7鄰","STREET":" ","SECT":" ","MAREA":"溪底寮","LANE":" ","ALLEY":" ","HOUSE_NO":"５６號之１０","E_COORD97":161081.56,"N_COORD97":2571834.7200000002,"ADDRESS":"溪底寮５６號之１０","OBJECTID":68609},"geometry":{"x":161081.56000000052,"y":2571834.7200000044}},{"attributes":{"ID":68610,"DIS_CODE":0,"TOWNNAME":"仁德區","LI":"大甲里","LIN":" ","STREET":"行大一街","SECT":" ","MAREA":" ","LANE":" ","ALLEY":" ","HOUSE_NO":"３４２號","E_COORD97":169522.12,"N_COORD97":2535139.75,"ADDRESS":"行大一街３４２號","OBJECTID":68610},"geometry":{"x":169522.12000000104,"y":2535139.7500000037}},{"attributes":{"ID":68611,"DIS_CODE":0,"TOWNNAME":"仁德區","LI":"後壁里","LIN":" ","STREET":"德洋路","SECT":" ","MAREA":" ","LANE":" ","ALLEY":" ","HOUSE_NO":"８８號之１","E_COORD97":172873.57999999999,"N_COORD97":2539239.04,"ADDRESS":"德洋路８８號之１","OBJECTID":68611},"geometry":{"x":172873.58000000101,"y":2539239.0399999972}},{"attributes":{"ID":68612,"DIS_CODE":0,"TOWNNAME":"安平區","LI":"國平里","LIN":"6鄰","STREET":"文平路","SECT":" ","MAREA":" ","LANE":"１８７巷","ALLEY":"８８弄","HOUSE_NO":"１之１３號","E_COORD97":165472.47,"N_COORD97":2543103.2599999998,"ADDRESS":"文平路１８７巷８８弄１之１３號","OBJECTID":68612},"geometry":{"x":165472.47000000067,"y":2543103.2599999979}},{"attributes":{"ID":68613,"DIS_CODE":0,"TOWNNAME":"安平區","LI":"國平里","LIN":"6鄰","STREET":"文平路","SECT":" ","MAREA":" ","LANE":"１８７巷","ALLEY":"８８弄","HOUSE_NO":"１之１５號","E_COORD97":165473.01000000001,"N_COORD97":2543104.8799999999,"ADDRESS":"文平路１８７巷８８弄１之１５號","OBJECTID":68613},"geometry":{"x":165473.00999999978,"y":2543104.879999999}},{"attributes":{"ID":68614,"DIS_CODE":0,"TOWNNAME":"安平區","LI":"國平里","LIN":"6鄰","STREET":"文平路","SECT":" ","MAREA":" ","LANE":"１８７巷","ALLEY":"８８弄","HOUSE_NO":"１之１６號","E_COORD97":165473.01000000001,"N_COORD97":2543107.0499999998,"ADDRESS":"文平路１８７巷８８弄１之１６號","OBJECTID":68614},"geometry":{"x":165473.00999999978,"y":2543107.0500000026}},{"attributes":{"ID":68615,"DIS_CODE":0,"TOWNNAME":"仁德區","LI":"二行里","LIN":" ","STREET":"行大街","SECT":" ","MAREA":" ","LANE":" ","ALLEY":" ","HOUSE_NO":"２１６號","E_COORD97":169855.75,"N_COORD97":2535109.2400000002,"ADDRESS":"行大街２１６號","OBJECTID":68615},"geometry":{"x":169855.75,"y":2535109.2400000002}},{"attributes":{"ID":68616,"DIS_CODE":0,"TOWNNAME":"北區","LI":"力行里","LIN":"15鄰","STREET":"力行街","SECT":" ","MAREA":" ","LANE":" ","ALLEY":" ","HOUSE_NO":"７號","E_COORD97":170861.98999999999,"N_COORD97":2545367.2200000002,"ADDRESS":"力行街７號","OBJECTID":68616},"geometry":{"x":170861.99000000115,"y":2545367.2200000025}},{"attributes":{"ID":68617,"DIS_CODE":0,"TOWNNAME":"官田區","LI":"二鎮里","LIN":"7鄰","STREET":" ","SECT":" ","MAREA":"二鎮","LANE":" ","ALLEY":" ","HOUSE_NO":"５８號之１","E_COORD97":181378.14000000001,"N_COORD97":2568329.6299999999,"ADDRESS":"二鎮５８號之１","OBJECTID":68617},"geometry":{"x":181378.13999999966,"y":2568329.629999999}},{"attributes":{"ID":68618,"DIS_CODE":0,"TOWNNAME":"安平區","LI":"國平里","LIN":"6鄰","STREET":"文平路","SECT":" ","MAREA":" ","LANE":"１８７巷","ALLEY":"８８弄","HOUSE_NO":"１之１８號","E_COORD97":165473.28,"N_COORD97":2543111.1000000001,"ADDRESS":"文平路１８７巷８８弄１之１８號","OBJECTID":68618},"geometry":{"x":165473.28000000026,"y":2543111.1000000034}},{"attributes":{"ID":68619,"DIS_CODE":0,"TOWNNAME":"安平區","LI":"國平里","LIN":"6鄰","STREET":"文平路","SECT":" ","MAREA":" ","LANE":"１８７巷","ALLEY":"８８弄","HOUSE_NO":"１之１９號","E_COORD97":165473.82000000001,"N_COORD97":2543113.27,"ADDRESS":"文平路１８７巷８８弄１之１９號","OBJECTID":68619},"geometry":{"x":165473.82000000216,"y":2543113.2700000033}},{"attributes":{"ID":68620,"DIS_CODE":0,"TOWNNAME":"仁德區","LI":"仁義里","LIN":" ","STREET":"中正路","SECT":"二段","MAREA":" ","LANE":" ","ALLEY":" ","HOUSE_NO":"１１１０號","E_COORD97":173341.39999999999,"N_COORD97":2541096.52,"ADDRESS":"中正路二段１１１０號","OBJECTID":68620},"geometry":{"x":173341.4000000013,"y":2541096.5199999996}},{"attributes":{"ID":68621,"DIS_CODE":0,"TOWNNAME":"北區","LI":"成功里","LIN":"6鄰","STREET":"北安路","SECT":"一段","MAREA":" ","LANE":"１７６巷","ALLEY":"１１弄","HOUSE_NO":"７號","E_COORD97":168893.07000000001,"N_COORD97":2546511.8199999998,"ADDRESS":"北安路一段１７６巷１１弄７號","OBJECTID":68621},"geometry":{"x":168893.07000000123,"y":2546511.8200000022}},{"attributes":{"ID":68622,"DIS_CODE":0,"TOWNNAME":"下營區","LI":"開化里","LIN":"7鄰","STREET":" ","SECT":" ","MAREA":"中營","LANE":" ","ALLEY":" ","HOUSE_NO":"４１９號","E_COORD97":176096.98999999999,"N_COORD97":2568296.1000000001,"ADDRESS":"中營４１９號","OBJECTID":68622},"geometry":{"x":176096.99000000115,"y":2568296.1000000015}},{"attributes":{"ID":68623,"DIS_CODE":0,"TOWNNAME":"北區","LI":"成功里","LIN":"6鄰","STREET":"北安路","SECT":"一段","MAREA":" ","LANE":"１７６巷","ALLEY":"１１弄","HOUSE_NO":"１０號","E_COORD97":168900.22,"N_COORD97":2546523.4100000001,"ADDRESS":"北安路一段１７６巷１１弄１０號","OBJECTID":68623},"geometry":{"x":168900.22000000067,"y":2546523.4100000001}},{"attributes":{"ID":68624,"DIS_CODE":0,"TOWNNAME":"北區","LI":"成功里","LIN":"6鄰","STREET":"北安路","SECT":"一段","MAREA":" ","LANE":"１７６巷","ALLEY":"１１弄","HOUSE_NO":"８號","E_COORD97":168905.76999999999,"N_COORD97":2546519.6000000001,"ADDRESS":"北安路一段１７６巷１１弄８號","OBJECTID":68624},"geometry":{"x":168905.76999999955,"y":2546519.6000000015}},{"attributes":{"ID":68625,"DIS_CODE":0,"TOWNNAME":"北區","LI":"成功里","LIN":"6鄰","STREET":"北安路","SECT":"一段","MAREA":" ","LANE":"１７６巷","ALLEY":"１１弄","HOUSE_NO":"９號","E_COORD97":168887.20000000001,"N_COORD97":2546515.4700000002,"ADDRESS":"北安路一段１７６巷１１弄９號","OBJECTID":68625},"geometry":{"x":168887.20000000112,"y":2546515.4700000007}},{"attributes":{"ID":68626,"DIS_CODE":0,"TOWNNAME":"北區","LI":"成功里","LIN":"6鄰","STREET":"北安路","SECT":"一段","MAREA":" ","LANE":"１７６巷","ALLEY":"１１弄","HOUSE_NO":"１１號","E_COORD97":168881.95999999999,"N_COORD97":2546518.3300000001,"ADDRESS":"北安路一段１７６巷１１弄１１號","OBJECTID":68626},"geometry":{"x":168881.96000000089,"y":2546518.3300000019}},{"attributes":{"ID":68627,"DIS_CODE":0,"TOWNNAME":"仁德區","LI":"仁德里","LIN":"14鄰","STREET":"中正路","SECT":"三段","MAREA":" ","LANE":" ","ALLEY":" ","HOUSE_NO":"６７號","E_COORD97":173344.23999999999,"N_COORD97":2541567.0299999998,"ADDRESS":"中正路三段６７號","OBJECTID":68627},"geometry":{"x":173344.24000000022,"y":2541567.0299999993}},{"attributes":{"ID":68628,"DIS_CODE":0,"TOWNNAME":"下營區","LI":"大埤里","LIN":"7鄰","STREET":" ","SECT":" ","MAREA":"大埤寮","LANE":" ","ALLEY":" ","HOUSE_NO":"５９號之９","E_COORD97":172504.62,"N_COORD97":2569719.46,"ADDRESS":"大埤寮５９號之９","OBJECTID":68628},"geometry":{"x":172504.62000000011,"y":2569719.4600000009}},{"attributes":{"ID":68629,"DIS_CODE":0,"TOWNNAME":"下營區","LI":"大埤里","LIN":"7鄰","STREET":" ","SECT":" ","MAREA":"大埤寮","LANE":" ","ALLEY":" ","HOUSE_NO":"５９號","E_COORD97":172972.42999999999,"N_COORD97":2569736.2000000002,"ADDRESS":"大埤寮５９號","OBJECTID":68629},"geometry":{"x":172972.43000000063,"y":2569736.2000000011}},{"attributes":{"ID":68630,"DIS_CODE":0,"TOWNNAME":"下營區","LI":"開化里","LIN":"7鄰","STREET":" ","SECT":" ","MAREA":"中營","LANE":" ","ALLEY":" ","HOUSE_NO":"４２８號","E_COORD97":176114.07000000001,"N_COORD97":2568296.3399999999,"ADDRESS":"中營４２８號","OBJECTID":68630},"geometry":{"x":176114.0700000003,"y":2568296.3399999999}},{"attributes":{"ID":68631,"DIS_CODE":0,"TOWNNAME":"大內區","LI":"大內里","LIN":"6鄰","STREET":" ","SECT":" ","MAREA":"內庄","LANE":" ","ALLEY":" ","HOUSE_NO":"７９號之７","E_COORD97":184688.44,"N_COORD97":2557574.2999999998,"ADDRESS":"內庄７９號之７","OBJECTID":68631},"geometry":{"x":184688.44000000134,"y":2557574.3000000045}},{"attributes":{"ID":68632,"DIS_CODE":0,"TOWNNAME":"大內區","LI":"內郭里","LIN":"6鄰","STREET":" ","SECT":" ","MAREA":"內庄","LANE":" ","ALLEY":" ","HOUSE_NO":"２１１號","E_COORD97":184702.07999999999,"N_COORD97":2557307.25,"ADDRESS":"內庄２１１號","OBJECTID":68632},"geometry":{"x":184702.08000000194,"y":2557307.2500000019}},{"attributes":{"ID":68633,"DIS_CODE":0,"TOWNNAME":"大內區","LI":"內郭里","LIN":"6鄰","STREET":" ","SECT":" ","MAREA":"內庄","LANE":" ","ALLEY":" ","HOUSE_NO":"２１２號","E_COORD97":184738.48000000001,"N_COORD97":2557309.25,"ADDRESS":"內庄２１２號","OBJECTID":68633},"geometry":{"x":184738.48000000045,"y":2557309.2499999981}},{"attributes":{"ID":68634,"DIS_CODE":0,"TOWNNAME":"大內區","LI":"石湖里","LIN":"6鄰","STREET":" ","SECT":" ","MAREA":"石子瀨","LANE":" ","ALLEY":" ","HOUSE_NO":"２７４號之１７","E_COORD97":184051.13,"N_COORD97":2558481.2999999998,"ADDRESS":"石子瀨２７４號之１７","OBJECTID":68634},"geometry":{"x":184051.13000000082,"y":2558481.3000000007}},{"attributes":{"ID":68635,"DIS_CODE":0,"TOWNNAME":"大內區","LI":"二溪里","LIN":"6鄰","STREET":" ","SECT":" ","MAREA":"二重溪","LANE":" ","ALLEY":" ","HOUSE_NO":"１９８號之１","E_COORD97":187785.67999999999,"N_COORD97":2557990.3100000001,"ADDRESS":"二重溪１９８號之１","OBJECTID":68635},"geometry":{"x":187785.6799999997,"y":2557990.3100000005}},{"attributes":{"ID":68636,"DIS_CODE":0,"TOWNNAME":"大內區","LI":"內江里","LIN":"6鄰","STREET":" ","SECT":" ","MAREA":"內庄","LANE":" ","ALLEY":" ","HOUSE_NO":"２７６號","E_COORD97":184538.38,"N_COORD97":2557465.25,"ADDRESS":"內庄２７６號","OBJECTID":68636},"geometry":{"x":184538.37999999989,"y":2557465.2499999981}},{"attributes":{"ID":68637,"DIS_CODE":0,"TOWNNAME":"北區","LI":"成功里","LIN":"6鄰","STREET":"北安路","SECT":"一段","MAREA":" ","LANE":"１７６巷","ALLEY":"１１弄","HOUSE_NO":"１２號","E_COORD97":168895.29999999999,"N_COORD97":2546527.0600000001,"ADDRESS":"北安路一段１７６巷１１弄１２號","OBJECTID":68637},"geometry":{"x":168895.29999999981,"y":2546527.0600000024}},{"attributes":{"ID":68638,"DIS_CODE":0,"TOWNNAME":"北區","LI":"成功里","LIN":"6鄰","STREET":"北安路","SECT":"一段","MAREA":" ","LANE":"１７６巷","ALLEY":"１１弄","HOUSE_NO":"１３號","E_COORD97":168876.88,"N_COORD97":2546521.8199999998,"ADDRESS":"北安路一段１７６巷１１弄１３號","OBJECTID":68638},"geometry":{"x":168876.88000000175,"y":2546521.8200000022}},{"attributes":{"ID":68639,"DIS_CODE":0,"TOWNNAME":"下營區","LI":"新興里","LIN":"7鄰","STREET":"中山路","SECT":"一段","MAREA":" ","LANE":" ","ALLEY":" ","HOUSE_NO":"１５３號","E_COORD97":174763.44,"N_COORD97":2570614.0299999998,"ADDRESS":"中山路一段１５３號","OBJECTID":68639},"geometry":{"x":174763.44000000134,"y":2570614.0300000031}},{"attributes":{"ID":68640,"DIS_CODE":0,"TOWNNAME":"下營區","LI":"新興里","LIN":"7鄰","STREET":"中山路","SECT":"一段","MAREA":" ","LANE":" ","ALLEY":" ","HOUSE_NO":"１５５號","E_COORD97":174767,"N_COORD97":2570614.8700000001,"ADDRESS":"中山路一段１５５號","OBJECTID":68640},"geometry":{"x":174767.00000000186,"y":2570614.8700000029}},{"attributes":{"ID":68641,"DIS_CODE":0,"TOWNNAME":"下營區","LI":"新興里","LIN":"7鄰","STREET":"中山路","SECT":"一段","MAREA":" ","LANE":" ","ALLEY":" ","HOUSE_NO":"１５７號","E_COORD97":174770.57000000001,"N_COORD97":2570615.8399999999,"ADDRESS":"中山路一段１５７號","OBJECTID":68641},"geometry":{"x":174770.57000000123,"y":2570615.8400000036}},{"attributes":{"ID":68642,"DIS_CODE":0,"TOWNNAME":"下營區","LI":"新興里","LIN":"7鄰","STREET":"中山路","SECT":"一段","MAREA":" ","LANE":" ","ALLEY":" ","HOUSE_NO":"１５９號","E_COORD97":174774.48999999999,"N_COORD97":2570617.5,"ADDRESS":"中山路一段１５９號","OBJECTID":68642},"geometry":{"x":174774.49000000115,"y":2570617.5}},{"attributes":{"ID":68643,"DIS_CODE":0,"TOWNNAME":"下營區","LI":"新興里","LIN":"7鄰","STREET":"中山路","SECT":"一段","MAREA":" ","LANE":" ","ALLEY":" ","HOUSE_NO":"１６１號","E_COORD97":174780.35000000001,"N_COORD97":2570620.0099999998,"ADDRESS":"中山路一段１６１號","OBJECTID":68643},"geometry":{"x":174780.34999999963,"y":2570620.0099999998}},{"attributes":{"ID":68644,"DIS_CODE":0,"TOWNNAME":"下營區","LI":"營前里","LIN":"7鄰","STREET":"中山路","SECT":"二段","MAREA":" ","LANE":" ","ALLEY":" ","HOUSE_NO":"１０１號","E_COORD97":174487.32000000001,"N_COORD97":2570213.1600000001,"ADDRESS":"中山路二段１０１號","OBJECTID":68644},"geometry":{"x":174487.32000000123,"y":2570213.1600000001}},{"attributes":{"ID":68645,"DIS_CODE":0,"TOWNNAME":"下營區","LI":"營前里","LIN":"7鄰","STREET":"中山路","SECT":"二段","MAREA":" ","LANE":" ","ALLEY":" ","HOUSE_NO":"１０３號","E_COORD97":174488.67000000001,"N_COORD97":2570208.5699999998,"ADDRESS":"中山路二段１０３號","OBJECTID":68645},"geometry":{"x":174488.66999999993,"y":2570208.5700000022}},{"attributes":{"ID":68646,"DIS_CODE":0,"TOWNNAME":"下營區","LI":"營前里","LIN":"7鄰","STREET":"中山路","SECT":"二段","MAREA":" ","LANE":" ","ALLEY":" ","HOUSE_NO":"１０５號","E_COORD97":174490.45000000001,"N_COORD97":2570204.04,"ADDRESS":"中山路二段１０５號","OBJECTID":68646},"geometry":{"x":174490.45000000019,"y":2570204.040000001}},{"attributes":{"ID":68647,"DIS_CODE":0,"TOWNNAME":"北區","LI":"成功里","LIN":"24鄰","STREET":"北成路","SECT":" ","MAREA":" ","LANE":" ","ALLEY":" ","HOUSE_NO":"１５８號","E_COORD97":168863.56,"N_COORD97":2546715.7400000002,"ADDRESS":"北成路１５８號","OBJECTID":68647},"geometry":{"x":168863.56000000052,"y":2546715.7400000021}},{"attributes":{"ID":68648,"DIS_CODE":0,"TOWNNAME":"下營區","LI":"中營里","LIN":"7鄰","STREET":" ","SECT":" ","MAREA":"中營","LANE":" ","ALLEY":" ","HOUSE_NO":"１０４３號","E_COORD97":175891.51999999999,"N_COORD97":2568508.5499999998,"ADDRESS":"中營１０４３號","OBJECTID":68648},"geometry":{"x":175891.51999999955,"y":2568508.5500000007}},{"attributes":{"ID":68649,"DIS_CODE":0,"TOWNNAME":"下營區","LI":"中營里","LIN":"7鄰","STREET":" ","SECT":" ","MAREA":"中營","LANE":" ","ALLEY":" ","HOUSE_NO":"１０４５號","E_COORD97":175880.35999999999,"N_COORD97":2568508.6499999999,"ADDRESS":"中營１０４５號","OBJECTID":68649},"geometry":{"x":175880.3600000022,"y":2568508.6500000004}},{"attributes":{"ID":68650,"DIS_CODE":0,"TOWNNAME":"下營區","LI":"中營里","LIN":"7鄰","STREET":" ","SECT":" ","MAREA":"中營","LANE":" ","ALLEY":" ","HOUSE_NO":"１０４６號","E_COORD97":175878.95000000001,"N_COORD97":2568484.6099999999,"ADDRESS":"中營１０４６號","OBJECTID":68650},"geometry":{"x":175878.95000000019,"y":2568484.6100000031}},{"attributes":{"ID":68651,"DIS_CODE":0,"TOWNNAME":"下營區","LI":"中營里","LIN":"7鄰","STREET":" ","SECT":" ","MAREA":"中營","LANE":" ","ALLEY":" ","HOUSE_NO":"１０４８號","E_COORD97":175881.88,"N_COORD97":2568467.7999999998,"ADDRESS":"中營１０４８號","OBJECTID":68651},"geometry":{"x":175881.88000000082,"y":2568467.8000000045}},{"attributes":{"ID":68652,"DIS_CODE":0,"TOWNNAME":"下營區","LI":"中營里","LIN":"7鄰","STREET":" ","SECT":" ","MAREA":"中營","LANE":" ","ALLEY":" ","HOUSE_NO":"１０４９號","E_COORD97":175901.31,"N_COORD97":2568460.21,"ADDRESS":"中營１０４９號","OBJECTID":68652},"geometry":{"x":175901.30999999959,"y":2568460.2100000009}},{"attributes":{"ID":68653,"DIS_CODE":0,"TOWNNAME":"下營區","LI":"中營里","LIN":"7鄰","STREET":" ","SECT":" ","MAREA":"中營","LANE":" ","ALLEY":" ","HOUSE_NO":"１０５２號","E_COORD97":175904.45000000001,"N_COORD97":2568451.1299999999,"ADDRESS":"中營１０５２號","OBJECTID":68653},"geometry":{"x":175904.45000000019,"y":2568451.1300000008}},{"attributes":{"ID":68654,"DIS_CODE":0,"TOWNNAME":"下營區","LI":"中營里","LIN":"7鄰","STREET":" ","SECT":" ","MAREA":"中營","LANE":" ","ALLEY":" ","HOUSE_NO":"１０５３號","E_COORD97":175896.98000000001,"N_COORD97":2568429.1600000001,"ADDRESS":"中營１０５３號","OBJECTID":68654},"geometry":{"x":175896.98000000138,"y":2568429.1600000001}},{"attributes":{"ID":68655,"DIS_CODE":0,"TOWNNAME":"七股區","LI":"西寮里","LIN":"7鄰","STREET":" ","SECT":" ","MAREA":"西寮","LANE":" ","ALLEY":" ","HOUSE_NO":"６３號","E_COORD97":157445.78,"N_COORD97":2563455.77,"ADDRESS":"西寮６３號","OBJECTID":68655},"geometry":{"x":157445.78000000119,"y":2563455.7700000033}},{"attributes":{"ID":68656,"DIS_CODE":0,"TOWNNAME":"下營區","LI":"開化里","LIN":"7鄰","STREET":" ","SECT":" ","MAREA":"中營","LANE":" ","ALLEY":" ","HOUSE_NO":"４２０號","E_COORD97":176102.39999999999,"N_COORD97":2568297.1899999999,"ADDRESS":"中營４２０號","OBJECTID":68656},"geometry":{"x":176102.4000000013,"y":2568297.1899999995}},{"attributes":{"ID":68657,"DIS_CODE":0,"TOWNNAME":"下營區","LI":"開化里","LIN":"7鄰","STREET":" ","SECT":" ","MAREA":"中營","LANE":" ","ALLEY":" ","HOUSE_NO":"４２１號","E_COORD97":176111.14000000001,"N_COORD97":2568295.8399999999,"ADDRESS":"中營４２１號","OBJECTID":68657},"geometry":{"x":176111.13999999966,"y":2568295.8399999999}},{"attributes":{"ID":68658,"DIS_CODE":0,"TOWNNAME":"北區","LI":"成功里","LIN":"6鄰","STREET":"北安路","SECT":"一段","MAREA":" ","LANE":"１７６巷","ALLEY":"１１弄","HOUSE_NO":"１５號","E_COORD97":168871.64000000001,"N_COORD97":2546525.4700000002,"ADDRESS":"北安路一段１７６巷１１弄１５號","OBJECTID":68658},"geometry":{"x":168871.6400000006,"y":2546525.4700000025}},{"attributes":{"ID":68659,"DIS_CODE":0,"TOWNNAME":"北區","LI":"成功里","LIN":"6鄰","STREET":"北安路","SECT":"一段","MAREA":" ","LANE":"１７６巷","ALLEY":"１１弄","HOUSE_NO":"１７號","E_COORD97":168866.09,"N_COORD97":2546528.96,"ADDRESS":"北安路一段１７６巷１１弄１７號","OBJECTID":68659},"geometry":{"x":168866.08999999985,"y":2546528.9600000028}},{"attributes":{"ID":68660,"DIS_CODE":0,"TOWNNAME":"北區","LI":"成功里","LIN":"6鄰","STREET":"北安路","SECT":"一段","MAREA":" ","LANE":"１７６巷","ALLEY":"１１弄","HOUSE_NO":"１９號","E_COORD97":168859.89999999999,"N_COORD97":2546532.6099999999,"ADDRESS":"北安路一段１７６巷１１弄１９號","OBJECTID":68660},"geometry":{"x":168859.90000000037,"y":2546532.6100000013}},{"attributes":{"ID":68661,"DIS_CODE":0,"TOWNNAME":"北區","LI":"大港里","LIN":"6鄰","STREET":"大興街","SECT":" ","MAREA":" ","LANE":"１９２巷","ALLEY":"４７弄","HOUSE_NO":"１３號","E_COORD97":166764.85999999999,"N_COORD97":2545841.7599999998,"ADDRESS":"大興街１９２巷４７弄１３號","OBJECTID":68661},"geometry":{"x":166764.86000000034,"y":2545841.7599999998}},{"attributes":{"ID":68662,"DIS_CODE":0,"TOWNNAME":"北區","LI":"成功里","LIN":"24鄰","STREET":"北成路","SECT":" ","MAREA":" ","LANE":" ","ALLEY":" ","HOUSE_NO":"１６０號","E_COORD97":168858.56,"N_COORD97":2546717.21,"ADDRESS":"北成路１６０號","OBJECTID":68662},"geometry":{"x":168858.56000000052,"y":2546717.2100000028}},{"attributes":{"ID":68663,"DIS_CODE":0,"TOWNNAME":"北區","LI":"成功里","LIN":"24鄰","STREET":"北成路","SECT":" ","MAREA":" ","LANE":" ","ALLEY":" ","HOUSE_NO":"１６２號","E_COORD97":168854.67999999999,"N_COORD97":2546719.79,"ADDRESS":"北成路１６２號","OBJECTID":68663},"geometry":{"x":168854.68000000063,"y":2546719.7899999991}},{"attributes":{"ID":68664,"DIS_CODE":0,"TOWNNAME":"下營區","LI":"開化里","LIN":"7鄰","STREET":" ","SECT":" ","MAREA":"中營","LANE":" ","ALLEY":" ","HOUSE_NO":"４２６號","E_COORD97":176129.88,"N_COORD97":2568296.5,"ADDRESS":"中營４２６號","OBJECTID":68664},"geometry":{"x":176129.87999999989,"y":2568296.5000000019}},{"attributes":{"ID":68665,"DIS_CODE":0,"TOWNNAME":"下營區","LI":"開化里","LIN":"7鄰","STREET":" ","SECT":" ","MAREA":"中營","LANE":" ","ALLEY":" ","HOUSE_NO":"４２７號","E_COORD97":176135.12,"N_COORD97":2568296.7999999998,"ADDRESS":"中營４２７號","OBJECTID":68665},"geometry":{"x":176135.12000000011,"y":2568296.8000000007}},{"attributes":{"ID":68666,"DIS_CODE":0,"TOWNNAME":"大內區","LI":"大內里","LIN":"6鄰","STREET":" ","SECT":" ","MAREA":"內庄","LANE":" ","ALLEY":" ","HOUSE_NO":"８０號","E_COORD97":184717.42999999999,"N_COORD97":2557612.25,"ADDRESS":"內庄８０號","OBJECTID":68666},"geometry":{"x":184717.4299999997,"y":2557612.2500000019}},{"attributes":{"ID":68667,"DIS_CODE":0,"TOWNNAME":"大內區","LI":"內郭里","LIN":"6鄰","STREET":" ","SECT":" ","MAREA":"內庄","LANE":" ","ALLEY":" ","HOUSE_NO":"２１０號","E_COORD97":184719.78,"N_COORD97":2557314.25,"ADDRESS":"內庄２１０號","OBJECTID":68667},"geometry":{"x":184719.78000000119,"y":2557314.2500000019}},{"attributes":{"ID":68668,"DIS_CODE":0,"TOWNNAME":"大內區","LI":"二溪里","LIN":"6鄰","STREET":" ","SECT":" ","MAREA":"二重溪","LANE":" ","ALLEY":" ","HOUSE_NO":"２０１號之４","E_COORD97":189287,"N_COORD97":2558180.3100000001,"ADDRESS":"二重溪２０１號之４","OBJECTID":68668},"geometry":{"x":189287.00000000093,"y":2558180.3100000005}},{"attributes":{"ID":68669,"DIS_CODE":0,"TOWNNAME":"北區","LI":"成功里","LIN":"24鄰","STREET":"北成路","SECT":" ","MAREA":" ","LANE":" ","ALLEY":" ","HOUSE_NO":"１６４號","E_COORD97":168850.62,"N_COORD97":2546721.9500000002,"ADDRESS":"北成路１６４號","OBJECTID":68669},"geometry":{"x":168850.62000000104,"y":2546721.9499999993}},{"attributes":{"ID":68670,"DIS_CODE":0,"TOWNNAME":"佳里區","LI":"民安里","LIN":"7鄰","STREET":" ","SECT":" ","MAREA":"同安寮","LANE":" ","ALLEY":" ","HOUSE_NO":"８１號","E_COORD97":167547.41,"N_COORD97":2562641.3999999999,"ADDRESS":"同安寮８１號","OBJECTID":68670},"geometry":{"x":167547.41000000015,"y":2562641.4000000004}},{"attributes":{"ID":68671,"DIS_CODE":0,"TOWNNAME":"北區","LI":"大港里","LIN":"6鄰","STREET":"大興街","SECT":" ","MAREA":" ","LANE":"１９２巷","ALLEY":"４７弄","HOUSE_NO":"１５號","E_COORD97":166761.32000000001,"N_COORD97":2545841.7599999998,"ADDRESS":"大興街１９２巷４７弄１５號","OBJECTID":68671},"geometry":{"x":166761.3200000003,"y":2545841.7599999998}},{"attributes":{"ID":68672,"DIS_CODE":0,"TOWNNAME":"善化區","LI":"光文里","LIN":"6鄰","STREET":" ","SECT":" ","MAREA":"北子店","LANE":" ","ALLEY":" ","HOUSE_NO":"２５４號之２","E_COORD97":179124.31,"N_COORD97":2559588.52,"ADDRESS":"北子店２５４號之２","OBJECTID":68672},"geometry":{"x":179124.30999999866,"y":2559588.5199999996}},{"attributes":{"ID":68673,"DIS_CODE":0,"TOWNNAME":"善化區","LI":"牛庄里","LIN":"6鄰","STREET":" ","SECT":" ","MAREA":"牛庄","LANE":" ","ALLEY":" ","HOUSE_NO":"５７號","E_COORD97":180162.41,"N_COORD97":2559966.2400000002,"ADDRESS":"牛庄５７號","OBJECTID":68673},"geometry":{"x":180162.41000000108,"y":2559966.2400000002}},{"attributes":{"ID":68674,"DIS_CODE":0,"TOWNNAME":"善化區","LI":"光文里","LIN":"6鄰","STREET":" ","SECT":" ","MAREA":"北子店","LANE":" ","ALLEY":" ","HOUSE_NO":"２４８號之３","E_COORD97":179179.67999999999,"N_COORD97":2559563.27,"ADDRESS":"北子店２４８號之３","OBJECTID":68674},"geometry":{"x":179179.68000000156,"y":2559563.2699999977}},{"attributes":{"ID":68675,"DIS_CODE":0,"TOWNNAME":"善化區","LI":"溪美里","LIN":"6鄰","STREET":" ","SECT":" ","MAREA":"溪尾","LANE":" ","ALLEY":" ","HOUSE_NO":"５１號之４","E_COORD97":176793.10999999999,"N_COORD97":2561122.77,"ADDRESS":"溪尾５１號之４","OBJECTID":68675},"geometry":{"x":176793.11000000127,"y":2561122.7699999977}},{"attributes":{"ID":68676,"DIS_CODE":0,"TOWNNAME":"善化區","LI":"東昌里","LIN":"6鄰","STREET":" ","SECT":" ","MAREA":"東勢寮","LANE":" ","ALLEY":" ","HOUSE_NO":"６６號之４","E_COORD97":180523.32000000001,"N_COORD97":2561844.52,"ADDRESS":"東勢寮６６號之４","OBJECTID":68676},"geometry":{"x":180523.3200000003,"y":2561844.5200000014}},{"attributes":{"ID":68677,"DIS_CODE":0,"TOWNNAME":"善化區","LI":"胡厝里","LIN":"6鄰","STREET":" ","SECT":" ","MAREA":"胡厝寮","LANE":" ","ALLEY":" ","HOUSE_NO":"１９０之３號","E_COORD97":175163.32000000001,"N_COORD97":2560422.27,"ADDRESS":"胡厝寮１９０之３號","OBJECTID":68677},"geometry":{"x":175163.31999999937,"y":2560422.2700000014}},{"attributes":{"ID":68678,"DIS_CODE":0,"TOWNNAME":"善化區","LI":"胡厝里","LIN":"6鄰","STREET":" ","SECT":" ","MAREA":"胡厝寮","LANE":" ","ALLEY":" ","HOUSE_NO":"１９４號","E_COORD97":175220.85000000001,"N_COORD97":2560471.25,"ADDRESS":"胡厝寮１９４號","OBJECTID":68678},"geometry":{"x":175220.85000000056,"y":2560471.25}},{"attributes":{"ID":68679,"DIS_CODE":0,"TOWNNAME":"善化區","LI":"東昌里","LIN":"6鄰","STREET":" ","SECT":" ","MAREA":"東勢寮","LANE":" ","ALLEY":" ","HOUSE_NO":"６４號","E_COORD97":180492.64000000001,"N_COORD97":2561888.7599999998,"ADDRESS":"東勢寮６４號","OBJECTID":68679},"geometry":{"x":180492.6400000006,"y":2561888.7599999998}},{"attributes":{"ID":68680,"DIS_CODE":0,"TOWNNAME":"善化區","LI":"溪美里","LIN":"6鄰","STREET":" ","SECT":" ","MAREA":"溪尾","LANE":" ","ALLEY":" ","HOUSE_NO":"５６號之２","E_COORD97":176813.70999999999,"N_COORD97":2561233.77,"ADDRESS":"溪尾５６號之２","OBJECTID":68680},"geometry":{"x":176813.71000000089,"y":2561233.7699999996}},{"attributes":{"ID":68681,"DIS_CODE":0,"TOWNNAME":"善化區","LI":"胡厝里","LIN":"6鄰","STREET":" ","SECT":" ","MAREA":"胡厝寮","LANE":" ","ALLEY":" ","HOUSE_NO":"１９１號","E_COORD97":175199.60000000001,"N_COORD97":2560433.75,"ADDRESS":"胡厝寮１９１號","OBJECTID":68681},"geometry":{"x":175199.59999999963,"y":2560433.75}},{"attributes":{"ID":68682,"DIS_CODE":0,"TOWNNAME":"善化區","LI":"胡厝里","LIN":"6鄰","STREET":" ","SECT":" ","MAREA":"胡厝寮","LANE":" ","ALLEY":" ","HOUSE_NO":"１９８號","E_COORD97":175248.25,"N_COORD97":2560453,"ADDRESS":"胡厝寮１９８號","OBJECTID":68682},"geometry":{"x":175248.24999999907,"y":2560453}},{"attributes":{"ID":68683,"DIS_CODE":0,"TOWNNAME":"善化區","LI":"溪美里","LIN":"6鄰","STREET":" ","SECT":" ","MAREA":"溪尾","LANE":" ","ALLEY":" ","HOUSE_NO":"５６號之１","E_COORD97":176826.23999999999,"N_COORD97":2561237.02,"ADDRESS":"溪尾５６號之１","OBJECTID":68683},"geometry":{"x":176826.24000000022,"y":2561237.0200000014}},{"attributes":{"ID":68684,"DIS_CODE":0,"TOWNNAME":"麻豆區","LI":"小埤里","LIN":"6鄰","STREET":" ","SECT":" ","MAREA":"小埤頭","LANE":" ","ALLEY":" ","HOUSE_NO":"３１號之１７","E_COORD97":171550.91,"N_COORD97":2565995.7000000002,"ADDRESS":"小埤頭３１號之１７","OBJECTID":68684},"geometry":{"x":171550.91000000108,"y":2565995.7000000011}},{"attributes":{"ID":68685,"DIS_CODE":0,"TOWNNAME":"麻豆區","LI":"小埤里","LIN":"6鄰","STREET":" ","SECT":" ","MAREA":"小埤頭","LANE":" ","ALLEY":" ","HOUSE_NO":"３１號之１８","E_COORD97":171551.31,"N_COORD97":2565991.4900000002,"ADDRESS":"小埤頭３１號之１８","OBJECTID":68685},"geometry":{"x":171551.30999999959,"y":2565991.4900000021}},{"attributes":{"ID":68686,"DIS_CODE":0,"TOWNNAME":"麻豆區","LI":"小埤里","LIN":"6鄰","STREET":" ","SECT":" ","MAREA":"小埤頭","LANE":" ","ALLEY":" ","HOUSE_NO":"３１號之１９","E_COORD97":171551.70999999999,"N_COORD97":2565987.27,"ADDRESS":"小埤頭３１號之１９","OBJECTID":68686},"geometry":{"x":171551.71000000089,"y":2565987.2699999996}},{"attributes":{"ID":68687,"DIS_CODE":0,"TOWNNAME":"麻豆區","LI":"小埤里","LIN":"6鄰","STREET":" ","SECT":" ","MAREA":"小埤頭","LANE":" ","ALLEY":" ","HOUSE_NO":"３１號之２０","E_COORD97":171544.29999999999,"N_COORD97":2565997.3799999999,"ADDRESS":"小埤頭３１號之２０","OBJECTID":68687},"geometry":{"x":171544.30000000075,"y":2565997.3800000008}},{"attributes":{"ID":68688,"DIS_CODE":0,"TOWNNAME":"麻豆區","LI":"小埤里","LIN":"6鄰","STREET":" ","SECT":" ","MAREA":"小埤頭","LANE":" ","ALLEY":" ","HOUSE_NO":"３１號之２１","E_COORD97":171540.01000000001,"N_COORD97":2565997.0299999998,"ADDRESS":"小埤頭３１號之２１","OBJECTID":68688},"geometry":{"x":171540.00999999978,"y":2565997.0300000012}},{"attributes":{"ID":68689,"DIS_CODE":0,"TOWNNAME":"麻豆區","LI":"小埤里","LIN":"6鄰","STREET":" ","SECT":" ","MAREA":"小埤頭","LANE":" ","ALLEY":" ","HOUSE_NO":"３１號之２２","E_COORD97":171535.73000000001,"N_COORD97":2565996.6800000002,"ADDRESS":"小埤頭３１號之２２","OBJECTID":68689},"geometry":{"x":171535.73000000045,"y":2565996.6800000016}},{"attributes":{"ID":68690,"DIS_CODE":0,"TOWNNAME":"麻豆區","LI":"小埤里","LIN":"6鄰","STREET":" ","SECT":" ","MAREA":"小埤頭","LANE":" ","ALLEY":" ","HOUSE_NO":"３１號之２４","E_COORD97":171534.35000000001,"N_COORD97":2565968.2400000002,"ADDRESS":"小埤頭３１號之２４","OBJECTID":68690},"geometry":{"x":171534.34999999963,"y":2565968.2400000002}},{"attributes":{"ID":68691,"DIS_CODE":0,"TOWNNAME":"麻豆區","LI":"小埤里","LIN":"6鄰","STREET":" ","SECT":" ","MAREA":"小埤頭","LANE":" ","ALLEY":" ","HOUSE_NO":"３１號之２５","E_COORD97":171538.39000000001,"N_COORD97":2565968.52,"ADDRESS":"小埤頭３１號之２５","OBJECTID":68691},"geometry":{"x":171538.3900000006,"y":2565968.5199999996}},{"attributes":{"ID":68692,"DIS_CODE":0,"TOWNNAME":"麻豆區","LI":"小埤里","LIN":"6鄰","STREET":" ","SECT":" ","MAREA":"小埤頭","LANE":" ","ALLEY":" ","HOUSE_NO":"３１號之２６","E_COORD97":171542.44,"N_COORD97":2565968.7999999998,"ADDRESS":"小埤頭３１號之２６","OBJECTID":68692},"geometry":{"x":171542.44000000134,"y":2565968.8000000045}},{"attributes":{"ID":68693,"DIS_CODE":0,"TOWNNAME":"麻豆區","LI":"小埤里","LIN":"6鄰","STREET":" ","SECT":" ","MAREA":"小埤頭","LANE":" ","ALLEY":" ","HOUSE_NO":"３１號之２７","E_COORD97":171546.48000000001,"N_COORD97":2565969.0800000001,"ADDRESS":"小埤頭３１號之２７","OBJECTID":68693},"geometry":{"x":171546.48000000045,"y":2565969.0800000001}},{"attributes":{"ID":68694,"DIS_CODE":0,"TOWNNAME":"麻豆區","LI":"小埤里","LIN":"6鄰","STREET":" ","SECT":" ","MAREA":"小埤頭","LANE":" ","ALLEY":" ","HOUSE_NO":"３１號之１０","E_COORD97":171548.10999999999,"N_COORD97":2566025.2000000002,"ADDRESS":"小埤頭３１號之１０","OBJECTID":68694},"geometry":{"x":171548.11000000127,"y":2566025.1999999993}},{"attributes":{"ID":68695,"DIS_CODE":0,"TOWNNAME":"麻豆區","LI":"小埤里","LIN":"6鄰","STREET":" ","SECT":" ","MAREA":"小埤頭","LANE":" ","ALLEY":" ","HOUSE_NO":"３１號之１１","E_COORD97":171548.51000000001,"N_COORD97":2566020.98,"ADDRESS":"小埤頭３１號之１１","OBJECTID":68695},"geometry":{"x":171548.50999999978,"y":2566020.9800000004}},{"attributes":{"ID":68696,"DIS_CODE":0,"TOWNNAME":"麻豆區","LI":"小埤里","LIN":"6鄰","STREET":" ","SECT":" ","MAREA":"小埤頭","LANE":" ","ALLEY":" ","HOUSE_NO":"３１號之２８","E_COORD97":171553.48999999999,"N_COORD97":2565975.8900000001,"ADDRESS":"小埤頭３１號之２８","OBJECTID":68696},"geometry":{"x":171553.49000000115,"y":2565975.8900000025}},{"attributes":{"ID":68697,"DIS_CODE":0,"TOWNNAME":"北區","LI":"大港里","LIN":"6鄰","STREET":"大興街","SECT":" ","MAREA":" ","LANE":"１９２巷","ALLEY":"４７弄","HOUSE_NO":"１７號","E_COORD97":166757.26000000001,"N_COORD97":2545841.2400000002,"ADDRESS":"大興街１９２巷４７弄１７號","OBJECTID":68697},"geometry":{"x":166757.26000000071,"y":2545841.2400000021}},{"attributes":{"ID":68698,"DIS_CODE":0,"TOWNNAME":"麻豆區","LI":"小埤里","LIN":"6鄰","STREET":" ","SECT":" ","MAREA":"小埤頭","LANE":" ","ALLEY":" ","HOUSE_NO":"３１號之２９","E_COORD97":171553.85000000001,"N_COORD97":2565971.6299999999,"ADDRESS":"小埤頭３１號之２９","OBJECTID":68698},"geometry":{"x":171553.85000000056,"y":2565971.6300000027}},{"attributes":{"ID":68699,"DIS_CODE":0,"TOWNNAME":"北區","LI":"大港里","LIN":"6鄰","STREET":"大興街","SECT":" ","MAREA":" ","LANE":"１９２巷","ALLEY":"４７弄","HOUSE_NO":"１９號","E_COORD97":166753.32999999999,"N_COORD97":2545840.8500000001,"ADDRESS":"大興街１９２巷４７弄１９號","OBJECTID":68699},"geometry":{"x":166753.33000000194,"y":2545840.8499999996}},{"attributes":{"ID":68700,"DIS_CODE":0,"TOWNNAME":"麻豆區","LI":"小埤里","LIN":"6鄰","STREET":" ","SECT":" ","MAREA":"小埤頭","LANE":" ","ALLEY":" ","HOUSE_NO":"３１號之２","E_COORD97":171478.35000000001,"N_COORD97":2566025.2599999998,"ADDRESS":"小埤頭３１號之２","OBJECTID":68700},"geometry":{"x":171478.34999999963,"y":2566025.2599999998}},{"attributes":{"ID":68701,"DIS_CODE":0,"TOWNNAME":"北區","LI":"大港里","LIN":"6鄰","STREET":"大興街","SECT":" ","MAREA":" ","LANE":"１９２巷","ALLEY":"４７弄","HOUSE_NO":"２１號","E_COORD97":166748.88,"N_COORD97":2545840.7200000002,"ADDRESS":"大興街１９２巷４７弄２１號","OBJECTID":68701},"geometry":{"x":166748.87999999989,"y":2545840.7200000044}},{"attributes":{"ID":68702,"DIS_CODE":0,"TOWNNAME":"永康區","LI":"尚頂里","LIN":"7鄰","STREET":"中正二街","SECT":" ","MAREA":" ","LANE":" ","ALLEY":" ","HOUSE_NO":"１３５號","E_COORD97":171159.51000000001,"N_COORD97":2547599.8300000001,"ADDRESS":"中正二街１３５號","OBJECTID":68702},"geometry":{"x":171159.51000000071,"y":2547599.8300000019}},{"attributes":{"ID":68703,"DIS_CODE":0,"TOWNNAME":"佳里區","LI":"民安里","LIN":"7鄰","STREET":" ","SECT":" ","MAREA":"同安寮","LANE":" ","ALLEY":" ","HOUSE_NO":"７６號之３","E_COORD97":167421.91,"N_COORD97":2562680.0899999999,"ADDRESS":"同安寮７６號之３","OBJECTID":68703},"geometry":{"x":167421.91000000015,"y":2562680.0899999999}},{"attributes":{"ID":68704,"DIS_CODE":0,"TOWNNAME":"佳里區","LI":"民安里","LIN":"7鄰","STREET":" ","SECT":" ","MAREA":"同安寮","LANE":" ","ALLEY":" ","HOUSE_NO":"７６號之５","E_COORD97":167540.42000000001,"N_COORD97":2562931.4100000001,"ADDRESS":"同安寮７６號之５","OBJECTID":68704},"geometry":{"x":167540.41999999993,"y":2562931.410000002}},{"attributes":{"ID":68705,"DIS_CODE":0,"TOWNNAME":"佳里區","LI":"民安里","LIN":"7鄰","STREET":" ","SECT":" ","MAREA":"同安寮","LANE":" ","ALLEY":" ","HOUSE_NO":"７６號","E_COORD97":167417.31,"N_COORD97":2562657.23,"ADDRESS":"同安寮７６號","OBJECTID":68705},"geometry":{"x":167417.30999999866,"y":2562657.2300000023}},{"attributes":{"ID":68706,"DIS_CODE":0,"TOWNNAME":"佳里區","LI":"民安里","LIN":"7鄰","STREET":" ","SECT":" ","MAREA":"同安寮","LANE":" ","ALLEY":" ","HOUSE_NO":"７７號之１０","E_COORD97":167584.79000000001,"N_COORD97":2562939.6099999999,"ADDRESS":"同安寮７７號之１０","OBJECTID":68706},"geometry":{"x":167584.79000000097,"y":2562939.6099999994}},{"attributes":{"ID":68707,"DIS_CODE":0,"TOWNNAME":"佳里區","LI":"民安里","LIN":"7鄰","STREET":" ","SECT":" ","MAREA":"同安寮","LANE":" ","ALLEY":" ","HOUSE_NO":"７７號之１４","E_COORD97":167592.29999999999,"N_COORD97":2562982.71,"ADDRESS":"同安寮７７號之１４","OBJECTID":68707},"geometry":{"x":167592.30000000168,"y":2562982.7100000046}},{"attributes":{"ID":68708,"DIS_CODE":0,"TOWNNAME":"佳里區","LI":"民安里","LIN":"7鄰","STREET":" ","SECT":" ","MAREA":"同安寮","LANE":" ","ALLEY":" ","HOUSE_NO":"７７號之１５","E_COORD97":167515.45999999999,"N_COORD97":2562968.0699999998,"ADDRESS":"同安寮７７號之１５","OBJECTID":68708},"geometry":{"x":167515.46000000089,"y":2562968.0700000003}},{"attributes":{"ID":68709,"DIS_CODE":0,"TOWNNAME":"佳里區","LI":"民安里","LIN":"7鄰","STREET":" ","SECT":" ","MAREA":"同安寮","LANE":" ","ALLEY":" ","HOUSE_NO":"７７號之１６","E_COORD97":167589.82999999999,"N_COORD97":2562943.1699999999,"ADDRESS":"同安寮７７號之１６","OBJECTID":68709},"geometry":{"x":167589.83000000101,"y":2562943.1699999999}},{"attributes":{"ID":68710,"DIS_CODE":0,"TOWNNAME":"佳里區","LI":"民安里","LIN":"7鄰","STREET":" ","SECT":" ","MAREA":"同安寮","LANE":" ","ALLEY":" ","HOUSE_NO":"７７號之１","E_COORD97":167411.39000000001,"N_COORD97":2562950.7200000002,"ADDRESS":"同安寮７７號之１","OBJECTID":68710},"geometry":{"x":167411.38999999966,"y":2562950.7200000007}},{"attributes":{"ID":68711,"DIS_CODE":0,"TOWNNAME":"後壁區","LI":"菁寮里","LIN":"6鄰","STREET":" ","SECT":" ","MAREA":"菁寮","LANE":" ","ALLEY":" ","HOUSE_NO":"７０號","E_COORD97":182073.59,"N_COORD97":2586422.4500000002,"ADDRESS":"菁寮７０號","OBJECTID":68711},"geometry":{"x":182073.58999999985,"y":2586422.4499999993}},{"attributes":{"ID":68712,"DIS_CODE":0,"TOWNNAME":"北區","LI":"大港里","LIN":"6鄰","STREET":"大興街","SECT":" ","MAREA":" ","LANE":"１９２巷","ALLEY":"４７弄","HOUSE_NO":"２３號","E_COORD97":166744.69,"N_COORD97":2545840.98,"ADDRESS":"大興街１９２巷４７弄２３號","OBJECTID":68712},"geometry":{"x":166744.69000000134,"y":2545840.9800000004}},{"attributes":{"ID":68713,"DIS_CODE":0,"TOWNNAME":"佳里區","LI":"民安里","LIN":"7鄰","STREET":" ","SECT":" ","MAREA":"同安寮","LANE":" ","ALLEY":" ","HOUSE_NO":"７７號之５０","E_COORD97":167688.97,"N_COORD97":2563000.1400000001,"ADDRESS":"同安寮７７號之５０","OBJECTID":68713},"geometry":{"x":167688.96999999974,"y":2563000.1400000043}},{"attributes":{"ID":68714,"DIS_CODE":0,"TOWNNAME":"佳里區","LI":"民安里","LIN":"7鄰","STREET":" ","SECT":" ","MAREA":"同安寮","LANE":" ","ALLEY":" ","HOUSE_NO":"７７號之５","E_COORD97":167616.75,"N_COORD97":2562992.46,"ADDRESS":"同安寮７７號之５","OBJECTID":68714},"geometry":{"x":167616.75000000093,"y":2562992.4600000028}},{"attributes":{"ID":68715,"DIS_CODE":0,"TOWNNAME":"北區","LI":"大港里","LIN":"6鄰","STREET":"大興街","SECT":" ","MAREA":" ","LANE":"１９２巷","ALLEY":"４７弄","HOUSE_NO":"２５號","E_COORD97":166741.54999999999,"N_COORD97":2545840.7200000002,"ADDRESS":"大興街１９２巷４７弄２５號","OBJECTID":68715},"geometry":{"x":166741.55000000075,"y":2545840.7200000044}},{"attributes":{"ID":68716,"DIS_CODE":0,"TOWNNAME":"北區","LI":"大港里","LIN":"6鄰","STREET":"大興街","SECT":" ","MAREA":" ","LANE":"１９２巷","ALLEY":"４７弄","HOUSE_NO":"２７號","E_COORD97":166738.01000000001,"N_COORD97":2545840.4500000002,"ADDRESS":"大興街１９２巷４７弄２７號","OBJECTID":68716},"geometry":{"x":166738.00999999978,"y":2545840.4499999993}},{"attributes":{"ID":68717,"DIS_CODE":0,"TOWNNAME":"關廟區","LI":"松腳里","LIN":"6鄰","STREET":"中山路","SECT":"一段","MAREA":" ","LANE":"８９巷","ALLEY":"６１弄","HOUSE_NO":"１２號","E_COORD97":181948.70999999999,"N_COORD97":2539826.2799999998,"ADDRESS":"中山路一段８９巷６１弄１２號","OBJECTID":68717},"geometry":{"x":181948.71000000089,"y":2539826.2799999993}},{"attributes":{"ID":68718,"DIS_CODE":0,"TOWNNAME":"關廟區","LI":"松腳里","LIN":"6鄰","STREET":"中山路","SECT":"一段","MAREA":" ","LANE":"８９巷","ALLEY":"６１弄","HOUSE_NO":"２號","E_COORD97":181926.66,"N_COORD97":2539793.2799999998,"ADDRESS":"中山路一段８９巷６１弄２號","OBJECTID":68718},"geometry":{"x":181926.66000000108,"y":2539793.2799999993}},{"attributes":{"ID":68719,"DIS_CODE":0,"TOWNNAME":"歸仁區","LI":"西埔里","LIN":"6鄰","STREET":"保大路","SECT":"二段","MAREA":" ","LANE":"１２２巷","ALLEY":"２０弄","HOUSE_NO":"２０號","E_COORD97":177113.32999999999,"N_COORD97":2544249.25,"ADDRESS":"保大路二段１２２巷２０弄２０號","OBJECTID":68719},"geometry":{"x":177113.33000000101,"y":2544249.25}},{"attributes":{"ID":68720,"DIS_CODE":0,"TOWNNAME":"安南區","LI":"\u25A0田里","LIN":"7鄰","STREET":"\u25A0田路","SECT":" ","MAREA":" ","LANE":"３０巷","ALLEY":" ","HOUSE_NO":"６號","E_COORD97":162622.35999999999,"N_COORD97":2548386.4199999999,"ADDRESS":"\u25A0田路３０巷６號","OBJECTID":68720},"geometry":{"x":162622.36000000127,"y":2548386.4200000018}},{"attributes":{"ID":68721,"DIS_CODE":0,"TOWNNAME":"安南區","LI":"\u25A0南里","LIN":"7鄰","STREET":"安昌街","SECT":" ","MAREA":" ","LANE":" ","ALLEY":" ","HOUSE_NO":"１０９號","E_COORD97":169974.39999999999,"N_COORD97":2552243,"ADDRESS":"安昌街１０９號","OBJECTID":68721},"geometry":{"x":169974.4000000013,"y":2552243.0000000019}},{"attributes":{"ID":68722,"DIS_CODE":0,"TOWNNAME":"歸仁區","LI":"西埔里","LIN":"6鄰","STREET":"保大路","SECT":"二段","MAREA":" ","LANE":"１２２巷","ALLEY":"２０弄","HOUSE_NO":"２號","E_COORD97":177070.88,"N_COORD97":2544207.25,"ADDRESS":"保大路二段１２２巷２０弄２號","OBJECTID":68722},"geometry":{"x":177070.87999999989,"y":2544207.2500000019}},{"attributes":{"ID":68723,"DIS_CODE":0,"TOWNNAME":"麻豆區","LI":"小埤里","LIN":"6鄰","STREET":" ","SECT":" ","MAREA":"小埤頭","LANE":" ","ALLEY":" ","HOUSE_NO":"３１號之３０","E_COORD97":171554.20999999999,"N_COORD97":2565967.3700000001,"ADDRESS":"小埤頭３１號之３０","OBJECTID":68723},"geometry":{"x":171554.20999999996,"y":2565967.370000001}},{"attributes":{"ID":68724,"DIS_CODE":0,"TOWNNAME":"南區","LI":"田寮里","LIN":"6鄰","STREET":"新興路","SECT":" ","MAREA":" ","LANE":"２１７巷","ALLEY":"２６弄","HOUSE_NO":"３號","E_COORD97":167402.63,"N_COORD97":2541888.5800000001,"ADDRESS":"新興路２１７巷２６弄３號","OBJECTID":68724},"geometry":{"x":167402.63000000082,"y":2541888.5800000019}},{"attributes":{"ID":68725,"DIS_CODE":0,"TOWNNAME":"南區","LI":"田寮里","LIN":"6鄰","STREET":"新興路","SECT":" ","MAREA":" ","LANE":"２１７巷","ALLEY":"２６弄","HOUSE_NO":"１號","E_COORD97":167404.48000000001,"N_COORD97":2541892.8199999998,"ADDRESS":"新興路２１７巷２６弄１號","OBJECTID":68725},"geometry":{"x":167404.48000000045,"y":2541892.8200000003}},{"attributes":{"ID":68726,"DIS_CODE":0,"TOWNNAME":"南區","LI":"田寮里","LIN":"6鄰","STREET":"新興路","SECT":" ","MAREA":" ","LANE":"２１７巷","ALLEY":"２６弄","HOUSE_NO":"２號","E_COORD97":167385.10000000001,"N_COORD97":2541902.3999999999,"ADDRESS":"新興路２１７巷２６弄２號","OBJECTID":68726},"geometry":{"x":167385.10000000149,"y":2541902.4000000004}},{"attributes":{"ID":68727,"DIS_CODE":0,"TOWNNAME":"南區","LI":"田寮里","LIN":"6鄰","STREET":"新興路","SECT":" ","MAREA":" ","LANE":"２１７巷","ALLEY":"２６弄","HOUSE_NO":"４號","E_COORD97":167384.17999999999,"N_COORD97":2541896.8700000001,"ADDRESS":"新興路２１７巷２６弄４號","OBJECTID":68727},"geometry":{"x":167384.1799999997,"y":2541896.8699999992}},{"attributes":{"ID":68728,"DIS_CODE":0,"TOWNNAME":"南區","LI":"田寮里","LIN":"6鄰","STREET":"新興路","SECT":" ","MAREA":" ","LANE":"２１７巷","ALLEY":"２６弄","HOUSE_NO":"５號","E_COORD97":167400.78,"N_COORD97":2541884.71,"ADDRESS":"新興路２１７巷２６弄５號","OBJECTID":68728},"geometry":{"x":167400.78000000026,"y":2541884.7100000046}},{"attributes":{"ID":68729,"DIS_CODE":0,"TOWNNAME":"南區","LI":"田寮里","LIN":"6鄰","STREET":"新興路","SECT":" ","MAREA":" ","LANE":"２１７巷","ALLEY":"２６弄","HOUSE_NO":"６號","E_COORD97":167383.25,"N_COORD97":2541893.1899999999,"ADDRESS":"新興路２１７巷２６弄６號","OBJECTID":68729},"geometry":{"x":167383.25000000093,"y":2541893.1900000032}},{"attributes":{"ID":68730,"DIS_CODE":0,"TOWNNAME":"南區","LI":"田寮里","LIN":"6鄰","STREET":"新興路","SECT":" ","MAREA":" ","LANE":"２１７巷","ALLEY":"２６弄","HOUSE_NO":"７號","E_COORD97":167398.57000000001,"N_COORD97":2541881.0299999998,"ADDRESS":"新興路２１７巷２６弄７號","OBJECTID":68730},"geometry":{"x":167398.57000000123,"y":2541881.0300000012}},{"attributes":{"ID":68731,"DIS_CODE":0,"TOWNNAME":"南區","LI":"田寮里","LIN":"6鄰","STREET":"新興路","SECT":" ","MAREA":" ","LANE":"２１７巷","ALLEY":"２６弄","HOUSE_NO":"８號","E_COORD97":167382.32999999999,"N_COORD97":2541888.7599999998,"ADDRESS":"新興路２１７巷２６弄８號","OBJECTID":68731},"geometry":{"x":167382.33000000194,"y":2541888.7599999998}},{"attributes":{"ID":68732,"DIS_CODE":0,"TOWNNAME":"南區","LI":"田寮里","LIN":"6鄰","STREET":"新興路","SECT":" ","MAREA":" ","LANE":"２１７巷","ALLEY":"４２弄","HOUSE_NO":"１號","E_COORD97":167436.32000000001,"N_COORD97":2541867.8199999998,"ADDRESS":"新興路２１７巷４２弄１號","OBJECTID":68732},"geometry":{"x":167436.3200000003,"y":2541867.8200000003}},{"attributes":{"ID":68733,"DIS_CODE":0,"TOWNNAME":"南區","LI":"田寮里","LIN":"6鄰","STREET":"新興路","SECT":" ","MAREA":" ","LANE":"２１７巷","ALLEY":"４２弄","HOUSE_NO":"３號","E_COORD97":167442.59,"N_COORD97":2541864.6899999999,"ADDRESS":"新興路２１７巷４２弄３號","OBJECTID":68733},"geometry":{"x":167442.58999999985,"y":2541864.6899999995}},{"attributes":{"ID":68734,"DIS_CODE":0,"TOWNNAME":"南區","LI":"田寮里","LIN":"6鄰","STREET":"新興路","SECT":" ","MAREA":" ","LANE":"２１７巷","ALLEY":"４２弄","HOUSE_NO":"５號","E_COORD97":167450.34,"N_COORD97":2541861.7400000002,"ADDRESS":"新興路２１７巷４２弄５號","OBJECTID":68734},"geometry":{"x":167450.34000000078,"y":2541861.7400000002}},{"attributes":{"ID":68735,"DIS_CODE":0,"TOWNNAME":"南區","LI":"田寮里","LIN":"6鄰","STREET":"新興路","SECT":" ","MAREA":" ","LANE":"２１７巷","ALLEY":"４２弄","HOUSE_NO":"７號","E_COORD97":167458.82999999999,"N_COORD97":2541857.6899999999,"ADDRESS":"新興路２１７巷４２弄７號","OBJECTID":68735},"geometry":{"x":167458.83000000101,"y":2541857.6899999995}},{"attributes":{"ID":68736,"DIS_CODE":0,"TOWNNAME":"麻豆區","LI":"小埤里","LIN":"6鄰","STREET":" ","SECT":" ","MAREA":"小埤頭","LANE":" ","ALLEY":" ","HOUSE_NO":"３１號之３１","E_COORD97":171554.57000000001,"N_COORD97":2565963.1000000001,"ADDRESS":"小埤頭３１號之３１","OBJECTID":68736},"geometry":{"x":171554.57000000123,"y":2565963.1000000015}},{"attributes":{"ID":68737,"DIS_CODE":0,"TOWNNAME":"麻豆區","LI":"小埤里","LIN":"6鄰","STREET":" ","SECT":" ","MAREA":"小埤頭","LANE":" ","ALLEY":" ","HOUSE_NO":"３１號之３２","E_COORD97":171554.92999999999,"N_COORD97":2565958.8399999999,"ADDRESS":"小埤頭３１號之３２","OBJECTID":68737},"geometry":{"x":171554.93000000063,"y":2565958.8400000017}},{"attributes":{"ID":68738,"DIS_CODE":0,"TOWNNAME":"麻豆區","LI":"小埤里","LIN":"6鄰","STREET":" ","SECT":" ","MAREA":"小埤頭","LANE":" ","ALLEY":" ","HOUSE_NO":"３１號之３３","E_COORD97":171555.29000000001,"N_COORD97":2565954.5699999998,"ADDRESS":"小埤頭３１號之３３","OBJECTID":68738},"geometry":{"x":171555.29000000004,"y":2565954.5700000022}},{"attributes":{"ID":68739,"DIS_CODE":0,"TOWNNAME":"麻豆區","LI":"小埤里","LIN":"6鄰","STREET":" ","SECT":" ","MAREA":"小埤頭","LANE":" ","ALLEY":" ","HOUSE_NO":"３１號之３４","E_COORD97":171555.64000000001,"N_COORD97":2565950.3100000001,"ADDRESS":"小埤頭３１號之３４","OBJECTID":68739},"geometry":{"x":171555.6400000006,"y":2565950.3100000005}},{"attributes":{"ID":68740,"DIS_CODE":0,"TOWNNAME":"麻豆區","LI":"小埤里","LIN":"6鄰","STREET":" ","SECT":" ","MAREA":"小埤頭","LANE":" ","ALLEY":" ","HOUSE_NO":"３１號之３５","E_COORD97":171556,"N_COORD97":2565946.0499999998,"ADDRESS":"小埤頭３１號之３５","OBJECTID":68740},"geometry":{"x":171556,"y":2565946.0500000007}},{"attributes":{"ID":68741,"DIS_CODE":0,"TOWNNAME":"麻豆區","LI":"小埤里","LIN":"6鄰","STREET":" ","SECT":" ","MAREA":"小埤頭","LANE":" ","ALLEY":" ","HOUSE_NO":"３１號之３６","E_COORD97":171556.35999999999,"N_COORD97":2565941.7799999998,"ADDRESS":"小埤頭３１號之３６","OBJECTID":68741},"geometry":{"x":171556.36000000127,"y":2565941.7800000012}},{"attributes":{"ID":68742,"DIS_CODE":0,"TOWNNAME":"南區","LI":"興農里","LIN":"6鄰","STREET":"灣裡路","SECT":" ","MAREA":" ","LANE":"２６３巷","ALLEY":"６７弄","HOUSE_NO":"１２號","E_COORD97":166345.92000000001,"N_COORD97":2536466.6800000002,"ADDRESS":"灣裡路２６３巷６７弄１２號","OBJECTID":68742},"geometry":{"x":166345.92000000086,"y":2536466.6800000016}},{"attributes":{"ID":68743,"DIS_CODE":0,"TOWNNAME":"南區","LI":"興農里","LIN":"6鄰","STREET":"灣裡路","SECT":" ","MAREA":" ","LANE":"２６３巷","ALLEY":"６７弄","HOUSE_NO":"１４號","E_COORD97":166357.88,"N_COORD97":2536469.71,"ADDRESS":"灣裡路２６３巷６７弄１４號","OBJECTID":68743},"geometry":{"x":166357.88000000175,"y":2536469.7100000009}},{"attributes":{"ID":68744,"DIS_CODE":0,"TOWNNAME":"南區","LI":"興農里","LIN":"6鄰","STREET":"灣裡路","SECT":" ","MAREA":" ","LANE":"２６３巷","ALLEY":"６７弄","HOUSE_NO":"１６號","E_COORD97":166366.60000000001,"N_COORD97":2536470.73,"ADDRESS":"灣裡路２６３巷６７弄１６號","OBJECTID":68744},"geometry":{"x":166366.60000000056,"y":2536470.7300000023}},{"attributes":{"ID":68745,"DIS_CODE":0,"TOWNNAME":"南區","LI":"興農里","LIN":"6鄰","STREET":"灣裡路","SECT":" ","MAREA":" ","LANE":"２６３巷","ALLEY":"６７弄","HOUSE_NO":"１８號","E_COORD97":166376.37,"N_COORD97":2536470.8900000001,"ADDRESS":"灣裡路２６３巷６７弄１８號","OBJECTID":68745},"geometry":{"x":166376.37000000011,"y":2536470.8900000006}},{"attributes":{"ID":68746,"DIS_CODE":0,"TOWNNAME":"安南區","LI":"顯宮里","LIN":"7鄰","STREET":"媽祖宮路","SECT":" ","MAREA":" ","LANE":" ","ALLEY":" ","HOUSE_NO":"１９８號","E_COORD97":160489.19,"N_COORD97":2548798.1000000001,"ADDRESS":"媽祖宮路１９８號","OBJECTID":68746},"geometry":{"x":160489.19000000227,"y":2548798.1000000015}},{"attributes":{"ID":68747,"DIS_CODE":0,"TOWNNAME":"麻豆區","LI":"小埤里","LIN":"6鄰","STREET":" ","SECT":" ","MAREA":"小埤頭","LANE":" ","ALLEY":" ","HOUSE_NO":"３１號之３７","E_COORD97":171556.72,"N_COORD97":2565937.52,"ADDRESS":"小埤頭３１號之３７","OBJECTID":68747},"geometry":{"x":171556.72000000067,"y":2565937.5199999996}},{"attributes":{"ID":68748,"DIS_CODE":0,"TOWNNAME":"麻豆區","LI":"小埤里","LIN":"6鄰","STREET":" ","SECT":" ","MAREA":"小埤頭","LANE":" ","ALLEY":" ","HOUSE_NO":"３１號之３８","E_COORD97":171557.07999999999,"N_COORD97":2565933.25,"ADDRESS":"小埤頭３１號之３８","OBJECTID":68748},"geometry":{"x":171557.08000000007,"y":2565933.25}},{"attributes":{"ID":68749,"DIS_CODE":0,"TOWNNAME":"麻豆區","LI":"小埤里","LIN":"6鄰","STREET":" ","SECT":" ","MAREA":"小埤頭","LANE":" ","ALLEY":" ","HOUSE_NO":"３１號之３９","E_COORD97":171549.31,"N_COORD97":2565944.6899999999,"ADDRESS":"小埤頭３１號之３９","OBJECTID":68749},"geometry":{"x":171549.31000000052,"y":2565944.6900000032}},{"attributes":{"ID":68750,"DIS_CODE":0,"TOWNNAME":"麻豆區","LI":"小埤里","LIN":"6鄰","STREET":" ","SECT":" ","MAREA":"小埤頭","LANE":" ","ALLEY":" ","HOUSE_NO":"３１號之３","E_COORD97":171529.84,"N_COORD97":2566021.4300000002,"ADDRESS":"小埤頭３１號之３","OBJECTID":68750},"geometry":{"x":171529.83999999985,"y":2566021.4300000034}},{"attributes":{"ID":68751,"DIS_CODE":0,"TOWNNAME":"麻豆區","LI":"小埤里","LIN":"6鄰","STREET":" ","SECT":" ","MAREA":"小埤頭","LANE":" ","ALLEY":" ","HOUSE_NO":"３１號之４０","E_COORD97":171545.45999999999,"N_COORD97":2565944.3100000001,"ADDRESS":"小埤頭３１號之４０","OBJECTID":68751},"geometry":{"x":171545.45999999996,"y":2565944.3100000005}},{"attributes":{"ID":68752,"DIS_CODE":0,"TOWNNAME":"麻豆區","LI":"小埤里","LIN":"6鄰","STREET":" ","SECT":" ","MAREA":"小埤頭","LANE":" ","ALLEY":" ","HOUSE_NO":"３１號之４１","E_COORD97":171541.60999999999,"N_COORD97":2565943.9300000002,"ADDRESS":"小埤頭３１號之４１","OBJECTID":68752},"geometry":{"x":171541.61000000034,"y":2565943.9300000016}},{"attributes":{"ID":68753,"DIS_CODE":0,"TOWNNAME":"麻豆區","LI":"小埤里","LIN":"6鄰","STREET":" ","SECT":" ","MAREA":"小埤頭","LANE":" ","ALLEY":" ","HOUSE_NO":"３１號之４２","E_COORD97":171537.75,"N_COORD97":2565943.5600000001,"ADDRESS":"小埤頭３１號之４２","OBJECTID":68753},"geometry":{"x":171537.75000000093,"y":2565943.5600000024}},{"attributes":{"ID":68754,"DIS_CODE":0,"TOWNNAME":"安南區","LI":"顯宮里","LIN":"7鄰","STREET":"媽祖宮路","SECT":" ","MAREA":" ","LANE":" ","ALLEY":" ","HOUSE_NO":"１９２號","E_COORD97":160493.84,"N_COORD97":2548806.7999999998,"ADDRESS":"媽祖宮路１９２號","OBJECTID":68754},"geometry":{"x":160493.83999999985,"y":2548806.8000000045}},{"attributes":{"ID":68755,"DIS_CODE":0,"TOWNNAME":"麻豆區","LI":"小埤里","LIN":"6鄰","STREET":" ","SECT":" ","MAREA":"小埤頭","LANE":" ","ALLEY":" ","HOUSE_NO":"３１號之５","E_COORD97":171533.98999999999,"N_COORD97":2566021.7400000002,"ADDRESS":"小埤頭３１號之５","OBJECTID":68755},"geometry":{"x":171533.99000000022,"y":2566021.7400000002}},{"attributes":{"ID":68756,"DIS_CODE":0,"TOWNNAME":"麻豆區","LI":"小埤里","LIN":"6鄰","STREET":" ","SECT":" ","MAREA":"小埤頭","LANE":" ","ALLEY":" ","HOUSE_NO":"３１號之６","E_COORD97":171538.14000000001,"N_COORD97":2566022.04,"ADDRESS":"小埤頭３１號之６","OBJECTID":68756},"geometry":{"x":171538.1400000006,"y":2566022.0399999991}},{"attributes":{"ID":68757,"DIS_CODE":0,"TOWNNAME":"麻豆區","LI":"小埤里","LIN":"6鄰","STREET":" ","SECT":" ","MAREA":"小埤頭","LANE":" ","ALLEY":" ","HOUSE_NO":"３１號之７","E_COORD97":171542.29000000001,"N_COORD97":2566022.3500000001,"ADDRESS":"小埤頭３１號之７","OBJECTID":68757},"geometry":{"x":171542.28999999911,"y":2566022.3500000015}},{"attributes":{"ID":68758,"DIS_CODE":0,"TOWNNAME":"安平區","LI":"國平里","LIN":"6鄰","STREET":"文平路","SECT":" ","MAREA":" ","LANE":"１８７巷","ALLEY":"８８弄","HOUSE_NO":"１之１號","E_COORD97":165468.67999999999,"N_COORD97":2543093.25,"ADDRESS":"文平路１８７巷８８弄１之１號","OBJECTID":68758},"geometry":{"x":165468.6799999997,"y":2543093.25}},{"attributes":{"ID":68759,"DIS_CODE":0,"TOWNNAME":"安平區","LI":"國平里","LIN":"6鄰","STREET":"文平路","SECT":" ","MAREA":" ","LANE":"１８７巷","ALLEY":"８８弄","HOUSE_NO":"１之２０號","E_COORD97":165473.82000000001,"N_COORD97":2543115.1600000001,"ADDRESS":"文平路１８７巷８８弄１之２０號","OBJECTID":68759},"geometry":{"x":165473.82000000216,"y":2543115.160000002}},{"attributes":{"ID":68760,"DIS_CODE":0,"TOWNNAME":"安平區","LI":"國平里","LIN":"6鄰","STREET":"文平路","SECT":" ","MAREA":" ","LANE":"１８７巷","ALLEY":"８８弄","HOUSE_NO":"１之２１號","E_COORD97":165474.35999999999,"N_COORD97":2543116.7799999998,"ADDRESS":"文平路１８７巷８８弄１之２１號","OBJECTID":68760},"geometry":{"x":165474.36000000034,"y":2543116.7800000012}},{"attributes":{"ID":68761,"DIS_CODE":0,"TOWNNAME":"安平區","LI":"國平里","LIN":"6鄰","STREET":"文平路","SECT":" ","MAREA":" ","LANE":"１８７巷","ALLEY":"８８弄","HOUSE_NO":"１之２２號","E_COORD97":165474.35999999999,"N_COORD97":2543118.4100000001,"ADDRESS":"文平路１８７巷８８弄１之２２號","OBJECTID":68761},"geometry":{"x":165474.36000000034,"y":2543118.4100000001}},{"attributes":{"ID":68762,"DIS_CODE":0,"TOWNNAME":"麻豆區","LI":"小埤里","LIN":"6鄰","STREET":" ","SECT":" ","MAREA":"小埤頭","LANE":" ","ALLEY":" ","HOUSE_NO":"３１號之８","E_COORD97":171547.48000000001,"N_COORD97":2566033.75,"ADDRESS":"小埤頭３１號之８","OBJECTID":68762},"geometry":{"x":171547.48000000138,"y":2566033.7500000019}},{"attributes":{"ID":68763,"DIS_CODE":0,"TOWNNAME":"麻豆區","LI":"小埤里","LIN":"6鄰","STREET":" ","SECT":" ","MAREA":"小埤頭","LANE":" ","ALLEY":" ","HOUSE_NO":"３１號之９","E_COORD97":171547.81,"N_COORD97":2566029.4100000001,"ADDRESS":"小埤頭３１號之９","OBJECTID":68763},"geometry":{"x":171547.80999999959,"y":2566029.410000002}},{"attributes":{"ID":68764,"DIS_CODE":0,"TOWNNAME":"安平區","LI":"國平里","LIN":"6鄰","STREET":"文平路","SECT":" ","MAREA":" ","LANE":"１８７巷","ALLEY":"８８弄","HOUSE_NO":"１之２３號","E_COORD97":165474.35999999999,"N_COORD97":2543120.2999999998,"ADDRESS":"文平路１８７巷８８弄１之２３號","OBJECTID":68764},"geometry":{"x":165474.36000000034,"y":2543120.3000000007}},{"attributes":{"ID":68765,"DIS_CODE":0,"TOWNNAME":"安平區","LI":"國平里","LIN":"6鄰","STREET":"文平路","SECT":" ","MAREA":" ","LANE":"１８７巷","ALLEY":"８８弄","HOUSE_NO":"１之２號","E_COORD97":165470.29999999999,"N_COORD97":2543094.3300000001,"ADDRESS":"文平路１８７巷８８弄１之２號","OBJECTID":68765},"geometry":{"x":165470.30000000075,"y":2543094.3300000019}},{"attributes":{"ID":68766,"DIS_CODE":0,"TOWNNAME":"麻豆區","LI":"小埤里","LIN":"6鄰","STREET":" ","SECT":" ","MAREA":"小埤頭","LANE":" ","ALLEY":" ","HOUSE_NO":"３１號","E_COORD97":171462.98000000001,"N_COORD97":2566023.71,"ADDRESS":"小埤頭３１號","OBJECTID":68766},"geometry":{"x":171462.98000000045,"y":2566023.709999999}},{"attributes":{"ID":68767,"DIS_CODE":0,"TOWNNAME":"麻豆區","LI":"小埤里","LIN":"6鄰","STREET":" ","SECT":" ","MAREA":"小埤頭","LANE":" ","ALLEY":" ","HOUSE_NO":"３２號","E_COORD97":171472.82000000001,"N_COORD97":2566003.25,"ADDRESS":"小埤頭３２號","OBJECTID":68767},"geometry":{"x":171472.8200000003,"y":2566003.2500000019}},{"attributes":{"ID":68768,"DIS_CODE":0,"TOWNNAME":"麻豆區","LI":"安正里","LIN":"6鄰","STREET":" ","SECT":" ","MAREA":"方厝寮","LANE":" ","ALLEY":" ","HOUSE_NO":"２５號之１","E_COORD97":171437.23999999999,"N_COORD97":2561692.96,"ADDRESS":"方厝寮２５號之１","OBJECTID":68768},"geometry":{"x":171437.24000000022,"y":2561692.9600000046}},{"attributes":{"ID":68769,"DIS_CODE":0,"TOWNNAME":"麻豆區","LI":"安正里","LIN":"6鄰","STREET":" ","SECT":" ","MAREA":"方厝寮","LANE":" ","ALLEY":" ","HOUSE_NO":"２５號之２","E_COORD97":171403.66,"N_COORD97":2561682.8999999999,"ADDRESS":"方厝寮２５號之２","OBJECTID":68769},"geometry":{"x":171403.66000000015,"y":2561682.9000000022}},{"attributes":{"ID":68770,"DIS_CODE":0,"TOWNNAME":"麻豆區","LI":"安正里","LIN":"6鄰","STREET":" ","SECT":" ","MAREA":"方厝寮","LANE":" ","ALLEY":" ","HOUSE_NO":"２５號","E_COORD97":171401.47,"N_COORD97":2561718.7799999998,"ADDRESS":"方厝寮２５號","OBJECTID":68770},"geometry":{"x":171401.46999999974,"y":2561718.7799999993}},{"attributes":{"ID":68771,"DIS_CODE":0,"TOWNNAME":"麻豆區","LI":"安正里","LIN":"6鄰","STREET":" ","SECT":" ","MAREA":"方厝寮","LANE":" ","ALLEY":" ","HOUSE_NO":"２７號","E_COORD97":171446.67999999999,"N_COORD97":2561704.1000000001,"ADDRESS":"方厝寮２７號","OBJECTID":68771},"geometry":{"x":171446.68000000063,"y":2561704.1000000034}},{"attributes":{"ID":68772,"DIS_CODE":0,"TOWNNAME":"麻豆區","LI":"安正里","LIN":"6鄰","STREET":" ","SECT":" ","MAREA":"方厝寮","LANE":" ","ALLEY":" ","HOUSE_NO":"２８號","E_COORD97":171456,"N_COORD97":2561713.23,"ADDRESS":"方厝寮２８號","OBJECTID":68772},"geometry":{"x":171456,"y":2561713.2300000004}},{"attributes":{"ID":68773,"DIS_CODE":0,"TOWNNAME":"麻豆區","LI":"安正里","LIN":"6鄰","STREET":" ","SECT":" ","MAREA":"方厝寮","LANE":" ","ALLEY":" ","HOUSE_NO":"２９號之１","E_COORD97":171471.75,"N_COORD97":2561699.1000000001,"ADDRESS":"方厝寮２９號之１","OBJECTID":68773},"geometry":{"x":171471.75000000093,"y":2561699.0999999996}},{"attributes":{"ID":68774,"DIS_CODE":0,"TOWNNAME":"麻豆區","LI":"安正里","LIN":"6鄰","STREET":" ","SECT":" ","MAREA":"方厝寮","LANE":" ","ALLEY":" ","HOUSE_NO":"２９號之２","E_COORD97":171496.94,"N_COORD97":2561695.4700000002,"ADDRESS":"方厝寮２９號之２","OBJECTID":68774},"geometry":{"x":171496.94000000041,"y":2561695.4700000007}},{"attributes":{"ID":68775,"DIS_CODE":0,"TOWNNAME":"麻豆區","LI":"安正里","LIN":"6鄰","STREET":" ","SECT":" ","MAREA":"方厝寮","LANE":" ","ALLEY":" ","HOUSE_NO":"２９號之３","E_COORD97":171496.47,"N_COORD97":2561699.8599999999,"ADDRESS":"方厝寮２９號之３","OBJECTID":68775},"geometry":{"x":171496.46999999974,"y":2561699.8600000013}},{"attributes":{"ID":68776,"DIS_CODE":0,"TOWNNAME":"麻豆區","LI":"安正里","LIN":"6鄰","STREET":" ","SECT":" ","MAREA":"方厝寮","LANE":" ","ALLEY":" ","HOUSE_NO":"２９號之４","E_COORD97":171496.17000000001,"N_COORD97":2561704.54,"ADDRESS":"方厝寮２９號之４","OBJECTID":68776},"geometry":{"x":171496.17000000086,"y":2561704.540000001}},{"attributes":{"ID":68777,"DIS_CODE":0,"TOWNNAME":"麻豆區","LI":"安正里","LIN":"6鄰","STREET":" ","SECT":" ","MAREA":"方厝寮","LANE":" ","ALLEY":" ","HOUSE_NO":"２９號之５","E_COORD97":171496.17999999999,"N_COORD97":2561708.3500000001,"ADDRESS":"方厝寮２９號之５","OBJECTID":68777},"geometry":{"x":171496.18000000063,"y":2561708.3499999996}},{"attributes":{"ID":68778,"DIS_CODE":0,"TOWNNAME":"麻豆區","LI":"安正里","LIN":"6鄰","STREET":" ","SECT":" ","MAREA":"方厝寮","LANE":" ","ALLEY":" ","HOUSE_NO":"２９號之６","E_COORD97":171495.89999999999,"N_COORD97":2561713.3300000001,"ADDRESS":"方厝寮２９號之６","OBJECTID":68778},"geometry":{"x":171495.90000000037,"y":2561713.3300000038}},{"attributes":{"ID":68779,"DIS_CODE":0,"TOWNNAME":"麻豆區","LI":"安正里","LIN":"6鄰","STREET":" ","SECT":" ","MAREA":"方厝寮","LANE":" ","ALLEY":" ","HOUSE_NO":"２９號之７","E_COORD97":171495.72,"N_COORD97":2561717.9700000002,"ADDRESS":"方厝寮２９號之７","OBJECTID":68779},"geometry":{"x":171495.72000000067,"y":2561717.9700000007}},{"attributes":{"ID":68780,"DIS_CODE":0,"TOWNNAME":"麻豆區","LI":"安正里","LIN":"6鄰","STREET":" ","SECT":" ","MAREA":"方厝寮","LANE":" ","ALLEY":" ","HOUSE_NO":"２９號","E_COORD97":171474.91,"N_COORD97":2561711.9900000002,"ADDRESS":"方厝寮２９號","OBJECTID":68780},"geometry":{"x":171474.91000000015,"y":2561711.9899999984}},{"attributes":{"ID":68781,"DIS_CODE":0,"TOWNNAME":"新市區","LI":"大洲里","LIN":"6鄰","STREET":" ","SECT":" ","MAREA":"大洲","LANE":" ","ALLEY":" ","HOUSE_NO":"５２號","E_COORD97":174129.98999999999,"N_COORD97":2552267,"ADDRESS":"大洲５２號","OBJECTID":68781},"geometry":{"x":174129.99000000115,"y":2552267.0000000019}},{"attributes":{"ID":68782,"DIS_CODE":0,"TOWNNAME":"安定區","LI":"安定里","LIN":"6鄰","STREET":" ","SECT":" ","MAREA":"安定","LANE":" ","ALLEY":" ","HOUSE_NO":"３８之１５號","E_COORD97":172221.62,"N_COORD97":2557861.3199999998,"ADDRESS":"安定３８之１５號","OBJECTID":68782},"geometry":{"x":172221.61999999918,"y":2557861.3200000003}},{"attributes":{"ID":68783,"DIS_CODE":0,"TOWNNAME":"安定區","LI":"安定里","LIN":"6鄰","STREET":" ","SECT":" ","MAREA":"安定","LANE":" ","ALLEY":" ","HOUSE_NO":"３８號之２３","E_COORD97":172231.14999999999,"N_COORD97":2557824.3199999998,"ADDRESS":"安定３８號之２３","OBJECTID":68783},"geometry":{"x":172231.15000000037,"y":2557824.3200000003}},{"attributes":{"ID":68784,"DIS_CODE":0,"TOWNNAME":"安平區","LI":"國平里","LIN":"6鄰","STREET":"文平路","SECT":" ","MAREA":" ","LANE":"１８７巷","ALLEY":"８８弄","HOUSE_NO":"１之５號","E_COORD97":165471.39000000001,"N_COORD97":2543095.6899999999,"ADDRESS":"文平路１８７巷８８弄１之５號","OBJECTID":68784},"geometry":{"x":165471.3900000006,"y":2543095.6899999995}},{"attributes":{"ID":68785,"DIS_CODE":0,"TOWNNAME":"安南區","LI":"淵東里","LIN":"7鄰","STREET":"本原街","SECT":"三段","MAREA":" ","LANE":"２５１巷","ALLEY":" ","HOUSE_NO":"６號","E_COORD97":165403.26000000001,"N_COORD97":2550255.2200000002,"ADDRESS":"本原街三段２５１巷６號","OBJECTID":68785},"geometry":{"x":165403.25999999978,"y":2550255.2200000044}},{"attributes":{"ID":68786,"DIS_CODE":0,"TOWNNAME":"安南區","LI":"理想里","LIN":"7鄰","STREET":"海佃路","SECT":"二段","MAREA":" ","LANE":" ","ALLEY":" ","HOUSE_NO":"２０２號","E_COORD97":166975.69,"N_COORD97":2548309.8999999999,"ADDRESS":"海佃路二段２０２號","OBJECTID":68786},"geometry":{"x":166975.69000000134,"y":2548309.9000000004}},{"attributes":{"ID":68787,"DIS_CODE":0,"TOWNNAME":"安定區","LI":"中榮里","LIN":"6鄰","STREET":" ","SECT":" ","MAREA":"許中營","LANE":" ","ALLEY":" ","HOUSE_NO":"１３號","E_COORD97":172330.64000000001,"N_COORD97":2554925.25,"ADDRESS":"許中營１３號","OBJECTID":68787},"geometry":{"x":172330.63999999966,"y":2554925.25}},{"attributes":{"ID":68788,"DIS_CODE":0,"TOWNNAME":"安南區","LI":"州南里","LIN":"7鄰","STREET":"北安路","SECT":"四段","MAREA":" ","LANE":" ","ALLEY":" ","HOUSE_NO":"１７１之３１號","E_COORD97":169448.5,"N_COORD97":2551399.0800000001,"ADDRESS":"北安路四段１７１之３１號","OBJECTID":68788},"geometry":{"x":169448.5,"y":2551399.0800000019}},{"attributes":{"ID":68789,"DIS_CODE":0,"TOWNNAME":"安平區","LI":"國平里","LIN":"6鄰","STREET":"文平路","SECT":" ","MAREA":" ","LANE":"１８７巷","ALLEY":"８８弄","HOUSE_NO":"１之２６號","E_COORD97":165474.63,"N_COORD97":2543123.27,"ADDRESS":"文平路１８７巷８８弄１之２６號","OBJECTID":68789},"geometry":{"x":165474.63000000175,"y":2543123.2699999977}},{"attributes":{"ID":68790,"DIS_CODE":0,"TOWNNAME":"安平區","LI":"國平里","LIN":"6鄰","STREET":"文平路","SECT":" ","MAREA":" ","LANE":"１８７巷","ALLEY":"８８弄","HOUSE_NO":"１之２８號","E_COORD97":165474.89999999999,"N_COORD97":2543124.8999999999,"ADDRESS":"文平路１８７巷８８弄１之２８號","OBJECTID":68790},"geometry":{"x":165474.90000000224,"y":2543124.9000000022}},{"attributes":{"ID":68791,"DIS_CODE":0,"TOWNNAME":"安定區","LI":"安定里","LIN":"6鄰","STREET":" ","SECT":" ","MAREA":"安定","LANE":" ","ALLEY":" ","HOUSE_NO":"３１之６號","E_COORD97":172153.76999999999,"N_COORD97":2557941.3199999998,"ADDRESS":"安定３１之６號","OBJECTID":68791},"geometry":{"x":172153.76999999955,"y":2557941.3200000022}},{"attributes":{"ID":68792,"DIS_CODE":0,"TOWNNAME":"安平區","LI":"國平里","LIN":"6鄰","STREET":"文平路","SECT":" ","MAREA":" ","LANE":"１８７巷","ALLEY":"８８弄","HOUSE_NO":"１之３０號","E_COORD97":165474.63,"N_COORD97":2543127.3300000001,"ADDRESS":"文平路１８７巷８８弄１之３０號","OBJECTID":68792},"geometry":{"x":165474.63000000175,"y":2543127.3300000019}},{"attributes":{"ID":68793,"DIS_CODE":0,"TOWNNAME":"安定區","LI":"安定里","LIN":"6鄰","STREET":" ","SECT":" ","MAREA":"安定","LANE":" ","ALLEY":" ","HOUSE_NO":"３０號之９","E_COORD97":172111.29000000001,"N_COORD97":2557971.3199999998,"ADDRESS":"安定３０號之９","OBJECTID":68793},"geometry":{"x":172111.29000000004,"y":2557971.3200000022}},{"attributes":{"ID":68794,"DIS_CODE":0,"TOWNNAME":"安定區","LI":"保西里","LIN":"6鄰","STREET":" ","SECT":" ","MAREA":"安定","LANE":" ","ALLEY":" ","HOUSE_NO":"３８５號","E_COORD97":171536.22,"N_COORD97":2557705.3199999998,"ADDRESS":"安定３８５號","OBJECTID":68794},"geometry":{"x":171536.22000000067,"y":2557705.3200000003}},{"attributes":{"ID":68795,"DIS_CODE":0,"TOWNNAME":"安定區","LI":"港尾里","LIN":"6鄰","STREET":" ","SECT":" ","MAREA":"港子尾","LANE":" ","ALLEY":" ","HOUSE_NO":"２６號之１","E_COORD97":171526.42999999999,"N_COORD97":2556025.2999999998,"ADDRESS":"港子尾２６號之１","OBJECTID":68795},"geometry":{"x":171526.43000000063,"y":2556025.3000000026}},{"attributes":{"ID":68796,"DIS_CODE":0,"TOWNNAME":"安定區","LI":"安定里","LIN":"6鄰","STREET":" ","SECT":" ","MAREA":"安定","LANE":" ","ALLEY":" ","HOUSE_NO":"３１號之８","E_COORD97":172162.25,"N_COORD97":2557940.3199999998,"ADDRESS":"安定３１號之８","OBJECTID":68796},"geometry":{"x":172162.25,"y":2557940.3200000022}},{"attributes":{"ID":68797,"DIS_CODE":0,"TOWNNAME":"安定區","LI":"安定里","LIN":"6鄰","STREET":" ","SECT":" ","MAREA":"安定","LANE":" ","ALLEY":" ","HOUSE_NO":"４６號之１２","E_COORD97":172004.48999999999,"N_COORD97":2557870.3199999998,"ADDRESS":"安定４６號之１２","OBJECTID":68797},"geometry":{"x":172004.49000000115,"y":2557870.3200000022}},{"attributes":{"ID":68798,"DIS_CODE":0,"TOWNNAME":"安定區","LI":"安加里","LIN":"6鄰","STREET":" ","SECT":" ","MAREA":"安定","LANE":" ","ALLEY":" ","HOUSE_NO":"２１６號之１","E_COORD97":171803.32000000001,"N_COORD97":2557529.3199999998,"ADDRESS":"安定２１６之１號","OBJECTID":68798},"geometry":{"x":171803.3200000003,"y":2557529.3200000003}},{"attributes":{"ID":68799,"DIS_CODE":0,"TOWNNAME":"安定區","LI":"安定里","LIN":"6鄰","STREET":" ","SECT":" ","MAREA":"安定","LANE":" ","ALLEY":" ","HOUSE_NO":"３２號","E_COORD97":172146.76999999999,"N_COORD97":2557974.3199999998,"ADDRESS":"安定３２號","OBJECTID":68799},"geometry":{"x":172146.76999999955,"y":2557974.3200000022}},{"attributes":{"ID":68800,"DIS_CODE":0,"TOWNNAME":"安定區","LI":"港口里","LIN":"6鄰","STREET":" ","SECT":" ","MAREA":"港口","LANE":" ","ALLEY":" ","HOUSE_NO":"２２２號","E_COORD97":171482.28,"N_COORD97":2554549.6899999999,"ADDRESS":"港口２２２號","OBJECTID":68800},"geometry":{"x":171482.28000000119,"y":2554549.6900000032}}]}