{"displayFieldName":"TOWNNAME","fieldAliases":{"ID":"ID","DIS_CODE":"DIS_CODE","TOWNNAME":"TOWNNAME","LI":"LI","LIN":"LIN","STREET":"STREET","SECT":"SECT","MAREA":"MAREA","LANE":"LANE","ALLEY":"ALLEY","HOUSE_NO":"HOUSE_NO","E_COORD97":"E_COORD97","N_COORD97":"N_COORD97","ADDRESS":"ADDRESS","OBJECTID":"OBJECTID"},"geometryType":"esriGeometryPoint","spatialReference":{"wkid":102443,"latestWkid":3826},"fields":[{"name":"ID","type":"esriFieldTypeDouble","alias":"ID"},{"name":"DIS_CODE","type":"esriFieldTypeInteger","alias":"DIS_CODE"},{"name":"TOWNNAME","type":"esriFieldTypeString","alias":"TOWNNAME","length":8},{"name":"LI","type":"esriFieldTypeString","alias":"LI","length":8},{"name":"LIN","type":"esriFieldTypeString","alias":"LIN","length":12},{"name":"STREET","type":"esriFieldTypeString","alias":"STREET","length":20},{"name":"SECT","type":"esriFieldTypeString","alias":"SECT","length":8},{"name":"MAREA","type":"esriFieldTypeString","alias":"MAREA","length":12},{"name":"LANE","type":"esriFieldTypeString","alias":"LANE","length":10},{"name":"ALLEY","type":"esriFieldTypeString","alias":"ALLEY","length":10},{"name":"HOUSE_NO","type":"esriFieldTypeString","alias":"HOUSE_NO","length":20},{"name":"E_COORD97","type":"esriFieldTypeDouble","alias":"E_COORD97"},{"name":"N_COORD97","type":"esriFieldTypeDouble","alias":"N_COORD97"},{"name":"ADDRESS","type":"esriFieldTypeString","alias":"ADDRESS","length":50},{"name":"OBJECTID","type":"esriFieldTypeOID","alias":"OBJECTID"}],"features":[{"attributes":{"ID":639028,"DIS_CODE":0,"TOWNNAME":"新營區","LI":"王公里","LIN":"4鄰","STREET":"民族路","SECT":" ","MAREA":" ","LANE":" ","ALLEY":" ","HOUSE_NO":"８０號之２","E_COORD97":180321.47,"N_COORD97":2578992.0899999999,"ADDRESS":"民族路８０號之２","OBJECTID":639001},"geometry":{"x":180321.46999999974,"y":2578992.0900000036}},{"attributes":{"ID":639029,"DIS_CODE":0,"TOWNNAME":"新營區","LI":"永生里","LIN":"22鄰","STREET":"康樂街","SECT":" ","MAREA":" ","LANE":" ","ALLEY":" ","HOUSE_NO":"６３號之１","E_COORD97":179828,"N_COORD97":2577827.1699999999,"ADDRESS":"康樂街６３號之１","OBJECTID":639002},"geometry":{"x":179828,"y":2577827.1699999999}},{"attributes":{"ID":639030,"DIS_CODE":0,"TOWNNAME":"新營區","LI":"好平里","LIN":"13鄰","STREET":"復興路","SECT":" ","MAREA":" ","LANE":" ","ALLEY":" ","HOUSE_NO":"１２５號之３","E_COORD97":179430.66506999999,"N_COORD97":2578040.71857,"ADDRESS":"復興路１２５號之３","OBJECTID":639003},"geometry":{"x":179430.6650700001,"y":2578040.7185750026}},{"attributes":{"ID":639031,"DIS_CODE":0,"TOWNNAME":"新營區","LI":"三仙里","LIN":"4鄰","STREET":"復興路","SECT":" ","MAREA":" ","LANE":" ","ALLEY":" ","HOUSE_NO":"４０號","E_COORD97":179640.38,"N_COORD97":2578032.8799999999,"ADDRESS":"復興路４０號","OBJECTID":639004},"geometry":{"x":179640.38000000082,"y":2578032.8800000027}},{"attributes":{"ID":639032,"DIS_CODE":0,"TOWNNAME":"新營區","LI":"大宏里","LIN":" ","STREET":"大同路","SECT":" ","MAREA":" ","LANE":" ","ALLEY":" ","HOUSE_NO":"３０之１７號","E_COORD97":180724.95999999999,"N_COORD97":2578828.52,"ADDRESS":"大同路３０之１７號","OBJECTID":639005},"geometry":{"x":180724.95999999996,"y":2578828.5199999996}},{"attributes":{"ID":639033,"DIS_CODE":0,"TOWNNAME":"新營區","LI":"民生里","LIN":"1鄰","STREET":"復興路","SECT":" ","MAREA":" ","LANE":" ","ALLEY":" ","HOUSE_NO":"１１０號之８","E_COORD97":179472.59,"N_COORD97":2578115.7000000002,"ADDRESS":"復興路１１０號之８","OBJECTID":639006},"geometry":{"x":179472.59000000078,"y":2578115.700000003}},{"attributes":{"ID":639034,"DIS_CODE":0,"TOWNNAME":"新營區","LI":"民生里","LIN":"8鄰","STREET":"復興路","SECT":" ","MAREA":" ","LANE":" ","ALLEY":" ","HOUSE_NO":"１３０號之１","E_COORD97":179386.42000000001,"N_COORD97":2578060.73,"ADDRESS":"復興路１３０號之１","OBJECTID":639007},"geometry":{"x":179386.41999999993,"y":2578060.7300000023}},{"attributes":{"ID":639035,"DIS_CODE":0,"TOWNNAME":"新營區","LI":"大宏里","LIN":" ","STREET":"民族路","SECT":" ","MAREA":" ","LANE":" ","ALLEY":" ","HOUSE_NO":"１０之１６號","E_COORD97":180367.07999999999,"N_COORD97":2578435.9500000002,"ADDRESS":"民族路１０之１６號","OBJECTID":639008},"geometry":{"x":180367.08000000007,"y":2578435.9499999974}},{"attributes":{"ID":639036,"DIS_CODE":0,"TOWNNAME":"新營區","LI":"民生里","LIN":"25鄰","STREET":"民治路","SECT":" ","MAREA":" ","LANE":" ","ALLEY":" ","HOUSE_NO":"１０７號","E_COORD97":178977.5,"N_COORD97":2578631.8599999999,"ADDRESS":"民治路１０７號","OBJECTID":639009},"geometry":{"x":178977.5,"y":2578631.8599999994}},{"attributes":{"ID":639037,"DIS_CODE":0,"TOWNNAME":"新營區","LI":"大宏里","LIN":"4鄰","STREET":"綠川北街","SECT":" ","MAREA":" ","LANE":" ","ALLEY":" ","HOUSE_NO":"１２２號","E_COORD97":180248.04999999999,"N_COORD97":2578669,"ADDRESS":"綠川北街１２２號","OBJECTID":639010},"geometry":{"x":180248.04999999981,"y":2578669}},{"attributes":{"ID":639038,"DIS_CODE":0,"TOWNNAME":"新營區","LI":"新東里","LIN":" ","STREET":"民族路","SECT":" ","MAREA":" ","LANE":" ","ALLEY":" ","HOUSE_NO":"１１０之１號","E_COORD97":180362.45000000001,"N_COORD97":2579191.25,"ADDRESS":"民族路１１０之１號","OBJECTID":639011},"geometry":{"x":180362.45000000019,"y":2579191.2500000019}},{"attributes":{"ID":639039,"DIS_CODE":0,"TOWNNAME":"新營區","LI":"延平里","LIN":"1鄰","STREET":"延平路","SECT":" ","MAREA":" ","LANE":" ","ALLEY":" ","HOUSE_NO":"４６之１６８號","E_COORD97":179680.85432799999,"N_COORD97":2577769.1995700002,"ADDRESS":"延平路４６之１６８號","OBJECTID":639012},"geometry":{"x":179680.85432800092,"y":2577769.199574003}},{"attributes":{"ID":639040,"DIS_CODE":0,"TOWNNAME":"新營區","LI":"民生里","LIN":" ","STREET":"復興路","SECT":" ","MAREA":" ","LANE":" ","ALLEY":" ","HOUSE_NO":"１９６之１號","E_COORD97":179063.13,"N_COORD97":2578050.0899999999,"ADDRESS":"復興路１９６之１號","OBJECTID":639013},"geometry":{"x":179063.12999999896,"y":2578050.0900000017}},{"attributes":{"ID":639041,"DIS_CODE":0,"TOWNNAME":"新營區","LI":"新北里","LIN":"32鄰","STREET":"新北街","SECT":" ","MAREA":" ","LANE":" ","ALLEY":" ","HOUSE_NO":"２２０號","E_COORD97":178648.42000000001,"N_COORD97":2579100.7799999998,"ADDRESS":"新北街２２０號","OBJECTID":639014},"geometry":{"x":178648.42000000086,"y":2579100.7799999993}},{"attributes":{"ID":639042,"DIS_CODE":0,"TOWNNAME":"新營區","LI":"新南里","LIN":"4鄰","STREET":"新北三街","SECT":" ","MAREA":" ","LANE":" ","ALLEY":" ","HOUSE_NO":"５之１號","E_COORD97":178667.54000000001,"N_COORD97":2578834.96,"ADDRESS":"新北三街５之１號","OBJECTID":639015},"geometry":{"x":178667.54000000097,"y":2578834.9600000028}},{"attributes":{"ID":639043,"DIS_CODE":0,"TOWNNAME":"新營區","LI":"土庫里","LIN":" ","STREET":"開元路","SECT":" ","MAREA":" ","LANE":" ","ALLEY":" ","HOUSE_NO":"３１９之２號","E_COORD97":182240.75,"N_COORD97":2580158.1899999999,"ADDRESS":"開元路３１９之２號","OBJECTID":639016},"geometry":{"x":182240.75,"y":2580158.1900000013}},{"attributes":{"ID":639044,"DIS_CODE":0,"TOWNNAME":"新營區","LI":"好平里","LIN":" ","STREET":"長春街","SECT":" ","MAREA":" ","LANE":" ","ALLEY":" ","HOUSE_NO":"１３６號","E_COORD97":179559.79000000001,"N_COORD97":2577833.9199999999,"ADDRESS":"長春街１３６號","OBJECTID":639017},"geometry":{"x":179559.79000000097,"y":2577833.9200000018}},{"attributes":{"ID":639045,"DIS_CODE":0,"TOWNNAME":"新營區","LI":"新南里","LIN":"13鄰","STREET":"長榮路","SECT":"二段","MAREA":" ","LANE":" ","ALLEY":" ","HOUSE_NO":"７８５號","E_COORD97":178462.67000000001,"N_COORD97":2579193.6000000001,"ADDRESS":"長榮路二段７８５號","OBJECTID":639018},"geometry":{"x":178462.66999999993,"y":2579193.5999999996}},{"attributes":{"ID":639046,"DIS_CODE":0,"TOWNNAME":"新營區","LI":"新東里","LIN":"13鄰","STREET":"東興六街","SECT":" ","MAREA":" ","LANE":" ","ALLEY":" ","HOUSE_NO":"１１７號","E_COORD97":181050.59,"N_COORD97":2579243.3399999999,"ADDRESS":"東興六街１１７號","OBJECTID":639019},"geometry":{"x":181050.59000000078,"y":2579243.3399999999}},{"attributes":{"ID":639047,"DIS_CODE":0,"TOWNNAME":"新營區","LI":"好平里","LIN":" ","STREET":"新進路","SECT":"二段","MAREA":" ","LANE":" ","ALLEY":" ","HOUSE_NO":"１０１號","E_COORD97":179472.29999999999,"N_COORD97":2577718.0600000001,"ADDRESS":"新進路二段１０１號","OBJECTID":639020},"geometry":{"x":179472.30000000168,"y":2577718.0600000042}},{"attributes":{"ID":639048,"DIS_CODE":0,"TOWNNAME":"新營區","LI":"王公里","LIN":"3鄰","STREET":"民族路","SECT":" ","MAREA":" ","LANE":" ","ALLEY":" ","HOUSE_NO":"５７號之３","E_COORD97":180284.5,"N_COORD97":2578972.3300000001,"ADDRESS":"民族路５７號之３","OBJECTID":639021},"geometry":{"x":180284.5,"y":2578972.3300000001}},{"attributes":{"ID":639049,"DIS_CODE":0,"TOWNNAME":"新營區","LI":"民生里","LIN":" ","STREET":"三民路","SECT":" ","MAREA":" ","LANE":" ","ALLEY":" ","HOUSE_NO":"１３１之５號","E_COORD97":179285.06,"N_COORD97":2578257.23,"ADDRESS":"三民路１３１之５號","OBJECTID":639022},"geometry":{"x":179285.05999999959,"y":2578257.2300000023}},{"attributes":{"ID":639050,"DIS_CODE":0,"TOWNNAME":"新營區","LI":"新北里","LIN":"32鄰","STREET":"新北街","SECT":" ","MAREA":" ","LANE":" ","ALLEY":" ","HOUSE_NO":"２１０號","E_COORD97":178653.42999999999,"N_COORD97":2579079.7200000002,"ADDRESS":"新北街２１０號","OBJECTID":639023},"geometry":{"x":178653.4299999997,"y":2579079.7199999988}},{"attributes":{"ID":639051,"DIS_CODE":0,"TOWNNAME":"新營區","LI":"三仙里","LIN":"4鄰","STREET":"復興路","SECT":" ","MAREA":" ","LANE":" ","ALLEY":" ","HOUSE_NO":"４６號","E_COORD97":179622,"N_COORD97":2578040.7200000002,"ADDRESS":"復興路４６號","OBJECTID":639024},"geometry":{"x":179622.00000000186,"y":2578040.7200000025}},{"attributes":{"ID":639052,"DIS_CODE":0,"TOWNNAME":"新營區","LI":"新南里","LIN":"4鄰","STREET":"新北三街","SECT":" ","MAREA":" ","LANE":" ","ALLEY":" ","HOUSE_NO":"１０之１號","E_COORD97":178636.10999999999,"N_COORD97":2578849.5099999998,"ADDRESS":"新北三街１０之１號","OBJECTID":639025},"geometry":{"x":178636.11000000034,"y":2578849.5099999998}},{"attributes":{"ID":639053,"DIS_CODE":0,"TOWNNAME":"新營區","LI":"延平里","LIN":"1鄰","STREET":"延平路","SECT":" ","MAREA":" ","LANE":" ","ALLEY":" ","HOUSE_NO":"４６之１５３號","E_COORD97":179693.75075800001,"N_COORD97":2577786.75177,"ADDRESS":"延平路４６之１５３號","OBJECTID":639026},"geometry":{"x":179693.75075799972,"y":2577786.7517719995}},{"attributes":{"ID":639054,"DIS_CODE":0,"TOWNNAME":"新營區","LI":"新北里","LIN":"32鄰","STREET":"新北街","SECT":" ","MAREA":" ","LANE":" ","ALLEY":" ","HOUSE_NO":"２３２號","E_COORD97":178647.53,"N_COORD97":2579128.4700000002,"ADDRESS":"新北街２３２號","OBJECTID":639027},"geometry":{"x":178647.53000000119,"y":2579128.4700000007}},{"attributes":{"ID":639055,"DIS_CODE":0,"TOWNNAME":"新營區","LI":"埤寮里","LIN":" ","STREET":"長榮路","SECT":"一段","MAREA":" ","LANE":" ","ALLEY":" ","HOUSE_NO":"５０２號","E_COORD97":180308.14999999999,"N_COORD97":2579915.71,"ADDRESS":"長榮路一段５０２號","OBJECTID":639028},"geometry":{"x":180308.1500000013,"y":2579915.7100000028}},{"attributes":{"ID":639056,"DIS_CODE":0,"TOWNNAME":"新營區","LI":"埤寮里","LIN":"13鄰","STREET":"長榮路","SECT":"二段","MAREA":" ","LANE":" ","ALLEY":" ","HOUSE_NO":"７８號","E_COORD97":179869.42000000001,"N_COORD97":2579969.8399999999,"ADDRESS":"長榮路二段７８號","OBJECTID":639029},"geometry":{"x":179869.41999999993,"y":2579969.8400000036}},{"attributes":{"ID":639057,"DIS_CODE":0,"TOWNNAME":"新營區","LI":"民生里","LIN":"8鄰","STREET":"復興路","SECT":" ","MAREA":" ","LANE":" ","ALLEY":" ","HOUSE_NO":"１３２號之２","E_COORD97":179356.70999999999,"N_COORD97":2578054.23,"ADDRESS":"復興路１３２號之２","OBJECTID":639030},"geometry":{"x":179356.71000000089,"y":2578054.2300000004}},{"attributes":{"ID":639058,"DIS_CODE":0,"TOWNNAME":"新營區","LI":"三仙里","LIN":"4鄰","STREET":"復興路","SECT":" ","MAREA":" ","LANE":" ","ALLEY":" ","HOUSE_NO":"５６號","E_COORD97":179591.29000000001,"N_COORD97":2578046.3999999999,"ADDRESS":"復興路５６號","OBJECTID":639031},"geometry":{"x":179591.2900000019,"y":2578046.4000000004}},{"attributes":{"ID":639059,"DIS_CODE":0,"TOWNNAME":"新營區","LI":"新北里","LIN":"32鄰","STREET":"新北街","SECT":" ","MAREA":" ","LANE":" ","ALLEY":" ","HOUSE_NO":"２４０號","E_COORD97":178636.42000000001,"N_COORD97":2579156.2200000002,"ADDRESS":"新北街２４０號","OBJECTID":639032},"geometry":{"x":178636.42000000086,"y":2579156.2200000025}},{"attributes":{"ID":639060,"DIS_CODE":0,"TOWNNAME":"新營區","LI":"民生里","LIN":" ","STREET":"進修街","SECT":" ","MAREA":" ","LANE":" ","ALLEY":" ","HOUSE_NO":"１１之３號","E_COORD97":179018.59,"N_COORD97":2578409.1099999999,"ADDRESS":"進修街１１之３號","OBJECTID":639033},"geometry":{"x":179018.58999999985,"y":2578409.1100000013}},{"attributes":{"ID":639061,"DIS_CODE":0,"TOWNNAME":"新營區","LI":"民榮里","LIN":"39鄰","STREET":"公園路","SECT":"二段","MAREA":" ","LANE":" ","ALLEY":" ","HOUSE_NO":"１６２號","E_COORD97":178329.23999999999,"N_COORD97":2577834.29,"ADDRESS":"公園路二段１６２號","OBJECTID":639034},"geometry":{"x":178329.24000000115,"y":2577834.290000001}},{"attributes":{"ID":639062,"DIS_CODE":0,"TOWNNAME":"新營區","LI":"民榮里","LIN":"4鄰","STREET":"濟安街","SECT":" ","MAREA":" ","LANE":" ","ALLEY":" ","HOUSE_NO":"３６號","E_COORD97":179370.92999999999,"N_COORD97":2577941.1299999999,"ADDRESS":"濟安街３６號","OBJECTID":639035},"geometry":{"x":179370.9299999997,"y":2577941.1300000008}},{"attributes":{"ID":639063,"DIS_CODE":0,"TOWNNAME":"新營區","LI":"大宏里","LIN":" ","STREET":"大同路","SECT":" ","MAREA":" ","LANE":" ","ALLEY":" ","HOUSE_NO":"３０之１６號","E_COORD97":180724.95999999999,"N_COORD97":2578828.52,"ADDRESS":"大同路３０之１６號","OBJECTID":639036},"geometry":{"x":180724.95999999996,"y":2578828.5199999996}},{"attributes":{"ID":639064,"DIS_CODE":0,"TOWNNAME":"新營區","LI":"民生里","LIN":" ","STREET":"三民路","SECT":" ","MAREA":" ","LANE":" ","ALLEY":" ","HOUSE_NO":"１３１之１號","E_COORD97":179290.20999999999,"N_COORD97":2578266.0699999998,"ADDRESS":"三民路１３１之１號","OBJECTID":639037},"geometry":{"x":179290.21000000089,"y":2578266.0700000003}},{"attributes":{"ID":639065,"DIS_CODE":0,"TOWNNAME":"新營區","LI":"新南里","LIN":"4鄰","STREET":"新北三街","SECT":" ","MAREA":" ","LANE":" ","ALLEY":" ","HOUSE_NO":"１０之３號","E_COORD97":178635.14000000001,"N_COORD97":2578858.3700000001,"ADDRESS":"新北三街１０之３號","OBJECTID":639038},"geometry":{"x":178635.13999999966,"y":2578858.370000001}},{"attributes":{"ID":639066,"DIS_CODE":0,"TOWNNAME":"新營區","LI":"王公里","LIN":"4鄰","STREET":"民族路","SECT":" ","MAREA":" ","LANE":" ","ALLEY":" ","HOUSE_NO":"８０號之５","E_COORD97":180326.54000000001,"N_COORD97":2578983.21,"ADDRESS":"民族路８０號之５","OBJECTID":639039},"geometry":{"x":180326.54000000004,"y":2578983.2100000028}},{"attributes":{"ID":639067,"DIS_CODE":0,"TOWNNAME":"新營區","LI":"中營里","LIN":" ","STREET":"新進路","SECT":" ","MAREA":" ","LANE":" ","ALLEY":" ","HOUSE_NO":"５０號","E_COORD97":180543.60000000001,"N_COORD97":2578266.71,"ADDRESS":"新進路５０號","OBJECTID":639040},"geometry":{"x":180543.60000000056,"y":2578266.7100000046}},{"attributes":{"ID":639068,"DIS_CODE":0,"TOWNNAME":"新營區","LI":"大宏里","LIN":" ","STREET":"大同路","SECT":" ","MAREA":" ","LANE":" ","ALLEY":" ","HOUSE_NO":"３０之２３號","E_COORD97":180724.95999999999,"N_COORD97":2578828.52,"ADDRESS":"大同路３０之２３號","OBJECTID":639041},"geometry":{"x":180724.95999999996,"y":2578828.5199999996}},{"attributes":{"ID":639069,"DIS_CODE":0,"TOWNNAME":"新營區","LI":"民榮里","LIN":"39鄰","STREET":"公園路","SECT":"二段","MAREA":" ","LANE":" ","ALLEY":" ","HOUSE_NO":"１７０號","E_COORD97":178314.88,"N_COORD97":2577827.71,"ADDRESS":"公園路二段１７０號","OBJECTID":639042},"geometry":{"x":178314.87999999989,"y":2577827.7100000009}},{"attributes":{"ID":639070,"DIS_CODE":0,"TOWNNAME":"新營區","LI":"新北里","LIN":"32鄰","STREET":"新北街","SECT":" ","MAREA":" ","LANE":" ","ALLEY":" ","HOUSE_NO":"２１４號","E_COORD97":178651.42000000001,"N_COORD97":2579087.48,"ADDRESS":"新北街２１４號","OBJECTID":639043},"geometry":{"x":178651.42000000086,"y":2579087.4800000004}},{"attributes":{"ID":639071,"DIS_CODE":0,"TOWNNAME":"新營區","LI":"新北里","LIN":"32鄰","STREET":"新北街","SECT":" ","MAREA":" ","LANE":" ","ALLEY":" ","HOUSE_NO":"２０２號","E_COORD97":178657.44,"N_COORD97":2579063.0899999999,"ADDRESS":"新北街２０２號","OBJECTID":639044},"geometry":{"x":178657.44000000041,"y":2579063.0900000036}},{"attributes":{"ID":639072,"DIS_CODE":0,"TOWNNAME":"新營區","LI":"三仙里","LIN":"4鄰","STREET":"復興路","SECT":" ","MAREA":" ","LANE":" ","ALLEY":" ","HOUSE_NO":"３２號","E_COORD97":179655.70000000001,"N_COORD97":2578026.1600000001,"ADDRESS":"復興路３２號","OBJECTID":639045},"geometry":{"x":179655.70000000019,"y":2578026.160000002}},{"attributes":{"ID":639073,"DIS_CODE":0,"TOWNNAME":"新營區","LI":"民生里","LIN":" ","STREET":"進修街","SECT":" ","MAREA":" ","LANE":" ","ALLEY":" ","HOUSE_NO":"２５之１９號","E_COORD97":179094.75,"N_COORD97":2578445.2999999998,"ADDRESS":"進修街２５之１９號","OBJECTID":639046},"geometry":{"x":179094.75000000186,"y":2578445.2999999989}},{"attributes":{"ID":639074,"DIS_CODE":0,"TOWNNAME":"新營區","LI":"好平里","LIN":" ","STREET":"復興路","SECT":" ","MAREA":" ","LANE":" ","ALLEY":" ","HOUSE_NO":"１２７之１號","E_COORD97":179417.01000000001,"N_COORD97":2578041.7599999998,"ADDRESS":"復興路１２７之１號","OBJECTID":639047},"geometry":{"x":179417.01000000071,"y":2578041.7600000016}},{"attributes":{"ID":639075,"DIS_CODE":0,"TOWNNAME":"新營區","LI":"民生里","LIN":" ","STREET":"進修街","SECT":" ","MAREA":" ","LANE":" ","ALLEY":" ","HOUSE_NO":"２５之１號","E_COORD97":179015.85999999999,"N_COORD97":2578464.5,"ADDRESS":"進修街２５之１號","OBJECTID":639048},"geometry":{"x":179015.86000000034,"y":2578464.5000000019}},{"attributes":{"ID":639076,"DIS_CODE":0,"TOWNNAME":"新營區","LI":"民生里","LIN":" ","STREET":"復興路","SECT":" ","MAREA":" ","LANE":" ","ALLEY":" ","HOUSE_NO":"１８０之１號","E_COORD97":179094.73000000001,"N_COORD97":2578027.79,"ADDRESS":"復興路１８０之１號","OBJECTID":639049},"geometry":{"x":179094.73000000045,"y":2578027.790000001}},{"attributes":{"ID":639077,"DIS_CODE":0,"TOWNNAME":"新營區","LI":"埤寮里","LIN":" ","STREET":"中正路","SECT":" ","MAREA":" ","LANE":" ","ALLEY":" ","HOUSE_NO":"５９７號","E_COORD97":180104.97,"N_COORD97":2581071.75,"ADDRESS":"中正路５９７號","OBJECTID":639050},"geometry":{"x":180104.9700000016,"y":2581071.75}},{"attributes":{"ID":639078,"DIS_CODE":0,"TOWNNAME":"新營區","LI":"新東里","LIN":"20鄰","STREET":"東明街","SECT":" ","MAREA":" ","LANE":" ","ALLEY":" ","HOUSE_NO":"１２號","E_COORD97":180815.69,"N_COORD97":2579583.3100000001,"ADDRESS":"東明街１２號","OBJECTID":639051},"geometry":{"x":180815.69000000041,"y":2579583.3100000005}},{"attributes":{"ID":639079,"DIS_CODE":0,"TOWNNAME":"新營區","LI":"大宏里","LIN":" ","STREET":"大同路","SECT":" ","MAREA":" ","LANE":" ","ALLEY":" ","HOUSE_NO":"３０之３１號","E_COORD97":180724.95999999999,"N_COORD97":2578828.52,"ADDRESS":"大同路３０之３１號","OBJECTID":639052},"geometry":{"x":180724.95999999996,"y":2578828.5199999996}},{"attributes":{"ID":639080,"DIS_CODE":0,"TOWNNAME":"新營區","LI":"埤寮里","LIN":"13鄰","STREET":"中正路","SECT":" ","MAREA":" ","LANE":" ","ALLEY":" ","HOUSE_NO":"４２７號","E_COORD97":180044.82999999999,"N_COORD97":2580235.8999999999,"ADDRESS":"中正路４２７號","OBJECTID":639053},"geometry":{"x":180044.83000000007,"y":2580235.9000000022}},{"attributes":{"ID":639081,"DIS_CODE":0,"TOWNNAME":"新營區","LI":"新東里","LIN":"13鄰","STREET":"東興六街","SECT":" ","MAREA":" ","LANE":" ","ALLEY":" ","HOUSE_NO":"１０３號","E_COORD97":181006.59,"N_COORD97":2579239.1200000001,"ADDRESS":"東興六街１０３號","OBJECTID":639054},"geometry":{"x":181006.59000000078,"y":2579239.120000001}},{"attributes":{"ID":639082,"DIS_CODE":0,"TOWNNAME":"新營區","LI":"大宏里","LIN":"4鄰","STREET":"綠川北街","SECT":" ","MAREA":" ","LANE":" ","ALLEY":" ","HOUSE_NO":"１２７號","E_COORD97":180233.70000000001,"N_COORD97":2578662.4300000002,"ADDRESS":"綠川北街１２７號","OBJECTID":639055},"geometry":{"x":180233.70000000019,"y":2578662.4299999997}},{"attributes":{"ID":639083,"DIS_CODE":0,"TOWNNAME":"新營區","LI":"民榮里","LIN":"39鄰","STREET":"公園路","SECT":"二段","MAREA":" ","LANE":" ","ALLEY":" ","HOUSE_NO":"１５８號","E_COORD97":178339.48000000001,"N_COORD97":2577836.4500000002,"ADDRESS":"公園路二段１５８號","OBJECTID":639056},"geometry":{"x":178339.48000000138,"y":2577836.4500000011}},{"attributes":{"ID":639084,"DIS_CODE":0,"TOWNNAME":"新營區","LI":"中營里","LIN":"4鄰","STREET":"中山路","SECT":" ","MAREA":" ","LANE":" ","ALLEY":" ","HOUSE_NO":"４５號","E_COORD97":180646.54000000001,"N_COORD97":2578392.48,"ADDRESS":"中山路４５號","OBJECTID":639057},"geometry":{"x":180646.54000000004,"y":2578392.4800000004}},{"attributes":{"ID":639085,"DIS_CODE":0,"TOWNNAME":"新營區","LI":"三仙里","LIN":"4鄰","STREET":"復興路","SECT":" ","MAREA":" ","LANE":" ","ALLEY":" ","HOUSE_NO":"４２號之１","E_COORD97":179635.35999999999,"N_COORD97":2578036.2799999998,"ADDRESS":"復興路４２號之１","OBJECTID":639058},"geometry":{"x":179635.36000000127,"y":2578036.2799999993}},{"attributes":{"ID":639086,"DIS_CODE":0,"TOWNNAME":"新營區","LI":"三仙里","LIN":"4鄰","STREET":"復興路","SECT":" ","MAREA":" ","LANE":" ","ALLEY":" ","HOUSE_NO":"４２號之２","E_COORD97":179629.38,"N_COORD97":2578039.6299999999,"ADDRESS":"復興路４２號之２","OBJECTID":639059},"geometry":{"x":179629.38000000175,"y":2578039.629999999}},{"attributes":{"ID":639087,"DIS_CODE":0,"TOWNNAME":"新營區","LI":"延平里","LIN":"1鄰","STREET":"延平路","SECT":" ","MAREA":" ","LANE":" ","ALLEY":" ","HOUSE_NO":"４６之１５０號","E_COORD97":179686.38642200001,"N_COORD97":2577789.7944800002,"ADDRESS":"延平路４６之１５０號","OBJECTID":639060},"geometry":{"x":179686.38642200083,"y":2577789.7944780011}},{"attributes":{"ID":639088,"DIS_CODE":0,"TOWNNAME":"新營區","LI":"民生里","LIN":" ","STREET":"三民路","SECT":" ","MAREA":" ","LANE":" ","ALLEY":" ","HOUSE_NO":"１３５之３號","E_COORD97":179267.48000000001,"N_COORD97":2578217.4500000002,"ADDRESS":"三民路１３５之３號","OBJECTID":639061},"geometry":{"x":179267.48000000045,"y":2578217.4500000011}},{"attributes":{"ID":639089,"DIS_CODE":0,"TOWNNAME":"新營區","LI":"新北里","LIN":"32鄰","STREET":"新北街","SECT":" ","MAREA":" ","LANE":" ","ALLEY":" ","HOUSE_NO":"２４４號","E_COORD97":178635.42999999999,"N_COORD97":2579165.0800000001,"ADDRESS":"新北街２４４號","OBJECTID":639062},"geometry":{"x":178635.43000000156,"y":2579165.0800000038}},{"attributes":{"ID":639090,"DIS_CODE":0,"TOWNNAME":"新營區","LI":"大宏里","LIN":"4鄰","STREET":"綠川北街","SECT":" ","MAREA":" ","LANE":" ","ALLEY":" ","HOUSE_NO":"１２８號","E_COORD97":180233.70000000001,"N_COORD97":2578662.4300000002,"ADDRESS":"綠川北街１２８號","OBJECTID":639063},"geometry":{"x":180233.70000000019,"y":2578662.4299999997}},{"attributes":{"ID":639091,"DIS_CODE":0,"TOWNNAME":"新營區","LI":"土庫里","LIN":" ","STREET":"開元路","SECT":" ","MAREA":" ","LANE":" ","ALLEY":" ","HOUSE_NO":"２９７號","E_COORD97":182059.32000000001,"N_COORD97":2579950.7599999998,"ADDRESS":"開元路２９７號","OBJECTID":639064},"geometry":{"x":182059.31999999937,"y":2579950.7600000016}},{"attributes":{"ID":639092,"DIS_CODE":0,"TOWNNAME":"六甲區","LI":"水林里","LIN":"4鄰","STREET":"中山路","SECT":" ","MAREA":" ","LANE":" ","ALLEY":" ","HOUSE_NO":"２０８號","E_COORD97":183185.29000000001,"N_COORD97":2570115.23,"ADDRESS":"中山路２０８號","OBJECTID":639065},"geometry":{"x":183185.29000000097,"y":2570115.2300000004}},{"attributes":{"ID":639093,"DIS_CODE":0,"TOWNNAME":"六甲區","LI":"水林里","LIN":"4鄰","STREET":"中山路","SECT":" ","MAREA":" ","LANE":" ","ALLEY":" ","HOUSE_NO":"２１０號","E_COORD97":183168.20000000001,"N_COORD97":2570118.3100000001,"ADDRESS":"中山路２１０號","OBJECTID":639066},"geometry":{"x":183168.20000000019,"y":2570118.3100000042}},{"attributes":{"ID":639094,"DIS_CODE":0,"TOWNNAME":"六甲區","LI":"二甲里","LIN":"21鄰","STREET":"中山路","SECT":" ","MAREA":" ","LANE":" ","ALLEY":" ","HOUSE_NO":"２２３號","E_COORD97":183133.14000000001,"N_COORD97":2570090.04,"ADDRESS":"中山路２２３號","OBJECTID":639067},"geometry":{"x":183133.14000000153,"y":2570090.0399999991}},{"attributes":{"ID":639095,"DIS_CODE":0,"TOWNNAME":"六甲區","LI":"二甲里","LIN":"25鄰","STREET":"中山路","SECT":" ","MAREA":" ","LANE":" ","ALLEY":" ","HOUSE_NO":"２７９號","E_COORD97":183003.22,"N_COORD97":2570121.27,"ADDRESS":"中山路２７９號","OBJECTID":639068},"geometry":{"x":183003.21999999974,"y":2570121.2700000033}},{"attributes":{"ID":639096,"DIS_CODE":0,"TOWNNAME":"六甲區","LI":"二甲里","LIN":"9鄰","STREET":"中山路","SECT":" ","MAREA":" ","LANE":" ","ALLEY":" ","HOUSE_NO":"２６１號","E_COORD97":183052.64999999999,"N_COORD97":2570108.48,"ADDRESS":"中山路２６１號","OBJECTID":639069},"geometry":{"x":183052.6500000013,"y":2570108.4800000023}},{"attributes":{"ID":639097,"DIS_CODE":0,"TOWNNAME":"六甲區","LI":"二甲里","LIN":"9鄰","STREET":"中山路","SECT":" ","MAREA":" ","LANE":" ","ALLEY":" ","HOUSE_NO":"２６５號","E_COORD97":183042.45000000001,"N_COORD97":2570110.23,"ADDRESS":"中山路２６５號","OBJECTID":639070},"geometry":{"x":183042.45000000112,"y":2570110.2300000023}},{"attributes":{"ID":639098,"DIS_CODE":0,"TOWNNAME":"六甲區","LI":"二甲里","LIN":"25鄰","STREET":"中山路","SECT":" ","MAREA":" ","LANE":" ","ALLEY":" ","HOUSE_NO":"２８１號","E_COORD97":182998.01000000001,"N_COORD97":2570122.3300000001,"ADDRESS":"中山路２８１號","OBJECTID":639071},"geometry":{"x":182998.00999999978,"y":2570122.3300000019}},{"attributes":{"ID":639099,"DIS_CODE":0,"TOWNNAME":"六甲區","LI":"二甲里","LIN":"25鄰","STREET":"中山路","SECT":" ","MAREA":" ","LANE":" ","ALLEY":" ","HOUSE_NO":"２８３號","E_COORD97":182994.04999999999,"N_COORD97":2570123.1299999999,"ADDRESS":"中山路２８３號","OBJECTID":639072},"geometry":{"x":182994.04999999981,"y":2570123.129999999}},{"attributes":{"ID":639100,"DIS_CODE":0,"TOWNNAME":"六甲區","LI":"二甲里","LIN":"25鄰","STREET":"中山路","SECT":" ","MAREA":" ","LANE":" ","ALLEY":" ","HOUSE_NO":"３２７號","E_COORD97":182880.82999999999,"N_COORD97":2570135.5299999998,"ADDRESS":"中山路３２７號","OBJECTID":639073},"geometry":{"x":182880.83000000007,"y":2570135.5299999993}},{"attributes":{"ID":639101,"DIS_CODE":0,"TOWNNAME":"六甲區","LI":"二甲里","LIN":"25鄰","STREET":"中山路","SECT":" ","MAREA":" ","LANE":" ","ALLEY":" ","HOUSE_NO":"３３１號","E_COORD97":182873.29000000001,"N_COORD97":2570155.8199999998,"ADDRESS":"中山路３３１號","OBJECTID":639074},"geometry":{"x":182873.29000000097,"y":2570155.8200000022}},{"attributes":{"ID":639102,"DIS_CODE":0,"TOWNNAME":"六甲區","LI":"水林里","LIN":"6鄰","STREET":"中山路","SECT":" ","MAREA":" ","LANE":" ","ALLEY":" ","HOUSE_NO":"４１６號之１","E_COORD97":182704.67999999999,"N_COORD97":2570238.2400000002,"ADDRESS":"中山路４１６號之１","OBJECTID":639075},"geometry":{"x":182704.68000000063,"y":2570238.2400000021}},{"attributes":{"ID":639103,"DIS_CODE":0,"TOWNNAME":"六甲區","LI":"水林里","LIN":"6鄰","STREET":"中山路","SECT":" ","MAREA":" ","LANE":" ","ALLEY":" ","HOUSE_NO":"４１６號","E_COORD97":182709.19,"N_COORD97":2570263.7999999998,"ADDRESS":"中山路４１６號","OBJECTID":639076},"geometry":{"x":182709.19000000041,"y":2570263.8000000007}},{"attributes":{"ID":639104,"DIS_CODE":0,"TOWNNAME":"六甲區","LI":"水林里","LIN":"6鄰","STREET":"中山路","SECT":" ","MAREA":" ","LANE":" ","ALLEY":" ","HOUSE_NO":"４１８號","E_COORD97":182698.57999999999,"N_COORD97":2570253.5,"ADDRESS":"中山路４１８號","OBJECTID":639077},"geometry":{"x":182698.58000000101,"y":2570253.5000000019}},{"attributes":{"ID":639105,"DIS_CODE":0,"TOWNNAME":"六甲區","LI":"水林里","LIN":"6鄰","STREET":"中山路","SECT":" ","MAREA":" ","LANE":" ","ALLEY":" ","HOUSE_NO":"４２０號","E_COORD97":182694.25,"N_COORD97":2570254.5099999998,"ADDRESS":"中山路４２０號","OBJECTID":639078},"geometry":{"x":182694.25000000093,"y":2570254.5099999998}},{"attributes":{"ID":639106,"DIS_CODE":0,"TOWNNAME":"六甲區","LI":"水林里","LIN":"6鄰","STREET":"中山路","SECT":" ","MAREA":" ","LANE":" ","ALLEY":" ","HOUSE_NO":"４２２號","E_COORD97":182670.63,"N_COORD97":2570243.79,"ADDRESS":"中山路４２２號","OBJECTID":639079},"geometry":{"x":182670.63000000175,"y":2570243.790000001}},{"attributes":{"ID":639107,"DIS_CODE":0,"TOWNNAME":"六甲區","LI":"六甲里","LIN":"23鄰","STREET":"中山路","SECT":" ","MAREA":" ","LANE":" ","ALLEY":" ","HOUSE_NO":"４１號","E_COORD97":183546.76000000001,"N_COORD97":2569984.2799999998,"ADDRESS":"中山路４１號","OBJECTID":639080},"geometry":{"x":183546.76000000071,"y":2569984.2799999993}},{"attributes":{"ID":639108,"DIS_CODE":0,"TOWNNAME":"六甲區","LI":"六甲里","LIN":"27鄰","STREET":"中山路","SECT":" ","MAREA":" ","LANE":" ","ALLEY":" ","HOUSE_NO":"４２號之１","E_COORD97":183530.29000000001,"N_COORD97":2570015.4199999999,"ADDRESS":"中山路４２號之１","OBJECTID":639081},"geometry":{"x":183530.29000000004,"y":2570015.4200000037}},{"attributes":{"ID":639109,"DIS_CODE":0,"TOWNNAME":"六甲區","LI":"六甲里","LIN":"27鄰","STREET":"中山路","SECT":" ","MAREA":" ","LANE":" ","ALLEY":" ","HOUSE_NO":"４２號","E_COORD97":183534.42000000001,"N_COORD97":2570014.02,"ADDRESS":"中山路４２號","OBJECTID":639082},"geometry":{"x":183534.41999999993,"y":2570014.0199999977}},{"attributes":{"ID":639110,"DIS_CODE":0,"TOWNNAME":"六甲區","LI":"水林里","LIN":"6鄰","STREET":"中山路","SECT":" ","MAREA":" ","LANE":" ","ALLEY":" ","HOUSE_NO":"５０８號","E_COORD97":182406.42999999999,"N_COORD97":2570333.0299999998,"ADDRESS":"中山路５０８號","OBJECTID":639083},"geometry":{"x":182406.43000000063,"y":2570333.0300000012}},{"attributes":{"ID":639111,"DIS_CODE":0,"TOWNNAME":"六甲區","LI":"水林里","LIN":"6鄰","STREET":"中山路","SECT":" ","MAREA":" ","LANE":" ","ALLEY":" ","HOUSE_NO":"５１８號","E_COORD97":182442.09,"N_COORD97":2570305.5099999998,"ADDRESS":"中山路５１８號","OBJECTID":639084},"geometry":{"x":182442.09000000171,"y":2570305.5099999998}},{"attributes":{"ID":639112,"DIS_CODE":0,"TOWNNAME":"六甲區","LI":"龍湖里","LIN":"15鄰","STREET":"中正路","SECT":" ","MAREA":" ","LANE":" ","ALLEY":" ","HOUSE_NO":"１００號","E_COORD97":183446.53,"N_COORD97":2568777.1899999999,"ADDRESS":"中正路１００號","OBJECTID":639085},"geometry":{"x":183446.53000000119,"y":2568777.1900000013}},{"attributes":{"ID":639113,"DIS_CODE":0,"TOWNNAME":"六甲區","LI":"龍湖里","LIN":"15鄰","STREET":"中正路","SECT":" ","MAREA":" ","LANE":" ","ALLEY":" ","HOUSE_NO":"１０２號","E_COORD97":183446.28,"N_COORD97":2568781.6600000001,"ADDRESS":"中正路１０２號","OBJECTID":639086},"geometry":{"x":183446.28000000212,"y":2568781.6600000001}},{"attributes":{"ID":639114,"DIS_CODE":0,"TOWNNAME":"六甲區","LI":"甲南里","LIN":"22鄰","STREET":"中正路","SECT":" ","MAREA":" ","LANE":" ","ALLEY":" ","HOUSE_NO":"３７４號","E_COORD97":183624.76999999999,"N_COORD97":2569512.4500000002,"ADDRESS":"中正路３７４號","OBJECTID":639087},"geometry":{"x":183624.76999999955,"y":2569512.4499999974}},{"attributes":{"ID":639115,"DIS_CODE":0,"TOWNNAME":"六甲區","LI":"甲南里","LIN":"22鄰","STREET":"中正路","SECT":" ","MAREA":" ","LANE":" ","ALLEY":" ","HOUSE_NO":"３７６號","E_COORD97":183626.64999999999,"N_COORD97":2569517,"ADDRESS":"中正路３７６號","OBJECTID":639088},"geometry":{"x":183626.65000000037,"y":2569517.0000000019}},{"attributes":{"ID":639116,"DIS_CODE":0,"TOWNNAME":"六甲區","LI":"甲南里","LIN":"22鄰","STREET":"中正路","SECT":" ","MAREA":" ","LANE":" ","ALLEY":" ","HOUSE_NO":"３７８號","E_COORD97":183628.82000000001,"N_COORD97":2569521.4500000002,"ADDRESS":"中正路３７８號","OBJECTID":639089},"geometry":{"x":183628.8200000003,"y":2569521.4499999993}},{"attributes":{"ID":639117,"DIS_CODE":0,"TOWNNAME":"六甲區","LI":"甲南里","LIN":"22鄰","STREET":"中正路","SECT":" ","MAREA":" ","LANE":" ","ALLEY":" ","HOUSE_NO":"３８０號","E_COORD97":183630.64000000001,"N_COORD97":2569525.46,"ADDRESS":"中正路３８０號","OBJECTID":639090},"geometry":{"x":183630.63999999966,"y":2569525.4600000028}},{"attributes":{"ID":639118,"DIS_CODE":0,"TOWNNAME":"六甲區","LI":"甲南里","LIN":"22鄰","STREET":"中正路","SECT":" ","MAREA":" ","LANE":" ","ALLEY":" ","HOUSE_NO":"３８２號","E_COORD97":183632.53,"N_COORD97":2569529.73,"ADDRESS":"中正路３８２號","OBJECTID":639091},"geometry":{"x":183632.53000000026,"y":2569529.7300000023}},{"attributes":{"ID":639119,"DIS_CODE":0,"TOWNNAME":"六甲區","LI":"甲南里","LIN":"22鄰","STREET":"中正路","SECT":" ","MAREA":" ","LANE":" ","ALLEY":" ","HOUSE_NO":"３８４號","E_COORD97":183633.66,"N_COORD97":2569534.0699999998,"ADDRESS":"中正路３８４號","OBJECTID":639092},"geometry":{"x":183633.66000000108,"y":2569534.0700000022}},{"attributes":{"ID":639120,"DIS_CODE":0,"TOWNNAME":"六甲區","LI":"七甲里","LIN":"12鄰","STREET":"中正路","SECT":" ","MAREA":" ","LANE":" ","ALLEY":" ","HOUSE_NO":"３９號","E_COORD97":183394.20000000001,"N_COORD97":2568620.23,"ADDRESS":"中正路３９號","OBJECTID":639093},"geometry":{"x":183394.20000000205,"y":2568620.2300000042}},{"attributes":{"ID":639121,"DIS_CODE":0,"TOWNNAME":"六甲區","LI":"七甲里","LIN":"12鄰","STREET":"中正路","SECT":" ","MAREA":" ","LANE":" ","ALLEY":" ","HOUSE_NO":"３號之１","E_COORD97":183392.28,"N_COORD97":2568353.9100000001,"ADDRESS":"中正路３號之１","OBJECTID":639094},"geometry":{"x":183392.28000000119,"y":2568353.9100000001}},{"attributes":{"ID":639122,"DIS_CODE":0,"TOWNNAME":"六甲區","LI":"龍湖里","LIN":"15鄰","STREET":"中正路","SECT":" ","MAREA":" ","LANE":" ","ALLEY":" ","HOUSE_NO":"７６號","E_COORD97":183457.79999999999,"N_COORD97":2568746.3399999999,"ADDRESS":"中正路７６號","OBJECTID":639095},"geometry":{"x":183457.80000000075,"y":2568746.3399999999}},{"attributes":{"ID":639123,"DIS_CODE":0,"TOWNNAME":"六甲區","LI":"水林里","LIN":"17鄰","STREET":"中正路","SECT":" ","MAREA":" ","LANE":" ","ALLEY":" ","HOUSE_NO":"６０１號","E_COORD97":183642.95000000001,"N_COORD97":2570166.1299999999,"ADDRESS":"中正路６０１號","OBJECTID":639096},"geometry":{"x":183642.95000000019,"y":2570166.1300000008}},{"attributes":{"ID":639124,"DIS_CODE":0,"TOWNNAME":"六甲區","LI":"水林里","LIN":"17鄰","STREET":"中正路","SECT":" ","MAREA":" ","LANE":" ","ALLEY":" ","HOUSE_NO":"６０３號","E_COORD97":183643.75,"N_COORD97":2570170.0099999998,"ADDRESS":"中正路６０３號","OBJECTID":639097},"geometry":{"x":183643.75000000093,"y":2570170.0099999998}},{"attributes":{"ID":639125,"DIS_CODE":0,"TOWNNAME":"六甲區","LI":"水林里","LIN":"17鄰","STREET":"中正路","SECT":" ","MAREA":" ","LANE":" ","ALLEY":" ","HOUSE_NO":"６０５號","E_COORD97":183644.23000000001,"N_COORD97":2570173.6299999999,"ADDRESS":"中正路６０５號","OBJECTID":639098},"geometry":{"x":183644.23000000138,"y":2570173.6300000008}},{"attributes":{"ID":639126,"DIS_CODE":0,"TOWNNAME":"六甲區","LI":"水林里","LIN":"17鄰","STREET":"中正路","SECT":" ","MAREA":" ","LANE":" ","ALLEY":" ","HOUSE_NO":"６０７號","E_COORD97":183645.42000000001,"N_COORD97":2570177.5499999998,"ADDRESS":"中正路６０７號","OBJECTID":639099},"geometry":{"x":183645.42000000086,"y":2570177.5500000007}},{"attributes":{"ID":639127,"DIS_CODE":0,"TOWNNAME":"六甲區","LI":"水林里","LIN":"17鄰","STREET":"中正路","SECT":" ","MAREA":" ","LANE":" ","ALLEY":" ","HOUSE_NO":"６０９號","E_COORD97":183646.42000000001,"N_COORD97":2570181.0800000001,"ADDRESS":"中正路６０９號","OBJECTID":639100},"geometry":{"x":183646.41999999993,"y":2570181.0800000019}},{"attributes":{"ID":639128,"DIS_CODE":0,"TOWNNAME":"六甲區","LI":"水林里","LIN":"17鄰","STREET":"中正路","SECT":" ","MAREA":" ","LANE":" ","ALLEY":" ","HOUSE_NO":"６１１號","E_COORD97":183647.39000000001,"N_COORD97":2570184.9199999999,"ADDRESS":"中正路６１１號","OBJECTID":639101},"geometry":{"x":183647.3900000006,"y":2570184.9200000037}},{"attributes":{"ID":639129,"DIS_CODE":0,"TOWNNAME":"六甲區","LI":"水林里","LIN":"17鄰","STREET":"中正路","SECT":" ","MAREA":" ","LANE":" ","ALLEY":" ","HOUSE_NO":"６１３號","E_COORD97":183648.06,"N_COORD97":2570188.8399999999,"ADDRESS":"中正路６１３號","OBJECTID":639102},"geometry":{"x":183648.05999999959,"y":2570188.8400000036}},{"attributes":{"ID":639130,"DIS_CODE":0,"TOWNNAME":"六甲區","LI":"水林里","LIN":"17鄰","STREET":"中正路","SECT":" ","MAREA":" ","LANE":" ","ALLEY":" ","HOUSE_NO":"６１５號","E_COORD97":183649.23999999999,"N_COORD97":2570193.46,"ADDRESS":"中正路６１５號","OBJECTID":639103},"geometry":{"x":183649.24000000022,"y":2570193.4600000028}},{"attributes":{"ID":639131,"DIS_CODE":0,"TOWNNAME":"六甲區","LI":"水林里","LIN":"17鄰","STREET":"中正路","SECT":" ","MAREA":" ","LANE":" ","ALLEY":" ","HOUSE_NO":"６１７號","E_COORD97":183649.97,"N_COORD97":2570197.8100000001,"ADDRESS":"中正路６１７號","OBJECTID":639104},"geometry":{"x":183649.97000000067,"y":2570197.8100000024}},{"attributes":{"ID":639132,"DIS_CODE":0,"TOWNNAME":"六甲區","LI":"水林里","LIN":"17鄰","STREET":"中正路","SECT":" ","MAREA":" ","LANE":" ","ALLEY":" ","HOUSE_NO":"６１９號","E_COORD97":183651.39999999999,"N_COORD97":2570203.5600000001,"ADDRESS":"中正路６１９號","OBJECTID":639105},"geometry":{"x":183651.4000000013,"y":2570203.5600000005}},{"attributes":{"ID":639133,"DIS_CODE":0,"TOWNNAME":"六甲區","LI":"六甲里","LIN":"26鄰","STREET":"中正路","SECT":" ","MAREA":" ","LANE":" ","ALLEY":" ","HOUSE_NO":"６７５號","E_COORD97":183754.04000000001,"N_COORD97":2570274.4700000002,"ADDRESS":"中正路６７５號","OBJECTID":639106},"geometry":{"x":183754.04000000004,"y":2570274.4700000025}},{"attributes":{"ID":639134,"DIS_CODE":0,"TOWNNAME":"六甲區","LI":"龍湖里","LIN":"15鄰","STREET":"中正路","SECT":" ","MAREA":" ","LANE":" ","ALLEY":" ","HOUSE_NO":"７２號","E_COORD97":183452.67000000001,"N_COORD97":2568708.0800000001,"ADDRESS":"中正路７２號","OBJECTID":639107},"geometry":{"x":183452.67000000086,"y":2568708.0800000001}},{"attributes":{"ID":639135,"DIS_CODE":0,"TOWNNAME":"六甲區","LI":"甲東里","LIN":"7鄰","STREET":"中正路","SECT":" ","MAREA":" ","LANE":" ","ALLEY":" ","HOUSE_NO":"８０６號","E_COORD97":183920.44,"N_COORD97":2570268.3599999999,"ADDRESS":"中正路８０６號","OBJECTID":639108},"geometry":{"x":183920.44000000134,"y":2570268.3599999994}},{"attributes":{"ID":639136,"DIS_CODE":0,"TOWNNAME":"六甲區","LI":"甲東里","LIN":"7鄰","STREET":"中正路","SECT":" ","MAREA":" ","LANE":" ","ALLEY":" ","HOUSE_NO":"８０８號","E_COORD97":183920.42000000001,"N_COORD97":2570272.71,"ADDRESS":"中正路８０８號","OBJECTID":639109},"geometry":{"x":183920.42000000086,"y":2570272.7100000028}},{"attributes":{"ID":639137,"DIS_CODE":0,"TOWNNAME":"六甲區","LI":"甲東里","LIN":"7鄰","STREET":"中正路","SECT":" ","MAREA":" ","LANE":" ","ALLEY":" ","HOUSE_NO":"８１２號之１","E_COORD97":183920.76999999999,"N_COORD97":2570331.1099999999,"ADDRESS":"中正路８１２號之１","OBJECTID":639110},"geometry":{"x":183920.77000000048,"y":2570331.1099999994}},{"attributes":{"ID":639138,"DIS_CODE":0,"TOWNNAME":"六甲區","LI":"甲東里","LIN":"7鄰","STREET":"中正路","SECT":" ","MAREA":" ","LANE":" ","ALLEY":" ","HOUSE_NO":"８１２號之２","E_COORD97":183921.95000000001,"N_COORD97":2570337.96,"ADDRESS":"中正路８１２號之２","OBJECTID":639111},"geometry":{"x":183921.95000000112,"y":2570337.959999999}},{"attributes":{"ID":639139,"DIS_CODE":0,"TOWNNAME":"六甲區","LI":"甲東里","LIN":"7鄰","STREET":"中正路","SECT":" ","MAREA":" ","LANE":" ","ALLEY":" ","HOUSE_NO":"８１２號之３","E_COORD97":183922.44,"N_COORD97":2570344.1600000001,"ADDRESS":"中正路８１２號之３","OBJECTID":639112},"geometry":{"x":183922.44000000134,"y":2570344.160000002}},{"attributes":{"ID":639140,"DIS_CODE":0,"TOWNNAME":"六甲區","LI":"甲東里","LIN":"7鄰","STREET":"中正路","SECT":" ","MAREA":" ","LANE":" ","ALLEY":" ","HOUSE_NO":"８１２號之５","E_COORD97":183922.70999999999,"N_COORD97":2570349.9500000002,"ADDRESS":"中正路８１２號之５","OBJECTID":639113},"geometry":{"x":183922.70999999996,"y":2570349.9499999974}},{"attributes":{"ID":639141,"DIS_CODE":0,"TOWNNAME":"六甲區","LI":"七甲里","LIN":"12鄰","STREET":"中正路","SECT":" ","MAREA":" ","LANE":" ","ALLEY":" ","HOUSE_NO":"７號","E_COORD97":183405.79999999999,"N_COORD97":2568379.9500000002,"ADDRESS":"中正路７號","OBJECTID":639114},"geometry":{"x":183405.80000000075,"y":2568379.9499999993}},{"attributes":{"ID":639142,"DIS_CODE":0,"TOWNNAME":"六甲區","LI":"甲南里","LIN":"25鄰","STREET":"中華路","SECT":" ","MAREA":" ","LANE":" ","ALLEY":" ","HOUSE_NO":"２０號","E_COORD97":183681.06,"N_COORD97":2569395.5899999999,"ADDRESS":"中華路２０號","OBJECTID":639115},"geometry":{"x":183681.06000000145,"y":2569395.5899999999}},{"attributes":{"ID":639143,"DIS_CODE":0,"TOWNNAME":"六甲區","LI":"二甲里","LIN":"26鄰","STREET":"中華路","SECT":" ","MAREA":" ","LANE":" ","ALLEY":" ","HOUSE_NO":"１１０號","E_COORD97":183157.39999999999,"N_COORD97":2569312.4399999999,"ADDRESS":"中華路１１０號","OBJECTID":639116},"geometry":{"x":183157.39999999944,"y":2569312.4399999995}},{"attributes":{"ID":639144,"DIS_CODE":0,"TOWNNAME":"六甲區","LI":"六甲里","LIN":"30鄰","STREET":"中華路","SECT":" ","MAREA":" ","LANE":" ","ALLEY":" ","HOUSE_NO":"１０１號","E_COORD97":183391.04000000001,"N_COORD97":2569329.5099999998,"ADDRESS":"中華路１０１號","OBJECTID":639117},"geometry":{"x":183391.04000000004,"y":2569329.5099999979}},{"attributes":{"ID":639145,"DIS_CODE":0,"TOWNNAME":"六甲區","LI":"六甲里","LIN":"30鄰","STREET":"中華路","SECT":" ","MAREA":" ","LANE":" ","ALLEY":" ","HOUSE_NO":"１０３號","E_COORD97":183385.94,"N_COORD97":2569328.4900000002,"ADDRESS":"中華路１０３號","OBJECTID":639118},"geometry":{"x":183385.94000000041,"y":2569328.4900000021}},{"attributes":{"ID":639146,"DIS_CODE":0,"TOWNNAME":"六甲區","LI":"六甲里","LIN":"30鄰","STREET":"中華路","SECT":" ","MAREA":" ","LANE":" ","ALLEY":" ","HOUSE_NO":"１０５號","E_COORD97":183381.35999999999,"N_COORD97":2569327.8799999999,"ADDRESS":"中華路１０５號","OBJECTID":639119},"geometry":{"x":183381.3599999994,"y":2569327.8800000008}},{"attributes":{"ID":639147,"DIS_CODE":0,"TOWNNAME":"六甲區","LI":"六甲里","LIN":"30鄰","STREET":"中華路","SECT":" ","MAREA":" ","LANE":" ","ALLEY":" ","HOUSE_NO":"１０７號","E_COORD97":183375.73000000001,"N_COORD97":2569325.3300000001,"ADDRESS":"中華路１０７號","OBJECTID":639120},"geometry":{"x":183375.73000000231,"y":2569325.3300000019}},{"attributes":{"ID":639148,"DIS_CODE":0,"TOWNNAME":"六甲區","LI":"六甲里","LIN":"30鄰","STREET":"中華路","SECT":" ","MAREA":" ","LANE":" ","ALLEY":" ","HOUSE_NO":"１０９號","E_COORD97":183370.92000000001,"N_COORD97":2569324.29,"ADDRESS":"中華路１０９號","OBJECTID":639121},"geometry":{"x":183370.92000000086,"y":2569324.290000001}},{"attributes":{"ID":639149,"DIS_CODE":0,"TOWNNAME":"六甲區","LI":"六甲里","LIN":"30鄰","STREET":"中華路","SECT":" ","MAREA":" ","LANE":" ","ALLEY":" ","HOUSE_NO":"１１１號","E_COORD97":183364.88,"N_COORD97":2569323.3599999999,"ADDRESS":"中華路１１１號","OBJECTID":639122},"geometry":{"x":183364.87999999989,"y":2569323.3599999975}},{"attributes":{"ID":639150,"DIS_CODE":0,"TOWNNAME":"六甲區","LI":"六甲里","LIN":"30鄰","STREET":"中華路","SECT":" ","MAREA":" ","LANE":" ","ALLEY":" ","HOUSE_NO":"１１３號","E_COORD97":183359.87,"N_COORD97":2569322.0499999998,"ADDRESS":"中華路１１３號","OBJECTID":639123},"geometry":{"x":183359.87000000104,"y":2569322.0500000007}},{"attributes":{"ID":639151,"DIS_CODE":0,"TOWNNAME":"六甲區","LI":"六甲里","LIN":"30鄰","STREET":"中華路","SECT":" ","MAREA":" ","LANE":" ","ALLEY":" ","HOUSE_NO":"１１５號","E_COORD97":183354.82000000001,"N_COORD97":2569321.4100000001,"ADDRESS":"中華路１１５號","OBJECTID":639124},"geometry":{"x":183354.82000000123,"y":2569321.410000002}},{"attributes":{"ID":639152,"DIS_CODE":0,"TOWNNAME":"六甲區","LI":"六甲里","LIN":"30鄰","STREET":"中華路","SECT":" ","MAREA":" ","LANE":" ","ALLEY":" ","HOUSE_NO":"１１７號","E_COORD97":183349.38,"N_COORD97":2569319.6499999999,"ADDRESS":"中華路１１７號","OBJECTID":639125},"geometry":{"x":183349.38000000082,"y":2569319.6500000022}},{"attributes":{"ID":639153,"DIS_CODE":0,"TOWNNAME":"六甲區","LI":"二甲里","LIN":"17鄰","STREET":"中華路","SECT":" ","MAREA":" ","LANE":" ","ALLEY":" ","HOUSE_NO":"１５０號","E_COORD97":183098.85999999999,"N_COORD97":2569282.3300000001,"ADDRESS":"中華路１５０號","OBJECTID":639126},"geometry":{"x":183098.86000000127,"y":2569282.3300000001}},{"attributes":{"ID":639154,"DIS_CODE":0,"TOWNNAME":"六甲區","LI":"二甲里","LIN":"17鄰","STREET":"中華路","SECT":" ","MAREA":" ","LANE":" ","ALLEY":" ","HOUSE_NO":"１５４號之１","E_COORD97":183085.85000000001,"N_COORD97":2569277.0899999999,"ADDRESS":"中華路１５４號之１","OBJECTID":639127},"geometry":{"x":183085.85000000149,"y":2569277.0899999999}},{"attributes":{"ID":639155,"DIS_CODE":0,"TOWNNAME":"六甲區","LI":"二甲里","LIN":"17鄰","STREET":"中華路","SECT":" ","MAREA":" ","LANE":" ","ALLEY":" ","HOUSE_NO":"１５４號","E_COORD97":183080.07000000001,"N_COORD97":2569278.8300000001,"ADDRESS":"中華路１５４號","OBJECTID":639128},"geometry":{"x":183080.07000000216,"y":2569278.8300000001}},{"attributes":{"ID":639156,"DIS_CODE":0,"TOWNNAME":"六甲區","LI":"龍湖里","LIN":"6鄰","STREET":"中華路","SECT":" ","MAREA":" ","LANE":" ","ALLEY":" ","HOUSE_NO":"１５８號","E_COORD97":183066.25,"N_COORD97":2569269.98,"ADDRESS":"中華路１５８號","OBJECTID":639129},"geometry":{"x":183066.25,"y":2569269.9800000023}},{"attributes":{"ID":639157,"DIS_CODE":0,"TOWNNAME":"六甲區","LI":"龍湖里","LIN":"6鄰","STREET":"中華路","SECT":" ","MAREA":" ","LANE":" ","ALLEY":" ","HOUSE_NO":"１６０號","E_COORD97":183063.26999999999,"N_COORD97":2569269.5600000001,"ADDRESS":"中華路１６０號","OBJECTID":639130},"geometry":{"x":183063.27000000048,"y":2569269.5600000024}},{"attributes":{"ID":639158,"DIS_CODE":0,"TOWNNAME":"六甲區","LI":"龍湖里","LIN":"6鄰","STREET":"中華路","SECT":" ","MAREA":" ","LANE":" ","ALLEY":" ","HOUSE_NO":"１６２號","E_COORD97":183060.07999999999,"N_COORD97":2569270.21,"ADDRESS":"中華路１６２號","OBJECTID":639131},"geometry":{"x":183060.08000000101,"y":2569270.2100000028}},{"attributes":{"ID":639159,"DIS_CODE":0,"TOWNNAME":"六甲區","LI":"六甲里","LIN":"29鄰","STREET":"中華路","SECT":" ","MAREA":" ","LANE":" ","ALLEY":" ","HOUSE_NO":"１５１號","E_COORD97":183276.23000000001,"N_COORD97":2569302.1600000001,"ADDRESS":"中華路１５１號","OBJECTID":639132},"geometry":{"x":183276.23000000138,"y":2569302.1600000039}},{"attributes":{"ID":639160,"DIS_CODE":0,"TOWNNAME":"六甲區","LI":"六甲里","LIN":"29鄰","STREET":"中華路","SECT":" ","MAREA":" ","LANE":" ","ALLEY":" ","HOUSE_NO":"１５５號","E_COORD97":183267.16,"N_COORD97":2569299.9300000002,"ADDRESS":"中華路１５５號","OBJECTID":639133},"geometry":{"x":183267.16000000015,"y":2569299.9300000034}},{"attributes":{"ID":639161,"DIS_CODE":0,"TOWNNAME":"六甲區","LI":"七甲里","LIN":"4鄰","STREET":"中華路","SECT":" ","MAREA":" ","LANE":" ","ALLEY":" ","HOUSE_NO":"２４５號","E_COORD97":182993.17999999999,"N_COORD97":2569220.3500000001,"ADDRESS":"中華路２４５號","OBJECTID":639134},"geometry":{"x":182993.1799999997,"y":2569220.3500000015}},{"attributes":{"ID":639162,"DIS_CODE":0,"TOWNNAME":"六甲區","LI":"七甲里","LIN":"4鄰","STREET":"中華路","SECT":" ","MAREA":" ","LANE":" ","ALLEY":" ","HOUSE_NO":"２５１號","E_COORD97":182992.64999999999,"N_COORD97":2569214.1699999999,"ADDRESS":"中華路２５１號","OBJECTID":639135},"geometry":{"x":182992.65000000037,"y":2569214.1700000018}},{"attributes":{"ID":639163,"DIS_CODE":0,"TOWNNAME":"六甲區","LI":"龍湖里","LIN":"6鄰","STREET":"中華路","SECT":" ","MAREA":" ","LANE":" ","ALLEY":" ","HOUSE_NO":"２３３號","E_COORD97":183045.23999999999,"N_COORD97":2569237.0899999999,"ADDRESS":"中華路２３３號","OBJECTID":639136},"geometry":{"x":183045.24000000115,"y":2569237.0899999999}},{"attributes":{"ID":639164,"DIS_CODE":0,"TOWNNAME":"六甲區","LI":"龍湖里","LIN":"6鄰","STREET":"中華路","SECT":" ","MAREA":" ","LANE":" ","ALLEY":" ","HOUSE_NO":"２３５之３號","E_COORD97":183003.95999999999,"N_COORD97":2569233.29,"ADDRESS":"中華路２３５之３號","OBJECTID":639137},"geometry":{"x":183003.95999999903,"y":2569233.290000001}},{"attributes":{"ID":639165,"DIS_CODE":0,"TOWNNAME":"六甲區","LI":"龍湖里","LIN":"6鄰","STREET":"中華路","SECT":" ","MAREA":" ","LANE":" ","ALLEY":" ","HOUSE_NO":"２３５號","E_COORD97":183037.57000000001,"N_COORD97":2569213.7999999998,"ADDRESS":"中華路２３５號","OBJECTID":639138},"geometry":{"x":183037.57000000216,"y":2569213.8000000026}},{"attributes":{"ID":639166,"DIS_CODE":0,"TOWNNAME":"六甲區","LI":"七甲里","LIN":"4鄰","STREET":"中華路","SECT":" ","MAREA":" ","LANE":" ","ALLEY":" ","HOUSE_NO":"２５７號","E_COORD97":182987.39999999999,"N_COORD97":2569206.8900000001,"ADDRESS":"中華路２５７號","OBJECTID":639139},"geometry":{"x":182987.40000000037,"y":2569206.8900000025}},{"attributes":{"ID":639167,"DIS_CODE":0,"TOWNNAME":"六甲區","LI":"七甲里","LIN":"4鄰","STREET":"中華路","SECT":" ","MAREA":" ","LANE":" ","ALLEY":" ","HOUSE_NO":"２５９號","E_COORD97":182986.12,"N_COORD97":2569201.3500000001,"ADDRESS":"中華路２５９號","OBJECTID":639140},"geometry":{"x":182986.12000000197,"y":2569201.3499999996}},{"attributes":{"ID":639168,"DIS_CODE":0,"TOWNNAME":"六甲區","LI":"七甲里","LIN":"4鄰","STREET":"中華路","SECT":" ","MAREA":" ","LANE":" ","ALLEY":" ","HOUSE_NO":"２６１號","E_COORD97":182968.67999999999,"N_COORD97":2569176.7799999998,"ADDRESS":"中華路２６１號","OBJECTID":639141},"geometry":{"x":182968.68000000063,"y":2569176.7799999993}},{"attributes":{"ID":639169,"DIS_CODE":0,"TOWNNAME":"六甲區","LI":"七甲里","LIN":"4鄰","STREET":"中華路","SECT":" ","MAREA":" ","LANE":" ","ALLEY":" ","HOUSE_NO":"２６３號","E_COORD97":182964.23999999999,"N_COORD97":2569177.0499999998,"ADDRESS":"中華路２６３號","OBJECTID":639142},"geometry":{"x":182964.24000000115,"y":2569177.0500000007}},{"attributes":{"ID":639170,"DIS_CODE":0,"TOWNNAME":"六甲區","LI":"七甲里","LIN":"4鄰","STREET":"中華路","SECT":" ","MAREA":" ","LANE":" ","ALLEY":" ","HOUSE_NO":"２６５號","E_COORD97":182963.13,"N_COORD97":2569157.6000000001,"ADDRESS":"中華路２６５號","OBJECTID":639143},"geometry":{"x":182963.12999999989,"y":2569157.6000000015}},{"attributes":{"ID":639171,"DIS_CODE":0,"TOWNNAME":"六甲區","LI":"七甲里","LIN":"4鄰","STREET":"中華路","SECT":" ","MAREA":" ","LANE":" ","ALLEY":" ","HOUSE_NO":"２７７號","E_COORD97":182928.88,"N_COORD97":2569163.1800000002,"ADDRESS":"中華路２７７號","OBJECTID":639144},"geometry":{"x":182928.88000000082,"y":2569163.1800000016}},{"attributes":{"ID":639172,"DIS_CODE":0,"TOWNNAME":"新營區","LI":"延平里","LIN":"1鄰","STREET":"延平路","SECT":" ","MAREA":" ","LANE":" ","ALLEY":" ","HOUSE_NO":"４６之１２７號","E_COORD97":179745.195148,"N_COORD97":2577771.2736599999,"ADDRESS":"延平路４６之１２７號","OBJECTID":639145},"geometry":{"x":179745.19514799863,"y":2577771.2736550029}},{"attributes":{"ID":639173,"DIS_CODE":0,"TOWNNAME":"新營區","LI":"民生里","LIN":" ","STREET":"復興路","SECT":" ","MAREA":" ","LANE":" ","ALLEY":" ","HOUSE_NO":"２１０之２號","E_COORD97":179021.23999999999,"N_COORD97":2578046.9700000002,"ADDRESS":"復興路２１０之２號","OBJECTID":639146},"geometry":{"x":179021.24000000115,"y":2578046.9700000007}},{"attributes":{"ID":639174,"DIS_CODE":0,"TOWNNAME":"六甲區","LI":"甲南里","LIN":"20鄰","STREET":"仁愛街","SECT":" ","MAREA":" ","LANE":" ","ALLEY":" ","HOUSE_NO":"１０號","E_COORD97":183898.17999999999,"N_COORD97":2569872.6200000001,"ADDRESS":"仁愛街１０號","OBJECTID":639147},"geometry":{"x":183898.18000000063,"y":2569872.6199999992}},{"attributes":{"ID":639175,"DIS_CODE":0,"TOWNNAME":"六甲區","LI":"甲東里","LIN":"7鄰","STREET":"仁愛街","SECT":" ","MAREA":" ","LANE":" ","ALLEY":" ","HOUSE_NO":"１００號","E_COORD97":183885.45000000001,"N_COORD97":2570115.5699999998,"ADDRESS":"仁愛街１００號","OBJECTID":639148},"geometry":{"x":183885.45000000019,"y":2570115.5700000003}},{"attributes":{"ID":639176,"DIS_CODE":0,"TOWNNAME":"六甲區","LI":"甲東里","LIN":"7鄰","STREET":"仁愛街","SECT":" ","MAREA":" ","LANE":" ","ALLEY":" ","HOUSE_NO":"１０２號","E_COORD97":183885.57999999999,"N_COORD97":2570120.3199999998,"ADDRESS":"仁愛街１０２號","OBJECTID":639149},"geometry":{"x":183885.58000000101,"y":2570120.3200000003}},{"attributes":{"ID":639177,"DIS_CODE":0,"TOWNNAME":"六甲區","LI":"甲東里","LIN":"7鄰","STREET":"仁愛街","SECT":" ","MAREA":" ","LANE":" ","ALLEY":" ","HOUSE_NO":"１０４號","E_COORD97":183885.82000000001,"N_COORD97":2570124.48,"ADDRESS":"仁愛街１０４號","OBJECTID":639150},"geometry":{"x":183885.82000000123,"y":2570124.4800000023}},{"attributes":{"ID":639178,"DIS_CODE":0,"TOWNNAME":"六甲區","LI":"甲東里","LIN":"7鄰","STREET":"仁愛街","SECT":" ","MAREA":" ","LANE":" ","ALLEY":" ","HOUSE_NO":"１０６號","E_COORD97":183885.85000000001,"N_COORD97":2570129.4700000002,"ADDRESS":"仁愛街１０６號","OBJECTID":639151},"geometry":{"x":183885.8499999987,"y":2570129.4700000007}},{"attributes":{"ID":639179,"DIS_CODE":0,"TOWNNAME":"六甲區","LI":"甲東里","LIN":"8鄰","STREET":"仁愛街","SECT":" ","MAREA":" ","LANE":" ","ALLEY":" ","HOUSE_NO":"１３０號","E_COORD97":183892.35999999999,"N_COORD97":2570195.71,"ADDRESS":"仁愛街１３０號","OBJECTID":639152},"geometry":{"x":183892.36000000127,"y":2570195.7100000028}},{"attributes":{"ID":639180,"DIS_CODE":0,"TOWNNAME":"六甲區","LI":"甲東里","LIN":"8鄰","STREET":"仁愛街","SECT":" ","MAREA":" ","LANE":" ","ALLEY":" ","HOUSE_NO":"１３２號","E_COORD97":183892.51999999999,"N_COORD97":2570200.9700000002,"ADDRESS":"仁愛街１３２號","OBJECTID":639153},"geometry":{"x":183892.51999999955,"y":2570200.9700000007}},{"attributes":{"ID":639181,"DIS_CODE":0,"TOWNNAME":"六甲區","LI":"甲東里","LIN":"8鄰","STREET":"仁愛街","SECT":" ","MAREA":" ","LANE":" ","ALLEY":" ","HOUSE_NO":"１３４號","E_COORD97":183892.42000000001,"N_COORD97":2570204.5099999998,"ADDRESS":"仁愛街１３４號","OBJECTID":639154},"geometry":{"x":183892.41999999993,"y":2570204.5100000035}},{"attributes":{"ID":639182,"DIS_CODE":0,"TOWNNAME":"六甲區","LI":"甲東里","LIN":"8鄰","STREET":"仁愛街","SECT":" ","MAREA":" ","LANE":" ","ALLEY":" ","HOUSE_NO":"１３６號","E_COORD97":183892.67999999999,"N_COORD97":2570208.4399999999,"ADDRESS":"仁愛街１３６號","OBJECTID":639155},"geometry":{"x":183892.68000000063,"y":2570208.4400000013}},{"attributes":{"ID":639183,"DIS_CODE":0,"TOWNNAME":"六甲區","LI":"甲東里","LIN":"8鄰","STREET":"仁愛街","SECT":" ","MAREA":" ","LANE":" ","ALLEY":" ","HOUSE_NO":"１３８號","E_COORD97":183892.97,"N_COORD97":2570212.7400000002,"ADDRESS":"仁愛街１３８號","OBJECTID":639156},"geometry":{"x":183892.96999999974,"y":2570212.7400000002}},{"attributes":{"ID":639184,"DIS_CODE":0,"TOWNNAME":"六甲區","LI":"甲東里","LIN":"8鄰","STREET":"仁愛街","SECT":" ","MAREA":" ","LANE":" ","ALLEY":" ","HOUSE_NO":"１４０號","E_COORD97":183893.37,"N_COORD97":2570216.96,"ADDRESS":"仁愛街１４０號","OBJECTID":639157},"geometry":{"x":183893.37000000104,"y":2570216.9600000028}},{"attributes":{"ID":639185,"DIS_CODE":0,"TOWNNAME":"六甲區","LI":"甲東里","LIN":"7鄰","STREET":"仁愛街","SECT":" ","MAREA":" ","LANE":" ","ALLEY":" ","HOUSE_NO":"１１４號","E_COORD97":183887.59,"N_COORD97":2570147.2200000002,"ADDRESS":"仁愛街１１４號","OBJECTID":639158},"geometry":{"x":183887.58999999985,"y":2570147.2200000025}},{"attributes":{"ID":639186,"DIS_CODE":0,"TOWNNAME":"六甲區","LI":"甲東里","LIN":"7鄰","STREET":"仁愛街","SECT":" ","MAREA":" ","LANE":" ","ALLEY":" ","HOUSE_NO":"１１６號","E_COORD97":183887.85999999999,"N_COORD97":2570152.25,"ADDRESS":"仁愛街１１６號","OBJECTID":639159},"geometry":{"x":183887.86000000034,"y":2570152.2500000037}},{"attributes":{"ID":639187,"DIS_CODE":0,"TOWNNAME":"六甲區","LI":"甲東里","LIN":"7鄰","STREET":"仁愛街","SECT":" ","MAREA":" ","LANE":" ","ALLEY":" ","HOUSE_NO":"１１８號","E_COORD97":183888.07999999999,"N_COORD97":2570156.5600000001,"ADDRESS":"仁愛街１１８號","OBJECTID":639160},"geometry":{"x":183888.08000000007,"y":2570156.5600000005}},{"attributes":{"ID":639188,"DIS_CODE":0,"TOWNNAME":"六甲區","LI":"甲東里","LIN":"7鄰","STREET":"仁愛街","SECT":" ","MAREA":" ","LANE":" ","ALLEY":" ","HOUSE_NO":"１２０號","E_COORD97":183888.54000000001,"N_COORD97":2570161.1000000001,"ADDRESS":"仁愛街１２０號","OBJECTID":639161},"geometry":{"x":183888.5400000019,"y":2570161.1000000015}},{"attributes":{"ID":639189,"DIS_CODE":0,"TOWNNAME":"六甲區","LI":"甲東里","LIN":"7鄰","STREET":"仁愛街","SECT":" ","MAREA":" ","LANE":" ","ALLEY":" ","HOUSE_NO":"１２２之１號","E_COORD97":183889.19,"N_COORD97":2570170.3399999999,"ADDRESS":"仁愛街１２２之１號","OBJECTID":639162},"geometry":{"x":183889.19000000041,"y":2570170.3399999999}},{"attributes":{"ID":639190,"DIS_CODE":0,"TOWNNAME":"六甲區","LI":"甲東里","LIN":"7鄰","STREET":"仁愛街","SECT":" ","MAREA":" ","LANE":" ","ALLEY":" ","HOUSE_NO":"１２２號","E_COORD97":183888.69,"N_COORD97":2570166.04,"ADDRESS":"仁愛街１２２號","OBJECTID":639163},"geometry":{"x":183888.69000000134,"y":2570166.0399999972}},{"attributes":{"ID":639191,"DIS_CODE":0,"TOWNNAME":"六甲區","LI":"甲東里","LIN":"7鄰","STREET":"仁愛街","SECT":" ","MAREA":" ","LANE":" ","ALLEY":" ","HOUSE_NO":"１２６號","E_COORD97":183889.38,"N_COORD97":2570174.6800000002,"ADDRESS":"仁愛街１２６號","OBJECTID":639164},"geometry":{"x":183889.38000000175,"y":2570174.6799999997}},{"attributes":{"ID":639192,"DIS_CODE":0,"TOWNNAME":"六甲區","LI":"甲東里","LIN":"7鄰","STREET":"仁愛街","SECT":" ","MAREA":" ","LANE":" ","ALLEY":" ","HOUSE_NO":"１２８號","E_COORD97":183889.75,"N_COORD97":2570179,"ADDRESS":"仁愛街１２８號","OBJECTID":639165},"geometry":{"x":183889.75,"y":2570179.0000000019}},{"attributes":{"ID":639193,"DIS_CODE":0,"TOWNNAME":"六甲區","LI":"六甲里","LIN":"20鄰","STREET":"仁愛街","SECT":" ","MAREA":" ","LANE":" ","ALLEY":" ","HOUSE_NO":"１４１號","E_COORD97":183848.31,"N_COORD97":2570225.3399999999,"ADDRESS":"仁愛街１４１號","OBJECTID":639166},"geometry":{"x":183848.30999999959,"y":2570225.3399999999}},{"attributes":{"ID":639194,"DIS_CODE":0,"TOWNNAME":"六甲區","LI":"甲南里","LIN":"20鄰","STREET":"仁愛街","SECT":" ","MAREA":" ","LANE":" ","ALLEY":" ","HOUSE_NO":"１６號","E_COORD97":183894.57999999999,"N_COORD97":2569882.6000000001,"ADDRESS":"仁愛街１６號","OBJECTID":639167},"geometry":{"x":183894.58000000007,"y":2569882.6000000015}},{"attributes":{"ID":639195,"DIS_CODE":0,"TOWNNAME":"六甲區","LI":"甲南里","LIN":"20鄰","STREET":"仁愛街","SECT":" ","MAREA":" ","LANE":" ","ALLEY":" ","HOUSE_NO":"１８號","E_COORD97":183893.42000000001,"N_COORD97":2569886.25,"ADDRESS":"仁愛街１８號","OBJECTID":639168},"geometry":{"x":183893.42000000086,"y":2569886.25}},{"attributes":{"ID":639196,"DIS_CODE":0,"TOWNNAME":"六甲區","LI":"甲南里","LIN":"20鄰","STREET":"仁愛街","SECT":" ","MAREA":" ","LANE":" ","ALLEY":" ","HOUSE_NO":"１９號","E_COORD97":183871.09,"N_COORD97":2569898.7000000002,"ADDRESS":"仁愛街１９號","OBJECTID":639169},"geometry":{"x":183871.09000000171,"y":2569898.7000000011}},{"attributes":{"ID":639197,"DIS_CODE":0,"TOWNNAME":"六甲區","LI":"甲南里","LIN":"20鄰","STREET":"仁愛街","SECT":" ","MAREA":" ","LANE":" ","ALLEY":" ","HOUSE_NO":"２０號","E_COORD97":183892.60999999999,"N_COORD97":2569889.7799999998,"ADDRESS":"仁愛街２０號","OBJECTID":639170},"geometry":{"x":183892.61000000034,"y":2569889.7799999993}},{"attributes":{"ID":639198,"DIS_CODE":0,"TOWNNAME":"六甲區","LI":"甲南里","LIN":"20鄰","STREET":"仁愛街","SECT":" ","MAREA":" ","LANE":" ","ALLEY":" ","HOUSE_NO":"２２號","E_COORD97":183891.56,"N_COORD97":2569893.0699999998,"ADDRESS":"仁愛街２２號","OBJECTID":639171},"geometry":{"x":183891.56000000052,"y":2569893.0700000022}},{"attributes":{"ID":639199,"DIS_CODE":0,"TOWNNAME":"六甲區","LI":"甲南里","LIN":"20鄰","STREET":"仁愛街","SECT":" ","MAREA":" ","LANE":" ","ALLEY":" ","HOUSE_NO":"２３號","E_COORD97":183869.42585,"N_COORD97":2569917.8007499999,"ADDRESS":"仁愛街２３號","OBJECTID":639172},"geometry":{"x":183869.42585000116,"y":2569917.8007470015}},{"attributes":{"ID":639200,"DIS_CODE":0,"TOWNNAME":"六甲區","LI":"六甲里","LIN":"17鄰","STREET":"仁愛街","SECT":" ","MAREA":" ","LANE":" ","ALLEY":" ","HOUSE_NO":"２９號","E_COORD97":183859.85999999999,"N_COORD97":2569947.0499999998,"ADDRESS":"仁愛街２９號","OBJECTID":639173},"geometry":{"x":183859.86000000127,"y":2569947.0500000007}},{"attributes":{"ID":639201,"DIS_CODE":0,"TOWNNAME":"六甲區","LI":"六甲里","LIN":"17鄰","STREET":"仁愛街","SECT":" ","MAREA":" ","LANE":" ","ALLEY":" ","HOUSE_NO":"３１號","E_COORD97":183859.31,"N_COORD97":2569950.2999999998,"ADDRESS":"仁愛街３１號","OBJECTID":639174},"geometry":{"x":183859.31000000052,"y":2569950.3000000026}},{"attributes":{"ID":639202,"DIS_CODE":0,"TOWNNAME":"六甲區","LI":"六甲里","LIN":"17鄰","STREET":"仁愛街","SECT":" ","MAREA":" ","LANE":" ","ALLEY":" ","HOUSE_NO":"３３號","E_COORD97":183858.35000000001,"N_COORD97":2569953.2999999998,"ADDRESS":"仁愛街３３號","OBJECTID":639175},"geometry":{"x":183858.34999999963,"y":2569953.3000000026}},{"attributes":{"ID":639203,"DIS_CODE":0,"TOWNNAME":"六甲區","LI":"六甲里","LIN":"17鄰","STREET":"仁愛街","SECT":" ","MAREA":" ","LANE":" ","ALLEY":" ","HOUSE_NO":"３５號","E_COORD97":183857.69,"N_COORD97":2569956.8300000001,"ADDRESS":"仁愛街３５號","OBJECTID":639176},"geometry":{"x":183857.69000000134,"y":2569956.8300000001}},{"attributes":{"ID":639204,"DIS_CODE":0,"TOWNNAME":"六甲區","LI":"六甲里","LIN":"17鄰","STREET":"仁愛街","SECT":" ","MAREA":" ","LANE":" ","ALLEY":" ","HOUSE_NO":"３７號","E_COORD97":183856.95000000001,"N_COORD97":2569960.6000000001,"ADDRESS":"仁愛街３７號","OBJECTID":639177},"geometry":{"x":183856.94999999925,"y":2569960.6000000015}},{"attributes":{"ID":639205,"DIS_CODE":0,"TOWNNAME":"六甲區","LI":"六甲里","LIN":"17鄰","STREET":"仁愛街","SECT":" ","MAREA":" ","LANE":" ","ALLEY":" ","HOUSE_NO":"３９號","E_COORD97":183856.14999999999,"N_COORD97":2569964.2400000002,"ADDRESS":"仁愛街３９號","OBJECTID":639178},"geometry":{"x":183856.1500000013,"y":2569964.2400000021}},{"attributes":{"ID":639206,"DIS_CODE":0,"TOWNNAME":"六甲區","LI":"六甲里","LIN":"17鄰","STREET":"仁愛街","SECT":" ","MAREA":" ","LANE":" ","ALLEY":" ","HOUSE_NO":"４１號","E_COORD97":183855.51999999999,"N_COORD97":2569973.0499999998,"ADDRESS":"仁愛街４１號","OBJECTID":639179},"geometry":{"x":183855.51999999955,"y":2569973.0500000007}},{"attributes":{"ID":639207,"DIS_CODE":0,"TOWNNAME":"六甲區","LI":"六甲里","LIN":"17鄰","STREET":"仁愛街","SECT":" ","MAREA":" ","LANE":" ","ALLEY":" ","HOUSE_NO":"４３號","E_COORD97":183843.67999999999,"N_COORD97":2569981.6899999999,"ADDRESS":"仁愛街４３號","OBJECTID":639180},"geometry":{"x":183843.68000000063,"y":2569981.6899999995}},{"attributes":{"ID":639208,"DIS_CODE":0,"TOWNNAME":"六甲區","LI":"六甲里","LIN":"17鄰","STREET":"仁愛街","SECT":" ","MAREA":" ","LANE":" ","ALLEY":" ","HOUSE_NO":"４５號","E_COORD97":183853.23999999999,"N_COORD97":2569987.9700000002,"ADDRESS":"仁愛街４５號","OBJECTID":639181},"geometry":{"x":183853.24000000022,"y":2569987.9700000007}},{"attributes":{"ID":639209,"DIS_CODE":0,"TOWNNAME":"六甲區","LI":"甲東里","LIN":"5鄰","STREET":"仁愛街","SECT":" ","MAREA":" ","LANE":" ","ALLEY":" ","HOUSE_NO":"７０號","E_COORD97":183881.79000000001,"N_COORD97":2570051.71,"ADDRESS":"仁愛街７０號","OBJECTID":639182},"geometry":{"x":183881.7900000019,"y":2570051.7100000046}},{"attributes":{"ID":639210,"DIS_CODE":0,"TOWNNAME":"六甲區","LI":"六甲里","LIN":"18鄰","STREET":"仁愛街","SECT":" ","MAREA":" ","LANE":" ","ALLEY":" ","HOUSE_NO":"５７之１號","E_COORD97":183834.03,"N_COORD97":2570038.3399999999,"ADDRESS":"仁愛街５７之１號","OBJECTID":639183},"geometry":{"x":183834.03000000026,"y":2570038.3399999999}},{"attributes":{"ID":639211,"DIS_CODE":0,"TOWNNAME":"六甲區","LI":"六甲里","LIN":"18鄰","STREET":"仁愛街","SECT":" ","MAREA":" ","LANE":" ","ALLEY":" ","HOUSE_NO":"５７號","E_COORD97":183857,"N_COORD97":2570026.4100000001,"ADDRESS":"仁愛街５７號","OBJECTID":639184},"geometry":{"x":183857.00000000093,"y":2570026.410000002}},{"attributes":{"ID":639212,"DIS_CODE":0,"TOWNNAME":"六甲區","LI":"六甲里","LIN":"18鄰","STREET":"仁愛街","SECT":" ","MAREA":" ","LANE":" ","ALLEY":" ","HOUSE_NO":"５９號","E_COORD97":183856.38,"N_COORD97":2570033.54,"ADDRESS":"仁愛街５９號","OBJECTID":639185},"geometry":{"x":183856.37999999989,"y":2570033.5399999991}},{"attributes":{"ID":639213,"DIS_CODE":0,"TOWNNAME":"六甲區","LI":"六甲里","LIN":"18鄰","STREET":"仁愛街","SECT":" ","MAREA":" ","LANE":" ","ALLEY":" ","HOUSE_NO":"６１號","E_COORD97":183857.07000000001,"N_COORD97":2570037.1699999999,"ADDRESS":"仁愛街６１號","OBJECTID":639186},"geometry":{"x":183857.07000000123,"y":2570037.1699999981}},{"attributes":{"ID":639214,"DIS_CODE":0,"TOWNNAME":"六甲區","LI":"甲南里","LIN":"19鄰","STREET":"仁愛街","SECT":" ","MAREA":" ","LANE":" ","ALLEY":" ","HOUSE_NO":"５號","E_COORD97":183874.85999999999,"N_COORD97":2569871.46,"ADDRESS":"仁愛街５號","OBJECTID":639187},"geometry":{"x":183874.8600000022,"y":2569871.4600000028}},{"attributes":{"ID":639215,"DIS_CODE":0,"TOWNNAME":"六甲區","LI":"六甲里","LIN":"19鄰","STREET":"仁愛街","SECT":" ","MAREA":" ","LANE":" ","ALLEY":" ","HOUSE_NO":"７１號","E_COORD97":183861.64999999999,"N_COORD97":2570059.6099999999,"ADDRESS":"仁愛街７１號","OBJECTID":639188},"geometry":{"x":183861.6500000013,"y":2570059.6099999994}},{"attributes":{"ID":639216,"DIS_CODE":0,"TOWNNAME":"六甲區","LI":"六甲里","LIN":"19鄰","STREET":"仁愛街","SECT":" ","MAREA":" ","LANE":" ","ALLEY":" ","HOUSE_NO":"７３號","E_COORD97":183861.84,"N_COORD97":2570063.3999999999,"ADDRESS":"仁愛街７３號","OBJECTID":639189},"geometry":{"x":183861.83999999985,"y":2570063.4000000041}},{"attributes":{"ID":639217,"DIS_CODE":0,"TOWNNAME":"六甲區","LI":"六甲里","LIN":"19鄰","STREET":"仁愛街","SECT":" ","MAREA":" ","LANE":" ","ALLEY":" ","HOUSE_NO":"７５號","E_COORD97":183862.06,"N_COORD97":2570066.8799999999,"ADDRESS":"仁愛街７５號","OBJECTID":639190},"geometry":{"x":183862.05999999959,"y":2570066.8800000008}},{"attributes":{"ID":639218,"DIS_CODE":0,"TOWNNAME":"六甲區","LI":"六甲里","LIN":"21鄰","STREET":"仁愛街","SECT":" ","MAREA":" ","LANE":" ","ALLEY":" ","HOUSE_NO":"５８號","E_COORD97":183884.32999999999,"N_COORD97":2570008.04,"ADDRESS":"仁愛街５８號","OBJECTID":639191},"geometry":{"x":183884.33000000007,"y":2570008.040000001}},{"attributes":{"ID":639219,"DIS_CODE":0,"TOWNNAME":"六甲區","LI":"甲東里","LIN":"7鄰","STREET":"仁愛街","SECT":" ","MAREA":" ","LANE":" ","ALLEY":" ","HOUSE_NO":"９８號","E_COORD97":183885.16,"N_COORD97":2570111.0699999998,"ADDRESS":"仁愛街９８號","OBJECTID":639192},"geometry":{"x":183885.16000000108,"y":2570111.0700000022}},{"attributes":{"ID":639220,"DIS_CODE":0,"TOWNNAME":"六甲區","LI":"六甲里","LIN":"19鄰","STREET":"仁愛街","SECT":" ","MAREA":" ","LANE":" ","ALLEY":" ","HOUSE_NO":"７７號","E_COORD97":183862.45000000001,"N_COORD97":2570071.1000000001,"ADDRESS":"仁愛街７７號","OBJECTID":639193},"geometry":{"x":183862.45000000112,"y":2570071.0999999996}},{"attributes":{"ID":639221,"DIS_CODE":0,"TOWNNAME":"六甲區","LI":"六甲里","LIN":"19鄰","STREET":"仁愛街","SECT":" ","MAREA":" ","LANE":" ","ALLEY":" ","HOUSE_NO":"７９號","E_COORD97":183862.64999999999,"N_COORD97":2570073.9399999999,"ADDRESS":"仁愛街７９號","OBJECTID":639194},"geometry":{"x":183862.65000000224,"y":2570073.9400000013}},{"attributes":{"ID":639222,"DIS_CODE":0,"TOWNNAME":"六甲區","LI":"甲南里","LIN":"19鄰","STREET":"仁愛街","SECT":" ","MAREA":" ","LANE":" ","ALLEY":" ","HOUSE_NO":"７號","E_COORD97":183872.09,"N_COORD97":2569879.5600000001,"ADDRESS":"仁愛街７號","OBJECTID":639195},"geometry":{"x":183872.08999999985,"y":2569879.5600000042}},{"attributes":{"ID":639223,"DIS_CODE":0,"TOWNNAME":"六甲區","LI":"六甲里","LIN":"19鄰","STREET":"仁愛街","SECT":" ","MAREA":" ","LANE":" ","ALLEY":" ","HOUSE_NO":"８１號","E_COORD97":183863.51999999999,"N_COORD97":2570078.1800000002,"ADDRESS":"仁愛街８１號","OBJECTID":639196},"geometry":{"x":183863.52000000048,"y":2570078.1800000016}},{"attributes":{"ID":639224,"DIS_CODE":0,"TOWNNAME":"六甲區","LI":"甲南里","LIN":"1鄰","STREET":"民生街","SECT":" ","MAREA":" ","LANE":" ","ALLEY":" ","HOUSE_NO":"１４６號","E_COORD97":183798.92000000001,"N_COORD97":2569873.8900000001,"ADDRESS":"民生街１４６號","OBJECTID":639197},"geometry":{"x":183798.91999999993,"y":2569873.8900000043}},{"attributes":{"ID":639225,"DIS_CODE":0,"TOWNNAME":"六甲區","LI":"甲南里","LIN":"1鄰","STREET":"民生街","SECT":" ","MAREA":" ","LANE":" ","ALLEY":" ","HOUSE_NO":"１４８號","E_COORD97":183801.63,"N_COORD97":2569877.7799999998,"ADDRESS":"民生街１４８號","OBJECTID":639198},"geometry":{"x":183801.63000000082,"y":2569877.7800000012}},{"attributes":{"ID":639226,"DIS_CODE":0,"TOWNNAME":"六甲區","LI":"六甲里","LIN":"12鄰","STREET":"民生街","SECT":" ","MAREA":" ","LANE":" ","ALLEY":" ","HOUSE_NO":"１２９號","E_COORD97":183725.62,"N_COORD97":2569790.2799999998,"ADDRESS":"民生街１２９號","OBJECTID":639199},"geometry":{"x":183725.62000000104,"y":2569790.2799999993}},{"attributes":{"ID":639227,"DIS_CODE":0,"TOWNNAME":"六甲區","LI":"六甲里","LIN":"14鄰","STREET":"民生街","SECT":" ","MAREA":" ","LANE":" ","ALLEY":" ","HOUSE_NO":"１７３號","E_COORD97":183782.91,"N_COORD97":2569880.0299999998,"ADDRESS":"民生街１７３號","OBJECTID":639200},"geometry":{"x":183782.91000000108,"y":2569880.0300000012}}]}