{"displayFieldName":"TOWNNAME","fieldAliases":{"ID":"ID","DIS_CODE":"DIS_CODE","TOWNNAME":"TOWNNAME","LI":"LI","LIN":"LIN","STREET":"STREET","SECT":"SECT","MAREA":"MAREA","LANE":"LANE","ALLEY":"ALLEY","HOUSE_NO":"HOUSE_NO","E_COORD97":"E_COORD97","N_COORD97":"N_COORD97","ADDRESS":"ADDRESS","OBJECTID":"OBJECTID"},"geometryType":"esriGeometryPoint","spatialReference":{"wkid":102443,"latestWkid":3826},"fields":[{"name":"ID","type":"esriFieldTypeDouble","alias":"ID"},{"name":"DIS_CODE","type":"esriFieldTypeInteger","alias":"DIS_CODE"},{"name":"TOWNNAME","type":"esriFieldTypeString","alias":"TOWNNAME","length":8},{"name":"LI","type":"esriFieldTypeString","alias":"LI","length":8},{"name":"LIN","type":"esriFieldTypeString","alias":"LIN","length":12},{"name":"STREET","type":"esriFieldTypeString","alias":"STREET","length":20},{"name":"SECT","type":"esriFieldTypeString","alias":"SECT","length":8},{"name":"MAREA","type":"esriFieldTypeString","alias":"MAREA","length":12},{"name":"LANE","type":"esriFieldTypeString","alias":"LANE","length":10},{"name":"ALLEY","type":"esriFieldTypeString","alias":"ALLEY","length":10},{"name":"HOUSE_NO","type":"esriFieldTypeString","alias":"HOUSE_NO","length":20},{"name":"E_COORD97","type":"esriFieldTypeDouble","alias":"E_COORD97"},{"name":"N_COORD97","type":"esriFieldTypeDouble","alias":"N_COORD97"},{"name":"ADDRESS","type":"esriFieldTypeString","alias":"ADDRESS","length":50},{"name":"OBJECTID","type":"esriFieldTypeOID","alias":"OBJECTID"}],"features":[{"attributes":{"ID":278406,"DIS_CODE":0,"TOWNNAME":"仁德區","LI":"後壁里","LIN":"35鄰","STREET":"德洋路","SECT":" ","MAREA":" ","LANE":"２０５巷","ALLEY":" ","HOUSE_NO":"３３號","E_COORD97":172408.95999999999,"N_COORD97":2539500.77,"ADDRESS":"德洋路２０５巷３３號","OBJECTID":278401},"geometry":{"x":172408.95999999996,"y":2539500.7700000014}},{"attributes":{"ID":278407,"DIS_CODE":0,"TOWNNAME":"仁德區","LI":"後壁里","LIN":"35鄰","STREET":"德洋二街","SECT":" ","MAREA":" ","LANE":"８巷","ALLEY":" ","HOUSE_NO":"２０號","E_COORD97":172411.23999999999,"N_COORD97":2539435.0099999998,"ADDRESS":"德洋二街８巷２０號","OBJECTID":278402},"geometry":{"x":172411.24000000115,"y":2539435.0100000016}},{"attributes":{"ID":278408,"DIS_CODE":0,"TOWNNAME":"仁德區","LI":"後壁里","LIN":"35鄰","STREET":"德洋二街","SECT":" ","MAREA":" ","LANE":"８巷","ALLEY":" ","HOUSE_NO":"２２號","E_COORD97":172408.62,"N_COORD97":2539439.7599999998,"ADDRESS":"德洋二街８巷２２號","OBJECTID":278403},"geometry":{"x":172408.62000000104,"y":2539439.7600000016}},{"attributes":{"ID":278409,"DIS_CODE":0,"TOWNNAME":"仁德區","LI":"後壁里","LIN":"35鄰","STREET":"德洋路","SECT":" ","MAREA":" ","LANE":"２０５巷","ALLEY":" ","HOUSE_NO":"２９號","E_COORD97":172410.88,"N_COORD97":2539509.77,"ADDRESS":"德洋路２０５巷２９號","OBJECTID":278404},"geometry":{"x":172410.87999999989,"y":2539509.7700000014}},{"attributes":{"ID":278410,"DIS_CODE":0,"TOWNNAME":"仁德區","LI":"後壁里","LIN":"35鄰","STREET":"德洋二街","SECT":" ","MAREA":" ","LANE":"８巷","ALLEY":" ","HOUSE_NO":"２號","E_COORD97":172431.85999999999,"N_COORD97":2539401.77,"ADDRESS":"德洋二街８巷２號","OBJECTID":278405},"geometry":{"x":172431.86000000034,"y":2539401.7700000014}},{"attributes":{"ID":278411,"DIS_CODE":0,"TOWNNAME":"仁德區","LI":"後壁里","LIN":"35鄰","STREET":"德洋路","SECT":" ","MAREA":" ","LANE":"２０５巷","ALLEY":" ","HOUSE_NO":"７號","E_COORD97":172467.95000000001,"N_COORD97":2539489.27,"ADDRESS":"德洋路２０５巷７號","OBJECTID":278406},"geometry":{"x":172467.95000000019,"y":2539489.2700000033}},{"attributes":{"ID":278412,"DIS_CODE":0,"TOWNNAME":"永康區","LI":"勝利里","LIN":"35鄰","STREET":"勝利街","SECT":" ","MAREA":" ","LANE":"２巷","ALLEY":" ","HOUSE_NO":"８號","E_COORD97":171124.23000000001,"N_COORD97":2544705.75,"ADDRESS":"勝利街２巷８號","OBJECTID":278407},"geometry":{"x":171124.23000000045,"y":2544705.75}},{"attributes":{"ID":278413,"DIS_CODE":0,"TOWNNAME":"中西區","LI":"大涼里","LIN":"2鄰","STREET":"金華路","SECT":"三段","MAREA":" ","LANE":" ","ALLEY":" ","HOUSE_NO":"１７５號二樓","E_COORD97":167278.60000000001,"N_COORD97":2543790.4700000002,"ADDRESS":"金華路三段１７５號二樓","OBJECTID":278408},"geometry":{"x":167278.60000000056,"y":2543790.4700000007}},{"attributes":{"ID":278414,"DIS_CODE":0,"TOWNNAME":"永康區","LI":"勝利里","LIN":"35鄰","STREET":"勝利街","SECT":" ","MAREA":" ","LANE":"２巷","ALLEY":" ","HOUSE_NO":"１號之２２","E_COORD97":171135.39000000001,"N_COORD97":2544690.5499999998,"ADDRESS":"勝利街２巷１號之２２","OBJECTID":278409},"geometry":{"x":171135.38999999966,"y":2544690.5500000026}},{"attributes":{"ID":278415,"DIS_CODE":0,"TOWNNAME":"佳里區","LI":"興化里","LIN":"2鄰","STREET":" ","SECT":" ","MAREA":"佳里興","LANE":" ","ALLEY":" ","HOUSE_NO":"４０２號","E_COORD97":165669.5,"N_COORD97":2565738.27,"ADDRESS":"佳里興４０２號","OBJECTID":278410},"geometry":{"x":165669.50000000093,"y":2565738.2700000014}},{"attributes":{"ID":278416,"DIS_CODE":0,"TOWNNAME":"永康區","LI":"勝利里","LIN":"35鄰","STREET":"勝利街","SECT":" ","MAREA":" ","LANE":"２巷","ALLEY":" ","HOUSE_NO":"２之１號","E_COORD97":171134.67000000001,"N_COORD97":2544705.54,"ADDRESS":"勝利街２巷２之１號","OBJECTID":278411},"geometry":{"x":171134.67000000179,"y":2544705.540000001}},{"attributes":{"ID":278417,"DIS_CODE":0,"TOWNNAME":"永康區","LI":"勝利里","LIN":"35鄰","STREET":"勝利街","SECT":" ","MAREA":" ","LANE":"２巷","ALLEY":" ","HOUSE_NO":"１１號","E_COORD97":171099.13,"N_COORD97":2544691.0099999998,"ADDRESS":"勝利街２巷１１號","OBJECTID":278412},"geometry":{"x":171099.12999999896,"y":2544691.0099999998}},{"attributes":{"ID":278418,"DIS_CODE":0,"TOWNNAME":"永康區","LI":"勝利里","LIN":"35鄰","STREET":"勝利街","SECT":" ","MAREA":" ","LANE":"２巷","ALLEY":" ","HOUSE_NO":"１８號","E_COORD97":171103.95000000001,"N_COORD97":2544706.25,"ADDRESS":"勝利街２巷１８號","OBJECTID":278413},"geometry":{"x":171103.95000000019,"y":2544706.25}},{"attributes":{"ID":278419,"DIS_CODE":0,"TOWNNAME":"永康區","LI":"勝利里","LIN":"35鄰","STREET":"勝利街","SECT":" ","MAREA":" ","LANE":"２巷","ALLEY":" ","HOUSE_NO":"１號之１７","E_COORD97":171135.32999999999,"N_COORD97":2544690.5499999998,"ADDRESS":"勝利街２巷１號之１７","OBJECTID":278414},"geometry":{"x":171135.33000000194,"y":2544690.5500000026}},{"attributes":{"ID":278420,"DIS_CODE":0,"TOWNNAME":"永康區","LI":"勝利里","LIN":"35鄰","STREET":"勝利街","SECT":" ","MAREA":" ","LANE":"２巷","ALLEY":" ","HOUSE_NO":"２５號","E_COORD97":171069.81,"N_COORD97":2544691.7599999998,"ADDRESS":"勝利街２巷２５號","OBJECTID":278415},"geometry":{"x":171069.80999999959,"y":2544691.7600000016}},{"attributes":{"ID":278421,"DIS_CODE":0,"TOWNNAME":"永康區","LI":"勝利里","LIN":"35鄰","STREET":"勝利街","SECT":" ","MAREA":" ","LANE":"２巷","ALLEY":" ","HOUSE_NO":"２２號","E_COORD97":171095.54000000001,"N_COORD97":2544706.25,"ADDRESS":"勝利街２巷２２號","OBJECTID":278416},"geometry":{"x":171095.54000000097,"y":2544706.25}},{"attributes":{"ID":278422,"DIS_CODE":0,"TOWNNAME":"永康區","LI":"勝利里","LIN":"35鄰","STREET":"勝利街","SECT":" ","MAREA":" ","LANE":"２巷","ALLEY":" ","HOUSE_NO":"１號之１９","E_COORD97":171135.34,"N_COORD97":2544690.5499999998,"ADDRESS":"勝利街２巷１號之１９","OBJECTID":278417},"geometry":{"x":171135.34000000078,"y":2544690.5500000026}},{"attributes":{"ID":278423,"DIS_CODE":0,"TOWNNAME":"永康區","LI":"\u25A0行里","LIN":"35鄰","STREET":"中正北路","SECT":" ","MAREA":" ","LANE":"１７７巷","ALLEY":" ","HOUSE_NO":"２３號","E_COORD97":172385.32999999999,"N_COORD97":2549189.71,"ADDRESS":"中正北路１７７巷２３號","OBJECTID":278418},"geometry":{"x":172385.33000000101,"y":2549189.7100000009}},{"attributes":{"ID":278424,"DIS_CODE":0,"TOWNNAME":"永康區","LI":"崑山里","LIN":"35鄰","STREET":"大灣路","SECT":" ","MAREA":" ","LANE":"９４２巷","ALLEY":" ","HOUSE_NO":"２７７號","E_COORD97":173791.19,"N_COORD97":2544997.3999999999,"ADDRESS":"大灣路９４２巷２７７號","OBJECTID":278419},"geometry":{"x":173791.18999999948,"y":2544997.4000000004}},{"attributes":{"ID":278425,"DIS_CODE":0,"TOWNNAME":"永康區","LI":"埔園里","LIN":"35鄰","STREET":"永大路","SECT":"三段","MAREA":" ","LANE":"４５０巷","ALLEY":" ","HOUSE_NO":"１６號","E_COORD97":174182.48000000001,"N_COORD97":2548398.27,"ADDRESS":"永大路三段４５０巷１６號","OBJECTID":278420},"geometry":{"x":174182.48000000045,"y":2548398.2699999996}},{"attributes":{"ID":278426,"DIS_CODE":0,"TOWNNAME":"永康區","LI":"崑山里","LIN":"35鄰","STREET":"大灣路","SECT":" ","MAREA":" ","LANE":"９４２巷","ALLEY":" ","HOUSE_NO":"３１５號","E_COORD97":173819.67000000001,"N_COORD97":2545071.75,"ADDRESS":"大灣路９４２巷３１５號","OBJECTID":278421},"geometry":{"x":173819.66999999899,"y":2545071.7500000019}},{"attributes":{"ID":278427,"DIS_CODE":0,"TOWNNAME":"永康區","LI":"崑山里","LIN":"35鄰","STREET":"大灣路","SECT":" ","MAREA":" ","LANE":"９４２巷","ALLEY":" ","HOUSE_NO":"２８９號","E_COORD97":173798.82999999999,"N_COORD97":2545021.3900000001,"ADDRESS":"大灣路９４２巷２８９號","OBJECTID":278422},"geometry":{"x":173798.83000000101,"y":2545021.3900000006}},{"attributes":{"ID":278428,"DIS_CODE":0,"TOWNNAME":"永康區","LI":"崑山里","LIN":"35鄰","STREET":"大灣路","SECT":" ","MAREA":" ","LANE":"９４２巷","ALLEY":" ","HOUSE_NO":"２９３號","E_COORD97":173800.76999999999,"N_COORD97":2545029.3100000001,"ADDRESS":"大灣路９４２巷２９３號","OBJECTID":278423},"geometry":{"x":173800.77000000048,"y":2545029.3100000005}},{"attributes":{"ID":278429,"DIS_CODE":0,"TOWNNAME":"永康區","LI":"崑山里","LIN":"35鄰","STREET":"大灣路","SECT":" ","MAREA":" ","LANE":"９４２巷","ALLEY":" ","HOUSE_NO":"３０３號","E_COORD97":173811.35000000001,"N_COORD97":2545047.7400000002,"ADDRESS":"大灣路９４２巷３０３號","OBJECTID":278424},"geometry":{"x":173811.3499999987,"y":2545047.7400000021}},{"attributes":{"ID":278430,"DIS_CODE":0,"TOWNNAME":"永康區","LI":"崑山里","LIN":"35鄰","STREET":"大灣路","SECT":" ","MAREA":" ","LANE":"９４２巷","ALLEY":" ","HOUSE_NO":"３１３號","E_COORD97":173818.32999999999,"N_COORD97":2545067.75,"ADDRESS":"大灣路９４２巷３１３號","OBJECTID":278425},"geometry":{"x":173818.33000000007,"y":2545067.7500000019}},{"attributes":{"ID":278431,"DIS_CODE":0,"TOWNNAME":"永康區","LI":"崑山里","LIN":"35鄰","STREET":"大灣路","SECT":" ","MAREA":" ","LANE":"９４２巷","ALLEY":" ","HOUSE_NO":"３０９號","E_COORD97":173815.88,"N_COORD97":2545059.25,"ADDRESS":"大灣路９４２巷３０９號","OBJECTID":278426},"geometry":{"x":173815.87999999989,"y":2545059.25}},{"attributes":{"ID":278432,"DIS_CODE":0,"TOWNNAME":"永康區","LI":"崑山里","LIN":"35鄰","STREET":"大灣路","SECT":" ","MAREA":" ","LANE":"９４２巷","ALLEY":" ","HOUSE_NO":"２７９號","E_COORD97":173792.26000000001,"N_COORD97":2545001.3999999999,"ADDRESS":"大灣路９４２巷２７９號","OBJECTID":278427},"geometry":{"x":173792.26000000071,"y":2545001.4000000004}},{"attributes":{"ID":278433,"DIS_CODE":0,"TOWNNAME":"永康區","LI":"崑山里","LIN":"35鄰","STREET":"大灣路","SECT":" ","MAREA":" ","LANE":"９４２巷","ALLEY":" ","HOUSE_NO":"２９９號","E_COORD97":173808.54999999999,"N_COORD97":2545039.9900000002,"ADDRESS":"大灣路９４２巷２９９號","OBJECTID":278428},"geometry":{"x":173808.55000000168,"y":2545039.9900000002}},{"attributes":{"ID":278434,"DIS_CODE":0,"TOWNNAME":"永康區","LI":"埔園里","LIN":"35鄰","STREET":"八德街","SECT":" ","MAREA":" ","LANE":"９１巷","ALLEY":" ","HOUSE_NO":"２號","E_COORD97":174129.35000000001,"N_COORD97":2548490.9500000002,"ADDRESS":"八德街９１巷２號","OBJECTID":278429},"geometry":{"x":174129.34999999963,"y":2548490.9499999993}},{"attributes":{"ID":278435,"DIS_CODE":0,"TOWNNAME":"永康區","LI":"埔園里","LIN":"35鄰","STREET":"八德街","SECT":" ","MAREA":" ","LANE":"９１巷","ALLEY":" ","HOUSE_NO":"９號","E_COORD97":174127.20000000001,"N_COORD97":2548442.4300000002,"ADDRESS":"八德街９１巷９號","OBJECTID":278430},"geometry":{"x":174127.20000000112,"y":2548442.4300000016}},{"attributes":{"ID":278436,"DIS_CODE":0,"TOWNNAME":"永康區","LI":"崑山里","LIN":"35鄰","STREET":"大灣路","SECT":" ","MAREA":" ","LANE":"９４２巷","ALLEY":" ","HOUSE_NO":"３０１號","E_COORD97":173809.78,"N_COORD97":2545043.7400000002,"ADDRESS":"大灣路９４２巷３０１號","OBJECTID":278431},"geometry":{"x":173809.78000000119,"y":2545043.7400000021}},{"attributes":{"ID":278437,"DIS_CODE":0,"TOWNNAME":"永康區","LI":"勝利里","LIN":"35鄰","STREET":"勝利街","SECT":" ","MAREA":" ","LANE":"２巷","ALLEY":" ","HOUSE_NO":"７號","E_COORD97":171106.28,"N_COORD97":2544690.7599999998,"ADDRESS":"勝利街２巷７號","OBJECTID":278432},"geometry":{"x":171106.28000000026,"y":2544690.7600000016}},{"attributes":{"ID":278438,"DIS_CODE":0,"TOWNNAME":"永康區","LI":"崑山里","LIN":"35鄰","STREET":"大灣路","SECT":" ","MAREA":" ","LANE":"９４２巷","ALLEY":" ","HOUSE_NO":"２８７號","E_COORD97":173797.20000000001,"N_COORD97":2545017.3900000001,"ADDRESS":"大灣路９４２巷２８７號","OBJECTID":278433},"geometry":{"x":173797.20000000019,"y":2545017.3900000006}},{"attributes":{"ID":278439,"DIS_CODE":0,"TOWNNAME":"永康區","LI":"崑山里","LIN":"35鄰","STREET":"大灣路","SECT":" ","MAREA":" ","LANE":"９４２巷","ALLEY":" ","HOUSE_NO":"２８３號","E_COORD97":173795.10000000001,"N_COORD97":2545009.3900000001,"ADDRESS":"大灣路９４２巷２８３號","OBJECTID":278434},"geometry":{"x":173795.10000000056,"y":2545009.3900000025}},{"attributes":{"ID":278440,"DIS_CODE":0,"TOWNNAME":"歸仁區","LI":"許厝里","LIN":"35鄰","STREET":"公園路","SECT":" ","MAREA":" ","LANE":"１５６巷","ALLEY":" ","HOUSE_NO":"６號","E_COORD97":177847.63,"N_COORD97":2540492.8199999998,"ADDRESS":"公園路１５６巷６號","OBJECTID":278435},"geometry":{"x":177847.62999999896,"y":2540492.8199999984}},{"attributes":{"ID":278441,"DIS_CODE":0,"TOWNNAME":"永康區","LI":"\u25A0行里","LIN":"43鄰","STREET":"正南三路","SECT":" ","MAREA":" ","LANE":"１２６巷","ALLEY":" ","HOUSE_NO":"１５號","E_COORD97":171797.37,"N_COORD97":2547636.4500000002,"ADDRESS":"正南三路１２６巷１５號","OBJECTID":278436},"geometry":{"x":171797.37000000011,"y":2547636.4499999993}},{"attributes":{"ID":278442,"DIS_CODE":0,"TOWNNAME":"安平區","LI":"育平里","LIN":"35鄰","STREET":"郡平路","SECT":" ","MAREA":" ","LANE":"２７４巷","ALLEY":" ","HOUSE_NO":"１９號","E_COORD97":164418.57999999999,"N_COORD97":2543435.3900000001,"ADDRESS":"郡平路２７４巷１９號","OBJECTID":278437},"geometry":{"x":164418.58000000007,"y":2543435.3900000006}},{"attributes":{"ID":278443,"DIS_CODE":0,"TOWNNAME":"歸仁區","LI":"南保里","LIN":"35鄰","STREET":"中山路","SECT":"三段","MAREA":" ","LANE":"１００巷","ALLEY":" ","HOUSE_NO":"５７號","E_COORD97":176734.31,"N_COORD97":2540977.2799999998,"ADDRESS":"中山路三段１００巷５７號","OBJECTID":278438},"geometry":{"x":176734.31000000145,"y":2540977.2800000031}},{"attributes":{"ID":278444,"DIS_CODE":0,"TOWNNAME":"玉井區","LI":"玉田里","LIN":"35鄰","STREET":"大成路","SECT":" ","MAREA":" ","LANE":"２４７巷","ALLEY":" ","HOUSE_NO":"１０號","E_COORD97":195659.51000000001,"N_COORD97":2558116.27,"ADDRESS":"大成路２４７巷１０號","OBJECTID":278439},"geometry":{"x":195659.50999999978,"y":2558116.2700000014}},{"attributes":{"ID":278445,"DIS_CODE":0,"TOWNNAME":"玉井區","LI":"玉田里","LIN":"35鄰","STREET":"大成路","SECT":" ","MAREA":" ","LANE":"２４７巷","ALLEY":" ","HOUSE_NO":"８號","E_COORD97":195662.95999999999,"N_COORD97":2558116.27,"ADDRESS":"大成路２４７巷８號","OBJECTID":278440},"geometry":{"x":195662.95999999996,"y":2558116.2700000014}},{"attributes":{"ID":278446,"DIS_CODE":0,"TOWNNAME":"玉井區","LI":"玉田里","LIN":"35鄰","STREET":"大成路","SECT":" ","MAREA":" ","LANE":"２４７巷","ALLEY":" ","HOUSE_NO":"１２號","E_COORD97":195654.41,"N_COORD97":2558117.27,"ADDRESS":"大成路２４７巷１２號","OBJECTID":278441},"geometry":{"x":195654.41000000108,"y":2558117.2700000014}},{"attributes":{"ID":278447,"DIS_CODE":0,"TOWNNAME":"安平區","LI":"育平里","LIN":"35鄰","STREET":"平豐路","SECT":" ","MAREA":" ","LANE":"２３６巷","ALLEY":" ","HOUSE_NO":"２２號五樓之６","E_COORD97":164381.39999999999,"N_COORD97":2543414.2000000002,"ADDRESS":"平豐路２３６巷２２號五樓之６","OBJECTID":278442},"geometry":{"x":164381.40000000037,"y":2543414.1999999993}},{"attributes":{"ID":278448,"DIS_CODE":0,"TOWNNAME":"安平區","LI":"育平里","LIN":"35鄰","STREET":"平豐路","SECT":" ","MAREA":" ","LANE":"２３６巷","ALLEY":" ","HOUSE_NO":"２２號五樓之７","E_COORD97":164381.39999999999,"N_COORD97":2543414.2000000002,"ADDRESS":"平豐路２３６巷２２號五樓之７","OBJECTID":278443},"geometry":{"x":164381.40000000037,"y":2543414.1999999993}},{"attributes":{"ID":278449,"DIS_CODE":0,"TOWNNAME":"安平區","LI":"育平里","LIN":"35鄰","STREET":"平豐路","SECT":" ","MAREA":" ","LANE":"２３６巷","ALLEY":" ","HOUSE_NO":"２２號五樓之８","E_COORD97":164381.39999999999,"N_COORD97":2543414.2000000002,"ADDRESS":"平豐路２３６巷２２號五樓之８","OBJECTID":278444},"geometry":{"x":164381.40000000037,"y":2543414.1999999993}},{"attributes":{"ID":278450,"DIS_CODE":0,"TOWNNAME":"安平區","LI":"育平里","LIN":"35鄰","STREET":"平豐路","SECT":" ","MAREA":" ","LANE":"２３６巷","ALLEY":" ","HOUSE_NO":"２２號五樓之９","E_COORD97":164381.39999999999,"N_COORD97":2543414.2000000002,"ADDRESS":"平豐路２３６巷２２號五樓之９","OBJECTID":278445},"geometry":{"x":164381.40000000037,"y":2543414.1999999993}},{"attributes":{"ID":278451,"DIS_CODE":0,"TOWNNAME":"永康區","LI":"永康里","LIN":"35鄰","STREET":"大同街","SECT":" ","MAREA":" ","LANE":"８０１巷","ALLEY":" ","HOUSE_NO":"２２號","E_COORD97":174386.09,"N_COORD97":2546984.8199999998,"ADDRESS":"大同街８０１巷２２號","OBJECTID":278446},"geometry":{"x":174386.08999999985,"y":2546984.8200000003}},{"attributes":{"ID":278452,"DIS_CODE":0,"TOWNNAME":"永康區","LI":"永康里","LIN":"35鄰","STREET":"大同街","SECT":" ","MAREA":" ","LANE":"８０１巷","ALLEY":" ","HOUSE_NO":"７號","E_COORD97":174408.76999999999,"N_COORD97":2546979.2400000002,"ADDRESS":"大同街８０１巷７號","OBJECTID":278447},"geometry":{"x":174408.77000000048,"y":2546979.2400000039}},{"attributes":{"ID":278453,"DIS_CODE":0,"TOWNNAME":"永康區","LI":"正強里","LIN":"35鄰","STREET":"正強街","SECT":" ","MAREA":" ","LANE":"３１５巷","ALLEY":" ","HOUSE_NO":"１９號","E_COORD97":173190.04000000001,"N_COORD97":2548287.0800000001,"ADDRESS":"正強街３１５巷１９號","OBJECTID":278448},"geometry":{"x":173190.03999999911,"y":2548287.0800000019}},{"attributes":{"ID":278454,"DIS_CODE":0,"TOWNNAME":"永康區","LI":"永康里","LIN":"35鄰","STREET":"大同街","SECT":" ","MAREA":" ","LANE":"９２８巷","ALLEY":" ","HOUSE_NO":"３０號","E_COORD97":174504.04999999999,"N_COORD97":2546968.6699999999,"ADDRESS":"大同街９２８巷３０號","OBJECTID":278449},"geometry":{"x":174504.05000000075,"y":2546968.6699999999}},{"attributes":{"ID":278455,"DIS_CODE":0,"TOWNNAME":"永康區","LI":"永康里","LIN":"35鄰","STREET":"大同街","SECT":" ","MAREA":" ","LANE":"９２８巷","ALLEY":" ","HOUSE_NO":"１８號","E_COORD97":174484.35999999999,"N_COORD97":2546998.9100000001,"ADDRESS":"大同街９２８巷１８號","OBJECTID":278450},"geometry":{"x":174484.36000000034,"y":2546998.910000002}},{"attributes":{"ID":278456,"DIS_CODE":0,"TOWNNAME":"永康區","LI":"永康里","LIN":"35鄰","STREET":"大同街","SECT":" ","MAREA":" ","LANE":"９２８巷","ALLEY":" ","HOUSE_NO":"２０號","E_COORD97":174488.45999999999,"N_COORD97":2547000.1600000001,"ADDRESS":"大同街９２８巷２０號","OBJECTID":278451},"geometry":{"x":174488.45999999996,"y":2547000.1600000039}},{"attributes":{"ID":278457,"DIS_CODE":0,"TOWNNAME":"永康區","LI":"永康里","LIN":"35鄰","STREET":"大同街","SECT":" ","MAREA":" ","LANE":"９２８巷","ALLEY":" ","HOUSE_NO":"３號","E_COORD97":174455,"N_COORD97":2547006.9900000002,"ADDRESS":"大同街９２８巷３號","OBJECTID":278452},"geometry":{"x":174455.00000000186,"y":2547006.9900000002}},{"attributes":{"ID":278458,"DIS_CODE":0,"TOWNNAME":"永康區","LI":"永康里","LIN":"35鄰","STREET":"大同街","SECT":" ","MAREA":" ","LANE":"９０６巷","ALLEY":" ","HOUSE_NO":"１１號","E_COORD97":174490.12,"N_COORD97":2546972.4199999999,"ADDRESS":"大同街９０６巷１１號","OBJECTID":278453},"geometry":{"x":174490.12000000104,"y":2546972.4200000018}},{"attributes":{"ID":278459,"DIS_CODE":0,"TOWNNAME":"永康區","LI":"永康里","LIN":"35鄰","STREET":"大同街","SECT":" ","MAREA":" ","LANE":"９２８巷","ALLEY":" ","HOUSE_NO":"６號","E_COORD97":174463.29000000001,"N_COORD97":2546993.4100000001,"ADDRESS":"大同街９２８巷６號","OBJECTID":278454},"geometry":{"x":174463.2900000019,"y":2546993.4100000001}},{"attributes":{"ID":278460,"DIS_CODE":0,"TOWNNAME":"永康區","LI":"二王里","LIN":"18鄰","STREET":"中山南路","SECT":" ","MAREA":" ","LANE":" ","ALLEY":" ","HOUSE_NO":"６４２號","E_COORD97":172388.07999999999,"N_COORD97":2546683.0299999998,"ADDRESS":"中山南路６４２號","OBJECTID":278455},"geometry":{"x":172388.08000000194,"y":2546683.0300000012}},{"attributes":{"ID":278461,"DIS_CODE":0,"TOWNNAME":"永康區","LI":"網寮里","LIN":"20鄰","STREET":"文化路","SECT":" ","MAREA":" ","LANE":" ","ALLEY":" ","HOUSE_NO":"３２９號","E_COORD97":173410.70000000001,"N_COORD97":2546158.5699999998,"ADDRESS":"文化路３２９號","OBJECTID":278456},"geometry":{"x":173410.70000000019,"y":2546158.5700000003}},{"attributes":{"ID":278462,"DIS_CODE":0,"TOWNNAME":"永康區","LI":"五王里","LIN":"42鄰","STREET":"五福街","SECT":" ","MAREA":" ","LANE":" ","ALLEY":" ","HOUSE_NO":"１８５號","E_COORD97":171665.95999999999,"N_COORD97":2546058.5899999999,"ADDRESS":"五福街１８５號","OBJECTID":278457},"geometry":{"x":171665.95999999996,"y":2546058.5900000017}},{"attributes":{"ID":278463,"DIS_CODE":0,"TOWNNAME":"永康區","LI":"西橋里","LIN":"1鄰","STREET":"中山南路","SECT":" ","MAREA":" ","LANE":" ","ALLEY":" ","HOUSE_NO":"３５號","E_COORD97":170742.98999999999,"N_COORD97":2545811.5,"ADDRESS":"中山南路３５號","OBJECTID":278458},"geometry":{"x":170742.99000000115,"y":2545811.5000000019}},{"attributes":{"ID":278464,"DIS_CODE":0,"TOWNNAME":"永康區","LI":"永康里","LIN":"35鄰","STREET":"大同街","SECT":" ","MAREA":" ","LANE":"９２８巷","ALLEY":" ","HOUSE_NO":"２６號","E_COORD97":174500.62,"N_COORD97":2546979.6600000001,"ADDRESS":"大同街９２８巷２６號","OBJECTID":278459},"geometry":{"x":174500.62000000104,"y":2546979.6600000039}},{"attributes":{"ID":278465,"DIS_CODE":0,"TOWNNAME":"永康區","LI":"永康里","LIN":"35鄰","STREET":"大同街","SECT":" ","MAREA":" ","LANE":"９０６巷","ALLEY":" ","HOUSE_NO":"５號","E_COORD97":174476.87,"N_COORD97":2546968.9199999999,"ADDRESS":"大同街９０６巷５號","OBJECTID":278460},"geometry":{"x":174476.87000000104,"y":2546968.9200000018}},{"attributes":{"ID":278466,"DIS_CODE":0,"TOWNNAME":"東區","LI":"崇文里","LIN":"35鄰","STREET":"生產路","SECT":" ","MAREA":" ","LANE":"３６７巷","ALLEY":" ","HOUSE_NO":"１０號","E_COORD97":171179.95000000001,"N_COORD97":2540783.1400000001,"ADDRESS":"生產路３６７巷１０號","OBJECTID":278461},"geometry":{"x":171179.95000000019,"y":2540783.1400000025}},{"attributes":{"ID":278467,"DIS_CODE":0,"TOWNNAME":"中西區","LI":"保安里","LIN":"2鄰","STREET":"府前路","SECT":"二段","MAREA":" ","LANE":" ","ALLEY":" ","HOUSE_NO":"１２號二樓","E_COORD97":167701.89999999999,"N_COORD97":2543485.8999999999,"ADDRESS":"府前路二段１２號二樓","OBJECTID":278462},"geometry":{"x":167701.90000000037,"y":2543485.9000000004}},{"attributes":{"ID":278468,"DIS_CODE":0,"TOWNNAME":"東區","LI":"崇文里","LIN":"35鄰","STREET":"生產路","SECT":" ","MAREA":" ","LANE":"３６７巷","ALLEY":" ","HOUSE_NO":"１１號","E_COORD97":171167.64000000001,"N_COORD97":2540748.6400000001,"ADDRESS":"生產路３６７巷１１號","OBJECTID":278463},"geometry":{"x":171167.63999999966,"y":2540748.6399999987}},{"attributes":{"ID":278469,"DIS_CODE":0,"TOWNNAME":"東區","LI":"崇文里","LIN":"35鄰","STREET":"生產路","SECT":" ","MAREA":" ","LANE":"３６７巷","ALLEY":" ","HOUSE_NO":"１２號","E_COORD97":171177.56,"N_COORD97":2540790.6000000001,"ADDRESS":"生產路３６７巷１２號","OBJECTID":278464},"geometry":{"x":171177.56000000052,"y":2540790.5999999996}},{"attributes":{"ID":278470,"DIS_CODE":0,"TOWNNAME":"東區","LI":"崇文里","LIN":"35鄰","STREET":"生產路","SECT":" ","MAREA":" ","LANE":"３６７巷","ALLEY":" ","HOUSE_NO":"１３號","E_COORD97":171164.45000000001,"N_COORD97":2540751.7200000002,"ADDRESS":"生產路３６７巷１３號","OBJECTID":278465},"geometry":{"x":171164.45000000019,"y":2540751.7200000044}},{"attributes":{"ID":278471,"DIS_CODE":0,"TOWNNAME":"東區","LI":"崇文里","LIN":"35鄰","STREET":"生產路","SECT":" ","MAREA":" ","LANE":"３６７巷","ALLEY":" ","HOUSE_NO":"１４號","E_COORD97":171174.73999999999,"N_COORD97":2540798.3599999999,"ADDRESS":"生產路３６７巷１４號","OBJECTID":278466},"geometry":{"x":171174.74000000022,"y":2540798.3600000013}},{"attributes":{"ID":278472,"DIS_CODE":0,"TOWNNAME":"中西區","LI":"保安里","LIN":"2鄰","STREET":"府前路","SECT":"二段","MAREA":" ","LANE":" ","ALLEY":" ","HOUSE_NO":"１２號三樓","E_COORD97":167701.89999999999,"N_COORD97":2543485.8999999999,"ADDRESS":"府前路二段１２號三樓","OBJECTID":278467},"geometry":{"x":167701.90000000037,"y":2543485.9000000004}},{"attributes":{"ID":278473,"DIS_CODE":0,"TOWNNAME":"中西區","LI":"保安里","LIN":"2鄰","STREET":"府前路","SECT":"二段","MAREA":" ","LANE":" ","ALLEY":" ","HOUSE_NO":"１２號五樓","E_COORD97":167701.89999999999,"N_COORD97":2543485.8999999999,"ADDRESS":"府前路二段１２號五樓","OBJECTID":278468},"geometry":{"x":167701.90000000037,"y":2543485.9000000004}},{"attributes":{"ID":278474,"DIS_CODE":0,"TOWNNAME":"中西區","LI":"保安里","LIN":"2鄰","STREET":"府前路","SECT":"二段","MAREA":" ","LANE":" ","ALLEY":" ","HOUSE_NO":"１２號四樓","E_COORD97":167701.89999999999,"N_COORD97":2543485.8999999999,"ADDRESS":"府前路二段１２號四樓","OBJECTID":278469},"geometry":{"x":167701.90000000037,"y":2543485.9000000004}},{"attributes":{"ID":278475,"DIS_CODE":0,"TOWNNAME":"中西區","LI":"大涼里","LIN":"2鄰","STREET":"金華路","SECT":"三段","MAREA":" ","LANE":" ","ALLEY":" ","HOUSE_NO":"１７５號八樓","E_COORD97":167278.60000000001,"N_COORD97":2543790.4700000002,"ADDRESS":"金華路三段１７５號八樓","OBJECTID":278470},"geometry":{"x":167278.60000000056,"y":2543790.4700000007}},{"attributes":{"ID":278476,"DIS_CODE":0,"TOWNNAME":"中西區","LI":"水仙里","LIN":"2鄰","STREET":"民生路","SECT":"二段","MAREA":" ","LANE":" ","ALLEY":" ","HOUSE_NO":"５６號九樓之３","E_COORD97":167753.41,"N_COORD97":2543965.6299999999,"ADDRESS":"民生路二段５６號九樓之３","OBJECTID":278471},"geometry":{"x":167753.41000000108,"y":2543965.6300000008}},{"attributes":{"ID":278477,"DIS_CODE":0,"TOWNNAME":"中西區","LI":"水仙里","LIN":"2鄰","STREET":"民生路","SECT":"二段","MAREA":" ","LANE":" ","ALLEY":" ","HOUSE_NO":"５６號九樓之５","E_COORD97":167753.41,"N_COORD97":2543965.6299999999,"ADDRESS":"民生路二段５６號九樓之５","OBJECTID":278472},"geometry":{"x":167753.41000000108,"y":2543965.6300000008}},{"attributes":{"ID":278478,"DIS_CODE":0,"TOWNNAME":"中西區","LI":"水仙里","LIN":"2鄰","STREET":"民生路","SECT":"二段","MAREA":" ","LANE":" ","ALLEY":" ","HOUSE_NO":"５６號八樓之１","E_COORD97":167753.41,"N_COORD97":2543965.6299999999,"ADDRESS":"民生路二段５６號八樓之１","OBJECTID":278473},"geometry":{"x":167753.41000000108,"y":2543965.6300000008}},{"attributes":{"ID":278479,"DIS_CODE":0,"TOWNNAME":"新營區","LI":"王公里","LIN":"34鄰","STREET":"長榮路","SECT":"一段","MAREA":" ","LANE":" ","ALLEY":" ","HOUSE_NO":"５６１號","E_COORD97":180156.73538200001,"N_COORD97":2579852.8147399998,"ADDRESS":"長榮路一段５６１號","OBJECTID":278474},"geometry":{"x":180156.73538199998,"y":2579852.8147410043}},{"attributes":{"ID":278480,"DIS_CODE":0,"TOWNNAME":"中西區","LI":"水仙里","LIN":"2鄰","STREET":"民生路","SECT":"二段","MAREA":" ","LANE":" ","ALLEY":" ","HOUSE_NO":"５６號八樓之２","E_COORD97":167753.41,"N_COORD97":2543965.6299999999,"ADDRESS":"民生路二段５６號八樓之２","OBJECTID":278475},"geometry":{"x":167753.41000000108,"y":2543965.6300000008}},{"attributes":{"ID":278481,"DIS_CODE":0,"TOWNNAME":"東區","LI":"崇文里","LIN":"35鄰","STREET":"生產路","SECT":" ","MAREA":" ","LANE":"３６７巷","ALLEY":" ","HOUSE_NO":"１５號","E_COORD97":171162.56,"N_COORD97":2540754.7000000002,"ADDRESS":"生產路３６７巷１５號","OBJECTID":278476},"geometry":{"x":171162.56000000052,"y":2540754.7000000011}},{"attributes":{"ID":278482,"DIS_CODE":0,"TOWNNAME":"東區","LI":"崇文里","LIN":"35鄰","STREET":"生產路","SECT":" ","MAREA":" ","LANE":"３６７巷","ALLEY":" ","HOUSE_NO":"１７號","E_COORD97":171160.87,"N_COORD97":2540758.8700000001,"ADDRESS":"生產路３６７巷１７號","OBJECTID":278477},"geometry":{"x":171160.87000000104,"y":2540758.8700000029}},{"attributes":{"ID":278483,"DIS_CODE":0,"TOWNNAME":"東區","LI":"裕聖里","LIN":"8鄰","STREET":"裕信六街","SECT":" ","MAREA":" ","LANE":" ","ALLEY":" ","HOUSE_NO":"１６０號","E_COORD97":172846.35000000001,"N_COORD97":2541857.5499999998,"ADDRESS":"裕信六街１６０號","OBJECTID":278478},"geometry":{"x":172846.34999999963,"y":2541857.5500000007}},{"attributes":{"ID":278484,"DIS_CODE":0,"TOWNNAME":"中西區","LI":"水仙里","LIN":"2鄰","STREET":"民生路","SECT":"二段","MAREA":" ","LANE":" ","ALLEY":" ","HOUSE_NO":"５６號三樓之１","E_COORD97":167753.41,"N_COORD97":2543965.6299999999,"ADDRESS":"民生路二段５６號三樓之１","OBJECTID":278479},"geometry":{"x":167753.41000000108,"y":2543965.6300000008}},{"attributes":{"ID":278485,"DIS_CODE":0,"TOWNNAME":"東區","LI":"崇文里","LIN":"35鄰","STREET":"生產路","SECT":" ","MAREA":" ","LANE":"３６７巷","ALLEY":" ","HOUSE_NO":"１９號","E_COORD97":171158.98000000001,"N_COORD97":2540762.2599999998,"ADDRESS":"生產路３６７巷１９號","OBJECTID":278480},"geometry":{"x":171158.98000000138,"y":2540762.2600000016}},{"attributes":{"ID":278486,"DIS_CODE":0,"TOWNNAME":"東區","LI":"崇文里","LIN":"35鄰","STREET":"生產路","SECT":" ","MAREA":" ","LANE":"３６７巷","ALLEY":" ","HOUSE_NO":"２１號","E_COORD97":171157.09,"N_COORD97":2540766.04,"ADDRESS":"生產路３６７巷２１號","OBJECTID":278481},"geometry":{"x":171157.09000000171,"y":2540766.040000001}},{"attributes":{"ID":278487,"DIS_CODE":0,"TOWNNAME":"東區","LI":"崇文里","LIN":"35鄰","STREET":"生產路","SECT":" ","MAREA":" ","LANE":"３６７巷","ALLEY":" ","HOUSE_NO":"２號","E_COORD97":171190.39999999999,"N_COORD97":2540757.8500000001,"ADDRESS":"生產路３６７巷２號","OBJECTID":278482},"geometry":{"x":171190.40000000037,"y":2540757.8500000015}},{"attributes":{"ID":278488,"DIS_CODE":0,"TOWNNAME":"永康區","LI":"南灣里","LIN":"24鄰","STREET":"立興街","SECT":" ","MAREA":" ","LANE":"９２巷","ALLEY":" ","HOUSE_NO":"１１號","E_COORD97":174474.88,"N_COORD97":2544779.5299999998,"ADDRESS":"立興街９２巷１１號","OBJECTID":278483},"geometry":{"x":174474.88000000082,"y":2544779.5300000031}},{"attributes":{"ID":278489,"DIS_CODE":0,"TOWNNAME":"下營區","LI":"營前里","LIN":"2鄰","STREET":"民權一街","SECT":" ","MAREA":" ","LANE":" ","ALLEY":" ","HOUSE_NO":"１８號四樓","E_COORD97":174549.70999999999,"N_COORD97":2570349.9300000002,"ADDRESS":"民權一街１８號四樓","OBJECTID":278484},"geometry":{"x":174549.70999999996,"y":2570349.9299999997}},{"attributes":{"ID":278490,"DIS_CODE":0,"TOWNNAME":"永康區","LI":"復華里","LIN":"2鄰","STREET":"復國二路","SECT":" ","MAREA":" ","LANE":" ","ALLEY":" ","HOUSE_NO":"２６８號三樓之３","E_COORD97":173058.26999999999,"N_COORD97":2546005.3300000001,"ADDRESS":"復國二路２６８號三樓之３","OBJECTID":278485},"geometry":{"x":173058.27000000048,"y":2546005.3300000038}},{"attributes":{"ID":278491,"DIS_CODE":0,"TOWNNAME":"永康區","LI":"勝利里","LIN":"35鄰","STREET":"勝利街","SECT":" ","MAREA":" ","LANE":"２巷","ALLEY":" ","HOUSE_NO":"３８號","E_COORD97":171061.16,"N_COORD97":2544707,"ADDRESS":"勝利街２巷３８號","OBJECTID":278486},"geometry":{"x":171061.16000000015,"y":2544707.0000000019}},{"attributes":{"ID":278492,"DIS_CODE":0,"TOWNNAME":"永康區","LI":"復國里","LIN":"35鄰","STREET":"復國一路","SECT":" ","MAREA":" ","LANE":"１０３巷","ALLEY":" ","HOUSE_NO":"１４號","E_COORD97":172661.12,"N_COORD97":2545017.0699999998,"ADDRESS":"復國一路１０３巷１４號","OBJECTID":278487},"geometry":{"x":172661.12000000104,"y":2545017.0700000003}},{"attributes":{"ID":278493,"DIS_CODE":0,"TOWNNAME":"永康區","LI":"龍潭里","LIN":"35鄰","STREET":"龍安街","SECT":" ","MAREA":" ","LANE":"１８９巷","ALLEY":" ","HOUSE_NO":"９號","E_COORD97":174618.17000000001,"N_COORD97":2548505.9100000001,"ADDRESS":"龍安街１８９巷９號","OBJECTID":278488},"geometry":{"x":174618.17000000179,"y":2548505.9100000001}},{"attributes":{"ID":278494,"DIS_CODE":0,"TOWNNAME":"永康區","LI":"復華里","LIN":"2鄰","STREET":"復國二路","SECT":" ","MAREA":" ","LANE":" ","ALLEY":" ","HOUSE_NO":"２６０號二樓之２","E_COORD97":173013.04000000001,"N_COORD97":2546005.6400000001,"ADDRESS":"復國二路２６０號二樓之２","OBJECTID":278489},"geometry":{"x":173013.04000000004,"y":2546005.6400000006}},{"attributes":{"ID":278495,"DIS_CODE":0,"TOWNNAME":"永康區","LI":"蔦松里","LIN":"2鄰","STREET":"中正北路","SECT":" ","MAREA":" ","LANE":" ","ALLEY":" ","HOUSE_NO":"５３３號九樓之３","E_COORD97":173895.20999999999,"N_COORD97":2549210.29,"ADDRESS":"中正北路５３３號九樓之３","OBJECTID":278490},"geometry":{"x":173895.20999999996,"y":2549210.290000001}},{"attributes":{"ID":278496,"DIS_CODE":0,"TOWNNAME":"永康區","LI":"埔園里","LIN":"35鄰","STREET":"八德街","SECT":" ","MAREA":" ","LANE":"９１巷","ALLEY":" ","HOUSE_NO":"３號","E_COORD97":174130.04999999999,"N_COORD97":2548474.96,"ADDRESS":"八德街９１巷３號","OBJECTID":278491},"geometry":{"x":174130.04999999981,"y":2548474.9600000028}},{"attributes":{"ID":278497,"DIS_CODE":0,"TOWNNAME":"永康區","LI":"復華里","LIN":"35鄰","STREET":"復國一路","SECT":" ","MAREA":" ","LANE":"４７５巷","ALLEY":" ","HOUSE_NO":"１７號","E_COORD97":172574.19,"N_COORD97":2546090.98,"ADDRESS":"復國一路４７５巷１７號","OBJECTID":278492},"geometry":{"x":172574.19000000227,"y":2546090.9800000023}},{"attributes":{"ID":278498,"DIS_CODE":0,"TOWNNAME":"南區","LI":"大忠里","LIN":"35鄰","STREET":"中華南路","SECT":"一段","MAREA":" ","LANE":"１４２巷","ALLEY":" ","HOUSE_NO":"３０號","E_COORD97":169151.53,"N_COORD97":2541356.73,"ADDRESS":"中華南路一段１４２巷３０號","OBJECTID":278493},"geometry":{"x":169151.53000000119,"y":2541356.7300000004}},{"attributes":{"ID":278499,"DIS_CODE":0,"TOWNNAME":"永康區","LI":"五王里","LIN":"41鄰","STREET":"中山南路","SECT":" ","MAREA":" ","LANE":" ","ALLEY":" ","HOUSE_NO":"１８８號","E_COORD97":171341.82000000001,"N_COORD97":2546030.75,"ADDRESS":"中山南路１８８號","OBJECTID":278494},"geometry":{"x":171341.8200000003,"y":2546030.7500000019}},{"attributes":{"ID":278500,"DIS_CODE":0,"TOWNNAME":"南區","LI":"大忠里","LIN":"35鄰","STREET":"中華南路","SECT":"一段","MAREA":" ","LANE":"１４２巷","ALLEY":" ","HOUSE_NO":"３２號","E_COORD97":169148.82999999999,"N_COORD97":2541360.1600000001,"ADDRESS":"中華南路一段１４２巷３２號","OBJECTID":278495},"geometry":{"x":169148.83000000101,"y":2541360.160000002}},{"attributes":{"ID":278501,"DIS_CODE":0,"TOWNNAME":"歸仁區","LI":"六甲里","LIN":"35鄰","STREET":"六甲六街","SECT":" ","MAREA":" ","LANE":"３５巷","ALLEY":" ","HOUSE_NO":"２８號","E_COORD97":175538.62,"N_COORD97":2539392.25,"ADDRESS":"六甲六街３５巷２８號","OBJECTID":278496},"geometry":{"x":175538.62000000011,"y":2539392.2500000019}},{"attributes":{"ID":278502,"DIS_CODE":0,"TOWNNAME":"永康區","LI":"西灣里","LIN":"29鄰","STREET":"公園路","SECT":" ","MAREA":" ","LANE":"６３巷","ALLEY":" ","HOUSE_NO":"８號","E_COORD97":174322.67999999999,"N_COORD97":2545963.6200000001,"ADDRESS":"公園路６３巷８號","OBJECTID":278497},"geometry":{"x":174322.6799999997,"y":2545963.6199999992}},{"attributes":{"ID":278503,"DIS_CODE":0,"TOWNNAME":"歸仁區","LI":"六甲里","LIN":"35鄰","STREET":"六甲六街","SECT":" ","MAREA":" ","LANE":"３５巷","ALLEY":" ","HOUSE_NO":"１２號","E_COORD97":175578.123131,"N_COORD97":2539386.7919000001,"ADDRESS":"六甲六街３５巷１２號","OBJECTID":278498},"geometry":{"x":175578.1231310023,"y":2539386.7918980047}},{"attributes":{"ID":278504,"DIS_CODE":0,"TOWNNAME":"歸仁區","LI":"南興里","LIN":"35鄰","STREET":"民生北街","SECT":" ","MAREA":" ","LANE":"５０巷","ALLEY":" ","HOUSE_NO":"７０號","E_COORD97":176430.73999999999,"N_COORD97":2541060.29,"ADDRESS":"民生北街５０巷７０號","OBJECTID":278499},"geometry":{"x":176430.74000000115,"y":2541060.2899999991}},{"attributes":{"ID":278505,"DIS_CODE":0,"TOWNNAME":"玉井區","LI":"玉田里","LIN":"35鄰","STREET":"大成路","SECT":" ","MAREA":" ","LANE":"２４９巷","ALLEY":" ","HOUSE_NO":"５號","E_COORD97":195663.95999999999,"N_COORD97":2558142.27,"ADDRESS":"大成路２４９巷５號","OBJECTID":278500},"geometry":{"x":195663.96000000089,"y":2558142.2699999996}},{"attributes":{"ID":278506,"DIS_CODE":0,"TOWNNAME":"玉井區","LI":"玉田里","LIN":"35鄰","STREET":"民族路","SECT":" ","MAREA":" ","LANE":"２５１巷","ALLEY":" ","HOUSE_NO":"６號","E_COORD97":195633.67999999999,"N_COORD97":2558114.29,"ADDRESS":"民族路２５１巷６號","OBJECTID":278501},"geometry":{"x":195633.68000000063,"y":2558114.2899999991}},{"attributes":{"ID":278507,"DIS_CODE":0,"TOWNNAME":"歸仁區","LI":"六甲里","LIN":"35鄰","STREET":"六甲六街","SECT":" ","MAREA":" ","LANE":"３５巷","ALLEY":" ","HOUSE_NO":"６號","E_COORD97":175607.360835,"N_COORD97":2539383.51107,"ADDRESS":"六甲六街３５巷６號","OBJECTID":278502},"geometry":{"x":175607.3608350018,"y":2539383.5110660046}},{"attributes":{"ID":278508,"DIS_CODE":0,"TOWNNAME":"北區","LI":"成德里","LIN":"35鄰","STREET":"育德一街","SECT":" ","MAREA":" ","LANE":"２０８巷","ALLEY":" ","HOUSE_NO":"２號","E_COORD97":168557.92999999999,"N_COORD97":2546201.3900000001,"ADDRESS":"育德一街２０８巷２號","OBJECTID":278503},"geometry":{"x":168557.93000000063,"y":2546201.3900000006}},{"attributes":{"ID":278509,"DIS_CODE":0,"TOWNNAME":"北區","LI":"成德里","LIN":"35鄰","STREET":"育德一街","SECT":" ","MAREA":" ","LANE":"２０８巷","ALLEY":" ","HOUSE_NO":"３號","E_COORD97":168560.14999999999,"N_COORD97":2546213.6099999999,"ADDRESS":"育德一街２０８巷３號","OBJECTID":278504},"geometry":{"x":168560.15000000224,"y":2546213.6100000013}},{"attributes":{"ID":278510,"DIS_CODE":0,"TOWNNAME":"北區","LI":"成德里","LIN":"35鄰","STREET":"育德一街","SECT":" ","MAREA":" ","LANE":"２０８巷","ALLEY":" ","HOUSE_NO":"５號","E_COORD97":168566.5,"N_COORD97":2546213.46,"ADDRESS":"育德一街２０８巷５號","OBJECTID":278505},"geometry":{"x":168566.50000000093,"y":2546213.4600000028}},{"attributes":{"ID":278511,"DIS_CODE":0,"TOWNNAME":"北區","LI":"成德里","LIN":"35鄰","STREET":"育德一街","SECT":" ","MAREA":" ","LANE":"２０８巷","ALLEY":" ","HOUSE_NO":"６號","E_COORD97":168564.60000000001,"N_COORD97":2546200.9100000001,"ADDRESS":"育德一街２０８巷６號","OBJECTID":278506},"geometry":{"x":168564.59999999963,"y":2546200.9100000001}},{"attributes":{"ID":278512,"DIS_CODE":0,"TOWNNAME":"永康區","LI":"埔園里","LIN":"35鄰","STREET":"龍埔街","SECT":" ","MAREA":" ","LANE":"３２８巷","ALLEY":" ","HOUSE_NO":"１號","E_COORD97":174302.89999999999,"N_COORD97":2548306.0299999998,"ADDRESS":"龍埔街３２８巷１號","OBJECTID":278507},"geometry":{"x":174302.90000000037,"y":2548306.0300000012}},{"attributes":{"ID":278513,"DIS_CODE":0,"TOWNNAME":"北區","LI":"成德里","LIN":"35鄰","STREET":"育德一街","SECT":" ","MAREA":" ","LANE":"２０８巷","ALLEY":" ","HOUSE_NO":"７號","E_COORD97":168572.69,"N_COORD97":2546212.98,"ADDRESS":"育德一街２０８巷７號","OBJECTID":278508},"geometry":{"x":168572.69000000041,"y":2546212.9800000023}},{"attributes":{"ID":278514,"DIS_CODE":0,"TOWNNAME":"北區","LI":"成德里","LIN":"35鄰","STREET":"育德一街","SECT":" ","MAREA":" ","LANE":"２０８巷","ALLEY":" ","HOUSE_NO":"８號","E_COORD97":168570.95000000001,"N_COORD97":2546200.4399999999,"ADDRESS":"育德一街２０８巷８號","OBJECTID":278509},"geometry":{"x":168570.95000000019,"y":2546200.4399999995}},{"attributes":{"ID":278515,"DIS_CODE":0,"TOWNNAME":"北區","LI":"成德里","LIN":"35鄰","STREET":"育德一街","SECT":" ","MAREA":" ","LANE":"２０８巷","ALLEY":" ","HOUSE_NO":"９號","E_COORD97":168579.20000000001,"N_COORD97":2546212.5,"ADDRESS":"育德一街２０８巷９號","OBJECTID":278510},"geometry":{"x":168579.20000000019,"y":2546212.5000000019}},{"attributes":{"ID":278516,"DIS_CODE":0,"TOWNNAME":"北區","LI":"成德里","LIN":"35鄰","STREET":"育德一街","SECT":" ","MAREA":" ","LANE":"２０８巷","ALLEY":" ","HOUSE_NO":"１０號","E_COORD97":168577.62,"N_COORD97":2546200.1200000001,"ADDRESS":"育德一街２０８巷１０號","OBJECTID":278511},"geometry":{"x":168577.62000000104,"y":2546200.120000001}},{"attributes":{"ID":278517,"DIS_CODE":0,"TOWNNAME":"歸仁區","LI":"南保里","LIN":"35鄰","STREET":"中山路","SECT":"三段","MAREA":" ","LANE":"１００巷","ALLEY":" ","HOUSE_NO":"６１號","E_COORD97":176744.51000000001,"N_COORD97":2540976.2799999998,"ADDRESS":"中山路三段１００巷６１號","OBJECTID":278512},"geometry":{"x":176744.50999999978,"y":2540976.2799999993}},{"attributes":{"ID":278518,"DIS_CODE":0,"TOWNNAME":"歸仁區","LI":"南保里","LIN":"35鄰","STREET":"中山路","SECT":"三段","MAREA":" ","LANE":"１００巷","ALLEY":" ","HOUSE_NO":"５１號","E_COORD97":176720.91,"N_COORD97":2540978.2799999998,"ADDRESS":"中山路三段１００巷５１號","OBJECTID":278513},"geometry":{"x":176720.91000000108,"y":2540978.2800000012}},{"attributes":{"ID":278519,"DIS_CODE":0,"TOWNNAME":"歸仁區","LI":"南保里","LIN":"35鄰","STREET":"中山路","SECT":"三段","MAREA":" ","LANE":"１００巷","ALLEY":" ","HOUSE_NO":"３３號","E_COORD97":176702.85000000001,"N_COORD97":2540966.6400000001,"ADDRESS":"中山路三段１００巷３３號","OBJECTID":278514},"geometry":{"x":176702.84999999963,"y":2540966.6400000025}},{"attributes":{"ID":278520,"DIS_CODE":0,"TOWNNAME":"歸仁區","LI":"南興里","LIN":"35鄰","STREET":"民生北街","SECT":" ","MAREA":" ","LANE":"５０巷","ALLEY":" ","HOUSE_NO":"６號","E_COORD97":176305.48999999999,"N_COORD97":2541069.29,"ADDRESS":"民生北街５０巷６號","OBJECTID":278515},"geometry":{"x":176305.49000000115,"y":2541069.290000001}},{"attributes":{"ID":278521,"DIS_CODE":0,"TOWNNAME":"歸仁區","LI":"南保里","LIN":"35鄰","STREET":"中山路","SECT":"三段","MAREA":" ","LANE":"１００巷","ALLEY":" ","HOUSE_NO":"４５號","E_COORD97":176705.60999999999,"N_COORD97":2540980.2799999998,"ADDRESS":"中山路三段１００巷４５號","OBJECTID":278516},"geometry":{"x":176705.61000000034,"y":2540980.2799999975}},{"attributes":{"ID":278522,"DIS_CODE":0,"TOWNNAME":"歸仁區","LI":"南保里","LIN":"35鄰","STREET":"中山路","SECT":"三段","MAREA":" ","LANE":"１００巷","ALLEY":" ","HOUSE_NO":"３９號","E_COORD97":176688.45000000001,"N_COORD97":2540967.6400000001,"ADDRESS":"中山路三段１００巷３９號","OBJECTID":278517},"geometry":{"x":176688.45000000112,"y":2540967.6400000006}},{"attributes":{"ID":278523,"DIS_CODE":0,"TOWNNAME":"歸仁區","LI":"南保里","LIN":"35鄰","STREET":"中山路","SECT":"三段","MAREA":" ","LANE":"１００巷","ALLEY":" ","HOUSE_NO":"４９號","E_COORD97":176714.81,"N_COORD97":2540979.2799999998,"ADDRESS":"中山路三段１００巷４９號","OBJECTID":278518},"geometry":{"x":176714.80999999959,"y":2540979.2799999993}},{"attributes":{"ID":278524,"DIS_CODE":0,"TOWNNAME":"永康區","LI":"五王里","LIN":"40鄰","STREET":"中山南路","SECT":" ","MAREA":" ","LANE":" ","ALLEY":" ","HOUSE_NO":"１６４號底一層","E_COORD97":171285.06,"N_COORD97":2546011.5099999998,"ADDRESS":"中山南路１６４號底一層","OBJECTID":278519},"geometry":{"x":171285.05999999959,"y":2546011.5100000016}},{"attributes":{"ID":278525,"DIS_CODE":0,"TOWNNAME":"永康區","LI":"大灣里","LIN":"10鄰","STREET":"大同街","SECT":" ","MAREA":" ","LANE":" ","ALLEY":" ","HOUSE_NO":"９５號","E_COORD97":175040.45999999999,"N_COORD97":2545501.1200000001,"ADDRESS":"大同街９５號","OBJECTID":278520},"geometry":{"x":175040.46000000089,"y":2545501.120000001}},{"attributes":{"ID":278526,"DIS_CODE":0,"TOWNNAME":"北區","LI":"成德里","LIN":"35鄰","STREET":"育德路","SECT":" ","MAREA":" ","LANE":"５９９巷","ALLEY":" ","HOUSE_NO":"２３號","E_COORD97":168674.47,"N_COORD97":2546304.1099999999,"ADDRESS":"育德路５９９巷２３號","OBJECTID":278521},"geometry":{"x":168674.47000000067,"y":2546304.1099999994}},{"attributes":{"ID":278527,"DIS_CODE":0,"TOWNNAME":"北區","LI":"成德里","LIN":"35鄰","STREET":"育德路","SECT":" ","MAREA":" ","LANE":"５９９巷","ALLEY":" ","HOUSE_NO":"２１號","E_COORD97":168680.98000000001,"N_COORD97":2546303,"ADDRESS":"育德路５９９巷２１號","OBJECTID":278522},"geometry":{"x":168680.98000000045,"y":2546303.0000000019}},{"attributes":{"ID":278528,"DIS_CODE":0,"TOWNNAME":"北區","LI":"成德里","LIN":"35鄰","STREET":"文成二路","SECT":" ","MAREA":" ","LANE":"５２巷","ALLEY":" ","HOUSE_NO":"７號","E_COORD97":168638.59,"N_COORD97":2546200.0499999998,"ADDRESS":"文成二路５２巷７號","OBJECTID":278523},"geometry":{"x":168638.59000000078,"y":2546200.0500000007}},{"attributes":{"ID":278529,"DIS_CODE":0,"TOWNNAME":"北區","LI":"成德里","LIN":"35鄰","STREET":"文成二路","SECT":" ","MAREA":" ","LANE":"５２巷","ALLEY":" ","HOUSE_NO":"６號","E_COORD97":168644.82000000001,"N_COORD97":2546189.8900000001,"ADDRESS":"文成二路５２巷６號","OBJECTID":278524},"geometry":{"x":168644.8200000003,"y":2546189.8900000025}},{"attributes":{"ID":278530,"DIS_CODE":0,"TOWNNAME":"東區","LI":"裕聖里","LIN":"8鄰","STREET":"裕信六街","SECT":" ","MAREA":" ","LANE":" ","ALLEY":" ","HOUSE_NO":"１６２號","E_COORD97":172846.98000000001,"N_COORD97":2541850.3399999999,"ADDRESS":"裕信六街１６２號","OBJECTID":278525},"geometry":{"x":172846.98000000231,"y":2541850.3399999999}},{"attributes":{"ID":278531,"DIS_CODE":0,"TOWNNAME":"北區","LI":"成德里","LIN":"35鄰","STREET":"文成二路","SECT":" ","MAREA":" ","LANE":"５２巷","ALLEY":" ","HOUSE_NO":"８號","E_COORD97":168645.57999999999,"N_COORD97":2546194.46,"ADDRESS":"文成二路５２巷８號","OBJECTID":278526},"geometry":{"x":168645.58000000101,"y":2546194.4600000009}},{"attributes":{"ID":278532,"DIS_CODE":0,"TOWNNAME":"北區","LI":"成德里","LIN":"35鄰","STREET":"文成二路","SECT":" ","MAREA":" ","LANE":"５２巷","ALLEY":" ","HOUSE_NO":"１０號","E_COORD97":168646.09,"N_COORD97":2546199.4100000001,"ADDRESS":"文成二路５２巷１０號","OBJECTID":278527},"geometry":{"x":168646.08999999985,"y":2546199.410000002}},{"attributes":{"ID":278533,"DIS_CODE":0,"TOWNNAME":"仁德區","LI":"後壁里","LIN":"35鄰","STREET":"德洋二街","SECT":" ","MAREA":" ","LANE":"８巷","ALLEY":" ","HOUSE_NO":"８號","E_COORD97":172424.04000000001,"N_COORD97":2539412.7599999998,"ADDRESS":"德洋二街８巷８號","OBJECTID":278528},"geometry":{"x":172424.0400000019,"y":2539412.7600000016}},{"attributes":{"ID":278534,"DIS_CODE":0,"TOWNNAME":"南區","LI":"大忠里","LIN":"35鄰","STREET":"中華南路","SECT":"一段","MAREA":" ","LANE":"１４２巷","ALLEY":" ","HOUSE_NO":"５４號","E_COORD97":169113.81,"N_COORD97":2541398.4700000002,"ADDRESS":"中華南路一段１４２巷５４號","OBJECTID":278529},"geometry":{"x":169113.80999999959,"y":2541398.4700000025}},{"attributes":{"ID":278535,"DIS_CODE":0,"TOWNNAME":"南區","LI":"大忠里","LIN":"35鄰","STREET":"中華南路","SECT":"一段","MAREA":" ","LANE":"１４２巷","ALLEY":" ","HOUSE_NO":"５５號","E_COORD97":169038.53,"N_COORD97":2541442.4700000002,"ADDRESS":"中華南路一段１４２巷５５號","OBJECTID":278530},"geometry":{"x":169038.53000000026,"y":2541442.4700000025}},{"attributes":{"ID":278536,"DIS_CODE":0,"TOWNNAME":"歸仁區","LI":"許厝里","LIN":"35鄰","STREET":"公園路","SECT":" ","MAREA":" ","LANE":"１５６巷","ALLEY":" ","HOUSE_NO":"２２號","E_COORD97":177852.07999999999,"N_COORD97":2540520.8199999998,"ADDRESS":"公園路１５６巷２２號","OBJECTID":278531},"geometry":{"x":177852.08000000101,"y":2540520.8200000022}},{"attributes":{"ID":278537,"DIS_CODE":0,"TOWNNAME":"歸仁區","LI":"許厝里","LIN":"35鄰","STREET":"公園路","SECT":" ","MAREA":" ","LANE":"１５６巷","ALLEY":" ","HOUSE_NO":"２４號","E_COORD97":177853.07999999999,"N_COORD97":2540523.8199999998,"ADDRESS":"公園路１５６巷２４號","OBJECTID":278532},"geometry":{"x":177853.08000000007,"y":2540523.8200000022}},{"attributes":{"ID":278538,"DIS_CODE":0,"TOWNNAME":"歸仁區","LI":"南保里","LIN":"35鄰","STREET":"中山路","SECT":"三段","MAREA":" ","LANE":"１００巷","ALLEY":" ","HOUSE_NO":"６３號","E_COORD97":176737.76000000001,"N_COORD97":2540974.25,"ADDRESS":"中山路三段１００巷６３號","OBJECTID":278533},"geometry":{"x":176737.75999999978,"y":2540974.25}},{"attributes":{"ID":278539,"DIS_CODE":0,"TOWNNAME":"歸仁區","LI":"後市里","LIN":"35鄰","STREET":"國光街","SECT":" ","MAREA":" ","LANE":"８９巷","ALLEY":" ","HOUSE_NO":"１０號","E_COORD97":177266.84,"N_COORD97":2540993.7400000002,"ADDRESS":"國光街８９巷１０號","OBJECTID":278534},"geometry":{"x":177266.84000000078,"y":2540993.7400000002}},{"attributes":{"ID":278540,"DIS_CODE":0,"TOWNNAME":"歸仁區","LI":"許厝里","LIN":"35鄰","STREET":"公園路","SECT":" ","MAREA":" ","LANE":"１５６巷","ALLEY":" ","HOUSE_NO":"１８號","E_COORD97":177852.07999999999,"N_COORD97":2540513.8199999998,"ADDRESS":"公園路１５６巷１８號","OBJECTID":278535},"geometry":{"x":177852.08000000101,"y":2540513.8200000022}},{"attributes":{"ID":278541,"DIS_CODE":0,"TOWNNAME":"歸仁區","LI":"後市里","LIN":"35鄰","STREET":"國光街","SECT":" ","MAREA":" ","LANE":"８９巷","ALLEY":" ","HOUSE_NO":"２號","E_COORD97":177265.48999999999,"N_COORD97":2540978.7400000002,"ADDRESS":"國光街８９巷２號","OBJECTID":278536},"geometry":{"x":177265.49000000022,"y":2540978.7400000021}},{"attributes":{"ID":278542,"DIS_CODE":0,"TOWNNAME":"歸仁區","LI":"許厝里","LIN":"35鄰","STREET":"和平南街","SECT":" ","MAREA":" ","LANE":"７１巷","ALLEY":" ","HOUSE_NO":"１號","E_COORD97":177836.53,"N_COORD97":2540540.8199999998,"ADDRESS":"和平南街７１巷１號","OBJECTID":278537},"geometry":{"x":177836.53000000026,"y":2540540.8200000022}},{"attributes":{"ID":278543,"DIS_CODE":0,"TOWNNAME":"歸仁區","LI":"後市里","LIN":"35鄰","STREET":"中山八街","SECT":" ","MAREA":" ","LANE":"４６巷","ALLEY":" ","HOUSE_NO":"６號","E_COORD97":177249.42999999999,"N_COORD97":2541006.7400000002,"ADDRESS":"中山八街４６巷６號","OBJECTID":278538},"geometry":{"x":177249.43000000063,"y":2541006.7400000021}},{"attributes":{"ID":278544,"DIS_CODE":0,"TOWNNAME":"永康區","LI":"埔園里","LIN":"35鄰","STREET":"龍埔街","SECT":" ","MAREA":" ","LANE":"３２８巷","ALLEY":" ","HOUSE_NO":"３號","E_COORD97":174300.72,"N_COORD97":2548312.8199999998,"ADDRESS":"龍埔街３２８巷３號","OBJECTID":278539},"geometry":{"x":174300.7200000016,"y":2548312.8200000022}},{"attributes":{"ID":278545,"DIS_CODE":0,"TOWNNAME":"永康區","LI":"埔園里","LIN":"35鄰","STREET":"龍埔街","SECT":" ","MAREA":" ","LANE":"３２８巷","ALLEY":" ","HOUSE_NO":"６號","E_COORD97":174322.76000000001,"N_COORD97":2548304.9300000002,"ADDRESS":"龍埔街３２８巷６號","OBJECTID":278540},"geometry":{"x":174322.76000000071,"y":2548304.9299999997}},{"attributes":{"ID":278546,"DIS_CODE":0,"TOWNNAME":"永康區","LI":"埔園里","LIN":"35鄰","STREET":"龍埔街","SECT":" ","MAREA":" ","LANE":"３２８巷","ALLEY":" ","HOUSE_NO":"１０號","E_COORD97":174323.17999999999,"N_COORD97":2548315.3599999999,"ADDRESS":"龍埔街３２８巷１０號","OBJECTID":278541},"geometry":{"x":174323.18000000063,"y":2548315.3599999994}},{"attributes":{"ID":278548,"DIS_CODE":0,"TOWNNAME":"永康區","LI":"永康里","LIN":"35鄰","STREET":"大同街","SECT":" ","MAREA":" ","LANE":"８０１巷","ALLEY":" ","HOUSE_NO":"３號","E_COORD97":174416.72,"N_COORD97":2546981.7400000002,"ADDRESS":"大同街８０１巷３號","OBJECTID":278542},"geometry":{"x":174416.72000000067,"y":2546981.7400000002}},{"attributes":{"ID":278549,"DIS_CODE":0,"TOWNNAME":"永康區","LI":"尚頂里","LIN":"14鄰","STREET":"中正南路","SECT":" ","MAREA":" ","LANE":" ","ALLEY":" ","HOUSE_NO":"２４８號","E_COORD97":170323.56,"N_COORD97":2547529.0600000001,"ADDRESS":"中正南路２４８號","OBJECTID":278543},"geometry":{"x":170323.56000000052,"y":2547529.0600000005}},{"attributes":{"ID":278550,"DIS_CODE":0,"TOWNNAME":"永康區","LI":"蔦松里","LIN":"2鄰","STREET":"中正北路","SECT":" ","MAREA":" ","LANE":" ","ALLEY":" ","HOUSE_NO":"５３９號十一樓之１","E_COORD97":173924.51000000001,"N_COORD97":2549218.29,"ADDRESS":"中正北路５３９號十一樓之１","OBJECTID":278544},"geometry":{"x":173924.51000000071,"y":2549218.2899999991}},{"attributes":{"ID":278551,"DIS_CODE":0,"TOWNNAME":"永康區","LI":"復華里","LIN":"2鄰","STREET":"復國二路","SECT":" ","MAREA":" ","LANE":" ","ALLEY":" ","HOUSE_NO":"２６８號之３五樓之４","E_COORD97":173029.01000000001,"N_COORD97":2546012.6299999999,"ADDRESS":"復國二路２６８號之３五樓之４","OBJECTID":278545},"geometry":{"x":173029.01000000164,"y":2546012.6300000027}},{"attributes":{"ID":278552,"DIS_CODE":0,"TOWNNAME":"東區","LI":"裕聖里","LIN":"8鄰","STREET":"裕信六街","SECT":" ","MAREA":" ","LANE":" ","ALLEY":" ","HOUSE_NO":"１６６號","E_COORD97":172847.60999999999,"N_COORD97":2541845.0099999998,"ADDRESS":"裕信六街１６６號","OBJECTID":278546},"geometry":{"x":172847.6100000022,"y":2541845.0100000016}},{"attributes":{"ID":278553,"DIS_CODE":0,"TOWNNAME":"永康區","LI":"正強里","LIN":"35鄰","STREET":"正強街","SECT":" ","MAREA":" ","LANE":"３１５巷","ALLEY":" ","HOUSE_NO":"１６號","E_COORD97":173206.03,"N_COORD97":2548304.25,"ADDRESS":"正強街３１５巷１６號","OBJECTID":278547},"geometry":{"x":173206.03000000119,"y":2548304.25}},{"attributes":{"ID":278554,"DIS_CODE":0,"TOWNNAME":"東區","LI":"裕聖里","LIN":"8鄰","STREET":"裕信六街","SECT":" ","MAREA":" ","LANE":" ","ALLEY":" ","HOUSE_NO":"１６８號","E_COORD97":172847.92000000001,"N_COORD97":2541839.9900000002,"ADDRESS":"裕信六街１６８號","OBJECTID":278548},"geometry":{"x":172847.91999999993,"y":2541839.9900000002}},{"attributes":{"ID":278555,"DIS_CODE":0,"TOWNNAME":"永康區","LI":"正強里","LIN":"35鄰","STREET":"正強街","SECT":" ","MAREA":" ","LANE":"３１３巷","ALLEY":" ","HOUSE_NO":"１７號","E_COORD97":173202.88,"N_COORD97":2548243.1499999999,"ADDRESS":"正強街３１３巷１７號","OBJECTID":278549},"geometry":{"x":173202.88000000175,"y":2548243.1500000004}},{"attributes":{"ID":278556,"DIS_CODE":0,"TOWNNAME":"永康區","LI":"正強里","LIN":"35鄰","STREET":"正強街","SECT":" ","MAREA":" ","LANE":"３１１巷","ALLEY":" ","HOUSE_NO":"１８號","E_COORD97":173210.95000000001,"N_COORD97":2548217.0299999998,"ADDRESS":"正強街３１１巷１８號","OBJECTID":278550},"geometry":{"x":173210.95000000019,"y":2548217.0299999975}},{"attributes":{"ID":278557,"DIS_CODE":0,"TOWNNAME":"安南區","LI":"安富里","LIN":"35鄰","STREET":"海佃路","SECT":"一段","MAREA":" ","LANE":"１５８巷","ALLEY":" ","HOUSE_NO":"１４６號","E_COORD97":167672.79000000001,"N_COORD97":2547276.5499999998,"ADDRESS":"海佃路一段１５８巷１４６號","OBJECTID":278551},"geometry":{"x":167672.79000000097,"y":2547276.5500000026}},{"attributes":{"ID":278558,"DIS_CODE":0,"TOWNNAME":"安南區","LI":"安富里","LIN":"35鄰","STREET":"海佃路","SECT":"一段","MAREA":" ","LANE":"１５８巷","ALLEY":" ","HOUSE_NO":"１４８號","E_COORD97":167678.66,"N_COORD97":2547277.6600000001,"ADDRESS":"海佃路一段１５８巷１４８號","OBJECTID":278552},"geometry":{"x":167678.66000000108,"y":2547277.6600000001}},{"attributes":{"ID":278559,"DIS_CODE":0,"TOWNNAME":"東區","LI":"南聖里","LIN":"14鄰","STREET":"裕誠街","SECT":" ","MAREA":" ","LANE":" ","ALLEY":" ","HOUSE_NO":"２９１號","E_COORD97":172727.964977,"N_COORD97":2543360.7206899999,"ADDRESS":"裕誠街２９１號","OBJECTID":278553},"geometry":{"x":172727.96497700177,"y":2543360.7206859998}},{"attributes":{"ID":278560,"DIS_CODE":0,"TOWNNAME":"東區","LI":"南聖里","LIN":"14鄰","STREET":"裕誠街","SECT":" ","MAREA":" ","LANE":" ","ALLEY":" ","HOUSE_NO":"２８１號","E_COORD97":172707.963239,"N_COORD97":2543356.5326299998,"ADDRESS":"裕誠街２８１號","OBJECTID":278554},"geometry":{"x":172707.96323900018,"y":2543356.5326270014}},{"attributes":{"ID":278561,"DIS_CODE":0,"TOWNNAME":"東區","LI":"關聖里","LIN":"15鄰","STREET":"裕忠路","SECT":" ","MAREA":" ","LANE":" ","ALLEY":" ","HOUSE_NO":"７１之１號","E_COORD97":172287.44,"N_COORD97":2543069.48,"ADDRESS":"裕忠路７１之１號","OBJECTID":278555},"geometry":{"x":172287.44000000041,"y":2543069.4800000023}},{"attributes":{"ID":278562,"DIS_CODE":0,"TOWNNAME":"永康區","LI":"東橋里","LIN":"15鄰","STREET":"東橋五路","SECT":" ","MAREA":" ","LANE":"８８巷","ALLEY":" ","HOUSE_NO":"２號","E_COORD97":171748.70000000001,"N_COORD97":2546723.7799999998,"ADDRESS":"東橋五路８８巷２號","OBJECTID":278556},"geometry":{"x":171748.70000000112,"y":2546723.7800000031}},{"attributes":{"ID":278563,"DIS_CODE":0,"TOWNNAME":"仁德區","LI":"後壁里","LIN":"35鄰","STREET":"德洋路","SECT":" ","MAREA":" ","LANE":"２０５巷","ALLEY":" ","HOUSE_NO":"１３號","E_COORD97":172451.88,"N_COORD97":2539502.02,"ADDRESS":"德洋路２０５巷１３號","OBJECTID":278557},"geometry":{"x":172451.87999999896,"y":2539502.0200000014}},{"attributes":{"ID":278564,"DIS_CODE":0,"TOWNNAME":"仁德區","LI":"後壁里","LIN":"35鄰","STREET":"德洋二街","SECT":" ","MAREA":" ","LANE":"８巷","ALLEY":" ","HOUSE_NO":"１８號","E_COORD97":172413.48000000001,"N_COORD97":2539431.7599999998,"ADDRESS":"德洋二街８巷１８號","OBJECTID":278558},"geometry":{"x":172413.48000000138,"y":2539431.7600000035}},{"attributes":{"ID":278565,"DIS_CODE":0,"TOWNNAME":"仁德區","LI":"後壁里","LIN":"35鄰","STREET":"德洋二街","SECT":" ","MAREA":" ","LANE":"８巷","ALLEY":" ","HOUSE_NO":"６號","E_COORD97":172426.57000000001,"N_COORD97":2539408.77,"ADDRESS":"德洋二街８巷６號","OBJECTID":278559},"geometry":{"x":172426.5700000003,"y":2539408.7700000014}},{"attributes":{"ID":278566,"DIS_CODE":0,"TOWNNAME":"仁德區","LI":"成功里","LIN":"35鄰","STREET":"成功一街","SECT":" ","MAREA":" ","LANE":"６７巷","ALLEY":" ","HOUSE_NO":"６號","E_COORD97":170564.60000000001,"N_COORD97":2540050.0099999998,"ADDRESS":"成功一街６７巷６號","OBJECTID":278560},"geometry":{"x":170564.59999999963,"y":2540050.0099999998}},{"attributes":{"ID":278567,"DIS_CODE":0,"TOWNNAME":"永康區","LI":"勝利里","LIN":"35鄰","STREET":"勝利街","SECT":" ","MAREA":" ","LANE":"２巷","ALLEY":" ","HOUSE_NO":"１號之２３","E_COORD97":171135.35000000001,"N_COORD97":2544690.5499999998,"ADDRESS":"勝利街２巷１號之２３","OBJECTID":278561},"geometry":{"x":171135.35000000056,"y":2544690.5500000026}},{"attributes":{"ID":278568,"DIS_CODE":0,"TOWNNAME":"永康區","LI":"勝利里","LIN":"35鄰","STREET":"勝利街","SECT":" ","MAREA":" ","LANE":"２巷","ALLEY":" ","HOUSE_NO":"１９號","E_COORD97":171082.48999999999,"N_COORD97":2544691.2599999998,"ADDRESS":"勝利街２巷１９號","OBJECTID":278562},"geometry":{"x":171082.49000000115,"y":2544691.2600000016}},{"attributes":{"ID":278569,"DIS_CODE":0,"TOWNNAME":"永康區","LI":"南灣里","LIN":"35鄰","STREET":"南灣街","SECT":" ","MAREA":" ","LANE":"６０巷","ALLEY":" ","HOUSE_NO":"１７號","E_COORD97":174553.67000000001,"N_COORD97":2544967.1600000001,"ADDRESS":"南灣街６０巷１７號","OBJECTID":278563},"geometry":{"x":174553.66999999899,"y":2544967.160000002}},{"attributes":{"ID":278570,"DIS_CODE":0,"TOWNNAME":"永康區","LI":"崑山里","LIN":"35鄰","STREET":"大灣路","SECT":" ","MAREA":" ","LANE":"９４２巷","ALLEY":" ","HOUSE_NO":"２９７號","E_COORD97":173806.23000000001,"N_COORD97":2545036.73,"ADDRESS":"大灣路９４２巷２９７號","OBJECTID":278564},"geometry":{"x":173806.22999999952,"y":2545036.7299999986}},{"attributes":{"ID":278571,"DIS_CODE":0,"TOWNNAME":"永康區","LI":"龍潭里","LIN":"38鄰","STREET":"國民路","SECT":" ","MAREA":" ","LANE":" ","ALLEY":" ","HOUSE_NO":"８９號","E_COORD97":174360.64999999999,"N_COORD97":2547304.9199999999,"ADDRESS":"國民路８９號","OBJECTID":278565},"geometry":{"x":174360.65000000037,"y":2547304.9199999999}},{"attributes":{"ID":278572,"DIS_CODE":0,"TOWNNAME":"永康區","LI":"龍潭里","LIN":"31鄰","STREET":"龍中街","SECT":" ","MAREA":" ","LANE":" ","ALLEY":" ","HOUSE_NO":"４０號","E_COORD97":174480.17999999999,"N_COORD97":2547913.3399999999,"ADDRESS":"龍中街４０號","OBJECTID":278566},"geometry":{"x":174480.1799999997,"y":2547913.3399999999}},{"attributes":{"ID":278573,"DIS_CODE":0,"TOWNNAME":"永康區","LI":"勝利里","LIN":"35鄰","STREET":"勝利街","SECT":" ","MAREA":" ","LANE":"２巷","ALLEY":" ","HOUSE_NO":"３３號","E_COORD97":171052.85000000001,"N_COORD97":2544692.2599999998,"ADDRESS":"勝利街２巷３３號","OBJECTID":278567},"geometry":{"x":171052.84999999963,"y":2544692.2599999998}},{"attributes":{"ID":278574,"DIS_CODE":0,"TOWNNAME":"安南區","LI":"溪頂里","LIN":"19鄰","STREET":"賢安街","SECT":" ","MAREA":" ","LANE":" ","ALLEY":" ","HOUSE_NO":"６號","E_COORD97":168709.04000000001,"N_COORD97":2547442.4399999999,"ADDRESS":"賢安街６號","OBJECTID":278568},"geometry":{"x":168709.04000000004,"y":2547442.4400000013}},{"attributes":{"ID":278575,"DIS_CODE":0,"TOWNNAME":"永康區","LI":"復國里","LIN":"21鄰","STREET":"復華六街","SECT":" ","MAREA":" ","LANE":" ","ALLEY":" ","HOUSE_NO":"５１號","E_COORD97":172734.17000000001,"N_COORD97":2545835.02,"ADDRESS":"復華六街５１號","OBJECTID":278569},"geometry":{"x":172734.16999999993,"y":2545835.0200000014}},{"attributes":{"ID":278576,"DIS_CODE":0,"TOWNNAME":"東區","LI":"成大里","LIN":"2鄰","STREET":"東寧路","SECT":"西段","MAREA":" ","LANE":" ","ALLEY":" ","HOUSE_NO":"２６號六樓之３","E_COORD97":169624.26000000001,"N_COORD97":2543695.3199999998,"ADDRESS":"東寧路西段２６號六樓之３","OBJECTID":278570},"geometry":{"x":169624.25999999978,"y":2543695.3200000003}},{"attributes":{"ID":278577,"DIS_CODE":0,"TOWNNAME":"永康區","LI":"尚頂里","LIN":"35鄰","STREET":"國聖街","SECT":" ","MAREA":" ","LANE":"８６巷","ALLEY":" ","HOUSE_NO":"３６號","E_COORD97":170495.07999999999,"N_COORD97":2547883.7599999998,"ADDRESS":"國聖街８６巷３６號","OBJECTID":278571},"geometry":{"x":170495.08000000101,"y":2547883.7600000035}},{"attributes":{"ID":278578,"DIS_CODE":0,"TOWNNAME":"新營區","LI":"王公里","LIN":"34鄰","STREET":"長榮路","SECT":"一段","MAREA":" ","LANE":" ","ALLEY":" ","HOUSE_NO":"５６３號","E_COORD97":180151.43832700001,"N_COORD97":2579851.96808,"ADDRESS":"長榮路一段５６３號","OBJECTID":278572},"geometry":{"x":180151.43832700048,"y":2579851.9680750016}},{"attributes":{"ID":278579,"DIS_CODE":0,"TOWNNAME":"永康區","LI":"永康里","LIN":"35鄰","STREET":"大同街","SECT":" ","MAREA":" ","LANE":"９２８巷","ALLEY":" ","HOUSE_NO":"９號","E_COORD97":174467.29000000001,"N_COORD97":2547010.7400000002,"ADDRESS":"大同街９２８巷９號","OBJECTID":278573},"geometry":{"x":174467.29000000097,"y":2547010.7400000021}},{"attributes":{"ID":278580,"DIS_CODE":0,"TOWNNAME":"永康區","LI":"永康里","LIN":"35鄰","STREET":"大同街","SECT":" ","MAREA":" ","LANE":"８０１巷","ALLEY":" ","HOUSE_NO":"１２號","E_COORD97":174402.04999999999,"N_COORD97":2546989.7999999998,"ADDRESS":"大同街８０１巷１２號","OBJECTID":278574},"geometry":{"x":174402.05000000075,"y":2546989.8000000045}},{"attributes":{"ID":278581,"DIS_CODE":0,"TOWNNAME":"永康區","LI":"成功里","LIN":"35鄰","STREET":"中華路","SECT":" ","MAREA":" ","LANE":"１５４巷","ALLEY":" ","HOUSE_NO":"９９號","E_COORD97":171853.82999999999,"N_COORD97":2544906.2799999998,"ADDRESS":"中華路１５４巷９９號","OBJECTID":278575},"geometry":{"x":171853.83000000007,"y":2544906.2799999975}},{"attributes":{"ID":278582,"DIS_CODE":0,"TOWNNAME":"永康區","LI":"埔園里","LIN":"35鄰","STREET":"自強路","SECT":" ","MAREA":" ","LANE":"６３３巷","ALLEY":" ","HOUSE_NO":"８號","E_COORD97":174200.17999999999,"N_COORD97":2548394.0899999999,"ADDRESS":"自強路６３３巷８號","OBJECTID":278576},"geometry":{"x":174200.1799999997,"y":2548394.0900000017}},{"attributes":{"ID":278583,"DIS_CODE":0,"TOWNNAME":"永康區","LI":"埔園里","LIN":"35鄰","STREET":"八德街","SECT":" ","MAREA":" ","LANE":"７３巷","ALLEY":" ","HOUSE_NO":"９號","E_COORD97":174162.91,"N_COORD97":2548451.9700000002,"ADDRESS":"八德街７３巷９號","OBJECTID":278577},"geometry":{"x":174162.91000000108,"y":2548451.9700000007}},{"attributes":{"ID":278584,"DIS_CODE":0,"TOWNNAME":"永康區","LI":"埔園里","LIN":"35鄰","STREET":"八德街","SECT":" ","MAREA":" ","LANE":"８７巷","ALLEY":" ","HOUSE_NO":"３號","E_COORD97":174149.39999999999,"N_COORD97":2548504.02,"ADDRESS":"八德街８７巷３號","OBJECTID":278578},"geometry":{"x":174149.4000000013,"y":2548504.0200000014}},{"attributes":{"ID":278585,"DIS_CODE":0,"TOWNNAME":"永康區","LI":"埔園里","LIN":"35鄰","STREET":"八德街","SECT":" ","MAREA":" ","LANE":"８７巷","ALLEY":" ","HOUSE_NO":"２號","E_COORD97":174135.92999999999,"N_COORD97":2548452.9500000002,"ADDRESS":"八德街８７巷２號","OBJECTID":278579},"geometry":{"x":174135.9299999997,"y":2548452.9500000011}},{"attributes":{"ID":278586,"DIS_CODE":0,"TOWNNAME":"永康區","LI":"埔園里","LIN":"35鄰","STREET":"八德街","SECT":" ","MAREA":" ","LANE":"７３巷","ALLEY":" ","HOUSE_NO":"８號","E_COORD97":174157.26999999999,"N_COORD97":2548452.7200000002,"ADDRESS":"八德街７３巷８號","OBJECTID":278580},"geometry":{"x":174157.26999999955,"y":2548452.7200000025}},{"attributes":{"ID":278587,"DIS_CODE":0,"TOWNNAME":"永康區","LI":"埔園里","LIN":"35鄰","STREET":"八德街","SECT":" ","MAREA":" ","LANE":"８７巷","ALLEY":" ","HOUSE_NO":"８號","E_COORD97":174140.54000000001,"N_COORD97":2548432.7000000002,"ADDRESS":"八德街８７巷８號","OBJECTID":278581},"geometry":{"x":174140.54000000004,"y":2548432.6999999993}},{"attributes":{"ID":278588,"DIS_CODE":0,"TOWNNAME":"佳里區","LI":"建南里","LIN":"35鄰","STREET":"新生路","SECT":" ","MAREA":" ","LANE":"４４１巷","ALLEY":" ","HOUSE_NO":"１９號","E_COORD97":165216.31,"N_COORD97":2562108.2599999998,"ADDRESS":"新生路４４１巷１９號","OBJECTID":278582},"geometry":{"x":165216.30999999959,"y":2562108.2599999998}},{"attributes":{"ID":278589,"DIS_CODE":0,"TOWNNAME":"永康區","LI":"埔園里","LIN":"35鄰","STREET":"八德街","SECT":" ","MAREA":" ","LANE":"７３巷","ALLEY":" ","HOUSE_NO":"５號","E_COORD97":174166.19,"N_COORD97":2548480.77,"ADDRESS":"八德街７３巷５號","OBJECTID":278583},"geometry":{"x":174166.19000000134,"y":2548480.7700000014}},{"attributes":{"ID":278590,"DIS_CODE":0,"TOWNNAME":"東區","LI":"成大里","LIN":"2鄰","STREET":"東寧路","SECT":"西段","MAREA":" ","LANE":" ","ALLEY":" ","HOUSE_NO":"４６號八樓","E_COORD97":169604.17999999999,"N_COORD97":2543693.4399999999,"ADDRESS":"東寧路西段４６號八樓","OBJECTID":278584},"geometry":{"x":169604.18000000063,"y":2543693.4400000013}},{"attributes":{"ID":278591,"DIS_CODE":0,"TOWNNAME":"永康區","LI":"埔園里","LIN":"35鄰","STREET":"八德街","SECT":" ","MAREA":" ","LANE":"９１巷","ALLEY":" ","HOUSE_NO":"１１號","E_COORD97":174127.57000000001,"N_COORD97":2548433.8199999998,"ADDRESS":"八德街９１巷１１號","OBJECTID":278585},"geometry":{"x":174127.56999999937,"y":2548433.8200000022}},{"attributes":{"ID":278592,"DIS_CODE":0,"TOWNNAME":"永康區","LI":"埔園里","LIN":"35鄰","STREET":"永大路","SECT":"三段","MAREA":" ","LANE":"４５０巷","ALLEY":" ","HOUSE_NO":"６號","E_COORD97":174163,"N_COORD97":2548395.27,"ADDRESS":"永大路三段４５０巷６號","OBJECTID":278586},"geometry":{"x":174163,"y":2548395.2699999977}},{"attributes":{"ID":278593,"DIS_CODE":0,"TOWNNAME":"永康區","LI":"埔園里","LIN":"35鄰","STREET":"自強路","SECT":" ","MAREA":" ","LANE":"６３３巷","ALLEY":" ","HOUSE_NO":"１６號","E_COORD97":174197.42999999999,"N_COORD97":2548360.8300000001,"ADDRESS":"自強路６３３巷１６號","OBJECTID":278587},"geometry":{"x":174197.43000000156,"y":2548360.8300000001}},{"attributes":{"ID":278594,"DIS_CODE":0,"TOWNNAME":"永康區","LI":"崑山里","LIN":"35鄰","STREET":"大灣路","SECT":" ","MAREA":" ","LANE":"９４２巷","ALLEY":" ","HOUSE_NO":"２８５號","E_COORD97":173796.59,"N_COORD97":2545013.1400000001,"ADDRESS":"大灣路９４２巷２８５號","OBJECTID":278588},"geometry":{"x":173796.59000000171,"y":2545013.1400000006}},{"attributes":{"ID":278595,"DIS_CODE":0,"TOWNNAME":"永康區","LI":"埔園里","LIN":"35鄰","STREET":"八德街","SECT":" ","MAREA":" ","LANE":"９１巷","ALLEY":" ","HOUSE_NO":"１２號","E_COORD97":174127.01000000001,"N_COORD97":2548428.5699999998,"ADDRESS":"八德街９１巷１２號","OBJECTID":278589},"geometry":{"x":174127.00999999978,"y":2548428.5700000022}},{"attributes":{"ID":278596,"DIS_CODE":0,"TOWNNAME":"永康區","LI":"埔園里","LIN":"35鄰","STREET":"八德街","SECT":" ","MAREA":" ","LANE":"７３巷","ALLEY":" ","HOUSE_NO":"１３號","E_COORD97":174163.17000000001,"N_COORD97":2548423.9700000002,"ADDRESS":"八德街７３巷１３號","OBJECTID":278590},"geometry":{"x":174163.16999999993,"y":2548423.9700000025}},{"attributes":{"ID":278597,"DIS_CODE":0,"TOWNNAME":"永康區","LI":"蔦松里","LIN":"2鄰","STREET":"中正北路","SECT":" ","MAREA":" ","LANE":" ","ALLEY":" ","HOUSE_NO":"５３１號九樓之３","E_COORD97":173911.79000000001,"N_COORD97":2549195.7799999998,"ADDRESS":"中正北路５３１號九樓之３","OBJECTID":278591},"geometry":{"x":173911.79000000004,"y":2549195.7800000012}},{"attributes":{"ID":278598,"DIS_CODE":0,"TOWNNAME":"永康區","LI":"埔園里","LIN":"35鄰","STREET":"自強路","SECT":" ","MAREA":" ","LANE":"６３３巷","ALLEY":" ","HOUSE_NO":"７號","E_COORD97":174200.82999999999,"N_COORD97":2548398.5899999999,"ADDRESS":"自強路６３３巷７號","OBJECTID":278592},"geometry":{"x":174200.83000000101,"y":2548398.5900000017}},{"attributes":{"ID":278599,"DIS_CODE":0,"TOWNNAME":"永康區","LI":"埔園里","LIN":"35鄰","STREET":"八德街","SECT":" ","MAREA":" ","LANE":"８７巷","ALLEY":" ","HOUSE_NO":"１０號","E_COORD97":174139.38,"N_COORD97":2548422.21,"ADDRESS":"八德街８７巷１０號","OBJECTID":278593},"geometry":{"x":174139.38000000082,"y":2548422.2100000028}},{"attributes":{"ID":278600,"DIS_CODE":0,"TOWNNAME":"東區","LI":"大智里","LIN":"35鄰","STREET":"崇善十五街","SECT":" ","MAREA":" ","LANE":"３３巷","ALLEY":" ","HOUSE_NO":"５７號","E_COORD97":171365.16,"N_COORD97":2540466.8300000001,"ADDRESS":"崇善十五街３３巷５７號","OBJECTID":278594},"geometry":{"x":171365.16000000015,"y":2540466.8300000019}},{"attributes":{"ID":278601,"DIS_CODE":0,"TOWNNAME":"東區","LI":"大智里","LIN":"35鄰","STREET":"崇善十五街","SECT":" ","MAREA":" ","LANE":"３３巷","ALLEY":" ","HOUSE_NO":"５９號","E_COORD97":171369.73999999999,"N_COORD97":2540466.5,"ADDRESS":"崇善十五街３３巷５９號","OBJECTID":278595},"geometry":{"x":171369.74000000022,"y":2540466.5}},{"attributes":{"ID":278602,"DIS_CODE":0,"TOWNNAME":"永康區","LI":"蔦松里","LIN":"2鄰","STREET":"中正北路","SECT":" ","MAREA":" ","LANE":" ","ALLEY":" ","HOUSE_NO":"５３３號十二樓之３","E_COORD97":173896.45999999999,"N_COORD97":2549210.29,"ADDRESS":"中正北路５３３號十二樓之３","OBJECTID":278596},"geometry":{"x":173896.46000000089,"y":2549210.290000001}},{"attributes":{"ID":278603,"DIS_CODE":0,"TOWNNAME":"東區","LI":"大智里","LIN":"35鄰","STREET":"崇善十五街","SECT":" ","MAREA":" ","LANE":"３３巷","ALLEY":" ","HOUSE_NO":"６１號","E_COORD97":171374.98000000001,"N_COORD97":2540466.8300000001,"ADDRESS":"崇善十五街３３巷６１號","OBJECTID":278597},"geometry":{"x":171374.98000000045,"y":2540466.8300000019}},{"attributes":{"ID":278604,"DIS_CODE":0,"TOWNNAME":"東區","LI":"大智里","LIN":"35鄰","STREET":"崇善十五街","SECT":" ","MAREA":" ","LANE":"３３巷","ALLEY":" ","HOUSE_NO":"６３號","E_COORD97":171379.57000000001,"N_COORD97":2540467.48,"ADDRESS":"崇善十五街３３巷６３號","OBJECTID":278598},"geometry":{"x":171379.5700000003,"y":2540467.4800000004}},{"attributes":{"ID":278605,"DIS_CODE":0,"TOWNNAME":"永康區","LI":"蔦松里","LIN":"2鄰","STREET":"中正北路","SECT":" ","MAREA":" ","LANE":" ","ALLEY":" ","HOUSE_NO":"５３９號六樓之１","E_COORD97":173923.26000000001,"N_COORD97":2549218.29,"ADDRESS":"中正北路５３９號六樓之１","OBJECTID":278599},"geometry":{"x":173923.25999999978,"y":2549218.2899999991}},{"attributes":{"ID":278606,"DIS_CODE":0,"TOWNNAME":"永康區","LI":"東橋里","LIN":"19鄰","STREET":"中山南路","SECT":" ","MAREA":" ","LANE":" ","ALLEY":" ","HOUSE_NO":"５１１之１號","E_COORD97":173095.82999999999,"N_COORD97":2546937.7999999998,"ADDRESS":"中山南路５１１之１號","OBJECTID":278600},"geometry":{"x":173095.83000000101,"y":2546937.8000000007}}]}