{"displayFieldName":"TOWNNAME","fieldAliases":{"ID":"ID","DIS_CODE":"DIS_CODE","TOWNNAME":"TOWNNAME","LI":"LI","LIN":"LIN","STREET":"STREET","SECT":"SECT","MAREA":"MAREA","LANE":"LANE","ALLEY":"ALLEY","HOUSE_NO":"HOUSE_NO","E_COORD97":"E_COORD97","N_COORD97":"N_COORD97","ADDRESS":"ADDRESS","OBJECTID":"OBJECTID"},"geometryType":"esriGeometryPoint","spatialReference":{"wkid":102443,"latestWkid":3826},"fields":[{"name":"ID","type":"esriFieldTypeDouble","alias":"ID"},{"name":"DIS_CODE","type":"esriFieldTypeInteger","alias":"DIS_CODE"},{"name":"TOWNNAME","type":"esriFieldTypeString","alias":"TOWNNAME","length":8},{"name":"LI","type":"esriFieldTypeString","alias":"LI","length":8},{"name":"LIN","type":"esriFieldTypeString","alias":"LIN","length":12},{"name":"STREET","type":"esriFieldTypeString","alias":"STREET","length":20},{"name":"SECT","type":"esriFieldTypeString","alias":"SECT","length":8},{"name":"MAREA","type":"esriFieldTypeString","alias":"MAREA","length":12},{"name":"LANE","type":"esriFieldTypeString","alias":"LANE","length":10},{"name":"ALLEY","type":"esriFieldTypeString","alias":"ALLEY","length":10},{"name":"HOUSE_NO","type":"esriFieldTypeString","alias":"HOUSE_NO","length":20},{"name":"E_COORD97","type":"esriFieldTypeDouble","alias":"E_COORD97"},{"name":"N_COORD97","type":"esriFieldTypeDouble","alias":"N_COORD97"},{"name":"ADDRESS","type":"esriFieldTypeString","alias":"ADDRESS","length":50},{"name":"OBJECTID","type":"esriFieldTypeOID","alias":"OBJECTID"}],"features":[{"attributes":{"ID":543828,"DIS_CODE":0,"TOWNNAME":"南區","LI":"文華里","LIN":"12鄰","STREET":"文南路","SECT":" ","MAREA":" ","LANE":" ","ALLEY":" ","HOUSE_NO":"２６０號","E_COORD97":166969.98999999999,"N_COORD97":2542966.2000000002,"ADDRESS":"文南路２６０號","OBJECTID":543801},"geometry":{"x":166969.99000000115,"y":2542966.1999999993}},{"attributes":{"ID":543829,"DIS_CODE":0,"TOWNNAME":"南區","LI":"文華里","LIN":"12鄰","STREET":"文南路","SECT":" ","MAREA":" ","LANE":" ","ALLEY":" ","HOUSE_NO":"２６２號","E_COORD97":166970.25,"N_COORD97":2542971.04,"ADDRESS":"文南路２６２號","OBJECTID":543802},"geometry":{"x":166970.25,"y":2542971.0399999991}},{"attributes":{"ID":543830,"DIS_CODE":0,"TOWNNAME":"南區","LI":"文華里","LIN":"12鄰","STREET":"文南路","SECT":" ","MAREA":" ","LANE":" ","ALLEY":" ","HOUSE_NO":"２６４號","E_COORD97":166970.25,"N_COORD97":2542974.8100000001,"ADDRESS":"文南路２６４號","OBJECTID":543803},"geometry":{"x":166970.25,"y":2542974.8099999987}},{"attributes":{"ID":543831,"DIS_CODE":0,"TOWNNAME":"南區","LI":"文華里","LIN":"12鄰","STREET":"文南路","SECT":" ","MAREA":" ","LANE":" ","ALLEY":" ","HOUSE_NO":"２６６號","E_COORD97":166970.60999999999,"N_COORD97":2542978.9399999999,"ADDRESS":"文南路２６６號","OBJECTID":543804},"geometry":{"x":166970.61000000127,"y":2542978.9399999995}},{"attributes":{"ID":543832,"DIS_CODE":0,"TOWNNAME":"南區","LI":"文華里","LIN":"12鄰","STREET":"文南路","SECT":" ","MAREA":" ","LANE":" ","ALLEY":" ","HOUSE_NO":"２６８號","E_COORD97":166970.70000000001,"N_COORD97":2542983.6499999999,"ADDRESS":"文南路２６８號","OBJECTID":543805},"geometry":{"x":166970.70000000019,"y":2542983.6500000022}},{"attributes":{"ID":543833,"DIS_CODE":0,"TOWNNAME":"南區","LI":"文華里","LIN":"12鄰","STREET":"文南路","SECT":" ","MAREA":" ","LANE":" ","ALLEY":" ","HOUSE_NO":"２７０號","E_COORD97":166971.14999999999,"N_COORD97":2542987.2400000002,"ADDRESS":"文南路２７０號","OBJECTID":543806},"geometry":{"x":166971.15000000037,"y":2542987.2400000002}},{"attributes":{"ID":543834,"DIS_CODE":0,"TOWNNAME":"南區","LI":"文華里","LIN":"12鄰","STREET":"文南路","SECT":" ","MAREA":" ","LANE":" ","ALLEY":" ","HOUSE_NO":"２７２號","E_COORD97":166971.60000000001,"N_COORD97":2542991.6299999999,"ADDRESS":"文南路２７２號","OBJECTID":543807},"geometry":{"x":166971.60000000056,"y":2542991.6300000027}},{"attributes":{"ID":543835,"DIS_CODE":0,"TOWNNAME":"南區","LI":"文華里","LIN":"12鄰","STREET":"文南路","SECT":" ","MAREA":" ","LANE":" ","ALLEY":" ","HOUSE_NO":"２７４號","E_COORD97":166972.23000000001,"N_COORD97":2542995.9399999999,"ADDRESS":"文南路２７４號","OBJECTID":543808},"geometry":{"x":166972.23000000045,"y":2542995.9399999995}},{"attributes":{"ID":543836,"DIS_CODE":0,"TOWNNAME":"南區","LI":"文華里","LIN":"12鄰","STREET":"文南路","SECT":" ","MAREA":" ","LANE":" ","ALLEY":" ","HOUSE_NO":"２７６號","E_COORD97":166972.41,"N_COORD97":2542999.8900000001,"ADDRESS":"文南路２７６號","OBJECTID":543809},"geometry":{"x":166972.41000000015,"y":2542999.8900000025}},{"attributes":{"ID":543837,"DIS_CODE":0,"TOWNNAME":"南區","LI":"文華里","LIN":"12鄰","STREET":"文南路","SECT":" ","MAREA":" ","LANE":" ","ALLEY":" ","HOUSE_NO":"２７８號","E_COORD97":166972.59,"N_COORD97":2543004.8900000001,"ADDRESS":"文南路２７８號","OBJECTID":543810},"geometry":{"x":166972.58999999985,"y":2543004.8899999987}},{"attributes":{"ID":543838,"DIS_CODE":0,"TOWNNAME":"南區","LI":"文華里","LIN":"12鄰","STREET":"文南路","SECT":" ","MAREA":" ","LANE":" ","ALLEY":" ","HOUSE_NO":"２８０號","E_COORD97":166972.85999999999,"N_COORD97":2543008.75,"ADDRESS":"文南路２８０號","OBJECTID":543811},"geometry":{"x":166972.86000000127,"y":2543008.7500000037}},{"attributes":{"ID":543839,"DIS_CODE":0,"TOWNNAME":"南區","LI":"文華里","LIN":"12鄰","STREET":"文南路","SECT":" ","MAREA":" ","LANE":" ","ALLEY":" ","HOUSE_NO":"２８２號","E_COORD97":166973.31,"N_COORD97":2543013.3300000001,"ADDRESS":"文南路２８２號","OBJECTID":543812},"geometry":{"x":166973.31000000145,"y":2543013.3300000019}},{"attributes":{"ID":543840,"DIS_CODE":0,"TOWNNAME":"南區","LI":"文華里","LIN":"12鄰","STREET":"文南路","SECT":" ","MAREA":" ","LANE":" ","ALLEY":" ","HOUSE_NO":"２８４號","E_COORD97":166973.39999999999,"N_COORD97":2543016.7400000002,"ADDRESS":"文南路２８４號","OBJECTID":543813},"geometry":{"x":166973.39999999944,"y":2543016.7400000021}},{"attributes":{"ID":543841,"DIS_CODE":0,"TOWNNAME":"南區","LI":"文華里","LIN":"12鄰","STREET":"文南路","SECT":" ","MAREA":" ","LANE":" ","ALLEY":" ","HOUSE_NO":"２８８號","E_COORD97":166974.92999999999,"N_COORD97":2543025.3500000001,"ADDRESS":"文南路２８８號","OBJECTID":543814},"geometry":{"x":166974.93000000063,"y":2543025.3500000015}},{"attributes":{"ID":543842,"DIS_CODE":0,"TOWNNAME":"南區","LI":"文華里","LIN":"12鄰","STREET":"文南路","SECT":" ","MAREA":" ","LANE":" ","ALLEY":" ","HOUSE_NO":"２９０號","E_COORD97":166975.10999999999,"N_COORD97":2543029.21,"ADDRESS":"文南路２９０號","OBJECTID":543815},"geometry":{"x":166975.11000000034,"y":2543029.2100000009}},{"attributes":{"ID":543843,"DIS_CODE":0,"TOWNNAME":"南區","LI":"文華里","LIN":"12鄰","STREET":"文南路","SECT":" ","MAREA":" ","LANE":" ","ALLEY":" ","HOUSE_NO":"２９２號","E_COORD97":166975.10999999999,"N_COORD97":2543033.3399999999,"ADDRESS":"文南路２９２號","OBJECTID":543816},"geometry":{"x":166975.11000000034,"y":2543033.3400000017}},{"attributes":{"ID":543844,"DIS_CODE":0,"TOWNNAME":"南區","LI":"彰南里","LIN":" ","STREET":"中華西路","SECT":"一段","MAREA":" ","LANE":" ","ALLEY":" ","HOUSE_NO":"７３號","E_COORD97":166276.88,"N_COORD97":2541757.7000000002,"ADDRESS":"中華西路一段７３號","OBJECTID":543817},"geometry":{"x":166276.88000000082,"y":2541757.7000000011}},{"attributes":{"ID":543845,"DIS_CODE":0,"TOWNNAME":"南區","LI":"田寮里","LIN":"12鄰","STREET":"新興路","SECT":" ","MAREA":" ","LANE":" ","ALLEY":" ","HOUSE_NO":"８７號","E_COORD97":167587.35999999999,"N_COORD97":2542157.96,"ADDRESS":"新興路８７號","OBJECTID":543818},"geometry":{"x":167587.3600000022,"y":2542157.9600000028}},{"attributes":{"ID":543846,"DIS_CODE":0,"TOWNNAME":"南區","LI":"日新里","LIN":"12鄰","STREET":"新興路","SECT":" ","MAREA":" ","LANE":" ","ALLEY":" ","HOUSE_NO":"５０９號","E_COORD97":166726.39000000001,"N_COORD97":2541720.3399999999,"ADDRESS":"新興路５０９號","OBJECTID":543819},"geometry":{"x":166726.38999999966,"y":2541720.3400000017}},{"attributes":{"ID":543847,"DIS_CODE":0,"TOWNNAME":"南區","LI":"田寮里","LIN":"12鄰","STREET":"新興路","SECT":" ","MAREA":" ","LANE":" ","ALLEY":" ","HOUSE_NO":"４３號","E_COORD97":167662.09,"N_COORD97":2542208.8700000001,"ADDRESS":"新興路４３號","OBJECTID":543820},"geometry":{"x":167662.09000000078,"y":2542208.8700000048}},{"attributes":{"ID":543848,"DIS_CODE":0,"TOWNNAME":"南區","LI":"田寮里","LIN":"12鄰","STREET":"新興路","SECT":" ","MAREA":" ","LANE":" ","ALLEY":" ","HOUSE_NO":"３９號","E_COORD97":167669.94,"N_COORD97":2542216.5099999998,"ADDRESS":"新興路３９號","OBJECTID":543821},"geometry":{"x":167669.94000000227,"y":2542216.5099999998}},{"attributes":{"ID":543849,"DIS_CODE":0,"TOWNNAME":"南區","LI":"田寮里","LIN":"12鄰","STREET":"新興路","SECT":" ","MAREA":" ","LANE":" ","ALLEY":" ","HOUSE_NO":"３７號","E_COORD97":167672.57999999999,"N_COORD97":2542216.3799999999,"ADDRESS":"新興路３７號","OBJECTID":543822},"geometry":{"x":167672.58000000101,"y":2542216.379999999}},{"attributes":{"ID":543850,"DIS_CODE":0,"TOWNNAME":"南區","LI":"田寮里","LIN":"12鄰","STREET":"新興路","SECT":" ","MAREA":" ","LANE":" ","ALLEY":" ","HOUSE_NO":"３５號","E_COORD97":167675.87,"N_COORD97":2542223.75,"ADDRESS":"新興路３５號","OBJECTID":543823},"geometry":{"x":167675.87000000104,"y":2542223.7500000019}},{"attributes":{"ID":543851,"DIS_CODE":0,"TOWNNAME":"南區","LI":"田寮里","LIN":"12鄰","STREET":"新興路","SECT":" ","MAREA":" ","LANE":" ","ALLEY":" ","HOUSE_NO":"３３號","E_COORD97":167677.59,"N_COORD97":2542217.2999999998,"ADDRESS":"新興路３３號","OBJECTID":543824},"geometry":{"x":167677.59000000078,"y":2542217.3000000026}},{"attributes":{"ID":543852,"DIS_CODE":0,"TOWNNAME":"南區","LI":"田寮里","LIN":"12鄰","STREET":"新興路","SECT":" ","MAREA":" ","LANE":" ","ALLEY":" ","HOUSE_NO":"３１號之１","E_COORD97":167688.45000000001,"N_COORD97":2542223.8500000001,"ADDRESS":"新興路３１號之１","OBJECTID":543825},"geometry":{"x":167688.45000000205,"y":2542223.8499999996}},{"attributes":{"ID":543853,"DIS_CODE":0,"TOWNNAME":"南區","LI":"田寮里","LIN":"12鄰","STREET":"新興路","SECT":" ","MAREA":" ","LANE":" ","ALLEY":" ","HOUSE_NO":"３１號","E_COORD97":167687.17000000001,"N_COORD97":2542213.5600000001,"ADDRESS":"新興路３１號","OBJECTID":543826},"geometry":{"x":167687.17000000086,"y":2542213.5600000005}},{"attributes":{"ID":543854,"DIS_CODE":0,"TOWNNAME":"南區","LI":"田寮里","LIN":"12鄰","STREET":"新興路","SECT":" ","MAREA":" ","LANE":" ","ALLEY":" ","HOUSE_NO":"２７號","E_COORD97":167681.29000000001,"N_COORD97":2542229.77,"ADDRESS":"新興路２７號","OBJECTID":543827},"geometry":{"x":167681.29000000097,"y":2542229.7700000014}},{"attributes":{"ID":543855,"DIS_CODE":0,"TOWNNAME":"南區","LI":"田寮里","LIN":"12鄰","STREET":"新興路","SECT":" ","MAREA":" ","LANE":" ","ALLEY":" ","HOUSE_NO":"２１號","E_COORD97":167697.76999999999,"N_COORD97":2542242.1099999999,"ADDRESS":"新興路２１號","OBJECTID":543828},"geometry":{"x":167697.77000000048,"y":2542242.1099999994}},{"attributes":{"ID":543856,"DIS_CODE":0,"TOWNNAME":"南區","LI":"田寮里","LIN":"12鄰","STREET":"新興路","SECT":" ","MAREA":" ","LANE":" ","ALLEY":" ","HOUSE_NO":"１９號","E_COORD97":167701.72,"N_COORD97":2542243.9199999999,"ADDRESS":"新興路１９號","OBJECTID":543829},"geometry":{"x":167701.72000000067,"y":2542243.9199999999}},{"attributes":{"ID":543857,"DIS_CODE":0,"TOWNNAME":"南區","LI":"田寮里","LIN":"12鄰","STREET":"西門路","SECT":"一段","MAREA":" ","LANE":" ","ALLEY":" ","HOUSE_NO":"３９５號","E_COORD97":167718.47,"N_COORD97":2542245.5,"ADDRESS":"西門路一段３９５號","OBJECTID":543830},"geometry":{"x":167718.47000000067,"y":2542245.5000000019}},{"attributes":{"ID":543858,"DIS_CODE":0,"TOWNNAME":"南區","LI":"田寮里","LIN":"12鄰","STREET":"西門路","SECT":"一段","MAREA":" ","LANE":" ","ALLEY":" ","HOUSE_NO":"３９３號","E_COORD97":167719.45999999999,"N_COORD97":2542240.7200000002,"ADDRESS":"西門路一段３９３號","OBJECTID":543831},"geometry":{"x":167719.45999999996,"y":2542240.7200000025}},{"attributes":{"ID":543859,"DIS_CODE":0,"TOWNNAME":"南區","LI":"田寮里","LIN":"12鄰","STREET":"新興路","SECT":" ","MAREA":" ","LANE":" ","ALLEY":" ","HOUSE_NO":"８９號","E_COORD97":167581.26000000001,"N_COORD97":2542154.9100000001,"ADDRESS":"新興路８９號","OBJECTID":543832},"geometry":{"x":167581.26000000071,"y":2542154.910000002}},{"attributes":{"ID":543860,"DIS_CODE":0,"TOWNNAME":"南區","LI":"田寮里","LIN":"12鄰","STREET":"新興路","SECT":" ","MAREA":" ","LANE":" ","ALLEY":" ","HOUSE_NO":"８５號","E_COORD97":167593.69,"N_COORD97":2542161.2400000002,"ADDRESS":"新興路８５號","OBJECTID":543833},"geometry":{"x":167593.69000000227,"y":2542161.2400000002}},{"attributes":{"ID":543861,"DIS_CODE":0,"TOWNNAME":"南區","LI":"田寮里","LIN":"12鄰","STREET":"新興路","SECT":" ","MAREA":" ","LANE":" ","ALLEY":" ","HOUSE_NO":"８３號","E_COORD97":167597.92000000001,"N_COORD97":2542163.3399999999,"ADDRESS":"新興路８３號","OBJECTID":543834},"geometry":{"x":167597.91999999993,"y":2542163.3399999999}},{"attributes":{"ID":543862,"DIS_CODE":0,"TOWNNAME":"南區","LI":"田寮里","LIN":"12鄰","STREET":"新興路","SECT":" ","MAREA":" ","LANE":" ","ALLEY":" ","HOUSE_NO":"８１號","E_COORD97":167601.89999999999,"N_COORD97":2542164.75,"ADDRESS":"新興路８１號","OBJECTID":543835},"geometry":{"x":167601.90000000037,"y":2542164.7500000037}},{"attributes":{"ID":543863,"DIS_CODE":0,"TOWNNAME":"南區","LI":"田寮里","LIN":"12鄰","STREET":"新興路","SECT":" ","MAREA":" ","LANE":" ","ALLEY":" ","HOUSE_NO":"７９號","E_COORD97":167605.66,"N_COORD97":2542159.1299999999,"ADDRESS":"新興路７９號","OBJECTID":543836},"geometry":{"x":167605.66000000108,"y":2542159.1300000008}},{"attributes":{"ID":543864,"DIS_CODE":0,"TOWNNAME":"南區","LI":"田寮里","LIN":"12鄰","STREET":"新興路","SECT":" ","MAREA":" ","LANE":" ","ALLEY":" ","HOUSE_NO":"７７號","E_COORD97":167608.94,"N_COORD97":2542172.0099999998,"ADDRESS":"新興路７７號","OBJECTID":543837},"geometry":{"x":167608.94000000227,"y":2542172.0099999998}},{"attributes":{"ID":543865,"DIS_CODE":0,"TOWNNAME":"南區","LI":"田寮里","LIN":"12鄰","STREET":"新興路","SECT":" ","MAREA":" ","LANE":" ","ALLEY":" ","HOUSE_NO":"７５號","E_COORD97":167613.63,"N_COORD97":2542173.6499999999,"ADDRESS":"新興路７５號","OBJECTID":543838},"geometry":{"x":167613.62999999989,"y":2542173.6500000022}},{"attributes":{"ID":543866,"DIS_CODE":0,"TOWNNAME":"南區","LI":"田寮里","LIN":"12鄰","STREET":"新興路","SECT":" ","MAREA":" ","LANE":" ","ALLEY":" ","HOUSE_NO":"７３號","E_COORD97":167617.38,"N_COORD97":2542173.8799999999,"ADDRESS":"新興路７３號","OBJECTID":543839},"geometry":{"x":167617.38000000175,"y":2542173.8800000008}},{"attributes":{"ID":543867,"DIS_CODE":0,"TOWNNAME":"南區","LI":"田寮里","LIN":"12鄰","STREET":"新興路","SECT":" ","MAREA":" ","LANE":" ","ALLEY":" ","HOUSE_NO":"７１號","E_COORD97":167622.07999999999,"N_COORD97":2542174.1200000001,"ADDRESS":"新興路７１號","OBJECTID":543840},"geometry":{"x":167622.08000000007,"y":2542174.1200000029}},{"attributes":{"ID":543868,"DIS_CODE":0,"TOWNNAME":"南區","LI":"田寮里","LIN":"12鄰","STREET":"新興路","SECT":" ","MAREA":" ","LANE":" ","ALLEY":" ","HOUSE_NO":"６９號","E_COORD97":167626.53,"N_COORD97":2542174.8199999998,"ADDRESS":"新興路６９號","OBJECTID":543841},"geometry":{"x":167626.53000000026,"y":2542174.820000004}},{"attributes":{"ID":543869,"DIS_CODE":0,"TOWNNAME":"南區","LI":"田寮里","LIN":"12鄰","STREET":"新興路","SECT":" ","MAREA":" ","LANE":" ","ALLEY":" ","HOUSE_NO":"６１號","E_COORD97":167635.45999999999,"N_COORD97":2542181.1499999999,"ADDRESS":"新興路６１號","OBJECTID":543842},"geometry":{"x":167635.46000000183,"y":2542181.1500000004}},{"attributes":{"ID":543870,"DIS_CODE":0,"TOWNNAME":"南區","LI":"田寮里","LIN":"12鄰","STREET":"新興路","SECT":" ","MAREA":" ","LANE":" ","ALLEY":" ","HOUSE_NO":"５９號","E_COORD97":167635.45999999999,"N_COORD97":2542193.3399999999,"ADDRESS":"新興路５９號","OBJECTID":543843},"geometry":{"x":167635.46000000183,"y":2542193.3399999999}},{"attributes":{"ID":543871,"DIS_CODE":0,"TOWNNAME":"南區","LI":"田寮里","LIN":"12鄰","STREET":"新興路","SECT":" ","MAREA":" ","LANE":" ","ALLEY":" ","HOUSE_NO":"５７號","E_COORD97":167639.14999999999,"N_COORD97":2542195.3199999998,"ADDRESS":"新興路５７號","OBJECTID":543844},"geometry":{"x":167639.15000000037,"y":2542195.3200000022}},{"attributes":{"ID":543872,"DIS_CODE":0,"TOWNNAME":"南區","LI":"田寮里","LIN":"12鄰","STREET":"新興路","SECT":" ","MAREA":" ","LANE":" ","ALLEY":" ","HOUSE_NO":"５５號","E_COORD97":167642.70999999999,"N_COORD97":2542196.5,"ADDRESS":"新興路５５號","OBJECTID":543845},"geometry":{"x":167642.71000000089,"y":2542196.5}},{"attributes":{"ID":543873,"DIS_CODE":0,"TOWNNAME":"南區","LI":"田寮里","LIN":"12鄰","STREET":"新興路","SECT":" ","MAREA":" ","LANE":" ","ALLEY":" ","HOUSE_NO":"５３號","E_COORD97":167646.39999999999,"N_COORD97":2542200.8500000001,"ADDRESS":"新興路５３號","OBJECTID":543846},"geometry":{"x":167646.39999999944,"y":2542200.8500000034}},{"attributes":{"ID":543874,"DIS_CODE":0,"TOWNNAME":"中西區","LI":"郡西里","LIN":"12鄰","STREET":"大仁街","SECT":" ","MAREA":" ","LANE":" ","ALLEY":" ","HOUSE_NO":"４４號","E_COORD97":167345.17999999999,"N_COORD97":2543449.29,"ADDRESS":"大仁街４４號","OBJECTID":543847},"geometry":{"x":167345.1799999997,"y":2543449.290000001}},{"attributes":{"ID":543875,"DIS_CODE":0,"TOWNNAME":"中西區","LI":"郡西里","LIN":"12鄰","STREET":"大仁街","SECT":" ","MAREA":" ","LANE":" ","ALLEY":" ","HOUSE_NO":"５６號","E_COORD97":167320.89000000001,"N_COORD97":2543455.5099999998,"ADDRESS":"大仁街５６號","OBJECTID":543848},"geometry":{"x":167320.8900000006,"y":2543455.5100000016}},{"attributes":{"ID":543876,"DIS_CODE":0,"TOWNNAME":"中西區","LI":"郡西里","LIN":"12鄰","STREET":"大仁街","SECT":" ","MAREA":" ","LANE":" ","ALLEY":" ","HOUSE_NO":"５８號","E_COORD97":167316.37,"N_COORD97":2543456.6099999999,"ADDRESS":"大仁街５８號","OBJECTID":543849},"geometry":{"x":167316.37000000104,"y":2543456.6100000031}},{"attributes":{"ID":543877,"DIS_CODE":0,"TOWNNAME":"中西區","LI":"郡西里","LIN":"12鄰","STREET":"大仁街","SECT":" ","MAREA":" ","LANE":" ","ALLEY":" ","HOUSE_NO":"６０號","E_COORD97":167311.35999999999,"N_COORD97":2543457.3399999999,"ADDRESS":"大仁街６０號","OBJECTID":543850},"geometry":{"x":167311.36000000127,"y":2543457.3399999999}},{"attributes":{"ID":543878,"DIS_CODE":0,"TOWNNAME":"中西區","LI":"郡西里","LIN":"12鄰","STREET":"大仁街","SECT":" ","MAREA":" ","LANE":" ","ALLEY":" ","HOUSE_NO":"６４號","E_COORD97":167300.98999999999,"N_COORD97":2543460.7599999998,"ADDRESS":"大仁街６４號","OBJECTID":543851},"geometry":{"x":167300.99000000022,"y":2543460.7600000016}},{"attributes":{"ID":543879,"DIS_CODE":0,"TOWNNAME":"中西區","LI":"郡西里","LIN":"12鄰","STREET":"大智街","SECT":" ","MAREA":" ","LANE":" ","ALLEY":" ","HOUSE_NO":"６３號","E_COORD97":167310.14000000001,"N_COORD97":2543488.6899999999,"ADDRESS":"大智街６３號","OBJECTID":543852},"geometry":{"x":167310.14000000153,"y":2543488.6899999995}},{"attributes":{"ID":543880,"DIS_CODE":0,"TOWNNAME":"中西區","LI":"郡西里","LIN":"12鄰","STREET":"大智街","SECT":" ","MAREA":" ","LANE":" ","ALLEY":" ","HOUSE_NO":"６５號","E_COORD97":167307.09,"N_COORD97":2543479.1800000002,"ADDRESS":"大智街６５號","OBJECTID":543853},"geometry":{"x":167307.08999999985,"y":2543479.1799999997}},{"attributes":{"ID":543881,"DIS_CODE":0,"TOWNNAME":"中西區","LI":"郡西里","LIN":"12鄰","STREET":"大智街","SECT":" ","MAREA":" ","LANE":" ","ALLEY":" ","HOUSE_NO":"６７號","E_COORD97":167306.35999999999,"N_COORD97":2543474.6600000001,"ADDRESS":"大智街６７號","OBJECTID":543854},"geometry":{"x":167306.36000000127,"y":2543474.660000002}},{"attributes":{"ID":543882,"DIS_CODE":0,"TOWNNAME":"中西區","LI":"郡西里","LIN":"12鄰","STREET":"大智街","SECT":" ","MAREA":" ","LANE":" ","ALLEY":" ","HOUSE_NO":"６９號","E_COORD97":167301.72,"N_COORD97":2543471,"ADDRESS":"大智街６９號","OBJECTID":543855},"geometry":{"x":167301.72000000067,"y":2543471}},{"attributes":{"ID":543883,"DIS_CODE":0,"TOWNNAME":"中西區","LI":"郡西里","LIN":"12鄰","STREET":"大智街","SECT":" ","MAREA":" ","LANE":" ","ALLEY":" ","HOUSE_NO":"６９號之１","E_COORD97":167300.85999999999,"N_COORD97":2543466.6099999999,"ADDRESS":"大智街６９號之１","OBJECTID":543856},"geometry":{"x":167300.8600000022,"y":2543466.6099999975}},{"attributes":{"ID":543884,"DIS_CODE":0,"TOWNNAME":"中西區","LI":"郡西里","LIN":"12鄰","STREET":"保安路","SECT":" ","MAREA":" ","LANE":" ","ALLEY":" ","HOUSE_NO":"１６５號","E_COORD97":167316.98000000001,"N_COORD97":2543494.4199999999,"ADDRESS":"保安路１６５號","OBJECTID":543857},"geometry":{"x":167316.98000000045,"y":2543494.4199999999}},{"attributes":{"ID":543885,"DIS_CODE":0,"TOWNNAME":"中西區","LI":"民生里","LIN":"12鄰","STREET":"大勇街","SECT":" ","MAREA":" ","LANE":" ","ALLEY":" ","HOUSE_NO":"１３２號","E_COORD97":167077.12,"N_COORD97":2543392,"ADDRESS":"大勇街１３２號","OBJECTID":543858},"geometry":{"x":167077.12000000104,"y":2543392}},{"attributes":{"ID":543886,"DIS_CODE":0,"TOWNNAME":"中西區","LI":"民生里","LIN":"12鄰","STREET":"大勇街","SECT":" ","MAREA":" ","LANE":" ","ALLEY":" ","HOUSE_NO":"１３２號之１","E_COORD97":167073.48000000001,"N_COORD97":2543392,"ADDRESS":"大勇街１３２號之１","OBJECTID":543859},"geometry":{"x":167073.48000000138,"y":2543392}},{"attributes":{"ID":543887,"DIS_CODE":0,"TOWNNAME":"中西區","LI":"民生里","LIN":"12鄰","STREET":"大勇街","SECT":" ","MAREA":" ","LANE":" ","ALLEY":" ","HOUSE_NO":"１３２號之２","E_COORD97":167070.51000000001,"N_COORD97":2543392.23,"ADDRESS":"大勇街１３２號之２","OBJECTID":543860},"geometry":{"x":167070.51000000164,"y":2543392.2300000004}},{"attributes":{"ID":543888,"DIS_CODE":0,"TOWNNAME":"中西區","LI":"民生里","LIN":"12鄰","STREET":"南華街","SECT":" ","MAREA":" ","LANE":" ","ALLEY":" ","HOUSE_NO":"４１號","E_COORD97":167083.73000000001,"N_COORD97":2543391.4100000001,"ADDRESS":"南華街４１號","OBJECTID":543861},"geometry":{"x":167083.73000000138,"y":2543391.410000002}},{"attributes":{"ID":543889,"DIS_CODE":0,"TOWNNAME":"中西區","LI":"民生里","LIN":"12鄰","STREET":"南華街","SECT":" ","MAREA":" ","LANE":" ","ALLEY":" ","HOUSE_NO":"４５號","E_COORD97":167085.56,"N_COORD97":2543398.0099999998,"ADDRESS":"南華街４５號","OBJECTID":543862},"geometry":{"x":167085.56000000052,"y":2543398.0100000016}},{"attributes":{"ID":543890,"DIS_CODE":0,"TOWNNAME":"中西區","LI":"民生里","LIN":"12鄰","STREET":"南華街","SECT":" ","MAREA":" ","LANE":" ","ALLEY":" ","HOUSE_NO":"４７號","E_COORD97":167086.01000000001,"N_COORD97":2543402.3399999999,"ADDRESS":"南華街４７號","OBJECTID":543863},"geometry":{"x":167086.01000000071,"y":2543402.3400000017}},{"attributes":{"ID":543891,"DIS_CODE":0,"TOWNNAME":"中西區","LI":"民生里","LIN":"12鄰","STREET":"南華街","SECT":" ","MAREA":" ","LANE":" ","ALLEY":" ","HOUSE_NO":"４９號","E_COORD97":167086.47,"N_COORD97":2543406.21,"ADDRESS":"南華街４９號","OBJECTID":543864},"geometry":{"x":167086.47000000067,"y":2543406.2100000009}},{"attributes":{"ID":543892,"DIS_CODE":0,"TOWNNAME":"中西區","LI":"民生里","LIN":"12鄰","STREET":"南華街","SECT":" ","MAREA":" ","LANE":" ","ALLEY":" ","HOUSE_NO":"５１號","E_COORD97":167087.60999999999,"N_COORD97":2543408.9399999999,"ADDRESS":"南華街５１號","OBJECTID":543865},"geometry":{"x":167087.61000000127,"y":2543408.9399999995}},{"attributes":{"ID":543893,"DIS_CODE":0,"TOWNNAME":"中西區","LI":"民生里","LIN":"12鄰","STREET":"南華街","SECT":" ","MAREA":" ","LANE":" ","ALLEY":" ","HOUSE_NO":"５３號","E_COORD97":167088.29000000001,"N_COORD97":2543413.04,"ADDRESS":"南華街５３號","OBJECTID":543866},"geometry":{"x":167088.29000000097,"y":2543413.040000001}},{"attributes":{"ID":543894,"DIS_CODE":0,"TOWNNAME":"中西區","LI":"民生里","LIN":"12鄰","STREET":"南華街","SECT":" ","MAREA":" ","LANE":" ","ALLEY":" ","HOUSE_NO":"５５號","E_COORD97":167089.66,"N_COORD97":2543416.2200000002,"ADDRESS":"南華街５５號","OBJECTID":543867},"geometry":{"x":167089.66000000015,"y":2543416.2200000007}},{"attributes":{"ID":543895,"DIS_CODE":0,"TOWNNAME":"中西區","LI":"民生里","LIN":"12鄰","STREET":"南華街","SECT":" ","MAREA":" ","LANE":" ","ALLEY":" ","HOUSE_NO":"５７號","E_COORD97":167091.03,"N_COORD97":2543420.0899999999,"ADDRESS":"南華街５７號","OBJECTID":543868},"geometry":{"x":167091.02999999933,"y":2543420.0900000036}},{"attributes":{"ID":543896,"DIS_CODE":0,"TOWNNAME":"中西區","LI":"民生里","LIN":"12鄰","STREET":"南華街","SECT":" ","MAREA":" ","LANE":" ","ALLEY":" ","HOUSE_NO":"５９號","E_COORD97":167088.98000000001,"N_COORD97":2543424.1899999999,"ADDRESS":"南華街５９號","OBJECTID":543869},"geometry":{"x":167088.98000000138,"y":2543424.1899999995}},{"attributes":{"ID":543897,"DIS_CODE":0,"TOWNNAME":"中西區","LI":"民生里","LIN":"12鄰","STREET":"南華街","SECT":" ","MAREA":" ","LANE":" ","ALLEY":" ","HOUSE_NO":"６１號","E_COORD97":167089.42999999999,"N_COORD97":2543427.8300000001,"ADDRESS":"南華街６１號","OBJECTID":543870},"geometry":{"x":167089.42999999877,"y":2543427.8300000001}},{"attributes":{"ID":543898,"DIS_CODE":0,"TOWNNAME":"中西區","LI":"民生里","LIN":"12鄰","STREET":"大勇街","SECT":" ","MAREA":" ","LANE":" ","ALLEY":" ","HOUSE_NO":"１３６號","E_COORD97":167059.79999999999,"N_COORD97":2543394.6000000001,"ADDRESS":"大勇街１３６號","OBJECTID":543871},"geometry":{"x":167059.79999999981,"y":2543394.5999999996}},{"attributes":{"ID":543899,"DIS_CODE":0,"TOWNNAME":"中西區","LI":"民生里","LIN":"12鄰","STREET":"大勇街","SECT":" ","MAREA":" ","LANE":" ","ALLEY":" ","HOUSE_NO":"１４０號","E_COORD97":167049.09,"N_COORD97":2543395.2799999998,"ADDRESS":"大勇街１４０號","OBJECTID":543872},"geometry":{"x":167049.08999999985,"y":2543395.2800000012}},{"attributes":{"ID":543900,"DIS_CODE":0,"TOWNNAME":"中西區","LI":"民生里","LIN":"12鄰","STREET":"大勇街","SECT":" ","MAREA":" ","LANE":" ","ALLEY":" ","HOUSE_NO":"１４６號","E_COORD97":167041.79999999999,"N_COORD97":2543403.25,"ADDRESS":"大勇街１４６號","OBJECTID":543873},"geometry":{"x":167041.80000000075,"y":2543403.2500000019}},{"attributes":{"ID":543901,"DIS_CODE":0,"TOWNNAME":"中西區","LI":"民生里","LIN":"12鄰","STREET":"大勇街","SECT":" ","MAREA":" ","LANE":" ","ALLEY":" ","HOUSE_NO":"１４６號之１","E_COORD97":167044.76000000001,"N_COORD97":2543416.2200000002,"ADDRESS":"大勇街１４６號之１","OBJECTID":543874},"geometry":{"x":167044.75999999978,"y":2543416.2200000007}},{"attributes":{"ID":543902,"DIS_CODE":0,"TOWNNAME":"永康區","LI":"永康里","LIN":"12鄰","STREET":"永二街","SECT":" ","MAREA":" ","LANE":" ","ALLEY":" ","HOUSE_NO":"２１號","E_COORD97":173791.41,"N_COORD97":2547098.6899999999,"ADDRESS":"永二街２１號","OBJECTID":543875},"geometry":{"x":173791.41000000108,"y":2547098.6900000013}},{"attributes":{"ID":543903,"DIS_CODE":0,"TOWNNAME":"永康區","LI":"永康里","LIN":"12鄰","STREET":"永二街","SECT":" ","MAREA":" ","LANE":" ","ALLEY":" ","HOUSE_NO":"１１號","E_COORD97":173810.69,"N_COORD97":2547120.5699999998,"ADDRESS":"永二街１１號","OBJECTID":543876},"geometry":{"x":173810.69000000134,"y":2547120.5700000022}},{"attributes":{"ID":543904,"DIS_CODE":0,"TOWNNAME":"永康區","LI":"永康里","LIN":"12鄰","STREET":"永中街","SECT":" ","MAREA":" ","LANE":" ","ALLEY":" ","HOUSE_NO":"１９號","E_COORD97":173862.73000000001,"N_COORD97":2547106.4900000002,"ADDRESS":"永中街１９號","OBJECTID":543877},"geometry":{"x":173862.73000000138,"y":2547106.4900000039}},{"attributes":{"ID":543905,"DIS_CODE":0,"TOWNNAME":"永康區","LI":"永康里","LIN":"12鄰","STREET":"永中街","SECT":" ","MAREA":" ","LANE":" ","ALLEY":" ","HOUSE_NO":"３號","E_COORD97":173827.29999999999,"N_COORD97":2547063.5,"ADDRESS":"永中街３號","OBJECTID":543878},"geometry":{"x":173827.30000000168,"y":2547063.5000000019}},{"attributes":{"ID":543906,"DIS_CODE":0,"TOWNNAME":"南區","LI":"彰南里","LIN":"17鄰","STREET":"新義路","SECT":" ","MAREA":" ","LANE":" ","ALLEY":" ","HOUSE_NO":"３號","E_COORD97":166213.09,"N_COORD97":2541187.5899999999,"ADDRESS":"新義路３號","OBJECTID":543879},"geometry":{"x":166213.08999999985,"y":2541187.5899999999}},{"attributes":{"ID":543907,"DIS_CODE":0,"TOWNNAME":"永康區","LI":"永康里","LIN":"12鄰","STREET":"永康街","SECT":" ","MAREA":" ","LANE":" ","ALLEY":" ","HOUSE_NO":"９８號","E_COORD97":173843.39999999999,"N_COORD97":2547133.4900000002,"ADDRESS":"永康街９８號","OBJECTID":543880},"geometry":{"x":173843.40000000037,"y":2547133.4900000039}},{"attributes":{"ID":543908,"DIS_CODE":0,"TOWNNAME":"中西區","LI":"元安里","LIN":"12鄰","STREET":"大勇街","SECT":" ","MAREA":" ","LANE":" ","ALLEY":" ","HOUSE_NO":"２號","E_COORD97":167530.14999999999,"N_COORD97":2543344.77,"ADDRESS":"大勇街２號","OBJECTID":543881},"geometry":{"x":167530.1500000013,"y":2543344.7700000014}},{"attributes":{"ID":543909,"DIS_CODE":0,"TOWNNAME":"中西區","LI":"元安里","LIN":"12鄰","STREET":"大勇街","SECT":" ","MAREA":" ","LANE":" ","ALLEY":" ","HOUSE_NO":"４號","E_COORD97":167526.51000000001,"N_COORD97":2543345.1800000002,"ADDRESS":"大勇街４號","OBJECTID":543882},"geometry":{"x":167526.51000000164,"y":2543345.1800000016}},{"attributes":{"ID":543910,"DIS_CODE":0,"TOWNNAME":"中西區","LI":"元安里","LIN":"12鄰","STREET":"大勇街","SECT":" ","MAREA":" ","LANE":" ","ALLEY":" ","HOUSE_NO":"４號之１","E_COORD97":167517.78,"N_COORD97":2543348.0899999999,"ADDRESS":"大勇街４號之１","OBJECTID":543883},"geometry":{"x":167517.78000000026,"y":2543348.0899999999}},{"attributes":{"ID":543911,"DIS_CODE":0,"TOWNNAME":"中西區","LI":"元安里","LIN":"12鄰","STREET":"大德街","SECT":" ","MAREA":" ","LANE":" ","ALLEY":" ","HOUSE_NO":"２２號","E_COORD97":167554.84,"N_COORD97":2543376.6800000002,"ADDRESS":"大德街２２號","OBJECTID":543884},"geometry":{"x":167554.84000000171,"y":2543376.6800000016}},{"attributes":{"ID":543912,"DIS_CODE":0,"TOWNNAME":"中西區","LI":"元安里","LIN":"12鄰","STREET":"大德街","SECT":" ","MAREA":" ","LANE":" ","ALLEY":" ","HOUSE_NO":"２４號","E_COORD97":167552.95999999999,"N_COORD97":2543373.6899999999,"ADDRESS":"大德街２４號","OBJECTID":543885},"geometry":{"x":167552.96000000089,"y":2543373.6899999995}},{"attributes":{"ID":543913,"DIS_CODE":0,"TOWNNAME":"中西區","LI":"元安里","LIN":"12鄰","STREET":"大德街","SECT":" ","MAREA":" ","LANE":" ","ALLEY":" ","HOUSE_NO":"２６號","E_COORD97":167551.22,"N_COORD97":2543370.3799999999,"ADDRESS":"大德街２６號","OBJECTID":543886},"geometry":{"x":167551.22000000067,"y":2543370.3800000008}},{"attributes":{"ID":543914,"DIS_CODE":0,"TOWNNAME":"中西區","LI":"元安里","LIN":"12鄰","STREET":"大德街","SECT":" ","MAREA":" ","LANE":" ","ALLEY":" ","HOUSE_NO":"２８號","E_COORD97":167550.62,"N_COORD97":2543363.04,"ADDRESS":"大德街２８號","OBJECTID":543887},"geometry":{"x":167550.62000000104,"y":2543363.040000001}},{"attributes":{"ID":543915,"DIS_CODE":0,"TOWNNAME":"中西區","LI":"元安里","LIN":"12鄰","STREET":"大德街","SECT":" ","MAREA":" ","LANE":" ","ALLEY":" ","HOUSE_NO":"３０號","E_COORD97":167548.34,"N_COORD97":2543359.5800000001,"ADDRESS":"大德街３０號","OBJECTID":543888},"geometry":{"x":167548.34000000078,"y":2543359.5800000019}},{"attributes":{"ID":543916,"DIS_CODE":0,"TOWNNAME":"中西區","LI":"元安里","LIN":"12鄰","STREET":"大德街","SECT":" ","MAREA":" ","LANE":" ","ALLEY":" ","HOUSE_NO":"３２號","E_COORD97":167548.25,"N_COORD97":2543355.3999999999,"ADDRESS":"大德街３２號","OBJECTID":543889},"geometry":{"x":167548.25,"y":2543355.4000000022}},{"attributes":{"ID":543917,"DIS_CODE":0,"TOWNNAME":"中西區","LI":"元安里","LIN":"12鄰","STREET":"大德街","SECT":" ","MAREA":" ","LANE":" ","ALLEY":" ","HOUSE_NO":"３４號","E_COORD97":167544.38,"N_COORD97":2543351.4900000002,"ADDRESS":"大德街３４號","OBJECTID":543890},"geometry":{"x":167544.38000000175,"y":2543351.4900000021}},{"attributes":{"ID":543918,"DIS_CODE":0,"TOWNNAME":"中西區","LI":"元安里","LIN":"12鄰","STREET":"大德街","SECT":" ","MAREA":" ","LANE":" ","ALLEY":" ","HOUSE_NO":"３６號","E_COORD97":167543.98000000001,"N_COORD97":2543349.2999999998,"ADDRESS":"大德街３６號","OBJECTID":543891},"geometry":{"x":167543.98000000045,"y":2543349.3000000026}},{"attributes":{"ID":543919,"DIS_CODE":0,"TOWNNAME":"中西區","LI":"元安里","LIN":"12鄰","STREET":"大德街","SECT":" ","MAREA":" ","LANE":" ","ALLEY":" ","HOUSE_NO":"３８號","E_COORD97":167538.29000000001,"N_COORD97":2543342.46,"ADDRESS":"大德街３８號","OBJECTID":543892},"geometry":{"x":167538.28999999911,"y":2543342.4600000009}},{"attributes":{"ID":543920,"DIS_CODE":0,"TOWNNAME":"中西區","LI":"元安里","LIN":"12鄰","STREET":"大勇街","SECT":" ","MAREA":" ","LANE":" ","ALLEY":" ","HOUSE_NO":"１號","E_COORD97":167523.19,"N_COORD97":2543333.0899999999,"ADDRESS":"大勇街１號","OBJECTID":543893},"geometry":{"x":167523.19000000134,"y":2543333.0900000017}},{"attributes":{"ID":543921,"DIS_CODE":0,"TOWNNAME":"中西區","LI":"元安里","LIN":"12鄰","STREET":"大勇街","SECT":" ","MAREA":" ","LANE":" ","ALLEY":" ","HOUSE_NO":"１號之１","E_COORD97":167518.51000000001,"N_COORD97":2543335.48,"ADDRESS":"大勇街１號之１","OBJECTID":543894},"geometry":{"x":167518.51000000071,"y":2543335.4800000004}},{"attributes":{"ID":543922,"DIS_CODE":0,"TOWNNAME":"中西區","LI":"元安里","LIN":"12鄰","STREET":"大勇街","SECT":" ","MAREA":" ","LANE":" ","ALLEY":" ","HOUSE_NO":"３號","E_COORD97":167514.31,"N_COORD97":2543333.7000000002,"ADDRESS":"大勇街３號","OBJECTID":543895},"geometry":{"x":167514.31000000052,"y":2543333.6999999974}},{"attributes":{"ID":543923,"DIS_CODE":0,"TOWNNAME":"中西區","LI":"元安里","LIN":"12鄰","STREET":"大勇街","SECT":" ","MAREA":" ","LANE":" ","ALLEY":" ","HOUSE_NO":"５號","E_COORD97":167509.82999999999,"N_COORD97":2543331.6200000001,"ADDRESS":"大勇街５號","OBJECTID":543896},"geometry":{"x":167509.83000000101,"y":2543331.620000001}},{"attributes":{"ID":543924,"DIS_CODE":0,"TOWNNAME":"中西區","LI":"元安里","LIN":"12鄰","STREET":"建安街","SECT":" ","MAREA":" ","LANE":" ","ALLEY":" ","HOUSE_NO":"５６號","E_COORD97":167502.60999999999,"N_COORD97":2543265.5899999999,"ADDRESS":"建安街５６號","OBJECTID":543897},"geometry":{"x":167502.6100000022,"y":2543265.5900000017}},{"attributes":{"ID":543925,"DIS_CODE":0,"TOWNNAME":"中西區","LI":"元安里","LIN":"12鄰","STREET":"大德街","SECT":" ","MAREA":" ","LANE":" ","ALLEY":" ","HOUSE_NO":"４０號","E_COORD97":167530.06,"N_COORD97":2543333.8100000001,"ADDRESS":"大德街４０號","OBJECTID":543898},"geometry":{"x":167530.06000000052,"y":2543333.8100000005}},{"attributes":{"ID":543926,"DIS_CODE":0,"TOWNNAME":"中西區","LI":"元安里","LIN":"12鄰","STREET":"大德街","SECT":" ","MAREA":" ","LANE":" ","ALLEY":" ","HOUSE_NO":"４２號","E_COORD97":167530.06,"N_COORD97":2543330.3799999999,"ADDRESS":"大德街４２號","OBJECTID":543899},"geometry":{"x":167530.06000000052,"y":2543330.3800000008}},{"attributes":{"ID":543927,"DIS_CODE":0,"TOWNNAME":"中西區","LI":"元安里","LIN":"12鄰","STREET":"大德街","SECT":" ","MAREA":" ","LANE":" ","ALLEY":" ","HOUSE_NO":"４４號","E_COORD97":167527.56,"N_COORD97":2543326.7400000002,"ADDRESS":"大德街４４號","OBJECTID":543900},"geometry":{"x":167527.56000000145,"y":2543326.7400000002}},{"attributes":{"ID":543928,"DIS_CODE":0,"TOWNNAME":"中西區","LI":"元安里","LIN":"12鄰","STREET":"大德街","SECT":" ","MAREA":" ","LANE":" ","ALLEY":" ","HOUSE_NO":"４６號","E_COORD97":167527.88,"N_COORD97":2543322.9700000002,"ADDRESS":"大德街４６號","OBJECTID":543901},"geometry":{"x":167527.88000000082,"y":2543322.9700000007}},{"attributes":{"ID":543929,"DIS_CODE":0,"TOWNNAME":"中西區","LI":"元安里","LIN":"12鄰","STREET":"大德街","SECT":" ","MAREA":" ","LANE":" ","ALLEY":" ","HOUSE_NO":"４８號","E_COORD97":167528.39999999999,"N_COORD97":2543317.3599999999,"ADDRESS":"大德街４８號","OBJECTID":543902},"geometry":{"x":167528.4000000013,"y":2543317.3600000013}},{"attributes":{"ID":543930,"DIS_CODE":0,"TOWNNAME":"中西區","LI":"元安里","LIN":"12鄰","STREET":"大德街","SECT":" ","MAREA":" ","LANE":" ","ALLEY":" ","HOUSE_NO":"５０號","E_COORD97":167526.53,"N_COORD97":2543305.6699999999,"ADDRESS":"大德街５０號","OBJECTID":543903},"geometry":{"x":167526.53000000026,"y":2543305.6700000018}},{"attributes":{"ID":543931,"DIS_CODE":0,"TOWNNAME":"中西區","LI":"元安里","LIN":"12鄰","STREET":"大德街","SECT":" ","MAREA":" ","LANE":" ","ALLEY":" ","HOUSE_NO":"５６號","E_COORD97":167520.79999999999,"N_COORD97":2543300.9900000002,"ADDRESS":"大德街５６號","OBJECTID":543904},"geometry":{"x":167520.79999999981,"y":2543300.9900000002}},{"attributes":{"ID":543932,"DIS_CODE":0,"TOWNNAME":"中西區","LI":"元安里","LIN":"12鄰","STREET":"大德街","SECT":" ","MAREA":" ","LANE":" ","ALLEY":" ","HOUSE_NO":"５８號","E_COORD97":167523.51000000001,"N_COORD97":2543293.71,"ADDRESS":"大德街５８號","OBJECTID":543905},"geometry":{"x":167523.51000000071,"y":2543293.7100000009}},{"attributes":{"ID":543933,"DIS_CODE":0,"TOWNNAME":"中西區","LI":"元安里","LIN":"12鄰","STREET":"大德街","SECT":" ","MAREA":" ","LANE":" ","ALLEY":" ","HOUSE_NO":"６０號","E_COORD97":167524.13,"N_COORD97":2543290.4900000002,"ADDRESS":"大德街６０號","OBJECTID":543906},"geometry":{"x":167524.13000000175,"y":2543290.4900000021}},{"attributes":{"ID":543934,"DIS_CODE":0,"TOWNNAME":"中西區","LI":"元安里","LIN":"12鄰","STREET":"大德街","SECT":" ","MAREA":" ","LANE":" ","ALLEY":" ","HOUSE_NO":"６２號","E_COORD97":167523.62,"N_COORD97":2543285.3300000001,"ADDRESS":"大德街６２號","OBJECTID":543907},"geometry":{"x":167523.62000000011,"y":2543285.3300000001}},{"attributes":{"ID":543935,"DIS_CODE":0,"TOWNNAME":"中西區","LI":"元安里","LIN":"12鄰","STREET":"大德街","SECT":" ","MAREA":" ","LANE":" ","ALLEY":" ","HOUSE_NO":"６４號","E_COORD97":167523.41,"N_COORD97":2543280.6499999999,"ADDRESS":"大德街６４號","OBJECTID":543908},"geometry":{"x":167523.41000000015,"y":2543280.6500000004}},{"attributes":{"ID":543936,"DIS_CODE":0,"TOWNNAME":"中西區","LI":"元安里","LIN":"12鄰","STREET":"大德街","SECT":" ","MAREA":" ","LANE":" ","ALLEY":" ","HOUSE_NO":"６６號","E_COORD97":167523.72,"N_COORD97":2543275.1400000001,"ADDRESS":"大德街６６號","OBJECTID":543909},"geometry":{"x":167523.72000000067,"y":2543275.1400000025}},{"attributes":{"ID":543937,"DIS_CODE":0,"TOWNNAME":"中西區","LI":"元安里","LIN":"12鄰","STREET":"大德街","SECT":" ","MAREA":" ","LANE":" ","ALLEY":" ","HOUSE_NO":"６８號","E_COORD97":167528.29999999999,"N_COORD97":2543266.0600000001,"ADDRESS":"大德街６８號","OBJECTID":543910},"geometry":{"x":167528.30000000075,"y":2543266.0600000024}},{"attributes":{"ID":543938,"DIS_CODE":0,"TOWNNAME":"中西區","LI":"元安里","LIN":"12鄰","STREET":"大德街","SECT":" ","MAREA":" ","LANE":" ","ALLEY":" ","HOUSE_NO":"７０號","E_COORD97":167523.62,"N_COORD97":2543260.8599999999,"ADDRESS":"大德街７０號","OBJECTID":543911},"geometry":{"x":167523.62000000011,"y":2543260.8599999994}},{"attributes":{"ID":543939,"DIS_CODE":0,"TOWNNAME":"中西區","LI":"大涼里","LIN":"12鄰","STREET":"金城街","SECT":" ","MAREA":" ","LANE":" ","ALLEY":" ","HOUSE_NO":"１５號","E_COORD97":166973.22,"N_COORD97":2543679.8700000001,"ADDRESS":"金城街１５號","OBJECTID":543912},"geometry":{"x":166973.21999999974,"y":2543679.870000001}},{"attributes":{"ID":543940,"DIS_CODE":0,"TOWNNAME":"中西區","LI":"民權里","LIN":"12鄰","STREET":"金華路","SECT":"四段","MAREA":" ","LANE":" ","ALLEY":" ","HOUSE_NO":"６８號","E_COORD97":167443.89000000001,"N_COORD97":2544266.4399999999,"ADDRESS":"金華路四段６８號","OBJECTID":543913},"geometry":{"x":167443.88999999966,"y":2544266.4400000013}},{"attributes":{"ID":543941,"DIS_CODE":0,"TOWNNAME":"安南區","LI":"溪北里","LIN":"12鄰","STREET":"文安街","SECT":" ","MAREA":" ","LANE":" ","ALLEY":" ","HOUSE_NO":"９１號","E_COORD97":169273.59,"N_COORD97":2547433.0800000001,"ADDRESS":"文安街９１號","OBJECTID":543914},"geometry":{"x":169273.58999999892,"y":2547433.0800000001}},{"attributes":{"ID":543942,"DIS_CODE":0,"TOWNNAME":"安南區","LI":"安西里","LIN":"12鄰","STREET":"安通路","SECT":"四段","MAREA":" ","LANE":" ","ALLEY":" ","HOUSE_NO":"１０２號","E_COORD97":168807.48000000001,"N_COORD97":2547753.4199999999,"ADDRESS":"安通路四段１０２號","OBJECTID":543915},"geometry":{"x":168807.48000000138,"y":2547753.4199999999}},{"attributes":{"ID":543943,"DIS_CODE":0,"TOWNNAME":"安南區","LI":"安西里","LIN":"12鄰","STREET":"安通路","SECT":"四段","MAREA":" ","LANE":" ","ALLEY":" ","HOUSE_NO":"１０３號","E_COORD97":168802.16,"N_COORD97":2547753.4199999999,"ADDRESS":"安通路四段１０３號","OBJECTID":543916},"geometry":{"x":168802.16000000015,"y":2547753.4199999999}},{"attributes":{"ID":543944,"DIS_CODE":0,"TOWNNAME":"安南區","LI":"安西里","LIN":"12鄰","STREET":"安通路","SECT":"四段","MAREA":" ","LANE":" ","ALLEY":" ","HOUSE_NO":"１０４號","E_COORD97":168798.01000000001,"N_COORD97":2547754.3100000001,"ADDRESS":"安通路四段１０４號","OBJECTID":543917},"geometry":{"x":168798.01000000071,"y":2547754.3100000005}},{"attributes":{"ID":543945,"DIS_CODE":0,"TOWNNAME":"安南區","LI":"安西里","LIN":"12鄰","STREET":"安通路","SECT":"四段","MAREA":" ","LANE":" ","ALLEY":" ","HOUSE_NO":"１０５號","E_COORD97":168794.45999999999,"N_COORD97":2547754.3100000001,"ADDRESS":"安通路四段１０５號","OBJECTID":543918},"geometry":{"x":168794.45999999996,"y":2547754.3100000005}},{"attributes":{"ID":543946,"DIS_CODE":0,"TOWNNAME":"安南區","LI":"安西里","LIN":"12鄰","STREET":"安通路","SECT":"四段","MAREA":" ","LANE":" ","ALLEY":" ","HOUSE_NO":"１０８號","E_COORD97":168779.67000000001,"N_COORD97":2547755.7799999998,"ADDRESS":"安通路四段１０８號","OBJECTID":543919},"geometry":{"x":168779.66999999993,"y":2547755.7800000012}},{"attributes":{"ID":543947,"DIS_CODE":0,"TOWNNAME":"安南區","LI":"安西里","LIN":"12鄰","STREET":"安通路","SECT":"四段","MAREA":" ","LANE":" ","ALLEY":" ","HOUSE_NO":"２０號","E_COORD97":169283.97,"N_COORD97":2547754.77,"ADDRESS":"安通路四段２０號","OBJECTID":543920},"geometry":{"x":169283.96999999974,"y":2547754.7700000033}},{"attributes":{"ID":543948,"DIS_CODE":0,"TOWNNAME":"安南區","LI":"安西里","LIN":"12鄰","STREET":"安通路","SECT":"四段","MAREA":" ","LANE":" ","ALLEY":" ","HOUSE_NO":"２４號","E_COORD97":169252.79999999999,"N_COORD97":2547743.25,"ADDRESS":"安通路四段２４號","OBJECTID":543921},"geometry":{"x":169252.79999999981,"y":2547743.2500000019}},{"attributes":{"ID":543949,"DIS_CODE":0,"TOWNNAME":"安南區","LI":"安西里","LIN":"12鄰","STREET":"安通路","SECT":"四段","MAREA":" ","LANE":" ","ALLEY":" ","HOUSE_NO":"２９號","E_COORD97":169245.29999999999,"N_COORD97":2547742.3799999999,"ADDRESS":"安通路四段２９號","OBJECTID":543922},"geometry":{"x":169245.30000000075,"y":2547742.379999999}},{"attributes":{"ID":543950,"DIS_CODE":0,"TOWNNAME":"安南區","LI":"安西里","LIN":"12鄰","STREET":"安通路","SECT":"四段","MAREA":" ","LANE":" ","ALLEY":" ","HOUSE_NO":"３０號","E_COORD97":169240.67999999999,"N_COORD97":2547742.6699999999,"ADDRESS":"安通路四段３０號","OBJECTID":543923},"geometry":{"x":169240.68000000156,"y":2547742.6700000018}},{"attributes":{"ID":543951,"DIS_CODE":0,"TOWNNAME":"安南區","LI":"安西里","LIN":"12鄰","STREET":"安通路","SECT":"四段","MAREA":" ","LANE":" ","ALLEY":" ","HOUSE_NO":"３１號","E_COORD97":169235.48999999999,"N_COORD97":2547742.3799999999,"ADDRESS":"安通路四段３１號","OBJECTID":543924},"geometry":{"x":169235.49000000022,"y":2547742.379999999}},{"attributes":{"ID":543952,"DIS_CODE":0,"TOWNNAME":"安南區","LI":"安西里","LIN":"12鄰","STREET":"安通路","SECT":"四段","MAREA":" ","LANE":" ","ALLEY":" ","HOUSE_NO":"３３號","E_COORD97":169228.56,"N_COORD97":2547746.7000000002,"ADDRESS":"安通路四段３３號","OBJECTID":543925},"geometry":{"x":169228.56000000052,"y":2547746.6999999993}},{"attributes":{"ID":543953,"DIS_CODE":0,"TOWNNAME":"安南區","LI":"安西里","LIN":"12鄰","STREET":"安通路","SECT":"四段","MAREA":" ","LANE":" ","ALLEY":" ","HOUSE_NO":"３８號","E_COORD97":169202.92000000001,"N_COORD97":2547736.2999999998,"ADDRESS":"安通路四段３８號","OBJECTID":543926},"geometry":{"x":169202.91999999993,"y":2547736.3000000026}},{"attributes":{"ID":543954,"DIS_CODE":0,"TOWNNAME":"安南區","LI":"安西里","LIN":"12鄰","STREET":"安通路","SECT":"四段","MAREA":" ","LANE":" ","ALLEY":" ","HOUSE_NO":"４３號","E_COORD97":169179.54999999999,"N_COORD97":2547732.2599999998,"ADDRESS":"安通路四段４３號","OBJECTID":543927},"geometry":{"x":169179.55000000075,"y":2547732.2600000016}},{"attributes":{"ID":543955,"DIS_CODE":0,"TOWNNAME":"安南區","LI":"安西里","LIN":"12鄰","STREET":"安通路","SECT":"四段","MAREA":" ","LANE":" ","ALLEY":" ","HOUSE_NO":"５５號","E_COORD97":169117.78015800001,"N_COORD97":2547720.3324600002,"ADDRESS":"安通路四段５５號","OBJECTID":543928},"geometry":{"x":169117.780158001,"y":2547720.3324630037}},{"attributes":{"ID":543956,"DIS_CODE":0,"TOWNNAME":"安南區","LI":"安西里","LIN":"12鄰","STREET":"安通路","SECT":"四段","MAREA":" ","LANE":" ","ALLEY":" ","HOUSE_NO":"５６號","E_COORD97":169113.34,"N_COORD97":2547726.29,"ADDRESS":"安通路四段５６號","OBJECTID":543929},"geometry":{"x":169113.34000000078,"y":2547726.2899999991}},{"attributes":{"ID":543957,"DIS_CODE":0,"TOWNNAME":"安南區","LI":"安西里","LIN":"12鄰","STREET":"安通路","SECT":"四段","MAREA":" ","LANE":" ","ALLEY":" ","HOUSE_NO":"５８號","E_COORD97":169098.63,"N_COORD97":2547728.3100000001,"ADDRESS":"安通路四段５８號","OBJECTID":543930},"geometry":{"x":169098.62999999989,"y":2547728.3100000042}},{"attributes":{"ID":543958,"DIS_CODE":0,"TOWNNAME":"安南區","LI":"安西里","LIN":"12鄰","STREET":"安通路","SECT":"四段","MAREA":" ","LANE":" ","ALLEY":" ","HOUSE_NO":"６０號","E_COORD97":169081.60000000001,"N_COORD97":2547728.3100000001,"ADDRESS":"安通路四段６０號","OBJECTID":543931},"geometry":{"x":169081.59999999963,"y":2547728.3100000042}},{"attributes":{"ID":543959,"DIS_CODE":0,"TOWNNAME":"安南區","LI":"溪北里","LIN":"12鄰","STREET":"文安街","SECT":" ","MAREA":" ","LANE":" ","ALLEY":" ","HOUSE_NO":"９７號","E_COORD97":169261.51000000001,"N_COORD97":2547429.0800000001,"ADDRESS":"文安街９７號","OBJECTID":543932},"geometry":{"x":169261.50999999978,"y":2547429.0800000019}},{"attributes":{"ID":543960,"DIS_CODE":0,"TOWNNAME":"安南區","LI":"安西里","LIN":"12鄰","STREET":"安通路","SECT":"四段","MAREA":" ","LANE":" ","ALLEY":" ","HOUSE_NO":"１０號","E_COORD97":169311.10000000001,"N_COORD97":2547766.0099999998,"ADDRESS":"安通路四段１０號","OBJECTID":543933},"geometry":{"x":169311.10000000056,"y":2547766.0099999998}},{"attributes":{"ID":543961,"DIS_CODE":0,"TOWNNAME":"安南區","LI":"溪北里","LIN":"12鄰","STREET":"文安街","SECT":" ","MAREA":" ","LANE":" ","ALLEY":" ","HOUSE_NO":"１０１號","E_COORD97":169252.10999999999,"N_COORD97":2547426.2799999998,"ADDRESS":"文安街１０１號","OBJECTID":543934},"geometry":{"x":169252.1100000022,"y":2547426.2800000012}},{"attributes":{"ID":543962,"DIS_CODE":0,"TOWNNAME":"安南區","LI":"溪北里","LIN":"12鄰","STREET":"文安街","SECT":" ","MAREA":" ","LANE":" ","ALLEY":" ","HOUSE_NO":"１０３號","E_COORD97":169249.70999999999,"N_COORD97":2547424.7799999998,"ADDRESS":"文安街１０３號","OBJECTID":543935},"geometry":{"x":169249.71000000089,"y":2547424.7799999993}},{"attributes":{"ID":543963,"DIS_CODE":0,"TOWNNAME":"安南區","LI":"溪北里","LIN":"12鄰","STREET":"文安街","SECT":" ","MAREA":" ","LANE":" ","ALLEY":" ","HOUSE_NO":"１０５號","E_COORD97":169243.67999999999,"N_COORD97":2547422.3900000001,"ADDRESS":"文安街１０５號","OBJECTID":543936},"geometry":{"x":169243.6799999997,"y":2547422.3900000006}},{"attributes":{"ID":543964,"DIS_CODE":0,"TOWNNAME":"安南區","LI":"溪北里","LIN":"12鄰","STREET":"文安街","SECT":" ","MAREA":" ","LANE":" ","ALLEY":" ","HOUSE_NO":"１０７號","E_COORD97":169240.67000000001,"N_COORD97":2547422.0299999998,"ADDRESS":"文安街１０７號","OBJECTID":543937},"geometry":{"x":169240.66999999993,"y":2547422.0300000012}},{"attributes":{"ID":543965,"DIS_CODE":0,"TOWNNAME":"安南區","LI":"溪北里","LIN":"12鄰","STREET":"文安街","SECT":" ","MAREA":" ","LANE":" ","ALLEY":" ","HOUSE_NO":"１０９號","E_COORD97":169236.47,"N_COORD97":2547421.4900000002,"ADDRESS":"文安街１０９號","OBJECTID":543938},"geometry":{"x":169236.46999999974,"y":2547421.4899999984}},{"attributes":{"ID":543966,"DIS_CODE":0,"TOWNNAME":"安南區","LI":"溪北里","LIN":"12鄰","STREET":"文安街","SECT":" ","MAREA":" ","LANE":" ","ALLEY":" ","HOUSE_NO":"１１１號","E_COORD97":169231.94,"N_COORD97":2547419.5600000001,"ADDRESS":"文安街１１１號","OBJECTID":543939},"geometry":{"x":169231.94000000134,"y":2547419.5600000024}},{"attributes":{"ID":543967,"DIS_CODE":0,"TOWNNAME":"安南區","LI":"溪北里","LIN":"12鄰","STREET":"文安街","SECT":" ","MAREA":" ","LANE":" ","ALLEY":" ","HOUSE_NO":"１１３號","E_COORD97":169225.85000000001,"N_COORD97":2547418.2000000002,"ADDRESS":"文安街１１３號","OBJECTID":543940},"geometry":{"x":169225.8499999987,"y":2547418.1999999993}},{"attributes":{"ID":543968,"DIS_CODE":0,"TOWNNAME":"安南區","LI":"溪北里","LIN":"12鄰","STREET":"文安街","SECT":" ","MAREA":" ","LANE":" ","ALLEY":" ","HOUSE_NO":"１１７號","E_COORD97":169215.85999999999,"N_COORD97":2547418.4100000001,"ADDRESS":"文安街１１７號","OBJECTID":543941},"geometry":{"x":169215.86000000034,"y":2547418.4100000001}},{"attributes":{"ID":543969,"DIS_CODE":0,"TOWNNAME":"安南區","LI":"溪北里","LIN":"12鄰","STREET":"文安街","SECT":" ","MAREA":" ","LANE":" ","ALLEY":" ","HOUSE_NO":"１１９號","E_COORD97":169206.45000000001,"N_COORD97":2547418.0699999998,"ADDRESS":"文安街１１９號","OBJECTID":543942},"geometry":{"x":169206.45000000019,"y":2547418.070000004}},{"attributes":{"ID":543970,"DIS_CODE":0,"TOWNNAME":"安南區","LI":"溪北里","LIN":"12鄰","STREET":"文安街","SECT":" ","MAREA":" ","LANE":" ","ALLEY":" ","HOUSE_NO":"１２１號","E_COORD97":169194.88,"N_COORD97":2547417.5499999998,"ADDRESS":"文安街１２１號","OBJECTID":543943},"geometry":{"x":169194.87999999989,"y":2547417.5500000007}},{"attributes":{"ID":543971,"DIS_CODE":0,"TOWNNAME":"安南區","LI":"溪北里","LIN":"12鄰","STREET":"文安街","SECT":" ","MAREA":" ","LANE":" ","ALLEY":" ","HOUSE_NO":"１２３號","E_COORD97":169185.42000000001,"N_COORD97":2547418.1800000002,"ADDRESS":"文安街１２３號","OBJECTID":543944},"geometry":{"x":169185.42000000086,"y":2547418.1799999997}},{"attributes":{"ID":543972,"DIS_CODE":0,"TOWNNAME":"安南區","LI":"溪北里","LIN":"12鄰","STREET":"文安街","SECT":" ","MAREA":" ","LANE":" ","ALLEY":" ","HOUSE_NO":"１２５號","E_COORD97":169176.59,"N_COORD97":2547417.8599999999,"ADDRESS":"文安街１２５號","OBJECTID":543945},"geometry":{"x":169176.58999999985,"y":2547417.8599999994}},{"attributes":{"ID":543973,"DIS_CODE":0,"TOWNNAME":"安南區","LI":"溪北里","LIN":"12鄰","STREET":"文安街","SECT":" ","MAREA":" ","LANE":" ","ALLEY":" ","HOUSE_NO":"１２７號","E_COORD97":169169.57999999999,"N_COORD97":2547417.8999999999,"ADDRESS":"文安街１２７號","OBJECTID":543946},"geometry":{"x":169169.58000000101,"y":2547417.9000000004}},{"attributes":{"ID":543974,"DIS_CODE":0,"TOWNNAME":"安南區","LI":"溪北里","LIN":"12鄰","STREET":"文安街","SECT":" ","MAREA":" ","LANE":" ","ALLEY":" ","HOUSE_NO":"４１號","E_COORD97":169404.88,"N_COORD97":2547494.9700000002,"ADDRESS":"文安街４１號","OBJECTID":543947},"geometry":{"x":169404.87999999989,"y":2547494.9700000025}},{"attributes":{"ID":543975,"DIS_CODE":0,"TOWNNAME":"安南區","LI":"溪北里","LIN":"12鄰","STREET":"文安街","SECT":" ","MAREA":" ","LANE":" ","ALLEY":" ","HOUSE_NO":"４３號","E_COORD97":169399.66,"N_COORD97":2547492.5699999998,"ADDRESS":"文安街４３號","OBJECTID":543948},"geometry":{"x":169399.66000000108,"y":2547492.570000004}},{"attributes":{"ID":543976,"DIS_CODE":0,"TOWNNAME":"安南區","LI":"溪北里","LIN":"12鄰","STREET":"文安街","SECT":" ","MAREA":" ","LANE":" ","ALLEY":" ","HOUSE_NO":"６３號","E_COORD97":169354.31,"N_COORD97":2547461.0600000001,"ADDRESS":"文安街６３號","OBJECTID":543949},"geometry":{"x":169354.30999999959,"y":2547461.0600000005}},{"attributes":{"ID":543977,"DIS_CODE":0,"TOWNNAME":"安南區","LI":"溪北里","LIN":"12鄰","STREET":"文安街","SECT":" ","MAREA":" ","LANE":" ","ALLEY":" ","HOUSE_NO":"６５號","E_COORD97":169351.37,"N_COORD97":2547459.9399999999,"ADDRESS":"文安街６５號","OBJECTID":543950},"geometry":{"x":169351.37000000011,"y":2547459.9400000013}},{"attributes":{"ID":543978,"DIS_CODE":0,"TOWNNAME":"安南區","LI":"溪北里","LIN":"12鄰","STREET":"文安街","SECT":" ","MAREA":" ","LANE":" ","ALLEY":" ","HOUSE_NO":"６７號","E_COORD97":169347.39999999999,"N_COORD97":2547458.6299999999,"ADDRESS":"文安街６７號","OBJECTID":543951},"geometry":{"x":169347.4000000013,"y":2547458.629999999}},{"attributes":{"ID":543979,"DIS_CODE":0,"TOWNNAME":"安南區","LI":"溪北里","LIN":"12鄰","STREET":"文安街","SECT":" ","MAREA":" ","LANE":" ","ALLEY":" ","HOUSE_NO":"６９號","E_COORD97":169339.73000000001,"N_COORD97":2547457.5600000001,"ADDRESS":"文安街６９號","OBJECTID":543952},"geometry":{"x":169339.73000000138,"y":2547457.5600000005}},{"attributes":{"ID":543980,"DIS_CODE":0,"TOWNNAME":"安南區","LI":"溪北里","LIN":"12鄰","STREET":"文安街","SECT":" ","MAREA":" ","LANE":" ","ALLEY":" ","HOUSE_NO":"７９號","E_COORD97":169307.20000000001,"N_COORD97":2547455.3100000001,"ADDRESS":"文安街７９號","OBJECTID":543953},"geometry":{"x":169307.20000000205,"y":2547455.3100000024}},{"attributes":{"ID":543981,"DIS_CODE":0,"TOWNNAME":"安南區","LI":"溪北里","LIN":"12鄰","STREET":"文安街","SECT":" ","MAREA":" ","LANE":" ","ALLEY":" ","HOUSE_NO":"７號","E_COORD97":169440.98000000001,"N_COORD97":2547499.7999999998,"ADDRESS":"文安街７號","OBJECTID":543954},"geometry":{"x":169440.98000000045,"y":2547499.8000000026}},{"attributes":{"ID":543982,"DIS_CODE":0,"TOWNNAME":"安南區","LI":"溪北里","LIN":"12鄰","STREET":"文安街","SECT":" ","MAREA":" ","LANE":" ","ALLEY":" ","HOUSE_NO":"８３號","E_COORD97":169298.75,"N_COORD97":2547453.6400000001,"ADDRESS":"文安街８３號","OBJECTID":543955},"geometry":{"x":169298.75000000093,"y":2547453.6400000006}},{"attributes":{"ID":543983,"DIS_CODE":0,"TOWNNAME":"安南區","LI":"溪北里","LIN":"12鄰","STREET":"文安街","SECT":" ","MAREA":" ","LANE":" ","ALLEY":" ","HOUSE_NO":"８７號","E_COORD97":169283.66,"N_COORD97":2547438.6899999999,"ADDRESS":"文安街８７號","OBJECTID":543956},"geometry":{"x":169283.65999999922,"y":2547438.6899999995}},{"attributes":{"ID":543984,"DIS_CODE":0,"TOWNNAME":"安南區","LI":"溪北里","LIN":"12鄰","STREET":"文安街","SECT":" ","MAREA":" ","LANE":" ","ALLEY":" ","HOUSE_NO":"８９號","E_COORD97":169277.60000000001,"N_COORD97":2547434.8900000001,"ADDRESS":"文安街８９號","OBJECTID":543957},"geometry":{"x":169277.60000000056,"y":2547434.8900000006}},{"attributes":{"ID":543985,"DIS_CODE":0,"TOWNNAME":"安南區","LI":"溪北里","LIN":"12鄰","STREET":"文安街","SECT":" ","MAREA":" ","LANE":" ","ALLEY":" ","HOUSE_NO":"９３號","E_COORD97":169269.01000000001,"N_COORD97":2547431.5499999998,"ADDRESS":"文安街９３號","OBJECTID":543958},"geometry":{"x":169269.00999999885,"y":2547431.5500000007}},{"attributes":{"ID":543986,"DIS_CODE":0,"TOWNNAME":"安南區","LI":"溪北里","LIN":"12鄰","STREET":"文安街","SECT":" ","MAREA":" ","LANE":" ","ALLEY":" ","HOUSE_NO":"９９號","E_COORD97":169257.42999999999,"N_COORD97":2547427.8799999999,"ADDRESS":"文安街９９號","OBJECTID":543959},"geometry":{"x":169257.4299999997,"y":2547427.8800000027}},{"attributes":{"ID":543987,"DIS_CODE":0,"TOWNNAME":"安南區","LI":"溪北里","LIN":"12鄰","STREET":"文安街","SECT":" ","MAREA":" ","LANE":" ","ALLEY":" ","HOUSE_NO":"３５號","E_COORD97":169413.56,"N_COORD97":2547497.4900000002,"ADDRESS":"文安街３５號","OBJECTID":543960},"geometry":{"x":169413.55999999959,"y":2547497.4900000021}},{"attributes":{"ID":543988,"DIS_CODE":0,"TOWNNAME":"安南區","LI":"溪北里","LIN":"12鄰","STREET":"文安街","SECT":" ","MAREA":" ","LANE":" ","ALLEY":" ","HOUSE_NO":"７７號","E_COORD97":169313.01999999999,"N_COORD97":2547455.6000000001,"ADDRESS":"文安街７７號","OBJECTID":543961},"geometry":{"x":169313.02000000048,"y":2547455.6000000015}},{"attributes":{"ID":543989,"DIS_CODE":0,"TOWNNAME":"安南區","LI":"溪北里","LIN":"12鄰","STREET":"文安街","SECT":" ","MAREA":" ","LANE":" ","ALLEY":" ","HOUSE_NO":"８５號","E_COORD97":169296.04000000001,"N_COORD97":2547441.1699999999,"ADDRESS":"文安街８５號","OBJECTID":543962},"geometry":{"x":169296.04000000004,"y":2547441.1700000018}},{"attributes":{"ID":543990,"DIS_CODE":0,"TOWNNAME":"安南區","LI":"頂安里","LIN":"12鄰","STREET":"長溪路","SECT":"二段","MAREA":" ","LANE":" ","ALLEY":" ","HOUSE_NO":"２號之１","E_COORD97":168424.51999999999,"N_COORD97":2549262.04,"ADDRESS":"長溪路二段２號之１","OBJECTID":543963},"geometry":{"x":168424.51999999862,"y":2549262.040000001}},{"attributes":{"ID":543991,"DIS_CODE":0,"TOWNNAME":"安南區","LI":"城南里","LIN":"12鄰","STREET":"城西街","SECT":"二段","MAREA":" ","LANE":" ","ALLEY":" ","HOUSE_NO":"２４２號","E_COORD97":159744.59,"N_COORD97":2551010.73,"ADDRESS":"城西街二段２４２號","OBJECTID":543964},"geometry":{"x":159744.58999999985,"y":2551010.7300000042}},{"attributes":{"ID":543992,"DIS_CODE":0,"TOWNNAME":"安南區","LI":"溪心里","LIN":"12鄰","STREET":"海佃路","SECT":"二段","MAREA":" ","LANE":" ","ALLEY":" ","HOUSE_NO":"６４６號","E_COORD97":166628.81,"N_COORD97":2549383.6099999999,"ADDRESS":"海佃路二段６４６號","OBJECTID":543965},"geometry":{"x":166628.80999999959,"y":2549383.6100000013}},{"attributes":{"ID":543993,"DIS_CODE":0,"TOWNNAME":"安南區","LI":"頂安里","LIN":"12鄰","STREET":"長溪路","SECT":"二段","MAREA":" ","LANE":" ","ALLEY":" ","HOUSE_NO":"２號","E_COORD97":168424.51999999999,"N_COORD97":2549268.23,"ADDRESS":"長溪路二段２號","OBJECTID":543966},"geometry":{"x":168424.51999999862,"y":2549268.2300000042}},{"attributes":{"ID":543994,"DIS_CODE":0,"TOWNNAME":"安南區","LI":"安慶里","LIN":"12鄰","STREET":"長溪路","SECT":"一段","MAREA":" ","LANE":" ","ALLEY":" ","HOUSE_NO":"１０１號","E_COORD97":169114.67000000001,"N_COORD97":2548397.3399999999,"ADDRESS":"長溪路一段１０１號","OBJECTID":543967},"geometry":{"x":169114.67000000086,"y":2548397.3399999999}},{"attributes":{"ID":543995,"DIS_CODE":0,"TOWNNAME":"安南區","LI":"安慶里","LIN":"12鄰","STREET":"長溪路","SECT":"一段","MAREA":" ","LANE":" ","ALLEY":" ","HOUSE_NO":"１０３號","E_COORD97":169112.81,"N_COORD97":2548401.4700000002,"ADDRESS":"長溪路一段１０３號","OBJECTID":543968},"geometry":{"x":169112.81000000052,"y":2548401.4700000007}},{"attributes":{"ID":543996,"DIS_CODE":0,"TOWNNAME":"安南區","LI":"安慶里","LIN":"12鄰","STREET":"長溪路","SECT":"一段","MAREA":" ","LANE":" ","ALLEY":" ","HOUSE_NO":"９７號","E_COORD97":169120.62,"N_COORD97":2548390.5600000001,"ADDRESS":"長溪路一段９７號","OBJECTID":543969},"geometry":{"x":169120.62000000011,"y":2548390.5600000005}},{"attributes":{"ID":543997,"DIS_CODE":0,"TOWNNAME":"安南區","LI":"新順里","LIN":"12鄰","STREET":"安生街","SECT":" ","MAREA":" ","LANE":" ","ALLEY":" ","HOUSE_NO":"２號","E_COORD97":169742.22,"N_COORD97":2549460.0800000001,"ADDRESS":"安生街２號","OBJECTID":543970},"geometry":{"x":169742.21999999881,"y":2549460.0800000019}},{"attributes":{"ID":543998,"DIS_CODE":0,"TOWNNAME":"安南區","LI":"新順里","LIN":"12鄰","STREET":"安生街","SECT":" ","MAREA":" ","LANE":" ","ALLEY":" ","HOUSE_NO":"４號","E_COORD97":169739.16,"N_COORD97":2549463.3900000001,"ADDRESS":"安生街４號","OBJECTID":543971},"geometry":{"x":169739.16000000015,"y":2549463.3900000006}},{"attributes":{"ID":543999,"DIS_CODE":0,"TOWNNAME":"安南區","LI":"新順里","LIN":"12鄰","STREET":"安生街","SECT":" ","MAREA":" ","LANE":" ","ALLEY":" ","HOUSE_NO":"６號","E_COORD97":169734.06,"N_COORD97":2549463.6400000001,"ADDRESS":"安生街６號","OBJECTID":543972},"geometry":{"x":169734.05999999959,"y":2549463.6400000025}},{"attributes":{"ID":544000,"DIS_CODE":0,"TOWNNAME":"安南區","LI":"新順里","LIN":"12鄰","STREET":"安生街","SECT":" ","MAREA":" ","LANE":" ","ALLEY":" ","HOUSE_NO":"８號","E_COORD97":169729.47,"N_COORD97":2549464.1499999999,"ADDRESS":"安生街８號","OBJECTID":543973},"geometry":{"x":169729.47000000067,"y":2549464.1500000004}},{"attributes":{"ID":544001,"DIS_CODE":0,"TOWNNAME":"安南區","LI":"新順里","LIN":"12鄰","STREET":"安和路","SECT":"三段","MAREA":" ","LANE":" ","ALLEY":" ","HOUSE_NO":"５５號","E_COORD97":169761.94,"N_COORD97":2549453.1099999999,"ADDRESS":"安和路三段５５號","OBJECTID":543974},"geometry":{"x":169761.94000000227,"y":2549453.1099999994}},{"attributes":{"ID":544002,"DIS_CODE":0,"TOWNNAME":"安南區","LI":"新順里","LIN":"12鄰","STREET":"安和路","SECT":"三段","MAREA":" ","LANE":" ","ALLEY":" ","HOUSE_NO":"６３號","E_COORD97":169770.59,"N_COORD97":2549476.1000000001,"ADDRESS":"安和路三段６３號","OBJECTID":543975},"geometry":{"x":169770.59000000078,"y":2549476.1000000015}},{"attributes":{"ID":544003,"DIS_CODE":0,"TOWNNAME":"安南區","LI":"新順里","LIN":"12鄰","STREET":"安和路","SECT":"三段","MAREA":" ","LANE":" ","ALLEY":" ","HOUSE_NO":"６５號","E_COORD97":169772,"N_COORD97":2549480.25,"ADDRESS":"安和路三段６５號","OBJECTID":543976},"geometry":{"x":169772.00000000093,"y":2549480.25}},{"attributes":{"ID":544004,"DIS_CODE":0,"TOWNNAME":"安南區","LI":"新順里","LIN":"12鄰","STREET":"安和路","SECT":"三段","MAREA":" ","LANE":" ","ALLEY":" ","HOUSE_NO":"６５號之１","E_COORD97":169776.67999999999,"N_COORD97":2549483.9100000001,"ADDRESS":"安和路三段６５號之１","OBJECTID":543977},"geometry":{"x":169776.68000000063,"y":2549483.910000002}},{"attributes":{"ID":544005,"DIS_CODE":0,"TOWNNAME":"安南區","LI":"新順里","LIN":"12鄰","STREET":"安和路","SECT":"三段","MAREA":" ","LANE":" ","ALLEY":" ","HOUSE_NO":"６５號之２","E_COORD97":169778.10999999999,"N_COORD97":2549488.5899999999,"ADDRESS":"安和路三段６５號之２","OBJECTID":543978},"geometry":{"x":169778.11000000127,"y":2549488.589999998}},{"attributes":{"ID":544006,"DIS_CODE":0,"TOWNNAME":"安南區","LI":"新順里","LIN":"12鄰","STREET":"安和路","SECT":"三段","MAREA":" ","LANE":" ","ALLEY":" ","HOUSE_NO":"６５號之３","E_COORD97":169778.72,"N_COORD97":2549492.6600000001,"ADDRESS":"安和路三段６５號之３","OBJECTID":543979},"geometry":{"x":169778.72000000067,"y":2549492.660000002}},{"attributes":{"ID":544007,"DIS_CODE":0,"TOWNNAME":"安南區","LI":"新順里","LIN":"12鄰","STREET":"安和路","SECT":"三段","MAREA":" ","LANE":" ","ALLEY":" ","HOUSE_NO":"６９號","E_COORD97":169778.51999999999,"N_COORD97":2549497.75,"ADDRESS":"安和路三段６９號","OBJECTID":543980},"geometry":{"x":169778.51999999955,"y":2549497.7499999981}},{"attributes":{"ID":544008,"DIS_CODE":0,"TOWNNAME":"安南區","LI":"新順里","LIN":"12鄰","STREET":"育安四街","SECT":" ","MAREA":" ","LANE":" ","ALLEY":" ","HOUSE_NO":"３０號","E_COORD97":169708.45000000001,"N_COORD97":2549575.4100000001,"ADDRESS":"育安四街３０號","OBJECTID":543981},"geometry":{"x":169708.45000000019,"y":2549575.410000002}},{"attributes":{"ID":544009,"DIS_CODE":0,"TOWNNAME":"安南區","LI":"新順里","LIN":"12鄰","STREET":"安和路","SECT":"三段","MAREA":" ","LANE":" ","ALLEY":" ","HOUSE_NO":"７７號","E_COORD97":169786.39999999999,"N_COORD97":2549513.52,"ADDRESS":"安和路三段７７號","OBJECTID":543982},"geometry":{"x":169786.4000000013,"y":2549513.5200000014}},{"attributes":{"ID":544010,"DIS_CODE":0,"TOWNNAME":"安南區","LI":"新順里","LIN":"12鄰","STREET":"安和路","SECT":"三段","MAREA":" ","LANE":" ","ALLEY":" ","HOUSE_NO":"７９號","E_COORD97":169788.32000000001,"N_COORD97":2549517,"ADDRESS":"安和路三段７９號","OBJECTID":543983},"geometry":{"x":169788.32000000123,"y":2549517.0000000019}},{"attributes":{"ID":544011,"DIS_CODE":0,"TOWNNAME":"安南區","LI":"新順里","LIN":"12鄰","STREET":"安和路","SECT":"三段","MAREA":" ","LANE":" ","ALLEY":" ","HOUSE_NO":"８３號","E_COORD97":169790.76000000001,"N_COORD97":2549525.71,"ADDRESS":"安和路三段８３號","OBJECTID":543984},"geometry":{"x":169790.75999999978,"y":2549525.7100000009}},{"attributes":{"ID":544012,"DIS_CODE":0,"TOWNNAME":"安南區","LI":"新順里","LIN":"12鄰","STREET":"安豐六街","SECT":" ","MAREA":" ","LANE":" ","ALLEY":" ","HOUSE_NO":"２２０號","E_COORD97":169712.84,"N_COORD97":2549592.7999999998,"ADDRESS":"安豐六街２２０號","OBJECTID":543985},"geometry":{"x":169712.84000000171,"y":2549592.8000000007}},{"attributes":{"ID":544013,"DIS_CODE":0,"TOWNNAME":"安南區","LI":"新順里","LIN":"12鄰","STREET":"安豐六街","SECT":" ","MAREA":" ","LANE":" ","ALLEY":" ","HOUSE_NO":"２２２號","E_COORD97":169716.22,"N_COORD97":2549590.6000000001,"ADDRESS":"安豐六街２２２號","OBJECTID":543986},"geometry":{"x":169716.21999999974,"y":2549590.6000000015}},{"attributes":{"ID":544014,"DIS_CODE":0,"TOWNNAME":"安南區","LI":"新順里","LIN":"12鄰","STREET":"安豐六街","SECT":" ","MAREA":" ","LANE":" ","ALLEY":" ","HOUSE_NO":"２２４號","E_COORD97":169721.95999999999,"N_COORD97":2549591.1099999999,"ADDRESS":"安豐六街２２４號","OBJECTID":543987},"geometry":{"x":169721.95999999996,"y":2549591.1100000013}},{"attributes":{"ID":544015,"DIS_CODE":0,"TOWNNAME":"安南區","LI":"新順里","LIN":"12鄰","STREET":"安豐六街","SECT":" ","MAREA":" ","LANE":" ","ALLEY":" ","HOUSE_NO":"２２６號","E_COORD97":169725.67999999999,"N_COORD97":2549588.7400000002,"ADDRESS":"安豐六街２２６號","OBJECTID":543988},"geometry":{"x":169725.68000000156,"y":2549588.7400000002}},{"attributes":{"ID":544016,"DIS_CODE":0,"TOWNNAME":"安南區","LI":"新順里","LIN":"12鄰","STREET":"安豐六街","SECT":" ","MAREA":" ","LANE":" ","ALLEY":" ","HOUSE_NO":"２２８號","E_COORD97":169731.26000000001,"N_COORD97":2549588.7400000002,"ADDRESS":"安豐六街２２８號","OBJECTID":543989},"geometry":{"x":169731.25999999978,"y":2549588.7400000002}},{"attributes":{"ID":544017,"DIS_CODE":0,"TOWNNAME":"安南區","LI":"新順里","LIN":"12鄰","STREET":"安豐六街","SECT":" ","MAREA":" ","LANE":" ","ALLEY":" ","HOUSE_NO":"２３０號","E_COORD97":169733.95999999999,"N_COORD97":2549586.5499999998,"ADDRESS":"安豐六街２３０號","OBJECTID":543990},"geometry":{"x":169733.95999999996,"y":2549586.5500000026}},{"attributes":{"ID":544018,"DIS_CODE":0,"TOWNNAME":"安南區","LI":"新順里","LIN":"12鄰","STREET":"安豐六街","SECT":" ","MAREA":" ","LANE":" ","ALLEY":" ","HOUSE_NO":"２３２號","E_COORD97":169739.03,"N_COORD97":2549585.2000000002,"ADDRESS":"安豐六街２３２號","OBJECTID":543991},"geometry":{"x":169739.03000000212,"y":2549585.1999999993}},{"attributes":{"ID":544019,"DIS_CODE":0,"TOWNNAME":"安南區","LI":"新順里","LIN":"12鄰","STREET":"安豐六街","SECT":" ","MAREA":" ","LANE":" ","ALLEY":" ","HOUSE_NO":"２３４號","E_COORD97":169743.07999999999,"N_COORD97":2549583.8500000001,"ADDRESS":"安豐六街２３４號","OBJECTID":543992},"geometry":{"x":169743.08000000007,"y":2549583.8499999996}},{"attributes":{"ID":544020,"DIS_CODE":0,"TOWNNAME":"安南區","LI":"新順里","LIN":"12鄰","STREET":"安豐六街","SECT":" ","MAREA":" ","LANE":" ","ALLEY":" ","HOUSE_NO":"２３６號","E_COORD97":169748.14999999999,"N_COORD97":2549582.3300000001,"ADDRESS":"安豐六街２３６號","OBJECTID":543993},"geometry":{"x":169748.15000000037,"y":2549582.3300000038}},{"attributes":{"ID":544021,"DIS_CODE":0,"TOWNNAME":"安南區","LI":"新順里","LIN":"12鄰","STREET":"安豐六街","SECT":" ","MAREA":" ","LANE":" ","ALLEY":" ","HOUSE_NO":"２３８號","E_COORD97":169751.87,"N_COORD97":2549580.6400000001,"ADDRESS":"安豐六街２３８號","OBJECTID":543994},"geometry":{"x":169751.87000000197,"y":2549580.6400000043}},{"attributes":{"ID":544022,"DIS_CODE":0,"TOWNNAME":"安南區","LI":"新順里","LIN":"12鄰","STREET":"安豐六街","SECT":" ","MAREA":" ","LANE":" ","ALLEY":" ","HOUSE_NO":"２４０號","E_COORD97":169756.42999999999,"N_COORD97":2549579.1200000001,"ADDRESS":"安豐六街２４０號","OBJECTID":543995},"geometry":{"x":169756.43000000063,"y":2549579.1200000029}},{"attributes":{"ID":544023,"DIS_CODE":0,"TOWNNAME":"安南區","LI":"新順里","LIN":"12鄰","STREET":"安豐六街","SECT":" ","MAREA":" ","LANE":" ","ALLEY":" ","HOUSE_NO":"２４２號","E_COORD97":169759.81,"N_COORD97":2549577.9399999999,"ADDRESS":"安豐六街２４２號","OBJECTID":543996},"geometry":{"x":169759.80999999959,"y":2549577.9400000013}},{"attributes":{"ID":544024,"DIS_CODE":0,"TOWNNAME":"安南區","LI":"新順里","LIN":"12鄰","STREET":"安豐六街","SECT":" ","MAREA":" ","LANE":" ","ALLEY":" ","HOUSE_NO":"２４４號","E_COORD97":169765.04000000001,"N_COORD97":2549576.0899999999,"ADDRESS":"安豐六街２４４號","OBJECTID":543997},"geometry":{"x":169765.04000000004,"y":2549576.0899999999}},{"attributes":{"ID":544025,"DIS_CODE":0,"TOWNNAME":"安南區","LI":"新順里","LIN":"12鄰","STREET":"安豐六街","SECT":" ","MAREA":" ","LANE":" ","ALLEY":" ","HOUSE_NO":"２４６號","E_COORD97":169768.92999999999,"N_COORD97":2549574.5699999998,"ADDRESS":"安豐六街２４６號","OBJECTID":543998},"geometry":{"x":169768.9299999997,"y":2549574.5700000022}},{"attributes":{"ID":544026,"DIS_CODE":0,"TOWNNAME":"安南區","LI":"新順里","LIN":"12鄰","STREET":"安豐六街","SECT":" ","MAREA":" ","LANE":" ","ALLEY":" ","HOUSE_NO":"２４８號","E_COORD97":169772.82000000001,"N_COORD97":2549573.2200000002,"ADDRESS":"安豐六街２４８號","OBJECTID":543999},"geometry":{"x":169772.82000000216,"y":2549573.2200000007}},{"attributes":{"ID":544027,"DIS_CODE":0,"TOWNNAME":"安南區","LI":"新順里","LIN":"12鄰","STREET":"安豐六街","SECT":" ","MAREA":" ","LANE":" ","ALLEY":" ","HOUSE_NO":"２５０號","E_COORD97":169776.19,"N_COORD97":2549571.7000000002,"ADDRESS":"安豐六街２５０號","OBJECTID":544000},"geometry":{"x":169776.19000000134,"y":2549571.6999999993}}]}