{"displayFieldName":"TOWNNAME","fieldAliases":{"ID":"ID","DIS_CODE":"DIS_CODE","TOWNNAME":"TOWNNAME","LI":"LI","LIN":"LIN","STREET":"STREET","SECT":"SECT","MAREA":"MAREA","LANE":"LANE","ALLEY":"ALLEY","HOUSE_NO":"HOUSE_NO","E_COORD97":"E_COORD97","N_COORD97":"N_COORD97","ADDRESS":"ADDRESS","OBJECTID":"OBJECTID"},"geometryType":"esriGeometryPoint","spatialReference":{"wkid":102443,"latestWkid":3826},"fields":[{"name":"ID","type":"esriFieldTypeDouble","alias":"ID"},{"name":"DIS_CODE","type":"esriFieldTypeInteger","alias":"DIS_CODE"},{"name":"TOWNNAME","type":"esriFieldTypeString","alias":"TOWNNAME","length":8},{"name":"LI","type":"esriFieldTypeString","alias":"LI","length":8},{"name":"LIN","type":"esriFieldTypeString","alias":"LIN","length":12},{"name":"STREET","type":"esriFieldTypeString","alias":"STREET","length":20},{"name":"SECT","type":"esriFieldTypeString","alias":"SECT","length":8},{"name":"MAREA","type":"esriFieldTypeString","alias":"MAREA","length":12},{"name":"LANE","type":"esriFieldTypeString","alias":"LANE","length":10},{"name":"ALLEY","type":"esriFieldTypeString","alias":"ALLEY","length":10},{"name":"HOUSE_NO","type":"esriFieldTypeString","alias":"HOUSE_NO","length":20},{"name":"E_COORD97","type":"esriFieldTypeDouble","alias":"E_COORD97"},{"name":"N_COORD97","type":"esriFieldTypeDouble","alias":"N_COORD97"},{"name":"ADDRESS","type":"esriFieldTypeString","alias":"ADDRESS","length":50},{"name":"OBJECTID","type":"esriFieldTypeOID","alias":"OBJECTID"}],"features":[{"attributes":{"ID":653828,"DIS_CODE":0,"TOWNNAME":"仁德區","LI":"後壁里","LIN":"41鄰","STREET":"德善路","SECT":" ","MAREA":" ","LANE":"２５１巷","ALLEY":" ","HOUSE_NO":"２號七樓之１０","E_COORD97":173877.25586400001,"N_COORD97":2538688.2259399998,"ADDRESS":"德善路２５１巷２號七樓之１０","OBJECTID":653801},"geometry":{"x":173877.25586399995,"y":2538688.225943001}},{"attributes":{"ID":653829,"DIS_CODE":0,"TOWNNAME":"仁德區","LI":"後壁里","LIN":"41鄰","STREET":"德善路","SECT":" ","MAREA":" ","LANE":"２５１巷","ALLEY":" ","HOUSE_NO":"２號七樓之１１","E_COORD97":173877.25586400001,"N_COORD97":2538688.2259399998,"ADDRESS":"德善路２５１巷２號七樓之１１","OBJECTID":653802},"geometry":{"x":173877.25586399995,"y":2538688.225943001}},{"attributes":{"ID":653830,"DIS_CODE":0,"TOWNNAME":"仁德區","LI":"後壁里","LIN":"41鄰","STREET":"德善路","SECT":" ","MAREA":" ","LANE":"２５１巷","ALLEY":" ","HOUSE_NO":"２號七樓之１２","E_COORD97":173877.25586400001,"N_COORD97":2538688.2259399998,"ADDRESS":"德善路２５１巷２號七樓之１２","OBJECTID":653803},"geometry":{"x":173877.25586399995,"y":2538688.225943001}},{"attributes":{"ID":653831,"DIS_CODE":0,"TOWNNAME":"仁德區","LI":"後壁里","LIN":"41鄰","STREET":"德善路","SECT":" ","MAREA":" ","LANE":"２５１巷","ALLEY":" ","HOUSE_NO":"２號七樓之１３","E_COORD97":173877.25586400001,"N_COORD97":2538688.2259399998,"ADDRESS":"德善路２５１巷２號七樓之１３","OBJECTID":653804},"geometry":{"x":173877.25586399995,"y":2538688.225943001}},{"attributes":{"ID":653832,"DIS_CODE":0,"TOWNNAME":"仁德區","LI":"後壁里","LIN":"41鄰","STREET":"德善路","SECT":" ","MAREA":" ","LANE":"２５１巷","ALLEY":" ","HOUSE_NO":"２號七樓之１４","E_COORD97":173877.25586400001,"N_COORD97":2538688.2259399998,"ADDRESS":"德善路２５１巷２號七樓之１４","OBJECTID":653805},"geometry":{"x":173877.25586399995,"y":2538688.225943001}},{"attributes":{"ID":653833,"DIS_CODE":0,"TOWNNAME":"仁德區","LI":"後壁里","LIN":"41鄰","STREET":"德善路","SECT":" ","MAREA":" ","LANE":"２５１巷","ALLEY":" ","HOUSE_NO":"２號七樓之１５","E_COORD97":173877.25586400001,"N_COORD97":2538688.2259399998,"ADDRESS":"德善路２５１巷２號七樓之１５","OBJECTID":653806},"geometry":{"x":173877.25586399995,"y":2538688.225943001}},{"attributes":{"ID":653834,"DIS_CODE":0,"TOWNNAME":"仁德區","LI":"後壁里","LIN":"41鄰","STREET":"德善路","SECT":" ","MAREA":" ","LANE":"２５１巷","ALLEY":" ","HOUSE_NO":"２號七樓之１６","E_COORD97":173877.25586400001,"N_COORD97":2538688.2259399998,"ADDRESS":"德善路２５１巷２號七樓之１６","OBJECTID":653807},"geometry":{"x":173877.25586399995,"y":2538688.225943001}},{"attributes":{"ID":653835,"DIS_CODE":0,"TOWNNAME":"仁德區","LI":"後壁里","LIN":"41鄰","STREET":"德善路","SECT":" ","MAREA":" ","LANE":"２５１巷","ALLEY":" ","HOUSE_NO":"２號七樓之１７","E_COORD97":173877.25586400001,"N_COORD97":2538688.2259399998,"ADDRESS":"德善路２５１巷２號七樓之１７","OBJECTID":653808},"geometry":{"x":173877.25586399995,"y":2538688.225943001}},{"attributes":{"ID":653836,"DIS_CODE":0,"TOWNNAME":"仁德區","LI":"後壁里","LIN":"41鄰","STREET":"德善路","SECT":" ","MAREA":" ","LANE":"２５１巷","ALLEY":" ","HOUSE_NO":"２號七樓之１８","E_COORD97":173877.25586400001,"N_COORD97":2538688.2259399998,"ADDRESS":"德善路２５１巷２號七樓之１８","OBJECTID":653809},"geometry":{"x":173877.25586399995,"y":2538688.225943001}},{"attributes":{"ID":653837,"DIS_CODE":0,"TOWNNAME":"仁德區","LI":"後壁里","LIN":"41鄰","STREET":"德善路","SECT":" ","MAREA":" ","LANE":"２５１巷","ALLEY":" ","HOUSE_NO":"２號七樓之１９","E_COORD97":173877.25586400001,"N_COORD97":2538688.2259399998,"ADDRESS":"德善路２５１巷２號七樓之１９","OBJECTID":653810},"geometry":{"x":173877.25586399995,"y":2538688.225943001}},{"attributes":{"ID":653838,"DIS_CODE":0,"TOWNNAME":"仁德區","LI":"後壁里","LIN":"41鄰","STREET":"德善路","SECT":" ","MAREA":" ","LANE":"２５１巷","ALLEY":" ","HOUSE_NO":"２號八樓之１","E_COORD97":173877.25586400001,"N_COORD97":2538688.2259399998,"ADDRESS":"德善路２５１巷２號八樓之１","OBJECTID":653811},"geometry":{"x":173877.25586399995,"y":2538688.225943001}},{"attributes":{"ID":653839,"DIS_CODE":0,"TOWNNAME":"仁德區","LI":"後壁里","LIN":"41鄰","STREET":"德善路","SECT":" ","MAREA":" ","LANE":"２５１巷","ALLEY":" ","HOUSE_NO":"２號八樓之２","E_COORD97":173877.25586400001,"N_COORD97":2538688.2259399998,"ADDRESS":"德善路２５１巷２號八樓之２","OBJECTID":653812},"geometry":{"x":173877.25586399995,"y":2538688.225943001}},{"attributes":{"ID":653840,"DIS_CODE":0,"TOWNNAME":"仁德區","LI":"後壁里","LIN":"41鄰","STREET":"德善路","SECT":" ","MAREA":" ","LANE":"２５１巷","ALLEY":" ","HOUSE_NO":"２號八樓之３","E_COORD97":173877.25586400001,"N_COORD97":2538688.2259399998,"ADDRESS":"德善路２５１巷２號八樓之３","OBJECTID":653813},"geometry":{"x":173877.25586399995,"y":2538688.225943001}},{"attributes":{"ID":653841,"DIS_CODE":0,"TOWNNAME":"仁德區","LI":"後壁里","LIN":"41鄰","STREET":"德善路","SECT":" ","MAREA":" ","LANE":"２５１巷","ALLEY":" ","HOUSE_NO":"２號八樓之４","E_COORD97":173877.25586400001,"N_COORD97":2538688.2259399998,"ADDRESS":"德善路２５１巷２號八樓之４","OBJECTID":653814},"geometry":{"x":173877.25586399995,"y":2538688.225943001}},{"attributes":{"ID":653842,"DIS_CODE":0,"TOWNNAME":"仁德區","LI":"後壁里","LIN":"41鄰","STREET":"德善路","SECT":" ","MAREA":" ","LANE":"２５１巷","ALLEY":" ","HOUSE_NO":"２號八樓之５","E_COORD97":173877.25586400001,"N_COORD97":2538688.2259399998,"ADDRESS":"德善路２５１巷２號八樓之５","OBJECTID":653815},"geometry":{"x":173877.25586399995,"y":2538688.225943001}},{"attributes":{"ID":653843,"DIS_CODE":0,"TOWNNAME":"仁德區","LI":"後壁里","LIN":"41鄰","STREET":"德善路","SECT":" ","MAREA":" ","LANE":"２５１巷","ALLEY":" ","HOUSE_NO":"２號八樓之６","E_COORD97":173877.25586400001,"N_COORD97":2538688.2259399998,"ADDRESS":"德善路２５１巷２號八樓之６","OBJECTID":653816},"geometry":{"x":173877.25586399995,"y":2538688.225943001}},{"attributes":{"ID":653844,"DIS_CODE":0,"TOWNNAME":"仁德區","LI":"後壁里","LIN":"41鄰","STREET":"德善路","SECT":" ","MAREA":" ","LANE":"２５１巷","ALLEY":" ","HOUSE_NO":"２號八樓之７","E_COORD97":173877.25586400001,"N_COORD97":2538688.2259399998,"ADDRESS":"德善路２５１巷２號八樓之７","OBJECTID":653817},"geometry":{"x":173877.25586399995,"y":2538688.225943001}},{"attributes":{"ID":653845,"DIS_CODE":0,"TOWNNAME":"仁德區","LI":"後壁里","LIN":"41鄰","STREET":"德善路","SECT":" ","MAREA":" ","LANE":"２５１巷","ALLEY":" ","HOUSE_NO":"２號八樓之８","E_COORD97":173877.25586400001,"N_COORD97":2538688.2259399998,"ADDRESS":"德善路２５１巷２號八樓之８","OBJECTID":653818},"geometry":{"x":173877.25586399995,"y":2538688.225943001}},{"attributes":{"ID":653846,"DIS_CODE":0,"TOWNNAME":"仁德區","LI":"後壁里","LIN":"41鄰","STREET":"德善路","SECT":" ","MAREA":" ","LANE":"２５１巷","ALLEY":" ","HOUSE_NO":"２號八樓之９","E_COORD97":173877.25586400001,"N_COORD97":2538688.2259399998,"ADDRESS":"德善路２５１巷２號八樓之９","OBJECTID":653819},"geometry":{"x":173877.25586399995,"y":2538688.225943001}},{"attributes":{"ID":653847,"DIS_CODE":0,"TOWNNAME":"仁德區","LI":"後壁里","LIN":"41鄰","STREET":"德善路","SECT":" ","MAREA":" ","LANE":"２５１巷","ALLEY":" ","HOUSE_NO":"２號八樓之１０","E_COORD97":173877.25586400001,"N_COORD97":2538688.2259399998,"ADDRESS":"德善路２５１巷２號八樓之１０","OBJECTID":653820},"geometry":{"x":173877.25586399995,"y":2538688.225943001}},{"attributes":{"ID":653848,"DIS_CODE":0,"TOWNNAME":"仁德區","LI":"後壁里","LIN":"41鄰","STREET":"德善路","SECT":" ","MAREA":" ","LANE":"２５１巷","ALLEY":" ","HOUSE_NO":"２號八樓之１１","E_COORD97":173877.25586400001,"N_COORD97":2538688.2259399998,"ADDRESS":"德善路２５１巷２號八樓之１１","OBJECTID":653821},"geometry":{"x":173877.25586399995,"y":2538688.225943001}},{"attributes":{"ID":653849,"DIS_CODE":0,"TOWNNAME":"仁德區","LI":"後壁里","LIN":"41鄰","STREET":"德善路","SECT":" ","MAREA":" ","LANE":"２５１巷","ALLEY":" ","HOUSE_NO":"２號八樓之１２","E_COORD97":173877.25586400001,"N_COORD97":2538688.2259399998,"ADDRESS":"德善路２５１巷２號八樓之１２","OBJECTID":653822},"geometry":{"x":173877.25586399995,"y":2538688.225943001}},{"attributes":{"ID":653850,"DIS_CODE":0,"TOWNNAME":"仁德區","LI":"後壁里","LIN":"41鄰","STREET":"德善路","SECT":" ","MAREA":" ","LANE":"２５１巷","ALLEY":" ","HOUSE_NO":"２號八樓之１３","E_COORD97":173877.25586400001,"N_COORD97":2538688.2259399998,"ADDRESS":"德善路２５１巷２號八樓之１３","OBJECTID":653823},"geometry":{"x":173877.25586399995,"y":2538688.225943001}},{"attributes":{"ID":653851,"DIS_CODE":0,"TOWNNAME":"仁德區","LI":"後壁里","LIN":"42鄰","STREET":"德崙路","SECT":" ","MAREA":" ","LANE":"４８巷","ALLEY":"１２弄","HOUSE_NO":"８號","E_COORD97":173271.351142,"N_COORD97":2538539.6028700001,"ADDRESS":"德崙路４８巷１２弄８號","OBJECTID":653824},"geometry":{"x":173271.35114200134,"y":2538539.6028660014}},{"attributes":{"ID":653852,"DIS_CODE":0,"TOWNNAME":"仁德區","LI":"後壁里","LIN":"42鄰","STREET":"德崙路","SECT":" ","MAREA":" ","LANE":"４８巷","ALLEY":"１２弄","HOUSE_NO":"２之１號","E_COORD97":173285.758455,"N_COORD97":2538534.4170300001,"ADDRESS":"德崙路４８巷１２弄２之１號","OBJECTID":653825},"geometry":{"x":173285.75845499989,"y":2538534.4170350004}},{"attributes":{"ID":653853,"DIS_CODE":0,"TOWNNAME":"仁德區","LI":"後壁里","LIN":"43鄰","STREET":"德崙路","SECT":" ","MAREA":" ","LANE":"２１巷","ALLEY":"１０弄","HOUSE_NO":"２０號","E_COORD97":173341.55154300001,"N_COORD97":2538600.6790300002,"ADDRESS":"德崙路２１巷１０弄２０號","OBJECTID":653826},"geometry":{"x":173341.55154300015,"y":2538600.679033}},{"attributes":{"ID":653854,"DIS_CODE":0,"TOWNNAME":"仁德區","LI":"後壁里","LIN":"43鄰","STREET":"德崙路","SECT":" ","MAREA":" ","LANE":"２１巷","ALLEY":"１０弄","HOUSE_NO":"２２號","E_COORD97":173337.314098,"N_COORD97":2538596.7631999999,"ADDRESS":"德崙路２１巷１０弄２２號","OBJECTID":653827},"geometry":{"x":173337.31409800053,"y":2538596.7632010002}},{"attributes":{"ID":653855,"DIS_CODE":0,"TOWNNAME":"仁德區","LI":"後壁里","LIN":"43鄰","STREET":"德崙路","SECT":" ","MAREA":" ","LANE":"２１巷","ALLEY":"１０弄","HOUSE_NO":"２６號","E_COORD97":173333.500397,"N_COORD97":2538592.42404,"ADDRESS":"德崙路２１巷１０弄２６號","OBJECTID":653828},"geometry":{"x":173333.50039700046,"y":2538592.424037002}},{"attributes":{"ID":653856,"DIS_CODE":0,"TOWNNAME":"仁德區","LI":"後壁里","LIN":"43鄰","STREET":"德崙路","SECT":" ","MAREA":" ","LANE":"２１巷","ALLEY":"１０弄","HOUSE_NO":"２８號","E_COORD97":173329.474824,"N_COORD97":2538587.6615399998,"ADDRESS":"德崙路２１巷１０弄２８號","OBJECTID":653829},"geometry":{"x":173329.47482400015,"y":2538587.6615399998}},{"attributes":{"ID":653857,"DIS_CODE":0,"TOWNNAME":"仁德區","LI":"後壁里","LIN":"43鄰","STREET":"德崙路","SECT":" ","MAREA":" ","LANE":"２１巷","ALLEY":"１０弄","HOUSE_NO":"３０號","E_COORD97":173332.86478,"N_COORD97":2538583.6398700001,"ADDRESS":"德崙路２１巷１０弄３０號","OBJECTID":653830},"geometry":{"x":173332.86478000134,"y":2538583.6398750003}},{"attributes":{"ID":653858,"DIS_CODE":0,"TOWNNAME":"仁德區","LI":"後壁里","LIN":"43鄰","STREET":"德崙路","SECT":" ","MAREA":" ","LANE":"２１巷","ALLEY":"１０弄","HOUSE_NO":"３８號","E_COORD97":173345.78898799999,"N_COORD97":2538596.3398699998,"ADDRESS":"德崙路２１巷１０弄３８號","OBJECTID":653831},"geometry":{"x":173345.78898799978,"y":2538596.3398680016}},{"attributes":{"ID":653859,"DIS_CODE":0,"TOWNNAME":"仁德區","LI":"後壁里","LIN":"43鄰","STREET":"德崙路","SECT":" ","MAREA":" ","LANE":" ","ALLEY":" ","HOUSE_NO":"７５號","E_COORD97":173423.75797899999,"N_COORD97":2538486.9082599999,"ADDRESS":"德崙路７５號","OBJECTID":653832},"geometry":{"x":173423.75797899999,"y":2538486.9082610011}},{"attributes":{"ID":653860,"DIS_CODE":0,"TOWNNAME":"仁德區","LI":"後壁里","LIN":"43鄰","STREET":"德崙路","SECT":" ","MAREA":" ","LANE":"２１巷","ALLEY":"１０弄","HOUSE_NO":"３２號","E_COORD97":173337.314098,"N_COORD97":2538587.9790400001,"ADDRESS":"德崙路２１巷１０弄３２號","OBJECTID":653833},"geometry":{"x":173337.31409800053,"y":2538587.9790390022}},{"attributes":{"ID":653861,"DIS_CODE":0,"TOWNNAME":"仁德區","LI":"後壁里","LIN":"43鄰","STREET":"德崙路","SECT":" ","MAREA":" ","LANE":"２１巷","ALLEY":"１０弄","HOUSE_NO":"３６號","E_COORD97":173341.33966999999,"N_COORD97":2538592.2123699998,"ADDRESS":"德崙路２１巷１０弄３６號","OBJECTID":653834},"geometry":{"x":173341.33967000153,"y":2538592.2123700008}},{"attributes":{"ID":653862,"DIS_CODE":0,"TOWNNAME":"仁德區","LI":"後壁里","LIN":"33鄰","STREET":"文華路","SECT":"二段","MAREA":" ","LANE":" ","ALLEY":" ","HOUSE_NO":"１１８９號","E_COORD97":171903.36920700001,"N_COORD97":2539709.9940900002,"ADDRESS":"文華路二段１１８９號","OBJECTID":653835},"geometry":{"x":171903.36920700129,"y":2539709.9940939993}},{"attributes":{"ID":653863,"DIS_CODE":0,"TOWNNAME":"仁德區","LI":"後壁里","LIN":"33鄰","STREET":"文華路","SECT":"二段","MAREA":" ","LANE":" ","ALLEY":" ","HOUSE_NO":"１１８７號","E_COORD97":171900.191123,"N_COORD97":2539692.4257700001,"ADDRESS":"文華路二段１１８７號","OBJECTID":653836},"geometry":{"x":171900.19112300221,"y":2539692.4257699996}},{"attributes":{"ID":653864,"DIS_CODE":0,"TOWNNAME":"仁德區","LI":"後壁里","LIN":"33鄰","STREET":"文華路","SECT":"二段","MAREA":" ","LANE":" ","ALLEY":" ","HOUSE_NO":"１２５２號","E_COORD97":171956.10258599999,"N_COORD97":2539600.9858200001,"ADDRESS":"文華路二段１２５２號","OBJECTID":653837},"geometry":{"x":171956.10258600023,"y":2539600.9858190026}},{"attributes":{"ID":653865,"DIS_CODE":0,"TOWNNAME":"仁德區","LI":"後壁里","LIN":"33鄰","STREET":"文華路","SECT":"二段","MAREA":" ","LANE":"１２６６巷","ALLEY":" ","HOUSE_NO":"２１號","E_COORD97":172008.43503399999,"N_COORD97":2539666.2849499998,"ADDRESS":"文華路二段１２６６巷２１號","OBJECTID":653838},"geometry":{"x":172008.43503400031,"y":2539666.2849509995}},{"attributes":{"ID":653866,"DIS_CODE":0,"TOWNNAME":"仁德區","LI":"後壁里","LIN":"33鄰","STREET":"文華路","SECT":"二段","MAREA":" ","LANE":"１２６６巷","ALLEY":" ","HOUSE_NO":"２３號","E_COORD97":172024.11358100001,"N_COORD97":2539662.6866199998,"ADDRESS":"文華路二段１２６６巷２３號","OBJECTID":653839},"geometry":{"x":172024.1135809999,"y":2539662.6866190005}},{"attributes":{"ID":653867,"DIS_CODE":0,"TOWNNAME":"中西區","LI":"安海里","LIN":"6鄰","STREET":"康樂街","SECT":" ","MAREA":" ","LANE":"２２５巷","ALLEY":"３弄","HOUSE_NO":"１１號","E_COORD97":167414.06049800001,"N_COORD97":2543923.07351,"ADDRESS":"康樂街２２５巷３弄１１號","OBJECTID":653840},"geometry":{"x":167414.06049800012,"y":2543923.0735140014}},{"attributes":{"ID":653868,"DIS_CODE":0,"TOWNNAME":"中西區","LI":"建國里","LIN":"22鄰","STREET":"西門路","SECT":"二段","MAREA":" ","LANE":"２２８巷","ALLEY":" ","HOUSE_NO":"２０號","E_COORD97":167959.68309899999,"N_COORD97":2543952.4951599999,"ADDRESS":"西門路二段２２８巷２０號","OBJECTID":653841},"geometry":{"x":167959.68309900071,"y":2543952.4951640014}},{"attributes":{"ID":653869,"DIS_CODE":0,"TOWNNAME":"中西區","LI":"建國里","LIN":"22鄰","STREET":"西門路","SECT":"二段","MAREA":" ","LANE":"２２８巷","ALLEY":" ","HOUSE_NO":"２２號","E_COORD97":167961.16678199999,"N_COORD97":2543951.43683,"ADDRESS":"西門路二段２２８巷２２號","OBJECTID":653842},"geometry":{"x":167961.16678200103,"y":2543951.4368319996}},{"attributes":{"ID":653870,"DIS_CODE":0,"TOWNNAME":"中西區","LI":"建國里","LIN":"22鄰","STREET":"西門路","SECT":"二段","MAREA":" ","LANE":"２２８巷","ALLEY":" ","HOUSE_NO":"２４號","E_COORD97":167962.43851099999,"N_COORD97":2543950.8018299998,"ADDRESS":"西門路二段２２８巷２４號","OBJECTID":653843},"geometry":{"x":167962.43851100095,"y":2543950.8018319998}},{"attributes":{"ID":653871,"DIS_CODE":0,"TOWNNAME":"中西區","LI":"建國里","LIN":"22鄰","STREET":"西門路","SECT":"二段","MAREA":" ","LANE":"２２８巷","ALLEY":" ","HOUSE_NO":"２６號","E_COORD97":167963.71023999999,"N_COORD97":2543950.16683,"ADDRESS":"西門路二段２２８巷２６號","OBJECTID":653844},"geometry":{"x":167963.71024000086,"y":2543950.166832}},{"attributes":{"ID":653872,"DIS_CODE":0,"TOWNNAME":"中西區","LI":"進學里","LIN":"3鄰","STREET":"樹林街","SECT":"二段","MAREA":" ","LANE":"１７５巷","ALLEY":" ","HOUSE_NO":"２之２６號","E_COORD97":167963.71023999999,"N_COORD97":2543950.16683,"ADDRESS":"樹林街二段１７５巷２之２６號","OBJECTID":653845},"geometry":{"x":167963.71024000086,"y":2543950.166832}},{"attributes":{"ID":653873,"DIS_CODE":0,"TOWNNAME":"中西區","LI":"進學里","LIN":"3鄰","STREET":"樹林街","SECT":"二段","MAREA":" ","LANE":"１７５巷","ALLEY":" ","HOUSE_NO":"２之１號","E_COORD97":168090.03531599999,"N_COORD97":2542951.1007099999,"ADDRESS":"樹林街二段１７５巷２之１號","OBJECTID":653846},"geometry":{"x":168090.03531600069,"y":2542951.1007050015}},{"attributes":{"ID":653874,"DIS_CODE":0,"TOWNNAME":"中西區","LI":"進學里","LIN":"3鄰","STREET":"樹林街","SECT":"二段","MAREA":" ","LANE":"１７５巷","ALLEY":" ","HOUSE_NO":"２號","E_COORD97":168094.69832200001,"N_COORD97":2542955.5457000001,"ADDRESS":"樹林街二段１７５巷２號","OBJECTID":653847},"geometry":{"x":168094.69832199998,"y":2542955.5457030013}},{"attributes":{"ID":653875,"DIS_CODE":0,"TOWNNAME":"中西區","LI":"進學里","LIN":"3鄰","STREET":"樹林街","SECT":"二段","MAREA":" ","LANE":"１７５巷","ALLEY":" ","HOUSE_NO":"６號","E_COORD97":168093.63854799999,"N_COORD97":2542942.2107099998,"ADDRESS":"樹林街二段１７５巷６號","OBJECTID":653848},"geometry":{"x":168093.63854800072,"y":2542942.210710004}},{"attributes":{"ID":653876,"DIS_CODE":0,"TOWNNAME":"官田區","LI":"大崎里","LIN":"5鄰","STREET":" ","SECT":" ","MAREA":"大崎","LANE":" ","ALLEY":" ","HOUSE_NO":"４３號之１","E_COORD97":185769.45375700001,"N_COORD97":2565540.04055,"ADDRESS":"大崎４３號之１","OBJECTID":653849},"geometry":{"x":185769.45375700109,"y":2565540.0405450016}},{"attributes":{"ID":653877,"DIS_CODE":0,"TOWNNAME":"官田區","LI":"大崎里","LIN":"1鄰","STREET":" ","SECT":" ","MAREA":"大崎","LANE":" ","ALLEY":" ","HOUSE_NO":"１號","E_COORD97":185540.645709,"N_COORD97":2565731.56727,"ADDRESS":"大崎１號","OBJECTID":653850},"geometry":{"x":185540.64570900053,"y":2565731.5672690049}},{"attributes":{"ID":653878,"DIS_CODE":0,"TOWNNAME":"官田區","LI":"大崎里","LIN":"1鄰","STREET":" ","SECT":" ","MAREA":"大崎","LANE":" ","ALLEY":" ","HOUSE_NO":"１３號之１","E_COORD97":185625.05001400001,"N_COORD97":2565584.45902,"ADDRESS":"大崎１３號之１","OBJECTID":653851},"geometry":{"x":185625.05001400132,"y":2565584.4590149987}},{"attributes":{"ID":653879,"DIS_CODE":0,"TOWNNAME":"安南區","LI":"淵西里","LIN":"15鄰","STREET":"安中路","SECT":"四段","MAREA":" ","LANE":"２９０巷","ALLEY":"３５１弄","HOUSE_NO":"２８號","E_COORD97":165186.58743000001,"N_COORD97":2550481.5780199999,"ADDRESS":"臺南市安南區安中路四段２９０巷３５１弄２８號","OBJECTID":653852},"geometry":{"x":165186.58743000124,"y":2550481.5780200008}},{"attributes":{"ID":653880,"DIS_CODE":0,"TOWNNAME":"安南區","LI":"淵西里","LIN":"15鄰","STREET":"安中路","SECT":"四段","MAREA":" ","LANE":"２９０巷","ALLEY":"３５１弄","HOUSE_NO":"２６號","E_COORD97":165209.65033,"N_COORD97":2550477.4687800002,"ADDRESS":"安中路四段２９０巷３５１弄２６號","OBJECTID":653853},"geometry":{"x":165209.65032999963,"y":2550477.4687799998}},{"attributes":{"ID":653881,"DIS_CODE":0,"TOWNNAME":"安南區","LI":"公親里","LIN":"1鄰","STREET":"公學路","SECT":"一段","MAREA":" ","LANE":"２６２巷","ALLEY":" ","HOUSE_NO":"３５號","E_COORD97":167827.83847399999,"N_COORD97":2553056.4273799998,"ADDRESS":"公學路一段２６２巷３５號","OBJECTID":653854},"geometry":{"x":167827.8384740008,"y":2553056.4273770042}},{"attributes":{"ID":653882,"DIS_CODE":0,"TOWNNAME":"官田區","LI":"大崎里","LIN":"9鄰","STREET":" ","SECT":" ","MAREA":"莿子埔","LANE":" ","ALLEY":" ","HOUSE_NO":"１號之７","E_COORD97":187851.20338600001,"N_COORD97":2564235.5326999999,"ADDRESS":"莿子埔１號之７","OBJECTID":653855},"geometry":{"x":187851.20338600129,"y":2564235.5327019971}},{"attributes":{"ID":653883,"DIS_CODE":0,"TOWNNAME":"安南區","LI":"安西里","LIN":"14鄰","STREET":"安和路","SECT":"一段","MAREA":" ","LANE":"１５９巷","ALLEY":"８５弄","HOUSE_NO":"２１號之５","E_COORD97":169132.47789000001,"N_COORD97":2547862.3607200002,"ADDRESS":"安和路一段１５９巷８５弄２１號之５","OBJECTID":653856},"geometry":{"x":169132.47788999975,"y":2547862.360720003}},{"attributes":{"ID":653884,"DIS_CODE":0,"TOWNNAME":"官田區","LI":"大崎里","LIN":"9鄰","STREET":" ","SECT":" ","MAREA":"莿子埔","LANE":" ","ALLEY":" ","HOUSE_NO":"１號之２","E_COORD97":187814.60335399999,"N_COORD97":2564603.7266699998,"ADDRESS":"莿子埔１號之２","OBJECTID":653857},"geometry":{"x":187814.60335399956,"y":2564603.7266700026}},{"attributes":{"ID":653885,"DIS_CODE":0,"TOWNNAME":"官田區","LI":"大崎里","LIN":"9鄰","STREET":" ","SECT":" ","MAREA":"莿子埔","LANE":" ","ALLEY":" ","HOUSE_NO":"８號","E_COORD97":188076.83313499999,"N_COORD97":2564143.61772,"ADDRESS":"莿子埔８號","OBJECTID":653858},"geometry":{"x":188076.83313500136,"y":2564143.6177239995}},{"attributes":{"ID":653886,"DIS_CODE":0,"TOWNNAME":"官田區","LI":"大崎里","LIN":"10鄰","STREET":" ","SECT":" ","MAREA":"莿子埔","LANE":" ","ALLEY":" ","HOUSE_NO":"１４號之１","E_COORD97":188060.84185600001,"N_COORD97":2564136.20939,"ADDRESS":"莿子埔１４號之１","OBJECTID":653859},"geometry":{"x":188060.84185600001,"y":2564136.2093949988}},{"attributes":{"ID":653887,"DIS_CODE":0,"TOWNNAME":"官田區","LI":"大崎里","LIN":"10鄰","STREET":" ","SECT":" ","MAREA":"莿子埔","LANE":" ","ALLEY":" ","HOUSE_NO":"１４號之２","E_COORD97":188069.10225200001,"N_COORD97":2564122.2393999998,"ADDRESS":"莿子埔１４號之２","OBJECTID":653860},"geometry":{"x":188069.10225200001,"y":2564122.2394020017}},{"attributes":{"ID":653888,"DIS_CODE":0,"TOWNNAME":"官田區","LI":"大崎里","LIN":"9鄰","STREET":" ","SECT":" ","MAREA":"莿子埔","LANE":" ","ALLEY":" ","HOUSE_NO":"７號","E_COORD97":188032.03637099999,"N_COORD97":2564151.8727199999,"ADDRESS":"莿子埔７號","OBJECTID":653861},"geometry":{"x":188032.03637100011,"y":2564151.8727199994}},{"attributes":{"ID":653889,"DIS_CODE":0,"TOWNNAME":"官田區","LI":"大崎里","LIN":"10鄰","STREET":" ","SECT":" ","MAREA":"莿子埔","LANE":" ","ALLEY":" ","HOUSE_NO":"３１號","E_COORD97":187607.32800000001,"N_COORD97":2563387.9819999998,"ADDRESS":"莿子埔３１號","OBJECTID":653862},"geometry":{"x":187607.32799999975,"y":2563387.9820000008}},{"attributes":{"ID":653890,"DIS_CODE":0,"TOWNNAME":"官田區","LI":"大崎里","LIN":"9鄰","STREET":" ","SECT":" ","MAREA":"莿子埔","LANE":" ","ALLEY":" ","HOUSE_NO":"１號之３","E_COORD97":187243.698041,"N_COORD97":2565229.6787999999,"ADDRESS":"莿子埔１號之３","OBJECTID":653863},"geometry":{"x":187243.6980410004,"y":2565229.6788040008}},{"attributes":{"ID":653891,"DIS_CODE":0,"TOWNNAME":"官田區","LI":"大崎里","LIN":"12鄰","STREET":" ","SECT":" ","MAREA":"大井","LANE":" ","ALLEY":" ","HOUSE_NO":"１０號","E_COORD97":188486.464068,"N_COORD97":2564355.7076099999,"ADDRESS":"大井１０號","OBJECTID":653864},"geometry":{"x":188486.46406800207,"y":2564355.7076099999}},{"attributes":{"ID":653892,"DIS_CODE":0,"TOWNNAME":"官田區","LI":"大崎里","LIN":"11鄰","STREET":" ","SECT":" ","MAREA":"大井","LANE":" ","ALLEY":" ","HOUSE_NO":"５號之１","E_COORD97":188490.93462099999,"N_COORD97":2564375.8518699999,"ADDRESS":"大井５號之１","OBJECTID":653865},"geometry":{"x":188490.93462100066,"y":2564375.8518740013}},{"attributes":{"ID":653893,"DIS_CODE":0,"TOWNNAME":"官田區","LI":"官田里","LIN":"6鄰","STREET":" ","SECT":" ","MAREA":"官田","LANE":" ","ALLEY":" ","HOUSE_NO":"５６號","E_COORD97":182703.24887800001,"N_COORD97":2565059.58898,"ADDRESS":"官田５６號","OBJECTID":653866},"geometry":{"x":182703.2488780003,"y":2565059.5889769997}},{"attributes":{"ID":653894,"DIS_CODE":0,"TOWNNAME":"官田區","LI":"官田里","LIN":"6鄰","STREET":" ","SECT":" ","MAREA":"官田","LANE":" ","ALLEY":" ","HOUSE_NO":"５８號之１","E_COORD97":182728.87728700001,"N_COORD97":2565054.72065,"ADDRESS":"官田５８號之１","OBJECTID":653867},"geometry":{"x":182728.87728700135,"y":2565054.7206460014}},{"attributes":{"ID":653895,"DIS_CODE":0,"TOWNNAME":"官田區","LI":"官田里","LIN":"1鄰","STREET":" ","SECT":" ","MAREA":"官田","LANE":" ","ALLEY":" ","HOUSE_NO":"５號之３","E_COORD97":182546.241194,"N_COORD97":2565329.2432900001,"ADDRESS":"官田５號之３","OBJECTID":653868},"geometry":{"x":182546.24119400047,"y":2565329.243292002}},{"attributes":{"ID":653896,"DIS_CODE":0,"TOWNNAME":"官田區","LI":"官田里","LIN":"4鄰","STREET":" ","SECT":" ","MAREA":"官田","LANE":" ","ALLEY":" ","HOUSE_NO":"３８號","E_COORD97":182512.293404,"N_COORD97":2565204.0514000002,"ADDRESS":"官田３８號","OBJECTID":653869},"geometry":{"x":182512.29340399988,"y":2565204.051399}},{"attributes":{"ID":653897,"DIS_CODE":0,"TOWNNAME":"官田區","LI":"官田里","LIN":"4鄰","STREET":" ","SECT":" ","MAREA":"官田","LANE":" ","ALLEY":" ","HOUSE_NO":"３７號","E_COORD97":182506.15105799999,"N_COORD97":2565223.31305,"ADDRESS":"官田３７號","OBJECTID":653870},"geometry":{"x":182506.15105799958,"y":2565223.3130550012}},{"attributes":{"ID":653898,"DIS_CODE":0,"TOWNNAME":"官田區","LI":"官田里","LIN":"4鄰","STREET":" ","SECT":" ","MAREA":"官田","LANE":" ","ALLEY":" ","HOUSE_NO":"３７號之４","E_COORD97":182485.39416500001,"N_COORD97":2565212.9413899998,"ADDRESS":"官田３７號之４","OBJECTID":653871},"geometry":{"x":182485.39416500181,"y":2565212.9413940031}},{"attributes":{"ID":653899,"DIS_CODE":0,"TOWNNAME":"仁德區","LI":"新田里","LIN":"17鄰","STREET":"民安路","SECT":"二段","MAREA":" ","LANE":" ","ALLEY":" ","HOUSE_NO":"７５號之１號一樓之１","E_COORD97":173504.30606999999,"N_COORD97":2539246.2527000001,"ADDRESS":"民安路二段７５號之１號一樓之１","OBJECTID":653872},"geometry":{"x":173504.30606999993,"y":2539246.252700001}},{"attributes":{"ID":653900,"DIS_CODE":0,"TOWNNAME":"仁德區","LI":"新田里","LIN":"17鄰","STREET":"民安路","SECT":"二段","MAREA":" ","LANE":" ","ALLEY":" ","HOUSE_NO":"７５號之１號七樓之１","E_COORD97":173504.30606999999,"N_COORD97":2539246.2527000001,"ADDRESS":"民安路二段７５號之１號七樓之１","OBJECTID":653873},"geometry":{"x":173504.30606999993,"y":2539246.252700001}},{"attributes":{"ID":653901,"DIS_CODE":0,"TOWNNAME":"仁德區","LI":"新田里","LIN":"17鄰","STREET":"民安路","SECT":"二段","MAREA":" ","LANE":" ","ALLEY":" ","HOUSE_NO":"７５號之１號七樓之２","E_COORD97":173504.30606999999,"N_COORD97":2539246.2527000001,"ADDRESS":"民安路二段７５號之１號七樓之２","OBJECTID":653874},"geometry":{"x":173504.30606999993,"y":2539246.252700001}},{"attributes":{"ID":653902,"DIS_CODE":0,"TOWNNAME":"仁德區","LI":"新田里","LIN":"17鄰","STREET":"民安路","SECT":"二段","MAREA":" ","LANE":" ","ALLEY":" ","HOUSE_NO":"７５號之１號七樓之３","E_COORD97":173504.30606999999,"N_COORD97":2539246.2527000001,"ADDRESS":"民安路二段７５號之１號七樓之３","OBJECTID":653875},"geometry":{"x":173504.30606999993,"y":2539246.252700001}},{"attributes":{"ID":653903,"DIS_CODE":0,"TOWNNAME":"仁德區","LI":"新田里","LIN":"17鄰","STREET":"民安路","SECT":"二段","MAREA":" ","LANE":" ","ALLEY":" ","HOUSE_NO":"７５號之１號九樓之１","E_COORD97":173504.30606999999,"N_COORD97":2539246.2527000001,"ADDRESS":"民安路二段７５號之１號九樓之１","OBJECTID":653876},"geometry":{"x":173504.30606999993,"y":2539246.252700001}},{"attributes":{"ID":653904,"DIS_CODE":0,"TOWNNAME":"仁德區","LI":"新田里","LIN":"17鄰","STREET":"民安路","SECT":"二段","MAREA":" ","LANE":" ","ALLEY":" ","HOUSE_NO":"７５號之１號九樓之２","E_COORD97":173504.30606999999,"N_COORD97":2539246.2527000001,"ADDRESS":"民安路二段７５號之１號九樓之２","OBJECTID":653877},"geometry":{"x":173504.30606999993,"y":2539246.252700001}},{"attributes":{"ID":653905,"DIS_CODE":0,"TOWNNAME":"仁德區","LI":"新田里","LIN":"17鄰","STREET":"民安路","SECT":"二段","MAREA":" ","LANE":" ","ALLEY":" ","HOUSE_NO":"７５號之１號九樓之３","E_COORD97":173504.30606999999,"N_COORD97":2539246.2527000001,"ADDRESS":"民安路二段７５號之１號九樓之３","OBJECTID":653878},"geometry":{"x":173504.30606999993,"y":2539246.252700001}},{"attributes":{"ID":653906,"DIS_CODE":0,"TOWNNAME":"仁德區","LI":"新田里","LIN":"17鄰","STREET":"民安路","SECT":"二段","MAREA":" ","LANE":" ","ALLEY":" ","HOUSE_NO":"７５號之１號二樓之１","E_COORD97":173504.30606999999,"N_COORD97":2539246.2527000001,"ADDRESS":"民安路二段７５號之１號二樓之１","OBJECTID":653879},"geometry":{"x":173504.30606999993,"y":2539246.252700001}},{"attributes":{"ID":653907,"DIS_CODE":0,"TOWNNAME":"仁德區","LI":"新田里","LIN":"17鄰","STREET":"民安路","SECT":"二段","MAREA":" ","LANE":" ","ALLEY":" ","HOUSE_NO":"７５號之１號二樓之２","E_COORD97":173504.30606999999,"N_COORD97":2539246.2527000001,"ADDRESS":"民安路二段７５號之１號二樓之２","OBJECTID":653880},"geometry":{"x":173504.30606999993,"y":2539246.252700001}},{"attributes":{"ID":653908,"DIS_CODE":0,"TOWNNAME":"仁德區","LI":"新田里","LIN":"17鄰","STREET":"民安路","SECT":"二段","MAREA":" ","LANE":" ","ALLEY":" ","HOUSE_NO":"７５號之１號二樓之３","E_COORD97":173504.30606999999,"N_COORD97":2539246.2527000001,"ADDRESS":"民安路二段７５號之１號二樓之３","OBJECTID":653881},"geometry":{"x":173504.30606999993,"y":2539246.252700001}},{"attributes":{"ID":653909,"DIS_CODE":0,"TOWNNAME":"仁德區","LI":"新田里","LIN":"17鄰","STREET":"民安路","SECT":"二段","MAREA":" ","LANE":" ","ALLEY":" ","HOUSE_NO":"７５號之１號八樓之１","E_COORD97":173504.30606999999,"N_COORD97":2539246.2527000001,"ADDRESS":"民安路二段７５號之１號八樓之１","OBJECTID":653882},"geometry":{"x":173504.30606999993,"y":2539246.252700001}},{"attributes":{"ID":653910,"DIS_CODE":0,"TOWNNAME":"仁德區","LI":"新田里","LIN":"17鄰","STREET":"民安路","SECT":"二段","MAREA":" ","LANE":" ","ALLEY":" ","HOUSE_NO":"７５號之１號八樓之２","E_COORD97":173504.30606999999,"N_COORD97":2539246.2527000001,"ADDRESS":"民安路二段７５號之１號八樓之２","OBJECTID":653883},"geometry":{"x":173504.30606999993,"y":2539246.252700001}},{"attributes":{"ID":653911,"DIS_CODE":0,"TOWNNAME":"仁德區","LI":"新田里","LIN":"17鄰","STREET":"民安路","SECT":"二段","MAREA":" ","LANE":" ","ALLEY":" ","HOUSE_NO":"７５號之１號八樓之３","E_COORD97":173504.30606999999,"N_COORD97":2539246.2527000001,"ADDRESS":"民安路二段７５號之１號八樓之３","OBJECTID":653884},"geometry":{"x":173504.30606999993,"y":2539246.252700001}},{"attributes":{"ID":653912,"DIS_CODE":0,"TOWNNAME":"仁德區","LI":"新田里","LIN":"17鄰","STREET":"民安路","SECT":"二段","MAREA":" ","LANE":" ","ALLEY":" ","HOUSE_NO":"７５號之１號十一樓之","E_COORD97":173504.30606999999,"N_COORD97":2539246.2527000001,"ADDRESS":"民安路二段７５號之１號十一樓之１","OBJECTID":653885},"geometry":{"x":173504.30606999993,"y":2539246.252700001}},{"attributes":{"ID":653913,"DIS_CODE":0,"TOWNNAME":"仁德區","LI":"新田里","LIN":"17鄰","STREET":"民安路","SECT":"二段","MAREA":" ","LANE":" ","ALLEY":" ","HOUSE_NO":"７５號之１號十一樓之","E_COORD97":173504.30606999999,"N_COORD97":2539246.2527000001,"ADDRESS":"民安路二段７５號之１號十一樓之２","OBJECTID":653886},"geometry":{"x":173504.30606999993,"y":2539246.252700001}},{"attributes":{"ID":653914,"DIS_CODE":0,"TOWNNAME":"仁德區","LI":"新田里","LIN":"17鄰","STREET":"民安路","SECT":"二段","MAREA":" ","LANE":" ","ALLEY":" ","HOUSE_NO":"７５號之１號十一樓之","E_COORD97":173504.30606999999,"N_COORD97":2539246.2527000001,"ADDRESS":"民安路二段７５號之１號十一樓之３","OBJECTID":653887},"geometry":{"x":173504.30606999993,"y":2539246.252700001}},{"attributes":{"ID":653915,"DIS_CODE":0,"TOWNNAME":"仁德區","LI":"新田里","LIN":"17鄰","STREET":"民安路","SECT":"二段","MAREA":" ","LANE":" ","ALLEY":" ","HOUSE_NO":"７５號之１號十樓之１","E_COORD97":173504.30606999999,"N_COORD97":2539246.2527000001,"ADDRESS":"民安路二段７５號之１號十樓之１","OBJECTID":653888},"geometry":{"x":173504.30606999993,"y":2539246.252700001}},{"attributes":{"ID":653916,"DIS_CODE":0,"TOWNNAME":"仁德區","LI":"新田里","LIN":"17鄰","STREET":"民安路","SECT":"二段","MAREA":" ","LANE":" ","ALLEY":" ","HOUSE_NO":"７５號之１號十樓之２","E_COORD97":173504.30606999999,"N_COORD97":2539246.2527000001,"ADDRESS":"民安路二段７５號之１號十樓之２","OBJECTID":653889},"geometry":{"x":173504.30606999993,"y":2539246.252700001}},{"attributes":{"ID":653917,"DIS_CODE":0,"TOWNNAME":"仁德區","LI":"新田里","LIN":"17鄰","STREET":"民安路","SECT":"二段","MAREA":" ","LANE":" ","ALLEY":" ","HOUSE_NO":"７５號之１號十樓之３","E_COORD97":173504.30606999999,"N_COORD97":2539246.2527000001,"ADDRESS":"民安路二段７５號之１號十樓之３","OBJECTID":653890},"geometry":{"x":173504.30606999993,"y":2539246.252700001}},{"attributes":{"ID":653918,"DIS_CODE":0,"TOWNNAME":"仁德區","LI":"新田里","LIN":"17鄰","STREET":"民安路","SECT":"二段","MAREA":" ","LANE":" ","ALLEY":" ","HOUSE_NO":"７５號之１號三樓之１","E_COORD97":173504.30606999999,"N_COORD97":2539246.2527000001,"ADDRESS":"民安路二段７５號之１號三樓之１","OBJECTID":653891},"geometry":{"x":173504.30606999993,"y":2539246.252700001}},{"attributes":{"ID":653919,"DIS_CODE":0,"TOWNNAME":"仁德區","LI":"新田里","LIN":"17鄰","STREET":"民安路","SECT":"二段","MAREA":" ","LANE":" ","ALLEY":" ","HOUSE_NO":"７５號之１號三樓之２","E_COORD97":173504.30606999999,"N_COORD97":2539246.2527000001,"ADDRESS":"民安路二段７５號之１號三樓之２","OBJECTID":653892},"geometry":{"x":173504.30606999993,"y":2539246.252700001}},{"attributes":{"ID":653920,"DIS_CODE":0,"TOWNNAME":"仁德區","LI":"新田里","LIN":"17鄰","STREET":"民安路","SECT":"二段","MAREA":" ","LANE":" ","ALLEY":" ","HOUSE_NO":"７５號之１號五樓之１","E_COORD97":173504.30606999999,"N_COORD97":2539246.2527000001,"ADDRESS":"民安路二段７５號之１號五樓之１","OBJECTID":653893},"geometry":{"x":173504.30606999993,"y":2539246.252700001}},{"attributes":{"ID":653921,"DIS_CODE":0,"TOWNNAME":"仁德區","LI":"新田里","LIN":"17鄰","STREET":"民安路","SECT":"二段","MAREA":" ","LANE":" ","ALLEY":" ","HOUSE_NO":"７５號之１號五樓之２","E_COORD97":173504.30606999999,"N_COORD97":2539246.2527000001,"ADDRESS":"民安路二段７５號之１號五樓之２","OBJECTID":653894},"geometry":{"x":173504.30606999993,"y":2539246.252700001}},{"attributes":{"ID":653922,"DIS_CODE":0,"TOWNNAME":"仁德區","LI":"新田里","LIN":"17鄰","STREET":"民安路","SECT":"二段","MAREA":" ","LANE":" ","ALLEY":" ","HOUSE_NO":"７５號之１號五樓之３","E_COORD97":173504.30606999999,"N_COORD97":2539246.2527000001,"ADDRESS":"民安路二段７５號之１號五樓之３","OBJECTID":653895},"geometry":{"x":173504.30606999993,"y":2539246.252700001}},{"attributes":{"ID":653923,"DIS_CODE":0,"TOWNNAME":"仁德區","LI":"新田里","LIN":"17鄰","STREET":"民安路","SECT":"二段","MAREA":" ","LANE":" ","ALLEY":" ","HOUSE_NO":"７５號之１號六樓之１","E_COORD97":173504.30606999999,"N_COORD97":2539246.2527000001,"ADDRESS":"民安路二段７５號之１號六樓之１","OBJECTID":653896},"geometry":{"x":173504.30606999993,"y":2539246.252700001}},{"attributes":{"ID":653924,"DIS_CODE":0,"TOWNNAME":"仁德區","LI":"新田里","LIN":"17鄰","STREET":"民安路","SECT":"二段","MAREA":" ","LANE":" ","ALLEY":" ","HOUSE_NO":"７５號之１號六樓之２","E_COORD97":173504.30606999999,"N_COORD97":2539246.2527000001,"ADDRESS":"民安路二段７５號之１號六樓之２","OBJECTID":653897},"geometry":{"x":173504.30606999993,"y":2539246.252700001}},{"attributes":{"ID":653925,"DIS_CODE":0,"TOWNNAME":"仁德區","LI":"新田里","LIN":"17鄰","STREET":"民安路","SECT":"二段","MAREA":" ","LANE":" ","ALLEY":" ","HOUSE_NO":"７５號之１號六樓之３","E_COORD97":173504.30606999999,"N_COORD97":2539246.2527000001,"ADDRESS":"民安路二段７５號之１號六樓之３","OBJECTID":653898},"geometry":{"x":173504.30606999993,"y":2539246.252700001}},{"attributes":{"ID":653926,"DIS_CODE":0,"TOWNNAME":"仁德區","LI":"新田里","LIN":"17鄰","STREET":"民安路","SECT":"二段","MAREA":" ","LANE":" ","ALLEY":" ","HOUSE_NO":"７５號之１號四樓之１","E_COORD97":173504.30606999999,"N_COORD97":2539246.2527000001,"ADDRESS":"民安路二段７５號之１號四樓之１","OBJECTID":653899},"geometry":{"x":173504.30606999993,"y":2539246.252700001}},{"attributes":{"ID":653927,"DIS_CODE":0,"TOWNNAME":"仁德區","LI":"新田里","LIN":"17鄰","STREET":"民安路","SECT":"二段","MAREA":" ","LANE":" ","ALLEY":" ","HOUSE_NO":"７５號之１號四樓之２","E_COORD97":173504.30606999999,"N_COORD97":2539246.2527000001,"ADDRESS":"民安路二段７５號之１號四樓之２","OBJECTID":653900},"geometry":{"x":173504.30606999993,"y":2539246.252700001}},{"attributes":{"ID":653928,"DIS_CODE":0,"TOWNNAME":"仁德區","LI":"新田里","LIN":"17鄰","STREET":"民安路","SECT":"二段","MAREA":" ","LANE":" ","ALLEY":" ","HOUSE_NO":"７５號之１號四樓之３","E_COORD97":173504.30606999999,"N_COORD97":2539246.2527000001,"ADDRESS":"民安路二段７５號之１號四樓之３","OBJECTID":653901},"geometry":{"x":173504.30606999993,"y":2539246.252700001}},{"attributes":{"ID":653929,"DIS_CODE":0,"TOWNNAME":"仁德區","LI":"新田里","LIN":"17鄰","STREET":"民安路","SECT":"二段","MAREA":" ","LANE":" ","ALLEY":" ","HOUSE_NO":"７５號之１號一樓之２","E_COORD97":173504.30606999999,"N_COORD97":2539246.2527000001,"ADDRESS":"民安路二段７５號之１號一樓之２","OBJECTID":653902},"geometry":{"x":173504.30606999993,"y":2539246.252700001}},{"attributes":{"ID":653930,"DIS_CODE":0,"TOWNNAME":"仁德區","LI":"新田里","LIN":"17鄰","STREET":"民安路","SECT":"二段","MAREA":" ","LANE":" ","ALLEY":" ","HOUSE_NO":"７５號之１號三樓之３","E_COORD97":173504.30606999999,"N_COORD97":2539246.2527000001,"ADDRESS":"民安路二段７５號之１號三樓之３","OBJECTID":653903},"geometry":{"x":173504.30606999993,"y":2539246.252700001}},{"attributes":{"ID":653931,"DIS_CODE":0,"TOWNNAME":"仁德區","LI":"後壁里","LIN":"12鄰","STREET":"德南路","SECT":" ","MAREA":" ","LANE":"１８７巷","ALLEY":" ","HOUSE_NO":"１９號三樓","E_COORD97":173645.76000000001,"N_COORD97":2538552.27,"ADDRESS":"德南路１８７巷１９號三樓","OBJECTID":653904},"geometry":{"x":173645.75999999978,"y":2538552.2699999996}},{"attributes":{"ID":653932,"DIS_CODE":0,"TOWNNAME":"仁德區","LI":"後壁里","LIN":"12鄰","STREET":"德南路","SECT":" ","MAREA":" ","LANE":"１８７巷","ALLEY":" ","HOUSE_NO":"１９號四樓","E_COORD97":173645.76000000001,"N_COORD97":2538552.27,"ADDRESS":"德南路１８７巷１９號四樓","OBJECTID":653905},"geometry":{"x":173645.75999999978,"y":2538552.2699999996}},{"attributes":{"ID":653933,"DIS_CODE":0,"TOWNNAME":"仁德區","LI":"後壁里","LIN":"12鄰","STREET":"德南路","SECT":" ","MAREA":" ","LANE":"１８７巷","ALLEY":" ","HOUSE_NO":"１９號五樓","E_COORD97":173645.76000000001,"N_COORD97":2538552.27,"ADDRESS":"德南路１８７巷１９號五樓","OBJECTID":653906},"geometry":{"x":173645.75999999978,"y":2538552.2699999996}},{"attributes":{"ID":653934,"DIS_CODE":0,"TOWNNAME":"仁德區","LI":"後壁里","LIN":"12鄰","STREET":"德南路","SECT":" ","MAREA":" ","LANE":"１８７巷","ALLEY":" ","HOUSE_NO":"１９號六樓","E_COORD97":173645.76000000001,"N_COORD97":2538552.27,"ADDRESS":"德南路１８７巷１９號六樓","OBJECTID":653907},"geometry":{"x":173645.75999999978,"y":2538552.2699999996}},{"attributes":{"ID":653935,"DIS_CODE":0,"TOWNNAME":"仁德區","LI":"後壁里","LIN":"12鄰","STREET":"德南路","SECT":" ","MAREA":" ","LANE":"１８７巷","ALLEY":" ","HOUSE_NO":"１９號七樓","E_COORD97":173645.76000000001,"N_COORD97":2538552.27,"ADDRESS":"德南路１８７巷１９號七樓","OBJECTID":653908},"geometry":{"x":173645.75999999978,"y":2538552.2699999996}},{"attributes":{"ID":653936,"DIS_CODE":0,"TOWNNAME":"仁德區","LI":"後壁里","LIN":"12鄰","STREET":"德南路","SECT":" ","MAREA":" ","LANE":"１８７巷","ALLEY":" ","HOUSE_NO":"１９號八樓","E_COORD97":173645.76000000001,"N_COORD97":2538552.27,"ADDRESS":"德南路１８７巷１９號八樓","OBJECTID":653909},"geometry":{"x":173645.75999999978,"y":2538552.2699999996}},{"attributes":{"ID":653937,"DIS_CODE":0,"TOWNNAME":"仁德區","LI":"後壁里","LIN":"12鄰","STREET":"德南路","SECT":" ","MAREA":" ","LANE":"１８７巷","ALLEY":" ","HOUSE_NO":"２１號三樓","E_COORD97":173639.92000000001,"N_COORD97":2538561.02,"ADDRESS":"德南路１８７巷２１號三樓","OBJECTID":653910},"geometry":{"x":173639.91999999993,"y":2538561.0199999996}},{"attributes":{"ID":653938,"DIS_CODE":0,"TOWNNAME":"仁德區","LI":"後壁里","LIN":"12鄰","STREET":"德南路","SECT":" ","MAREA":" ","LANE":"１８７巷","ALLEY":" ","HOUSE_NO":"２１號四樓","E_COORD97":173639.92000000001,"N_COORD97":2538561.02,"ADDRESS":"德南路１８７巷２１號四樓","OBJECTID":653911},"geometry":{"x":173639.91999999993,"y":2538561.0199999996}},{"attributes":{"ID":653939,"DIS_CODE":0,"TOWNNAME":"仁德區","LI":"後壁里","LIN":"12鄰","STREET":"德南路","SECT":" ","MAREA":" ","LANE":"１８７巷","ALLEY":" ","HOUSE_NO":"２１號五樓","E_COORD97":173639.92000000001,"N_COORD97":2538561.02,"ADDRESS":"德南路１８７巷２１號五樓","OBJECTID":653912},"geometry":{"x":173639.91999999993,"y":2538561.0199999996}},{"attributes":{"ID":653940,"DIS_CODE":0,"TOWNNAME":"仁德區","LI":"後壁里","LIN":"12鄰","STREET":"德南路","SECT":" ","MAREA":" ","LANE":"１８７巷","ALLEY":" ","HOUSE_NO":"２１號六樓","E_COORD97":173639.92000000001,"N_COORD97":2538561.02,"ADDRESS":"德南路１８７巷２１號六樓","OBJECTID":653913},"geometry":{"x":173639.91999999993,"y":2538561.0199999996}},{"attributes":{"ID":653941,"DIS_CODE":0,"TOWNNAME":"仁德區","LI":"後壁里","LIN":"12鄰","STREET":"德南路","SECT":" ","MAREA":" ","LANE":"１８７巷","ALLEY":" ","HOUSE_NO":"２１號七樓","E_COORD97":173639.92000000001,"N_COORD97":2538561.02,"ADDRESS":"德南路１８７巷２１號七樓","OBJECTID":653914},"geometry":{"x":173639.91999999993,"y":2538561.0199999996}},{"attributes":{"ID":653942,"DIS_CODE":0,"TOWNNAME":"仁德區","LI":"後壁里","LIN":"12鄰","STREET":"德南路","SECT":" ","MAREA":" ","LANE":"１８７巷","ALLEY":" ","HOUSE_NO":"２１號八樓","E_COORD97":173639.92000000001,"N_COORD97":2538561.02,"ADDRESS":"德南路１８７巷２１號八樓","OBJECTID":653915},"geometry":{"x":173639.91999999993,"y":2538561.0199999996}},{"attributes":{"ID":653943,"DIS_CODE":0,"TOWNNAME":"下營區","LI":"開化里","LIN":"18鄰","STREET":" ","SECT":" ","MAREA":"中營","LANE":" ","ALLEY":" ","HOUSE_NO":"１７４號","E_COORD97":175594.62055699999,"N_COORD97":2568049.7848399999,"ADDRESS":"中營１７４號","OBJECTID":653916},"geometry":{"x":175594.62055699993,"y":2568049.7848390006}},{"attributes":{"ID":653944,"DIS_CODE":0,"TOWNNAME":"歸仁區","LI":"西埔里","LIN":"14鄰","STREET":"西埔二街","SECT":" ","MAREA":" ","LANE":" ","ALLEY":" ","HOUSE_NO":"１６６號","E_COORD97":176599.91956099999,"N_COORD97":2544644.81702,"ADDRESS":"西埔二街１６６號","OBJECTID":653917},"geometry":{"x":176599.91956099961,"y":2544644.8170170002}},{"attributes":{"ID":653945,"DIS_CODE":0,"TOWNNAME":"下營區","LI":"開化里","LIN":"4鄰","STREET":" ","SECT":" ","MAREA":"中營","LANE":" ","ALLEY":" ","HOUSE_NO":"２８３號","E_COORD97":175887.15657200001,"N_COORD97":2567891.8815899999,"ADDRESS":"中營２８３號","OBJECTID":653918},"geometry":{"x":175887.15657200105,"y":2567891.8815910034}},{"attributes":{"ID":653946,"DIS_CODE":0,"TOWNNAME":"下營區","LI":"開化里","LIN":"8鄰","STREET":" ","SECT":" ","MAREA":"中營","LANE":" ","ALLEY":" ","HOUSE_NO":"４５４號","E_COORD97":176109.93531,"N_COORD97":2568156.7292900002,"ADDRESS":"中營４５４號","OBJECTID":653919},"geometry":{"x":176109.93530999962,"y":2568156.729290003}},{"attributes":{"ID":653947,"DIS_CODE":0,"TOWNNAME":"安南區","LI":"淵東里","LIN":"17鄰","STREET":"仁安路","SECT":" ","MAREA":" ","LANE":" ","ALLEY":" ","HOUSE_NO":"１９６號","E_COORD97":165817.69891199999,"N_COORD97":2550185.0016100002,"ADDRESS":"仁安路１９６號","OBJECTID":653920},"geometry":{"x":165817.69891200028,"y":2550185.0016140006}},{"attributes":{"ID":653948,"DIS_CODE":0,"TOWNNAME":"安南區","LI":"淵東里","LIN":"17鄰","STREET":"仁安路","SECT":" ","MAREA":" ","LANE":" ","ALLEY":" ","HOUSE_NO":"１９８號","E_COORD97":165822.35703899999,"N_COORD97":2550188.3882800001,"ADDRESS":"仁安路１９８號","OBJECTID":653921},"geometry":{"x":165822.35703900084,"y":2550188.3882790003}},{"attributes":{"ID":653949,"DIS_CODE":0,"TOWNNAME":"安南區","LI":"淵東里","LIN":"17鄰","STREET":"仁安路","SECT":" ","MAREA":" ","LANE":" ","ALLEY":" ","HOUSE_NO":"２００號","E_COORD97":165827.65036500001,"N_COORD97":2550190.0816100002,"ADDRESS":"仁安路２００號","OBJECTID":653922},"geometry":{"x":165827.65036500152,"y":2550190.081612004}},{"attributes":{"ID":653950,"DIS_CODE":0,"TOWNNAME":"安南區","LI":"淵東里","LIN":"17鄰","STREET":"仁安路","SECT":" ","MAREA":" ","LANE":" ","ALLEY":" ","HOUSE_NO":"２０２號","E_COORD97":165831.885026,"N_COORD97":2550191.5632799999,"ADDRESS":"仁安路２０２號","OBJECTID":653923},"geometry":{"x":165831.88502600137,"y":2550191.5632770006}},{"attributes":{"ID":653951,"DIS_CODE":0,"TOWNNAME":"安南區","LI":"淵東里","LIN":"17鄰","STREET":"仁安路","SECT":" ","MAREA":" ","LANE":" ","ALLEY":" ","HOUSE_NO":"２０６號","E_COORD97":165837.39008499999,"N_COORD97":2550194.1032799999,"ADDRESS":"仁安路２０６號","OBJECTID":653924},"geometry":{"x":165837.39008499961,"y":2550194.1032759994}},{"attributes":{"ID":653952,"DIS_CODE":0,"TOWNNAME":"安南區","LI":"淵東里","LIN":"17鄰","STREET":"仁安路","SECT":" ","MAREA":" ","LANE":"１９４巷","ALLEY":" ","HOUSE_NO":"１號","E_COORD97":165821.72183900001,"N_COORD97":2550172.30162,"ADDRESS":"仁安路１９４巷１號","OBJECTID":653925},"geometry":{"x":165821.7218390014,"y":2550172.3016210031}},{"attributes":{"ID":653953,"DIS_CODE":0,"TOWNNAME":"安南區","LI":"淵東里","LIN":"17鄰","STREET":"仁安路","SECT":" ","MAREA":" ","LANE":"１９４巷","ALLEY":" ","HOUSE_NO":"１之１號","E_COORD97":165822.99223800001,"N_COORD97":2550168.7032900001,"ADDRESS":"仁安路１９４巷１之１號","OBJECTID":653926},"geometry":{"x":165822.99223800097,"y":2550168.7032900006}},{"attributes":{"ID":653954,"DIS_CODE":0,"TOWNNAME":"仁德區","LI":"後壁里","LIN":"12鄰","STREET":"德南路","SECT":" ","MAREA":" ","LANE":"１９４巷","ALLEY":" ","HOUSE_NO":"２號四樓之１","E_COORD97":173672.57000000001,"N_COORD97":2538510.0099999998,"ADDRESS":"德南路１９４巷２號四樓之１","OBJECTID":653927},"geometry":{"x":173672.5700000003,"y":2538510.0099999998}},{"attributes":{"ID":653955,"DIS_CODE":0,"TOWNNAME":"仁德區","LI":"後壁里","LIN":"12鄰","STREET":"德南路","SECT":" ","MAREA":" ","LANE":"１９４巷","ALLEY":" ","HOUSE_NO":"２號四樓之２","E_COORD97":173672.57000000001,"N_COORD97":2538510.0099999998,"ADDRESS":"德南路１９４巷２號四樓之２","OBJECTID":653928},"geometry":{"x":173672.5700000003,"y":2538510.0099999998}},{"attributes":{"ID":653956,"DIS_CODE":0,"TOWNNAME":"仁德區","LI":"後壁里","LIN":"12鄰","STREET":"德南路","SECT":" ","MAREA":" ","LANE":"１９４巷","ALLEY":" ","HOUSE_NO":"２號五樓之１","E_COORD97":173672.57000000001,"N_COORD97":2538510.0099999998,"ADDRESS":"德南路１９４巷２號五樓之１","OBJECTID":653929},"geometry":{"x":173672.5700000003,"y":2538510.0099999998}},{"attributes":{"ID":653957,"DIS_CODE":0,"TOWNNAME":"仁德區","LI":"後壁里","LIN":"12鄰","STREET":"德南路","SECT":" ","MAREA":" ","LANE":"１９４巷","ALLEY":" ","HOUSE_NO":"２號五樓之２","E_COORD97":173672.57000000001,"N_COORD97":2538510.0099999998,"ADDRESS":"德南路１９４巷２號五樓之２","OBJECTID":653930},"geometry":{"x":173672.5700000003,"y":2538510.0099999998}},{"attributes":{"ID":653958,"DIS_CODE":0,"TOWNNAME":"仁德區","LI":"後壁里","LIN":"12鄰","STREET":"德南路","SECT":" ","MAREA":" ","LANE":"１９４巷","ALLEY":" ","HOUSE_NO":"２號六樓之１","E_COORD97":173672.57000000001,"N_COORD97":2538510.0099999998,"ADDRESS":"德南路１９４巷２號六樓之１","OBJECTID":653931},"geometry":{"x":173672.5700000003,"y":2538510.0099999998}},{"attributes":{"ID":653959,"DIS_CODE":0,"TOWNNAME":"仁德區","LI":"後壁里","LIN":"12鄰","STREET":"德南路","SECT":" ","MAREA":" ","LANE":"１９４巷","ALLEY":" ","HOUSE_NO":"２號六樓之２","E_COORD97":173672.57000000001,"N_COORD97":2538510.0099999998,"ADDRESS":"德南路１９４巷２號六樓之２","OBJECTID":653932},"geometry":{"x":173672.5700000003,"y":2538510.0099999998}},{"attributes":{"ID":653960,"DIS_CODE":0,"TOWNNAME":"仁德區","LI":"後壁里","LIN":"12鄰","STREET":"德南路","SECT":" ","MAREA":" ","LANE":"１９４巷","ALLEY":" ","HOUSE_NO":"２號七樓之１","E_COORD97":173672.57000000001,"N_COORD97":2538510.0099999998,"ADDRESS":"德南路１９４巷２號七樓之１","OBJECTID":653933},"geometry":{"x":173672.5700000003,"y":2538510.0099999998}},{"attributes":{"ID":653961,"DIS_CODE":0,"TOWNNAME":"仁德區","LI":"後壁里","LIN":"12鄰","STREET":"德南路","SECT":" ","MAREA":" ","LANE":"１９４巷","ALLEY":" ","HOUSE_NO":"２號七樓之２","E_COORD97":173672.57000000001,"N_COORD97":2538510.0099999998,"ADDRESS":"德南路１９４巷２號七樓之２","OBJECTID":653934},"geometry":{"x":173672.5700000003,"y":2538510.0099999998}},{"attributes":{"ID":653962,"DIS_CODE":0,"TOWNNAME":"山上區","LI":"明和里","LIN":"21鄰","STREET":" ","SECT":" ","MAREA":"北勢洲","LANE":" ","ALLEY":" ","HOUSE_NO":"１３號","E_COORD97":182188.875566,"N_COORD97":2558440.7220000001,"ADDRESS":"北勢洲１３號","OBJECTID":653935},"geometry":{"x":182188.87556600012,"y":2558440.7219990008}},{"attributes":{"ID":653963,"DIS_CODE":0,"TOWNNAME":"山上區","LI":"明和里","LIN":"21鄰","STREET":" ","SECT":" ","MAREA":"北勢洲","LANE":" ","ALLEY":" ","HOUSE_NO":"１３號","E_COORD97":182188.875566,"N_COORD97":2558440.7220000001,"ADDRESS":"北勢洲１３號","OBJECTID":653936},"geometry":{"x":182188.87556600012,"y":2558440.7219990008}},{"attributes":{"ID":653964,"DIS_CODE":0,"TOWNNAME":"麻豆區","LI":"磚井里","LIN":"2鄰","STREET":" ","SECT":" ","MAREA":"磚子井","LANE":" ","ALLEY":" ","HOUSE_NO":"１１號之５","E_COORD97":173231.612654,"N_COORD97":2563396.2784699998,"ADDRESS":"磚子井１１號之５","OBJECTID":653937},"geometry":{"x":173231.61265400052,"y":2563396.2784660012}},{"attributes":{"ID":653965,"DIS_CODE":0,"TOWNNAME":"麻豆區","LI":"磚井里","LIN":"1鄰","STREET":" ","SECT":" ","MAREA":"磚子井","LANE":" ","ALLEY":" ","HOUSE_NO":"５號之２","E_COORD97":173113.59980600001,"N_COORD97":2563485.6017499999,"ADDRESS":"磚子井５號之２","OBJECTID":653938},"geometry":{"x":173113.59980600048,"y":2563485.6017510016}},{"attributes":{"ID":653966,"DIS_CODE":0,"TOWNNAME":"麻豆區","LI":"磚井里","LIN":"11鄰","STREET":" ","SECT":" ","MAREA":"磚子井","LANE":" ","ALLEY":" ","HOUSE_NO":"１０５號之３","E_COORD97":173292.84373600001,"N_COORD97":2563103.7552899998,"ADDRESS":"磚子井１０５號之３","OBJECTID":653939},"geometry":{"x":173292.84373600036,"y":2563103.7552910019}},{"attributes":{"ID":653967,"DIS_CODE":0,"TOWNNAME":"官田區","LI":"大崎里","LIN":"12鄰","STREET":" ","SECT":" ","MAREA":"大井","LANE":" ","ALLEY":" ","HOUSE_NO":"２３號","E_COORD97":188701.680628,"N_COORD97":2566574.4323499999,"ADDRESS":"大井２３號","OBJECTID":653940},"geometry":{"x":188701.68062800076,"y":2566574.4323530011}},{"attributes":{"ID":653968,"DIS_CODE":0,"TOWNNAME":"官田區","LI":"大崎里","LIN":"12鄰","STREET":" ","SECT":" ","MAREA":"大井","LANE":" ","ALLEY":" ","HOUSE_NO":"２４號","E_COORD97":188699.56257800001,"N_COORD97":2566562.5790300001,"ADDRESS":"大井２４號","OBJECTID":653941},"geometry":{"x":188699.56257800199,"y":2566562.5790260006}},{"attributes":{"ID":653969,"DIS_CODE":0,"TOWNNAME":"中西區","LI":"三民里","LIN":"1鄰","STREET":"公園路","SECT":" ","MAREA":" ","LANE":" ","ALLEY":" ","HOUSE_NO":"６號","E_COORD97":168536.20873899999,"N_COORD97":2543786.861,"ADDRESS":"公園路６號","OBJECTID":653942},"geometry":{"x":168536.2087390013,"y":2543786.8610030003}},{"attributes":{"ID":653970,"DIS_CODE":0,"TOWNNAME":"中西區","LI":"三民里","LIN":"2鄰","STREET":"民權路","SECT":"二段","MAREA":" ","LANE":" ","ALLEY":" ","HOUSE_NO":"５５號","E_COORD97":168559.20807600001,"N_COORD97":2543855.4409699999,"ADDRESS":"民權路二段５５號","OBJECTID":653943},"geometry":{"x":168559.20807600021,"y":2543855.4409660026}},{"attributes":{"ID":653971,"DIS_CODE":0,"TOWNNAME":"官田區","LI":"大崎里","LIN":"12鄰","STREET":" ","SECT":" ","MAREA":"大井","LANE":" ","ALLEY":" ","HOUSE_NO":"２９號","E_COORD97":188726.673622,"N_COORD97":2566594.7523400001,"ADDRESS":"大井２９號","OBJECTID":653944},"geometry":{"x":188726.67362200189,"y":2566594.7523420025}},{"attributes":{"ID":653972,"DIS_CODE":0,"TOWNNAME":"安平區","LI":"漁光里","LIN":"2鄰","STREET":"漁光路","SECT":" ","MAREA":" ","LANE":" ","ALLEY":" ","HOUSE_NO":"１０１號","E_COORD97":163977.102938,"N_COORD97":2541939.44007,"ADDRESS":"漁光路１０１號","OBJECTID":653945},"geometry":{"x":163977.10293799918,"y":2541939.4400689993}},{"attributes":{"ID":653973,"DIS_CODE":0,"TOWNNAME":"中西區","LI":"三民里","LIN":"10鄰","STREET":"中山路","SECT":" ","MAREA":" ","LANE":"７９巷","ALLEY":" ","HOUSE_NO":"３４號之１","E_COORD97":168692.85860000001,"N_COORD97":2543895.8692800002,"ADDRESS":"中山路７９巷３４號之１","OBJECTID":653946},"geometry":{"x":168692.85860000085,"y":2543895.8692770023}},{"attributes":{"ID":653974,"DIS_CODE":0,"TOWNNAME":"安平區","LI":"漁光里","LIN":"6鄰","STREET":"漁光路","SECT":" ","MAREA":" ","LANE":" ","ALLEY":" ","HOUSE_NO":"１００號","E_COORD97":163513.237368,"N_COORD97":2542482.9997800002,"ADDRESS":"漁光路１００號","OBJECTID":653947},"geometry":{"x":163513.2373680016,"y":2542482.9997760002}},{"attributes":{"ID":653975,"DIS_CODE":0,"TOWNNAME":"安平區","LI":"漁光里","LIN":"6鄰","STREET":"漁光路","SECT":" ","MAREA":" ","LANE":" ","ALLEY":" ","HOUSE_NO":"１０４號","E_COORD97":163508.78730900001,"N_COORD97":2542490.6197700002,"ADDRESS":"漁光路１０４號","OBJECTID":653948},"geometry":{"x":163508.78730900027,"y":2542490.619772004}},{"attributes":{"ID":653976,"DIS_CODE":0,"TOWNNAME":"中西區","LI":"三民里","LIN":"10鄰","STREET":"中山路","SECT":" ","MAREA":" ","LANE":"７９巷","ALLEY":" ","HOUSE_NO":"３８號","E_COORD97":168711.373448,"N_COORD97":2543882.92466,"ADDRESS":"中山路７９巷３８號","OBJECTID":653949},"geometry":{"x":168711.37344800029,"y":2543882.9246610012}},{"attributes":{"ID":653977,"DIS_CODE":0,"TOWNNAME":"中西區","LI":"三民里","LIN":"10鄰","STREET":"中山路","SECT":" ","MAREA":" ","LANE":"７９巷","ALLEY":" ","HOUSE_NO":"４２號","E_COORD97":168715.612957,"N_COORD97":2543879.5380000002,"ADDRESS":"中山路７９巷４２號","OBJECTID":653950},"geometry":{"x":168715.61295700073,"y":2543879.5379959997}},{"attributes":{"ID":653978,"DIS_CODE":0,"TOWNNAME":"中西區","LI":"三民里","LIN":"10鄰","STREET":"中山路","SECT":" ","MAREA":" ","LANE":"７９巷","ALLEY":" ","HOUSE_NO":"４２號","E_COORD97":168715.612957,"N_COORD97":2543879.5380000002,"ADDRESS":"中山路７９巷４２號","OBJECTID":653951},"geometry":{"x":168715.61295700073,"y":2543879.5379959997}},{"attributes":{"ID":653979,"DIS_CODE":0,"TOWNNAME":"中西區","LI":"三民里","LIN":"10鄰","STREET":"中山路","SECT":" ","MAREA":" ","LANE":"７９巷","ALLEY":" ","HOUSE_NO":"４２號","E_COORD97":168715.612957,"N_COORD97":2543879.5380000002,"ADDRESS":"中山路７９巷４２號","OBJECTID":653952},"geometry":{"x":168715.61295700073,"y":2543879.5379959997}},{"attributes":{"ID":653980,"DIS_CODE":0,"TOWNNAME":"中西區","LI":"三民里","LIN":"10鄰","STREET":"中山路","SECT":" ","MAREA":" ","LANE":"７９巷","ALLEY":" ","HOUSE_NO":"３６號","E_COORD97":168710.52554599999,"N_COORD97":2543879.3263300001,"ADDRESS":"中山路７９巷３６號","OBJECTID":653953},"geometry":{"x":168710.52554600034,"y":2543879.3263300024}},{"attributes":{"ID":653981,"DIS_CODE":0,"TOWNNAME":"中西區","LI":"永華里","LIN":"18鄰","STREET":"忠義路","SECT":"二段","MAREA":" ","LANE":" ","ALLEY":" ","HOUSE_NO":"４號","E_COORD97":168265.48308000001,"N_COORD97":2543501.9248700002,"ADDRESS":"忠義路二段４號","OBJECTID":653954},"geometry":{"x":168265.48308000062,"y":2543501.9248670023}},{"attributes":{"ID":653982,"DIS_CODE":0,"TOWNNAME":"中西區","LI":"永華里","LIN":"22鄰","STREET":"忠義路","SECT":"二段","MAREA":" ","LANE":"３８巷","ALLEY":" ","HOUSE_NO":"２號","E_COORD97":168332.99726199999,"N_COORD97":2543673.5864400002,"ADDRESS":"忠義路二段３８巷２號","OBJECTID":653955},"geometry":{"x":168332.99726200011,"y":2543673.5864410009}},{"attributes":{"ID":653983,"DIS_CODE":0,"TOWNNAME":"中西區","LI":"三民里","LIN":"22鄰","STREET":"忠義路","SECT":"二段","MAREA":" ","LANE":"５０巷","ALLEY":" ","HOUSE_NO":"４號","E_COORD97":168319.00688199999,"N_COORD97":2543721.8464199998,"ADDRESS":"忠義路二段５０巷４號","OBJECTID":653956},"geometry":{"x":168319.00688199978,"y":2543721.8464150019}},{"attributes":{"ID":653984,"DIS_CODE":0,"TOWNNAME":"中西區","LI":"三民里","LIN":"20鄰","STREET":"忠義路","SECT":"二段","MAREA":" ","LANE":"１５８巷","ALLEY":"２０弄","HOUSE_NO":"５號之１","E_COORD97":168440.36282899999,"N_COORD97":2544015.00459,"ADDRESS":"忠義路二段１５８巷２０弄５號之１","OBJECTID":653957},"geometry":{"x":168440.36282900069,"y":2544015.0045899991}},{"attributes":{"ID":653985,"DIS_CODE":0,"TOWNNAME":"後壁區","LI":"平安里","LIN":"2鄰","STREET":" ","SECT":" ","MAREA":"葯店口","LANE":" ","ALLEY":" ","HOUSE_NO":"２３之１２號","E_COORD97":182040.51847800001,"N_COORD97":2584885.2439100002,"ADDRESS":"葯店口２３之１２號","OBJECTID":653958},"geometry":{"x":182040.51847799961,"y":2584885.2439079992}},{"attributes":{"ID":653986,"DIS_CODE":0,"TOWNNAME":"中西區","LI":"永福里","LIN":"17鄰","STREET":"永福路","SECT":"二段","MAREA":" ","LANE":" ","ALLEY":" ","HOUSE_NO":"２０２號","E_COORD97":168223.220007,"N_COORD97":2544085.24493,"ADDRESS":"永福路二段２０２號","OBJECTID":653959},"geometry":{"x":168223.22000700142,"y":2544085.2449290007}},{"attributes":{"ID":653987,"DIS_CODE":0,"TOWNNAME":"後壁區","LI":"平安里","LIN":"10鄰","STREET":" ","SECT":" ","MAREA":"魚寮","LANE":" ","ALLEY":" ","HOUSE_NO":"８８號","E_COORD97":182807.943699,"N_COORD97":2585052.0834900001,"ADDRESS":"魚寮８８號","OBJECTID":653960},"geometry":{"x":182807.94369900133,"y":2585052.0834920015}},{"attributes":{"ID":653988,"DIS_CODE":0,"TOWNNAME":"麻豆區","LI":"磚井里","LIN":"13鄰","STREET":" ","SECT":" ","MAREA":"磚子井","LANE":" ","ALLEY":" ","HOUSE_NO":"１３５號","E_COORD97":172819.61891799999,"N_COORD97":2563269.8304900001,"ADDRESS":"磚子井１３５號","OBJECTID":653961},"geometry":{"x":172819.61891799979,"y":2563269.830492001}},{"attributes":{"ID":653989,"DIS_CODE":0,"TOWNNAME":"麻豆區","LI":"磚井里","LIN":"13鄰","STREET":" ","SECT":" ","MAREA":"磚子井","LANE":" ","ALLEY":" ","HOUSE_NO":"１３７號之６","E_COORD97":172789.767742,"N_COORD97":2563230.8838499999,"ADDRESS":"磚子井１３７號之６","OBJECTID":653962},"geometry":{"x":172789.76774200052,"y":2563230.8838460017}},{"attributes":{"ID":653990,"DIS_CODE":0,"TOWNNAME":"安平區","LI":"漁光里","LIN":"4鄰","STREET":"漁光路","SECT":" ","MAREA":" ","LANE":" ","ALLEY":" ","HOUSE_NO":"１１３號","E_COORD97":163993.693504,"N_COORD97":2541976.9344600001,"ADDRESS":"漁光路１１３號","OBJECTID":653963},"geometry":{"x":163993.69350399915,"y":2541976.9344650023}},{"attributes":{"ID":653991,"DIS_CODE":0,"TOWNNAME":"安平區","LI":"漁光里","LIN":"7鄰","STREET":"漁光路","SECT":" ","MAREA":" ","LANE":" ","ALLEY":" ","HOUSE_NO":"１１８號之４","E_COORD97":163521.98735000001,"N_COORD97":2542510.3341700002,"ADDRESS":"漁光路１１８號之４","OBJECTID":653964},"geometry":{"x":163521.98735000007,"y":2542510.3341700025}},{"attributes":{"ID":653992,"DIS_CODE":0,"TOWNNAME":"安平區","LI":"漁光里","LIN":"7鄰","STREET":"漁光路","SECT":" ","MAREA":" ","LANE":" ","ALLEY":" ","HOUSE_NO":"１１８號之５","E_COORD97":163576.23568000001,"N_COORD97":2542474.13919,"ADDRESS":"漁光路１１８號之５","OBJECTID":653965},"geometry":{"x":163576.23568000086,"y":2542474.1391899977}},{"attributes":{"ID":653993,"DIS_CODE":0,"TOWNNAME":"安平區","LI":"漁光里","LIN":"7鄰","STREET":"漁光路","SECT":" ","MAREA":" ","LANE":" ","ALLEY":" ","HOUSE_NO":"１１８號之７","E_COORD97":163576.23568000001,"N_COORD97":2542536.1574900001,"ADDRESS":"漁光路１１８號之７","OBJECTID":653966},"geometry":{"x":163576.23568000086,"y":2542536.1574900001}},{"attributes":{"ID":653994,"DIS_CODE":0,"TOWNNAME":"安平區","LI":"漁光里","LIN":"4鄰","STREET":"漁光路","SECT":" ","MAREA":" ","LANE":"１１９巷","ALLEY":" ","HOUSE_NO":"１號之１","E_COORD97":163966.14551999999,"N_COORD97":2541976.51113,"ADDRESS":"漁光路１１９巷１號之１","OBJECTID":653967},"geometry":{"x":163966.14552000165,"y":2541976.5111300014}},{"attributes":{"ID":653995,"DIS_CODE":0,"TOWNNAME":"安平區","LI":"漁光里","LIN":"4鄰","STREET":"漁光路","SECT":" ","MAREA":" ","LANE":"１１９巷","ALLEY":" ","HOUSE_NO":"２號之２","E_COORD97":163965.72171000001,"N_COORD97":2541970.7961300001,"ADDRESS":"漁光路１１９巷２號之２","OBJECTID":653968},"geometry":{"x":163965.72171000112,"y":2541970.7961299997}},{"attributes":{"ID":653996,"DIS_CODE":0,"TOWNNAME":"新營區","LI":"延平里","LIN":"7鄰","STREET":"復興路","SECT":" ","MAREA":" ","LANE":" ","ALLEY":" ","HOUSE_NO":"１之７號","E_COORD97":179739.049371,"N_COORD97":2577955.9939899999,"ADDRESS":"復興路１之７號","OBJECTID":653969},"geometry":{"x":179739.04937100131,"y":2577955.9939939994}},{"attributes":{"ID":653997,"DIS_CODE":0,"TOWNNAME":"安平區","LI":"漁光里","LIN":"2鄰","STREET":"漁光路","SECT":" ","MAREA":" ","LANE":"１１９巷","ALLEY":" ","HOUSE_NO":"３號","E_COORD97":163969.95986100001,"N_COORD97":2541963.1761400001,"ADDRESS":"漁光路１１９巷３號","OBJECTID":653970},"geometry":{"x":163969.95986100007,"y":2541963.176140001}},{"attributes":{"ID":653998,"DIS_CODE":0,"TOWNNAME":"安平區","LI":"漁光里","LIN":"7鄰","STREET":"漁光路","SECT":" ","MAREA":" ","LANE":" ","ALLEY":" ","HOUSE_NO":"１２８號之１","E_COORD97":163457.56745999999,"N_COORD97":2542650.2457599998,"ADDRESS":"漁光路１２８號之１","OBJECTID":653971},"geometry":{"x":163457.56745999958,"y":2542650.2457600031}},{"attributes":{"ID":653999,"DIS_CODE":0,"TOWNNAME":"六甲區","LI":"甲東里","LIN":"25鄰","STREET":"裕農街","SECT":" ","MAREA":" ","LANE":"２巷","ALLEY":"２９弄","HOUSE_NO":"１號","E_COORD97":183897.62127199999,"N_COORD97":2569516.79134,"ADDRESS":"裕農街２巷２９弄１號","OBJECTID":653972},"geometry":{"x":183897.62127200048,"y":2569516.7913370002}},{"attributes":{"ID":654000,"DIS_CODE":0,"TOWNNAME":"官田區","LI":"拔林里","LIN":"1鄰","STREET":" ","SECT":" ","MAREA":"拔子林","LANE":" ","ALLEY":" ","HOUSE_NO":"９號","E_COORD97":180686.25725600001,"N_COORD97":2563636.5400700001,"ADDRESS":"拔子林９號","OBJECTID":653973},"geometry":{"x":180686.25725600123,"y":2563636.5400720015}},{"attributes":{"ID":654001,"DIS_CODE":0,"TOWNNAME":"新營區","LI":"延平里","LIN":"7鄰","STREET":"復興路","SECT":" ","MAREA":" ","LANE":" ","ALLEY":" ","HOUSE_NO":"３號","E_COORD97":179758.58605400001,"N_COORD97":2577956.7282099999,"ADDRESS":"復興路３號","OBJECTID":653974},"geometry":{"x":179758.586054001,"y":2577956.728213001}},{"attributes":{"ID":654002,"DIS_CODE":0,"TOWNNAME":"新營區","LI":"延平里","LIN":"7鄰","STREET":"復興路","SECT":" ","MAREA":" ","LANE":" ","ALLEY":" ","HOUSE_NO":"５號","E_COORD97":179755.83105000001,"N_COORD97":2577957.9982099999,"ADDRESS":"復興路５號","OBJECTID":653975},"geometry":{"x":179755.83105000108,"y":2577957.9982120022}},{"attributes":{"ID":654003,"DIS_CODE":0,"TOWNNAME":"新營區","LI":"延平里","LIN":"7鄰","STREET":"復興路","SECT":" ","MAREA":" ","LANE":" ","ALLEY":" ","HOUSE_NO":"７號","E_COORD97":179752.86412300001,"N_COORD97":2577959.47988,"ADDRESS":"復興路７號","OBJECTID":653976},"geometry":{"x":179752.86412300076,"y":2577959.4798780028}},{"attributes":{"ID":654004,"DIS_CODE":0,"TOWNNAME":"新營區","LI":"延平里","LIN":"7鄰","STREET":"復興路","SECT":" ","MAREA":" ","LANE":" ","ALLEY":" ","HOUSE_NO":"１１號","E_COORD97":179745.446807,"N_COORD97":2577962.6548799998,"ADDRESS":"復興路１１號","OBJECTID":653977},"geometry":{"x":179745.44680700079,"y":2577962.654876003}},{"attributes":{"ID":654005,"DIS_CODE":0,"TOWNNAME":"新營區","LI":"延平里","LIN":"7鄰","STREET":"復興路","SECT":" ","MAREA":" ","LANE":" ","ALLEY":" ","HOUSE_NO":"１５號","E_COORD97":179740.14872299999,"N_COORD97":2577965.9357099999,"ADDRESS":"復興路１５號","OBJECTID":653978},"geometry":{"x":179740.14872300066,"y":2577965.9357080031}},{"attributes":{"ID":654006,"DIS_CODE":0,"TOWNNAME":"新營區","LI":"延平里","LIN":"7鄰","STREET":"復興路","SECT":" ","MAREA":" ","LANE":" ","ALLEY":" ","HOUSE_NO":"１７號","E_COORD97":179737.181797,"N_COORD97":2577967.2057099999,"ADDRESS":"復興路１７號","OBJECTID":653979},"geometry":{"x":179737.18179699965,"y":2577967.2057070024}},{"attributes":{"ID":654007,"DIS_CODE":0,"TOWNNAME":"新營區","LI":"延平里","LIN":"7鄰","STREET":"復興路","SECT":" ","MAREA":" ","LANE":" ","ALLEY":" ","HOUSE_NO":"１９號","E_COORD97":179734.002947,"N_COORD97":2577968.89904,"ADDRESS":"復興路１９號","OBJECTID":653980},"geometry":{"x":179734.00294699986,"y":2577968.8990390003}},{"attributes":{"ID":654008,"DIS_CODE":0,"TOWNNAME":"新營區","LI":"延平里","LIN":"7鄰","STREET":"復興路","SECT":" ","MAREA":" ","LANE":" ","ALLEY":" ","HOUSE_NO":"２１號","E_COORD97":179730.612173,"N_COORD97":2577970.3807000001,"ADDRESS":"復興路２１號","OBJECTID":653981},"geometry":{"x":179730.61217300035,"y":2577970.3807050027}},{"attributes":{"ID":654009,"DIS_CODE":0,"TOWNNAME":"新營區","LI":"延平里","LIN":"7鄰","STREET":"復興路","SECT":" ","MAREA":" ","LANE":" ","ALLEY":" ","HOUSE_NO":"２３號","E_COORD97":179727.645246,"N_COORD97":2577972.0740399999,"ADDRESS":"復興路２３號","OBJECTID":653982},"geometry":{"x":179727.64524600003,"y":2577972.0740380008}},{"attributes":{"ID":654010,"DIS_CODE":0,"TOWNNAME":"新營區","LI":"延平里","LIN":"7鄰","STREET":"復興路","SECT":" ","MAREA":" ","LANE":" ","ALLEY":" ","HOUSE_NO":"２５號","E_COORD97":179724.466396,"N_COORD97":2577973.3440399999,"ADDRESS":"復興路２５號","OBJECTID":653983},"geometry":{"x":179724.4663960021,"y":2577973.3440370001}},{"attributes":{"ID":654011,"DIS_CODE":0,"TOWNNAME":"新營區","LI":"延平里","LIN":"7鄰","STREET":"復興路","SECT":" ","MAREA":" ","LANE":" ","ALLEY":" ","HOUSE_NO":"２７號","E_COORD97":179717.26100299999,"N_COORD97":2577974.8256999999,"ADDRESS":"復興路２７號","OBJECTID":653984},"geometry":{"x":179717.26100299973,"y":2577974.8257030006}},{"attributes":{"ID":654012,"DIS_CODE":0,"TOWNNAME":"官田區","LI":"拔林里","LIN":"1鄰","STREET":" ","SECT":" ","MAREA":"拔子林","LANE":" ","ALLEY":" ","HOUSE_NO":"８號之２","E_COORD97":180674.71035099999,"N_COORD97":2563615.7620700002,"ADDRESS":"拔子林８號之２","OBJECTID":653985},"geometry":{"x":180674.71035099961,"y":2563615.7620700002}},{"attributes":{"ID":654013,"DIS_CODE":0,"TOWNNAME":"官田區","LI":"大崎里","LIN":"12鄰","STREET":" ","SECT":" ","MAREA":"大井","LANE":" ","ALLEY":" ","HOUSE_NO":"１６號之１","E_COORD97":189533.63503,"N_COORD97":2566677.09063,"ADDRESS":"大井１６號之１","OBJECTID":653986},"geometry":{"x":189533.63502999954,"y":2566677.0906300005}},{"attributes":{"ID":654014,"DIS_CODE":0,"TOWNNAME":"官田區","LI":"拔林里","LIN":"1鄰","STREET":" ","SECT":" ","MAREA":"拔子林","LANE":" ","ALLEY":" ","HOUSE_NO":"８號之２","E_COORD97":180606.912006,"N_COORD97":2563625.28706,"ADDRESS":"拔子林８號之２","OBJECTID":653987},"geometry":{"x":180606.91200600099,"y":2563625.2870649993}},{"attributes":{"ID":654015,"DIS_CODE":0,"TOWNNAME":"官田區","LI":"拔林里","LIN":"1鄰","STREET":" ","SECT":" ","MAREA":"拔子林","LANE":" ","ALLEY":" ","HOUSE_NO":"２５號之１","E_COORD97":180548.53899999999,"N_COORD97":2563588.6329999999,"ADDRESS":"拔子林２５號之１","OBJECTID":653988},"geometry":{"x":180548.5390000008,"y":2563588.6329999994}},{"attributes":{"ID":654016,"DIS_CODE":0,"TOWNNAME":"官田區","LI":"大崎里","LIN":"12鄰","STREET":" ","SECT":" ","MAREA":"大井","LANE":" ","ALLEY":" ","HOUSE_NO":"１６號之２","E_COORD97":190257.427,"N_COORD97":2566678.8292299998,"ADDRESS":"大井１６號之２","OBJECTID":653989},"geometry":{"x":190257.42700000014,"y":2566678.8292300031}},{"attributes":{"ID":654017,"DIS_CODE":0,"TOWNNAME":"後壁區","LI":"嘉民里","LIN":"1鄰","STREET":" ","SECT":" ","MAREA":"上茄苳","LANE":" ","ALLEY":" ","HOUSE_NO":"１２７號之２１","E_COORD97":186604.5575,"N_COORD97":2587488.66377,"ADDRESS":"上茄苳１２７號之２１","OBJECTID":653990},"geometry":{"x":186604.55750000011,"y":2587488.663769003}},{"attributes":{"ID":654018,"DIS_CODE":0,"TOWNNAME":"歸仁區","LI":"七甲里","LIN":"2鄰","STREET":"中正北路","SECT":"二段","MAREA":" ","LANE":"４１７巷","ALLEY":" ","HOUSE_NO":"１８０號","E_COORD97":177101.171474,"N_COORD97":2543048.4538799999,"ADDRESS":"中正北路二段４１７巷１８０號","OBJECTID":653991},"geometry":{"x":177101.17147400044,"y":2543048.4538800009}},{"attributes":{"ID":654019,"DIS_CODE":0,"TOWNNAME":"玉井區","LI":"望明里","LIN":"8鄰","STREET":" ","SECT":" ","MAREA":"公\u25A0","LANE":" ","ALLEY":" ","HOUSE_NO":"５０號","E_COORD97":193982.47232299999,"N_COORD97":2556601.35311,"ADDRESS":"公\u25A0５０號","OBJECTID":653992},"geometry":{"x":193982.47232300043,"y":2556601.3531129993}},{"attributes":{"ID":654020,"DIS_CODE":0,"TOWNNAME":"玉井區","LI":"望明里","LIN":"8鄰","STREET":" ","SECT":" ","MAREA":"公\u25A0","LANE":" ","ALLEY":" ","HOUSE_NO":"５１號","E_COORD97":193952.60330300001,"N_COORD97":2556613.8414400001,"ADDRESS":"公\u25A0５１號","OBJECTID":653993},"geometry":{"x":193952.60330300219,"y":2556613.8414390013}},{"attributes":{"ID":654021,"DIS_CODE":0,"TOWNNAME":"六甲區","LI":"中社里","LIN":"22鄰","STREET":" ","SECT":" ","MAREA":"林鳳營","LANE":" ","ALLEY":" ","HOUSE_NO":"２４２之１號","E_COORD97":180393.39168199999,"N_COORD97":2571198.0824799999,"ADDRESS":"林鳳營２４２之１號","OBJECTID":653994},"geometry":{"x":180393.39168200083,"y":2571198.0824790001}},{"attributes":{"ID":654022,"DIS_CODE":0,"TOWNNAME":"玉井區","LI":"望明里","LIN":"9鄰","STREET":" ","SECT":" ","MAREA":"劉陳","LANE":" ","ALLEY":" ","HOUSE_NO":"３８號","E_COORD97":193439.110361,"N_COORD97":2556048.6917500002,"ADDRESS":"劉陳３８號","OBJECTID":653995},"geometry":{"x":193439.11036099959,"y":2556048.6917450018}},{"attributes":{"ID":654023,"DIS_CODE":0,"TOWNNAME":"六甲區","LI":"中社里","LIN":"20鄰","STREET":" ","SECT":" ","MAREA":"林鳳營","LANE":" ","ALLEY":" ","HOUSE_NO":"２４０之３號","E_COORD97":180045.73608500001,"N_COORD97":2571052.5525400001,"ADDRESS":"林鳳營２４０之３號","OBJECTID":653996},"geometry":{"x":180045.73608500045,"y":2571052.5525430012}},{"attributes":{"ID":654024,"DIS_CODE":0,"TOWNNAME":"六甲區","LI":"中社里","LIN":"20鄰","STREET":" ","SECT":" ","MAREA":"林鳳營","LANE":" ","ALLEY":" ","HOUSE_NO":"２４０之５號","E_COORD97":180036.84209600001,"N_COORD97":2571053.6108800001,"ADDRESS":"林鳳營２４０之５號","OBJECTID":653997},"geometry":{"x":180036.84209599905,"y":2571053.6108759996}},{"attributes":{"ID":654025,"DIS_CODE":0,"TOWNNAME":"玉井區","LI":"望明里","LIN":"10鄰","STREET":" ","SECT":" ","MAREA":"望明","LANE":" ","ALLEY":" ","HOUSE_NO":"１００之３號","E_COORD97":193012.046925,"N_COORD97":2555272.7221599999,"ADDRESS":"望明１００之３號","OBJECTID":653998},"geometry":{"x":193012.04692499992,"y":2555272.7221639995}},{"attributes":{"ID":654026,"DIS_CODE":0,"TOWNNAME":"六甲區","LI":"甲東里","LIN":"21鄰","STREET":"裕農街","SECT":" ","MAREA":" ","LANE":"４９巷","ALLEY":"１４弄","HOUSE_NO":"７號","E_COORD97":184179.81838099999,"N_COORD97":2569820.4480599998,"ADDRESS":"裕農街４９巷１４弄７號","OBJECTID":653999},"geometry":{"x":184179.81838100124,"y":2569820.4480549991}},{"attributes":{"ID":654027,"DIS_CODE":0,"TOWNNAME":"玉井區","LI":"望明里","LIN":"10鄰","STREET":" ","SECT":" ","MAREA":"望明","LANE":" ","ALLEY":" ","HOUSE_NO":"１１０之３號","E_COORD97":193009.081206,"N_COORD97":2555324.1571399998,"ADDRESS":"望明１１０之３號","OBJECTID":654000},"geometry":{"x":193009.08120599948,"y":2555324.1571360007}}]}