{"displayFieldName":"TOWNNAME","fieldAliases":{"ID":"ID","DIS_CODE":"DIS_CODE","TOWNNAME":"TOWNNAME","LI":"LI","LIN":"LIN","STREET":"STREET","SECT":"SECT","MAREA":"MAREA","LANE":"LANE","ALLEY":"ALLEY","HOUSE_NO":"HOUSE_NO","E_COORD97":"E_COORD97","N_COORD97":"N_COORD97","ADDRESS":"ADDRESS","OBJECTID":"OBJECTID"},"geometryType":"esriGeometryPoint","spatialReference":{"wkid":102443,"latestWkid":3826},"fields":[{"name":"ID","type":"esriFieldTypeDouble","alias":"ID"},{"name":"DIS_CODE","type":"esriFieldTypeInteger","alias":"DIS_CODE"},{"name":"TOWNNAME","type":"esriFieldTypeString","alias":"TOWNNAME","length":8},{"name":"LI","type":"esriFieldTypeString","alias":"LI","length":8},{"name":"LIN","type":"esriFieldTypeString","alias":"LIN","length":12},{"name":"STREET","type":"esriFieldTypeString","alias":"STREET","length":20},{"name":"SECT","type":"esriFieldTypeString","alias":"SECT","length":8},{"name":"MAREA","type":"esriFieldTypeString","alias":"MAREA","length":12},{"name":"LANE","type":"esriFieldTypeString","alias":"LANE","length":10},{"name":"ALLEY","type":"esriFieldTypeString","alias":"ALLEY","length":10},{"name":"HOUSE_NO","type":"esriFieldTypeString","alias":"HOUSE_NO","length":20},{"name":"E_COORD97","type":"esriFieldTypeDouble","alias":"E_COORD97"},{"name":"N_COORD97","type":"esriFieldTypeDouble","alias":"N_COORD97"},{"name":"ADDRESS","type":"esriFieldTypeString","alias":"ADDRESS","length":50},{"name":"OBJECTID","type":"esriFieldTypeOID","alias":"OBJECTID"}],"features":[{"attributes":{"ID":299609,"DIS_CODE":0,"TOWNNAME":"永康區","LI":"復國里","LIN":"8鄰","STREET":"復國二路","SECT":" ","MAREA":" ","LANE":"６３巷","ALLEY":" ","HOUSE_NO":"２號","E_COORD97":172819.48000000001,"N_COORD97":2545143.77,"ADDRESS":"復國二路６３巷２號","OBJECTID":299601},"geometry":{"x":172819.48000000045,"y":2545143.7699999996}},{"attributes":{"ID":299610,"DIS_CODE":0,"TOWNNAME":"永康區","LI":"復國里","LIN":"8鄰","STREET":"復國二路","SECT":" ","MAREA":" ","LANE":"６５巷","ALLEY":" ","HOUSE_NO":"１４號","E_COORD97":172792.04000000001,"N_COORD97":2545177.6400000001,"ADDRESS":"復國二路６５巷１４號","OBJECTID":299602},"geometry":{"x":172792.04000000097,"y":2545177.6400000025}},{"attributes":{"ID":299611,"DIS_CODE":0,"TOWNNAME":"永康區","LI":"復國里","LIN":"8鄰","STREET":"復國二路","SECT":" ","MAREA":" ","LANE":"６３巷","ALLEY":" ","HOUSE_NO":"１２號","E_COORD97":172787.78,"N_COORD97":2545145.5499999998,"ADDRESS":"復國二路６３巷１２號","OBJECTID":299603},"geometry":{"x":172787.78000000119,"y":2545145.5500000007}},{"attributes":{"ID":299612,"DIS_CODE":0,"TOWNNAME":"永康區","LI":"復國里","LIN":"8鄰","STREET":"復國二路","SECT":" ","MAREA":" ","LANE":"６５巷","ALLEY":" ","HOUSE_NO":"１３號","E_COORD97":172791.54000000001,"N_COORD97":2545164.7799999998,"ADDRESS":"復國二路６５巷１３號","OBJECTID":299604},"geometry":{"x":172791.54000000004,"y":2545164.7800000012}},{"attributes":{"ID":299613,"DIS_CODE":0,"TOWNNAME":"永康區","LI":"復國里","LIN":"8鄰","STREET":"復國二路","SECT":" ","MAREA":" ","LANE":"６５巷","ALLEY":" ","HOUSE_NO":"３號","E_COORD97":172818.79000000001,"N_COORD97":2545163.0299999998,"ADDRESS":"復國二路６５巷３號","OBJECTID":299605},"geometry":{"x":172818.78999999911,"y":2545163.0300000012}},{"attributes":{"ID":299614,"DIS_CODE":0,"TOWNNAME":"永康區","LI":"復國里","LIN":"8鄰","STREET":"復國二路","SECT":" ","MAREA":" ","LANE":"６３巷","ALLEY":" ","HOUSE_NO":"１８號","E_COORD97":172770.63,"N_COORD97":2545146.7999999998,"ADDRESS":"復國二路６３巷１８號","OBJECTID":299606},"geometry":{"x":172770.63000000175,"y":2545146.8000000026}},{"attributes":{"ID":299615,"DIS_CODE":0,"TOWNNAME":"永康區","LI":"復國里","LIN":"8鄰","STREET":"復國二路","SECT":" ","MAREA":" ","LANE":"６５巷","ALLEY":" ","HOUSE_NO":"２２號","E_COORD97":172768.89999999999,"N_COORD97":2545179.6400000001,"ADDRESS":"復國二路６５巷２２號","OBJECTID":299607},"geometry":{"x":172768.90000000037,"y":2545179.6400000006}},{"attributes":{"ID":299616,"DIS_CODE":0,"TOWNNAME":"永康區","LI":"復國里","LIN":"8鄰","STREET":"復國二路","SECT":" ","MAREA":" ","LANE":"６５巷","ALLEY":" ","HOUSE_NO":"１５號","E_COORD97":172787,"N_COORD97":2545164.5299999998,"ADDRESS":"復國二路６５巷１５號","OBJECTID":299608},"geometry":{"x":172787.00000000186,"y":2545164.5299999993}},{"attributes":{"ID":299617,"DIS_CODE":0,"TOWNNAME":"永康區","LI":"復國里","LIN":"8鄰","STREET":"復國二路","SECT":" ","MAREA":" ","LANE":"６５巷","ALLEY":" ","HOUSE_NO":"９號","E_COORD97":172800.54000000001,"N_COORD97":2545164.2799999998,"ADDRESS":"復國二路６５巷９號","OBJECTID":299609},"geometry":{"x":172800.54000000097,"y":2545164.2800000031}},{"attributes":{"ID":299618,"DIS_CODE":0,"TOWNNAME":"東區","LI":"東光里","LIN":"14鄰","STREET":"東光路","SECT":"一段","MAREA":" ","LANE":" ","ALLEY":" ","HOUSE_NO":"１４６號","E_COORD97":171211.92999999999,"N_COORD97":2543935.0299999998,"ADDRESS":"東光路一段１４６號","OBJECTID":299610},"geometry":{"x":171211.9299999997,"y":2543935.0299999975}},{"attributes":{"ID":299619,"DIS_CODE":0,"TOWNNAME":"永康區","LI":"復國里","LIN":"8鄰","STREET":"復國二路","SECT":" ","MAREA":" ","LANE":"６１巷","ALLEY":" ","HOUSE_NO":"２９號","E_COORD97":172756.60000000001,"N_COORD97":2545116.8300000001,"ADDRESS":"復國二路６１巷２９號","OBJECTID":299611},"geometry":{"x":172756.59999999963,"y":2545116.8300000001}},{"attributes":{"ID":299620,"DIS_CODE":0,"TOWNNAME":"永康區","LI":"復國里","LIN":"8鄰","STREET":"復國二路","SECT":" ","MAREA":" ","LANE":"６５巷","ALLEY":" ","HOUSE_NO":"２１號","E_COORD97":172769.09,"N_COORD97":2545166.0299999998,"ADDRESS":"復國二路６５巷２１號","OBJECTID":299612},"geometry":{"x":172769.08999999892,"y":2545166.0300000031}},{"attributes":{"ID":299621,"DIS_CODE":0,"TOWNNAME":"永康區","LI":"復國里","LIN":"8鄰","STREET":"復國二路","SECT":" ","MAREA":" ","LANE":"６５巷","ALLEY":" ","HOUSE_NO":"１１號","E_COORD97":172796.89999999999,"N_COORD97":2545164.5299999998,"ADDRESS":"復國二路６５巷１１號","OBJECTID":299613},"geometry":{"x":172796.9000000013,"y":2545164.5299999993}},{"attributes":{"ID":299622,"DIS_CODE":0,"TOWNNAME":"永康區","LI":"復國里","LIN":"8鄰","STREET":"復國二路","SECT":" ","MAREA":" ","LANE":"６５巷","ALLEY":" ","HOUSE_NO":"８號","E_COORD97":172806.19,"N_COORD97":2545177.1400000001,"ADDRESS":"復國二路６５巷８號","OBJECTID":299614},"geometry":{"x":172806.19000000041,"y":2545177.1400000025}},{"attributes":{"ID":299623,"DIS_CODE":0,"TOWNNAME":"永康區","LI":"復國里","LIN":"8鄰","STREET":"復國二路","SECT":" ","MAREA":" ","LANE":"６１巷","ALLEY":" ","HOUSE_NO":"３３號","E_COORD97":172760.29999999999,"N_COORD97":2545128.52,"ADDRESS":"復國二路６１巷３３號","OBJECTID":299615},"geometry":{"x":172760.29999999981,"y":2545128.5199999996}},{"attributes":{"ID":299624,"DIS_CODE":0,"TOWNNAME":"永康區","LI":"復國里","LIN":"8鄰","STREET":"復國二路","SECT":" ","MAREA":" ","LANE":"６５巷","ALLEY":" ","HOUSE_NO":"１２號","E_COORD97":172796.64000000001,"N_COORD97":2545177.3900000001,"ADDRESS":"復國二路６５巷１２號","OBJECTID":299616},"geometry":{"x":172796.63999999966,"y":2545177.3900000006}},{"attributes":{"ID":299625,"DIS_CODE":0,"TOWNNAME":"永康區","LI":"復國里","LIN":"8鄰","STREET":"復國二路","SECT":" ","MAREA":" ","LANE":"６５巷","ALLEY":" ","HOUSE_NO":"２０號","E_COORD97":172774.38,"N_COORD97":2545179.3900000001,"ADDRESS":"復國二路６５巷２０號","OBJECTID":299617},"geometry":{"x":172774.38000000082,"y":2545179.3900000025}},{"attributes":{"ID":299626,"DIS_CODE":0,"TOWNNAME":"永康區","LI":"復國里","LIN":"8鄰","STREET":"復國二路","SECT":" ","MAREA":" ","LANE":"６５巷","ALLEY":" ","HOUSE_NO":"１號","E_COORD97":172822.75,"N_COORD97":2545163.2799999998,"ADDRESS":"復國二路６５巷１號","OBJECTID":299618},"geometry":{"x":172822.75000000093,"y":2545163.2799999993}},{"attributes":{"ID":299627,"DIS_CODE":0,"TOWNNAME":"東區","LI":"德高里","LIN":"8鄰","STREET":"仁和路","SECT":" ","MAREA":" ","LANE":"２０８巷","ALLEY":" ","HOUSE_NO":"３２號","E_COORD97":171470.04999999999,"N_COORD97":2540958.8900000001,"ADDRESS":"仁和路２０８巷３２號","OBJECTID":299619},"geometry":{"x":171470.05000000075,"y":2540958.8900000025}},{"attributes":{"ID":299628,"DIS_CODE":0,"TOWNNAME":"東區","LI":"德高里","LIN":"8鄰","STREET":"仁和路","SECT":" ","MAREA":" ","LANE":"２０８巷","ALLEY":" ","HOUSE_NO":"３４號","E_COORD97":171464.54000000001,"N_COORD97":2540950.48,"ADDRESS":"仁和路２０８巷３４號","OBJECTID":299620},"geometry":{"x":171464.5400000019,"y":2540950.4800000023}},{"attributes":{"ID":299629,"DIS_CODE":0,"TOWNNAME":"東區","LI":"德高里","LIN":"8鄰","STREET":"仁和路","SECT":" ","MAREA":" ","LANE":"１７８巷","ALLEY":" ","HOUSE_NO":"９號","E_COORD97":171455.53,"N_COORD97":2541050.5499999998,"ADDRESS":"仁和路１７８巷９號","OBJECTID":299621},"geometry":{"x":171455.53000000026,"y":2541050.5500000007}},{"attributes":{"ID":299630,"DIS_CODE":0,"TOWNNAME":"東區","LI":"德高里","LIN":"8鄰","STREET":"仁和路","SECT":" ","MAREA":" ","LANE":"１７８巷","ALLEY":" ","HOUSE_NO":"１３號","E_COORD97":171444.16,"N_COORD97":2541042.9300000002,"ADDRESS":"仁和路１７８巷１３號","OBJECTID":299622},"geometry":{"x":171444.16000000108,"y":2541042.9299999997}},{"attributes":{"ID":299631,"DIS_CODE":0,"TOWNNAME":"東區","LI":"德高里","LIN":"8鄰","STREET":"崇善東路","SECT":" ","MAREA":" ","LANE":"１００巷","ALLEY":" ","HOUSE_NO":"１３號","E_COORD97":171452.79999999999,"N_COORD97":2540993.5800000001,"ADDRESS":"崇善東路１００巷１３號","OBJECTID":299623},"geometry":{"x":171452.80000000075,"y":2540993.5800000019}},{"attributes":{"ID":299632,"DIS_CODE":0,"TOWNNAME":"東區","LI":"德高里","LIN":"8鄰","STREET":"崇善東路","SECT":" ","MAREA":" ","LANE":"１００巷","ALLEY":" ","HOUSE_NO":"１號","E_COORD97":171430.59,"N_COORD97":2541037.8999999999,"ADDRESS":"崇善東路１００巷１號","OBJECTID":299624},"geometry":{"x":171430.59000000078,"y":2541037.9000000004}},{"attributes":{"ID":299633,"DIS_CODE":0,"TOWNNAME":"東區","LI":"德高里","LIN":"8鄰","STREET":"崇善東路","SECT":" ","MAREA":" ","LANE":"１００巷","ALLEY":" ","HOUSE_NO":"３號","E_COORD97":171433.69,"N_COORD97":2541035.1899999999,"ADDRESS":"崇善東路１００巷３號","OBJECTID":299625},"geometry":{"x":171433.69000000134,"y":2541035.1899999995}},{"attributes":{"ID":299634,"DIS_CODE":0,"TOWNNAME":"新營區","LI":"大宏里","LIN":"3鄰","STREET":"綠川北街","SECT":" ","MAREA":" ","LANE":" ","ALLEY":" ","HOUSE_NO":"１１０號","E_COORD97":180330.43184,"N_COORD97":2578703.78051,"ADDRESS":"綠川北街１１０號","OBJECTID":299626},"geometry":{"x":180330.43184000161,"y":2578703.7805120014}},{"attributes":{"ID":299635,"DIS_CODE":0,"TOWNNAME":"東區","LI":"德高里","LIN":"8鄰","STREET":"崇善東路","SECT":" ","MAREA":" ","LANE":"１００巷","ALLEY":" ","HOUSE_NO":"５號","E_COORD97":171435.89000000001,"N_COORD97":2541031.5699999998,"ADDRESS":"崇善東路１００巷５號","OBJECTID":299627},"geometry":{"x":171435.88999999966,"y":2541031.5700000022}},{"attributes":{"ID":299636,"DIS_CODE":0,"TOWNNAME":"東區","LI":"德高里","LIN":"8鄰","STREET":"崇善東路","SECT":" ","MAREA":" ","LANE":"１００巷","ALLEY":" ","HOUSE_NO":"１５號","E_COORD97":171465.23999999999,"N_COORD97":2540977.46,"ADDRESS":"崇善東路１００巷１５號","OBJECTID":299628},"geometry":{"x":171465.24000000115,"y":2540977.4600000046}},{"attributes":{"ID":299637,"DIS_CODE":0,"TOWNNAME":"東區","LI":"德高里","LIN":"8鄰","STREET":"崇善東路","SECT":" ","MAREA":" ","LANE":"１００巷","ALLEY":" ","HOUSE_NO":"７號","E_COORD97":171454.14999999999,"N_COORD97":2541022.04,"ADDRESS":"崇善東路１００巷７號","OBJECTID":299629},"geometry":{"x":171454.1500000013,"y":2541022.0399999991}},{"attributes":{"ID":299638,"DIS_CODE":0,"TOWNNAME":"東區","LI":"德高里","LIN":"8鄰","STREET":"崇善東路","SECT":" ","MAREA":" ","LANE":"１００巷","ALLEY":" ","HOUSE_NO":"９號","E_COORD97":171472.85000000001,"N_COORD97":2541010.3999999999,"ADDRESS":"崇善東路１００巷９號","OBJECTID":299630},"geometry":{"x":171472.85000000056,"y":2541010.4000000004}},{"attributes":{"ID":299639,"DIS_CODE":0,"TOWNNAME":"東區","LI":"德高里","LIN":"8鄰","STREET":"崇善東路","SECT":" ","MAREA":" ","LANE":"１００巷","ALLEY":" ","HOUSE_NO":"１１號","E_COORD97":171458.57000000001,"N_COORD97":2541024.71,"ADDRESS":"崇善東路１００巷１１號","OBJECTID":299631},"geometry":{"x":171458.57000000123,"y":2541024.7100000028}},{"attributes":{"ID":299640,"DIS_CODE":0,"TOWNNAME":"仁德區","LI":"上崙里","LIN":"1鄰","STREET":"德崙路","SECT":" ","MAREA":" ","LANE":"７７巷","ALLEY":" ","HOUSE_NO":"８６號三樓之４","E_COORD97":173571.47855999999,"N_COORD97":2538453.5479799998,"ADDRESS":"德崙路７７巷８６號三樓之４","OBJECTID":299632},"geometry":{"x":173571.47856000066,"y":2538453.5479799975}},{"attributes":{"ID":299641,"DIS_CODE":0,"TOWNNAME":"仁德區","LI":"太子里","LIN":"46鄰","STREET":"太子一街","SECT":" ","MAREA":" ","LANE":"４３巷","ALLEY":" ","HOUSE_NO":"４０號","E_COORD97":174851.64999999999,"N_COORD97":2543280.25,"ADDRESS":"太子一街４３巷４０號","OBJECTID":299633},"geometry":{"x":174851.6500000013,"y":2543280.2500000037}},{"attributes":{"ID":299642,"DIS_CODE":0,"TOWNNAME":"中西區","LI":"公正里","LIN":"8鄰","STREET":"西華南街","SECT":" ","MAREA":" ","LANE":"３６巷","ALLEY":" ","HOUSE_NO":"３號","E_COORD97":168981.56,"N_COORD97":2543828.3500000001,"ADDRESS":"西華南街３６巷３號","OBJECTID":299634},"geometry":{"x":168981.55999999959,"y":2543828.3500000034}},{"attributes":{"ID":299643,"DIS_CODE":0,"TOWNNAME":"東區","LI":"裕聖里","LIN":"14鄰","STREET":"裕信三街","SECT":" ","MAREA":" ","LANE":" ","ALLEY":" ","HOUSE_NO":"１２８號","E_COORD97":172820.01999999999,"N_COORD97":2542370.2799999998,"ADDRESS":"裕信三街１２８號","OBJECTID":299635},"geometry":{"x":172820.01999999955,"y":2542370.2799999975}},{"attributes":{"ID":299644,"DIS_CODE":0,"TOWNNAME":"仁德區","LI":"保安里","LIN":"20鄰","STREET":"保安路","SECT":"一段","MAREA":" ","LANE":"１０５巷","ALLEY":" ","HOUSE_NO":"１８號","E_COORD97":171067.81,"N_COORD97":2536884.5699999998,"ADDRESS":"保安路一段１０５巷１８號","OBJECTID":299636},"geometry":{"x":171067.81000000052,"y":2536884.5700000022}},{"attributes":{"ID":299645,"DIS_CODE":0,"TOWNNAME":"中西區","LI":"福安里","LIN":"8鄰","STREET":"府前路","SECT":"一段","MAREA":" ","LANE":"３４２巷","ALLEY":" ","HOUSE_NO":"３號","E_COORD97":167806.47,"N_COORD97":2543484.3900000001,"ADDRESS":"府前路一段３４２巷３號","OBJECTID":299637},"geometry":{"x":167806.4700000016,"y":2543484.3900000025}},{"attributes":{"ID":299646,"DIS_CODE":0,"TOWNNAME":"東區","LI":"關聖里","LIN":"14鄰","STREET":"裕英街","SECT":" ","MAREA":" ","LANE":" ","ALLEY":" ","HOUSE_NO":"５８號","E_COORD97":172161.20999999999,"N_COORD97":2543003.4300000002,"ADDRESS":"裕英街５８號","OBJECTID":299638},"geometry":{"x":172161.20999999996,"y":2543003.4299999997}},{"attributes":{"ID":299647,"DIS_CODE":0,"TOWNNAME":"仁德區","LI":"仁德里","LIN":"5鄰","STREET":"仁德四街","SECT":" ","MAREA":" ","LANE":"７巷","ALLEY":" ","HOUSE_NO":"１１號","E_COORD97":173354.82999999999,"N_COORD97":2540795.7599999998,"ADDRESS":"仁德四街７巷１１號","OBJECTID":299639},"geometry":{"x":173354.83000000101,"y":2540795.7600000016}},{"attributes":{"ID":299648,"DIS_CODE":0,"TOWNNAME":"東區","LI":"南聖里","LIN":"14鄰","STREET":"裕農路","SECT":" ","MAREA":" ","LANE":" ","ALLEY":" ","HOUSE_NO":"９６８號","E_COORD97":172617.76999999999,"N_COORD97":2543370.2999999998,"ADDRESS":"裕農路９６８號","OBJECTID":299640},"geometry":{"x":172617.76999999955,"y":2543370.3000000026}},{"attributes":{"ID":299649,"DIS_CODE":0,"TOWNNAME":"中西區","LI":"福安里","LIN":"8鄰","STREET":"府前路","SECT":"一段","MAREA":" ","LANE":"３４２巷","ALLEY":" ","HOUSE_NO":"５號","E_COORD97":167807.89999999999,"N_COORD97":2543488.3300000001,"ADDRESS":"府前路一段３４２巷５號","OBJECTID":299641},"geometry":{"x":167807.9000000013,"y":2543488.3300000001}},{"attributes":{"ID":299650,"DIS_CODE":0,"TOWNNAME":"中西區","LI":"福安里","LIN":"8鄰","STREET":"府前路","SECT":"一段","MAREA":" ","LANE":"３４２巷","ALLEY":" ","HOUSE_NO":"７號","E_COORD97":167809.51999999999,"N_COORD97":2543491.9100000001,"ADDRESS":"府前路一段３４２巷７號","OBJECTID":299642},"geometry":{"x":167809.52000000048,"y":2543491.9100000001}},{"attributes":{"ID":299651,"DIS_CODE":0,"TOWNNAME":"中西區","LI":"福安里","LIN":"8鄰","STREET":"府前路","SECT":"一段","MAREA":" ","LANE":"３４２巷","ALLEY":" ","HOUSE_NO":"９號","E_COORD97":167811.09,"N_COORD97":2543495.73,"ADDRESS":"府前路一段３４２巷９號","OBJECTID":299643},"geometry":{"x":167811.09000000078,"y":2543495.7300000023}},{"attributes":{"ID":299652,"DIS_CODE":0,"TOWNNAME":"安南區","LI":"海東里","LIN":"8鄰","STREET":"海佃路","SECT":"二段","MAREA":" ","LANE":"４８３巷","ALLEY":" ","HOUSE_NO":"４６號","E_COORD97":166560.17000000001,"N_COORD97":2549122.3599999999,"ADDRESS":"海佃路二段４８３巷４６號","OBJECTID":299644},"geometry":{"x":166560.16999999993,"y":2549122.3599999994}},{"attributes":{"ID":299653,"DIS_CODE":0,"TOWNNAME":"安南區","LI":"國安里","LIN":"8鄰","STREET":"國安街","SECT":" ","MAREA":" ","LANE":"２１０巷","ALLEY":" ","HOUSE_NO":"２０９號","E_COORD97":166499.13,"N_COORD97":2547479.6400000001,"ADDRESS":"國安街２１０巷２０９號","OBJECTID":299645},"geometry":{"x":166499.13000000082,"y":2547479.6400000025}},{"attributes":{"ID":299654,"DIS_CODE":0,"TOWNNAME":"安南區","LI":"國安里","LIN":"8鄰","STREET":"國安街","SECT":" ","MAREA":" ","LANE":"２１０巷","ALLEY":" ","HOUSE_NO":"１９５號","E_COORD97":166504.06,"N_COORD97":2547451.7799999998,"ADDRESS":"國安街２１０巷１９５號","OBJECTID":299646},"geometry":{"x":166504.06000000052,"y":2547451.7799999993}},{"attributes":{"ID":299655,"DIS_CODE":0,"TOWNNAME":"安南區","LI":"國安里","LIN":"8鄰","STREET":"國安街","SECT":" ","MAREA":" ","LANE":"２１０巷","ALLEY":" ","HOUSE_NO":"２０２號","E_COORD97":166519.32999999999,"N_COORD97":2547482.9700000002,"ADDRESS":"國安街２１０巷２０２號","OBJECTID":299647},"geometry":{"x":166519.33000000194,"y":2547482.9700000007}},{"attributes":{"ID":299656,"DIS_CODE":0,"TOWNNAME":"安南區","LI":"國安里","LIN":"8鄰","STREET":"國安街","SECT":" ","MAREA":" ","LANE":"２１０巷","ALLEY":" ","HOUSE_NO":"２０３號","E_COORD97":166501.85999999999,"N_COORD97":2547467.48,"ADDRESS":"國安街２１０巷２０３號","OBJECTID":299648},"geometry":{"x":166501.86000000034,"y":2547467.4800000023}},{"attributes":{"ID":299657,"DIS_CODE":0,"TOWNNAME":"安南區","LI":"國安里","LIN":"8鄰","STREET":"國安街","SECT":" ","MAREA":" ","LANE":"２１０巷","ALLEY":" ","HOUSE_NO":"２０５號","E_COORD97":166500.64999999999,"N_COORD97":2547471.3300000001,"ADDRESS":"國安街２１０巷２０５號","OBJECTID":299649},"geometry":{"x":166500.65000000224,"y":2547471.3300000019}},{"attributes":{"ID":299658,"DIS_CODE":0,"TOWNNAME":"安南區","LI":"國安里","LIN":"8鄰","STREET":"國安街","SECT":" ","MAREA":" ","LANE":"２１０巷","ALLEY":" ","HOUSE_NO":"２１０號","E_COORD97":166518.06,"N_COORD97":2547498.6000000001,"ADDRESS":"國安街２１０巷２１０號","OBJECTID":299650},"geometry":{"x":166518.06000000052,"y":2547498.6000000015}},{"attributes":{"ID":299659,"DIS_CODE":0,"TOWNNAME":"安南區","LI":"淵西里","LIN":"8鄰","STREET":"安中路","SECT":"四段","MAREA":" ","LANE":"２９０巷","ALLEY":" ","HOUSE_NO":"９１號","E_COORD97":164735.51999999999,"N_COORD97":2550268.3900000001,"ADDRESS":"安中路四段２９０巷９１號","OBJECTID":299651},"geometry":{"x":164735.51999999955,"y":2550268.3900000025}},{"attributes":{"ID":299660,"DIS_CODE":0,"TOWNNAME":"安南區","LI":"淵西里","LIN":"8鄰","STREET":"安中路","SECT":"四段","MAREA":" ","LANE":"２９０巷","ALLEY":" ","HOUSE_NO":"９７號","E_COORD97":164744.39000000001,"N_COORD97":2550276.7799999998,"ADDRESS":"安中路四段２９０巷９７號","OBJECTID":299652},"geometry":{"x":164744.3900000006,"y":2550276.7800000031}},{"attributes":{"ID":299661,"DIS_CODE":0,"TOWNNAME":"安南區","LI":"淵西里","LIN":"8鄰","STREET":"安中路","SECT":"四段","MAREA":" ","LANE":"２９０巷","ALLEY":" ","HOUSE_NO":"９９號","E_COORD97":164748.48000000001,"N_COORD97":2550277.9199999999,"ADDRESS":"安中路四段２９０巷９９號","OBJECTID":299653},"geometry":{"x":164748.48000000045,"y":2550277.9200000018}},{"attributes":{"ID":299662,"DIS_CODE":0,"TOWNNAME":"安南區","LI":"淵西里","LIN":"8鄰","STREET":"安中路","SECT":"四段","MAREA":" ","LANE":"２９０巷","ALLEY":" ","HOUSE_NO":"１０１號","E_COORD97":164752.34,"N_COORD97":2550278.8300000001,"ADDRESS":"安中路四段２９０巷１０１號","OBJECTID":299654},"geometry":{"x":164752.33999999985,"y":2550278.8300000019}},{"attributes":{"ID":299663,"DIS_CODE":0,"TOWNNAME":"安南區","LI":"淵中里","LIN":"8鄰","STREET":"安中路","SECT":"四段","MAREA":" ","LANE":"２９０巷","ALLEY":" ","HOUSE_NO":"２９４號","E_COORD97":164517.60999999999,"N_COORD97":2550227.3999999999,"ADDRESS":"安中路四段２９０巷２９４號","OBJECTID":299655},"geometry":{"x":164517.61000000127,"y":2550227.4000000022}},{"attributes":{"ID":299664,"DIS_CODE":0,"TOWNNAME":"安南區","LI":"新順里","LIN":"8鄰","STREET":"總安街","SECT":"一段","MAREA":" ","LANE":"３４２巷","ALLEY":" ","HOUSE_NO":"１０號","E_COORD97":169256.14999999999,"N_COORD97":2550386.1699999999,"ADDRESS":"總安街一段３４２巷１０號","OBJECTID":299656},"geometry":{"x":169256.15000000037,"y":2550386.1699999999}},{"attributes":{"ID":299665,"DIS_CODE":0,"TOWNNAME":"安南區","LI":"新順里","LIN":"8鄰","STREET":"總安街","SECT":"一段","MAREA":" ","LANE":"３４２巷","ALLEY":" ","HOUSE_NO":"１２號","E_COORD97":169256.14999999999,"N_COORD97":2550390.4100000001,"ADDRESS":"總安街一段３４２巷１２號","OBJECTID":299657},"geometry":{"x":169256.15000000037,"y":2550390.410000002}},{"attributes":{"ID":299666,"DIS_CODE":0,"TOWNNAME":"安南區","LI":"新順里","LIN":"8鄰","STREET":"總安街","SECT":"一段","MAREA":" ","LANE":"３４２巷","ALLEY":" ","HOUSE_NO":"１４號","E_COORD97":169257.16,"N_COORD97":2550395.8199999998,"ADDRESS":"總安街一段３４２巷１４號","OBJECTID":299658},"geometry":{"x":169257.16000000108,"y":2550395.8200000003}},{"attributes":{"ID":299667,"DIS_CODE":0,"TOWNNAME":"安南區","LI":"新順里","LIN":"8鄰","STREET":"總安街","SECT":"一段","MAREA":" ","LANE":"３４２巷","ALLEY":" ","HOUSE_NO":"１６號","E_COORD97":169257.35999999999,"N_COORD97":2550400.6699999999,"ADDRESS":"總安街一段３４２巷１６號","OBJECTID":299659},"geometry":{"x":169257.36000000127,"y":2550400.6700000018}},{"attributes":{"ID":299668,"DIS_CODE":0,"TOWNNAME":"安南區","LI":"新順里","LIN":"8鄰","STREET":"總安街","SECT":"一段","MAREA":" ","LANE":"３４２巷","ALLEY":" ","HOUSE_NO":"１８號","E_COORD97":169256.76999999999,"N_COORD97":2550405.9100000001,"ADDRESS":"總安街一段３４２巷１８號","OBJECTID":299660},"geometry":{"x":169256.76999999955,"y":2550405.9100000039}},{"attributes":{"ID":299669,"DIS_CODE":0,"TOWNNAME":"安南區","LI":"新順里","LIN":"8鄰","STREET":"總安街","SECT":"一段","MAREA":" ","LANE":"３４２巷","ALLEY":" ","HOUSE_NO":"２０號","E_COORD97":169257.73999999999,"N_COORD97":2550410.5699999998,"ADDRESS":"總安街一段３４２巷２０號","OBJECTID":299661},"geometry":{"x":169257.73999999929,"y":2550410.5700000003}},{"attributes":{"ID":299670,"DIS_CODE":0,"TOWNNAME":"安南區","LI":"新順里","LIN":"8鄰","STREET":"總安街","SECT":"一段","MAREA":" ","LANE":"３４２巷","ALLEY":" ","HOUSE_NO":"２２號","E_COORD97":169257.94,"N_COORD97":2550414.8399999999,"ADDRESS":"總安街一段３４２巷２２號","OBJECTID":299662},"geometry":{"x":169257.94000000041,"y":2550414.8399999999}},{"attributes":{"ID":299671,"DIS_CODE":0,"TOWNNAME":"安南區","LI":"新順里","LIN":"8鄰","STREET":"總安街","SECT":"一段","MAREA":" ","LANE":"３４２巷","ALLEY":" ","HOUSE_NO":"２４號","E_COORD97":169257.73999999999,"N_COORD97":2550419.5,"ADDRESS":"總安街一段３４２巷２４號","OBJECTID":299663},"geometry":{"x":169257.73999999929,"y":2550419.5000000019}},{"attributes":{"ID":299672,"DIS_CODE":0,"TOWNNAME":"安南區","LI":"新順里","LIN":"8鄰","STREET":"總安街","SECT":"一段","MAREA":" ","LANE":"３４２巷","ALLEY":" ","HOUSE_NO":"２６號","E_COORD97":169257.35999999999,"N_COORD97":2550423.77,"ADDRESS":"總安街一段３４２巷２６號","OBJECTID":299664},"geometry":{"x":169257.36000000127,"y":2550423.7700000014}},{"attributes":{"ID":299673,"DIS_CODE":0,"TOWNNAME":"安南區","LI":"新順里","LIN":"8鄰","STREET":"總安街","SECT":"一段","MAREA":" ","LANE":"３４２巷","ALLEY":" ","HOUSE_NO":"２８號","E_COORD97":169258.91,"N_COORD97":2550428.23,"ADDRESS":"總安街一段３４２巷２８號","OBJECTID":299665},"geometry":{"x":169258.91000000108,"y":2550428.2300000023}},{"attributes":{"ID":299674,"DIS_CODE":0,"TOWNNAME":"安南區","LI":"新順里","LIN":"8鄰","STREET":"總安街","SECT":"一段","MAREA":" ","LANE":"３４２巷","ALLEY":" ","HOUSE_NO":"３０號","E_COORD97":169258.51999999999,"N_COORD97":2550433.4700000002,"ADDRESS":"總安街一段３４２巷３０號","OBJECTID":299666},"geometry":{"x":169258.51999999862,"y":2550433.4700000025}},{"attributes":{"ID":299675,"DIS_CODE":0,"TOWNNAME":"仁德區","LI":"成功里","LIN":"5鄰","STREET":"成功三街","SECT":" ","MAREA":" ","LANE":" ","ALLEY":" ","HOUSE_NO":"７２號","E_COORD97":171167.32000000001,"N_COORD97":2539872.0099999998,"ADDRESS":"成功三街７２號","OBJECTID":299667},"geometry":{"x":171167.3200000003,"y":2539872.0100000016}},{"attributes":{"ID":299676,"DIS_CODE":0,"TOWNNAME":"安南區","LI":"新順里","LIN":"8鄰","STREET":"總安街","SECT":"一段","MAREA":" ","LANE":"３４２巷","ALLEY":" ","HOUSE_NO":"３２號","E_COORD97":169260.07000000001,"N_COORD97":2550438.1299999999,"ADDRESS":"總安街一段３４２巷３２號","OBJECTID":299668},"geometry":{"x":169260.0700000003,"y":2550438.1300000008}},{"attributes":{"ID":299677,"DIS_CODE":0,"TOWNNAME":"安南區","LI":"新順里","LIN":"8鄰","STREET":"總安街","SECT":"一段","MAREA":" ","LANE":"３４２巷","ALLEY":" ","HOUSE_NO":"３４號","E_COORD97":169272.51000000001,"N_COORD97":2550442.0099999998,"ADDRESS":"總安街一段３４２巷３４號","OBJECTID":299669},"geometry":{"x":169272.51000000164,"y":2550442.0100000035}},{"attributes":{"ID":299678,"DIS_CODE":0,"TOWNNAME":"安南區","LI":"新順里","LIN":"8鄰","STREET":"總安街","SECT":"一段","MAREA":" ","LANE":"３４２巷","ALLEY":" ","HOUSE_NO":"３６號","E_COORD97":169278.14000000001,"N_COORD97":2550442.3999999999,"ADDRESS":"總安街一段３４２巷３６號","OBJECTID":299670},"geometry":{"x":169278.13999999873,"y":2550442.4000000004}},{"attributes":{"ID":299679,"DIS_CODE":0,"TOWNNAME":"安南區","LI":"新順里","LIN":"8鄰","STREET":"總安街","SECT":"一段","MAREA":" ","LANE":"３４２巷","ALLEY":" ","HOUSE_NO":"３８號","E_COORD97":169283.19,"N_COORD97":2550442.98,"ADDRESS":"總安街一段３４２巷３８號","OBJECTID":299671},"geometry":{"x":169283.19000000041,"y":2550442.9800000042}},{"attributes":{"ID":299680,"DIS_CODE":0,"TOWNNAME":"安南區","LI":"新順里","LIN":"8鄰","STREET":"總安街","SECT":"一段","MAREA":" ","LANE":"３４２巷","ALLEY":" ","HOUSE_NO":"４０號","E_COORD97":169287.85000000001,"N_COORD97":2550443.3700000001,"ADDRESS":"總安街一段３４２巷４０號","OBJECTID":299672},"geometry":{"x":169287.84999999963,"y":2550443.370000001}},{"attributes":{"ID":299681,"DIS_CODE":0,"TOWNNAME":"安南區","LI":"新順里","LIN":"8鄰","STREET":"總安街","SECT":"一段","MAREA":" ","LANE":"３４２巷","ALLEY":" ","HOUSE_NO":"４２號","E_COORD97":169291.14999999999,"N_COORD97":2550441.4300000002,"ADDRESS":"總安街一段３４２巷４２號","OBJECTID":299673},"geometry":{"x":169291.1500000013,"y":2550441.4299999997}},{"attributes":{"ID":299682,"DIS_CODE":0,"TOWNNAME":"安南區","LI":"新順里","LIN":"8鄰","STREET":"總安街","SECT":"一段","MAREA":" ","LANE":"３４２巷","ALLEY":" ","HOUSE_NO":"４４號","E_COORD97":169296.20000000001,"N_COORD97":2550441.8199999998,"ADDRESS":"總安街一段３４２巷４４號","OBJECTID":299674},"geometry":{"x":169296.20000000112,"y":2550441.8200000022}},{"attributes":{"ID":299683,"DIS_CODE":0,"TOWNNAME":"安南區","LI":"新順里","LIN":"8鄰","STREET":"總安街","SECT":"一段","MAREA":" ","LANE":"３４２巷","ALLEY":" ","HOUSE_NO":"４６號","E_COORD97":169299.31,"N_COORD97":2550443.7599999998,"ADDRESS":"總安街一段３４２巷４６號","OBJECTID":299675},"geometry":{"x":169299.31000000052,"y":2550443.7600000035}},{"attributes":{"ID":299684,"DIS_CODE":0,"TOWNNAME":"安南區","LI":"新順里","LIN":"8鄰","STREET":"總安街","SECT":"一段","MAREA":" ","LANE":"３４２巷","ALLEY":" ","HOUSE_NO":"２１號","E_COORD97":169244.54000000001,"N_COORD97":2550415.4199999999,"ADDRESS":"總安街一段３４２巷２１號","OBJECTID":299676},"geometry":{"x":169244.54000000097,"y":2550415.4199999981}},{"attributes":{"ID":299685,"DIS_CODE":0,"TOWNNAME":"安南區","LI":"新順里","LIN":"8鄰","STREET":"總安街","SECT":"一段","MAREA":" ","LANE":"３４２巷","ALLEY":" ","HOUSE_NO":"２３號","E_COORD97":169244.54000000001,"N_COORD97":2550420.0800000001,"ADDRESS":"總安街一段３４２巷２３號","OBJECTID":299677},"geometry":{"x":169244.54000000097,"y":2550420.0800000001}},{"attributes":{"ID":299686,"DIS_CODE":0,"TOWNNAME":"安南區","LI":"新順里","LIN":"8鄰","STREET":"總安街","SECT":"一段","MAREA":" ","LANE":"３６２巷","ALLEY":" ","HOUSE_NO":"２４號","E_COORD97":169234.26999999999,"N_COORD97":2550456.5499999998,"ADDRESS":"總安街一段３６２巷２４號","OBJECTID":299678},"geometry":{"x":169234.26999999955,"y":2550456.5500000026}},{"attributes":{"ID":299687,"DIS_CODE":0,"TOWNNAME":"安南區","LI":"新順里","LIN":"8鄰","STREET":"總安街","SECT":"一段","MAREA":" ","LANE":"３６２巷","ALLEY":" ","HOUSE_NO":"１２號","E_COORD97":169218.60000000001,"N_COORD97":2550417.79,"ADDRESS":"總安街一段３６２巷１２號","OBJECTID":299679},"geometry":{"x":169218.59999999963,"y":2550417.7899999991}},{"attributes":{"ID":299688,"DIS_CODE":0,"TOWNNAME":"安南區","LI":"新順里","LIN":"8鄰","STREET":"總安街","SECT":"一段","MAREA":" ","LANE":"３６２巷","ALLEY":" ","HOUSE_NO":"１８號","E_COORD97":169216.54000000001,"N_COORD97":2550433.6299999999,"ADDRESS":"總安街一段３６２巷１８號","OBJECTID":299680},"geometry":{"x":169216.53999999911,"y":2550433.6300000027}},{"attributes":{"ID":299689,"DIS_CODE":0,"TOWNNAME":"安南區","LI":"新順里","LIN":"8鄰","STREET":"總安街","SECT":"一段","MAREA":" ","LANE":"３６２巷","ALLEY":" ","HOUSE_NO":"２０號","E_COORD97":169215.79999999999,"N_COORD97":2550438.4700000002,"ADDRESS":"總安街一段３６２巷２０號","OBJECTID":299681},"geometry":{"x":169215.79999999981,"y":2550438.4700000007}},{"attributes":{"ID":299690,"DIS_CODE":0,"TOWNNAME":"安南區","LI":"新順里","LIN":"8鄰","STREET":"總安街","SECT":"一段","MAREA":" ","LANE":"３６２巷","ALLEY":" ","HOUSE_NO":"２２號","E_COORD97":169215.23999999999,"N_COORD97":2550442.2000000002,"ADDRESS":"總安街一段３６２巷２２號","OBJECTID":299682},"geometry":{"x":169215.24000000022,"y":2550442.1999999993}},{"attributes":{"ID":299691,"DIS_CODE":0,"TOWNNAME":"中西區","LI":"民權里","LIN":"1鄰","STREET":"康樂街","SECT":" ","MAREA":" ","LANE":" ","ALLEY":" ","HOUSE_NO":"１６６號","E_COORD97":167524.20999999999,"N_COORD97":2544070.1800000002,"ADDRESS":"康樂街１６６號","OBJECTID":299683},"geometry":{"x":167524.21000000089,"y":2544070.1800000034}},{"attributes":{"ID":299692,"DIS_CODE":0,"TOWNNAME":"仁德區","LI":"成功里","LIN":"36鄰","STREET":"保華路","SECT":" ","MAREA":" ","LANE":"４６巷","ALLEY":" ","HOUSE_NO":"３３號","E_COORD97":170654.67999999999,"N_COORD97":2540073.7400000002,"ADDRESS":"保華路４６巷３３號","OBJECTID":299684},"geometry":{"x":170654.68000000063,"y":2540073.7400000021}},{"attributes":{"ID":299693,"DIS_CODE":0,"TOWNNAME":"下營區","LI":"茅港里","LIN":"4鄰","STREET":" ","SECT":" ","MAREA":"茅港尾","LANE":" ","ALLEY":" ","HOUSE_NO":"５８號","E_COORD97":177478.04000000001,"N_COORD97":2569292.3500000001,"ADDRESS":"茅港尾５８號","OBJECTID":299685},"geometry":{"x":177478.04000000097,"y":2569292.3499999996}},{"attributes":{"ID":299694,"DIS_CODE":0,"TOWNNAME":"下營區","LI":"茅港里","LIN":"4鄰","STREET":" ","SECT":" ","MAREA":"茅港尾","LANE":" ","ALLEY":" ","HOUSE_NO":"５９號之１","E_COORD97":177448.75,"N_COORD97":2569235.73,"ADDRESS":"茅港尾５９號之１","OBJECTID":299686},"geometry":{"x":177448.75000000186,"y":2569235.7300000004}},{"attributes":{"ID":299695,"DIS_CODE":0,"TOWNNAME":"下營區","LI":"茅港里","LIN":"4鄰","STREET":" ","SECT":" ","MAREA":"茅港尾","LANE":" ","ALLEY":" ","HOUSE_NO":"５９號","E_COORD97":177431.76000000001,"N_COORD97":2569162.0800000001,"ADDRESS":"茅港尾５９號","OBJECTID":299687},"geometry":{"x":177431.76000000071,"y":2569162.0800000001}},{"attributes":{"ID":299696,"DIS_CODE":0,"TOWNNAME":"下營區","LI":"茅港里","LIN":"4鄰","STREET":" ","SECT":" ","MAREA":"茅港尾","LANE":" ","ALLEY":" ","HOUSE_NO":"６１號","E_COORD97":177354.66,"N_COORD97":2568966.4300000002,"ADDRESS":"茅港尾６１號","OBJECTID":299688},"geometry":{"x":177354.66000000201,"y":2568966.4299999997}},{"attributes":{"ID":299697,"DIS_CODE":0,"TOWNNAME":"下營區","LI":"茅港里","LIN":"4鄰","STREET":" ","SECT":" ","MAREA":"茅港尾","LANE":" ","ALLEY":" ","HOUSE_NO":"６３號","E_COORD97":177336.69,"N_COORD97":2568949.8799999999,"ADDRESS":"茅港尾６３號","OBJECTID":299689},"geometry":{"x":177336.69000000134,"y":2568949.8799999971}},{"attributes":{"ID":299698,"DIS_CODE":0,"TOWNNAME":"安南區","LI":"溪北里","LIN":"8鄰","STREET":"府安路","SECT":"四段","MAREA":" ","LANE":"２４巷","ALLEY":" ","HOUSE_NO":"６號","E_COORD97":169431.20000000001,"N_COORD97":2547345.6899999999,"ADDRESS":"府安路四段２４巷６號","OBJECTID":299690},"geometry":{"x":169431.20000000112,"y":2547345.6900000013}},{"attributes":{"ID":299699,"DIS_CODE":0,"TOWNNAME":"安南區","LI":"溪北里","LIN":"8鄰","STREET":"府安路","SECT":"四段","MAREA":" ","LANE":"２４巷","ALLEY":" ","HOUSE_NO":"２０號","E_COORD97":169416.39000000001,"N_COORD97":2547379.29,"ADDRESS":"府安路四段２４巷２０號","OBJECTID":299691},"geometry":{"x":169416.3900000006,"y":2547379.290000001}},{"attributes":{"ID":299700,"DIS_CODE":0,"TOWNNAME":"安南區","LI":"溪北里","LIN":"8鄰","STREET":"府安路","SECT":"四段","MAREA":" ","LANE":"２４巷","ALLEY":" ","HOUSE_NO":"２６號","E_COORD97":169409.25,"N_COORD97":2547391.1000000001,"ADDRESS":"府安路四段２４巷２６號","OBJECTID":299692},"geometry":{"x":169409.25000000093,"y":2547391.1000000015}},{"attributes":{"ID":299701,"DIS_CODE":0,"TOWNNAME":"安南區","LI":"學東里","LIN":"8鄰","STREET":"公學路","SECT":"六段","MAREA":" ","LANE":"４９０巷","ALLEY":" ","HOUSE_NO":"１９號","E_COORD97":162649.10000000001,"N_COORD97":2553279.2799999998,"ADDRESS":"公學路六段４９０巷１９號","OBJECTID":299693},"geometry":{"x":162649.10000000056,"y":2553279.2799999993}},{"attributes":{"ID":299702,"DIS_CODE":0,"TOWNNAME":"永康區","LI":"\u25A0行里","LIN":"8鄰","STREET":"中正路","SECT":" ","MAREA":" ","LANE":"５４２巷","ALLEY":" ","HOUSE_NO":"２之６號","E_COORD97":172680.37,"N_COORD97":2548374.5499999998,"ADDRESS":"中正路５４２巷２之６號","OBJECTID":299694},"geometry":{"x":172680.37000000011,"y":2548374.5500000045}},{"attributes":{"ID":299703,"DIS_CODE":0,"TOWNNAME":"安南區","LI":"淵中里","LIN":"8鄰","STREET":"安中路","SECT":"四段","MAREA":" ","LANE":"２９０巷","ALLEY":" ","HOUSE_NO":"３１２號","E_COORD97":165167.20999999999,"N_COORD97":2550325.2200000002,"ADDRESS":"安中路四段２９０巷３１２號","OBJECTID":299695},"geometry":{"x":165167.20999999903,"y":2550325.2200000007}},{"attributes":{"ID":299704,"DIS_CODE":0,"TOWNNAME":"安南區","LI":"淵中里","LIN":"8鄰","STREET":"安中路","SECT":"四段","MAREA":" ","LANE":"２９０巷","ALLEY":" ","HOUSE_NO":"３１６號","E_COORD97":165177.53,"N_COORD97":2550332.8900000001,"ADDRESS":"安中路四段２９０巷３１６號","OBJECTID":299696},"geometry":{"x":165177.53000000119,"y":2550332.8900000025}},{"attributes":{"ID":299705,"DIS_CODE":0,"TOWNNAME":"安南區","LI":"鹿耳里","LIN":"8鄰","STREET":"北汕尾二路","SECT":" ","MAREA":" ","LANE":"５５０巷","ALLEY":" ","HOUSE_NO":"１９之１號","E_COORD97":160575.17000000001,"N_COORD97":2548032.5099999998,"ADDRESS":"北汕尾二路５５０巷１９之１號","OBJECTID":299697},"geometry":{"x":160575.16999999899,"y":2548032.5100000016}},{"attributes":{"ID":299706,"DIS_CODE":0,"TOWNNAME":"下營區","LI":"西連里","LIN":"4鄰","STREET":" ","SECT":" ","MAREA":"連表","LANE":" ","ALLEY":" ","HOUSE_NO":"４１號之１３","E_COORD97":174825.39999999999,"N_COORD97":2567991.5600000001,"ADDRESS":"連表４１號之１３","OBJECTID":299698},"geometry":{"x":174825.40000000037,"y":2567991.5600000024}},{"attributes":{"ID":299707,"DIS_CODE":0,"TOWNNAME":"安南區","LI":"鹿耳里","LIN":"8鄰","STREET":"北汕尾二路","SECT":" ","MAREA":" ","LANE":"５５０巷","ALLEY":" ","HOUSE_NO":"３７之１號","E_COORD97":160599.17000000001,"N_COORD97":2548012.3199999998,"ADDRESS":"北汕尾二路５５０巷３７之１號","OBJECTID":299699},"geometry":{"x":160599.17000000086,"y":2548012.3200000003}},{"attributes":{"ID":299708,"DIS_CODE":0,"TOWNNAME":"安南區","LI":"鹿耳里","LIN":"8鄰","STREET":"北汕尾二路","SECT":" ","MAREA":" ","LANE":"５５０巷","ALLEY":" ","HOUSE_NO":"４５號","E_COORD97":160600.06,"N_COORD97":2547995.1699999999,"ADDRESS":"北汕尾二路５５０巷４５號","OBJECTID":299700},"geometry":{"x":160600.06000000052,"y":2547995.1699999999}},{"attributes":{"ID":299709,"DIS_CODE":0,"TOWNNAME":"東區","LI":"崇成里","LIN":"14鄰","STREET":"崇明十六街","SECT":" ","MAREA":" ","LANE":" ","ALLEY":" ","HOUSE_NO":"５５之２號","E_COORD97":170740.14999999999,"N_COORD97":2541304.9500000002,"ADDRESS":"崇明十六街５５之２號","OBJECTID":299701},"geometry":{"x":170740.15000000224,"y":2541304.950000003}},{"attributes":{"ID":299710,"DIS_CODE":0,"TOWNNAME":"下營區","LI":"茅港里","LIN":"4鄰","STREET":" ","SECT":" ","MAREA":"茅港尾","LANE":" ","ALLEY":" ","HOUSE_NO":"６５號之２","E_COORD97":177335.64999999999,"N_COORD97":2568927.2000000002,"ADDRESS":"茅港尾６５號之２","OBJECTID":299702},"geometry":{"x":177335.65000000037,"y":2568927.1999999993}},{"attributes":{"ID":299711,"DIS_CODE":0,"TOWNNAME":"下營區","LI":"茅港里","LIN":"4鄰","STREET":" ","SECT":" ","MAREA":"茅港尾","LANE":" ","ALLEY":" ","HOUSE_NO":"６５號","E_COORD97":177338.78,"N_COORD97":2568940.6200000001,"ADDRESS":"茅港尾６５號","OBJECTID":299703},"geometry":{"x":177338.78000000119,"y":2568940.6200000048}},{"attributes":{"ID":299712,"DIS_CODE":0,"TOWNNAME":"下營區","LI":"茅港里","LIN":"4鄰","STREET":" ","SECT":" ","MAREA":"茅港尾","LANE":" ","ALLEY":" ","HOUSE_NO":"６７號","E_COORD97":177358.10999999999,"N_COORD97":2568938.48,"ADDRESS":"茅港尾６７號","OBJECTID":299704},"geometry":{"x":177358.11000000034,"y":2568938.4800000023}},{"attributes":{"ID":299713,"DIS_CODE":0,"TOWNNAME":"下營區","LI":"茅港里","LIN":"4鄰","STREET":" ","SECT":" ","MAREA":"茅港尾","LANE":" ","ALLEY":" ","HOUSE_NO":"６８號","E_COORD97":177299.07000000001,"N_COORD97":2568883.5600000001,"ADDRESS":"茅港尾６８號","OBJECTID":299705},"geometry":{"x":177299.0700000003,"y":2568883.5600000024}},{"attributes":{"ID":299714,"DIS_CODE":0,"TOWNNAME":"下營區","LI":"茅港里","LIN":"4鄰","STREET":" ","SECT":" ","MAREA":"茅港尾","LANE":" ","ALLEY":" ","HOUSE_NO":"６９號","E_COORD97":177485.66,"N_COORD97":2569311.1000000001,"ADDRESS":"茅港尾６９號","OBJECTID":299706},"geometry":{"x":177485.66000000108,"y":2569311.0999999996}},{"attributes":{"ID":299715,"DIS_CODE":0,"TOWNNAME":"將軍區","LI":"平沙里","LIN":"4鄰","STREET":" ","SECT":" ","MAREA":"平沙","LANE":" ","ALLEY":" ","HOUSE_NO":"３１之９號","E_COORD97":157421.14999999999,"N_COORD97":2568503.9399999999,"ADDRESS":"平沙３１之９號","OBJECTID":299707},"geometry":{"x":157421.15000000224,"y":2568503.9400000013}},{"attributes":{"ID":299716,"DIS_CODE":0,"TOWNNAME":"將軍區","LI":"平沙里","LIN":"4鄰","STREET":" ","SECT":" ","MAREA":"平沙","LANE":" ","ALLEY":" ","HOUSE_NO":"３２之１號","E_COORD97":157440.29999999999,"N_COORD97":2568539.8900000001,"ADDRESS":"平沙３２之１號","OBJECTID":299708},"geometry":{"x":157440.30000000075,"y":2568539.8900000006}},{"attributes":{"ID":299717,"DIS_CODE":0,"TOWNNAME":"將軍區","LI":"平沙里","LIN":"4鄰","STREET":" ","SECT":" ","MAREA":"平沙","LANE":" ","ALLEY":" ","HOUSE_NO":"３３之１號","E_COORD97":157410.29999999999,"N_COORD97":2568522.4100000001,"ADDRESS":"平沙３３之１號","OBJECTID":299709},"geometry":{"x":157410.29999999981,"y":2568522.4100000001}},{"attributes":{"ID":299718,"DIS_CODE":0,"TOWNNAME":"將軍區","LI":"平沙里","LIN":"4鄰","STREET":" ","SECT":" ","MAREA":"平沙","LANE":" ","ALLEY":" ","HOUSE_NO":"３３號","E_COORD97":157402.42999999999,"N_COORD97":2568544.2400000002,"ADDRESS":"平沙３３號","OBJECTID":299710},"geometry":{"x":157402.4299999997,"y":2568544.2400000002}},{"attributes":{"ID":299719,"DIS_CODE":0,"TOWNNAME":"將軍區","LI":"平沙里","LIN":"4鄰","STREET":" ","SECT":" ","MAREA":"平沙","LANE":" ","ALLEY":" ","HOUSE_NO":"３４號","E_COORD97":157384.54000000001,"N_COORD97":2568546.3199999998,"ADDRESS":"平沙３４號","OBJECTID":299711},"geometry":{"x":157384.54000000097,"y":2568546.3200000022}},{"attributes":{"ID":299720,"DIS_CODE":0,"TOWNNAME":"將軍區","LI":"平沙里","LIN":"4鄰","STREET":" ","SECT":" ","MAREA":"平沙","LANE":" ","ALLEY":" ","HOUSE_NO":"３５之１號","E_COORD97":157388.54000000001,"N_COORD97":2568517.8799999999,"ADDRESS":"平沙３５之１號","OBJECTID":299712},"geometry":{"x":157388.54000000004,"y":2568517.879999999}},{"attributes":{"ID":299721,"DIS_CODE":0,"TOWNNAME":"仁德區","LI":"太子里","LIN":"18鄰","STREET":"太興路","SECT":" ","MAREA":" ","LANE":"１１７巷","ALLEY":" ","HOUSE_NO":"１號","E_COORD97":174062.19,"N_COORD97":2543562.25,"ADDRESS":"太興路１１７巷１號","OBJECTID":299713},"geometry":{"x":174062.19000000041,"y":2543562.2500000019}},{"attributes":{"ID":299722,"DIS_CODE":0,"TOWNNAME":"仁德區","LI":"仁德里","LIN":"4鄰","STREET":"仁中六街","SECT":" ","MAREA":" ","LANE":" ","ALLEY":" ","HOUSE_NO":"１５５號","E_COORD97":173355.12,"N_COORD97":2540458.7400000002,"ADDRESS":"仁中六街１５５號","OBJECTID":299714},"geometry":{"x":173355.12000000011,"y":2540458.7400000002}},{"attributes":{"ID":299723,"DIS_CODE":0,"TOWNNAME":"將軍區","LI":"平沙里","LIN":"4鄰","STREET":" ","SECT":" ","MAREA":"平沙","LANE":" ","ALLEY":" ","HOUSE_NO":"３５之２號","E_COORD97":157395.04000000001,"N_COORD97":2568499.4500000002,"ADDRESS":"平沙３５之２號","OBJECTID":299715},"geometry":{"x":157395.04000000097,"y":2568499.4500000011}},{"attributes":{"ID":299724,"DIS_CODE":0,"TOWNNAME":"將軍區","LI":"平沙里","LIN":"4鄰","STREET":" ","SECT":" ","MAREA":"平沙","LANE":" ","ALLEY":" ","HOUSE_NO":"３５之３號","E_COORD97":157395.38,"N_COORD97":2568495.4100000001,"ADDRESS":"平沙３５之３號","OBJECTID":299716},"geometry":{"x":157395.38000000175,"y":2568495.4100000001}},{"attributes":{"ID":299725,"DIS_CODE":0,"TOWNNAME":"仁德區","LI":"仁德里","LIN":"4鄰","STREET":"仁中六街","SECT":" ","MAREA":" ","LANE":" ","ALLEY":" ","HOUSE_NO":"１５１號","E_COORD97":173344.67000000001,"N_COORD97":2540459.7400000002,"ADDRESS":"仁中六街１５１號","OBJECTID":299717},"geometry":{"x":173344.66999999993,"y":2540459.7400000039}},{"attributes":{"ID":299726,"DIS_CODE":0,"TOWNNAME":"將軍區","LI":"平沙里","LIN":"4鄰","STREET":" ","SECT":" ","MAREA":"平沙","LANE":" ","ALLEY":" ","HOUSE_NO":"３５之４號","E_COORD97":157395.47,"N_COORD97":2568491.4700000002,"ADDRESS":"平沙３５之４號","OBJECTID":299718},"geometry":{"x":157395.46999999974,"y":2568491.4700000025}},{"attributes":{"ID":299727,"DIS_CODE":0,"TOWNNAME":"將軍區","LI":"平沙里","LIN":"4鄰","STREET":" ","SECT":" ","MAREA":"平沙","LANE":" ","ALLEY":" ","HOUSE_NO":"３５之５號","E_COORD97":157395.70000000001,"N_COORD97":2568487.8199999998,"ADDRESS":"平沙３５之５號","OBJECTID":299719},"geometry":{"x":157395.70000000112,"y":2568487.8200000022}},{"attributes":{"ID":299728,"DIS_CODE":0,"TOWNNAME":"將軍區","LI":"平沙里","LIN":"4鄰","STREET":" ","SECT":" ","MAREA":"平沙","LANE":" ","ALLEY":" ","HOUSE_NO":"３５之６號","E_COORD97":157395.92000000001,"N_COORD97":2568483.29,"ADDRESS":"平沙３５之６號","OBJECTID":299720},"geometry":{"x":157395.91999999993,"y":2568483.290000001}},{"attributes":{"ID":299729,"DIS_CODE":0,"TOWNNAME":"仁德區","LI":"太子里","LIN":"46鄰","STREET":"太子一街","SECT":" ","MAREA":" ","LANE":" ","ALLEY":" ","HOUSE_NO":"３１號","E_COORD97":174804.37,"N_COORD97":2543360.25,"ADDRESS":"太子一街３１號","OBJECTID":299721},"geometry":{"x":174804.37000000011,"y":2543360.25}},{"attributes":{"ID":299730,"DIS_CODE":0,"TOWNNAME":"將軍區","LI":"平沙里","LIN":"4鄰","STREET":" ","SECT":" ","MAREA":"平沙","LANE":" ","ALLEY":" ","HOUSE_NO":"３５號","E_COORD97":157391.42999999999,"N_COORD97":2568536.9700000002,"ADDRESS":"平沙３５號","OBJECTID":299722},"geometry":{"x":157391.43000000156,"y":2568536.9700000007}},{"attributes":{"ID":299731,"DIS_CODE":0,"TOWNNAME":"仁德區","LI":"仁愛里","LIN":"26鄰","STREET":"大同路","SECT":"三段","MAREA":" ","LANE":" ","ALLEY":" ","HOUSE_NO":"４４２號","E_COORD97":169778.51999999999,"N_COORD97":2539315.1088700001,"ADDRESS":"大同路三段４４２號","OBJECTID":299723},"geometry":{"x":169778.51999999955,"y":2539315.1088730004}},{"attributes":{"ID":299732,"DIS_CODE":0,"TOWNNAME":"東區","LI":"崇學里","LIN":"4鄰","STREET":"崇學路","SECT":" ","MAREA":" ","LANE":"５６巷","ALLEY":" ","HOUSE_NO":"１５號","E_COORD97":170303.32999999999,"N_COORD97":2542071.3599999999,"ADDRESS":"崇學路５６巷１５號","OBJECTID":299724},"geometry":{"x":170303.33000000101,"y":2542071.3599999994}},{"attributes":{"ID":299733,"DIS_CODE":0,"TOWNNAME":"東區","LI":"崇學里","LIN":"4鄰","STREET":"崇學路","SECT":" ","MAREA":" ","LANE":"５６巷","ALLEY":" ","HOUSE_NO":"１７號","E_COORD97":170308.5,"N_COORD97":2542065.4300000002,"ADDRESS":"崇學路５６巷１７號","OBJECTID":299725},"geometry":{"x":170308.50000000186,"y":2542065.4300000016}},{"attributes":{"ID":299734,"DIS_CODE":0,"TOWNNAME":"東區","LI":"崇學里","LIN":"4鄰","STREET":"崇學路","SECT":" ","MAREA":" ","LANE":"５６巷","ALLEY":" ","HOUSE_NO":"２４號","E_COORD97":170271.39000000001,"N_COORD97":2542065.5099999998,"ADDRESS":"崇學路５６巷２４號","OBJECTID":299726},"geometry":{"x":170271.38999999966,"y":2542065.5100000016}},{"attributes":{"ID":299735,"DIS_CODE":0,"TOWNNAME":"東區","LI":"崇學里","LIN":"4鄰","STREET":"崇學路","SECT":" ","MAREA":" ","LANE":"５６巷","ALLEY":" ","HOUSE_NO":"２６號","E_COORD97":170275.87,"N_COORD97":2542062.3599999999,"ADDRESS":"崇學路５６巷２６號","OBJECTID":299727},"geometry":{"x":170275.87000000104,"y":2542062.3600000013}},{"attributes":{"ID":299736,"DIS_CODE":0,"TOWNNAME":"東區","LI":"崇學里","LIN":"4鄰","STREET":"崇學路","SECT":" ","MAREA":" ","LANE":"５６巷","ALLEY":" ","HOUSE_NO":"２８號","E_COORD97":170279.70999999999,"N_COORD97":2542060.7200000002,"ADDRESS":"崇學路５６巷２８號","OBJECTID":299728},"geometry":{"x":170279.70999999996,"y":2542060.7200000025}},{"attributes":{"ID":299737,"DIS_CODE":0,"TOWNNAME":"東區","LI":"大學里","LIN":"8鄰","STREET":"大學路","SECT":" ","MAREA":" ","LANE":"１８巷","ALLEY":" ","HOUSE_NO":"３１號","E_COORD97":170166.10999999999,"N_COORD97":2543822.6000000001,"ADDRESS":"大學路１８巷３１號","OBJECTID":299729},"geometry":{"x":170166.11000000127,"y":2543822.5999999996}},{"attributes":{"ID":299738,"DIS_CODE":0,"TOWNNAME":"東區","LI":"大學里","LIN":"8鄰","STREET":"大學路","SECT":" ","MAREA":" ","LANE":"１８巷","ALLEY":" ","HOUSE_NO":"３３號","E_COORD97":170176.38,"N_COORD97":2543814.8199999998,"ADDRESS":"大學路１８巷３３號","OBJECTID":299730},"geometry":{"x":170176.37999999989,"y":2543814.8200000003}},{"attributes":{"ID":299739,"DIS_CODE":0,"TOWNNAME":"安南區","LI":"溪心里","LIN":"8鄰","STREET":"安中路","SECT":"二段","MAREA":" ","LANE":"１１５巷","ALLEY":" ","HOUSE_NO":"３號","E_COORD97":166603.00386200001,"N_COORD97":2549637.55938,"ADDRESS":"安中路二段１１５巷３號","OBJECTID":299731},"geometry":{"x":166603.00386200193,"y":2549637.5593750011}},{"attributes":{"ID":299740,"DIS_CODE":0,"TOWNNAME":"安南區","LI":"溪心里","LIN":"8鄰","STREET":"安中路","SECT":"二段","MAREA":" ","LANE":"１１５巷","ALLEY":" ","HOUSE_NO":"１號","E_COORD97":166602.580396,"N_COORD97":2549644.3327000001,"ADDRESS":"安中路二段１１５巷１號","OBJECTID":299732},"geometry":{"x":166602.58039600123,"y":2549644.3327050023}},{"attributes":{"ID":299741,"DIS_CODE":0,"TOWNNAME":"仁德區","LI":"成功里","LIN":"8鄰","STREET":"保華路","SECT":" ","MAREA":" ","LANE":"１４５巷","ALLEY":" ","HOUSE_NO":"３９號","E_COORD97":171071.97,"N_COORD97":2539918.25,"ADDRESS":"保華路１４５巷３９號","OBJECTID":299733},"geometry":{"x":171071.97000000067,"y":2539918.2500000019}},{"attributes":{"ID":299742,"DIS_CODE":0,"TOWNNAME":"仁德區","LI":"成功里","LIN":"8鄰","STREET":"保華路","SECT":" ","MAREA":" ","LANE":"１２９巷","ALLEY":" ","HOUSE_NO":"３０號","E_COORD97":171094.20000000001,"N_COORD97":2539973.7400000002,"ADDRESS":"保華路１２９巷３０號","OBJECTID":299734},"geometry":{"x":171094.20000000112,"y":2539973.7400000002}},{"attributes":{"ID":299743,"DIS_CODE":0,"TOWNNAME":"仁德區","LI":"成功里","LIN":"8鄰","STREET":"保華路","SECT":" ","MAREA":" ","LANE":"１２９巷","ALLEY":" ","HOUSE_NO":"５８號","E_COORD97":171101.89000000001,"N_COORD97":2539894.75,"ADDRESS":"保華路１２９巷５８號","OBJECTID":299735},"geometry":{"x":171101.88999999966,"y":2539894.7500000019}},{"attributes":{"ID":299744,"DIS_CODE":0,"TOWNNAME":"仁德區","LI":"成功里","LIN":"8鄰","STREET":"保華路","SECT":" ","MAREA":" ","LANE":"１２９巷","ALLEY":" ","HOUSE_NO":"３２號","E_COORD97":171094.89999999999,"N_COORD97":2539966.9900000002,"ADDRESS":"保華路１２９巷３２號","OBJECTID":299736},"geometry":{"x":171094.9000000013,"y":2539966.9900000021}},{"attributes":{"ID":299745,"DIS_CODE":0,"TOWNNAME":"仁德區","LI":"保安里","LIN":"8鄰","STREET":"文賢路","SECT":"一段","MAREA":" ","LANE":"７６３巷","ALLEY":" ","HOUSE_NO":"４８號","E_COORD97":171681.01000000001,"N_COORD97":2536193.3300000001,"ADDRESS":"文賢路一段７６３巷４８號","OBJECTID":299737},"geometry":{"x":171681.00999999978,"y":2536193.3300000001}},{"attributes":{"ID":299746,"DIS_CODE":0,"TOWNNAME":"仁德區","LI":"成功里","LIN":"8鄰","STREET":"保華路","SECT":" ","MAREA":" ","LANE":"１４５巷","ALLEY":" ","HOUSE_NO":"１６號","E_COORD97":171054.32999999999,"N_COORD97":2540005.5,"ADDRESS":"保華路１４５巷１６號","OBJECTID":299738},"geometry":{"x":171054.33000000101,"y":2540005.5}},{"attributes":{"ID":299747,"DIS_CODE":0,"TOWNNAME":"仁德區","LI":"成功里","LIN":"8鄰","STREET":"保華路","SECT":" ","MAREA":" ","LANE":"１４５巷","ALLEY":" ","HOUSE_NO":"２６號","E_COORD97":171061.56,"N_COORD97":2539976.7400000002,"ADDRESS":"保華路１４５巷２６號","OBJECTID":299739},"geometry":{"x":171061.55999999959,"y":2539976.7400000002}},{"attributes":{"ID":299748,"DIS_CODE":0,"TOWNNAME":"仁德區","LI":"成功里","LIN":"8鄰","STREET":"保華路","SECT":" ","MAREA":" ","LANE":"１４５巷","ALLEY":" ","HOUSE_NO":"２２號","E_COORD97":171055.42000000001,"N_COORD97":2539991.5,"ADDRESS":"保華路１４５巷２２號","OBJECTID":299740},"geometry":{"x":171055.42000000086,"y":2539991.5}},{"attributes":{"ID":299749,"DIS_CODE":0,"TOWNNAME":"安南區","LI":"總頭里","LIN":"14鄰","STREET":"長溪路","SECT":"二段","MAREA":" ","LANE":" ","ALLEY":" ","HOUSE_NO":"２８３號","E_COORD97":168332.51000000001,"N_COORD97":2549833.0099999998,"ADDRESS":"長溪路二段２８３號","OBJECTID":299741},"geometry":{"x":168332.50999999978,"y":2549833.0100000016}},{"attributes":{"ID":299750,"DIS_CODE":0,"TOWNNAME":"安南區","LI":"總頭里","LIN":"14鄰","STREET":"長溪路","SECT":"二段","MAREA":" ","LANE":" ","ALLEY":" ","HOUSE_NO":"２８５號","E_COORD97":168332.51000000001,"N_COORD97":2549838.23,"ADDRESS":"長溪路二段２８５號","OBJECTID":299742},"geometry":{"x":168332.50999999978,"y":2549838.2300000023}},{"attributes":{"ID":299751,"DIS_CODE":0,"TOWNNAME":"安南區","LI":"總頭里","LIN":"14鄰","STREET":"長溪路","SECT":"二段","MAREA":" ","LANE":" ","ALLEY":" ","HOUSE_NO":"２８７號","E_COORD97":168332.51000000001,"N_COORD97":2549843.4500000002,"ADDRESS":"長溪路二段２８７號","OBJECTID":299743},"geometry":{"x":168332.50999999978,"y":2549843.4499999993}},{"attributes":{"ID":299752,"DIS_CODE":0,"TOWNNAME":"安南區","LI":"總頭里","LIN":"14鄰","STREET":"長溪路","SECT":"二段","MAREA":" ","LANE":" ","ALLEY":" ","HOUSE_NO":"２８８號","E_COORD97":168374.32000000001,"N_COORD97":2549837.71,"ADDRESS":"長溪路二段２８８號","OBJECTID":299744},"geometry":{"x":168374.32000000216,"y":2549837.7100000009}},{"attributes":{"ID":299753,"DIS_CODE":0,"TOWNNAME":"安南區","LI":"總頭里","LIN":"14鄰","STREET":"長溪路","SECT":"二段","MAREA":" ","LANE":" ","ALLEY":" ","HOUSE_NO":"２９１號","E_COORD97":168333.54999999999,"N_COORD97":2549851.79,"ADDRESS":"長溪路二段２９１號","OBJECTID":299745},"geometry":{"x":168333.55000000075,"y":2549851.7899999991}},{"attributes":{"ID":299754,"DIS_CODE":0,"TOWNNAME":"安南區","LI":"總頭里","LIN":"14鄰","STREET":"長溪路","SECT":"二段","MAREA":" ","LANE":" ","ALLEY":" ","HOUSE_NO":"２９５號","E_COORD97":168333.54999999999,"N_COORD97":2549861.1899999999,"ADDRESS":"長溪路二段２９５號","OBJECTID":299746},"geometry":{"x":168333.55000000075,"y":2549861.1900000013}},{"attributes":{"ID":299755,"DIS_CODE":0,"TOWNNAME":"東區","LI":"崇學里","LIN":"4鄰","STREET":"崇學路","SECT":" ","MAREA":" ","LANE":"５６巷","ALLEY":" ","HOUSE_NO":"４８號","E_COORD97":170308.48000000001,"N_COORD97":2542036.4900000002,"ADDRESS":"崇學路５６巷４８號","OBJECTID":299747},"geometry":{"x":170308.48000000045,"y":2542036.4900000002}},{"attributes":{"ID":299756,"DIS_CODE":0,"TOWNNAME":"仁德區","LI":"成功里","LIN":"8鄰","STREET":"保華路","SECT":" ","MAREA":" ","LANE":"１４５巷","ALLEY":" ","HOUSE_NO":"３８號","E_COORD97":171062.69,"N_COORD97":2539935.4900000002,"ADDRESS":"保華路１４５巷３８號","OBJECTID":299748},"geometry":{"x":171062.69000000134,"y":2539935.4899999984}},{"attributes":{"ID":299757,"DIS_CODE":0,"TOWNNAME":"仁德區","LI":"成功里","LIN":"8鄰","STREET":"保華路","SECT":" ","MAREA":" ","LANE":"１２９巷","ALLEY":" ","HOUSE_NO":"２０號","E_COORD97":171091.92999999999,"N_COORD97":2539996.5,"ADDRESS":"保華路１２９巷２０號","OBJECTID":299749},"geometry":{"x":171091.93000000156,"y":2539996.5000000037}},{"attributes":{"ID":299758,"DIS_CODE":0,"TOWNNAME":"仁德區","LI":"太子里","LIN":"8鄰","STREET":"太子路","SECT":" ","MAREA":" ","LANE":"１７２巷","ALLEY":" ","HOUSE_NO":"９號","E_COORD97":174369.79000000001,"N_COORD97":2543587.75,"ADDRESS":"太子路１７２巷９號","OBJECTID":299750},"geometry":{"x":174369.79000000004,"y":2543587.75}},{"attributes":{"ID":299759,"DIS_CODE":0,"TOWNNAME":"仁德區","LI":"成功里","LIN":"8鄰","STREET":"保華路","SECT":" ","MAREA":" ","LANE":"１４５巷","ALLEY":" ","HOUSE_NO":"５０號","E_COORD97":171059.26999999999,"N_COORD97":2539898.25,"ADDRESS":"保華路１４５巷５０號","OBJECTID":299751},"geometry":{"x":171059.27000000048,"y":2539898.25}},{"attributes":{"ID":299760,"DIS_CODE":0,"TOWNNAME":"仁德區","LI":"成功里","LIN":"8鄰","STREET":"保華路","SECT":" ","MAREA":" ","LANE":"１２９巷","ALLEY":" ","HOUSE_NO":"６２號","E_COORD97":171103.76999999999,"N_COORD97":2539875.4900000002,"ADDRESS":"保華路１２９巷６２號","OBJECTID":299752},"geometry":{"x":171103.77000000048,"y":2539875.4900000021}},{"attributes":{"ID":299761,"DIS_CODE":0,"TOWNNAME":"仁德區","LI":"成功里","LIN":"8鄰","STREET":"保華路","SECT":" ","MAREA":" ","LANE":"１４５巷","ALLEY":" ","HOUSE_NO":"１８號","E_COORD97":171054.75,"N_COORD97":2540000.5,"ADDRESS":"保華路１４５巷１８號","OBJECTID":299753},"geometry":{"x":171054.75000000093,"y":2540000.5000000019}},{"attributes":{"ID":299762,"DIS_CODE":0,"TOWNNAME":"永康區","LI":"南灣里","LIN":"8鄰","STREET":"南興路","SECT":" ","MAREA":" ","LANE":"４８巷","ALLEY":" ","HOUSE_NO":"３０號","E_COORD97":174455.28,"N_COORD97":2544154.79,"ADDRESS":"南興路４８巷３０號","OBJECTID":299754},"geometry":{"x":174455.28000000119,"y":2544154.790000001}},{"attributes":{"ID":299763,"DIS_CODE":0,"TOWNNAME":"永康區","LI":"六合里","LIN":"8鄰","STREET":"中華二路","SECT":" ","MAREA":" ","LANE":"３５８巷","ALLEY":" ","HOUSE_NO":"４３號","E_COORD97":171059.72,"N_COORD97":2545552.3300000001,"ADDRESS":"中華二路３５８巷４３號","OBJECTID":299755},"geometry":{"x":171059.72000000067,"y":2545552.3300000019}},{"attributes":{"ID":299764,"DIS_CODE":0,"TOWNNAME":"永康區","LI":"六合里","LIN":"8鄰","STREET":"六合路","SECT":" ","MAREA":" ","LANE":"４７巷","ALLEY":" ","HOUSE_NO":"１１號","E_COORD97":171139.64000000001,"N_COORD97":2545582.2200000002,"ADDRESS":"六合路４７巷１１號","OBJECTID":299756},"geometry":{"x":171139.64000000153,"y":2545582.2200000007}},{"attributes":{"ID":299765,"DIS_CODE":0,"TOWNNAME":"新營區","LI":"大宏里","LIN":"3鄰","STREET":"綠川北街","SECT":" ","MAREA":" ","LANE":" ","ALLEY":" ","HOUSE_NO":"１１１號","E_COORD97":180331.17391700001,"N_COORD97":2578699.3355100001,"ADDRESS":"綠川北街１１１號","OBJECTID":299757},"geometry":{"x":180331.17391700111,"y":2578699.3355150018}},{"attributes":{"ID":299766,"DIS_CODE":0,"TOWNNAME":"永康區","LI":"六合里","LIN":"8鄰","STREET":"六合路","SECT":" ","MAREA":" ","LANE":"４７巷","ALLEY":" ","HOUSE_NO":"１３號","E_COORD97":171136.23999999999,"N_COORD97":2545581.7200000002,"ADDRESS":"六合路４７巷１３號","OBJECTID":299758},"geometry":{"x":171136.24000000209,"y":2545581.7200000007}},{"attributes":{"ID":299767,"DIS_CODE":0,"TOWNNAME":"永康區","LI":"六合里","LIN":"8鄰","STREET":"六合路","SECT":" ","MAREA":" ","LANE":"４７巷","ALLEY":" ","HOUSE_NO":"１５號","E_COORD97":171082.84,"N_COORD97":2545569.4900000002,"ADDRESS":"六合路４７巷１５號","OBJECTID":299759},"geometry":{"x":171082.84000000078,"y":2545569.4900000002}},{"attributes":{"ID":299768,"DIS_CODE":0,"TOWNNAME":"永康區","LI":"六合里","LIN":"8鄰","STREET":"六合路","SECT":" ","MAREA":" ","LANE":"４７巷","ALLEY":" ","HOUSE_NO":"１６號","E_COORD97":171130.87,"N_COORD97":2545600.3300000001,"ADDRESS":"六合路４７巷１６號","OBJECTID":299760},"geometry":{"x":171130.87000000104,"y":2545600.3300000001}},{"attributes":{"ID":299769,"DIS_CODE":0,"TOWNNAME":"永康區","LI":"六合里","LIN":"8鄰","STREET":"六合路","SECT":" ","MAREA":" ","LANE":"４７巷","ALLEY":" ","HOUSE_NO":"１號","E_COORD97":171154.34,"N_COORD97":2545585.2200000002,"ADDRESS":"六合路４７巷１號","OBJECTID":299761},"geometry":{"x":171154.34000000078,"y":2545585.2200000007}},{"attributes":{"ID":299770,"DIS_CODE":0,"TOWNNAME":"永康區","LI":"六合里","LIN":"8鄰","STREET":"六合路","SECT":" ","MAREA":" ","LANE":"４７巷","ALLEY":" ","HOUSE_NO":"３８號","E_COORD97":171093.57000000001,"N_COORD97":2545585,"ADDRESS":"六合路４７巷３８號","OBJECTID":299762},"geometry":{"x":171093.57000000123,"y":2545585.0000000019}},{"attributes":{"ID":299771,"DIS_CODE":0,"TOWNNAME":"永康區","LI":"六合里","LIN":"8鄰","STREET":"六合路","SECT":" ","MAREA":" ","LANE":"４７巷","ALLEY":" ","HOUSE_NO":"３號","E_COORD97":171150.34,"N_COORD97":2545584.4700000002,"ADDRESS":"六合路４７巷３號","OBJECTID":299763},"geometry":{"x":171150.34000000171,"y":2545584.4699999988}},{"attributes":{"ID":299772,"DIS_CODE":0,"TOWNNAME":"永康區","LI":"六合里","LIN":"8鄰","STREET":"六合路","SECT":" ","MAREA":" ","LANE":"４７巷","ALLEY":" ","HOUSE_NO":"４０號","E_COORD97":171097.53,"N_COORD97":2545585.75,"ADDRESS":"六合路４７巷４０號","OBJECTID":299764},"geometry":{"x":171097.53000000119,"y":2545585.7500000037}},{"attributes":{"ID":299773,"DIS_CODE":0,"TOWNNAME":"永康區","LI":"六合里","LIN":"8鄰","STREET":"六合路","SECT":" ","MAREA":" ","LANE":"４７巷","ALLEY":" ","HOUSE_NO":"４２號","E_COORD97":171100.85000000001,"N_COORD97":2545586.5,"ADDRESS":"六合路４７巷４２號","OBJECTID":299765},"geometry":{"x":171100.85000000149,"y":2545586.5}},{"attributes":{"ID":299774,"DIS_CODE":0,"TOWNNAME":"永康區","LI":"六合里","LIN":"8鄰","STREET":"六合路","SECT":" ","MAREA":" ","LANE":"４７巷","ALLEY":" ","HOUSE_NO":"４４號","E_COORD97":171104.48000000001,"N_COORD97":2545587,"ADDRESS":"六合路４７巷４４號","OBJECTID":299766},"geometry":{"x":171104.48000000138,"y":2545586.9999999981}},{"attributes":{"ID":299775,"DIS_CODE":0,"TOWNNAME":"永康區","LI":"六合里","LIN":"8鄰","STREET":"六合路","SECT":" ","MAREA":" ","LANE":"４７巷","ALLEY":" ","HOUSE_NO":"４６號","E_COORD97":171108.07000000001,"N_COORD97":2545585.25,"ADDRESS":"六合路４７巷４６號","OBJECTID":299767},"geometry":{"x":171108.0700000003,"y":2545585.2499999981}},{"attributes":{"ID":299776,"DIS_CODE":0,"TOWNNAME":"永康區","LI":"六合里","LIN":"8鄰","STREET":"六合路","SECT":" ","MAREA":" ","LANE":"４７巷","ALLEY":" ","HOUSE_NO":"４８號","E_COORD97":171110.85999999999,"N_COORD97":2545588,"ADDRESS":"六合路４７巷４８號","OBJECTID":299768},"geometry":{"x":171110.86000000034,"y":2545588.0000000019}},{"attributes":{"ID":299777,"DIS_CODE":0,"TOWNNAME":"白河區","LI":"廣安里","LIN":"4鄰","STREET":" ","SECT":" ","MAREA":"枋子林","LANE":" ","ALLEY":" ","HOUSE_NO":"２７號","E_COORD97":189046.35000000001,"N_COORD97":2587696.4900000002,"ADDRESS":"枋子林２７號","OBJECTID":299769},"geometry":{"x":189046.35000000056,"y":2587696.4900000021}},{"attributes":{"ID":299778,"DIS_CODE":0,"TOWNNAME":"白河區","LI":"廣安里","LIN":"4鄰","STREET":" ","SECT":" ","MAREA":"枋子林","LANE":" ","ALLEY":" ","HOUSE_NO":"２８號","E_COORD97":189040.41,"N_COORD97":2587738.3399999999,"ADDRESS":"枋子林２８號","OBJECTID":299770},"geometry":{"x":189040.41000000015,"y":2587738.3400000017}},{"attributes":{"ID":299779,"DIS_CODE":0,"TOWNNAME":"中西區","LI":"民權里","LIN":"1鄰","STREET":"康樂街","SECT":" ","MAREA":" ","LANE":" ","ALLEY":" ","HOUSE_NO":"１６８號","E_COORD97":167524.92000000001,"N_COORD97":2544076.3799999999,"ADDRESS":"康樂街１６８號","OBJECTID":299771},"geometry":{"x":167524.91999999993,"y":2544076.3800000008}},{"attributes":{"ID":299780,"DIS_CODE":0,"TOWNNAME":"白河區","LI":"廣安里","LIN":"4鄰","STREET":" ","SECT":" ","MAREA":"枋子林","LANE":" ","ALLEY":" ","HOUSE_NO":"３０號","E_COORD97":189060.89999999999,"N_COORD97":2587751.21,"ADDRESS":"枋子林３０號","OBJECTID":299772},"geometry":{"x":189060.9000000013,"y":2587751.2100000009}},{"attributes":{"ID":299781,"DIS_CODE":0,"TOWNNAME":"白河區","LI":"廣安里","LIN":"4鄰","STREET":" ","SECT":" ","MAREA":"枋子林","LANE":" ","ALLEY":" ","HOUSE_NO":"３１號","E_COORD97":189080.10999999999,"N_COORD97":2587767.1800000002,"ADDRESS":"枋子林３１號","OBJECTID":299773},"geometry":{"x":189080.11000000034,"y":2587767.1799999997}},{"attributes":{"ID":299782,"DIS_CODE":0,"TOWNNAME":"白河區","LI":"廣安里","LIN":"4鄰","STREET":" ","SECT":" ","MAREA":"枋子林","LANE":" ","ALLEY":" ","HOUSE_NO":"３２號","E_COORD97":189087.72,"N_COORD97":2587781.25,"ADDRESS":"枋子林３２號","OBJECTID":299774},"geometry":{"x":189087.71999999881,"y":2587781.25}},{"attributes":{"ID":299783,"DIS_CODE":0,"TOWNNAME":"白河區","LI":"秀祐里","LIN":"4鄰","STREET":" ","SECT":" ","MAREA":"頂秀祐","LANE":" ","ALLEY":" ","HOUSE_NO":"６０之１９號","E_COORD97":188786.97,"N_COORD97":2583404.6699999999,"ADDRESS":"頂秀祐６０之１９號","OBJECTID":299775},"geometry":{"x":188786.96999999974,"y":2583404.6699999999}},{"attributes":{"ID":299784,"DIS_CODE":0,"TOWNNAME":"永康區","LI":"六合里","LIN":"8鄰","STREET":"六合路","SECT":" ","MAREA":" ","LANE":"４７巷","ALLEY":" ","HOUSE_NO":"５０號","E_COORD97":171115.70000000001,"N_COORD97":2545589,"ADDRESS":"六合路４７巷５０號","OBJECTID":299776},"geometry":{"x":171115.70000000019,"y":2545589}},{"attributes":{"ID":299785,"DIS_CODE":0,"TOWNNAME":"永康區","LI":"六合里","LIN":"8鄰","STREET":"六合路","SECT":" ","MAREA":" ","LANE":"４７巷","ALLEY":" ","HOUSE_NO":"５２號","E_COORD97":171119.92999999999,"N_COORD97":2545590.5,"ADDRESS":"六合路４７巷５２號","OBJECTID":299777},"geometry":{"x":171119.9299999997,"y":2545590.5000000037}},{"attributes":{"ID":299786,"DIS_CODE":0,"TOWNNAME":"永康區","LI":"六合里","LIN":"8鄰","STREET":"六合路","SECT":" ","MAREA":" ","LANE":"４７巷","ALLEY":" ","HOUSE_NO":"５４號","E_COORD97":171123.98000000001,"N_COORD97":2545591.25,"ADDRESS":"六合路４７巷５４號","OBJECTID":299778},"geometry":{"x":171123.98000000045,"y":2545591.25}},{"attributes":{"ID":299787,"DIS_CODE":0,"TOWNNAME":"永康區","LI":"六合里","LIN":"8鄰","STREET":"六合路","SECT":" ","MAREA":" ","LANE":"４７巷","ALLEY":" ","HOUSE_NO":"５６號","E_COORD97":171128.04999999999,"N_COORD97":2545592,"ADDRESS":"六合路４７巷５６號","OBJECTID":299779},"geometry":{"x":171128.04999999981,"y":2545592.0000000019}},{"attributes":{"ID":299788,"DIS_CODE":0,"TOWNNAME":"永康區","LI":"六合里","LIN":"8鄰","STREET":"六合路","SECT":" ","MAREA":" ","LANE":"４７巷","ALLEY":" ","HOUSE_NO":"５號","E_COORD97":171147.34,"N_COORD97":2545583.7200000002,"ADDRESS":"六合路４７巷５號","OBJECTID":299780},"geometry":{"x":171147.34000000078,"y":2545583.7200000025}},{"attributes":{"ID":299789,"DIS_CODE":0,"TOWNNAME":"新化區","LI":"協興里","LIN":"8鄰","STREET":"太平街","SECT":" ","MAREA":" ","LANE":"１３４巷","ALLEY":" ","HOUSE_NO":"１號之１","E_COORD97":178395.45000000001,"N_COORD97":2548722.2599999998,"ADDRESS":"太平街１３４巷１號之１","OBJECTID":299781},"geometry":{"x":178395.45000000112,"y":2548722.2600000016}},{"attributes":{"ID":299790,"DIS_CODE":0,"TOWNNAME":"新化區","LI":"護國里","LIN":"8鄰","STREET":"信義路","SECT":" ","MAREA":" ","LANE":"８６巷","ALLEY":" ","HOUSE_NO":"３號","E_COORD97":179809.88,"N_COORD97":2548769.25,"ADDRESS":"信義路８６巷３號","OBJECTID":299782},"geometry":{"x":179809.88000000082,"y":2548769.2500000037}},{"attributes":{"ID":299791,"DIS_CODE":0,"TOWNNAME":"新化區","LI":"太平里","LIN":"8鄰","STREET":"中正路","SECT":" ","MAREA":" ","LANE":"６６２巷","ALLEY":" ","HOUSE_NO":"２０號","E_COORD97":178699.16,"N_COORD97":2549465.25,"ADDRESS":"中正路６６２巷２０號","OBJECTID":299783},"geometry":{"x":178699.16000000108,"y":2549465.2500000019}},{"attributes":{"ID":299792,"DIS_CODE":0,"TOWNNAME":"麻豆區","LI":"謝安里","LIN":"4鄰","STREET":" ","SECT":" ","MAREA":"謝厝寮","LANE":" ","ALLEY":" ","HOUSE_NO":"４０號","E_COORD97":171942.70999999999,"N_COORD97":2561136.6499999999,"ADDRESS":"謝厝寮４０號","OBJECTID":299784},"geometry":{"x":171942.70999999996,"y":2561136.6500000004}},{"attributes":{"ID":299793,"DIS_CODE":0,"TOWNNAME":"麻豆區","LI":"謝安里","LIN":"4鄰","STREET":" ","SECT":" ","MAREA":"謝厝寮","LANE":" ","ALLEY":" ","HOUSE_NO":"４１號之１","E_COORD97":171913.45000000001,"N_COORD97":2561118.25,"ADDRESS":"謝厝寮４１號之１","OBJECTID":299785},"geometry":{"x":171913.45000000112,"y":2561118.2500000019}},{"attributes":{"ID":299794,"DIS_CODE":0,"TOWNNAME":"麻豆區","LI":"謝安里","LIN":"4鄰","STREET":" ","SECT":" ","MAREA":"謝厝寮","LANE":" ","ALLEY":" ","HOUSE_NO":"４１號","E_COORD97":171923.01000000001,"N_COORD97":2561128.7599999998,"ADDRESS":"謝厝寮４１號","OBJECTID":299786},"geometry":{"x":171923.00999999978,"y":2561128.7599999998}},{"attributes":{"ID":299795,"DIS_CODE":0,"TOWNNAME":"麻豆區","LI":"謝安里","LIN":"4鄰","STREET":" ","SECT":" ","MAREA":"謝厝寮","LANE":" ","ALLEY":" ","HOUSE_NO":"４２號之３","E_COORD97":171923.64999999999,"N_COORD97":2561153.8599999999,"ADDRESS":"謝厝寮４２號之３","OBJECTID":299787},"geometry":{"x":171923.6500000013,"y":2561153.8600000013}},{"attributes":{"ID":299796,"DIS_CODE":0,"TOWNNAME":"麻豆區","LI":"謝安里","LIN":"4鄰","STREET":" ","SECT":" ","MAREA":"謝厝寮","LANE":" ","ALLEY":" ","HOUSE_NO":"４２號之６","E_COORD97":171910.78,"N_COORD97":2561140.4199999999,"ADDRESS":"謝厝寮４２號之６","OBJECTID":299788},"geometry":{"x":171910.78000000119,"y":2561140.4200000018}},{"attributes":{"ID":299797,"DIS_CODE":0,"TOWNNAME":"麻豆區","LI":"謝安里","LIN":"4鄰","STREET":" ","SECT":" ","MAREA":"謝厝寮","LANE":" ","ALLEY":" ","HOUSE_NO":"４２號","E_COORD97":171939.78,"N_COORD97":2561152.4700000002,"ADDRESS":"謝厝寮４２號","OBJECTID":299789},"geometry":{"x":171939.78000000119,"y":2561152.4700000007}},{"attributes":{"ID":299798,"DIS_CODE":0,"TOWNNAME":"新化區","LI":"太平里","LIN":"8鄰","STREET":"中正路","SECT":" ","MAREA":" ","LANE":"６６２巷","ALLEY":" ","HOUSE_NO":"３４號","E_COORD97":178721.26000000001,"N_COORD97":2549470.25,"ADDRESS":"中正路６６２巷３４號","OBJECTID":299790},"geometry":{"x":178721.25999999978,"y":2549470.25}},{"attributes":{"ID":299799,"DIS_CODE":0,"TOWNNAME":"新化區","LI":"太平里","LIN":"8鄰","STREET":"中正路","SECT":" ","MAREA":" ","LANE":"６６２巷","ALLEY":" ","HOUSE_NO":"１２號","E_COORD97":178680.76000000001,"N_COORD97":2549476.25,"ADDRESS":"中正路６６２巷１２號","OBJECTID":299791},"geometry":{"x":178680.76000000164,"y":2549476.25}},{"attributes":{"ID":299800,"DIS_CODE":0,"TOWNNAME":"新化區","LI":"太平里","LIN":"8鄰","STREET":"中正路","SECT":" ","MAREA":" ","LANE":"５９０巷","ALLEY":" ","HOUSE_NO":"１號","E_COORD97":178815.41,"N_COORD97":2549220.25,"ADDRESS":"中正路５９０巷１號","OBJECTID":299792},"geometry":{"x":178815.41000000015,"y":2549220.2500000037}},{"attributes":{"ID":299801,"DIS_CODE":0,"TOWNNAME":"新化區","LI":"太平里","LIN":"8鄰","STREET":"中正路","SECT":" ","MAREA":" ","LANE":"６６２巷","ALLEY":" ","HOUSE_NO":"４３號","E_COORD97":178756.45999999999,"N_COORD97":2549451.25,"ADDRESS":"中正路６６２巷４３號","OBJECTID":299793},"geometry":{"x":178756.46000000089,"y":2549451.2500000019}},{"attributes":{"ID":299802,"DIS_CODE":0,"TOWNNAME":"新化區","LI":"太平里","LIN":"8鄰","STREET":"中正路","SECT":" ","MAREA":" ","LANE":"６６２巷","ALLEY":" ","HOUSE_NO":"２４號","E_COORD97":178696.26000000001,"N_COORD97":2549473.25,"ADDRESS":"中正路６６２巷２４號","OBJECTID":299794},"geometry":{"x":178696.26000000071,"y":2549473.25}},{"attributes":{"ID":299803,"DIS_CODE":0,"TOWNNAME":"下營區","LI":"西連里","LIN":"4鄰","STREET":" ","SECT":" ","MAREA":"連表","LANE":" ","ALLEY":" ","HOUSE_NO":"３８號","E_COORD97":174875.66,"N_COORD97":2567927.21,"ADDRESS":"連表３８號","OBJECTID":299795},"geometry":{"x":174875.66000000015,"y":2567927.2100000028}},{"attributes":{"ID":299804,"DIS_CODE":0,"TOWNNAME":"下營區","LI":"西連里","LIN":"4鄰","STREET":" ","SECT":" ","MAREA":"連表","LANE":" ","ALLEY":" ","HOUSE_NO":"４０號","E_COORD97":174846.51000000001,"N_COORD97":2567895.4399999999,"ADDRESS":"連表４０號","OBJECTID":299796},"geometry":{"x":174846.51000000071,"y":2567895.4399999995}},{"attributes":{"ID":299805,"DIS_CODE":0,"TOWNNAME":"下營區","LI":"西連里","LIN":"4鄰","STREET":" ","SECT":" ","MAREA":"連表","LANE":" ","ALLEY":" ","HOUSE_NO":"４１號之１０","E_COORD97":174839.10000000001,"N_COORD97":2567993.3399999999,"ADDRESS":"連表４１號之１０","OBJECTID":299797},"geometry":{"x":174839.10000000056,"y":2567993.3400000017}},{"attributes":{"ID":299806,"DIS_CODE":0,"TOWNNAME":"下營區","LI":"西連里","LIN":"4鄰","STREET":" ","SECT":" ","MAREA":"連表","LANE":" ","ALLEY":" ","HOUSE_NO":"４１號之１１","E_COORD97":174834.42000000001,"N_COORD97":2567992.6699999999,"ADDRESS":"連表４１號之１１","OBJECTID":299798},"geometry":{"x":174834.41999999993,"y":2567992.6699999999}},{"attributes":{"ID":299807,"DIS_CODE":0,"TOWNNAME":"仁德區","LI":"仁德里","LIN":"18鄰","STREET":"文華路","SECT":"三段","MAREA":" ","LANE":"１８９巷","ALLEY":" ","HOUSE_NO":"３８號","E_COORD97":172157.07999999999,"N_COORD97":2540477.0699999998,"ADDRESS":"文華路三段１８９巷３８號","OBJECTID":299799},"geometry":{"x":172157.08000000007,"y":2540477.0700000003}},{"attributes":{"ID":299808,"DIS_CODE":0,"TOWNNAME":"仁德區","LI":"仁德里","LIN":"43鄰","STREET":"中山路","SECT":" ","MAREA":" ","LANE":"９１０巷","ALLEY":" ","HOUSE_NO":"３２號","E_COORD97":172031.45999999999,"N_COORD97":2541811.2400000002,"ADDRESS":"中山路９１０巷３２號","OBJECTID":299800},"geometry":{"x":172031.46000000089,"y":2541811.2400000002}}]}