{"displayFieldName":"TOWNNAME","fieldAliases":{"ID":"ID","DIS_CODE":"DIS_CODE","TOWNNAME":"TOWNNAME","LI":"LI","LIN":"LIN","STREET":"STREET","SECT":"SECT","MAREA":"MAREA","LANE":"LANE","ALLEY":"ALLEY","HOUSE_NO":"HOUSE_NO","E_COORD97":"E_COORD97","N_COORD97":"N_COORD97","ADDRESS":"ADDRESS","OBJECTID":"OBJECTID"},"geometryType":"esriGeometryPoint","spatialReference":{"wkid":102443,"latestWkid":3826},"fields":[{"name":"ID","type":"esriFieldTypeDouble","alias":"ID"},{"name":"DIS_CODE","type":"esriFieldTypeInteger","alias":"DIS_CODE"},{"name":"TOWNNAME","type":"esriFieldTypeString","alias":"TOWNNAME","length":8},{"name":"LI","type":"esriFieldTypeString","alias":"LI","length":8},{"name":"LIN","type":"esriFieldTypeString","alias":"LIN","length":12},{"name":"STREET","type":"esriFieldTypeString","alias":"STREET","length":20},{"name":"SECT","type":"esriFieldTypeString","alias":"SECT","length":8},{"name":"MAREA","type":"esriFieldTypeString","alias":"MAREA","length":12},{"name":"LANE","type":"esriFieldTypeString","alias":"LANE","length":10},{"name":"ALLEY","type":"esriFieldTypeString","alias":"ALLEY","length":10},{"name":"HOUSE_NO","type":"esriFieldTypeString","alias":"HOUSE_NO","length":20},{"name":"E_COORD97","type":"esriFieldTypeDouble","alias":"E_COORD97"},{"name":"N_COORD97","type":"esriFieldTypeDouble","alias":"N_COORD97"},{"name":"ADDRESS","type":"esriFieldTypeString","alias":"ADDRESS","length":50},{"name":"OBJECTID","type":"esriFieldTypeOID","alias":"OBJECTID"}],"features":[{"attributes":{"ID":502828,"DIS_CODE":0,"TOWNNAME":"北區","LI":"賢北里","LIN":"7鄰","STREET":"和緯路","SECT":"五段","MAREA":" ","LANE":" ","ALLEY":" ","HOUSE_NO":"２２４號","E_COORD97":166093.35000000001,"N_COORD97":2545093.2999999998,"ADDRESS":"和緯路五段２２４號","OBJECTID":502801},"geometry":{"x":166093.35000000149,"y":2545093.3000000007}},{"attributes":{"ID":502829,"DIS_CODE":0,"TOWNNAME":"北區","LI":"賢北里","LIN":"7鄰","STREET":"和緯路","SECT":"五段","MAREA":" ","LANE":" ","ALLEY":" ","HOUSE_NO":"２２６號","E_COORD97":166088.81,"N_COORD97":2545093.2999999998,"ADDRESS":"和緯路五段２２６號","OBJECTID":502802},"geometry":{"x":166088.81000000052,"y":2545093.3000000007}},{"attributes":{"ID":502830,"DIS_CODE":0,"TOWNNAME":"北區","LI":"賢北里","LIN":"7鄰","STREET":"和緯路","SECT":"五段","MAREA":" ","LANE":" ","ALLEY":" ","HOUSE_NO":"２２８號","E_COORD97":166085.13,"N_COORD97":2545093.52,"ADDRESS":"和緯路五段２２８號","OBJECTID":502803},"geometry":{"x":166085.13000000082,"y":2545093.5199999996}},{"attributes":{"ID":502831,"DIS_CODE":0,"TOWNNAME":"北區","LI":"賢北里","LIN":"7鄰","STREET":"和緯路","SECT":"五段","MAREA":" ","LANE":" ","ALLEY":" ","HOUSE_NO":"２３０號","E_COORD97":166079.94,"N_COORD97":2545094.1600000001,"ADDRESS":"和緯路五段２３０號","OBJECTID":502804},"geometry":{"x":166079.94000000227,"y":2545094.1600000001}},{"attributes":{"ID":502832,"DIS_CODE":0,"TOWNNAME":"北區","LI":"賢北里","LIN":"7鄰","STREET":"和緯路","SECT":"五段","MAREA":" ","LANE":" ","ALLEY":" ","HOUSE_NO":"２３２號","E_COORD97":166074.97,"N_COORD97":2545095.0299999998,"ADDRESS":"和緯路五段２３２號","OBJECTID":502805},"geometry":{"x":166074.96999999974,"y":2545095.0300000012}},{"attributes":{"ID":502833,"DIS_CODE":0,"TOWNNAME":"安平區","LI":"國平里","LIN":"7鄰","STREET":"建平三街","SECT":" ","MAREA":" ","LANE":" ","ALLEY":" ","HOUSE_NO":"２０２號","E_COORD97":165437.29999999999,"N_COORD97":2542975.2799999998,"ADDRESS":"建平三街２０２號","OBJECTID":502806},"geometry":{"x":165437.29999999981,"y":2542975.2800000012}},{"attributes":{"ID":502834,"DIS_CODE":0,"TOWNNAME":"安平區","LI":"華平里","LIN":"7鄰","STREET":"華平路","SECT":" ","MAREA":" ","LANE":" ","ALLEY":" ","HOUSE_NO":"５１５號","E_COORD97":165455.98999999999,"N_COORD97":2543839.3300000001,"ADDRESS":"華平路５１５號","OBJECTID":502807},"geometry":{"x":165455.99000000115,"y":2543839.3300000019}},{"attributes":{"ID":502835,"DIS_CODE":0,"TOWNNAME":"安平區","LI":"漁光里","LIN":"7鄰","STREET":"漁光路","SECT":" ","MAREA":" ","LANE":" ","ALLEY":" ","HOUSE_NO":"３００號","E_COORD97":162968.54999999999,"N_COORD97":2543184.8799999999,"ADDRESS":"漁光路３００號","OBJECTID":502808},"geometry":{"x":162968.55000000075,"y":2543184.879999999}},{"attributes":{"ID":502836,"DIS_CODE":0,"TOWNNAME":"安平區","LI":"建平里","LIN":"7鄰","STREET":"建平路","SECT":" ","MAREA":" ","LANE":" ","ALLEY":" ","HOUSE_NO":"６８６號","E_COORD97":166370.97,"N_COORD97":2544107.0800000001,"ADDRESS":"建平路６８６號","OBJECTID":502809},"geometry":{"x":166370.97000000067,"y":2544107.0800000001}},{"attributes":{"ID":502837,"DIS_CODE":0,"TOWNNAME":"安平區","LI":"建平里","LIN":"7鄰","STREET":"建平路","SECT":" ","MAREA":" ","LANE":" ","ALLEY":" ","HOUSE_NO":"６８８號","E_COORD97":166372.56,"N_COORD97":2544111.1499999999,"ADDRESS":"建平路６８８號","OBJECTID":502810},"geometry":{"x":166372.55999999959,"y":2544111.1500000004}},{"attributes":{"ID":502838,"DIS_CODE":0,"TOWNNAME":"安平區","LI":"建平里","LIN":"7鄰","STREET":"建平路","SECT":" ","MAREA":" ","LANE":" ","ALLEY":" ","HOUSE_NO":"６９０號","E_COORD97":166373.62,"N_COORD97":2544114.9900000002,"ADDRESS":"建平路６９０號","OBJECTID":502811},"geometry":{"x":166373.62000000104,"y":2544114.9900000002}},{"attributes":{"ID":502839,"DIS_CODE":0,"TOWNNAME":"安平區","LI":"建平里","LIN":"7鄰","STREET":"建平路","SECT":" ","MAREA":" ","LANE":" ","ALLEY":" ","HOUSE_NO":"６９２號","E_COORD97":166374.14999999999,"N_COORD97":2544118.5600000001,"ADDRESS":"建平路６９２號","OBJECTID":502812},"geometry":{"x":166374.1500000013,"y":2544118.5600000005}},{"attributes":{"ID":502840,"DIS_CODE":0,"TOWNNAME":"安平區","LI":"建平里","LIN":"7鄰","STREET":"建平路","SECT":" ","MAREA":" ","LANE":" ","ALLEY":" ","HOUSE_NO":"６９６號","E_COORD97":166375.20999999999,"N_COORD97":2544122.6600000001,"ADDRESS":"建平路６９６號","OBJECTID":502813},"geometry":{"x":166375.20999999996,"y":2544122.660000002}},{"attributes":{"ID":502841,"DIS_CODE":0,"TOWNNAME":"安平區","LI":"建平里","LIN":"7鄰","STREET":"建平路","SECT":" ","MAREA":" ","LANE":" ","ALLEY":" ","HOUSE_NO":"６９８號","E_COORD97":166376.79000000001,"N_COORD97":2544127.1600000001,"ADDRESS":"建平路６９８號","OBJECTID":502814},"geometry":{"x":166376.79000000004,"y":2544127.1600000001}},{"attributes":{"ID":502842,"DIS_CODE":0,"TOWNNAME":"安平區","LI":"建平里","LIN":"7鄰","STREET":"建平路","SECT":" ","MAREA":" ","LANE":" ","ALLEY":" ","HOUSE_NO":"７００號","E_COORD97":166376.79000000001,"N_COORD97":2544130.8599999999,"ADDRESS":"建平路７００號","OBJECTID":502815},"geometry":{"x":166376.79000000004,"y":2544130.8600000013}},{"attributes":{"ID":502843,"DIS_CODE":0,"TOWNNAME":"安平區","LI":"建平里","LIN":"7鄰","STREET":"建平路","SECT":" ","MAREA":" ","LANE":" ","ALLEY":" ","HOUSE_NO":"７０２號","E_COORD97":166377.59,"N_COORD97":2544135.6200000001,"ADDRESS":"建平路７０２號","OBJECTID":502816},"geometry":{"x":166377.58999999985,"y":2544135.620000001}},{"attributes":{"ID":502844,"DIS_CODE":0,"TOWNNAME":"安平區","LI":"建平里","LIN":"7鄰","STREET":"建平路","SECT":" ","MAREA":" ","LANE":" ","ALLEY":" ","HOUSE_NO":"７０６號","E_COORD97":166379.31,"N_COORD97":2544140.9199999999,"ADDRESS":"建平路７０６號","OBJECTID":502817},"geometry":{"x":166379.30999999959,"y":2544140.9200000018}},{"attributes":{"ID":502845,"DIS_CODE":0,"TOWNNAME":"安平區","LI":"建平里","LIN":"7鄰","STREET":"建平路","SECT":" ","MAREA":" ","LANE":" ","ALLEY":" ","HOUSE_NO":"７０８號","E_COORD97":166381.29000000001,"N_COORD97":2544144.75,"ADDRESS":"建平路７０８號","OBJECTID":502818},"geometry":{"x":166381.29000000097,"y":2544144.7500000037}},{"attributes":{"ID":502846,"DIS_CODE":0,"TOWNNAME":"安平區","LI":"建平里","LIN":"7鄰","STREET":"建平十六街","SECT":" ","MAREA":" ","LANE":" ","ALLEY":" ","HOUSE_NO":"１０１號","E_COORD97":166416.35000000001,"N_COORD97":2544142.3700000001,"ADDRESS":"建平十六街１０１號","OBJECTID":502819},"geometry":{"x":166416.34999999963,"y":2544142.3700000029}},{"attributes":{"ID":502847,"DIS_CODE":0,"TOWNNAME":"安平區","LI":"建平里","LIN":"7鄰","STREET":"建平十六街","SECT":" ","MAREA":" ","LANE":" ","ALLEY":" ","HOUSE_NO":"１０３號","E_COORD97":166410.79000000001,"N_COORD97":2544143.5600000001,"ADDRESS":"建平十六街１０３號","OBJECTID":502820},"geometry":{"x":166410.79000000004,"y":2544143.5600000024}},{"attributes":{"ID":502848,"DIS_CODE":0,"TOWNNAME":"安平區","LI":"建平里","LIN":"7鄰","STREET":"建平十六街","SECT":" ","MAREA":" ","LANE":" ","ALLEY":" ","HOUSE_NO":"１０５號","E_COORD97":166405.63,"N_COORD97":2544144.4900000002,"ADDRESS":"建平十六街１０５號","OBJECTID":502821},"geometry":{"x":166405.63000000082,"y":2544144.4900000021}},{"attributes":{"ID":502849,"DIS_CODE":0,"TOWNNAME":"安平區","LI":"建平里","LIN":"7鄰","STREET":"建平十六街","SECT":" ","MAREA":" ","LANE":" ","ALLEY":" ","HOUSE_NO":"１０７號","E_COORD97":166400.20999999999,"N_COORD97":2544144.8799999999,"ADDRESS":"建平十六街１０７號","OBJECTID":502822},"geometry":{"x":166400.21000000089,"y":2544144.879999999}},{"attributes":{"ID":502850,"DIS_CODE":0,"TOWNNAME":"安平區","LI":"億載里","LIN":"7鄰","STREET":"光州六街","SECT":" ","MAREA":" ","LANE":" ","ALLEY":" ","HOUSE_NO":"１３６號","E_COORD97":164078.13,"N_COORD97":2543548.73,"ADDRESS":"光州六街１３６號","OBJECTID":502823},"geometry":{"x":164078.13000000082,"y":2543548.7300000042}},{"attributes":{"ID":502851,"DIS_CODE":0,"TOWNNAME":"安平區","LI":"億載里","LIN":"7鄰","STREET":"光州六街","SECT":" ","MAREA":" ","LANE":" ","ALLEY":" ","HOUSE_NO":"１３８號","E_COORD97":164069.72,"N_COORD97":2543548.2799999998,"ADDRESS":"光州六街１３８號","OBJECTID":502824},"geometry":{"x":164069.71999999974,"y":2543548.2800000012}},{"attributes":{"ID":502852,"DIS_CODE":0,"TOWNNAME":"安平區","LI":"億載里","LIN":"7鄰","STREET":"永華十一街","SECT":" ","MAREA":" ","LANE":" ","ALLEY":" ","HOUSE_NO":"７３號","E_COORD97":164086.98999999999,"N_COORD97":2543556.3999999999,"ADDRESS":"永華十一街７３號","OBJECTID":502825},"geometry":{"x":164086.99000000022,"y":2543556.4000000004}},{"attributes":{"ID":502853,"DIS_CODE":0,"TOWNNAME":"安平區","LI":"石門里","LIN":"10鄰","STREET":"安北路","SECT":" ","MAREA":" ","LANE":" ","ALLEY":" ","HOUSE_NO":"１９號","E_COORD97":164628.48999999999,"N_COORD97":2544508.8300000001,"ADDRESS":"安北路１９號","OBJECTID":502826},"geometry":{"x":164628.49000000115,"y":2544508.8300000001}},{"attributes":{"ID":502854,"DIS_CODE":0,"TOWNNAME":"安平區","LI":"億載里","LIN":"7鄰","STREET":"永華十一街","SECT":" ","MAREA":" ","LANE":" ","ALLEY":" ","HOUSE_NO":"７５號","E_COORD97":164086.98999999999,"N_COORD97":2543560.3700000001,"ADDRESS":"永華十一街７５號","OBJECTID":502827},"geometry":{"x":164086.99000000022,"y":2543560.370000001}},{"attributes":{"ID":502855,"DIS_CODE":0,"TOWNNAME":"安平區","LI":"億載里","LIN":"7鄰","STREET":"永華十一街","SECT":" ","MAREA":" ","LANE":" ","ALLEY":" ","HOUSE_NO":"７７號","E_COORD97":164086.32999999999,"N_COORD97":2543564.0699999998,"ADDRESS":"永華十一街７７號","OBJECTID":502828},"geometry":{"x":164086.33000000007,"y":2543564.0700000022}},{"attributes":{"ID":502856,"DIS_CODE":0,"TOWNNAME":"安平區","LI":"億載里","LIN":"7鄰","STREET":"永華十一街","SECT":" ","MAREA":" ","LANE":" ","ALLEY":" ","HOUSE_NO":"７９號","E_COORD97":164085.54000000001,"N_COORD97":2543568.9700000002,"ADDRESS":"永華十一街７９號","OBJECTID":502829},"geometry":{"x":164085.54000000097,"y":2543568.9700000025}},{"attributes":{"ID":502857,"DIS_CODE":0,"TOWNNAME":"安平區","LI":"億載里","LIN":"7鄰","STREET":"光州六街","SECT":" ","MAREA":" ","LANE":" ","ALLEY":" ","HOUSE_NO":"１４０號","E_COORD97":164061.51999999999,"N_COORD97":2543548.4100000001,"ADDRESS":"光州六街１４０號","OBJECTID":502830},"geometry":{"x":164061.52000000048,"y":2543548.410000002}},{"attributes":{"ID":502858,"DIS_CODE":0,"TOWNNAME":"安平區","LI":"億載里","LIN":"7鄰","STREET":"光州六街","SECT":" ","MAREA":" ","LANE":" ","ALLEY":" ","HOUSE_NO":"１４２號","E_COORD97":164053.97,"N_COORD97":2543548.54,"ADDRESS":"光州六街１４２號","OBJECTID":502831},"geometry":{"x":164053.97000000067,"y":2543548.5400000028}},{"attributes":{"ID":502859,"DIS_CODE":0,"TOWNNAME":"安平區","LI":"億載里","LIN":"7鄰","STREET":"光州六街","SECT":" ","MAREA":" ","LANE":" ","ALLEY":" ","HOUSE_NO":"１４６號","E_COORD97":164046.29999999999,"N_COORD97":2543547.0800000001,"ADDRESS":"光州六街１４６號","OBJECTID":502832},"geometry":{"x":164046.30000000075,"y":2543547.0800000019}},{"attributes":{"ID":502860,"DIS_CODE":0,"TOWNNAME":"安平區","LI":"億載里","LIN":"7鄰","STREET":"光州六街","SECT":" ","MAREA":" ","LANE":" ","ALLEY":" ","HOUSE_NO":"１４８號","E_COORD97":164037.17000000001,"N_COORD97":2543545.1000000001,"ADDRESS":"光州六街１４８號","OBJECTID":502833},"geometry":{"x":164037.17000000086,"y":2543545.1000000034}},{"attributes":{"ID":502861,"DIS_CODE":0,"TOWNNAME":"安平區","LI":"億載里","LIN":"7鄰","STREET":"光州六街","SECT":" ","MAREA":" ","LANE":" ","ALLEY":" ","HOUSE_NO":"１７２號","E_COORD97":163947.29000000001,"N_COORD97":2543541.3199999998,"ADDRESS":"光州六街１７２號","OBJECTID":502834},"geometry":{"x":163947.29000000004,"y":2543541.3200000022}},{"attributes":{"ID":502862,"DIS_CODE":0,"TOWNNAME":"安平區","LI":"億載里","LIN":"7鄰","STREET":"光州六街","SECT":" ","MAREA":" ","LANE":" ","ALLEY":" ","HOUSE_NO":"１６６號","E_COORD97":163967.06,"N_COORD97":2543541.1299999999,"ADDRESS":"光州六街１６６號","OBJECTID":502835},"geometry":{"x":163967.05999999959,"y":2543541.1300000008}},{"attributes":{"ID":502863,"DIS_CODE":0,"TOWNNAME":"安平區","LI":"億載里","LIN":"7鄰","STREET":"光州六街","SECT":" ","MAREA":" ","LANE":" ","ALLEY":" ","HOUSE_NO":"１６８號","E_COORD97":163959.78,"N_COORD97":2543541.1299999999,"ADDRESS":"光州六街１６８號","OBJECTID":502836},"geometry":{"x":163959.78000000026,"y":2543541.1300000008}},{"attributes":{"ID":502864,"DIS_CODE":0,"TOWNNAME":"安平區","LI":"億載里","LIN":"7鄰","STREET":"光州六街","SECT":" ","MAREA":" ","LANE":" ","ALLEY":" ","HOUSE_NO":"１６２號","E_COORD97":163976.85000000001,"N_COORD97":2543543.3799999999,"ADDRESS":"光州六街１６２號","OBJECTID":502837},"geometry":{"x":163976.84999999963,"y":2543543.3800000008}},{"attributes":{"ID":502865,"DIS_CODE":0,"TOWNNAME":"安平區","LI":"億載里","LIN":"7鄰","STREET":"光州六街","SECT":" ","MAREA":" ","LANE":" ","ALLEY":" ","HOUSE_NO":"１５８號","E_COORD97":163997.35000000001,"N_COORD97":2543544.1699999999,"ADDRESS":"光州六街１５８號","OBJECTID":502838},"geometry":{"x":163997.34999999963,"y":2543544.1699999999}},{"attributes":{"ID":502866,"DIS_CODE":0,"TOWNNAME":"安平區","LI":"億載里","LIN":"7鄰","STREET":"光州六街","SECT":" ","MAREA":" ","LANE":" ","ALLEY":" ","HOUSE_NO":"１５６號","E_COORD97":164008.20000000001,"N_COORD97":2543544.4399999999,"ADDRESS":"光州六街１５６號","OBJECTID":502839},"geometry":{"x":164008.20000000205,"y":2543544.4399999995}},{"attributes":{"ID":502867,"DIS_CODE":0,"TOWNNAME":"安平區","LI":"億載里","LIN":"7鄰","STREET":"光州六街","SECT":" ","MAREA":" ","LANE":" ","ALLEY":" ","HOUSE_NO":"１５２號","E_COORD97":164021.03,"N_COORD97":2543543.7799999998,"ADDRESS":"光州六街１５２號","OBJECTID":502840},"geometry":{"x":164021.03000000026,"y":2543543.7800000031}},{"attributes":{"ID":502868,"DIS_CODE":0,"TOWNNAME":"安平區","LI":"億載里","LIN":"7鄰","STREET":"光州六街","SECT":" ","MAREA":" ","LANE":" ","ALLEY":" ","HOUSE_NO":"１５０號","E_COORD97":164029.5,"N_COORD97":2543544.7000000002,"ADDRESS":"光州六街１５０號","OBJECTID":502841},"geometry":{"x":164029.49999999907,"y":2543544.7000000011}},{"attributes":{"ID":502869,"DIS_CODE":0,"TOWNNAME":"安平區","LI":"華平里","LIN":"7鄰","STREET":"華平路","SECT":" ","MAREA":" ","LANE":" ","ALLEY":" ","HOUSE_NO":"６０３號","E_COORD97":165487.42999999999,"N_COORD97":2544072.3700000001,"ADDRESS":"華平路６０３號","OBJECTID":502842},"geometry":{"x":165487.4299999997,"y":2544072.370000001}},{"attributes":{"ID":502870,"DIS_CODE":0,"TOWNNAME":"安平區","LI":"華平里","LIN":"7鄰","STREET":"華平路","SECT":" ","MAREA":" ","LANE":" ","ALLEY":" ","HOUSE_NO":"５１１號","E_COORD97":165455.51999999999,"N_COORD97":2543833.77,"ADDRESS":"華平路５１１號","OBJECTID":502843},"geometry":{"x":165455.51999999955,"y":2543833.7700000014}},{"attributes":{"ID":502871,"DIS_CODE":0,"TOWNNAME":"安平區","LI":"華平里","LIN":"7鄰","STREET":"華平路","SECT":" ","MAREA":" ","LANE":" ","ALLEY":" ","HOUSE_NO":"５４５之１號","E_COORD97":165461.88,"N_COORD97":2543912.0699999998,"ADDRESS":"華平路５４５之１號","OBJECTID":502844},"geometry":{"x":165461.87999999989,"y":2543912.070000004}},{"attributes":{"ID":502872,"DIS_CODE":0,"TOWNNAME":"安平區","LI":"建平里","LIN":"7鄰","STREET":"府前四街","SECT":" ","MAREA":" ","LANE":" ","ALLEY":" ","HOUSE_NO":"９０號","E_COORD97":166460.92000000001,"N_COORD97":2543959.25,"ADDRESS":"府前四街９０號","OBJECTID":502845},"geometry":{"x":166460.92000000179,"y":2543959.2500000019}},{"attributes":{"ID":502873,"DIS_CODE":0,"TOWNNAME":"安平區","LI":"建平里","LIN":"7鄰","STREET":"府前四街","SECT":" ","MAREA":" ","LANE":" ","ALLEY":" ","HOUSE_NO":"１２８號","E_COORD97":166474.70000000001,"N_COORD97":2544060.6200000001,"ADDRESS":"府前四街１２８號","OBJECTID":502846},"geometry":{"x":166474.70000000205,"y":2544060.620000001}},{"attributes":{"ID":502874,"DIS_CODE":0,"TOWNNAME":"新營區","LI":"新南里","LIN":"7鄰","STREET":"新北街","SECT":" ","MAREA":" ","LANE":" ","ALLEY":" ","HOUSE_NO":"２２５號","E_COORD97":178628.03,"N_COORD97":2579116.3799999999,"ADDRESS":"新北街２２５號","OBJECTID":502847},"geometry":{"x":178628.03000000026,"y":2579116.379999999}},{"attributes":{"ID":502875,"DIS_CODE":0,"TOWNNAME":"新營區","LI":"民生里","LIN":"7鄰","STREET":"中華路","SECT":" ","MAREA":" ","LANE":" ","ALLEY":" ","HOUSE_NO":"８１號之７","E_COORD97":179339.64000000001,"N_COORD97":2578152.8700000001,"ADDRESS":"中華路８１號之７","OBJECTID":502848},"geometry":{"x":179339.6400000006,"y":2578152.870000001}},{"attributes":{"ID":502876,"DIS_CODE":0,"TOWNNAME":"新營區","LI":"民生里","LIN":"7鄰","STREET":"民生路","SECT":" ","MAREA":" ","LANE":" ","ALLEY":" ","HOUSE_NO":"１５號之７","E_COORD97":179359.26000000001,"N_COORD97":2578204.8300000001,"ADDRESS":"民生路１５號之７","OBJECTID":502849},"geometry":{"x":179359.26000000071,"y":2578204.8300000019}},{"attributes":{"ID":502877,"DIS_CODE":0,"TOWNNAME":"新營區","LI":"大宏里","LIN":"7鄰","STREET":"同濟街","SECT":" ","MAREA":" ","LANE":" ","ALLEY":" ","HOUSE_NO":"９４號","E_COORD97":180474.85999999999,"N_COORD97":2578450.8700000001,"ADDRESS":"同濟街９４號","OBJECTID":502850},"geometry":{"x":180474.86000000127,"y":2578450.870000001}},{"attributes":{"ID":502878,"DIS_CODE":0,"TOWNNAME":"新營區","LI":"民生里","LIN":"7鄰","STREET":"民生路","SECT":" ","MAREA":" ","LANE":" ","ALLEY":" ","HOUSE_NO":"１７之１號","E_COORD97":179354.17999999999,"N_COORD97":2578214.8199999998,"ADDRESS":"民生路１７之１號","OBJECTID":502851},"geometry":{"x":179354.18000000156,"y":2578214.8200000022}},{"attributes":{"ID":502879,"DIS_CODE":0,"TOWNNAME":"新營區","LI":"南興里","LIN":"7鄰","STREET":"和平路","SECT":" ","MAREA":" ","LANE":" ","ALLEY":" ","HOUSE_NO":"９３號","E_COORD97":179421.45999999999,"N_COORD97":2577623.0499999998,"ADDRESS":"和平路９３號","OBJECTID":502852},"geometry":{"x":179421.45999999996,"y":2577623.0500000007}},{"attributes":{"ID":502880,"DIS_CODE":0,"TOWNNAME":"新營區","LI":"延平里","LIN":"7鄰","STREET":"復興路","SECT":" ","MAREA":" ","LANE":" ","ALLEY":" ","HOUSE_NO":"１之３６號","E_COORD97":179664.78,"N_COORD97":2577923.1899999999,"ADDRESS":"復興路１之３６號","OBJECTID":502853},"geometry":{"x":179664.78000000119,"y":2577923.1900000013}},{"attributes":{"ID":502881,"DIS_CODE":0,"TOWNNAME":"新營區","LI":"三仙里","LIN":"7鄰","STREET":"民權路","SECT":" ","MAREA":" ","LANE":" ","ALLEY":" ","HOUSE_NO":"２５之２號","E_COORD97":179720.17999999999,"N_COORD97":2578158.8100000001,"ADDRESS":"民權路２５之２號","OBJECTID":502854},"geometry":{"x":179720.1799999997,"y":2578158.8100000005}},{"attributes":{"ID":502882,"DIS_CODE":0,"TOWNNAME":"新營區","LI":"延平里","LIN":"7鄰","STREET":"復興路","SECT":" ","MAREA":" ","LANE":" ","ALLEY":" ","HOUSE_NO":"１之３５號","E_COORD97":179662.72,"N_COORD97":2577920.98,"ADDRESS":"復興路１之３５號","OBJECTID":502855},"geometry":{"x":179662.72000000067,"y":2577920.9800000004}},{"attributes":{"ID":502883,"DIS_CODE":0,"TOWNNAME":"新營區","LI":"延平里","LIN":"7鄰","STREET":"復興路","SECT":" ","MAREA":" ","LANE":" ","ALLEY":" ","HOUSE_NO":"１之３９號","E_COORD97":179670.94,"N_COORD97":2577928.6899999999,"ADDRESS":"復興路１之３９號","OBJECTID":502856},"geometry":{"x":179670.94000000134,"y":2577928.6899999995}},{"attributes":{"ID":502884,"DIS_CODE":0,"TOWNNAME":"新營區","LI":"延平里","LIN":"7鄰","STREET":"復興路","SECT":" ","MAREA":" ","LANE":" ","ALLEY":" ","HOUSE_NO":"１之２９號","E_COORD97":179691.48000000001,"N_COORD97":2577945.21,"ADDRESS":"復興路１之２９號","OBJECTID":502857},"geometry":{"x":179691.48000000045,"y":2577945.2100000028}},{"attributes":{"ID":502885,"DIS_CODE":0,"TOWNNAME":"新營區","LI":"永生里","LIN":"7鄰","STREET":"康樂街","SECT":" ","MAREA":" ","LANE":" ","ALLEY":" ","HOUSE_NO":"２之７號","E_COORD97":180078.95000000001,"N_COORD97":2577934.5099999998,"ADDRESS":"康樂街２之７號","OBJECTID":502858},"geometry":{"x":180078.95000000112,"y":2577934.5100000035}},{"attributes":{"ID":502886,"DIS_CODE":0,"TOWNNAME":"新營區","LI":"永生里","LIN":"7鄰","STREET":"康樂街","SECT":" ","MAREA":" ","LANE":" ","ALLEY":" ","HOUSE_NO":"２之１號","E_COORD97":180106.59,"N_COORD97":2577938.8100000001,"ADDRESS":"康樂街２之１號","OBJECTID":502859},"geometry":{"x":180106.59000000078,"y":2577938.8100000005}},{"attributes":{"ID":502887,"DIS_CODE":0,"TOWNNAME":"北區","LI":"延平里","LIN":"7鄰","STREET":"公園路","SECT":" ","MAREA":" ","LANE":" ","ALLEY":" ","HOUSE_NO":"７５０號之６","E_COORD97":169277.72,"N_COORD97":2545630.9700000002,"ADDRESS":"公園路７５０號之６","OBJECTID":502860},"geometry":{"x":169277.71999999881,"y":2545630.9700000007}},{"attributes":{"ID":502888,"DIS_CODE":0,"TOWNNAME":"北區","LI":"延平里","LIN":"7鄰","STREET":"公園路","SECT":" ","MAREA":" ","LANE":" ","ALLEY":" ","HOUSE_NO":"７５２號","E_COORD97":169129.53,"N_COORD97":2545681.0299999998,"ADDRESS":"公園路７５２號","OBJECTID":502861},"geometry":{"x":169129.53000000119,"y":2545681.0299999975}},{"attributes":{"ID":502889,"DIS_CODE":0,"TOWNNAME":"北區","LI":"延平里","LIN":"7鄰","STREET":"公園路","SECT":" ","MAREA":" ","LANE":" ","ALLEY":" ","HOUSE_NO":"７５４號","E_COORD97":169130.92999999999,"N_COORD97":2545687.3399999999,"ADDRESS":"公園路７５４號","OBJECTID":502862},"geometry":{"x":169130.93000000063,"y":2545687.3400000017}},{"attributes":{"ID":502890,"DIS_CODE":0,"TOWNNAME":"北區","LI":"延平里","LIN":"7鄰","STREET":"公園路","SECT":" ","MAREA":" ","LANE":" ","ALLEY":" ","HOUSE_NO":"７５６號","E_COORD97":169132.62,"N_COORD97":2545692.5899999999,"ADDRESS":"公園路７５６號","OBJECTID":502863},"geometry":{"x":169132.62000000011,"y":2545692.5900000017}},{"attributes":{"ID":502891,"DIS_CODE":0,"TOWNNAME":"北區","LI":"延平里","LIN":"7鄰","STREET":"公園路","SECT":" ","MAREA":" ","LANE":" ","ALLEY":" ","HOUSE_NO":"７６４號","E_COORD97":169127.82999999999,"N_COORD97":2545715.1600000001,"ADDRESS":"公園路７６４號","OBJECTID":502864},"geometry":{"x":169127.83000000007,"y":2545715.1600000039}},{"attributes":{"ID":502892,"DIS_CODE":0,"TOWNNAME":"北區","LI":"延平里","LIN":"7鄰","STREET":"公園路","SECT":" ","MAREA":" ","LANE":" ","ALLEY":" ","HOUSE_NO":"７８２號","E_COORD97":169142.29000000001,"N_COORD97":2545760.6299999999,"ADDRESS":"公園路７８２號","OBJECTID":502865},"geometry":{"x":169142.29000000097,"y":2545760.629999999}},{"attributes":{"ID":502893,"DIS_CODE":0,"TOWNNAME":"北區","LI":"延平里","LIN":"7鄰","STREET":"公園路","SECT":" ","MAREA":" ","LANE":" ","ALLEY":" ","HOUSE_NO":"７８６號","E_COORD97":169147.34,"N_COORD97":2545775.6299999999,"ADDRESS":"公園路７８６號","OBJECTID":502866},"geometry":{"x":169147.34000000078,"y":2545775.6300000008}},{"attributes":{"ID":502894,"DIS_CODE":0,"TOWNNAME":"安平區","LI":"華平里","LIN":"7鄰","STREET":"華平路","SECT":" ","MAREA":" ","LANE":" ","ALLEY":" ","HOUSE_NO":"５７３號","E_COORD97":165476.44,"N_COORD97":2543984.9500000002,"ADDRESS":"華平路５７３號","OBJECTID":502867},"geometry":{"x":165476.44000000227,"y":2543984.9499999993}},{"attributes":{"ID":502895,"DIS_CODE":0,"TOWNNAME":"安平區","LI":"華平里","LIN":"7鄰","STREET":"華平路","SECT":" ","MAREA":" ","LANE":" ","ALLEY":" ","HOUSE_NO":"５７５號","E_COORD97":165476.73000000001,"N_COORD97":2543989.0299999998,"ADDRESS":"華平路５７５號","OBJECTID":502868},"geometry":{"x":165476.73000000138,"y":2543989.0299999993}},{"attributes":{"ID":502896,"DIS_CODE":0,"TOWNNAME":"安平區","LI":"華平里","LIN":"7鄰","STREET":"華平路","SECT":" ","MAREA":" ","LANE":" ","ALLEY":" ","HOUSE_NO":"５７７號","E_COORD97":165477.75,"N_COORD97":2543993.8399999999,"ADDRESS":"華平路５７７號","OBJECTID":502869},"geometry":{"x":165477.75000000093,"y":2543993.8399999999}},{"attributes":{"ID":502897,"DIS_CODE":0,"TOWNNAME":"安平區","LI":"華平里","LIN":"7鄰","STREET":"華平路","SECT":" ","MAREA":" ","LANE":" ","ALLEY":" ","HOUSE_NO":"５７９號","E_COORD97":165478.34,"N_COORD97":2543999.96,"ADDRESS":"華平路５７９號","OBJECTID":502870},"geometry":{"x":165478.34000000078,"y":2543999.9600000028}},{"attributes":{"ID":502898,"DIS_CODE":0,"TOWNNAME":"北區","LI":"中樓里","LIN":"7鄰","STREET":"東豐路","SECT":" ","MAREA":" ","LANE":" ","ALLEY":" ","HOUSE_NO":"８９號","E_COORD97":169664.51999999999,"N_COORD97":2544936.96,"ADDRESS":"東豐路８９號","OBJECTID":502871},"geometry":{"x":169664.52000000048,"y":2544936.9600000009}},{"attributes":{"ID":502899,"DIS_CODE":0,"TOWNNAME":"北區","LI":"中樓里","LIN":"7鄰","STREET":"東豐路","SECT":" ","MAREA":" ","LANE":" ","ALLEY":" ","HOUSE_NO":"９９號","E_COORD97":169699.84,"N_COORD97":2544931.3799999999,"ADDRESS":"東豐路９９號","OBJECTID":502872},"geometry":{"x":169699.84000000078,"y":2544931.379999999}},{"attributes":{"ID":502900,"DIS_CODE":0,"TOWNNAME":"南區","LI":"建南里","LIN":"7鄰","STREET":"中華南路","SECT":"二段","MAREA":" ","LANE":" ","ALLEY":" ","HOUSE_NO":"１２９號","E_COORD97":167158.81,"N_COORD97":2540252.3500000001,"ADDRESS":"中華南路二段１２９號","OBJECTID":502873},"geometry":{"x":167158.81000000052,"y":2540252.3500000015}},{"attributes":{"ID":502901,"DIS_CODE":0,"TOWNNAME":"南區","LI":"建南里","LIN":"7鄰","STREET":"中華南路","SECT":"二段","MAREA":" ","LANE":" ","ALLEY":" ","HOUSE_NO":"１３１號","E_COORD97":167155.20999999999,"N_COORD97":2540251.5499999998,"ADDRESS":"中華南路二段１３１號","OBJECTID":502874},"geometry":{"x":167155.20999999996,"y":2540251.5500000026}},{"attributes":{"ID":502902,"DIS_CODE":0,"TOWNNAME":"南區","LI":"建南里","LIN":"7鄰","STREET":"中華南路","SECT":"二段","MAREA":" ","LANE":" ","ALLEY":" ","HOUSE_NO":"１３３號","E_COORD97":167151.04999999999,"N_COORD97":2540250.5099999998,"ADDRESS":"中華南路二段１３３號","OBJECTID":502875},"geometry":{"x":167151.04999999981,"y":2540250.5100000035}},{"attributes":{"ID":502903,"DIS_CODE":0,"TOWNNAME":"南區","LI":"建南里","LIN":"7鄰","STREET":"中華南路","SECT":"二段","MAREA":" ","LANE":" ","ALLEY":" ","HOUSE_NO":"１３５號","E_COORD97":167145.92999999999,"N_COORD97":2540249.3199999998,"ADDRESS":"中華南路二段１３５號","OBJECTID":502876},"geometry":{"x":167145.93000000063,"y":2540249.3200000022}},{"attributes":{"ID":502904,"DIS_CODE":0,"TOWNNAME":"南區","LI":"建南里","LIN":"7鄰","STREET":"中華南路","SECT":"二段","MAREA":" ","LANE":" ","ALLEY":" ","HOUSE_NO":"１３７號","E_COORD97":167141.85000000001,"N_COORD97":2540248.3599999999,"ADDRESS":"中華南路二段１３７號","OBJECTID":502877},"geometry":{"x":167141.84999999963,"y":2540248.3600000013}},{"attributes":{"ID":502905,"DIS_CODE":0,"TOWNNAME":"南區","LI":"建南里","LIN":"7鄰","STREET":"中華南路","SECT":"二段","MAREA":" ","LANE":" ","ALLEY":" ","HOUSE_NO":"１４１號","E_COORD97":167133.69,"N_COORD97":2540246.9199999999,"ADDRESS":"中華南路二段１４１號","OBJECTID":502878},"geometry":{"x":167133.69000000041,"y":2540246.9199999999}},{"attributes":{"ID":502906,"DIS_CODE":0,"TOWNNAME":"南區","LI":"建南里","LIN":"7鄰","STREET":"中華南路","SECT":"二段","MAREA":" ","LANE":" ","ALLEY":" ","HOUSE_NO":"１４３號","E_COORD97":167129.20999999999,"N_COORD97":2540245.8799999999,"ADDRESS":"中華南路二段１４３號","OBJECTID":502879},"geometry":{"x":167129.21000000089,"y":2540245.879999999}},{"attributes":{"ID":502907,"DIS_CODE":0,"TOWNNAME":"南區","LI":"建南里","LIN":"7鄰","STREET":"中華南路","SECT":"二段","MAREA":" ","LANE":" ","ALLEY":" ","HOUSE_NO":"１４５號","E_COORD97":167125.04999999999,"N_COORD97":2540245,"ADDRESS":"中華南路二段１４５號","OBJECTID":502880},"geometry":{"x":167125.05000000075,"y":2540245.0000000019}},{"attributes":{"ID":502908,"DIS_CODE":0,"TOWNNAME":"南區","LI":"建南里","LIN":"7鄰","STREET":"中華南路","SECT":"二段","MAREA":" ","LANE":" ","ALLEY":" ","HOUSE_NO":"１６７號","E_COORD97":167077.56,"N_COORD97":2540235.6200000001,"ADDRESS":"中華南路二段１６７號","OBJECTID":502881},"geometry":{"x":167077.55999999959,"y":2540235.6200000029}},{"attributes":{"ID":502909,"DIS_CODE":0,"TOWNNAME":"南區","LI":"建南里","LIN":"7鄰","STREET":"中華南路","SECT":"二段","MAREA":" ","LANE":" ","ALLEY":" ","HOUSE_NO":"１６９號","E_COORD97":167073.07999999999,"N_COORD97":2540234.7400000002,"ADDRESS":"中華南路二段１６９號","OBJECTID":502882},"geometry":{"x":167073.08000000007,"y":2540234.7400000002}},{"attributes":{"ID":502910,"DIS_CODE":0,"TOWNNAME":"南區","LI":"建南里","LIN":"7鄰","STREET":"中華南路","SECT":"二段","MAREA":" ","LANE":" ","ALLEY":" ","HOUSE_NO":"１７１號","E_COORD97":167069.37,"N_COORD97":2540233.6000000001,"ADDRESS":"中華南路二段１７１號","OBJECTID":502883},"geometry":{"x":167069.37000000011,"y":2540233.6000000015}},{"attributes":{"ID":502911,"DIS_CODE":0,"TOWNNAME":"南區","LI":"建南里","LIN":"7鄰","STREET":"中華南路","SECT":"二段","MAREA":" ","LANE":" ","ALLEY":" ","HOUSE_NO":"１７３號","E_COORD97":167064.09,"N_COORD97":2540232.5600000001,"ADDRESS":"中華南路二段１７３號","OBJECTID":502884},"geometry":{"x":167064.08999999985,"y":2540232.5600000005}},{"attributes":{"ID":502912,"DIS_CODE":0,"TOWNNAME":"南區","LI":"建南里","LIN":"7鄰","STREET":"中華南路","SECT":"二段","MAREA":" ","LANE":" ","ALLEY":" ","HOUSE_NO":"１７５號","E_COORD97":167059.92999999999,"N_COORD97":2540229.4500000002,"ADDRESS":"中華南路二段１７５號","OBJECTID":502885},"geometry":{"x":167059.9299999997,"y":2540229.4499999993}},{"attributes":{"ID":502913,"DIS_CODE":0,"TOWNNAME":"北區","LI":"五福里","LIN":"7鄰","STREET":"長北街","SECT":" ","MAREA":" ","LANE":" ","ALLEY":" ","HOUSE_NO":"１３號","E_COORD97":168353.29000000001,"N_COORD97":2544471.0899999999,"ADDRESS":"長北街１３號","OBJECTID":502886},"geometry":{"x":168353.29000000004,"y":2544471.0900000036}},{"attributes":{"ID":502914,"DIS_CODE":0,"TOWNNAME":"北區","LI":"五福里","LIN":"7鄰","STREET":"長北街","SECT":" ","MAREA":" ","LANE":" ","ALLEY":" ","HOUSE_NO":"１５號","E_COORD97":168353.67999999999,"N_COORD97":2544474.7400000002,"ADDRESS":"長北街１５號","OBJECTID":502887},"geometry":{"x":168353.6799999997,"y":2544474.7400000021}},{"attributes":{"ID":502915,"DIS_CODE":0,"TOWNNAME":"北區","LI":"五福里","LIN":"7鄰","STREET":"長北街","SECT":" ","MAREA":" ","LANE":" ","ALLEY":" ","HOUSE_NO":"１７號","E_COORD97":168354.60000000001,"N_COORD97":2544478.7799999998,"ADDRESS":"長北街１７號","OBJECTID":502888},"geometry":{"x":168354.60000000149,"y":2544478.7799999993}},{"attributes":{"ID":502916,"DIS_CODE":0,"TOWNNAME":"北區","LI":"五福里","LIN":"7鄰","STREET":"長北街","SECT":" ","MAREA":" ","LANE":" ","ALLEY":" ","HOUSE_NO":"１９號","E_COORD97":168355.25,"N_COORD97":2544482.6800000002,"ADDRESS":"長北街１９號","OBJECTID":502889},"geometry":{"x":168355.25,"y":2544482.6799999997}},{"attributes":{"ID":502917,"DIS_CODE":0,"TOWNNAME":"北區","LI":"五福里","LIN":"7鄰","STREET":"長北街","SECT":" ","MAREA":" ","LANE":" ","ALLEY":" ","HOUSE_NO":"２３號","E_COORD97":168363.07999999999,"N_COORD97":2544501.04,"ADDRESS":"長北街２３號","OBJECTID":502890},"geometry":{"x":168363.08000000007,"y":2544501.0400000028}},{"attributes":{"ID":502918,"DIS_CODE":0,"TOWNNAME":"北區","LI":"五福里","LIN":"7鄰","STREET":"長北街","SECT":" ","MAREA":" ","LANE":" ","ALLEY":" ","HOUSE_NO":"２５號","E_COORD97":168365.03,"N_COORD97":2544504.9500000002,"ADDRESS":"長北街２５號","OBJECTID":502891},"geometry":{"x":168365.03000000119,"y":2544504.9499999993}},{"attributes":{"ID":502919,"DIS_CODE":0,"TOWNNAME":"北區","LI":"五福里","LIN":"7鄰","STREET":"長北街","SECT":" ","MAREA":" ","LANE":" ","ALLEY":" ","HOUSE_NO":"２７號","E_COORD97":168367.12,"N_COORD97":2544509.1200000001,"ADDRESS":"長北街２７號","OBJECTID":502892},"geometry":{"x":168367.12000000104,"y":2544509.1199999992}},{"attributes":{"ID":502920,"DIS_CODE":0,"TOWNNAME":"北區","LI":"五福里","LIN":"7鄰","STREET":"長北街","SECT":" ","MAREA":" ","LANE":" ","ALLEY":" ","HOUSE_NO":"２９號","E_COORD97":168368.81,"N_COORD97":2544513.6699999999,"ADDRESS":"長北街２９號","OBJECTID":502893},"geometry":{"x":168368.81000000052,"y":2544513.6699999999}},{"attributes":{"ID":502921,"DIS_CODE":0,"TOWNNAME":"北區","LI":"五福里","LIN":"7鄰","STREET":"長北街","SECT":" ","MAREA":" ","LANE":" ","ALLEY":" ","HOUSE_NO":"３１號","E_COORD97":168370.51000000001,"N_COORD97":2544518.23,"ADDRESS":"長北街３１號","OBJECTID":502894},"geometry":{"x":168370.50999999978,"y":2544518.2300000042}},{"attributes":{"ID":502922,"DIS_CODE":0,"TOWNNAME":"北區","LI":"五福里","LIN":"7鄰","STREET":"長北街","SECT":" ","MAREA":" ","LANE":" ","ALLEY":" ","HOUSE_NO":"３３號","E_COORD97":168372.07000000001,"N_COORD97":2544522.1400000001,"ADDRESS":"長北街３３號","OBJECTID":502895},"geometry":{"x":168372.0700000003,"y":2544522.1399999987}},{"attributes":{"ID":502923,"DIS_CODE":0,"TOWNNAME":"北區","LI":"五福里","LIN":"7鄰","STREET":"長北街","SECT":" ","MAREA":" ","LANE":" ","ALLEY":" ","HOUSE_NO":"３５號","E_COORD97":168373.25,"N_COORD97":2544525.9199999999,"ADDRESS":"長北街３５號","OBJECTID":502896},"geometry":{"x":168373.25000000093,"y":2544525.9199999999}},{"attributes":{"ID":502924,"DIS_CODE":0,"TOWNNAME":"北區","LI":"三德里","LIN":"7鄰","STREET":"成功路","SECT":" ","MAREA":" ","LANE":" ","ALLEY":" ","HOUSE_NO":"１３０號","E_COORD97":168482.04999999999,"N_COORD97":2544349.8900000001,"ADDRESS":"成功路１３０號","OBJECTID":502897},"geometry":{"x":168482.04999999981,"y":2544349.8900000006}},{"attributes":{"ID":502925,"DIS_CODE":0,"TOWNNAME":"北區","LI":"三德里","LIN":"7鄰","STREET":"成功路","SECT":" ","MAREA":" ","LANE":" ","ALLEY":" ","HOUSE_NO":"１３２號","E_COORD97":168478.20999999999,"N_COORD97":2544350.29,"ADDRESS":"成功路１３２號","OBJECTID":502898},"geometry":{"x":168478.21000000089,"y":2544350.2900000028}},{"attributes":{"ID":502926,"DIS_CODE":0,"TOWNNAME":"北區","LI":"三德里","LIN":"7鄰","STREET":"成功路","SECT":" ","MAREA":" ","LANE":" ","ALLEY":" ","HOUSE_NO":"１３２之１號","E_COORD97":168475.31,"N_COORD97":2544351.3300000001,"ADDRESS":"成功路１３２之１號","OBJECTID":502899},"geometry":{"x":168475.31000000145,"y":2544351.3300000019}},{"attributes":{"ID":502927,"DIS_CODE":0,"TOWNNAME":"北區","LI":"三德里","LIN":"7鄰","STREET":"成功路","SECT":" ","MAREA":" ","LANE":" ","ALLEY":" ","HOUSE_NO":"１３６號","E_COORD97":168471.82999999999,"N_COORD97":2544352.4900000002,"ADDRESS":"成功路１３６號","OBJECTID":502900},"geometry":{"x":168471.83000000007,"y":2544352.4900000002}},{"attributes":{"ID":502928,"DIS_CODE":0,"TOWNNAME":"北區","LI":"三德里","LIN":"7鄰","STREET":"成功路","SECT":" ","MAREA":" ","LANE":" ","ALLEY":" ","HOUSE_NO":"１３８之１號","E_COORD97":168467.42000000001,"N_COORD97":2544353.7599999998,"ADDRESS":"成功路１３８之１號","OBJECTID":502901},"geometry":{"x":168467.41999999993,"y":2544353.7599999998}},{"attributes":{"ID":502929,"DIS_CODE":0,"TOWNNAME":"北區","LI":"三德里","LIN":"7鄰","STREET":"成功路","SECT":" ","MAREA":" ","LANE":" ","ALLEY":" ","HOUSE_NO":"１４０號","E_COORD97":168462.66,"N_COORD97":2544355.8500000001,"ADDRESS":"成功路１４０號","OBJECTID":502902},"geometry":{"x":168462.66000000015,"y":2544355.8499999996}},{"attributes":{"ID":502930,"DIS_CODE":0,"TOWNNAME":"北區","LI":"三德里","LIN":"7鄰","STREET":"成功路","SECT":" ","MAREA":" ","LANE":" ","ALLEY":" ","HOUSE_NO":"１４４號","E_COORD97":168464.60000000001,"N_COORD97":2544375.1200000001,"ADDRESS":"成功路１４４號","OBJECTID":502903},"geometry":{"x":168464.59999999963,"y":2544375.1200000029}},{"attributes":{"ID":502931,"DIS_CODE":0,"TOWNNAME":"北區","LI":"三德里","LIN":"7鄰","STREET":"成功路","SECT":" ","MAREA":" ","LANE":" ","ALLEY":" ","HOUSE_NO":"１４４號之１","E_COORD97":168466,"N_COORD97":2544378.8300000001,"ADDRESS":"成功路１４４號之１","OBJECTID":502904},"geometry":{"x":168466.00000000186,"y":2544378.8300000019}},{"attributes":{"ID":502932,"DIS_CODE":0,"TOWNNAME":"北區","LI":"三德里","LIN":"7鄰","STREET":"忠義路","SECT":"三段","MAREA":" ","LANE":" ","ALLEY":" ","HOUSE_NO":"１１號","E_COORD97":168486.64999999999,"N_COORD97":2544387.9900000002,"ADDRESS":"忠義路三段１１號","OBJECTID":502905},"geometry":{"x":168486.65000000037,"y":2544387.9900000021}},{"attributes":{"ID":502933,"DIS_CODE":0,"TOWNNAME":"北區","LI":"三德里","LIN":"7鄰","STREET":"忠義路","SECT":"三段","MAREA":" ","LANE":" ","ALLEY":" ","HOUSE_NO":"１１號之２","E_COORD97":168484.91,"N_COORD97":2544379.7599999998,"ADDRESS":"忠義路三段１１號之２","OBJECTID":502906},"geometry":{"x":168484.91000000015,"y":2544379.7600000016}},{"attributes":{"ID":502934,"DIS_CODE":0,"TOWNNAME":"北區","LI":"三德里","LIN":"7鄰","STREET":"忠義路","SECT":"三段","MAREA":" ","LANE":" ","ALLEY":" ","HOUSE_NO":"１１號之２１","E_COORD97":168470.10999999999,"N_COORD97":2544402.98,"ADDRESS":"忠義路三段１１號之２１","OBJECTID":502907},"geometry":{"x":168470.11000000034,"y":2544402.9800000004}},{"attributes":{"ID":502935,"DIS_CODE":0,"TOWNNAME":"北區","LI":"三德里","LIN":"7鄰","STREET":"忠義路","SECT":"三段","MAREA":" ","LANE":" ","ALLEY":" ","HOUSE_NO":"１１號之２２","E_COORD97":168472.85999999999,"N_COORD97":2544401.6800000002,"ADDRESS":"忠義路三段１１號之２２","OBJECTID":502908},"geometry":{"x":168472.86000000127,"y":2544401.6799999997}},{"attributes":{"ID":502936,"DIS_CODE":0,"TOWNNAME":"北區","LI":"三德里","LIN":"7鄰","STREET":"忠義路","SECT":"三段","MAREA":" ","LANE":" ","ALLEY":" ","HOUSE_NO":"１１號之２３","E_COORD97":168475.89999999999,"N_COORD97":2544403.27,"ADDRESS":"忠義路三段１１號之２３","OBJECTID":502909},"geometry":{"x":168475.9000000013,"y":2544403.2700000014}},{"attributes":{"ID":502937,"DIS_CODE":0,"TOWNNAME":"北區","LI":"三德里","LIN":"7鄰","STREET":"忠義路","SECT":"三段","MAREA":" ","LANE":" ","ALLEY":" ","HOUSE_NO":"１１號之２４","E_COORD97":168478.64999999999,"N_COORD97":2544401.3900000001,"ADDRESS":"忠義路三段１１號之２４","OBJECTID":502910},"geometry":{"x":168478.65000000037,"y":2544401.3900000006}},{"attributes":{"ID":502938,"DIS_CODE":0,"TOWNNAME":"北區","LI":"三德里","LIN":"7鄰","STREET":"忠義路","SECT":"三段","MAREA":" ","LANE":" ","ALLEY":" ","HOUSE_NO":"１１號之２５","E_COORD97":168481.39999999999,"N_COORD97":2544400.0899999999,"ADDRESS":"忠義路三段１１號之２５","OBJECTID":502911},"geometry":{"x":168481.40000000037,"y":2544400.0900000017}},{"attributes":{"ID":502939,"DIS_CODE":0,"TOWNNAME":"北區","LI":"三德里","LIN":"7鄰","STREET":"忠義路","SECT":"三段","MAREA":" ","LANE":" ","ALLEY":" ","HOUSE_NO":"１１號之３","E_COORD97":168481.20000000001,"N_COORD97":2544380.5699999998,"ADDRESS":"忠義路三段１１號之３","OBJECTID":502912},"geometry":{"x":168481.20000000019,"y":2544380.5700000022}},{"attributes":{"ID":502940,"DIS_CODE":0,"TOWNNAME":"北區","LI":"三德里","LIN":"7鄰","STREET":"忠義路","SECT":"三段","MAREA":" ","LANE":" ","ALLEY":" ","HOUSE_NO":"１１號之４","E_COORD97":168478.41,"N_COORD97":2544381.73,"ADDRESS":"忠義路三段１１號之４","OBJECTID":502913},"geometry":{"x":168478.40999999922,"y":2544381.7300000004}},{"attributes":{"ID":502941,"DIS_CODE":0,"TOWNNAME":"北區","LI":"三德里","LIN":"7鄰","STREET":"忠義路","SECT":"三段","MAREA":" ","LANE":" ","ALLEY":" ","HOUSE_NO":"１１號之５","E_COORD97":168474.92999999999,"N_COORD97":2544383.1200000001,"ADDRESS":"忠義路三段１１號之５","OBJECTID":502914},"geometry":{"x":168474.93000000063,"y":2544383.120000001}},{"attributes":{"ID":502942,"DIS_CODE":0,"TOWNNAME":"北區","LI":"三德里","LIN":"7鄰","STREET":"忠義路","SECT":"三段","MAREA":" ","LANE":" ","ALLEY":" ","HOUSE_NO":"１１號之６","E_COORD97":168472.60999999999,"N_COORD97":2544384.6299999999,"ADDRESS":"忠義路三段１１號之６","OBJECTID":502915},"geometry":{"x":168472.61000000127,"y":2544384.629999999}},{"attributes":{"ID":502943,"DIS_CODE":0,"TOWNNAME":"北區","LI":"三德里","LIN":"7鄰","STREET":"忠義路","SECT":"三段","MAREA":" ","LANE":" ","ALLEY":" ","HOUSE_NO":"１１號之７","E_COORD97":168469.70999999999,"N_COORD97":2544383.4700000002,"ADDRESS":"忠義路三段１１號之７","OBJECTID":502916},"geometry":{"x":168469.71000000089,"y":2544383.4700000007}},{"attributes":{"ID":502944,"DIS_CODE":0,"TOWNNAME":"北區","LI":"三德里","LIN":"7鄰","STREET":"忠義路","SECT":"三段","MAREA":" ","LANE":" ","ALLEY":" ","HOUSE_NO":"１１號之８","E_COORD97":168466.92000000001,"N_COORD97":2544384.27,"ADDRESS":"忠義路三段１１號之８","OBJECTID":502917},"geometry":{"x":168466.92000000086,"y":2544384.2699999996}},{"attributes":{"ID":502945,"DIS_CODE":0,"TOWNNAME":"北區","LI":"三德里","LIN":"7鄰","STREET":"忠義路","SECT":"三段","MAREA":" ","LANE":" ","ALLEY":" ","HOUSE_NO":"３號","E_COORD97":168488.42000000001,"N_COORD97":2544365.8100000001,"ADDRESS":"忠義路三段３號","OBJECTID":502918},"geometry":{"x":168488.42000000179,"y":2544365.8100000024}},{"attributes":{"ID":502946,"DIS_CODE":0,"TOWNNAME":"北區","LI":"三德里","LIN":"7鄰","STREET":"忠義路","SECT":"三段","MAREA":" ","LANE":" ","ALLEY":" ","HOUSE_NO":"５號","E_COORD97":168490.63,"N_COORD97":2544370.1000000001,"ADDRESS":"忠義路三段５號","OBJECTID":502919},"geometry":{"x":168490.63000000082,"y":2544370.1000000015}},{"attributes":{"ID":502947,"DIS_CODE":0,"TOWNNAME":"北區","LI":"三德里","LIN":"7鄰","STREET":"忠義路","SECT":"三段","MAREA":" ","LANE":" ","ALLEY":" ","HOUSE_NO":"７號","E_COORD97":168492.95000000001,"N_COORD97":2544373.9199999999,"ADDRESS":"忠義路三段７號","OBJECTID":502920},"geometry":{"x":168492.95000000019,"y":2544373.9200000037}},{"attributes":{"ID":502948,"DIS_CODE":0,"TOWNNAME":"北區","LI":"三德里","LIN":"7鄰","STREET":"忠義路","SECT":"三段","MAREA":" ","LANE":" ","ALLEY":" ","HOUSE_NO":"９號","E_COORD97":168494.34,"N_COORD97":2544378.21,"ADDRESS":"忠義路三段９號","OBJECTID":502921},"geometry":{"x":168494.34000000078,"y":2544378.2100000009}},{"attributes":{"ID":502949,"DIS_CODE":0,"TOWNNAME":"北區","LI":"三德里","LIN":"7鄰","STREET":"成功路","SECT":" ","MAREA":" ","LANE":" ","ALLEY":" ","HOUSE_NO":"１４６號","E_COORD97":168452.88,"N_COORD97":2544377.0899999999,"ADDRESS":"成功路１４６號","OBJECTID":502922},"geometry":{"x":168452.87999999989,"y":2544377.0900000017}},{"attributes":{"ID":502950,"DIS_CODE":0,"TOWNNAME":"北區","LI":"三德里","LIN":"7鄰","STREET":"成功路","SECT":" ","MAREA":" ","LANE":" ","ALLEY":" ","HOUSE_NO":"１４８號","E_COORD97":168457.29000000001,"N_COORD97":2544377.79,"ADDRESS":"成功路１４８號","OBJECTID":502923},"geometry":{"x":168457.2900000019,"y":2544377.790000001}},{"attributes":{"ID":502951,"DIS_CODE":0,"TOWNNAME":"北區","LI":"三德里","LIN":"7鄰","STREET":"成功路","SECT":" ","MAREA":" ","LANE":" ","ALLEY":" ","HOUSE_NO":"１５０號","E_COORD97":168450.10000000001,"N_COORD97":2544362.1499999999,"ADDRESS":"成功路１５０號","OBJECTID":502924},"geometry":{"x":168450.10000000056,"y":2544362.1500000004}},{"attributes":{"ID":502952,"DIS_CODE":0,"TOWNNAME":"北區","LI":"三德里","LIN":"7鄰","STREET":"成功路","SECT":" ","MAREA":" ","LANE":" ","ALLEY":" ","HOUSE_NO":"１５２號","E_COORD97":168446.39000000001,"N_COORD97":2544363.3100000001,"ADDRESS":"成功路１５２號","OBJECTID":502925},"geometry":{"x":168446.3900000006,"y":2544363.3100000024}},{"attributes":{"ID":502953,"DIS_CODE":0,"TOWNNAME":"北區","LI":"三德里","LIN":"7鄰","STREET":"成功路","SECT":" ","MAREA":" ","LANE":" ","ALLEY":" ","HOUSE_NO":"１５４號","E_COORD97":168443.01999999999,"N_COORD97":2544364.23,"ADDRESS":"成功路１５４號","OBJECTID":502926},"geometry":{"x":168443.01999999955,"y":2544364.2300000004}},{"attributes":{"ID":502954,"DIS_CODE":0,"TOWNNAME":"北區","LI":"三德里","LIN":"7鄰","STREET":"成功路","SECT":" ","MAREA":" ","LANE":" ","ALLEY":" ","HOUSE_NO":"１５６號","E_COORD97":168440.12,"N_COORD97":2544365.1600000001,"ADDRESS":"成功路１５６號","OBJECTID":502927},"geometry":{"x":168440.12000000104,"y":2544365.1600000001}},{"attributes":{"ID":502955,"DIS_CODE":0,"TOWNNAME":"北區","LI":"三德里","LIN":"7鄰","STREET":"成功路","SECT":" ","MAREA":" ","LANE":" ","ALLEY":" ","HOUSE_NO":"１６０號","E_COORD97":168437.34,"N_COORD97":2544366.0899999999,"ADDRESS":"成功路１６０號","OBJECTID":502928},"geometry":{"x":168437.33999999985,"y":2544366.0900000036}},{"attributes":{"ID":502956,"DIS_CODE":0,"TOWNNAME":"北區","LI":"三德里","LIN":"7鄰","STREET":"成功路","SECT":" ","MAREA":" ","LANE":" ","ALLEY":" ","HOUSE_NO":"１６２號","E_COORD97":168434.20000000001,"N_COORD97":2544367.1299999999,"ADDRESS":"成功路１６２號","OBJECTID":502929},"geometry":{"x":168434.20000000205,"y":2544367.129999999}},{"attributes":{"ID":502957,"DIS_CODE":0,"TOWNNAME":"北區","LI":"三德里","LIN":"7鄰","STREET":"成功路","SECT":" ","MAREA":" ","LANE":" ","ALLEY":" ","HOUSE_NO":"１６４號","E_COORD97":168431.53,"N_COORD97":2544367.9399999999,"ADDRESS":"成功路１６４號","OBJECTID":502930},"geometry":{"x":168431.53000000026,"y":2544367.9400000013}},{"attributes":{"ID":502958,"DIS_CODE":0,"TOWNNAME":"北區","LI":"三德里","LIN":"7鄰","STREET":"成功路","SECT":" ","MAREA":" ","LANE":" ","ALLEY":" ","HOUSE_NO":"１６６號","E_COORD97":168428.63,"N_COORD97":2544368.75,"ADDRESS":"成功路１６６號","OBJECTID":502931},"geometry":{"x":168428.62999999989,"y":2544368.7500000019}},{"attributes":{"ID":502959,"DIS_CODE":0,"TOWNNAME":"北區","LI":"三德里","LIN":"7鄰","STREET":"成功路","SECT":" ","MAREA":" ","LANE":" ","ALLEY":" ","HOUSE_NO":"１６８號","E_COORD97":168426.41,"N_COORD97":2544369.5099999998,"ADDRESS":"成功路１６８號","OBJECTID":502932},"geometry":{"x":168426.41000000108,"y":2544369.5099999979}},{"attributes":{"ID":502960,"DIS_CODE":0,"TOWNNAME":"北區","LI":"三德里","LIN":"7鄰","STREET":"忠義路","SECT":"三段","MAREA":" ","LANE":" ","ALLEY":" ","HOUSE_NO":"１１號之１０","E_COORD97":168458.57000000001,"N_COORD97":2544384.9700000002,"ADDRESS":"忠義路三段１１號之１０","OBJECTID":502933},"geometry":{"x":168458.5700000003,"y":2544384.9700000025}},{"attributes":{"ID":502961,"DIS_CODE":0,"TOWNNAME":"北區","LI":"三德里","LIN":"7鄰","STREET":"忠義路","SECT":"三段","MAREA":" ","LANE":" ","ALLEY":" ","HOUSE_NO":"１１號之１１","E_COORD97":168455.54999999999,"N_COORD97":2544385.6699999999,"ADDRESS":"忠義路三段１１號之１１","OBJECTID":502934},"geometry":{"x":168455.55000000075,"y":2544385.6700000037}},{"attributes":{"ID":502962,"DIS_CODE":0,"TOWNNAME":"北區","LI":"三德里","LIN":"7鄰","STREET":"忠義路","SECT":"三段","MAREA":" ","LANE":" ","ALLEY":" ","HOUSE_NO":"１１號之１２","E_COORD97":168452.64999999999,"N_COORD97":2544386.3599999999,"ADDRESS":"忠義路三段１１號之１２","OBJECTID":502935},"geometry":{"x":168452.65000000037,"y":2544386.3599999994}},{"attributes":{"ID":502963,"DIS_CODE":0,"TOWNNAME":"北區","LI":"三德里","LIN":"7鄰","STREET":"忠義路","SECT":"三段","MAREA":" ","LANE":" ","ALLEY":" ","HOUSE_NO":"１１號之１３","E_COORD97":168449.75,"N_COORD97":2544386.8300000001,"ADDRESS":"忠義路三段１１號之１３","OBJECTID":502936},"geometry":{"x":168449.75000000093,"y":2544386.8300000001}},{"attributes":{"ID":502964,"DIS_CODE":0,"TOWNNAME":"北區","LI":"三德里","LIN":"7鄰","STREET":"忠義路","SECT":"三段","MAREA":" ","LANE":" ","ALLEY":" ","HOUSE_NO":"１１號之１４","E_COORD97":168451.14000000001,"N_COORD97":2544395.46,"ADDRESS":"忠義路三段１１號之１４","OBJECTID":502937},"geometry":{"x":168451.14000000153,"y":2544395.4600000028}},{"attributes":{"ID":502965,"DIS_CODE":0,"TOWNNAME":"北區","LI":"三德里","LIN":"7鄰","STREET":"忠義路","SECT":"三段","MAREA":" ","LANE":" ","ALLEY":" ","HOUSE_NO":"１１號之１５","E_COORD97":168451.85999999999,"N_COORD97":2544398.6400000001,"ADDRESS":"忠義路三段１１號之１５","OBJECTID":502938},"geometry":{"x":168451.8599999994,"y":2544398.6400000006}},{"attributes":{"ID":502966,"DIS_CODE":0,"TOWNNAME":"北區","LI":"三德里","LIN":"7鄰","STREET":"忠義路","SECT":"三段","MAREA":" ","LANE":" ","ALLEY":" ","HOUSE_NO":"１１號之１６","E_COORD97":168453.01999999999,"N_COORD97":2544406.4500000002,"ADDRESS":"忠義路三段１１號之１６","OBJECTID":502939},"geometry":{"x":168453.01999999955,"y":2544406.4499999993}},{"attributes":{"ID":502967,"DIS_CODE":0,"TOWNNAME":"北區","LI":"三德里","LIN":"7鄰","STREET":"忠義路","SECT":"三段","MAREA":" ","LANE":" ","ALLEY":" ","HOUSE_NO":"１１號之１７","E_COORD97":168456.35000000001,"N_COORD97":2544405.1499999999,"ADDRESS":"忠義路三段１１號之１７","OBJECTID":502940},"geometry":{"x":168456.35000000149,"y":2544405.1500000004}},{"attributes":{"ID":502968,"DIS_CODE":0,"TOWNNAME":"北區","LI":"三德里","LIN":"7鄰","STREET":"忠義路","SECT":"三段","MAREA":" ","LANE":" ","ALLEY":" ","HOUSE_NO":"１１號之１８","E_COORD97":168458.95999999999,"N_COORD97":2544404.1400000001,"ADDRESS":"忠義路三段１１號之１８","OBJECTID":502941},"geometry":{"x":168458.95999999996,"y":2544404.1400000025}},{"attributes":{"ID":502969,"DIS_CODE":0,"TOWNNAME":"北區","LI":"三德里","LIN":"7鄰","STREET":"忠義路","SECT":"三段","MAREA":" ","LANE":" ","ALLEY":" ","HOUSE_NO":"１１號之１９","E_COORD97":168462,"N_COORD97":2544405.5800000001,"ADDRESS":"忠義路三段１１號之１９","OBJECTID":502942},"geometry":{"x":168462,"y":2544405.5800000001}},{"attributes":{"ID":502970,"DIS_CODE":0,"TOWNNAME":"永康區","LI":"建國里","LIN":"7鄰","STREET":"復國路","SECT":" ","MAREA":" ","LANE":" ","ALLEY":" ","HOUSE_NO":"７６號二樓之３","E_COORD97":172762.79999999999,"N_COORD97":2544601.9700000002,"ADDRESS":"復國路７６號二樓之３","OBJECTID":502943},"geometry":{"x":172762.80000000075,"y":2544601.9700000025}},{"attributes":{"ID":502971,"DIS_CODE":0,"TOWNNAME":"永康區","LI":"建國里","LIN":"7鄰","STREET":"復國路","SECT":" ","MAREA":" ","LANE":" ","ALLEY":" ","HOUSE_NO":"７６號二樓之５","E_COORD97":172762.79999999999,"N_COORD97":2544601.9700000002,"ADDRESS":"復國路７６號二樓之５","OBJECTID":502944},"geometry":{"x":172762.80000000075,"y":2544601.9700000025}},{"attributes":{"ID":502972,"DIS_CODE":0,"TOWNNAME":"永康區","LI":"建國里","LIN":"7鄰","STREET":"復國路","SECT":" ","MAREA":" ","LANE":" ","ALLEY":" ","HOUSE_NO":"７６號三樓之１","E_COORD97":172762.79999999999,"N_COORD97":2544601.9700000002,"ADDRESS":"復國路７６號三樓之１","OBJECTID":502945},"geometry":{"x":172762.80000000075,"y":2544601.9700000025}},{"attributes":{"ID":502973,"DIS_CODE":0,"TOWNNAME":"永康區","LI":"建國里","LIN":"7鄰","STREET":"復國路","SECT":" ","MAREA":" ","LANE":" ","ALLEY":" ","HOUSE_NO":"７６號三樓之２","E_COORD97":172762.79999999999,"N_COORD97":2544601.9700000002,"ADDRESS":"復國路７６號三樓之２","OBJECTID":502946},"geometry":{"x":172762.80000000075,"y":2544601.9700000025}},{"attributes":{"ID":502974,"DIS_CODE":0,"TOWNNAME":"永康區","LI":"建國里","LIN":"7鄰","STREET":"復國路","SECT":" ","MAREA":" ","LANE":" ","ALLEY":" ","HOUSE_NO":"７６號三樓之３","E_COORD97":172762.79999999999,"N_COORD97":2544601.9700000002,"ADDRESS":"復國路７６號三樓之３","OBJECTID":502947},"geometry":{"x":172762.80000000075,"y":2544601.9700000025}},{"attributes":{"ID":502975,"DIS_CODE":0,"TOWNNAME":"永康區","LI":"建國里","LIN":"7鄰","STREET":"復國路","SECT":" ","MAREA":" ","LANE":" ","ALLEY":" ","HOUSE_NO":"７６號三樓之５","E_COORD97":172762.79999999999,"N_COORD97":2544601.9700000002,"ADDRESS":"復國路７６號三樓之５","OBJECTID":502948},"geometry":{"x":172762.80000000075,"y":2544601.9700000025}},{"attributes":{"ID":502976,"DIS_CODE":0,"TOWNNAME":"永康區","LI":"建國里","LIN":"7鄰","STREET":"復國路","SECT":" ","MAREA":" ","LANE":" ","ALLEY":" ","HOUSE_NO":"７６號四樓之１","E_COORD97":172762.79999999999,"N_COORD97":2544601.9700000002,"ADDRESS":"復國路７６號四樓之１","OBJECTID":502949},"geometry":{"x":172762.80000000075,"y":2544601.9700000025}},{"attributes":{"ID":502977,"DIS_CODE":0,"TOWNNAME":"永康區","LI":"建國里","LIN":"7鄰","STREET":"復國路","SECT":" ","MAREA":" ","LANE":" ","ALLEY":" ","HOUSE_NO":"７６號四樓之２","E_COORD97":172762.79999999999,"N_COORD97":2544601.9700000002,"ADDRESS":"復國路７６號四樓之２","OBJECTID":502950},"geometry":{"x":172762.80000000075,"y":2544601.9700000025}},{"attributes":{"ID":502978,"DIS_CODE":0,"TOWNNAME":"永康區","LI":"建國里","LIN":"7鄰","STREET":"復國路","SECT":" ","MAREA":" ","LANE":" ","ALLEY":" ","HOUSE_NO":"７６號四樓之３","E_COORD97":172762.79999999999,"N_COORD97":2544601.9700000002,"ADDRESS":"復國路７６號四樓之３","OBJECTID":502951},"geometry":{"x":172762.80000000075,"y":2544601.9700000025}},{"attributes":{"ID":502979,"DIS_CODE":0,"TOWNNAME":"永康區","LI":"建國里","LIN":"7鄰","STREET":"復國路","SECT":" ","MAREA":" ","LANE":" ","ALLEY":" ","HOUSE_NO":"７６號四樓之５","E_COORD97":172762.79999999999,"N_COORD97":2544601.9700000002,"ADDRESS":"復國路７６號四樓之５","OBJECTID":502952},"geometry":{"x":172762.80000000075,"y":2544601.9700000025}},{"attributes":{"ID":502980,"DIS_CODE":0,"TOWNNAME":"永康區","LI":"建國里","LIN":"7鄰","STREET":"復國路","SECT":" ","MAREA":" ","LANE":" ","ALLEY":" ","HOUSE_NO":"７６號五樓之１","E_COORD97":172762.79999999999,"N_COORD97":2544601.9700000002,"ADDRESS":"復國路７６號五樓之１","OBJECTID":502953},"geometry":{"x":172762.80000000075,"y":2544601.9700000025}},{"attributes":{"ID":502981,"DIS_CODE":0,"TOWNNAME":"永康區","LI":"建國里","LIN":"7鄰","STREET":"復國路","SECT":" ","MAREA":" ","LANE":" ","ALLEY":" ","HOUSE_NO":"７６號五樓之２","E_COORD97":172762.79999999999,"N_COORD97":2544601.9700000002,"ADDRESS":"復國路７６號五樓之２","OBJECTID":502954},"geometry":{"x":172762.80000000075,"y":2544601.9700000025}},{"attributes":{"ID":502982,"DIS_CODE":0,"TOWNNAME":"永康區","LI":"建國里","LIN":"7鄰","STREET":"復國路","SECT":" ","MAREA":" ","LANE":" ","ALLEY":" ","HOUSE_NO":"７６號五樓之３","E_COORD97":172762.79999999999,"N_COORD97":2544601.9700000002,"ADDRESS":"復國路７６號五樓之３","OBJECTID":502955},"geometry":{"x":172762.80000000075,"y":2544601.9700000025}},{"attributes":{"ID":502983,"DIS_CODE":0,"TOWNNAME":"永康區","LI":"建國里","LIN":"7鄰","STREET":"復國路","SECT":" ","MAREA":" ","LANE":" ","ALLEY":" ","HOUSE_NO":"７６號五樓之５","E_COORD97":172762.79999999999,"N_COORD97":2544601.9700000002,"ADDRESS":"復國路７６號五樓之５","OBJECTID":502956},"geometry":{"x":172762.80000000075,"y":2544601.9700000025}},{"attributes":{"ID":502984,"DIS_CODE":0,"TOWNNAME":"永康區","LI":"建國里","LIN":"7鄰","STREET":"復國路","SECT":" ","MAREA":" ","LANE":" ","ALLEY":" ","HOUSE_NO":"７６號六樓之１","E_COORD97":172762.79999999999,"N_COORD97":2544601.9700000002,"ADDRESS":"復國路７６號六樓之１","OBJECTID":502957},"geometry":{"x":172762.80000000075,"y":2544601.9700000025}},{"attributes":{"ID":502985,"DIS_CODE":0,"TOWNNAME":"永康區","LI":"建國里","LIN":"7鄰","STREET":"復國路","SECT":" ","MAREA":" ","LANE":" ","ALLEY":" ","HOUSE_NO":"７６號六樓之２","E_COORD97":172762.79999999999,"N_COORD97":2544601.9700000002,"ADDRESS":"復國路７６號六樓之２","OBJECTID":502958},"geometry":{"x":172762.80000000075,"y":2544601.9700000025}},{"attributes":{"ID":502986,"DIS_CODE":0,"TOWNNAME":"永康區","LI":"建國里","LIN":"7鄰","STREET":"復國路","SECT":" ","MAREA":" ","LANE":" ","ALLEY":" ","HOUSE_NO":"７６號六樓之３","E_COORD97":172762.79999999999,"N_COORD97":2544601.9700000002,"ADDRESS":"復國路７６號六樓之３","OBJECTID":502959},"geometry":{"x":172762.80000000075,"y":2544601.9700000025}},{"attributes":{"ID":502987,"DIS_CODE":0,"TOWNNAME":"永康區","LI":"建國里","LIN":"7鄰","STREET":"復國路","SECT":" ","MAREA":" ","LANE":" ","ALLEY":" ","HOUSE_NO":"７６號六樓之５","E_COORD97":172762.79999999999,"N_COORD97":2544601.9700000002,"ADDRESS":"復國路７６號六樓之５","OBJECTID":502960},"geometry":{"x":172762.80000000075,"y":2544601.9700000025}},{"attributes":{"ID":502988,"DIS_CODE":0,"TOWNNAME":"永康區","LI":"建國里","LIN":"7鄰","STREET":"復國路","SECT":" ","MAREA":" ","LANE":" ","ALLEY":" ","HOUSE_NO":"７６號七樓之１","E_COORD97":172762.79999999999,"N_COORD97":2544601.9700000002,"ADDRESS":"復國路７６號七樓之１","OBJECTID":502961},"geometry":{"x":172762.80000000075,"y":2544601.9700000025}},{"attributes":{"ID":502989,"DIS_CODE":0,"TOWNNAME":"永康區","LI":"建國里","LIN":"7鄰","STREET":"復國路","SECT":" ","MAREA":" ","LANE":" ","ALLEY":" ","HOUSE_NO":"７６號七樓之２","E_COORD97":172762.79999999999,"N_COORD97":2544601.9700000002,"ADDRESS":"復國路７６號七樓之２","OBJECTID":502962},"geometry":{"x":172762.80000000075,"y":2544601.9700000025}},{"attributes":{"ID":502990,"DIS_CODE":0,"TOWNNAME":"永康區","LI":"建國里","LIN":"7鄰","STREET":"復國路","SECT":" ","MAREA":" ","LANE":" ","ALLEY":" ","HOUSE_NO":"７６號七樓之３","E_COORD97":172762.79999999999,"N_COORD97":2544601.9700000002,"ADDRESS":"復國路７６號七樓之３","OBJECTID":502963},"geometry":{"x":172762.80000000075,"y":2544601.9700000025}},{"attributes":{"ID":502991,"DIS_CODE":0,"TOWNNAME":"永康區","LI":"建國里","LIN":"7鄰","STREET":"復國路","SECT":" ","MAREA":" ","LANE":" ","ALLEY":" ","HOUSE_NO":"７６號七樓之５","E_COORD97":172762.79999999999,"N_COORD97":2544601.9700000002,"ADDRESS":"復國路７６號七樓之５","OBJECTID":502964},"geometry":{"x":172762.80000000075,"y":2544601.9700000025}},{"attributes":{"ID":502992,"DIS_CODE":0,"TOWNNAME":"永康區","LI":"建國里","LIN":"7鄰","STREET":"復國路","SECT":" ","MAREA":" ","LANE":" ","ALLEY":" ","HOUSE_NO":"７６號八樓之１","E_COORD97":172762.79999999999,"N_COORD97":2544601.9700000002,"ADDRESS":"復國路７６號八樓之１","OBJECTID":502965},"geometry":{"x":172762.80000000075,"y":2544601.9700000025}},{"attributes":{"ID":502993,"DIS_CODE":0,"TOWNNAME":"永康區","LI":"建國里","LIN":"7鄰","STREET":"復國路","SECT":" ","MAREA":" ","LANE":" ","ALLEY":" ","HOUSE_NO":"７６號八樓之２","E_COORD97":172762.79999999999,"N_COORD97":2544601.9700000002,"ADDRESS":"復國路７６號八樓之２","OBJECTID":502966},"geometry":{"x":172762.80000000075,"y":2544601.9700000025}},{"attributes":{"ID":502994,"DIS_CODE":0,"TOWNNAME":"永康區","LI":"建國里","LIN":"7鄰","STREET":"復國路","SECT":" ","MAREA":" ","LANE":" ","ALLEY":" ","HOUSE_NO":"７６號八樓之３","E_COORD97":172762.79999999999,"N_COORD97":2544601.9700000002,"ADDRESS":"復國路７６號八樓之３","OBJECTID":502967},"geometry":{"x":172762.80000000075,"y":2544601.9700000025}},{"attributes":{"ID":502995,"DIS_CODE":0,"TOWNNAME":"永康區","LI":"建國里","LIN":"7鄰","STREET":"復國路","SECT":" ","MAREA":" ","LANE":" ","ALLEY":" ","HOUSE_NO":"７６號八樓之５","E_COORD97":172762.79999999999,"N_COORD97":2544601.9700000002,"ADDRESS":"復國路７６號八樓之５","OBJECTID":502968},"geometry":{"x":172762.80000000075,"y":2544601.9700000025}},{"attributes":{"ID":502996,"DIS_CODE":0,"TOWNNAME":"永康區","LI":"建國里","LIN":"7鄰","STREET":"復國路","SECT":" ","MAREA":" ","LANE":" ","ALLEY":" ","HOUSE_NO":"７６號九樓之１","E_COORD97":172762.79999999999,"N_COORD97":2544601.9700000002,"ADDRESS":"復國路７６號九樓之１","OBJECTID":502969},"geometry":{"x":172762.80000000075,"y":2544601.9700000025}},{"attributes":{"ID":502997,"DIS_CODE":0,"TOWNNAME":"永康區","LI":"建國里","LIN":"7鄰","STREET":"復國路","SECT":" ","MAREA":" ","LANE":" ","ALLEY":" ","HOUSE_NO":"７６號九樓之２","E_COORD97":172762.79999999999,"N_COORD97":2544601.9700000002,"ADDRESS":"復國路７６號九樓之２","OBJECTID":502970},"geometry":{"x":172762.80000000075,"y":2544601.9700000025}},{"attributes":{"ID":502998,"DIS_CODE":0,"TOWNNAME":"永康區","LI":"建國里","LIN":"7鄰","STREET":"復國路","SECT":" ","MAREA":" ","LANE":" ","ALLEY":" ","HOUSE_NO":"７６號九樓之３","E_COORD97":172762.79999999999,"N_COORD97":2544601.9700000002,"ADDRESS":"復國路７６號九樓之３","OBJECTID":502971},"geometry":{"x":172762.80000000075,"y":2544601.9700000025}},{"attributes":{"ID":502999,"DIS_CODE":0,"TOWNNAME":"永康區","LI":"建國里","LIN":"7鄰","STREET":"復國路","SECT":" ","MAREA":" ","LANE":" ","ALLEY":" ","HOUSE_NO":"７６號九樓之５","E_COORD97":172762.79999999999,"N_COORD97":2544601.9700000002,"ADDRESS":"復國路７６號九樓之５","OBJECTID":502972},"geometry":{"x":172762.80000000075,"y":2544601.9700000025}},{"attributes":{"ID":503000,"DIS_CODE":0,"TOWNNAME":"永康區","LI":"建國里","LIN":"7鄰","STREET":"復國路","SECT":" ","MAREA":" ","LANE":" ","ALLEY":" ","HOUSE_NO":"７６號十樓之１","E_COORD97":172762.79999999999,"N_COORD97":2544601.9700000002,"ADDRESS":"復國路７６號十樓之１","OBJECTID":502973},"geometry":{"x":172762.80000000075,"y":2544601.9700000025}},{"attributes":{"ID":503001,"DIS_CODE":0,"TOWNNAME":"永康區","LI":"建國里","LIN":"7鄰","STREET":"復國路","SECT":" ","MAREA":" ","LANE":" ","ALLEY":" ","HOUSE_NO":"７６號十樓之２","E_COORD97":172762.79999999999,"N_COORD97":2544601.9700000002,"ADDRESS":"復國路７６號十樓之２","OBJECTID":502974},"geometry":{"x":172762.80000000075,"y":2544601.9700000025}},{"attributes":{"ID":503002,"DIS_CODE":0,"TOWNNAME":"永康區","LI":"建國里","LIN":"7鄰","STREET":"復國路","SECT":" ","MAREA":" ","LANE":" ","ALLEY":" ","HOUSE_NO":"７６號十樓之３","E_COORD97":172762.79999999999,"N_COORD97":2544601.9700000002,"ADDRESS":"復國路７６號十樓之３","OBJECTID":502975},"geometry":{"x":172762.80000000075,"y":2544601.9700000025}},{"attributes":{"ID":503003,"DIS_CODE":0,"TOWNNAME":"永康區","LI":"建國里","LIN":"7鄰","STREET":"復國路","SECT":" ","MAREA":" ","LANE":" ","ALLEY":" ","HOUSE_NO":"７６號十樓之５","E_COORD97":172762.79999999999,"N_COORD97":2544601.9700000002,"ADDRESS":"復國路７６號十樓之５","OBJECTID":502976},"geometry":{"x":172762.80000000075,"y":2544601.9700000025}},{"attributes":{"ID":503004,"DIS_CODE":0,"TOWNNAME":"永康區","LI":"建國里","LIN":"7鄰","STREET":"復國路","SECT":" ","MAREA":" ","LANE":" ","ALLEY":" ","HOUSE_NO":"７６號十一樓之１","E_COORD97":172762.79999999999,"N_COORD97":2544601.9700000002,"ADDRESS":"復國路７６號十一樓之１","OBJECTID":502977},"geometry":{"x":172762.80000000075,"y":2544601.9700000025}},{"attributes":{"ID":503005,"DIS_CODE":0,"TOWNNAME":"永康區","LI":"建國里","LIN":"7鄰","STREET":"復國路","SECT":" ","MAREA":" ","LANE":" ","ALLEY":" ","HOUSE_NO":"７６號十一樓之２","E_COORD97":172762.79999999999,"N_COORD97":2544601.9700000002,"ADDRESS":"復國路７６號十一樓之２","OBJECTID":502978},"geometry":{"x":172762.80000000075,"y":2544601.9700000025}},{"attributes":{"ID":503006,"DIS_CODE":0,"TOWNNAME":"永康區","LI":"建國里","LIN":"7鄰","STREET":"復國路","SECT":" ","MAREA":" ","LANE":" ","ALLEY":" ","HOUSE_NO":"７６號十一樓之３","E_COORD97":172762.79999999999,"N_COORD97":2544601.9700000002,"ADDRESS":"復國路７６號十一樓之３","OBJECTID":502979},"geometry":{"x":172762.80000000075,"y":2544601.9700000025}},{"attributes":{"ID":503007,"DIS_CODE":0,"TOWNNAME":"永康區","LI":"建國里","LIN":"7鄰","STREET":"復國路","SECT":" ","MAREA":" ","LANE":" ","ALLEY":" ","HOUSE_NO":"７６號十一樓之５","E_COORD97":172762.79999999999,"N_COORD97":2544601.9700000002,"ADDRESS":"復國路７６號十一樓之５","OBJECTID":502980},"geometry":{"x":172762.80000000075,"y":2544601.9700000025}},{"attributes":{"ID":503008,"DIS_CODE":0,"TOWNNAME":"永康區","LI":"建國里","LIN":"7鄰","STREET":"復國路","SECT":" ","MAREA":" ","LANE":" ","ALLEY":" ","HOUSE_NO":"７６號十二樓之１","E_COORD97":172762.79999999999,"N_COORD97":2544601.9700000002,"ADDRESS":"復國路７６號十二樓之１","OBJECTID":502981},"geometry":{"x":172762.80000000075,"y":2544601.9700000025}},{"attributes":{"ID":503009,"DIS_CODE":0,"TOWNNAME":"永康區","LI":"建國里","LIN":"7鄰","STREET":"復國路","SECT":" ","MAREA":" ","LANE":" ","ALLEY":" ","HOUSE_NO":"７６號十二樓之２","E_COORD97":172762.79999999999,"N_COORD97":2544601.9700000002,"ADDRESS":"復國路７６號十二樓之２","OBJECTID":502982},"geometry":{"x":172762.80000000075,"y":2544601.9700000025}},{"attributes":{"ID":503010,"DIS_CODE":0,"TOWNNAME":"永康區","LI":"建國里","LIN":"7鄰","STREET":"復國路","SECT":" ","MAREA":" ","LANE":" ","ALLEY":" ","HOUSE_NO":"７６號十二樓之３","E_COORD97":172762.79999999999,"N_COORD97":2544601.9700000002,"ADDRESS":"復國路７６號十二樓之３","OBJECTID":502983},"geometry":{"x":172762.80000000075,"y":2544601.9700000025}},{"attributes":{"ID":503011,"DIS_CODE":0,"TOWNNAME":"永康區","LI":"建國里","LIN":"7鄰","STREET":"復國路","SECT":" ","MAREA":" ","LANE":" ","ALLEY":" ","HOUSE_NO":"７６號十二樓之５","E_COORD97":172762.79999999999,"N_COORD97":2544601.9700000002,"ADDRESS":"復國路７６號十二樓之５","OBJECTID":502984},"geometry":{"x":172762.80000000075,"y":2544601.9700000025}},{"attributes":{"ID":503012,"DIS_CODE":0,"TOWNNAME":"永康區","LI":"建國里","LIN":"7鄰","STREET":"復國路","SECT":" ","MAREA":" ","LANE":" ","ALLEY":" ","HOUSE_NO":"７６號十三樓之１","E_COORD97":172762.79999999999,"N_COORD97":2544601.9700000002,"ADDRESS":"復國路７６號十三樓之１","OBJECTID":502985},"geometry":{"x":172762.80000000075,"y":2544601.9700000025}},{"attributes":{"ID":503013,"DIS_CODE":0,"TOWNNAME":"永康區","LI":"建國里","LIN":"7鄰","STREET":"復國路","SECT":" ","MAREA":" ","LANE":" ","ALLEY":" ","HOUSE_NO":"７６號十三樓之２","E_COORD97":172762.79999999999,"N_COORD97":2544601.9700000002,"ADDRESS":"復國路７６號十三樓之２","OBJECTID":502986},"geometry":{"x":172762.80000000075,"y":2544601.9700000025}},{"attributes":{"ID":503014,"DIS_CODE":0,"TOWNNAME":"永康區","LI":"建國里","LIN":"7鄰","STREET":"復國路","SECT":" ","MAREA":" ","LANE":" ","ALLEY":" ","HOUSE_NO":"７６號十三樓之３","E_COORD97":172762.79999999999,"N_COORD97":2544601.9700000002,"ADDRESS":"復國路７６號十三樓之３","OBJECTID":502987},"geometry":{"x":172762.80000000075,"y":2544601.9700000025}},{"attributes":{"ID":503015,"DIS_CODE":0,"TOWNNAME":"永康區","LI":"建國里","LIN":"7鄰","STREET":"復國路","SECT":" ","MAREA":" ","LANE":" ","ALLEY":" ","HOUSE_NO":"７６號十三樓之５","E_COORD97":172762.79999999999,"N_COORD97":2544601.9700000002,"ADDRESS":"復國路７６號十三樓之５","OBJECTID":502988},"geometry":{"x":172762.80000000075,"y":2544601.9700000025}},{"attributes":{"ID":503016,"DIS_CODE":0,"TOWNNAME":"永康區","LI":"建國里","LIN":"7鄰","STREET":"復國路","SECT":" ","MAREA":" ","LANE":" ","ALLEY":" ","HOUSE_NO":"７６號十四樓之１","E_COORD97":172762.79999999999,"N_COORD97":2544601.9700000002,"ADDRESS":"復國路７６號十四樓之１","OBJECTID":502989},"geometry":{"x":172762.80000000075,"y":2544601.9700000025}},{"attributes":{"ID":503017,"DIS_CODE":0,"TOWNNAME":"永康區","LI":"建國里","LIN":"7鄰","STREET":"復國路","SECT":" ","MAREA":" ","LANE":" ","ALLEY":" ","HOUSE_NO":"７６號十四樓之２","E_COORD97":172762.79999999999,"N_COORD97":2544601.9700000002,"ADDRESS":"復國路７６號十四樓之２","OBJECTID":502990},"geometry":{"x":172762.80000000075,"y":2544601.9700000025}},{"attributes":{"ID":503018,"DIS_CODE":0,"TOWNNAME":"永康區","LI":"建國里","LIN":"7鄰","STREET":"復國路","SECT":" ","MAREA":" ","LANE":" ","ALLEY":" ","HOUSE_NO":"７６號十四樓之３","E_COORD97":172762.79999999999,"N_COORD97":2544601.9700000002,"ADDRESS":"復國路７６號十四樓之３","OBJECTID":502991},"geometry":{"x":172762.80000000075,"y":2544601.9700000025}},{"attributes":{"ID":503019,"DIS_CODE":0,"TOWNNAME":"永康區","LI":"建國里","LIN":"7鄰","STREET":"復國路","SECT":" ","MAREA":" ","LANE":" ","ALLEY":" ","HOUSE_NO":"７６號十四樓之５","E_COORD97":172762.79999999999,"N_COORD97":2544601.9700000002,"ADDRESS":"復國路７６號十四樓之５","OBJECTID":502992},"geometry":{"x":172762.80000000075,"y":2544601.9700000025}},{"attributes":{"ID":503020,"DIS_CODE":0,"TOWNNAME":"永康區","LI":"\u25A0行里","LIN":"7鄰","STREET":"中正三街","SECT":" ","MAREA":" ","LANE":" ","ALLEY":" ","HOUSE_NO":"２１號二樓","E_COORD97":172384.67999999999,"N_COORD97":2548558.48,"ADDRESS":"中正三街２１號二樓","OBJECTID":502993},"geometry":{"x":172384.6799999997,"y":2548558.4800000023}},{"attributes":{"ID":503021,"DIS_CODE":0,"TOWNNAME":"仁德區","LI":"新田里","LIN":"7鄰","STREET":"新田路","SECT":" ","MAREA":" ","LANE":" ","ALLEY":" ","HOUSE_NO":"１２號六樓之２","E_COORD97":174467.92999999999,"N_COORD97":2538932.29,"ADDRESS":"新田路１２號六樓之２","OBJECTID":502994},"geometry":{"x":174467.9299999997,"y":2538932.2900000028}},{"attributes":{"ID":503022,"DIS_CODE":0,"TOWNNAME":"仁德區","LI":"新田里","LIN":"7鄰","STREET":"新田路","SECT":" ","MAREA":" ","LANE":" ","ALLEY":" ","HOUSE_NO":"１２號三樓之２","E_COORD97":174467.92999999999,"N_COORD97":2538932.29,"ADDRESS":"新田路１２號三樓之２","OBJECTID":502995},"geometry":{"x":174467.9299999997,"y":2538932.2900000028}},{"attributes":{"ID":503023,"DIS_CODE":0,"TOWNNAME":"新化區","LI":"北勢里","LIN":"7鄰","STREET":"中正路","SECT":" ","MAREA":" ","LANE":" ","ALLEY":" ","HOUSE_NO":"１２１１號四樓之２１","E_COORD97":177943.20000000001,"N_COORD97":2551050.2999999998,"ADDRESS":"中正路１２１１號四樓之２１","OBJECTID":502996},"geometry":{"x":177943.20000000112,"y":2551050.3000000007}},{"attributes":{"ID":503024,"DIS_CODE":0,"TOWNNAME":"新化區","LI":"北勢里","LIN":"7鄰","STREET":"中正路","SECT":" ","MAREA":" ","LANE":" ","ALLEY":" ","HOUSE_NO":"１２１１號四樓之１９","E_COORD97":177943.28,"N_COORD97":2551050.2999999998,"ADDRESS":"中正路１２１１號四樓之１９","OBJECTID":502997},"geometry":{"x":177943.28000000026,"y":2551050.3000000007}},{"attributes":{"ID":503025,"DIS_CODE":0,"TOWNNAME":"新化區","LI":"北勢里","LIN":"7鄰","STREET":"中正路","SECT":" ","MAREA":" ","LANE":" ","ALLEY":" ","HOUSE_NO":"１２１１號三樓之２","E_COORD97":177942.07999999999,"N_COORD97":2551050.2999999998,"ADDRESS":"中正路１２１１號三樓之２","OBJECTID":502998},"geometry":{"x":177942.08000000101,"y":2551050.3000000007}},{"attributes":{"ID":503026,"DIS_CODE":0,"TOWNNAME":"中西區","LI":"民主里","LIN":"7鄰","STREET":"南華街","SECT":" ","MAREA":" ","LANE":" ","ALLEY":" ","HOUSE_NO":"９９號二樓","E_COORD97":167122.64000000001,"N_COORD97":2543564.5099999998,"ADDRESS":"南華街９９號二樓","OBJECTID":502999},"geometry":{"x":167122.6400000006,"y":2543564.5100000016}},{"attributes":{"ID":503027,"DIS_CODE":0,"TOWNNAME":"新化區","LI":"北勢里","LIN":"7鄰","STREET":"中正路","SECT":" ","MAREA":" ","LANE":" ","ALLEY":" ","HOUSE_NO":"１２１１號四樓之１０","E_COORD97":177943.25,"N_COORD97":2551050.2999999998,"ADDRESS":"中正路１２１１號四樓之１０","OBJECTID":503000},"geometry":{"x":177943.25,"y":2551050.3000000007}}]}