{"displayFieldName":"TOWNNAME","fieldAliases":{"ID":"ID","DIS_CODE":"DIS_CODE","TOWNNAME":"TOWNNAME","LI":"LI","LIN":"LIN","STREET":"STREET","SECT":"SECT","MAREA":"MAREA","LANE":"LANE","ALLEY":"ALLEY","HOUSE_NO":"HOUSE_NO","E_COORD97":"E_COORD97","N_COORD97":"N_COORD97","ADDRESS":"ADDRESS","OBJECTID":"OBJECTID"},"geometryType":"esriGeometryPoint","spatialReference":{"wkid":102443,"latestWkid":3826},"fields":[{"name":"ID","type":"esriFieldTypeDouble","alias":"ID"},{"name":"DIS_CODE","type":"esriFieldTypeInteger","alias":"DIS_CODE"},{"name":"TOWNNAME","type":"esriFieldTypeString","alias":"TOWNNAME","length":8},{"name":"LI","type":"esriFieldTypeString","alias":"LI","length":8},{"name":"LIN","type":"esriFieldTypeString","alias":"LIN","length":12},{"name":"STREET","type":"esriFieldTypeString","alias":"STREET","length":20},{"name":"SECT","type":"esriFieldTypeString","alias":"SECT","length":8},{"name":"MAREA","type":"esriFieldTypeString","alias":"MAREA","length":12},{"name":"LANE","type":"esriFieldTypeString","alias":"LANE","length":10},{"name":"ALLEY","type":"esriFieldTypeString","alias":"ALLEY","length":10},{"name":"HOUSE_NO","type":"esriFieldTypeString","alias":"HOUSE_NO","length":20},{"name":"E_COORD97","type":"esriFieldTypeDouble","alias":"E_COORD97"},{"name":"N_COORD97","type":"esriFieldTypeDouble","alias":"N_COORD97"},{"name":"ADDRESS","type":"esriFieldTypeString","alias":"ADDRESS","length":50},{"name":"OBJECTID","type":"esriFieldTypeOID","alias":"OBJECTID"}],"features":[{"attributes":{"ID":439826,"DIS_CODE":0,"TOWNNAME":"東區","LI":"大學里","LIN":"17鄰","STREET":"東寧路","SECT":" ","MAREA":" ","LANE":"８３巷","ALLEY":" ","HOUSE_NO":"１６號","E_COORD97":170299.26999999999,"N_COORD97":2543641.7599999998,"ADDRESS":"東寧路８３巷１６號","OBJECTID":439801},"geometry":{"x":170299.26999999955,"y":2543641.7599999998}},{"attributes":{"ID":439827,"DIS_CODE":0,"TOWNNAME":"東區","LI":"大學里","LIN":"17鄰","STREET":"東寧路","SECT":" ","MAREA":" ","LANE":"８３巷","ALLEY":" ","HOUSE_NO":"２０號","E_COORD97":170278.03,"N_COORD97":2543644.7000000002,"ADDRESS":"東寧路８３巷２０號","OBJECTID":439802},"geometry":{"x":170278.02999999933,"y":2543644.6999999993}},{"attributes":{"ID":439828,"DIS_CODE":0,"TOWNNAME":"東區","LI":"大學里","LIN":"17鄰","STREET":"東寧路","SECT":" ","MAREA":" ","LANE":"８３巷","ALLEY":" ","HOUSE_NO":"２號","E_COORD97":170338.67999999999,"N_COORD97":2543627.5899999999,"ADDRESS":"東寧路８３巷２號","OBJECTID":439803},"geometry":{"x":170338.6799999997,"y":2543627.5900000017}},{"attributes":{"ID":439829,"DIS_CODE":0,"TOWNNAME":"東區","LI":"大學里","LIN":"17鄰","STREET":"東寧路","SECT":" ","MAREA":" ","LANE":"８３巷","ALLEY":" ","HOUSE_NO":"４號","E_COORD97":170332.26999999999,"N_COORD97":2543629.8999999999,"ADDRESS":"東寧路８３巷４號","OBJECTID":439804},"geometry":{"x":170332.27000000048,"y":2543629.9000000022}},{"attributes":{"ID":439830,"DIS_CODE":0,"TOWNNAME":"東區","LI":"大學里","LIN":"17鄰","STREET":"東寧路","SECT":" ","MAREA":" ","LANE":"８３巷","ALLEY":" ","HOUSE_NO":"８號","E_COORD97":170321.82999999999,"N_COORD97":2543634.02,"ADDRESS":"東寧路８３巷８號","OBJECTID":439805},"geometry":{"x":170321.83000000101,"y":2543634.0200000014}},{"attributes":{"ID":439831,"DIS_CODE":0,"TOWNNAME":"東區","LI":"忠孝里","LIN":"20鄰","STREET":"榮譽街","SECT":" ","MAREA":" ","LANE":"１２７巷","ALLEY":" ","HOUSE_NO":"１１號","E_COORD97":169899.79999999999,"N_COORD97":2542028.3799999999,"ADDRESS":"榮譽街１２７巷１１號","OBJECTID":439806},"geometry":{"x":169899.80000000075,"y":2542028.3800000008}},{"attributes":{"ID":439832,"DIS_CODE":0,"TOWNNAME":"東區","LI":"忠孝里","LIN":"20鄰","STREET":"榮譽街","SECT":" ","MAREA":" ","LANE":"１２７巷","ALLEY":" ","HOUSE_NO":"１５號","E_COORD97":169889.73000000001,"N_COORD97":2542022.1800000002,"ADDRESS":"榮譽街１２７巷１５號","OBJECTID":439807},"geometry":{"x":169889.73000000045,"y":2542022.1799999978}},{"attributes":{"ID":439833,"DIS_CODE":0,"TOWNNAME":"東區","LI":"忠孝里","LIN":"20鄰","STREET":"榮譽街","SECT":" ","MAREA":" ","LANE":"１２７巷","ALLEY":" ","HOUSE_NO":"１９號","E_COORD97":169885.87,"N_COORD97":2542016.8300000001,"ADDRESS":"榮譽街１２７巷１９號","OBJECTID":439808},"geometry":{"x":169885.87000000197,"y":2542016.8300000001}},{"attributes":{"ID":439834,"DIS_CODE":0,"TOWNNAME":"東區","LI":"忠孝里","LIN":"20鄰","STREET":"榮譽街","SECT":" ","MAREA":" ","LANE":"１２７巷","ALLEY":" ","HOUSE_NO":"１號","E_COORD97":169933.31,"N_COORD97":2541886.8799999999,"ADDRESS":"榮譽街１２７巷１號","OBJECTID":439809},"geometry":{"x":169933.31000000052,"y":2541886.879999999}},{"attributes":{"ID":439835,"DIS_CODE":0,"TOWNNAME":"東區","LI":"忠孝里","LIN":"18鄰","STREET":"榮譽街","SECT":" ","MAREA":" ","LANE":"１３１巷","ALLEY":" ","HOUSE_NO":"２７號","E_COORD97":169991.13,"N_COORD97":2541913.3700000001,"ADDRESS":"榮譽街１３１巷２７號","OBJECTID":439810},"geometry":{"x":169991.13000000082,"y":2541913.370000001}},{"attributes":{"ID":439836,"DIS_CODE":0,"TOWNNAME":"東區","LI":"忠孝里","LIN":"17鄰","STREET":"榮譽街","SECT":" ","MAREA":" ","LANE":"１３１巷","ALLEY":" ","HOUSE_NO":"４號","E_COORD97":169956.78,"N_COORD97":2541883.0699999998,"ADDRESS":"榮譽街１３１巷４號","OBJECTID":439811},"geometry":{"x":169956.78000000119,"y":2541883.0700000003}},{"attributes":{"ID":439837,"DIS_CODE":0,"TOWNNAME":"東區","LI":"忠孝里","LIN":"15鄰","STREET":"榮譽街","SECT":" ","MAREA":" ","LANE":"８７巷","ALLEY":" ","HOUSE_NO":"２０號","E_COORD97":169791.67000000001,"N_COORD97":2541775.0099999998,"ADDRESS":"榮譽街８７巷２０號","OBJECTID":439812},"geometry":{"x":169791.66999999993,"y":2541775.0099999998}},{"attributes":{"ID":439838,"DIS_CODE":0,"TOWNNAME":"東區","LI":"忠孝里","LIN":"15鄰","STREET":"榮譽街","SECT":" ","MAREA":" ","LANE":"８７巷","ALLEY":" ","HOUSE_NO":"２２號","E_COORD97":169775.54000000001,"N_COORD97":2541765.0699999998,"ADDRESS":"榮譽街８７巷２２號","OBJECTID":439813},"geometry":{"x":169775.54000000004,"y":2541765.0700000003}},{"attributes":{"ID":439839,"DIS_CODE":0,"TOWNNAME":"東區","LI":"忠孝里","LIN":"15鄰","STREET":"榮譽街","SECT":" ","MAREA":" ","LANE":"８７巷","ALLEY":" ","HOUSE_NO":"２４號","E_COORD97":169783.31,"N_COORD97":2541785.1200000001,"ADDRESS":"榮譽街８７巷２４號","OBJECTID":439814},"geometry":{"x":169783.30999999959,"y":2541785.1200000029}},{"attributes":{"ID":439840,"DIS_CODE":0,"TOWNNAME":"東區","LI":"忠孝里","LIN":"15鄰","STREET":"榮譽街","SECT":" ","MAREA":" ","LANE":"８７巷","ALLEY":" ","HOUSE_NO":"２６號","E_COORD97":169766.45999999999,"N_COORD97":2541780.9399999999,"ADDRESS":"榮譽街８７巷２６號","OBJECTID":439815},"geometry":{"x":169766.46000000183,"y":2541780.9400000013}},{"attributes":{"ID":439841,"DIS_CODE":0,"TOWNNAME":"東區","LI":"忠孝里","LIN":"15鄰","STREET":"榮譽街","SECT":" ","MAREA":" ","LANE":"８７巷","ALLEY":" ","HOUSE_NO":"２８號","E_COORD97":169780.32000000001,"N_COORD97":2541802.7000000002,"ADDRESS":"榮譽街８７巷２８號","OBJECTID":439816},"geometry":{"x":169780.32000000123,"y":2541802.7000000011}},{"attributes":{"ID":439842,"DIS_CODE":0,"TOWNNAME":"東區","LI":"大學里","LIN":"13鄰","STREET":"東寧路","SECT":" ","MAREA":" ","LANE":"９３巷","ALLEY":" ","HOUSE_NO":"１號","E_COORD97":170337.29999999999,"N_COORD97":2543710.48,"ADDRESS":"東寧路９３巷１號","OBJECTID":439817},"geometry":{"x":170337.30000000075,"y":2543710.4800000023}},{"attributes":{"ID":439843,"DIS_CODE":0,"TOWNNAME":"東區","LI":"大德里","LIN":"4鄰","STREET":"立德八路","SECT":" ","MAREA":" ","LANE":"３巷","ALLEY":" ","HOUSE_NO":"３３號","E_COORD97":169403.20999999999,"N_COORD97":2542015.27,"ADDRESS":"立德八路３巷３３號","OBJECTID":439818},"geometry":{"x":169403.20999999996,"y":2542015.2700000014}},{"attributes":{"ID":439844,"DIS_CODE":0,"TOWNNAME":"東區","LI":"後甲里","LIN":"13鄰","STREET":"裕農路","SECT":" ","MAREA":" ","LANE":"６２１巷","ALLEY":" ","HOUSE_NO":"１７號","E_COORD97":171614.45999999999,"N_COORD97":2543273.6899999999,"ADDRESS":"裕農路６２１巷１７號","OBJECTID":439819},"geometry":{"x":171614.46000000089,"y":2543273.6900000013}},{"attributes":{"ID":439845,"DIS_CODE":0,"TOWNNAME":"東區","LI":"忠孝里","LIN":"13鄰","STREET":"榮譽街","SECT":" ","MAREA":" ","LANE":"８７巷","ALLEY":" ","HOUSE_NO":"２９號","E_COORD97":169716.20999999999,"N_COORD97":2541778.3799999999,"ADDRESS":"榮譽街８７巷２９號","OBJECTID":439820},"geometry":{"x":169716.21000000089,"y":2541778.379999999}},{"attributes":{"ID":439846,"DIS_CODE":0,"TOWNNAME":"東區","LI":"泉南里","LIN":"13鄰","STREET":"光華街","SECT":" ","MAREA":" ","LANE":"２７５巷","ALLEY":" ","HOUSE_NO":"５號","E_COORD97":169407.79000000001,"N_COORD97":2543020.3500000001,"ADDRESS":"光華街２７５巷５號","OBJECTID":439821},"geometry":{"x":169407.79000000004,"y":2543020.3499999996}},{"attributes":{"ID":439847,"DIS_CODE":0,"TOWNNAME":"東區","LI":"泉南里","LIN":"13鄰","STREET":"光華街","SECT":" ","MAREA":" ","LANE":"２７５巷","ALLEY":" ","HOUSE_NO":"５號之１","E_COORD97":169409.17999999999,"N_COORD97":2543016.3500000001,"ADDRESS":"光華街２７５巷５號之１","OBJECTID":439822},"geometry":{"x":169409.18000000063,"y":2543016.3499999996}},{"attributes":{"ID":439848,"DIS_CODE":0,"TOWNNAME":"東區","LI":"後甲里","LIN":"13鄰","STREET":"裕農路","SECT":" ","MAREA":" ","LANE":"６２１巷","ALLEY":" ","HOUSE_NO":"２７號","E_COORD97":171606.01999999999,"N_COORD97":2543314.6499999999,"ADDRESS":"裕農路６２１巷２７號","OBJECTID":439823},"geometry":{"x":171606.01999999955,"y":2543314.6500000004}},{"attributes":{"ID":439849,"DIS_CODE":0,"TOWNNAME":"東區","LI":"忠孝里","LIN":"13鄰","STREET":"榮譽街","SECT":" ","MAREA":" ","LANE":"８７巷","ALLEY":" ","HOUSE_NO":"３３號之１","E_COORD97":169723.26999999999,"N_COORD97":2541787.8599999999,"ADDRESS":"榮譽街８７巷３３號之１","OBJECTID":439824},"geometry":{"x":169723.27000000048,"y":2541787.8600000013}},{"attributes":{"ID":439850,"DIS_CODE":0,"TOWNNAME":"安南區","LI":"州北里","LIN":"32鄰","STREET":"北安路","SECT":"四段","MAREA":" ","LANE":"５４８巷","ALLEY":" ","HOUSE_NO":"２３號","E_COORD97":169618.14999999999,"N_COORD97":2551922.4399999999,"ADDRESS":"北安路四段５４８巷２３號","OBJECTID":439825},"geometry":{"x":169618.1500000013,"y":2551922.4399999995}},{"attributes":{"ID":439851,"DIS_CODE":0,"TOWNNAME":"安南區","LI":"州北里","LIN":"32鄰","STREET":"北安路","SECT":"四段","MAREA":" ","LANE":"５４８巷","ALLEY":" ","HOUSE_NO":"２號","E_COORD97":169569.64999999999,"N_COORD97":2551878.2599999998,"ADDRESS":"北安路四段５４８巷２號","OBJECTID":439826},"geometry":{"x":169569.6500000013,"y":2551878.2600000016}},{"attributes":{"ID":439852,"DIS_CODE":0,"TOWNNAME":"安南區","LI":"安順里","LIN":"7鄰","STREET":"總安街","SECT":"一段","MAREA":" ","LANE":"１１０巷","ALLEY":" ","HOUSE_NO":"７２號","E_COORD97":169745.98000000001,"N_COORD97":2550294.4700000002,"ADDRESS":"總安街一段１１０巷７２號","OBJECTID":439827},"geometry":{"x":169745.98000000045,"y":2550294.4700000025}},{"attributes":{"ID":439853,"DIS_CODE":0,"TOWNNAME":"善化區","LI":"坐駕里","LIN":"4鄰","STREET":"中興路","SECT":" ","MAREA":" ","LANE":"１９巷","ALLEY":" ","HOUSE_NO":"３號","E_COORD97":177745.70000000001,"N_COORD97":2558968.25,"ADDRESS":"中興路１９巷３號","OBJECTID":439828},"geometry":{"x":177745.70000000019,"y":2558968.2500000019}},{"attributes":{"ID":439854,"DIS_CODE":0,"TOWNNAME":"善化區","LI":"光文里","LIN":"18鄰","STREET":"和平路","SECT":" ","MAREA":" ","LANE":"１２６巷","ALLEY":" ","HOUSE_NO":"５號","E_COORD97":178159.92999999999,"N_COORD97":2558942.75,"ADDRESS":"和平路１２６巷５號","OBJECTID":439829},"geometry":{"x":178159.93000000063,"y":2558942.75}},{"attributes":{"ID":439855,"DIS_CODE":0,"TOWNNAME":"善化區","LI":"文正里","LIN":"13鄰","STREET":"陽明路","SECT":" ","MAREA":" ","LANE":"１４２巷","ALLEY":" ","HOUSE_NO":"６號","E_COORD97":176431.82999999999,"N_COORD97":2559496.7599999998,"ADDRESS":"陽明路１４２巷６號","OBJECTID":439830},"geometry":{"x":176431.83000000101,"y":2559496.7600000016}},{"attributes":{"ID":439856,"DIS_CODE":0,"TOWNNAME":"善化區","LI":"文正里","LIN":"4鄰","STREET":"文正路","SECT":" ","MAREA":" ","LANE":"６９巷","ALLEY":" ","HOUSE_NO":"１號之１","E_COORD97":177113.29000000001,"N_COORD97":2559297.2799999998,"ADDRESS":"文正路６９巷１號之１","OBJECTID":439831},"geometry":{"x":177113.29000000097,"y":2559297.2799999993}},{"attributes":{"ID":439857,"DIS_CODE":0,"TOWNNAME":"善化區","LI":"文昌里","LIN":"18鄰","STREET":"中正路","SECT":" ","MAREA":" ","LANE":"２６６巷","ALLEY":" ","HOUSE_NO":"１９號","E_COORD97":177769.56,"N_COORD97":2558422.25,"ADDRESS":"中正路２６６巷１９號","OBJECTID":439832},"geometry":{"x":177769.55999999959,"y":2558422.2500000019}},{"attributes":{"ID":439858,"DIS_CODE":0,"TOWNNAME":"善化區","LI":"光文里","LIN":"26鄰","STREET":"中山路","SECT":" ","MAREA":" ","LANE":"２４０巷","ALLEY":" ","HOUSE_NO":"１號之５８","E_COORD97":178151.51000000001,"N_COORD97":2559260.27,"ADDRESS":"中山路２４０巷１號之５８","OBJECTID":439833},"geometry":{"x":178151.50999999978,"y":2559260.2699999996}},{"attributes":{"ID":439859,"DIS_CODE":0,"TOWNNAME":"善化區","LI":"文正里","LIN":"13鄰","STREET":"陽明路","SECT":" ","MAREA":" ","LANE":"１４２巷","ALLEY":" ","HOUSE_NO":"３９之５１號","E_COORD97":176549.76000000001,"N_COORD97":2559633.52,"ADDRESS":"陽明路１４２巷３９之５１號","OBJECTID":439834},"geometry":{"x":176549.75999999978,"y":2559633.5200000014}},{"attributes":{"ID":439860,"DIS_CODE":0,"TOWNNAME":"善化區","LI":"南關里","LIN":"13鄰","STREET":"自由路","SECT":" ","MAREA":" ","LANE":"１８９巷","ALLEY":" ","HOUSE_NO":"３號","E_COORD97":176867.04000000001,"N_COORD97":2558910.25,"ADDRESS":"自由路１８９巷３號","OBJECTID":439835},"geometry":{"x":176867.0400000019,"y":2558910.2500000019}},{"attributes":{"ID":439861,"DIS_CODE":0,"TOWNNAME":"善化區","LI":"光文里","LIN":"13鄰","STREET":"民權路","SECT":" ","MAREA":" ","LANE":"１１４巷","ALLEY":" ","HOUSE_NO":"２號","E_COORD97":178465.04999999999,"N_COORD97":2559072.2599999998,"ADDRESS":"民權路１１４巷２號","OBJECTID":439836},"geometry":{"x":178465.04999999981,"y":2559072.2600000035}},{"attributes":{"ID":439862,"DIS_CODE":0,"TOWNNAME":"善化區","LI":"文正里","LIN":"4鄰","STREET":"文正路","SECT":" ","MAREA":" ","LANE":"７９巷","ALLEY":" ","HOUSE_NO":"５號","E_COORD97":177111.25,"N_COORD97":2559320.2799999998,"ADDRESS":"文正路７９巷５號","OBJECTID":439837},"geometry":{"x":177111.24999999907,"y":2559320.2800000012}},{"attributes":{"ID":439863,"DIS_CODE":0,"TOWNNAME":"善化區","LI":"南關里","LIN":"11鄰","STREET":"三民路","SECT":" ","MAREA":" ","LANE":"４５巷","ALLEY":" ","HOUSE_NO":"６號","E_COORD97":177021.09,"N_COORD97":2558973.2599999998,"ADDRESS":"三民路４５巷６號","OBJECTID":439838},"geometry":{"x":177021.09000000078,"y":2558973.2599999998}},{"attributes":{"ID":439864,"DIS_CODE":0,"TOWNNAME":"善化區","LI":"光文里","LIN":"18鄰","STREET":"和平路","SECT":" ","MAREA":" ","LANE":"１２６巷","ALLEY":" ","HOUSE_NO":"１２號","E_COORD97":178188.76000000001,"N_COORD97":2558947.25,"ADDRESS":"和平路１２６巷１２號","OBJECTID":439839},"geometry":{"x":178188.75999999978,"y":2558947.2500000037}},{"attributes":{"ID":439865,"DIS_CODE":0,"TOWNNAME":"善化區","LI":"光文里","LIN":"20鄰","STREET":"大成路","SECT":" ","MAREA":" ","LANE":"３１６巷","ALLEY":" ","HOUSE_NO":"１２號","E_COORD97":178104.20999999999,"N_COORD97":2558861.25,"ADDRESS":"大成路３１６巷１２號","OBJECTID":439840},"geometry":{"x":178104.20999999996,"y":2558861.25}},{"attributes":{"ID":439866,"DIS_CODE":0,"TOWNNAME":"善化區","LI":"文昌里","LIN":"20鄰","STREET":"中正路","SECT":" ","MAREA":" ","LANE":"２１２巷","ALLEY":" ","HOUSE_NO":"４１號","E_COORD97":177800.57999999999,"N_COORD97":2558259.75,"ADDRESS":"中正路２１２巷４１號","OBJECTID":439841},"geometry":{"x":177800.58000000007,"y":2558259.7500000019}},{"attributes":{"ID":439867,"DIS_CODE":0,"TOWNNAME":"白河區","LI":"外角里","LIN":" ","STREET":"光明街","SECT":" ","MAREA":" ","LANE":"７２巷","ALLEY":" ","HOUSE_NO":"１１號","E_COORD97":190597.29000000001,"N_COORD97":2583422.3199999998,"ADDRESS":"光明街７２巷１１號","OBJECTID":439842},"geometry":{"x":190597.29000000004,"y":2583422.3200000022}},{"attributes":{"ID":439868,"DIS_CODE":0,"TOWNNAME":"善化區","LI":"光文里","LIN":"26鄰","STREET":"中山路","SECT":" ","MAREA":" ","LANE":"２４０巷","ALLEY":" ","HOUSE_NO":"１號之６５","E_COORD97":178181.5,"N_COORD97":2559265.27,"ADDRESS":"中山路２４０巷１號之６５","OBJECTID":439843},"geometry":{"x":178181.50000000093,"y":2559265.2700000033}},{"attributes":{"ID":439869,"DIS_CODE":0,"TOWNNAME":"善化區","LI":"文正里","LIN":"13鄰","STREET":"陽明路","SECT":" ","MAREA":" ","LANE":"１４２巷","ALLEY":" ","HOUSE_NO":"３９之３號","E_COORD97":176505.04999999999,"N_COORD97":2559541.02,"ADDRESS":"陽明路１４２巷３９之３號","OBJECTID":439844},"geometry":{"x":176505.04999999981,"y":2559541.0199999996}},{"attributes":{"ID":439870,"DIS_CODE":0,"TOWNNAME":"善化區","LI":"文昌里","LIN":"8鄰","STREET":"永福路","SECT":" ","MAREA":" ","LANE":"１１４巷","ALLEY":" ","HOUSE_NO":"１２號","E_COORD97":177323.53,"N_COORD97":2558846.25,"ADDRESS":"永福路１１４巷１２號","OBJECTID":439845},"geometry":{"x":177323.53000000119,"y":2558846.2500000019}},{"attributes":{"ID":439871,"DIS_CODE":0,"TOWNNAME":"善化區","LI":"文正里","LIN":"13鄰","STREET":"陽明路","SECT":" ","MAREA":" ","LANE":"１４２巷","ALLEY":" ","HOUSE_NO":"３９之１１號","E_COORD97":176482.89000000001,"N_COORD97":2559589.27,"ADDRESS":"陽明路１４２巷３９之１１號","OBJECTID":439846},"geometry":{"x":176482.89000000153,"y":2559589.2699999996}},{"attributes":{"ID":439872,"DIS_CODE":0,"TOWNNAME":"善化區","LI":"文正里","LIN":"13鄰","STREET":"陽明路","SECT":" ","MAREA":" ","LANE":"１４２巷","ALLEY":" ","HOUSE_NO":"３９之８號","E_COORD97":176485.79999999999,"N_COORD97":2559568.27,"ADDRESS":"陽明路１４２巷３９之８號","OBJECTID":439847},"geometry":{"x":176485.80000000075,"y":2559568.2700000014}},{"attributes":{"ID":439873,"DIS_CODE":0,"TOWNNAME":"善化區","LI":"文昌里","LIN":"8鄰","STREET":"永福路","SECT":" ","MAREA":" ","LANE":"１１４巷","ALLEY":" ","HOUSE_NO":"６號","E_COORD97":177325,"N_COORD97":2558834,"ADDRESS":"永福路１１４巷６號","OBJECTID":439848},"geometry":{"x":177325.00000000186,"y":2558834.0000000019}},{"attributes":{"ID":439874,"DIS_CODE":0,"TOWNNAME":"善化區","LI":"文昌里","LIN":"8鄰","STREET":"永福路","SECT":" ","MAREA":" ","LANE":"１１４巷","ALLEY":" ","HOUSE_NO":"１０號","E_COORD97":177324.20999999999,"N_COORD97":2558842.75,"ADDRESS":"永福路１１４巷１０號","OBJECTID":439849},"geometry":{"x":177324.21000000089,"y":2558842.7500000019}},{"attributes":{"ID":439875,"DIS_CODE":0,"TOWNNAME":"善化區","LI":"文昌里","LIN":"8鄰","STREET":"永福路","SECT":" ","MAREA":" ","LANE":"１１４巷","ALLEY":" ","HOUSE_NO":"１４號之１","E_COORD97":177338.42000000001,"N_COORD97":2558852.27,"ADDRESS":"永福路１１４巷１４號之１","OBJECTID":439850},"geometry":{"x":177338.41999999993,"y":2558852.2700000014}},{"attributes":{"ID":439876,"DIS_CODE":0,"TOWNNAME":"安南區","LI":"布袋里","LIN":"1鄰","STREET":"工明南一路","SECT":" ","MAREA":" ","LANE":" ","ALLEY":" ","HOUSE_NO":"６１號","E_COORD97":168842.54999999999,"N_COORD97":2551084.6699999999,"ADDRESS":"工明南一路６１號","OBJECTID":439851},"geometry":{"x":168842.54999999981,"y":2551084.6699999999}},{"attributes":{"ID":439877,"DIS_CODE":0,"TOWNNAME":"善化區","LI":"文昌里","LIN":"7鄰","STREET":"永福路","SECT":" ","MAREA":" ","LANE":"１１４巷","ALLEY":" ","HOUSE_NO":"１１號","E_COORD97":177301.54999999999,"N_COORD97":2558851.25,"ADDRESS":"永福路１１４巷１１號","OBJECTID":439852},"geometry":{"x":177301.54999999981,"y":2558851.25}},{"attributes":{"ID":439878,"DIS_CODE":0,"TOWNNAME":"善化區","LI":"文昌里","LIN":"8鄰","STREET":"大同路","SECT":" ","MAREA":" ","LANE":"２１３巷","ALLEY":" ","HOUSE_NO":"５號","E_COORD97":177410.23000000001,"N_COORD97":2558685.75,"ADDRESS":"大同路２１３巷５號","OBJECTID":439853},"geometry":{"x":177410.22999999952,"y":2558685.7499999981}},{"attributes":{"ID":439879,"DIS_CODE":0,"TOWNNAME":"善化區","LI":"文正里","LIN":"3鄰","STREET":"文正路","SECT":" ","MAREA":" ","LANE":"７９巷","ALLEY":" ","HOUSE_NO":"２４號之１","E_COORD97":177045.32000000001,"N_COORD97":2559421.0299999998,"ADDRESS":"文正路７９巷２４號之１","OBJECTID":439854},"geometry":{"x":177045.32000000123,"y":2559421.0299999993}},{"attributes":{"ID":439880,"DIS_CODE":0,"TOWNNAME":"善化區","LI":"文正里","LIN":"13鄰","STREET":"陽明路","SECT":" ","MAREA":" ","LANE":"１４２巷","ALLEY":" ","HOUSE_NO":"３９之６號","E_COORD97":176488.35000000001,"N_COORD97":2559553.77,"ADDRESS":"陽明路１４２巷３９之６號","OBJECTID":439855},"geometry":{"x":176488.35000000056,"y":2559553.7700000014}},{"attributes":{"ID":439881,"DIS_CODE":0,"TOWNNAME":"善化區","LI":"文正里","LIN":"13鄰","STREET":"陽明路","SECT":" ","MAREA":" ","LANE":"１４２巷","ALLEY":" ","HOUSE_NO":"３９之３５號","E_COORD97":176481.51000000001,"N_COORD97":2559607.27,"ADDRESS":"陽明路１４２巷３９之３５號","OBJECTID":439856},"geometry":{"x":176481.50999999978,"y":2559607.2699999977}},{"attributes":{"ID":439882,"DIS_CODE":0,"TOWNNAME":"善化區","LI":"文正里","LIN":"4鄰","STREET":"文正路","SECT":" ","MAREA":" ","LANE":"６９巷","ALLEY":" ","HOUSE_NO":"２號之１","E_COORD97":177084.98999999999,"N_COORD97":2559322.5299999998,"ADDRESS":"文正路６９巷２號之１","OBJECTID":439857},"geometry":{"x":177084.99000000115,"y":2559322.5299999993}},{"attributes":{"ID":439883,"DIS_CODE":0,"TOWNNAME":"善化區","LI":"小新里","LIN":" ","STREET":"成功路","SECT":" ","MAREA":" ","LANE":"１８６巷","ALLEY":" ","HOUSE_NO":"１５之１號","E_COORD97":179512.42999999999,"N_COORD97":2558819.77,"ADDRESS":"成功路１８６巷１５之１號","OBJECTID":439858},"geometry":{"x":179512.43000000063,"y":2558819.7699999996}},{"attributes":{"ID":439884,"DIS_CODE":0,"TOWNNAME":"善化區","LI":"文正里","LIN":"13鄰","STREET":"陽明路","SECT":" ","MAREA":" ","LANE":"１４２巷","ALLEY":" ","HOUSE_NO":"３９之８１號","E_COORD97":176551.57000000001,"N_COORD97":2559575.52,"ADDRESS":"陽明路１４２巷３９之８１號","OBJECTID":439859},"geometry":{"x":176551.5700000003,"y":2559575.5200000033}},{"attributes":{"ID":439885,"DIS_CODE":0,"TOWNNAME":"善化區","LI":"文正里","LIN":"14鄰","STREET":"陽明路","SECT":" ","MAREA":" ","LANE":"５７巷","ALLEY":" ","HOUSE_NO":"６３號","E_COORD97":176350.07000000001,"N_COORD97":2559273.7599999998,"ADDRESS":"陽明路５７巷６３號","OBJECTID":439860},"geometry":{"x":176350.07000000216,"y":2559273.7600000016}},{"attributes":{"ID":439886,"DIS_CODE":0,"TOWNNAME":"善化區","LI":"文正里","LIN":"4鄰","STREET":"文正路","SECT":" ","MAREA":" ","LANE":"７９巷","ALLEY":" ","HOUSE_NO":"１０號","E_COORD97":177106.54000000001,"N_COORD97":2559351.2799999998,"ADDRESS":"文正路７９巷１０號","OBJECTID":439861},"geometry":{"x":177106.54000000097,"y":2559351.2799999993}},{"attributes":{"ID":439887,"DIS_CODE":0,"TOWNNAME":"善化區","LI":"文正里","LIN":"4鄰","STREET":"文正路","SECT":" ","MAREA":" ","LANE":"６９巷","ALLEY":" ","HOUSE_NO":"１號","E_COORD97":177101.5,"N_COORD97":2559312.2799999998,"ADDRESS":"文正路６９巷１號","OBJECTID":439862},"geometry":{"x":177101.50000000093,"y":2559312.2800000031}},{"attributes":{"ID":439888,"DIS_CODE":0,"TOWNNAME":"善化區","LI":"小新里","LIN":" ","STREET":"成功路","SECT":" ","MAREA":" ","LANE":"１８６巷","ALLEY":" ","HOUSE_NO":"１２號","E_COORD97":179534.76999999999,"N_COORD97":2558875.5,"ADDRESS":"成功路１８６巷１２號","OBJECTID":439863},"geometry":{"x":179534.76999999862,"y":2558875.5000000019}},{"attributes":{"ID":439889,"DIS_CODE":0,"TOWNNAME":"善化區","LI":"小新里","LIN":" ","STREET":"成功路","SECT":" ","MAREA":" ","LANE":"１８６巷","ALLEY":" ","HOUSE_NO":"１３號","E_COORD97":179530.94,"N_COORD97":2558864,"ADDRESS":"成功路１８６巷１３號","OBJECTID":439864},"geometry":{"x":179530.94000000041,"y":2558864.0000000037}},{"attributes":{"ID":439890,"DIS_CODE":0,"TOWNNAME":"善化區","LI":"文正里","LIN":"13鄰","STREET":"陽明路","SECT":" ","MAREA":" ","LANE":"１４２巷","ALLEY":" ","HOUSE_NO":"３９之３９號","E_COORD97":176484.84,"N_COORD97":2559623.52,"ADDRESS":"陽明路１４２巷３９之３９號","OBJECTID":439865},"geometry":{"x":176484.83999999985,"y":2559623.5200000014}},{"attributes":{"ID":439891,"DIS_CODE":0,"TOWNNAME":"善化區","LI":"文正里","LIN":"13鄰","STREET":"陽明路","SECT":" ","MAREA":" ","LANE":"２３８巷","ALLEY":" ","HOUSE_NO":"２４號","E_COORD97":176334.35000000001,"N_COORD97":2559714,"ADDRESS":"陽明路２３８巷２４號","OBJECTID":439866},"geometry":{"x":176334.35000000056,"y":2559714}},{"attributes":{"ID":439892,"DIS_CODE":0,"TOWNNAME":"善化區","LI":"文正里","LIN":"4鄰","STREET":"文正路","SECT":" ","MAREA":" ","LANE":"６９巷","ALLEY":" ","HOUSE_NO":"１號之２","E_COORD97":177108.70000000001,"N_COORD97":2559298.7799999998,"ADDRESS":"文正路６９巷１號之２","OBJECTID":439867},"geometry":{"x":177108.70000000112,"y":2559298.7800000031}},{"attributes":{"ID":439893,"DIS_CODE":0,"TOWNNAME":"善化區","LI":"文正里","LIN":"13鄰","STREET":"陽明路","SECT":" ","MAREA":" ","LANE":"１４２巷","ALLEY":" ","HOUSE_NO":"３９之８３號","E_COORD97":176553.72,"N_COORD97":2559561.02,"ADDRESS":"陽明路１４２巷３９之８３號","OBJECTID":439868},"geometry":{"x":176553.72000000067,"y":2559561.0199999996}},{"attributes":{"ID":439894,"DIS_CODE":0,"TOWNNAME":"善化區","LI":"文正里","LIN":"13鄰","STREET":"陽明路","SECT":" ","MAREA":" ","LANE":"１４２巷","ALLEY":" ","HOUSE_NO":"３９之３０號","E_COORD97":176504.38,"N_COORD97":2559610.77,"ADDRESS":"陽明路１４２巷３９之３０號","OBJECTID":439869},"geometry":{"x":176504.37999999989,"y":2559610.7700000033}},{"attributes":{"ID":439895,"DIS_CODE":0,"TOWNNAME":"善化區","LI":"文正里","LIN":"4鄰","STREET":"文正路","SECT":" ","MAREA":" ","LANE":"７９巷","ALLEY":" ","HOUSE_NO":"３號","E_COORD97":177123.95000000001,"N_COORD97":2559335.0299999998,"ADDRESS":"文正路７９巷３號","OBJECTID":439870},"geometry":{"x":177123.95000000112,"y":2559335.0300000012}},{"attributes":{"ID":439896,"DIS_CODE":0,"TOWNNAME":"善化區","LI":"文正里","LIN":"13鄰","STREET":"陽明路","SECT":" ","MAREA":" ","LANE":"１４２巷","ALLEY":" ","HOUSE_NO":"３９之７６號","E_COORD97":176536.17000000001,"N_COORD97":2559604.52,"ADDRESS":"陽明路１４２巷３９之７６號","OBJECTID":439871},"geometry":{"x":176536.17000000086,"y":2559604.5199999996}},{"attributes":{"ID":439897,"DIS_CODE":0,"TOWNNAME":"善化區","LI":"光文里","LIN":" ","STREET":"信義路","SECT":" ","MAREA":" ","LANE":"１５５巷","ALLEY":" ","HOUSE_NO":"１７號","E_COORD97":178147.07000000001,"N_COORD97":2559036.5,"ADDRESS":"信義路１５５巷１７號","OBJECTID":439872},"geometry":{"x":178147.07000000216,"y":2559036.5}},{"attributes":{"ID":439898,"DIS_CODE":0,"TOWNNAME":"善化區","LI":"文昌里","LIN":"20鄰","STREET":"中正路","SECT":" ","MAREA":" ","LANE":"２１２巷","ALLEY":" ","HOUSE_NO":"１６號","E_COORD97":177789.72,"N_COORD97":2558293.25,"ADDRESS":"中正路２１２巷１６號","OBJECTID":439873},"geometry":{"x":177789.72000000067,"y":2558293.2500000019}},{"attributes":{"ID":439899,"DIS_CODE":0,"TOWNNAME":"善化區","LI":"文正里","LIN":"13鄰","STREET":"陽明路","SECT":" ","MAREA":" ","LANE":"１４２巷","ALLEY":" ","HOUSE_NO":"３９之７３號","E_COORD97":176538.04999999999,"N_COORD97":2559589.77,"ADDRESS":"陽明路１４２巷３９之７３號","OBJECTID":439874},"geometry":{"x":176538.05000000075,"y":2559589.7699999996}},{"attributes":{"ID":439900,"DIS_CODE":0,"TOWNNAME":"善化區","LI":"文正里","LIN":"13鄰","STREET":"陽明路","SECT":" ","MAREA":" ","LANE":"１４２巷","ALLEY":" ","HOUSE_NO":"３９之３６號","E_COORD97":176475.70999999999,"N_COORD97":2559606.52,"ADDRESS":"陽明路１４２巷３９之３６號","OBJECTID":439875},"geometry":{"x":176475.70999999996,"y":2559606.5200000014}},{"attributes":{"ID":439901,"DIS_CODE":0,"TOWNNAME":"善化區","LI":"文正里","LIN":"13鄰","STREET":"陽明路","SECT":" ","MAREA":" ","LANE":"１４２巷","ALLEY":" ","HOUSE_NO":"３９之２５號","E_COORD97":176511.54000000001,"N_COORD97":2559575.27,"ADDRESS":"陽明路１４２巷３９之２５號","OBJECTID":439876},"geometry":{"x":176511.54000000097,"y":2559575.2700000014}},{"attributes":{"ID":439902,"DIS_CODE":0,"TOWNNAME":"善化區","LI":"文昌里","LIN":"18鄰","STREET":"興華路","SECT":" ","MAREA":" ","LANE":"３１７巷","ALLEY":" ","HOUSE_NO":"３號","E_COORD97":177757.10000000001,"N_COORD97":2558473.5,"ADDRESS":"興華路３１７巷３號","OBJECTID":439877},"geometry":{"x":177757.09999999963,"y":2558473.5}},{"attributes":{"ID":439903,"DIS_CODE":0,"TOWNNAME":"善化區","LI":"文昌里","LIN":"20鄰","STREET":"中正路","SECT":" ","MAREA":" ","LANE":"２１２巷","ALLEY":" ","HOUSE_NO":"４３號之１","E_COORD97":177789.04000000001,"N_COORD97":2558259.02,"ADDRESS":"中正路２１２巷４３號之１","OBJECTID":439878},"geometry":{"x":177789.04000000004,"y":2558259.0199999996}},{"attributes":{"ID":439904,"DIS_CODE":0,"TOWNNAME":"善化區","LI":"文正里","LIN":"13鄰","STREET":"陽明路","SECT":" ","MAREA":" ","LANE":"１４２巷","ALLEY":" ","HOUSE_NO":"３９之３２號","E_COORD97":176493.04000000001,"N_COORD97":2559609.02,"ADDRESS":"陽明路１４２巷３９之３２號","OBJECTID":439879},"geometry":{"x":176493.04000000097,"y":2559609.0199999977}},{"attributes":{"ID":439905,"DIS_CODE":0,"TOWNNAME":"善化區","LI":"文正里","LIN":"13鄰","STREET":"陽明路","SECT":" ","MAREA":" ","LANE":"２３８巷","ALLEY":" ","HOUSE_NO":"２號","E_COORD97":176149.22,"N_COORD97":2559693.0099999998,"ADDRESS":"陽明路２３８巷２號","OBJECTID":439880},"geometry":{"x":176149.22000000067,"y":2559693.0099999998}},{"attributes":{"ID":439906,"DIS_CODE":0,"TOWNNAME":"善化區","LI":"文正里","LIN":"13鄰","STREET":"陽明路","SECT":" ","MAREA":" ","LANE":"１４２巷","ALLEY":" ","HOUSE_NO":"６６號","E_COORD97":176591.79000000001,"N_COORD97":2559516.7599999998,"ADDRESS":"陽明路１４２巷６６號","OBJECTID":439881},"geometry":{"x":176591.79000000004,"y":2559516.7600000016}},{"attributes":{"ID":439907,"DIS_CODE":0,"TOWNNAME":"善化區","LI":"光文里","LIN":" ","STREET":"中正路","SECT":" ","MAREA":" ","LANE":"６４０巷","ALLEY":" ","HOUSE_NO":"２３號","E_COORD97":177743.78,"N_COORD97":2559493.25,"ADDRESS":"中正路６４０巷２３號","OBJECTID":439882},"geometry":{"x":177743.78000000212,"y":2559493.2500000019}},{"attributes":{"ID":439908,"DIS_CODE":0,"TOWNNAME":"善化區","LI":"文昌里","LIN":"20鄰","STREET":"中正路","SECT":" ","MAREA":" ","LANE":"２１２巷","ALLEY":" ","HOUSE_NO":"１１號","E_COORD97":177786.03,"N_COORD97":2558307.5,"ADDRESS":"中正路２１２巷１１號","OBJECTID":439883},"geometry":{"x":177786.02999999933,"y":2558307.5}},{"attributes":{"ID":439909,"DIS_CODE":0,"TOWNNAME":"善化區","LI":"文正里","LIN":"13鄰","STREET":"陽明路","SECT":" ","MAREA":" ","LANE":"１４２巷","ALLEY":" ","HOUSE_NO":"３９之６６號","E_COORD97":176522.98000000001,"N_COORD97":2559571.52,"ADDRESS":"陽明路１４２巷３９之６６號","OBJECTID":439884},"geometry":{"x":176522.98000000045,"y":2559571.5199999996}},{"attributes":{"ID":439910,"DIS_CODE":0,"TOWNNAME":"善化區","LI":"文昌里","LIN":"20鄰","STREET":"中正路","SECT":" ","MAREA":" ","LANE":"２１２巷","ALLEY":" ","HOUSE_NO":"２８號","E_COORD97":177758.57999999999,"N_COORD97":2558265.25,"ADDRESS":"中正路２１２巷２８號","OBJECTID":439885},"geometry":{"x":177758.58000000194,"y":2558265.25}},{"attributes":{"ID":439911,"DIS_CODE":0,"TOWNNAME":"善化區","LI":"文正里","LIN":"13鄰","STREET":"陽明路","SECT":" ","MAREA":" ","LANE":"１４２巷","ALLEY":" ","HOUSE_NO":"３９之８６號","E_COORD97":176542.42999999999,"N_COORD97":2559546.52,"ADDRESS":"陽明路１４２巷３９之８６號","OBJECTID":439886},"geometry":{"x":176542.43000000063,"y":2559546.5199999996}},{"attributes":{"ID":439912,"DIS_CODE":0,"TOWNNAME":"善化區","LI":"文正里","LIN":"13鄰","STREET":"陽明路","SECT":" ","MAREA":" ","LANE":"１４２巷","ALLEY":" ","HOUSE_NO":"６０號","E_COORD97":176518.35999999999,"N_COORD97":2559516.5099999998,"ADDRESS":"陽明路１４２巷６０號","OBJECTID":439887},"geometry":{"x":176518.36000000127,"y":2559516.5099999998}},{"attributes":{"ID":439913,"DIS_CODE":0,"TOWNNAME":"善化區","LI":"文昌里","LIN":"18鄰","STREET":"中正路","SECT":" ","MAREA":" ","LANE":"２６６巷","ALLEY":" ","HOUSE_NO":"１０號","E_COORD97":177747.48000000001,"N_COORD97":2558407.5,"ADDRESS":"中正路２６６巷１０號","OBJECTID":439888},"geometry":{"x":177747.48000000045,"y":2558407.5000000019}},{"attributes":{"ID":439914,"DIS_CODE":0,"TOWNNAME":"善化區","LI":"文昌里","LIN":"20鄰","STREET":"中正路","SECT":" ","MAREA":" ","LANE":"２１２巷","ALLEY":" ","HOUSE_NO":"２１號","E_COORD97":177769.17000000001,"N_COORD97":2558289.5,"ADDRESS":"中正路２１２巷２１號","OBJECTID":439889},"geometry":{"x":177769.16999999993,"y":2558289.5}},{"attributes":{"ID":439915,"DIS_CODE":0,"TOWNNAME":"善化區","LI":"文正里","LIN":"13鄰","STREET":"陽明路","SECT":" ","MAREA":" ","LANE":"１４２巷","ALLEY":" ","HOUSE_NO":"３９之４３號","E_COORD97":176508.17000000001,"N_COORD97":2559627.27,"ADDRESS":"陽明路１４２巷３９之４３號","OBJECTID":439890},"geometry":{"x":176508.16999999993,"y":2559627.2699999996}},{"attributes":{"ID":439916,"DIS_CODE":0,"TOWNNAME":"善化區","LI":"文正里","LIN":"4鄰","STREET":"文正路","SECT":" ","MAREA":" ","LANE":"７９巷","ALLEY":" ","HOUSE_NO":"１號","E_COORD97":177132.01000000001,"N_COORD97":2559327.2799999998,"ADDRESS":"文正路７９巷１號","OBJECTID":439891},"geometry":{"x":177132.01000000071,"y":2559327.2800000012}},{"attributes":{"ID":439917,"DIS_CODE":0,"TOWNNAME":"善化區","LI":"文昌里","LIN":"20鄰","STREET":"中正路","SECT":" ","MAREA":" ","LANE":"２１２巷","ALLEY":" ","HOUSE_NO":"５號","E_COORD97":177760.62,"N_COORD97":2558303,"ADDRESS":"中正路２１２巷５號","OBJECTID":439892},"geometry":{"x":177760.62000000104,"y":2558303}},{"attributes":{"ID":439918,"DIS_CODE":0,"TOWNNAME":"楠西區","LI":"灣丘里","LIN":"3鄰","STREET":" ","SECT":" ","MAREA":"灣丘","LANE":" ","ALLEY":" ","HOUSE_NO":"２８號之４","E_COORD97":199859.701069,"N_COORD97":2564010.0365499998,"ADDRESS":"灣丘２８號之４","OBJECTID":439893},"geometry":{"x":199859.70106900018,"y":2564010.0365470015}},{"attributes":{"ID":439919,"DIS_CODE":0,"TOWNNAME":"安南區","LI":"海東里","LIN":"4鄰","STREET":"海中街","SECT":" ","MAREA":" ","LANE":"１３０巷","ALLEY":" ","HOUSE_NO":"３５號","E_COORD97":166472.12,"N_COORD97":2549175.4300000002,"ADDRESS":"海中街１３０巷３５號","OBJECTID":439894},"geometry":{"x":166472.12000000104,"y":2549175.4300000016}},{"attributes":{"ID":439920,"DIS_CODE":0,"TOWNNAME":"安南區","LI":"海東里","LIN":"4鄰","STREET":"海中街","SECT":" ","MAREA":" ","LANE":"１３０巷","ALLEY":" ","HOUSE_NO":"３７號","E_COORD97":166476.32000000001,"N_COORD97":2549177.04,"ADDRESS":"海中街１３０巷３７號","OBJECTID":439895},"geometry":{"x":166476.32000000123,"y":2549177.040000001}},{"attributes":{"ID":439921,"DIS_CODE":0,"TOWNNAME":"安南區","LI":"海東里","LIN":"4鄰","STREET":"海中街","SECT":" ","MAREA":" ","LANE":"１３８巷","ALLEY":" ","HOUSE_NO":"３０號","E_COORD97":166468.81,"N_COORD97":2549184.1200000001,"ADDRESS":"海中街１３８巷３０號","OBJECTID":439896},"geometry":{"x":166468.81000000052,"y":2549184.120000001}},{"attributes":{"ID":439922,"DIS_CODE":0,"TOWNNAME":"安南區","LI":"城南里","LIN":"5鄰","STREET":"城西街","SECT":"一段","MAREA":" ","LANE":"１９４巷","ALLEY":" ","HOUSE_NO":"２８號","E_COORD97":160399.32999999999,"N_COORD97":2551283.6200000001,"ADDRESS":"城西街一段１９４巷２８號","OBJECTID":439897},"geometry":{"x":160399.33000000007,"y":2551283.6200000029}},{"attributes":{"ID":439923,"DIS_CODE":0,"TOWNNAME":"安南區","LI":"海南里","LIN":"13鄰","STREET":"府安路","SECT":"七段","MAREA":" ","LANE":"５７巷","ALLEY":" ","HOUSE_NO":"５號","E_COORD97":165931,"N_COORD97":2545928.0899999999,"ADDRESS":"府安路七段５７巷５號","OBJECTID":439898},"geometry":{"x":165931,"y":2545928.0899999999}},{"attributes":{"ID":439924,"DIS_CODE":0,"TOWNNAME":"安南區","LI":"海南里","LIN":"13鄰","STREET":"府安路","SECT":"七段","MAREA":" ","LANE":"５７巷","ALLEY":" ","HOUSE_NO":"７號","E_COORD97":165925.76000000001,"N_COORD97":2545934.1400000001,"ADDRESS":"府安路七段５７巷７號","OBJECTID":439899},"geometry":{"x":165925.75999999978,"y":2545934.1400000025}},{"attributes":{"ID":439925,"DIS_CODE":0,"TOWNNAME":"安南區","LI":"安東里","LIN":"4鄰","STREET":"安和路","SECT":"一段","MAREA":" ","LANE":"２８８巷","ALLEY":" ","HOUSE_NO":"１３７號之２","E_COORD97":169656.29999999999,"N_COORD97":2548290.1899999999,"ADDRESS":"安和路一段２８８巷１３７號之２","OBJECTID":439900},"geometry":{"x":169656.29999999981,"y":2548290.1899999995}},{"attributes":{"ID":439926,"DIS_CODE":0,"TOWNNAME":"安南區","LI":"安東里","LIN":"4鄰","STREET":"安和路","SECT":"一段","MAREA":" ","LANE":"２８８巷","ALLEY":" ","HOUSE_NO":"１３７號之３","E_COORD97":169650.28,"N_COORD97":2548296.5899999999,"ADDRESS":"安和路一段２８８巷１３７號之３","OBJECTID":439901},"geometry":{"x":169650.28000000026,"y":2548296.5900000017}},{"attributes":{"ID":439927,"DIS_CODE":0,"TOWNNAME":"安南區","LI":"安東里","LIN":"4鄰","STREET":"安和路","SECT":"一段","MAREA":" ","LANE":"２８８巷","ALLEY":" ","HOUSE_NO":"１３７號之１","E_COORD97":169662.32999999999,"N_COORD97":2548283.9199999999,"ADDRESS":"安和路一段２８８巷１３７號之１","OBJECTID":439902},"geometry":{"x":169662.33000000194,"y":2548283.9200000018}},{"attributes":{"ID":439928,"DIS_CODE":0,"TOWNNAME":"安南區","LI":"溪心里","LIN":"15鄰","STREET":"仁安一街","SECT":" ","MAREA":" ","LANE":"２０７巷","ALLEY":" ","HOUSE_NO":"１７號","E_COORD97":165868.45999999999,"N_COORD97":2550449.9900000002,"ADDRESS":"仁安一街２０７巷１７號","OBJECTID":439903},"geometry":{"x":165868.45999999996,"y":2550449.9900000021}},{"attributes":{"ID":439929,"DIS_CODE":0,"TOWNNAME":"安南區","LI":"南興里","LIN":"12鄰","STREET":"公學路","SECT":"五段","MAREA":" ","LANE":"６５６巷","ALLEY":" ","HOUSE_NO":"３００號之１","E_COORD97":164479.51999999999,"N_COORD97":2553606.8199999998,"ADDRESS":"公學路五段６５６巷３００號之１","OBJECTID":439904},"geometry":{"x":164479.51999999955,"y":2553606.8199999984}},{"attributes":{"ID":439930,"DIS_CODE":0,"TOWNNAME":"北區","LI":"大豐里","LIN":"20鄰","STREET":"大興街","SECT":" ","MAREA":" ","LANE":"２３３巷","ALLEY":" ","HOUSE_NO":"５６號八樓之２","E_COORD97":166846.79999999999,"N_COORD97":2545498.4500000002,"ADDRESS":"大興街２３３巷５６號八樓之２","OBJECTID":439905},"geometry":{"x":166846.80000000075,"y":2545498.4499999974}},{"attributes":{"ID":439931,"DIS_CODE":0,"TOWNNAME":"白河區","LI":"外角里","LIN":" ","STREET":"光明街","SECT":" ","MAREA":" ","LANE":"７２巷","ALLEY":" ","HOUSE_NO":"１７號","E_COORD97":190596.41,"N_COORD97":2583412.1000000001,"ADDRESS":"光明街７２巷１７號","OBJECTID":439906},"geometry":{"x":190596.41000000108,"y":2583412.0999999996}},{"attributes":{"ID":439932,"DIS_CODE":0,"TOWNNAME":"白河區","LI":"外角里","LIN":" ","STREET":"光明街","SECT":" ","MAREA":" ","LANE":"７２巷","ALLEY":" ","HOUSE_NO":"１９號","E_COORD97":190595.59,"N_COORD97":2583409.3300000001,"ADDRESS":"光明街７２巷１９號","OBJECTID":439907},"geometry":{"x":190595.58999999985,"y":2583409.3300000019}},{"attributes":{"ID":439933,"DIS_CODE":0,"TOWNNAME":"白河區","LI":"外角里","LIN":" ","STREET":"光明街","SECT":" ","MAREA":" ","LANE":"７２巷","ALLEY":" ","HOUSE_NO":"２３號","E_COORD97":190594.59,"N_COORD97":2583401.73,"ADDRESS":"光明街７２巷２３號","OBJECTID":439908},"geometry":{"x":190594.59000000078,"y":2583401.7300000004}},{"attributes":{"ID":439934,"DIS_CODE":0,"TOWNNAME":"白河區","LI":"外角里","LIN":" ","STREET":"光明街","SECT":" ","MAREA":" ","LANE":"７２巷","ALLEY":" ","HOUSE_NO":"４號","E_COORD97":190584.14999999999,"N_COORD97":2583407.5499999998,"ADDRESS":"光明街７２巷４號","OBJECTID":439909},"geometry":{"x":190584.15000000224,"y":2583407.5500000045}},{"attributes":{"ID":439935,"DIS_CODE":0,"TOWNNAME":"白河區","LI":"庄內里","LIN":" ","STREET":"自立街","SECT":" ","MAREA":" ","LANE":"１巷","ALLEY":" ","HOUSE_NO":"１號","E_COORD97":190783.84,"N_COORD97":2583453.6400000001,"ADDRESS":"自立街１巷１號","OBJECTID":439910},"geometry":{"x":190783.83999999985,"y":2583453.6400000006}},{"attributes":{"ID":439936,"DIS_CODE":0,"TOWNNAME":"白河區","LI":"永安里","LIN":" ","STREET":"西安街","SECT":" ","MAREA":" ","LANE":"４８巷","ALLEY":" ","HOUSE_NO":"１５號","E_COORD97":189788.56,"N_COORD97":2582827.8599999999,"ADDRESS":"西安街４８巷１５號","OBJECTID":439911},"geometry":{"x":189788.55999999959,"y":2582827.8600000013}},{"attributes":{"ID":439937,"DIS_CODE":0,"TOWNNAME":"白河區","LI":"庄內里","LIN":"1鄰","STREET":"和平街","SECT":" ","MAREA":" ","LANE":"３０巷","ALLEY":" ","HOUSE_NO":"２號","E_COORD97":191054.95999999999,"N_COORD97":2583499.4199999999,"ADDRESS":"和平路３０巷２號","OBJECTID":439912},"geometry":{"x":191054.96000000089,"y":2583499.4200000018}},{"attributes":{"ID":439938,"DIS_CODE":0,"TOWNNAME":"白河區","LI":"庄內里","LIN":"1鄰","STREET":"和平街","SECT":" ","MAREA":" ","LANE":"３０巷","ALLEY":" ","HOUSE_NO":"３號","E_COORD97":191053.67000000001,"N_COORD97":2583503.0899999999,"ADDRESS":"和平路３０巷３號","OBJECTID":439913},"geometry":{"x":191053.67000000086,"y":2583503.0899999999}},{"attributes":{"ID":439939,"DIS_CODE":0,"TOWNNAME":"白河區","LI":"庄內里","LIN":"1鄰","STREET":"和平街","SECT":" ","MAREA":" ","LANE":"３０巷","ALLEY":" ","HOUSE_NO":"４號","E_COORD97":191052.60000000001,"N_COORD97":2583507.02,"ADDRESS":"和平路３０巷４號","OBJECTID":439914},"geometry":{"x":191052.59999999963,"y":2583507.0199999996}},{"attributes":{"ID":439940,"DIS_CODE":0,"TOWNNAME":"白河區","LI":"白河里","LIN":" ","STREET":"南昌街","SECT":" ","MAREA":" ","LANE":"１６巷","ALLEY":" ","HOUSE_NO":"１０之１１號","E_COORD97":190263.98999999999,"N_COORD97":2582776.04,"ADDRESS":"南昌街１６巷１０之１１號","OBJECTID":439915},"geometry":{"x":190263.99000000022,"y":2582776.040000001}},{"attributes":{"ID":439941,"DIS_CODE":0,"TOWNNAME":"官田區","LI":"隆田里","LIN":"15鄰","STREET":"四維街","SECT":" ","MAREA":" ","LANE":"７２巷","ALLEY":" ","HOUSE_NO":"９號","E_COORD97":180258.23999999999,"N_COORD97":2566118.21,"ADDRESS":"四維街７２巷９號","OBJECTID":439916},"geometry":{"x":180258.24000000115,"y":2566118.2100000009}},{"attributes":{"ID":439942,"DIS_CODE":0,"TOWNNAME":"仁德區","LI":"土庫里","LIN":"20鄰","STREET":"太子二街","SECT":" ","MAREA":" ","LANE":"１３８巷","ALLEY":" ","HOUSE_NO":"７號","E_COORD97":174452.20000000001,"N_COORD97":2543244.5099999998,"ADDRESS":"太子二街１３８巷７號","OBJECTID":439917},"geometry":{"x":174452.20000000205,"y":2543244.5100000016}},{"attributes":{"ID":439943,"DIS_CODE":0,"TOWNNAME":"仁德區","LI":"土庫里","LIN":"4鄰","STREET":"中正路","SECT":"三段","MAREA":" ","LANE":"５２３巷","ALLEY":" ","HOUSE_NO":"９２號","E_COORD97":173668.85999999999,"N_COORD97":2543071.52,"ADDRESS":"中正路三段５２３巷９２號","OBJECTID":439918},"geometry":{"x":173668.86000000127,"y":2543071.5200000014}},{"attributes":{"ID":439944,"DIS_CODE":0,"TOWNNAME":"仁德區","LI":"一甲里","LIN":"18鄰","STREET":"忠義路","SECT":" ","MAREA":" ","LANE":"２５１巷","ALLEY":" ","HOUSE_NO":"５之３號","E_COORD97":173857.67000000001,"N_COORD97":2541804.79,"ADDRESS":"忠義路２５１巷５之３號","OBJECTID":439919},"geometry":{"x":173857.67000000086,"y":2541804.790000001}},{"attributes":{"ID":439945,"DIS_CODE":0,"TOWNNAME":"仁德區","LI":"二行里","LIN":"4鄰","STREET":"二行一路","SECT":" ","MAREA":" ","LANE":"８３巷","ALLEY":" ","HOUSE_NO":"２０號","E_COORD97":170349.84,"N_COORD97":2535363.5,"ADDRESS":"二行一路８３巷２０號","OBJECTID":439920},"geometry":{"x":170349.83999999985,"y":2535363.5000000019}},{"attributes":{"ID":439946,"DIS_CODE":0,"TOWNNAME":"仁德區","LI":"一甲里","LIN":"18鄰","STREET":"忠義路","SECT":" ","MAREA":" ","LANE":"２５１巷","ALLEY":" ","HOUSE_NO":"１２號","E_COORD97":173822.89000000001,"N_COORD97":2541800.8999999999,"ADDRESS":"忠義路２５１巷１２號","OBJECTID":439921},"geometry":{"x":173822.88999999966,"y":2541800.9000000004}},{"attributes":{"ID":439947,"DIS_CODE":0,"TOWNNAME":"仁德區","LI":"土庫里","LIN":"20鄰","STREET":"太子二街","SECT":" ","MAREA":" ","LANE":"１５６巷","ALLEY":" ","HOUSE_NO":"６號","E_COORD97":174465.39999999999,"N_COORD97":2543204.5099999998,"ADDRESS":"太子二街１５６巷６號","OBJECTID":439922},"geometry":{"x":174465.40000000037,"y":2543204.5100000016}},{"attributes":{"ID":439948,"DIS_CODE":0,"TOWNNAME":"仁德區","LI":"仁義里","LIN":"50鄰","STREET":"仁義路","SECT":" ","MAREA":" ","LANE":"９５巷","ALLEY":" ","HOUSE_NO":"２８號","E_COORD97":173635.87,"N_COORD97":2541056.52,"ADDRESS":"仁義路９５巷２８號","OBJECTID":439923},"geometry":{"x":173635.87000000104,"y":2541056.5199999996}},{"attributes":{"ID":439949,"DIS_CODE":0,"TOWNNAME":"仁德區","LI":"一甲里","LIN":"18鄰","STREET":"忠義路","SECT":" ","MAREA":" ","LANE":"２５１巷","ALLEY":" ","HOUSE_NO":"５之６號","E_COORD97":173868.19,"N_COORD97":2541804.29,"ADDRESS":"忠義路２５１巷５之６號","OBJECTID":439924},"geometry":{"x":173868.19000000134,"y":2541804.2900000028}},{"attributes":{"ID":439950,"DIS_CODE":0,"TOWNNAME":"仁德區","LI":"大甲里","LIN":"20鄰","STREET":"行大街","SECT":" ","MAREA":" ","LANE":"４２２巷","ALLEY":" ","HOUSE_NO":"５號","E_COORD97":169435.10999999999,"N_COORD97":2535319.7400000002,"ADDRESS":"行大街４２２巷５號","OBJECTID":439925},"geometry":{"x":169435.1100000022,"y":2535319.7400000039}},{"attributes":{"ID":439951,"DIS_CODE":0,"TOWNNAME":"仁德區","LI":"土庫里","LIN":"13鄰","STREET":"土庫路","SECT":" ","MAREA":" ","LANE":"２１１巷","ALLEY":" ","HOUSE_NO":"８號","E_COORD97":174313.67000000001,"N_COORD97":2542882.75,"ADDRESS":"土庫路２１１巷８號","OBJECTID":439926},"geometry":{"x":174313.67000000086,"y":2542882.75}},{"attributes":{"ID":439952,"DIS_CODE":0,"TOWNNAME":"仁德區","LI":"上崙里","LIN":"13鄰","STREET":"德崙路","SECT":" ","MAREA":" ","LANE":"４５０巷","ALLEY":" ","HOUSE_NO":"１０號","E_COORD97":174221.03,"N_COORD97":2538034.27,"ADDRESS":"德崙路４５０巷１０號","OBJECTID":439927},"geometry":{"x":174221.02999999933,"y":2538034.2699999977}},{"attributes":{"ID":439953,"DIS_CODE":0,"TOWNNAME":"仁德區","LI":"二行里","LIN":"4鄰","STREET":"二行一路","SECT":" ","MAREA":" ","LANE":"８３巷","ALLEY":" ","HOUSE_NO":"１５號","E_COORD97":170348.76000000001,"N_COORD97":2535354,"ADDRESS":"二行一路８３巷１５號","OBJECTID":439928},"geometry":{"x":170348.75999999978,"y":2535354}},{"attributes":{"ID":439954,"DIS_CODE":0,"TOWNNAME":"仁德區","LI":"仁義里","LIN":"50鄰","STREET":"仁義路","SECT":" ","MAREA":" ","LANE":"９５巷","ALLEY":" ","HOUSE_NO":"４０號","E_COORD97":173636.31,"N_COORD97":2541082.7599999998,"ADDRESS":"仁義路９５巷４０號","OBJECTID":439929},"geometry":{"x":173636.30999999959,"y":2541082.7600000035}},{"attributes":{"ID":439955,"DIS_CODE":0,"TOWNNAME":"仁德區","LI":"大甲里","LIN":"18鄰","STREET":"行大街","SECT":" ","MAREA":" ","LANE":"５５５巷","ALLEY":" ","HOUSE_NO":"１２號","E_COORD97":169151.85999999999,"N_COORD97":2535426,"ADDRESS":"行大街５５５巷１２號","OBJECTID":439930},"geometry":{"x":169151.86000000034,"y":2535425.9999999981}},{"attributes":{"ID":439956,"DIS_CODE":0,"TOWNNAME":"仁德區","LI":"大甲里","LIN":"20鄰","STREET":"中正西路","SECT":" ","MAREA":" ","LANE":"４５８巷","ALLEY":" ","HOUSE_NO":"３５號","E_COORD97":169419.01000000001,"N_COORD97":2535560.5,"ADDRESS":"中正西路４５８巷３５號","OBJECTID":439931},"geometry":{"x":169419.01000000071,"y":2535560.5}},{"attributes":{"ID":439957,"DIS_CODE":0,"TOWNNAME":"仁德區","LI":"大甲里","LIN":"20鄰","STREET":"行大街","SECT":" ","MAREA":" ","LANE":"４８０巷","ALLEY":" ","HOUSE_NO":"３４號","E_COORD97":169336.26000000001,"N_COORD97":2535422.9900000002,"ADDRESS":"行大街４８０巷３４號","OBJECTID":439932},"geometry":{"x":169336.25999999978,"y":2535422.9899999984}},{"attributes":{"ID":439958,"DIS_CODE":0,"TOWNNAME":"仁德區","LI":"土庫里","LIN":"13鄰","STREET":"土庫路","SECT":" ","MAREA":" ","LANE":"２４５巷","ALLEY":" ","HOUSE_NO":"６號","E_COORD97":174256.89999999999,"N_COORD97":2542824.5,"ADDRESS":"土庫路２４５巷６號","OBJECTID":439933},"geometry":{"x":174256.90000000037,"y":2542824.5000000019}},{"attributes":{"ID":439959,"DIS_CODE":0,"TOWNNAME":"仁德區","LI":"二行里","LIN":"4鄰","STREET":"二行一路","SECT":" ","MAREA":" ","LANE":"８３巷","ALLEY":" ","HOUSE_NO":"５號","E_COORD97":170381.29000000001,"N_COORD97":2535347.25,"ADDRESS":"二行一路８３巷５號","OBJECTID":439934},"geometry":{"x":170381.2900000019,"y":2535347.2500000019}},{"attributes":{"ID":439960,"DIS_CODE":0,"TOWNNAME":"仁德區","LI":"大甲里","LIN":"18鄰","STREET":"行大街","SECT":" ","MAREA":" ","LANE":"５５５巷","ALLEY":" ","HOUSE_NO":"１０號","E_COORD97":169147.70000000001,"N_COORD97":2535429.25,"ADDRESS":"行大街５５５巷１０號","OBJECTID":439935},"geometry":{"x":169147.70000000019,"y":2535429.2500000019}},{"attributes":{"ID":439961,"DIS_CODE":0,"TOWNNAME":"仁德區","LI":"上崙里","LIN":"13鄰","STREET":"德崙路","SECT":" ","MAREA":" ","LANE":"４５０巷","ALLEY":" ","HOUSE_NO":"２８號","E_COORD97":174179.35000000001,"N_COORD97":2537987.5099999998,"ADDRESS":"德崙路４５０巷２８號","OBJECTID":439936},"geometry":{"x":174179.35000000149,"y":2537987.5099999998}},{"attributes":{"ID":439962,"DIS_CODE":0,"TOWNNAME":"仁德區","LI":"二行里","LIN":"4鄰","STREET":"二行一路","SECT":" ","MAREA":" ","LANE":"８３巷","ALLEY":" ","HOUSE_NO":"２１號","E_COORD97":170327.56,"N_COORD97":2535358,"ADDRESS":"二行一路８３巷２１號","OBJECTID":439937},"geometry":{"x":170327.55999999959,"y":2535358}},{"attributes":{"ID":439963,"DIS_CODE":0,"TOWNNAME":"仁德區","LI":"土庫里","LIN":"4鄰","STREET":"中正路","SECT":"三段","MAREA":" ","LANE":"５２３巷","ALLEY":" ","HOUSE_NO":"１之１號","E_COORD97":173972.17999999999,"N_COORD97":2543060.54,"ADDRESS":"中正路三段５２３巷１之１號","OBJECTID":439938},"geometry":{"x":173972.18000000063,"y":2543060.540000001}},{"attributes":{"ID":439964,"DIS_CODE":0,"TOWNNAME":"仁德區","LI":"大甲里","LIN":"18鄰","STREET":"行大街","SECT":" ","MAREA":" ","LANE":"５５５巷","ALLEY":" ","HOUSE_NO":"６號","E_COORD97":169171.20999999999,"N_COORD97":2535418.2400000002,"ADDRESS":"行大街５５５巷６號","OBJECTID":439939},"geometry":{"x":169171.20999999903,"y":2535418.2400000039}},{"attributes":{"ID":439965,"DIS_CODE":0,"TOWNNAME":"仁德區","LI":"土庫里","LIN":"14鄰","STREET":"土庫路","SECT":" ","MAREA":" ","LANE":"１８５巷","ALLEY":" ","HOUSE_NO":"３６號","E_COORD97":174441.42999999999,"N_COORD97":2542949.7400000002,"ADDRESS":"土庫路１８５巷３６號","OBJECTID":439940},"geometry":{"x":174441.4299999997,"y":2542949.7400000021}},{"attributes":{"ID":439966,"DIS_CODE":0,"TOWNNAME":"仁德區","LI":"一甲里","LIN":"18鄰","STREET":"忠義路","SECT":" ","MAREA":" ","LANE":"２５１巷","ALLEY":" ","HOUSE_NO":"７之５號","E_COORD97":173863.45999999999,"N_COORD97":2541794.0499999998,"ADDRESS":"忠義路２５１巷７之５號","OBJECTID":439941},"geometry":{"x":173863.45999999996,"y":2541794.0500000045}},{"attributes":{"ID":439967,"DIS_CODE":0,"TOWNNAME":"仁德區","LI":"上崙里","LIN":"24鄰","STREET":"中正路","SECT":"一段","MAREA":" ","LANE":"７７４巷","ALLEY":" ","HOUSE_NO":"９號","E_COORD97":173027.45999999999,"N_COORD97":2537911.5299999998,"ADDRESS":"中正路一段７７４巷９號","OBJECTID":439942},"geometry":{"x":173027.45999999996,"y":2537911.5300000012}},{"attributes":{"ID":439968,"DIS_CODE":0,"TOWNNAME":"仁德區","LI":"二行里","LIN":"4鄰","STREET":"二行一路","SECT":" ","MAREA":" ","LANE":"８３巷","ALLEY":" ","HOUSE_NO":"３號","E_COORD97":170388.47,"N_COORD97":2535345.75,"ADDRESS":"二行一路８３巷３號","OBJECTID":439943},"geometry":{"x":170388.47000000067,"y":2535345.75}},{"attributes":{"ID":439969,"DIS_CODE":0,"TOWNNAME":"仁德區","LI":"大甲里","LIN":"18鄰","STREET":"行大街","SECT":" ","MAREA":" ","LANE":"５５５巷","ALLEY":" ","HOUSE_NO":"１６號","E_COORD97":169160.70999999999,"N_COORD97":2535406.7400000002,"ADDRESS":"行大街５５５巷１６號","OBJECTID":439944},"geometry":{"x":169160.70999999996,"y":2535406.7400000002}},{"attributes":{"ID":439970,"DIS_CODE":0,"TOWNNAME":"仁德區","LI":"仁義里","LIN":"42鄰","STREET":"中正路","SECT":"二段","MAREA":" ","LANE":"９９４巷","ALLEY":" ","HOUSE_NO":"６０號","E_COORD97":173572.81,"N_COORD97":2540780.8999999999,"ADDRESS":"中正路二段９９４巷６０號","OBJECTID":439945},"geometry":{"x":173572.81000000052,"y":2540780.9000000041}},{"attributes":{"ID":439971,"DIS_CODE":0,"TOWNNAME":"仁德區","LI":"土庫里","LIN":"14鄰","STREET":"土庫路","SECT":" ","MAREA":" ","LANE":"１８５巷","ALLEY":" ","HOUSE_NO":"２４號","E_COORD97":174393.62,"N_COORD97":2542938.2400000002,"ADDRESS":"土庫路１８５巷２４號","OBJECTID":439946},"geometry":{"x":174393.62000000104,"y":2542938.2400000021}},{"attributes":{"ID":439972,"DIS_CODE":0,"TOWNNAME":"仁德區","LI":"大甲里","LIN":"18鄰","STREET":"行大街","SECT":" ","MAREA":" ","LANE":"５５５巷","ALLEY":" ","HOUSE_NO":"１５號","E_COORD97":169169.29000000001,"N_COORD97":2535404.4900000002,"ADDRESS":"行大街５５５巷１５號","OBJECTID":439947},"geometry":{"x":169169.2900000019,"y":2535404.4900000021}},{"attributes":{"ID":439973,"DIS_CODE":0,"TOWNNAME":"仁德區","LI":"仁義里","LIN":"42鄰","STREET":"中正路","SECT":"二段","MAREA":" ","LANE":"９９４巷","ALLEY":" ","HOUSE_NO":"７８號","E_COORD97":173600.73000000001,"N_COORD97":2540792.6499999999,"ADDRESS":"中正路二段９９４巷７８號","OBJECTID":439948},"geometry":{"x":173600.73000000045,"y":2540792.6500000041}},{"attributes":{"ID":439974,"DIS_CODE":0,"TOWNNAME":"仁德區","LI":"上崙里","LIN":"13鄰","STREET":"德崙路","SECT":" ","MAREA":" ","LANE":"４５０巷","ALLEY":" ","HOUSE_NO":"３１號","E_COORD97":174198.70000000001,"N_COORD97":2538014.27,"ADDRESS":"德崙路４５０巷３１號","OBJECTID":439949},"geometry":{"x":174198.70000000112,"y":2538014.2700000033}},{"attributes":{"ID":439975,"DIS_CODE":0,"TOWNNAME":"仁德區","LI":"土庫里","LIN":"4鄰","STREET":"中正路","SECT":"三段","MAREA":" ","LANE":"５２３巷","ALLEY":" ","HOUSE_NO":"１２９號","E_COORD97":173341.32000000001,"N_COORD97":2543062.27,"ADDRESS":"中正路三段５２３巷１２９號","OBJECTID":439950},"geometry":{"x":173341.32000000123,"y":2543062.2699999977}},{"attributes":{"ID":439976,"DIS_CODE":0,"TOWNNAME":"仁德區","LI":"仁義里","LIN":"50鄰","STREET":"仁義路","SECT":" ","MAREA":" ","LANE":"９５巷","ALLEY":" ","HOUSE_NO":"４２號","E_COORD97":173636.70999999999,"N_COORD97":2541089.2599999998,"ADDRESS":"仁義路９５巷４２號","OBJECTID":439951},"geometry":{"x":173636.71000000089,"y":2541089.2599999998}},{"attributes":{"ID":439977,"DIS_CODE":0,"TOWNNAME":"仁德區","LI":"大甲里","LIN":"18鄰","STREET":"行大街","SECT":" ","MAREA":" ","LANE":"５５５巷","ALLEY":" ","HOUSE_NO":"１１號","E_COORD97":169181.34,"N_COORD97":2535389.9900000002,"ADDRESS":"行大街５５５巷１１號","OBJECTID":439952},"geometry":{"x":169181.33999999985,"y":2535389.9900000021}},{"attributes":{"ID":439978,"DIS_CODE":0,"TOWNNAME":"仁德區","LI":"大甲里","LIN":"18鄰","STREET":"行大街","SECT":" ","MAREA":" ","LANE":"５２１巷","ALLEY":" ","HOUSE_NO":"５號","E_COORD97":169246.72,"N_COORD97":2535350.25,"ADDRESS":"行大街５２１巷５號","OBJECTID":439953},"geometry":{"x":169246.71999999974,"y":2535350.2500000019}},{"attributes":{"ID":439979,"DIS_CODE":0,"TOWNNAME":"仁德區","LI":"土庫里","LIN":"20鄰","STREET":"太子二街","SECT":" ","MAREA":" ","LANE":"１５６巷","ALLEY":" ","HOUSE_NO":"１６號","E_COORD97":174438.64999999999,"N_COORD97":2543205.2599999998,"ADDRESS":"太子二街１５６巷１６號","OBJECTID":439954},"geometry":{"x":174438.65000000037,"y":2543205.2600000035}},{"attributes":{"ID":439980,"DIS_CODE":0,"TOWNNAME":"仁德區","LI":"一甲里","LIN":"13鄰","STREET":"忠義三街","SECT":" ","MAREA":" ","LANE":"２４巷","ALLEY":" ","HOUSE_NO":"１３號","E_COORD97":173678.16,"N_COORD97":2541742.2599999998,"ADDRESS":"忠義三街２４巷１３號","OBJECTID":439955},"geometry":{"x":173678.16000000108,"y":2541742.2599999998}},{"attributes":{"ID":439981,"DIS_CODE":0,"TOWNNAME":"仁德區","LI":"大甲里","LIN":"24鄰","STREET":"二仁路","SECT":"一段","MAREA":" ","LANE":"３１５巷","ALLEY":" ","HOUSE_NO":"３５５之１０號","E_COORD97":169539.63,"N_COORD97":2535871.0499999998,"ADDRESS":"二仁路一段３１５巷３５５之１０號","OBJECTID":439956},"geometry":{"x":169539.63000000175,"y":2535871.0500000045}},{"attributes":{"ID":439982,"DIS_CODE":0,"TOWNNAME":"仁德區","LI":"大甲里","LIN":"18鄰","STREET":"行大街","SECT":" ","MAREA":" ","LANE":"５５５巷","ALLEY":" ","HOUSE_NO":"１之１號","E_COORD97":169181.54999999999,"N_COORD97":2535405.54,"ADDRESS":"行大街５５５巷１之１號","OBJECTID":439957},"geometry":{"x":169181.55000000075,"y":2535405.540000001}},{"attributes":{"ID":439983,"DIS_CODE":0,"TOWNNAME":"仁德區","LI":"大甲里","LIN":"20鄰","STREET":"中正西路","SECT":" ","MAREA":" ","LANE":"４５８巷","ALLEY":" ","HOUSE_NO":"４８號","E_COORD97":169476.76000000001,"N_COORD97":2535595.4900000002,"ADDRESS":"中正西路４５８巷４８號","OBJECTID":439958},"geometry":{"x":169476.76000000071,"y":2535595.4900000002}},{"attributes":{"ID":439984,"DIS_CODE":0,"TOWNNAME":"下營區","LI":"大埤里","LIN":"10鄰","STREET":" ","SECT":" ","MAREA":"大埤寮","LANE":" ","ALLEY":" ","HOUSE_NO":"８５號之６","E_COORD97":172993.72997499999,"N_COORD97":2568891.1040599998,"ADDRESS":"大埤寮８５號之６","OBJECTID":439959},"geometry":{"x":172993.72997500002,"y":2568891.1040550023}},{"attributes":{"ID":439985,"DIS_CODE":0,"TOWNNAME":"仁德區","LI":"仁義里","LIN":"4鄰","STREET":"仁義三街","SECT":" ","MAREA":" ","LANE":"２０５巷","ALLEY":" ","HOUSE_NO":"３號","E_COORD97":173864,"N_COORD97":2541149.77,"ADDRESS":"仁義三街２０５巷３號","OBJECTID":439960},"geometry":{"x":173864.00000000093,"y":2541149.7699999996}},{"attributes":{"ID":439986,"DIS_CODE":0,"TOWNNAME":"仁德區","LI":"仁義里","LIN":"50鄰","STREET":"仁義路","SECT":" ","MAREA":" ","LANE":"９５巷","ALLEY":" ","HOUSE_NO":"３６號","E_COORD97":173635.39000000001,"N_COORD97":2541073.0099999998,"ADDRESS":"仁義路９５巷３６號","OBJECTID":439961},"geometry":{"x":173635.3900000006,"y":2541073.0099999998}},{"attributes":{"ID":439987,"DIS_CODE":0,"TOWNNAME":"仁德區","LI":"大甲里","LIN":"18鄰","STREET":"行大一街","SECT":" ","MAREA":" ","LANE":"４６７巷","ALLEY":" ","HOUSE_NO":"２號","E_COORD97":169279.28,"N_COORD97":2535238.5,"ADDRESS":"行大一街４６７巷２號","OBJECTID":439962},"geometry":{"x":169279.28000000026,"y":2535238.5}},{"attributes":{"ID":439988,"DIS_CODE":0,"TOWNNAME":"仁德區","LI":"仁義里","LIN":"42鄰","STREET":"中正路","SECT":"二段","MAREA":" ","LANE":"９９４巷","ALLEY":" ","HOUSE_NO":"８２號","E_COORD97":173601.32999999999,"N_COORD97":2540782.8900000001,"ADDRESS":"中正路二段９９４巷８２號","OBJECTID":439963},"geometry":{"x":173601.33000000007,"y":2540782.8900000006}},{"attributes":{"ID":439989,"DIS_CODE":0,"TOWNNAME":"仁德區","LI":"仁義里","LIN":"32鄰","STREET":"中清三街","SECT":" ","MAREA":" ","LANE":"４巷","ALLEY":" ","HOUSE_NO":"３號","E_COORD97":173524.09,"N_COORD97":2541487.54,"ADDRESS":"中清三街４巷３號","OBJECTID":439964},"geometry":{"x":173524.09000000078,"y":2541487.540000001}},{"attributes":{"ID":439990,"DIS_CODE":0,"TOWNNAME":"仁德區","LI":"仁義里","LIN":"42鄰","STREET":"中正路","SECT":"二段","MAREA":" ","LANE":"９９４巷","ALLEY":" ","HOUSE_NO":"７６號","E_COORD97":173581.22,"N_COORD97":2540789.6499999999,"ADDRESS":"中正路二段９９４巷７６號","OBJECTID":439965},"geometry":{"x":173581.21999999974,"y":2540789.6500000022}},{"attributes":{"ID":439991,"DIS_CODE":0,"TOWNNAME":"仁德區","LI":"仁義里","LIN":"18鄰","STREET":"正義三街","SECT":" ","MAREA":" ","LANE":"２８６巷","ALLEY":" ","HOUSE_NO":"３號","E_COORD97":174030.25,"N_COORD97":2541520.5099999998,"ADDRESS":"正義三街２８６巷３號","OBJECTID":439966},"geometry":{"x":174030.25000000093,"y":2541520.5099999998}},{"attributes":{"ID":439992,"DIS_CODE":0,"TOWNNAME":"仁德區","LI":"仁義里","LIN":"42鄰","STREET":"中正路","SECT":"二段","MAREA":" ","LANE":"９９４巷","ALLEY":" ","HOUSE_NO":"８０號","E_COORD97":173601.10999999999,"N_COORD97":2540787.6499999999,"ADDRESS":"中正路二段９９４巷８０號","OBJECTID":439967},"geometry":{"x":173601.11000000034,"y":2540787.6500000004}},{"attributes":{"ID":439993,"DIS_CODE":0,"TOWNNAME":"仁德區","LI":"一甲里","LIN":"18鄰","STREET":"忠義路","SECT":" ","MAREA":" ","LANE":"２５１巷","ALLEY":" ","HOUSE_NO":"５之１號","E_COORD97":173847.78,"N_COORD97":2541805.54,"ADDRESS":"忠義路２５１巷５之１號","OBJECTID":439968},"geometry":{"x":173847.78000000026,"y":2541805.5399999972}},{"attributes":{"ID":439994,"DIS_CODE":0,"TOWNNAME":"仁德區","LI":"大甲里","LIN":"20鄰","STREET":"中正西路","SECT":" ","MAREA":" ","LANE":"４５８巷","ALLEY":" ","HOUSE_NO":"４１之１號","E_COORD97":169472.70999999999,"N_COORD97":2535558.5499999998,"ADDRESS":"中正西路４５８巷４１之１號","OBJECTID":439969},"geometry":{"x":169472.70999999996,"y":2535558.5500000007}},{"attributes":{"ID":439995,"DIS_CODE":0,"TOWNNAME":"仁德區","LI":"仁義里","LIN":"42鄰","STREET":"中正路","SECT":"二段","MAREA":" ","LANE":"９９４巷","ALLEY":" ","HOUSE_NO":"８６號","E_COORD97":173601.76000000001,"N_COORD97":2540778.3999999999,"ADDRESS":"中正路二段９９４巷８６號","OBJECTID":439970},"geometry":{"x":173601.75999999978,"y":2540778.4000000022}},{"attributes":{"ID":439996,"DIS_CODE":0,"TOWNNAME":"仁德區","LI":"上崙里","LIN":"13鄰","STREET":"德崙路","SECT":" ","MAREA":" ","LANE":"４５０巷","ALLEY":" ","HOUSE_NO":"２３號","E_COORD97":174213.85000000001,"N_COORD97":2538017.77,"ADDRESS":"德崙路４５０巷２３號","OBJECTID":439971},"geometry":{"x":174213.85000000056,"y":2538017.7700000033}},{"attributes":{"ID":439997,"DIS_CODE":0,"TOWNNAME":"仁德區","LI":"仁義里","LIN":"50鄰","STREET":"仁義路","SECT":" ","MAREA":" ","LANE":"９５巷","ALLEY":" ","HOUSE_NO":"５０號","E_COORD97":173637.48000000001,"N_COORD97":2541107.7599999998,"ADDRESS":"仁義路９５巷５０號","OBJECTID":439972},"geometry":{"x":173637.48000000138,"y":2541107.7600000016}},{"attributes":{"ID":439998,"DIS_CODE":0,"TOWNNAME":"仁德區","LI":"太子里","LIN":"47鄰","STREET":"太子路","SECT":" ","MAREA":" ","LANE":"９巷","ALLEY":" ","HOUSE_NO":"６８號","E_COORD97":175433.81,"N_COORD97":2543405.2599999998,"ADDRESS":"太子路９巷６８號","OBJECTID":439973},"geometry":{"x":175433.80999999959,"y":2543405.2600000035}},{"attributes":{"ID":439999,"DIS_CODE":0,"TOWNNAME":"仁德區","LI":"仁義里","LIN":"41鄰","STREET":"中正路","SECT":"二段","MAREA":" ","LANE":"９３６巷","ALLEY":" ","HOUSE_NO":"２７號","E_COORD97":173515.92999999999,"N_COORD97":2540702.27,"ADDRESS":"中正路二段９３６巷２７號","OBJECTID":439974},"geometry":{"x":173515.92999999877,"y":2540702.2699999996}},{"attributes":{"ID":440000,"DIS_CODE":0,"TOWNNAME":"仁德區","LI":"仁義里","LIN":"50鄰","STREET":"仁義路","SECT":" ","MAREA":" ","LANE":"９５巷","ALLEY":" ","HOUSE_NO":"３４號","E_COORD97":173635.19,"N_COORD97":2541069.02,"ADDRESS":"仁義路９５巷３４號","OBJECTID":439975},"geometry":{"x":173635.19000000041,"y":2541069.0199999996}},{"attributes":{"ID":440001,"DIS_CODE":0,"TOWNNAME":"仁德區","LI":"大甲里","LIN":"18鄰","STREET":"行大街","SECT":" ","MAREA":" ","LANE":"５５５巷","ALLEY":" ","HOUSE_NO":"１４號","E_COORD97":169163.73000000001,"N_COORD97":2535410.4900000002,"ADDRESS":"行大街５５５巷１４號","OBJECTID":439976},"geometry":{"x":169163.73000000138,"y":2535410.4900000021}},{"attributes":{"ID":440002,"DIS_CODE":0,"TOWNNAME":"仁德區","LI":"仁義里","LIN":"42鄰","STREET":"中正路","SECT":"二段","MAREA":" ","LANE":"９９４巷","ALLEY":" ","HOUSE_NO":"９８號","E_COORD97":173624.5,"N_COORD97":2540781.77,"ADDRESS":"中正路二段９９４巷９８號","OBJECTID":439977},"geometry":{"x":173624.50000000093,"y":2540781.7700000014}},{"attributes":{"ID":440003,"DIS_CODE":0,"TOWNNAME":"仁德區","LI":"仁義里","LIN":"18鄰","STREET":"正義路","SECT":" ","MAREA":" ","LANE":"２０５巷","ALLEY":" ","HOUSE_NO":"２７號","E_COORD97":174004.35999999999,"N_COORD97":2541425.2599999998,"ADDRESS":"正義路２０５巷２７號","OBJECTID":439978},"geometry":{"x":174004.36000000127,"y":2541425.2600000035}},{"attributes":{"ID":440004,"DIS_CODE":0,"TOWNNAME":"仁德區","LI":"仁義里","LIN":"42鄰","STREET":"中正路","SECT":"二段","MAREA":" ","LANE":"９９４巷","ALLEY":" ","HOUSE_NO":"８８號","E_COORD97":173602.06,"N_COORD97":2540773.6499999999,"ADDRESS":"中正路二段９９４巷８８號","OBJECTID":439979},"geometry":{"x":173602.06000000052,"y":2540773.6500000022}},{"attributes":{"ID":440005,"DIS_CODE":0,"TOWNNAME":"仁德區","LI":"仁德里","LIN":"40鄰","STREET":"中山路","SECT":" ","MAREA":" ","LANE":"８７０巷","ALLEY":" ","HOUSE_NO":"８０號","E_COORD97":172275.79000000001,"N_COORD97":2541905.7400000002,"ADDRESS":"中山路８７０巷８０號","OBJECTID":439980},"geometry":{"x":172275.79000000004,"y":2541905.7400000002}},{"attributes":{"ID":440006,"DIS_CODE":0,"TOWNNAME":"仁德區","LI":"仁義里","LIN":"42鄰","STREET":"中正路","SECT":"二段","MAREA":" ","LANE":"９９４巷","ALLEY":" ","HOUSE_NO":"６２號","E_COORD97":173573.63,"N_COORD97":2540774.6499999999,"ADDRESS":"中正路二段９９４巷６２號","OBJECTID":439981},"geometry":{"x":173573.62999999989,"y":2540774.6500000004}},{"attributes":{"ID":440007,"DIS_CODE":0,"TOWNNAME":"仁德區","LI":"土庫里","LIN":"5鄰","STREET":"土庫六街","SECT":" ","MAREA":" ","LANE":"７５巷","ALLEY":" ","HOUSE_NO":"２１號","E_COORD97":174148.67999999999,"N_COORD97":2543223.75,"ADDRESS":"土庫六街７５巷２１號","OBJECTID":439982},"geometry":{"x":174148.68000000063,"y":2543223.7500000019}},{"attributes":{"ID":440008,"DIS_CODE":0,"TOWNNAME":"仁德區","LI":"土庫里","LIN":"13鄰","STREET":"土庫路","SECT":" ","MAREA":" ","LANE":"２１１巷","ALLEY":" ","HOUSE_NO":"４號","E_COORD97":174307.37,"N_COORD97":2542888.25,"ADDRESS":"土庫路２１１巷４號","OBJECTID":439983},"geometry":{"x":174307.37000000104,"y":2542888.2500000019}},{"attributes":{"ID":440009,"DIS_CODE":0,"TOWNNAME":"仁德區","LI":"仁義里","LIN":"4鄰","STREET":"仁義三街","SECT":" ","MAREA":" ","LANE":"２０５巷","ALLEY":" ","HOUSE_NO":"５號","E_COORD97":173859.69,"N_COORD97":2541149.77,"ADDRESS":"仁義三街２０５巷５號","OBJECTID":439984},"geometry":{"x":173859.69000000134,"y":2541149.7699999996}},{"attributes":{"ID":440010,"DIS_CODE":0,"TOWNNAME":"仁德區","LI":"仁義里","LIN":"18鄰","STREET":"正義三街","SECT":" ","MAREA":" ","LANE":"２８６巷","ALLEY":" ","HOUSE_NO":"１２號","E_COORD97":174005.32999999999,"N_COORD97":2541515.8300000001,"ADDRESS":"正義三街２８６巷１２號","OBJECTID":439985},"geometry":{"x":174005.33000000194,"y":2541515.8300000001}},{"attributes":{"ID":440011,"DIS_CODE":0,"TOWNNAME":"仁德區","LI":"仁義里","LIN":"42鄰","STREET":"中正路","SECT":"二段","MAREA":" ","LANE":"９９４巷","ALLEY":" ","HOUSE_NO":"４６號","E_COORD97":173542.10999999999,"N_COORD97":2540788.1499999999,"ADDRESS":"中正路二段９９４巷４６號","OBJECTID":439986},"geometry":{"x":173542.11000000034,"y":2540788.1500000004}},{"attributes":{"ID":440012,"DIS_CODE":0,"TOWNNAME":"仁德區","LI":"仁義里","LIN":"18鄰","STREET":"正義三街","SECT":" ","MAREA":" ","LANE":"２８６巷","ALLEY":" ","HOUSE_NO":"３６號","E_COORD97":173995.78,"N_COORD97":2541472.6699999999,"ADDRESS":"正義三街２８６巷３６號","OBJECTID":439987},"geometry":{"x":173995.78000000212,"y":2541472.6699999999}},{"attributes":{"ID":440013,"DIS_CODE":0,"TOWNNAME":"仁德區","LI":"仁義里","LIN":"32鄰","STREET":"中清三街","SECT":" ","MAREA":" ","LANE":"４巷","ALLEY":" ","HOUSE_NO":"１號","E_COORD97":173519.84,"N_COORD97":2541488.29,"ADDRESS":"中清三街４巷１號","OBJECTID":439988},"geometry":{"x":173519.83999999985,"y":2541488.2899999991}},{"attributes":{"ID":440014,"DIS_CODE":0,"TOWNNAME":"仁德區","LI":"土庫里","LIN":"5鄰","STREET":"土庫三街","SECT":" ","MAREA":" ","LANE":"３９巷","ALLEY":" ","HOUSE_NO":"６號","E_COORD97":174224.07000000001,"N_COORD97":2543115,"ADDRESS":"土庫三街３９巷６號","OBJECTID":439989},"geometry":{"x":174224.0700000003,"y":2543115}},{"attributes":{"ID":440015,"DIS_CODE":0,"TOWNNAME":"仁德區","LI":"土庫里","LIN":"13鄰","STREET":"土庫路","SECT":" ","MAREA":" ","LANE":"２２１巷","ALLEY":" ","HOUSE_NO":"２５號","E_COORD97":174306.29999999999,"N_COORD97":2542765.9900000002,"ADDRESS":"土庫路２２１巷２５號","OBJECTID":439990},"geometry":{"x":174306.29999999981,"y":2542765.9900000002}},{"attributes":{"ID":440016,"DIS_CODE":0,"TOWNNAME":"仁德區","LI":"仁義里","LIN":"42鄰","STREET":"中正路","SECT":"二段","MAREA":" ","LANE":"９９４巷","ALLEY":" ","HOUSE_NO":"１１６號","E_COORD97":173641.54000000001,"N_COORD97":2540783.3199999998,"ADDRESS":"中正路二段９９４巷１１６號","OBJECTID":439991},"geometry":{"x":173641.54000000097,"y":2540783.3200000003}},{"attributes":{"ID":440017,"DIS_CODE":0,"TOWNNAME":"仁德區","LI":"仁義里","LIN":"46鄰","STREET":"中正路","SECT":"二段","MAREA":" ","LANE":"９９４巷","ALLEY":" ","HOUSE_NO":"６１號","E_COORD97":173647.85999999999,"N_COORD97":2540811.2799999998,"ADDRESS":"中正路二段９９４巷６１號","OBJECTID":439992},"geometry":{"x":173647.86000000127,"y":2540811.2800000012}},{"attributes":{"ID":440018,"DIS_CODE":0,"TOWNNAME":"仁德區","LI":"一甲里","LIN":"5鄰","STREET":"忠義三街","SECT":" ","MAREA":" ","LANE":"８巷","ALLEY":" ","HOUSE_NO":"１７號","E_COORD97":173655.12,"N_COORD97":2541659.02,"ADDRESS":"忠義三街８巷１７號","OBJECTID":439993},"geometry":{"x":173655.12000000011,"y":2541659.0199999996}},{"attributes":{"ID":440019,"DIS_CODE":0,"TOWNNAME":"仁德區","LI":"仁義里","LIN":"43鄰","STREET":"中正路","SECT":"二段","MAREA":" ","LANE":"１０３４巷","ALLEY":" ","HOUSE_NO":"１０號","E_COORD97":173441.39000000001,"N_COORD97":2540879.1000000001,"ADDRESS":"中正路二段１０３４巷１０號","OBJECTID":439994},"geometry":{"x":173441.38999999966,"y":2540879.0999999996}},{"attributes":{"ID":440020,"DIS_CODE":0,"TOWNNAME":"仁德區","LI":"土庫里","LIN":"13鄰","STREET":"土庫路","SECT":" ","MAREA":" ","LANE":"２４５巷","ALLEY":" ","HOUSE_NO":"１５號","E_COORD97":174288.57000000001,"N_COORD97":2542840.2400000002,"ADDRESS":"土庫路２４５巷１５號","OBJECTID":439995},"geometry":{"x":174288.56999999937,"y":2542840.2400000021}},{"attributes":{"ID":440021,"DIS_CODE":0,"TOWNNAME":"仁德區","LI":"二行里","LIN":"14鄰","STREET":"中正西路","SECT":" ","MAREA":" ","LANE":"３５３巷","ALLEY":" ","HOUSE_NO":"４２號","E_COORD97":169852.87,"N_COORD97":2535334,"ADDRESS":"中正西路３５３巷４２號","OBJECTID":439996},"geometry":{"x":169852.87000000011,"y":2535334}},{"attributes":{"ID":440022,"DIS_CODE":0,"TOWNNAME":"仁德區","LI":"一甲里","LIN":"5鄰","STREET":"忠義三街","SECT":" ","MAREA":" ","LANE":"８巷","ALLEY":" ","HOUSE_NO":"５號","E_COORD97":173628.20000000001,"N_COORD97":2541662.52,"ADDRESS":"忠義三街８巷５號","OBJECTID":439997},"geometry":{"x":173628.19999999925,"y":2541662.5199999996}},{"attributes":{"ID":440023,"DIS_CODE":0,"TOWNNAME":"仁德區","LI":"大甲里","LIN":"18鄰","STREET":"中正西路","SECT":" ","MAREA":" ","LANE":"５８０巷","ALLEY":" ","HOUSE_NO":"４６號","E_COORD97":168945.20999999999,"N_COORD97":2535734.9900000002,"ADDRESS":"中正西路５８０巷４６號","OBJECTID":439998},"geometry":{"x":168945.20999999996,"y":2535734.9900000039}},{"attributes":{"ID":440024,"DIS_CODE":0,"TOWNNAME":"仁德區","LI":"二行里","LIN":"4鄰","STREET":"二行一路","SECT":" ","MAREA":" ","LANE":"８３巷","ALLEY":" ","HOUSE_NO":"１２號","E_COORD97":170377.79000000001,"N_COORD97":2535358,"ADDRESS":"二行一路８３巷１２號","OBJECTID":439999},"geometry":{"x":170377.7900000019,"y":2535358}},{"attributes":{"ID":440025,"DIS_CODE":0,"TOWNNAME":"仁德區","LI":"大甲里","LIN":"18鄰","STREET":"中正西路","SECT":" ","MAREA":" ","LANE":"５８０巷","ALLEY":" ","HOUSE_NO":"１１號","E_COORD97":168970.07000000001,"N_COORD97":2535679.75,"ADDRESS":"中正西路５８０巷１１號","OBJECTID":440000},"geometry":{"x":168970.0700000003,"y":2535679.7500000019}}]}