{"displayFieldName":"TOWNNAME","fieldAliases":{"ID":"ID","DIS_CODE":"DIS_CODE","TOWNNAME":"TOWNNAME","LI":"LI","LIN":"LIN","STREET":"STREET","SECT":"SECT","MAREA":"MAREA","LANE":"LANE","ALLEY":"ALLEY","HOUSE_NO":"HOUSE_NO","E_COORD97":"E_COORD97","N_COORD97":"N_COORD97","ADDRESS":"ADDRESS","OBJECTID":"OBJECTID"},"geometryType":"esriGeometryPoint","spatialReference":{"wkid":102443,"latestWkid":3826},"fields":[{"name":"ID","type":"esriFieldTypeDouble","alias":"ID"},{"name":"DIS_CODE","type":"esriFieldTypeInteger","alias":"DIS_CODE"},{"name":"TOWNNAME","type":"esriFieldTypeString","alias":"TOWNNAME","length":8},{"name":"LI","type":"esriFieldTypeString","alias":"LI","length":8},{"name":"LIN","type":"esriFieldTypeString","alias":"LIN","length":12},{"name":"STREET","type":"esriFieldTypeString","alias":"STREET","length":20},{"name":"SECT","type":"esriFieldTypeString","alias":"SECT","length":8},{"name":"MAREA","type":"esriFieldTypeString","alias":"MAREA","length":12},{"name":"LANE","type":"esriFieldTypeString","alias":"LANE","length":10},{"name":"ALLEY","type":"esriFieldTypeString","alias":"ALLEY","length":10},{"name":"HOUSE_NO","type":"esriFieldTypeString","alias":"HOUSE_NO","length":20},{"name":"E_COORD97","type":"esriFieldTypeDouble","alias":"E_COORD97"},{"name":"N_COORD97","type":"esriFieldTypeDouble","alias":"N_COORD97"},{"name":"ADDRESS","type":"esriFieldTypeString","alias":"ADDRESS","length":50},{"name":"OBJECTID","type":"esriFieldTypeOID","alias":"OBJECTID"}],"features":[{"attributes":{"ID":338610,"DIS_CODE":0,"TOWNNAME":"歸仁區","LI":"七甲里","LIN":"1鄰","STREET":"中正北路","SECT":"二段","MAREA":" ","LANE":"７５巷","ALLEY":" ","HOUSE_NO":"７８號二樓之１","E_COORD97":177452.69,"N_COORD97":2542293.2599999998,"ADDRESS":"中正北路二段７５巷７８號二樓之１","OBJECTID":338601},"geometry":{"x":177452.69000000041,"y":2542293.2600000035}},{"attributes":{"ID":338611,"DIS_CODE":0,"TOWNNAME":"歸仁區","LI":"七甲里","LIN":"1鄰","STREET":"中正北路","SECT":"二段","MAREA":" ","LANE":"７５巷","ALLEY":" ","HOUSE_NO":"８２號五樓之２","E_COORD97":177421.91,"N_COORD97":2542292.2599999998,"ADDRESS":"中正北路二段７５巷８２號五樓之２","OBJECTID":338602},"geometry":{"x":177421.91000000015,"y":2542292.2599999998}},{"attributes":{"ID":338612,"DIS_CODE":0,"TOWNNAME":"歸仁區","LI":"七甲里","LIN":"1鄰","STREET":"中正北路","SECT":"二段","MAREA":" ","LANE":"７５巷","ALLEY":" ","HOUSE_NO":"７７號五樓之１","E_COORD97":177428.89000000001,"N_COORD97":2542267.2599999998,"ADDRESS":"中正北路二段７５巷７７號五樓之１","OBJECTID":338603},"geometry":{"x":177428.8900000006,"y":2542267.2600000016}},{"attributes":{"ID":338613,"DIS_CODE":0,"TOWNNAME":"歸仁區","LI":"七甲里","LIN":"1鄰","STREET":"中正北路","SECT":"二段","MAREA":" ","LANE":"７５巷","ALLEY":" ","HOUSE_NO":"７５號三樓之２","E_COORD97":177449.51000000001,"N_COORD97":2542268.2599999998,"ADDRESS":"中正北路二段７５巷７５號三樓之２","OBJECTID":338604},"geometry":{"x":177449.50999999978,"y":2542268.2599999998}},{"attributes":{"ID":338614,"DIS_CODE":0,"TOWNNAME":"北區","LI":"正風里","LIN":"1鄰","STREET":"公園路","SECT":" ","MAREA":" ","LANE":"８６２巷","ALLEY":" ","HOUSE_NO":"３號二樓之１","E_COORD97":169323.79000000001,"N_COORD97":2546044.8700000001,"ADDRESS":"公園路８６２巷３號二樓之１","OBJECTID":338605},"geometry":{"x":169323.79000000097,"y":2546044.8700000029}},{"attributes":{"ID":338615,"DIS_CODE":0,"TOWNNAME":"北區","LI":"正風里","LIN":"1鄰","STREET":"公園路","SECT":" ","MAREA":" ","LANE":"８６２巷","ALLEY":" ","HOUSE_NO":"３號三樓之１","E_COORD97":169323.79000000001,"N_COORD97":2546044.8700000001,"ADDRESS":"公園路８６２巷３號三樓之１","OBJECTID":338606},"geometry":{"x":169323.79000000097,"y":2546044.8700000029}},{"attributes":{"ID":338616,"DIS_CODE":0,"TOWNNAME":"北區","LI":"正風里","LIN":"1鄰","STREET":"公園路","SECT":" ","MAREA":" ","LANE":"８６２巷","ALLEY":" ","HOUSE_NO":"３號三樓之２","E_COORD97":169323.79000000001,"N_COORD97":2546044.8700000001,"ADDRESS":"公園路８６２巷３號三樓之２","OBJECTID":338607},"geometry":{"x":169323.79000000097,"y":2546044.8700000029}},{"attributes":{"ID":338617,"DIS_CODE":0,"TOWNNAME":"北區","LI":"正風里","LIN":"1鄰","STREET":"公園路","SECT":" ","MAREA":" ","LANE":"８６２巷","ALLEY":" ","HOUSE_NO":"３號三樓之３","E_COORD97":169323.79000000001,"N_COORD97":2546044.8700000001,"ADDRESS":"公園路８６２巷３號三樓之３","OBJECTID":338608},"geometry":{"x":169323.79000000097,"y":2546044.8700000029}},{"attributes":{"ID":338618,"DIS_CODE":0,"TOWNNAME":"北區","LI":"正風里","LIN":"1鄰","STREET":"公園路","SECT":" ","MAREA":" ","LANE":"８６２巷","ALLEY":" ","HOUSE_NO":"３號三樓之４","E_COORD97":169323.79000000001,"N_COORD97":2546044.8700000001,"ADDRESS":"公園路８６２巷３號三樓之４","OBJECTID":338609},"geometry":{"x":169323.79000000097,"y":2546044.8700000029}},{"attributes":{"ID":338619,"DIS_CODE":0,"TOWNNAME":"北區","LI":"正風里","LIN":"1鄰","STREET":"公園路","SECT":" ","MAREA":" ","LANE":"８６２巷","ALLEY":" ","HOUSE_NO":"３號三樓之５","E_COORD97":169323.79000000001,"N_COORD97":2546044.8700000001,"ADDRESS":"公園路８６２巷３號三樓之５","OBJECTID":338610},"geometry":{"x":169323.79000000097,"y":2546044.8700000029}},{"attributes":{"ID":338620,"DIS_CODE":0,"TOWNNAME":"北區","LI":"正風里","LIN":"1鄰","STREET":"公園路","SECT":" ","MAREA":" ","LANE":"８６２巷","ALLEY":" ","HOUSE_NO":"３號三樓之６","E_COORD97":169323.79000000001,"N_COORD97":2546044.8700000001,"ADDRESS":"公園路８６２巷３號三樓之６","OBJECTID":338611},"geometry":{"x":169323.79000000097,"y":2546044.8700000029}},{"attributes":{"ID":338621,"DIS_CODE":0,"TOWNNAME":"北區","LI":"正風里","LIN":"1鄰","STREET":"公園路","SECT":" ","MAREA":" ","LANE":"８６２巷","ALLEY":" ","HOUSE_NO":"３號三樓之７","E_COORD97":169323.79000000001,"N_COORD97":2546044.8700000001,"ADDRESS":"公園路８６２巷３號三樓之７","OBJECTID":338612},"geometry":{"x":169323.79000000097,"y":2546044.8700000029}},{"attributes":{"ID":338622,"DIS_CODE":0,"TOWNNAME":"北區","LI":"正風里","LIN":"1鄰","STREET":"公園路","SECT":" ","MAREA":" ","LANE":"８６２巷","ALLEY":" ","HOUSE_NO":"３號四樓之１","E_COORD97":169323.79000000001,"N_COORD97":2546044.8700000001,"ADDRESS":"公園路８６２巷３號四樓之１","OBJECTID":338613},"geometry":{"x":169323.79000000097,"y":2546044.8700000029}},{"attributes":{"ID":338623,"DIS_CODE":0,"TOWNNAME":"北區","LI":"正風里","LIN":"1鄰","STREET":"公園路","SECT":" ","MAREA":" ","LANE":"８６２巷","ALLEY":" ","HOUSE_NO":"３號四樓之２","E_COORD97":169323.79000000001,"N_COORD97":2546044.8700000001,"ADDRESS":"公園路８６２巷３號四樓之２","OBJECTID":338614},"geometry":{"x":169323.79000000097,"y":2546044.8700000029}},{"attributes":{"ID":338624,"DIS_CODE":0,"TOWNNAME":"北區","LI":"正風里","LIN":"1鄰","STREET":"公園路","SECT":" ","MAREA":" ","LANE":"８６２巷","ALLEY":" ","HOUSE_NO":"３號四樓之３","E_COORD97":169323.79000000001,"N_COORD97":2546044.8700000001,"ADDRESS":"公園路８６２巷３號四樓之３","OBJECTID":338615},"geometry":{"x":169323.79000000097,"y":2546044.8700000029}},{"attributes":{"ID":338625,"DIS_CODE":0,"TOWNNAME":"北區","LI":"正風里","LIN":"1鄰","STREET":"公園路","SECT":" ","MAREA":" ","LANE":"８６２巷","ALLEY":" ","HOUSE_NO":"３號四樓之４","E_COORD97":169323.79000000001,"N_COORD97":2546044.8700000001,"ADDRESS":"公園路８６２巷３號四樓之４","OBJECTID":338616},"geometry":{"x":169323.79000000097,"y":2546044.8700000029}},{"attributes":{"ID":338626,"DIS_CODE":0,"TOWNNAME":"北區","LI":"正風里","LIN":"1鄰","STREET":"公園路","SECT":" ","MAREA":" ","LANE":"８６２巷","ALLEY":" ","HOUSE_NO":"３號四樓之５","E_COORD97":169323.79000000001,"N_COORD97":2546044.8700000001,"ADDRESS":"公園路８６２巷３號四樓之５","OBJECTID":338617},"geometry":{"x":169323.79000000097,"y":2546044.8700000029}},{"attributes":{"ID":338627,"DIS_CODE":0,"TOWNNAME":"北區","LI":"正風里","LIN":"1鄰","STREET":"公園路","SECT":" ","MAREA":" ","LANE":"８６２巷","ALLEY":" ","HOUSE_NO":"３號四樓之６","E_COORD97":169323.79000000001,"N_COORD97":2546044.8700000001,"ADDRESS":"公園路８６２巷３號四樓之６","OBJECTID":338618},"geometry":{"x":169323.79000000097,"y":2546044.8700000029}},{"attributes":{"ID":338628,"DIS_CODE":0,"TOWNNAME":"北區","LI":"正風里","LIN":"1鄰","STREET":"公園路","SECT":" ","MAREA":" ","LANE":"８６２巷","ALLEY":" ","HOUSE_NO":"３號四樓之７","E_COORD97":169323.79000000001,"N_COORD97":2546044.8700000001,"ADDRESS":"公園路８６２巷３號四樓之７","OBJECTID":338619},"geometry":{"x":169323.79000000097,"y":2546044.8700000029}},{"attributes":{"ID":338629,"DIS_CODE":0,"TOWNNAME":"歸仁區","LI":"七甲里","LIN":"1鄰","STREET":"中正北路","SECT":"二段","MAREA":" ","LANE":"７５巷","ALLEY":" ","HOUSE_NO":"７８號五樓之１","E_COORD97":177452.69,"N_COORD97":2542293.2599999998,"ADDRESS":"中正北路二段７５巷７８號五樓之１","OBJECTID":338620},"geometry":{"x":177452.69000000041,"y":2542293.2600000035}},{"attributes":{"ID":338630,"DIS_CODE":0,"TOWNNAME":"歸仁區","LI":"七甲里","LIN":"1鄰","STREET":"中正北路","SECT":"二段","MAREA":" ","LANE":"７５巷","ALLEY":" ","HOUSE_NO":"７７號二樓之１","E_COORD97":177428.89000000001,"N_COORD97":2542267.2599999998,"ADDRESS":"中正北路二段７５巷７７號二樓之１","OBJECTID":338621},"geometry":{"x":177428.8900000006,"y":2542267.2600000016}},{"attributes":{"ID":338631,"DIS_CODE":0,"TOWNNAME":"歸仁區","LI":"七甲里","LIN":"1鄰","STREET":"中正北路","SECT":"二段","MAREA":" ","LANE":"７５巷","ALLEY":" ","HOUSE_NO":"７７號一樓之２","E_COORD97":177428.91,"N_COORD97":2542267.2599999998,"ADDRESS":"中正北路二段７５巷７７號一樓之２","OBJECTID":338622},"geometry":{"x":177428.91000000015,"y":2542267.2600000016}},{"attributes":{"ID":338632,"DIS_CODE":0,"TOWNNAME":"歸仁區","LI":"七甲里","LIN":"1鄰","STREET":"中正北路","SECT":"二段","MAREA":" ","LANE":"７５巷","ALLEY":" ","HOUSE_NO":"７８號四樓之２","E_COORD97":177452.70999999999,"N_COORD97":2542293.2599999998,"ADDRESS":"中正北路二段７５巷７８號四樓之２","OBJECTID":338623},"geometry":{"x":177452.71000000089,"y":2542293.2600000035}},{"attributes":{"ID":338633,"DIS_CODE":0,"TOWNNAME":"歸仁區","LI":"七甲里","LIN":"1鄰","STREET":"中正北路","SECT":"二段","MAREA":" ","LANE":"７５巷","ALLEY":" ","HOUSE_NO":"８０號三樓之２","E_COORD97":177437.31,"N_COORD97":2542293.2599999998,"ADDRESS":"中正北路二段７５巷８０號三樓之２","OBJECTID":338624},"geometry":{"x":177437.30999999959,"y":2542293.2600000035}},{"attributes":{"ID":338634,"DIS_CODE":0,"TOWNNAME":"歸仁區","LI":"七甲里","LIN":"1鄰","STREET":"中正北路","SECT":"二段","MAREA":" ","LANE":"７５巷","ALLEY":" ","HOUSE_NO":"７７號二樓之２","E_COORD97":177428.91,"N_COORD97":2542267.2599999998,"ADDRESS":"中正北路二段７５巷７７號二樓之２","OBJECTID":338625},"geometry":{"x":177428.91000000015,"y":2542267.2600000016}},{"attributes":{"ID":338635,"DIS_CODE":0,"TOWNNAME":"歸仁區","LI":"七甲里","LIN":"1鄰","STREET":"中正北路","SECT":"二段","MAREA":" ","LANE":"７５巷","ALLEY":" ","HOUSE_NO":"７８號一樓之１","E_COORD97":177452.69,"N_COORD97":2542293.2599999998,"ADDRESS":"中正北路二段７５巷７８號一樓之１","OBJECTID":338626},"geometry":{"x":177452.69000000041,"y":2542293.2600000035}},{"attributes":{"ID":338636,"DIS_CODE":0,"TOWNNAME":"歸仁區","LI":"七甲里","LIN":"1鄰","STREET":"中正北路","SECT":"二段","MAREA":" ","LANE":"７５巷","ALLEY":" ","HOUSE_NO":"８０號二樓之２","E_COORD97":177437.31,"N_COORD97":2542293.2599999998,"ADDRESS":"中正北路二段７５巷８０號二樓之２","OBJECTID":338627},"geometry":{"x":177437.30999999959,"y":2542293.2600000035}},{"attributes":{"ID":338637,"DIS_CODE":0,"TOWNNAME":"歸仁區","LI":"七甲里","LIN":"1鄰","STREET":"中正北路","SECT":"二段","MAREA":" ","LANE":"７５巷","ALLEY":" ","HOUSE_NO":"７８號一樓之２","E_COORD97":177452.70999999999,"N_COORD97":2542293.2599999998,"ADDRESS":"中正北路二段７５巷７８號一樓之２","OBJECTID":338628},"geometry":{"x":177452.71000000089,"y":2542293.2600000035}},{"attributes":{"ID":338638,"DIS_CODE":0,"TOWNNAME":"歸仁區","LI":"七甲里","LIN":"1鄰","STREET":"中正北路","SECT":"二段","MAREA":" ","LANE":"７５巷","ALLEY":" ","HOUSE_NO":"８０號五樓之１","E_COORD97":177437.29000000001,"N_COORD97":2542293.2599999998,"ADDRESS":"中正北路二段７５巷８０號五樓之１","OBJECTID":338629},"geometry":{"x":177437.29000000097,"y":2542293.2600000035}},{"attributes":{"ID":338639,"DIS_CODE":0,"TOWNNAME":"歸仁區","LI":"七甲里","LIN":"1鄰","STREET":"中正北路","SECT":"二段","MAREA":" ","LANE":"７５巷","ALLEY":" ","HOUSE_NO":"８０號二樓之１","E_COORD97":177437.29000000001,"N_COORD97":2542293.2599999998,"ADDRESS":"中正北路二段７５巷８０號二樓之１","OBJECTID":338630},"geometry":{"x":177437.29000000097,"y":2542293.2600000035}},{"attributes":{"ID":338640,"DIS_CODE":0,"TOWNNAME":"歸仁區","LI":"七甲里","LIN":"1鄰","STREET":"中正北路","SECT":"二段","MAREA":" ","LANE":"７５巷","ALLEY":" ","HOUSE_NO":"８０號一樓之２","E_COORD97":177437.31,"N_COORD97":2542293.2599999998,"ADDRESS":"中正北路二段７５巷８０號一樓之２","OBJECTID":338631},"geometry":{"x":177437.30999999959,"y":2542293.2600000035}},{"attributes":{"ID":338641,"DIS_CODE":0,"TOWNNAME":"歸仁區","LI":"七甲里","LIN":"1鄰","STREET":"中正北路","SECT":"二段","MAREA":" ","LANE":"７５巷","ALLEY":" ","HOUSE_NO":"７７號五樓之２","E_COORD97":177428.91,"N_COORD97":2542267.2599999998,"ADDRESS":"中正北路二段７５巷７７號五樓之２","OBJECTID":338632},"geometry":{"x":177428.91000000015,"y":2542267.2600000016}},{"attributes":{"ID":338642,"DIS_CODE":0,"TOWNNAME":"歸仁區","LI":"七甲里","LIN":"1鄰","STREET":"中正北路","SECT":"二段","MAREA":" ","LANE":"７５巷","ALLEY":" ","HOUSE_NO":"７８號三樓之１","E_COORD97":177452.69,"N_COORD97":2542293.2599999998,"ADDRESS":"中正北路二段７５巷７８號三樓之１","OBJECTID":338633},"geometry":{"x":177452.69000000041,"y":2542293.2600000035}},{"attributes":{"ID":338643,"DIS_CODE":0,"TOWNNAME":"歸仁區","LI":"七甲里","LIN":"1鄰","STREET":"中正北路","SECT":"二段","MAREA":" ","LANE":"７５巷","ALLEY":" ","HOUSE_NO":"７７號四樓之１","E_COORD97":177428.89000000001,"N_COORD97":2542267.2599999998,"ADDRESS":"中正北路二段７５巷７７號四樓之１","OBJECTID":338634},"geometry":{"x":177428.8900000006,"y":2542267.2600000016}},{"attributes":{"ID":338644,"DIS_CODE":0,"TOWNNAME":"歸仁區","LI":"七甲里","LIN":"1鄰","STREET":"中正北路","SECT":"二段","MAREA":" ","LANE":"７５巷","ALLEY":" ","HOUSE_NO":"７８號三樓之２","E_COORD97":177452.70999999999,"N_COORD97":2542293.2599999998,"ADDRESS":"中正北路二段７５巷７８號三樓之２","OBJECTID":338635},"geometry":{"x":177452.71000000089,"y":2542293.2600000035}},{"attributes":{"ID":338645,"DIS_CODE":0,"TOWNNAME":"歸仁區","LI":"七甲里","LIN":"1鄰","STREET":"中正北路","SECT":"二段","MAREA":" ","LANE":"７５巷","ALLEY":" ","HOUSE_NO":"８２號四樓之１","E_COORD97":177421.89000000001,"N_COORD97":2542292.2599999998,"ADDRESS":"中正北路二段７５巷８２號四樓之１","OBJECTID":338636},"geometry":{"x":177421.88999999873,"y":2542292.2599999998}},{"attributes":{"ID":338646,"DIS_CODE":0,"TOWNNAME":"南區","LI":"大成里","LIN":"1鄰","STREET":"健康路","SECT":"一段","MAREA":" ","LANE":"３９１巷","ALLEY":" ","HOUSE_NO":"１１號五樓","E_COORD97":167958.62,"N_COORD97":2542415.0099999998,"ADDRESS":"健康路一段３９１巷１１號五樓","OBJECTID":338637},"geometry":{"x":167958.62000000104,"y":2542415.0100000016}},{"attributes":{"ID":338647,"DIS_CODE":0,"TOWNNAME":"南區","LI":"大成里","LIN":"1鄰","STREET":"健康路","SECT":"一段","MAREA":" ","LANE":"３９１巷","ALLEY":" ","HOUSE_NO":"１１號四樓","E_COORD97":167958.62,"N_COORD97":2542415.0099999998,"ADDRESS":"健康路一段３９１巷１１號四樓","OBJECTID":338638},"geometry":{"x":167958.62000000104,"y":2542415.0100000016}},{"attributes":{"ID":338648,"DIS_CODE":0,"TOWNNAME":"南區","LI":"大成里","LIN":"1鄰","STREET":"健康路","SECT":"一段","MAREA":" ","LANE":"３９１巷","ALLEY":" ","HOUSE_NO":"７號二樓","E_COORD97":167941.17999999999,"N_COORD97":2542416.0899999999,"ADDRESS":"健康路一段３９１巷７號二樓","OBJECTID":338639},"geometry":{"x":167941.18000000063,"y":2542416.0899999999}},{"attributes":{"ID":338649,"DIS_CODE":0,"TOWNNAME":"南區","LI":"大成里","LIN":"1鄰","STREET":"健康路","SECT":"一段","MAREA":" ","LANE":"３９１巷","ALLEY":" ","HOUSE_NO":"７號三樓","E_COORD97":167941.17999999999,"N_COORD97":2542416.0899999999,"ADDRESS":"健康路一段３９１巷７號三樓","OBJECTID":338640},"geometry":{"x":167941.18000000063,"y":2542416.0899999999}},{"attributes":{"ID":338650,"DIS_CODE":0,"TOWNNAME":"南區","LI":"大成里","LIN":"1鄰","STREET":"健康路","SECT":"一段","MAREA":" ","LANE":"３９１巷","ALLEY":" ","HOUSE_NO":"７號五樓","E_COORD97":167941.17999999999,"N_COORD97":2542416.0899999999,"ADDRESS":"健康路一段３９１巷７號五樓","OBJECTID":338641},"geometry":{"x":167941.18000000063,"y":2542416.0899999999}},{"attributes":{"ID":338651,"DIS_CODE":0,"TOWNNAME":"南區","LI":"大成里","LIN":"1鄰","STREET":"健康路","SECT":"一段","MAREA":" ","LANE":"３９１巷","ALLEY":" ","HOUSE_NO":"７號四樓","E_COORD97":167941.17999999999,"N_COORD97":2542416.0899999999,"ADDRESS":"健康路一段３９１巷７號四樓","OBJECTID":338642},"geometry":{"x":167941.18000000063,"y":2542416.0899999999}},{"attributes":{"ID":338652,"DIS_CODE":0,"TOWNNAME":"南區","LI":"大成里","LIN":"1鄰","STREET":"健康路","SECT":"一段","MAREA":" ","LANE":"３９１巷","ALLEY":" ","HOUSE_NO":"９號二樓","E_COORD97":167949.67999999999,"N_COORD97":2542415.23,"ADDRESS":"健康路一段３９１巷９號二樓","OBJECTID":338643},"geometry":{"x":167949.68000000063,"y":2542415.2300000004}},{"attributes":{"ID":338653,"DIS_CODE":0,"TOWNNAME":"南區","LI":"大成里","LIN":"1鄰","STREET":"健康路","SECT":"一段","MAREA":" ","LANE":"３９１巷","ALLEY":" ","HOUSE_NO":"９號三樓","E_COORD97":167949.67999999999,"N_COORD97":2542415.23,"ADDRESS":"健康路一段３９１巷９號三樓","OBJECTID":338644},"geometry":{"x":167949.68000000063,"y":2542415.2300000004}},{"attributes":{"ID":338654,"DIS_CODE":0,"TOWNNAME":"南區","LI":"大成里","LIN":"1鄰","STREET":"健康路","SECT":"一段","MAREA":" ","LANE":"３９１巷","ALLEY":" ","HOUSE_NO":"９號四樓","E_COORD97":167949.67999999999,"N_COORD97":2542415.23,"ADDRESS":"健康路一段３９１巷９號四樓","OBJECTID":338645},"geometry":{"x":167949.68000000063,"y":2542415.2300000004}},{"attributes":{"ID":338655,"DIS_CODE":0,"TOWNNAME":"北區","LI":"振興里","LIN":"1鄰","STREET":"開元路","SECT":" ","MAREA":" ","LANE":"１４８巷","ALLEY":" ","HOUSE_NO":"８號二樓","E_COORD97":169991.07999999999,"N_COORD97":2545186.6499999999,"ADDRESS":"開元路１４８巷８號二樓","OBJECTID":338646},"geometry":{"x":169991.08000000194,"y":2545186.6500000041}},{"attributes":{"ID":338656,"DIS_CODE":0,"TOWNNAME":"北區","LI":"振興里","LIN":"1鄰","STREET":"開元路","SECT":" ","MAREA":" ","LANE":"１４８巷","ALLEY":" ","HOUSE_NO":"８號三樓","E_COORD97":169991.07999999999,"N_COORD97":2545186.6499999999,"ADDRESS":"開元路１４８巷８號三樓","OBJECTID":338647},"geometry":{"x":169991.08000000194,"y":2545186.6500000041}},{"attributes":{"ID":338657,"DIS_CODE":0,"TOWNNAME":"北區","LI":"振興里","LIN":"1鄰","STREET":"開元路","SECT":" ","MAREA":" ","LANE":"１４８巷","ALLEY":" ","HOUSE_NO":"８號四樓","E_COORD97":169991.07999999999,"N_COORD97":2545186.6499999999,"ADDRESS":"開元路１４８巷８號四樓","OBJECTID":338648},"geometry":{"x":169991.08000000194,"y":2545186.6500000041}},{"attributes":{"ID":338658,"DIS_CODE":0,"TOWNNAME":"北區","LI":"安民里","LIN":"1鄰","STREET":"國華街","SECT":"四段","MAREA":" ","LANE":"５巷","ALLEY":" ","HOUSE_NO":"１２號二樓之１","E_COORD97":167925.76000000001,"N_COORD97":2544578.48,"ADDRESS":"國華街四段５巷１２號二樓之１","OBJECTID":338649},"geometry":{"x":167925.75999999978,"y":2544578.4800000023}},{"attributes":{"ID":338659,"DIS_CODE":0,"TOWNNAME":"北區","LI":"安民里","LIN":"1鄰","STREET":"國華街","SECT":"四段","MAREA":" ","LANE":"５巷","ALLEY":" ","HOUSE_NO":"１２號五樓之２","E_COORD97":167925.76000000001,"N_COORD97":2544578.48,"ADDRESS":"國華街四段５巷１２號五樓之２","OBJECTID":338650},"geometry":{"x":167925.75999999978,"y":2544578.4800000023}},{"attributes":{"ID":338660,"DIS_CODE":0,"TOWNNAME":"北區","LI":"安民里","LIN":"1鄰","STREET":"國華街","SECT":"四段","MAREA":" ","LANE":"５巷","ALLEY":" ","HOUSE_NO":"１０號二樓","E_COORD97":167933.29999999999,"N_COORD97":2544578.48,"ADDRESS":"國華街四段５巷１０號二樓","OBJECTID":338651},"geometry":{"x":167933.30000000075,"y":2544578.4800000023}},{"attributes":{"ID":338661,"DIS_CODE":0,"TOWNNAME":"北區","LI":"安民里","LIN":"1鄰","STREET":"國華街","SECT":"四段","MAREA":" ","LANE":"５巷","ALLEY":" ","HOUSE_NO":"１０號三樓","E_COORD97":167933.29999999999,"N_COORD97":2544578.48,"ADDRESS":"國華街四段５巷１０號三樓","OBJECTID":338652},"geometry":{"x":167933.30000000075,"y":2544578.4800000023}},{"attributes":{"ID":338662,"DIS_CODE":0,"TOWNNAME":"北區","LI":"安民里","LIN":"1鄰","STREET":"國華街","SECT":"四段","MAREA":" ","LANE":"５巷","ALLEY":" ","HOUSE_NO":"１０號五樓","E_COORD97":167933.29999999999,"N_COORD97":2544578.48,"ADDRESS":"國華街四段５巷１０號五樓","OBJECTID":338653},"geometry":{"x":167933.30000000075,"y":2544578.4800000023}},{"attributes":{"ID":338663,"DIS_CODE":0,"TOWNNAME":"北區","LI":"安民里","LIN":"1鄰","STREET":"國華街","SECT":"四段","MAREA":" ","LANE":"５巷","ALLEY":" ","HOUSE_NO":"１０號四樓","E_COORD97":167933.29999999999,"N_COORD97":2544578.48,"ADDRESS":"國華街四段５巷１０號四樓","OBJECTID":338654},"geometry":{"x":167933.30000000075,"y":2544578.4800000023}},{"attributes":{"ID":338664,"DIS_CODE":0,"TOWNNAME":"北區","LI":"安民里","LIN":"1鄰","STREET":"國華街","SECT":"四段","MAREA":" ","LANE":"５巷","ALLEY":" ","HOUSE_NO":"１１號二樓","E_COORD97":167929.64999999999,"N_COORD97":2544578.48,"ADDRESS":"國華街四段５巷１１號二樓","OBJECTID":338655},"geometry":{"x":167929.65000000224,"y":2544578.4800000023}},{"attributes":{"ID":338665,"DIS_CODE":0,"TOWNNAME":"北區","LI":"安民里","LIN":"1鄰","STREET":"國華街","SECT":"四段","MAREA":" ","LANE":"５巷","ALLEY":" ","HOUSE_NO":"１１號三樓","E_COORD97":167929.64999999999,"N_COORD97":2544578.48,"ADDRESS":"國華街四段５巷１１號三樓","OBJECTID":338656},"geometry":{"x":167929.65000000224,"y":2544578.4800000023}},{"attributes":{"ID":338666,"DIS_CODE":0,"TOWNNAME":"鹽水區","LI":"岸內里","LIN":"5鄰","STREET":" ","SECT":" ","MAREA":"岸內","LANE":" ","ALLEY":" ","HOUSE_NO":"５６號","E_COORD97":174822.45000000001,"N_COORD97":2581337.8199999998,"ADDRESS":"岸內５６號","OBJECTID":338657},"geometry":{"x":174822.45000000112,"y":2581337.8200000022}},{"attributes":{"ID":338667,"DIS_CODE":0,"TOWNNAME":"北區","LI":"安民里","LIN":"1鄰","STREET":"國華街","SECT":"四段","MAREA":" ","LANE":"５巷","ALLEY":" ","HOUSE_NO":"１１號四樓","E_COORD97":167929.64999999999,"N_COORD97":2544578.48,"ADDRESS":"國華街四段５巷１１號四樓","OBJECTID":338658},"geometry":{"x":167929.65000000224,"y":2544578.4800000023}},{"attributes":{"ID":338668,"DIS_CODE":0,"TOWNNAME":"北區","LI":"安民里","LIN":"1鄰","STREET":"國華街","SECT":"四段","MAREA":" ","LANE":"５巷","ALLEY":" ","HOUSE_NO":"１２號二樓之２","E_COORD97":167925.76000000001,"N_COORD97":2544578.48,"ADDRESS":"國華街四段５巷１２號二樓之２","OBJECTID":338659},"geometry":{"x":167925.75999999978,"y":2544578.4800000023}},{"attributes":{"ID":338669,"DIS_CODE":0,"TOWNNAME":"北區","LI":"安民里","LIN":"1鄰","STREET":"國華街","SECT":"四段","MAREA":" ","LANE":"５巷","ALLEY":" ","HOUSE_NO":"１２號三樓之１","E_COORD97":167925.76000000001,"N_COORD97":2544578.48,"ADDRESS":"國華街四段５巷１２號三樓之１","OBJECTID":338660},"geometry":{"x":167925.75999999978,"y":2544578.4800000023}},{"attributes":{"ID":338670,"DIS_CODE":0,"TOWNNAME":"北區","LI":"安民里","LIN":"1鄰","STREET":"國華街","SECT":"四段","MAREA":" ","LANE":"５巷","ALLEY":" ","HOUSE_NO":"１２號三樓之２","E_COORD97":167925.76000000001,"N_COORD97":2544578.48,"ADDRESS":"國華街四段５巷１２號三樓之２","OBJECTID":338661},"geometry":{"x":167925.75999999978,"y":2544578.4800000023}},{"attributes":{"ID":338671,"DIS_CODE":0,"TOWNNAME":"北區","LI":"安民里","LIN":"1鄰","STREET":"國華街","SECT":"四段","MAREA":" ","LANE":"５巷","ALLEY":" ","HOUSE_NO":"１２號四樓之１","E_COORD97":167925.76000000001,"N_COORD97":2544578.48,"ADDRESS":"國華街四段５巷１２號四樓之１","OBJECTID":338662},"geometry":{"x":167925.75999999978,"y":2544578.4800000023}},{"attributes":{"ID":338672,"DIS_CODE":0,"TOWNNAME":"北區","LI":"安民里","LIN":"1鄰","STREET":"國華街","SECT":"四段","MAREA":" ","LANE":"５巷","ALLEY":" ","HOUSE_NO":"１２號四樓之２","E_COORD97":167925.76000000001,"N_COORD97":2544578.48,"ADDRESS":"國華街四段５巷１２號四樓之２","OBJECTID":338663},"geometry":{"x":167925.75999999978,"y":2544578.4800000023}},{"attributes":{"ID":338673,"DIS_CODE":0,"TOWNNAME":"北區","LI":"安民里","LIN":"1鄰","STREET":"國華街","SECT":"四段","MAREA":" ","LANE":"５巷","ALLEY":" ","HOUSE_NO":"１２號五樓之１","E_COORD97":167925.76000000001,"N_COORD97":2544578.48,"ADDRESS":"國華街四段５巷１２號五樓之１","OBJECTID":338664},"geometry":{"x":167925.75999999978,"y":2544578.4800000023}},{"attributes":{"ID":338674,"DIS_CODE":0,"TOWNNAME":"安平區","LI":"文平里","LIN":"1鄰","STREET":"建平七街","SECT":" ","MAREA":" ","LANE":"２６巷","ALLEY":" ","HOUSE_NO":"４６號二樓之１","E_COORD97":166545.29000000001,"N_COORD97":2543228.9100000001,"ADDRESS":"建平七街２６巷４６號二樓之１","OBJECTID":338665},"geometry":{"x":166545.29000000097,"y":2543228.910000002}},{"attributes":{"ID":338675,"DIS_CODE":0,"TOWNNAME":"安平區","LI":"文平里","LIN":"1鄰","STREET":"建平七街","SECT":" ","MAREA":" ","LANE":"２６巷","ALLEY":" ","HOUSE_NO":"４６號二樓之２","E_COORD97":166545.29000000001,"N_COORD97":2543228.9100000001,"ADDRESS":"建平七街２６巷４６號二樓之２","OBJECTID":338666},"geometry":{"x":166545.29000000097,"y":2543228.910000002}},{"attributes":{"ID":338676,"DIS_CODE":0,"TOWNNAME":"安平區","LI":"文平里","LIN":"1鄰","STREET":"建平七街","SECT":" ","MAREA":" ","LANE":"２６巷","ALLEY":" ","HOUSE_NO":"４６號二樓之３","E_COORD97":166545.29000000001,"N_COORD97":2543228.9100000001,"ADDRESS":"建平七街２６巷４６號二樓之３","OBJECTID":338667},"geometry":{"x":166545.29000000097,"y":2543228.910000002}},{"attributes":{"ID":338677,"DIS_CODE":0,"TOWNNAME":"安平區","LI":"文平里","LIN":"1鄰","STREET":"建平七街","SECT":" ","MAREA":" ","LANE":"２６巷","ALLEY":" ","HOUSE_NO":"４６號三樓之１","E_COORD97":166545.29000000001,"N_COORD97":2543228.9100000001,"ADDRESS":"建平七街２６巷４６號三樓之１","OBJECTID":338668},"geometry":{"x":166545.29000000097,"y":2543228.910000002}},{"attributes":{"ID":338678,"DIS_CODE":0,"TOWNNAME":"安平區","LI":"文平里","LIN":"1鄰","STREET":"建平七街","SECT":" ","MAREA":" ","LANE":"２６巷","ALLEY":" ","HOUSE_NO":"４６號三樓之２","E_COORD97":166545.29000000001,"N_COORD97":2543228.9100000001,"ADDRESS":"建平七街２６巷４６號三樓之２","OBJECTID":338669},"geometry":{"x":166545.29000000097,"y":2543228.910000002}},{"attributes":{"ID":338679,"DIS_CODE":0,"TOWNNAME":"安平區","LI":"文平里","LIN":"1鄰","STREET":"建平七街","SECT":" ","MAREA":" ","LANE":"２６巷","ALLEY":" ","HOUSE_NO":"４６號三樓之３","E_COORD97":166545.29000000001,"N_COORD97":2543228.9100000001,"ADDRESS":"建平七街２６巷４６號三樓之３","OBJECTID":338670},"geometry":{"x":166545.29000000097,"y":2543228.910000002}},{"attributes":{"ID":338680,"DIS_CODE":0,"TOWNNAME":"安平區","LI":"文平里","LIN":"1鄰","STREET":"建平七街","SECT":" ","MAREA":" ","LANE":"２６巷","ALLEY":" ","HOUSE_NO":"４６號五樓之１","E_COORD97":166545.29000000001,"N_COORD97":2543228.9100000001,"ADDRESS":"建平七街２６巷４６號五樓之１","OBJECTID":338671},"geometry":{"x":166545.29000000097,"y":2543228.910000002}},{"attributes":{"ID":338681,"DIS_CODE":0,"TOWNNAME":"安平區","LI":"文平里","LIN":"1鄰","STREET":"建平七街","SECT":" ","MAREA":" ","LANE":"２６巷","ALLEY":" ","HOUSE_NO":"４６號五樓之２","E_COORD97":166545.29000000001,"N_COORD97":2543228.9100000001,"ADDRESS":"建平七街２６巷４６號五樓之２","OBJECTID":338672},"geometry":{"x":166545.29000000097,"y":2543228.910000002}},{"attributes":{"ID":338682,"DIS_CODE":0,"TOWNNAME":"安平區","LI":"文平里","LIN":"1鄰","STREET":"建平七街","SECT":" ","MAREA":" ","LANE":"２６巷","ALLEY":" ","HOUSE_NO":"４６號五樓之３","E_COORD97":166545.29000000001,"N_COORD97":2543228.9100000001,"ADDRESS":"建平七街２６巷４６號五樓之３","OBJECTID":338673},"geometry":{"x":166545.29000000097,"y":2543228.910000002}},{"attributes":{"ID":338683,"DIS_CODE":0,"TOWNNAME":"安平區","LI":"文平里","LIN":"1鄰","STREET":"建平七街","SECT":" ","MAREA":" ","LANE":"２６巷","ALLEY":" ","HOUSE_NO":"４６號六樓之１","E_COORD97":166545.29000000001,"N_COORD97":2543228.9100000001,"ADDRESS":"建平七街２６巷４６號六樓之１","OBJECTID":338674},"geometry":{"x":166545.29000000097,"y":2543228.910000002}},{"attributes":{"ID":338684,"DIS_CODE":0,"TOWNNAME":"安平區","LI":"文平里","LIN":"1鄰","STREET":"建平七街","SECT":" ","MAREA":" ","LANE":"２６巷","ALLEY":" ","HOUSE_NO":"４６號六樓之２","E_COORD97":166545.29000000001,"N_COORD97":2543228.9100000001,"ADDRESS":"建平七街２６巷４６號六樓之２","OBJECTID":338675},"geometry":{"x":166545.29000000097,"y":2543228.910000002}},{"attributes":{"ID":338685,"DIS_CODE":0,"TOWNNAME":"安平區","LI":"文平里","LIN":"1鄰","STREET":"建平七街","SECT":" ","MAREA":" ","LANE":"２６巷","ALLEY":" ","HOUSE_NO":"４６號六樓之３","E_COORD97":166545.29000000001,"N_COORD97":2543228.9100000001,"ADDRESS":"建平七街２６巷４６號六樓之３","OBJECTID":338676},"geometry":{"x":166545.29000000097,"y":2543228.910000002}},{"attributes":{"ID":338686,"DIS_CODE":0,"TOWNNAME":"安平區","LI":"文平里","LIN":"1鄰","STREET":"建平七街","SECT":" ","MAREA":" ","LANE":"２６巷","ALLEY":" ","HOUSE_NO":"４６號四樓之１","E_COORD97":166545.29000000001,"N_COORD97":2543228.9100000001,"ADDRESS":"建平七街２６巷４６號四樓之１","OBJECTID":338677},"geometry":{"x":166545.29000000097,"y":2543228.910000002}},{"attributes":{"ID":338687,"DIS_CODE":0,"TOWNNAME":"安平區","LI":"文平里","LIN":"1鄰","STREET":"建平七街","SECT":" ","MAREA":" ","LANE":"２６巷","ALLEY":" ","HOUSE_NO":"４６號四樓之２","E_COORD97":166545.29000000001,"N_COORD97":2543228.9100000001,"ADDRESS":"建平七街２６巷４６號四樓之２","OBJECTID":338678},"geometry":{"x":166545.29000000097,"y":2543228.910000002}},{"attributes":{"ID":338688,"DIS_CODE":0,"TOWNNAME":"安平區","LI":"文平里","LIN":"1鄰","STREET":"建平七街","SECT":" ","MAREA":" ","LANE":"２６巷","ALLEY":" ","HOUSE_NO":"４６號四樓之３","E_COORD97":166545.29000000001,"N_COORD97":2543228.9100000001,"ADDRESS":"建平七街２６巷４６號四樓之３","OBJECTID":338679},"geometry":{"x":166545.29000000097,"y":2543228.910000002}},{"attributes":{"ID":338689,"DIS_CODE":0,"TOWNNAME":"歸仁區","LI":"七甲里","LIN":"1鄰","STREET":"中正北路","SECT":"二段","MAREA":" ","LANE":"７５巷","ALLEY":" ","HOUSE_NO":"８２號一樓之２","E_COORD97":177421.91,"N_COORD97":2542292.2599999998,"ADDRESS":"中正北路二段７５巷８２號一樓之２","OBJECTID":338680},"geometry":{"x":177421.91000000015,"y":2542292.2599999998}},{"attributes":{"ID":338690,"DIS_CODE":0,"TOWNNAME":"歸仁區","LI":"七甲里","LIN":"1鄰","STREET":"中正北路","SECT":"二段","MAREA":" ","LANE":"７５巷","ALLEY":" ","HOUSE_NO":"８２號四樓之２","E_COORD97":177421.91,"N_COORD97":2542292.2599999998,"ADDRESS":"中正北路二段７５巷８２號四樓之２","OBJECTID":338681},"geometry":{"x":177421.91000000015,"y":2542292.2599999998}},{"attributes":{"ID":338691,"DIS_CODE":0,"TOWNNAME":"歸仁區","LI":"七甲里","LIN":"1鄰","STREET":"中正北路","SECT":"二段","MAREA":" ","LANE":"７５巷","ALLEY":" ","HOUSE_NO":"８２號三樓之２","E_COORD97":177421.91,"N_COORD97":2542292.2599999998,"ADDRESS":"中正北路二段７５巷８２號三樓之２","OBJECTID":338682},"geometry":{"x":177421.91000000015,"y":2542292.2599999998}},{"attributes":{"ID":338692,"DIS_CODE":0,"TOWNNAME":"安南區","LI":"理想里","LIN":"1鄰","STREET":"同安路","SECT":" ","MAREA":" ","LANE":"３６巷","ALLEY":" ","HOUSE_NO":"５５號","E_COORD97":166916.64000000001,"N_COORD97":2548743.27,"ADDRESS":"同安路３６巷５５號","OBJECTID":338683},"geometry":{"x":166916.63999999966,"y":2548743.2699999996}},{"attributes":{"ID":338693,"DIS_CODE":0,"TOWNNAME":"北區","LI":"光武里","LIN":"1鄰","STREET":"長榮路","SECT":"五段","MAREA":" ","LANE":"２５３巷","ALLEY":" ","HOUSE_NO":"１３號二樓","E_COORD97":169881.89000000001,"N_COORD97":2545834.3799999999,"ADDRESS":"長榮路五段２５３巷１３號二樓","OBJECTID":338684},"geometry":{"x":169881.89000000153,"y":2545834.3800000027}},{"attributes":{"ID":338694,"DIS_CODE":0,"TOWNNAME":"北區","LI":"光武里","LIN":"1鄰","STREET":"長榮路","SECT":"五段","MAREA":" ","LANE":"２５３巷","ALLEY":" ","HOUSE_NO":"１３號三樓","E_COORD97":169881.89000000001,"N_COORD97":2545834.3799999999,"ADDRESS":"長榮路五段２５３巷１３號三樓","OBJECTID":338685},"geometry":{"x":169881.89000000153,"y":2545834.3800000027}},{"attributes":{"ID":338695,"DIS_CODE":0,"TOWNNAME":"下營區","LI":"宅內里","LIN":"1鄰","STREET":"友愛街","SECT":" ","MAREA":" ","LANE":"６２巷","ALLEY":" ","HOUSE_NO":"５號","E_COORD97":174240.35999999999,"N_COORD97":2570461.4300000002,"ADDRESS":"友愛街６２巷５號","OBJECTID":338686},"geometry":{"x":174240.36000000034,"y":2570461.4299999997}},{"attributes":{"ID":338696,"DIS_CODE":0,"TOWNNAME":"北區","LI":"光武里","LIN":"1鄰","STREET":"長榮路","SECT":"五段","MAREA":" ","LANE":"２５３巷","ALLEY":" ","HOUSE_NO":"１３號五樓","E_COORD97":169881.89000000001,"N_COORD97":2545834.3799999999,"ADDRESS":"長榮路五段２５３巷１３號五樓","OBJECTID":338687},"geometry":{"x":169881.89000000153,"y":2545834.3800000027}},{"attributes":{"ID":338697,"DIS_CODE":0,"TOWNNAME":"北區","LI":"光武里","LIN":"1鄰","STREET":"長榮路","SECT":"五段","MAREA":" ","LANE":"２５３巷","ALLEY":" ","HOUSE_NO":"１３號四樓","E_COORD97":169881.89000000001,"N_COORD97":2545834.3799999999,"ADDRESS":"長榮路五段２５３巷１３號四樓","OBJECTID":338688},"geometry":{"x":169881.89000000153,"y":2545834.3800000027}},{"attributes":{"ID":338698,"DIS_CODE":0,"TOWNNAME":"歸仁區","LI":"七甲里","LIN":"1鄰","STREET":"中正北路","SECT":"二段","MAREA":" ","LANE":"７５巷","ALLEY":" ","HOUSE_NO":"８２號五樓之１","E_COORD97":177421.89000000001,"N_COORD97":2542292.2599999998,"ADDRESS":"中正北路二段７５巷８２號五樓之１","OBJECTID":338689},"geometry":{"x":177421.88999999873,"y":2542292.2599999998}},{"attributes":{"ID":338699,"DIS_CODE":0,"TOWNNAME":"歸仁區","LI":"七甲里","LIN":"1鄰","STREET":"中正北路","SECT":"二段","MAREA":" ","LANE":"７５巷","ALLEY":" ","HOUSE_NO":"８２號三樓之１","E_COORD97":177421.89000000001,"N_COORD97":2542292.2599999998,"ADDRESS":"中正北路二段７５巷８２號三樓之１","OBJECTID":338690},"geometry":{"x":177421.88999999873,"y":2542292.2599999998}},{"attributes":{"ID":338700,"DIS_CODE":0,"TOWNNAME":"歸仁區","LI":"七甲里","LIN":"1鄰","STREET":"中正北路","SECT":"二段","MAREA":" ","LANE":"７５巷","ALLEY":" ","HOUSE_NO":"８０號三樓之１","E_COORD97":177437.29000000001,"N_COORD97":2542293.2599999998,"ADDRESS":"中正北路二段７５巷８０號三樓之１","OBJECTID":338691},"geometry":{"x":177437.29000000097,"y":2542293.2600000035}},{"attributes":{"ID":338701,"DIS_CODE":0,"TOWNNAME":"歸仁區","LI":"七甲里","LIN":"1鄰","STREET":"中正北路","SECT":"二段","MAREA":" ","LANE":"７５巷","ALLEY":" ","HOUSE_NO":"７５號二樓之２","E_COORD97":177449.51000000001,"N_COORD97":2542268.2599999998,"ADDRESS":"中正北路二段７５巷７５號二樓之２","OBJECTID":338692},"geometry":{"x":177449.50999999978,"y":2542268.2599999998}},{"attributes":{"ID":338702,"DIS_CODE":0,"TOWNNAME":"歸仁區","LI":"七甲里","LIN":"1鄰","STREET":"中正北路","SECT":"二段","MAREA":" ","LANE":"７５巷","ALLEY":" ","HOUSE_NO":"７５號五樓之１","E_COORD97":177449.48999999999,"N_COORD97":2542268.2599999998,"ADDRESS":"中正北路二段７５巷７５號五樓之１","OBJECTID":338693},"geometry":{"x":177449.49000000115,"y":2542268.2599999998}},{"attributes":{"ID":338703,"DIS_CODE":0,"TOWNNAME":"歸仁區","LI":"七甲里","LIN":"1鄰","STREET":"中正北路","SECT":"二段","MAREA":" ","LANE":"７５巷","ALLEY":" ","HOUSE_NO":"７５號五樓之２","E_COORD97":177449.51000000001,"N_COORD97":2542268.2599999998,"ADDRESS":"中正北路二段７５巷７５號五樓之２","OBJECTID":338694},"geometry":{"x":177449.50999999978,"y":2542268.2599999998}},{"attributes":{"ID":338704,"DIS_CODE":0,"TOWNNAME":"歸仁區","LI":"七甲里","LIN":"1鄰","STREET":"中正北路","SECT":"二段","MAREA":" ","LANE":"７５巷","ALLEY":" ","HOUSE_NO":"７５號四樓之１","E_COORD97":177449.48999999999,"N_COORD97":2542268.2599999998,"ADDRESS":"中正北路二段７５巷７５號四樓之１","OBJECTID":338695},"geometry":{"x":177449.49000000115,"y":2542268.2599999998}},{"attributes":{"ID":338705,"DIS_CODE":0,"TOWNNAME":"歸仁區","LI":"七甲里","LIN":"1鄰","STREET":"中正北路","SECT":"二段","MAREA":" ","LANE":"７５巷","ALLEY":" ","HOUSE_NO":"７５號二樓之１","E_COORD97":177449.48999999999,"N_COORD97":2542268.2599999998,"ADDRESS":"中正北路二段７５巷７５號二樓之１","OBJECTID":338696},"geometry":{"x":177449.49000000115,"y":2542268.2599999998}},{"attributes":{"ID":338706,"DIS_CODE":0,"TOWNNAME":"安平區","LI":"平安里","LIN":"1鄰","STREET":"安平路","SECT":" ","MAREA":" ","LANE":"４０巷","ALLEY":" ","HOUSE_NO":"９號二樓","E_COORD97":166540.53,"N_COORD97":2544374.1499999999,"ADDRESS":"安平路４０巷９號二樓","OBJECTID":338697},"geometry":{"x":166540.53000000119,"y":2544374.1500000022}},{"attributes":{"ID":338707,"DIS_CODE":0,"TOWNNAME":"北區","LI":"長榮里","LIN":"1鄰","STREET":"長榮路","SECT":"五段","MAREA":" ","LANE":"４１巷","ALLEY":" ","HOUSE_NO":"４６號三樓之１","E_COORD97":169869.35000000001,"N_COORD97":2545663.79,"ADDRESS":"長榮路五段４１巷４６號三樓之１","OBJECTID":338698},"geometry":{"x":169869.34999999963,"y":2545663.790000001}},{"attributes":{"ID":338708,"DIS_CODE":0,"TOWNNAME":"北區","LI":"長榮里","LIN":"1鄰","STREET":"長榮路","SECT":"五段","MAREA":" ","LANE":"４１巷","ALLEY":" ","HOUSE_NO":"４６號三樓之２","E_COORD97":169869.35000000001,"N_COORD97":2545663.79,"ADDRESS":"長榮路五段４１巷４６號三樓之２","OBJECTID":338699},"geometry":{"x":169869.34999999963,"y":2545663.790000001}},{"attributes":{"ID":338709,"DIS_CODE":0,"TOWNNAME":"北區","LI":"長榮里","LIN":"1鄰","STREET":"長榮路","SECT":"五段","MAREA":" ","LANE":"４１巷","ALLEY":" ","HOUSE_NO":"４６號四樓之１","E_COORD97":169869.35000000001,"N_COORD97":2545663.79,"ADDRESS":"長榮路五段４１巷４６號四樓之１","OBJECTID":338700},"geometry":{"x":169869.34999999963,"y":2545663.790000001}},{"attributes":{"ID":338710,"DIS_CODE":0,"TOWNNAME":"北區","LI":"長榮里","LIN":"1鄰","STREET":"長榮路","SECT":"五段","MAREA":" ","LANE":"４１巷","ALLEY":" ","HOUSE_NO":"４６號四樓之２","E_COORD97":169869.35000000001,"N_COORD97":2545663.79,"ADDRESS":"長榮路五段４１巷４６號四樓之２","OBJECTID":338701},"geometry":{"x":169869.34999999963,"y":2545663.790000001}},{"attributes":{"ID":338711,"DIS_CODE":0,"TOWNNAME":"北區","LI":"長榮里","LIN":"1鄰","STREET":"長榮路","SECT":"五段","MAREA":" ","LANE":"４１巷","ALLEY":" ","HOUSE_NO":"４６號四樓之３","E_COORD97":169869.35000000001,"N_COORD97":2545663.79,"ADDRESS":"長榮路五段４１巷４６號四樓之３","OBJECTID":338702},"geometry":{"x":169869.34999999963,"y":2545663.790000001}},{"attributes":{"ID":338712,"DIS_CODE":0,"TOWNNAME":"北區","LI":"長榮里","LIN":"1鄰","STREET":"長榮路","SECT":"五段","MAREA":" ","LANE":"４１巷","ALLEY":" ","HOUSE_NO":"４６號四樓之５","E_COORD97":169869.35000000001,"N_COORD97":2545663.79,"ADDRESS":"長榮路五段４１巷４６號四樓之５","OBJECTID":338703},"geometry":{"x":169869.34999999963,"y":2545663.790000001}},{"attributes":{"ID":338713,"DIS_CODE":0,"TOWNNAME":"北區","LI":"長榮里","LIN":"1鄰","STREET":"長榮路","SECT":"五段","MAREA":" ","LANE":"４１巷","ALLEY":" ","HOUSE_NO":"４６號五樓之１","E_COORD97":169869.35000000001,"N_COORD97":2545663.79,"ADDRESS":"長榮路五段４１巷４６號五樓之１","OBJECTID":338704},"geometry":{"x":169869.34999999963,"y":2545663.790000001}},{"attributes":{"ID":338714,"DIS_CODE":0,"TOWNNAME":"北區","LI":"長榮里","LIN":"1鄰","STREET":"長榮路","SECT":"五段","MAREA":" ","LANE":"４１巷","ALLEY":" ","HOUSE_NO":"４６號五樓之２","E_COORD97":169869.35000000001,"N_COORD97":2545663.79,"ADDRESS":"長榮路五段４１巷４６號五樓之２","OBJECTID":338705},"geometry":{"x":169869.34999999963,"y":2545663.790000001}},{"attributes":{"ID":338715,"DIS_CODE":0,"TOWNNAME":"北區","LI":"長榮里","LIN":"1鄰","STREET":"長榮路","SECT":"五段","MAREA":" ","LANE":"４１巷","ALLEY":" ","HOUSE_NO":"４６號五樓之３","E_COORD97":169869.35000000001,"N_COORD97":2545663.79,"ADDRESS":"長榮路五段４１巷４６號五樓之３","OBJECTID":338706},"geometry":{"x":169869.34999999963,"y":2545663.790000001}},{"attributes":{"ID":338716,"DIS_CODE":0,"TOWNNAME":"北區","LI":"長榮里","LIN":"1鄰","STREET":"長榮路","SECT":"五段","MAREA":" ","LANE":"４１巷","ALLEY":" ","HOUSE_NO":"４６號五樓之５","E_COORD97":169869.35000000001,"N_COORD97":2545663.79,"ADDRESS":"長榮路五段４１巷４６號五樓之５","OBJECTID":338707},"geometry":{"x":169869.34999999963,"y":2545663.790000001}},{"attributes":{"ID":338717,"DIS_CODE":0,"TOWNNAME":"北區","LI":"長榮里","LIN":"1鄰","STREET":"長榮路","SECT":"五段","MAREA":" ","LANE":"４１巷","ALLEY":" ","HOUSE_NO":"４６號六樓之１","E_COORD97":169869.35000000001,"N_COORD97":2545663.79,"ADDRESS":"長榮路五段４１巷４６號六樓之１","OBJECTID":338708},"geometry":{"x":169869.34999999963,"y":2545663.790000001}},{"attributes":{"ID":338718,"DIS_CODE":0,"TOWNNAME":"北區","LI":"長榮里","LIN":"1鄰","STREET":"長榮路","SECT":"五段","MAREA":" ","LANE":"４１巷","ALLEY":" ","HOUSE_NO":"４６號六樓之２","E_COORD97":169869.35000000001,"N_COORD97":2545663.79,"ADDRESS":"長榮路五段４１巷４６號六樓之２","OBJECTID":338709},"geometry":{"x":169869.34999999963,"y":2545663.790000001}},{"attributes":{"ID":338719,"DIS_CODE":0,"TOWNNAME":"北區","LI":"長榮里","LIN":"1鄰","STREET":"長榮路","SECT":"五段","MAREA":" ","LANE":"４１巷","ALLEY":" ","HOUSE_NO":"４６號六樓之３","E_COORD97":169869.35000000001,"N_COORD97":2545663.79,"ADDRESS":"長榮路五段４１巷４６號六樓之３","OBJECTID":338710},"geometry":{"x":169869.34999999963,"y":2545663.790000001}},{"attributes":{"ID":338720,"DIS_CODE":0,"TOWNNAME":"北區","LI":"長榮里","LIN":"1鄰","STREET":"長榮路","SECT":"五段","MAREA":" ","LANE":"４１巷","ALLEY":" ","HOUSE_NO":"４６號六樓之５","E_COORD97":169869.35000000001,"N_COORD97":2545663.79,"ADDRESS":"長榮路五段４１巷４６號六樓之５","OBJECTID":338711},"geometry":{"x":169869.34999999963,"y":2545663.790000001}},{"attributes":{"ID":338721,"DIS_CODE":0,"TOWNNAME":"北區","LI":"長榮里","LIN":"1鄰","STREET":"長榮路","SECT":"五段","MAREA":" ","LANE":"４１巷","ALLEY":" ","HOUSE_NO":"４６號七樓之１","E_COORD97":169869.35000000001,"N_COORD97":2545663.79,"ADDRESS":"長榮路五段４１巷４６號七樓之１","OBJECTID":338712},"geometry":{"x":169869.34999999963,"y":2545663.790000001}},{"attributes":{"ID":338722,"DIS_CODE":0,"TOWNNAME":"北區","LI":"長榮里","LIN":"1鄰","STREET":"長榮路","SECT":"五段","MAREA":" ","LANE":"４１巷","ALLEY":" ","HOUSE_NO":"４６號七樓之２","E_COORD97":169869.35000000001,"N_COORD97":2545663.79,"ADDRESS":"長榮路五段４１巷４６號七樓之２","OBJECTID":338713},"geometry":{"x":169869.34999999963,"y":2545663.790000001}},{"attributes":{"ID":338723,"DIS_CODE":0,"TOWNNAME":"北區","LI":"長榮里","LIN":"1鄰","STREET":"長榮路","SECT":"五段","MAREA":" ","LANE":"４１巷","ALLEY":" ","HOUSE_NO":"４６號七樓之３","E_COORD97":169869.35000000001,"N_COORD97":2545663.79,"ADDRESS":"長榮路五段４１巷４６號七樓之３","OBJECTID":338714},"geometry":{"x":169869.34999999963,"y":2545663.790000001}},{"attributes":{"ID":338724,"DIS_CODE":0,"TOWNNAME":"北區","LI":"長榮里","LIN":"1鄰","STREET":"長榮路","SECT":"五段","MAREA":" ","LANE":"４１巷","ALLEY":" ","HOUSE_NO":"４６號七樓之５","E_COORD97":169869.35000000001,"N_COORD97":2545663.79,"ADDRESS":"長榮路五段４１巷４６號七樓之５","OBJECTID":338715},"geometry":{"x":169869.34999999963,"y":2545663.790000001}},{"attributes":{"ID":338725,"DIS_CODE":0,"TOWNNAME":"北區","LI":"長榮里","LIN":"1鄰","STREET":"長榮路","SECT":"五段","MAREA":" ","LANE":"４１巷","ALLEY":" ","HOUSE_NO":"４６號八樓之１","E_COORD97":169869.35000000001,"N_COORD97":2545663.79,"ADDRESS":"長榮路五段４１巷４６號八樓之１","OBJECTID":338716},"geometry":{"x":169869.34999999963,"y":2545663.790000001}},{"attributes":{"ID":338726,"DIS_CODE":0,"TOWNNAME":"北區","LI":"長榮里","LIN":"1鄰","STREET":"長榮路","SECT":"五段","MAREA":" ","LANE":"４１巷","ALLEY":" ","HOUSE_NO":"４６號八樓之２","E_COORD97":169869.35000000001,"N_COORD97":2545663.79,"ADDRESS":"長榮路五段４１巷４６號八樓之２","OBJECTID":338717},"geometry":{"x":169869.34999999963,"y":2545663.790000001}},{"attributes":{"ID":338727,"DIS_CODE":0,"TOWNNAME":"北區","LI":"長榮里","LIN":"1鄰","STREET":"長榮路","SECT":"五段","MAREA":" ","LANE":"４１巷","ALLEY":" ","HOUSE_NO":"４６號八樓之３","E_COORD97":169869.35000000001,"N_COORD97":2545663.79,"ADDRESS":"長榮路五段４１巷４６號八樓之３","OBJECTID":338718},"geometry":{"x":169869.34999999963,"y":2545663.790000001}},{"attributes":{"ID":338728,"DIS_CODE":0,"TOWNNAME":"北區","LI":"長榮里","LIN":"1鄰","STREET":"長榮路","SECT":"五段","MAREA":" ","LANE":"４１巷","ALLEY":" ","HOUSE_NO":"４６號八樓之５","E_COORD97":169869.35000000001,"N_COORD97":2545663.79,"ADDRESS":"長榮路五段４１巷４６號八樓之５","OBJECTID":338719},"geometry":{"x":169869.34999999963,"y":2545663.790000001}},{"attributes":{"ID":338729,"DIS_CODE":0,"TOWNNAME":"北區","LI":"長榮里","LIN":"1鄰","STREET":"長榮路","SECT":"五段","MAREA":" ","LANE":"４１巷","ALLEY":" ","HOUSE_NO":"４６號九樓之１","E_COORD97":169869.35000000001,"N_COORD97":2545663.79,"ADDRESS":"長榮路五段４１巷４６號九樓之１","OBJECTID":338720},"geometry":{"x":169869.34999999963,"y":2545663.790000001}},{"attributes":{"ID":338730,"DIS_CODE":0,"TOWNNAME":"東區","LI":"大同里","LIN":"8鄰","STREET":"樹林街","SECT":"一段","MAREA":" ","LANE":" ","ALLEY":" ","HOUSE_NO":"２１５號","E_COORD97":169195.97,"N_COORD97":2542995.9700000002,"ADDRESS":"樹林街一段２１５號","OBJECTID":338721},"geometry":{"x":169195.96999999974,"y":2542995.9700000025}},{"attributes":{"ID":338731,"DIS_CODE":0,"TOWNNAME":"北區","LI":"長榮里","LIN":"1鄰","STREET":"長榮路","SECT":"五段","MAREA":" ","LANE":"４１巷","ALLEY":" ","HOUSE_NO":"４６號九樓之２","E_COORD97":169869.35000000001,"N_COORD97":2545663.79,"ADDRESS":"長榮路五段４１巷４６號九樓之２","OBJECTID":338722},"geometry":{"x":169869.34999999963,"y":2545663.790000001}},{"attributes":{"ID":338732,"DIS_CODE":0,"TOWNNAME":"北區","LI":"長榮里","LIN":"1鄰","STREET":"長榮路","SECT":"五段","MAREA":" ","LANE":"４１巷","ALLEY":" ","HOUSE_NO":"４６號九樓之３","E_COORD97":169869.35000000001,"N_COORD97":2545663.79,"ADDRESS":"長榮路五段４１巷４６號九樓之３","OBJECTID":338723},"geometry":{"x":169869.34999999963,"y":2545663.790000001}},{"attributes":{"ID":338733,"DIS_CODE":0,"TOWNNAME":"北區","LI":"長榮里","LIN":"1鄰","STREET":"長榮路","SECT":"五段","MAREA":" ","LANE":"４１巷","ALLEY":" ","HOUSE_NO":"４６號九樓之５","E_COORD97":169869.35000000001,"N_COORD97":2545663.79,"ADDRESS":"長榮路五段４１巷４６號九樓之５","OBJECTID":338724},"geometry":{"x":169869.34999999963,"y":2545663.790000001}},{"attributes":{"ID":338734,"DIS_CODE":0,"TOWNNAME":"北區","LI":"長榮里","LIN":"1鄰","STREET":"長榮路","SECT":"五段","MAREA":" ","LANE":"４１巷","ALLEY":" ","HOUSE_NO":"４６號十樓之１","E_COORD97":169869.35000000001,"N_COORD97":2545663.79,"ADDRESS":"長榮路五段４１巷４６號十樓之１","OBJECTID":338725},"geometry":{"x":169869.34999999963,"y":2545663.790000001}},{"attributes":{"ID":338735,"DIS_CODE":0,"TOWNNAME":"北區","LI":"長榮里","LIN":"1鄰","STREET":"長榮路","SECT":"五段","MAREA":" ","LANE":"４１巷","ALLEY":" ","HOUSE_NO":"４６號十樓之２","E_COORD97":169869.35000000001,"N_COORD97":2545663.79,"ADDRESS":"長榮路五段４１巷４６號十樓之２","OBJECTID":338726},"geometry":{"x":169869.34999999963,"y":2545663.790000001}},{"attributes":{"ID":338736,"DIS_CODE":0,"TOWNNAME":"北區","LI":"長榮里","LIN":"1鄰","STREET":"長榮路","SECT":"五段","MAREA":" ","LANE":"４１巷","ALLEY":" ","HOUSE_NO":"４６號十樓之３","E_COORD97":169869.35000000001,"N_COORD97":2545663.79,"ADDRESS":"長榮路五段４１巷４６號十樓之３","OBJECTID":338727},"geometry":{"x":169869.34999999963,"y":2545663.790000001}},{"attributes":{"ID":338737,"DIS_CODE":0,"TOWNNAME":"北區","LI":"長榮里","LIN":"1鄰","STREET":"長榮路","SECT":"五段","MAREA":" ","LANE":"４１巷","ALLEY":" ","HOUSE_NO":"４６號十樓之５","E_COORD97":169869.35000000001,"N_COORD97":2545663.79,"ADDRESS":"長榮路五段４１巷４６號十樓之５","OBJECTID":338728},"geometry":{"x":169869.34999999963,"y":2545663.790000001}},{"attributes":{"ID":338738,"DIS_CODE":0,"TOWNNAME":"北區","LI":"長榮里","LIN":"1鄰","STREET":"長榮路","SECT":"五段","MAREA":" ","LANE":"４１巷","ALLEY":" ","HOUSE_NO":"４６號十一樓之１","E_COORD97":169869.35000000001,"N_COORD97":2545663.79,"ADDRESS":"長榮路五段４１巷４６號十一樓之１","OBJECTID":338729},"geometry":{"x":169869.34999999963,"y":2545663.790000001}},{"attributes":{"ID":338739,"DIS_CODE":0,"TOWNNAME":"北區","LI":"長榮里","LIN":"1鄰","STREET":"長榮路","SECT":"五段","MAREA":" ","LANE":"４１巷","ALLEY":" ","HOUSE_NO":"４６號十一樓之２","E_COORD97":169869.35000000001,"N_COORD97":2545663.79,"ADDRESS":"長榮路五段４１巷４６號十一樓之２","OBJECTID":338730},"geometry":{"x":169869.34999999963,"y":2545663.790000001}},{"attributes":{"ID":338740,"DIS_CODE":0,"TOWNNAME":"北區","LI":"長榮里","LIN":"1鄰","STREET":"長榮路","SECT":"五段","MAREA":" ","LANE":"４１巷","ALLEY":" ","HOUSE_NO":"４６號十一樓之３","E_COORD97":169869.35000000001,"N_COORD97":2545663.79,"ADDRESS":"長榮路五段４１巷４６號十一樓之３","OBJECTID":338731},"geometry":{"x":169869.34999999963,"y":2545663.790000001}},{"attributes":{"ID":338741,"DIS_CODE":0,"TOWNNAME":"北區","LI":"長榮里","LIN":"1鄰","STREET":"長榮路","SECT":"五段","MAREA":" ","LANE":"４１巷","ALLEY":" ","HOUSE_NO":"４６號十一樓之５","E_COORD97":169869.35000000001,"N_COORD97":2545663.79,"ADDRESS":"長榮路五段４１巷４６號十一樓之５","OBJECTID":338732},"geometry":{"x":169869.34999999963,"y":2545663.790000001}},{"attributes":{"ID":338742,"DIS_CODE":0,"TOWNNAME":"北區","LI":"長榮里","LIN":"1鄰","STREET":"長榮路","SECT":"五段","MAREA":" ","LANE":"４１巷","ALLEY":" ","HOUSE_NO":"４６號十二樓之１","E_COORD97":169869.35000000001,"N_COORD97":2545663.79,"ADDRESS":"長榮路五段４１巷４６號十二樓之１","OBJECTID":338733},"geometry":{"x":169869.34999999963,"y":2545663.790000001}},{"attributes":{"ID":338743,"DIS_CODE":0,"TOWNNAME":"北區","LI":"長榮里","LIN":"1鄰","STREET":"長榮路","SECT":"五段","MAREA":" ","LANE":"４１巷","ALLEY":" ","HOUSE_NO":"４６號十二樓之２","E_COORD97":169869.35000000001,"N_COORD97":2545663.79,"ADDRESS":"長榮路五段４１巷４６號十二樓之２","OBJECTID":338734},"geometry":{"x":169869.34999999963,"y":2545663.790000001}},{"attributes":{"ID":338744,"DIS_CODE":0,"TOWNNAME":"北區","LI":"長榮里","LIN":"1鄰","STREET":"長榮路","SECT":"五段","MAREA":" ","LANE":"４１巷","ALLEY":" ","HOUSE_NO":"４６號十二樓之３","E_COORD97":169869.35000000001,"N_COORD97":2545663.79,"ADDRESS":"長榮路五段４１巷４６號十二樓之３","OBJECTID":338735},"geometry":{"x":169869.34999999963,"y":2545663.790000001}},{"attributes":{"ID":338745,"DIS_CODE":0,"TOWNNAME":"北區","LI":"長榮里","LIN":"1鄰","STREET":"長榮路","SECT":"五段","MAREA":" ","LANE":"４１巷","ALLEY":" ","HOUSE_NO":"４６號十二樓之５","E_COORD97":169869.35000000001,"N_COORD97":2545663.79,"ADDRESS":"長榮路五段４１巷４６號十二樓之５","OBJECTID":338736},"geometry":{"x":169869.34999999963,"y":2545663.790000001}},{"attributes":{"ID":338746,"DIS_CODE":0,"TOWNNAME":"北區","LI":"長榮里","LIN":"1鄰","STREET":"長榮路","SECT":"五段","MAREA":" ","LANE":"４１巷","ALLEY":" ","HOUSE_NO":"４６號十三樓之１","E_COORD97":169869.35000000001,"N_COORD97":2545663.79,"ADDRESS":"長榮路五段４１巷４６號十三樓之１","OBJECTID":338737},"geometry":{"x":169869.34999999963,"y":2545663.790000001}},{"attributes":{"ID":338747,"DIS_CODE":0,"TOWNNAME":"北區","LI":"長榮里","LIN":"1鄰","STREET":"長榮路","SECT":"五段","MAREA":" ","LANE":"４１巷","ALLEY":" ","HOUSE_NO":"４６號十三樓之２","E_COORD97":169869.35000000001,"N_COORD97":2545663.79,"ADDRESS":"長榮路五段４１巷４６號十三樓之２","OBJECTID":338738},"geometry":{"x":169869.34999999963,"y":2545663.790000001}},{"attributes":{"ID":338748,"DIS_CODE":0,"TOWNNAME":"北區","LI":"長榮里","LIN":"1鄰","STREET":"長榮路","SECT":"五段","MAREA":" ","LANE":"４１巷","ALLEY":" ","HOUSE_NO":"４６號十三樓之３","E_COORD97":169869.35000000001,"N_COORD97":2545663.79,"ADDRESS":"長榮路五段４１巷４６號十三樓之３","OBJECTID":338739},"geometry":{"x":169869.34999999963,"y":2545663.790000001}},{"attributes":{"ID":338749,"DIS_CODE":0,"TOWNNAME":"北區","LI":"長榮里","LIN":"1鄰","STREET":"長榮路","SECT":"五段","MAREA":" ","LANE":"４１巷","ALLEY":" ","HOUSE_NO":"４６號十三樓之５","E_COORD97":169869.35000000001,"N_COORD97":2545663.79,"ADDRESS":"長榮路五段４１巷４６號十三樓之５","OBJECTID":338740},"geometry":{"x":169869.34999999963,"y":2545663.790000001}},{"attributes":{"ID":338750,"DIS_CODE":0,"TOWNNAME":"北區","LI":"長榮里","LIN":"1鄰","STREET":"長榮路","SECT":"五段","MAREA":" ","LANE":"４１巷","ALLEY":" ","HOUSE_NO":"４６號十四樓之１","E_COORD97":169869.35000000001,"N_COORD97":2545663.79,"ADDRESS":"長榮路五段４１巷４６號十四樓之１","OBJECTID":338741},"geometry":{"x":169869.34999999963,"y":2545663.790000001}},{"attributes":{"ID":338751,"DIS_CODE":0,"TOWNNAME":"下營區","LI":"宅內里","LIN":"1鄰","STREET":"友愛街","SECT":" ","MAREA":" ","LANE":"６２巷","ALLEY":" ","HOUSE_NO":"９號","E_COORD97":174247.79000000001,"N_COORD97":2570456.27,"ADDRESS":"友愛街６２巷９號","OBJECTID":338742},"geometry":{"x":174247.79000000004,"y":2570456.2699999996}},{"attributes":{"ID":338752,"DIS_CODE":0,"TOWNNAME":"北區","LI":"長榮里","LIN":"1鄰","STREET":"長榮路","SECT":"五段","MAREA":" ","LANE":"４１巷","ALLEY":" ","HOUSE_NO":"４６號十四樓之２","E_COORD97":169869.35000000001,"N_COORD97":2545663.79,"ADDRESS":"長榮路五段４１巷４６號十四樓之２","OBJECTID":338743},"geometry":{"x":169869.34999999963,"y":2545663.790000001}},{"attributes":{"ID":338753,"DIS_CODE":0,"TOWNNAME":"北區","LI":"長榮里","LIN":"1鄰","STREET":"長榮路","SECT":"五段","MAREA":" ","LANE":"４１巷","ALLEY":" ","HOUSE_NO":"４６號十四樓之３","E_COORD97":169869.35000000001,"N_COORD97":2545663.79,"ADDRESS":"長榮路五段４１巷４６號十四樓之３","OBJECTID":338744},"geometry":{"x":169869.34999999963,"y":2545663.790000001}},{"attributes":{"ID":338754,"DIS_CODE":0,"TOWNNAME":"北區","LI":"長榮里","LIN":"1鄰","STREET":"長榮路","SECT":"五段","MAREA":" ","LANE":"４１巷","ALLEY":" ","HOUSE_NO":"４６號十四樓之５","E_COORD97":169869.35000000001,"N_COORD97":2545663.79,"ADDRESS":"長榮路五段４１巷４６號十四樓之５","OBJECTID":338745},"geometry":{"x":169869.34999999963,"y":2545663.790000001}},{"attributes":{"ID":338755,"DIS_CODE":0,"TOWNNAME":"安南區","LI":"總頭里","LIN":"1鄰","STREET":"長溪路","SECT":"二段","MAREA":" ","LANE":"４８６巷","ALLEY":" ","HOUSE_NO":"３號","E_COORD97":168285.98999999999,"N_COORD97":2550439.5800000001,"ADDRESS":"長溪路二段４８６巷３號","OBJECTID":338746},"geometry":{"x":168285.99000000022,"y":2550439.5800000019}},{"attributes":{"ID":338756,"DIS_CODE":0,"TOWNNAME":"安南區","LI":"總頭里","LIN":"1鄰","STREET":"長溪路","SECT":"二段","MAREA":" ","LANE":"４８６巷","ALLEY":" ","HOUSE_NO":"５號","E_COORD97":168285.98999999999,"N_COORD97":2550435.0600000001,"ADDRESS":"長溪路二段４８６巷５號","OBJECTID":338747},"geometry":{"x":168285.99000000022,"y":2550435.0600000005}},{"attributes":{"ID":338757,"DIS_CODE":0,"TOWNNAME":"安南區","LI":"總頭里","LIN":"1鄰","STREET":"長溪路","SECT":"二段","MAREA":" ","LANE":"４８６巷","ALLEY":" ","HOUSE_NO":"７號","E_COORD97":168285.98999999999,"N_COORD97":2550431.4500000002,"ADDRESS":"長溪路二段４８６巷７號","OBJECTID":338748},"geometry":{"x":168285.99000000022,"y":2550431.4499999974}},{"attributes":{"ID":338758,"DIS_CODE":0,"TOWNNAME":"安南區","LI":"總頭里","LIN":"1鄰","STREET":"長溪路","SECT":"二段","MAREA":" ","LANE":"４８６巷","ALLEY":" ","HOUSE_NO":"９號","E_COORD97":168285.54000000001,"N_COORD97":2550426.9399999999,"ADDRESS":"長溪路二段４８６巷９號","OBJECTID":338749},"geometry":{"x":168285.54000000004,"y":2550426.9399999995}},{"attributes":{"ID":338759,"DIS_CODE":0,"TOWNNAME":"安南區","LI":"長安里","LIN":"1鄰","STREET":"長溪路","SECT":"三段","MAREA":" ","LANE":"３７３巷","ALLEY":" ","HOUSE_NO":"２號","E_COORD97":167641.56,"N_COORD97":2552016.4900000002,"ADDRESS":"長溪路三段３７３巷２號","OBJECTID":338750},"geometry":{"x":167641.56000000052,"y":2552016.4900000021}},{"attributes":{"ID":338760,"DIS_CODE":0,"TOWNNAME":"安南區","LI":"長安里","LIN":"1鄰","STREET":"長溪路","SECT":"三段","MAREA":" ","LANE":"３７３巷","ALLEY":" ","HOUSE_NO":"４號","E_COORD97":167641.98999999999,"N_COORD97":2552005.9300000002,"ADDRESS":"長溪路三段３７３巷４號","OBJECTID":338751},"geometry":{"x":167641.99000000022,"y":2552005.9300000016}},{"attributes":{"ID":338761,"DIS_CODE":0,"TOWNNAME":"安南區","LI":"長安里","LIN":"1鄰","STREET":"長溪路","SECT":"三段","MAREA":" ","LANE":"４０５巷","ALLEY":" ","HOUSE_NO":"１５號","E_COORD97":167620.45999999999,"N_COORD97":2552020.02,"ADDRESS":"長溪路三段４０５巷１５號","OBJECTID":338752},"geometry":{"x":167620.46000000089,"y":2552020.0199999996}},{"attributes":{"ID":338762,"DIS_CODE":0,"TOWNNAME":"安南區","LI":"長安里","LIN":"1鄰","STREET":"長溪路","SECT":"三段","MAREA":" ","LANE":"４０５巷","ALLEY":" ","HOUSE_NO":"２２號","E_COORD97":167596.76999999999,"N_COORD97":2552029.5699999998,"ADDRESS":"長溪路三段４０５巷２２號","OBJECTID":338753},"geometry":{"x":167596.76999999955,"y":2552029.5700000022}},{"attributes":{"ID":338763,"DIS_CODE":0,"TOWNNAME":"安南區","LI":"長安里","LIN":"1鄰","STREET":"長溪路","SECT":"三段","MAREA":" ","LANE":"４０５巷","ALLEY":" ","HOUSE_NO":"３０號","E_COORD97":167579.91,"N_COORD97":2552021.3399999999,"ADDRESS":"長溪路三段４０５巷３０號","OBJECTID":338754},"geometry":{"x":167579.91000000015,"y":2552021.3400000017}},{"attributes":{"ID":338764,"DIS_CODE":0,"TOWNNAME":"安南區","LI":"長安里","LIN":"1鄰","STREET":"長溪路","SECT":"三段","MAREA":" ","LANE":"４０５巷","ALLEY":" ","HOUSE_NO":"３６號","E_COORD97":167567.79000000001,"N_COORD97":2552021.96,"ADDRESS":"長溪路三段４０５巷３６號","OBJECTID":338755},"geometry":{"x":167567.79000000097,"y":2552021.9600000009}},{"attributes":{"ID":338765,"DIS_CODE":0,"TOWNNAME":"安南區","LI":"頂安里","LIN":"1鄰","STREET":"長溪路","SECT":"一段","MAREA":" ","LANE":"４７６巷","ALLEY":" ","HOUSE_NO":"１０號","E_COORD97":168518.32999999999,"N_COORD97":2549051.9300000002,"ADDRESS":"長溪路一段４７６巷１０號","OBJECTID":338756},"geometry":{"x":168518.33000000101,"y":2549051.9299999997}},{"attributes":{"ID":338766,"DIS_CODE":0,"TOWNNAME":"安南區","LI":"理想里","LIN":"1鄰","STREET":"同安路","SECT":" ","MAREA":" ","LANE":"３６巷","ALLEY":" ","HOUSE_NO":"１７號","E_COORD97":166878.84,"N_COORD97":2548812.8199999998,"ADDRESS":"同安路３６巷１７號","OBJECTID":338757},"geometry":{"x":166878.84000000078,"y":2548812.8199999984}},{"attributes":{"ID":338767,"DIS_CODE":0,"TOWNNAME":"安南區","LI":"理想里","LIN":"1鄰","STREET":"同安路","SECT":" ","MAREA":" ","LANE":"３６巷","ALLEY":" ","HOUSE_NO":"１９號","E_COORD97":166880.51999999999,"N_COORD97":2548808.8999999999,"ADDRESS":"同安路３６巷１９號","OBJECTID":338758},"geometry":{"x":166880.52000000048,"y":2548808.8999999985}},{"attributes":{"ID":338768,"DIS_CODE":0,"TOWNNAME":"安南區","LI":"理想里","LIN":"1鄰","STREET":"同安路","SECT":" ","MAREA":" ","LANE":"３６巷","ALLEY":" ","HOUSE_NO":"２１號","E_COORD97":166882.95000000001,"N_COORD97":2548805.9199999999,"ADDRESS":"同安路３６巷２１號","OBJECTID":338759},"geometry":{"x":166882.95000000019,"y":2548805.9200000018}},{"attributes":{"ID":338769,"DIS_CODE":0,"TOWNNAME":"安南區","LI":"理想里","LIN":"1鄰","STREET":"同安路","SECT":" ","MAREA":" ","LANE":"３６巷","ALLEY":" ","HOUSE_NO":"２３號","E_COORD97":166884.44,"N_COORD97":2548803.0099999998,"ADDRESS":"同安路３６巷２３號","OBJECTID":338760},"geometry":{"x":166884.44000000041,"y":2548803.0099999998}},{"attributes":{"ID":338770,"DIS_CODE":0,"TOWNNAME":"安南區","LI":"理想里","LIN":"1鄰","STREET":"同安路","SECT":" ","MAREA":" ","LANE":"３６巷","ALLEY":" ","HOUSE_NO":"２５號","E_COORD97":166887.25,"N_COORD97":2548798.5299999998,"ADDRESS":"同安路３６巷２５號","OBJECTID":338761},"geometry":{"x":166887.25,"y":2548798.5300000012}},{"attributes":{"ID":338771,"DIS_CODE":0,"TOWNNAME":"安南區","LI":"理想里","LIN":"1鄰","STREET":"同安路","SECT":" ","MAREA":" ","LANE":"３６巷","ALLEY":" ","HOUSE_NO":"２７號","E_COORD97":166887.98999999999,"N_COORD97":2548794.6099999999,"ADDRESS":"同安路３６巷２７號","OBJECTID":338762},"geometry":{"x":166887.99000000209,"y":2548794.6100000013}},{"attributes":{"ID":338772,"DIS_CODE":0,"TOWNNAME":"安南區","LI":"理想里","LIN":"1鄰","STREET":"同安路","SECT":" ","MAREA":" ","LANE":"３６巷","ALLEY":" ","HOUSE_NO":"３１號","E_COORD97":166892.85000000001,"N_COORD97":2548788.0800000001,"ADDRESS":"同安路３６巷３１號","OBJECTID":338763},"geometry":{"x":166892.84999999963,"y":2548788.0800000019}},{"attributes":{"ID":338773,"DIS_CODE":0,"TOWNNAME":"安南區","LI":"理想里","LIN":"1鄰","STREET":"同安路","SECT":" ","MAREA":" ","LANE":"３６巷","ALLEY":" ","HOUSE_NO":"３３號","E_COORD97":166894.53,"N_COORD97":2548783.9700000002,"ADDRESS":"同安路３６巷３３號","OBJECTID":338764},"geometry":{"x":166894.53000000212,"y":2548783.9700000007}},{"attributes":{"ID":338774,"DIS_CODE":0,"TOWNNAME":"安南區","LI":"理想里","LIN":"1鄰","STREET":"同安路","SECT":" ","MAREA":" ","LANE":"３６巷","ALLEY":" ","HOUSE_NO":"３５號","E_COORD97":166896.59,"N_COORD97":2548779.5299999998,"ADDRESS":"同安路３６巷３５號","OBJECTID":338765},"geometry":{"x":166896.58999999985,"y":2548779.5299999993}},{"attributes":{"ID":338775,"DIS_CODE":0,"TOWNNAME":"安南區","LI":"理想里","LIN":"1鄰","STREET":"同安路","SECT":" ","MAREA":" ","LANE":"３６巷","ALLEY":" ","HOUSE_NO":"３９號","E_COORD97":166900.60999999999,"N_COORD97":2548773.0299999998,"ADDRESS":"同安路３６巷３９號","OBJECTID":338766},"geometry":{"x":166900.61000000034,"y":2548773.0299999975}},{"attributes":{"ID":338776,"DIS_CODE":0,"TOWNNAME":"安南區","LI":"理想里","LIN":"1鄰","STREET":"同安路","SECT":" ","MAREA":" ","LANE":"３６巷","ALLEY":" ","HOUSE_NO":"３號","E_COORD97":166865.57000000001,"N_COORD97":2548838.1699999999,"ADDRESS":"同安路３６巷３號","OBJECTID":338767},"geometry":{"x":166865.57000000216,"y":2548838.1700000018}},{"attributes":{"ID":338777,"DIS_CODE":0,"TOWNNAME":"安南區","LI":"理想里","LIN":"1鄰","STREET":"同安路","SECT":" ","MAREA":" ","LANE":"３６巷","ALLEY":" ","HOUSE_NO":"４１號","E_COORD97":166902.85000000001,"N_COORD97":2548769.6699999999,"ADDRESS":"同安路３６巷４１號","OBJECTID":338768},"geometry":{"x":166902.84999999963,"y":2548769.6700000037}},{"attributes":{"ID":338778,"DIS_CODE":0,"TOWNNAME":"安南區","LI":"理想里","LIN":"1鄰","STREET":"同安路","SECT":" ","MAREA":" ","LANE":"３６巷","ALLEY":" ","HOUSE_NO":"４３號","E_COORD97":166904.53,"N_COORD97":2548766.3100000001,"ADDRESS":"同安路３６巷４３號","OBJECTID":338769},"geometry":{"x":166904.53000000026,"y":2548766.3100000024}},{"attributes":{"ID":338779,"DIS_CODE":0,"TOWNNAME":"安南區","LI":"理想里","LIN":"1鄰","STREET":"同安路","SECT":" ","MAREA":" ","LANE":"３６巷","ALLEY":" ","HOUSE_NO":"４５號","E_COORD97":166905.84,"N_COORD97":2548762.0800000001,"ADDRESS":"同安路３６巷４５號","OBJECTID":338770},"geometry":{"x":166905.84000000078,"y":2548762.0800000001}},{"attributes":{"ID":338780,"DIS_CODE":0,"TOWNNAME":"安南區","LI":"理想里","LIN":"1鄰","STREET":"同安路","SECT":" ","MAREA":" ","LANE":"３６巷","ALLEY":" ","HOUSE_NO":"４９號","E_COORD97":166911.44,"N_COORD97":2548755.9199999999,"ADDRESS":"同安路３６巷４９號","OBJECTID":338771},"geometry":{"x":166911.44000000041,"y":2548755.9200000018}},{"attributes":{"ID":338781,"DIS_CODE":0,"TOWNNAME":"安南區","LI":"理想里","LIN":"1鄰","STREET":"同安路","SECT":" ","MAREA":" ","LANE":"３６巷","ALLEY":" ","HOUSE_NO":"５１號","E_COORD97":166913.12,"N_COORD97":2548752,"ADDRESS":"同安路３６巷５１號","OBJECTID":338772},"geometry":{"x":166913.12000000104,"y":2548752.0000000019}},{"attributes":{"ID":338782,"DIS_CODE":0,"TOWNNAME":"安南區","LI":"理想里","LIN":"1鄰","STREET":"同安路","SECT":" ","MAREA":" ","LANE":"３６巷","ALLEY":" ","HOUSE_NO":"５３號","E_COORD97":166914.17999999999,"N_COORD97":2548746.5499999998,"ADDRESS":"同安路３６巷５３號","OBJECTID":338773},"geometry":{"x":166914.1799999997,"y":2548746.5500000007}},{"attributes":{"ID":338783,"DIS_CODE":0,"TOWNNAME":"安南區","LI":"理想里","LIN":"1鄰","STREET":"同安路","SECT":" ","MAREA":" ","LANE":"３６巷","ALLEY":" ","HOUSE_NO":"７號","E_COORD97":166870.23999999999,"N_COORD97":2548831.46,"ADDRESS":"同安路３６巷７號","OBJECTID":338774},"geometry":{"x":166870.24000000022,"y":2548831.4600000009}},{"attributes":{"ID":338784,"DIS_CODE":0,"TOWNNAME":"安南區","LI":"理想里","LIN":"1鄰","STREET":"同安路","SECT":" ","MAREA":" ","LANE":"３６巷","ALLEY":" ","HOUSE_NO":"９號","E_COORD97":166872.29999999999,"N_COORD97":2548827.7200000002,"ADDRESS":"同安路３６巷９號","OBJECTID":338775},"geometry":{"x":166872.30000000075,"y":2548827.7200000044}},{"attributes":{"ID":338785,"DIS_CODE":0,"TOWNNAME":"安南區","LI":"溪北里","LIN":"1鄰","STREET":"安和路","SECT":"一段","MAREA":" ","LANE":"１２３巷","ALLEY":" ","HOUSE_NO":"１１號","E_COORD97":169424.98999999999,"N_COORD97":2547626.48,"ADDRESS":"安和路一段１２３巷１１號","OBJECTID":338776},"geometry":{"x":169424.99000000022,"y":2547626.4800000023}},{"attributes":{"ID":338786,"DIS_CODE":0,"TOWNNAME":"安南區","LI":"州南里","LIN":"1鄰","STREET":"安和路","SECT":"四段","MAREA":" ","LANE":"３６２巷","ALLEY":" ","HOUSE_NO":"１１號","E_COORD97":169992.22,"N_COORD97":2550956.2799999998,"ADDRESS":"安和路四段３６２巷１１號","OBJECTID":338777},"geometry":{"x":169992.22000000067,"y":2550956.2800000012}},{"attributes":{"ID":338787,"DIS_CODE":0,"TOWNNAME":"安南區","LI":"州南里","LIN":"1鄰","STREET":"安和路","SECT":"四段","MAREA":" ","LANE":"３６２巷","ALLEY":" ","HOUSE_NO":"１７號","E_COORD97":169981.66,"N_COORD97":2550966.7000000002,"ADDRESS":"安和路四段３６２巷１７號","OBJECTID":338778},"geometry":{"x":169981.66000000015,"y":2550966.7000000011}},{"attributes":{"ID":338788,"DIS_CODE":0,"TOWNNAME":"安南區","LI":"州南里","LIN":"1鄰","STREET":"安和路","SECT":"四段","MAREA":" ","LANE":"３６２巷","ALLEY":" ","HOUSE_NO":"１９號","E_COORD97":169980.10999999999,"N_COORD97":2550970.8399999999,"ADDRESS":"安和路四段３６２巷１９號","OBJECTID":338779},"geometry":{"x":169980.11000000127,"y":2550970.8399999999}},{"attributes":{"ID":338789,"DIS_CODE":0,"TOWNNAME":"安南區","LI":"州南里","LIN":"1鄰","STREET":"安和路","SECT":"四段","MAREA":" ","LANE":"３６２巷","ALLEY":" ","HOUSE_NO":"２１號","E_COORD97":169980.62,"N_COORD97":2550975.1600000001,"ADDRESS":"安和路四段３６２巷２１號","OBJECTID":338780},"geometry":{"x":169980.61999999918,"y":2550975.160000002}},{"attributes":{"ID":338790,"DIS_CODE":0,"TOWNNAME":"安南區","LI":"州南里","LIN":"1鄰","STREET":"安和路","SECT":"四段","MAREA":" ","LANE":"３６２巷","ALLEY":" ","HOUSE_NO":"２３號","E_COORD97":169981.48999999999,"N_COORD97":2550980,"ADDRESS":"安和路四段３６２巷２３號","OBJECTID":338781},"geometry":{"x":169981.49000000022,"y":2550980}},{"attributes":{"ID":338791,"DIS_CODE":0,"TOWNNAME":"安南區","LI":"州南里","LIN":"1鄰","STREET":"安和路","SECT":"四段","MAREA":" ","LANE":"３６２巷","ALLEY":" ","HOUSE_NO":"２５號","E_COORD97":170005.35000000001,"N_COORD97":2550971.1899999999,"ADDRESS":"安和路四段３６２巷２５號","OBJECTID":338782},"geometry":{"x":170005.34999999963,"y":2550971.1899999995}},{"attributes":{"ID":338792,"DIS_CODE":0,"TOWNNAME":"安南區","LI":"州南里","LIN":"1鄰","STREET":"安和路","SECT":"四段","MAREA":" ","LANE":"３６２巷","ALLEY":" ","HOUSE_NO":"２７號","E_COORD97":170006.73999999999,"N_COORD97":2550955.2400000002,"ADDRESS":"安和路四段３６２巷２７號","OBJECTID":338783},"geometry":{"x":170006.74000000022,"y":2550955.2400000002}},{"attributes":{"ID":338793,"DIS_CODE":0,"TOWNNAME":"中西區","LI":"保安里","LIN":"1鄰","STREET":"西門路","SECT":"二段","MAREA":" ","LANE":"５９巷","ALLEY":" ","HOUSE_NO":"２號","E_COORD97":167766.5,"N_COORD97":2543561.98,"ADDRESS":"西門路二段５９巷２號","OBJECTID":338784},"geometry":{"x":167766.50000000093,"y":2543561.9800000023}},{"attributes":{"ID":338794,"DIS_CODE":0,"TOWNNAME":"中西區","LI":"保安里","LIN":"1鄰","STREET":"友愛街","SECT":" ","MAREA":" ","LANE":"２０１巷","ALLEY":" ","HOUSE_NO":"１１號","E_COORD97":167697.07999999999,"N_COORD97":2543574.5099999998,"ADDRESS":"友愛街２０１巷１１號","OBJECTID":338785},"geometry":{"x":167697.08000000007,"y":2543574.5100000016}},{"attributes":{"ID":338795,"DIS_CODE":0,"TOWNNAME":"中西區","LI":"保安里","LIN":"1鄰","STREET":"友愛街","SECT":" ","MAREA":" ","LANE":"２０１巷","ALLEY":" ","HOUSE_NO":"１３號","E_COORD97":167696.39000000001,"N_COORD97":2543571.0800000001,"ADDRESS":"友愛街２０１巷１３號","OBJECTID":338786},"geometry":{"x":167696.38999999966,"y":2543571.0800000019}},{"attributes":{"ID":338796,"DIS_CODE":0,"TOWNNAME":"中西區","LI":"保安里","LIN":"1鄰","STREET":"友愛街","SECT":" ","MAREA":" ","LANE":"２０１巷","ALLEY":" ","HOUSE_NO":"１號","E_COORD97":167718.59,"N_COORD97":2543598.71,"ADDRESS":"友愛街２０１巷１號","OBJECTID":338787},"geometry":{"x":167718.58999999985,"y":2543598.7100000009}},{"attributes":{"ID":338797,"DIS_CODE":0,"TOWNNAME":"中西區","LI":"保安里","LIN":"1鄰","STREET":"友愛街","SECT":" ","MAREA":" ","LANE":"２０１巷","ALLEY":" ","HOUSE_NO":"３號","E_COORD97":167715.67000000001,"N_COORD97":2543594.2400000002,"ADDRESS":"友愛街２０１巷３號","OBJECTID":338788},"geometry":{"x":167715.67000000086,"y":2543594.2400000002}},{"attributes":{"ID":338798,"DIS_CODE":0,"TOWNNAME":"中西區","LI":"郡西里","LIN":"1鄰","STREET":"永華路","SECT":"一段","MAREA":" ","LANE":"９８巷","ALLEY":" ","HOUSE_NO":"１６號","E_COORD97":167405.35999999999,"N_COORD97":2543201.8199999998,"ADDRESS":"永華路一段９８巷１６號","OBJECTID":338789},"geometry":{"x":167405.36000000034,"y":2543201.820000004}},{"attributes":{"ID":338799,"DIS_CODE":0,"TOWNNAME":"中西區","LI":"郡西里","LIN":"1鄰","STREET":"永華路","SECT":"一段","MAREA":" ","LANE":"９８巷","ALLEY":" ","HOUSE_NO":"１６號之１","E_COORD97":167405.23999999999,"N_COORD97":2543205.23,"ADDRESS":"永華路一段９８巷１６號之１","OBJECTID":338790},"geometry":{"x":167405.24000000115,"y":2543205.2300000004}},{"attributes":{"ID":338800,"DIS_CODE":0,"TOWNNAME":"中西區","LI":"郡西里","LIN":"1鄰","STREET":"永華路","SECT":"一段","MAREA":" ","LANE":"９８巷","ALLEY":" ","HOUSE_NO":"１８號","E_COORD97":167405.97,"N_COORD97":2543210.23,"ADDRESS":"永華路一段９８巷１８號","OBJECTID":338791},"geometry":{"x":167405.96999999974,"y":2543210.2300000023}},{"attributes":{"ID":338801,"DIS_CODE":0,"TOWNNAME":"中西區","LI":"郡西里","LIN":"1鄰","STREET":"永華路","SECT":"一段","MAREA":" ","LANE":"９８巷","ALLEY":" ","HOUSE_NO":"２０號","E_COORD97":167406.82000000001,"N_COORD97":2543214.2599999998,"ADDRESS":"永華路一段９８巷２０號","OBJECTID":338792},"geometry":{"x":167406.82000000123,"y":2543214.2599999998}},{"attributes":{"ID":338802,"DIS_CODE":0,"TOWNNAME":"六甲區","LI":"六甲里","LIN":"1鄰","STREET":"中華路","SECT":" ","MAREA":" ","LANE":"６９巷","ALLEY":" ","HOUSE_NO":"１號","E_COORD97":183470.88,"N_COORD97":2569333.8500000001,"ADDRESS":"中華路６９巷１號","OBJECTID":338793},"geometry":{"x":183470.88000000082,"y":2569333.8499999978}},{"attributes":{"ID":338803,"DIS_CODE":0,"TOWNNAME":"中西區","LI":"郡西里","LIN":"1鄰","STREET":"永華路","SECT":"一段","MAREA":" ","LANE":"９８巷","ALLEY":" ","HOUSE_NO":"２２號","E_COORD97":167406.82000000001,"N_COORD97":2543219.1400000001,"ADDRESS":"永華路一段９８巷２２號","OBJECTID":338794},"geometry":{"x":167406.82000000123,"y":2543219.1400000006}},{"attributes":{"ID":338804,"DIS_CODE":0,"TOWNNAME":"中西區","LI":"郡西里","LIN":"1鄰","STREET":"永華路","SECT":"一段","MAREA":" ","LANE":"９８巷","ALLEY":" ","HOUSE_NO":"２４號","E_COORD97":167407.19,"N_COORD97":2543224.02,"ADDRESS":"永華路一段９８巷２４號","OBJECTID":338795},"geometry":{"x":167407.19000000227,"y":2543224.0200000014}},{"attributes":{"ID":338805,"DIS_CODE":0,"TOWNNAME":"中西區","LI":"郡西里","LIN":"1鄰","STREET":"永華路","SECT":"一段","MAREA":" ","LANE":"９８巷","ALLEY":" ","HOUSE_NO":"２６號","E_COORD97":167407.19,"N_COORD97":2543227.6800000002,"ADDRESS":"永華路一段９８巷２６號","OBJECTID":338796},"geometry":{"x":167407.19000000227,"y":2543227.6799999997}},{"attributes":{"ID":338806,"DIS_CODE":0,"TOWNNAME":"中西區","LI":"郡西里","LIN":"1鄰","STREET":"永華路","SECT":"一段","MAREA":" ","LANE":"９８巷","ALLEY":" ","HOUSE_NO":"２８號","E_COORD97":167406.20999999999,"N_COORD97":2543231.7000000002,"ADDRESS":"永華路一段９８巷２８號","OBJECTID":338797},"geometry":{"x":167406.20999999996,"y":2543231.6999999993}},{"attributes":{"ID":338807,"DIS_CODE":0,"TOWNNAME":"中西區","LI":"郡西里","LIN":"1鄰","STREET":"永華路","SECT":"一段","MAREA":" ","LANE":"９８巷","ALLEY":" ","HOUSE_NO":"２號","E_COORD97":167404.82000000001,"N_COORD97":2543171.8999999999,"ADDRESS":"永華路一段９８巷２號","OBJECTID":338798},"geometry":{"x":167404.82000000123,"y":2543171.9000000022}},{"attributes":{"ID":338808,"DIS_CODE":0,"TOWNNAME":"中西區","LI":"郡西里","LIN":"1鄰","STREET":"永華路","SECT":"一段","MAREA":" ","LANE":"９８巷","ALLEY":" ","HOUSE_NO":"３０號","E_COORD97":167406.20999999999,"N_COORD97":2543235.73,"ADDRESS":"永華路一段９８巷３０號","OBJECTID":338799},"geometry":{"x":167406.20999999996,"y":2543235.7300000004}},{"attributes":{"ID":338809,"DIS_CODE":0,"TOWNNAME":"中西區","LI":"郡西里","LIN":"1鄰","STREET":"永華路","SECT":"一段","MAREA":" ","LANE":"９８巷","ALLEY":" ","HOUSE_NO":"３２號","E_COORD97":167405.60000000001,"N_COORD97":2543239.6299999999,"ADDRESS":"永華路一段９８巷３２號","OBJECTID":338800},"geometry":{"x":167405.60000000056,"y":2543239.6300000008}}]}