{"displayFieldName":"TOWNNAME","fieldAliases":{"ID":"ID","DIS_CODE":"DIS_CODE","TOWNNAME":"TOWNNAME","LI":"LI","LIN":"LIN","STREET":"STREET","SECT":"SECT","MAREA":"MAREA","LANE":"LANE","ALLEY":"ALLEY","HOUSE_NO":"HOUSE_NO","E_COORD97":"E_COORD97","N_COORD97":"N_COORD97","ADDRESS":"ADDRESS","OBJECTID":"OBJECTID"},"geometryType":"esriGeometryPoint","spatialReference":{"wkid":102443,"latestWkid":3826},"fields":[{"name":"ID","type":"esriFieldTypeDouble","alias":"ID"},{"name":"DIS_CODE","type":"esriFieldTypeInteger","alias":"DIS_CODE"},{"name":"TOWNNAME","type":"esriFieldTypeString","alias":"TOWNNAME","length":8},{"name":"LI","type":"esriFieldTypeString","alias":"LI","length":8},{"name":"LIN","type":"esriFieldTypeString","alias":"LIN","length":12},{"name":"STREET","type":"esriFieldTypeString","alias":"STREET","length":20},{"name":"SECT","type":"esriFieldTypeString","alias":"SECT","length":8},{"name":"MAREA","type":"esriFieldTypeString","alias":"MAREA","length":12},{"name":"LANE","type":"esriFieldTypeString","alias":"LANE","length":10},{"name":"ALLEY","type":"esriFieldTypeString","alias":"ALLEY","length":10},{"name":"HOUSE_NO","type":"esriFieldTypeString","alias":"HOUSE_NO","length":20},{"name":"E_COORD97","type":"esriFieldTypeDouble","alias":"E_COORD97"},{"name":"N_COORD97","type":"esriFieldTypeDouble","alias":"N_COORD97"},{"name":"ADDRESS","type":"esriFieldTypeString","alias":"ADDRESS","length":50},{"name":"OBJECTID","type":"esriFieldTypeOID","alias":"OBJECTID"}],"features":[{"attributes":{"ID":562228,"DIS_CODE":0,"TOWNNAME":"中西區","LI":"公正里","LIN":"9鄰","STREET":"萬昌街","SECT":" ","MAREA":" ","LANE":" ","ALLEY":" ","HOUSE_NO":"１３３號四樓之１０","E_COORD97":169068.07000000001,"N_COORD97":2543783.46,"ADDRESS":"萬昌街１３３號四樓之１０","OBJECTID":562201},"geometry":{"x":169068.07000000123,"y":2543783.4600000009}},{"attributes":{"ID":562229,"DIS_CODE":0,"TOWNNAME":"歸仁區","LI":"後市里","LIN":"22鄰","STREET":"中正北路","SECT":"一段","MAREA":" ","LANE":" ","ALLEY":" ","HOUSE_NO":"５３號","E_COORD97":177671.57000000001,"N_COORD97":2540985.25,"ADDRESS":"中正北路一段５３號","OBJECTID":562202},"geometry":{"x":177671.5700000003,"y":2540985.2500000019}},{"attributes":{"ID":562230,"DIS_CODE":0,"TOWNNAME":"仁德區","LI":"仁義里","LIN":"51鄰","STREET":"仁義三街","SECT":" ","MAREA":" ","LANE":" ","ALLEY":" ","HOUSE_NO":"２９號","E_COORD97":173400.45000000001,"N_COORD97":2541112.5099999998,"ADDRESS":"仁義三街２９號","OBJECTID":562203},"geometry":{"x":173400.45000000019,"y":2541112.5100000016}},{"attributes":{"ID":562231,"DIS_CODE":0,"TOWNNAME":"仁德區","LI":"仁義里","LIN":"32鄰","STREET":"中清二街","SECT":" ","MAREA":" ","LANE":" ","ALLEY":" ","HOUSE_NO":"３３號","E_COORD97":173558.10000000001,"N_COORD97":2541466.5499999998,"ADDRESS":"中清二街３３號","OBJECTID":562204},"geometry":{"x":173558.09999999963,"y":2541466.5500000026}},{"attributes":{"ID":562232,"DIS_CODE":0,"TOWNNAME":"中西區","LI":"公正里","LIN":"9鄰","STREET":"萬昌街","SECT":" ","MAREA":" ","LANE":" ","ALLEY":" ","HOUSE_NO":"１３３號四樓之１１","E_COORD97":169067.94,"N_COORD97":2543783.5800000001,"ADDRESS":"萬昌街１３３號四樓之１１","OBJECTID":562205},"geometry":{"x":169067.94000000041,"y":2543783.5800000019}},{"attributes":{"ID":562233,"DIS_CODE":0,"TOWNNAME":"中西區","LI":"公正里","LIN":"9鄰","STREET":"萬昌街","SECT":" ","MAREA":" ","LANE":" ","ALLEY":" ","HOUSE_NO":"１３３號四樓之１２","E_COORD97":169068.20000000001,"N_COORD97":2543783.5800000001,"ADDRESS":"萬昌街１３３號四樓之１２","OBJECTID":562206},"geometry":{"x":169068.20000000205,"y":2543783.5800000019}},{"attributes":{"ID":562234,"DIS_CODE":0,"TOWNNAME":"中西區","LI":"公正里","LIN":"9鄰","STREET":"萬昌街","SECT":" ","MAREA":" ","LANE":" ","ALLEY":" ","HOUSE_NO":"１３３號四樓之１３","E_COORD97":169068.07000000001,"N_COORD97":2543783.2000000002,"ADDRESS":"萬昌街１３３號四樓之１３","OBJECTID":562207},"geometry":{"x":169068.07000000123,"y":2543783.1999999993}},{"attributes":{"ID":562235,"DIS_CODE":0,"TOWNNAME":"中西區","LI":"公正里","LIN":"9鄰","STREET":"萬昌街","SECT":" ","MAREA":" ","LANE":" ","ALLEY":" ","HOUSE_NO":"１３３號四樓之１５","E_COORD97":169068.57999999999,"N_COORD97":2543783.2000000002,"ADDRESS":"萬昌街１３３號四樓之１５","OBJECTID":562208},"geometry":{"x":169068.58000000007,"y":2543783.1999999993}},{"attributes":{"ID":562236,"DIS_CODE":0,"TOWNNAME":"中西區","LI":"公正里","LIN":"9鄰","STREET":"萬昌街","SECT":" ","MAREA":" ","LANE":" ","ALLEY":" ","HOUSE_NO":"１３３號四樓之１６","E_COORD97":169068.32000000001,"N_COORD97":2543782.8199999998,"ADDRESS":"萬昌街１３３號四樓之１６","OBJECTID":562209},"geometry":{"x":169068.32000000123,"y":2543782.8200000022}},{"attributes":{"ID":562237,"DIS_CODE":0,"TOWNNAME":"中西區","LI":"公正里","LIN":"9鄰","STREET":"萬昌街","SECT":" ","MAREA":" ","LANE":" ","ALLEY":" ","HOUSE_NO":"１３３號四樓之１７","E_COORD97":169068.07000000001,"N_COORD97":2543783.5800000001,"ADDRESS":"萬昌街１３３號四樓之１７","OBJECTID":562210},"geometry":{"x":169068.07000000123,"y":2543783.5800000019}},{"attributes":{"ID":562238,"DIS_CODE":0,"TOWNNAME":"中西區","LI":"公正里","LIN":"9鄰","STREET":"萬昌街","SECT":" ","MAREA":" ","LANE":" ","ALLEY":" ","HOUSE_NO":"１３３號四樓之１８","E_COORD97":169068.45000000001,"N_COORD97":2543783.8399999999,"ADDRESS":"萬昌街１３３號四樓之１８","OBJECTID":562211},"geometry":{"x":169068.45000000112,"y":2543783.8399999999}},{"attributes":{"ID":562239,"DIS_CODE":0,"TOWNNAME":"中西區","LI":"公正里","LIN":"9鄰","STREET":"萬昌街","SECT":" ","MAREA":" ","LANE":" ","ALLEY":" ","HOUSE_NO":"１３３號四樓之２","E_COORD97":169067.94,"N_COORD97":2543783.3300000001,"ADDRESS":"萬昌街１３３號四樓之２","OBJECTID":562212},"geometry":{"x":169067.94000000041,"y":2543783.3300000001}},{"attributes":{"ID":562240,"DIS_CODE":0,"TOWNNAME":"中西區","LI":"公正里","LIN":"9鄰","STREET":"萬昌街","SECT":" ","MAREA":" ","LANE":" ","ALLEY":" ","HOUSE_NO":"１３３號四樓之３","E_COORD97":169068.32000000001,"N_COORD97":2543783.96,"ADDRESS":"萬昌街１３３號四樓之３","OBJECTID":562213},"geometry":{"x":169068.32000000123,"y":2543783.9600000009}},{"attributes":{"ID":562241,"DIS_CODE":0,"TOWNNAME":"中西區","LI":"公正里","LIN":"9鄰","STREET":"萬昌街","SECT":" ","MAREA":" ","LANE":" ","ALLEY":" ","HOUSE_NO":"１３３號四樓之５","E_COORD97":169067.81,"N_COORD97":2543783.46,"ADDRESS":"萬昌街１３３號四樓之５","OBJECTID":562214},"geometry":{"x":169067.80999999959,"y":2543783.4600000009}},{"attributes":{"ID":562242,"DIS_CODE":0,"TOWNNAME":"中西區","LI":"公正里","LIN":"9鄰","STREET":"萬昌街","SECT":" ","MAREA":" ","LANE":" ","ALLEY":" ","HOUSE_NO":"１３３號四樓之６","E_COORD97":169067.94,"N_COORD97":2543783.0699999998,"ADDRESS":"萬昌街１３３號四樓之６","OBJECTID":562215},"geometry":{"x":169067.94000000041,"y":2543783.0700000003}},{"attributes":{"ID":562243,"DIS_CODE":0,"TOWNNAME":"中西區","LI":"公正里","LIN":"9鄰","STREET":"萬昌街","SECT":" ","MAREA":" ","LANE":" ","ALLEY":" ","HOUSE_NO":"１３３號四樓之７","E_COORD97":169068.20000000001,"N_COORD97":2543783.3300000001,"ADDRESS":"萬昌街１３３號四樓之７","OBJECTID":562216},"geometry":{"x":169068.20000000205,"y":2543783.3300000001}},{"attributes":{"ID":562244,"DIS_CODE":0,"TOWNNAME":"中西區","LI":"公正里","LIN":"9鄰","STREET":"萬昌街","SECT":" ","MAREA":" ","LANE":" ","ALLEY":" ","HOUSE_NO":"１３３號四樓之８","E_COORD97":169068.57999999999,"N_COORD97":2543783.3300000001,"ADDRESS":"萬昌街１３３號四樓之８","OBJECTID":562217},"geometry":{"x":169068.58000000007,"y":2543783.3300000001}},{"attributes":{"ID":562245,"DIS_CODE":0,"TOWNNAME":"中西區","LI":"銀同里","LIN":"9鄰","STREET":"開山路","SECT":" ","MAREA":" ","LANE":" ","ALLEY":" ","HOUSE_NO":"５１號二樓","E_COORD97":168657.04000000001,"N_COORD97":2543465.1099999999,"ADDRESS":"開山路５１號二樓","OBJECTID":562218},"geometry":{"x":168657.04000000004,"y":2543465.1100000013}},{"attributes":{"ID":562246,"DIS_CODE":0,"TOWNNAME":"中西區","LI":"銀同里","LIN":"9鄰","STREET":"開山路","SECT":" ","MAREA":" ","LANE":" ","ALLEY":" ","HOUSE_NO":"５１號三樓之１","E_COORD97":168657.04000000001,"N_COORD97":2543465.1099999999,"ADDRESS":"開山路５１號三樓之１","OBJECTID":562219},"geometry":{"x":168657.04000000004,"y":2543465.1100000013}},{"attributes":{"ID":562247,"DIS_CODE":0,"TOWNNAME":"中西區","LI":"銀同里","LIN":"9鄰","STREET":"開山路","SECT":" ","MAREA":" ","LANE":" ","ALLEY":" ","HOUSE_NO":"５１號三樓之２","E_COORD97":168657.04000000001,"N_COORD97":2543465.1099999999,"ADDRESS":"開山路５１號三樓之２","OBJECTID":562220},"geometry":{"x":168657.04000000004,"y":2543465.1100000013}},{"attributes":{"ID":562248,"DIS_CODE":0,"TOWNNAME":"中西區","LI":"銀同里","LIN":"9鄰","STREET":"開山路","SECT":" ","MAREA":" ","LANE":" ","ALLEY":" ","HOUSE_NO":"５１號四樓之１","E_COORD97":168657.04000000001,"N_COORD97":2543465.1099999999,"ADDRESS":"開山路５１號四樓之１","OBJECTID":562221},"geometry":{"x":168657.04000000004,"y":2543465.1100000013}},{"attributes":{"ID":562249,"DIS_CODE":0,"TOWNNAME":"中西區","LI":"銀同里","LIN":"9鄰","STREET":"開山路","SECT":" ","MAREA":" ","LANE":" ","ALLEY":" ","HOUSE_NO":"５１號四樓之２","E_COORD97":168657.04000000001,"N_COORD97":2543465.1099999999,"ADDRESS":"開山路５１號四樓之２","OBJECTID":562222},"geometry":{"x":168657.04000000004,"y":2543465.1100000013}},{"attributes":{"ID":562250,"DIS_CODE":0,"TOWNNAME":"中西區","LI":"銀同里","LIN":"9鄰","STREET":"開山路","SECT":" ","MAREA":" ","LANE":" ","ALLEY":" ","HOUSE_NO":"５１號五樓之１","E_COORD97":168657.04000000001,"N_COORD97":2543465.1099999999,"ADDRESS":"開山路５１號五樓之１","OBJECTID":562223},"geometry":{"x":168657.04000000004,"y":2543465.1100000013}},{"attributes":{"ID":562251,"DIS_CODE":0,"TOWNNAME":"中西區","LI":"銀同里","LIN":"9鄰","STREET":"開山路","SECT":" ","MAREA":" ","LANE":" ","ALLEY":" ","HOUSE_NO":"５１號五樓之２","E_COORD97":168657.04000000001,"N_COORD97":2543465.1099999999,"ADDRESS":"開山路５１號五樓之２","OBJECTID":562224},"geometry":{"x":168657.04000000004,"y":2543465.1100000013}},{"attributes":{"ID":562252,"DIS_CODE":0,"TOWNNAME":"仁德區","LI":"仁德里","LIN":"3鄰","STREET":"仁中七街","SECT":" ","MAREA":" ","LANE":" ","ALLEY":" ","HOUSE_NO":"２６號","E_COORD97":173275.48999999999,"N_COORD97":2540343.2599999998,"ADDRESS":"仁中七街２６號","OBJECTID":562225},"geometry":{"x":173275.49000000209,"y":2540343.2599999998}},{"attributes":{"ID":562253,"DIS_CODE":0,"TOWNNAME":"中西區","LI":"銀同里","LIN":"9鄰","STREET":"開山路","SECT":" ","MAREA":" ","LANE":" ","ALLEY":" ","HOUSE_NO":"５１號六樓之１","E_COORD97":168657.04000000001,"N_COORD97":2543465.1099999999,"ADDRESS":"開山路５１號六樓之１","OBJECTID":562226},"geometry":{"x":168657.04000000004,"y":2543465.1100000013}},{"attributes":{"ID":562254,"DIS_CODE":0,"TOWNNAME":"中西區","LI":"銀同里","LIN":"9鄰","STREET":"開山路","SECT":" ","MAREA":" ","LANE":" ","ALLEY":" ","HOUSE_NO":"５１號六樓之２","E_COORD97":168657.04000000001,"N_COORD97":2543465.1099999999,"ADDRESS":"開山路５１號六樓之２","OBJECTID":562227},"geometry":{"x":168657.04000000004,"y":2543465.1100000013}},{"attributes":{"ID":562255,"DIS_CODE":0,"TOWNNAME":"中西區","LI":"銀同里","LIN":"9鄰","STREET":"開山路","SECT":" ","MAREA":" ","LANE":" ","ALLEY":" ","HOUSE_NO":"５１號七樓之１","E_COORD97":168657.04000000001,"N_COORD97":2543465.1099999999,"ADDRESS":"開山路５１號七樓之１","OBJECTID":562228},"geometry":{"x":168657.04000000004,"y":2543465.1100000013}},{"attributes":{"ID":562256,"DIS_CODE":0,"TOWNNAME":"中西區","LI":"銀同里","LIN":"9鄰","STREET":"開山路","SECT":" ","MAREA":" ","LANE":" ","ALLEY":" ","HOUSE_NO":"５１號七樓之２","E_COORD97":168657.04000000001,"N_COORD97":2543465.1099999999,"ADDRESS":"開山路５１號七樓之２","OBJECTID":562229},"geometry":{"x":168657.04000000004,"y":2543465.1100000013}},{"attributes":{"ID":562257,"DIS_CODE":0,"TOWNNAME":"中西區","LI":"銀同里","LIN":"9鄰","STREET":"開山路","SECT":" ","MAREA":" ","LANE":" ","ALLEY":" ","HOUSE_NO":"５１號八樓之１","E_COORD97":168657.04000000001,"N_COORD97":2543465.1099999999,"ADDRESS":"開山路５１號八樓之１","OBJECTID":562230},"geometry":{"x":168657.04000000004,"y":2543465.1100000013}},{"attributes":{"ID":562258,"DIS_CODE":0,"TOWNNAME":"中西區","LI":"銀同里","LIN":"9鄰","STREET":"開山路","SECT":" ","MAREA":" ","LANE":" ","ALLEY":" ","HOUSE_NO":"５１號八樓之２","E_COORD97":168657.04000000001,"N_COORD97":2543465.1099999999,"ADDRESS":"開山路５１號八樓之２","OBJECTID":562231},"geometry":{"x":168657.04000000004,"y":2543465.1100000013}},{"attributes":{"ID":562259,"DIS_CODE":0,"TOWNNAME":"中西區","LI":"銀同里","LIN":"9鄰","STREET":"開山路","SECT":" ","MAREA":" ","LANE":" ","ALLEY":" ","HOUSE_NO":"５１號九樓之２","E_COORD97":168657.04000000001,"N_COORD97":2543465.1099999999,"ADDRESS":"開山路５１號九樓之２","OBJECTID":562232},"geometry":{"x":168657.04000000004,"y":2543465.1100000013}},{"attributes":{"ID":562260,"DIS_CODE":0,"TOWNNAME":"中西區","LI":"銀同里","LIN":"9鄰","STREET":"開山路","SECT":" ","MAREA":" ","LANE":" ","ALLEY":" ","HOUSE_NO":"５１號九樓之１","E_COORD97":168657.04000000001,"N_COORD97":2543465.1099999999,"ADDRESS":"開山路５１號九樓之１","OBJECTID":562233},"geometry":{"x":168657.04000000004,"y":2543465.1100000013}},{"attributes":{"ID":562261,"DIS_CODE":0,"TOWNNAME":"中西區","LI":"銀同里","LIN":"9鄰","STREET":"開山路","SECT":" ","MAREA":" ","LANE":" ","ALLEY":" ","HOUSE_NO":"５１號十樓","E_COORD97":168657.04000000001,"N_COORD97":2543465.1099999999,"ADDRESS":"開山路５１號十樓","OBJECTID":562234},"geometry":{"x":168657.04000000004,"y":2543465.1100000013}},{"attributes":{"ID":562262,"DIS_CODE":0,"TOWNNAME":"中西區","LI":"銀同里","LIN":"9鄰","STREET":"開山路","SECT":" ","MAREA":" ","LANE":" ","ALLEY":" ","HOUSE_NO":"５１號十一樓","E_COORD97":168657.04000000001,"N_COORD97":2543465.1099999999,"ADDRESS":"開山路５１號十一樓","OBJECTID":562235},"geometry":{"x":168657.04000000004,"y":2543465.1100000013}},{"attributes":{"ID":562263,"DIS_CODE":0,"TOWNNAME":"中西區","LI":"藥王里","LIN":"9鄰","STREET":"民權路","SECT":"三段","MAREA":" ","LANE":" ","ALLEY":" ","HOUSE_NO":"３３８號四樓之６","E_COORD97":167006.72,"N_COORD97":2544334.6699999999,"ADDRESS":"民權路三段３３８號四樓之６","OBJECTID":562236},"geometry":{"x":167006.72000000067,"y":2544334.6699999981}},{"attributes":{"ID":562264,"DIS_CODE":0,"TOWNNAME":"中西區","LI":"藥王里","LIN":"9鄰","STREET":"民權路","SECT":"三段","MAREA":" ","LANE":" ","ALLEY":" ","HOUSE_NO":"３３６號四樓之７","E_COORD97":167012.35999999999,"N_COORD97":2544333.1000000001,"ADDRESS":"民權路三段３３６號四樓之７","OBJECTID":562237},"geometry":{"x":167012.36000000034,"y":2544333.1000000015}},{"attributes":{"ID":562265,"DIS_CODE":0,"TOWNNAME":"東區","LI":"崇成里","LIN":"9鄰","STREET":"崇德十三街","SECT":" ","MAREA":" ","LANE":" ","ALLEY":" ","HOUSE_NO":"２４號二樓","E_COORD97":170883.41,"N_COORD97":2541276.6299999999,"ADDRESS":"崇德十三街２４號二樓","OBJECTID":562238},"geometry":{"x":170883.41000000015,"y":2541276.6300000008}},{"attributes":{"ID":562266,"DIS_CODE":0,"TOWNNAME":"東區","LI":"崇成里","LIN":"9鄰","STREET":"崇德十三街","SECT":" ","MAREA":" ","LANE":" ","ALLEY":" ","HOUSE_NO":"２４號三樓","E_COORD97":170883.41,"N_COORD97":2541276.6299999999,"ADDRESS":"崇德十三街２４號三樓","OBJECTID":562239},"geometry":{"x":170883.41000000015,"y":2541276.6300000008}},{"attributes":{"ID":562267,"DIS_CODE":0,"TOWNNAME":"東區","LI":"崇成里","LIN":"9鄰","STREET":"崇德十三街","SECT":" ","MAREA":" ","LANE":" ","ALLEY":" ","HOUSE_NO":"２４號五樓","E_COORD97":170883.41,"N_COORD97":2541276.6299999999,"ADDRESS":"崇德十三街２４號五樓","OBJECTID":562240},"geometry":{"x":170883.41000000015,"y":2541276.6300000008}},{"attributes":{"ID":562268,"DIS_CODE":0,"TOWNNAME":"東區","LI":"崇成里","LIN":"9鄰","STREET":"崇德十三街","SECT":" ","MAREA":" ","LANE":" ","ALLEY":" ","HOUSE_NO":"２４號四樓","E_COORD97":170883.41,"N_COORD97":2541276.6299999999,"ADDRESS":"崇德十三街２４號四樓","OBJECTID":562241},"geometry":{"x":170883.41000000015,"y":2541276.6300000008}},{"attributes":{"ID":562269,"DIS_CODE":0,"TOWNNAME":"東區","LI":"崇文里","LIN":"9鄰","STREET":"崇德十八街","SECT":" ","MAREA":" ","LANE":" ","ALLEY":" ","HOUSE_NO":"１１３號三樓","E_COORD97":171053.89999999999,"N_COORD97":2541047.9399999999,"ADDRESS":"崇德十八街１１３號三樓","OBJECTID":562242},"geometry":{"x":171053.90000000224,"y":2541047.9400000013}},{"attributes":{"ID":562270,"DIS_CODE":0,"TOWNNAME":"東區","LI":"崇文里","LIN":"9鄰","STREET":"崇德十八街","SECT":" ","MAREA":" ","LANE":" ","ALLEY":" ","HOUSE_NO":"１１３號五樓","E_COORD97":171053.89999999999,"N_COORD97":2541047.9399999999,"ADDRESS":"崇德十八街１１３號五樓","OBJECTID":562243},"geometry":{"x":171053.90000000224,"y":2541047.9400000013}},{"attributes":{"ID":562271,"DIS_CODE":0,"TOWNNAME":"東區","LI":"崇文里","LIN":"9鄰","STREET":"崇德十八街","SECT":" ","MAREA":" ","LANE":" ","ALLEY":" ","HOUSE_NO":"１１３號六樓","E_COORD97":171053.89999999999,"N_COORD97":2541047.9399999999,"ADDRESS":"崇德十八街１１３號六樓","OBJECTID":562244},"geometry":{"x":171053.90000000224,"y":2541047.9400000013}},{"attributes":{"ID":562272,"DIS_CODE":0,"TOWNNAME":"東區","LI":"崇文里","LIN":"9鄰","STREET":"崇德十八街","SECT":" ","MAREA":" ","LANE":" ","ALLEY":" ","HOUSE_NO":"１１３號四樓","E_COORD97":171053.89999999999,"N_COORD97":2541047.9399999999,"ADDRESS":"崇德十八街１１３號四樓","OBJECTID":562245},"geometry":{"x":171053.90000000224,"y":2541047.9400000013}},{"attributes":{"ID":562273,"DIS_CODE":0,"TOWNNAME":"東區","LI":"崇文里","LIN":"9鄰","STREET":"崇德十八街","SECT":" ","MAREA":" ","LANE":" ","ALLEY":" ","HOUSE_NO":"１１９號三樓","E_COORD97":171074.20999999999,"N_COORD97":2541052.5099999998,"ADDRESS":"崇德十八街１１９號三樓","OBJECTID":562246},"geometry":{"x":171074.20999999996,"y":2541052.5099999998}},{"attributes":{"ID":562274,"DIS_CODE":0,"TOWNNAME":"東區","LI":"崇文里","LIN":"9鄰","STREET":"崇德十八街","SECT":" ","MAREA":" ","LANE":" ","ALLEY":" ","HOUSE_NO":"１１９號五樓","E_COORD97":171074.20999999999,"N_COORD97":2541052.5099999998,"ADDRESS":"崇德十八街１１９號五樓","OBJECTID":562247},"geometry":{"x":171074.20999999996,"y":2541052.5099999998}},{"attributes":{"ID":562275,"DIS_CODE":0,"TOWNNAME":"東區","LI":"崇文里","LIN":"9鄰","STREET":"崇德十八街","SECT":" ","MAREA":" ","LANE":" ","ALLEY":" ","HOUSE_NO":"１１９號六樓","E_COORD97":171074.20999999999,"N_COORD97":2541052.5099999998,"ADDRESS":"崇德十八街１１９號六樓","OBJECTID":562248},"geometry":{"x":171074.20999999996,"y":2541052.5099999998}},{"attributes":{"ID":562276,"DIS_CODE":0,"TOWNNAME":"東區","LI":"崇文里","LIN":"9鄰","STREET":"崇德十八街","SECT":" ","MAREA":" ","LANE":" ","ALLEY":" ","HOUSE_NO":"６３號","E_COORD97":170947.44,"N_COORD97":2541042.7599999998,"ADDRESS":"崇德十八街６３號","OBJECTID":562249},"geometry":{"x":170947.44000000134,"y":2541042.7600000016}},{"attributes":{"ID":562277,"DIS_CODE":0,"TOWNNAME":"佳里區","LI":"東寧里","LIN":"9鄰","STREET":"延平路","SECT":" ","MAREA":" ","LANE":" ","ALLEY":" ","HOUSE_NO":"３５１號六樓之１","E_COORD97":165841.89999999999,"N_COORD97":2562528.0899999999,"ADDRESS":"延平路３５１號六樓之１","OBJECTID":562250},"geometry":{"x":165841.9000000013,"y":2562528.0900000036}},{"attributes":{"ID":562278,"DIS_CODE":0,"TOWNNAME":"佳里區","LI":"東寧里","LIN":"9鄰","STREET":"延平路","SECT":" ","MAREA":" ","LANE":" ","ALLEY":" ","HOUSE_NO":"３５１號六樓之２","E_COORD97":165841.89999999999,"N_COORD97":2562528.0899999999,"ADDRESS":"延平路３５１號六樓之２","OBJECTID":562251},"geometry":{"x":165841.9000000013,"y":2562528.0900000036}},{"attributes":{"ID":562279,"DIS_CODE":0,"TOWNNAME":"佳里區","LI":"東寧里","LIN":"9鄰","STREET":"延平路","SECT":" ","MAREA":" ","LANE":" ","ALLEY":" ","HOUSE_NO":"３５１號六樓之３","E_COORD97":165841.89999999999,"N_COORD97":2562528.0899999999,"ADDRESS":"延平路３５１號六樓之３","OBJECTID":562252},"geometry":{"x":165841.9000000013,"y":2562528.0900000036}},{"attributes":{"ID":562280,"DIS_CODE":0,"TOWNNAME":"佳里區","LI":"東寧里","LIN":"9鄰","STREET":"延平路","SECT":" ","MAREA":" ","LANE":" ","ALLEY":" ","HOUSE_NO":"３５１號六樓之５","E_COORD97":165841.89999999999,"N_COORD97":2562528.0899999999,"ADDRESS":"延平路３５１號六樓之５","OBJECTID":562253},"geometry":{"x":165841.9000000013,"y":2562528.0900000036}},{"attributes":{"ID":562281,"DIS_CODE":0,"TOWNNAME":"佳里區","LI":"東寧里","LIN":"9鄰","STREET":"延平路","SECT":" ","MAREA":" ","LANE":" ","ALLEY":" ","HOUSE_NO":"３５１號六樓之６","E_COORD97":165841.89999999999,"N_COORD97":2562528.0899999999,"ADDRESS":"延平路３５１號六樓之６","OBJECTID":562254},"geometry":{"x":165841.9000000013,"y":2562528.0900000036}},{"attributes":{"ID":562282,"DIS_CODE":0,"TOWNNAME":"佳里區","LI":"東寧里","LIN":"9鄰","STREET":"延平路","SECT":" ","MAREA":" ","LANE":" ","ALLEY":" ","HOUSE_NO":"３５１號四樓","E_COORD97":165841.89999999999,"N_COORD97":2562528.0899999999,"ADDRESS":"延平路３５１號四樓","OBJECTID":562255},"geometry":{"x":165841.9000000013,"y":2562528.0900000036}},{"attributes":{"ID":562283,"DIS_CODE":0,"TOWNNAME":"佳里區","LI":"東寧里","LIN":"9鄰","STREET":"延平路","SECT":" ","MAREA":" ","LANE":" ","ALLEY":" ","HOUSE_NO":"３５１號七樓之１","E_COORD97":165841.89999999999,"N_COORD97":2562528.0899999999,"ADDRESS":"延平路３５１號七樓之１","OBJECTID":562256},"geometry":{"x":165841.9000000013,"y":2562528.0900000036}},{"attributes":{"ID":562284,"DIS_CODE":0,"TOWNNAME":"佳里區","LI":"東寧里","LIN":"9鄰","STREET":"延平路","SECT":" ","MAREA":" ","LANE":" ","ALLEY":" ","HOUSE_NO":"３５１號七樓之２","E_COORD97":165841.89999999999,"N_COORD97":2562528.0899999999,"ADDRESS":"延平路３５１號七樓之２","OBJECTID":562257},"geometry":{"x":165841.9000000013,"y":2562528.0900000036}},{"attributes":{"ID":562285,"DIS_CODE":0,"TOWNNAME":"仁德區","LI":"仁義里","LIN":"4鄰","STREET":"仁義三街","SECT":" ","MAREA":" ","LANE":" ","ALLEY":" ","HOUSE_NO":"１５０號","E_COORD97":173723.04000000001,"N_COORD97":2541117.0099999998,"ADDRESS":"仁義三街１５０號","OBJECTID":562258},"geometry":{"x":173723.04000000097,"y":2541117.0099999998}},{"attributes":{"ID":562286,"DIS_CODE":0,"TOWNNAME":"仁德區","LI":"仁義里","LIN":"33鄰","STREET":"正義路","SECT":" ","MAREA":" ","LANE":" ","ALLEY":" ","HOUSE_NO":"８號","E_COORD97":173361.64999999999,"N_COORD97":2541456.27,"ADDRESS":"正義路８號","OBJECTID":562259},"geometry":{"x":173361.6500000013,"y":2541456.2700000014}},{"attributes":{"ID":562287,"DIS_CODE":0,"TOWNNAME":"佳里區","LI":"東寧里","LIN":"9鄰","STREET":"延平路","SECT":" ","MAREA":" ","LANE":" ","ALLEY":" ","HOUSE_NO":"３５１號七樓之３","E_COORD97":165841.89999999999,"N_COORD97":2562528.0899999999,"ADDRESS":"延平路３５１號七樓之３","OBJECTID":562260},"geometry":{"x":165841.9000000013,"y":2562528.0900000036}},{"attributes":{"ID":562288,"DIS_CODE":0,"TOWNNAME":"佳里區","LI":"東寧里","LIN":"9鄰","STREET":"延平路","SECT":" ","MAREA":" ","LANE":" ","ALLEY":" ","HOUSE_NO":"３５１號七樓之５","E_COORD97":165841.89999999999,"N_COORD97":2562528.0899999999,"ADDRESS":"延平路３５１號七樓之５","OBJECTID":562261},"geometry":{"x":165841.9000000013,"y":2562528.0900000036}},{"attributes":{"ID":562289,"DIS_CODE":0,"TOWNNAME":"佳里區","LI":"東寧里","LIN":"9鄰","STREET":"延平路","SECT":" ","MAREA":" ","LANE":" ","ALLEY":" ","HOUSE_NO":"３５１號七樓之６","E_COORD97":165841.89999999999,"N_COORD97":2562528.0899999999,"ADDRESS":"延平路３５１號七樓之６","OBJECTID":562262},"geometry":{"x":165841.9000000013,"y":2562528.0900000036}},{"attributes":{"ID":562290,"DIS_CODE":0,"TOWNNAME":"佳里區","LI":"東寧里","LIN":"9鄰","STREET":"延平路","SECT":" ","MAREA":" ","LANE":" ","ALLEY":" ","HOUSE_NO":"３５１號九樓之１","E_COORD97":165841.89999999999,"N_COORD97":2562528.0899999999,"ADDRESS":"延平路３５１號九樓之１","OBJECTID":562263},"geometry":{"x":165841.9000000013,"y":2562528.0900000036}},{"attributes":{"ID":562291,"DIS_CODE":0,"TOWNNAME":"佳里區","LI":"東寧里","LIN":"9鄰","STREET":"延平路","SECT":" ","MAREA":" ","LANE":" ","ALLEY":" ","HOUSE_NO":"３５１號九樓之２","E_COORD97":165841.89999999999,"N_COORD97":2562528.0899999999,"ADDRESS":"延平路３５１號九樓之２","OBJECTID":562264},"geometry":{"x":165841.9000000013,"y":2562528.0900000036}},{"attributes":{"ID":562292,"DIS_CODE":0,"TOWNNAME":"佳里區","LI":"東寧里","LIN":"9鄰","STREET":"延平路","SECT":" ","MAREA":" ","LANE":" ","ALLEY":" ","HOUSE_NO":"３５１號九樓之３","E_COORD97":165841.89999999999,"N_COORD97":2562528.0899999999,"ADDRESS":"延平路３５１號九樓之３","OBJECTID":562265},"geometry":{"x":165841.9000000013,"y":2562528.0900000036}},{"attributes":{"ID":562293,"DIS_CODE":0,"TOWNNAME":"佳里區","LI":"東寧里","LIN":"9鄰","STREET":"延平路","SECT":" ","MAREA":" ","LANE":" ","ALLEY":" ","HOUSE_NO":"３５１號九樓之５","E_COORD97":165841.89999999999,"N_COORD97":2562528.0899999999,"ADDRESS":"延平路３５１號九樓之５","OBJECTID":562266},"geometry":{"x":165841.9000000013,"y":2562528.0900000036}},{"attributes":{"ID":562294,"DIS_CODE":0,"TOWNNAME":"佳里區","LI":"東寧里","LIN":"9鄰","STREET":"延平路","SECT":" ","MAREA":" ","LANE":" ","ALLEY":" ","HOUSE_NO":"３５１號九樓之６","E_COORD97":165841.89999999999,"N_COORD97":2562528.0899999999,"ADDRESS":"延平路３５１號九樓之６","OBJECTID":562267},"geometry":{"x":165841.9000000013,"y":2562528.0900000036}},{"attributes":{"ID":562295,"DIS_CODE":0,"TOWNNAME":"佳里區","LI":"東寧里","LIN":"9鄰","STREET":"延平路","SECT":" ","MAREA":" ","LANE":" ","ALLEY":" ","HOUSE_NO":"３５１號二樓","E_COORD97":165841.89999999999,"N_COORD97":2562528.0899999999,"ADDRESS":"延平路３５１號二樓","OBJECTID":562268},"geometry":{"x":165841.9000000013,"y":2562528.0900000036}},{"attributes":{"ID":562296,"DIS_CODE":0,"TOWNNAME":"佳里區","LI":"東寧里","LIN":"9鄰","STREET":"延平路","SECT":" ","MAREA":" ","LANE":" ","ALLEY":" ","HOUSE_NO":"３５１號八樓之１","E_COORD97":165841.89999999999,"N_COORD97":2562528.0899999999,"ADDRESS":"延平路３５１號八樓之１","OBJECTID":562269},"geometry":{"x":165841.9000000013,"y":2562528.0900000036}},{"attributes":{"ID":562297,"DIS_CODE":0,"TOWNNAME":"佳里區","LI":"東寧里","LIN":"9鄰","STREET":"延平路","SECT":" ","MAREA":" ","LANE":" ","ALLEY":" ","HOUSE_NO":"３５１號八樓之２","E_COORD97":165841.89999999999,"N_COORD97":2562528.0899999999,"ADDRESS":"延平路３５１號八樓之２","OBJECTID":562270},"geometry":{"x":165841.9000000013,"y":2562528.0900000036}},{"attributes":{"ID":562298,"DIS_CODE":0,"TOWNNAME":"佳里區","LI":"東寧里","LIN":"9鄰","STREET":"延平路","SECT":" ","MAREA":" ","LANE":" ","ALLEY":" ","HOUSE_NO":"３５１號八樓之３","E_COORD97":165841.89999999999,"N_COORD97":2562528.0899999999,"ADDRESS":"延平路３５１號八樓之３","OBJECTID":562271},"geometry":{"x":165841.9000000013,"y":2562528.0900000036}},{"attributes":{"ID":562299,"DIS_CODE":0,"TOWNNAME":"佳里區","LI":"東寧里","LIN":"9鄰","STREET":"延平路","SECT":" ","MAREA":" ","LANE":" ","ALLEY":" ","HOUSE_NO":"３５１號八樓之５","E_COORD97":165841.89999999999,"N_COORD97":2562528.0899999999,"ADDRESS":"延平路３５１號八樓之５","OBJECTID":562272},"geometry":{"x":165841.9000000013,"y":2562528.0900000036}},{"attributes":{"ID":562300,"DIS_CODE":0,"TOWNNAME":"佳里區","LI":"東寧里","LIN":"9鄰","STREET":"延平路","SECT":" ","MAREA":" ","LANE":" ","ALLEY":" ","HOUSE_NO":"３５１號八樓之６","E_COORD97":165841.89999999999,"N_COORD97":2562528.0899999999,"ADDRESS":"延平路３５１號八樓之６","OBJECTID":562273},"geometry":{"x":165841.9000000013,"y":2562528.0900000036}},{"attributes":{"ID":562301,"DIS_CODE":0,"TOWNNAME":"佳里區","LI":"東寧里","LIN":"9鄰","STREET":"延平路","SECT":" ","MAREA":" ","LANE":" ","ALLEY":" ","HOUSE_NO":"３５１號十一樓之１","E_COORD97":165841.89999999999,"N_COORD97":2562528.0899999999,"ADDRESS":"延平路３５１號十一樓之１","OBJECTID":562274},"geometry":{"x":165841.9000000013,"y":2562528.0900000036}},{"attributes":{"ID":562302,"DIS_CODE":0,"TOWNNAME":"佳里區","LI":"東寧里","LIN":"9鄰","STREET":"延平路","SECT":" ","MAREA":" ","LANE":" ","ALLEY":" ","HOUSE_NO":"３５１號十一樓之２","E_COORD97":165841.89999999999,"N_COORD97":2562528.0899999999,"ADDRESS":"延平路３５１號十一樓之２","OBJECTID":562275},"geometry":{"x":165841.9000000013,"y":2562528.0900000036}},{"attributes":{"ID":562303,"DIS_CODE":0,"TOWNNAME":"佳里區","LI":"東寧里","LIN":"9鄰","STREET":"延平路","SECT":" ","MAREA":" ","LANE":" ","ALLEY":" ","HOUSE_NO":"３５１號十一樓之３","E_COORD97":165841.89999999999,"N_COORD97":2562528.0899999999,"ADDRESS":"延平路３５１號十一樓之３","OBJECTID":562276},"geometry":{"x":165841.9000000013,"y":2562528.0900000036}},{"attributes":{"ID":562304,"DIS_CODE":0,"TOWNNAME":"佳里區","LI":"東寧里","LIN":"9鄰","STREET":"延平路","SECT":" ","MAREA":" ","LANE":" ","ALLEY":" ","HOUSE_NO":"３５１號十一樓之５","E_COORD97":165841.89999999999,"N_COORD97":2562528.0899999999,"ADDRESS":"延平路３５１號十一樓之５","OBJECTID":562277},"geometry":{"x":165841.9000000013,"y":2562528.0900000036}},{"attributes":{"ID":562305,"DIS_CODE":0,"TOWNNAME":"佳里區","LI":"東寧里","LIN":"9鄰","STREET":"延平路","SECT":" ","MAREA":" ","LANE":" ","ALLEY":" ","HOUSE_NO":"３５１號十一樓之６","E_COORD97":165841.89999999999,"N_COORD97":2562528.0899999999,"ADDRESS":"延平路３５１號十一樓之６","OBJECTID":562278},"geometry":{"x":165841.9000000013,"y":2562528.0900000036}},{"attributes":{"ID":562306,"DIS_CODE":0,"TOWNNAME":"佳里區","LI":"東寧里","LIN":"9鄰","STREET":"延平路","SECT":" ","MAREA":" ","LANE":" ","ALLEY":" ","HOUSE_NO":"３５１號十二樓","E_COORD97":165841.89999999999,"N_COORD97":2562528.0899999999,"ADDRESS":"延平路３５１號十二樓","OBJECTID":562279},"geometry":{"x":165841.9000000013,"y":2562528.0900000036}},{"attributes":{"ID":562307,"DIS_CODE":0,"TOWNNAME":"佳里區","LI":"東寧里","LIN":"9鄰","STREET":"延平路","SECT":" ","MAREA":" ","LANE":" ","ALLEY":" ","HOUSE_NO":"３５１號十樓之１","E_COORD97":165841.89999999999,"N_COORD97":2562528.0899999999,"ADDRESS":"延平路３５１號十樓之１","OBJECTID":562280},"geometry":{"x":165841.9000000013,"y":2562528.0900000036}},{"attributes":{"ID":562308,"DIS_CODE":0,"TOWNNAME":"佳里區","LI":"東寧里","LIN":"9鄰","STREET":"延平路","SECT":" ","MAREA":" ","LANE":" ","ALLEY":" ","HOUSE_NO":"３５１號十樓之２","E_COORD97":165841.89999999999,"N_COORD97":2562528.0899999999,"ADDRESS":"延平路３５１號十樓之２","OBJECTID":562281},"geometry":{"x":165841.9000000013,"y":2562528.0900000036}},{"attributes":{"ID":562309,"DIS_CODE":0,"TOWNNAME":"佳里區","LI":"東寧里","LIN":"9鄰","STREET":"延平路","SECT":" ","MAREA":" ","LANE":" ","ALLEY":" ","HOUSE_NO":"３５１號十樓之３","E_COORD97":165841.89999999999,"N_COORD97":2562528.0899999999,"ADDRESS":"延平路３５１號十樓之３","OBJECTID":562282},"geometry":{"x":165841.9000000013,"y":2562528.0900000036}},{"attributes":{"ID":562310,"DIS_CODE":0,"TOWNNAME":"佳里區","LI":"東寧里","LIN":"9鄰","STREET":"延平路","SECT":" ","MAREA":" ","LANE":" ","ALLEY":" ","HOUSE_NO":"３５１號十樓之５","E_COORD97":165841.89999999999,"N_COORD97":2562528.0899999999,"ADDRESS":"延平路３５１號十樓之５","OBJECTID":562283},"geometry":{"x":165841.9000000013,"y":2562528.0900000036}},{"attributes":{"ID":562311,"DIS_CODE":0,"TOWNNAME":"佳里區","LI":"東寧里","LIN":"9鄰","STREET":"延平路","SECT":" ","MAREA":" ","LANE":" ","ALLEY":" ","HOUSE_NO":"３５１號十樓之６","E_COORD97":165841.89999999999,"N_COORD97":2562528.0899999999,"ADDRESS":"延平路３５１號十樓之６","OBJECTID":562284},"geometry":{"x":165841.9000000013,"y":2562528.0900000036}},{"attributes":{"ID":562312,"DIS_CODE":0,"TOWNNAME":"柳營區","LI":"東昇里","LIN":"2鄰","STREET":"東昇八街","SECT":" ","MAREA":" ","LANE":" ","ALLEY":" ","HOUSE_NO":"２號","E_COORD97":179875.92999999999,"N_COORD97":2575350.2000000002,"ADDRESS":"東昇八街２號","OBJECTID":562285},"geometry":{"x":179875.9299999997,"y":2575350.2000000011}},{"attributes":{"ID":562313,"DIS_CODE":0,"TOWNNAME":"佳里區","LI":"東寧里","LIN":"9鄰","STREET":"延平路","SECT":" ","MAREA":" ","LANE":" ","ALLEY":" ","HOUSE_NO":"３５１號三樓","E_COORD97":165841.89999999999,"N_COORD97":2562528.0899999999,"ADDRESS":"延平路３５１號三樓","OBJECTID":562286},"geometry":{"x":165841.9000000013,"y":2562528.0900000036}},{"attributes":{"ID":562314,"DIS_CODE":0,"TOWNNAME":"仁德區","LI":"仁德里","LIN":"9鄰","STREET":"中正路","SECT":"二段","MAREA":" ","LANE":" ","ALLEY":" ","HOUSE_NO":"１１８９號","E_COORD97":173291.66,"N_COORD97":2541141.6600000001,"ADDRESS":"中正路二段１１８９號","OBJECTID":562287},"geometry":{"x":173291.66000000108,"y":2541141.6600000039}},{"attributes":{"ID":562315,"DIS_CODE":0,"TOWNNAME":"佳里區","LI":"東寧里","LIN":"9鄰","STREET":"延平路","SECT":" ","MAREA":" ","LANE":" ","ALLEY":" ","HOUSE_NO":"３５１號五樓","E_COORD97":165841.89999999999,"N_COORD97":2562528.0899999999,"ADDRESS":"延平路３５１號五樓","OBJECTID":562288},"geometry":{"x":165841.9000000013,"y":2562528.0900000036}},{"attributes":{"ID":562316,"DIS_CODE":0,"TOWNNAME":"仁德區","LI":"仁義里","LIN":"9鄰","STREET":"仁義一街","SECT":" ","MAREA":" ","LANE":" ","ALLEY":" ","HOUSE_NO":"１４２號","E_COORD97":173631.92000000001,"N_COORD97":2541176.7599999998,"ADDRESS":"仁義一街１４２號","OBJECTID":562289},"geometry":{"x":173631.92000000086,"y":2541176.7599999998}},{"attributes":{"ID":562317,"DIS_CODE":0,"TOWNNAME":"仁德區","LI":"仁德里","LIN":"35鄰","STREET":"裕華三街","SECT":" ","MAREA":" ","LANE":" ","ALLEY":" ","HOUSE_NO":"２６８號","E_COORD97":172726.87,"N_COORD97":2541737.2400000002,"ADDRESS":"裕華三街２６８號","OBJECTID":562290},"geometry":{"x":172726.87000000197,"y":2541737.2400000002}},{"attributes":{"ID":562318,"DIS_CODE":0,"TOWNNAME":"北區","LI":"三德里","LIN":"9鄰","STREET":"北華街","SECT":" ","MAREA":" ","LANE":" ","ALLEY":" ","HOUSE_NO":"１８０號二樓之６","E_COORD97":168472.23999999999,"N_COORD97":2544615.7599999998,"ADDRESS":"北華街１８０號二樓之６","OBJECTID":562291},"geometry":{"x":168472.24000000022,"y":2544615.7600000035}},{"attributes":{"ID":562319,"DIS_CODE":0,"TOWNNAME":"北區","LI":"三德里","LIN":"9鄰","STREET":"長北街","SECT":" ","MAREA":" ","LANE":" ","ALLEY":" ","HOUSE_NO":"７０號二樓","E_COORD97":168431.20999999999,"N_COORD97":2544658.6699999999,"ADDRESS":"長北街７０號二樓","OBJECTID":562292},"geometry":{"x":168431.21000000089,"y":2544658.6700000018}},{"attributes":{"ID":562320,"DIS_CODE":0,"TOWNNAME":"北區","LI":"三德里","LIN":"9鄰","STREET":"長北街","SECT":" ","MAREA":" ","LANE":" ","ALLEY":" ","HOUSE_NO":"７０號三樓","E_COORD97":168431.20999999999,"N_COORD97":2544658.6699999999,"ADDRESS":"長北街７０號三樓","OBJECTID":562293},"geometry":{"x":168431.21000000089,"y":2544658.6700000018}},{"attributes":{"ID":562321,"DIS_CODE":0,"TOWNNAME":"北區","LI":"三德里","LIN":"9鄰","STREET":"長北街","SECT":" ","MAREA":" ","LANE":" ","ALLEY":" ","HOUSE_NO":"７０號五樓","E_COORD97":168431.20999999999,"N_COORD97":2544658.6699999999,"ADDRESS":"長北街７０號五樓","OBJECTID":562294},"geometry":{"x":168431.21000000089,"y":2544658.6700000018}},{"attributes":{"ID":562322,"DIS_CODE":0,"TOWNNAME":"北區","LI":"三德里","LIN":"9鄰","STREET":"長北街","SECT":" ","MAREA":" ","LANE":" ","ALLEY":" ","HOUSE_NO":"７０號四樓","E_COORD97":168431.20999999999,"N_COORD97":2544658.6699999999,"ADDRESS":"長北街７０號四樓","OBJECTID":562295},"geometry":{"x":168431.21000000089,"y":2544658.6700000018}},{"attributes":{"ID":562323,"DIS_CODE":0,"TOWNNAME":"北區","LI":"三德里","LIN":"9鄰","STREET":"長北街","SECT":" ","MAREA":" ","LANE":" ","ALLEY":" ","HOUSE_NO":"９８號二樓","E_COORD97":168450.42000000001,"N_COORD97":2544717.75,"ADDRESS":"長北街９８號二樓","OBJECTID":562296},"geometry":{"x":168450.41999999993,"y":2544717.7500000037}},{"attributes":{"ID":562324,"DIS_CODE":0,"TOWNNAME":"北區","LI":"三德里","LIN":"9鄰","STREET":"長北街","SECT":" ","MAREA":" ","LANE":" ","ALLEY":" ","HOUSE_NO":"９８號五樓","E_COORD97":168450.42000000001,"N_COORD97":2544717.75,"ADDRESS":"長北街９８號五樓","OBJECTID":562297},"geometry":{"x":168450.41999999993,"y":2544717.7500000037}},{"attributes":{"ID":562325,"DIS_CODE":0,"TOWNNAME":"北區","LI":"三德里","LIN":"9鄰","STREET":"長北街","SECT":" ","MAREA":" ","LANE":" ","ALLEY":" ","HOUSE_NO":"９８號四樓","E_COORD97":168450.42000000001,"N_COORD97":2544717.75,"ADDRESS":"長北街９８號四樓","OBJECTID":562298},"geometry":{"x":168450.41999999993,"y":2544717.7500000037}},{"attributes":{"ID":562326,"DIS_CODE":0,"TOWNNAME":"北區","LI":"三德里","LIN":"9鄰","STREET":"北華街","SECT":" ","MAREA":" ","LANE":" ","ALLEY":" ","HOUSE_NO":"１８０號二樓之１","E_COORD97":168472.23999999999,"N_COORD97":2544615.7599999998,"ADDRESS":"北華街１８０號二樓之１","OBJECTID":562299},"geometry":{"x":168472.24000000022,"y":2544615.7600000035}},{"attributes":{"ID":562327,"DIS_CODE":0,"TOWNNAME":"北區","LI":"三德里","LIN":"9鄰","STREET":"北華街","SECT":" ","MAREA":" ","LANE":" ","ALLEY":" ","HOUSE_NO":"１８０號二樓之２","E_COORD97":168472.23999999999,"N_COORD97":2544615.7599999998,"ADDRESS":"北華街１８０號二樓之２","OBJECTID":562300},"geometry":{"x":168472.24000000022,"y":2544615.7600000035}},{"attributes":{"ID":562328,"DIS_CODE":0,"TOWNNAME":"北區","LI":"三德里","LIN":"9鄰","STREET":"北華街","SECT":" ","MAREA":" ","LANE":" ","ALLEY":" ","HOUSE_NO":"１８０號二樓之３","E_COORD97":168472.23999999999,"N_COORD97":2544615.7599999998,"ADDRESS":"北華街１８０號二樓之３","OBJECTID":562301},"geometry":{"x":168472.24000000022,"y":2544615.7600000035}},{"attributes":{"ID":562329,"DIS_CODE":0,"TOWNNAME":"仁德區","LI":"仁德里","LIN":"39鄰","STREET":"文山路","SECT":" ","MAREA":" ","LANE":" ","ALLEY":" ","HOUSE_NO":"２９１號","E_COORD97":172623.92000000001,"N_COORD97":2541795.3199999998,"ADDRESS":"文山路２９１號","OBJECTID":562302},"geometry":{"x":172623.91999999993,"y":2541795.3200000022}},{"attributes":{"ID":562330,"DIS_CODE":0,"TOWNNAME":"仁德區","LI":"仁德里","LIN":"39鄰","STREET":"文宏二街","SECT":" ","MAREA":" ","LANE":" ","ALLEY":" ","HOUSE_NO":"７８號","E_COORD97":172477.32000000001,"N_COORD97":2541743.5800000001,"ADDRESS":"文宏二街７８號","OBJECTID":562303},"geometry":{"x":172477.32000000123,"y":2541743.5800000019}},{"attributes":{"ID":562331,"DIS_CODE":0,"TOWNNAME":"仁德區","LI":"仁義里","LIN":"44鄰","STREET":"中正路","SECT":"二段","MAREA":" ","LANE":" ","ALLEY":" ","HOUSE_NO":"１０４８號","E_COORD97":173393.51000000001,"N_COORD97":2540923.2799999998,"ADDRESS":"中正路二段１０４８號","OBJECTID":562304},"geometry":{"x":173393.51000000164,"y":2540923.2800000012}},{"attributes":{"ID":562332,"DIS_CODE":0,"TOWNNAME":"北區","LI":"三德里","LIN":"9鄰","STREET":"北華街","SECT":" ","MAREA":" ","LANE":" ","ALLEY":" ","HOUSE_NO":"１８０號二樓之５","E_COORD97":168472.23999999999,"N_COORD97":2544615.7599999998,"ADDRESS":"北華街１８０號二樓之５","OBJECTID":562305},"geometry":{"x":168472.24000000022,"y":2544615.7600000035}},{"attributes":{"ID":562333,"DIS_CODE":0,"TOWNNAME":"北區","LI":"三德里","LIN":"9鄰","STREET":"北華街","SECT":" ","MAREA":" ","LANE":" ","ALLEY":" ","HOUSE_NO":"１８０號二樓之７","E_COORD97":168472.23999999999,"N_COORD97":2544615.7599999998,"ADDRESS":"北華街１８０號二樓之７","OBJECTID":562306},"geometry":{"x":168472.24000000022,"y":2544615.7600000035}},{"attributes":{"ID":562334,"DIS_CODE":0,"TOWNNAME":"北區","LI":"三德里","LIN":"9鄰","STREET":"北華街","SECT":" ","MAREA":" ","LANE":" ","ALLEY":" ","HOUSE_NO":"１８０號二樓之８","E_COORD97":168472.23999999999,"N_COORD97":2544615.7599999998,"ADDRESS":"北華街１８０號二樓之８","OBJECTID":562307},"geometry":{"x":168472.24000000022,"y":2544615.7600000035}},{"attributes":{"ID":562335,"DIS_CODE":0,"TOWNNAME":"北區","LI":"三德里","LIN":"9鄰","STREET":"北華街","SECT":" ","MAREA":" ","LANE":" ","ALLEY":" ","HOUSE_NO":"１８０號二樓之９","E_COORD97":168472.23999999999,"N_COORD97":2544615.7599999998,"ADDRESS":"北華街１８０號二樓之９","OBJECTID":562308},"geometry":{"x":168472.24000000022,"y":2544615.7600000035}},{"attributes":{"ID":562336,"DIS_CODE":0,"TOWNNAME":"北區","LI":"三德里","LIN":"9鄰","STREET":"北華街","SECT":" ","MAREA":" ","LANE":" ","ALLEY":" ","HOUSE_NO":"１８０號三樓之１","E_COORD97":168472.23999999999,"N_COORD97":2544615.7599999998,"ADDRESS":"北華街１８０號三樓之１","OBJECTID":562309},"geometry":{"x":168472.24000000022,"y":2544615.7600000035}},{"attributes":{"ID":562337,"DIS_CODE":0,"TOWNNAME":"北區","LI":"三德里","LIN":"9鄰","STREET":"北華街","SECT":" ","MAREA":" ","LANE":" ","ALLEY":" ","HOUSE_NO":"１８０號三樓之２","E_COORD97":168472.23999999999,"N_COORD97":2544615.7599999998,"ADDRESS":"北華街１８０號三樓之２","OBJECTID":562310},"geometry":{"x":168472.24000000022,"y":2544615.7600000035}},{"attributes":{"ID":562338,"DIS_CODE":0,"TOWNNAME":"北區","LI":"三德里","LIN":"9鄰","STREET":"北華街","SECT":" ","MAREA":" ","LANE":" ","ALLEY":" ","HOUSE_NO":"１８０號三樓之３","E_COORD97":168472.23999999999,"N_COORD97":2544615.7599999998,"ADDRESS":"北華街１８０號三樓之３","OBJECTID":562311},"geometry":{"x":168472.24000000022,"y":2544615.7600000035}},{"attributes":{"ID":562339,"DIS_CODE":0,"TOWNNAME":"北區","LI":"三德里","LIN":"9鄰","STREET":"北華街","SECT":" ","MAREA":" ","LANE":" ","ALLEY":" ","HOUSE_NO":"１８０號三樓之５","E_COORD97":168472.23999999999,"N_COORD97":2544615.7599999998,"ADDRESS":"北華街１８０號三樓之５","OBJECTID":562312},"geometry":{"x":168472.24000000022,"y":2544615.7600000035}},{"attributes":{"ID":562340,"DIS_CODE":0,"TOWNNAME":"北區","LI":"三德里","LIN":"9鄰","STREET":"北華街","SECT":" ","MAREA":" ","LANE":" ","ALLEY":" ","HOUSE_NO":"１８０號三樓之６","E_COORD97":168472.23999999999,"N_COORD97":2544615.7599999998,"ADDRESS":"北華街１８０號三樓之６","OBJECTID":562313},"geometry":{"x":168472.24000000022,"y":2544615.7600000035}},{"attributes":{"ID":562341,"DIS_CODE":0,"TOWNNAME":"北區","LI":"三德里","LIN":"9鄰","STREET":"北華街","SECT":" ","MAREA":" ","LANE":" ","ALLEY":" ","HOUSE_NO":"１８０號三樓之７","E_COORD97":168472.23999999999,"N_COORD97":2544615.7599999998,"ADDRESS":"北華街１８０號三樓之７","OBJECTID":562314},"geometry":{"x":168472.24000000022,"y":2544615.7600000035}},{"attributes":{"ID":562342,"DIS_CODE":0,"TOWNNAME":"北區","LI":"三德里","LIN":"9鄰","STREET":"北華街","SECT":" ","MAREA":" ","LANE":" ","ALLEY":" ","HOUSE_NO":"１８０號三樓之８","E_COORD97":168472.23999999999,"N_COORD97":2544615.7599999998,"ADDRESS":"北華街１８０號三樓之８","OBJECTID":562315},"geometry":{"x":168472.24000000022,"y":2544615.7600000035}},{"attributes":{"ID":562343,"DIS_CODE":0,"TOWNNAME":"北區","LI":"三德里","LIN":"9鄰","STREET":"北華街","SECT":" ","MAREA":" ","LANE":" ","ALLEY":" ","HOUSE_NO":"１８０號三樓之９","E_COORD97":168472.23999999999,"N_COORD97":2544615.7599999998,"ADDRESS":"北華街１８０號三樓之９","OBJECTID":562316},"geometry":{"x":168472.24000000022,"y":2544615.7600000035}},{"attributes":{"ID":562344,"DIS_CODE":0,"TOWNNAME":"北區","LI":"三德里","LIN":"9鄰","STREET":"北華街","SECT":" ","MAREA":" ","LANE":" ","ALLEY":" ","HOUSE_NO":"１８０號五樓之１","E_COORD97":168472.23999999999,"N_COORD97":2544615.7599999998,"ADDRESS":"北華街１８０號五樓之１","OBJECTID":562317},"geometry":{"x":168472.24000000022,"y":2544615.7600000035}},{"attributes":{"ID":562345,"DIS_CODE":0,"TOWNNAME":"下營區","LI":"仁里里","LIN":"9鄰","STREET":"公園路","SECT":" ","MAREA":" ","LANE":" ","ALLEY":" ","HOUSE_NO":"１７１號","E_COORD97":173505.34,"N_COORD97":2570254.7599999998,"ADDRESS":"公園路１７１號","OBJECTID":562318},"geometry":{"x":173505.34000000078,"y":2570254.7600000016}},{"attributes":{"ID":562346,"DIS_CODE":0,"TOWNNAME":"北區","LI":"三德里","LIN":"9鄰","STREET":"北華街","SECT":" ","MAREA":" ","LANE":" ","ALLEY":" ","HOUSE_NO":"１８０號五樓之２","E_COORD97":168472.23999999999,"N_COORD97":2544615.7599999998,"ADDRESS":"北華街１８０號五樓之２","OBJECTID":562319},"geometry":{"x":168472.24000000022,"y":2544615.7600000035}},{"attributes":{"ID":562347,"DIS_CODE":0,"TOWNNAME":"北區","LI":"三德里","LIN":"9鄰","STREET":"北華街","SECT":" ","MAREA":" ","LANE":" ","ALLEY":" ","HOUSE_NO":"１８０號五樓之３","E_COORD97":168472.23999999999,"N_COORD97":2544615.7599999998,"ADDRESS":"北華街１８０號五樓之３","OBJECTID":562320},"geometry":{"x":168472.24000000022,"y":2544615.7600000035}},{"attributes":{"ID":562348,"DIS_CODE":0,"TOWNNAME":"北區","LI":"三德里","LIN":"9鄰","STREET":"北華街","SECT":" ","MAREA":" ","LANE":" ","ALLEY":" ","HOUSE_NO":"１８０號五樓之５","E_COORD97":168472.23999999999,"N_COORD97":2544615.7599999998,"ADDRESS":"北華街１８０號五樓之５","OBJECTID":562321},"geometry":{"x":168472.24000000022,"y":2544615.7600000035}},{"attributes":{"ID":562349,"DIS_CODE":0,"TOWNNAME":"北區","LI":"三德里","LIN":"9鄰","STREET":"北華街","SECT":" ","MAREA":" ","LANE":" ","ALLEY":" ","HOUSE_NO":"１８０號五樓之６","E_COORD97":168472.23999999999,"N_COORD97":2544615.7599999998,"ADDRESS":"北華街１８０號五樓之６","OBJECTID":562322},"geometry":{"x":168472.24000000022,"y":2544615.7600000035}},{"attributes":{"ID":562350,"DIS_CODE":0,"TOWNNAME":"北區","LI":"三德里","LIN":"9鄰","STREET":"北華街","SECT":" ","MAREA":" ","LANE":" ","ALLEY":" ","HOUSE_NO":"１８０號五樓之７","E_COORD97":168472.23999999999,"N_COORD97":2544615.7599999998,"ADDRESS":"北華街１８０號五樓之７","OBJECTID":562323},"geometry":{"x":168472.24000000022,"y":2544615.7600000035}},{"attributes":{"ID":562351,"DIS_CODE":0,"TOWNNAME":"北區","LI":"三德里","LIN":"9鄰","STREET":"北華街","SECT":" ","MAREA":" ","LANE":" ","ALLEY":" ","HOUSE_NO":"１８０號五樓之８","E_COORD97":168472.23999999999,"N_COORD97":2544615.7599999998,"ADDRESS":"北華街１８０號五樓之８","OBJECTID":562324},"geometry":{"x":168472.24000000022,"y":2544615.7600000035}},{"attributes":{"ID":562352,"DIS_CODE":0,"TOWNNAME":"北區","LI":"三德里","LIN":"9鄰","STREET":"北華街","SECT":" ","MAREA":" ","LANE":" ","ALLEY":" ","HOUSE_NO":"１８０號五樓之９","E_COORD97":168472.23999999999,"N_COORD97":2544615.7599999998,"ADDRESS":"北華街１８０號五樓之９","OBJECTID":562325},"geometry":{"x":168472.24000000022,"y":2544615.7600000035}},{"attributes":{"ID":562353,"DIS_CODE":0,"TOWNNAME":"北區","LI":"三德里","LIN":"9鄰","STREET":"北華街","SECT":" ","MAREA":" ","LANE":" ","ALLEY":" ","HOUSE_NO":"１８０號六樓之１","E_COORD97":168472.23999999999,"N_COORD97":2544615.7599999998,"ADDRESS":"北華街１８０號六樓之１","OBJECTID":562326},"geometry":{"x":168472.24000000022,"y":2544615.7600000035}},{"attributes":{"ID":562354,"DIS_CODE":0,"TOWNNAME":"北區","LI":"三德里","LIN":"9鄰","STREET":"北華街","SECT":" ","MAREA":" ","LANE":" ","ALLEY":" ","HOUSE_NO":"１８０號六樓之２","E_COORD97":168472.23999999999,"N_COORD97":2544615.7599999998,"ADDRESS":"北華街１８０號六樓之２","OBJECTID":562327},"geometry":{"x":168472.24000000022,"y":2544615.7600000035}},{"attributes":{"ID":562355,"DIS_CODE":0,"TOWNNAME":"仁德區","LI":"仁德里","LIN":"22鄰","STREET":"文南街","SECT":" ","MAREA":" ","LANE":" ","ALLEY":" ","HOUSE_NO":"３８號","E_COORD97":172327.87,"N_COORD97":2541203.0699999998,"ADDRESS":"文南街３８號","OBJECTID":562328},"geometry":{"x":172327.87000000011,"y":2541203.0699999984}},{"attributes":{"ID":562356,"DIS_CODE":0,"TOWNNAME":"仁德區","LI":"仁德里","LIN":"3鄰","STREET":"仁中三街","SECT":" ","MAREA":" ","LANE":" ","ALLEY":" ","HOUSE_NO":"４９號","E_COORD97":173330.10999999999,"N_COORD97":2540410.75,"ADDRESS":"仁中三街４９號","OBJECTID":562329},"geometry":{"x":173330.11000000034,"y":2540410.75}},{"attributes":{"ID":562357,"DIS_CODE":0,"TOWNNAME":"仁德區","LI":"太子里","LIN":"30鄰","STREET":"太子路","SECT":" ","MAREA":" ","LANE":" ","ALLEY":" ","HOUSE_NO":"５９３號","E_COORD97":173784.07999999999,"N_COORD97":2543511.5099999998,"ADDRESS":"太子路５９３號","OBJECTID":562330},"geometry":{"x":173784.08000000007,"y":2543511.5099999998}},{"attributes":{"ID":562358,"DIS_CODE":0,"TOWNNAME":"北區","LI":"三德里","LIN":"9鄰","STREET":"北華街","SECT":" ","MAREA":" ","LANE":" ","ALLEY":" ","HOUSE_NO":"１８０號六樓之３","E_COORD97":168472.23999999999,"N_COORD97":2544615.7599999998,"ADDRESS":"北華街１８０號六樓之３","OBJECTID":562331},"geometry":{"x":168472.24000000022,"y":2544615.7600000035}},{"attributes":{"ID":562359,"DIS_CODE":0,"TOWNNAME":"北區","LI":"三德里","LIN":"9鄰","STREET":"北華街","SECT":" ","MAREA":" ","LANE":" ","ALLEY":" ","HOUSE_NO":"１８０號六樓之５","E_COORD97":168472.23999999999,"N_COORD97":2544615.7599999998,"ADDRESS":"北華街１８０號六樓之５","OBJECTID":562332},"geometry":{"x":168472.24000000022,"y":2544615.7600000035}},{"attributes":{"ID":562360,"DIS_CODE":0,"TOWNNAME":"北區","LI":"三德里","LIN":"9鄰","STREET":"北華街","SECT":" ","MAREA":" ","LANE":" ","ALLEY":" ","HOUSE_NO":"１８０號六樓之６","E_COORD97":168472.23999999999,"N_COORD97":2544615.7599999998,"ADDRESS":"北華街１８０號六樓之６","OBJECTID":562333},"geometry":{"x":168472.24000000022,"y":2544615.7600000035}},{"attributes":{"ID":562361,"DIS_CODE":0,"TOWNNAME":"北區","LI":"三德里","LIN":"9鄰","STREET":"北華街","SECT":" ","MAREA":" ","LANE":" ","ALLEY":" ","HOUSE_NO":"１８０號六樓之７","E_COORD97":168472.23999999999,"N_COORD97":2544615.7599999998,"ADDRESS":"北華街１８０號六樓之７","OBJECTID":562334},"geometry":{"x":168472.24000000022,"y":2544615.7600000035}},{"attributes":{"ID":562362,"DIS_CODE":0,"TOWNNAME":"北區","LI":"三德里","LIN":"9鄰","STREET":"北華街","SECT":" ","MAREA":" ","LANE":" ","ALLEY":" ","HOUSE_NO":"１８０號六樓之８","E_COORD97":168472.23999999999,"N_COORD97":2544615.7599999998,"ADDRESS":"北華街１８０號六樓之８","OBJECTID":562335},"geometry":{"x":168472.24000000022,"y":2544615.7600000035}},{"attributes":{"ID":562363,"DIS_CODE":0,"TOWNNAME":"北區","LI":"三德里","LIN":"9鄰","STREET":"北華街","SECT":" ","MAREA":" ","LANE":" ","ALLEY":" ","HOUSE_NO":"１８０號六樓之９","E_COORD97":168472.23999999999,"N_COORD97":2544615.7599999998,"ADDRESS":"北華街１８０號六樓之９","OBJECTID":562336},"geometry":{"x":168472.24000000022,"y":2544615.7600000035}},{"attributes":{"ID":562364,"DIS_CODE":0,"TOWNNAME":"北區","LI":"三德里","LIN":"9鄰","STREET":"北華街","SECT":" ","MAREA":" ","LANE":" ","ALLEY":" ","HOUSE_NO":"１８０號四樓之１","E_COORD97":168472.23999999999,"N_COORD97":2544615.7599999998,"ADDRESS":"北華街１８０號四樓之１","OBJECTID":562337},"geometry":{"x":168472.24000000022,"y":2544615.7600000035}},{"attributes":{"ID":562365,"DIS_CODE":0,"TOWNNAME":"北區","LI":"三德里","LIN":"9鄰","STREET":"北華街","SECT":" ","MAREA":" ","LANE":" ","ALLEY":" ","HOUSE_NO":"１８０號四樓之２","E_COORD97":168472.23999999999,"N_COORD97":2544615.7599999998,"ADDRESS":"北華街１８０號四樓之２","OBJECTID":562338},"geometry":{"x":168472.24000000022,"y":2544615.7600000035}},{"attributes":{"ID":562366,"DIS_CODE":0,"TOWNNAME":"北區","LI":"三德里","LIN":"9鄰","STREET":"北華街","SECT":" ","MAREA":" ","LANE":" ","ALLEY":" ","HOUSE_NO":"１８０號四樓之３","E_COORD97":168472.23999999999,"N_COORD97":2544615.7599999998,"ADDRESS":"北華街１８０號四樓之３","OBJECTID":562339},"geometry":{"x":168472.24000000022,"y":2544615.7600000035}},{"attributes":{"ID":562367,"DIS_CODE":0,"TOWNNAME":"北區","LI":"三德里","LIN":"9鄰","STREET":"北華街","SECT":" ","MAREA":" ","LANE":" ","ALLEY":" ","HOUSE_NO":"１８０號四樓之５","E_COORD97":168472.23999999999,"N_COORD97":2544615.7599999998,"ADDRESS":"北華街１８０號四樓之５","OBJECTID":562340},"geometry":{"x":168472.24000000022,"y":2544615.7600000035}},{"attributes":{"ID":562368,"DIS_CODE":0,"TOWNNAME":"北區","LI":"三德里","LIN":"9鄰","STREET":"北華街","SECT":" ","MAREA":" ","LANE":" ","ALLEY":" ","HOUSE_NO":"１８０號四樓之６","E_COORD97":168472.23999999999,"N_COORD97":2544615.7599999998,"ADDRESS":"北華街１８０號四樓之６","OBJECTID":562341},"geometry":{"x":168472.24000000022,"y":2544615.7600000035}},{"attributes":{"ID":562369,"DIS_CODE":0,"TOWNNAME":"北區","LI":"三德里","LIN":"9鄰","STREET":"北華街","SECT":" ","MAREA":" ","LANE":" ","ALLEY":" ","HOUSE_NO":"１８０號四樓之７","E_COORD97":168472.23999999999,"N_COORD97":2544615.7599999998,"ADDRESS":"北華街１８０號四樓之７","OBJECTID":562342},"geometry":{"x":168472.24000000022,"y":2544615.7600000035}},{"attributes":{"ID":562370,"DIS_CODE":0,"TOWNNAME":"北區","LI":"三德里","LIN":"9鄰","STREET":"北華街","SECT":" ","MAREA":" ","LANE":" ","ALLEY":" ","HOUSE_NO":"１８０號四樓之８","E_COORD97":168472.23999999999,"N_COORD97":2544615.7599999998,"ADDRESS":"北華街１８０號四樓之８","OBJECTID":562343},"geometry":{"x":168472.24000000022,"y":2544615.7600000035}},{"attributes":{"ID":562371,"DIS_CODE":0,"TOWNNAME":"北區","LI":"三德里","LIN":"9鄰","STREET":"北華街","SECT":" ","MAREA":" ","LANE":" ","ALLEY":" ","HOUSE_NO":"１８０號四樓之９","E_COORD97":168472.23999999999,"N_COORD97":2544615.7599999998,"ADDRESS":"北華街１８０號四樓之９","OBJECTID":562344},"geometry":{"x":168472.24000000022,"y":2544615.7600000035}},{"attributes":{"ID":562372,"DIS_CODE":0,"TOWNNAME":"北區","LI":"長德里","LIN":"9鄰","STREET":"西門路","SECT":"三段","MAREA":" ","LANE":" ","ALLEY":" ","HOUSE_NO":"２６０號七樓","E_COORD97":168497.98000000001,"N_COORD97":2544973.3399999999,"ADDRESS":"西門路三段２６０號七樓","OBJECTID":562345},"geometry":{"x":168497.98000000045,"y":2544973.3399999999}},{"attributes":{"ID":562373,"DIS_CODE":0,"TOWNNAME":"北區","LI":"長德里","LIN":"9鄰","STREET":"西門路","SECT":"三段","MAREA":" ","LANE":" ","ALLEY":" ","HOUSE_NO":"２６０號九樓","E_COORD97":168497.98000000001,"N_COORD97":2544973.3399999999,"ADDRESS":"西門路三段２６０號九樓","OBJECTID":562346},"geometry":{"x":168497.98000000045,"y":2544973.3399999999}},{"attributes":{"ID":562374,"DIS_CODE":0,"TOWNNAME":"北區","LI":"長德里","LIN":"9鄰","STREET":"西門路","SECT":"三段","MAREA":" ","LANE":" ","ALLEY":" ","HOUSE_NO":"２６０號二樓","E_COORD97":168497.98000000001,"N_COORD97":2544973.3399999999,"ADDRESS":"西門路三段２６０號二樓","OBJECTID":562347},"geometry":{"x":168497.98000000045,"y":2544973.3399999999}},{"attributes":{"ID":562375,"DIS_CODE":0,"TOWNNAME":"北區","LI":"長德里","LIN":"9鄰","STREET":"西門路","SECT":"三段","MAREA":" ","LANE":" ","ALLEY":" ","HOUSE_NO":"２６０號八樓","E_COORD97":168497.98000000001,"N_COORD97":2544973.3399999999,"ADDRESS":"西門路三段２６０號八樓","OBJECTID":562348},"geometry":{"x":168497.98000000045,"y":2544973.3399999999}},{"attributes":{"ID":562376,"DIS_CODE":0,"TOWNNAME":"北區","LI":"長德里","LIN":"9鄰","STREET":"西門路","SECT":"三段","MAREA":" ","LANE":" ","ALLEY":" ","HOUSE_NO":"２６０號十一樓之１","E_COORD97":168497.98000000001,"N_COORD97":2544973.3399999999,"ADDRESS":"西門路三段２６０號十一樓之１","OBJECTID":562349},"geometry":{"x":168497.98000000045,"y":2544973.3399999999}},{"attributes":{"ID":562377,"DIS_CODE":0,"TOWNNAME":"歸仁區","LI":"辜厝里","LIN":"2鄰","STREET":"民族南街","SECT":" ","MAREA":" ","LANE":" ","ALLEY":" ","HOUSE_NO":"１號","E_COORD97":177428.84,"N_COORD97":2540763.5499999998,"ADDRESS":"民族南街１號","OBJECTID":562350},"geometry":{"x":177428.83999999985,"y":2540763.5500000026}},{"attributes":{"ID":562378,"DIS_CODE":0,"TOWNNAME":"北區","LI":"長德里","LIN":"9鄰","STREET":"西門路","SECT":"三段","MAREA":" ","LANE":" ","ALLEY":" ","HOUSE_NO":"２６０號十一樓之２","E_COORD97":168497.98000000001,"N_COORD97":2544973.3399999999,"ADDRESS":"西門路三段２６０號十一樓之２","OBJECTID":562351},"geometry":{"x":168497.98000000045,"y":2544973.3399999999}},{"attributes":{"ID":562379,"DIS_CODE":0,"TOWNNAME":"北區","LI":"長德里","LIN":"9鄰","STREET":"西門路","SECT":"三段","MAREA":" ","LANE":" ","ALLEY":" ","HOUSE_NO":"２６０號十二樓","E_COORD97":168497.98000000001,"N_COORD97":2544973.3399999999,"ADDRESS":"西門路三段２６０號十二樓","OBJECTID":562352},"geometry":{"x":168497.98000000045,"y":2544973.3399999999}},{"attributes":{"ID":562380,"DIS_CODE":0,"TOWNNAME":"北區","LI":"長德里","LIN":"9鄰","STREET":"西門路","SECT":"三段","MAREA":" ","LANE":" ","ALLEY":" ","HOUSE_NO":"２６０號十樓之１","E_COORD97":168497.98000000001,"N_COORD97":2544973.3399999999,"ADDRESS":"西門路三段２６０號十樓之１","OBJECTID":562353},"geometry":{"x":168497.98000000045,"y":2544973.3399999999}},{"attributes":{"ID":562381,"DIS_CODE":0,"TOWNNAME":"北區","LI":"長德里","LIN":"9鄰","STREET":"西門路","SECT":"三段","MAREA":" ","LANE":" ","ALLEY":" ","HOUSE_NO":"２６０號十樓之２","E_COORD97":168497.98000000001,"N_COORD97":2544973.3399999999,"ADDRESS":"西門路三段２６０號十樓之２","OBJECTID":562354},"geometry":{"x":168497.98000000045,"y":2544973.3399999999}},{"attributes":{"ID":562382,"DIS_CODE":0,"TOWNNAME":"仁德區","LI":"仁義里","LIN":"7鄰","STREET":"中清路","SECT":" ","MAREA":" ","LANE":" ","ALLEY":" ","HOUSE_NO":"８６號","E_COORD97":173716.92000000001,"N_COORD97":2541246.0499999998,"ADDRESS":"中清路８６號","OBJECTID":562355},"geometry":{"x":173716.92000000086,"y":2541246.0500000026}},{"attributes":{"ID":562383,"DIS_CODE":0,"TOWNNAME":"北區","LI":"長德里","LIN":"9鄰","STREET":"西門路","SECT":"三段","MAREA":" ","LANE":" ","ALLEY":" ","HOUSE_NO":"２６０號三樓","E_COORD97":168497.98000000001,"N_COORD97":2544973.3399999999,"ADDRESS":"西門路三段２６０號三樓","OBJECTID":562356},"geometry":{"x":168497.98000000045,"y":2544973.3399999999}},{"attributes":{"ID":562384,"DIS_CODE":0,"TOWNNAME":"北區","LI":"長德里","LIN":"9鄰","STREET":"西門路","SECT":"三段","MAREA":" ","LANE":" ","ALLEY":" ","HOUSE_NO":"２６０號五樓","E_COORD97":168497.98000000001,"N_COORD97":2544973.3399999999,"ADDRESS":"西門路三段２６０號五樓","OBJECTID":562357},"geometry":{"x":168497.98000000045,"y":2544973.3399999999}},{"attributes":{"ID":562385,"DIS_CODE":0,"TOWNNAME":"北區","LI":"長德里","LIN":"9鄰","STREET":"西門路","SECT":"三段","MAREA":" ","LANE":" ","ALLEY":" ","HOUSE_NO":"２６０號六樓","E_COORD97":168497.98000000001,"N_COORD97":2544973.3399999999,"ADDRESS":"西門路三段２６０號六樓","OBJECTID":562358},"geometry":{"x":168497.98000000045,"y":2544973.3399999999}},{"attributes":{"ID":562386,"DIS_CODE":0,"TOWNNAME":"北區","LI":"長德里","LIN":"9鄰","STREET":"西門路","SECT":"三段","MAREA":" ","LANE":" ","ALLEY":" ","HOUSE_NO":"２６０號四樓之１","E_COORD97":168497.98000000001,"N_COORD97":2544973.3399999999,"ADDRESS":"西門路三段２６０號四樓之１","OBJECTID":562359},"geometry":{"x":168497.98000000045,"y":2544973.3399999999}},{"attributes":{"ID":562387,"DIS_CODE":0,"TOWNNAME":"北區","LI":"長德里","LIN":"9鄰","STREET":"西門路","SECT":"三段","MAREA":" ","LANE":" ","ALLEY":" ","HOUSE_NO":"２６０號四樓之２","E_COORD97":168497.98000000001,"N_COORD97":2544973.3399999999,"ADDRESS":"西門路三段２６０號四樓之２","OBJECTID":562360},"geometry":{"x":168497.98000000045,"y":2544973.3399999999}},{"attributes":{"ID":562388,"DIS_CODE":0,"TOWNNAME":"仁德區","LI":"仁義里","LIN":"9鄰","STREET":"仁義一街","SECT":" ","MAREA":" ","LANE":" ","ALLEY":" ","HOUSE_NO":"１４４號","E_COORD97":173636.12,"N_COORD97":2541176.0099999998,"ADDRESS":"仁義一街１４４號","OBJECTID":562361},"geometry":{"x":173636.12000000104,"y":2541176.0100000035}},{"attributes":{"ID":562389,"DIS_CODE":0,"TOWNNAME":"北區","LI":"安民里","LIN":"9鄰","STREET":"成功路","SECT":" ","MAREA":" ","LANE":" ","ALLEY":" ","HOUSE_NO":"３８８號二樓之１","E_COORD97":167989.98999999999,"N_COORD97":2544544.8100000001,"ADDRESS":"成功路３８８號二樓之１","OBJECTID":562362},"geometry":{"x":167989.99000000115,"y":2544544.8100000042}},{"attributes":{"ID":562390,"DIS_CODE":0,"TOWNNAME":"南區","LI":"南都里","LIN":"9鄰","STREET":"中華南路","SECT":"二段","MAREA":" ","LANE":" ","ALLEY":" ","HOUSE_NO":"２４１號三樓","E_COORD97":166722.34,"N_COORD97":2540233.4199999999,"ADDRESS":"中華南路二段２４１號三樓","OBJECTID":562363},"geometry":{"x":166722.33999999892,"y":2540233.4199999999}},{"attributes":{"ID":562391,"DIS_CODE":0,"TOWNNAME":"南區","LI":"南都里","LIN":"9鄰","STREET":"中華南路","SECT":"二段","MAREA":" ","LANE":" ","ALLEY":" ","HOUSE_NO":"２５３號三樓","E_COORD97":166614.54999999999,"N_COORD97":2540256.6000000001,"ADDRESS":"中華南路二段２５３號三樓","OBJECTID":562364},"geometry":{"x":166614.55000000075,"y":2540256.6000000034}},{"attributes":{"ID":562392,"DIS_CODE":0,"TOWNNAME":"南區","LI":"南都里","LIN":"9鄰","STREET":"中華南路","SECT":"二段","MAREA":" ","LANE":" ","ALLEY":" ","HOUSE_NO":"２５３號五樓","E_COORD97":166614.54999999999,"N_COORD97":2540256.6000000001,"ADDRESS":"中華南路二段２５３號五樓","OBJECTID":562365},"geometry":{"x":166614.55000000075,"y":2540256.6000000034}},{"attributes":{"ID":562393,"DIS_CODE":0,"TOWNNAME":"南區","LI":"南都里","LIN":"9鄰","STREET":"中華南路","SECT":"二段","MAREA":" ","LANE":" ","ALLEY":" ","HOUSE_NO":"２５３號四樓","E_COORD97":166614.54999999999,"N_COORD97":2540256.6000000001,"ADDRESS":"中華南路二段２５３號四樓","OBJECTID":562366},"geometry":{"x":166614.55000000075,"y":2540256.6000000034}},{"attributes":{"ID":562394,"DIS_CODE":0,"TOWNNAME":"南區","LI":"南都里","LIN":"9鄰","STREET":"中華南路","SECT":"二段","MAREA":" ","LANE":" ","ALLEY":" ","HOUSE_NO":"２５７號三樓","E_COORD97":166605.79000000001,"N_COORD97":2540256.6000000001,"ADDRESS":"中華南路二段２５７號三樓","OBJECTID":562367},"geometry":{"x":166605.79000000004,"y":2540256.6000000034}},{"attributes":{"ID":562395,"DIS_CODE":0,"TOWNNAME":"南區","LI":"南都里","LIN":"9鄰","STREET":"中華南路","SECT":"二段","MAREA":" ","LANE":" ","ALLEY":" ","HOUSE_NO":"２５７號五樓","E_COORD97":166605.79000000001,"N_COORD97":2540256.6000000001,"ADDRESS":"中華南路二段２５７號五樓","OBJECTID":562368},"geometry":{"x":166605.79000000004,"y":2540256.6000000034}},{"attributes":{"ID":562396,"DIS_CODE":0,"TOWNNAME":"南區","LI":"南都里","LIN":"9鄰","STREET":"中華南路","SECT":"二段","MAREA":" ","LANE":" ","ALLEY":" ","HOUSE_NO":"２５７號四樓","E_COORD97":166605.79000000001,"N_COORD97":2540256.6000000001,"ADDRESS":"中華南路二段２５７號四樓","OBJECTID":562369},"geometry":{"x":166605.79000000004,"y":2540256.6000000034}},{"attributes":{"ID":562397,"DIS_CODE":0,"TOWNNAME":"南區","LI":"南都里","LIN":"9鄰","STREET":"中華南路","SECT":"二段","MAREA":" ","LANE":" ","ALLEY":" ","HOUSE_NO":"２６１號三樓","E_COORD97":166595.89000000001,"N_COORD97":2540256.8799999999,"ADDRESS":"中華南路二段２６１號三樓","OBJECTID":562370},"geometry":{"x":166595.88999999966,"y":2540256.879999999}},{"attributes":{"ID":562398,"DIS_CODE":0,"TOWNNAME":"南區","LI":"南都里","LIN":"9鄰","STREET":"中華南路","SECT":"二段","MAREA":" ","LANE":" ","ALLEY":" ","HOUSE_NO":"２６１號五樓","E_COORD97":166595.89000000001,"N_COORD97":2540256.8799999999,"ADDRESS":"中華南路二段２６１號五樓","OBJECTID":562371},"geometry":{"x":166595.88999999966,"y":2540256.879999999}},{"attributes":{"ID":562399,"DIS_CODE":0,"TOWNNAME":"南區","LI":"南都里","LIN":"9鄰","STREET":"中華南路","SECT":"二段","MAREA":" ","LANE":" ","ALLEY":" ","HOUSE_NO":"２６１號四樓","E_COORD97":166595.89000000001,"N_COORD97":2540256.8799999999,"ADDRESS":"中華南路二段２６１號四樓","OBJECTID":562372},"geometry":{"x":166595.88999999966,"y":2540256.879999999}},{"attributes":{"ID":562400,"DIS_CODE":0,"TOWNNAME":"南區","LI":"南都里","LIN":"9鄰","STREET":"中華南路","SECT":"二段","MAREA":" ","LANE":" ","ALLEY":" ","HOUSE_NO":"２６５號三樓","E_COORD97":166587.97,"N_COORD97":2540256.8799999999,"ADDRESS":"中華南路二段２６５號三樓","OBJECTID":562373},"geometry":{"x":166587.97000000067,"y":2540256.879999999}},{"attributes":{"ID":562401,"DIS_CODE":0,"TOWNNAME":"仁德區","LI":"太子里","LIN":"34鄰","STREET":"太子二街","SECT":" ","MAREA":" ","LANE":" ","ALLEY":" ","HOUSE_NO":"１８號","E_COORD97":174283.92999999999,"N_COORD97":2543417.7599999998,"ADDRESS":"太子二街１８號","OBJECTID":562374},"geometry":{"x":174283.93000000156,"y":2543417.7599999998}},{"attributes":{"ID":562402,"DIS_CODE":0,"TOWNNAME":"仁德區","LI":"仁德里","LIN":"6鄰","STREET":"中正路","SECT":"二段","MAREA":" ","LANE":" ","ALLEY":" ","HOUSE_NO":"１１２９號","E_COORD97":173351.37,"N_COORD97":2540979.1699999999,"ADDRESS":"中正路二段１１２９號","OBJECTID":562375},"geometry":{"x":173351.37000000104,"y":2540979.1700000018}},{"attributes":{"ID":562403,"DIS_CODE":0,"TOWNNAME":"南區","LI":"南都里","LIN":"9鄰","STREET":"中華南路","SECT":"二段","MAREA":" ","LANE":" ","ALLEY":" ","HOUSE_NO":"２６５號五樓","E_COORD97":166587.97,"N_COORD97":2540256.8799999999,"ADDRESS":"中華南路二段２６５號五樓","OBJECTID":562376},"geometry":{"x":166587.97000000067,"y":2540256.879999999}},{"attributes":{"ID":562404,"DIS_CODE":0,"TOWNNAME":"南區","LI":"南都里","LIN":"9鄰","STREET":"中華南路","SECT":"二段","MAREA":" ","LANE":" ","ALLEY":" ","HOUSE_NO":"２６５號四樓","E_COORD97":166587.97,"N_COORD97":2540256.8799999999,"ADDRESS":"中華南路二段２６５號四樓","OBJECTID":562377},"geometry":{"x":166587.97000000067,"y":2540256.879999999}},{"attributes":{"ID":562405,"DIS_CODE":0,"TOWNNAME":"南區","LI":"南都里","LIN":"9鄰","STREET":"中華南路","SECT":"二段","MAREA":" ","LANE":" ","ALLEY":" ","HOUSE_NO":"２６９號三樓","E_COORD97":166577.51000000001,"N_COORD97":2540256.8799999999,"ADDRESS":"中華南路二段２６９號三樓","OBJECTID":562378},"geometry":{"x":166577.51000000071,"y":2540256.879999999}},{"attributes":{"ID":562406,"DIS_CODE":0,"TOWNNAME":"南區","LI":"南都里","LIN":"9鄰","STREET":"中華南路","SECT":"二段","MAREA":" ","LANE":" ","ALLEY":" ","HOUSE_NO":"２６９號五樓","E_COORD97":166577.51000000001,"N_COORD97":2540256.8799999999,"ADDRESS":"中華南路二段２６９號五樓","OBJECTID":562379},"geometry":{"x":166577.51000000071,"y":2540256.879999999}},{"attributes":{"ID":562407,"DIS_CODE":0,"TOWNNAME":"下營區","LI":"仁里里","LIN":"9鄰","STREET":"公園路","SECT":" ","MAREA":" ","LANE":" ","ALLEY":" ","HOUSE_NO":"１７９號","E_COORD97":173432.57999999999,"N_COORD97":2570232.7799999998,"ADDRESS":"公園路１７９號","OBJECTID":562380},"geometry":{"x":173432.58000000101,"y":2570232.7800000031}},{"attributes":{"ID":562408,"DIS_CODE":0,"TOWNNAME":"南區","LI":"南都里","LIN":"9鄰","STREET":"中華南路","SECT":"二段","MAREA":" ","LANE":" ","ALLEY":" ","HOUSE_NO":"２６９號四樓","E_COORD97":166577.51000000001,"N_COORD97":2540256.8799999999,"ADDRESS":"中華南路二段２６９號四樓","OBJECTID":562381},"geometry":{"x":166577.51000000071,"y":2540256.879999999}},{"attributes":{"ID":562409,"DIS_CODE":0,"TOWNNAME":"南區","LI":"南都里","LIN":"9鄰","STREET":"中華南路","SECT":"二段","MAREA":" ","LANE":" ","ALLEY":" ","HOUSE_NO":"２７３號三樓","E_COORD97":166569.31,"N_COORD97":2540257.4399999999,"ADDRESS":"中華南路二段２７３號三樓","OBJECTID":562382},"geometry":{"x":166569.30999999959,"y":2540257.4400000032}},{"attributes":{"ID":562410,"DIS_CODE":0,"TOWNNAME":"南區","LI":"南都里","LIN":"9鄰","STREET":"中華南路","SECT":"二段","MAREA":" ","LANE":" ","ALLEY":" ","HOUSE_NO":"２７３號五樓","E_COORD97":166569.31,"N_COORD97":2540257.4399999999,"ADDRESS":"中華南路二段２７３號五樓","OBJECTID":562383},"geometry":{"x":166569.30999999959,"y":2540257.4400000032}},{"attributes":{"ID":562411,"DIS_CODE":0,"TOWNNAME":"南區","LI":"南都里","LIN":"9鄰","STREET":"中華南路","SECT":"二段","MAREA":" ","LANE":" ","ALLEY":" ","HOUSE_NO":"２７３號四樓","E_COORD97":166569.31,"N_COORD97":2540257.4399999999,"ADDRESS":"中華南路二段２７３號四樓","OBJECTID":562384},"geometry":{"x":166569.30999999959,"y":2540257.4400000032}},{"attributes":{"ID":562412,"DIS_CODE":0,"TOWNNAME":"南區","LI":"南都里","LIN":"9鄰","STREET":"中華南路","SECT":"二段","MAREA":" ","LANE":" ","ALLEY":" ","HOUSE_NO":"２７７號三樓","E_COORD97":166559.98000000001,"N_COORD97":2540257.1600000001,"ADDRESS":"中華南路二段２７７號三樓","OBJECTID":562385},"geometry":{"x":166559.98000000138,"y":2540257.160000002}},{"attributes":{"ID":562413,"DIS_CODE":0,"TOWNNAME":"南區","LI":"南都里","LIN":"9鄰","STREET":"中華南路","SECT":"二段","MAREA":" ","LANE":" ","ALLEY":" ","HOUSE_NO":"２７７號五樓","E_COORD97":166559.98000000001,"N_COORD97":2540257.1600000001,"ADDRESS":"中華南路二段２７７號五樓","OBJECTID":562386},"geometry":{"x":166559.98000000138,"y":2540257.160000002}},{"attributes":{"ID":562414,"DIS_CODE":0,"TOWNNAME":"南區","LI":"南都里","LIN":"9鄰","STREET":"中華南路","SECT":"二段","MAREA":" ","LANE":" ","ALLEY":" ","HOUSE_NO":"２７７號四樓","E_COORD97":166559.98000000001,"N_COORD97":2540257.1600000001,"ADDRESS":"中華南路二段２７７號四樓","OBJECTID":562387},"geometry":{"x":166559.98000000138,"y":2540257.160000002}},{"attributes":{"ID":562415,"DIS_CODE":0,"TOWNNAME":"南區","LI":"南都里","LIN":"9鄰","STREET":"中華南路","SECT":"二段","MAREA":" ","LANE":" ","ALLEY":" ","HOUSE_NO":"２８１號三樓","E_COORD97":166551.78,"N_COORD97":2540257.4399999999,"ADDRESS":"中華南路二段２８１號三樓","OBJECTID":562388},"geometry":{"x":166551.78000000026,"y":2540257.4400000032}},{"attributes":{"ID":562416,"DIS_CODE":0,"TOWNNAME":"南區","LI":"南都里","LIN":"9鄰","STREET":"中華南路","SECT":"二段","MAREA":" ","LANE":" ","ALLEY":" ","HOUSE_NO":"２８１號五樓","E_COORD97":166551.78,"N_COORD97":2540257.4399999999,"ADDRESS":"中華南路二段２８１號五樓","OBJECTID":562389},"geometry":{"x":166551.78000000026,"y":2540257.4400000032}},{"attributes":{"ID":562417,"DIS_CODE":0,"TOWNNAME":"南區","LI":"南都里","LIN":"9鄰","STREET":"中華南路","SECT":"二段","MAREA":" ","LANE":" ","ALLEY":" ","HOUSE_NO":"２８１號四樓","E_COORD97":166551.78,"N_COORD97":2540257.4399999999,"ADDRESS":"中華南路二段２８１號四樓","OBJECTID":562390},"geometry":{"x":166551.78000000026,"y":2540257.4400000032}},{"attributes":{"ID":562418,"DIS_CODE":0,"TOWNNAME":"北區","LI":"安民里","LIN":"9鄰","STREET":"成功路","SECT":" ","MAREA":" ","LANE":" ","ALLEY":" ","HOUSE_NO":"３８８號七樓之１","E_COORD97":167989.98999999999,"N_COORD97":2544544.8100000001,"ADDRESS":"成功路３８８號七樓之１","OBJECTID":562391},"geometry":{"x":167989.99000000115,"y":2544544.8100000042}},{"attributes":{"ID":562419,"DIS_CODE":0,"TOWNNAME":"北區","LI":"安民里","LIN":"9鄰","STREET":"成功路","SECT":" ","MAREA":" ","LANE":" ","ALLEY":" ","HOUSE_NO":"３８８號七樓之１０","E_COORD97":167989.98999999999,"N_COORD97":2544544.8100000001,"ADDRESS":"成功路３８８號七樓之１０","OBJECTID":562392},"geometry":{"x":167989.99000000115,"y":2544544.8100000042}},{"attributes":{"ID":562420,"DIS_CODE":0,"TOWNNAME":"北區","LI":"安民里","LIN":"9鄰","STREET":"成功路","SECT":" ","MAREA":" ","LANE":" ","ALLEY":" ","HOUSE_NO":"３８８號七樓之１１","E_COORD97":167989.98999999999,"N_COORD97":2544544.8100000001,"ADDRESS":"成功路３８８號七樓之１１","OBJECTID":562393},"geometry":{"x":167989.99000000115,"y":2544544.8100000042}},{"attributes":{"ID":562421,"DIS_CODE":0,"TOWNNAME":"北區","LI":"安民里","LIN":"9鄰","STREET":"成功路","SECT":" ","MAREA":" ","LANE":" ","ALLEY":" ","HOUSE_NO":"３８８號七樓之１２","E_COORD97":167989.98999999999,"N_COORD97":2544544.8100000001,"ADDRESS":"成功路３８８號七樓之１２","OBJECTID":562394},"geometry":{"x":167989.99000000115,"y":2544544.8100000042}},{"attributes":{"ID":562422,"DIS_CODE":0,"TOWNNAME":"永康區","LI":"正強里","LIN":"9鄰","STREET":"自強路","SECT":" ","MAREA":" ","LANE":" ","ALLEY":" ","HOUSE_NO":"３１８號","E_COORD97":173384.85000000001,"N_COORD97":2547667.5600000001,"ADDRESS":"自強路３１８號","OBJECTID":562395},"geometry":{"x":173384.85000000056,"y":2547667.5600000005}},{"attributes":{"ID":562423,"DIS_CODE":0,"TOWNNAME":"北區","LI":"安民里","LIN":"9鄰","STREET":"成功路","SECT":" ","MAREA":" ","LANE":" ","ALLEY":" ","HOUSE_NO":"３８８號七樓之２","E_COORD97":167989.98999999999,"N_COORD97":2544544.8100000001,"ADDRESS":"成功路３８８號七樓之２","OBJECTID":562396},"geometry":{"x":167989.99000000115,"y":2544544.8100000042}},{"attributes":{"ID":562424,"DIS_CODE":0,"TOWNNAME":"北區","LI":"安民里","LIN":"9鄰","STREET":"成功路","SECT":" ","MAREA":" ","LANE":" ","ALLEY":" ","HOUSE_NO":"３８８號七樓之３","E_COORD97":167989.98999999999,"N_COORD97":2544544.8100000001,"ADDRESS":"成功路３８８號七樓之３","OBJECTID":562397},"geometry":{"x":167989.99000000115,"y":2544544.8100000042}},{"attributes":{"ID":562425,"DIS_CODE":0,"TOWNNAME":"北區","LI":"安民里","LIN":"9鄰","STREET":"成功路","SECT":" ","MAREA":" ","LANE":" ","ALLEY":" ","HOUSE_NO":"３８８號七樓之４","E_COORD97":167989.98999999999,"N_COORD97":2544544.8100000001,"ADDRESS":"成功路３８８號七樓之４","OBJECTID":562398},"geometry":{"x":167989.99000000115,"y":2544544.8100000042}},{"attributes":{"ID":562426,"DIS_CODE":0,"TOWNNAME":"北區","LI":"安民里","LIN":"9鄰","STREET":"成功路","SECT":" ","MAREA":" ","LANE":" ","ALLEY":" ","HOUSE_NO":"３８８號七樓之５","E_COORD97":167989.98999999999,"N_COORD97":2544544.8100000001,"ADDRESS":"成功路３８８號七樓之５","OBJECTID":562399},"geometry":{"x":167989.99000000115,"y":2544544.8100000042}},{"attributes":{"ID":562427,"DIS_CODE":0,"TOWNNAME":"北區","LI":"安民里","LIN":"9鄰","STREET":"成功路","SECT":" ","MAREA":" ","LANE":" ","ALLEY":" ","HOUSE_NO":"３８８號七樓之６","E_COORD97":167989.98999999999,"N_COORD97":2544544.8100000001,"ADDRESS":"成功路３８８號七樓之６","OBJECTID":562400},"geometry":{"x":167989.99000000115,"y":2544544.8100000042}}]}