{"displayFieldName":"TOWNNAME","fieldAliases":{"ID":"ID","DIS_CODE":"DIS_CODE","TOWNNAME":"TOWNNAME","LI":"LI","LIN":"LIN","STREET":"STREET","SECT":"SECT","MAREA":"MAREA","LANE":"LANE","ALLEY":"ALLEY","HOUSE_NO":"HOUSE_NO","E_COORD97":"E_COORD97","N_COORD97":"N_COORD97","ADDRESS":"ADDRESS","OBJECTID":"OBJECTID"},"geometryType":"esriGeometryPoint","spatialReference":{"wkid":102443,"latestWkid":3826},"fields":[{"name":"ID","type":"esriFieldTypeDouble","alias":"ID"},{"name":"DIS_CODE","type":"esriFieldTypeInteger","alias":"DIS_CODE"},{"name":"TOWNNAME","type":"esriFieldTypeString","alias":"TOWNNAME","length":8},{"name":"LI","type":"esriFieldTypeString","alias":"LI","length":8},{"name":"LIN","type":"esriFieldTypeString","alias":"LIN","length":12},{"name":"STREET","type":"esriFieldTypeString","alias":"STREET","length":20},{"name":"SECT","type":"esriFieldTypeString","alias":"SECT","length":8},{"name":"MAREA","type":"esriFieldTypeString","alias":"MAREA","length":12},{"name":"LANE","type":"esriFieldTypeString","alias":"LANE","length":10},{"name":"ALLEY","type":"esriFieldTypeString","alias":"ALLEY","length":10},{"name":"HOUSE_NO","type":"esriFieldTypeString","alias":"HOUSE_NO","length":20},{"name":"E_COORD97","type":"esriFieldTypeDouble","alias":"E_COORD97"},{"name":"N_COORD97","type":"esriFieldTypeDouble","alias":"N_COORD97"},{"name":"ADDRESS","type":"esriFieldTypeString","alias":"ADDRESS","length":50},{"name":"OBJECTID","type":"esriFieldTypeOID","alias":"OBJECTID"}],"features":[{"attributes":{"ID":463026,"DIS_CODE":0,"TOWNNAME":"玉井區","LI":"玉田里","LIN":"36鄰","STREET":"中正路","SECT":" ","MAREA":" ","LANE":" ","ALLEY":" ","HOUSE_NO":"２３７號","E_COORD97":195130.26000000001,"N_COORD97":2558287.2400000002,"ADDRESS":"中正路２３７號","OBJECTID":463001},"geometry":{"x":195130.25999999978,"y":2558287.2400000021}},{"attributes":{"ID":463027,"DIS_CODE":0,"TOWNNAME":"玉井區","LI":"玉田里","LIN":"36鄰","STREET":"中正路","SECT":" ","MAREA":" ","LANE":" ","ALLEY":" ","HOUSE_NO":"２５７號","E_COORD97":195157.26000000001,"N_COORD97":2558311.2400000002,"ADDRESS":"中正路２５７號","OBJECTID":463002},"geometry":{"x":195157.25999999978,"y":2558311.2400000021}},{"attributes":{"ID":463028,"DIS_CODE":0,"TOWNNAME":"玉井區","LI":"玉田里","LIN":"36鄰","STREET":"中正路","SECT":" ","MAREA":" ","LANE":" ","ALLEY":" ","HOUSE_NO":"２３９號","E_COORD97":195133.35000000001,"N_COORD97":2558289.2400000002,"ADDRESS":"中正路２３９號","OBJECTID":463003},"geometry":{"x":195133.34999999963,"y":2558289.2400000002}},{"attributes":{"ID":463029,"DIS_CODE":0,"TOWNNAME":"玉井區","LI":"玉田里","LIN":"36鄰","STREET":"玉安街","SECT":" ","MAREA":" ","LANE":" ","ALLEY":" ","HOUSE_NO":"３８號","E_COORD97":195061.20999999999,"N_COORD97":2558390.3100000001,"ADDRESS":"玉安街３８號","OBJECTID":463004},"geometry":{"x":195061.20999999996,"y":2558390.3100000005}},{"attributes":{"ID":463030,"DIS_CODE":0,"TOWNNAME":"玉井區","LI":"玉田里","LIN":"36鄰","STREET":"玉安街","SECT":" ","MAREA":" ","LANE":" ","ALLEY":" ","HOUSE_NO":"３６號","E_COORD97":195060.12,"N_COORD97":2558386.3100000001,"ADDRESS":"玉安街３６號","OBJECTID":463005},"geometry":{"x":195060.12000000104,"y":2558386.3100000005}},{"attributes":{"ID":463031,"DIS_CODE":0,"TOWNNAME":"玉井區","LI":"玉田里","LIN":"36鄰","STREET":"中正路","SECT":" ","MAREA":" ","LANE":" ","ALLEY":" ","HOUSE_NO":"３０５號","E_COORD97":195228.45999999999,"N_COORD97":2558383.2400000002,"ADDRESS":"中正路３０５號","OBJECTID":463006},"geometry":{"x":195228.46000000089,"y":2558383.2400000002}},{"attributes":{"ID":463032,"DIS_CODE":0,"TOWNNAME":"玉井區","LI":"玉田里","LIN":"36鄰","STREET":"中正路","SECT":" ","MAREA":" ","LANE":" ","ALLEY":" ","HOUSE_NO":"２９７號","E_COORD97":195216.76000000001,"N_COORD97":2558371.2400000002,"ADDRESS":"中正路２９７號","OBJECTID":463007},"geometry":{"x":195216.75999999978,"y":2558371.2400000021}},{"attributes":{"ID":463033,"DIS_CODE":0,"TOWNNAME":"玉井區","LI":"玉田里","LIN":"36鄰","STREET":"中正路","SECT":" ","MAREA":" ","LANE":" ","ALLEY":" ","HOUSE_NO":"３０３號","E_COORD97":195218.26000000001,"N_COORD97":2558384.2400000002,"ADDRESS":"中正路３０３號","OBJECTID":463008},"geometry":{"x":195218.25999999978,"y":2558384.2399999984}},{"attributes":{"ID":463034,"DIS_CODE":0,"TOWNNAME":"玉井區","LI":"玉田里","LIN":"36鄰","STREET":"中正路","SECT":" ","MAREA":" ","LANE":" ","ALLEY":" ","HOUSE_NO":"２８９號","E_COORD97":195205.56,"N_COORD97":2558358.25,"ADDRESS":"中正路２８９號","OBJECTID":463009},"geometry":{"x":195205.56000000052,"y":2558358.2500000019}},{"attributes":{"ID":463035,"DIS_CODE":0,"TOWNNAME":"玉井區","LI":"玉田里","LIN":"36鄰","STREET":"中正路","SECT":" ","MAREA":" ","LANE":" ","ALLEY":" ","HOUSE_NO":"３０１號","E_COORD97":195221.76000000001,"N_COORD97":2558375.2400000002,"ADDRESS":"中正路３０１號","OBJECTID":463010},"geometry":{"x":195221.75999999978,"y":2558375.2400000021}},{"attributes":{"ID":463036,"DIS_CODE":0,"TOWNNAME":"玉井區","LI":"玉田里","LIN":"36鄰","STREET":"中正路","SECT":" ","MAREA":" ","LANE":" ","ALLEY":" ","HOUSE_NO":"２９９號","E_COORD97":195219.04999999999,"N_COORD97":2558373.2400000002,"ADDRESS":"中正路２９９號","OBJECTID":463011},"geometry":{"x":195219.05000000075,"y":2558373.2400000002}},{"attributes":{"ID":463037,"DIS_CODE":0,"TOWNNAME":"玉井區","LI":"玉田里","LIN":"36鄰","STREET":"中正路","SECT":" ","MAREA":" ","LANE":" ","ALLEY":" ","HOUSE_NO":"３０７號","E_COORD97":195220.54999999999,"N_COORD97":2558398.2400000002,"ADDRESS":"中正路３０７號","OBJECTID":463012},"geometry":{"x":195220.55000000168,"y":2558398.2400000039}},{"attributes":{"ID":463038,"DIS_CODE":0,"TOWNNAME":"玉井區","LI":"玉田里","LIN":"36鄰","STREET":"中正路","SECT":" ","MAREA":" ","LANE":" ","ALLEY":" ","HOUSE_NO":"２９３號","E_COORD97":195211.85000000001,"N_COORD97":2558365.25,"ADDRESS":"中正路２９３號","OBJECTID":463013},"geometry":{"x":195211.85000000056,"y":2558365.2500000019}},{"attributes":{"ID":463039,"DIS_CODE":0,"TOWNNAME":"玉井區","LI":"玉田里","LIN":"36鄰","STREET":"玉安街","SECT":" ","MAREA":" ","LANE":" ","ALLEY":" ","HOUSE_NO":"４０號","E_COORD97":195062.82000000001,"N_COORD97":2558394.3100000001,"ADDRESS":"玉安街４０號","OBJECTID":463014},"geometry":{"x":195062.8200000003,"y":2558394.3099999987}},{"attributes":{"ID":463040,"DIS_CODE":0,"TOWNNAME":"玉井區","LI":"玉田里","LIN":"36鄰","STREET":"玉安街","SECT":" ","MAREA":" ","LANE":" ","ALLEY":" ","HOUSE_NO":"２０號","E_COORD97":195053.70999999999,"N_COORD97":2558353.3199999998,"ADDRESS":"玉安街２０號","OBJECTID":463015},"geometry":{"x":195053.71000000089,"y":2558353.3199999984}},{"attributes":{"ID":463041,"DIS_CODE":0,"TOWNNAME":"玉井區","LI":"玉田里","LIN":"36鄰","STREET":"玉安街","SECT":" ","MAREA":" ","LANE":" ","ALLEY":" ","HOUSE_NO":"２８號","E_COORD97":195059.20999999999,"N_COORD97":2558370.3100000001,"ADDRESS":"玉安街２８號","OBJECTID":463016},"geometry":{"x":195059.21000000089,"y":2558370.3100000005}},{"attributes":{"ID":463042,"DIS_CODE":0,"TOWNNAME":"歸仁區","LI":"南興里","LIN":"36鄰","STREET":"中山路","SECT":"三段","MAREA":" ","LANE":" ","ALLEY":" ","HOUSE_NO":"３４８號","E_COORD97":176160.35999999999,"N_COORD97":2540981.2799999998,"ADDRESS":"中山路三段３４８號","OBJECTID":463017},"geometry":{"x":176160.36000000127,"y":2540981.2800000012}},{"attributes":{"ID":463043,"DIS_CODE":0,"TOWNNAME":"歸仁區","LI":"南興里","LIN":"36鄰","STREET":"中山路","SECT":"三段","MAREA":" ","LANE":" ","ALLEY":" ","HOUSE_NO":"３０８號","E_COORD97":176247.56,"N_COORD97":2540982.2799999998,"ADDRESS":"中山路三段３０８號","OBJECTID":463018},"geometry":{"x":176247.55999999866,"y":2540982.2799999993}},{"attributes":{"ID":463044,"DIS_CODE":0,"TOWNNAME":"佳里區","LI":"鎮山里","LIN":"20鄰","STREET":"鎮山街","SECT":" ","MAREA":" ","LANE":" ","ALLEY":" ","HOUSE_NO":"１５２號","E_COORD97":166268.29000000001,"N_COORD97":2560993.8300000001,"ADDRESS":"鎮山街１５２號","OBJECTID":463019},"geometry":{"x":166268.29000000004,"y":2560993.8300000001}},{"attributes":{"ID":463045,"DIS_CODE":0,"TOWNNAME":"東區","LI":"忠孝里","LIN":"36鄰","STREET":"榮譽街","SECT":" ","MAREA":" ","LANE":" ","ALLEY":" ","HOUSE_NO":"１２２號七樓","E_COORD97":169870.51999999999,"N_COORD97":2541747.4700000002,"ADDRESS":"榮譽街１２２號七樓","OBJECTID":463020},"geometry":{"x":169870.51999999862,"y":2541747.4700000025}},{"attributes":{"ID":463046,"DIS_CODE":0,"TOWNNAME":"東區","LI":"忠孝里","LIN":"36鄰","STREET":"榮譽街","SECT":" ","MAREA":" ","LANE":" ","ALLEY":" ","HOUSE_NO":"１２２號七樓之１","E_COORD97":169870.51999999999,"N_COORD97":2541747.4700000002,"ADDRESS":"榮譽街１２２號七樓之１","OBJECTID":463021},"geometry":{"x":169870.51999999862,"y":2541747.4700000025}},{"attributes":{"ID":463047,"DIS_CODE":0,"TOWNNAME":"東區","LI":"忠孝里","LIN":"36鄰","STREET":"榮譽街","SECT":" ","MAREA":" ","LANE":" ","ALLEY":" ","HOUSE_NO":"１２２號七樓之２","E_COORD97":169870.51999999999,"N_COORD97":2541747.4700000002,"ADDRESS":"榮譽街１２２號七樓之２","OBJECTID":463022},"geometry":{"x":169870.51999999862,"y":2541747.4700000025}},{"attributes":{"ID":463048,"DIS_CODE":0,"TOWNNAME":"東區","LI":"忠孝里","LIN":"36鄰","STREET":"榮譽街","SECT":" ","MAREA":" ","LANE":" ","ALLEY":" ","HOUSE_NO":"１２２號二樓","E_COORD97":169870.51999999999,"N_COORD97":2541747.4700000002,"ADDRESS":"榮譽街１２２號二樓","OBJECTID":463023},"geometry":{"x":169870.51999999862,"y":2541747.4700000025}},{"attributes":{"ID":463049,"DIS_CODE":0,"TOWNNAME":"東區","LI":"忠孝里","LIN":"36鄰","STREET":"榮譽街","SECT":" ","MAREA":" ","LANE":" ","ALLEY":" ","HOUSE_NO":"１２２號二樓之１","E_COORD97":169870.51999999999,"N_COORD97":2541747.4700000002,"ADDRESS":"榮譽街１２２號二樓之１","OBJECTID":463024},"geometry":{"x":169870.51999999862,"y":2541747.4700000025}},{"attributes":{"ID":463050,"DIS_CODE":0,"TOWNNAME":"東區","LI":"忠孝里","LIN":"36鄰","STREET":"榮譽街","SECT":" ","MAREA":" ","LANE":" ","ALLEY":" ","HOUSE_NO":"１２２號二樓之２","E_COORD97":169870.51999999999,"N_COORD97":2541747.4700000002,"ADDRESS":"榮譽街１２２號二樓之２","OBJECTID":463025},"geometry":{"x":169870.51999999862,"y":2541747.4700000025}},{"attributes":{"ID":463051,"DIS_CODE":0,"TOWNNAME":"東區","LI":"忠孝里","LIN":"36鄰","STREET":"榮譽街","SECT":" ","MAREA":" ","LANE":" ","ALLEY":" ","HOUSE_NO":"１２２號三樓","E_COORD97":169870.51999999999,"N_COORD97":2541747.4700000002,"ADDRESS":"榮譽街１２２號三樓","OBJECTID":463026},"geometry":{"x":169870.51999999862,"y":2541747.4700000025}},{"attributes":{"ID":463052,"DIS_CODE":0,"TOWNNAME":"東區","LI":"忠孝里","LIN":"36鄰","STREET":"榮譽街","SECT":" ","MAREA":" ","LANE":" ","ALLEY":" ","HOUSE_NO":"１２２號三樓之１","E_COORD97":169870.51999999999,"N_COORD97":2541747.4700000002,"ADDRESS":"榮譽街１２２號三樓之１","OBJECTID":463027},"geometry":{"x":169870.51999999862,"y":2541747.4700000025}},{"attributes":{"ID":463053,"DIS_CODE":0,"TOWNNAME":"東區","LI":"忠孝里","LIN":"36鄰","STREET":"榮譽街","SECT":" ","MAREA":" ","LANE":" ","ALLEY":" ","HOUSE_NO":"１２２號三樓之２","E_COORD97":169870.51999999999,"N_COORD97":2541747.4700000002,"ADDRESS":"榮譽街１２２號三樓之２","OBJECTID":463028},"geometry":{"x":169870.51999999862,"y":2541747.4700000025}},{"attributes":{"ID":463054,"DIS_CODE":0,"TOWNNAME":"東區","LI":"忠孝里","LIN":"36鄰","STREET":"榮譽街","SECT":" ","MAREA":" ","LANE":" ","ALLEY":" ","HOUSE_NO":"１２２號五樓","E_COORD97":169870.51999999999,"N_COORD97":2541747.4700000002,"ADDRESS":"榮譽街１２２號五樓","OBJECTID":463029},"geometry":{"x":169870.51999999862,"y":2541747.4700000025}},{"attributes":{"ID":463055,"DIS_CODE":0,"TOWNNAME":"安平區","LI":"育平里","LIN":"36鄰","STREET":"郡平路","SECT":" ","MAREA":" ","LANE":" ","ALLEY":" ","HOUSE_NO":"２９５號","E_COORD97":164346.64999999999,"N_COORD97":2543364.3700000001,"ADDRESS":"郡平路２９５號","OBJECTID":463030},"geometry":{"x":164346.6500000013,"y":2543364.370000001}},{"attributes":{"ID":463056,"DIS_CODE":0,"TOWNNAME":"東區","LI":"忠孝里","LIN":"36鄰","STREET":"榮譽街","SECT":" ","MAREA":" ","LANE":" ","ALLEY":" ","HOUSE_NO":"１２２號五樓之１","E_COORD97":169870.51999999999,"N_COORD97":2541747.4700000002,"ADDRESS":"榮譽街１２２號五樓之１","OBJECTID":463031},"geometry":{"x":169870.51999999862,"y":2541747.4700000025}},{"attributes":{"ID":463057,"DIS_CODE":0,"TOWNNAME":"東區","LI":"忠孝里","LIN":"36鄰","STREET":"榮譽街","SECT":" ","MAREA":" ","LANE":" ","ALLEY":" ","HOUSE_NO":"１２２號五樓之２","E_COORD97":169870.51999999999,"N_COORD97":2541747.4700000002,"ADDRESS":"榮譽街１２２號五樓之２","OBJECTID":463032},"geometry":{"x":169870.51999999862,"y":2541747.4700000025}},{"attributes":{"ID":463058,"DIS_CODE":0,"TOWNNAME":"東區","LI":"忠孝里","LIN":"36鄰","STREET":"榮譽街","SECT":" ","MAREA":" ","LANE":" ","ALLEY":" ","HOUSE_NO":"１２２號六樓","E_COORD97":169870.51999999999,"N_COORD97":2541747.4700000002,"ADDRESS":"榮譽街１２２號六樓","OBJECTID":463033},"geometry":{"x":169870.51999999862,"y":2541747.4700000025}},{"attributes":{"ID":463059,"DIS_CODE":0,"TOWNNAME":"東區","LI":"忠孝里","LIN":"36鄰","STREET":"榮譽街","SECT":" ","MAREA":" ","LANE":" ","ALLEY":" ","HOUSE_NO":"１２２號六樓之１","E_COORD97":169870.51999999999,"N_COORD97":2541747.4700000002,"ADDRESS":"榮譽街１２２號六樓之１","OBJECTID":463034},"geometry":{"x":169870.51999999862,"y":2541747.4700000025}},{"attributes":{"ID":463060,"DIS_CODE":0,"TOWNNAME":"東區","LI":"忠孝里","LIN":"36鄰","STREET":"榮譽街","SECT":" ","MAREA":" ","LANE":" ","ALLEY":" ","HOUSE_NO":"１２２號六樓之２","E_COORD97":169870.51999999999,"N_COORD97":2541747.4700000002,"ADDRESS":"榮譽街１２２號六樓之２","OBJECTID":463035},"geometry":{"x":169870.51999999862,"y":2541747.4700000025}},{"attributes":{"ID":463061,"DIS_CODE":0,"TOWNNAME":"東區","LI":"忠孝里","LIN":"36鄰","STREET":"榮譽街","SECT":" ","MAREA":" ","LANE":" ","ALLEY":" ","HOUSE_NO":"１２２號四樓","E_COORD97":169870.51999999999,"N_COORD97":2541747.4700000002,"ADDRESS":"榮譽街１２２號四樓","OBJECTID":463036},"geometry":{"x":169870.51999999862,"y":2541747.4700000025}},{"attributes":{"ID":463062,"DIS_CODE":0,"TOWNNAME":"東區","LI":"忠孝里","LIN":"36鄰","STREET":"榮譽街","SECT":" ","MAREA":" ","LANE":" ","ALLEY":" ","HOUSE_NO":"１２２號四樓之１","E_COORD97":169870.51999999999,"N_COORD97":2541747.4700000002,"ADDRESS":"榮譽街１２２號四樓之１","OBJECTID":463037},"geometry":{"x":169870.51999999862,"y":2541747.4700000025}},{"attributes":{"ID":463063,"DIS_CODE":0,"TOWNNAME":"東區","LI":"忠孝里","LIN":"36鄰","STREET":"榮譽街","SECT":" ","MAREA":" ","LANE":" ","ALLEY":" ","HOUSE_NO":"１２２號四樓之２","E_COORD97":169870.51999999999,"N_COORD97":2541747.4700000002,"ADDRESS":"榮譽街１２２號四樓之２","OBJECTID":463038},"geometry":{"x":169870.51999999862,"y":2541747.4700000025}},{"attributes":{"ID":463064,"DIS_CODE":0,"TOWNNAME":"東區","LI":"忠孝里","LIN":"36鄰","STREET":"榮譽街","SECT":" ","MAREA":" ","LANE":" ","ALLEY":" ","HOUSE_NO":"１２４號七樓","E_COORD97":169874.89999999999,"N_COORD97":2541750.2200000002,"ADDRESS":"榮譽街１２４號七樓","OBJECTID":463039},"geometry":{"x":169874.90000000037,"y":2541750.2200000007}},{"attributes":{"ID":463065,"DIS_CODE":0,"TOWNNAME":"東區","LI":"忠孝里","LIN":"36鄰","STREET":"榮譽街","SECT":" ","MAREA":" ","LANE":" ","ALLEY":" ","HOUSE_NO":"１２４號七樓之１","E_COORD97":169874.89999999999,"N_COORD97":2541750.2200000002,"ADDRESS":"榮譽街１２４號七樓之１","OBJECTID":463040},"geometry":{"x":169874.90000000037,"y":2541750.2200000007}},{"attributes":{"ID":463066,"DIS_CODE":0,"TOWNNAME":"東區","LI":"忠孝里","LIN":"36鄰","STREET":"榮譽街","SECT":" ","MAREA":" ","LANE":" ","ALLEY":" ","HOUSE_NO":"１２４號七樓之２","E_COORD97":169874.89999999999,"N_COORD97":2541750.2200000002,"ADDRESS":"榮譽街１２４號七樓之２","OBJECTID":463041},"geometry":{"x":169874.90000000037,"y":2541750.2200000007}},{"attributes":{"ID":463067,"DIS_CODE":0,"TOWNNAME":"東區","LI":"忠孝里","LIN":"36鄰","STREET":"榮譽街","SECT":" ","MAREA":" ","LANE":" ","ALLEY":" ","HOUSE_NO":"１２４號二樓","E_COORD97":169874.89999999999,"N_COORD97":2541750.2200000002,"ADDRESS":"榮譽街１２４號二樓","OBJECTID":463042},"geometry":{"x":169874.90000000037,"y":2541750.2200000007}},{"attributes":{"ID":463068,"DIS_CODE":0,"TOWNNAME":"東區","LI":"忠孝里","LIN":"36鄰","STREET":"榮譽街","SECT":" ","MAREA":" ","LANE":" ","ALLEY":" ","HOUSE_NO":"１２４號二樓之１","E_COORD97":169874.89999999999,"N_COORD97":2541750.2200000002,"ADDRESS":"榮譽街１２４號二樓之１","OBJECTID":463043},"geometry":{"x":169874.90000000037,"y":2541750.2200000007}},{"attributes":{"ID":463069,"DIS_CODE":0,"TOWNNAME":"東區","LI":"忠孝里","LIN":"36鄰","STREET":"榮譽街","SECT":" ","MAREA":" ","LANE":" ","ALLEY":" ","HOUSE_NO":"１２４號二樓之２","E_COORD97":169874.89999999999,"N_COORD97":2541750.2200000002,"ADDRESS":"榮譽街１２４號二樓之２","OBJECTID":463044},"geometry":{"x":169874.90000000037,"y":2541750.2200000007}},{"attributes":{"ID":463070,"DIS_CODE":0,"TOWNNAME":"東區","LI":"忠孝里","LIN":"36鄰","STREET":"榮譽街","SECT":" ","MAREA":" ","LANE":" ","ALLEY":" ","HOUSE_NO":"１２４號三樓","E_COORD97":169874.89999999999,"N_COORD97":2541750.2200000002,"ADDRESS":"榮譽街１２４號三樓","OBJECTID":463045},"geometry":{"x":169874.90000000037,"y":2541750.2200000007}},{"attributes":{"ID":463071,"DIS_CODE":0,"TOWNNAME":"東區","LI":"忠孝里","LIN":"36鄰","STREET":"榮譽街","SECT":" ","MAREA":" ","LANE":" ","ALLEY":" ","HOUSE_NO":"１２４號三樓之１","E_COORD97":169874.89999999999,"N_COORD97":2541750.2200000002,"ADDRESS":"榮譽街１２４號三樓之１","OBJECTID":463046},"geometry":{"x":169874.90000000037,"y":2541750.2200000007}},{"attributes":{"ID":463072,"DIS_CODE":0,"TOWNNAME":"東區","LI":"忠孝里","LIN":"36鄰","STREET":"榮譽街","SECT":" ","MAREA":" ","LANE":" ","ALLEY":" ","HOUSE_NO":"１２４號三樓之２","E_COORD97":169874.89999999999,"N_COORD97":2541750.2200000002,"ADDRESS":"榮譽街１２４號三樓之２","OBJECTID":463047},"geometry":{"x":169874.90000000037,"y":2541750.2200000007}},{"attributes":{"ID":463073,"DIS_CODE":0,"TOWNNAME":"永康區","LI":"勝利里","LIN":"36鄰","STREET":"勝學路","SECT":" ","MAREA":" ","LANE":" ","ALLEY":" ","HOUSE_NO":"７０號","E_COORD97":171162.42999999999,"N_COORD97":2544765.5099999998,"ADDRESS":"勝學路７０號","OBJECTID":463048},"geometry":{"x":171162.4299999997,"y":2544765.5099999998}},{"attributes":{"ID":463074,"DIS_CODE":0,"TOWNNAME":"東區","LI":"忠孝里","LIN":"36鄰","STREET":"榮譽街","SECT":" ","MAREA":" ","LANE":" ","ALLEY":" ","HOUSE_NO":"１２４號五樓","E_COORD97":169874.89999999999,"N_COORD97":2541750.2200000002,"ADDRESS":"榮譽街１２４號五樓","OBJECTID":463049},"geometry":{"x":169874.90000000037,"y":2541750.2200000007}},{"attributes":{"ID":463075,"DIS_CODE":0,"TOWNNAME":"東區","LI":"忠孝里","LIN":"36鄰","STREET":"榮譽街","SECT":" ","MAREA":" ","LANE":" ","ALLEY":" ","HOUSE_NO":"１２４號五樓之１","E_COORD97":169874.89999999999,"N_COORD97":2541750.2200000002,"ADDRESS":"榮譽街１２４號五樓之１","OBJECTID":463050},"geometry":{"x":169874.90000000037,"y":2541750.2200000007}},{"attributes":{"ID":463076,"DIS_CODE":0,"TOWNNAME":"東區","LI":"忠孝里","LIN":"36鄰","STREET":"榮譽街","SECT":" ","MAREA":" ","LANE":" ","ALLEY":" ","HOUSE_NO":"１２４號五樓之２","E_COORD97":169874.89999999999,"N_COORD97":2541750.2200000002,"ADDRESS":"榮譽街１２４號五樓之２","OBJECTID":463051},"geometry":{"x":169874.90000000037,"y":2541750.2200000007}},{"attributes":{"ID":463077,"DIS_CODE":0,"TOWNNAME":"東區","LI":"忠孝里","LIN":"36鄰","STREET":"榮譽街","SECT":" ","MAREA":" ","LANE":" ","ALLEY":" ","HOUSE_NO":"１２４號六樓","E_COORD97":169874.89999999999,"N_COORD97":2541750.2200000002,"ADDRESS":"榮譽街１２４號六樓","OBJECTID":463052},"geometry":{"x":169874.90000000037,"y":2541750.2200000007}},{"attributes":{"ID":463078,"DIS_CODE":0,"TOWNNAME":"東區","LI":"忠孝里","LIN":"36鄰","STREET":"榮譽街","SECT":" ","MAREA":" ","LANE":" ","ALLEY":" ","HOUSE_NO":"１２４號六樓之１","E_COORD97":169874.89999999999,"N_COORD97":2541750.2200000002,"ADDRESS":"榮譽街１２４號六樓之１","OBJECTID":463053},"geometry":{"x":169874.90000000037,"y":2541750.2200000007}},{"attributes":{"ID":463079,"DIS_CODE":0,"TOWNNAME":"東區","LI":"忠孝里","LIN":"36鄰","STREET":"榮譽街","SECT":" ","MAREA":" ","LANE":" ","ALLEY":" ","HOUSE_NO":"１２４號六樓之２","E_COORD97":169874.89999999999,"N_COORD97":2541750.2200000002,"ADDRESS":"榮譽街１２４號六樓之２","OBJECTID":463054},"geometry":{"x":169874.90000000037,"y":2541750.2200000007}},{"attributes":{"ID":463080,"DIS_CODE":0,"TOWNNAME":"東區","LI":"忠孝里","LIN":"36鄰","STREET":"榮譽街","SECT":" ","MAREA":" ","LANE":" ","ALLEY":" ","HOUSE_NO":"１２４號四樓","E_COORD97":169874.89999999999,"N_COORD97":2541750.2200000002,"ADDRESS":"榮譽街１２４號四樓","OBJECTID":463055},"geometry":{"x":169874.90000000037,"y":2541750.2200000007}},{"attributes":{"ID":463081,"DIS_CODE":0,"TOWNNAME":"東區","LI":"忠孝里","LIN":"36鄰","STREET":"榮譽街","SECT":" ","MAREA":" ","LANE":" ","ALLEY":" ","HOUSE_NO":"１２４號四樓之１","E_COORD97":169874.89999999999,"N_COORD97":2541750.2200000002,"ADDRESS":"榮譽街１２４號四樓之１","OBJECTID":463056},"geometry":{"x":169874.90000000037,"y":2541750.2200000007}},{"attributes":{"ID":463082,"DIS_CODE":0,"TOWNNAME":"東區","LI":"忠孝里","LIN":"36鄰","STREET":"榮譽街","SECT":" ","MAREA":" ","LANE":" ","ALLEY":" ","HOUSE_NO":"１２４號四樓之２","E_COORD97":169874.89999999999,"N_COORD97":2541750.2200000002,"ADDRESS":"榮譽街１２４號四樓之２","OBJECTID":463057},"geometry":{"x":169874.90000000037,"y":2541750.2200000007}},{"attributes":{"ID":463083,"DIS_CODE":0,"TOWNNAME":"東區","LI":"忠孝里","LIN":"36鄰","STREET":"榮譽街","SECT":" ","MAREA":" ","LANE":" ","ALLEY":" ","HOUSE_NO":"１２６號七樓","E_COORD97":169879.76000000001,"N_COORD97":2541752.9700000002,"ADDRESS":"榮譽街１２６號七樓","OBJECTID":463058},"geometry":{"x":169879.76000000071,"y":2541752.9700000007}},{"attributes":{"ID":463084,"DIS_CODE":0,"TOWNNAME":"東區","LI":"忠孝里","LIN":"36鄰","STREET":"榮譽街","SECT":" ","MAREA":" ","LANE":" ","ALLEY":" ","HOUSE_NO":"１２６號七樓之１","E_COORD97":169879.76000000001,"N_COORD97":2541752.9700000002,"ADDRESS":"榮譽街１２６號七樓之１","OBJECTID":463059},"geometry":{"x":169879.76000000071,"y":2541752.9700000007}},{"attributes":{"ID":463085,"DIS_CODE":0,"TOWNNAME":"東區","LI":"忠孝里","LIN":"36鄰","STREET":"榮譽街","SECT":" ","MAREA":" ","LANE":" ","ALLEY":" ","HOUSE_NO":"１２６號七樓之２","E_COORD97":169879.76000000001,"N_COORD97":2541752.9700000002,"ADDRESS":"榮譽街１２６號七樓之２","OBJECTID":463060},"geometry":{"x":169879.76000000071,"y":2541752.9700000007}},{"attributes":{"ID":463086,"DIS_CODE":0,"TOWNNAME":"東區","LI":"忠孝里","LIN":"36鄰","STREET":"榮譽街","SECT":" ","MAREA":" ","LANE":" ","ALLEY":" ","HOUSE_NO":"１２６號二樓","E_COORD97":169879.76000000001,"N_COORD97":2541752.9700000002,"ADDRESS":"榮譽街１２６號二樓","OBJECTID":463061},"geometry":{"x":169879.76000000071,"y":2541752.9700000007}},{"attributes":{"ID":463087,"DIS_CODE":0,"TOWNNAME":"東區","LI":"忠孝里","LIN":"36鄰","STREET":"榮譽街","SECT":" ","MAREA":" ","LANE":" ","ALLEY":" ","HOUSE_NO":"１２６號二樓之１","E_COORD97":169879.76000000001,"N_COORD97":2541752.9700000002,"ADDRESS":"榮譽街１２６號二樓之１","OBJECTID":463062},"geometry":{"x":169879.76000000071,"y":2541752.9700000007}},{"attributes":{"ID":463088,"DIS_CODE":0,"TOWNNAME":"東區","LI":"忠孝里","LIN":"36鄰","STREET":"榮譽街","SECT":" ","MAREA":" ","LANE":" ","ALLEY":" ","HOUSE_NO":"１２６號二樓之２","E_COORD97":169879.76000000001,"N_COORD97":2541752.9700000002,"ADDRESS":"榮譽街１２６號二樓之２","OBJECTID":463063},"geometry":{"x":169879.76000000071,"y":2541752.9700000007}},{"attributes":{"ID":463089,"DIS_CODE":0,"TOWNNAME":"東區","LI":"忠孝里","LIN":"36鄰","STREET":"榮譽街","SECT":" ","MAREA":" ","LANE":" ","ALLEY":" ","HOUSE_NO":"１２６號三樓","E_COORD97":169879.76000000001,"N_COORD97":2541752.9700000002,"ADDRESS":"榮譽街１２６號三樓","OBJECTID":463064},"geometry":{"x":169879.76000000071,"y":2541752.9700000007}},{"attributes":{"ID":463090,"DIS_CODE":0,"TOWNNAME":"東區","LI":"忠孝里","LIN":"36鄰","STREET":"榮譽街","SECT":" ","MAREA":" ","LANE":" ","ALLEY":" ","HOUSE_NO":"１２６號三樓之１","E_COORD97":169879.76000000001,"N_COORD97":2541752.9700000002,"ADDRESS":"榮譽街１２６號三樓之１","OBJECTID":463065},"geometry":{"x":169879.76000000071,"y":2541752.9700000007}},{"attributes":{"ID":463091,"DIS_CODE":0,"TOWNNAME":"東區","LI":"忠孝里","LIN":"36鄰","STREET":"榮譽街","SECT":" ","MAREA":" ","LANE":" ","ALLEY":" ","HOUSE_NO":"１２６號三樓之２","E_COORD97":169879.76000000001,"N_COORD97":2541752.9700000002,"ADDRESS":"榮譽街１２６號三樓之２","OBJECTID":463066},"geometry":{"x":169879.76000000071,"y":2541752.9700000007}},{"attributes":{"ID":463092,"DIS_CODE":0,"TOWNNAME":"東區","LI":"忠孝里","LIN":"36鄰","STREET":"榮譽街","SECT":" ","MAREA":" ","LANE":" ","ALLEY":" ","HOUSE_NO":"１２６號五樓","E_COORD97":169879.76000000001,"N_COORD97":2541752.9700000002,"ADDRESS":"榮譽街１２６號五樓","OBJECTID":463067},"geometry":{"x":169879.76000000071,"y":2541752.9700000007}},{"attributes":{"ID":463093,"DIS_CODE":0,"TOWNNAME":"東區","LI":"忠孝里","LIN":"36鄰","STREET":"榮譽街","SECT":" ","MAREA":" ","LANE":" ","ALLEY":" ","HOUSE_NO":"１２６號五樓之１","E_COORD97":169879.76000000001,"N_COORD97":2541752.9700000002,"ADDRESS":"榮譽街１２６號五樓之１","OBJECTID":463068},"geometry":{"x":169879.76000000071,"y":2541752.9700000007}},{"attributes":{"ID":463094,"DIS_CODE":0,"TOWNNAME":"東區","LI":"忠孝里","LIN":"36鄰","STREET":"榮譽街","SECT":" ","MAREA":" ","LANE":" ","ALLEY":" ","HOUSE_NO":"１２６號五樓之２","E_COORD97":169879.76000000001,"N_COORD97":2541752.9700000002,"ADDRESS":"榮譽街１２６號五樓之２","OBJECTID":463069},"geometry":{"x":169879.76000000071,"y":2541752.9700000007}},{"attributes":{"ID":463095,"DIS_CODE":0,"TOWNNAME":"東區","LI":"忠孝里","LIN":"36鄰","STREET":"榮譽街","SECT":" ","MAREA":" ","LANE":" ","ALLEY":" ","HOUSE_NO":"１２６號六樓","E_COORD97":169879.76000000001,"N_COORD97":2541752.9700000002,"ADDRESS":"榮譽街１２６號六樓","OBJECTID":463070},"geometry":{"x":169879.76000000071,"y":2541752.9700000007}},{"attributes":{"ID":463096,"DIS_CODE":0,"TOWNNAME":"東區","LI":"忠孝里","LIN":"36鄰","STREET":"榮譽街","SECT":" ","MAREA":" ","LANE":" ","ALLEY":" ","HOUSE_NO":"１２６號六樓之１","E_COORD97":169879.76000000001,"N_COORD97":2541752.9700000002,"ADDRESS":"榮譽街１２６號六樓之１","OBJECTID":463071},"geometry":{"x":169879.76000000071,"y":2541752.9700000007}},{"attributes":{"ID":463097,"DIS_CODE":0,"TOWNNAME":"東區","LI":"忠孝里","LIN":"36鄰","STREET":"榮譽街","SECT":" ","MAREA":" ","LANE":" ","ALLEY":" ","HOUSE_NO":"１２６號六樓之２","E_COORD97":169879.76000000001,"N_COORD97":2541752.9700000002,"ADDRESS":"榮譽街１２６號六樓之２","OBJECTID":463072},"geometry":{"x":169879.76000000071,"y":2541752.9700000007}},{"attributes":{"ID":463098,"DIS_CODE":0,"TOWNNAME":"東區","LI":"忠孝里","LIN":"36鄰","STREET":"榮譽街","SECT":" ","MAREA":" ","LANE":" ","ALLEY":" ","HOUSE_NO":"１２６號四樓","E_COORD97":169879.76000000001,"N_COORD97":2541752.9700000002,"ADDRESS":"榮譽街１２６號四樓","OBJECTID":463073},"geometry":{"x":169879.76000000071,"y":2541752.9700000007}},{"attributes":{"ID":463099,"DIS_CODE":0,"TOWNNAME":"東區","LI":"忠孝里","LIN":"36鄰","STREET":"榮譽街","SECT":" ","MAREA":" ","LANE":" ","ALLEY":" ","HOUSE_NO":"１２６號四樓之１","E_COORD97":169879.76000000001,"N_COORD97":2541752.9700000002,"ADDRESS":"榮譽街１２６號四樓之１","OBJECTID":463074},"geometry":{"x":169879.76000000071,"y":2541752.9700000007}},{"attributes":{"ID":463100,"DIS_CODE":0,"TOWNNAME":"東區","LI":"忠孝里","LIN":"36鄰","STREET":"榮譽街","SECT":" ","MAREA":" ","LANE":" ","ALLEY":" ","HOUSE_NO":"１２６號四樓之２","E_COORD97":169879.76000000001,"N_COORD97":2541752.9700000002,"ADDRESS":"榮譽街１２６號四樓之２","OBJECTID":463075},"geometry":{"x":169879.76000000071,"y":2541752.9700000007}},{"attributes":{"ID":463101,"DIS_CODE":0,"TOWNNAME":"東區","LI":"忠孝里","LIN":"36鄰","STREET":"榮譽街","SECT":" ","MAREA":" ","LANE":" ","ALLEY":" ","HOUSE_NO":"１２８號七樓","E_COORD97":169884.29999999999,"N_COORD97":2541755.2400000002,"ADDRESS":"榮譽街１２８號七樓","OBJECTID":463076},"geometry":{"x":169884.30000000168,"y":2541755.2400000021}},{"attributes":{"ID":463102,"DIS_CODE":0,"TOWNNAME":"東區","LI":"忠孝里","LIN":"36鄰","STREET":"榮譽街","SECT":" ","MAREA":" ","LANE":" ","ALLEY":" ","HOUSE_NO":"１２８號七樓之１","E_COORD97":169884.29999999999,"N_COORD97":2541755.2400000002,"ADDRESS":"榮譽街１２８號七樓之１","OBJECTID":463077},"geometry":{"x":169884.30000000168,"y":2541755.2400000021}},{"attributes":{"ID":463103,"DIS_CODE":0,"TOWNNAME":"東區","LI":"忠孝里","LIN":"36鄰","STREET":"榮譽街","SECT":" ","MAREA":" ","LANE":" ","ALLEY":" ","HOUSE_NO":"１２８號七樓之２","E_COORD97":169884.29999999999,"N_COORD97":2541755.2400000002,"ADDRESS":"榮譽街１２８號七樓之２","OBJECTID":463078},"geometry":{"x":169884.30000000168,"y":2541755.2400000021}},{"attributes":{"ID":463104,"DIS_CODE":0,"TOWNNAME":"東區","LI":"忠孝里","LIN":"36鄰","STREET":"榮譽街","SECT":" ","MAREA":" ","LANE":" ","ALLEY":" ","HOUSE_NO":"１２８號二樓","E_COORD97":169884.29999999999,"N_COORD97":2541755.2400000002,"ADDRESS":"榮譽街１２８號二樓","OBJECTID":463079},"geometry":{"x":169884.30000000168,"y":2541755.2400000021}},{"attributes":{"ID":463105,"DIS_CODE":0,"TOWNNAME":"東區","LI":"忠孝里","LIN":"36鄰","STREET":"榮譽街","SECT":" ","MAREA":" ","LANE":" ","ALLEY":" ","HOUSE_NO":"１２８號二樓之１","E_COORD97":169884.29999999999,"N_COORD97":2541755.2400000002,"ADDRESS":"榮譽街１２８號二樓之１","OBJECTID":463080},"geometry":{"x":169884.30000000168,"y":2541755.2400000021}},{"attributes":{"ID":463106,"DIS_CODE":0,"TOWNNAME":"東區","LI":"忠孝里","LIN":"36鄰","STREET":"榮譽街","SECT":" ","MAREA":" ","LANE":" ","ALLEY":" ","HOUSE_NO":"１２８號二樓之２","E_COORD97":169884.29999999999,"N_COORD97":2541755.2400000002,"ADDRESS":"榮譽街１２８號二樓之２","OBJECTID":463081},"geometry":{"x":169884.30000000168,"y":2541755.2400000021}},{"attributes":{"ID":463107,"DIS_CODE":0,"TOWNNAME":"東區","LI":"忠孝里","LIN":"36鄰","STREET":"榮譽街","SECT":" ","MAREA":" ","LANE":" ","ALLEY":" ","HOUSE_NO":"１２８號三樓","E_COORD97":169884.29999999999,"N_COORD97":2541755.2400000002,"ADDRESS":"榮譽街１２８號三樓","OBJECTID":463082},"geometry":{"x":169884.30000000168,"y":2541755.2400000021}},{"attributes":{"ID":463108,"DIS_CODE":0,"TOWNNAME":"東區","LI":"忠孝里","LIN":"36鄰","STREET":"榮譽街","SECT":" ","MAREA":" ","LANE":" ","ALLEY":" ","HOUSE_NO":"１２８號三樓之１","E_COORD97":169884.29999999999,"N_COORD97":2541755.2400000002,"ADDRESS":"榮譽街１２８號三樓之１","OBJECTID":463083},"geometry":{"x":169884.30000000168,"y":2541755.2400000021}},{"attributes":{"ID":463109,"DIS_CODE":0,"TOWNNAME":"東區","LI":"忠孝里","LIN":"36鄰","STREET":"榮譽街","SECT":" ","MAREA":" ","LANE":" ","ALLEY":" ","HOUSE_NO":"１２８號三樓之２","E_COORD97":169884.29999999999,"N_COORD97":2541755.2400000002,"ADDRESS":"榮譽街１２８號三樓之２","OBJECTID":463084},"geometry":{"x":169884.30000000168,"y":2541755.2400000021}},{"attributes":{"ID":463110,"DIS_CODE":0,"TOWNNAME":"東區","LI":"忠孝里","LIN":"36鄰","STREET":"榮譽街","SECT":" ","MAREA":" ","LANE":" ","ALLEY":" ","HOUSE_NO":"１２８號五樓","E_COORD97":169884.29999999999,"N_COORD97":2541755.2400000002,"ADDRESS":"榮譽街１２８號五樓","OBJECTID":463085},"geometry":{"x":169884.30000000168,"y":2541755.2400000021}},{"attributes":{"ID":463111,"DIS_CODE":0,"TOWNNAME":"東區","LI":"忠孝里","LIN":"36鄰","STREET":"榮譽街","SECT":" ","MAREA":" ","LANE":" ","ALLEY":" ","HOUSE_NO":"１２８號五樓之１","E_COORD97":169884.29999999999,"N_COORD97":2541755.2400000002,"ADDRESS":"榮譽街１２８號五樓之１","OBJECTID":463086},"geometry":{"x":169884.30000000168,"y":2541755.2400000021}},{"attributes":{"ID":463112,"DIS_CODE":0,"TOWNNAME":"東區","LI":"忠孝里","LIN":"36鄰","STREET":"榮譽街","SECT":" ","MAREA":" ","LANE":" ","ALLEY":" ","HOUSE_NO":"１２８號五樓之２","E_COORD97":169884.29999999999,"N_COORD97":2541755.2400000002,"ADDRESS":"榮譽街１２８號五樓之２","OBJECTID":463087},"geometry":{"x":169884.30000000168,"y":2541755.2400000021}},{"attributes":{"ID":463113,"DIS_CODE":0,"TOWNNAME":"東區","LI":"忠孝里","LIN":"36鄰","STREET":"榮譽街","SECT":" ","MAREA":" ","LANE":" ","ALLEY":" ","HOUSE_NO":"１２８號六樓","E_COORD97":169884.29999999999,"N_COORD97":2541755.2400000002,"ADDRESS":"榮譽街１２８號六樓","OBJECTID":463088},"geometry":{"x":169884.30000000168,"y":2541755.2400000021}},{"attributes":{"ID":463114,"DIS_CODE":0,"TOWNNAME":"東區","LI":"忠孝里","LIN":"36鄰","STREET":"榮譽街","SECT":" ","MAREA":" ","LANE":" ","ALLEY":" ","HOUSE_NO":"１２８號六樓之１","E_COORD97":169884.29999999999,"N_COORD97":2541755.2400000002,"ADDRESS":"榮譽街１２８號六樓之１","OBJECTID":463089},"geometry":{"x":169884.30000000168,"y":2541755.2400000021}},{"attributes":{"ID":463115,"DIS_CODE":0,"TOWNNAME":"東區","LI":"忠孝里","LIN":"36鄰","STREET":"榮譽街","SECT":" ","MAREA":" ","LANE":" ","ALLEY":" ","HOUSE_NO":"１２８號六樓之２","E_COORD97":169884.29999999999,"N_COORD97":2541755.2400000002,"ADDRESS":"榮譽街１２８號六樓之２","OBJECTID":463090},"geometry":{"x":169884.30000000168,"y":2541755.2400000021}},{"attributes":{"ID":463116,"DIS_CODE":0,"TOWNNAME":"東區","LI":"忠孝里","LIN":"36鄰","STREET":"榮譽街","SECT":" ","MAREA":" ","LANE":" ","ALLEY":" ","HOUSE_NO":"１２８號四樓","E_COORD97":169884.29999999999,"N_COORD97":2541755.2400000002,"ADDRESS":"榮譽街１２８號四樓","OBJECTID":463091},"geometry":{"x":169884.30000000168,"y":2541755.2400000021}},{"attributes":{"ID":463117,"DIS_CODE":0,"TOWNNAME":"東區","LI":"忠孝里","LIN":"36鄰","STREET":"榮譽街","SECT":" ","MAREA":" ","LANE":" ","ALLEY":" ","HOUSE_NO":"１２８號四樓之１","E_COORD97":169884.29999999999,"N_COORD97":2541755.2400000002,"ADDRESS":"榮譽街１２８號四樓之１","OBJECTID":463092},"geometry":{"x":169884.30000000168,"y":2541755.2400000021}},{"attributes":{"ID":463118,"DIS_CODE":0,"TOWNNAME":"東區","LI":"忠孝里","LIN":"36鄰","STREET":"榮譽街","SECT":" ","MAREA":" ","LANE":" ","ALLEY":" ","HOUSE_NO":"１２８號四樓之２","E_COORD97":169884.29999999999,"N_COORD97":2541755.2400000002,"ADDRESS":"榮譽街１２８號四樓之２","OBJECTID":463093},"geometry":{"x":169884.30000000168,"y":2541755.2400000021}},{"attributes":{"ID":463119,"DIS_CODE":0,"TOWNNAME":"永康區","LI":"永康里","LIN":"36鄰","STREET":"大同街","SECT":" ","MAREA":" ","LANE":" ","ALLEY":" ","HOUSE_NO":"７７３號十一樓之２","E_COORD97":174446.97,"N_COORD97":2546922.3300000001,"ADDRESS":"大同街７７３號十一樓之２","OBJECTID":463094},"geometry":{"x":174446.97000000067,"y":2546922.3300000019}},{"attributes":{"ID":463120,"DIS_CODE":0,"TOWNNAME":"永康區","LI":"永康里","LIN":"36鄰","STREET":"大同街","SECT":" ","MAREA":" ","LANE":" ","ALLEY":" ","HOUSE_NO":"７７５號七樓之１","E_COORD97":174428.64999999999,"N_COORD97":2546914.0699999998,"ADDRESS":"大同街７７５號七樓之１","OBJECTID":463095},"geometry":{"x":174428.65000000037,"y":2546914.0700000022}},{"attributes":{"ID":463121,"DIS_CODE":0,"TOWNNAME":"永康區","LI":"永康里","LIN":"36鄰","STREET":"大同街","SECT":" ","MAREA":" ","LANE":" ","ALLEY":" ","HOUSE_NO":"７７３號三樓","E_COORD97":174443.45000000001,"N_COORD97":2546922.29,"ADDRESS":"大同街７７３號三樓","OBJECTID":463096},"geometry":{"x":174443.45000000019,"y":2546922.2899999991}},{"attributes":{"ID":463122,"DIS_CODE":0,"TOWNNAME":"永康區","LI":"永康里","LIN":"36鄰","STREET":"大同街","SECT":" ","MAREA":" ","LANE":" ","ALLEY":" ","HOUSE_NO":"７７３號七樓之１","E_COORD97":174445.57999999999,"N_COORD97":2546922.3300000001,"ADDRESS":"大同街７７３號七樓之１","OBJECTID":463097},"geometry":{"x":174445.58000000007,"y":2546922.3300000019}},{"attributes":{"ID":463123,"DIS_CODE":0,"TOWNNAME":"永康區","LI":"永康里","LIN":"36鄰","STREET":"大同街","SECT":" ","MAREA":" ","LANE":" ","ALLEY":" ","HOUSE_NO":"７７５號五樓之１","E_COORD97":174428.64999999999,"N_COORD97":2546914.0699999998,"ADDRESS":"大同街７７５號五樓之１","OBJECTID":463098},"geometry":{"x":174428.65000000037,"y":2546914.0700000022}},{"attributes":{"ID":463124,"DIS_CODE":0,"TOWNNAME":"永康區","LI":"永康里","LIN":"36鄰","STREET":"大同街","SECT":" ","MAREA":" ","LANE":" ","ALLEY":" ","HOUSE_NO":"７７５號十一樓之３","E_COORD97":174430,"N_COORD97":2546914.0699999998,"ADDRESS":"大同街７７５號十一樓之３","OBJECTID":463099},"geometry":{"x":174430.00000000093,"y":2546914.0700000022}},{"attributes":{"ID":463125,"DIS_CODE":0,"TOWNNAME":"佳里區","LI":"鎮山里","LIN":"20鄰","STREET":"鎮山街","SECT":" ","MAREA":" ","LANE":" ","ALLEY":" ","HOUSE_NO":"１５６號","E_COORD97":166267.54999999999,"N_COORD97":2560989.3999999999,"ADDRESS":"鎮山街１５６號","OBJECTID":463100},"geometry":{"x":166267.54999999981,"y":2560989.4000000004}},{"attributes":{"ID":463126,"DIS_CODE":0,"TOWNNAME":"永康區","LI":"永康里","LIN":"36鄰","STREET":"大同街","SECT":" ","MAREA":" ","LANE":" ","ALLEY":" ","HOUSE_NO":"７７３號五樓之１","E_COORD97":174445.57999999999,"N_COORD97":2546922.3300000001,"ADDRESS":"大同街７７３號五樓之１","OBJECTID":463101},"geometry":{"x":174445.58000000007,"y":2546922.3300000019}},{"attributes":{"ID":463127,"DIS_CODE":0,"TOWNNAME":"永康區","LI":"永康里","LIN":"36鄰","STREET":"大同街","SECT":" ","MAREA":" ","LANE":" ","ALLEY":" ","HOUSE_NO":"７７７號九樓之３","E_COORD97":174413.20000000001,"N_COORD97":2546909.8199999998,"ADDRESS":"大同街７７７號九樓之３","OBJECTID":463102},"geometry":{"x":174413.20000000205,"y":2546909.8200000003}},{"attributes":{"ID":463128,"DIS_CODE":0,"TOWNNAME":"永康區","LI":"永康里","LIN":"36鄰","STREET":"大同街","SECT":" ","MAREA":" ","LANE":" ","ALLEY":" ","HOUSE_NO":"７７５號八樓之３","E_COORD97":174428.75,"N_COORD97":2546914.0699999998,"ADDRESS":"大同街７７５號八樓之３","OBJECTID":463103},"geometry":{"x":174428.75,"y":2546914.0700000022}},{"attributes":{"ID":463129,"DIS_CODE":0,"TOWNNAME":"永康區","LI":"永康里","LIN":"36鄰","STREET":"大同街","SECT":" ","MAREA":" ","LANE":" ","ALLEY":" ","HOUSE_NO":"７７３號六樓之３","E_COORD97":174445.67999999999,"N_COORD97":2546922.3300000001,"ADDRESS":"大同街７７３號六樓之３","OBJECTID":463104},"geometry":{"x":174445.68000000063,"y":2546922.3300000019}},{"attributes":{"ID":463130,"DIS_CODE":0,"TOWNNAME":"安南區","LI":"\u25A0南里","LIN":"13鄰","STREET":"安昌街","SECT":" ","MAREA":" ","LANE":"１０６巷","ALLEY":" ","HOUSE_NO":"６號","E_COORD97":169984.91,"N_COORD97":2552208.3399999999,"ADDRESS":"安昌街１０６巷６號","OBJECTID":463105},"geometry":{"x":169984.91000000015,"y":2552208.3399999999}},{"attributes":{"ID":463131,"DIS_CODE":0,"TOWNNAME":"永康區","LI":"永康里","LIN":"36鄰","STREET":"大同街","SECT":" ","MAREA":" ","LANE":" ","ALLEY":" ","HOUSE_NO":"７７５號四樓之１","E_COORD97":174428.64999999999,"N_COORD97":2546914.0699999998,"ADDRESS":"大同街７７５號四樓之１","OBJECTID":463106},"geometry":{"x":174428.65000000037,"y":2546914.0700000022}},{"attributes":{"ID":463132,"DIS_CODE":0,"TOWNNAME":"永康區","LI":"永康里","LIN":"36鄰","STREET":"大同街","SECT":" ","MAREA":" ","LANE":" ","ALLEY":" ","HOUSE_NO":"７７７號九樓之２","E_COORD97":174413.23999999999,"N_COORD97":2546909.8199999998,"ADDRESS":"大同街７７７號九樓之２","OBJECTID":463107},"geometry":{"x":174413.24000000115,"y":2546909.8200000003}},{"attributes":{"ID":463133,"DIS_CODE":0,"TOWNNAME":"永康區","LI":"永康里","LIN":"36鄰","STREET":"大同街","SECT":" ","MAREA":" ","LANE":" ","ALLEY":" ","HOUSE_NO":"７７５號十一樓之１","E_COORD97":174429.89999999999,"N_COORD97":2546914.0699999998,"ADDRESS":"大同街７７５號十一樓之１","OBJECTID":463108},"geometry":{"x":174429.90000000037,"y":2546914.0700000022}},{"attributes":{"ID":463134,"DIS_CODE":0,"TOWNNAME":"永康區","LI":"永康里","LIN":"36鄰","STREET":"大同街","SECT":" ","MAREA":" ","LANE":" ","ALLEY":" ","HOUSE_NO":"７７５號八樓之１","E_COORD97":174428.64999999999,"N_COORD97":2546914.0699999998,"ADDRESS":"大同街７７５號八樓之１","OBJECTID":463109},"geometry":{"x":174428.65000000037,"y":2546914.0700000022}},{"attributes":{"ID":463135,"DIS_CODE":0,"TOWNNAME":"永康區","LI":"永康里","LIN":"36鄰","STREET":"大同街","SECT":" ","MAREA":" ","LANE":" ","ALLEY":" ","HOUSE_NO":"７７５號五樓之５","E_COORD97":174428.81,"N_COORD97":2546914.0699999998,"ADDRESS":"大同街７７５號五樓之５","OBJECTID":463110},"geometry":{"x":174428.81000000145,"y":2546914.0700000022}},{"attributes":{"ID":463136,"DIS_CODE":0,"TOWNNAME":"永康區","LI":"永康里","LIN":"36鄰","STREET":"大同街","SECT":" ","MAREA":" ","LANE":" ","ALLEY":" ","HOUSE_NO":"７７５號六樓之２","E_COORD97":174428.79000000001,"N_COORD97":2546914.0699999998,"ADDRESS":"大同街７７５號六樓之２","OBJECTID":463111},"geometry":{"x":174428.79000000004,"y":2546914.0700000022}},{"attributes":{"ID":463137,"DIS_CODE":0,"TOWNNAME":"永康區","LI":"永康里","LIN":"36鄰","STREET":"大同街","SECT":" ","MAREA":" ","LANE":" ","ALLEY":" ","HOUSE_NO":"７７７號十樓之３","E_COORD97":174413.20000000001,"N_COORD97":2546909.8199999998,"ADDRESS":"大同街７７７號十樓之３","OBJECTID":463112},"geometry":{"x":174413.20000000205,"y":2546909.8200000003}},{"attributes":{"ID":463138,"DIS_CODE":0,"TOWNNAME":"永康區","LI":"永康里","LIN":"36鄰","STREET":"大同街","SECT":" ","MAREA":" ","LANE":" ","ALLEY":" ","HOUSE_NO":"７７５號六樓之５","E_COORD97":174428.81,"N_COORD97":2546914.0699999998,"ADDRESS":"大同街７７５號六樓之５","OBJECTID":463113},"geometry":{"x":174428.81000000145,"y":2546914.0700000022}},{"attributes":{"ID":463139,"DIS_CODE":0,"TOWNNAME":"永康區","LI":"永康里","LIN":"36鄰","STREET":"大同街","SECT":" ","MAREA":" ","LANE":" ","ALLEY":" ","HOUSE_NO":"７７３號四樓之２","E_COORD97":174445.72,"N_COORD97":2546922.3300000001,"ADDRESS":"大同街７７３號四樓之２","OBJECTID":463114},"geometry":{"x":174445.71999999974,"y":2546922.3300000019}},{"attributes":{"ID":463140,"DIS_CODE":0,"TOWNNAME":"永康區","LI":"永康里","LIN":"36鄰","STREET":"大同街","SECT":" ","MAREA":" ","LANE":" ","ALLEY":" ","HOUSE_NO":"７７３號八樓之２","E_COORD97":174445.72,"N_COORD97":2546922.3300000001,"ADDRESS":"大同街７７３號八樓之２","OBJECTID":463115},"geometry":{"x":174445.71999999974,"y":2546922.3300000019}},{"attributes":{"ID":463141,"DIS_CODE":0,"TOWNNAME":"永康區","LI":"永康里","LIN":"36鄰","STREET":"大同街","SECT":" ","MAREA":" ","LANE":" ","ALLEY":" ","HOUSE_NO":"７７３號五樓之２","E_COORD97":174445.72,"N_COORD97":2546922.3300000001,"ADDRESS":"大同街７７３號五樓之２","OBJECTID":463116},"geometry":{"x":174445.71999999974,"y":2546922.3300000019}},{"attributes":{"ID":463142,"DIS_CODE":0,"TOWNNAME":"永康區","LI":"永康里","LIN":"36鄰","STREET":"大同街","SECT":" ","MAREA":" ","LANE":" ","ALLEY":" ","HOUSE_NO":"７７５號七樓之５","E_COORD97":174428.81,"N_COORD97":2546914.0699999998,"ADDRESS":"大同街７７５號七樓之５","OBJECTID":463117},"geometry":{"x":174428.81000000145,"y":2546914.0700000022}},{"attributes":{"ID":463143,"DIS_CODE":0,"TOWNNAME":"永康區","LI":"永康里","LIN":"36鄰","STREET":"大同街","SECT":" ","MAREA":" ","LANE":" ","ALLEY":" ","HOUSE_NO":"７７３號七樓之３","E_COORD97":174445.67999999999,"N_COORD97":2546922.3300000001,"ADDRESS":"大同街７７３號七樓之３","OBJECTID":463118},"geometry":{"x":174445.68000000063,"y":2546922.3300000019}},{"attributes":{"ID":463144,"DIS_CODE":0,"TOWNNAME":"永康區","LI":"永康里","LIN":"36鄰","STREET":"大同街","SECT":" ","MAREA":" ","LANE":" ","ALLEY":" ","HOUSE_NO":"７７３號五樓之３","E_COORD97":174445.67999999999,"N_COORD97":2546922.3300000001,"ADDRESS":"大同街７７３號五樓之３","OBJECTID":463119},"geometry":{"x":174445.68000000063,"y":2546922.3300000019}},{"attributes":{"ID":463145,"DIS_CODE":0,"TOWNNAME":"永康區","LI":"永康里","LIN":"36鄰","STREET":"大同街","SECT":" ","MAREA":" ","LANE":" ","ALLEY":" ","HOUSE_NO":"７７３號十一樓之３","E_COORD97":174446.92999999999,"N_COORD97":2546922.3300000001,"ADDRESS":"大同街７７３號十一樓之３","OBJECTID":463120},"geometry":{"x":174446.93000000063,"y":2546922.3300000019}},{"attributes":{"ID":463146,"DIS_CODE":0,"TOWNNAME":"永康區","LI":"永康里","LIN":"36鄰","STREET":"大同街","SECT":" ","MAREA":" ","LANE":" ","ALLEY":" ","HOUSE_NO":"７７３號六樓之１","E_COORD97":174445.57999999999,"N_COORD97":2546922.3300000001,"ADDRESS":"大同街７７３號六樓之１","OBJECTID":463121},"geometry":{"x":174445.58000000007,"y":2546922.3300000019}},{"attributes":{"ID":463147,"DIS_CODE":0,"TOWNNAME":"永康區","LI":"永康里","LIN":"36鄰","STREET":"大同街","SECT":" ","MAREA":" ","LANE":" ","ALLEY":" ","HOUSE_NO":"７７５號九樓之５","E_COORD97":174428.81,"N_COORD97":2546914.0699999998,"ADDRESS":"大同街７７５號九樓之５","OBJECTID":463122},"geometry":{"x":174428.81000000145,"y":2546914.0700000022}},{"attributes":{"ID":463148,"DIS_CODE":0,"TOWNNAME":"永康區","LI":"永康里","LIN":"36鄰","STREET":"大同街","SECT":" ","MAREA":" ","LANE":" ","ALLEY":" ","HOUSE_NO":"７７３號七樓之２","E_COORD97":174445.72,"N_COORD97":2546922.3300000001,"ADDRESS":"大同街７７３號七樓之２","OBJECTID":463123},"geometry":{"x":174445.71999999974,"y":2546922.3300000019}},{"attributes":{"ID":463149,"DIS_CODE":0,"TOWNNAME":"永康區","LI":"永康里","LIN":"36鄰","STREET":"大同街","SECT":" ","MAREA":" ","LANE":" ","ALLEY":" ","HOUSE_NO":"７７３號十樓之１","E_COORD97":174445.57999999999,"N_COORD97":2546922.3300000001,"ADDRESS":"大同街７７３號十樓之１","OBJECTID":463124},"geometry":{"x":174445.58000000007,"y":2546922.3300000019}},{"attributes":{"ID":463150,"DIS_CODE":0,"TOWNNAME":"永康區","LI":"永康里","LIN":"36鄰","STREET":"大同街","SECT":" ","MAREA":" ","LANE":" ","ALLEY":" ","HOUSE_NO":"７７５號十二樓之１","E_COORD97":174429.89999999999,"N_COORD97":2546914.0699999998,"ADDRESS":"大同街７７５號十二樓之１","OBJECTID":463125},"geometry":{"x":174429.90000000037,"y":2546914.0700000022}},{"attributes":{"ID":463151,"DIS_CODE":0,"TOWNNAME":"永康區","LI":"永康里","LIN":"36鄰","STREET":"大同街","SECT":" ","MAREA":" ","LANE":" ","ALLEY":" ","HOUSE_NO":"７７３號四樓之１","E_COORD97":174445.57999999999,"N_COORD97":2546922.3300000001,"ADDRESS":"大同街７７３號四樓之１","OBJECTID":463126},"geometry":{"x":174445.58000000007,"y":2546922.3300000019}},{"attributes":{"ID":463152,"DIS_CODE":0,"TOWNNAME":"永康區","LI":"永康里","LIN":"36鄰","STREET":"大同街","SECT":" ","MAREA":" ","LANE":" ","ALLEY":" ","HOUSE_NO":"７７３號八樓之３","E_COORD97":174445.67999999999,"N_COORD97":2546922.3300000001,"ADDRESS":"大同街７７３號八樓之３","OBJECTID":463127},"geometry":{"x":174445.68000000063,"y":2546922.3300000019}},{"attributes":{"ID":463153,"DIS_CODE":0,"TOWNNAME":"永康區","LI":"永康里","LIN":"36鄰","STREET":"大同街","SECT":" ","MAREA":" ","LANE":" ","ALLEY":" ","HOUSE_NO":"７７５號十一樓之５","E_COORD97":174430.06,"N_COORD97":2546914.0699999998,"ADDRESS":"大同街７７５號十一樓之５","OBJECTID":463128},"geometry":{"x":174430.05999999959,"y":2546914.0700000022}},{"attributes":{"ID":463154,"DIS_CODE":0,"TOWNNAME":"永康區","LI":"永康里","LIN":"36鄰","STREET":"大同街","SECT":" ","MAREA":" ","LANE":" ","ALLEY":" ","HOUSE_NO":"７７５號八樓之２","E_COORD97":174428.79000000001,"N_COORD97":2546914.0699999998,"ADDRESS":"大同街７７５號八樓之２","OBJECTID":463129},"geometry":{"x":174428.79000000004,"y":2546914.0700000022}},{"attributes":{"ID":463155,"DIS_CODE":0,"TOWNNAME":"永康區","LI":"永康里","LIN":"36鄰","STREET":"大同街","SECT":" ","MAREA":" ","LANE":" ","ALLEY":" ","HOUSE_NO":"７７３號十二樓之１","E_COORD97":174446.82999999999,"N_COORD97":2546922.3300000001,"ADDRESS":"大同街７７３號十二樓之１","OBJECTID":463130},"geometry":{"x":174446.83000000101,"y":2546922.3300000019}},{"attributes":{"ID":463156,"DIS_CODE":0,"TOWNNAME":"永康區","LI":"永康里","LIN":"36鄰","STREET":"大同街","SECT":" ","MAREA":" ","LANE":" ","ALLEY":" ","HOUSE_NO":"７７３號十一樓之１","E_COORD97":174446.82999999999,"N_COORD97":2546922.3300000001,"ADDRESS":"大同街７７３號十一樓之１","OBJECTID":463131},"geometry":{"x":174446.83000000101,"y":2546922.3300000019}},{"attributes":{"ID":463157,"DIS_CODE":0,"TOWNNAME":"永康區","LI":"永康里","LIN":"36鄰","STREET":"大同街","SECT":" ","MAREA":" ","LANE":" ","ALLEY":" ","HOUSE_NO":"７７５號七樓之２","E_COORD97":174428.79000000001,"N_COORD97":2546914.0699999998,"ADDRESS":"大同街７７５號七樓之２","OBJECTID":463132},"geometry":{"x":174428.79000000004,"y":2546914.0700000022}},{"attributes":{"ID":463158,"DIS_CODE":0,"TOWNNAME":"永康區","LI":"永康里","LIN":"36鄰","STREET":"大同街","SECT":" ","MAREA":" ","LANE":" ","ALLEY":" ","HOUSE_NO":"７７５號七樓之３","E_COORD97":174428.75,"N_COORD97":2546914.0699999998,"ADDRESS":"大同街７７５號七樓之３","OBJECTID":463133},"geometry":{"x":174428.75,"y":2546914.0700000022}},{"attributes":{"ID":463159,"DIS_CODE":0,"TOWNNAME":"永康區","LI":"永康里","LIN":"36鄰","STREET":"大同街","SECT":" ","MAREA":" ","LANE":" ","ALLEY":" ","HOUSE_NO":"７７３號十樓之３","E_COORD97":174445.67999999999,"N_COORD97":2546922.3300000001,"ADDRESS":"大同街７７３號十樓之３","OBJECTID":463134},"geometry":{"x":174445.68000000063,"y":2546922.3300000019}},{"attributes":{"ID":463160,"DIS_CODE":0,"TOWNNAME":"東區","LI":"崇文里","LIN":"36鄰","STREET":"生產路","SECT":" ","MAREA":" ","LANE":" ","ALLEY":" ","HOUSE_NO":"３８３號七樓","E_COORD97":171226.29000000001,"N_COORD97":2540784.6000000001,"ADDRESS":"生產路３８３號七樓","OBJECTID":463135},"geometry":{"x":171226.29000000004,"y":2540784.5999999996}},{"attributes":{"ID":463161,"DIS_CODE":0,"TOWNNAME":"東區","LI":"崇文里","LIN":"36鄰","STREET":"生產路","SECT":" ","MAREA":" ","LANE":" ","ALLEY":" ","HOUSE_NO":"３８３號七樓之１","E_COORD97":171226.29000000001,"N_COORD97":2540784.6000000001,"ADDRESS":"生產路３８３號七樓之１","OBJECTID":463136},"geometry":{"x":171226.29000000004,"y":2540784.5999999996}},{"attributes":{"ID":463162,"DIS_CODE":0,"TOWNNAME":"東區","LI":"崇文里","LIN":"36鄰","STREET":"生產路","SECT":" ","MAREA":" ","LANE":" ","ALLEY":" ","HOUSE_NO":"３８３號二樓","E_COORD97":171226.29000000001,"N_COORD97":2540784.6000000001,"ADDRESS":"生產路３８３號二樓","OBJECTID":463137},"geometry":{"x":171226.29000000004,"y":2540784.5999999996}},{"attributes":{"ID":463163,"DIS_CODE":0,"TOWNNAME":"東區","LI":"崇文里","LIN":"36鄰","STREET":"生產路","SECT":" ","MAREA":" ","LANE":" ","ALLEY":" ","HOUSE_NO":"３８３號三樓","E_COORD97":171226.29000000001,"N_COORD97":2540784.6000000001,"ADDRESS":"生產路３８３號三樓","OBJECTID":463138},"geometry":{"x":171226.29000000004,"y":2540784.5999999996}},{"attributes":{"ID":463164,"DIS_CODE":0,"TOWNNAME":"東區","LI":"崇文里","LIN":"36鄰","STREET":"生產路","SECT":" ","MAREA":" ","LANE":" ","ALLEY":" ","HOUSE_NO":"３８３號三樓之１","E_COORD97":171226.29000000001,"N_COORD97":2540784.6000000001,"ADDRESS":"生產路３８３號三樓之１","OBJECTID":463139},"geometry":{"x":171226.29000000004,"y":2540784.5999999996}},{"attributes":{"ID":463165,"DIS_CODE":0,"TOWNNAME":"東區","LI":"崇文里","LIN":"36鄰","STREET":"生產路","SECT":" ","MAREA":" ","LANE":" ","ALLEY":" ","HOUSE_NO":"３８３號五樓","E_COORD97":171226.29000000001,"N_COORD97":2540784.6000000001,"ADDRESS":"生產路３８３號五樓","OBJECTID":463140},"geometry":{"x":171226.29000000004,"y":2540784.5999999996}},{"attributes":{"ID":463166,"DIS_CODE":0,"TOWNNAME":"東區","LI":"崇文里","LIN":"36鄰","STREET":"生產路","SECT":" ","MAREA":" ","LANE":" ","ALLEY":" ","HOUSE_NO":"３８３號五樓之１","E_COORD97":171226.29000000001,"N_COORD97":2540784.6000000001,"ADDRESS":"生產路３８３號五樓之１","OBJECTID":463141},"geometry":{"x":171226.29000000004,"y":2540784.5999999996}},{"attributes":{"ID":463167,"DIS_CODE":0,"TOWNNAME":"東區","LI":"崇文里","LIN":"36鄰","STREET":"生產路","SECT":" ","MAREA":" ","LANE":" ","ALLEY":" ","HOUSE_NO":"３８３號六樓","E_COORD97":171226.29000000001,"N_COORD97":2540784.6000000001,"ADDRESS":"生產路３８３號六樓","OBJECTID":463142},"geometry":{"x":171226.29000000004,"y":2540784.5999999996}},{"attributes":{"ID":463168,"DIS_CODE":0,"TOWNNAME":"東區","LI":"崇文里","LIN":"36鄰","STREET":"生產路","SECT":" ","MAREA":" ","LANE":" ","ALLEY":" ","HOUSE_NO":"３８３號六樓之１","E_COORD97":171226.29000000001,"N_COORD97":2540784.6000000001,"ADDRESS":"生產路３８３號六樓之１","OBJECTID":463143},"geometry":{"x":171226.29000000004,"y":2540784.5999999996}},{"attributes":{"ID":463169,"DIS_CODE":0,"TOWNNAME":"東區","LI":"崇文里","LIN":"36鄰","STREET":"生產路","SECT":" ","MAREA":" ","LANE":" ","ALLEY":" ","HOUSE_NO":"３８３號四樓","E_COORD97":171226.29000000001,"N_COORD97":2540784.6000000001,"ADDRESS":"生產路３８３號四樓","OBJECTID":463144},"geometry":{"x":171226.29000000004,"y":2540784.5999999996}},{"attributes":{"ID":463170,"DIS_CODE":0,"TOWNNAME":"東區","LI":"崇文里","LIN":"36鄰","STREET":"生產路","SECT":" ","MAREA":" ","LANE":" ","ALLEY":" ","HOUSE_NO":"３８３號四樓之１","E_COORD97":171226.29000000001,"N_COORD97":2540784.6000000001,"ADDRESS":"生產路３８３號四樓之１","OBJECTID":463145},"geometry":{"x":171226.29000000004,"y":2540784.5999999996}},{"attributes":{"ID":463171,"DIS_CODE":0,"TOWNNAME":"永康區","LI":"永康里","LIN":"36鄰","STREET":"大同街","SECT":" ","MAREA":" ","LANE":" ","ALLEY":" ","HOUSE_NO":"７７３號九樓之１","E_COORD97":174445.57999999999,"N_COORD97":2546922.3300000001,"ADDRESS":"大同街７７３號九樓之１","OBJECTID":463146},"geometry":{"x":174445.58000000007,"y":2546922.3300000019}},{"attributes":{"ID":463172,"DIS_CODE":0,"TOWNNAME":"永康區","LI":"永康里","LIN":"36鄰","STREET":"大同街","SECT":" ","MAREA":" ","LANE":" ","ALLEY":" ","HOUSE_NO":"７７５號九樓之２","E_COORD97":174428.79000000001,"N_COORD97":2546914.0699999998,"ADDRESS":"大同街７７５號九樓之２","OBJECTID":463147},"geometry":{"x":174428.79000000004,"y":2546914.0700000022}},{"attributes":{"ID":463173,"DIS_CODE":0,"TOWNNAME":"永康區","LI":"永康里","LIN":"36鄰","STREET":"大同街","SECT":" ","MAREA":" ","LANE":" ","ALLEY":" ","HOUSE_NO":"７７５號十一樓之２","E_COORD97":174430.04000000001,"N_COORD97":2546914.0699999998,"ADDRESS":"大同街７７５號十一樓之２","OBJECTID":463148},"geometry":{"x":174430.04000000097,"y":2546914.0700000022}},{"attributes":{"ID":463174,"DIS_CODE":0,"TOWNNAME":"永康區","LI":"永康里","LIN":"36鄰","STREET":"大同街","SECT":" ","MAREA":" ","LANE":" ","ALLEY":" ","HOUSE_NO":"７７３號九樓之３","E_COORD97":174445.67999999999,"N_COORD97":2546922.3300000001,"ADDRESS":"大同街７７３號九樓之３","OBJECTID":463149},"geometry":{"x":174445.68000000063,"y":2546922.3300000019}},{"attributes":{"ID":463175,"DIS_CODE":0,"TOWNNAME":"永康區","LI":"永康里","LIN":"36鄰","STREET":"大同街","SECT":" ","MAREA":" ","LANE":" ","ALLEY":" ","HOUSE_NO":"７７３號八樓之１","E_COORD97":174445.57999999999,"N_COORD97":2546922.3300000001,"ADDRESS":"大同街７７３號八樓之１","OBJECTID":463150},"geometry":{"x":174445.58000000007,"y":2546922.3300000019}},{"attributes":{"ID":463176,"DIS_CODE":0,"TOWNNAME":"佳里區","LI":"鎮山里","LIN":"20鄰","STREET":"鎮山街","SECT":" ","MAREA":" ","LANE":" ","ALLEY":" ","HOUSE_NO":"１５８號","E_COORD97":166266.70000000001,"N_COORD97":2560983.7599999998,"ADDRESS":"鎮山街１５８號","OBJECTID":463151},"geometry":{"x":166266.70000000112,"y":2560983.7599999998}},{"attributes":{"ID":463177,"DIS_CODE":0,"TOWNNAME":"永康區","LI":"永康里","LIN":"36鄰","STREET":"大同街","SECT":" ","MAREA":" ","LANE":" ","ALLEY":" ","HOUSE_NO":"７７５號八樓之５","E_COORD97":174428.81,"N_COORD97":2546914.0699999998,"ADDRESS":"大同街７７５號八樓之５","OBJECTID":463152},"geometry":{"x":174428.81000000145,"y":2546914.0700000022}},{"attributes":{"ID":463178,"DIS_CODE":0,"TOWNNAME":"永康區","LI":"永康里","LIN":"36鄰","STREET":"大同街","SECT":" ","MAREA":" ","LANE":" ","ALLEY":" ","HOUSE_NO":"７７７號八樓之１","E_COORD97":174413.10000000001,"N_COORD97":2546909.8199999998,"ADDRESS":"大同街７７７號八樓之１","OBJECTID":463153},"geometry":{"x":174413.0999999987,"y":2546909.8200000003}},{"attributes":{"ID":463179,"DIS_CODE":0,"TOWNNAME":"永康區","LI":"永康里","LIN":"36鄰","STREET":"大同街","SECT":" ","MAREA":" ","LANE":" ","ALLEY":" ","HOUSE_NO":"７７７號三樓","E_COORD97":174410.97,"N_COORD97":2546909.7799999998,"ADDRESS":"大同街７７７號三樓","OBJECTID":463154},"geometry":{"x":174410.9700000016,"y":2546909.7799999993}},{"attributes":{"ID":463180,"DIS_CODE":0,"TOWNNAME":"永康區","LI":"永康里","LIN":"36鄰","STREET":"大同街","SECT":" ","MAREA":" ","LANE":" ","ALLEY":" ","HOUSE_NO":"７７７號十樓之１","E_COORD97":174413.10000000001,"N_COORD97":2546909.8199999998,"ADDRESS":"大同街７７７號十樓之１","OBJECTID":463155},"geometry":{"x":174413.0999999987,"y":2546909.8200000003}},{"attributes":{"ID":463181,"DIS_CODE":0,"TOWNNAME":"永康區","LI":"永康里","LIN":"36鄰","STREET":"大同街","SECT":" ","MAREA":" ","LANE":" ","ALLEY":" ","HOUSE_NO":"７７３號十樓之２","E_COORD97":174445.72,"N_COORD97":2546922.3300000001,"ADDRESS":"大同街７７３號十樓之２","OBJECTID":463156},"geometry":{"x":174445.71999999974,"y":2546922.3300000019}},{"attributes":{"ID":463182,"DIS_CODE":0,"TOWNNAME":"永康區","LI":"永康里","LIN":"36鄰","STREET":"大同街","SECT":" ","MAREA":" ","LANE":" ","ALLEY":" ","HOUSE_NO":"７７３號十二樓之２","E_COORD97":174446.97,"N_COORD97":2546922.3300000001,"ADDRESS":"大同街７７３號十二樓之２","OBJECTID":463157},"geometry":{"x":174446.97000000067,"y":2546922.3300000019}},{"attributes":{"ID":463183,"DIS_CODE":0,"TOWNNAME":"永康區","LI":"永康里","LIN":"36鄰","STREET":"大同街","SECT":" ","MAREA":" ","LANE":" ","ALLEY":" ","HOUSE_NO":"７７５號十樓之２","E_COORD97":174428.79000000001,"N_COORD97":2546914.0699999998,"ADDRESS":"大同街７７５號十樓之２","OBJECTID":463158},"geometry":{"x":174428.79000000004,"y":2546914.0700000022}},{"attributes":{"ID":463184,"DIS_CODE":0,"TOWNNAME":"永康區","LI":"永康里","LIN":"36鄰","STREET":"大同街","SECT":" ","MAREA":" ","LANE":" ","ALLEY":" ","HOUSE_NO":"７７５號九樓之１","E_COORD97":174428.64999999999,"N_COORD97":2546914.0699999998,"ADDRESS":"大同街７７５號九樓之１","OBJECTID":463159},"geometry":{"x":174428.65000000037,"y":2546914.0700000022}},{"attributes":{"ID":463185,"DIS_CODE":0,"TOWNNAME":"永康區","LI":"永康里","LIN":"36鄰","STREET":"大同街","SECT":" ","MAREA":" ","LANE":" ","ALLEY":" ","HOUSE_NO":"７７３號四樓之３","E_COORD97":174445.67999999999,"N_COORD97":2546922.3300000001,"ADDRESS":"大同街７７３號四樓之３","OBJECTID":463160},"geometry":{"x":174445.68000000063,"y":2546922.3300000019}},{"attributes":{"ID":463186,"DIS_CODE":0,"TOWNNAME":"永康區","LI":"永康里","LIN":"36鄰","STREET":"大同街","SECT":" ","MAREA":" ","LANE":" ","ALLEY":" ","HOUSE_NO":"７７７號六樓之１","E_COORD97":174413.10000000001,"N_COORD97":2546909.8199999998,"ADDRESS":"大同街７７７號六樓之１","OBJECTID":463161},"geometry":{"x":174413.0999999987,"y":2546909.8200000003}},{"attributes":{"ID":463187,"DIS_CODE":0,"TOWNNAME":"永康區","LI":"永康里","LIN":"36鄰","STREET":"大同街","SECT":" ","MAREA":" ","LANE":" ","ALLEY":" ","HOUSE_NO":"７７３號九樓之２","E_COORD97":174445.72,"N_COORD97":2546922.3300000001,"ADDRESS":"大同街７７３號九樓之２","OBJECTID":463162},"geometry":{"x":174445.71999999974,"y":2546922.3300000019}},{"attributes":{"ID":463188,"DIS_CODE":0,"TOWNNAME":"永康區","LI":"永康里","LIN":"36鄰","STREET":"大同街","SECT":" ","MAREA":" ","LANE":" ","ALLEY":" ","HOUSE_NO":"７７５號十二樓之２","E_COORD97":174430.04000000001,"N_COORD97":2546914.0699999998,"ADDRESS":"大同街７７５號十二樓之２","OBJECTID":463163},"geometry":{"x":174430.04000000097,"y":2546914.0700000022}},{"attributes":{"ID":463189,"DIS_CODE":0,"TOWNNAME":"永康區","LI":"永康里","LIN":"36鄰","STREET":"大同街","SECT":" ","MAREA":" ","LANE":" ","ALLEY":" ","HOUSE_NO":"７７７號七樓之２","E_COORD97":174413.23999999999,"N_COORD97":2546909.8199999998,"ADDRESS":"大同街７７７號七樓之２","OBJECTID":463164},"geometry":{"x":174413.24000000115,"y":2546909.8200000003}},{"attributes":{"ID":463190,"DIS_CODE":0,"TOWNNAME":"永康區","LI":"永康里","LIN":"36鄰","STREET":"大同街","SECT":" ","MAREA":" ","LANE":" ","ALLEY":" ","HOUSE_NO":"７７７號六樓之３","E_COORD97":174413.20000000001,"N_COORD97":2546909.8199999998,"ADDRESS":"大同街７７７號六樓之３","OBJECTID":463165},"geometry":{"x":174413.20000000205,"y":2546909.8200000003}},{"attributes":{"ID":463191,"DIS_CODE":0,"TOWNNAME":"永康區","LI":"永康里","LIN":"36鄰","STREET":"大同街","SECT":" ","MAREA":" ","LANE":" ","ALLEY":" ","HOUSE_NO":"７７７號七樓之１","E_COORD97":174413.10000000001,"N_COORD97":2546909.8199999998,"ADDRESS":"大同街７７７號七樓之１","OBJECTID":463166},"geometry":{"x":174413.0999999987,"y":2546909.8200000003}},{"attributes":{"ID":463192,"DIS_CODE":0,"TOWNNAME":"歸仁區","LI":"後市里","LIN":"36鄰","STREET":"民族一街","SECT":" ","MAREA":" ","LANE":" ","ALLEY":" ","HOUSE_NO":"２１號二樓之３","E_COORD97":177300.17999999999,"N_COORD97":2541005.75,"ADDRESS":"民族一街２１號二樓之３","OBJECTID":463167},"geometry":{"x":177300.18000000063,"y":2541005.7500000019}},{"attributes":{"ID":463193,"DIS_CODE":0,"TOWNNAME":"歸仁區","LI":"後市里","LIN":"36鄰","STREET":"民族一街","SECT":" ","MAREA":" ","LANE":" ","ALLEY":" ","HOUSE_NO":"２１號四樓之７","E_COORD97":177300.17999999999,"N_COORD97":2541005.75,"ADDRESS":"民族一街２１號四樓之７","OBJECTID":463168},"geometry":{"x":177300.18000000063,"y":2541005.7500000019}},{"attributes":{"ID":463194,"DIS_CODE":0,"TOWNNAME":"歸仁區","LI":"後市里","LIN":"36鄰","STREET":"民族一街","SECT":" ","MAREA":" ","LANE":" ","ALLEY":" ","HOUSE_NO":"２１號五樓之６","E_COORD97":177300.17999999999,"N_COORD97":2541005.75,"ADDRESS":"民族一街２１號五樓之６","OBJECTID":463169},"geometry":{"x":177300.18000000063,"y":2541005.7500000019}},{"attributes":{"ID":463195,"DIS_CODE":0,"TOWNNAME":"歸仁區","LI":"後市里","LIN":"36鄰","STREET":"民族一街","SECT":" ","MAREA":" ","LANE":" ","ALLEY":" ","HOUSE_NO":"２１號四樓之２","E_COORD97":177300.19,"N_COORD97":2541005.75,"ADDRESS":"民族一街２１號四樓之２","OBJECTID":463170},"geometry":{"x":177300.19000000041,"y":2541005.7500000019}},{"attributes":{"ID":463196,"DIS_CODE":0,"TOWNNAME":"歸仁區","LI":"後市里","LIN":"36鄰","STREET":"民族一街","SECT":" ","MAREA":" ","LANE":" ","ALLEY":" ","HOUSE_NO":"２１號三樓之５","E_COORD97":177300.19,"N_COORD97":2541005.75,"ADDRESS":"民族一街２１號三樓之５","OBJECTID":463171},"geometry":{"x":177300.19000000041,"y":2541005.7500000019}},{"attributes":{"ID":463197,"DIS_CODE":0,"TOWNNAME":"歸仁區","LI":"後市里","LIN":"36鄰","STREET":"民族一街","SECT":" ","MAREA":" ","LANE":" ","ALLEY":" ","HOUSE_NO":"２１號七樓之６","E_COORD97":177300.17999999999,"N_COORD97":2541005.75,"ADDRESS":"民族一街２１號七樓之６","OBJECTID":463172},"geometry":{"x":177300.18000000063,"y":2541005.7500000019}},{"attributes":{"ID":463198,"DIS_CODE":0,"TOWNNAME":"中西區","LI":"青年里","LIN":"5鄰","STREET":"武德街","SECT":" ","MAREA":" ","LANE":" ","ALLEY":" ","HOUSE_NO":"３號","E_COORD97":168960.04999999999,"N_COORD97":2543632.7000000002,"ADDRESS":"武德街３號","OBJECTID":463173},"geometry":{"x":168960.04999999981,"y":2543632.7000000011}},{"attributes":{"ID":463199,"DIS_CODE":0,"TOWNNAME":"歸仁區","LI":"後市里","LIN":"36鄰","STREET":"民族一街","SECT":" ","MAREA":" ","LANE":" ","ALLEY":" ","HOUSE_NO":"２１號五樓之７","E_COORD97":177300.17999999999,"N_COORD97":2541005.75,"ADDRESS":"民族一街２１號五樓之７","OBJECTID":463174},"geometry":{"x":177300.18000000063,"y":2541005.7500000019}},{"attributes":{"ID":463200,"DIS_CODE":0,"TOWNNAME":"歸仁區","LI":"後市里","LIN":"36鄰","STREET":"民族一街","SECT":" ","MAREA":" ","LANE":" ","ALLEY":" ","HOUSE_NO":"２１號五樓之３","E_COORD97":177300.17999999999,"N_COORD97":2541005.75,"ADDRESS":"民族一街２１號五樓之３","OBJECTID":463175},"geometry":{"x":177300.18000000063,"y":2541005.7500000019}},{"attributes":{"ID":463201,"DIS_CODE":0,"TOWNNAME":"歸仁區","LI":"後市里","LIN":"36鄰","STREET":"民族一街","SECT":" ","MAREA":" ","LANE":" ","ALLEY":" ","HOUSE_NO":"２１號四樓之１","E_COORD97":177300.16,"N_COORD97":2541005.75,"ADDRESS":"民族一街２１號四樓之１","OBJECTID":463176},"geometry":{"x":177300.15999999922,"y":2541005.7500000019}},{"attributes":{"ID":463202,"DIS_CODE":0,"TOWNNAME":"歸仁區","LI":"後市里","LIN":"36鄰","STREET":"民族一街","SECT":" ","MAREA":" ","LANE":" ","ALLEY":" ","HOUSE_NO":"２１號五樓之２","E_COORD97":177300.19,"N_COORD97":2541005.75,"ADDRESS":"民族一街２１號五樓之２","OBJECTID":463177},"geometry":{"x":177300.19000000041,"y":2541005.7500000019}},{"attributes":{"ID":463203,"DIS_CODE":0,"TOWNNAME":"歸仁區","LI":"後市里","LIN":"36鄰","STREET":"民族一街","SECT":" ","MAREA":" ","LANE":" ","ALLEY":" ","HOUSE_NO":"２１號六樓之６","E_COORD97":177300.17999999999,"N_COORD97":2541005.75,"ADDRESS":"民族一街２１號六樓之６","OBJECTID":463178},"geometry":{"x":177300.18000000063,"y":2541005.7500000019}},{"attributes":{"ID":463204,"DIS_CODE":0,"TOWNNAME":"歸仁區","LI":"後市里","LIN":"36鄰","STREET":"民族一街","SECT":" ","MAREA":" ","LANE":" ","ALLEY":" ","HOUSE_NO":"２１號三樓之３","E_COORD97":177300.17999999999,"N_COORD97":2541005.75,"ADDRESS":"民族一街２１號三樓之３","OBJECTID":463179},"geometry":{"x":177300.18000000063,"y":2541005.7500000019}},{"attributes":{"ID":463205,"DIS_CODE":0,"TOWNNAME":"歸仁區","LI":"後市里","LIN":"36鄰","STREET":"民族一街","SECT":" ","MAREA":" ","LANE":" ","ALLEY":" ","HOUSE_NO":"２１號七樓之７","E_COORD97":177300.17999999999,"N_COORD97":2541005.75,"ADDRESS":"民族一街２１號七樓之７","OBJECTID":463180},"geometry":{"x":177300.18000000063,"y":2541005.7500000019}},{"attributes":{"ID":463206,"DIS_CODE":0,"TOWNNAME":"歸仁區","LI":"後市里","LIN":"36鄰","STREET":"民族一街","SECT":" ","MAREA":" ","LANE":" ","ALLEY":" ","HOUSE_NO":"２１號四樓之５","E_COORD97":177300.19,"N_COORD97":2541005.75,"ADDRESS":"民族一街２１號四樓之５","OBJECTID":463181},"geometry":{"x":177300.19000000041,"y":2541005.7500000019}},{"attributes":{"ID":463207,"DIS_CODE":0,"TOWNNAME":"歸仁區","LI":"後市里","LIN":"36鄰","STREET":"民族一街","SECT":" ","MAREA":" ","LANE":" ","ALLEY":" ","HOUSE_NO":"２１號七樓之３","E_COORD97":177300.17999999999,"N_COORD97":2541005.75,"ADDRESS":"民族一街２１號七樓之３","OBJECTID":463182},"geometry":{"x":177300.18000000063,"y":2541005.7500000019}},{"attributes":{"ID":463208,"DIS_CODE":0,"TOWNNAME":"歸仁區","LI":"後市里","LIN":"36鄰","STREET":"民族一街","SECT":" ","MAREA":" ","LANE":" ","ALLEY":" ","HOUSE_NO":"２１號五樓之５","E_COORD97":177300.19,"N_COORD97":2541005.75,"ADDRESS":"民族一街２１號五樓之５","OBJECTID":463183},"geometry":{"x":177300.19000000041,"y":2541005.7500000019}},{"attributes":{"ID":463209,"DIS_CODE":0,"TOWNNAME":"歸仁區","LI":"後市里","LIN":"36鄰","STREET":"民族一街","SECT":" ","MAREA":" ","LANE":" ","ALLEY":" ","HOUSE_NO":"２１號三樓之１","E_COORD97":177300.16,"N_COORD97":2541005.75,"ADDRESS":"民族一街２１號三樓之１","OBJECTID":463184},"geometry":{"x":177300.15999999922,"y":2541005.7500000019}},{"attributes":{"ID":463210,"DIS_CODE":0,"TOWNNAME":"歸仁區","LI":"後市里","LIN":"36鄰","STREET":"民族一街","SECT":" ","MAREA":" ","LANE":" ","ALLEY":" ","HOUSE_NO":"２１號六樓之１","E_COORD97":177300.16,"N_COORD97":2541005.75,"ADDRESS":"民族一街２１號六樓之１","OBJECTID":463185},"geometry":{"x":177300.15999999922,"y":2541005.7500000019}},{"attributes":{"ID":463211,"DIS_CODE":0,"TOWNNAME":"中西區","LI":"大涼里","LIN":"13鄰","STREET":"金城街","SECT":" ","MAREA":" ","LANE":" ","ALLEY":" ","HOUSE_NO":"４７號","E_COORD97":166914.09,"N_COORD97":2543686.23,"ADDRESS":"金城街４７號","OBJECTID":463186},"geometry":{"x":166914.09000000171,"y":2543686.2300000004}},{"attributes":{"ID":463212,"DIS_CODE":0,"TOWNNAME":"歸仁區","LI":"後市里","LIN":"36鄰","STREET":"民族一街","SECT":" ","MAREA":" ","LANE":" ","ALLEY":" ","HOUSE_NO":"２１號二樓之５","E_COORD97":177300.19,"N_COORD97":2541005.75,"ADDRESS":"民族一街２１號二樓之５","OBJECTID":463187},"geometry":{"x":177300.19000000041,"y":2541005.7500000019}},{"attributes":{"ID":463213,"DIS_CODE":0,"TOWNNAME":"歸仁區","LI":"後市里","LIN":"36鄰","STREET":"民族一街","SECT":" ","MAREA":" ","LANE":" ","ALLEY":" ","HOUSE_NO":"２１號二樓之６","E_COORD97":177300.17999999999,"N_COORD97":2541005.75,"ADDRESS":"民族一街２１號二樓之６","OBJECTID":463188},"geometry":{"x":177300.18000000063,"y":2541005.7500000019}},{"attributes":{"ID":463214,"DIS_CODE":0,"TOWNNAME":"歸仁區","LI":"後市里","LIN":"36鄰","STREET":"民族一街","SECT":" ","MAREA":" ","LANE":" ","ALLEY":" ","HOUSE_NO":"２１號六樓之７","E_COORD97":177300.17999999999,"N_COORD97":2541005.75,"ADDRESS":"民族一街２１號六樓之７","OBJECTID":463189},"geometry":{"x":177300.18000000063,"y":2541005.7500000019}},{"attributes":{"ID":463215,"DIS_CODE":0,"TOWNNAME":"歸仁區","LI":"後市里","LIN":"36鄰","STREET":"民族一街","SECT":" ","MAREA":" ","LANE":" ","ALLEY":" ","HOUSE_NO":"２１號七樓之５","E_COORD97":177300.19,"N_COORD97":2541005.75,"ADDRESS":"民族一街２１號七樓之５","OBJECTID":463190},"geometry":{"x":177300.19000000041,"y":2541005.7500000019}},{"attributes":{"ID":463216,"DIS_CODE":0,"TOWNNAME":"歸仁區","LI":"後市里","LIN":"36鄰","STREET":"民族一街","SECT":" ","MAREA":" ","LANE":" ","ALLEY":" ","HOUSE_NO":"２１號七樓之１","E_COORD97":177300.16,"N_COORD97":2541005.75,"ADDRESS":"民族一街２１號七樓之１","OBJECTID":463191},"geometry":{"x":177300.15999999922,"y":2541005.7500000019}},{"attributes":{"ID":463217,"DIS_CODE":0,"TOWNNAME":"歸仁區","LI":"後市里","LIN":"36鄰","STREET":"民族一街","SECT":" ","MAREA":" ","LANE":" ","ALLEY":" ","HOUSE_NO":"２１號四樓之６","E_COORD97":177300.17999999999,"N_COORD97":2541005.75,"ADDRESS":"民族一街２１號四樓之６","OBJECTID":463192},"geometry":{"x":177300.18000000063,"y":2541005.7500000019}},{"attributes":{"ID":463218,"DIS_CODE":0,"TOWNNAME":"歸仁區","LI":"後市里","LIN":"36鄰","STREET":"民族一街","SECT":" ","MAREA":" ","LANE":" ","ALLEY":" ","HOUSE_NO":"２１號六樓之５","E_COORD97":177300.19,"N_COORD97":2541005.75,"ADDRESS":"民族一街２１號六樓之５","OBJECTID":463193},"geometry":{"x":177300.19000000041,"y":2541005.7500000019}},{"attributes":{"ID":463219,"DIS_CODE":0,"TOWNNAME":"歸仁區","LI":"後市里","LIN":"36鄰","STREET":"民族一街","SECT":" ","MAREA":" ","LANE":" ","ALLEY":" ","HOUSE_NO":"２１號二樓之２","E_COORD97":177300.19,"N_COORD97":2541005.75,"ADDRESS":"民族一街２１號二樓之２","OBJECTID":463194},"geometry":{"x":177300.19000000041,"y":2541005.7500000019}},{"attributes":{"ID":463220,"DIS_CODE":0,"TOWNNAME":"歸仁區","LI":"後市里","LIN":"36鄰","STREET":"民族一街","SECT":" ","MAREA":" ","LANE":" ","ALLEY":" ","HOUSE_NO":"２１號六樓之３","E_COORD97":177300.17999999999,"N_COORD97":2541005.75,"ADDRESS":"民族一街２１號六樓之３","OBJECTID":463195},"geometry":{"x":177300.18000000063,"y":2541005.7500000019}},{"attributes":{"ID":463221,"DIS_CODE":0,"TOWNNAME":"東區","LI":"崇文里","LIN":"36鄰","STREET":"崇善路","SECT":" ","MAREA":" ","LANE":" ","ALLEY":" ","HOUSE_NO":"６５４號","E_COORD97":171155.35999999999,"N_COORD97":2540988.6000000001,"ADDRESS":"崇善路６５４號","OBJECTID":463196},"geometry":{"x":171155.36000000034,"y":2540988.5999999978}},{"attributes":{"ID":463222,"DIS_CODE":0,"TOWNNAME":"東區","LI":"崇文里","LIN":"36鄰","STREET":"崇善路","SECT":" ","MAREA":" ","LANE":" ","ALLEY":" ","HOUSE_NO":"６８８號","E_COORD97":171205.82999999999,"N_COORD97":2540893.3599999999,"ADDRESS":"崇善路６８８號","OBJECTID":463197},"geometry":{"x":171205.83000000007,"y":2540893.3600000013}},{"attributes":{"ID":463223,"DIS_CODE":0,"TOWNNAME":"東區","LI":"崇文里","LIN":"36鄰","STREET":"崇善路","SECT":" ","MAREA":" ","LANE":" ","ALLEY":" ","HOUSE_NO":"７０６號","E_COORD97":171228.48000000001,"N_COORD97":2540871.3799999999,"ADDRESS":"崇善路７０６號","OBJECTID":463198},"geometry":{"x":171228.48000000138,"y":2540871.3800000008}},{"attributes":{"ID":463224,"DIS_CODE":0,"TOWNNAME":"東區","LI":"崇文里","LIN":"36鄰","STREET":"崇善路","SECT":" ","MAREA":" ","LANE":" ","ALLEY":" ","HOUSE_NO":"７０８號","E_COORD97":171231.37,"N_COORD97":2540866.3100000001,"ADDRESS":"崇善路７０８號","OBJECTID":463199},"geometry":{"x":171231.37000000011,"y":2540866.3100000042}},{"attributes":{"ID":463225,"DIS_CODE":0,"TOWNNAME":"東區","LI":"崇文里","LIN":"36鄰","STREET":"崇善路","SECT":" ","MAREA":" ","LANE":" ","ALLEY":" ","HOUSE_NO":"７１０號","E_COORD97":171234.56,"N_COORD97":2540862.52,"ADDRESS":"崇善路７１０號","OBJECTID":463200},"geometry":{"x":171234.55999999959,"y":2540862.5199999996}}]}