{"displayFieldName":"TOWNNAME","fieldAliases":{"ID":"ID","DIS_CODE":"DIS_CODE","TOWNNAME":"TOWNNAME","LI":"LI","LIN":"LIN","STREET":"STREET","SECT":"SECT","MAREA":"MAREA","LANE":"LANE","ALLEY":"ALLEY","HOUSE_NO":"HOUSE_NO","E_COORD97":"E_COORD97","N_COORD97":"N_COORD97","ADDRESS":"ADDRESS","OBJECTID":"OBJECTID"},"geometryType":"esriGeometryPoint","spatialReference":{"wkid":102443,"latestWkid":3826},"fields":[{"name":"ID","type":"esriFieldTypeDouble","alias":"ID"},{"name":"DIS_CODE","type":"esriFieldTypeInteger","alias":"DIS_CODE"},{"name":"TOWNNAME","type":"esriFieldTypeString","alias":"TOWNNAME","length":8},{"name":"LI","type":"esriFieldTypeString","alias":"LI","length":8},{"name":"LIN","type":"esriFieldTypeString","alias":"LIN","length":12},{"name":"STREET","type":"esriFieldTypeString","alias":"STREET","length":20},{"name":"SECT","type":"esriFieldTypeString","alias":"SECT","length":8},{"name":"MAREA","type":"esriFieldTypeString","alias":"MAREA","length":12},{"name":"LANE","type":"esriFieldTypeString","alias":"LANE","length":10},{"name":"ALLEY","type":"esriFieldTypeString","alias":"ALLEY","length":10},{"name":"HOUSE_NO","type":"esriFieldTypeString","alias":"HOUSE_NO","length":20},{"name":"E_COORD97","type":"esriFieldTypeDouble","alias":"E_COORD97"},{"name":"N_COORD97","type":"esriFieldTypeDouble","alias":"N_COORD97"},{"name":"ADDRESS","type":"esriFieldTypeString","alias":"ADDRESS","length":50},{"name":"OBJECTID","type":"esriFieldTypeOID","alias":"OBJECTID"}],"features":[{"attributes":{"ID":45001,"DIS_CODE":0,"TOWNNAME":"後壁區","LI":"福安里","LIN":"15鄰","STREET":" ","SECT":" ","MAREA":"下寮","LANE":" ","ALLEY":" ","HOUSE_NO":"２００號之５２","E_COORD97":182973.48000000001,"N_COORD97":2580712.3199999998,"ADDRESS":"下寮２００號之５２","OBJECTID":45001},"geometry":{"x":182973.48000000045,"y":2580712.3200000003}},{"attributes":{"ID":45002,"DIS_CODE":0,"TOWNNAME":"後壁區","LI":"福安里","LIN":"15鄰","STREET":" ","SECT":" ","MAREA":"下寮","LANE":" ","ALLEY":" ","HOUSE_NO":"２００號之５３","E_COORD97":182972.76000000001,"N_COORD97":2580716.9100000001,"ADDRESS":"下寮２００號之５３","OBJECTID":45002},"geometry":{"x":182972.75999999978,"y":2580716.910000002}},{"attributes":{"ID":45003,"DIS_CODE":0,"TOWNNAME":"歸仁區","LI":"看東里","LIN":"7鄰","STREET":"成功路","SECT":"一段","MAREA":" ","LANE":"１５５巷","ALLEY":"１６弄","HOUSE_NO":"２５號","E_COORD97":178590.75,"N_COORD97":2540099.4500000002,"ADDRESS":"成功路一段１５５巷１６弄２５號","OBJECTID":45003},"geometry":{"x":178590.75,"y":2540099.4499999993}},{"attributes":{"ID":45004,"DIS_CODE":0,"TOWNNAME":"後壁區","LI":"福安里","LIN":"15鄰","STREET":" ","SECT":" ","MAREA":"下寮","LANE":" ","ALLEY":" ","HOUSE_NO":"２００號之５５","E_COORD97":182971.73999999999,"N_COORD97":2580721.04,"ADDRESS":"下寮２００號之５５","OBJECTID":45004},"geometry":{"x":182971.74000000022,"y":2580721.040000001}},{"attributes":{"ID":45005,"DIS_CODE":0,"TOWNNAME":"後壁區","LI":"福安里","LIN":"15鄰","STREET":" ","SECT":" ","MAREA":"下寮","LANE":" ","ALLEY":" ","HOUSE_NO":"２００號之５６","E_COORD97":182971.51999999999,"N_COORD97":2580724.9300000002,"ADDRESS":"下寮２００號之５６","OBJECTID":45005},"geometry":{"x":182971.52000000048,"y":2580724.9299999997}},{"attributes":{"ID":45006,"DIS_CODE":0,"TOWNNAME":"後壁區","LI":"福安里","LIN":"15鄰","STREET":" ","SECT":" ","MAREA":"下寮","LANE":" ","ALLEY":" ","HOUSE_NO":"２００號之５７","E_COORD97":182970.64999999999,"N_COORD97":2580729.2200000002,"ADDRESS":"下寮２００號之５７","OBJECTID":45006},"geometry":{"x":182970.65000000037,"y":2580729.2200000025}},{"attributes":{"ID":45007,"DIS_CODE":0,"TOWNNAME":"新營區","LI":"南紙里","LIN":"7鄰","STREET":"建業路","SECT":" ","MAREA":" ","LANE":"２６９巷","ALLEY":"２０弄","HOUSE_NO":"２１號","E_COORD97":177927.06,"N_COORD97":2577410.9700000002,"ADDRESS":"建業路２６９巷２０弄２１號","OBJECTID":45007},"geometry":{"x":177927.05999999959,"y":2577410.9700000025}},{"attributes":{"ID":45008,"DIS_CODE":0,"TOWNNAME":"北區","LI":"大豐里","LIN":"7鄰","STREET":"文賢路","SECT":" ","MAREA":" ","LANE":"３１３巷","ALLEY":"５３弄","HOUSE_NO":"６號","E_COORD97":167154.91,"N_COORD97":2545235.52,"ADDRESS":"文賢路３１３巷５３弄６號","OBJECTID":45008},"geometry":{"x":167154.91000000108,"y":2545235.5200000014}},{"attributes":{"ID":45009,"DIS_CODE":0,"TOWNNAME":"南區","LI":"南華里","LIN":"7鄰","STREET":"中華南路","SECT":"二段","MAREA":" ","LANE":"４００巷","ALLEY":"４弄","HOUSE_NO":"１０號","E_COORD97":166451.72,"N_COORD97":2540353.4199999999,"ADDRESS":"中華南路二段４００巷４弄１０號","OBJECTID":45009},"geometry":{"x":166451.71999999974,"y":2540353.4200000018}},{"attributes":{"ID":45010,"DIS_CODE":0,"TOWNNAME":"南區","LI":"南華里","LIN":"7鄰","STREET":"中華南路","SECT":"二段","MAREA":" ","LANE":"４００巷","ALLEY":"４弄","HOUSE_NO":"１２號","E_COORD97":166460.85999999999,"N_COORD97":2540353.1899999999,"ADDRESS":"中華南路二段４００巷４弄１２號","OBJECTID":45010},"geometry":{"x":166460.86000000127,"y":2540353.1899999995}},{"attributes":{"ID":45011,"DIS_CODE":0,"TOWNNAME":"南區","LI":"南華里","LIN":"7鄰","STREET":"中華南路","SECT":"二段","MAREA":" ","LANE":"４００巷","ALLEY":"４弄","HOUSE_NO":"１４號","E_COORD97":166470.57999999999,"N_COORD97":2540353.1899999999,"ADDRESS":"中華南路二段４００巷４弄１４號","OBJECTID":45011},"geometry":{"x":166470.58000000101,"y":2540353.1899999995}},{"attributes":{"ID":45012,"DIS_CODE":0,"TOWNNAME":"南區","LI":"南華里","LIN":"7鄰","STREET":"中華南路","SECT":"二段","MAREA":" ","LANE":"４００巷","ALLEY":"４弄","HOUSE_NO":"１６號","E_COORD97":166478.78,"N_COORD97":2540353.6499999999,"ADDRESS":"中華南路二段４００巷４弄１６號","OBJECTID":45012},"geometry":{"x":166478.78000000026,"y":2540353.6500000004}},{"attributes":{"ID":45013,"DIS_CODE":0,"TOWNNAME":"南區","LI":"南華里","LIN":"7鄰","STREET":"中華南路","SECT":"二段","MAREA":" ","LANE":"４００巷","ALLEY":"４弄","HOUSE_NO":"２號","E_COORD97":166418.69,"N_COORD97":2540353.54,"ADDRESS":"中華南路二段４００巷４弄２號","OBJECTID":45013},"geometry":{"x":166418.69000000041,"y":2540353.5399999991}},{"attributes":{"ID":45014,"DIS_CODE":0,"TOWNNAME":"南區","LI":"南華里","LIN":"7鄰","STREET":"中華南路","SECT":"二段","MAREA":" ","LANE":"４００巷","ALLEY":"４弄","HOUSE_NO":"４號","E_COORD97":166426.42000000001,"N_COORD97":2540353.6499999999,"ADDRESS":"中華南路二段４００巷４弄４號","OBJECTID":45014},"geometry":{"x":166426.41999999993,"y":2540353.6500000004}},{"attributes":{"ID":45015,"DIS_CODE":0,"TOWNNAME":"中西區","LI":"水仙里","LIN":"17鄰","STREET":"普濟街","SECT":" ","MAREA":" ","LANE":" ","ALLEY":" ","HOUSE_NO":"２８號","E_COORD97":167824.94,"N_COORD97":2544225.9300000002,"ADDRESS":"普濟街２８號","OBJECTID":45015},"geometry":{"x":167824.94000000134,"y":2544225.9300000016}},{"attributes":{"ID":45016,"DIS_CODE":0,"TOWNNAME":"中西區","LI":"水仙里","LIN":"17鄰","STREET":"普濟街","SECT":" ","MAREA":" ","LANE":" ","ALLEY":" ","HOUSE_NO":"３２號","E_COORD97":167825.39999999999,"N_COORD97":2544228.0800000001,"ADDRESS":"普濟街３２號","OBJECTID":45016},"geometry":{"x":167825.40000000037,"y":2544228.0800000019}},{"attributes":{"ID":45017,"DIS_CODE":0,"TOWNNAME":"中西區","LI":"水仙里","LIN":"17鄰","STREET":"普濟街","SECT":" ","MAREA":" ","LANE":" ","ALLEY":" ","HOUSE_NO":"３４號","E_COORD97":167825.54000000001,"N_COORD97":2544231.4199999999,"ADDRESS":"普濟街３４號","OBJECTID":45017},"geometry":{"x":167825.54000000097,"y":2544231.4200000037}},{"attributes":{"ID":45018,"DIS_CODE":0,"TOWNNAME":"後壁區","LI":"福安里","LIN":"15鄰","STREET":" ","SECT":" ","MAREA":"下寮","LANE":" ","ALLEY":" ","HOUSE_NO":"２００號之５８","E_COORD97":182970.04999999999,"N_COORD97":2580733.2200000002,"ADDRESS":"下寮２００號之５８","OBJECTID":45018},"geometry":{"x":182970.05000000075,"y":2580733.2200000007}},{"attributes":{"ID":45019,"DIS_CODE":0,"TOWNNAME":"後壁區","LI":"福安里","LIN":"15鄰","STREET":" ","SECT":" ","MAREA":"下寮","LANE":" ","ALLEY":" ","HOUSE_NO":"２００號之５９","E_COORD97":182969.03,"N_COORD97":2580737.25,"ADDRESS":"下寮２００號之５９","OBJECTID":45019},"geometry":{"x":182969.03000000119,"y":2580737.2500000019}},{"attributes":{"ID":45020,"DIS_CODE":0,"TOWNNAME":"後壁區","LI":"福安里","LIN":"15鄰","STREET":" ","SECT":" ","MAREA":"下寮","LANE":" ","ALLEY":" ","HOUSE_NO":"２００號之５","E_COORD97":182863.60000000001,"N_COORD97":2580750.48,"ADDRESS":"下寮２００號之５","OBJECTID":45020},"geometry":{"x":182863.59999999963,"y":2580750.4800000023}},{"attributes":{"ID":45021,"DIS_CODE":0,"TOWNNAME":"後壁區","LI":"福安里","LIN":"15鄰","STREET":" ","SECT":" ","MAREA":"下寮","LANE":" ","ALLEY":" ","HOUSE_NO":"２００號之６０","E_COORD97":182998.42999999999,"N_COORD97":2580687.3399999999,"ADDRESS":"下寮２００號之６０","OBJECTID":45021},"geometry":{"x":182998.4299999997,"y":2580687.3399999999}},{"attributes":{"ID":45022,"DIS_CODE":0,"TOWNNAME":"後壁區","LI":"福安里","LIN":"15鄰","STREET":" ","SECT":" ","MAREA":"下寮","LANE":" ","ALLEY":" ","HOUSE_NO":"２００號之６１","E_COORD97":182997.48000000001,"N_COORD97":2580691.6000000001,"ADDRESS":"下寮２００號之６１","OBJECTID":45022},"geometry":{"x":182997.48000000045,"y":2580691.6000000015}},{"attributes":{"ID":45023,"DIS_CODE":0,"TOWNNAME":"後壁區","LI":"福安里","LIN":"15鄰","STREET":" ","SECT":" ","MAREA":"下寮","LANE":" ","ALLEY":" ","HOUSE_NO":"２００號之６２","E_COORD97":182996.98999999999,"N_COORD97":2580695.6400000001,"ADDRESS":"下寮２００號之６２","OBJECTID":45023},"geometry":{"x":182996.99000000022,"y":2580695.6400000025}},{"attributes":{"ID":45024,"DIS_CODE":0,"TOWNNAME":"後壁區","LI":"福安里","LIN":"15鄰","STREET":" ","SECT":" ","MAREA":"下寮","LANE":" ","ALLEY":" ","HOUSE_NO":"２００號之６３","E_COORD97":182996.20000000001,"N_COORD97":2580699.9100000001,"ADDRESS":"下寮２００號之６３","OBJECTID":45024},"geometry":{"x":182996.20000000112,"y":2580699.910000002}},{"attributes":{"ID":45025,"DIS_CODE":0,"TOWNNAME":"後壁區","LI":"福安里","LIN":"15鄰","STREET":" ","SECT":" ","MAREA":"下寮","LANE":" ","ALLEY":" ","HOUSE_NO":"２００號之６５","E_COORD97":182995.63,"N_COORD97":2580704.1099999999,"ADDRESS":"下寮２００號之６５","OBJECTID":45025},"geometry":{"x":182995.62999999989,"y":2580704.1100000013}},{"attributes":{"ID":45026,"DIS_CODE":0,"TOWNNAME":"後壁區","LI":"福安里","LIN":"15鄰","STREET":" ","SECT":" ","MAREA":"下寮","LANE":" ","ALLEY":" ","HOUSE_NO":"２００號之６６","E_COORD97":182995.01999999999,"N_COORD97":2580707.98,"ADDRESS":"下寮２００號之６６","OBJECTID":45026},"geometry":{"x":182995.02000000048,"y":2580707.9800000004}},{"attributes":{"ID":45027,"DIS_CODE":0,"TOWNNAME":"後壁區","LI":"福安里","LIN":"15鄰","STREET":" ","SECT":" ","MAREA":"下寮","LANE":" ","ALLEY":" ","HOUSE_NO":"２００號之６７","E_COORD97":182994.23999999999,"N_COORD97":2580712.2400000002,"ADDRESS":"下寮２００號之６７","OBJECTID":45027},"geometry":{"x":182994.24000000115,"y":2580712.2400000002}},{"attributes":{"ID":45028,"DIS_CODE":0,"TOWNNAME":"後壁區","LI":"福安里","LIN":"15鄰","STREET":" ","SECT":" ","MAREA":"下寮","LANE":" ","ALLEY":" ","HOUSE_NO":"２００號之６８","E_COORD97":182993.42000000001,"N_COORD97":2580716.1400000001,"ADDRESS":"下寮２００號之６８","OBJECTID":45028},"geometry":{"x":182993.41999999993,"y":2580716.1400000025}},{"attributes":{"ID":45029,"DIS_CODE":0,"TOWNNAME":"後壁區","LI":"福安里","LIN":"15鄰","STREET":" ","SECT":" ","MAREA":"下寮","LANE":" ","ALLEY":" ","HOUSE_NO":"２００號之６９","E_COORD97":182992.82999999999,"N_COORD97":2580720.4199999999,"ADDRESS":"下寮２００號之６９","OBJECTID":45029},"geometry":{"x":182992.83000000007,"y":2580720.4200000018}},{"attributes":{"ID":45030,"DIS_CODE":0,"TOWNNAME":"南區","LI":"南華里","LIN":"7鄰","STREET":"中華南路","SECT":"二段","MAREA":" ","LANE":"４００巷","ALLEY":"４弄","HOUSE_NO":"６號","E_COORD97":166434.26999999999,"N_COORD97":2540352.8399999999,"ADDRESS":"中華南路二段４００巷４弄６號","OBJECTID":45030},"geometry":{"x":166434.26999999955,"y":2540352.8399999999}},{"attributes":{"ID":45031,"DIS_CODE":0,"TOWNNAME":"南區","LI":"南華里","LIN":"7鄰","STREET":"中華南路","SECT":"二段","MAREA":" ","LANE":"４００巷","ALLEY":"４弄","HOUSE_NO":"８號","E_COORD97":166442.82000000001,"N_COORD97":2540353.1899999999,"ADDRESS":"中華南路二段４００巷４弄８號","OBJECTID":45031},"geometry":{"x":166442.8200000003,"y":2540353.1899999995}},{"attributes":{"ID":45032,"DIS_CODE":0,"TOWNNAME":"新營區","LI":"南紙里","LIN":"7鄰","STREET":"建業路","SECT":" ","MAREA":" ","LANE":"２６９巷","ALLEY":"２０弄","HOUSE_NO":"１７號","E_COORD97":177937.22,"N_COORD97":2577410.9199999999,"ADDRESS":"建業路２６９巷２０弄１７號","OBJECTID":45032},"geometry":{"x":177937.22000000067,"y":2577410.9200000018}},{"attributes":{"ID":45033,"DIS_CODE":0,"TOWNNAME":"安平區","LI":"平安里","LIN":"7鄰","STREET":"安平路","SECT":" ","MAREA":" ","LANE":"３７０巷","ALLEY":"３弄","HOUSE_NO":"１３號","E_COORD97":165475.70999999999,"N_COORD97":2544368.5099999998,"ADDRESS":"安平路３７０巷３弄１３號","OBJECTID":45033},"geometry":{"x":165475.70999999903,"y":2544368.5099999998}},{"attributes":{"ID":45034,"DIS_CODE":0,"TOWNNAME":"安平區","LI":"平安里","LIN":"7鄰","STREET":"安平路","SECT":" ","MAREA":" ","LANE":"３７０巷","ALLEY":"３弄","HOUSE_NO":"１４號","E_COORD97":165474.60000000001,"N_COORD97":2544387.7599999998,"ADDRESS":"安平路３７０巷３弄１４號","OBJECTID":45034},"geometry":{"x":165474.60000000149,"y":2544387.7599999998}},{"attributes":{"ID":45035,"DIS_CODE":0,"TOWNNAME":"安平區","LI":"平安里","LIN":"7鄰","STREET":"安平路","SECT":" ","MAREA":" ","LANE":"３７０巷","ALLEY":"３弄","HOUSE_NO":"１５號","E_COORD97":165465.35000000001,"N_COORD97":2544368.0299999998,"ADDRESS":"安平路３７０巷３弄１５號","OBJECTID":45035},"geometry":{"x":165465.34999999963,"y":2544368.0299999993}},{"attributes":{"ID":45036,"DIS_CODE":0,"TOWNNAME":"後壁區","LI":"福安里","LIN":"15鄰","STREET":" ","SECT":" ","MAREA":"下寮","LANE":" ","ALLEY":" ","HOUSE_NO":"２００號之６","E_COORD97":182915.25,"N_COORD97":2580738.6600000001,"ADDRESS":"下寮２００號之６","OBJECTID":45036},"geometry":{"x":182915.25,"y":2580738.660000002}},{"attributes":{"ID":45037,"DIS_CODE":0,"TOWNNAME":"後壁區","LI":"福安里","LIN":"15鄰","STREET":" ","SECT":" ","MAREA":"下寮","LANE":" ","ALLEY":" ","HOUSE_NO":"２００號之７０","E_COORD97":182991.54000000001,"N_COORD97":2580724.6299999999,"ADDRESS":"下寮２００號之７０","OBJECTID":45037},"geometry":{"x":182991.54000000004,"y":2580724.6300000008}},{"attributes":{"ID":45038,"DIS_CODE":0,"TOWNNAME":"後壁區","LI":"福安里","LIN":"15鄰","STREET":" ","SECT":" ","MAREA":"下寮","LANE":" ","ALLEY":" ","HOUSE_NO":"２００號之７１","E_COORD97":182991.01999999999,"N_COORD97":2580728.5099999998,"ADDRESS":"下寮２００號之７１","OBJECTID":45038},"geometry":{"x":182991.01999999955,"y":2580728.5100000016}},{"attributes":{"ID":45039,"DIS_CODE":0,"TOWNNAME":"後壁區","LI":"福安里","LIN":"15鄰","STREET":" ","SECT":" ","MAREA":"下寮","LANE":" ","ALLEY":" ","HOUSE_NO":"２００號之７２","E_COORD97":182989.97,"N_COORD97":2580733.2400000002,"ADDRESS":"下寮２００號之７２","OBJECTID":45039},"geometry":{"x":182989.96999999974,"y":2580733.2400000002}},{"attributes":{"ID":45040,"DIS_CODE":0,"TOWNNAME":"後壁區","LI":"福安里","LIN":"15鄰","STREET":" ","SECT":" ","MAREA":"下寮","LANE":" ","ALLEY":" ","HOUSE_NO":"２００號之７３","E_COORD97":182989.70999999999,"N_COORD97":2580737.23,"ADDRESS":"下寮２００號之７３","OBJECTID":45040},"geometry":{"x":182989.70999999996,"y":2580737.2300000004}},{"attributes":{"ID":45041,"DIS_CODE":0,"TOWNNAME":"安平區","LI":"平安里","LIN":"7鄰","STREET":"安平路","SECT":" ","MAREA":" ","LANE":"３７０巷","ALLEY":"３弄","HOUSE_NO":"１６號","E_COORD97":165463.54999999999,"N_COORD97":2544386.8599999999,"ADDRESS":"安平路３７０巷３弄１６號","OBJECTID":45041},"geometry":{"x":165463.55000000075,"y":2544386.8599999994}},{"attributes":{"ID":45042,"DIS_CODE":0,"TOWNNAME":"安平區","LI":"平安里","LIN":"7鄰","STREET":"安平路","SECT":" ","MAREA":" ","LANE":"３７０巷","ALLEY":"３弄","HOUSE_NO":"１７號","E_COORD97":165453.75,"N_COORD97":2544368.1000000001,"ADDRESS":"安平路３７０巷３弄１７號","OBJECTID":45042},"geometry":{"x":165453.75000000093,"y":2544368.0999999996}},{"attributes":{"ID":45043,"DIS_CODE":0,"TOWNNAME":"安平區","LI":"平安里","LIN":"7鄰","STREET":"安平路","SECT":" ","MAREA":" ","LANE":"３７０巷","ALLEY":"３弄","HOUSE_NO":"１８號","E_COORD97":165452.64000000001,"N_COORD97":2544386.2400000002,"ADDRESS":"安平路３７０巷３弄１８號","OBJECTID":45043},"geometry":{"x":165452.6400000006,"y":2544386.2400000021}},{"attributes":{"ID":45044,"DIS_CODE":0,"TOWNNAME":"安平區","LI":"平安里","LIN":"7鄰","STREET":"安平路","SECT":" ","MAREA":" ","LANE":"３７０巷","ALLEY":"３弄","HOUSE_NO":"１９號","E_COORD97":165442.91,"N_COORD97":2544367.48,"ADDRESS":"安平路３７０巷３弄１９號","OBJECTID":45044},"geometry":{"x":165442.91000000108,"y":2544367.4800000042}},{"attributes":{"ID":45045,"DIS_CODE":0,"TOWNNAME":"安平區","LI":"平安里","LIN":"7鄰","STREET":"安平路","SECT":" ","MAREA":" ","LANE":"３７０巷","ALLEY":"３弄","HOUSE_NO":"２０號","E_COORD97":165445.38,"N_COORD97":2544385.1600000001,"ADDRESS":"安平路３７０巷３弄２０號","OBJECTID":45045},"geometry":{"x":165445.37999999989,"y":2544385.1600000001}},{"attributes":{"ID":45046,"DIS_CODE":0,"TOWNNAME":"安平區","LI":"平安里","LIN":"7鄰","STREET":"安平路","SECT":" ","MAREA":" ","LANE":"３７０巷","ALLEY":"３弄","HOUSE_NO":"２１號","E_COORD97":165431.59,"N_COORD97":2544366.0299999998,"ADDRESS":"安平路３７０巷３弄２１號","OBJECTID":45046},"geometry":{"x":165431.58999999985,"y":2544366.0300000031}},{"attributes":{"ID":45047,"DIS_CODE":0,"TOWNNAME":"安平區","LI":"平安里","LIN":"7鄰","STREET":"安平路","SECT":" ","MAREA":" ","LANE":"３７０巷","ALLEY":"３弄","HOUSE_NO":"２２號","E_COORD97":165437.94,"N_COORD97":2544384.3599999999,"ADDRESS":"安平路３７０巷３弄２２號","OBJECTID":45047},"geometry":{"x":165437.94000000134,"y":2544384.3600000013}},{"attributes":{"ID":45048,"DIS_CODE":0,"TOWNNAME":"安平區","LI":"平安里","LIN":"7鄰","STREET":"安平路","SECT":" ","MAREA":" ","LANE":"３７０巷","ALLEY":"３弄","HOUSE_NO":"２３號","E_COORD97":165419.70999999999,"N_COORD97":2544363.8900000001,"ADDRESS":"安平路３７０巷３弄２３號","OBJECTID":45048},"geometry":{"x":165419.70999999996,"y":2544363.8900000006}},{"attributes":{"ID":45049,"DIS_CODE":0,"TOWNNAME":"中西區","LI":"水仙里","LIN":"17鄰","STREET":"普濟街","SECT":" ","MAREA":" ","LANE":" ","ALLEY":" ","HOUSE_NO":"１４號","E_COORD97":167813.85000000001,"N_COORD97":2544202.2799999998,"ADDRESS":"普濟街１４號","OBJECTID":45049},"geometry":{"x":167813.85000000149,"y":2544202.2800000012}},{"attributes":{"ID":45050,"DIS_CODE":0,"TOWNNAME":"中西區","LI":"水仙里","LIN":"17鄰","STREET":"普濟街","SECT":" ","MAREA":" ","LANE":" ","ALLEY":" ","HOUSE_NO":"１６號","E_COORD97":167814.41,"N_COORD97":2544205.7599999998,"ADDRESS":"普濟街１６號","OBJECTID":45050},"geometry":{"x":167814.41000000108,"y":2544205.7600000016}},{"attributes":{"ID":45051,"DIS_CODE":0,"TOWNNAME":"後壁區","LI":"福安里","LIN":"15鄰","STREET":" ","SECT":" ","MAREA":"下寮","LANE":" ","ALLEY":" ","HOUSE_NO":"２００號之７５","E_COORD97":182989.01999999999,"N_COORD97":2580740.6699999999,"ADDRESS":"下寮２００號之７５","OBJECTID":45051},"geometry":{"x":182989.01999999955,"y":2580740.6699999981}},{"attributes":{"ID":45052,"DIS_CODE":0,"TOWNNAME":"安平區","LI":"平安里","LIN":"7鄰","STREET":"安平路","SECT":" ","MAREA":" ","LANE":"３７０巷","ALLEY":"３弄","HOUSE_NO":"２４號","E_COORD97":165431.76000000001,"N_COORD97":2544383.8999999999,"ADDRESS":"安平路３７０巷３弄２４號","OBJECTID":45052},"geometry":{"x":165431.76000000071,"y":2544383.9000000004}},{"attributes":{"ID":45053,"DIS_CODE":0,"TOWNNAME":"安平區","LI":"西門里","LIN":"7鄰","STREET":"安北路","SECT":" ","MAREA":" ","LANE":"２３３巷","ALLEY":"２弄","HOUSE_NO":"１２號","E_COORD97":163814.87,"N_COORD97":2544741.79,"ADDRESS":"安北路２３３巷２弄１２號","OBJECTID":45053},"geometry":{"x":163814.87000000011,"y":2544741.790000001}},{"attributes":{"ID":45054,"DIS_CODE":0,"TOWNNAME":"安平區","LI":"西門里","LIN":"7鄰","STREET":"安北路","SECT":" ","MAREA":" ","LANE":"２３３巷","ALLEY":"２弄","HOUSE_NO":"２號","E_COORD97":163795.07999999999,"N_COORD97":2544728.6299999999,"ADDRESS":"安北路２３３巷２弄２號","OBJECTID":45054},"geometry":{"x":163795.07999999914,"y":2544728.6300000008}},{"attributes":{"ID":45055,"DIS_CODE":0,"TOWNNAME":"安平區","LI":"西門里","LIN":"7鄰","STREET":"安北路","SECT":" ","MAREA":" ","LANE":"２３３巷","ALLEY":"２弄","HOUSE_NO":"６號","E_COORD97":163791.25,"N_COORD97":2544737.2999999998,"ADDRESS":"安北路２３３巷２弄６號","OBJECTID":45055},"geometry":{"x":163791.25000000093,"y":2544737.3000000007}},{"attributes":{"ID":45056,"DIS_CODE":0,"TOWNNAME":"北區","LI":"元寶里","LIN":"5鄰","STREET":"北園街","SECT":" ","MAREA":" ","LANE":"８巷","ALLEY":"９弄","HOUSE_NO":"１０號","E_COORD97":170396.19,"N_COORD97":2545742.0099999998,"ADDRESS":"北園街８巷９弄１０號","OBJECTID":45056},"geometry":{"x":170396.19000000134,"y":2545742.0099999998}},{"attributes":{"ID":45057,"DIS_CODE":0,"TOWNNAME":"北區","LI":"元寶里","LIN":"7鄰","STREET":"北園街","SECT":" ","MAREA":" ","LANE":"８巷","ALLEY":"９弄","HOUSE_NO":"１號","E_COORD97":170406.76999999999,"N_COORD97":2545675.4399999999,"ADDRESS":"北園街８巷９弄１號","OBJECTID":45057},"geometry":{"x":170406.77000000048,"y":2545675.4400000032}},{"attributes":{"ID":45058,"DIS_CODE":0,"TOWNNAME":"北區","LI":"元寶里","LIN":"7鄰","STREET":"北園街","SECT":" ","MAREA":" ","LANE":"８巷","ALLEY":"９弄","HOUSE_NO":"２號","E_COORD97":170405.87,"N_COORD97":2545681.7400000002,"ADDRESS":"北園街８巷９弄２號","OBJECTID":45058},"geometry":{"x":170405.87000000011,"y":2545681.7400000021}},{"attributes":{"ID":45059,"DIS_CODE":0,"TOWNNAME":"北區","LI":"元寶里","LIN":"7鄰","STREET":"北園街","SECT":" ","MAREA":" ","LANE":"８巷","ALLEY":"９弄","HOUSE_NO":"３號","E_COORD97":170404.97,"N_COORD97":2545687.3599999999,"ADDRESS":"北園街８巷９弄３號","OBJECTID":45059},"geometry":{"x":170404.96999999974,"y":2545687.3600000013}},{"attributes":{"ID":45060,"DIS_CODE":0,"TOWNNAME":"北區","LI":"元寶里","LIN":"4鄰","STREET":"北園街","SECT":" ","MAREA":" ","LANE":"８巷","ALLEY":"９弄","HOUSE_NO":"１１號","E_COORD97":170396.64000000001,"N_COORD97":2545760.8900000001,"ADDRESS":"北園街８巷９弄１１號","OBJECTID":45060},"geometry":{"x":170396.63999999966,"y":2545760.8900000006}},{"attributes":{"ID":45061,"DIS_CODE":0,"TOWNNAME":"北區","LI":"元寶里","LIN":"4鄰","STREET":"北園街","SECT":" ","MAREA":" ","LANE":"８巷","ALLEY":"９弄","HOUSE_NO":"１２號","E_COORD97":170395.97,"N_COORD97":2545766.5099999998,"ADDRESS":"北園街８巷９弄１２號","OBJECTID":45061},"geometry":{"x":170395.96999999974,"y":2545766.5100000035}},{"attributes":{"ID":45062,"DIS_CODE":0,"TOWNNAME":"北區","LI":"元寶里","LIN":"4鄰","STREET":"北園街","SECT":" ","MAREA":" ","LANE":"８巷","ALLEY":"９弄","HOUSE_NO":"１３號","E_COORD97":170395.07000000001,"N_COORD97":2545771.0099999998,"ADDRESS":"北園街８巷９弄１３號","OBJECTID":45062},"geometry":{"x":170395.07000000123,"y":2545771.0100000016}},{"attributes":{"ID":45063,"DIS_CODE":0,"TOWNNAME":"後壁區","LI":"福安里","LIN":"15鄰","STREET":" ","SECT":" ","MAREA":"下寮","LANE":" ","ALLEY":" ","HOUSE_NO":"２００號之７６","E_COORD97":182990.48999999999,"N_COORD97":2580751.8700000001,"ADDRESS":"下寮２００號之７６","OBJECTID":45063},"geometry":{"x":182990.48999999929,"y":2580751.8700000029}},{"attributes":{"ID":45064,"DIS_CODE":0,"TOWNNAME":"後壁區","LI":"福安里","LIN":"15鄰","STREET":" ","SECT":" ","MAREA":"下寮","LANE":" ","ALLEY":" ","HOUSE_NO":"２００號之７７","E_COORD97":182989.5,"N_COORD97":2580755.6800000002,"ADDRESS":"下寮２００號之７７","OBJECTID":45064},"geometry":{"x":182989.5,"y":2580755.6800000016}},{"attributes":{"ID":45065,"DIS_CODE":0,"TOWNNAME":"安平區","LI":"建平里","LIN":"26鄰","STREET":"建平九街","SECT":" ","MAREA":" ","LANE":"６０巷","ALLEY":"１３弄","HOUSE_NO":"３５號","E_COORD97":165907.12558299999,"N_COORD97":2543582.1789899999,"ADDRESS":"建平九街６０巷１３弄３５號","OBJECTID":45065},"geometry":{"x":165907.12558299955,"y":2543582.1789900009}},{"attributes":{"ID":45066,"DIS_CODE":0,"TOWNNAME":"安平區","LI":"建平里","LIN":"26鄰","STREET":"建平九街","SECT":" ","MAREA":" ","LANE":"６０巷","ALLEY":"１３弄","HOUSE_NO":"３３號","E_COORD97":165912.63494600001,"N_COORD97":2543581.0148200002,"ADDRESS":"建平九街６０巷１３弄３３號","OBJECTID":45066},"geometry":{"x":165912.63494599983,"y":2543581.014824003}},{"attributes":{"ID":45067,"DIS_CODE":0,"TOWNNAME":"歸仁區","LI":"大廟里","LIN":"19鄰","STREET":"大廟一街","SECT":" ","MAREA":" ","LANE":" ","ALLEY":" ","HOUSE_NO":"６號","E_COORD97":175873.92000000001,"N_COORD97":2544142.25,"ADDRESS":"大廟一街６號","OBJECTID":45067},"geometry":{"x":175873.91999999993,"y":2544142.2500000019}},{"attributes":{"ID":45068,"DIS_CODE":0,"TOWNNAME":"後壁區","LI":"福安里","LIN":"15鄰","STREET":" ","SECT":" ","MAREA":"下寮","LANE":" ","ALLEY":" ","HOUSE_NO":"２００號之７８","E_COORD97":182988.78,"N_COORD97":2580760.1600000001,"ADDRESS":"下寮２００號之７８","OBJECTID":45068},"geometry":{"x":182988.78000000212,"y":2580760.1600000001}},{"attributes":{"ID":45069,"DIS_CODE":0,"TOWNNAME":"後壁區","LI":"福安里","LIN":"15鄰","STREET":" ","SECT":" ","MAREA":"下寮","LANE":" ","ALLEY":" ","HOUSE_NO":"２００號之７９","E_COORD97":182988.28,"N_COORD97":2580764.6000000001,"ADDRESS":"下寮２００號之７９","OBJECTID":45069},"geometry":{"x":182988.28000000026,"y":2580764.6000000034}},{"attributes":{"ID":45070,"DIS_CODE":0,"TOWNNAME":"後壁區","LI":"福安里","LIN":"15鄰","STREET":" ","SECT":" ","MAREA":"下寮","LANE":" ","ALLEY":" ","HOUSE_NO":"２００號之８０","E_COORD97":182987.45999999999,"N_COORD97":2580768.9300000002,"ADDRESS":"下寮２００號之８０","OBJECTID":45070},"geometry":{"x":182987.46000000089,"y":2580768.9299999997}},{"attributes":{"ID":45071,"DIS_CODE":0,"TOWNNAME":"後壁區","LI":"福安里","LIN":"15鄰","STREET":" ","SECT":" ","MAREA":"下寮","LANE":" ","ALLEY":" ","HOUSE_NO":"２００號之８１","E_COORD97":182986.42000000001,"N_COORD97":2580772.8300000001,"ADDRESS":"下寮２００號之８１","OBJECTID":45071},"geometry":{"x":182986.42000000086,"y":2580772.8300000001}},{"attributes":{"ID":45072,"DIS_CODE":0,"TOWNNAME":"後壁區","LI":"福安里","LIN":"15鄰","STREET":" ","SECT":" ","MAREA":"下寮","LANE":" ","ALLEY":" ","HOUSE_NO":"２００號之８２","E_COORD97":182985.70000000001,"N_COORD97":2580776.75,"ADDRESS":"下寮２００號之８２","OBJECTID":45072},"geometry":{"x":182985.70000000205,"y":2580776.75}},{"attributes":{"ID":45073,"DIS_CODE":0,"TOWNNAME":"後壁區","LI":"福安里","LIN":"15鄰","STREET":" ","SECT":" ","MAREA":"下寮","LANE":" ","ALLEY":" ","HOUSE_NO":"２００號之８３","E_COORD97":182985.09,"N_COORD97":2580781.3799999999,"ADDRESS":"下寮２００號之８３","OBJECTID":45073},"geometry":{"x":182985.09000000078,"y":2580781.379999999}},{"attributes":{"ID":45074,"DIS_CODE":0,"TOWNNAME":"後壁區","LI":"福安里","LIN":"15鄰","STREET":" ","SECT":" ","MAREA":"下寮","LANE":" ","ALLEY":" ","HOUSE_NO":"２００號之８５","E_COORD97":182961.84,"N_COORD97":2580778.02,"ADDRESS":"下寮２００號之８５","OBJECTID":45074},"geometry":{"x":182961.83999999985,"y":2580778.0199999996}},{"attributes":{"ID":45075,"DIS_CODE":0,"TOWNNAME":"後壁區","LI":"福安里","LIN":"15鄰","STREET":" ","SECT":" ","MAREA":"下寮","LANE":" ","ALLEY":" ","HOUSE_NO":"２００號之８６","E_COORD97":182962.5,"N_COORD97":2580773.1899999999,"ADDRESS":"下寮２００號之８６","OBJECTID":45075},"geometry":{"x":182962.5,"y":2580773.1899999995}},{"attributes":{"ID":45076,"DIS_CODE":0,"TOWNNAME":"後壁區","LI":"福安里","LIN":"15鄰","STREET":" ","SECT":" ","MAREA":"下寮","LANE":" ","ALLEY":" ","HOUSE_NO":"２００號之８７","E_COORD97":182963.48999999999,"N_COORD97":2580769.2000000002,"ADDRESS":"下寮２００號之８７","OBJECTID":45076},"geometry":{"x":182963.49000000209,"y":2580769.1999999993}},{"attributes":{"ID":45077,"DIS_CODE":0,"TOWNNAME":"後壁區","LI":"福安里","LIN":"15鄰","STREET":" ","SECT":" ","MAREA":"下寮","LANE":" ","ALLEY":" ","HOUSE_NO":"２００號之８８","E_COORD97":182964.07999999999,"N_COORD97":2580765.0699999998,"ADDRESS":"下寮２００號之８８","OBJECTID":45077},"geometry":{"x":182964.08000000007,"y":2580765.0700000003}},{"attributes":{"ID":45078,"DIS_CODE":0,"TOWNNAME":"後壁區","LI":"福安里","LIN":"15鄰","STREET":" ","SECT":" ","MAREA":"下寮","LANE":" ","ALLEY":" ","HOUSE_NO":"２００號之８９","E_COORD97":182964.64999999999,"N_COORD97":2580761.2000000002,"ADDRESS":"下寮２００號之８９","OBJECTID":45078},"geometry":{"x":182964.6500000013,"y":2580761.2000000011}},{"attributes":{"ID":45079,"DIS_CODE":0,"TOWNNAME":"後壁區","LI":"福安里","LIN":"15鄰","STREET":" ","SECT":" ","MAREA":"下寮","LANE":" ","ALLEY":" ","HOUSE_NO":"２００號之９０","E_COORD97":182965.81,"N_COORD97":2580756.5600000001,"ADDRESS":"下寮２００號之９０","OBJECTID":45079},"geometry":{"x":182965.81000000145,"y":2580756.5600000024}},{"attributes":{"ID":45080,"DIS_CODE":0,"TOWNNAME":"後壁區","LI":"福安里","LIN":"15鄰","STREET":" ","SECT":" ","MAREA":"下寮","LANE":" ","ALLEY":" ","HOUSE_NO":"２００號之９１","E_COORD97":182966.53,"N_COORD97":2580751.8399999999,"ADDRESS":"下寮２００號之９１","OBJECTID":45080},"geometry":{"x":182966.52999999933,"y":2580751.8399999999}},{"attributes":{"ID":45081,"DIS_CODE":0,"TOWNNAME":"後壁區","LI":"福安里","LIN":"15鄰","STREET":" ","SECT":" ","MAREA":"下寮","LANE":" ","ALLEY":" ","HOUSE_NO":"２００號之９２","E_COORD97":182967.60999999999,"N_COORD97":2580747.7599999998,"ADDRESS":"下寮２００號之９２","OBJECTID":45081},"geometry":{"x":182967.61000000034,"y":2580747.7600000016}},{"attributes":{"ID":45082,"DIS_CODE":0,"TOWNNAME":"後壁區","LI":"福安里","LIN":"15鄰","STREET":" ","SECT":" ","MAREA":"下寮","LANE":" ","ALLEY":" ","HOUSE_NO":"２００號之９３","E_COORD97":182948.37,"N_COORD97":2580763.3500000001,"ADDRESS":"下寮２００號之９３","OBJECTID":45082},"geometry":{"x":182948.37000000011,"y":2580763.3500000015}},{"attributes":{"ID":45083,"DIS_CODE":0,"TOWNNAME":"後壁區","LI":"福安里","LIN":"15鄰","STREET":" ","SECT":" ","MAREA":"下寮","LANE":" ","ALLEY":" ","HOUSE_NO":"２００號之９５","E_COORD97":182949.35999999999,"N_COORD97":2580758.6099999999,"ADDRESS":"下寮２００號之９５","OBJECTID":45083},"geometry":{"x":182949.36000000127,"y":2580758.6100000013}},{"attributes":{"ID":45084,"DIS_CODE":0,"TOWNNAME":"後壁區","LI":"福安里","LIN":"15鄰","STREET":" ","SECT":" ","MAREA":"下寮","LANE":" ","ALLEY":" ","HOUSE_NO":"２００號之９６","E_COORD97":182950.10999999999,"N_COORD97":2580754.1000000001,"ADDRESS":"下寮２００號之９６","OBJECTID":45084},"geometry":{"x":182950.11000000034,"y":2580754.0999999996}},{"attributes":{"ID":45085,"DIS_CODE":0,"TOWNNAME":"後壁區","LI":"福安里","LIN":"15鄰","STREET":" ","SECT":" ","MAREA":"下寮","LANE":" ","ALLEY":" ","HOUSE_NO":"２００號之９７","E_COORD97":182950.76999999999,"N_COORD97":2580749.75,"ADDRESS":"下寮２００號之９７","OBJECTID":45085},"geometry":{"x":182950.77000000142,"y":2580749.75}},{"attributes":{"ID":45086,"DIS_CODE":0,"TOWNNAME":"後壁區","LI":"福安里","LIN":"15鄰","STREET":" ","SECT":" ","MAREA":"下寮","LANE":" ","ALLEY":" ","HOUSE_NO":"２００號之９８","E_COORD97":182951.48000000001,"N_COORD97":2580745.73,"ADDRESS":"下寮２００號之９８","OBJECTID":45086},"geometry":{"x":182951.48000000045,"y":2580745.7300000023}},{"attributes":{"ID":45087,"DIS_CODE":0,"TOWNNAME":"後壁區","LI":"福安里","LIN":"15鄰","STREET":" ","SECT":" ","MAREA":"下寮","LANE":" ","ALLEY":" ","HOUSE_NO":"２００號之９９","E_COORD97":183010.47,"N_COORD97":2580735.3799999999,"ADDRESS":"下寮２００號之９９","OBJECTID":45087},"geometry":{"x":183010.46999999881,"y":2580735.3800000008}},{"attributes":{"ID":45088,"DIS_CODE":0,"TOWNNAME":"後壁區","LI":"福安里","LIN":"15鄰","STREET":" ","SECT":" ","MAREA":"下寮","LANE":" ","ALLEY":" ","HOUSE_NO":"２０５號之２","E_COORD97":182734.37,"N_COORD97":2580699.3799999999,"ADDRESS":"下寮２０５號之２","OBJECTID":45088},"geometry":{"x":182734.37000000104,"y":2580699.379999999}},{"attributes":{"ID":45089,"DIS_CODE":0,"TOWNNAME":"後壁區","LI":"福安里","LIN":"15鄰","STREET":" ","SECT":" ","MAREA":"下寮","LANE":" ","ALLEY":" ","HOUSE_NO":"２０５號之３","E_COORD97":182720.79000000001,"N_COORD97":2580675.5899999999,"ADDRESS":"下寮２０５號之３","OBJECTID":45089},"geometry":{"x":182720.79000000097,"y":2580675.5899999999}},{"attributes":{"ID":45090,"DIS_CODE":0,"TOWNNAME":"後壁區","LI":"福安里","LIN":"15鄰","STREET":" ","SECT":" ","MAREA":"下寮","LANE":" ","ALLEY":" ","HOUSE_NO":"２０６號之１０","E_COORD97":182779.70999999999,"N_COORD97":2580654.9100000001,"ADDRESS":"下寮２０６號之１０","OBJECTID":45090},"geometry":{"x":182779.70999999996,"y":2580654.9100000039}},{"attributes":{"ID":45091,"DIS_CODE":0,"TOWNNAME":"後壁區","LI":"福安里","LIN":"15鄰","STREET":" ","SECT":" ","MAREA":"下寮","LANE":" ","ALLEY":" ","HOUSE_NO":"２０６號之２","E_COORD97":182748.32000000001,"N_COORD97":2580624.4700000002,"ADDRESS":"下寮２０６號之２","OBJECTID":45091},"geometry":{"x":182748.32000000123,"y":2580624.4700000044}},{"attributes":{"ID":45092,"DIS_CODE":0,"TOWNNAME":"後壁區","LI":"福安里","LIN":"15鄰","STREET":" ","SECT":" ","MAREA":"下寮","LANE":" ","ALLEY":" ","HOUSE_NO":"２０６號之３","E_COORD97":182834.34,"N_COORD97":2580717.77,"ADDRESS":"下寮２０６號之３","OBJECTID":45092},"geometry":{"x":182834.34000000078,"y":2580717.7699999996}},{"attributes":{"ID":45093,"DIS_CODE":0,"TOWNNAME":"後壁區","LI":"福安里","LIN":"15鄰","STREET":" ","SECT":" ","MAREA":"下寮","LANE":" ","ALLEY":" ","HOUSE_NO":"２０６號之５","E_COORD97":182829.72,"N_COORD97":2580714.21,"ADDRESS":"下寮２０６號之５","OBJECTID":45093},"geometry":{"x":182829.72000000067,"y":2580714.209999999}},{"attributes":{"ID":45094,"DIS_CODE":0,"TOWNNAME":"後壁區","LI":"福安里","LIN":"15鄰","STREET":" ","SECT":" ","MAREA":"下寮","LANE":" ","ALLEY":" ","HOUSE_NO":"２０６號之６","E_COORD97":182826.03,"N_COORD97":2580710.6299999999,"ADDRESS":"下寮２０６號之６","OBJECTID":45094},"geometry":{"x":182826.03000000212,"y":2580710.6300000008}},{"attributes":{"ID":45095,"DIS_CODE":0,"TOWNNAME":"後壁區","LI":"福安里","LIN":"15鄰","STREET":" ","SECT":" ","MAREA":"下寮","LANE":" ","ALLEY":" ","HOUSE_NO":"２０６號之７","E_COORD97":182821.76999999999,"N_COORD97":2580706.5499999998,"ADDRESS":"下寮２０６號之７","OBJECTID":45095},"geometry":{"x":182821.77000000142,"y":2580706.5500000026}},{"attributes":{"ID":45096,"DIS_CODE":0,"TOWNNAME":"後壁區","LI":"福安里","LIN":"15鄰","STREET":" ","SECT":" ","MAREA":"下寮","LANE":" ","ALLEY":" ","HOUSE_NO":"２０６號之８","E_COORD97":182817.67999999999,"N_COORD97":2580702.29,"ADDRESS":"下寮２０６號之８","OBJECTID":45096},"geometry":{"x":182817.68000000063,"y":2580702.290000001}},{"attributes":{"ID":45097,"DIS_CODE":0,"TOWNNAME":"仁德區","LI":"仁義里","LIN":"54鄰","STREET":"中正路","SECT":"二段","MAREA":" ","LANE":"１１６０巷","ALLEY":"１２弄","HOUSE_NO":"２號","E_COORD97":173325.67999999999,"N_COORD97":2541232.2799999998,"ADDRESS":"中正路二段１１６０巷１２弄２號","OBJECTID":45097},"geometry":{"x":173325.6799999997,"y":2541232.2800000012}},{"attributes":{"ID":45098,"DIS_CODE":0,"TOWNNAME":"北區","LI":"元寶里","LIN":"18鄰","STREET":"開元路","SECT":" ","MAREA":" ","LANE":"４８５巷","ALLEY":"４１弄","HOUSE_NO":"１０之１０號","E_COORD97":170468.32000000001,"N_COORD97":2545790.6899999999,"ADDRESS":"開元路４８５巷４１弄１０之１０號","OBJECTID":45098},"geometry":{"x":170468.32000000123,"y":2545790.6899999995}},{"attributes":{"ID":45099,"DIS_CODE":0,"TOWNNAME":"北區","LI":"元寶里","LIN":"18鄰","STREET":"開元路","SECT":" ","MAREA":" ","LANE":"４８５巷","ALLEY":"４１弄","HOUSE_NO":"１２之１號","E_COORD97":170446.29000000001,"N_COORD97":2545787.8999999999,"ADDRESS":"開元路４８５巷４１弄１２之１號","OBJECTID":45099},"geometry":{"x":170446.29000000097,"y":2545787.9000000004}},{"attributes":{"ID":45100,"DIS_CODE":0,"TOWNNAME":"北區","LI":"元寶里","LIN":"18鄰","STREET":"開元路","SECT":" ","MAREA":" ","LANE":"４８５巷","ALLEY":"４１弄","HOUSE_NO":"１６號","E_COORD97":170483.01000000001,"N_COORD97":2545771.8300000001,"ADDRESS":"開元路４８５巷４１弄１６號","OBJECTID":45100},"geometry":{"x":170483.01000000071,"y":2545771.8300000019}},{"attributes":{"ID":45101,"DIS_CODE":0,"TOWNNAME":"永康區","LI":"\u25A0行里","LIN":"15鄰","STREET":"中正路","SECT":" ","MAREA":" ","LANE":"６３５巷","ALLEY":"１３弄","HOUSE_NO":"５號","E_COORD97":171788.84,"N_COORD97":2548912.25,"ADDRESS":"中正路６３５巷１３弄５號","OBJECTID":45101},"geometry":{"x":171788.83999999985,"y":2548912.2500000019}},{"attributes":{"ID":45102,"DIS_CODE":0,"TOWNNAME":"北區","LI":"元寶里","LIN":"18鄰","STREET":"開元路","SECT":" ","MAREA":" ","LANE":"４８５巷","ALLEY":"４１弄","HOUSE_NO":"１８號","E_COORD97":170475.32000000001,"N_COORD97":2545770.7799999998,"ADDRESS":"開元路４８５巷４１弄１８號","OBJECTID":45102},"geometry":{"x":170475.32000000123,"y":2545770.7799999993}},{"attributes":{"ID":45103,"DIS_CODE":0,"TOWNNAME":"北區","LI":"元寶里","LIN":"18鄰","STREET":"開元路","SECT":" ","MAREA":" ","LANE":"４８５巷","ALLEY":"４１弄","HOUSE_NO":"２０號","E_COORD97":170468.67000000001,"N_COORD97":2545770.0800000001,"ADDRESS":"開元路４８５巷４１弄２０號","OBJECTID":45103},"geometry":{"x":170468.67000000086,"y":2545770.0800000038}},{"attributes":{"ID":45104,"DIS_CODE":0,"TOWNNAME":"北區","LI":"元寶里","LIN":"18鄰","STREET":"開元路","SECT":" ","MAREA":" ","LANE":"４８５巷","ALLEY":"４１弄","HOUSE_NO":"２２號","E_COORD97":170462.03,"N_COORD97":2545767.6299999999,"ADDRESS":"開元路４８５巷４１弄２２號","OBJECTID":45104},"geometry":{"x":170462.03000000119,"y":2545767.629999999}},{"attributes":{"ID":45105,"DIS_CODE":0,"TOWNNAME":"永康區","LI":"神洲里","LIN":"2鄰","STREET":"忠孝路","SECT":" ","MAREA":" ","LANE":"６巷","ALLEY":"１５弄","HOUSE_NO":"３號","E_COORD97":172178.76999999999,"N_COORD97":2544606.4900000002,"ADDRESS":"忠孝路６巷１５弄３號","OBJECTID":45105},"geometry":{"x":172178.76999999955,"y":2544606.4900000002}},{"attributes":{"ID":45106,"DIS_CODE":0,"TOWNNAME":"北區","LI":"元寶里","LIN":"18鄰","STREET":"開元路","SECT":" ","MAREA":" ","LANE":"４８５巷","ALLEY":"４１弄","HOUSE_NO":"２６號","E_COORD97":170452.23999999999,"N_COORD97":2545766.5800000001,"ADDRESS":"開元路４８５巷４１弄２６號","OBJECTID":45106},"geometry":{"x":170452.24000000022,"y":2545766.5800000038}},{"attributes":{"ID":45107,"DIS_CODE":0,"TOWNNAME":"北區","LI":"元寶里","LIN":"18鄰","STREET":"開元路","SECT":" ","MAREA":" ","LANE":"４８５巷","ALLEY":"４１弄","HOUSE_NO":"２８號","E_COORD97":170443.14000000001,"N_COORD97":2545765.8900000001,"ADDRESS":"開元路４８５巷４１弄２８號","OBJECTID":45107},"geometry":{"x":170443.1400000006,"y":2545765.8900000025}},{"attributes":{"ID":45108,"DIS_CODE":0,"TOWNNAME":"北區","LI":"元寶里","LIN":"13鄰","STREET":"開元路","SECT":" ","MAREA":" ","LANE":"４８５巷","ALLEY":"４１弄","HOUSE_NO":"１號","E_COORD97":170463.78,"N_COORD97":2545742.02,"ADDRESS":"開元路４８５巷４１弄１號","OBJECTID":45108},"geometry":{"x":170463.78000000026,"y":2545742.0199999996}},{"attributes":{"ID":45109,"DIS_CODE":0,"TOWNNAME":"永康區","LI":"勝利里","LIN":"15鄰","STREET":"勝利街","SECT":" ","MAREA":" ","LANE":"２２巷","ALLEY":"４５弄","HOUSE_NO":"７５號","E_COORD97":171236.53,"N_COORD97":2544816.4900000002,"ADDRESS":"勝利街２２巷４５弄７５號","OBJECTID":45109},"geometry":{"x":171236.53000000119,"y":2544816.4900000002}},{"attributes":{"ID":45110,"DIS_CODE":0,"TOWNNAME":"永康區","LI":"\u25A0行里","LIN":"15鄰","STREET":"中正路","SECT":" ","MAREA":" ","LANE":"６３５巷","ALLEY":"１３弄","HOUSE_NO":"７號","E_COORD97":171813.57999999999,"N_COORD97":2548880.9900000002,"ADDRESS":"中正路６３５巷１３弄７號","OBJECTID":45110},"geometry":{"x":171813.58000000101,"y":2548880.9900000021}},{"attributes":{"ID":45111,"DIS_CODE":0,"TOWNNAME":"永康區","LI":"安康里","LIN":"15鄰","STREET":"中華路","SECT":" ","MAREA":" ","LANE":"６１９巷","ALLEY":"２２弄","HOUSE_NO":"３號","E_COORD97":170990.76999999999,"N_COORD97":2546095.5,"ADDRESS":"中華路６１９巷２２弄３號","OBJECTID":45111},"geometry":{"x":170990.76999999955,"y":2546095.4999999981}},{"attributes":{"ID":45112,"DIS_CODE":0,"TOWNNAME":"下營區","LI":"新興里","LIN":"15鄰","STREET":"寮前二街","SECT":" ","MAREA":" ","LANE":"２１巷","ALLEY":"８弄","HOUSE_NO":"１號","E_COORD97":175171.92000000001,"N_COORD97":2570386.6800000002,"ADDRESS":"寮前二街２１巷８弄１號","OBJECTID":45112},"geometry":{"x":175171.91999999993,"y":2570386.6800000016}},{"attributes":{"ID":45113,"DIS_CODE":0,"TOWNNAME":"北區","LI":"賢北里","LIN":"15鄰","STREET":"賢北街","SECT":" ","MAREA":" ","LANE":"５７巷","ALLEY":"４８弄","HOUSE_NO":"８號","E_COORD97":166121.98000000001,"N_COORD97":2545438.3399999999,"ADDRESS":"賢北街５７巷４８弄８號","OBJECTID":45113},"geometry":{"x":166121.98000000231,"y":2545438.3399999999}},{"attributes":{"ID":45114,"DIS_CODE":0,"TOWNNAME":"北區","LI":"賢北里","LIN":"15鄰","STREET":"賢北街","SECT":" ","MAREA":" ","LANE":"５７巷","ALLEY":"４８弄","HOUSE_NO":"９號","E_COORD97":166100.87,"N_COORD97":2545434.8599999999,"ADDRESS":"賢北街５７巷４８弄９號","OBJECTID":45114},"geometry":{"x":166100.87000000104,"y":2545434.8600000031}},{"attributes":{"ID":45115,"DIS_CODE":0,"TOWNNAME":"中西區","LI":"建國里","LIN":"17鄰","STREET":"新美街","SECT":" ","MAREA":" ","LANE":" ","ALLEY":" ","HOUSE_NO":"８號","E_COORD97":167998.89000000001,"N_COORD97":2543892.54,"ADDRESS":"新美街８號","OBJECTID":45115},"geometry":{"x":167998.8900000006,"y":2543892.5399999991}},{"attributes":{"ID":45116,"DIS_CODE":0,"TOWNNAME":"新營區","LI":"嘉芳里","LIN":"15鄰","STREET":"復興路","SECT":" ","MAREA":" ","LANE":"１０７０巷","ALLEY":"３８弄","HOUSE_NO":"１９號","E_COORD97":176203.91,"N_COORD97":2578964.3599999999,"ADDRESS":"復興路１０７０巷３８弄１９號","OBJECTID":45116},"geometry":{"x":176203.91000000108,"y":2578964.3599999994}},{"attributes":{"ID":45117,"DIS_CODE":0,"TOWNNAME":"安平區","LI":"國平里","LIN":"15鄰","STREET":"華平路","SECT":" ","MAREA":" ","LANE":"２１巷","ALLEY":"１８弄","HOUSE_NO":"５０號","E_COORD97":165287.82999999999,"N_COORD97":2542919.1800000002,"ADDRESS":"華平路２１巷１８弄５０號","OBJECTID":45117},"geometry":{"x":165287.83000000007,"y":2542919.1799999997}},{"attributes":{"ID":45118,"DIS_CODE":0,"TOWNNAME":"安平區","LI":"國平里","LIN":"15鄰","STREET":"華平路","SECT":" ","MAREA":" ","LANE":"２１巷","ALLEY":"１８弄","HOUSE_NO":"５２號","E_COORD97":165294.29000000001,"N_COORD97":2542943.3900000001,"ADDRESS":"華平路２１巷１８弄５２號","OBJECTID":45118},"geometry":{"x":165294.29000000097,"y":2542943.3900000006}},{"attributes":{"ID":45119,"DIS_CODE":0,"TOWNNAME":"後壁區","LI":"福安里","LIN":"15鄰","STREET":" ","SECT":" ","MAREA":"下寮","LANE":" ","ALLEY":" ","HOUSE_NO":"２０６號之９","E_COORD97":182814.23999999999,"N_COORD97":2580697.46,"ADDRESS":"下寮２０６號之９","OBJECTID":45119},"geometry":{"x":182814.24000000209,"y":2580697.4600000028}},{"attributes":{"ID":45120,"DIS_CODE":0,"TOWNNAME":"後壁區","LI":"福安里","LIN":"15鄰","STREET":" ","SECT":" ","MAREA":"下寮","LANE":" ","ALLEY":" ","HOUSE_NO":"２０６號","E_COORD97":182765.87,"N_COORD97":2580632.6800000002,"ADDRESS":"下寮２０６號","OBJECTID":45120},"geometry":{"x":182765.87000000197,"y":2580632.6800000016}},{"attributes":{"ID":45121,"DIS_CODE":0,"TOWNNAME":"後壁區","LI":"福安里","LIN":"15鄰","STREET":" ","SECT":" ","MAREA":"下寮","LANE":" ","ALLEY":" ","HOUSE_NO":"２０７號之３","E_COORD97":182670.62,"N_COORD97":2580661.2999999998,"ADDRESS":"下寮２０７號之３","OBJECTID":45121},"geometry":{"x":182670.62000000011,"y":2580661.3000000007}},{"attributes":{"ID":45122,"DIS_CODE":0,"TOWNNAME":"後壁區","LI":"福安里","LIN":"15鄰","STREET":" ","SECT":" ","MAREA":"下寮","LANE":" ","ALLEY":" ","HOUSE_NO":"２０９號","E_COORD97":182814.37,"N_COORD97":2580797.27,"ADDRESS":"下寮２０９號","OBJECTID":45122},"geometry":{"x":182814.37000000011,"y":2580797.2700000033}},{"attributes":{"ID":45123,"DIS_CODE":0,"TOWNNAME":"後壁區","LI":"福安里","LIN":"15鄰","STREET":" ","SECT":" ","MAREA":"下寮","LANE":" ","ALLEY":" ","HOUSE_NO":"２１０號之２０","E_COORD97":182758.19,"N_COORD97":2580454.8799999999,"ADDRESS":"下寮２１０號之２０","OBJECTID":45123},"geometry":{"x":182758.19000000041,"y":2580454.8800000008}},{"attributes":{"ID":45124,"DIS_CODE":0,"TOWNNAME":"安平區","LI":"國平里","LIN":"15鄰","STREET":"華平路","SECT":" ","MAREA":" ","LANE":"２１巷","ALLEY":"１８弄","HOUSE_NO":"５４號","E_COORD97":165292.48000000001,"N_COORD97":2542939.5600000001,"ADDRESS":"華平路２１巷１８弄５４號","OBJECTID":45124},"geometry":{"x":165292.48000000045,"y":2542939.5600000042}},{"attributes":{"ID":45125,"DIS_CODE":0,"TOWNNAME":"後壁區","LI":"福安里","LIN":"15鄰","STREET":" ","SECT":" ","MAREA":"下寮","LANE":" ","ALLEY":" ","HOUSE_NO":"２１０號之２１","E_COORD97":182749.88,"N_COORD97":2580454.4199999999,"ADDRESS":"下寮２１０號之２１","OBJECTID":45125},"geometry":{"x":182749.87999999989,"y":2580454.4200000037}},{"attributes":{"ID":45126,"DIS_CODE":0,"TOWNNAME":"後壁區","LI":"福安里","LIN":"15鄰","STREET":" ","SECT":" ","MAREA":"下寮","LANE":" ","ALLEY":" ","HOUSE_NO":"３４７號","E_COORD97":183672.48999999999,"N_COORD97":2580185.0299999998,"ADDRESS":"下寮３４７號","OBJECTID":45126},"geometry":{"x":183672.49000000115,"y":2580185.0300000031}},{"attributes":{"ID":45127,"DIS_CODE":0,"TOWNNAME":"後壁區","LI":"福安里","LIN":"15鄰","STREET":" ","SECT":" ","MAREA":"下寮","LANE":" ","ALLEY":" ","HOUSE_NO":"３４８號","E_COORD97":183667.84,"N_COORD97":2580183.23,"ADDRESS":"下寮３４８號","OBJECTID":45127},"geometry":{"x":183667.84000000078,"y":2580183.2300000023}},{"attributes":{"ID":45128,"DIS_CODE":0,"TOWNNAME":"後壁區","LI":"福安里","LIN":"15鄰","STREET":" ","SECT":" ","MAREA":"下寮","LANE":" ","ALLEY":" ","HOUSE_NO":"３６５號","E_COORD97":182453.70999999999,"N_COORD97":2580306.9100000001,"ADDRESS":"下寮３６５號","OBJECTID":45128},"geometry":{"x":182453.71000000089,"y":2580306.910000002}},{"attributes":{"ID":45129,"DIS_CODE":0,"TOWNNAME":"安平區","LI":"國平里","LIN":"15鄰","STREET":"華平路","SECT":" ","MAREA":" ","LANE":"２１巷","ALLEY":"１８弄","HOUSE_NO":"５６號","E_COORD97":165291.47,"N_COORD97":2542935.52,"ADDRESS":"華平路２１巷１８弄５６號","OBJECTID":45129},"geometry":{"x":165291.47000000067,"y":2542935.5200000033}},{"attributes":{"ID":45130,"DIS_CODE":0,"TOWNNAME":"安平區","LI":"國平里","LIN":"15鄰","STREET":"華平路","SECT":" ","MAREA":" ","LANE":"２１巷","ALLEY":"１８弄","HOUSE_NO":"５８號","E_COORD97":165290.45000000001,"N_COORD97":2542931.0800000001,"ADDRESS":"華平路２１巷１８弄５８號","OBJECTID":45130},"geometry":{"x":165290.45000000112,"y":2542931.0800000001}},{"attributes":{"ID":45131,"DIS_CODE":0,"TOWNNAME":"後壁區","LI":"新嘉里","LIN":"15鄰","STREET":" ","SECT":" ","MAREA":"白沙屯","LANE":" ","ALLEY":" ","HOUSE_NO":"１５３號之３５","E_COORD97":179397.44,"N_COORD97":2584718.8900000001,"ADDRESS":"白沙屯１５３號之３５","OBJECTID":45131},"geometry":{"x":179397.44000000227,"y":2584718.8900000006}},{"attributes":{"ID":45132,"DIS_CODE":0,"TOWNNAME":"安平區","LI":"國平里","LIN":"15鄰","STREET":"華平路","SECT":" ","MAREA":" ","LANE":"２１巷","ALLEY":"１８弄","HOUSE_NO":"６０號","E_COORD97":165290.04999999999,"N_COORD97":2542927.0499999998,"ADDRESS":"華平路２１巷１８弄６０號","OBJECTID":45132},"geometry":{"x":165290.04999999981,"y":2542927.0500000026}},{"attributes":{"ID":45133,"DIS_CODE":0,"TOWNNAME":"安平區","LI":"國平里","LIN":"15鄰","STREET":"華平路","SECT":" ","MAREA":" ","LANE":"２１巷","ALLEY":"１８弄","HOUSE_NO":"６２號","E_COORD97":165289.04000000001,"N_COORD97":2542923.8199999998,"ADDRESS":"華平路２１巷１８弄６２號","OBJECTID":45133},"geometry":{"x":165289.04000000097,"y":2542923.820000004}},{"attributes":{"ID":45134,"DIS_CODE":0,"TOWNNAME":"新營區","LI":"嘉芳里","LIN":"15鄰","STREET":"復興路","SECT":" ","MAREA":" ","LANE":"１０７０巷","ALLEY":"４０弄","HOUSE_NO":"２號","E_COORD97":176170.13,"N_COORD97":2578989.9900000002,"ADDRESS":"復興路１０７０巷４０弄２號","OBJECTID":45134},"geometry":{"x":176170.13000000082,"y":2578989.9900000021}},{"attributes":{"ID":45135,"DIS_CODE":0,"TOWNNAME":"南區","LI":"大恩里","LIN":"15鄰","STREET":"國民路","SECT":" ","MAREA":" ","LANE":"２１７巷","ALLEY":"１８弄","HOUSE_NO":"２０號","E_COORD97":168991.51999999999,"N_COORD97":2540879.77,"ADDRESS":"國民路２１７巷１８弄２０號","OBJECTID":45135},"geometry":{"x":168991.52000000048,"y":2540879.7700000014}},{"attributes":{"ID":45136,"DIS_CODE":0,"TOWNNAME":"後壁區","LI":"新嘉里","LIN":"15鄰","STREET":" ","SECT":" ","MAREA":"白沙屯","LANE":" ","ALLEY":" ","HOUSE_NO":"１５７號","E_COORD97":179507.62,"N_COORD97":2585410.8799999999,"ADDRESS":"白沙屯１５７號","OBJECTID":45136},"geometry":{"x":179507.62000000197,"y":2585410.8800000008}},{"attributes":{"ID":45137,"DIS_CODE":0,"TOWNNAME":"後壁區","LI":"新嘉里","LIN":"15鄰","STREET":" ","SECT":" ","MAREA":"白沙屯","LANE":" ","ALLEY":" ","HOUSE_NO":"１５９號","E_COORD97":179524.69,"N_COORD97":2585438.5099999998,"ADDRESS":"白沙屯１５９號","OBJECTID":45137},"geometry":{"x":179524.69000000134,"y":2585438.5100000016}},{"attributes":{"ID":45138,"DIS_CODE":0,"TOWNNAME":"南區","LI":"大恩里","LIN":"15鄰","STREET":"國民路","SECT":" ","MAREA":" ","LANE":"２１７巷","ALLEY":"１８弄","HOUSE_NO":"２２號","E_COORD97":168985.60999999999,"N_COORD97":2540880.0899999999,"ADDRESS":"國民路２１７巷１８弄２２號","OBJECTID":45138},"geometry":{"x":168985.61000000034,"y":2540880.0899999999}},{"attributes":{"ID":45139,"DIS_CODE":0,"TOWNNAME":"後壁區","LI":"新嘉里","LIN":"15鄰","STREET":" ","SECT":" ","MAREA":"白沙屯","LANE":" ","ALLEY":" ","HOUSE_NO":"１６０號之１８","E_COORD97":179277.39999999999,"N_COORD97":2585202.9900000002,"ADDRESS":"白沙屯１６０號之１８","OBJECTID":45139},"geometry":{"x":179277.4000000013,"y":2585202.9900000002}},{"attributes":{"ID":45140,"DIS_CODE":0,"TOWNNAME":"後壁區","LI":"新嘉里","LIN":"15鄰","STREET":" ","SECT":" ","MAREA":"白沙屯","LANE":" ","ALLEY":" ","HOUSE_NO":"１６０號之１９","E_COORD97":179339.63,"N_COORD97":2585172.8100000001,"ADDRESS":"白沙屯１６０號之１９","OBJECTID":45140},"geometry":{"x":179339.63000000175,"y":2585172.8100000024}},{"attributes":{"ID":45141,"DIS_CODE":0,"TOWNNAME":"後壁區","LI":"新嘉里","LIN":"15鄰","STREET":" ","SECT":" ","MAREA":"白沙屯","LANE":" ","ALLEY":" ","HOUSE_NO":"１６０號之１","E_COORD97":180195.47,"N_COORD97":2584859.2999999998,"ADDRESS":"白沙屯１６０號之１","OBJECTID":45141},"geometry":{"x":180195.47000000067,"y":2584859.3000000007}},{"attributes":{"ID":45142,"DIS_CODE":0,"TOWNNAME":"後壁區","LI":"新嘉里","LIN":"15鄰","STREET":" ","SECT":" ","MAREA":"白沙屯","LANE":" ","ALLEY":" ","HOUSE_NO":"１６０號之２０","E_COORD97":179308.70999999999,"N_COORD97":2585230.5099999998,"ADDRESS":"白沙屯１６０號之２０","OBJECTID":45142},"geometry":{"x":179308.71000000089,"y":2585230.5100000035}},{"attributes":{"ID":45143,"DIS_CODE":0,"TOWNNAME":"後壁區","LI":"新嘉里","LIN":"15鄰","STREET":" ","SECT":" ","MAREA":"白沙屯","LANE":" ","ALLEY":" ","HOUSE_NO":"１６０號之２１","E_COORD97":179288.88,"N_COORD97":2585221.1800000002,"ADDRESS":"白沙屯１６０號之２１","OBJECTID":45143},"geometry":{"x":179288.88000000082,"y":2585221.1799999997}},{"attributes":{"ID":45144,"DIS_CODE":0,"TOWNNAME":"後壁區","LI":"新嘉里","LIN":"15鄰","STREET":" ","SECT":" ","MAREA":"白沙屯","LANE":" ","ALLEY":" ","HOUSE_NO":"１６０號之２２","E_COORD97":179268.72,"N_COORD97":2585063.0099999998,"ADDRESS":"白沙屯１６０號之２２","OBJECTID":45144},"geometry":{"x":179268.71999999974,"y":2585063.0099999998}},{"attributes":{"ID":45145,"DIS_CODE":0,"TOWNNAME":"後壁區","LI":"新嘉里","LIN":"15鄰","STREET":" ","SECT":" ","MAREA":"白沙屯","LANE":" ","ALLEY":" ","HOUSE_NO":"１６３號","E_COORD97":179531.98000000001,"N_COORD97":2585484.7799999998,"ADDRESS":"白沙屯１６３號","OBJECTID":45145},"geometry":{"x":179531.98000000045,"y":2585484.7799999993}},{"attributes":{"ID":45146,"DIS_CODE":0,"TOWNNAME":"後壁區","LI":"新嘉里","LIN":"15鄰","STREET":" ","SECT":" ","MAREA":"白沙屯","LANE":" ","ALLEY":" ","HOUSE_NO":"１６６號","E_COORD97":179532.37,"N_COORD97":2585476.6600000001,"ADDRESS":"白沙屯１６６號","OBJECTID":45146},"geometry":{"x":179532.37000000011,"y":2585476.6600000001}},{"attributes":{"ID":45147,"DIS_CODE":0,"TOWNNAME":"後壁區","LI":"新嘉里","LIN":"15鄰","STREET":" ","SECT":" ","MAREA":"白沙屯","LANE":" ","ALLEY":" ","HOUSE_NO":"１６７號","E_COORD97":179531.35999999999,"N_COORD97":2585511.0499999998,"ADDRESS":"白沙屯１６７號","OBJECTID":45147},"geometry":{"x":179531.36000000034,"y":2585511.0500000026}},{"attributes":{"ID":45148,"DIS_CODE":0,"TOWNNAME":"山上區","LI":"南洲里","LIN":"20鄰","STREET":" ","SECT":" ","MAREA":"南洲","LANE":" ","ALLEY":" ","HOUSE_NO":"３２８號之３","E_COORD97":183652.26999999999,"N_COORD97":2555944.2999999998,"ADDRESS":"南洲３２８號之３","OBJECTID":45148},"geometry":{"x":183652.26999999955,"y":2555944.3000000026}},{"attributes":{"ID":45149,"DIS_CODE":0,"TOWNNAME":"後壁區","LI":"侯伯里","LIN":"17鄰","STREET":" ","SECT":" ","MAREA":"後壁寮","LANE":" ","ALLEY":" ","HOUSE_NO":"１４８號","E_COORD97":185029.10999999999,"N_COORD97":2585558.0600000001,"ADDRESS":"後壁寮１４８號","OBJECTID":45149},"geometry":{"x":185029.1099999994,"y":2585558.0600000024}},{"attributes":{"ID":45150,"DIS_CODE":0,"TOWNNAME":"西港區","LI":"南海里","LIN":"20鄰","STREET":" ","SECT":" ","MAREA":"中港","LANE":" ","ALLEY":" ","HOUSE_NO":"２８之８號","E_COORD97":167498.75,"N_COORD97":2556558.0099999998,"ADDRESS":"中港２８之８號","OBJECTID":45150},"geometry":{"x":167498.75000000093,"y":2556558.0099999979}},{"attributes":{"ID":45151,"DIS_CODE":0,"TOWNNAME":"西港區","LI":"南海里","LIN":"20鄰","STREET":" ","SECT":" ","MAREA":"中港","LANE":" ","ALLEY":" ","HOUSE_NO":"２８之９號","E_COORD97":167503.16,"N_COORD97":2556559.0299999998,"ADDRESS":"中港２８之９號","OBJECTID":45151},"geometry":{"x":167503.16000000015,"y":2556559.0300000012}},{"attributes":{"ID":45152,"DIS_CODE":0,"TOWNNAME":"西港區","LI":"南海里","LIN":"20鄰","STREET":" ","SECT":" ","MAREA":"中港","LANE":" ","ALLEY":" ","HOUSE_NO":"２８號","E_COORD97":167469.98000000001,"N_COORD97":2556552.4399999999,"ADDRESS":"中港２８號","OBJECTID":45152},"geometry":{"x":167469.98000000138,"y":2556552.4400000013}},{"attributes":{"ID":45153,"DIS_CODE":0,"TOWNNAME":"西港區","LI":"南海里","LIN":"20鄰","STREET":" ","SECT":" ","MAREA":"中港","LANE":" ","ALLEY":" ","HOUSE_NO":"２９號","E_COORD97":167530.73999999999,"N_COORD97":2556508.5,"ADDRESS":"中港２９號","OBJECTID":45153},"geometry":{"x":167530.74000000115,"y":2556508.5000000019}},{"attributes":{"ID":45154,"DIS_CODE":0,"TOWNNAME":"西港區","LI":"南海里","LIN":"20鄰","STREET":" ","SECT":" ","MAREA":"中港","LANE":" ","ALLEY":" ","HOUSE_NO":"３１號","E_COORD97":167529.31,"N_COORD97":2556565.3300000001,"ADDRESS":"中港３１號","OBJECTID":45154},"geometry":{"x":167529.31000000145,"y":2556565.3300000001}},{"attributes":{"ID":45155,"DIS_CODE":0,"TOWNNAME":"南區","LI":"南都里","LIN":"15鄰","STREET":"中華南路","SECT":"二段","MAREA":" ","LANE":"３１５巷","ALLEY":"５弄","HOUSE_NO":"１１號","E_COORD97":166523.85999999999,"N_COORD97":2540161.04,"ADDRESS":"中華南路二段３１５巷５弄１１號","OBJECTID":45155},"geometry":{"x":166523.86000000034,"y":2540161.0399999991}},{"attributes":{"ID":45156,"DIS_CODE":0,"TOWNNAME":"南區","LI":"南都里","LIN":"15鄰","STREET":"中華南路","SECT":"二段","MAREA":" ","LANE":"３１５巷","ALLEY":"５弄","HOUSE_NO":"１３號","E_COORD97":166543.73000000001,"N_COORD97":2540151.2999999998,"ADDRESS":"中華南路二段３１５巷５弄１３號","OBJECTID":45156},"geometry":{"x":166543.73000000045,"y":2540151.3000000045}},{"attributes":{"ID":45157,"DIS_CODE":0,"TOWNNAME":"南區","LI":"南都里","LIN":"15鄰","STREET":"中華南路","SECT":"二段","MAREA":" ","LANE":"３１５巷","ALLEY":"５弄","HOUSE_NO":"１５號","E_COORD97":166555.92000000001,"N_COORD97":2540151.6499999999,"ADDRESS":"中華南路二段３１５巷５弄１５號","OBJECTID":45157},"geometry":{"x":166555.92000000179,"y":2540151.6499999985}},{"attributes":{"ID":45158,"DIS_CODE":0,"TOWNNAME":"南區","LI":"南都里","LIN":"15鄰","STREET":"中華南路","SECT":"二段","MAREA":" ","LANE":"３１５巷","ALLEY":"５弄","HOUSE_NO":"１７號","E_COORD97":166556.26999999999,"N_COORD97":2540158.6099999999,"ADDRESS":"中華南路二段３１５巷５弄１７號","OBJECTID":45158},"geometry":{"x":166556.26999999955,"y":2540158.6100000013}},{"attributes":{"ID":45159,"DIS_CODE":0,"TOWNNAME":"西港區","LI":"南海里","LIN":"20鄰","STREET":" ","SECT":" ","MAREA":"中港","LANE":" ","ALLEY":" ","HOUSE_NO":"３３號之１","E_COORD97":167591.20000000001,"N_COORD97":2556561.0499999998,"ADDRESS":"中港３３號之１","OBJECTID":45159},"geometry":{"x":167591.20000000019,"y":2556561.0500000007}},{"attributes":{"ID":45160,"DIS_CODE":0,"TOWNNAME":"西港區","LI":"南海里","LIN":"20鄰","STREET":" ","SECT":" ","MAREA":"中港","LANE":" ","ALLEY":" ","HOUSE_NO":"３３號之２","E_COORD97":167596.92000000001,"N_COORD97":2556569.96,"ADDRESS":"中港３３號之２","OBJECTID":45160},"geometry":{"x":167596.92000000086,"y":2556569.9600000046}},{"attributes":{"ID":45161,"DIS_CODE":0,"TOWNNAME":"西港區","LI":"南海里","LIN":"20鄰","STREET":" ","SECT":" ","MAREA":"中港","LANE":" ","ALLEY":" ","HOUSE_NO":"３３號之３","E_COORD97":167595.88,"N_COORD97":2556574.1099999999,"ADDRESS":"中港３３號之３","OBJECTID":45161},"geometry":{"x":167595.88000000082,"y":2556574.1100000031}},{"attributes":{"ID":45162,"DIS_CODE":0,"TOWNNAME":"南區","LI":"南都里","LIN":"15鄰","STREET":"中華南路","SECT":"二段","MAREA":" ","LANE":"３１５巷","ALLEY":"５弄","HOUSE_NO":"１９號","E_COORD97":166543.73000000001,"N_COORD97":2540158.9500000002,"ADDRESS":"中華南路二段３１５巷５弄１９號","OBJECTID":45162},"geometry":{"x":166543.73000000045,"y":2540158.950000003}},{"attributes":{"ID":45163,"DIS_CODE":0,"TOWNNAME":"南區","LI":"南都里","LIN":"15鄰","STREET":"中華南路","SECT":"二段","MAREA":" ","LANE":"３１５巷","ALLEY":"５弄","HOUSE_NO":"１號","E_COORD97":166483.09,"N_COORD97":2540160.7000000002,"ADDRESS":"中華南路二段３１５巷５弄１號","OBJECTID":45163},"geometry":{"x":166483.08999999985,"y":2540160.700000003}},{"attributes":{"ID":45164,"DIS_CODE":0,"TOWNNAME":"西港區","LI":"南海里","LIN":"20鄰","STREET":" ","SECT":" ","MAREA":"中港","LANE":" ","ALLEY":" ","HOUSE_NO":"３３號之４","E_COORD97":167595.42000000001,"N_COORD97":2556578.1800000002,"ADDRESS":"中港３３號之４","OBJECTID":45164},"geometry":{"x":167595.42000000086,"y":2556578.1800000016}},{"attributes":{"ID":45165,"DIS_CODE":0,"TOWNNAME":"西港區","LI":"南海里","LIN":"20鄰","STREET":" ","SECT":" ","MAREA":"中港","LANE":" ","ALLEY":" ","HOUSE_NO":"３３號之５","E_COORD97":167595.09,"N_COORD97":2556583.0099999998,"ADDRESS":"中港３３號之５","OBJECTID":45165},"geometry":{"x":167595.08999999985,"y":2556583.0100000016}},{"attributes":{"ID":45166,"DIS_CODE":0,"TOWNNAME":"南區","LI":"南都里","LIN":"15鄰","STREET":"中華南路","SECT":"二段","MAREA":" ","LANE":"３１５巷","ALLEY":"５弄","HOUSE_NO":"３號","E_COORD97":166490.41,"N_COORD97":2540160.7000000002,"ADDRESS":"中華南路二段３１５巷５弄３號","OBJECTID":45166},"geometry":{"x":166490.41000000108,"y":2540160.700000003}},{"attributes":{"ID":45167,"DIS_CODE":0,"TOWNNAME":"南區","LI":"南都里","LIN":"15鄰","STREET":"中華南路","SECT":"二段","MAREA":" ","LANE":"３１５巷","ALLEY":"５弄","HOUSE_NO":"５號","E_COORD97":166498.07000000001,"N_COORD97":2540161.04,"ADDRESS":"中華南路二段３１５巷５弄５號","OBJECTID":45167},"geometry":{"x":166498.07000000123,"y":2540161.0399999991}},{"attributes":{"ID":45168,"DIS_CODE":0,"TOWNNAME":"西港區","LI":"南海里","LIN":"20鄰","STREET":" ","SECT":" ","MAREA":"中港","LANE":" ","ALLEY":" ","HOUSE_NO":"３３號之６","E_COORD97":167594.23000000001,"N_COORD97":2556587.1400000001,"ADDRESS":"中港３３號之６","OBJECTID":45168},"geometry":{"x":167594.23000000138,"y":2556587.1400000006}},{"attributes":{"ID":45169,"DIS_CODE":0,"TOWNNAME":"西港區","LI":"南海里","LIN":"20鄰","STREET":" ","SECT":" ","MAREA":"中港","LANE":" ","ALLEY":" ","HOUSE_NO":"３３號之７","E_COORD97":167593.39000000001,"N_COORD97":2556591.04,"ADDRESS":"中港３３號之７","OBJECTID":45169},"geometry":{"x":167593.39000000153,"y":2556591.0400000028}},{"attributes":{"ID":45170,"DIS_CODE":0,"TOWNNAME":"西港區","LI":"南海里","LIN":"20鄰","STREET":" ","SECT":" ","MAREA":"中港","LANE":" ","ALLEY":" ","HOUSE_NO":"３３號之８","E_COORD97":167570.35000000001,"N_COORD97":2556590.4100000001,"ADDRESS":"中港３３號之８","OBJECTID":45170},"geometry":{"x":167570.35000000056,"y":2556590.410000002}},{"attributes":{"ID":45171,"DIS_CODE":0,"TOWNNAME":"西港區","LI":"南海里","LIN":"20鄰","STREET":" ","SECT":" ","MAREA":"中港","LANE":" ","ALLEY":" ","HOUSE_NO":"３３號","E_COORD97":167569.04000000001,"N_COORD97":2556574.1299999999,"ADDRESS":"中港３３號","OBJECTID":45171},"geometry":{"x":167569.04000000097,"y":2556574.1300000008}},{"attributes":{"ID":45172,"DIS_CODE":0,"TOWNNAME":"南區","LI":"南都里","LIN":"15鄰","STREET":"中華南路","SECT":"二段","MAREA":" ","LANE":"３１５巷","ALLEY":"５弄","HOUSE_NO":"７號","E_COORD97":166506.44,"N_COORD97":2540161.3900000001,"ADDRESS":"中華南路二段３１５巷５弄７號","OBJECTID":45172},"geometry":{"x":166506.44000000041,"y":2540161.3900000025}},{"attributes":{"ID":45173,"DIS_CODE":0,"TOWNNAME":"西港區","LI":"南海里","LIN":"20鄰","STREET":" ","SECT":" ","MAREA":"中港","LANE":" ","ALLEY":" ","HOUSE_NO":"３４號","E_COORD97":167577.64000000001,"N_COORD97":2556544.8999999999,"ADDRESS":"中港３４號","OBJECTID":45173},"geometry":{"x":167577.63999999966,"y":2556544.9000000004}},{"attributes":{"ID":45174,"DIS_CODE":0,"TOWNNAME":"西港區","LI":"南海里","LIN":"20鄰","STREET":" ","SECT":" ","MAREA":"中港","LANE":" ","ALLEY":" ","HOUSE_NO":"３５號","E_COORD97":167552.06,"N_COORD97":2556546.29,"ADDRESS":"中港３５號","OBJECTID":45174},"geometry":{"x":167552.06000000052,"y":2556546.290000001}},{"attributes":{"ID":45175,"DIS_CODE":0,"TOWNNAME":"西港區","LI":"\u25A0林里","LIN":"20鄰","STREET":" ","SECT":" ","MAREA":"東竹林","LANE":" ","ALLEY":" ","HOUSE_NO":"３號之１","E_COORD97":170778.45000000001,"N_COORD97":2558689.1899999999,"ADDRESS":"東竹林３號之１","OBJECTID":45175},"geometry":{"x":170778.45000000019,"y":2558689.1900000032}},{"attributes":{"ID":45176,"DIS_CODE":0,"TOWNNAME":"仁德區","LI":"保安里","LIN":"17鄰","STREET":"中正路","SECT":"一段","MAREA":" ","LANE":" ","ALLEY":" ","HOUSE_NO":"３６號","E_COORD97":170743.37,"N_COORD97":2535490.27,"ADDRESS":"中正路一段３６號","OBJECTID":45176},"geometry":{"x":170743.37000000011,"y":2535490.2699999996}},{"attributes":{"ID":45177,"DIS_CODE":0,"TOWNNAME":"南區","LI":"南都里","LIN":"15鄰","STREET":"中華南路","SECT":"二段","MAREA":" ","LANE":"３１５巷","ALLEY":"５弄","HOUSE_NO":"９號","E_COORD97":166515.85000000001,"N_COORD97":2540161.04,"ADDRESS":"中華南路二段３１５巷５弄９號","OBJECTID":45177},"geometry":{"x":166515.85000000056,"y":2540161.0399999991}},{"attributes":{"ID":45178,"DIS_CODE":0,"TOWNNAME":"西港區","LI":"\u25A0林里","LIN":"20鄰","STREET":" ","SECT":" ","MAREA":"東竹林","LANE":" ","ALLEY":" ","HOUSE_NO":"４號","E_COORD97":170804.85999999999,"N_COORD97":2558695.0499999998,"ADDRESS":"東竹林４號","OBJECTID":45178},"geometry":{"x":170804.8600000022,"y":2558695.0500000045}},{"attributes":{"ID":45179,"DIS_CODE":0,"TOWNNAME":"安南區","LI":"淵中里","LIN":"17鄰","STREET":"樂安一街","SECT":" ","MAREA":" ","LANE":" ","ALLEY":" ","HOUSE_NO":"１７２號","E_COORD97":165767.25932000001,"N_COORD97":2549815.17839,"ADDRESS":"樂安一街１７２號","OBJECTID":45179},"geometry":{"x":165767.25932000112,"y":2549815.17839}},{"attributes":{"ID":45180,"DIS_CODE":0,"TOWNNAME":"歸仁區","LI":"六甲里","LIN":"6鄰","STREET":"中正十五街","SECT":" ","MAREA":" ","LANE":" ","ALLEY":" ","HOUSE_NO":"４７號","E_COORD97":176459.60999999999,"N_COORD97":2539520.25,"ADDRESS":"中正十五街４７號","OBJECTID":45180},"geometry":{"x":176459.61000000034,"y":2539520.2500000037}},{"attributes":{"ID":45181,"DIS_CODE":0,"TOWNNAME":"安南區","LI":"淵中里","LIN":"17鄰","STREET":"安中路","SECT":"三段","MAREA":" ","LANE":" ","ALLEY":" ","HOUSE_NO":"２４９號","E_COORD97":165770.73999999999,"N_COORD97":2549863.8300000001,"ADDRESS":"安中路三段２４９號","OBJECTID":45181},"geometry":{"x":165770.73999999929,"y":2549863.8300000038}},{"attributes":{"ID":45182,"DIS_CODE":0,"TOWNNAME":"安南區","LI":"理想里","LIN":"17鄰","STREET":"大安街","SECT":" ","MAREA":" ","LANE":" ","ALLEY":" ","HOUSE_NO":"２３５號","E_COORD97":167430.98000000001,"N_COORD97":2548394.9900000002,"ADDRESS":"大安街２３５號","OBJECTID":45182},"geometry":{"x":167430.98000000138,"y":2548394.9900000039}},{"attributes":{"ID":45183,"DIS_CODE":0,"TOWNNAME":"安南區","LI":"新順里","LIN":"17鄰","STREET":"慶安路","SECT":" ","MAREA":" ","LANE":" ","ALLEY":" ","HOUSE_NO":"１６０號","E_COORD97":169463.79000000001,"N_COORD97":2549294.5,"ADDRESS":"慶安路１６０號","OBJECTID":45183},"geometry":{"x":169463.79000000004,"y":2549294.5000000019}},{"attributes":{"ID":45184,"DIS_CODE":0,"TOWNNAME":"後壁區","LI":"侯伯里","LIN":"17鄰","STREET":" ","SECT":" ","MAREA":"後壁寮","LANE":" ","ALLEY":" ","HOUSE_NO":"１４０號","E_COORD97":185108.75,"N_COORD97":2585553.4500000002,"ADDRESS":"後壁寮１４０號","OBJECTID":45184},"geometry":{"x":185108.75,"y":2585553.4500000011}},{"attributes":{"ID":45185,"DIS_CODE":0,"TOWNNAME":"南區","LI":"新生里","LIN":"15鄰","STREET":"大同路","SECT":"二段","MAREA":" ","LANE":"１１２巷","ALLEY":"５弄","HOUSE_NO":"１２號","E_COORD97":169222.04999999999,"N_COORD97":2542197.79,"ADDRESS":"大同路二段１１２巷５弄１２號","OBJECTID":45185},"geometry":{"x":169222.05000000075,"y":2542197.790000001}},{"attributes":{"ID":45186,"DIS_CODE":0,"TOWNNAME":"後壁區","LI":"侯伯里","LIN":"17鄰","STREET":" ","SECT":" ","MAREA":"後壁寮","LANE":" ","ALLEY":" ","HOUSE_NO":"１４１號","E_COORD97":185094.38,"N_COORD97":2585554.8999999999,"ADDRESS":"後壁寮１４１號","OBJECTID":45186},"geometry":{"x":185094.37999999989,"y":2585554.9000000022}},{"attributes":{"ID":45187,"DIS_CODE":0,"TOWNNAME":"後壁區","LI":"侯伯里","LIN":"17鄰","STREET":" ","SECT":" ","MAREA":"後壁寮","LANE":" ","ALLEY":" ","HOUSE_NO":"１４２號","E_COORD97":185067.39999999999,"N_COORD97":2585549.4399999999,"ADDRESS":"後壁寮１４２號","OBJECTID":45187},"geometry":{"x":185067.40000000037,"y":2585549.4400000032}},{"attributes":{"ID":45188,"DIS_CODE":0,"TOWNNAME":"南區","LI":"新生里","LIN":"15鄰","STREET":"大同路","SECT":"二段","MAREA":" ","LANE":"１１２巷","ALLEY":"５弄","HOUSE_NO":"１４號","E_COORD97":169223.95999999999,"N_COORD97":2542192.1600000001,"ADDRESS":"大同路二段１１２巷５弄１４號","OBJECTID":45188},"geometry":{"x":169223.96000000183,"y":2542192.1600000001}},{"attributes":{"ID":45189,"DIS_CODE":0,"TOWNNAME":"南區","LI":"新生里","LIN":"15鄰","STREET":"大同路","SECT":"二段","MAREA":" ","LANE":"１１２巷","ALLEY":"５弄","HOUSE_NO":"１６號","E_COORD97":169226.07000000001,"N_COORD97":2542186.6400000001,"ADDRESS":"大同路二段１１２巷５弄１６號","OBJECTID":45189},"geometry":{"x":169226.0700000003,"y":2542186.6400000025}},{"attributes":{"ID":45190,"DIS_CODE":0,"TOWNNAME":"南區","LI":"新生里","LIN":"15鄰","STREET":"大同路","SECT":"二段","MAREA":" ","LANE":"１１２巷","ALLEY":"５弄","HOUSE_NO":"１８號","E_COORD97":169227.38,"N_COORD97":2542180.9199999999,"ADDRESS":"大同路二段１１２巷５弄１８號","OBJECTID":45190},"geometry":{"x":169227.37999999989,"y":2542180.9200000018}},{"attributes":{"ID":45191,"DIS_CODE":0,"TOWNNAME":"後壁區","LI":"侯伯里","LIN":"17鄰","STREET":" ","SECT":" ","MAREA":"後壁寮","LANE":" ","ALLEY":" ","HOUSE_NO":"１４３號","E_COORD97":185089.70999999999,"N_COORD97":2585575.0800000001,"ADDRESS":"後壁寮１４３號","OBJECTID":45191},"geometry":{"x":185089.71000000089,"y":2585575.0800000001}},{"attributes":{"ID":45192,"DIS_CODE":0,"TOWNNAME":"後壁區","LI":"侯伯里","LIN":"17鄰","STREET":" ","SECT":" ","MAREA":"後壁寮","LANE":" ","ALLEY":" ","HOUSE_NO":"１４４號","E_COORD97":185083.25,"N_COORD97":2585592.52,"ADDRESS":"後壁寮１４４號","OBJECTID":45192},"geometry":{"x":185083.25,"y":2585592.5199999996}},{"attributes":{"ID":45193,"DIS_CODE":0,"TOWNNAME":"北區","LI":"仁愛里","LIN":"15鄰","STREET":"長榮路","SECT":"四段","MAREA":" ","LANE":"３１巷","ALLEY":"２３弄","HOUSE_NO":"１７號","E_COORD97":170264.89999999999,"N_COORD97":2544851.0600000001,"ADDRESS":"長榮路四段３１巷２３弄１７號","OBJECTID":45193},"geometry":{"x":170264.90000000037,"y":2544851.0600000005}},{"attributes":{"ID":45194,"DIS_CODE":0,"TOWNNAME":"永康區","LI":"勝利里","LIN":"17鄰","STREET":"中華一路","SECT":" ","MAREA":" ","LANE":" ","ALLEY":" ","HOUSE_NO":"２９７號","E_COORD97":171218.89999999999,"N_COORD97":2544977.75,"ADDRESS":"中華一路２９７號","OBJECTID":45194},"geometry":{"x":171218.9000000013,"y":2544977.75}},{"attributes":{"ID":45195,"DIS_CODE":0,"TOWNNAME":"後壁區","LI":"侯伯里","LIN":"17鄰","STREET":" ","SECT":" ","MAREA":"後壁寮","LANE":" ","ALLEY":" ","HOUSE_NO":"１４５號","E_COORD97":185065.59,"N_COORD97":2585574.1099999999,"ADDRESS":"後壁寮１４５號","OBJECTID":45195},"geometry":{"x":185065.58999999985,"y":2585574.1099999994}},{"attributes":{"ID":45196,"DIS_CODE":0,"TOWNNAME":"後壁區","LI":"侯伯里","LIN":"17鄰","STREET":" ","SECT":" ","MAREA":"後壁寮","LANE":" ","ALLEY":" ","HOUSE_NO":"１４６號","E_COORD97":185064.28,"N_COORD97":2585594.8199999998,"ADDRESS":"後壁寮１４６號","OBJECTID":45196},"geometry":{"x":185064.28000000119,"y":2585594.8200000003}},{"attributes":{"ID":45197,"DIS_CODE":0,"TOWNNAME":"後壁區","LI":"侯伯里","LIN":"17鄰","STREET":" ","SECT":" ","MAREA":"後壁寮","LANE":" ","ALLEY":" ","HOUSE_NO":"１４７號","E_COORD97":185051.87,"N_COORD97":2585595.2000000002,"ADDRESS":"後壁寮１４７號","OBJECTID":45197},"geometry":{"x":185051.87000000011,"y":2585595.200000003}},{"attributes":{"ID":45198,"DIS_CODE":0,"TOWNNAME":"永康區","LI":"勝利里","LIN":"17鄰","STREET":"中華一路","SECT":" ","MAREA":" ","LANE":" ","ALLEY":" ","HOUSE_NO":"２９４號","E_COORD97":171276.54000000001,"N_COORD97":2544994.5,"ADDRESS":"中華一路２９４號","OBJECTID":45198},"geometry":{"x":171276.54000000097,"y":2544994.5000000019}},{"attributes":{"ID":45199,"DIS_CODE":0,"TOWNNAME":"後壁區","LI":"侯伯里","LIN":"17鄰","STREET":" ","SECT":" ","MAREA":"後壁寮","LANE":" ","ALLEY":" ","HOUSE_NO":"１４８號之１","E_COORD97":185032.85999999999,"N_COORD97":2585576.52,"ADDRESS":"後壁寮１４８號之１","OBJECTID":45199},"geometry":{"x":185032.86000000127,"y":2585576.5200000014}},{"attributes":{"ID":45200,"DIS_CODE":0,"TOWNNAME":"後壁區","LI":"侯伯里","LIN":"17鄰","STREET":" ","SECT":" ","MAREA":"後壁寮","LANE":" ","ALLEY":" ","HOUSE_NO":"１５１號之３２","E_COORD97":184965.89000000001,"N_COORD97":2585516.3500000001,"ADDRESS":"後壁寮１５１號之３２","OBJECTID":45200},"geometry":{"x":184965.8900000006,"y":2585516.3500000034}}]}