{"displayFieldName":"TOWNNAME","fieldAliases":{"ID":"ID","DIS_CODE":"DIS_CODE","TOWNNAME":"TOWNNAME","LI":"LI","LIN":"LIN","STREET":"STREET","SECT":"SECT","MAREA":"MAREA","LANE":"LANE","ALLEY":"ALLEY","HOUSE_NO":"HOUSE_NO","E_COORD97":"E_COORD97","N_COORD97":"N_COORD97","ADDRESS":"ADDRESS","OBJECTID":"OBJECTID"},"geometryType":"esriGeometryPoint","spatialReference":{"wkid":102443,"latestWkid":3826},"fields":[{"name":"ID","type":"esriFieldTypeDouble","alias":"ID"},{"name":"DIS_CODE","type":"esriFieldTypeInteger","alias":"DIS_CODE"},{"name":"TOWNNAME","type":"esriFieldTypeString","alias":"TOWNNAME","length":8},{"name":"LI","type":"esriFieldTypeString","alias":"LI","length":8},{"name":"LIN","type":"esriFieldTypeString","alias":"LIN","length":12},{"name":"STREET","type":"esriFieldTypeString","alias":"STREET","length":20},{"name":"SECT","type":"esriFieldTypeString","alias":"SECT","length":8},{"name":"MAREA","type":"esriFieldTypeString","alias":"MAREA","length":12},{"name":"LANE","type":"esriFieldTypeString","alias":"LANE","length":10},{"name":"ALLEY","type":"esriFieldTypeString","alias":"ALLEY","length":10},{"name":"HOUSE_NO","type":"esriFieldTypeString","alias":"HOUSE_NO","length":20},{"name":"E_COORD97","type":"esriFieldTypeDouble","alias":"E_COORD97"},{"name":"N_COORD97","type":"esriFieldTypeDouble","alias":"N_COORD97"},{"name":"ADDRESS","type":"esriFieldTypeString","alias":"ADDRESS","length":50},{"name":"OBJECTID","type":"esriFieldTypeOID","alias":"OBJECTID"}],"features":[{"attributes":{"ID":605828,"DIS_CODE":0,"TOWNNAME":"東區","LI":"路東里","LIN":"3鄰","STREET":"大同路","SECT":"二段","MAREA":" ","LANE":" ","ALLEY":" ","HOUSE_NO":"８７號五樓","E_COORD97":169351.20999999999,"N_COORD97":2542168.71,"ADDRESS":"大同路二段８７號五樓","OBJECTID":605801},"geometry":{"x":169351.21000000089,"y":2542168.7100000009}},{"attributes":{"ID":605829,"DIS_CODE":0,"TOWNNAME":"東區","LI":"路東里","LIN":"3鄰","STREET":"大同路","SECT":"二段","MAREA":" ","LANE":" ","ALLEY":" ","HOUSE_NO":"８７號五樓之１","E_COORD97":169351.20999999999,"N_COORD97":2542168.71,"ADDRESS":"大同路二段８７號五樓之１","OBJECTID":605802},"geometry":{"x":169351.21000000089,"y":2542168.7100000009}},{"attributes":{"ID":605830,"DIS_CODE":0,"TOWNNAME":"東區","LI":"路東里","LIN":"3鄰","STREET":"大同路","SECT":"二段","MAREA":" ","LANE":" ","ALLEY":" ","HOUSE_NO":"８７號五樓之２","E_COORD97":169351.20999999999,"N_COORD97":2542168.71,"ADDRESS":"大同路二段８７號五樓之２","OBJECTID":605803},"geometry":{"x":169351.21000000089,"y":2542168.7100000009}},{"attributes":{"ID":605831,"DIS_CODE":0,"TOWNNAME":"東區","LI":"路東里","LIN":"3鄰","STREET":"大同路","SECT":"二段","MAREA":" ","LANE":" ","ALLEY":" ","HOUSE_NO":"８７號五樓之３","E_COORD97":169351.20999999999,"N_COORD97":2542168.71,"ADDRESS":"大同路二段８７號五樓之３","OBJECTID":605804},"geometry":{"x":169351.21000000089,"y":2542168.7100000009}},{"attributes":{"ID":605832,"DIS_CODE":0,"TOWNNAME":"東區","LI":"路東里","LIN":"3鄰","STREET":"大同路","SECT":"二段","MAREA":" ","LANE":" ","ALLEY":" ","HOUSE_NO":"８７號六樓","E_COORD97":169351.20999999999,"N_COORD97":2542168.71,"ADDRESS":"大同路二段８７號六樓","OBJECTID":605805},"geometry":{"x":169351.21000000089,"y":2542168.7100000009}},{"attributes":{"ID":605833,"DIS_CODE":0,"TOWNNAME":"東區","LI":"路東里","LIN":"3鄰","STREET":"大同路","SECT":"二段","MAREA":" ","LANE":" ","ALLEY":" ","HOUSE_NO":"８７號六樓之１","E_COORD97":169351.20999999999,"N_COORD97":2542168.71,"ADDRESS":"大同路二段８７號六樓之１","OBJECTID":605806},"geometry":{"x":169351.21000000089,"y":2542168.7100000009}},{"attributes":{"ID":605834,"DIS_CODE":0,"TOWNNAME":"東區","LI":"路東里","LIN":"3鄰","STREET":"大同路","SECT":"二段","MAREA":" ","LANE":" ","ALLEY":" ","HOUSE_NO":"８７號六樓之２","E_COORD97":169351.20999999999,"N_COORD97":2542168.71,"ADDRESS":"大同路二段８７號六樓之２","OBJECTID":605807},"geometry":{"x":169351.21000000089,"y":2542168.7100000009}},{"attributes":{"ID":605835,"DIS_CODE":0,"TOWNNAME":"東區","LI":"路東里","LIN":"3鄰","STREET":"大同路","SECT":"二段","MAREA":" ","LANE":" ","ALLEY":" ","HOUSE_NO":"８７號六樓之３","E_COORD97":169351.20999999999,"N_COORD97":2542168.71,"ADDRESS":"大同路二段８７號六樓之３","OBJECTID":605808},"geometry":{"x":169351.21000000089,"y":2542168.7100000009}},{"attributes":{"ID":605836,"DIS_CODE":0,"TOWNNAME":"東區","LI":"路東里","LIN":"3鄰","STREET":"大同路","SECT":"二段","MAREA":" ","LANE":" ","ALLEY":" ","HOUSE_NO":"８７號四樓","E_COORD97":169351.20999999999,"N_COORD97":2542168.71,"ADDRESS":"大同路二段８７號四樓","OBJECTID":605809},"geometry":{"x":169351.21000000089,"y":2542168.7100000009}},{"attributes":{"ID":605837,"DIS_CODE":0,"TOWNNAME":"東區","LI":"路東里","LIN":"3鄰","STREET":"大同路","SECT":"二段","MAREA":" ","LANE":" ","ALLEY":" ","HOUSE_NO":"８７號四樓之１","E_COORD97":169351.20999999999,"N_COORD97":2542168.71,"ADDRESS":"大同路二段８７號四樓之１","OBJECTID":605810},"geometry":{"x":169351.21000000089,"y":2542168.7100000009}},{"attributes":{"ID":605838,"DIS_CODE":0,"TOWNNAME":"東區","LI":"路東里","LIN":"3鄰","STREET":"大同路","SECT":"二段","MAREA":" ","LANE":" ","ALLEY":" ","HOUSE_NO":"８７號四樓之２","E_COORD97":169351.20999999999,"N_COORD97":2542168.71,"ADDRESS":"大同路二段８７號四樓之２","OBJECTID":605811},"geometry":{"x":169351.21000000089,"y":2542168.7100000009}},{"attributes":{"ID":605839,"DIS_CODE":0,"TOWNNAME":"東區","LI":"路東里","LIN":"3鄰","STREET":"大同路","SECT":"二段","MAREA":" ","LANE":" ","ALLEY":" ","HOUSE_NO":"８７號四樓之３","E_COORD97":169351.20999999999,"N_COORD97":2542168.71,"ADDRESS":"大同路二段８７號四樓之３","OBJECTID":605812},"geometry":{"x":169351.21000000089,"y":2542168.7100000009}},{"attributes":{"ID":605840,"DIS_CODE":0,"TOWNNAME":"新營區","LI":"民榮里","LIN":"3鄰","STREET":"新進路","SECT":"二段","MAREA":" ","LANE":" ","ALLEY":" ","HOUSE_NO":"４９６之１號五樓","E_COORD97":178676.04999999999,"N_COORD97":2578064.1400000001,"ADDRESS":"新進路二段４９６之１號五樓","OBJECTID":605813},"geometry":{"x":178676.05000000075,"y":2578064.1400000025}},{"attributes":{"ID":605841,"DIS_CODE":0,"TOWNNAME":"仁德區","LI":"成功里","LIN":"14鄰","STREET":"全福路","SECT":" ","MAREA":" ","LANE":" ","ALLEY":" ","HOUSE_NO":"７３號","E_COORD97":170998.76000000001,"N_COORD97":2539318.4900000002,"ADDRESS":"全福路７３號","OBJECTID":605814},"geometry":{"x":170998.76000000071,"y":2539318.4899999984}},{"attributes":{"ID":605842,"DIS_CODE":0,"TOWNNAME":"新營區","LI":"民榮里","LIN":"3鄰","STREET":"新進路","SECT":"二段","MAREA":" ","LANE":" ","ALLEY":" ","HOUSE_NO":"５００號之２十二樓","E_COORD97":178677.12,"N_COORD97":2578038.6800000002,"ADDRESS":"新進路二段５００號之２十二樓","OBJECTID":605815},"geometry":{"x":178677.12000000197,"y":2578038.6800000016}},{"attributes":{"ID":605843,"DIS_CODE":0,"TOWNNAME":"新營區","LI":"民榮里","LIN":"3鄰","STREET":"新進路","SECT":"二段","MAREA":" ","LANE":" ","ALLEY":" ","HOUSE_NO":"５００之１號十一樓","E_COORD97":178677.12,"N_COORD97":2578038.6800000002,"ADDRESS":"新進路二段５００之１號十一樓","OBJECTID":605816},"geometry":{"x":178677.12000000197,"y":2578038.6800000016}},{"attributes":{"ID":605844,"DIS_CODE":0,"TOWNNAME":"新營區","LI":"民榮里","LIN":"3鄰","STREET":"新進路","SECT":"二段","MAREA":" ","LANE":" ","ALLEY":" ","HOUSE_NO":"５００之３號六樓","E_COORD97":178675.87,"N_COORD97":2578038.6800000002,"ADDRESS":"新進路二段５００之３號六樓","OBJECTID":605817},"geometry":{"x":178675.87000000104,"y":2578038.6800000016}},{"attributes":{"ID":605845,"DIS_CODE":0,"TOWNNAME":"新營區","LI":"民榮里","LIN":"3鄰","STREET":"新進路","SECT":"二段","MAREA":" ","LANE":" ","ALLEY":" ","HOUSE_NO":"５００之４號十一樓","E_COORD97":178677.12,"N_COORD97":2578038.6800000002,"ADDRESS":"新進路二段５００之４號十一樓","OBJECTID":605818},"geometry":{"x":178677.12000000197,"y":2578038.6800000016}},{"attributes":{"ID":605846,"DIS_CODE":0,"TOWNNAME":"新營區","LI":"民榮里","LIN":"3鄰","STREET":"新進路","SECT":"二段","MAREA":" ","LANE":" ","ALLEY":" ","HOUSE_NO":"４９６之３號七樓","E_COORD97":178676.04999999999,"N_COORD97":2578064.1400000001,"ADDRESS":"新進路二段４９６之３號七樓","OBJECTID":605819},"geometry":{"x":178676.05000000075,"y":2578064.1400000025}},{"attributes":{"ID":605847,"DIS_CODE":0,"TOWNNAME":"新營區","LI":"民榮里","LIN":"3鄰","STREET":"新進路","SECT":"二段","MAREA":" ","LANE":" ","ALLEY":" ","HOUSE_NO":"５００號之４八樓","E_COORD97":178675.87,"N_COORD97":2578038.6800000002,"ADDRESS":"新進路二段５００號之４八樓","OBJECTID":605820},"geometry":{"x":178675.87000000104,"y":2578038.6800000016}},{"attributes":{"ID":605848,"DIS_CODE":0,"TOWNNAME":"安平區","LI":"建平里","LIN":"3鄰","STREET":"建平十七街","SECT":" ","MAREA":" ","LANE":" ","ALLEY":" ","HOUSE_NO":"６５號七樓之１","E_COORD97":166086.92999999999,"N_COORD97":2544230.8300000001,"ADDRESS":"建平十七街６５號七樓之１","OBJECTID":605821},"geometry":{"x":166086.9299999997,"y":2544230.8300000001}},{"attributes":{"ID":605849,"DIS_CODE":0,"TOWNNAME":"安平區","LI":"建平里","LIN":"3鄰","STREET":"建平十七街","SECT":" ","MAREA":" ","LANE":" ","ALLEY":" ","HOUSE_NO":"６５號七樓之２","E_COORD97":166086.92999999999,"N_COORD97":2544230.8300000001,"ADDRESS":"建平十七街６５號七樓之２","OBJECTID":605822},"geometry":{"x":166086.9299999997,"y":2544230.8300000001}},{"attributes":{"ID":605850,"DIS_CODE":0,"TOWNNAME":"安平區","LI":"建平里","LIN":"3鄰","STREET":"建平十七街","SECT":" ","MAREA":" ","LANE":" ","ALLEY":" ","HOUSE_NO":"６５號九樓之１","E_COORD97":166086.92999999999,"N_COORD97":2544230.8300000001,"ADDRESS":"建平十七街６５號九樓之１","OBJECTID":605823},"geometry":{"x":166086.9299999997,"y":2544230.8300000001}},{"attributes":{"ID":605851,"DIS_CODE":0,"TOWNNAME":"安平區","LI":"建平里","LIN":"3鄰","STREET":"建平十七街","SECT":" ","MAREA":" ","LANE":" ","ALLEY":" ","HOUSE_NO":"６５號九樓之２","E_COORD97":166086.92999999999,"N_COORD97":2544230.8300000001,"ADDRESS":"建平十七街６５號九樓之２","OBJECTID":605824},"geometry":{"x":166086.9299999997,"y":2544230.8300000001}},{"attributes":{"ID":605852,"DIS_CODE":0,"TOWNNAME":"安平區","LI":"建平里","LIN":"3鄰","STREET":"建平十七街","SECT":" ","MAREA":" ","LANE":" ","ALLEY":" ","HOUSE_NO":"６５號二樓","E_COORD97":166086.92999999999,"N_COORD97":2544230.8300000001,"ADDRESS":"建平十七街６５號二樓","OBJECTID":605825},"geometry":{"x":166086.9299999997,"y":2544230.8300000001}},{"attributes":{"ID":605853,"DIS_CODE":0,"TOWNNAME":"安平區","LI":"建平里","LIN":"3鄰","STREET":"建平十七街","SECT":" ","MAREA":" ","LANE":" ","ALLEY":" ","HOUSE_NO":"６５號八樓之１","E_COORD97":166086.92999999999,"N_COORD97":2544230.8300000001,"ADDRESS":"建平十七街６５號八樓之１","OBJECTID":605826},"geometry":{"x":166086.9299999997,"y":2544230.8300000001}},{"attributes":{"ID":605854,"DIS_CODE":0,"TOWNNAME":"安平區","LI":"建平里","LIN":"3鄰","STREET":"建平十七街","SECT":" ","MAREA":" ","LANE":" ","ALLEY":" ","HOUSE_NO":"６５號八樓之２","E_COORD97":166086.92999999999,"N_COORD97":2544230.8300000001,"ADDRESS":"建平十七街６５號八樓之２","OBJECTID":605827},"geometry":{"x":166086.9299999997,"y":2544230.8300000001}},{"attributes":{"ID":605855,"DIS_CODE":0,"TOWNNAME":"安平區","LI":"建平里","LIN":"3鄰","STREET":"建平十七街","SECT":" ","MAREA":" ","LANE":" ","ALLEY":" ","HOUSE_NO":"６５號十一樓之１","E_COORD97":166086.92999999999,"N_COORD97":2544230.8300000001,"ADDRESS":"建平十七街６５號十一樓之１","OBJECTID":605828},"geometry":{"x":166086.9299999997,"y":2544230.8300000001}},{"attributes":{"ID":605856,"DIS_CODE":0,"TOWNNAME":"安平區","LI":"建平里","LIN":"3鄰","STREET":"建平十七街","SECT":" ","MAREA":" ","LANE":" ","ALLEY":" ","HOUSE_NO":"６５號十一樓之２","E_COORD97":166086.92999999999,"N_COORD97":2544230.8300000001,"ADDRESS":"建平十七街６５號十一樓之２","OBJECTID":605829},"geometry":{"x":166086.9299999997,"y":2544230.8300000001}},{"attributes":{"ID":605857,"DIS_CODE":0,"TOWNNAME":"安平區","LI":"建平里","LIN":"3鄰","STREET":"建平十七街","SECT":" ","MAREA":" ","LANE":" ","ALLEY":" ","HOUSE_NO":"６５號十二樓","E_COORD97":166086.92999999999,"N_COORD97":2544230.8300000001,"ADDRESS":"建平十七街６５號十二樓","OBJECTID":605830},"geometry":{"x":166086.9299999997,"y":2544230.8300000001}},{"attributes":{"ID":605858,"DIS_CODE":0,"TOWNNAME":"安平區","LI":"建平里","LIN":"3鄰","STREET":"建平十七街","SECT":" ","MAREA":" ","LANE":" ","ALLEY":" ","HOUSE_NO":"６５號十樓","E_COORD97":166086.92999999999,"N_COORD97":2544230.8300000001,"ADDRESS":"建平十七街６５號十樓","OBJECTID":605831},"geometry":{"x":166086.9299999997,"y":2544230.8300000001}},{"attributes":{"ID":605859,"DIS_CODE":0,"TOWNNAME":"安平區","LI":"建平里","LIN":"3鄰","STREET":"建平十七街","SECT":" ","MAREA":" ","LANE":" ","ALLEY":" ","HOUSE_NO":"６５號十樓之１","E_COORD97":166086.92999999999,"N_COORD97":2544230.8300000001,"ADDRESS":"建平十七街６５號十樓之１","OBJECTID":605832},"geometry":{"x":166086.9299999997,"y":2544230.8300000001}},{"attributes":{"ID":605860,"DIS_CODE":0,"TOWNNAME":"安平區","LI":"建平里","LIN":"3鄰","STREET":"建平十七街","SECT":" ","MAREA":" ","LANE":" ","ALLEY":" ","HOUSE_NO":"６５號十樓之２","E_COORD97":166086.92999999999,"N_COORD97":2544230.8300000001,"ADDRESS":"建平十七街６５號十樓之２","OBJECTID":605833},"geometry":{"x":166086.9299999997,"y":2544230.8300000001}},{"attributes":{"ID":605861,"DIS_CODE":0,"TOWNNAME":"安平區","LI":"建平里","LIN":"3鄰","STREET":"建平十七街","SECT":" ","MAREA":" ","LANE":" ","ALLEY":" ","HOUSE_NO":"６５號三樓","E_COORD97":166086.92999999999,"N_COORD97":2544230.8300000001,"ADDRESS":"建平十七街６５號三樓","OBJECTID":605834},"geometry":{"x":166086.9299999997,"y":2544230.8300000001}},{"attributes":{"ID":605862,"DIS_CODE":0,"TOWNNAME":"安平區","LI":"建平里","LIN":"3鄰","STREET":"建平十七街","SECT":" ","MAREA":" ","LANE":" ","ALLEY":" ","HOUSE_NO":"６５號五樓之１","E_COORD97":166086.92999999999,"N_COORD97":2544230.8300000001,"ADDRESS":"建平十七街６５號五樓之１","OBJECTID":605835},"geometry":{"x":166086.9299999997,"y":2544230.8300000001}},{"attributes":{"ID":605863,"DIS_CODE":0,"TOWNNAME":"安平區","LI":"建平里","LIN":"3鄰","STREET":"建平十七街","SECT":" ","MAREA":" ","LANE":" ","ALLEY":" ","HOUSE_NO":"６５號五樓之２","E_COORD97":166086.92999999999,"N_COORD97":2544230.8300000001,"ADDRESS":"建平十七街６５號五樓之２","OBJECTID":605836},"geometry":{"x":166086.9299999997,"y":2544230.8300000001}},{"attributes":{"ID":605864,"DIS_CODE":0,"TOWNNAME":"安平區","LI":"建平里","LIN":"3鄰","STREET":"建平十七街","SECT":" ","MAREA":" ","LANE":" ","ALLEY":" ","HOUSE_NO":"６５號六樓之１","E_COORD97":166086.92999999999,"N_COORD97":2544230.8300000001,"ADDRESS":"建平十七街６５號六樓之１","OBJECTID":605837},"geometry":{"x":166086.9299999997,"y":2544230.8300000001}},{"attributes":{"ID":605865,"DIS_CODE":0,"TOWNNAME":"安平區","LI":"建平里","LIN":"3鄰","STREET":"建平十七街","SECT":" ","MAREA":" ","LANE":" ","ALLEY":" ","HOUSE_NO":"６５號六樓之２","E_COORD97":166086.92999999999,"N_COORD97":2544230.8300000001,"ADDRESS":"建平十七街６５號六樓之２","OBJECTID":605838},"geometry":{"x":166086.9299999997,"y":2544230.8300000001}},{"attributes":{"ID":605866,"DIS_CODE":0,"TOWNNAME":"安平區","LI":"建平里","LIN":"3鄰","STREET":"建平十七街","SECT":" ","MAREA":" ","LANE":" ","ALLEY":" ","HOUSE_NO":"６５號四樓之１","E_COORD97":166086.92999999999,"N_COORD97":2544230.8300000001,"ADDRESS":"建平十七街６５號四樓之１","OBJECTID":605839},"geometry":{"x":166086.9299999997,"y":2544230.8300000001}},{"attributes":{"ID":605867,"DIS_CODE":0,"TOWNNAME":"安平區","LI":"建平里","LIN":"3鄰","STREET":"建平十七街","SECT":" ","MAREA":" ","LANE":" ","ALLEY":" ","HOUSE_NO":"６５號四樓之２","E_COORD97":166086.92999999999,"N_COORD97":2544230.8300000001,"ADDRESS":"建平十七街６５號四樓之２","OBJECTID":605840},"geometry":{"x":166086.9299999997,"y":2544230.8300000001}},{"attributes":{"ID":605868,"DIS_CODE":0,"TOWNNAME":"安平區","LI":"建平里","LIN":"3鄰","STREET":"建平十七街","SECT":" ","MAREA":" ","LANE":" ","ALLEY":" ","HOUSE_NO":"６７號七樓之１","E_COORD97":166073.67999999999,"N_COORD97":2544232.3500000001,"ADDRESS":"建平十七街６７號七樓之１","OBJECTID":605841},"geometry":{"x":166073.6799999997,"y":2544232.3500000015}},{"attributes":{"ID":605869,"DIS_CODE":0,"TOWNNAME":"安平區","LI":"建平里","LIN":"3鄰","STREET":"建平十七街","SECT":" ","MAREA":" ","LANE":" ","ALLEY":" ","HOUSE_NO":"６７號七樓之２","E_COORD97":166073.67999999999,"N_COORD97":2544232.3500000001,"ADDRESS":"建平十七街６７號七樓之２","OBJECTID":605842},"geometry":{"x":166073.6799999997,"y":2544232.3500000015}},{"attributes":{"ID":605870,"DIS_CODE":0,"TOWNNAME":"仁德區","LI":"後壁里","LIN":"24鄰","STREET":"中正路","SECT":"二段","MAREA":" ","LANE":" ","ALLEY":" ","HOUSE_NO":"２６５號","E_COORD97":173226.39000000001,"N_COORD97":2538980.7799999998,"ADDRESS":"中正路二段２６５號","OBJECTID":605843},"geometry":{"x":173226.39000000153,"y":2538980.7800000012}},{"attributes":{"ID":605871,"DIS_CODE":0,"TOWNNAME":"仁德區","LI":"後壁里","LIN":"10鄰","STREET":"德安路","SECT":" ","MAREA":" ","LANE":" ","ALLEY":" ","HOUSE_NO":"１５９號","E_COORD97":173679.17999999999,"N_COORD97":2538795.8100000001,"ADDRESS":"德安路１５９號","OBJECTID":605844},"geometry":{"x":173679.18000000063,"y":2538795.8100000024}},{"attributes":{"ID":605872,"DIS_CODE":0,"TOWNNAME":"安平區","LI":"建平里","LIN":"3鄰","STREET":"建平十七街","SECT":" ","MAREA":" ","LANE":" ","ALLEY":" ","HOUSE_NO":"６７號九樓之１","E_COORD97":166073.67999999999,"N_COORD97":2544232.3500000001,"ADDRESS":"建平十七街６７號九樓之１","OBJECTID":605845},"geometry":{"x":166073.6799999997,"y":2544232.3500000015}},{"attributes":{"ID":605873,"DIS_CODE":0,"TOWNNAME":"安平區","LI":"建平里","LIN":"3鄰","STREET":"建平十七街","SECT":" ","MAREA":" ","LANE":" ","ALLEY":" ","HOUSE_NO":"６７號九樓之２","E_COORD97":166073.67999999999,"N_COORD97":2544232.3500000001,"ADDRESS":"建平十七街６７號九樓之２","OBJECTID":605846},"geometry":{"x":166073.6799999997,"y":2544232.3500000015}},{"attributes":{"ID":605874,"DIS_CODE":0,"TOWNNAME":"安平區","LI":"建平里","LIN":"3鄰","STREET":"建平十七街","SECT":" ","MAREA":" ","LANE":" ","ALLEY":" ","HOUSE_NO":"６７號二樓","E_COORD97":166073.67999999999,"N_COORD97":2544232.3500000001,"ADDRESS":"建平十七街６７號二樓","OBJECTID":605847},"geometry":{"x":166073.6799999997,"y":2544232.3500000015}},{"attributes":{"ID":605875,"DIS_CODE":0,"TOWNNAME":"安平區","LI":"建平里","LIN":"3鄰","STREET":"建平十七街","SECT":" ","MAREA":" ","LANE":" ","ALLEY":" ","HOUSE_NO":"６７號八樓之１","E_COORD97":166073.67999999999,"N_COORD97":2544232.3500000001,"ADDRESS":"建平十七街６７號八樓之１","OBJECTID":605848},"geometry":{"x":166073.6799999997,"y":2544232.3500000015}},{"attributes":{"ID":605876,"DIS_CODE":0,"TOWNNAME":"安平區","LI":"建平里","LIN":"3鄰","STREET":"建平十七街","SECT":" ","MAREA":" ","LANE":" ","ALLEY":" ","HOUSE_NO":"６７號八樓之２","E_COORD97":166073.67999999999,"N_COORD97":2544232.3500000001,"ADDRESS":"建平十七街６７號八樓之２","OBJECTID":605849},"geometry":{"x":166073.6799999997,"y":2544232.3500000015}},{"attributes":{"ID":605877,"DIS_CODE":0,"TOWNNAME":"安平區","LI":"建平里","LIN":"3鄰","STREET":"建平十七街","SECT":" ","MAREA":" ","LANE":" ","ALLEY":" ","HOUSE_NO":"６７號十一樓之１","E_COORD97":166073.67999999999,"N_COORD97":2544232.3500000001,"ADDRESS":"建平十七街６７號十一樓之１","OBJECTID":605850},"geometry":{"x":166073.6799999997,"y":2544232.3500000015}},{"attributes":{"ID":605878,"DIS_CODE":0,"TOWNNAME":"安平區","LI":"建平里","LIN":"3鄰","STREET":"建平十七街","SECT":" ","MAREA":" ","LANE":" ","ALLEY":" ","HOUSE_NO":"６７號十一樓之２","E_COORD97":166073.67999999999,"N_COORD97":2544232.3500000001,"ADDRESS":"建平十七街６７號十一樓之２","OBJECTID":605851},"geometry":{"x":166073.6799999997,"y":2544232.3500000015}},{"attributes":{"ID":605879,"DIS_CODE":0,"TOWNNAME":"安平區","LI":"建平里","LIN":"3鄰","STREET":"建平十七街","SECT":" ","MAREA":" ","LANE":" ","ALLEY":" ","HOUSE_NO":"６７號十二樓","E_COORD97":166073.67999999999,"N_COORD97":2544232.3500000001,"ADDRESS":"建平十七街６７號十二樓","OBJECTID":605852},"geometry":{"x":166073.6799999997,"y":2544232.3500000015}},{"attributes":{"ID":605880,"DIS_CODE":0,"TOWNNAME":"安平區","LI":"建平里","LIN":"3鄰","STREET":"建平十七街","SECT":" ","MAREA":" ","LANE":" ","ALLEY":" ","HOUSE_NO":"６７號十樓之１","E_COORD97":166073.67999999999,"N_COORD97":2544232.3500000001,"ADDRESS":"建平十七街６７號十樓之１","OBJECTID":605853},"geometry":{"x":166073.6799999997,"y":2544232.3500000015}},{"attributes":{"ID":605881,"DIS_CODE":0,"TOWNNAME":"安平區","LI":"建平里","LIN":"3鄰","STREET":"建平十七街","SECT":" ","MAREA":" ","LANE":" ","ALLEY":" ","HOUSE_NO":"６７號十樓之２","E_COORD97":166073.67999999999,"N_COORD97":2544232.3500000001,"ADDRESS":"建平十七街６７號十樓之２","OBJECTID":605854},"geometry":{"x":166073.6799999997,"y":2544232.3500000015}},{"attributes":{"ID":605882,"DIS_CODE":0,"TOWNNAME":"下營區","LI":"宅內里","LIN":"3鄰","STREET":"友愛街","SECT":" ","MAREA":" ","LANE":" ","ALLEY":" ","HOUSE_NO":"１４１號","E_COORD97":174176.45000000001,"N_COORD97":2570693.2400000002,"ADDRESS":"友愛街１４１號","OBJECTID":605855},"geometry":{"x":174176.45000000112,"y":2570693.2400000021}},{"attributes":{"ID":605883,"DIS_CODE":0,"TOWNNAME":"安平區","LI":"建平里","LIN":"3鄰","STREET":"建平十七街","SECT":" ","MAREA":" ","LANE":" ","ALLEY":" ","HOUSE_NO":"６７號三樓","E_COORD97":166073.67999999999,"N_COORD97":2544232.3500000001,"ADDRESS":"建平十七街６７號三樓","OBJECTID":605856},"geometry":{"x":166073.6799999997,"y":2544232.3500000015}},{"attributes":{"ID":605884,"DIS_CODE":0,"TOWNNAME":"安平區","LI":"建平里","LIN":"3鄰","STREET":"建平十七街","SECT":" ","MAREA":" ","LANE":" ","ALLEY":" ","HOUSE_NO":"６７號五樓之１","E_COORD97":166073.67999999999,"N_COORD97":2544232.3500000001,"ADDRESS":"建平十七街６７號五樓之１","OBJECTID":605857},"geometry":{"x":166073.6799999997,"y":2544232.3500000015}},{"attributes":{"ID":605885,"DIS_CODE":0,"TOWNNAME":"安平區","LI":"建平里","LIN":"3鄰","STREET":"建平十七街","SECT":" ","MAREA":" ","LANE":" ","ALLEY":" ","HOUSE_NO":"６７號五樓之２","E_COORD97":166073.67999999999,"N_COORD97":2544232.3500000001,"ADDRESS":"建平十七街６７號五樓之２","OBJECTID":605858},"geometry":{"x":166073.6799999997,"y":2544232.3500000015}},{"attributes":{"ID":605886,"DIS_CODE":0,"TOWNNAME":"安平區","LI":"建平里","LIN":"3鄰","STREET":"建平十七街","SECT":" ","MAREA":" ","LANE":" ","ALLEY":" ","HOUSE_NO":"６７號六樓之１","E_COORD97":166073.67999999999,"N_COORD97":2544232.3500000001,"ADDRESS":"建平十七街６７號六樓之１","OBJECTID":605859},"geometry":{"x":166073.6799999997,"y":2544232.3500000015}},{"attributes":{"ID":605887,"DIS_CODE":0,"TOWNNAME":"安平區","LI":"建平里","LIN":"3鄰","STREET":"建平十七街","SECT":" ","MAREA":" ","LANE":" ","ALLEY":" ","HOUSE_NO":"６７號六樓之２","E_COORD97":166073.67999999999,"N_COORD97":2544232.3500000001,"ADDRESS":"建平十七街６７號六樓之２","OBJECTID":605860},"geometry":{"x":166073.6799999997,"y":2544232.3500000015}},{"attributes":{"ID":605888,"DIS_CODE":0,"TOWNNAME":"安平區","LI":"建平里","LIN":"3鄰","STREET":"建平十七街","SECT":" ","MAREA":" ","LANE":" ","ALLEY":" ","HOUSE_NO":"６７號四樓之１","E_COORD97":166073.67999999999,"N_COORD97":2544232.3500000001,"ADDRESS":"建平十七街６７號四樓之１","OBJECTID":605861},"geometry":{"x":166073.6799999997,"y":2544232.3500000015}},{"attributes":{"ID":605889,"DIS_CODE":0,"TOWNNAME":"安平區","LI":"建平里","LIN":"3鄰","STREET":"建平十七街","SECT":" ","MAREA":" ","LANE":" ","ALLEY":" ","HOUSE_NO":"６７號四樓之２","E_COORD97":166073.67999999999,"N_COORD97":2544232.3500000001,"ADDRESS":"建平十七街６７號四樓之２","OBJECTID":605862},"geometry":{"x":166073.6799999997,"y":2544232.3500000015}},{"attributes":{"ID":605890,"DIS_CODE":0,"TOWNNAME":"佳里區","LI":"六安里","LIN":"3鄰","STREET":"佳東路","SECT":" ","MAREA":" ","LANE":" ","ALLEY":" ","HOUSE_NO":"４５７號","E_COORD97":166258.03,"N_COORD97":2562734.23,"ADDRESS":"佳東路４５７號","OBJECTID":605863},"geometry":{"x":166258.03000000026,"y":2562734.2300000004}},{"attributes":{"ID":605891,"DIS_CODE":0,"TOWNNAME":"仁德區","LI":"成功里","LIN":"44鄰","STREET":"文賢路","SECT":"一段","MAREA":" ","LANE":" ","ALLEY":" ","HOUSE_NO":"９７號","E_COORD97":170318.38,"N_COORD97":2538153.3300000001,"ADDRESS":"文賢路一段９７號","OBJECTID":605864},"geometry":{"x":170318.38000000082,"y":2538153.3300000038}},{"attributes":{"ID":605892,"DIS_CODE":0,"TOWNNAME":"仁德區","LI":"新田里","LIN":"16鄰","STREET":"北保東路","SECT":" ","MAREA":" ","LANE":" ","ALLEY":" ","HOUSE_NO":"１６號","E_COORD97":173405.17999999999,"N_COORD97":2539384.75,"ADDRESS":"北保東路１６號","OBJECTID":605865},"geometry":{"x":173405.1799999997,"y":2539384.7500000037}},{"attributes":{"ID":605893,"DIS_CODE":0,"TOWNNAME":"仁德區","LI":"保安里","LIN":"6鄰","STREET":"文賢路","SECT":"一段","MAREA":" ","LANE":" ","ALLEY":" ","HOUSE_NO":"７７９號","E_COORD97":171524.92000000001,"N_COORD97":2536125.5699999998,"ADDRESS":"文賢路一段７７９號","OBJECTID":605866},"geometry":{"x":171524.92000000086,"y":2536125.5700000022}},{"attributes":{"ID":605894,"DIS_CODE":0,"TOWNNAME":"學甲區","LI":"仁得里","LIN":"3鄰","STREET":"民權路","SECT":" ","MAREA":" ","LANE":" ","ALLEY":" ","HOUSE_NO":"５０號二樓","E_COORD97":166197.03,"N_COORD97":2570163.9700000002,"ADDRESS":"民權路５０號二樓","OBJECTID":605867},"geometry":{"x":166197.03000000026,"y":2570163.9700000007}},{"attributes":{"ID":605895,"DIS_CODE":0,"TOWNNAME":"學甲區","LI":"仁得里","LIN":"3鄰","STREET":"民權路","SECT":" ","MAREA":" ","LANE":" ","ALLEY":" ","HOUSE_NO":"５０號三樓","E_COORD97":166197.03,"N_COORD97":2570163.9700000002,"ADDRESS":"民權路５０號三樓","OBJECTID":605868},"geometry":{"x":166197.03000000026,"y":2570163.9700000007}},{"attributes":{"ID":605896,"DIS_CODE":0,"TOWNNAME":"學甲區","LI":"仁得里","LIN":"3鄰","STREET":"民權路","SECT":" ","MAREA":" ","LANE":" ","ALLEY":" ","HOUSE_NO":"５０號四樓","E_COORD97":166197.03,"N_COORD97":2570163.9700000002,"ADDRESS":"民權路５０號四樓","OBJECTID":605869},"geometry":{"x":166197.03000000026,"y":2570163.9700000007}},{"attributes":{"ID":605897,"DIS_CODE":0,"TOWNNAME":"北區","LI":"和順里","LIN":"3鄰","STREET":"西門路","SECT":"三段","MAREA":" ","LANE":" ","ALLEY":" ","HOUSE_NO":"７７號五樓","E_COORD97":168297.79999999999,"N_COORD97":2544763.1699999999,"ADDRESS":"西門路三段７７號五樓","OBJECTID":605870},"geometry":{"x":168297.80000000075,"y":2544763.1700000018}},{"attributes":{"ID":605898,"DIS_CODE":0,"TOWNNAME":"北區","LI":"和順里","LIN":"3鄰","STREET":"西門路","SECT":"三段","MAREA":" ","LANE":" ","ALLEY":" ","HOUSE_NO":"７７號七樓","E_COORD97":168297.79999999999,"N_COORD97":2544763.1699999999,"ADDRESS":"西門路三段７７號七樓","OBJECTID":605871},"geometry":{"x":168297.80000000075,"y":2544763.1700000018}},{"attributes":{"ID":605899,"DIS_CODE":0,"TOWNNAME":"北區","LI":"和順里","LIN":"3鄰","STREET":"西門路","SECT":"三段","MAREA":" ","LANE":" ","ALLEY":" ","HOUSE_NO":"７７號六樓","E_COORD97":168297.79999999999,"N_COORD97":2544763.1699999999,"ADDRESS":"西門路三段７７號六樓","OBJECTID":605872},"geometry":{"x":168297.80000000075,"y":2544763.1700000018}},{"attributes":{"ID":605900,"DIS_CODE":0,"TOWNNAME":"北區","LI":"和順里","LIN":"3鄰","STREET":"西門路","SECT":"三段","MAREA":" ","LANE":" ","ALLEY":" ","HOUSE_NO":"７７號三樓","E_COORD97":168297.79999999999,"N_COORD97":2544763.1699999999,"ADDRESS":"西門路三段７７號三樓","OBJECTID":605873},"geometry":{"x":168297.80000000075,"y":2544763.1700000018}},{"attributes":{"ID":605901,"DIS_CODE":0,"TOWNNAME":"北區","LI":"和順里","LIN":"3鄰","STREET":"西門路","SECT":"三段","MAREA":" ","LANE":" ","ALLEY":" ","HOUSE_NO":"７７號二樓","E_COORD97":168297.79999999999,"N_COORD97":2544763.1699999999,"ADDRESS":"西門路三段７７號二樓","OBJECTID":605874},"geometry":{"x":168297.80000000075,"y":2544763.1700000018}},{"attributes":{"ID":605902,"DIS_CODE":0,"TOWNNAME":"北區","LI":"和順里","LIN":"3鄰","STREET":"西門路","SECT":"三段","MAREA":" ","LANE":" ","ALLEY":" ","HOUSE_NO":"７７號四樓","E_COORD97":168297.79999999999,"N_COORD97":2544763.1699999999,"ADDRESS":"西門路三段７７號四樓","OBJECTID":605875},"geometry":{"x":168297.80000000075,"y":2544763.1700000018}},{"attributes":{"ID":605903,"DIS_CODE":0,"TOWNNAME":"仁德區","LI":"後壁里","LIN":"38鄰","STREET":"德安路","SECT":" ","MAREA":" ","LANE":" ","ALLEY":" ","HOUSE_NO":"１號","E_COORD97":173393.95999999999,"N_COORD97":2539224.3100000001,"ADDRESS":"德安路１號","OBJECTID":605876},"geometry":{"x":173393.95999999903,"y":2539224.3100000005}},{"attributes":{"ID":605904,"DIS_CODE":0,"TOWNNAME":"仁德區","LI":"仁德里","LIN":"14鄰","STREET":"中正路","SECT":"三段","MAREA":" ","LANE":" ","ALLEY":" ","HOUSE_NO":"５３號","E_COORD97":173341.34,"N_COORD97":2541536.7799999998,"ADDRESS":"中正路三段５３號","OBJECTID":605877},"geometry":{"x":173341.33999999985,"y":2541536.7800000012}},{"attributes":{"ID":605905,"DIS_CODE":0,"TOWNNAME":"仁德區","LI":"保安里","LIN":"21鄰","STREET":"文賢路","SECT":"一段","MAREA":" ","LANE":" ","ALLEY":" ","HOUSE_NO":"６４０號","E_COORD97":171138.13,"N_COORD97":2536669.0800000001,"ADDRESS":"文賢路一段６４０號","OBJECTID":605878},"geometry":{"x":171138.12999999896,"y":2536669.0800000001}},{"attributes":{"ID":605906,"DIS_CODE":0,"TOWNNAME":"仁德區","LI":"太子里","LIN":"16鄰","STREET":"長興四街","SECT":" ","MAREA":" ","LANE":" ","ALLEY":" ","HOUSE_NO":"２７號","E_COORD97":174036.23999999999,"N_COORD97":2543626.5099999998,"ADDRESS":"長興四街２７號","OBJECTID":605879},"geometry":{"x":174036.24000000022,"y":2543626.5099999998}},{"attributes":{"ID":605907,"DIS_CODE":0,"TOWNNAME":"仁德區","LI":"後壁里","LIN":"5鄰","STREET":"德善路","SECT":" ","MAREA":" ","LANE":" ","ALLEY":" ","HOUSE_NO":"１０７號","E_COORD97":173423.31,"N_COORD97":2538863.27,"ADDRESS":"德善路１０７號","OBJECTID":605880},"geometry":{"x":173423.30999999959,"y":2538863.2700000014}},{"attributes":{"ID":605908,"DIS_CODE":0,"TOWNNAME":"仁德區","LI":"成功里","LIN":"45鄰","STREET":"文賢路","SECT":"一段","MAREA":" ","LANE":" ","ALLEY":" ","HOUSE_NO":"４７號","E_COORD97":170185.22,"N_COORD97":2538236.8300000001,"ADDRESS":"文賢路一段４７號","OBJECTID":605881},"geometry":{"x":170185.22000000067,"y":2538236.8300000001}},{"attributes":{"ID":605909,"DIS_CODE":0,"TOWNNAME":"新營區","LI":"民榮里","LIN":"3鄰","STREET":"新進路","SECT":"二段","MAREA":" ","LANE":" ","ALLEY":" ","HOUSE_NO":"４９８號五樓","E_COORD97":178673.42999999999,"N_COORD97":2578038.6400000001,"ADDRESS":"新進路二段４９８號五樓","OBJECTID":605882},"geometry":{"x":178673.43000000063,"y":2578038.6400000006}},{"attributes":{"ID":605910,"DIS_CODE":0,"TOWNNAME":"新營區","LI":"民榮里","LIN":"3鄰","STREET":"新進路","SECT":"二段","MAREA":" ","LANE":" ","ALLEY":" ","HOUSE_NO":"４９８號十一樓","E_COORD97":178674.67999999999,"N_COORD97":2578038.6400000001,"ADDRESS":"新進路二段４９８號十一樓","OBJECTID":605883},"geometry":{"x":178674.68000000063,"y":2578038.6400000006}},{"attributes":{"ID":605911,"DIS_CODE":0,"TOWNNAME":"新營區","LI":"民榮里","LIN":"3鄰","STREET":"新進路","SECT":"二段","MAREA":" ","LANE":" ","ALLEY":" ","HOUSE_NO":"５００之１號十二樓","E_COORD97":178677.12,"N_COORD97":2578038.6800000002,"ADDRESS":"新進路二段５００之１號十二樓","OBJECTID":605884},"geometry":{"x":178677.12000000197,"y":2578038.6800000016}},{"attributes":{"ID":605912,"DIS_CODE":0,"TOWNNAME":"新營區","LI":"民榮里","LIN":"3鄰","STREET":"新進路","SECT":"二段","MAREA":" ","LANE":" ","ALLEY":" ","HOUSE_NO":"５００之２號十三樓","E_COORD97":178677.12,"N_COORD97":2578038.6800000002,"ADDRESS":"新進路二段５００之２號十三樓","OBJECTID":605885},"geometry":{"x":178677.12000000197,"y":2578038.6800000016}},{"attributes":{"ID":605913,"DIS_CODE":0,"TOWNNAME":"新營區","LI":"民榮里","LIN":"3鄰","STREET":"新進路","SECT":"二段","MAREA":" ","LANE":" ","ALLEY":" ","HOUSE_NO":"５０２號十二樓","E_COORD97":178674.62,"N_COORD97":2578038.6400000001,"ADDRESS":"新進路二段５０２號十二樓","OBJECTID":605886},"geometry":{"x":178674.62000000011,"y":2578038.6400000006}},{"attributes":{"ID":605914,"DIS_CODE":0,"TOWNNAME":"新營區","LI":"民榮里","LIN":"3鄰","STREET":"新進路","SECT":"二段","MAREA":" ","LANE":" ","ALLEY":" ","HOUSE_NO":"４９６之２號十樓","E_COORD97":178676.04999999999,"N_COORD97":2578064.1400000001,"ADDRESS":"新進路二段４９６之２號十樓","OBJECTID":605887},"geometry":{"x":178676.05000000075,"y":2578064.1400000025}},{"attributes":{"ID":605915,"DIS_CODE":0,"TOWNNAME":"新營區","LI":"民榮里","LIN":"3鄰","STREET":"新進路","SECT":"二段","MAREA":" ","LANE":" ","ALLEY":" ","HOUSE_NO":"４９６之２號十二樓","E_COORD97":178677.29999999999,"N_COORD97":2578064.1400000001,"ADDRESS":"新進路二段４９６之２號十二樓","OBJECTID":605888},"geometry":{"x":178677.30000000168,"y":2578064.1400000025}},{"attributes":{"ID":605916,"DIS_CODE":0,"TOWNNAME":"新營區","LI":"永生里","LIN":"3鄰","STREET":"中山路","SECT":" ","MAREA":" ","LANE":" ","ALLEY":" ","HOUSE_NO":"１６９號七樓","E_COORD97":180025.79000000001,"N_COORD97":2578076.48,"ADDRESS":"中山路１６９號七樓","OBJECTID":605889},"geometry":{"x":180025.79000000097,"y":2578076.4800000004}},{"attributes":{"ID":605917,"DIS_CODE":0,"TOWNNAME":"仁德區","LI":"成功里","LIN":"31鄰","STREET":"成功一街","SECT":" ","MAREA":" ","LANE":" ","ALLEY":" ","HOUSE_NO":"２５號","E_COORD97":170541.04000000001,"N_COORD97":2540151.5099999998,"ADDRESS":"成功一街２５號","OBJECTID":605890},"geometry":{"x":170541.04000000097,"y":2540151.5099999998}},{"attributes":{"ID":605918,"DIS_CODE":0,"TOWNNAME":"新營區","LI":"民榮里","LIN":"3鄰","STREET":"新進路","SECT":"二段","MAREA":" ","LANE":" ","ALLEY":" ","HOUSE_NO":"４９４號十樓","E_COORD97":178673.54999999999,"N_COORD97":2578064.1000000001,"ADDRESS":"新進路二段４９４號十樓","OBJECTID":605891},"geometry":{"x":178673.54999999981,"y":2578064.1000000015}},{"attributes":{"ID":605919,"DIS_CODE":0,"TOWNNAME":"新營區","LI":"民榮里","LIN":"3鄰","STREET":"新進路","SECT":"二段","MAREA":" ","LANE":" ","ALLEY":" ","HOUSE_NO":"４９６之２號六樓","E_COORD97":178676.04999999999,"N_COORD97":2578064.1400000001,"ADDRESS":"新進路二段４９６之２號六樓","OBJECTID":605892},"geometry":{"x":178676.05000000075,"y":2578064.1400000025}},{"attributes":{"ID":605920,"DIS_CODE":0,"TOWNNAME":"新營區","LI":"民榮里","LIN":"3鄰","STREET":"新進路","SECT":"二段","MAREA":" ","LANE":" ","ALLEY":" ","HOUSE_NO":"４９６之２號四樓","E_COORD97":178676.04999999999,"N_COORD97":2578064.1400000001,"ADDRESS":"新進路二段４９６之２號四樓","OBJECTID":605893},"geometry":{"x":178676.05000000075,"y":2578064.1400000025}},{"attributes":{"ID":605921,"DIS_CODE":0,"TOWNNAME":"新營區","LI":"民榮里","LIN":"3鄰","STREET":"新進路","SECT":"二段","MAREA":" ","LANE":" ","ALLEY":" ","HOUSE_NO":"５００號之１四樓","E_COORD97":178675.87,"N_COORD97":2578038.6800000002,"ADDRESS":"新進路二段５００號之１四樓","OBJECTID":605894},"geometry":{"x":178675.87000000104,"y":2578038.6800000016}},{"attributes":{"ID":605922,"DIS_CODE":0,"TOWNNAME":"新營區","LI":"民榮里","LIN":"3鄰","STREET":"新進路","SECT":"二段","MAREA":" ","LANE":" ","ALLEY":" ","HOUSE_NO":"４９６之２號五樓","E_COORD97":178676.04999999999,"N_COORD97":2578064.1400000001,"ADDRESS":"新進路二段４９６之２號五樓","OBJECTID":605895},"geometry":{"x":178676.05000000075,"y":2578064.1400000025}},{"attributes":{"ID":605923,"DIS_CODE":0,"TOWNNAME":"仁德區","LI":"太子里","LIN":"33鄰","STREET":"太子路","SECT":" ","MAREA":" ","LANE":" ","ALLEY":" ","HOUSE_NO":"４７９號","E_COORD97":174088.95000000001,"N_COORD97":2543496.75,"ADDRESS":"太子路４７９號","OBJECTID":605896},"geometry":{"x":174088.95000000019,"y":2543496.75}},{"attributes":{"ID":605924,"DIS_CODE":0,"TOWNNAME":"佳里區","LI":"六安里","LIN":"3鄰","STREET":"佳東路","SECT":" ","MAREA":" ","LANE":" ","ALLEY":" ","HOUSE_NO":"４８１號","E_COORD97":166244.42000000001,"N_COORD97":2562779.3300000001,"ADDRESS":"佳東路４８１號","OBJECTID":605897},"geometry":{"x":166244.42000000086,"y":2562779.3300000019}},{"attributes":{"ID":605925,"DIS_CODE":0,"TOWNNAME":"安平區","LI":"怡平里","LIN":"3鄰","STREET":"永華六街","SECT":" ","MAREA":" ","LANE":" ","ALLEY":" ","HOUSE_NO":"２１４號七樓之１１","E_COORD97":165681.85000000001,"N_COORD97":2544203.5099999998,"ADDRESS":"永華六街２１４號七樓之１１","OBJECTID":605898},"geometry":{"x":165681.85000000056,"y":2544203.5100000035}},{"attributes":{"ID":605926,"DIS_CODE":0,"TOWNNAME":"安平區","LI":"怡平里","LIN":"3鄰","STREET":"永華六街","SECT":" ","MAREA":" ","LANE":" ","ALLEY":" ","HOUSE_NO":"２１４號七樓之１２","E_COORD97":165681.85000000001,"N_COORD97":2544203.5099999998,"ADDRESS":"永華六街２１４號七樓之１２","OBJECTID":605899},"geometry":{"x":165681.85000000056,"y":2544203.5100000035}},{"attributes":{"ID":605927,"DIS_CODE":0,"TOWNNAME":"安平區","LI":"怡平里","LIN":"3鄰","STREET":"永華六街","SECT":" ","MAREA":" ","LANE":" ","ALLEY":" ","HOUSE_NO":"２１４號七樓之２","E_COORD97":165681.85000000001,"N_COORD97":2544203.5099999998,"ADDRESS":"永華六街２１４號七樓之２","OBJECTID":605900},"geometry":{"x":165681.85000000056,"y":2544203.5100000035}},{"attributes":{"ID":605928,"DIS_CODE":0,"TOWNNAME":"安平區","LI":"怡平里","LIN":"3鄰","STREET":"永華六街","SECT":" ","MAREA":" ","LANE":" ","ALLEY":" ","HOUSE_NO":"２１４號七樓之３","E_COORD97":165681.85000000001,"N_COORD97":2544203.5099999998,"ADDRESS":"永華六街２１４號七樓之３","OBJECTID":605901},"geometry":{"x":165681.85000000056,"y":2544203.5100000035}},{"attributes":{"ID":605929,"DIS_CODE":0,"TOWNNAME":"安平區","LI":"怡平里","LIN":"3鄰","STREET":"永華六街","SECT":" ","MAREA":" ","LANE":" ","ALLEY":" ","HOUSE_NO":"２１４號七樓之４","E_COORD97":165681.85000000001,"N_COORD97":2544203.5099999998,"ADDRESS":"永華六街２１４號七樓之４","OBJECTID":605902},"geometry":{"x":165681.85000000056,"y":2544203.5100000035}},{"attributes":{"ID":605930,"DIS_CODE":0,"TOWNNAME":"安平區","LI":"怡平里","LIN":"3鄰","STREET":"永華六街","SECT":" ","MAREA":" ","LANE":" ","ALLEY":" ","HOUSE_NO":"２１４號七樓之５","E_COORD97":165681.85000000001,"N_COORD97":2544203.5099999998,"ADDRESS":"永華六街２１４號七樓之５","OBJECTID":605903},"geometry":{"x":165681.85000000056,"y":2544203.5100000035}},{"attributes":{"ID":605931,"DIS_CODE":0,"TOWNNAME":"安平區","LI":"怡平里","LIN":"3鄰","STREET":"永華六街","SECT":" ","MAREA":" ","LANE":" ","ALLEY":" ","HOUSE_NO":"２１４號七樓之６","E_COORD97":165681.85000000001,"N_COORD97":2544203.5099999998,"ADDRESS":"永華六街２１４號七樓之６","OBJECTID":605904},"geometry":{"x":165681.85000000056,"y":2544203.5100000035}},{"attributes":{"ID":605932,"DIS_CODE":0,"TOWNNAME":"安平區","LI":"怡平里","LIN":"3鄰","STREET":"永華六街","SECT":" ","MAREA":" ","LANE":" ","ALLEY":" ","HOUSE_NO":"２１４號七樓之７","E_COORD97":165681.85000000001,"N_COORD97":2544203.5099999998,"ADDRESS":"永華六街２１４號七樓之７","OBJECTID":605905},"geometry":{"x":165681.85000000056,"y":2544203.5100000035}},{"attributes":{"ID":605933,"DIS_CODE":0,"TOWNNAME":"安平區","LI":"怡平里","LIN":"3鄰","STREET":"永華六街","SECT":" ","MAREA":" ","LANE":" ","ALLEY":" ","HOUSE_NO":"２１４號七樓之８","E_COORD97":165681.85000000001,"N_COORD97":2544203.5099999998,"ADDRESS":"永華六街２１４號七樓之８","OBJECTID":605906},"geometry":{"x":165681.85000000056,"y":2544203.5100000035}},{"attributes":{"ID":605934,"DIS_CODE":0,"TOWNNAME":"安平區","LI":"怡平里","LIN":"3鄰","STREET":"永華六街","SECT":" ","MAREA":" ","LANE":" ","ALLEY":" ","HOUSE_NO":"２１４號七樓之９","E_COORD97":165681.85000000001,"N_COORD97":2544203.5099999998,"ADDRESS":"永華六街２１４號七樓之９","OBJECTID":605907},"geometry":{"x":165681.85000000056,"y":2544203.5100000035}},{"attributes":{"ID":605935,"DIS_CODE":0,"TOWNNAME":"安平區","LI":"怡平里","LIN":"3鄰","STREET":"永華六街","SECT":" ","MAREA":" ","LANE":" ","ALLEY":" ","HOUSE_NO":"２１４號九樓之１","E_COORD97":165681.85000000001,"N_COORD97":2544203.5099999998,"ADDRESS":"永華六街２１４號九樓之１","OBJECTID":605908},"geometry":{"x":165681.85000000056,"y":2544203.5100000035}},{"attributes":{"ID":605936,"DIS_CODE":0,"TOWNNAME":"安平區","LI":"怡平里","LIN":"3鄰","STREET":"永華六街","SECT":" ","MAREA":" ","LANE":" ","ALLEY":" ","HOUSE_NO":"２１４號九樓之１０","E_COORD97":165681.85000000001,"N_COORD97":2544203.5099999998,"ADDRESS":"永華六街２１４號九樓之１０","OBJECTID":605909},"geometry":{"x":165681.85000000056,"y":2544203.5100000035}},{"attributes":{"ID":605937,"DIS_CODE":0,"TOWNNAME":"安平區","LI":"怡平里","LIN":"3鄰","STREET":"永華六街","SECT":" ","MAREA":" ","LANE":" ","ALLEY":" ","HOUSE_NO":"２１４號九樓之１１","E_COORD97":165681.85000000001,"N_COORD97":2544203.5099999998,"ADDRESS":"永華六街２１４號九樓之１１","OBJECTID":605910},"geometry":{"x":165681.85000000056,"y":2544203.5100000035}},{"attributes":{"ID":605938,"DIS_CODE":0,"TOWNNAME":"仁德區","LI":"後壁里","LIN":"22鄰","STREET":"中正路","SECT":"二段","MAREA":" ","LANE":" ","ALLEY":" ","HOUSE_NO":"１６７號","E_COORD97":173199.97,"N_COORD97":2538659.5299999998,"ADDRESS":"中正路二段１６７號","OBJECTID":605911},"geometry":{"x":173199.96999999974,"y":2538659.5299999975}},{"attributes":{"ID":605939,"DIS_CODE":0,"TOWNNAME":"安平區","LI":"怡平里","LIN":"3鄰","STREET":"永華六街","SECT":" ","MAREA":" ","LANE":" ","ALLEY":" ","HOUSE_NO":"２１４號九樓之１２","E_COORD97":165681.85000000001,"N_COORD97":2544203.5099999998,"ADDRESS":"永華六街２１４號九樓之１２","OBJECTID":605912},"geometry":{"x":165681.85000000056,"y":2544203.5100000035}},{"attributes":{"ID":605940,"DIS_CODE":0,"TOWNNAME":"安平區","LI":"怡平里","LIN":"3鄰","STREET":"永華六街","SECT":" ","MAREA":" ","LANE":" ","ALLEY":" ","HOUSE_NO":"２１４號九樓之２","E_COORD97":165681.85000000001,"N_COORD97":2544203.5099999998,"ADDRESS":"永華六街２１４號九樓之２","OBJECTID":605913},"geometry":{"x":165681.85000000056,"y":2544203.5100000035}},{"attributes":{"ID":605941,"DIS_CODE":0,"TOWNNAME":"安平區","LI":"怡平里","LIN":"3鄰","STREET":"永華六街","SECT":" ","MAREA":" ","LANE":" ","ALLEY":" ","HOUSE_NO":"２１４號九樓之３","E_COORD97":165681.85000000001,"N_COORD97":2544203.5099999998,"ADDRESS":"永華六街２１４號九樓之３","OBJECTID":605914},"geometry":{"x":165681.85000000056,"y":2544203.5100000035}},{"attributes":{"ID":605942,"DIS_CODE":0,"TOWNNAME":"安平區","LI":"怡平里","LIN":"3鄰","STREET":"永華六街","SECT":" ","MAREA":" ","LANE":" ","ALLEY":" ","HOUSE_NO":"２１４號九樓之４","E_COORD97":165681.85000000001,"N_COORD97":2544203.5099999998,"ADDRESS":"永華六街２１４號九樓之４","OBJECTID":605915},"geometry":{"x":165681.85000000056,"y":2544203.5100000035}},{"attributes":{"ID":605943,"DIS_CODE":0,"TOWNNAME":"安平區","LI":"怡平里","LIN":"3鄰","STREET":"永華六街","SECT":" ","MAREA":" ","LANE":" ","ALLEY":" ","HOUSE_NO":"２１４號九樓之５","E_COORD97":165681.85000000001,"N_COORD97":2544203.5099999998,"ADDRESS":"永華六街２１４號九樓之５","OBJECTID":605916},"geometry":{"x":165681.85000000056,"y":2544203.5100000035}},{"attributes":{"ID":605944,"DIS_CODE":0,"TOWNNAME":"南區","LI":"新生里","LIN":"3鄰","STREET":"大林路","SECT":" ","MAREA":" ","LANE":" ","ALLEY":" ","HOUSE_NO":"１０號九樓之１","E_COORD97":169299.35999999999,"N_COORD97":2541869.8700000001,"ADDRESS":"大林路１０號九樓之１","OBJECTID":605917},"geometry":{"x":169299.36000000034,"y":2541869.8700000048}},{"attributes":{"ID":605945,"DIS_CODE":0,"TOWNNAME":"安平區","LI":"怡平里","LIN":"3鄰","STREET":"永華六街","SECT":" ","MAREA":" ","LANE":" ","ALLEY":" ","HOUSE_NO":"２１４號九樓之６","E_COORD97":165681.85000000001,"N_COORD97":2544203.5099999998,"ADDRESS":"永華六街２１４號九樓之６","OBJECTID":605918},"geometry":{"x":165681.85000000056,"y":2544203.5100000035}},{"attributes":{"ID":605946,"DIS_CODE":0,"TOWNNAME":"安平區","LI":"怡平里","LIN":"3鄰","STREET":"永華六街","SECT":" ","MAREA":" ","LANE":" ","ALLEY":" ","HOUSE_NO":"２１４號九樓之７","E_COORD97":165681.85000000001,"N_COORD97":2544203.5099999998,"ADDRESS":"永華六街２１４號九樓之７","OBJECTID":605919},"geometry":{"x":165681.85000000056,"y":2544203.5100000035}},{"attributes":{"ID":605947,"DIS_CODE":0,"TOWNNAME":"安平區","LI":"怡平里","LIN":"3鄰","STREET":"永華六街","SECT":" ","MAREA":" ","LANE":" ","ALLEY":" ","HOUSE_NO":"２１４號九樓之８","E_COORD97":165681.85000000001,"N_COORD97":2544203.5099999998,"ADDRESS":"永華六街２１４號九樓之８","OBJECTID":605920},"geometry":{"x":165681.85000000056,"y":2544203.5100000035}},{"attributes":{"ID":605948,"DIS_CODE":0,"TOWNNAME":"安平區","LI":"怡平里","LIN":"3鄰","STREET":"永華六街","SECT":" ","MAREA":" ","LANE":" ","ALLEY":" ","HOUSE_NO":"２１４號九樓之９","E_COORD97":165681.85000000001,"N_COORD97":2544203.5099999998,"ADDRESS":"永華六街２１４號九樓之９","OBJECTID":605921},"geometry":{"x":165681.85000000056,"y":2544203.5100000035}},{"attributes":{"ID":605949,"DIS_CODE":0,"TOWNNAME":"安平區","LI":"怡平里","LIN":"3鄰","STREET":"永華六街","SECT":" ","MAREA":" ","LANE":" ","ALLEY":" ","HOUSE_NO":"２１４號二樓","E_COORD97":165681.85000000001,"N_COORD97":2544203.5099999998,"ADDRESS":"永華六街２１４號二樓","OBJECTID":605922},"geometry":{"x":165681.85000000056,"y":2544203.5100000035}},{"attributes":{"ID":605950,"DIS_CODE":0,"TOWNNAME":"安平區","LI":"怡平里","LIN":"3鄰","STREET":"永華六街","SECT":" ","MAREA":" ","LANE":" ","ALLEY":" ","HOUSE_NO":"２１４號八樓之１","E_COORD97":165681.85000000001,"N_COORD97":2544203.5099999998,"ADDRESS":"永華六街２１４號八樓之１","OBJECTID":605923},"geometry":{"x":165681.85000000056,"y":2544203.5100000035}},{"attributes":{"ID":605951,"DIS_CODE":0,"TOWNNAME":"安平區","LI":"怡平里","LIN":"3鄰","STREET":"永華六街","SECT":" ","MAREA":" ","LANE":" ","ALLEY":" ","HOUSE_NO":"２１４號八樓之１０","E_COORD97":165681.85000000001,"N_COORD97":2544203.5099999998,"ADDRESS":"永華六街２１４號八樓之１０","OBJECTID":605924},"geometry":{"x":165681.85000000056,"y":2544203.5100000035}},{"attributes":{"ID":605952,"DIS_CODE":0,"TOWNNAME":"安平區","LI":"怡平里","LIN":"3鄰","STREET":"永華六街","SECT":" ","MAREA":" ","LANE":" ","ALLEY":" ","HOUSE_NO":"２１４號八樓之１１","E_COORD97":165681.85000000001,"N_COORD97":2544203.5099999998,"ADDRESS":"永華六街２１４號八樓之１１","OBJECTID":605925},"geometry":{"x":165681.85000000056,"y":2544203.5100000035}},{"attributes":{"ID":605953,"DIS_CODE":0,"TOWNNAME":"安平區","LI":"怡平里","LIN":"3鄰","STREET":"永華六街","SECT":" ","MAREA":" ","LANE":" ","ALLEY":" ","HOUSE_NO":"２１４號八樓之１２","E_COORD97":165681.85000000001,"N_COORD97":2544203.5099999998,"ADDRESS":"永華六街２１４號八樓之１２","OBJECTID":605926},"geometry":{"x":165681.85000000056,"y":2544203.5100000035}},{"attributes":{"ID":605954,"DIS_CODE":0,"TOWNNAME":"安平區","LI":"怡平里","LIN":"3鄰","STREET":"永華六街","SECT":" ","MAREA":" ","LANE":" ","ALLEY":" ","HOUSE_NO":"２１４號八樓之２","E_COORD97":165681.85000000001,"N_COORD97":2544203.5099999998,"ADDRESS":"永華六街２１４號八樓之２","OBJECTID":605927},"geometry":{"x":165681.85000000056,"y":2544203.5100000035}},{"attributes":{"ID":605955,"DIS_CODE":0,"TOWNNAME":"安平區","LI":"怡平里","LIN":"3鄰","STREET":"永華六街","SECT":" ","MAREA":" ","LANE":" ","ALLEY":" ","HOUSE_NO":"２１４號八樓之３","E_COORD97":165681.85000000001,"N_COORD97":2544203.5099999998,"ADDRESS":"永華六街２１４號八樓之３","OBJECTID":605928},"geometry":{"x":165681.85000000056,"y":2544203.5100000035}},{"attributes":{"ID":605956,"DIS_CODE":0,"TOWNNAME":"安平區","LI":"怡平里","LIN":"3鄰","STREET":"永華六街","SECT":" ","MAREA":" ","LANE":" ","ALLEY":" ","HOUSE_NO":"２１４號八樓之４","E_COORD97":165681.85000000001,"N_COORD97":2544203.5099999998,"ADDRESS":"永華六街２１４號八樓之４","OBJECTID":605929},"geometry":{"x":165681.85000000056,"y":2544203.5100000035}},{"attributes":{"ID":605957,"DIS_CODE":0,"TOWNNAME":"安平區","LI":"怡平里","LIN":"3鄰","STREET":"永華六街","SECT":" ","MAREA":" ","LANE":" ","ALLEY":" ","HOUSE_NO":"２１４號八樓之５","E_COORD97":165681.85000000001,"N_COORD97":2544203.5099999998,"ADDRESS":"永華六街２１４號八樓之５","OBJECTID":605930},"geometry":{"x":165681.85000000056,"y":2544203.5100000035}},{"attributes":{"ID":605958,"DIS_CODE":0,"TOWNNAME":"安平區","LI":"怡平里","LIN":"3鄰","STREET":"永華六街","SECT":" ","MAREA":" ","LANE":" ","ALLEY":" ","HOUSE_NO":"２１４號八樓之６","E_COORD97":165681.85000000001,"N_COORD97":2544203.5099999998,"ADDRESS":"永華六街２１４號八樓之６","OBJECTID":605931},"geometry":{"x":165681.85000000056,"y":2544203.5100000035}},{"attributes":{"ID":605959,"DIS_CODE":0,"TOWNNAME":"安平區","LI":"怡平里","LIN":"3鄰","STREET":"永華六街","SECT":" ","MAREA":" ","LANE":" ","ALLEY":" ","HOUSE_NO":"２１４號八樓之７","E_COORD97":165681.85000000001,"N_COORD97":2544203.5099999998,"ADDRESS":"永華六街２１４號八樓之７","OBJECTID":605932},"geometry":{"x":165681.85000000056,"y":2544203.5100000035}},{"attributes":{"ID":605960,"DIS_CODE":0,"TOWNNAME":"安平區","LI":"怡平里","LIN":"3鄰","STREET":"永華六街","SECT":" ","MAREA":" ","LANE":" ","ALLEY":" ","HOUSE_NO":"２１４號八樓之８","E_COORD97":165681.85000000001,"N_COORD97":2544203.5099999998,"ADDRESS":"永華六街２１４號八樓之８","OBJECTID":605933},"geometry":{"x":165681.85000000056,"y":2544203.5100000035}},{"attributes":{"ID":605961,"DIS_CODE":0,"TOWNNAME":"安平區","LI":"怡平里","LIN":"3鄰","STREET":"永華六街","SECT":" ","MAREA":" ","LANE":" ","ALLEY":" ","HOUSE_NO":"２１４號八樓之９","E_COORD97":165681.85000000001,"N_COORD97":2544203.5099999998,"ADDRESS":"永華六街２１４號八樓之９","OBJECTID":605934},"geometry":{"x":165681.85000000056,"y":2544203.5100000035}},{"attributes":{"ID":605962,"DIS_CODE":0,"TOWNNAME":"安平區","LI":"怡平里","LIN":"3鄰","STREET":"永華六街","SECT":" ","MAREA":" ","LANE":" ","ALLEY":" ","HOUSE_NO":"２１４號十一樓之１","E_COORD97":165681.85000000001,"N_COORD97":2544203.5099999998,"ADDRESS":"永華六街２１４號十一樓之１","OBJECTID":605935},"geometry":{"x":165681.85000000056,"y":2544203.5100000035}},{"attributes":{"ID":605963,"DIS_CODE":0,"TOWNNAME":"安平區","LI":"怡平里","LIN":"3鄰","STREET":"永華六街","SECT":" ","MAREA":" ","LANE":" ","ALLEY":" ","HOUSE_NO":"２１４號十一樓之１０","E_COORD97":165681.85000000001,"N_COORD97":2544203.5099999998,"ADDRESS":"永華六街２１４號十一樓之１０","OBJECTID":605936},"geometry":{"x":165681.85000000056,"y":2544203.5100000035}},{"attributes":{"ID":605964,"DIS_CODE":0,"TOWNNAME":"安平區","LI":"怡平里","LIN":"3鄰","STREET":"永華六街","SECT":" ","MAREA":" ","LANE":" ","ALLEY":" ","HOUSE_NO":"２１４號十一樓之１１","E_COORD97":165681.85000000001,"N_COORD97":2544203.5099999998,"ADDRESS":"永華六街２１４號十一樓之１１","OBJECTID":605937},"geometry":{"x":165681.85000000056,"y":2544203.5100000035}},{"attributes":{"ID":605965,"DIS_CODE":0,"TOWNNAME":"安平區","LI":"怡平里","LIN":"3鄰","STREET":"永華六街","SECT":" ","MAREA":" ","LANE":" ","ALLEY":" ","HOUSE_NO":"２１４號十一樓之１２","E_COORD97":165681.85000000001,"N_COORD97":2544203.5099999998,"ADDRESS":"永華六街２１４號十一樓之１２","OBJECTID":605938},"geometry":{"x":165681.85000000056,"y":2544203.5100000035}},{"attributes":{"ID":605966,"DIS_CODE":0,"TOWNNAME":"安平區","LI":"怡平里","LIN":"3鄰","STREET":"永華六街","SECT":" ","MAREA":" ","LANE":" ","ALLEY":" ","HOUSE_NO":"２１４號十一樓之２","E_COORD97":165681.85000000001,"N_COORD97":2544203.5099999998,"ADDRESS":"永華六街２１４號十一樓之２","OBJECTID":605939},"geometry":{"x":165681.85000000056,"y":2544203.5100000035}},{"attributes":{"ID":605967,"DIS_CODE":0,"TOWNNAME":"仁德區","LI":"仁德里","LIN":"4鄰","STREET":"仁中三街","SECT":" ","MAREA":" ","LANE":" ","ALLEY":" ","HOUSE_NO":"５８號","E_COORD97":173315.12,"N_COORD97":2540429.75,"ADDRESS":"仁中三街５８號","OBJECTID":605940},"geometry":{"x":173315.12000000197,"y":2540429.7500000019}},{"attributes":{"ID":605968,"DIS_CODE":0,"TOWNNAME":"仁德區","LI":"後壁里","LIN":"39鄰","STREET":"德安路","SECT":" ","MAREA":" ","LANE":" ","ALLEY":" ","HOUSE_NO":"３７號","E_COORD97":173473.01000000001,"N_COORD97":2539116.5600000001,"ADDRESS":"德安路３７號","OBJECTID":605941},"geometry":{"x":173473.00999999978,"y":2539116.5600000024}},{"attributes":{"ID":605969,"DIS_CODE":0,"TOWNNAME":"仁德區","LI":"保安里","LIN":"9鄰","STREET":"文賢路","SECT":"一段","MAREA":" ","LANE":" ","ALLEY":" ","HOUSE_NO":"８１３號","E_COORD97":171582.63,"N_COORD97":2536061.3300000001,"ADDRESS":"文賢路一段８１３號","OBJECTID":605942},"geometry":{"x":171582.63000000082,"y":2536061.3299999982}},{"attributes":{"ID":605970,"DIS_CODE":0,"TOWNNAME":"仁德區","LI":"保安里","LIN":"16鄰","STREET":"中正路","SECT":"一段","MAREA":" ","LANE":" ","ALLEY":" ","HOUSE_NO":"１５６號","E_COORD97":171521.01999999999,"N_COORD97":2535698.52,"ADDRESS":"中正路一段１５６號","OBJECTID":605943},"geometry":{"x":171521.01999999955,"y":2535698.5200000014}},{"attributes":{"ID":605971,"DIS_CODE":0,"TOWNNAME":"安平區","LI":"怡平里","LIN":"3鄰","STREET":"永華六街","SECT":" ","MAREA":" ","LANE":" ","ALLEY":" ","HOUSE_NO":"２１４號十一樓之３","E_COORD97":165681.85000000001,"N_COORD97":2544203.5099999998,"ADDRESS":"永華六街２１４號十一樓之３","OBJECTID":605944},"geometry":{"x":165681.85000000056,"y":2544203.5100000035}},{"attributes":{"ID":605972,"DIS_CODE":0,"TOWNNAME":"安平區","LI":"怡平里","LIN":"3鄰","STREET":"永華六街","SECT":" ","MAREA":" ","LANE":" ","ALLEY":" ","HOUSE_NO":"２１４號十一樓之４","E_COORD97":165681.85000000001,"N_COORD97":2544203.5099999998,"ADDRESS":"永華六街２１４號十一樓之４","OBJECTID":605945},"geometry":{"x":165681.85000000056,"y":2544203.5100000035}},{"attributes":{"ID":605973,"DIS_CODE":0,"TOWNNAME":"安平區","LI":"怡平里","LIN":"3鄰","STREET":"永華六街","SECT":" ","MAREA":" ","LANE":" ","ALLEY":" ","HOUSE_NO":"２１４號十一樓之５","E_COORD97":165681.85000000001,"N_COORD97":2544203.5099999998,"ADDRESS":"永華六街２１４號十一樓之５","OBJECTID":605946},"geometry":{"x":165681.85000000056,"y":2544203.5100000035}},{"attributes":{"ID":605974,"DIS_CODE":0,"TOWNNAME":"南區","LI":"新生里","LIN":"3鄰","STREET":"大林路","SECT":" ","MAREA":" ","LANE":" ","ALLEY":" ","HOUSE_NO":"１０號九樓之２","E_COORD97":169299.35999999999,"N_COORD97":2541869.8700000001,"ADDRESS":"大林路１０號九樓之２","OBJECTID":605947},"geometry":{"x":169299.36000000034,"y":2541869.8700000048}},{"attributes":{"ID":605975,"DIS_CODE":0,"TOWNNAME":"安平區","LI":"怡平里","LIN":"3鄰","STREET":"永華六街","SECT":" ","MAREA":" ","LANE":" ","ALLEY":" ","HOUSE_NO":"２１４號十一樓之６","E_COORD97":165681.85000000001,"N_COORD97":2544203.5099999998,"ADDRESS":"永華六街２１４號十一樓之６","OBJECTID":605948},"geometry":{"x":165681.85000000056,"y":2544203.5100000035}},{"attributes":{"ID":605976,"DIS_CODE":0,"TOWNNAME":"安平區","LI":"怡平里","LIN":"3鄰","STREET":"永華六街","SECT":" ","MAREA":" ","LANE":" ","ALLEY":" ","HOUSE_NO":"２１４號十一樓之７","E_COORD97":165681.85000000001,"N_COORD97":2544203.5099999998,"ADDRESS":"永華六街２１４號十一樓之７","OBJECTID":605949},"geometry":{"x":165681.85000000056,"y":2544203.5100000035}},{"attributes":{"ID":605977,"DIS_CODE":0,"TOWNNAME":"安平區","LI":"怡平里","LIN":"3鄰","STREET":"永華六街","SECT":" ","MAREA":" ","LANE":" ","ALLEY":" ","HOUSE_NO":"２１４號十一樓之８","E_COORD97":165681.85000000001,"N_COORD97":2544203.5099999998,"ADDRESS":"永華六街２１４號十一樓之８","OBJECTID":605950},"geometry":{"x":165681.85000000056,"y":2544203.5100000035}},{"attributes":{"ID":605978,"DIS_CODE":0,"TOWNNAME":"東區","LI":"崇文里","LIN":"3鄰","STREET":"崇德十六街","SECT":" ","MAREA":" ","LANE":" ","ALLEY":" ","HOUSE_NO":"７５號","E_COORD97":171011.92000000001,"N_COORD97":2541147.25,"ADDRESS":"崇德十六街７５號","OBJECTID":605951},"geometry":{"x":171011.91999999993,"y":2541147.2499999981}},{"attributes":{"ID":605979,"DIS_CODE":0,"TOWNNAME":"安平區","LI":"怡平里","LIN":"3鄰","STREET":"永華六街","SECT":" ","MAREA":" ","LANE":" ","ALLEY":" ","HOUSE_NO":"２１４號十一樓之９","E_COORD97":165681.85000000001,"N_COORD97":2544203.5099999998,"ADDRESS":"永華六街２１４號十一樓之９","OBJECTID":605952},"geometry":{"x":165681.85000000056,"y":2544203.5100000035}},{"attributes":{"ID":605980,"DIS_CODE":0,"TOWNNAME":"安平區","LI":"怡平里","LIN":"3鄰","STREET":"永華六街","SECT":" ","MAREA":" ","LANE":" ","ALLEY":" ","HOUSE_NO":"２１４號十二樓之１","E_COORD97":165681.85000000001,"N_COORD97":2544203.5099999998,"ADDRESS":"永華六街２１４號十二樓之１","OBJECTID":605953},"geometry":{"x":165681.85000000056,"y":2544203.5100000035}},{"attributes":{"ID":605981,"DIS_CODE":0,"TOWNNAME":"安平區","LI":"怡平里","LIN":"3鄰","STREET":"永華六街","SECT":" ","MAREA":" ","LANE":" ","ALLEY":" ","HOUSE_NO":"２１４號十二樓之１０","E_COORD97":165681.85000000001,"N_COORD97":2544203.5099999998,"ADDRESS":"永華六街２１４號十二樓之１０","OBJECTID":605954},"geometry":{"x":165681.85000000056,"y":2544203.5100000035}},{"attributes":{"ID":605982,"DIS_CODE":0,"TOWNNAME":"安平區","LI":"怡平里","LIN":"3鄰","STREET":"永華六街","SECT":" ","MAREA":" ","LANE":" ","ALLEY":" ","HOUSE_NO":"２１４號十二樓之１１","E_COORD97":165681.85000000001,"N_COORD97":2544203.5099999998,"ADDRESS":"永華六街２１４號十二樓之１１","OBJECTID":605955},"geometry":{"x":165681.85000000056,"y":2544203.5100000035}},{"attributes":{"ID":605983,"DIS_CODE":0,"TOWNNAME":"安平區","LI":"怡平里","LIN":"3鄰","STREET":"永華六街","SECT":" ","MAREA":" ","LANE":" ","ALLEY":" ","HOUSE_NO":"２１４號十二樓之１２","E_COORD97":165681.85000000001,"N_COORD97":2544203.5099999998,"ADDRESS":"永華六街２１４號十二樓之１２","OBJECTID":605956},"geometry":{"x":165681.85000000056,"y":2544203.5100000035}},{"attributes":{"ID":605984,"DIS_CODE":0,"TOWNNAME":"安平區","LI":"怡平里","LIN":"3鄰","STREET":"永華六街","SECT":" ","MAREA":" ","LANE":" ","ALLEY":" ","HOUSE_NO":"２１４號十二樓之２","E_COORD97":165681.85000000001,"N_COORD97":2544203.5099999998,"ADDRESS":"永華六街２１４號十二樓之２","OBJECTID":605957},"geometry":{"x":165681.85000000056,"y":2544203.5100000035}},{"attributes":{"ID":605985,"DIS_CODE":0,"TOWNNAME":"安平區","LI":"怡平里","LIN":"3鄰","STREET":"永華六街","SECT":" ","MAREA":" ","LANE":" ","ALLEY":" ","HOUSE_NO":"２１４號十二樓之３","E_COORD97":165681.85000000001,"N_COORD97":2544203.5099999998,"ADDRESS":"永華六街２１４號十二樓之３","OBJECTID":605958},"geometry":{"x":165681.85000000056,"y":2544203.5100000035}},{"attributes":{"ID":605986,"DIS_CODE":0,"TOWNNAME":"安平區","LI":"怡平里","LIN":"3鄰","STREET":"永華六街","SECT":" ","MAREA":" ","LANE":" ","ALLEY":" ","HOUSE_NO":"２１４號十二樓之４","E_COORD97":165681.85000000001,"N_COORD97":2544203.5099999998,"ADDRESS":"永華六街２１４號十二樓之４","OBJECTID":605959},"geometry":{"x":165681.85000000056,"y":2544203.5100000035}},{"attributes":{"ID":605987,"DIS_CODE":0,"TOWNNAME":"安平區","LI":"怡平里","LIN":"3鄰","STREET":"永華六街","SECT":" ","MAREA":" ","LANE":" ","ALLEY":" ","HOUSE_NO":"２１４號十二樓之５","E_COORD97":165681.85000000001,"N_COORD97":2544203.5099999998,"ADDRESS":"永華六街２１４號十二樓之５","OBJECTID":605960},"geometry":{"x":165681.85000000056,"y":2544203.5100000035}},{"attributes":{"ID":605988,"DIS_CODE":0,"TOWNNAME":"安平區","LI":"怡平里","LIN":"3鄰","STREET":"永華六街","SECT":" ","MAREA":" ","LANE":" ","ALLEY":" ","HOUSE_NO":"２１４號十二樓之６","E_COORD97":165681.85000000001,"N_COORD97":2544203.5099999998,"ADDRESS":"永華六街２１４號十二樓之６","OBJECTID":605961},"geometry":{"x":165681.85000000056,"y":2544203.5100000035}},{"attributes":{"ID":605989,"DIS_CODE":0,"TOWNNAME":"安平區","LI":"怡平里","LIN":"3鄰","STREET":"永華六街","SECT":" ","MAREA":" ","LANE":" ","ALLEY":" ","HOUSE_NO":"２１４號十二樓之７","E_COORD97":165681.85000000001,"N_COORD97":2544203.5099999998,"ADDRESS":"永華六街２１４號十二樓之７","OBJECTID":605962},"geometry":{"x":165681.85000000056,"y":2544203.5100000035}},{"attributes":{"ID":605990,"DIS_CODE":0,"TOWNNAME":"安平區","LI":"怡平里","LIN":"3鄰","STREET":"永華六街","SECT":" ","MAREA":" ","LANE":" ","ALLEY":" ","HOUSE_NO":"２１４號十二樓之８","E_COORD97":165681.85000000001,"N_COORD97":2544203.5099999998,"ADDRESS":"永華六街２１４號十二樓之８","OBJECTID":605963},"geometry":{"x":165681.85000000056,"y":2544203.5100000035}},{"attributes":{"ID":605991,"DIS_CODE":0,"TOWNNAME":"安平區","LI":"怡平里","LIN":"3鄰","STREET":"永華六街","SECT":" ","MAREA":" ","LANE":" ","ALLEY":" ","HOUSE_NO":"２１４號十二樓之９","E_COORD97":165681.85000000001,"N_COORD97":2544203.5099999998,"ADDRESS":"永華六街２１４號十二樓之９","OBJECTID":605964},"geometry":{"x":165681.85000000056,"y":2544203.5100000035}},{"attributes":{"ID":605992,"DIS_CODE":0,"TOWNNAME":"安平區","LI":"怡平里","LIN":"3鄰","STREET":"永華六街","SECT":" ","MAREA":" ","LANE":" ","ALLEY":" ","HOUSE_NO":"２１４號十二樓之一","E_COORD97":165681.85000000001,"N_COORD97":2544203.5099999998,"ADDRESS":"永華六街２１４號十二樓之一","OBJECTID":605965},"geometry":{"x":165681.85000000056,"y":2544203.5100000035}},{"attributes":{"ID":605993,"DIS_CODE":0,"TOWNNAME":"安平區","LI":"怡平里","LIN":"3鄰","STREET":"永華六街","SECT":" ","MAREA":" ","LANE":" ","ALLEY":" ","HOUSE_NO":"２１４號十樓之１","E_COORD97":165681.85000000001,"N_COORD97":2544203.5099999998,"ADDRESS":"永華六街２１４號十樓之１","OBJECTID":605966},"geometry":{"x":165681.85000000056,"y":2544203.5100000035}},{"attributes":{"ID":605994,"DIS_CODE":0,"TOWNNAME":"安平區","LI":"怡平里","LIN":"3鄰","STREET":"永華六街","SECT":" ","MAREA":" ","LANE":" ","ALLEY":" ","HOUSE_NO":"２１４號十樓之１０","E_COORD97":165681.85000000001,"N_COORD97":2544203.5099999998,"ADDRESS":"永華六街２１４號十樓之１０","OBJECTID":605967},"geometry":{"x":165681.85000000056,"y":2544203.5100000035}},{"attributes":{"ID":605995,"DIS_CODE":0,"TOWNNAME":"仁德區","LI":"後壁里","LIN":"26鄰","STREET":"中正路","SECT":"二段","MAREA":" ","LANE":" ","ALLEY":" ","HOUSE_NO":"２９５號","E_COORD97":173239.72,"N_COORD97":2539075.0299999998,"ADDRESS":"中正路二段２９５號","OBJECTID":605968},"geometry":{"x":173239.72000000067,"y":2539075.0300000012}},{"attributes":{"ID":605996,"DIS_CODE":0,"TOWNNAME":"安平區","LI":"怡平里","LIN":"3鄰","STREET":"永華六街","SECT":" ","MAREA":" ","LANE":" ","ALLEY":" ","HOUSE_NO":"２１４號十樓之１１","E_COORD97":165681.85000000001,"N_COORD97":2544203.5099999998,"ADDRESS":"永華六街２１４號十樓之１１","OBJECTID":605969},"geometry":{"x":165681.85000000056,"y":2544203.5100000035}},{"attributes":{"ID":605997,"DIS_CODE":0,"TOWNNAME":"安平區","LI":"怡平里","LIN":"3鄰","STREET":"永華六街","SECT":" ","MAREA":" ","LANE":" ","ALLEY":" ","HOUSE_NO":"２１４號十樓之２","E_COORD97":165681.85000000001,"N_COORD97":2544203.5099999998,"ADDRESS":"永華六街２１４號十樓之２","OBJECTID":605970},"geometry":{"x":165681.85000000056,"y":2544203.5100000035}},{"attributes":{"ID":605998,"DIS_CODE":0,"TOWNNAME":"安平區","LI":"怡平里","LIN":"3鄰","STREET":"永華六街","SECT":" ","MAREA":" ","LANE":" ","ALLEY":" ","HOUSE_NO":"２１４號十樓之３","E_COORD97":165681.85000000001,"N_COORD97":2544203.5099999998,"ADDRESS":"永華六街２１４號十樓之３","OBJECTID":605971},"geometry":{"x":165681.85000000056,"y":2544203.5100000035}},{"attributes":{"ID":605999,"DIS_CODE":0,"TOWNNAME":"安平區","LI":"怡平里","LIN":"3鄰","STREET":"永華六街","SECT":" ","MAREA":" ","LANE":" ","ALLEY":" ","HOUSE_NO":"２１４號十樓之４","E_COORD97":165681.85000000001,"N_COORD97":2544203.5099999998,"ADDRESS":"永華六街２１４號十樓之４","OBJECTID":605972},"geometry":{"x":165681.85000000056,"y":2544203.5100000035}},{"attributes":{"ID":606000,"DIS_CODE":0,"TOWNNAME":"安平區","LI":"怡平里","LIN":"3鄰","STREET":"永華六街","SECT":" ","MAREA":" ","LANE":" ","ALLEY":" ","HOUSE_NO":"２１４號十樓之５","E_COORD97":165681.85000000001,"N_COORD97":2544203.5099999998,"ADDRESS":"永華六街２１４號十樓之５","OBJECTID":605973},"geometry":{"x":165681.85000000056,"y":2544203.5100000035}},{"attributes":{"ID":606001,"DIS_CODE":0,"TOWNNAME":"安平區","LI":"怡平里","LIN":"3鄰","STREET":"永華六街","SECT":" ","MAREA":" ","LANE":" ","ALLEY":" ","HOUSE_NO":"２１４號十樓之６","E_COORD97":165681.85000000001,"N_COORD97":2544203.5099999998,"ADDRESS":"永華六街２１４號十樓之６","OBJECTID":605974},"geometry":{"x":165681.85000000056,"y":2544203.5100000035}},{"attributes":{"ID":606002,"DIS_CODE":0,"TOWNNAME":"安平區","LI":"怡平里","LIN":"3鄰","STREET":"永華六街","SECT":" ","MAREA":" ","LANE":" ","ALLEY":" ","HOUSE_NO":"２１４號十樓之７","E_COORD97":165681.85000000001,"N_COORD97":2544203.5099999998,"ADDRESS":"永華六街２１４號十樓之７","OBJECTID":605975},"geometry":{"x":165681.85000000056,"y":2544203.5100000035}},{"attributes":{"ID":606003,"DIS_CODE":0,"TOWNNAME":"安平區","LI":"怡平里","LIN":"3鄰","STREET":"永華六街","SECT":" ","MAREA":" ","LANE":" ","ALLEY":" ","HOUSE_NO":"２１４號十樓之８","E_COORD97":165681.85000000001,"N_COORD97":2544203.5099999998,"ADDRESS":"永華六街２１４號十樓之８","OBJECTID":605976},"geometry":{"x":165681.85000000056,"y":2544203.5100000035}},{"attributes":{"ID":606004,"DIS_CODE":0,"TOWNNAME":"安平區","LI":"怡平里","LIN":"3鄰","STREET":"永華六街","SECT":" ","MAREA":" ","LANE":" ","ALLEY":" ","HOUSE_NO":"２１４號十樓之９","E_COORD97":165681.85000000001,"N_COORD97":2544203.5099999998,"ADDRESS":"永華六街２１４號十樓之９","OBJECTID":605977},"geometry":{"x":165681.85000000056,"y":2544203.5100000035}},{"attributes":{"ID":606005,"DIS_CODE":0,"TOWNNAME":"安平區","LI":"怡平里","LIN":"3鄰","STREET":"永華六街","SECT":" ","MAREA":" ","LANE":" ","ALLEY":" ","HOUSE_NO":"２１４號三樓之１","E_COORD97":165681.85000000001,"N_COORD97":2544203.5099999998,"ADDRESS":"永華六街２１４號三樓之１","OBJECTID":605978},"geometry":{"x":165681.85000000056,"y":2544203.5100000035}},{"attributes":{"ID":606006,"DIS_CODE":0,"TOWNNAME":"安平區","LI":"怡平里","LIN":"3鄰","STREET":"永華六街","SECT":" ","MAREA":" ","LANE":" ","ALLEY":" ","HOUSE_NO":"２１４號三樓之１０","E_COORD97":165681.85000000001,"N_COORD97":2544203.5099999998,"ADDRESS":"永華六街２１４號三樓之１０","OBJECTID":605979},"geometry":{"x":165681.85000000056,"y":2544203.5100000035}},{"attributes":{"ID":606007,"DIS_CODE":0,"TOWNNAME":"安平區","LI":"怡平里","LIN":"3鄰","STREET":"永華六街","SECT":" ","MAREA":" ","LANE":" ","ALLEY":" ","HOUSE_NO":"２１４號三樓之１１","E_COORD97":165681.85000000001,"N_COORD97":2544203.5099999998,"ADDRESS":"永華六街２１４號三樓之１１","OBJECTID":605980},"geometry":{"x":165681.85000000056,"y":2544203.5100000035}},{"attributes":{"ID":606008,"DIS_CODE":0,"TOWNNAME":"安平區","LI":"怡平里","LIN":"3鄰","STREET":"永華六街","SECT":" ","MAREA":" ","LANE":" ","ALLEY":" ","HOUSE_NO":"２１４號三樓之１２","E_COORD97":165681.85000000001,"N_COORD97":2544203.5099999998,"ADDRESS":"永華六街２１４號三樓之１２","OBJECTID":605981},"geometry":{"x":165681.85000000056,"y":2544203.5100000035}},{"attributes":{"ID":606009,"DIS_CODE":0,"TOWNNAME":"安平區","LI":"怡平里","LIN":"3鄰","STREET":"永華六街","SECT":" ","MAREA":" ","LANE":" ","ALLEY":" ","HOUSE_NO":"２１４號三樓之２","E_COORD97":165681.85000000001,"N_COORD97":2544203.5099999998,"ADDRESS":"永華六街２１４號三樓之２","OBJECTID":605982},"geometry":{"x":165681.85000000056,"y":2544203.5100000035}},{"attributes":{"ID":606010,"DIS_CODE":0,"TOWNNAME":"安平區","LI":"怡平里","LIN":"3鄰","STREET":"永華六街","SECT":" ","MAREA":" ","LANE":" ","ALLEY":" ","HOUSE_NO":"２１４號三樓之３","E_COORD97":165681.85000000001,"N_COORD97":2544203.5099999998,"ADDRESS":"永華六街２１４號三樓之３","OBJECTID":605983},"geometry":{"x":165681.85000000056,"y":2544203.5100000035}},{"attributes":{"ID":606011,"DIS_CODE":0,"TOWNNAME":"安平區","LI":"怡平里","LIN":"3鄰","STREET":"永華六街","SECT":" ","MAREA":" ","LANE":" ","ALLEY":" ","HOUSE_NO":"２１４號三樓之４","E_COORD97":165681.85000000001,"N_COORD97":2544203.5099999998,"ADDRESS":"永華六街２１４號三樓之４","OBJECTID":605984},"geometry":{"x":165681.85000000056,"y":2544203.5100000035}},{"attributes":{"ID":606012,"DIS_CODE":0,"TOWNNAME":"安平區","LI":"怡平里","LIN":"3鄰","STREET":"永華六街","SECT":" ","MAREA":" ","LANE":" ","ALLEY":" ","HOUSE_NO":"２１４號三樓之５","E_COORD97":165681.85000000001,"N_COORD97":2544203.5099999998,"ADDRESS":"永華六街２１４號三樓之５","OBJECTID":605985},"geometry":{"x":165681.85000000056,"y":2544203.5100000035}},{"attributes":{"ID":606013,"DIS_CODE":0,"TOWNNAME":"安平區","LI":"怡平里","LIN":"3鄰","STREET":"永華六街","SECT":" ","MAREA":" ","LANE":" ","ALLEY":" ","HOUSE_NO":"２１４號三樓之６","E_COORD97":165681.85000000001,"N_COORD97":2544203.5099999998,"ADDRESS":"永華六街２１４號三樓之６","OBJECTID":605986},"geometry":{"x":165681.85000000056,"y":2544203.5100000035}},{"attributes":{"ID":606014,"DIS_CODE":0,"TOWNNAME":"安平區","LI":"怡平里","LIN":"3鄰","STREET":"永華六街","SECT":" ","MAREA":" ","LANE":" ","ALLEY":" ","HOUSE_NO":"２１４號三樓之７","E_COORD97":165681.85000000001,"N_COORD97":2544203.5099999998,"ADDRESS":"永華六街２１４號三樓之７","OBJECTID":605987},"geometry":{"x":165681.85000000056,"y":2544203.5100000035}},{"attributes":{"ID":606015,"DIS_CODE":0,"TOWNNAME":"安平區","LI":"怡平里","LIN":"3鄰","STREET":"永華六街","SECT":" ","MAREA":" ","LANE":" ","ALLEY":" ","HOUSE_NO":"２１４號三樓之９","E_COORD97":165681.85000000001,"N_COORD97":2544203.5099999998,"ADDRESS":"永華六街２１４號三樓之９","OBJECTID":605988},"geometry":{"x":165681.85000000056,"y":2544203.5100000035}},{"attributes":{"ID":606016,"DIS_CODE":0,"TOWNNAME":"安平區","LI":"怡平里","LIN":"3鄰","STREET":"永華六街","SECT":" ","MAREA":" ","LANE":" ","ALLEY":" ","HOUSE_NO":"２１４號五樓之１","E_COORD97":165681.85000000001,"N_COORD97":2544203.5099999998,"ADDRESS":"永華六街２１４號五樓之１","OBJECTID":605989},"geometry":{"x":165681.85000000056,"y":2544203.5100000035}},{"attributes":{"ID":606017,"DIS_CODE":0,"TOWNNAME":"安平區","LI":"怡平里","LIN":"3鄰","STREET":"永華六街","SECT":" ","MAREA":" ","LANE":" ","ALLEY":" ","HOUSE_NO":"２１４號五樓之１０","E_COORD97":165681.85000000001,"N_COORD97":2544203.5099999998,"ADDRESS":"永華六街２１４號五樓之１０","OBJECTID":605990},"geometry":{"x":165681.85000000056,"y":2544203.5100000035}},{"attributes":{"ID":606018,"DIS_CODE":0,"TOWNNAME":"安平區","LI":"怡平里","LIN":"3鄰","STREET":"永華六街","SECT":" ","MAREA":" ","LANE":" ","ALLEY":" ","HOUSE_NO":"２１４號五樓之１１","E_COORD97":165681.85000000001,"N_COORD97":2544203.5099999998,"ADDRESS":"永華六街２１４號五樓之１１","OBJECTID":605991},"geometry":{"x":165681.85000000056,"y":2544203.5100000035}},{"attributes":{"ID":606019,"DIS_CODE":0,"TOWNNAME":"安平區","LI":"怡平里","LIN":"3鄰","STREET":"永華六街","SECT":" ","MAREA":" ","LANE":" ","ALLEY":" ","HOUSE_NO":"２１４號五樓之１２","E_COORD97":165681.85000000001,"N_COORD97":2544203.5099999998,"ADDRESS":"永華六街２１４號五樓之１２","OBJECTID":605992},"geometry":{"x":165681.85000000056,"y":2544203.5100000035}},{"attributes":{"ID":606020,"DIS_CODE":0,"TOWNNAME":"仁德區","LI":"後壁里","LIN":"3鄰","STREET":"中正路","SECT":"二段","MAREA":" ","LANE":" ","ALLEY":" ","HOUSE_NO":"２９２號","E_COORD97":173255.39000000001,"N_COORD97":2538994.2799999998,"ADDRESS":"中正路二段２９２號","OBJECTID":605993},"geometry":{"x":173255.3900000006,"y":2538994.2800000012}},{"attributes":{"ID":606021,"DIS_CODE":0,"TOWNNAME":"安平區","LI":"怡平里","LIN":"3鄰","STREET":"永華六街","SECT":" ","MAREA":" ","LANE":" ","ALLEY":" ","HOUSE_NO":"２１４號五樓之２","E_COORD97":165681.85000000001,"N_COORD97":2544203.5099999998,"ADDRESS":"永華六街２１４號五樓之２","OBJECTID":605994},"geometry":{"x":165681.85000000056,"y":2544203.5100000035}},{"attributes":{"ID":606022,"DIS_CODE":0,"TOWNNAME":"安平區","LI":"怡平里","LIN":"3鄰","STREET":"永華六街","SECT":" ","MAREA":" ","LANE":" ","ALLEY":" ","HOUSE_NO":"２１４號五樓之３","E_COORD97":165681.85000000001,"N_COORD97":2544203.5099999998,"ADDRESS":"永華六街２１４號五樓之３","OBJECTID":605995},"geometry":{"x":165681.85000000056,"y":2544203.5100000035}},{"attributes":{"ID":606023,"DIS_CODE":0,"TOWNNAME":"安平區","LI":"怡平里","LIN":"3鄰","STREET":"永華六街","SECT":" ","MAREA":" ","LANE":" ","ALLEY":" ","HOUSE_NO":"２１４號五樓之４","E_COORD97":165681.85000000001,"N_COORD97":2544203.5099999998,"ADDRESS":"永華六街２１４號五樓之４","OBJECTID":605996},"geometry":{"x":165681.85000000056,"y":2544203.5100000035}},{"attributes":{"ID":606024,"DIS_CODE":0,"TOWNNAME":"安平區","LI":"怡平里","LIN":"3鄰","STREET":"永華六街","SECT":" ","MAREA":" ","LANE":" ","ALLEY":" ","HOUSE_NO":"２１４號五樓之５","E_COORD97":165681.85000000001,"N_COORD97":2544203.5099999998,"ADDRESS":"永華六街２１４號五樓之５","OBJECTID":605997},"geometry":{"x":165681.85000000056,"y":2544203.5100000035}},{"attributes":{"ID":606025,"DIS_CODE":0,"TOWNNAME":"安平區","LI":"怡平里","LIN":"3鄰","STREET":"永華六街","SECT":" ","MAREA":" ","LANE":" ","ALLEY":" ","HOUSE_NO":"２１４號五樓之６","E_COORD97":165681.85000000001,"N_COORD97":2544203.5099999998,"ADDRESS":"永華六街２１４號五樓之６","OBJECTID":605998},"geometry":{"x":165681.85000000056,"y":2544203.5100000035}},{"attributes":{"ID":606026,"DIS_CODE":0,"TOWNNAME":"安平區","LI":"怡平里","LIN":"3鄰","STREET":"永華六街","SECT":" ","MAREA":" ","LANE":" ","ALLEY":" ","HOUSE_NO":"２１４號五樓之７","E_COORD97":165681.85000000001,"N_COORD97":2544203.5099999998,"ADDRESS":"永華六街２１４號五樓之７","OBJECTID":605999},"geometry":{"x":165681.85000000056,"y":2544203.5100000035}},{"attributes":{"ID":606027,"DIS_CODE":0,"TOWNNAME":"安平區","LI":"怡平里","LIN":"3鄰","STREET":"永華六街","SECT":" ","MAREA":" ","LANE":" ","ALLEY":" ","HOUSE_NO":"２１４號五樓之８","E_COORD97":165681.85000000001,"N_COORD97":2544203.5099999998,"ADDRESS":"永華六街２１４號五樓之８","OBJECTID":606000},"geometry":{"x":165681.85000000056,"y":2544203.5100000035}}]}