{"displayFieldName":"TOWNNAME","fieldAliases":{"ID":"ID","DIS_CODE":"DIS_CODE","TOWNNAME":"TOWNNAME","LI":"LI","LIN":"LIN","STREET":"STREET","SECT":"SECT","MAREA":"MAREA","LANE":"LANE","ALLEY":"ALLEY","HOUSE_NO":"HOUSE_NO","E_COORD97":"E_COORD97","N_COORD97":"N_COORD97","ADDRESS":"ADDRESS","OBJECTID":"OBJECTID"},"geometryType":"esriGeometryPoint","spatialReference":{"wkid":102443,"latestWkid":3826},"fields":[{"name":"ID","type":"esriFieldTypeDouble","alias":"ID"},{"name":"DIS_CODE","type":"esriFieldTypeInteger","alias":"DIS_CODE"},{"name":"TOWNNAME","type":"esriFieldTypeString","alias":"TOWNNAME","length":8},{"name":"LI","type":"esriFieldTypeString","alias":"LI","length":8},{"name":"LIN","type":"esriFieldTypeString","alias":"LIN","length":12},{"name":"STREET","type":"esriFieldTypeString","alias":"STREET","length":20},{"name":"SECT","type":"esriFieldTypeString","alias":"SECT","length":8},{"name":"MAREA","type":"esriFieldTypeString","alias":"MAREA","length":12},{"name":"LANE","type":"esriFieldTypeString","alias":"LANE","length":10},{"name":"ALLEY","type":"esriFieldTypeString","alias":"ALLEY","length":10},{"name":"HOUSE_NO","type":"esriFieldTypeString","alias":"HOUSE_NO","length":20},{"name":"E_COORD97","type":"esriFieldTypeDouble","alias":"E_COORD97"},{"name":"N_COORD97","type":"esriFieldTypeDouble","alias":"N_COORD97"},{"name":"ADDRESS","type":"esriFieldTypeString","alias":"ADDRESS","length":50},{"name":"OBJECTID","type":"esriFieldTypeOID","alias":"OBJECTID"}],"features":[{"attributes":{"ID":401225,"DIS_CODE":0,"TOWNNAME":"東區","LI":"莊敬里","LIN":"11鄰","STREET":"中華東路","SECT":"一段","MAREA":" ","LANE":"２巷","ALLEY":" ","HOUSE_NO":"１２號","E_COORD97":171449.10000000001,"N_COORD97":2544283.5600000001,"ADDRESS":"中華東路一段２巷１２號","OBJECTID":401201},"geometry":{"x":171449.10000000056,"y":2544283.5600000024}},{"attributes":{"ID":401226,"DIS_CODE":0,"TOWNNAME":"東區","LI":"莊敬里","LIN":"11鄰","STREET":"中華東路","SECT":"一段","MAREA":" ","LANE":"２巷","ALLEY":" ","HOUSE_NO":"１３號","E_COORD97":171443.34,"N_COORD97":2544284.1200000001,"ADDRESS":"中華東路一段２巷１３號","OBJECTID":401202},"geometry":{"x":171443.33999999985,"y":2544284.120000001}},{"attributes":{"ID":401227,"DIS_CODE":0,"TOWNNAME":"東區","LI":"莊敬里","LIN":"11鄰","STREET":"中華東路","SECT":"一段","MAREA":" ","LANE":"２巷","ALLEY":" ","HOUSE_NO":"１４號","E_COORD97":171436.92000000001,"N_COORD97":2544285.4199999999,"ADDRESS":"中華東路一段２巷１４號","OBJECTID":401203},"geometry":{"x":171436.92000000086,"y":2544285.4199999999}},{"attributes":{"ID":401228,"DIS_CODE":0,"TOWNNAME":"東區","LI":"莊敬里","LIN":"11鄰","STREET":"中華東路","SECT":"一段","MAREA":" ","LANE":"２巷","ALLEY":" ","HOUSE_NO":"１５號","E_COORD97":171430.79000000001,"N_COORD97":2544285.8900000001,"ADDRESS":"中華東路一段２巷１５號","OBJECTID":401204},"geometry":{"x":171430.79000000097,"y":2544285.8900000006}},{"attributes":{"ID":401229,"DIS_CODE":0,"TOWNNAME":"東區","LI":"莊敬里","LIN":"11鄰","STREET":"中華東路","SECT":"一段","MAREA":" ","LANE":"２巷","ALLEY":" ","HOUSE_NO":"１６號","E_COORD97":171424.73999999999,"N_COORD97":2544285.5099999998,"ADDRESS":"中華東路一段２巷１６號","OBJECTID":401205},"geometry":{"x":171424.74000000115,"y":2544285.5100000016}},{"attributes":{"ID":401230,"DIS_CODE":0,"TOWNNAME":"東區","LI":"莊敬里","LIN":"11鄰","STREET":"中華東路","SECT":"一段","MAREA":" ","LANE":"２巷","ALLEY":" ","HOUSE_NO":"４號","E_COORD97":171495.57000000001,"N_COORD97":2544277.79,"ADDRESS":"中華東路一段２巷４號","OBJECTID":401206},"geometry":{"x":171495.57000000123,"y":2544277.7899999991}},{"attributes":{"ID":401231,"DIS_CODE":0,"TOWNNAME":"東區","LI":"莊敬里","LIN":"11鄰","STREET":"中華東路","SECT":"一段","MAREA":" ","LANE":"２巷","ALLEY":" ","HOUSE_NO":"５號","E_COORD97":171490.70999999999,"N_COORD97":2544279.0899999999,"ADDRESS":"中華東路一段２巷５號","OBJECTID":401207},"geometry":{"x":171490.71000000089,"y":2544279.0900000017}},{"attributes":{"ID":401232,"DIS_CODE":0,"TOWNNAME":"東區","LI":"莊敬里","LIN":"11鄰","STREET":"中華東路","SECT":"一段","MAREA":" ","LANE":"２巷","ALLEY":" ","HOUSE_NO":"６號","E_COORD97":171485.31,"N_COORD97":2544278.7200000002,"ADDRESS":"中華東路一段２巷６號","OBJECTID":401208},"geometry":{"x":171485.30999999959,"y":2544278.7200000025}},{"attributes":{"ID":401233,"DIS_CODE":0,"TOWNNAME":"東區","LI":"莊敬里","LIN":"11鄰","STREET":"中華東路","SECT":"一段","MAREA":" ","LANE":"２巷","ALLEY":" ","HOUSE_NO":"７號","E_COORD97":171479.73000000001,"N_COORD97":2544280.1200000001,"ADDRESS":"中華東路一段２巷７號","OBJECTID":401209},"geometry":{"x":171479.73000000045,"y":2544280.1200000029}},{"attributes":{"ID":401234,"DIS_CODE":0,"TOWNNAME":"東區","LI":"莊敬里","LIN":"11鄰","STREET":"中華東路","SECT":"一段","MAREA":" ","LANE":"２巷","ALLEY":" ","HOUSE_NO":"８號","E_COORD97":171473.60000000001,"N_COORD97":2544280.7599999998,"ADDRESS":"中華東路一段２巷８號","OBJECTID":401210},"geometry":{"x":171473.59999999963,"y":2544280.7600000016}},{"attributes":{"ID":401235,"DIS_CODE":0,"TOWNNAME":"東區","LI":"莊敬里","LIN":"11鄰","STREET":"中華東路","SECT":"一段","MAREA":" ","LANE":"２巷","ALLEY":" ","HOUSE_NO":"９號","E_COORD97":171468.01999999999,"N_COORD97":2544281.23,"ADDRESS":"中華東路一段２巷９號","OBJECTID":401211},"geometry":{"x":171468.02000000048,"y":2544281.2300000023}},{"attributes":{"ID":401236,"DIS_CODE":0,"TOWNNAME":"東區","LI":"莊敬里","LIN":"11鄰","STREET":"中華東路","SECT":"一段","MAREA":" ","LANE":"２巷","ALLEY":" ","HOUSE_NO":"３號","E_COORD97":171499.94,"N_COORD97":2544279.5499999998,"ADDRESS":"中華東路一段２巷３號","OBJECTID":401212},"geometry":{"x":171499.94000000134,"y":2544279.5500000026}},{"attributes":{"ID":401237,"DIS_CODE":0,"TOWNNAME":"東區","LI":"莊敬里","LIN":"11鄰","STREET":"中華東路","SECT":"一段","MAREA":" ","LANE":"２巷","ALLEY":" ","HOUSE_NO":"１７號","E_COORD97":171418.44,"N_COORD97":2544285.2599999998,"ADDRESS":"中華東路一段２巷１７號","OBJECTID":401213},"geometry":{"x":171418.44000000134,"y":2544285.2599999998}},{"attributes":{"ID":401238,"DIS_CODE":0,"TOWNNAME":"東區","LI":"富裕里","LIN":"11鄰","STREET":"裕豐街","SECT":" ","MAREA":" ","LANE":"６８巷","ALLEY":" ","HOUSE_NO":"９號","E_COORD97":170766.73000000001,"N_COORD97":2542796.3700000001,"ADDRESS":"裕豐街６８巷９號","OBJECTID":401214},"geometry":{"x":170766.72999999952,"y":2542796.3700000029}},{"attributes":{"ID":401239,"DIS_CODE":0,"TOWNNAME":"永康區","LI":"龍潭里","LIN":"11鄰","STREET":"龍橋街","SECT":" ","MAREA":" ","LANE":"３巷","ALLEY":" ","HOUSE_NO":"７號","E_COORD97":174850.01999999999,"N_COORD97":2548276.2999999998,"ADDRESS":"龍橋街３巷７號","OBJECTID":401215},"geometry":{"x":174850.02000000048,"y":2548276.3000000007}},{"attributes":{"ID":401240,"DIS_CODE":0,"TOWNNAME":"永康區","LI":"龍潭里","LIN":"11鄰","STREET":"龍橋街","SECT":" ","MAREA":" ","LANE":"３巷","ALLEY":" ","HOUSE_NO":"２７號","E_COORD97":174801.34,"N_COORD97":2548305.25,"ADDRESS":"龍橋街３巷２７號","OBJECTID":401216},"geometry":{"x":174801.33999999985,"y":2548305.2500000019}},{"attributes":{"ID":401241,"DIS_CODE":0,"TOWNNAME":"永康區","LI":"\u25A0行里","LIN":"11鄰","STREET":"中正路","SECT":" ","MAREA":" ","LANE":"５１９巷","ALLEY":" ","HOUSE_NO":"１２號","E_COORD97":172153.60000000001,"N_COORD97":2548653.2400000002,"ADDRESS":"中正路５１９巷１２號","OBJECTID":401217},"geometry":{"x":172153.60000000149,"y":2548653.2400000002}},{"attributes":{"ID":401242,"DIS_CODE":0,"TOWNNAME":"永康區","LI":"龍潭里","LIN":"11鄰","STREET":"龍橋街","SECT":" ","MAREA":" ","LANE":"３巷","ALLEY":" ","HOUSE_NO":"１９號","E_COORD97":174823.45000000001,"N_COORD97":2548283.2999999998,"ADDRESS":"龍橋街３巷１９號","OBJECTID":401218},"geometry":{"x":174823.45000000205,"y":2548283.3000000007}},{"attributes":{"ID":401243,"DIS_CODE":0,"TOWNNAME":"永康區","LI":"復華里","LIN":"11鄰","STREET":"復國二路","SECT":" ","MAREA":" ","LANE":"２１５巷","ALLEY":" ","HOUSE_NO":"２８號","E_COORD97":172916.98000000001,"N_COORD97":2546060.0800000001,"ADDRESS":"復國二路２１５巷２８號","OBJECTID":401219},"geometry":{"x":172916.98000000138,"y":2546060.0800000001}},{"attributes":{"ID":401244,"DIS_CODE":0,"TOWNNAME":"永康區","LI":"復華里","LIN":"11鄰","STREET":"復國二路","SECT":" ","MAREA":" ","LANE":"２１５巷","ALLEY":" ","HOUSE_NO":"１７號","E_COORD97":172961,"N_COORD97":2546025.48,"ADDRESS":"復國二路２１５巷１７號","OBJECTID":401220},"geometry":{"x":172961,"y":2546025.4800000023}},{"attributes":{"ID":401245,"DIS_CODE":0,"TOWNNAME":"永康區","LI":"復華里","LIN":"11鄰","STREET":"復國二路","SECT":" ","MAREA":" ","LANE":"２１５巷","ALLEY":" ","HOUSE_NO":"２９號","E_COORD97":172935.06,"N_COORD97":2546033.0699999998,"ADDRESS":"復國二路２１５巷２９號","OBJECTID":401221},"geometry":{"x":172935.05999999959,"y":2546033.0700000003}},{"attributes":{"ID":401246,"DIS_CODE":0,"TOWNNAME":"永康區","LI":"新樹里","LIN":"11鄰","STREET":"富強路","SECT":"二段","MAREA":" ","LANE":"１２８巷","ALLEY":" ","HOUSE_NO":"４３號","E_COORD97":175763.07000000001,"N_COORD97":2547125.6600000001,"ADDRESS":"富強路二段１２８巷４３號","OBJECTID":401222},"geometry":{"x":175763.0700000003,"y":2547125.6600000039}},{"attributes":{"ID":401247,"DIS_CODE":0,"TOWNNAME":"永康區","LI":"新樹里","LIN":"11鄰","STREET":"富強路","SECT":"二段","MAREA":" ","LANE":"５６巷","ALLEY":" ","HOUSE_NO":"８１號","E_COORD97":175768.48999999999,"N_COORD97":2547092.9500000002,"ADDRESS":"富強路二段５６巷８１號","OBJECTID":401223},"geometry":{"x":175768.49000000022,"y":2547092.9500000011}},{"attributes":{"ID":401248,"DIS_CODE":0,"TOWNNAME":"永康區","LI":"復華里","LIN":"11鄰","STREET":"復國二路","SECT":" ","MAREA":" ","LANE":"２１５巷","ALLEY":" ","HOUSE_NO":"１０號","E_COORD97":172984.51000000001,"N_COORD97":2546042.02,"ADDRESS":"復國二路２１５巷１０號","OBJECTID":401224},"geometry":{"x":172984.50999999978,"y":2546042.0200000014}},{"attributes":{"ID":401249,"DIS_CODE":0,"TOWNNAME":"中西區","LI":"天后里","LIN":"11鄰","STREET":"民族路","SECT":"二段","MAREA":" ","LANE":"３５９巷","ALLEY":" ","HOUSE_NO":"８號","E_COORD97":168138.82000000001,"N_COORD97":2544160.1200000001,"ADDRESS":"民族路二段３５９巷８號","OBJECTID":401225},"geometry":{"x":168138.82000000123,"y":2544160.1200000048}},{"attributes":{"ID":401250,"DIS_CODE":0,"TOWNNAME":"中西區","LI":"天后里","LIN":"11鄰","STREET":"民族路","SECT":"二段","MAREA":" ","LANE":"３９１巷","ALLEY":" ","HOUSE_NO":"１１號","E_COORD97":168128.20000000001,"N_COORD97":2544149.0800000001,"ADDRESS":"民族路二段３９１巷１１號","OBJECTID":401226},"geometry":{"x":168128.20000000112,"y":2544149.0799999982}},{"attributes":{"ID":401251,"DIS_CODE":0,"TOWNNAME":"中西區","LI":"天后里","LIN":"11鄰","STREET":"民族路","SECT":"二段","MAREA":" ","LANE":"３９１巷","ALLEY":" ","HOUSE_NO":"１３號","E_COORD97":168132.31,"N_COORD97":2544148.1000000001,"ADDRESS":"民族路二段３９１巷１３號","OBJECTID":401227},"geometry":{"x":168132.30999999959,"y":2544148.0999999996}},{"attributes":{"ID":401252,"DIS_CODE":0,"TOWNNAME":"中西區","LI":"天后里","LIN":"11鄰","STREET":"民族路","SECT":"二段","MAREA":" ","LANE":"３９１巷","ALLEY":" ","HOUSE_NO":"１５號","E_COORD97":168135.63,"N_COORD97":2544146.1499999999,"ADDRESS":"民族路二段３９１巷１５號","OBJECTID":401228},"geometry":{"x":168135.62999999989,"y":2544146.1500000022}},{"attributes":{"ID":401253,"DIS_CODE":0,"TOWNNAME":"中西區","LI":"天后里","LIN":"11鄰","STREET":"民族路","SECT":"二段","MAREA":" ","LANE":"３９１巷","ALLEY":" ","HOUSE_NO":"１號","E_COORD97":168117.13,"N_COORD97":2544167.1699999999,"ADDRESS":"民族路二段３９１巷１號","OBJECTID":401229},"geometry":{"x":168117.12999999989,"y":2544167.1699999999}},{"attributes":{"ID":401254,"DIS_CODE":0,"TOWNNAME":"永康區","LI":"三民里","LIN":"11鄰","STREET":"和平路","SECT":" ","MAREA":" ","LANE":"２４６巷","ALLEY":" ","HOUSE_NO":"９號","E_COORD97":174797.64999999999,"N_COORD97":2550798.75,"ADDRESS":"和平路２４６巷９號","OBJECTID":401230},"geometry":{"x":174797.65000000037,"y":2550798.75}},{"attributes":{"ID":401255,"DIS_CODE":0,"TOWNNAME":"中西區","LI":"天后里","LIN":"11鄰","STREET":"民族路","SECT":"二段","MAREA":" ","LANE":"３９１巷","ALLEY":" ","HOUSE_NO":"３號","E_COORD97":168113.54000000001,"N_COORD97":2544155.7200000002,"ADDRESS":"民族路二段３９１巷３號","OBJECTID":401231},"geometry":{"x":168113.54000000097,"y":2544155.7200000044}},{"attributes":{"ID":401256,"DIS_CODE":0,"TOWNNAME":"中西區","LI":"天后里","LIN":"11鄰","STREET":"民族路","SECT":"二段","MAREA":" ","LANE":"３９１巷","ALLEY":" ","HOUSE_NO":"５號","E_COORD97":168117.06,"N_COORD97":2544155.1299999999,"ADDRESS":"民族路二段３９１巷５號","OBJECTID":401232},"geometry":{"x":168117.05999999959,"y":2544155.1300000008}},{"attributes":{"ID":401257,"DIS_CODE":0,"TOWNNAME":"中西區","LI":"天后里","LIN":"11鄰","STREET":"民族路","SECT":"二段","MAREA":" ","LANE":"３９１巷","ALLEY":" ","HOUSE_NO":"７號","E_COORD97":168121.17000000001,"N_COORD97":2544153.1800000002,"ADDRESS":"民族路二段３９１巷７號","OBJECTID":401233},"geometry":{"x":168121.17000000086,"y":2544153.1800000016}},{"attributes":{"ID":401258,"DIS_CODE":0,"TOWNNAME":"中西區","LI":"天后里","LIN":"11鄰","STREET":"民族路","SECT":"二段","MAREA":" ","LANE":"３９１巷","ALLEY":" ","HOUSE_NO":"９號","E_COORD97":168124.69,"N_COORD97":2544152.2000000002,"ADDRESS":"民族路二段３９１巷９號","OBJECTID":401234},"geometry":{"x":168124.69000000134,"y":2544152.2000000011}},{"attributes":{"ID":401259,"DIS_CODE":0,"TOWNNAME":"安南區","LI":"安慶里","LIN":"11鄰","STREET":"長溪路","SECT":"一段","MAREA":" ","LANE":"１６８巷","ALLEY":" ","HOUSE_NO":"５７號","E_COORD97":169042.42000000001,"N_COORD97":2548697.2799999998,"ADDRESS":"長溪路一段１６８巷５７號","OBJECTID":401235},"geometry":{"x":169042.41999999993,"y":2548697.2800000012}},{"attributes":{"ID":401260,"DIS_CODE":0,"TOWNNAME":"安南區","LI":"安慶里","LIN":"11鄰","STREET":"長溪路","SECT":"一段","MAREA":" ","LANE":"１６８巷","ALLEY":" ","HOUSE_NO":"３５號","E_COORD97":169041.89999999999,"N_COORD97":2548650.6099999999,"ADDRESS":"長溪路一段１６８巷３５號","OBJECTID":401236},"geometry":{"x":169041.9000000013,"y":2548650.6100000031}},{"attributes":{"ID":401261,"DIS_CODE":0,"TOWNNAME":"安南區","LI":"幸福里","LIN":"11鄰","STREET":"府安路","SECT":"六段","MAREA":" ","LANE":"１０３巷","ALLEY":" ","HOUSE_NO":"４６號","E_COORD97":166710.98000000001,"N_COORD97":2546614.71,"ADDRESS":"府安路六段１０３巷４６號","OBJECTID":401237},"geometry":{"x":166710.98000000138,"y":2546614.7100000028}},{"attributes":{"ID":401262,"DIS_CODE":0,"TOWNNAME":"安南區","LI":"幸福里","LIN":"11鄰","STREET":"府安路","SECT":"六段","MAREA":" ","LANE":"９４巷","ALLEY":" ","HOUSE_NO":"１８號","E_COORD97":166763.14000000001,"N_COORD97":2546570.7799999998,"ADDRESS":"府安路六段９４巷１８號","OBJECTID":401238},"geometry":{"x":166763.1400000006,"y":2546570.7799999993}},{"attributes":{"ID":401263,"DIS_CODE":0,"TOWNNAME":"安南區","LI":"幸福里","LIN":"11鄰","STREET":"府安路","SECT":"六段","MAREA":" ","LANE":"９４巷","ALLEY":" ","HOUSE_NO":"３３號","E_COORD97":166732.10999999999,"N_COORD97":2546613.25,"ADDRESS":"府安路六段９４巷３３號","OBJECTID":401239},"geometry":{"x":166732.11000000127,"y":2546613.2500000019}},{"attributes":{"ID":401264,"DIS_CODE":0,"TOWNNAME":"安南區","LI":"南興里","LIN":"11鄰","STREET":"公學路","SECT":"五段","MAREA":" ","LANE":"６９７巷","ALLEY":" ","HOUSE_NO":"６０號","E_COORD97":163830.31,"N_COORD97":2552675.2200000002,"ADDRESS":"公學路五段６９７巷６０號","OBJECTID":401240},"geometry":{"x":163830.30999999866,"y":2552675.2200000007}},{"attributes":{"ID":401265,"DIS_CODE":0,"TOWNNAME":"安南區","LI":"南興里","LIN":"11鄰","STREET":"公學路","SECT":"五段","MAREA":" ","LANE":"６９７巷","ALLEY":" ","HOUSE_NO":"７０號","E_COORD97":163828.59,"N_COORD97":2552636.8599999999,"ADDRESS":"公學路五段６９７巷７０號","OBJECTID":401241},"geometry":{"x":163828.58999999985,"y":2552636.8600000013}},{"attributes":{"ID":401266,"DIS_CODE":0,"TOWNNAME":"安南區","LI":"原佃里","LIN":"11鄰","STREET":"本原街","SECT":"一段","MAREA":" ","LANE":"９７巷","ALLEY":" ","HOUSE_NO":"７號","E_COORD97":168012.14999999999,"N_COORD97":2550135.48,"ADDRESS":"本原街一段９７巷７號","OBJECTID":401242},"geometry":{"x":168012.15000000037,"y":2550135.4800000023}},{"attributes":{"ID":401267,"DIS_CODE":0,"TOWNNAME":"安南區","LI":"海西里","LIN":"11鄰","STREET":"海中街","SECT":" ","MAREA":" ","LANE":"７１巷","ALLEY":" ","HOUSE_NO":"１１號","E_COORD97":166432.84,"N_COORD97":2548888.8799999999,"ADDRESS":"海中街７１巷１１號","OBJECTID":401243},"geometry":{"x":166432.84000000078,"y":2548888.8799999971}},{"attributes":{"ID":401268,"DIS_CODE":0,"TOWNNAME":"永康區","LI":"大橋里","LIN":"14鄰","STREET":"大橋一街","SECT":" ","MAREA":" ","LANE":"７３巷","ALLEY":" ","HOUSE_NO":"６３號","E_COORD97":170807.13,"N_COORD97":2546541.5,"ADDRESS":"大橋一街７３巷６３號","OBJECTID":401244},"geometry":{"x":170807.12999999989,"y":2546541.5000000019}},{"attributes":{"ID":401269,"DIS_CODE":0,"TOWNNAME":"永康區","LI":"中興里","LIN":"19鄰","STREET":"中山東路","SECT":" ","MAREA":" ","LANE":"３６６巷","ALLEY":" ","HOUSE_NO":"５號","E_COORD97":171865,"N_COORD97":2545286.1699999999,"ADDRESS":"中山東路３６６巷５號","OBJECTID":401245},"geometry":{"x":171865.00000000093,"y":2545286.1699999999}},{"attributes":{"ID":401270,"DIS_CODE":0,"TOWNNAME":"永康區","LI":"二王里","LIN":"10鄰","STREET":"二王路","SECT":" ","MAREA":" ","LANE":"１５５巷","ALLEY":" ","HOUSE_NO":"４２號","E_COORD97":173047.91,"N_COORD97":2546470.5800000001,"ADDRESS":"二王路１５５巷４２號","OBJECTID":401246},"geometry":{"x":173047.91000000015,"y":2546470.5800000001}},{"attributes":{"ID":401271,"DIS_CODE":0,"TOWNNAME":"永康區","LI":"大橋里","LIN":"16鄰","STREET":"大橋一街","SECT":" ","MAREA":" ","LANE":"１３９巷","ALLEY":" ","HOUSE_NO":"３５號","E_COORD97":170966.95999999999,"N_COORD97":2546609.7400000002,"ADDRESS":"大橋一街１３９巷３５號","OBJECTID":401247},"geometry":{"x":170966.96000000089,"y":2546609.7400000039}},{"attributes":{"ID":401272,"DIS_CODE":0,"TOWNNAME":"中西區","LI":"大涼里","LIN":"11鄰","STREET":"府前路","SECT":"二段","MAREA":" ","LANE":"２５８巷","ALLEY":" ","HOUSE_NO":"４５號","E_COORD97":167004.47,"N_COORD97":2543797.98,"ADDRESS":"府前路二段２５８巷４５號","OBJECTID":401248},"geometry":{"x":167004.46999999881,"y":2543797.9800000023}},{"attributes":{"ID":401273,"DIS_CODE":0,"TOWNNAME":"中西區","LI":"大涼里","LIN":"11鄰","STREET":"府前路","SECT":"二段","MAREA":" ","LANE":"２５８巷","ALLEY":" ","HOUSE_NO":"４７號","E_COORD97":166996.51999999999,"N_COORD97":2543800.1400000001,"ADDRESS":"府前路二段２５８巷４７號","OBJECTID":401249},"geometry":{"x":166996.51999999955,"y":2543800.1400000043}},{"attributes":{"ID":401274,"DIS_CODE":0,"TOWNNAME":"永康區","LI":"\u25A0洲里","LIN":"11鄰","STREET":"\u25A0行路","SECT":" ","MAREA":" ","LANE":"１４６巷","ALLEY":" ","HOUSE_NO":"７號","E_COORD97":171405.76000000001,"N_COORD97":2549257.8799999999,"ADDRESS":"\u25A0行路１４６巷７號","OBJECTID":401250},"geometry":{"x":171405.76000000071,"y":2549257.879999999}},{"attributes":{"ID":401275,"DIS_CODE":0,"TOWNNAME":"永康區","LI":"\u25A0洲里","LIN":"11鄰","STREET":"\u25A0行路","SECT":" ","MAREA":" ","LANE":"１４６巷","ALLEY":" ","HOUSE_NO":"１５號","E_COORD97":171394.95999999999,"N_COORD97":2549277.5899999999,"ADDRESS":"\u25A0行路１４６巷１５號","OBJECTID":401251},"geometry":{"x":171394.95999999996,"y":2549277.5899999999}},{"attributes":{"ID":401276,"DIS_CODE":0,"TOWNNAME":"永康區","LI":"\u25A0洲里","LIN":"11鄰","STREET":"\u25A0行路","SECT":" ","MAREA":" ","LANE":"１４６巷","ALLEY":" ","HOUSE_NO":"２號","E_COORD97":171439.89000000001,"N_COORD97":2549238.9399999999,"ADDRESS":"\u25A0行路１４６巷２號","OBJECTID":401252},"geometry":{"x":171439.8900000006,"y":2549238.9400000013}},{"attributes":{"ID":401277,"DIS_CODE":0,"TOWNNAME":"永康區","LI":"\u25A0洲里","LIN":"11鄰","STREET":"\u25A0行路","SECT":" ","MAREA":" ","LANE":"１４６巷","ALLEY":" ","HOUSE_NO":"２號之１","E_COORD97":171438.88,"N_COORD97":2549242.2400000002,"ADDRESS":"\u25A0行路１４６巷２號之１","OBJECTID":401253},"geometry":{"x":171438.88000000082,"y":2549242.2400000021}},{"attributes":{"ID":401278,"DIS_CODE":0,"TOWNNAME":"永康區","LI":"三合里","LIN":"5鄰","STREET":"南工街","SECT":" ","MAREA":" ","LANE":"９８巷","ALLEY":" ","HOUSE_NO":"２號","E_COORD97":172117.82999999999,"N_COORD97":2545714.75,"ADDRESS":"南工街９８巷２號","OBJECTID":401254},"geometry":{"x":172117.83000000007,"y":2545714.7500000019}},{"attributes":{"ID":401279,"DIS_CODE":0,"TOWNNAME":"永康區","LI":"三合里","LIN":"24鄰","STREET":"南工街","SECT":" ","MAREA":" ","LANE":"３１１巷","ALLEY":" ","HOUSE_NO":"７７號底三層","E_COORD97":171800.64000000001,"N_COORD97":2545823.0099999998,"ADDRESS":"南工街３１１巷７７號底三層","OBJECTID":401255},"geometry":{"x":171800.63999999873,"y":2545823.0099999998}},{"attributes":{"ID":401280,"DIS_CODE":0,"TOWNNAME":"永康區","LI":"大橋里","LIN":"8鄰","STREET":"大橋三街","SECT":" ","MAREA":" ","LANE":"１９９巷","ALLEY":" ","HOUSE_NO":"１００號","E_COORD97":171002.48000000001,"N_COORD97":2546917.6499999999,"ADDRESS":"大橋三街１９９巷１００號","OBJECTID":401256},"geometry":{"x":171002.48000000231,"y":2546917.6500000004}},{"attributes":{"ID":401281,"DIS_CODE":0,"TOWNNAME":"永康區","LI":"\u25A0洲里","LIN":"11鄰","STREET":"\u25A0行路","SECT":" ","MAREA":" ","LANE":"１４６巷","ALLEY":" ","HOUSE_NO":"１７號","E_COORD97":171391.17000000001,"N_COORD97":2549280.6000000001,"ADDRESS":"\u25A0行路１４６巷１７號","OBJECTID":401257},"geometry":{"x":171391.17000000086,"y":2549280.5999999996}},{"attributes":{"ID":401282,"DIS_CODE":0,"TOWNNAME":"永康區","LI":"中華里","LIN":"11鄰","STREET":"忠義街","SECT":" ","MAREA":" ","LANE":"１０巷","ALLEY":" ","HOUSE_NO":"４號","E_COORD97":171750.29999999999,"N_COORD97":2544372.3399999999,"ADDRESS":"忠義街１０巷４號","OBJECTID":401258},"geometry":{"x":171750.29999999981,"y":2544372.3400000017}},{"attributes":{"ID":401283,"DIS_CODE":0,"TOWNNAME":"永康區","LI":"\u25A0洲里","LIN":"11鄰","STREET":"\u25A0行路","SECT":" ","MAREA":" ","LANE":"１４６巷","ALLEY":" ","HOUSE_NO":"５號","E_COORD97":171408.78,"N_COORD97":2549254.6299999999,"ADDRESS":"\u25A0行路１４６巷５號","OBJECTID":401259},"geometry":{"x":171408.78000000212,"y":2549254.6300000008}},{"attributes":{"ID":401284,"DIS_CODE":0,"TOWNNAME":"中西區","LI":"西湖里","LIN":"11鄰","STREET":"湖美一街","SECT":" ","MAREA":" ","LANE":"２６巷","ALLEY":" ","HOUSE_NO":"１１號","E_COORD97":166101.98999999999,"N_COORD97":2544549.4900000002,"ADDRESS":"湖美一街２６巷１１號","OBJECTID":401260},"geometry":{"x":166101.99000000115,"y":2544549.4900000002}},{"attributes":{"ID":401285,"DIS_CODE":0,"TOWNNAME":"中西區","LI":"西湖里","LIN":"11鄰","STREET":"湖美一街","SECT":" ","MAREA":" ","LANE":"２６巷","ALLEY":" ","HOUSE_NO":"１２號","E_COORD97":166102.95999999999,"N_COORD97":2544528.5899999999,"ADDRESS":"湖美一街２６巷１２號","OBJECTID":401261},"geometry":{"x":166102.96000000183,"y":2544528.5900000036}},{"attributes":{"ID":401286,"DIS_CODE":0,"TOWNNAME":"中西區","LI":"西湖里","LIN":"11鄰","STREET":"湖美一街","SECT":" ","MAREA":" ","LANE":"２６巷","ALLEY":" ","HOUSE_NO":"１３號","E_COORD97":166107.34,"N_COORD97":2544549.4900000002,"ADDRESS":"湖美一街２６巷１３號","OBJECTID":401262},"geometry":{"x":166107.34000000078,"y":2544549.4900000002}},{"attributes":{"ID":401287,"DIS_CODE":0,"TOWNNAME":"中西區","LI":"西湖里","LIN":"11鄰","STREET":"湖美一街","SECT":" ","MAREA":" ","LANE":"２６巷","ALLEY":" ","HOUSE_NO":"１４號","E_COORD97":166108.07000000001,"N_COORD97":2544528.3500000001,"ADDRESS":"湖美一街２６巷１４號","OBJECTID":401263},"geometry":{"x":166108.07000000123,"y":2544528.3499999996}},{"attributes":{"ID":401288,"DIS_CODE":0,"TOWNNAME":"中西區","LI":"西湖里","LIN":"11鄰","STREET":"湖美一街","SECT":" ","MAREA":" ","LANE":"２６巷","ALLEY":" ","HOUSE_NO":"１５號","E_COORD97":166112.94,"N_COORD97":2544549.73,"ADDRESS":"湖美一街２６巷１５號","OBJECTID":401264},"geometry":{"x":166112.94000000134,"y":2544549.7300000023}},{"attributes":{"ID":401289,"DIS_CODE":0,"TOWNNAME":"中西區","LI":"西湖里","LIN":"11鄰","STREET":"湖美一街","SECT":" ","MAREA":" ","LANE":"２６巷","ALLEY":" ","HOUSE_NO":"１６號","E_COORD97":166114.39999999999,"N_COORD97":2544528.5899999999,"ADDRESS":"湖美一街２６巷１６號","OBJECTID":401265},"geometry":{"x":166114.4000000013,"y":2544528.5900000036}},{"attributes":{"ID":401290,"DIS_CODE":0,"TOWNNAME":"中西區","LI":"西湖里","LIN":"11鄰","STREET":"湖美一街","SECT":" ","MAREA":" ","LANE":"２６巷","ALLEY":" ","HOUSE_NO":"１７號","E_COORD97":166118.29000000001,"N_COORD97":2544549.73,"ADDRESS":"湖美一街２６巷１７號","OBJECTID":401266},"geometry":{"x":166118.29000000097,"y":2544549.7300000023}},{"attributes":{"ID":401291,"DIS_CODE":0,"TOWNNAME":"永康區","LI":"三合里","LIN":"2鄰","STREET":"南工街","SECT":" ","MAREA":" ","LANE":"５５巷","ALLEY":" ","HOUSE_NO":"３號","E_COORD97":172082.85000000001,"N_COORD97":2545613.25,"ADDRESS":"南工街５５巷３號","OBJECTID":401267},"geometry":{"x":172082.85000000056,"y":2545613.2500000019}},{"attributes":{"ID":401292,"DIS_CODE":0,"TOWNNAME":"永康區","LI":"大橋里","LIN":"25鄰","STREET":"大橋一街","SECT":" ","MAREA":" ","LANE":"２４７巷","ALLEY":" ","HOUSE_NO":"９號","E_COORD97":171251.14999999999,"N_COORD97":2546675.4900000002,"ADDRESS":"大橋一街２４７巷９號","OBJECTID":401268},"geometry":{"x":171251.1500000013,"y":2546675.4900000002}},{"attributes":{"ID":401293,"DIS_CODE":0,"TOWNNAME":"永康區","LI":"大灣里","LIN":"31鄰","STREET":"民族路","SECT":" ","MAREA":" ","LANE":"１２６巷","ALLEY":" ","HOUSE_NO":"１７號","E_COORD97":175377.03,"N_COORD97":2544948.5800000001,"ADDRESS":"民族路１２６巷１７號","OBJECTID":401269},"geometry":{"x":175377.03000000026,"y":2544948.5800000001}},{"attributes":{"ID":401294,"DIS_CODE":0,"TOWNNAME":"永康區","LI":"大灣里","LIN":"6鄰","STREET":"大灣路","SECT":" ","MAREA":" ","LANE":"２１８巷","ALLEY":" ","HOUSE_NO":"３４號","E_COORD97":174879.73999999999,"N_COORD97":2545559.0899999999,"ADDRESS":"大灣路２１８巷３４號","OBJECTID":401270},"geometry":{"x":174879.74000000115,"y":2545559.089999998}},{"attributes":{"ID":401295,"DIS_CODE":0,"TOWNNAME":"中西區","LI":"西湖里","LIN":"11鄰","STREET":"湖美一街","SECT":" ","MAREA":" ","LANE":"２６巷","ALLEY":" ","HOUSE_NO":"１８號","E_COORD97":166119.51000000001,"N_COORD97":2544529.3199999998,"ADDRESS":"湖美一街２６巷１８號","OBJECTID":401271},"geometry":{"x":166119.51000000164,"y":2544529.3200000003}},{"attributes":{"ID":401296,"DIS_CODE":0,"TOWNNAME":"中西區","LI":"西湖里","LIN":"11鄰","STREET":"湖美一街","SECT":" ","MAREA":" ","LANE":"２６巷","ALLEY":" ","HOUSE_NO":"１９號","E_COORD97":166123.89000000001,"N_COORD97":2544549.25,"ADDRESS":"湖美一街２６巷１９號","OBJECTID":401272},"geometry":{"x":166123.8900000006,"y":2544549.2500000019}},{"attributes":{"ID":401297,"DIS_CODE":0,"TOWNNAME":"中西區","LI":"西湖里","LIN":"11鄰","STREET":"湖美一街","SECT":" ","MAREA":" ","LANE":"２６巷","ALLEY":" ","HOUSE_NO":"１號","E_COORD97":166073.76000000001,"N_COORD97":2544548.7599999998,"ADDRESS":"湖美一街２６巷１號","OBJECTID":401273},"geometry":{"x":166073.76000000164,"y":2544548.7600000016}},{"attributes":{"ID":401298,"DIS_CODE":0,"TOWNNAME":"中西區","LI":"西湖里","LIN":"11鄰","STREET":"湖美一街","SECT":" ","MAREA":" ","LANE":"２６巷","ALLEY":" ","HOUSE_NO":"２０號","E_COORD97":166124.85999999999,"N_COORD97":2544529.0800000001,"ADDRESS":"湖美一街２６巷２０號","OBJECTID":401274},"geometry":{"x":166124.86000000127,"y":2544529.0800000038}},{"attributes":{"ID":401299,"DIS_CODE":0,"TOWNNAME":"中西區","LI":"西湖里","LIN":"11鄰","STREET":"湖美一街","SECT":" ","MAREA":" ","LANE":"２６巷","ALLEY":" ","HOUSE_NO":"２１號","E_COORD97":166129.48000000001,"N_COORD97":2544550.46,"ADDRESS":"湖美一街２６巷２１號","OBJECTID":401275},"geometry":{"x":166129.48000000138,"y":2544550.4600000009}},{"attributes":{"ID":401300,"DIS_CODE":0,"TOWNNAME":"中西區","LI":"西湖里","LIN":"11鄰","STREET":"湖美一街","SECT":" ","MAREA":" ","LANE":"２６巷","ALLEY":" ","HOUSE_NO":"２２號","E_COORD97":166130.70000000001,"N_COORD97":2544529.3199999998,"ADDRESS":"湖美一街２６巷２２號","OBJECTID":401276},"geometry":{"x":166130.70000000112,"y":2544529.3200000003}},{"attributes":{"ID":401301,"DIS_CODE":0,"TOWNNAME":"中西區","LI":"西湖里","LIN":"11鄰","STREET":"湖美一街","SECT":" ","MAREA":" ","LANE":"２６巷","ALLEY":" ","HOUSE_NO":"２號","E_COORD97":166074.48999999999,"N_COORD97":2544528.5899999999,"ADDRESS":"湖美一街２６巷２號","OBJECTID":401277},"geometry":{"x":166074.49000000115,"y":2544528.5900000036}},{"attributes":{"ID":401302,"DIS_CODE":0,"TOWNNAME":"中西區","LI":"西湖里","LIN":"11鄰","STREET":"湖美一街","SECT":" ","MAREA":" ","LANE":"２６巷","ALLEY":" ","HOUSE_NO":"３號","E_COORD97":166079.84,"N_COORD97":2544548.27,"ADDRESS":"湖美一街２６巷３號","OBJECTID":401278},"geometry":{"x":166079.83999999985,"y":2544548.2700000014}},{"attributes":{"ID":401303,"DIS_CODE":0,"TOWNNAME":"中西區","LI":"西湖里","LIN":"11鄰","STREET":"湖美一街","SECT":" ","MAREA":" ","LANE":"２６巷","ALLEY":" ","HOUSE_NO":"４號","E_COORD97":166080.82000000001,"N_COORD97":2544528.5899999999,"ADDRESS":"湖美一街２６巷４號","OBJECTID":401279},"geometry":{"x":166080.82000000123,"y":2544528.5900000036}},{"attributes":{"ID":401304,"DIS_CODE":0,"TOWNNAME":"中西區","LI":"西湖里","LIN":"11鄰","STREET":"湖美一街","SECT":" ","MAREA":" ","LANE":"２６巷","ALLEY":" ","HOUSE_NO":"５號","E_COORD97":166084.95000000001,"N_COORD97":2544548.27,"ADDRESS":"湖美一街２６巷５號","OBJECTID":401280},"geometry":{"x":166084.95000000112,"y":2544548.2700000014}},{"attributes":{"ID":401305,"DIS_CODE":0,"TOWNNAME":"中西區","LI":"西湖里","LIN":"11鄰","STREET":"湖美一街","SECT":" ","MAREA":" ","LANE":"２６巷","ALLEY":" ","HOUSE_NO":"６號","E_COORD97":166086.41,"N_COORD97":2544528.8300000001,"ADDRESS":"湖美一街２６巷６號","OBJECTID":401281},"geometry":{"x":166086.41000000015,"y":2544528.8300000019}},{"attributes":{"ID":401306,"DIS_CODE":0,"TOWNNAME":"中西區","LI":"西湖里","LIN":"11鄰","STREET":"湖美一街","SECT":" ","MAREA":" ","LANE":"２６巷","ALLEY":" ","HOUSE_NO":"７號","E_COORD97":166090.79000000001,"N_COORD97":2544548.52,"ADDRESS":"湖美一街２６巷７號","OBJECTID":401282},"geometry":{"x":166090.7900000019,"y":2544548.5199999996}},{"attributes":{"ID":401307,"DIS_CODE":0,"TOWNNAME":"中西區","LI":"西湖里","LIN":"11鄰","STREET":"湖美一街","SECT":" ","MAREA":" ","LANE":"２６巷","ALLEY":" ","HOUSE_NO":"８號","E_COORD97":166091.51999999999,"N_COORD97":2544528.5899999999,"ADDRESS":"湖美一街２６巷８號","OBJECTID":401283},"geometry":{"x":166091.51999999955,"y":2544528.5900000036}},{"attributes":{"ID":401308,"DIS_CODE":0,"TOWNNAME":"中西區","LI":"西湖里","LIN":"11鄰","STREET":"湖美一街","SECT":" ","MAREA":" ","LANE":"２６巷","ALLEY":" ","HOUSE_NO":"９號","E_COORD97":166095.89999999999,"N_COORD97":2544549,"ADDRESS":"湖美一街２６巷９號","OBJECTID":401284},"geometry":{"x":166095.9000000013,"y":2544549}},{"attributes":{"ID":401309,"DIS_CODE":0,"TOWNNAME":"中西區","LI":"西湖里","LIN":"11鄰","STREET":"湖美一街","SECT":" ","MAREA":" ","LANE":"３３巷","ALLEY":" ","HOUSE_NO":"１０號","E_COORD97":166037.98999999999,"N_COORD97":2544548.0099999998,"ADDRESS":"湖美一街３３巷１０號","OBJECTID":401285},"geometry":{"x":166037.99000000022,"y":2544548.0099999998}},{"attributes":{"ID":401310,"DIS_CODE":0,"TOWNNAME":"中西區","LI":"西湖里","LIN":"11鄰","STREET":"湖美一街","SECT":" ","MAREA":" ","LANE":"３３巷","ALLEY":" ","HOUSE_NO":"１２號","E_COORD97":166032.88,"N_COORD97":2544547.52,"ADDRESS":"湖美一街３３巷１２號","OBJECTID":401286},"geometry":{"x":166032.88000000082,"y":2544547.5199999996}},{"attributes":{"ID":401311,"DIS_CODE":0,"TOWNNAME":"中西區","LI":"西湖里","LIN":"11鄰","STREET":"湖美一街","SECT":" ","MAREA":" ","LANE":"３３巷","ALLEY":" ","HOUSE_NO":"２號","E_COORD97":166058.67000000001,"N_COORD97":2544547.52,"ADDRESS":"湖美一街３３巷２號","OBJECTID":401287},"geometry":{"x":166058.66999999993,"y":2544547.5199999996}},{"attributes":{"ID":401312,"DIS_CODE":0,"TOWNNAME":"中西區","LI":"西湖里","LIN":"11鄰","STREET":"湖美一街","SECT":" ","MAREA":" ","LANE":"３３巷","ALLEY":" ","HOUSE_NO":"４號","E_COORD97":166054.04999999999,"N_COORD97":2544547.2799999998,"ADDRESS":"湖美一街３３巷４號","OBJECTID":401288},"geometry":{"x":166054.04999999981,"y":2544547.2800000031}},{"attributes":{"ID":401313,"DIS_CODE":0,"TOWNNAME":"中西區","LI":"西湖里","LIN":"11鄰","STREET":"湖美一街","SECT":" ","MAREA":" ","LANE":"３３巷","ALLEY":" ","HOUSE_NO":"６號","E_COORD97":166048.45000000001,"N_COORD97":2544547.0299999998,"ADDRESS":"湖美一街３３巷６號","OBJECTID":401289},"geometry":{"x":166048.45000000019,"y":2544547.0300000012}},{"attributes":{"ID":401314,"DIS_CODE":0,"TOWNNAME":"中西區","LI":"西湖里","LIN":"11鄰","STREET":"湖美一街","SECT":" ","MAREA":" ","LANE":"３３巷","ALLEY":" ","HOUSE_NO":"８號","E_COORD97":166043.59,"N_COORD97":2544547.52,"ADDRESS":"湖美一街３３巷８號","OBJECTID":401290},"geometry":{"x":166043.58999999985,"y":2544547.5199999996}},{"attributes":{"ID":401315,"DIS_CODE":0,"TOWNNAME":"中西區","LI":"西湖里","LIN":"11鄰","STREET":"湖美二街","SECT":" ","MAREA":" ","LANE":"２６巷","ALLEY":" ","HOUSE_NO":"１０號","E_COORD97":166166.23000000001,"N_COORD97":2544530.7799999998,"ADDRESS":"湖美二街２６巷１０號","OBJECTID":401291},"geometry":{"x":166166.23000000231,"y":2544530.7800000012}},{"attributes":{"ID":401316,"DIS_CODE":0,"TOWNNAME":"永康區","LI":"大橋里","LIN":"7鄰","STREET":"大橋三街","SECT":" ","MAREA":" ","LANE":"１９９巷","ALLEY":" ","HOUSE_NO":"６１號","E_COORD97":170927.01999999999,"N_COORD97":2546887.6499999999,"ADDRESS":"大橋三街１９９巷６１號","OBJECTID":401292},"geometry":{"x":170927.02000000048,"y":2546887.6500000004}},{"attributes":{"ID":401317,"DIS_CODE":0,"TOWNNAME":"中西區","LI":"西湖里","LIN":"11鄰","STREET":"湖美二街","SECT":" ","MAREA":" ","LANE":"２６巷","ALLEY":" ","HOUSE_NO":"１２號","E_COORD97":166171.57999999999,"N_COORD97":2544530.7799999998,"ADDRESS":"湖美二街２６巷１２號","OBJECTID":401293},"geometry":{"x":166171.58000000007,"y":2544530.7800000012}},{"attributes":{"ID":401318,"DIS_CODE":0,"TOWNNAME":"中西區","LI":"西湖里","LIN":"11鄰","STREET":"湖美二街","SECT":" ","MAREA":" ","LANE":"２６巷","ALLEY":" ","HOUSE_NO":"１號","E_COORD97":166146.76000000001,"N_COORD97":2544551.9199999999,"ADDRESS":"湖美二街２６巷１號","OBJECTID":401294},"geometry":{"x":166146.76000000071,"y":2544551.9199999999}},{"attributes":{"ID":401319,"DIS_CODE":0,"TOWNNAME":"中西區","LI":"西湖里","LIN":"11鄰","STREET":"湖美二街","SECT":" ","MAREA":" ","LANE":"２６巷","ALLEY":" ","HOUSE_NO":"２號","E_COORD97":166145.29999999999,"N_COORD97":2544531.02,"ADDRESS":"湖美二街２６巷２號","OBJECTID":401295},"geometry":{"x":166145.30000000075,"y":2544531.0199999996}},{"attributes":{"ID":401320,"DIS_CODE":0,"TOWNNAME":"中西區","LI":"西湖里","LIN":"11鄰","STREET":"湖美二街","SECT":" ","MAREA":" ","LANE":"２６巷","ALLEY":" ","HOUSE_NO":"３號","E_COORD97":166154.29999999999,"N_COORD97":2544551.9199999999,"ADDRESS":"湖美二街２６巷３號","OBJECTID":401296},"geometry":{"x":166154.29999999981,"y":2544551.9199999999}},{"attributes":{"ID":401321,"DIS_CODE":0,"TOWNNAME":"中西區","LI":"西湖里","LIN":"11鄰","STREET":"湖美二街","SECT":" ","MAREA":" ","LANE":"２６巷","ALLEY":" ","HOUSE_NO":"４號","E_COORD97":166150.89999999999,"N_COORD97":2544530.29,"ADDRESS":"湖美二街２６巷４號","OBJECTID":401297},"geometry":{"x":166150.90000000037,"y":2544530.290000001}},{"attributes":{"ID":401322,"DIS_CODE":0,"TOWNNAME":"中西區","LI":"西湖里","LIN":"11鄰","STREET":"湖美二街","SECT":" ","MAREA":" ","LANE":"２６巷","ALLEY":" ","HOUSE_NO":"５號","E_COORD97":166161.35999999999,"N_COORD97":2544551.6800000002,"ADDRESS":"湖美二街２６巷５號","OBJECTID":401298},"geometry":{"x":166161.36000000034,"y":2544551.6800000034}},{"attributes":{"ID":401323,"DIS_CODE":0,"TOWNNAME":"中西區","LI":"西湖里","LIN":"11鄰","STREET":"湖美二街","SECT":" ","MAREA":" ","LANE":"２６巷","ALLEY":" ","HOUSE_NO":"６號","E_COORD97":166156.48999999999,"N_COORD97":2544530.5299999998,"ADDRESS":"湖美二街２６巷６號","OBJECTID":401299},"geometry":{"x":166156.49000000115,"y":2544530.5299999993}},{"attributes":{"ID":401324,"DIS_CODE":0,"TOWNNAME":"中西區","LI":"西湖里","LIN":"11鄰","STREET":"湖美二街","SECT":" ","MAREA":" ","LANE":"２６巷","ALLEY":" ","HOUSE_NO":"７號","E_COORD97":166168.89999999999,"N_COORD97":2544551.9199999999,"ADDRESS":"湖美二街２６巷７號","OBJECTID":401300},"geometry":{"x":166168.9000000013,"y":2544551.9199999999}},{"attributes":{"ID":401325,"DIS_CODE":0,"TOWNNAME":"中西區","LI":"西湖里","LIN":"11鄰","STREET":"湖美二街","SECT":" ","MAREA":" ","LANE":"２６巷","ALLEY":" ","HOUSE_NO":"８號","E_COORD97":166161.12,"N_COORD97":2544530.7799999998,"ADDRESS":"湖美二街２６巷８號","OBJECTID":401301},"geometry":{"x":166161.12000000011,"y":2544530.7800000012}},{"attributes":{"ID":401326,"DIS_CODE":0,"TOWNNAME":"仁德區","LI":"上崙里","LIN":"11鄰","STREET":"德崙路","SECT":" ","MAREA":" ","LANE":"３８３巷","ALLEY":" ","HOUSE_NO":"１號","E_COORD97":174123.48000000001,"N_COORD97":2538129.77,"ADDRESS":"德崙路３８３巷１號","OBJECTID":401302},"geometry":{"x":174123.48000000138,"y":2538129.7700000014}},{"attributes":{"ID":401327,"DIS_CODE":0,"TOWNNAME":"仁德區","LI":"仁義里","LIN":"11鄰","STREET":"中山路","SECT":" ","MAREA":" ","LANE":"５９１巷","ALLEY":" ","HOUSE_NO":"４號","E_COORD97":173342.89999999999,"N_COORD97":2541296.4900000002,"ADDRESS":"中山路５９１巷４號","OBJECTID":401303},"geometry":{"x":173342.9000000013,"y":2541296.4900000021}},{"attributes":{"ID":401328,"DIS_CODE":0,"TOWNNAME":"仁德區","LI":"仁義里","LIN":"11鄰","STREET":"中山路","SECT":" ","MAREA":" ","LANE":"５９１巷","ALLEY":" ","HOUSE_NO":"８號","E_COORD97":173344.01000000001,"N_COORD97":2541289.2400000002,"ADDRESS":"中山路５９１巷８號","OBJECTID":401304},"geometry":{"x":173344.00999999978,"y":2541289.2400000002}},{"attributes":{"ID":401329,"DIS_CODE":0,"TOWNNAME":"永康區","LI":"大橋里","LIN":"27鄰","STREET":"大橋一街","SECT":" ","MAREA":" ","LANE":"２４７巷","ALLEY":" ","HOUSE_NO":"２２號","E_COORD97":171272.04000000001,"N_COORD97":2546720.75,"ADDRESS":"大橋一街２４７巷２２號","OBJECTID":401305},"geometry":{"x":171272.04000000097,"y":2546720.75}},{"attributes":{"ID":401330,"DIS_CODE":0,"TOWNNAME":"永康區","LI":"大橋里","LIN":"25鄰","STREET":"大橋一街","SECT":" ","MAREA":" ","LANE":"２４７巷","ALLEY":" ","HOUSE_NO":"３號","E_COORD97":171275.10000000001,"N_COORD97":2546677.7400000002,"ADDRESS":"大橋一街２４７巷３號","OBJECTID":401306},"geometry":{"x":171275.09999999963,"y":2546677.7400000039}},{"attributes":{"ID":401331,"DIS_CODE":0,"TOWNNAME":"永康區","LI":"三合里","LIN":"25鄰","STREET":"南工街","SECT":" ","MAREA":" ","LANE":"３１１巷","ALLEY":" ","HOUSE_NO":"５２號","E_COORD97":171789.94,"N_COORD97":2545899.8100000001,"ADDRESS":"南工街３１１巷５２號","OBJECTID":401307},"geometry":{"x":171789.94000000134,"y":2545899.8100000005}},{"attributes":{"ID":401332,"DIS_CODE":0,"TOWNNAME":"永康區","LI":"三合里","LIN":"7鄰","STREET":"南工街","SECT":" ","MAREA":" ","LANE":"７１巷","ALLEY":" ","HOUSE_NO":"３號","E_COORD97":172073.88,"N_COORD97":2545646.7400000002,"ADDRESS":"南工街７１巷３號","OBJECTID":401308},"geometry":{"x":172073.88000000175,"y":2545646.7400000039}},{"attributes":{"ID":401333,"DIS_CODE":0,"TOWNNAME":"永康區","LI":"三民里","LIN":"6鄰","STREET":"三民街","SECT":" ","MAREA":" ","LANE":"９０巷","ALLEY":" ","HOUSE_NO":"５３號","E_COORD97":173024.39000000001,"N_COORD97":2550434.0299999998,"ADDRESS":"三民街９０巷５３號","OBJECTID":401309},"geometry":{"x":173024.38999999966,"y":2550434.0299999993}},{"attributes":{"ID":401334,"DIS_CODE":0,"TOWNNAME":"永康區","LI":"三合里","LIN":"5鄰","STREET":"南工街","SECT":" ","MAREA":" ","LANE":"６６巷","ALLEY":" ","HOUSE_NO":"４號","E_COORD97":172125.66,"N_COORD97":2545645.8599999999,"ADDRESS":"南工街６６巷４號","OBJECTID":401310},"geometry":{"x":172125.66000000108,"y":2545645.8600000013}},{"attributes":{"ID":401335,"DIS_CODE":0,"TOWNNAME":"仁德區","LI":"太子里","LIN":"11鄰","STREET":"長興二街","SECT":" ","MAREA":" ","LANE":"８４巷","ALLEY":" ","HOUSE_NO":"４號","E_COORD97":174242.29000000001,"N_COORD97":2543726.5099999998,"ADDRESS":"長興二街８４巷４號","OBJECTID":401311},"geometry":{"x":174242.29000000004,"y":2543726.5100000016}},{"attributes":{"ID":401336,"DIS_CODE":0,"TOWNNAME":"東區","LI":"大學里","LIN":"11鄰","STREET":"長榮路","SECT":"三段","MAREA":" ","LANE":"６６巷","ALLEY":" ","HOUSE_NO":"３３號之１","E_COORD97":170332.29000000001,"N_COORD97":2543824.8999999999,"ADDRESS":"長榮路三段６６巷３３號之１","OBJECTID":401312},"geometry":{"x":170332.29000000097,"y":2543824.9000000004}},{"attributes":{"ID":401337,"DIS_CODE":0,"TOWNNAME":"東區","LI":"大學里","LIN":"11鄰","STREET":"長榮路","SECT":"三段","MAREA":" ","LANE":"６６巷","ALLEY":" ","HOUSE_NO":"３３號之２","E_COORD97":170335.85000000001,"N_COORD97":2543824.6400000001,"ADDRESS":"長榮路三段６６巷３３號之２","OBJECTID":401313},"geometry":{"x":170335.84999999963,"y":2543824.6400000025}},{"attributes":{"ID":401338,"DIS_CODE":0,"TOWNNAME":"永康區","LI":"復華里","LIN":"11鄰","STREET":"復國二路","SECT":" ","MAREA":" ","LANE":"２１５巷","ALLEY":" ","HOUSE_NO":"１２號","E_COORD97":172976.82000000001,"N_COORD97":2546043.2599999998,"ADDRESS":"復國二路２１５巷１２號","OBJECTID":401314},"geometry":{"x":172976.82000000123,"y":2546043.2600000016}},{"attributes":{"ID":401339,"DIS_CODE":0,"TOWNNAME":"永康區","LI":"新樹里","LIN":"11鄰","STREET":"富強路","SECT":"二段","MAREA":" ","LANE":"５６巷","ALLEY":" ","HOUSE_NO":"７７號","E_COORD97":175771.97,"N_COORD97":2547081.0699999998,"ADDRESS":"富強路二段５６巷７７號","OBJECTID":401315},"geometry":{"x":175771.96999999881,"y":2547081.0700000003}},{"attributes":{"ID":401340,"DIS_CODE":0,"TOWNNAME":"永康區","LI":"新樹里","LIN":"11鄰","STREET":"富強路","SECT":"二段","MAREA":" ","LANE":"１２８巷","ALLEY":" ","HOUSE_NO":"１７號","E_COORD97":175713.70000000001,"N_COORD97":2547113.79,"ADDRESS":"富強路二段１２８巷１７號","OBJECTID":401316},"geometry":{"x":175713.70000000112,"y":2547113.790000001}},{"attributes":{"ID":401341,"DIS_CODE":0,"TOWNNAME":"永康區","LI":"復國里","LIN":"11鄰","STREET":"復國一路","SECT":" ","MAREA":" ","LANE":"２７６巷","ALLEY":" ","HOUSE_NO":"３９號","E_COORD97":172800.60000000001,"N_COORD97":2545421.6499999999,"ADDRESS":"復國一路２７６巷３９號","OBJECTID":401317},"geometry":{"x":172800.59999999963,"y":2545421.6500000022}},{"attributes":{"ID":401342,"DIS_CODE":0,"TOWNNAME":"永康區","LI":"復國里","LIN":"11鄰","STREET":"復國一路","SECT":" ","MAREA":" ","LANE":"２８０巷","ALLEY":" ","HOUSE_NO":"２９號","E_COORD97":172833.64999999999,"N_COORD97":2545506.0299999998,"ADDRESS":"復國一路２８０巷２９號","OBJECTID":401318},"geometry":{"x":172833.64999999944,"y":2545506.0300000012}},{"attributes":{"ID":401343,"DIS_CODE":0,"TOWNNAME":"永康區","LI":"網寮里","LIN":"11鄰","STREET":"永勝街","SECT":" ","MAREA":" ","LANE":"１６３巷","ALLEY":" ","HOUSE_NO":"９號","E_COORD97":173287.67999999999,"N_COORD97":2546486.9100000001,"ADDRESS":"永勝街１６３巷９號","OBJECTID":401319},"geometry":{"x":173287.68000000063,"y":2546486.910000002}},{"attributes":{"ID":401344,"DIS_CODE":0,"TOWNNAME":"永康區","LI":"網寮里","LIN":"11鄰","STREET":"永勝街","SECT":" ","MAREA":" ","LANE":"２２２巷","ALLEY":" ","HOUSE_NO":"１６號","E_COORD97":173378.64000000001,"N_COORD97":2546503.7999999998,"ADDRESS":"永勝街２２２巷１６號","OBJECTID":401320},"geometry":{"x":173378.63999999966,"y":2546503.8000000007}},{"attributes":{"ID":401345,"DIS_CODE":0,"TOWNNAME":"永康區","LI":"復華里","LIN":"11鄰","STREET":"復國二路","SECT":" ","MAREA":" ","LANE":"２４３巷","ALLEY":" ","HOUSE_NO":"１１號","E_COORD97":172989.26000000001,"N_COORD97":2546101.27,"ADDRESS":"復國二路２４３巷１１號","OBJECTID":401321},"geometry":{"x":172989.25999999978,"y":2546101.2700000014}},{"attributes":{"ID":401346,"DIS_CODE":0,"TOWNNAME":"永康區","LI":"復華里","LIN":"11鄰","STREET":"復國二路","SECT":" ","MAREA":" ","LANE":"２４３巷","ALLEY":" ","HOUSE_NO":"９號","E_COORD97":172991.48999999999,"N_COORD97":2546099.77,"ADDRESS":"復國二路２４３巷９號","OBJECTID":401322},"geometry":{"x":172991.49000000115,"y":2546099.7699999996}},{"attributes":{"ID":401347,"DIS_CODE":0,"TOWNNAME":"永康區","LI":"復華里","LIN":"11鄰","STREET":"復國二路","SECT":" ","MAREA":" ","LANE":"２１５巷","ALLEY":" ","HOUSE_NO":"６號","E_COORD97":172992.66,"N_COORD97":2546040.77,"ADDRESS":"復國二路２１５巷６號","OBJECTID":401323},"geometry":{"x":172992.66000000015,"y":2546040.7700000014}},{"attributes":{"ID":401348,"DIS_CODE":0,"TOWNNAME":"永康區","LI":"復華里","LIN":"11鄰","STREET":"復國二路","SECT":" ","MAREA":" ","LANE":"２１５巷","ALLEY":" ","HOUSE_NO":"１號","E_COORD97":172995.39999999999,"N_COORD97":2546017.0899999999,"ADDRESS":"復國二路２１５巷１號","OBJECTID":401324},"geometry":{"x":172995.4000000013,"y":2546017.0900000036}},{"attributes":{"ID":401349,"DIS_CODE":0,"TOWNNAME":"永康區","LI":"復華里","LIN":"11鄰","STREET":"復國二路","SECT":" ","MAREA":" ","LANE":"２４３巷","ALLEY":" ","HOUSE_NO":"３號","E_COORD97":173005.32999999999,"N_COORD97":2546093.77,"ADDRESS":"復國二路２４３巷３號","OBJECTID":401325},"geometry":{"x":173005.33000000101,"y":2546093.7700000014}},{"attributes":{"ID":401350,"DIS_CODE":0,"TOWNNAME":"永康區","LI":"復華里","LIN":"11鄰","STREET":"復國二路","SECT":" ","MAREA":" ","LANE":"２１５巷","ALLEY":" ","HOUSE_NO":"２５號","E_COORD97":172943.26000000001,"N_COORD97":2546028.73,"ADDRESS":"復國二路２１５巷２５號","OBJECTID":401326},"geometry":{"x":172943.26000000071,"y":2546028.7300000004}},{"attributes":{"ID":401351,"DIS_CODE":0,"TOWNNAME":"永康區","LI":"網寮里","LIN":"11鄰","STREET":"永勝街","SECT":" ","MAREA":" ","LANE":"２１８巷","ALLEY":" ","HOUSE_NO":"９號","E_COORD97":173359.63,"N_COORD97":2546488.2999999998,"ADDRESS":"永勝街２１８巷９號","OBJECTID":401327},"geometry":{"x":173359.63000000082,"y":2546488.3000000026}},{"attributes":{"ID":401352,"DIS_CODE":0,"TOWNNAME":"永康區","LI":"復華里","LIN":"11鄰","STREET":"復國二路","SECT":" ","MAREA":" ","LANE":"２１５巷","ALLEY":" ","HOUSE_NO":"２３號","E_COORD97":172947.70000000001,"N_COORD97":2546027.48,"ADDRESS":"復國二路２１５巷２３號","OBJECTID":401328},"geometry":{"x":172947.70000000019,"y":2546027.4800000004}},{"attributes":{"ID":401353,"DIS_CODE":0,"TOWNNAME":"永康區","LI":"大橋里","LIN":"19鄰","STREET":"大橋一街","SECT":" ","MAREA":" ","LANE":"１３９巷","ALLEY":" ","HOUSE_NO":"３８號","E_COORD97":170993.92000000001,"N_COORD97":2546610.3300000001,"ADDRESS":"大橋一街１３９巷３８號","OBJECTID":401329},"geometry":{"x":170993.92000000179,"y":2546610.3300000019}},{"attributes":{"ID":401354,"DIS_CODE":0,"TOWNNAME":"永康區","LI":"中興里","LIN":"19鄰","STREET":"中山東路","SECT":" ","MAREA":" ","LANE":"３６６巷","ALLEY":" ","HOUSE_NO":"１６號","E_COORD97":171863.54999999999,"N_COORD97":2545301.5,"ADDRESS":"中山東路３６６巷１６號","OBJECTID":401330},"geometry":{"x":171863.54999999981,"y":2545301.5}},{"attributes":{"ID":401355,"DIS_CODE":0,"TOWNNAME":"永康區","LI":"復華里","LIN":"11鄰","STREET":"復國二路","SECT":" ","MAREA":" ","LANE":"２４３巷","ALLEY":" ","HOUSE_NO":"５號","E_COORD97":173001.34,"N_COORD97":2546095.52,"ADDRESS":"復國二路２４３巷５號","OBJECTID":401331},"geometry":{"x":173001.33999999892,"y":2546095.5200000014}},{"attributes":{"ID":401356,"DIS_CODE":0,"TOWNNAME":"善化區","LI":"東關里","LIN":"11鄰","STREET":"中山路","SECT":" ","MAREA":" ","LANE":"４１１巷","ALLEY":" ","HOUSE_NO":"１號","E_COORD97":177360.42000000001,"N_COORD97":2559084.25,"ADDRESS":"中山路４１１巷１號","OBJECTID":401332},"geometry":{"x":177360.41999999993,"y":2559084.2500000019}},{"attributes":{"ID":401357,"DIS_CODE":0,"TOWNNAME":"永康區","LI":"三合里","LIN":"5鄰","STREET":"南工街","SECT":" ","MAREA":" ","LANE":"９８巷","ALLEY":" ","HOUSE_NO":"１０號","E_COORD97":172136.13,"N_COORD97":2545714.75,"ADDRESS":"南工街９８巷１０號","OBJECTID":401333},"geometry":{"x":172136.12999999989,"y":2545714.7500000019}},{"attributes":{"ID":401358,"DIS_CODE":0,"TOWNNAME":"永康區","LI":"三合里","LIN":"24鄰","STREET":"南工街","SECT":" ","MAREA":" ","LANE":"２６７巷","ALLEY":" ","HOUSE_NO":"７６號","E_COORD97":171865.01999999999,"N_COORD97":2545826.25,"ADDRESS":"南工街２６７巷７６號","OBJECTID":401334},"geometry":{"x":171865.01999999955,"y":2545826.2500000037}},{"attributes":{"ID":401359,"DIS_CODE":0,"TOWNNAME":"永康區","LI":"三合里","LIN":"24鄰","STREET":"南工街","SECT":" ","MAREA":" ","LANE":"３１１巷","ALLEY":" ","HOUSE_NO":"５７號","E_COORD97":171822.45999999999,"N_COORD97":2545873.7400000002,"ADDRESS":"南工街３１１巷５７號","OBJECTID":401335},"geometry":{"x":171822.45999999903,"y":2545873.7399999984}},{"attributes":{"ID":401360,"DIS_CODE":0,"TOWNNAME":"永康區","LI":"三合里","LIN":"23鄰","STREET":"南工街","SECT":" ","MAREA":" ","LANE":"３２３巷","ALLEY":" ","HOUSE_NO":"３０號","E_COORD97":171775.23999999999,"N_COORD97":2545958.7400000002,"ADDRESS":"南工街３２３巷３０號","OBJECTID":401336},"geometry":{"x":171775.24000000209,"y":2545958.7400000039}},{"attributes":{"ID":401361,"DIS_CODE":0,"TOWNNAME":"永康區","LI":"三民里","LIN":"11鄰","STREET":"和平路","SECT":" ","MAREA":" ","LANE":"２５８巷","ALLEY":" ","HOUSE_NO":"８號","E_COORD97":174762.13,"N_COORD97":2550822.4900000002,"ADDRESS":"和平路２５８巷８號","OBJECTID":401337},"geometry":{"x":174762.12999999989,"y":2550822.4900000039}},{"attributes":{"ID":401362,"DIS_CODE":0,"TOWNNAME":"永康區","LI":"大橋里","LIN":"25鄰","STREET":"大橋一街","SECT":" ","MAREA":" ","LANE":"２４７巷","ALLEY":" ","HOUSE_NO":"１９號","E_COORD97":171262.73999999999,"N_COORD97":2546697.2400000002,"ADDRESS":"大橋一街２４７巷１９號","OBJECTID":401338},"geometry":{"x":171262.74000000022,"y":2546697.2400000002}},{"attributes":{"ID":401363,"DIS_CODE":0,"TOWNNAME":"永康區","LI":"大灣里","LIN":"8鄰","STREET":"民族路","SECT":" ","MAREA":" ","LANE":"３９６巷","ALLEY":" ","HOUSE_NO":"１７號","E_COORD97":174771.14000000001,"N_COORD97":2545441.0299999998,"ADDRESS":"民族路３９６巷１７號","OBJECTID":401339},"geometry":{"x":174771.1400000006,"y":2545441.0300000012}},{"attributes":{"ID":401364,"DIS_CODE":0,"TOWNNAME":"永康區","LI":"大橋里","LIN":"19鄰","STREET":"大橋一街","SECT":" ","MAREA":" ","LANE":"１３９巷","ALLEY":" ","HOUSE_NO":"４２號","E_COORD97":170988.72,"N_COORD97":2546618.3399999999,"ADDRESS":"大橋一街１３９巷４２號","OBJECTID":401340},"geometry":{"x":170988.72000000067,"y":2546618.3399999999}},{"attributes":{"ID":401365,"DIS_CODE":0,"TOWNNAME":"永康區","LI":"三合里","LIN":"23鄰","STREET":"南工街","SECT":" ","MAREA":" ","LANE":"３２３巷","ALLEY":" ","HOUSE_NO":"３３號","E_COORD97":171787.12,"N_COORD97":2545957.9900000002,"ADDRESS":"南工街３２３巷３３號","OBJECTID":401341},"geometry":{"x":171787.12000000011,"y":2545957.9900000021}},{"attributes":{"ID":401366,"DIS_CODE":0,"TOWNNAME":"永康區","LI":"三合里","LIN":"23鄰","STREET":"南工街","SECT":" ","MAREA":" ","LANE":"３２３巷","ALLEY":" ","HOUSE_NO":"６號","E_COORD97":171779.76999999999,"N_COORD97":2546013.25,"ADDRESS":"南工街３２３巷６號","OBJECTID":401342},"geometry":{"x":171779.77000000048,"y":2546013.2500000019}},{"attributes":{"ID":401367,"DIS_CODE":0,"TOWNNAME":"永康區","LI":"安康里","LIN":"11鄰","STREET":"中華路","SECT":" ","MAREA":" ","LANE":"６１９巷","ALLEY":" ","HOUSE_NO":"２７號之１","E_COORD97":170972.45999999999,"N_COORD97":2546050.79,"ADDRESS":"中華路６１９巷２７號之１","OBJECTID":401343},"geometry":{"x":170972.45999999996,"y":2546050.7899999991}},{"attributes":{"ID":401368,"DIS_CODE":0,"TOWNNAME":"永康區","LI":"三民里","LIN":"11鄰","STREET":"和平路","SECT":" ","MAREA":" ","LANE":"２３８巷","ALLEY":" ","HOUSE_NO":"１０號","E_COORD97":174826.04999999999,"N_COORD97":2550744.4900000002,"ADDRESS":"和平路２３８巷１０號","OBJECTID":401344},"geometry":{"x":174826.05000000075,"y":2550744.4900000039}},{"attributes":{"ID":401369,"DIS_CODE":0,"TOWNNAME":"永康區","LI":"三民里","LIN":"11鄰","STREET":"和平路","SECT":" ","MAREA":" ","LANE":"２１２巷","ALLEY":" ","HOUSE_NO":"９號","E_COORD97":174830.79000000001,"N_COORD97":2550679.75,"ADDRESS":"和平路２１２巷９號","OBJECTID":401345},"geometry":{"x":174830.79000000004,"y":2550679.75}},{"attributes":{"ID":401370,"DIS_CODE":0,"TOWNNAME":"永康區","LI":"安康里","LIN":"11鄰","STREET":"中華路","SECT":" ","MAREA":" ","LANE":"６１９巷","ALLEY":" ","HOUSE_NO":"２９號之２","E_COORD97":170967.39000000001,"N_COORD97":2546048.29,"ADDRESS":"中華路６１９巷２９號之２","OBJECTID":401346},"geometry":{"x":170967.3900000006,"y":2546048.2899999991}},{"attributes":{"ID":401371,"DIS_CODE":0,"TOWNNAME":"永康區","LI":"安康里","LIN":"11鄰","STREET":"中華路","SECT":" ","MAREA":" ","LANE":"６１９巷","ALLEY":" ","HOUSE_NO":"２５號","E_COORD97":170979.01999999999,"N_COORD97":2546053.9900000002,"ADDRESS":"中華路６１９巷２５號","OBJECTID":401347},"geometry":{"x":170979.01999999955,"y":2546053.9900000002}},{"attributes":{"ID":401372,"DIS_CODE":0,"TOWNNAME":"永康區","LI":"三合里","LIN":"11鄰","STREET":"南工街","SECT":" ","MAREA":" ","LANE":"２４７巷","ALLEY":" ","HOUSE_NO":"８４號","E_COORD97":171952.35000000001,"N_COORD97":2545717.75,"ADDRESS":"南工街２４７巷８４號","OBJECTID":401348},"geometry":{"x":171952.35000000056,"y":2545717.7500000037}},{"attributes":{"ID":401373,"DIS_CODE":0,"TOWNNAME":"永康區","LI":"三合里","LIN":"11鄰","STREET":"南工街","SECT":" ","MAREA":" ","LANE":"２４７巷","ALLEY":" ","HOUSE_NO":"８２號","E_COORD97":171952.19,"N_COORD97":2545722,"ADDRESS":"南工街２４７巷８２號","OBJECTID":401349},"geometry":{"x":171952.19000000134,"y":2545722}},{"attributes":{"ID":401374,"DIS_CODE":0,"TOWNNAME":"永康區","LI":"三民里","LIN":"11鄰","STREET":"和平路","SECT":" ","MAREA":" ","LANE":"２５８巷","ALLEY":" ","HOUSE_NO":"５４號","E_COORD97":174953,"N_COORD97":2550713.8700000001,"ADDRESS":"和平路２５８巷５４號","OBJECTID":401350},"geometry":{"x":174953,"y":2550713.870000001}},{"attributes":{"ID":401375,"DIS_CODE":0,"TOWNNAME":"永康區","LI":"三民里","LIN":"11鄰","STREET":"和平路","SECT":" ","MAREA":" ","LANE":"２３０巷","ALLEY":" ","HOUSE_NO":"５號","E_COORD97":174782.92000000001,"N_COORD97":2550702.2599999998,"ADDRESS":"和平路２３０巷５號","OBJECTID":401351},"geometry":{"x":174782.92000000086,"y":2550702.2600000016}},{"attributes":{"ID":401376,"DIS_CODE":0,"TOWNNAME":"永康區","LI":"三合里","LIN":"5鄰","STREET":"南工街","SECT":" ","MAREA":" ","LANE":"８２巷","ALLEY":" ","HOUSE_NO":"９號","E_COORD97":172134.94,"N_COORD97":2545694,"ADDRESS":"南工街８２巷９號","OBJECTID":401352},"geometry":{"x":172134.94000000041,"y":2545694.0000000019}},{"attributes":{"ID":401377,"DIS_CODE":0,"TOWNNAME":"永康區","LI":"大橋里","LIN":"18鄰","STREET":"大橋一街","SECT":" ","MAREA":" ","LANE":"１３９巷","ALLEY":" ","HOUSE_NO":"５８號","E_COORD97":170962.85000000001,"N_COORD97":2546653.25,"ADDRESS":"大橋一街１３９巷５８號","OBJECTID":401353},"geometry":{"x":170962.84999999963,"y":2546653.2499999981}},{"attributes":{"ID":401378,"DIS_CODE":0,"TOWNNAME":"永康區","LI":"大橋里","LIN":"14鄰","STREET":"大橋一街","SECT":" ","MAREA":" ","LANE":"７３巷","ALLEY":" ","HOUSE_NO":"５５號","E_COORD97":170809.17999999999,"N_COORD97":2546521,"ADDRESS":"大橋一街７３巷５５號","OBJECTID":401354},"geometry":{"x":170809.18000000063,"y":2546521.0000000019}},{"attributes":{"ID":401379,"DIS_CODE":0,"TOWNNAME":"永康區","LI":"大橋里","LIN":"7鄰","STREET":"大橋三街","SECT":" ","MAREA":" ","LANE":"１９９巷","ALLEY":" ","HOUSE_NO":"６５號","E_COORD97":170932.67000000001,"N_COORD97":2546894.8999999999,"ADDRESS":"大橋三街１９９巷６５號","OBJECTID":401355},"geometry":{"x":170932.66999999993,"y":2546894.9000000022}},{"attributes":{"ID":401380,"DIS_CODE":0,"TOWNNAME":"永康區","LI":"三合里","LIN":"7鄰","STREET":"南工街","SECT":" ","MAREA":" ","LANE":"７１巷","ALLEY":" ","HOUSE_NO":"７號","E_COORD97":172065.63,"N_COORD97":2545646.4900000002,"ADDRESS":"南工街７１巷７號","OBJECTID":401356},"geometry":{"x":172065.63000000082,"y":2545646.4900000021}},{"attributes":{"ID":401381,"DIS_CODE":0,"TOWNNAME":"永康區","LI":"大橋里","LIN":"23鄰","STREET":"大橋一街","SECT":" ","MAREA":" ","LANE":"１８１巷","ALLEY":" ","HOUSE_NO":"２４號","E_COORD97":171125.37,"N_COORD97":2546604.4900000002,"ADDRESS":"大橋一街１８１巷２４號","OBJECTID":401357},"geometry":{"x":171125.37000000104,"y":2546604.4899999984}},{"attributes":{"ID":401382,"DIS_CODE":0,"TOWNNAME":"永康區","LI":"安康里","LIN":"11鄰","STREET":"中華路","SECT":" ","MAREA":" ","LANE":"６１９巷","ALLEY":" ","HOUSE_NO":"３１號","E_COORD97":170956.95999999999,"N_COORD97":2546042.2400000002,"ADDRESS":"中華路６１９巷３１號","OBJECTID":401358},"geometry":{"x":170956.96000000089,"y":2546042.2400000002}},{"attributes":{"ID":401383,"DIS_CODE":0,"TOWNNAME":"永康區","LI":"三民里","LIN":"11鄰","STREET":"和平路","SECT":" ","MAREA":" ","LANE":"２５８巷","ALLEY":" ","HOUSE_NO":"６號","E_COORD97":174764.01000000001,"N_COORD97":2550807.2400000002,"ADDRESS":"和平路２５８巷６號","OBJECTID":401359},"geometry":{"x":174764.01000000071,"y":2550807.2400000039}},{"attributes":{"ID":401384,"DIS_CODE":0,"TOWNNAME":"永康區","LI":"三民里","LIN":"11鄰","STREET":"和平路","SECT":" ","MAREA":" ","LANE":"２３８巷","ALLEY":" ","HOUSE_NO":"１號","E_COORD97":174759.92999999999,"N_COORD97":2550748.9900000002,"ADDRESS":"和平路２３８巷１號","OBJECTID":401360},"geometry":{"x":174759.9299999997,"y":2550748.9900000021}},{"attributes":{"ID":401385,"DIS_CODE":0,"TOWNNAME":"永康區","LI":"安康里","LIN":"11鄰","STREET":"中華路","SECT":" ","MAREA":" ","LANE":"６１９巷","ALLEY":" ","HOUSE_NO":"３１號之２","E_COORD97":170959.23000000001,"N_COORD97":2546042.29,"ADDRESS":"中華路６１９巷３１號之２","OBJECTID":401361},"geometry":{"x":170959.23000000138,"y":2546042.290000001}},{"attributes":{"ID":401386,"DIS_CODE":0,"TOWNNAME":"永康區","LI":"三民里","LIN":"11鄰","STREET":"和平路","SECT":" ","MAREA":" ","LANE":"２１２巷","ALLEY":" ","HOUSE_NO":"７號之３","E_COORD97":174818.23999999999,"N_COORD97":2550675.04,"ADDRESS":"和平路２１２巷７號之３","OBJECTID":401362},"geometry":{"x":174818.24000000115,"y":2550675.0400000028}},{"attributes":{"ID":401387,"DIS_CODE":0,"TOWNNAME":"永康區","LI":"三民里","LIN":"11鄰","STREET":"和平路","SECT":" ","MAREA":" ","LANE":"２１２巷","ALLEY":" ","HOUSE_NO":"２３號","E_COORD97":174892.87,"N_COORD97":2550721.9900000002,"ADDRESS":"和平路２１２巷２３號","OBJECTID":401363},"geometry":{"x":174892.87000000011,"y":2550721.9900000021}},{"attributes":{"ID":401388,"DIS_CODE":0,"TOWNNAME":"永康區","LI":"三民里","LIN":"11鄰","STREET":"和平路","SECT":" ","MAREA":" ","LANE":"２１２巷","ALLEY":" ","HOUSE_NO":"７號之１","E_COORD97":174810.38,"N_COORD97":2550672.2999999998,"ADDRESS":"和平路２１２巷７號之１","OBJECTID":401364},"geometry":{"x":174810.38000000082,"y":2550672.3000000026}},{"attributes":{"ID":401389,"DIS_CODE":0,"TOWNNAME":"永康區","LI":"三民里","LIN":"11鄰","STREET":"和平路","SECT":" ","MAREA":" ","LANE":"２１２巷","ALLEY":" ","HOUSE_NO":"５號","E_COORD97":174840.25,"N_COORD97":2550651.5499999998,"ADDRESS":"和平路２１２巷５號","OBJECTID":401365},"geometry":{"x":174840.25000000093,"y":2550651.5500000007}},{"attributes":{"ID":401390,"DIS_CODE":0,"TOWNNAME":"永康區","LI":"安康里","LIN":"11鄰","STREET":"中華路","SECT":" ","MAREA":" ","LANE":"６１９巷","ALLEY":" ","HOUSE_NO":"３１號之１","E_COORD97":170959.10000000001,"N_COORD97":2546042.29,"ADDRESS":"中華路６１９巷３１號之１","OBJECTID":401366},"geometry":{"x":170959.10000000056,"y":2546042.290000001}},{"attributes":{"ID":401391,"DIS_CODE":0,"TOWNNAME":"永康區","LI":"三民里","LIN":"11鄰","STREET":"和平路","SECT":" ","MAREA":" ","LANE":"２１２巷","ALLEY":" ","HOUSE_NO":"２７號","E_COORD97":174846.48999999999,"N_COORD97":2550739.3500000001,"ADDRESS":"和平路２１２巷２７號","OBJECTID":401367},"geometry":{"x":174846.49000000022,"y":2550739.3500000015}},{"attributes":{"ID":401392,"DIS_CODE":0,"TOWNNAME":"永康區","LI":"三民里","LIN":"11鄰","STREET":"和平路","SECT":" ","MAREA":" ","LANE":"２１２巷","ALLEY":" ","HOUSE_NO":"１５號","E_COORD97":174852.70999999999,"N_COORD97":2550699.3900000001,"ADDRESS":"和平路２１２巷１５號","OBJECTID":401368},"geometry":{"x":174852.71000000089,"y":2550699.3900000025}},{"attributes":{"ID":401393,"DIS_CODE":0,"TOWNNAME":"永康區","LI":"大灣里","LIN":"4鄰","STREET":"大同街","SECT":" ","MAREA":" ","LANE":"２１８巷","ALLEY":" ","HOUSE_NO":"２０號","E_COORD97":174874.48999999999,"N_COORD97":2545669.6299999999,"ADDRESS":"大同街２１８巷２０號","OBJECTID":401369},"geometry":{"x":174874.49000000115,"y":2545669.629999999}},{"attributes":{"ID":401394,"DIS_CODE":0,"TOWNNAME":"永康區","LI":"崑山里","LIN":"11鄰","STREET":"大灣路","SECT":" ","MAREA":" ","LANE":"１０４４巷","ALLEY":" ","HOUSE_NO":"１６號","E_COORD97":173381.91,"N_COORD97":2544434.9900000002,"ADDRESS":"大灣路１０４４巷１６號","OBJECTID":401370},"geometry":{"x":173381.91000000015,"y":2544434.9900000039}},{"attributes":{"ID":401395,"DIS_CODE":0,"TOWNNAME":"永康區","LI":"安康里","LIN":"11鄰","STREET":"中華路","SECT":" ","MAREA":" ","LANE":"６１９巷","ALLEY":" ","HOUSE_NO":"２９號之１","E_COORD97":170967.26000000001,"N_COORD97":2546048.29,"ADDRESS":"中華路６１９巷２９號之１","OBJECTID":401371},"geometry":{"x":170967.25999999978,"y":2546048.2899999991}},{"attributes":{"ID":401396,"DIS_CODE":0,"TOWNNAME":"永康區","LI":"三民里","LIN":"11鄰","STREET":"和平路","SECT":" ","MAREA":" ","LANE":"２１２巷","ALLEY":" ","HOUSE_NO":"１１號","E_COORD97":174839.26999999999,"N_COORD97":2550698.1499999999,"ADDRESS":"和平路２１２巷１１號","OBJECTID":401372},"geometry":{"x":174839.27000000142,"y":2550698.1500000004}},{"attributes":{"ID":401397,"DIS_CODE":0,"TOWNNAME":"永康區","LI":"三合里","LIN":"11鄰","STREET":"南工街","SECT":" ","MAREA":" ","LANE":"２４７巷","ALLEY":" ","HOUSE_NO":"６２號","E_COORD97":171950.29999999999,"N_COORD97":2545784.25,"ADDRESS":"南工街２４７巷６２號","OBJECTID":401373},"geometry":{"x":171950.29999999981,"y":2545784.25}},{"attributes":{"ID":401398,"DIS_CODE":0,"TOWNNAME":"永康區","LI":"三民里","LIN":"11鄰","STREET":"和平路","SECT":" ","MAREA":" ","LANE":"２１２巷","ALLEY":" ","HOUSE_NO":"２１號","E_COORD97":174870.62,"N_COORD97":2550723.9100000001,"ADDRESS":"和平路２１２巷２１號","OBJECTID":401374},"geometry":{"x":174870.62000000011,"y":2550723.9100000001}},{"attributes":{"ID":401399,"DIS_CODE":0,"TOWNNAME":"永康區","LI":"三民里","LIN":"11鄰","STREET":"和平路","SECT":" ","MAREA":" ","LANE":"２５８巷","ALLEY":" ","HOUSE_NO":"４號","E_COORD97":174759.45000000001,"N_COORD97":2550806.9900000002,"ADDRESS":"和平路２５８巷４號","OBJECTID":401375},"geometry":{"x":174759.45000000112,"y":2550806.9900000021}},{"attributes":{"ID":401400,"DIS_CODE":0,"TOWNNAME":"永康區","LI":"二王里","LIN":"32鄰","STREET":"中山南路","SECT":" ","MAREA":" ","LANE":"４９０巷","ALLEY":" ","HOUSE_NO":"２７號之２","E_COORD97":172179.56,"N_COORD97":2546355.02,"ADDRESS":"中山南路４９０巷２７號之２","OBJECTID":401376},"geometry":{"x":172179.56000000052,"y":2546355.0199999996}},{"attributes":{"ID":401401,"DIS_CODE":0,"TOWNNAME":"永康區","LI":"大橋里","LIN":"24鄰","STREET":"大橋一街","SECT":" ","MAREA":" ","LANE":"２４７巷","ALLEY":" ","HOUSE_NO":"５３號","E_COORD97":171198.45000000001,"N_COORD97":2546783.9399999999,"ADDRESS":"大橋一街２４７巷５３號","OBJECTID":401377},"geometry":{"x":171198.45000000019,"y":2546783.9400000032}},{"attributes":{"ID":401402,"DIS_CODE":0,"TOWNNAME":"永康區","LI":"三民里","LIN":"11鄰","STREET":"和平路","SECT":" ","MAREA":" ","LANE":"２４６巷","ALLEY":" ","HOUSE_NO":"３號","E_COORD97":174768.01999999999,"N_COORD97":2550780.5,"ADDRESS":"和平路２４６巷３號","OBJECTID":401378},"geometry":{"x":174768.02000000142,"y":2550780.5}},{"attributes":{"ID":401403,"DIS_CODE":0,"TOWNNAME":"永康區","LI":"三民里","LIN":"11鄰","STREET":"和平路","SECT":" ","MAREA":" ","LANE":"２３０巷","ALLEY":" ","HOUSE_NO":"９號","E_COORD97":174815.14999999999,"N_COORD97":2550708.27,"ADDRESS":"和平路２３０巷９號","OBJECTID":401379},"geometry":{"x":174815.15000000037,"y":2550708.2700000014}},{"attributes":{"ID":401404,"DIS_CODE":0,"TOWNNAME":"安南區","LI":"幸福里","LIN":"11鄰","STREET":"府安路","SECT":"六段","MAREA":" ","LANE":"１０３巷","ALLEY":" ","HOUSE_NO":"１０號","E_COORD97":166726.29999999999,"N_COORD97":2546528.8700000001,"ADDRESS":"府安路六段１０３巷１０號","OBJECTID":401380},"geometry":{"x":166726.30000000075,"y":2546528.8700000029}},{"attributes":{"ID":401405,"DIS_CODE":0,"TOWNNAME":"安南區","LI":"幸福里","LIN":"11鄰","STREET":"府安路","SECT":"六段","MAREA":" ","LANE":"１０３巷","ALLEY":" ","HOUSE_NO":"１２號","E_COORD97":166725.48999999999,"N_COORD97":2546534.2000000002,"ADDRESS":"府安路六段１０３巷１２號","OBJECTID":401381},"geometry":{"x":166725.49000000115,"y":2546534.1999999974}},{"attributes":{"ID":401406,"DIS_CODE":0,"TOWNNAME":"安南區","LI":"幸福里","LIN":"11鄰","STREET":"府安路","SECT":"六段","MAREA":" ","LANE":"１０３巷","ALLEY":" ","HOUSE_NO":"１４號","E_COORD97":166724.91,"N_COORD97":2546538.9399999999,"ADDRESS":"府安路六段１０３巷１４號","OBJECTID":401382},"geometry":{"x":166724.91000000015,"y":2546538.9399999995}},{"attributes":{"ID":401407,"DIS_CODE":0,"TOWNNAME":"安南區","LI":"幸福里","LIN":"11鄰","STREET":"府安路","SECT":"六段","MAREA":" ","LANE":"１０３巷","ALLEY":" ","HOUSE_NO":"１６號","E_COORD97":166724.20999999999,"N_COORD97":2546542.96,"ADDRESS":"府安路六段１０３巷１６號","OBJECTID":401383},"geometry":{"x":166724.21000000089,"y":2546542.9600000009}},{"attributes":{"ID":401408,"DIS_CODE":0,"TOWNNAME":"安南區","LI":"幸福里","LIN":"11鄰","STREET":"府安路","SECT":"六段","MAREA":" ","LANE":"１０３巷","ALLEY":" ","HOUSE_NO":"１８號","E_COORD97":166722.47,"N_COORD97":2546548.1600000001,"ADDRESS":"府安路六段１０３巷１８號","OBJECTID":401384},"geometry":{"x":166722.46999999974,"y":2546548.1600000001}},{"attributes":{"ID":401409,"DIS_CODE":0,"TOWNNAME":"安南區","LI":"幸福里","LIN":"11鄰","STREET":"府安路","SECT":"六段","MAREA":" ","LANE":"１０３巷","ALLEY":" ","HOUSE_NO":"２０號","E_COORD97":166721.78,"N_COORD97":2546553.1400000001,"ADDRESS":"府安路六段１０３巷２０號","OBJECTID":401385},"geometry":{"x":166721.78000000119,"y":2546553.1400000043}},{"attributes":{"ID":401410,"DIS_CODE":0,"TOWNNAME":"安南區","LI":"幸福里","LIN":"11鄰","STREET":"府安路","SECT":"六段","MAREA":" ","LANE":"１０３巷","ALLEY":" ","HOUSE_NO":"２２號","E_COORD97":166721.31,"N_COORD97":2546557.2999999998,"ADDRESS":"府安路六段１０３巷２２號","OBJECTID":401386},"geometry":{"x":166721.31000000052,"y":2546557.3000000026}},{"attributes":{"ID":401411,"DIS_CODE":0,"TOWNNAME":"安南區","LI":"幸福里","LIN":"11鄰","STREET":"府安路","SECT":"六段","MAREA":" ","LANE":"１０３巷","ALLEY":" ","HOUSE_NO":"２４號","E_COORD97":166720.26999999999,"N_COORD97":2546562.3999999999,"ADDRESS":"府安路六段１０３巷２４號","OBJECTID":401387},"geometry":{"x":166720.26999999955,"y":2546562.4000000022}},{"attributes":{"ID":401412,"DIS_CODE":0,"TOWNNAME":"安南區","LI":"幸福里","LIN":"11鄰","STREET":"府安路","SECT":"六段","MAREA":" ","LANE":"１０３巷","ALLEY":" ","HOUSE_NO":"２６號","E_COORD97":166719.45999999999,"N_COORD97":2546566.79,"ADDRESS":"府安路六段１０３巷２６號","OBJECTID":401388},"geometry":{"x":166719.45999999996,"y":2546566.7899999991}},{"attributes":{"ID":401413,"DIS_CODE":0,"TOWNNAME":"安南區","LI":"幸福里","LIN":"11鄰","STREET":"府安路","SECT":"六段","MAREA":" ","LANE":"１０３巷","ALLEY":" ","HOUSE_NO":"２８號","E_COORD97":166718.63,"N_COORD97":2546571.7200000002,"ADDRESS":"府安路六段１０３巷２８號","OBJECTID":401389},"geometry":{"x":166718.62999999989,"y":2546571.7200000007}},{"attributes":{"ID":401414,"DIS_CODE":0,"TOWNNAME":"安南區","LI":"幸福里","LIN":"11鄰","STREET":"府安路","SECT":"六段","MAREA":" ","LANE":"１０３巷","ALLEY":" ","HOUSE_NO":"２號","E_COORD97":166730.23999999999,"N_COORD97":2546510.5899999999,"ADDRESS":"府安路六段１０３巷２號","OBJECTID":401390},"geometry":{"x":166730.23999999929,"y":2546510.5899999999}},{"attributes":{"ID":401415,"DIS_CODE":0,"TOWNNAME":"安南區","LI":"幸福里","LIN":"11鄰","STREET":"府安路","SECT":"六段","MAREA":" ","LANE":"１０３巷","ALLEY":" ","HOUSE_NO":"３２號","E_COORD97":166716.32000000001,"N_COORD97":2546580.3999999999,"ADDRESS":"府安路六段１０３巷３２號","OBJECTID":401391},"geometry":{"x":166716.32000000216,"y":2546580.4000000004}},{"attributes":{"ID":401416,"DIS_CODE":0,"TOWNNAME":"永康區","LI":"中興里","LIN":"5鄰","STREET":"中華路","SECT":" ","MAREA":" ","LANE":"２１４巷","ALLEY":" ","HOUSE_NO":"７４號","E_COORD97":171893.84,"N_COORD97":2545060.52,"ADDRESS":"中華路２１４巷７４號","OBJECTID":401392},"geometry":{"x":171893.83999999985,"y":2545060.5199999996}},{"attributes":{"ID":401417,"DIS_CODE":0,"TOWNNAME":"永康區","LI":"五王里","LIN":"26鄰","STREET":"五福街","SECT":" ","MAREA":" ","LANE":"８２巷","ALLEY":" ","HOUSE_NO":"１５號","E_COORD97":171509.17999999999,"N_COORD97":2545933.25,"ADDRESS":"五福街８２巷１５號","OBJECTID":401393},"geometry":{"x":171509.18000000063,"y":2545933.25}},{"attributes":{"ID":401418,"DIS_CODE":0,"TOWNNAME":"永康區","LI":"中興里","LIN":"25鄰","STREET":"中華路","SECT":" ","MAREA":" ","LANE":"２１６巷","ALLEY":" ","HOUSE_NO":"３號之５","E_COORD97":171734.64999999999,"N_COORD97":2545152.04,"ADDRESS":"中華路２１６巷３號之５","OBJECTID":401394},"geometry":{"x":171734.65000000037,"y":2545152.0400000028}},{"attributes":{"ID":401419,"DIS_CODE":0,"TOWNNAME":"安南區","LI":"幸福里","LIN":"11鄰","STREET":"府安路","SECT":"六段","MAREA":" ","LANE":"１０３巷","ALLEY":" ","HOUSE_NO":"３８號","E_COORD97":166713.64000000001,"N_COORD97":2546595.3900000001,"ADDRESS":"府安路六段１０３巷３８號","OBJECTID":401395},"geometry":{"x":166713.6400000006,"y":2546595.3899999987}},{"attributes":{"ID":401420,"DIS_CODE":0,"TOWNNAME":"安南區","LI":"幸福里","LIN":"11鄰","STREET":"府安路","SECT":"六段","MAREA":" ","LANE":"１０３巷","ALLEY":" ","HOUSE_NO":"４０號","E_COORD97":166712.60000000001,"N_COORD97":2546599.5499999998,"ADDRESS":"府安路六段１０３巷４０號","OBJECTID":401396},"geometry":{"x":166712.60000000056,"y":2546599.5500000026}},{"attributes":{"ID":401421,"DIS_CODE":0,"TOWNNAME":"安南區","LI":"幸福里","LIN":"11鄰","STREET":"府安路","SECT":"六段","MAREA":" ","LANE":"１０３巷","ALLEY":" ","HOUSE_NO":"４２號","E_COORD97":166712.37,"N_COORD97":2546604.6400000001,"ADDRESS":"府安路六段１０３巷４２號","OBJECTID":401397},"geometry":{"x":166712.37000000197,"y":2546604.6400000025}},{"attributes":{"ID":401422,"DIS_CODE":0,"TOWNNAME":"安南區","LI":"幸福里","LIN":"11鄰","STREET":"府安路","SECT":"六段","MAREA":" ","LANE":"１０３巷","ALLEY":" ","HOUSE_NO":"４４號","E_COORD97":166711.56,"N_COORD97":2546609.5,"ADDRESS":"府安路六段１０３巷４４號","OBJECTID":401398},"geometry":{"x":166711.55999999959,"y":2546609.5}},{"attributes":{"ID":401423,"DIS_CODE":0,"TOWNNAME":"安南區","LI":"幸福里","LIN":"11鄰","STREET":"府安路","SECT":"六段","MAREA":" ","LANE":"１０３巷","ALLEY":" ","HOUSE_NO":"４８號","E_COORD97":166710.39999999999,"N_COORD97":2546618.7599999998,"ADDRESS":"府安路六段１０３巷４８號","OBJECTID":401399},"geometry":{"x":166710.40000000037,"y":2546618.7599999998}},{"attributes":{"ID":401424,"DIS_CODE":0,"TOWNNAME":"安南區","LI":"幸福里","LIN":"11鄰","STREET":"府安路","SECT":"六段","MAREA":" ","LANE":"１０３巷","ALLEY":" ","HOUSE_NO":"４號","E_COORD97":166729.54000000001,"N_COORD97":2546515.1099999999,"ADDRESS":"府安路六段１０３巷４號","OBJECTID":401400},"geometry":{"x":166729.54000000004,"y":2546515.1100000013}}]}