{"displayFieldName":"TOWNNAME","fieldAliases":{"ID":"ID","DIS_CODE":"DIS_CODE","TOWNNAME":"TOWNNAME","LI":"LI","LIN":"LIN","STREET":"STREET","SECT":"SECT","MAREA":"MAREA","LANE":"LANE","ALLEY":"ALLEY","HOUSE_NO":"HOUSE_NO","E_COORD97":"E_COORD97","N_COORD97":"N_COORD97","ADDRESS":"ADDRESS","OBJECTID":"OBJECTID"},"geometryType":"esriGeometryPoint","spatialReference":{"wkid":102443,"latestWkid":3826},"fields":[{"name":"ID","type":"esriFieldTypeDouble","alias":"ID"},{"name":"DIS_CODE","type":"esriFieldTypeInteger","alias":"DIS_CODE"},{"name":"TOWNNAME","type":"esriFieldTypeString","alias":"TOWNNAME","length":8},{"name":"LI","type":"esriFieldTypeString","alias":"LI","length":8},{"name":"LIN","type":"esriFieldTypeString","alias":"LIN","length":12},{"name":"STREET","type":"esriFieldTypeString","alias":"STREET","length":20},{"name":"SECT","type":"esriFieldTypeString","alias":"SECT","length":8},{"name":"MAREA","type":"esriFieldTypeString","alias":"MAREA","length":12},{"name":"LANE","type":"esriFieldTypeString","alias":"LANE","length":10},{"name":"ALLEY","type":"esriFieldTypeString","alias":"ALLEY","length":10},{"name":"HOUSE_NO","type":"esriFieldTypeString","alias":"HOUSE_NO","length":20},{"name":"E_COORD97","type":"esriFieldTypeDouble","alias":"E_COORD97"},{"name":"N_COORD97","type":"esriFieldTypeDouble","alias":"N_COORD97"},{"name":"ADDRESS","type":"esriFieldTypeString","alias":"ADDRESS","length":50},{"name":"OBJECTID","type":"esriFieldTypeOID","alias":"OBJECTID"}],"features":[{"attributes":{"ID":581028,"DIS_CODE":0,"TOWNNAME":"中西區","LI":"建國里","LIN":"9鄰","STREET":"民生路","SECT":"一段","MAREA":" ","LANE":" ","ALLEY":" ","HOUSE_NO":"２０９號","E_COORD97":167934.44,"N_COORD97":2543872.1400000001,"ADDRESS":"民生路一段２０９號","OBJECTID":581001},"geometry":{"x":167934.44000000227,"y":2543872.1400000025}},{"attributes":{"ID":581029,"DIS_CODE":0,"TOWNNAME":"中西區","LI":"建國里","LIN":"9鄰","STREET":"民生路","SECT":"一段","MAREA":" ","LANE":" ","ALLEY":" ","HOUSE_NO":"２１１號","E_COORD97":167930.44,"N_COORD97":2543873.29,"ADDRESS":"民生路一段２１１號","OBJECTID":581002},"geometry":{"x":167930.44000000041,"y":2543873.290000001}},{"attributes":{"ID":581030,"DIS_CODE":0,"TOWNNAME":"中西區","LI":"永福里","LIN":"16鄰","STREET":"民權路","SECT":"二段","MAREA":" ","LANE":" ","ALLEY":" ","HOUSE_NO":"１４８號","E_COORD97":168289.25,"N_COORD97":2543964.48,"ADDRESS":"民權路二段１４８號","OBJECTID":581003},"geometry":{"x":168289.25,"y":2543964.4800000023}},{"attributes":{"ID":581031,"DIS_CODE":0,"TOWNNAME":"中西區","LI":"建國里","LIN":"9鄰","STREET":"民生路","SECT":"一段","MAREA":" ","LANE":" ","ALLEY":" ","HOUSE_NO":"２１３號","E_COORD97":167922.70999999999,"N_COORD97":2543876.4300000002,"ADDRESS":"民生路一段２１３號","OBJECTID":581004},"geometry":{"x":167922.71000000089,"y":2543876.4300000016}},{"attributes":{"ID":581032,"DIS_CODE":0,"TOWNNAME":"中西區","LI":"建國里","LIN":"9鄰","STREET":"民生路","SECT":"一段","MAREA":" ","LANE":" ","ALLEY":" ","HOUSE_NO":"２１５號","E_COORD97":167918.42000000001,"N_COORD97":2543877,"ADDRESS":"民生路一段２１５號","OBJECTID":581005},"geometry":{"x":167918.41999999993,"y":2543877}},{"attributes":{"ID":581033,"DIS_CODE":0,"TOWNNAME":"中西區","LI":"建國里","LIN":"9鄰","STREET":"西門路","SECT":"二段","MAREA":" ","LANE":" ","ALLEY":" ","HOUSE_NO":"１６６號","E_COORD97":167898.81,"N_COORD97":2543842.5699999998,"ADDRESS":"西門路二段１６６號","OBJECTID":581006},"geometry":{"x":167898.81000000145,"y":2543842.5700000022}},{"attributes":{"ID":581034,"DIS_CODE":0,"TOWNNAME":"中西區","LI":"建國里","LIN":"9鄰","STREET":"西門路","SECT":"二段","MAREA":" ","LANE":" ","ALLEY":" ","HOUSE_NO":"１６８號","E_COORD97":167899.95999999999,"N_COORD97":2543845.8500000001,"ADDRESS":"西門路二段１６８號","OBJECTID":581007},"geometry":{"x":167899.96000000183,"y":2543845.8500000015}},{"attributes":{"ID":581035,"DIS_CODE":0,"TOWNNAME":"中西區","LI":"建國里","LIN":"9鄰","STREET":"西門路","SECT":"二段","MAREA":" ","LANE":" ","ALLEY":" ","HOUSE_NO":"１７０號","E_COORD97":167900.95999999999,"N_COORD97":2543849.5699999998,"ADDRESS":"西門路二段１７０號","OBJECTID":581008},"geometry":{"x":167900.95999999996,"y":2543849.5700000003}},{"attributes":{"ID":581036,"DIS_CODE":0,"TOWNNAME":"中西區","LI":"建國里","LIN":"9鄰","STREET":"西門路","SECT":"二段","MAREA":" ","LANE":" ","ALLEY":" ","HOUSE_NO":"１７２號","E_COORD97":167902.25,"N_COORD97":2543853.4300000002,"ADDRESS":"西門路二段１７２號","OBJECTID":581009},"geometry":{"x":167902.25,"y":2543853.4299999997}},{"attributes":{"ID":581037,"DIS_CODE":0,"TOWNNAME":"中西區","LI":"建國里","LIN":"9鄰","STREET":"西門路","SECT":"二段","MAREA":" ","LANE":" ","ALLEY":" ","HOUSE_NO":"１７６號","E_COORD97":167906.67999999999,"N_COORD97":2543862.8500000001,"ADDRESS":"西門路二段１７６號","OBJECTID":581010},"geometry":{"x":167906.68000000156,"y":2543862.8500000015}},{"attributes":{"ID":581038,"DIS_CODE":0,"TOWNNAME":"中西區","LI":"建國里","LIN":"9鄰","STREET":"西門路","SECT":"二段","MAREA":" ","LANE":" ","ALLEY":" ","HOUSE_NO":"１８０號","E_COORD97":167907.82999999999,"N_COORD97":2543868.1400000001,"ADDRESS":"西門路二段１８０號","OBJECTID":581011},"geometry":{"x":167907.83000000194,"y":2543868.1400000043}},{"attributes":{"ID":581039,"DIS_CODE":0,"TOWNNAME":"東區","LI":"中西里","LIN":"3鄰","STREET":"勝利路","SECT":" ","MAREA":" ","LANE":" ","ALLEY":" ","HOUSE_NO":"６號","E_COORD97":169780.29999999999,"N_COORD97":2543120.77,"ADDRESS":"勝利路６號","OBJECTID":581012},"geometry":{"x":169780.29999999981,"y":2543120.7700000014}},{"attributes":{"ID":581040,"DIS_CODE":0,"TOWNNAME":"中西區","LI":"建國里","LIN":"9鄰","STREET":"西門路","SECT":"二段","MAREA":" ","LANE":" ","ALLEY":" ","HOUSE_NO":"１８２號","E_COORD97":167908.69,"N_COORD97":2543871.1400000001,"ADDRESS":"西門路二段１８２號","OBJECTID":581013},"geometry":{"x":167908.69000000041,"y":2543871.1399999987}},{"attributes":{"ID":581041,"DIS_CODE":0,"TOWNNAME":"中西區","LI":"建國里","LIN":"9鄰","STREET":"西門路","SECT":"二段","MAREA":" ","LANE":" ","ALLEY":" ","HOUSE_NO":"１８４號","E_COORD97":167909.54999999999,"N_COORD97":2543874.5699999998,"ADDRESS":"西門路二段１８４號","OBJECTID":581014},"geometry":{"x":167909.55000000075,"y":2543874.5700000003}},{"attributes":{"ID":581042,"DIS_CODE":0,"TOWNNAME":"中西區","LI":"建國里","LIN":"9鄰","STREET":"西門路","SECT":"二段","MAREA":" ","LANE":" ","ALLEY":" ","HOUSE_NO":"１８６號","E_COORD97":167910.69,"N_COORD97":2543878.29,"ADDRESS":"西門路二段１８６號","OBJECTID":581015},"geometry":{"x":167910.69000000227,"y":2543878.2899999991}},{"attributes":{"ID":581043,"DIS_CODE":0,"TOWNNAME":"中西區","LI":"永福里","LIN":"16鄰","STREET":"民權路","SECT":"二段","MAREA":" ","LANE":" ","ALLEY":" ","HOUSE_NO":"１５０號","E_COORD97":168285.07999999999,"N_COORD97":2543966.73,"ADDRESS":"民權路二段１５０號","OBJECTID":581016},"geometry":{"x":168285.08000000007,"y":2543966.7300000023}},{"attributes":{"ID":581044,"DIS_CODE":0,"TOWNNAME":"中西區","LI":"永福里","LIN":"16鄰","STREET":"民權路","SECT":"二段","MAREA":" ","LANE":" ","ALLEY":" ","HOUSE_NO":"１５２號","E_COORD97":168280.10999999999,"N_COORD97":2543968.1000000001,"ADDRESS":"民權路二段１５２號","OBJECTID":581017},"geometry":{"x":168280.11000000034,"y":2543968.0999999996}},{"attributes":{"ID":581045,"DIS_CODE":0,"TOWNNAME":"中西區","LI":"永福里","LIN":"16鄰","STREET":"民權路","SECT":"二段","MAREA":" ","LANE":" ","ALLEY":" ","HOUSE_NO":"１５４號","E_COORD97":168275.26999999999,"N_COORD97":2543969.46,"ADDRESS":"民權路二段１５４號","OBJECTID":581018},"geometry":{"x":168275.26999999955,"y":2543969.4600000028}},{"attributes":{"ID":581046,"DIS_CODE":0,"TOWNNAME":"中西區","LI":"永福里","LIN":"16鄰","STREET":"民權路","SECT":"二段","MAREA":" ","LANE":" ","ALLEY":" ","HOUSE_NO":"１５６號","E_COORD97":168271.42000000001,"N_COORD97":2543970.7000000002,"ADDRESS":"民權路二段１５６號","OBJECTID":581019},"geometry":{"x":168271.42000000179,"y":2543970.6999999993}},{"attributes":{"ID":581047,"DIS_CODE":0,"TOWNNAME":"中西區","LI":"永福里","LIN":"16鄰","STREET":"民權路","SECT":"二段","MAREA":" ","LANE":" ","ALLEY":" ","HOUSE_NO":"１５８號","E_COORD97":168265.57999999999,"N_COORD97":2543972.9399999999,"ADDRESS":"民權路二段１５８號","OBJECTID":581020},"geometry":{"x":168265.58000000101,"y":2543972.9399999995}},{"attributes":{"ID":581048,"DIS_CODE":0,"TOWNNAME":"中西區","LI":"永福里","LIN":"16鄰","STREET":"民權路","SECT":"二段","MAREA":" ","LANE":" ","ALLEY":" ","HOUSE_NO":"１６０號","E_COORD97":168260.85999999999,"N_COORD97":2543975.29,"ADDRESS":"民權路二段１６０號","OBJECTID":581021},"geometry":{"x":168260.86000000127,"y":2543975.290000001}},{"attributes":{"ID":581049,"DIS_CODE":0,"TOWNNAME":"中西區","LI":"永福里","LIN":"16鄰","STREET":"民權路","SECT":"二段","MAREA":" ","LANE":" ","ALLEY":" ","HOUSE_NO":"１６２號","E_COORD97":168256.76999999999,"N_COORD97":2543976.29,"ADDRESS":"民權路二段１６２號","OBJECTID":581022},"geometry":{"x":168256.77000000142,"y":2543976.2899999991}},{"attributes":{"ID":581050,"DIS_CODE":0,"TOWNNAME":"中西區","LI":"永福里","LIN":"16鄰","STREET":"民權路","SECT":"二段","MAREA":" ","LANE":" ","ALLEY":" ","HOUSE_NO":"１６４號","E_COORD97":168252.79000000001,"N_COORD97":2543977.1499999999,"ADDRESS":"民權路二段１６４號","OBJECTID":581023},"geometry":{"x":168252.79000000097,"y":2543977.1500000022}},{"attributes":{"ID":581051,"DIS_CODE":0,"TOWNNAME":"中西區","LI":"永福里","LIN":"16鄰","STREET":"民權路","SECT":"二段","MAREA":" ","LANE":" ","ALLEY":" ","HOUSE_NO":"１６６號","E_COORD97":168249.44,"N_COORD97":2543979.0099999998,"ADDRESS":"民權路二段１６６號","OBJECTID":581024},"geometry":{"x":168249.44000000041,"y":2543979.0099999998}},{"attributes":{"ID":581052,"DIS_CODE":0,"TOWNNAME":"中西區","LI":"永福里","LIN":"16鄰","STREET":"民權路","SECT":"二段","MAREA":" ","LANE":" ","ALLEY":" ","HOUSE_NO":"１６８號","E_COORD97":168246.07999999999,"N_COORD97":2543979.8799999999,"ADDRESS":"民權路二段１６８號","OBJECTID":581025},"geometry":{"x":168246.08000000007,"y":2543979.8800000027}},{"attributes":{"ID":581053,"DIS_CODE":0,"TOWNNAME":"中西區","LI":"永福里","LIN":"16鄰","STREET":"民權路","SECT":"二段","MAREA":" ","LANE":" ","ALLEY":" ","HOUSE_NO":"１７０號","E_COORD97":168241.60999999999,"N_COORD97":2543981.3700000001,"ADDRESS":"民權路二段１７０號","OBJECTID":581026},"geometry":{"x":168241.6099999994,"y":2543981.370000001}},{"attributes":{"ID":581054,"DIS_CODE":0,"TOWNNAME":"中西區","LI":"永福里","LIN":"16鄰","STREET":"民權路","SECT":"二段","MAREA":" ","LANE":" ","ALLEY":" ","HOUSE_NO":"１７２號","E_COORD97":168238.07999999999,"N_COORD97":2543982.8799999999,"ADDRESS":"民權路二段１７２號","OBJECTID":581027},"geometry":{"x":168238.08000000007,"y":2543982.879999999}},{"attributes":{"ID":581055,"DIS_CODE":0,"TOWNNAME":"中西區","LI":"永福里","LIN":"16鄰","STREET":"民權路","SECT":"二段","MAREA":" ","LANE":" ","ALLEY":" ","HOUSE_NO":"１７４號","E_COORD97":168233.48999999999,"N_COORD97":2543983.8700000001,"ADDRESS":"民權路二段１７４號","OBJECTID":581028},"geometry":{"x":168233.49000000022,"y":2543983.870000001}},{"attributes":{"ID":581056,"DIS_CODE":0,"TOWNNAME":"中西區","LI":"永福里","LIN":"16鄰","STREET":"民權路","SECT":"二段","MAREA":" ","LANE":" ","ALLEY":" ","HOUSE_NO":"１７６號","E_COORD97":168229.39000000001,"N_COORD97":2543985.6000000001,"ADDRESS":"民權路二段１７６號","OBJECTID":581029},"geometry":{"x":168229.3900000006,"y":2543985.5999999996}},{"attributes":{"ID":581057,"DIS_CODE":0,"TOWNNAME":"中西區","LI":"永福里","LIN":"16鄰","STREET":"民權路","SECT":"二段","MAREA":" ","LANE":" ","ALLEY":" ","HOUSE_NO":"１７８號","E_COORD97":168225.29000000001,"N_COORD97":2543986.8500000001,"ADDRESS":"民權路二段１７８號","OBJECTID":581030},"geometry":{"x":168225.29000000097,"y":2543986.8499999996}},{"attributes":{"ID":581058,"DIS_CODE":0,"TOWNNAME":"中西區","LI":"永福里","LIN":"16鄰","STREET":"民權路","SECT":"二段","MAREA":" ","LANE":" ","ALLEY":" ","HOUSE_NO":"１８０號","E_COORD97":168221.31,"N_COORD97":2543988.71,"ADDRESS":"民權路二段１８０號","OBJECTID":581031},"geometry":{"x":168221.31000000052,"y":2543988.7100000009}},{"attributes":{"ID":581059,"DIS_CODE":0,"TOWNNAME":"中西區","LI":"永福里","LIN":"16鄰","STREET":"民權路","SECT":"二段","MAREA":" ","LANE":" ","ALLEY":" ","HOUSE_NO":"１８２號","E_COORD97":168216.84,"N_COORD97":2543989.9500000002,"ADDRESS":"民權路二段１８２號","OBJECTID":581032},"geometry":{"x":168216.83999999985,"y":2543989.950000003}},{"attributes":{"ID":581060,"DIS_CODE":0,"TOWNNAME":"中西區","LI":"永福里","LIN":"16鄰","STREET":"民權路","SECT":"二段","MAREA":" ","LANE":" ","ALLEY":" ","HOUSE_NO":"１８４號","E_COORD97":168212.98999999999,"N_COORD97":2543990.9399999999,"ADDRESS":"民權路二段１８４號","OBJECTID":581033},"geometry":{"x":168212.99000000022,"y":2543990.9400000013}},{"attributes":{"ID":581061,"DIS_CODE":0,"TOWNNAME":"中西區","LI":"永福里","LIN":"16鄰","STREET":"民權路","SECT":"二段","MAREA":" ","LANE":" ","ALLEY":" ","HOUSE_NO":"１８６號","E_COORD97":168209.70999999999,"N_COORD97":2543992.8399999999,"ADDRESS":"民權路二段１８６號","OBJECTID":581034},"geometry":{"x":168209.70999999996,"y":2543992.8400000017}},{"attributes":{"ID":581062,"DIS_CODE":0,"TOWNNAME":"中西區","LI":"永福里","LIN":"16鄰","STREET":"民權路","SECT":"二段","MAREA":" ","LANE":" ","ALLEY":" ","HOUSE_NO":"１８８號","E_COORD97":168204.87,"N_COORD97":2543993.3300000001,"ADDRESS":"民權路二段１８８號","OBJECTID":581035},"geometry":{"x":168204.87000000104,"y":2543993.3300000001}},{"attributes":{"ID":581063,"DIS_CODE":0,"TOWNNAME":"中西區","LI":"永福里","LIN":"16鄰","STREET":"民權路","SECT":"二段","MAREA":" ","LANE":" ","ALLEY":" ","HOUSE_NO":"１９０號","E_COORD97":168202.01000000001,"N_COORD97":2543995.1899999999,"ADDRESS":"民權路二段１９０號","OBJECTID":581036},"geometry":{"x":168202.00999999978,"y":2543995.1900000032}},{"attributes":{"ID":581064,"DIS_CODE":0,"TOWNNAME":"中西區","LI":"永福里","LIN":"16鄰","STREET":"民權路","SECT":"二段","MAREA":" ","LANE":" ","ALLEY":" ","HOUSE_NO":"１９２號","E_COORD97":168197.17000000001,"N_COORD97":2543997.1800000002,"ADDRESS":"民權路二段１９２號","OBJECTID":581037},"geometry":{"x":168197.17000000086,"y":2543997.1800000016}},{"attributes":{"ID":581065,"DIS_CODE":0,"TOWNNAME":"中西區","LI":"永福里","LIN":"16鄰","STREET":"民權路","SECT":"二段","MAREA":" ","LANE":" ","ALLEY":" ","HOUSE_NO":"１９４號","E_COORD97":168194.81,"N_COORD97":2543997.7999999998,"ADDRESS":"民權路二段１９４號","OBJECTID":581038},"geometry":{"x":168194.80999999959,"y":2543997.8000000007}},{"attributes":{"ID":581066,"DIS_CODE":0,"TOWNNAME":"中西區","LI":"永福里","LIN":"16鄰","STREET":"民權路","SECT":"二段","MAREA":" ","LANE":" ","ALLEY":" ","HOUSE_NO":"１９６號","E_COORD97":168190.20999999999,"N_COORD97":2543999.6600000001,"ADDRESS":"民權路二段１９６號","OBJECTID":581039},"geometry":{"x":168190.21000000089,"y":2543999.6600000039}},{"attributes":{"ID":581067,"DIS_CODE":0,"TOWNNAME":"中西區","LI":"永福里","LIN":"16鄰","STREET":"民權路","SECT":"二段","MAREA":" ","LANE":" ","ALLEY":" ","HOUSE_NO":"１９８號","E_COORD97":168185.23999999999,"N_COORD97":2544000.3999999999,"ADDRESS":"民權路二段１９８號","OBJECTID":581040},"geometry":{"x":168185.24000000115,"y":2544000.4000000004}},{"attributes":{"ID":581068,"DIS_CODE":0,"TOWNNAME":"中西區","LI":"永福里","LIN":"16鄰","STREET":"民權路","SECT":"二段","MAREA":" ","LANE":" ","ALLEY":" ","HOUSE_NO":"２００號","E_COORD97":168181.39000000001,"N_COORD97":2544002.5099999998,"ADDRESS":"民權路二段２００號","OBJECTID":581041},"geometry":{"x":168181.38999999873,"y":2544002.5099999998}},{"attributes":{"ID":581069,"DIS_CODE":0,"TOWNNAME":"永康區","LI":"龍潭里","LIN":"16鄰","STREET":"龍橋街","SECT":" ","MAREA":" ","LANE":" ","ALLEY":" ","HOUSE_NO":"２４號","E_COORD97":174862.59,"N_COORD97":2548330.8799999999,"ADDRESS":"龍橋街２４號","OBJECTID":581042},"geometry":{"x":174862.58999999985,"y":2548330.8800000008}},{"attributes":{"ID":581070,"DIS_CODE":0,"TOWNNAME":"永康區","LI":"龍潭里","LIN":"16鄰","STREET":"龍橋街","SECT":" ","MAREA":" ","LANE":" ","ALLEY":" ","HOUSE_NO":"２６號","E_COORD97":174859.82000000001,"N_COORD97":2548334.8799999999,"ADDRESS":"龍橋街２６號","OBJECTID":581043},"geometry":{"x":174859.8200000003,"y":2548334.879999999}},{"attributes":{"ID":581071,"DIS_CODE":0,"TOWNNAME":"永康區","LI":"網寮里","LIN":"16鄰","STREET":"永勝街","SECT":" ","MAREA":" ","LANE":" ","ALLEY":" ","HOUSE_NO":"２４７號","E_COORD97":173401.67000000001,"N_COORD97":2546724.5099999998,"ADDRESS":"永勝街２４７號","OBJECTID":581044},"geometry":{"x":173401.67000000086,"y":2546724.5099999998}},{"attributes":{"ID":581072,"DIS_CODE":0,"TOWNNAME":"永康區","LI":"網寮里","LIN":"16鄰","STREET":"永勝街","SECT":" ","MAREA":" ","LANE":" ","ALLEY":" ","HOUSE_NO":"２４９號","E_COORD97":173403.54000000001,"N_COORD97":2546728.7599999998,"ADDRESS":"永勝街２４９號","OBJECTID":581045},"geometry":{"x":173403.54000000004,"y":2546728.7600000016}},{"attributes":{"ID":581073,"DIS_CODE":0,"TOWNNAME":"楠西區","LI":"楠西里","LIN":"16鄰","STREET":"中正路","SECT":" ","MAREA":" ","LANE":" ","ALLEY":" ","HOUSE_NO":"６５號","E_COORD97":197204.20999999999,"N_COORD97":2564048.25,"ADDRESS":"中正路６５號","OBJECTID":581046},"geometry":{"x":197204.20999999996,"y":2564048.25}},{"attributes":{"ID":581074,"DIS_CODE":0,"TOWNNAME":"中西區","LI":"建國里","LIN":"5鄰","STREET":"西門路","SECT":"二段","MAREA":" ","LANE":" ","ALLEY":" ","HOUSE_NO":"１２０號底一層","E_COORD97":167887.09,"N_COORD97":2543798.5699999998,"ADDRESS":"西門路二段１２０號底一層","OBJECTID":581047},"geometry":{"x":167887.09000000171,"y":2543798.5700000022}},{"attributes":{"ID":581075,"DIS_CODE":0,"TOWNNAME":"中西區","LI":"建國里","LIN":"5鄰","STREET":"西門路","SECT":"二段","MAREA":" ","LANE":" ","ALLEY":" ","HOUSE_NO":"１２０號底二層","E_COORD97":167887.09,"N_COORD97":2543798.5699999998,"ADDRESS":"西門路二段１２０號底二層","OBJECTID":581048},"geometry":{"x":167887.09000000171,"y":2543798.5700000022}},{"attributes":{"ID":581076,"DIS_CODE":0,"TOWNNAME":"永康區","LI":"北灣里","LIN":"16鄰","STREET":"信義二街","SECT":" ","MAREA":" ","LANE":" ","ALLEY":" ","HOUSE_NO":"１５２號","E_COORD97":174858.84,"N_COORD97":2545740.4399999999,"ADDRESS":"信義二街１５２號","OBJECTID":581049},"geometry":{"x":174858.83999999985,"y":2545740.4400000013}},{"attributes":{"ID":581077,"DIS_CODE":0,"TOWNNAME":"永康區","LI":"北灣里","LIN":"16鄰","STREET":"信義二街","SECT":" ","MAREA":" ","LANE":" ","ALLEY":" ","HOUSE_NO":"１３０號","E_COORD97":174890.23999999999,"N_COORD97":2545746.1000000001,"ADDRESS":"信義二街１３０號","OBJECTID":581050},"geometry":{"x":174890.24000000022,"y":2545746.1000000015}},{"attributes":{"ID":581078,"DIS_CODE":0,"TOWNNAME":"中西區","LI":"三合里","LIN":"16鄰","STREET":"文賢路","SECT":" ","MAREA":" ","LANE":" ","ALLEY":" ","HOUSE_NO":"１００號","E_COORD97":167436.23000000001,"N_COORD97":2544659.0899999999,"ADDRESS":"文賢路１００號","OBJECTID":581051},"geometry":{"x":167436.23000000138,"y":2544659.0900000017}},{"attributes":{"ID":581079,"DIS_CODE":0,"TOWNNAME":"中西區","LI":"三合里","LIN":"16鄰","STREET":"文賢路","SECT":" ","MAREA":" ","LANE":" ","ALLEY":" ","HOUSE_NO":"１０２號","E_COORD97":167436.60999999999,"N_COORD97":2544662.9199999999,"ADDRESS":"文賢路１０２號","OBJECTID":581052},"geometry":{"x":167436.6100000022,"y":2544662.9200000018}},{"attributes":{"ID":581080,"DIS_CODE":0,"TOWNNAME":"中西區","LI":"三合里","LIN":"16鄰","STREET":"文賢路","SECT":" ","MAREA":" ","LANE":" ","ALLEY":" ","HOUSE_NO":"１０４號","E_COORD97":167437,"N_COORD97":2544666.5099999998,"ADDRESS":"文賢路１０４號","OBJECTID":581053},"geometry":{"x":167437.00000000186,"y":2544666.5099999998}},{"attributes":{"ID":581081,"DIS_CODE":0,"TOWNNAME":"東區","LI":"崇文里","LIN":"16鄰","STREET":"崇德十九街","SECT":" ","MAREA":" ","LANE":" ","ALLEY":" ","HOUSE_NO":"１００號","E_COORD97":171075.32999999999,"N_COORD97":2540958.0499999998,"ADDRESS":"崇德十九街１００號","OBJECTID":581054},"geometry":{"x":171075.33000000007,"y":2540958.0500000026}},{"attributes":{"ID":581082,"DIS_CODE":0,"TOWNNAME":"東區","LI":"崇文里","LIN":"16鄰","STREET":"崇德十九街","SECT":" ","MAREA":" ","LANE":" ","ALLEY":" ","HOUSE_NO":"１０２號","E_COORD97":171079.91,"N_COORD97":2540957.75,"ADDRESS":"崇德十九街１０２號","OBJECTID":581055},"geometry":{"x":171079.91000000015,"y":2540957.7500000037}},{"attributes":{"ID":581083,"DIS_CODE":0,"TOWNNAME":"東區","LI":"崇文里","LIN":"16鄰","STREET":"崇德十九街","SECT":" ","MAREA":" ","LANE":" ","ALLEY":" ","HOUSE_NO":"１０４號","E_COORD97":171085.78,"N_COORD97":2540960.1400000001,"ADDRESS":"崇德十九街１０４號","OBJECTID":581056},"geometry":{"x":171085.78000000119,"y":2540960.1400000025}},{"attributes":{"ID":581084,"DIS_CODE":0,"TOWNNAME":"東區","LI":"崇文里","LIN":"16鄰","STREET":"崇德十九街","SECT":" ","MAREA":" ","LANE":" ","ALLEY":" ","HOUSE_NO":"１０６號","E_COORD97":171090.35999999999,"N_COORD97":2540961.1299999999,"ADDRESS":"崇德十九街１０６號","OBJECTID":581057},"geometry":{"x":171090.36000000127,"y":2540961.1300000008}},{"attributes":{"ID":581085,"DIS_CODE":0,"TOWNNAME":"東區","LI":"崇文里","LIN":"16鄰","STREET":"崇德十九街","SECT":" ","MAREA":" ","LANE":" ","ALLEY":" ","HOUSE_NO":"６８號","E_COORD97":170979.01999999999,"N_COORD97":2540948.2999999998,"ADDRESS":"崇德十九街６８號","OBJECTID":581058},"geometry":{"x":170979.01999999955,"y":2540948.3000000026}},{"attributes":{"ID":581086,"DIS_CODE":0,"TOWNNAME":"安南區","LI":"淵中里","LIN":"16鄰","STREET":"本田路","SECT":"三段","MAREA":" ","LANE":" ","ALLEY":" ","HOUSE_NO":"６９８號","E_COORD97":164967.34450199999,"N_COORD97":2549862.2968700002,"ADDRESS":"本田路三段６９８號","OBJECTID":581059},"geometry":{"x":164967.34450200107,"y":2549862.2968680039}},{"attributes":{"ID":581087,"DIS_CODE":0,"TOWNNAME":"東區","LI":"崇學里","LIN":"16鄰","STREET":"崇明路","SECT":" ","MAREA":" ","LANE":" ","ALLEY":" ","HOUSE_NO":"２２９號","E_COORD97":170077.22,"N_COORD97":2541991.4399999999,"ADDRESS":"崇明路２２９號","OBJECTID":581060},"geometry":{"x":170077.21999999974,"y":2541991.4400000013}},{"attributes":{"ID":581088,"DIS_CODE":0,"TOWNNAME":"安南區","LI":"淵中里","LIN":"16鄰","STREET":"本田路","SECT":"三段","MAREA":" ","LANE":" ","ALLEY":" ","HOUSE_NO":"７２８之１０號","E_COORD97":165046.74645599999,"N_COORD97":2549922.1323699998,"ADDRESS":"本田路三段７２８之１０號","OBJECTID":581061},"geometry":{"x":165046.74645600002,"y":2549922.1323739998}},{"attributes":{"ID":581089,"DIS_CODE":0,"TOWNNAME":"中西區","LI":"建國里","LIN":"10鄰","STREET":"民生路","SECT":"一段","MAREA":" ","LANE":" ","ALLEY":" ","HOUSE_NO":"１４３號之１","E_COORD97":168082.26000000001,"N_COORD97":2543817.3399999999,"ADDRESS":"民生路一段１４３號之１","OBJECTID":581062},"geometry":{"x":168082.25999999978,"y":2543817.3399999999}},{"attributes":{"ID":581090,"DIS_CODE":0,"TOWNNAME":"中西區","LI":"建國里","LIN":"10鄰","STREET":"民生路","SECT":"一段","MAREA":" ","LANE":" ","ALLEY":" ","HOUSE_NO":"１４５號","E_COORD97":168078.67999999999,"N_COORD97":2543818.23,"ADDRESS":"民生路一段１４５號","OBJECTID":581063},"geometry":{"x":168078.68000000063,"y":2543818.2300000004}},{"attributes":{"ID":581091,"DIS_CODE":0,"TOWNNAME":"中西區","LI":"建國里","LIN":"10鄰","STREET":"民生路","SECT":"一段","MAREA":" ","LANE":" ","ALLEY":" ","HOUSE_NO":"１４７號","E_COORD97":168074.81,"N_COORD97":2543819.4199999999,"ADDRESS":"民生路一段１４７號","OBJECTID":581064},"geometry":{"x":168074.80999999959,"y":2543819.4200000018}},{"attributes":{"ID":581092,"DIS_CODE":0,"TOWNNAME":"中西區","LI":"建國里","LIN":"10鄰","STREET":"民生路","SECT":"一段","MAREA":" ","LANE":" ","ALLEY":" ","HOUSE_NO":"１５１號","E_COORD97":168064.82999999999,"N_COORD97":2543823.4399999999,"ADDRESS":"民生路一段１５１號","OBJECTID":581065},"geometry":{"x":168064.83000000007,"y":2543823.4399999995}},{"attributes":{"ID":581093,"DIS_CODE":0,"TOWNNAME":"中西區","LI":"安海里","LIN":"16鄰","STREET":"環河街","SECT":" ","MAREA":" ","LANE":" ","ALLEY":" ","HOUSE_NO":"１３２號","E_COORD97":167258.91,"N_COORD97":2544090.4100000001,"ADDRESS":"環河街１３２號","OBJECTID":581066},"geometry":{"x":167258.91000000015,"y":2544090.410000002}},{"attributes":{"ID":581094,"DIS_CODE":0,"TOWNNAME":"中西區","LI":"安海里","LIN":"16鄰","STREET":"環河街","SECT":" ","MAREA":" ","LANE":" ","ALLEY":" ","HOUSE_NO":"１３４號","E_COORD97":167258.51000000001,"N_COORD97":2544094.1499999999,"ADDRESS":"環河街１３４號","OBJECTID":581067},"geometry":{"x":167258.50999999885,"y":2544094.1500000004}},{"attributes":{"ID":581095,"DIS_CODE":0,"TOWNNAME":"中西區","LI":"安海里","LIN":"16鄰","STREET":"環河街","SECT":" ","MAREA":" ","LANE":" ","ALLEY":" ","HOUSE_NO":"１３６號","E_COORD97":167258.91,"N_COORD97":2544097.8999999999,"ADDRESS":"環河街１３６號","OBJECTID":581068},"geometry":{"x":167258.91000000015,"y":2544097.9000000022}},{"attributes":{"ID":581096,"DIS_CODE":0,"TOWNNAME":"中西區","LI":"安海里","LIN":"16鄰","STREET":"民生路","SECT":"二段","MAREA":" ","LANE":" ","ALLEY":" ","HOUSE_NO":"２５７號","E_COORD97":167232.07000000001,"N_COORD97":2544102.73,"ADDRESS":"民生路二段２５７號","OBJECTID":581069},"geometry":{"x":167232.07000000123,"y":2544102.7300000023}},{"attributes":{"ID":581097,"DIS_CODE":0,"TOWNNAME":"中西區","LI":"安海里","LIN":"16鄰","STREET":"民生路","SECT":"二段","MAREA":" ","LANE":" ","ALLEY":" ","HOUSE_NO":"２７１號","E_COORD97":167217.09,"N_COORD97":2544111.4199999999,"ADDRESS":"民生路二段２７１號","OBJECTID":581070},"geometry":{"x":167217.08999999985,"y":2544111.4199999999}},{"attributes":{"ID":581098,"DIS_CODE":0,"TOWNNAME":"中西區","LI":"安海里","LIN":"16鄰","STREET":"民生路","SECT":"二段","MAREA":" ","LANE":" ","ALLEY":" ","HOUSE_NO":"２７３號","E_COORD97":167193.81,"N_COORD97":2544123.6499999999,"ADDRESS":"民生路二段２７３號","OBJECTID":581071},"geometry":{"x":167193.81000000052,"y":2544123.6500000004}},{"attributes":{"ID":581099,"DIS_CODE":0,"TOWNNAME":"中西區","LI":"安海里","LIN":"16鄰","STREET":"民生路","SECT":"二段","MAREA":" ","LANE":" ","ALLEY":" ","HOUSE_NO":"２７３號之１","E_COORD97":167189.44,"N_COORD97":2544105.7400000002,"ADDRESS":"民生路二段２７３號之１","OBJECTID":581072},"geometry":{"x":167189.44000000041,"y":2544105.7400000021}},{"attributes":{"ID":581100,"DIS_CODE":0,"TOWNNAME":"中西區","LI":"安海里","LIN":"16鄰","STREET":"民生路","SECT":"二段","MAREA":" ","LANE":" ","ALLEY":" ","HOUSE_NO":"２９９號","E_COORD97":167123.57000000001,"N_COORD97":2544145.96,"ADDRESS":"民生路二段２９９號","OBJECTID":581073},"geometry":{"x":167123.57000000123,"y":2544145.9600000009}},{"attributes":{"ID":581101,"DIS_CODE":0,"TOWNNAME":"中西區","LI":"安海里","LIN":"16鄰","STREET":"民生路","SECT":"二段","MAREA":" ","LANE":" ","ALLEY":" ","HOUSE_NO":"３０３號","E_COORD97":167085.09,"N_COORD97":2544145.96,"ADDRESS":"民生路二段３０３號","OBJECTID":581074},"geometry":{"x":167085.08999999985,"y":2544145.9600000009}},{"attributes":{"ID":581102,"DIS_CODE":0,"TOWNNAME":"中西區","LI":"安海里","LIN":"16鄰","STREET":"環河街","SECT":" ","MAREA":" ","LANE":" ","ALLEY":" ","HOUSE_NO":"１１８號","E_COORD97":167250.23000000001,"N_COORD97":2544051.4700000002,"ADDRESS":"環河街１１８號","OBJECTID":581075},"geometry":{"x":167250.23000000045,"y":2544051.4700000007}},{"attributes":{"ID":581103,"DIS_CODE":0,"TOWNNAME":"中西區","LI":"安海里","LIN":"16鄰","STREET":"環河街","SECT":" ","MAREA":" ","LANE":" ","ALLEY":" ","HOUSE_NO":"１２０號","E_COORD97":167251.01999999999,"N_COORD97":2544055.8100000001,"ADDRESS":"環河街１２０號","OBJECTID":581076},"geometry":{"x":167251.01999999955,"y":2544055.8100000005}},{"attributes":{"ID":581104,"DIS_CODE":0,"TOWNNAME":"中西區","LI":"安海里","LIN":"16鄰","STREET":"環河街","SECT":" ","MAREA":" ","LANE":" ","ALLEY":" ","HOUSE_NO":"１２２號","E_COORD97":167252.20000000001,"N_COORD97":2544060.73,"ADDRESS":"環河街１２２號","OBJECTID":581077},"geometry":{"x":167252.20000000019,"y":2544060.7300000023}},{"attributes":{"ID":581105,"DIS_CODE":0,"TOWNNAME":"中西區","LI":"安海里","LIN":"16鄰","STREET":"環河街","SECT":" ","MAREA":" ","LANE":" ","ALLEY":" ","HOUSE_NO":"１２４號","E_COORD97":167253.38,"N_COORD97":2544064.6699999999,"ADDRESS":"環河街１２４號","OBJECTID":581078},"geometry":{"x":167253.38000000082,"y":2544064.6700000018}},{"attributes":{"ID":581106,"DIS_CODE":0,"TOWNNAME":"中西區","LI":"安海里","LIN":"16鄰","STREET":"環河街","SECT":" ","MAREA":" ","LANE":" ","ALLEY":" ","HOUSE_NO":"１２６號","E_COORD97":167253.98000000001,"N_COORD97":2544069.3999999999,"ADDRESS":"環河街１２６號","OBJECTID":581079},"geometry":{"x":167253.98000000045,"y":2544069.4000000041}},{"attributes":{"ID":581107,"DIS_CODE":0,"TOWNNAME":"中西區","LI":"安海里","LIN":"16鄰","STREET":"環河街","SECT":" ","MAREA":" ","LANE":" ","ALLEY":" ","HOUSE_NO":"１２８號","E_COORD97":167254.17000000001,"N_COORD97":2544073.9399999999,"ADDRESS":"環河街１２８號","OBJECTID":581080},"geometry":{"x":167254.16999999899,"y":2544073.9399999995}},{"attributes":{"ID":581108,"DIS_CODE":0,"TOWNNAME":"中西區","LI":"大涼里","LIN":"16鄰","STREET":"府前一街","SECT":" ","MAREA":" ","LANE":" ","ALLEY":" ","HOUSE_NO":"１０１號","E_COORD97":166734.70000000001,"N_COORD97":2543933.0299999998,"ADDRESS":"府前一街１０１號","OBJECTID":581081},"geometry":{"x":166734.70000000112,"y":2543933.0300000012}},{"attributes":{"ID":581109,"DIS_CODE":0,"TOWNNAME":"中西區","LI":"大涼里","LIN":"16鄰","STREET":"府前一街","SECT":" ","MAREA":" ","LANE":" ","ALLEY":" ","HOUSE_NO":"６１號","E_COORD97":166766.31,"N_COORD97":2543845.8900000001,"ADDRESS":"府前一街６１號","OBJECTID":581082},"geometry":{"x":166766.30999999959,"y":2543845.8900000043}},{"attributes":{"ID":581110,"DIS_CODE":0,"TOWNNAME":"中西區","LI":"大涼里","LIN":"16鄰","STREET":"府前一街","SECT":" ","MAREA":" ","LANE":" ","ALLEY":" ","HOUSE_NO":"６３號","E_COORD97":166764.04999999999,"N_COORD97":2543850.4700000002,"ADDRESS":"府前一街６３號","OBJECTID":581083},"geometry":{"x":166764.05000000075,"y":2543850.4700000025}},{"attributes":{"ID":581111,"DIS_CODE":0,"TOWNNAME":"永康區","LI":"南灣里","LIN":"16鄰","STREET":"大灣一街","SECT":" ","MAREA":" ","LANE":" ","ALLEY":" ","HOUSE_NO":"１１９號","E_COORD97":174540.88,"N_COORD97":2544697.4900000002,"ADDRESS":"大灣一街１１９號","OBJECTID":581084},"geometry":{"x":174540.88000000082,"y":2544697.4900000021}},{"attributes":{"ID":581112,"DIS_CODE":0,"TOWNNAME":"永康區","LI":"網寮里","LIN":"16鄰","STREET":"永勝街","SECT":" ","MAREA":" ","LANE":" ","ALLEY":" ","HOUSE_NO":"２５５號","E_COORD97":173411.51999999999,"N_COORD97":2546747.2599999998,"ADDRESS":"永勝街２５５號","OBJECTID":581085},"geometry":{"x":173411.51999999955,"y":2546747.2599999998}},{"attributes":{"ID":581113,"DIS_CODE":0,"TOWNNAME":"永康區","LI":"\u25A0行里","LIN":"16鄰","STREET":"中正六街","SECT":" ","MAREA":" ","LANE":" ","ALLEY":" ","HOUSE_NO":"２０２號","E_COORD97":171870.10000000001,"N_COORD97":2548835.8700000001,"ADDRESS":"中正六街２０２號","OBJECTID":581086},"geometry":{"x":171870.09999999963,"y":2548835.870000001}},{"attributes":{"ID":581114,"DIS_CODE":0,"TOWNNAME":"永康區","LI":"\u25A0洲里","LIN":"16鄰","STREET":"\u25A0忠街","SECT":" ","MAREA":" ","LANE":" ","ALLEY":" ","HOUSE_NO":"８６號","E_COORD97":171458.48999999999,"N_COORD97":2549058.3300000001,"ADDRESS":"\u25A0忠街８６號","OBJECTID":581087},"geometry":{"x":171458.49000000115,"y":2549058.3300000019}},{"attributes":{"ID":581115,"DIS_CODE":0,"TOWNNAME":"東區","LI":"崇明里","LIN":"16鄰","STREET":"崇明路","SECT":" ","MAREA":" ","LANE":" ","ALLEY":" ","HOUSE_NO":"５９０號","E_COORD97":170504.79000000001,"N_COORD97":2541461.3500000001,"ADDRESS":"崇明路５９０號","OBJECTID":581088},"geometry":{"x":170504.79000000004,"y":2541461.3499999996}},{"attributes":{"ID":581116,"DIS_CODE":0,"TOWNNAME":"永康區","LI":"\u25A0洲里","LIN":"16鄰","STREET":"\u25A0忠街","SECT":" ","MAREA":" ","LANE":" ","ALLEY":" ","HOUSE_NO":"６２號","E_COORD97":171487.54999999999,"N_COORD97":2549024,"ADDRESS":"\u25A0忠街６２號","OBJECTID":581089},"geometry":{"x":171487.54999999981,"y":2549024}},{"attributes":{"ID":581117,"DIS_CODE":0,"TOWNNAME":"東區","LI":"崇學里","LIN":"16鄰","STREET":"崇明路","SECT":" ","MAREA":" ","LANE":" ","ALLEY":" ","HOUSE_NO":"２２１號","E_COORD97":170061.57000000001,"N_COORD97":2542009.6499999999,"ADDRESS":"崇明路２２１號","OBJECTID":581090},"geometry":{"x":170061.57000000123,"y":2542009.6500000041}},{"attributes":{"ID":581118,"DIS_CODE":0,"TOWNNAME":"東區","LI":"崇學里","LIN":"16鄰","STREET":"崇明路","SECT":" ","MAREA":" ","LANE":" ","ALLEY":" ","HOUSE_NO":"２２１號地下壹層","E_COORD97":170061.57000000001,"N_COORD97":2542009.6499999999,"ADDRESS":"崇明路２２１號地下壹層","OBJECTID":581091},"geometry":{"x":170061.57000000123,"y":2542009.6500000041}},{"attributes":{"ID":581119,"DIS_CODE":0,"TOWNNAME":"東區","LI":"崇學里","LIN":"16鄰","STREET":"崇明路","SECT":" ","MAREA":" ","LANE":" ","ALLEY":" ","HOUSE_NO":"２２３號","E_COORD97":170064.84,"N_COORD97":2542005.5299999998,"ADDRESS":"崇明路２２３號","OBJECTID":581092},"geometry":{"x":170064.83999999985,"y":2542005.5299999993}},{"attributes":{"ID":581120,"DIS_CODE":0,"TOWNNAME":"東區","LI":"崇學里","LIN":"16鄰","STREET":"崇明路","SECT":" ","MAREA":" ","LANE":" ","ALLEY":" ","HOUSE_NO":"２２５號","E_COORD97":170067.59,"N_COORD97":2542001.5800000001,"ADDRESS":"崇明路２２５號","OBJECTID":581093},"geometry":{"x":170067.59000000078,"y":2542001.5800000001}},{"attributes":{"ID":581121,"DIS_CODE":0,"TOWNNAME":"東區","LI":"崇學里","LIN":"16鄰","STREET":"崇明路","SECT":" ","MAREA":" ","LANE":" ","ALLEY":" ","HOUSE_NO":"２２７號","E_COORD97":170072.39999999999,"N_COORD97":2541996.25,"ADDRESS":"崇明路２２７號","OBJECTID":581094},"geometry":{"x":170072.40000000224,"y":2541996.2500000019}},{"attributes":{"ID":581122,"DIS_CODE":0,"TOWNNAME":"東區","LI":"崇學里","LIN":"16鄰","STREET":"崇明路","SECT":" ","MAREA":" ","LANE":" ","ALLEY":" ","HOUSE_NO":"２３１號","E_COORD97":170081.48999999999,"N_COORD97":2541987.4300000002,"ADDRESS":"崇明路２３１號","OBJECTID":581095},"geometry":{"x":170081.49000000022,"y":2541987.4300000016}},{"attributes":{"ID":581123,"DIS_CODE":0,"TOWNNAME":"東區","LI":"崇學里","LIN":"16鄰","STREET":"崇明路","SECT":" ","MAREA":" ","LANE":" ","ALLEY":" ","HOUSE_NO":"２３３號","E_COORD97":170084.39000000001,"N_COORD97":2541983.96,"ADDRESS":"崇明路２３３號","OBJECTID":581096},"geometry":{"x":170084.38999999966,"y":2541983.9600000009}},{"attributes":{"ID":581124,"DIS_CODE":0,"TOWNNAME":"東區","LI":"崇學里","LIN":"16鄰","STREET":"崇明路","SECT":" ","MAREA":" ","LANE":" ","ALLEY":" ","HOUSE_NO":"２３５號","E_COORD97":170087.67999999999,"N_COORD97":2541980.48,"ADDRESS":"崇明路２３５號","OBJECTID":581097},"geometry":{"x":170087.6799999997,"y":2541980.4800000042}},{"attributes":{"ID":581125,"DIS_CODE":0,"TOWNNAME":"東區","LI":"崇學里","LIN":"16鄰","STREET":"崇明路","SECT":" ","MAREA":" ","LANE":" ","ALLEY":" ","HOUSE_NO":"２３７號","E_COORD97":170090.76999999999,"N_COORD97":2541976.4300000002,"ADDRESS":"崇明路２３７號","OBJECTID":581098},"geometry":{"x":170090.76999999955,"y":2541976.4299999978}},{"attributes":{"ID":581126,"DIS_CODE":0,"TOWNNAME":"東區","LI":"崇學里","LIN":"16鄰","STREET":"崇明路","SECT":" ","MAREA":" ","LANE":" ","ALLEY":" ","HOUSE_NO":"２３９號","E_COORD97":170095.20999999999,"N_COORD97":2541972.5699999998,"ADDRESS":"崇明路２３９號","OBJECTID":581099},"geometry":{"x":170095.21000000183,"y":2541972.5700000003}},{"attributes":{"ID":581127,"DIS_CODE":0,"TOWNNAME":"東區","LI":"崇學里","LIN":"16鄰","STREET":"崇明路","SECT":" ","MAREA":" ","LANE":" ","ALLEY":" ","HOUSE_NO":"２３９號之１","E_COORD97":170098.48999999999,"N_COORD97":2541967.5499999998,"ADDRESS":"崇明路２３９號之１","OBJECTID":581100},"geometry":{"x":170098.49000000022,"y":2541967.5500000026}},{"attributes":{"ID":581128,"DIS_CODE":0,"TOWNNAME":"東區","LI":"崇學里","LIN":"16鄰","STREET":"崇明路","SECT":" ","MAREA":" ","LANE":" ","ALLEY":" ","HOUSE_NO":"２３９號地下層","E_COORD97":170095.20999999999,"N_COORD97":2541972.5699999998,"ADDRESS":"崇明路２３９號地下層","OBJECTID":581101},"geometry":{"x":170095.21000000183,"y":2541972.5700000003}},{"attributes":{"ID":581129,"DIS_CODE":0,"TOWNNAME":"東區","LI":"崇學里","LIN":"16鄰","STREET":"崇明路","SECT":" ","MAREA":" ","LANE":" ","ALLEY":" ","HOUSE_NO":"２４１號","E_COORD97":170103.13,"N_COORD97":2541962.73,"ADDRESS":"崇明路２４１號","OBJECTID":581102},"geometry":{"x":170103.13000000082,"y":2541962.7300000023}},{"attributes":{"ID":581130,"DIS_CODE":0,"TOWNNAME":"東區","LI":"崇學里","LIN":"16鄰","STREET":"崇明路","SECT":" ","MAREA":" ","LANE":" ","ALLEY":" ","HOUSE_NO":"２４３號","E_COORD97":170105.82999999999,"N_COORD97":2541959.6400000001,"ADDRESS":"崇明路２４３號","OBJECTID":581103},"geometry":{"x":170105.83000000007,"y":2541959.6400000025}},{"attributes":{"ID":581131,"DIS_CODE":0,"TOWNNAME":"東區","LI":"崇學里","LIN":"16鄰","STREET":"崇明路","SECT":" ","MAREA":" ","LANE":" ","ALLEY":" ","HOUSE_NO":"２４５號","E_COORD97":170112.01000000001,"N_COORD97":2541949.2200000002,"ADDRESS":"崇明路２４５號","OBJECTID":581104},"geometry":{"x":170112.01000000071,"y":2541949.2200000025}},{"attributes":{"ID":581132,"DIS_CODE":0,"TOWNNAME":"東區","LI":"崇學里","LIN":"16鄰","STREET":"崇明路","SECT":" ","MAREA":" ","LANE":" ","ALLEY":" ","HOUSE_NO":"２５１號","E_COORD97":170118.20000000001,"N_COORD97":2541942.27,"ADDRESS":"崇明路２５１號","OBJECTID":581105},"geometry":{"x":170118.20000000112,"y":2541942.2699999996}},{"attributes":{"ID":581133,"DIS_CODE":0,"TOWNNAME":"東區","LI":"崇學里","LIN":"16鄰","STREET":"崇學路","SECT":" ","MAREA":" ","LANE":" ","ALLEY":" ","HOUSE_NO":"１２號","E_COORD97":170094.07000000001,"N_COORD97":2542020.4700000002,"ADDRESS":"崇學路１２號","OBJECTID":581106},"geometry":{"x":170094.0700000003,"y":2542020.4700000007}},{"attributes":{"ID":581134,"DIS_CODE":0,"TOWNNAME":"東區","LI":"崇學里","LIN":"16鄰","STREET":"崇學路","SECT":" ","MAREA":" ","LANE":" ","ALLEY":" ","HOUSE_NO":"２號","E_COORD97":170074.81,"N_COORD97":2542014.98,"ADDRESS":"崇學路２號","OBJECTID":581107},"geometry":{"x":170074.80999999959,"y":2542014.9800000023}},{"attributes":{"ID":581135,"DIS_CODE":0,"TOWNNAME":"東區","LI":"崇學里","LIN":"16鄰","STREET":"崇學路","SECT":" ","MAREA":" ","LANE":" ","ALLEY":" ","HOUSE_NO":"４號","E_COORD97":170080.31,"N_COORD97":2542016.6899999999,"ADDRESS":"崇學路４號","OBJECTID":581108},"geometry":{"x":170080.30999999959,"y":2542016.6900000013}},{"attributes":{"ID":581136,"DIS_CODE":0,"TOWNNAME":"東區","LI":"崇學里","LIN":"16鄰","STREET":"崇學路","SECT":" ","MAREA":" ","LANE":" ","ALLEY":" ","HOUSE_NO":"６號","E_COORD97":170084.10000000001,"N_COORD97":2542018.5800000001,"ADDRESS":"崇學路６號","OBJECTID":581109},"geometry":{"x":170084.10000000056,"y":2542018.5800000001}},{"attributes":{"ID":581137,"DIS_CODE":0,"TOWNNAME":"中西區","LI":"建國里","LIN":"1鄰","STREET":"中正路","SECT":" ","MAREA":" ","LANE":" ","ALLEY":" ","HOUSE_NO":"９０號","E_COORD97":168037.29999999999,"N_COORD97":2543683.4399999999,"ADDRESS":"中正路９０號","OBJECTID":581110},"geometry":{"x":168037.30000000075,"y":2543683.4399999995}},{"attributes":{"ID":581138,"DIS_CODE":0,"TOWNNAME":"中西區","LI":"建國里","LIN":"1鄰","STREET":"中正路","SECT":" ","MAREA":" ","LANE":" ","ALLEY":" ","HOUSE_NO":"９２號","E_COORD97":168032.47,"N_COORD97":2543678.8399999999,"ADDRESS":"中正路９２號","OBJECTID":581111},"geometry":{"x":168032.47000000067,"y":2543678.8399999999}},{"attributes":{"ID":581139,"DIS_CODE":0,"TOWNNAME":"中西區","LI":"建國里","LIN":"1鄰","STREET":"中正路","SECT":" ","MAREA":" ","LANE":" ","ALLEY":" ","HOUSE_NO":"９４號","E_COORD97":168027.87,"N_COORD97":2543680.29,"ADDRESS":"中正路９４號","OBJECTID":581112},"geometry":{"x":168027.87000000197,"y":2543680.290000001}},{"attributes":{"ID":581140,"DIS_CODE":0,"TOWNNAME":"中西區","LI":"建國里","LIN":"1鄰","STREET":"中正路","SECT":" ","MAREA":" ","LANE":" ","ALLEY":" ","HOUSE_NO":"９６號","E_COORD97":168024.39999999999,"N_COORD97":2543681.1299999999,"ADDRESS":"中正路９６號","OBJECTID":581113},"geometry":{"x":168024.39999999944,"y":2543681.1300000008}},{"attributes":{"ID":581141,"DIS_CODE":0,"TOWNNAME":"中西區","LI":"建國里","LIN":"1鄰","STREET":"中正路","SECT":" ","MAREA":" ","LANE":" ","ALLEY":" ","HOUSE_NO":"９８號","E_COORD97":168020.07999999999,"N_COORD97":2543681.0899999999,"ADDRESS":"中正路９８號","OBJECTID":581114},"geometry":{"x":168020.08000000101,"y":2543681.0900000036}},{"attributes":{"ID":581142,"DIS_CODE":0,"TOWNNAME":"中西區","LI":"郡王里","LIN":"1鄰","STREET":"法華街","SECT":" ","MAREA":" ","LANE":" ","ALLEY":" ","HOUSE_NO":"１０號","E_COORD97":169076.13,"N_COORD97":2542821.8599999999,"ADDRESS":"法華街１０號","OBJECTID":581115},"geometry":{"x":169076.12999999989,"y":2542821.8600000013}},{"attributes":{"ID":581143,"DIS_CODE":0,"TOWNNAME":"中西區","LI":"郡王里","LIN":"1鄰","STREET":"法華街","SECT":" ","MAREA":" ","LANE":" ","ALLEY":" ","HOUSE_NO":"１２號","E_COORD97":169072.34,"N_COORD97":2542827.6800000002,"ADDRESS":"法華街１２號","OBJECTID":581116},"geometry":{"x":169072.34000000078,"y":2542827.6799999997}},{"attributes":{"ID":581144,"DIS_CODE":0,"TOWNNAME":"東區","LI":"崇學里","LIN":"16鄰","STREET":"崇學路","SECT":" ","MAREA":" ","LANE":" ","ALLEY":" ","HOUSE_NO":"８號","E_COORD97":170088.91,"N_COORD97":2542019.96,"ADDRESS":"崇學路８號","OBJECTID":581117},"geometry":{"x":170088.91000000201,"y":2542019.9600000028}},{"attributes":{"ID":581145,"DIS_CODE":0,"TOWNNAME":"永康區","LI":"中華里","LIN":"16鄰","STREET":"忠義街","SECT":" ","MAREA":" ","LANE":" ","ALLEY":" ","HOUSE_NO":"１５號","E_COORD97":171707.35000000001,"N_COORD97":2544395.98,"ADDRESS":"忠義街１５號","OBJECTID":581118},"geometry":{"x":171707.34999999963,"y":2544395.9800000023}},{"attributes":{"ID":581146,"DIS_CODE":0,"TOWNNAME":"永康區","LI":"中華里","LIN":"16鄰","STREET":"忠義街","SECT":" ","MAREA":" ","LANE":" ","ALLEY":" ","HOUSE_NO":"１１號","E_COORD97":171707.87,"N_COORD97":2544385.8999999999,"ADDRESS":"忠義街１１號","OBJECTID":581119},"geometry":{"x":171707.87000000011,"y":2544385.9000000022}},{"attributes":{"ID":581147,"DIS_CODE":0,"TOWNNAME":"永康區","LI":"復國里","LIN":"16鄰","STREET":"復國二路","SECT":" ","MAREA":" ","LANE":" ","ALLEY":" ","HOUSE_NO":"１９２號","E_COORD97":172944.20000000001,"N_COORD97":2545766.52,"ADDRESS":"復國二路１９２號","OBJECTID":581120},"geometry":{"x":172944.20000000112,"y":2545766.5200000033}},{"attributes":{"ID":581148,"DIS_CODE":0,"TOWNNAME":"永康區","LI":"\u25A0行里","LIN":"16鄰","STREET":"中正六街","SECT":" ","MAREA":" ","LANE":" ","ALLEY":" ","HOUSE_NO":"２０８號","E_COORD97":171876.48999999999,"N_COORD97":2548843.1099999999,"ADDRESS":"中正六街２０８號","OBJECTID":581121},"geometry":{"x":171876.49000000022,"y":2548843.1099999994}},{"attributes":{"ID":581149,"DIS_CODE":0,"TOWNNAME":"永康區","LI":"中華里","LIN":"16鄰","STREET":"忠義街","SECT":" ","MAREA":" ","LANE":" ","ALLEY":" ","HOUSE_NO":"２５號","E_COORD97":171707.23999999999,"N_COORD97":2544417.1699999999,"ADDRESS":"忠義街２５號","OBJECTID":581122},"geometry":{"x":171707.24000000022,"y":2544417.1700000018}},{"attributes":{"ID":581150,"DIS_CODE":0,"TOWNNAME":"永康區","LI":"\u25A0行里","LIN":"16鄰","STREET":"中正六街","SECT":" ","MAREA":" ","LANE":" ","ALLEY":" ","HOUSE_NO":"２００號","E_COORD97":171866.95999999999,"N_COORD97":2548830.5,"ADDRESS":"中正六街２００號","OBJECTID":581123},"geometry":{"x":171866.96000000089,"y":2548830.5}},{"attributes":{"ID":581151,"DIS_CODE":0,"TOWNNAME":"佳里區","LI":"忠仁里","LIN":"16鄰","STREET":"博愛街","SECT":" ","MAREA":" ","LANE":" ","ALLEY":" ","HOUSE_NO":"９３號","E_COORD97":165935.45000000001,"N_COORD97":2561993.3799999999,"ADDRESS":"博愛街９３號","OBJECTID":581124},"geometry":{"x":165935.45000000205,"y":2561993.3800000008}},{"attributes":{"ID":581152,"DIS_CODE":0,"TOWNNAME":"歸仁區","LI":"許厝里","LIN":"16鄰","STREET":"忠孝北路","SECT":" ","MAREA":" ","LANE":" ","ALLEY":" ","HOUSE_NO":"５３號","E_COORD97":178420.32000000001,"N_COORD97":2540761.25,"ADDRESS":"忠孝北路５３號","OBJECTID":581125},"geometry":{"x":178420.32000000123,"y":2540761.2500000037}},{"attributes":{"ID":581153,"DIS_CODE":0,"TOWNNAME":"南區","LI":"新興里","LIN":"16鄰","STREET":"三官路","SECT":" ","MAREA":" ","LANE":" ","ALLEY":" ","HOUSE_NO":"４５號","E_COORD97":167365.03,"N_COORD97":2542333.2400000002,"ADDRESS":"三官路４５號","OBJECTID":581126},"geometry":{"x":167365.03000000026,"y":2542333.2400000002}},{"attributes":{"ID":581154,"DIS_CODE":0,"TOWNNAME":"南區","LI":"新興里","LIN":"16鄰","STREET":"三官路","SECT":" ","MAREA":" ","LANE":" ","ALLEY":" ","HOUSE_NO":"４９號","E_COORD97":167355.70000000001,"N_COORD97":2542333.3500000001,"ADDRESS":"三官路４９號","OBJECTID":581127},"geometry":{"x":167355.70000000019,"y":2542333.3500000015}},{"attributes":{"ID":581155,"DIS_CODE":0,"TOWNNAME":"南區","LI":"新興里","LIN":"16鄰","STREET":"三官路","SECT":" ","MAREA":" ","LANE":" ","ALLEY":" ","HOUSE_NO":"５５號","E_COORD97":167361.16,"N_COORD97":2542314.71,"ADDRESS":"三官路５５號","OBJECTID":581128},"geometry":{"x":167361.16000000015,"y":2542314.7100000009}},{"attributes":{"ID":581156,"DIS_CODE":0,"TOWNNAME":"中西區","LI":"郡王里","LIN":"5鄰","STREET":"大埔街","SECT":" ","MAREA":" ","LANE":" ","ALLEY":" ","HOUSE_NO":"７５號","E_COORD97":168802.32000000001,"N_COORD97":2543055.96,"ADDRESS":"大埔街７５號","OBJECTID":581129},"geometry":{"x":168802.3200000003,"y":2543055.9600000046}},{"attributes":{"ID":581157,"DIS_CODE":0,"TOWNNAME":"中西區","LI":"郡王里","LIN":"14鄰","STREET":"南門路","SECT":" ","MAREA":" ","LANE":" ","ALLEY":" ","HOUSE_NO":"１０５號","E_COORD97":168449.67999999999,"N_COORD97":2543148.8399999999,"ADDRESS":"南門路１０５號","OBJECTID":581130},"geometry":{"x":168449.68000000063,"y":2543148.8399999999}},{"attributes":{"ID":581158,"DIS_CODE":0,"TOWNNAME":"中西區","LI":"青年里","LIN":"9鄰","STREET":"衛民街","SECT":" ","MAREA":" ","LANE":" ","ALLEY":" ","HOUSE_NO":"９５號","E_COORD97":168899.42000000001,"N_COORD97":2543730.3300000001,"ADDRESS":"衛民街９５號","OBJECTID":581131},"geometry":{"x":168899.42000000086,"y":2543730.3299999982}},{"attributes":{"ID":581159,"DIS_CODE":0,"TOWNNAME":"安平區","LI":"平安里","LIN":"16鄰","STREET":"民權路","SECT":"四段","MAREA":" ","LANE":" ","ALLEY":" ","HOUSE_NO":"６５９號","E_COORD97":164949.25,"N_COORD97":2544605.04,"ADDRESS":"民權路四段６５９號","OBJECTID":581132},"geometry":{"x":164949.25,"y":2544605.0399999991}},{"attributes":{"ID":581160,"DIS_CODE":0,"TOWNNAME":"安平區","LI":"平安里","LIN":"16鄰","STREET":"民權路","SECT":"四段","MAREA":" ","LANE":" ","ALLEY":" ","HOUSE_NO":"６６３號","E_COORD97":164940.67999999999,"N_COORD97":2544609.1600000001,"ADDRESS":"民權路四段６６３號","OBJECTID":581133},"geometry":{"x":164940.68000000063,"y":2544609.1600000001}},{"attributes":{"ID":581161,"DIS_CODE":0,"TOWNNAME":"中西區","LI":"郡王里","LIN":"13鄰","STREET":"建業街","SECT":" ","MAREA":" ","LANE":" ","ALLEY":" ","HOUSE_NO":"３３號","E_COORD97":168550.82999999999,"N_COORD97":2543133.8199999998,"ADDRESS":"建業街３３號","OBJECTID":581134},"geometry":{"x":168550.83000000101,"y":2543133.8200000003}},{"attributes":{"ID":581162,"DIS_CODE":0,"TOWNNAME":"中西區","LI":"郡王里","LIN":"13鄰","STREET":"建業街","SECT":" ","MAREA":" ","LANE":" ","ALLEY":" ","HOUSE_NO":"３５號","E_COORD97":168533.89000000001,"N_COORD97":2543135.9100000001,"ADDRESS":"建業街３５號","OBJECTID":581135},"geometry":{"x":168533.88999999966,"y":2543135.9100000001}},{"attributes":{"ID":581163,"DIS_CODE":0,"TOWNNAME":"中西區","LI":"郡王里","LIN":"14鄰","STREET":"建業街","SECT":" ","MAREA":" ","LANE":" ","ALLEY":" ","HOUSE_NO":"３９號之３","E_COORD97":168503.51000000001,"N_COORD97":2543148.96,"ADDRESS":"建業街３９號之３","OBJECTID":581136},"geometry":{"x":168503.51000000071,"y":2543148.9600000028}},{"attributes":{"ID":581164,"DIS_CODE":0,"TOWNNAME":"中西區","LI":"郡王里","LIN":"14鄰","STREET":"建業街","SECT":" ","MAREA":" ","LANE":" ","ALLEY":" ","HOUSE_NO":"３９號之４","E_COORD97":168498.81,"N_COORD97":2543146.52,"ADDRESS":"建業街３９號之４","OBJECTID":581137},"geometry":{"x":168498.80999999959,"y":2543146.5200000014}},{"attributes":{"ID":581165,"DIS_CODE":0,"TOWNNAME":"中西區","LI":"郡王里","LIN":"14鄰","STREET":"建業街","SECT":" ","MAREA":" ","LANE":" ","ALLEY":" ","HOUSE_NO":"４１號","E_COORD97":168493.20999999999,"N_COORD97":2543143.0899999999,"ADDRESS":"建業街４１號","OBJECTID":581138},"geometry":{"x":168493.21000000183,"y":2543143.0900000017}},{"attributes":{"ID":581166,"DIS_CODE":0,"TOWNNAME":"中西區","LI":"郡王里","LIN":"14鄰","STREET":"建業街","SECT":" ","MAREA":" ","LANE":" ","ALLEY":" ","HOUSE_NO":"４１號之１","E_COORD97":168492.64999999999,"N_COORD97":2543130.04,"ADDRESS":"建業街４１號之１","OBJECTID":581139},"geometry":{"x":168492.6500000013,"y":2543130.0399999991}},{"attributes":{"ID":581167,"DIS_CODE":0,"TOWNNAME":"中西區","LI":"郡王里","LIN":"14鄰","STREET":"建業街","SECT":" ","MAREA":" ","LANE":" ","ALLEY":" ","HOUSE_NO":"４１號之２","E_COORD97":168477.17999999999,"N_COORD97":2543130.54,"ADDRESS":"建業街４１號之２","OBJECTID":581140},"geometry":{"x":168477.1799999997,"y":2543130.5399999991}},{"attributes":{"ID":581168,"DIS_CODE":0,"TOWNNAME":"中西區","LI":"郡王里","LIN":"14鄰","STREET":"建業街","SECT":" ","MAREA":" ","LANE":" ","ALLEY":" ","HOUSE_NO":"４１號之３","E_COORD97":168479.84,"N_COORD97":2543142.6400000001,"ADDRESS":"建業街４１號之３","OBJECTID":581141},"geometry":{"x":168479.83999999985,"y":2543142.6400000043}},{"attributes":{"ID":581169,"DIS_CODE":0,"TOWNNAME":"中西區","LI":"郡王里","LIN":"14鄰","STREET":"建業街","SECT":" ","MAREA":" ","LANE":" ","ALLEY":" ","HOUSE_NO":"４３號","E_COORD97":168470.57000000001,"N_COORD97":2543148.5800000001,"ADDRESS":"建業街４３號","OBJECTID":581142},"geometry":{"x":168470.5700000003,"y":2543148.5800000001}},{"attributes":{"ID":581170,"DIS_CODE":0,"TOWNNAME":"中西區","LI":"郡王里","LIN":"14鄰","STREET":"建業街","SECT":" ","MAREA":" ","LANE":" ","ALLEY":" ","HOUSE_NO":"４５號","E_COORD97":168464.72,"N_COORD97":2543151.6299999999,"ADDRESS":"建業街４５號","OBJECTID":581143},"geometry":{"x":168464.72000000067,"y":2543151.6300000008}},{"attributes":{"ID":581171,"DIS_CODE":0,"TOWNNAME":"中西區","LI":"郡王里","LIN":"14鄰","STREET":"建業街","SECT":" ","MAREA":" ","LANE":" ","ALLEY":" ","HOUSE_NO":"４７號","E_COORD97":168460.72,"N_COORD97":2543150.1699999999,"ADDRESS":"建業街４７號","OBJECTID":581144},"geometry":{"x":168460.7200000016,"y":2543150.1699999999}},{"attributes":{"ID":581172,"DIS_CODE":0,"TOWNNAME":"安平區","LI":"平安里","LIN":"16鄰","STREET":"民權路","SECT":"四段","MAREA":" ","LANE":" ","ALLEY":" ","HOUSE_NO":"６６１號","E_COORD97":164944.79999999999,"N_COORD97":2544606.4700000002,"ADDRESS":"民權路四段６６１號","OBJECTID":581145},"geometry":{"x":164944.80000000075,"y":2544606.4700000025}},{"attributes":{"ID":581173,"DIS_CODE":0,"TOWNNAME":"新營區","LI":"民權里","LIN":"16鄰","STREET":"民權路","SECT":" ","MAREA":" ","LANE":" ","ALLEY":" ","HOUSE_NO":"１６號","E_COORD97":179766.10000000001,"N_COORD97":2578030.0699999998,"ADDRESS":"民權路１６號","OBJECTID":581146},"geometry":{"x":179766.09999999963,"y":2578030.0700000022}},{"attributes":{"ID":581174,"DIS_CODE":0,"TOWNNAME":"新營區","LI":"大宏里","LIN":"16鄰","STREET":"民治東路","SECT":" ","MAREA":" ","LANE":" ","ALLEY":" ","HOUSE_NO":"３１號","E_COORD97":180798.22,"N_COORD97":2578890.1200000001,"ADDRESS":"民治東路３１號","OBJECTID":581147},"geometry":{"x":180798.21999999881,"y":2578890.120000001}},{"attributes":{"ID":581175,"DIS_CODE":0,"TOWNNAME":"新營區","LI":"大宏里","LIN":"16鄰","STREET":"民治東路","SECT":" ","MAREA":" ","LANE":" ","ALLEY":" ","HOUSE_NO":"３７號","E_COORD97":180810.48999999999,"N_COORD97":2578891.1699999999,"ADDRESS":"民治東路３７號","OBJECTID":581148},"geometry":{"x":180810.48999999929,"y":2578891.1700000018}},{"attributes":{"ID":581176,"DIS_CODE":0,"TOWNNAME":"新營區","LI":"民權里","LIN":"16鄰","STREET":"民權路","SECT":" ","MAREA":" ","LANE":" ","ALLEY":" ","HOUSE_NO":"２８號","E_COORD97":179756.14000000001,"N_COORD97":2578073.2999999998,"ADDRESS":"民權路２８號","OBJECTID":581149},"geometry":{"x":179756.13999999873,"y":2578073.3000000026}},{"attributes":{"ID":581177,"DIS_CODE":0,"TOWNNAME":"新營區","LI":"大宏里","LIN":"16鄰","STREET":"綠川北街","SECT":" ","MAREA":" ","LANE":" ","ALLEY":" ","HOUSE_NO":"１５號","E_COORD97":180773.26999999999,"N_COORD97":2578826.0099999998,"ADDRESS":"綠川北街１５號","OBJECTID":581150},"geometry":{"x":180773.26999999955,"y":2578826.0099999979}},{"attributes":{"ID":581178,"DIS_CODE":0,"TOWNNAME":"新營區","LI":"王公里","LIN":"16鄰","STREET":"大仁街","SECT":" ","MAREA":" ","LANE":" ","ALLEY":" ","HOUSE_NO":"３７號","E_COORD97":180257.41,"N_COORD97":2579382.1600000001,"ADDRESS":"大仁街３７號","OBJECTID":581151},"geometry":{"x":180257.41000000108,"y":2579382.160000002}},{"attributes":{"ID":581179,"DIS_CODE":0,"TOWNNAME":"南區","LI":"新興里","LIN":"16鄰","STREET":"三官路","SECT":" ","MAREA":" ","LANE":" ","ALLEY":" ","HOUSE_NO":"３３號","E_COORD97":167359.37,"N_COORD97":2542349.8300000001,"ADDRESS":"三官路３３號","OBJECTID":581152},"geometry":{"x":167359.37000000011,"y":2542349.8300000001}},{"attributes":{"ID":581180,"DIS_CODE":0,"TOWNNAME":"南區","LI":"新興里","LIN":"16鄰","STREET":"三官路","SECT":" ","MAREA":" ","LANE":" ","ALLEY":" ","HOUSE_NO":"４１號","E_COORD97":167376.03,"N_COORD97":2542333.2400000002,"ADDRESS":"三官路４１號","OBJECTID":581153},"geometry":{"x":167376.03000000212,"y":2542333.2400000002}},{"attributes":{"ID":581181,"DIS_CODE":0,"TOWNNAME":"南區","LI":"新興里","LIN":"16鄰","STREET":"三官路","SECT":" ","MAREA":" ","LANE":" ","ALLEY":" ","HOUSE_NO":"４３號","E_COORD97":167371.14000000001,"N_COORD97":2542333.1299999999,"ADDRESS":"三官路４３號","OBJECTID":581154},"geometry":{"x":167371.14000000153,"y":2542333.129999999}},{"attributes":{"ID":581182,"DIS_CODE":0,"TOWNNAME":"歸仁區","LI":"辜厝里","LIN":"16鄰","STREET":"大順街","SECT":" ","MAREA":" ","LANE":" ","ALLEY":" ","HOUSE_NO":"３號","E_COORD97":177490.92000000001,"N_COORD97":2540509.6899999999,"ADDRESS":"大順街３號","OBJECTID":581155},"geometry":{"x":177490.91999999993,"y":2540509.6899999995}},{"attributes":{"ID":581183,"DIS_CODE":0,"TOWNNAME":"安平區","LI":"華平里","LIN":"16鄰","STREET":"國平路","SECT":" ","MAREA":" ","LANE":" ","ALLEY":" ","HOUSE_NO":"３３８號","E_COORD97":165051.60000000001,"N_COORD97":2543702.71,"ADDRESS":"國平路３３８號","OBJECTID":581156},"geometry":{"x":165051.59999999963,"y":2543702.7100000028}},{"attributes":{"ID":581184,"DIS_CODE":0,"TOWNNAME":"安平區","LI":"華平里","LIN":"16鄰","STREET":"國平路","SECT":" ","MAREA":" ","LANE":" ","ALLEY":" ","HOUSE_NO":"３４０號","E_COORD97":165052.10999999999,"N_COORD97":2543707.8599999999,"ADDRESS":"國平路３４０號","OBJECTID":581157},"geometry":{"x":165052.11000000127,"y":2543707.8599999994}},{"attributes":{"ID":581185,"DIS_CODE":0,"TOWNNAME":"安平區","LI":"華平里","LIN":"16鄰","STREET":"國平路","SECT":" ","MAREA":" ","LANE":" ","ALLEY":" ","HOUSE_NO":"３４２號","E_COORD97":165053.22,"N_COORD97":2543712.8100000001,"ADDRESS":"國平路３４２號","OBJECTID":581158},"geometry":{"x":165053.21999999974,"y":2543712.8100000005}},{"attributes":{"ID":581186,"DIS_CODE":0,"TOWNNAME":"安平區","LI":"華平里","LIN":"16鄰","STREET":"國平路","SECT":" ","MAREA":" ","LANE":" ","ALLEY":" ","HOUSE_NO":"３４６號","E_COORD97":165054.09,"N_COORD97":2543723.7799999998,"ADDRESS":"國平路３４６號","OBJECTID":581159},"geometry":{"x":165054.08999999985,"y":2543723.7800000012}},{"attributes":{"ID":581187,"DIS_CODE":0,"TOWNNAME":"安平區","LI":"華平里","LIN":"16鄰","STREET":"國平路","SECT":" ","MAREA":" ","LANE":" ","ALLEY":" ","HOUSE_NO":"３４８號","E_COORD97":165054.19,"N_COORD97":2543728.25,"ADDRESS":"國平路３４８號","OBJECTID":581160},"geometry":{"x":165054.18999999948,"y":2543728.2500000019}},{"attributes":{"ID":581188,"DIS_CODE":0,"TOWNNAME":"安平區","LI":"華平里","LIN":"16鄰","STREET":"國平路","SECT":" ","MAREA":" ","LANE":" ","ALLEY":" ","HOUSE_NO":"３５０號","E_COORD97":165054.76999999999,"N_COORD97":2543733.2000000002,"ADDRESS":"國平路３５０號","OBJECTID":581161},"geometry":{"x":165054.77000000048,"y":2543733.1999999993}},{"attributes":{"ID":581189,"DIS_CODE":0,"TOWNNAME":"安平區","LI":"華平里","LIN":"16鄰","STREET":"國平路","SECT":" ","MAREA":" ","LANE":" ","ALLEY":" ","HOUSE_NO":"３５２號","E_COORD97":165054.97,"N_COORD97":2543738.1200000001,"ADDRESS":"國平路３５２號","OBJECTID":581162},"geometry":{"x":165054.96999999881,"y":2543738.120000001}},{"attributes":{"ID":581190,"DIS_CODE":0,"TOWNNAME":"安平區","LI":"華平里","LIN":"16鄰","STREET":"國平路","SECT":" ","MAREA":" ","LANE":" ","ALLEY":" ","HOUSE_NO":"３５４號","E_COORD97":165055.54999999999,"N_COORD97":2543743.1600000001,"ADDRESS":"國平路３５４號","OBJECTID":581163},"geometry":{"x":165055.54999999981,"y":2543743.160000002}},{"attributes":{"ID":581191,"DIS_CODE":0,"TOWNNAME":"安平區","LI":"華平里","LIN":"16鄰","STREET":"國平路","SECT":" ","MAREA":" ","LANE":" ","ALLEY":" ","HOUSE_NO":"３５６號","E_COORD97":165056.14000000001,"N_COORD97":2543747.3399999999,"ADDRESS":"國平路３５６號","OBJECTID":581164},"geometry":{"x":165056.1400000006,"y":2543747.3400000036}},{"attributes":{"ID":581192,"DIS_CODE":0,"TOWNNAME":"安平區","LI":"華平里","LIN":"16鄰","STREET":"國平路","SECT":" ","MAREA":" ","LANE":" ","ALLEY":" ","HOUSE_NO":"３５８號","E_COORD97":165056.14000000001,"N_COORD97":2543751.4100000001,"ADDRESS":"國平路３５８號","OBJECTID":581165},"geometry":{"x":165056.1400000006,"y":2543751.410000002}},{"attributes":{"ID":581193,"DIS_CODE":0,"TOWNNAME":"安平區","LI":"華平里","LIN":"16鄰","STREET":"國平路","SECT":" ","MAREA":" ","LANE":" ","ALLEY":" ","HOUSE_NO":"３６０號","E_COORD97":165056.42999999999,"N_COORD97":2543755.1000000001,"ADDRESS":"國平路３６０號","OBJECTID":581166},"geometry":{"x":165056.4299999997,"y":2543755.0999999978}},{"attributes":{"ID":581194,"DIS_CODE":0,"TOWNNAME":"中西區","LI":"銀同里","LIN":"16鄰","STREET":"青年路","SECT":" ","MAREA":" ","LANE":" ","ALLEY":" ","HOUSE_NO":"６號","E_COORD97":168578.82999999999,"N_COORD97":2543641.8700000001,"ADDRESS":"青年路６號","OBJECTID":581167},"geometry":{"x":168578.83000000007,"y":2543641.870000001}},{"attributes":{"ID":581195,"DIS_CODE":0,"TOWNNAME":"安平區","LI":"華平里","LIN":"16鄰","STREET":"國平路","SECT":" ","MAREA":" ","LANE":" ","ALLEY":" ","HOUSE_NO":"３６２號","E_COORD97":165056.92000000001,"N_COORD97":2543759.9500000002,"ADDRESS":"國平路３６２號","OBJECTID":581168},"geometry":{"x":165056.91999999993,"y":2543759.9500000011}},{"attributes":{"ID":581196,"DIS_CODE":0,"TOWNNAME":"安平區","LI":"建平里","LIN":"16鄰","STREET":"建平十二街","SECT":" ","MAREA":" ","LANE":" ","ALLEY":" ","HOUSE_NO":"９９號","E_COORD97":165875.67000000001,"N_COORD97":2543993.5099999998,"ADDRESS":"建平十二街９９號","OBJECTID":581169},"geometry":{"x":165875.66999999993,"y":2543993.5100000035}},{"attributes":{"ID":581197,"DIS_CODE":0,"TOWNNAME":"安平區","LI":"建平里","LIN":"16鄰","STREET":"建平十二街","SECT":" ","MAREA":" ","LANE":" ","ALLEY":" ","HOUSE_NO":"９９之１號","E_COORD97":165871.13,"N_COORD97":2543994.02,"ADDRESS":"建平十二街９９之１號","OBJECTID":581170},"geometry":{"x":165871.12999999896,"y":2543994.0200000014}},{"attributes":{"ID":581198,"DIS_CODE":0,"TOWNNAME":"安平區","LI":"建平里","LIN":"16鄰","STREET":"建平十二街","SECT":" ","MAREA":" ","LANE":" ","ALLEY":" ","HOUSE_NO":"９５之１號","E_COORD97":165888.29999999999,"N_COORD97":2543991.6600000001,"ADDRESS":"建平十二街９５之１號","OBJECTID":581171},"geometry":{"x":165888.29999999981,"y":2543991.6600000001}},{"attributes":{"ID":581199,"DIS_CODE":0,"TOWNNAME":"北區","LI":"玉皇里","LIN":"16鄰","STREET":"成功路","SECT":" ","MAREA":" ","LANE":" ","ALLEY":" ","HOUSE_NO":"６４號","E_COORD97":168684.73999999999,"N_COORD97":2544305.6499999999,"ADDRESS":"成功路６４號","OBJECTID":581172},"geometry":{"x":168684.73999999929,"y":2544305.6500000022}},{"attributes":{"ID":581200,"DIS_CODE":0,"TOWNNAME":"北區","LI":"玉皇里","LIN":"16鄰","STREET":"成功路","SECT":" ","MAREA":" ","LANE":" ","ALLEY":" ","HOUSE_NO":"６６號","E_COORD97":168682.01999999999,"N_COORD97":2544307.0499999998,"ADDRESS":"成功路６６號","OBJECTID":581173},"geometry":{"x":168682.01999999955,"y":2544307.0500000026}},{"attributes":{"ID":581201,"DIS_CODE":0,"TOWNNAME":"歸仁區","LI":"看西里","LIN":"16鄰","STREET":"仁愛南街","SECT":" ","MAREA":" ","LANE":" ","ALLEY":" ","HOUSE_NO":"３０３號","E_COORD97":178273.26000000001,"N_COORD97":2540051.1200000001,"ADDRESS":"仁愛南街３０３號","OBJECTID":581174},"geometry":{"x":178273.25999999978,"y":2540051.1200000048}},{"attributes":{"ID":581202,"DIS_CODE":0,"TOWNNAME":"中西區","LI":"郡王里","LIN":"8鄰","STREET":"大埔街","SECT":" ","MAREA":" ","LANE":" ","ALLEY":" ","HOUSE_NO":"９７號之３５","E_COORD97":168779.92999999999,"N_COORD97":2542942.8300000001,"ADDRESS":"大埔街９７號之３５","OBJECTID":581175},"geometry":{"x":168779.93000000063,"y":2542942.8300000001}},{"attributes":{"ID":581203,"DIS_CODE":0,"TOWNNAME":"中西區","LI":"郡王里","LIN":"8鄰","STREET":"大埔街","SECT":" ","MAREA":" ","LANE":" ","ALLEY":" ","HOUSE_NO":"９７號之９","E_COORD97":168790.57000000001,"N_COORD97":2542909.5,"ADDRESS":"大埔街９７號之９","OBJECTID":581176},"geometry":{"x":168790.5700000003,"y":2542909.5000000019}},{"attributes":{"ID":581204,"DIS_CODE":0,"TOWNNAME":"中西區","LI":"郡王里","LIN":"8鄰","STREET":"建業街","SECT":" ","MAREA":" ","LANE":" ","ALLEY":" ","HOUSE_NO":"１７號","E_COORD97":168611.04000000001,"N_COORD97":2543136.9900000002,"ADDRESS":"建業街１７號","OBJECTID":581177},"geometry":{"x":168611.04000000004,"y":2543136.9900000021}},{"attributes":{"ID":581205,"DIS_CODE":0,"TOWNNAME":"中西區","LI":"郡王里","LIN":"8鄰","STREET":"建業街","SECT":" ","MAREA":" ","LANE":" ","ALLEY":" ","HOUSE_NO":"１９號","E_COORD97":168601.98000000001,"N_COORD97":2543137.4100000001,"ADDRESS":"建業街１９號","OBJECTID":581178},"geometry":{"x":168601.97999999952,"y":2543137.410000002}},{"attributes":{"ID":581206,"DIS_CODE":0,"TOWNNAME":"中西區","LI":"郡王里","LIN":"8鄰","STREET":"建業街","SECT":" ","MAREA":" ","LANE":" ","ALLEY":" ","HOUSE_NO":"２１號","E_COORD97":168593.07000000001,"N_COORD97":2543137.5,"ADDRESS":"建業街２１號","OBJECTID":581179},"geometry":{"x":168593.07000000123,"y":2543137.5000000019}},{"attributes":{"ID":581207,"DIS_CODE":0,"TOWNNAME":"中西區","LI":"郡王里","LIN":"9鄰","STREET":"樹林街","SECT":"二段","MAREA":" ","LANE":" ","ALLEY":" ","HOUSE_NO":"１７４號","E_COORD97":168723.91,"N_COORD97":2542907.9900000002,"ADDRESS":"樹林街二段１７４號","OBJECTID":581180},"geometry":{"x":168723.91000000015,"y":2542907.9900000002}},{"attributes":{"ID":581208,"DIS_CODE":0,"TOWNNAME":"玉井區","LI":"中正里","LIN":"16鄰","STREET":"前園街","SECT":" ","MAREA":" ","LANE":" ","ALLEY":" ","HOUSE_NO":"４５號","E_COORD97":195208.95000000001,"N_COORD97":2558616.2400000002,"ADDRESS":"前園街４５號","OBJECTID":581181},"geometry":{"x":195208.95000000019,"y":2558616.2400000021}},{"attributes":{"ID":581209,"DIS_CODE":0,"TOWNNAME":"玉井區","LI":"中正里","LIN":"16鄰","STREET":"玉安街","SECT":" ","MAREA":" ","LANE":" ","ALLEY":" ","HOUSE_NO":"２００號","E_COORD97":195180.07000000001,"N_COORD97":2558653.3199999998,"ADDRESS":"玉安街２００號","OBJECTID":581182},"geometry":{"x":195180.0700000003,"y":2558653.3200000022}},{"attributes":{"ID":581210,"DIS_CODE":0,"TOWNNAME":"學甲區","LI":"明宜里","LIN":"16鄰","STREET":"重信路","SECT":" ","MAREA":" ","LANE":" ","ALLEY":" ","HOUSE_NO":"８號","E_COORD97":166071.89999999999,"N_COORD97":2570595.4100000001,"ADDRESS":"重信路８號","OBJECTID":581183},"geometry":{"x":166071.9000000013,"y":2570595.4100000039}},{"attributes":{"ID":581211,"DIS_CODE":0,"TOWNNAME":"北區","LI":"大豐里","LIN":"16鄰","STREET":"武聖路","SECT":" ","MAREA":" ","LANE":" ","ALLEY":" ","HOUSE_NO":"１６６號","E_COORD97":166929.39000000001,"N_COORD97":2545274.1299999999,"ADDRESS":"武聖路１６６號","OBJECTID":581184},"geometry":{"x":166929.3900000006,"y":2545274.1300000008}},{"attributes":{"ID":581212,"DIS_CODE":0,"TOWNNAME":"北區","LI":"大豐里","LIN":"16鄰","STREET":"武聖路","SECT":" ","MAREA":" ","LANE":" ","ALLEY":" ","HOUSE_NO":"１８０號","E_COORD97":166899.17999999999,"N_COORD97":2545290.1000000001,"ADDRESS":"武聖路１８０號","OBJECTID":581185},"geometry":{"x":166899.1799999997,"y":2545290.0999999996}},{"attributes":{"ID":581213,"DIS_CODE":0,"TOWNNAME":"歸仁區","LI":"六甲里","LIN":"16鄰","STREET":"六甲路","SECT":" ","MAREA":" ","LANE":" ","ALLEY":" ","HOUSE_NO":"２７７號","E_COORD97":175834.47,"N_COORD97":2539209.25,"ADDRESS":"六甲路２７７號","OBJECTID":581186},"geometry":{"x":175834.46999999974,"y":2539209.2500000019}},{"attributes":{"ID":581214,"DIS_CODE":0,"TOWNNAME":"新營區","LI":"王公里","LIN":"16鄰","STREET":"大仁街","SECT":" ","MAREA":" ","LANE":" ","ALLEY":" ","HOUSE_NO":"８號","E_COORD97":180188.56,"N_COORD97":2579366.9700000002,"ADDRESS":"大仁街８號","OBJECTID":581187},"geometry":{"x":180188.55999999959,"y":2579366.9700000025}},{"attributes":{"ID":581215,"DIS_CODE":0,"TOWNNAME":"新營區","LI":"民生里","LIN":"16鄰","STREET":"中華路","SECT":" ","MAREA":" ","LANE":" ","ALLEY":" ","HOUSE_NO":"１２４之２號","E_COORD97":179116.98999999999,"N_COORD97":2578191.5899999999,"ADDRESS":"中華路１２４之２號","OBJECTID":581188},"geometry":{"x":179116.98999999929,"y":2578191.5900000036}},{"attributes":{"ID":581216,"DIS_CODE":0,"TOWNNAME":"新營區","LI":"新東里","LIN":"16鄰","STREET":"東泰五街","SECT":" ","MAREA":" ","LANE":" ","ALLEY":" ","HOUSE_NO":"４８號","E_COORD97":181027.85999999999,"N_COORD97":2579665.3799999999,"ADDRESS":"東泰五街４８號","OBJECTID":581189},"geometry":{"x":181027.86000000034,"y":2579665.379999999}},{"attributes":{"ID":581217,"DIS_CODE":0,"TOWNNAME":"中西區","LI":"郡王里","LIN":"18鄰","STREET":"府前路","SECT":"一段","MAREA":" ","LANE":" ","ALLEY":" ","HOUSE_NO":"１５５號","E_COORD97":168662.98000000001,"N_COORD97":2543252.6299999999,"ADDRESS":"府前路一段１５５號","OBJECTID":581190},"geometry":{"x":168662.98000000045,"y":2543252.6300000027}},{"attributes":{"ID":581218,"DIS_CODE":0,"TOWNNAME":"中西區","LI":"郡王里","LIN":"18鄰","STREET":"府前路","SECT":"一段","MAREA":" ","LANE":" ","ALLEY":" ","HOUSE_NO":"１５５號之１","E_COORD97":168659.72,"N_COORD97":2543207.1499999999,"ADDRESS":"府前路一段１５５號之１","OBJECTID":581191},"geometry":{"x":168659.72000000067,"y":2543207.1500000022}},{"attributes":{"ID":581219,"DIS_CODE":0,"TOWNNAME":"中西區","LI":"郡王里","LIN":"18鄰","STREET":"府前路","SECT":"一段","MAREA":" ","LANE":" ","ALLEY":" ","HOUSE_NO":"１５７號之１","E_COORD97":168645.16,"N_COORD97":2543184.2999999998,"ADDRESS":"府前路一段１５７號之１","OBJECTID":581192},"geometry":{"x":168645.16000000108,"y":2543184.3000000007}},{"attributes":{"ID":581220,"DIS_CODE":0,"TOWNNAME":"中西區","LI":"郡王里","LIN":"18鄰","STREET":"府前路","SECT":"一段","MAREA":" ","LANE":" ","ALLEY":" ","HOUSE_NO":"１５７號之２","E_COORD97":168633.22,"N_COORD97":2543183.8900000001,"ADDRESS":"府前路一段１５７號之２","OBJECTID":581193},"geometry":{"x":168633.21999999974,"y":2543183.8900000006}},{"attributes":{"ID":581221,"DIS_CODE":0,"TOWNNAME":"中西區","LI":"郡王里","LIN":"18鄰","STREET":"府前路","SECT":"一段","MAREA":" ","LANE":" ","ALLEY":" ","HOUSE_NO":"１５７號之３","E_COORD97":168620.87,"N_COORD97":2543185.3999999999,"ADDRESS":"府前路一段１５７號之３","OBJECTID":581194},"geometry":{"x":168620.87000000011,"y":2543185.4000000022}},{"attributes":{"ID":581222,"DIS_CODE":0,"TOWNNAME":"中西區","LI":"郡王里","LIN":"18鄰","STREET":"府前路","SECT":"一段","MAREA":" ","LANE":" ","ALLEY":" ","HOUSE_NO":"１５７號之４","E_COORD97":168608.51999999999,"N_COORD97":2543185.2599999998,"ADDRESS":"府前路一段１５７號之４","OBJECTID":581195},"geometry":{"x":168608.52000000048,"y":2543185.2600000016}},{"attributes":{"ID":581223,"DIS_CODE":0,"TOWNNAME":"中西區","LI":"郡王里","LIN":"18鄰","STREET":"府前路","SECT":"一段","MAREA":" ","LANE":" ","ALLEY":" ","HOUSE_NO":"１５７號之５","E_COORD97":168591.38,"N_COORD97":2543183.8700000001,"ADDRESS":"府前路一段１５７號之５","OBJECTID":581196},"geometry":{"x":168591.37999999989,"y":2543183.870000001}},{"attributes":{"ID":581224,"DIS_CODE":0,"TOWNNAME":"中西區","LI":"郡王里","LIN":"18鄰","STREET":"府前路","SECT":"一段","MAREA":" ","LANE":" ","ALLEY":" ","HOUSE_NO":"１５７號之６","E_COORD97":168575.01000000001,"N_COORD97":2543182.6099999999,"ADDRESS":"府前路一段１５７號之６","OBJECTID":581197},"geometry":{"x":168575.00999999978,"y":2543182.6100000013}},{"attributes":{"ID":581225,"DIS_CODE":0,"TOWNNAME":"中西區","LI":"郡王里","LIN":"18鄰","STREET":"府前路","SECT":"一段","MAREA":" ","LANE":" ","ALLEY":" ","HOUSE_NO":"１５７號之７","E_COORD97":168565.17999999999,"N_COORD97":2543210.5800000001,"ADDRESS":"府前路一段１５７號之７","OBJECTID":581198},"geometry":{"x":168565.18000000063,"y":2543210.5800000019}},{"attributes":{"ID":581226,"DIS_CODE":0,"TOWNNAME":"新營區","LI":"民權里","LIN":"16鄰","STREET":"中山路","SECT":" ","MAREA":" ","LANE":" ","ALLEY":" ","HOUSE_NO":"２８６之１號","E_COORD97":179815.66,"N_COORD97":2577968.98,"ADDRESS":"中山路２８６之１號","OBJECTID":581199},"geometry":{"x":179815.66000000015,"y":2577968.9800000004}},{"attributes":{"ID":581227,"DIS_CODE":0,"TOWNNAME":"新營區","LI":"王公里","LIN":"16鄰","STREET":"大仁街","SECT":" ","MAREA":" ","LANE":" ","ALLEY":" ","HOUSE_NO":"３２號","E_COORD97":180259.39000000001,"N_COORD97":2579369.9700000002,"ADDRESS":"大仁街３２號","OBJECTID":581200},"geometry":{"x":180259.38999999966,"y":2579369.9700000044}}]}