{"displayFieldName":"TOWNNAME","fieldAliases":{"ID":"ID","DIS_CODE":"DIS_CODE","TOWNNAME":"TOWNNAME","LI":"LI","LIN":"LIN","STREET":"STREET","SECT":"SECT","MAREA":"MAREA","LANE":"LANE","ALLEY":"ALLEY","HOUSE_NO":"HOUSE_NO","E_COORD97":"E_COORD97","N_COORD97":"N_COORD97","ADDRESS":"ADDRESS","OBJECTID":"OBJECTID"},"geometryType":"esriGeometryPoint","spatialReference":{"wkid":102443,"latestWkid":3826},"fields":[{"name":"ID","type":"esriFieldTypeDouble","alias":"ID"},{"name":"DIS_CODE","type":"esriFieldTypeInteger","alias":"DIS_CODE"},{"name":"TOWNNAME","type":"esriFieldTypeString","alias":"TOWNNAME","length":8},{"name":"LI","type":"esriFieldTypeString","alias":"LI","length":8},{"name":"LIN","type":"esriFieldTypeString","alias":"LIN","length":12},{"name":"STREET","type":"esriFieldTypeString","alias":"STREET","length":20},{"name":"SECT","type":"esriFieldTypeString","alias":"SECT","length":8},{"name":"MAREA","type":"esriFieldTypeString","alias":"MAREA","length":12},{"name":"LANE","type":"esriFieldTypeString","alias":"LANE","length":10},{"name":"ALLEY","type":"esriFieldTypeString","alias":"ALLEY","length":10},{"name":"HOUSE_NO","type":"esriFieldTypeString","alias":"HOUSE_NO","length":20},{"name":"E_COORD97","type":"esriFieldTypeDouble","alias":"E_COORD97"},{"name":"N_COORD97","type":"esriFieldTypeDouble","alias":"N_COORD97"},{"name":"ADDRESS","type":"esriFieldTypeString","alias":"ADDRESS","length":50},{"name":"OBJECTID","type":"esriFieldTypeOID","alias":"OBJECTID"}],"features":[{"attributes":{"ID":592628,"DIS_CODE":0,"TOWNNAME":"安南區","LI":"學東里","LIN":"11鄰","STREET":"公學路","SECT":"六段","MAREA":" ","LANE":" ","ALLEY":" ","HOUSE_NO":"６６８號","E_COORD97":162205.01000000001,"N_COORD97":2553274.5499999998,"ADDRESS":"公學路六段６６８號","OBJECTID":592601},"geometry":{"x":162205.00999999978,"y":2553274.5500000026}},{"attributes":{"ID":592629,"DIS_CODE":0,"TOWNNAME":"安南區","LI":"總頭里","LIN":"11鄰","STREET":"長溪路","SECT":"二段","MAREA":" ","LANE":" ","ALLEY":" ","HOUSE_NO":"５６９號","E_COORD97":168234.29000000001,"N_COORD97":2550634.3799999999,"ADDRESS":"長溪路二段５６９號","OBJECTID":592602},"geometry":{"x":168234.29000000004,"y":2550634.379999999}},{"attributes":{"ID":592630,"DIS_CODE":0,"TOWNNAME":"安南區","LI":"新順里","LIN":"11鄰","STREET":"安豐六街","SECT":" ","MAREA":" ","LANE":" ","ALLEY":" ","HOUSE_NO":"２２５號","E_COORD97":169752.35000000001,"N_COORD97":2549600.3500000001,"ADDRESS":"安豐六街２２５號","OBJECTID":592603},"geometry":{"x":169752.34999999963,"y":2549600.3499999996}},{"attributes":{"ID":592631,"DIS_CODE":0,"TOWNNAME":"永康區","LI":"復國里","LIN":"11鄰","STREET":"復國二路","SECT":" ","MAREA":" ","LANE":" ","ALLEY":" ","HOUSE_NO":"９９號","E_COORD97":172854.14000000001,"N_COORD97":2545469.2000000002,"ADDRESS":"復國二路９９號","OBJECTID":592604},"geometry":{"x":172854.1400000006,"y":2545469.1999999993}},{"attributes":{"ID":592632,"DIS_CODE":0,"TOWNNAME":"永康區","LI":"\u25A0洲里","LIN":"11鄰","STREET":"\u25A0行路","SECT":" ","MAREA":" ","LANE":" ","ALLEY":" ","HOUSE_NO":"１２７號","E_COORD97":171386.69,"N_COORD97":2549213.5899999999,"ADDRESS":"\u25A0行路１２７號","OBJECTID":592605},"geometry":{"x":171386.69000000041,"y":2549213.5899999999}},{"attributes":{"ID":592633,"DIS_CODE":0,"TOWNNAME":"永康區","LI":"\u25A0行里","LIN":"11鄰","STREET":"中正路","SECT":" ","MAREA":" ","LANE":" ","ALLEY":" ","HOUSE_NO":"５１７號","E_COORD97":172195.69,"N_COORD97":2548679.1200000001,"ADDRESS":"中正路５１７號","OBJECTID":592606},"geometry":{"x":172195.69000000041,"y":2548679.120000001}},{"attributes":{"ID":592634,"DIS_CODE":0,"TOWNNAME":"永康區","LI":"中華里","LIN":"11鄰","STREET":"小東路","SECT":" ","MAREA":" ","LANE":" ","ALLEY":" ","HOUSE_NO":"５６３號","E_COORD97":171750.22,"N_COORD97":2544339.5299999998,"ADDRESS":"小東路５６３號","OBJECTID":592607},"geometry":{"x":171750.22000000067,"y":2544339.5300000012}},{"attributes":{"ID":592635,"DIS_CODE":0,"TOWNNAME":"永康區","LI":"崑山里","LIN":"11鄰","STREET":"大灣路","SECT":" ","MAREA":" ","LANE":" ","ALLEY":" ","HOUSE_NO":"１０５６號","E_COORD97":173341.70999999999,"N_COORD97":2544370.6699999999,"ADDRESS":"大灣路１０５６號","OBJECTID":592608},"geometry":{"x":173341.71000000089,"y":2544370.6699999999}},{"attributes":{"ID":592636,"DIS_CODE":0,"TOWNNAME":"永康區","LI":"崑山里","LIN":"11鄰","STREET":"大灣路","SECT":" ","MAREA":" ","LANE":" ","ALLEY":" ","HOUSE_NO":"１１００號","E_COORD97":173271.01999999999,"N_COORD97":2544363.4500000002,"ADDRESS":"大灣路１１００號","OBJECTID":592609},"geometry":{"x":173271.01999999862,"y":2544363.4500000011}},{"attributes":{"ID":592637,"DIS_CODE":0,"TOWNNAME":"永康區","LI":"崑山里","LIN":"11鄰","STREET":"大灣路","SECT":" ","MAREA":" ","LANE":" ","ALLEY":" ","HOUSE_NO":"１０４２號","E_COORD97":173381.28,"N_COORD97":2544377.8700000001,"ADDRESS":"大灣路１０４２號","OBJECTID":592610},"geometry":{"x":173381.28000000026,"y":2544377.870000001}},{"attributes":{"ID":592638,"DIS_CODE":0,"TOWNNAME":"永康區","LI":"崑山里","LIN":"11鄰","STREET":"大灣路","SECT":" ","MAREA":" ","LANE":" ","ALLEY":" ","HOUSE_NO":"１０３０號","E_COORD97":173412.26000000001,"N_COORD97":2544382.5,"ADDRESS":"大灣路１０３０號","OBJECTID":592611},"geometry":{"x":173412.26000000164,"y":2544382.5}},{"attributes":{"ID":592639,"DIS_CODE":0,"TOWNNAME":"永康區","LI":"崑山里","LIN":"11鄰","STREET":"大灣路","SECT":" ","MAREA":" ","LANE":" ","ALLEY":" ","HOUSE_NO":"１０９２號","E_COORD97":173286.87,"N_COORD97":2544361.8199999998,"ADDRESS":"大灣路１０９２號","OBJECTID":592612},"geometry":{"x":173286.87000000104,"y":2544361.8200000022}},{"attributes":{"ID":592640,"DIS_CODE":0,"TOWNNAME":"永康區","LI":"崑山里","LIN":"11鄰","STREET":"大灣路","SECT":" ","MAREA":" ","LANE":" ","ALLEY":" ","HOUSE_NO":"１０２６號","E_COORD97":173421.26000000001,"N_COORD97":2544384.0600000001,"ADDRESS":"大灣路１０２６號","OBJECTID":592613},"geometry":{"x":173421.26000000071,"y":2544384.0600000024}},{"attributes":{"ID":592641,"DIS_CODE":0,"TOWNNAME":"永康區","LI":"崑山里","LIN":"11鄰","STREET":"大灣路","SECT":" ","MAREA":" ","LANE":" ","ALLEY":" ","HOUSE_NO":"１０４６號","E_COORD97":173369.23000000001,"N_COORD97":2544372.6899999999,"ADDRESS":"大灣路１０４６號","OBJECTID":592614},"geometry":{"x":173369.23000000138,"y":2544372.6900000013}},{"attributes":{"ID":592642,"DIS_CODE":0,"TOWNNAME":"永康區","LI":"崑山里","LIN":"11鄰","STREET":"大灣路","SECT":" ","MAREA":" ","LANE":" ","ALLEY":" ","HOUSE_NO":"１０３４號","E_COORD97":173399.29000000001,"N_COORD97":2544380.4199999999,"ADDRESS":"大灣路１０３４號","OBJECTID":592615},"geometry":{"x":173399.29000000097,"y":2544380.4199999999}},{"attributes":{"ID":592643,"DIS_CODE":0,"TOWNNAME":"東區","LI":"關聖里","LIN":"11鄰","STREET":"裕農二街","SECT":" ","MAREA":" ","LANE":" ","ALLEY":" ","HOUSE_NO":"５０號","E_COORD97":171937.06,"N_COORD97":2543047.2200000002,"ADDRESS":"裕農二街５０號","OBJECTID":592616},"geometry":{"x":171937.06000000052,"y":2543047.2200000044}},{"attributes":{"ID":592644,"DIS_CODE":0,"TOWNNAME":"安南區","LI":"新順里","LIN":"11鄰","STREET":"安豐六街","SECT":" ","MAREA":" ","LANE":" ","ALLEY":" ","HOUSE_NO":"２３９號","E_COORD97":169783.98000000001,"N_COORD97":2549589.1499999999,"ADDRESS":"安豐六街２３９號","OBJECTID":592617},"geometry":{"x":169783.98000000138,"y":2549589.1500000004}},{"attributes":{"ID":592645,"DIS_CODE":0,"TOWNNAME":"安南區","LI":"新順里","LIN":"11鄰","STREET":"安豐六街","SECT":" ","MAREA":" ","LANE":" ","ALLEY":" ","HOUSE_NO":"２４１號","E_COORD97":169789.42000000001,"N_COORD97":2549587.2999999998,"ADDRESS":"安豐六街２４１號","OBJECTID":592618},"geometry":{"x":169789.42000000086,"y":2549587.3000000026}},{"attributes":{"ID":592646,"DIS_CODE":0,"TOWNNAME":"東區","LI":"關聖里","LIN":"11鄰","STREET":"裕農二街","SECT":" ","MAREA":" ","LANE":" ","ALLEY":" ","HOUSE_NO":"４８號","E_COORD97":171944.19,"N_COORD97":2543044.1600000001,"ADDRESS":"裕農二街４８號","OBJECTID":592619},"geometry":{"x":171944.19000000134,"y":2543044.160000002}},{"attributes":{"ID":592647,"DIS_CODE":0,"TOWNNAME":"安南區","LI":"新順里","LIN":"11鄰","STREET":"安豐六街","SECT":" ","MAREA":" ","LANE":" ","ALLEY":" ","HOUSE_NO":"２４７號","E_COORD97":169793.09,"N_COORD97":2549586.1600000001,"ADDRESS":"安豐六街２４７號","OBJECTID":592620},"geometry":{"x":169793.09000000078,"y":2549586.1600000001}},{"attributes":{"ID":592648,"DIS_CODE":0,"TOWNNAME":"安南區","LI":"新順里","LIN":"11鄰","STREET":"安豐六街","SECT":" ","MAREA":" ","LANE":" ","ALLEY":" ","HOUSE_NO":"２４９號","E_COORD97":169796.97,"N_COORD97":2549584.8199999998,"ADDRESS":"安豐六街２４９號","OBJECTID":592621},"geometry":{"x":169796.97000000067,"y":2549584.8200000003}},{"attributes":{"ID":592649,"DIS_CODE":0,"TOWNNAME":"安南區","LI":"新順里","LIN":"11鄰","STREET":"育安四街","SECT":" ","MAREA":" ","LANE":" ","ALLEY":" ","HOUSE_NO":"６８號","E_COORD97":169727.89000000001,"N_COORD97":2549638.0899999999,"ADDRESS":"育安四街６８號","OBJECTID":592622},"geometry":{"x":169727.8900000006,"y":2549638.0900000036}},{"attributes":{"ID":592650,"DIS_CODE":0,"TOWNNAME":"安南區","LI":"安慶里","LIN":"11鄰","STREET":"長溪路","SECT":"一段","MAREA":" ","LANE":" ","ALLEY":" ","HOUSE_NO":"２２０之１號","E_COORD97":168913.72,"N_COORD97":2548671.4399999999,"ADDRESS":"長溪路一段２２０之１號","OBJECTID":592623},"geometry":{"x":168913.72000000067,"y":2548671.4399999995}},{"attributes":{"ID":592651,"DIS_CODE":0,"TOWNNAME":"安南區","LI":"安慶里","LIN":"11鄰","STREET":"長溪路","SECT":"一段","MAREA":" ","LANE":" ","ALLEY":" ","HOUSE_NO":"２４１之１號","E_COORD97":168868.26000000001,"N_COORD97":2548665.8500000001,"ADDRESS":"長溪路一段２４１之１號","OBJECTID":592624},"geometry":{"x":168868.25999999978,"y":2548665.8499999996}},{"attributes":{"ID":592652,"DIS_CODE":0,"TOWNNAME":"安南區","LI":"安慶里","LIN":"11鄰","STREET":"長溪路","SECT":"一段","MAREA":" ","LANE":" ","ALLEY":" ","HOUSE_NO":"２４１之２號","E_COORD97":168875.37,"N_COORD97":2548660.1400000001,"ADDRESS":"長溪路一段２４１之２號","OBJECTID":592625},"geometry":{"x":168875.37000000197,"y":2548660.1400000025}},{"attributes":{"ID":592653,"DIS_CODE":0,"TOWNNAME":"東區","LI":"關聖里","LIN":"11鄰","STREET":"裕農二街","SECT":" ","MAREA":" ","LANE":" ","ALLEY":" ","HOUSE_NO":"１３２之１號","E_COORD97":171958.87,"N_COORD97":2542891.48,"ADDRESS":"裕農二街１３２之１號","OBJECTID":592626},"geometry":{"x":171958.86999999918,"y":2542891.4800000004}},{"attributes":{"ID":592654,"DIS_CODE":0,"TOWNNAME":"東區","LI":"關聖里","LIN":"11鄰","STREET":"裕農一街","SECT":" ","MAREA":" ","LANE":" ","ALLEY":" ","HOUSE_NO":"９１號","E_COORD97":171929.42999999999,"N_COORD97":2542955.79,"ADDRESS":"裕農一街９１號","OBJECTID":592627},"geometry":{"x":171929.43000000156,"y":2542955.7899999991}},{"attributes":{"ID":592655,"DIS_CODE":0,"TOWNNAME":"東區","LI":"關聖里","LIN":"11鄰","STREET":"裕農一街","SECT":" ","MAREA":" ","LANE":" ","ALLEY":" ","HOUSE_NO":"９３號","E_COORD97":171935.23999999999,"N_COORD97":2542958.9199999999,"ADDRESS":"裕農一街９３號","OBJECTID":592628},"geometry":{"x":171935.24000000115,"y":2542958.9199999999}},{"attributes":{"ID":592656,"DIS_CODE":0,"TOWNNAME":"東區","LI":"關聖里","LIN":"11鄰","STREET":"裕農一街","SECT":" ","MAREA":" ","LANE":" ","ALLEY":" ","HOUSE_NO":"９５號","E_COORD97":171940.82000000001,"N_COORD97":2542955.6699999999,"ADDRESS":"裕農一街９５號","OBJECTID":592629},"geometry":{"x":171940.82000000216,"y":2542955.6700000018}},{"attributes":{"ID":592657,"DIS_CODE":0,"TOWNNAME":"東區","LI":"關聖里","LIN":"11鄰","STREET":"裕農一街","SECT":" ","MAREA":" ","LANE":" ","ALLEY":" ","HOUSE_NO":"９７號","E_COORD97":171945.70999999999,"N_COORD97":2542960.0800000001,"ADDRESS":"裕農一街９７號","OBJECTID":592630},"geometry":{"x":171945.70999999996,"y":2542960.0800000019}},{"attributes":{"ID":592658,"DIS_CODE":0,"TOWNNAME":"東區","LI":"關聖里","LIN":"11鄰","STREET":"裕農一街","SECT":" ","MAREA":" ","LANE":" ","ALLEY":" ","HOUSE_NO":"９９號","E_COORD97":171946.35999999999,"N_COORD97":2542938.0600000001,"ADDRESS":"裕農一街９９號","OBJECTID":592631},"geometry":{"x":171946.36000000127,"y":2542938.0600000005}},{"attributes":{"ID":592659,"DIS_CODE":0,"TOWNNAME":"東區","LI":"關聖里","LIN":"11鄰","STREET":"裕農一街","SECT":" ","MAREA":" ","LANE":" ","ALLEY":" ","HOUSE_NO":"１０１號","E_COORD97":171940.67000000001,"N_COORD97":2542934.4900000002,"ADDRESS":"裕農一街１０１號","OBJECTID":592632},"geometry":{"x":171940.66999999993,"y":2542934.4900000021}},{"attributes":{"ID":592660,"DIS_CODE":0,"TOWNNAME":"東區","LI":"關聖里","LIN":"11鄰","STREET":"裕農一街","SECT":" ","MAREA":" ","LANE":" ","ALLEY":" ","HOUSE_NO":"１０３號","E_COORD97":171935.32000000001,"N_COORD97":2542937.7400000002,"ADDRESS":"裕農一街１０３號","OBJECTID":592633},"geometry":{"x":171935.3200000003,"y":2542937.7399999984}},{"attributes":{"ID":592661,"DIS_CODE":0,"TOWNNAME":"東區","LI":"關聖里","LIN":"11鄰","STREET":"裕農一街","SECT":" ","MAREA":" ","LANE":" ","ALLEY":" ","HOUSE_NO":"１０５號","E_COORD97":171929.63,"N_COORD97":2542933.6800000002,"ADDRESS":"裕農一街１０５號","OBJECTID":592634},"geometry":{"x":171929.62999999989,"y":2542933.6799999997}},{"attributes":{"ID":592662,"DIS_CODE":0,"TOWNNAME":"東區","LI":"關聖里","LIN":"11鄰","STREET":"裕農二街","SECT":" ","MAREA":" ","LANE":" ","ALLEY":" ","HOUSE_NO":"４０號","E_COORD97":171965.39000000001,"N_COORD97":2543046.6099999999,"ADDRESS":"裕農二街４０號","OBJECTID":592635},"geometry":{"x":171965.3900000006,"y":2543046.6100000031}},{"attributes":{"ID":592663,"DIS_CODE":0,"TOWNNAME":"東區","LI":"關聖里","LIN":"11鄰","STREET":"裕農二街","SECT":" ","MAREA":" ","LANE":" ","ALLEY":" ","HOUSE_NO":"４２號","E_COORD97":171957.85000000001,"N_COORD97":2543044.1600000001,"ADDRESS":"裕農二街４２號","OBJECTID":592636},"geometry":{"x":171957.84999999963,"y":2543044.160000002}},{"attributes":{"ID":592664,"DIS_CODE":0,"TOWNNAME":"東區","LI":"關聖里","LIN":"11鄰","STREET":"裕農二街","SECT":" ","MAREA":" ","LANE":" ","ALLEY":" ","HOUSE_NO":"４６號","E_COORD97":171951.12,"N_COORD97":2543046.6099999999,"ADDRESS":"裕農二街４６號","OBJECTID":592637},"geometry":{"x":171951.12000000104,"y":2543046.6100000031}},{"attributes":{"ID":592665,"DIS_CODE":0,"TOWNNAME":"東區","LI":"關聖里","LIN":"11鄰","STREET":"裕農二街","SECT":" ","MAREA":" ","LANE":" ","ALLEY":" ","HOUSE_NO":"５６號","E_COORD97":171937.28,"N_COORD97":2543023.1299999999,"ADDRESS":"裕農二街５６號","OBJECTID":592638},"geometry":{"x":171937.28000000026,"y":2543023.1300000008}},{"attributes":{"ID":592666,"DIS_CODE":0,"TOWNNAME":"東區","LI":"關聖里","LIN":"11鄰","STREET":"裕農二街","SECT":" ","MAREA":" ","LANE":" ","ALLEY":" ","HOUSE_NO":"５８號","E_COORD97":171944.53,"N_COORD97":2543019.5,"ADDRESS":"裕農二街５８號","OBJECTID":592639},"geometry":{"x":171944.53000000212,"y":2543019.5}},{"attributes":{"ID":592667,"DIS_CODE":0,"TOWNNAME":"東區","LI":"關聖里","LIN":"11鄰","STREET":"裕農二街","SECT":" ","MAREA":" ","LANE":" ","ALLEY":" ","HOUSE_NO":"６０號","E_COORD97":171951.79000000001,"N_COORD97":2543021.4399999999,"ADDRESS":"裕農二街６０號","OBJECTID":592640},"geometry":{"x":171951.79000000097,"y":2543021.4400000013}},{"attributes":{"ID":592668,"DIS_CODE":0,"TOWNNAME":"東區","LI":"關聖里","LIN":"11鄰","STREET":"裕農二街","SECT":" ","MAREA":" ","LANE":" ","ALLEY":" ","HOUSE_NO":"６２號","E_COORD97":171958.31,"N_COORD97":2543017.8100000001,"ADDRESS":"裕農二街６２號","OBJECTID":592641},"geometry":{"x":171958.30999999959,"y":2543017.8100000005}},{"attributes":{"ID":592669,"DIS_CODE":0,"TOWNNAME":"東區","LI":"關聖里","LIN":"11鄰","STREET":"裕農二街","SECT":" ","MAREA":" ","LANE":" ","ALLEY":" ","HOUSE_NO":"６４號","E_COORD97":171965.07999999999,"N_COORD97":2543021.4399999999,"ADDRESS":"裕農二街６４號","OBJECTID":592642},"geometry":{"x":171965.08000000101,"y":2543021.4400000013}},{"attributes":{"ID":592670,"DIS_CODE":0,"TOWNNAME":"東區","LI":"關聖里","LIN":"11鄰","STREET":"裕農二街","SECT":" ","MAREA":" ","LANE":" ","ALLEY":" ","HOUSE_NO":"６６號","E_COORD97":171966.63,"N_COORD97":2543003,"ADDRESS":"裕農二街６６號","OBJECTID":592643},"geometry":{"x":171966.62999999989,"y":2543003}},{"attributes":{"ID":592671,"DIS_CODE":0,"TOWNNAME":"東區","LI":"關聖里","LIN":"11鄰","STREET":"裕農二街","SECT":" ","MAREA":" ","LANE":" ","ALLEY":" ","HOUSE_NO":"６８號","E_COORD97":171961.5,"N_COORD97":2542999.8500000001,"ADDRESS":"裕農二街６８號","OBJECTID":592644},"geometry":{"x":171961.50000000186,"y":2542999.8499999996}},{"attributes":{"ID":592672,"DIS_CODE":0,"TOWNNAME":"東區","LI":"關聖里","LIN":"11鄰","STREET":"裕農二街","SECT":" ","MAREA":" ","LANE":" ","ALLEY":" ","HOUSE_NO":"７０號","E_COORD97":171955.70999999999,"N_COORD97":2543002.6699999999,"ADDRESS":"裕農二街７０號","OBJECTID":592645},"geometry":{"x":171955.70999999996,"y":2543002.6700000037}},{"attributes":{"ID":592673,"DIS_CODE":0,"TOWNNAME":"東區","LI":"關聖里","LIN":"11鄰","STREET":"裕農二街","SECT":" ","MAREA":" ","LANE":" ","ALLEY":" ","HOUSE_NO":"７２號","E_COORD97":171950.73999999999,"N_COORD97":2542998.8599999999,"ADDRESS":"裕農二街７２號","OBJECTID":592646},"geometry":{"x":171950.74000000022,"y":2542998.8600000013}},{"attributes":{"ID":592674,"DIS_CODE":0,"TOWNNAME":"東區","LI":"關聖里","LIN":"11鄰","STREET":"裕農二街","SECT":" ","MAREA":" ","LANE":" ","ALLEY":" ","HOUSE_NO":"７６號","E_COORD97":171940.47,"N_COORD97":2542997.7000000002,"ADDRESS":"裕農二街７６號","OBJECTID":592647},"geometry":{"x":171940.46999999974,"y":2542997.6999999993}},{"attributes":{"ID":592675,"DIS_CODE":0,"TOWNNAME":"東區","LI":"關聖里","LIN":"11鄰","STREET":"裕農二街","SECT":" ","MAREA":" ","LANE":" ","ALLEY":" ","HOUSE_NO":"７８號","E_COORD97":171934.67999999999,"N_COORD97":2543000.6800000002,"ADDRESS":"裕農二街７８號","OBJECTID":592648},"geometry":{"x":171934.68000000063,"y":2543000.6799999997}},{"attributes":{"ID":592676,"DIS_CODE":0,"TOWNNAME":"東區","LI":"關聖里","LIN":"11鄰","STREET":"裕農二街","SECT":" ","MAREA":" ","LANE":" ","ALLEY":" ","HOUSE_NO":"８０號","E_COORD97":171929.70999999999,"N_COORD97":2542997.7000000002,"ADDRESS":"裕農二街８０號","OBJECTID":592649},"geometry":{"x":171929.71000000089,"y":2542997.6999999993}},{"attributes":{"ID":592677,"DIS_CODE":0,"TOWNNAME":"東區","LI":"關聖里","LIN":"11鄰","STREET":"裕農二街","SECT":" ","MAREA":" ","LANE":" ","ALLEY":" ","HOUSE_NO":"８２號","E_COORD97":171929.70999999999,"N_COORD97":2542978.6800000002,"ADDRESS":"裕農二街８２號","OBJECTID":592650},"geometry":{"x":171929.71000000089,"y":2542978.6800000034}},{"attributes":{"ID":592678,"DIS_CODE":0,"TOWNNAME":"東區","LI":"關聖里","LIN":"11鄰","STREET":"裕農二街","SECT":" ","MAREA":" ","LANE":" ","ALLEY":" ","HOUSE_NO":"８４號","E_COORD97":171935.17999999999,"N_COORD97":2542975.04,"ADDRESS":"裕農二街８４號","OBJECTID":592651},"geometry":{"x":171935.18000000063,"y":2542975.0399999991}},{"attributes":{"ID":592679,"DIS_CODE":0,"TOWNNAME":"東區","LI":"關聖里","LIN":"11鄰","STREET":"裕農二街","SECT":" ","MAREA":" ","LANE":" ","ALLEY":" ","HOUSE_NO":"８６號","E_COORD97":171940.97,"N_COORD97":2542979.1699999999,"ADDRESS":"裕農二街８６號","OBJECTID":592652},"geometry":{"x":171940.9700000016,"y":2542979.1700000018}},{"attributes":{"ID":592680,"DIS_CODE":0,"TOWNNAME":"東區","LI":"關聖里","LIN":"11鄰","STREET":"裕農二街","SECT":" ","MAREA":" ","LANE":" ","ALLEY":" ","HOUSE_NO":"８８號","E_COORD97":171946.26999999999,"N_COORD97":2542974.21,"ADDRESS":"裕農二街８８號","OBJECTID":592653},"geometry":{"x":171946.27000000048,"y":2542974.2100000028}},{"attributes":{"ID":592681,"DIS_CODE":0,"TOWNNAME":"東區","LI":"關聖里","LIN":"11鄰","STREET":"裕農二街","SECT":" ","MAREA":" ","LANE":" ","ALLEY":" ","HOUSE_NO":"９０號","E_COORD97":171950.89999999999,"N_COORD97":2542977.8500000001,"ADDRESS":"裕農二街９０號","OBJECTID":592654},"geometry":{"x":171950.9000000013,"y":2542977.8500000015}},{"attributes":{"ID":592682,"DIS_CODE":0,"TOWNNAME":"東區","LI":"關聖里","LIN":"11鄰","STREET":"裕農二街","SECT":" ","MAREA":" ","LANE":" ","ALLEY":" ","HOUSE_NO":"９２號","E_COORD97":171956.53,"N_COORD97":2542975.04,"ADDRESS":"裕農二街９２號","OBJECTID":592655},"geometry":{"x":171956.53000000119,"y":2542975.0399999991}},{"attributes":{"ID":592683,"DIS_CODE":0,"TOWNNAME":"東區","LI":"關聖里","LIN":"11鄰","STREET":"裕農二街","SECT":" ","MAREA":" ","LANE":" ","ALLEY":" ","HOUSE_NO":"９６號","E_COORD97":171967.29999999999,"N_COORD97":2542976.2000000002,"ADDRESS":"裕農二街９６號","OBJECTID":592656},"geometry":{"x":171967.29999999981,"y":2542976.1999999993}},{"attributes":{"ID":592684,"DIS_CODE":0,"TOWNNAME":"仁德區","LI":"後壁里","LIN":"11鄰","STREET":"德善路","SECT":" ","MAREA":" ","LANE":" ","ALLEY":" ","HOUSE_NO":"２３９號","E_COORD97":173810.39000000001,"N_COORD97":2538716.7599999998,"ADDRESS":"德善路２３９號","OBJECTID":592657},"geometry":{"x":173810.38999999966,"y":2538716.7600000016}},{"attributes":{"ID":592685,"DIS_CODE":0,"TOWNNAME":"仁德區","LI":"新田里","LIN":"11鄰","STREET":"北保一街","SECT":" ","MAREA":" ","LANE":" ","ALLEY":" ","HOUSE_NO":"３４號","E_COORD97":173224.92000000001,"N_COORD97":2539462.2400000002,"ADDRESS":"北保一街３４號","OBJECTID":592658},"geometry":{"x":173224.92000000086,"y":2539462.2400000002}},{"attributes":{"ID":592686,"DIS_CODE":0,"TOWNNAME":"仁德區","LI":"成功里","LIN":"11鄰","STREET":"保生東路","SECT":" ","MAREA":" ","LANE":" ","ALLEY":" ","HOUSE_NO":"３１２號","E_COORD97":170991.20999999999,"N_COORD97":2539791.77,"ADDRESS":"保生東路３１２號","OBJECTID":592659},"geometry":{"x":170991.20999999996,"y":2539791.7700000014}},{"attributes":{"ID":592687,"DIS_CODE":0,"TOWNNAME":"仁德區","LI":"保安里","LIN":"11鄰","STREET":"中正路","SECT":"一段","MAREA":" ","LANE":" ","ALLEY":" ","HOUSE_NO":"２２９號之４","E_COORD97":171781.35000000001,"N_COORD97":2535967.2999999998,"ADDRESS":"中正路一段２２９號之４","OBJECTID":592660},"geometry":{"x":171781.35000000056,"y":2535967.2999999989}},{"attributes":{"ID":592688,"DIS_CODE":0,"TOWNNAME":"仁德區","LI":"成功里","LIN":"11鄰","STREET":"保生東路","SECT":" ","MAREA":" ","LANE":" ","ALLEY":" ","HOUSE_NO":"２９２號","E_COORD97":171022.98000000001,"N_COORD97":2539793.02,"ADDRESS":"保生東路２９２號","OBJECTID":592661},"geometry":{"x":171022.98000000138,"y":2539793.0200000014}},{"attributes":{"ID":592689,"DIS_CODE":0,"TOWNNAME":"仁德區","LI":"保安里","LIN":"11鄰","STREET":"文賢二街","SECT":" ","MAREA":" ","LANE":" ","ALLEY":" ","HOUSE_NO":"１６號","E_COORD97":171623.13,"N_COORD97":2536071.8300000001,"ADDRESS":"文賢二街１６號","OBJECTID":592662},"geometry":{"x":171623.13000000175,"y":2536071.8300000038}},{"attributes":{"ID":592690,"DIS_CODE":0,"TOWNNAME":"仁德區","LI":"保安里","LIN":"11鄰","STREET":"文賢路","SECT":"一段","MAREA":" ","LANE":" ","ALLEY":" ","HOUSE_NO":"８５５號","E_COORD97":171651.617405,"N_COORD97":2535934.2507799999,"ADDRESS":"文賢路一段８５５號","OBJECTID":592663},"geometry":{"x":171651.61740500107,"y":2535934.2507830001}},{"attributes":{"ID":592691,"DIS_CODE":0,"TOWNNAME":"仁德區","LI":"保安里","LIN":"11鄰","STREET":"文賢路","SECT":"一段","MAREA":" ","LANE":" ","ALLEY":" ","HOUSE_NO":"８４５號","E_COORD97":171630.70000000001,"N_COORD97":2536000.0699999998,"ADDRESS":"文賢路一段８４５號","OBJECTID":592664},"geometry":{"x":171630.70000000019,"y":2536000.0700000022}},{"attributes":{"ID":592692,"DIS_CODE":0,"TOWNNAME":"仁德區","LI":"成功里","LIN":"11鄰","STREET":"保生東路","SECT":" ","MAREA":" ","LANE":" ","ALLEY":" ","HOUSE_NO":"３２２號","E_COORD97":170973.70000000001,"N_COORD97":2539792.0600000001,"ADDRESS":"保生東路３２２號","OBJECTID":592665},"geometry":{"x":170973.70000000205,"y":2539792.0600000005}},{"attributes":{"ID":592693,"DIS_CODE":0,"TOWNNAME":"永康區","LI":"六合里","LIN":"11鄰","STREET":"六合路","SECT":" ","MAREA":" ","LANE":" ","ALLEY":" ","HOUSE_NO":"６４號","E_COORD97":171175.76000000001,"N_COORD97":2545675.4900000002,"ADDRESS":"六合路６４號","OBJECTID":592666},"geometry":{"x":171175.75999999978,"y":2545675.4899999984}},{"attributes":{"ID":592694,"DIS_CODE":0,"TOWNNAME":"永康區","LI":"六合里","LIN":"11鄰","STREET":"六合路","SECT":" ","MAREA":" ","LANE":" ","ALLEY":" ","HOUSE_NO":"６６號","E_COORD97":171179.97,"N_COORD97":2545698.1200000001,"ADDRESS":"六合路６６號","OBJECTID":592667},"geometry":{"x":171179.97000000067,"y":2545698.120000001}},{"attributes":{"ID":592695,"DIS_CODE":0,"TOWNNAME":"永康區","LI":"北灣里","LIN":"11鄰","STREET":"信義二街","SECT":" ","MAREA":" ","LANE":" ","ALLEY":" ","HOUSE_NO":"５９號","E_COORD97":175022.57000000001,"N_COORD97":2545715.4100000001,"ADDRESS":"信義二街５９號","OBJECTID":592668},"geometry":{"x":175022.5700000003,"y":2545715.4100000001}},{"attributes":{"ID":592696,"DIS_CODE":0,"TOWNNAME":"永康區","LI":"北灣里","LIN":"11鄰","STREET":"信義二街","SECT":" ","MAREA":" ","LANE":" ","ALLEY":" ","HOUSE_NO":"６１號","E_COORD97":175018.13,"N_COORD97":2545714.4900000002,"ADDRESS":"信義二街６１號","OBJECTID":592669},"geometry":{"x":175018.12999999989,"y":2545714.4900000021}},{"attributes":{"ID":592697,"DIS_CODE":0,"TOWNNAME":"永康區","LI":"北灣里","LIN":"11鄰","STREET":"信義二街","SECT":" ","MAREA":" ","LANE":" ","ALLEY":" ","HOUSE_NO":"６３號","E_COORD97":175013.28,"N_COORD97":2545710.5899999999,"ADDRESS":"信義二街６３號","OBJECTID":592670},"geometry":{"x":175013.28000000119,"y":2545710.5899999999}},{"attributes":{"ID":592698,"DIS_CODE":0,"TOWNNAME":"永康區","LI":"大灣里","LIN":"11鄰","STREET":"大灣六街","SECT":" ","MAREA":" ","LANE":" ","ALLEY":" ","HOUSE_NO":"１２２號","E_COORD97":174970.76000000001,"N_COORD97":2545402.8399999999,"ADDRESS":"大灣六街１２２號","OBJECTID":592671},"geometry":{"x":174970.76000000071,"y":2545402.8400000017}},{"attributes":{"ID":592699,"DIS_CODE":0,"TOWNNAME":"永康區","LI":"大灣里","LIN":"11鄰","STREET":"大灣六街","SECT":" ","MAREA":" ","LANE":" ","ALLEY":" ","HOUSE_NO":"１２６號","E_COORD97":174970.76000000001,"N_COORD97":2545402.8399999999,"ADDRESS":"大灣六街１２６號","OBJECTID":592672},"geometry":{"x":174970.76000000071,"y":2545402.8400000017}},{"attributes":{"ID":592700,"DIS_CODE":0,"TOWNNAME":"永康區","LI":"崑山里","LIN":"11鄰","STREET":"大灣路","SECT":" ","MAREA":" ","LANE":" ","ALLEY":" ","HOUSE_NO":"１０９８號","E_COORD97":173272.64999999999,"N_COORD97":2544368.1099999999,"ADDRESS":"大灣路１０９８號","OBJECTID":592673},"geometry":{"x":173272.65000000037,"y":2544368.1099999994}},{"attributes":{"ID":592701,"DIS_CODE":0,"TOWNNAME":"仁德區","LI":"仁德里","LIN":"4鄰","STREET":"中正路","SECT":"二段","MAREA":" ","LANE":" ","ALLEY":" ","HOUSE_NO":"８５３號","E_COORD97":173433.44,"N_COORD97":2540537.2799999998,"ADDRESS":"中正路二段８５３號","OBJECTID":592674},"geometry":{"x":173433.44000000041,"y":2540537.2800000012}},{"attributes":{"ID":592702,"DIS_CODE":0,"TOWNNAME":"仁德區","LI":"保安里","LIN":"13鄰","STREET":"二仁路","SECT":"一段","MAREA":" ","LANE":" ","ALLEY":" ","HOUSE_NO":"１０６號","E_COORD97":170458.82999999999,"N_COORD97":2535869.2799999998,"ADDRESS":"二仁路一段１０６號","OBJECTID":592675},"geometry":{"x":170458.82999999914,"y":2535869.2800000012}},{"attributes":{"ID":592703,"DIS_CODE":0,"TOWNNAME":"仁德區","LI":"保安里","LIN":"13鄰","STREET":"二仁路","SECT":"一段","MAREA":" ","LANE":" ","ALLEY":" ","HOUSE_NO":"８６號","E_COORD97":170481.42999999999,"N_COORD97":2535826.52,"ADDRESS":"二仁路一段８６號","OBJECTID":592676},"geometry":{"x":170481.4299999997,"y":2535826.5200000014}},{"attributes":{"ID":592704,"DIS_CODE":0,"TOWNNAME":"仁德區","LI":"仁德里","LIN":"9鄰","STREET":"仁德二街","SECT":" ","MAREA":" ","LANE":" ","ALLEY":" ","HOUSE_NO":"２９號","E_COORD97":173239.76000000001,"N_COORD97":2541061.77,"ADDRESS":"仁德二街２９號","OBJECTID":592677},"geometry":{"x":173239.76000000071,"y":2541061.7699999996}},{"attributes":{"ID":592705,"DIS_CODE":0,"TOWNNAME":"仁德區","LI":"仁德里","LIN":"39鄰","STREET":"文山路","SECT":" ","MAREA":" ","LANE":" ","ALLEY":" ","HOUSE_NO":"１５８號","E_COORD97":172706.35000000001,"N_COORD97":2541831.8199999998,"ADDRESS":"文山路１５８號","OBJECTID":592678},"geometry":{"x":172706.35000000056,"y":2541831.8200000003}},{"attributes":{"ID":592706,"DIS_CODE":0,"TOWNNAME":"仁德區","LI":"田厝里","LIN":"1鄰","STREET":"保安路","SECT":"二段","MAREA":" ","LANE":" ","ALLEY":" ","HOUSE_NO":"６３８號","E_COORD97":172793.39999999999,"N_COORD97":2537587.8100000001,"ADDRESS":"保安路二段６３８號","OBJECTID":592679},"geometry":{"x":172793.4000000013,"y":2537587.8100000042}},{"attributes":{"ID":592707,"DIS_CODE":0,"TOWNNAME":"仁德區","LI":"太子里","LIN":"44鄰","STREET":"太子路","SECT":" ","MAREA":" ","LANE":" ","ALLEY":" ","HOUSE_NO":"１１１號","E_COORD97":174891.69,"N_COORD97":2543524.0099999998,"ADDRESS":"太子路１１１號","OBJECTID":592680},"geometry":{"x":174891.69000000134,"y":2543524.0099999998}},{"attributes":{"ID":592708,"DIS_CODE":0,"TOWNNAME":"仁德區","LI":"仁德里","LIN":"12鄰","STREET":"四維街","SECT":" ","MAREA":" ","LANE":" ","ALLEY":" ","HOUSE_NO":"２５號","E_COORD97":173245.57000000001,"N_COORD97":2541520.4900000002,"ADDRESS":"四維街２５號","OBJECTID":592681},"geometry":{"x":173245.5700000003,"y":2541520.4900000021}},{"attributes":{"ID":592709,"DIS_CODE":0,"TOWNNAME":"仁德區","LI":"仁德里","LIN":"12鄰","STREET":"四維街","SECT":" ","MAREA":" ","LANE":" ","ALLEY":" ","HOUSE_NO":"３３號","E_COORD97":173211.70000000001,"N_COORD97":2541515.7400000002,"ADDRESS":"四維街３３號","OBJECTID":592682},"geometry":{"x":173211.70000000112,"y":2541515.7400000002}},{"attributes":{"ID":592710,"DIS_CODE":0,"TOWNNAME":"新化區","LI":"知義里","LIN":"11鄰","STREET":"中興路","SECT":" ","MAREA":" ","LANE":" ","ALLEY":" ","HOUSE_NO":"２１３號","E_COORD97":181540.20999999999,"N_COORD97":2547302.25,"ADDRESS":"中興路２１３號","OBJECTID":592683},"geometry":{"x":181540.21000000089,"y":2547302.2500000019}},{"attributes":{"ID":592711,"DIS_CODE":0,"TOWNNAME":"仁德區","LI":"仁德里","LIN":"39鄰","STREET":"文宏二街","SECT":" ","MAREA":" ","LANE":" ","ALLEY":" ","HOUSE_NO":"１００號","E_COORD97":172492,"N_COORD97":2541761.3300000001,"ADDRESS":"文宏二街１００號","OBJECTID":592684},"geometry":{"x":172492.00000000186,"y":2541761.3300000019}},{"attributes":{"ID":592712,"DIS_CODE":0,"TOWNNAME":"仁德區","LI":"太子里","LIN":"31鄰","STREET":"太子三街","SECT":" ","MAREA":" ","LANE":" ","ALLEY":" ","HOUSE_NO":"６３號","E_COORD97":173839.26000000001,"N_COORD97":2543428.5099999998,"ADDRESS":"太子三街６３號","OBJECTID":592685},"geometry":{"x":173839.25999999885,"y":2543428.5100000016}},{"attributes":{"ID":592713,"DIS_CODE":0,"TOWNNAME":"仁德區","LI":"仁德里","LIN":"10鄰","STREET":"中正路","SECT":"二段","MAREA":" ","LANE":" ","ALLEY":" ","HOUSE_NO":"１２１１號","E_COORD97":173275.29999999999,"N_COORD97":2541200.52,"ADDRESS":"中正路二段１２１１號","OBJECTID":592686},"geometry":{"x":173275.30000000075,"y":2541200.5200000014}},{"attributes":{"ID":592714,"DIS_CODE":0,"TOWNNAME":"仁德區","LI":"保安里","LIN":"14鄰","STREET":"文賢路","SECT":"一段","MAREA":" ","LANE":" ","ALLEY":" ","HOUSE_NO":"５７１號","E_COORD97":171138.64000000001,"N_COORD97":2536827.5699999998,"ADDRESS":"文賢路一段５７１號","OBJECTID":592687},"geometry":{"x":171138.6400000006,"y":2536827.5700000022}},{"attributes":{"ID":592715,"DIS_CODE":0,"TOWNNAME":"仁德區","LI":"仁德里","LIN":"35鄰","STREET":"裕華三街","SECT":" ","MAREA":" ","LANE":" ","ALLEY":" ","HOUSE_NO":"３２１號","E_COORD97":172785.23000000001,"N_COORD97":2541732.4900000002,"ADDRESS":"裕華三街３２１號","OBJECTID":592688},"geometry":{"x":172785.23000000045,"y":2541732.4899999984}},{"attributes":{"ID":592716,"DIS_CODE":0,"TOWNNAME":"佳里區","LI":"鎮山里","LIN":"11鄰","STREET":"崇德街","SECT":" ","MAREA":" ","LANE":" ","ALLEY":" ","HOUSE_NO":"１０３號","E_COORD97":166048.47,"N_COORD97":2561629.0299999998,"ADDRESS":"崇德街１０３號","OBJECTID":592689},"geometry":{"x":166048.4700000016,"y":2561629.0299999993}},{"attributes":{"ID":592717,"DIS_CODE":0,"TOWNNAME":"佳里區","LI":"鎮山里","LIN":"11鄰","STREET":"崇德街","SECT":" ","MAREA":" ","LANE":" ","ALLEY":" ","HOUSE_NO":"１０５號","E_COORD97":166043.95000000001,"N_COORD97":2561628.1800000002,"ADDRESS":"崇德街１０５號","OBJECTID":592690},"geometry":{"x":166043.95000000205,"y":2561628.1799999997}},{"attributes":{"ID":592718,"DIS_CODE":0,"TOWNNAME":"佳里區","LI":"鎮山里","LIN":"11鄰","STREET":"崇德街","SECT":" ","MAREA":" ","LANE":" ","ALLEY":" ","HOUSE_NO":"１０７號","E_COORD97":166039.44,"N_COORD97":2561627.3399999999,"ADDRESS":"崇德街１０７號","OBJECTID":592691},"geometry":{"x":166039.44000000134,"y":2561627.3399999999}},{"attributes":{"ID":592719,"DIS_CODE":0,"TOWNNAME":"佳里區","LI":"鎮山里","LIN":"11鄰","STREET":"崇德街","SECT":" ","MAREA":" ","LANE":" ","ALLEY":" ","HOUSE_NO":"１０９號","E_COORD97":166034.92000000001,"N_COORD97":2561626.5,"ADDRESS":"崇德街１０９號","OBJECTID":592692},"geometry":{"x":166034.91999999993,"y":2561626.5}},{"attributes":{"ID":592720,"DIS_CODE":0,"TOWNNAME":"佳里區","LI":"鎮山里","LIN":"11鄰","STREET":"崇德街","SECT":" ","MAREA":" ","LANE":" ","ALLEY":" ","HOUSE_NO":"１１１號","E_COORD97":166030.41,"N_COORD97":2561625.6499999999,"ADDRESS":"崇德街１１１號","OBJECTID":592693},"geometry":{"x":166030.41000000015,"y":2561625.6500000004}},{"attributes":{"ID":592721,"DIS_CODE":0,"TOWNNAME":"佳里區","LI":"鎮山里","LIN":"11鄰","STREET":"崇德街","SECT":" ","MAREA":" ","LANE":" ","ALLEY":" ","HOUSE_NO":"１１３號","E_COORD97":166025.89999999999,"N_COORD97":2561624.8100000001,"ADDRESS":"崇德街１１３號","OBJECTID":592694},"geometry":{"x":166025.90000000224,"y":2561624.8100000005}},{"attributes":{"ID":592722,"DIS_CODE":0,"TOWNNAME":"佳里區","LI":"鎮山里","LIN":"11鄰","STREET":"崇德街","SECT":" ","MAREA":" ","LANE":" ","ALLEY":" ","HOUSE_NO":"１１５號","E_COORD97":166021.38,"N_COORD97":2561623.9700000002,"ADDRESS":"崇德街１１５號","OBJECTID":592695},"geometry":{"x":166021.37999999989,"y":2561623.9700000007}},{"attributes":{"ID":592723,"DIS_CODE":0,"TOWNNAME":"佳里區","LI":"鎮山里","LIN":"11鄰","STREET":"崇德街","SECT":" ","MAREA":" ","LANE":" ","ALLEY":" ","HOUSE_NO":"６７號","E_COORD97":166138.29999999999,"N_COORD97":2561642.54,"ADDRESS":"崇德街６７號","OBJECTID":592696},"geometry":{"x":166138.30000000075,"y":2561642.5399999991}},{"attributes":{"ID":592724,"DIS_CODE":0,"TOWNNAME":"佳里區","LI":"鎮山里","LIN":"11鄰","STREET":"崇德街","SECT":" ","MAREA":" ","LANE":" ","ALLEY":" ","HOUSE_NO":"６９號","E_COORD97":166134.12,"N_COORD97":2561641.8799999999,"ADDRESS":"崇德街６９號","OBJECTID":592697},"geometry":{"x":166134.12000000011,"y":2561641.8800000008}},{"attributes":{"ID":592725,"DIS_CODE":0,"TOWNNAME":"佳里區","LI":"鎮山里","LIN":"11鄰","STREET":"崇德街","SECT":" ","MAREA":" ","LANE":" ","ALLEY":" ","HOUSE_NO":"７１號","E_COORD97":166129.70000000001,"N_COORD97":2561640.8700000001,"ADDRESS":"崇德街７１號","OBJECTID":592698},"geometry":{"x":166129.70000000019,"y":2561640.8700000029}},{"attributes":{"ID":592726,"DIS_CODE":0,"TOWNNAME":"佳里區","LI":"鎮山里","LIN":"11鄰","STREET":"崇德街","SECT":" ","MAREA":" ","LANE":" ","ALLEY":" ","HOUSE_NO":"７３號","E_COORD97":166126.04000000001,"N_COORD97":2561640.6200000001,"ADDRESS":"崇德街７３號","OBJECTID":592699},"geometry":{"x":166126.04000000004,"y":2561640.620000001}},{"attributes":{"ID":592727,"DIS_CODE":0,"TOWNNAME":"佳里區","LI":"鎮山里","LIN":"11鄰","STREET":"崇德街","SECT":" ","MAREA":" ","LANE":" ","ALLEY":" ","HOUSE_NO":"７５號","E_COORD97":166121.63,"N_COORD97":2561639.9100000001,"ADDRESS":"崇德街７５號","OBJECTID":592700},"geometry":{"x":166121.62999999989,"y":2561639.9100000001}},{"attributes":{"ID":592728,"DIS_CODE":0,"TOWNNAME":"佳里區","LI":"鎮山里","LIN":"11鄰","STREET":"崇德街","SECT":" ","MAREA":" ","LANE":" ","ALLEY":" ","HOUSE_NO":"７７號","E_COORD97":166117.20999999999,"N_COORD97":2561639.21,"ADDRESS":"崇德街７７號","OBJECTID":592701},"geometry":{"x":166117.21000000089,"y":2561639.2100000009}},{"attributes":{"ID":592729,"DIS_CODE":0,"TOWNNAME":"佳里區","LI":"鎮山里","LIN":"11鄰","STREET":"崇德街","SECT":" ","MAREA":" ","LANE":" ","ALLEY":" ","HOUSE_NO":"７９號","E_COORD97":166112.79999999999,"N_COORD97":2561638.5,"ADDRESS":"崇德街７９號","OBJECTID":592702},"geometry":{"x":166112.80000000075,"y":2561638.5000000019}},{"attributes":{"ID":592730,"DIS_CODE":0,"TOWNNAME":"佳里區","LI":"鎮山里","LIN":"11鄰","STREET":"崇德街","SECT":" ","MAREA":" ","LANE":" ","ALLEY":" ","HOUSE_NO":"８１號","E_COORD97":166108.38,"N_COORD97":2561637.79,"ADDRESS":"崇德街８１號","OBJECTID":592703},"geometry":{"x":166108.37999999989,"y":2561637.7900000028}},{"attributes":{"ID":592731,"DIS_CODE":0,"TOWNNAME":"佳里區","LI":"鎮山里","LIN":"11鄰","STREET":"崇德街","SECT":" ","MAREA":" ","LANE":" ","ALLEY":" ","HOUSE_NO":"８３號","E_COORD97":166103.95999999999,"N_COORD97":2561637.0800000001,"ADDRESS":"崇德街８３號","OBJECTID":592704},"geometry":{"x":166103.95999999996,"y":2561637.0800000019}},{"attributes":{"ID":592732,"DIS_CODE":0,"TOWNNAME":"佳里區","LI":"鎮山里","LIN":"11鄰","STREET":"崇德街","SECT":" ","MAREA":" ","LANE":" ","ALLEY":" ","HOUSE_NO":"８５號","E_COORD97":166099.54999999999,"N_COORD97":2561636.3700000001,"ADDRESS":"崇德街８５號","OBJECTID":592705},"geometry":{"x":166099.55000000075,"y":2561636.3700000029}},{"attributes":{"ID":592733,"DIS_CODE":0,"TOWNNAME":"仁德區","LI":"仁德里","LIN":"35鄰","STREET":"裕華三街","SECT":" ","MAREA":" ","LANE":" ","ALLEY":" ","HOUSE_NO":"２８５號","E_COORD97":172820.45000000001,"N_COORD97":2541789.75,"ADDRESS":"裕華三街２８５號","OBJECTID":592706},"geometry":{"x":172820.45000000112,"y":2541789.7500000019}},{"attributes":{"ID":592734,"DIS_CODE":0,"TOWNNAME":"佳里區","LI":"鎮山里","LIN":"11鄰","STREET":"崇德街","SECT":" ","MAREA":" ","LANE":" ","ALLEY":" ","HOUSE_NO":"８９號","E_COORD97":166090.10999999999,"N_COORD97":2561635.9100000001,"ADDRESS":"崇德街８９號","OBJECTID":592707},"geometry":{"x":166090.11000000034,"y":2561635.910000002}},{"attributes":{"ID":592735,"DIS_CODE":0,"TOWNNAME":"佳里區","LI":"鎮山里","LIN":"11鄰","STREET":"崇德街","SECT":" ","MAREA":" ","LANE":" ","ALLEY":" ","HOUSE_NO":"９１號","E_COORD97":166085.35999999999,"N_COORD97":2561635.0600000001,"ADDRESS":"崇德街９１號","OBJECTID":592708},"geometry":{"x":166085.3599999994,"y":2561635.0600000024}},{"attributes":{"ID":592736,"DIS_CODE":0,"TOWNNAME":"佳里區","LI":"鎮山里","LIN":"11鄰","STREET":"崇德街","SECT":" ","MAREA":" ","LANE":" ","ALLEY":" ","HOUSE_NO":"９３號","E_COORD97":166080.45000000001,"N_COORD97":2561634.1099999999,"ADDRESS":"崇德街９３號","OBJECTID":592709},"geometry":{"x":166080.45000000019,"y":2561634.1100000013}},{"attributes":{"ID":592737,"DIS_CODE":0,"TOWNNAME":"佳里區","LI":"鎮山里","LIN":"11鄰","STREET":"崇德街","SECT":" ","MAREA":" ","LANE":" ","ALLEY":" ","HOUSE_NO":"９７號","E_COORD97":166062.01000000001,"N_COORD97":2561631.5600000001,"ADDRESS":"崇德街９７號","OBJECTID":592710},"geometry":{"x":166062.01000000071,"y":2561631.5600000024}},{"attributes":{"ID":592738,"DIS_CODE":0,"TOWNNAME":"佳里區","LI":"鎮山里","LIN":"11鄰","STREET":"崇德街","SECT":" ","MAREA":" ","LANE":" ","ALLEY":" ","HOUSE_NO":"９８號","E_COORD97":166020.62,"N_COORD97":2561642.25,"ADDRESS":"崇德街９８號","OBJECTID":592711},"geometry":{"x":166020.61999999918,"y":2561642.2500000037}},{"attributes":{"ID":592739,"DIS_CODE":0,"TOWNNAME":"佳里區","LI":"鎮山里","LIN":"11鄰","STREET":"崇德街","SECT":" ","MAREA":" ","LANE":" ","ALLEY":" ","HOUSE_NO":"９９號","E_COORD97":166057.48999999999,"N_COORD97":2561630.7200000002,"ADDRESS":"崇德街９９號","OBJECTID":592712},"geometry":{"x":166057.49000000115,"y":2561630.7200000025}},{"attributes":{"ID":592740,"DIS_CODE":0,"TOWNNAME":"仁德區","LI":"仁德里","LIN":"17鄰","STREET":"文華路","SECT":"三段","MAREA":" ","LANE":" ","ALLEY":" ","HOUSE_NO":"５２３號","E_COORD97":172446.70999999999,"N_COORD97":2541468.5800000001,"ADDRESS":"文華路三段５２３號","OBJECTID":592713},"geometry":{"x":172446.71000000089,"y":2541468.5800000019}},{"attributes":{"ID":592741,"DIS_CODE":0,"TOWNNAME":"東區","LI":"路東里","LIN":"11鄰","STREET":"林森路","SECT":"一段","MAREA":" ","LANE":" ","ALLEY":" ","HOUSE_NO":"１８號","E_COORD97":169268.20000000001,"N_COORD97":2542378.6000000001,"ADDRESS":"林森路一段１８號","OBJECTID":592714},"geometry":{"x":169268.20000000205,"y":2542378.5999999978}},{"attributes":{"ID":592742,"DIS_CODE":0,"TOWNNAME":"東區","LI":"路東里","LIN":"11鄰","STREET":"林森路","SECT":"一段","MAREA":" ","LANE":" ","ALLEY":" ","HOUSE_NO":"２０號","E_COORD97":169279.34,"N_COORD97":2542382.3999999999,"ADDRESS":"林森路一段２０號","OBJECTID":592715},"geometry":{"x":169279.34000000078,"y":2542382.4000000022}},{"attributes":{"ID":592743,"DIS_CODE":0,"TOWNNAME":"東區","LI":"路東里","LIN":"11鄰","STREET":"林森路","SECT":"一段","MAREA":" ","LANE":" ","ALLEY":" ","HOUSE_NO":"２４號","E_COORD97":169294.01999999999,"N_COORD97":2542391.8999999999,"ADDRESS":"林森路一段２４號","OBJECTID":592716},"geometry":{"x":169294.01999999955,"y":2542391.9000000022}},{"attributes":{"ID":592744,"DIS_CODE":0,"TOWNNAME":"東區","LI":"路東里","LIN":"11鄰","STREET":"林森路","SECT":"一段","MAREA":" ","LANE":" ","ALLEY":" ","HOUSE_NO":"２６號","E_COORD97":169300.81,"N_COORD97":2542393.25,"ADDRESS":"林森路一段２６號","OBJECTID":592717},"geometry":{"x":169300.81000000145,"y":2542393.2500000019}},{"attributes":{"ID":592745,"DIS_CODE":0,"TOWNNAME":"學甲區","LI":"新達里","LIN":"11鄰","STREET":"中山路","SECT":" ","MAREA":" ","LANE":" ","ALLEY":" ","HOUSE_NO":"１０號","E_COORD97":166852.04999999999,"N_COORD97":2570540.8500000001,"ADDRESS":"中山路１０號","OBJECTID":592718},"geometry":{"x":166852.05000000075,"y":2570540.8499999978}},{"attributes":{"ID":592746,"DIS_CODE":0,"TOWNNAME":"學甲區","LI":"新達里","LIN":"11鄰","STREET":"中山路","SECT":" ","MAREA":" ","LANE":" ","ALLEY":" ","HOUSE_NO":"１２號","E_COORD97":166839.82999999999,"N_COORD97":2570541.7599999998,"ADDRESS":"中山路１２號","OBJECTID":592719},"geometry":{"x":166839.83000000194,"y":2570541.7600000035}},{"attributes":{"ID":592747,"DIS_CODE":0,"TOWNNAME":"學甲區","LI":"新達里","LIN":"11鄰","STREET":"中山路","SECT":" ","MAREA":" ","LANE":" ","ALLEY":" ","HOUSE_NO":"１６號","E_COORD97":166785.29000000001,"N_COORD97":2570517.3500000001,"ADDRESS":"中山路１６號","OBJECTID":592720},"geometry":{"x":166785.29000000004,"y":2570517.3500000034}},{"attributes":{"ID":592748,"DIS_CODE":0,"TOWNNAME":"學甲區","LI":"新達里","LIN":"11鄰","STREET":"中山路","SECT":" ","MAREA":" ","LANE":" ","ALLEY":" ","HOUSE_NO":"１８號","E_COORD97":166772.01000000001,"N_COORD97":2570517.6400000001,"ADDRESS":"中山路１８號","OBJECTID":592721},"geometry":{"x":166772.00999999885,"y":2570517.6400000025}},{"attributes":{"ID":592749,"DIS_CODE":0,"TOWNNAME":"學甲區","LI":"新達里","LIN":"11鄰","STREET":"中山路","SECT":" ","MAREA":" ","LANE":" ","ALLEY":" ","HOUSE_NO":"２１號之３","E_COORD97":166774.67999999999,"N_COORD97":2570469.79,"ADDRESS":"中山路２１號之３","OBJECTID":592722},"geometry":{"x":166774.68000000063,"y":2570469.7900000028}},{"attributes":{"ID":592750,"DIS_CODE":0,"TOWNNAME":"學甲區","LI":"新達里","LIN":"11鄰","STREET":"中山路","SECT":" ","MAREA":" ","LANE":" ","ALLEY":" ","HOUSE_NO":"２１號之５","E_COORD97":166806.98000000001,"N_COORD97":2570492.6000000001,"ADDRESS":"中山路２１號之５","OBJECTID":592723},"geometry":{"x":166806.98000000231,"y":2570492.6000000015}},{"attributes":{"ID":592751,"DIS_CODE":0,"TOWNNAME":"學甲區","LI":"新達里","LIN":"11鄰","STREET":"中山路","SECT":" ","MAREA":" ","LANE":" ","ALLEY":" ","HOUSE_NO":"２１號","E_COORD97":166756.29000000001,"N_COORD97":2570463.1499999999,"ADDRESS":"中山路２１號","OBJECTID":592724},"geometry":{"x":166756.29000000004,"y":2570463.1500000022}},{"attributes":{"ID":592752,"DIS_CODE":0,"TOWNNAME":"學甲區","LI":"新達里","LIN":"11鄰","STREET":"中山路","SECT":" ","MAREA":" ","LANE":" ","ALLEY":" ","HOUSE_NO":"２４號","E_COORD97":166727.10999999999,"N_COORD97":2570502.1499999999,"ADDRESS":"中山路２４號","OBJECTID":592725},"geometry":{"x":166727.11000000034,"y":2570502.1500000004}},{"attributes":{"ID":592753,"DIS_CODE":0,"TOWNNAME":"仁德區","LI":"後壁里","LIN":"26鄰","STREET":"中正路","SECT":"二段","MAREA":" ","LANE":" ","ALLEY":" ","HOUSE_NO":"３８５之１號","E_COORD97":173260.81,"N_COORD97":2539278.5499999998,"ADDRESS":"中正路二段３８５之１號","OBJECTID":592726},"geometry":{"x":173260.81000000145,"y":2539278.5500000026}},{"attributes":{"ID":592754,"DIS_CODE":0,"TOWNNAME":"學甲區","LI":"新達里","LIN":"11鄰","STREET":"中山路","SECT":" ","MAREA":" ","LANE":" ","ALLEY":" ","HOUSE_NO":"２５號","E_COORD97":166830.20000000001,"N_COORD97":2570469.4399999999,"ADDRESS":"中山路２５號","OBJECTID":592727},"geometry":{"x":166830.20000000019,"y":2570469.4400000013}},{"attributes":{"ID":592755,"DIS_CODE":0,"TOWNNAME":"學甲區","LI":"新達里","LIN":"11鄰","STREET":"中山路","SECT":" ","MAREA":" ","LANE":" ","ALLEY":" ","HOUSE_NO":"２６號之１","E_COORD97":166709.79999999999,"N_COORD97":2570506.5,"ADDRESS":"中山路２６號之１","OBJECTID":592728},"geometry":{"x":166709.80000000075,"y":2570506.5000000037}},{"attributes":{"ID":592756,"DIS_CODE":0,"TOWNNAME":"學甲區","LI":"新達里","LIN":"11鄰","STREET":"中山路","SECT":" ","MAREA":" ","LANE":" ","ALLEY":" ","HOUSE_NO":"３１號","E_COORD97":166702.53,"N_COORD97":2570463.96,"ADDRESS":"中山路３１號","OBJECTID":592729},"geometry":{"x":166702.53000000026,"y":2570463.9600000028}},{"attributes":{"ID":592757,"DIS_CODE":0,"TOWNNAME":"學甲區","LI":"新達里","LIN":"11鄰","STREET":"中山路","SECT":" ","MAREA":" ","LANE":" ","ALLEY":" ","HOUSE_NO":"５號","E_COORD97":166919.57000000001,"N_COORD97":2570518.4300000002,"ADDRESS":"中山路５號","OBJECTID":592730},"geometry":{"x":166919.5700000003,"y":2570518.4300000016}},{"attributes":{"ID":592758,"DIS_CODE":0,"TOWNNAME":"學甲區","LI":"仁得里","LIN":"11鄰","STREET":"中正路","SECT":" ","MAREA":" ","LANE":" ","ALLEY":" ","HOUSE_NO":"１０１號","E_COORD97":165981.01999999999,"N_COORD97":2569845.48,"ADDRESS":"中正路１０１號","OBJECTID":592731},"geometry":{"x":165981.01999999955,"y":2569845.4800000004}},{"attributes":{"ID":592759,"DIS_CODE":0,"TOWNNAME":"學甲區","LI":"仁得里","LIN":"11鄰","STREET":"中正路","SECT":" ","MAREA":" ","LANE":" ","ALLEY":" ","HOUSE_NO":"１０７號","E_COORD97":165982.20999999999,"N_COORD97":2569852.3900000001,"ADDRESS":"中正路１０７號","OBJECTID":592732},"geometry":{"x":165982.20999999996,"y":2569852.3900000006}},{"attributes":{"ID":592760,"DIS_CODE":0,"TOWNNAME":"學甲區","LI":"仁得里","LIN":"11鄰","STREET":"中正路","SECT":" ","MAREA":" ","LANE":" ","ALLEY":" ","HOUSE_NO":"１０９號","E_COORD97":165983.62,"N_COORD97":2569861.1299999999,"ADDRESS":"中正路１０９號","OBJECTID":592733},"geometry":{"x":165983.62000000104,"y":2569861.1300000008}},{"attributes":{"ID":592761,"DIS_CODE":0,"TOWNNAME":"學甲區","LI":"仁得里","LIN":"11鄰","STREET":"中正路","SECT":" ","MAREA":" ","LANE":" ","ALLEY":" ","HOUSE_NO":"１１９號之１","E_COORD97":166002.95999999999,"N_COORD97":2569986.0499999998,"ADDRESS":"中正路１１９號之１","OBJECTID":592734},"geometry":{"x":166002.96000000183,"y":2569986.0500000026}},{"attributes":{"ID":592762,"DIS_CODE":0,"TOWNNAME":"學甲區","LI":"仁得里","LIN":"11鄰","STREET":"中正路","SECT":" ","MAREA":" ","LANE":" ","ALLEY":" ","HOUSE_NO":"１１９號","E_COORD97":166003.23999999999,"N_COORD97":2569981.1099999999,"ADDRESS":"中正路１１９號","OBJECTID":592735},"geometry":{"x":166003.24000000115,"y":2569981.1100000013}},{"attributes":{"ID":592763,"DIS_CODE":0,"TOWNNAME":"學甲區","LI":"仁得里","LIN":"11鄰","STREET":"中正路","SECT":" ","MAREA":" ","LANE":" ","ALLEY":" ","HOUSE_NO":"１２３號","E_COORD97":166005.41,"N_COORD97":2569990.6899999999,"ADDRESS":"中正路１２３號","OBJECTID":592736},"geometry":{"x":166005.41000000108,"y":2569990.6900000013}},{"attributes":{"ID":592764,"DIS_CODE":0,"TOWNNAME":"學甲區","LI":"仁得里","LIN":"11鄰","STREET":"中正路","SECT":" ","MAREA":" ","LANE":" ","ALLEY":" ","HOUSE_NO":"１２５號","E_COORD97":166006.25,"N_COORD97":2569994.77,"ADDRESS":"中正路１２５號","OBJECTID":592737},"geometry":{"x":166006.25000000186,"y":2569994.7699999996}},{"attributes":{"ID":592765,"DIS_CODE":0,"TOWNNAME":"學甲區","LI":"仁得里","LIN":"11鄰","STREET":"中正路","SECT":" ","MAREA":" ","LANE":" ","ALLEY":" ","HOUSE_NO":"１２９號","E_COORD97":166008.28,"N_COORD97":2570004.2000000002,"ADDRESS":"中正路１２９號","OBJECTID":592738},"geometry":{"x":166008.28000000119,"y":2570004.2000000011}},{"attributes":{"ID":592766,"DIS_CODE":0,"TOWNNAME":"學甲區","LI":"仁得里","LIN":"11鄰","STREET":"中正路","SECT":" ","MAREA":" ","LANE":" ","ALLEY":" ","HOUSE_NO":"１３１號","E_COORD97":166009.39000000001,"N_COORD97":2570008.5499999998,"ADDRESS":"中正路１３１號","OBJECTID":592739},"geometry":{"x":166009.38999999966,"y":2570008.5500000045}},{"attributes":{"ID":592767,"DIS_CODE":0,"TOWNNAME":"學甲區","LI":"仁得里","LIN":"11鄰","STREET":"中正路","SECT":" ","MAREA":" ","LANE":" ","ALLEY":" ","HOUSE_NO":"１３３號","E_COORD97":166010.14000000001,"N_COORD97":2570013.6200000001,"ADDRESS":"中正路１３３號","OBJECTID":592740},"geometry":{"x":166010.1400000006,"y":2570013.620000001}},{"attributes":{"ID":592768,"DIS_CODE":0,"TOWNNAME":"學甲區","LI":"仁得里","LIN":"11鄰","STREET":"中正路","SECT":" ","MAREA":" ","LANE":" ","ALLEY":" ","HOUSE_NO":"１３５號","E_COORD97":166011.45000000001,"N_COORD97":2570021.1699999999,"ADDRESS":"中正路１３５號","OBJECTID":592741},"geometry":{"x":166011.45000000019,"y":2570021.1700000018}},{"attributes":{"ID":592769,"DIS_CODE":0,"TOWNNAME":"學甲區","LI":"仁得里","LIN":"11鄰","STREET":"中正路","SECT":" ","MAREA":" ","LANE":" ","ALLEY":" ","HOUSE_NO":"１４３號","E_COORD97":166022.10999999999,"N_COORD97":2570064.4900000002,"ADDRESS":"中正路１４３號","OBJECTID":592742},"geometry":{"x":166022.11000000034,"y":2570064.4900000002}},{"attributes":{"ID":592770,"DIS_CODE":0,"TOWNNAME":"學甲區","LI":"仁得里","LIN":"11鄰","STREET":"中正路","SECT":" ","MAREA":" ","LANE":" ","ALLEY":" ","HOUSE_NO":"１４５號","E_COORD97":166024.26000000001,"N_COORD97":2570071.48,"ADDRESS":"中正路１４５號","OBJECTID":592743},"geometry":{"x":166024.25999999978,"y":2570071.4800000004}},{"attributes":{"ID":592771,"DIS_CODE":0,"TOWNNAME":"學甲區","LI":"仁得里","LIN":"11鄰","STREET":"中正路","SECT":" ","MAREA":" ","LANE":" ","ALLEY":" ","HOUSE_NO":"１４７號","E_COORD97":166024.91,"N_COORD97":2570076.75,"ADDRESS":"中正路１４７號","OBJECTID":592744},"geometry":{"x":166024.91000000015,"y":2570076.75}},{"attributes":{"ID":592772,"DIS_CODE":0,"TOWNNAME":"學甲區","LI":"仁得里","LIN":"11鄰","STREET":"中正路","SECT":" ","MAREA":" ","LANE":" ","ALLEY":" ","HOUSE_NO":"１４９號","E_COORD97":166025.29000000001,"N_COORD97":2570081.3500000001,"ADDRESS":"中正路１４９號","OBJECTID":592745},"geometry":{"x":166025.29000000097,"y":2570081.3500000015}},{"attributes":{"ID":592773,"DIS_CODE":0,"TOWNNAME":"學甲區","LI":"仁得里","LIN":"11鄰","STREET":"中正路","SECT":" ","MAREA":" ","LANE":" ","ALLEY":" ","HOUSE_NO":"１５１號","E_COORD97":166025.70999999999,"N_COORD97":2570086.3399999999,"ADDRESS":"中正路１５１號","OBJECTID":592746},"geometry":{"x":166025.71000000089,"y":2570086.3399999999}},{"attributes":{"ID":592774,"DIS_CODE":0,"TOWNNAME":"學甲區","LI":"仁得里","LIN":"11鄰","STREET":"中正路","SECT":" ","MAREA":" ","LANE":" ","ALLEY":" ","HOUSE_NO":"１５３號","E_COORD97":166025.89999999999,"N_COORD97":2570091.9199999999,"ADDRESS":"中正路１５３號","OBJECTID":592747},"geometry":{"x":166025.90000000224,"y":2570091.9199999999}},{"attributes":{"ID":592775,"DIS_CODE":0,"TOWNNAME":"學甲區","LI":"仁得里","LIN":"11鄰","STREET":"中正路","SECT":" ","MAREA":" ","LANE":" ","ALLEY":" ","HOUSE_NO":"１５５號","E_COORD97":166026.51000000001,"N_COORD97":2570096.9300000002,"ADDRESS":"中正路１５５號","OBJECTID":592748},"geometry":{"x":166026.51000000071,"y":2570096.9300000016}},{"attributes":{"ID":592776,"DIS_CODE":0,"TOWNNAME":"學甲區","LI":"仁得里","LIN":"11鄰","STREET":"中正路","SECT":" ","MAREA":" ","LANE":" ","ALLEY":" ","HOUSE_NO":"１５７號","E_COORD97":166027.34,"N_COORD97":2570102.1400000001,"ADDRESS":"中正路１５７號","OBJECTID":592749},"geometry":{"x":166027.33999999892,"y":2570102.1400000006}},{"attributes":{"ID":592777,"DIS_CODE":0,"TOWNNAME":"學甲區","LI":"仁得里","LIN":"11鄰","STREET":"中正路","SECT":" ","MAREA":" ","LANE":" ","ALLEY":" ","HOUSE_NO":"１５９號","E_COORD97":166028.81,"N_COORD97":2570107.4100000001,"ADDRESS":"中正路１５９號","OBJECTID":592750},"geometry":{"x":166028.80999999959,"y":2570107.4100000039}},{"attributes":{"ID":592778,"DIS_CODE":0,"TOWNNAME":"學甲區","LI":"仁得里","LIN":"11鄰","STREET":"中正路","SECT":" ","MAREA":" ","LANE":" ","ALLEY":" ","HOUSE_NO":"１６１號","E_COORD97":166029.97,"N_COORD97":2570112.8100000001,"ADDRESS":"中正路１６１號","OBJECTID":592751},"geometry":{"x":166029.97000000067,"y":2570112.8100000024}},{"attributes":{"ID":592779,"DIS_CODE":0,"TOWNNAME":"學甲區","LI":"仁得里","LIN":"11鄰","STREET":"中正路","SECT":" ","MAREA":" ","LANE":" ","ALLEY":" ","HOUSE_NO":"１６３號","E_COORD97":166033.14000000001,"N_COORD97":2570117.4500000002,"ADDRESS":"中正路１６３號","OBJECTID":592752},"geometry":{"x":166033.13999999966,"y":2570117.4500000011}},{"attributes":{"ID":592780,"DIS_CODE":0,"TOWNNAME":"學甲區","LI":"仁得里","LIN":"11鄰","STREET":"中正路","SECT":" ","MAREA":" ","LANE":" ","ALLEY":" ","HOUSE_NO":"１７１號","E_COORD97":166042.32999999999,"N_COORD97":2570164.7400000002,"ADDRESS":"中正路１７１號","OBJECTID":592753},"geometry":{"x":166042.33000000007,"y":2570164.7400000002}},{"attributes":{"ID":592781,"DIS_CODE":0,"TOWNNAME":"學甲區","LI":"仁得里","LIN":"11鄰","STREET":"中正路","SECT":" ","MAREA":" ","LANE":" ","ALLEY":" ","HOUSE_NO":"１７３號","E_COORD97":166041.98000000001,"N_COORD97":2570175.7000000002,"ADDRESS":"中正路１７３號","OBJECTID":592754},"geometry":{"x":166041.98000000045,"y":2570175.700000003}},{"attributes":{"ID":592782,"DIS_CODE":0,"TOWNNAME":"學甲區","LI":"仁得里","LIN":"11鄰","STREET":"中正路","SECT":" ","MAREA":" ","LANE":" ","ALLEY":" ","HOUSE_NO":"１７７號","E_COORD97":166043.92000000001,"N_COORD97":2570183.4500000002,"ADDRESS":"中正路１７７號","OBJECTID":592755},"geometry":{"x":166043.92000000179,"y":2570183.4499999993}},{"attributes":{"ID":592783,"DIS_CODE":0,"TOWNNAME":"學甲區","LI":"仁得里","LIN":"11鄰","STREET":"中正路","SECT":" ","MAREA":" ","LANE":" ","ALLEY":" ","HOUSE_NO":"１７９號","E_COORD97":166044.81,"N_COORD97":2570187.8399999999,"ADDRESS":"中正路１７９號","OBJECTID":592756},"geometry":{"x":166044.81000000052,"y":2570187.8399999999}},{"attributes":{"ID":592784,"DIS_CODE":0,"TOWNNAME":"學甲區","LI":"仁得里","LIN":"11鄰","STREET":"中正路","SECT":" ","MAREA":" ","LANE":" ","ALLEY":" ","HOUSE_NO":"１８１號","E_COORD97":166045.85000000001,"N_COORD97":2570192.7799999998,"ADDRESS":"中正路１８１號","OBJECTID":592757},"geometry":{"x":166045.85000000149,"y":2570192.7800000012}},{"attributes":{"ID":592785,"DIS_CODE":0,"TOWNNAME":"學甲區","LI":"仁得里","LIN":"11鄰","STREET":"中正路","SECT":" ","MAREA":" ","LANE":" ","ALLEY":" ","HOUSE_NO":"１８３號之１","E_COORD97":166044.91,"N_COORD97":2570202.6899999999,"ADDRESS":"中正路１８３號之１","OBJECTID":592758},"geometry":{"x":166044.91000000108,"y":2570202.6899999976}},{"attributes":{"ID":592786,"DIS_CODE":0,"TOWNNAME":"學甲區","LI":"仁得里","LIN":"11鄰","STREET":"中正路","SECT":" ","MAREA":" ","LANE":" ","ALLEY":" ","HOUSE_NO":"１８３號","E_COORD97":166046.45000000001,"N_COORD97":2570197.8700000001,"ADDRESS":"中正路１８３號","OBJECTID":592759},"geometry":{"x":166046.45000000112,"y":2570197.8700000029}},{"attributes":{"ID":592787,"DIS_CODE":0,"TOWNNAME":"學甲區","LI":"仁得里","LIN":"11鄰","STREET":"中正路","SECT":" ","MAREA":" ","LANE":" ","ALLEY":" ","HOUSE_NO":"１８５號","E_COORD97":166048.69,"N_COORD97":2570207.4100000001,"ADDRESS":"中正路１８５號","OBJECTID":592760},"geometry":{"x":166048.69000000041,"y":2570207.4100000001}},{"attributes":{"ID":592788,"DIS_CODE":0,"TOWNNAME":"學甲區","LI":"仁得里","LIN":"11鄰","STREET":"中正路","SECT":" ","MAREA":" ","LANE":" ","ALLEY":" ","HOUSE_NO":"１９１號","E_COORD97":166049.26999999999,"N_COORD97":2570215.4300000002,"ADDRESS":"中正路１９１號","OBJECTID":592761},"geometry":{"x":166049.26999999955,"y":2570215.4300000016}},{"attributes":{"ID":592789,"DIS_CODE":0,"TOWNNAME":"學甲區","LI":"仁得里","LIN":"11鄰","STREET":"中正路","SECT":" ","MAREA":" ","LANE":" ","ALLEY":" ","HOUSE_NO":"１９３號","E_COORD97":166049.84,"N_COORD97":2570219.8300000001,"ADDRESS":"中正路１９３號","OBJECTID":592762},"geometry":{"x":166049.84000000078,"y":2570219.8300000019}},{"attributes":{"ID":592790,"DIS_CODE":0,"TOWNNAME":"學甲區","LI":"仁得里","LIN":"11鄰","STREET":"四維街","SECT":" ","MAREA":" ","LANE":" ","ALLEY":" ","HOUSE_NO":"１３３號","E_COORD97":165879.26999999999,"N_COORD97":2569812.29,"ADDRESS":"四維街１３３號","OBJECTID":592763},"geometry":{"x":165879.26999999955,"y":2569812.290000001}},{"attributes":{"ID":592791,"DIS_CODE":0,"TOWNNAME":"仁德區","LI":"保安里","LIN":"13鄰","STREET":"二仁路","SECT":"一段","MAREA":" ","LANE":" ","ALLEY":" ","HOUSE_NO":"１０４號","E_COORD97":170460.51999999999,"N_COORD97":2535864.7799999998,"ADDRESS":"二仁路一段１０４號","OBJECTID":592764},"geometry":{"x":170460.52000000142,"y":2535864.7800000012}},{"attributes":{"ID":592792,"DIS_CODE":0,"TOWNNAME":"仁德區","LI":"太子里","LIN":"6鄰","STREET":"長興二街","SECT":" ","MAREA":" ","LANE":" ","ALLEY":" ","HOUSE_NO":"６９號","E_COORD97":174168.29999999999,"N_COORD97":2543684,"ADDRESS":"長興二街６９號","OBJECTID":592765},"geometry":{"x":174168.30000000075,"y":2543684}},{"attributes":{"ID":592793,"DIS_CODE":0,"TOWNNAME":"仁德區","LI":"仁德里","LIN":"19鄰","STREET":"文華路","SECT":"三段","MAREA":" ","LANE":" ","ALLEY":" ","HOUSE_NO":"２１６號","E_COORD97":172277.01000000001,"N_COORD97":2540464.3199999998,"ADDRESS":"文華路三段２１６號","OBJECTID":592766},"geometry":{"x":172277.01000000071,"y":2540464.3200000003}},{"attributes":{"ID":592794,"DIS_CODE":0,"TOWNNAME":"學甲區","LI":"仁得里","LIN":"11鄰","STREET":"中正路","SECT":" ","MAREA":" ","LANE":" ","ALLEY":" ","HOUSE_NO":"１９５號","E_COORD97":166050.76000000001,"N_COORD97":2570224.4100000001,"ADDRESS":"中正路１９５號","OBJECTID":592767},"geometry":{"x":166050.76000000071,"y":2570224.4100000001}},{"attributes":{"ID":592795,"DIS_CODE":0,"TOWNNAME":"學甲區","LI":"仁得里","LIN":"11鄰","STREET":"中正路","SECT":" ","MAREA":" ","LANE":" ","ALLEY":" ","HOUSE_NO":"５５號","E_COORD97":165950.91,"N_COORD97":2569683.5,"ADDRESS":"中正路５５號","OBJECTID":592768},"geometry":{"x":165950.90999999922,"y":2569683.5000000019}},{"attributes":{"ID":592796,"DIS_CODE":0,"TOWNNAME":"學甲區","LI":"仁得里","LIN":"11鄰","STREET":"中正路","SECT":" ","MAREA":" ","LANE":" ","ALLEY":" ","HOUSE_NO":"５７號","E_COORD97":165951.73000000001,"N_COORD97":2569687.9300000002,"ADDRESS":"中正路５７號","OBJECTID":592769},"geometry":{"x":165951.73000000045,"y":2569687.9299999997}},{"attributes":{"ID":592797,"DIS_CODE":0,"TOWNNAME":"學甲區","LI":"仁得里","LIN":"11鄰","STREET":"中正路","SECT":" ","MAREA":" ","LANE":" ","ALLEY":" ","HOUSE_NO":"５９號","E_COORD97":165952.91,"N_COORD97":2569692.0699999998,"ADDRESS":"中正路５９號","OBJECTID":592770},"geometry":{"x":165952.91000000108,"y":2569692.0700000003}},{"attributes":{"ID":592798,"DIS_CODE":0,"TOWNNAME":"學甲區","LI":"仁得里","LIN":"11鄰","STREET":"中正路","SECT":" ","MAREA":" ","LANE":" ","ALLEY":" ","HOUSE_NO":"６７號","E_COORD97":165954.14000000001,"N_COORD97":2569708.2400000002,"ADDRESS":"中正路６７號","OBJECTID":592771},"geometry":{"x":165954.14000000153,"y":2569708.2400000039}},{"attributes":{"ID":592799,"DIS_CODE":0,"TOWNNAME":"學甲區","LI":"仁得里","LIN":"11鄰","STREET":"中正路","SECT":" ","MAREA":" ","LANE":" ","ALLEY":" ","HOUSE_NO":"６９號","E_COORD97":165955.04000000001,"N_COORD97":2569712.3199999998,"ADDRESS":"中正路６９號","OBJECTID":592772},"geometry":{"x":165955.0400000019,"y":2569712.3200000022}},{"attributes":{"ID":592800,"DIS_CODE":0,"TOWNNAME":"學甲區","LI":"仁得里","LIN":"11鄰","STREET":"中正路","SECT":" ","MAREA":" ","LANE":" ","ALLEY":" ","HOUSE_NO":"７１號","E_COORD97":165956.39000000001,"N_COORD97":2569716.7400000002,"ADDRESS":"中正路７１號","OBJECTID":592773},"geometry":{"x":165956.3900000006,"y":2569716.7400000021}},{"attributes":{"ID":592801,"DIS_CODE":0,"TOWNNAME":"學甲區","LI":"仁得里","LIN":"11鄰","STREET":"中正路","SECT":" ","MAREA":" ","LANE":" ","ALLEY":" ","HOUSE_NO":"７３號","E_COORD97":165957.42000000001,"N_COORD97":2569721.96,"ADDRESS":"中正路７３號","OBJECTID":592774},"geometry":{"x":165957.42000000179,"y":2569721.9600000028}},{"attributes":{"ID":592802,"DIS_CODE":0,"TOWNNAME":"學甲區","LI":"仁得里","LIN":"11鄰","STREET":"中正路","SECT":" ","MAREA":" ","LANE":" ","ALLEY":" ","HOUSE_NO":"８５號","E_COORD97":165959.03,"N_COORD97":2569791.8599999999,"ADDRESS":"中正路８５號","OBJECTID":592775},"geometry":{"x":165959.03000000119,"y":2569791.8600000013}},{"attributes":{"ID":592803,"DIS_CODE":0,"TOWNNAME":"學甲區","LI":"仁得里","LIN":"11鄰","STREET":"中正路","SECT":" ","MAREA":" ","LANE":" ","ALLEY":" ","HOUSE_NO":"９１號","E_COORD97":165976.23000000001,"N_COORD97":2569820.7000000002,"ADDRESS":"中正路９１號","OBJECTID":592776},"geometry":{"x":165976.23000000231,"y":2569820.7000000011}},{"attributes":{"ID":592804,"DIS_CODE":0,"TOWNNAME":"學甲區","LI":"仁得里","LIN":"11鄰","STREET":"中正路","SECT":" ","MAREA":" ","LANE":" ","ALLEY":" ","HOUSE_NO":"９３號","E_COORD97":165977.72,"N_COORD97":2569826.4500000002,"ADDRESS":"中正路９３號","OBJECTID":592777},"geometry":{"x":165977.72000000067,"y":2569826.4499999993}},{"attributes":{"ID":592805,"DIS_CODE":0,"TOWNNAME":"學甲區","LI":"仁得里","LIN":"11鄰","STREET":"中正路","SECT":" ","MAREA":" ","LANE":" ","ALLEY":" ","HOUSE_NO":"９５號","E_COORD97":165978.35000000001,"N_COORD97":2569830.5699999998,"ADDRESS":"中正路９５號","OBJECTID":592778},"geometry":{"x":165978.35000000056,"y":2569830.5700000003}},{"attributes":{"ID":592806,"DIS_CODE":0,"TOWNNAME":"學甲區","LI":"仁得里","LIN":"11鄰","STREET":"中正路","SECT":" ","MAREA":" ","LANE":" ","ALLEY":" ","HOUSE_NO":"９７號","E_COORD97":165979.29000000001,"N_COORD97":2569835.3399999999,"ADDRESS":"中正路９７號","OBJECTID":592779},"geometry":{"x":165979.29000000097,"y":2569835.3399999999}},{"attributes":{"ID":592807,"DIS_CODE":0,"TOWNNAME":"學甲區","LI":"仁得里","LIN":"11鄰","STREET":"中正路","SECT":" ","MAREA":" ","LANE":" ","ALLEY":" ","HOUSE_NO":"９９號","E_COORD97":165980.07999999999,"N_COORD97":2569840.1299999999,"ADDRESS":"中正路９９號","OBJECTID":592780},"geometry":{"x":165980.08000000007,"y":2569840.1300000027}},{"attributes":{"ID":592808,"DIS_CODE":0,"TOWNNAME":"仁德區","LI":"太子里","LIN":"6鄰","STREET":"長興二街","SECT":" ","MAREA":" ","LANE":" ","ALLEY":" ","HOUSE_NO":"６３號","E_COORD97":174247.89999999999,"N_COORD97":2543686.25,"ADDRESS":"長興二街６３號","OBJECTID":592781},"geometry":{"x":174247.9000000013,"y":2543686.25}},{"attributes":{"ID":592809,"DIS_CODE":0,"TOWNNAME":"學甲區","LI":"仁得里","LIN":"11鄰","STREET":"四維街","SECT":" ","MAREA":" ","LANE":" ","ALLEY":" ","HOUSE_NO":"１０３號","E_COORD97":165947.44,"N_COORD97":2569791.71,"ADDRESS":"四維街１０３號","OBJECTID":592782},"geometry":{"x":165947.44000000041,"y":2569791.7100000028}},{"attributes":{"ID":592810,"DIS_CODE":0,"TOWNNAME":"學甲區","LI":"仁得里","LIN":"11鄰","STREET":"四維街","SECT":" ","MAREA":" ","LANE":" ","ALLEY":" ","HOUSE_NO":"１０４號","E_COORD97":165932.29999999999,"N_COORD97":2569829.9300000002,"ADDRESS":"四維街１０４號","OBJECTID":592783},"geometry":{"x":165932.29999999981,"y":2569829.9300000016}},{"attributes":{"ID":592811,"DIS_CODE":0,"TOWNNAME":"學甲區","LI":"仁得里","LIN":"11鄰","STREET":"四維街","SECT":" ","MAREA":" ","LANE":" ","ALLEY":" ","HOUSE_NO":"１０５號","E_COORD97":165941.82000000001,"N_COORD97":2569793.0899999999,"ADDRESS":"四維街１０５號","OBJECTID":592784},"geometry":{"x":165941.82000000123,"y":2569793.0899999999}},{"attributes":{"ID":592812,"DIS_CODE":0,"TOWNNAME":"學甲區","LI":"仁得里","LIN":"11鄰","STREET":"四維街","SECT":" ","MAREA":" ","LANE":" ","ALLEY":" ","HOUSE_NO":"１０６號","E_COORD97":165927.73999999999,"N_COORD97":2569831.29,"ADDRESS":"四維街１０６號","OBJECTID":592785},"geometry":{"x":165927.74000000022,"y":2569831.2899999991}},{"attributes":{"ID":592813,"DIS_CODE":0,"TOWNNAME":"學甲區","LI":"仁得里","LIN":"11鄰","STREET":"四維街","SECT":" ","MAREA":" ","LANE":" ","ALLEY":" ","HOUSE_NO":"１０７號","E_COORD97":165937,"N_COORD97":2569794.1899999999,"ADDRESS":"四維街１０７號","OBJECTID":592786},"geometry":{"x":165937.00000000093,"y":2569794.1900000013}},{"attributes":{"ID":592814,"DIS_CODE":0,"TOWNNAME":"學甲區","LI":"仁得里","LIN":"11鄰","STREET":"四維街","SECT":" ","MAREA":" ","LANE":" ","ALLEY":" ","HOUSE_NO":"１０８號","E_COORD97":165920.59,"N_COORD97":2569833.6699999999,"ADDRESS":"四維街１０８號","OBJECTID":592787},"geometry":{"x":165920.59000000171,"y":2569833.6699999999}},{"attributes":{"ID":592815,"DIS_CODE":0,"TOWNNAME":"學甲區","LI":"仁得里","LIN":"11鄰","STREET":"四維街","SECT":" ","MAREA":" ","LANE":" ","ALLEY":" ","HOUSE_NO":"１０９號","E_COORD97":165932.29999999999,"N_COORD97":2569795.5299999998,"ADDRESS":"四維街１０９號","OBJECTID":592788},"geometry":{"x":165932.29999999981,"y":2569795.5299999993}},{"attributes":{"ID":592816,"DIS_CODE":0,"TOWNNAME":"學甲區","LI":"仁得里","LIN":"11鄰","STREET":"四維街","SECT":" ","MAREA":" ","LANE":" ","ALLEY":" ","HOUSE_NO":"１１１號","E_COORD97":165927.03,"N_COORD97":2569796.98,"ADDRESS":"四維街１１１號","OBJECTID":592789},"geometry":{"x":165927.03000000119,"y":2569796.9800000004}},{"attributes":{"ID":592817,"DIS_CODE":0,"TOWNNAME":"學甲區","LI":"仁得里","LIN":"11鄰","STREET":"四維街","SECT":" ","MAREA":" ","LANE":" ","ALLEY":" ","HOUSE_NO":"１１３號","E_COORD97":165922.29000000001,"N_COORD97":2569797.8799999999,"ADDRESS":"四維街１１３號","OBJECTID":592790},"geometry":{"x":165922.29000000004,"y":2569797.8800000027}},{"attributes":{"ID":592818,"DIS_CODE":0,"TOWNNAME":"學甲區","LI":"仁得里","LIN":"11鄰","STREET":"四維街","SECT":" ","MAREA":" ","LANE":" ","ALLEY":" ","HOUSE_NO":"１１５號","E_COORD97":165917.85000000001,"N_COORD97":2569799.2000000002,"ADDRESS":"四維街１１５號","OBJECTID":592791},"geometry":{"x":165917.84999999963,"y":2569799.200000003}},{"attributes":{"ID":592819,"DIS_CODE":0,"TOWNNAME":"學甲區","LI":"仁得里","LIN":"11鄰","STREET":"四維街","SECT":" ","MAREA":" ","LANE":" ","ALLEY":" ","HOUSE_NO":"１１６號","E_COORD97":165895.53,"N_COORD97":2569844.0499999998,"ADDRESS":"四維街１１６號","OBJECTID":592792},"geometry":{"x":165895.53000000026,"y":2569844.0500000026}},{"attributes":{"ID":592820,"DIS_CODE":0,"TOWNNAME":"學甲區","LI":"仁得里","LIN":"11鄰","STREET":"四維街","SECT":" ","MAREA":" ","LANE":" ","ALLEY":" ","HOUSE_NO":"１１７號","E_COORD97":165912.94,"N_COORD97":2569800.4100000001,"ADDRESS":"四維街１１７號","OBJECTID":592793},"geometry":{"x":165912.94000000041,"y":2569800.4100000001}},{"attributes":{"ID":592821,"DIS_CODE":0,"TOWNNAME":"學甲區","LI":"仁得里","LIN":"11鄰","STREET":"四維街","SECT":" ","MAREA":" ","LANE":" ","ALLEY":" ","HOUSE_NO":"１１８號","E_COORD97":165891.23000000001,"N_COORD97":2569845.1400000001,"ADDRESS":"四維街１１８號","OBJECTID":592794},"geometry":{"x":165891.23000000045,"y":2569845.1400000043}},{"attributes":{"ID":592822,"DIS_CODE":0,"TOWNNAME":"學甲區","LI":"仁得里","LIN":"11鄰","STREET":"四維街","SECT":" ","MAREA":" ","LANE":" ","ALLEY":" ","HOUSE_NO":"１１９號","E_COORD97":165908.47,"N_COORD97":2569801.6600000001,"ADDRESS":"四維街１１９號","OBJECTID":592795},"geometry":{"x":165908.47000000067,"y":2569801.660000002}},{"attributes":{"ID":592823,"DIS_CODE":0,"TOWNNAME":"學甲區","LI":"仁得里","LIN":"11鄰","STREET":"四維街","SECT":" ","MAREA":" ","LANE":" ","ALLEY":" ","HOUSE_NO":"１２０號","E_COORD97":165884.04000000001,"N_COORD97":2569839.7200000002,"ADDRESS":"四維街１２０號","OBJECTID":592796},"geometry":{"x":165884.04000000097,"y":2569839.7200000007}},{"attributes":{"ID":592824,"DIS_CODE":0,"TOWNNAME":"學甲區","LI":"仁得里","LIN":"11鄰","STREET":"四維街","SECT":" ","MAREA":" ","LANE":" ","ALLEY":" ","HOUSE_NO":"１２１號","E_COORD97":165903.41,"N_COORD97":2569802.27,"ADDRESS":"四維街１２１號","OBJECTID":592797},"geometry":{"x":165903.40999999922,"y":2569802.2700000033}},{"attributes":{"ID":592825,"DIS_CODE":0,"TOWNNAME":"學甲區","LI":"仁得里","LIN":"11鄰","STREET":"四維街","SECT":" ","MAREA":" ","LANE":" ","ALLEY":" ","HOUSE_NO":"１２３號","E_COORD97":165898.39000000001,"N_COORD97":2569803.2799999998,"ADDRESS":"四維街１２３號","OBJECTID":592798},"geometry":{"x":165898.3900000006,"y":2569803.2800000012}},{"attributes":{"ID":592826,"DIS_CODE":0,"TOWNNAME":"學甲區","LI":"仁得里","LIN":"11鄰","STREET":"四維街","SECT":" ","MAREA":" ","LANE":" ","ALLEY":" ","HOUSE_NO":"１３１號","E_COORD97":165883.56,"N_COORD97":2569811.2400000002,"ADDRESS":"四維街１３１號","OBJECTID":592799},"geometry":{"x":165883.56000000052,"y":2569811.2400000021}},{"attributes":{"ID":592827,"DIS_CODE":0,"TOWNNAME":"學甲區","LI":"仁得里","LIN":"11鄰","STREET":"四維街","SECT":" ","MAREA":" ","LANE":" ","ALLEY":" ","HOUSE_NO":"１３５號","E_COORD97":165875.32999999999,"N_COORD97":2569813.3599999999,"ADDRESS":"四維街１３５號","OBJECTID":592800},"geometry":{"x":165875.33000000101,"y":2569813.3600000013}}]}