{"displayFieldName":"TOWNNAME","fieldAliases":{"ID":"ID","DIS_CODE":"DIS_CODE","TOWNNAME":"TOWNNAME","LI":"LI","LIN":"LIN","STREET":"STREET","SECT":"SECT","MAREA":"MAREA","LANE":"LANE","ALLEY":"ALLEY","HOUSE_NO":"HOUSE_NO","E_COORD97":"E_COORD97","N_COORD97":"N_COORD97","ADDRESS":"ADDRESS","OBJECTID":"OBJECTID"},"geometryType":"esriGeometryPoint","spatialReference":{"wkid":102443,"latestWkid":3826},"fields":[{"name":"ID","type":"esriFieldTypeDouble","alias":"ID"},{"name":"DIS_CODE","type":"esriFieldTypeInteger","alias":"DIS_CODE"},{"name":"TOWNNAME","type":"esriFieldTypeString","alias":"TOWNNAME","length":8},{"name":"LI","type":"esriFieldTypeString","alias":"LI","length":8},{"name":"LIN","type":"esriFieldTypeString","alias":"LIN","length":12},{"name":"STREET","type":"esriFieldTypeString","alias":"STREET","length":20},{"name":"SECT","type":"esriFieldTypeString","alias":"SECT","length":8},{"name":"MAREA","type":"esriFieldTypeString","alias":"MAREA","length":12},{"name":"LANE","type":"esriFieldTypeString","alias":"LANE","length":10},{"name":"ALLEY","type":"esriFieldTypeString","alias":"ALLEY","length":10},{"name":"HOUSE_NO","type":"esriFieldTypeString","alias":"HOUSE_NO","length":20},{"name":"E_COORD97","type":"esriFieldTypeDouble","alias":"E_COORD97"},{"name":"N_COORD97","type":"esriFieldTypeDouble","alias":"N_COORD97"},{"name":"ADDRESS","type":"esriFieldTypeString","alias":"ADDRESS","length":50},{"name":"OBJECTID","type":"esriFieldTypeOID","alias":"OBJECTID"}],"features":[{"attributes":{"ID":584228,"DIS_CODE":0,"TOWNNAME":"楠西區","LI":"東勢里","LIN":"16鄰","STREET":"茄拔路","SECT":" ","MAREA":" ","LANE":" ","ALLEY":" ","HOUSE_NO":"２３１號","E_COORD97":197579.14000000001,"N_COORD97":2563744.2799999998,"ADDRESS":"茄拔路２３１號","OBJECTID":584201},"geometry":{"x":197579.13999999966,"y":2563744.2800000012}},{"attributes":{"ID":584229,"DIS_CODE":0,"TOWNNAME":"楠西區","LI":"東勢里","LIN":"16鄰","STREET":"茄拔路","SECT":" ","MAREA":" ","LANE":" ","ALLEY":" ","HOUSE_NO":"２１７號","E_COORD97":197547.04000000001,"N_COORD97":2563753.2799999998,"ADDRESS":"茄拔路２１７號","OBJECTID":584202},"geometry":{"x":197547.04000000097,"y":2563753.2799999993}},{"attributes":{"ID":584230,"DIS_CODE":0,"TOWNNAME":"楠西區","LI":"楠西里","LIN":"16鄰","STREET":"中正路","SECT":" ","MAREA":" ","LANE":" ","ALLEY":" ","HOUSE_NO":"７５號","E_COORD97":197219.91,"N_COORD97":2564026.25,"ADDRESS":"中正路７５號","OBJECTID":584203},"geometry":{"x":197219.91000000015,"y":2564026.2500000019}},{"attributes":{"ID":584231,"DIS_CODE":0,"TOWNNAME":"楠西區","LI":"楠西里","LIN":"16鄰","STREET":"中正路","SECT":" ","MAREA":" ","LANE":" ","ALLEY":" ","HOUSE_NO":"５３號","E_COORD97":197191.60999999999,"N_COORD97":2564066.25,"ADDRESS":"中正路５３號","OBJECTID":584204},"geometry":{"x":197191.61000000034,"y":2564066.2499999981}},{"attributes":{"ID":584232,"DIS_CODE":0,"TOWNNAME":"東區","LI":"泉南里","LIN":"11鄰","STREET":"樹林街","SECT":"一段","MAREA":" ","LANE":" ","ALLEY":" ","HOUSE_NO":"２９號","E_COORD97":169637.17000000001,"N_COORD97":2542912.0499999998,"ADDRESS":"樹林街一段２９號","OBJECTID":584205},"geometry":{"x":169637.16999999993,"y":2542912.0500000007}},{"attributes":{"ID":584233,"DIS_CODE":0,"TOWNNAME":"東區","LI":"泉南里","LIN":"2鄰","STREET":"府東街","SECT":" ","MAREA":" ","LANE":" ","ALLEY":" ","HOUSE_NO":"２１７號","E_COORD97":169371.17999999999,"N_COORD97":2543078.7400000002,"ADDRESS":"府東街２１７號","OBJECTID":584206},"geometry":{"x":169371.17999999877,"y":2543078.7400000002}},{"attributes":{"ID":584234,"DIS_CODE":0,"TOWNNAME":"東區","LI":"龍山里","LIN":"16鄰","STREET":"府東街","SECT":" ","MAREA":" ","LANE":" ","ALLEY":" ","HOUSE_NO":"１１８號","E_COORD97":169766.98000000001,"N_COORD97":2542981.7999999998,"ADDRESS":"府東街１１８號","OBJECTID":584207},"geometry":{"x":169766.98000000138,"y":2542981.8000000007}},{"attributes":{"ID":584235,"DIS_CODE":0,"TOWNNAME":"楠西區","LI":"楠西里","LIN":"16鄰","STREET":"中正路","SECT":" ","MAREA":" ","LANE":" ","ALLEY":" ","HOUSE_NO":"４７號","E_COORD97":197181.10999999999,"N_COORD97":2564076.25,"ADDRESS":"中正路４７號","OBJECTID":584208},"geometry":{"x":197181.11000000127,"y":2564076.25}},{"attributes":{"ID":584236,"DIS_CODE":0,"TOWNNAME":"楠西區","LI":"東勢里","LIN":"16鄰","STREET":"茄拔路","SECT":" ","MAREA":" ","LANE":" ","ALLEY":" ","HOUSE_NO":"２１３號","E_COORD97":197537.84,"N_COORD97":2563755.2799999998,"ADDRESS":"茄拔路２１３號","OBJECTID":584209},"geometry":{"x":197537.84000000078,"y":2563755.2800000012}},{"attributes":{"ID":584237,"DIS_CODE":0,"TOWNNAME":"楠西區","LI":"東勢里","LIN":"16鄰","STREET":"茄拔路","SECT":" ","MAREA":" ","LANE":" ","ALLEY":" ","HOUSE_NO":"１９５號","E_COORD97":197496.72,"N_COORD97":2563765.2000000002,"ADDRESS":"茄拔路１９５號","OBJECTID":584210},"geometry":{"x":197496.72000000067,"y":2563765.2000000011}},{"attributes":{"ID":584238,"DIS_CODE":0,"TOWNNAME":"楠西區","LI":"楠西里","LIN":"16鄰","STREET":"中正路","SECT":" ","MAREA":" ","LANE":" ","ALLEY":" ","HOUSE_NO":"５１號","E_COORD97":197187.81,"N_COORD97":2564069.25,"ADDRESS":"中正路５１號","OBJECTID":584211},"geometry":{"x":197187.80999999959,"y":2564069.25}},{"attributes":{"ID":584239,"DIS_CODE":0,"TOWNNAME":"楠西區","LI":"東勢里","LIN":"16鄰","STREET":"茄拔路","SECT":" ","MAREA":" ","LANE":" ","ALLEY":" ","HOUSE_NO":"２０５號","E_COORD97":197514.12,"N_COORD97":2563762.2000000002,"ADDRESS":"茄拔路２０５號","OBJECTID":584212},"geometry":{"x":197514.12000000104,"y":2563762.2000000011}},{"attributes":{"ID":584240,"DIS_CODE":0,"TOWNNAME":"楠西區","LI":"楠西里","LIN":"16鄰","STREET":"中正路","SECT":" ","MAREA":" ","LANE":" ","ALLEY":" ","HOUSE_NO":"５７號","E_COORD97":197197.41,"N_COORD97":2564058.25,"ADDRESS":"中正路５７號","OBJECTID":584213},"geometry":{"x":197197.41000000108,"y":2564058.25}},{"attributes":{"ID":584241,"DIS_CODE":0,"TOWNNAME":"東區","LI":"泉南里","LIN":"4鄰","STREET":"府東街","SECT":" ","MAREA":" ","LANE":" ","ALLEY":" ","HOUSE_NO":"１７５號","E_COORD97":169527.66,"N_COORD97":2543047.5,"ADDRESS":"府東街１７５號","OBJECTID":584214},"geometry":{"x":169527.66000000015,"y":2543047.5}},{"attributes":{"ID":584242,"DIS_CODE":0,"TOWNNAME":"楠西區","LI":"楠西里","LIN":"16鄰","STREET":"中正路","SECT":" ","MAREA":" ","LANE":" ","ALLEY":" ","HOUSE_NO":"７１號","E_COORD97":197214.51000000001,"N_COORD97":2564033.25,"ADDRESS":"中正路７１號","OBJECTID":584215},"geometry":{"x":197214.51000000071,"y":2564033.2500000019}},{"attributes":{"ID":584243,"DIS_CODE":0,"TOWNNAME":"楠西區","LI":"東勢里","LIN":"16鄰","STREET":"茄拔路","SECT":" ","MAREA":" ","LANE":" ","ALLEY":" ","HOUSE_NO":"１９３號","E_COORD97":197492.72,"N_COORD97":2563767.2000000002,"ADDRESS":"茄拔路１９３號","OBJECTID":584216},"geometry":{"x":197492.72000000067,"y":2563767.1999999993}},{"attributes":{"ID":584244,"DIS_CODE":0,"TOWNNAME":"楠西區","LI":"楠西里","LIN":"16鄰","STREET":"中正路","SECT":" ","MAREA":" ","LANE":" ","ALLEY":" ","HOUSE_NO":"４５號","E_COORD97":197176.10999999999,"N_COORD97":2564082.25,"ADDRESS":"中正路４５號","OBJECTID":584217},"geometry":{"x":197176.11000000034,"y":2564082.25}},{"attributes":{"ID":584245,"DIS_CODE":0,"TOWNNAME":"楠西區","LI":"東勢里","LIN":"16鄰","STREET":"茄拔路","SECT":" ","MAREA":" ","LANE":" ","ALLEY":" ","HOUSE_NO":"２６５號","E_COORD97":197713.44,"N_COORD97":2563711.2799999998,"ADDRESS":"茄拔路２６５號","OBJECTID":584218},"geometry":{"x":197713.44000000041,"y":2563711.2799999993}},{"attributes":{"ID":584246,"DIS_CODE":0,"TOWNNAME":"楠西區","LI":"東勢里","LIN":"16鄰","STREET":"茄拔路","SECT":" ","MAREA":" ","LANE":" ","ALLEY":" ","HOUSE_NO":"２７１號","E_COORD97":197731.23999999999,"N_COORD97":2563706.2799999998,"ADDRESS":"茄拔路２７１號","OBJECTID":584219},"geometry":{"x":197731.24000000022,"y":2563706.2800000031}},{"attributes":{"ID":584247,"DIS_CODE":0,"TOWNNAME":"楠西區","LI":"東勢里","LIN":"16鄰","STREET":"茄拔路","SECT":" ","MAREA":" ","LANE":" ","ALLEY":" ","HOUSE_NO":"２４９號","E_COORD97":197621.14000000001,"N_COORD97":2563733.2799999998,"ADDRESS":"茄拔路２４９號","OBJECTID":584220},"geometry":{"x":197621.13999999966,"y":2563733.2800000031}},{"attributes":{"ID":584248,"DIS_CODE":0,"TOWNNAME":"楠西區","LI":"東勢里","LIN":"16鄰","STREET":"茄拔路","SECT":" ","MAREA":" ","LANE":" ","ALLEY":" ","HOUSE_NO":"２４１號","E_COORD97":197601.04000000001,"N_COORD97":2563738.2799999998,"ADDRESS":"茄拔路２４１號","OBJECTID":584221},"geometry":{"x":197601.04000000097,"y":2563738.2800000012}},{"attributes":{"ID":584249,"DIS_CODE":0,"TOWNNAME":"楠西區","LI":"東勢里","LIN":"16鄰","STREET":"茄拔路","SECT":" ","MAREA":" ","LANE":" ","ALLEY":" ","HOUSE_NO":"２３５號","E_COORD97":197588.04000000001,"N_COORD97":2563742.2799999998,"ADDRESS":"茄拔路２３５號","OBJECTID":584222},"geometry":{"x":197588.04000000097,"y":2563742.2799999993}},{"attributes":{"ID":584250,"DIS_CODE":0,"TOWNNAME":"楠西區","LI":"東勢里","LIN":"16鄰","STREET":"茄拔路","SECT":" ","MAREA":" ","LANE":" ","ALLEY":" ","HOUSE_NO":"２７７號","E_COORD97":197756.64000000001,"N_COORD97":2563700.2799999998,"ADDRESS":"茄拔路２７７號","OBJECTID":584223},"geometry":{"x":197756.63999999966,"y":2563700.2800000012}},{"attributes":{"ID":584251,"DIS_CODE":0,"TOWNNAME":"楠西區","LI":"東勢里","LIN":"16鄰","STREET":"茄拔路","SECT":" ","MAREA":" ","LANE":" ","ALLEY":" ","HOUSE_NO":"２４５號","E_COORD97":197610.34,"N_COORD97":2563735.2799999998,"ADDRESS":"茄拔路２４５號","OBJECTID":584224},"geometry":{"x":197610.33999999985,"y":2563735.2799999993}},{"attributes":{"ID":584252,"DIS_CODE":0,"TOWNNAME":"楠西區","LI":"東勢里","LIN":"16鄰","STREET":"茄拔路","SECT":" ","MAREA":" ","LANE":" ","ALLEY":" ","HOUSE_NO":"２４７號","E_COORD97":197614.23999999999,"N_COORD97":2563734.2799999998,"ADDRESS":"茄拔路２４７號","OBJECTID":584225},"geometry":{"x":197614.24000000022,"y":2563734.2800000012}},{"attributes":{"ID":584253,"DIS_CODE":0,"TOWNNAME":"楠西區","LI":"東勢里","LIN":"16鄰","STREET":"茄拔路","SECT":" ","MAREA":" ","LANE":" ","ALLEY":" ","HOUSE_NO":"２７３號之１","E_COORD97":197747.98000000001,"N_COORD97":2563701.2999999998,"ADDRESS":"茄拔路２７３號之１","OBJECTID":584226},"geometry":{"x":197747.98000000138,"y":2563701.3000000026}},{"attributes":{"ID":584254,"DIS_CODE":0,"TOWNNAME":"楠西區","LI":"東勢里","LIN":"16鄰","STREET":"茄拔路","SECT":" ","MAREA":" ","LANE":" ","ALLEY":" ","HOUSE_NO":"２６９號","E_COORD97":197725.64000000001,"N_COORD97":2563708.2799999998,"ADDRESS":"茄拔路２６９號","OBJECTID":584227},"geometry":{"x":197725.6400000006,"y":2563708.2799999993}},{"attributes":{"ID":584255,"DIS_CODE":0,"TOWNNAME":"楠西區","LI":"東勢里","LIN":"16鄰","STREET":"茄拔路","SECT":" ","MAREA":" ","LANE":" ","ALLEY":" ","HOUSE_NO":"３１５號之２６","E_COORD97":198168.32999999999,"N_COORD97":2563717.2999999998,"ADDRESS":"茄拔路３１５號之２６","OBJECTID":584228},"geometry":{"x":198168.33000000007,"y":2563717.3000000007}},{"attributes":{"ID":584256,"DIS_CODE":0,"TOWNNAME":"楠西區","LI":"東勢里","LIN":"16鄰","STREET":"茄拔路","SECT":" ","MAREA":" ","LANE":" ","ALLEY":" ","HOUSE_NO":"２３７號","E_COORD97":197592.44,"N_COORD97":2563740.2799999998,"ADDRESS":"茄拔路２３７號","OBJECTID":584229},"geometry":{"x":197592.44000000134,"y":2563740.2800000031}},{"attributes":{"ID":584257,"DIS_CODE":0,"TOWNNAME":"東區","LI":"泉南里","LIN":"4鄰","STREET":"府東街","SECT":" ","MAREA":" ","LANE":" ","ALLEY":" ","HOUSE_NO":"１７９號","E_COORD97":169517.26999999999,"N_COORD97":2543050.1699999999,"ADDRESS":"府東街１７９號","OBJECTID":584230},"geometry":{"x":169517.26999999955,"y":2543050.1700000037}},{"attributes":{"ID":584258,"DIS_CODE":0,"TOWNNAME":"楠西區","LI":"東勢里","LIN":"16鄰","STREET":"茄拔路","SECT":" ","MAREA":" ","LANE":" ","ALLEY":" ","HOUSE_NO":"２３３號","E_COORD97":197583.64000000001,"N_COORD97":2563743.2799999998,"ADDRESS":"茄拔路２３３號","OBJECTID":584231},"geometry":{"x":197583.6400000006,"y":2563743.2799999975}},{"attributes":{"ID":584259,"DIS_CODE":0,"TOWNNAME":"東區","LI":"圍下里","LIN":"2鄰","STREET":"青年路","SECT":" ","MAREA":" ","LANE":" ","ALLEY":" ","HOUSE_NO":"４２０號","E_COORD97":169692.14000000001,"N_COORD97":2543514.9300000002,"ADDRESS":"青年路４２０號","OBJECTID":584232},"geometry":{"x":169692.1400000006,"y":2543514.9299999997}},{"attributes":{"ID":584260,"DIS_CODE":0,"TOWNNAME":"楠西區","LI":"東勢里","LIN":"16鄰","STREET":"茄拔路","SECT":" ","MAREA":" ","LANE":" ","ALLEY":" ","HOUSE_NO":"２７５號","E_COORD97":197749.94,"N_COORD97":2563701.2799999998,"ADDRESS":"茄拔路２７５號","OBJECTID":584233},"geometry":{"x":197749.94000000134,"y":2563701.2799999993}},{"attributes":{"ID":584261,"DIS_CODE":0,"TOWNNAME":"楠西區","LI":"東勢里","LIN":"16鄰","STREET":"茄拔路","SECT":" ","MAREA":" ","LANE":" ","ALLEY":" ","HOUSE_NO":"２５１號","E_COORD97":197628.64000000001,"N_COORD97":2563731.2799999998,"ADDRESS":"茄拔路２５１號","OBJECTID":584234},"geometry":{"x":197628.64000000153,"y":2563731.2800000012}},{"attributes":{"ID":584262,"DIS_CODE":0,"TOWNNAME":"楠西區","LI":"東勢里","LIN":"16鄰","STREET":"茄拔路","SECT":" ","MAREA":" ","LANE":" ","ALLEY":" ","HOUSE_NO":"３４５號","E_COORD97":198627.84,"N_COORD97":2563817.2799999998,"ADDRESS":"茄拔路３４５號","OBJECTID":584235},"geometry":{"x":198627.84000000078,"y":2563817.2799999993}},{"attributes":{"ID":584263,"DIS_CODE":0,"TOWNNAME":"柳營區","LI":"東昇里","LIN":"16鄰","STREET":"十美街","SECT":" ","MAREA":" ","LANE":" ","ALLEY":" ","HOUSE_NO":"３６號","E_COORD97":180665.51000000001,"N_COORD97":2575433.6600000001,"ADDRESS":"十美街３６號","OBJECTID":584236},"geometry":{"x":180665.50999999978,"y":2575433.6600000001}},{"attributes":{"ID":584264,"DIS_CODE":0,"TOWNNAME":"柳營區","LI":"東昇里","LIN":"16鄰","STREET":"十美街","SECT":" ","MAREA":" ","LANE":" ","ALLEY":" ","HOUSE_NO":"３８號","E_COORD97":180664.98999999999,"N_COORD97":2575438.1499999999,"ADDRESS":"十美街３８號","OBJECTID":584237},"geometry":{"x":180664.99000000115,"y":2575438.1500000004}},{"attributes":{"ID":584265,"DIS_CODE":0,"TOWNNAME":"東區","LI":"崇德里","LIN":"7鄰","STREET":"崇德七街","SECT":" ","MAREA":" ","LANE":" ","ALLEY":" ","HOUSE_NO":"５３號","E_COORD97":170820.72,"N_COORD97":2541791.9500000002,"ADDRESS":"崇德七街５３號","OBJECTID":584238},"geometry":{"x":170820.72000000067,"y":2541791.9499999993}},{"attributes":{"ID":584266,"DIS_CODE":0,"TOWNNAME":"東區","LI":"圍下里","LIN":"19鄰","STREET":"慶東街","SECT":" ","MAREA":" ","LANE":" ","ALLEY":" ","HOUSE_NO":"１３５號地下一層","E_COORD97":169623.26000000001,"N_COORD97":2543449.5800000001,"ADDRESS":"慶東街１３５號地下一層","OBJECTID":584239},"geometry":{"x":169623.25999999885,"y":2543449.5800000001}},{"attributes":{"ID":584267,"DIS_CODE":0,"TOWNNAME":"東區","LI":"圍下里","LIN":"19鄰","STREET":"慶東街","SECT":" ","MAREA":" ","LANE":" ","ALLEY":" ","HOUSE_NO":"１３５號地下二層","E_COORD97":169623.26000000001,"N_COORD97":2543449.5800000001,"ADDRESS":"慶東街１３５號地下二層","OBJECTID":584240},"geometry":{"x":169623.25999999885,"y":2543449.5800000001}},{"attributes":{"ID":584268,"DIS_CODE":0,"TOWNNAME":"東區","LI":"圍下里","LIN":"19鄰","STREET":"慶東街","SECT":" ","MAREA":" ","LANE":" ","ALLEY":" ","HOUSE_NO":"１３７號地下一層","E_COORD97":169592.01999999999,"N_COORD97":2543445.7799999998,"ADDRESS":"慶東街１３７號地下一層","OBJECTID":584241},"geometry":{"x":169592.01999999955,"y":2543445.7800000012}},{"attributes":{"ID":584269,"DIS_CODE":0,"TOWNNAME":"東區","LI":"圍下里","LIN":"19鄰","STREET":"慶東街","SECT":" ","MAREA":" ","LANE":" ","ALLEY":" ","HOUSE_NO":"１３７號地下三層","E_COORD97":169592.01999999999,"N_COORD97":2543445.7799999998,"ADDRESS":"慶東街１３７號地下三層","OBJECTID":584242},"geometry":{"x":169592.01999999955,"y":2543445.7800000012}},{"attributes":{"ID":584270,"DIS_CODE":0,"TOWNNAME":"東區","LI":"圍下里","LIN":"19鄰","STREET":"慶東街","SECT":" ","MAREA":" ","LANE":" ","ALLEY":" ","HOUSE_NO":"１３７號","E_COORD97":169592.01999999999,"N_COORD97":2543445.7799999998,"ADDRESS":"慶東街１３７號","OBJECTID":584243},"geometry":{"x":169592.01999999955,"y":2543445.7800000012}},{"attributes":{"ID":584271,"DIS_CODE":0,"TOWNNAME":"柳營區","LI":"東昇里","LIN":"16鄰","STREET":"十美街","SECT":" ","MAREA":" ","LANE":" ","ALLEY":" ","HOUSE_NO":"１１號","E_COORD97":180640.13,"N_COORD97":2575393.9500000002,"ADDRESS":"十美街１１號","OBJECTID":584244},"geometry":{"x":180640.13000000082,"y":2575393.9499999993}},{"attributes":{"ID":584272,"DIS_CODE":0,"TOWNNAME":"柳營區","LI":"東昇里","LIN":"16鄰","STREET":"十美街","SECT":" ","MAREA":" ","LANE":" ","ALLEY":" ","HOUSE_NO":"１５號","E_COORD97":180638.89000000001,"N_COORD97":2575404.3599999999,"ADDRESS":"十美街１５號","OBJECTID":584245},"geometry":{"x":180638.88999999966,"y":2575404.3599999994}},{"attributes":{"ID":584273,"DIS_CODE":0,"TOWNNAME":"柳營區","LI":"東昇里","LIN":"16鄰","STREET":"十美街","SECT":" ","MAREA":" ","LANE":" ","ALLEY":" ","HOUSE_NO":"６８號","E_COORD97":180660.57999999999,"N_COORD97":2575486.79,"ADDRESS":"十美街６８號","OBJECTID":584246},"geometry":{"x":180660.58000000194,"y":2575486.7899999991}},{"attributes":{"ID":584274,"DIS_CODE":0,"TOWNNAME":"柳營區","LI":"東昇里","LIN":"16鄰","STREET":"十美街","SECT":" ","MAREA":" ","LANE":" ","ALLEY":" ","HOUSE_NO":"２３號","E_COORD97":180639.07000000001,"N_COORD97":2575427.6099999999,"ADDRESS":"十美街２３號","OBJECTID":584247},"geometry":{"x":180639.07000000123,"y":2575427.6099999994}},{"attributes":{"ID":584275,"DIS_CODE":0,"TOWNNAME":"柳營區","LI":"東昇里","LIN":"16鄰","STREET":"十美街","SECT":" ","MAREA":" ","LANE":" ","ALLEY":" ","HOUSE_NO":"３０號","E_COORD97":180666.56,"N_COORD97":2575424.6600000001,"ADDRESS":"十美街３０號","OBJECTID":584248},"geometry":{"x":180666.55999999959,"y":2575424.6600000001}},{"attributes":{"ID":584276,"DIS_CODE":0,"TOWNNAME":"柳營區","LI":"東昇里","LIN":"16鄰","STREET":"十美街","SECT":" ","MAREA":" ","LANE":" ","ALLEY":" ","HOUSE_NO":"３２號","E_COORD97":180666.04000000001,"N_COORD97":2575429.1600000001,"ADDRESS":"十美街３２號","OBJECTID":584249},"geometry":{"x":180666.0400000019,"y":2575429.160000002}},{"attributes":{"ID":584277,"DIS_CODE":0,"TOWNNAME":"柳營區","LI":"東昇里","LIN":"16鄰","STREET":"十美街","SECT":" ","MAREA":" ","LANE":" ","ALLEY":" ","HOUSE_NO":"５８號","E_COORD97":180663.17999999999,"N_COORD97":2575468.0600000001,"ADDRESS":"十美街５８號","OBJECTID":584250},"geometry":{"x":180663.18000000063,"y":2575468.0600000024}},{"attributes":{"ID":584278,"DIS_CODE":0,"TOWNNAME":"柳營區","LI":"東昇里","LIN":"16鄰","STREET":"十美街","SECT":" ","MAREA":" ","LANE":" ","ALLEY":" ","HOUSE_NO":"５９號","E_COORD97":180620.72,"N_COORD97":2575503.4100000001,"ADDRESS":"十美街５９號","OBJECTID":584251},"geometry":{"x":180620.72000000067,"y":2575503.4100000001}},{"attributes":{"ID":584279,"DIS_CODE":0,"TOWNNAME":"柳營區","LI":"東昇里","LIN":"16鄰","STREET":"十美街","SECT":" ","MAREA":" ","LANE":" ","ALLEY":" ","HOUSE_NO":"５號","E_COORD97":180639.89999999999,"N_COORD97":2575380.8900000001,"ADDRESS":"十美街５號","OBJECTID":584252},"geometry":{"x":180639.90000000037,"y":2575380.8900000025}},{"attributes":{"ID":584280,"DIS_CODE":0,"TOWNNAME":"柳營區","LI":"東昇里","LIN":"16鄰","STREET":"十美街","SECT":" ","MAREA":" ","LANE":" ","ALLEY":" ","HOUSE_NO":"６０號","E_COORD97":180662.32999999999,"N_COORD97":2575473.5699999998,"ADDRESS":"十美街６０號","OBJECTID":584253},"geometry":{"x":180662.33000000194,"y":2575473.5700000022}},{"attributes":{"ID":584281,"DIS_CODE":0,"TOWNNAME":"柳營區","LI":"東昇里","LIN":"16鄰","STREET":"十美街","SECT":" ","MAREA":" ","LANE":" ","ALLEY":" ","HOUSE_NO":"６１號","E_COORD97":180625.16,"N_COORD97":2575509.9199999999,"ADDRESS":"十美街６１號","OBJECTID":584254},"geometry":{"x":180625.16000000108,"y":2575509.9199999999}},{"attributes":{"ID":584282,"DIS_CODE":0,"TOWNNAME":"柳營區","LI":"東昇里","LIN":"16鄰","STREET":"十美街","SECT":" ","MAREA":" ","LANE":" ","ALLEY":" ","HOUSE_NO":"６２號","E_COORD97":180661.73999999999,"N_COORD97":2575477.98,"ADDRESS":"十美街６２號","OBJECTID":584255},"geometry":{"x":180661.74000000115,"y":2575477.9800000023}},{"attributes":{"ID":584283,"DIS_CODE":0,"TOWNNAME":"柳營區","LI":"東昇里","LIN":"16鄰","STREET":"十美街","SECT":" ","MAREA":" ","LANE":" ","ALLEY":" ","HOUSE_NO":"６３號","E_COORD97":180625.14000000001,"N_COORD97":2575514.29,"ADDRESS":"十美街６３號","OBJECTID":584256},"geometry":{"x":180625.13999999966,"y":2575514.2899999991}},{"attributes":{"ID":584284,"DIS_CODE":0,"TOWNNAME":"柳營區","LI":"東昇里","LIN":"16鄰","STREET":"十美街","SECT":" ","MAREA":" ","LANE":" ","ALLEY":" ","HOUSE_NO":"６５號","E_COORD97":180625.10999999999,"N_COORD97":2575518.6600000001,"ADDRESS":"十美街６５號","OBJECTID":584257},"geometry":{"x":180625.1100000022,"y":2575518.6600000001}},{"attributes":{"ID":584285,"DIS_CODE":0,"TOWNNAME":"柳營區","LI":"東昇里","LIN":"16鄰","STREET":"十美街","SECT":" ","MAREA":" ","LANE":" ","ALLEY":" ","HOUSE_NO":"６６號","E_COORD97":180661.16,"N_COORD97":2575482.3900000001,"ADDRESS":"十美街６６號","OBJECTID":584258},"geometry":{"x":180661.16000000015,"y":2575482.3900000025}},{"attributes":{"ID":584286,"DIS_CODE":0,"TOWNNAME":"柳營區","LI":"東昇里","LIN":"16鄰","STREET":"十美街","SECT":" ","MAREA":" ","LANE":" ","ALLEY":" ","HOUSE_NO":"６７號","E_COORD97":180625.09,"N_COORD97":2575523.0299999998,"ADDRESS":"十美街６７號","OBJECTID":584259},"geometry":{"x":180625.09000000078,"y":2575523.0299999993}},{"attributes":{"ID":584287,"DIS_CODE":0,"TOWNNAME":"柳營區","LI":"東昇里","LIN":"16鄰","STREET":"十美街","SECT":" ","MAREA":" ","LANE":" ","ALLEY":" ","HOUSE_NO":"６９號","E_COORD97":180616.07000000001,"N_COORD97":2575516.2999999998,"ADDRESS":"十美街６９號","OBJECTID":584260},"geometry":{"x":180616.0700000003,"y":2575516.3000000045}},{"attributes":{"ID":584288,"DIS_CODE":0,"TOWNNAME":"柳營區","LI":"東昇里","LIN":"16鄰","STREET":"十美街","SECT":" ","MAREA":" ","LANE":" ","ALLEY":" ","HOUSE_NO":"７０號","E_COORD97":180660,"N_COORD97":2575491.2000000002,"ADDRESS":"十美街７０號","OBJECTID":584261},"geometry":{"x":180660.00000000093,"y":2575491.1999999993}},{"attributes":{"ID":584289,"DIS_CODE":0,"TOWNNAME":"柳營區","LI":"東昇里","LIN":"16鄰","STREET":"十美街","SECT":" ","MAREA":" ","LANE":" ","ALLEY":" ","HOUSE_NO":"７３號","E_COORD97":180607.57000000001,"N_COORD97":2575516.4100000001,"ADDRESS":"十美街７３號","OBJECTID":584262},"geometry":{"x":180607.5700000003,"y":2575516.410000002}},{"attributes":{"ID":584290,"DIS_CODE":0,"TOWNNAME":"柳營區","LI":"東昇里","LIN":"16鄰","STREET":"十美街","SECT":" ","MAREA":" ","LANE":" ","ALLEY":" ","HOUSE_NO":"７６號","E_COORD97":180658.82999999999,"N_COORD97":2575500.02,"ADDRESS":"十美街７６號","OBJECTID":584263},"geometry":{"x":180658.82999999914,"y":2575500.0200000033}},{"attributes":{"ID":584291,"DIS_CODE":0,"TOWNNAME":"柳營區","LI":"東昇里","LIN":"16鄰","STREET":"十美街","SECT":" ","MAREA":" ","LANE":" ","ALLEY":" ","HOUSE_NO":"７８號","E_COORD97":180658.25,"N_COORD97":2575504.4300000002,"ADDRESS":"十美街７８號","OBJECTID":584264},"geometry":{"x":180658.25000000093,"y":2575504.4300000016}},{"attributes":{"ID":584292,"DIS_CODE":0,"TOWNNAME":"柳營區","LI":"東昇里","LIN":"16鄰","STREET":"十美街","SECT":" ","MAREA":" ","LANE":" ","ALLEY":" ","HOUSE_NO":"７號","E_COORD97":180639.98000000001,"N_COORD97":2575385.2400000002,"ADDRESS":"十美街７號","OBJECTID":584265},"geometry":{"x":180639.98000000138,"y":2575385.2400000021}},{"attributes":{"ID":584293,"DIS_CODE":0,"TOWNNAME":"柳營區","LI":"東昇里","LIN":"16鄰","STREET":"十美街","SECT":" ","MAREA":" ","LANE":" ","ALLEY":" ","HOUSE_NO":"８０號","E_COORD97":180657.66,"N_COORD97":2575508.8399999999,"ADDRESS":"十美街８０號","OBJECTID":584266},"geometry":{"x":180657.66000000015,"y":2575508.8400000017}},{"attributes":{"ID":584294,"DIS_CODE":0,"TOWNNAME":"柳營區","LI":"東昇里","LIN":"16鄰","STREET":"十美街","SECT":" ","MAREA":" ","LANE":" ","ALLEY":" ","HOUSE_NO":"９號","E_COORD97":180640.04999999999,"N_COORD97":2575389.6000000001,"ADDRESS":"十美街９號","OBJECTID":584267},"geometry":{"x":180640.04999999981,"y":2575389.5999999996}},{"attributes":{"ID":584295,"DIS_CODE":0,"TOWNNAME":"新營區","LI":"延平里","LIN":"16鄰","STREET":"長春街","SECT":" ","MAREA":" ","LANE":" ","ALLEY":" ","HOUSE_NO":"８６號","E_COORD97":179640.54000000001,"N_COORD97":2577853.4700000002,"ADDRESS":"長春街８６號","OBJECTID":584268},"geometry":{"x":179640.54000000097,"y":2577853.4700000007}},{"attributes":{"ID":584296,"DIS_CODE":0,"TOWNNAME":"新營區","LI":"三仙里","LIN":"16鄰","STREET":"武昌街","SECT":" ","MAREA":" ","LANE":" ","ALLEY":" ","HOUSE_NO":"９４號","E_COORD97":179519.81,"N_COORD97":2578299.23,"ADDRESS":"武昌街９４號","OBJECTID":584269},"geometry":{"x":179519.81000000052,"y":2578299.2300000004}},{"attributes":{"ID":584297,"DIS_CODE":0,"TOWNNAME":"新營區","LI":"新北里","LIN":"16鄰","STREET":"南新街","SECT":" ","MAREA":" ","LANE":" ","ALLEY":" ","HOUSE_NO":"１０６號","E_COORD97":179256,"N_COORD97":2578906.27,"ADDRESS":"南新街１０６號","OBJECTID":584270},"geometry":{"x":179256.00000000093,"y":2578906.2700000014}},{"attributes":{"ID":584298,"DIS_CODE":0,"TOWNNAME":"新營區","LI":"新東里","LIN":"16鄰","STREET":"東泰九街","SECT":" ","MAREA":" ","LANE":" ","ALLEY":" ","HOUSE_NO":"２０號","E_COORD97":181062.26000000001,"N_COORD97":2579805.8599999999,"ADDRESS":"東泰九街２０號","OBJECTID":584271},"geometry":{"x":181062.25999999978,"y":2579805.8599999994}},{"attributes":{"ID":584299,"DIS_CODE":0,"TOWNNAME":"新營區","LI":"大宏里","LIN":"16鄰","STREET":"大同路","SECT":" ","MAREA":" ","LANE":" ","ALLEY":" ","HOUSE_NO":"３０之１２號","E_COORD97":180724.95999999999,"N_COORD97":2578828.52,"ADDRESS":"大同路３０之１２號","OBJECTID":584272},"geometry":{"x":180724.95999999996,"y":2578828.5199999996}},{"attributes":{"ID":584300,"DIS_CODE":0,"TOWNNAME":"新營區","LI":"大宏里","LIN":"16鄰","STREET":"大同路","SECT":" ","MAREA":" ","LANE":" ","ALLEY":" ","HOUSE_NO":"３０之３３號","E_COORD97":180724.95999999999,"N_COORD97":2578828.52,"ADDRESS":"大同路３０之３３號","OBJECTID":584273},"geometry":{"x":180724.95999999996,"y":2578828.5199999996}},{"attributes":{"ID":584301,"DIS_CODE":0,"TOWNNAME":"新營區","LI":"大宏里","LIN":"16鄰","STREET":"大同路","SECT":" ","MAREA":" ","LANE":" ","ALLEY":" ","HOUSE_NO":"３０之３號","E_COORD97":180723.70999999999,"N_COORD97":2578828.52,"ADDRESS":"大同路３０之３號","OBJECTID":584274},"geometry":{"x":180723.70999999996,"y":2578828.5199999996}},{"attributes":{"ID":584302,"DIS_CODE":0,"TOWNNAME":"新營區","LI":"新東里","LIN":"16鄰","STREET":"東智街","SECT":" ","MAREA":" ","LANE":" ","ALLEY":" ","HOUSE_NO":"７２之１號","E_COORD97":180992.98999999999,"N_COORD97":2579777.46,"ADDRESS":"東智街７２之１號","OBJECTID":584275},"geometry":{"x":180992.99000000022,"y":2579777.4600000028}},{"attributes":{"ID":584303,"DIS_CODE":0,"TOWNNAME":"東區","LI":"圍下里","LIN":"3鄰","STREET":"東榮街","SECT":" ","MAREA":" ","LANE":" ","ALLEY":" ","HOUSE_NO":"２３號","E_COORD97":169563,"N_COORD97":2543439.4399999999,"ADDRESS":"東榮街２３號","OBJECTID":584276},"geometry":{"x":169563.00000000093,"y":2543439.4399999995}},{"attributes":{"ID":584304,"DIS_CODE":0,"TOWNNAME":"永康區","LI":"大橋里","LIN":"3鄰","STREET":"大橋三街","SECT":" ","MAREA":" ","LANE":" ","ALLEY":" ","HOUSE_NO":"１３２號","E_COORD97":170778.85999999999,"N_COORD97":2546703.7400000002,"ADDRESS":"大橋三街１３２號","OBJECTID":584277},"geometry":{"x":170778.86000000034,"y":2546703.7400000002}},{"attributes":{"ID":584305,"DIS_CODE":0,"TOWNNAME":"永康區","LI":"大灣里","LIN":"14鄰","STREET":"大灣路","SECT":" ","MAREA":" ","LANE":" ","ALLEY":" ","HOUSE_NO":"２９４號","E_COORD97":174902.10000000001,"N_COORD97":2545236.6800000002,"ADDRESS":"大灣路２９４號","OBJECTID":584278},"geometry":{"x":174902.10000000056,"y":2545236.6800000034}},{"attributes":{"ID":584306,"DIS_CODE":0,"TOWNNAME":"永康區","LI":"五王里","LIN":"35鄰","STREET":"中山南路","SECT":" ","MAREA":" ","LANE":" ","ALLEY":" ","HOUSE_NO":"１５２號之１","E_COORD97":171187.07999999999,"N_COORD97":2545978.79,"ADDRESS":"中山南路１５２號之１","OBJECTID":584279},"geometry":{"x":171187.08000000007,"y":2545978.790000001}},{"attributes":{"ID":584307,"DIS_CODE":0,"TOWNNAME":"新營區","LI":"民生里","LIN":"16鄰","STREET":"中華路","SECT":" ","MAREA":" ","LANE":" ","ALLEY":" ","HOUSE_NO":"１２６號","E_COORD97":179124.79000000001,"N_COORD97":2578204.7799999998,"ADDRESS":"中華路１２６號","OBJECTID":584280},"geometry":{"x":179124.79000000004,"y":2578204.7800000012}},{"attributes":{"ID":584308,"DIS_CODE":0,"TOWNNAME":"新營區","LI":"民生里","LIN":"16鄰","STREET":"中華路","SECT":" ","MAREA":" ","LANE":" ","ALLEY":" ","HOUSE_NO":"１２０號","E_COORD97":179134,"N_COORD97":2578205.8500000001,"ADDRESS":"中華路１２０號","OBJECTID":584281},"geometry":{"x":179134.00000000093,"y":2578205.8499999996}},{"attributes":{"ID":584309,"DIS_CODE":0,"TOWNNAME":"新營區","LI":"民權里","LIN":"16鄰","STREET":"中山路","SECT":" ","MAREA":" ","LANE":" ","ALLEY":" ","HOUSE_NO":"２９０號","E_COORD97":179810.09,"N_COORD97":2577968.9500000002,"ADDRESS":"中山路２９０號","OBJECTID":584282},"geometry":{"x":179810.09000000078,"y":2577968.9500000011}},{"attributes":{"ID":584310,"DIS_CODE":0,"TOWNNAME":"新營區","LI":"新東里","LIN":"16鄰","STREET":"東泰五街","SECT":" ","MAREA":" ","LANE":" ","ALLEY":" ","HOUSE_NO":"３６號","E_COORD97":181047.15921300001,"N_COORD97":2579661.14206,"ADDRESS":"東泰五街３６號","OBJECTID":584283},"geometry":{"x":181047.15921299998,"y":2579661.1420600042}},{"attributes":{"ID":584311,"DIS_CODE":0,"TOWNNAME":"新營區","LI":"新東里","LIN":"16鄰","STREET":"東泰七街","SECT":" ","MAREA":" ","LANE":" ","ALLEY":" ","HOUSE_NO":"６６號","E_COORD97":180978.13,"N_COORD97":2579763.0699999998,"ADDRESS":"東泰七街６６號","OBJECTID":584284},"geometry":{"x":180978.12999999989,"y":2579763.0700000022}},{"attributes":{"ID":584312,"DIS_CODE":0,"TOWNNAME":"新營區","LI":"新東里","LIN":"16鄰","STREET":"東泰七街","SECT":" ","MAREA":" ","LANE":" ","ALLEY":" ","HOUSE_NO":"４６號","E_COORD97":181037.5,"N_COORD97":2579758.3599999999,"ADDRESS":"東泰七街４６號","OBJECTID":584285},"geometry":{"x":181037.50000000186,"y":2579758.3599999994}},{"attributes":{"ID":584313,"DIS_CODE":0,"TOWNNAME":"新營區","LI":"永生里","LIN":"16鄰","STREET":"中山路","SECT":" ","MAREA":" ","LANE":" ","ALLEY":" ","HOUSE_NO":"２４１號","E_COORD97":179846.85000000001,"N_COORD97":2577954.3799999999,"ADDRESS":"中山路２４１號","OBJECTID":584286},"geometry":{"x":179846.85000000056,"y":2577954.379999999}},{"attributes":{"ID":584314,"DIS_CODE":0,"TOWNNAME":"新營區","LI":"民生里","LIN":"16鄰","STREET":"中華路","SECT":" ","MAREA":" ","LANE":" ","ALLEY":" ","HOUSE_NO":"１２８號","E_COORD97":179110.41,"N_COORD97":2578192.6600000001,"ADDRESS":"中華路１２８號","OBJECTID":584287},"geometry":{"x":179110.41000000015,"y":2578192.660000002}},{"attributes":{"ID":584315,"DIS_CODE":0,"TOWNNAME":"新營區","LI":"新東里","LIN":"16鄰","STREET":"東泰九街","SECT":" ","MAREA":" ","LANE":" ","ALLEY":" ","HOUSE_NO":"５０號","E_COORD97":180999.79999999999,"N_COORD97":2579801.7200000002,"ADDRESS":"東泰九街５０號","OBJECTID":584288},"geometry":{"x":180999.80000000075,"y":2579801.7200000007}},{"attributes":{"ID":584316,"DIS_CODE":0,"TOWNNAME":"新營區","LI":"新東里","LIN":"16鄰","STREET":"東泰五街","SECT":" ","MAREA":" ","LANE":" ","ALLEY":" ","HOUSE_NO":"１８號","E_COORD97":181079.95000000001,"N_COORD97":2579666.2400000002,"ADDRESS":"東泰五街１８號","OBJECTID":584289},"geometry":{"x":181079.95000000019,"y":2579666.2400000021}},{"attributes":{"ID":584317,"DIS_CODE":0,"TOWNNAME":"新營區","LI":"民榮里","LIN":"16鄰","STREET":"復興路","SECT":" ","MAREA":" ","LANE":" ","ALLEY":" ","HOUSE_NO":"３０７號","E_COORD97":178587.59,"N_COORD97":2578147.5600000001,"ADDRESS":"復興路３０７號","OBJECTID":584290},"geometry":{"x":178587.59000000078,"y":2578147.5600000005}},{"attributes":{"ID":584318,"DIS_CODE":0,"TOWNNAME":"新營區","LI":"新東里","LIN":"16鄰","STREET":"東泰七街","SECT":" ","MAREA":" ","LANE":" ","ALLEY":" ","HOUSE_NO":"３７號","E_COORD97":181043.60000000001,"N_COORD97":2579747.25,"ADDRESS":"東泰七街３７號","OBJECTID":584291},"geometry":{"x":181043.60000000056,"y":2579747.2500000019}},{"attributes":{"ID":584319,"DIS_CODE":0,"TOWNNAME":"新營區","LI":"大宏里","LIN":"16鄰","STREET":"大同路","SECT":" ","MAREA":" ","LANE":" ","ALLEY":" ","HOUSE_NO":"４０號","E_COORD97":180715.23999999999,"N_COORD97":2578866.1499999999,"ADDRESS":"大同路４０號","OBJECTID":584292},"geometry":{"x":180715.24000000022,"y":2578866.1500000004}},{"attributes":{"ID":584320,"DIS_CODE":0,"TOWNNAME":"新營區","LI":"王公里","LIN":"16鄰","STREET":"大仁街","SECT":" ","MAREA":" ","LANE":" ","ALLEY":" ","HOUSE_NO":"６３號","E_COORD97":180337.14000000001,"N_COORD97":2579389.5299999998,"ADDRESS":"大仁街６３號","OBJECTID":584293},"geometry":{"x":180337.13999999966,"y":2579389.5300000012}},{"attributes":{"ID":584321,"DIS_CODE":0,"TOWNNAME":"新營區","LI":"新東里","LIN":"16鄰","STREET":"東泰七街","SECT":" ","MAREA":" ","LANE":" ","ALLEY":" ","HOUSE_NO":"４５號","E_COORD97":181024.14000000001,"N_COORD97":2579746.23,"ADDRESS":"東泰七街４５號","OBJECTID":584294},"geometry":{"x":181024.13999999873,"y":2579746.2300000004}},{"attributes":{"ID":584322,"DIS_CODE":0,"TOWNNAME":"新營區","LI":"延平里","LIN":"16鄰","STREET":"長春街","SECT":" ","MAREA":" ","LANE":" ","ALLEY":" ","HOUSE_NO":"７４號","E_COORD97":179651.695634,"N_COORD97":2577860.7440499999,"ADDRESS":"長春街７４號","OBJECTID":584295},"geometry":{"x":179651.695634,"y":2577860.7440460008}},{"attributes":{"ID":584323,"DIS_CODE":0,"TOWNNAME":"永康區","LI":"五王里","LIN":"41鄰","STREET":"中山南路","SECT":" ","MAREA":" ","LANE":" ","ALLEY":" ","HOUSE_NO":"１７０號","E_COORD97":171308.48999999999,"N_COORD97":2546020,"ADDRESS":"中山南路１７０號","OBJECTID":584296},"geometry":{"x":171308.49000000022,"y":2546020}},{"attributes":{"ID":584324,"DIS_CODE":0,"TOWNNAME":"永康區","LI":"中興里","LIN":"17鄰","STREET":"中華路","SECT":" ","MAREA":" ","LANE":" ","ALLEY":" ","HOUSE_NO":"３０２號","E_COORD97":171542.20999999999,"N_COORD97":2545340.2400000002,"ADDRESS":"中華路３０２號","OBJECTID":584297},"geometry":{"x":171542.20999999996,"y":2545340.2400000002}},{"attributes":{"ID":584325,"DIS_CODE":0,"TOWNNAME":"永康區","LI":"五王里","LIN":"35鄰","STREET":"中山南路","SECT":" ","MAREA":" ","LANE":" ","ALLEY":" ","HOUSE_NO":"１６２號","E_COORD97":171232.42999999999,"N_COORD97":2545994.5,"ADDRESS":"中山南路１６２號","OBJECTID":584298},"geometry":{"x":171232.4299999997,"y":2545994.5000000019}},{"attributes":{"ID":584326,"DIS_CODE":0,"TOWNNAME":"新營區","LI":"新東里","LIN":"16鄰","STREET":"東智街","SECT":" ","MAREA":" ","LANE":" ","ALLEY":" ","HOUSE_NO":"４２號","E_COORD97":180994.23999999999,"N_COORD97":2579694.3300000001,"ADDRESS":"東智街４２號","OBJECTID":584299},"geometry":{"x":180994.24000000115,"y":2579694.3300000001}},{"attributes":{"ID":584327,"DIS_CODE":0,"TOWNNAME":"新營區","LI":"新東里","LIN":"16鄰","STREET":"長榮路","SECT":"一段","MAREA":" ","LANE":" ","ALLEY":" ","HOUSE_NO":"２８５號","E_COORD97":181000.34,"N_COORD97":2579858.2000000002,"ADDRESS":"長榮路一段２８５號","OBJECTID":584300},"geometry":{"x":181000.33999999985,"y":2579858.1999999974}},{"attributes":{"ID":584328,"DIS_CODE":0,"TOWNNAME":"新營區","LI":"民生里","LIN":"16鄰","STREET":"中華路","SECT":" ","MAREA":" ","LANE":" ","ALLEY":" ","HOUSE_NO":"１１８之１０號","E_COORD97":179156.20999999999,"N_COORD97":2578216.8799999999,"ADDRESS":"中華路１１８之１０號","OBJECTID":584301},"geometry":{"x":179156.21000000089,"y":2578216.8800000008}},{"attributes":{"ID":584329,"DIS_CODE":0,"TOWNNAME":"新營區","LI":"大宏里","LIN":"16鄰","STREET":"大同路","SECT":" ","MAREA":" ","LANE":" ","ALLEY":" ","HOUSE_NO":"３２號","E_COORD97":180716.17999999999,"N_COORD97":2578845.1099999999,"ADDRESS":"大同路３２號","OBJECTID":584302},"geometry":{"x":180716.18000000063,"y":2578845.1099999994}},{"attributes":{"ID":584330,"DIS_CODE":0,"TOWNNAME":"新營區","LI":"民生里","LIN":"16鄰","STREET":"中華路","SECT":" ","MAREA":" ","LANE":" ","ALLEY":" ","HOUSE_NO":"１２４之１號","E_COORD97":179121.07000000001,"N_COORD97":2578189.3500000001,"ADDRESS":"中華路１２４之１號","OBJECTID":584303},"geometry":{"x":179121.0700000003,"y":2578189.3499999996}},{"attributes":{"ID":584331,"DIS_CODE":0,"TOWNNAME":"新營區","LI":"大宏里","LIN":"16鄰","STREET":"綠川北街","SECT":" ","MAREA":" ","LANE":" ","ALLEY":" ","HOUSE_NO":"１０號","E_COORD97":180815.37,"N_COORD97":2578860.1400000001,"ADDRESS":"綠川北街１０號","OBJECTID":584304},"geometry":{"x":180815.37000000104,"y":2578860.1400000043}},{"attributes":{"ID":584332,"DIS_CODE":0,"TOWNNAME":"南區","LI":"大恩里","LIN":"16鄰","STREET":"國民路","SECT":" ","MAREA":" ","LANE":" ","ALLEY":" ","HOUSE_NO":"２０７號","E_COORD97":169097.51999999999,"N_COORD97":2540913.7599999998,"ADDRESS":"國民路２０７號","OBJECTID":584305},"geometry":{"x":169097.52000000142,"y":2540913.7600000016}},{"attributes":{"ID":584333,"DIS_CODE":0,"TOWNNAME":"南區","LI":"大恩里","LIN":"16鄰","STREET":"國民路","SECT":" ","MAREA":" ","LANE":" ","ALLEY":" ","HOUSE_NO":"２０９號","E_COORD97":169094.51999999999,"N_COORD97":2540916.98,"ADDRESS":"國民路２０９號","OBJECTID":584306},"geometry":{"x":169094.52000000048,"y":2540916.9800000023}},{"attributes":{"ID":584334,"DIS_CODE":0,"TOWNNAME":"南區","LI":"大恩里","LIN":"16鄰","STREET":"國民路","SECT":" ","MAREA":" ","LANE":" ","ALLEY":" ","HOUSE_NO":"２１１號","E_COORD97":169091.51000000001,"N_COORD97":2540920.0899999999,"ADDRESS":"國民路２１１號","OBJECTID":584307},"geometry":{"x":169091.51000000071,"y":2540920.0899999999}},{"attributes":{"ID":584335,"DIS_CODE":0,"TOWNNAME":"南區","LI":"大恩里","LIN":"16鄰","STREET":"國民路","SECT":" ","MAREA":" ","LANE":" ","ALLEY":" ","HOUSE_NO":"２１３號","E_COORD97":169088.07999999999,"N_COORD97":2540922.77,"ADDRESS":"國民路２１３號","OBJECTID":584308},"geometry":{"x":169088.08000000101,"y":2540922.7699999996}},{"attributes":{"ID":584336,"DIS_CODE":0,"TOWNNAME":"永康區","LI":"五王里","LIN":"2鄰","STREET":"成功路","SECT":" ","MAREA":" ","LANE":" ","ALLEY":" ","HOUSE_NO":"３５號","E_COORD97":171508.97,"N_COORD97":2545461.1499999999,"ADDRESS":"成功路３５號","OBJECTID":584309},"geometry":{"x":171508.97000000067,"y":2545461.1500000041}},{"attributes":{"ID":584337,"DIS_CODE":0,"TOWNNAME":"永康區","LI":"五王里","LIN":"20鄰","STREET":"成功路","SECT":" ","MAREA":" ","LANE":" ","ALLEY":" ","HOUSE_NO":"１７３號","E_COORD97":171319.03,"N_COORD97":2545794.02,"ADDRESS":"成功路１７３號","OBJECTID":584310},"geometry":{"x":171319.03000000212,"y":2545794.0200000014}},{"attributes":{"ID":584338,"DIS_CODE":0,"TOWNNAME":"南區","LI":"大恩里","LIN":"16鄰","STREET":"國民路","SECT":" ","MAREA":" ","LANE":" ","ALLEY":" ","HOUSE_NO":"２１５號","E_COORD97":169085.17999999999,"N_COORD97":2540926.3100000001,"ADDRESS":"國民路２１５號","OBJECTID":584311},"geometry":{"x":169085.18000000063,"y":2540926.3100000005}},{"attributes":{"ID":584339,"DIS_CODE":0,"TOWNNAME":"安平區","LI":"建平里","LIN":"16鄰","STREET":"建平十二街","SECT":" ","MAREA":" ","LANE":" ","ALLEY":" ","HOUSE_NO":"９５號","E_COORD97":165892.84,"N_COORD97":2543991.3300000001,"ADDRESS":"建平十二街９５號","OBJECTID":584312},"geometry":{"x":165892.83999999985,"y":2543991.3299999982}},{"attributes":{"ID":584340,"DIS_CODE":0,"TOWNNAME":"永康區","LI":"大灣里","LIN":"5鄰","STREET":"大同街","SECT":" ","MAREA":" ","LANE":" ","ALLEY":" ","HOUSE_NO":"１８８號","E_COORD97":174854.64999999999,"N_COORD97":2545607.6299999999,"ADDRESS":"大同街１８８號","OBJECTID":584313},"geometry":{"x":174854.6500000013,"y":2545607.629999999}},{"attributes":{"ID":584341,"DIS_CODE":0,"TOWNNAME":"永康區","LI":"大橋里","LIN":"18鄰","STREET":"大橋二街","SECT":" ","MAREA":" ","LANE":" ","ALLEY":" ","HOUSE_NO":"１９４號","E_COORD97":171122.64999999999,"N_COORD97":2546762.1699999999,"ADDRESS":"大橋二街１９４號","OBJECTID":584314},"geometry":{"x":171122.65000000037,"y":2546762.1699999981}},{"attributes":{"ID":584342,"DIS_CODE":0,"TOWNNAME":"永康區","LI":"中興里","LIN":"17鄰","STREET":"中華路","SECT":" ","MAREA":" ","LANE":" ","ALLEY":" ","HOUSE_NO":"３０８號","E_COORD97":171528.75,"N_COORD97":2545364.2400000002,"ADDRESS":"中華路３０８號","OBJECTID":584315},"geometry":{"x":171528.75,"y":2545364.2400000002}},{"attributes":{"ID":584343,"DIS_CODE":0,"TOWNNAME":"永康區","LI":"五王里","LIN":"31鄰","STREET":"中華路","SECT":" ","MAREA":" ","LANE":" ","ALLEY":" ","HOUSE_NO":"５２２號","E_COORD97":171234.29000000001,"N_COORD97":2545876.9100000001,"ADDRESS":"中華路５２２號","OBJECTID":584316},"geometry":{"x":171234.29000000097,"y":2545876.910000002}},{"attributes":{"ID":584344,"DIS_CODE":0,"TOWNNAME":"永康區","LI":"五王里","LIN":"19鄰","STREET":"成功路","SECT":" ","MAREA":" ","LANE":" ","ALLEY":" ","HOUSE_NO":"１８２號","E_COORD97":171427.10000000001,"N_COORD97":2545646.1299999999,"ADDRESS":"成功路１８２號","OBJECTID":584317},"geometry":{"x":171427.10000000056,"y":2545646.1300000027}},{"attributes":{"ID":584345,"DIS_CODE":0,"TOWNNAME":"永康區","LI":"五王里","LIN":"19鄰","STREET":"成功路","SECT":" ","MAREA":" ","LANE":" ","ALLEY":" ","HOUSE_NO":"１８２號之１","E_COORD97":171426.92999999999,"N_COORD97":2545650.4100000001,"ADDRESS":"成功路１８２號之１","OBJECTID":584318},"geometry":{"x":171426.9299999997,"y":2545650.410000002}},{"attributes":{"ID":584346,"DIS_CODE":0,"TOWNNAME":"永康區","LI":"中興里","LIN":"22鄰","STREET":"中華路","SECT":" ","MAREA":" ","LANE":" ","ALLEY":" ","HOUSE_NO":"１９６號之７","E_COORD97":171633.34,"N_COORD97":2544991.2999999998,"ADDRESS":"中華路１９６號之７","OBJECTID":584319},"geometry":{"x":171633.33999999892,"y":2544991.3000000007}},{"attributes":{"ID":584347,"DIS_CODE":0,"TOWNNAME":"永康區","LI":"大灣里","LIN":"3鄰","STREET":"信義二街","SECT":" ","MAREA":" ","LANE":" ","ALLEY":" ","HOUSE_NO":"１２５號","E_COORD97":174831.73999999999,"N_COORD97":2545719.7400000002,"ADDRESS":"信義二街１２５號","OBJECTID":584320},"geometry":{"x":174831.74000000209,"y":2545719.7400000021}},{"attributes":{"ID":584348,"DIS_CODE":0,"TOWNNAME":"永康區","LI":"大灣里","LIN":"4鄰","STREET":"信義二街","SECT":" ","MAREA":" ","LANE":" ","ALLEY":" ","HOUSE_NO":"１０５號","E_COORD97":174881.75,"N_COORD97":2545729.6899999999,"ADDRESS":"信義二街１０５號","OBJECTID":584321},"geometry":{"x":174881.75,"y":2545729.6899999995}},{"attributes":{"ID":584349,"DIS_CODE":0,"TOWNNAME":"永康區","LI":"五王里","LIN":"20鄰","STREET":"中華路","SECT":" ","MAREA":" ","LANE":" ","ALLEY":" ","HOUSE_NO":"４９８號","E_COORD97":171279.89000000001,"N_COORD97":2545794.25,"ADDRESS":"中華路４９８號","OBJECTID":584322},"geometry":{"x":171279.88999999966,"y":2545794.25}},{"attributes":{"ID":584350,"DIS_CODE":0,"TOWNNAME":"永康區","LI":"中興里","LIN":"14鄰","STREET":"中山東路","SECT":" ","MAREA":" ","LANE":" ","ALLEY":" ","HOUSE_NO":"３４９號","E_COORD97":171919.12,"N_COORD97":2545260.9900000002,"ADDRESS":"中山東路３４９號","OBJECTID":584323},"geometry":{"x":171919.12000000104,"y":2545260.9900000002}},{"attributes":{"ID":584351,"DIS_CODE":0,"TOWNNAME":"永康區","LI":"大橋里","LIN":"14鄰","STREET":"中華路","SECT":" ","MAREA":" ","LANE":" ","ALLEY":" ","HOUSE_NO":"７８８號","E_COORD97":170834.82000000001,"N_COORD97":2546457.2400000002,"ADDRESS":"中華路７８８號","OBJECTID":584324},"geometry":{"x":170834.8200000003,"y":2546457.2400000039}},{"attributes":{"ID":584352,"DIS_CODE":0,"TOWNNAME":"永康區","LI":"大橋里","LIN":"30鄰","STREET":"大橋一街","SECT":" ","MAREA":" ","LANE":" ","ALLEY":" ","HOUSE_NO":"３１６號之５","E_COORD97":171249.10000000001,"N_COORD97":2546618.5499999998,"ADDRESS":"大橋一街３１６號之５","OBJECTID":584325},"geometry":{"x":171249.10000000056,"y":2546618.5500000045}},{"attributes":{"ID":584353,"DIS_CODE":0,"TOWNNAME":"永康區","LI":"大橋里","LIN":"9鄰","STREET":"大橋五街","SECT":" ","MAREA":" ","LANE":" ","ALLEY":" ","HOUSE_NO":"１３６號","E_COORD97":170999.51999999999,"N_COORD97":2546985.5499999998,"ADDRESS":"大橋五街１３６號","OBJECTID":584326},"geometry":{"x":170999.52000000142,"y":2546985.5500000026}},{"attributes":{"ID":584354,"DIS_CODE":0,"TOWNNAME":"永康區","LI":"五王里","LIN":"35鄰","STREET":"中華路","SECT":" ","MAREA":" ","LANE":" ","ALLEY":" ","HOUSE_NO":"５９４號","E_COORD97":171188.20000000001,"N_COORD97":2545947.7400000002,"ADDRESS":"中華路５９４號","OBJECTID":584327},"geometry":{"x":171188.20000000019,"y":2545947.7400000002}},{"attributes":{"ID":584355,"DIS_CODE":0,"TOWNNAME":"永康區","LI":"五王里","LIN":"30鄰","STREET":"中山東路","SECT":" ","MAREA":" ","LANE":" ","ALLEY":" ","HOUSE_NO":"７２號","E_COORD97":171706.84,"N_COORD97":2546007.1899999999,"ADDRESS":"中山東路７２號","OBJECTID":584328},"geometry":{"x":171706.84000000078,"y":2546007.1900000013}},{"attributes":{"ID":584356,"DIS_CODE":0,"TOWNNAME":"南區","LI":"大恩里","LIN":"16鄰","STREET":"國民路","SECT":" ","MAREA":" ","LANE":" ","ALLEY":" ","HOUSE_NO":"２４７之２號","E_COORD97":169023.14999999999,"N_COORD97":2540995.2000000002,"ADDRESS":"國民路２４７之２號","OBJECTID":584329},"geometry":{"x":169023.1500000013,"y":2540995.2000000011}},{"attributes":{"ID":584357,"DIS_CODE":0,"TOWNNAME":"南區","LI":"大恩里","LIN":"16鄰","STREET":"國民路","SECT":" ","MAREA":" ","LANE":" ","ALLEY":" ","HOUSE_NO":"２１９號","E_COORD97":169078.13,"N_COORD97":2540934.8199999998,"ADDRESS":"國民路２１９號","OBJECTID":584330},"geometry":{"x":169078.12999999989,"y":2540934.8200000022}},{"attributes":{"ID":584358,"DIS_CODE":0,"TOWNNAME":"南區","LI":"大恩里","LIN":"16鄰","STREET":"國民路","SECT":" ","MAREA":" ","LANE":" ","ALLEY":" ","HOUSE_NO":"２２１號","E_COORD97":169075.66,"N_COORD97":2540938.1400000001,"ADDRESS":"國民路２２１號","OBJECTID":584331},"geometry":{"x":169075.66000000108,"y":2540938.1400000006}},{"attributes":{"ID":584359,"DIS_CODE":0,"TOWNNAME":"南區","LI":"大恩里","LIN":"16鄰","STREET":"國民路","SECT":" ","MAREA":" ","LANE":" ","ALLEY":" ","HOUSE_NO":"２２３號","E_COORD97":169071.57999999999,"N_COORD97":2540941.3599999999,"ADDRESS":"國民路２２３號","OBJECTID":584332},"geometry":{"x":169071.58000000007,"y":2540941.3599999994}},{"attributes":{"ID":584360,"DIS_CODE":0,"TOWNNAME":"南區","LI":"大恩里","LIN":"16鄰","STREET":"國民路","SECT":" ","MAREA":" ","LANE":" ","ALLEY":" ","HOUSE_NO":"２２５號","E_COORD97":169069.10999999999,"N_COORD97":2540944.2599999998,"ADDRESS":"國民路２２５號","OBJECTID":584333},"geometry":{"x":169069.1100000022,"y":2540944.2600000016}},{"attributes":{"ID":584361,"DIS_CODE":0,"TOWNNAME":"南區","LI":"大恩里","LIN":"16鄰","STREET":"國民路","SECT":" ","MAREA":" ","LANE":" ","ALLEY":" ","HOUSE_NO":"２２７號","E_COORD97":169065.78,"N_COORD97":2540947.8999999999,"ADDRESS":"國民路２２７號","OBJECTID":584334},"geometry":{"x":169065.78000000026,"y":2540947.9000000022}},{"attributes":{"ID":584362,"DIS_CODE":0,"TOWNNAME":"南區","LI":"大恩里","LIN":"16鄰","STREET":"國民路","SECT":" ","MAREA":" ","LANE":" ","ALLEY":" ","HOUSE_NO":"２２９號","E_COORD97":169063.31,"N_COORD97":2540951.6600000001,"ADDRESS":"國民路２２９號","OBJECTID":584335},"geometry":{"x":169063.30999999959,"y":2540951.6600000039}},{"attributes":{"ID":584363,"DIS_CODE":0,"TOWNNAME":"南區","LI":"大恩里","LIN":"16鄰","STREET":"國民路","SECT":" ","MAREA":" ","LANE":" ","ALLEY":" ","HOUSE_NO":"２３１號","E_COORD97":169060.29999999999,"N_COORD97":2540954.5600000001,"ADDRESS":"國民路２３１號","OBJECTID":584336},"geometry":{"x":169060.30000000168,"y":2540954.5600000005}},{"attributes":{"ID":584364,"DIS_CODE":0,"TOWNNAME":"南區","LI":"大恩里","LIN":"16鄰","STREET":"國民路","SECT":" ","MAREA":" ","LANE":" ","ALLEY":" ","HOUSE_NO":"２３３號","E_COORD97":169057.19,"N_COORD97":2540958.29,"ADDRESS":"國民路２３３號","OBJECTID":584337},"geometry":{"x":169057.19000000134,"y":2540958.2899999991}},{"attributes":{"ID":584365,"DIS_CODE":0,"TOWNNAME":"永康區","LI":"大橋里","LIN":"3鄰","STREET":"大橋三街","SECT":" ","MAREA":" ","LANE":" ","ALLEY":" ","HOUSE_NO":"１２２號","E_COORD97":170755.48999999999,"N_COORD97":2546687.7400000002,"ADDRESS":"大橋三街１２２號","OBJECTID":584338},"geometry":{"x":170755.49000000115,"y":2546687.7400000039}},{"attributes":{"ID":584366,"DIS_CODE":0,"TOWNNAME":"永康區","LI":"大灣里","LIN":"29鄰","STREET":"文賢街","SECT":" ","MAREA":" ","LANE":" ","ALLEY":" ","HOUSE_NO":"１８號","E_COORD97":175278.32000000001,"N_COORD97":2544945.6800000002,"ADDRESS":"文賢街１８號","OBJECTID":584339},"geometry":{"x":175278.3200000003,"y":2544945.6800000016}},{"attributes":{"ID":584367,"DIS_CODE":0,"TOWNNAME":"南區","LI":"大恩里","LIN":"16鄰","STREET":"國民路","SECT":" ","MAREA":" ","LANE":" ","ALLEY":" ","HOUSE_NO":"２３５號","E_COORD97":169054.72,"N_COORD97":2540961.9399999999,"ADDRESS":"國民路２３５號","OBJECTID":584340},"geometry":{"x":169054.72000000067,"y":2540961.9399999995}},{"attributes":{"ID":584368,"DIS_CODE":0,"TOWNNAME":"南區","LI":"大恩里","LIN":"16鄰","STREET":"國民路","SECT":" ","MAREA":" ","LANE":" ","ALLEY":" ","HOUSE_NO":"２３７號","E_COORD97":169051.70999999999,"N_COORD97":2540965.1600000001,"ADDRESS":"國民路２３７號","OBJECTID":584341},"geometry":{"x":169051.71000000089,"y":2540965.1600000039}},{"attributes":{"ID":584369,"DIS_CODE":0,"TOWNNAME":"南區","LI":"大恩里","LIN":"16鄰","STREET":"國民路","SECT":" ","MAREA":" ","LANE":" ","ALLEY":" ","HOUSE_NO":"２３９號","E_COORD97":169048.92000000001,"N_COORD97":2540969.02,"ADDRESS":"國民路２３９號","OBJECTID":584342},"geometry":{"x":169048.91999999993,"y":2540969.0200000033}},{"attributes":{"ID":584370,"DIS_CODE":0,"TOWNNAME":"南區","LI":"大恩里","LIN":"16鄰","STREET":"國民路","SECT":" ","MAREA":" ","LANE":" ","ALLEY":" ","HOUSE_NO":"２４１號","E_COORD97":169045.70000000001,"N_COORD97":2540971.7000000002,"ADDRESS":"國民路２４１號","OBJECTID":584343},"geometry":{"x":169045.70000000019,"y":2540971.7000000011}},{"attributes":{"ID":584371,"DIS_CODE":0,"TOWNNAME":"南區","LI":"大恩里","LIN":"16鄰","STREET":"國民路","SECT":" ","MAREA":" ","LANE":" ","ALLEY":" ","HOUSE_NO":"２４３號","E_COORD97":169042.59,"N_COORD97":2540974.8199999998,"ADDRESS":"國民路２４３號","OBJECTID":584344},"geometry":{"x":169042.58999999985,"y":2540974.8200000022}},{"attributes":{"ID":584372,"DIS_CODE":0,"TOWNNAME":"南區","LI":"大恩里","LIN":"16鄰","STREET":"國民路","SECT":" ","MAREA":" ","LANE":" ","ALLEY":" ","HOUSE_NO":"２４５號","E_COORD97":169039.47,"N_COORD97":2540978.0299999998,"ADDRESS":"國民路２４５號","OBJECTID":584345},"geometry":{"x":169039.47000000067,"y":2540978.0299999993}},{"attributes":{"ID":584373,"DIS_CODE":0,"TOWNNAME":"南區","LI":"大恩里","LIN":"16鄰","STREET":"國民路","SECT":" ","MAREA":" ","LANE":" ","ALLEY":" ","HOUSE_NO":"２４７號","E_COORD97":169036.35999999999,"N_COORD97":2540981.25,"ADDRESS":"國民路２４７號","OBJECTID":584346},"geometry":{"x":169036.36000000034,"y":2540981.2500000037}},{"attributes":{"ID":584374,"DIS_CODE":0,"TOWNNAME":"學甲區","LI":"仁得里","LIN":"16鄰","STREET":"廣文路","SECT":" ","MAREA":" ","LANE":" ","ALLEY":" ","HOUSE_NO":"６５號","E_COORD97":165918.51999999999,"N_COORD97":2570257.3100000001,"ADDRESS":"廣文路６５號","OBJECTID":584347},"geometry":{"x":165918.51999999955,"y":2570257.3099999987}},{"attributes":{"ID":584375,"DIS_CODE":0,"TOWNNAME":"學甲區","LI":"仁得里","LIN":"16鄰","STREET":"廣文路","SECT":" ","MAREA":" ","LANE":" ","ALLEY":" ","HOUSE_NO":"６７號","E_COORD97":165900.16,"N_COORD97":2570246.8300000001,"ADDRESS":"廣文路６７號","OBJECTID":584348},"geometry":{"x":165900.16000000201,"y":2570246.8300000038}},{"attributes":{"ID":584376,"DIS_CODE":0,"TOWNNAME":"學甲區","LI":"仁得里","LIN":"16鄰","STREET":"廣文路","SECT":" ","MAREA":" ","LANE":" ","ALLEY":" ","HOUSE_NO":"８０號之１","E_COORD97":165926.42999999999,"N_COORD97":2570300.2200000002,"ADDRESS":"廣文路８０號之１","OBJECTID":584349},"geometry":{"x":165926.4299999997,"y":2570300.2200000025}},{"attributes":{"ID":584377,"DIS_CODE":0,"TOWNNAME":"學甲區","LI":"仁得里","LIN":"16鄰","STREET":"廣文路","SECT":" ","MAREA":" ","LANE":" ","ALLEY":" ","HOUSE_NO":"８０號","E_COORD97":165919.95999999999,"N_COORD97":2570285.7799999998,"ADDRESS":"廣文路８０號","OBJECTID":584350},"geometry":{"x":165919.96000000183,"y":2570285.7799999993}},{"attributes":{"ID":584378,"DIS_CODE":0,"TOWNNAME":"學甲區","LI":"仁得里","LIN":"16鄰","STREET":"廣文路","SECT":" ","MAREA":" ","LANE":" ","ALLEY":" ","HOUSE_NO":"８２號","E_COORD97":165901.67999999999,"N_COORD97":2570280.27,"ADDRESS":"廣文路８２號","OBJECTID":584351},"geometry":{"x":165901.68000000063,"y":2570280.2699999977}},{"attributes":{"ID":584379,"DIS_CODE":0,"TOWNNAME":"學甲區","LI":"仁得里","LIN":"16鄰","STREET":"廣文路","SECT":" ","MAREA":" ","LANE":" ","ALLEY":" ","HOUSE_NO":"８３號","E_COORD97":165869.09,"N_COORD97":2570261.4199999999,"ADDRESS":"廣文路８３號","OBJECTID":584352},"geometry":{"x":165869.08999999985,"y":2570261.4199999999}},{"attributes":{"ID":584380,"DIS_CODE":0,"TOWNNAME":"學甲區","LI":"仁得里","LIN":"16鄰","STREET":"廣文路","SECT":" ","MAREA":" ","LANE":" ","ALLEY":" ","HOUSE_NO":"８４號","E_COORD97":165900.70000000001,"N_COORD97":2570302.0299999998,"ADDRESS":"廣文路８４號","OBJECTID":584353},"geometry":{"x":165900.70000000112,"y":2570302.0300000031}},{"attributes":{"ID":584381,"DIS_CODE":0,"TOWNNAME":"學甲區","LI":"仁得里","LIN":"16鄰","STREET":"廣文路","SECT":" ","MAREA":" ","LANE":" ","ALLEY":" ","HOUSE_NO":"８５號","E_COORD97":165865.14999999999,"N_COORD97":2570262.3700000001,"ADDRESS":"廣文路８５號","OBJECTID":584354},"geometry":{"x":165865.1500000013,"y":2570262.3700000029}},{"attributes":{"ID":584382,"DIS_CODE":0,"TOWNNAME":"學甲區","LI":"仁得里","LIN":"16鄰","STREET":"廣文路","SECT":" ","MAREA":" ","LANE":" ","ALLEY":" ","HOUSE_NO":"８７號","E_COORD97":165861.17000000001,"N_COORD97":2570263.3799999999,"ADDRESS":"廣文路８７號","OBJECTID":584355},"geometry":{"x":165861.17000000086,"y":2570263.3800000008}},{"attributes":{"ID":584383,"DIS_CODE":0,"TOWNNAME":"學甲區","LI":"仁得里","LIN":"16鄰","STREET":"廣文路","SECT":" ","MAREA":" ","LANE":" ","ALLEY":" ","HOUSE_NO":"８８號之１","E_COORD97":165878.89000000001,"N_COORD97":2570289.3399999999,"ADDRESS":"廣文路８８號之１","OBJECTID":584356},"geometry":{"x":165878.88999999966,"y":2570289.3399999999}},{"attributes":{"ID":584384,"DIS_CODE":0,"TOWNNAME":"學甲區","LI":"仁得里","LIN":"16鄰","STREET":"廣文路","SECT":" ","MAREA":" ","LANE":" ","ALLEY":" ","HOUSE_NO":"８８號","E_COORD97":165885.32000000001,"N_COORD97":2570289.9500000002,"ADDRESS":"廣文路８８號","OBJECTID":584357},"geometry":{"x":165885.3200000003,"y":2570289.9500000011}},{"attributes":{"ID":584385,"DIS_CODE":0,"TOWNNAME":"學甲區","LI":"仁得里","LIN":"16鄰","STREET":"廣文路","SECT":" ","MAREA":" ","LANE":" ","ALLEY":" ","HOUSE_NO":"９０號","E_COORD97":165875.45999999999,"N_COORD97":2570302.48,"ADDRESS":"廣文路９０號","OBJECTID":584358},"geometry":{"x":165875.45999999996,"y":2570302.4800000004}},{"attributes":{"ID":584386,"DIS_CODE":0,"TOWNNAME":"永康區","LI":"中興里","LIN":"17鄰","STREET":"中華路","SECT":" ","MAREA":" ","LANE":" ","ALLEY":" ","HOUSE_NO":"２２０號","E_COORD97":171639.39999999999,"N_COORD97":2545065.25,"ADDRESS":"中華路２２０號","OBJECTID":584359},"geometry":{"x":171639.4000000013,"y":2545065.25}},{"attributes":{"ID":584387,"DIS_CODE":0,"TOWNNAME":"永康區","LI":"五王里","LIN":"23鄰","STREET":"成功路","SECT":" ","MAREA":" ","LANE":" ","ALLEY":" ","HOUSE_NO":"２４２號","E_COORD97":171335.04000000001,"N_COORD97":2545802.27,"ADDRESS":"成功路２４２號","OBJECTID":584360},"geometry":{"x":171335.04000000004,"y":2545802.2700000014}},{"attributes":{"ID":584388,"DIS_CODE":0,"TOWNNAME":"仁德區","LI":"成功里","LIN":"9鄰","STREET":"保華路","SECT":" ","MAREA":" ","LANE":" ","ALLEY":" ","HOUSE_NO":"１８５號","E_COORD97":170969,"N_COORD97":2540020.75,"ADDRESS":"保華路１８５號","OBJECTID":584361},"geometry":{"x":170969,"y":2540020.75}},{"attributes":{"ID":584389,"DIS_CODE":0,"TOWNNAME":"永康區","LI":"大灣里","LIN":"19鄰","STREET":"大灣路","SECT":" ","MAREA":" ","LANE":" ","ALLEY":" ","HOUSE_NO":"３７６號","E_COORD97":174820.48000000001,"N_COORD97":2545084.9300000002,"ADDRESS":"大灣路３７６號","OBJECTID":584362},"geometry":{"x":174820.48000000138,"y":2545084.9299999997}},{"attributes":{"ID":584390,"DIS_CODE":0,"TOWNNAME":"永康區","LI":"五王里","LIN":"2鄰","STREET":"成功路","SECT":" ","MAREA":" ","LANE":" ","ALLEY":" ","HOUSE_NO":"４７號","E_COORD97":171495.67999999999,"N_COORD97":2545484.1600000001,"ADDRESS":"成功路４７號","OBJECTID":584363},"geometry":{"x":171495.68000000063,"y":2545484.1600000001}},{"attributes":{"ID":584391,"DIS_CODE":0,"TOWNNAME":"永康區","LI":"五王里","LIN":"41鄰","STREET":"中山南路","SECT":" ","MAREA":" ","LANE":" ","ALLEY":" ","HOUSE_NO":"２１４號","E_COORD97":171396.26000000001,"N_COORD97":2546041.9900000002,"ADDRESS":"中山南路２１４號","OBJECTID":584364},"geometry":{"x":171396.25999999978,"y":2546041.9900000039}},{"attributes":{"ID":584392,"DIS_CODE":0,"TOWNNAME":"永康區","LI":"五王里","LIN":"35鄰","STREET":"中山南路","SECT":" ","MAREA":" ","LANE":" ","ALLEY":" ","HOUSE_NO":"１５２號之８","E_COORD97":171215.78,"N_COORD97":2545987.79,"ADDRESS":"中山南路１５２號之８","OBJECTID":584365},"geometry":{"x":171215.78000000119,"y":2545987.7900000028}},{"attributes":{"ID":584393,"DIS_CODE":0,"TOWNNAME":"永康區","LI":"大灣里","LIN":"12鄰","STREET":"大灣路","SECT":" ","MAREA":" ","LANE":" ","ALLEY":" ","HOUSE_NO":"２８０號","E_COORD97":174941.56,"N_COORD97":2545307.8700000001,"ADDRESS":"大灣路２８０號","OBJECTID":584366},"geometry":{"x":174941.55999999959,"y":2545307.8700000048}},{"attributes":{"ID":584394,"DIS_CODE":0,"TOWNNAME":"永康區","LI":"大灣里","LIN":"12鄰","STREET":"民族路","SECT":" ","MAREA":" ","LANE":" ","ALLEY":" ","HOUSE_NO":"３６６號","E_COORD97":174852.84,"N_COORD97":2545332.6000000001,"ADDRESS":"民族路３６６號","OBJECTID":584367},"geometry":{"x":174852.84000000078,"y":2545332.6000000015}},{"attributes":{"ID":584395,"DIS_CODE":0,"TOWNNAME":"南區","LI":"文南里","LIN":"16鄰","STREET":"永南一街","SECT":" ","MAREA":" ","LANE":" ","ALLEY":" ","HOUSE_NO":"２號","E_COORD97":166805.29999999999,"N_COORD97":2542572.7599999998,"ADDRESS":"永南一街２號","OBJECTID":584368},"geometry":{"x":166805.29999999981,"y":2542572.7600000016}},{"attributes":{"ID":584396,"DIS_CODE":0,"TOWNNAME":"南區","LI":"府南里","LIN":"16鄰","STREET":"大成路","SECT":"二段","MAREA":" ","LANE":" ","ALLEY":" ","HOUSE_NO":"１８９號","E_COORD97":167212.32999999999,"N_COORD97":2541719.8399999999,"ADDRESS":"大成路二段１８９號","OBJECTID":584369},"geometry":{"x":167212.33000000007,"y":2541719.8400000036}},{"attributes":{"ID":584397,"DIS_CODE":0,"TOWNNAME":"南區","LI":"府南里","LIN":"16鄰","STREET":"大成路","SECT":"二段","MAREA":" ","LANE":" ","ALLEY":" ","HOUSE_NO":"１８９號之１","E_COORD97":167194.60000000001,"N_COORD97":2541722.1200000001,"ADDRESS":"大成路二段１８９號之１","OBJECTID":584370},"geometry":{"x":167194.59999999963,"y":2541722.120000001}},{"attributes":{"ID":584398,"DIS_CODE":0,"TOWNNAME":"南區","LI":"府南里","LIN":"16鄰","STREET":"大成路","SECT":"二段","MAREA":" ","LANE":" ","ALLEY":" ","HOUSE_NO":"２２１號","E_COORD97":167142.26000000001,"N_COORD97":2541722.46,"ADDRESS":"大成路二段２２１號","OBJECTID":584371},"geometry":{"x":167142.26000000071,"y":2541722.4600000009}},{"attributes":{"ID":584399,"DIS_CODE":0,"TOWNNAME":"南區","LI":"大林里","LIN":"16鄰","STREET":"大林路","SECT":" ","MAREA":" ","LANE":" ","ALLEY":" ","HOUSE_NO":"６１號","E_COORD97":169252.59,"N_COORD97":2541800.2999999998,"ADDRESS":"大林路６１號","OBJECTID":584372},"geometry":{"x":169252.58999999985,"y":2541800.3000000026}},{"attributes":{"ID":584400,"DIS_CODE":0,"TOWNNAME":"南區","LI":"大林里","LIN":"16鄰","STREET":"大林路","SECT":" ","MAREA":" ","LANE":" ","ALLEY":" ","HOUSE_NO":"６３號","E_COORD97":169248.23999999999,"N_COORD97":2541799.8799999999,"ADDRESS":"大林路６３號","OBJECTID":584373},"geometry":{"x":169248.24000000115,"y":2541799.8800000027}},{"attributes":{"ID":584401,"DIS_CODE":0,"TOWNNAME":"南區","LI":"大林里","LIN":"16鄰","STREET":"大林路","SECT":" ","MAREA":" ","LANE":" ","ALLEY":" ","HOUSE_NO":"６５號","E_COORD97":169244.41,"N_COORD97":2541798.9500000002,"ADDRESS":"大林路６５號","OBJECTID":584374},"geometry":{"x":169244.41000000015,"y":2541798.9499999993}},{"attributes":{"ID":584402,"DIS_CODE":0,"TOWNNAME":"南區","LI":"大林里","LIN":"16鄰","STREET":"大林路","SECT":" ","MAREA":" ","LANE":" ","ALLEY":" ","HOUSE_NO":"６７號","E_COORD97":169240.69,"N_COORD97":2541798.3300000001,"ADDRESS":"大林路６７號","OBJECTID":584375},"geometry":{"x":169240.69000000041,"y":2541798.3300000019}},{"attributes":{"ID":584403,"DIS_CODE":0,"TOWNNAME":"南區","LI":"大林里","LIN":"16鄰","STREET":"大林路","SECT":" ","MAREA":" ","LANE":" ","ALLEY":" ","HOUSE_NO":"６９號","E_COORD97":169236.34,"N_COORD97":2541798.23,"ADDRESS":"大林路６９號","OBJECTID":584376},"geometry":{"x":169236.33999999892,"y":2541798.2300000004}},{"attributes":{"ID":584404,"DIS_CODE":0,"TOWNNAME":"南區","LI":"大林里","LIN":"16鄰","STREET":"大林路","SECT":" ","MAREA":" ","LANE":" ","ALLEY":" ","HOUSE_NO":"７１號","E_COORD97":169233.13,"N_COORD97":2541796.5800000001,"ADDRESS":"大林路７１號","OBJECTID":584377},"geometry":{"x":169233.13000000082,"y":2541796.5800000019}},{"attributes":{"ID":584405,"DIS_CODE":0,"TOWNNAME":"南區","LI":"大林里","LIN":"16鄰","STREET":"大林路","SECT":" ","MAREA":" ","LANE":" ","ALLEY":" ","HOUSE_NO":"７３號","E_COORD97":169229.72,"N_COORD97":2541795.4399999999,"ADDRESS":"大林路７３號","OBJECTID":584378},"geometry":{"x":169229.71999999974,"y":2541795.4399999995}},{"attributes":{"ID":584406,"DIS_CODE":0,"TOWNNAME":"永康區","LI":"大橋里","LIN":"26鄰","STREET":"大橋二街","SECT":" ","MAREA":" ","LANE":" ","ALLEY":" ","HOUSE_NO":"２２６號","E_COORD97":171192.28,"N_COORD97":2546833.27,"ADDRESS":"大橋二街２２６號","OBJECTID":584379},"geometry":{"x":171192.28000000119,"y":2546833.2700000014}},{"attributes":{"ID":584407,"DIS_CODE":0,"TOWNNAME":"永康區","LI":"大灣里","LIN":"4鄰","STREET":"信義二街","SECT":" ","MAREA":" ","LANE":" ","ALLEY":" ","HOUSE_NO":"１０３之２號","E_COORD97":174890.78,"N_COORD97":2545728.3700000001,"ADDRESS":"信義二街１０３之２號","OBJECTID":584380},"geometry":{"x":174890.78000000212,"y":2545728.3700000048}},{"attributes":{"ID":584408,"DIS_CODE":0,"TOWNNAME":"永康區","LI":"大橋里","LIN":"3鄰","STREET":"大橋三街","SECT":" ","MAREA":" ","LANE":" ","ALLEY":" ","HOUSE_NO":"９６號","E_COORD97":170718.45000000001,"N_COORD97":2546657,"ADDRESS":"大橋三街９６號","OBJECTID":584381},"geometry":{"x":170718.45000000112,"y":2546657}},{"attributes":{"ID":584409,"DIS_CODE":0,"TOWNNAME":"南區","LI":"大林里","LIN":"16鄰","STREET":"大林路","SECT":" ","MAREA":" ","LANE":" ","ALLEY":" ","HOUSE_NO":"７５號","E_COORD97":169227.91,"N_COORD97":2541792.0299999998,"ADDRESS":"大林路７５號","OBJECTID":584382},"geometry":{"x":169227.91000000201,"y":2541792.0299999993}},{"attributes":{"ID":584410,"DIS_CODE":0,"TOWNNAME":"南區","LI":"大林里","LIN":"16鄰","STREET":"大林路","SECT":" ","MAREA":" ","LANE":" ","ALLEY":" ","HOUSE_NO":"８１號","E_COORD97":169214.85999999999,"N_COORD97":2541786.8700000001,"ADDRESS":"大林路８１號","OBJECTID":584383},"geometry":{"x":169214.8600000022,"y":2541786.8700000029}},{"attributes":{"ID":584411,"DIS_CODE":0,"TOWNNAME":"永康區","LI":"大灣里","LIN":"14鄰","STREET":"大灣路","SECT":" ","MAREA":" ","LANE":" ","ALLEY":" ","HOUSE_NO":"２９２號","E_COORD97":174903.89999999999,"N_COORD97":2545240.4300000002,"ADDRESS":"大灣路２９２號","OBJECTID":584384},"geometry":{"x":174903.9000000013,"y":2545240.4299999997}},{"attributes":{"ID":584412,"DIS_CODE":0,"TOWNNAME":"永康區","LI":"大灣里","LIN":"29鄰","STREET":"文賢街","SECT":" ","MAREA":" ","LANE":" ","ALLEY":" ","HOUSE_NO":"１７號","E_COORD97":175260.32000000001,"N_COORD97":2544961.4399999999,"ADDRESS":"文賢街１７號","OBJECTID":584385},"geometry":{"x":175260.32000000123,"y":2544961.4400000013}},{"attributes":{"ID":584413,"DIS_CODE":0,"TOWNNAME":"南區","LI":"大林里","LIN":"16鄰","STREET":"大林路","SECT":" ","MAREA":" ","LANE":" ","ALLEY":" ","HOUSE_NO":"５７號","E_COORD97":169262.42000000001,"N_COORD97":2541796.4700000002,"ADDRESS":"大林路５７號","OBJECTID":584386},"geometry":{"x":169262.41999999993,"y":2541796.4700000007}},{"attributes":{"ID":584414,"DIS_CODE":0,"TOWNNAME":"南區","LI":"大林里","LIN":"16鄰","STREET":"大林路","SECT":" ","MAREA":" ","LANE":" ","ALLEY":" ","HOUSE_NO":"５９號","E_COORD97":169255.28,"N_COORD97":2541801.1200000001,"ADDRESS":"大林路５９號","OBJECTID":584387},"geometry":{"x":169255.28000000026,"y":2541801.1200000029}},{"attributes":{"ID":584415,"DIS_CODE":0,"TOWNNAME":"永康區","LI":"五王里","LIN":"2鄰","STREET":"成功路","SECT":" ","MAREA":" ","LANE":" ","ALLEY":" ","HOUSE_NO":"４３號","E_COORD97":171500.06,"N_COORD97":2545476.4100000001,"ADDRESS":"成功路４３號","OBJECTID":584388},"geometry":{"x":171500.06000000052,"y":2545476.410000002}},{"attributes":{"ID":584416,"DIS_CODE":0,"TOWNNAME":"永康區","LI":"中興里","LIN":"17鄰","STREET":"中華路","SECT":" ","MAREA":" ","LANE":" ","ALLEY":" ","HOUSE_NO":"３０６號","E_COORD97":171533.10000000001,"N_COORD97":2545357.2400000002,"ADDRESS":"中華路３０６號","OBJECTID":584389},"geometry":{"x":171533.10000000149,"y":2545357.2400000002}},{"attributes":{"ID":584417,"DIS_CODE":0,"TOWNNAME":"永康區","LI":"五王里","LIN":"35鄰","STREET":"中山南路","SECT":" ","MAREA":" ","LANE":" ","ALLEY":" ","HOUSE_NO":"１５２號之３","E_COORD97":171195.07999999999,"N_COORD97":2545981.04,"ADDRESS":"中山南路１５２號之３","OBJECTID":584390},"geometry":{"x":171195.08000000101,"y":2545981.0399999991}},{"attributes":{"ID":584418,"DIS_CODE":0,"TOWNNAME":"永康區","LI":"五王里","LIN":"35鄰","STREET":"中華路","SECT":" ","MAREA":" ","LANE":" ","ALLEY":" ","HOUSE_NO":"５９０號","E_COORD97":171192.23999999999,"N_COORD97":2545940.4900000002,"ADDRESS":"中華路５９０號","OBJECTID":584391},"geometry":{"x":171192.24000000115,"y":2545940.4900000021}},{"attributes":{"ID":584419,"DIS_CODE":0,"TOWNNAME":"永康區","LI":"大橋里","LIN":"6鄰","STREET":"大橋五街","SECT":" ","MAREA":" ","LANE":" ","ALLEY":" ","HOUSE_NO":"１２８號","E_COORD97":170980.39999999999,"N_COORD97":2546975.5,"ADDRESS":"大橋五街１２８號","OBJECTID":584392},"geometry":{"x":170980.40000000037,"y":2546975.5000000019}},{"attributes":{"ID":584420,"DIS_CODE":0,"TOWNNAME":"永康區","LI":"大橋里","LIN":"30鄰","STREET":"大橋一街","SECT":" ","MAREA":" ","LANE":" ","ALLEY":" ","HOUSE_NO":"３１０號之１","E_COORD97":171222.03,"N_COORD97":2546601.04,"ADDRESS":"大橋一街３１０號之１","OBJECTID":584393},"geometry":{"x":171222.03000000026,"y":2546601.040000001}},{"attributes":{"ID":584421,"DIS_CODE":0,"TOWNNAME":"永康區","LI":"大灣里","LIN":"19鄰","STREET":"大灣路","SECT":" ","MAREA":" ","LANE":" ","ALLEY":" ","HOUSE_NO":"３６０號","E_COORD97":174834.51000000001,"N_COORD97":2545112.4900000002,"ADDRESS":"大灣路３６０號","OBJECTID":584394},"geometry":{"x":174834.51000000164,"y":2545112.4900000002}},{"attributes":{"ID":584422,"DIS_CODE":0,"TOWNNAME":"北區","LI":"仁愛里","LIN":"16鄰","STREET":"長榮路","SECT":"四段","MAREA":" ","LANE":" ","ALLEY":" ","HOUSE_NO":"３３號","E_COORD97":170283.23000000001,"N_COORD97":2544894.5800000001,"ADDRESS":"長榮路四段３３號","OBJECTID":584395},"geometry":{"x":170283.23000000045,"y":2544894.5800000001}},{"attributes":{"ID":584423,"DIS_CODE":0,"TOWNNAME":"北區","LI":"仁愛里","LIN":"16鄰","STREET":"長榮路","SECT":"四段","MAREA":" ","LANE":" ","ALLEY":" ","HOUSE_NO":"３９號","E_COORD97":170284.13,"N_COORD97":2544906.5600000001,"ADDRESS":"長榮路四段３９號","OBJECTID":584396},"geometry":{"x":170284.13000000082,"y":2544906.5600000024}},{"attributes":{"ID":584424,"DIS_CODE":0,"TOWNNAME":"北區","LI":"仁愛里","LIN":"16鄰","STREET":"長榮路","SECT":"四段","MAREA":" ","LANE":" ","ALLEY":" ","HOUSE_NO":"４１號","E_COORD97":170283.88,"N_COORD97":2544910.48,"ADDRESS":"長榮路四段４１號","OBJECTID":584397},"geometry":{"x":170283.88000000175,"y":2544910.4800000023}},{"attributes":{"ID":584425,"DIS_CODE":0,"TOWNNAME":"北區","LI":"仁愛里","LIN":"16鄰","STREET":"長榮路","SECT":"四段","MAREA":" ","LANE":" ","ALLEY":" ","HOUSE_NO":"４３號","E_COORD97":170284.45999999999,"N_COORD97":2544914.73,"ADDRESS":"長榮路四段４３號","OBJECTID":584398},"geometry":{"x":170284.45999999996,"y":2544914.7300000042}},{"attributes":{"ID":584426,"DIS_CODE":0,"TOWNNAME":"永康區","LI":"中興里","LIN":"22鄰","STREET":"中華路","SECT":" ","MAREA":" ","LANE":" ","ALLEY":" ","HOUSE_NO":"１９６號之８","E_COORD97":171633.41,"N_COORD97":2544991.2999999998,"ADDRESS":"中華路１９６號之８","OBJECTID":584399},"geometry":{"x":171633.41000000108,"y":2544991.3000000007}},{"attributes":{"ID":584427,"DIS_CODE":0,"TOWNNAME":"永康區","LI":"五王里","LIN":"2鄰","STREET":"成功路","SECT":" ","MAREA":" ","LANE":" ","ALLEY":" ","HOUSE_NO":"３７號","E_COORD97":171506.82000000001,"N_COORD97":2545465.1499999999,"ADDRESS":"成功路３７號","OBJECTID":584400},"geometry":{"x":171506.81999999937,"y":2545465.1500000022}}]}