{"displayFieldName":"TOWNNAME","fieldAliases":{"ID":"ID","DIS_CODE":"DIS_CODE","TOWNNAME":"TOWNNAME","LI":"LI","LIN":"LIN","STREET":"STREET","SECT":"SECT","MAREA":"MAREA","LANE":"LANE","ALLEY":"ALLEY","HOUSE_NO":"HOUSE_NO","E_COORD97":"E_COORD97","N_COORD97":"N_COORD97","ADDRESS":"ADDRESS","OBJECTID":"OBJECTID"},"geometryType":"esriGeometryPoint","spatialReference":{"wkid":102443,"latestWkid":3826},"fields":[{"name":"ID","type":"esriFieldTypeDouble","alias":"ID"},{"name":"DIS_CODE","type":"esriFieldTypeInteger","alias":"DIS_CODE"},{"name":"TOWNNAME","type":"esriFieldTypeString","alias":"TOWNNAME","length":8},{"name":"LI","type":"esriFieldTypeString","alias":"LI","length":8},{"name":"LIN","type":"esriFieldTypeString","alias":"LIN","length":12},{"name":"STREET","type":"esriFieldTypeString","alias":"STREET","length":20},{"name":"SECT","type":"esriFieldTypeString","alias":"SECT","length":8},{"name":"MAREA","type":"esriFieldTypeString","alias":"MAREA","length":12},{"name":"LANE","type":"esriFieldTypeString","alias":"LANE","length":10},{"name":"ALLEY","type":"esriFieldTypeString","alias":"ALLEY","length":10},{"name":"HOUSE_NO","type":"esriFieldTypeString","alias":"HOUSE_NO","length":20},{"name":"E_COORD97","type":"esriFieldTypeDouble","alias":"E_COORD97"},{"name":"N_COORD97","type":"esriFieldTypeDouble","alias":"N_COORD97"},{"name":"ADDRESS","type":"esriFieldTypeString","alias":"ADDRESS","length":50},{"name":"OBJECTID","type":"esriFieldTypeOID","alias":"OBJECTID"}],"features":[{"attributes":{"ID":70401,"DIS_CODE":0,"TOWNNAME":"官田區","LI":"南\u25A0里","LIN":"6鄰","STREET":" ","SECT":" ","MAREA":"南\u25A0","LANE":" ","ALLEY":" ","HOUSE_NO":"７９號之８","E_COORD97":178110.73999999999,"N_COORD97":2567509.6099999999,"ADDRESS":"南\u25A0７９號之８","OBJECTID":70401},"geometry":{"x":178110.74000000115,"y":2567509.6100000013}},{"attributes":{"ID":70402,"DIS_CODE":0,"TOWNNAME":"官田區","LI":"南\u25A0里","LIN":"6鄰","STREET":" ","SECT":" ","MAREA":"南\u25A0","LANE":" ","ALLEY":" ","HOUSE_NO":"７９號","E_COORD97":178356.82000000001,"N_COORD97":2567739.2599999998,"ADDRESS":"南\u25A0７９號","OBJECTID":70402},"geometry":{"x":178356.8200000003,"y":2567739.2600000016}},{"attributes":{"ID":70403,"DIS_CODE":0,"TOWNNAME":"官田區","LI":"南\u25A0里","LIN":"6鄰","STREET":" ","SECT":" ","MAREA":"南\u25A0","LANE":" ","ALLEY":" ","HOUSE_NO":"８０號之２","E_COORD97":178420.03,"N_COORD97":2567319.6200000001,"ADDRESS":"南\u25A0８０號之２","OBJECTID":70403},"geometry":{"x":178420.02999999933,"y":2567319.6199999992}},{"attributes":{"ID":70404,"DIS_CODE":0,"TOWNNAME":"官田區","LI":"南\u25A0里","LIN":"6鄰","STREET":" ","SECT":" ","MAREA":"南\u25A0","LANE":" ","ALLEY":" ","HOUSE_NO":"８０號之４","E_COORD97":178231.98999999999,"N_COORD97":2567351.1099999999,"ADDRESS":"南\u25A0８０號之４","OBJECTID":70404},"geometry":{"x":178231.99000000022,"y":2567351.1099999994}},{"attributes":{"ID":70405,"DIS_CODE":0,"TOWNNAME":"官田區","LI":"南\u25A0里","LIN":"6鄰","STREET":" ","SECT":" ","MAREA":"南\u25A0","LANE":" ","ALLEY":" ","HOUSE_NO":"８０號之５","E_COORD97":177722.57000000001,"N_COORD97":2567344.3500000001,"ADDRESS":"南\u25A0８０號之５","OBJECTID":70405},"geometry":{"x":177722.5700000003,"y":2567344.3500000015}},{"attributes":{"ID":70406,"DIS_CODE":0,"TOWNNAME":"東區","LI":"自強里","LIN":"6鄰","STREET":"東門路","SECT":"三段","MAREA":" ","LANE":"３７巷","ALLEY":"６３弄","HOUSE_NO":"８號","E_COORD97":171211.29000000001,"N_COORD97":2542373.6600000001,"ADDRESS":"東門路三段３７巷６３弄８號","OBJECTID":70406},"geometry":{"x":171211.29000000004,"y":2542373.660000002}},{"attributes":{"ID":70407,"DIS_CODE":0,"TOWNNAME":"東區","LI":"自強里","LIN":"6鄰","STREET":"東門路","SECT":"三段","MAREA":" ","LANE":"３７巷","ALLEY":"６３弄","HOUSE_NO":"９號","E_COORD97":171205.60000000001,"N_COORD97":2542364.6600000001,"ADDRESS":"東門路三段３７巷６３弄９號","OBJECTID":70407},"geometry":{"x":171205.59999999963,"y":2542364.6600000001}},{"attributes":{"ID":70408,"DIS_CODE":0,"TOWNNAME":"東區","LI":"富強里","LIN":"6鄰","STREET":"中華東路","SECT":"二段","MAREA":" ","LANE":"４８巷","ALLEY":"１７弄","HOUSE_NO":"１號","E_COORD97":171325.38,"N_COORD97":2542987.5299999998,"ADDRESS":"中華東路二段４８巷１７弄１號","OBJECTID":70408},"geometry":{"x":171325.38000000082,"y":2542987.5300000012}},{"attributes":{"ID":70409,"DIS_CODE":0,"TOWNNAME":"東區","LI":"富強里","LIN":"6鄰","STREET":"中華東路","SECT":"二段","MAREA":" ","LANE":"４８巷","ALLEY":"１７弄","HOUSE_NO":"２１號","E_COORD97":171327.87,"N_COORD97":2542934.8500000001,"ADDRESS":"中華東路二段４８巷１７弄２１號","OBJECTID":70409},"geometry":{"x":171327.87000000011,"y":2542934.8500000015}},{"attributes":{"ID":70410,"DIS_CODE":0,"TOWNNAME":"東區","LI":"富強里","LIN":"6鄰","STREET":"中華東路","SECT":"二段","MAREA":" ","LANE":"４８巷","ALLEY":"１７弄","HOUSE_NO":"２３號","E_COORD97":171328.48999999999,"N_COORD97":2542928.7799999998,"ADDRESS":"中華東路二段４８巷１７弄２３號","OBJECTID":70410},"geometry":{"x":171328.49000000115,"y":2542928.7799999993}},{"attributes":{"ID":70411,"DIS_CODE":0,"TOWNNAME":"東區","LI":"富強里","LIN":"6鄰","STREET":"中華東路","SECT":"二段","MAREA":" ","LANE":"４８巷","ALLEY":"１７弄","HOUSE_NO":"２５號","E_COORD97":171328.07000000001,"N_COORD97":2542922.75,"ADDRESS":"中華東路二段４８巷１７弄２５號","OBJECTID":70411},"geometry":{"x":171328.0700000003,"y":2542922.75}},{"attributes":{"ID":70412,"DIS_CODE":0,"TOWNNAME":"東區","LI":"富強里","LIN":"6鄰","STREET":"中華東路","SECT":"二段","MAREA":" ","LANE":"４８巷","ALLEY":"１７弄","HOUSE_NO":"２７號","E_COORD97":171328.98999999999,"N_COORD97":2542916.6299999999,"ADDRESS":"中華東路二段４８巷１７弄２７號","OBJECTID":70412},"geometry":{"x":171328.99000000022,"y":2542916.629999999}},{"attributes":{"ID":70413,"DIS_CODE":0,"TOWNNAME":"東區","LI":"富強里","LIN":"6鄰","STREET":"中華東路","SECT":"二段","MAREA":" ","LANE":"４８巷","ALLEY":"１７弄","HOUSE_NO":"２９號","E_COORD97":171328.14999999999,"N_COORD97":2542910.52,"ADDRESS":"中華東路二段４８巷１７弄２９號","OBJECTID":70413},"geometry":{"x":171328.15000000037,"y":2542910.5199999996}},{"attributes":{"ID":70414,"DIS_CODE":0,"TOWNNAME":"東區","LI":"富強里","LIN":"6鄰","STREET":"中華東路","SECT":"二段","MAREA":" ","LANE":"４８巷","ALLEY":"１７弄","HOUSE_NO":"２號","E_COORD97":171305.57999999999,"N_COORD97":2542983.2200000002,"ADDRESS":"中華東路二段４８巷１７弄２號","OBJECTID":70414},"geometry":{"x":171305.58000000101,"y":2542983.2200000025}},{"attributes":{"ID":70415,"DIS_CODE":0,"TOWNNAME":"東區","LI":"富強里","LIN":"6鄰","STREET":"中華東路","SECT":"二段","MAREA":" ","LANE":"４８巷","ALLEY":"１７弄","HOUSE_NO":"３１號","E_COORD97":171328.57000000001,"N_COORD97":2542904.6600000001,"ADDRESS":"中華東路二段４８巷１７弄３１號","OBJECTID":70415},"geometry":{"x":171328.5700000003,"y":2542904.6600000039}},{"attributes":{"ID":70416,"DIS_CODE":0,"TOWNNAME":"東區","LI":"富強里","LIN":"6鄰","STREET":"中華東路","SECT":"二段","MAREA":" ","LANE":"４８巷","ALLEY":"１７弄","HOUSE_NO":"３號","E_COORD97":171325.54999999999,"N_COORD97":2542983.6099999999,"ADDRESS":"中華東路二段４８巷１７弄３號","OBJECTID":70416},"geometry":{"x":171325.55000000075,"y":2542983.6100000013}},{"attributes":{"ID":70417,"DIS_CODE":0,"TOWNNAME":"東區","LI":"富強里","LIN":"6鄰","STREET":"中華東路","SECT":"二段","MAREA":" ","LANE":"４８巷","ALLEY":"１７弄","HOUSE_NO":"４號","E_COORD97":171306.64999999999,"N_COORD97":2542978.77,"ADDRESS":"中華東路二段４８巷１７弄４號","OBJECTID":70417},"geometry":{"x":171306.6500000013,"y":2542978.7700000014}},{"attributes":{"ID":70418,"DIS_CODE":0,"TOWNNAME":"善化區","LI":"小新里","LIN":"7鄰","STREET":"成功路","SECT":" ","MAREA":" ","LANE":"３４９巷","ALLEY":" ","HOUSE_NO":"５號之６","E_COORD97":179494.35000000001,"N_COORD97":2558698.29,"ADDRESS":"成功路３４９巷５號之６","OBJECTID":70418},"geometry":{"x":179494.35000000056,"y":2558698.2900000028}},{"attributes":{"ID":70419,"DIS_CODE":0,"TOWNNAME":"六甲區","LI":"甲東里","LIN":"8鄰","STREET":"曾文街","SECT":" ","MAREA":" ","LANE":" ","ALLEY":" ","HOUSE_NO":"４２號之１","E_COORD97":183980.72,"N_COORD97":2570228.0899999999,"ADDRESS":"曾文街４２號之１","OBJECTID":70419},"geometry":{"x":183980.72000000067,"y":2570228.0900000017}},{"attributes":{"ID":70420,"DIS_CODE":0,"TOWNNAME":"六甲區","LI":"甲東里","LIN":"8鄰","STREET":"曾文街","SECT":" ","MAREA":" ","LANE":" ","ALLEY":" ","HOUSE_NO":"４２號","E_COORD97":183976.60999999999,"N_COORD97":2570228.3500000001,"ADDRESS":"曾文街４２號","OBJECTID":70420},"geometry":{"x":183976.6100000022,"y":2570228.3499999996}},{"attributes":{"ID":70421,"DIS_CODE":0,"TOWNNAME":"六甲區","LI":"甲東里","LIN":"8鄰","STREET":"曾文街","SECT":" ","MAREA":" ","LANE":" ","ALLEY":" ","HOUSE_NO":"４８號之１","E_COORD97":183992.82000000001,"N_COORD97":2570227.73,"ADDRESS":"曾文街４８號之１","OBJECTID":70421},"geometry":{"x":183992.8200000003,"y":2570227.7300000023}},{"attributes":{"ID":70422,"DIS_CODE":0,"TOWNNAME":"東區","LI":"富強里","LIN":"6鄰","STREET":"中華東路","SECT":"二段","MAREA":" ","LANE":"４８巷","ALLEY":"１７弄","HOUSE_NO":"５號","E_COORD97":171325.91,"N_COORD97":2542978.0800000001,"ADDRESS":"中華東路二段４８巷１７弄５號","OBJECTID":70422},"geometry":{"x":171325.91000000015,"y":2542978.0800000001}},{"attributes":{"ID":70423,"DIS_CODE":0,"TOWNNAME":"東區","LI":"富強里","LIN":"6鄰","STREET":"中華東路","SECT":"二段","MAREA":" ","LANE":"４８巷","ALLEY":"１７弄","HOUSE_NO":"６號","E_COORD97":171306.82999999999,"N_COORD97":2542974.3199999998,"ADDRESS":"中華東路二段４８巷１７弄６號","OBJECTID":70423},"geometry":{"x":171306.83000000101,"y":2542974.3200000003}},{"attributes":{"ID":70424,"DIS_CODE":0,"TOWNNAME":"東區","LI":"富強里","LIN":"6鄰","STREET":"中華東路","SECT":"二段","MAREA":" ","LANE":"４８巷","ALLEY":"１７弄","HOUSE_NO":"８號","E_COORD97":171306.29000000001,"N_COORD97":2542960.2400000002,"ADDRESS":"中華東路二段４８巷１７弄８號","OBJECTID":70424},"geometry":{"x":171306.29000000004,"y":2542960.2400000002}},{"attributes":{"ID":70425,"DIS_CODE":0,"TOWNNAME":"安南區","LI":"總頭里","LIN":"6鄰","STREET":"長溪路","SECT":"二段","MAREA":" ","LANE":"５７０巷","ALLEY":"８１弄","HOUSE_NO":"３６０號之３","E_COORD97":168869.468112,"N_COORD97":2550586.1737500001,"ADDRESS":"長溪路二段５７０巷８１弄３６０號之３","OBJECTID":70425},"geometry":{"x":168869.4681120012,"y":2550586.173754001}},{"attributes":{"ID":70426,"DIS_CODE":0,"TOWNNAME":"安南區","LI":"長安里","LIN":"6鄰","STREET":"長溪路","SECT":"三段","MAREA":" ","LANE":"４０５巷","ALLEY":"４０弄","HOUSE_NO":"６６號之１","E_COORD97":167438.70000000001,"N_COORD97":2552006.2400000002,"ADDRESS":"長溪路三段４０５巷４０弄６６號之１","OBJECTID":70426},"geometry":{"x":167438.70000000019,"y":2552006.2400000002}},{"attributes":{"ID":70427,"DIS_CODE":0,"TOWNNAME":"安南區","LI":"長安里","LIN":"6鄰","STREET":"長溪路","SECT":"三段","MAREA":" ","LANE":"４０５巷","ALLEY":"４０弄","HOUSE_NO":"７１號","E_COORD97":167456.79999999999,"N_COORD97":2551999.1899999999,"ADDRESS":"長溪路三段４０５巷４０弄７１號","OBJECTID":70427},"geometry":{"x":167456.80000000168,"y":2551999.1899999995}},{"attributes":{"ID":70428,"DIS_CODE":0,"TOWNNAME":"安南區","LI":"長安里","LIN":"6鄰","STREET":"長溪路","SECT":"三段","MAREA":" ","LANE":"４０５巷","ALLEY":"４０弄","HOUSE_NO":"７３號","E_COORD97":167453.41,"N_COORD97":2551964.3999999999,"ADDRESS":"長溪路三段４０５巷４０弄７３號","OBJECTID":70428},"geometry":{"x":167453.41000000108,"y":2551964.4000000004}},{"attributes":{"ID":70429,"DIS_CODE":0,"TOWNNAME":"安南區","LI":"長安里","LIN":"6鄰","STREET":"長溪路","SECT":"三段","MAREA":" ","LANE":"４０５巷","ALLEY":"４０弄","HOUSE_NO":"７７號","E_COORD97":167421.38,"N_COORD97":2551960.6600000001,"ADDRESS":"長溪路三段４０５巷４０弄７７號","OBJECTID":70429},"geometry":{"x":167421.38000000082,"y":2551960.660000002}},{"attributes":{"ID":70430,"DIS_CODE":0,"TOWNNAME":"永康區","LI":"\u25A0行里","LIN":"6鄰","STREET":"新行街","SECT":" ","MAREA":" ","LANE":"７９巷","ALLEY":"３弄","HOUSE_NO":"１３號","E_COORD97":172248.32000000001,"N_COORD97":2548862.2400000002,"ADDRESS":"新行街７９巷３弄１３號","OBJECTID":70430},"geometry":{"x":172248.32000000123,"y":2548862.2400000021}},{"attributes":{"ID":70431,"DIS_CODE":0,"TOWNNAME":"永康區","LI":"\u25A0行里","LIN":"6鄰","STREET":"新行街","SECT":" ","MAREA":" ","LANE":"７９巷","ALLEY":"３弄","HOUSE_NO":"３號","E_COORD97":172272.51999999999,"N_COORD97":2548880.2400000002,"ADDRESS":"新行街７９巷３弄３號","OBJECTID":70431},"geometry":{"x":172272.51999999955,"y":2548880.2400000002}},{"attributes":{"ID":70432,"DIS_CODE":0,"TOWNNAME":"永康區","LI":"\u25A0洲里","LIN":"6鄰","STREET":"三村二街","SECT":" ","MAREA":" ","LANE":"１２巷","ALLEY":"２弄","HOUSE_NO":"３號","E_COORD97":172013.04000000001,"N_COORD97":2549449.25,"ADDRESS":"三村二街１２巷２弄３號","OBJECTID":70432},"geometry":{"x":172013.04000000004,"y":2549449.25}},{"attributes":{"ID":70433,"DIS_CODE":0,"TOWNNAME":"永康區","LI":"\u25A0洲里","LIN":"6鄰","STREET":"三村二街","SECT":" ","MAREA":" ","LANE":"１２巷","ALLEY":"１弄","HOUSE_NO":"９號","E_COORD97":171958.38,"N_COORD97":2549454.75,"ADDRESS":"三村二街１２巷１弄９號","OBJECTID":70433},"geometry":{"x":171958.37999999989,"y":2549454.7500000019}},{"attributes":{"ID":70434,"DIS_CODE":0,"TOWNNAME":"永康區","LI":"\u25A0洲里","LIN":"6鄰","STREET":"三村二街","SECT":" ","MAREA":" ","LANE":"１２巷","ALLEY":"１弄","HOUSE_NO":"５０號","E_COORD97":171870.89999999999,"N_COORD97":2549525,"ADDRESS":"三村二街１２巷１弄５０號","OBJECTID":70434},"geometry":{"x":171870.90000000224,"y":2549525.0000000019}},{"attributes":{"ID":70435,"DIS_CODE":0,"TOWNNAME":"永康區","LI":"\u25A0行里","LIN":"6鄰","STREET":"新行街","SECT":" ","MAREA":" ","LANE":"７９巷","ALLEY":"３弄","HOUSE_NO":"９號","E_COORD97":172257.28,"N_COORD97":2548869.4900000002,"ADDRESS":"新行街７９巷３弄９號","OBJECTID":70435},"geometry":{"x":172257.28000000026,"y":2548869.4900000039}},{"attributes":{"ID":70436,"DIS_CODE":0,"TOWNNAME":"永康區","LI":"正強里","LIN":"6鄰","STREET":"自強路","SECT":" ","MAREA":" ","LANE":"３３０巷","ALLEY":"９弄","HOUSE_NO":"８號","E_COORD97":173465.72,"N_COORD97":2547680,"ADDRESS":"自強路３３０巷９弄８號","OBJECTID":70436},"geometry":{"x":173465.72000000067,"y":2547680.0000000019}},{"attributes":{"ID":70437,"DIS_CODE":0,"TOWNNAME":"永康區","LI":"北灣里","LIN":"33鄰","STREET":"大灣路","SECT":" ","MAREA":" ","LANE":"３７巷","ALLEY":"６弄","HOUSE_NO":"２５號","E_COORD97":175354.37,"N_COORD97":2545782.6099999999,"ADDRESS":"大灣路３７巷６弄２５號","OBJECTID":70437},"geometry":{"x":175354.36999999918,"y":2545782.6100000031}},{"attributes":{"ID":70438,"DIS_CODE":0,"TOWNNAME":"歸仁區","LI":"南保里","LIN":"33鄰","STREET":"中山路","SECT":"三段","MAREA":" ","LANE":"１００巷","ALLEY":"２弄","HOUSE_NO":"９號","E_COORD97":176789.10999999999,"N_COORD97":2540934.25,"ADDRESS":"中山路三段１００巷２弄９號","OBJECTID":70438},"geometry":{"x":176789.11000000127,"y":2540934.2500000019}},{"attributes":{"ID":70439,"DIS_CODE":0,"TOWNNAME":"歸仁區","LI":"南保里","LIN":"33鄰","STREET":"中山路","SECT":"三段","MAREA":" ","LANE":"１００巷","ALLEY":"２弄","HOUSE_NO":"２號","E_COORD97":176765.79000000001,"N_COORD97":2540925.9700000002,"ADDRESS":"中山路三段１００巷２弄２號","OBJECTID":70439},"geometry":{"x":176765.79000000097,"y":2540925.9700000007}},{"attributes":{"ID":70440,"DIS_CODE":0,"TOWNNAME":"歸仁區","LI":"南保里","LIN":"33鄰","STREET":"中山路","SECT":"三段","MAREA":" ","LANE":"１００巷","ALLEY":"２弄","HOUSE_NO":"１３號","E_COORD97":176796.56,"N_COORD97":2540933.25,"ADDRESS":"中山路三段１００巷２弄１３號","OBJECTID":70440},"geometry":{"x":176796.55999999959,"y":2540933.25}},{"attributes":{"ID":70441,"DIS_CODE":0,"TOWNNAME":"永康區","LI":"成功里","LIN":"33鄰","STREET":"忠孝路","SECT":" ","MAREA":" ","LANE":"２０７巷","ALLEY":"３２弄","HOUSE_NO":"６號","E_COORD97":171919.14999999999,"N_COORD97":2544948.75,"ADDRESS":"忠孝路２０７巷３２弄６號","OBJECTID":70441},"geometry":{"x":171919.1500000013,"y":2544948.7500000019}},{"attributes":{"ID":70442,"DIS_CODE":0,"TOWNNAME":"永康區","LI":"成功里","LIN":"33鄰","STREET":"忠孝路","SECT":" ","MAREA":" ","LANE":"２０７巷","ALLEY":"４２弄","HOUSE_NO":"３號","E_COORD97":171894.25,"N_COORD97":2544933.7400000002,"ADDRESS":"忠孝路２０７巷４２弄３號","OBJECTID":70442},"geometry":{"x":171894.25000000093,"y":2544933.7400000002}},{"attributes":{"ID":70443,"DIS_CODE":0,"TOWNNAME":"永康區","LI":"成功里","LIN":"33鄰","STREET":"忠孝路","SECT":" ","MAREA":" ","LANE":"２０７巷","ALLEY":"３２弄","HOUSE_NO":"３號","E_COORD97":171922.66,"N_COORD97":2544932.4500000002,"ADDRESS":"忠孝路２０７巷３２弄３號","OBJECTID":70443},"geometry":{"x":171922.66000000015,"y":2544932.450000003}},{"attributes":{"ID":70444,"DIS_CODE":0,"TOWNNAME":"永康區","LI":"成功里","LIN":"33鄰","STREET":"忠孝路","SECT":" ","MAREA":" ","LANE":"２０７巷","ALLEY":"３２弄","HOUSE_NO":"２號","E_COORD97":171923.54999999999,"N_COORD97":2544928.9500000002,"ADDRESS":"忠孝路２０７巷３２弄２號","OBJECTID":70444},"geometry":{"x":171923.55000000168,"y":2544928.950000003}},{"attributes":{"ID":70445,"DIS_CODE":0,"TOWNNAME":"永康區","LI":"成功里","LIN":"33鄰","STREET":"忠孝路","SECT":" ","MAREA":" ","LANE":"２０７巷","ALLEY":"４２弄","HOUSE_NO":"８號","E_COORD97":171891.12,"N_COORD97":2544963.25,"ADDRESS":"忠孝路２０７巷４２弄８號","OBJECTID":70445},"geometry":{"x":171891.12000000197,"y":2544963.2500000019}},{"attributes":{"ID":70446,"DIS_CODE":0,"TOWNNAME":"永康區","LI":"成功里","LIN":"33鄰","STREET":"忠孝路","SECT":" ","MAREA":" ","LANE":"２０７巷","ALLEY":"４２弄","HOUSE_NO":"７號","E_COORD97":171891.73999999999,"N_COORD97":2544957.25,"ADDRESS":"忠孝路２０７巷４２弄７號","OBJECTID":70446},"geometry":{"x":171891.74000000022,"y":2544957.25}},{"attributes":{"ID":70447,"DIS_CODE":0,"TOWNNAME":"永康區","LI":"成功里","LIN":"33鄰","STREET":"忠孝路","SECT":" ","MAREA":" ","LANE":"２０７巷","ALLEY":"３２弄","HOUSE_NO":"８號","E_COORD97":171900.69,"N_COORD97":2544948.9399999999,"ADDRESS":"忠孝路２０７巷３２弄８號","OBJECTID":70447},"geometry":{"x":171900.69000000041,"y":2544948.9399999995}},{"attributes":{"ID":70448,"DIS_CODE":0,"TOWNNAME":"白河區","LI":"秀祐里","LIN":"7鄰","STREET":" ","SECT":" ","MAREA":"下秀祐","LANE":" ","ALLEY":" ","HOUSE_NO":"４１號","E_COORD97":187947.84,"N_COORD97":2582352.1899999999,"ADDRESS":"下秀祐４１號","OBJECTID":70448},"geometry":{"x":187947.83999999892,"y":2582352.1900000013}},{"attributes":{"ID":70449,"DIS_CODE":0,"TOWNNAME":"永康區","LI":"成功里","LIN":"33鄰","STREET":"忠孝路","SECT":" ","MAREA":" ","LANE":"２０７巷","ALLEY":"４２弄","HOUSE_NO":"４號","E_COORD97":171893.31,"N_COORD97":2544940.2400000002,"ADDRESS":"忠孝路２０７巷４２弄４號","OBJECTID":70449},"geometry":{"x":171893.31000000052,"y":2544940.2400000002}},{"attributes":{"ID":70450,"DIS_CODE":0,"TOWNNAME":"仁德區","LI":"後壁里","LIN":"33鄰","STREET":"德洋二街","SECT":" ","MAREA":" ","LANE":"３９巷","ALLEY":"６３弄","HOUSE_NO":"９號","E_COORD97":172226.45000000001,"N_COORD97":2539394.6699999999,"ADDRESS":"德洋二街３９巷６３弄９號","OBJECTID":70450},"geometry":{"x":172226.45000000205,"y":2539394.6699999999}},{"attributes":{"ID":70451,"DIS_CODE":0,"TOWNNAME":"仁德區","LI":"後壁里","LIN":"33鄰","STREET":"德洋二街","SECT":" ","MAREA":" ","LANE":"３９巷","ALLEY":"１６弄","HOUSE_NO":"８號","E_COORD97":172300.53,"N_COORD97":2539482.27,"ADDRESS":"德洋二街３９巷１６弄８號","OBJECTID":70451},"geometry":{"x":172300.53000000212,"y":2539482.2700000033}},{"attributes":{"ID":70452,"DIS_CODE":0,"TOWNNAME":"永康區","LI":"西灣里","LIN":"33鄰","STREET":"公園路","SECT":" ","MAREA":" ","LANE":"１１７巷","ALLEY":"２弄","HOUSE_NO":"５號","E_COORD97":174162.79000000001,"N_COORD97":2545892.0499999998,"ADDRESS":"公園路１１７巷２弄５號","OBJECTID":70452},"geometry":{"x":174162.79000000004,"y":2545892.0500000007}},{"attributes":{"ID":70453,"DIS_CODE":0,"TOWNNAME":"永康區","LI":"成功里","LIN":"33鄰","STREET":"忠孝路","SECT":" ","MAREA":" ","LANE":"２０７巷","ALLEY":"３２弄","HOUSE_NO":"１號","E_COORD97":171924.95000000001,"N_COORD97":2544922.7000000002,"ADDRESS":"忠孝路２０７巷３２弄１號","OBJECTID":70453},"geometry":{"x":171924.95000000112,"y":2544922.6999999993}},{"attributes":{"ID":70454,"DIS_CODE":0,"TOWNNAME":"永康區","LI":"北灣里","LIN":"33鄰","STREET":"大灣路","SECT":" ","MAREA":" ","LANE":"３７巷","ALLEY":"６弄","HOUSE_NO":"１５號","E_COORD97":175350.37,"N_COORD97":2545815.8700000001,"ADDRESS":"大灣路３７巷６弄１５號","OBJECTID":70454},"geometry":{"x":175350.37000000011,"y":2545815.870000001}},{"attributes":{"ID":70455,"DIS_CODE":0,"TOWNNAME":"永康區","LI":"西灣里","LIN":"33鄰","STREET":"公園路","SECT":" ","MAREA":" ","LANE":"１１７巷","ALLEY":"２弄","HOUSE_NO":"９號","E_COORD97":174154.89000000001,"N_COORD97":2545890.0499999998,"ADDRESS":"公園路１１７巷２弄９號","OBJECTID":70455},"geometry":{"x":174154.88999999966,"y":2545890.0500000026}},{"attributes":{"ID":70456,"DIS_CODE":0,"TOWNNAME":"永康區","LI":"勝利里","LIN":"33鄰","STREET":"中華路","SECT":" ","MAREA":" ","LANE":"７巷","ALLEY":"２０弄","HOUSE_NO":"７號","E_COORD97":171488.76000000001,"N_COORD97":2544423.2200000002,"ADDRESS":"中華路７巷２０弄７號","OBJECTID":70456},"geometry":{"x":171488.76000000071,"y":2544423.2200000007}},{"attributes":{"ID":70457,"DIS_CODE":0,"TOWNNAME":"永康區","LI":"南灣里","LIN":"33鄰","STREET":"南灣街","SECT":" ","MAREA":" ","LANE":"８７巷","ALLEY":"２弄","HOUSE_NO":"１０號","E_COORD97":174351.81,"N_COORD97":2544905.7799999998,"ADDRESS":"南灣街８７巷２弄１０號","OBJECTID":70457},"geometry":{"x":174351.80999999959,"y":2544905.7799999993}},{"attributes":{"ID":70458,"DIS_CODE":0,"TOWNNAME":"永康區","LI":"南灣里","LIN":"33鄰","STREET":"南灣街","SECT":" ","MAREA":" ","LANE":"８７巷","ALLEY":"２弄","HOUSE_NO":"７號","E_COORD97":174355.12,"N_COORD97":2544918.0299999998,"ADDRESS":"南灣街８７巷２弄７號","OBJECTID":70458},"geometry":{"x":174355.12000000104,"y":2544918.0299999993}},{"attributes":{"ID":70459,"DIS_CODE":0,"TOWNNAME":"永康區","LI":"西灣里","LIN":"33鄰","STREET":"公園路","SECT":" ","MAREA":" ","LANE":"１１７巷","ALLEY":"２弄","HOUSE_NO":"１９號","E_COORD97":174136.12,"N_COORD97":2545884.79,"ADDRESS":"公園路１１７巷２弄１９號","OBJECTID":70459},"geometry":{"x":174136.12000000104,"y":2545884.7899999991}},{"attributes":{"ID":70460,"DIS_CODE":0,"TOWNNAME":"永康區","LI":"龍潭里","LIN":"33鄰","STREET":"龍國街","SECT":" ","MAREA":" ","LANE":"２４０巷","ALLEY":"３弄","HOUSE_NO":"１號","E_COORD97":174490.17000000001,"N_COORD97":2547988.6600000001,"ADDRESS":"龍國街２４０巷３弄１號","OBJECTID":70460},"geometry":{"x":174490.17000000086,"y":2547988.6600000001}},{"attributes":{"ID":70461,"DIS_CODE":0,"TOWNNAME":"永康區","LI":"龍潭里","LIN":"33鄰","STREET":"龍國街","SECT":" ","MAREA":" ","LANE":"２４０巷","ALLEY":"３弄","HOUSE_NO":"３號","E_COORD97":174495.41,"N_COORD97":2547988.1600000001,"ADDRESS":"龍國街２４０巷３弄３號","OBJECTID":70461},"geometry":{"x":174495.41000000108,"y":2547988.160000002}},{"attributes":{"ID":70462,"DIS_CODE":0,"TOWNNAME":"永康區","LI":"西灣里","LIN":"33鄰","STREET":"公園路","SECT":" ","MAREA":" ","LANE":"１１７巷","ALLEY":"２弄","HOUSE_NO":"６號","E_COORD97":174160.14999999999,"N_COORD97":2545906.6800000002,"ADDRESS":"公園路１１７巷２弄６號","OBJECTID":70462},"geometry":{"x":174160.1500000013,"y":2545906.6799999997}},{"attributes":{"ID":70463,"DIS_CODE":0,"TOWNNAME":"永康區","LI":"西灣里","LIN":"33鄰","STREET":"公園路","SECT":" ","MAREA":" ","LANE":"１１７巷","ALLEY":"２弄","HOUSE_NO":"３號","E_COORD97":174166.78,"N_COORD97":2545893.0499999998,"ADDRESS":"公園路１１７巷２弄３號","OBJECTID":70463},"geometry":{"x":174166.77999999933,"y":2545893.0500000045}},{"attributes":{"ID":70464,"DIS_CODE":0,"TOWNNAME":"永康區","LI":"西灣里","LIN":"33鄰","STREET":"公園路","SECT":" ","MAREA":" ","LANE":"１１７巷","ALLEY":"２弄","HOUSE_NO":"４號","E_COORD97":174164.44,"N_COORD97":2545907.4300000002,"ADDRESS":"公園路１１７巷２弄４號","OBJECTID":70464},"geometry":{"x":174164.44000000134,"y":2545907.4300000016}},{"attributes":{"ID":70465,"DIS_CODE":0,"TOWNNAME":"仁德區","LI":"仁義里","LIN":" ","STREET":"正義二街","SECT":" ","MAREA":" ","LANE":" ","ALLEY":" ","HOUSE_NO":"８８之９號","E_COORD97":173650.59,"N_COORD97":2541545.7999999998,"ADDRESS":"正義二街８８之９號","OBJECTID":70465},"geometry":{"x":173650.58999999892,"y":2541545.8000000026}},{"attributes":{"ID":70466,"DIS_CODE":0,"TOWNNAME":"仁德區","LI":"一甲里","LIN":" ","STREET":"忠義三街","SECT":" ","MAREA":" ","LANE":" ","ALLEY":" ","HOUSE_NO":"５９號","E_COORD97":173623.03,"N_COORD97":2541836.0099999998,"ADDRESS":"忠義三街５９號","OBJECTID":70466},"geometry":{"x":173623.03000000119,"y":2541836.0099999998}},{"attributes":{"ID":70467,"DIS_CODE":0,"TOWNNAME":"仁德區","LI":"仁愛里","LIN":" ","STREET":"大同路","SECT":"二段","MAREA":" ","LANE":" ","ALLEY":" ","HOUSE_NO":"１０００號","E_COORD97":169658.29999999999,"N_COORD97":2539596.5299999998,"ADDRESS":"大同路二段１０００號","OBJECTID":70467},"geometry":{"x":169658.29999999981,"y":2539596.5300000012}},{"attributes":{"ID":70468,"DIS_CODE":0,"TOWNNAME":"仁德區","LI":"二行里","LIN":" ","STREET":"二行路","SECT":"一段","MAREA":" ","LANE":" ","ALLEY":" ","HOUSE_NO":"２６３號","E_COORD97":170300.89000000001,"N_COORD97":2535878.7799999998,"ADDRESS":"二行路一段２６３號","OBJECTID":70468},"geometry":{"x":170300.8900000006,"y":2535878.7800000012}},{"attributes":{"ID":70469,"DIS_CODE":0,"TOWNNAME":"仁德區","LI":"仁義里","LIN":" ","STREET":"中清一街","SECT":" ","MAREA":" ","LANE":" ","ALLEY":" ","HOUSE_NO":"５２之５號","E_COORD97":173678.72,"N_COORD97":2541527.5600000001,"ADDRESS":"中清一街５２之５號","OBJECTID":70469},"geometry":{"x":173678.72000000067,"y":2541527.5600000005}},{"attributes":{"ID":70470,"DIS_CODE":0,"TOWNNAME":"仁德區","LI":"大甲里","LIN":" ","STREET":"行大一街","SECT":" ","MAREA":" ","LANE":" ","ALLEY":" ","HOUSE_NO":"３４０號","E_COORD97":169528.39999999999,"N_COORD97":2535139.5,"ADDRESS":"行大一街３４０號","OBJECTID":70470},"geometry":{"x":169528.4000000013,"y":2535139.5000000019}},{"attributes":{"ID":70471,"DIS_CODE":0,"TOWNNAME":"仁德區","LI":"新田里","LIN":" ","STREET":"中正路","SECT":"二段","MAREA":" ","LANE":" ","ALLEY":" ","HOUSE_NO":"５６９之６號","E_COORD97":173359.48000000001,"N_COORD97":2539784.79,"ADDRESS":"中正路二段５６９之６號","OBJECTID":70471},"geometry":{"x":173359.48000000138,"y":2539784.790000001}},{"attributes":{"ID":70472,"DIS_CODE":0,"TOWNNAME":"仁德區","LI":"二行里","LIN":" ","STREET":"二行一路","SECT":" ","MAREA":" ","LANE":" ","ALLEY":" ","HOUSE_NO":"１２０號","E_COORD97":170528.73000000001,"N_COORD97":2535559.25,"ADDRESS":"二行一路１２０號","OBJECTID":70472},"geometry":{"x":170528.73000000045,"y":2535559.25}},{"attributes":{"ID":70473,"DIS_CODE":0,"TOWNNAME":"仁德區","LI":"保安里","LIN":" ","STREET":"中正路","SECT":"一段","MAREA":" ","LANE":" ","ALLEY":" ","HOUSE_NO":"１０１號","E_COORD97":171256.26000000001,"N_COORD97":2535599.77,"ADDRESS":"中正路一段１０１號","OBJECTID":70473},"geometry":{"x":171256.26000000071,"y":2535599.7699999996}},{"attributes":{"ID":70474,"DIS_CODE":0,"TOWNNAME":"仁德區","LI":"保安里","LIN":" ","STREET":"中正路","SECT":"一段","MAREA":" ","LANE":" ","ALLEY":" ","HOUSE_NO":"２８４號","E_COORD97":171846.09,"N_COORD97":2535980.0299999998,"ADDRESS":"中正路一段２８４號","OBJECTID":70474},"geometry":{"x":171846.09000000078,"y":2535980.0299999993}},{"attributes":{"ID":70475,"DIS_CODE":0,"TOWNNAME":"後壁區","LI":"仕安里","LIN":"7鄰","STREET":" ","SECT":" ","MAREA":"下長","LANE":" ","ALLEY":" ","HOUSE_NO":"５０號","E_COORD97":180630.76999999999,"N_COORD97":2583656.1299999999,"ADDRESS":"下長５０號","OBJECTID":70475},"geometry":{"x":180630.77000000048,"y":2583656.1300000008}},{"attributes":{"ID":70476,"DIS_CODE":0,"TOWNNAME":"永康區","LI":"西灣里","LIN":"33鄰","STREET":"公園路","SECT":" ","MAREA":" ","LANE":"１１７巷","ALLEY":"２弄","HOUSE_NO":"１號","E_COORD97":174171.48999999999,"N_COORD97":2545893.5499999998,"ADDRESS":"公園路１１７巷２弄１號","OBJECTID":70476},"geometry":{"x":174171.49000000022,"y":2545893.5500000026}},{"attributes":{"ID":70477,"DIS_CODE":0,"TOWNNAME":"中西區","LI":"民主里","LIN":"7鄰","STREET":"府前路","SECT":"二段","MAREA":" ","LANE":" ","ALLEY":" ","HOUSE_NO":"２２７號","E_COORD97":167120.04000000001,"N_COORD97":2543581.6099999999,"ADDRESS":"府前路二段２２７號","OBJECTID":70477},"geometry":{"x":167120.04000000097,"y":2543581.6099999994}},{"attributes":{"ID":70478,"DIS_CODE":0,"TOWNNAME":"新市區","LI":"新和里","LIN":"7鄰","STREET":"富強路","SECT":" ","MAREA":" ","LANE":" ","ALLEY":" ","HOUSE_NO":"６７號","E_COORD97":177245.89999999999,"N_COORD97":2552398.5,"ADDRESS":"富強路６７號","OBJECTID":70478},"geometry":{"x":177245.90000000037,"y":2552398.5000000037}},{"attributes":{"ID":70479,"DIS_CODE":0,"TOWNNAME":"後壁區","LI":"仕安里","LIN":"7鄰","STREET":" ","SECT":" ","MAREA":"下長","LANE":" ","ALLEY":" ","HOUSE_NO":"５１號","E_COORD97":180643.60000000001,"N_COORD97":2583649.71,"ADDRESS":"下長５１號","OBJECTID":70479},"geometry":{"x":180643.60000000056,"y":2583649.7100000009}},{"attributes":{"ID":70480,"DIS_CODE":0,"TOWNNAME":"新市區","LI":"三舍里","LIN":"7鄰","STREET":" ","SECT":" ","MAREA":"三舍","LANE":" ","ALLEY":" ","HOUSE_NO":"１７６之５號","E_COORD97":177447.95000000001,"N_COORD97":2554859.2999999998,"ADDRESS":"三舍１７６之５號","OBJECTID":70480},"geometry":{"x":177447.95000000112,"y":2554859.3000000026}},{"attributes":{"ID":70481,"DIS_CODE":0,"TOWNNAME":"永康區","LI":"西灣里","LIN":"33鄰","STREET":"公園路","SECT":" ","MAREA":" ","LANE":"１１７巷","ALLEY":"２弄","HOUSE_NO":"１５號","E_COORD97":174144.07000000001,"N_COORD97":2545886.7999999998,"ADDRESS":"公園路１１７巷２弄１５號","OBJECTID":70481},"geometry":{"x":174144.0700000003,"y":2545886.8000000007}},{"attributes":{"ID":70482,"DIS_CODE":0,"TOWNNAME":"新市區","LI":"三舍里","LIN":"7鄰","STREET":" ","SECT":" ","MAREA":"三舍","LANE":" ","ALLEY":" ","HOUSE_NO":"１７９之８號","E_COORD97":177442.59,"N_COORD97":2554842.7999999998,"ADDRESS":"三舍１７９之８號","OBJECTID":70482},"geometry":{"x":177442.58999999985,"y":2554842.8000000026}},{"attributes":{"ID":70483,"DIS_CODE":0,"TOWNNAME":"永康區","LI":"西灣里","LIN":"33鄰","STREET":"公園路","SECT":" ","MAREA":" ","LANE":"１１７巷","ALLEY":"２弄","HOUSE_NO":"１２號","E_COORD97":174148.42999999999,"N_COORD97":2545903.4300000002,"ADDRESS":"公園路１１７巷２弄１２號","OBJECTID":70483},"geometry":{"x":174148.43000000156,"y":2545903.4300000016}},{"attributes":{"ID":70484,"DIS_CODE":0,"TOWNNAME":"永康區","LI":"西灣里","LIN":"33鄰","STREET":"公園路","SECT":" ","MAREA":" ","LANE":"１１７巷","ALLEY":"２弄","HOUSE_NO":"２３號","E_COORD97":174127.92999999999,"N_COORD97":2545882.54,"ADDRESS":"公園路１１７巷２弄２３號","OBJECTID":70484},"geometry":{"x":174127.93000000156,"y":2545882.540000001}},{"attributes":{"ID":70485,"DIS_CODE":0,"TOWNNAME":"新市區","LI":"新和里","LIN":"7鄰","STREET":"富強路","SECT":" ","MAREA":" ","LANE":" ","ALLEY":" ","HOUSE_NO":"１０１號","E_COORD97":177160.09,"N_COORD97":2552316.5,"ADDRESS":"富強路１０１號","OBJECTID":70485},"geometry":{"x":177160.09000000078,"y":2552316.5}},{"attributes":{"ID":70486,"DIS_CODE":0,"TOWNNAME":"新市區","LI":"新和里","LIN":"7鄰","STREET":"富強路","SECT":" ","MAREA":" ","LANE":" ","ALLEY":" ","HOUSE_NO":"４７號","E_COORD97":177284.70999999999,"N_COORD97":2552421.25,"ADDRESS":"富強路４７號","OBJECTID":70486},"geometry":{"x":177284.71000000089,"y":2552421.2500000019}},{"attributes":{"ID":70487,"DIS_CODE":0,"TOWNNAME":"永康區","LI":"西灣里","LIN":"33鄰","STREET":"公園路","SECT":" ","MAREA":" ","LANE":"１１７巷","ALLEY":"２弄","HOUSE_NO":"１７號","E_COORD97":174140.28,"N_COORD97":2545885.79,"ADDRESS":"公園路１１７巷２弄１７號","OBJECTID":70487},"geometry":{"x":174140.28000000119,"y":2545885.7899999972}},{"attributes":{"ID":70488,"DIS_CODE":0,"TOWNNAME":"永康區","LI":"西灣里","LIN":"33鄰","STREET":"公園路","SECT":" ","MAREA":" ","LANE":"１１７巷","ALLEY":"２弄","HOUSE_NO":"１３號","E_COORD97":174148.07000000001,"N_COORD97":2545887.7999999998,"ADDRESS":"公園路１１７巷２弄１３號","OBJECTID":70488},"geometry":{"x":174148.07000000216,"y":2545887.8000000045}},{"attributes":{"ID":70489,"DIS_CODE":0,"TOWNNAME":"永康區","LI":"\u25A0行里","LIN":"33鄰","STREET":"中正北路","SECT":" ","MAREA":" ","LANE":"１９巷","ALLEY":"６弄","HOUSE_NO":"４號","E_COORD97":172002.76000000001,"N_COORD97":2549136.5,"ADDRESS":"中正北路１９巷６弄４號","OBJECTID":70489},"geometry":{"x":172002.75999999978,"y":2549136.5}},{"attributes":{"ID":70490,"DIS_CODE":0,"TOWNNAME":"新市區","LI":"大營里","LIN":"7鄰","STREET":" ","SECT":" ","MAREA":"大營","LANE":" ","ALLEY":" ","HOUSE_NO":"１５７之２０號","E_COORD97":179505.37,"N_COORD97":2555450.7999999998,"ADDRESS":"大營１５７之２０號","OBJECTID":70490},"geometry":{"x":179505.37000000011,"y":2555450.8000000007}},{"attributes":{"ID":70491,"DIS_CODE":0,"TOWNNAME":"新市區","LI":"大營里","LIN":"7鄰","STREET":" ","SECT":" ","MAREA":"大營","LANE":" ","ALLEY":" ","HOUSE_NO":"１５９號","E_COORD97":179432.63,"N_COORD97":2555540.5,"ADDRESS":"大營１５９號","OBJECTID":70491},"geometry":{"x":179432.62999999896,"y":2555540.5}},{"attributes":{"ID":70492,"DIS_CODE":0,"TOWNNAME":"新市區","LI":"大營里","LIN":"7鄰","STREET":" ","SECT":" ","MAREA":"大營","LANE":" ","ALLEY":" ","HOUSE_NO":"１５７號","E_COORD97":179503.63,"N_COORD97":2555481.75,"ADDRESS":"大營１５７號","OBJECTID":70492},"geometry":{"x":179503.62999999989,"y":2555481.75}},{"attributes":{"ID":70493,"DIS_CODE":0,"TOWNNAME":"新市區","LI":"大營里","LIN":"7鄰","STREET":" ","SECT":" ","MAREA":"大營","LANE":" ","ALLEY":" ","HOUSE_NO":"１５６之３５號","E_COORD97":179534.32000000001,"N_COORD97":2555414.2999999998,"ADDRESS":"大營１５６之３５號","OBJECTID":70493},"geometry":{"x":179534.32000000123,"y":2555414.3000000007}},{"attributes":{"ID":70494,"DIS_CODE":0,"TOWNNAME":"新市區","LI":"大營里","LIN":"7鄰","STREET":" ","SECT":" ","MAREA":"大營","LANE":" ","ALLEY":" ","HOUSE_NO":"１６８號","E_COORD97":179352.38,"N_COORD97":2555555.75,"ADDRESS":"大營１６８號","OBJECTID":70494},"geometry":{"x":179352.37999999989,"y":2555555.75}},{"attributes":{"ID":70495,"DIS_CODE":0,"TOWNNAME":"新市區","LI":"大洲里","LIN":"7鄰","STREET":" ","SECT":" ","MAREA":"大洲","LANE":" ","ALLEY":" ","HOUSE_NO":"６７號","E_COORD97":174038.01000000001,"N_COORD97":2552177,"ADDRESS":"大洲６７號","OBJECTID":70495},"geometry":{"x":174038.01000000071,"y":2552177}},{"attributes":{"ID":70496,"DIS_CODE":0,"TOWNNAME":"新市區","LI":"大營里","LIN":"7鄰","STREET":" ","SECT":" ","MAREA":"大營","LANE":" ","ALLEY":" ","HOUSE_NO":"１５６之３１號","E_COORD97":179521.13,"N_COORD97":2555410.5499999998,"ADDRESS":"大營１５６之３１號","OBJECTID":70496},"geometry":{"x":179521.13000000082,"y":2555410.5500000026}},{"attributes":{"ID":70497,"DIS_CODE":0,"TOWNNAME":"新市區","LI":"三舍里","LIN":"7鄰","STREET":" ","SECT":" ","MAREA":"三舍","LANE":" ","ALLEY":" ","HOUSE_NO":"１７５號","E_COORD97":177480.29000000001,"N_COORD97":2554861,"ADDRESS":"三舍１７５號","OBJECTID":70497},"geometry":{"x":177480.29000000004,"y":2554861.0000000019}},{"attributes":{"ID":70498,"DIS_CODE":0,"TOWNNAME":"官田區","LI":"南\u25A0里","LIN":"6鄰","STREET":" ","SECT":" ","MAREA":"南\u25A0","LANE":" ","ALLEY":" ","HOUSE_NO":"８０號之６","E_COORD97":178661.28,"N_COORD97":2567326.1099999999,"ADDRESS":"南\u25A0８０號之６","OBJECTID":70498},"geometry":{"x":178661.28000000119,"y":2567326.1100000013}},{"attributes":{"ID":70499,"DIS_CODE":0,"TOWNNAME":"官田區","LI":"南\u25A0里","LIN":"6鄰","STREET":" ","SECT":" ","MAREA":"南\u25A0","LANE":" ","ALLEY":" ","HOUSE_NO":"８０號之７","E_COORD97":178506.57000000001,"N_COORD97":2567320.6299999999,"ADDRESS":"南\u25A0８０號之７","OBJECTID":70499},"geometry":{"x":178506.57000000123,"y":2567320.629999999}},{"attributes":{"ID":70500,"DIS_CODE":0,"TOWNNAME":"官田區","LI":"湖山里","LIN":"6鄰","STREET":" ","SECT":" ","MAREA":"烏山頭","LANE":" ","ALLEY":" ","HOUSE_NO":"３１號","E_COORD97":183195.89000000001,"N_COORD97":2567704.1200000001,"ADDRESS":"烏山頭３１號","OBJECTID":70500},"geometry":{"x":183195.89000000153,"y":2567704.1200000029}},{"attributes":{"ID":70501,"DIS_CODE":0,"TOWNNAME":"官田區","LI":"湖山里","LIN":"6鄰","STREET":" ","SECT":" ","MAREA":"烏山頭","LANE":" ","ALLEY":" ","HOUSE_NO":"３２號之１","E_COORD97":183241.62,"N_COORD97":2567696.2000000002,"ADDRESS":"烏山頭３２號之１","OBJECTID":70501},"geometry":{"x":183241.62000000011,"y":2567696.1999999993}},{"attributes":{"ID":70502,"DIS_CODE":0,"TOWNNAME":"永康區","LI":"\u25A0行里","LIN":"33鄰","STREET":"中正北路","SECT":" ","MAREA":" ","LANE":"１９巷","ALLEY":"６弄","HOUSE_NO":"１號","E_COORD97":171986.07000000001,"N_COORD97":2549147.25,"ADDRESS":"中正北路１９巷６弄１號","OBJECTID":70502},"geometry":{"x":171986.0700000003,"y":2549147.25}},{"attributes":{"ID":70503,"DIS_CODE":0,"TOWNNAME":"永康區","LI":"龍潭里","LIN":"33鄰","STREET":"龍國街","SECT":" ","MAREA":" ","LANE":"２４０巷","ALLEY":"１弄","HOUSE_NO":"１號","E_COORD97":174487.91,"N_COORD97":2548008.6400000001,"ADDRESS":"龍國街２４０巷１弄１號","OBJECTID":70503},"geometry":{"x":174487.91000000201,"y":2548008.6400000025}},{"attributes":{"ID":70504,"DIS_CODE":0,"TOWNNAME":"永康區","LI":"龍潭里","LIN":"33鄰","STREET":"龍國街","SECT":" ","MAREA":" ","LANE":"２４０巷","ALLEY":"１弄","HOUSE_NO":"９號","E_COORD97":174506.35999999999,"N_COORD97":2548006.1499999999,"ADDRESS":"龍國街２４０巷１弄９號","OBJECTID":70504},"geometry":{"x":174506.36000000034,"y":2548006.1500000004}},{"attributes":{"ID":70505,"DIS_CODE":0,"TOWNNAME":"永康區","LI":"龍潭里","LIN":"33鄰","STREET":"龍國街","SECT":" ","MAREA":" ","LANE":"２４０巷","ALLEY":"３弄","HOUSE_NO":"５號","E_COORD97":174499.70000000001,"N_COORD97":2547987.6600000001,"ADDRESS":"龍國街２４０巷３弄５號","OBJECTID":70505},"geometry":{"x":174499.70000000205,"y":2547987.660000002}},{"attributes":{"ID":70506,"DIS_CODE":0,"TOWNNAME":"永康區","LI":"龍潭里","LIN":"33鄰","STREET":"龍國街","SECT":" ","MAREA":" ","LANE":"２４０巷","ALLEY":"３弄","HOUSE_NO":"７號","E_COORD97":174503.89999999999,"N_COORD97":2547987.1600000001,"ADDRESS":"龍國街２４０巷３弄７號","OBJECTID":70506},"geometry":{"x":174503.9000000013,"y":2547987.160000002}},{"attributes":{"ID":70507,"DIS_CODE":0,"TOWNNAME":"永康區","LI":"龍潭里","LIN":"33鄰","STREET":"龍國街","SECT":" ","MAREA":" ","LANE":"２４０巷","ALLEY":"１弄","HOUSE_NO":"５號","E_COORD97":174497.5,"N_COORD97":2548007.1499999999,"ADDRESS":"龍國街２４０巷１弄５號","OBJECTID":70507},"geometry":{"x":174497.50000000186,"y":2548007.1499999985}},{"attributes":{"ID":70508,"DIS_CODE":0,"TOWNNAME":"永康區","LI":"龍潭里","LIN":"33鄰","STREET":"龍國街","SECT":" ","MAREA":" ","LANE":"２４０巷","ALLEY":"３弄","HOUSE_NO":"９號","E_COORD97":174508.17999999999,"N_COORD97":2547986.9100000001,"ADDRESS":"龍國街２４０巷３弄９號","OBJECTID":70508},"geometry":{"x":174508.18000000063,"y":2547986.9100000001}},{"attributes":{"ID":70509,"DIS_CODE":0,"TOWNNAME":"永康區","LI":"龍潭里","LIN":"33鄰","STREET":"龍國街","SECT":" ","MAREA":" ","LANE":"２４０巷","ALLEY":"３弄","HOUSE_NO":"２號","E_COORD97":174510.17999999999,"N_COORD97":2547968.6899999999,"ADDRESS":"龍國街２４０巷３弄２號","OBJECTID":70509},"geometry":{"x":174510.18000000063,"y":2547968.6900000032}},{"attributes":{"ID":70510,"DIS_CODE":0,"TOWNNAME":"永康區","LI":"龍潭里","LIN":"33鄰","STREET":"龍國街","SECT":" ","MAREA":" ","LANE":"２４０巷","ALLEY":"３弄","HOUSE_NO":"１１號","E_COORD97":174513.66,"N_COORD97":2547986.4100000001,"ADDRESS":"龍國街２４０巷３弄１１號","OBJECTID":70510},"geometry":{"x":174513.66000000108,"y":2547986.410000002}},{"attributes":{"ID":70511,"DIS_CODE":0,"TOWNNAME":"安南區","LI":"安富里","LIN":"33鄰","STREET":"府安路","SECT":"五段","MAREA":" ","LANE":"１５７巷","ALLEY":"２２弄","HOUSE_NO":"２０號","E_COORD97":167849.04999999999,"N_COORD97":2547140.1699999999,"ADDRESS":"府安路五段１５７巷２２弄２０號","OBJECTID":70511},"geometry":{"x":167849.05000000075,"y":2547140.1700000018}},{"attributes":{"ID":70512,"DIS_CODE":0,"TOWNNAME":"安南區","LI":"安富里","LIN":"33鄰","STREET":"府安路","SECT":"五段","MAREA":" ","LANE":"１５７巷","ALLEY":"２２弄","HOUSE_NO":"３２號","E_COORD97":167843.20000000001,"N_COORD97":2547168.3700000001,"ADDRESS":"府安路五段１５７巷２２弄３２號","OBJECTID":70512},"geometry":{"x":167843.20000000112,"y":2547168.370000001}},{"attributes":{"ID":70513,"DIS_CODE":0,"TOWNNAME":"安南區","LI":"安富里","LIN":"33鄰","STREET":"府安路","SECT":"五段","MAREA":" ","LANE":"１５７巷","ALLEY":"２２弄","HOUSE_NO":"３４號","E_COORD97":167841.13,"N_COORD97":2547172.8399999999,"ADDRESS":"府安路五段１５７巷２２弄３４號","OBJECTID":70513},"geometry":{"x":167841.13000000175,"y":2547172.8400000017}},{"attributes":{"ID":70514,"DIS_CODE":0,"TOWNNAME":"安南區","LI":"安富里","LIN":"33鄰","STREET":"府安路","SECT":"五段","MAREA":" ","LANE":"１５７巷","ALLEY":"２２弄","HOUSE_NO":"７２號","E_COORD97":167822.54000000001,"N_COORD97":2547259.4700000002,"ADDRESS":"府安路五段１５７巷２２弄７２號","OBJECTID":70514},"geometry":{"x":167822.54000000004,"y":2547259.4700000044}},{"attributes":{"ID":70515,"DIS_CODE":0,"TOWNNAME":"安南區","LI":"安富里","LIN":"33鄰","STREET":"府安路","SECT":"五段","MAREA":" ","LANE":"１５７巷","ALLEY":"２２弄","HOUSE_NO":"７４號","E_COORD97":167821.16,"N_COORD97":2547263.6000000001,"ADDRESS":"府安路五段１５７巷２２弄７４號","OBJECTID":70515},"geometry":{"x":167821.16000000108,"y":2547263.5999999996}},{"attributes":{"ID":70516,"DIS_CODE":0,"TOWNNAME":"安南區","LI":"安富里","LIN":"33鄰","STREET":"府安路","SECT":"五段","MAREA":" ","LANE":"１５７巷","ALLEY":"２２弄","HOUSE_NO":"４９號","E_COORD97":167796.31,"N_COORD97":2547249.7999999998,"ADDRESS":"府安路五段１５７巷２２弄４９號","OBJECTID":70516},"geometry":{"x":167796.30999999959,"y":2547249.8000000007}},{"attributes":{"ID":70517,"DIS_CODE":0,"TOWNNAME":"安南區","LI":"安富里","LIN":"33鄰","STREET":"府安路","SECT":"五段","MAREA":" ","LANE":"１５７巷","ALLEY":"２２弄","HOUSE_NO":"１５號","E_COORD97":167815.60000000001,"N_COORD97":2547171.4900000002,"ADDRESS":"府安路五段１５７巷２２弄１５號","OBJECTID":70517},"geometry":{"x":167815.60000000149,"y":2547171.4900000021}},{"attributes":{"ID":70518,"DIS_CODE":0,"TOWNNAME":"安南區","LI":"安富里","LIN":"33鄰","STREET":"府安路","SECT":"五段","MAREA":" ","LANE":"１５７巷","ALLEY":"２２弄","HOUSE_NO":"５號","E_COORD97":167820.07000000001,"N_COORD97":2547149.48,"ADDRESS":"府安路五段１５７巷２２弄５號","OBJECTID":70518},"geometry":{"x":167820.07000000123,"y":2547149.4800000004}},{"attributes":{"ID":70519,"DIS_CODE":0,"TOWNNAME":"安南區","LI":"安富里","LIN":"33鄰","STREET":"府安路","SECT":"五段","MAREA":" ","LANE":"１５７巷","ALLEY":"２２弄","HOUSE_NO":"３號","E_COORD97":167820.76000000001,"N_COORD97":2547145.3599999999,"ADDRESS":"府安路五段１５７巷２２弄３號","OBJECTID":70519},"geometry":{"x":167820.75999999978,"y":2547145.3600000013}},{"attributes":{"ID":70520,"DIS_CODE":0,"TOWNNAME":"永康區","LI":"龍潭里","LIN":"33鄰","STREET":"龍國街","SECT":" ","MAREA":" ","LANE":"２４０巷","ALLEY":"１弄","HOUSE_NO":"７號","E_COORD97":174502.14999999999,"N_COORD97":2548006.6499999999,"ADDRESS":"龍國街２４０巷１弄７號","OBJECTID":70520},"geometry":{"x":174502.1500000013,"y":2548006.6500000004}},{"attributes":{"ID":70521,"DIS_CODE":0,"TOWNNAME":"永康區","LI":"北灣里","LIN":"33鄰","STREET":"大灣路","SECT":" ","MAREA":" ","LANE":"３７巷","ALLEY":"６弄","HOUSE_NO":"３０號","E_COORD97":175346.57999999999,"N_COORD97":2545766.2400000002,"ADDRESS":"大灣路３７巷６弄３０號","OBJECTID":70521},"geometry":{"x":175346.58000000101,"y":2545766.2400000021}},{"attributes":{"ID":70522,"DIS_CODE":0,"TOWNNAME":"永康區","LI":"勝利里","LIN":"33鄰","STREET":"中華路","SECT":" ","MAREA":" ","LANE":"７巷","ALLEY":"２０弄","HOUSE_NO":"３０號","E_COORD97":171507.67999999999,"N_COORD97":2544438,"ADDRESS":"中華路７巷２０弄３０號","OBJECTID":70522},"geometry":{"x":171507.68000000063,"y":2544438.0000000037}},{"attributes":{"ID":70523,"DIS_CODE":0,"TOWNNAME":"永康區","LI":"勝利里","LIN":"33鄰","STREET":"中華路","SECT":" ","MAREA":" ","LANE":"７巷","ALLEY":"２０弄","HOUSE_NO":"３６號","E_COORD97":171528.44,"N_COORD97":2544457.75,"ADDRESS":"中華路７巷２０弄３６號","OBJECTID":70523},"geometry":{"x":171528.44000000134,"y":2544457.7500000019}},{"attributes":{"ID":70524,"DIS_CODE":0,"TOWNNAME":"永康區","LI":"勝利里","LIN":"33鄰","STREET":"中華路","SECT":" ","MAREA":" ","LANE":"７巷","ALLEY":"２０弄","HOUSE_NO":"１３號","E_COORD97":171491.60999999999,"N_COORD97":2544435.2200000002,"ADDRESS":"中華路７巷２０弄１３號","OBJECTID":70524},"geometry":{"x":171491.61000000127,"y":2544435.2200000025}},{"attributes":{"ID":70525,"DIS_CODE":0,"TOWNNAME":"永康區","LI":"勝利里","LIN":"33鄰","STREET":"中華路","SECT":" ","MAREA":" ","LANE":"７巷","ALLEY":"２０弄","HOUSE_NO":"３號","E_COORD97":171487.89000000001,"N_COORD97":2544415.7200000002,"ADDRESS":"中華路７巷２０弄３號","OBJECTID":70525},"geometry":{"x":171487.8900000006,"y":2544415.7200000007}},{"attributes":{"ID":70526,"DIS_CODE":0,"TOWNNAME":"永康區","LI":"\u25A0行里","LIN":"33鄰","STREET":"中正北路","SECT":" ","MAREA":" ","LANE":"１９巷","ALLEY":"６弄","HOUSE_NO":"３號","E_COORD97":171996.16,"N_COORD97":2549140.5,"ADDRESS":"中正北路１９巷６弄３號","OBJECTID":70526},"geometry":{"x":171996.16000000201,"y":2549140.5000000037}},{"attributes":{"ID":70527,"DIS_CODE":0,"TOWNNAME":"歸仁區","LI":"南保里","LIN":"33鄰","STREET":"中山路","SECT":"三段","MAREA":" ","LANE":"１００巷","ALLEY":"２弄","HOUSE_NO":"５號","E_COORD97":176794.85999999999,"N_COORD97":2540937.2799999998,"ADDRESS":"中山路三段１００巷２弄５號","OBJECTID":70527},"geometry":{"x":176794.86000000034,"y":2540937.2800000012}},{"attributes":{"ID":70528,"DIS_CODE":0,"TOWNNAME":"官田區","LI":"湖山里","LIN":"6鄰","STREET":" ","SECT":" ","MAREA":"烏山頭","LANE":" ","ALLEY":" ","HOUSE_NO":"３２號之６","E_COORD97":183231.78,"N_COORD97":2567711.4300000002,"ADDRESS":"烏山頭３２號之６","OBJECTID":70528},"geometry":{"x":183231.78000000119,"y":2567711.4299999997}},{"attributes":{"ID":70529,"DIS_CODE":0,"TOWNNAME":"歸仁區","LI":"南保里","LIN":"33鄰","STREET":"中山路","SECT":"三段","MAREA":" ","LANE":"１００巷","ALLEY":"２弄","HOUSE_NO":"３號","E_COORD97":176790.76000000001,"N_COORD97":2540941.2799999998,"ADDRESS":"中山路三段１００巷２弄３號","OBJECTID":70529},"geometry":{"x":176790.76000000164,"y":2540941.2800000012}},{"attributes":{"ID":70530,"DIS_CODE":0,"TOWNNAME":"北區","LI":"成德里","LIN":"33鄰","STREET":"育成路","SECT":" ","MAREA":" ","LANE":"１４９巷","ALLEY":"２弄","HOUSE_NO":"３９號","E_COORD97":168632.82999999999,"N_COORD97":2546445.1000000001,"ADDRESS":"育成路１４９巷２弄３９號","OBJECTID":70530},"geometry":{"x":168632.83000000007,"y":2546445.1000000015}},{"attributes":{"ID":70531,"DIS_CODE":0,"TOWNNAME":"北區","LI":"成德里","LIN":"33鄰","STREET":"育成路","SECT":" ","MAREA":" ","LANE":"１４９巷","ALLEY":"２弄","HOUSE_NO":"３７號","E_COORD97":168637.91,"N_COORD97":2546445.23,"ADDRESS":"育成路１４９巷２弄３７號","OBJECTID":70531},"geometry":{"x":168637.91000000201,"y":2546445.2300000023}},{"attributes":{"ID":70532,"DIS_CODE":0,"TOWNNAME":"永康區","LI":"二王里","LIN":"33鄰","STREET":"中山南路","SECT":" ","MAREA":" ","LANE":"４９０巷","ALLEY":"２弄","HOUSE_NO":"２號","E_COORD97":172074.13,"N_COORD97":2546439.4500000002,"ADDRESS":"中山南路４９０巷２弄２號","OBJECTID":70532},"geometry":{"x":172074.13000000082,"y":2546439.4499999993}},{"attributes":{"ID":70533,"DIS_CODE":0,"TOWNNAME":"仁德區","LI":"成功里","LIN":"33鄰","STREET":"成功一街","SECT":" ","MAREA":" ","LANE":"６７巷","ALLEY":"２５弄","HOUSE_NO":"１８號","E_COORD97":170639.13,"N_COORD97":2540111.77,"ADDRESS":"成功一街６７巷２５弄１８號","OBJECTID":70533},"geometry":{"x":170639.12999999989,"y":2540111.7699999996}},{"attributes":{"ID":70534,"DIS_CODE":0,"TOWNNAME":"仁德區","LI":"成功里","LIN":"33鄰","STREET":"成功一街","SECT":" ","MAREA":" ","LANE":"６７巷","ALLEY":"２５弄","HOUSE_NO":"１６號","E_COORD97":170636.67000000001,"N_COORD97":2540103.77,"ADDRESS":"成功一街６７巷２５弄１６號","OBJECTID":70534},"geometry":{"x":170636.67000000086,"y":2540103.7700000014}},{"attributes":{"ID":70535,"DIS_CODE":0,"TOWNNAME":"永康區","LI":"二王里","LIN":"33鄰","STREET":"中山南路","SECT":" ","MAREA":" ","LANE":"４９０巷","ALLEY":"２弄","HOUSE_NO":"４號","E_COORD97":172078.31,"N_COORD97":2546434.9500000002,"ADDRESS":"中山南路４９０巷２弄４號","OBJECTID":70535},"geometry":{"x":172078.31000000052,"y":2546434.9500000011}},{"attributes":{"ID":70536,"DIS_CODE":0,"TOWNNAME":"永康區","LI":"二王里","LIN":"33鄰","STREET":"中山南路","SECT":" ","MAREA":" ","LANE":"４９０巷","ALLEY":"２弄","HOUSE_NO":"８號","E_COORD97":172053.29000000001,"N_COORD97":2546410.5600000001,"ADDRESS":"中山南路４９０巷２弄８號","OBJECTID":70536},"geometry":{"x":172053.29000000097,"y":2546410.5600000005}},{"attributes":{"ID":70537,"DIS_CODE":0,"TOWNNAME":"永康區","LI":"二王里","LIN":"33鄰","STREET":"中山南路","SECT":" ","MAREA":" ","LANE":"４９０巷","ALLEY":"２弄","HOUSE_NO":"１０號","E_COORD97":172050.84,"N_COORD97":2546406.77,"ADDRESS":"中山南路４９０巷２弄１０號","OBJECTID":70537},"geometry":{"x":172050.84000000078,"y":2546406.7700000014}},{"attributes":{"ID":70538,"DIS_CODE":0,"TOWNNAME":"永康區","LI":"二王里","LIN":"33鄰","STREET":"中山南路","SECT":" ","MAREA":" ","LANE":"４９０巷","ALLEY":"２弄","HOUSE_NO":"６號地下室","E_COORD97":172072.17999999999,"N_COORD97":2546425.48,"ADDRESS":"中山南路４９０巷２弄６號地下室","OBJECTID":70538},"geometry":{"x":172072.18000000063,"y":2546425.4800000042}},{"attributes":{"ID":70539,"DIS_CODE":0,"TOWNNAME":"新市區","LI":"新和里","LIN":"33鄰","STREET":"忠孝街","SECT":" ","MAREA":" ","LANE":"２０１巷","ALLEY":"２弄","HOUSE_NO":"１２號","E_COORD97":177689.04000000001,"N_COORD97":2552880.75,"ADDRESS":"忠孝街２０１巷２弄１２號","OBJECTID":70539},"geometry":{"x":177689.04000000004,"y":2552880.75}},{"attributes":{"ID":70540,"DIS_CODE":0,"TOWNNAME":"六甲區","LI":"大丘里","LIN":"6鄰","STREET":" ","SECT":" ","MAREA":"匏子寮","LANE":" ","ALLEY":" ","HOUSE_NO":"５號","E_COORD97":191908.95000000001,"N_COORD97":2568631.9300000002,"ADDRESS":"匏子寮５號","OBJECTID":70540},"geometry":{"x":191908.95000000019,"y":2568631.9300000034}},{"attributes":{"ID":70541,"DIS_CODE":0,"TOWNNAME":"新市區","LI":"新和里","LIN":"33鄰","STREET":"忠孝街","SECT":" ","MAREA":" ","LANE":"２０１巷","ALLEY":"２弄","HOUSE_NO":"１８號","E_COORD97":177688.92999999999,"N_COORD97":2552894,"ADDRESS":"忠孝街２０１巷２弄１８號","OBJECTID":70541},"geometry":{"x":177688.9299999997,"y":2552894.0000000019}},{"attributes":{"ID":70542,"DIS_CODE":0,"TOWNNAME":"新市區","LI":"新和里","LIN":"33鄰","STREET":"忠孝街","SECT":" ","MAREA":" ","LANE":"２１８巷","ALLEY":"９弄","HOUSE_NO":"１號","E_COORD97":177759.82000000001,"N_COORD97":2552959.5,"ADDRESS":"忠孝街２１８巷９弄１號","OBJECTID":70542},"geometry":{"x":177759.8200000003,"y":2552959.5000000019}},{"attributes":{"ID":70543,"DIS_CODE":0,"TOWNNAME":"仁德區","LI":"成功里","LIN":"33鄰","STREET":"成功一街","SECT":" ","MAREA":" ","LANE":"６７巷","ALLEY":"２５弄","HOUSE_NO":"２６號","E_COORD97":170635.95999999999,"N_COORD97":2540149.0800000001,"ADDRESS":"成功一街６７巷２５弄２６號","OBJECTID":70543},"geometry":{"x":170635.96000000183,"y":2540149.0800000019}},{"attributes":{"ID":70544,"DIS_CODE":0,"TOWNNAME":"仁德區","LI":"成功里","LIN":"33鄰","STREET":"成功一街","SECT":" ","MAREA":" ","LANE":"６７巷","ALLEY":"２５弄","HOUSE_NO":"２２號","E_COORD97":170635.32999999999,"N_COORD97":2540130.3399999999,"ADDRESS":"成功一街６７巷２５弄２２號","OBJECTID":70544},"geometry":{"x":170635.33000000194,"y":2540130.3400000017}},{"attributes":{"ID":70545,"DIS_CODE":0,"TOWNNAME":"仁德區","LI":"後壁里","LIN":"33鄰","STREET":"德洋二街","SECT":" ","MAREA":" ","LANE":"３９巷","ALLEY":"１６弄","HOUSE_NO":"１０之１３號","E_COORD97":172266.06,"N_COORD97":2539510.27,"ADDRESS":"德洋二街３９巷１６弄１０之１３號","OBJECTID":70545},"geometry":{"x":172266.06000000052,"y":2539510.2700000014}},{"attributes":{"ID":70546,"DIS_CODE":0,"TOWNNAME":"仁德區","LI":"後壁里","LIN":"33鄰","STREET":"德洋二街","SECT":" ","MAREA":" ","LANE":"３９巷","ALLEY":"１６弄","HOUSE_NO":"１０之７號","E_COORD97":172292.56,"N_COORD97":2539526.0099999998,"ADDRESS":"德洋二街３９巷１６弄１０之７號","OBJECTID":70546},"geometry":{"x":172292.55999999959,"y":2539526.0100000016}},{"attributes":{"ID":70547,"DIS_CODE":0,"TOWNNAME":"仁德區","LI":"成功里","LIN":"33鄰","STREET":"成功一街","SECT":" ","MAREA":" ","LANE":"６７巷","ALLEY":"２５弄","HOUSE_NO":"２０號","E_COORD97":170635.14000000001,"N_COORD97":2540123.0899999999,"ADDRESS":"成功一街６７巷２５弄２０號","OBJECTID":70547},"geometry":{"x":170635.1400000006,"y":2540123.0899999999}},{"attributes":{"ID":70548,"DIS_CODE":0,"TOWNNAME":"仁德區","LI":"後壁里","LIN":"33鄰","STREET":"德洋二街","SECT":" ","MAREA":" ","LANE":"３９巷","ALLEY":"１６弄","HOUSE_NO":"１０之８號","E_COORD97":172288.14000000001,"N_COORD97":2539525.7599999998,"ADDRESS":"德洋二街３９巷１６弄１０之８號","OBJECTID":70548},"geometry":{"x":172288.13999999966,"y":2539525.7599999998}},{"attributes":{"ID":70549,"DIS_CODE":0,"TOWNNAME":"仁德區","LI":"後壁里","LIN":"33鄰","STREET":"德洋二街","SECT":" ","MAREA":" ","LANE":"３９巷","ALLEY":"１６弄","HOUSE_NO":"１０之５號","E_COORD97":172290.87,"N_COORD97":2539512.02,"ADDRESS":"德洋二街３９巷１６弄１０之５號","OBJECTID":70549},"geometry":{"x":172290.87000000011,"y":2539512.0200000014}},{"attributes":{"ID":70550,"DIS_CODE":0,"TOWNNAME":"仁德區","LI":"後壁里","LIN":"33鄰","STREET":"德洋二街","SECT":" ","MAREA":" ","LANE":"３９巷","ALLEY":"１６弄","HOUSE_NO":"１０之９號","E_COORD97":172280.09,"N_COORD97":2539525.0099999998,"ADDRESS":"德洋二街３９巷１６弄１０之９號","OBJECTID":70550},"geometry":{"x":172280.09000000078,"y":2539525.0100000035}},{"attributes":{"ID":70551,"DIS_CODE":0,"TOWNNAME":"仁德區","LI":"後壁里","LIN":"33鄰","STREET":"德洋二街","SECT":" ","MAREA":" ","LANE":"３９巷","ALLEY":"１６弄","HOUSE_NO":"１４號","E_COORD97":172253.26000000001,"N_COORD97":2539491.02,"ADDRESS":"德洋二街３９巷１６弄１４號","OBJECTID":70551},"geometry":{"x":172253.26000000071,"y":2539491.0200000014}},{"attributes":{"ID":70552,"DIS_CODE":0,"TOWNNAME":"仁德區","LI":"後壁里","LIN":"33鄰","STREET":"德洋二街","SECT":" ","MAREA":" ","LANE":"３９巷","ALLEY":"１６弄","HOUSE_NO":"１０之１５號","E_COORD97":172280.13,"N_COORD97":2539500.2999999998,"ADDRESS":"德洋二街３９巷１６弄１０之１５號","OBJECTID":70552},"geometry":{"x":172280.12999999989,"y":2539500.3000000045}},{"attributes":{"ID":70553,"DIS_CODE":0,"TOWNNAME":"東區","LI":"東聖里","LIN":"7鄰","STREET":"中華東路","SECT":"二段","MAREA":" ","LANE":"７３巷","ALLEY":" ","HOUSE_NO":"３２號","E_COORD97":171518.79999999999,"N_COORD97":2542973.8399999999,"ADDRESS":"中華東路二段７３巷３２號","OBJECTID":70553},"geometry":{"x":171518.80000000075,"y":2542973.8399999999}},{"attributes":{"ID":70554,"DIS_CODE":0,"TOWNNAME":"六甲區","LI":"甲東里","LIN":"8鄰","STREET":"曾文街","SECT":" ","MAREA":" ","LANE":" ","ALLEY":" ","HOUSE_NO":"４８之２號","E_COORD97":183997.14000000001,"N_COORD97":2570227.5800000001,"ADDRESS":"曾文街４８之２號","OBJECTID":70554},"geometry":{"x":183997.13999999966,"y":2570227.5800000001}},{"attributes":{"ID":70555,"DIS_CODE":0,"TOWNNAME":"六甲區","LI":"甲東里","LIN":"8鄰","STREET":"曾文街","SECT":" ","MAREA":" ","LANE":" ","ALLEY":" ","HOUSE_NO":"４８號之３","E_COORD97":184001.42000000001,"N_COORD97":2570227.77,"ADDRESS":"曾文街４８號之３","OBJECTID":70555},"geometry":{"x":184001.42000000086,"y":2570227.7700000014}},{"attributes":{"ID":70556,"DIS_CODE":0,"TOWNNAME":"六甲區","LI":"甲東里","LIN":"8鄰","STREET":"曾文街","SECT":" ","MAREA":" ","LANE":" ","ALLEY":" ","HOUSE_NO":"４８號之５","E_COORD97":184005.70999999999,"N_COORD97":2570227.4300000002,"ADDRESS":"曾文街４８號之５","OBJECTID":70556},"geometry":{"x":184005.70999999996,"y":2570227.4299999997}},{"attributes":{"ID":70557,"DIS_CODE":0,"TOWNNAME":"六甲區","LI":"甲東里","LIN":"8鄰","STREET":"曾文街","SECT":" ","MAREA":" ","LANE":" ","ALLEY":" ","HOUSE_NO":"４８之６號","E_COORD97":184017.44,"N_COORD97":2570232.4700000002,"ADDRESS":"曾文街４８之６號","OBJECTID":70557},"geometry":{"x":184017.44000000134,"y":2570232.4700000007}},{"attributes":{"ID":70558,"DIS_CODE":0,"TOWNNAME":"六甲區","LI":"甲東里","LIN":"8鄰","STREET":"曾文街","SECT":" ","MAREA":" ","LANE":" ","ALLEY":" ","HOUSE_NO":"４８號","E_COORD97":183988.70999999999,"N_COORD97":2570228,"ADDRESS":"曾文街４８號","OBJECTID":70558},"geometry":{"x":183988.70999999996,"y":2570228}},{"attributes":{"ID":70559,"DIS_CODE":0,"TOWNNAME":"仁德區","LI":"後壁里","LIN":"33鄰","STREET":"德洋二街","SECT":" ","MAREA":" ","LANE":"３９巷","ALLEY":"１６弄","HOUSE_NO":"１０之１０號","E_COORD97":172276.48000000001,"N_COORD97":2539525.0099999998,"ADDRESS":"德洋二街３９巷１６弄１０之１０號","OBJECTID":70559},"geometry":{"x":172276.48000000045,"y":2539525.0100000035}},{"attributes":{"ID":70560,"DIS_CODE":0,"TOWNNAME":"仁德區","LI":"後壁里","LIN":"33鄰","STREET":"德洋二街","SECT":" ","MAREA":" ","LANE":"３９巷","ALLEY":"７弄","HOUSE_NO":"１８號","E_COORD97":172351.85000000001,"N_COORD97":2539382.77,"ADDRESS":"德洋二街３９巷７弄１８號","OBJECTID":70560},"geometry":{"x":172351.85000000149,"y":2539382.7699999996}},{"attributes":{"ID":70561,"DIS_CODE":0,"TOWNNAME":"仁德區","LI":"後壁里","LIN":"33鄰","STREET":"德洋二街","SECT":" ","MAREA":" ","LANE":"３９巷","ALLEY":"７弄","HOUSE_NO":"２號","E_COORD97":172355.20000000001,"N_COORD97":2539417.2599999998,"ADDRESS":"德洋二街３９巷７弄２號","OBJECTID":70561},"geometry":{"x":172355.20000000205,"y":2539417.2599999998}},{"attributes":{"ID":70562,"DIS_CODE":0,"TOWNNAME":"仁德區","LI":"後壁里","LIN":"33鄰","STREET":"德洋二街","SECT":" ","MAREA":" ","LANE":"３９巷","ALLEY":"７弄","HOUSE_NO":"１號","E_COORD97":172364.76000000001,"N_COORD97":2539416.0099999998,"ADDRESS":"德洋二街３９巷７弄１號","OBJECTID":70562},"geometry":{"x":172364.76000000071,"y":2539416.0099999998}},{"attributes":{"ID":70563,"DIS_CODE":0,"TOWNNAME":"新市區","LI":"大營里","LIN":"7鄰","STREET":" ","SECT":" ","MAREA":"大營","LANE":" ","ALLEY":" ","HOUSE_NO":"１５６之１３號","E_COORD97":179526.26999999999,"N_COORD97":2555470.29,"ADDRESS":"大營１５６之１３號","OBJECTID":70563},"geometry":{"x":179526.26999999862,"y":2555470.2899999991}},{"attributes":{"ID":70564,"DIS_CODE":0,"TOWNNAME":"新市區","LI":"三舍里","LIN":"7鄰","STREET":" ","SECT":" ","MAREA":"三舍","LANE":" ","ALLEY":" ","HOUSE_NO":"１６４之７號","E_COORD97":177726.39999999999,"N_COORD97":2554550.2999999998,"ADDRESS":"三舍１６４之７號","OBJECTID":70564},"geometry":{"x":177726.4000000013,"y":2554550.3000000045}},{"attributes":{"ID":70565,"DIS_CODE":0,"TOWNNAME":"仁德區","LI":"後壁里","LIN":"33鄰","STREET":"德洋二街","SECT":" ","MAREA":" ","LANE":"３９巷","ALLEY":"７弄","HOUSE_NO":"５號","E_COORD97":172363.85000000001,"N_COORD97":2539407.52,"ADDRESS":"德洋二街３９巷７弄５號","OBJECTID":70565},"geometry":{"x":172363.85000000149,"y":2539407.5200000014}},{"attributes":{"ID":70566,"DIS_CODE":0,"TOWNNAME":"新市區","LI":"新和里","LIN":"33鄰","STREET":"忠孝街","SECT":" ","MAREA":" ","LANE":"２０１巷","ALLEY":"２弄","HOUSE_NO":"２０號","E_COORD97":177688.84,"N_COORD97":2552898.25,"ADDRESS":"忠孝街２０１巷２弄２０號","OBJECTID":70566},"geometry":{"x":177688.84000000078,"y":2552898.25}},{"attributes":{"ID":70567,"DIS_CODE":0,"TOWNNAME":"白河區","LI":"昇安里","LIN":"7鄰","STREET":" ","SECT":" ","MAREA":"三間厝","LANE":" ","ALLEY":" ","HOUSE_NO":"９１號","E_COORD97":192100.82000000001,"N_COORD97":2584683.5600000001,"ADDRESS":"三間厝９１號","OBJECTID":70567},"geometry":{"x":192100.82000000123,"y":2584683.5600000005}},{"attributes":{"ID":70568,"DIS_CODE":0,"TOWNNAME":"官田區","LI":"湖山里","LIN":"6鄰","STREET":" ","SECT":" ","MAREA":"烏山頭","LANE":" ","ALLEY":" ","HOUSE_NO":"３２號","E_COORD97":183244.01000000001,"N_COORD97":2567714.6099999999,"ADDRESS":"烏山頭３２號","OBJECTID":70568},"geometry":{"x":183244.00999999978,"y":2567714.6099999975}},{"attributes":{"ID":70569,"DIS_CODE":0,"TOWNNAME":"官田區","LI":"湖山里","LIN":"6鄰","STREET":" ","SECT":" ","MAREA":"烏山頭","LANE":" ","ALLEY":" ","HOUSE_NO":"３３號","E_COORD97":183269.32000000001,"N_COORD97":2567680.79,"ADDRESS":"烏山頭３３號","OBJECTID":70569},"geometry":{"x":183269.3200000003,"y":2567680.790000001}},{"attributes":{"ID":70570,"DIS_CODE":0,"TOWNNAME":"白河區","LI":"昇安里","LIN":"6鄰","STREET":" ","SECT":" ","MAREA":"三間厝","LANE":" ","ALLEY":" ","HOUSE_NO":"７３號","E_COORD97":191967.39999999999,"N_COORD97":2584724.6200000001,"ADDRESS":"三間厝７３號","OBJECTID":70570},"geometry":{"x":191967.40000000224,"y":2584724.620000001}},{"attributes":{"ID":70571,"DIS_CODE":0,"TOWNNAME":"新市區","LI":"新和里","LIN":"33鄰","STREET":"忠孝街","SECT":" ","MAREA":" ","LANE":"２０１巷","ALLEY":"２弄","HOUSE_NO":"２號","E_COORD97":177686.79000000001,"N_COORD97":2552859.5,"ADDRESS":"忠孝街２０１巷２弄２號","OBJECTID":70571},"geometry":{"x":177686.79000000004,"y":2552859.5000000037}},{"attributes":{"ID":70572,"DIS_CODE":0,"TOWNNAME":"新市區","LI":"新和里","LIN":"33鄰","STREET":"忠孝街","SECT":" ","MAREA":" ","LANE":"２１８巷","ALLEY":"９弄","HOUSE_NO":"７號","E_COORD97":177777.64000000001,"N_COORD97":2552962,"ADDRESS":"忠孝街２１８巷９弄７號","OBJECTID":70572},"geometry":{"x":177777.63999999966,"y":2552962.0000000019}},{"attributes":{"ID":70573,"DIS_CODE":0,"TOWNNAME":"新市區","LI":"新和里","LIN":"33鄰","STREET":"忠孝街","SECT":" ","MAREA":" ","LANE":"２０１巷","ALLEY":"２弄","HOUSE_NO":"２２號","E_COORD97":177689.23000000001,"N_COORD97":2552903.5,"ADDRESS":"忠孝街２０１巷２弄２２號","OBJECTID":70573},"geometry":{"x":177689.23000000045,"y":2552903.4999999981}},{"attributes":{"ID":70574,"DIS_CODE":0,"TOWNNAME":"新市區","LI":"新和里","LIN":"33鄰","STREET":"忠孝街","SECT":" ","MAREA":" ","LANE":"２０１巷","ALLEY":"２弄","HOUSE_NO":"８號","E_COORD97":177687.17999999999,"N_COORD97":2552872.5,"ADDRESS":"忠孝街２０１巷２弄８號","OBJECTID":70574},"geometry":{"x":177687.1799999997,"y":2552872.5}},{"attributes":{"ID":70575,"DIS_CODE":0,"TOWNNAME":"新市區","LI":"新和里","LIN":"33鄰","STREET":"忠孝街","SECT":" ","MAREA":" ","LANE":"２０１巷","ALLEY":"２弄","HOUSE_NO":"１６號","E_COORD97":177689.04000000001,"N_COORD97":2552889.75,"ADDRESS":"忠孝街２０１巷２弄１６號","OBJECTID":70575},"geometry":{"x":177689.04000000004,"y":2552889.7500000019}},{"attributes":{"ID":70576,"DIS_CODE":0,"TOWNNAME":"新市區","LI":"新和里","LIN":"33鄰","STREET":"忠孝街","SECT":" ","MAREA":" ","LANE":"２０１巷","ALLEY":"２弄","HOUSE_NO":"１５號","E_COORD97":177673.45000000001,"N_COORD97":2552894,"ADDRESS":"忠孝街２０１巷２弄１５號","OBJECTID":70576},"geometry":{"x":177673.45000000112,"y":2552894.0000000019}},{"attributes":{"ID":70577,"DIS_CODE":0,"TOWNNAME":"仁德區","LI":"上崙里","LIN":"10鄰","STREET":"德善路","SECT":" ","MAREA":" ","LANE":"３０５巷","ALLEY":"１３弄","HOUSE_NO":"１６４號","E_COORD97":174072.95000000001,"N_COORD97":2538273.5699999998,"ADDRESS":"德善路３０５巷１３弄１６４號","OBJECTID":70577},"geometry":{"x":174072.95000000112,"y":2538273.5700000003}},{"attributes":{"ID":70578,"DIS_CODE":0,"TOWNNAME":"仁德區","LI":"上崙里","LIN":"10鄰","STREET":"德善路","SECT":" ","MAREA":" ","LANE":"３０５巷","ALLEY":"１３弄","HOUSE_NO":"１４１號","E_COORD97":174083.04000000001,"N_COORD97":2538326.7200000002,"ADDRESS":"德善路３０５巷１３弄１４１號","OBJECTID":70578},"geometry":{"x":174083.04000000004,"y":2538326.7200000007}},{"attributes":{"ID":70579,"DIS_CODE":0,"TOWNNAME":"仁德區","LI":"上崙里","LIN":"10鄰","STREET":"德善路","SECT":" ","MAREA":" ","LANE":"３０５巷","ALLEY":"１３弄","HOUSE_NO":"１２１號","E_COORD97":174078.54000000001,"N_COORD97":2538342.9700000002,"ADDRESS":"德善路３０５巷１３弄１２１號","OBJECTID":70579},"geometry":{"x":174078.5400000019,"y":2538342.9700000044}},{"attributes":{"ID":70580,"DIS_CODE":0,"TOWNNAME":"仁德區","LI":"仁義里","LIN":"10鄰","STREET":"仁義一街","SECT":" ","MAREA":" ","LANE":"７６巷","ALLEY":"１弄","HOUSE_NO":"２號","E_COORD97":173491.5,"N_COORD97":2541157.1800000002,"ADDRESS":"仁義一街７６巷１弄２號","OBJECTID":70580},"geometry":{"x":173491.5,"y":2541157.1799999997}},{"attributes":{"ID":70581,"DIS_CODE":0,"TOWNNAME":"仁德區","LI":"仁義里","LIN":"10鄰","STREET":"仁義一街","SECT":" ","MAREA":" ","LANE":"７６巷","ALLEY":"１弄","HOUSE_NO":"６號","E_COORD97":173507.51999999999,"N_COORD97":2541157.9300000002,"ADDRESS":"仁義一街７６巷１弄６號","OBJECTID":70581},"geometry":{"x":173507.52000000048,"y":2541157.9299999997}},{"attributes":{"ID":70582,"DIS_CODE":0,"TOWNNAME":"新市區","LI":"新和里","LIN":"33鄰","STREET":"忠孝街","SECT":" ","MAREA":" ","LANE":"２１８巷","ALLEY":"９弄","HOUSE_NO":"３號","E_COORD97":177765.85000000001,"N_COORD97":2552960.25,"ADDRESS":"忠孝街２１８巷９弄３號","OBJECTID":70582},"geometry":{"x":177765.84999999963,"y":2552960.2500000019}},{"attributes":{"ID":70583,"DIS_CODE":0,"TOWNNAME":"新市區","LI":"新和里","LIN":"33鄰","STREET":"忠孝街","SECT":" ","MAREA":" ","LANE":"２１８巷","ALLEY":"９弄","HOUSE_NO":"９號","E_COORD97":177783.04000000001,"N_COORD97":2552962.25,"ADDRESS":"忠孝街２１８巷９弄９號","OBJECTID":70583},"geometry":{"x":177783.04000000097,"y":2552962.25}},{"attributes":{"ID":70584,"DIS_CODE":0,"TOWNNAME":"新市區","LI":"新和里","LIN":"33鄰","STREET":"忠孝街","SECT":" ","MAREA":" ","LANE":"２０１巷","ALLEY":"２弄","HOUSE_NO":"４號","E_COORD97":177686.92999999999,"N_COORD97":2552864,"ADDRESS":"忠孝街２０１巷２弄４號","OBJECTID":70584},"geometry":{"x":177686.93000000063,"y":2552864.0000000019}},{"attributes":{"ID":70585,"DIS_CODE":0,"TOWNNAME":"新市區","LI":"新和里","LIN":"33鄰","STREET":"忠孝街","SECT":" ","MAREA":" ","LANE":"２０１巷","ALLEY":"２弄","HOUSE_NO":"６號","E_COORD97":177686.92999999999,"N_COORD97":2552868.5,"ADDRESS":"忠孝街２０１巷２弄６號","OBJECTID":70585},"geometry":{"x":177686.93000000063,"y":2552868.5}},{"attributes":{"ID":70586,"DIS_CODE":0,"TOWNNAME":"新市區","LI":"新和里","LIN":"33鄰","STREET":"忠孝街","SECT":" ","MAREA":" ","LANE":"２１８巷","ALLEY":"９弄","HOUSE_NO":"５號","E_COORD97":177771.45000000001,"N_COORD97":2552961,"ADDRESS":"忠孝街２１８巷９弄５號","OBJECTID":70586},"geometry":{"x":177771.45000000205,"y":2552961}},{"attributes":{"ID":70587,"DIS_CODE":0,"TOWNNAME":"新市區","LI":"新和里","LIN":"33鄰","STREET":"忠孝街","SECT":" ","MAREA":" ","LANE":"２０１巷","ALLEY":"２弄","HOUSE_NO":"１０號","E_COORD97":177688.42999999999,"N_COORD97":2552876.75,"ADDRESS":"忠孝街２０１巷２弄１０號","OBJECTID":70587},"geometry":{"x":177688.43000000063,"y":2552876.75}},{"attributes":{"ID":70588,"DIS_CODE":0,"TOWNNAME":"新市區","LI":"新和里","LIN":"33鄰","STREET":"忠孝街","SECT":" ","MAREA":" ","LANE":"２０１巷","ALLEY":"２弄","HOUSE_NO":"２４號","E_COORD97":177689.67999999999,"N_COORD97":2552913.5,"ADDRESS":"忠孝街２０１巷２弄２４號","OBJECTID":70588},"geometry":{"x":177689.68000000156,"y":2552913.5}},{"attributes":{"ID":70589,"DIS_CODE":0,"TOWNNAME":"新市區","LI":"新和里","LIN":"33鄰","STREET":"忠孝街","SECT":" ","MAREA":" ","LANE":"２０１巷","ALLEY":"２弄","HOUSE_NO":"１７號","E_COORD97":177673.98000000001,"N_COORD97":2552902.75,"ADDRESS":"忠孝街２０１巷２弄１７號","OBJECTID":70589},"geometry":{"x":177673.98000000045,"y":2552902.7500000019}},{"attributes":{"ID":70590,"DIS_CODE":0,"TOWNNAME":"永康區","LI":"\u25A0行里","LIN":"33鄰","STREET":"中正北路","SECT":" ","MAREA":" ","LANE":"１９巷","ALLEY":"２弄","HOUSE_NO":"１號","E_COORD97":171946.42000000001,"N_COORD97":2549143.6800000002,"ADDRESS":"中正北路１９巷２弄１號","OBJECTID":70590},"geometry":{"x":171946.41999999993,"y":2549143.6800000016}},{"attributes":{"ID":70591,"DIS_CODE":0,"TOWNNAME":"永康區","LI":"\u25A0行里","LIN":"33鄰","STREET":"中正北路","SECT":" ","MAREA":" ","LANE":"１９巷","ALLEY":"２弄","HOUSE_NO":"３號","E_COORD97":171952.70999999999,"N_COORD97":2549141.1299999999,"ADDRESS":"中正北路１９巷２弄３號","OBJECTID":70591},"geometry":{"x":171952.70999999996,"y":2549141.129999999}},{"attributes":{"ID":70592,"DIS_CODE":0,"TOWNNAME":"永康區","LI":"\u25A0行里","LIN":"33鄰","STREET":"中正北路","SECT":" ","MAREA":" ","LANE":"１９巷","ALLEY":"２弄","HOUSE_NO":"５號","E_COORD97":171956.32000000001,"N_COORD97":2549138.4399999999,"ADDRESS":"中正北路１９巷２弄５號","OBJECTID":70592},"geometry":{"x":171956.32000000123,"y":2549138.4400000013}},{"attributes":{"ID":70593,"DIS_CODE":0,"TOWNNAME":"永康區","LI":"三民里","LIN":"7鄰","STREET":"三民街","SECT":" ","MAREA":" ","LANE":" ","ALLEY":" ","HOUSE_NO":"１３４號之１","E_COORD97":172800.60999999999,"N_COORD97":2550358.8599999999,"ADDRESS":"三民街１３４號之１","OBJECTID":70593},"geometry":{"x":172800.61000000127,"y":2550358.8600000013}},{"attributes":{"ID":70594,"DIS_CODE":0,"TOWNNAME":"永康區","LI":"三民里","LIN":"7鄰","STREET":"三民街","SECT":" ","MAREA":" ","LANE":" ","ALLEY":" ","HOUSE_NO":"１４０號","E_COORD97":172781.34,"N_COORD97":2550369.5099999998,"ADDRESS":"三民街１４０號","OBJECTID":70594},"geometry":{"x":172781.34000000078,"y":2550369.5099999998}},{"attributes":{"ID":70595,"DIS_CODE":0,"TOWNNAME":"永康區","LI":"復興里","LIN":"7鄰","STREET":"復興路","SECT":" ","MAREA":" ","LANE":" ","ALLEY":" ","HOUSE_NO":"３６９號","E_COORD97":172166.81,"N_COORD97":2544312.7200000002,"ADDRESS":"復興路３６９號","OBJECTID":70595},"geometry":{"x":172166.80999999959,"y":2544312.7200000025}},{"attributes":{"ID":70596,"DIS_CODE":0,"TOWNNAME":"永康區","LI":"復興里","LIN":"7鄰","STREET":"復興路","SECT":" ","MAREA":" ","LANE":" ","ALLEY":" ","HOUSE_NO":"３５７號","E_COORD97":172184.10000000001,"N_COORD97":2544314.02,"ADDRESS":"復興路３５７號","OBJECTID":70596},"geometry":{"x":172184.10000000149,"y":2544314.0199999996}},{"attributes":{"ID":70597,"DIS_CODE":0,"TOWNNAME":"永康區","LI":"復興里","LIN":"7鄰","STREET":"復興路","SECT":" ","MAREA":" ","LANE":" ","ALLEY":" ","HOUSE_NO":"３６１號","E_COORD97":172177.45999999999,"N_COORD97":2544313.27,"ADDRESS":"復興路３６１號","OBJECTID":70597},"geometry":{"x":172177.46000000089,"y":2544313.2699999977}},{"attributes":{"ID":70598,"DIS_CODE":0,"TOWNNAME":"白河區","LI":"昇安里","LIN":"6鄰","STREET":" ","SECT":" ","MAREA":"三間厝","LANE":" ","ALLEY":" ","HOUSE_NO":"７７號","E_COORD97":191987.34,"N_COORD97":2584703.52,"ADDRESS":"三間厝７７號","OBJECTID":70598},"geometry":{"x":191987.33999999985,"y":2584703.5199999996}},{"attributes":{"ID":70599,"DIS_CODE":0,"TOWNNAME":"官田區","LI":"南\u25A0里","LIN":"7鄰","STREET":" ","SECT":" ","MAREA":"南\u25A0","LANE":" ","ALLEY":" ","HOUSE_NO":"８８號","E_COORD97":179056.20000000001,"N_COORD97":2568201.04,"ADDRESS":"南\u25A0８８號","OBJECTID":70599},"geometry":{"x":179056.19999999925,"y":2568201.040000001}},{"attributes":{"ID":70600,"DIS_CODE":0,"TOWNNAME":"白河區","LI":"秀祐里","LIN":"7鄰","STREET":" ","SECT":" ","MAREA":"下秀祐","LANE":" ","ALLEY":" ","HOUSE_NO":"３０之１８號","E_COORD97":188279.5,"N_COORD97":2582819.29,"ADDRESS":"下秀祐３０之１８號","OBJECTID":70600},"geometry":{"x":188279.50000000093,"y":2582819.2899999991}}]}