{"displayFieldName":"TOWNNAME","fieldAliases":{"ID":"ID","DIS_CODE":"DIS_CODE","TOWNNAME":"TOWNNAME","LI":"LI","LIN":"LIN","STREET":"STREET","SECT":"SECT","MAREA":"MAREA","LANE":"LANE","ALLEY":"ALLEY","HOUSE_NO":"HOUSE_NO","E_COORD97":"E_COORD97","N_COORD97":"N_COORD97","ADDRESS":"ADDRESS","OBJECTID":"OBJECTID"},"geometryType":"esriGeometryPoint","spatialReference":{"wkid":102443,"latestWkid":3826},"fields":[{"name":"ID","type":"esriFieldTypeDouble","alias":"ID"},{"name":"DIS_CODE","type":"esriFieldTypeInteger","alias":"DIS_CODE"},{"name":"TOWNNAME","type":"esriFieldTypeString","alias":"TOWNNAME","length":8},{"name":"LI","type":"esriFieldTypeString","alias":"LI","length":8},{"name":"LIN","type":"esriFieldTypeString","alias":"LIN","length":12},{"name":"STREET","type":"esriFieldTypeString","alias":"STREET","length":20},{"name":"SECT","type":"esriFieldTypeString","alias":"SECT","length":8},{"name":"MAREA","type":"esriFieldTypeString","alias":"MAREA","length":12},{"name":"LANE","type":"esriFieldTypeString","alias":"LANE","length":10},{"name":"ALLEY","type":"esriFieldTypeString","alias":"ALLEY","length":10},{"name":"HOUSE_NO","type":"esriFieldTypeString","alias":"HOUSE_NO","length":20},{"name":"E_COORD97","type":"esriFieldTypeDouble","alias":"E_COORD97"},{"name":"N_COORD97","type":"esriFieldTypeDouble","alias":"N_COORD97"},{"name":"ADDRESS","type":"esriFieldTypeString","alias":"ADDRESS","length":50},{"name":"OBJECTID","type":"esriFieldTypeOID","alias":"OBJECTID"}],"features":[{"attributes":{"ID":359611,"DIS_CODE":0,"TOWNNAME":"東區","LI":"圍下里","LIN":"19鄰","STREET":"慶東街","SECT":" ","MAREA":" ","LANE":"１２７巷","ALLEY":" ","HOUSE_NO":"１４號四樓","E_COORD97":169594.54999999999,"N_COORD97":2543394.54,"ADDRESS":"慶東街１２７巷１４號四樓","OBJECTID":359601},"geometry":{"x":169594.55000000075,"y":2543394.5399999991}},{"attributes":{"ID":359612,"DIS_CODE":0,"TOWNNAME":"東區","LI":"圍下里","LIN":"19鄰","STREET":"慶東街","SECT":" ","MAREA":" ","LANE":"１２７巷","ALLEY":" ","HOUSE_NO":"１４號五樓","E_COORD97":169594.54999999999,"N_COORD97":2543394.54,"ADDRESS":"慶東街１２７巷１４號五樓","OBJECTID":359602},"geometry":{"x":169594.55000000075,"y":2543394.5399999991}},{"attributes":{"ID":359613,"DIS_CODE":0,"TOWNNAME":"中西區","LI":"仙草里","LIN":"19鄰","STREET":"健康路","SECT":"一段","MAREA":" ","LANE":"３９０巷","ALLEY":" ","HOUSE_NO":"８號七樓之６","E_COORD97":167854.67999999999,"N_COORD97":2542487.8599999999,"ADDRESS":"健康路一段３９０巷８號七樓之６","OBJECTID":359603},"geometry":{"x":167854.68000000063,"y":2542487.8599999994}},{"attributes":{"ID":359614,"DIS_CODE":0,"TOWNNAME":"官田區","LI":"隆本里","LIN":"25鄰","STREET":"信義街","SECT":"二段","MAREA":" ","LANE":"６７巷","ALLEY":" ","HOUSE_NO":"３０號","E_COORD97":179678.19,"N_COORD97":2566055.2999999998,"ADDRESS":"信義街二段６７巷３０號","OBJECTID":359604},"geometry":{"x":179678.19000000041,"y":2566055.3000000026}},{"attributes":{"ID":359615,"DIS_CODE":0,"TOWNNAME":"中西區","LI":"仙草里","LIN":"19鄰","STREET":"健康路","SECT":"一段","MAREA":" ","LANE":"３９０巷","ALLEY":" ","HOUSE_NO":"８號五樓之１","E_COORD97":167854.67999999999,"N_COORD97":2542487.8599999999,"ADDRESS":"健康路一段３９０巷８號五樓之１","OBJECTID":359605},"geometry":{"x":167854.68000000063,"y":2542487.8599999994}},{"attributes":{"ID":359616,"DIS_CODE":0,"TOWNNAME":"中西區","LI":"仙草里","LIN":"19鄰","STREET":"健康路","SECT":"一段","MAREA":" ","LANE":"３９０巷","ALLEY":" ","HOUSE_NO":"８號四樓之６","E_COORD97":167854.67999999999,"N_COORD97":2542487.8599999999,"ADDRESS":"健康路一段３９０巷８號四樓之６","OBJECTID":359606},"geometry":{"x":167854.68000000063,"y":2542487.8599999994}},{"attributes":{"ID":359617,"DIS_CODE":0,"TOWNNAME":"北門區","LI":"保吉里","LIN":"25鄰","STREET":" ","SECT":" ","MAREA":"海埔","LANE":" ","ALLEY":" ","HOUSE_NO":"１之１０１號","E_COORD97":158647.20999999999,"N_COORD97":2576840.5699999998,"ADDRESS":"海埔１之１０１號","OBJECTID":359607},"geometry":{"x":158647.20999999996,"y":2576840.5700000022}},{"attributes":{"ID":359618,"DIS_CODE":0,"TOWNNAME":"北門區","LI":"保吉里","LIN":"25鄰","STREET":" ","SECT":" ","MAREA":"海埔","LANE":" ","ALLEY":" ","HOUSE_NO":"１之１０２號","E_COORD97":158553.63,"N_COORD97":2576983.5800000001,"ADDRESS":"海埔１之１０２號","OBJECTID":359608},"geometry":{"x":158553.63000000082,"y":2576983.5800000001}},{"attributes":{"ID":359619,"DIS_CODE":0,"TOWNNAME":"北門區","LI":"保吉里","LIN":"25鄰","STREET":" ","SECT":" ","MAREA":"海埔","LANE":" ","ALLEY":" ","HOUSE_NO":"１號之１１５","E_COORD97":158682.67000000001,"N_COORD97":2575924.1200000001,"ADDRESS":"海埔１號之１１５","OBJECTID":359609},"geometry":{"x":158682.66999999993,"y":2575924.120000001}},{"attributes":{"ID":359620,"DIS_CODE":0,"TOWNNAME":"北門區","LI":"保吉里","LIN":"25鄰","STREET":" ","SECT":" ","MAREA":"海埔","LANE":" ","ALLEY":" ","HOUSE_NO":"１之１７７號","E_COORD97":158986.28,"N_COORD97":2576825.04,"ADDRESS":"海埔１之１７７號","OBJECTID":359610},"geometry":{"x":158986.28000000026,"y":2576825.0400000028}},{"attributes":{"ID":359621,"DIS_CODE":0,"TOWNNAME":"北門區","LI":"保吉里","LIN":"25鄰","STREET":" ","SECT":" ","MAREA":"海埔","LANE":" ","ALLEY":" ","HOUSE_NO":"１之１８６號","E_COORD97":159417.39000000001,"N_COORD97":2575787.52,"ADDRESS":"海埔１之１８６號","OBJECTID":359611},"geometry":{"x":159417.39000000153,"y":2575787.5199999996}},{"attributes":{"ID":359622,"DIS_CODE":0,"TOWNNAME":"北門區","LI":"保吉里","LIN":"25鄰","STREET":" ","SECT":" ","MAREA":"蚵寮","LANE":" ","ALLEY":" ","HOUSE_NO":"４９４號","E_COORD97":161503,"N_COORD97":2576311.04,"ADDRESS":"蚵寮４９４號","OBJECTID":359612},"geometry":{"x":161503,"y":2576311.040000001}},{"attributes":{"ID":359623,"DIS_CODE":0,"TOWNNAME":"北門區","LI":"保吉里","LIN":"25鄰","STREET":" ","SECT":" ","MAREA":"蚵寮","LANE":" ","ALLEY":" ","HOUSE_NO":"４９７之１號","E_COORD97":161490.89000000001,"N_COORD97":2576340.6499999999,"ADDRESS":"蚵寮４９７之１號","OBJECTID":359613},"geometry":{"x":161490.8900000006,"y":2576340.6500000041}},{"attributes":{"ID":359624,"DIS_CODE":0,"TOWNNAME":"北門區","LI":"保吉里","LIN":"25鄰","STREET":" ","SECT":" ","MAREA":"蚵寮","LANE":" ","ALLEY":" ","HOUSE_NO":"４９７號","E_COORD97":161468.20999999999,"N_COORD97":2576327.1000000001,"ADDRESS":"蚵寮４９７號","OBJECTID":359614},"geometry":{"x":161468.20999999996,"y":2576327.1000000015}},{"attributes":{"ID":359625,"DIS_CODE":0,"TOWNNAME":"北門區","LI":"保吉里","LIN":"25鄰","STREET":" ","SECT":" ","MAREA":"蚵寮","LANE":" ","ALLEY":" ","HOUSE_NO":"５０１號","E_COORD97":161485.13,"N_COORD97":2576350.1299999999,"ADDRESS":"蚵寮５０１號","OBJECTID":359615},"geometry":{"x":161485.12999999989,"y":2576350.1300000008}},{"attributes":{"ID":359626,"DIS_CODE":0,"TOWNNAME":"北門區","LI":"保吉里","LIN":"25鄰","STREET":" ","SECT":" ","MAREA":"蚵寮","LANE":" ","ALLEY":" ","HOUSE_NO":"５０２號","E_COORD97":161481.10000000001,"N_COORD97":2576360.1099999999,"ADDRESS":"蚵寮５０２號","OBJECTID":359616},"geometry":{"x":161481.10000000056,"y":2576360.1099999975}},{"attributes":{"ID":359627,"DIS_CODE":0,"TOWNNAME":"中西區","LI":"三民里","LIN":"19鄰","STREET":"忠義路","SECT":"二段","MAREA":" ","LANE":"１５８巷","ALLEY":" ","HOUSE_NO":"６２號一樓之１","E_COORD97":168491.85999999999,"N_COORD97":2544012.0299999998,"ADDRESS":"忠義路二段１５８巷６２號一樓之１","OBJECTID":359617},"geometry":{"x":168491.86000000034,"y":2544012.0299999993}},{"attributes":{"ID":359628,"DIS_CODE":0,"TOWNNAME":"官田區","LI":"隆本里","LIN":"25鄰","STREET":"信義街","SECT":"二段","MAREA":" ","LANE":"４１巷","ALLEY":" ","HOUSE_NO":"１３號","E_COORD97":179677.67000000001,"N_COORD97":2565971.2400000002,"ADDRESS":"信義街二段４１巷１３號","OBJECTID":359618},"geometry":{"x":179677.66999999993,"y":2565971.2400000002}},{"attributes":{"ID":359629,"DIS_CODE":0,"TOWNNAME":"官田區","LI":"隆本里","LIN":"25鄰","STREET":"信義街","SECT":"二段","MAREA":" ","LANE":"４１巷","ALLEY":" ","HOUSE_NO":"１５號","E_COORD97":179677.92000000001,"N_COORD97":2565975.7999999998,"ADDRESS":"信義街二段４１巷１５號","OBJECTID":359619},"geometry":{"x":179677.91999999993,"y":2565975.8000000045}},{"attributes":{"ID":359630,"DIS_CODE":0,"TOWNNAME":"官田區","LI":"隆本里","LIN":"25鄰","STREET":"信義街","SECT":"二段","MAREA":" ","LANE":"４１巷","ALLEY":" ","HOUSE_NO":"１７號","E_COORD97":179678.13,"N_COORD97":2565980.02,"ADDRESS":"信義街二段４１巷１７號","OBJECTID":359620},"geometry":{"x":179678.12999999989,"y":2565980.0200000014}},{"attributes":{"ID":359631,"DIS_CODE":0,"TOWNNAME":"官田區","LI":"隆本里","LIN":"25鄰","STREET":"信義街","SECT":"二段","MAREA":" ","LANE":"４１巷","ALLEY":" ","HOUSE_NO":"４２號","E_COORD97":179648.07000000001,"N_COORD97":2566034.71,"ADDRESS":"信義街二段４１巷４２號","OBJECTID":359621},"geometry":{"x":179648.0700000003,"y":2566034.7100000028}},{"attributes":{"ID":359632,"DIS_CODE":0,"TOWNNAME":"永康區","LI":"復華里","LIN":"25鄰","STREET":"復華八街","SECT":" ","MAREA":" ","LANE":"４７巷","ALLEY":" ","HOUSE_NO":"２０號","E_COORD97":172744.01999999999,"N_COORD97":2546385.02,"ADDRESS":"復華八街４７巷２０號","OBJECTID":359622},"geometry":{"x":172744.02000000142,"y":2546385.0200000014}},{"attributes":{"ID":359633,"DIS_CODE":0,"TOWNNAME":"官田區","LI":"隆本里","LIN":"25鄰","STREET":"信義街","SECT":"二段","MAREA":" ","LANE":"６７巷","ALLEY":" ","HOUSE_NO":"２０號","E_COORD97":179702.76000000001,"N_COORD97":2566054.3799999999,"ADDRESS":"信義街二段６７巷２０號","OBJECTID":359623},"geometry":{"x":179702.75999999978,"y":2566054.3799999971}},{"attributes":{"ID":359634,"DIS_CODE":0,"TOWNNAME":"官田區","LI":"隆本里","LIN":"25鄰","STREET":"信義街","SECT":"二段","MAREA":" ","LANE":"６７巷","ALLEY":" ","HOUSE_NO":"２２號","E_COORD97":179696.62,"N_COORD97":2566054.27,"ADDRESS":"信義街二段６７巷２２號","OBJECTID":359624},"geometry":{"x":179696.62000000104,"y":2566054.2700000014}},{"attributes":{"ID":359635,"DIS_CODE":0,"TOWNNAME":"官田區","LI":"隆本里","LIN":"25鄰","STREET":"信義街","SECT":"二段","MAREA":" ","LANE":"６７巷","ALLEY":" ","HOUSE_NO":"２８號","E_COORD97":179684.32000000001,"N_COORD97":2566055.2400000002,"ADDRESS":"信義街二段６７巷２８號","OBJECTID":359625},"geometry":{"x":179684.3200000003,"y":2566055.2400000002}},{"attributes":{"ID":359636,"DIS_CODE":0,"TOWNNAME":"中西區","LI":"三民里","LIN":"19鄰","STREET":"忠義路","SECT":"二段","MAREA":" ","LANE":"１５８巷","ALLEY":" ","HOUSE_NO":"６２號一樓之２","E_COORD97":168491.85999999999,"N_COORD97":2544012.0299999998,"ADDRESS":"忠義路二段１５８巷６２號一樓之２","OBJECTID":359626},"geometry":{"x":168491.86000000034,"y":2544012.0299999993}},{"attributes":{"ID":359637,"DIS_CODE":0,"TOWNNAME":"中西區","LI":"三民里","LIN":"19鄰","STREET":"忠義路","SECT":"二段","MAREA":" ","LANE":"１５８巷","ALLEY":" ","HOUSE_NO":"６２號二樓之１","E_COORD97":168491.85999999999,"N_COORD97":2544012.0299999998,"ADDRESS":"忠義路二段１５８巷６２號二樓之１","OBJECTID":359627},"geometry":{"x":168491.86000000034,"y":2544012.0299999993}},{"attributes":{"ID":359638,"DIS_CODE":0,"TOWNNAME":"中西區","LI":"三民里","LIN":"19鄰","STREET":"忠義路","SECT":"二段","MAREA":" ","LANE":"１５８巷","ALLEY":" ","HOUSE_NO":"６２號二樓之２","E_COORD97":168491.85999999999,"N_COORD97":2544012.0299999998,"ADDRESS":"忠義路二段１５８巷６２號二樓之２","OBJECTID":359628},"geometry":{"x":168491.86000000034,"y":2544012.0299999993}},{"attributes":{"ID":359639,"DIS_CODE":0,"TOWNNAME":"東區","LI":"崇信里","LIN":"8鄰","STREET":"崇信街","SECT":" ","MAREA":" ","LANE":" ","ALLEY":" ","HOUSE_NO":"１３３號五樓之１","E_COORD97":170824.53,"N_COORD97":2542235.21,"ADDRESS":"崇信街１３３號五樓之１","OBJECTID":359629},"geometry":{"x":170824.53000000119,"y":2542235.2100000028}},{"attributes":{"ID":359640,"DIS_CODE":0,"TOWNNAME":"東區","LI":"崇信里","LIN":"8鄰","STREET":"崇信街","SECT":" ","MAREA":" ","LANE":" ","ALLEY":" ","HOUSE_NO":"１３３號六樓","E_COORD97":170824.53,"N_COORD97":2542235.21,"ADDRESS":"崇信街１３３號六樓","OBJECTID":359630},"geometry":{"x":170824.53000000119,"y":2542235.2100000028}},{"attributes":{"ID":359641,"DIS_CODE":0,"TOWNNAME":"東區","LI":"崇信里","LIN":"8鄰","STREET":"崇信街","SECT":" ","MAREA":" ","LANE":" ","ALLEY":" ","HOUSE_NO":"１３３號六樓之１","E_COORD97":170824.53,"N_COORD97":2542235.21,"ADDRESS":"崇信街１３３號六樓之１","OBJECTID":359631},"geometry":{"x":170824.53000000119,"y":2542235.2100000028}},{"attributes":{"ID":359642,"DIS_CODE":0,"TOWNNAME":"東區","LI":"崇信里","LIN":"8鄰","STREET":"崇信街","SECT":" ","MAREA":" ","LANE":" ","ALLEY":" ","HOUSE_NO":"１３３號四樓","E_COORD97":170824.53,"N_COORD97":2542235.21,"ADDRESS":"崇信街１３３號四樓","OBJECTID":359632},"geometry":{"x":170824.53000000119,"y":2542235.2100000028}},{"attributes":{"ID":359643,"DIS_CODE":0,"TOWNNAME":"東區","LI":"崇信里","LIN":"8鄰","STREET":"崇信街","SECT":" ","MAREA":" ","LANE":" ","ALLEY":" ","HOUSE_NO":"１３３號四樓之１","E_COORD97":170824.53,"N_COORD97":2542235.21,"ADDRESS":"崇信街１３３號四樓之１","OBJECTID":359633},"geometry":{"x":170824.53000000119,"y":2542235.2100000028}},{"attributes":{"ID":359644,"DIS_CODE":0,"TOWNNAME":"永康區","LI":"二王里","LIN":"8鄰","STREET":"二王路","SECT":" ","MAREA":" ","LANE":" ","ALLEY":" ","HOUSE_NO":"１２號十五樓之３","E_COORD97":172966.69,"N_COORD97":2546841.48,"ADDRESS":"二王路１２號十五樓之３","OBJECTID":359634},"geometry":{"x":172966.69000000041,"y":2546841.4800000004}},{"attributes":{"ID":359645,"DIS_CODE":0,"TOWNNAME":"永康區","LI":"二王里","LIN":"8鄰","STREET":"二王路","SECT":" ","MAREA":" ","LANE":" ","ALLEY":" ","HOUSE_NO":"１６號十樓之２","E_COORD97":172975.17999999999,"N_COORD97":2546819.7999999998,"ADDRESS":"二王路１６號十樓之２","OBJECTID":359635},"geometry":{"x":172975.17999999877,"y":2546819.7999999989}},{"attributes":{"ID":359646,"DIS_CODE":0,"TOWNNAME":"永康區","LI":"二王里","LIN":"8鄰","STREET":"二王路","SECT":" ","MAREA":" ","LANE":" ","ALLEY":" ","HOUSE_NO":"１０號六樓之２","E_COORD97":172986.10999999999,"N_COORD97":2546837.98,"ADDRESS":"二王路１０號六樓之２","OBJECTID":359636},"geometry":{"x":172986.11000000034,"y":2546837.9800000004}},{"attributes":{"ID":359647,"DIS_CODE":0,"TOWNNAME":"官田區","LI":"隆本里","LIN":"25鄰","STREET":"信義街","SECT":"二段","MAREA":" ","LANE":"６７巷","ALLEY":" ","HOUSE_NO":"３２號","E_COORD97":179671.73999999999,"N_COORD97":2566055.5499999998,"ADDRESS":"信義街二段６７巷３２號","OBJECTID":359637},"geometry":{"x":179671.74000000115,"y":2566055.5500000045}},{"attributes":{"ID":359648,"DIS_CODE":0,"TOWNNAME":"官田區","LI":"隆本里","LIN":"25鄰","STREET":"信義街","SECT":"二段","MAREA":" ","LANE":"６７巷","ALLEY":" ","HOUSE_NO":"３６號","E_COORD97":179666.17000000001,"N_COORD97":2566055.98,"ADDRESS":"信義街二段６７巷３６號","OBJECTID":359638},"geometry":{"x":179666.16999999993,"y":2566055.9800000023}},{"attributes":{"ID":359649,"DIS_CODE":0,"TOWNNAME":"官田區","LI":"隆本里","LIN":"25鄰","STREET":"信義街","SECT":"二段","MAREA":" ","LANE":"６７巷","ALLEY":" ","HOUSE_NO":"３號","E_COORD97":179701.54000000001,"N_COORD97":2566039.9300000002,"ADDRESS":"信義街二段６７巷３號","OBJECTID":359639},"geometry":{"x":179701.54000000097,"y":2566039.9299999997}},{"attributes":{"ID":359650,"DIS_CODE":0,"TOWNNAME":"官田區","LI":"隆本里","LIN":"25鄰","STREET":"信義街","SECT":"二段","MAREA":" ","LANE":"６７巷","ALLEY":" ","HOUSE_NO":"５號","E_COORD97":179700.87,"N_COORD97":2566030.8700000001,"ADDRESS":"信義街二段６７巷５號","OBJECTID":359640},"geometry":{"x":179700.87000000197,"y":2566030.8700000029}},{"attributes":{"ID":359651,"DIS_CODE":0,"TOWNNAME":"官田區","LI":"隆本里","LIN":"25鄰","STREET":"信義街","SECT":"二段","MAREA":" ","LANE":"６７巷","ALLEY":" ","HOUSE_NO":"７號","E_COORD97":179684.92999999999,"N_COORD97":2566041.2000000002,"ADDRESS":"信義街二段６７巷７號","OBJECTID":359641},"geometry":{"x":179684.93000000156,"y":2566041.1999999993}},{"attributes":{"ID":359652,"DIS_CODE":0,"TOWNNAME":"官田區","LI":"隆本里","LIN":"25鄰","STREET":"信義街","SECT":"二段","MAREA":" ","LANE":"６７巷","ALLEY":" ","HOUSE_NO":"９號","E_COORD97":179678.95000000001,"N_COORD97":2566041.4199999999,"ADDRESS":"信義街二段６７巷９號","OBJECTID":359642},"geometry":{"x":179678.95000000112,"y":2566041.4199999999}},{"attributes":{"ID":359653,"DIS_CODE":0,"TOWNNAME":"永康區","LI":"大橋里","LIN":"25鄰","STREET":"大橋一街","SECT":" ","MAREA":" ","LANE":"２４７巷","ALLEY":" ","HOUSE_NO":"２５號","E_COORD97":171255.87,"N_COORD97":2546707.4900000002,"ADDRESS":"大橋一街２４７巷２５號","OBJECTID":359643},"geometry":{"x":171255.87000000104,"y":2546707.4900000021}},{"attributes":{"ID":359654,"DIS_CODE":0,"TOWNNAME":"永康區","LI":"大橋里","LIN":"25鄰","STREET":"大橋一街","SECT":" ","MAREA":" ","LANE":"２４７巷","ALLEY":" ","HOUSE_NO":"３９號","E_COORD97":171240.45999999999,"N_COORD97":2546732,"ADDRESS":"大橋一街２４７巷３９號","OBJECTID":359644},"geometry":{"x":171240.45999999996,"y":2546732}},{"attributes":{"ID":359655,"DIS_CODE":0,"TOWNNAME":"永康區","LI":"五王里","LIN":"25鄰","STREET":"五福街","SECT":" ","MAREA":" ","LANE":"３８巷","ALLEY":" ","HOUSE_NO":"２號","E_COORD97":171339.95000000001,"N_COORD97":2545859.9900000002,"ADDRESS":"五福街３８巷２號","OBJECTID":359645},"geometry":{"x":171339.95000000112,"y":2545859.9900000021}},{"attributes":{"ID":359656,"DIS_CODE":0,"TOWNNAME":"永康區","LI":"復華里","LIN":"25鄰","STREET":"復華八街","SECT":" ","MAREA":" ","LANE":"４９巷","ALLEY":" ","HOUSE_NO":"１４號","E_COORD97":172766.48000000001,"N_COORD97":2546423.7799999998,"ADDRESS":"復華八街４９巷１４號","OBJECTID":359646},"geometry":{"x":172766.48000000045,"y":2546423.7799999993}},{"attributes":{"ID":359657,"DIS_CODE":0,"TOWNNAME":"永康區","LI":"復華里","LIN":"25鄰","STREET":"復華八街","SECT":" ","MAREA":" ","LANE":"４７巷","ALLEY":" ","HOUSE_NO":"１６號","E_COORD97":172753.67999999999,"N_COORD97":2546384.77,"ADDRESS":"復華八街４７巷１６號","OBJECTID":359647},"geometry":{"x":172753.68000000063,"y":2546384.7699999977}},{"attributes":{"ID":359658,"DIS_CODE":0,"TOWNNAME":"永康區","LI":"網寮里","LIN":"25鄰","STREET":"永大一路","SECT":" ","MAREA":" ","LANE":"１６０巷","ALLEY":" ","HOUSE_NO":"３５號","E_COORD97":173811.17999999999,"N_COORD97":2546538.0899999999,"ADDRESS":"永大一路１６０巷３５號","OBJECTID":359648},"geometry":{"x":173811.18000000063,"y":2546538.0899999999}},{"attributes":{"ID":359659,"DIS_CODE":0,"TOWNNAME":"安南區","LI":"公\u25A0里","LIN":"7鄰","STREET":"安興街","SECT":" ","MAREA":" ","LANE":" ","ALLEY":" ","HOUSE_NO":"１４６號","E_COORD97":164112.42999999999,"N_COORD97":2552141.2400000002,"ADDRESS":"安興街１４６號","OBJECTID":359649},"geometry":{"x":164112.4299999997,"y":2552141.2400000002}},{"attributes":{"ID":359660,"DIS_CODE":0,"TOWNNAME":"安南區","LI":"公\u25A0里","LIN":"5鄰","STREET":"安興街","SECT":" ","MAREA":" ","LANE":" ","ALLEY":" ","HOUSE_NO":"１１６號","E_COORD97":164180.14000000001,"N_COORD97":2552165.1899999999,"ADDRESS":"安興街１１６號","OBJECTID":359650},"geometry":{"x":164180.13999999966,"y":2552165.1899999995}},{"attributes":{"ID":359661,"DIS_CODE":0,"TOWNNAME":"安南區","LI":"公\u25A0里","LIN":"7鄰","STREET":"安興街","SECT":" ","MAREA":" ","LANE":" ","ALLEY":" ","HOUSE_NO":"１５２號","E_COORD97":164117.48000000001,"N_COORD97":2552110.8199999998,"ADDRESS":"安興街１５２號","OBJECTID":359651},"geometry":{"x":164117.48000000138,"y":2552110.8200000003}},{"attributes":{"ID":359662,"DIS_CODE":0,"TOWNNAME":"安南區","LI":"公\u25A0里","LIN":"7鄰","STREET":"安興街","SECT":" ","MAREA":" ","LANE":" ","ALLEY":" ","HOUSE_NO":"１７２號","E_COORD97":164056.95000000001,"N_COORD97":2552129.0299999998,"ADDRESS":"安興街１７２號","OBJECTID":359652},"geometry":{"x":164056.95000000019,"y":2552129.0299999993}},{"attributes":{"ID":359663,"DIS_CODE":0,"TOWNNAME":"安南區","LI":"公\u25A0里","LIN":"1鄰","STREET":"安興街","SECT":" ","MAREA":" ","LANE":" ","ALLEY":" ","HOUSE_NO":"３號","E_COORD97":164467.59,"N_COORD97":2552320.4399999999,"ADDRESS":"安興街３號","OBJECTID":359653},"geometry":{"x":164467.58999999985,"y":2552320.4400000032}},{"attributes":{"ID":359664,"DIS_CODE":0,"TOWNNAME":"安南區","LI":"公\u25A0里","LIN":"1鄰","STREET":"安興街","SECT":" ","MAREA":" ","LANE":" ","ALLEY":" ","HOUSE_NO":"１３號","E_COORD97":164461.01999999999,"N_COORD97":2552285.96,"ADDRESS":"安興街１３號","OBJECTID":359654},"geometry":{"x":164461.01999999955,"y":2552285.9600000028}},{"attributes":{"ID":359665,"DIS_CODE":0,"TOWNNAME":"安南區","LI":"公親里","LIN":" ","STREET":"公學路","SECT":"一段","MAREA":" ","LANE":" ","ALLEY":" ","HOUSE_NO":"１４３號","E_COORD97":168202.78,"N_COORD97":2553032.7799999998,"ADDRESS":"公學路一段１４３號","OBJECTID":359655},"geometry":{"x":168202.78000000026,"y":2553032.7799999993}},{"attributes":{"ID":359666,"DIS_CODE":0,"TOWNNAME":"安南區","LI":"公親里","LIN":" ","STREET":"公學路","SECT":"一段","MAREA":" ","LANE":" ","ALLEY":" ","HOUSE_NO":"１３０號","E_COORD97":168252.07000000001,"N_COORD97":2553050.2599999998,"ADDRESS":"公學路一段１３０號","OBJECTID":359656},"geometry":{"x":168252.07000000216,"y":2553050.2599999998}},{"attributes":{"ID":359667,"DIS_CODE":0,"TOWNNAME":"安南區","LI":"安西里","LIN":"13鄰","STREET":"安和路","SECT":"一段","MAREA":" ","LANE":" ","ALLEY":" ","HOUSE_NO":"１５７號","E_COORD97":169365,"N_COORD97":2547812.2799999998,"ADDRESS":"安和路一段１５７號","OBJECTID":359657},"geometry":{"x":169365.00000000093,"y":2547812.2800000031}},{"attributes":{"ID":359668,"DIS_CODE":0,"TOWNNAME":"安南區","LI":"安西里","LIN":"4鄰","STREET":"安和路","SECT":"一段","MAREA":" ","LANE":" ","ALLEY":" ","HOUSE_NO":"２６９號","E_COORD97":169281.54000000001,"N_COORD97":2548044.6099999999,"ADDRESS":"安和路一段２６９號","OBJECTID":359658},"geometry":{"x":169281.54000000097,"y":2548044.6100000013}},{"attributes":{"ID":359669,"DIS_CODE":0,"TOWNNAME":"安南區","LI":"安西里","LIN":"4鄰","STREET":"安和路","SECT":"一段","MAREA":" ","LANE":" ","ALLEY":" ","HOUSE_NO":"２６７號","E_COORD97":169282.75,"N_COORD97":2548041.48,"ADDRESS":"安和路一段２６７號","OBJECTID":359659},"geometry":{"x":169282.75,"y":2548041.4800000004}},{"attributes":{"ID":359670,"DIS_CODE":0,"TOWNNAME":"安南區","LI":"安西里","LIN":"4鄰","STREET":"安和路","SECT":"一段","MAREA":" ","LANE":" ","ALLEY":" ","HOUSE_NO":"２６５號","E_COORD97":169284.19,"N_COORD97":2548037.1400000001,"ADDRESS":"安和路一段２６５號","OBJECTID":359660},"geometry":{"x":169284.19000000134,"y":2548037.1400000006}},{"attributes":{"ID":359671,"DIS_CODE":0,"TOWNNAME":"安南區","LI":"安西里","LIN":"4鄰","STREET":"安和路","SECT":"一段","MAREA":" ","LANE":" ","ALLEY":" ","HOUSE_NO":"２６１號","E_COORD97":169285.16,"N_COORD97":2548027.5,"ADDRESS":"安和路一段２６１號","OBJECTID":359661},"geometry":{"x":169285.16000000015,"y":2548027.5}},{"attributes":{"ID":359672,"DIS_CODE":0,"TOWNNAME":"安南區","LI":"安西里","LIN":"4鄰","STREET":"安和路","SECT":"一段","MAREA":" ","LANE":" ","ALLEY":" ","HOUSE_NO":"２５７號","E_COORD97":169287.09,"N_COORD97":2548020.0299999998,"ADDRESS":"安和路一段２５７號","OBJECTID":359662},"geometry":{"x":169287.08999999985,"y":2548020.0299999993}},{"attributes":{"ID":359673,"DIS_CODE":0,"TOWNNAME":"安南區","LI":"州北里","LIN":"25鄰","STREET":"安和路","SECT":"五段","MAREA":" ","LANE":"１７１巷","ALLEY":" ","HOUSE_NO":"１８號","E_COORD97":169797.88,"N_COORD97":2551841.5299999998,"ADDRESS":"安和路五段１７１巷１８號","OBJECTID":359663},"geometry":{"x":169797.88000000082,"y":2551841.5300000031}},{"attributes":{"ID":359674,"DIS_CODE":0,"TOWNNAME":"安南區","LI":"州北里","LIN":"25鄰","STREET":"安和路","SECT":"五段","MAREA":" ","LANE":"１７１巷","ALLEY":" ","HOUSE_NO":"２０號","E_COORD97":169794.82999999999,"N_COORD97":2551839.8100000001,"ADDRESS":"安和路五段１７１巷２０號","OBJECTID":359664},"geometry":{"x":169794.83000000101,"y":2551839.8100000005}},{"attributes":{"ID":359675,"DIS_CODE":0,"TOWNNAME":"安南區","LI":"州北里","LIN":"25鄰","STREET":"安和路","SECT":"五段","MAREA":" ","LANE":"１７１巷","ALLEY":" ","HOUSE_NO":"２５號","E_COORD97":169775.29999999999,"N_COORD97":2551807.25,"ADDRESS":"安和路五段１７１巷２５號","OBJECTID":359665},"geometry":{"x":169775.29999999981,"y":2551807.2500000019}},{"attributes":{"ID":359676,"DIS_CODE":0,"TOWNNAME":"安南區","LI":"州北里","LIN":"25鄰","STREET":"安和路","SECT":"五段","MAREA":" ","LANE":"１７１巷","ALLEY":" ","HOUSE_NO":"４６號","E_COORD97":169744.23999999999,"N_COORD97":2551818.2400000002,"ADDRESS":"安和路五段１７１巷４６號","OBJECTID":359666},"geometry":{"x":169744.23999999929,"y":2551818.2400000021}},{"attributes":{"ID":359677,"DIS_CODE":0,"TOWNNAME":"安南區","LI":"州北里","LIN":"25鄰","STREET":"安和路","SECT":"五段","MAREA":" ","LANE":"１７１巷","ALLEY":" ","HOUSE_NO":"５６號","E_COORD97":169725.32000000001,"N_COORD97":2551828.3399999999,"ADDRESS":"安和路五段１７１巷５６號","OBJECTID":359667},"geometry":{"x":169725.32000000216,"y":2551828.3399999999}},{"attributes":{"ID":359678,"DIS_CODE":0,"TOWNNAME":"仁德區","LI":"成功里","LIN":"25鄰","STREET":"成功一街","SECT":" ","MAREA":" ","LANE":"７０巷","ALLEY":" ","HOUSE_NO":"６號","E_COORD97":170514.89999999999,"N_COORD97":2539886.77,"ADDRESS":"成功一街７０巷６號","OBJECTID":359668},"geometry":{"x":170514.9000000013,"y":2539886.7700000014}},{"attributes":{"ID":359679,"DIS_CODE":0,"TOWNNAME":"仁德區","LI":"後壁里","LIN":"25鄰","STREET":"德洋一街","SECT":" ","MAREA":" ","LANE":"６巷","ALLEY":" ","HOUSE_NO":"１號","E_COORD97":173077.95999999999,"N_COORD97":2539095.52,"ADDRESS":"德洋一街６巷１號","OBJECTID":359669},"geometry":{"x":173077.95999999996,"y":2539095.5200000014}},{"attributes":{"ID":359680,"DIS_CODE":0,"TOWNNAME":"南區","LI":"金華里","LIN":"5鄰","STREET":"聖南街","SECT":" ","MAREA":" ","LANE":" ","ALLEY":" ","HOUSE_NO":"１號","E_COORD97":167058.64999999999,"N_COORD97":2542437.54,"ADDRESS":"聖南街１號","OBJECTID":359670},"geometry":{"x":167058.6500000013,"y":2542437.540000001}},{"attributes":{"ID":359681,"DIS_CODE":0,"TOWNNAME":"安南區","LI":"州北里","LIN":"25鄰","STREET":"安和路","SECT":"五段","MAREA":" ","LANE":"１７１巷","ALLEY":" ","HOUSE_NO":"４０號之１","E_COORD97":169752.44,"N_COORD97":2551825.29,"ADDRESS":"安和路五段１７１巷４０號之１","OBJECTID":359671},"geometry":{"x":169752.44000000134,"y":2551825.2899999991}},{"attributes":{"ID":359682,"DIS_CODE":0,"TOWNNAME":"安南區","LI":"州北里","LIN":"25鄰","STREET":"安和路","SECT":"五段","MAREA":" ","LANE":"１７１巷","ALLEY":" ","HOUSE_NO":"４０號之２","E_COORD97":169748.44,"N_COORD97":2551823.3799999999,"ADDRESS":"安和路五段１７１巷４０號之２","OBJECTID":359672},"geometry":{"x":169748.44000000134,"y":2551823.3800000008}},{"attributes":{"ID":359683,"DIS_CODE":0,"TOWNNAME":"永康區","LI":"中興里","LIN":"25鄰","STREET":"中華路","SECT":" ","MAREA":" ","LANE":"２１６巷","ALLEY":" ","HOUSE_NO":"３號之２","E_COORD97":171721.67999999999,"N_COORD97":2545150.79,"ADDRESS":"中華路２１６巷３號之２","OBJECTID":359673},"geometry":{"x":171721.6799999997,"y":2545150.790000001}},{"attributes":{"ID":359684,"DIS_CODE":0,"TOWNNAME":"中西區","LI":"三民里","LIN":"19鄰","STREET":"忠義路","SECT":"二段","MAREA":" ","LANE":"１５８巷","ALLEY":" ","HOUSE_NO":"６２號二樓之３","E_COORD97":168491.85999999999,"N_COORD97":2544012.0299999998,"ADDRESS":"忠義路二段１５８巷６２號二樓之３","OBJECTID":359674},"geometry":{"x":168491.86000000034,"y":2544012.0299999993}},{"attributes":{"ID":359685,"DIS_CODE":0,"TOWNNAME":"中西區","LI":"三民里","LIN":"19鄰","STREET":"忠義路","SECT":"二段","MAREA":" ","LANE":"１５８巷","ALLEY":" ","HOUSE_NO":"６２號三樓之１","E_COORD97":168491.85999999999,"N_COORD97":2544012.0299999998,"ADDRESS":"忠義路二段１５８巷６２號三樓之１","OBJECTID":359675},"geometry":{"x":168491.86000000034,"y":2544012.0299999993}},{"attributes":{"ID":359686,"DIS_CODE":0,"TOWNNAME":"中西區","LI":"三民里","LIN":"19鄰","STREET":"忠義路","SECT":"二段","MAREA":" ","LANE":"１５８巷","ALLEY":" ","HOUSE_NO":"６２號三樓之２","E_COORD97":168491.85999999999,"N_COORD97":2544012.0299999998,"ADDRESS":"忠義路二段１５８巷６２號三樓之２","OBJECTID":359676},"geometry":{"x":168491.86000000034,"y":2544012.0299999993}},{"attributes":{"ID":359687,"DIS_CODE":0,"TOWNNAME":"中西區","LI":"三民里","LIN":"19鄰","STREET":"忠義路","SECT":"二段","MAREA":" ","LANE":"１５８巷","ALLEY":" ","HOUSE_NO":"６２號三樓之３","E_COORD97":168491.85999999999,"N_COORD97":2544012.0299999998,"ADDRESS":"忠義路二段１５８巷６２號三樓之３","OBJECTID":359677},"geometry":{"x":168491.86000000034,"y":2544012.0299999993}},{"attributes":{"ID":359688,"DIS_CODE":0,"TOWNNAME":"中西區","LI":"三民里","LIN":"19鄰","STREET":"忠義路","SECT":"二段","MAREA":" ","LANE":"１５８巷","ALLEY":" ","HOUSE_NO":"６２號三樓之４","E_COORD97":168491.85999999999,"N_COORD97":2544012.0299999998,"ADDRESS":"忠義路二段１５８巷６２號三樓之４","OBJECTID":359678},"geometry":{"x":168491.86000000034,"y":2544012.0299999993}},{"attributes":{"ID":359689,"DIS_CODE":0,"TOWNNAME":"永康區","LI":"二王里","LIN":"8鄰","STREET":"二王路","SECT":" ","MAREA":" ","LANE":" ","ALLEY":" ","HOUSE_NO":"１０號八樓之３","E_COORD97":172986.07999999999,"N_COORD97":2546837.98,"ADDRESS":"二王路１０號八樓之３","OBJECTID":359679},"geometry":{"x":172986.08000000007,"y":2546837.9800000004}},{"attributes":{"ID":359690,"DIS_CODE":0,"TOWNNAME":"永康區","LI":"二王里","LIN":"8鄰","STREET":"二王路","SECT":" ","MAREA":" ","LANE":" ","ALLEY":" ","HOUSE_NO":"１０號四樓之２","E_COORD97":172986.10999999999,"N_COORD97":2546837.98,"ADDRESS":"二王路１０號四樓之２","OBJECTID":359680},"geometry":{"x":172986.11000000034,"y":2546837.9800000004}},{"attributes":{"ID":359691,"DIS_CODE":0,"TOWNNAME":"永康區","LI":"二王里","LIN":"8鄰","STREET":"二王路","SECT":" ","MAREA":" ","LANE":" ","ALLEY":" ","HOUSE_NO":"１８號十四樓之１","E_COORD97":172980.45999999999,"N_COORD97":2546822.5499999998,"ADDRESS":"二王路１８號十四樓之１","OBJECTID":359681},"geometry":{"x":172980.46000000183,"y":2546822.5500000026}},{"attributes":{"ID":359692,"DIS_CODE":0,"TOWNNAME":"永康區","LI":"二王里","LIN":"8鄰","STREET":"二王路","SECT":" ","MAREA":" ","LANE":" ","ALLEY":" ","HOUSE_NO":"１８號十五樓之２","E_COORD97":172980.59,"N_COORD97":2546822.5499999998,"ADDRESS":"二王路１８號十五樓之２","OBJECTID":359682},"geometry":{"x":172980.58999999985,"y":2546822.5500000026}},{"attributes":{"ID":359693,"DIS_CODE":0,"TOWNNAME":"永康區","LI":"二王里","LIN":"8鄰","STREET":"二王路","SECT":" ","MAREA":" ","LANE":" ","ALLEY":" ","HOUSE_NO":"１０號十五樓之２","E_COORD97":172987.35999999999,"N_COORD97":2546837.98,"ADDRESS":"二王路１０號十五樓之２","OBJECTID":359683},"geometry":{"x":172987.36000000127,"y":2546837.9800000004}},{"attributes":{"ID":359694,"DIS_CODE":0,"TOWNNAME":"永康區","LI":"二王里","LIN":"8鄰","STREET":"二王路","SECT":" ","MAREA":" ","LANE":" ","ALLEY":" ","HOUSE_NO":"１０號九樓之１","E_COORD97":172985.98000000001,"N_COORD97":2546837.98,"ADDRESS":"二王路１０號九樓之１","OBJECTID":359684},"geometry":{"x":172985.98000000231,"y":2546837.9800000004}},{"attributes":{"ID":359695,"DIS_CODE":0,"TOWNNAME":"永康區","LI":"二王里","LIN":"8鄰","STREET":"二王路","SECT":" ","MAREA":" ","LANE":" ","ALLEY":" ","HOUSE_NO":"１８號四樓之２","E_COORD97":172979.34,"N_COORD97":2546822.5499999998,"ADDRESS":"二王路１８號四樓之２","OBJECTID":359685},"geometry":{"x":172979.34000000171,"y":2546822.5500000026}},{"attributes":{"ID":359696,"DIS_CODE":0,"TOWNNAME":"永康區","LI":"二王里","LIN":"8鄰","STREET":"二王路","SECT":" ","MAREA":" ","LANE":" ","ALLEY":" ","HOUSE_NO":"１６號九樓之２","E_COORD97":172975.17999999999,"N_COORD97":2546819.7999999998,"ADDRESS":"二王路１６號九樓之２","OBJECTID":359686},"geometry":{"x":172975.17999999877,"y":2546819.7999999989}},{"attributes":{"ID":359697,"DIS_CODE":0,"TOWNNAME":"永康區","LI":"二王里","LIN":"8鄰","STREET":"二王路","SECT":" ","MAREA":" ","LANE":" ","ALLEY":" ","HOUSE_NO":"１８號十樓之２","E_COORD97":172979.34,"N_COORD97":2546822.5499999998,"ADDRESS":"二王路１８號十樓之２","OBJECTID":359687},"geometry":{"x":172979.34000000171,"y":2546822.5500000026}},{"attributes":{"ID":359698,"DIS_CODE":0,"TOWNNAME":"永康區","LI":"二王里","LIN":"8鄰","STREET":"二王路","SECT":" ","MAREA":" ","LANE":" ","ALLEY":" ","HOUSE_NO":"１６號十六樓之１","E_COORD97":172976.29999999999,"N_COORD97":2546819.7999999998,"ADDRESS":"二王路１６號十六樓之１","OBJECTID":359688},"geometry":{"x":172976.30000000168,"y":2546819.7999999989}},{"attributes":{"ID":359699,"DIS_CODE":0,"TOWNNAME":"永康區","LI":"大橋里","LIN":"8鄰","STREET":"大橋三街","SECT":" ","MAREA":" ","LANE":" ","ALLEY":" ","HOUSE_NO":"２５３號之２二樓","E_COORD97":171005.84,"N_COORD97":2546884.9500000002,"ADDRESS":"大橋三街２５３號之２二樓","OBJECTID":359689},"geometry":{"x":171005.83999999985,"y":2546884.9499999993}},{"attributes":{"ID":359700,"DIS_CODE":0,"TOWNNAME":"安南區","LI":"安富里","LIN":"25鄰","STREET":"郡安路","SECT":"五段","MAREA":" ","LANE":"１７８巷","ALLEY":" ","HOUSE_NO":"２５號","E_COORD97":167540.73999999999,"N_COORD97":2547674.9900000002,"ADDRESS":"郡安路五段１７８巷２５號","OBJECTID":359690},"geometry":{"x":167540.74000000209,"y":2547674.9900000002}},{"attributes":{"ID":359701,"DIS_CODE":0,"TOWNNAME":"安南區","LI":"安富里","LIN":"25鄰","STREET":"郡安路","SECT":"五段","MAREA":" ","LANE":"１７８巷","ALLEY":" ","HOUSE_NO":"２７號","E_COORD97":167542.07000000001,"N_COORD97":2547670.7000000002,"ADDRESS":"郡安路五段１７８巷２７號","OBJECTID":359691},"geometry":{"x":167542.07000000123,"y":2547670.7000000011}},{"attributes":{"ID":359702,"DIS_CODE":0,"TOWNNAME":"安南區","LI":"安富里","LIN":"25鄰","STREET":"郡安路","SECT":"五段","MAREA":" ","LANE":"１７８巷","ALLEY":" ","HOUSE_NO":"３３號","E_COORD97":167544.73000000001,"N_COORD97":2547654.73,"ADDRESS":"郡安路五段１７８巷３３號","OBJECTID":359692},"geometry":{"x":167544.73000000138,"y":2547654.7300000023}},{"attributes":{"ID":359703,"DIS_CODE":0,"TOWNNAME":"安南區","LI":"安富里","LIN":"25鄰","STREET":"郡安路","SECT":"五段","MAREA":" ","LANE":"１７８巷","ALLEY":" ","HOUSE_NO":"３５號","E_COORD97":167545.98000000001,"N_COORD97":2547650.2400000002,"ADDRESS":"郡安路五段１７８巷３５號","OBJECTID":359693},"geometry":{"x":167545.98000000231,"y":2547650.2400000002}},{"attributes":{"ID":359704,"DIS_CODE":0,"TOWNNAME":"中西區","LI":"三民里","LIN":"19鄰","STREET":"忠義路","SECT":"二段","MAREA":" ","LANE":"１５８巷","ALLEY":" ","HOUSE_NO":"６２號五樓之１","E_COORD97":168491.85999999999,"N_COORD97":2544012.0299999998,"ADDRESS":"忠義路二段１５８巷６２號五樓之１","OBJECTID":359694},"geometry":{"x":168491.86000000034,"y":2544012.0299999993}},{"attributes":{"ID":359705,"DIS_CODE":0,"TOWNNAME":"中西區","LI":"三民里","LIN":"19鄰","STREET":"忠義路","SECT":"二段","MAREA":" ","LANE":"１５８巷","ALLEY":" ","HOUSE_NO":"６２號五樓之２","E_COORD97":168491.85999999999,"N_COORD97":2544012.0299999998,"ADDRESS":"忠義路二段１５８巷６２號五樓之２","OBJECTID":359695},"geometry":{"x":168491.86000000034,"y":2544012.0299999993}},{"attributes":{"ID":359706,"DIS_CODE":0,"TOWNNAME":"中西區","LI":"三民里","LIN":"19鄰","STREET":"忠義路","SECT":"二段","MAREA":" ","LANE":"１５８巷","ALLEY":" ","HOUSE_NO":"６２號五樓之３","E_COORD97":168491.85999999999,"N_COORD97":2544012.0299999998,"ADDRESS":"忠義路二段１５８巷６２號五樓之３","OBJECTID":359696},"geometry":{"x":168491.86000000034,"y":2544012.0299999993}},{"attributes":{"ID":359707,"DIS_CODE":0,"TOWNNAME":"中西區","LI":"三民里","LIN":"19鄰","STREET":"忠義路","SECT":"二段","MAREA":" ","LANE":"１５８巷","ALLEY":" ","HOUSE_NO":"６２號五樓之４","E_COORD97":168491.85999999999,"N_COORD97":2544012.0299999998,"ADDRESS":"忠義路二段１５８巷６２號五樓之４","OBJECTID":359697},"geometry":{"x":168491.86000000034,"y":2544012.0299999993}},{"attributes":{"ID":359708,"DIS_CODE":0,"TOWNNAME":"中西區","LI":"三民里","LIN":"19鄰","STREET":"忠義路","SECT":"二段","MAREA":" ","LANE":"１５８巷","ALLEY":" ","HOUSE_NO":"６２號四樓之１","E_COORD97":168491.85999999999,"N_COORD97":2544012.0299999998,"ADDRESS":"忠義路二段１５８巷６２號四樓之１","OBJECTID":359698},"geometry":{"x":168491.86000000034,"y":2544012.0299999993}},{"attributes":{"ID":359709,"DIS_CODE":0,"TOWNNAME":"中西區","LI":"三民里","LIN":"19鄰","STREET":"忠義路","SECT":"二段","MAREA":" ","LANE":"１５８巷","ALLEY":" ","HOUSE_NO":"６２號四樓之２","E_COORD97":168491.85999999999,"N_COORD97":2544012.0299999998,"ADDRESS":"忠義路二段１５８巷６２號四樓之２","OBJECTID":359699},"geometry":{"x":168491.86000000034,"y":2544012.0299999993}},{"attributes":{"ID":359710,"DIS_CODE":0,"TOWNNAME":"中西區","LI":"三民里","LIN":"19鄰","STREET":"忠義路","SECT":"二段","MAREA":" ","LANE":"１５８巷","ALLEY":" ","HOUSE_NO":"６２號四樓之３","E_COORD97":168491.85999999999,"N_COORD97":2544012.0299999998,"ADDRESS":"忠義路二段１５８巷６２號四樓之３","OBJECTID":359700},"geometry":{"x":168491.86000000034,"y":2544012.0299999993}},{"attributes":{"ID":359711,"DIS_CODE":0,"TOWNNAME":"永康區","LI":"大橋里","LIN":"8鄰","STREET":"大橋三街","SECT":" ","MAREA":" ","LANE":" ","ALLEY":" ","HOUSE_NO":"２５３號之８六樓","E_COORD97":171020.37,"N_COORD97":2546880.75,"ADDRESS":"大橋三街２５３號之８六樓","OBJECTID":359701},"geometry":{"x":171020.37000000104,"y":2546880.7500000037}},{"attributes":{"ID":359712,"DIS_CODE":0,"TOWNNAME":"東區","LI":"路東里","LIN":"8鄰","STREET":"大同路","SECT":"二段","MAREA":" ","LANE":" ","ALLEY":" ","HOUSE_NO":"５１號七樓","E_COORD97":169295.47,"N_COORD97":2542277.52,"ADDRESS":"大同路二段５１號七樓","OBJECTID":359702},"geometry":{"x":169295.47000000067,"y":2542277.5200000033}},{"attributes":{"ID":359713,"DIS_CODE":0,"TOWNNAME":"東區","LI":"路東里","LIN":"8鄰","STREET":"大同路","SECT":"二段","MAREA":" ","LANE":" ","ALLEY":" ","HOUSE_NO":"５１號二樓","E_COORD97":169295.47,"N_COORD97":2542277.52,"ADDRESS":"大同路二段５１號二樓","OBJECTID":359703},"geometry":{"x":169295.47000000067,"y":2542277.5200000033}},{"attributes":{"ID":359714,"DIS_CODE":0,"TOWNNAME":"東區","LI":"路東里","LIN":"8鄰","STREET":"大同路","SECT":"二段","MAREA":" ","LANE":" ","ALLEY":" ","HOUSE_NO":"５１號二樓之１","E_COORD97":169295.47,"N_COORD97":2542277.52,"ADDRESS":"大同路二段５１號二樓之１","OBJECTID":359704},"geometry":{"x":169295.47000000067,"y":2542277.5200000033}},{"attributes":{"ID":359715,"DIS_CODE":0,"TOWNNAME":"東區","LI":"路東里","LIN":"8鄰","STREET":"大同路","SECT":"二段","MAREA":" ","LANE":" ","ALLEY":" ","HOUSE_NO":"５１號三樓","E_COORD97":169295.47,"N_COORD97":2542277.52,"ADDRESS":"大同路二段５１號三樓","OBJECTID":359705},"geometry":{"x":169295.47000000067,"y":2542277.5200000033}},{"attributes":{"ID":359716,"DIS_CODE":0,"TOWNNAME":"中西區","LI":"法華里","LIN":"19鄰","STREET":"健康路","SECT":"一段","MAREA":" ","LANE":"１５０巷","ALLEY":" ","HOUSE_NO":"１８號一樓","E_COORD97":168787.26000000001,"N_COORD97":2542511.3900000001,"ADDRESS":"健康路一段１５０巷１８號一樓","OBJECTID":359706},"geometry":{"x":168787.25999999978,"y":2542511.3900000025}},{"attributes":{"ID":359717,"DIS_CODE":0,"TOWNNAME":"中西區","LI":"法華里","LIN":"19鄰","STREET":"健康路","SECT":"一段","MAREA":" ","LANE":"１５０巷","ALLEY":" ","HOUSE_NO":"１８號二樓","E_COORD97":168787.26000000001,"N_COORD97":2542511.3900000001,"ADDRESS":"健康路一段１５０巷１８號二樓","OBJECTID":359707},"geometry":{"x":168787.25999999978,"y":2542511.3900000025}},{"attributes":{"ID":359718,"DIS_CODE":0,"TOWNNAME":"中西區","LI":"法華里","LIN":"19鄰","STREET":"健康路","SECT":"一段","MAREA":" ","LANE":"１５０巷","ALLEY":" ","HOUSE_NO":"１８號三樓","E_COORD97":168787.26000000001,"N_COORD97":2542511.3900000001,"ADDRESS":"健康路一段１５０巷１８號三樓","OBJECTID":359708},"geometry":{"x":168787.25999999978,"y":2542511.3900000025}},{"attributes":{"ID":359719,"DIS_CODE":0,"TOWNNAME":"中西區","LI":"法華里","LIN":"19鄰","STREET":"健康路","SECT":"一段","MAREA":" ","LANE":"１５０巷","ALLEY":" ","HOUSE_NO":"１８號五樓","E_COORD97":168787.26000000001,"N_COORD97":2542511.3900000001,"ADDRESS":"健康路一段１５０巷１８號五樓","OBJECTID":359709},"geometry":{"x":168787.25999999978,"y":2542511.3900000025}},{"attributes":{"ID":359720,"DIS_CODE":0,"TOWNNAME":"中西區","LI":"法華里","LIN":"19鄰","STREET":"健康路","SECT":"一段","MAREA":" ","LANE":"１５０巷","ALLEY":" ","HOUSE_NO":"１８號四樓","E_COORD97":168787.26000000001,"N_COORD97":2542511.3900000001,"ADDRESS":"健康路一段１５０巷１８號四樓","OBJECTID":359710},"geometry":{"x":168787.25999999978,"y":2542511.3900000025}},{"attributes":{"ID":359721,"DIS_CODE":0,"TOWNNAME":"中西區","LI":"法華里","LIN":"19鄰","STREET":"健康路","SECT":"一段","MAREA":" ","LANE":"１５０巷","ALLEY":" ","HOUSE_NO":"２０號一樓","E_COORD97":168786.42000000001,"N_COORD97":2542520.6600000001,"ADDRESS":"健康路一段１５０巷２０號一樓","OBJECTID":359711},"geometry":{"x":168786.41999999993,"y":2542520.6600000001}},{"attributes":{"ID":359722,"DIS_CODE":0,"TOWNNAME":"中西區","LI":"法華里","LIN":"19鄰","STREET":"健康路","SECT":"一段","MAREA":" ","LANE":"１５０巷","ALLEY":" ","HOUSE_NO":"２０號二樓","E_COORD97":168786.42000000001,"N_COORD97":2542520.6600000001,"ADDRESS":"健康路一段１５０巷２０號二樓","OBJECTID":359712},"geometry":{"x":168786.41999999993,"y":2542520.6600000001}},{"attributes":{"ID":359723,"DIS_CODE":0,"TOWNNAME":"中西區","LI":"法華里","LIN":"19鄰","STREET":"健康路","SECT":"一段","MAREA":" ","LANE":"１５０巷","ALLEY":" ","HOUSE_NO":"２０號三樓","E_COORD97":168786.42000000001,"N_COORD97":2542520.6600000001,"ADDRESS":"健康路一段１５０巷２０號三樓","OBJECTID":359713},"geometry":{"x":168786.41999999993,"y":2542520.6600000001}},{"attributes":{"ID":359724,"DIS_CODE":0,"TOWNNAME":"中西區","LI":"法華里","LIN":"19鄰","STREET":"健康路","SECT":"一段","MAREA":" ","LANE":"１５０巷","ALLEY":" ","HOUSE_NO":"２０號五樓","E_COORD97":168786.42000000001,"N_COORD97":2542520.6600000001,"ADDRESS":"健康路一段１５０巷２０號五樓","OBJECTID":359714},"geometry":{"x":168786.41999999993,"y":2542520.6600000001}},{"attributes":{"ID":359725,"DIS_CODE":0,"TOWNNAME":"中西區","LI":"法華里","LIN":"19鄰","STREET":"健康路","SECT":"一段","MAREA":" ","LANE":"１５０巷","ALLEY":" ","HOUSE_NO":"２０號四樓","E_COORD97":168786.42000000001,"N_COORD97":2542520.6600000001,"ADDRESS":"健康路一段１５０巷２０號四樓","OBJECTID":359715},"geometry":{"x":168786.41999999993,"y":2542520.6600000001}},{"attributes":{"ID":359726,"DIS_CODE":0,"TOWNNAME":"東區","LI":"莊敬里","LIN":"19鄰","STREET":"東光路","SECT":"二段","MAREA":" ","LANE":"３６巷","ALLEY":" ","HOUSE_NO":"３１號二樓之１","E_COORD97":171336.10000000001,"N_COORD97":2544054.3999999999,"ADDRESS":"東光路二段３６巷３１號二樓之１","OBJECTID":359716},"geometry":{"x":171336.09999999963,"y":2544054.4000000004}},{"attributes":{"ID":359727,"DIS_CODE":0,"TOWNNAME":"東區","LI":"莊敬里","LIN":"19鄰","STREET":"東光路","SECT":"二段","MAREA":" ","LANE":"３６巷","ALLEY":" ","HOUSE_NO":"３１號三樓之２","E_COORD97":171336.10000000001,"N_COORD97":2544054.3999999999,"ADDRESS":"東光路二段３６巷３１號三樓之２","OBJECTID":359717},"geometry":{"x":171336.09999999963,"y":2544054.4000000004}},{"attributes":{"ID":359728,"DIS_CODE":0,"TOWNNAME":"東區","LI":"莊敬里","LIN":"19鄰","STREET":"東光路","SECT":"二段","MAREA":" ","LANE":"３６巷","ALLEY":" ","HOUSE_NO":"３１號五樓之１","E_COORD97":171336.10000000001,"N_COORD97":2544054.3999999999,"ADDRESS":"東光路二段３６巷３１號五樓之１","OBJECTID":359718},"geometry":{"x":171336.09999999963,"y":2544054.4000000004}},{"attributes":{"ID":359729,"DIS_CODE":0,"TOWNNAME":"學甲區","LI":"光華里","LIN":"25鄰","STREET":" ","SECT":" ","MAREA":"新頭港子","LANE":" ","ALLEY":" ","HOUSE_NO":"１２號","E_COORD97":164137.82000000001,"N_COORD97":2573207.29,"ADDRESS":"新頭港子１２號","OBJECTID":359719},"geometry":{"x":164137.81999999937,"y":2573207.290000001}},{"attributes":{"ID":359730,"DIS_CODE":0,"TOWNNAME":"東區","LI":"崇善里","LIN":"25鄰","STREET":"崇善東路","SECT":" ","MAREA":" ","LANE":"１５巷","ALLEY":" ","HOUSE_NO":"９號","E_COORD97":171297.57000000001,"N_COORD97":2540911.4399999999,"ADDRESS":"崇善東路１５巷９號","OBJECTID":359720},"geometry":{"x":171297.5700000003,"y":2540911.4399999995}},{"attributes":{"ID":359731,"DIS_CODE":0,"TOWNNAME":"東區","LI":"崇善里","LIN":"25鄰","STREET":"崇善東路","SECT":" ","MAREA":" ","LANE":"１５巷","ALLEY":" ","HOUSE_NO":"１１號","E_COORD97":171532.20999999999,"N_COORD97":2540880.8999999999,"ADDRESS":"崇善東路１５巷１１號","OBJECTID":359721},"geometry":{"x":171532.20999999996,"y":2540880.9000000004}},{"attributes":{"ID":359732,"DIS_CODE":0,"TOWNNAME":"安南區","LI":"溪頂里","LIN":"25鄰","STREET":"郡安路","SECT":"四段","MAREA":" ","LANE":"１２０巷","ALLEY":" ","HOUSE_NO":"１４號","E_COORD97":168854.54000000001,"N_COORD97":2547570.9700000002,"ADDRESS":"郡安路四段１２０巷１４號","OBJECTID":359722},"geometry":{"x":168854.54000000097,"y":2547570.9700000007}},{"attributes":{"ID":359733,"DIS_CODE":0,"TOWNNAME":"安南區","LI":"溪頂里","LIN":"25鄰","STREET":"郡安路","SECT":"四段","MAREA":" ","LANE":"１２０巷","ALLEY":" ","HOUSE_NO":"１６號","E_COORD97":168854.85999999999,"N_COORD97":2547566.4500000002,"ADDRESS":"郡安路四段１２０巷１６號","OBJECTID":359723},"geometry":{"x":168854.86000000034,"y":2547566.4499999993}},{"attributes":{"ID":359734,"DIS_CODE":0,"TOWNNAME":"東區","LI":"莊敬里","LIN":"19鄰","STREET":"東光路","SECT":"二段","MAREA":" ","LANE":"３６巷","ALLEY":" ","HOUSE_NO":"３１號五樓之２","E_COORD97":171336.10000000001,"N_COORD97":2544054.3999999999,"ADDRESS":"東光路二段３６巷３１號五樓之２","OBJECTID":359724},"geometry":{"x":171336.09999999963,"y":2544054.4000000004}},{"attributes":{"ID":359735,"DIS_CODE":0,"TOWNNAME":"東區","LI":"莊敬里","LIN":"19鄰","STREET":"東光路","SECT":"二段","MAREA":" ","LANE":"３６巷","ALLEY":" ","HOUSE_NO":"３１號四樓之１","E_COORD97":171336.10000000001,"N_COORD97":2544054.3999999999,"ADDRESS":"東光路二段３６巷３１號四樓之１","OBJECTID":359725},"geometry":{"x":171336.09999999963,"y":2544054.4000000004}},{"attributes":{"ID":359736,"DIS_CODE":0,"TOWNNAME":"東區","LI":"莊敬里","LIN":"19鄰","STREET":"東光路","SECT":"二段","MAREA":" ","LANE":"３６巷","ALLEY":" ","HOUSE_NO":"３１號四樓之２","E_COORD97":171336.10000000001,"N_COORD97":2544054.3999999999,"ADDRESS":"東光路二段３６巷３１號四樓之２","OBJECTID":359726},"geometry":{"x":171336.09999999963,"y":2544054.4000000004}},{"attributes":{"ID":359737,"DIS_CODE":0,"TOWNNAME":"東區","LI":"莊敬里","LIN":"19鄰","STREET":"東光路","SECT":"二段","MAREA":" ","LANE":"３６巷","ALLEY":" ","HOUSE_NO":"３３號二樓","E_COORD97":171326.07000000001,"N_COORD97":2544064.6600000001,"ADDRESS":"東光路二段３６巷３３號二樓","OBJECTID":359727},"geometry":{"x":171326.07000000123,"y":2544064.660000002}},{"attributes":{"ID":359738,"DIS_CODE":0,"TOWNNAME":"東區","LI":"莊敬里","LIN":"19鄰","STREET":"東光路","SECT":"二段","MAREA":" ","LANE":"３６巷","ALLEY":" ","HOUSE_NO":"３３號三樓","E_COORD97":171326.07000000001,"N_COORD97":2544064.6600000001,"ADDRESS":"東光路二段３６巷３３號三樓","OBJECTID":359728},"geometry":{"x":171326.07000000123,"y":2544064.660000002}},{"attributes":{"ID":359739,"DIS_CODE":0,"TOWNNAME":"南區","LI":"金華里","LIN":"5鄰","STREET":"聖南街","SECT":" ","MAREA":" ","LANE":" ","ALLEY":" ","HOUSE_NO":"５號","E_COORD97":167059.76999999999,"N_COORD97":2542427.4199999999,"ADDRESS":"聖南街５號","OBJECTID":359729},"geometry":{"x":167059.76999999955,"y":2542427.4199999999}},{"attributes":{"ID":359740,"DIS_CODE":0,"TOWNNAME":"東區","LI":"莊敬里","LIN":"19鄰","STREET":"東光路","SECT":"二段","MAREA":" ","LANE":"３６巷","ALLEY":" ","HOUSE_NO":"３３號五樓","E_COORD97":171326.07000000001,"N_COORD97":2544064.6600000001,"ADDRESS":"東光路二段３６巷３３號五樓","OBJECTID":359730},"geometry":{"x":171326.07000000123,"y":2544064.660000002}},{"attributes":{"ID":359741,"DIS_CODE":0,"TOWNNAME":"東區","LI":"莊敬里","LIN":"19鄰","STREET":"東光路","SECT":"二段","MAREA":" ","LANE":"３６巷","ALLEY":" ","HOUSE_NO":"３３號四樓","E_COORD97":171326.07000000001,"N_COORD97":2544064.6600000001,"ADDRESS":"東光路二段３６巷３３號四樓","OBJECTID":359731},"geometry":{"x":171326.07000000123,"y":2544064.660000002}},{"attributes":{"ID":359742,"DIS_CODE":0,"TOWNNAME":"東區","LI":"莊敬里","LIN":"19鄰","STREET":"東光路","SECT":"二段","MAREA":" ","LANE":"３６巷","ALLEY":" ","HOUSE_NO":"３５號二樓","E_COORD97":171337.76999999999,"N_COORD97":2544067.6699999999,"ADDRESS":"東光路二段３６巷３５號二樓","OBJECTID":359732},"geometry":{"x":171337.77000000048,"y":2544067.6700000018}},{"attributes":{"ID":359743,"DIS_CODE":0,"TOWNNAME":"東區","LI":"莊敬里","LIN":"19鄰","STREET":"東光路","SECT":"二段","MAREA":" ","LANE":"３６巷","ALLEY":" ","HOUSE_NO":"３５號三樓","E_COORD97":171337.76999999999,"N_COORD97":2544067.6699999999,"ADDRESS":"東光路二段３６巷３５號三樓","OBJECTID":359733},"geometry":{"x":171337.77000000048,"y":2544067.6700000018}},{"attributes":{"ID":359744,"DIS_CODE":0,"TOWNNAME":"東區","LI":"莊敬里","LIN":"19鄰","STREET":"東光路","SECT":"二段","MAREA":" ","LANE":"３６巷","ALLEY":" ","HOUSE_NO":"３５號五樓","E_COORD97":171337.76999999999,"N_COORD97":2544067.6699999999,"ADDRESS":"東光路二段３６巷３５號五樓","OBJECTID":359734},"geometry":{"x":171337.77000000048,"y":2544067.6700000018}},{"attributes":{"ID":359745,"DIS_CODE":0,"TOWNNAME":"東區","LI":"路東里","LIN":"8鄰","STREET":"大同路","SECT":"二段","MAREA":" ","LANE":" ","ALLEY":" ","HOUSE_NO":"５１號三樓之１","E_COORD97":169295.47,"N_COORD97":2542277.52,"ADDRESS":"大同路二段５１號三樓之１","OBJECTID":359735},"geometry":{"x":169295.47000000067,"y":2542277.5200000033}},{"attributes":{"ID":359746,"DIS_CODE":0,"TOWNNAME":"東區","LI":"路東里","LIN":"8鄰","STREET":"大同路","SECT":"二段","MAREA":" ","LANE":" ","ALLEY":" ","HOUSE_NO":"５１號五樓","E_COORD97":169295.47,"N_COORD97":2542277.52,"ADDRESS":"大同路二段５１號五樓","OBJECTID":359736},"geometry":{"x":169295.47000000067,"y":2542277.5200000033}},{"attributes":{"ID":359747,"DIS_CODE":0,"TOWNNAME":"東區","LI":"路東里","LIN":"8鄰","STREET":"大同路","SECT":"二段","MAREA":" ","LANE":" ","ALLEY":" ","HOUSE_NO":"５１號五樓之１","E_COORD97":169295.47,"N_COORD97":2542277.52,"ADDRESS":"大同路二段５１號五樓之１","OBJECTID":359737},"geometry":{"x":169295.47000000067,"y":2542277.5200000033}},{"attributes":{"ID":359748,"DIS_CODE":0,"TOWNNAME":"東區","LI":"路東里","LIN":"8鄰","STREET":"大同路","SECT":"二段","MAREA":" ","LANE":" ","ALLEY":" ","HOUSE_NO":"５１號六樓","E_COORD97":169295.47,"N_COORD97":2542277.52,"ADDRESS":"大同路二段５１號六樓","OBJECTID":359738},"geometry":{"x":169295.47000000067,"y":2542277.5200000033}},{"attributes":{"ID":359749,"DIS_CODE":0,"TOWNNAME":"新營區","LI":"中營里","LIN":" ","STREET":"開元路","SECT":" ","MAREA":" ","LANE":" ","ALLEY":" ","HOUSE_NO":"９６號","E_COORD97":181571.39999999999,"N_COORD97":2579343.9100000001,"ADDRESS":"開元路９６號","OBJECTID":359739},"geometry":{"x":181571.4000000013,"y":2579343.910000002}},{"attributes":{"ID":359750,"DIS_CODE":0,"TOWNNAME":"東區","LI":"莊敬里","LIN":"19鄰","STREET":"東光路","SECT":"二段","MAREA":" ","LANE":"３６巷","ALLEY":" ","HOUSE_NO":"３５號四樓","E_COORD97":171337.76999999999,"N_COORD97":2544067.6699999999,"ADDRESS":"東光路二段３６巷３５號四樓","OBJECTID":359740},"geometry":{"x":171337.77000000048,"y":2544067.6700000018}},{"attributes":{"ID":359751,"DIS_CODE":0,"TOWNNAME":"東區","LI":"東明里","LIN":"19鄰","STREET":"東安路","SECT":" ","MAREA":" ","LANE":"４８巷","ALLEY":" ","HOUSE_NO":"２７號二樓之３","E_COORD97":170751.35999999999,"N_COORD97":2543608.75,"ADDRESS":"東安路４８巷２７號二樓之３","OBJECTID":359741},"geometry":{"x":170751.36000000127,"y":2543608.7499999981}},{"attributes":{"ID":359752,"DIS_CODE":0,"TOWNNAME":"東區","LI":"東明里","LIN":"19鄰","STREET":"東安路","SECT":" ","MAREA":" ","LANE":"４８巷","ALLEY":" ","HOUSE_NO":"２７號二樓之４","E_COORD97":170751.35999999999,"N_COORD97":2543608.75,"ADDRESS":"東安路４８巷２７號二樓之４","OBJECTID":359742},"geometry":{"x":170751.36000000127,"y":2543608.7499999981}},{"attributes":{"ID":359753,"DIS_CODE":0,"TOWNNAME":"東區","LI":"東明里","LIN":"19鄰","STREET":"東安路","SECT":" ","MAREA":" ","LANE":"４８巷","ALLEY":" ","HOUSE_NO":"２７號三樓之２","E_COORD97":170751.35999999999,"N_COORD97":2543608.75,"ADDRESS":"東安路４８巷２７號三樓之２","OBJECTID":359743},"geometry":{"x":170751.36000000127,"y":2543608.7499999981}},{"attributes":{"ID":359754,"DIS_CODE":0,"TOWNNAME":"東區","LI":"東明里","LIN":"19鄰","STREET":"東安路","SECT":" ","MAREA":" ","LANE":"４８巷","ALLEY":" ","HOUSE_NO":"２７號三樓之３","E_COORD97":170751.35999999999,"N_COORD97":2543608.75,"ADDRESS":"東安路４８巷２７號三樓之３","OBJECTID":359744},"geometry":{"x":170751.36000000127,"y":2543608.7499999981}},{"attributes":{"ID":359755,"DIS_CODE":0,"TOWNNAME":"東區","LI":"東明里","LIN":"19鄰","STREET":"東安路","SECT":" ","MAREA":" ","LANE":"４８巷","ALLEY":" ","HOUSE_NO":"２７號三樓之５","E_COORD97":170751.35999999999,"N_COORD97":2543608.75,"ADDRESS":"東安路４８巷２７號三樓之５","OBJECTID":359745},"geometry":{"x":170751.36000000127,"y":2543608.7499999981}},{"attributes":{"ID":359756,"DIS_CODE":0,"TOWNNAME":"學甲區","LI":"光華里","LIN":"25鄰","STREET":" ","SECT":" ","MAREA":"新頭港子","LANE":" ","ALLEY":" ","HOUSE_NO":"１３號","E_COORD97":164115.54999999999,"N_COORD97":2573232.75,"ADDRESS":"新頭港子１３號","OBJECTID":359746},"geometry":{"x":164115.55000000168,"y":2573232.75}},{"attributes":{"ID":359757,"DIS_CODE":0,"TOWNNAME":"東區","LI":"東明里","LIN":"19鄰","STREET":"東安路","SECT":" ","MAREA":" ","LANE":"４８巷","ALLEY":" ","HOUSE_NO":"２７號五樓之１","E_COORD97":170751.35999999999,"N_COORD97":2543608.75,"ADDRESS":"東安路４８巷２７號五樓之１","OBJECTID":359747},"geometry":{"x":170751.36000000127,"y":2543608.7499999981}},{"attributes":{"ID":359758,"DIS_CODE":0,"TOWNNAME":"東區","LI":"東明里","LIN":"19鄰","STREET":"東安路","SECT":" ","MAREA":" ","LANE":"４８巷","ALLEY":" ","HOUSE_NO":"２７號五樓之２","E_COORD97":170751.35999999999,"N_COORD97":2543608.75,"ADDRESS":"東安路４８巷２７號五樓之２","OBJECTID":359748},"geometry":{"x":170751.36000000127,"y":2543608.7499999981}},{"attributes":{"ID":359759,"DIS_CODE":0,"TOWNNAME":"東區","LI":"東明里","LIN":"19鄰","STREET":"東安路","SECT":" ","MAREA":" ","LANE":"４８巷","ALLEY":" ","HOUSE_NO":"２７號五樓之３","E_COORD97":170751.35999999999,"N_COORD97":2543608.75,"ADDRESS":"東安路４８巷２７號五樓之３","OBJECTID":359749},"geometry":{"x":170751.36000000127,"y":2543608.7499999981}},{"attributes":{"ID":359760,"DIS_CODE":0,"TOWNNAME":"東區","LI":"東明里","LIN":"19鄰","STREET":"東安路","SECT":" ","MAREA":" ","LANE":"４８巷","ALLEY":" ","HOUSE_NO":"２７號四樓之１","E_COORD97":170751.35999999999,"N_COORD97":2543608.75,"ADDRESS":"東安路４８巷２７號四樓之１","OBJECTID":359750},"geometry":{"x":170751.36000000127,"y":2543608.7499999981}},{"attributes":{"ID":359761,"DIS_CODE":0,"TOWNNAME":"東區","LI":"東明里","LIN":"19鄰","STREET":"東安路","SECT":" ","MAREA":" ","LANE":"４８巷","ALLEY":" ","HOUSE_NO":"２７號四樓之２","E_COORD97":170751.35999999999,"N_COORD97":2543608.75,"ADDRESS":"東安路４８巷２７號四樓之２","OBJECTID":359751},"geometry":{"x":170751.36000000127,"y":2543608.7499999981}},{"attributes":{"ID":359762,"DIS_CODE":0,"TOWNNAME":"東區","LI":"東明里","LIN":"19鄰","STREET":"東安路","SECT":" ","MAREA":" ","LANE":"４８巷","ALLEY":" ","HOUSE_NO":"２７號四樓之３","E_COORD97":170751.35999999999,"N_COORD97":2543608.75,"ADDRESS":"東安路４８巷２７號四樓之３","OBJECTID":359752},"geometry":{"x":170751.36000000127,"y":2543608.7499999981}},{"attributes":{"ID":359763,"DIS_CODE":0,"TOWNNAME":"東區","LI":"東明里","LIN":"19鄰","STREET":"東安路","SECT":" ","MAREA":" ","LANE":"４８巷","ALLEY":" ","HOUSE_NO":"２７號四樓之４","E_COORD97":170751.35999999999,"N_COORD97":2543608.75,"ADDRESS":"東安路４８巷２７號四樓之４","OBJECTID":359753},"geometry":{"x":170751.36000000127,"y":2543608.7499999981}},{"attributes":{"ID":359764,"DIS_CODE":0,"TOWNNAME":"東區","LI":"東明里","LIN":"19鄰","STREET":"東安路","SECT":" ","MAREA":" ","LANE":"４８巷","ALLEY":" ","HOUSE_NO":"２９號二樓","E_COORD97":170760.79000000001,"N_COORD97":2543607.5099999998,"ADDRESS":"東安路４８巷２９號二樓","OBJECTID":359754},"geometry":{"x":170760.79000000004,"y":2543607.5100000016}},{"attributes":{"ID":359765,"DIS_CODE":0,"TOWNNAME":"東區","LI":"東明里","LIN":"19鄰","STREET":"東安路","SECT":" ","MAREA":" ","LANE":"４８巷","ALLEY":" ","HOUSE_NO":"２９號三樓之１","E_COORD97":170760.79000000001,"N_COORD97":2543607.5099999998,"ADDRESS":"東安路４８巷２９號三樓之１","OBJECTID":359755},"geometry":{"x":170760.79000000004,"y":2543607.5100000016}},{"attributes":{"ID":359766,"DIS_CODE":0,"TOWNNAME":"東區","LI":"東明里","LIN":"19鄰","STREET":"東安路","SECT":" ","MAREA":" ","LANE":"４８巷","ALLEY":" ","HOUSE_NO":"２９號三樓之２","E_COORD97":170760.79000000001,"N_COORD97":2543607.5099999998,"ADDRESS":"東安路４８巷２９號三樓之２","OBJECTID":359756},"geometry":{"x":170760.79000000004,"y":2543607.5100000016}},{"attributes":{"ID":359767,"DIS_CODE":0,"TOWNNAME":"東區","LI":"東明里","LIN":"19鄰","STREET":"東安路","SECT":" ","MAREA":" ","LANE":"４８巷","ALLEY":" ","HOUSE_NO":"２９號五樓之１","E_COORD97":170760.79000000001,"N_COORD97":2543607.5099999998,"ADDRESS":"東安路４８巷２９號五樓之１","OBJECTID":359757},"geometry":{"x":170760.79000000004,"y":2543607.5100000016}},{"attributes":{"ID":359768,"DIS_CODE":0,"TOWNNAME":"安南區","LI":"安順里","LIN":"1鄰","STREET":"安和路","SECT":"四段","MAREA":" ","LANE":" ","ALLEY":" ","HOUSE_NO":"１３號","E_COORD97":169947.45000000001,"N_COORD97":2550125.5499999998,"ADDRESS":"安和路四段１３號","OBJECTID":359758},"geometry":{"x":169947.45000000019,"y":2550125.5500000026}},{"attributes":{"ID":359769,"DIS_CODE":0,"TOWNNAME":"仁德區","LI":"保安里","LIN":"19鄰","STREET":"文賢路","SECT":"二段","MAREA":" ","LANE":"１５巷","ALLEY":" ","HOUSE_NO":"２６號三樓之２","E_COORD97":171861.17999999999,"N_COORD97":2535903.5699999998,"ADDRESS":"文賢路二段１５巷２６號三樓之２","OBJECTID":359759},"geometry":{"x":171861.1799999997,"y":2535903.5700000003}},{"attributes":{"ID":359770,"DIS_CODE":0,"TOWNNAME":"仁德區","LI":"保安里","LIN":"19鄰","STREET":"文賢路","SECT":"二段","MAREA":" ","LANE":"１５巷","ALLEY":" ","HOUSE_NO":"２６號四樓之２","E_COORD97":171861.17999999999,"N_COORD97":2535903.5699999998,"ADDRESS":"文賢路二段１５巷２６號四樓之２","OBJECTID":359760},"geometry":{"x":171861.1799999997,"y":2535903.5700000003}},{"attributes":{"ID":359771,"DIS_CODE":0,"TOWNNAME":"仁德區","LI":"保安里","LIN":"19鄰","STREET":"文賢路","SECT":"二段","MAREA":" ","LANE":"１５巷","ALLEY":" ","HOUSE_NO":"２６號五樓之２","E_COORD97":171861.17999999999,"N_COORD97":2535903.5699999998,"ADDRESS":"文賢路二段１５巷２６號五樓之２","OBJECTID":359761},"geometry":{"x":171861.1799999997,"y":2535903.5700000003}},{"attributes":{"ID":359772,"DIS_CODE":0,"TOWNNAME":"仁德區","LI":"保安里","LIN":"19鄰","STREET":"文賢路","SECT":"二段","MAREA":" ","LANE":"１５巷","ALLEY":" ","HOUSE_NO":"２６號三樓之１","E_COORD97":171861.04999999999,"N_COORD97":2535903.5699999998,"ADDRESS":"文賢路二段１５巷２６號三樓之１","OBJECTID":359762},"geometry":{"x":171861.05000000075,"y":2535903.5700000003}},{"attributes":{"ID":359773,"DIS_CODE":0,"TOWNNAME":"仁德區","LI":"保安里","LIN":"19鄰","STREET":"文賢路","SECT":"二段","MAREA":" ","LANE":"１５巷","ALLEY":" ","HOUSE_NO":"２６號三樓之３","E_COORD97":171861.14000000001,"N_COORD97":2535903.5699999998,"ADDRESS":"文賢路二段１５巷２６號三樓之３","OBJECTID":359763},"geometry":{"x":171861.13999999966,"y":2535903.5700000003}},{"attributes":{"ID":359774,"DIS_CODE":0,"TOWNNAME":"永康區","LI":"勝利里","LIN":"19鄰","STREET":"勝利街","SECT":" ","MAREA":" ","LANE":"１９７巷","ALLEY":" ","HOUSE_NO":"２６號","E_COORD97":171270.76999999999,"N_COORD97":2545139,"ADDRESS":"勝利街１９７巷２６號","OBJECTID":359764},"geometry":{"x":171270.77000000142,"y":2545139}},{"attributes":{"ID":359775,"DIS_CODE":0,"TOWNNAME":"永康區","LI":"勝利里","LIN":"19鄰","STREET":"勝利街","SECT":" ","MAREA":" ","LANE":"１９７巷","ALLEY":" ","HOUSE_NO":"１６號","E_COORD97":171290.88,"N_COORD97":2545138.25,"ADDRESS":"勝利街１９７巷１６號","OBJECTID":359765},"geometry":{"x":171290.88000000175,"y":2545138.2500000037}},{"attributes":{"ID":359776,"DIS_CODE":0,"TOWNNAME":"永康區","LI":"勝利里","LIN":"19鄰","STREET":"勝利街","SECT":" ","MAREA":" ","LANE":"１９７巷","ALLEY":" ","HOUSE_NO":"３６號","E_COORD97":171251.01000000001,"N_COORD97":2545140.25,"ADDRESS":"勝利街１９７巷３６號","OBJECTID":359766},"geometry":{"x":171251.01000000071,"y":2545140.25}},{"attributes":{"ID":359777,"DIS_CODE":0,"TOWNNAME":"永康區","LI":"勝利里","LIN":"19鄰","STREET":"勝利街","SECT":" ","MAREA":" ","LANE":"１９７巷","ALLEY":" ","HOUSE_NO":"３１號","E_COORD97":171255.60000000001,"N_COORD97":2545128.25,"ADDRESS":"勝利街１９７巷３１號","OBJECTID":359767},"geometry":{"x":171255.60000000056,"y":2545128.2500000019}},{"attributes":{"ID":359778,"DIS_CODE":0,"TOWNNAME":"永康區","LI":"中興里","LIN":"19鄰","STREET":"中山東路","SECT":" ","MAREA":" ","LANE":"３６６巷","ALLEY":" ","HOUSE_NO":"１５號","E_COORD97":171845.85000000001,"N_COORD97":2545286.4900000002,"ADDRESS":"中山東路３６６巷１５號","OBJECTID":359768},"geometry":{"x":171845.85000000056,"y":2545286.4900000021}},{"attributes":{"ID":359779,"DIS_CODE":0,"TOWNNAME":"永康區","LI":"中興里","LIN":"19鄰","STREET":"中山東路","SECT":" ","MAREA":" ","LANE":"３５０巷","ALLEY":" ","HOUSE_NO":"９號","E_COORD97":171855.51999999999,"N_COORD97":2545345.2400000002,"ADDRESS":"中山東路３５０巷９號","OBJECTID":359769},"geometry":{"x":171855.51999999955,"y":2545345.2400000039}},{"attributes":{"ID":359780,"DIS_CODE":0,"TOWNNAME":"永康區","LI":"中興里","LIN":"19鄰","STREET":"中山東路","SECT":" ","MAREA":" ","LANE":"３５０巷","ALLEY":" ","HOUSE_NO":"１１號","E_COORD97":171856.76999999999,"N_COORD97":2545345.2400000002,"ADDRESS":"中山東路３５０巷１１號","OBJECTID":359770},"geometry":{"x":171856.76999999955,"y":2545345.2400000039}},{"attributes":{"ID":359781,"DIS_CODE":0,"TOWNNAME":"永康區","LI":"中興里","LIN":"19鄰","STREET":"中山東路","SECT":" ","MAREA":" ","LANE":"３６６巷","ALLEY":" ","HOUSE_NO":"１號","E_COORD97":171872.85999999999,"N_COORD97":2545284.5,"ADDRESS":"中山東路３６６巷１號","OBJECTID":359771},"geometry":{"x":171872.8600000022,"y":2545284.5}},{"attributes":{"ID":359782,"DIS_CODE":0,"TOWNNAME":"永康區","LI":"中興里","LIN":"19鄰","STREET":"中山東路","SECT":" ","MAREA":" ","LANE":"３６６巷","ALLEY":" ","HOUSE_NO":"４２號","E_COORD97":171820.51000000001,"N_COORD97":2545302.7999999998,"ADDRESS":"中山東路３６６巷４２號","OBJECTID":359772},"geometry":{"x":171820.51000000071,"y":2545302.8000000026}},{"attributes":{"ID":359783,"DIS_CODE":0,"TOWNNAME":"永康區","LI":"大灣里","LIN":"19鄰","STREET":"大灣路","SECT":" ","MAREA":" ","LANE":"３７２巷","ALLEY":" ","HOUSE_NO":"６號","E_COORD97":174799.98000000001,"N_COORD97":2545099.71,"ADDRESS":"大灣路３７２巷６號","OBJECTID":359773},"geometry":{"x":174799.98000000138,"y":2545099.7100000028}},{"attributes":{"ID":359784,"DIS_CODE":0,"TOWNNAME":"永康區","LI":"中興里","LIN":"19鄰","STREET":"中山東路","SECT":" ","MAREA":" ","LANE":"３６６巷","ALLEY":" ","HOUSE_NO":"３３號","E_COORD97":171801.85000000001,"N_COORD97":2545287,"ADDRESS":"中山東路３６６巷３３號","OBJECTID":359774},"geometry":{"x":171801.84999999963,"y":2545287.0000000019}},{"attributes":{"ID":359785,"DIS_CODE":0,"TOWNNAME":"永康區","LI":"大灣里","LIN":"19鄰","STREET":"大灣路","SECT":" ","MAREA":" ","LANE":"３７２巷","ALLEY":" ","HOUSE_NO":"４號","E_COORD97":174803.81,"N_COORD97":2545098.5899999999,"ADDRESS":"大灣路３７２巷４號","OBJECTID":359775},"geometry":{"x":174803.81000000052,"y":2545098.5900000017}},{"attributes":{"ID":359786,"DIS_CODE":0,"TOWNNAME":"永康區","LI":"中興里","LIN":"19鄰","STREET":"中山東路","SECT":" ","MAREA":" ","LANE":"３６６巷","ALLEY":" ","HOUSE_NO":"５０號","E_COORD97":171808.35999999999,"N_COORD97":2545302.7999999998,"ADDRESS":"中山東路３６６巷５０號","OBJECTID":359776},"geometry":{"x":171808.3600000022,"y":2545302.8000000026}},{"attributes":{"ID":359787,"DIS_CODE":0,"TOWNNAME":"永康區","LI":"中興里","LIN":"19鄰","STREET":"中山東路","SECT":" ","MAREA":" ","LANE":"３６６巷","ALLEY":" ","HOUSE_NO":"３５號","E_COORD97":171797.85999999999,"N_COORD97":2545287.25,"ADDRESS":"中山東路３６６巷３５號","OBJECTID":359777},"geometry":{"x":171797.86000000034,"y":2545287.2500000037}},{"attributes":{"ID":359788,"DIS_CODE":0,"TOWNNAME":"東區","LI":"泉南里","LIN":"19鄰","STREET":"府連東路","SECT":" ","MAREA":" ","LANE":"２２巷","ALLEY":" ","HOUSE_NO":"３２號","E_COORD97":169716.81,"N_COORD97":2542715.4100000001,"ADDRESS":"府連東路２２巷３２號","OBJECTID":359778},"geometry":{"x":169716.81000000052,"y":2542715.4100000001}},{"attributes":{"ID":359789,"DIS_CODE":0,"TOWNNAME":"東區","LI":"泉南里","LIN":"19鄰","STREET":"府連東路","SECT":" ","MAREA":" ","LANE":"２２巷","ALLEY":" ","HOUSE_NO":"４０號","E_COORD97":169703.04999999999,"N_COORD97":2542718.3900000001,"ADDRESS":"府連東路２２巷４０號","OBJECTID":359779},"geometry":{"x":169703.05000000075,"y":2542718.3900000025}},{"attributes":{"ID":359790,"DIS_CODE":0,"TOWNNAME":"東區","LI":"泉南里","LIN":"19鄰","STREET":"府連東路","SECT":" ","MAREA":" ","LANE":"２２巷","ALLEY":" ","HOUSE_NO":"７０號","E_COORD97":169709.19,"N_COORD97":2542711.52,"ADDRESS":"府連東路２２巷７０號","OBJECTID":359780},"geometry":{"x":169709.18999999948,"y":2542711.5200000033}},{"attributes":{"ID":359791,"DIS_CODE":0,"TOWNNAME":"東區","LI":"泉南里","LIN":"19鄰","STREET":"府連東路","SECT":" ","MAREA":" ","LANE":"２２巷","ALLEY":" ","HOUSE_NO":"７４號","E_COORD97":169715.20999999999,"N_COORD97":2542705.5499999998,"ADDRESS":"府連東路２２巷７４號","OBJECTID":359781},"geometry":{"x":169715.20999999996,"y":2542705.5500000007}},{"attributes":{"ID":359792,"DIS_CODE":0,"TOWNNAME":"東區","LI":"泉南里","LIN":"19鄰","STREET":"府連東路","SECT":" ","MAREA":" ","LANE":"２２巷","ALLEY":" ","HOUSE_NO":"７６號","E_COORD97":169713.60999999999,"N_COORD97":2542699.6899999999,"ADDRESS":"府連東路２２巷７６號","OBJECTID":359782},"geometry":{"x":169713.61000000127,"y":2542699.6899999995}},{"attributes":{"ID":359793,"DIS_CODE":0,"TOWNNAME":"東區","LI":"泉南里","LIN":"19鄰","STREET":"府連東路","SECT":" ","MAREA":" ","LANE":"２２巷","ALLEY":" ","HOUSE_NO":"３８號","E_COORD97":169706.20000000001,"N_COORD97":2542717.8599999999,"ADDRESS":"府連東路２２巷３８號","OBJECTID":359783},"geometry":{"x":169706.20000000112,"y":2542717.8599999994}},{"attributes":{"ID":359794,"DIS_CODE":0,"TOWNNAME":"關廟區","LI":"東勢里","LIN":"19鄰","STREET":"東仁街","SECT":" ","MAREA":" ","LANE":"７６巷","ALLEY":" ","HOUSE_NO":"３號","E_COORD97":181791.22,"N_COORD97":2539233.25,"ADDRESS":"東仁街７６巷３號","OBJECTID":359784},"geometry":{"x":181791.21999999974,"y":2539233.2500000019}},{"attributes":{"ID":359795,"DIS_CODE":0,"TOWNNAME":"東區","LI":"泉南里","LIN":"19鄰","STREET":"府連東路","SECT":" ","MAREA":" ","LANE":"２２巷","ALLEY":" ","HOUSE_NO":"４２號","E_COORD97":169700.42999999999,"N_COORD97":2542719.96,"ADDRESS":"府連東路２２巷４２號","OBJECTID":359785},"geometry":{"x":169700.43000000063,"y":2542719.959999999}},{"attributes":{"ID":359796,"DIS_CODE":0,"TOWNNAME":"東區","LI":"泉南里","LIN":"19鄰","STREET":"府連東路","SECT":" ","MAREA":" ","LANE":"２２巷","ALLEY":" ","HOUSE_NO":"４４號","E_COORD97":169698.01999999999,"N_COORD97":2542721.0099999998,"ADDRESS":"府連東路２２巷４４號","OBJECTID":359786},"geometry":{"x":169698.02000000048,"y":2542721.0099999998}},{"attributes":{"ID":359797,"DIS_CODE":0,"TOWNNAME":"東區","LI":"泉南里","LIN":"19鄰","STREET":"府連東路","SECT":" ","MAREA":" ","LANE":"２２巷","ALLEY":" ","HOUSE_NO":"４８號","E_COORD97":169691.51999999999,"N_COORD97":2542723.3100000001,"ADDRESS":"府連東路２２巷４８號","OBJECTID":359787},"geometry":{"x":169691.52000000048,"y":2542723.3100000005}},{"attributes":{"ID":359798,"DIS_CODE":0,"TOWNNAME":"東區","LI":"泉南里","LIN":"19鄰","STREET":"府連東路","SECT":" ","MAREA":" ","LANE":"２２巷","ALLEY":" ","HOUSE_NO":"５０號","E_COORD97":169688.37,"N_COORD97":2542724.1499999999,"ADDRESS":"府連東路２２巷５０號","OBJECTID":359788},"geometry":{"x":169688.37000000011,"y":2542724.1500000004}},{"attributes":{"ID":359799,"DIS_CODE":0,"TOWNNAME":"安南區","LI":"安順里","LIN":"1鄰","STREET":"安和路","SECT":"四段","MAREA":" ","LANE":" ","ALLEY":" ","HOUSE_NO":"１５號","E_COORD97":169944.70999999999,"N_COORD97":2550130.2599999998,"ADDRESS":"安和路四段１５號","OBJECTID":359789},"geometry":{"x":169944.71000000089,"y":2550130.2599999998}},{"attributes":{"ID":359800,"DIS_CODE":0,"TOWNNAME":"學甲區","LI":"新達里","LIN":"25鄰","STREET":" ","SECT":" ","MAREA":"瓦寮","LANE":" ","ALLEY":" ","HOUSE_NO":"２４號","E_COORD97":169591.5,"N_COORD97":2570271.46,"ADDRESS":"瓦寮２４號","OBJECTID":359790},"geometry":{"x":169591.50000000186,"y":2570271.4600000028}},{"attributes":{"ID":359801,"DIS_CODE":0,"TOWNNAME":"安南區","LI":"溪頂里","LIN":"25鄰","STREET":"郡安路","SECT":"四段","MAREA":" ","LANE":"１２０巷","ALLEY":" ","HOUSE_NO":"４４號","E_COORD97":168856.13,"N_COORD97":2547490.4700000002,"ADDRESS":"郡安路四段１２０巷４４號","OBJECTID":359791},"geometry":{"x":168856.12999999989,"y":2547490.4700000025}},{"attributes":{"ID":359802,"DIS_CODE":0,"TOWNNAME":"永康區","LI":"崑山里","LIN":"25鄰","STREET":"大仁街","SECT":" ","MAREA":" ","LANE":"７１巷","ALLEY":" ","HOUSE_NO":"８號","E_COORD97":173773.72,"N_COORD97":2544723.25,"ADDRESS":"大仁街７１巷８號","OBJECTID":359792},"geometry":{"x":173773.72000000067,"y":2544723.25}},{"attributes":{"ID":359803,"DIS_CODE":0,"TOWNNAME":"永康區","LI":"崑山里","LIN":"25鄰","STREET":"大仁街","SECT":" ","MAREA":" ","LANE":"５１巷","ALLEY":" ","HOUSE_NO":"１６號","E_COORD97":173740.67000000001,"N_COORD97":2544679.3900000001,"ADDRESS":"大仁街５１巷１６號","OBJECTID":359793},"geometry":{"x":173740.67000000086,"y":2544679.3900000006}},{"attributes":{"ID":359804,"DIS_CODE":0,"TOWNNAME":"永康區","LI":"崑山里","LIN":"25鄰","STREET":"大仁街","SECT":" ","MAREA":" ","LANE":"７１巷","ALLEY":" ","HOUSE_NO":"１９號之１","E_COORD97":173770.62,"N_COORD97":2544708.71,"ADDRESS":"大仁街７１巷１９號之１","OBJECTID":359794},"geometry":{"x":173770.62000000011,"y":2544708.7100000046}},{"attributes":{"ID":359805,"DIS_CODE":0,"TOWNNAME":"永康區","LI":"埔園里","LIN":"25鄰","STREET":"埔東街","SECT":" ","MAREA":" ","LANE":"４７巷","ALLEY":" ","HOUSE_NO":"１號","E_COORD97":173747.87,"N_COORD97":2548148.2400000002,"ADDRESS":"埔東街４７巷１號","OBJECTID":359795},"geometry":{"x":173747.87000000104,"y":2548148.2400000002}},{"attributes":{"ID":359806,"DIS_CODE":0,"TOWNNAME":"東區","LI":"泉南里","LIN":"19鄰","STREET":"府連東路","SECT":" ","MAREA":" ","LANE":"２２巷","ALLEY":" ","HOUSE_NO":"５２號","E_COORD97":169686.26999999999,"N_COORD97":2542725.2000000002,"ADDRESS":"府連東路２２巷５２號","OBJECTID":359796},"geometry":{"x":169686.27000000048,"y":2542725.2000000011}},{"attributes":{"ID":359807,"DIS_CODE":0,"TOWNNAME":"東區","LI":"泉南里","LIN":"19鄰","STREET":"府連東路","SECT":" ","MAREA":" ","LANE":"２２巷","ALLEY":" ","HOUSE_NO":"５４號","E_COORD97":169689.25,"N_COORD97":2542718.0499999998,"ADDRESS":"府連東路２２巷５４號","OBJECTID":359797},"geometry":{"x":169689.25,"y":2542718.0500000007}},{"attributes":{"ID":359808,"DIS_CODE":0,"TOWNNAME":"東區","LI":"泉南里","LIN":"19鄰","STREET":"府連東路","SECT":" ","MAREA":" ","LANE":"２２巷","ALLEY":" ","HOUSE_NO":"４６號","E_COORD97":169694.45000000001,"N_COORD97":2542722.3700000001,"ADDRESS":"府連東路２２巷４６號","OBJECTID":359798},"geometry":{"x":169694.45000000112,"y":2542722.3700000029}},{"attributes":{"ID":359809,"DIS_CODE":0,"TOWNNAME":"永康區","LI":"中興里","LIN":"19鄰","STREET":"中山東路","SECT":" ","MAREA":" ","LANE":"３６６巷","ALLEY":" ","HOUSE_NO":"５２號","E_COORD97":171804.04000000001,"N_COORD97":2545302.5499999998,"ADDRESS":"中山東路３６６巷５２號","OBJECTID":359799},"geometry":{"x":171804.04000000097,"y":2545302.5500000007}},{"attributes":{"ID":359810,"DIS_CODE":0,"TOWNNAME":"永康區","LI":"五王里","LIN":"19鄰","STREET":"成功路","SECT":" ","MAREA":" ","LANE":"１７２巷","ALLEY":" ","HOUSE_NO":"３１號","E_COORD97":171505.92999999999,"N_COORD97":2545677.5099999998,"ADDRESS":"成功路１７２巷３１號","OBJECTID":359800},"geometry":{"x":171505.93000000063,"y":2545677.5099999998}}]}