{"displayFieldName":"TOWNNAME","fieldAliases":{"ID":"ID","DIS_CODE":"DIS_CODE","TOWNNAME":"TOWNNAME","LI":"LI","LIN":"LIN","STREET":"STREET","SECT":"SECT","MAREA":"MAREA","LANE":"LANE","ALLEY":"ALLEY","HOUSE_NO":"HOUSE_NO","E_COORD97":"E_COORD97","N_COORD97":"N_COORD97","ADDRESS":"ADDRESS","OBJECTID":"OBJECTID"},"geometryType":"esriGeometryPoint","spatialReference":{"wkid":102443,"latestWkid":3826},"fields":[{"name":"ID","type":"esriFieldTypeDouble","alias":"ID"},{"name":"DIS_CODE","type":"esriFieldTypeInteger","alias":"DIS_CODE"},{"name":"TOWNNAME","type":"esriFieldTypeString","alias":"TOWNNAME","length":8},{"name":"LI","type":"esriFieldTypeString","alias":"LI","length":8},{"name":"LIN","type":"esriFieldTypeString","alias":"LIN","length":12},{"name":"STREET","type":"esriFieldTypeString","alias":"STREET","length":20},{"name":"SECT","type":"esriFieldTypeString","alias":"SECT","length":8},{"name":"MAREA","type":"esriFieldTypeString","alias":"MAREA","length":12},{"name":"LANE","type":"esriFieldTypeString","alias":"LANE","length":10},{"name":"ALLEY","type":"esriFieldTypeString","alias":"ALLEY","length":10},{"name":"HOUSE_NO","type":"esriFieldTypeString","alias":"HOUSE_NO","length":20},{"name":"E_COORD97","type":"esriFieldTypeDouble","alias":"E_COORD97"},{"name":"N_COORD97","type":"esriFieldTypeDouble","alias":"N_COORD97"},{"name":"ADDRESS","type":"esriFieldTypeString","alias":"ADDRESS","length":50},{"name":"OBJECTID","type":"esriFieldTypeOID","alias":"OBJECTID"}],"features":[{"attributes":{"ID":634028,"DIS_CODE":0,"TOWNNAME":"永康區","LI":"大橋里","LIN":"18鄰","STREET":"大橋二街","SECT":" ","MAREA":" ","LANE":" ","ALLEY":" ","HOUSE_NO":"１６６號六樓","E_COORD97":171072.94,"N_COORD97":2546759.27,"ADDRESS":"大橋二街１６６號六樓","OBJECTID":634001},"geometry":{"x":171072.94000000134,"y":2546759.2700000014}},{"attributes":{"ID":634029,"DIS_CODE":0,"TOWNNAME":"永康區","LI":"大橋里","LIN":"4鄰","STREET":"大橋五街","SECT":" ","MAREA":" ","LANE":" ","ALLEY":" ","HOUSE_NO":"１４１號八樓之５","E_COORD97":170968.89999999999,"N_COORD97":2547008.29,"ADDRESS":"大橋五街１４１號八樓之５","OBJECTID":634002},"geometry":{"x":170968.90000000037,"y":2547008.2900000028}},{"attributes":{"ID":634030,"DIS_CODE":0,"TOWNNAME":"永康區","LI":"大橋里","LIN":"4鄰","STREET":"大橋五街","SECT":" ","MAREA":" ","LANE":" ","ALLEY":" ","HOUSE_NO":"１６７號三樓","E_COORD97":171026.98999999999,"N_COORD97":2547022.0499999998,"ADDRESS":"大橋五街１６７號三樓","OBJECTID":634003},"geometry":{"x":171026.99000000022,"y":2547022.0500000045}},{"attributes":{"ID":634031,"DIS_CODE":0,"TOWNNAME":"永康區","LI":"大橋里","LIN":"4鄰","STREET":"大橋五街","SECT":" ","MAREA":" ","LANE":" ","ALLEY":" ","HOUSE_NO":"１４１號七樓之１","E_COORD97":170968.73999999999,"N_COORD97":2547008.29,"ADDRESS":"大橋五街１４１號七樓之１","OBJECTID":634004},"geometry":{"x":170968.74000000115,"y":2547008.2900000028}},{"attributes":{"ID":634032,"DIS_CODE":0,"TOWNNAME":"永康區","LI":"大橋里","LIN":"4鄰","STREET":"大橋五街","SECT":" ","MAREA":" ","LANE":" ","ALLEY":" ","HOUSE_NO":"１４１號七樓之２","E_COORD97":170968.88,"N_COORD97":2547008.29,"ADDRESS":"大橋五街１４１號七樓之２","OBJECTID":634005},"geometry":{"x":170968.88000000082,"y":2547008.2900000028}},{"attributes":{"ID":634033,"DIS_CODE":0,"TOWNNAME":"永康區","LI":"大橋里","LIN":"18鄰","STREET":"大橋二街","SECT":" ","MAREA":" ","LANE":" ","ALLEY":" ","HOUSE_NO":"１７２號三樓","E_COORD97":171084.89000000001,"N_COORD97":2546737.79,"ADDRESS":"大橋二街１７２號三樓","OBJECTID":634006},"geometry":{"x":171084.88999999966,"y":2546737.790000001}},{"attributes":{"ID":634034,"DIS_CODE":0,"TOWNNAME":"永康區","LI":"大橋里","LIN":"14鄰","STREET":"大橋一街","SECT":" ","MAREA":" ","LANE":" ","ALLEY":" ","HOUSE_NO":"６３號八樓之１","E_COORD97":170898.78,"N_COORD97":2546429.5499999998,"ADDRESS":"大橋一街６３號八樓之１","OBJECTID":634007},"geometry":{"x":170898.78000000119,"y":2546429.5500000026}},{"attributes":{"ID":634035,"DIS_CODE":0,"TOWNNAME":"永康區","LI":"大橋里","LIN":"4鄰","STREET":"大橋五街","SECT":" ","MAREA":" ","LANE":" ","ALLEY":" ","HOUSE_NO":"１４１號五樓之５","E_COORD97":170968.89999999999,"N_COORD97":2547008.29,"ADDRESS":"大橋五街１４１號五樓之５","OBJECTID":634008},"geometry":{"x":170968.90000000037,"y":2547008.2900000028}},{"attributes":{"ID":634036,"DIS_CODE":0,"TOWNNAME":"永康區","LI":"大橋里","LIN":"4鄰","STREET":"大橋五街","SECT":" ","MAREA":" ","LANE":" ","ALLEY":" ","HOUSE_NO":"１３７號三樓之１","E_COORD97":170961.78,"N_COORD97":2546977.6699999999,"ADDRESS":"大橋五街１３７號三樓之１","OBJECTID":634009},"geometry":{"x":170961.78000000119,"y":2546977.6700000018}},{"attributes":{"ID":634037,"DIS_CODE":0,"TOWNNAME":"永康區","LI":"大橋里","LIN":"14鄰","STREET":"大橋一街","SECT":" ","MAREA":" ","LANE":" ","ALLEY":" ","HOUSE_NO":"６３號六樓之１","E_COORD97":170898.78,"N_COORD97":2546429.5499999998,"ADDRESS":"大橋一街６３號六樓之１","OBJECTID":634010},"geometry":{"x":170898.78000000119,"y":2546429.5500000026}},{"attributes":{"ID":634038,"DIS_CODE":0,"TOWNNAME":"永康區","LI":"北灣里","LIN":"32鄰","STREET":"大同街","SECT":" ","MAREA":" ","LANE":" ","ALLEY":" ","HOUSE_NO":"６３號三樓之５","E_COORD97":175159.70999999999,"N_COORD97":2545424.0099999998,"ADDRESS":"大同街６３號三樓之５","OBJECTID":634011},"geometry":{"x":175159.70999999996,"y":2545424.0099999979}},{"attributes":{"ID":634039,"DIS_CODE":0,"TOWNNAME":"永康區","LI":"五王里","LIN":"42鄰","STREET":"五福街","SECT":" ","MAREA":" ","LANE":" ","ALLEY":" ","HOUSE_NO":"１８５號五樓之１","E_COORD97":171670.59,"N_COORD97":2546058.6400000001,"ADDRESS":"五福街１８５號五樓之１","OBJECTID":634012},"geometry":{"x":171670.58999999892,"y":2546058.6400000025}},{"attributes":{"ID":634040,"DIS_CODE":0,"TOWNNAME":"永康區","LI":"五王里","LIN":"42鄰","STREET":"五福街","SECT":" ","MAREA":" ","LANE":" ","ALLEY":" ","HOUSE_NO":"１８５號七樓之１","E_COORD97":171670.59,"N_COORD97":2546058.6400000001,"ADDRESS":"五福街１８５號七樓之１","OBJECTID":634013},"geometry":{"x":171670.58999999892,"y":2546058.6400000025}},{"attributes":{"ID":634041,"DIS_CODE":0,"TOWNNAME":"永康區","LI":"五王里","LIN":"20鄰","STREET":"中華路","SECT":" ","MAREA":" ","LANE":" ","ALLEY":" ","HOUSE_NO":"４７２號三樓","E_COORD97":171327.5,"N_COORD97":2545716.7599999998,"ADDRESS":"中華路４７２號三樓","OBJECTID":634014},"geometry":{"x":171327.50000000186,"y":2545716.7599999998}},{"attributes":{"ID":634042,"DIS_CODE":0,"TOWNNAME":"永康區","LI":"北灣里","LIN":"32鄰","STREET":"大同街","SECT":" ","MAREA":" ","LANE":" ","ALLEY":" ","HOUSE_NO":"６９號四樓之２","E_COORD97":175148.09,"N_COORD97":2545427.5699999998,"ADDRESS":"大同街６９號四樓之２","OBJECTID":634015},"geometry":{"x":175148.09000000078,"y":2545427.570000004}},{"attributes":{"ID":634043,"DIS_CODE":0,"TOWNNAME":"永康區","LI":"北灣里","LIN":"32鄰","STREET":"大同街","SECT":" ","MAREA":" ","LANE":" ","ALLEY":" ","HOUSE_NO":"６９號四樓之７","E_COORD97":175148.04000000001,"N_COORD97":2545427.5699999998,"ADDRESS":"大同街６９號四樓之７","OBJECTID":634016},"geometry":{"x":175148.0400000019,"y":2545427.570000004}},{"attributes":{"ID":634044,"DIS_CODE":0,"TOWNNAME":"永康區","LI":"北灣里","LIN":"32鄰","STREET":"大同街","SECT":" ","MAREA":" ","LANE":" ","ALLEY":" ","HOUSE_NO":"６９號六樓之６","E_COORD97":175148.06,"N_COORD97":2545427.5699999998,"ADDRESS":"大同街６９號六樓之６","OBJECTID":634017},"geometry":{"x":175148.06000000052,"y":2545427.570000004}},{"attributes":{"ID":634045,"DIS_CODE":0,"TOWNNAME":"永康區","LI":"北灣里","LIN":"32鄰","STREET":"大同街","SECT":" ","MAREA":" ","LANE":" ","ALLEY":" ","HOUSE_NO":"６３號二樓之３","E_COORD97":175159.66,"N_COORD97":2545424.0099999998,"ADDRESS":"大同街６３號二樓之３","OBJECTID":634018},"geometry":{"x":175159.66000000108,"y":2545424.0099999979}},{"attributes":{"ID":634046,"DIS_CODE":0,"TOWNNAME":"永康區","LI":"大橋里","LIN":"4鄰","STREET":"大橋五街","SECT":" ","MAREA":" ","LANE":" ","ALLEY":" ","HOUSE_NO":"１２３號四樓","E_COORD97":170932.59,"N_COORD97":2546976.8700000001,"ADDRESS":"大橋五街１２３號四樓","OBJECTID":634019},"geometry":{"x":170932.58999999985,"y":2546976.8700000029}},{"attributes":{"ID":634047,"DIS_CODE":0,"TOWNNAME":"永康區","LI":"大橋里","LIN":"4鄰","STREET":"大橋五街","SECT":" ","MAREA":" ","LANE":" ","ALLEY":" ","HOUSE_NO":"１２９號四樓","E_COORD97":170927.35000000001,"N_COORD97":2546992.5,"ADDRESS":"大橋五街１２９號四樓","OBJECTID":634020},"geometry":{"x":170927.34999999963,"y":2546992.5000000019}},{"attributes":{"ID":634048,"DIS_CODE":0,"TOWNNAME":"永康區","LI":"北灣里","LIN":"32鄰","STREET":"大同街","SECT":" ","MAREA":" ","LANE":" ","ALLEY":" ","HOUSE_NO":"６３號七樓之２","E_COORD97":175159.69,"N_COORD97":2545424.0099999998,"ADDRESS":"大同街６３號七樓之２","OBJECTID":634021},"geometry":{"x":175159.69000000134,"y":2545424.0099999979}},{"attributes":{"ID":634049,"DIS_CODE":0,"TOWNNAME":"東區","LI":"龍山里","LIN":"10鄰","STREET":"府東街","SECT":" ","MAREA":" ","LANE":" ","ALLEY":" ","HOUSE_NO":"６６號三樓","E_COORD97":169936.05594300001,"N_COORD97":2542942.3786900002,"ADDRESS":"府東街６６號三樓","OBJECTID":634022},"geometry":{"x":169936.05594300013,"y":2542942.3786940016}},{"attributes":{"ID":634050,"DIS_CODE":0,"TOWNNAME":"永康區","LI":"大橋里","LIN":"4鄰","STREET":"大橋五街","SECT":" ","MAREA":" ","LANE":" ","ALLEY":" ","HOUSE_NO":"１３７號六樓之１","E_COORD97":170961.78,"N_COORD97":2546977.6699999999,"ADDRESS":"大橋五街１３７號六樓之１","OBJECTID":634023},"geometry":{"x":170961.78000000119,"y":2546977.6700000018}},{"attributes":{"ID":634051,"DIS_CODE":0,"TOWNNAME":"永康區","LI":"大橋里","LIN":"4鄰","STREET":"大橋五街","SECT":" ","MAREA":" ","LANE":" ","ALLEY":" ","HOUSE_NO":"１２９號二樓","E_COORD97":170927.35000000001,"N_COORD97":2546992.5,"ADDRESS":"大橋五街１２９號二樓","OBJECTID":634024},"geometry":{"x":170927.34999999963,"y":2546992.5000000019}},{"attributes":{"ID":634052,"DIS_CODE":0,"TOWNNAME":"永康區","LI":"五王里","LIN":"20鄰","STREET":"成功路","SECT":" ","MAREA":" ","LANE":" ","ALLEY":" ","HOUSE_NO":"１２１號六樓之２","E_COORD97":171408.5,"N_COORD97":2545647.54,"ADDRESS":"成功路１２１號六樓之２","OBJECTID":634025},"geometry":{"x":171408.5,"y":2545647.540000001}},{"attributes":{"ID":634053,"DIS_CODE":0,"TOWNNAME":"永康區","LI":"五王里","LIN":"24鄰","STREET":"成功路","SECT":" ","MAREA":" ","LANE":" ","ALLEY":" ","HOUSE_NO":"２５８號三樓之１","E_COORD97":171313.73000000001,"N_COORD97":2545846.04,"ADDRESS":"成功路２５８號三樓之１","OBJECTID":634026},"geometry":{"x":171313.73000000045,"y":2545846.0399999991}},{"attributes":{"ID":634054,"DIS_CODE":0,"TOWNNAME":"永康區","LI":"大橋里","LIN":"5鄰","STREET":"大橋五街","SECT":" ","MAREA":" ","LANE":" ","ALLEY":" ","HOUSE_NO":"２號八樓之２","E_COORD97":170770.17000000001,"N_COORD97":2546837.54,"ADDRESS":"大橋五街２號八樓之２","OBJECTID":634027},"geometry":{"x":170770.17000000179,"y":2546837.540000001}},{"attributes":{"ID":634055,"DIS_CODE":0,"TOWNNAME":"永康區","LI":"復國里","LIN":"20鄰","STREET":"國華街","SECT":" ","MAREA":" ","LANE":" ","ALLEY":" ","HOUSE_NO":"５９號三樓之１","E_COORD97":172823.42000000001,"N_COORD97":2545757.4199999999,"ADDRESS":"國華街５９號三樓之１","OBJECTID":634028},"geometry":{"x":172823.42000000086,"y":2545757.4200000037}},{"attributes":{"ID":634056,"DIS_CODE":0,"TOWNNAME":"永康區","LI":"復國里","LIN":"20鄰","STREET":"國華街","SECT":" ","MAREA":" ","LANE":" ","ALLEY":" ","HOUSE_NO":"５５號十四樓之４","E_COORD97":172800.70000000001,"N_COORD97":2545761.4199999999,"ADDRESS":"國華街５５號十四樓之４","OBJECTID":634029},"geometry":{"x":172800.70000000019,"y":2545761.4200000018}},{"attributes":{"ID":634057,"DIS_CODE":0,"TOWNNAME":"永康區","LI":"復國里","LIN":"26鄰","STREET":"復華三街","SECT":" ","MAREA":" ","LANE":" ","ALLEY":" ","HOUSE_NO":"６２號十九樓之１","E_COORD97":172711.72,"N_COORD97":2545562.9700000002,"ADDRESS":"復華三街６２號十九樓之１","OBJECTID":634030},"geometry":{"x":172711.71999999974,"y":2545562.9700000007}},{"attributes":{"ID":634058,"DIS_CODE":0,"TOWNNAME":"永康區","LI":"復國里","LIN":"26鄰","STREET":"復華三街","SECT":" ","MAREA":" ","LANE":" ","ALLEY":" ","HOUSE_NO":"６２號八樓之６","E_COORD97":172710.57000000001,"N_COORD97":2545562.9700000002,"ADDRESS":"復華三街６２號八樓之６","OBJECTID":634031},"geometry":{"x":172710.57000000216,"y":2545562.9700000007}},{"attributes":{"ID":634059,"DIS_CODE":0,"TOWNNAME":"永康區","LI":"復國里","LIN":"34鄰","STREET":"復華一街","SECT":" ","MAREA":" ","LANE":" ","ALLEY":" ","HOUSE_NO":"６５號八樓之１","E_COORD97":172536.37,"N_COORD97":2545071.5499999998,"ADDRESS":"復華一街６５號八樓之１","OBJECTID":634032},"geometry":{"x":172536.37000000011,"y":2545071.5500000007}},{"attributes":{"ID":634060,"DIS_CODE":0,"TOWNNAME":"永康區","LI":"復國里","LIN":"34鄰","STREET":"復華一街","SECT":" ","MAREA":" ","LANE":" ","ALLEY":" ","HOUSE_NO":"６５號八樓之３","E_COORD97":172536.45999999999,"N_COORD97":2545071.5499999998,"ADDRESS":"復華一街６５號八樓之３","OBJECTID":634033},"geometry":{"x":172536.46000000089,"y":2545071.5500000007}},{"attributes":{"ID":634061,"DIS_CODE":0,"TOWNNAME":"永康區","LI":"復國里","LIN":"20鄰","STREET":"國華街","SECT":" ","MAREA":" ","LANE":" ","ALLEY":" ","HOUSE_NO":"６１號十三樓之２","E_COORD97":172831.60999999999,"N_COORD97":2545750.4199999999,"ADDRESS":"國華街６１號十三樓之２","OBJECTID":634034},"geometry":{"x":172831.61000000034,"y":2545750.4200000037}},{"attributes":{"ID":634062,"DIS_CODE":0,"TOWNNAME":"永康區","LI":"復國里","LIN":"20鄰","STREET":"國華街","SECT":" ","MAREA":" ","LANE":" ","ALLEY":" ","HOUSE_NO":"５５號八樓之１","E_COORD97":172799.42000000001,"N_COORD97":2545761.4199999999,"ADDRESS":"國華街５５號八樓之１","OBJECTID":634035},"geometry":{"x":172799.42000000086,"y":2545761.4200000018}},{"attributes":{"ID":634063,"DIS_CODE":0,"TOWNNAME":"永康區","LI":"復國里","LIN":"20鄰","STREET":"國華街","SECT":" ","MAREA":" ","LANE":" ","ALLEY":" ","HOUSE_NO":"５５號十三樓之１","E_COORD97":172800.67000000001,"N_COORD97":2545761.4199999999,"ADDRESS":"國華街５５號十三樓之１","OBJECTID":634036},"geometry":{"x":172800.66999999993,"y":2545761.4200000018}},{"attributes":{"ID":634064,"DIS_CODE":0,"TOWNNAME":"永康區","LI":"復國里","LIN":"20鄰","STREET":"國華街","SECT":" ","MAREA":" ","LANE":" ","ALLEY":" ","HOUSE_NO":"６１號九樓之２","E_COORD97":172830.35999999999,"N_COORD97":2545750.4199999999,"ADDRESS":"國華街６１號九樓之２","OBJECTID":634037},"geometry":{"x":172830.36000000034,"y":2545750.4200000037}},{"attributes":{"ID":634065,"DIS_CODE":0,"TOWNNAME":"永康區","LI":"復國里","LIN":"20鄰","STREET":"國華街","SECT":" ","MAREA":" ","LANE":" ","ALLEY":" ","HOUSE_NO":"５５號十五樓之１","E_COORD97":172800.67000000001,"N_COORD97":2545761.4199999999,"ADDRESS":"國華街５５號十五樓之１","OBJECTID":634038},"geometry":{"x":172800.66999999993,"y":2545761.4200000018}},{"attributes":{"ID":634066,"DIS_CODE":0,"TOWNNAME":"永康區","LI":"復國里","LIN":"20鄰","STREET":"國華街","SECT":" ","MAREA":" ","LANE":" ","ALLEY":" ","HOUSE_NO":"５５號五樓之４","E_COORD97":172799.45000000001,"N_COORD97":2545761.4199999999,"ADDRESS":"國華街５５號五樓之４","OBJECTID":634039},"geometry":{"x":172799.45000000205,"y":2545761.4200000018}},{"attributes":{"ID":634067,"DIS_CODE":0,"TOWNNAME":"永康區","LI":"網寮里","LIN":"26鄰","STREET":"永興路","SECT":" ","MAREA":" ","LANE":" ","ALLEY":" ","HOUSE_NO":"１０７號十樓之２","E_COORD97":173910.48000000001,"N_COORD97":2546555.3900000001,"ADDRESS":"永興路１０７號十樓之２","OBJECTID":634040},"geometry":{"x":173910.48000000138,"y":2546555.3900000025}},{"attributes":{"ID":634068,"DIS_CODE":0,"TOWNNAME":"永康區","LI":"復國里","LIN":"20鄰","STREET":"國華街","SECT":" ","MAREA":" ","LANE":" ","ALLEY":" ","HOUSE_NO":"６３號四樓之２","E_COORD97":172819.42999999999,"N_COORD97":2545744.3100000001,"ADDRESS":"國華街６３號四樓之２","OBJECTID":634041},"geometry":{"x":172819.43000000063,"y":2545744.3100000005}},{"attributes":{"ID":634069,"DIS_CODE":0,"TOWNNAME":"永康區","LI":"復國里","LIN":"20鄰","STREET":"國華街","SECT":" ","MAREA":" ","LANE":" ","ALLEY":" ","HOUSE_NO":"６１號十一樓之１","E_COORD97":172831.48000000001,"N_COORD97":2545750.4199999999,"ADDRESS":"國華街６１號十一樓之１","OBJECTID":634042},"geometry":{"x":172831.47999999952,"y":2545750.4200000037}},{"attributes":{"ID":634070,"DIS_CODE":0,"TOWNNAME":"永康區","LI":"復國里","LIN":"20鄰","STREET":"國華街","SECT":" ","MAREA":" ","LANE":" ","ALLEY":" ","HOUSE_NO":"６１號四樓之３","E_COORD97":172830.32999999999,"N_COORD97":2545750.4199999999,"ADDRESS":"國華街６１號四樓之３","OBJECTID":634043},"geometry":{"x":172830.33000000007,"y":2545750.4200000037}},{"attributes":{"ID":634071,"DIS_CODE":0,"TOWNNAME":"永康區","LI":"復國里","LIN":"20鄰","STREET":"國華街","SECT":" ","MAREA":" ","LANE":" ","ALLEY":" ","HOUSE_NO":"５５號六樓之２","E_COORD97":172799.54999999999,"N_COORD97":2545761.4199999999,"ADDRESS":"國華街５５號六樓之２","OBJECTID":634044},"geometry":{"x":172799.54999999981,"y":2545761.4200000018}},{"attributes":{"ID":634072,"DIS_CODE":0,"TOWNNAME":"永康區","LI":"復國里","LIN":"26鄰","STREET":"復華三街","SECT":" ","MAREA":" ","LANE":" ","ALLEY":" ","HOUSE_NO":"６４號十樓之１","E_COORD97":172719.63,"N_COORD97":2545600.2999999998,"ADDRESS":"復華三街６４號十樓之１","OBJECTID":634045},"geometry":{"x":172719.62999999989,"y":2545600.3000000026}},{"attributes":{"ID":634073,"DIS_CODE":0,"TOWNNAME":"永康區","LI":"復國里","LIN":"26鄰","STREET":"復華三街","SECT":" ","MAREA":" ","LANE":" ","ALLEY":" ","HOUSE_NO":"６４號四樓之６","E_COORD97":172719.64999999999,"N_COORD97":2545600.2999999998,"ADDRESS":"復華三街６４號四樓之６","OBJECTID":634046},"geometry":{"x":172719.65000000037,"y":2545600.3000000026}},{"attributes":{"ID":634074,"DIS_CODE":0,"TOWNNAME":"永康區","LI":"復國里","LIN":"26鄰","STREET":"復華三街","SECT":" ","MAREA":" ","LANE":" ","ALLEY":" ","HOUSE_NO":"６４號十四樓之４","E_COORD97":172720.89999999999,"N_COORD97":2545600.2999999998,"ADDRESS":"復華三街６４號十四樓之４","OBJECTID":634047},"geometry":{"x":172720.9000000013,"y":2545600.3000000026}},{"attributes":{"ID":634075,"DIS_CODE":0,"TOWNNAME":"永康區","LI":"復國里","LIN":"20鄰","STREET":"國華街","SECT":" ","MAREA":" ","LANE":" ","ALLEY":" ","HOUSE_NO":"５５號十一樓之３","E_COORD97":172800.76999999999,"N_COORD97":2545761.4199999999,"ADDRESS":"國華街５５號十一樓之３","OBJECTID":634048},"geometry":{"x":172800.76999999955,"y":2545761.4200000018}},{"attributes":{"ID":634076,"DIS_CODE":0,"TOWNNAME":"永康區","LI":"復國里","LIN":"20鄰","STREET":"國華街","SECT":" ","MAREA":" ","LANE":" ","ALLEY":" ","HOUSE_NO":"６１號十三樓之１","E_COORD97":172831.48000000001,"N_COORD97":2545750.4199999999,"ADDRESS":"國華街６１號十三樓之１","OBJECTID":634049},"geometry":{"x":172831.47999999952,"y":2545750.4200000037}},{"attributes":{"ID":634077,"DIS_CODE":0,"TOWNNAME":"永康區","LI":"復國里","LIN":"26鄰","STREET":"復華三街","SECT":" ","MAREA":" ","LANE":" ","ALLEY":" ","HOUSE_NO":"６４號十五樓之６","E_COORD97":172720.98000000001,"N_COORD97":2545600.2999999998,"ADDRESS":"復華三街６４號十五樓之６","OBJECTID":634050},"geometry":{"x":172720.98000000045,"y":2545600.3000000026}},{"attributes":{"ID":634078,"DIS_CODE":0,"TOWNNAME":"永康區","LI":"復國里","LIN":"20鄰","STREET":"國華街","SECT":" ","MAREA":" ","LANE":" ","ALLEY":" ","HOUSE_NO":"５５號六樓之１","E_COORD97":172799.42000000001,"N_COORD97":2545761.4199999999,"ADDRESS":"國華街５５號六樓之１","OBJECTID":634051},"geometry":{"x":172799.42000000086,"y":2545761.4200000018}},{"attributes":{"ID":634079,"DIS_CODE":0,"TOWNNAME":"永康區","LI":"復國里","LIN":"20鄰","STREET":"國華街","SECT":" ","MAREA":" ","LANE":" ","ALLEY":" ","HOUSE_NO":"６１號八樓之３","E_COORD97":172830.32999999999,"N_COORD97":2545750.4199999999,"ADDRESS":"國華街６１號八樓之３","OBJECTID":634052},"geometry":{"x":172830.33000000007,"y":2545750.4200000037}},{"attributes":{"ID":634080,"DIS_CODE":0,"TOWNNAME":"永康區","LI":"復國里","LIN":"20鄰","STREET":"國華街","SECT":" ","MAREA":" ","LANE":" ","ALLEY":" ","HOUSE_NO":"６３號十四樓之２","E_COORD97":172820.67999999999,"N_COORD97":2545744.3100000001,"ADDRESS":"國華街６３號十四樓之２","OBJECTID":634053},"geometry":{"x":172820.6799999997,"y":2545744.3100000005}},{"attributes":{"ID":634081,"DIS_CODE":0,"TOWNNAME":"永康區","LI":"復國里","LIN":"20鄰","STREET":"國華街","SECT":" ","MAREA":" ","LANE":" ","ALLEY":" ","HOUSE_NO":"６３號十一樓之３","E_COORD97":172820.64999999999,"N_COORD97":2545744.3100000001,"ADDRESS":"國華街６３號十一樓之３","OBJECTID":634054},"geometry":{"x":172820.6500000013,"y":2545744.3100000005}},{"attributes":{"ID":634082,"DIS_CODE":0,"TOWNNAME":"永康區","LI":"復國里","LIN":"20鄰","STREET":"國華街","SECT":" ","MAREA":" ","LANE":" ","ALLEY":" ","HOUSE_NO":"６３號十三樓之３","E_COORD97":172820.64999999999,"N_COORD97":2545744.3100000001,"ADDRESS":"國華街６３號十三樓之３","OBJECTID":634055},"geometry":{"x":172820.6500000013,"y":2545744.3100000005}},{"attributes":{"ID":634083,"DIS_CODE":0,"TOWNNAME":"永康區","LI":"復國里","LIN":"20鄰","STREET":"國華街","SECT":" ","MAREA":" ","LANE":" ","ALLEY":" ","HOUSE_NO":"５５號四樓之３","E_COORD97":172799.51999999999,"N_COORD97":2545761.4199999999,"ADDRESS":"國華街５５號四樓之３","OBJECTID":634056},"geometry":{"x":172799.51999999955,"y":2545761.4200000018}},{"attributes":{"ID":634084,"DIS_CODE":0,"TOWNNAME":"永康區","LI":"復國里","LIN":"26鄰","STREET":"復華三街","SECT":" ","MAREA":" ","LANE":" ","ALLEY":" ","HOUSE_NO":"６４號十六樓之５","E_COORD97":172721.03,"N_COORD97":2545600.2999999998,"ADDRESS":"復華三街６４號十六樓之５","OBJECTID":634057},"geometry":{"x":172721.03000000119,"y":2545600.3000000026}},{"attributes":{"ID":634085,"DIS_CODE":0,"TOWNNAME":"永康區","LI":"復國里","LIN":"26鄰","STREET":"復華三街","SECT":" ","MAREA":" ","LANE":" ","ALLEY":" ","HOUSE_NO":"６４號六樓之５","E_COORD97":172719.78,"N_COORD97":2545600.2999999998,"ADDRESS":"復華三街６４號六樓之５","OBJECTID":634058},"geometry":{"x":172719.78000000119,"y":2545600.3000000026}},{"attributes":{"ID":634086,"DIS_CODE":0,"TOWNNAME":"永康區","LI":"復國里","LIN":"26鄰","STREET":"復華三街","SECT":" ","MAREA":" ","LANE":" ","ALLEY":" ","HOUSE_NO":"６２號十二樓之２","E_COORD97":172711.85000000001,"N_COORD97":2545562.9700000002,"ADDRESS":"復華三街６２號十二樓之２","OBJECTID":634059},"geometry":{"x":172711.85000000056,"y":2545562.9700000007}},{"attributes":{"ID":634087,"DIS_CODE":0,"TOWNNAME":"永康區","LI":"復國里","LIN":"20鄰","STREET":"國華街","SECT":" ","MAREA":" ","LANE":" ","ALLEY":" ","HOUSE_NO":"６１號十一樓之３","E_COORD97":172831.57999999999,"N_COORD97":2545750.4199999999,"ADDRESS":"國華街６１號十一樓之３","OBJECTID":634060},"geometry":{"x":172831.58000000007,"y":2545750.4200000037}},{"attributes":{"ID":634088,"DIS_CODE":0,"TOWNNAME":"永康區","LI":"復國里","LIN":"20鄰","STREET":"國華街","SECT":" ","MAREA":" ","LANE":" ","ALLEY":" ","HOUSE_NO":"５５號八樓之２","E_COORD97":172799.54999999999,"N_COORD97":2545761.4199999999,"ADDRESS":"國華街５５號八樓之２","OBJECTID":634061},"geometry":{"x":172799.54999999981,"y":2545761.4200000018}},{"attributes":{"ID":634089,"DIS_CODE":0,"TOWNNAME":"永康區","LI":"復國里","LIN":"20鄰","STREET":"國華街","SECT":" ","MAREA":" ","LANE":" ","ALLEY":" ","HOUSE_NO":"６１號三樓之３","E_COORD97":172830.32999999999,"N_COORD97":2545750.4199999999,"ADDRESS":"國華街６１號三樓之３","OBJECTID":634062},"geometry":{"x":172830.33000000007,"y":2545750.4200000037}},{"attributes":{"ID":634090,"DIS_CODE":0,"TOWNNAME":"永康區","LI":"復國里","LIN":"26鄰","STREET":"復華三街","SECT":" ","MAREA":" ","LANE":" ","ALLEY":" ","HOUSE_NO":"６４號十四樓之１","E_COORD97":172720.88,"N_COORD97":2545600.2999999998,"ADDRESS":"復華三街６４號十四樓之１","OBJECTID":634063},"geometry":{"x":172720.87999999989,"y":2545600.3000000026}},{"attributes":{"ID":634091,"DIS_CODE":0,"TOWNNAME":"永康區","LI":"復國里","LIN":"20鄰","STREET":"國華街","SECT":" ","MAREA":" ","LANE":" ","ALLEY":" ","HOUSE_NO":"６３號十一樓之２","E_COORD97":172820.67999999999,"N_COORD97":2545744.3100000001,"ADDRESS":"國華街６３號十一樓之２","OBJECTID":634064},"geometry":{"x":172820.6799999997,"y":2545744.3100000005}},{"attributes":{"ID":634092,"DIS_CODE":0,"TOWNNAME":"永康區","LI":"復國里","LIN":"20鄰","STREET":"國華街","SECT":" ","MAREA":" ","LANE":" ","ALLEY":" ","HOUSE_NO":"６３號十二樓之１","E_COORD97":172820.54999999999,"N_COORD97":2545744.3100000001,"ADDRESS":"國華街６３號十二樓之１","OBJECTID":634065},"geometry":{"x":172820.55000000075,"y":2545744.3100000005}},{"attributes":{"ID":634093,"DIS_CODE":0,"TOWNNAME":"永康區","LI":"復國里","LIN":"20鄰","STREET":"國華街","SECT":" ","MAREA":" ","LANE":" ","ALLEY":" ","HOUSE_NO":"６１號五樓之１","E_COORD97":172830.23000000001,"N_COORD97":2545750.4199999999,"ADDRESS":"國華街６１號五樓之１","OBJECTID":634066},"geometry":{"x":172830.23000000138,"y":2545750.4200000037}},{"attributes":{"ID":634094,"DIS_CODE":0,"TOWNNAME":"永康區","LI":"復國里","LIN":"26鄰","STREET":"復華三街","SECT":" ","MAREA":" ","LANE":" ","ALLEY":" ","HOUSE_NO":"６４號十樓之５","E_COORD97":172719.78,"N_COORD97":2545600.2999999998,"ADDRESS":"復華三街６４號十樓之５","OBJECTID":634067},"geometry":{"x":172719.78000000119,"y":2545600.3000000026}},{"attributes":{"ID":634095,"DIS_CODE":0,"TOWNNAME":"永康區","LI":"復國里","LIN":"26鄰","STREET":"復華三街","SECT":" ","MAREA":" ","LANE":" ","ALLEY":" ","HOUSE_NO":"６４號五樓之７","E_COORD97":172719.70000000001,"N_COORD97":2545600.2999999998,"ADDRESS":"復華三街６４號五樓之７","OBJECTID":634068},"geometry":{"x":172719.70000000205,"y":2545600.3000000026}},{"attributes":{"ID":634096,"DIS_CODE":0,"TOWNNAME":"永康區","LI":"復國里","LIN":"26鄰","STREET":"復華三街","SECT":" ","MAREA":" ","LANE":" ","ALLEY":" ","HOUSE_NO":"６４號十六樓之６","E_COORD97":172720.98000000001,"N_COORD97":2545600.2999999998,"ADDRESS":"復華三街６４號十六樓之６","OBJECTID":634069},"geometry":{"x":172720.98000000045,"y":2545600.3000000026}},{"attributes":{"ID":634097,"DIS_CODE":0,"TOWNNAME":"永康區","LI":"勝利里","LIN":"20鄰","STREET":"勝學路","SECT":" ","MAREA":" ","LANE":" ","ALLEY":" ","HOUSE_NO":"２４１號八樓之２","E_COORD97":171167.78,"N_COORD97":2545232.54,"ADDRESS":"勝學路２４１號八樓之２","OBJECTID":634070},"geometry":{"x":171167.78000000026,"y":2545232.5399999991}},{"attributes":{"ID":634098,"DIS_CODE":0,"TOWNNAME":"永康區","LI":"勝利里","LIN":"20鄰","STREET":"勝學路","SECT":" ","MAREA":" ","LANE":" ","ALLEY":" ","HOUSE_NO":"２４１號九樓之３","E_COORD97":171167.73999999999,"N_COORD97":2545232.54,"ADDRESS":"勝學路２４１號九樓之３","OBJECTID":634071},"geometry":{"x":171167.74000000022,"y":2545232.5399999991}},{"attributes":{"ID":634099,"DIS_CODE":0,"TOWNNAME":"永康區","LI":"崑山里","LIN":"38鄰","STREET":"崑山街","SECT":" ","MAREA":" ","LANE":" ","ALLEY":" ","HOUSE_NO":"１９１號六樓之１","E_COORD97":174056.89999999999,"N_COORD97":2544968.3999999999,"ADDRESS":"崑山街１９１號六樓之１","OBJECTID":634072},"geometry":{"x":174056.90000000037,"y":2544968.4000000022}},{"attributes":{"ID":634100,"DIS_CODE":0,"TOWNNAME":"永康區","LI":"勝利里","LIN":"20鄰","STREET":"勝學路","SECT":" ","MAREA":" ","LANE":" ","ALLEY":" ","HOUSE_NO":"２４１號七樓之１","E_COORD97":171167.64000000001,"N_COORD97":2545232.54,"ADDRESS":"勝學路２４１號七樓之１","OBJECTID":634073},"geometry":{"x":171167.63999999966,"y":2545232.5399999991}},{"attributes":{"ID":634101,"DIS_CODE":0,"TOWNNAME":"永康區","LI":"勝利里","LIN":"20鄰","STREET":"勝學路","SECT":" ","MAREA":" ","LANE":" ","ALLEY":" ","HOUSE_NO":"２４１號六樓之３","E_COORD97":171167.73999999999,"N_COORD97":2545232.54,"ADDRESS":"勝學路２４１號六樓之３","OBJECTID":634074},"geometry":{"x":171167.74000000022,"y":2545232.5399999991}},{"attributes":{"ID":634102,"DIS_CODE":0,"TOWNNAME":"永康區","LI":"勝利里","LIN":"20鄰","STREET":"勝學路","SECT":" ","MAREA":" ","LANE":" ","ALLEY":" ","HOUSE_NO":"２４１號六樓之２","E_COORD97":171167.78,"N_COORD97":2545232.54,"ADDRESS":"勝學路２４１號六樓之２","OBJECTID":634075},"geometry":{"x":171167.78000000026,"y":2545232.5399999991}},{"attributes":{"ID":634103,"DIS_CODE":0,"TOWNNAME":"永康區","LI":"\u25A0行里","LIN":"46鄰","STREET":"新行街","SECT":" ","MAREA":" ","LANE":" ","ALLEY":" ","HOUSE_NO":"１２５號十一樓之２","E_COORD97":172324.64999999999,"N_COORD97":2549035.2999999998,"ADDRESS":"新行街１２５號十一樓之２","OBJECTID":634076},"geometry":{"x":172324.65000000037,"y":2549035.3000000026}},{"attributes":{"ID":634104,"DIS_CODE":0,"TOWNNAME":"永康區","LI":"崑山里","LIN":"47鄰","STREET":"國光五街","SECT":" ","MAREA":" ","LANE":" ","ALLEY":" ","HOUSE_NO":"２號之３十樓之２","E_COORD97":174254.84,"N_COORD97":2545100.1499999999,"ADDRESS":"國光五街２號之３十樓之２","OBJECTID":634077},"geometry":{"x":174254.84000000078,"y":2545100.1500000004}},{"attributes":{"ID":634105,"DIS_CODE":0,"TOWNNAME":"永康區","LI":"復國里","LIN":"20鄰","STREET":"國華街","SECT":" ","MAREA":" ","LANE":" ","ALLEY":" ","HOUSE_NO":"５７號三樓之１","E_COORD97":172811.06,"N_COORD97":2545757.6699999999,"ADDRESS":"國華街５７號三樓之１","OBJECTID":634078},"geometry":{"x":172811.05999999959,"y":2545757.6699999999}},{"attributes":{"ID":634106,"DIS_CODE":0,"TOWNNAME":"永康區","LI":"復國里","LIN":"20鄰","STREET":"國華街","SECT":" ","MAREA":" ","LANE":" ","ALLEY":" ","HOUSE_NO":"５７號十一樓之１","E_COORD97":172812.31,"N_COORD97":2545757.6699999999,"ADDRESS":"國華街５７號十一樓之１","OBJECTID":634079},"geometry":{"x":172812.31000000052,"y":2545757.6699999999}},{"attributes":{"ID":634107,"DIS_CODE":0,"TOWNNAME":"永康區","LI":"勝利里","LIN":"20鄰","STREET":"勝學路","SECT":" ","MAREA":" ","LANE":" ","ALLEY":" ","HOUSE_NO":"２４１號十二樓之２","E_COORD97":171169.03,"N_COORD97":2545232.54,"ADDRESS":"勝學路２４１號十二樓之２","OBJECTID":634080},"geometry":{"x":171169.03000000026,"y":2545232.5399999991}},{"attributes":{"ID":634108,"DIS_CODE":0,"TOWNNAME":"永康區","LI":"勝利里","LIN":"20鄰","STREET":"勝學路","SECT":" ","MAREA":" ","LANE":" ","ALLEY":" ","HOUSE_NO":"２４１號十三樓之２","E_COORD97":171169.03,"N_COORD97":2545232.54,"ADDRESS":"勝學路２４１號十三樓之２","OBJECTID":634081},"geometry":{"x":171169.03000000026,"y":2545232.5399999991}},{"attributes":{"ID":634109,"DIS_CODE":0,"TOWNNAME":"安南區","LI":"溪北里","LIN":"20鄰","STREET":"郡安路","SECT":"四段","MAREA":" ","LANE":" ","ALLEY":" ","HOUSE_NO":"７６號之７七樓","E_COORD97":169077.53,"N_COORD97":2547587.3700000001,"ADDRESS":"郡安路四段７６號之７七樓","OBJECTID":634082},"geometry":{"x":169077.53000000026,"y":2547587.3700000029}},{"attributes":{"ID":634110,"DIS_CODE":0,"TOWNNAME":"安南區","LI":"溪北里","LIN":"20鄰","STREET":"郡安路","SECT":"四段","MAREA":" ","LANE":" ","ALLEY":" ","HOUSE_NO":"７６號之７九樓","E_COORD97":169077.53,"N_COORD97":2547587.3700000001,"ADDRESS":"郡安路四段７６號之７九樓","OBJECTID":634083},"geometry":{"x":169077.53000000026,"y":2547587.3700000029}},{"attributes":{"ID":634111,"DIS_CODE":0,"TOWNNAME":"安南區","LI":"溪北里","LIN":"20鄰","STREET":"郡安路","SECT":"四段","MAREA":" ","LANE":" ","ALLEY":" ","HOUSE_NO":"７６號之７二樓","E_COORD97":169077.53,"N_COORD97":2547587.3700000001,"ADDRESS":"郡安路四段７６號之７二樓","OBJECTID":634084},"geometry":{"x":169077.53000000026,"y":2547587.3700000029}},{"attributes":{"ID":634112,"DIS_CODE":0,"TOWNNAME":"安南區","LI":"溪北里","LIN":"20鄰","STREET":"郡安路","SECT":"四段","MAREA":" ","LANE":" ","ALLEY":" ","HOUSE_NO":"７６號之７八樓","E_COORD97":169077.53,"N_COORD97":2547587.3700000001,"ADDRESS":"郡安路四段７６號之７八樓","OBJECTID":634085},"geometry":{"x":169077.53000000026,"y":2547587.3700000029}},{"attributes":{"ID":634113,"DIS_CODE":0,"TOWNNAME":"安南區","LI":"溪北里","LIN":"20鄰","STREET":"郡安路","SECT":"四段","MAREA":" ","LANE":" ","ALLEY":" ","HOUSE_NO":"７６號之７十樓","E_COORD97":169077.53,"N_COORD97":2547587.3700000001,"ADDRESS":"郡安路四段７６號之７十樓","OBJECTID":634086},"geometry":{"x":169077.53000000026,"y":2547587.3700000029}},{"attributes":{"ID":634114,"DIS_CODE":0,"TOWNNAME":"安南區","LI":"溪北里","LIN":"20鄰","STREET":"郡安路","SECT":"四段","MAREA":" ","LANE":" ","ALLEY":" ","HOUSE_NO":"７６號之７六樓","E_COORD97":169077.53,"N_COORD97":2547587.3700000001,"ADDRESS":"郡安路四段７６號之７六樓","OBJECTID":634087},"geometry":{"x":169077.53000000026,"y":2547587.3700000029}},{"attributes":{"ID":634115,"DIS_CODE":0,"TOWNNAME":"安南區","LI":"溪北里","LIN":"20鄰","STREET":"郡安路","SECT":"四段","MAREA":" ","LANE":" ","ALLEY":" ","HOUSE_NO":"７６號之７四樓","E_COORD97":169077.53,"N_COORD97":2547587.3700000001,"ADDRESS":"郡安路四段７６號之７四樓","OBJECTID":634088},"geometry":{"x":169077.53000000026,"y":2547587.3700000029}},{"attributes":{"ID":634116,"DIS_CODE":0,"TOWNNAME":"安南區","LI":"溪北里","LIN":"20鄰","STREET":"郡安路","SECT":"四段","MAREA":" ","LANE":" ","ALLEY":" ","HOUSE_NO":"７６號之８五樓","E_COORD97":169082.95999999999,"N_COORD97":2547587.4100000001,"ADDRESS":"郡安路四段７６號之８五樓","OBJECTID":634089},"geometry":{"x":169082.95999999996,"y":2547587.4100000001}},{"attributes":{"ID":634117,"DIS_CODE":0,"TOWNNAME":"安南區","LI":"溪北里","LIN":"20鄰","STREET":"郡安路","SECT":"四段","MAREA":" ","LANE":" ","ALLEY":" ","HOUSE_NO":"７６號之９五樓","E_COORD97":169089.04999999999,"N_COORD97":2547587.1600000001,"ADDRESS":"郡安路四段７６號之９五樓","OBJECTID":634090},"geometry":{"x":169089.04999999888,"y":2547587.160000002}},{"attributes":{"ID":634118,"DIS_CODE":0,"TOWNNAME":"安南區","LI":"溪北里","LIN":"24鄰","STREET":"敬安街","SECT":" ","MAREA":" ","LANE":" ","ALLEY":" ","HOUSE_NO":"１號十二樓","E_COORD97":169156.32000000001,"N_COORD97":2547590.3700000001,"ADDRESS":"敬安街１號十二樓","OBJECTID":634091},"geometry":{"x":169156.32000000123,"y":2547590.3700000029}},{"attributes":{"ID":634119,"DIS_CODE":0,"TOWNNAME":"安南區","LI":"溪北里","LIN":"19鄰","STREET":"郡安路","SECT":"四段","MAREA":" ","LANE":" ","ALLEY":" ","HOUSE_NO":"７６號之４九樓","E_COORD97":169069.14999999999,"N_COORD97":2547575.2200000002,"ADDRESS":"郡安路四段７６號之４九樓","OBJECTID":634092},"geometry":{"x":169069.1500000013,"y":2547575.2200000007}},{"attributes":{"ID":634120,"DIS_CODE":0,"TOWNNAME":"安南區","LI":"溪北里","LIN":"19鄰","STREET":"郡安路","SECT":"四段","MAREA":" ","LANE":" ","ALLEY":" ","HOUSE_NO":"７６號之４八樓","E_COORD97":169069.14999999999,"N_COORD97":2547575.2200000002,"ADDRESS":"郡安路四段７６號之４八樓","OBJECTID":634093},"geometry":{"x":169069.1500000013,"y":2547575.2200000007}},{"attributes":{"ID":634121,"DIS_CODE":0,"TOWNNAME":"安南區","LI":"溪北里","LIN":"19鄰","STREET":"郡安路","SECT":"四段","MAREA":" ","LANE":" ","ALLEY":" ","HOUSE_NO":"７６號之４四樓","E_COORD97":169069.14999999999,"N_COORD97":2547575.2200000002,"ADDRESS":"郡安路四段７６號之４四樓","OBJECTID":634094},"geometry":{"x":169069.1500000013,"y":2547575.2200000007}},{"attributes":{"ID":634122,"DIS_CODE":0,"TOWNNAME":"安南區","LI":"溪北里","LIN":"19鄰","STREET":"郡安路","SECT":"四段","MAREA":" ","LANE":" ","ALLEY":" ","HOUSE_NO":"７６號之５七樓","E_COORD97":169067.22,"N_COORD97":2547586.0299999998,"ADDRESS":"郡安路四段７６號之５七樓","OBJECTID":634095},"geometry":{"x":169067.21999999974,"y":2547586.0299999993}},{"attributes":{"ID":634123,"DIS_CODE":0,"TOWNNAME":"安南區","LI":"溪北里","LIN":"19鄰","STREET":"郡安路","SECT":"四段","MAREA":" ","LANE":" ","ALLEY":" ","HOUSE_NO":"７６號之５十一樓","E_COORD97":169067.22,"N_COORD97":2547586.0299999998,"ADDRESS":"郡安路四段７６號之５十一樓","OBJECTID":634096},"geometry":{"x":169067.21999999974,"y":2547586.0299999993}},{"attributes":{"ID":634124,"DIS_CODE":0,"TOWNNAME":"安南區","LI":"溪北里","LIN":"19鄰","STREET":"郡安路","SECT":"四段","MAREA":" ","LANE":" ","ALLEY":" ","HOUSE_NO":"７６號之５四樓","E_COORD97":169067.22,"N_COORD97":2547586.0299999998,"ADDRESS":"郡安路四段７６號之５四樓","OBJECTID":634097},"geometry":{"x":169067.21999999974,"y":2547586.0299999993}},{"attributes":{"ID":634125,"DIS_CODE":0,"TOWNNAME":"安南區","LI":"溪北里","LIN":"19鄰","STREET":"郡安路","SECT":"四段","MAREA":" ","LANE":" ","ALLEY":" ","HOUSE_NO":"７６號之６七樓","E_COORD97":169072.76999999999,"N_COORD97":2547587.3399999999,"ADDRESS":"郡安路四段７６號之６七樓","OBJECTID":634098},"geometry":{"x":169072.77000000048,"y":2547587.3399999999}},{"attributes":{"ID":634126,"DIS_CODE":0,"TOWNNAME":"安南區","LI":"溪北里","LIN":"19鄰","STREET":"郡安路","SECT":"四段","MAREA":" ","LANE":" ","ALLEY":" ","HOUSE_NO":"７６號之６九樓","E_COORD97":169072.76999999999,"N_COORD97":2547587.3399999999,"ADDRESS":"郡安路四段７６號之６九樓","OBJECTID":634099},"geometry":{"x":169072.77000000048,"y":2547587.3399999999}},{"attributes":{"ID":634127,"DIS_CODE":0,"TOWNNAME":"安南區","LI":"溪北里","LIN":"19鄰","STREET":"郡安路","SECT":"四段","MAREA":" ","LANE":" ","ALLEY":" ","HOUSE_NO":"７６號之６二樓","E_COORD97":169072.76999999999,"N_COORD97":2547587.3399999999,"ADDRESS":"郡安路四段７６號之６二樓","OBJECTID":634100},"geometry":{"x":169072.77000000048,"y":2547587.3399999999}},{"attributes":{"ID":634128,"DIS_CODE":0,"TOWNNAME":"安南區","LI":"溪北里","LIN":"19鄰","STREET":"郡安路","SECT":"四段","MAREA":" ","LANE":" ","ALLEY":" ","HOUSE_NO":"７６號之６八樓","E_COORD97":169072.76999999999,"N_COORD97":2547587.3399999999,"ADDRESS":"郡安路四段７６號之６八樓","OBJECTID":634101},"geometry":{"x":169072.77000000048,"y":2547587.3399999999}},{"attributes":{"ID":634129,"DIS_CODE":0,"TOWNNAME":"安南區","LI":"溪北里","LIN":"23鄰","STREET":"敬安街","SECT":" ","MAREA":" ","LANE":" ","ALLEY":" ","HOUSE_NO":"１１號八樓之１","E_COORD97":169185.98000000001,"N_COORD97":2547570.1400000001,"ADDRESS":"敬安街１１號八樓之１","OBJECTID":634102},"geometry":{"x":169185.98000000138,"y":2547570.1400000043}},{"attributes":{"ID":634130,"DIS_CODE":0,"TOWNNAME":"安南區","LI":"溪北里","LIN":"23鄰","STREET":"敬安街","SECT":" ","MAREA":" ","LANE":" ","ALLEY":" ","HOUSE_NO":"１１號八樓之２","E_COORD97":169185.98000000001,"N_COORD97":2547570.1400000001,"ADDRESS":"敬安街１１號八樓之２","OBJECTID":634103},"geometry":{"x":169185.98000000138,"y":2547570.1400000043}},{"attributes":{"ID":634131,"DIS_CODE":0,"TOWNNAME":"安南區","LI":"溪北里","LIN":"24鄰","STREET":"敬安街","SECT":" ","MAREA":" ","LANE":" ","ALLEY":" ","HOUSE_NO":"１號八樓","E_COORD97":169156.32000000001,"N_COORD97":2547590.3700000001,"ADDRESS":"敬安街１號八樓","OBJECTID":634104},"geometry":{"x":169156.32000000123,"y":2547590.3700000029}},{"attributes":{"ID":634132,"DIS_CODE":0,"TOWNNAME":"仁德區","LI":"成功里","LIN":"5鄰","STREET":"成功三街","SECT":" ","MAREA":" ","LANE":" ","ALLEY":" ","HOUSE_NO":"３４號四樓","E_COORD97":171166.04000000001,"N_COORD97":2539953.0099999998,"ADDRESS":"成功三街３４號四樓","OBJECTID":634105},"geometry":{"x":171166.0400000019,"y":2539953.0100000016}},{"attributes":{"ID":634133,"DIS_CODE":0,"TOWNNAME":"仁德區","LI":"仁義里","LIN":"34鄰","STREET":"正義二街","SECT":" ","MAREA":" ","LANE":" ","ALLEY":" ","HOUSE_NO":"１４９號一樓","E_COORD97":173780.62,"N_COORD97":2541595.0099999998,"ADDRESS":"正義二街１４９號一樓","OBJECTID":634106},"geometry":{"x":173780.62000000011,"y":2541595.0099999998}},{"attributes":{"ID":634134,"DIS_CODE":0,"TOWNNAME":"東區","LI":"東聖里","LIN":"20鄰","STREET":"中華東路","SECT":"二段","MAREA":" ","LANE":" ","ALLEY":" ","HOUSE_NO":"１１１號七樓之１","E_COORD97":171409.84,"N_COORD97":2542921.8599999999,"ADDRESS":"中華東路二段１１１號七樓之１","OBJECTID":634107},"geometry":{"x":171409.84000000078,"y":2542921.8599999994}},{"attributes":{"ID":634135,"DIS_CODE":0,"TOWNNAME":"仁德區","LI":"成功里","LIN":"26鄰","STREET":"成功一街","SECT":" ","MAREA":" ","LANE":" ","ALLEY":" ","HOUSE_NO":"４６號一樓","E_COORD97":170524.29000000001,"N_COORD97":2540026.52,"ADDRESS":"成功一街４６號一樓","OBJECTID":634108},"geometry":{"x":170524.29000000097,"y":2540026.5200000033}},{"attributes":{"ID":634136,"DIS_CODE":0,"TOWNNAME":"東區","LI":"東聖里","LIN":"19鄰","STREET":"中華東路","SECT":"二段","MAREA":" ","LANE":" ","ALLEY":" ","HOUSE_NO":"１２３號七樓之２","E_COORD97":171398.28,"N_COORD97":2542886.0299999998,"ADDRESS":"中華東路二段１２３號七樓之２","OBJECTID":634109},"geometry":{"x":171398.28000000026,"y":2542886.0299999993}},{"attributes":{"ID":634137,"DIS_CODE":0,"TOWNNAME":"東區","LI":"東聖里","LIN":"19鄰","STREET":"中華東路","SECT":"二段","MAREA":" ","LANE":" ","ALLEY":" ","HOUSE_NO":"１２３號七樓之５","E_COORD97":171398.28,"N_COORD97":2542886.0299999998,"ADDRESS":"中華東路二段１２３號七樓之５","OBJECTID":634110},"geometry":{"x":171398.28000000026,"y":2542886.0299999993}},{"attributes":{"ID":634138,"DIS_CODE":0,"TOWNNAME":"東區","LI":"東聖里","LIN":"19鄰","STREET":"中華東路","SECT":"二段","MAREA":" ","LANE":" ","ALLEY":" ","HOUSE_NO":"１２３號二樓之２","E_COORD97":171398.28,"N_COORD97":2542886.0299999998,"ADDRESS":"中華東路二段１２３號二樓之２","OBJECTID":634111},"geometry":{"x":171398.28000000026,"y":2542886.0299999993}},{"attributes":{"ID":634139,"DIS_CODE":0,"TOWNNAME":"東區","LI":"大智里","LIN":"5鄰","STREET":"長東街","SECT":" ","MAREA":" ","LANE":" ","ALLEY":" ","HOUSE_NO":"４３號二樓","E_COORD97":171012.04000000001,"N_COORD97":2540499.7999999998,"ADDRESS":"長東街４３號二樓","OBJECTID":634112},"geometry":{"x":171012.04000000097,"y":2540499.8000000007}},{"attributes":{"ID":634140,"DIS_CODE":0,"TOWNNAME":"東區","LI":"龍山里","LIN":"10鄰","STREET":"府東街","SECT":" ","MAREA":" ","LANE":" ","ALLEY":" ","HOUSE_NO":"６６號四樓","E_COORD97":169936.05594300001,"N_COORD97":2542942.3786900002,"ADDRESS":"府東街６６號四樓","OBJECTID":634113},"geometry":{"x":169936.05594300013,"y":2542942.3786940016}},{"attributes":{"ID":634141,"DIS_CODE":0,"TOWNNAME":"東區","LI":"崇善里","LIN":"6鄰","STREET":"崇善六街","SECT":" ","MAREA":" ","LANE":" ","ALLEY":" ","HOUSE_NO":"５５號三樓","E_COORD97":171157.17999999999,"N_COORD97":2541562.9199999999,"ADDRESS":"崇善六街５５號三樓","OBJECTID":634114},"geometry":{"x":171157.1799999997,"y":2541562.9199999999}},{"attributes":{"ID":634142,"DIS_CODE":0,"TOWNNAME":"東區","LI":"崇善里","LIN":"6鄰","STREET":"崇善六街","SECT":" ","MAREA":" ","LANE":" ","ALLEY":" ","HOUSE_NO":"５５號四樓","E_COORD97":171157.17999999999,"N_COORD97":2541562.9199999999,"ADDRESS":"崇善六街５５號四樓","OBJECTID":634115},"geometry":{"x":171157.1799999997,"y":2541562.9199999999}},{"attributes":{"ID":634143,"DIS_CODE":0,"TOWNNAME":"東區","LI":"東智里","LIN":"2鄰","STREET":"長東街","SECT":" ","MAREA":" ","LANE":" ","ALLEY":" ","HOUSE_NO":"１００號之１二樓","E_COORD97":170993.20000000001,"N_COORD97":2540350.4500000002,"ADDRESS":"長東街１００號之１二樓","OBJECTID":634116},"geometry":{"x":170993.20000000019,"y":2540350.4499999993}},{"attributes":{"ID":634144,"DIS_CODE":0,"TOWNNAME":"東區","LI":"東智里","LIN":"2鄰","STREET":"長東街","SECT":" ","MAREA":" ","LANE":" ","ALLEY":" ","HOUSE_NO":"１００號之２二樓","E_COORD97":170981.34,"N_COORD97":2540349.75,"ADDRESS":"長東街１００號之２二樓","OBJECTID":634117},"geometry":{"x":170981.34000000078,"y":2540349.75}},{"attributes":{"ID":634145,"DIS_CODE":0,"TOWNNAME":"東區","LI":"東智里","LIN":"2鄰","STREET":"長東街","SECT":" ","MAREA":" ","LANE":" ","ALLEY":" ","HOUSE_NO":"１００號之３二樓","E_COORD97":170971.73999999999,"N_COORD97":2540349.1800000002,"ADDRESS":"長東街１００號之３二樓","OBJECTID":634118},"geometry":{"x":170971.74000000209,"y":2540349.1800000016}},{"attributes":{"ID":634146,"DIS_CODE":0,"TOWNNAME":"東區","LI":"東智里","LIN":"2鄰","STREET":"長東街","SECT":" ","MAREA":" ","LANE":" ","ALLEY":" ","HOUSE_NO":"１００號之４二樓","E_COORD97":170962.14000000001,"N_COORD97":2540349.04,"ADDRESS":"長東街１００號之４二樓","OBJECTID":634119},"geometry":{"x":170962.1400000006,"y":2540349.040000001}},{"attributes":{"ID":634147,"DIS_CODE":0,"TOWNNAME":"東區","LI":"東智里","LIN":"2鄰","STREET":"長東街","SECT":" ","MAREA":" ","LANE":" ","ALLEY":" ","HOUSE_NO":"１００號之５二樓","E_COORD97":170957.48000000001,"N_COORD97":2540345.1000000001,"ADDRESS":"長東街１００號之５二樓","OBJECTID":634120},"geometry":{"x":170957.48000000138,"y":2540345.1000000015}},{"attributes":{"ID":634148,"DIS_CODE":0,"TOWNNAME":"東區","LI":"崇善里","LIN":"8鄰","STREET":"崇善七街","SECT":" ","MAREA":" ","LANE":" ","ALLEY":" ","HOUSE_NO":"５２號二樓之２","E_COORD97":171171.78,"N_COORD97":2541486.4100000001,"ADDRESS":"崇善七街５２號二樓之２","OBJECTID":634121},"geometry":{"x":171171.78000000119,"y":2541486.410000002}},{"attributes":{"ID":634149,"DIS_CODE":0,"TOWNNAME":"東區","LI":"圍下里","LIN":"3鄰","STREET":"東榮街","SECT":" ","MAREA":" ","LANE":" ","ALLEY":" ","HOUSE_NO":"７號四樓","E_COORD97":169565.85999999999,"N_COORD97":2543471.3700000001,"ADDRESS":"東榮街７號四樓","OBJECTID":634122},"geometry":{"x":169565.86000000127,"y":2543471.3700000029}},{"attributes":{"ID":634150,"DIS_CODE":0,"TOWNNAME":"東區","LI":"崇善里","LIN":"15鄰","STREET":"崇善十一街","SECT":" ","MAREA":" ","LANE":" ","ALLEY":" ","HOUSE_NO":"１１號三樓","E_COORD97":171166.35000000001,"N_COORD97":2541202.9900000002,"ADDRESS":"崇善十一街１１號三樓","OBJECTID":634123},"geometry":{"x":171166.34999999963,"y":2541202.9900000002}},{"attributes":{"ID":634151,"DIS_CODE":0,"TOWNNAME":"東區","LI":"崇善里","LIN":"15鄰","STREET":"崇善十一街","SECT":" ","MAREA":" ","LANE":" ","ALLEY":" ","HOUSE_NO":"１１號五樓","E_COORD97":171166.35000000001,"N_COORD97":2541202.9900000002,"ADDRESS":"崇善十一街１１號五樓","OBJECTID":634124},"geometry":{"x":171166.34999999963,"y":2541202.9900000002}},{"attributes":{"ID":634152,"DIS_CODE":0,"TOWNNAME":"東區","LI":"崇善里","LIN":"15鄰","STREET":"崇善路","SECT":" ","MAREA":" ","LANE":" ","ALLEY":" ","HOUSE_NO":"６８３號三樓","E_COORD97":171132.5,"N_COORD97":2541166.1000000001,"ADDRESS":"崇善路６８３號三樓","OBJECTID":634125},"geometry":{"x":171132.50000000186,"y":2541166.1000000015}},{"attributes":{"ID":634153,"DIS_CODE":0,"TOWNNAME":"東區","LI":"崇善里","LIN":"15鄰","STREET":"崇善路","SECT":" ","MAREA":" ","LANE":" ","ALLEY":" ","HOUSE_NO":"６８３號四樓","E_COORD97":171132.5,"N_COORD97":2541166.1000000001,"ADDRESS":"崇善路６８３號四樓","OBJECTID":634126},"geometry":{"x":171132.50000000186,"y":2541166.1000000015}},{"attributes":{"ID":634154,"DIS_CODE":0,"TOWNNAME":"東區","LI":"崇善里","LIN":"15鄰","STREET":"崇善路","SECT":" ","MAREA":" ","LANE":" ","ALLEY":" ","HOUSE_NO":"６８３號五樓","E_COORD97":171132.5,"N_COORD97":2541166.1000000001,"ADDRESS":"崇善路６８３號五樓","OBJECTID":634127},"geometry":{"x":171132.50000000186,"y":2541166.1000000015}},{"attributes":{"ID":634155,"DIS_CODE":0,"TOWNNAME":"東區","LI":"崇善里","LIN":"19鄰","STREET":"崇善十一街","SECT":" ","MAREA":" ","LANE":" ","ALLEY":" ","HOUSE_NO":"３０號之１二樓","E_COORD97":171225.48999999999,"N_COORD97":2541197.77,"ADDRESS":"崇善十一街３０號之１二樓","OBJECTID":634128},"geometry":{"x":171225.49000000022,"y":2541197.7700000033}},{"attributes":{"ID":634156,"DIS_CODE":0,"TOWNNAME":"東區","LI":"崇善里","LIN":"19鄰","STREET":"崇善十一街","SECT":" ","MAREA":" ","LANE":" ","ALLEY":" ","HOUSE_NO":"３０號之１三樓","E_COORD97":171225.48999999999,"N_COORD97":2541197.77,"ADDRESS":"崇善十一街３０號之１三樓","OBJECTID":634129},"geometry":{"x":171225.49000000022,"y":2541197.7700000033}},{"attributes":{"ID":634157,"DIS_CODE":0,"TOWNNAME":"東區","LI":"崇善里","LIN":"19鄰","STREET":"崇善十一街","SECT":" ","MAREA":" ","LANE":" ","ALLEY":" ","HOUSE_NO":"３０號之１五樓","E_COORD97":171225.48999999999,"N_COORD97":2541197.77,"ADDRESS":"崇善十一街３０號之１五樓","OBJECTID":634130},"geometry":{"x":171225.49000000022,"y":2541197.7700000033}},{"attributes":{"ID":634158,"DIS_CODE":0,"TOWNNAME":"東區","LI":"大智里","LIN":"29鄰","STREET":"德東街","SECT":" ","MAREA":" ","LANE":" ","ALLEY":" ","HOUSE_NO":"２５２號五樓之１","E_COORD97":171463.54000000001,"N_COORD97":2540245.54,"ADDRESS":"德東街２５２號五樓之１","OBJECTID":634131},"geometry":{"x":171463.54000000097,"y":2540245.5399999991}},{"attributes":{"ID":634159,"DIS_CODE":0,"TOWNNAME":"東區","LI":"圍下里","LIN":"3鄰","STREET":"東榮街","SECT":" ","MAREA":" ","LANE":" ","ALLEY":" ","HOUSE_NO":"７號四樓之１","E_COORD97":169565.85999999999,"N_COORD97":2543471.3700000001,"ADDRESS":"東榮街７號四樓之１","OBJECTID":634132},"geometry":{"x":169565.86000000127,"y":2543471.3700000029}},{"attributes":{"ID":634160,"DIS_CODE":0,"TOWNNAME":"東區","LI":"崇善里","LIN":"26鄰","STREET":"崇善十三街","SECT":" ","MAREA":" ","LANE":" ","ALLEY":" ","HOUSE_NO":"８號二樓","E_COORD97":171231.17999999999,"N_COORD97":2540973.6200000001,"ADDRESS":"崇善十三街８號二樓","OBJECTID":634133},"geometry":{"x":171231.18000000063,"y":2540973.6200000029}},{"attributes":{"ID":634161,"DIS_CODE":0,"TOWNNAME":"東區","LI":"崇成里","LIN":"1鄰","STREET":"崇道路","SECT":" ","MAREA":" ","LANE":" ","ALLEY":" ","HOUSE_NO":"７８號三樓","E_COORD97":170841.82000000001,"N_COORD97":2541394,"ADDRESS":"崇道路７８號三樓","OBJECTID":634134},"geometry":{"x":170841.8200000003,"y":2541394.0000000019}},{"attributes":{"ID":634162,"DIS_CODE":0,"TOWNNAME":"東區","LI":"崇成里","LIN":"1鄰","STREET":"崇道路","SECT":" ","MAREA":" ","LANE":" ","ALLEY":" ","HOUSE_NO":"９４號三樓","E_COORD97":170847.25,"N_COORD97":2541383.2999999998,"ADDRESS":"崇道路９４號三樓","OBJECTID":634135},"geometry":{"x":170847.25,"y":2541383.3000000026}},{"attributes":{"ID":634163,"DIS_CODE":0,"TOWNNAME":"東區","LI":"崇成里","LIN":"1鄰","STREET":"崇道路","SECT":" ","MAREA":" ","LANE":" ","ALLEY":" ","HOUSE_NO":"９４號四樓","E_COORD97":170847.25,"N_COORD97":2541383.2999999998,"ADDRESS":"崇道路９４號四樓","OBJECTID":634136},"geometry":{"x":170847.25,"y":2541383.3000000026}},{"attributes":{"ID":634164,"DIS_CODE":0,"TOWNNAME":"東區","LI":"崇成里","LIN":"1鄰","STREET":"崇道路","SECT":" ","MAREA":" ","LANE":" ","ALLEY":" ","HOUSE_NO":"９４號四樓之１","E_COORD97":170847.25,"N_COORD97":2541383.2999999998,"ADDRESS":"崇道路９４號四樓之１","OBJECTID":634137},"geometry":{"x":170847.25,"y":2541383.3000000026}},{"attributes":{"ID":634165,"DIS_CODE":0,"TOWNNAME":"東區","LI":"崇成里","LIN":"1鄰","STREET":"崇道路","SECT":" ","MAREA":" ","LANE":" ","ALLEY":" ","HOUSE_NO":"９４號四樓之２","E_COORD97":170847.25,"N_COORD97":2541383.2999999998,"ADDRESS":"崇道路９４號四樓之２","OBJECTID":634138},"geometry":{"x":170847.25,"y":2541383.3000000026}},{"attributes":{"ID":634166,"DIS_CODE":0,"TOWNNAME":"東區","LI":"大智里","LIN":"29鄰","STREET":"德東街","SECT":" ","MAREA":" ","LANE":" ","ALLEY":" ","HOUSE_NO":"２５２號三樓之３","E_COORD97":171463.54000000001,"N_COORD97":2540245.54,"ADDRESS":"德東街２５２號三樓之３","OBJECTID":634139},"geometry":{"x":171463.54000000097,"y":2540245.5399999991}},{"attributes":{"ID":634167,"DIS_CODE":0,"TOWNNAME":"東區","LI":"大智里","LIN":"29鄰","STREET":"德東街","SECT":" ","MAREA":" ","LANE":" ","ALLEY":" ","HOUSE_NO":"２６８號五樓","E_COORD97":171488.45999999999,"N_COORD97":2540225.5800000001,"ADDRESS":"德東街２６８號五樓","OBJECTID":634140},"geometry":{"x":171488.45999999996,"y":2540225.5800000001}},{"attributes":{"ID":634168,"DIS_CODE":0,"TOWNNAME":"東區","LI":"東光里","LIN":"4鄰","STREET":"東興路","SECT":" ","MAREA":" ","LANE":" ","ALLEY":" ","HOUSE_NO":"３８號二樓","E_COORD97":170947.95000000001,"N_COORD97":2543498.8100000001,"ADDRESS":"東興路３８號二樓","OBJECTID":634141},"geometry":{"x":170947.95000000019,"y":2543498.8100000024}},{"attributes":{"ID":634169,"DIS_CODE":0,"TOWNNAME":"東區","LI":"東光里","LIN":"4鄰","STREET":"東興路","SECT":" ","MAREA":" ","LANE":" ","ALLEY":" ","HOUSE_NO":"３８號三樓","E_COORD97":170947.95000000001,"N_COORD97":2543498.8100000001,"ADDRESS":"東興路３８號三樓","OBJECTID":634142},"geometry":{"x":170947.95000000019,"y":2543498.8100000024}},{"attributes":{"ID":634170,"DIS_CODE":0,"TOWNNAME":"東區","LI":"東光里","LIN":"4鄰","STREET":"東興路","SECT":" ","MAREA":" ","LANE":" ","ALLEY":" ","HOUSE_NO":"３８號四樓","E_COORD97":170947.95000000001,"N_COORD97":2543498.8100000001,"ADDRESS":"東興路３８號四樓","OBJECTID":634143},"geometry":{"x":170947.95000000019,"y":2543498.8100000024}},{"attributes":{"ID":634171,"DIS_CODE":0,"TOWNNAME":"東區","LI":"東光里","LIN":"4鄰","STREET":"東興路","SECT":" ","MAREA":" ","LANE":" ","ALLEY":" ","HOUSE_NO":"３８號五樓","E_COORD97":170947.95000000001,"N_COORD97":2543498.8100000001,"ADDRESS":"東興路３８號五樓","OBJECTID":634144},"geometry":{"x":170947.95000000019,"y":2543498.8100000024}},{"attributes":{"ID":634172,"DIS_CODE":0,"TOWNNAME":"東區","LI":"東光里","LIN":"4鄰","STREET":"東興路","SECT":" ","MAREA":" ","LANE":" ","ALLEY":" ","HOUSE_NO":"３８號六樓","E_COORD97":170947.95000000001,"N_COORD97":2543498.8100000001,"ADDRESS":"東興路３８號六樓","OBJECTID":634145},"geometry":{"x":170947.95000000019,"y":2543498.8100000024}},{"attributes":{"ID":634173,"DIS_CODE":0,"TOWNNAME":"東區","LI":"東光里","LIN":"4鄰","STREET":"東興路","SECT":" ","MAREA":" ","LANE":" ","ALLEY":" ","HOUSE_NO":"３８號七樓","E_COORD97":170947.95000000001,"N_COORD97":2543498.8100000001,"ADDRESS":"東興路３８號七樓","OBJECTID":634146},"geometry":{"x":170947.95000000019,"y":2543498.8100000024}},{"attributes":{"ID":634174,"DIS_CODE":0,"TOWNNAME":"東區","LI":"和平里","LIN":"11鄰","STREET":"仁和路","SECT":" ","MAREA":" ","LANE":" ","ALLEY":" ","HOUSE_NO":"９５號五樓之６","E_COORD97":171315.45999999999,"N_COORD97":2541408.8900000001,"ADDRESS":"仁和路９５號五樓之６","OBJECTID":634147},"geometry":{"x":171315.45999999996,"y":2541408.8900000025}},{"attributes":{"ID":634175,"DIS_CODE":0,"TOWNNAME":"東區","LI":"忠孝里","LIN":"9鄰","STREET":"榮譽街","SECT":" ","MAREA":" ","LANE":" ","ALLEY":" ","HOUSE_NO":"９０號五樓之１３","E_COORD97":169776.63,"N_COORD97":2541700.46,"ADDRESS":"榮譽街９０號五樓之１３","OBJECTID":634148},"geometry":{"x":169776.62999999989,"y":2541700.4600000028}},{"attributes":{"ID":634176,"DIS_CODE":0,"TOWNNAME":"東區","LI":"忠孝里","LIN":"9鄰","STREET":"榮譽街","SECT":" ","MAREA":" ","LANE":" ","ALLEY":" ","HOUSE_NO":"９０號五樓之５","E_COORD97":169776.63,"N_COORD97":2541700.46,"ADDRESS":"榮譽街９０號五樓之５","OBJECTID":634149},"geometry":{"x":169776.62999999989,"y":2541700.4600000028}},{"attributes":{"ID":634177,"DIS_CODE":0,"TOWNNAME":"東區","LI":"忠孝里","LIN":"9鄰","STREET":"榮譽街","SECT":" ","MAREA":" ","LANE":" ","ALLEY":" ","HOUSE_NO":"９０號六樓","E_COORD97":169776.63,"N_COORD97":2541700.46,"ADDRESS":"榮譽街９０號六樓","OBJECTID":634150},"geometry":{"x":169776.62999999989,"y":2541700.4600000028}},{"attributes":{"ID":634178,"DIS_CODE":0,"TOWNNAME":"東區","LI":"忠孝里","LIN":"9鄰","STREET":"榮譽街","SECT":" ","MAREA":" ","LANE":" ","ALLEY":" ","HOUSE_NO":"９０號六樓之３","E_COORD97":169776.63,"N_COORD97":2541700.46,"ADDRESS":"榮譽街９０號六樓之３","OBJECTID":634151},"geometry":{"x":169776.62999999989,"y":2541700.4600000028}},{"attributes":{"ID":634179,"DIS_CODE":0,"TOWNNAME":"東區","LI":"忠孝里","LIN":"9鄰","STREET":"榮譽街","SECT":" ","MAREA":" ","LANE":" ","ALLEY":" ","HOUSE_NO":"９０號六樓之４","E_COORD97":169776.63,"N_COORD97":2541700.46,"ADDRESS":"榮譽街９０號六樓之４","OBJECTID":634152},"geometry":{"x":169776.62999999989,"y":2541700.4600000028}},{"attributes":{"ID":634180,"DIS_CODE":0,"TOWNNAME":"東區","LI":"忠孝里","LIN":"9鄰","STREET":"榮譽街","SECT":" ","MAREA":" ","LANE":" ","ALLEY":" ","HOUSE_NO":"９０號六樓之７","E_COORD97":169776.63,"N_COORD97":2541700.46,"ADDRESS":"榮譽街９０號六樓之７","OBJECTID":634153},"geometry":{"x":169776.62999999989,"y":2541700.4600000028}},{"attributes":{"ID":634181,"DIS_CODE":0,"TOWNNAME":"東區","LI":"忠孝里","LIN":"9鄰","STREET":"榮譽街","SECT":" ","MAREA":" ","LANE":" ","ALLEY":" ","HOUSE_NO":"９０號六樓之８","E_COORD97":169776.63,"N_COORD97":2541700.46,"ADDRESS":"榮譽街９０號六樓之８","OBJECTID":634154},"geometry":{"x":169776.62999999989,"y":2541700.4600000028}},{"attributes":{"ID":634182,"DIS_CODE":0,"TOWNNAME":"東區","LI":"忠孝里","LIN":"9鄰","STREET":"榮譽街","SECT":" ","MAREA":" ","LANE":" ","ALLEY":" ","HOUSE_NO":"９０號三樓之１４","E_COORD97":169776.63,"N_COORD97":2541700.46,"ADDRESS":"榮譽街９０號三樓之１４","OBJECTID":634155},"geometry":{"x":169776.62999999989,"y":2541700.4600000028}},{"attributes":{"ID":634183,"DIS_CODE":0,"TOWNNAME":"東區","LI":"忠孝里","LIN":"9鄰","STREET":"榮譽街","SECT":" ","MAREA":" ","LANE":" ","ALLEY":" ","HOUSE_NO":"９０號三樓之１５","E_COORD97":169776.63,"N_COORD97":2541700.46,"ADDRESS":"榮譽街９０號三樓之１５","OBJECTID":634156},"geometry":{"x":169776.62999999989,"y":2541700.4600000028}},{"attributes":{"ID":634184,"DIS_CODE":0,"TOWNNAME":"東區","LI":"忠孝里","LIN":"9鄰","STREET":"榮譽街","SECT":" ","MAREA":" ","LANE":" ","ALLEY":" ","HOUSE_NO":"９０號四樓之１４","E_COORD97":169776.63,"N_COORD97":2541700.46,"ADDRESS":"榮譽街９０號四樓之１４","OBJECTID":634157},"geometry":{"x":169776.62999999989,"y":2541700.4600000028}},{"attributes":{"ID":634185,"DIS_CODE":0,"TOWNNAME":"東區","LI":"忠孝里","LIN":"9鄰","STREET":"榮譽街","SECT":" ","MAREA":" ","LANE":" ","ALLEY":" ","HOUSE_NO":"９０號四樓之１５","E_COORD97":169776.63,"N_COORD97":2541700.46,"ADDRESS":"榮譽街９０號四樓之１５","OBJECTID":634158},"geometry":{"x":169776.62999999989,"y":2541700.4600000028}},{"attributes":{"ID":634186,"DIS_CODE":0,"TOWNNAME":"東區","LI":"忠孝里","LIN":"9鄰","STREET":"榮譽街","SECT":" ","MAREA":" ","LANE":" ","ALLEY":" ","HOUSE_NO":"９０號六樓之１３","E_COORD97":169776.63,"N_COORD97":2541700.46,"ADDRESS":"榮譽街９０號六樓之１３","OBJECTID":634159},"geometry":{"x":169776.62999999989,"y":2541700.4600000028}},{"attributes":{"ID":634187,"DIS_CODE":0,"TOWNNAME":"東區","LI":"忠孝里","LIN":"9鄰","STREET":"榮譽街","SECT":" ","MAREA":" ","LANE":" ","ALLEY":" ","HOUSE_NO":"９０號六樓之１４","E_COORD97":169776.63,"N_COORD97":2541700.46,"ADDRESS":"榮譽街９０號六樓之１４","OBJECTID":634160},"geometry":{"x":169776.62999999989,"y":2541700.4600000028}},{"attributes":{"ID":634188,"DIS_CODE":0,"TOWNNAME":"東區","LI":"忠孝里","LIN":"9鄰","STREET":"榮譽街","SECT":" ","MAREA":" ","LANE":" ","ALLEY":" ","HOUSE_NO":"９０號六樓之１２","E_COORD97":169776.63,"N_COORD97":2541700.46,"ADDRESS":"榮譽街９０號六樓之１２","OBJECTID":634161},"geometry":{"x":169776.62999999989,"y":2541700.4600000028}},{"attributes":{"ID":634189,"DIS_CODE":0,"TOWNNAME":"東區","LI":"崇明里","LIN":"11鄰","STREET":"大同路","SECT":"二段","MAREA":" ","LANE":" ","ALLEY":" ","HOUSE_NO":"６０１號二樓","E_COORD97":169624.60999999999,"N_COORD97":2540973.5299999998,"ADDRESS":"大同路二段６０１號二樓","OBJECTID":634162},"geometry":{"x":169624.61000000034,"y":2540973.5300000012}},{"attributes":{"ID":634190,"DIS_CODE":0,"TOWNNAME":"東區","LI":"崇明里","LIN":"11鄰","STREET":"大同路","SECT":"二段","MAREA":" ","LANE":" ","ALLEY":" ","HOUSE_NO":"６０１號二樓之１","E_COORD97":169624.60999999999,"N_COORD97":2540973.5299999998,"ADDRESS":"大同路二段６０１號二樓之１","OBJECTID":634163},"geometry":{"x":169624.61000000034,"y":2540973.5300000012}},{"attributes":{"ID":634191,"DIS_CODE":0,"TOWNNAME":"東區","LI":"崇明里","LIN":"11鄰","STREET":"大同路","SECT":"二段","MAREA":" ","LANE":" ","ALLEY":" ","HOUSE_NO":"６０１號三樓","E_COORD97":169624.60999999999,"N_COORD97":2540973.5299999998,"ADDRESS":"大同路二段６０１號三樓","OBJECTID":634164},"geometry":{"x":169624.61000000034,"y":2540973.5300000012}},{"attributes":{"ID":634192,"DIS_CODE":0,"TOWNNAME":"東區","LI":"崇明里","LIN":"11鄰","STREET":"大同路","SECT":"二段","MAREA":" ","LANE":" ","ALLEY":" ","HOUSE_NO":"６０１號三樓之１","E_COORD97":169624.60999999999,"N_COORD97":2540973.5299999998,"ADDRESS":"大同路二段６０１號三樓之１","OBJECTID":634165},"geometry":{"x":169624.61000000034,"y":2540973.5300000012}},{"attributes":{"ID":634193,"DIS_CODE":0,"TOWNNAME":"東區","LI":"崇明里","LIN":"11鄰","STREET":"大同路","SECT":"二段","MAREA":" ","LANE":" ","ALLEY":" ","HOUSE_NO":"６０１號三樓之２","E_COORD97":169624.60999999999,"N_COORD97":2540973.5299999998,"ADDRESS":"大同路二段６０１號三樓之２","OBJECTID":634166},"geometry":{"x":169624.61000000034,"y":2540973.5300000012}},{"attributes":{"ID":634194,"DIS_CODE":0,"TOWNNAME":"東區","LI":"崇明里","LIN":"11鄰","STREET":"大同路","SECT":"二段","MAREA":" ","LANE":" ","ALLEY":" ","HOUSE_NO":"６０１號三樓之３","E_COORD97":169624.60999999999,"N_COORD97":2540973.5299999998,"ADDRESS":"大同路二段６０１號三樓之３","OBJECTID":634167},"geometry":{"x":169624.61000000034,"y":2540973.5300000012}},{"attributes":{"ID":634195,"DIS_CODE":0,"TOWNNAME":"東區","LI":"崇明里","LIN":"11鄰","STREET":"大同路","SECT":"二段","MAREA":" ","LANE":" ","ALLEY":" ","HOUSE_NO":"６０１號三樓之４","E_COORD97":169624.60999999999,"N_COORD97":2540973.5299999998,"ADDRESS":"大同路二段６０１號三樓之４","OBJECTID":634168},"geometry":{"x":169624.61000000034,"y":2540973.5300000012}},{"attributes":{"ID":634196,"DIS_CODE":0,"TOWNNAME":"東區","LI":"崇明里","LIN":"11鄰","STREET":"大同路","SECT":"二段","MAREA":" ","LANE":" ","ALLEY":" ","HOUSE_NO":"６０１號四樓","E_COORD97":169624.60999999999,"N_COORD97":2540973.5299999998,"ADDRESS":"大同路二段６０１號四樓","OBJECTID":634169},"geometry":{"x":169624.61000000034,"y":2540973.5300000012}},{"attributes":{"ID":634197,"DIS_CODE":0,"TOWNNAME":"東區","LI":"崇明里","LIN":"11鄰","STREET":"大同路","SECT":"二段","MAREA":" ","LANE":" ","ALLEY":" ","HOUSE_NO":"６０１號四樓之１","E_COORD97":169624.60999999999,"N_COORD97":2540973.5299999998,"ADDRESS":"大同路二段６０１號四樓之１","OBJECTID":634170},"geometry":{"x":169624.61000000034,"y":2540973.5300000012}},{"attributes":{"ID":634198,"DIS_CODE":0,"TOWNNAME":"東區","LI":"崇明里","LIN":"11鄰","STREET":"大同路","SECT":"二段","MAREA":" ","LANE":" ","ALLEY":" ","HOUSE_NO":"６０１號四樓之２","E_COORD97":169624.60999999999,"N_COORD97":2540973.5299999998,"ADDRESS":"大同路二段６０１號四樓之２","OBJECTID":634171},"geometry":{"x":169624.61000000034,"y":2540973.5300000012}},{"attributes":{"ID":634199,"DIS_CODE":0,"TOWNNAME":"東區","LI":"崇明里","LIN":"11鄰","STREET":"大同路","SECT":"二段","MAREA":" ","LANE":" ","ALLEY":" ","HOUSE_NO":"６０１號四樓之３","E_COORD97":169624.60999999999,"N_COORD97":2540973.5299999998,"ADDRESS":"大同路二段６０１號四樓之３","OBJECTID":634172},"geometry":{"x":169624.61000000034,"y":2540973.5300000012}},{"attributes":{"ID":634200,"DIS_CODE":0,"TOWNNAME":"東區","LI":"崇明里","LIN":"11鄰","STREET":"大同路","SECT":"二段","MAREA":" ","LANE":" ","ALLEY":" ","HOUSE_NO":"６０１號四樓之４","E_COORD97":169624.60999999999,"N_COORD97":2540973.5299999998,"ADDRESS":"大同路二段６０１號四樓之４","OBJECTID":634173},"geometry":{"x":169624.61000000034,"y":2540973.5300000012}},{"attributes":{"ID":634201,"DIS_CODE":0,"TOWNNAME":"東區","LI":"崇明里","LIN":"11鄰","STREET":"大同路","SECT":"二段","MAREA":" ","LANE":" ","ALLEY":" ","HOUSE_NO":"６０１號四樓之５","E_COORD97":169624.60999999999,"N_COORD97":2540973.5299999998,"ADDRESS":"大同路二段６０１號四樓之５","OBJECTID":634174},"geometry":{"x":169624.61000000034,"y":2540973.5300000012}},{"attributes":{"ID":634202,"DIS_CODE":0,"TOWNNAME":"東區","LI":"忠孝里","LIN":"25鄰","STREET":"崇明四街","SECT":" ","MAREA":" ","LANE":" ","ALLEY":" ","HOUSE_NO":"３１號四樓","E_COORD97":169648.95000000001,"N_COORD97":2542315.6699999999,"ADDRESS":"崇明四街３１號四樓","OBJECTID":634175},"geometry":{"x":169648.95000000019,"y":2542315.6700000018}},{"attributes":{"ID":634203,"DIS_CODE":0,"TOWNNAME":"東區","LI":"忠孝里","LIN":"25鄰","STREET":"崇明四街","SECT":" ","MAREA":" ","LANE":" ","ALLEY":" ","HOUSE_NO":"３１號二樓","E_COORD97":169648.95000000001,"N_COORD97":2542315.6699999999,"ADDRESS":"崇明四街３１號二樓","OBJECTID":634176},"geometry":{"x":169648.95000000019,"y":2542315.6700000018}},{"attributes":{"ID":634204,"DIS_CODE":0,"TOWNNAME":"東區","LI":"忠孝里","LIN":"25鄰","STREET":"崇明四街","SECT":" ","MAREA":" ","LANE":" ","ALLEY":" ","HOUSE_NO":"３１號三樓","E_COORD97":169648.95000000001,"N_COORD97":2542315.6699999999,"ADDRESS":"崇明四街３１號三樓","OBJECTID":634177},"geometry":{"x":169648.95000000019,"y":2542315.6700000018}},{"attributes":{"ID":634205,"DIS_CODE":0,"TOWNNAME":"仁德區","LI":"後壁里","LIN":"39鄰","STREET":"德安路","SECT":" ","MAREA":" ","LANE":" ","ALLEY":" ","HOUSE_NO":"８８之１號四樓之４","E_COORD97":173467.89999999999,"N_COORD97":2539065.5699999998,"ADDRESS":"德安路８８之１號四樓之４","OBJECTID":634178},"geometry":{"x":173467.90000000224,"y":2539065.5700000022}},{"attributes":{"ID":634206,"DIS_CODE":0,"TOWNNAME":"仁德區","LI":"後壁里","LIN":"39鄰","STREET":"德安路","SECT":" ","MAREA":" ","LANE":" ","ALLEY":" ","HOUSE_NO":"８８之１號五樓之５","E_COORD97":173468.03,"N_COORD97":2539065.5699999998,"ADDRESS":"德安路８８之１號五樓之５","OBJECTID":634179},"geometry":{"x":173468.03000000026,"y":2539065.5700000022}},{"attributes":{"ID":634207,"DIS_CODE":0,"TOWNNAME":"仁德區","LI":"後壁里","LIN":"39鄰","STREET":"德安路","SECT":" ","MAREA":" ","LANE":" ","ALLEY":" ","HOUSE_NO":"８８之１號六樓之３","E_COORD97":173467.97,"N_COORD97":2539065.5699999998,"ADDRESS":"德安路８８之１號六樓之３","OBJECTID":634180},"geometry":{"x":173467.96999999974,"y":2539065.5700000022}},{"attributes":{"ID":634208,"DIS_CODE":0,"TOWNNAME":"仁德區","LI":"後壁里","LIN":"42鄰","STREET":"德崙路","SECT":" ","MAREA":" ","LANE":" ","ALLEY":" ","HOUSE_NO":"７０號五樓之１","E_COORD97":173359.51000000001,"N_COORD97":2538515.54,"ADDRESS":"德崙路７０號五樓之１","OBJECTID":634181},"geometry":{"x":173359.50999999885,"y":2538515.5399999991}},{"attributes":{"ID":634209,"DIS_CODE":0,"TOWNNAME":"仁德區","LI":"後壁里","LIN":"42鄰","STREET":"德崙路","SECT":" ","MAREA":" ","LANE":" ","ALLEY":" ","HOUSE_NO":"７０號三樓之１","E_COORD97":173359.51000000001,"N_COORD97":2538515.54,"ADDRESS":"德崙路７０號三樓之１","OBJECTID":634182},"geometry":{"x":173359.50999999885,"y":2538515.5399999991}},{"attributes":{"ID":634210,"DIS_CODE":0,"TOWNNAME":"永康區","LI":"大橋里","LIN":"4鄰","STREET":"大橋五街","SECT":" ","MAREA":" ","LANE":" ","ALLEY":" ","HOUSE_NO":"１２１號六樓之２","E_COORD97":170941.95000000001,"N_COORD97":2546963.6299999999,"ADDRESS":"大橋五街１２１號六樓之２","OBJECTID":634183},"geometry":{"x":170941.95000000112,"y":2546963.629999999}},{"attributes":{"ID":634211,"DIS_CODE":0,"TOWNNAME":"永康區","LI":"大橋里","LIN":"4鄰","STREET":"大橋五街","SECT":" ","MAREA":" ","LANE":" ","ALLEY":" ","HOUSE_NO":"１３７號六樓之２","E_COORD97":170961.92000000001,"N_COORD97":2546977.6699999999,"ADDRESS":"大橋五街１３７號六樓之２","OBJECTID":634184},"geometry":{"x":170961.92000000086,"y":2546977.6700000018}},{"attributes":{"ID":634212,"DIS_CODE":0,"TOWNNAME":"永康區","LI":"大橋里","LIN":"5鄰","STREET":"大橋五街","SECT":" ","MAREA":" ","LANE":" ","ALLEY":" ","HOUSE_NO":"１０號七樓之１","E_COORD97":170794.48999999999,"N_COORD97":2546814.75,"ADDRESS":"大橋五街１０號七樓之１","OBJECTID":634185},"geometry":{"x":170794.49000000115,"y":2546814.75}},{"attributes":{"ID":634213,"DIS_CODE":0,"TOWNNAME":"永康區","LI":"大橋里","LIN":"4鄰","STREET":"大橋五街","SECT":" ","MAREA":" ","LANE":" ","ALLEY":" ","HOUSE_NO":"１３７號五樓之１","E_COORD97":170961.78,"N_COORD97":2546977.6699999999,"ADDRESS":"大橋五街１３７號五樓之１","OBJECTID":634186},"geometry":{"x":170961.78000000119,"y":2546977.6700000018}},{"attributes":{"ID":634214,"DIS_CODE":0,"TOWNNAME":"永康區","LI":"大橋里","LIN":"4鄰","STREET":"大橋五街","SECT":" ","MAREA":" ","LANE":" ","ALLEY":" ","HOUSE_NO":"１２９號三樓","E_COORD97":170927.35000000001,"N_COORD97":2546992.5,"ADDRESS":"大橋五街１２９號三樓","OBJECTID":634187},"geometry":{"x":170927.34999999963,"y":2546992.5000000019}},{"attributes":{"ID":634215,"DIS_CODE":0,"TOWNNAME":"永康區","LI":"中華里","LIN":"20鄰","STREET":"小東路","SECT":" ","MAREA":" ","LANE":" ","ALLEY":" ","HOUSE_NO":"４７３號之８二樓","E_COORD97":171591.85999999999,"N_COORD97":2544367.3500000001,"ADDRESS":"小東路４７３號之８二樓","OBJECTID":634188},"geometry":{"x":171591.86000000127,"y":2544367.3500000034}},{"attributes":{"ID":634216,"DIS_CODE":0,"TOWNNAME":"永康區","LI":"大橋里","LIN":"4鄰","STREET":"大橋五街","SECT":" ","MAREA":" ","LANE":" ","ALLEY":" ","HOUSE_NO":"１２５號六樓","E_COORD97":170928.54000000001,"N_COORD97":2546983.3700000001,"ADDRESS":"大橋五街１２５號六樓","OBJECTID":634189},"geometry":{"x":170928.54000000004,"y":2546983.3700000029}},{"attributes":{"ID":634217,"DIS_CODE":0,"TOWNNAME":"永康區","LI":"五王里","LIN":"20鄰","STREET":"中華路","SECT":" ","MAREA":" ","LANE":" ","ALLEY":" ","HOUSE_NO":"４７２號二樓之２","E_COORD97":171329.76999999999,"N_COORD97":2545716.7999999998,"ADDRESS":"中華路４７２號二樓之２","OBJECTID":634190},"geometry":{"x":171329.76999999955,"y":2545716.8000000007}},{"attributes":{"ID":634218,"DIS_CODE":0,"TOWNNAME":"永康區","LI":"大橋里","LIN":"4鄰","STREET":"大橋五街","SECT":" ","MAREA":" ","LANE":" ","ALLEY":" ","HOUSE_NO":"１３７號四樓之２","E_COORD97":170961.92000000001,"N_COORD97":2546977.6699999999,"ADDRESS":"大橋五街１３７號四樓之２","OBJECTID":634191},"geometry":{"x":170961.92000000086,"y":2546977.6700000018}},{"attributes":{"ID":634219,"DIS_CODE":0,"TOWNNAME":"永康區","LI":"五王里","LIN":"24鄰","STREET":"成功路","SECT":" ","MAREA":" ","LANE":" ","ALLEY":" ","HOUSE_NO":"２５８號三樓之６","E_COORD97":171313.84,"N_COORD97":2545846.04,"ADDRESS":"成功路２５８號三樓之６","OBJECTID":634192},"geometry":{"x":171313.84000000078,"y":2545846.0399999991}},{"attributes":{"ID":634220,"DIS_CODE":0,"TOWNNAME":"永康區","LI":"大橋里","LIN":"18鄰","STREET":"大橋二街","SECT":" ","MAREA":" ","LANE":" ","ALLEY":" ","HOUSE_NO":"１９２號四樓之５","E_COORD97":171134.88,"N_COORD97":2546764.96,"ADDRESS":"大橋二街１９２號四樓之５","OBJECTID":634193},"geometry":{"x":171134.88000000175,"y":2546764.9600000046}},{"attributes":{"ID":634221,"DIS_CODE":0,"TOWNNAME":"永康區","LI":"五王里","LIN":"20鄰","STREET":"成功路","SECT":" ","MAREA":" ","LANE":" ","ALLEY":" ","HOUSE_NO":"１２１號七樓之２","E_COORD97":171408.5,"N_COORD97":2545647.54,"ADDRESS":"成功路１２１號七樓之２","OBJECTID":634194},"geometry":{"x":171408.5,"y":2545647.540000001}},{"attributes":{"ID":634222,"DIS_CODE":0,"TOWNNAME":"永康區","LI":"五王里","LIN":"20鄰","STREET":"成功路","SECT":" ","MAREA":" ","LANE":" ","ALLEY":" ","HOUSE_NO":"１２１號五樓之２","E_COORD97":171408.5,"N_COORD97":2545647.54,"ADDRESS":"成功路１２１號五樓之２","OBJECTID":634195},"geometry":{"x":171408.5,"y":2545647.540000001}},{"attributes":{"ID":634223,"DIS_CODE":0,"TOWNNAME":"永康區","LI":"五王里","LIN":"20鄰","STREET":"中華路","SECT":" ","MAREA":" ","LANE":" ","ALLEY":" ","HOUSE_NO":"４７２號四樓","E_COORD97":171327.5,"N_COORD97":2545716.7599999998,"ADDRESS":"中華路４７２號四樓","OBJECTID":634196},"geometry":{"x":171327.50000000186,"y":2545716.7599999998}},{"attributes":{"ID":634224,"DIS_CODE":0,"TOWNNAME":"永康區","LI":"五王里","LIN":"42鄰","STREET":"五福街","SECT":" ","MAREA":" ","LANE":" ","ALLEY":" ","HOUSE_NO":"１８５號六樓之１","E_COORD97":171670.59,"N_COORD97":2546058.6400000001,"ADDRESS":"五福街１８５號六樓之１","OBJECTID":634197},"geometry":{"x":171670.58999999892,"y":2546058.6400000025}},{"attributes":{"ID":634225,"DIS_CODE":0,"TOWNNAME":"永康區","LI":"五王里","LIN":"20鄰","STREET":"中華路","SECT":" ","MAREA":" ","LANE":" ","ALLEY":" ","HOUSE_NO":"４７２號五樓","E_COORD97":171327.5,"N_COORD97":2545716.7599999998,"ADDRESS":"中華路４７２號五樓","OBJECTID":634198},"geometry":{"x":171327.50000000186,"y":2545716.7599999998}},{"attributes":{"ID":634226,"DIS_CODE":0,"TOWNNAME":"永康區","LI":"五王里","LIN":"42鄰","STREET":"五福街","SECT":" ","MAREA":" ","LANE":" ","ALLEY":" ","HOUSE_NO":"１８５號三樓之２","E_COORD97":171670.73000000001,"N_COORD97":2546058.6400000001,"ADDRESS":"五福街１８５號三樓之２","OBJECTID":634199},"geometry":{"x":171670.73000000138,"y":2546058.6400000025}},{"attributes":{"ID":634227,"DIS_CODE":0,"TOWNNAME":"永康區","LI":"五王里","LIN":"20鄰","STREET":"成功路","SECT":" ","MAREA":" ","LANE":" ","ALLEY":" ","HOUSE_NO":"１２１號二樓之１","E_COORD97":171408.35999999999,"N_COORD97":2545647.54,"ADDRESS":"成功路１２１號二樓之１","OBJECTID":634200},"geometry":{"x":171408.3600000022,"y":2545647.540000001}}]}