{"displayFieldName":"TOWNNAME","fieldAliases":{"ID":"ID","DIS_CODE":"DIS_CODE","TOWNNAME":"TOWNNAME","LI":"LI","LIN":"LIN","STREET":"STREET","SECT":"SECT","MAREA":"MAREA","LANE":"LANE","ALLEY":"ALLEY","HOUSE_NO":"HOUSE_NO","E_COORD97":"E_COORD97","N_COORD97":"N_COORD97","ADDRESS":"ADDRESS","OBJECTID":"OBJECTID"},"geometryType":"esriGeometryPoint","spatialReference":{"wkid":102443,"latestWkid":3826},"fields":[{"name":"ID","type":"esriFieldTypeDouble","alias":"ID"},{"name":"DIS_CODE","type":"esriFieldTypeInteger","alias":"DIS_CODE"},{"name":"TOWNNAME","type":"esriFieldTypeString","alias":"TOWNNAME","length":8},{"name":"LI","type":"esriFieldTypeString","alias":"LI","length":8},{"name":"LIN","type":"esriFieldTypeString","alias":"LIN","length":12},{"name":"STREET","type":"esriFieldTypeString","alias":"STREET","length":20},{"name":"SECT","type":"esriFieldTypeString","alias":"SECT","length":8},{"name":"MAREA","type":"esriFieldTypeString","alias":"MAREA","length":12},{"name":"LANE","type":"esriFieldTypeString","alias":"LANE","length":10},{"name":"ALLEY","type":"esriFieldTypeString","alias":"ALLEY","length":10},{"name":"HOUSE_NO","type":"esriFieldTypeString","alias":"HOUSE_NO","length":20},{"name":"E_COORD97","type":"esriFieldTypeDouble","alias":"E_COORD97"},{"name":"N_COORD97","type":"esriFieldTypeDouble","alias":"N_COORD97"},{"name":"ADDRESS","type":"esriFieldTypeString","alias":"ADDRESS","length":50},{"name":"OBJECTID","type":"esriFieldTypeOID","alias":"OBJECTID"}],"features":[{"attributes":{"ID":480026,"DIS_CODE":0,"TOWNNAME":"東區","LI":"忠孝里","LIN":"26鄰","STREET":"林森路","SECT":"一段","MAREA":" ","LANE":" ","ALLEY":" ","HOUSE_NO":"１６０號九樓之６","E_COORD97":169552.09,"N_COORD97":2542470.5,"ADDRESS":"林森路一段１６０號九樓之６","OBJECTID":480001},"geometry":{"x":169552.09000000078,"y":2542470.5}},{"attributes":{"ID":480027,"DIS_CODE":0,"TOWNNAME":"東區","LI":"忠孝里","LIN":"26鄰","STREET":"林森路","SECT":"一段","MAREA":" ","LANE":" ","ALLEY":" ","HOUSE_NO":"１６０號九樓之７","E_COORD97":169552.09,"N_COORD97":2542470.5,"ADDRESS":"林森路一段１６０號九樓之７","OBJECTID":480002},"geometry":{"x":169552.09000000078,"y":2542470.5}},{"attributes":{"ID":480028,"DIS_CODE":0,"TOWNNAME":"東區","LI":"忠孝里","LIN":"26鄰","STREET":"林森路","SECT":"一段","MAREA":" ","LANE":" ","ALLEY":" ","HOUSE_NO":"１６０號九樓之８","E_COORD97":169552.09,"N_COORD97":2542470.5,"ADDRESS":"林森路一段１６０號九樓之８","OBJECTID":480003},"geometry":{"x":169552.09000000078,"y":2542470.5}},{"attributes":{"ID":480029,"DIS_CODE":0,"TOWNNAME":"東區","LI":"忠孝里","LIN":"26鄰","STREET":"林森路","SECT":"一段","MAREA":" ","LANE":" ","ALLEY":" ","HOUSE_NO":"１６０號九樓之９","E_COORD97":169552.09,"N_COORD97":2542470.5,"ADDRESS":"林森路一段１６０號九樓之９","OBJECTID":480004},"geometry":{"x":169552.09000000078,"y":2542470.5}},{"attributes":{"ID":480030,"DIS_CODE":0,"TOWNNAME":"東區","LI":"忠孝里","LIN":"26鄰","STREET":"林森路","SECT":"一段","MAREA":" ","LANE":" ","ALLEY":" ","HOUSE_NO":"１６０號九樓之１０","E_COORD97":169552.09,"N_COORD97":2542470.5,"ADDRESS":"林森路一段１６０號九樓之１０","OBJECTID":480005},"geometry":{"x":169552.09000000078,"y":2542470.5}},{"attributes":{"ID":480031,"DIS_CODE":0,"TOWNNAME":"東區","LI":"忠孝里","LIN":"26鄰","STREET":"林森路","SECT":"一段","MAREA":" ","LANE":" ","ALLEY":" ","HOUSE_NO":"１６０號九樓之１１","E_COORD97":169552.09,"N_COORD97":2542470.5,"ADDRESS":"林森路一段１６０號九樓之１１","OBJECTID":480006},"geometry":{"x":169552.09000000078,"y":2542470.5}},{"attributes":{"ID":480032,"DIS_CODE":0,"TOWNNAME":"東區","LI":"忠孝里","LIN":"26鄰","STREET":"林森路","SECT":"一段","MAREA":" ","LANE":" ","ALLEY":" ","HOUSE_NO":"１６０號九樓之１２","E_COORD97":169552.09,"N_COORD97":2542470.5,"ADDRESS":"林森路一段１６０號九樓之１２","OBJECTID":480007},"geometry":{"x":169552.09000000078,"y":2542470.5}},{"attributes":{"ID":480033,"DIS_CODE":0,"TOWNNAME":"東區","LI":"忠孝里","LIN":"26鄰","STREET":"林森路","SECT":"一段","MAREA":" ","LANE":" ","ALLEY":" ","HOUSE_NO":"１６０號九樓之１３","E_COORD97":169552.09,"N_COORD97":2542470.5,"ADDRESS":"林森路一段１６０號九樓之１３","OBJECTID":480008},"geometry":{"x":169552.09000000078,"y":2542470.5}},{"attributes":{"ID":480034,"DIS_CODE":0,"TOWNNAME":"東區","LI":"忠孝里","LIN":"26鄰","STREET":"林森路","SECT":"一段","MAREA":" ","LANE":" ","ALLEY":" ","HOUSE_NO":"１６０號九樓之１４","E_COORD97":169552.09,"N_COORD97":2542470.5,"ADDRESS":"林森路一段１６０號九樓之１４","OBJECTID":480009},"geometry":{"x":169552.09000000078,"y":2542470.5}},{"attributes":{"ID":480035,"DIS_CODE":0,"TOWNNAME":"東區","LI":"忠孝里","LIN":"26鄰","STREET":"林森路","SECT":"一段","MAREA":" ","LANE":" ","ALLEY":" ","HOUSE_NO":"１６０號十樓之１","E_COORD97":169552.09,"N_COORD97":2542470.5,"ADDRESS":"林森路一段１６０號十樓之１","OBJECTID":480010},"geometry":{"x":169552.09000000078,"y":2542470.5}},{"attributes":{"ID":480036,"DIS_CODE":0,"TOWNNAME":"東區","LI":"忠孝里","LIN":"26鄰","STREET":"林森路","SECT":"一段","MAREA":" ","LANE":" ","ALLEY":" ","HOUSE_NO":"１６０號十樓之２","E_COORD97":169552.09,"N_COORD97":2542470.5,"ADDRESS":"林森路一段１６０號十樓之２","OBJECTID":480011},"geometry":{"x":169552.09000000078,"y":2542470.5}},{"attributes":{"ID":480037,"DIS_CODE":0,"TOWNNAME":"中西區","LI":"萬昌里","LIN":"15鄰","STREET":"民權路","SECT":"一段","MAREA":" ","LANE":" ","ALLEY":" ","HOUSE_NO":"１９４號","E_COORD97":168808.37,"N_COORD97":2543592.0600000001,"ADDRESS":"民權路一段１９４號","OBJECTID":480012},"geometry":{"x":168808.37000000104,"y":2543592.0600000024}},{"attributes":{"ID":480038,"DIS_CODE":0,"TOWNNAME":"東區","LI":"忠孝里","LIN":"26鄰","STREET":"林森路","SECT":"一段","MAREA":" ","LANE":" ","ALLEY":" ","HOUSE_NO":"１６０號十樓之３","E_COORD97":169552.09,"N_COORD97":2542470.5,"ADDRESS":"林森路一段１６０號十樓之３","OBJECTID":480013},"geometry":{"x":169552.09000000078,"y":2542470.5}},{"attributes":{"ID":480039,"DIS_CODE":0,"TOWNNAME":"東區","LI":"忠孝里","LIN":"26鄰","STREET":"林森路","SECT":"一段","MAREA":" ","LANE":" ","ALLEY":" ","HOUSE_NO":"１６０號十樓之４","E_COORD97":169552.09,"N_COORD97":2542470.5,"ADDRESS":"林森路一段１６０號十樓之４","OBJECTID":480014},"geometry":{"x":169552.09000000078,"y":2542470.5}},{"attributes":{"ID":480040,"DIS_CODE":0,"TOWNNAME":"東區","LI":"忠孝里","LIN":"26鄰","STREET":"林森路","SECT":"一段","MAREA":" ","LANE":" ","ALLEY":" ","HOUSE_NO":"１６０號十樓之５","E_COORD97":169552.09,"N_COORD97":2542470.5,"ADDRESS":"林森路一段１６０號十樓之５","OBJECTID":480015},"geometry":{"x":169552.09000000078,"y":2542470.5}},{"attributes":{"ID":480041,"DIS_CODE":0,"TOWNNAME":"東區","LI":"忠孝里","LIN":"26鄰","STREET":"林森路","SECT":"一段","MAREA":" ","LANE":" ","ALLEY":" ","HOUSE_NO":"１６０號十樓之６","E_COORD97":169552.09,"N_COORD97":2542470.5,"ADDRESS":"林森路一段１６０號十樓之６","OBJECTID":480016},"geometry":{"x":169552.09000000078,"y":2542470.5}},{"attributes":{"ID":480042,"DIS_CODE":0,"TOWNNAME":"東區","LI":"忠孝里","LIN":"26鄰","STREET":"林森路","SECT":"一段","MAREA":" ","LANE":" ","ALLEY":" ","HOUSE_NO":"１６０號十樓之７","E_COORD97":169552.09,"N_COORD97":2542470.5,"ADDRESS":"林森路一段１６０號十樓之７","OBJECTID":480017},"geometry":{"x":169552.09000000078,"y":2542470.5}},{"attributes":{"ID":480043,"DIS_CODE":0,"TOWNNAME":"東區","LI":"忠孝里","LIN":"26鄰","STREET":"林森路","SECT":"一段","MAREA":" ","LANE":" ","ALLEY":" ","HOUSE_NO":"１６０號十樓之８","E_COORD97":169552.09,"N_COORD97":2542470.5,"ADDRESS":"林森路一段１６０號十樓之８","OBJECTID":480018},"geometry":{"x":169552.09000000078,"y":2542470.5}},{"attributes":{"ID":480044,"DIS_CODE":0,"TOWNNAME":"東區","LI":"忠孝里","LIN":"26鄰","STREET":"林森路","SECT":"一段","MAREA":" ","LANE":" ","ALLEY":" ","HOUSE_NO":"１６０號十樓之９","E_COORD97":169552.09,"N_COORD97":2542470.5,"ADDRESS":"林森路一段１６０號十樓之９","OBJECTID":480019},"geometry":{"x":169552.09000000078,"y":2542470.5}},{"attributes":{"ID":480045,"DIS_CODE":0,"TOWNNAME":"東區","LI":"忠孝里","LIN":"26鄰","STREET":"林森路","SECT":"一段","MAREA":" ","LANE":" ","ALLEY":" ","HOUSE_NO":"１６０號十樓之１０","E_COORD97":169552.09,"N_COORD97":2542470.5,"ADDRESS":"林森路一段１６０號十樓之１０","OBJECTID":480020},"geometry":{"x":169552.09000000078,"y":2542470.5}},{"attributes":{"ID":480046,"DIS_CODE":0,"TOWNNAME":"東區","LI":"忠孝里","LIN":"26鄰","STREET":"林森路","SECT":"一段","MAREA":" ","LANE":" ","ALLEY":" ","HOUSE_NO":"１６０號十樓之１１","E_COORD97":169552.09,"N_COORD97":2542470.5,"ADDRESS":"林森路一段１６０號十樓之１１","OBJECTID":480021},"geometry":{"x":169552.09000000078,"y":2542470.5}},{"attributes":{"ID":480047,"DIS_CODE":0,"TOWNNAME":"東區","LI":"忠孝里","LIN":"26鄰","STREET":"林森路","SECT":"一段","MAREA":" ","LANE":" ","ALLEY":" ","HOUSE_NO":"１６０號十樓之１２","E_COORD97":169552.09,"N_COORD97":2542470.5,"ADDRESS":"林森路一段１６０號十樓之１２","OBJECTID":480022},"geometry":{"x":169552.09000000078,"y":2542470.5}},{"attributes":{"ID":480048,"DIS_CODE":0,"TOWNNAME":"東區","LI":"忠孝里","LIN":"26鄰","STREET":"林森路","SECT":"一段","MAREA":" ","LANE":" ","ALLEY":" ","HOUSE_NO":"１６０號十樓之１３","E_COORD97":169552.09,"N_COORD97":2542470.5,"ADDRESS":"林森路一段１６０號十樓之１３","OBJECTID":480023},"geometry":{"x":169552.09000000078,"y":2542470.5}},{"attributes":{"ID":480049,"DIS_CODE":0,"TOWNNAME":"東區","LI":"忠孝里","LIN":"26鄰","STREET":"林森路","SECT":"一段","MAREA":" ","LANE":" ","ALLEY":" ","HOUSE_NO":"１６０號十樓之１４","E_COORD97":169552.09,"N_COORD97":2542470.5,"ADDRESS":"林森路一段１６０號十樓之１４","OBJECTID":480024},"geometry":{"x":169552.09000000078,"y":2542470.5}},{"attributes":{"ID":480050,"DIS_CODE":0,"TOWNNAME":"東區","LI":"忠孝里","LIN":"26鄰","STREET":"林森路","SECT":"一段","MAREA":" ","LANE":" ","ALLEY":" ","HOUSE_NO":"１６０號十一樓之１","E_COORD97":169552.09,"N_COORD97":2542470.5,"ADDRESS":"林森路一段１６０號十一樓之１","OBJECTID":480025},"geometry":{"x":169552.09000000078,"y":2542470.5}},{"attributes":{"ID":480051,"DIS_CODE":0,"TOWNNAME":"東區","LI":"忠孝里","LIN":"26鄰","STREET":"林森路","SECT":"一段","MAREA":" ","LANE":" ","ALLEY":" ","HOUSE_NO":"１６０號十一樓之２","E_COORD97":169552.09,"N_COORD97":2542470.5,"ADDRESS":"林森路一段１６０號十一樓之２","OBJECTID":480026},"geometry":{"x":169552.09000000078,"y":2542470.5}},{"attributes":{"ID":480052,"DIS_CODE":0,"TOWNNAME":"東區","LI":"忠孝里","LIN":"26鄰","STREET":"林森路","SECT":"一段","MAREA":" ","LANE":" ","ALLEY":" ","HOUSE_NO":"１６０號十一樓之３","E_COORD97":169552.09,"N_COORD97":2542470.5,"ADDRESS":"林森路一段１６０號十一樓之３","OBJECTID":480027},"geometry":{"x":169552.09000000078,"y":2542470.5}},{"attributes":{"ID":480053,"DIS_CODE":0,"TOWNNAME":"東區","LI":"忠孝里","LIN":"26鄰","STREET":"林森路","SECT":"一段","MAREA":" ","LANE":" ","ALLEY":" ","HOUSE_NO":"１６０號十一樓之４","E_COORD97":169552.09,"N_COORD97":2542470.5,"ADDRESS":"林森路一段１６０號十一樓之４","OBJECTID":480028},"geometry":{"x":169552.09000000078,"y":2542470.5}},{"attributes":{"ID":480054,"DIS_CODE":0,"TOWNNAME":"東區","LI":"忠孝里","LIN":"26鄰","STREET":"林森路","SECT":"一段","MAREA":" ","LANE":" ","ALLEY":" ","HOUSE_NO":"１６０號十一樓之５","E_COORD97":169552.09,"N_COORD97":2542470.5,"ADDRESS":"林森路一段１６０號十一樓之５","OBJECTID":480029},"geometry":{"x":169552.09000000078,"y":2542470.5}},{"attributes":{"ID":480055,"DIS_CODE":0,"TOWNNAME":"東區","LI":"忠孝里","LIN":"26鄰","STREET":"林森路","SECT":"一段","MAREA":" ","LANE":" ","ALLEY":" ","HOUSE_NO":"１６０號十一樓之６","E_COORD97":169552.09,"N_COORD97":2542470.5,"ADDRESS":"林森路一段１６０號十一樓之６","OBJECTID":480030},"geometry":{"x":169552.09000000078,"y":2542470.5}},{"attributes":{"ID":480056,"DIS_CODE":0,"TOWNNAME":"東區","LI":"忠孝里","LIN":"26鄰","STREET":"林森路","SECT":"一段","MAREA":" ","LANE":" ","ALLEY":" ","HOUSE_NO":"１６０號十一樓之７","E_COORD97":169552.09,"N_COORD97":2542470.5,"ADDRESS":"林森路一段１６０號十一樓之７","OBJECTID":480031},"geometry":{"x":169552.09000000078,"y":2542470.5}},{"attributes":{"ID":480057,"DIS_CODE":0,"TOWNNAME":"東區","LI":"忠孝里","LIN":"26鄰","STREET":"林森路","SECT":"一段","MAREA":" ","LANE":" ","ALLEY":" ","HOUSE_NO":"１６０號十一樓之８","E_COORD97":169552.09,"N_COORD97":2542470.5,"ADDRESS":"林森路一段１６０號十一樓之８","OBJECTID":480032},"geometry":{"x":169552.09000000078,"y":2542470.5}},{"attributes":{"ID":480058,"DIS_CODE":0,"TOWNNAME":"東區","LI":"忠孝里","LIN":"26鄰","STREET":"林森路","SECT":"一段","MAREA":" ","LANE":" ","ALLEY":" ","HOUSE_NO":"１６０號十一樓之９","E_COORD97":169552.09,"N_COORD97":2542470.5,"ADDRESS":"林森路一段１６０號十一樓之９","OBJECTID":480033},"geometry":{"x":169552.09000000078,"y":2542470.5}},{"attributes":{"ID":480059,"DIS_CODE":0,"TOWNNAME":"東區","LI":"忠孝里","LIN":"26鄰","STREET":"林森路","SECT":"一段","MAREA":" ","LANE":" ","ALLEY":" ","HOUSE_NO":"１６０號十一樓之１０","E_COORD97":169552.09,"N_COORD97":2542470.5,"ADDRESS":"林森路一段１６０號十一樓之１０","OBJECTID":480034},"geometry":{"x":169552.09000000078,"y":2542470.5}},{"attributes":{"ID":480060,"DIS_CODE":0,"TOWNNAME":"東區","LI":"忠孝里","LIN":"26鄰","STREET":"林森路","SECT":"一段","MAREA":" ","LANE":" ","ALLEY":" ","HOUSE_NO":"１６０號十一樓之１１","E_COORD97":169552.09,"N_COORD97":2542470.5,"ADDRESS":"林森路一段１６０號十一樓之１１","OBJECTID":480035},"geometry":{"x":169552.09000000078,"y":2542470.5}},{"attributes":{"ID":480061,"DIS_CODE":0,"TOWNNAME":"東區","LI":"忠孝里","LIN":"26鄰","STREET":"林森路","SECT":"一段","MAREA":" ","LANE":" ","ALLEY":" ","HOUSE_NO":"１６０號十一樓之１２","E_COORD97":169552.09,"N_COORD97":2542470.5,"ADDRESS":"林森路一段１６０號十一樓之１２","OBJECTID":480036},"geometry":{"x":169552.09000000078,"y":2542470.5}},{"attributes":{"ID":480062,"DIS_CODE":0,"TOWNNAME":"東區","LI":"忠孝里","LIN":"26鄰","STREET":"林森路","SECT":"一段","MAREA":" ","LANE":" ","ALLEY":" ","HOUSE_NO":"１６０號十一樓之１３","E_COORD97":169552.09,"N_COORD97":2542470.5,"ADDRESS":"林森路一段１６０號十一樓之１３","OBJECTID":480037},"geometry":{"x":169552.09000000078,"y":2542470.5}},{"attributes":{"ID":480063,"DIS_CODE":0,"TOWNNAME":"東區","LI":"忠孝里","LIN":"26鄰","STREET":"林森路","SECT":"一段","MAREA":" ","LANE":" ","ALLEY":" ","HOUSE_NO":"１６０號十一樓之１４","E_COORD97":169552.09,"N_COORD97":2542470.5,"ADDRESS":"林森路一段１６０號十一樓之１４","OBJECTID":480038},"geometry":{"x":169552.09000000078,"y":2542470.5}},{"attributes":{"ID":480064,"DIS_CODE":0,"TOWNNAME":"東區","LI":"忠孝里","LIN":"26鄰","STREET":"林森路","SECT":"一段","MAREA":" ","LANE":" ","ALLEY":" ","HOUSE_NO":"１６０號十二樓之１","E_COORD97":169552.09,"N_COORD97":2542470.5,"ADDRESS":"林森路一段１６０號十二樓之１","OBJECTID":480039},"geometry":{"x":169552.09000000078,"y":2542470.5}},{"attributes":{"ID":480065,"DIS_CODE":0,"TOWNNAME":"東區","LI":"忠孝里","LIN":"26鄰","STREET":"林森路","SECT":"一段","MAREA":" ","LANE":" ","ALLEY":" ","HOUSE_NO":"１６０號十二樓之２","E_COORD97":169552.09,"N_COORD97":2542470.5,"ADDRESS":"林森路一段１６０號十二樓之２","OBJECTID":480040},"geometry":{"x":169552.09000000078,"y":2542470.5}},{"attributes":{"ID":480066,"DIS_CODE":0,"TOWNNAME":"東區","LI":"忠孝里","LIN":"26鄰","STREET":"林森路","SECT":"一段","MAREA":" ","LANE":" ","ALLEY":" ","HOUSE_NO":"１６０號十二樓之３","E_COORD97":169552.09,"N_COORD97":2542470.5,"ADDRESS":"林森路一段１６０號十二樓之３","OBJECTID":480041},"geometry":{"x":169552.09000000078,"y":2542470.5}},{"attributes":{"ID":480067,"DIS_CODE":0,"TOWNNAME":"東區","LI":"忠孝里","LIN":"26鄰","STREET":"林森路","SECT":"一段","MAREA":" ","LANE":" ","ALLEY":" ","HOUSE_NO":"１６０號十二樓之４","E_COORD97":169552.09,"N_COORD97":2542470.5,"ADDRESS":"林森路一段１６０號十二樓之４","OBJECTID":480042},"geometry":{"x":169552.09000000078,"y":2542470.5}},{"attributes":{"ID":480068,"DIS_CODE":0,"TOWNNAME":"東區","LI":"忠孝里","LIN":"26鄰","STREET":"林森路","SECT":"一段","MAREA":" ","LANE":" ","ALLEY":" ","HOUSE_NO":"１６０號十二樓之５","E_COORD97":169552.09,"N_COORD97":2542470.5,"ADDRESS":"林森路一段１６０號十二樓之５","OBJECTID":480043},"geometry":{"x":169552.09000000078,"y":2542470.5}},{"attributes":{"ID":480069,"DIS_CODE":0,"TOWNNAME":"東區","LI":"忠孝里","LIN":"26鄰","STREET":"林森路","SECT":"一段","MAREA":" ","LANE":" ","ALLEY":" ","HOUSE_NO":"１６０號十二樓之６","E_COORD97":169552.09,"N_COORD97":2542470.5,"ADDRESS":"林森路一段１６０號十二樓之６","OBJECTID":480044},"geometry":{"x":169552.09000000078,"y":2542470.5}},{"attributes":{"ID":480070,"DIS_CODE":0,"TOWNNAME":"永康區","LI":"復國里","LIN":"26鄰","STREET":"復華三街","SECT":" ","MAREA":" ","LANE":" ","ALLEY":" ","HOUSE_NO":"６４號六樓之４","E_COORD97":172719.64999999999,"N_COORD97":2545600.2999999998,"ADDRESS":"復華三街６４號六樓之４","OBJECTID":480045},"geometry":{"x":172719.65000000037,"y":2545600.3000000026}},{"attributes":{"ID":480071,"DIS_CODE":0,"TOWNNAME":"東區","LI":"忠孝里","LIN":"26鄰","STREET":"林森路","SECT":"一段","MAREA":" ","LANE":" ","ALLEY":" ","HOUSE_NO":"１６０號十二樓之７","E_COORD97":169552.09,"N_COORD97":2542470.5,"ADDRESS":"林森路一段１６０號十二樓之７","OBJECTID":480046},"geometry":{"x":169552.09000000078,"y":2542470.5}},{"attributes":{"ID":480072,"DIS_CODE":0,"TOWNNAME":"東區","LI":"忠孝里","LIN":"26鄰","STREET":"林森路","SECT":"一段","MAREA":" ","LANE":" ","ALLEY":" ","HOUSE_NO":"１６０號十二樓之８","E_COORD97":169552.09,"N_COORD97":2542470.5,"ADDRESS":"林森路一段１６０號十二樓之８","OBJECTID":480047},"geometry":{"x":169552.09000000078,"y":2542470.5}},{"attributes":{"ID":480073,"DIS_CODE":0,"TOWNNAME":"東區","LI":"忠孝里","LIN":"26鄰","STREET":"林森路","SECT":"一段","MAREA":" ","LANE":" ","ALLEY":" ","HOUSE_NO":"１６０號十二樓之９","E_COORD97":169552.09,"N_COORD97":2542470.5,"ADDRESS":"林森路一段１６０號十二樓之９","OBJECTID":480048},"geometry":{"x":169552.09000000078,"y":2542470.5}},{"attributes":{"ID":480074,"DIS_CODE":0,"TOWNNAME":"仁德區","LI":"成功里","LIN":"26鄰","STREET":"成功一街","SECT":" ","MAREA":" ","LANE":" ","ALLEY":" ","HOUSE_NO":"４８號三樓","E_COORD97":170524.34,"N_COORD97":2540017.52,"ADDRESS":"成功一街４８號三樓","OBJECTID":480049},"geometry":{"x":170524.33999999985,"y":2540017.5200000014}},{"attributes":{"ID":480075,"DIS_CODE":0,"TOWNNAME":"永康區","LI":"復國里","LIN":"26鄰","STREET":"復華三街","SECT":" ","MAREA":" ","LANE":" ","ALLEY":" ","HOUSE_NO":"６４號九樓之２","E_COORD97":172719.76000000001,"N_COORD97":2545600.2999999998,"ADDRESS":"復華三街６４號九樓之２","OBJECTID":480050},"geometry":{"x":172719.75999999978,"y":2545600.3000000026}},{"attributes":{"ID":480076,"DIS_CODE":0,"TOWNNAME":"永康區","LI":"網寮里","LIN":"26鄰","STREET":"永興路","SECT":" ","MAREA":" ","LANE":" ","ALLEY":" ","HOUSE_NO":"６９號十樓之１","E_COORD97":174038.82000000001,"N_COORD97":2546534.2999999998,"ADDRESS":"永興路６９號十樓之１","OBJECTID":480051},"geometry":{"x":174038.8200000003,"y":2546534.3000000007}},{"attributes":{"ID":480077,"DIS_CODE":0,"TOWNNAME":"永康區","LI":"復國里","LIN":"26鄰","STREET":"復華三街","SECT":" ","MAREA":" ","LANE":" ","ALLEY":" ","HOUSE_NO":"６４號十八樓之５","E_COORD97":172721.03,"N_COORD97":2545600.2999999998,"ADDRESS":"復華三街６４號十八樓之５","OBJECTID":480052},"geometry":{"x":172721.03000000119,"y":2545600.3000000026}},{"attributes":{"ID":480078,"DIS_CODE":0,"TOWNNAME":"永康區","LI":"復國里","LIN":"26鄰","STREET":"復華三街","SECT":" ","MAREA":" ","LANE":" ","ALLEY":" ","HOUSE_NO":"６２號五樓之６","E_COORD97":172710.57000000001,"N_COORD97":2545562.9700000002,"ADDRESS":"復華三街６２號五樓之６","OBJECTID":480053},"geometry":{"x":172710.57000000216,"y":2545562.9700000007}},{"attributes":{"ID":480079,"DIS_CODE":0,"TOWNNAME":"永康區","LI":"網寮里","LIN":"26鄰","STREET":"永興路","SECT":" ","MAREA":" ","LANE":" ","ALLEY":" ","HOUSE_NO":"９１號十一樓之４","E_COORD97":173983.79000000001,"N_COORD97":2546562.8599999999,"ADDRESS":"永興路９１號十一樓之４","OBJECTID":480054},"geometry":{"x":173983.79000000097,"y":2546562.8599999994}},{"attributes":{"ID":480080,"DIS_CODE":0,"TOWNNAME":"永康區","LI":"復國里","LIN":"26鄰","STREET":"復華三街","SECT":" ","MAREA":" ","LANE":" ","ALLEY":" ","HOUSE_NO":"６４號十一樓之５","E_COORD97":172721.03,"N_COORD97":2545600.2999999998,"ADDRESS":"復華三街６４號十一樓之５","OBJECTID":480055},"geometry":{"x":172721.03000000119,"y":2545600.3000000026}},{"attributes":{"ID":480081,"DIS_CODE":0,"TOWNNAME":"永康區","LI":"復國里","LIN":"26鄰","STREET":"復華三街","SECT":" ","MAREA":" ","LANE":" ","ALLEY":" ","HOUSE_NO":"６４號十七樓之５","E_COORD97":172721.03,"N_COORD97":2545600.2999999998,"ADDRESS":"復華三街６４號十七樓之５","OBJECTID":480056},"geometry":{"x":172721.03000000119,"y":2545600.3000000026}},{"attributes":{"ID":480082,"DIS_CODE":0,"TOWNNAME":"永康區","LI":"復國里","LIN":"26鄰","STREET":"復華三街","SECT":" ","MAREA":" ","LANE":" ","ALLEY":" ","HOUSE_NO":"６２號十樓之５","E_COORD97":172710.62,"N_COORD97":2545562.9700000002,"ADDRESS":"復華三街６２號十樓之５","OBJECTID":480057},"geometry":{"x":172710.62000000104,"y":2545562.9700000007}},{"attributes":{"ID":480083,"DIS_CODE":0,"TOWNNAME":"永康區","LI":"復國里","LIN":"26鄰","STREET":"復華三街","SECT":" ","MAREA":" ","LANE":" ","ALLEY":" ","HOUSE_NO":"６２號十八樓之４","E_COORD97":172711.73999999999,"N_COORD97":2545562.9700000002,"ADDRESS":"復華三街６２號十八樓之４","OBJECTID":480058},"geometry":{"x":172711.74000000115,"y":2545562.9700000007}},{"attributes":{"ID":480084,"DIS_CODE":0,"TOWNNAME":"永康區","LI":"網寮里","LIN":"26鄰","STREET":"永興路","SECT":" ","MAREA":" ","LANE":" ","ALLEY":" ","HOUSE_NO":"９１號九樓之２","E_COORD97":173982.64000000001,"N_COORD97":2546562.8599999999,"ADDRESS":"永興路９１號九樓之２","OBJECTID":480059},"geometry":{"x":173982.6400000006,"y":2546562.8599999994}},{"attributes":{"ID":480085,"DIS_CODE":0,"TOWNNAME":"永康區","LI":"復國里","LIN":"26鄰","STREET":"復華三街","SECT":" ","MAREA":" ","LANE":" ","ALLEY":" ","HOUSE_NO":"６４號五樓之１","E_COORD97":172719.63,"N_COORD97":2545600.2999999998,"ADDRESS":"復華三街６４號五樓之１","OBJECTID":480060},"geometry":{"x":172719.62999999989,"y":2545600.3000000026}},{"attributes":{"ID":480086,"DIS_CODE":0,"TOWNNAME":"永康區","LI":"復國里","LIN":"26鄰","STREET":"復華三街","SECT":" ","MAREA":" ","LANE":" ","ALLEY":" ","HOUSE_NO":"６４號八樓之４","E_COORD97":172719.64999999999,"N_COORD97":2545600.2999999998,"ADDRESS":"復華三街６４號八樓之４","OBJECTID":480061},"geometry":{"x":172719.65000000037,"y":2545600.3000000026}},{"attributes":{"ID":480087,"DIS_CODE":0,"TOWNNAME":"永康區","LI":"復國里","LIN":"26鄰","STREET":"復華三街","SECT":" ","MAREA":" ","LANE":" ","ALLEY":" ","HOUSE_NO":"６２號十五樓之３","E_COORD97":172711.81,"N_COORD97":2545562.9700000002,"ADDRESS":"復華三街６２號十五樓之３","OBJECTID":480062},"geometry":{"x":172711.81000000052,"y":2545562.9700000007}},{"attributes":{"ID":480088,"DIS_CODE":0,"TOWNNAME":"永康區","LI":"復國里","LIN":"26鄰","STREET":"復華三街","SECT":" ","MAREA":" ","LANE":" ","ALLEY":" ","HOUSE_NO":"６２號六樓之５","E_COORD97":172710.62,"N_COORD97":2545562.9700000002,"ADDRESS":"復華三街６２號六樓之５","OBJECTID":480063},"geometry":{"x":172710.62000000104,"y":2545562.9700000007}},{"attributes":{"ID":480089,"DIS_CODE":0,"TOWNNAME":"永康區","LI":"復國里","LIN":"26鄰","STREET":"復華三街","SECT":" ","MAREA":" ","LANE":" ","ALLEY":" ","HOUSE_NO":"６４號十一樓之１","E_COORD97":172720.88,"N_COORD97":2545600.2999999998,"ADDRESS":"復華三街６４號十一樓之１","OBJECTID":480064},"geometry":{"x":172720.87999999989,"y":2545600.3000000026}},{"attributes":{"ID":480090,"DIS_CODE":0,"TOWNNAME":"永康區","LI":"網寮里","LIN":"26鄰","STREET":"永興路","SECT":" ","MAREA":" ","LANE":" ","ALLEY":" ","HOUSE_NO":"９１號七樓之４","E_COORD97":173982.54000000001,"N_COORD97":2546562.8599999999,"ADDRESS":"永興路９１號七樓之４","OBJECTID":480065},"geometry":{"x":173982.54000000097,"y":2546562.8599999994}},{"attributes":{"ID":480091,"DIS_CODE":0,"TOWNNAME":"永康區","LI":"復國里","LIN":"26鄰","STREET":"復華三街","SECT":" ","MAREA":" ","LANE":" ","ALLEY":" ","HOUSE_NO":"６４號十七樓之６","E_COORD97":172720.98000000001,"N_COORD97":2545600.2999999998,"ADDRESS":"復華三街６４號十七樓之６","OBJECTID":480066},"geometry":{"x":172720.98000000045,"y":2545600.3000000026}},{"attributes":{"ID":480092,"DIS_CODE":0,"TOWNNAME":"永康區","LI":"網寮里","LIN":"26鄰","STREET":"永興路","SECT":" ","MAREA":" ","LANE":" ","ALLEY":" ","HOUSE_NO":"６９號六樓之２","E_COORD97":174038.95000000001,"N_COORD97":2546534.2999999998,"ADDRESS":"永興路６９號六樓之２","OBJECTID":480067},"geometry":{"x":174038.95000000112,"y":2546534.3000000007}},{"attributes":{"ID":480093,"DIS_CODE":0,"TOWNNAME":"永康區","LI":"復國里","LIN":"26鄰","STREET":"復華三街","SECT":" ","MAREA":" ","LANE":" ","ALLEY":" ","HOUSE_NO":"６４號十九樓之４","E_COORD97":172720.89999999999,"N_COORD97":2545600.2999999998,"ADDRESS":"復華三街６４號十九樓之４","OBJECTID":480068},"geometry":{"x":172720.9000000013,"y":2545600.3000000026}},{"attributes":{"ID":480094,"DIS_CODE":0,"TOWNNAME":"永康區","LI":"網寮里","LIN":"26鄰","STREET":"永興路","SECT":" ","MAREA":" ","LANE":" ","ALLEY":" ","HOUSE_NO":"９１號八樓之２","E_COORD97":173982.64000000001,"N_COORD97":2546562.8599999999,"ADDRESS":"永興路９１號八樓之２","OBJECTID":480069},"geometry":{"x":173982.6400000006,"y":2546562.8599999994}},{"attributes":{"ID":480095,"DIS_CODE":0,"TOWNNAME":"永康區","LI":"復國里","LIN":"26鄰","STREET":"復華三街","SECT":" ","MAREA":" ","LANE":" ","ALLEY":" ","HOUSE_NO":"６２號十六樓之１","E_COORD97":172711.72,"N_COORD97":2545562.9700000002,"ADDRESS":"復華三街６２號十六樓之１","OBJECTID":480070},"geometry":{"x":172711.71999999974,"y":2545562.9700000007}},{"attributes":{"ID":480096,"DIS_CODE":0,"TOWNNAME":"永康區","LI":"網寮里","LIN":"26鄰","STREET":"永興路","SECT":" ","MAREA":" ","LANE":" ","ALLEY":" ","HOUSE_NO":"９１號十樓之１","E_COORD97":173982.51000000001,"N_COORD97":2546562.8599999999,"ADDRESS":"永興路９１號十樓之１","OBJECTID":480071},"geometry":{"x":173982.51000000071,"y":2546562.8599999994}},{"attributes":{"ID":480097,"DIS_CODE":0,"TOWNNAME":"永康區","LI":"網寮里","LIN":"26鄰","STREET":"永興路","SECT":" ","MAREA":" ","LANE":" ","ALLEY":" ","HOUSE_NO":"６９號七樓之１","E_COORD97":174038.82000000001,"N_COORD97":2546534.2999999998,"ADDRESS":"永興路６９號七樓之１","OBJECTID":480072},"geometry":{"x":174038.8200000003,"y":2546534.3000000007}},{"attributes":{"ID":480098,"DIS_CODE":0,"TOWNNAME":"永康區","LI":"網寮里","LIN":"26鄰","STREET":"永興路","SECT":" ","MAREA":" ","LANE":" ","ALLEY":" ","HOUSE_NO":"９１號六樓之３","E_COORD97":173982.60999999999,"N_COORD97":2546562.8599999999,"ADDRESS":"永興路９１號六樓之３","OBJECTID":480073},"geometry":{"x":173982.61000000034,"y":2546562.8599999994}},{"attributes":{"ID":480099,"DIS_CODE":0,"TOWNNAME":"永康區","LI":"復國里","LIN":"26鄰","STREET":"復華三街","SECT":" ","MAREA":" ","LANE":" ","ALLEY":" ","HOUSE_NO":"６２號九樓之４","E_COORD97":172710.48999999999,"N_COORD97":2545562.9700000002,"ADDRESS":"復華三街６２號九樓之４","OBJECTID":480074},"geometry":{"x":172710.49000000022,"y":2545562.9700000007}},{"attributes":{"ID":480100,"DIS_CODE":0,"TOWNNAME":"永康區","LI":"復國里","LIN":"26鄰","STREET":"復華三街","SECT":" ","MAREA":" ","LANE":" ","ALLEY":" ","HOUSE_NO":"６２號十七樓之６","E_COORD97":172711.73999999999,"N_COORD97":2545562.9700000002,"ADDRESS":"復華三街６２號十七樓之６","OBJECTID":480075},"geometry":{"x":172711.74000000115,"y":2545562.9700000007}},{"attributes":{"ID":480101,"DIS_CODE":0,"TOWNNAME":"永康區","LI":"復國里","LIN":"26鄰","STREET":"復華三街","SECT":" ","MAREA":" ","LANE":" ","ALLEY":" ","HOUSE_NO":"６４號十樓之２","E_COORD97":172719.76000000001,"N_COORD97":2545600.2999999998,"ADDRESS":"復華三街６４號十樓之２","OBJECTID":480076},"geometry":{"x":172719.75999999978,"y":2545600.3000000026}},{"attributes":{"ID":480102,"DIS_CODE":0,"TOWNNAME":"佳里區","LI":"建南里","LIN":"26鄰","STREET":"復興路","SECT":" ","MAREA":" ","LANE":" ","ALLEY":" ","HOUSE_NO":"１７號","E_COORD97":165488.32000000001,"N_COORD97":2561695.96,"ADDRESS":"復興路１７號","OBJECTID":480077},"geometry":{"x":165488.3200000003,"y":2561695.959999999}},{"attributes":{"ID":480103,"DIS_CODE":0,"TOWNNAME":"永康區","LI":"復國里","LIN":"26鄰","STREET":"復華三街","SECT":" ","MAREA":" ","LANE":" ","ALLEY":" ","HOUSE_NO":"６４號四樓之２","E_COORD97":172719.76000000001,"N_COORD97":2545600.2999999998,"ADDRESS":"復華三街６４號四樓之２","OBJECTID":480078},"geometry":{"x":172719.75999999978,"y":2545600.3000000026}},{"attributes":{"ID":480104,"DIS_CODE":0,"TOWNNAME":"永康區","LI":"復國里","LIN":"26鄰","STREET":"復華三街","SECT":" ","MAREA":" ","LANE":" ","ALLEY":" ","HOUSE_NO":"６４號十八樓之２","E_COORD97":172721.01000000001,"N_COORD97":2545600.2999999998,"ADDRESS":"復華三街６４號十八樓之２","OBJECTID":480079},"geometry":{"x":172721.01000000071,"y":2545600.3000000026}},{"attributes":{"ID":480105,"DIS_CODE":0,"TOWNNAME":"永康區","LI":"復國里","LIN":"26鄰","STREET":"復華三街","SECT":" ","MAREA":" ","LANE":" ","ALLEY":" ","HOUSE_NO":"６４號十三樓之３","E_COORD97":172720.97,"N_COORD97":2545600.2999999998,"ADDRESS":"復華三街６４號十三樓之３","OBJECTID":480080},"geometry":{"x":172720.97000000067,"y":2545600.3000000026}},{"attributes":{"ID":480106,"DIS_CODE":0,"TOWNNAME":"永康區","LI":"復國里","LIN":"26鄰","STREET":"復華三街","SECT":" ","MAREA":" ","LANE":" ","ALLEY":" ","HOUSE_NO":"６４號十四樓之６","E_COORD97":172720.98000000001,"N_COORD97":2545600.2999999998,"ADDRESS":"復華三街６４號十四樓之６","OBJECTID":480081},"geometry":{"x":172720.98000000045,"y":2545600.3000000026}},{"attributes":{"ID":480107,"DIS_CODE":0,"TOWNNAME":"永康區","LI":"復國里","LIN":"26鄰","STREET":"復華三街","SECT":" ","MAREA":" ","LANE":" ","ALLEY":" ","HOUSE_NO":"６２號十七樓之５","E_COORD97":172711.87,"N_COORD97":2545562.9700000002,"ADDRESS":"復華三街６２號十七樓之５","OBJECTID":480082},"geometry":{"x":172711.87000000104,"y":2545562.9700000007}},{"attributes":{"ID":480108,"DIS_CODE":0,"TOWNNAME":"永康區","LI":"復國里","LIN":"26鄰","STREET":"復華三街","SECT":" ","MAREA":" ","LANE":" ","ALLEY":" ","HOUSE_NO":"６４號十六樓之４","E_COORD97":172720.89999999999,"N_COORD97":2545600.2999999998,"ADDRESS":"復華三街６４號十六樓之４","OBJECTID":480083},"geometry":{"x":172720.9000000013,"y":2545600.3000000026}},{"attributes":{"ID":480109,"DIS_CODE":0,"TOWNNAME":"永康區","LI":"復國里","LIN":"26鄰","STREET":"復華三街","SECT":" ","MAREA":" ","LANE":" ","ALLEY":" ","HOUSE_NO":"６４號十四樓之２","E_COORD97":172721.01000000001,"N_COORD97":2545600.2999999998,"ADDRESS":"復華三街６４號十四樓之２","OBJECTID":480084},"geometry":{"x":172721.01000000071,"y":2545600.3000000026}},{"attributes":{"ID":480110,"DIS_CODE":0,"TOWNNAME":"永康區","LI":"復國里","LIN":"26鄰","STREET":"復華三街","SECT":" ","MAREA":" ","LANE":" ","ALLEY":" ","HOUSE_NO":"６２號十八樓之３","E_COORD97":172711.81,"N_COORD97":2545562.9700000002,"ADDRESS":"復華三街６２號十八樓之３","OBJECTID":480085},"geometry":{"x":172711.81000000052,"y":2545562.9700000007}},{"attributes":{"ID":480111,"DIS_CODE":0,"TOWNNAME":"永康區","LI":"復國里","LIN":"26鄰","STREET":"復華三街","SECT":" ","MAREA":" ","LANE":" ","ALLEY":" ","HOUSE_NO":"６４號十四樓之５","E_COORD97":172721.03,"N_COORD97":2545600.2999999998,"ADDRESS":"復華三街６４號十四樓之５","OBJECTID":480086},"geometry":{"x":172721.03000000119,"y":2545600.3000000026}},{"attributes":{"ID":480112,"DIS_CODE":0,"TOWNNAME":"永康區","LI":"復國里","LIN":"26鄰","STREET":"復華三街","SECT":" ","MAREA":" ","LANE":" ","ALLEY":" ","HOUSE_NO":"６２號十七樓之２","E_COORD97":172711.85000000001,"N_COORD97":2545562.9700000002,"ADDRESS":"復華三街６２號十七樓之２","OBJECTID":480087},"geometry":{"x":172711.85000000056,"y":2545562.9700000007}},{"attributes":{"ID":480113,"DIS_CODE":0,"TOWNNAME":"永康區","LI":"中興里","LIN":"26鄰","STREET":"中山東路","SECT":" ","MAREA":" ","LANE":" ","ALLEY":" ","HOUSE_NO":"３９０號","E_COORD97":171901.32000000001,"N_COORD97":2545237.3199999998,"ADDRESS":"中山東路３９０號","OBJECTID":480088},"geometry":{"x":171901.3200000003,"y":2545237.3200000022}},{"attributes":{"ID":480114,"DIS_CODE":0,"TOWNNAME":"仁德區","LI":"後壁里","LIN":"26鄰","STREET":"中正路","SECT":"二段","MAREA":" ","LANE":" ","ALLEY":" ","HOUSE_NO":"３３９號","E_COORD97":173251.39000000001,"N_COORD97":2539176.2799999998,"ADDRESS":"中正路二段３３９號","OBJECTID":480089},"geometry":{"x":173251.38999999966,"y":2539176.2799999993}},{"attributes":{"ID":480115,"DIS_CODE":0,"TOWNNAME":"東區","LI":"大智里","LIN":"26鄰","STREET":"德東街","SECT":" ","MAREA":" ","LANE":" ","ALLEY":" ","HOUSE_NO":"１９８號","E_COORD97":171337.78,"N_COORD97":2540247.1299999999,"ADDRESS":"德東街１９８號","OBJECTID":480090},"geometry":{"x":171337.78000000119,"y":2540247.129999999}},{"attributes":{"ID":480116,"DIS_CODE":0,"TOWNNAME":"東區","LI":"大智里","LIN":"26鄰","STREET":"德東街","SECT":" ","MAREA":" ","LANE":" ","ALLEY":" ","HOUSE_NO":"１９９號","E_COORD97":171315.26999999999,"N_COORD97":2540273.79,"ADDRESS":"德東街１９９號","OBJECTID":480091},"geometry":{"x":171315.27000000048,"y":2540273.7899999991}},{"attributes":{"ID":480117,"DIS_CODE":0,"TOWNNAME":"東區","LI":"大智里","LIN":"26鄰","STREET":"德東街","SECT":" ","MAREA":" ","LANE":" ","ALLEY":" ","HOUSE_NO":"２００號","E_COORD97":171343.09,"N_COORD97":2540248.0899999999,"ADDRESS":"德東街２００號","OBJECTID":480092},"geometry":{"x":171343.08999999985,"y":2540248.0900000017}},{"attributes":{"ID":480118,"DIS_CODE":0,"TOWNNAME":"東區","LI":"大智里","LIN":"26鄰","STREET":"德東街","SECT":" ","MAREA":" ","LANE":" ","ALLEY":" ","HOUSE_NO":"２０１號","E_COORD97":171319.78,"N_COORD97":2540270.7400000002,"ADDRESS":"德東街２０１號","OBJECTID":480093},"geometry":{"x":171319.78000000119,"y":2540270.7400000021}},{"attributes":{"ID":480119,"DIS_CODE":0,"TOWNNAME":"東區","LI":"大智里","LIN":"26鄰","STREET":"德東街","SECT":" ","MAREA":" ","LANE":" ","ALLEY":" ","HOUSE_NO":"２０２號","E_COORD97":171347.10999999999,"N_COORD97":2540246.6499999999,"ADDRESS":"德東街２０２號","OBJECTID":480094},"geometry":{"x":171347.11000000034,"y":2540246.6500000041}},{"attributes":{"ID":480120,"DIS_CODE":0,"TOWNNAME":"東區","LI":"大智里","LIN":"26鄰","STREET":"德東街","SECT":" ","MAREA":" ","LANE":" ","ALLEY":" ","HOUSE_NO":"２０３號","E_COORD97":171324.12,"N_COORD97":2540273.6299999999,"ADDRESS":"德東街２０３號","OBJECTID":480095},"geometry":{"x":171324.12000000104,"y":2540273.6300000008}},{"attributes":{"ID":480121,"DIS_CODE":0,"TOWNNAME":"東區","LI":"大智里","LIN":"26鄰","STREET":"德東街","SECT":" ","MAREA":" ","LANE":" ","ALLEY":" ","HOUSE_NO":"２０４號","E_COORD97":171351.29000000001,"N_COORD97":2540248.73,"ADDRESS":"德東街２０４號","OBJECTID":480096},"geometry":{"x":171351.29000000097,"y":2540248.7300000004}},{"attributes":{"ID":480122,"DIS_CODE":0,"TOWNNAME":"東區","LI":"大智里","LIN":"26鄰","STREET":"德東街","SECT":" ","MAREA":" ","LANE":" ","ALLEY":" ","HOUSE_NO":"２０５號","E_COORD97":171327.48999999999,"N_COORD97":2540270.8999999999,"ADDRESS":"德東街２０５號","OBJECTID":480097},"geometry":{"x":171327.49000000022,"y":2540270.9000000004}},{"attributes":{"ID":480123,"DIS_CODE":0,"TOWNNAME":"東區","LI":"大智里","LIN":"26鄰","STREET":"德東街","SECT":" ","MAREA":" ","LANE":" ","ALLEY":" ","HOUSE_NO":"２０６號","E_COORD97":171355.47,"N_COORD97":2540246.48,"ADDRESS":"德東街２０６號","OBJECTID":480098},"geometry":{"x":171355.46999999974,"y":2540246.4800000004}},{"attributes":{"ID":480124,"DIS_CODE":0,"TOWNNAME":"東區","LI":"大智里","LIN":"26鄰","STREET":"德東街","SECT":" ","MAREA":" ","LANE":" ","ALLEY":" ","HOUSE_NO":"２０８號","E_COORD97":171359.64999999999,"N_COORD97":2540248.0899999999,"ADDRESS":"德東街２０８號","OBJECTID":480099},"geometry":{"x":171359.6500000013,"y":2540248.0900000017}},{"attributes":{"ID":480125,"DIS_CODE":0,"TOWNNAME":"東區","LI":"大智里","LIN":"26鄰","STREET":"德東街","SECT":" ","MAREA":" ","LANE":" ","ALLEY":" ","HOUSE_NO":"２２７號","E_COORD97":171373.47,"N_COORD97":2540266.0800000001,"ADDRESS":"德東街２２７號","OBJECTID":480100},"geometry":{"x":171373.47000000067,"y":2540266.0800000001}},{"attributes":{"ID":480126,"DIS_CODE":0,"TOWNNAME":"東區","LI":"大智里","LIN":"26鄰","STREET":"德東街","SECT":" ","MAREA":" ","LANE":" ","ALLEY":" ","HOUSE_NO":"２３１號","E_COORD97":171381.51000000001,"N_COORD97":2540265.9199999999,"ADDRESS":"德東街２３１號","OBJECTID":480101},"geometry":{"x":171381.51000000071,"y":2540265.9200000018}},{"attributes":{"ID":480127,"DIS_CODE":0,"TOWNNAME":"東區","LI":"崇善里","LIN":"26鄰","STREET":"崇善十三街","SECT":" ","MAREA":" ","LANE":" ","ALLEY":" ","HOUSE_NO":"２７號","E_COORD97":171280.32999999999,"N_COORD97":2541028.3199999998,"ADDRESS":"崇善十三街２７號","OBJECTID":480102},"geometry":{"x":171280.33000000007,"y":2541028.3200000003}},{"attributes":{"ID":480128,"DIS_CODE":0,"TOWNNAME":"東區","LI":"崇善里","LIN":"26鄰","STREET":"崇善十三街","SECT":" ","MAREA":" ","LANE":" ","ALLEY":" ","HOUSE_NO":"３１號","E_COORD97":171289.70999999999,"N_COORD97":2541032.2400000002,"ADDRESS":"崇善十三街３１號","OBJECTID":480103},"geometry":{"x":171289.70999999996,"y":2541032.2400000002}},{"attributes":{"ID":480129,"DIS_CODE":0,"TOWNNAME":"東區","LI":"崇善里","LIN":"26鄰","STREET":"崇善十三街","SECT":" ","MAREA":" ","LANE":" ","ALLEY":" ","HOUSE_NO":"５１號","E_COORD97":171331.35000000001,"N_COORD97":2541051.5899999999,"ADDRESS":"崇善十三街５１號","OBJECTID":480104},"geometry":{"x":171331.35000000149,"y":2541051.5900000017}},{"attributes":{"ID":480130,"DIS_CODE":0,"TOWNNAME":"東區","LI":"崇善里","LIN":"26鄰","STREET":"崇善十三街","SECT":" ","MAREA":" ","LANE":" ","ALLEY":" ","HOUSE_NO":"５２號","E_COORD97":171348.67000000001,"N_COORD97":2541034.2000000002,"ADDRESS":"崇善十三街５２號","OBJECTID":480105},"geometry":{"x":171348.67000000086,"y":2541034.1999999993}},{"attributes":{"ID":480131,"DIS_CODE":0,"TOWNNAME":"東區","LI":"崇善里","LIN":"26鄰","STREET":"崇善十三街","SECT":" ","MAREA":" ","LANE":" ","ALLEY":" ","HOUSE_NO":"５３號","E_COORD97":171336.29999999999,"N_COORD97":2541051.9300000002,"ADDRESS":"崇善十三街５３號","OBJECTID":480106},"geometry":{"x":171336.29999999981,"y":2541051.9300000016}},{"attributes":{"ID":480132,"DIS_CODE":0,"TOWNNAME":"東區","LI":"崇善里","LIN":"26鄰","STREET":"崇善十三街","SECT":" ","MAREA":" ","LANE":" ","ALLEY":" ","HOUSE_NO":"５４號","E_COORD97":171351.35000000001,"N_COORD97":2541037.29,"ADDRESS":"崇善十三街５４號","OBJECTID":480107},"geometry":{"x":171351.34999999963,"y":2541037.2899999991}},{"attributes":{"ID":480133,"DIS_CODE":0,"TOWNNAME":"東區","LI":"崇善里","LIN":"26鄰","STREET":"崇善十三街","SECT":" ","MAREA":" ","LANE":" ","ALLEY":" ","HOUSE_NO":"５６號","E_COORD97":171355.48000000001,"N_COORD97":2541037.71,"ADDRESS":"崇善十三街５６號","OBJECTID":480108},"geometry":{"x":171355.48000000138,"y":2541037.7100000028}},{"attributes":{"ID":480134,"DIS_CODE":0,"TOWNNAME":"東區","LI":"崇善里","LIN":"26鄰","STREET":"崇善十三街","SECT":" ","MAREA":" ","LANE":" ","ALLEY":" ","HOUSE_NO":"５８號","E_COORD97":171359.39999999999,"N_COORD97":2541038.9399999999,"ADDRESS":"崇善十三街５８號","OBJECTID":480109},"geometry":{"x":171359.4000000013,"y":2541038.9399999995}},{"attributes":{"ID":480135,"DIS_CODE":0,"TOWNNAME":"東區","LI":"崇善里","LIN":"26鄰","STREET":"崇善十三街","SECT":" ","MAREA":" ","LANE":" ","ALLEY":" ","HOUSE_NO":"６０號","E_COORD97":171364.97,"N_COORD97":2541041.21,"ADDRESS":"崇善十三街６０號","OBJECTID":480110},"geometry":{"x":171364.97000000067,"y":2541041.2100000028}},{"attributes":{"ID":480136,"DIS_CODE":0,"TOWNNAME":"東區","LI":"崇善里","LIN":"26鄰","STREET":"崇善十三街","SECT":" ","MAREA":" ","LANE":" ","ALLEY":" ","HOUSE_NO":"６２號","E_COORD97":171367.64999999999,"N_COORD97":2541044.5099999998,"ADDRESS":"崇善十三街６２號","OBJECTID":480111},"geometry":{"x":171367.6500000013,"y":2541044.5100000016}},{"attributes":{"ID":480137,"DIS_CODE":0,"TOWNNAME":"南區","LI":"新興里","LIN":"18鄰","STREET":"仁慈街","SECT":" ","MAREA":" ","LANE":" ","ALLEY":" ","HOUSE_NO":"２４號","E_COORD97":167388.75,"N_COORD97":2542112.1899999999,"ADDRESS":"仁慈街２４號","OBJECTID":480112},"geometry":{"x":167388.75,"y":2542112.1899999995}},{"attributes":{"ID":480138,"DIS_CODE":0,"TOWNNAME":"官田區","LI":"隆本里","LIN":"26鄰","STREET":"信義街","SECT":"二段","MAREA":" ","LANE":" ","ALLEY":" ","HOUSE_NO":"４３號","E_COORD97":179742.95999999999,"N_COORD97":2565973.1299999999,"ADDRESS":"信義街二段４３號","OBJECTID":480113},"geometry":{"x":179742.96000000089,"y":2565973.1300000008}},{"attributes":{"ID":480139,"DIS_CODE":0,"TOWNNAME":"官田區","LI":"隆本里","LIN":"26鄰","STREET":"信義街","SECT":"二段","MAREA":" ","LANE":" ","ALLEY":" ","HOUSE_NO":"６３號","E_COORD97":179750.76999999999,"N_COORD97":2566036.71,"ADDRESS":"信義街二段６３號","OBJECTID":480114},"geometry":{"x":179750.77000000048,"y":2566036.7100000009}},{"attributes":{"ID":480140,"DIS_CODE":0,"TOWNNAME":"南區","LI":"新興里","LIN":"18鄰","STREET":"仁慈街","SECT":" ","MAREA":" ","LANE":" ","ALLEY":" ","HOUSE_NO":"２６號","E_COORD97":167391.35000000001,"N_COORD97":2542115.79,"ADDRESS":"仁慈街２６號","OBJECTID":480115},"geometry":{"x":167391.34999999963,"y":2542115.7899999972}},{"attributes":{"ID":480141,"DIS_CODE":0,"TOWNNAME":"官田區","LI":"隆本里","LIN":"26鄰","STREET":"信義街","SECT":"二段","MAREA":" ","LANE":" ","ALLEY":" ","HOUSE_NO":"９５號","E_COORD97":179729.82999999999,"N_COORD97":2566164.7799999998,"ADDRESS":"信義街二段９５號","OBJECTID":480116},"geometry":{"x":179729.82999999914,"y":2566164.7800000012}},{"attributes":{"ID":480142,"DIS_CODE":0,"TOWNNAME":"永康區","LI":"大橋里","LIN":"26鄰","STREET":"大橋二街","SECT":" ","MAREA":" ","LANE":" ","ALLEY":" ","HOUSE_NO":"２３８號","E_COORD97":171214.48000000001,"N_COORD97":2546852.77,"ADDRESS":"大橋二街２３８號","OBJECTID":480117},"geometry":{"x":171214.48000000231,"y":2546852.7699999977}},{"attributes":{"ID":480143,"DIS_CODE":0,"TOWNNAME":"永康區","LI":"大橋里","LIN":"26鄰","STREET":"大橋二街","SECT":" ","MAREA":" ","LANE":" ","ALLEY":" ","HOUSE_NO":"２３０號","E_COORD97":171200.42999999999,"N_COORD97":2546840.02,"ADDRESS":"大橋二街２３０號","OBJECTID":480118},"geometry":{"x":171200.43000000156,"y":2546840.0199999996}},{"attributes":{"ID":480144,"DIS_CODE":0,"TOWNNAME":"仁德區","LI":"成功里","LIN":"26鄰","STREET":"保華路","SECT":" ","MAREA":" ","LANE":" ","ALLEY":" ","HOUSE_NO":"８８號","E_COORD97":170514.72,"N_COORD97":2539988.5,"ADDRESS":"保華路８８號","OBJECTID":480119},"geometry":{"x":170514.71999999974,"y":2539988.5}},{"attributes":{"ID":480145,"DIS_CODE":0,"TOWNNAME":"仁德區","LI":"仁義里","LIN":"26鄰","STREET":"中山路","SECT":" ","MAREA":" ","LANE":" ","ALLEY":" ","HOUSE_NO":"５７０號","E_COORD97":173330.73999999999,"N_COORD97":2541343.5,"ADDRESS":"中山路５７０號","OBJECTID":480120},"geometry":{"x":173330.74000000022,"y":2541343.5000000019}},{"attributes":{"ID":480146,"DIS_CODE":0,"TOWNNAME":"東區","LI":"大智里","LIN":"26鄰","STREET":"德東街","SECT":" ","MAREA":" ","LANE":" ","ALLEY":" ","HOUSE_NO":"２２９號","E_COORD97":171377.64999999999,"N_COORD97":2540268.1699999999,"ADDRESS":"德東街２２９號","OBJECTID":480121},"geometry":{"x":171377.65000000224,"y":2540268.1700000018}},{"attributes":{"ID":480147,"DIS_CODE":0,"TOWNNAME":"東區","LI":"大智里","LIN":"26鄰","STREET":"德東街","SECT":" ","MAREA":" ","LANE":" ","ALLEY":" ","HOUSE_NO":"１８５號","E_COORD97":171284.91,"N_COORD97":2540275.6800000002,"ADDRESS":"德東街１８５號","OBJECTID":480122},"geometry":{"x":171284.91000000015,"y":2540275.6799999997}},{"attributes":{"ID":480148,"DIS_CODE":0,"TOWNNAME":"仁德區","LI":"成功里","LIN":"26鄰","STREET":"成功一街","SECT":" ","MAREA":" ","LANE":" ","ALLEY":" ","HOUSE_NO":"４２號","E_COORD97":170524.48999999999,"N_COORD97":2540039.2599999998,"ADDRESS":"成功一街４２號","OBJECTID":480123},"geometry":{"x":170524.49000000115,"y":2540039.2600000016}},{"attributes":{"ID":480149,"DIS_CODE":0,"TOWNNAME":"安南區","LI":"安富里","LIN":"26鄰","STREET":"郡安路","SECT":"五段","MAREA":" ","LANE":" ","ALLEY":" ","HOUSE_NO":"１６０號","E_COORD97":167676.35000000001,"N_COORD97":2547715.9399999999,"ADDRESS":"郡安路五段１６０號","OBJECTID":480124},"geometry":{"x":167676.34999999963,"y":2547715.9399999995}},{"attributes":{"ID":480150,"DIS_CODE":0,"TOWNNAME":"安南區","LI":"安富里","LIN":"26鄰","STREET":"郡安路","SECT":"五段","MAREA":" ","LANE":" ","ALLEY":" ","HOUSE_NO":"１６１號","E_COORD97":167666.95000000001,"N_COORD97":2547715.71,"ADDRESS":"郡安路五段１６１號","OBJECTID":480125},"geometry":{"x":167666.95000000112,"y":2547715.709999999}},{"attributes":{"ID":480151,"DIS_CODE":0,"TOWNNAME":"安南區","LI":"安富里","LIN":"26鄰","STREET":"郡安路","SECT":"五段","MAREA":" ","LANE":" ","ALLEY":" ","HOUSE_NO":"１７５號","E_COORD97":167549.79000000001,"N_COORD97":2547727.6499999999,"ADDRESS":"郡安路五段１７５號","OBJECTID":480126},"geometry":{"x":167549.79000000004,"y":2547727.6500000004}},{"attributes":{"ID":480152,"DIS_CODE":0,"TOWNNAME":"永康區","LI":"東灣里","LIN":"26鄰","STREET":"大灣東路","SECT":" ","MAREA":" ","LANE":" ","ALLEY":" ","HOUSE_NO":"３３２號","E_COORD97":175034.62,"N_COORD97":2544562.8799999999,"ADDRESS":"大灣東路３３２號","OBJECTID":480127},"geometry":{"x":175034.62000000104,"y":2544562.8799999971}},{"attributes":{"ID":480153,"DIS_CODE":0,"TOWNNAME":"永康區","LI":"埔園里","LIN":"26鄰","STREET":"中山路","SECT":" ","MAREA":" ","LANE":" ","ALLEY":" ","HOUSE_NO":"２９０號","E_COORD97":173704.45999999999,"N_COORD97":2548089.2200000002,"ADDRESS":"中山路２９０號","OBJECTID":480128},"geometry":{"x":173704.46000000089,"y":2548089.2200000025}},{"attributes":{"ID":480154,"DIS_CODE":0,"TOWNNAME":"永康區","LI":"網寮里","LIN":"26鄰","STREET":"永吉路","SECT":" ","MAREA":" ","LANE":" ","ALLEY":" ","HOUSE_NO":"１３１號","E_COORD97":173951.64999999999,"N_COORD97":2546524.48,"ADDRESS":"永吉路１３１號","OBJECTID":480129},"geometry":{"x":173951.6500000013,"y":2546524.4800000023}},{"attributes":{"ID":480155,"DIS_CODE":0,"TOWNNAME":"永康區","LI":"復國里","LIN":"26鄰","STREET":"復華三街","SECT":" ","MAREA":" ","LANE":" ","ALLEY":" ","HOUSE_NO":"７９號","E_COORD97":172710.95000000001,"N_COORD97":2545539.46,"ADDRESS":"復華三街７９號","OBJECTID":480130},"geometry":{"x":172710.95000000019,"y":2545539.4600000009}},{"attributes":{"ID":480156,"DIS_CODE":0,"TOWNNAME":"永康區","LI":"復國里","LIN":"26鄰","STREET":"復華三街","SECT":" ","MAREA":" ","LANE":" ","ALLEY":" ","HOUSE_NO":"８１號","E_COORD97":172703.98000000001,"N_COORD97":2545539.8199999998,"ADDRESS":"復華三街８１號","OBJECTID":480131},"geometry":{"x":172703.98000000045,"y":2545539.8200000003}},{"attributes":{"ID":480157,"DIS_CODE":0,"TOWNNAME":"佳里區","LI":"建南里","LIN":"26鄰","STREET":"復興路","SECT":" ","MAREA":" ","LANE":" ","ALLEY":" ","HOUSE_NO":"１１號","E_COORD97":165500.41,"N_COORD97":2561696.77,"ADDRESS":"復興路１１號","OBJECTID":480132},"geometry":{"x":165500.41000000108,"y":2561696.7700000014}},{"attributes":{"ID":480158,"DIS_CODE":0,"TOWNNAME":"佳里區","LI":"建南里","LIN":"26鄰","STREET":"復興路","SECT":" ","MAREA":" ","LANE":" ","ALLEY":" ","HOUSE_NO":"１２號","E_COORD97":165496.85999999999,"N_COORD97":2561720.8100000001,"ADDRESS":"復興路１２號","OBJECTID":480133},"geometry":{"x":165496.86000000034,"y":2561720.8100000024}},{"attributes":{"ID":480159,"DIS_CODE":0,"TOWNNAME":"佳里區","LI":"建南里","LIN":"26鄰","STREET":"復興路","SECT":" ","MAREA":" ","LANE":" ","ALLEY":" ","HOUSE_NO":"１３號","E_COORD97":165496.35999999999,"N_COORD97":2561696.5099999998,"ADDRESS":"復興路１３號","OBJECTID":480134},"geometry":{"x":165496.36000000127,"y":2561696.5099999998}},{"attributes":{"ID":480160,"DIS_CODE":0,"TOWNNAME":"佳里區","LI":"建南里","LIN":"26鄰","STREET":"復興路","SECT":" ","MAREA":" ","LANE":" ","ALLEY":" ","HOUSE_NO":"１４號","E_COORD97":165489.88,"N_COORD97":2561720.4100000001,"ADDRESS":"復興路１４號","OBJECTID":480135},"geometry":{"x":165489.88000000175,"y":2561720.410000002}},{"attributes":{"ID":480161,"DIS_CODE":0,"TOWNNAME":"佳里區","LI":"建南里","LIN":"26鄰","STREET":"復興路","SECT":" ","MAREA":" ","LANE":" ","ALLEY":" ","HOUSE_NO":"１５號","E_COORD97":165492.32999999999,"N_COORD97":2561696.2200000002,"ADDRESS":"復興路１５號","OBJECTID":480136},"geometry":{"x":165492.33000000101,"y":2561696.2200000007}},{"attributes":{"ID":480162,"DIS_CODE":0,"TOWNNAME":"佳里區","LI":"建南里","LIN":"26鄰","STREET":"復興路","SECT":" ","MAREA":" ","LANE":" ","ALLEY":" ","HOUSE_NO":"１６號","E_COORD97":165486.04000000001,"N_COORD97":2561719.9100000001,"ADDRESS":"復興路１６號","OBJECTID":480137},"geometry":{"x":165486.04000000097,"y":2561719.910000002}},{"attributes":{"ID":480163,"DIS_CODE":0,"TOWNNAME":"佳里區","LI":"建南里","LIN":"26鄰","STREET":"復興路","SECT":" ","MAREA":" ","LANE":" ","ALLEY":" ","HOUSE_NO":"２０號","E_COORD97":165477.5,"N_COORD97":2561719.0699999998,"ADDRESS":"復興路２０號","OBJECTID":480138},"geometry":{"x":165477.50000000093,"y":2561719.0700000022}},{"attributes":{"ID":480164,"DIS_CODE":0,"TOWNNAME":"佳里區","LI":"建南里","LIN":"26鄰","STREET":"復興路","SECT":" ","MAREA":" ","LANE":" ","ALLEY":" ","HOUSE_NO":"２１號","E_COORD97":165478.17000000001,"N_COORD97":2561694.8500000001,"ADDRESS":"復興路２１號","OBJECTID":480139},"geometry":{"x":165478.17000000086,"y":2561694.8499999996}},{"attributes":{"ID":480165,"DIS_CODE":0,"TOWNNAME":"佳里區","LI":"建南里","LIN":"26鄰","STREET":"復興路","SECT":" ","MAREA":" ","LANE":" ","ALLEY":" ","HOUSE_NO":"２２號","E_COORD97":165472.31,"N_COORD97":2561718.9700000002,"ADDRESS":"復興路２２號","OBJECTID":480140},"geometry":{"x":165472.30999999959,"y":2561718.9700000007}},{"attributes":{"ID":480166,"DIS_CODE":0,"TOWNNAME":"佳里區","LI":"建南里","LIN":"26鄰","STREET":"復興路","SECT":" ","MAREA":" ","LANE":" ","ALLEY":" ","HOUSE_NO":"２３號","E_COORD97":165473.39000000001,"N_COORD97":2561694.1099999999,"ADDRESS":"復興路２３號","OBJECTID":480141},"geometry":{"x":165473.3900000006,"y":2561694.1100000013}},{"attributes":{"ID":480167,"DIS_CODE":0,"TOWNNAME":"佳里區","LI":"建南里","LIN":"26鄰","STREET":"復興路","SECT":" ","MAREA":" ","LANE":" ","ALLEY":" ","HOUSE_NO":"２５號","E_COORD97":165468.26999999999,"N_COORD97":2561694.0499999998,"ADDRESS":"復興路２５號","OBJECTID":480142},"geometry":{"x":165468.27000000142,"y":2561694.0500000007}},{"attributes":{"ID":480168,"DIS_CODE":0,"TOWNNAME":"佳里區","LI":"建南里","LIN":"26鄰","STREET":"復興路","SECT":" ","MAREA":" ","LANE":" ","ALLEY":" ","HOUSE_NO":"２６號","E_COORD97":165455.64000000001,"N_COORD97":2561714.52,"ADDRESS":"復興路２６號","OBJECTID":480143},"geometry":{"x":165455.64000000153,"y":2561714.5200000033}},{"attributes":{"ID":480169,"DIS_CODE":0,"TOWNNAME":"佳里區","LI":"建南里","LIN":"26鄰","STREET":"復興路","SECT":" ","MAREA":" ","LANE":" ","ALLEY":" ","HOUSE_NO":"２７號","E_COORD97":165463.75,"N_COORD97":2561693.5699999998,"ADDRESS":"復興路２７號","OBJECTID":480144},"geometry":{"x":165463.75000000186,"y":2561693.5700000003}},{"attributes":{"ID":480170,"DIS_CODE":0,"TOWNNAME":"佳里區","LI":"建南里","LIN":"26鄰","STREET":"復興路","SECT":" ","MAREA":" ","LANE":" ","ALLEY":" ","HOUSE_NO":"２８號","E_COORD97":165450.29000000001,"N_COORD97":2561713.5899999999,"ADDRESS":"復興路２８號","OBJECTID":480145},"geometry":{"x":165450.29000000097,"y":2561713.5899999999}},{"attributes":{"ID":480171,"DIS_CODE":0,"TOWNNAME":"佳里區","LI":"建南里","LIN":"26鄰","STREET":"復興路","SECT":" ","MAREA":" ","LANE":" ","ALLEY":" ","HOUSE_NO":"２９號","E_COORD97":165459.17000000001,"N_COORD97":2561693.1299999999,"ADDRESS":"復興路２９號","OBJECTID":480146},"geometry":{"x":165459.17000000179,"y":2561693.1300000027}},{"attributes":{"ID":480172,"DIS_CODE":0,"TOWNNAME":"佳里區","LI":"建南里","LIN":"26鄰","STREET":"復興路","SECT":" ","MAREA":" ","LANE":" ","ALLEY":" ","HOUSE_NO":"３０號","E_COORD97":165446.10000000001,"N_COORD97":2561713.1000000001,"ADDRESS":"復興路３０號","OBJECTID":480147},"geometry":{"x":165446.10000000056,"y":2561713.0999999996}},{"attributes":{"ID":480173,"DIS_CODE":0,"TOWNNAME":"佳里區","LI":"建南里","LIN":"26鄰","STREET":"復興路","SECT":" ","MAREA":" ","LANE":" ","ALLEY":" ","HOUSE_NO":"３１號","E_COORD97":165455.10000000001,"N_COORD97":2561692.6899999999,"ADDRESS":"復興路３１號","OBJECTID":480148},"geometry":{"x":165455.09999999963,"y":2561692.6899999995}},{"attributes":{"ID":480174,"DIS_CODE":0,"TOWNNAME":"佳里區","LI":"建南里","LIN":"26鄰","STREET":"復興路","SECT":" ","MAREA":" ","LANE":" ","ALLEY":" ","HOUSE_NO":"３２號","E_COORD97":165442.09,"N_COORD97":2561713.1699999999,"ADDRESS":"復興路３２號","OBJECTID":480149},"geometry":{"x":165442.08999999985,"y":2561713.1699999999}},{"attributes":{"ID":480175,"DIS_CODE":0,"TOWNNAME":"佳里區","LI":"建南里","LIN":"26鄰","STREET":"復興路","SECT":" ","MAREA":" ","LANE":" ","ALLEY":" ","HOUSE_NO":"３３號","E_COORD97":165450.31,"N_COORD97":2561691.9700000002,"ADDRESS":"復興路３３號","OBJECTID":480150},"geometry":{"x":165450.30999999959,"y":2561691.9700000007}},{"attributes":{"ID":480176,"DIS_CODE":0,"TOWNNAME":"佳里區","LI":"建南里","LIN":"26鄰","STREET":"復興路","SECT":" ","MAREA":" ","LANE":" ","ALLEY":" ","HOUSE_NO":"３４號","E_COORD97":165437.89000000001,"N_COORD97":2561712.5499999998,"ADDRESS":"復興路３４號","OBJECTID":480151},"geometry":{"x":165437.88999999966,"y":2561712.5500000045}},{"attributes":{"ID":480177,"DIS_CODE":0,"TOWNNAME":"佳里區","LI":"建南里","LIN":"26鄰","STREET":"復興路","SECT":" ","MAREA":" ","LANE":" ","ALLEY":" ","HOUSE_NO":"３５號","E_COORD97":165445.67999999999,"N_COORD97":2561691.5499999998,"ADDRESS":"復興路３５號","OBJECTID":480152},"geometry":{"x":165445.68000000063,"y":2561691.5500000007}},{"attributes":{"ID":480178,"DIS_CODE":0,"TOWNNAME":"佳里區","LI":"建南里","LIN":"26鄰","STREET":"復興路","SECT":" ","MAREA":" ","LANE":" ","ALLEY":" ","HOUSE_NO":"３６號","E_COORD97":165433.91,"N_COORD97":2561712.04,"ADDRESS":"復興路３６號","OBJECTID":480153},"geometry":{"x":165433.91000000201,"y":2561712.040000001}},{"attributes":{"ID":480179,"DIS_CODE":0,"TOWNNAME":"佳里區","LI":"建南里","LIN":"26鄰","STREET":"復興路","SECT":" ","MAREA":" ","LANE":" ","ALLEY":" ","HOUSE_NO":"３７號","E_COORD97":165440.67000000001,"N_COORD97":2561690.8599999999,"ADDRESS":"復興路３７號","OBJECTID":480154},"geometry":{"x":165440.67000000086,"y":2561690.8599999994}},{"attributes":{"ID":480180,"DIS_CODE":0,"TOWNNAME":"佳里區","LI":"建南里","LIN":"26鄰","STREET":"復興路","SECT":" ","MAREA":" ","LANE":" ","ALLEY":" ","HOUSE_NO":"３８號","E_COORD97":165429.62,"N_COORD97":2561711.8300000001,"ADDRESS":"復興路３８號","OBJECTID":480155},"geometry":{"x":165429.62000000104,"y":2561711.8300000001}},{"attributes":{"ID":480181,"DIS_CODE":0,"TOWNNAME":"佳里區","LI":"建南里","LIN":"26鄰","STREET":"復興路","SECT":" ","MAREA":" ","LANE":" ","ALLEY":" ","HOUSE_NO":"３９號","E_COORD97":165435.64000000001,"N_COORD97":2561690.4900000002,"ADDRESS":"復興路３９號","OBJECTID":480156},"geometry":{"x":165435.6400000006,"y":2561690.4900000002}},{"attributes":{"ID":480182,"DIS_CODE":0,"TOWNNAME":"佳里區","LI":"建南里","LIN":"26鄰","STREET":"復興路","SECT":" ","MAREA":" ","LANE":" ","ALLEY":" ","HOUSE_NO":"４０號","E_COORD97":165425.59,"N_COORD97":2561711.4100000001,"ADDRESS":"復興路４０號","OBJECTID":480157},"geometry":{"x":165425.59000000171,"y":2561711.4100000001}},{"attributes":{"ID":480183,"DIS_CODE":0,"TOWNNAME":"佳里區","LI":"建南里","LIN":"26鄰","STREET":"復興路","SECT":" ","MAREA":" ","LANE":" ","ALLEY":" ","HOUSE_NO":"４１號","E_COORD97":165429.26000000001,"N_COORD97":2561689.8999999999,"ADDRESS":"復興路４１號","OBJECTID":480158},"geometry":{"x":165429.25999999978,"y":2561689.9000000022}},{"attributes":{"ID":480184,"DIS_CODE":0,"TOWNNAME":"佳里區","LI":"建南里","LIN":"26鄰","STREET":"復興路","SECT":" ","MAREA":" ","LANE":" ","ALLEY":" ","HOUSE_NO":"４２號","E_COORD97":165421.85999999999,"N_COORD97":2561710.9500000002,"ADDRESS":"復興路４２號","OBJECTID":480159},"geometry":{"x":165421.86000000034,"y":2561710.9499999993}},{"attributes":{"ID":480185,"DIS_CODE":0,"TOWNNAME":"佳里區","LI":"建南里","LIN":"26鄰","STREET":"復興路","SECT":" ","MAREA":" ","LANE":" ","ALLEY":" ","HOUSE_NO":"４６號","E_COORD97":165417.31,"N_COORD97":2561710.3700000001,"ADDRESS":"復興路４６號","OBJECTID":480160},"geometry":{"x":165417.31000000052,"y":2561710.3700000048}},{"attributes":{"ID":480186,"DIS_CODE":0,"TOWNNAME":"佳里區","LI":"建南里","LIN":"26鄰","STREET":"復興路","SECT":" ","MAREA":" ","LANE":" ","ALLEY":" ","HOUSE_NO":"４９號","E_COORD97":165408.29000000001,"N_COORD97":2561686.9399999999,"ADDRESS":"復興路４９號","OBJECTID":480161},"geometry":{"x":165408.29000000097,"y":2561686.9399999995}},{"attributes":{"ID":480187,"DIS_CODE":0,"TOWNNAME":"佳里區","LI":"建南里","LIN":"26鄰","STREET":"復興路","SECT":" ","MAREA":" ","LANE":" ","ALLEY":" ","HOUSE_NO":"５０號","E_COORD97":165407.98000000001,"N_COORD97":2561709.1200000001,"ADDRESS":"復興路５０號","OBJECTID":480162},"geometry":{"x":165407.98000000045,"y":2561709.1200000029}},{"attributes":{"ID":480188,"DIS_CODE":0,"TOWNNAME":"佳里區","LI":"建南里","LIN":"26鄰","STREET":"復興路","SECT":" ","MAREA":" ","LANE":" ","ALLEY":" ","HOUSE_NO":"５１號","E_COORD97":165403.82000000001,"N_COORD97":2561686.6899999999,"ADDRESS":"復興路５１號","OBJECTID":480163},"geometry":{"x":165403.8200000003,"y":2561686.6900000013}},{"attributes":{"ID":480189,"DIS_CODE":0,"TOWNNAME":"佳里區","LI":"建南里","LIN":"26鄰","STREET":"復興路","SECT":" ","MAREA":" ","LANE":" ","ALLEY":" ","HOUSE_NO":"５２號","E_COORD97":165403.56,"N_COORD97":2561708.7200000002,"ADDRESS":"復興路５２號","OBJECTID":480164},"geometry":{"x":165403.56000000145,"y":2561708.7200000025}},{"attributes":{"ID":480190,"DIS_CODE":0,"TOWNNAME":"佳里區","LI":"建南里","LIN":"26鄰","STREET":"復興路","SECT":" ","MAREA":" ","LANE":" ","ALLEY":" ","HOUSE_NO":"５３號","E_COORD97":165399.14000000001,"N_COORD97":2561686.2000000002,"ADDRESS":"復興路５３號","OBJECTID":480165},"geometry":{"x":165399.13999999966,"y":2561686.200000003}},{"attributes":{"ID":480191,"DIS_CODE":0,"TOWNNAME":"佳里區","LI":"建南里","LIN":"26鄰","STREET":"復興路","SECT":" ","MAREA":" ","LANE":" ","ALLEY":" ","HOUSE_NO":"５４號","E_COORD97":165399.42999999999,"N_COORD97":2561708.3100000001,"ADDRESS":"復興路５４號","OBJECTID":480166},"geometry":{"x":165399.43000000156,"y":2561708.3100000024}},{"attributes":{"ID":480192,"DIS_CODE":0,"TOWNNAME":"佳里區","LI":"建南里","LIN":"26鄰","STREET":"復興路","SECT":" ","MAREA":" ","LANE":" ","ALLEY":" ","HOUSE_NO":"５５號","E_COORD97":165394.17999999999,"N_COORD97":2561685.8999999999,"ADDRESS":"復興路５５號","OBJECTID":480167},"geometry":{"x":165394.1799999997,"y":2561685.9000000041}},{"attributes":{"ID":480193,"DIS_CODE":0,"TOWNNAME":"佳里區","LI":"建南里","LIN":"26鄰","STREET":"復興路","SECT":" ","MAREA":" ","LANE":" ","ALLEY":" ","HOUSE_NO":"５６號","E_COORD97":165395.20999999999,"N_COORD97":2561707.96,"ADDRESS":"復興路５６號","OBJECTID":480168},"geometry":{"x":165395.21000000089,"y":2561707.9600000028}},{"attributes":{"ID":480194,"DIS_CODE":0,"TOWNNAME":"佳里區","LI":"建南里","LIN":"26鄰","STREET":"復興路","SECT":" ","MAREA":" ","LANE":" ","ALLEY":" ","HOUSE_NO":"５７號","E_COORD97":165389.70000000001,"N_COORD97":2561685.4100000001,"ADDRESS":"復興路５７號","OBJECTID":480169},"geometry":{"x":165389.70000000205,"y":2561685.4100000039}},{"attributes":{"ID":480195,"DIS_CODE":0,"TOWNNAME":"佳里區","LI":"建南里","LIN":"26鄰","STREET":"復興路","SECT":" ","MAREA":" ","LANE":" ","ALLEY":" ","HOUSE_NO":"５８號","E_COORD97":165390.57000000001,"N_COORD97":2561707.6099999999,"ADDRESS":"復興路５８號","OBJECTID":480170},"geometry":{"x":165390.56999999937,"y":2561707.6100000013}},{"attributes":{"ID":480196,"DIS_CODE":0,"TOWNNAME":"佳里區","LI":"建南里","LIN":"26鄰","STREET":"復興路","SECT":" ","MAREA":" ","LANE":" ","ALLEY":" ","HOUSE_NO":"５９號","E_COORD97":165385.51000000001,"N_COORD97":2561684.6400000001,"ADDRESS":"復興路５９號","OBJECTID":480171},"geometry":{"x":165385.51000000164,"y":2561684.6400000043}},{"attributes":{"ID":480197,"DIS_CODE":0,"TOWNNAME":"佳里區","LI":"建南里","LIN":"26鄰","STREET":"復興路","SECT":" ","MAREA":" ","LANE":" ","ALLEY":" ","HOUSE_NO":"５號","E_COORD97":165518.5,"N_COORD97":2561697.3500000001,"ADDRESS":"復興路５號","OBJECTID":480172},"geometry":{"x":165518.50000000093,"y":2561697.3499999996}},{"attributes":{"ID":480198,"DIS_CODE":0,"TOWNNAME":"佳里區","LI":"建南里","LIN":"26鄰","STREET":"復興路","SECT":" ","MAREA":" ","LANE":" ","ALLEY":" ","HOUSE_NO":"６０號","E_COORD97":165385.23999999999,"N_COORD97":2561706.7200000002,"ADDRESS":"復興路６０號","OBJECTID":480173},"geometry":{"x":165385.24000000022,"y":2561706.7200000007}},{"attributes":{"ID":480199,"DIS_CODE":0,"TOWNNAME":"佳里區","LI":"建南里","LIN":"26鄰","STREET":"復興路","SECT":" ","MAREA":" ","LANE":" ","ALLEY":" ","HOUSE_NO":"６１號","E_COORD97":165380.42999999999,"N_COORD97":2561684.3199999998,"ADDRESS":"復興路６１號","OBJECTID":480174},"geometry":{"x":165380.4299999997,"y":2561684.3200000022}},{"attributes":{"ID":480200,"DIS_CODE":0,"TOWNNAME":"佳里區","LI":"建南里","LIN":"26鄰","STREET":"復興路","SECT":" ","MAREA":" ","LANE":" ","ALLEY":" ","HOUSE_NO":"６２號","E_COORD97":165380.23000000001,"N_COORD97":2561706.6099999999,"ADDRESS":"復興路６２號","OBJECTID":480175},"geometry":{"x":165380.23000000138,"y":2561706.6099999994}},{"attributes":{"ID":480201,"DIS_CODE":0,"TOWNNAME":"佳里區","LI":"建南里","LIN":"26鄰","STREET":"復興路","SECT":" ","MAREA":" ","LANE":" ","ALLEY":" ","HOUSE_NO":"６５號","E_COORD97":165367.17000000001,"N_COORD97":2561682.8399999999,"ADDRESS":"復興路６５號","OBJECTID":480176},"geometry":{"x":165367.16999999993,"y":2561682.8400000017}},{"attributes":{"ID":480202,"DIS_CODE":0,"TOWNNAME":"佳里區","LI":"建南里","LIN":"26鄰","STREET":"復興路","SECT":" ","MAREA":" ","LANE":" ","ALLEY":" ","HOUSE_NO":"７號","E_COORD97":165513.89999999999,"N_COORD97":2561696.5,"ADDRESS":"復興路７號","OBJECTID":480177},"geometry":{"x":165513.90000000224,"y":2561696.5000000019}},{"attributes":{"ID":480203,"DIS_CODE":0,"TOWNNAME":"佳里區","LI":"建南里","LIN":"26鄰","STREET":"復興路","SECT":" ","MAREA":" ","LANE":" ","ALLEY":" ","HOUSE_NO":"８７號","E_COORD97":165278.48000000001,"N_COORD97":2561672.5600000001,"ADDRESS":"復興路８７號","OBJECTID":480178},"geometry":{"x":165278.48000000138,"y":2561672.5600000024}},{"attributes":{"ID":480204,"DIS_CODE":0,"TOWNNAME":"佳里區","LI":"建南里","LIN":"26鄰","STREET":"復興路","SECT":" ","MAREA":" ","LANE":" ","ALLEY":" ","HOUSE_NO":"８９號","E_COORD97":165273.82999999999,"N_COORD97":2561672.1099999999,"ADDRESS":"復興路８９號","OBJECTID":480179},"geometry":{"x":165273.83000000101,"y":2561672.1099999994}},{"attributes":{"ID":480205,"DIS_CODE":0,"TOWNNAME":"佳里區","LI":"建南里","LIN":"26鄰","STREET":"復興路","SECT":" ","MAREA":" ","LANE":" ","ALLEY":" ","HOUSE_NO":"９１號","E_COORD97":165269.42999999999,"N_COORD97":2561671.7200000002,"ADDRESS":"復興路９１號","OBJECTID":480180},"geometry":{"x":165269.43000000063,"y":2561671.7200000025}},{"attributes":{"ID":480206,"DIS_CODE":0,"TOWNNAME":"佳里區","LI":"建南里","LIN":"26鄰","STREET":"復興路","SECT":" ","MAREA":" ","LANE":" ","ALLEY":" ","HOUSE_NO":"９３號","E_COORD97":165265,"N_COORD97":2561670.9500000002,"ADDRESS":"復興路９３號","OBJECTID":480181},"geometry":{"x":165265,"y":2561670.950000003}},{"attributes":{"ID":480207,"DIS_CODE":0,"TOWNNAME":"佳里區","LI":"建南里","LIN":"26鄰","STREET":"復興路","SECT":" ","MAREA":" ","LANE":" ","ALLEY":" ","HOUSE_NO":"９７號","E_COORD97":165240.56,"N_COORD97":2561646.4399999999,"ADDRESS":"復興路９７號","OBJECTID":480182},"geometry":{"x":165240.55999999959,"y":2561646.4399999995}},{"attributes":{"ID":480208,"DIS_CODE":0,"TOWNNAME":"佳里區","LI":"建南里","LIN":"26鄰","STREET":"復興路","SECT":" ","MAREA":" ","LANE":" ","ALLEY":" ","HOUSE_NO":"９９號","E_COORD97":165239.42000000001,"N_COORD97":2561651.5,"ADDRESS":"復興路９９號","OBJECTID":480183},"geometry":{"x":165239.42000000086,"y":2561651.5000000019}},{"attributes":{"ID":480209,"DIS_CODE":0,"TOWNNAME":"佳里區","LI":"建南里","LIN":"26鄰","STREET":"復興路","SECT":" ","MAREA":" ","LANE":" ","ALLEY":" ","HOUSE_NO":"９號","E_COORD97":165507,"N_COORD97":2561698.6200000001,"ADDRESS":"復興路９號","OBJECTID":480184},"geometry":{"x":165507,"y":2561698.6200000048}},{"attributes":{"ID":480210,"DIS_CODE":0,"TOWNNAME":"學甲區","LI":"慈福里","LIN":"26鄰","STREET":"中山路","SECT":" ","MAREA":" ","LANE":" ","ALLEY":" ","HOUSE_NO":"７７號之１","E_COORD97":166305.37,"N_COORD97":2570445.0299999998,"ADDRESS":"中山路７７號之１","OBJECTID":480185},"geometry":{"x":166305.37000000011,"y":2570445.0300000012}},{"attributes":{"ID":480211,"DIS_CODE":0,"TOWNNAME":"學甲區","LI":"慈福里","LIN":"26鄰","STREET":"中山路","SECT":" ","MAREA":" ","LANE":" ","ALLEY":" ","HOUSE_NO":"７７號之２","E_COORD97":166301.31,"N_COORD97":2570445.6600000001,"ADDRESS":"中山路７７號之２","OBJECTID":480186},"geometry":{"x":166301.30999999959,"y":2570445.660000002}},{"attributes":{"ID":480212,"DIS_CODE":0,"TOWNNAME":"學甲區","LI":"慈福里","LIN":"26鄰","STREET":"中山路","SECT":" ","MAREA":" ","LANE":" ","ALLEY":" ","HOUSE_NO":"７７號之３","E_COORD97":166297.5,"N_COORD97":2570446.1600000001,"ADDRESS":"中山路７７號之３","OBJECTID":480187},"geometry":{"x":166297.5,"y":2570446.160000002}},{"attributes":{"ID":480213,"DIS_CODE":0,"TOWNNAME":"學甲區","LI":"慈福里","LIN":"26鄰","STREET":"中山路","SECT":" ","MAREA":" ","LANE":" ","ALLEY":" ","HOUSE_NO":"７７號","E_COORD97":166309.22,"N_COORD97":2570444.4100000001,"ADDRESS":"中山路７７號","OBJECTID":480188},"geometry":{"x":166309.21999999974,"y":2570444.410000002}},{"attributes":{"ID":480214,"DIS_CODE":0,"TOWNNAME":"學甲區","LI":"慈福里","LIN":"26鄰","STREET":"中山路","SECT":" ","MAREA":" ","LANE":" ","ALLEY":" ","HOUSE_NO":"７９號","E_COORD97":166292.22,"N_COORD97":2570449.1499999999,"ADDRESS":"中山路７９號","OBJECTID":480189},"geometry":{"x":166292.21999999974,"y":2570449.1500000022}},{"attributes":{"ID":480215,"DIS_CODE":0,"TOWNNAME":"學甲區","LI":"慈福里","LIN":"26鄰","STREET":"中山路","SECT":" ","MAREA":" ","LANE":" ","ALLEY":" ","HOUSE_NO":"８９號之１","E_COORD97":166236.60999999999,"N_COORD97":2570459.25,"ADDRESS":"中山路８９號之１","OBJECTID":480190},"geometry":{"x":166236.61000000127,"y":2570459.25}},{"attributes":{"ID":480216,"DIS_CODE":0,"TOWNNAME":"學甲區","LI":"慈福里","LIN":"26鄰","STREET":"中山路","SECT":" ","MAREA":" ","LANE":" ","ALLEY":" ","HOUSE_NO":"８９號之２","E_COORD97":166233,"N_COORD97":2570460.1299999999,"ADDRESS":"中山路８９號之２","OBJECTID":480191},"geometry":{"x":166233,"y":2570460.129999999}},{"attributes":{"ID":480217,"DIS_CODE":0,"TOWNNAME":"學甲區","LI":"慈福里","LIN":"26鄰","STREET":"中山路","SECT":" ","MAREA":" ","LANE":" ","ALLEY":" ","HOUSE_NO":"８９號","E_COORD97":166240.32000000001,"N_COORD97":2570458.3599999999,"ADDRESS":"中山路８９號","OBJECTID":480192},"geometry":{"x":166240.32000000123,"y":2570458.3599999994}},{"attributes":{"ID":480218,"DIS_CODE":0,"TOWNNAME":"學甲區","LI":"慈福里","LIN":"26鄰","STREET":"中山路","SECT":" ","MAREA":" ","LANE":" ","ALLEY":" ","HOUSE_NO":"９１號","E_COORD97":166229.01000000001,"N_COORD97":2570461.25,"ADDRESS":"中山路９１號","OBJECTID":480193},"geometry":{"x":166229.00999999978,"y":2570461.2500000019}},{"attributes":{"ID":480219,"DIS_CODE":0,"TOWNNAME":"學甲區","LI":"慈福里","LIN":"26鄰","STREET":"中山路","SECT":" ","MAREA":" ","LANE":" ","ALLEY":" ","HOUSE_NO":"９３號","E_COORD97":166223.82000000001,"N_COORD97":2570462.2400000002,"ADDRESS":"中山路９３號","OBJECTID":480194},"geometry":{"x":166223.82000000123,"y":2570462.2400000021}},{"attributes":{"ID":480220,"DIS_CODE":0,"TOWNNAME":"學甲區","LI":"慈福里","LIN":"26鄰","STREET":"中山路","SECT":" ","MAREA":" ","LANE":" ","ALLEY":" ","HOUSE_NO":"９５號","E_COORD97":166218.07000000001,"N_COORD97":2570466.6200000001,"ADDRESS":"中山路９５號","OBJECTID":480195},"geometry":{"x":166218.07000000123,"y":2570466.6200000029}},{"attributes":{"ID":480221,"DIS_CODE":0,"TOWNNAME":"南區","LI":"新昌里","LIN":"5鄰","STREET":"夏林路","SECT":" ","MAREA":" ","LANE":" ","ALLEY":" ","HOUSE_NO":"６７號","E_COORD97":167492.91,"N_COORD97":2542652.2999999998,"ADDRESS":"夏林路６７號","OBJECTID":480196},"geometry":{"x":167492.91000000015,"y":2542652.3000000007}},{"attributes":{"ID":480222,"DIS_CODE":0,"TOWNNAME":"南區","LI":"新昌里","LIN":"5鄰","STREET":"夏林路","SECT":" ","MAREA":" ","LANE":" ","ALLEY":" ","HOUSE_NO":"６９號","E_COORD97":167492.42999999999,"N_COORD97":2542649.2200000002,"ADDRESS":"夏林路６９號","OBJECTID":480197},"geometry":{"x":167492.4299999997,"y":2542649.2200000007}},{"attributes":{"ID":480223,"DIS_CODE":0,"TOWNNAME":"南區","LI":"新昌里","LIN":"5鄰","STREET":"夏林路","SECT":" ","MAREA":" ","LANE":" ","ALLEY":" ","HOUSE_NO":"６９號之１","E_COORD97":167493.07000000001,"N_COORD97":2542642.73,"ADDRESS":"夏林路６９號之１","OBJECTID":480198},"geometry":{"x":167493.07000000123,"y":2542642.7300000004}},{"attributes":{"ID":480224,"DIS_CODE":0,"TOWNNAME":"南區","LI":"新昌里","LIN":"5鄰","STREET":"夏林路","SECT":" ","MAREA":" ","LANE":" ","ALLEY":" ","HOUSE_NO":"６９號之２","E_COORD97":167492.75,"N_COORD97":2542638.8399999999,"ADDRESS":"夏林路６９號之２","OBJECTID":480199},"geometry":{"x":167492.74999999907,"y":2542638.8400000017}},{"attributes":{"ID":480225,"DIS_CODE":0,"TOWNNAME":"南區","LI":"新昌里","LIN":"5鄰","STREET":"夏林路","SECT":" ","MAREA":" ","LANE":" ","ALLEY":" ","HOUSE_NO":"７１號","E_COORD97":167497.45999999999,"N_COORD97":2542617.52,"ADDRESS":"夏林路７１號","OBJECTID":480200},"geometry":{"x":167497.45999999996,"y":2542617.5200000014}}]}