{"displayFieldName":"TOWNNAME","fieldAliases":{"ID":"ID","DIS_CODE":"DIS_CODE","TOWNNAME":"TOWNNAME","LI":"LI","LIN":"LIN","STREET":"STREET","SECT":"SECT","MAREA":"MAREA","LANE":"LANE","ALLEY":"ALLEY","HOUSE_NO":"HOUSE_NO","E_COORD97":"E_COORD97","N_COORD97":"N_COORD97","ADDRESS":"ADDRESS","OBJECTID":"OBJECTID"},"geometryType":"esriGeometryPoint","spatialReference":{"wkid":102443,"latestWkid":3826},"fields":[{"name":"ID","type":"esriFieldTypeDouble","alias":"ID"},{"name":"DIS_CODE","type":"esriFieldTypeInteger","alias":"DIS_CODE"},{"name":"TOWNNAME","type":"esriFieldTypeString","alias":"TOWNNAME","length":8},{"name":"LI","type":"esriFieldTypeString","alias":"LI","length":8},{"name":"LIN","type":"esriFieldTypeString","alias":"LIN","length":12},{"name":"STREET","type":"esriFieldTypeString","alias":"STREET","length":20},{"name":"SECT","type":"esriFieldTypeString","alias":"SECT","length":8},{"name":"MAREA","type":"esriFieldTypeString","alias":"MAREA","length":12},{"name":"LANE","type":"esriFieldTypeString","alias":"LANE","length":10},{"name":"ALLEY","type":"esriFieldTypeString","alias":"ALLEY","length":10},{"name":"HOUSE_NO","type":"esriFieldTypeString","alias":"HOUSE_NO","length":20},{"name":"E_COORD97","type":"esriFieldTypeDouble","alias":"E_COORD97"},{"name":"N_COORD97","type":"esriFieldTypeDouble","alias":"N_COORD97"},{"name":"ADDRESS","type":"esriFieldTypeString","alias":"ADDRESS","length":50},{"name":"OBJECTID","type":"esriFieldTypeOID","alias":"OBJECTID"}],"features":[{"attributes":{"ID":348610,"DIS_CODE":0,"TOWNNAME":"北區","LI":"延平里","LIN":"6鄰","STREET":"公園路","SECT":" ","MAREA":" ","LANE":"７４６巷","ALLEY":" ","HOUSE_NO":"２７號之５０","E_COORD97":169199.32000000001,"N_COORD97":2545447.3599999999,"ADDRESS":"公園路７４６巷２７號之５０","OBJECTID":348601},"geometry":{"x":169199.3200000003,"y":2545447.3599999994}},{"attributes":{"ID":348611,"DIS_CODE":0,"TOWNNAME":"北區","LI":"延平里","LIN":"6鄰","STREET":"公園路","SECT":" ","MAREA":" ","LANE":"７４６巷","ALLEY":" ","HOUSE_NO":"２７號之５２","E_COORD97":169199.45999999999,"N_COORD97":2545450.5899999999,"ADDRESS":"公園路７４６巷２７號之５２","OBJECTID":348602},"geometry":{"x":169199.45999999996,"y":2545450.589999998}},{"attributes":{"ID":348612,"DIS_CODE":0,"TOWNNAME":"北區","LI":"延平里","LIN":"6鄰","STREET":"公園路","SECT":" ","MAREA":" ","LANE":"７４６巷","ALLEY":" ","HOUSE_NO":"２７號之５４","E_COORD97":169200.29999999999,"N_COORD97":2545456.2000000002,"ADDRESS":"公園路７４６巷２７號之５４","OBJECTID":348603},"geometry":{"x":169200.29999999981,"y":2545456.200000003}},{"attributes":{"ID":348613,"DIS_CODE":0,"TOWNNAME":"北區","LI":"延平里","LIN":"6鄰","STREET":"公園路","SECT":" ","MAREA":" ","LANE":"７４６巷","ALLEY":" ","HOUSE_NO":"２７號之５６","E_COORD97":169200.72,"N_COORD97":2545461.52,"ADDRESS":"公園路７４６巷２７號之５６","OBJECTID":348604},"geometry":{"x":169200.71999999974,"y":2545461.5200000014}},{"attributes":{"ID":348614,"DIS_CODE":0,"TOWNNAME":"北區","LI":"延平里","LIN":"6鄰","STREET":"公園路","SECT":" ","MAREA":" ","LANE":"７４６巷","ALLEY":" ","HOUSE_NO":"２７號之５８","E_COORD97":169201.14000000001,"N_COORD97":2545466.29,"ADDRESS":"公園路７４６巷２７號之５８","OBJECTID":348605},"geometry":{"x":169201.1400000006,"y":2545466.290000001}},{"attributes":{"ID":348615,"DIS_CODE":0,"TOWNNAME":"東區","LI":"德高里","LIN":"8鄰","STREET":"崇善東路","SECT":" ","MAREA":" ","LANE":" ","ALLEY":" ","HOUSE_NO":"１０８號","E_COORD97":171429.56,"N_COORD97":2541052.2799999998,"ADDRESS":"崇善東路１０８號","OBJECTID":348606},"geometry":{"x":171429.55999999959,"y":2541052.2800000012}},{"attributes":{"ID":348616,"DIS_CODE":0,"TOWNNAME":"東區","LI":"德高里","LIN":"8鄰","STREET":"崇善東路","SECT":" ","MAREA":" ","LANE":" ","ALLEY":" ","HOUSE_NO":"１１０號","E_COORD97":171424.19,"N_COORD97":2541064.7200000002,"ADDRESS":"崇善東路１１０號","OBJECTID":348607},"geometry":{"x":171424.19000000041,"y":2541064.7200000025}},{"attributes":{"ID":348617,"DIS_CODE":0,"TOWNNAME":"東區","LI":"德高里","LIN":"8鄰","STREET":"崇善東路","SECT":" ","MAREA":" ","LANE":" ","ALLEY":" ","HOUSE_NO":"１１２號","E_COORD97":171426.76000000001,"N_COORD97":2541068.3300000001,"ADDRESS":"崇善東路１１２號","OBJECTID":348608},"geometry":{"x":171426.75999999978,"y":2541068.3300000001}},{"attributes":{"ID":348618,"DIS_CODE":0,"TOWNNAME":"北區","LI":"長榮里","LIN":"4鄰","STREET":"長勝路","SECT":" ","MAREA":" ","LANE":" ","ALLEY":" ","HOUSE_NO":"５３號","E_COORD97":169940.79000000001,"N_COORD97":2545622.3500000001,"ADDRESS":"長勝路５３號","OBJECTID":348609},"geometry":{"x":169940.79000000097,"y":2545622.3500000015}},{"attributes":{"ID":348619,"DIS_CODE":0,"TOWNNAME":"東區","LI":"德高里","LIN":"8鄰","STREET":"崇善東路","SECT":" ","MAREA":" ","LANE":" ","ALLEY":" ","HOUSE_NO":"１１４號","E_COORD97":171431.38,"N_COORD97":2541076.73,"ADDRESS":"崇善東路１１４號","OBJECTID":348610},"geometry":{"x":171431.37999999896,"y":2541076.7299999986}},{"attributes":{"ID":348620,"DIS_CODE":0,"TOWNNAME":"東區","LI":"德高里","LIN":"8鄰","STREET":"崇善東路","SECT":" ","MAREA":" ","LANE":" ","ALLEY":" ","HOUSE_NO":"１２４號","E_COORD97":171431.91,"N_COORD97":2541106.4500000002,"ADDRESS":"崇善東路１２４號","OBJECTID":348611},"geometry":{"x":171431.91000000108,"y":2541106.4499999993}},{"attributes":{"ID":348621,"DIS_CODE":0,"TOWNNAME":"東區","LI":"德高里","LIN":"8鄰","STREET":"崇善東路","SECT":" ","MAREA":" ","LANE":" ","ALLEY":" ","HOUSE_NO":"１０６號","E_COORD97":171425.75,"N_COORD97":2541049.3700000001,"ADDRESS":"崇善東路１０６號","OBJECTID":348612},"geometry":{"x":171425.75000000186,"y":2541049.3700000048}},{"attributes":{"ID":348622,"DIS_CODE":0,"TOWNNAME":"善化區","LI":"溪美里","LIN":"18鄰","STREET":" ","SECT":" ","MAREA":"溪尾","LANE":" ","ALLEY":" ","HOUSE_NO":"２１７號之３２","E_COORD97":177364.01999999999,"N_COORD97":2561386.2799999998,"ADDRESS":"溪尾２１７號之３２","OBJECTID":348613},"geometry":{"x":177364.02000000048,"y":2561386.2799999993}},{"attributes":{"ID":348623,"DIS_CODE":0,"TOWNNAME":"北區","LI":"延平里","LIN":"6鄰","STREET":"公園路","SECT":" ","MAREA":" ","LANE":"７４６巷","ALLEY":" ","HOUSE_NO":"２７號之６０","E_COORD97":169203.25,"N_COORD97":2545470.1800000002,"ADDRESS":"公園路７４６巷２７號之６０","OBJECTID":348614},"geometry":{"x":169203.25000000186,"y":2545470.1799999978}},{"attributes":{"ID":348624,"DIS_CODE":0,"TOWNNAME":"東區","LI":"大智里","LIN":"8鄰","STREET":"德東街","SECT":" ","MAREA":" ","LANE":" ","ALLEY":" ","HOUSE_NO":"１０１號","E_COORD97":171088.44,"N_COORD97":2540269.2999999998,"ADDRESS":"德東街１０１號","OBJECTID":348615},"geometry":{"x":171088.44000000041,"y":2540269.3000000007}},{"attributes":{"ID":348625,"DIS_CODE":0,"TOWNNAME":"善化區","LI":"溪美里","LIN":"18鄰","STREET":" ","SECT":" ","MAREA":"溪尾","LANE":" ","ALLEY":" ","HOUSE_NO":"２１７號之３３","E_COORD97":177345.81,"N_COORD97":2561368.7999999998,"ADDRESS":"溪尾２１７號之３３","OBJECTID":348616},"geometry":{"x":177345.80999999959,"y":2561368.8000000026}},{"attributes":{"ID":348626,"DIS_CODE":0,"TOWNNAME":"善化區","LI":"溪美里","LIN":"18鄰","STREET":" ","SECT":" ","MAREA":"溪尾","LANE":" ","ALLEY":" ","HOUSE_NO":"２１７號之３５","E_COORD97":177353.20999999999,"N_COORD97":2561368.7599999998,"ADDRESS":"溪尾２１７號之３５","OBJECTID":348617},"geometry":{"x":177353.20999999996,"y":2561368.7600000016}},{"attributes":{"ID":348627,"DIS_CODE":0,"TOWNNAME":"善化區","LI":"溪美里","LIN":"18鄰","STREET":" ","SECT":" ","MAREA":"溪尾","LANE":" ","ALLEY":" ","HOUSE_NO":"２１７號之３６","E_COORD97":177360.45999999999,"N_COORD97":2561369.3500000001,"ADDRESS":"溪尾２１７號之３６","OBJECTID":348618},"geometry":{"x":177360.45999999996,"y":2561369.3499999996}},{"attributes":{"ID":348628,"DIS_CODE":0,"TOWNNAME":"善化區","LI":"溪美里","LIN":"18鄰","STREET":" ","SECT":" ","MAREA":"溪尾","LANE":" ","ALLEY":" ","HOUSE_NO":"２１７號之３７","E_COORD97":177367.82000000001,"N_COORD97":2561369.3199999998,"ADDRESS":"溪尾２１７號之３７","OBJECTID":348619},"geometry":{"x":177367.82000000123,"y":2561369.3200000003}},{"attributes":{"ID":348629,"DIS_CODE":0,"TOWNNAME":"善化區","LI":"溪美里","LIN":"18鄰","STREET":" ","SECT":" ","MAREA":"溪尾","LANE":" ","ALLEY":" ","HOUSE_NO":"２１７號之３８","E_COORD97":177346.70999999999,"N_COORD97":2561347.1000000001,"ADDRESS":"溪尾２１７號之３８","OBJECTID":348620},"geometry":{"x":177346.70999999996,"y":2561347.0999999996}},{"attributes":{"ID":348630,"DIS_CODE":0,"TOWNNAME":"北區","LI":"延平里","LIN":"6鄰","STREET":"公園路","SECT":" ","MAREA":" ","LANE":"７４６巷","ALLEY":" ","HOUSE_NO":"２７號之６２","E_COORD97":169220.07999999999,"N_COORD97":2545468.3599999999,"ADDRESS":"公園路７４６巷２７號之６２","OBJECTID":348621},"geometry":{"x":169220.08000000101,"y":2545468.3599999994}},{"attributes":{"ID":348631,"DIS_CODE":0,"TOWNNAME":"北區","LI":"延平里","LIN":"6鄰","STREET":"公園路","SECT":" ","MAREA":" ","LANE":"７４６巷","ALLEY":" ","HOUSE_NO":"２７號之７２","E_COORD97":169241.5,"N_COORD97":2545458.6400000001,"ADDRESS":"公園路７４６巷２７號之７２","OBJECTID":348622},"geometry":{"x":169241.5,"y":2545458.6400000025}},{"attributes":{"ID":348632,"DIS_CODE":0,"TOWNNAME":"北區","LI":"延平里","LIN":"6鄰","STREET":"公園路","SECT":" ","MAREA":" ","LANE":"７４６巷","ALLEY":" ","HOUSE_NO":"２７號之８","E_COORD97":169179.95999999999,"N_COORD97":2545455.5,"ADDRESS":"公園路７４６巷２７號之８","OBJECTID":348623},"geometry":{"x":169179.96000000089,"y":2545455.5000000019}},{"attributes":{"ID":348633,"DIS_CODE":0,"TOWNNAME":"北區","LI":"中樓里","LIN":"6鄰","STREET":"前鋒路","SECT":" ","MAREA":" ","LANE":"２９０巷","ALLEY":" ","HOUSE_NO":"１０號","E_COORD97":169603.82000000001,"N_COORD97":2544991.8900000001,"ADDRESS":"前鋒路２９０巷１０號","OBJECTID":348624},"geometry":{"x":169603.82000000123,"y":2544991.8900000043}},{"attributes":{"ID":348634,"DIS_CODE":0,"TOWNNAME":"北區","LI":"中樓里","LIN":"6鄰","STREET":"前鋒路","SECT":" ","MAREA":" ","LANE":"２９０巷","ALLEY":" ","HOUSE_NO":"１１號","E_COORD97":169617.48999999999,"N_COORD97":2544997.5600000001,"ADDRESS":"前鋒路２９０巷１１號","OBJECTID":348625},"geometry":{"x":169617.49000000115,"y":2544997.5600000042}},{"attributes":{"ID":348635,"DIS_CODE":0,"TOWNNAME":"北區","LI":"中樓里","LIN":"6鄰","STREET":"前鋒路","SECT":" ","MAREA":" ","LANE":"２９０巷","ALLEY":" ","HOUSE_NO":"１２號","E_COORD97":169608.42999999999,"N_COORD97":2544991.4399999999,"ADDRESS":"前鋒路２９０巷１２號","OBJECTID":348626},"geometry":{"x":169608.4299999997,"y":2544991.4400000013}},{"attributes":{"ID":348636,"DIS_CODE":0,"TOWNNAME":"北區","LI":"中樓里","LIN":"6鄰","STREET":"前鋒路","SECT":" ","MAREA":" ","LANE":"２９０巷","ALLEY":" ","HOUSE_NO":"５號","E_COORD97":169598.26999999999,"N_COORD97":2544996.5699999998,"ADDRESS":"前鋒路２９０巷５號","OBJECTID":348627},"geometry":{"x":169598.27000000048,"y":2544996.5700000003}},{"attributes":{"ID":348637,"DIS_CODE":0,"TOWNNAME":"北區","LI":"中樓里","LIN":"6鄰","STREET":"前鋒路","SECT":" ","MAREA":" ","LANE":"２９０巷","ALLEY":" ","HOUSE_NO":"６號","E_COORD97":169583.39000000001,"N_COORD97":2544985.3199999998,"ADDRESS":"前鋒路２９０巷６號","OBJECTID":348628},"geometry":{"x":169583.39000000153,"y":2544985.320000004}},{"attributes":{"ID":348638,"DIS_CODE":0,"TOWNNAME":"北區","LI":"中樓里","LIN":"6鄰","STREET":"前鋒路","SECT":" ","MAREA":" ","LANE":"２９０巷","ALLEY":" ","HOUSE_NO":"８號","E_COORD97":169593,"N_COORD97":2544992.04,"ADDRESS":"前鋒路２９０巷８號","OBJECTID":348629},"geometry":{"x":169593,"y":2544992.0399999991}},{"attributes":{"ID":348639,"DIS_CODE":0,"TOWNNAME":"北區","LI":"中樓里","LIN":"6鄰","STREET":"東豐路","SECT":" ","MAREA":" ","LANE":"６７巷","ALLEY":" ","HOUSE_NO":"１３號","E_COORD97":169620.70999999999,"N_COORD97":2544967.7599999998,"ADDRESS":"東豐路６７巷１３號","OBJECTID":348630},"geometry":{"x":169620.71000000089,"y":2544967.7599999998}},{"attributes":{"ID":348640,"DIS_CODE":0,"TOWNNAME":"北區","LI":"中樓里","LIN":"6鄰","STREET":"東豐路","SECT":" ","MAREA":" ","LANE":"６７巷","ALLEY":" ","HOUSE_NO":"１５號","E_COORD97":169626.54000000001,"N_COORD97":2544966.8599999999,"ADDRESS":"東豐路６７巷１５號","OBJECTID":348631},"geometry":{"x":169626.54000000004,"y":2544966.8599999975}},{"attributes":{"ID":348641,"DIS_CODE":0,"TOWNNAME":"北區","LI":"中樓里","LIN":"6鄰","STREET":"東豐路","SECT":" ","MAREA":" ","LANE":"６７巷","ALLEY":" ","HOUSE_NO":"１７號","E_COORD97":169631.23999999999,"N_COORD97":2544967.7200000002,"ADDRESS":"東豐路６７巷１７號","OBJECTID":348632},"geometry":{"x":169631.24000000115,"y":2544967.7200000007}},{"attributes":{"ID":348642,"DIS_CODE":0,"TOWNNAME":"北區","LI":"中樓里","LIN":"6鄰","STREET":"東豐路","SECT":" ","MAREA":" ","LANE":"６７巷","ALLEY":" ","HOUSE_NO":"１９號","E_COORD97":169639.14000000001,"N_COORD97":2544969.5099999998,"ADDRESS":"東豐路６７巷１９號","OBJECTID":348633},"geometry":{"x":169639.13999999966,"y":2544969.5099999998}},{"attributes":{"ID":348643,"DIS_CODE":0,"TOWNNAME":"北區","LI":"中樓里","LIN":"6鄰","STREET":"東豐路","SECT":" ","MAREA":" ","LANE":"６７巷","ALLEY":" ","HOUSE_NO":"２１號","E_COORD97":169643.78,"N_COORD97":2544971.2000000002,"ADDRESS":"東豐路６７巷２１號","OBJECTID":348634},"geometry":{"x":169643.78000000026,"y":2544971.1999999974}},{"attributes":{"ID":348644,"DIS_CODE":0,"TOWNNAME":"北區","LI":"中樓里","LIN":"6鄰","STREET":"東豐路","SECT":" ","MAREA":" ","LANE":"６７巷","ALLEY":" ","HOUSE_NO":"３號","E_COORD97":169598.76000000001,"N_COORD97":2544967.2599999998,"ADDRESS":"東豐路６７巷３號","OBJECTID":348635},"geometry":{"x":169598.76000000071,"y":2544967.2599999998}},{"attributes":{"ID":348645,"DIS_CODE":0,"TOWNNAME":"北區","LI":"中樓里","LIN":"6鄰","STREET":"東豐路","SECT":" ","MAREA":" ","LANE":"６７巷","ALLEY":" ","HOUSE_NO":"５號","E_COORD97":169603.38,"N_COORD97":2544967.1600000001,"ADDRESS":"東豐路６７巷５號","OBJECTID":348636},"geometry":{"x":169603.37999999989,"y":2544967.160000002}},{"attributes":{"ID":348646,"DIS_CODE":0,"TOWNNAME":"北區","LI":"中樓里","LIN":"6鄰","STREET":"東豐路","SECT":" ","MAREA":" ","LANE":"６７巷","ALLEY":" ","HOUSE_NO":"７號","E_COORD97":169607.63,"N_COORD97":2544966.1600000001,"ADDRESS":"東豐路６７巷７號","OBJECTID":348637},"geometry":{"x":169607.63000000082,"y":2544966.160000002}},{"attributes":{"ID":348647,"DIS_CODE":0,"TOWNNAME":"北區","LI":"中樓里","LIN":"6鄰","STREET":"東豐路","SECT":" ","MAREA":" ","LANE":"６７巷","ALLEY":" ","HOUSE_NO":"９號","E_COORD97":169613.97,"N_COORD97":2544968.1699999999,"ADDRESS":"東豐路６７巷９號","OBJECTID":348638},"geometry":{"x":169613.97000000067,"y":2544968.1699999999}},{"attributes":{"ID":348648,"DIS_CODE":0,"TOWNNAME":"北區","LI":"玉皇里","LIN":"6鄰","STREET":"公園路","SECT":" ","MAREA":" ","LANE":"２３９巷","ALLEY":" ","HOUSE_NO":"１０號","E_COORD97":168800.25,"N_COORD97":2544549.8399999999,"ADDRESS":"公園路２３９巷１０號","OBJECTID":348639},"geometry":{"x":168800.25000000093,"y":2544549.8399999999}},{"attributes":{"ID":348649,"DIS_CODE":0,"TOWNNAME":"北區","LI":"玉皇里","LIN":"6鄰","STREET":"公園路","SECT":" ","MAREA":" ","LANE":"２３９巷","ALLEY":" ","HOUSE_NO":"１２號","E_COORD97":168796.92000000001,"N_COORD97":2544556.9500000002,"ADDRESS":"公園路２３９巷１２號","OBJECTID":348640},"geometry":{"x":168796.92000000179,"y":2544556.9500000011}},{"attributes":{"ID":348650,"DIS_CODE":0,"TOWNNAME":"北區","LI":"玉皇里","LIN":"6鄰","STREET":"公園路","SECT":" ","MAREA":" ","LANE":"２３９巷","ALLEY":" ","HOUSE_NO":"１４號","E_COORD97":168796.20999999999,"N_COORD97":2544565.3799999999,"ADDRESS":"公園路２３９巷１４號","OBJECTID":348641},"geometry":{"x":168796.20999999996,"y":2544565.379999999}},{"attributes":{"ID":348651,"DIS_CODE":0,"TOWNNAME":"中西區","LI":"光賢里","LIN":"18鄰","STREET":"武聖路","SECT":" ","MAREA":" ","LANE":"１９７巷","ALLEY":" ","HOUSE_NO":"３７號","E_COORD97":166883.78,"N_COORD97":2545121.6299999999,"ADDRESS":"武聖路１９７巷３７號","OBJECTID":348642},"geometry":{"x":166883.78000000026,"y":2545121.6300000008}},{"attributes":{"ID":348652,"DIS_CODE":0,"TOWNNAME":"北區","LI":"玉皇里","LIN":"6鄰","STREET":"公園路","SECT":" ","MAREA":" ","LANE":"２３９巷","ALLEY":" ","HOUSE_NO":"１６號","E_COORD97":168802.29999999999,"N_COORD97":2544567.8799999999,"ADDRESS":"公園路２３９巷１６號","OBJECTID":348643},"geometry":{"x":168802.29999999981,"y":2544567.8800000008}},{"attributes":{"ID":348653,"DIS_CODE":0,"TOWNNAME":"北區","LI":"玉皇里","LIN":"6鄰","STREET":"公園路","SECT":" ","MAREA":" ","LANE":"２３９巷","ALLEY":" ","HOUSE_NO":"１８號","E_COORD97":168807.63,"N_COORD97":2544570.1200000001,"ADDRESS":"公園路２３９巷１８號","OBJECTID":348644},"geometry":{"x":168807.63000000082,"y":2544570.1199999992}},{"attributes":{"ID":348654,"DIS_CODE":0,"TOWNNAME":"北區","LI":"玉皇里","LIN":"6鄰","STREET":"公園路","SECT":" ","MAREA":" ","LANE":"２３９巷","ALLEY":" ","HOUSE_NO":"２０號","E_COORD97":168805.70000000001,"N_COORD97":2544574.6099999999,"ADDRESS":"公園路２３９巷２０號","OBJECTID":348645},"geometry":{"x":168805.70000000112,"y":2544574.6099999994}},{"attributes":{"ID":348655,"DIS_CODE":0,"TOWNNAME":"北區","LI":"玉皇里","LIN":"6鄰","STREET":"公園路","SECT":" ","MAREA":" ","LANE":"２３９巷","ALLEY":" ","HOUSE_NO":"２２號","E_COORD97":168800.51000000001,"N_COORD97":2544572.2400000002,"ADDRESS":"公園路２３９巷２２號","OBJECTID":348646},"geometry":{"x":168800.50999999978,"y":2544572.2400000039}},{"attributes":{"ID":348656,"DIS_CODE":0,"TOWNNAME":"北區","LI":"玉皇里","LIN":"6鄰","STREET":"公園路","SECT":" ","MAREA":" ","LANE":"２３９巷","ALLEY":" ","HOUSE_NO":"２號","E_COORD97":168823.39999999999,"N_COORD97":2544554.71,"ADDRESS":"公園路２３９巷２號","OBJECTID":348647},"geometry":{"x":168823.4000000013,"y":2544554.7100000009}},{"attributes":{"ID":348657,"DIS_CODE":0,"TOWNNAME":"北區","LI":"玉皇里","LIN":"6鄰","STREET":"公園路","SECT":" ","MAREA":" ","LANE":"２３９巷","ALLEY":" ","HOUSE_NO":"４號","E_COORD97":168817.95000000001,"N_COORD97":2544551.7599999998,"ADDRESS":"公園路２３９巷４號","OBJECTID":348648},"geometry":{"x":168817.95000000112,"y":2544551.7600000016}},{"attributes":{"ID":348658,"DIS_CODE":0,"TOWNNAME":"北區","LI":"玉皇里","LIN":"6鄰","STREET":"公園路","SECT":" ","MAREA":" ","LANE":"２３９巷","ALLEY":" ","HOUSE_NO":"６號","E_COORD97":168812.69,"N_COORD97":2544552.27,"ADDRESS":"公園路２３９巷６號","OBJECTID":348649},"geometry":{"x":168812.69000000134,"y":2544552.2700000014}},{"attributes":{"ID":348659,"DIS_CODE":0,"TOWNNAME":"歸仁區","LI":"看東里","LIN":"6鄰","STREET":"成功路","SECT":"一段","MAREA":" ","LANE":"１５９巷","ALLEY":" ","HOUSE_NO":"２號","E_COORD97":178527.45000000001,"N_COORD97":2540150.4500000002,"ADDRESS":"成功路一段１５９巷２號","OBJECTID":348650},"geometry":{"x":178527.45000000205,"y":2540150.4499999993}},{"attributes":{"ID":348660,"DIS_CODE":0,"TOWNNAME":"歸仁區","LI":"看東里","LIN":"6鄰","STREET":"成功路","SECT":"一段","MAREA":" ","LANE":"１８７巷","ALLEY":" ","HOUSE_NO":"３５號","E_COORD97":178496.39999999999,"N_COORD97":2540048.4500000002,"ADDRESS":"成功路一段１８７巷３５號","OBJECTID":348651},"geometry":{"x":178496.4000000013,"y":2540048.4500000011}},{"attributes":{"ID":348661,"DIS_CODE":0,"TOWNNAME":"歸仁區","LI":"歸南里","LIN":"6鄰","STREET":"中正十二街","SECT":" ","MAREA":" ","LANE":"２巷","ALLEY":" ","HOUSE_NO":"１５號","E_COORD97":176739.51000000001,"N_COORD97":2539997.4500000002,"ADDRESS":"中正十二街２巷１５號","OBJECTID":348652},"geometry":{"x":176739.50999999978,"y":2539997.4500000011}},{"attributes":{"ID":348662,"DIS_CODE":0,"TOWNNAME":"歸仁區","LI":"歸南里","LIN":"6鄰","STREET":"中正十二街","SECT":" ","MAREA":" ","LANE":"２巷","ALLEY":" ","HOUSE_NO":"１０號","E_COORD97":176755.91,"N_COORD97":2539988.4500000002,"ADDRESS":"中正十二街２巷１０號","OBJECTID":348653},"geometry":{"x":176755.91000000015,"y":2539988.4499999993}},{"attributes":{"ID":348663,"DIS_CODE":0,"TOWNNAME":"歸仁區","LI":"歸南里","LIN":"6鄰","STREET":"中正十二街","SECT":" ","MAREA":" ","LANE":"２巷","ALLEY":" ","HOUSE_NO":"５號","E_COORD97":176738.16,"N_COORD97":2539974.4500000002,"ADDRESS":"中正十二街２巷５號","OBJECTID":348654},"geometry":{"x":176738.16000000108,"y":2539974.4499999993}},{"attributes":{"ID":348664,"DIS_CODE":0,"TOWNNAME":"歸仁區","LI":"看西里","LIN":"6鄰","STREET":"仁愛十街","SECT":" ","MAREA":" ","LANE":"３８巷","ALLEY":" ","HOUSE_NO":"１１號","E_COORD97":178181.20000000001,"N_COORD97":2540344.48,"ADDRESS":"仁愛十街３８巷１１號","OBJECTID":348655},"geometry":{"x":178181.20000000019,"y":2540344.4800000023}},{"attributes":{"ID":348665,"DIS_CODE":0,"TOWNNAME":"歸仁區","LI":"武東里","LIN":"6鄰","STREET":"武東一街","SECT":" ","MAREA":" ","LANE":"２９巷","ALLEY":" ","HOUSE_NO":"１９號","E_COORD97":175584.19,"N_COORD97":2535524.25,"ADDRESS":"武東一街２９巷１９號","OBJECTID":348656},"geometry":{"x":175584.19000000041,"y":2535524.2500000019}},{"attributes":{"ID":348666,"DIS_CODE":0,"TOWNNAME":"歸仁區","LI":"大廟里","LIN":"6鄰","STREET":"大廟一街","SECT":" ","MAREA":" ","LANE":"１６１巷","ALLEY":" ","HOUSE_NO":"２１號","E_COORD97":175747.17000000001,"N_COORD97":2543772.25,"ADDRESS":"大廟一街１６１巷２１號","OBJECTID":348657},"geometry":{"x":175747.17000000179,"y":2543772.2500000019}},{"attributes":{"ID":348667,"DIS_CODE":0,"TOWNNAME":"東區","LI":"中西里","LIN":"8鄰","STREET":"勝利路","SECT":" ","MAREA":" ","LANE":" ","ALLEY":" ","HOUSE_NO":"３２號","E_COORD97":169817.48999999999,"N_COORD97":2543456.3100000001,"ADDRESS":"勝利路３２號","OBJECTID":348658},"geometry":{"x":169817.49000000115,"y":2543456.3099999987}},{"attributes":{"ID":348668,"DIS_CODE":0,"TOWNNAME":"北門區","LI":"玉港里","LIN":"18鄰","STREET":" ","SECT":" ","MAREA":"西埔內","LANE":" ","ALLEY":" ","HOUSE_NO":"３８號","E_COORD97":162155.34,"N_COORD97":2573963.1499999999,"ADDRESS":"西埔內３８號","OBJECTID":348659},"geometry":{"x":162155.33999999985,"y":2573963.1500000004}},{"attributes":{"ID":348669,"DIS_CODE":0,"TOWNNAME":"北門區","LI":"玉港里","LIN":"18鄰","STREET":" ","SECT":" ","MAREA":"西埔內","LANE":" ","ALLEY":" ","HOUSE_NO":"３９之１０號","E_COORD97":162163.31,"N_COORD97":2574032.0600000001,"ADDRESS":"西埔內３９之１０號","OBJECTID":348660},"geometry":{"x":162163.30999999959,"y":2574032.0600000005}},{"attributes":{"ID":348670,"DIS_CODE":0,"TOWNNAME":"北門區","LI":"保吉里","LIN":"18鄰","STREET":" ","SECT":" ","MAREA":"蚵寮","LANE":" ","ALLEY":" ","HOUSE_NO":"４１８號","E_COORD97":161611.98999999999,"N_COORD97":2576295.8599999999,"ADDRESS":"蚵寮４１８號","OBJECTID":348661},"geometry":{"x":161611.99000000022,"y":2576295.8600000013}},{"attributes":{"ID":348671,"DIS_CODE":0,"TOWNNAME":"歸仁區","LI":"歸南里","LIN":"6鄰","STREET":"中正十二街","SECT":" ","MAREA":" ","LANE":"２巷","ALLEY":" ","HOUSE_NO":"２５號","E_COORD97":176741.70999999999,"N_COORD97":2540019.4500000002,"ADDRESS":"中正十二街２巷２５號","OBJECTID":348662},"geometry":{"x":176741.70999999996,"y":2540019.4499999993}},{"attributes":{"ID":348672,"DIS_CODE":0,"TOWNNAME":"歸仁區","LI":"歸南里","LIN":"6鄰","STREET":"中正十二街","SECT":" ","MAREA":" ","LANE":"２巷","ALLEY":" ","HOUSE_NO":"１７號","E_COORD97":176740.60999999999,"N_COORD97":2540001.4500000002,"ADDRESS":"中正十二街２巷１７號","OBJECTID":348663},"geometry":{"x":176740.61000000034,"y":2540001.4499999993}},{"attributes":{"ID":348673,"DIS_CODE":0,"TOWNNAME":"歸仁區","LI":"崙頂里","LIN":"6鄰","STREET":"信義南路","SECT":" ","MAREA":" ","LANE":"２０２巷","ALLEY":" ","HOUSE_NO":"３３號","E_COORD97":178066.75,"N_COORD97":2540055.6800000002,"ADDRESS":"信義南路２０２巷３３號","OBJECTID":348664},"geometry":{"x":178066.75,"y":2540055.6799999997}},{"attributes":{"ID":348674,"DIS_CODE":0,"TOWNNAME":"歸仁區","LI":"大潭里","LIN":"6鄰","STREET":"長榮路","SECT":"一段","MAREA":" ","LANE":"２４５巷","ALLEY":" ","HOUSE_NO":"３１號","E_COORD97":175222.22,"N_COORD97":2534650.2799999998,"ADDRESS":"長榮路一段２４５巷３１號","OBJECTID":348665},"geometry":{"x":175222.21999999974,"y":2534650.2799999993}},{"attributes":{"ID":348675,"DIS_CODE":0,"TOWNNAME":"北門區","LI":"保吉里","LIN":"18鄰","STREET":" ","SECT":" ","MAREA":"蚵寮","LANE":" ","ALLEY":" ","HOUSE_NO":"４２１號","E_COORD97":161610.41,"N_COORD97":2576313.6299999999,"ADDRESS":"蚵寮４２１號","OBJECTID":348666},"geometry":{"x":161610.41000000108,"y":2576313.6300000008}},{"attributes":{"ID":348676,"DIS_CODE":0,"TOWNNAME":"北門區","LI":"保吉里","LIN":"18鄰","STREET":" ","SECT":" ","MAREA":"蚵寮","LANE":" ","ALLEY":" ","HOUSE_NO":"４２２號","E_COORD97":161610.44,"N_COORD97":2576323.9300000002,"ADDRESS":"蚵寮４２２號","OBJECTID":348667},"geometry":{"x":161610.44000000134,"y":2576323.9299999997}},{"attributes":{"ID":348677,"DIS_CODE":0,"TOWNNAME":"北門區","LI":"保吉里","LIN":"18鄰","STREET":" ","SECT":" ","MAREA":"蚵寮","LANE":" ","ALLEY":" ","HOUSE_NO":"４２４號","E_COORD97":161595.04999999999,"N_COORD97":2576321.1499999999,"ADDRESS":"蚵寮４２４號","OBJECTID":348668},"geometry":{"x":161595.05000000075,"y":2576321.1500000022}},{"attributes":{"ID":348678,"DIS_CODE":0,"TOWNNAME":"玉井區","LI":"玉田里","LIN":"6鄰","STREET":"民主街","SECT":" ","MAREA":" ","LANE":"１２０巷","ALLEY":" ","HOUSE_NO":"３號","E_COORD97":195109.59,"N_COORD97":2558137.29,"ADDRESS":"民主街１２０巷３號","OBJECTID":348669},"geometry":{"x":195109.58999999985,"y":2558137.2899999991}},{"attributes":{"ID":348679,"DIS_CODE":0,"TOWNNAME":"玉井區","LI":"玉田里","LIN":"6鄰","STREET":"民主街","SECT":" ","MAREA":" ","LANE":"１２０巷","ALLEY":" ","HOUSE_NO":"７號","E_COORD97":195126.48999999999,"N_COORD97":2558133.29,"ADDRESS":"民主街１２０巷７號","OBJECTID":348670},"geometry":{"x":195126.49000000209,"y":2558133.290000001}},{"attributes":{"ID":348680,"DIS_CODE":0,"TOWNNAME":"新市區","LI":"大營里","LIN":"18鄰","STREET":" ","SECT":" ","MAREA":"豐榮","LANE":" ","ALLEY":" ","HOUSE_NO":"１７號","E_COORD97":178928.10000000001,"N_COORD97":2554398.25,"ADDRESS":"豐榮１７號","OBJECTID":348671},"geometry":{"x":178928.10000000056,"y":2554398.2500000019}},{"attributes":{"ID":348681,"DIS_CODE":0,"TOWNNAME":"官田區","LI":"湖山里","LIN":"18鄰","STREET":" ","SECT":" ","MAREA":"烏山頭","LANE":" ","ALLEY":" ","HOUSE_NO":"１０９號之１","E_COORD97":183513.62,"N_COORD97":2567571.8799999999,"ADDRESS":"烏山頭１０９號之１","OBJECTID":348672},"geometry":{"x":183513.62000000104,"y":2567571.879999999}},{"attributes":{"ID":348682,"DIS_CODE":0,"TOWNNAME":"永康區","LI":"大橋里","LIN":"18鄰","STREET":"大橋一街","SECT":" ","MAREA":" ","LANE":"１３９巷","ALLEY":" ","HOUSE_NO":"４８號","E_COORD97":170973.57000000001,"N_COORD97":2546632.25,"ADDRESS":"大橋一街１３９巷４８號","OBJECTID":348673},"geometry":{"x":170973.57000000123,"y":2546632.25}},{"attributes":{"ID":348683,"DIS_CODE":0,"TOWNNAME":"官田區","LI":"湖山里","LIN":"18鄰","STREET":" ","SECT":" ","MAREA":"烏山頭","LANE":" ","ALLEY":" ","HOUSE_NO":"１０９號之２","E_COORD97":183498.84,"N_COORD97":2567572.98,"ADDRESS":"烏山頭１０９號之２","OBJECTID":348674},"geometry":{"x":183498.84000000078,"y":2567572.9800000004}},{"attributes":{"ID":348684,"DIS_CODE":0,"TOWNNAME":"玉井區","LI":"竹圍里","LIN":"6鄰","STREET":"中正路","SECT":" ","MAREA":" ","LANE":"３６０巷","ALLEY":" ","HOUSE_NO":"２３號","E_COORD97":195435.91,"N_COORD97":2558493.96,"ADDRESS":"中正路３６０巷２３號","OBJECTID":348675},"geometry":{"x":195435.91000000108,"y":2558493.9600000009}},{"attributes":{"ID":348685,"DIS_CODE":0,"TOWNNAME":"玉井區","LI":"竹圍里","LIN":"6鄰","STREET":"仁愛街","SECT":" ","MAREA":" ","LANE":"３５３巷","ALLEY":" ","HOUSE_NO":"３０號","E_COORD97":195504.70999999999,"N_COORD97":2558505.9300000002,"ADDRESS":"仁愛街３５３巷３０號","OBJECTID":348676},"geometry":{"x":195504.71000000089,"y":2558505.9300000016}},{"attributes":{"ID":348686,"DIS_CODE":0,"TOWNNAME":"玉井區","LI":"竹圍里","LIN":"6鄰","STREET":"仁愛街","SECT":" ","MAREA":" ","LANE":"３４３巷","ALLEY":" ","HOUSE_NO":"２號","E_COORD97":195471.04999999999,"N_COORD97":2558495.0800000001,"ADDRESS":"仁愛街３４３巷２號","OBJECTID":348677},"geometry":{"x":195471.04999999981,"y":2558495.0800000019}},{"attributes":{"ID":348687,"DIS_CODE":0,"TOWNNAME":"官田區","LI":"湖山里","LIN":"18鄰","STREET":" ","SECT":" ","MAREA":"烏山頭","LANE":" ","ALLEY":" ","HOUSE_NO":"１０９號","E_COORD97":183510.67999999999,"N_COORD97":2567593.77,"ADDRESS":"烏山頭１０９號","OBJECTID":348678},"geometry":{"x":183510.6799999997,"y":2567593.7699999996}},{"attributes":{"ID":348688,"DIS_CODE":0,"TOWNNAME":"玉井區","LI":"竹圍里","LIN":"6鄰","STREET":"仁愛街","SECT":" ","MAREA":" ","LANE":"３５３巷","ALLEY":" ","HOUSE_NO":"２１號","E_COORD97":195494.32999999999,"N_COORD97":2558519.6800000002,"ADDRESS":"仁愛街３５３巷２１號","OBJECTID":348679},"geometry":{"x":195494.33000000101,"y":2558519.6799999997}},{"attributes":{"ID":348689,"DIS_CODE":0,"TOWNNAME":"官田區","LI":"湖山里","LIN":"18鄰","STREET":" ","SECT":" ","MAREA":"烏山頭","LANE":" ","ALLEY":" ","HOUSE_NO":"１１０號之１","E_COORD97":183525.26000000001,"N_COORD97":2567600.27,"ADDRESS":"烏山頭１１０號之１","OBJECTID":348680},"geometry":{"x":183525.25999999978,"y":2567600.2700000014}},{"attributes":{"ID":348690,"DIS_CODE":0,"TOWNNAME":"官田區","LI":"湖山里","LIN":"18鄰","STREET":" ","SECT":" ","MAREA":"烏山頭","LANE":" ","ALLEY":" ","HOUSE_NO":"１１０號之２","E_COORD97":183526.44,"N_COORD97":2567595.75,"ADDRESS":"烏山頭１１０號之２","OBJECTID":348681},"geometry":{"x":183526.44000000041,"y":2567595.7500000037}},{"attributes":{"ID":348691,"DIS_CODE":0,"TOWNNAME":"玉井區","LI":"竹圍里","LIN":"6鄰","STREET":"大成路","SECT":" ","MAREA":" ","LANE":"４３３巷","ALLEY":" ","HOUSE_NO":"１９號","E_COORD97":195526.10000000001,"N_COORD97":2558535.8500000001,"ADDRESS":"大成路４３３巷１９號","OBJECTID":348682},"geometry":{"x":195526.09999999963,"y":2558535.8500000034}},{"attributes":{"ID":348692,"DIS_CODE":0,"TOWNNAME":"玉井區","LI":"竹圍里","LIN":"6鄰","STREET":"忠孝街","SECT":" ","MAREA":" ","LANE":"４５２巷","ALLEY":" ","HOUSE_NO":"１１號","E_COORD97":195591.26000000001,"N_COORD97":2558468.1800000002,"ADDRESS":"忠孝街４５２巷１１號","OBJECTID":348683},"geometry":{"x":195591.25999999978,"y":2558468.1799999997}},{"attributes":{"ID":348693,"DIS_CODE":0,"TOWNNAME":"官田區","LI":"湖山里","LIN":"18鄰","STREET":" ","SECT":" ","MAREA":"烏山頭","LANE":" ","ALLEY":" ","HOUSE_NO":"１１０號之３","E_COORD97":183527.44,"N_COORD97":2567591.4500000002,"ADDRESS":"烏山頭１１０號之３","OBJECTID":348684},"geometry":{"x":183527.44000000134,"y":2567591.4500000011}},{"attributes":{"ID":348694,"DIS_CODE":0,"TOWNNAME":"官田區","LI":"湖山里","LIN":"18鄰","STREET":" ","SECT":" ","MAREA":"烏山頭","LANE":" ","ALLEY":" ","HOUSE_NO":"１１０號之４","E_COORD97":183528.41,"N_COORD97":2567587.1899999999,"ADDRESS":"烏山頭１１０號之４","OBJECTID":348685},"geometry":{"x":183528.41000000201,"y":2567587.1900000013}},{"attributes":{"ID":348695,"DIS_CODE":0,"TOWNNAME":"官田區","LI":"湖山里","LIN":"18鄰","STREET":" ","SECT":" ","MAREA":"烏山頭","LANE":" ","ALLEY":" ","HOUSE_NO":"１１０號之５","E_COORD97":183529.20999999999,"N_COORD97":2567582.77,"ADDRESS":"烏山頭１１０號之５","OBJECTID":348686},"geometry":{"x":183529.20999999996,"y":2567582.7700000014}},{"attributes":{"ID":348696,"DIS_CODE":0,"TOWNNAME":"玉井區","LI":"玉田里","LIN":"6鄰","STREET":"民主街","SECT":" ","MAREA":" ","LANE":"１２０巷","ALLEY":" ","HOUSE_NO":"６號","E_COORD97":195121.48999999999,"N_COORD97":2558135.29,"ADDRESS":"民主街１２０巷６號","OBJECTID":348687},"geometry":{"x":195121.49000000115,"y":2558135.2899999972}},{"attributes":{"ID":348697,"DIS_CODE":0,"TOWNNAME":"玉井區","LI":"玉田里","LIN":"6鄰","STREET":"民主街","SECT":" ","MAREA":" ","LANE":"１２０巷","ALLEY":" ","HOUSE_NO":"９號","E_COORD97":195134.79000000001,"N_COORD97":2558133.29,"ADDRESS":"民主街１２０巷９號","OBJECTID":348688},"geometry":{"x":195134.79000000097,"y":2558133.290000001}},{"attributes":{"ID":348698,"DIS_CODE":0,"TOWNNAME":"東區","LI":"南聖里","LIN":"8鄰","STREET":"裕農一街","SECT":" ","MAREA":" ","LANE":" ","ALLEY":" ","HOUSE_NO":"１８號","E_COORD97":171901.48000000001,"N_COORD97":2543161.5099999998,"ADDRESS":"裕農一街１８號","OBJECTID":348689},"geometry":{"x":171901.48000000138,"y":2543161.5099999998}},{"attributes":{"ID":348699,"DIS_CODE":0,"TOWNNAME":"官田區","LI":"湖山里","LIN":"18鄰","STREET":" ","SECT":" ","MAREA":"烏山頭","LANE":" ","ALLEY":" ","HOUSE_NO":"１１３號之１","E_COORD97":183493.45000000001,"N_COORD97":2567660.6800000002,"ADDRESS":"烏山頭１１３號之１","OBJECTID":348690},"geometry":{"x":183493.45000000019,"y":2567660.6800000034}},{"attributes":{"ID":348700,"DIS_CODE":0,"TOWNNAME":"官田區","LI":"湖山里","LIN":"18鄰","STREET":" ","SECT":" ","MAREA":"烏山頭","LANE":" ","ALLEY":" ","HOUSE_NO":"１１３號","E_COORD97":183489.09,"N_COORD97":2567672.3700000001,"ADDRESS":"烏山頭１１３號","OBJECTID":348691},"geometry":{"x":183489.08999999985,"y":2567672.3700000029}},{"attributes":{"ID":348701,"DIS_CODE":0,"TOWNNAME":"官田區","LI":"湖山里","LIN":"18鄰","STREET":" ","SECT":" ","MAREA":"烏山頭","LANE":" ","ALLEY":" ","HOUSE_NO":"１１４號","E_COORD97":183475.31,"N_COORD97":2567672.3599999999,"ADDRESS":"烏山頭１１４號","OBJECTID":348692},"geometry":{"x":183475.30999999959,"y":2567672.3600000031}},{"attributes":{"ID":348702,"DIS_CODE":0,"TOWNNAME":"官田區","LI":"湖山里","LIN":"18鄰","STREET":" ","SECT":" ","MAREA":"烏山頭","LANE":" ","ALLEY":" ","HOUSE_NO":"１１５號","E_COORD97":183465.34,"N_COORD97":2567665.9300000002,"ADDRESS":"烏山頭１１５號","OBJECTID":348693},"geometry":{"x":183465.33999999985,"y":2567665.9300000016}},{"attributes":{"ID":348703,"DIS_CODE":0,"TOWNNAME":"官田區","LI":"湖山里","LIN":"18鄰","STREET":" ","SECT":" ","MAREA":"烏山頭","LANE":" ","ALLEY":" ","HOUSE_NO":"１１６號之１","E_COORD97":183458.10000000001,"N_COORD97":2567657.4700000002,"ADDRESS":"烏山頭１１６號之１","OBJECTID":348694},"geometry":{"x":183458.09999999963,"y":2567657.4700000025}},{"attributes":{"ID":348704,"DIS_CODE":0,"TOWNNAME":"官田區","LI":"湖山里","LIN":"18鄰","STREET":" ","SECT":" ","MAREA":"烏山頭","LANE":" ","ALLEY":" ","HOUSE_NO":"１１６號之２","E_COORD97":183453.35000000001,"N_COORD97":2567655.77,"ADDRESS":"烏山頭１１６號之２","OBJECTID":348695},"geometry":{"x":183453.34999999963,"y":2567655.7699999996}},{"attributes":{"ID":348705,"DIS_CODE":0,"TOWNNAME":"官田區","LI":"湖山里","LIN":"18鄰","STREET":" ","SECT":" ","MAREA":"烏山頭","LANE":" ","ALLEY":" ","HOUSE_NO":"１１６號","E_COORD97":183461.17000000001,"N_COORD97":2567658.73,"ADDRESS":"烏山頭１１６號","OBJECTID":348696},"geometry":{"x":183461.16999999993,"y":2567658.7300000023}},{"attributes":{"ID":348706,"DIS_CODE":0,"TOWNNAME":"玉井區","LI":"玉田里","LIN":"6鄰","STREET":"民主街","SECT":" ","MAREA":" ","LANE":"１２０巷","ALLEY":" ","HOUSE_NO":"２號","E_COORD97":195106.07999999999,"N_COORD97":2558139.29,"ADDRESS":"民主街１２０巷２號","OBJECTID":348697},"geometry":{"x":195106.08000000101,"y":2558139.290000001}},{"attributes":{"ID":348707,"DIS_CODE":0,"TOWNNAME":"玉井區","LI":"玉田里","LIN":"6鄰","STREET":"民主街","SECT":" ","MAREA":" ","LANE":"１２９巷","ALLEY":" ","HOUSE_NO":"１號","E_COORD97":195055.17999999999,"N_COORD97":2558186.2799999998,"ADDRESS":"民主街１２９巷１號","OBJECTID":348698},"geometry":{"x":195055.18000000156,"y":2558186.2799999993}},{"attributes":{"ID":348708,"DIS_CODE":0,"TOWNNAME":"玉井區","LI":"玉田里","LIN":"6鄰","STREET":"民主街","SECT":" ","MAREA":" ","LANE":"１２０巷","ALLEY":" ","HOUSE_NO":"８號","E_COORD97":195130.67999999999,"N_COORD97":2558133.29,"ADDRESS":"民主街１２０巷８號","OBJECTID":348699},"geometry":{"x":195130.6799999997,"y":2558133.290000001}},{"attributes":{"ID":348709,"DIS_CODE":0,"TOWNNAME":"學甲區","LI":"明宜里","LIN":"6鄰","STREET":"民權路","SECT":" ","MAREA":" ","LANE":"１５４巷","ALLEY":" ","HOUSE_NO":"２號","E_COORD97":165792.39999999999,"N_COORD97":2570277.0699999998,"ADDRESS":"民權路１５４巷２號","OBJECTID":348700},"geometry":{"x":165792.4000000013,"y":2570277.0700000022}},{"attributes":{"ID":348710,"DIS_CODE":0,"TOWNNAME":"學甲區","LI":"明宜里","LIN":"6鄰","STREET":"民權路","SECT":" ","MAREA":" ","LANE":"１５４巷","ALLEY":" ","HOUSE_NO":"４號","E_COORD97":165794.39999999999,"N_COORD97":2570280.8799999999,"ADDRESS":"民權路１５４巷４號","OBJECTID":348701},"geometry":{"x":165794.4000000013,"y":2570280.879999999}},{"attributes":{"ID":348711,"DIS_CODE":0,"TOWNNAME":"學甲區","LI":"明宜里","LIN":"6鄰","STREET":"民權路","SECT":" ","MAREA":" ","LANE":"１５４巷","ALLEY":" ","HOUSE_NO":"６號","E_COORD97":165796,"N_COORD97":2570284.8900000001,"ADDRESS":"民權路１５４巷６號","OBJECTID":348702},"geometry":{"x":165796.00000000186,"y":2570284.8900000025}},{"attributes":{"ID":348712,"DIS_CODE":0,"TOWNNAME":"學甲區","LI":"明宜里","LIN":"6鄰","STREET":"民權路","SECT":" ","MAREA":" ","LANE":"１５４巷","ALLEY":" ","HOUSE_NO":"８號","E_COORD97":165797.51000000001,"N_COORD97":2570288.0899999999,"ADDRESS":"民權路１５４巷８號","OBJECTID":348703},"geometry":{"x":165797.51000000071,"y":2570288.0899999999}},{"attributes":{"ID":348713,"DIS_CODE":0,"TOWNNAME":"學甲區","LI":"慈福里","LIN":"6鄰","STREET":"民族路","SECT":" ","MAREA":" ","LANE":"３３巷","ALLEY":" ","HOUSE_NO":"１２號","E_COORD97":166503.73999999999,"N_COORD97":2570180.6899999999,"ADDRESS":"民族路３３巷１２號","OBJECTID":348704},"geometry":{"x":166503.74000000115,"y":2570180.6900000013}},{"attributes":{"ID":348714,"DIS_CODE":0,"TOWNNAME":"學甲區","LI":"慈福里","LIN":"6鄰","STREET":"民族路","SECT":" ","MAREA":" ","LANE":"３３巷","ALLEY":" ","HOUSE_NO":"８號","E_COORD97":166531.75,"N_COORD97":2570173.5499999998,"ADDRESS":"民族路３３巷８號","OBJECTID":348705},"geometry":{"x":166531.75000000186,"y":2570173.5500000007}},{"attributes":{"ID":348715,"DIS_CODE":0,"TOWNNAME":"學甲區","LI":"明宜里","LIN":"6鄰","STREET":"民權路","SECT":" ","MAREA":" ","LANE":"１５４巷","ALLEY":" ","HOUSE_NO":"１號","E_COORD97":165786.26999999999,"N_COORD97":2570293.25,"ADDRESS":"民權路１５４巷１號","OBJECTID":348706},"geometry":{"x":165786.26999999955,"y":2570293.25}},{"attributes":{"ID":348716,"DIS_CODE":0,"TOWNNAME":"北區","LI":"裕民里","LIN":"6鄰","STREET":"臨安路","SECT":"二段","MAREA":" ","LANE":"６８巷","ALLEY":" ","HOUSE_NO":"４號","E_COORD97":167677.98999999999,"N_COORD97":2544795.6099999999,"ADDRESS":"臨安路二段６８巷４號","OBJECTID":348707},"geometry":{"x":167677.99000000209,"y":2544795.6099999975}},{"attributes":{"ID":348717,"DIS_CODE":0,"TOWNNAME":"學甲區","LI":"明宜里","LIN":"6鄰","STREET":"宮西路","SECT":" ","MAREA":" ","LANE":"６５巷","ALLEY":" ","HOUSE_NO":"１０號","E_COORD97":165745.73000000001,"N_COORD97":2570370.9399999999,"ADDRESS":"宮西路６５巷１０號","OBJECTID":348708},"geometry":{"x":165745.73000000231,"y":2570370.9400000032}},{"attributes":{"ID":348718,"DIS_CODE":0,"TOWNNAME":"安南區","LI":"州北里","LIN":"18鄰","STREET":"安昌街","SECT":" ","MAREA":" ","LANE":"８５巷","ALLEY":" ","HOUSE_NO":"８３號","E_COORD97":169907.87,"N_COORD97":2552365.8700000001,"ADDRESS":"安昌街８５巷８３號","OBJECTID":348709},"geometry":{"x":169907.87000000197,"y":2552365.870000001}},{"attributes":{"ID":348719,"DIS_CODE":0,"TOWNNAME":"安南區","LI":"州北里","LIN":"18鄰","STREET":"安昌街","SECT":" ","MAREA":" ","LANE":"８５巷","ALLEY":" ","HOUSE_NO":"８５號","E_COORD97":169907.41,"N_COORD97":2552370.5600000001,"ADDRESS":"安昌街８５巷８５號","OBJECTID":348710},"geometry":{"x":169907.41000000015,"y":2552370.5600000005}},{"attributes":{"ID":348720,"DIS_CODE":0,"TOWNNAME":"安南區","LI":"州北里","LIN":"18鄰","STREET":"安昌街","SECT":" ","MAREA":" ","LANE":"８５巷","ALLEY":" ","HOUSE_NO":"８７號","E_COORD97":169906.95999999999,"N_COORD97":2552374.4100000001,"ADDRESS":"安昌街８５巷８７號","OBJECTID":348711},"geometry":{"x":169906.95999999903,"y":2552374.4100000001}},{"attributes":{"ID":348721,"DIS_CODE":0,"TOWNNAME":"安南區","LI":"州北里","LIN":"18鄰","STREET":"安昌街","SECT":" ","MAREA":" ","LANE":"８５巷","ALLEY":" ","HOUSE_NO":"８９號","E_COORD97":169906.73000000001,"N_COORD97":2552378.8199999998,"ADDRESS":"安昌街８５巷８９號","OBJECTID":348712},"geometry":{"x":169906.73000000045,"y":2552378.8200000003}},{"attributes":{"ID":348722,"DIS_CODE":0,"TOWNNAME":"安南區","LI":"州北里","LIN":"18鄰","STREET":"安昌街","SECT":" ","MAREA":" ","LANE":"８５巷","ALLEY":" ","HOUSE_NO":"９１號","E_COORD97":169906.51000000001,"N_COORD97":2552382.8900000001,"ADDRESS":"安昌街８５巷９１號","OBJECTID":348713},"geometry":{"x":169906.51000000164,"y":2552382.8900000043}},{"attributes":{"ID":348723,"DIS_CODE":0,"TOWNNAME":"安南區","LI":"州北里","LIN":"18鄰","STREET":"安昌街","SECT":" ","MAREA":" ","LANE":"８５巷","ALLEY":" ","HOUSE_NO":"９３號","E_COORD97":169906.62,"N_COORD97":2552387.4100000001,"ADDRESS":"安昌街８５巷９３號","OBJECTID":348714},"geometry":{"x":169906.62000000104,"y":2552387.4100000001}},{"attributes":{"ID":348724,"DIS_CODE":0,"TOWNNAME":"安南區","LI":"州北里","LIN":"18鄰","STREET":"安昌街","SECT":" ","MAREA":" ","LANE":"８５巷","ALLEY":" ","HOUSE_NO":"９５號","E_COORD97":169906.28,"N_COORD97":2552392.3900000001,"ADDRESS":"安昌街８５巷９５號","OBJECTID":348715},"geometry":{"x":169906.28000000026,"y":2552392.3900000006}},{"attributes":{"ID":348725,"DIS_CODE":0,"TOWNNAME":"安南區","LI":"州北里","LIN":"18鄰","STREET":"安昌街","SECT":" ","MAREA":" ","LANE":"８５巷","ALLEY":" ","HOUSE_NO":"９９號","E_COORD97":169906.39000000001,"N_COORD97":2552411.9199999999,"ADDRESS":"安昌街８５巷９９號","OBJECTID":348716},"geometry":{"x":169906.38999999966,"y":2552411.9199999999}},{"attributes":{"ID":348726,"DIS_CODE":0,"TOWNNAME":"安南區","LI":"海東里","LIN":"18鄰","STREET":"海佃路","SECT":"二段","MAREA":" ","LANE":"３０７巷","ALLEY":" ","HOUSE_NO":"１２號","E_COORD97":166752.26999999999,"N_COORD97":2548680.4700000002,"ADDRESS":"海佃路二段３０７巷１２號","OBJECTID":348717},"geometry":{"x":166752.27000000048,"y":2548680.4700000025}},{"attributes":{"ID":348727,"DIS_CODE":0,"TOWNNAME":"安南區","LI":"海東里","LIN":"18鄰","STREET":"海佃路","SECT":"二段","MAREA":" ","LANE":"３０７巷","ALLEY":" ","HOUSE_NO":"１４號","E_COORD97":166749.16,"N_COORD97":2548686.27,"ADDRESS":"海佃路二段３０７巷１４號","OBJECTID":348718},"geometry":{"x":166749.16000000015,"y":2548686.2699999996}},{"attributes":{"ID":348728,"DIS_CODE":0,"TOWNNAME":"安南區","LI":"海東里","LIN":"18鄰","STREET":"海佃路","SECT":"二段","MAREA":" ","LANE":"３０７巷","ALLEY":" ","HOUSE_NO":"１６號","E_COORD97":166746.35999999999,"N_COORD97":2548693.1299999999,"ADDRESS":"海佃路二段３０７巷１６號","OBJECTID":348719},"geometry":{"x":166746.36000000034,"y":2548693.129999999}},{"attributes":{"ID":348729,"DIS_CODE":0,"TOWNNAME":"學甲區","LI":"明宜里","LIN":"6鄰","STREET":"宮西路","SECT":" ","MAREA":" ","LANE":"６５巷","ALLEY":" ","HOUSE_NO":"１１號","E_COORD97":165767.42999999999,"N_COORD97":2570372.4399999999,"ADDRESS":"宮西路６５巷１１號","OBJECTID":348720},"geometry":{"x":165767.43000000156,"y":2570372.4399999995}},{"attributes":{"ID":348730,"DIS_CODE":0,"TOWNNAME":"學甲區","LI":"明宜里","LIN":"6鄰","STREET":"宮西路","SECT":" ","MAREA":" ","LANE":"６５巷","ALLEY":" ","HOUSE_NO":"１２號","E_COORD97":165747.48000000001,"N_COORD97":2570367.27,"ADDRESS":"宮西路６５巷１２號","OBJECTID":348721},"geometry":{"x":165747.48000000231,"y":2570367.2699999996}},{"attributes":{"ID":348731,"DIS_CODE":0,"TOWNNAME":"學甲區","LI":"明宜里","LIN":"6鄰","STREET":"宮西路","SECT":" ","MAREA":" ","LANE":"６５巷","ALLEY":" ","HOUSE_NO":"１３號","E_COORD97":165769.34,"N_COORD97":2570369.0800000001,"ADDRESS":"宮西路６５巷１３號","OBJECTID":348722},"geometry":{"x":165769.33999999985,"y":2570369.0800000001}},{"attributes":{"ID":348732,"DIS_CODE":0,"TOWNNAME":"東區","LI":"崇德里","LIN":"8鄰","STREET":"崇善路","SECT":" ","MAREA":" ","LANE":" ","ALLEY":" ","HOUSE_NO":"３６８號","E_COORD97":170919.28,"N_COORD97":2541751.6499999999,"ADDRESS":"崇善路３６８號","OBJECTID":348723},"geometry":{"x":170919.28000000119,"y":2541751.6500000004}},{"attributes":{"ID":348733,"DIS_CODE":0,"TOWNNAME":"東區","LI":"崇德里","LIN":"8鄰","STREET":"崇善路","SECT":" ","MAREA":" ","LANE":" ","ALLEY":" ","HOUSE_NO":"３７０號","E_COORD97":170920.34,"N_COORD97":2541747.3700000001,"ADDRESS":"崇善路３７０號","OBJECTID":348724},"geometry":{"x":170920.34000000078,"y":2541747.370000001}},{"attributes":{"ID":348734,"DIS_CODE":0,"TOWNNAME":"東區","LI":"崇德里","LIN":"8鄰","STREET":"崇善路","SECT":" ","MAREA":" ","LANE":" ","ALLEY":" ","HOUSE_NO":"３７２號","E_COORD97":170921.12,"N_COORD97":2541743.8399999999,"ADDRESS":"崇善路３７２號","OBJECTID":348725},"geometry":{"x":170921.12000000011,"y":2541743.8400000017}},{"attributes":{"ID":348735,"DIS_CODE":0,"TOWNNAME":"東區","LI":"崇德里","LIN":"8鄰","STREET":"崇善路","SECT":" ","MAREA":" ","LANE":" ","ALLEY":" ","HOUSE_NO":"３７４號","E_COORD97":170922.57000000001,"N_COORD97":2541739.0800000001,"ADDRESS":"崇善路３７４號","OBJECTID":348726},"geometry":{"x":170922.57000000123,"y":2541739.0800000019}},{"attributes":{"ID":348736,"DIS_CODE":0,"TOWNNAME":"東區","LI":"崇德里","LIN":"8鄰","STREET":"崇善路","SECT":" ","MAREA":" ","LANE":" ","ALLEY":" ","HOUSE_NO":"３７６號","E_COORD97":170924.23000000001,"N_COORD97":2541735.0299999998,"ADDRESS":"崇善路３７６號","OBJECTID":348727},"geometry":{"x":170924.23000000045,"y":2541735.0300000031}},{"attributes":{"ID":348737,"DIS_CODE":0,"TOWNNAME":"安南區","LI":"海東里","LIN":"18鄰","STREET":"海佃路","SECT":"二段","MAREA":" ","LANE":"３０７巷","ALLEY":" ","HOUSE_NO":"１３號","E_COORD97":166761.13916300001,"N_COORD97":2548663.9663499999,"ADDRESS":"海佃路二段３０７巷１３號","OBJECTID":348728},"geometry":{"x":166761.13916300051,"y":2548663.9663529992}},{"attributes":{"ID":348738,"DIS_CODE":0,"TOWNNAME":"安南區","LI":"海東里","LIN":"18鄰","STREET":"海佃路","SECT":"二段","MAREA":" ","LANE":"３０７巷","ALLEY":" ","HOUSE_NO":"１１號","E_COORD97":166764.52767400001,"N_COORD97":2548666.71802,"ADDRESS":"海佃路二段３０７巷１１號","OBJECTID":348729},"geometry":{"x":166764.52767400164,"y":2548666.7180179991}},{"attributes":{"ID":348739,"DIS_CODE":0,"TOWNNAME":"東區","LI":"崇德里","LIN":"8鄰","STREET":"崇善路","SECT":" ","MAREA":" ","LANE":" ","ALLEY":" ","HOUSE_NO":"３７８號","E_COORD97":170925.07999999999,"N_COORD97":2541730.5699999998,"ADDRESS":"崇善路３７８號","OBJECTID":348730},"geometry":{"x":170925.08000000194,"y":2541730.5700000003}},{"attributes":{"ID":348740,"DIS_CODE":0,"TOWNNAME":"東區","LI":"崇德里","LIN":"8鄰","STREET":"崇善路","SECT":" ","MAREA":" ","LANE":" ","ALLEY":" ","HOUSE_NO":"３８０號","E_COORD97":170926.79999999999,"N_COORD97":2541726.6800000002,"ADDRESS":"崇善路３８０號","OBJECTID":348731},"geometry":{"x":170926.80000000168,"y":2541726.6799999997}},{"attributes":{"ID":348741,"DIS_CODE":0,"TOWNNAME":"東區","LI":"崇德里","LIN":"8鄰","STREET":"崇善路","SECT":" ","MAREA":" ","LANE":" ","ALLEY":" ","HOUSE_NO":"３８２號","E_COORD97":170927.57999999999,"N_COORD97":2541722.4700000002,"ADDRESS":"崇善路３８２號","OBJECTID":348732},"geometry":{"x":170927.58000000101,"y":2541722.4700000007}},{"attributes":{"ID":348742,"DIS_CODE":0,"TOWNNAME":"東區","LI":"崇德里","LIN":"8鄰","STREET":"崇善路","SECT":" ","MAREA":" ","LANE":" ","ALLEY":" ","HOUSE_NO":"３８４號","E_COORD97":170928.67000000001,"N_COORD97":2541718.5800000001,"ADDRESS":"崇善路３８４號","OBJECTID":348733},"geometry":{"x":170928.66999999993,"y":2541718.5800000038}},{"attributes":{"ID":348743,"DIS_CODE":0,"TOWNNAME":"東區","LI":"崇德里","LIN":"8鄰","STREET":"崇善路","SECT":" ","MAREA":" ","LANE":" ","ALLEY":" ","HOUSE_NO":"３８６號","E_COORD97":170929.45000000001,"N_COORD97":2541714.6899999999,"ADDRESS":"崇善路３８６號","OBJECTID":348734},"geometry":{"x":170929.44999999925,"y":2541714.6900000013}},{"attributes":{"ID":348744,"DIS_CODE":0,"TOWNNAME":"東區","LI":"崇德里","LIN":"8鄰","STREET":"崇善路","SECT":" ","MAREA":" ","LANE":" ","ALLEY":" ","HOUSE_NO":"３８８號","E_COORD97":170931,"N_COORD97":2541710.02,"ADDRESS":"崇善路３８８號","OBJECTID":348735},"geometry":{"x":170931.00000000093,"y":2541710.0199999996}},{"attributes":{"ID":348745,"DIS_CODE":0,"TOWNNAME":"東區","LI":"崇德里","LIN":"8鄰","STREET":"崇善路","SECT":" ","MAREA":" ","LANE":" ","ALLEY":" ","HOUSE_NO":"３９０號","E_COORD97":170932.10000000001,"N_COORD97":2541705.6499999999,"ADDRESS":"崇善路３９０號","OBJECTID":348736},"geometry":{"x":170932.10000000056,"y":2541705.6500000022}},{"attributes":{"ID":348746,"DIS_CODE":0,"TOWNNAME":"東區","LI":"崇德里","LIN":"8鄰","STREET":"崇善路","SECT":" ","MAREA":" ","LANE":" ","ALLEY":" ","HOUSE_NO":"３９２號","E_COORD97":170933.03,"N_COORD97":2541701.7599999998,"ADDRESS":"崇善路３９２號","OBJECTID":348737},"geometry":{"x":170933.03000000119,"y":2541701.7599999998}},{"attributes":{"ID":348747,"DIS_CODE":0,"TOWNNAME":"東區","LI":"崇德里","LIN":"8鄰","STREET":"崇善路","SECT":" ","MAREA":" ","LANE":" ","ALLEY":" ","HOUSE_NO":"３９４號","E_COORD97":170933.34,"N_COORD97":2541696.7799999998,"ADDRESS":"崇善路３９４號","OBJECTID":348738},"geometry":{"x":170933.34000000171,"y":2541696.7800000012}},{"attributes":{"ID":348748,"DIS_CODE":0,"TOWNNAME":"東區","LI":"崇德里","LIN":"8鄰","STREET":"崇善路","SECT":" ","MAREA":" ","LANE":" ","ALLEY":" ","HOUSE_NO":"３９６號","E_COORD97":170934.42999999999,"N_COORD97":2541692.8799999999,"ADDRESS":"崇善路３９６號","OBJECTID":348739},"geometry":{"x":170934.43000000063,"y":2541692.8800000008}},{"attributes":{"ID":348749,"DIS_CODE":0,"TOWNNAME":"東區","LI":"崇德里","LIN":"8鄰","STREET":"崇善路","SECT":" ","MAREA":" ","LANE":" ","ALLEY":" ","HOUSE_NO":"３９８號","E_COORD97":170935.98999999999,"N_COORD97":2541688.8300000001,"ADDRESS":"崇善路３９８號","OBJECTID":348740},"geometry":{"x":170935.98999999929,"y":2541688.8300000001}},{"attributes":{"ID":348750,"DIS_CODE":0,"TOWNNAME":"安南區","LI":"海東里","LIN":"18鄰","STREET":"海佃路","SECT":"二段","MAREA":" ","LANE":"３０７巷","ALLEY":" ","HOUSE_NO":"３５號","E_COORD97":166718.67999999999,"N_COORD97":2548698.6699999999,"ADDRESS":"海佃路二段３０７巷３５號","OBJECTID":348741},"geometry":{"x":166718.68000000063,"y":2548698.6700000018}},{"attributes":{"ID":348751,"DIS_CODE":0,"TOWNNAME":"安南區","LI":"海東里","LIN":"18鄰","STREET":"海佃路","SECT":"二段","MAREA":" ","LANE":"３０７巷","ALLEY":" ","HOUSE_NO":"３７號","E_COORD97":166718.14999999999,"N_COORD97":2548703.8500000001,"ADDRESS":"海佃路二段３０７巷３７號","OBJECTID":348742},"geometry":{"x":166718.1500000013,"y":2548703.8500000034}},{"attributes":{"ID":348752,"DIS_CODE":0,"TOWNNAME":"安南區","LI":"海東里","LIN":"18鄰","STREET":"海佃路","SECT":"二段","MAREA":" ","LANE":"３０７巷","ALLEY":" ","HOUSE_NO":"３９號","E_COORD97":166717.95999999999,"N_COORD97":2548707.8500000001,"ADDRESS":"海佃路二段３０７巷３９號","OBJECTID":348743},"geometry":{"x":166717.95999999996,"y":2548707.8500000015}},{"attributes":{"ID":348753,"DIS_CODE":0,"TOWNNAME":"學甲區","LI":"明宜里","LIN":"6鄰","STREET":"宮西路","SECT":" ","MAREA":" ","LANE":"６５巷","ALLEY":" ","HOUSE_NO":"１４號","E_COORD97":165749.23000000001,"N_COORD97":2570363.5899999999,"ADDRESS":"宮西路６５巷１４號","OBJECTID":348744},"geometry":{"x":165749.23000000231,"y":2570363.5900000036}},{"attributes":{"ID":348754,"DIS_CODE":0,"TOWNNAME":"學甲區","LI":"明宜里","LIN":"6鄰","STREET":"宮西路","SECT":" ","MAREA":" ","LANE":"６５巷","ALLEY":" ","HOUSE_NO":"１５號","E_COORD97":165771.10000000001,"N_COORD97":2570365.2799999998,"ADDRESS":"宮西路６５巷１５號","OBJECTID":348745},"geometry":{"x":165771.10000000149,"y":2570365.2800000012}},{"attributes":{"ID":348755,"DIS_CODE":0,"TOWNNAME":"學甲區","LI":"明宜里","LIN":"6鄰","STREET":"宮西路","SECT":" ","MAREA":" ","LANE":"６５巷","ALLEY":" ","HOUSE_NO":"１６號","E_COORD97":165750.98000000001,"N_COORD97":2570359.9199999999,"ADDRESS":"宮西路６５巷１６號","OBJECTID":348746},"geometry":{"x":165750.98000000138,"y":2570359.9199999999}},{"attributes":{"ID":348756,"DIS_CODE":0,"TOWNNAME":"學甲區","LI":"明宜里","LIN":"6鄰","STREET":"宮西路","SECT":" ","MAREA":" ","LANE":"６５巷","ALLEY":" ","HOUSE_NO":"１７號","E_COORD97":165772.95999999999,"N_COORD97":2570361.52,"ADDRESS":"宮西路６５巷１７號","OBJECTID":348747},"geometry":{"x":165772.96000000089,"y":2570361.5200000014}},{"attributes":{"ID":348757,"DIS_CODE":0,"TOWNNAME":"學甲區","LI":"明宜里","LIN":"6鄰","STREET":"宮西路","SECT":" ","MAREA":" ","LANE":"６５巷","ALLEY":" ","HOUSE_NO":"１８號","E_COORD97":165752.73000000001,"N_COORD97":2570356.25,"ADDRESS":"宮西路６５巷１８號","OBJECTID":348748},"geometry":{"x":165752.73000000138,"y":2570356.2500000019}},{"attributes":{"ID":348758,"DIS_CODE":0,"TOWNNAME":"學甲區","LI":"明宜里","LIN":"6鄰","STREET":"宮西路","SECT":" ","MAREA":" ","LANE":"６５巷","ALLEY":" ","HOUSE_NO":"１９號","E_COORD97":165774.73000000001,"N_COORD97":2570358.0299999998,"ADDRESS":"宮西路６５巷１９號","OBJECTID":348749},"geometry":{"x":165774.73000000138,"y":2570358.0300000012}},{"attributes":{"ID":348759,"DIS_CODE":0,"TOWNNAME":"學甲區","LI":"明宜里","LIN":"6鄰","STREET":"宮西路","SECT":" ","MAREA":" ","LANE":"６５巷","ALLEY":" ","HOUSE_NO":"１號","E_COORD97":165759.31,"N_COORD97":2570390.1000000001,"ADDRESS":"宮西路６５巷１號","OBJECTID":348750},"geometry":{"x":165759.30999999959,"y":2570390.1000000034}},{"attributes":{"ID":348760,"DIS_CODE":0,"TOWNNAME":"學甲區","LI":"明宜里","LIN":"6鄰","STREET":"宮西路","SECT":" ","MAREA":" ","LANE":"６５巷","ALLEY":" ","HOUSE_NO":"２０號","E_COORD97":165754.48000000001,"N_COORD97":2570352.5800000001,"ADDRESS":"宮西路６５巷２０號","OBJECTID":348751},"geometry":{"x":165754.48000000138,"y":2570352.5800000001}},{"attributes":{"ID":348761,"DIS_CODE":0,"TOWNNAME":"學甲區","LI":"明宜里","LIN":"6鄰","STREET":"宮西路","SECT":" ","MAREA":" ","LANE":"６５巷","ALLEY":" ","HOUSE_NO":"２１號","E_COORD97":165776.14000000001,"N_COORD97":2570354.7999999998,"ADDRESS":"宮西路６５巷２１號","OBJECTID":348752},"geometry":{"x":165776.14000000153,"y":2570354.8000000007}},{"attributes":{"ID":348762,"DIS_CODE":0,"TOWNNAME":"學甲區","LI":"明宜里","LIN":"6鄰","STREET":"宮西路","SECT":" ","MAREA":" ","LANE":"６５巷","ALLEY":" ","HOUSE_NO":"２２號","E_COORD97":165756.23000000001,"N_COORD97":2570348.9100000001,"ADDRESS":"宮西路６５巷２２號","OBJECTID":348753},"geometry":{"x":165756.23000000138,"y":2570348.910000002}},{"attributes":{"ID":348763,"DIS_CODE":0,"TOWNNAME":"學甲區","LI":"明宜里","LIN":"6鄰","STREET":"宮西路","SECT":" ","MAREA":" ","LANE":"６５巷","ALLEY":" ","HOUSE_NO":"２３號","E_COORD97":165777.94,"N_COORD97":2570351.3300000001,"ADDRESS":"宮西路６５巷２３號","OBJECTID":348754},"geometry":{"x":165777.94000000041,"y":2570351.3300000001}},{"attributes":{"ID":348764,"DIS_CODE":0,"TOWNNAME":"學甲區","LI":"明宜里","LIN":"6鄰","STREET":"宮西路","SECT":" ","MAREA":" ","LANE":"６５巷","ALLEY":" ","HOUSE_NO":"２４號","E_COORD97":165757.97,"N_COORD97":2570345.23,"ADDRESS":"宮西路６５巷２４號","OBJECTID":348755},"geometry":{"x":165757.96999999974,"y":2570345.2300000004}},{"attributes":{"ID":348765,"DIS_CODE":0,"TOWNNAME":"學甲區","LI":"明宜里","LIN":"6鄰","STREET":"宮西路","SECT":" ","MAREA":" ","LANE":"６５巷","ALLEY":" ","HOUSE_NO":"２５號","E_COORD97":165779.85999999999,"N_COORD97":2570347.7200000002,"ADDRESS":"宮西路６５巷２５號","OBJECTID":348756},"geometry":{"x":165779.86000000034,"y":2570347.7200000025}},{"attributes":{"ID":348766,"DIS_CODE":0,"TOWNNAME":"學甲區","LI":"明宜里","LIN":"6鄰","STREET":"宮西路","SECT":" ","MAREA":" ","LANE":"６５巷","ALLEY":" ","HOUSE_NO":"２６號","E_COORD97":165759.72,"N_COORD97":2570341.5600000001,"ADDRESS":"宮西路６５巷２６號","OBJECTID":348757},"geometry":{"x":165759.71999999974,"y":2570341.5600000024}},{"attributes":{"ID":348767,"DIS_CODE":0,"TOWNNAME":"學甲區","LI":"明宜里","LIN":"6鄰","STREET":"宮西路","SECT":" ","MAREA":" ","LANE":"６５巷","ALLEY":" ","HOUSE_NO":"２７號","E_COORD97":165781.64000000001,"N_COORD97":2570344.21,"ADDRESS":"宮西路６５巷２７號","OBJECTID":348758},"geometry":{"x":165781.6400000006,"y":2570344.2100000028}},{"attributes":{"ID":348768,"DIS_CODE":0,"TOWNNAME":"學甲區","LI":"明宜里","LIN":"6鄰","STREET":"宮西路","SECT":" ","MAREA":" ","LANE":"６５巷","ALLEY":" ","HOUSE_NO":"２８號","E_COORD97":165761.47,"N_COORD97":2570337.8900000001,"ADDRESS":"宮西路６５巷２８號","OBJECTID":348759},"geometry":{"x":165761.46999999974,"y":2570337.8900000006}},{"attributes":{"ID":348769,"DIS_CODE":0,"TOWNNAME":"學甲區","LI":"明宜里","LIN":"6鄰","STREET":"宮西路","SECT":" ","MAREA":" ","LANE":"６５巷","ALLEY":" ","HOUSE_NO":"２號","E_COORD97":165738.73999999999,"N_COORD97":2570385.6299999999,"ADDRESS":"宮西路６５巷２號","OBJECTID":348760},"geometry":{"x":165738.74000000209,"y":2570385.6299999971}},{"attributes":{"ID":348770,"DIS_CODE":0,"TOWNNAME":"學甲區","LI":"明宜里","LIN":"6鄰","STREET":"宮西路","SECT":" ","MAREA":" ","LANE":"６５巷","ALLEY":" ","HOUSE_NO":"３０號","E_COORD97":165763.22,"N_COORD97":2570334.2200000002,"ADDRESS":"宮西路６５巷３０號","OBJECTID":348761},"geometry":{"x":165763.21999999974,"y":2570334.2200000025}},{"attributes":{"ID":348771,"DIS_CODE":0,"TOWNNAME":"學甲區","LI":"明宜里","LIN":"6鄰","STREET":"宮西路","SECT":" ","MAREA":" ","LANE":"６５巷","ALLEY":" ","HOUSE_NO":"３號","E_COORD97":165760.59,"N_COORD97":2570386.3100000001,"ADDRESS":"宮西路６５巷３號","OBJECTID":348762},"geometry":{"x":165760.58999999985,"y":2570386.3100000042}},{"attributes":{"ID":348772,"DIS_CODE":0,"TOWNNAME":"東區","LI":"崇德里","LIN":"8鄰","STREET":"崇善路","SECT":" ","MAREA":" ","LANE":" ","ALLEY":" ","HOUSE_NO":"４００號","E_COORD97":170936.45999999999,"N_COORD97":2541684.6299999999,"ADDRESS":"崇善路４００號","OBJECTID":348763},"geometry":{"x":170936.46000000089,"y":2541684.629999999}},{"attributes":{"ID":348773,"DIS_CODE":0,"TOWNNAME":"東區","LI":"崇德里","LIN":"8鄰","STREET":"崇善路","SECT":" ","MAREA":" ","LANE":" ","ALLEY":" ","HOUSE_NO":"４０２號","E_COORD97":170937.23999999999,"N_COORD97":2541679.96,"ADDRESS":"崇善路４０２號","OBJECTID":348764},"geometry":{"x":170937.24000000022,"y":2541679.9600000028}},{"attributes":{"ID":348774,"DIS_CODE":0,"TOWNNAME":"東區","LI":"崇德里","LIN":"8鄰","STREET":"崇善路","SECT":" ","MAREA":" ","LANE":" ","ALLEY":" ","HOUSE_NO":"４１６號","E_COORD97":170947.79000000001,"N_COORD97":2541638.5299999998,"ADDRESS":"崇善路４１６號","OBJECTID":348765},"geometry":{"x":170947.79000000097,"y":2541638.5299999993}},{"attributes":{"ID":348775,"DIS_CODE":0,"TOWNNAME":"學甲區","LI":"明宜里","LIN":"6鄰","STREET":"宮西路","SECT":" ","MAREA":" ","LANE":"６５巷","ALLEY":" ","HOUSE_NO":"４號","E_COORD97":165740.48999999999,"N_COORD97":2570381.9500000002,"ADDRESS":"宮西路６５巷４號","OBJECTID":348766},"geometry":{"x":165740.49000000115,"y":2570381.9500000011}},{"attributes":{"ID":348776,"DIS_CODE":0,"TOWNNAME":"學甲區","LI":"明宜里","LIN":"6鄰","STREET":"宮西路","SECT":" ","MAREA":" ","LANE":"６５巷","ALLEY":" ","HOUSE_NO":"５號","E_COORD97":165762.64999999999,"N_COORD97":2570382.8999999999,"ADDRESS":"宮西路６５巷５號","OBJECTID":348767},"geometry":{"x":165762.65000000037,"y":2570382.9000000022}},{"attributes":{"ID":348777,"DIS_CODE":0,"TOWNNAME":"學甲區","LI":"明宜里","LIN":"6鄰","STREET":"宮西路","SECT":" ","MAREA":" ","LANE":"６５巷","ALLEY":" ","HOUSE_NO":"６號","E_COORD97":165742.23000000001,"N_COORD97":2570378.2799999998,"ADDRESS":"宮西路６５巷６號","OBJECTID":348768},"geometry":{"x":165742.22999999952,"y":2570378.2799999975}},{"attributes":{"ID":348778,"DIS_CODE":0,"TOWNNAME":"北區","LI":"裕民里","LIN":"6鄰","STREET":"臨安路","SECT":"二段","MAREA":" ","LANE":"６８巷","ALLEY":" ","HOUSE_NO":"１３號","E_COORD97":167702.97,"N_COORD97":2544784.0600000001,"ADDRESS":"臨安路二段６８巷１３號","OBJECTID":348769},"geometry":{"x":167702.9700000016,"y":2544784.0600000042}},{"attributes":{"ID":348779,"DIS_CODE":0,"TOWNNAME":"北區","LI":"裕民里","LIN":"6鄰","STREET":"臨安路","SECT":"二段","MAREA":" ","LANE":"６８巷","ALLEY":" ","HOUSE_NO":"１５號","E_COORD97":167696.48000000001,"N_COORD97":2544781.4500000002,"ADDRESS":"臨安路二段６８巷１５號","OBJECTID":348770},"geometry":{"x":167696.48000000045,"y":2544781.4500000011}},{"attributes":{"ID":348780,"DIS_CODE":0,"TOWNNAME":"北區","LI":"裕民里","LIN":"6鄰","STREET":"臨安路","SECT":"二段","MAREA":" ","LANE":"６８巷","ALLEY":" ","HOUSE_NO":"１７號","E_COORD97":167694.89000000001,"N_COORD97":2544777.3399999999,"ADDRESS":"臨安路二段６８巷１７號","OBJECTID":348771},"geometry":{"x":167694.88999999873,"y":2544777.3399999999}},{"attributes":{"ID":348781,"DIS_CODE":0,"TOWNNAME":"北區","LI":"裕民里","LIN":"6鄰","STREET":"臨安路","SECT":"二段","MAREA":" ","LANE":"６８巷","ALLEY":" ","HOUSE_NO":"１９號","E_COORD97":167689.47,"N_COORD97":2544774.3100000001,"ADDRESS":"臨安路二段６８巷１９號","OBJECTID":348772},"geometry":{"x":167689.4700000016,"y":2544774.3100000005}},{"attributes":{"ID":348782,"DIS_CODE":0,"TOWNNAME":"北區","LI":"裕民里","LIN":"6鄰","STREET":"臨安路","SECT":"二段","MAREA":" ","LANE":"６８巷","ALLEY":" ","HOUSE_NO":"１號","E_COORD97":167704.03,"N_COORD97":2544804.1000000001,"ADDRESS":"臨安路二段６８巷１號","OBJECTID":348773},"geometry":{"x":167704.03000000026,"y":2544804.1000000015}},{"attributes":{"ID":348783,"DIS_CODE":0,"TOWNNAME":"北區","LI":"裕民里","LIN":"6鄰","STREET":"臨安路","SECT":"二段","MAREA":" ","LANE":"６８巷","ALLEY":" ","HOUSE_NO":"２號","E_COORD97":167682.76999999999,"N_COORD97":2544802.4900000002,"ADDRESS":"臨安路二段６８巷２號","OBJECTID":348774},"geometry":{"x":167682.77000000048,"y":2544802.4900000021}},{"attributes":{"ID":348784,"DIS_CODE":0,"TOWNNAME":"北區","LI":"裕民里","LIN":"6鄰","STREET":"臨安路","SECT":"二段","MAREA":" ","LANE":"６８巷","ALLEY":" ","HOUSE_NO":"３號","E_COORD97":167702.97,"N_COORD97":2544799.1800000002,"ADDRESS":"臨安路二段６８巷３號","OBJECTID":348775},"geometry":{"x":167702.9700000016,"y":2544799.1800000034}},{"attributes":{"ID":348785,"DIS_CODE":0,"TOWNNAME":"北區","LI":"裕民里","LIN":"6鄰","STREET":"臨安路","SECT":"二段","MAREA":" ","LANE":"６８巷","ALLEY":" ","HOUSE_NO":"５號","E_COORD97":167700.51000000001,"N_COORD97":2544794.96,"ADDRESS":"臨安路二段６８巷５號","OBJECTID":348776},"geometry":{"x":167700.50999999978,"y":2544794.9600000046}},{"attributes":{"ID":348786,"DIS_CODE":0,"TOWNNAME":"北區","LI":"裕民里","LIN":"6鄰","STREET":"臨安路","SECT":"二段","MAREA":" ","LANE":"６８巷","ALLEY":" ","HOUSE_NO":"６號","E_COORD97":167675.12,"N_COORD97":2544788.9199999999,"ADDRESS":"臨安路二段６８巷６號","OBJECTID":348777},"geometry":{"x":167675.11999999918,"y":2544788.9200000018}},{"attributes":{"ID":348787,"DIS_CODE":0,"TOWNNAME":"北區","LI":"裕民里","LIN":"6鄰","STREET":"臨安路","SECT":"二段","MAREA":" ","LANE":"６８巷","ALLEY":" ","HOUSE_NO":"７號","E_COORD97":167700.16,"N_COORD97":2544791.0899999999,"ADDRESS":"臨安路二段６８巷７號","OBJECTID":348778},"geometry":{"x":167700.16000000015,"y":2544791.0900000017}},{"attributes":{"ID":348788,"DIS_CODE":0,"TOWNNAME":"北區","LI":"裕民里","LIN":"6鄰","STREET":"臨安路","SECT":"二段","MAREA":" ","LANE":"６８巷","ALLEY":" ","HOUSE_NO":"９號","E_COORD97":167690.64999999999,"N_COORD97":2544788.2799999998,"ADDRESS":"臨安路二段６８巷９號","OBJECTID":348779},"geometry":{"x":167690.65000000224,"y":2544788.2800000012}},{"attributes":{"ID":348789,"DIS_CODE":0,"TOWNNAME":"北區","LI":"和順里","LIN":"6鄰","STREET":"西門路","SECT":"四段","MAREA":" ","LANE":"１巷","ALLEY":" ","HOUSE_NO":"２１號","E_COORD97":168348.94,"N_COORD97":2545292.98,"ADDRESS":"西門路四段１巷２１號","OBJECTID":348780},"geometry":{"x":168348.94000000041,"y":2545292.9800000042}},{"attributes":{"ID":348790,"DIS_CODE":0,"TOWNNAME":"北區","LI":"和順里","LIN":"6鄰","STREET":"西門路","SECT":"四段","MAREA":" ","LANE":"１巷","ALLEY":" ","HOUSE_NO":"２３號","E_COORD97":168341.26999999999,"N_COORD97":2545298.0499999998,"ADDRESS":"西門路四段１巷２３號","OBJECTID":348781},"geometry":{"x":168341.26999999955,"y":2545298.0500000007}},{"attributes":{"ID":348791,"DIS_CODE":0,"TOWNNAME":"北區","LI":"和順里","LIN":"6鄰","STREET":"育德路","SECT":" ","MAREA":" ","LANE":"３５巷","ALLEY":" ","HOUSE_NO":"１０號","E_COORD97":168305.82000000001,"N_COORD97":2545259.8100000001,"ADDRESS":"育德路３５巷１０號","OBJECTID":348782},"geometry":{"x":168305.8200000003,"y":2545259.8100000005}},{"attributes":{"ID":348792,"DIS_CODE":0,"TOWNNAME":"北區","LI":"和順里","LIN":"6鄰","STREET":"育德路","SECT":" ","MAREA":" ","LANE":"３５巷","ALLEY":" ","HOUSE_NO":"１１號","E_COORD97":168293.76999999999,"N_COORD97":2545244.0699999998,"ADDRESS":"育德路３５巷１１號","OBJECTID":348783},"geometry":{"x":168293.76999999955,"y":2545244.0700000003}},{"attributes":{"ID":348793,"DIS_CODE":0,"TOWNNAME":"北區","LI":"和順里","LIN":"6鄰","STREET":"育德路","SECT":" ","MAREA":" ","LANE":"３５巷","ALLEY":" ","HOUSE_NO":"２號","E_COORD97":168325,"N_COORD97":2545246.1600000001,"ADDRESS":"育德路３５巷２號","OBJECTID":348784},"geometry":{"x":168325,"y":2545246.1600000001}},{"attributes":{"ID":348794,"DIS_CODE":0,"TOWNNAME":"北區","LI":"和順里","LIN":"6鄰","STREET":"育德路","SECT":" ","MAREA":" ","LANE":"３５巷","ALLEY":" ","HOUSE_NO":"３號","E_COORD97":168309.07000000001,"N_COORD97":2545232.6400000001,"ADDRESS":"育德路３５巷３號","OBJECTID":348785},"geometry":{"x":168309.0700000003,"y":2545232.6400000006}},{"attributes":{"ID":348795,"DIS_CODE":0,"TOWNNAME":"北區","LI":"和順里","LIN":"6鄰","STREET":"育德路","SECT":" ","MAREA":" ","LANE":"４９巷","ALLEY":" ","HOUSE_NO":"７號","E_COORD97":168319.48000000001,"N_COORD97":2545268.9900000002,"ADDRESS":"育德路４９巷７號","OBJECTID":348786},"geometry":{"x":168319.48000000138,"y":2545268.9900000039}},{"attributes":{"ID":348796,"DIS_CODE":0,"TOWNNAME":"北區","LI":"和順里","LIN":"6鄰","STREET":"育德路","SECT":" ","MAREA":" ","LANE":"４９巷","ALLEY":" ","HOUSE_NO":"８號","E_COORD97":168326.32000000001,"N_COORD97":2545288.1499999999,"ADDRESS":"育德路４９巷８號","OBJECTID":348787},"geometry":{"x":168326.3200000003,"y":2545288.1500000041}},{"attributes":{"ID":348797,"DIS_CODE":0,"TOWNNAME":"北區","LI":"和順里","LIN":"6鄰","STREET":"育德路","SECT":" ","MAREA":" ","LANE":"４９巷","ALLEY":" ","HOUSE_NO":"９號","E_COORD97":168315.28,"N_COORD97":2545273.1899999999,"ADDRESS":"育德路４９巷９號","OBJECTID":348788},"geometry":{"x":168315.28000000119,"y":2545273.1899999976}},{"attributes":{"ID":348798,"DIS_CODE":0,"TOWNNAME":"後壁區","LI":"新嘉里","LIN":"18鄰","STREET":" ","SECT":" ","MAREA":"白沙屯","LANE":" ","ALLEY":" ","HOUSE_NO":"１８９號","E_COORD97":179558.53,"N_COORD97":2585746.4399999999,"ADDRESS":"白沙屯１８９號","OBJECTID":348789},"geometry":{"x":179558.53000000026,"y":2585746.4400000013}},{"attributes":{"ID":348799,"DIS_CODE":0,"TOWNNAME":"後壁區","LI":"新嘉里","LIN":"18鄰","STREET":" ","SECT":" ","MAREA":"白沙屯","LANE":" ","ALLEY":" ","HOUSE_NO":"１９０號","E_COORD97":179541.25,"N_COORD97":2585725.2200000002,"ADDRESS":"白沙屯１９０號","OBJECTID":348790},"geometry":{"x":179541.25000000093,"y":2585725.2200000044}},{"attributes":{"ID":348800,"DIS_CODE":0,"TOWNNAME":"後壁區","LI":"新嘉里","LIN":"18鄰","STREET":" ","SECT":" ","MAREA":"白沙屯","LANE":" ","ALLEY":" ","HOUSE_NO":"１９２號","E_COORD97":179539.89999999999,"N_COORD97":2585739.46,"ADDRESS":"白沙屯１９２號","OBJECTID":348791},"geometry":{"x":179539.90000000224,"y":2585739.4600000009}},{"attributes":{"ID":348801,"DIS_CODE":0,"TOWNNAME":"後壁區","LI":"新嘉里","LIN":"18鄰","STREET":" ","SECT":" ","MAREA":"白沙屯","LANE":" ","ALLEY":" ","HOUSE_NO":"１９３號之１","E_COORD97":179554.67999999999,"N_COORD97":2585785.1400000001,"ADDRESS":"白沙屯１９３號之１","OBJECTID":348792},"geometry":{"x":179554.68000000063,"y":2585785.1400000006}},{"attributes":{"ID":348802,"DIS_CODE":0,"TOWNNAME":"後壁區","LI":"新嘉里","LIN":"18鄰","STREET":" ","SECT":" ","MAREA":"白沙屯","LANE":" ","ALLEY":" ","HOUSE_NO":"１９３號","E_COORD97":179542.07000000001,"N_COORD97":2585760.1200000001,"ADDRESS":"白沙屯１９３號","OBJECTID":348793},"geometry":{"x":179542.07000000216,"y":2585760.1200000048}},{"attributes":{"ID":348803,"DIS_CODE":0,"TOWNNAME":"後壁區","LI":"新嘉里","LIN":"18鄰","STREET":" ","SECT":" ","MAREA":"白沙屯","LANE":" ","ALLEY":" ","HOUSE_NO":"１９６號","E_COORD97":179542.70000000001,"N_COORD97":2585801.9100000001,"ADDRESS":"白沙屯１９６號","OBJECTID":348794},"geometry":{"x":179542.69999999925,"y":2585801.910000002}},{"attributes":{"ID":348804,"DIS_CODE":0,"TOWNNAME":"後壁區","LI":"新嘉里","LIN":"18鄰","STREET":" ","SECT":" ","MAREA":"白沙屯","LANE":" ","ALLEY":" ","HOUSE_NO":"１９９號","E_COORD97":179544.67999999999,"N_COORD97":2585811.7000000002,"ADDRESS":"白沙屯１９９號","OBJECTID":348795},"geometry":{"x":179544.68000000063,"y":2585811.6999999974}},{"attributes":{"ID":348805,"DIS_CODE":0,"TOWNNAME":"後壁區","LI":"新嘉里","LIN":"18鄰","STREET":" ","SECT":" ","MAREA":"白沙屯","LANE":" ","ALLEY":" ","HOUSE_NO":"２００號","E_COORD97":179525.07999999999,"N_COORD97":2585808.7200000002,"ADDRESS":"白沙屯２００號","OBJECTID":348796},"geometry":{"x":179525.08000000101,"y":2585808.7200000007}},{"attributes":{"ID":348806,"DIS_CODE":0,"TOWNNAME":"仁德區","LI":"保安里","LIN":"18鄰","STREET":"中正路","SECT":"一段","MAREA":" ","LANE":"３３巷","ALLEY":" ","HOUSE_NO":"８號","E_COORD97":170788.45999999999,"N_COORD97":2535576.7799999998,"ADDRESS":"中正路一段３３巷８號","OBJECTID":348797},"geometry":{"x":170788.46000000183,"y":2535576.7800000012}},{"attributes":{"ID":348807,"DIS_CODE":0,"TOWNNAME":"仁德區","LI":"後壁里","LIN":"18鄰","STREET":"中正路","SECT":"二段","MAREA":" ","LANE":"１８８巷","ALLEY":" ","HOUSE_NO":"７號","E_COORD97":173264.25,"N_COORD97":2538720.02,"ADDRESS":"中正路二段１８８巷７號","OBJECTID":348798},"geometry":{"x":173264.25,"y":2538720.0199999996}},{"attributes":{"ID":348808,"DIS_CODE":0,"TOWNNAME":"仁德區","LI":"後壁里","LIN":"18鄰","STREET":"德南路","SECT":" ","MAREA":" ","LANE":"２２巷","ALLEY":" ","HOUSE_NO":"３號","E_COORD97":173294.82000000001,"N_COORD97":2538774.77,"ADDRESS":"德南路２２巷３號","OBJECTID":348799},"geometry":{"x":173294.8200000003,"y":2538774.7700000014}},{"attributes":{"ID":348809,"DIS_CODE":0,"TOWNNAME":"安南區","LI":"梅花里","LIN":"18鄰","STREET":"同安路","SECT":" ","MAREA":" ","LANE":"３８２巷","ALLEY":" ","HOUSE_NO":"１０號","E_COORD97":167343.32999999999,"N_COORD97":2549325.2000000002,"ADDRESS":"同安路３８２巷１０號","OBJECTID":348800},"geometry":{"x":167343.33000000194,"y":2549325.2000000011}}]}