{"displayFieldName":"TOWNNAME","fieldAliases":{"ID":"ID","DIS_CODE":"DIS_CODE","TOWNNAME":"TOWNNAME","LI":"LI","LIN":"LIN","STREET":"STREET","SECT":"SECT","MAREA":"MAREA","LANE":"LANE","ALLEY":"ALLEY","HOUSE_NO":"HOUSE_NO","E_COORD97":"E_COORD97","N_COORD97":"N_COORD97","ADDRESS":"ADDRESS","OBJECTID":"OBJECTID"},"geometryType":"esriGeometryPoint","spatialReference":{"wkid":102443,"latestWkid":3826},"fields":[{"name":"ID","type":"esriFieldTypeDouble","alias":"ID"},{"name":"DIS_CODE","type":"esriFieldTypeInteger","alias":"DIS_CODE"},{"name":"TOWNNAME","type":"esriFieldTypeString","alias":"TOWNNAME","length":8},{"name":"LI","type":"esriFieldTypeString","alias":"LI","length":8},{"name":"LIN","type":"esriFieldTypeString","alias":"LIN","length":12},{"name":"STREET","type":"esriFieldTypeString","alias":"STREET","length":20},{"name":"SECT","type":"esriFieldTypeString","alias":"SECT","length":8},{"name":"MAREA","type":"esriFieldTypeString","alias":"MAREA","length":12},{"name":"LANE","type":"esriFieldTypeString","alias":"LANE","length":10},{"name":"ALLEY","type":"esriFieldTypeString","alias":"ALLEY","length":10},{"name":"HOUSE_NO","type":"esriFieldTypeString","alias":"HOUSE_NO","length":20},{"name":"E_COORD97","type":"esriFieldTypeDouble","alias":"E_COORD97"},{"name":"N_COORD97","type":"esriFieldTypeDouble","alias":"N_COORD97"},{"name":"ADDRESS","type":"esriFieldTypeString","alias":"ADDRESS","length":50},{"name":"OBJECTID","type":"esriFieldTypeOID","alias":"OBJECTID"}],"features":[{"attributes":{"ID":482026,"DIS_CODE":0,"TOWNNAME":"安平區","LI":"國平里","LIN":"26鄰","STREET":"健康三街","SECT":" ","MAREA":" ","LANE":" ","ALLEY":" ","HOUSE_NO":"１８２號六樓之１","E_COORD97":164770.07999999999,"N_COORD97":2543272.96,"ADDRESS":"健康三街１８２號六樓之１","OBJECTID":482001},"geometry":{"x":164770.08000000101,"y":2543272.9600000046}},{"attributes":{"ID":482027,"DIS_CODE":0,"TOWNNAME":"安平區","LI":"國平里","LIN":"26鄰","STREET":"健康三街","SECT":" ","MAREA":" ","LANE":" ","ALLEY":" ","HOUSE_NO":"１８２號六樓之２","E_COORD97":164770.07999999999,"N_COORD97":2543272.96,"ADDRESS":"健康三街１８２號六樓之２","OBJECTID":482002},"geometry":{"x":164770.08000000101,"y":2543272.9600000046}},{"attributes":{"ID":482028,"DIS_CODE":0,"TOWNNAME":"安平區","LI":"國平里","LIN":"26鄰","STREET":"健康三街","SECT":" ","MAREA":" ","LANE":" ","ALLEY":" ","HOUSE_NO":"１８２號四樓之１","E_COORD97":164770.07999999999,"N_COORD97":2543272.96,"ADDRESS":"健康三街１８２號四樓之１","OBJECTID":482003},"geometry":{"x":164770.08000000101,"y":2543272.9600000046}},{"attributes":{"ID":482029,"DIS_CODE":0,"TOWNNAME":"安平區","LI":"國平里","LIN":"26鄰","STREET":"健康三街","SECT":" ","MAREA":" ","LANE":" ","ALLEY":" ","HOUSE_NO":"１８２號四樓之２","E_COORD97":164770.07999999999,"N_COORD97":2543272.96,"ADDRESS":"健康三街１８２號四樓之２","OBJECTID":482004},"geometry":{"x":164770.08000000101,"y":2543272.9600000046}},{"attributes":{"ID":482030,"DIS_CODE":0,"TOWNNAME":"安平區","LI":"國平里","LIN":"26鄰","STREET":"健康三街","SECT":" ","MAREA":" ","LANE":" ","ALLEY":" ","HOUSE_NO":"１８８號七樓之１","E_COORD97":164771.44,"N_COORD97":2543283.9399999999,"ADDRESS":"健康三街１８８號七樓之１","OBJECTID":482005},"geometry":{"x":164771.44000000134,"y":2543283.9399999995}},{"attributes":{"ID":482031,"DIS_CODE":0,"TOWNNAME":"安平區","LI":"國平里","LIN":"26鄰","STREET":"健康三街","SECT":" ","MAREA":" ","LANE":" ","ALLEY":" ","HOUSE_NO":"１８８號七樓之２","E_COORD97":164771.44,"N_COORD97":2543283.9399999999,"ADDRESS":"健康三街１８８號七樓之２","OBJECTID":482006},"geometry":{"x":164771.44000000134,"y":2543283.9399999995}},{"attributes":{"ID":482032,"DIS_CODE":0,"TOWNNAME":"安平區","LI":"國平里","LIN":"26鄰","STREET":"健康三街","SECT":" ","MAREA":" ","LANE":" ","ALLEY":" ","HOUSE_NO":"１８８號二樓之１","E_COORD97":164771.44,"N_COORD97":2543283.9399999999,"ADDRESS":"健康三街１８８號二樓之１","OBJECTID":482007},"geometry":{"x":164771.44000000134,"y":2543283.9399999995}},{"attributes":{"ID":482033,"DIS_CODE":0,"TOWNNAME":"安平區","LI":"國平里","LIN":"26鄰","STREET":"健康三街","SECT":" ","MAREA":" ","LANE":" ","ALLEY":" ","HOUSE_NO":"１８８號二樓之２","E_COORD97":164771.44,"N_COORD97":2543283.9399999999,"ADDRESS":"健康三街１８８號二樓之２","OBJECTID":482008},"geometry":{"x":164771.44000000134,"y":2543283.9399999995}},{"attributes":{"ID":482034,"DIS_CODE":0,"TOWNNAME":"南區","LI":"文南里","LIN":"26鄰","STREET":"南功街","SECT":" ","MAREA":" ","LANE":" ","ALLEY":" ","HOUSE_NO":"５５號六樓","E_COORD97":166487.60999999999,"N_COORD97":2542823.1200000001,"ADDRESS":"南功街５５號六樓","OBJECTID":482009},"geometry":{"x":166487.61000000127,"y":2542823.120000001}},{"attributes":{"ID":482035,"DIS_CODE":0,"TOWNNAME":"安平區","LI":"國平里","LIN":"26鄰","STREET":"健康三街","SECT":" ","MAREA":" ","LANE":" ","ALLEY":" ","HOUSE_NO":"１８８號三樓之１","E_COORD97":164771.44,"N_COORD97":2543283.9399999999,"ADDRESS":"健康三街１８８號三樓之１","OBJECTID":482010},"geometry":{"x":164771.44000000134,"y":2543283.9399999995}},{"attributes":{"ID":482036,"DIS_CODE":0,"TOWNNAME":"安平區","LI":"國平里","LIN":"26鄰","STREET":"健康三街","SECT":" ","MAREA":" ","LANE":" ","ALLEY":" ","HOUSE_NO":"１８８號三樓之２","E_COORD97":164771.44,"N_COORD97":2543283.9399999999,"ADDRESS":"健康三街１８８號三樓之２","OBJECTID":482011},"geometry":{"x":164771.44000000134,"y":2543283.9399999995}},{"attributes":{"ID":482037,"DIS_CODE":0,"TOWNNAME":"安平區","LI":"國平里","LIN":"26鄰","STREET":"健康三街","SECT":" ","MAREA":" ","LANE":" ","ALLEY":" ","HOUSE_NO":"１８８號五樓之１","E_COORD97":164771.44,"N_COORD97":2543283.9399999999,"ADDRESS":"健康三街１８８號五樓之１","OBJECTID":482012},"geometry":{"x":164771.44000000134,"y":2543283.9399999995}},{"attributes":{"ID":482038,"DIS_CODE":0,"TOWNNAME":"安平區","LI":"國平里","LIN":"26鄰","STREET":"健康三街","SECT":" ","MAREA":" ","LANE":" ","ALLEY":" ","HOUSE_NO":"１８８號五樓之２","E_COORD97":164771.44,"N_COORD97":2543283.9399999999,"ADDRESS":"健康三街１８８號五樓之２","OBJECTID":482013},"geometry":{"x":164771.44000000134,"y":2543283.9399999995}},{"attributes":{"ID":482039,"DIS_CODE":0,"TOWNNAME":"安平區","LI":"國平里","LIN":"26鄰","STREET":"健康三街","SECT":" ","MAREA":" ","LANE":" ","ALLEY":" ","HOUSE_NO":"１８８號六樓之１","E_COORD97":164771.44,"N_COORD97":2543283.9399999999,"ADDRESS":"健康三街１８８號六樓之１","OBJECTID":482014},"geometry":{"x":164771.44000000134,"y":2543283.9399999995}},{"attributes":{"ID":482040,"DIS_CODE":0,"TOWNNAME":"安平區","LI":"國平里","LIN":"26鄰","STREET":"健康三街","SECT":" ","MAREA":" ","LANE":" ","ALLEY":" ","HOUSE_NO":"１８８號六樓之２","E_COORD97":164771.44,"N_COORD97":2543283.9399999999,"ADDRESS":"健康三街１８８號六樓之２","OBJECTID":482015},"geometry":{"x":164771.44000000134,"y":2543283.9399999995}},{"attributes":{"ID":482041,"DIS_CODE":0,"TOWNNAME":"安平區","LI":"國平里","LIN":"26鄰","STREET":"健康三街","SECT":" ","MAREA":" ","LANE":" ","ALLEY":" ","HOUSE_NO":"１８８號四樓之２","E_COORD97":164771.44,"N_COORD97":2543283.9399999999,"ADDRESS":"健康三街１８８號四樓之２","OBJECTID":482016},"geometry":{"x":164771.44000000134,"y":2543283.9399999995}},{"attributes":{"ID":482042,"DIS_CODE":0,"TOWNNAME":"新營區","LI":"新東里","LIN":"26鄰","STREET":"東興五街","SECT":" ","MAREA":" ","LANE":" ","ALLEY":" ","HOUSE_NO":"１號三樓","E_COORD97":180728.63,"N_COORD97":2579509.5299999998,"ADDRESS":"東興五街１號三樓","OBJECTID":482017},"geometry":{"x":180728.63000000082,"y":2579509.5299999993}},{"attributes":{"ID":482043,"DIS_CODE":0,"TOWNNAME":"南區","LI":"文南里","LIN":"26鄰","STREET":"南功街","SECT":" ","MAREA":" ","LANE":" ","ALLEY":" ","HOUSE_NO":"４７號七樓","E_COORD97":166502.57999999999,"N_COORD97":2542795.3799999999,"ADDRESS":"南功街４７號七樓","OBJECTID":482018},"geometry":{"x":166502.58000000101,"y":2542795.379999999}},{"attributes":{"ID":482044,"DIS_CODE":0,"TOWNNAME":"南區","LI":"文南里","LIN":"26鄰","STREET":"南功街","SECT":" ","MAREA":" ","LANE":" ","ALLEY":" ","HOUSE_NO":"４７號二樓","E_COORD97":166502.57999999999,"N_COORD97":2542795.3799999999,"ADDRESS":"南功街４７號二樓","OBJECTID":482019},"geometry":{"x":166502.58000000101,"y":2542795.379999999}},{"attributes":{"ID":482045,"DIS_CODE":0,"TOWNNAME":"南區","LI":"文南里","LIN":"26鄰","STREET":"南功街","SECT":" ","MAREA":" ","LANE":" ","ALLEY":" ","HOUSE_NO":"４７號八樓","E_COORD97":166502.57999999999,"N_COORD97":2542795.3799999999,"ADDRESS":"南功街４７號八樓","OBJECTID":482020},"geometry":{"x":166502.58000000101,"y":2542795.379999999}},{"attributes":{"ID":482046,"DIS_CODE":0,"TOWNNAME":"南區","LI":"文南里","LIN":"26鄰","STREET":"南功街","SECT":" ","MAREA":" ","LANE":" ","ALLEY":" ","HOUSE_NO":"４７號三樓","E_COORD97":166502.57999999999,"N_COORD97":2542795.3799999999,"ADDRESS":"南功街４７號三樓","OBJECTID":482021},"geometry":{"x":166502.58000000101,"y":2542795.379999999}},{"attributes":{"ID":482047,"DIS_CODE":0,"TOWNNAME":"南區","LI":"文南里","LIN":"26鄰","STREET":"南功街","SECT":" ","MAREA":" ","LANE":" ","ALLEY":" ","HOUSE_NO":"４７號五樓","E_COORD97":166502.57999999999,"N_COORD97":2542795.3799999999,"ADDRESS":"南功街４７號五樓","OBJECTID":482022},"geometry":{"x":166502.58000000101,"y":2542795.379999999}},{"attributes":{"ID":482048,"DIS_CODE":0,"TOWNNAME":"南區","LI":"文南里","LIN":"26鄰","STREET":"南功街","SECT":" ","MAREA":" ","LANE":" ","ALLEY":" ","HOUSE_NO":"４７號六樓","E_COORD97":166502.57999999999,"N_COORD97":2542795.3799999999,"ADDRESS":"南功街４７號六樓","OBJECTID":482023},"geometry":{"x":166502.58000000101,"y":2542795.379999999}},{"attributes":{"ID":482049,"DIS_CODE":0,"TOWNNAME":"南區","LI":"文南里","LIN":"26鄰","STREET":"南功街","SECT":" ","MAREA":" ","LANE":" ","ALLEY":" ","HOUSE_NO":"４７號四樓","E_COORD97":166502.57999999999,"N_COORD97":2542795.3799999999,"ADDRESS":"南功街４７號四樓","OBJECTID":482024},"geometry":{"x":166502.58000000101,"y":2542795.379999999}},{"attributes":{"ID":482050,"DIS_CODE":0,"TOWNNAME":"南區","LI":"文南里","LIN":"26鄰","STREET":"南功街","SECT":" ","MAREA":" ","LANE":" ","ALLEY":" ","HOUSE_NO":"４９號七樓","E_COORD97":166503.45000000001,"N_COORD97":2542808.3799999999,"ADDRESS":"南功街４９號七樓","OBJECTID":482025},"geometry":{"x":166503.45000000205,"y":2542808.3800000008}},{"attributes":{"ID":482051,"DIS_CODE":0,"TOWNNAME":"南區","LI":"文南里","LIN":"26鄰","STREET":"南功街","SECT":" ","MAREA":" ","LANE":" ","ALLEY":" ","HOUSE_NO":"４９號二樓","E_COORD97":166503.45000000001,"N_COORD97":2542808.3799999999,"ADDRESS":"南功街４９號二樓","OBJECTID":482026},"geometry":{"x":166503.45000000205,"y":2542808.3800000008}},{"attributes":{"ID":482052,"DIS_CODE":0,"TOWNNAME":"南區","LI":"文南里","LIN":"26鄰","STREET":"南功街","SECT":" ","MAREA":" ","LANE":" ","ALLEY":" ","HOUSE_NO":"４９號八樓","E_COORD97":166503.45000000001,"N_COORD97":2542808.3799999999,"ADDRESS":"南功街４９號八樓","OBJECTID":482027},"geometry":{"x":166503.45000000205,"y":2542808.3800000008}},{"attributes":{"ID":482053,"DIS_CODE":0,"TOWNNAME":"南區","LI":"文南里","LIN":"26鄰","STREET":"南功街","SECT":" ","MAREA":" ","LANE":" ","ALLEY":" ","HOUSE_NO":"４９號三樓","E_COORD97":166503.45000000001,"N_COORD97":2542808.3799999999,"ADDRESS":"南功街４９號三樓","OBJECTID":482028},"geometry":{"x":166503.45000000205,"y":2542808.3800000008}},{"attributes":{"ID":482054,"DIS_CODE":0,"TOWNNAME":"南區","LI":"文南里","LIN":"26鄰","STREET":"南功街","SECT":" ","MAREA":" ","LANE":" ","ALLEY":" ","HOUSE_NO":"４９號五樓","E_COORD97":166503.45000000001,"N_COORD97":2542808.3799999999,"ADDRESS":"南功街４９號五樓","OBJECTID":482029},"geometry":{"x":166503.45000000205,"y":2542808.3800000008}},{"attributes":{"ID":482055,"DIS_CODE":0,"TOWNNAME":"南區","LI":"文南里","LIN":"26鄰","STREET":"南功街","SECT":" ","MAREA":" ","LANE":" ","ALLEY":" ","HOUSE_NO":"４９號六樓","E_COORD97":166503.45000000001,"N_COORD97":2542808.3799999999,"ADDRESS":"南功街４９號六樓","OBJECTID":482030},"geometry":{"x":166503.45000000205,"y":2542808.3800000008}},{"attributes":{"ID":482056,"DIS_CODE":0,"TOWNNAME":"南區","LI":"文南里","LIN":"26鄰","STREET":"南功街","SECT":" ","MAREA":" ","LANE":" ","ALLEY":" ","HOUSE_NO":"４９號四樓","E_COORD97":166503.45000000001,"N_COORD97":2542808.3799999999,"ADDRESS":"南功街４９號四樓","OBJECTID":482031},"geometry":{"x":166503.45000000205,"y":2542808.3800000008}},{"attributes":{"ID":482057,"DIS_CODE":0,"TOWNNAME":"南區","LI":"文南里","LIN":"26鄰","STREET":"南功街","SECT":" ","MAREA":" ","LANE":" ","ALLEY":" ","HOUSE_NO":"５１號七樓","E_COORD97":166504.98000000001,"N_COORD97":2542817.4900000002,"ADDRESS":"南功街５１號七樓","OBJECTID":482032},"geometry":{"x":166504.98000000045,"y":2542817.4900000039}},{"attributes":{"ID":482058,"DIS_CODE":0,"TOWNNAME":"南區","LI":"文南里","LIN":"26鄰","STREET":"南功街","SECT":" ","MAREA":" ","LANE":" ","ALLEY":" ","HOUSE_NO":"５１號二樓","E_COORD97":166504.98000000001,"N_COORD97":2542817.4900000002,"ADDRESS":"南功街５１號二樓","OBJECTID":482033},"geometry":{"x":166504.98000000045,"y":2542817.4900000039}},{"attributes":{"ID":482059,"DIS_CODE":0,"TOWNNAME":"南區","LI":"文南里","LIN":"26鄰","STREET":"南功街","SECT":" ","MAREA":" ","LANE":" ","ALLEY":" ","HOUSE_NO":"５１號八樓","E_COORD97":166504.98000000001,"N_COORD97":2542817.4900000002,"ADDRESS":"南功街５１號八樓","OBJECTID":482034},"geometry":{"x":166504.98000000045,"y":2542817.4900000039}},{"attributes":{"ID":482060,"DIS_CODE":0,"TOWNNAME":"南區","LI":"文南里","LIN":"26鄰","STREET":"南功街","SECT":" ","MAREA":" ","LANE":" ","ALLEY":" ","HOUSE_NO":"５１號三樓","E_COORD97":166504.98000000001,"N_COORD97":2542817.4900000002,"ADDRESS":"南功街５１號三樓","OBJECTID":482035},"geometry":{"x":166504.98000000045,"y":2542817.4900000039}},{"attributes":{"ID":482061,"DIS_CODE":0,"TOWNNAME":"南區","LI":"文南里","LIN":"26鄰","STREET":"南功街","SECT":" ","MAREA":" ","LANE":" ","ALLEY":" ","HOUSE_NO":"５１號五樓","E_COORD97":166504.98000000001,"N_COORD97":2542817.4900000002,"ADDRESS":"南功街５１號五樓","OBJECTID":482036},"geometry":{"x":166504.98000000045,"y":2542817.4900000039}},{"attributes":{"ID":482062,"DIS_CODE":0,"TOWNNAME":"南區","LI":"文南里","LIN":"26鄰","STREET":"南功街","SECT":" ","MAREA":" ","LANE":" ","ALLEY":" ","HOUSE_NO":"５１號六樓","E_COORD97":166504.98000000001,"N_COORD97":2542817.4900000002,"ADDRESS":"南功街５１號六樓","OBJECTID":482037},"geometry":{"x":166504.98000000045,"y":2542817.4900000039}},{"attributes":{"ID":482063,"DIS_CODE":0,"TOWNNAME":"南區","LI":"文南里","LIN":"26鄰","STREET":"南功街","SECT":" ","MAREA":" ","LANE":" ","ALLEY":" ","HOUSE_NO":"５１號四樓","E_COORD97":166504.98000000001,"N_COORD97":2542817.4900000002,"ADDRESS":"南功街５１號四樓","OBJECTID":482038},"geometry":{"x":166504.98000000045,"y":2542817.4900000039}},{"attributes":{"ID":482064,"DIS_CODE":0,"TOWNNAME":"南區","LI":"文南里","LIN":"26鄰","STREET":"南功街","SECT":" ","MAREA":" ","LANE":" ","ALLEY":" ","HOUSE_NO":"５５號七樓","E_COORD97":166487.60999999999,"N_COORD97":2542823.1200000001,"ADDRESS":"南功街５５號七樓","OBJECTID":482039},"geometry":{"x":166487.61000000127,"y":2542823.120000001}},{"attributes":{"ID":482065,"DIS_CODE":0,"TOWNNAME":"南區","LI":"文南里","LIN":"26鄰","STREET":"南功街","SECT":" ","MAREA":" ","LANE":" ","ALLEY":" ","HOUSE_NO":"５５號二樓","E_COORD97":166487.60999999999,"N_COORD97":2542823.1200000001,"ADDRESS":"南功街５５號二樓","OBJECTID":482040},"geometry":{"x":166487.61000000127,"y":2542823.120000001}},{"attributes":{"ID":482066,"DIS_CODE":0,"TOWNNAME":"南區","LI":"文南里","LIN":"26鄰","STREET":"南功街","SECT":" ","MAREA":" ","LANE":" ","ALLEY":" ","HOUSE_NO":"５５號八樓","E_COORD97":166487.60999999999,"N_COORD97":2542823.1200000001,"ADDRESS":"南功街５５號八樓","OBJECTID":482041},"geometry":{"x":166487.61000000127,"y":2542823.120000001}},{"attributes":{"ID":482067,"DIS_CODE":0,"TOWNNAME":"南區","LI":"文南里","LIN":"26鄰","STREET":"南功街","SECT":" ","MAREA":" ","LANE":" ","ALLEY":" ","HOUSE_NO":"５５號三樓","E_COORD97":166487.60999999999,"N_COORD97":2542823.1200000001,"ADDRESS":"南功街５５號三樓","OBJECTID":482042},"geometry":{"x":166487.61000000127,"y":2542823.120000001}},{"attributes":{"ID":482068,"DIS_CODE":0,"TOWNNAME":"南區","LI":"文南里","LIN":"26鄰","STREET":"南功街","SECT":" ","MAREA":" ","LANE":" ","ALLEY":" ","HOUSE_NO":"５５號五樓","E_COORD97":166487.60999999999,"N_COORD97":2542823.1200000001,"ADDRESS":"南功街５５號五樓","OBJECTID":482043},"geometry":{"x":166487.61000000127,"y":2542823.120000001}},{"attributes":{"ID":482069,"DIS_CODE":0,"TOWNNAME":"南區","LI":"文南里","LIN":"26鄰","STREET":"南功街","SECT":" ","MAREA":" ","LANE":" ","ALLEY":" ","HOUSE_NO":"５５號四樓","E_COORD97":166487.60999999999,"N_COORD97":2542823.1200000001,"ADDRESS":"南功街５５號四樓","OBJECTID":482044},"geometry":{"x":166487.61000000127,"y":2542823.120000001}},{"attributes":{"ID":482070,"DIS_CODE":0,"TOWNNAME":"南區","LI":"文南里","LIN":"26鄰","STREET":"南功街","SECT":" ","MAREA":" ","LANE":" ","ALLEY":" ","HOUSE_NO":"５７號七樓","E_COORD97":166473.73999999999,"N_COORD97":2542825.0699999998,"ADDRESS":"南功街５７號七樓","OBJECTID":482045},"geometry":{"x":166473.74000000022,"y":2542825.0700000022}},{"attributes":{"ID":482071,"DIS_CODE":0,"TOWNNAME":"南區","LI":"文南里","LIN":"26鄰","STREET":"南功街","SECT":" ","MAREA":" ","LANE":" ","ALLEY":" ","HOUSE_NO":"５７號二樓","E_COORD97":166473.73999999999,"N_COORD97":2542825.0699999998,"ADDRESS":"南功街５７號二樓","OBJECTID":482046},"geometry":{"x":166473.74000000022,"y":2542825.0700000022}},{"attributes":{"ID":482072,"DIS_CODE":0,"TOWNNAME":"南區","LI":"文南里","LIN":"26鄰","STREET":"南功街","SECT":" ","MAREA":" ","LANE":" ","ALLEY":" ","HOUSE_NO":"５７號八樓","E_COORD97":166473.73999999999,"N_COORD97":2542825.0699999998,"ADDRESS":"南功街５７號八樓","OBJECTID":482047},"geometry":{"x":166473.74000000022,"y":2542825.0700000022}},{"attributes":{"ID":482073,"DIS_CODE":0,"TOWNNAME":"南區","LI":"文南里","LIN":"26鄰","STREET":"南功街","SECT":" ","MAREA":" ","LANE":" ","ALLEY":" ","HOUSE_NO":"５７號三樓","E_COORD97":166473.73999999999,"N_COORD97":2542825.0699999998,"ADDRESS":"南功街５７號三樓","OBJECTID":482048},"geometry":{"x":166473.74000000022,"y":2542825.0700000022}},{"attributes":{"ID":482074,"DIS_CODE":0,"TOWNNAME":"南區","LI":"文南里","LIN":"26鄰","STREET":"南功街","SECT":" ","MAREA":" ","LANE":" ","ALLEY":" ","HOUSE_NO":"５７號五樓","E_COORD97":166473.73999999999,"N_COORD97":2542825.0699999998,"ADDRESS":"南功街５７號五樓","OBJECTID":482049},"geometry":{"x":166473.74000000022,"y":2542825.0700000022}},{"attributes":{"ID":482075,"DIS_CODE":0,"TOWNNAME":"南區","LI":"文南里","LIN":"26鄰","STREET":"南功街","SECT":" ","MAREA":" ","LANE":" ","ALLEY":" ","HOUSE_NO":"５７號六樓","E_COORD97":166473.73999999999,"N_COORD97":2542825.0699999998,"ADDRESS":"南功街５７號六樓","OBJECTID":482050},"geometry":{"x":166473.74000000022,"y":2542825.0700000022}},{"attributes":{"ID":482076,"DIS_CODE":0,"TOWNNAME":"南區","LI":"文南里","LIN":"26鄰","STREET":"南功街","SECT":" ","MAREA":" ","LANE":" ","ALLEY":" ","HOUSE_NO":"５７號四樓","E_COORD97":166473.73999999999,"N_COORD97":2542825.0699999998,"ADDRESS":"南功街５７號四樓","OBJECTID":482051},"geometry":{"x":166473.74000000022,"y":2542825.0700000022}},{"attributes":{"ID":482077,"DIS_CODE":0,"TOWNNAME":"南區","LI":"文南里","LIN":"26鄰","STREET":"南功街","SECT":" ","MAREA":" ","LANE":" ","ALLEY":" ","HOUSE_NO":"６１號七樓","E_COORD97":166458.54999999999,"N_COORD97":2542826.7999999998,"ADDRESS":"南功街６１號七樓","OBJECTID":482052},"geometry":{"x":166458.55000000075,"y":2542826.8000000026}},{"attributes":{"ID":482078,"DIS_CODE":0,"TOWNNAME":"南區","LI":"文南里","LIN":"26鄰","STREET":"南功街","SECT":" ","MAREA":" ","LANE":" ","ALLEY":" ","HOUSE_NO":"６１號二樓","E_COORD97":166458.54999999999,"N_COORD97":2542826.7999999998,"ADDRESS":"南功街６１號二樓","OBJECTID":482053},"geometry":{"x":166458.55000000075,"y":2542826.8000000026}},{"attributes":{"ID":482079,"DIS_CODE":0,"TOWNNAME":"南區","LI":"文南里","LIN":"26鄰","STREET":"南功街","SECT":" ","MAREA":" ","LANE":" ","ALLEY":" ","HOUSE_NO":"６１號八樓","E_COORD97":166458.54999999999,"N_COORD97":2542826.7999999998,"ADDRESS":"南功街６１號八樓","OBJECTID":482054},"geometry":{"x":166458.55000000075,"y":2542826.8000000026}},{"attributes":{"ID":482080,"DIS_CODE":0,"TOWNNAME":"南區","LI":"文南里","LIN":"26鄰","STREET":"南功街","SECT":" ","MAREA":" ","LANE":" ","ALLEY":" ","HOUSE_NO":"６１號三樓","E_COORD97":166458.54999999999,"N_COORD97":2542826.7999999998,"ADDRESS":"南功街６１號三樓","OBJECTID":482055},"geometry":{"x":166458.55000000075,"y":2542826.8000000026}},{"attributes":{"ID":482081,"DIS_CODE":0,"TOWNNAME":"南區","LI":"文南里","LIN":"26鄰","STREET":"南功街","SECT":" ","MAREA":" ","LANE":" ","ALLEY":" ","HOUSE_NO":"６１號五樓","E_COORD97":166458.54999999999,"N_COORD97":2542826.7999999998,"ADDRESS":"南功街６１號五樓","OBJECTID":482056},"geometry":{"x":166458.55000000075,"y":2542826.8000000026}},{"attributes":{"ID":482082,"DIS_CODE":0,"TOWNNAME":"南區","LI":"文南里","LIN":"26鄰","STREET":"南功街","SECT":" ","MAREA":" ","LANE":" ","ALLEY":" ","HOUSE_NO":"６１號六樓","E_COORD97":166458.54999999999,"N_COORD97":2542826.7999999998,"ADDRESS":"南功街６１號六樓","OBJECTID":482057},"geometry":{"x":166458.55000000075,"y":2542826.8000000026}},{"attributes":{"ID":482083,"DIS_CODE":0,"TOWNNAME":"南區","LI":"文南里","LIN":"26鄰","STREET":"南功街","SECT":" ","MAREA":" ","LANE":" ","ALLEY":" ","HOUSE_NO":"６１號四樓","E_COORD97":166458.54999999999,"N_COORD97":2542826.7999999998,"ADDRESS":"南功街６１號四樓","OBJECTID":482058},"geometry":{"x":166458.55000000075,"y":2542826.8000000026}},{"attributes":{"ID":482084,"DIS_CODE":0,"TOWNNAME":"南區","LI":"文南里","LIN":"26鄰","STREET":"南功街","SECT":" ","MAREA":" ","LANE":" ","ALLEY":" ","HOUSE_NO":"６３號七樓","E_COORD97":166448.35000000001,"N_COORD97":2542827.0299999998,"ADDRESS":"南功街６３號七樓","OBJECTID":482059},"geometry":{"x":166448.35000000056,"y":2542827.0300000012}},{"attributes":{"ID":482085,"DIS_CODE":0,"TOWNNAME":"南區","LI":"文南里","LIN":"26鄰","STREET":"南功街","SECT":" ","MAREA":" ","LANE":" ","ALLEY":" ","HOUSE_NO":"６３號二樓","E_COORD97":166448.35000000001,"N_COORD97":2542827.0299999998,"ADDRESS":"南功街６３號二樓","OBJECTID":482060},"geometry":{"x":166448.35000000056,"y":2542827.0300000012}},{"attributes":{"ID":482086,"DIS_CODE":0,"TOWNNAME":"南區","LI":"文南里","LIN":"26鄰","STREET":"南功街","SECT":" ","MAREA":" ","LANE":" ","ALLEY":" ","HOUSE_NO":"６３號八樓","E_COORD97":166448.35000000001,"N_COORD97":2542827.0299999998,"ADDRESS":"南功街６３號八樓","OBJECTID":482061},"geometry":{"x":166448.35000000056,"y":2542827.0300000012}},{"attributes":{"ID":482087,"DIS_CODE":0,"TOWNNAME":"南區","LI":"文南里","LIN":"26鄰","STREET":"南功街","SECT":" ","MAREA":" ","LANE":" ","ALLEY":" ","HOUSE_NO":"６３號三樓","E_COORD97":166448.35000000001,"N_COORD97":2542827.0299999998,"ADDRESS":"南功街６３號三樓","OBJECTID":482062},"geometry":{"x":166448.35000000056,"y":2542827.0300000012}},{"attributes":{"ID":482088,"DIS_CODE":0,"TOWNNAME":"南區","LI":"文南里","LIN":"26鄰","STREET":"南功街","SECT":" ","MAREA":" ","LANE":" ","ALLEY":" ","HOUSE_NO":"６３號五樓","E_COORD97":166448.35000000001,"N_COORD97":2542827.0299999998,"ADDRESS":"南功街６３號五樓","OBJECTID":482063},"geometry":{"x":166448.35000000056,"y":2542827.0300000012}},{"attributes":{"ID":482089,"DIS_CODE":0,"TOWNNAME":"南區","LI":"文南里","LIN":"26鄰","STREET":"南功街","SECT":" ","MAREA":" ","LANE":" ","ALLEY":" ","HOUSE_NO":"６３號六樓","E_COORD97":166448.35000000001,"N_COORD97":2542827.0299999998,"ADDRESS":"南功街６３號六樓","OBJECTID":482064},"geometry":{"x":166448.35000000056,"y":2542827.0300000012}},{"attributes":{"ID":482090,"DIS_CODE":0,"TOWNNAME":"南區","LI":"文南里","LIN":"26鄰","STREET":"南功街","SECT":" ","MAREA":" ","LANE":" ","ALLEY":" ","HOUSE_NO":"６３號四樓","E_COORD97":166448.35000000001,"N_COORD97":2542827.0299999998,"ADDRESS":"南功街６３號四樓","OBJECTID":482065},"geometry":{"x":166448.35000000056,"y":2542827.0300000012}},{"attributes":{"ID":482091,"DIS_CODE":0,"TOWNNAME":"南區","LI":"文南里","LIN":"26鄰","STREET":"南功街","SECT":" ","MAREA":" ","LANE":" ","ALLEY":" ","HOUSE_NO":"６５號七樓","E_COORD97":166440.10999999999,"N_COORD97":2542827.0299999998,"ADDRESS":"南功街６５號七樓","OBJECTID":482066},"geometry":{"x":166440.11000000127,"y":2542827.0300000012}},{"attributes":{"ID":482092,"DIS_CODE":0,"TOWNNAME":"南區","LI":"文南里","LIN":"26鄰","STREET":"南功街","SECT":" ","MAREA":" ","LANE":" ","ALLEY":" ","HOUSE_NO":"６５號二樓","E_COORD97":166440.10999999999,"N_COORD97":2542827.0299999998,"ADDRESS":"南功街６５號二樓","OBJECTID":482067},"geometry":{"x":166440.11000000127,"y":2542827.0300000012}},{"attributes":{"ID":482093,"DIS_CODE":0,"TOWNNAME":"南區","LI":"文南里","LIN":"26鄰","STREET":"南功街","SECT":" ","MAREA":" ","LANE":" ","ALLEY":" ","HOUSE_NO":"６５號八樓","E_COORD97":166440.10999999999,"N_COORD97":2542827.0299999998,"ADDRESS":"南功街６５號八樓","OBJECTID":482068},"geometry":{"x":166440.11000000127,"y":2542827.0300000012}},{"attributes":{"ID":482094,"DIS_CODE":0,"TOWNNAME":"南區","LI":"文南里","LIN":"26鄰","STREET":"南功街","SECT":" ","MAREA":" ","LANE":" ","ALLEY":" ","HOUSE_NO":"６５號三樓","E_COORD97":166440.10999999999,"N_COORD97":2542827.0299999998,"ADDRESS":"南功街６５號三樓","OBJECTID":482069},"geometry":{"x":166440.11000000127,"y":2542827.0300000012}},{"attributes":{"ID":482095,"DIS_CODE":0,"TOWNNAME":"南區","LI":"文南里","LIN":"26鄰","STREET":"南功街","SECT":" ","MAREA":" ","LANE":" ","ALLEY":" ","HOUSE_NO":"６５號五樓","E_COORD97":166440.10999999999,"N_COORD97":2542827.0299999998,"ADDRESS":"南功街６５號五樓","OBJECTID":482070},"geometry":{"x":166440.11000000127,"y":2542827.0300000012}},{"attributes":{"ID":482096,"DIS_CODE":0,"TOWNNAME":"南區","LI":"文南里","LIN":"26鄰","STREET":"南功街","SECT":" ","MAREA":" ","LANE":" ","ALLEY":" ","HOUSE_NO":"６５號六樓","E_COORD97":166440.10999999999,"N_COORD97":2542827.0299999998,"ADDRESS":"南功街６５號六樓","OBJECTID":482071},"geometry":{"x":166440.11000000127,"y":2542827.0300000012}},{"attributes":{"ID":482097,"DIS_CODE":0,"TOWNNAME":"南區","LI":"文南里","LIN":"26鄰","STREET":"南功街","SECT":" ","MAREA":" ","LANE":" ","ALLEY":" ","HOUSE_NO":"６５號四樓","E_COORD97":166440.10999999999,"N_COORD97":2542827.0299999998,"ADDRESS":"南功街６５號四樓","OBJECTID":482072},"geometry":{"x":166440.11000000127,"y":2542827.0300000012}},{"attributes":{"ID":482098,"DIS_CODE":0,"TOWNNAME":"南區","LI":"文南里","LIN":"26鄰","STREET":"南功街","SECT":" ","MAREA":" ","LANE":" ","ALLEY":" ","HOUSE_NO":"６７號七樓之１","E_COORD97":166436.42000000001,"N_COORD97":2542814.2400000002,"ADDRESS":"南功街６７號七樓之１","OBJECTID":482073},"geometry":{"x":166436.41999999993,"y":2542814.2400000002}},{"attributes":{"ID":482099,"DIS_CODE":0,"TOWNNAME":"南區","LI":"文南里","LIN":"26鄰","STREET":"南功街","SECT":" ","MAREA":" ","LANE":" ","ALLEY":" ","HOUSE_NO":"６７號七樓之２","E_COORD97":166436.42000000001,"N_COORD97":2542814.2400000002,"ADDRESS":"南功街６７號七樓之２","OBJECTID":482074},"geometry":{"x":166436.41999999993,"y":2542814.2400000002}},{"attributes":{"ID":482100,"DIS_CODE":0,"TOWNNAME":"南區","LI":"文南里","LIN":"26鄰","STREET":"南功街","SECT":" ","MAREA":" ","LANE":" ","ALLEY":" ","HOUSE_NO":"６７號二樓之１","E_COORD97":166436.42000000001,"N_COORD97":2542814.2400000002,"ADDRESS":"南功街６７號二樓之１","OBJECTID":482075},"geometry":{"x":166436.41999999993,"y":2542814.2400000002}},{"attributes":{"ID":482101,"DIS_CODE":0,"TOWNNAME":"南區","LI":"文南里","LIN":"26鄰","STREET":"南功街","SECT":" ","MAREA":" ","LANE":" ","ALLEY":" ","HOUSE_NO":"６７號二樓之２","E_COORD97":166436.42000000001,"N_COORD97":2542814.2400000002,"ADDRESS":"南功街６７號二樓之２","OBJECTID":482076},"geometry":{"x":166436.41999999993,"y":2542814.2400000002}},{"attributes":{"ID":482102,"DIS_CODE":0,"TOWNNAME":"南區","LI":"文南里","LIN":"26鄰","STREET":"南功街","SECT":" ","MAREA":" ","LANE":" ","ALLEY":" ","HOUSE_NO":"６７號八樓之１","E_COORD97":166436.42000000001,"N_COORD97":2542814.2400000002,"ADDRESS":"南功街６７號八樓之１","OBJECTID":482077},"geometry":{"x":166436.41999999993,"y":2542814.2400000002}},{"attributes":{"ID":482103,"DIS_CODE":0,"TOWNNAME":"南區","LI":"文南里","LIN":"26鄰","STREET":"南功街","SECT":" ","MAREA":" ","LANE":" ","ALLEY":" ","HOUSE_NO":"６７號八樓之２","E_COORD97":166436.42000000001,"N_COORD97":2542814.2400000002,"ADDRESS":"南功街６７號八樓之２","OBJECTID":482078},"geometry":{"x":166436.41999999993,"y":2542814.2400000002}},{"attributes":{"ID":482104,"DIS_CODE":0,"TOWNNAME":"南區","LI":"文南里","LIN":"26鄰","STREET":"南功街","SECT":" ","MAREA":" ","LANE":" ","ALLEY":" ","HOUSE_NO":"６７號三樓之１","E_COORD97":166436.42000000001,"N_COORD97":2542814.2400000002,"ADDRESS":"南功街６７號三樓之１","OBJECTID":482079},"geometry":{"x":166436.41999999993,"y":2542814.2400000002}},{"attributes":{"ID":482105,"DIS_CODE":0,"TOWNNAME":"南區","LI":"文南里","LIN":"26鄰","STREET":"南功街","SECT":" ","MAREA":" ","LANE":" ","ALLEY":" ","HOUSE_NO":"６７號三樓之２","E_COORD97":166436.42000000001,"N_COORD97":2542814.2400000002,"ADDRESS":"南功街６７號三樓之２","OBJECTID":482080},"geometry":{"x":166436.41999999993,"y":2542814.2400000002}},{"attributes":{"ID":482106,"DIS_CODE":0,"TOWNNAME":"南區","LI":"文南里","LIN":"26鄰","STREET":"南功街","SECT":" ","MAREA":" ","LANE":" ","ALLEY":" ","HOUSE_NO":"６７號五樓之１","E_COORD97":166436.42000000001,"N_COORD97":2542814.2400000002,"ADDRESS":"南功街６７號五樓之１","OBJECTID":482081},"geometry":{"x":166436.41999999993,"y":2542814.2400000002}},{"attributes":{"ID":482107,"DIS_CODE":0,"TOWNNAME":"南區","LI":"文南里","LIN":"26鄰","STREET":"南功街","SECT":" ","MAREA":" ","LANE":" ","ALLEY":" ","HOUSE_NO":"６７號五樓之２","E_COORD97":166436.42000000001,"N_COORD97":2542814.2400000002,"ADDRESS":"南功街６７號五樓之２","OBJECTID":482082},"geometry":{"x":166436.41999999993,"y":2542814.2400000002}},{"attributes":{"ID":482108,"DIS_CODE":0,"TOWNNAME":"南區","LI":"文南里","LIN":"26鄰","STREET":"南功街","SECT":" ","MAREA":" ","LANE":" ","ALLEY":" ","HOUSE_NO":"６７號六樓之１","E_COORD97":166436.42000000001,"N_COORD97":2542814.2400000002,"ADDRESS":"南功街６７號六樓之１","OBJECTID":482083},"geometry":{"x":166436.41999999993,"y":2542814.2400000002}},{"attributes":{"ID":482109,"DIS_CODE":0,"TOWNNAME":"南區","LI":"文南里","LIN":"26鄰","STREET":"南功街","SECT":" ","MAREA":" ","LANE":" ","ALLEY":" ","HOUSE_NO":"６７號六樓之２","E_COORD97":166436.42000000001,"N_COORD97":2542814.2400000002,"ADDRESS":"南功街６７號六樓之２","OBJECTID":482084},"geometry":{"x":166436.41999999993,"y":2542814.2400000002}},{"attributes":{"ID":482110,"DIS_CODE":0,"TOWNNAME":"南區","LI":"文南里","LIN":"26鄰","STREET":"南功街","SECT":" ","MAREA":" ","LANE":" ","ALLEY":" ","HOUSE_NO":"６７號四樓之１","E_COORD97":166436.42000000001,"N_COORD97":2542814.2400000002,"ADDRESS":"南功街６７號四樓之１","OBJECTID":482085},"geometry":{"x":166436.41999999993,"y":2542814.2400000002}},{"attributes":{"ID":482111,"DIS_CODE":0,"TOWNNAME":"南區","LI":"文南里","LIN":"26鄰","STREET":"南功街","SECT":" ","MAREA":" ","LANE":" ","ALLEY":" ","HOUSE_NO":"６７號四樓之２","E_COORD97":166436.42000000001,"N_COORD97":2542814.2400000002,"ADDRESS":"南功街６７號四樓之２","OBJECTID":482086},"geometry":{"x":166436.41999999993,"y":2542814.2400000002}},{"attributes":{"ID":482112,"DIS_CODE":0,"TOWNNAME":"南區","LI":"文南里","LIN":"26鄰","STREET":"南功街","SECT":" ","MAREA":" ","LANE":" ","ALLEY":" ","HOUSE_NO":"６９號七樓","E_COORD97":166439.23999999999,"N_COORD97":2542805.1400000001,"ADDRESS":"南功街６９號七樓","OBJECTID":482087},"geometry":{"x":166439.24000000115,"y":2542805.1400000006}},{"attributes":{"ID":482113,"DIS_CODE":0,"TOWNNAME":"南區","LI":"文南里","LIN":"26鄰","STREET":"南功街","SECT":" ","MAREA":" ","LANE":" ","ALLEY":" ","HOUSE_NO":"６９號二樓","E_COORD97":166439.23999999999,"N_COORD97":2542805.1400000001,"ADDRESS":"南功街６９號二樓","OBJECTID":482088},"geometry":{"x":166439.24000000115,"y":2542805.1400000006}},{"attributes":{"ID":482114,"DIS_CODE":0,"TOWNNAME":"南區","LI":"文南里","LIN":"26鄰","STREET":"南功街","SECT":" ","MAREA":" ","LANE":" ","ALLEY":" ","HOUSE_NO":"６９號八樓","E_COORD97":166439.23999999999,"N_COORD97":2542805.1400000001,"ADDRESS":"南功街６９號八樓","OBJECTID":482089},"geometry":{"x":166439.24000000115,"y":2542805.1400000006}},{"attributes":{"ID":482115,"DIS_CODE":0,"TOWNNAME":"南區","LI":"文南里","LIN":"26鄰","STREET":"南功街","SECT":" ","MAREA":" ","LANE":" ","ALLEY":" ","HOUSE_NO":"６９號三樓","E_COORD97":166439.23999999999,"N_COORD97":2542805.1400000001,"ADDRESS":"南功街６９號三樓","OBJECTID":482090},"geometry":{"x":166439.24000000115,"y":2542805.1400000006}},{"attributes":{"ID":482116,"DIS_CODE":0,"TOWNNAME":"南區","LI":"文南里","LIN":"26鄰","STREET":"南功街","SECT":" ","MAREA":" ","LANE":" ","ALLEY":" ","HOUSE_NO":"６９號五樓","E_COORD97":166439.23999999999,"N_COORD97":2542805.1400000001,"ADDRESS":"南功街６９號五樓","OBJECTID":482091},"geometry":{"x":166439.24000000115,"y":2542805.1400000006}},{"attributes":{"ID":482117,"DIS_CODE":0,"TOWNNAME":"南區","LI":"文南里","LIN":"26鄰","STREET":"南功街","SECT":" ","MAREA":" ","LANE":" ","ALLEY":" ","HOUSE_NO":"６９號六樓","E_COORD97":166439.23999999999,"N_COORD97":2542805.1400000001,"ADDRESS":"南功街６９號六樓","OBJECTID":482092},"geometry":{"x":166439.24000000115,"y":2542805.1400000006}},{"attributes":{"ID":482118,"DIS_CODE":0,"TOWNNAME":"南區","LI":"文南里","LIN":"26鄰","STREET":"南功街","SECT":" ","MAREA":" ","LANE":" ","ALLEY":" ","HOUSE_NO":"６９號四樓","E_COORD97":166439.23999999999,"N_COORD97":2542805.1400000001,"ADDRESS":"南功街６９號四樓","OBJECTID":482093},"geometry":{"x":166439.24000000115,"y":2542805.1400000006}},{"attributes":{"ID":482119,"DIS_CODE":0,"TOWNNAME":"南區","LI":"文南里","LIN":"26鄰","STREET":"南功街","SECT":" ","MAREA":" ","LANE":" ","ALLEY":" ","HOUSE_NO":"７１號七樓","E_COORD97":166447.26999999999,"N_COORD97":2542804.9199999999,"ADDRESS":"南功街７１號七樓","OBJECTID":482094},"geometry":{"x":166447.26999999955,"y":2542804.9200000018}},{"attributes":{"ID":482120,"DIS_CODE":0,"TOWNNAME":"南區","LI":"文南里","LIN":"26鄰","STREET":"南功街","SECT":" ","MAREA":" ","LANE":" ","ALLEY":" ","HOUSE_NO":"７１號二樓","E_COORD97":166447.26999999999,"N_COORD97":2542804.9199999999,"ADDRESS":"南功街７１號二樓","OBJECTID":482095},"geometry":{"x":166447.26999999955,"y":2542804.9200000018}},{"attributes":{"ID":482121,"DIS_CODE":0,"TOWNNAME":"南區","LI":"文南里","LIN":"26鄰","STREET":"南功街","SECT":" ","MAREA":" ","LANE":" ","ALLEY":" ","HOUSE_NO":"７１號八樓","E_COORD97":166447.26999999999,"N_COORD97":2542804.9199999999,"ADDRESS":"南功街７１號八樓","OBJECTID":482096},"geometry":{"x":166447.26999999955,"y":2542804.9200000018}},{"attributes":{"ID":482122,"DIS_CODE":0,"TOWNNAME":"南區","LI":"文南里","LIN":"26鄰","STREET":"南功街","SECT":" ","MAREA":" ","LANE":" ","ALLEY":" ","HOUSE_NO":"７１號三樓","E_COORD97":166447.26999999999,"N_COORD97":2542804.9199999999,"ADDRESS":"南功街７１號三樓","OBJECTID":482097},"geometry":{"x":166447.26999999955,"y":2542804.9200000018}},{"attributes":{"ID":482123,"DIS_CODE":0,"TOWNNAME":"南區","LI":"文南里","LIN":"26鄰","STREET":"南功街","SECT":" ","MAREA":" ","LANE":" ","ALLEY":" ","HOUSE_NO":"７１號五樓","E_COORD97":166447.26999999999,"N_COORD97":2542804.9199999999,"ADDRESS":"南功街７１號五樓","OBJECTID":482098},"geometry":{"x":166447.26999999955,"y":2542804.9200000018}},{"attributes":{"ID":482124,"DIS_CODE":0,"TOWNNAME":"南區","LI":"文南里","LIN":"26鄰","STREET":"南功街","SECT":" ","MAREA":" ","LANE":" ","ALLEY":" ","HOUSE_NO":"７１號六樓","E_COORD97":166447.26999999999,"N_COORD97":2542804.9199999999,"ADDRESS":"南功街７１號六樓","OBJECTID":482099},"geometry":{"x":166447.26999999955,"y":2542804.9200000018}},{"attributes":{"ID":482125,"DIS_CODE":0,"TOWNNAME":"南區","LI":"文南里","LIN":"26鄰","STREET":"南功街","SECT":" ","MAREA":" ","LANE":" ","ALLEY":" ","HOUSE_NO":"７１號四樓","E_COORD97":166447.26999999999,"N_COORD97":2542804.9199999999,"ADDRESS":"南功街７１號四樓","OBJECTID":482100},"geometry":{"x":166447.26999999955,"y":2542804.9200000018}},{"attributes":{"ID":482126,"DIS_CODE":0,"TOWNNAME":"南區","LI":"文南里","LIN":"26鄰","STREET":"南功街","SECT":" ","MAREA":" ","LANE":" ","ALLEY":" ","HOUSE_NO":"７３號七樓","E_COORD97":166453.34,"N_COORD97":2542804.27,"ADDRESS":"南功街７３號七樓","OBJECTID":482101},"geometry":{"x":166453.34000000078,"y":2542804.2699999996}},{"attributes":{"ID":482127,"DIS_CODE":0,"TOWNNAME":"南區","LI":"文南里","LIN":"26鄰","STREET":"南功街","SECT":" ","MAREA":" ","LANE":" ","ALLEY":" ","HOUSE_NO":"７３號二樓","E_COORD97":166453.34,"N_COORD97":2542804.27,"ADDRESS":"南功街７３號二樓","OBJECTID":482102},"geometry":{"x":166453.34000000078,"y":2542804.2699999996}},{"attributes":{"ID":482128,"DIS_CODE":0,"TOWNNAME":"南區","LI":"文南里","LIN":"26鄰","STREET":"南功街","SECT":" ","MAREA":" ","LANE":" ","ALLEY":" ","HOUSE_NO":"７３號八樓","E_COORD97":166453.34,"N_COORD97":2542804.27,"ADDRESS":"南功街７３號八樓","OBJECTID":482103},"geometry":{"x":166453.34000000078,"y":2542804.2699999996}},{"attributes":{"ID":482129,"DIS_CODE":0,"TOWNNAME":"南區","LI":"文南里","LIN":"26鄰","STREET":"南功街","SECT":" ","MAREA":" ","LANE":" ","ALLEY":" ","HOUSE_NO":"７３號三樓","E_COORD97":166453.34,"N_COORD97":2542804.27,"ADDRESS":"南功街７３號三樓","OBJECTID":482104},"geometry":{"x":166453.34000000078,"y":2542804.2699999996}},{"attributes":{"ID":482130,"DIS_CODE":0,"TOWNNAME":"南區","LI":"文南里","LIN":"26鄰","STREET":"南功街","SECT":" ","MAREA":" ","LANE":" ","ALLEY":" ","HOUSE_NO":"７３號五樓","E_COORD97":166453.34,"N_COORD97":2542804.27,"ADDRESS":"南功街７３號五樓","OBJECTID":482105},"geometry":{"x":166453.34000000078,"y":2542804.2699999996}},{"attributes":{"ID":482131,"DIS_CODE":0,"TOWNNAME":"南區","LI":"文南里","LIN":"26鄰","STREET":"南功街","SECT":" ","MAREA":" ","LANE":" ","ALLEY":" ","HOUSE_NO":"７３號六樓","E_COORD97":166453.34,"N_COORD97":2542804.27,"ADDRESS":"南功街７３號六樓","OBJECTID":482106},"geometry":{"x":166453.34000000078,"y":2542804.2699999996}},{"attributes":{"ID":482132,"DIS_CODE":0,"TOWNNAME":"南區","LI":"文南里","LIN":"26鄰","STREET":"南功街","SECT":" ","MAREA":" ","LANE":" ","ALLEY":" ","HOUSE_NO":"７３號四樓","E_COORD97":166453.34,"N_COORD97":2542804.27,"ADDRESS":"南功街７３號四樓","OBJECTID":482107},"geometry":{"x":166453.34000000078,"y":2542804.2699999996}},{"attributes":{"ID":482133,"DIS_CODE":0,"TOWNNAME":"南區","LI":"文南里","LIN":"26鄰","STREET":"南功街","SECT":" ","MAREA":" ","LANE":" ","ALLEY":" ","HOUSE_NO":"７５號七樓","E_COORD97":166461.59,"N_COORD97":2542802.9700000002,"ADDRESS":"南功街７５號七樓","OBJECTID":482108},"geometry":{"x":166461.59000000078,"y":2542802.9700000007}},{"attributes":{"ID":482134,"DIS_CODE":0,"TOWNNAME":"南區","LI":"文南里","LIN":"26鄰","STREET":"南功街","SECT":" ","MAREA":" ","LANE":" ","ALLEY":" ","HOUSE_NO":"７５號八樓","E_COORD97":166461.59,"N_COORD97":2542802.9700000002,"ADDRESS":"南功街７５號八樓","OBJECTID":482109},"geometry":{"x":166461.59000000078,"y":2542802.9700000007}},{"attributes":{"ID":482135,"DIS_CODE":0,"TOWNNAME":"南區","LI":"文南里","LIN":"26鄰","STREET":"南功街","SECT":" ","MAREA":" ","LANE":" ","ALLEY":" ","HOUSE_NO":"７５號三樓","E_COORD97":166461.59,"N_COORD97":2542802.9700000002,"ADDRESS":"南功街７５號三樓","OBJECTID":482110},"geometry":{"x":166461.59000000078,"y":2542802.9700000007}},{"attributes":{"ID":482136,"DIS_CODE":0,"TOWNNAME":"南區","LI":"文南里","LIN":"26鄰","STREET":"南功街","SECT":" ","MAREA":" ","LANE":" ","ALLEY":" ","HOUSE_NO":"７５號五樓","E_COORD97":166461.59,"N_COORD97":2542802.9700000002,"ADDRESS":"南功街７５號五樓","OBJECTID":482111},"geometry":{"x":166461.59000000078,"y":2542802.9700000007}},{"attributes":{"ID":482137,"DIS_CODE":0,"TOWNNAME":"南區","LI":"文南里","LIN":"26鄰","STREET":"南功街","SECT":" ","MAREA":" ","LANE":" ","ALLEY":" ","HOUSE_NO":"７５號六樓","E_COORD97":166461.59,"N_COORD97":2542802.9700000002,"ADDRESS":"南功街７５號六樓","OBJECTID":482112},"geometry":{"x":166461.59000000078,"y":2542802.9700000007}},{"attributes":{"ID":482138,"DIS_CODE":0,"TOWNNAME":"南區","LI":"文南里","LIN":"26鄰","STREET":"南功街","SECT":" ","MAREA":" ","LANE":" ","ALLEY":" ","HOUSE_NO":"７５號四樓","E_COORD97":166461.59,"N_COORD97":2542802.9700000002,"ADDRESS":"南功街７５號四樓","OBJECTID":482113},"geometry":{"x":166461.59000000078,"y":2542802.9700000007}},{"attributes":{"ID":482139,"DIS_CODE":0,"TOWNNAME":"南區","LI":"文南里","LIN":"26鄰","STREET":"南功街","SECT":" ","MAREA":" ","LANE":" ","ALLEY":" ","HOUSE_NO":"７７號七樓","E_COORD97":166467.88,"N_COORD97":2542801.8799999999,"ADDRESS":"南功街７７號七樓","OBJECTID":482114},"geometry":{"x":166467.87999999896,"y":2542801.879999999}},{"attributes":{"ID":482140,"DIS_CODE":0,"TOWNNAME":"南區","LI":"文南里","LIN":"26鄰","STREET":"南功街","SECT":" ","MAREA":" ","LANE":" ","ALLEY":" ","HOUSE_NO":"７７號二樓","E_COORD97":166467.88,"N_COORD97":2542801.8799999999,"ADDRESS":"南功街７７號二樓","OBJECTID":482115},"geometry":{"x":166467.87999999896,"y":2542801.879999999}},{"attributes":{"ID":482141,"DIS_CODE":0,"TOWNNAME":"南區","LI":"文南里","LIN":"26鄰","STREET":"南功街","SECT":" ","MAREA":" ","LANE":" ","ALLEY":" ","HOUSE_NO":"７７號八樓","E_COORD97":166467.88,"N_COORD97":2542801.8799999999,"ADDRESS":"南功街７７號八樓","OBJECTID":482116},"geometry":{"x":166467.87999999896,"y":2542801.879999999}},{"attributes":{"ID":482142,"DIS_CODE":0,"TOWNNAME":"南區","LI":"文南里","LIN":"26鄰","STREET":"南功街","SECT":" ","MAREA":" ","LANE":" ","ALLEY":" ","HOUSE_NO":"７７號三樓","E_COORD97":166467.88,"N_COORD97":2542801.8799999999,"ADDRESS":"南功街７７號三樓","OBJECTID":482117},"geometry":{"x":166467.87999999896,"y":2542801.879999999}},{"attributes":{"ID":482143,"DIS_CODE":0,"TOWNNAME":"南區","LI":"文南里","LIN":"26鄰","STREET":"南功街","SECT":" ","MAREA":" ","LANE":" ","ALLEY":" ","HOUSE_NO":"７７號五樓","E_COORD97":166467.88,"N_COORD97":2542801.8799999999,"ADDRESS":"南功街７７號五樓","OBJECTID":482118},"geometry":{"x":166467.87999999896,"y":2542801.879999999}},{"attributes":{"ID":482144,"DIS_CODE":0,"TOWNNAME":"南區","LI":"文南里","LIN":"26鄰","STREET":"南功街","SECT":" ","MAREA":" ","LANE":" ","ALLEY":" ","HOUSE_NO":"７７號六樓","E_COORD97":166467.88,"N_COORD97":2542801.8799999999,"ADDRESS":"南功街７７號六樓","OBJECTID":482119},"geometry":{"x":166467.87999999896,"y":2542801.879999999}},{"attributes":{"ID":482145,"DIS_CODE":0,"TOWNNAME":"南區","LI":"文南里","LIN":"26鄰","STREET":"南功街","SECT":" ","MAREA":" ","LANE":" ","ALLEY":" ","HOUSE_NO":"７７號四樓","E_COORD97":166467.88,"N_COORD97":2542801.8799999999,"ADDRESS":"南功街７７號四樓","OBJECTID":482120},"geometry":{"x":166467.87999999896,"y":2542801.879999999}},{"attributes":{"ID":482146,"DIS_CODE":0,"TOWNNAME":"南區","LI":"文南里","LIN":"26鄰","STREET":"南功街","SECT":" ","MAREA":" ","LANE":" ","ALLEY":" ","HOUSE_NO":"７９號七樓","E_COORD97":166474.81,"N_COORD97":2542801.02,"ADDRESS":"南功街７９號七樓","OBJECTID":482121},"geometry":{"x":166474.80999999866,"y":2542801.0200000014}},{"attributes":{"ID":482147,"DIS_CODE":0,"TOWNNAME":"南區","LI":"文南里","LIN":"26鄰","STREET":"南功街","SECT":" ","MAREA":" ","LANE":" ","ALLEY":" ","HOUSE_NO":"７９號二樓","E_COORD97":166474.81,"N_COORD97":2542801.02,"ADDRESS":"南功街７９號二樓","OBJECTID":482122},"geometry":{"x":166474.80999999866,"y":2542801.0200000014}},{"attributes":{"ID":482148,"DIS_CODE":0,"TOWNNAME":"南區","LI":"文南里","LIN":"26鄰","STREET":"南功街","SECT":" ","MAREA":" ","LANE":" ","ALLEY":" ","HOUSE_NO":"７９號八樓","E_COORD97":166474.81,"N_COORD97":2542801.02,"ADDRESS":"南功街７９號八樓","OBJECTID":482123},"geometry":{"x":166474.80999999866,"y":2542801.0200000014}},{"attributes":{"ID":482149,"DIS_CODE":0,"TOWNNAME":"南區","LI":"文南里","LIN":"26鄰","STREET":"南功街","SECT":" ","MAREA":" ","LANE":" ","ALLEY":" ","HOUSE_NO":"７９號三樓","E_COORD97":166474.81,"N_COORD97":2542801.02,"ADDRESS":"南功街７９號三樓","OBJECTID":482124},"geometry":{"x":166474.80999999866,"y":2542801.0200000014}},{"attributes":{"ID":482150,"DIS_CODE":0,"TOWNNAME":"南區","LI":"文南里","LIN":"26鄰","STREET":"南功街","SECT":" ","MAREA":" ","LANE":" ","ALLEY":" ","HOUSE_NO":"７９號五樓","E_COORD97":166474.81,"N_COORD97":2542801.02,"ADDRESS":"南功街７９號五樓","OBJECTID":482125},"geometry":{"x":166474.80999999866,"y":2542801.0200000014}},{"attributes":{"ID":482151,"DIS_CODE":0,"TOWNNAME":"南區","LI":"文南里","LIN":"26鄰","STREET":"南功街","SECT":" ","MAREA":" ","LANE":" ","ALLEY":" ","HOUSE_NO":"７９號六樓","E_COORD97":166474.81,"N_COORD97":2542801.02,"ADDRESS":"南功街７９號六樓","OBJECTID":482126},"geometry":{"x":166474.80999999866,"y":2542801.0200000014}},{"attributes":{"ID":482152,"DIS_CODE":0,"TOWNNAME":"南區","LI":"文南里","LIN":"26鄰","STREET":"南功街","SECT":" ","MAREA":" ","LANE":" ","ALLEY":" ","HOUSE_NO":"７９號四樓","E_COORD97":166474.81,"N_COORD97":2542801.02,"ADDRESS":"南功街７９號四樓","OBJECTID":482127},"geometry":{"x":166474.80999999866,"y":2542801.0200000014}},{"attributes":{"ID":482153,"DIS_CODE":0,"TOWNNAME":"南區","LI":"文南里","LIN":"26鄰","STREET":"南功街","SECT":" ","MAREA":" ","LANE":" ","ALLEY":" ","HOUSE_NO":"８１號七樓","E_COORD97":166482.19,"N_COORD97":2542800.1499999999,"ADDRESS":"南功街８１號七樓","OBJECTID":482128},"geometry":{"x":166482.19000000134,"y":2542800.1500000022}},{"attributes":{"ID":482154,"DIS_CODE":0,"TOWNNAME":"南區","LI":"文南里","LIN":"26鄰","STREET":"南功街","SECT":" ","MAREA":" ","LANE":" ","ALLEY":" ","HOUSE_NO":"８１號二樓","E_COORD97":166482.19,"N_COORD97":2542800.1499999999,"ADDRESS":"南功街８１號二樓","OBJECTID":482129},"geometry":{"x":166482.19000000134,"y":2542800.1500000022}},{"attributes":{"ID":482155,"DIS_CODE":0,"TOWNNAME":"南區","LI":"文南里","LIN":"26鄰","STREET":"南功街","SECT":" ","MAREA":" ","LANE":" ","ALLEY":" ","HOUSE_NO":"８１號八樓","E_COORD97":166482.19,"N_COORD97":2542800.1499999999,"ADDRESS":"南功街８１號八樓","OBJECTID":482130},"geometry":{"x":166482.19000000134,"y":2542800.1500000022}},{"attributes":{"ID":482156,"DIS_CODE":0,"TOWNNAME":"南區","LI":"文南里","LIN":"26鄰","STREET":"南功街","SECT":" ","MAREA":" ","LANE":" ","ALLEY":" ","HOUSE_NO":"８１號三樓","E_COORD97":166482.19,"N_COORD97":2542800.1499999999,"ADDRESS":"南功街８１號三樓","OBJECTID":482131},"geometry":{"x":166482.19000000134,"y":2542800.1500000022}},{"attributes":{"ID":482157,"DIS_CODE":0,"TOWNNAME":"南區","LI":"文南里","LIN":"26鄰","STREET":"南功街","SECT":" ","MAREA":" ","LANE":" ","ALLEY":" ","HOUSE_NO":"８１號五樓","E_COORD97":166482.19,"N_COORD97":2542800.1499999999,"ADDRESS":"南功街８１號五樓","OBJECTID":482132},"geometry":{"x":166482.19000000134,"y":2542800.1500000022}},{"attributes":{"ID":482158,"DIS_CODE":0,"TOWNNAME":"南區","LI":"文南里","LIN":"26鄰","STREET":"南功街","SECT":" ","MAREA":" ","LANE":" ","ALLEY":" ","HOUSE_NO":"８１號六樓","E_COORD97":166482.19,"N_COORD97":2542800.1499999999,"ADDRESS":"南功街８１號六樓","OBJECTID":482133},"geometry":{"x":166482.19000000134,"y":2542800.1500000022}},{"attributes":{"ID":482159,"DIS_CODE":0,"TOWNNAME":"南區","LI":"文南里","LIN":"26鄰","STREET":"南功街","SECT":" ","MAREA":" ","LANE":" ","ALLEY":" ","HOUSE_NO":"８１號四樓","E_COORD97":166482.19,"N_COORD97":2542800.1499999999,"ADDRESS":"南功街８１號四樓","OBJECTID":482134},"geometry":{"x":166482.19000000134,"y":2542800.1500000022}},{"attributes":{"ID":482160,"DIS_CODE":0,"TOWNNAME":"南區","LI":"文南里","LIN":"26鄰","STREET":"南功街","SECT":" ","MAREA":" ","LANE":" ","ALLEY":" ","HOUSE_NO":"８３號七樓","E_COORD97":166490.01000000001,"N_COORD97":2542799.29,"ADDRESS":"南功街８３號七樓","OBJECTID":482135},"geometry":{"x":166490.00999999978,"y":2542799.2899999991}},{"attributes":{"ID":482161,"DIS_CODE":0,"TOWNNAME":"南區","LI":"文南里","LIN":"26鄰","STREET":"南功街","SECT":" ","MAREA":" ","LANE":" ","ALLEY":" ","HOUSE_NO":"８３號二樓","E_COORD97":166490.01000000001,"N_COORD97":2542799.29,"ADDRESS":"南功街８３號二樓","OBJECTID":482136},"geometry":{"x":166490.00999999978,"y":2542799.2899999991}},{"attributes":{"ID":482162,"DIS_CODE":0,"TOWNNAME":"南區","LI":"文南里","LIN":"26鄰","STREET":"南功街","SECT":" ","MAREA":" ","LANE":" ","ALLEY":" ","HOUSE_NO":"８３號八樓","E_COORD97":166490.01000000001,"N_COORD97":2542799.29,"ADDRESS":"南功街８３號八樓","OBJECTID":482137},"geometry":{"x":166490.00999999978,"y":2542799.2899999991}},{"attributes":{"ID":482163,"DIS_CODE":0,"TOWNNAME":"南區","LI":"文南里","LIN":"26鄰","STREET":"南功街","SECT":" ","MAREA":" ","LANE":" ","ALLEY":" ","HOUSE_NO":"８３號三樓","E_COORD97":166490.01000000001,"N_COORD97":2542799.29,"ADDRESS":"南功街８３號三樓","OBJECTID":482138},"geometry":{"x":166490.00999999978,"y":2542799.2899999991}},{"attributes":{"ID":482164,"DIS_CODE":0,"TOWNNAME":"南區","LI":"文南里","LIN":"26鄰","STREET":"南功街","SECT":" ","MAREA":" ","LANE":" ","ALLEY":" ","HOUSE_NO":"８３號五樓","E_COORD97":166490.01000000001,"N_COORD97":2542799.29,"ADDRESS":"南功街８３號五樓","OBJECTID":482139},"geometry":{"x":166490.00999999978,"y":2542799.2899999991}},{"attributes":{"ID":482165,"DIS_CODE":0,"TOWNNAME":"南區","LI":"文南里","LIN":"26鄰","STREET":"南功街","SECT":" ","MAREA":" ","LANE":" ","ALLEY":" ","HOUSE_NO":"８３號六樓","E_COORD97":166490.01000000001,"N_COORD97":2542799.29,"ADDRESS":"南功街８３號六樓","OBJECTID":482140},"geometry":{"x":166490.00999999978,"y":2542799.2899999991}},{"attributes":{"ID":482166,"DIS_CODE":0,"TOWNNAME":"南區","LI":"文南里","LIN":"26鄰","STREET":"南功街","SECT":" ","MAREA":" ","LANE":" ","ALLEY":" ","HOUSE_NO":"８３號四樓","E_COORD97":166490.01000000001,"N_COORD97":2542799.29,"ADDRESS":"南功街８３號四樓","OBJECTID":482141},"geometry":{"x":166490.00999999978,"y":2542799.2899999991}},{"attributes":{"ID":482167,"DIS_CODE":0,"TOWNNAME":"北區","LI":"成德里","LIN":"26鄰","STREET":"育德一街","SECT":" ","MAREA":" ","LANE":" ","ALLEY":" ","HOUSE_NO":"９號十樓","E_COORD97":168450.25,"N_COORD97":2545806.6299999999,"ADDRESS":"育德一街９號十樓","OBJECTID":482142},"geometry":{"x":168450.25,"y":2545806.6300000008}},{"attributes":{"ID":482168,"DIS_CODE":0,"TOWNNAME":"永康區","LI":"永康里","LIN":"26鄰","STREET":"永大路","SECT":"二段","MAREA":" ","LANE":" ","ALLEY":" ","HOUSE_NO":"１１２９號十七樓之７","E_COORD97":174199.76999999999,"N_COORD97":2547482.3599999999,"ADDRESS":"永大路二段１１２９號十七樓之７","OBJECTID":482143},"geometry":{"x":174199.76999999955,"y":2547482.3599999994}},{"attributes":{"ID":482169,"DIS_CODE":0,"TOWNNAME":"永康區","LI":"永康里","LIN":"26鄰","STREET":"中山北路","SECT":" ","MAREA":" ","LANE":" ","ALLEY":" ","HOUSE_NO":"１１４號八樓之１","E_COORD97":174163.73999999999,"N_COORD97":2547447.25,"ADDRESS":"中山北路１１４號八樓之１","OBJECTID":482144},"geometry":{"x":174163.74000000209,"y":2547447.2500000019}},{"attributes":{"ID":482170,"DIS_CODE":0,"TOWNNAME":"永康區","LI":"永康里","LIN":"26鄰","STREET":"永大路","SECT":"二段","MAREA":" ","LANE":" ","ALLEY":" ","HOUSE_NO":"１１２９號十九樓之３","E_COORD97":174199.79000000001,"N_COORD97":2547482.3599999999,"ADDRESS":"永大路二段１１２９號十九樓之３","OBJECTID":482145},"geometry":{"x":174199.79000000004,"y":2547482.3599999994}},{"attributes":{"ID":482171,"DIS_CODE":0,"TOWNNAME":"永康區","LI":"永康里","LIN":"26鄰","STREET":"中山北路","SECT":" ","MAREA":" ","LANE":" ","ALLEY":" ","HOUSE_NO":"１１４號十一樓之３","E_COORD97":174165.09,"N_COORD97":2547447.25,"ADDRESS":"中山北路１１４號十一樓之３","OBJECTID":482146},"geometry":{"x":174165.09000000078,"y":2547447.2500000019}},{"attributes":{"ID":482172,"DIS_CODE":0,"TOWNNAME":"永康區","LI":"永康里","LIN":"26鄰","STREET":"中山北路","SECT":" ","MAREA":" ","LANE":" ","ALLEY":" ","HOUSE_NO":"１１４號九樓之３","E_COORD97":174163.84,"N_COORD97":2547447.25,"ADDRESS":"中山北路１１４號九樓之３","OBJECTID":482147},"geometry":{"x":174163.83999999985,"y":2547447.2500000019}},{"attributes":{"ID":482173,"DIS_CODE":0,"TOWNNAME":"北區","LI":"中樓里","LIN":"5鄰","STREET":"開元路","SECT":" ","MAREA":" ","LANE":" ","ALLEY":" ","HOUSE_NO":"２號之３","E_COORD97":169546.89999999999,"N_COORD97":2545080.5699999998,"ADDRESS":"開元路２號之３","OBJECTID":482148},"geometry":{"x":169546.90000000224,"y":2545080.5700000003}},{"attributes":{"ID":482174,"DIS_CODE":0,"TOWNNAME":"東區","LI":"大智里","LIN":"26鄰","STREET":"德東街","SECT":" ","MAREA":" ","LANE":" ","ALLEY":" ","HOUSE_NO":"２１０號七樓之１","E_COORD97":171363.01000000001,"N_COORD97":2540246.9900000002,"ADDRESS":"德東街２１０號七樓之１","OBJECTID":482149},"geometry":{"x":171363.01000000071,"y":2540246.9900000002}},{"attributes":{"ID":482175,"DIS_CODE":0,"TOWNNAME":"東區","LI":"大智里","LIN":"26鄰","STREET":"德東街","SECT":" ","MAREA":" ","LANE":" ","ALLEY":" ","HOUSE_NO":"２１０號七樓之２","E_COORD97":171363.01000000001,"N_COORD97":2540246.9900000002,"ADDRESS":"德東街２１０號七樓之２","OBJECTID":482150},"geometry":{"x":171363.01000000071,"y":2540246.9900000002}},{"attributes":{"ID":482176,"DIS_CODE":0,"TOWNNAME":"東區","LI":"大智里","LIN":"26鄰","STREET":"德東街","SECT":" ","MAREA":" ","LANE":" ","ALLEY":" ","HOUSE_NO":"２１０號七樓之５","E_COORD97":171363.01000000001,"N_COORD97":2540246.9900000002,"ADDRESS":"德東街２１０號七樓之５","OBJECTID":482151},"geometry":{"x":171363.01000000071,"y":2540246.9900000002}},{"attributes":{"ID":482177,"DIS_CODE":0,"TOWNNAME":"佳里區","LI":"鎮山里","LIN":"7鄰","STREET":"崇德街","SECT":" ","MAREA":" ","LANE":"５８巷","ALLEY":" ","HOUSE_NO":"１號","E_COORD97":166097.92999999999,"N_COORD97":2561672.6600000001,"ADDRESS":"崇德街５８巷１號","OBJECTID":482152},"geometry":{"x":166097.93000000156,"y":2561672.6600000001}},{"attributes":{"ID":482178,"DIS_CODE":0,"TOWNNAME":"東區","LI":"大智里","LIN":"26鄰","STREET":"德東街","SECT":" ","MAREA":" ","LANE":" ","ALLEY":" ","HOUSE_NO":"２１０號七樓之６","E_COORD97":171363.01000000001,"N_COORD97":2540246.9900000002,"ADDRESS":"德東街２１０號七樓之６","OBJECTID":482153},"geometry":{"x":171363.01000000071,"y":2540246.9900000002}},{"attributes":{"ID":482179,"DIS_CODE":0,"TOWNNAME":"仁德區","LI":"成功里","LIN":"26鄰","STREET":"成功一街","SECT":" ","MAREA":" ","LANE":" ","ALLEY":" ","HOUSE_NO":"４６號三樓","E_COORD97":170524.29000000001,"N_COORD97":2540026.52,"ADDRESS":"成功一街４６號三樓","OBJECTID":482154},"geometry":{"x":170524.29000000097,"y":2540026.5200000033}},{"attributes":{"ID":482180,"DIS_CODE":0,"TOWNNAME":"仁德區","LI":"成功里","LIN":"26鄰","STREET":"成功一街","SECT":" ","MAREA":" ","LANE":" ","ALLEY":" ","HOUSE_NO":"４６號二樓","E_COORD97":170524.29000000001,"N_COORD97":2540026.52,"ADDRESS":"成功一街４６號二樓","OBJECTID":482155},"geometry":{"x":170524.29000000097,"y":2540026.5200000033}},{"attributes":{"ID":482181,"DIS_CODE":0,"TOWNNAME":"東區","LI":"忠孝里","LIN":"26鄰","STREET":"林森路","SECT":"一段","MAREA":" ","LANE":" ","ALLEY":" ","HOUSE_NO":"１５８號二樓","E_COORD97":169530.54000000001,"N_COORD97":2542472.1899999999,"ADDRESS":"林森路一段１５８號二樓","OBJECTID":482156},"geometry":{"x":169530.54000000097,"y":2542472.1899999995}},{"attributes":{"ID":482182,"DIS_CODE":0,"TOWNNAME":"東區","LI":"忠孝里","LIN":"26鄰","STREET":"林森路","SECT":"一段","MAREA":" ","LANE":" ","ALLEY":" ","HOUSE_NO":"１５８號三樓","E_COORD97":169530.54000000001,"N_COORD97":2542472.1899999999,"ADDRESS":"林森路一段１５８號三樓","OBJECTID":482157},"geometry":{"x":169530.54000000097,"y":2542472.1899999995}},{"attributes":{"ID":482183,"DIS_CODE":0,"TOWNNAME":"東區","LI":"忠孝里","LIN":"26鄰","STREET":"林森路","SECT":"一段","MAREA":" ","LANE":" ","ALLEY":" ","HOUSE_NO":"１５８號四樓","E_COORD97":169530.54000000001,"N_COORD97":2542472.1899999999,"ADDRESS":"林森路一段１５８號四樓","OBJECTID":482158},"geometry":{"x":169530.54000000097,"y":2542472.1899999995}},{"attributes":{"ID":482184,"DIS_CODE":0,"TOWNNAME":"東區","LI":"忠孝里","LIN":"26鄰","STREET":"林森路","SECT":"一段","MAREA":" ","LANE":" ","ALLEY":" ","HOUSE_NO":"１５８號五樓","E_COORD97":169530.54000000001,"N_COORD97":2542472.1899999999,"ADDRESS":"林森路一段１５８號五樓","OBJECTID":482159},"geometry":{"x":169530.54000000097,"y":2542472.1899999995}},{"attributes":{"ID":482185,"DIS_CODE":0,"TOWNNAME":"東區","LI":"忠孝里","LIN":"26鄰","STREET":"林森路","SECT":"一段","MAREA":" ","LANE":" ","ALLEY":" ","HOUSE_NO":"１５８號六樓","E_COORD97":169530.54000000001,"N_COORD97":2542472.1899999999,"ADDRESS":"林森路一段１５８號六樓","OBJECTID":482160},"geometry":{"x":169530.54000000097,"y":2542472.1899999995}},{"attributes":{"ID":482186,"DIS_CODE":0,"TOWNNAME":"安平區","LI":"石門里","LIN":"11鄰","STREET":"\u25A0忠街","SECT":" ","MAREA":" ","LANE":" ","ALLEY":" ","HOUSE_NO":"１８號","E_COORD97":164375.03,"N_COORD97":2544659.8700000001,"ADDRESS":"\u25A0忠街１８號","OBJECTID":482161},"geometry":{"x":164375.03000000026,"y":2544659.870000001}},{"attributes":{"ID":482187,"DIS_CODE":0,"TOWNNAME":"永康區","LI":"永康里","LIN":"26鄰","STREET":"永大路","SECT":"二段","MAREA":" ","LANE":" ","ALLEY":" ","HOUSE_NO":"１１２９號七樓之２","E_COORD97":174198.57000000001,"N_COORD97":2547482.3599999999,"ADDRESS":"永大路二段１１２９號七樓之２","OBJECTID":482162},"geometry":{"x":174198.5700000003,"y":2547482.3599999994}},{"attributes":{"ID":482188,"DIS_CODE":0,"TOWNNAME":"永康區","LI":"永康里","LIN":"26鄰","STREET":"中山北路","SECT":" ","MAREA":" ","LANE":" ","ALLEY":" ","HOUSE_NO":"１１４號十二樓之４","E_COORD97":174165.01000000001,"N_COORD97":2547447.25,"ADDRESS":"中山北路１１４號十二樓之４","OBJECTID":482163},"geometry":{"x":174165.01000000071,"y":2547447.2500000019}},{"attributes":{"ID":482189,"DIS_CODE":0,"TOWNNAME":"永康區","LI":"網寮里","LIN":"26鄰","STREET":"永華路","SECT":" ","MAREA":" ","LANE":" ","ALLEY":" ","HOUSE_NO":"５７２號十二樓之２","E_COORD97":173894.07999999999,"N_COORD97":2546554.5499999998,"ADDRESS":"永華路５７２號十二樓之２","OBJECTID":482164},"geometry":{"x":173894.08000000101,"y":2546554.5500000026}},{"attributes":{"ID":482190,"DIS_CODE":0,"TOWNNAME":"永康區","LI":"網寮里","LIN":"26鄰","STREET":"永興路","SECT":" ","MAREA":" ","LANE":" ","ALLEY":" ","HOUSE_NO":"６５號六樓之３","E_COORD97":174047.16,"N_COORD97":2546517.5499999998,"ADDRESS":"永興路６５號六樓之３","OBJECTID":482165},"geometry":{"x":174047.16000000201,"y":2546517.5500000026}},{"attributes":{"ID":482191,"DIS_CODE":0,"TOWNNAME":"永康區","LI":"網寮里","LIN":"26鄰","STREET":"永華路","SECT":" ","MAREA":" ","LANE":" ","ALLEY":" ","HOUSE_NO":"５７２號十二樓之１","E_COORD97":173893.95000000001,"N_COORD97":2546554.5499999998,"ADDRESS":"永華路５７２號十二樓之１","OBJECTID":482166},"geometry":{"x":173893.95000000019,"y":2546554.5500000026}},{"attributes":{"ID":482192,"DIS_CODE":0,"TOWNNAME":"永康區","LI":"網寮里","LIN":"26鄰","STREET":"永興路","SECT":" ","MAREA":" ","LANE":" ","ALLEY":" ","HOUSE_NO":"６５號十樓之３","E_COORD97":174047.16,"N_COORD97":2546517.5499999998,"ADDRESS":"永興路６５號十樓之３","OBJECTID":482167},"geometry":{"x":174047.16000000201,"y":2546517.5500000026}},{"attributes":{"ID":482193,"DIS_CODE":0,"TOWNNAME":"永康區","LI":"網寮里","LIN":"26鄰","STREET":"永華路","SECT":" ","MAREA":" ","LANE":" ","ALLEY":" ","HOUSE_NO":"５８０號十樓之１","E_COORD97":173896.89000000001,"N_COORD97":2546572.7999999998,"ADDRESS":"永華路５８０號十樓之１","OBJECTID":482168},"geometry":{"x":173896.88999999966,"y":2546572.8000000045}},{"attributes":{"ID":482194,"DIS_CODE":0,"TOWNNAME":"永康區","LI":"網寮里","LIN":"26鄰","STREET":"永興路","SECT":" ","MAREA":" ","LANE":" ","ALLEY":" ","HOUSE_NO":"６５號十樓之１","E_COORD97":174047.06,"N_COORD97":2546517.5499999998,"ADDRESS":"永興路６５號十樓之１","OBJECTID":482169},"geometry":{"x":174047.05999999959,"y":2546517.5500000026}},{"attributes":{"ID":482195,"DIS_CODE":0,"TOWNNAME":"永康區","LI":"網寮里","LIN":"26鄰","STREET":"永興路","SECT":" ","MAREA":" ","LANE":" ","ALLEY":" ","HOUSE_NO":"６５號四樓之６","E_COORD97":174047.16,"N_COORD97":2546517.5499999998,"ADDRESS":"永興路６５號四樓之６","OBJECTID":482170},"geometry":{"x":174047.16000000201,"y":2546517.5500000026}},{"attributes":{"ID":482196,"DIS_CODE":0,"TOWNNAME":"永康區","LI":"網寮里","LIN":"26鄰","STREET":"永華路","SECT":" ","MAREA":" ","LANE":" ","ALLEY":" ","HOUSE_NO":"５７２號十一樓之２","E_COORD97":173894.07999999999,"N_COORD97":2546554.5499999998,"ADDRESS":"永華路５７２號十一樓之２","OBJECTID":482171},"geometry":{"x":173894.08000000101,"y":2546554.5500000026}},{"attributes":{"ID":482197,"DIS_CODE":0,"TOWNNAME":"永康區","LI":"網寮里","LIN":"26鄰","STREET":"永華路","SECT":" ","MAREA":" ","LANE":" ","ALLEY":" ","HOUSE_NO":"５７２號六樓之２","E_COORD97":173892.82999999999,"N_COORD97":2546554.5499999998,"ADDRESS":"永華路５７２號六樓之２","OBJECTID":482172},"geometry":{"x":173892.83000000007,"y":2546554.5500000026}},{"attributes":{"ID":482198,"DIS_CODE":0,"TOWNNAME":"永康區","LI":"網寮里","LIN":"26鄰","STREET":"永興路","SECT":" ","MAREA":" ","LANE":" ","ALLEY":" ","HOUSE_NO":"６５號九樓之６","E_COORD97":174047.16,"N_COORD97":2546517.5499999998,"ADDRESS":"永興路６５號九樓之６","OBJECTID":482173},"geometry":{"x":174047.16000000201,"y":2546517.5500000026}},{"attributes":{"ID":482199,"DIS_CODE":0,"TOWNNAME":"永康區","LI":"網寮里","LIN":"26鄰","STREET":"永華路","SECT":" ","MAREA":" ","LANE":" ","ALLEY":" ","HOUSE_NO":"５８０號四樓之２","E_COORD97":173897.01999999999,"N_COORD97":2546572.7999999998,"ADDRESS":"永華路５８０號四樓之２","OBJECTID":482174},"geometry":{"x":173897.02000000048,"y":2546572.8000000045}},{"attributes":{"ID":482200,"DIS_CODE":0,"TOWNNAME":"永康區","LI":"網寮里","LIN":"26鄰","STREET":"永華路","SECT":" ","MAREA":" ","LANE":" ","ALLEY":" ","HOUSE_NO":"５８０號十三樓之１","E_COORD97":173898.14000000001,"N_COORD97":2546572.7999999998,"ADDRESS":"永華路５８０號十三樓之１","OBJECTID":482175},"geometry":{"x":173898.1400000006,"y":2546572.8000000045}},{"attributes":{"ID":482201,"DIS_CODE":0,"TOWNNAME":"永康區","LI":"網寮里","LIN":"26鄰","STREET":"永華路","SECT":" ","MAREA":" ","LANE":" ","ALLEY":" ","HOUSE_NO":"５８０號十一樓之１","E_COORD97":173898.14000000001,"N_COORD97":2546572.7999999998,"ADDRESS":"永華路５８０號十一樓之１","OBJECTID":482176},"geometry":{"x":173898.1400000006,"y":2546572.8000000045}},{"attributes":{"ID":482202,"DIS_CODE":0,"TOWNNAME":"永康區","LI":"網寮里","LIN":"26鄰","STREET":"永興路","SECT":" ","MAREA":" ","LANE":" ","ALLEY":" ","HOUSE_NO":"６５號十樓之６","E_COORD97":174047.16,"N_COORD97":2546517.5499999998,"ADDRESS":"永興路６５號十樓之６","OBJECTID":482177},"geometry":{"x":174047.16000000201,"y":2546517.5500000026}},{"attributes":{"ID":482203,"DIS_CODE":0,"TOWNNAME":"永康區","LI":"網寮里","LIN":"26鄰","STREET":"永興路","SECT":" ","MAREA":" ","LANE":" ","ALLEY":" ","HOUSE_NO":"６５號七樓之１","E_COORD97":174047.06,"N_COORD97":2546517.5499999998,"ADDRESS":"永興路６５號七樓之１","OBJECTID":482178},"geometry":{"x":174047.05999999959,"y":2546517.5500000026}},{"attributes":{"ID":482204,"DIS_CODE":0,"TOWNNAME":"永康區","LI":"網寮里","LIN":"26鄰","STREET":"永華路","SECT":" ","MAREA":" ","LANE":" ","ALLEY":" ","HOUSE_NO":"５７２號七樓之１","E_COORD97":173892.70000000001,"N_COORD97":2546554.5499999998,"ADDRESS":"永華路５７２號七樓之１","OBJECTID":482179},"geometry":{"x":173892.70000000205,"y":2546554.5500000026}},{"attributes":{"ID":482205,"DIS_CODE":0,"TOWNNAME":"永康區","LI":"網寮里","LIN":"26鄰","STREET":"永興路","SECT":" ","MAREA":" ","LANE":" ","ALLEY":" ","HOUSE_NO":"６５號五樓之６","E_COORD97":174047.16,"N_COORD97":2546517.5499999998,"ADDRESS":"永興路６５號五樓之６","OBJECTID":482180},"geometry":{"x":174047.16000000201,"y":2546517.5500000026}},{"attributes":{"ID":482206,"DIS_CODE":0,"TOWNNAME":"永康區","LI":"網寮里","LIN":"26鄰","STREET":"永華路","SECT":" ","MAREA":" ","LANE":" ","ALLEY":" ","HOUSE_NO":"５８０號九樓之１","E_COORD97":173896.89000000001,"N_COORD97":2546572.7999999998,"ADDRESS":"永華路５８０號九樓之１","OBJECTID":482181},"geometry":{"x":173896.88999999966,"y":2546572.8000000045}},{"attributes":{"ID":482207,"DIS_CODE":0,"TOWNNAME":"永康區","LI":"網寮里","LIN":"26鄰","STREET":"永華路","SECT":" ","MAREA":" ","LANE":" ","ALLEY":" ","HOUSE_NO":"５８０號六樓之３","E_COORD97":173896.98000000001,"N_COORD97":2546572.7999999998,"ADDRESS":"永華路５８０號六樓之３","OBJECTID":482182},"geometry":{"x":173896.98000000138,"y":2546572.8000000045}},{"attributes":{"ID":482208,"DIS_CODE":0,"TOWNNAME":"永康區","LI":"網寮里","LIN":"26鄰","STREET":"永華路","SECT":" ","MAREA":" ","LANE":" ","ALLEY":" ","HOUSE_NO":"５７２號五樓之２","E_COORD97":173892.82999999999,"N_COORD97":2546554.5499999998,"ADDRESS":"永華路５７２號五樓之２","OBJECTID":482183},"geometry":{"x":173892.83000000007,"y":2546554.5500000026}},{"attributes":{"ID":482209,"DIS_CODE":0,"TOWNNAME":"永康區","LI":"網寮里","LIN":"26鄰","STREET":"永興路","SECT":" ","MAREA":" ","LANE":" ","ALLEY":" ","HOUSE_NO":"６５號八樓之７","E_COORD97":174047.14000000001,"N_COORD97":2546517.5499999998,"ADDRESS":"永興路６５號八樓之７","OBJECTID":482184},"geometry":{"x":174047.1400000006,"y":2546517.5500000026}},{"attributes":{"ID":482210,"DIS_CODE":0,"TOWNNAME":"永康區","LI":"網寮里","LIN":"26鄰","STREET":"永華路","SECT":" ","MAREA":" ","LANE":" ","ALLEY":" ","HOUSE_NO":"５８０號七樓之２","E_COORD97":173897.01999999999,"N_COORD97":2546572.7999999998,"ADDRESS":"永華路５８０號七樓之２","OBJECTID":482185},"geometry":{"x":173897.02000000048,"y":2546572.8000000045}},{"attributes":{"ID":482211,"DIS_CODE":0,"TOWNNAME":"北區","LI":"中樓里","LIN":"5鄰","STREET":"開元路","SECT":" ","MAREA":" ","LANE":" ","ALLEY":" ","HOUSE_NO":"４６號","E_COORD97":169638.45000000001,"N_COORD97":2545117.5499999998,"ADDRESS":"開元路４６號","OBJECTID":482186},"geometry":{"x":169638.45000000112,"y":2545117.5500000026}},{"attributes":{"ID":482212,"DIS_CODE":0,"TOWNNAME":"北區","LI":"中樓里","LIN":"5鄰","STREET":"開元路","SECT":" ","MAREA":" ","LANE":" ","ALLEY":" ","HOUSE_NO":"３０號","E_COORD97":169591.23999999999,"N_COORD97":2545115.6499999999,"ADDRESS":"開元路３０號","OBJECTID":482187},"geometry":{"x":169591.24000000022,"y":2545115.6500000022}},{"attributes":{"ID":482213,"DIS_CODE":0,"TOWNNAME":"安平區","LI":"華平里","LIN":"18鄰","STREET":"建平八街","SECT":" ","MAREA":" ","LANE":" ","ALLEY":" ","HOUSE_NO":"４４２號","E_COORD97":165114.25,"N_COORD97":2543610.2599999998,"ADDRESS":"建平八街４４２號","OBJECTID":482188},"geometry":{"x":165114.25,"y":2543610.2600000016}},{"attributes":{"ID":482214,"DIS_CODE":0,"TOWNNAME":"安平區","LI":"華平里","LIN":"18鄰","STREET":"建平八街","SECT":" ","MAREA":" ","LANE":" ","ALLEY":" ","HOUSE_NO":"４４６號","E_COORD97":165103.88,"N_COORD97":2543611.0899999999,"ADDRESS":"建平八街４４６號","OBJECTID":482189},"geometry":{"x":165103.88000000082,"y":2543611.0900000017}},{"attributes":{"ID":482215,"DIS_CODE":0,"TOWNNAME":"東區","LI":"和平里","LIN":"11鄰","STREET":"仁和路","SECT":" ","MAREA":" ","LANE":" ","ALLEY":" ","HOUSE_NO":"９５號四樓之４","E_COORD97":171315.45999999999,"N_COORD97":2541408.8900000001,"ADDRESS":"仁和路９５號四樓之４","OBJECTID":482190},"geometry":{"x":171315.45999999996,"y":2541408.8900000025}},{"attributes":{"ID":482216,"DIS_CODE":0,"TOWNNAME":"中西區","LI":"光賢里","LIN":"11鄰","STREET":"中華西路","SECT":"二段","MAREA":" ","LANE":" ","ALLEY":" ","HOUSE_NO":"５９６號二樓","E_COORD97":166663.89999999999,"N_COORD97":2544943.29,"ADDRESS":"中華西路二段５９６號二樓","OBJECTID":482191},"geometry":{"x":166663.9000000013,"y":2544943.2899999972}},{"attributes":{"ID":482217,"DIS_CODE":0,"TOWNNAME":"中西區","LI":"光賢里","LIN":"11鄰","STREET":"中華西路","SECT":"二段","MAREA":" ","LANE":" ","ALLEY":" ","HOUSE_NO":"５９６號三樓","E_COORD97":166663.89999999999,"N_COORD97":2544943.29,"ADDRESS":"中華西路二段５９６號三樓","OBJECTID":482192},"geometry":{"x":166663.9000000013,"y":2544943.2899999972}},{"attributes":{"ID":482218,"DIS_CODE":0,"TOWNNAME":"中西區","LI":"光賢里","LIN":"11鄰","STREET":"中華西路","SECT":"二段","MAREA":" ","LANE":" ","ALLEY":" ","HOUSE_NO":"５９６號四樓","E_COORD97":166663.89999999999,"N_COORD97":2544943.29,"ADDRESS":"中華西路二段５９６號四樓","OBJECTID":482193},"geometry":{"x":166663.9000000013,"y":2544943.2899999972}},{"attributes":{"ID":482219,"DIS_CODE":0,"TOWNNAME":"安平區","LI":"怡平里","LIN":"11鄰","STREET":"建平十二街","SECT":" ","MAREA":" ","LANE":" ","ALLEY":" ","HOUSE_NO":"１３５號四樓之４","E_COORD97":165720.42000000001,"N_COORD97":2544006.29,"ADDRESS":"建平十二街１３５號四樓之４","OBJECTID":482194},"geometry":{"x":165720.42000000086,"y":2544006.2899999991}},{"attributes":{"ID":482220,"DIS_CODE":0,"TOWNNAME":"安平區","LI":"華平里","LIN":"12鄰","STREET":"健康二街","SECT":" ","MAREA":" ","LANE":" ","ALLEY":" ","HOUSE_NO":"４１８號","E_COORD97":165331.04999999999,"N_COORD97":2543694.9100000001,"ADDRESS":"健康二街４１８號","OBJECTID":482195},"geometry":{"x":165331.05000000168,"y":2543694.9100000001}},{"attributes":{"ID":482221,"DIS_CODE":0,"TOWNNAME":"安南區","LI":"淵東里","LIN":"11鄰","STREET":"仁安路","SECT":" ","MAREA":" ","LANE":" ","ALLEY":" ","HOUSE_NO":"７５號","E_COORD97":165617.67000000001,"N_COORD97":2550136.6400000001,"ADDRESS":"仁安路７５號","OBJECTID":482196},"geometry":{"x":165617.66999999993,"y":2550136.6399999987}},{"attributes":{"ID":482222,"DIS_CODE":0,"TOWNNAME":"北區","LI":"興北里","LIN":"11鄰","STREET":"公園路","SECT":" ","MAREA":" ","LANE":" ","ALLEY":" ","HOUSE_NO":"５４６之１號","E_COORD97":169031.64000000001,"N_COORD97":2545276.4100000001,"ADDRESS":"公園路５４６之１號","OBJECTID":482197},"geometry":{"x":169031.63999999966,"y":2545276.410000002}},{"attributes":{"ID":482223,"DIS_CODE":0,"TOWNNAME":"安平區","LI":"石門里","LIN":"11鄰","STREET":"\u25A0忠街","SECT":" ","MAREA":" ","LANE":" ","ALLEY":" ","HOUSE_NO":"１８之２號","E_COORD97":164365.95000000001,"N_COORD97":2544661.3300000001,"ADDRESS":"\u25A0忠街１８之２號","OBJECTID":482198},"geometry":{"x":164365.95000000112,"y":2544661.3300000001}},{"attributes":{"ID":482224,"DIS_CODE":0,"TOWNNAME":"安平區","LI":"石門里","LIN":"11鄰","STREET":"\u25A0忠街","SECT":" ","MAREA":" ","LANE":" ","ALLEY":" ","HOUSE_NO":"１８號之１","E_COORD97":164370.35000000001,"N_COORD97":2544660.46,"ADDRESS":"\u25A0忠街１８號之１","OBJECTID":482199},"geometry":{"x":164370.34999999963,"y":2544660.4600000028}},{"attributes":{"ID":482225,"DIS_CODE":0,"TOWNNAME":"安平區","LI":"石門里","LIN":"11鄰","STREET":"\u25A0忠街","SECT":" ","MAREA":" ","LANE":" ","ALLEY":" ","HOUSE_NO":"２０號之１","E_COORD97":164374.14999999999,"N_COORD97":2544671.9900000002,"ADDRESS":"\u25A0忠街２０號之１","OBJECTID":482200},"geometry":{"x":164374.15000000037,"y":2544671.9900000039}}]}