{"displayFieldName":"TOWNNAME","fieldAliases":{"ID":"ID","DIS_CODE":"DIS_CODE","TOWNNAME":"TOWNNAME","LI":"LI","LIN":"LIN","STREET":"STREET","SECT":"SECT","MAREA":"MAREA","LANE":"LANE","ALLEY":"ALLEY","HOUSE_NO":"HOUSE_NO","E_COORD97":"E_COORD97","N_COORD97":"N_COORD97","ADDRESS":"ADDRESS","OBJECTID":"OBJECTID"},"geometryType":"esriGeometryPoint","spatialReference":{"wkid":102443,"latestWkid":3826},"fields":[{"name":"ID","type":"esriFieldTypeDouble","alias":"ID"},{"name":"DIS_CODE","type":"esriFieldTypeInteger","alias":"DIS_CODE"},{"name":"TOWNNAME","type":"esriFieldTypeString","alias":"TOWNNAME","length":8},{"name":"LI","type":"esriFieldTypeString","alias":"LI","length":8},{"name":"LIN","type":"esriFieldTypeString","alias":"LIN","length":12},{"name":"STREET","type":"esriFieldTypeString","alias":"STREET","length":20},{"name":"SECT","type":"esriFieldTypeString","alias":"SECT","length":8},{"name":"MAREA","type":"esriFieldTypeString","alias":"MAREA","length":12},{"name":"LANE","type":"esriFieldTypeString","alias":"LANE","length":10},{"name":"ALLEY","type":"esriFieldTypeString","alias":"ALLEY","length":10},{"name":"HOUSE_NO","type":"esriFieldTypeString","alias":"HOUSE_NO","length":20},{"name":"E_COORD97","type":"esriFieldTypeDouble","alias":"E_COORD97"},{"name":"N_COORD97","type":"esriFieldTypeDouble","alias":"N_COORD97"},{"name":"ADDRESS","type":"esriFieldTypeString","alias":"ADDRESS","length":50},{"name":"OBJECTID","type":"esriFieldTypeOID","alias":"OBJECTID"}],"features":[{"attributes":{"ID":638428,"DIS_CODE":0,"TOWNNAME":"佳里區","LI":"忠仁里","LIN":"4鄰","STREET":"延平路","SECT":" ","MAREA":" ","LANE":" ","ALLEY":" ","HOUSE_NO":"１９５號","E_COORD97":165878.35000000001,"N_COORD97":2562098.2000000002,"ADDRESS":"延平路１９５號","OBJECTID":638401},"geometry":{"x":165878.35000000056,"y":2562098.1999999993}},{"attributes":{"ID":638429,"DIS_CODE":0,"TOWNNAME":"安南區","LI":"淵西里","LIN":"16鄰","STREET":"安中路","SECT":"四段","MAREA":" ","LANE":" ","ALLEY":" ","HOUSE_NO":"２３８號","E_COORD97":164705.07999999999,"N_COORD97":2550149.2000000002,"ADDRESS":"安中路四段２３８號","OBJECTID":638402},"geometry":{"x":164705.08000000007,"y":2550149.2000000011}},{"attributes":{"ID":638430,"DIS_CODE":0,"TOWNNAME":"安南區","LI":"淵西里","LIN":"16鄰","STREET":"安中路","SECT":"四段","MAREA":" ","LANE":" ","ALLEY":" ","HOUSE_NO":"２２３號","E_COORD97":164696.38,"N_COORD97":2550116.29,"ADDRESS":"安中路四段２２３號","OBJECTID":638403},"geometry":{"x":164696.37999999896,"y":2550116.2899999991}},{"attributes":{"ID":638431,"DIS_CODE":0,"TOWNNAME":"安南區","LI":"大安里","LIN":"18鄰","STREET":"義安街","SECT":" ","MAREA":" ","LANE":" ","ALLEY":" ","HOUSE_NO":"１５８號","E_COORD97":167557.32000000001,"N_COORD97":2548223.2000000002,"ADDRESS":"義安街１５８號","OBJECTID":638404},"geometry":{"x":167557.32000000123,"y":2548223.2000000011}},{"attributes":{"ID":638432,"DIS_CODE":0,"TOWNNAME":"安南區","LI":"大安里","LIN":"7鄰","STREET":"大安街","SECT":" ","MAREA":" ","LANE":" ","ALLEY":" ","HOUSE_NO":"１５６號","E_COORD97":167332.26999999999,"N_COORD97":2548195.3900000001,"ADDRESS":"大安街１５６號","OBJECTID":638405},"geometry":{"x":167332.26999999955,"y":2548195.3900000006}},{"attributes":{"ID":638433,"DIS_CODE":0,"TOWNNAME":"安南區","LI":"溪心里","LIN":"17鄰","STREET":"功安三街","SECT":" ","MAREA":" ","LANE":" ","ALLEY":" ","HOUSE_NO":"９６號","E_COORD97":166080.67000000001,"N_COORD97":2550235.8700000001,"ADDRESS":"功安三街９６號","OBJECTID":638406},"geometry":{"x":166080.66999999993,"y":2550235.870000001}},{"attributes":{"ID":638434,"DIS_CODE":0,"TOWNNAME":"佳里區","LI":"鎮山里","LIN":"5鄰","STREET":"延平路","SECT":" ","MAREA":" ","LANE":" ","ALLEY":" ","HOUSE_NO":"９４號","E_COORD97":165963.69,"N_COORD97":2561770.96,"ADDRESS":"延平路９４號","OBJECTID":638407},"geometry":{"x":165963.69000000134,"y":2561770.9600000046}},{"attributes":{"ID":638435,"DIS_CODE":0,"TOWNNAME":"安南區","LI":"公親里","LIN":"6鄰","STREET":"公學路","SECT":"一段","MAREA":" ","LANE":" ","ALLEY":" ","HOUSE_NO":"１０號","E_COORD97":168751.41,"N_COORD97":2553157.1299999999,"ADDRESS":"公學路一段１０號","OBJECTID":638408},"geometry":{"x":168751.41000000201,"y":2553157.1300000008}},{"attributes":{"ID":638436,"DIS_CODE":0,"TOWNNAME":"安南區","LI":"公親里","LIN":"6鄰","STREET":"公學路","SECT":"一段","MAREA":" ","LANE":" ","ALLEY":" ","HOUSE_NO":"１０號之１","E_COORD97":168747.51999999999,"N_COORD97":2553154.54,"ADDRESS":"公學路一段１０號之１","OBJECTID":638409},"geometry":{"x":168747.52000000048,"y":2553154.540000001}},{"attributes":{"ID":638437,"DIS_CODE":0,"TOWNNAME":"安南區","LI":"公親里","LIN":"6鄰","STREET":"公學路","SECT":"一段","MAREA":" ","LANE":" ","ALLEY":" ","HOUSE_NO":"１０號之２","E_COORD97":168745.57000000001,"N_COORD97":2553151.2999999998,"ADDRESS":"公學路一段１０號之２","OBJECTID":638410},"geometry":{"x":168745.57000000123,"y":2553151.3000000026}},{"attributes":{"ID":638438,"DIS_CODE":0,"TOWNNAME":"安南區","LI":"公親里","LIN":"6鄰","STREET":"公學路","SECT":"一段","MAREA":" ","LANE":" ","ALLEY":" ","HOUSE_NO":"１０號之３","E_COORD97":168741.03,"N_COORD97":2553150.0099999998,"ADDRESS":"公學路一段１０號之３","OBJECTID":638411},"geometry":{"x":168741.03000000119,"y":2553150.0099999998}},{"attributes":{"ID":638439,"DIS_CODE":0,"TOWNNAME":"安南區","LI":"公親里","LIN":"6鄰","STREET":"公學路","SECT":"一段","MAREA":" ","LANE":" ","ALLEY":" ","HOUSE_NO":"１０號之４","E_COORD97":168737.14000000001,"N_COORD97":2553147.4199999999,"ADDRESS":"公學路一段１０號之４","OBJECTID":638412},"geometry":{"x":168737.13999999966,"y":2553147.4199999999}},{"attributes":{"ID":638440,"DIS_CODE":0,"TOWNNAME":"佳里區","LI":"鎮山里","LIN":"4鄰","STREET":"延平路","SECT":" ","MAREA":" ","LANE":" ","ALLEY":" ","HOUSE_NO":"１２８號","E_COORD97":165945.84,"N_COORD97":2561852.5699999998,"ADDRESS":"延平路１２８號","OBJECTID":638413},"geometry":{"x":165945.83999999985,"y":2561852.5700000003}},{"attributes":{"ID":638441,"DIS_CODE":0,"TOWNNAME":"佳里區","LI":"鎮山里","LIN":"4鄰","STREET":"延平路","SECT":" ","MAREA":" ","LANE":" ","ALLEY":" ","HOUSE_NO":"１３０號","E_COORD97":165945.04999999999,"N_COORD97":2561857.1299999999,"ADDRESS":"延平路１３０號","OBJECTID":638414},"geometry":{"x":165945.05000000075,"y":2561857.1300000008}},{"attributes":{"ID":638442,"DIS_CODE":0,"TOWNNAME":"佳里區","LI":"鎮山里","LIN":"4鄰","STREET":"延平路","SECT":" ","MAREA":" ","LANE":" ","ALLEY":" ","HOUSE_NO":"１３２號","E_COORD97":165943.89000000001,"N_COORD97":2561861.6200000001,"ADDRESS":"延平路１３２號","OBJECTID":638415},"geometry":{"x":165943.89000000153,"y":2561861.6200000029}},{"attributes":{"ID":638443,"DIS_CODE":0,"TOWNNAME":"佳里區","LI":"鎮山里","LIN":"4鄰","STREET":"延平路","SECT":" ","MAREA":" ","LANE":" ","ALLEY":" ","HOUSE_NO":"１３４號","E_COORD97":165943.23000000001,"N_COORD97":2561866.0299999998,"ADDRESS":"延平路１３４號","OBJECTID":638416},"geometry":{"x":165943.23000000045,"y":2561866.0299999993}},{"attributes":{"ID":638444,"DIS_CODE":0,"TOWNNAME":"佳里區","LI":"鎮山里","LIN":"4鄰","STREET":"延平路","SECT":" ","MAREA":" ","LANE":" ","ALLEY":" ","HOUSE_NO":"１３６號","E_COORD97":165942.20999999999,"N_COORD97":2561870.29,"ADDRESS":"延平路１３６號","OBJECTID":638417},"geometry":{"x":165942.21000000089,"y":2561870.2899999991}},{"attributes":{"ID":638445,"DIS_CODE":0,"TOWNNAME":"佳里區","LI":"鎮山里","LIN":"4鄰","STREET":"延平路","SECT":" ","MAREA":" ","LANE":" ","ALLEY":" ","HOUSE_NO":"１３８號","E_COORD97":165941.19,"N_COORD97":2561874.8799999999,"ADDRESS":"延平路１３８號","OBJECTID":638418},"geometry":{"x":165941.19000000134,"y":2561874.8800000008}},{"attributes":{"ID":638446,"DIS_CODE":0,"TOWNNAME":"佳里區","LI":"鎮山里","LIN":"4鄰","STREET":"延平路","SECT":" ","MAREA":" ","LANE":" ","ALLEY":" ","HOUSE_NO":"１４０號","E_COORD97":165939.79999999999,"N_COORD97":2561879.4100000001,"ADDRESS":"延平路１４０號","OBJECTID":638419},"geometry":{"x":165939.80000000075,"y":2561879.410000002}},{"attributes":{"ID":638447,"DIS_CODE":0,"TOWNNAME":"佳里區","LI":"鎮山里","LIN":"4鄰","STREET":"延平路","SECT":" ","MAREA":" ","LANE":" ","ALLEY":" ","HOUSE_NO":"１４２號之１","E_COORD97":165938.09,"N_COORD97":2561889.0299999998,"ADDRESS":"延平路１４２號之１","OBJECTID":638420},"geometry":{"x":165938.09000000078,"y":2561889.0299999993}},{"attributes":{"ID":638448,"DIS_CODE":0,"TOWNNAME":"佳里區","LI":"鎮山里","LIN":"4鄰","STREET":"延平路","SECT":" ","MAREA":" ","LANE":" ","ALLEY":" ","HOUSE_NO":"１４６號","E_COORD97":165936.91,"N_COORD97":2561895.54,"ADDRESS":"延平路１４６號","OBJECTID":638421},"geometry":{"x":165936.91000000015,"y":2561895.5399999991}},{"attributes":{"ID":638449,"DIS_CODE":0,"TOWNNAME":"佳里區","LI":"忠仁里","LIN":"4鄰","STREET":"延平路","SECT":" ","MAREA":" ","LANE":" ","ALLEY":" ","HOUSE_NO":"１９７號","E_COORD97":165877.73000000001,"N_COORD97":2562103.8900000001,"ADDRESS":"延平路１９７號","OBJECTID":638422},"geometry":{"x":165877.73000000045,"y":2562103.8900000025}},{"attributes":{"ID":638450,"DIS_CODE":0,"TOWNNAME":"佳里區","LI":"忠仁里","LIN":"4鄰","STREET":"延平路","SECT":" ","MAREA":" ","LANE":" ","ALLEY":" ","HOUSE_NO":"１９９號","E_COORD97":165877.38,"N_COORD97":2562108.5099999998,"ADDRESS":"延平路１９９號","OBJECTID":638423},"geometry":{"x":165877.37999999989,"y":2562108.5100000016}},{"attributes":{"ID":638451,"DIS_CODE":0,"TOWNNAME":"佳里區","LI":"忠仁里","LIN":"4鄰","STREET":"延平路","SECT":" ","MAREA":" ","LANE":" ","ALLEY":" ","HOUSE_NO":"２０１號","E_COORD97":165877.14999999999,"N_COORD97":2562112.9500000002,"ADDRESS":"延平路２０１號","OBJECTID":638424},"geometry":{"x":165877.1500000013,"y":2562112.9500000011}},{"attributes":{"ID":638452,"DIS_CODE":0,"TOWNNAME":"佳里區","LI":"忠仁里","LIN":"4鄰","STREET":"延平路","SECT":" ","MAREA":" ","LANE":" ","ALLEY":" ","HOUSE_NO":"２０３號","E_COORD97":165876.64999999999,"N_COORD97":2562117.5,"ADDRESS":"延平路２０３號","OBJECTID":638425},"geometry":{"x":165876.65000000224,"y":2562117.5}},{"attributes":{"ID":638453,"DIS_CODE":0,"TOWNNAME":"佳里區","LI":"忠仁里","LIN":"4鄰","STREET":"延平路","SECT":" ","MAREA":" ","LANE":" ","ALLEY":" ","HOUSE_NO":"２０５號","E_COORD97":165876.17000000001,"N_COORD97":2562122.1499999999,"ADDRESS":"延平路２０５號","OBJECTID":638426},"geometry":{"x":165876.17000000179,"y":2562122.1500000022}},{"attributes":{"ID":638454,"DIS_CODE":0,"TOWNNAME":"佳里區","LI":"忠仁里","LIN":"4鄰","STREET":"延平路","SECT":" ","MAREA":" ","LANE":" ","ALLEY":" ","HOUSE_NO":"２０７號","E_COORD97":165875.16,"N_COORD97":2562128.9300000002,"ADDRESS":"延平路２０７號","OBJECTID":638427},"geometry":{"x":165875.16000000108,"y":2562128.9300000034}},{"attributes":{"ID":638455,"DIS_CODE":0,"TOWNNAME":"佳里區","LI":"忠仁里","LIN":"4鄰","STREET":"延平路","SECT":" ","MAREA":" ","LANE":" ","ALLEY":" ","HOUSE_NO":"２０９號","E_COORD97":165874.87,"N_COORD97":2562135.27,"ADDRESS":"延平路２０９號","OBJECTID":638428},"geometry":{"x":165874.86999999918,"y":2562135.2699999996}},{"attributes":{"ID":638456,"DIS_CODE":0,"TOWNNAME":"佳里區","LI":"忠仁里","LIN":"4鄰","STREET":"延平路","SECT":" ","MAREA":" ","LANE":" ","ALLEY":" ","HOUSE_NO":"２１１號","E_COORD97":165874.38,"N_COORD97":2562139.29,"ADDRESS":"延平路２１１號","OBJECTID":638429},"geometry":{"x":165874.37999999989,"y":2562139.2899999972}},{"attributes":{"ID":638457,"DIS_CODE":0,"TOWNNAME":"佳里區","LI":"忠仁里","LIN":"8鄰","STREET":"延平路","SECT":" ","MAREA":" ","LANE":" ","ALLEY":" ","HOUSE_NO":"１９６號","E_COORD97":165915.76999999999,"N_COORD97":2562048.02,"ADDRESS":"延平路１９６號","OBJECTID":638430},"geometry":{"x":165915.77000000142,"y":2562048.0200000014}},{"attributes":{"ID":638458,"DIS_CODE":0,"TOWNNAME":"佳里區","LI":"忠仁里","LIN":"8鄰","STREET":"延平路","SECT":" ","MAREA":" ","LANE":" ","ALLEY":" ","HOUSE_NO":"１９８號","E_COORD97":165915.35000000001,"N_COORD97":2562052.3999999999,"ADDRESS":"延平路１９８號","OBJECTID":638431},"geometry":{"x":165915.35000000149,"y":2562052.4000000022}},{"attributes":{"ID":638459,"DIS_CODE":0,"TOWNNAME":"佳里區","LI":"忠仁里","LIN":"8鄰","STREET":"延平路","SECT":" ","MAREA":" ","LANE":" ","ALLEY":" ","HOUSE_NO":"２００號","E_COORD97":165914.53,"N_COORD97":2562056.9100000001,"ADDRESS":"延平路２００號","OBJECTID":638432},"geometry":{"x":165914.53000000026,"y":2562056.9100000001}},{"attributes":{"ID":638460,"DIS_CODE":0,"TOWNNAME":"佳里區","LI":"忠仁里","LIN":"8鄰","STREET":"延平路","SECT":" ","MAREA":" ","LANE":" ","ALLEY":" ","HOUSE_NO":"２０２號","E_COORD97":165914.26000000001,"N_COORD97":2562061.54,"ADDRESS":"延平路２０２號","OBJECTID":638433},"geometry":{"x":165914.26000000164,"y":2562061.540000001}},{"attributes":{"ID":638461,"DIS_CODE":0,"TOWNNAME":"佳里區","LI":"忠仁里","LIN":"8鄰","STREET":"延平路","SECT":" ","MAREA":" ","LANE":" ","ALLEY":" ","HOUSE_NO":"２０４號","E_COORD97":165913.64999999999,"N_COORD97":2562066,"ADDRESS":"延平路２０４號","OBJECTID":638434},"geometry":{"x":165913.65000000037,"y":2562066.0000000019}},{"attributes":{"ID":638462,"DIS_CODE":0,"TOWNNAME":"佳里區","LI":"忠仁里","LIN":"8鄰","STREET":"延平路","SECT":" ","MAREA":" ","LANE":" ","ALLEY":" ","HOUSE_NO":"２０６號","E_COORD97":165912.89000000001,"N_COORD97":2562070.6800000002,"ADDRESS":"延平路２０６號","OBJECTID":638435},"geometry":{"x":165912.88999999966,"y":2562070.6800000016}},{"attributes":{"ID":638463,"DIS_CODE":0,"TOWNNAME":"佳里區","LI":"忠仁里","LIN":"8鄰","STREET":"延平路","SECT":" ","MAREA":" ","LANE":" ","ALLEY":" ","HOUSE_NO":"２０８號","E_COORD97":165912.60000000001,"N_COORD97":2562075.27,"ADDRESS":"延平路２０８號","OBJECTID":638436},"geometry":{"x":165912.60000000056,"y":2562075.2699999996}},{"attributes":{"ID":638464,"DIS_CODE":0,"TOWNNAME":"佳里區","LI":"忠仁里","LIN":"8鄰","STREET":"延平路","SECT":" ","MAREA":" ","LANE":" ","ALLEY":" ","HOUSE_NO":"２１０號","E_COORD97":165912,"N_COORD97":2562079.7000000002,"ADDRESS":"延平路２１０號","OBJECTID":638437},"geometry":{"x":165912.00000000093,"y":2562079.7000000011}},{"attributes":{"ID":638465,"DIS_CODE":0,"TOWNNAME":"佳里區","LI":"忠仁里","LIN":"4鄰","STREET":"延平路","SECT":" ","MAREA":" ","LANE":" ","ALLEY":" ","HOUSE_NO":"２１３號","E_COORD97":165874.76999999999,"N_COORD97":2562144.3599999999,"ADDRESS":"延平路２１３號","OBJECTID":638438},"geometry":{"x":165874.76999999955,"y":2562144.3600000013}},{"attributes":{"ID":638466,"DIS_CODE":0,"TOWNNAME":"佳里區","LI":"忠仁里","LIN":"4鄰","STREET":"延平路","SECT":" ","MAREA":" ","LANE":" ","ALLEY":" ","HOUSE_NO":"２１５號","E_COORD97":165873.82999999999,"N_COORD97":2562148.52,"ADDRESS":"延平路２１５號","OBJECTID":638439},"geometry":{"x":165873.83000000101,"y":2562148.5200000033}},{"attributes":{"ID":638467,"DIS_CODE":0,"TOWNNAME":"佳里區","LI":"忠仁里","LIN":"4鄰","STREET":"延平路","SECT":" ","MAREA":" ","LANE":" ","ALLEY":" ","HOUSE_NO":"２１７號","E_COORD97":165873.12,"N_COORD97":2562152.2999999998,"ADDRESS":"延平路２１７號","OBJECTID":638440},"geometry":{"x":165873.11999999918,"y":2562152.3000000026}},{"attributes":{"ID":638468,"DIS_CODE":0,"TOWNNAME":"佳里區","LI":"忠仁里","LIN":"4鄰","STREET":"延平路","SECT":" ","MAREA":" ","LANE":" ","ALLEY":" ","HOUSE_NO":"２１９號","E_COORD97":165872.45999999999,"N_COORD97":2562156.71,"ADDRESS":"延平路２１９號","OBJECTID":638441},"geometry":{"x":165872.46000000183,"y":2562156.7100000028}},{"attributes":{"ID":638469,"DIS_CODE":0,"TOWNNAME":"佳里區","LI":"忠仁里","LIN":"4鄰","STREET":"延平路","SECT":" ","MAREA":" ","LANE":" ","ALLEY":" ","HOUSE_NO":"２２３號","E_COORD97":165869.23000000001,"N_COORD97":2562164.7799999998,"ADDRESS":"延平路２２３號","OBJECTID":638442},"geometry":{"x":165869.23000000045,"y":2562164.7800000012}},{"attributes":{"ID":638470,"DIS_CODE":0,"TOWNNAME":"佳里區","LI":"忠仁里","LIN":"4鄰","STREET":"延平路","SECT":" ","MAREA":" ","LANE":" ","ALLEY":" ","HOUSE_NO":"２２５號","E_COORD97":165868.26999999999,"N_COORD97":2562169.6200000001,"ADDRESS":"延平路２２５號","OBJECTID":638443},"geometry":{"x":165868.27000000142,"y":2562169.6199999992}},{"attributes":{"ID":638471,"DIS_CODE":0,"TOWNNAME":"佳里區","LI":"忠仁里","LIN":"4鄰","STREET":"延平路","SECT":" ","MAREA":" ","LANE":" ","ALLEY":" ","HOUSE_NO":"２２７號","E_COORD97":165867.53,"N_COORD97":2562175.9300000002,"ADDRESS":"延平路２２７號","OBJECTID":638444},"geometry":{"x":165867.53000000119,"y":2562175.9299999997}},{"attributes":{"ID":638472,"DIS_CODE":0,"TOWNNAME":"佳里區","LI":"東寧里","LIN":"14鄰","STREET":"延平路","SECT":" ","MAREA":" ","LANE":" ","ALLEY":" ","HOUSE_NO":"３５２號","E_COORD97":165877.62,"N_COORD97":2562476.2400000002,"ADDRESS":"延平路３５２號","OBJECTID":638445},"geometry":{"x":165877.62000000011,"y":2562476.2400000002}},{"attributes":{"ID":638473,"DIS_CODE":0,"TOWNNAME":"佳里區","LI":"忠仁里","LIN":"8鄰","STREET":"延平路","SECT":" ","MAREA":" ","LANE":" ","ALLEY":" ","HOUSE_NO":"２１２號","E_COORD97":165911.12,"N_COORD97":2562085.5299999998,"ADDRESS":"延平路２１２號","OBJECTID":638446},"geometry":{"x":165911.12000000104,"y":2562085.5300000012}},{"attributes":{"ID":638474,"DIS_CODE":0,"TOWNNAME":"佳里區","LI":"忠仁里","LIN":"8鄰","STREET":"延平路","SECT":" ","MAREA":" ","LANE":" ","ALLEY":" ","HOUSE_NO":"２１４號","E_COORD97":165908.26999999999,"N_COORD97":2562101.77,"ADDRESS":"延平路２１４號","OBJECTID":638447},"geometry":{"x":165908.26999999955,"y":2562101.7699999996}},{"attributes":{"ID":638475,"DIS_CODE":0,"TOWNNAME":"佳里區","LI":"六安里","LIN":"24鄰","STREET":"延平路","SECT":" ","MAREA":" ","LANE":" ","ALLEY":" ","HOUSE_NO":"４６３號","E_COORD97":165862.16,"N_COORD97":2562974.1699999999,"ADDRESS":"延平路４６３號","OBJECTID":638448},"geometry":{"x":165862.16000000015,"y":2562974.1699999999}},{"attributes":{"ID":638476,"DIS_CODE":0,"TOWNNAME":"佳里區","LI":"六安里","LIN":"13鄰","STREET":"延平路","SECT":" ","MAREA":" ","LANE":" ","ALLEY":" ","HOUSE_NO":"７３２號","E_COORD97":166012.70999999999,"N_COORD97":2563599.3500000001,"ADDRESS":"延平路７３２號","OBJECTID":638449},"geometry":{"x":166012.70999999996,"y":2563599.3499999996}},{"attributes":{"ID":638477,"DIS_CODE":0,"TOWNNAME":"佳里區","LI":"忠仁里","LIN":"13鄰","STREET":"忠仁街","SECT":" ","MAREA":" ","LANE":" ","ALLEY":" ","HOUSE_NO":"１２０號","E_COORD97":166043.35999999999,"N_COORD97":2562182.8599999999,"ADDRESS":"忠仁街１２０號","OBJECTID":638450},"geometry":{"x":166043.36000000127,"y":2562182.8599999994}},{"attributes":{"ID":638478,"DIS_CODE":0,"TOWNNAME":"佳里區","LI":"安西里","LIN":"19鄰","STREET":"忠孝路","SECT":" ","MAREA":" ","LANE":" ","ALLEY":" ","HOUSE_NO":"１１１號","E_COORD97":165447.73999999999,"N_COORD97":2562940.52,"ADDRESS":"忠孝路１１１號","OBJECTID":638451},"geometry":{"x":165447.74000000115,"y":2562940.5199999996}},{"attributes":{"ID":638479,"DIS_CODE":0,"TOWNNAME":"佳里區","LI":"安西里","LIN":"25鄰","STREET":"忠孝路","SECT":" ","MAREA":" ","LANE":" ","ALLEY":" ","HOUSE_NO":"２３０號","E_COORD97":165024.92000000001,"N_COORD97":2563338.3399999999,"ADDRESS":"忠孝路２３０號","OBJECTID":638452},"geometry":{"x":165024.91999999993,"y":2563338.3400000017}},{"attributes":{"ID":638480,"DIS_CODE":0,"TOWNNAME":"佳里區","LI":"安西里","LIN":"14鄰","STREET":"長安街","SECT":" ","MAREA":" ","LANE":" ","ALLEY":" ","HOUSE_NO":"１００號","E_COORD97":165433.26999999999,"N_COORD97":2562544.6800000002,"ADDRESS":"長安街１００號","OBJECTID":638453},"geometry":{"x":165433.27000000048,"y":2562544.6800000016}},{"attributes":{"ID":638481,"DIS_CODE":0,"TOWNNAME":"佳里區","LI":"安西里","LIN":"14鄰","STREET":"長安街","SECT":" ","MAREA":" ","LANE":" ","ALLEY":" ","HOUSE_NO":"１０２號","E_COORD97":165433.04999999999,"N_COORD97":2562551.1499999999,"ADDRESS":"長安街１０２號","OBJECTID":638454},"geometry":{"x":165433.05000000075,"y":2562551.1500000004}},{"attributes":{"ID":638482,"DIS_CODE":0,"TOWNNAME":"佳里區","LI":"安西里","LIN":"14鄰","STREET":"長安街","SECT":" ","MAREA":" ","LANE":" ","ALLEY":" ","HOUSE_NO":"１０４號","E_COORD97":165430.69,"N_COORD97":2562557.5299999998,"ADDRESS":"長安街１０４號","OBJECTID":638455},"geometry":{"x":165430.69000000227,"y":2562557.5299999993}},{"attributes":{"ID":638483,"DIS_CODE":0,"TOWNNAME":"佳里區","LI":"六安里","LIN":"8鄰","STREET":"林園街","SECT":" ","MAREA":" ","LANE":" ","ALLEY":" ","HOUSE_NO":"７４號","E_COORD97":165954.34,"N_COORD97":2562835.1000000001,"ADDRESS":"林園街７４號","OBJECTID":638456},"geometry":{"x":165954.33999999985,"y":2562835.0999999996}},{"attributes":{"ID":638484,"DIS_CODE":0,"TOWNNAME":"佳里區","LI":"六安里","LIN":"8鄰","STREET":"林園街","SECT":" ","MAREA":" ","LANE":" ","ALLEY":" ","HOUSE_NO":"７８號","E_COORD97":165945.38,"N_COORD97":2562847.3300000001,"ADDRESS":"林園街７８號","OBJECTID":638457},"geometry":{"x":165945.37999999989,"y":2562847.3300000001}},{"attributes":{"ID":638485,"DIS_CODE":0,"TOWNNAME":"佳里區","LI":"六安里","LIN":"8鄰","STREET":"林園街","SECT":" ","MAREA":" ","LANE":" ","ALLEY":" ","HOUSE_NO":"８４號","E_COORD97":165920.76000000001,"N_COORD97":2562851.6800000002,"ADDRESS":"林園街８４號","OBJECTID":638458},"geometry":{"x":165920.75999999978,"y":2562851.6799999997}},{"attributes":{"ID":638486,"DIS_CODE":0,"TOWNNAME":"佳里區","LI":"六安里","LIN":"7鄰","STREET":"林園街","SECT":" ","MAREA":" ","LANE":" ","ALLEY":" ","HOUSE_NO":"６６號","E_COORD97":166007.17999999999,"N_COORD97":2562833.4700000002,"ADDRESS":"林園街６６號","OBJECTID":638459},"geometry":{"x":166007.1799999997,"y":2562833.4700000007}},{"attributes":{"ID":638487,"DIS_CODE":0,"TOWNNAME":"佳里區","LI":"安西里","LIN":"15鄰","STREET":"長安街","SECT":" ","MAREA":" ","LANE":" ","ALLEY":" ","HOUSE_NO":"１１５號","E_COORD97":165413.64999999999,"N_COORD97":2562550.7799999998,"ADDRESS":"長安街１１５號","OBJECTID":638460},"geometry":{"x":165413.65000000037,"y":2562550.7800000012}},{"attributes":{"ID":638488,"DIS_CODE":0,"TOWNNAME":"佳里區","LI":"安西里","LIN":"15鄰","STREET":"長安街","SECT":" ","MAREA":" ","LANE":" ","ALLEY":" ","HOUSE_NO":"１１７號","E_COORD97":165413.35000000001,"N_COORD97":2562555.6600000001,"ADDRESS":"長安街１１７號","OBJECTID":638461},"geometry":{"x":165413.3499999987,"y":2562555.660000002}},{"attributes":{"ID":638489,"DIS_CODE":0,"TOWNNAME":"佳里區","LI":"安西里","LIN":"15鄰","STREET":"長安街","SECT":" ","MAREA":" ","LANE":" ","ALLEY":" ","HOUSE_NO":"１１９號","E_COORD97":165413.32000000001,"N_COORD97":2562560.7000000002,"ADDRESS":"長安街１１９號","OBJECTID":638462},"geometry":{"x":165413.32000000123,"y":2562560.700000003}},{"attributes":{"ID":638490,"DIS_CODE":0,"TOWNNAME":"佳里區","LI":"安西里","LIN":"19鄰","STREET":"忠孝路","SECT":" ","MAREA":" ","LANE":" ","ALLEY":" ","HOUSE_NO":"９９號","E_COORD97":165463.98999999999,"N_COORD97":2562913.0499999998,"ADDRESS":"忠孝路９９號","OBJECTID":638463},"geometry":{"x":165463.99000000209,"y":2562913.0500000026}},{"attributes":{"ID":638491,"DIS_CODE":0,"TOWNNAME":"佳里區","LI":"安西里","LIN":"23鄰","STREET":"忠孝路","SECT":" ","MAREA":" ","LANE":" ","ALLEY":" ","HOUSE_NO":"９８號","E_COORD97":165283.17999999999,"N_COORD97":2563145.1600000001,"ADDRESS":"忠孝路９８號","OBJECTID":638464},"geometry":{"x":165283.18000000063,"y":2563145.1600000039}},{"attributes":{"ID":638492,"DIS_CODE":0,"TOWNNAME":"佳里區","LI":"安西里","LIN":"16鄰","STREET":"長安街","SECT":" ","MAREA":" ","LANE":" ","ALLEY":" ","HOUSE_NO":"１１６號","E_COORD97":165435.60999999999,"N_COORD97":2562616.9399999999,"ADDRESS":"長安街１１６號","OBJECTID":638465},"geometry":{"x":165435.61000000034,"y":2562616.9400000032}},{"attributes":{"ID":638493,"DIS_CODE":0,"TOWNNAME":"佳里區","LI":"安西里","LIN":"16鄰","STREET":"長安街","SECT":" ","MAREA":" ","LANE":" ","ALLEY":" ","HOUSE_NO":"１１８號","E_COORD97":165435.26999999999,"N_COORD97":2562621.1099999999,"ADDRESS":"長安街１１８號","OBJECTID":638466},"geometry":{"x":165435.26999999955,"y":2562621.1099999994}},{"attributes":{"ID":638494,"DIS_CODE":0,"TOWNNAME":"佳里區","LI":"安西里","LIN":"16鄰","STREET":"長安街","SECT":" ","MAREA":" ","LANE":" ","ALLEY":" ","HOUSE_NO":"１２０號","E_COORD97":165435.39999999999,"N_COORD97":2562625.52,"ADDRESS":"長安街１２０號","OBJECTID":638467},"geometry":{"x":165435.40000000037,"y":2562625.5199999996}},{"attributes":{"ID":638495,"DIS_CODE":0,"TOWNNAME":"佳里區","LI":"安西里","LIN":"16鄰","STREET":"長安街","SECT":" ","MAREA":" ","LANE":" ","ALLEY":" ","HOUSE_NO":"１２２號","E_COORD97":165435.64999999999,"N_COORD97":2562629.54,"ADDRESS":"長安街１２２號","OBJECTID":638468},"geometry":{"x":165435.65000000037,"y":2562629.5400000028}},{"attributes":{"ID":638496,"DIS_CODE":0,"TOWNNAME":"佳里區","LI":"安西里","LIN":"11鄰","STREET":"長安街","SECT":" ","MAREA":" ","LANE":" ","ALLEY":" ","HOUSE_NO":"２１號","E_COORD97":165404.95999999999,"N_COORD97":2562287.2599999998,"ADDRESS":"長安街２１號","OBJECTID":638469},"geometry":{"x":165404.96000000089,"y":2562287.2600000016}},{"attributes":{"ID":638497,"DIS_CODE":0,"TOWNNAME":"佳里區","LI":"安西里","LIN":"11鄰","STREET":"長安街","SECT":" ","MAREA":" ","LANE":" ","ALLEY":" ","HOUSE_NO":"２２號","E_COORD97":165428.26000000001,"N_COORD97":2562284.7799999998,"ADDRESS":"長安街２２號","OBJECTID":638470},"geometry":{"x":165428.26000000071,"y":2562284.7799999993}},{"attributes":{"ID":638498,"DIS_CODE":0,"TOWNNAME":"佳里區","LI":"安西里","LIN":"11鄰","STREET":"長安街","SECT":" ","MAREA":" ","LANE":" ","ALLEY":" ","HOUSE_NO":"２３號","E_COORD97":165405.17000000001,"N_COORD97":2562293.1600000001,"ADDRESS":"長安街２３號","OBJECTID":638471},"geometry":{"x":165405.17000000086,"y":2562293.1600000001}},{"attributes":{"ID":638499,"DIS_CODE":0,"TOWNNAME":"佳里區","LI":"安西里","LIN":"11鄰","STREET":"長安街","SECT":" ","MAREA":" ","LANE":" ","ALLEY":" ","HOUSE_NO":"２６號","E_COORD97":165428.60000000001,"N_COORD97":2562293.8199999998,"ADDRESS":"長安街２６號","OBJECTID":638472},"geometry":{"x":165428.5999999987,"y":2562293.8200000022}},{"attributes":{"ID":638500,"DIS_CODE":0,"TOWNNAME":"佳里區","LI":"安西里","LIN":"11鄰","STREET":"長安街","SECT":" ","MAREA":" ","LANE":" ","ALLEY":" ","HOUSE_NO":"２７號","E_COORD97":165409.25,"N_COORD97":2562307.9199999999,"ADDRESS":"長安街２７號","OBJECTID":638473},"geometry":{"x":165409.25,"y":2562307.9199999999}},{"attributes":{"ID":638501,"DIS_CODE":0,"TOWNNAME":"佳里區","LI":"安西里","LIN":"11鄰","STREET":"長安街","SECT":" ","MAREA":" ","LANE":" ","ALLEY":" ","HOUSE_NO":"２８號","E_COORD97":165428.57999999999,"N_COORD97":2562298.25,"ADDRESS":"長安街２８號","OBJECTID":638474},"geometry":{"x":165428.58000000007,"y":2562298.2500000019}},{"attributes":{"ID":638502,"DIS_CODE":0,"TOWNNAME":"佳里區","LI":"安西里","LIN":"11鄰","STREET":"長安街","SECT":" ","MAREA":" ","LANE":" ","ALLEY":" ","HOUSE_NO":"２９號","E_COORD97":165409.14999999999,"N_COORD97":2562313.3399999999,"ADDRESS":"長安街２９號","OBJECTID":638475},"geometry":{"x":165409.1500000013,"y":2562313.3400000017}},{"attributes":{"ID":638503,"DIS_CODE":0,"TOWNNAME":"佳里區","LI":"安西里","LIN":"11鄰","STREET":"長安街","SECT":" ","MAREA":" ","LANE":" ","ALLEY":" ","HOUSE_NO":"３０號","E_COORD97":165428.73000000001,"N_COORD97":2562303.04,"ADDRESS":"長安街３０號","OBJECTID":638476},"geometry":{"x":165428.73000000231,"y":2562303.0399999991}},{"attributes":{"ID":638504,"DIS_CODE":0,"TOWNNAME":"佳里區","LI":"安西里","LIN":"11鄰","STREET":"長安街","SECT":" ","MAREA":" ","LANE":" ","ALLEY":" ","HOUSE_NO":"３１號","E_COORD97":165409.32000000001,"N_COORD97":2562317.4300000002,"ADDRESS":"長安街３１號","OBJECTID":638477},"geometry":{"x":165409.32000000216,"y":2562317.4299999997}},{"attributes":{"ID":638505,"DIS_CODE":0,"TOWNNAME":"佳里區","LI":"安西里","LIN":"11鄰","STREET":"長安街","SECT":" ","MAREA":" ","LANE":" ","ALLEY":" ","HOUSE_NO":"３３號","E_COORD97":165409.29999999999,"N_COORD97":2562321.9399999999,"ADDRESS":"長安街３３號","OBJECTID":638478},"geometry":{"x":165409.30000000075,"y":2562321.9400000032}},{"attributes":{"ID":638506,"DIS_CODE":0,"TOWNNAME":"佳里區","LI":"安西里","LIN":"11鄰","STREET":"長安街","SECT":" ","MAREA":" ","LANE":" ","ALLEY":" ","HOUSE_NO":"３４號","E_COORD97":165427.31,"N_COORD97":2562318.7200000002,"ADDRESS":"長安街３４號","OBJECTID":638479},"geometry":{"x":165427.31000000145,"y":2562318.7200000025}},{"attributes":{"ID":638507,"DIS_CODE":0,"TOWNNAME":"佳里區","LI":"安西里","LIN":"11鄰","STREET":"長安街","SECT":" ","MAREA":" ","LANE":" ","ALLEY":" ","HOUSE_NO":"３５號","E_COORD97":165409.37,"N_COORD97":2562325.79,"ADDRESS":"長安街３５號","OBJECTID":638480},"geometry":{"x":165409.37000000104,"y":2562325.7899999972}},{"attributes":{"ID":638508,"DIS_CODE":0,"TOWNNAME":"佳里區","LI":"六安里","LIN":"24鄰","STREET":"林園街","SECT":" ","MAREA":" ","LANE":" ","ALLEY":" ","HOUSE_NO":"１１４號","E_COORD97":165778.13,"N_COORD97":2562881.8900000001,"ADDRESS":"林園街１１４號","OBJECTID":638481},"geometry":{"x":165778.13000000175,"y":2562881.8900000006}},{"attributes":{"ID":638509,"DIS_CODE":0,"TOWNNAME":"佳里區","LI":"六安里","LIN":"24鄰","STREET":"林園街","SECT":" ","MAREA":" ","LANE":" ","ALLEY":" ","HOUSE_NO":"１１６號","E_COORD97":165773.81,"N_COORD97":2562882.3300000001,"ADDRESS":"林園街１１６號","OBJECTID":638482},"geometry":{"x":165773.81000000052,"y":2562882.3300000001}},{"attributes":{"ID":638510,"DIS_CODE":0,"TOWNNAME":"佳里區","LI":"六安里","LIN":"3鄰","STREET":"林園街","SECT":" ","MAREA":" ","LANE":" ","ALLEY":" ","HOUSE_NO":"２１號","E_COORD97":166189.73999999999,"N_COORD97":2562849.3300000001,"ADDRESS":"林園街２１號","OBJECTID":638483},"geometry":{"x":166189.74000000115,"y":2562849.3300000019}},{"attributes":{"ID":638511,"DIS_CODE":0,"TOWNNAME":"佳里區","LI":"安西里","LIN":"13鄰","STREET":"長安街","SECT":" ","MAREA":" ","LANE":" ","ALLEY":" ","HOUSE_NO":"７５號","E_COORD97":165412.92000000001,"N_COORD97":2562432.25,"ADDRESS":"長安街７５號","OBJECTID":638484},"geometry":{"x":165412.91999999993,"y":2562432.2500000037}},{"attributes":{"ID":638512,"DIS_CODE":0,"TOWNNAME":"佳里區","LI":"安西里","LIN":"13鄰","STREET":"長安街","SECT":" ","MAREA":" ","LANE":" ","ALLEY":" ","HOUSE_NO":"７７號","E_COORD97":165413.20999999999,"N_COORD97":2562436.1499999999,"ADDRESS":"長安街７７號","OBJECTID":638485},"geometry":{"x":165413.21000000183,"y":2562436.1500000004}},{"attributes":{"ID":638513,"DIS_CODE":0,"TOWNNAME":"佳里區","LI":"六安里","LIN":"4鄰","STREET":"青年街","SECT":" ","MAREA":" ","LANE":" ","ALLEY":" ","HOUSE_NO":"１０號","E_COORD97":166217.35999999999,"N_COORD97":2563009.7599999998,"ADDRESS":"青年街１０號","OBJECTID":638486},"geometry":{"x":166217.36000000034,"y":2563009.7600000016}},{"attributes":{"ID":638514,"DIS_CODE":0,"TOWNNAME":"佳里區","LI":"六安里","LIN":"4鄰","STREET":"青年街","SECT":" ","MAREA":" ","LANE":" ","ALLEY":" ","HOUSE_NO":"１１號","E_COORD97":166215.57999999999,"N_COORD97":2562992.0899999999,"ADDRESS":"青年街１１號","OBJECTID":638487},"geometry":{"x":166215.58000000007,"y":2562992.0899999999}},{"attributes":{"ID":638515,"DIS_CODE":0,"TOWNNAME":"佳里區","LI":"六安里","LIN":"4鄰","STREET":"青年街","SECT":" ","MAREA":" ","LANE":" ","ALLEY":" ","HOUSE_NO":"１２號","E_COORD97":166213.72,"N_COORD97":2563009.23,"ADDRESS":"青年街１２號","OBJECTID":638488},"geometry":{"x":166213.72000000067,"y":2563009.2300000042}},{"attributes":{"ID":638516,"DIS_CODE":0,"TOWNNAME":"佳里區","LI":"六安里","LIN":"4鄰","STREET":"青年街","SECT":" ","MAREA":" ","LANE":" ","ALLEY":" ","HOUSE_NO":"１３號","E_COORD97":166212.04000000001,"N_COORD97":2562991.73,"ADDRESS":"青年街１３號","OBJECTID":638489},"geometry":{"x":166212.04000000004,"y":2562991.7300000004}},{"attributes":{"ID":638517,"DIS_CODE":0,"TOWNNAME":"佳里區","LI":"六安里","LIN":"4鄰","STREET":"青年街","SECT":" ","MAREA":" ","LANE":" ","ALLEY":" ","HOUSE_NO":"１４號","E_COORD97":166209.82999999999,"N_COORD97":2563008.3999999999,"ADDRESS":"青年街１４號","OBJECTID":638490},"geometry":{"x":166209.83000000101,"y":2563008.4000000022}},{"attributes":{"ID":638518,"DIS_CODE":0,"TOWNNAME":"佳里區","LI":"六安里","LIN":"4鄰","STREET":"青年街","SECT":" ","MAREA":" ","LANE":" ","ALLEY":" ","HOUSE_NO":"１５號","E_COORD97":166208.34,"N_COORD97":2562991.25,"ADDRESS":"青年街１５號","OBJECTID":638491},"geometry":{"x":166208.33999999985,"y":2562991.25}},{"attributes":{"ID":638519,"DIS_CODE":0,"TOWNNAME":"佳里區","LI":"六安里","LIN":"4鄰","STREET":"青年街","SECT":" ","MAREA":" ","LANE":" ","ALLEY":" ","HOUSE_NO":"１６號","E_COORD97":166205.70000000001,"N_COORD97":2563007.71,"ADDRESS":"青年街１６號","OBJECTID":638492},"geometry":{"x":166205.70000000112,"y":2563007.7100000028}},{"attributes":{"ID":638520,"DIS_CODE":0,"TOWNNAME":"佳里區","LI":"六安里","LIN":"4鄰","STREET":"青年街","SECT":" ","MAREA":" ","LANE":" ","ALLEY":" ","HOUSE_NO":"１７號","E_COORD97":166203.82000000001,"N_COORD97":2562990.8999999999,"ADDRESS":"青年街１７號","OBJECTID":638493},"geometry":{"x":166203.8200000003,"y":2562990.8999999985}},{"attributes":{"ID":638521,"DIS_CODE":0,"TOWNNAME":"佳里區","LI":"六安里","LIN":"4鄰","STREET":"青年街","SECT":" ","MAREA":" ","LANE":" ","ALLEY":" ","HOUSE_NO":"１８號","E_COORD97":166201.82000000001,"N_COORD97":2563007.48,"ADDRESS":"青年街１８號","OBJECTID":638494},"geometry":{"x":166201.8200000003,"y":2563007.4800000042}},{"attributes":{"ID":638522,"DIS_CODE":0,"TOWNNAME":"佳里區","LI":"六安里","LIN":"4鄰","STREET":"青年街","SECT":" ","MAREA":" ","LANE":" ","ALLEY":" ","HOUSE_NO":"１９號","E_COORD97":166199.67999999999,"N_COORD97":2562990.77,"ADDRESS":"青年街１９號","OBJECTID":638495},"geometry":{"x":166199.68000000156,"y":2562990.7699999996}},{"attributes":{"ID":638523,"DIS_CODE":0,"TOWNNAME":"佳里區","LI":"六安里","LIN":"4鄰","STREET":"青年街","SECT":" ","MAREA":" ","LANE":" ","ALLEY":" ","HOUSE_NO":"２０號","E_COORD97":166197.44,"N_COORD97":2563007.0699999998,"ADDRESS":"青年街２０號","OBJECTID":638496},"geometry":{"x":166197.44000000134,"y":2563007.070000004}},{"attributes":{"ID":638524,"DIS_CODE":0,"TOWNNAME":"佳里區","LI":"六安里","LIN":"4鄰","STREET":"青年街","SECT":" ","MAREA":" ","LANE":" ","ALLEY":" ","HOUSE_NO":"２１號","E_COORD97":166195.85000000001,"N_COORD97":2562990.1400000001,"ADDRESS":"青年街２１號","OBJECTID":638497},"geometry":{"x":166195.84999999963,"y":2562990.1400000025}},{"attributes":{"ID":638525,"DIS_CODE":0,"TOWNNAME":"佳里區","LI":"六安里","LIN":"4鄰","STREET":"青年街","SECT":" ","MAREA":" ","LANE":" ","ALLEY":" ","HOUSE_NO":"２２號","E_COORD97":166192.51000000001,"N_COORD97":2563005.96,"ADDRESS":"青年街２２號","OBJECTID":638498},"geometry":{"x":166192.51000000071,"y":2563005.9600000028}},{"attributes":{"ID":638526,"DIS_CODE":0,"TOWNNAME":"佳里區","LI":"六安里","LIN":"4鄰","STREET":"青年街","SECT":" ","MAREA":" ","LANE":" ","ALLEY":" ","HOUSE_NO":"２３號","E_COORD97":166191.17999999999,"N_COORD97":2562989.75,"ADDRESS":"青年街２３號","OBJECTID":638499},"geometry":{"x":166191.18000000156,"y":2562989.7500000019}},{"attributes":{"ID":638527,"DIS_CODE":0,"TOWNNAME":"佳里區","LI":"六安里","LIN":"26鄰","STREET":"青年街","SECT":" ","MAREA":" ","LANE":" ","ALLEY":" ","HOUSE_NO":"２１５號","E_COORD97":165562.53,"N_COORD97":2562986.0099999998,"ADDRESS":"青年街２１５號","OBJECTID":638500},"geometry":{"x":165562.53000000119,"y":2562986.0099999998}},{"attributes":{"ID":638528,"DIS_CODE":0,"TOWNNAME":"佳里區","LI":"六安里","LIN":"25鄰","STREET":"青年街","SECT":" ","MAREA":" ","LANE":" ","ALLEY":" ","HOUSE_NO":"１７１號","E_COORD97":165712.10999999999,"N_COORD97":2562969.1099999999,"ADDRESS":"青年街１７１號","OBJECTID":638501},"geometry":{"x":165712.11000000034,"y":2562969.1100000013}},{"attributes":{"ID":638529,"DIS_CODE":0,"TOWNNAME":"佳里區","LI":"六安里","LIN":"25鄰","STREET":"青年街","SECT":" ","MAREA":" ","LANE":" ","ALLEY":" ","HOUSE_NO":"１７３號","E_COORD97":165676.07999999999,"N_COORD97":2563003.04,"ADDRESS":"青年街１７３號","OBJECTID":638502},"geometry":{"x":165676.08000000007,"y":2563003.040000001}},{"attributes":{"ID":638530,"DIS_CODE":0,"TOWNNAME":"佳里區","LI":"六安里","LIN":"25鄰","STREET":"青年街","SECT":" ","MAREA":" ","LANE":" ","ALLEY":" ","HOUSE_NO":"１７５號","E_COORD97":165672.38,"N_COORD97":2563002.9900000002,"ADDRESS":"青年街１７５號","OBJECTID":638503},"geometry":{"x":165672.37999999989,"y":2563002.9900000002}},{"attributes":{"ID":638531,"DIS_CODE":0,"TOWNNAME":"佳里區","LI":"六安里","LIN":"25鄰","STREET":"青年街","SECT":" ","MAREA":" ","LANE":" ","ALLEY":" ","HOUSE_NO":"１７７號","E_COORD97":165668.37,"N_COORD97":2563001.6699999999,"ADDRESS":"青年街１７７號","OBJECTID":638504},"geometry":{"x":165668.37000000104,"y":2563001.6699999999}},{"attributes":{"ID":638532,"DIS_CODE":0,"TOWNNAME":"佳里區","LI":"六安里","LIN":"25鄰","STREET":"青年街","SECT":" ","MAREA":" ","LANE":" ","ALLEY":" ","HOUSE_NO":"１７９號","E_COORD97":165664.26999999999,"N_COORD97":2563001.79,"ADDRESS":"青年街１７９號","OBJECTID":638505},"geometry":{"x":165664.26999999955,"y":2563001.790000001}},{"attributes":{"ID":638533,"DIS_CODE":0,"TOWNNAME":"佳里區","LI":"六安里","LIN":"25鄰","STREET":"青年街","SECT":" ","MAREA":" ","LANE":" ","ALLEY":" ","HOUSE_NO":"１８１號","E_COORD97":165660.47,"N_COORD97":2563001.6000000001,"ADDRESS":"青年街１８１號","OBJECTID":638506},"geometry":{"x":165660.47000000067,"y":2563001.5999999996}},{"attributes":{"ID":638534,"DIS_CODE":0,"TOWNNAME":"佳里區","LI":"六安里","LIN":"25鄰","STREET":"青年街","SECT":" ","MAREA":" ","LANE":" ","ALLEY":" ","HOUSE_NO":"１８３號","E_COORD97":165655.95000000001,"N_COORD97":2563000.8300000001,"ADDRESS":"青年街１８３號","OBJECTID":638507},"geometry":{"x":165655.95000000112,"y":2563000.8300000001}},{"attributes":{"ID":638535,"DIS_CODE":0,"TOWNNAME":"佳里區","LI":"六安里","LIN":"25鄰","STREET":"青年街","SECT":" ","MAREA":" ","LANE":" ","ALLEY":" ","HOUSE_NO":"１８５號","E_COORD97":165652.22,"N_COORD97":2563000.4399999999,"ADDRESS":"青年街１８５號","OBJECTID":638508},"geometry":{"x":165652.22000000067,"y":2563000.4400000013}},{"attributes":{"ID":638536,"DIS_CODE":0,"TOWNNAME":"佳里區","LI":"六安里","LIN":"25鄰","STREET":"青年街","SECT":" ","MAREA":" ","LANE":" ","ALLEY":" ","HOUSE_NO":"１８７號","E_COORD97":165647.97,"N_COORD97":2562999.6299999999,"ADDRESS":"青年街１８７號","OBJECTID":638509},"geometry":{"x":165647.96999999974,"y":2562999.6300000008}},{"attributes":{"ID":638537,"DIS_CODE":0,"TOWNNAME":"佳里區","LI":"六安里","LIN":"25鄰","STREET":"青年街","SECT":" ","MAREA":" ","LANE":" ","ALLEY":" ","HOUSE_NO":"１８９號","E_COORD97":165641.72,"N_COORD97":2562997.7400000002,"ADDRESS":"青年街１８９號","OBJECTID":638510},"geometry":{"x":165641.7200000016,"y":2562997.7400000002}},{"attributes":{"ID":638538,"DIS_CODE":0,"TOWNNAME":"佳里區","LI":"六安里","LIN":"24鄰","STREET":"青年街","SECT":" ","MAREA":" ","LANE":" ","ALLEY":" ","HOUSE_NO":"１３５號","E_COORD97":165810.79999999999,"N_COORD97":2562994.25,"ADDRESS":"青年街１３５號","OBJECTID":638511},"geometry":{"x":165810.80000000168,"y":2562994.25}},{"attributes":{"ID":638539,"DIS_CODE":0,"TOWNNAME":"佳里區","LI":"六安里","LIN":"24鄰","STREET":"青年街","SECT":" ","MAREA":" ","LANE":" ","ALLEY":" ","HOUSE_NO":"１５５號","E_COORD97":165788.14999999999,"N_COORD97":2562992.5,"ADDRESS":"青年街１５５號","OBJECTID":638512},"geometry":{"x":165788.15000000037,"y":2562992.5}},{"attributes":{"ID":638540,"DIS_CODE":0,"TOWNNAME":"佳里區","LI":"六安里","LIN":"4鄰","STREET":"青年街","SECT":" ","MAREA":" ","LANE":" ","ALLEY":" ","HOUSE_NO":"２４號","E_COORD97":166185.98000000001,"N_COORD97":2563004.96,"ADDRESS":"青年街２４號","OBJECTID":638513},"geometry":{"x":166185.98000000045,"y":2563004.9600000046}},{"attributes":{"ID":638541,"DIS_CODE":0,"TOWNNAME":"佳里區","LI":"六安里","LIN":"4鄰","STREET":"青年街","SECT":" ","MAREA":" ","LANE":" ","ALLEY":" ","HOUSE_NO":"２５號","E_COORD97":166186.97,"N_COORD97":2562989.5299999998,"ADDRESS":"青年街２５號","OBJECTID":638514},"geometry":{"x":166186.96999999974,"y":2562989.5300000012}},{"attributes":{"ID":638542,"DIS_CODE":0,"TOWNNAME":"佳里區","LI":"六安里","LIN":"4鄰","STREET":"青年街","SECT":" ","MAREA":" ","LANE":" ","ALLEY":" ","HOUSE_NO":"２６號","E_COORD97":166179.56,"N_COORD97":2563004.1699999999,"ADDRESS":"青年街２６號","OBJECTID":638515},"geometry":{"x":166179.55999999959,"y":2563004.1699999999}},{"attributes":{"ID":638543,"DIS_CODE":0,"TOWNNAME":"佳里區","LI":"六安里","LIN":"4鄰","STREET":"青年街","SECT":" ","MAREA":" ","LANE":" ","ALLEY":" ","HOUSE_NO":"２７號","E_COORD97":166182.29999999999,"N_COORD97":2562989.1800000002,"ADDRESS":"青年街２７號","OBJECTID":638516},"geometry":{"x":166182.30000000075,"y":2562989.1800000016}},{"attributes":{"ID":638544,"DIS_CODE":0,"TOWNNAME":"佳里區","LI":"六安里","LIN":"4鄰","STREET":"青年街","SECT":" ","MAREA":" ","LANE":" ","ALLEY":" ","HOUSE_NO":"２８號","E_COORD97":166173.06,"N_COORD97":2563003.2400000002,"ADDRESS":"青年街２８號","OBJECTID":638517},"geometry":{"x":166173.05999999866,"y":2563003.2400000021}},{"attributes":{"ID":638545,"DIS_CODE":0,"TOWNNAME":"佳里區","LI":"六安里","LIN":"4鄰","STREET":"青年街","SECT":" ","MAREA":" ","LANE":" ","ALLEY":" ","HOUSE_NO":"２號","E_COORD97":166234.85999999999,"N_COORD97":2563012.3999999999,"ADDRESS":"青年街２號","OBJECTID":638518},"geometry":{"x":166234.86000000127,"y":2563012.4000000022}},{"attributes":{"ID":638546,"DIS_CODE":0,"TOWNNAME":"佳里區","LI":"六安里","LIN":"4鄰","STREET":"青年街","SECT":" ","MAREA":" ","LANE":" ","ALLEY":" ","HOUSE_NO":"３號","E_COORD97":166230.20000000001,"N_COORD97":2562993.6499999999,"ADDRESS":"青年街３號","OBJECTID":638519},"geometry":{"x":166230.20000000019,"y":2562993.6500000022}},{"attributes":{"ID":638547,"DIS_CODE":0,"TOWNNAME":"佳里區","LI":"六安里","LIN":"4鄰","STREET":"青年街","SECT":" ","MAREA":" ","LANE":" ","ALLEY":" ","HOUSE_NO":"４號","E_COORD97":166229.19,"N_COORD97":2563011.4900000002,"ADDRESS":"青年街４號","OBJECTID":638520},"geometry":{"x":166229.19000000227,"y":2563011.4900000021}},{"attributes":{"ID":638548,"DIS_CODE":0,"TOWNNAME":"佳里區","LI":"六安里","LIN":"26鄰","STREET":"青年街","SECT":" ","MAREA":" ","LANE":" ","ALLEY":" ","HOUSE_NO":"２４３號","E_COORD97":165497.23999999999,"N_COORD97":2562974.7999999998,"ADDRESS":"青年街２４３號","OBJECTID":638521},"geometry":{"x":165497.24000000022,"y":2562974.8000000007}},{"attributes":{"ID":638549,"DIS_CODE":0,"TOWNNAME":"佳里區","LI":"六安里","LIN":"6鄰","STREET":"青年街","SECT":" ","MAREA":" ","LANE":" ","ALLEY":" ","HOUSE_NO":"３５號","E_COORD97":166134.22,"N_COORD97":2562977.2400000002,"ADDRESS":"青年街３５號","OBJECTID":638522},"geometry":{"x":166134.21999999974,"y":2562977.2400000002}},{"attributes":{"ID":638550,"DIS_CODE":0,"TOWNNAME":"佳里區","LI":"六安里","LIN":"6鄰","STREET":"青年街","SECT":" ","MAREA":" ","LANE":" ","ALLEY":" ","HOUSE_NO":"３７號","E_COORD97":166129.67999999999,"N_COORD97":2562977.3100000001,"ADDRESS":"青年街３７號","OBJECTID":638523},"geometry":{"x":166129.6799999997,"y":2562977.3100000005}},{"attributes":{"ID":638551,"DIS_CODE":0,"TOWNNAME":"佳里區","LI":"六安里","LIN":"6鄰","STREET":"青年街","SECT":" ","MAREA":" ","LANE":" ","ALLEY":" ","HOUSE_NO":"３９號","E_COORD97":166125.42000000001,"N_COORD97":2562977.4199999999,"ADDRESS":"青年街３９號","OBJECTID":638524},"geometry":{"x":166125.42000000179,"y":2562977.4200000018}},{"attributes":{"ID":638552,"DIS_CODE":0,"TOWNNAME":"佳里區","LI":"六安里","LIN":"6鄰","STREET":"青年街","SECT":" ","MAREA":" ","LANE":" ","ALLEY":" ","HOUSE_NO":"４１號","E_COORD97":166120.98999999999,"N_COORD97":2562977.3500000001,"ADDRESS":"青年街４１號","OBJECTID":638525},"geometry":{"x":166120.99000000022,"y":2562977.3500000034}},{"attributes":{"ID":638553,"DIS_CODE":0,"TOWNNAME":"佳里區","LI":"六安里","LIN":"6鄰","STREET":"青年街","SECT":" ","MAREA":" ","LANE":" ","ALLEY":" ","HOUSE_NO":"４３號","E_COORD97":166116.59,"N_COORD97":2562977.27,"ADDRESS":"青年街４３號","OBJECTID":638526},"geometry":{"x":166116.58999999985,"y":2562977.2699999996}},{"attributes":{"ID":638554,"DIS_CODE":0,"TOWNNAME":"佳里區","LI":"東寧里","LIN":"18鄰","STREET":"信義二街","SECT":" ","MAREA":" ","LANE":" ","ALLEY":" ","HOUSE_NO":"１４號","E_COORD97":166176.76999999999,"N_COORD97":2562488.6600000001,"ADDRESS":"信義二街１４號","OBJECTID":638527},"geometry":{"x":166176.77000000142,"y":2562488.660000002}},{"attributes":{"ID":638555,"DIS_CODE":0,"TOWNNAME":"佳里區","LI":"東寧里","LIN":"20鄰","STREET":"信義二街","SECT":" ","MAREA":" ","LANE":" ","ALLEY":" ","HOUSE_NO":"２０號","E_COORD97":166161.98999999999,"N_COORD97":2562563.9199999999,"ADDRESS":"信義二街２０號","OBJECTID":638528},"geometry":{"x":166161.99000000022,"y":2562563.9200000018}},{"attributes":{"ID":638556,"DIS_CODE":0,"TOWNNAME":"佳里區","LI":"東寧里","LIN":"20鄰","STREET":"信義二街","SECT":" ","MAREA":" ","LANE":" ","ALLEY":" ","HOUSE_NO":"３２號","E_COORD97":166123.25,"N_COORD97":2562515.77,"ADDRESS":"信義二街３２號","OBJECTID":638529},"geometry":{"x":166123.25000000186,"y":2562515.7699999996}},{"attributes":{"ID":638557,"DIS_CODE":0,"TOWNNAME":"佳里區","LI":"東寧里","LIN":"20鄰","STREET":"信義二街","SECT":" ","MAREA":" ","LANE":" ","ALLEY":" ","HOUSE_NO":"３６號","E_COORD97":166116.82000000001,"N_COORD97":2562545.6499999999,"ADDRESS":"信義二街３６號","OBJECTID":638530},"geometry":{"x":166116.82000000123,"y":2562545.6500000022}},{"attributes":{"ID":638558,"DIS_CODE":0,"TOWNNAME":"佳里區","LI":"東寧里","LIN":"20鄰","STREET":"信義二街","SECT":" ","MAREA":" ","LANE":" ","ALLEY":" ","HOUSE_NO":"４６號","E_COORD97":166118.35000000001,"N_COORD97":2562570.52,"ADDRESS":"信義二街４６號","OBJECTID":638531},"geometry":{"x":166118.34999999963,"y":2562570.5200000014}},{"attributes":{"ID":638559,"DIS_CODE":0,"TOWNNAME":"佳里區","LI":"六安里","LIN":"1鄰","STREET":"信義二街","SECT":" ","MAREA":" ","LANE":" ","ALLEY":" ","HOUSE_NO":"４７號","E_COORD97":166072.44,"N_COORD97":2562702.4100000001,"ADDRESS":"信義二街４７號","OBJECTID":638532},"geometry":{"x":166072.44000000041,"y":2562702.4099999983}},{"attributes":{"ID":638560,"DIS_CODE":0,"TOWNNAME":"佳里區","LI":"六安里","LIN":"1鄰","STREET":"信義二街","SECT":" ","MAREA":" ","LANE":" ","ALLEY":" ","HOUSE_NO":"４９號","E_COORD97":166072.17999999999,"N_COORD97":2562706.3999999999,"ADDRESS":"信義二街４９號","OBJECTID":638533},"geometry":{"x":166072.1799999997,"y":2562706.4000000041}},{"attributes":{"ID":638561,"DIS_CODE":0,"TOWNNAME":"佳里區","LI":"六安里","LIN":"1鄰","STREET":"信義二街","SECT":" ","MAREA":" ","LANE":" ","ALLEY":" ","HOUSE_NO":"５１號","E_COORD97":166071.95000000001,"N_COORD97":2562710.5899999999,"ADDRESS":"信義二街５１號","OBJECTID":638534},"geometry":{"x":166071.95000000112,"y":2562710.5899999999}},{"attributes":{"ID":638562,"DIS_CODE":0,"TOWNNAME":"佳里區","LI":"六安里","LIN":"6鄰","STREET":"信義二街","SECT":" ","MAREA":" ","LANE":" ","ALLEY":" ","HOUSE_NO":"１２２號","E_COORD97":166085.81,"N_COORD97":2562906.6600000001,"ADDRESS":"信義二街１２２號","OBJECTID":638535},"geometry":{"x":166085.81000000052,"y":2562906.6600000001}},{"attributes":{"ID":638563,"DIS_CODE":0,"TOWNNAME":"佳里區","LI":"六安里","LIN":"6鄰","STREET":"信義二街","SECT":" ","MAREA":" ","LANE":" ","ALLEY":" ","HOUSE_NO":"１３０號","E_COORD97":166070.95000000001,"N_COORD97":2562916.6699999999,"ADDRESS":"信義二街１３０號","OBJECTID":638536},"geometry":{"x":166070.95000000019,"y":2562916.6699999999}},{"attributes":{"ID":638564,"DIS_CODE":0,"TOWNNAME":"佳里區","LI":"六安里","LIN":"6鄰","STREET":"信義二街","SECT":" ","MAREA":" ","LANE":" ","ALLEY":" ","HOUSE_NO":"１３２號","E_COORD97":166071.04999999999,"N_COORD97":2562921.23,"ADDRESS":"信義二街１３２號","OBJECTID":638537},"geometry":{"x":166071.04999999981,"y":2562921.2300000042}},{"attributes":{"ID":638565,"DIS_CODE":0,"TOWNNAME":"佳里區","LI":"東寧里","LIN":"20鄰","STREET":"信義二街","SECT":" ","MAREA":" ","LANE":" ","ALLEY":" ","HOUSE_NO":"５８號","E_COORD97":166105.38,"N_COORD97":2562632.7200000002,"ADDRESS":"信義二街５８號","OBJECTID":638538},"geometry":{"x":166105.38000000082,"y":2562632.7200000007}},{"attributes":{"ID":638566,"DIS_CODE":0,"TOWNNAME":"佳里區","LI":"六安里","LIN":"7鄰","STREET":"信義二街","SECT":" ","MAREA":" ","LANE":" ","ALLEY":" ","HOUSE_NO":"５７號","E_COORD97":166052.39000000001,"N_COORD97":2562790.8599999999,"ADDRESS":"信義二街５７號","OBJECTID":638539},"geometry":{"x":166052.39000000153,"y":2562790.8600000013}},{"attributes":{"ID":638567,"DIS_CODE":0,"TOWNNAME":"佳里區","LI":"六安里","LIN":"7鄰","STREET":"信義二街","SECT":" ","MAREA":" ","LANE":" ","ALLEY":" ","HOUSE_NO":"７７號","E_COORD97":166040.54000000001,"N_COORD97":2562872.0699999998,"ADDRESS":"信義二街７７號","OBJECTID":638540},"geometry":{"x":166040.54000000097,"y":2562872.0700000022}},{"attributes":{"ID":638568,"DIS_CODE":0,"TOWNNAME":"佳里區","LI":"六安里","LIN":"7鄰","STREET":"信義二街","SECT":" ","MAREA":" ","LANE":" ","ALLEY":" ","HOUSE_NO":"８５號","E_COORD97":166055.35000000001,"N_COORD97":2562884.29,"ADDRESS":"信義二街８５號","OBJECTID":638541},"geometry":{"x":166055.34999999963,"y":2562884.2899999991}},{"attributes":{"ID":638569,"DIS_CODE":0,"TOWNNAME":"佳里區","LI":"忠仁里","LIN":"8鄰","STREET":"建中街","SECT":" ","MAREA":" ","LANE":" ","ALLEY":" ","HOUSE_NO":"１１號","E_COORD97":166007.67000000001,"N_COORD97":2562098.3300000001,"ADDRESS":"建中街１１號","OBJECTID":638542},"geometry":{"x":166007.66999999993,"y":2562098.3300000001}},{"attributes":{"ID":638570,"DIS_CODE":0,"TOWNNAME":"佳里區","LI":"忠仁里","LIN":"4鄰","STREET":"建中街","SECT":" ","MAREA":" ","LANE":" ","ALLEY":" ","HOUSE_NO":"４８號","E_COORD97":165864.91,"N_COORD97":2562101.6099999999,"ADDRESS":"建中街４８號","OBJECTID":638543},"geometry":{"x":165864.91000000108,"y":2562101.6100000013}},{"attributes":{"ID":638571,"DIS_CODE":0,"TOWNNAME":"佳里區","LI":"忠仁里","LIN":"4鄰","STREET":"建中街","SECT":" ","MAREA":" ","LANE":" ","ALLEY":" ","HOUSE_NO":"５２號","E_COORD97":165852.64000000001,"N_COORD97":2562107.1000000001,"ADDRESS":"建中街５２號","OBJECTID":638544},"geometry":{"x":165852.6400000006,"y":2562107.0999999996}},{"attributes":{"ID":638572,"DIS_CODE":0,"TOWNNAME":"佳里區","LI":"忠仁里","LIN":"4鄰","STREET":"建中街","SECT":" ","MAREA":" ","LANE":" ","ALLEY":" ","HOUSE_NO":"５６號","E_COORD97":165844.92000000001,"N_COORD97":2562096.1099999999,"ADDRESS":"建中街５６號","OBJECTID":638545},"geometry":{"x":165844.91999999993,"y":2562096.1099999994}},{"attributes":{"ID":638573,"DIS_CODE":0,"TOWNNAME":"佳里區","LI":"忠仁里","LIN":"4鄰","STREET":"建中街","SECT":" ","MAREA":" ","LANE":" ","ALLEY":" ","HOUSE_NO":"５８號","E_COORD97":165840.41,"N_COORD97":2562095.6299999999,"ADDRESS":"建中街５８號","OBJECTID":638546},"geometry":{"x":165840.41000000015,"y":2562095.629999999}},{"attributes":{"ID":638574,"DIS_CODE":0,"TOWNNAME":"佳里區","LI":"忠仁里","LIN":"4鄰","STREET":"建中街","SECT":" ","MAREA":" ","LANE":" ","ALLEY":" ","HOUSE_NO":"６０號","E_COORD97":165836.01999999999,"N_COORD97":2562094.8900000001,"ADDRESS":"建中街６０號","OBJECTID":638547},"geometry":{"x":165836.02000000142,"y":2562094.8900000006}},{"attributes":{"ID":638575,"DIS_CODE":0,"TOWNNAME":"佳里區","LI":"忠仁里","LIN":"4鄰","STREET":"建中街","SECT":" ","MAREA":" ","LANE":" ","ALLEY":" ","HOUSE_NO":"６２號","E_COORD97":165831.76000000001,"N_COORD97":2562094.21,"ADDRESS":"建中街６２號","OBJECTID":638548},"geometry":{"x":165831.76000000071,"y":2562094.2100000009}},{"attributes":{"ID":638576,"DIS_CODE":0,"TOWNNAME":"佳里區","LI":"忠仁里","LIN":"4鄰","STREET":"建中街","SECT":" ","MAREA":" ","LANE":" ","ALLEY":" ","HOUSE_NO":"６４號","E_COORD97":165827.62,"N_COORD97":2562093.79,"ADDRESS":"建中街６４號","OBJECTID":638549},"geometry":{"x":165827.62000000104,"y":2562093.7899999991}},{"attributes":{"ID":638577,"DIS_CODE":0,"TOWNNAME":"佳里區","LI":"忠仁里","LIN":"4鄰","STREET":"建中街","SECT":" ","MAREA":" ","LANE":" ","ALLEY":" ","HOUSE_NO":"６６號","E_COORD97":165823.75,"N_COORD97":2562092.9500000002,"ADDRESS":"建中街６６號","OBJECTID":638550},"geometry":{"x":165823.75000000093,"y":2562092.9499999993}},{"attributes":{"ID":638578,"DIS_CODE":0,"TOWNNAME":"佳里區","LI":"忠仁里","LIN":"4鄰","STREET":"建中街","SECT":" ","MAREA":" ","LANE":" ","ALLEY":" ","HOUSE_NO":"６８號","E_COORD97":165819.28,"N_COORD97":2562092.2599999998,"ADDRESS":"建中街６８號","OBJECTID":638551},"geometry":{"x":165819.28000000026,"y":2562092.2599999998}},{"attributes":{"ID":638579,"DIS_CODE":0,"TOWNNAME":"佳里區","LI":"忠仁里","LIN":"4鄰","STREET":"建中街","SECT":" ","MAREA":" ","LANE":" ","ALLEY":" ","HOUSE_NO":"７０號","E_COORD97":165814.48000000001,"N_COORD97":2562091.71,"ADDRESS":"建中街７０號","OBJECTID":638552},"geometry":{"x":165814.48000000045,"y":2562091.7100000028}},{"attributes":{"ID":638580,"DIS_CODE":0,"TOWNNAME":"佳里區","LI":"忠仁里","LIN":"8鄰","STREET":"建中街","SECT":" ","MAREA":" ","LANE":" ","ALLEY":" ","HOUSE_NO":"４４號","E_COORD97":165926.28,"N_COORD97":2562107.9700000002,"ADDRESS":"建中街４４號","OBJECTID":638553},"geometry":{"x":165926.28000000026,"y":2562107.9700000007}},{"attributes":{"ID":638581,"DIS_CODE":0,"TOWNNAME":"佳里區","LI":"忠仁里","LIN":"8鄰","STREET":"建中街","SECT":" ","MAREA":" ","LANE":" ","ALLEY":" ","HOUSE_NO":"４號","E_COORD97":166023.91,"N_COORD97":2562118.8799999999,"ADDRESS":"建中街４號","OBJECTID":638554},"geometry":{"x":166023.91000000201,"y":2562118.8800000008}},{"attributes":{"ID":638582,"DIS_CODE":0,"TOWNNAME":"佳里區","LI":"忠仁里","LIN":"8鄰","STREET":"建中街","SECT":" ","MAREA":" ","LANE":" ","ALLEY":" ","HOUSE_NO":"５號","E_COORD97":166020.82000000001,"N_COORD97":2562099.9700000002,"ADDRESS":"建中街５號","OBJECTID":638555},"geometry":{"x":166020.8200000003,"y":2562099.9700000025}},{"attributes":{"ID":638583,"DIS_CODE":0,"TOWNNAME":"佳里區","LI":"忠仁里","LIN":"8鄰","STREET":"建中街","SECT":" ","MAREA":" ","LANE":" ","ALLEY":" ","HOUSE_NO":"６號之２","E_COORD97":166005.89999999999,"N_COORD97":2562118.7200000002,"ADDRESS":"建中街６號之２","OBJECTID":638556},"geometry":{"x":166005.9000000013,"y":2562118.7200000025}},{"attributes":{"ID":638584,"DIS_CODE":0,"TOWNNAME":"佳里區","LI":"忠仁里","LIN":"8鄰","STREET":"建中街","SECT":" ","MAREA":" ","LANE":" ","ALLEY":" ","HOUSE_NO":"６號之３","E_COORD97":166001.63,"N_COORD97":2562118.0699999998,"ADDRESS":"建中街６號之３","OBJECTID":638557},"geometry":{"x":166001.62999999989,"y":2562118.0700000003}},{"attributes":{"ID":638585,"DIS_CODE":0,"TOWNNAME":"佳里區","LI":"忠仁里","LIN":"8鄰","STREET":"建中街","SECT":" ","MAREA":" ","LANE":" ","ALLEY":" ","HOUSE_NO":"６號","E_COORD97":166019.42999999999,"N_COORD97":2562118.25,"ADDRESS":"建中街６號","OBJECTID":638558},"geometry":{"x":166019.4299999997,"y":2562118.2500000019}},{"attributes":{"ID":638586,"DIS_CODE":0,"TOWNNAME":"安南區","LI":"安順里","LIN":"3鄰","STREET":"安豐三街","SECT":" ","MAREA":" ","LANE":" ","ALLEY":" ","HOUSE_NO":"６１號","E_COORD97":169475.92000000001,"N_COORD97":2549897.21,"ADDRESS":"安豐三街６１號","OBJECTID":638559},"geometry":{"x":169475.91999999993,"y":2549897.2100000028}},{"attributes":{"ID":638587,"DIS_CODE":0,"TOWNNAME":"佳里區","LI":"忠仁里","LIN":"4鄰","STREET":"建中街","SECT":" ","MAREA":" ","LANE":" ","ALLEY":" ","HOUSE_NO":"７４號","E_COORD97":165804.81,"N_COORD97":2562088.8199999998,"ADDRESS":"建中街７４號","OBJECTID":638560},"geometry":{"x":165804.80999999959,"y":2562088.8200000003}},{"attributes":{"ID":638588,"DIS_CODE":0,"TOWNNAME":"佳里區","LI":"忠仁里","LIN":"4鄰","STREET":"建中街","SECT":" ","MAREA":" ","LANE":" ","ALLEY":" ","HOUSE_NO":"７５號","E_COORD97":165784.29000000001,"N_COORD97":2562069.4399999999,"ADDRESS":"建中街７５號","OBJECTID":638561},"geometry":{"x":165784.29000000097,"y":2562069.4399999995}},{"attributes":{"ID":638589,"DIS_CODE":0,"TOWNNAME":"佳里區","LI":"忠仁里","LIN":"4鄰","STREET":"建中街","SECT":" ","MAREA":" ","LANE":" ","ALLEY":" ","HOUSE_NO":"７６號","E_COORD97":165800.10999999999,"N_COORD97":2562088.1400000001,"ADDRESS":"建中街７６號","OBJECTID":638562},"geometry":{"x":165800.11000000034,"y":2562088.1400000025}},{"attributes":{"ID":638590,"DIS_CODE":0,"TOWNNAME":"佳里區","LI":"忠仁里","LIN":"4鄰","STREET":"建中街","SECT":" ","MAREA":" ","LANE":" ","ALLEY":" ","HOUSE_NO":"７８號","E_COORD97":165795.73000000001,"N_COORD97":2562087.4900000002,"ADDRESS":"建中街７８號","OBJECTID":638563},"geometry":{"x":165795.73000000045,"y":2562087.4900000002}},{"attributes":{"ID":638591,"DIS_CODE":0,"TOWNNAME":"佳里區","LI":"忠仁里","LIN":"4鄰","STREET":"建中街","SECT":" ","MAREA":" ","LANE":" ","ALLEY":" ","HOUSE_NO":"８０號之１","E_COORD97":165785.82000000001,"N_COORD97":2562091.3100000001,"ADDRESS":"建中街８０號之１","OBJECTID":638564},"geometry":{"x":165785.82000000123,"y":2562091.3100000024}},{"attributes":{"ID":638592,"DIS_CODE":0,"TOWNNAME":"佳里區","LI":"忠仁里","LIN":"4鄰","STREET":"建中街","SECT":" ","MAREA":" ","LANE":" ","ALLEY":" ","HOUSE_NO":"８０號之２","E_COORD97":165781.67000000001,"N_COORD97":2562089.4700000002,"ADDRESS":"建中街８０號之２","OBJECTID":638565},"geometry":{"x":165781.67000000086,"y":2562089.4700000025}},{"attributes":{"ID":638593,"DIS_CODE":0,"TOWNNAME":"佳里區","LI":"忠仁里","LIN":"4鄰","STREET":"建中街","SECT":" ","MAREA":" ","LANE":" ","ALLEY":" ","HOUSE_NO":"８０號","E_COORD97":165791.07999999999,"N_COORD97":2562086.9500000002,"ADDRESS":"建中街８０號","OBJECTID":638566},"geometry":{"x":165791.08000000101,"y":2562086.9499999993}},{"attributes":{"ID":638594,"DIS_CODE":0,"TOWNNAME":"佳里區","LI":"忠仁里","LIN":"4鄰","STREET":"建中街","SECT":" ","MAREA":" ","LANE":" ","ALLEY":" ","HOUSE_NO":"８８號","E_COORD97":165771.60000000001,"N_COORD97":2562085.96,"ADDRESS":"建中街８８號","OBJECTID":638567},"geometry":{"x":165771.60000000056,"y":2562085.9600000046}},{"attributes":{"ID":638595,"DIS_CODE":0,"TOWNNAME":"安南區","LI":"公\u25A0里","LIN":"7鄰","STREET":"安興街","SECT":" ","MAREA":" ","LANE":" ","ALLEY":" ","HOUSE_NO":"１３４號","E_COORD97":164147.85000000001,"N_COORD97":2552137.5299999998,"ADDRESS":"安興街１３４號","OBJECTID":638568},"geometry":{"x":164147.85000000056,"y":2552137.5300000012}},{"attributes":{"ID":638596,"DIS_CODE":0,"TOWNNAME":"安南區","LI":"公\u25A0里","LIN":"7鄰","STREET":"安興街","SECT":" ","MAREA":" ","LANE":" ","ALLEY":" ","HOUSE_NO":"１３６號","E_COORD97":164150.35000000001,"N_COORD97":2552130.2799999998,"ADDRESS":"安興街１３６號","OBJECTID":638569},"geometry":{"x":164150.34999999963,"y":2552130.2799999993}},{"attributes":{"ID":638597,"DIS_CODE":0,"TOWNNAME":"安南區","LI":"公\u25A0里","LIN":"7鄰","STREET":"安興街","SECT":" ","MAREA":" ","LANE":" ","ALLEY":" ","HOUSE_NO":"１３８號","E_COORD97":164143.79000000001,"N_COORD97":2552132.1499999999,"ADDRESS":"安興街１３８號","OBJECTID":638570},"geometry":{"x":164143.79000000004,"y":2552132.1500000004}},{"attributes":{"ID":638598,"DIS_CODE":0,"TOWNNAME":"安南區","LI":"公\u25A0里","LIN":"7鄰","STREET":"安興街","SECT":" ","MAREA":" ","LANE":" ","ALLEY":" ","HOUSE_NO":"１４２號","E_COORD97":164129.35999999999,"N_COORD97":2552132.79,"ADDRESS":"安興街１４２號","OBJECTID":638571},"geometry":{"x":164129.36000000127,"y":2552132.790000001}},{"attributes":{"ID":638599,"DIS_CODE":0,"TOWNNAME":"安南區","LI":"公\u25A0里","LIN":"7鄰","STREET":"安興街","SECT":" ","MAREA":" ","LANE":" ","ALLEY":" ","HOUSE_NO":"１４８號","E_COORD97":164122.67999999999,"N_COORD97":2552116.5299999998,"ADDRESS":"安興街１４８號","OBJECTID":638572},"geometry":{"x":164122.6799999997,"y":2552116.5300000012}},{"attributes":{"ID":638600,"DIS_CODE":0,"TOWNNAME":"安南區","LI":"公\u25A0里","LIN":"7鄰","STREET":"安興街","SECT":" ","MAREA":" ","LANE":" ","ALLEY":" ","HOUSE_NO":"１５０號","E_COORD97":164115.92000000001,"N_COORD97":2552115.4900000002,"ADDRESS":"安興街１５０號","OBJECTID":638573},"geometry":{"x":164115.91999999993,"y":2552115.4900000021}},{"attributes":{"ID":638601,"DIS_CODE":0,"TOWNNAME":"安南區","LI":"公\u25A0里","LIN":"7鄰","STREET":"安興街","SECT":" ","MAREA":" ","LANE":" ","ALLEY":" ","HOUSE_NO":"１６１號","E_COORD97":164109.45000000001,"N_COORD97":2552087.1299999999,"ADDRESS":"安興街１６１號","OBJECTID":638574},"geometry":{"x":164109.45000000019,"y":2552087.129999999}},{"attributes":{"ID":638602,"DIS_CODE":0,"TOWNNAME":"安南區","LI":"公親里","LIN":"6鄰","STREET":"公學路","SECT":"一段","MAREA":" ","LANE":" ","ALLEY":" ","HOUSE_NO":"２６號之２","E_COORD97":168656.07000000001,"N_COORD97":2553080.0600000001,"ADDRESS":"公學路一段２６號之２","OBJECTID":638575},"geometry":{"x":168656.07000000123,"y":2553080.0600000042}},{"attributes":{"ID":638603,"DIS_CODE":0,"TOWNNAME":"安南區","LI":"安慶里","LIN":"32鄰","STREET":"頂安街","SECT":" ","MAREA":" ","LANE":" ","ALLEY":" ","HOUSE_NO":"４０１號","E_COORD97":169009.04999999999,"N_COORD97":2549359.6899999999,"ADDRESS":"頂安街４０１號","OBJECTID":638576},"geometry":{"x":169009.04999999981,"y":2549359.6900000013}},{"attributes":{"ID":638604,"DIS_CODE":0,"TOWNNAME":"安南區","LI":"安順里","LIN":"3鄰","STREET":"安豐三街","SECT":" ","MAREA":" ","LANE":" ","ALLEY":" ","HOUSE_NO":"５８號","E_COORD97":169492.57000000001,"N_COORD97":2549874.1000000001,"ADDRESS":"安豐三街５８號","OBJECTID":638577},"geometry":{"x":169492.5700000003,"y":2549874.0999999996}},{"attributes":{"ID":638605,"DIS_CODE":0,"TOWNNAME":"安南區","LI":"安順里","LIN":"3鄰","STREET":"安豐三街","SECT":" ","MAREA":" ","LANE":" ","ALLEY":" ","HOUSE_NO":"５９號","E_COORD97":169471.97,"N_COORD97":2549893.73,"ADDRESS":"安豐三街５９號","OBJECTID":638578},"geometry":{"x":169471.96999999974,"y":2549893.7300000004}},{"attributes":{"ID":638606,"DIS_CODE":0,"TOWNNAME":"安南區","LI":"安順里","LIN":"3鄰","STREET":"安豐三街","SECT":" ","MAREA":" ","LANE":" ","ALLEY":" ","HOUSE_NO":"６０號","E_COORD97":169495.64000000001,"N_COORD97":2549877.6899999999,"ADDRESS":"安豐三街６０號","OBJECTID":638579},"geometry":{"x":169495.6400000006,"y":2549877.6900000032}},{"attributes":{"ID":638607,"DIS_CODE":0,"TOWNNAME":"安南區","LI":"州南里","LIN":"13鄰","STREET":"安和路","SECT":"五段","MAREA":" ","LANE":" ","ALLEY":" ","HOUSE_NO":"４３號","E_COORD97":169917.67000000001,"N_COORD97":2551601.8100000001,"ADDRESS":"安和路五段４３號","OBJECTID":638580},"geometry":{"x":169917.67000000086,"y":2551601.8100000024}},{"attributes":{"ID":638608,"DIS_CODE":0,"TOWNNAME":"安南區","LI":"原佃里","LIN":"10鄰","STREET":"本原街","SECT":"一段","MAREA":" ","LANE":" ","ALLEY":" ","HOUSE_NO":"３８４號","E_COORD97":167592.67999999999,"N_COORD97":2550500.5299999998,"ADDRESS":"本原街一段３８４號","OBJECTID":638581},"geometry":{"x":167592.6799999997,"y":2550500.5300000012}},{"attributes":{"ID":638609,"DIS_CODE":0,"TOWNNAME":"安南區","LI":"原佃里","LIN":"10鄰","STREET":"本原街","SECT":"一段","MAREA":" ","LANE":" ","ALLEY":" ","HOUSE_NO":"３９０號","E_COORD97":167574.32999999999,"N_COORD97":2550499.9500000002,"ADDRESS":"本原街一段３９０號","OBJECTID":638582},"geometry":{"x":167574.33000000101,"y":2550499.9500000011}},{"attributes":{"ID":638610,"DIS_CODE":0,"TOWNNAME":"新市區","LI":"新和里","LIN":"20鄰","STREET":"成功街","SECT":" ","MAREA":" ","LANE":" ","ALLEY":" ","HOUSE_NO":"６號","E_COORD97":177464.48000000001,"N_COORD97":2552584.27,"ADDRESS":"成功街６號","OBJECTID":638583},"geometry":{"x":177464.47999999952,"y":2552584.2700000014}},{"attributes":{"ID":638611,"DIS_CODE":0,"TOWNNAME":"東區","LI":"新東里","LIN":"4鄰","STREET":"林森路","SECT":"二段","MAREA":" ","LANE":" ","ALLEY":" ","HOUSE_NO":"２８號","E_COORD97":170329.32999999999,"N_COORD97":2542960.6699999999,"ADDRESS":"林森路二段２８號","OBJECTID":638584},"geometry":{"x":170329.33000000007,"y":2542960.6699999999}},{"attributes":{"ID":638612,"DIS_CODE":0,"TOWNNAME":"新市區","LI":"新和里","LIN":"25鄰","STREET":"仁愛街","SECT":" ","MAREA":" ","LANE":" ","ALLEY":" ","HOUSE_NO":"２３６號","E_COORD97":177619.14999999999,"N_COORD97":2552835.5299999998,"ADDRESS":"仁愛街２３６號","OBJECTID":638585},"geometry":{"x":177619.14999999944,"y":2552835.5300000012}},{"attributes":{"ID":638613,"DIS_CODE":0,"TOWNNAME":"新市區","LI":"新和里","LIN":"41鄰","STREET":"西寧街","SECT":" ","MAREA":" ","LANE":" ","ALLEY":" ","HOUSE_NO":"１７號","E_COORD97":177104.12,"N_COORD97":2552895,"ADDRESS":"西寧街１７號","OBJECTID":638586},"geometry":{"x":177104.12000000104,"y":2552895.0000000019}},{"attributes":{"ID":638614,"DIS_CODE":0,"TOWNNAME":"新市區","LI":"永就里","LIN":"13鄰","STREET":"永華二街","SECT":" ","MAREA":" ","LANE":" ","ALLEY":" ","HOUSE_NO":"３９號","E_COORD97":177796.60999999999,"N_COORD97":2551096.5,"ADDRESS":"永華二街３９號","OBJECTID":638587},"geometry":{"x":177796.61000000127,"y":2551096.5000000037}},{"attributes":{"ID":638615,"DIS_CODE":0,"TOWNNAME":"新市區","LI":"新和里","LIN":"38鄰","STREET":"成功街","SECT":" ","MAREA":" ","LANE":" ","ALLEY":" ","HOUSE_NO":"２９號","E_COORD97":177454.98000000001,"N_COORD97":2552703.02,"ADDRESS":"成功街２９號","OBJECTID":638588},"geometry":{"x":177454.98000000138,"y":2552703.0200000033}},{"attributes":{"ID":638616,"DIS_CODE":0,"TOWNNAME":"新市區","LI":"新和里","LIN":"36鄰","STREET":"華興街","SECT":" ","MAREA":" ","LANE":" ","ALLEY":" ","HOUSE_NO":"７８號","E_COORD97":177582.03,"N_COORD97":2552984.25,"ADDRESS":"華興街７８號","OBJECTID":638589},"geometry":{"x":177582.03000000026,"y":2552984.2500000019}},{"attributes":{"ID":638617,"DIS_CODE":0,"TOWNNAME":"新市區","LI":"永就里","LIN":"20鄰","STREET":"永華三街","SECT":" ","MAREA":" ","LANE":" ","ALLEY":" ","HOUSE_NO":"１７號","E_COORD97":177532.70999999999,"N_COORD97":2551004.25,"ADDRESS":"永華三街１７號","OBJECTID":638590},"geometry":{"x":177532.71000000089,"y":2551004.2500000019}},{"attributes":{"ID":638618,"DIS_CODE":0,"TOWNNAME":"新市區","LI":"新和里","LIN":"32鄰","STREET":"華興街","SECT":" ","MAREA":" ","LANE":" ","ALLEY":" ","HOUSE_NO":"７號","E_COORD97":177802.31,"N_COORD97":2552996.75,"ADDRESS":"華興街７號","OBJECTID":638591},"geometry":{"x":177802.31000000052,"y":2552996.7500000037}},{"attributes":{"ID":638619,"DIS_CODE":0,"TOWNNAME":"新市區","LI":"新和里","LIN":"38鄰","STREET":"成功街","SECT":" ","MAREA":" ","LANE":" ","ALLEY":" ","HOUSE_NO":"６８號","E_COORD97":177478.92999999999,"N_COORD97":2552785.77,"ADDRESS":"成功街６８號","OBJECTID":638592},"geometry":{"x":177478.9299999997,"y":2552785.7699999996}},{"attributes":{"ID":638620,"DIS_CODE":0,"TOWNNAME":"新市區","LI":"新和里","LIN":"32鄰","STREET":"華興街","SECT":" ","MAREA":" ","LANE":" ","ALLEY":" ","HOUSE_NO":"４３號","E_COORD97":177691.54000000001,"N_COORD97":2552983,"ADDRESS":"華興街４３號","OBJECTID":638593},"geometry":{"x":177691.54000000097,"y":2552983.0000000019}},{"attributes":{"ID":638621,"DIS_CODE":0,"TOWNNAME":"新市區","LI":"新和里","LIN":"14鄰","STREET":"忠孝街","SECT":" ","MAREA":" ","LANE":" ","ALLEY":" ","HOUSE_NO":"１２２號","E_COORD97":177708.07000000001,"N_COORD97":2552638.25,"ADDRESS":"忠孝街１２２號","OBJECTID":638594},"geometry":{"x":177708.07000000123,"y":2552638.2500000019}},{"attributes":{"ID":638622,"DIS_CODE":0,"TOWNNAME":"新市區","LI":"新市里","LIN":"4鄰","STREET":"華興街","SECT":" ","MAREA":" ","LANE":" ","ALLEY":" ","HOUSE_NO":"５６號","E_COORD97":177685.57000000001,"N_COORD97":2553000,"ADDRESS":"華興街５６號","OBJECTID":638595},"geometry":{"x":177685.5700000003,"y":2553000.0000000019}},{"attributes":{"ID":638623,"DIS_CODE":0,"TOWNNAME":"新市區","LI":"新和里","LIN":"39鄰","STREET":"中正路","SECT":" ","MAREA":" ","LANE":" ","ALLEY":" ","HOUSE_NO":"２３５號","E_COORD97":177437.10000000001,"N_COORD97":2553066.25,"ADDRESS":"中正路２３５號","OBJECTID":638596},"geometry":{"x":177437.09999999963,"y":2553066.2500000019}},{"attributes":{"ID":638624,"DIS_CODE":0,"TOWNNAME":"新市區","LI":"港墘里","LIN":"20鄰","STREET":"光華街","SECT":" ","MAREA":" ","LANE":" ","ALLEY":" ","HOUSE_NO":"１４８號","E_COORD97":177911.37,"N_COORD97":2552798.25,"ADDRESS":"光華街１４８號","OBJECTID":638597},"geometry":{"x":177911.37000000104,"y":2552798.2500000019}},{"attributes":{"ID":638625,"DIS_CODE":0,"TOWNNAME":"新市區","LI":"港墘里","LIN":"20鄰","STREET":"光華街","SECT":" ","MAREA":" ","LANE":" ","ALLEY":" ","HOUSE_NO":"１４０號","E_COORD97":177918.62,"N_COORD97":2552784.25,"ADDRESS":"光華街１４０號","OBJECTID":638598},"geometry":{"x":177918.62000000011,"y":2552784.2500000019}},{"attributes":{"ID":638626,"DIS_CODE":0,"TOWNNAME":"新市區","LI":"港墘里","LIN":"20鄰","STREET":"光華街","SECT":" ","MAREA":" ","LANE":" ","ALLEY":" ","HOUSE_NO":"１１８號","E_COORD97":177942.62,"N_COORD97":2552742.25,"ADDRESS":"光華街１１８號","OBJECTID":638599},"geometry":{"x":177942.62000000011,"y":2552742.25}},{"attributes":{"ID":638627,"DIS_CODE":0,"TOWNNAME":"新市區","LI":"永就里","LIN":"13鄰","STREET":"永華二街","SECT":" ","MAREA":" ","LANE":" ","ALLEY":" ","HOUSE_NO":"２９號","E_COORD97":177755.20999999999,"N_COORD97":2551081.5,"ADDRESS":"永華二街２９號","OBJECTID":638600},"geometry":{"x":177755.20999999996,"y":2551081.5}}]}