{"displayFieldName":"TOWNNAME","fieldAliases":{"ID":"ID","DIS_CODE":"DIS_CODE","TOWNNAME":"TOWNNAME","LI":"LI","LIN":"LIN","STREET":"STREET","SECT":"SECT","MAREA":"MAREA","LANE":"LANE","ALLEY":"ALLEY","HOUSE_NO":"HOUSE_NO","E_COORD97":"E_COORD97","N_COORD97":"N_COORD97","ADDRESS":"ADDRESS","OBJECTID":"OBJECTID"},"geometryType":"esriGeometryPoint","spatialReference":{"wkid":102443,"latestWkid":3826},"fields":[{"name":"ID","type":"esriFieldTypeDouble","alias":"ID"},{"name":"DIS_CODE","type":"esriFieldTypeInteger","alias":"DIS_CODE"},{"name":"TOWNNAME","type":"esriFieldTypeString","alias":"TOWNNAME","length":8},{"name":"LI","type":"esriFieldTypeString","alias":"LI","length":8},{"name":"LIN","type":"esriFieldTypeString","alias":"LIN","length":12},{"name":"STREET","type":"esriFieldTypeString","alias":"STREET","length":20},{"name":"SECT","type":"esriFieldTypeString","alias":"SECT","length":8},{"name":"MAREA","type":"esriFieldTypeString","alias":"MAREA","length":12},{"name":"LANE","type":"esriFieldTypeString","alias":"LANE","length":10},{"name":"ALLEY","type":"esriFieldTypeString","alias":"ALLEY","length":10},{"name":"HOUSE_NO","type":"esriFieldTypeString","alias":"HOUSE_NO","length":20},{"name":"E_COORD97","type":"esriFieldTypeDouble","alias":"E_COORD97"},{"name":"N_COORD97","type":"esriFieldTypeDouble","alias":"N_COORD97"},{"name":"ADDRESS","type":"esriFieldTypeString","alias":"ADDRESS","length":50},{"name":"OBJECTID","type":"esriFieldTypeOID","alias":"OBJECTID"}],"features":[{"attributes":{"ID":81601,"DIS_CODE":0,"TOWNNAME":"柳營區","LI":"重溪里","LIN":"1鄰","STREET":" ","SECT":" ","MAREA":"小腳腿","LANE":" ","ALLEY":" ","HOUSE_NO":"７號之１","E_COORD97":185195.35000000001,"N_COORD97":2576266.6600000001,"ADDRESS":"小腳腿７號之１","OBJECTID":81601},"geometry":{"x":185195.35000000056,"y":2576266.660000002}},{"attributes":{"ID":81602,"DIS_CODE":0,"TOWNNAME":"安南區","LI":"州北里","LIN":"12鄰","STREET":"安和路","SECT":"五段","MAREA":" ","LANE":"１７１巷","ALLEY":"７２弄","HOUSE_NO":"２３號","E_COORD97":169649.45999999999,"N_COORD97":2551854.5800000001,"ADDRESS":"安和路五段１７１巷７２弄２３號","OBJECTID":81602},"geometry":{"x":169649.46000000183,"y":2551854.5800000001}},{"attributes":{"ID":81603,"DIS_CODE":0,"TOWNNAME":"安南區","LI":"州北里","LIN":"12鄰","STREET":"安和路","SECT":"五段","MAREA":" ","LANE":"１７１巷","ALLEY":"７２弄","HOUSE_NO":"２３號之１","E_COORD97":169637.79999999999,"N_COORD97":2551852.4100000001,"ADDRESS":"安和路五段１７１巷７２弄２３號之１","OBJECTID":81603},"geometry":{"x":169637.79999999981,"y":2551852.4100000001}},{"attributes":{"ID":81604,"DIS_CODE":0,"TOWNNAME":"仁德區","LI":"後壁里","LIN":"12鄰","STREET":"德善路","SECT":" ","MAREA":" ","LANE":"２１２巷","ALLEY":"２弄","HOUSE_NO":"１６號","E_COORD97":173734.94,"N_COORD97":2538719.4399999999,"ADDRESS":"德善路２１２巷２弄１６號","OBJECTID":81604},"geometry":{"x":173734.94000000041,"y":2538719.4400000013}},{"attributes":{"ID":81605,"DIS_CODE":0,"TOWNNAME":"仁德區","LI":"後壁里","LIN":"12鄰","STREET":"德善路","SECT":" ","MAREA":" ","LANE":"２４０巷","ALLEY":"２９弄","HOUSE_NO":"２號","E_COORD97":173838.01000000001,"N_COORD97":2538596.5099999998,"ADDRESS":"德善路２４０巷２９弄２號","OBJECTID":81605},"geometry":{"x":173838.01000000071,"y":2538596.5100000016}},{"attributes":{"ID":81606,"DIS_CODE":0,"TOWNNAME":"仁德區","LI":"後壁里","LIN":"12鄰","STREET":"德善路","SECT":" ","MAREA":" ","LANE":"２１２巷","ALLEY":"６弄","HOUSE_NO":"１０號","E_COORD97":173714.98000000001,"N_COORD97":2538681.27,"ADDRESS":"德善路２１２巷６弄１０號","OBJECTID":81606},"geometry":{"x":173714.98000000138,"y":2538681.2699999996}},{"attributes":{"ID":81607,"DIS_CODE":0,"TOWNNAME":"柳營區","LI":"重溪里","LIN":"1鄰","STREET":" ","SECT":" ","MAREA":"小腳腿","LANE":" ","ALLEY":" ","HOUSE_NO":"７號之３","E_COORD97":185186.76000000001,"N_COORD97":2576248.23,"ADDRESS":"小腳腿７號之３","OBJECTID":81607},"geometry":{"x":185186.75999999978,"y":2576248.2300000004}},{"attributes":{"ID":81608,"DIS_CODE":0,"TOWNNAME":"柳營區","LI":"重溪里","LIN":"1鄰","STREET":" ","SECT":" ","MAREA":"小腳腿","LANE":" ","ALLEY":" ","HOUSE_NO":"７號之４","E_COORD97":185204.70000000001,"N_COORD97":2576239.8100000001,"ADDRESS":"小腳腿７號之４","OBJECTID":81608},"geometry":{"x":185204.70000000205,"y":2576239.8100000005}},{"attributes":{"ID":81609,"DIS_CODE":0,"TOWNNAME":"柳營區","LI":"重溪里","LIN":"1鄰","STREET":" ","SECT":" ","MAREA":"小腳腿","LANE":" ","ALLEY":" ","HOUSE_NO":"７號之５","E_COORD97":185187.67000000001,"N_COORD97":2576252.5299999998,"ADDRESS":"小腳腿７號之５","OBJECTID":81609},"geometry":{"x":185187.67000000179,"y":2576252.5300000031}},{"attributes":{"ID":81610,"DIS_CODE":0,"TOWNNAME":"仁德區","LI":"後壁里","LIN":"12鄰","STREET":"德善路","SECT":" ","MAREA":" ","LANE":"２４０巷","ALLEY":"３１弄","HOUSE_NO":"２５號","E_COORD97":173882.57000000001,"N_COORD97":2538565.02,"ADDRESS":"德善路２４０巷３１弄２５號","OBJECTID":81610},"geometry":{"x":173882.57000000123,"y":2538565.0200000033}},{"attributes":{"ID":81611,"DIS_CODE":0,"TOWNNAME":"安南區","LI":"理想里","LIN":"7鄰","STREET":"海佃路","SECT":"二段","MAREA":" ","LANE":" ","ALLEY":" ","HOUSE_NO":"１８６之１號","E_COORD97":166973.40404600001,"N_COORD97":2548229.8140599998,"ADDRESS":"海佃路二段１８６之１號","OBJECTID":81611},"geometry":{"x":166973.40404599998,"y":2548229.8140580002}},{"attributes":{"ID":81612,"DIS_CODE":0,"TOWNNAME":"安南區","LI":"理想里","LIN":"7鄰","STREET":"海佃路","SECT":"二段","MAREA":" ","LANE":" ","ALLEY":" ","HOUSE_NO":"１８６號","E_COORD97":166974.675529,"N_COORD97":2548224.0990599999,"ADDRESS":"海佃路二段１８６號","OBJECTID":81612},"geometry":{"x":166974.67552900035,"y":2548224.0990610011}},{"attributes":{"ID":81613,"DIS_CODE":0,"TOWNNAME":"安南區","LI":"理想里","LIN":"7鄰","STREET":"海佃路","SECT":"二段","MAREA":" ","LANE":" ","ALLEY":" ","HOUSE_NO":"１８２號","E_COORD97":166976.79466799999,"N_COORD97":2548215.2090699999,"ADDRESS":"海佃路二段１８２號","OBJECTID":81613},"geometry":{"x":166976.79466800019,"y":2548215.2090660036}},{"attributes":{"ID":81614,"DIS_CODE":0,"TOWNNAME":"佳里區","LI":"忠仁里","LIN":"7鄰","STREET":" ","SECT":" ","MAREA":"忠仁","LANE":" ","ALLEY":" ","HOUSE_NO":"３２號","E_COORD97":165989.82999999999,"N_COORD97":2561985.6800000002,"ADDRESS":"忠仁３２號","OBJECTID":81614},"geometry":{"x":165989.83000000007,"y":2561985.6800000016}},{"attributes":{"ID":81615,"DIS_CODE":0,"TOWNNAME":"佳里區","LI":"忠仁里","LIN":"7鄰","STREET":" ","SECT":" ","MAREA":"忠仁","LANE":" ","ALLEY":" ","HOUSE_NO":"３３號","E_COORD97":166007.5,"N_COORD97":2561986.0899999999,"ADDRESS":"忠仁３３號","OBJECTID":81615},"geometry":{"x":166007.5,"y":2561986.0900000017}},{"attributes":{"ID":81616,"DIS_CODE":0,"TOWNNAME":"佳里區","LI":"忠仁里","LIN":"7鄰","STREET":" ","SECT":" ","MAREA":"忠仁","LANE":" ","ALLEY":" ","HOUSE_NO":"３８號","E_COORD97":165946.85000000001,"N_COORD97":2562028.3799999999,"ADDRESS":"忠仁３８號","OBJECTID":81616},"geometry":{"x":165946.84999999963,"y":2562028.3800000008}},{"attributes":{"ID":81617,"DIS_CODE":0,"TOWNNAME":"柳營區","LI":"重溪里","LIN":"1鄰","STREET":" ","SECT":" ","MAREA":"小腳腿","LANE":" ","ALLEY":" ","HOUSE_NO":"９號之１","E_COORD97":185202.64000000001,"N_COORD97":2576284.1699999999,"ADDRESS":"小腳腿９號之１","OBJECTID":81617},"geometry":{"x":185202.63999999966,"y":2576284.1699999999}},{"attributes":{"ID":81618,"DIS_CODE":0,"TOWNNAME":"柳營區","LI":"重溪里","LIN":"1鄰","STREET":" ","SECT":" ","MAREA":"小腳腿","LANE":" ","ALLEY":" ","HOUSE_NO":"９號之２","E_COORD97":185197.98999999999,"N_COORD97":2576274.7200000002,"ADDRESS":"小腳腿９號之２","OBJECTID":81618},"geometry":{"x":185197.99000000115,"y":2576274.7200000007}},{"attributes":{"ID":81619,"DIS_CODE":0,"TOWNNAME":"柳營區","LI":"重溪里","LIN":"1鄰","STREET":" ","SECT":" ","MAREA":"小腳腿","LANE":" ","ALLEY":" ","HOUSE_NO":"９號之３","E_COORD97":185203.95000000001,"N_COORD97":2576292.0099999998,"ADDRESS":"小腳腿９號之３","OBJECTID":81619},"geometry":{"x":185203.95000000019,"y":2576292.0099999998}},{"attributes":{"ID":81620,"DIS_CODE":0,"TOWNNAME":"西港區","LI":"永樂里","LIN":"1鄰","STREET":" ","SECT":" ","MAREA":"大塭寮","LANE":" ","ALLEY":" ","HOUSE_NO":"６號","E_COORD97":165783.97,"N_COORD97":2556359.8599999999,"ADDRESS":"大塭寮６號","OBJECTID":81620},"geometry":{"x":165783.9700000016,"y":2556359.8600000013}},{"attributes":{"ID":81621,"DIS_CODE":0,"TOWNNAME":"西港區","LI":"永樂里","LIN":"1鄰","STREET":" ","SECT":" ","MAREA":"大塭寮","LANE":" ","ALLEY":" ","HOUSE_NO":"７號","E_COORD97":165768.07999999999,"N_COORD97":2556367.3900000001,"ADDRESS":"大塭寮７號","OBJECTID":81621},"geometry":{"x":165768.08000000007,"y":2556367.3900000025}},{"attributes":{"ID":81622,"DIS_CODE":0,"TOWNNAME":"西港區","LI":"慶安里","LIN":"1鄰","STREET":" ","SECT":" ","MAREA":"中州","LANE":" ","ALLEY":" ","HOUSE_NO":"２１之１８號","E_COORD97":166953.10999999999,"N_COORD97":2559164.7599999998,"ADDRESS":"中州２１之１８號","OBJECTID":81622},"geometry":{"x":166953.11000000034,"y":2559164.7600000016}},{"attributes":{"ID":81623,"DIS_CODE":0,"TOWNNAME":"仁德區","LI":"後壁里","LIN":"12鄰","STREET":"德善路","SECT":" ","MAREA":" ","LANE":"２４０巷","ALLEY":"３１弄","HOUSE_NO":"１９號","E_COORD97":173872.89000000001,"N_COORD97":2538578.27,"ADDRESS":"德善路２４０巷３１弄１９號","OBJECTID":81623},"geometry":{"x":173872.8900000006,"y":2538578.2700000014}},{"attributes":{"ID":81624,"DIS_CODE":0,"TOWNNAME":"仁德區","LI":"後壁里","LIN":"12鄰","STREET":"德善路","SECT":" ","MAREA":" ","LANE":"２４０巷","ALLEY":"３１弄","HOUSE_NO":"９號","E_COORD97":173860.85000000001,"N_COORD97":2538557.77,"ADDRESS":"德善路２４０巷３１弄９號","OBJECTID":81624},"geometry":{"x":173860.85000000056,"y":2538557.7700000014}},{"attributes":{"ID":81625,"DIS_CODE":0,"TOWNNAME":"仁德區","LI":"後壁里","LIN":"12鄰","STREET":"德善路","SECT":" ","MAREA":" ","LANE":"２１２巷","ALLEY":"６弄","HOUSE_NO":"２號","E_COORD97":173734.64999999999,"N_COORD97":2538671.52,"ADDRESS":"德善路２１２巷６弄２號","OBJECTID":81625},"geometry":{"x":173734.6500000013,"y":2538671.5200000014}},{"attributes":{"ID":81626,"DIS_CODE":0,"TOWNNAME":"官田區","LI":"隆本里","LIN":"12鄰","STREET":"興隆街","SECT":" ","MAREA":" ","LANE":"７８巷","ALLEY":"６弄","HOUSE_NO":"１號","E_COORD97":179913.22,"N_COORD97":2566443.6200000001,"ADDRESS":"興隆街７８巷６弄１號","OBJECTID":81626},"geometry":{"x":179913.21999999974,"y":2566443.620000001}},{"attributes":{"ID":81627,"DIS_CODE":0,"TOWNNAME":"官田區","LI":"隆本里","LIN":"12鄰","STREET":"興隆街","SECT":" ","MAREA":" ","LANE":"７８巷","ALLEY":"６弄","HOUSE_NO":"３號","E_COORD97":179919.48000000001,"N_COORD97":2566444.3100000001,"ADDRESS":"興隆街７８巷６弄３號","OBJECTID":81627},"geometry":{"x":179919.48000000138,"y":2566444.3100000024}},{"attributes":{"ID":81628,"DIS_CODE":0,"TOWNNAME":"官田區","LI":"隆本里","LIN":"12鄰","STREET":"興隆街","SECT":" ","MAREA":" ","LANE":"７８巷","ALLEY":"６弄","HOUSE_NO":"５號","E_COORD97":179926.62,"N_COORD97":2566445.27,"ADDRESS":"興隆街７８巷６弄５號","OBJECTID":81628},"geometry":{"x":179926.62000000104,"y":2566445.2699999996}},{"attributes":{"ID":81629,"DIS_CODE":0,"TOWNNAME":"官田區","LI":"隆本里","LIN":"12鄰","STREET":"興隆街","SECT":" ","MAREA":" ","LANE":"７８巷","ALLEY":"６弄","HOUSE_NO":"７號","E_COORD97":179947.69,"N_COORD97":2566445.04,"ADDRESS":"興隆街７８巷６弄７號","OBJECTID":81629},"geometry":{"x":179947.69000000041,"y":2566445.040000001}},{"attributes":{"ID":81630,"DIS_CODE":0,"TOWNNAME":"官田區","LI":"隆本里","LIN":"12鄰","STREET":"興隆街","SECT":" ","MAREA":" ","LANE":"７８巷","ALLEY":"６弄","HOUSE_NO":"９號","E_COORD97":179954.47,"N_COORD97":2566446.21,"ADDRESS":"興隆街７８巷６弄９號","OBJECTID":81630},"geometry":{"x":179954.47000000067,"y":2566446.2100000009}},{"attributes":{"ID":81631,"DIS_CODE":0,"TOWNNAME":"西港區","LI":"西港里","LIN":"1鄰","STREET":" ","SECT":" ","MAREA":"中州","LANE":" ","ALLEY":" ","HOUSE_NO":"２５號之３","E_COORD97":168003.41,"N_COORD97":2559567.4100000001,"ADDRESS":"中州２５號之３","OBJECTID":81631},"geometry":{"x":168003.41000000015,"y":2559567.410000002}},{"attributes":{"ID":81632,"DIS_CODE":0,"TOWNNAME":"西港區","LI":"慶安里","LIN":"1鄰","STREET":" ","SECT":" ","MAREA":"中州","LANE":" ","ALLEY":" ","HOUSE_NO":"３之３３號","E_COORD97":166757.70000000001,"N_COORD97":2559766.5699999998,"ADDRESS":"中州３之３３號","OBJECTID":81632},"geometry":{"x":166757.70000000205,"y":2559766.5700000022}},{"attributes":{"ID":81633,"DIS_CODE":0,"TOWNNAME":"西港區","LI":"港東里","LIN":"1鄰","STREET":" ","SECT":" ","MAREA":"\u25A0張\u25A0","LANE":" ","ALLEY":" ","HOUSE_NO":"１號之１０","E_COORD97":169085.91,"N_COORD97":2557421.3399999999,"ADDRESS":"\u25A0張\u25A0１號之１０","OBJECTID":81633},"geometry":{"x":169085.91000000108,"y":2557421.3400000017}},{"attributes":{"ID":81634,"DIS_CODE":0,"TOWNNAME":"西港區","LI":"港東里","LIN":"1鄰","STREET":" ","SECT":" ","MAREA":"\u25A0張\u25A0","LANE":" ","ALLEY":" ","HOUSE_NO":"１之１２號","E_COORD97":169230.32000000001,"N_COORD97":2557344.6400000001,"ADDRESS":"\u25A0張\u25A0１之１２號","OBJECTID":81634},"geometry":{"x":169230.32000000216,"y":2557344.6400000043}},{"attributes":{"ID":81635,"DIS_CODE":0,"TOWNNAME":"西港區","LI":"港東里","LIN":"1鄰","STREET":" ","SECT":" ","MAREA":"\u25A0張\u25A0","LANE":" ","ALLEY":" ","HOUSE_NO":"１號之１","E_COORD97":168998.48999999999,"N_COORD97":2558083.6299999999,"ADDRESS":"\u25A0張\u25A0１號之１","OBJECTID":81635},"geometry":{"x":168998.49000000209,"y":2558083.6300000008}},{"attributes":{"ID":81636,"DIS_CODE":0,"TOWNNAME":"西港區","LI":"港東里","LIN":"1鄰","STREET":" ","SECT":" ","MAREA":"\u25A0張\u25A0","LANE":" ","ALLEY":" ","HOUSE_NO":"１號之２０","E_COORD97":169133.09,"N_COORD97":2558377.54,"ADDRESS":"\u25A0張\u25A0１號之２０","OBJECTID":81636},"geometry":{"x":169133.09000000171,"y":2558377.5399999991}},{"attributes":{"ID":81637,"DIS_CODE":0,"TOWNNAME":"西港區","LI":"港東里","LIN":"1鄰","STREET":" ","SECT":" ","MAREA":"\u25A0張\u25A0","LANE":" ","ALLEY":" ","HOUSE_NO":"１號之６","E_COORD97":169019.98999999999,"N_COORD97":2557612.1499999999,"ADDRESS":"\u25A0張\u25A0１號之６","OBJECTID":81637},"geometry":{"x":169019.99000000022,"y":2557612.1500000041}},{"attributes":{"ID":81638,"DIS_CODE":0,"TOWNNAME":"西港區","LI":"港東里","LIN":"1鄰","STREET":" ","SECT":" ","MAREA":"\u25A0張\u25A0","LANE":" ","ALLEY":" ","HOUSE_NO":"１號之７","E_COORD97":169042.34,"N_COORD97":2557628.75,"ADDRESS":"\u25A0張\u25A0１號之７","OBJECTID":81638},"geometry":{"x":169042.33999999985,"y":2557628.7500000019}},{"attributes":{"ID":81639,"DIS_CODE":0,"TOWNNAME":"西港區","LI":"港東里","LIN":"1鄰","STREET":" ","SECT":" ","MAREA":"\u25A0張\u25A0","LANE":" ","ALLEY":" ","HOUSE_NO":"１之８號","E_COORD97":169095.13,"N_COORD97":2557701.6899999999,"ADDRESS":"\u25A0張\u25A0１之８號","OBJECTID":81639},"geometry":{"x":169095.12999999989,"y":2557701.6899999995}},{"attributes":{"ID":81640,"DIS_CODE":0,"TOWNNAME":"西港區","LI":"港東里","LIN":"1鄰","STREET":" ","SECT":" ","MAREA":"\u25A0張\u25A0","LANE":" ","ALLEY":" ","HOUSE_NO":"２號之２","E_COORD97":169243.48999999999,"N_COORD97":2557865.1699999999,"ADDRESS":"\u25A0張\u25A0２號之２","OBJECTID":81640},"geometry":{"x":169243.49000000022,"y":2557865.1699999999}},{"attributes":{"ID":81641,"DIS_CODE":0,"TOWNNAME":"西港區","LI":"港東里","LIN":"1鄰","STREET":" ","SECT":" ","MAREA":"\u25A0張\u25A0","LANE":" ","ALLEY":" ","HOUSE_NO":"３號之２","E_COORD97":169264.51999999999,"N_COORD97":2557871.1800000002,"ADDRESS":"\u25A0張\u25A0３號之２","OBJECTID":81641},"geometry":{"x":169264.52000000048,"y":2557871.1799999997}},{"attributes":{"ID":81642,"DIS_CODE":0,"TOWNNAME":"西港區","LI":"港東里","LIN":"1鄰","STREET":" ","SECT":" ","MAREA":"\u25A0張\u25A0","LANE":" ","ALLEY":" ","HOUSE_NO":"３號","E_COORD97":169250.17999999999,"N_COORD97":2557848.29,"ADDRESS":"\u25A0張\u25A0３號","OBJECTID":81642},"geometry":{"x":169250.1799999997,"y":2557848.290000001}},{"attributes":{"ID":81643,"DIS_CODE":0,"TOWNNAME":"永康區","LI":"王行里","LIN":"12鄰","STREET":"王行路","SECT":" ","MAREA":" ","LANE":"８６６巷","ALLEY":"２９弄","HOUSE_NO":"３號","E_COORD97":175976.64999999999,"N_COORD97":2549919.9900000002,"ADDRESS":"王行路８６６巷２９弄３號","OBJECTID":81643},"geometry":{"x":175976.65000000224,"y":2549919.9900000002}},{"attributes":{"ID":81644,"DIS_CODE":0,"TOWNNAME":"永康區","LI":"王行里","LIN":"12鄰","STREET":"王行路","SECT":" ","MAREA":" ","LANE":"８６６巷","ALLEY":"２９弄","HOUSE_NO":"３８號","E_COORD97":176015.22,"N_COORD97":2549958.7999999998,"ADDRESS":"王行路８６６巷２９弄３８號","OBJECTID":81644},"geometry":{"x":176015.22000000067,"y":2549958.8000000007}},{"attributes":{"ID":81645,"DIS_CODE":0,"TOWNNAME":"西港區","LI":"港東里","LIN":"1鄰","STREET":" ","SECT":" ","MAREA":"\u25A0張\u25A0","LANE":" ","ALLEY":" ","HOUSE_NO":"４號之１","E_COORD97":169246.76000000001,"N_COORD97":2557813.6299999999,"ADDRESS":"\u25A0張\u25A0４號之１","OBJECTID":81645},"geometry":{"x":169246.75999999978,"y":2557813.629999999}},{"attributes":{"ID":81646,"DIS_CODE":0,"TOWNNAME":"西港區","LI":"港東里","LIN":"1鄰","STREET":" ","SECT":" ","MAREA":"\u25A0張\u25A0","LANE":" ","ALLEY":" ","HOUSE_NO":"４之２號","E_COORD97":169244.57999999999,"N_COORD97":2557836.8100000001,"ADDRESS":"\u25A0張\u25A0４之２號","OBJECTID":81646},"geometry":{"x":169244.58000000007,"y":2557836.8100000005}},{"attributes":{"ID":81647,"DIS_CODE":0,"TOWNNAME":"鹽水區","LI":"孫厝里","LIN":"17鄰","STREET":" ","SECT":" ","MAREA":"羊稠厝","LANE":" ","ALLEY":" ","HOUSE_NO":"４６號","E_COORD97":169448.42999999999,"N_COORD97":2575819.29,"ADDRESS":"羊稠厝４６號","OBJECTID":81647},"geometry":{"x":169448.4299999997,"y":2575819.2899999991}},{"attributes":{"ID":81648,"DIS_CODE":0,"TOWNNAME":"永康區","LI":"王行里","LIN":"12鄰","STREET":"王行路","SECT":" ","MAREA":" ","LANE":"８６６巷","ALLEY":"２９弄","HOUSE_NO":"６１號","E_COORD97":176021.04000000001,"N_COORD97":2550023.1899999999,"ADDRESS":"王行路８６６巷２９弄６１號","OBJECTID":81648},"geometry":{"x":176021.03999999911,"y":2550023.1899999976}},{"attributes":{"ID":81649,"DIS_CODE":0,"TOWNNAME":"龍崎區","LI":"楠坑里","LIN":"7鄰","STREET":" ","SECT":" ","MAREA":"楠坑","LANE":" ","ALLEY":" ","HOUSE_NO":"１６號","E_COORD97":184010.19,"N_COORD97":2535323.2799999998,"ADDRESS":"楠坑１６號","OBJECTID":81649},"geometry":{"x":184010.19000000134,"y":2535323.2800000012}},{"attributes":{"ID":81650,"DIS_CODE":0,"TOWNNAME":"安定區","LI":"保西里","LIN":"7鄰","STREET":" ","SECT":" ","MAREA":"安定","LANE":" ","ALLEY":" ","HOUSE_NO":"３９８號","E_COORD97":171740.32000000001,"N_COORD97":2557789.3199999998,"ADDRESS":"安定３９８號","OBJECTID":81650},"geometry":{"x":171740.3200000003,"y":2557789.3200000003}},{"attributes":{"ID":81651,"DIS_CODE":0,"TOWNNAME":"西港區","LI":"港東里","LIN":"1鄰","STREET":" ","SECT":" ","MAREA":"\u25A0張\u25A0","LANE":" ","ALLEY":" ","HOUSE_NO":"５號之１","E_COORD97":169245.34,"N_COORD97":2557783.9100000001,"ADDRESS":"\u25A0張\u25A0５號之１","OBJECTID":81651},"geometry":{"x":169245.34000000078,"y":2557783.910000002}},{"attributes":{"ID":81652,"DIS_CODE":0,"TOWNNAME":"西港區","LI":"港東里","LIN":"1鄰","STREET":" ","SECT":" ","MAREA":"\u25A0張\u25A0","LANE":" ","ALLEY":" ","HOUSE_NO":"５號之２","E_COORD97":169253.47,"N_COORD97":2557776.3100000001,"ADDRESS":"\u25A0張\u25A0５號之２","OBJECTID":81652},"geometry":{"x":169253.46999999974,"y":2557776.3100000005}},{"attributes":{"ID":81653,"DIS_CODE":0,"TOWNNAME":"西港區","LI":"港東里","LIN":"1鄰","STREET":" ","SECT":" ","MAREA":"\u25A0張\u25A0","LANE":" ","ALLEY":" ","HOUSE_NO":"５號之３","E_COORD97":169254.28,"N_COORD97":2557772.21,"ADDRESS":"\u25A0張\u25A0５號之３","OBJECTID":81653},"geometry":{"x":169254.28000000212,"y":2557772.2100000028}},{"attributes":{"ID":81654,"DIS_CODE":0,"TOWNNAME":"西港區","LI":"港東里","LIN":"1鄰","STREET":" ","SECT":" ","MAREA":"\u25A0張\u25A0","LANE":" ","ALLEY":" ","HOUSE_NO":"５號之４","E_COORD97":169254.5,"N_COORD97":2557768.02,"ADDRESS":"\u25A0張\u25A0５號之４","OBJECTID":81654},"geometry":{"x":169254.50000000093,"y":2557768.0199999977}},{"attributes":{"ID":81655,"DIS_CODE":0,"TOWNNAME":"西港區","LI":"港東里","LIN":"1鄰","STREET":" ","SECT":" ","MAREA":"\u25A0張\u25A0","LANE":" ","ALLEY":" ","HOUSE_NO":"５號之５","E_COORD97":169260.07000000001,"N_COORD97":2557756.2400000002,"ADDRESS":"\u25A0張\u25A0５號之５","OBJECTID":81655},"geometry":{"x":169260.0700000003,"y":2557756.2400000002}},{"attributes":{"ID":81656,"DIS_CODE":0,"TOWNNAME":"西港區","LI":"港東里","LIN":"1鄰","STREET":" ","SECT":" ","MAREA":"\u25A0張\u25A0","LANE":" ","ALLEY":" ","HOUSE_NO":"５號","E_COORD97":169243.07999999999,"N_COORD97":2557797.21,"ADDRESS":"\u25A0張\u25A0５號","OBJECTID":81656},"geometry":{"x":169243.08000000007,"y":2557797.2100000009}},{"attributes":{"ID":81657,"DIS_CODE":0,"TOWNNAME":"永康區","LI":"王行里","LIN":"12鄰","STREET":"王行路","SECT":" ","MAREA":" ","LANE":"８６６巷","ALLEY":"２９弄","HOUSE_NO":"２４號","E_COORD97":176013.06,"N_COORD97":2549914.7400000002,"ADDRESS":"王行路８６６巷２９弄２４號","OBJECTID":81657},"geometry":{"x":176013.05999999959,"y":2549914.7400000002}},{"attributes":{"ID":81658,"DIS_CODE":0,"TOWNNAME":"西港區","LI":"港東里","LIN":"1鄰","STREET":" ","SECT":" ","MAREA":"\u25A0張\u25A0","LANE":" ","ALLEY":" ","HOUSE_NO":"６號之１０","E_COORD97":169297.51000000001,"N_COORD97":2557778.7599999998,"ADDRESS":"\u25A0張\u25A0６號之１０","OBJECTID":81658},"geometry":{"x":169297.50999999978,"y":2557778.7599999998}},{"attributes":{"ID":81659,"DIS_CODE":0,"TOWNNAME":"西港區","LI":"港東里","LIN":"1鄰","STREET":" ","SECT":" ","MAREA":"\u25A0張\u25A0","LANE":" ","ALLEY":" ","HOUSE_NO":"６號之１１","E_COORD97":169296.97,"N_COORD97":2557782.6800000002,"ADDRESS":"\u25A0張\u25A0６號之１１","OBJECTID":81659},"geometry":{"x":169296.97000000067,"y":2557782.6799999997}},{"attributes":{"ID":81660,"DIS_CODE":0,"TOWNNAME":"永康區","LI":"王行里","LIN":"12鄰","STREET":"王行路","SECT":" ","MAREA":" ","LANE":"８６６巷","ALLEY":"２９弄","HOUSE_NO":"２１號","E_COORD97":175989.26000000001,"N_COORD97":2549988.8700000001,"ADDRESS":"王行路８６６巷２９弄２１號","OBJECTID":81660},"geometry":{"x":175989.26000000071,"y":2549988.870000001}},{"attributes":{"ID":81661,"DIS_CODE":0,"TOWNNAME":"西港區","LI":"港東里","LIN":"1鄰","STREET":" ","SECT":" ","MAREA":"\u25A0張\u25A0","LANE":" ","ALLEY":" ","HOUSE_NO":"６號之１２","E_COORD97":169296.31,"N_COORD97":2557786.9900000002,"ADDRESS":"\u25A0張\u25A0６號之１２","OBJECTID":81661},"geometry":{"x":169296.31000000052,"y":2557786.9900000021}},{"attributes":{"ID":81662,"DIS_CODE":0,"TOWNNAME":"西港區","LI":"港東里","LIN":"1鄰","STREET":" ","SECT":" ","MAREA":"\u25A0張\u25A0","LANE":" ","ALLEY":" ","HOUSE_NO":"６號之１３","E_COORD97":169295.57999999999,"N_COORD97":2557791.0299999998,"ADDRESS":"\u25A0張\u25A0６號之１３","OBJECTID":81662},"geometry":{"x":169295.58000000007,"y":2557791.0299999993}},{"attributes":{"ID":81663,"DIS_CODE":0,"TOWNNAME":"永康區","LI":"王行里","LIN":"12鄰","STREET":"王行路","SECT":" ","MAREA":" ","LANE":"８６６巷","ALLEY":"２９弄","HOUSE_NO":"３７號","E_COORD97":176031.54000000001,"N_COORD97":2550006.2400000002,"ADDRESS":"王行路８６６巷２９弄３７號","OBJECTID":81663},"geometry":{"x":176031.54000000097,"y":2550006.2400000002}},{"attributes":{"ID":81664,"DIS_CODE":0,"TOWNNAME":"永康區","LI":"王行里","LIN":"12鄰","STREET":"王行路","SECT":" ","MAREA":" ","LANE":"８６６巷","ALLEY":"２９弄","HOUSE_NO":"１４號","E_COORD97":175992.98000000001,"N_COORD97":2549914.2400000002,"ADDRESS":"王行路８６６巷２９弄１４號","OBJECTID":81664},"geometry":{"x":175992.98000000045,"y":2549914.2400000002}},{"attributes":{"ID":81665,"DIS_CODE":0,"TOWNNAME":"西港區","LI":"港東里","LIN":"1鄰","STREET":" ","SECT":" ","MAREA":"\u25A0張\u25A0","LANE":" ","ALLEY":" ","HOUSE_NO":"６號之１４","E_COORD97":169295.07000000001,"N_COORD97":2557795.1099999999,"ADDRESS":"\u25A0張\u25A0６號之１４","OBJECTID":81665},"geometry":{"x":169295.07000000123,"y":2557795.1100000013}},{"attributes":{"ID":81666,"DIS_CODE":0,"TOWNNAME":"永康區","LI":"王行里","LIN":"12鄰","STREET":"王行路","SECT":" ","MAREA":" ","LANE":"８６６巷","ALLEY":"２９弄","HOUSE_NO":"１６號","E_COORD97":175996.04000000001,"N_COORD97":2549916.7400000002,"ADDRESS":"王行路８６６巷２９弄１６號","OBJECTID":81666},"geometry":{"x":175996.04000000097,"y":2549916.7400000021}},{"attributes":{"ID":81667,"DIS_CODE":0,"TOWNNAME":"西港區","LI":"港東里","LIN":"1鄰","STREET":" ","SECT":" ","MAREA":"\u25A0張\u25A0","LANE":" ","ALLEY":" ","HOUSE_NO":"６號之１５","E_COORD97":169294.51999999999,"N_COORD97":2557799.3100000001,"ADDRESS":"\u25A0張\u25A0６號之１５","OBJECTID":81667},"geometry":{"x":169294.52000000048,"y":2557799.3100000024}},{"attributes":{"ID":81668,"DIS_CODE":0,"TOWNNAME":"西港區","LI":"港東里","LIN":"1鄰","STREET":" ","SECT":" ","MAREA":"\u25A0張\u25A0","LANE":" ","ALLEY":" ","HOUSE_NO":"６號之１６","E_COORD97":169294.16,"N_COORD97":2557803.7599999998,"ADDRESS":"\u25A0張\u25A0６號之１６","OBJECTID":81668},"geometry":{"x":169294.16000000108,"y":2557803.7599999998}},{"attributes":{"ID":81669,"DIS_CODE":0,"TOWNNAME":"西港區","LI":"港東里","LIN":"1鄰","STREET":" ","SECT":" ","MAREA":"\u25A0張\u25A0","LANE":" ","ALLEY":" ","HOUSE_NO":"６號之１７","E_COORD97":169293.59,"N_COORD97":2557807.7000000002,"ADDRESS":"\u25A0張\u25A0６號之１７","OBJECTID":81669},"geometry":{"x":169293.58999999985,"y":2557807.7000000011}},{"attributes":{"ID":81670,"DIS_CODE":0,"TOWNNAME":"西港區","LI":"港東里","LIN":"1鄰","STREET":" ","SECT":" ","MAREA":"\u25A0張\u25A0","LANE":" ","ALLEY":" ","HOUSE_NO":"６號之１８","E_COORD97":169293.16,"N_COORD97":2557811.96,"ADDRESS":"\u25A0張\u25A0６號之１８","OBJECTID":81670},"geometry":{"x":169293.16000000015,"y":2557811.9600000028}},{"attributes":{"ID":81671,"DIS_CODE":0,"TOWNNAME":"西港區","LI":"港東里","LIN":"1鄰","STREET":" ","SECT":" ","MAREA":"\u25A0張\u25A0","LANE":" ","ALLEY":" ","HOUSE_NO":"６號之１９","E_COORD97":169292.31,"N_COORD97":2557815.8900000001,"ADDRESS":"\u25A0張\u25A0６號之１９","OBJECTID":81671},"geometry":{"x":169292.31000000145,"y":2557815.8900000025}},{"attributes":{"ID":81672,"DIS_CODE":0,"TOWNNAME":"西港區","LI":"港東里","LIN":"1鄰","STREET":" ","SECT":" ","MAREA":"\u25A0張\u25A0","LANE":" ","ALLEY":" ","HOUSE_NO":"６號之１","E_COORD97":169287.09,"N_COORD97":2557754.0899999999,"ADDRESS":"\u25A0張\u25A0６號之１","OBJECTID":81672},"geometry":{"x":169287.08999999985,"y":2557754.0899999999}},{"attributes":{"ID":81673,"DIS_CODE":0,"TOWNNAME":"西港區","LI":"港東里","LIN":"1鄰","STREET":" ","SECT":" ","MAREA":"\u25A0張\u25A0","LANE":" ","ALLEY":" ","HOUSE_NO":"６號之２０","E_COORD97":169291.73000000001,"N_COORD97":2557820.3399999999,"ADDRESS":"\u25A0張\u25A0６號之２０","OBJECTID":81673},"geometry":{"x":169291.73000000045,"y":2557820.3399999999}},{"attributes":{"ID":81674,"DIS_CODE":0,"TOWNNAME":"西港區","LI":"港東里","LIN":"1鄰","STREET":" ","SECT":" ","MAREA":"\u25A0張\u25A0","LANE":" ","ALLEY":" ","HOUSE_NO":"６號之２１","E_COORD97":169291.45999999999,"N_COORD97":2557824.27,"ADDRESS":"\u25A0張\u25A0６號之２１","OBJECTID":81674},"geometry":{"x":169291.45999999996,"y":2557824.2700000033}},{"attributes":{"ID":81675,"DIS_CODE":0,"TOWNNAME":"東區","LI":"崇學里","LIN":"7鄰","STREET":"崇德四街","SECT":" ","MAREA":" ","LANE":" ","ALLEY":" ","HOUSE_NO":"９號","E_COORD97":170561.67000000001,"N_COORD97":2542025.52,"ADDRESS":"崇德四街９號","OBJECTID":81675},"geometry":{"x":170561.67000000179,"y":2542025.5199999996}},{"attributes":{"ID":81676,"DIS_CODE":0,"TOWNNAME":"西港區","LI":"港東里","LIN":"1鄰","STREET":" ","SECT":" ","MAREA":"\u25A0張\u25A0","LANE":" ","ALLEY":" ","HOUSE_NO":"６號之２２","E_COORD97":169275.42000000001,"N_COORD97":2557790.52,"ADDRESS":"\u25A0張\u25A0６號之２２","OBJECTID":81676},"geometry":{"x":169275.42000000086,"y":2557790.5199999996}},{"attributes":{"ID":81677,"DIS_CODE":0,"TOWNNAME":"東區","LI":"崇學里","LIN":"7鄰","STREET":"崇善路","SECT":" ","MAREA":" ","LANE":" ","ALLEY":" ","HOUSE_NO":"２０４號","E_COORD97":170610.82000000001,"N_COORD97":2542119.5800000001,"ADDRESS":"崇善路２０４號","OBJECTID":81677},"geometry":{"x":170610.82000000123,"y":2542119.5800000019}},{"attributes":{"ID":81678,"DIS_CODE":0,"TOWNNAME":"東區","LI":"崇信里","LIN":"7鄰","STREET":"崇信街","SECT":" ","MAREA":" ","LANE":" ","ALLEY":" ","HOUSE_NO":"９７號地下一層","E_COORD97":170764.72,"N_COORD97":2542329.8500000001,"ADDRESS":"崇信街９７號地下一層","OBJECTID":81678},"geometry":{"x":170764.72000000067,"y":2542329.8500000034}},{"attributes":{"ID":81679,"DIS_CODE":0,"TOWNNAME":"永康區","LI":"中華里","LIN":"7鄰","STREET":"小東路","SECT":" ","MAREA":" ","LANE":" ","ALLEY":" ","HOUSE_NO":"６３９號","E_COORD97":171914.10999999999,"N_COORD97":2544340.7999999998,"ADDRESS":"小東路６３９號","OBJECTID":81679},"geometry":{"x":171914.11000000127,"y":2544340.8000000007}},{"attributes":{"ID":81680,"DIS_CODE":0,"TOWNNAME":"歸仁區","LI":"辜厝里","LIN":"7鄰","STREET":"大順二街","SECT":" ","MAREA":" ","LANE":" ","ALLEY":" ","HOUSE_NO":"１號","E_COORD97":177476.07000000001,"N_COORD97":2540564.5899999999,"ADDRESS":"大順二街１號","OBJECTID":81680},"geometry":{"x":177476.07000000123,"y":2540564.5899999999}},{"attributes":{"ID":81681,"DIS_CODE":0,"TOWNNAME":"永康區","LI":"王行里","LIN":"12鄰","STREET":"王行路","SECT":" ","MAREA":" ","LANE":"８６６巷","ALLEY":"２９弄","HOUSE_NO":"９２號","E_COORD97":175999.38,"N_COORD97":2550080.25,"ADDRESS":"王行路８６６巷２９弄９２號","OBJECTID":81681},"geometry":{"x":175999.37999999989,"y":2550080.25}},{"attributes":{"ID":81682,"DIS_CODE":0,"TOWNNAME":"永康區","LI":"王行里","LIN":"12鄰","STREET":"王行路","SECT":" ","MAREA":" ","LANE":"８６６巷","ALLEY":"２９弄","HOUSE_NO":"１５號","E_COORD97":175982.10000000001,"N_COORD97":2549969.5,"ADDRESS":"王行路８６６巷２９弄１５號","OBJECTID":81682},"geometry":{"x":175982.10000000056,"y":2549969.5}},{"attributes":{"ID":81683,"DIS_CODE":0,"TOWNNAME":"永康區","LI":"王行里","LIN":"12鄰","STREET":"王行路","SECT":" ","MAREA":" ","LANE":"８６６巷","ALLEY":"２９弄","HOUSE_NO":"６７號","E_COORD97":176003.35999999999,"N_COORD97":2550035,"ADDRESS":"王行路８６６巷２９弄６７號","OBJECTID":81683},"geometry":{"x":176003.36000000034,"y":2550035}},{"attributes":{"ID":81684,"DIS_CODE":0,"TOWNNAME":"永康區","LI":"王行里","LIN":"12鄰","STREET":"王行路","SECT":" ","MAREA":" ","LANE":"８６６巷","ALLEY":"２９弄","HOUSE_NO":"６３號","E_COORD97":176001.70999999999,"N_COORD97":2550023.9900000002,"ADDRESS":"王行路８６６巷２９弄６３號","OBJECTID":81684},"geometry":{"x":176001.71000000089,"y":2550023.9900000002}},{"attributes":{"ID":81685,"DIS_CODE":0,"TOWNNAME":"永康區","LI":"王行里","LIN":"12鄰","STREET":"王行路","SECT":" ","MAREA":" ","LANE":"８６６巷","ALLEY":"７弄","HOUSE_NO":"２號","E_COORD97":175894.26000000001,"N_COORD97":2549981.0699999998,"ADDRESS":"王行路８６６巷７弄２號","OBJECTID":81685},"geometry":{"x":175894.26000000071,"y":2549981.070000004}},{"attributes":{"ID":81686,"DIS_CODE":0,"TOWNNAME":"永康區","LI":"王行里","LIN":"12鄰","STREET":"王行路","SECT":" ","MAREA":" ","LANE":"８６６巷","ALLEY":"２９弄","HOUSE_NO":"４號","E_COORD97":175978.38,"N_COORD97":2549900.2400000002,"ADDRESS":"王行路８６６巷２９弄４號","OBJECTID":81686},"geometry":{"x":175978.38000000082,"y":2549900.2400000002}},{"attributes":{"ID":81687,"DIS_CODE":0,"TOWNNAME":"永康區","LI":"王行里","LIN":"12鄰","STREET":"王行路","SECT":" ","MAREA":" ","LANE":"８６６巷","ALLEY":"２９弄","HOUSE_NO":"５５號","E_COORD97":176030.63,"N_COORD97":2550031.6800000002,"ADDRESS":"王行路８６６巷２９弄５５號","OBJECTID":81687},"geometry":{"x":176030.63000000175,"y":2550031.6800000016}},{"attributes":{"ID":81688,"DIS_CODE":0,"TOWNNAME":"永康區","LI":"王行里","LIN":"12鄰","STREET":"王行路","SECT":" ","MAREA":" ","LANE":"８６６巷","ALLEY":"２９弄","HOUSE_NO":"２７號","E_COORD97":175994.51999999999,"N_COORD97":2550004.9900000002,"ADDRESS":"王行路８６６巷２９弄２７號","OBJECTID":81688},"geometry":{"x":175994.51999999955,"y":2550004.9899999984}},{"attributes":{"ID":81689,"DIS_CODE":0,"TOWNNAME":"永康區","LI":"王行里","LIN":"12鄰","STREET":"王行路","SECT":" ","MAREA":" ","LANE":"８６６巷","ALLEY":"２９弄","HOUSE_NO":"６５號","E_COORD97":176002.70999999999,"N_COORD97":2550029.4900000002,"ADDRESS":"王行路８６６巷２９弄６５號","OBJECTID":81689},"geometry":{"x":176002.70999999996,"y":2550029.4900000021}},{"attributes":{"ID":81690,"DIS_CODE":0,"TOWNNAME":"永康區","LI":"王行里","LIN":"12鄰","STREET":"王行路","SECT":" ","MAREA":" ","LANE":"８６６巷","ALLEY":"２９弄","HOUSE_NO":"７１號","E_COORD97":176009.07000000001,"N_COORD97":2550051.0299999998,"ADDRESS":"王行路８６６巷２９弄７１號","OBJECTID":81690},"geometry":{"x":176009.0700000003,"y":2550051.0299999993}},{"attributes":{"ID":81691,"DIS_CODE":0,"TOWNNAME":"永康區","LI":"王行里","LIN":"12鄰","STREET":"王行路","SECT":" ","MAREA":" ","LANE":"８６６巷","ALLEY":"２９弄","HOUSE_NO":"３１號","E_COORD97":176018.63,"N_COORD97":2550007.9900000002,"ADDRESS":"王行路８６６巷２９弄３１號","OBJECTID":81691},"geometry":{"x":176018.63000000175,"y":2550007.9900000002}},{"attributes":{"ID":81692,"DIS_CODE":0,"TOWNNAME":"永康區","LI":"王行里","LIN":"12鄰","STREET":"王行路","SECT":" ","MAREA":" ","LANE":"８６６巷","ALLEY":"７弄","HOUSE_NO":"８號","E_COORD97":175895.01000000001,"N_COORD97":2549989.0699999998,"ADDRESS":"王行路８６６巷７弄８號","OBJECTID":81692},"geometry":{"x":175895.00999999978,"y":2549989.0700000022}},{"attributes":{"ID":81693,"DIS_CODE":0,"TOWNNAME":"永康區","LI":"王行里","LIN":"12鄰","STREET":"王行路","SECT":" ","MAREA":" ","LANE":"８６６巷","ALLEY":"２９弄","HOUSE_NO":"１１８號","E_COORD97":175978.35000000001,"N_COORD97":2550159.75,"ADDRESS":"王行路８６６巷２９弄１１８號","OBJECTID":81693},"geometry":{"x":175978.35000000056,"y":2550159.7500000019}},{"attributes":{"ID":81694,"DIS_CODE":0,"TOWNNAME":"永康區","LI":"王行里","LIN":"12鄰","STREET":"王行路","SECT":" ","MAREA":" ","LANE":"８６６巷","ALLEY":"７弄","HOUSE_NO":"１號","E_COORD97":175885.51000000001,"N_COORD97":2549982.73,"ADDRESS":"王行路８６６巷７弄１號","OBJECTID":81694},"geometry":{"x":175885.51000000164,"y":2549982.7300000004}},{"attributes":{"ID":81695,"DIS_CODE":0,"TOWNNAME":"永康區","LI":"王行里","LIN":"12鄰","STREET":"王行路","SECT":" ","MAREA":" ","LANE":"８６６巷","ALLEY":"２９弄","HOUSE_NO":"９４號","E_COORD97":175995.47,"N_COORD97":2550086.7999999998,"ADDRESS":"王行路８６６巷２９弄９４號","OBJECTID":81695},"geometry":{"x":175995.46999999974,"y":2550086.8000000007}},{"attributes":{"ID":81696,"DIS_CODE":0,"TOWNNAME":"鹽水區","LI":"孫厝里","LIN":"17鄰","STREET":" ","SECT":" ","MAREA":"羊稠厝","LANE":" ","ALLEY":" ","HOUSE_NO":"５３號","E_COORD97":169436.59,"N_COORD97":2575766.04,"ADDRESS":"羊稠厝５３號","OBJECTID":81696},"geometry":{"x":169436.59000000171,"y":2575766.0399999991}},{"attributes":{"ID":81697,"DIS_CODE":0,"TOWNNAME":"東區","LI":"大學里","LIN":"12鄰","STREET":"長榮路","SECT":"三段","MAREA":" ","LANE":"６６巷","ALLEY":"４７弄","HOUSE_NO":"１３號","E_COORD97":170363.53,"N_COORD97":2543825.5899999999,"ADDRESS":"長榮路三段６６巷４７弄１３號","OBJECTID":81697},"geometry":{"x":170363.53000000119,"y":2543825.5899999999}},{"attributes":{"ID":81698,"DIS_CODE":0,"TOWNNAME":"東區","LI":"大學里","LIN":"12鄰","STREET":"長榮路","SECT":"三段","MAREA":" ","LANE":"６６巷","ALLEY":"４７弄","HOUSE_NO":"１６號","E_COORD97":170397.26999999999,"N_COORD97":2543842.5899999999,"ADDRESS":"長榮路三段６６巷４７弄１６號","OBJECTID":81698},"geometry":{"x":170397.26999999955,"y":2543842.5899999999}},{"attributes":{"ID":81699,"DIS_CODE":0,"TOWNNAME":"東區","LI":"大學里","LIN":"12鄰","STREET":"長榮路","SECT":"三段","MAREA":" ","LANE":"６６巷","ALLEY":"４７弄","HOUSE_NO":"１號","E_COORD97":170363.12,"N_COORD97":2543802.9700000002,"ADDRESS":"長榮路三段６６巷４７弄１號","OBJECTID":81699},"geometry":{"x":170363.12000000011,"y":2543802.9700000025}},{"attributes":{"ID":81700,"DIS_CODE":0,"TOWNNAME":"西港區","LI":"港東里","LIN":"1鄰","STREET":" ","SECT":" ","MAREA":"\u25A0張\u25A0","LANE":" ","ALLEY":" ","HOUSE_NO":"６號之２３","E_COORD97":169272.01000000001,"N_COORD97":2557795.04,"ADDRESS":"\u25A0張\u25A0６號之２３","OBJECTID":81700},"geometry":{"x":169272.00999999978,"y":2557795.040000001}},{"attributes":{"ID":81701,"DIS_CODE":0,"TOWNNAME":"東區","LI":"大學里","LIN":"12鄰","STREET":"長榮路","SECT":"三段","MAREA":" ","LANE":"６６巷","ALLEY":"４７弄","HOUSE_NO":"２號","E_COORD97":170371.41,"N_COORD97":2543800.1499999999,"ADDRESS":"長榮路三段６６巷４７弄２號","OBJECTID":81701},"geometry":{"x":170371.41000000015,"y":2543800.1500000022}},{"attributes":{"ID":81702,"DIS_CODE":0,"TOWNNAME":"東區","LI":"大學里","LIN":"12鄰","STREET":"長榮路","SECT":"三段","MAREA":" ","LANE":"６６巷","ALLEY":"４７弄","HOUSE_NO":"２號之１","E_COORD97":170372.59,"N_COORD97":2543805.9500000002,"ADDRESS":"長榮路三段６６巷４７弄２號之１","OBJECTID":81702},"geometry":{"x":170372.59000000078,"y":2543805.9499999993}},{"attributes":{"ID":81703,"DIS_CODE":0,"TOWNNAME":"東區","LI":"大學里","LIN":"12鄰","STREET":"長榮路","SECT":"三段","MAREA":" ","LANE":"６６巷","ALLEY":"４７弄","HOUSE_NO":"３號","E_COORD97":170362.37,"N_COORD97":2543810.4300000002,"ADDRESS":"長榮路三段６６巷４７弄３號","OBJECTID":81703},"geometry":{"x":170362.37000000104,"y":2543810.4299999997}},{"attributes":{"ID":81704,"DIS_CODE":0,"TOWNNAME":"東區","LI":"大學里","LIN":"12鄰","STREET":"長榮路","SECT":"三段","MAREA":" ","LANE":"６６巷","ALLEY":"４７弄","HOUSE_NO":"４號","E_COORD97":170374.14999999999,"N_COORD97":2543816.9100000001,"ADDRESS":"長榮路三段６６巷４７弄４號","OBJECTID":81704},"geometry":{"x":170374.15000000224,"y":2543816.9100000001}},{"attributes":{"ID":81705,"DIS_CODE":0,"TOWNNAME":"東區","LI":"大學里","LIN":"12鄰","STREET":"長榮路","SECT":"三段","MAREA":" ","LANE":"６６巷","ALLEY":"４７弄","HOUSE_NO":"５號","E_COORD97":170353.85999999999,"N_COORD97":2543810.4300000002,"ADDRESS":"長榮路三段６６巷４７弄５號","OBJECTID":81705},"geometry":{"x":170353.8599999994,"y":2543810.4299999997}},{"attributes":{"ID":81706,"DIS_CODE":0,"TOWNNAME":"東區","LI":"大學里","LIN":"12鄰","STREET":"長榮路","SECT":"三段","MAREA":" ","LANE":"６６巷","ALLEY":"４７弄","HOUSE_NO":"６號","E_COORD97":170377.14000000001,"N_COORD97":2543825.4900000002,"ADDRESS":"長榮路三段６６巷４７弄６號","OBJECTID":81706},"geometry":{"x":170377.1400000006,"y":2543825.4900000021}},{"attributes":{"ID":81707,"DIS_CODE":0,"TOWNNAME":"東區","LI":"大學里","LIN":"12鄰","STREET":"長榮路","SECT":"三段","MAREA":" ","LANE":"６６巷","ALLEY":"４７弄","HOUSE_NO":"８號","E_COORD97":170390.44,"N_COORD97":2543826.9199999999,"ADDRESS":"長榮路三段６６巷４７弄８號","OBJECTID":81707},"geometry":{"x":170390.44000000041,"y":2543826.9199999999}},{"attributes":{"ID":81708,"DIS_CODE":0,"TOWNNAME":"新化區","LI":"豐榮里","LIN":"12鄰","STREET":"正新路","SECT":" ","MAREA":" ","LANE":"９５巷","ALLEY":"４３弄","HOUSE_NO":"１０號","E_COORD97":178599.87,"N_COORD97":2547949.25,"ADDRESS":"正新路９５巷４３弄１０號","OBJECTID":81708},"geometry":{"x":178599.87000000104,"y":2547949.2500000019}},{"attributes":{"ID":81709,"DIS_CODE":0,"TOWNNAME":"新化區","LI":"武安里","LIN":"12鄰","STREET":"正新南路","SECT":" ","MAREA":" ","LANE":"８９巷","ALLEY":"３弄","HOUSE_NO":"１號","E_COORD97":178959.82000000001,"N_COORD97":2547968.25,"ADDRESS":"正新南路８９巷３弄１號","OBJECTID":81709},"geometry":{"x":178959.8200000003,"y":2547968.25}},{"attributes":{"ID":81710,"DIS_CODE":0,"TOWNNAME":"西港區","LI":"港東里","LIN":"1鄰","STREET":" ","SECT":" ","MAREA":"\u25A0張\u25A0","LANE":" ","ALLEY":" ","HOUSE_NO":"６號之２","E_COORD97":169275.13,"N_COORD97":2557777.73,"ADDRESS":"\u25A0張\u25A0６號之２","OBJECTID":81710},"geometry":{"x":169275.13000000175,"y":2557777.7299999986}},{"attributes":{"ID":81711,"DIS_CODE":0,"TOWNNAME":"西港區","LI":"港東里","LIN":"1鄰","STREET":" ","SECT":" ","MAREA":"\u25A0張\u25A0","LANE":" ","ALLEY":" ","HOUSE_NO":"６號之４","E_COORD97":169288.76000000001,"N_COORD97":2557728.8500000001,"ADDRESS":"\u25A0張\u25A0６號之４","OBJECTID":81711},"geometry":{"x":169288.75999999978,"y":2557728.8500000034}},{"attributes":{"ID":81712,"DIS_CODE":0,"TOWNNAME":"西港區","LI":"港東里","LIN":"1鄰","STREET":" ","SECT":" ","MAREA":"\u25A0張\u25A0","LANE":" ","ALLEY":" ","HOUSE_NO":"６號之６","E_COORD97":169298.66,"N_COORD97":2557763.3599999999,"ADDRESS":"\u25A0張\u25A0６號之６","OBJECTID":81712},"geometry":{"x":169298.66000000015,"y":2557763.3600000013}},{"attributes":{"ID":81713,"DIS_CODE":0,"TOWNNAME":"新化區","LI":"武安里","LIN":"12鄰","STREET":"正新南路","SECT":" ","MAREA":" ","LANE":"８９巷","ALLEY":"３弄","HOUSE_NO":"３號","E_COORD97":178966.62,"N_COORD97":2547970.25,"ADDRESS":"正新南路８９巷３弄３號","OBJECTID":81713},"geometry":{"x":178966.62000000011,"y":2547970.2500000019}},{"attributes":{"ID":81714,"DIS_CODE":0,"TOWNNAME":"新化區","LI":"豐榮里","LIN":"12鄰","STREET":"正新路","SECT":" ","MAREA":" ","LANE":"９５巷","ALLEY":"４３弄","HOUSE_NO":"１號","E_COORD97":178592.12,"N_COORD97":2547930.25,"ADDRESS":"正新路９５巷４３弄１號","OBJECTID":81714},"geometry":{"x":178592.11999999918,"y":2547930.25}},{"attributes":{"ID":81715,"DIS_CODE":0,"TOWNNAME":"安南區","LI":"州北里","LIN":"12鄰","STREET":"安和路","SECT":"五段","MAREA":" ","LANE":"１７１巷","ALLEY":"７２弄","HOUSE_NO":"１３號之２","E_COORD97":169651.41,"N_COORD97":2551811.75,"ADDRESS":"安和路五段１７１巷７２弄１３號之２","OBJECTID":81715},"geometry":{"x":169651.41000000015,"y":2551811.7500000019}},{"attributes":{"ID":81716,"DIS_CODE":0,"TOWNNAME":"西港區","LI":"港東里","LIN":"1鄰","STREET":" ","SECT":" ","MAREA":"\u25A0張\u25A0","LANE":" ","ALLEY":" ","HOUSE_NO":"６號之７","E_COORD97":169302.63,"N_COORD97":2557764.0800000001,"ADDRESS":"\u25A0張\u25A0６號之７","OBJECTID":81716},"geometry":{"x":169302.63000000082,"y":2557764.0800000001}},{"attributes":{"ID":81717,"DIS_CODE":0,"TOWNNAME":"西港區","LI":"檨林里","LIN":"1鄰","STREET":" ","SECT":" ","MAREA":"檨子林","LANE":" ","ALLEY":" ","HOUSE_NO":"１０號之１","E_COORD97":171497.45999999999,"N_COORD97":2559094.1899999999,"ADDRESS":"檨子林１０號之１","OBJECTID":81717},"geometry":{"x":171497.46000000089,"y":2559094.1900000013}},{"attributes":{"ID":81718,"DIS_CODE":0,"TOWNNAME":"西港區","LI":"檨林里","LIN":"1鄰","STREET":" ","SECT":" ","MAREA":"檨子林","LANE":" ","ALLEY":" ","HOUSE_NO":"１０之２號","E_COORD97":171496.20000000001,"N_COORD97":2559073.6600000001,"ADDRESS":"檨子林１０之２號","OBJECTID":81718},"geometry":{"x":171496.20000000112,"y":2559073.660000002}},{"attributes":{"ID":81719,"DIS_CODE":0,"TOWNNAME":"西港區","LI":"檨林里","LIN":"1鄰","STREET":" ","SECT":" ","MAREA":"檨子林","LANE":" ","ALLEY":" ","HOUSE_NO":"１號之１０","E_COORD97":171125.26000000001,"N_COORD97":2559384.23,"ADDRESS":"檨子林１號之１０","OBJECTID":81719},"geometry":{"x":171125.25999999885,"y":2559384.2300000004}},{"attributes":{"ID":81720,"DIS_CODE":0,"TOWNNAME":"西港區","LI":"檨林里","LIN":"1鄰","STREET":" ","SECT":" ","MAREA":"檨子林","LANE":" ","ALLEY":" ","HOUSE_NO":"１號之１１","E_COORD97":171141.48999999999,"N_COORD97":2559376.1200000001,"ADDRESS":"檨子林１號之１１","OBJECTID":81720},"geometry":{"x":171141.49000000115,"y":2559376.1200000048}},{"attributes":{"ID":81721,"DIS_CODE":0,"TOWNNAME":"西港區","LI":"檨林里","LIN":"1鄰","STREET":" ","SECT":" ","MAREA":"檨子林","LANE":" ","ALLEY":" ","HOUSE_NO":"４號","E_COORD97":171313.29999999999,"N_COORD97":2559056.79,"ADDRESS":"檨子林４號","OBJECTID":81721},"geometry":{"x":171313.30000000168,"y":2559056.7899999991}},{"attributes":{"ID":81722,"DIS_CODE":0,"TOWNNAME":"西港區","LI":"檨林里","LIN":"1鄰","STREET":" ","SECT":" ","MAREA":"檨子林","LANE":" ","ALLEY":" ","HOUSE_NO":"１號之１３","E_COORD97":171156.57999999999,"N_COORD97":2559211.29,"ADDRESS":"檨子林１號之１３","OBJECTID":81722},"geometry":{"x":171156.58000000007,"y":2559211.290000001}},{"attributes":{"ID":81723,"DIS_CODE":0,"TOWNNAME":"安南區","LI":"學東里","LIN":"12鄰","STREET":"公學路","SECT":"六段","MAREA":" ","LANE":"７２１巷","ALLEY":"９６弄","HOUSE_NO":"１０號","E_COORD97":161955.42000000001,"N_COORD97":2553051.8100000001,"ADDRESS":"公學路六段７２１巷９６弄１０號","OBJECTID":81723},"geometry":{"x":161955.42000000086,"y":2553051.8100000024}},{"attributes":{"ID":81724,"DIS_CODE":0,"TOWNNAME":"西港區","LI":"檨林里","LIN":"1鄰","STREET":" ","SECT":" ","MAREA":"檨子林","LANE":" ","ALLEY":" ","HOUSE_NO":"１號之１","E_COORD97":171219.12,"N_COORD97":2559295.7599999998,"ADDRESS":"檨子林１號之１","OBJECTID":81724},"geometry":{"x":171219.12000000011,"y":2559295.7599999979}},{"attributes":{"ID":81725,"DIS_CODE":0,"TOWNNAME":"安南區","LI":"南興里","LIN":"12鄰","STREET":"公學路","SECT":"五段","MAREA":" ","LANE":"５２７巷","ALLEY":"２弄","HOUSE_NO":"２９號","E_COORD97":163920.81,"N_COORD97":2552589.96,"ADDRESS":"公學路五段５２７巷２弄２９號","OBJECTID":81725},"geometry":{"x":163920.81000000052,"y":2552589.9600000028}},{"attributes":{"ID":81726,"DIS_CODE":0,"TOWNNAME":"安南區","LI":"南興里","LIN":"12鄰","STREET":"公學路","SECT":"五段","MAREA":" ","LANE":"５２７巷","ALLEY":"１２弄","HOUSE_NO":"２４號","E_COORD97":163931.23999999999,"N_COORD97":2552566.96,"ADDRESS":"公學路五段５２７巷１２弄２４號","OBJECTID":81726},"geometry":{"x":163931.24000000022,"y":2552566.9600000028}},{"attributes":{"ID":81727,"DIS_CODE":0,"TOWNNAME":"安南區","LI":"南興里","LIN":"12鄰","STREET":"公學路","SECT":"五段","MAREA":" ","LANE":"５２７巷","ALLEY":"１２弄","HOUSE_NO":"２６號","E_COORD97":163936.88,"N_COORD97":2552568.27,"ADDRESS":"公學路五段５２７巷１２弄２６號","OBJECTID":81727},"geometry":{"x":163936.87999999989,"y":2552568.2699999996}},{"attributes":{"ID":81728,"DIS_CODE":0,"TOWNNAME":"西港區","LI":"檨林里","LIN":"1鄰","STREET":" ","SECT":" ","MAREA":"檨子林","LANE":" ","ALLEY":" ","HOUSE_NO":"１號之２","E_COORD97":171215.91,"N_COORD97":2559262.48,"ADDRESS":"檨子林１號之２","OBJECTID":81728},"geometry":{"x":171215.91000000015,"y":2559262.4800000023}},{"attributes":{"ID":81729,"DIS_CODE":0,"TOWNNAME":"西港區","LI":"檨林里","LIN":"1鄰","STREET":" ","SECT":" ","MAREA":"檨子林","LANE":" ","ALLEY":" ","HOUSE_NO":"１號之６","E_COORD97":171192.64999999999,"N_COORD97":2559204.77,"ADDRESS":"檨子林１號之６","OBJECTID":81729},"geometry":{"x":171192.65000000037,"y":2559204.7700000014}},{"attributes":{"ID":81730,"DIS_CODE":0,"TOWNNAME":"西港區","LI":"檨林里","LIN":"1鄰","STREET":" ","SECT":" ","MAREA":"檨子林","LANE":" ","ALLEY":" ","HOUSE_NO":"１號之７","E_COORD97":171184.60999999999,"N_COORD97":2559206.4700000002,"ADDRESS":"檨子林１號之７","OBJECTID":81730},"geometry":{"x":171184.6100000022,"y":2559206.4700000007}},{"attributes":{"ID":81731,"DIS_CODE":0,"TOWNNAME":"西港區","LI":"檨林里","LIN":"1鄰","STREET":" ","SECT":" ","MAREA":"檨子林","LANE":" ","ALLEY":" ","HOUSE_NO":"１號之９","E_COORD97":171088.39000000001,"N_COORD97":2559387.2400000002,"ADDRESS":"檨子林１號之９","OBJECTID":81731},"geometry":{"x":171088.38999999966,"y":2559387.2400000002}},{"attributes":{"ID":81732,"DIS_CODE":0,"TOWNNAME":"西港區","LI":"檨林里","LIN":"1鄰","STREET":" ","SECT":" ","MAREA":"檨子林","LANE":" ","ALLEY":" ","HOUSE_NO":"１號","E_COORD97":171223.25,"N_COORD97":2559331.5899999999,"ADDRESS":"檨子林１號","OBJECTID":81732},"geometry":{"x":171223.25,"y":2559331.5900000017}},{"attributes":{"ID":81733,"DIS_CODE":0,"TOWNNAME":"西港區","LI":"檨林里","LIN":"1鄰","STREET":" ","SECT":" ","MAREA":"檨子林","LANE":" ","ALLEY":" ","HOUSE_NO":"２號之２","E_COORD97":171228.57999999999,"N_COORD97":2559361.9100000001,"ADDRESS":"檨子林２號之２","OBJECTID":81733},"geometry":{"x":171228.58000000194,"y":2559361.9100000001}},{"attributes":{"ID":81734,"DIS_CODE":0,"TOWNNAME":"西港區","LI":"檨林里","LIN":"1鄰","STREET":" ","SECT":" ","MAREA":"檨子林","LANE":" ","ALLEY":" ","HOUSE_NO":"２號之５","E_COORD97":171321.89999999999,"N_COORD97":2559306.1899999999,"ADDRESS":"檨子林２號之５","OBJECTID":81734},"geometry":{"x":171321.9000000013,"y":2559306.1900000032}},{"attributes":{"ID":81735,"DIS_CODE":0,"TOWNNAME":"西港區","LI":"檨林里","LIN":"1鄰","STREET":" ","SECT":" ","MAREA":"檨子林","LANE":" ","ALLEY":" ","HOUSE_NO":"２號","E_COORD97":171241.60000000001,"N_COORD97":2559349.7200000002,"ADDRESS":"檨子林２號","OBJECTID":81735},"geometry":{"x":171241.60000000149,"y":2559349.7200000007}},{"attributes":{"ID":81736,"DIS_CODE":0,"TOWNNAME":"西港區","LI":"檨林里","LIN":"1鄰","STREET":" ","SECT":" ","MAREA":"檨子林","LANE":" ","ALLEY":" ","HOUSE_NO":"３號之１","E_COORD97":171291.45999999999,"N_COORD97":2559085.2000000002,"ADDRESS":"檨子林３號之１","OBJECTID":81736},"geometry":{"x":171291.45999999996,"y":2559085.1999999993}},{"attributes":{"ID":81737,"DIS_CODE":0,"TOWNNAME":"西港區","LI":"檨林里","LIN":"1鄰","STREET":" ","SECT":" ","MAREA":"檨子林","LANE":" ","ALLEY":" ","HOUSE_NO":"３號之２","E_COORD97":171313.53,"N_COORD97":2559085.29,"ADDRESS":"檨子林３號之２","OBJECTID":81737},"geometry":{"x":171313.53000000026,"y":2559085.290000001}},{"attributes":{"ID":81738,"DIS_CODE":0,"TOWNNAME":"西港區","LI":"檨林里","LIN":"1鄰","STREET":" ","SECT":" ","MAREA":"檨子林","LANE":" ","ALLEY":" ","HOUSE_NO":"３號之３","E_COORD97":171344.16,"N_COORD97":2559122.9500000002,"ADDRESS":"檨子林３號之３","OBJECTID":81738},"geometry":{"x":171344.16000000108,"y":2559122.9499999993}},{"attributes":{"ID":81739,"DIS_CODE":0,"TOWNNAME":"西港區","LI":"檨林里","LIN":"1鄰","STREET":" ","SECT":" ","MAREA":"檨子林","LANE":" ","ALLEY":" ","HOUSE_NO":"３號","E_COORD97":171290.69,"N_COORD97":2559056.46,"ADDRESS":"檨子林３號","OBJECTID":81739},"geometry":{"x":171290.69000000041,"y":2559056.4600000028}},{"attributes":{"ID":81740,"DIS_CODE":0,"TOWNNAME":"西港區","LI":"檨林里","LIN":"1鄰","STREET":" ","SECT":" ","MAREA":"檨子林","LANE":" ","ALLEY":" ","HOUSE_NO":"４號之２","E_COORD97":171320.5,"N_COORD97":2559039.2599999998,"ADDRESS":"檨子林４號之２","OBJECTID":81740},"geometry":{"x":171320.49999999907,"y":2559039.2600000016}},{"attributes":{"ID":81741,"DIS_CODE":0,"TOWNNAME":"西港區","LI":"檨林里","LIN":"1鄰","STREET":" ","SECT":" ","MAREA":"檨子林","LANE":" ","ALLEY":" ","HOUSE_NO":"４號之６","E_COORD97":171323.54000000001,"N_COORD97":2559015.4900000002,"ADDRESS":"檨子林４號之６","OBJECTID":81741},"geometry":{"x":171323.54000000004,"y":2559015.4900000002}},{"attributes":{"ID":81742,"DIS_CODE":0,"TOWNNAME":"西港區","LI":"檨林里","LIN":"1鄰","STREET":" ","SECT":" ","MAREA":"檨子林","LANE":" ","ALLEY":" ","HOUSE_NO":"６號","E_COORD97":171351.75,"N_COORD97":2559010.8199999998,"ADDRESS":"檨子林６號","OBJECTID":81742},"geometry":{"x":171351.75000000093,"y":2559010.8200000003}},{"attributes":{"ID":81743,"DIS_CODE":0,"TOWNNAME":"西港區","LI":"檨林里","LIN":"1鄰","STREET":" ","SECT":" ","MAREA":"檨子林","LANE":" ","ALLEY":" ","HOUSE_NO":"７號","E_COORD97":171359.31,"N_COORD97":2559041.6400000001,"ADDRESS":"檨子林７號","OBJECTID":81743},"geometry":{"x":171359.31000000052,"y":2559041.6400000006}},{"attributes":{"ID":81744,"DIS_CODE":0,"TOWNNAME":"西港區","LI":"檨林里","LIN":"1鄰","STREET":" ","SECT":" ","MAREA":"檨子林","LANE":" ","ALLEY":" ","HOUSE_NO":"８號","E_COORD97":171378.12,"N_COORD97":2559030.7000000002,"ADDRESS":"檨子林８號","OBJECTID":81744},"geometry":{"x":171378.12000000104,"y":2559030.6999999993}},{"attributes":{"ID":81745,"DIS_CODE":0,"TOWNNAME":"西港區","LI":"檨林里","LIN":"1鄰","STREET":" ","SECT":" ","MAREA":"檨子林","LANE":" ","ALLEY":" ","HOUSE_NO":"９號之１","E_COORD97":171417.84,"N_COORD97":2559001,"ADDRESS":"檨子林９號之１","OBJECTID":81745},"geometry":{"x":171417.83999999985,"y":2559001.0000000019}},{"attributes":{"ID":81746,"DIS_CODE":0,"TOWNNAME":"玉井區","LI":"層林里","LIN":"7鄰","STREET":" ","SECT":" ","MAREA":"層林","LANE":" ","ALLEY":" ","HOUSE_NO":"７６號","E_COORD97":191528.07000000001,"N_COORD97":2552765.25,"ADDRESS":"層林７６號","OBJECTID":81746},"geometry":{"x":191528.0700000003,"y":2552765.25}},{"attributes":{"ID":81747,"DIS_CODE":0,"TOWNNAME":"玉井區","LI":"三埔里","LIN":"7鄰","STREET":" ","SECT":" ","MAREA":"三埔","LANE":" ","ALLEY":" ","HOUSE_NO":"８６號之２６","E_COORD97":198382.92000000001,"N_COORD97":2554663.29,"ADDRESS":"三埔８６號之２６","OBJECTID":81747},"geometry":{"x":198382.91999999899,"y":2554663.2899999991}},{"attributes":{"ID":81748,"DIS_CODE":0,"TOWNNAME":"楠西區","LI":"密枝里","LIN":"7鄰","STREET":" ","SECT":" ","MAREA":"密枝","LANE":" ","ALLEY":" ","HOUSE_NO":"６９號之３","E_COORD97":198355.70000000001,"N_COORD97":2568559.2999999998,"ADDRESS":"密枝６９號之３","OBJECTID":81748},"geometry":{"x":198355.70000000019,"y":2568559.3000000045}},{"attributes":{"ID":81749,"DIS_CODE":0,"TOWNNAME":"楠西區","LI":"密枝里","LIN":"7鄰","STREET":" ","SECT":" ","MAREA":"密枝","LANE":" ","ALLEY":" ","HOUSE_NO":"１０２號之２","E_COORD97":198737.98999999999,"N_COORD97":2569055.2999999998,"ADDRESS":"密枝１０２號之２","OBJECTID":81749},"geometry":{"x":198737.99000000115,"y":2569055.3000000026}},{"attributes":{"ID":81750,"DIS_CODE":0,"TOWNNAME":"楠西區","LI":"鹿田里","LIN":"7鄰","STREET":" ","SECT":" ","MAREA":"油車","LANE":" ","ALLEY":" ","HOUSE_NO":"１４號之３０","E_COORD97":197710.67999999999,"N_COORD97":2561889.29,"ADDRESS":"油車１４號之３０","OBJECTID":81750},"geometry":{"x":197710.6799999997,"y":2561889.290000001}},{"attributes":{"ID":81751,"DIS_CODE":0,"TOWNNAME":"安南區","LI":"南興里","LIN":"12鄰","STREET":"公學路","SECT":"五段","MAREA":" ","LANE":"５２７巷","ALLEY":"１２弄","HOUSE_NO":"２８號","E_COORD97":163924.72,"N_COORD97":2552566.54,"ADDRESS":"公學路五段５２７巷１２弄２８號","OBJECTID":81751},"geometry":{"x":163924.72000000067,"y":2552566.5399999972}},{"attributes":{"ID":81752,"DIS_CODE":0,"TOWNNAME":"安南區","LI":"南興里","LIN":"12鄰","STREET":"公學路","SECT":"五段","MAREA":" ","LANE":"５２７巷","ALLEY":"２弄","HOUSE_NO":"２７號","E_COORD97":163931.23999999999,"N_COORD97":2552588.6600000001,"ADDRESS":"公學路五段５２７巷２弄２７號","OBJECTID":81752},"geometry":{"x":163931.24000000022,"y":2552588.660000002}},{"attributes":{"ID":81753,"DIS_CODE":0,"TOWNNAME":"安南區","LI":"南興里","LIN":"12鄰","STREET":"公學路","SECT":"五段","MAREA":" ","LANE":"５２７巷","ALLEY":"１２弄","HOUSE_NO":"３０號","E_COORD97":163917.34,"N_COORD97":2552564.8100000001,"ADDRESS":"公學路五段５２７巷１２弄３０號","OBJECTID":81753},"geometry":{"x":163917.34000000078,"y":2552564.8100000005}},{"attributes":{"ID":81754,"DIS_CODE":0,"TOWNNAME":"安南區","LI":"南興里","LIN":"12鄰","STREET":"公學路","SECT":"五段","MAREA":" ","LANE":"５２７巷","ALLEY":"１６弄","HOUSE_NO":"１０號","E_COORD97":163977.70999999999,"N_COORD97":2552535.7400000002,"ADDRESS":"公學路五段５２７巷１６弄１０號","OBJECTID":81754},"geometry":{"x":163977.71000000089,"y":2552535.7400000002}},{"attributes":{"ID":81755,"DIS_CODE":0,"TOWNNAME":"安南區","LI":"南興里","LIN":"12鄰","STREET":"公學路","SECT":"五段","MAREA":" ","LANE":"５２７巷","ALLEY":"１６弄","HOUSE_NO":"１２號","E_COORD97":163970.76000000001,"N_COORD97":2552534.4100000001,"ADDRESS":"公學路五段５２７巷１６弄１２號","OBJECTID":81755},"geometry":{"x":163970.76000000071,"y":2552534.4100000001}},{"attributes":{"ID":81756,"DIS_CODE":0,"TOWNNAME":"安南區","LI":"南興里","LIN":"12鄰","STREET":"公學路","SECT":"五段","MAREA":" ","LANE":"５２７巷","ALLEY":"１６弄","HOUSE_NO":"１４號","E_COORD97":163963.81,"N_COORD97":2552533.5699999998,"ADDRESS":"公學路五段５２７巷１６弄１４號","OBJECTID":81756},"geometry":{"x":163963.80999999959,"y":2552533.5700000003}},{"attributes":{"ID":81757,"DIS_CODE":0,"TOWNNAME":"安南區","LI":"南興里","LIN":"12鄰","STREET":"公學路","SECT":"五段","MAREA":" ","LANE":"５２７巷","ALLEY":"１６弄","HOUSE_NO":"１６號","E_COORD97":163957.07000000001,"N_COORD97":2552533.4100000001,"ADDRESS":"公學路五段５２７巷１６弄１６號","OBJECTID":81757},"geometry":{"x":163957.07000000123,"y":2552533.4100000001}},{"attributes":{"ID":81758,"DIS_CODE":0,"TOWNNAME":"安南區","LI":"南興里","LIN":"12鄰","STREET":"公學路","SECT":"五段","MAREA":" ","LANE":"５２７巷","ALLEY":"１６弄","HOUSE_NO":"１８號","E_COORD97":163948.39000000001,"N_COORD97":2552532.4100000001,"ADDRESS":"公學路五段５２７巷１６弄１８號","OBJECTID":81758},"geometry":{"x":163948.38999999966,"y":2552532.410000002}},{"attributes":{"ID":81759,"DIS_CODE":0,"TOWNNAME":"安南區","LI":"南興里","LIN":"12鄰","STREET":"公學路","SECT":"五段","MAREA":" ","LANE":"５２７巷","ALLEY":"１６弄","HOUSE_NO":"２０號","E_COORD97":163942.38,"N_COORD97":2552534.0800000001,"ADDRESS":"公學路五段５２７巷１６弄２０號","OBJECTID":81759},"geometry":{"x":163942.38000000082,"y":2552534.0800000019}},{"attributes":{"ID":81760,"DIS_CODE":0,"TOWNNAME":"歸仁區","LI":"歸仁里","LIN":"7鄰","STREET":"中山路","SECT":"一段","MAREA":" ","LANE":" ","ALLEY":" ","HOUSE_NO":"５５８號","E_COORD97":177729.91,"N_COORD97":2540777.1800000002,"ADDRESS":"中山路一段５５８號","OBJECTID":81760},"geometry":{"x":177729.91000000108,"y":2540777.1799999997}},{"attributes":{"ID":81761,"DIS_CODE":0,"TOWNNAME":"北區","LI":"裕民里","LIN":"7鄰","STREET":"金華路","SECT":"五段","MAREA":" ","LANE":" ","ALLEY":" ","HOUSE_NO":"２０號","E_COORD97":167635.82999999999,"N_COORD97":2544735.1000000001,"ADDRESS":"金華路五段２０號","OBJECTID":81761},"geometry":{"x":167635.83000000007,"y":2544735.1000000034}},{"attributes":{"ID":81762,"DIS_CODE":0,"TOWNNAME":"楠西區","LI":"鹿田里","LIN":"7鄰","STREET":" ","SECT":" ","MAREA":"油車","LANE":" ","ALLEY":" ","HOUSE_NO":"１６號之８","E_COORD97":197744.12,"N_COORD97":2561989.2999999998,"ADDRESS":"油車１６號之８","OBJECTID":81762},"geometry":{"x":197744.12000000011,"y":2561989.3000000026}},{"attributes":{"ID":81763,"DIS_CODE":0,"TOWNNAME":"楠西區","LI":"鹿田里","LIN":"7鄰","STREET":" ","SECT":" ","MAREA":"油車","LANE":" ","ALLEY":" ","HOUSE_NO":"１４號之２９","E_COORD97":197711.01000000001,"N_COORD97":2561893.2999999998,"ADDRESS":"油車１４號之２９","OBJECTID":81763},"geometry":{"x":197711.01000000164,"y":2561893.3000000007}},{"attributes":{"ID":81764,"DIS_CODE":0,"TOWNNAME":"西港區","LI":"檨林里","LIN":"1鄰","STREET":" ","SECT":" ","MAREA":"檨子林","LANE":" ","ALLEY":" ","HOUSE_NO":"９號","E_COORD97":171384.57999999999,"N_COORD97":2559059.8599999999,"ADDRESS":"檨子林９號","OBJECTID":81764},"geometry":{"x":171384.58000000194,"y":2559059.8599999994}},{"attributes":{"ID":81765,"DIS_CODE":0,"TOWNNAME":"北門區","LI":"永華里","LIN":"1鄰","STREET":" ","SECT":" ","MAREA":"井子\u25A0","LANE":" ","ALLEY":" ","HOUSE_NO":"１０號","E_COORD97":160017.45999999999,"N_COORD97":2573046.8799999999,"ADDRESS":"井子\u25A0１０號","OBJECTID":81765},"geometry":{"x":160017.46000000089,"y":2573046.8800000008}},{"attributes":{"ID":81766,"DIS_CODE":0,"TOWNNAME":"北區","LI":"裕民里","LIN":"7鄰","STREET":"金華路","SECT":"五段","MAREA":" ","LANE":" ","ALLEY":" ","HOUSE_NO":"２２號","E_COORD97":167636.82000000001,"N_COORD97":2544743.5600000001,"ADDRESS":"金華路五段２２號","OBJECTID":81766},"geometry":{"x":167636.82000000216,"y":2544743.5600000024}},{"attributes":{"ID":81767,"DIS_CODE":0,"TOWNNAME":"北門區","LI":"永華里","LIN":"1鄰","STREET":" ","SECT":" ","MAREA":"井子\u25A0","LANE":" ","ALLEY":" ","HOUSE_NO":"１１號","E_COORD97":160001.51000000001,"N_COORD97":2573045.0800000001,"ADDRESS":"井子\u25A0１１號","OBJECTID":81767},"geometry":{"x":160001.51000000164,"y":2573045.0800000001}},{"attributes":{"ID":81768,"DIS_CODE":0,"TOWNNAME":"北門區","LI":"永華里","LIN":"1鄰","STREET":" ","SECT":" ","MAREA":"井子\u25A0","LANE":" ","ALLEY":" ","HOUSE_NO":"１之１號","E_COORD97":160838.19,"N_COORD97":2572576.02,"ADDRESS":"井子\u25A0１之１號","OBJECTID":81768},"geometry":{"x":160838.19000000041,"y":2572576.0199999996}},{"attributes":{"ID":81769,"DIS_CODE":0,"TOWNNAME":"北門區","LI":"永華里","LIN":"1鄰","STREET":" ","SECT":" ","MAREA":"井子\u25A0","LANE":" ","ALLEY":" ","HOUSE_NO":"１之６號","E_COORD97":160573.5,"N_COORD97":2573422.73,"ADDRESS":"井子\u25A0１之６號","OBJECTID":81769},"geometry":{"x":160573.50000000093,"y":2573422.7300000023}},{"attributes":{"ID":81770,"DIS_CODE":0,"TOWNNAME":"北門區","LI":"永華里","LIN":"1鄰","STREET":" ","SECT":" ","MAREA":"井子\u25A0","LANE":" ","ALLEY":" ","HOUSE_NO":"１號","E_COORD97":160297.57000000001,"N_COORD97":2573109.0899999999,"ADDRESS":"井子\u25A0１號","OBJECTID":81770},"geometry":{"x":160297.5700000003,"y":2573109.0899999999}},{"attributes":{"ID":81771,"DIS_CODE":0,"TOWNNAME":"北區","LI":"裕民里","LIN":"7鄰","STREET":"金華路","SECT":"五段","MAREA":" ","LANE":" ","ALLEY":" ","HOUSE_NO":"２４號","E_COORD97":167639.23000000001,"N_COORD97":2544751.7799999998,"ADDRESS":"金華路五段２４號","OBJECTID":81771},"geometry":{"x":167639.23000000231,"y":2544751.7800000012}},{"attributes":{"ID":81772,"DIS_CODE":0,"TOWNNAME":"安南區","LI":"南興里","LIN":"12鄰","STREET":"公學路","SECT":"五段","MAREA":" ","LANE":"５２７巷","ALLEY":"１６弄","HOUSE_NO":"２２號","E_COORD97":163935.04000000001,"N_COORD97":2552532.75,"ADDRESS":"公學路五段５２７巷１６弄２２號","OBJECTID":81772},"geometry":{"x":163935.04000000097,"y":2552532.7500000019}},{"attributes":{"ID":81773,"DIS_CODE":0,"TOWNNAME":"學甲區","LI":"三慶里","LIN":"7鄰","STREET":" ","SECT":" ","MAREA":"頂洲","LANE":" ","ALLEY":" ","HOUSE_NO":"８８號","E_COORD97":168526.23999999999,"N_COORD97":2576302.7599999998,"ADDRESS":"頂洲８８號","OBJECTID":81773},"geometry":{"x":168526.24000000115,"y":2576302.7600000016}},{"attributes":{"ID":81774,"DIS_CODE":0,"TOWNNAME":"安南區","LI":"南興里","LIN":"12鄰","STREET":"公學路","SECT":"五段","MAREA":" ","LANE":"５２７巷","ALLEY":"１６弄","HOUSE_NO":"２４號","E_COORD97":163927.35999999999,"N_COORD97":2552532.0800000001,"ADDRESS":"公學路五段５２７巷１６弄２４號","OBJECTID":81774},"geometry":{"x":163927.3599999994,"y":2552532.0800000001}},{"attributes":{"ID":81775,"DIS_CODE":0,"TOWNNAME":"學甲區","LI":"三慶里","LIN":"7鄰","STREET":" ","SECT":" ","MAREA":"頂洲","LANE":" ","ALLEY":" ","HOUSE_NO":"９０號","E_COORD97":168501.81,"N_COORD97":2576249.5,"ADDRESS":"頂洲９０號","OBJECTID":81775},"geometry":{"x":168501.80999999959,"y":2576249.5}},{"attributes":{"ID":81776,"DIS_CODE":0,"TOWNNAME":"北門區","LI":"永華里","LIN":"1鄰","STREET":" ","SECT":" ","MAREA":"井子\u25A0","LANE":" ","ALLEY":" ","HOUSE_NO":"２號","E_COORD97":160241.44,"N_COORD97":2573150.5,"ADDRESS":"井子\u25A0２號","OBJECTID":81776},"geometry":{"x":160241.44000000041,"y":2573150.5}},{"attributes":{"ID":81777,"DIS_CODE":0,"TOWNNAME":"北門區","LI":"永華里","LIN":"1鄰","STREET":" ","SECT":" ","MAREA":"井子\u25A0","LANE":" ","ALLEY":" ","HOUSE_NO":"３號","E_COORD97":160221.75,"N_COORD97":2573151.3700000001,"ADDRESS":"井子\u25A0３號","OBJECTID":81777},"geometry":{"x":160221.75,"y":2573151.370000001}},{"attributes":{"ID":81778,"DIS_CODE":0,"TOWNNAME":"北門區","LI":"永華里","LIN":"1鄰","STREET":" ","SECT":" ","MAREA":"井子\u25A0","LANE":" ","ALLEY":" ","HOUSE_NO":"４號之１","E_COORD97":160188.85999999999,"N_COORD97":2573149.5,"ADDRESS":"井子\u25A0４號之１","OBJECTID":81778},"geometry":{"x":160188.86000000034,"y":2573149.5}},{"attributes":{"ID":81779,"DIS_CODE":0,"TOWNNAME":"安南區","LI":"南興里","LIN":"12鄰","STREET":"公學路","SECT":"五段","MAREA":" ","LANE":"５２７巷","ALLEY":"１６弄","HOUSE_NO":"２６號","E_COORD97":163920.67999999999,"N_COORD97":2552531.75,"ADDRESS":"公學路五段５２７巷１６弄２６號","OBJECTID":81779},"geometry":{"x":163920.6799999997,"y":2552531.75}},{"attributes":{"ID":81780,"DIS_CODE":0,"TOWNNAME":"安南區","LI":"南興里","LIN":"12鄰","STREET":"公學路","SECT":"五段","MAREA":" ","LANE":"５２７巷","ALLEY":"１６弄","HOUSE_NO":"２號","E_COORD97":164009.41,"N_COORD97":2552539.21,"ADDRESS":"公學路五段５２７巷１６弄２號","OBJECTID":81780},"geometry":{"x":164009.41000000015,"y":2552539.2100000009}},{"attributes":{"ID":81781,"DIS_CODE":0,"TOWNNAME":"安南區","LI":"南興里","LIN":"12鄰","STREET":"公學路","SECT":"五段","MAREA":" ","LANE":"５２７巷","ALLEY":"１６弄","HOUSE_NO":"４號","E_COORD97":164000.29000000001,"N_COORD97":2552537.48,"ADDRESS":"公學路五段５２７巷１６弄４號","OBJECTID":81781},"geometry":{"x":164000.29000000004,"y":2552537.4800000004}},{"attributes":{"ID":81782,"DIS_CODE":0,"TOWNNAME":"安南區","LI":"南興里","LIN":"12鄰","STREET":"公學路","SECT":"五段","MAREA":" ","LANE":"５２７巷","ALLEY":"１６弄","HOUSE_NO":"７號","E_COORD97":163964.62,"N_COORD97":2552500.9199999999,"ADDRESS":"公學路五段５２７巷１６弄７號","OBJECTID":81782},"geometry":{"x":163964.62000000104,"y":2552500.9200000037}},{"attributes":{"ID":81783,"DIS_CODE":0,"TOWNNAME":"安南區","LI":"南興里","LIN":"12鄰","STREET":"公學路","SECT":"五段","MAREA":" ","LANE":"５２７巷","ALLEY":"１６弄","HOUSE_NO":"９號","E_COORD97":163956.16,"N_COORD97":2552500.8399999999,"ADDRESS":"公學路五段５２７巷１６弄９號","OBJECTID":81783},"geometry":{"x":163956.16000000108,"y":2552500.8399999999}},{"attributes":{"ID":81784,"DIS_CODE":0,"TOWNNAME":"安南區","LI":"淵中里","LIN":"12鄰","STREET":"安中路","SECT":"四段","MAREA":" ","LANE":"４巷","ALLEY":"４８弄","HOUSE_NO":"１０９號","E_COORD97":165285.42999999999,"N_COORD97":2550314.8399999999,"ADDRESS":"安中路四段４巷４８弄１０９號","OBJECTID":81784},"geometry":{"x":165285.4299999997,"y":2550314.8400000017}},{"attributes":{"ID":81785,"DIS_CODE":0,"TOWNNAME":"永康區","LI":"尚頂里","LIN":"12鄰","STREET":"正南一街","SECT":" ","MAREA":" ","LANE":"９２巷","ALLEY":"３７弄","HOUSE_NO":"２號","E_COORD97":171101.76999999999,"N_COORD97":2547406.5699999998,"ADDRESS":"正南一街９２巷３７弄２號","OBJECTID":81785},"geometry":{"x":171101.77000000048,"y":2547406.5700000003}},{"attributes":{"ID":81786,"DIS_CODE":0,"TOWNNAME":"永康區","LI":"正強里","LIN":"12鄰","STREET":"正強街","SECT":" ","MAREA":" ","LANE":"１２２巷","ALLEY":"１３弄","HOUSE_NO":"１６號","E_COORD97":173400.66,"N_COORD97":2547465.0800000001,"ADDRESS":"正強街１２２巷１３弄１６號","OBJECTID":81786},"geometry":{"x":173400.66000000015,"y":2547465.0800000038}},{"attributes":{"ID":81787,"DIS_CODE":0,"TOWNNAME":"永康區","LI":"正強里","LIN":"12鄰","STREET":"正強街","SECT":" ","MAREA":" ","LANE":"１２２巷","ALLEY":"１３弄","HOUSE_NO":"１０號","E_COORD97":173401.75,"N_COORD97":2547457.0699999998,"ADDRESS":"正強街１２２巷１３弄１０號","OBJECTID":81787},"geometry":{"x":173401.75,"y":2547457.0700000003}},{"attributes":{"ID":81788,"DIS_CODE":0,"TOWNNAME":"新營區","LI":"民權里","LIN":"7鄰","STREET":"文化街","SECT":" ","MAREA":" ","LANE":" ","ALLEY":" ","HOUSE_NO":"１８號","E_COORD97":179811.32999999999,"N_COORD97":2578076.3599999999,"ADDRESS":"文化街１８號","OBJECTID":81788},"geometry":{"x":179811.33000000194,"y":2578076.3599999994}},{"attributes":{"ID":81789,"DIS_CODE":0,"TOWNNAME":"安平區","LI":"華平里","LIN":"7鄰","STREET":"育平九街","SECT":" ","MAREA":" ","LANE":" ","ALLEY":" ","HOUSE_NO":"８號","E_COORD97":165451.94,"N_COORD97":2543948.4500000002,"ADDRESS":"育平九街８號","OBJECTID":81789},"geometry":{"x":165451.94000000041,"y":2543948.4499999993}},{"attributes":{"ID":81790,"DIS_CODE":0,"TOWNNAME":"安平區","LI":"華平里","LIN":"7鄰","STREET":"育平九街","SECT":" ","MAREA":" ","LANE":" ","ALLEY":" ","HOUSE_NO":"１２號","E_COORD97":165442.75,"N_COORD97":2543950.3500000001,"ADDRESS":"育平九街１２號","OBJECTID":81790},"geometry":{"x":165442.75,"y":2543950.3500000034}},{"attributes":{"ID":81791,"DIS_CODE":0,"TOWNNAME":"北門區","LI":"永華里","LIN":"1鄰","STREET":" ","SECT":" ","MAREA":"井子\u25A0","LANE":" ","ALLEY":" ","HOUSE_NO":"８號","E_COORD97":160172.12,"N_COORD97":2573148.6899999999,"ADDRESS":"井子\u25A0８號","OBJECTID":81791},"geometry":{"x":160172.12000000011,"y":2573148.6899999995}},{"attributes":{"ID":81792,"DIS_CODE":0,"TOWNNAME":"北門區","LI":"永華里","LIN":"1鄰","STREET":" ","SECT":" ","MAREA":"井子\u25A0","LANE":" ","ALLEY":" ","HOUSE_NO":"９號之１","E_COORD97":160460.32000000001,"N_COORD97":2573592.5800000001,"ADDRESS":"井子\u25A0９號之１","OBJECTID":81792},"geometry":{"x":160460.3200000003,"y":2573592.5800000019}},{"attributes":{"ID":81793,"DIS_CODE":0,"TOWNNAME":"北門區","LI":"永華里","LIN":"1鄰","STREET":" ","SECT":" ","MAREA":"井子\u25A0","LANE":" ","ALLEY":" ","HOUSE_NO":"９號之２","E_COORD97":160486.12,"N_COORD97":2573600.4900000002,"ADDRESS":"井子\u25A0９號之２","OBJECTID":81793},"geometry":{"x":160486.12000000104,"y":2573600.4900000021}},{"attributes":{"ID":81794,"DIS_CODE":0,"TOWNNAME":"北門區","LI":"玉港里","LIN":"1鄰","STREET":" ","SECT":" ","MAREA":"灰\u25A0港","LANE":" ","ALLEY":" ","HOUSE_NO":"１０號","E_COORD97":161883.82000000001,"N_COORD97":2573745.9700000002,"ADDRESS":"灰\u25A0港１０號","OBJECTID":81794},"geometry":{"x":161883.82000000123,"y":2573745.9700000025}},{"attributes":{"ID":81795,"DIS_CODE":0,"TOWNNAME":"安平區","LI":"華平里","LIN":"7鄰","STREET":"育平九街","SECT":" ","MAREA":" ","LANE":" ","ALLEY":" ","HOUSE_NO":"１４號","E_COORD97":165438.81,"N_COORD97":2543950.7799999998,"ADDRESS":"育平九街１４號","OBJECTID":81795},"geometry":{"x":165438.80999999959,"y":2543950.7800000012}},{"attributes":{"ID":81796,"DIS_CODE":0,"TOWNNAME":"安平區","LI":"華平里","LIN":"7鄰","STREET":"育平九街","SECT":" ","MAREA":" ","LANE":" ","ALLEY":" ","HOUSE_NO":"１６號","E_COORD97":165434.72,"N_COORD97":2543951.7999999998,"ADDRESS":"育平九街１６號","OBJECTID":81796},"geometry":{"x":165434.71999999881,"y":2543951.8000000045}},{"attributes":{"ID":81797,"DIS_CODE":0,"TOWNNAME":"安平區","LI":"華平里","LIN":"7鄰","STREET":"育平九街","SECT":" ","MAREA":" ","LANE":" ","ALLEY":" ","HOUSE_NO":"１８號","E_COORD97":165430.64000000001,"N_COORD97":2543952.6800000002,"ADDRESS":"育平九街１８號","OBJECTID":81797},"geometry":{"x":165430.6400000006,"y":2543952.6800000016}},{"attributes":{"ID":81798,"DIS_CODE":0,"TOWNNAME":"安平區","LI":"華平里","LIN":"7鄰","STREET":"育平九街","SECT":" ","MAREA":" ","LANE":" ","ALLEY":" ","HOUSE_NO":"２０號","E_COORD97":165427.42999999999,"N_COORD97":2543953.5499999998,"ADDRESS":"育平九街２０號","OBJECTID":81798},"geometry":{"x":165427.4299999997,"y":2543953.5500000045}},{"attributes":{"ID":81799,"DIS_CODE":0,"TOWNNAME":"南區","LI":"南都里","LIN":"7鄰","STREET":"鯤鯓路","SECT":" ","MAREA":" ","LANE":" ","ALLEY":" ","HOUSE_NO":"６號之４","E_COORD97":166497.19,"N_COORD97":2539995.4500000002,"ADDRESS":"鯤鯓路６號之４","OBJECTID":81799},"geometry":{"x":166497.19000000134,"y":2539995.4499999993}},{"attributes":{"ID":81800,"DIS_CODE":0,"TOWNNAME":"南區","LI":"南都里","LIN":"7鄰","STREET":"濱南路","SECT":" ","MAREA":" ","LANE":" ","ALLEY":" ","HOUSE_NO":"１１１號之１","E_COORD97":166347.04000000001,"N_COORD97":2540035.0499999998,"ADDRESS":"濱南路１１１號之１","OBJECTID":81800},"geometry":{"x":166347.04000000097,"y":2540035.0500000026}}]}