{"displayFieldName":"TOWNNAME","fieldAliases":{"ID":"ID","DIS_CODE":"DIS_CODE","TOWNNAME":"TOWNNAME","LI":"LI","LIN":"LIN","STREET":"STREET","SECT":"SECT","MAREA":"MAREA","LANE":"LANE","ALLEY":"ALLEY","HOUSE_NO":"HOUSE_NO","E_COORD97":"E_COORD97","N_COORD97":"N_COORD97","ADDRESS":"ADDRESS","OBJECTID":"OBJECTID"},"geometryType":"esriGeometryPoint","spatialReference":{"wkid":102443,"latestWkid":3826},"fields":[{"name":"ID","type":"esriFieldTypeDouble","alias":"ID"},{"name":"DIS_CODE","type":"esriFieldTypeInteger","alias":"DIS_CODE"},{"name":"TOWNNAME","type":"esriFieldTypeString","alias":"TOWNNAME","length":8},{"name":"LI","type":"esriFieldTypeString","alias":"LI","length":8},{"name":"LIN","type":"esriFieldTypeString","alias":"LIN","length":12},{"name":"STREET","type":"esriFieldTypeString","alias":"STREET","length":20},{"name":"SECT","type":"esriFieldTypeString","alias":"SECT","length":8},{"name":"MAREA","type":"esriFieldTypeString","alias":"MAREA","length":12},{"name":"LANE","type":"esriFieldTypeString","alias":"LANE","length":10},{"name":"ALLEY","type":"esriFieldTypeString","alias":"ALLEY","length":10},{"name":"HOUSE_NO","type":"esriFieldTypeString","alias":"HOUSE_NO","length":20},{"name":"E_COORD97","type":"esriFieldTypeDouble","alias":"E_COORD97"},{"name":"N_COORD97","type":"esriFieldTypeDouble","alias":"N_COORD97"},{"name":"ADDRESS","type":"esriFieldTypeString","alias":"ADDRESS","length":50},{"name":"OBJECTID","type":"esriFieldTypeOID","alias":"OBJECTID"}],"features":[{"attributes":{"ID":54201,"DIS_CODE":0,"TOWNNAME":"新化區","LI":"唪口里","LIN":"8鄰","STREET":" ","SECT":" ","MAREA":"唪口","LANE":" ","ALLEY":" ","HOUSE_NO":"１３１號之１","E_COORD97":177921.57999999999,"N_COORD97":2549047.2599999998,"ADDRESS":"唪口１３１號之１","OBJECTID":54201},"geometry":{"x":177921.58000000101,"y":2549047.2600000016}},{"attributes":{"ID":54202,"DIS_CODE":0,"TOWNNAME":"新化區","LI":"\u25A0拔里","LIN":"8鄰","STREET":" ","SECT":" ","MAREA":"\u25A0拔林","LANE":" ","ALLEY":" ","HOUSE_NO":"３２０號","E_COORD97":183459.12,"N_COORD97":2551874.25,"ADDRESS":"\u25A0拔林３２０號","OBJECTID":54202},"geometry":{"x":183459.12000000197,"y":2551874.25}},{"attributes":{"ID":54203,"DIS_CODE":0,"TOWNNAME":"新化區","LI":"唪口里","LIN":"8鄰","STREET":" ","SECT":" ","MAREA":"唪口","LANE":" ","ALLEY":" ","HOUSE_NO":"１２９號","E_COORD97":177921.75,"N_COORD97":2549005.25,"ADDRESS":"唪口１２９號","OBJECTID":54203},"geometry":{"x":177921.75000000186,"y":2549005.25}},{"attributes":{"ID":54204,"DIS_CODE":0,"TOWNNAME":"新化區","LI":"唪口里","LIN":"8鄰","STREET":" ","SECT":" ","MAREA":"唪口","LANE":" ","ALLEY":" ","HOUSE_NO":"９２號之２","E_COORD97":177949.25,"N_COORD97":2549143.2599999998,"ADDRESS":"唪口９２號之２","OBJECTID":54204},"geometry":{"x":177949.25000000093,"y":2549143.2600000016}},{"attributes":{"ID":54205,"DIS_CODE":0,"TOWNNAME":"北門區","LI":"鯤江里","LIN":"1鄰","STREET":" ","SECT":" ","MAREA":"蚵寮","LANE":" ","ALLEY":" ","HOUSE_NO":"７６２號","E_COORD97":161653.26000000001,"N_COORD97":2576215.3500000001,"ADDRESS":"蚵寮７６２號","OBJECTID":54205},"geometry":{"x":161653.26000000071,"y":2576215.3499999996}},{"attributes":{"ID":54206,"DIS_CODE":0,"TOWNNAME":"北門區","LI":"鯤江里","LIN":"1鄰","STREET":" ","SECT":" ","MAREA":"蚵寮","LANE":" ","ALLEY":" ","HOUSE_NO":"７６３號","E_COORD97":161670.85999999999,"N_COORD97":2576236.1699999999,"ADDRESS":"蚵寮７６３號","OBJECTID":54206},"geometry":{"x":161670.86000000034,"y":2576236.1700000018}},{"attributes":{"ID":54207,"DIS_CODE":0,"TOWNNAME":"南區","LI":"竹溪里","LIN":"1鄰","STREET":"健康路","SECT":"一段","MAREA":" ","LANE":"１１３巷","ALLEY":"６５弄","HOUSE_NO":"２２號六樓之２","E_COORD97":168959.48000000001,"N_COORD97":2542070.3999999999,"ADDRESS":"健康路一段１１３巷６５弄２２號六樓之２","OBJECTID":54207},"geometry":{"x":168959.48000000045,"y":2542070.4000000022}},{"attributes":{"ID":54208,"DIS_CODE":0,"TOWNNAME":"南區","LI":"竹溪里","LIN":"1鄰","STREET":"健康路","SECT":"一段","MAREA":" ","LANE":"１１３巷","ALLEY":"６５弄","HOUSE_NO":"２２號七樓之１","E_COORD97":168959.48000000001,"N_COORD97":2542070.3999999999,"ADDRESS":"健康路一段１１３巷６５弄２２號七樓之１","OBJECTID":54208},"geometry":{"x":168959.48000000045,"y":2542070.4000000022}},{"attributes":{"ID":54209,"DIS_CODE":0,"TOWNNAME":"北門區","LI":"鯤江里","LIN":"1鄰","STREET":" ","SECT":" ","MAREA":"蚵寮","LANE":" ","ALLEY":" ","HOUSE_NO":"７６４號","E_COORD97":161651.63,"N_COORD97":2576219.2200000002,"ADDRESS":"蚵寮７６４號","OBJECTID":54209},"geometry":{"x":161651.62999999989,"y":2576219.2200000025}},{"attributes":{"ID":54210,"DIS_CODE":0,"TOWNNAME":"佳里區","LI":"東寧里","LIN":"8鄰","STREET":"中山路","SECT":" ","MAREA":" ","LANE":"３９０巷","ALLEY":" ","HOUSE_NO":"１號","E_COORD97":165736.98999999999,"N_COORD97":2562556.02,"ADDRESS":"中山路３９０巷１號","OBJECTID":54210},"geometry":{"x":165736.99000000209,"y":2562556.0200000014}},{"attributes":{"ID":54211,"DIS_CODE":0,"TOWNNAME":"北門區","LI":"鯤江里","LIN":"1鄰","STREET":" ","SECT":" ","MAREA":"蚵寮","LANE":" ","ALLEY":" ","HOUSE_NO":"７６５號","E_COORD97":161649.04999999999,"N_COORD97":2576225.02,"ADDRESS":"蚵寮７６５號","OBJECTID":54211},"geometry":{"x":161649.05000000168,"y":2576225.0199999996}},{"attributes":{"ID":54212,"DIS_CODE":0,"TOWNNAME":"佳里區","LI":"建南里","LIN":"8鄰","STREET":"中山路","SECT":" ","MAREA":" ","LANE":" ","ALLEY":" ","HOUSE_NO":"１９５號","E_COORD97":165727.32000000001,"N_COORD97":2562095.3999999999,"ADDRESS":"中山路１９５號","OBJECTID":54212},"geometry":{"x":165727.3200000003,"y":2562095.4000000004}},{"attributes":{"ID":54213,"DIS_CODE":0,"TOWNNAME":"北門區","LI":"鯤江里","LIN":"1鄰","STREET":" ","SECT":" ","MAREA":"蚵寮","LANE":" ","ALLEY":" ","HOUSE_NO":"７６６號","E_COORD97":161662.56,"N_COORD97":2576232.8700000001,"ADDRESS":"蚵寮７６６號","OBJECTID":54213},"geometry":{"x":161662.56000000052,"y":2576232.8700000029}},{"attributes":{"ID":54214,"DIS_CODE":0,"TOWNNAME":"南區","LI":"竹溪里","LIN":"1鄰","STREET":"健康路","SECT":"一段","MAREA":" ","LANE":"１１３巷","ALLEY":"６５弄","HOUSE_NO":"２２號七樓之２","E_COORD97":168959.48000000001,"N_COORD97":2542070.3999999999,"ADDRESS":"健康路一段１１３巷６５弄２２號七樓之２","OBJECTID":54214},"geometry":{"x":168959.48000000045,"y":2542070.4000000022}},{"attributes":{"ID":54215,"DIS_CODE":0,"TOWNNAME":"新化區","LI":"唪口里","LIN":"8鄰","STREET":" ","SECT":" ","MAREA":"唪口","LANE":" ","ALLEY":" ","HOUSE_NO":"９６號之３","E_COORD97":177965.44,"N_COORD97":2549063.2599999998,"ADDRESS":"唪口９６號之３","OBJECTID":54215},"geometry":{"x":177965.44000000134,"y":2549063.2599999998}},{"attributes":{"ID":54216,"DIS_CODE":0,"TOWNNAME":"新化區","LI":"唪口里","LIN":"8鄰","STREET":" ","SECT":" ","MAREA":"唪口","LANE":" ","ALLEY":" ","HOUSE_NO":"９４號之１","E_COORD97":177947.13,"N_COORD97":2549102.2599999998,"ADDRESS":"唪口９４號之１","OBJECTID":54216},"geometry":{"x":177947.12999999989,"y":2549102.2600000016}},{"attributes":{"ID":54217,"DIS_CODE":0,"TOWNNAME":"新化區","LI":"山\u25A0里","LIN":"8鄰","STREET":" ","SECT":" ","MAREA":"頂山\u25A0","LANE":" ","ALLEY":" ","HOUSE_NO":"１６５號","E_COORD97":179817.42999999999,"N_COORD97":2546735.25,"ADDRESS":"頂山\u25A0１６５號","OBJECTID":54217},"geometry":{"x":179817.43000000063,"y":2546735.2500000019}},{"attributes":{"ID":54218,"DIS_CODE":0,"TOWNNAME":"新化區","LI":"豐榮里","LIN":"8鄰","STREET":" ","SECT":" ","MAREA":"洋子","LANE":" ","ALLEY":" ","HOUSE_NO":"１６號","E_COORD97":178170.23000000001,"N_COORD97":2548305.25,"ADDRESS":"洋子１６號","OBJECTID":54218},"geometry":{"x":178170.23000000138,"y":2548305.2500000019}},{"attributes":{"ID":54219,"DIS_CODE":0,"TOWNNAME":"新化區","LI":"唪口里","LIN":"8鄰","STREET":" ","SECT":" ","MAREA":"唪口","LANE":" ","ALLEY":" ","HOUSE_NO":"９２號","E_COORD97":177967.10000000001,"N_COORD97":2549138.25,"ADDRESS":"唪口９２號","OBJECTID":54219},"geometry":{"x":177967.10000000056,"y":2549138.25}},{"attributes":{"ID":54220,"DIS_CODE":0,"TOWNNAME":"北門區","LI":"鯤江里","LIN":"1鄰","STREET":" ","SECT":" ","MAREA":"蚵寮","LANE":" ","ALLEY":" ","HOUSE_NO":"７６７號","E_COORD97":161647.25,"N_COORD97":2576232.0299999998,"ADDRESS":"蚵寮７６７號","OBJECTID":54220},"geometry":{"x":161647.25,"y":2576232.0300000031}},{"attributes":{"ID":54221,"DIS_CODE":0,"TOWNNAME":"永康區","LI":"勝利里","LIN":"1鄰","STREET":"勝利街","SECT":" ","MAREA":" ","LANE":"１巷","ALLEY":"１１弄","HOUSE_NO":"２７號","E_COORD97":171071.04000000001,"N_COORD97":2544655.7599999998,"ADDRESS":"勝利街１巷１１弄２７號","OBJECTID":54221},"geometry":{"x":171071.03999999911,"y":2544655.7599999998}},{"attributes":{"ID":54222,"DIS_CODE":0,"TOWNNAME":"永康區","LI":"勝利里","LIN":"1鄰","STREET":"勝利街","SECT":" ","MAREA":" ","LANE":"１巷","ALLEY":"１１弄","HOUSE_NO":"３０號","E_COORD97":171095.47,"N_COORD97":2544653.7599999998,"ADDRESS":"勝利街１巷１１弄３０號","OBJECTID":54222},"geometry":{"x":171095.47000000067,"y":2544653.7600000016}},{"attributes":{"ID":54223,"DIS_CODE":0,"TOWNNAME":"永康區","LI":"勝利里","LIN":"1鄰","STREET":"勝利街","SECT":" ","MAREA":" ","LANE":"１巷","ALLEY":"１１弄","HOUSE_NO":"２９號","E_COORD97":171068.13,"N_COORD97":2544658.5099999998,"ADDRESS":"勝利街１巷１１弄２９號","OBJECTID":54223},"geometry":{"x":171068.12999999989,"y":2544658.5100000016}},{"attributes":{"ID":54224,"DIS_CODE":0,"TOWNNAME":"北門區","LI":"鯤江里","LIN":"1鄰","STREET":" ","SECT":" ","MAREA":"蚵寮","LANE":" ","ALLEY":" ","HOUSE_NO":"７６９號","E_COORD97":161644.73000000001,"N_COORD97":2576237.7799999998,"ADDRESS":"蚵寮７６９號","OBJECTID":54224},"geometry":{"x":161644.73000000045,"y":2576237.7800000012}},{"attributes":{"ID":54225,"DIS_CODE":0,"TOWNNAME":"永康區","LI":"勝利里","LIN":"1鄰","STREET":"勝利街","SECT":" ","MAREA":" ","LANE":"１巷","ALLEY":"１１弄","HOUSE_NO":"４２號","E_COORD97":171075.78,"N_COORD97":2544667.0099999998,"ADDRESS":"勝利街１巷１１弄４２號","OBJECTID":54225},"geometry":{"x":171075.78000000026,"y":2544667.0099999998}},{"attributes":{"ID":54226,"DIS_CODE":0,"TOWNNAME":"北門區","LI":"鯤江里","LIN":"1鄰","STREET":" ","SECT":" ","MAREA":"蚵寮","LANE":" ","ALLEY":" ","HOUSE_NO":"７７１號","E_COORD97":161642.56,"N_COORD97":2576247.6000000001,"ADDRESS":"蚵寮７７１號","OBJECTID":54226},"geometry":{"x":161642.56000000052,"y":2576247.5999999996}},{"attributes":{"ID":54227,"DIS_CODE":0,"TOWNNAME":"永康區","LI":"勝利里","LIN":"1鄰","STREET":"勝利街","SECT":" ","MAREA":" ","LANE":"１巷","ALLEY":"１１弄","HOUSE_NO":"２８號","E_COORD97":171098.67999999999,"N_COORD97":2544650.7599999998,"ADDRESS":"勝利街１巷１１弄２８號","OBJECTID":54227},"geometry":{"x":171098.68000000156,"y":2544650.7600000016}},{"attributes":{"ID":54228,"DIS_CODE":0,"TOWNNAME":"北門區","LI":"鯤江里","LIN":"1鄰","STREET":" ","SECT":" ","MAREA":"蚵寮","LANE":" ","ALLEY":" ","HOUSE_NO":"７７２號","E_COORD97":161647.98999999999,"N_COORD97":2576251.8399999999,"ADDRESS":"蚵寮７７２號","OBJECTID":54228},"geometry":{"x":161647.99000000022,"y":2576251.8400000017}},{"attributes":{"ID":54229,"DIS_CODE":0,"TOWNNAME":"北門區","LI":"鯤江里","LIN":"1鄰","STREET":" ","SECT":" ","MAREA":"蚵寮","LANE":" ","ALLEY":" ","HOUSE_NO":"７７３號","E_COORD97":161652.14000000001,"N_COORD97":2576253.29,"ADDRESS":"蚵寮７７３號","OBJECTID":54229},"geometry":{"x":161652.1400000006,"y":2576253.2899999991}},{"attributes":{"ID":54230,"DIS_CODE":0,"TOWNNAME":"北門區","LI":"鯤江里","LIN":"1鄰","STREET":" ","SECT":" ","MAREA":"蚵寮","LANE":" ","ALLEY":" ","HOUSE_NO":"７７４號","E_COORD97":161655.60999999999,"N_COORD97":2576254.6499999999,"ADDRESS":"蚵寮７７４號","OBJECTID":54230},"geometry":{"x":161655.61000000034,"y":2576254.6500000004}},{"attributes":{"ID":54231,"DIS_CODE":0,"TOWNNAME":"永康區","LI":"勝利里","LIN":"1鄰","STREET":"勝利街","SECT":" ","MAREA":" ","LANE":"１巷","ALLEY":"１１弄","HOUSE_NO":"２３號","E_COORD97":171075.14999999999,"N_COORD97":2544648.5099999998,"ADDRESS":"勝利街１巷１１弄２３號","OBJECTID":54231},"geometry":{"x":171075.15000000037,"y":2544648.5100000016}},{"attributes":{"ID":54232,"DIS_CODE":0,"TOWNNAME":"永康區","LI":"勝利里","LIN":"1鄰","STREET":"勝利街","SECT":" ","MAREA":" ","LANE":"１巷","ALLEY":"１１弄","HOUSE_NO":"１７號","E_COORD97":171084.01000000001,"N_COORD97":2544640,"ADDRESS":"勝利街１巷１１弄１７號","OBJECTID":54232},"geometry":{"x":171084.00999999978,"y":2544640}},{"attributes":{"ID":54233,"DIS_CODE":0,"TOWNNAME":"永康區","LI":"勝利里","LIN":"1鄰","STREET":"勝利街","SECT":" ","MAREA":" ","LANE":"１巷","ALLEY":"１１弄","HOUSE_NO":"３８號","E_COORD97":171083.70000000001,"N_COORD97":2544663.5099999998,"ADDRESS":"勝利街１巷１１弄３８號","OBJECTID":54233},"geometry":{"x":171083.69999999925,"y":2544663.5099999998}},{"attributes":{"ID":54234,"DIS_CODE":0,"TOWNNAME":"永康區","LI":"勝利里","LIN":"1鄰","STREET":"勝利街","SECT":" ","MAREA":" ","LANE":"１巷","ALLEY":"１１弄","HOUSE_NO":"３６號","E_COORD97":171086.91,"N_COORD97":2544661.2599999998,"ADDRESS":"勝利街１巷１１弄３６號","OBJECTID":54234},"geometry":{"x":171086.91000000015,"y":2544661.2600000016}},{"attributes":{"ID":54235,"DIS_CODE":0,"TOWNNAME":"永康區","LI":"勝利里","LIN":"1鄰","STREET":"勝利街","SECT":" ","MAREA":" ","LANE":"１巷","ALLEY":"１１弄","HOUSE_NO":"２之１號","E_COORD97":171113.37,"N_COORD97":2544603.54,"ADDRESS":"勝利街１巷１１弄２之１號","OBJECTID":54235},"geometry":{"x":171113.37000000104,"y":2544603.540000001}},{"attributes":{"ID":54236,"DIS_CODE":0,"TOWNNAME":"東區","LI":"崇德里","LIN":"1鄰","STREET":"崇善路","SECT":" ","MAREA":" ","LANE":"２３２巷","ALLEY":"１７弄","HOUSE_NO":"３５號","E_COORD97":170805.75,"N_COORD97":2541921.96,"ADDRESS":"崇善路２３２巷１７弄３５號","OBJECTID":54236},"geometry":{"x":170805.75000000093,"y":2541921.9600000009}},{"attributes":{"ID":54237,"DIS_CODE":0,"TOWNNAME":"北門區","LI":"鯤江里","LIN":"1鄰","STREET":" ","SECT":" ","MAREA":"蚵寮","LANE":" ","ALLEY":" ","HOUSE_NO":"７７５號","E_COORD97":161659.57999999999,"N_COORD97":2576255.9700000002,"ADDRESS":"蚵寮７７５號","OBJECTID":54237},"geometry":{"x":161659.58000000101,"y":2576255.9700000007}},{"attributes":{"ID":54238,"DIS_CODE":0,"TOWNNAME":"北門區","LI":"鯤江里","LIN":"1鄰","STREET":" ","SECT":" ","MAREA":"蚵寮","LANE":" ","ALLEY":" ","HOUSE_NO":"７７６號","E_COORD97":161674.92000000001,"N_COORD97":2576248.98,"ADDRESS":"蚵寮７７６號","OBJECTID":54238},"geometry":{"x":161674.91999999993,"y":2576248.9800000004}},{"attributes":{"ID":54239,"DIS_CODE":0,"TOWNNAME":"北門區","LI":"鯤江里","LIN":"1鄰","STREET":" ","SECT":" ","MAREA":"蚵寮","LANE":" ","ALLEY":" ","HOUSE_NO":"７７９號","E_COORD97":161672.5,"N_COORD97":2576260.8799999999,"ADDRESS":"蚵寮７７９號","OBJECTID":54239},"geometry":{"x":161672.5,"y":2576260.8800000008}},{"attributes":{"ID":54240,"DIS_CODE":0,"TOWNNAME":"北門區","LI":"鯤江里","LIN":"1鄰","STREET":" ","SECT":" ","MAREA":"蚵寮","LANE":" ","ALLEY":" ","HOUSE_NO":"７８０號","E_COORD97":161678.14999999999,"N_COORD97":2576260.1800000002,"ADDRESS":"蚵寮７８０號","OBJECTID":54240},"geometry":{"x":161678.1500000013,"y":2576260.1799999997}},{"attributes":{"ID":54241,"DIS_CODE":0,"TOWNNAME":"北門區","LI":"鯤江里","LIN":"1鄰","STREET":" ","SECT":" ","MAREA":"蚵寮","LANE":" ","ALLEY":" ","HOUSE_NO":"７８２號","E_COORD97":161694.23999999999,"N_COORD97":2576265.04,"ADDRESS":"蚵寮７８２號","OBJECTID":54241},"geometry":{"x":161694.24000000115,"y":2576265.0399999991}},{"attributes":{"ID":54242,"DIS_CODE":0,"TOWNNAME":"北門區","LI":"鯤江里","LIN":"1鄰","STREET":" ","SECT":" ","MAREA":"蚵寮","LANE":" ","ALLEY":" ","HOUSE_NO":"７８３號","E_COORD97":161700.87,"N_COORD97":2576266.6400000001,"ADDRESS":"蚵寮７８３號","OBJECTID":54242},"geometry":{"x":161700.87000000011,"y":2576266.6400000043}},{"attributes":{"ID":54243,"DIS_CODE":0,"TOWNNAME":"北門區","LI":"鯤江里","LIN":"1鄰","STREET":" ","SECT":" ","MAREA":"蚵寮","LANE":" ","ALLEY":" ","HOUSE_NO":"７８４號","E_COORD97":161713.22,"N_COORD97":2576274.4300000002,"ADDRESS":"蚵寮７８４號","OBJECTID":54243},"geometry":{"x":161713.21999999974,"y":2576274.4300000016}},{"attributes":{"ID":54244,"DIS_CODE":0,"TOWNNAME":"北門區","LI":"鯤江里","LIN":"1鄰","STREET":" ","SECT":" ","MAREA":"蚵寮","LANE":" ","ALLEY":" ","HOUSE_NO":"７８９號","E_COORD97":161693.10000000001,"N_COORD97":2576231.7000000002,"ADDRESS":"蚵寮７８９號","OBJECTID":54244},"geometry":{"x":161693.10000000056,"y":2576231.7000000011}},{"attributes":{"ID":54245,"DIS_CODE":0,"TOWNNAME":"北門區","LI":"錦湖里","LIN":"1鄰","STREET":" ","SECT":" ","MAREA":"渡子頭","LANE":" ","ALLEY":" ","HOUSE_NO":"１０之１號","E_COORD97":165231.63,"N_COORD97":2576202.8900000001,"ADDRESS":"渡子頭１０之１號","OBJECTID":54245},"geometry":{"x":165231.62999999989,"y":2576202.8900000006}},{"attributes":{"ID":54246,"DIS_CODE":0,"TOWNNAME":"北門區","LI":"錦湖里","LIN":"1鄰","STREET":" ","SECT":" ","MAREA":"渡子頭","LANE":" ","ALLEY":" ","HOUSE_NO":"１０號","E_COORD97":165218.51999999999,"N_COORD97":2576168.6299999999,"ADDRESS":"渡子頭１０號","OBJECTID":54246},"geometry":{"x":165218.51999999955,"y":2576168.629999999}},{"attributes":{"ID":54247,"DIS_CODE":0,"TOWNNAME":"北門區","LI":"錦湖里","LIN":"1鄰","STREET":" ","SECT":" ","MAREA":"渡子頭","LANE":" ","ALLEY":" ","HOUSE_NO":"１１之１號","E_COORD97":165233.76999999999,"N_COORD97":2576135.3500000001,"ADDRESS":"渡子頭１１之１號","OBJECTID":54247},"geometry":{"x":165233.76999999955,"y":2576135.3500000034}},{"attributes":{"ID":54248,"DIS_CODE":0,"TOWNNAME":"東區","LI":"崇德里","LIN":"1鄰","STREET":"崇善路","SECT":" ","MAREA":" ","LANE":"２３２巷","ALLEY":"１７弄","HOUSE_NO":"３５號之１","E_COORD97":170809.84,"N_COORD97":2541917.8700000001,"ADDRESS":"崇善路２３２巷１７弄３５號之１","OBJECTID":54248},"geometry":{"x":170809.84000000078,"y":2541917.8700000029}},{"attributes":{"ID":54249,"DIS_CODE":0,"TOWNNAME":"永康區","LI":"勝利里","LIN":"1鄰","STREET":"勝利街","SECT":" ","MAREA":" ","LANE":"１巷","ALLEY":"１１弄","HOUSE_NO":"４０號","E_COORD97":171080.51000000001,"N_COORD97":2544666.2599999998,"ADDRESS":"勝利街１巷１１弄４０號","OBJECTID":54249},"geometry":{"x":171080.50999999978,"y":2544666.2599999979}},{"attributes":{"ID":54250,"DIS_CODE":0,"TOWNNAME":"永康區","LI":"勝利里","LIN":"1鄰","STREET":"勝利街","SECT":" ","MAREA":" ","LANE":"１巷","ALLEY":"１１弄","HOUSE_NO":"２４號","E_COORD97":171104.79000000001,"N_COORD97":2544645.7599999998,"ADDRESS":"勝利街１巷１１弄２４號","OBJECTID":54250},"geometry":{"x":171104.79000000004,"y":2544645.7599999998}},{"attributes":{"ID":54251,"DIS_CODE":0,"TOWNNAME":"永康區","LI":"勝利里","LIN":"1鄰","STREET":"勝利街","SECT":" ","MAREA":" ","LANE":"１巷","ALLEY":"１１弄","HOUSE_NO":"１０號","E_COORD97":171120.66,"N_COORD97":2544616.25,"ADDRESS":"勝利街１巷１１弄１０號","OBJECTID":54251},"geometry":{"x":171120.66000000015,"y":2544616.2500000019}},{"attributes":{"ID":54252,"DIS_CODE":0,"TOWNNAME":"永康區","LI":"勝利里","LIN":"1鄰","STREET":"勝利街","SECT":" ","MAREA":" ","LANE":"１巷","ALLEY":"１１弄","HOUSE_NO":"１８號","E_COORD97":171114.10999999999,"N_COORD97":2544637.5,"ADDRESS":"勝利街１巷１１弄１８號","OBJECTID":54252},"geometry":{"x":171114.11000000127,"y":2544637.5}},{"attributes":{"ID":54253,"DIS_CODE":0,"TOWNNAME":"仁德區","LI":"仁德里","LIN":"1鄰","STREET":"中正路","SECT":"二段","MAREA":" ","LANE":"６７９巷","ALLEY":"１４弄","HOUSE_NO":"３號","E_COORD97":173414.95000000001,"N_COORD97":2540122.7799999998,"ADDRESS":"中正路二段６７９巷１４弄３號","OBJECTID":54253},"geometry":{"x":173414.95000000112,"y":2540122.7800000031}},{"attributes":{"ID":54254,"DIS_CODE":0,"TOWNNAME":"仁德區","LI":"保安里","LIN":"1鄰","STREET":"文賢路","SECT":"一段","MAREA":" ","LANE":"５２９巷","ALLEY":"１３弄","HOUSE_NO":"９號","E_COORD97":171155.14999999999,"N_COORD97":2537140.8199999998,"ADDRESS":"文賢路一段５２９巷１３弄９號","OBJECTID":54254},"geometry":{"x":171155.15000000037,"y":2537140.8200000022}},{"attributes":{"ID":54255,"DIS_CODE":0,"TOWNNAME":"安南區","LI":"公親里","LIN":"8鄰","STREET":"公學路","SECT":"一段","MAREA":" ","LANE":" ","ALLEY":" ","HOUSE_NO":"１７２號","E_COORD97":168135.98000000001,"N_COORD97":2553094.3100000001,"ADDRESS":"公學路一段１７２號","OBJECTID":54255},"geometry":{"x":168135.98000000231,"y":2553094.3100000005}},{"attributes":{"ID":54256,"DIS_CODE":0,"TOWNNAME":"安南區","LI":"公親里","LIN":"8鄰","STREET":"公學路","SECT":"一段","MAREA":" ","LANE":" ","ALLEY":" ","HOUSE_NO":"１７４號","E_COORD97":168132.09,"N_COORD97":2553100.1400000001,"ADDRESS":"公學路一段１７４號","OBJECTID":54256},"geometry":{"x":168132.08999999985,"y":2553100.1400000043}},{"attributes":{"ID":54257,"DIS_CODE":0,"TOWNNAME":"北門區","LI":"錦湖里","LIN":"1鄰","STREET":" ","SECT":" ","MAREA":"渡子頭","LANE":" ","ALLEY":" ","HOUSE_NO":"１１號","E_COORD97":165222.87,"N_COORD97":2576147.0099999998,"ADDRESS":"渡子頭１１號","OBJECTID":54257},"geometry":{"x":165222.87000000104,"y":2576147.0099999998}},{"attributes":{"ID":54258,"DIS_CODE":0,"TOWNNAME":"北門區","LI":"錦湖里","LIN":"1鄰","STREET":" ","SECT":" ","MAREA":"渡子頭","LANE":" ","ALLEY":" ","HOUSE_NO":"１號","E_COORD97":164554.95000000001,"N_COORD97":2576687.5099999998,"ADDRESS":"渡子頭１號","OBJECTID":54258},"geometry":{"x":164554.95000000019,"y":2576687.5100000016}},{"attributes":{"ID":54259,"DIS_CODE":0,"TOWNNAME":"北門區","LI":"錦湖里","LIN":"1鄰","STREET":" ","SECT":" ","MAREA":"渡子頭","LANE":" ","ALLEY":" ","HOUSE_NO":"３之６號","E_COORD97":165013.42999999999,"N_COORD97":2576497.5099999998,"ADDRESS":"渡子頭３之６號","OBJECTID":54259},"geometry":{"x":165013.43000000063,"y":2576497.5100000016}},{"attributes":{"ID":54260,"DIS_CODE":0,"TOWNNAME":"北門區","LI":"錦湖里","LIN":"1鄰","STREET":" ","SECT":" ","MAREA":"渡子頭","LANE":" ","ALLEY":" ","HOUSE_NO":"３之８號","E_COORD97":165090.04999999999,"N_COORD97":2576582.7200000002,"ADDRESS":"渡子頭３之８號","OBJECTID":54260},"geometry":{"x":165090.04999999981,"y":2576582.7200000025}},{"attributes":{"ID":54261,"DIS_CODE":0,"TOWNNAME":"新市區","LI":"大洲里","LIN":"1鄰","STREET":" ","SECT":" ","MAREA":"大洲","LANE":" ","ALLEY":" ","HOUSE_NO":"４號","E_COORD97":175110.95000000001,"N_COORD97":2552776.25,"ADDRESS":"大洲４號","OBJECTID":54261},"geometry":{"x":175110.95000000019,"y":2552776.2499999981}},{"attributes":{"ID":54262,"DIS_CODE":0,"TOWNNAME":"善化區","LI":"小新里","LIN":"1鄰","STREET":"成功路","SECT":" ","MAREA":" ","LANE":"３巷","ALLEY":"３６弄","HOUSE_NO":"３８號","E_COORD97":180036.527775,"N_COORD97":2558433.3379700002,"ADDRESS":"成功路３巷３６弄３８號","OBJECTID":54262},"geometry":{"x":180036.52777499985,"y":2558433.3379680011}},{"attributes":{"ID":54263,"DIS_CODE":0,"TOWNNAME":"善化區","LI":"小新里","LIN":"1鄰","STREET":"成功路","SECT":" ","MAREA":" ","LANE":"３巷","ALLEY":"３６弄","HOUSE_NO":"３２號","E_COORD97":180044.89438300001,"N_COORD97":2558430.7979700002,"ADDRESS":"成功路３巷３６弄３２號","OBJECTID":54263},"geometry":{"x":180044.89438300114,"y":2558430.7979700007}},{"attributes":{"ID":54264,"DIS_CODE":0,"TOWNNAME":"善化區","LI":"小新里","LIN":"1鄰","STREET":"成功路","SECT":" ","MAREA":" ","LANE":"３巷","ALLEY":"３６弄","HOUSE_NO":"３０號","E_COORD97":180048.81292,"N_COORD97":2558429.6338,"ADDRESS":"成功路３巷３６弄３０號","OBJECTID":54264},"geometry":{"x":180048.81292000134,"y":2558429.6338040028}},{"attributes":{"ID":54265,"DIS_CODE":0,"TOWNNAME":"善化區","LI":"小新里","LIN":"1鄰","STREET":"成功路","SECT":" ","MAREA":" ","LANE":"３巷","ALLEY":"３６弄","HOUSE_NO":"２８號","E_COORD97":180052.943271,"N_COORD97":2558428.57547,"ADDRESS":"成功路３巷３６弄２８號","OBJECTID":54265},"geometry":{"x":180052.9432710018,"y":2558428.5754710007}},{"attributes":{"ID":54266,"DIS_CODE":0,"TOWNNAME":"善化區","LI":"小新里","LIN":"1鄰","STREET":"成功路","SECT":" ","MAREA":" ","LANE":"３巷","ALLEY":"３６弄","HOUSE_NO":"２６號","E_COORD97":180057.28543399999,"N_COORD97":2558427.30547,"ADDRESS":"成功路３巷３６弄２６號","OBJECTID":54266},"geometry":{"x":180057.28543400019,"y":2558427.3054710012}},{"attributes":{"ID":54267,"DIS_CODE":0,"TOWNNAME":"善化區","LI":"小新里","LIN":"1鄰","STREET":"成功路","SECT":" ","MAREA":" ","LANE":"３巷","ALLEY":"３６弄","HOUSE_NO":"２２號","E_COORD97":180061.521691,"N_COORD97":2558426.2471400001,"ADDRESS":"成功路３巷３６弄２２號","OBJECTID":54267},"geometry":{"x":180061.52169100009,"y":2558426.2471390013}},{"attributes":{"ID":54268,"DIS_CODE":0,"TOWNNAME":"善化區","LI":"小新里","LIN":"1鄰","STREET":"成功路","SECT":" ","MAREA":" ","LANE":"３巷","ALLEY":"３６弄","HOUSE_NO":"２０號","E_COORD97":180065.75794800001,"N_COORD97":2558425.0829699999,"ADDRESS":"成功路３巷３６弄２０號","OBJECTID":54268},"geometry":{"x":180065.75794800092,"y":2558425.0829730034}},{"attributes":{"ID":54269,"DIS_CODE":0,"TOWNNAME":"善化區","LI":"小新里","LIN":"1鄰","STREET":"成功路","SECT":" ","MAREA":" ","LANE":"３巷","ALLEY":"３６弄","HOUSE_NO":"１８號","E_COORD97":180069.88829800001,"N_COORD97":2558423.6013099998,"ADDRESS":"成功路３巷３６弄１８號","OBJECTID":54269},"geometry":{"x":180069.88829799928,"y":2558423.601307001}},{"attributes":{"ID":54270,"DIS_CODE":0,"TOWNNAME":"善化區","LI":"小新里","LIN":"1鄰","STREET":"成功路","SECT":" ","MAREA":" ","LANE":"３巷","ALLEY":"３６弄","HOUSE_NO":"１６號","E_COORD97":180073.91274199999,"N_COORD97":2558422.3313099998,"ADDRESS":"成功路３巷３６弄１６號","OBJECTID":54270},"geometry":{"x":180073.912742001,"y":2558422.3313080017}},{"attributes":{"ID":54271,"DIS_CODE":0,"TOWNNAME":"善化區","LI":"小新里","LIN":"1鄰","STREET":"成功路","SECT":" ","MAREA":" ","LANE":"３巷","ALLEY":"３６弄","HOUSE_NO":"１２號","E_COORD97":180077.937186,"N_COORD97":2558421.0613099998,"ADDRESS":"成功路３巷３６弄１２號","OBJECTID":54271},"geometry":{"x":180077.93718599994,"y":2558421.0613080021}},{"attributes":{"ID":54272,"DIS_CODE":0,"TOWNNAME":"善化區","LI":"小新里","LIN":"1鄰","STREET":"成功路","SECT":" ","MAREA":" ","LANE":"３巷","ALLEY":"３６弄","HOUSE_NO":"１０號","E_COORD97":180082.27934899999,"N_COORD97":2558420.1088100001,"ADDRESS":"成功路３巷３６弄１０號","OBJECTID":54272},"geometry":{"x":180082.27934900112,"y":2558420.1088089999}},{"attributes":{"ID":54273,"DIS_CODE":0,"TOWNNAME":"善化區","LI":"小新里","LIN":"1鄰","STREET":"成功路","SECT":" ","MAREA":" ","LANE":"３巷","ALLEY":"３６弄","HOUSE_NO":"８號","E_COORD97":180086.515606,"N_COORD97":2558418.7329799999,"ADDRESS":"成功路３巷３６弄８號","OBJECTID":54273},"geometry":{"x":180086.51560600009,"y":2558418.7329760045}},{"attributes":{"ID":54274,"DIS_CODE":0,"TOWNNAME":"善化區","LI":"小新里","LIN":"1鄰","STREET":"成功路","SECT":" ","MAREA":" ","LANE":"３巷","ALLEY":"３６弄","HOUSE_NO":"６號","E_COORD97":180091.281395,"N_COORD97":2558417.5688100001,"ADDRESS":"成功路３巷３６弄６號","OBJECTID":54274},"geometry":{"x":180091.28139499947,"y":2558417.568810001}},{"attributes":{"ID":54275,"DIS_CODE":0,"TOWNNAME":"北門區","LI":"錦湖里","LIN":"1鄰","STREET":" ","SECT":" ","MAREA":"渡子頭","LANE":" ","ALLEY":" ","HOUSE_NO":"４號之７","E_COORD97":164915.94,"N_COORD97":2575772.4900000002,"ADDRESS":"渡子頭４號之７","OBJECTID":54275},"geometry":{"x":164915.94000000134,"y":2575772.4900000021}},{"attributes":{"ID":54276,"DIS_CODE":0,"TOWNNAME":"北門區","LI":"錦湖里","LIN":"1鄰","STREET":" ","SECT":" ","MAREA":"渡子頭","LANE":" ","ALLEY":" ","HOUSE_NO":"４號","E_COORD97":164863.10000000001,"N_COORD97":2575674.6800000002,"ADDRESS":"渡子頭４號","OBJECTID":54276},"geometry":{"x":164863.10000000056,"y":2575674.6799999997}},{"attributes":{"ID":54277,"DIS_CODE":0,"TOWNNAME":"北門區","LI":"錦湖里","LIN":"1鄰","STREET":" ","SECT":" ","MAREA":"渡子頭","LANE":" ","ALLEY":" ","HOUSE_NO":"５號之１","E_COORD97":164901.13649,"N_COORD97":2575692.53902,"ADDRESS":"渡子頭５號之１","OBJECTID":54277},"geometry":{"x":164901.13649000041,"y":2575692.5390220005}},{"attributes":{"ID":54278,"DIS_CODE":0,"TOWNNAME":"北門區","LI":"錦湖里","LIN":"1鄰","STREET":" ","SECT":" ","MAREA":"渡子頭","LANE":" ","ALLEY":" ","HOUSE_NO":"５號之７","E_COORD97":165092.98000000001,"N_COORD97":2575897.1400000001,"ADDRESS":"渡子頭５號之７","OBJECTID":54278},"geometry":{"x":165092.97999999952,"y":2575897.1400000043}},{"attributes":{"ID":54279,"DIS_CODE":0,"TOWNNAME":"北門區","LI":"錦湖里","LIN":"1鄰","STREET":" ","SECT":" ","MAREA":"渡子頭","LANE":" ","ALLEY":" ","HOUSE_NO":"５之８號","E_COORD97":164977.51000000001,"N_COORD97":2575985.3799999999,"ADDRESS":"渡子頭５之８號","OBJECTID":54279},"geometry":{"x":164977.51000000071,"y":2575985.3800000008}},{"attributes":{"ID":54280,"DIS_CODE":0,"TOWNNAME":"新市區","LI":"港墘里","LIN":"1鄰","STREET":"大同街","SECT":" ","MAREA":" ","LANE":"２９巷","ALLEY":"２弄","HOUSE_NO":"１號","E_COORD97":178459.92999999999,"N_COORD97":2553597,"ADDRESS":"大同街２９巷２弄１號","OBJECTID":54280},"geometry":{"x":178459.93000000063,"y":2553597}},{"attributes":{"ID":54281,"DIS_CODE":0,"TOWNNAME":"北門區","LI":"錦湖里","LIN":"1鄰","STREET":" ","SECT":" ","MAREA":"渡子頭","LANE":" ","ALLEY":" ","HOUSE_NO":"７號之１","E_COORD97":165158.10999999999,"N_COORD97":2576150.2799999998,"ADDRESS":"渡子頭７號之１","OBJECTID":54281},"geometry":{"x":165158.1099999994,"y":2576150.2800000012}},{"attributes":{"ID":54282,"DIS_CODE":0,"TOWNNAME":"永康區","LI":"中興里","LIN":"1鄰","STREET":"忠孝路","SECT":" ","MAREA":" ","LANE":"２３９巷","ALLEY":"９弄","HOUSE_NO":"３號","E_COORD97":172046.92000000001,"N_COORD97":2545019.4900000002,"ADDRESS":"忠孝路２３９巷９弄３號","OBJECTID":54282},"geometry":{"x":172046.92000000086,"y":2545019.4900000021}},{"attributes":{"ID":54283,"DIS_CODE":0,"TOWNNAME":"北門區","LI":"錦湖里","LIN":"1鄰","STREET":" ","SECT":" ","MAREA":"渡子頭","LANE":" ","ALLEY":" ","HOUSE_NO":"７號之２","E_COORD97":165137.73000000001,"N_COORD97":2576156.75,"ADDRESS":"渡子頭７號之２","OBJECTID":54283},"geometry":{"x":165137.73000000138,"y":2576156.7500000037}},{"attributes":{"ID":54284,"DIS_CODE":0,"TOWNNAME":"永康區","LI":"中興里","LIN":"1鄰","STREET":"忠孝路","SECT":" ","MAREA":" ","LANE":"２３９巷","ALLEY":"９弄","HOUSE_NO":"９號","E_COORD97":172046.92000000001,"N_COORD97":2545001,"ADDRESS":"忠孝路２３９巷９弄９號","OBJECTID":54284},"geometry":{"x":172046.92000000086,"y":2545001.0000000019}},{"attributes":{"ID":54285,"DIS_CODE":0,"TOWNNAME":"永康區","LI":"勝利里","LIN":"1鄰","STREET":"勝利街","SECT":" ","MAREA":" ","LANE":"１巷","ALLEY":"１１弄","HOUSE_NO":"２２號","E_COORD97":171107.67999999999,"N_COORD97":2544642.75,"ADDRESS":"勝利街１巷１１弄２２號","OBJECTID":54285},"geometry":{"x":171107.68000000063,"y":2544642.7499999981}},{"attributes":{"ID":54286,"DIS_CODE":0,"TOWNNAME":"永康區","LI":"勝利里","LIN":"1鄰","STREET":"勝利街","SECT":" ","MAREA":" ","LANE":"１巷","ALLEY":"１１弄","HOUSE_NO":"１５號","E_COORD97":171086.91,"N_COORD97":2544637.25,"ADDRESS":"勝利街１巷１１弄１５號","OBJECTID":54286},"geometry":{"x":171086.91000000015,"y":2544637.2500000019}},{"attributes":{"ID":54287,"DIS_CODE":0,"TOWNNAME":"北門區","LI":"錦湖里","LIN":"1鄰","STREET":" ","SECT":" ","MAREA":"渡子頭","LANE":" ","ALLEY":" ","HOUSE_NO":"７號之３","E_COORD97":165157.20000000001,"N_COORD97":2576188.6800000002,"ADDRESS":"渡子頭７號之３","OBJECTID":54287},"geometry":{"x":165157.20000000019,"y":2576188.6800000016}},{"attributes":{"ID":54288,"DIS_CODE":0,"TOWNNAME":"永康區","LI":"勝利里","LIN":"1鄰","STREET":"勝利街","SECT":" ","MAREA":" ","LANE":"１巷","ALLEY":"１１弄","HOUSE_NO":"１３號","E_COORD97":171089.98000000001,"N_COORD97":2544634.75,"ADDRESS":"勝利街１巷１１弄１３號","OBJECTID":54288},"geometry":{"x":171089.98000000045,"y":2544634.75}},{"attributes":{"ID":54289,"DIS_CODE":0,"TOWNNAME":"永康區","LI":"勝利里","LIN":"1鄰","STREET":"勝利街","SECT":" ","MAREA":" ","LANE":"１巷","ALLEY":"１１弄","HOUSE_NO":"１號","E_COORD97":171106.89999999999,"N_COORD97":2544619,"ADDRESS":"勝利街１巷１１弄１號","OBJECTID":54289},"geometry":{"x":171106.9000000013,"y":2544619.0000000019}},{"attributes":{"ID":54290,"DIS_CODE":0,"TOWNNAME":"永康區","LI":"勝利里","LIN":"1鄰","STREET":"勝利街","SECT":" ","MAREA":" ","LANE":"１巷","ALLEY":"１１弄","HOUSE_NO":"９號","E_COORD97":171094.67999999999,"N_COORD97":2544629.25,"ADDRESS":"勝利街１巷１１弄９號","OBJECTID":54290},"geometry":{"x":171094.6799999997,"y":2544629.2499999981}},{"attributes":{"ID":54291,"DIS_CODE":0,"TOWNNAME":"北門區","LI":"錦湖里","LIN":"1鄰","STREET":" ","SECT":" ","MAREA":"渡子頭","LANE":" ","ALLEY":" ","HOUSE_NO":"７之７號","E_COORD97":165168.94,"N_COORD97":2576226.1400000001,"ADDRESS":"渡子頭７之７號","OBJECTID":54291},"geometry":{"x":165168.94000000041,"y":2576226.1400000025}},{"attributes":{"ID":54292,"DIS_CODE":0,"TOWNNAME":"安南區","LI":"淵東里","LIN":"1鄰","STREET":"本原街","SECT":"三段","MAREA":" ","LANE":"１３４巷","ALLEY":"２０弄","HOUSE_NO":"２９號","E_COORD97":165615.29999999999,"N_COORD97":2550518.8500000001,"ADDRESS":"本原街三段１３４巷２０弄２９號","OBJECTID":54292},"geometry":{"x":165615.29999999981,"y":2550518.8500000015}},{"attributes":{"ID":54293,"DIS_CODE":0,"TOWNNAME":"安南區","LI":"淵東里","LIN":"1鄰","STREET":"本原街","SECT":"三段","MAREA":" ","LANE":"１３４巷","ALLEY":"２０弄","HOUSE_NO":"８號","E_COORD97":165634.60000000001,"N_COORD97":2550471.8300000001,"ADDRESS":"本原街三段１３４巷２０弄８號","OBJECTID":54293},"geometry":{"x":165634.60000000056,"y":2550471.8300000019}},{"attributes":{"ID":54294,"DIS_CODE":0,"TOWNNAME":"永康區","LI":"二王里","LIN":"8鄰","STREET":"中山南路","SECT":" ","MAREA":" ","LANE":" ","ALLEY":" ","HOUSE_NO":"８００號","E_COORD97":172799.07000000001,"N_COORD97":2546796.3900000001,"ADDRESS":"中山南路８００號","OBJECTID":54294},"geometry":{"x":172799.07000000123,"y":2546796.3900000025}},{"attributes":{"ID":54295,"DIS_CODE":0,"TOWNNAME":"永康區","LI":"西灣里","LIN":"8鄰","STREET":"大灣三街","SECT":" ","MAREA":" ","LANE":" ","ALLEY":" ","HOUSE_NO":"１９６號","E_COORD97":174513.67999999999,"N_COORD97":2545155.7400000002,"ADDRESS":"大灣三街１９６號","OBJECTID":54295},"geometry":{"x":174513.6799999997,"y":2545155.7400000021}},{"attributes":{"ID":54296,"DIS_CODE":0,"TOWNNAME":"永康區","LI":"永康里","LIN":"8鄰","STREET":"永康街","SECT":" ","MAREA":" ","LANE":" ","ALLEY":" ","HOUSE_NO":"２５號","E_COORD97":173795.22,"N_COORD97":2547267.7000000002,"ADDRESS":"永康街２５號","OBJECTID":54296},"geometry":{"x":173795.21999999974,"y":2547267.7000000011}},{"attributes":{"ID":54297,"DIS_CODE":0,"TOWNNAME":"北門區","LI":"錦湖里","LIN":"1鄰","STREET":" ","SECT":" ","MAREA":"渡子頭","LANE":" ","ALLEY":" ","HOUSE_NO":"７之８號","E_COORD97":165164.01000000001,"N_COORD97":2576225.6200000001,"ADDRESS":"渡子頭７之８號","OBJECTID":54297},"geometry":{"x":165164.01000000071,"y":2576225.620000001}},{"attributes":{"ID":54298,"DIS_CODE":0,"TOWNNAME":"北門區","LI":"錦湖里","LIN":"1鄰","STREET":" ","SECT":" ","MAREA":"渡子頭","LANE":" ","ALLEY":" ","HOUSE_NO":"７號","E_COORD97":165002.26000000001,"N_COORD97":2575841.9500000002,"ADDRESS":"渡子頭７號","OBJECTID":54298},"geometry":{"x":165002.26000000164,"y":2575841.9499999993}},{"attributes":{"ID":54299,"DIS_CODE":0,"TOWNNAME":"新市區","LI":"大營里","LIN":"1鄰","STREET":" ","SECT":" ","MAREA":"大營","LANE":" ","ALLEY":" ","HOUSE_NO":"７號","E_COORD97":180067.13,"N_COORD97":2555450.25,"ADDRESS":"大營７號","OBJECTID":54299},"geometry":{"x":180067.13000000082,"y":2555450.25}},{"attributes":{"ID":54300,"DIS_CODE":0,"TOWNNAME":"新市區","LI":"社內里","LIN":"1鄰","STREET":" ","SECT":" ","MAREA":"社內","LANE":" ","ALLEY":" ","HOUSE_NO":"１４之３５號","E_COORD97":176824,"N_COORD97":2552981.29,"ADDRESS":"社內１４之３５號","OBJECTID":54300},"geometry":{"x":176824.00000000093,"y":2552981.2899999991}},{"attributes":{"ID":54301,"DIS_CODE":0,"TOWNNAME":"新市區","LI":"永就里","LIN":"1鄰","STREET":" ","SECT":" ","MAREA":"永就","LANE":" ","ALLEY":" ","HOUSE_NO":"３之６號","E_COORD97":178450.84,"N_COORD97":2551264.5499999998,"ADDRESS":"永就３之６號","OBJECTID":54301},"geometry":{"x":178450.83999999985,"y":2551264.5500000026}},{"attributes":{"ID":54302,"DIS_CODE":0,"TOWNNAME":"新市區","LI":"大社里","LIN":"1鄰","STREET":" ","SECT":" ","MAREA":"大社","LANE":" ","ALLEY":" ","HOUSE_NO":"１３０號","E_COORD97":180246.73000000001,"N_COORD97":2554231.5,"ADDRESS":"大社１３０號","OBJECTID":54302},"geometry":{"x":180246.73000000138,"y":2554231.5}},{"attributes":{"ID":54303,"DIS_CODE":0,"TOWNNAME":"新市區","LI":"豐華里","LIN":"1鄰","STREET":" ","SECT":" ","MAREA":"豐華","LANE":" ","ALLEY":" ","HOUSE_NO":"１之６號","E_COORD97":173875.04000000001,"N_COORD97":2554126.5499999998,"ADDRESS":"豐華１之６號","OBJECTID":54303},"geometry":{"x":173875.0400000019,"y":2554126.5500000007}},{"attributes":{"ID":54304,"DIS_CODE":0,"TOWNNAME":"新市區","LI":"大社里","LIN":"1鄰","STREET":" ","SECT":" ","MAREA":"大社","LANE":" ","ALLEY":" ","HOUSE_NO":"６３之８號","E_COORD97":180339.76000000001,"N_COORD97":2554206.0499999998,"ADDRESS":"大社６３之８號","OBJECTID":54304},"geometry":{"x":180339.75999999978,"y":2554206.0500000045}},{"attributes":{"ID":54305,"DIS_CODE":0,"TOWNNAME":"新市區","LI":"大社里","LIN":"1鄰","STREET":" ","SECT":" ","MAREA":"大社","LANE":" ","ALLEY":" ","HOUSE_NO":"６３之７號","E_COORD97":180338.70999999999,"N_COORD97":2554210.2999999998,"ADDRESS":"大社６３之７號","OBJECTID":54305},"geometry":{"x":180338.70999999996,"y":2554210.3000000007}},{"attributes":{"ID":54306,"DIS_CODE":0,"TOWNNAME":"新市區","LI":"大社里","LIN":"1鄰","STREET":" ","SECT":" ","MAREA":"大社","LANE":" ","ALLEY":" ","HOUSE_NO":"１３４之５號","E_COORD97":180205.45999999999,"N_COORD97":2554240.5499999998,"ADDRESS":"大社１３４之５號","OBJECTID":54306},"geometry":{"x":180205.46000000089,"y":2554240.5500000026}},{"attributes":{"ID":54307,"DIS_CODE":0,"TOWNNAME":"永康區","LI":"二王里","LIN":"8鄰","STREET":"中山南路","SECT":" ","MAREA":" ","LANE":" ","ALLEY":" ","HOUSE_NO":"７９０號","E_COORD97":172779.78,"N_COORD97":2546789.6400000001,"ADDRESS":"中山南路７９０號","OBJECTID":54307},"geometry":{"x":172779.78000000026,"y":2546789.6400000006}},{"attributes":{"ID":54308,"DIS_CODE":0,"TOWNNAME":"善化區","LI":"小新里","LIN":"1鄰","STREET":"成功路","SECT":" ","MAREA":" ","LANE":"３巷","ALLEY":"３６弄","HOUSE_NO":"４２號","E_COORD97":180027.20801,"N_COORD97":2558436.6187999998,"ADDRESS":"成功路３巷３６弄４２號","OBJECTID":54308},"geometry":{"x":180027.20801000111,"y":2558436.6188000012}},{"attributes":{"ID":54309,"DIS_CODE":0,"TOWNNAME":"新市區","LI":"大社里","LIN":"1鄰","STREET":" ","SECT":" ","MAREA":"大社","LANE":" ","ALLEY":" ","HOUSE_NO":"６３之２號","E_COORD97":180343.89999999999,"N_COORD97":2554246.7999999998,"ADDRESS":"大社６３之２號","OBJECTID":54309},"geometry":{"x":180343.9000000013,"y":2554246.8000000007}},{"attributes":{"ID":54310,"DIS_CODE":0,"TOWNNAME":"新市區","LI":"大社里","LIN":"1鄰","STREET":" ","SECT":" ","MAREA":"大社","LANE":" ","ALLEY":" ","HOUSE_NO":"７０號","E_COORD97":180418.34,"N_COORD97":2554281.25,"ADDRESS":"大社７０號","OBJECTID":54310},"geometry":{"x":180418.34000000078,"y":2554281.25}},{"attributes":{"ID":54311,"DIS_CODE":0,"TOWNNAME":"新市區","LI":"大社里","LIN":"1鄰","STREET":" ","SECT":" ","MAREA":"大社","LANE":" ","ALLEY":" ","HOUSE_NO":"６３之５號","E_COORD97":180336.60000000001,"N_COORD97":2554218.2999999998,"ADDRESS":"大社６３之５號","OBJECTID":54311},"geometry":{"x":180336.60000000056,"y":2554218.3000000026}},{"attributes":{"ID":54312,"DIS_CODE":0,"TOWNNAME":"新市區","LI":"大社里","LIN":"1鄰","STREET":" ","SECT":" ","MAREA":"大社","LANE":" ","ALLEY":" ","HOUSE_NO":"６３之６號","E_COORD97":180337.39999999999,"N_COORD97":2554214.2999999998,"ADDRESS":"大社６３之６號","OBJECTID":54312},"geometry":{"x":180337.4000000013,"y":2554214.2999999989}},{"attributes":{"ID":54313,"DIS_CODE":0,"TOWNNAME":"安南區","LI":"淵東里","LIN":"1鄰","STREET":"海佃路","SECT":"四段","MAREA":" ","LANE":"５５巷","ALLEY":"２７弄","HOUSE_NO":"１０號","E_COORD97":165635.44,"N_COORD97":2550523.1899999999,"ADDRESS":"海佃路四段５５巷２７弄１０號","OBJECTID":54313},"geometry":{"x":165635.44000000041,"y":2550523.1900000013}},{"attributes":{"ID":54314,"DIS_CODE":0,"TOWNNAME":"安南區","LI":"淵東里","LIN":"1鄰","STREET":"海佃路","SECT":"四段","MAREA":" ","LANE":"５５巷","ALLEY":"２７弄","HOUSE_NO":"１１號","E_COORD97":165673.57999999999,"N_COORD97":2550555.02,"ADDRESS":"海佃路四段５５巷２７弄１１號","OBJECTID":54314},"geometry":{"x":165673.58000000194,"y":2550555.0200000014}},{"attributes":{"ID":54315,"DIS_CODE":0,"TOWNNAME":"安南區","LI":"淵東里","LIN":"1鄰","STREET":"海佃路","SECT":"四段","MAREA":" ","LANE":"５５巷","ALLEY":"２７弄","HOUSE_NO":"１２號","E_COORD97":165637.67000000001,"N_COORD97":2550518.46,"ADDRESS":"海佃路四段５５巷２７弄１２號","OBJECTID":54315},"geometry":{"x":165637.67000000086,"y":2550518.4600000028}},{"attributes":{"ID":54316,"DIS_CODE":0,"TOWNNAME":"安南區","LI":"淵東里","LIN":"1鄰","STREET":"海佃路","SECT":"四段","MAREA":" ","LANE":"５５巷","ALLEY":"２７弄","HOUSE_NO":"１３號","E_COORD97":165678.81,"N_COORD97":2550556.8799999999,"ADDRESS":"海佃路四段５５巷２７弄１３號","OBJECTID":54316},"geometry":{"x":165678.81000000052,"y":2550556.879999999}},{"attributes":{"ID":54317,"DIS_CODE":0,"TOWNNAME":"安南區","LI":"淵東里","LIN":"1鄰","STREET":"海佃路","SECT":"四段","MAREA":" ","LANE":"５５巷","ALLEY":"２７弄","HOUSE_NO":"１４號","E_COORD97":165644.35000000001,"N_COORD97":2550510.1099999999,"ADDRESS":"海佃路四段５５巷２７弄１４號","OBJECTID":54317},"geometry":{"x":165644.35000000056,"y":2550510.1100000013}},{"attributes":{"ID":54318,"DIS_CODE":0,"TOWNNAME":"安南區","LI":"淵東里","LIN":"1鄰","STREET":"海佃路","SECT":"四段","MAREA":" ","LANE":"５５巷","ALLEY":"２７弄","HOUSE_NO":"１６號","E_COORD97":165647.42000000001,"N_COORD97":2550505.3799999999,"ADDRESS":"海佃路四段５５巷２７弄１６號","OBJECTID":54318},"geometry":{"x":165647.42000000086,"y":2550505.379999999}},{"attributes":{"ID":54319,"DIS_CODE":0,"TOWNNAME":"安南區","LI":"淵東里","LIN":"1鄰","STREET":"海佃路","SECT":"四段","MAREA":" ","LANE":"５５巷","ALLEY":"２７弄","HOUSE_NO":"１８號","E_COORD97":165650.20999999999,"N_COORD97":2550502.0499999998,"ADDRESS":"海佃路四段５５巷２７弄１８號","OBJECTID":54319},"geometry":{"x":165650.20999999996,"y":2550502.0500000007}},{"attributes":{"ID":54320,"DIS_CODE":0,"TOWNNAME":"安南區","LI":"淵東里","LIN":"1鄰","STREET":"海佃路","SECT":"四段","MAREA":" ","LANE":"５５巷","ALLEY":"２７弄","HOUSE_NO":"２號","E_COORD97":165625.67999999999,"N_COORD97":2550540.4399999999,"ADDRESS":"海佃路四段５５巷２７弄２號","OBJECTID":54320},"geometry":{"x":165625.68000000063,"y":2550540.4400000032}},{"attributes":{"ID":54321,"DIS_CODE":0,"TOWNNAME":"安南區","LI":"淵東里","LIN":"1鄰","STREET":"海佃路","SECT":"四段","MAREA":" ","LANE":"５５巷","ALLEY":"２７弄","HOUSE_NO":"３號","E_COORD97":165653.26999999999,"N_COORD97":2550547.9500000002,"ADDRESS":"海佃路四段５５巷２７弄３號","OBJECTID":54321},"geometry":{"x":165653.27000000048,"y":2550547.9500000011}},{"attributes":{"ID":54322,"DIS_CODE":0,"TOWNNAME":"安南區","LI":"淵東里","LIN":"1鄰","STREET":"海佃路","SECT":"四段","MAREA":" ","LANE":"５５巷","ALLEY":"２７弄","HOUSE_NO":"４號","E_COORD97":165628.19,"N_COORD97":2550536.27,"ADDRESS":"海佃路四段５５巷２７弄４號","OBJECTID":54322},"geometry":{"x":165628.19000000041,"y":2550536.2700000014}},{"attributes":{"ID":54323,"DIS_CODE":0,"TOWNNAME":"安南區","LI":"淵東里","LIN":"1鄰","STREET":"海佃路","SECT":"四段","MAREA":" ","LANE":"５５巷","ALLEY":"２７弄","HOUSE_NO":"５號","E_COORD97":165656.89000000001,"N_COORD97":2550544.0600000001,"ADDRESS":"海佃路四段５５巷２７弄５號","OBJECTID":54323},"geometry":{"x":165656.88999999966,"y":2550544.0600000042}},{"attributes":{"ID":54324,"DIS_CODE":0,"TOWNNAME":"安南區","LI":"淵東里","LIN":"1鄰","STREET":"海佃路","SECT":"四段","MAREA":" ","LANE":"５５巷","ALLEY":"２７弄","HOUSE_NO":"６號","E_COORD97":165630.14000000001,"N_COORD97":2550530.7000000002,"ADDRESS":"海佃路四段５５巷２７弄６號","OBJECTID":54324},"geometry":{"x":165630.13999999873,"y":2550530.6999999993}},{"attributes":{"ID":54325,"DIS_CODE":0,"TOWNNAME":"安南區","LI":"淵東里","LIN":"1鄰","STREET":"海佃路","SECT":"四段","MAREA":" ","LANE":"５５巷","ALLEY":"２７弄","HOUSE_NO":"７號","E_COORD97":165659.12,"N_COORD97":2550539.6099999999,"ADDRESS":"海佃路四段５５巷２７弄７號","OBJECTID":54325},"geometry":{"x":165659.12000000011,"y":2550539.6100000013}},{"attributes":{"ID":54326,"DIS_CODE":0,"TOWNNAME":"安南區","LI":"淵東里","LIN":"1鄰","STREET":"海佃路","SECT":"四段","MAREA":" ","LANE":"５５巷","ALLEY":"２７弄","HOUSE_NO":"８號","E_COORD97":165632.92999999999,"N_COORD97":2550528.2000000002,"ADDRESS":"海佃路四段５５巷２７弄８號","OBJECTID":54326},"geometry":{"x":165632.9299999997,"y":2550528.200000003}},{"attributes":{"ID":54327,"DIS_CODE":0,"TOWNNAME":"安南區","LI":"淵東里","LIN":"1鄰","STREET":"海佃路","SECT":"四段","MAREA":" ","LANE":"５５巷","ALLEY":"２７弄","HOUSE_NO":"９號","E_COORD97":165661.91,"N_COORD97":2550535.71,"ADDRESS":"海佃路四段５５巷２７弄９號","OBJECTID":54327},"geometry":{"x":165661.91000000108,"y":2550535.7100000009}},{"attributes":{"ID":54328,"DIS_CODE":0,"TOWNNAME":"北區","LI":"永祥里","LIN":"1鄰","STREET":"大武街","SECT":" ","MAREA":" ","LANE":"５２５巷","ALLEY":"５４弄","HOUSE_NO":"３號","E_COORD97":170089.32999999999,"N_COORD97":2546545.5,"ADDRESS":"大武街５２５巷５４弄３號","OBJECTID":54328},"geometry":{"x":170089.32999999914,"y":2546545.5}},{"attributes":{"ID":54329,"DIS_CODE":0,"TOWNNAME":"安南區","LI":"淵西里","LIN":"1鄰","STREET":"安中路","SECT":"四段","MAREA":" ","LANE":"２９０巷","ALLEY":"２９１弄","HOUSE_NO":"２６號","E_COORD97":165095.69,"N_COORD97":2550378.4100000001,"ADDRESS":"安中路四段２９０巷２９１弄２６號","OBJECTID":54329},"geometry":{"x":165095.69000000134,"y":2550378.4099999983}},{"attributes":{"ID":54330,"DIS_CODE":0,"TOWNNAME":"安南區","LI":"淵西里","LIN":"1鄰","STREET":"安中路","SECT":"四段","MAREA":" ","LANE":"２９０巷","ALLEY":"２９１弄","HOUSE_NO":"２８號","E_COORD97":165093.01999999999,"N_COORD97":2550381.8599999999,"ADDRESS":"安中路四段２９０巷２９１弄２８號","OBJECTID":54330},"geometry":{"x":165093.01999999955,"y":2550381.8600000013}},{"attributes":{"ID":54331,"DIS_CODE":0,"TOWNNAME":"安南區","LI":"淵西里","LIN":"1鄰","STREET":"安中路","SECT":"四段","MAREA":" ","LANE":"２９０巷","ALLEY":"２９１弄","HOUSE_NO":"３０號","E_COORD97":165089.39999999999,"N_COORD97":2550385.1600000001,"ADDRESS":"安中路四段２９０巷２９１弄３０號","OBJECTID":54331},"geometry":{"x":165089.40000000037,"y":2550385.160000002}},{"attributes":{"ID":54332,"DIS_CODE":0,"TOWNNAME":"安南區","LI":"淵西里","LIN":"1鄰","STREET":"安中路","SECT":"四段","MAREA":" ","LANE":"２９０巷","ALLEY":"２９１弄","HOUSE_NO":"３２號","E_COORD97":165085.79000000001,"N_COORD97":2550387.04,"ADDRESS":"安中路四段２９０巷２９１弄３２號","OBJECTID":54332},"geometry":{"x":165085.79000000097,"y":2550387.0400000028}},{"attributes":{"ID":54333,"DIS_CODE":0,"TOWNNAME":"安南區","LI":"淵西里","LIN":"1鄰","STREET":"安中路","SECT":"四段","MAREA":" ","LANE":"２９０巷","ALLEY":"２９１弄","HOUSE_NO":"３４號","E_COORD97":165081.07000000001,"N_COORD97":2550389.0800000001,"ADDRESS":"安中路四段２９０巷２９１弄３４號","OBJECTID":54333},"geometry":{"x":165081.07000000123,"y":2550389.0800000019}},{"attributes":{"ID":54334,"DIS_CODE":0,"TOWNNAME":"安南區","LI":"淵西里","LIN":"1鄰","STREET":"安中路","SECT":"四段","MAREA":" ","LANE":"２９０巷","ALLEY":"２９１弄","HOUSE_NO":"３６號","E_COORD97":165078.54999999999,"N_COORD97":2550391.4399999999,"ADDRESS":"安中路四段２９０巷２９１弄３６號","OBJECTID":54334},"geometry":{"x":165078.55000000075,"y":2550391.4400000032}},{"attributes":{"ID":54335,"DIS_CODE":0,"TOWNNAME":"東區","LI":"大同里","LIN":"8鄰","STREET":"樹林街","SECT":"一段","MAREA":" ","LANE":" ","ALLEY":" ","HOUSE_NO":"２１３號","E_COORD97":169199.56,"N_COORD97":2542997.4900000002,"ADDRESS":"樹林街一段２１３號","OBJECTID":54335},"geometry":{"x":169199.56000000052,"y":2542997.4900000039}},{"attributes":{"ID":54336,"DIS_CODE":0,"TOWNNAME":"新市區","LI":"大社里","LIN":"1鄰","STREET":" ","SECT":" ","MAREA":"大社","LANE":" ","ALLEY":" ","HOUSE_NO":"６３之３號","E_COORD97":180334.76000000001,"N_COORD97":2554226.2999999998,"ADDRESS":"大社６３之３號","OBJECTID":54336},"geometry":{"x":180334.75999999978,"y":2554226.3000000026}},{"attributes":{"ID":54337,"DIS_CODE":0,"TOWNNAME":"新市區","LI":"大社里","LIN":"1鄰","STREET":" ","SECT":" ","MAREA":"大社","LANE":" ","ALLEY":" ","HOUSE_NO":"１２６號","E_COORD97":180202.85000000001,"N_COORD97":2554287,"ADDRESS":"大社１２６號","OBJECTID":54337},"geometry":{"x":180202.85000000056,"y":2554287.0000000037}},{"attributes":{"ID":54338,"DIS_CODE":0,"TOWNNAME":"新市區","LI":"大社里","LIN":"1鄰","STREET":" ","SECT":" ","MAREA":"大社","LANE":" ","ALLEY":" ","HOUSE_NO":"６０號","E_COORD97":180316.56,"N_COORD97":2554236.25,"ADDRESS":"大社６０號","OBJECTID":54338},"geometry":{"x":180316.56000000052,"y":2554236.25}},{"attributes":{"ID":54339,"DIS_CODE":0,"TOWNNAME":"新市區","LI":"永就里","LIN":"1鄰","STREET":" ","SECT":" ","MAREA":"永就","LANE":" ","ALLEY":" ","HOUSE_NO":"３之７號","E_COORD97":178455.89999999999,"N_COORD97":2551262.0499999998,"ADDRESS":"永就３之７號","OBJECTID":54339},"geometry":{"x":178455.90000000037,"y":2551262.0500000007}},{"attributes":{"ID":54340,"DIS_CODE":0,"TOWNNAME":"安南區","LI":"淵西里","LIN":"1鄰","STREET":"安中路","SECT":"四段","MAREA":" ","LANE":"２９０巷","ALLEY":"２９１弄","HOUSE_NO":"３８號","E_COORD97":165077.57999999999,"N_COORD97":2550399.1699999999,"ADDRESS":"安中路四段２９０巷２９１弄３８號","OBJECTID":54340},"geometry":{"x":165077.58000000101,"y":2550399.1699999999}},{"attributes":{"ID":54341,"DIS_CODE":0,"TOWNNAME":"安南區","LI":"淵西里","LIN":"1鄰","STREET":"安中路","SECT":"四段","MAREA":" ","LANE":"２９０巷","ALLEY":"２９１弄","HOUSE_NO":"４０號","E_COORD97":165074.64000000001,"N_COORD97":2550402.5499999998,"ADDRESS":"安中路四段２９０巷２９１弄４０號","OBJECTID":54341},"geometry":{"x":165074.6400000006,"y":2550402.5500000026}},{"attributes":{"ID":54342,"DIS_CODE":0,"TOWNNAME":"新市區","LI":"大社里","LIN":"1鄰","STREET":" ","SECT":" ","MAREA":"大社","LANE":" ","ALLEY":" ","HOUSE_NO":"６５之３號","E_COORD97":180375.37,"N_COORD97":2554202.0499999998,"ADDRESS":"大社６５之３號","OBJECTID":54342},"geometry":{"x":180375.37000000011,"y":2554202.0500000007}},{"attributes":{"ID":54343,"DIS_CODE":0,"TOWNNAME":"安南區","LI":"淵西里","LIN":"1鄰","STREET":"安中路","SECT":"四段","MAREA":" ","LANE":"２９０巷","ALLEY":"３２５弄","HOUSE_NO":"２５號","E_COORD97":165114.23999999999,"N_COORD97":2550390.9700000002,"ADDRESS":"安中路四段２９０巷３２５弄２５號","OBJECTID":54343},"geometry":{"x":165114.24000000022,"y":2550390.9700000007}},{"attributes":{"ID":54344,"DIS_CODE":0,"TOWNNAME":"安南區","LI":"溪心里","LIN":"1鄰","STREET":"海環街","SECT":" ","MAREA":" ","LANE":"７１５巷","ALLEY":"１１２弄","HOUSE_NO":"３號","E_COORD97":166369.78,"N_COORD97":2549550.7599999998,"ADDRESS":"海環街７１５巷１１２弄３號","OBJECTID":54344},"geometry":{"x":166369.78000000119,"y":2549550.7599999998}},{"attributes":{"ID":54345,"DIS_CODE":0,"TOWNNAME":"安南區","LI":"溪心里","LIN":"1鄰","STREET":"海環街","SECT":" ","MAREA":" ","LANE":"７１５巷","ALLEY":"８９弄","HOUSE_NO":"１６號","E_COORD97":166346.20000000001,"N_COORD97":2549448.3900000001,"ADDRESS":"海環街７１５巷８９弄１６號","OBJECTID":54345},"geometry":{"x":166346.20000000112,"y":2549448.3900000025}},{"attributes":{"ID":54346,"DIS_CODE":0,"TOWNNAME":"安南區","LI":"溪心里","LIN":"1鄰","STREET":"海環街","SECT":" ","MAREA":" ","LANE":"７１５巷","ALLEY":"８９弄","HOUSE_NO":"２號","E_COORD97":166356.26999999999,"N_COORD97":2549486.8199999998,"ADDRESS":"海環街７１５巷８９弄２號","OBJECTID":54346},"geometry":{"x":166356.26999999955,"y":2549486.8200000003}},{"attributes":{"ID":54347,"DIS_CODE":0,"TOWNNAME":"新市區","LI":"大洲里","LIN":"1鄰","STREET":" ","SECT":" ","MAREA":"大洲","LANE":" ","ALLEY":" ","HOUSE_NO":"１之１２０號","E_COORD97":175223.51000000001,"N_COORD97":2553302.2999999998,"ADDRESS":"大洲１之１２０號","OBJECTID":54347},"geometry":{"x":175223.50999999978,"y":2553302.2999999989}},{"attributes":{"ID":54348,"DIS_CODE":0,"TOWNNAME":"新市區","LI":"大社里","LIN":"1鄰","STREET":" ","SECT":" ","MAREA":"大社","LANE":" ","ALLEY":" ","HOUSE_NO":"１３４之３號","E_COORD97":180207.64999999999,"N_COORD97":2554235.5499999998,"ADDRESS":"大社１３４之３號","OBJECTID":54348},"geometry":{"x":180207.65000000037,"y":2554235.5500000007}},{"attributes":{"ID":54349,"DIS_CODE":0,"TOWNNAME":"安南區","LI":"梅花里","LIN":"1鄰","STREET":"安中路","SECT":"一段","MAREA":" ","LANE":"６１９巷","ALLEY":"３０弄","HOUSE_NO":"４號","E_COORD97":167771.97,"N_COORD97":2549045.3700000001,"ADDRESS":"安中路一段６１９巷３０弄４號","OBJECTID":54349},"geometry":{"x":167771.96999999974,"y":2549045.3700000029}},{"attributes":{"ID":54350,"DIS_CODE":0,"TOWNNAME":"新市區","LI":"大社里","LIN":"1鄰","STREET":" ","SECT":" ","MAREA":"大社","LANE":" ","ALLEY":" ","HOUSE_NO":"６２號","E_COORD97":180326.35000000001,"N_COORD97":2554243,"ADDRESS":"大社６２號","OBJECTID":54350},"geometry":{"x":180326.35000000056,"y":2554243.0000000037}},{"attributes":{"ID":54351,"DIS_CODE":0,"TOWNNAME":"安南區","LI":"梅花里","LIN":"1鄰","STREET":"安中路","SECT":"一段","MAREA":" ","LANE":"６１９巷","ALLEY":"３０弄","HOUSE_NO":"６號","E_COORD97":167767.26999999999,"N_COORD97":2549045.9700000002,"ADDRESS":"安中路一段６１９巷３０弄６號","OBJECTID":54351},"geometry":{"x":167767.27000000048,"y":2549045.9700000007}},{"attributes":{"ID":54352,"DIS_CODE":0,"TOWNNAME":"安南區","LI":"梅花里","LIN":"1鄰","STREET":"安中路","SECT":"一段","MAREA":" ","LANE":"６１９巷","ALLEY":"３０弄","HOUSE_NO":"８號","E_COORD97":167762.57000000001,"N_COORD97":2549047.1400000001,"ADDRESS":"安中路一段６１９巷３０弄８號","OBJECTID":54352},"geometry":{"x":167762.57000000123,"y":2549047.1400000006}},{"attributes":{"ID":54353,"DIS_CODE":0,"TOWNNAME":"仁德區","LI":"保安里","LIN":"1鄰","STREET":"文賢路","SECT":"一段","MAREA":" ","LANE":"５２９巷","ALLEY":"１３弄","HOUSE_NO":"１號","E_COORD97":171171.12,"N_COORD97":2537101.0800000001,"ADDRESS":"文賢路一段５２９巷１３弄１號","OBJECTID":54353},"geometry":{"x":171171.12000000104,"y":2537101.0800000019}},{"attributes":{"ID":54354,"DIS_CODE":0,"TOWNNAME":"新市區","LI":"大社里","LIN":"1鄰","STREET":" ","SECT":" ","MAREA":"大社","LANE":" ","ALLEY":" ","HOUSE_NO":"６５之１號","E_COORD97":180366.92999999999,"N_COORD97":2554231.5499999998,"ADDRESS":"大社６５之１號","OBJECTID":54354},"geometry":{"x":180366.93000000063,"y":2554231.5500000007}},{"attributes":{"ID":54355,"DIS_CODE":0,"TOWNNAME":"新市區","LI":"大社里","LIN":"1鄰","STREET":" ","SECT":" ","MAREA":"大社","LANE":" ","ALLEY":" ","HOUSE_NO":"６５之２號","E_COORD97":180372.01999999999,"N_COORD97":2554216.7999999998,"ADDRESS":"大社６５之２號","OBJECTID":54355},"geometry":{"x":180372.01999999955,"y":2554216.8000000007}},{"attributes":{"ID":54356,"DIS_CODE":0,"TOWNNAME":"仁德區","LI":"成功里","LIN":"1鄰","STREET":"保生東路","SECT":" ","MAREA":" ","LANE":"１３８巷","ALLEY":"２８弄","HOUSE_NO":"６號","E_COORD97":171245.78,"N_COORD97":2539553.6499999999,"ADDRESS":"保生東路１３８巷２８弄６號","OBJECTID":54356},"geometry":{"x":171245.78000000026,"y":2539553.6500000004}},{"attributes":{"ID":54357,"DIS_CODE":0,"TOWNNAME":"仁德區","LI":"成功里","LIN":"1鄰","STREET":"保生東路","SECT":" ","MAREA":" ","LANE":"１３８巷","ALLEY":"２８弄","HOUSE_NO":"２號","E_COORD97":171246.17000000001,"N_COORD97":2539557.8999999999,"ADDRESS":"保生東路１３８巷２８弄２號","OBJECTID":54357},"geometry":{"x":171246.16999999993,"y":2539557.9000000022}},{"attributes":{"ID":54358,"DIS_CODE":0,"TOWNNAME":"仁德區","LI":"成功里","LIN":"1鄰","STREET":"保生東路","SECT":" ","MAREA":" ","LANE":"１３８巷","ALLEY":"５０弄","HOUSE_NO":"６號","E_COORD97":171278.31,"N_COORD97":2539547.6499999999,"ADDRESS":"保生東路１３８巷５０弄６號","OBJECTID":54358},"geometry":{"x":171278.30999999959,"y":2539547.6500000004}},{"attributes":{"ID":54359,"DIS_CODE":0,"TOWNNAME":"仁德區","LI":"成功里","LIN":"1鄰","STREET":"保生東路","SECT":" ","MAREA":" ","LANE":"１３８巷","ALLEY":"２８弄","HOUSE_NO":"３號","E_COORD97":171254.5,"N_COORD97":2539551.6499999999,"ADDRESS":"保生東路１３８巷２８弄３號","OBJECTID":54359},"geometry":{"x":171254.50000000186,"y":2539551.6500000041}},{"attributes":{"ID":54360,"DIS_CODE":0,"TOWNNAME":"仁德區","LI":"成功里","LIN":"1鄰","STREET":"保生東路","SECT":" ","MAREA":" ","LANE":"１３８巷","ALLEY":"５０弄","HOUSE_NO":"２號","E_COORD97":171279.29999999999,"N_COORD97":2539552.1499999999,"ADDRESS":"保生東路１３８巷５０弄２號","OBJECTID":54360},"geometry":{"x":171279.30000000168,"y":2539552.1500000022}},{"attributes":{"ID":54361,"DIS_CODE":0,"TOWNNAME":"仁德區","LI":"成功里","LIN":"1鄰","STREET":"保生東路","SECT":" ","MAREA":" ","LANE":"１３８巷","ALLEY":"２８弄","HOUSE_NO":"１０號","E_COORD97":171229.35999999999,"N_COORD97":2539552.1499999999,"ADDRESS":"保生東路１３８巷２８弄１０號","OBJECTID":54361},"geometry":{"x":171229.36000000127,"y":2539552.1500000022}},{"attributes":{"ID":54362,"DIS_CODE":0,"TOWNNAME":"仁德區","LI":"新田里","LIN":"1鄰","STREET":"新田二街","SECT":" ","MAREA":" ","LANE":"１１６巷","ALLEY":"２５弄","HOUSE_NO":"２３１號","E_COORD97":175210.35000000001,"N_COORD97":2539921.75,"ADDRESS":"新田二街１１６巷２５弄２３１號","OBJECTID":54362},"geometry":{"x":175210.35000000056,"y":2539921.7500000019}},{"attributes":{"ID":54363,"DIS_CODE":0,"TOWNNAME":"仁德區","LI":"新田里","LIN":"1鄰","STREET":"新田二街","SECT":" ","MAREA":" ","LANE":"１１６巷","ALLEY":"２５弄","HOUSE_NO":"２６號","E_COORD97":175014.29000000001,"N_COORD97":2539728.4900000002,"ADDRESS":"新田二街１１６巷２５弄２６號","OBJECTID":54363},"geometry":{"x":175014.2900000019,"y":2539728.4900000002}},{"attributes":{"ID":54364,"DIS_CODE":0,"TOWNNAME":"仁德區","LI":"新田里","LIN":"1鄰","STREET":"新田二街","SECT":" ","MAREA":" ","LANE":"１２０巷","ALLEY":"２２弄","HOUSE_NO":"２９號","E_COORD97":175023.98999999999,"N_COORD97":2539962.9900000002,"ADDRESS":"新田二街１２０巷２２弄２９號","OBJECTID":54364},"geometry":{"x":175023.99000000115,"y":2539962.9900000039}},{"attributes":{"ID":54365,"DIS_CODE":0,"TOWNNAME":"永康區","LI":"中興里","LIN":"8鄰","STREET":"中山東路","SECT":" ","MAREA":" ","LANE":" ","ALLEY":" ","HOUSE_NO":"３８９號","E_COORD97":171951.60000000001,"N_COORD97":2545128.2400000002,"ADDRESS":"中山東路３８９號","OBJECTID":54365},"geometry":{"x":171951.59999999963,"y":2545128.2400000039}},{"attributes":{"ID":54366,"DIS_CODE":0,"TOWNNAME":"永康區","LI":"二王里","LIN":"8鄰","STREET":"二王路","SECT":" ","MAREA":" ","LANE":" ","ALLEY":" ","HOUSE_NO":"２２號","E_COORD97":172995.07999999999,"N_COORD97":2546830,"ADDRESS":"二王路２２號","OBJECTID":54366},"geometry":{"x":172995.08000000194,"y":2546830}},{"attributes":{"ID":54367,"DIS_CODE":0,"TOWNNAME":"永康區","LI":"中興里","LIN":"8鄰","STREET":"中山東路","SECT":" ","MAREA":" ","LANE":" ","ALLEY":" ","HOUSE_NO":"３７９號","E_COORD97":171947.45999999999,"N_COORD97":2545153.9900000002,"ADDRESS":"中山東路３７９號","OBJECTID":54367},"geometry":{"x":171947.45999999996,"y":2545153.9900000021}},{"attributes":{"ID":54368,"DIS_CODE":0,"TOWNNAME":"安南區","LI":"淵西里","LIN":"1鄰","STREET":"安中路","SECT":"四段","MAREA":" ","LANE":"２９０巷","ALLEY":"３２５弄","HOUSE_NO":"１３號","E_COORD97":165151.04000000001,"N_COORD97":2550397.3599999999,"ADDRESS":"安中路四段２９０巷３２５弄１３號","OBJECTID":54368},"geometry":{"x":165151.04000000004,"y":2550397.3599999994}},{"attributes":{"ID":54369,"DIS_CODE":0,"TOWNNAME":"安南區","LI":"淵西里","LIN":"1鄰","STREET":"安中路","SECT":"四段","MAREA":" ","LANE":"２９０巷","ALLEY":"３２５弄","HOUSE_NO":"１１號","E_COORD97":165154.20000000001,"N_COORD97":2550394.4300000002,"ADDRESS":"安中路四段２９０巷３２５弄１１號","OBJECTID":54369},"geometry":{"x":165154.20000000112,"y":2550394.4299999997}},{"attributes":{"ID":54370,"DIS_CODE":0,"TOWNNAME":"北區","LI":"永祥里","LIN":"1鄰","STREET":"大武街","SECT":" ","MAREA":" ","LANE":"５２５巷","ALLEY":"５４弄","HOUSE_NO":"４號","E_COORD97":170084.17999999999,"N_COORD97":2546532.54,"ADDRESS":"大武街５２５巷５４弄４號","OBJECTID":54370},"geometry":{"x":170084.1799999997,"y":2546532.540000001}},{"attributes":{"ID":54371,"DIS_CODE":0,"TOWNNAME":"安南區","LI":"淵西里","LIN":"1鄰","STREET":"安中路","SECT":"四段","MAREA":" ","LANE":"２９０巷","ALLEY":"３２５弄","HOUSE_NO":"１５號","E_COORD97":165149.91,"N_COORD97":2550401.6499999999,"ADDRESS":"安中路四段２９０巷３２５弄１５號","OBJECTID":54371},"geometry":{"x":165149.91000000108,"y":2550401.6500000022}},{"attributes":{"ID":54372,"DIS_CODE":0,"TOWNNAME":"安南區","LI":"淵西里","LIN":"1鄰","STREET":"安中路","SECT":"四段","MAREA":" ","LANE":"２９０巷","ALLEY":"３２５弄","HOUSE_NO":"１７號","E_COORD97":165137.98000000001,"N_COORD97":2550384.0600000001,"ADDRESS":"安中路四段２９０巷３２５弄１７號","OBJECTID":54372},"geometry":{"x":165137.98000000138,"y":2550384.0600000005}},{"attributes":{"ID":54373,"DIS_CODE":0,"TOWNNAME":"安南區","LI":"淵西里","LIN":"1鄰","STREET":"安中路","SECT":"四段","MAREA":" ","LANE":"２９０巷","ALLEY":"３２５弄","HOUSE_NO":"１９號","E_COORD97":165133.89000000001,"N_COORD97":2550381.5499999998,"ADDRESS":"安中路四段２９０巷３２５弄１９號","OBJECTID":54373},"geometry":{"x":165133.8900000006,"y":2550381.5500000045}},{"attributes":{"ID":54374,"DIS_CODE":0,"TOWNNAME":"永康區","LI":"二王里","LIN":"1鄰","STREET":"二王路","SECT":" ","MAREA":" ","LANE":"２７巷","ALLEY":"１２弄","HOUSE_NO":"５號","E_COORD97":173055.04999999999,"N_COORD97":2546773.8500000001,"ADDRESS":"二王路２７巷１２弄５號","OBJECTID":54374},"geometry":{"x":173055.05000000075,"y":2546773.8499999996}},{"attributes":{"ID":54375,"DIS_CODE":0,"TOWNNAME":"安南區","LI":"淵西里","LIN":"1鄰","STREET":"安中路","SECT":"四段","MAREA":" ","LANE":"２９０巷","ALLEY":"３２５弄","HOUSE_NO":"１９號之１","E_COORD97":165129.95999999999,"N_COORD97":2550378.5699999998,"ADDRESS":"安中路四段２９０巷３２５弄１９號之１","OBJECTID":54375},"geometry":{"x":165129.96000000183,"y":2550378.5700000022}},{"attributes":{"ID":54376,"DIS_CODE":0,"TOWNNAME":"安南區","LI":"淵西里","LIN":"1鄰","STREET":"安中路","SECT":"四段","MAREA":" ","LANE":"２９０巷","ALLEY":"３２５弄","HOUSE_NO":"１號","E_COORD97":165163.60000000001,"N_COORD97":2550374.9500000002,"ADDRESS":"安中路四段２９０巷３２５弄１號","OBJECTID":54376},"geometry":{"x":165163.59999999963,"y":2550374.9500000011}},{"attributes":{"ID":54377,"DIS_CODE":0,"TOWNNAME":"安南區","LI":"淵西里","LIN":"1鄰","STREET":"安中路","SECT":"四段","MAREA":" ","LANE":"２９０巷","ALLEY":"３２５弄","HOUSE_NO":"３號","E_COORD97":165161.72,"N_COORD97":2550378.0899999999,"ADDRESS":"安中路四段２９０巷３２５弄３號","OBJECTID":54377},"geometry":{"x":165161.71999999974,"y":2550378.0900000017}},{"attributes":{"ID":54378,"DIS_CODE":0,"TOWNNAME":"安南區","LI":"淵西里","LIN":"1鄰","STREET":"安中路","SECT":"四段","MAREA":" ","LANE":"２９０巷","ALLEY":"３２５弄","HOUSE_NO":"５號","E_COORD97":165160.76999999999,"N_COORD97":2550381.71,"ADDRESS":"安中路四段２９０巷３２５弄５號","OBJECTID":54378},"geometry":{"x":165160.76999999955,"y":2550381.7100000028}},{"attributes":{"ID":54379,"DIS_CODE":0,"TOWNNAME":"安南區","LI":"淵西里","LIN":"1鄰","STREET":"安中路","SECT":"四段","MAREA":" ","LANE":"２９０巷","ALLEY":"３２５弄","HOUSE_NO":"７號","E_COORD97":165157.79000000001,"N_COORD97":2550386.1000000001,"ADDRESS":"安中路四段２９０巷３２５弄７號","OBJECTID":54379},"geometry":{"x":165157.79000000004,"y":2550386.0999999996}},{"attributes":{"ID":54380,"DIS_CODE":0,"TOWNNAME":"中西區","LI":"赤嵌里","LIN":"8鄰","STREET":"公園路","SECT":" ","MAREA":" ","LANE":" ","ALLEY":" ","HOUSE_NO":"１００號","E_COORD97":168678.92999999999,"N_COORD97":2544194.3199999998,"ADDRESS":"公園路１００號","OBJECTID":54380},"geometry":{"x":168678.9299999997,"y":2544194.3200000003}},{"attributes":{"ID":54381,"DIS_CODE":0,"TOWNNAME":"新市區","LI":"大社里","LIN":"1鄰","STREET":" ","SECT":" ","MAREA":"大社","LANE":" ","ALLEY":" ","HOUSE_NO":"１２２號","E_COORD97":180332.64999999999,"N_COORD97":2554268.5,"ADDRESS":"大社１２２號","OBJECTID":54381},"geometry":{"x":180332.65000000037,"y":2554268.5}},{"attributes":{"ID":54382,"DIS_CODE":0,"TOWNNAME":"新市區","LI":"大社里","LIN":"1鄰","STREET":" ","SECT":" ","MAREA":"大社","LANE":" ","ALLEY":" ","HOUSE_NO":"１２７號","E_COORD97":180251.76000000001,"N_COORD97":2554282,"ADDRESS":"大社１２７號","OBJECTID":54382},"geometry":{"x":180251.75999999978,"y":2554282}},{"attributes":{"ID":54383,"DIS_CODE":0,"TOWNNAME":"新市區","LI":"大洲里","LIN":"1鄰","STREET":" ","SECT":" ","MAREA":"大洲","LANE":" ","ALLEY":" ","HOUSE_NO":"１號","E_COORD97":175131.39999999999,"N_COORD97":2552712.75,"ADDRESS":"大洲１號","OBJECTID":54383},"geometry":{"x":175131.4000000013,"y":2552712.7500000019}},{"attributes":{"ID":54384,"DIS_CODE":0,"TOWNNAME":"新市區","LI":"大洲里","LIN":"1鄰","STREET":" ","SECT":" ","MAREA":"大洲","LANE":" ","ALLEY":" ","HOUSE_NO":"５號","E_COORD97":175089.85000000001,"N_COORD97":2552733.25,"ADDRESS":"大洲５號","OBJECTID":54384},"geometry":{"x":175089.85000000056,"y":2552733.2500000019}},{"attributes":{"ID":54385,"DIS_CODE":0,"TOWNNAME":"新市區","LI":"大洲里","LIN":"1鄰","STREET":" ","SECT":" ","MAREA":"大洲","LANE":" ","ALLEY":" ","HOUSE_NO":"４之３號","E_COORD97":175105.88,"N_COORD97":2552724.0499999998,"ADDRESS":"大洲４之３號","OBJECTID":54385},"geometry":{"x":175105.87999999989,"y":2552724.0500000007}},{"attributes":{"ID":54386,"DIS_CODE":0,"TOWNNAME":"新市區","LI":"大社里","LIN":"1鄰","STREET":" ","SECT":" ","MAREA":"大社","LANE":" ","ALLEY":" ","HOUSE_NO":"６６號","E_COORD97":180368.59,"N_COORD97":2554259.25,"ADDRESS":"大社６６號","OBJECTID":54386},"geometry":{"x":180368.58999999985,"y":2554259.2500000019}},{"attributes":{"ID":54387,"DIS_CODE":0,"TOWNNAME":"新市區","LI":"大洲里","LIN":"1鄰","STREET":" ","SECT":" ","MAREA":"大洲","LANE":" ","ALLEY":" ","HOUSE_NO":"５之１號","E_COORD97":175078.92999999999,"N_COORD97":2552733.0499999998,"ADDRESS":"大洲５之１號","OBJECTID":54387},"geometry":{"x":175078.93000000156,"y":2552733.0500000007}},{"attributes":{"ID":54388,"DIS_CODE":0,"TOWNNAME":"新市區","LI":"大社里","LIN":"1鄰","STREET":" ","SECT":" ","MAREA":"大社","LANE":" ","ALLEY":" ","HOUSE_NO":"１３４之６號","E_COORD97":180203.54000000001,"N_COORD97":2554245.5499999998,"ADDRESS":"大社１３４之６號","OBJECTID":54388},"geometry":{"x":180203.54000000097,"y":2554245.5500000007}},{"attributes":{"ID":54389,"DIS_CODE":0,"TOWNNAME":"新市區","LI":"大營里","LIN":"1鄰","STREET":" ","SECT":" ","MAREA":"大營","LANE":" ","ALLEY":" ","HOUSE_NO":"６號","E_COORD97":180168.76999999999,"N_COORD97":2555969,"ADDRESS":"大營６號","OBJECTID":54389},"geometry":{"x":180168.76999999862,"y":2555969.0000000019}},{"attributes":{"ID":54390,"DIS_CODE":0,"TOWNNAME":"新市區","LI":"三舍里","LIN":"1鄰","STREET":" ","SECT":" ","MAREA":"三舍","LANE":" ","ALLEY":" ","HOUSE_NO":"３６之１號","E_COORD97":177918.70000000001,"N_COORD97":2554299.0499999998,"ADDRESS":"三舍３６之１號","OBJECTID":54390},"geometry":{"x":177918.69999999925,"y":2554299.0500000026}},{"attributes":{"ID":54391,"DIS_CODE":0,"TOWNNAME":"新市區","LI":"大營里","LIN":"1鄰","STREET":" ","SECT":" ","MAREA":"大營","LANE":" ","ALLEY":" ","HOUSE_NO":"１８號","E_COORD97":179688.35000000001,"N_COORD97":2555612.5,"ADDRESS":"大營１８號","OBJECTID":54391},"geometry":{"x":179688.34999999963,"y":2555612.5000000037}},{"attributes":{"ID":54392,"DIS_CODE":0,"TOWNNAME":"新市區","LI":"大洲里","LIN":"1鄰","STREET":" ","SECT":" ","MAREA":"大洲","LANE":" ","ALLEY":" ","HOUSE_NO":"６號","E_COORD97":175090.79000000001,"N_COORD97":2552696.25,"ADDRESS":"大洲６號","OBJECTID":54392},"geometry":{"x":175090.79000000097,"y":2552696.2500000019}},{"attributes":{"ID":54393,"DIS_CODE":0,"TOWNNAME":"新市區","LI":"大營里","LIN":"1鄰","STREET":" ","SECT":" ","MAREA":"大營","LANE":" ","ALLEY":" ","HOUSE_NO":"３之１０號","E_COORD97":179960.92999999999,"N_COORD97":2555557.5499999998,"ADDRESS":"大營３之１０號","OBJECTID":54393},"geometry":{"x":179960.9299999997,"y":2555557.5500000007}},{"attributes":{"ID":54394,"DIS_CODE":0,"TOWNNAME":"新市區","LI":"三舍里","LIN":"1鄰","STREET":" ","SECT":" ","MAREA":"三舍","LANE":" ","ALLEY":" ","HOUSE_NO":"３２之４號","E_COORD97":177939.62,"N_COORD97":2554243.7999999998,"ADDRESS":"三舍３２之４號","OBJECTID":54394},"geometry":{"x":177939.62000000197,"y":2554243.8000000007}},{"attributes":{"ID":54395,"DIS_CODE":0,"TOWNNAME":"新市區","LI":"三舍里","LIN":"1鄰","STREET":" ","SECT":" ","MAREA":"三舍","LANE":" ","ALLEY":" ","HOUSE_NO":"１６號","E_COORD97":177776.20999999999,"N_COORD97":2554267.5,"ADDRESS":"三舍１６號","OBJECTID":54395},"geometry":{"x":177776.21000000183,"y":2554267.5000000019}},{"attributes":{"ID":54396,"DIS_CODE":0,"TOWNNAME":"新市區","LI":"大洲里","LIN":"1鄰","STREET":" ","SECT":" ","MAREA":"大洲","LANE":" ","ALLEY":" ","HOUSE_NO":"１之２７號","E_COORD97":175199.20999999999,"N_COORD97":2552651.2999999998,"ADDRESS":"大洲１之２７號","OBJECTID":54396},"geometry":{"x":175199.20999999996,"y":2552651.2999999989}},{"attributes":{"ID":54397,"DIS_CODE":0,"TOWNNAME":"新市區","LI":"三舍里","LIN":"1鄰","STREET":" ","SECT":" ","MAREA":"三舍","LANE":" ","ALLEY":" ","HOUSE_NO":"８之３號","E_COORD97":177778.73999999999,"N_COORD97":2554189.0499999998,"ADDRESS":"三舍８之３號","OBJECTID":54397},"geometry":{"x":177778.74000000022,"y":2554189.0500000045}},{"attributes":{"ID":54398,"DIS_CODE":0,"TOWNNAME":"新市區","LI":"大營里","LIN":"1鄰","STREET":" ","SECT":" ","MAREA":"大營","LANE":" ","ALLEY":" ","HOUSE_NO":"５之１號","E_COORD97":180236.73999999999,"N_COORD97":2556025.5499999998,"ADDRESS":"大營５之１號","OBJECTID":54398},"geometry":{"x":180236.74000000022,"y":2556025.5500000007}},{"attributes":{"ID":54399,"DIS_CODE":0,"TOWNNAME":"新市區","LI":"三舍里","LIN":"1鄰","STREET":" ","SECT":" ","MAREA":"三舍","LANE":" ","ALLEY":" ","HOUSE_NO":"４０之２號","E_COORD97":177892.53,"N_COORD97":2554373.7999999998,"ADDRESS":"三舍４０之２號","OBJECTID":54399},"geometry":{"x":177892.53000000026,"y":2554373.8000000045}},{"attributes":{"ID":54400,"DIS_CODE":0,"TOWNNAME":"新市區","LI":"大社里","LIN":"1鄰","STREET":" ","SECT":" ","MAREA":"大社","LANE":" ","ALLEY":" ","HOUSE_NO":"３５號","E_COORD97":180226.81,"N_COORD97":2553971,"ADDRESS":"大社３５號","OBJECTID":54400},"geometry":{"x":180226.81000000052,"y":2553971}}]}