{"displayFieldName":"TOWNNAME","fieldAliases":{"ID":"ID","DIS_CODE":"DIS_CODE","TOWNNAME":"TOWNNAME","LI":"LI","LIN":"LIN","STREET":"STREET","SECT":"SECT","MAREA":"MAREA","LANE":"LANE","ALLEY":"ALLEY","HOUSE_NO":"HOUSE_NO","E_COORD97":"E_COORD97","N_COORD97":"N_COORD97","ADDRESS":"ADDRESS","OBJECTID":"OBJECTID"},"geometryType":"esriGeometryPoint","spatialReference":{"wkid":102443,"latestWkid":3826},"fields":[{"name":"ID","type":"esriFieldTypeDouble","alias":"ID"},{"name":"DIS_CODE","type":"esriFieldTypeInteger","alias":"DIS_CODE"},{"name":"TOWNNAME","type":"esriFieldTypeString","alias":"TOWNNAME","length":8},{"name":"LI","type":"esriFieldTypeString","alias":"LI","length":8},{"name":"LIN","type":"esriFieldTypeString","alias":"LIN","length":12},{"name":"STREET","type":"esriFieldTypeString","alias":"STREET","length":20},{"name":"SECT","type":"esriFieldTypeString","alias":"SECT","length":8},{"name":"MAREA","type":"esriFieldTypeString","alias":"MAREA","length":12},{"name":"LANE","type":"esriFieldTypeString","alias":"LANE","length":10},{"name":"ALLEY","type":"esriFieldTypeString","alias":"ALLEY","length":10},{"name":"HOUSE_NO","type":"esriFieldTypeString","alias":"HOUSE_NO","length":20},{"name":"E_COORD97","type":"esriFieldTypeDouble","alias":"E_COORD97"},{"name":"N_COORD97","type":"esriFieldTypeDouble","alias":"N_COORD97"},{"name":"ADDRESS","type":"esriFieldTypeString","alias":"ADDRESS","length":50},{"name":"OBJECTID","type":"esriFieldTypeOID","alias":"OBJECTID"}],"features":[{"attributes":{"ID":632628,"DIS_CODE":0,"TOWNNAME":"歸仁區","LI":"八甲里","LIN":"25鄰","STREET":"忠孝北路","SECT":" ","MAREA":" ","LANE":" ","ALLEY":" ","HOUSE_NO":"２６４號","E_COORD97":177990.92999999999,"N_COORD97":2541395.25,"ADDRESS":"忠孝北路２６４號","OBJECTID":632601},"geometry":{"x":177990.9299999997,"y":2541395.2500000037}},{"attributes":{"ID":632629,"DIS_CODE":0,"TOWNNAME":"南區","LI":"永寧里","LIN":"4鄰","STREET":"灣裡路","SECT":" ","MAREA":" ","LANE":" ","ALLEY":" ","HOUSE_NO":"１６４號","E_COORD97":166027.14000000001,"N_COORD97":2536659.8799999999,"ADDRESS":"灣裡路１６４號","OBJECTID":632602},"geometry":{"x":166027.1400000006,"y":2536659.8799999971}},{"attributes":{"ID":632630,"DIS_CODE":0,"TOWNNAME":"南區","LI":"文南里","LIN":"20鄰","STREET":"南功街","SECT":" ","MAREA":" ","LANE":" ","ALLEY":" ","HOUSE_NO":"３６號","E_COORD97":166508.03,"N_COORD97":2542667.5699999998,"ADDRESS":"南功街３６號","OBJECTID":632603},"geometry":{"x":166508.03000000212,"y":2542667.5700000003}},{"attributes":{"ID":632631,"DIS_CODE":0,"TOWNNAME":"楠西區","LI":"楠西里","LIN":"25鄰","STREET":"博愛路","SECT":" ","MAREA":" ","LANE":" ","ALLEY":" ","HOUSE_NO":"８０號","E_COORD97":197296.32000000001,"N_COORD97":2563467.2799999998,"ADDRESS":"博愛路８０號","OBJECTID":632604},"geometry":{"x":197296.32000000123,"y":2563467.2799999993}},{"attributes":{"ID":632632,"DIS_CODE":0,"TOWNNAME":"南區","LI":"大成里","LIN":"1鄰","STREET":"健康路","SECT":"一段","MAREA":" ","LANE":" ","ALLEY":" ","HOUSE_NO":"３３５號","E_COORD97":168063.60999999999,"N_COORD97":2542428.6099999999,"ADDRESS":"健康路一段３３５號","OBJECTID":632605},"geometry":{"x":168063.6099999994,"y":2542428.6099999994}},{"attributes":{"ID":632633,"DIS_CODE":0,"TOWNNAME":"南區","LI":"大成里","LIN":"1鄰","STREET":"健康路","SECT":"一段","MAREA":" ","LANE":" ","ALLEY":" ","HOUSE_NO":"３３７號","E_COORD97":168055.70000000001,"N_COORD97":2542425.0099999998,"ADDRESS":"健康路一段３３７號","OBJECTID":632606},"geometry":{"x":168055.70000000019,"y":2542425.0100000016}},{"attributes":{"ID":632634,"DIS_CODE":0,"TOWNNAME":"南區","LI":"大成里","LIN":"1鄰","STREET":"水交社路","SECT":" ","MAREA":" ","LANE":" ","ALLEY":" ","HOUSE_NO":"３６２號","E_COORD97":168055.92000000001,"N_COORD97":2542411.2599999998,"ADDRESS":"水交社路３６２號","OBJECTID":632607},"geometry":{"x":168055.91999999993,"y":2542411.2599999998}},{"attributes":{"ID":632635,"DIS_CODE":0,"TOWNNAME":"南區","LI":"大成里","LIN":"1鄰","STREET":"健康路","SECT":"一段","MAREA":" ","LANE":" ","ALLEY":" ","HOUSE_NO":"３４５號","E_COORD97":168023.48000000001,"N_COORD97":2542432.1099999999,"ADDRESS":"健康路一段３４５號","OBJECTID":632608},"geometry":{"x":168023.48000000045,"y":2542432.1099999994}},{"attributes":{"ID":632636,"DIS_CODE":0,"TOWNNAME":"南區","LI":"大成里","LIN":"1鄰","STREET":"健康路","SECT":"一段","MAREA":" ","LANE":" ","ALLEY":" ","HOUSE_NO":"３５５號","E_COORD97":167995.31,"N_COORD97":2542432.1099999999,"ADDRESS":"健康路一段３５５號","OBJECTID":632609},"geometry":{"x":167995.30999999959,"y":2542432.1099999994}},{"attributes":{"ID":632637,"DIS_CODE":0,"TOWNNAME":"南區","LI":"大林里","LIN":"13鄰","STREET":"國民路","SECT":" ","MAREA":" ","LANE":" ","ALLEY":" ","HOUSE_NO":"５８１號","E_COORD97":168470.19,"N_COORD97":2541578.23,"ADDRESS":"國民路５８１號","OBJECTID":632610},"geometry":{"x":168470.19000000227,"y":2541578.2300000004}},{"attributes":{"ID":632638,"DIS_CODE":0,"TOWNNAME":"楠西區","LI":"楠西里","LIN":"20鄰","STREET":"民族路","SECT":" ","MAREA":" ","LANE":" ","ALLEY":" ","HOUSE_NO":"３９號","E_COORD97":197034.64000000001,"N_COORD97":2563916.29,"ADDRESS":"民族路３９號","OBJECTID":632611},"geometry":{"x":197034.63999999966,"y":2563916.2900000028}},{"attributes":{"ID":632639,"DIS_CODE":0,"TOWNNAME":"南區","LI":"大忠里","LIN":"6鄰","STREET":"公英一街","SECT":" ","MAREA":" ","LANE":" ","ALLEY":" ","HOUSE_NO":"３４號","E_COORD97":169386.42999999999,"N_COORD97":2541273.5699999998,"ADDRESS":"公英一街３４號","OBJECTID":632612},"geometry":{"x":169386.42999999877,"y":2541273.5700000003}},{"attributes":{"ID":632640,"DIS_CODE":0,"TOWNNAME":"南區","LI":"大忠里","LIN":" ","STREET":"中華南路","SECT":"一段","MAREA":" ","LANE":" ","ALLEY":" ","HOUSE_NO":"７３號","E_COORD97":169315.06,"N_COORD97":2541346.7999999998,"ADDRESS":"中華南路一段７３號","OBJECTID":632613},"geometry":{"x":169315.06000000052,"y":2541346.8000000007}},{"attributes":{"ID":632641,"DIS_CODE":0,"TOWNNAME":"南區","LI":"大忠里","LIN":" ","STREET":"中華南路","SECT":"一段","MAREA":" ","LANE":" ","ALLEY":" ","HOUSE_NO":"１２３號","E_COORD97":169207.03,"N_COORD97":2541245.3900000001,"ADDRESS":"中華南路一段１２３號","OBJECTID":632614},"geometry":{"x":169207.03000000119,"y":2541245.3900000043}},{"attributes":{"ID":632642,"DIS_CODE":0,"TOWNNAME":"南區","LI":"大忠里","LIN":"6鄰","STREET":"公英一街","SECT":" ","MAREA":" ","LANE":" ","ALLEY":" ","HOUSE_NO":"３２號","E_COORD97":169389.63,"N_COORD97":2541274,"ADDRESS":"公英一街３２號","OBJECTID":632615},"geometry":{"x":169389.62999999989,"y":2541274}},{"attributes":{"ID":632643,"DIS_CODE":0,"TOWNNAME":"南區","LI":"大忠里","LIN":"6鄰","STREET":"公英一街","SECT":" ","MAREA":" ","LANE":" ","ALLEY":" ","HOUSE_NO":"３６號","E_COORD97":169383.64999999999,"N_COORD97":2541272.9300000002,"ADDRESS":"公英一街３６號","OBJECTID":632616},"geometry":{"x":169383.65000000037,"y":2541272.9300000016}},{"attributes":{"ID":632644,"DIS_CODE":0,"TOWNNAME":"南區","LI":"大忠里","LIN":"6鄰","STREET":"公英一街","SECT":" ","MAREA":" ","LANE":" ","ALLEY":" ","HOUSE_NO":"３８號","E_COORD97":169380.23999999999,"N_COORD97":2541272.2999999998,"ADDRESS":"公英一街３８號","OBJECTID":632617},"geometry":{"x":169380.24000000115,"y":2541272.3000000007}},{"attributes":{"ID":632645,"DIS_CODE":0,"TOWNNAME":"南區","LI":"大林里","LIN":"4鄰","STREET":"大同路","SECT":"二段","MAREA":" ","LANE":" ","ALLEY":" ","HOUSE_NO":"４１０號","E_COORD97":169421.20000000001,"N_COORD97":2541672.6899999999,"ADDRESS":"大同路二段４１０號","OBJECTID":632618},"geometry":{"x":169421.20000000112,"y":2541672.6899999976}},{"attributes":{"ID":632646,"DIS_CODE":0,"TOWNNAME":"南區","LI":"大林里","LIN":"4鄰","STREET":"大同路","SECT":"二段","MAREA":" ","LANE":" ","ALLEY":" ","HOUSE_NO":"４２６號","E_COORD97":169422.81,"N_COORD97":2541628.6499999999,"ADDRESS":"大同路二段４２６號","OBJECTID":632619},"geometry":{"x":169422.81000000145,"y":2541628.6500000004}},{"attributes":{"ID":632647,"DIS_CODE":0,"TOWNNAME":"楠西區","LI":"楠西里","LIN":"20鄰","STREET":"民族路","SECT":" ","MAREA":" ","LANE":" ","ALLEY":" ","HOUSE_NO":"５８號","E_COORD97":197017.34,"N_COORD97":2563972.29,"ADDRESS":"民族路５８號","OBJECTID":632620},"geometry":{"x":197017.34000000078,"y":2563972.2899999991}},{"attributes":{"ID":632648,"DIS_CODE":0,"TOWNNAME":"南區","LI":"大林里","LIN":"1鄰","STREET":"大同路","SECT":"二段","MAREA":" ","LANE":" ","ALLEY":" ","HOUSE_NO":"３３８號","E_COORD97":169386.63,"N_COORD97":2541841.0600000001,"ADDRESS":"大同路二段３３８號","OBJECTID":632621},"geometry":{"x":169386.62999999989,"y":2541841.0600000042}},{"attributes":{"ID":632649,"DIS_CODE":0,"TOWNNAME":"南區","LI":"大林里","LIN":"1鄰","STREET":"大同路","SECT":"二段","MAREA":" ","LANE":" ","ALLEY":" ","HOUSE_NO":"３４０號","E_COORD97":169387.42000000001,"N_COORD97":2541836.9399999999,"ADDRESS":"大同路二段３４０號","OBJECTID":632622},"geometry":{"x":169387.42000000086,"y":2541836.9399999995}},{"attributes":{"ID":632650,"DIS_CODE":0,"TOWNNAME":"南區","LI":"大林里","LIN":"1鄰","STREET":"大同路","SECT":"二段","MAREA":" ","LANE":" ","ALLEY":" ","HOUSE_NO":"３４２號","E_COORD97":169391.23000000001,"N_COORD97":2541831.8599999999,"ADDRESS":"大同路二段３４２號","OBJECTID":632623},"geometry":{"x":169391.23000000045,"y":2541831.8600000013}},{"attributes":{"ID":632651,"DIS_CODE":0,"TOWNNAME":"南區","LI":"大林里","LIN":"1鄰","STREET":"大同路","SECT":"二段","MAREA":" ","LANE":" ","ALLEY":" ","HOUSE_NO":"３４４號","E_COORD97":169392.66,"N_COORD97":2541828.6899999999,"ADDRESS":"大同路二段３４４號","OBJECTID":632624},"geometry":{"x":169392.66000000108,"y":2541828.6899999976}},{"attributes":{"ID":632652,"DIS_CODE":0,"TOWNNAME":"南區","LI":"大林里","LIN":"1鄰","STREET":"大同路","SECT":"二段","MAREA":" ","LANE":" ","ALLEY":" ","HOUSE_NO":"３４６號","E_COORD97":169393.76999999999,"N_COORD97":2541824.25,"ADDRESS":"大同路二段３４６號","OBJECTID":632625},"geometry":{"x":169393.76999999955,"y":2541824.25}},{"attributes":{"ID":632653,"DIS_CODE":0,"TOWNNAME":"南區","LI":"大林里","LIN":"1鄰","STREET":"大同路","SECT":"二段","MAREA":" ","LANE":" ","ALLEY":" ","HOUSE_NO":"３４８號","E_COORD97":169394.41,"N_COORD97":2541820.6000000001,"ADDRESS":"大同路二段３４８號","OBJECTID":632626},"geometry":{"x":169394.41000000108,"y":2541820.6000000015}},{"attributes":{"ID":632654,"DIS_CODE":0,"TOWNNAME":"楠西區","LI":"楠西里","LIN":"17鄰","STREET":"中正路","SECT":" ","MAREA":" ","LANE":" ","ALLEY":" ","HOUSE_NO":"８５號","E_COORD97":197235.70999999999,"N_COORD97":2564030.25,"ADDRESS":"中正路８５號","OBJECTID":632627},"geometry":{"x":197235.71000000089,"y":2564030.2500000019}},{"attributes":{"ID":632655,"DIS_CODE":0,"TOWNNAME":"楠西區","LI":"楠西里","LIN":"25鄰","STREET":"茄拔路","SECT":" ","MAREA":" ","LANE":" ","ALLEY":" ","HOUSE_NO":"４２號","E_COORD97":197144.39000000001,"N_COORD97":2563784.2799999998,"ADDRESS":"茄拔路４２號","OBJECTID":632628},"geometry":{"x":197144.3900000006,"y":2563784.2800000031}},{"attributes":{"ID":632656,"DIS_CODE":0,"TOWNNAME":"楠西區","LI":"楠西里","LIN":"25鄰","STREET":"茄拔路","SECT":" ","MAREA":" ","LANE":" ","ALLEY":" ","HOUSE_NO":"４６號","E_COORD97":197148.69,"N_COORD97":2563784.2799999998,"ADDRESS":"茄拔路４６號","OBJECTID":632629},"geometry":{"x":197148.69000000041,"y":2563784.2800000031}},{"attributes":{"ID":632657,"DIS_CODE":0,"TOWNNAME":"楠西區","LI":"楠西里","LIN":"13鄰","STREET":"中正路","SECT":" ","MAREA":" ","LANE":" ","ALLEY":" ","HOUSE_NO":"２０號","E_COORD97":197095.60999999999,"N_COORD97":2564133.25,"ADDRESS":"中正路２０號","OBJECTID":632630},"geometry":{"x":197095.6100000022,"y":2564133.25}},{"attributes":{"ID":632658,"DIS_CODE":0,"TOWNNAME":"楠西區","LI":"楠西里","LIN":"22鄰","STREET":"四維路","SECT":" ","MAREA":" ","LANE":" ","ALLEY":" ","HOUSE_NO":"２號","E_COORD97":197341.95999999999,"N_COORD97":2563495.25,"ADDRESS":"四維路２號","OBJECTID":632631},"geometry":{"x":197341.96000000183,"y":2563495.25}},{"attributes":{"ID":632659,"DIS_CODE":0,"TOWNNAME":"楠西區","LI":"東勢里","LIN":"13鄰","STREET":"水庫路","SECT":" ","MAREA":" ","LANE":" ","ALLEY":" ","HOUSE_NO":"１０９號","E_COORD97":197744.97,"N_COORD97":2563867.25,"ADDRESS":"水庫路１０９號","OBJECTID":632632},"geometry":{"x":197744.96999999974,"y":2563867.2500000019}},{"attributes":{"ID":632660,"DIS_CODE":0,"TOWNNAME":"楠西區","LI":"楠西里","LIN":"13鄰","STREET":"中正路","SECT":" ","MAREA":" ","LANE":" ","ALLEY":" ","HOUSE_NO":"８號之２","E_COORD97":197076.82999999999,"N_COORD97":2564109.2999999998,"ADDRESS":"中正路８號之２","OBJECTID":632633},"geometry":{"x":197076.83000000194,"y":2564109.3000000007}},{"attributes":{"ID":632661,"DIS_CODE":0,"TOWNNAME":"楠西區","LI":"東勢里","LIN":"14鄰","STREET":"仁愛路","SECT":" ","MAREA":" ","LANE":" ","ALLEY":" ","HOUSE_NO":"４１號","E_COORD97":197537.84,"N_COORD97":2563833.2799999998,"ADDRESS":"仁愛路４１號","OBJECTID":632634},"geometry":{"x":197537.84000000078,"y":2563833.2800000012}},{"attributes":{"ID":632662,"DIS_CODE":0,"TOWNNAME":"楠西區","LI":"楠西里","LIN":"25鄰","STREET":"四維路","SECT":" ","MAREA":" ","LANE":" ","ALLEY":" ","HOUSE_NO":"１１號","E_COORD97":197324.70999999999,"N_COORD97":2563495.25,"ADDRESS":"四維路１１號","OBJECTID":632635},"geometry":{"x":197324.70999999996,"y":2563495.25}},{"attributes":{"ID":632663,"DIS_CODE":0,"TOWNNAME":"楠西區","LI":"楠西里","LIN":"25鄰","STREET":"四維路","SECT":" ","MAREA":" ","LANE":" ","ALLEY":" ","HOUSE_NO":"１７號","E_COORD97":197324.10999999999,"N_COORD97":2563510.25,"ADDRESS":"四維路１７號","OBJECTID":632636},"geometry":{"x":197324.11000000034,"y":2563510.2499999981}},{"attributes":{"ID":632664,"DIS_CODE":0,"TOWNNAME":"楠西區","LI":"東勢里","LIN":"4鄰","STREET":"民生路","SECT":" ","MAREA":" ","LANE":" ","ALLEY":" ","HOUSE_NO":"５８號","E_COORD97":197430.14000000001,"N_COORD97":2564097.29,"ADDRESS":"民生路５８號","OBJECTID":632637},"geometry":{"x":197430.13999999966,"y":2564097.290000001}},{"attributes":{"ID":632665,"DIS_CODE":0,"TOWNNAME":"楠西區","LI":"楠西里","LIN":"20鄰","STREET":"民族路","SECT":" ","MAREA":" ","LANE":" ","ALLEY":" ","HOUSE_NO":"４９號","E_COORD97":197035.44,"N_COORD97":2563939.29,"ADDRESS":"民族路４９號","OBJECTID":632638},"geometry":{"x":197035.44000000041,"y":2563939.2899999991}},{"attributes":{"ID":632666,"DIS_CODE":0,"TOWNNAME":"楠西區","LI":"東勢里","LIN":"17鄰","STREET":"信義路","SECT":" ","MAREA":" ","LANE":" ","ALLEY":" ","HOUSE_NO":"８３號","E_COORD97":197605.62,"N_COORD97":2563580.27,"ADDRESS":"信義路８３號","OBJECTID":632639},"geometry":{"x":197605.62000000197,"y":2563580.2699999996}},{"attributes":{"ID":632667,"DIS_CODE":0,"TOWNNAME":"楠西區","LI":"楠西里","LIN":"25鄰","STREET":"四維路","SECT":" ","MAREA":" ","LANE":" ","ALLEY":" ","HOUSE_NO":"６９號","E_COORD97":197295.31,"N_COORD97":2563661.25,"ADDRESS":"四維路６９號","OBJECTID":632640},"geometry":{"x":197295.31000000052,"y":2563661.2500000019}},{"attributes":{"ID":632668,"DIS_CODE":0,"TOWNNAME":"楠西區","LI":"東勢里","LIN":"4鄰","STREET":"民生路","SECT":" ","MAREA":" ","LANE":" ","ALLEY":" ","HOUSE_NO":"８１號","E_COORD97":197456.04000000001,"N_COORD97":2564167.29,"ADDRESS":"民生路８１號","OBJECTID":632641},"geometry":{"x":197456.04000000004,"y":2564167.290000001}},{"attributes":{"ID":632669,"DIS_CODE":0,"TOWNNAME":"楠西區","LI":"楠西里","LIN":"20鄰","STREET":"民族路","SECT":" ","MAREA":" ","LANE":" ","ALLEY":" ","HOUSE_NO":"６８號","E_COORD97":197017.04000000001,"N_COORD97":2563995.29,"ADDRESS":"民族路６８號","OBJECTID":632642},"geometry":{"x":197017.04000000004,"y":2563995.290000001}},{"attributes":{"ID":632670,"DIS_CODE":0,"TOWNNAME":"楠西區","LI":"楠西里","LIN":"25鄰","STREET":"四維路","SECT":" ","MAREA":" ","LANE":" ","ALLEY":" ","HOUSE_NO":"１號","E_COORD97":197319.35999999999,"N_COORD97":2563468.25,"ADDRESS":"四維路１號","OBJECTID":632643},"geometry":{"x":197319.3600000022,"y":2563468.25}},{"attributes":{"ID":632671,"DIS_CODE":0,"TOWNNAME":"楠西區","LI":"東勢里","LIN":"4鄰","STREET":"民生路","SECT":" ","MAREA":" ","LANE":" ","ALLEY":" ","HOUSE_NO":"６７號","E_COORD97":197467.23999999999,"N_COORD97":2564134.29,"ADDRESS":"民生路６７號","OBJECTID":632644},"geometry":{"x":197467.24000000022,"y":2564134.290000001}},{"attributes":{"ID":632672,"DIS_CODE":0,"TOWNNAME":"楠西區","LI":"楠西里","LIN":"17鄰","STREET":"中華路","SECT":" ","MAREA":" ","LANE":" ","ALLEY":" ","HOUSE_NO":"７號","E_COORD97":197277.16,"N_COORD97":2564036.25,"ADDRESS":"中華路７號","OBJECTID":632645},"geometry":{"x":197277.16000000108,"y":2564036.2500000019}},{"attributes":{"ID":632673,"DIS_CODE":0,"TOWNNAME":"楠西區","LI":"楠西里","LIN":"26鄰","STREET":"茄拔路","SECT":" ","MAREA":" ","LANE":" ","ALLEY":" ","HOUSE_NO":"２２號","E_COORD97":197103.19,"N_COORD97":2563790.2799999998,"ADDRESS":"茄拔路２２號","OBJECTID":632646},"geometry":{"x":197103.19000000041,"y":2563790.2799999993}},{"attributes":{"ID":632674,"DIS_CODE":0,"TOWNNAME":"楠西區","LI":"楠西里","LIN":"25鄰","STREET":"四維路","SECT":" ","MAREA":" ","LANE":" ","ALLEY":" ","HOUSE_NO":"１５號","E_COORD97":197324.31,"N_COORD97":2563505.25,"ADDRESS":"四維路１５號","OBJECTID":632647},"geometry":{"x":197324.31000000052,"y":2563505.2500000019}},{"attributes":{"ID":632675,"DIS_CODE":0,"TOWNNAME":"楠西區","LI":"東勢里","LIN":"4鄰","STREET":"民生路","SECT":" ","MAREA":" ","LANE":" ","ALLEY":" ","HOUSE_NO":"５３號","E_COORD97":197465.64000000001,"N_COORD97":2564087.29,"ADDRESS":"民生路５３號","OBJECTID":632648},"geometry":{"x":197465.63999999966,"y":2564087.290000001}},{"attributes":{"ID":632676,"DIS_CODE":0,"TOWNNAME":"楠西區","LI":"東勢里","LIN":"4鄰","STREET":"東勢路","SECT":" ","MAREA":" ","LANE":" ","ALLEY":" ","HOUSE_NO":"１５０號","E_COORD97":197418.67000000001,"N_COORD97":2564045.29,"ADDRESS":"東勢路１５０號","OBJECTID":632649},"geometry":{"x":197418.67000000086,"y":2564045.290000001}},{"attributes":{"ID":632677,"DIS_CODE":0,"TOWNNAME":"楠西區","LI":"楠西里","LIN":"20鄰","STREET":"民族路","SECT":" ","MAREA":" ","LANE":" ","ALLEY":" ","HOUSE_NO":"６４號","E_COORD97":197016.73999999999,"N_COORD97":2563986.29,"ADDRESS":"民族路６４號","OBJECTID":632650},"geometry":{"x":197016.74000000115,"y":2563986.2899999991}},{"attributes":{"ID":632678,"DIS_CODE":0,"TOWNNAME":"楠西區","LI":"楠西里","LIN":"20鄰","STREET":"民族路","SECT":" ","MAREA":" ","LANE":" ","ALLEY":" ","HOUSE_NO":"７０號","E_COORD97":197016.84,"N_COORD97":2564000.29,"ADDRESS":"民族路７０號","OBJECTID":632651},"geometry":{"x":197016.83999999985,"y":2564000.2899999991}},{"attributes":{"ID":632679,"DIS_CODE":0,"TOWNNAME":"楠西區","LI":"楠西里","LIN":"25鄰","STREET":"四維路","SECT":" ","MAREA":" ","LANE":" ","ALLEY":" ","HOUSE_NO":"９５號","E_COORD97":197314.91,"N_COORD97":2563750.25,"ADDRESS":"四維路９５號","OBJECTID":632652},"geometry":{"x":197314.91000000015,"y":2563750.25}},{"attributes":{"ID":632680,"DIS_CODE":0,"TOWNNAME":"楠西區","LI":"楠西里","LIN":"25鄰","STREET":"四維路","SECT":" ","MAREA":" ","LANE":" ","ALLEY":" ","HOUSE_NO":"２５號","E_COORD97":197322.91,"N_COORD97":2563537.25,"ADDRESS":"四維路２５號","OBJECTID":632653},"geometry":{"x":197322.91000000108,"y":2563537.25}},{"attributes":{"ID":632681,"DIS_CODE":0,"TOWNNAME":"楠西區","LI":"楠西里","LIN":"20鄰","STREET":"民族路","SECT":" ","MAREA":" ","LANE":" ","ALLEY":" ","HOUSE_NO":"３３號","E_COORD97":197032.64000000001,"N_COORD97":2563899.29,"ADDRESS":"民族路３３號","OBJECTID":632654},"geometry":{"x":197032.6400000006,"y":2563899.2900000028}},{"attributes":{"ID":632682,"DIS_CODE":0,"TOWNNAME":"楠西區","LI":"楠西里","LIN":"18鄰","STREET":"中正路","SECT":" ","MAREA":" ","LANE":" ","ALLEY":" ","HOUSE_NO":"５２號","E_COORD97":197192.10999999999,"N_COORD97":2564085.25,"ADDRESS":"中正路５２號","OBJECTID":632655},"geometry":{"x":197192.1100000022,"y":2564085.25}},{"attributes":{"ID":632683,"DIS_CODE":0,"TOWNNAME":"楠西區","LI":"楠西里","LIN":"18鄰","STREET":"中正路","SECT":" ","MAREA":" ","LANE":" ","ALLEY":" ","HOUSE_NO":"５４號","E_COORD97":197195.10999999999,"N_COORD97":2564081.25,"ADDRESS":"中正路５４號","OBJECTID":632656},"geometry":{"x":197195.11000000034,"y":2564081.2500000019}},{"attributes":{"ID":632684,"DIS_CODE":0,"TOWNNAME":"楠西區","LI":"楠西里","LIN":"25鄰","STREET":"茄拔路","SECT":" ","MAREA":" ","LANE":" ","ALLEY":" ","HOUSE_NO":"４０號","E_COORD97":197139.89000000001,"N_COORD97":2563784.2799999998,"ADDRESS":"茄拔路４０號","OBJECTID":632657},"geometry":{"x":197139.88999999966,"y":2563784.2800000031}},{"attributes":{"ID":632685,"DIS_CODE":0,"TOWNNAME":"楠西區","LI":"楠西里","LIN":"25鄰","STREET":"茄拔路","SECT":" ","MAREA":" ","LANE":" ","ALLEY":" ","HOUSE_NO":"１５２號","E_COORD97":197311.34,"N_COORD97":2563776.2799999998,"ADDRESS":"茄拔路１５２號","OBJECTID":632658},"geometry":{"x":197311.33999999985,"y":2563776.2799999993}},{"attributes":{"ID":632686,"DIS_CODE":0,"TOWNNAME":"楠西區","LI":"東勢里","LIN":"13鄰","STREET":"水庫路","SECT":" ","MAREA":" ","LANE":" ","ALLEY":" ","HOUSE_NO":"１０９號之１０","E_COORD97":197857,"N_COORD97":2563936.2999999998,"ADDRESS":"水庫路１０９號之１０","OBJECTID":632659},"geometry":{"x":197856.99999999907,"y":2563936.3000000026}},{"attributes":{"ID":632687,"DIS_CODE":0,"TOWNNAME":"楠西區","LI":"東勢里","LIN":"4鄰","STREET":"民生路","SECT":" ","MAREA":" ","LANE":" ","ALLEY":" ","HOUSE_NO":"８９號","E_COORD97":197449.73999999999,"N_COORD97":2564200.29,"ADDRESS":"民生路８９號","OBJECTID":632660},"geometry":{"x":197449.74000000022,"y":2564200.2899999991}},{"attributes":{"ID":632688,"DIS_CODE":0,"TOWNNAME":"楠西區","LI":"楠西里","LIN":"20鄰","STREET":"民族路","SECT":" ","MAREA":" ","LANE":" ","ALLEY":" ","HOUSE_NO":"６６號","E_COORD97":197017.04000000001,"N_COORD97":2563990.29,"ADDRESS":"民族路６６號","OBJECTID":632661},"geometry":{"x":197017.04000000004,"y":2563990.2899999991}},{"attributes":{"ID":632689,"DIS_CODE":0,"TOWNNAME":"楠西區","LI":"東勢里","LIN":"13鄰","STREET":"信義路","SECT":" ","MAREA":" ","LANE":" ","ALLEY":" ","HOUSE_NO":"１５１號","E_COORD97":197642.47,"N_COORD97":2563784.27,"ADDRESS":"信義路１５１號","OBJECTID":632662},"geometry":{"x":197642.47000000067,"y":2563784.2699999977}},{"attributes":{"ID":632690,"DIS_CODE":0,"TOWNNAME":"楠西區","LI":"東勢里","LIN":"4鄰","STREET":"民生路","SECT":" ","MAREA":" ","LANE":" ","ALLEY":" ","HOUSE_NO":"４６號","E_COORD97":197426.84,"N_COORD97":2564047.29,"ADDRESS":"民生路４６號","OBJECTID":632663},"geometry":{"x":197426.83999999985,"y":2564047.2899999991}},{"attributes":{"ID":632691,"DIS_CODE":0,"TOWNNAME":"楠西區","LI":"楠西里","LIN":"8鄰","STREET":"中興路","SECT":" ","MAREA":" ","LANE":" ","ALLEY":" ","HOUSE_NO":"４２號","E_COORD97":197199.10999999999,"N_COORD97":2564203.25,"ADDRESS":"中興路４２號","OBJECTID":632664},"geometry":{"x":197199.11000000127,"y":2564203.2500000019}},{"attributes":{"ID":632692,"DIS_CODE":0,"TOWNNAME":"楠西區","LI":"東勢里","LIN":"8鄰","STREET":"東勢路","SECT":" ","MAREA":" ","LANE":" ","ALLEY":" ","HOUSE_NO":"１０６號","E_COORD97":197527.97,"N_COORD97":2564055.29,"ADDRESS":"東勢路１０６號","OBJECTID":632665},"geometry":{"x":197527.96999999974,"y":2564055.2900000028}},{"attributes":{"ID":632693,"DIS_CODE":0,"TOWNNAME":"楠西區","LI":"東勢里","LIN":"15鄰","STREET":"中正路","SECT":" ","MAREA":" ","LANE":" ","ALLEY":" ","HOUSE_NO":"２１７號","E_COORD97":197397.95999999999,"N_COORD97":2563754.25,"ADDRESS":"中正路２１７號","OBJECTID":632666},"geometry":{"x":197397.96000000183,"y":2563754.25}},{"attributes":{"ID":632694,"DIS_CODE":0,"TOWNNAME":"楠西區","LI":"東勢里","LIN":"15鄰","STREET":"中正路","SECT":" ","MAREA":" ","LANE":" ","ALLEY":" ","HOUSE_NO":"２８１號","E_COORD97":197453.66,"N_COORD97":2563601.25,"ADDRESS":"中正路２８１號","OBJECTID":632667},"geometry":{"x":197453.66000000015,"y":2563601.25}},{"attributes":{"ID":632695,"DIS_CODE":0,"TOWNNAME":"楠西區","LI":"東勢里","LIN":"4鄰","STREET":"東勢路","SECT":" ","MAREA":" ","LANE":" ","ALLEY":" ","HOUSE_NO":"１２８號","E_COORD97":197475.76999999999,"N_COORD97":2564051.29,"ADDRESS":"東勢路１２８號","OBJECTID":632668},"geometry":{"x":197475.77000000048,"y":2564051.2899999991}},{"attributes":{"ID":632696,"DIS_CODE":0,"TOWNNAME":"楠西區","LI":"東勢里","LIN":"20鄰","STREET":"忠孝路","SECT":" ","MAREA":" ","LANE":" ","ALLEY":" ","HOUSE_NO":"５５號","E_COORD97":197599.29000000001,"N_COORD97":2564123.25,"ADDRESS":"忠孝路５５號","OBJECTID":632669},"geometry":{"x":197599.2900000019,"y":2564123.25}},{"attributes":{"ID":632697,"DIS_CODE":0,"TOWNNAME":"楠西區","LI":"楠西里","LIN":"20鄰","STREET":"民族路","SECT":" ","MAREA":" ","LANE":" ","ALLEY":" ","HOUSE_NO":"４５號","E_COORD97":197034.94,"N_COORD97":2563930.29,"ADDRESS":"民族路４５號","OBJECTID":632670},"geometry":{"x":197034.94000000041,"y":2563930.290000001}},{"attributes":{"ID":632698,"DIS_CODE":0,"TOWNNAME":"楠西區","LI":"東勢里","LIN":"14鄰","STREET":"中正路","SECT":" ","MAREA":" ","LANE":" ","ALLEY":" ","HOUSE_NO":"１７９號","E_COORD97":197374.56,"N_COORD97":2563846.25,"ADDRESS":"中正路１７９號","OBJECTID":632671},"geometry":{"x":197374.55999999959,"y":2563846.2500000037}},{"attributes":{"ID":632699,"DIS_CODE":0,"TOWNNAME":"楠西區","LI":"楠西里","LIN":"25鄰","STREET":"四維路","SECT":" ","MAREA":" ","LANE":" ","ALLEY":" ","HOUSE_NO":"９１號","E_COORD97":197316.20999999999,"N_COORD97":2563739.25,"ADDRESS":"四維路９１號","OBJECTID":632672},"geometry":{"x":197316.20999999996,"y":2563739.2500000019}},{"attributes":{"ID":632700,"DIS_CODE":0,"TOWNNAME":"楠西區","LI":"東勢里","LIN":"8鄰","STREET":"東勢路","SECT":" ","MAREA":" ","LANE":" ","ALLEY":" ","HOUSE_NO":"８６號","E_COORD97":197561.51999999999,"N_COORD97":2564059.29,"ADDRESS":"東勢路８６號","OBJECTID":632673},"geometry":{"x":197561.52000000142,"y":2564059.290000001}},{"attributes":{"ID":632701,"DIS_CODE":0,"TOWNNAME":"楠西區","LI":"東勢里","LIN":"7鄰","STREET":"東勢路","SECT":" ","MAREA":" ","LANE":" ","ALLEY":" ","HOUSE_NO":"６５號","E_COORD97":197565.92000000001,"N_COORD97":2564044.29,"ADDRESS":"東勢路６５號","OBJECTID":632674},"geometry":{"x":197565.92000000179,"y":2564044.2899999991}},{"attributes":{"ID":632702,"DIS_CODE":0,"TOWNNAME":"楠西區","LI":"楠西里","LIN":"6鄰","STREET":"中興路","SECT":" ","MAREA":" ","LANE":" ","ALLEY":" ","HOUSE_NO":"２５號","E_COORD97":197181.60999999999,"N_COORD97":2564206.25,"ADDRESS":"中興路２５號","OBJECTID":632675},"geometry":{"x":197181.61000000034,"y":2564206.2500000019}},{"attributes":{"ID":632703,"DIS_CODE":0,"TOWNNAME":"楠西區","LI":"東勢里","LIN":"13鄰","STREET":"水庫路","SECT":" ","MAREA":" ","LANE":" ","ALLEY":" ","HOUSE_NO":"１０５號","E_COORD97":197777.37,"N_COORD97":2563876.25,"ADDRESS":"水庫路１０５號","OBJECTID":632676},"geometry":{"x":197777.37000000104,"y":2563876.25}},{"attributes":{"ID":632704,"DIS_CODE":0,"TOWNNAME":"楠西區","LI":"楠西里","LIN":"17鄰","STREET":"中正路","SECT":" ","MAREA":" ","LANE":" ","ALLEY":" ","HOUSE_NO":"８７號","E_COORD97":197238.51000000001,"N_COORD97":2564027.25,"ADDRESS":"中正路８７號","OBJECTID":632677},"geometry":{"x":197238.51000000071,"y":2564027.2500000019}},{"attributes":{"ID":632705,"DIS_CODE":0,"TOWNNAME":"楠西區","LI":"東勢里","LIN":"13鄰","STREET":"水庫路","SECT":" ","MAREA":" ","LANE":" ","ALLEY":" ","HOUSE_NO":"１０３號之６","E_COORD97":197759.51000000001,"N_COORD97":2564208.2999999998,"ADDRESS":"水庫路１０３號之６","OBJECTID":632678},"geometry":{"x":197759.50999999978,"y":2564208.3000000007}},{"attributes":{"ID":632706,"DIS_CODE":0,"TOWNNAME":"楠西區","LI":"東勢里","LIN":"17鄰","STREET":"信義路","SECT":" ","MAREA":" ","LANE":" ","ALLEY":" ","HOUSE_NO":"８７號","E_COORD97":197607.92000000001,"N_COORD97":2563590.27,"ADDRESS":"信義路８７號","OBJECTID":632679},"geometry":{"x":197607.91999999993,"y":2563590.2699999996}},{"attributes":{"ID":632707,"DIS_CODE":0,"TOWNNAME":"楠西區","LI":"楠西里","LIN":"18鄰","STREET":"中正路","SECT":" ","MAREA":" ","LANE":" ","ALLEY":" ","HOUSE_NO":"７６號","E_COORD97":197225.70999999999,"N_COORD97":2564041.25,"ADDRESS":"中正路７６號","OBJECTID":632680},"geometry":{"x":197225.71000000089,"y":2564041.25}},{"attributes":{"ID":632708,"DIS_CODE":0,"TOWNNAME":"楠西區","LI":"楠西里","LIN":"18鄰","STREET":"中正路","SECT":" ","MAREA":" ","LANE":" ","ALLEY":" ","HOUSE_NO":"４６號","E_COORD97":197184.31,"N_COORD97":2564096.25,"ADDRESS":"中正路４６號","OBJECTID":632681},"geometry":{"x":197184.30999999959,"y":2564096.25}},{"attributes":{"ID":632709,"DIS_CODE":0,"TOWNNAME":"楠西區","LI":"楠西里","LIN":"18鄰","STREET":"中正路","SECT":" ","MAREA":" ","LANE":" ","ALLEY":" ","HOUSE_NO":"６０號","E_COORD97":197203.31,"N_COORD97":2564070.25,"ADDRESS":"中正路６０號","OBJECTID":632682},"geometry":{"x":197203.30999999959,"y":2564070.2500000019}},{"attributes":{"ID":632710,"DIS_CODE":0,"TOWNNAME":"楠西區","LI":"楠西里","LIN":"13鄰","STREET":"中正路","SECT":" ","MAREA":" ","LANE":" ","ALLEY":" ","HOUSE_NO":"６號","E_COORD97":197069.16,"N_COORD97":2564136.25,"ADDRESS":"中正路６號","OBJECTID":632683},"geometry":{"x":197069.16000000015,"y":2564136.25}},{"attributes":{"ID":632711,"DIS_CODE":0,"TOWNNAME":"柳營區","LI":"士林里","LIN":"1鄰","STREET":"士林街","SECT":" ","MAREA":" ","LANE":" ","ALLEY":" ","HOUSE_NO":"９號","E_COORD97":179282.09,"N_COORD97":2575105.4100000001,"ADDRESS":"士林街９號","OBJECTID":632684},"geometry":{"x":179282.09000000171,"y":2575105.410000002}},{"attributes":{"ID":632712,"DIS_CODE":0,"TOWNNAME":"楠西區","LI":"東勢里","LIN":"17鄰","STREET":"茄拔路","SECT":" ","MAREA":" ","LANE":" ","ALLEY":" ","HOUSE_NO":"２００號","E_COORD97":197506.44,"N_COORD97":2563741.2799999998,"ADDRESS":"茄拔路２００號","OBJECTID":632685},"geometry":{"x":197506.44000000041,"y":2563741.2800000012}},{"attributes":{"ID":632713,"DIS_CODE":0,"TOWNNAME":"楠西區","LI":"楠西里","LIN":"18鄰","STREET":"中正路","SECT":" ","MAREA":" ","LANE":" ","ALLEY":" ","HOUSE_NO":"８２號","E_COORD97":197229.31,"N_COORD97":2564016.25,"ADDRESS":"中正路８２號","OBJECTID":632686},"geometry":{"x":197229.31000000052,"y":2564016.2500000019}},{"attributes":{"ID":632714,"DIS_CODE":0,"TOWNNAME":"楠西區","LI":"東勢里","LIN":"13鄰","STREET":"仁愛路","SECT":" ","MAREA":" ","LANE":" ","ALLEY":" ","HOUSE_NO":"３８號","E_COORD97":197582.23999999999,"N_COORD97":2563802.2799999998,"ADDRESS":"仁愛路３８號","OBJECTID":632687},"geometry":{"x":197582.24000000022,"y":2563802.2800000012}},{"attributes":{"ID":632715,"DIS_CODE":0,"TOWNNAME":"楠西區","LI":"楠西里","LIN":"25鄰","STREET":"博愛路","SECT":" ","MAREA":" ","LANE":" ","ALLEY":" ","HOUSE_NO":"８２號","E_COORD97":197290.62,"N_COORD97":2563467.2799999998,"ADDRESS":"博愛路８２號","OBJECTID":632688},"geometry":{"x":197290.62000000104,"y":2563467.2799999993}},{"attributes":{"ID":632716,"DIS_CODE":0,"TOWNNAME":"楠西區","LI":"東勢里","LIN":"20鄰","STREET":"忠孝路","SECT":" ","MAREA":" ","LANE":" ","ALLEY":" ","HOUSE_NO":"５２號","E_COORD97":197586.48999999999,"N_COORD97":2564116.25,"ADDRESS":"忠孝路５２號","OBJECTID":632689},"geometry":{"x":197586.49000000115,"y":2564116.25}},{"attributes":{"ID":632717,"DIS_CODE":0,"TOWNNAME":"楠西區","LI":"楠西里","LIN":"20鄰","STREET":"中興南路","SECT":" ","MAREA":" ","LANE":" ","ALLEY":" ","HOUSE_NO":"８１號","E_COORD97":197161.66,"N_COORD97":2563984.25,"ADDRESS":"中興南路８１號","OBJECTID":632690},"geometry":{"x":197161.66000000108,"y":2563984.25}},{"attributes":{"ID":632718,"DIS_CODE":0,"TOWNNAME":"楠西區","LI":"東勢里","LIN":"20鄰","STREET":"忠孝路","SECT":" ","MAREA":" ","LANE":" ","ALLEY":" ","HOUSE_NO":"５３號","E_COORD97":197599.98999999999,"N_COORD97":2564118.25,"ADDRESS":"忠孝路５３號","OBJECTID":632691},"geometry":{"x":197599.99000000115,"y":2564118.2500000019}},{"attributes":{"ID":632719,"DIS_CODE":0,"TOWNNAME":"楠西區","LI":"東勢里","LIN":"20鄰","STREET":"民權路","SECT":" ","MAREA":" ","LANE":" ","ALLEY":" ","HOUSE_NO":"８０號","E_COORD97":197489.04000000001,"N_COORD97":2564253.29,"ADDRESS":"民權路８０號","OBJECTID":632692},"geometry":{"x":197489.0400000019,"y":2564253.290000001}},{"attributes":{"ID":632720,"DIS_CODE":0,"TOWNNAME":"楠西區","LI":"楠西里","LIN":"25鄰","STREET":"茄拔路","SECT":" ","MAREA":" ","LANE":" ","ALLEY":" ","HOUSE_NO":"５０號","E_COORD97":197158.89000000001,"N_COORD97":2563783.2799999998,"ADDRESS":"茄拔路５０號","OBJECTID":632693},"geometry":{"x":197158.88999999966,"y":2563783.2799999993}},{"attributes":{"ID":632721,"DIS_CODE":0,"TOWNNAME":"楠西區","LI":"東勢里","LIN":"14鄰","STREET":"茄拔路","SECT":" ","MAREA":" ","LANE":" ","ALLEY":" ","HOUSE_NO":"１６３號","E_COORD97":197392.72,"N_COORD97":2563792.2000000002,"ADDRESS":"茄拔路１６３號","OBJECTID":632694},"geometry":{"x":197392.72000000067,"y":2563792.2000000011}},{"attributes":{"ID":632722,"DIS_CODE":0,"TOWNNAME":"楠西區","LI":"楠西里","LIN":"4鄰","STREET":"中華路","SECT":" ","MAREA":" ","LANE":" ","ALLEY":" ","HOUSE_NO":"１６８號","E_COORD97":197083.76000000001,"N_COORD97":2564195.25,"ADDRESS":"中華路１６８號","OBJECTID":632695},"geometry":{"x":197083.76000000164,"y":2564195.2500000037}},{"attributes":{"ID":632723,"DIS_CODE":0,"TOWNNAME":"楠西區","LI":"楠西里","LIN":"4鄰","STREET":"中華路","SECT":" ","MAREA":" ","LANE":" ","ALLEY":" ","HOUSE_NO":"１９２號","E_COORD97":197050.06,"N_COORD97":2564264.25,"ADDRESS":"中華路１９２號","OBJECTID":632696},"geometry":{"x":197050.06000000052,"y":2564264.2500000019}},{"attributes":{"ID":632724,"DIS_CODE":0,"TOWNNAME":"楠西區","LI":"東勢里","LIN":"17鄰","STREET":"茄拔路","SECT":" ","MAREA":" ","LANE":" ","ALLEY":" ","HOUSE_NO":"２３２號","E_COORD97":197572.44,"N_COORD97":2563725.2799999998,"ADDRESS":"茄拔路２３２號","OBJECTID":632697},"geometry":{"x":197572.44000000041,"y":2563725.2799999993}},{"attributes":{"ID":632725,"DIS_CODE":0,"TOWNNAME":"楠西區","LI":"楠西里","LIN":"4鄰","STREET":"民族路","SECT":" ","MAREA":" ","LANE":" ","ALLEY":" ","HOUSE_NO":"１２８號","E_COORD97":197054,"N_COORD97":2564330.9300000002,"ADDRESS":"民族路１２８號","OBJECTID":632698},"geometry":{"x":197054.00000000093,"y":2564330.9300000016}},{"attributes":{"ID":632726,"DIS_CODE":0,"TOWNNAME":"楠西區","LI":"楠西里","LIN":"8鄰","STREET":"中華路","SECT":" ","MAREA":" ","LANE":" ","ALLEY":" ","HOUSE_NO":"９０號","E_COORD97":197256.82000000001,"N_COORD97":2564163.8199999998,"ADDRESS":"中華路９０號","OBJECTID":632699},"geometry":{"x":197256.82000000216,"y":2564163.8200000003}},{"attributes":{"ID":632727,"DIS_CODE":0,"TOWNNAME":"楠西區","LI":"楠西里","LIN":"20鄰","STREET":"中興南路","SECT":" ","MAREA":" ","LANE":" ","ALLEY":" ","HOUSE_NO":"７７號","E_COORD97":197163.16,"N_COORD97":2563975.25,"ADDRESS":"中興南路７７號","OBJECTID":632700},"geometry":{"x":197163.16000000108,"y":2563975.2500000019}},{"attributes":{"ID":632728,"DIS_CODE":0,"TOWNNAME":"楠西區","LI":"東勢里","LIN":"20鄰","STREET":"忠孝路","SECT":" ","MAREA":" ","LANE":" ","ALLEY":" ","HOUSE_NO":"６０號","E_COORD97":197585.19,"N_COORD97":2564130.25,"ADDRESS":"忠孝路６０號","OBJECTID":632701},"geometry":{"x":197585.19000000134,"y":2564130.25}},{"attributes":{"ID":632729,"DIS_CODE":0,"TOWNNAME":"楠西區","LI":"東勢里","LIN":"20鄰","STREET":"忠孝路","SECT":" ","MAREA":" ","LANE":" ","ALLEY":" ","HOUSE_NO":"５８號","E_COORD97":197585.48999999999,"N_COORD97":2564126.25,"ADDRESS":"忠孝路５８號","OBJECTID":632702},"geometry":{"x":197585.49000000022,"y":2564126.25}},{"attributes":{"ID":632730,"DIS_CODE":0,"TOWNNAME":"楠西區","LI":"楠西里","LIN":"4鄰","STREET":"中華路","SECT":" ","MAREA":" ","LANE":" ","ALLEY":" ","HOUSE_NO":"１７０號","E_COORD97":197079.66,"N_COORD97":2564196.25,"ADDRESS":"中華路１７０號","OBJECTID":632703},"geometry":{"x":197079.65999999922,"y":2564196.2500000019}},{"attributes":{"ID":632731,"DIS_CODE":0,"TOWNNAME":"楠西區","LI":"東勢里","LIN":"20鄰","STREET":"忠孝路","SECT":" ","MAREA":" ","LANE":" ","ALLEY":" ","HOUSE_NO":"７７號","E_COORD97":197595.89000000001,"N_COORD97":2564179.25,"ADDRESS":"忠孝路７７號","OBJECTID":632704},"geometry":{"x":197595.88999999966,"y":2564179.2500000019}},{"attributes":{"ID":632732,"DIS_CODE":0,"TOWNNAME":"楠西區","LI":"東勢里","LIN":"14鄰","STREET":"中正路","SECT":" ","MAREA":" ","LANE":" ","ALLEY":" ","HOUSE_NO":"１６７號","E_COORD97":197346.06,"N_COORD97":2563849.25,"ADDRESS":"中正路１６７號","OBJECTID":632705},"geometry":{"x":197346.06000000145,"y":2563849.2499999981}},{"attributes":{"ID":632733,"DIS_CODE":0,"TOWNNAME":"楠西區","LI":"東勢里","LIN":"17鄰","STREET":"茄拔路","SECT":" ","MAREA":" ","LANE":" ","ALLEY":" ","HOUSE_NO":"２３６號","E_COORD97":197579.94,"N_COORD97":2563723.2799999998,"ADDRESS":"茄拔路２３６號","OBJECTID":632706},"geometry":{"x":197579.94000000227,"y":2563723.2800000031}},{"attributes":{"ID":632734,"DIS_CODE":0,"TOWNNAME":"楠西區","LI":"東勢里","LIN":"17鄰","STREET":"和平路","SECT":" ","MAREA":" ","LANE":" ","ALLEY":" ","HOUSE_NO":"４９號","E_COORD97":197495.39000000001,"N_COORD97":2563672.25,"ADDRESS":"和平路４９號","OBJECTID":632707},"geometry":{"x":197495.3900000006,"y":2563672.25}},{"attributes":{"ID":632735,"DIS_CODE":0,"TOWNNAME":"楠西區","LI":"楠西里","LIN":"7鄰","STREET":"民族路","SECT":" ","MAREA":" ","LANE":" ","ALLEY":" ","HOUSE_NO":"２５７號","E_COORD97":197305.89000000001,"N_COORD97":2564395.29,"ADDRESS":"民族路２５７號","OBJECTID":632708},"geometry":{"x":197305.88999999966,"y":2564395.290000001}},{"attributes":{"ID":632736,"DIS_CODE":0,"TOWNNAME":"楠西區","LI":"東勢里","LIN":"17鄰","STREET":"茄拔路","SECT":" ","MAREA":" ","LANE":" ","ALLEY":" ","HOUSE_NO":"２３４號","E_COORD97":197576.23999999999,"N_COORD97":2563724.2799999998,"ADDRESS":"茄拔路２３４號","OBJECTID":632709},"geometry":{"x":197576.24000000115,"y":2563724.2800000012}},{"attributes":{"ID":632737,"DIS_CODE":0,"TOWNNAME":"楠西區","LI":"東勢里","LIN":"20鄰","STREET":"忠孝路","SECT":" ","MAREA":" ","LANE":" ","ALLEY":" ","HOUSE_NO":"５６號","E_COORD97":197585.59,"N_COORD97":2564121.25,"ADDRESS":"忠孝路５６號","OBJECTID":632710},"geometry":{"x":197585.59000000078,"y":2564121.2500000019}},{"attributes":{"ID":632738,"DIS_CODE":0,"TOWNNAME":"楠西區","LI":"東勢里","LIN":"20鄰","STREET":"忠孝路","SECT":" ","MAREA":" ","LANE":" ","ALLEY":" ","HOUSE_NO":"９１號","E_COORD97":197596.09,"N_COORD97":2564209.25,"ADDRESS":"忠孝路９１號","OBJECTID":632711},"geometry":{"x":197596.09000000078,"y":2564209.2500000019}},{"attributes":{"ID":632739,"DIS_CODE":0,"TOWNNAME":"楠西區","LI":"楠西里","LIN":"8鄰","STREET":"中華路","SECT":" ","MAREA":" ","LANE":" ","ALLEY":" ","HOUSE_NO":"８６號","E_COORD97":197201.81,"N_COORD97":2564156.25,"ADDRESS":"中華路８６號","OBJECTID":632712},"geometry":{"x":197201.80999999866,"y":2564156.2500000019}},{"attributes":{"ID":632740,"DIS_CODE":0,"TOWNNAME":"楠西區","LI":"楠西里","LIN":"8鄰","STREET":"中興路","SECT":" ","MAREA":" ","LANE":" ","ALLEY":" ","HOUSE_NO":"５０號","E_COORD97":197204.81,"N_COORD97":2564230.25,"ADDRESS":"中興路５０號","OBJECTID":632713},"geometry":{"x":197204.80999999959,"y":2564230.2500000019}},{"attributes":{"ID":632741,"DIS_CODE":0,"TOWNNAME":"楠西區","LI":"東勢里","LIN":"8鄰","STREET":"東勢路","SECT":" ","MAREA":" ","LANE":" ","ALLEY":" ","HOUSE_NO":"３０號","E_COORD97":197676.82000000001,"N_COORD97":2564073.29,"ADDRESS":"東勢路３０號","OBJECTID":632714},"geometry":{"x":197676.8200000003,"y":2564073.290000001}},{"attributes":{"ID":632742,"DIS_CODE":0,"TOWNNAME":"楠西區","LI":"東勢里","LIN":"20鄰","STREET":"忠孝路","SECT":" ","MAREA":" ","LANE":" ","ALLEY":" ","HOUSE_NO":"６２號","E_COORD97":197584.98999999999,"N_COORD97":2564135.25,"ADDRESS":"忠孝路６２號","OBJECTID":632715},"geometry":{"x":197584.99000000115,"y":2564135.2500000019}},{"attributes":{"ID":632743,"DIS_CODE":0,"TOWNNAME":"楠西區","LI":"東勢里","LIN":"17鄰","STREET":"和平路","SECT":" ","MAREA":" ","LANE":" ","ALLEY":" ","HOUSE_NO":"３６號","E_COORD97":197568.79000000001,"N_COORD97":2563688.25,"ADDRESS":"和平路３６號","OBJECTID":632716},"geometry":{"x":197568.7900000019,"y":2563688.2500000019}},{"attributes":{"ID":632744,"DIS_CODE":0,"TOWNNAME":"楠西區","LI":"東勢里","LIN":"17鄰","STREET":"茄拔路","SECT":" ","MAREA":" ","LANE":" ","ALLEY":" ","HOUSE_NO":"２３８號","E_COORD97":197583.94,"N_COORD97":2563722.2799999998,"ADDRESS":"茄拔路２３８號","OBJECTID":632717},"geometry":{"x":197583.94000000134,"y":2563722.2799999993}},{"attributes":{"ID":632745,"DIS_CODE":0,"TOWNNAME":"楠西區","LI":"楠西里","LIN":"4鄰","STREET":"民族路","SECT":" ","MAREA":" ","LANE":" ","ALLEY":" ","HOUSE_NO":"１０７號","E_COORD97":197071.09,"N_COORD97":2564213.29,"ADDRESS":"民族路１０７號","OBJECTID":632718},"geometry":{"x":197071.08999999985,"y":2564213.2899999991}},{"attributes":{"ID":632746,"DIS_CODE":0,"TOWNNAME":"楠西區","LI":"東勢里","LIN":"20鄰","STREET":"民權路","SECT":" ","MAREA":" ","LANE":" ","ALLEY":" ","HOUSE_NO":"１３８號","E_COORD97":197629.09,"N_COORD97":2564265.29,"ADDRESS":"民權路１３８號","OBJECTID":632719},"geometry":{"x":197629.09000000171,"y":2564265.2900000028}},{"attributes":{"ID":632747,"DIS_CODE":0,"TOWNNAME":"楠西區","LI":"楠西里","LIN":"4鄰","STREET":"中華路","SECT":" ","MAREA":" ","LANE":" ","ALLEY":" ","HOUSE_NO":"１８０號","E_COORD97":197052.16,"N_COORD97":2564243.25,"ADDRESS":"中華路１８０號","OBJECTID":632720},"geometry":{"x":197052.16000000015,"y":2564243.2500000019}},{"attributes":{"ID":632748,"DIS_CODE":0,"TOWNNAME":"楠西區","LI":"東勢里","LIN":"8鄰","STREET":"東勢路","SECT":" ","MAREA":" ","LANE":" ","ALLEY":" ","HOUSE_NO":"９２號","E_COORD97":197548.01999999999,"N_COORD97":2564057.29,"ADDRESS":"東勢路９２號","OBJECTID":632721},"geometry":{"x":197548.02000000142,"y":2564057.2899999991}},{"attributes":{"ID":632749,"DIS_CODE":0,"TOWNNAME":"楠西區","LI":"楠西里","LIN":"15鄰","STREET":"中興南路","SECT":" ","MAREA":" ","LANE":" ","ALLEY":" ","HOUSE_NO":"９７號","E_COORD97":197149.76000000001,"N_COORD97":2564041.25,"ADDRESS":"中興南路９７號","OBJECTID":632722},"geometry":{"x":197149.75999999885,"y":2564041.25}},{"attributes":{"ID":632750,"DIS_CODE":0,"TOWNNAME":"楠西區","LI":"東勢里","LIN":"19鄰","STREET":"水庫路","SECT":" ","MAREA":" ","LANE":" ","ALLEY":" ","HOUSE_NO":"４５８號","E_COORD97":197650.97,"N_COORD97":2563613.25,"ADDRESS":"水庫路４５８號","OBJECTID":632723},"geometry":{"x":197650.97000000067,"y":2563613.2500000019}},{"attributes":{"ID":632751,"DIS_CODE":0,"TOWNNAME":"楠西區","LI":"東勢里","LIN":"20鄰","STREET":"忠孝路","SECT":" ","MAREA":" ","LANE":" ","ALLEY":" ","HOUSE_NO":"５７號","E_COORD97":197599.09,"N_COORD97":2564128.25,"ADDRESS":"忠孝路５７號","OBJECTID":632724},"geometry":{"x":197599.09000000078,"y":2564128.2500000019}},{"attributes":{"ID":632752,"DIS_CODE":0,"TOWNNAME":"楠西區","LI":"東勢里","LIN":"15鄰","STREET":"中正路","SECT":" ","MAREA":" ","LANE":" ","ALLEY":" ","HOUSE_NO":"２４１號","E_COORD97":197419.16,"N_COORD97":2563697.25,"ADDRESS":"中正路２４１號","OBJECTID":632725},"geometry":{"x":197419.16000000108,"y":2563697.2500000019}},{"attributes":{"ID":632753,"DIS_CODE":0,"TOWNNAME":"楠西區","LI":"楠西里","LIN":"4鄰","STREET":"中華路","SECT":" ","MAREA":" ","LANE":" ","ALLEY":" ","HOUSE_NO":"１６６號","E_COORD97":197088.85999999999,"N_COORD97":2564195.25,"ADDRESS":"中華路１６６號","OBJECTID":632726},"geometry":{"x":197088.8600000022,"y":2564195.2500000037}},{"attributes":{"ID":632754,"DIS_CODE":0,"TOWNNAME":"楠西區","LI":"東勢里","LIN":"20鄰","STREET":"忠孝路","SECT":" ","MAREA":" ","LANE":" ","ALLEY":" ","HOUSE_NO":"７３號","E_COORD97":197597.09,"N_COORD97":2564168.25,"ADDRESS":"忠孝路７３號","OBJECTID":632727},"geometry":{"x":197597.09000000078,"y":2564168.2500000037}},{"attributes":{"ID":632755,"DIS_CODE":0,"TOWNNAME":"楠西區","LI":"東勢里","LIN":"17鄰","STREET":"茄拔路","SECT":" ","MAREA":" ","LANE":" ","ALLEY":" ","HOUSE_NO":"２４０號","E_COORD97":197588.23999999999,"N_COORD97":2563720.2799999998,"ADDRESS":"茄拔路２４０號","OBJECTID":632728},"geometry":{"x":197588.24000000115,"y":2563720.2800000012}},{"attributes":{"ID":632756,"DIS_CODE":0,"TOWNNAME":"楠西區","LI":"楠西里","LIN":"7鄰","STREET":"民族路","SECT":" ","MAREA":" ","LANE":" ","ALLEY":" ","HOUSE_NO":"２５６號","E_COORD97":197287.89000000001,"N_COORD97":2564416.29,"ADDRESS":"民族路２５６號","OBJECTID":632729},"geometry":{"x":197287.89000000153,"y":2564416.2899999991}},{"attributes":{"ID":632757,"DIS_CODE":0,"TOWNNAME":"楠西區","LI":"楠西里","LIN":"15鄰","STREET":"中興南路","SECT":" ","MAREA":" ","LANE":" ","ALLEY":" ","HOUSE_NO":"１０１號","E_COORD97":197151.01000000001,"N_COORD97":2564051.25,"ADDRESS":"中興南路１０１號","OBJECTID":632730},"geometry":{"x":197151.00999999978,"y":2564051.25}},{"attributes":{"ID":632758,"DIS_CODE":0,"TOWNNAME":"楠西區","LI":"楠西里","LIN":"8鄰","STREET":"中華路","SECT":" ","MAREA":" ","LANE":" ","ALLEY":" ","HOUSE_NO":"１０８號","E_COORD97":197210.66,"N_COORD97":2564171.25,"ADDRESS":"中華路１０８號","OBJECTID":632731},"geometry":{"x":197210.66000000108,"y":2564171.25}},{"attributes":{"ID":632759,"DIS_CODE":0,"TOWNNAME":"柳營區","LI":"東昇里","LIN":"4鄰","STREET":"十美街","SECT":" ","MAREA":" ","LANE":" ","ALLEY":" ","HOUSE_NO":"３５１號","E_COORD97":179911.14999999999,"N_COORD97":2575531.8700000001,"ADDRESS":"十美街３５１號","OBJECTID":632732},"geometry":{"x":179911.15000000224,"y":2575531.870000001}},{"attributes":{"ID":632760,"DIS_CODE":0,"TOWNNAME":"柳營區","LI":"東昇里","LIN":"4鄰","STREET":"十美街","SECT":" ","MAREA":" ","LANE":" ","ALLEY":" ","HOUSE_NO":"３５３號","E_COORD97":179906.73999999999,"N_COORD97":2575531.9399999999,"ADDRESS":"十美街３５３號","OBJECTID":632733},"geometry":{"x":179906.74000000022,"y":2575531.9400000013}},{"attributes":{"ID":632761,"DIS_CODE":0,"TOWNNAME":"柳營區","LI":"東昇里","LIN":"4鄰","STREET":"十美街","SECT":" ","MAREA":" ","LANE":" ","ALLEY":" ","HOUSE_NO":"３５５號","E_COORD97":179902.32999999999,"N_COORD97":2575532.0099999998,"ADDRESS":"十美街３５５號","OBJECTID":632734},"geometry":{"x":179902.33000000007,"y":2575532.0100000016}},{"attributes":{"ID":632762,"DIS_CODE":0,"TOWNNAME":"柳營區","LI":"東昇里","LIN":"4鄰","STREET":"十美街","SECT":" ","MAREA":" ","LANE":" ","ALLEY":" ","HOUSE_NO":"３５９號","E_COORD97":179892.56,"N_COORD97":2575528.3100000001,"ADDRESS":"十美街３５９號","OBJECTID":632735},"geometry":{"x":179892.56000000052,"y":2575528.3100000005}},{"attributes":{"ID":632763,"DIS_CODE":0,"TOWNNAME":"柳營區","LI":"東昇里","LIN":"4鄰","STREET":"十美街","SECT":" ","MAREA":" ","LANE":" ","ALLEY":" ","HOUSE_NO":"３６１號","E_COORD97":179887.28,"N_COORD97":2575528.25,"ADDRESS":"十美街３６１號","OBJECTID":632736},"geometry":{"x":179887.28000000119,"y":2575528.25}},{"attributes":{"ID":632764,"DIS_CODE":0,"TOWNNAME":"柳營區","LI":"東昇里","LIN":"4鄰","STREET":"十美街","SECT":" ","MAREA":" ","LANE":" ","ALLEY":" ","HOUSE_NO":"３６３號","E_COORD97":179882.92999999999,"N_COORD97":2575528.2999999998,"ADDRESS":"十美街３６３號","OBJECTID":632737},"geometry":{"x":179882.9299999997,"y":2575528.3000000007}},{"attributes":{"ID":632765,"DIS_CODE":0,"TOWNNAME":"柳營區","LI":"東昇里","LIN":"4鄰","STREET":"十美街","SECT":" ","MAREA":" ","LANE":" ","ALLEY":" ","HOUSE_NO":"３６５號","E_COORD97":179877.70000000001,"N_COORD97":2575528.5299999998,"ADDRESS":"十美街３６５號","OBJECTID":632738},"geometry":{"x":179877.70000000019,"y":2575528.5299999993}},{"attributes":{"ID":632766,"DIS_CODE":0,"TOWNNAME":"柳營區","LI":"東昇里","LIN":"4鄰","STREET":"十美街","SECT":" ","MAREA":" ","LANE":" ","ALLEY":" ","HOUSE_NO":"３６９號","E_COORD97":179862.34,"N_COORD97":2575524.1699999999,"ADDRESS":"十美街３６９號","OBJECTID":632739},"geometry":{"x":179862.34000000078,"y":2575524.1700000018}},{"attributes":{"ID":632767,"DIS_CODE":0,"TOWNNAME":"柳營區","LI":"東昇里","LIN":"4鄰","STREET":"十美街","SECT":" ","MAREA":" ","LANE":" ","ALLEY":" ","HOUSE_NO":"３７７號","E_COORD97":179851.82000000001,"N_COORD97":2575518.3900000001,"ADDRESS":"十美街３７７號","OBJECTID":632740},"geometry":{"x":179851.8200000003,"y":2575518.3900000006}},{"attributes":{"ID":632768,"DIS_CODE":0,"TOWNNAME":"柳營區","LI":"東昇里","LIN":"26鄰","STREET":"十美街","SECT":" ","MAREA":" ","LANE":" ","ALLEY":" ","HOUSE_NO":"１０８號","E_COORD97":180620.28,"N_COORD97":2575565.5800000001,"ADDRESS":"十美街１０８號","OBJECTID":632741},"geometry":{"x":180620.28000000026,"y":2575565.5800000019}},{"attributes":{"ID":632769,"DIS_CODE":0,"TOWNNAME":"柳營區","LI":"東昇里","LIN":"26鄰","STREET":"十美街","SECT":" ","MAREA":" ","LANE":" ","ALLEY":" ","HOUSE_NO":"１７６號","E_COORD97":180517.19,"N_COORD97":2575553.8399999999,"ADDRESS":"十美街１７６號","OBJECTID":632742},"geometry":{"x":180517.19000000041,"y":2575553.8400000017}},{"attributes":{"ID":632770,"DIS_CODE":0,"TOWNNAME":"柳營區","LI":"東昇里","LIN":"25鄰","STREET":"十美街","SECT":" ","MAREA":" ","LANE":" ","ALLEY":" ","HOUSE_NO":"１３３號","E_COORD97":180481.42000000001,"N_COORD97":2575518.8199999998,"ADDRESS":"十美街１３３號","OBJECTID":632743},"geometry":{"x":180481.41999999993,"y":2575518.8199999984}},{"attributes":{"ID":632771,"DIS_CODE":0,"TOWNNAME":"柳營區","LI":"東昇里","LIN":"25鄰","STREET":"十美街","SECT":" ","MAREA":" ","LANE":" ","ALLEY":" ","HOUSE_NO":"１３５號","E_COORD97":180476.73999999999,"N_COORD97":2575518.9900000002,"ADDRESS":"十美街１３５號","OBJECTID":632744},"geometry":{"x":180476.74000000209,"y":2575518.9900000021}},{"attributes":{"ID":632772,"DIS_CODE":0,"TOWNNAME":"柳營區","LI":"東昇里","LIN":"25鄰","STREET":"十美街","SECT":" ","MAREA":" ","LANE":" ","ALLEY":" ","HOUSE_NO":"１３７號","E_COORD97":180472.04999999999,"N_COORD97":2575519.1499999999,"ADDRESS":"十美街１３７號","OBJECTID":632745},"geometry":{"x":180472.04999999981,"y":2575519.1500000004}},{"attributes":{"ID":632773,"DIS_CODE":0,"TOWNNAME":"柳營區","LI":"東昇里","LIN":"25鄰","STREET":"十美街","SECT":" ","MAREA":" ","LANE":" ","ALLEY":" ","HOUSE_NO":"１３９號","E_COORD97":180467.37,"N_COORD97":2575519.3100000001,"ADDRESS":"十美街１３９號","OBJECTID":632746},"geometry":{"x":180467.37000000104,"y":2575519.3100000042}},{"attributes":{"ID":632774,"DIS_CODE":0,"TOWNNAME":"柳營區","LI":"東昇里","LIN":"25鄰","STREET":"十美街","SECT":" ","MAREA":" ","LANE":" ","ALLEY":" ","HOUSE_NO":"１５５號","E_COORD97":180429.32999999999,"N_COORD97":2575514.6899999999,"ADDRESS":"十美街１５５號","OBJECTID":632747},"geometry":{"x":180429.33000000007,"y":2575514.6899999995}},{"attributes":{"ID":632775,"DIS_CODE":0,"TOWNNAME":"柳營區","LI":"東昇里","LIN":"20鄰","STREET":"十美街","SECT":" ","MAREA":" ","LANE":" ","ALLEY":" ","HOUSE_NO":"２１６號","E_COORD97":180433.82000000001,"N_COORD97":2575552.98,"ADDRESS":"十美街２１６號","OBJECTID":632748},"geometry":{"x":180433.82000000216,"y":2575552.9800000023}},{"attributes":{"ID":632776,"DIS_CODE":0,"TOWNNAME":"柳營區","LI":"東昇里","LIN":"20鄰","STREET":"十美街","SECT":" ","MAREA":" ","LANE":" ","ALLEY":" ","HOUSE_NO":"２１８號","E_COORD97":180428.48999999999,"N_COORD97":2575553.1699999999,"ADDRESS":"十美街２１８號","OBJECTID":632749},"geometry":{"x":180428.49000000022,"y":2575553.1699999999}},{"attributes":{"ID":632777,"DIS_CODE":0,"TOWNNAME":"柳營區","LI":"東昇里","LIN":"20鄰","STREET":"十美街","SECT":" ","MAREA":" ","LANE":" ","ALLEY":" ","HOUSE_NO":"２２６號","E_COORD97":180407.20000000001,"N_COORD97":2575552.0600000001,"ADDRESS":"十美街２２６號","OBJECTID":632750},"geometry":{"x":180407.19999999925,"y":2575552.0600000024}},{"attributes":{"ID":632778,"DIS_CODE":0,"TOWNNAME":"柳營區","LI":"東昇里","LIN":"20鄰","STREET":"十美街","SECT":" ","MAREA":" ","LANE":" ","ALLEY":" ","HOUSE_NO":"２２８號","E_COORD97":180402.69,"N_COORD97":2575552.02,"ADDRESS":"十美街２２８號","OBJECTID":632751},"geometry":{"x":180402.69000000227,"y":2575552.0200000014}},{"attributes":{"ID":632779,"DIS_CODE":0,"TOWNNAME":"柳營區","LI":"東昇里","LIN":"20鄰","STREET":"十美街","SECT":" ","MAREA":" ","LANE":" ","ALLEY":" ","HOUSE_NO":"２３０號","E_COORD97":180398.17999999999,"N_COORD97":2575551.98,"ADDRESS":"十美街２３０號","OBJECTID":632752},"geometry":{"x":180398.1799999997,"y":2575551.9800000042}},{"attributes":{"ID":632780,"DIS_CODE":0,"TOWNNAME":"柳營區","LI":"東昇里","LIN":"23鄰","STREET":"十美街","SECT":" ","MAREA":" ","LANE":" ","ALLEY":" ","HOUSE_NO":"２０９號","E_COORD97":180313.48000000001,"N_COORD97":2575523.48,"ADDRESS":"十美街２０９號","OBJECTID":632753},"geometry":{"x":180313.48000000045,"y":2575523.4800000004}},{"attributes":{"ID":632781,"DIS_CODE":0,"TOWNNAME":"柳營區","LI":"東昇里","LIN":"11鄰","STREET":"十美街","SECT":" ","MAREA":" ","LANE":" ","ALLEY":" ","HOUSE_NO":"２２３號","E_COORD97":180236.89999999999,"N_COORD97":2575512.9100000001,"ADDRESS":"十美街２２３號","OBJECTID":632754},"geometry":{"x":180236.9000000013,"y":2575512.910000002}},{"attributes":{"ID":632782,"DIS_CODE":0,"TOWNNAME":"柳營區","LI":"東昇里","LIN":"4鄰","STREET":"十美街","SECT":" ","MAREA":" ","LANE":" ","ALLEY":" ","HOUSE_NO":"３０７號","E_COORD97":180006.5,"N_COORD97":2575522.7400000002,"ADDRESS":"十美街３０７號","OBJECTID":632755},"geometry":{"x":180006.5,"y":2575522.7400000039}},{"attributes":{"ID":632783,"DIS_CODE":0,"TOWNNAME":"柳營區","LI":"東昇里","LIN":"4鄰","STREET":"十美街","SECT":" ","MAREA":" ","LANE":" ","ALLEY":" ","HOUSE_NO":"３２７號","E_COORD97":179967.70999999999,"N_COORD97":2575527.6899999999,"ADDRESS":"十美街３２７號","OBJECTID":632756},"geometry":{"x":179967.70999999996,"y":2575527.6899999995}},{"attributes":{"ID":632784,"DIS_CODE":0,"TOWNNAME":"柳營區","LI":"東昇里","LIN":"4鄰","STREET":"十美街","SECT":" ","MAREA":" ","LANE":" ","ALLEY":" ","HOUSE_NO":"３２９號","E_COORD97":179962.97,"N_COORD97":2575527.5499999998,"ADDRESS":"十美街３２９號","OBJECTID":632757},"geometry":{"x":179962.97000000067,"y":2575527.5500000007}},{"attributes":{"ID":632785,"DIS_CODE":0,"TOWNNAME":"柳營區","LI":"東昇里","LIN":"4鄰","STREET":"十美街","SECT":" ","MAREA":" ","LANE":" ","ALLEY":" ","HOUSE_NO":"３３１號","E_COORD97":179959.23999999999,"N_COORD97":2575527.7000000002,"ADDRESS":"十美街３３１號","OBJECTID":632758},"geometry":{"x":179959.24000000022,"y":2575527.6999999993}},{"attributes":{"ID":632786,"DIS_CODE":0,"TOWNNAME":"柳營區","LI":"東昇里","LIN":"4鄰","STREET":"十美街","SECT":" ","MAREA":" ","LANE":" ","ALLEY":" ","HOUSE_NO":"３３３號","E_COORD97":179955.17000000001,"N_COORD97":2575528.04,"ADDRESS":"十美街３３３號","OBJECTID":632759},"geometry":{"x":179955.17000000086,"y":2575528.040000001}},{"attributes":{"ID":632787,"DIS_CODE":0,"TOWNNAME":"柳營區","LI":"東昇里","LIN":"4鄰","STREET":"十美街","SECT":" ","MAREA":" ","LANE":" ","ALLEY":" ","HOUSE_NO":"３３５號","E_COORD97":179950.73000000001,"N_COORD97":2575530.4500000002,"ADDRESS":"十美街３３５號","OBJECTID":632760},"geometry":{"x":179950.73000000045,"y":2575530.4499999974}},{"attributes":{"ID":632788,"DIS_CODE":0,"TOWNNAME":"柳營區","LI":"東昇里","LIN":"4鄰","STREET":"十美街","SECT":" ","MAREA":" ","LANE":" ","ALLEY":" ","HOUSE_NO":"３３７號","E_COORD97":179946.01999999999,"N_COORD97":2575530.1600000001,"ADDRESS":"十美街３３７號","OBJECTID":632761},"geometry":{"x":179946.01999999955,"y":2575530.1600000039}},{"attributes":{"ID":632789,"DIS_CODE":0,"TOWNNAME":"柳營區","LI":"東昇里","LIN":"4鄰","STREET":"十美街","SECT":" ","MAREA":" ","LANE":" ","ALLEY":" ","HOUSE_NO":"３３９號","E_COORD97":179940.87,"N_COORD97":2575531.4199999999,"ADDRESS":"十美街３３９號","OBJECTID":632762},"geometry":{"x":179940.87000000011,"y":2575531.4200000037}},{"attributes":{"ID":632790,"DIS_CODE":0,"TOWNNAME":"柳營區","LI":"東昇里","LIN":"4鄰","STREET":"十美街","SECT":" ","MAREA":" ","LANE":" ","ALLEY":" ","HOUSE_NO":"３４１號","E_COORD97":179936.67000000001,"N_COORD97":2575531.48,"ADDRESS":"十美街３４１號","OBJECTID":632763},"geometry":{"x":179936.67000000086,"y":2575531.4799999986}},{"attributes":{"ID":632791,"DIS_CODE":0,"TOWNNAME":"柳營區","LI":"東昇里","LIN":"4鄰","STREET":"十美街","SECT":" ","MAREA":" ","LANE":" ","ALLEY":" ","HOUSE_NO":"３４７號","E_COORD97":179924.42000000001,"N_COORD97":2575527.9199999999,"ADDRESS":"十美街３４７號","OBJECTID":632764},"geometry":{"x":179924.42000000086,"y":2575527.9199999981}},{"attributes":{"ID":632792,"DIS_CODE":0,"TOWNNAME":"柳營區","LI":"東昇里","LIN":"4鄰","STREET":"十美街","SECT":" ","MAREA":" ","LANE":" ","ALLEY":" ","HOUSE_NO":"３４９號","E_COORD97":179915.56,"N_COORD97":2575531.7999999998,"ADDRESS":"十美街３４９號","OBJECTID":632765},"geometry":{"x":179915.55999999959,"y":2575531.8000000007}},{"attributes":{"ID":632793,"DIS_CODE":0,"TOWNNAME":"柳營區","LI":"東昇里","LIN":"24鄰","STREET":"十美街","SECT":" ","MAREA":" ","LANE":" ","ALLEY":" ","HOUSE_NO":"２８６號","E_COORD97":180312.16,"N_COORD97":2575551.2200000002,"ADDRESS":"十美街２８６號","OBJECTID":632766},"geometry":{"x":180312.16000000015,"y":2575551.2200000025}},{"attributes":{"ID":632794,"DIS_CODE":0,"TOWNNAME":"柳營區","LI":"東昇里","LIN":"24鄰","STREET":"十美街","SECT":" ","MAREA":" ","LANE":" ","ALLEY":" ","HOUSE_NO":"３２０號","E_COORD97":180240.51000000001,"N_COORD97":2575552.9500000002,"ADDRESS":"十美街３２０號","OBJECTID":632767},"geometry":{"x":180240.51000000071,"y":2575552.9499999993}},{"attributes":{"ID":632795,"DIS_CODE":0,"TOWNNAME":"柳營區","LI":"東昇里","LIN":"24鄰","STREET":"十美街","SECT":" ","MAREA":" ","LANE":" ","ALLEY":" ","HOUSE_NO":"３２２號","E_COORD97":180235.31,"N_COORD97":2575553.0099999998,"ADDRESS":"十美街３２２號","OBJECTID":632768},"geometry":{"x":180235.31000000052,"y":2575553.0099999998}},{"attributes":{"ID":632796,"DIS_CODE":0,"TOWNNAME":"柳營區","LI":"東昇里","LIN":"24鄰","STREET":"十美街","SECT":" ","MAREA":" ","LANE":" ","ALLEY":" ","HOUSE_NO":"３２６號","E_COORD97":180230.10999999999,"N_COORD97":2575553.0699999998,"ADDRESS":"十美街３２６號","OBJECTID":632769},"geometry":{"x":180230.1100000022,"y":2575553.0700000003}},{"attributes":{"ID":632797,"DIS_CODE":0,"TOWNNAME":"柳營區","LI":"東昇里","LIN":"24鄰","STREET":"十美街","SECT":" ","MAREA":" ","LANE":" ","ALLEY":" ","HOUSE_NO":"３２８號","E_COORD97":180224.91,"N_COORD97":2575553.1299999999,"ADDRESS":"十美街３２８號","OBJECTID":632770},"geometry":{"x":180224.91000000108,"y":2575553.1300000008}},{"attributes":{"ID":632798,"DIS_CODE":0,"TOWNNAME":"柳營區","LI":"東昇里","LIN":"24鄰","STREET":"十美街","SECT":" ","MAREA":" ","LANE":" ","ALLEY":" ","HOUSE_NO":"３４２號","E_COORD97":180199.94,"N_COORD97":2575559.0099999998,"ADDRESS":"十美街３４２號","OBJECTID":632771},"geometry":{"x":180199.94000000134,"y":2575559.0100000016}},{"attributes":{"ID":632799,"DIS_CODE":0,"TOWNNAME":"柳營區","LI":"東昇里","LIN":"24鄰","STREET":"十美街","SECT":" ","MAREA":" ","LANE":" ","ALLEY":" ","HOUSE_NO":"３４６號","E_COORD97":180190.47,"N_COORD97":2575559.2400000002,"ADDRESS":"十美街３４６號","OBJECTID":632772},"geometry":{"x":180190.47000000067,"y":2575559.2400000002}},{"attributes":{"ID":632800,"DIS_CODE":0,"TOWNNAME":"柳營區","LI":"光福里","LIN":"23鄰","STREET":"十美街","SECT":" ","MAREA":" ","LANE":" ","ALLEY":" ","HOUSE_NO":"４５９號","E_COORD97":179645.25,"N_COORD97":2575432.9399999999,"ADDRESS":"十美街４５９號","OBJECTID":632773},"geometry":{"x":179645.25,"y":2575432.9400000013}},{"attributes":{"ID":632801,"DIS_CODE":0,"TOWNNAME":"柳營區","LI":"光福里","LIN":"23鄰","STREET":"十美街","SECT":" ","MAREA":" ","LANE":" ","ALLEY":" ","HOUSE_NO":"４６５號","E_COORD97":179633.53,"N_COORD97":2575429.1499999999,"ADDRESS":"十美街４６５號","OBJECTID":632774},"geometry":{"x":179633.53000000026,"y":2575429.1500000022}},{"attributes":{"ID":632802,"DIS_CODE":0,"TOWNNAME":"柳營區","LI":"東昇里","LIN":"16鄰","STREET":"十美街","SECT":" ","MAREA":" ","LANE":" ","ALLEY":" ","HOUSE_NO":"４２號","E_COORD97":180664.47,"N_COORD97":2575442.6499999999,"ADDRESS":"十美街４２號","OBJECTID":632775},"geometry":{"x":180664.4700000016,"y":2575442.6500000022}},{"attributes":{"ID":632803,"DIS_CODE":0,"TOWNNAME":"柳營區","LI":"東昇里","LIN":"16鄰","STREET":"十美街","SECT":" ","MAREA":" ","LANE":" ","ALLEY":" ","HOUSE_NO":"４６號","E_COORD97":180663.95000000001,"N_COORD97":2575447.1499999999,"ADDRESS":"十美街４６號","OBJECTID":632776},"geometry":{"x":180663.95000000112,"y":2575447.1500000022}},{"attributes":{"ID":632804,"DIS_CODE":0,"TOWNNAME":"柳營區","LI":"東昇里","LIN":"16鄰","STREET":"十美街","SECT":" ","MAREA":" ","LANE":" ","ALLEY":" ","HOUSE_NO":"４８號","E_COORD97":180663.42000000001,"N_COORD97":2575451.6499999999,"ADDRESS":"十美街４８號","OBJECTID":632777},"geometry":{"x":180663.42000000086,"y":2575451.6500000004}},{"attributes":{"ID":632805,"DIS_CODE":0,"TOWNNAME":"柳營區","LI":"東昇里","LIN":"16鄰","STREET":"十美街","SECT":" ","MAREA":" ","LANE":" ","ALLEY":" ","HOUSE_NO":"５０號","E_COORD97":180662.89999999999,"N_COORD97":2575456.1499999999,"ADDRESS":"十美街５０號","OBJECTID":632778},"geometry":{"x":180662.9000000013,"y":2575456.1500000022}},{"attributes":{"ID":632806,"DIS_CODE":0,"TOWNNAME":"柳營區","LI":"東昇里","LIN":"16鄰","STREET":"十美街","SECT":" ","MAREA":" ","LANE":" ","ALLEY":" ","HOUSE_NO":"５１號","E_COORD97":180615.41,"N_COORD97":2575492.27,"ADDRESS":"十美街５１號","OBJECTID":632779},"geometry":{"x":180615.41000000015,"y":2575492.2700000014}},{"attributes":{"ID":632807,"DIS_CODE":0,"TOWNNAME":"柳營區","LI":"光福里","LIN":"27鄰","STREET":"十美街","SECT":" ","MAREA":" ","LANE":" ","ALLEY":" ","HOUSE_NO":"４１８號","E_COORD97":180069.29000000001,"N_COORD97":2575577.6499999999,"ADDRESS":"十美街４１８號","OBJECTID":632780},"geometry":{"x":180069.2900000019,"y":2575577.6499999985}},{"attributes":{"ID":632808,"DIS_CODE":0,"TOWNNAME":"柳營區","LI":"光福里","LIN":"27鄰","STREET":"十美街","SECT":" ","MAREA":" ","LANE":" ","ALLEY":" ","HOUSE_NO":"４２０號","E_COORD97":180061.14000000001,"N_COORD97":2575576.2400000002,"ADDRESS":"十美街４２０號","OBJECTID":632781},"geometry":{"x":180061.13999999966,"y":2575576.2400000002}},{"attributes":{"ID":632809,"DIS_CODE":0,"TOWNNAME":"柳營區","LI":"光福里","LIN":"27鄰","STREET":"十美街","SECT":" ","MAREA":" ","LANE":" ","ALLEY":" ","HOUSE_NO":"４２２號","E_COORD97":180058.85999999999,"N_COORD97":2575555.4700000002,"ADDRESS":"十美街４２２號","OBJECTID":632782},"geometry":{"x":180058.8600000022,"y":2575555.4699999988}},{"attributes":{"ID":632810,"DIS_CODE":0,"TOWNNAME":"柳營區","LI":"光福里","LIN":"27鄰","STREET":"十美街","SECT":" ","MAREA":" ","LANE":" ","ALLEY":" ","HOUSE_NO":"４２６號","E_COORD97":180054.16,"N_COORD97":2575555.71,"ADDRESS":"十美街４２６號","OBJECTID":632783},"geometry":{"x":180054.16000000015,"y":2575555.7100000028}},{"attributes":{"ID":632811,"DIS_CODE":0,"TOWNNAME":"柳營區","LI":"光福里","LIN":"27鄰","STREET":"十美街","SECT":" ","MAREA":" ","LANE":" ","ALLEY":" ","HOUSE_NO":"４２８號","E_COORD97":180047.69,"N_COORD97":2575555.9500000002,"ADDRESS":"十美街４２８號","OBJECTID":632784},"geometry":{"x":180047.69000000041,"y":2575555.9500000011}},{"attributes":{"ID":632812,"DIS_CODE":0,"TOWNNAME":"柳營區","LI":"光福里","LIN":"22鄰","STREET":"十美街","SECT":" ","MAREA":" ","LANE":" ","ALLEY":" ","HOUSE_NO":"４４１號","E_COORD97":179693.82999999999,"N_COORD97":2575455.4199999999,"ADDRESS":"十美街４４１號","OBJECTID":632785},"geometry":{"x":179693.83000000007,"y":2575455.4199999999}},{"attributes":{"ID":632813,"DIS_CODE":0,"TOWNNAME":"柳營區","LI":"光福里","LIN":"22鄰","STREET":"十美街","SECT":" ","MAREA":" ","LANE":" ","ALLEY":" ","HOUSE_NO":"４４３號","E_COORD97":179688.67999999999,"N_COORD97":2575450.6299999999,"ADDRESS":"十美街４４３號","OBJECTID":632786},"geometry":{"x":179688.68000000063,"y":2575450.629999999}},{"attributes":{"ID":632814,"DIS_CODE":0,"TOWNNAME":"柳營區","LI":"光福里","LIN":"22鄰","STREET":"十美街","SECT":" ","MAREA":" ","LANE":" ","ALLEY":" ","HOUSE_NO":"４４５號","E_COORD97":179685.17000000001,"N_COORD97":2575448.9900000002,"ADDRESS":"十美街４４５號","OBJECTID":632787},"geometry":{"x":179685.17000000179,"y":2575448.9900000002}},{"attributes":{"ID":632815,"DIS_CODE":0,"TOWNNAME":"柳營區","LI":"光福里","LIN":"22鄰","STREET":"十美街","SECT":" ","MAREA":" ","LANE":" ","ALLEY":" ","HOUSE_NO":"４４７號","E_COORD97":179681.45000000001,"N_COORD97":2575447.2200000002,"ADDRESS":"十美街４４７號","OBJECTID":632788},"geometry":{"x":179681.45000000019,"y":2575447.2200000007}},{"attributes":{"ID":632816,"DIS_CODE":0,"TOWNNAME":"柳營區","LI":"光福里","LIN":"22鄰","STREET":"十美街","SECT":" ","MAREA":" ","LANE":" ","ALLEY":" ","HOUSE_NO":"４４９號","E_COORD97":179677.45999999999,"N_COORD97":2575445.6000000001,"ADDRESS":"十美街４４９號","OBJECTID":632789},"geometry":{"x":179677.45999999996,"y":2575445.6000000015}},{"attributes":{"ID":632817,"DIS_CODE":0,"TOWNNAME":"柳營區","LI":"光福里","LIN":"22鄰","STREET":"十美街","SECT":" ","MAREA":" ","LANE":" ","ALLEY":" ","HOUSE_NO":"４５３號","E_COORD97":179670.20999999999,"N_COORD97":2575438.8500000001,"ADDRESS":"十美街４５３號","OBJECTID":632790},"geometry":{"x":179670.21000000089,"y":2575438.8499999996}},{"attributes":{"ID":632818,"DIS_CODE":0,"TOWNNAME":"柳營區","LI":"光福里","LIN":"22鄰","STREET":"十美街","SECT":" ","MAREA":" ","LANE":" ","ALLEY":" ","HOUSE_NO":"４５５號","E_COORD97":179666.07000000001,"N_COORD97":2575438.4100000001,"ADDRESS":"十美街４５５號","OBJECTID":632791},"geometry":{"x":179666.07000000123,"y":2575438.410000002}},{"attributes":{"ID":632819,"DIS_CODE":0,"TOWNNAME":"柳營區","LI":"士林里","LIN":"4鄰","STREET":"士林街","SECT":" ","MAREA":" ","LANE":" ","ALLEY":" ","HOUSE_NO":"１８號","E_COORD97":179316.94,"N_COORD97":2575134.4199999999,"ADDRESS":"士林街１８號","OBJECTID":632792},"geometry":{"x":179316.94000000041,"y":2575134.4199999999}},{"attributes":{"ID":632820,"DIS_CODE":0,"TOWNNAME":"柳營區","LI":"士林里","LIN":"1鄰","STREET":"士林街","SECT":" ","MAREA":" ","LANE":" ","ALLEY":" ","HOUSE_NO":"４５號","E_COORD97":179242.28,"N_COORD97":2575182.2799999998,"ADDRESS":"士林街４５號","OBJECTID":632793},"geometry":{"x":179242.28000000212,"y":2575182.2799999993}},{"attributes":{"ID":632821,"DIS_CODE":0,"TOWNNAME":"柳營區","LI":"士林里","LIN":"1鄰","STREET":"士林街","SECT":" ","MAREA":" ","LANE":" ","ALLEY":" ","HOUSE_NO":"４７號","E_COORD97":179240.44,"N_COORD97":2575193,"ADDRESS":"士林街４７號","OBJECTID":632794},"geometry":{"x":179240.44000000134,"y":2575193.0000000019}},{"attributes":{"ID":632822,"DIS_CODE":0,"TOWNNAME":"新營區","LI":"中營里","LIN":"4鄰","STREET":"中山路","SECT":" ","MAREA":" ","LANE":" ","ALLEY":" ","HOUSE_NO":"８９號","E_COORD97":180484.57000000001,"N_COORD97":2578317.9399999999,"ADDRESS":"中山路８９號","OBJECTID":632795},"geometry":{"x":180484.57000000216,"y":2578317.9400000032}},{"attributes":{"ID":632823,"DIS_CODE":0,"TOWNNAME":"新營區","LI":"延平里","LIN":"11鄰","STREET":"成功街","SECT":" ","MAREA":" ","LANE":" ","ALLEY":" ","HOUSE_NO":"４５號","E_COORD97":179649.193876,"N_COORD97":2577904.7706900002,"ADDRESS":"成功街４５號","OBJECTID":632796},"geometry":{"x":179649.19387600012,"y":2577904.7706879992}},{"attributes":{"ID":632824,"DIS_CODE":0,"TOWNNAME":"新營區","LI":"中營里","LIN":"4鄰","STREET":"新進路","SECT":" ","MAREA":" ","LANE":" ","ALLEY":" ","HOUSE_NO":"１０號","E_COORD97":180664.73999999999,"N_COORD97":2578364.71,"ADDRESS":"新進路１０號","OBJECTID":632797},"geometry":{"x":180664.74000000209,"y":2578364.709999999}},{"attributes":{"ID":632825,"DIS_CODE":0,"TOWNNAME":"南區","LI":"大恩里","LIN":"7鄰","STREET":"國民路","SECT":" ","MAREA":" ","LANE":" ","ALLEY":" ","HOUSE_NO":"１１７號","E_COORD97":169293.12,"N_COORD97":2540869.1899999999,"ADDRESS":"國民路１１７號","OBJECTID":632798},"geometry":{"x":169293.12000000104,"y":2540869.1899999976}},{"attributes":{"ID":632826,"DIS_CODE":0,"TOWNNAME":"南區","LI":"大恩里","LIN":"7鄰","STREET":"國民路","SECT":" ","MAREA":" ","LANE":" ","ALLEY":" ","HOUSE_NO":"１１９號","E_COORD97":169289.25,"N_COORD97":2540869.2999999998,"ADDRESS":"國民路１１９號","OBJECTID":632799},"geometry":{"x":169289.25,"y":2540869.3000000007}},{"attributes":{"ID":632827,"DIS_CODE":0,"TOWNNAME":"南區","LI":"大恩里","LIN":"4鄰","STREET":"國民路","SECT":" ","MAREA":" ","LANE":" ","ALLEY":" ","HOUSE_NO":"１４２號","E_COORD97":169232.73999999999,"N_COORD97":2540906.9399999999,"ADDRESS":"國民路１４２號","OBJECTID":632800},"geometry":{"x":169232.74000000115,"y":2540906.9399999995}}]}