{"displayFieldName":"TOWNNAME","fieldAliases":{"ID":"ID","DIS_CODE":"DIS_CODE","TOWNNAME":"TOWNNAME","LI":"LI","LIN":"LIN","STREET":"STREET","SECT":"SECT","MAREA":"MAREA","LANE":"LANE","ALLEY":"ALLEY","HOUSE_NO":"HOUSE_NO","E_COORD97":"E_COORD97","N_COORD97":"N_COORD97","ADDRESS":"ADDRESS","OBJECTID":"OBJECTID"},"geometryType":"esriGeometryPoint","spatialReference":{"wkid":102443,"latestWkid":3826},"fields":[{"name":"ID","type":"esriFieldTypeDouble","alias":"ID"},{"name":"DIS_CODE","type":"esriFieldTypeInteger","alias":"DIS_CODE"},{"name":"TOWNNAME","type":"esriFieldTypeString","alias":"TOWNNAME","length":8},{"name":"LI","type":"esriFieldTypeString","alias":"LI","length":8},{"name":"LIN","type":"esriFieldTypeString","alias":"LIN","length":12},{"name":"STREET","type":"esriFieldTypeString","alias":"STREET","length":20},{"name":"SECT","type":"esriFieldTypeString","alias":"SECT","length":8},{"name":"MAREA","type":"esriFieldTypeString","alias":"MAREA","length":12},{"name":"LANE","type":"esriFieldTypeString","alias":"LANE","length":10},{"name":"ALLEY","type":"esriFieldTypeString","alias":"ALLEY","length":10},{"name":"HOUSE_NO","type":"esriFieldTypeString","alias":"HOUSE_NO","length":20},{"name":"E_COORD97","type":"esriFieldTypeDouble","alias":"E_COORD97"},{"name":"N_COORD97","type":"esriFieldTypeDouble","alias":"N_COORD97"},{"name":"ADDRESS","type":"esriFieldTypeString","alias":"ADDRESS","length":50},{"name":"OBJECTID","type":"esriFieldTypeOID","alias":"OBJECTID"}],"features":[{"attributes":{"ID":206602,"DIS_CODE":0,"TOWNNAME":"學甲區","LI":"平和里","LIN":"2鄰","STREET":" ","SECT":" ","MAREA":"大埔口","LANE":" ","ALLEY":" ","HOUSE_NO":"２１號","E_COORD97":170268.29000000001,"N_COORD97":2573419.23,"ADDRESS":"大埔口２１號","OBJECTID":206601},"geometry":{"x":170268.29000000097,"y":2573419.2300000023}},{"attributes":{"ID":206603,"DIS_CODE":0,"TOWNNAME":"學甲區","LI":"平和里","LIN":"2鄰","STREET":" ","SECT":" ","MAREA":"大埔口","LANE":" ","ALLEY":" ","HOUSE_NO":"２２號之１０","E_COORD97":170148.91,"N_COORD97":2573409.6099999999,"ADDRESS":"大埔口２２號之１０","OBJECTID":206602},"geometry":{"x":170148.91000000108,"y":2573409.6099999994}},{"attributes":{"ID":206604,"DIS_CODE":0,"TOWNNAME":"學甲區","LI":"大灣里","LIN":"2鄰","STREET":" ","SECT":" ","MAREA":"大灣","LANE":" ","ALLEY":" ","HOUSE_NO":"１０號之１","E_COORD97":166951.95999999999,"N_COORD97":2568199.3300000001,"ADDRESS":"大灣１０號之１","OBJECTID":206603},"geometry":{"x":166951.95999999996,"y":2568199.3300000019}},{"attributes":{"ID":206605,"DIS_CODE":0,"TOWNNAME":"學甲區","LI":"大灣里","LIN":"2鄰","STREET":" ","SECT":" ","MAREA":"大灣","LANE":" ","ALLEY":" ","HOUSE_NO":"１０號","E_COORD97":166956.73000000001,"N_COORD97":2568204.7000000002,"ADDRESS":"大灣１０號","OBJECTID":206604},"geometry":{"x":166956.73000000138,"y":2568204.6999999993}},{"attributes":{"ID":206606,"DIS_CODE":0,"TOWNNAME":"南區","LI":"大林里","LIN":"4鄰","STREET":"大同路","SECT":"二段","MAREA":" ","LANE":"四０六巷","ALLEY":"１２弄","HOUSE_NO":"４２號","E_COORD97":169231.41,"N_COORD97":2541700.3399999999,"ADDRESS":"大同路二段四０六巷１２弄４２號","OBJECTID":206605},"geometry":{"x":169231.41000000108,"y":2541700.3400000017}},{"attributes":{"ID":206607,"DIS_CODE":0,"TOWNNAME":"學甲區","LI":"大灣里","LIN":"2鄰","STREET":" ","SECT":" ","MAREA":"大灣","LANE":" ","ALLEY":" ","HOUSE_NO":"１１號之６","E_COORD97":166730.82999999999,"N_COORD97":2568151.2999999998,"ADDRESS":"大灣１１號之６","OBJECTID":206606},"geometry":{"x":166730.83000000007,"y":2568151.3000000007}},{"attributes":{"ID":206608,"DIS_CODE":0,"TOWNNAME":"學甲區","LI":"大灣里","LIN":"2鄰","STREET":" ","SECT":" ","MAREA":"大灣","LANE":" ","ALLEY":" ","HOUSE_NO":"１１號","E_COORD97":166941.66,"N_COORD97":2568233.1000000001,"ADDRESS":"大灣１１號","OBJECTID":206607},"geometry":{"x":166941.66000000108,"y":2568233.0999999996}},{"attributes":{"ID":206609,"DIS_CODE":0,"TOWNNAME":"東山區","LI":"東山里","LIN":"2鄰","STREET":" ","SECT":" ","MAREA":"東山","LANE":" ","ALLEY":" ","HOUSE_NO":"１２５之１號","E_COORD97":189150.69,"N_COORD97":2580414.6699999999,"ADDRESS":"東山１２５之１號","OBJECTID":206608},"geometry":{"x":189150.69000000041,"y":2580414.6699999999}},{"attributes":{"ID":206610,"DIS_CODE":0,"TOWNNAME":"東山區","LI":"東山里","LIN":"2鄰","STREET":" ","SECT":" ","MAREA":"東山","LANE":" ","ALLEY":" ","HOUSE_NO":"１２５號","E_COORD97":189143.70999999999,"N_COORD97":2580399.0499999998,"ADDRESS":"東山１２５號","OBJECTID":206609},"geometry":{"x":189143.70999999996,"y":2580399.0500000007}},{"attributes":{"ID":206611,"DIS_CODE":0,"TOWNNAME":"東山區","LI":"東山里","LIN":"2鄰","STREET":" ","SECT":" ","MAREA":"東山","LANE":" ","ALLEY":" ","HOUSE_NO":"１２７號","E_COORD97":189133.64999999999,"N_COORD97":2580419.3599999999,"ADDRESS":"東山１２７號","OBJECTID":206610},"geometry":{"x":189133.6500000013,"y":2580419.3599999994}},{"attributes":{"ID":206612,"DIS_CODE":0,"TOWNNAME":"東山區","LI":"東山里","LIN":"2鄰","STREET":" ","SECT":" ","MAREA":"東山","LANE":" ","ALLEY":" ","HOUSE_NO":"１２８號","E_COORD97":189117.35000000001,"N_COORD97":2580409.52,"ADDRESS":"東山１２８號","OBJECTID":206611},"geometry":{"x":189117.35000000149,"y":2580409.5200000014}},{"attributes":{"ID":206613,"DIS_CODE":0,"TOWNNAME":"東山區","LI":"東山里","LIN":"2鄰","STREET":" ","SECT":" ","MAREA":"東山","LANE":" ","ALLEY":" ","HOUSE_NO":"１２９號","E_COORD97":189105.48000000001,"N_COORD97":2580406.4900000002,"ADDRESS":"東山１２９號","OBJECTID":206612},"geometry":{"x":189105.48000000231,"y":2580406.4899999984}},{"attributes":{"ID":206614,"DIS_CODE":0,"TOWNNAME":"東山區","LI":"東山里","LIN":"2鄰","STREET":" ","SECT":" ","MAREA":"東山","LANE":" ","ALLEY":" ","HOUSE_NO":"１３１號","E_COORD97":189088.03,"N_COORD97":2580423.5299999998,"ADDRESS":"東山１３１號","OBJECTID":206613},"geometry":{"x":189088.03000000212,"y":2580423.5300000012}},{"attributes":{"ID":206615,"DIS_CODE":0,"TOWNNAME":"東山區","LI":"東山里","LIN":"2鄰","STREET":" ","SECT":" ","MAREA":"東山","LANE":" ","ALLEY":" ","HOUSE_NO":"１３３號之１","E_COORD97":189050.25,"N_COORD97":2580427.0299999998,"ADDRESS":"東山１３３號之１","OBJECTID":206614},"geometry":{"x":189050.25,"y":2580427.0300000012}},{"attributes":{"ID":206616,"DIS_CODE":0,"TOWNNAME":"東山區","LI":"東山里","LIN":"2鄰","STREET":" ","SECT":" ","MAREA":"東山","LANE":" ","ALLEY":" ","HOUSE_NO":"１３３號之２","E_COORD97":189054.98999999999,"N_COORD97":2580426.8500000001,"ADDRESS":"東山１３３號之２","OBJECTID":206615},"geometry":{"x":189054.99000000115,"y":2580426.8499999996}},{"attributes":{"ID":206617,"DIS_CODE":0,"TOWNNAME":"東山區","LI":"東山里","LIN":"2鄰","STREET":" ","SECT":" ","MAREA":"東山","LANE":" ","ALLEY":" ","HOUSE_NO":"１３３號之３","E_COORD97":189060.23000000001,"N_COORD97":2580426.5299999998,"ADDRESS":"東山１３３號之３","OBJECTID":206616},"geometry":{"x":189060.23000000138,"y":2580426.5300000012}},{"attributes":{"ID":206618,"DIS_CODE":0,"TOWNNAME":"東山區","LI":"東山里","LIN":"2鄰","STREET":" ","SECT":" ","MAREA":"東山","LANE":" ","ALLEY":" ","HOUSE_NO":"１３３號之４","E_COORD97":189065.69,"N_COORD97":2580426.4500000002,"ADDRESS":"東山１３３號之４","OBJECTID":206617},"geometry":{"x":189065.69000000134,"y":2580426.450000003}},{"attributes":{"ID":206619,"DIS_CODE":0,"TOWNNAME":"東區","LI":"崇文里","LIN":"9鄰","STREET":"崇德十八街","SECT":" ","MAREA":" ","LANE":" ","ALLEY":" ","HOUSE_NO":"１１９號四樓","E_COORD97":171074.20999999999,"N_COORD97":2541052.5099999998,"ADDRESS":"崇德十八街１１９號四樓","OBJECTID":206618},"geometry":{"x":171074.20999999996,"y":2541052.5099999998}},{"attributes":{"ID":206620,"DIS_CODE":0,"TOWNNAME":"南區","LI":"大林里","LIN":"4鄰","STREET":"大同路","SECT":"二段","MAREA":" ","LANE":"四０六巷","ALLEY":"１２弄","HOUSE_NO":"４０號","E_COORD97":169239.98999999999,"N_COORD97":2541702.3999999999,"ADDRESS":"大同路二段四０六巷１２弄４０號","OBJECTID":206619},"geometry":{"x":169239.99000000115,"y":2541702.4000000004}},{"attributes":{"ID":206621,"DIS_CODE":0,"TOWNNAME":"南區","LI":"大林里","LIN":"4鄰","STREET":"大同路","SECT":"二段","MAREA":" ","LANE":"四０六巷","ALLEY":"１２弄","HOUSE_NO":"３８號","E_COORD97":169249.35000000001,"N_COORD97":2541704.1499999999,"ADDRESS":"大同路二段四０六巷１２弄３８號","OBJECTID":206620},"geometry":{"x":169249.34999999963,"y":2541704.1500000004}},{"attributes":{"ID":206622,"DIS_CODE":0,"TOWNNAME":"南區","LI":"大林里","LIN":"4鄰","STREET":"大同路","SECT":"二段","MAREA":" ","LANE":"四０六巷","ALLEY":"１２弄","HOUSE_NO":"３６號","E_COORD97":169260.31,"N_COORD97":2541706.5299999998,"ADDRESS":"大同路二段四０六巷１２弄３６號","OBJECTID":206621},"geometry":{"x":169260.31000000052,"y":2541706.5299999993}},{"attributes":{"ID":206623,"DIS_CODE":0,"TOWNNAME":"仁德區","LI":"太子里","LIN":"9鄰","STREET":"太子路","SECT":" ","MAREA":" ","LANE":" ","ALLEY":" ","HOUSE_NO":"１６０號","E_COORD97":174402.17999999999,"N_COORD97":2543524.2599999998,"ADDRESS":"太子路１６０號","OBJECTID":206622},"geometry":{"x":174402.1799999997,"y":2543524.2600000016}},{"attributes":{"ID":206624,"DIS_CODE":0,"TOWNNAME":"東區","LI":"關聖里","LIN":"4鄰","STREET":"裕農路","SECT":" ","MAREA":" ","LANE":"６６８巷","ALLEY":"６７弄","HOUSE_NO":"１６號","E_COORD97":171800.89000000001,"N_COORD97":2542925.4399999999,"ADDRESS":"裕農路６６８巷６７弄１６號","OBJECTID":206623},"geometry":{"x":171800.8900000006,"y":2542925.4399999976}},{"attributes":{"ID":206625,"DIS_CODE":0,"TOWNNAME":"安南區","LI":"砂崙里","LIN":"4鄰","STREET":"城北路","SECT":" ","MAREA":" ","LANE":"８７１巷","ALLEY":"１５４弄","HOUSE_NO":"２７號","E_COORD97":160484.42000000001,"N_COORD97":2553317.6899999999,"ADDRESS":"城北路８７１巷１５４弄２７號","OBJECTID":206624},"geometry":{"x":160484.42000000086,"y":2553317.6899999995}},{"attributes":{"ID":206626,"DIS_CODE":0,"TOWNNAME":"南區","LI":"大林里","LIN":"8鄰","STREET":"大同路","SECT":"二段","MAREA":" ","LANE":"４８２巷","ALLEY":"１１２弄","HOUSE_NO":"４１號","E_COORD97":169227.19,"N_COORD97":2541627.1499999999,"ADDRESS":"大同路二段４８２巷１１２弄４１號","OBJECTID":206625},"geometry":{"x":169227.19000000041,"y":2541627.1500000022}},{"attributes":{"ID":206627,"DIS_CODE":0,"TOWNNAME":"安南區","LI":"理想里","LIN":"8鄰","STREET":"海佃路","SECT":"二段","MAREA":" ","LANE":"１５０巷","ALLEY":"１１２弄","HOUSE_NO":"１之５３號","E_COORD97":167336.57999999999,"N_COORD97":2548375.29,"ADDRESS":"海佃路二段１５０巷１１２弄１之５３號","OBJECTID":206626},"geometry":{"x":167336.58000000101,"y":2548375.290000001}},{"attributes":{"ID":206628,"DIS_CODE":0,"TOWNNAME":"安南區","LI":"理想里","LIN":"8鄰","STREET":"海佃路","SECT":"二段","MAREA":" ","LANE":"１５０巷","ALLEY":"１１２弄","HOUSE_NO":"１之５２號","E_COORD97":167340.23000000001,"N_COORD97":2548379.2599999998,"ADDRESS":"海佃路二段１５０巷１１２弄１之５２號","OBJECTID":206627},"geometry":{"x":167340.23000000045,"y":2548379.2600000016}},{"attributes":{"ID":206629,"DIS_CODE":0,"TOWNNAME":"安南區","LI":"理想里","LIN":"8鄰","STREET":"海佃路","SECT":"二段","MAREA":" ","LANE":"１５０巷","ALLEY":"１１２弄","HOUSE_NO":"１之５５號","E_COORD97":167334.67000000001,"N_COORD97":2548369.5800000001,"ADDRESS":"海佃路二段１５０巷１１２弄１之５５號","OBJECTID":206628},"geometry":{"x":167334.67000000086,"y":2548369.5800000001}},{"attributes":{"ID":206630,"DIS_CODE":0,"TOWNNAME":"安南區","LI":"理想里","LIN":"8鄰","STREET":"海佃路","SECT":"二段","MAREA":" ","LANE":"１５０巷","ALLEY":"１１２弄","HOUSE_NO":"１之５６號","E_COORD97":167331.5,"N_COORD97":2548364.1800000002,"ADDRESS":"海佃路二段１５０巷１１２弄１之５６號","OBJECTID":206629},"geometry":{"x":167331.5,"y":2548364.1799999997}},{"attributes":{"ID":206631,"DIS_CODE":0,"TOWNNAME":"安南區","LI":"理想里","LIN":"8鄰","STREET":"海佃路","SECT":"二段","MAREA":" ","LANE":"１５０巷","ALLEY":"１１２弄","HOUSE_NO":"１之５７號","E_COORD97":167328.32000000001,"N_COORD97":2548359.4199999999,"ADDRESS":"海佃路二段１５０巷１１２弄１之５７號","OBJECTID":206630},"geometry":{"x":167328.32000000216,"y":2548359.4199999999}},{"attributes":{"ID":206632,"DIS_CODE":0,"TOWNNAME":"安南區","LI":"理想里","LIN":"8鄰","STREET":"海佃路","SECT":"二段","MAREA":" ","LANE":"１５０巷","ALLEY":"１１２弄","HOUSE_NO":"１之３３號","E_COORD97":167268.79000000001,"N_COORD97":2548431.4900000002,"ADDRESS":"海佃路二段１５０巷１１２弄１之３３號","OBJECTID":206631},"geometry":{"x":167268.7900000019,"y":2548431.4900000002}},{"attributes":{"ID":206633,"DIS_CODE":0,"TOWNNAME":"安南區","LI":"理想里","LIN":"8鄰","STREET":"海佃路","SECT":"二段","MAREA":" ","LANE":"１５０巷","ALLEY":"１１２弄","HOUSE_NO":"１之３５號","E_COORD97":167273.75,"N_COORD97":2548429.8399999999,"ADDRESS":"海佃路二段１５０巷１１２弄１之３５號","OBJECTID":206632},"geometry":{"x":167273.75,"y":2548429.8400000017}},{"attributes":{"ID":206634,"DIS_CODE":0,"TOWNNAME":"安南區","LI":"理想里","LIN":"8鄰","STREET":"海佃路","SECT":"二段","MAREA":" ","LANE":"１５０巷","ALLEY":"１１２弄","HOUSE_NO":"１之３６號","E_COORD97":167277.56,"N_COORD97":2548428.4100000001,"ADDRESS":"海佃路二段１５０巷１１２弄１之３６號","OBJECTID":206633},"geometry":{"x":167277.56000000052,"y":2548428.4100000001}},{"attributes":{"ID":206635,"DIS_CODE":0,"TOWNNAME":"安南區","LI":"理想里","LIN":"8鄰","STREET":"海佃路","SECT":"二段","MAREA":" ","LANE":"１５０巷","ALLEY":"１１２弄","HOUSE_NO":"１之３８號","E_COORD97":167284.70000000001,"N_COORD97":2548424.2799999998,"ADDRESS":"海佃路二段１５０巷１１２弄１之３８號","OBJECTID":206634},"geometry":{"x":167284.70000000019,"y":2548424.2799999993}},{"attributes":{"ID":206636,"DIS_CODE":0,"TOWNNAME":"安南區","LI":"理想里","LIN":"8鄰","STREET":"海佃路","SECT":"二段","MAREA":" ","LANE":"１５０巷","ALLEY":"１１２弄","HOUSE_NO":"１之３９號","E_COORD97":167288.82999999999,"N_COORD97":2548422.0600000001,"ADDRESS":"海佃路二段１５０巷１１２弄１之３９號","OBJECTID":206635},"geometry":{"x":167288.82999999914,"y":2548422.0600000024}},{"attributes":{"ID":206637,"DIS_CODE":0,"TOWNNAME":"安南區","LI":"東和里","LIN":"4鄰","STREET":"長和路","SECT":"一段","MAREA":" ","LANE":"８２３巷","ALLEY":"９８弄","HOUSE_NO":"１８號","E_COORD97":170770.09,"N_COORD97":2551157.2400000002,"ADDRESS":"長和路一段８２３巷９８弄１８號","OBJECTID":206636},"geometry":{"x":170770.08999999985,"y":2551157.2400000021}},{"attributes":{"ID":206638,"DIS_CODE":0,"TOWNNAME":"安南區","LI":"理想里","LIN":"8鄰","STREET":"海佃路","SECT":"二段","MAREA":" ","LANE":"１５０巷","ALLEY":"１１２弄","HOUSE_NO":"１之４０號","E_COORD97":167292,"N_COORD97":2548419.0499999998,"ADDRESS":"海佃路二段１５０巷１１２弄１之４０號","OBJECTID":206637},"geometry":{"x":167292,"y":2548419.0500000026}},{"attributes":{"ID":206639,"DIS_CODE":0,"TOWNNAME":"東山區","LI":"東山里","LIN":"2鄰","STREET":" ","SECT":" ","MAREA":"東山","LANE":" ","ALLEY":" ","HOUSE_NO":"１３３號","E_COORD97":189051.04000000001,"N_COORD97":2580409.2200000002,"ADDRESS":"東山１３３號","OBJECTID":206638},"geometry":{"x":189051.04000000097,"y":2580409.2200000044}},{"attributes":{"ID":206640,"DIS_CODE":0,"TOWNNAME":"安南區","LI":"理想里","LIN":"8鄰","STREET":"海佃路","SECT":"二段","MAREA":" ","LANE":"１５０巷","ALLEY":"１１２弄","HOUSE_NO":"１之４１號","E_COORD97":167295.97,"N_COORD97":2548416.1899999999,"ADDRESS":"海佃路二段１５０巷１１２弄１之４１號","OBJECTID":206639},"geometry":{"x":167295.96999999974,"y":2548416.1899999976}},{"attributes":{"ID":206641,"DIS_CODE":0,"TOWNNAME":"安南區","LI":"理想里","LIN":"8鄰","STREET":"海佃路","SECT":"二段","MAREA":" ","LANE":"１５０巷","ALLEY":"１１２弄","HOUSE_NO":"１之４２號","E_COORD97":167300.73000000001,"N_COORD97":2548414.2799999998,"ADDRESS":"海佃路二段１５０巷１１２弄１之４２號","OBJECTID":206640},"geometry":{"x":167300.73000000138,"y":2548414.2799999993}},{"attributes":{"ID":206642,"DIS_CODE":0,"TOWNNAME":"安南區","LI":"理想里","LIN":"8鄰","STREET":"海佃路","SECT":"二段","MAREA":" ","LANE":"１５０巷","ALLEY":"１１２弄","HOUSE_NO":"１之４５號","E_COORD97":167308.51000000001,"N_COORD97":2548409.6800000002,"ADDRESS":"海佃路二段１５０巷１１２弄１之４５號","OBJECTID":206641},"geometry":{"x":167308.51000000071,"y":2548409.6799999978}},{"attributes":{"ID":206643,"DIS_CODE":0,"TOWNNAME":"東山區","LI":"東正里","LIN":"2鄰","STREET":" ","SECT":" ","MAREA":"東勢","LANE":" ","ALLEY":" ","HOUSE_NO":"１１號之１","E_COORD97":189310.57000000001,"N_COORD97":2580108.7400000002,"ADDRESS":"東勢１１號之１","OBJECTID":206642},"geometry":{"x":189310.57000000123,"y":2580108.7400000002}},{"attributes":{"ID":206644,"DIS_CODE":0,"TOWNNAME":"東山區","LI":"東正里","LIN":"2鄰","STREET":" ","SECT":" ","MAREA":"東勢","LANE":" ","ALLEY":" ","HOUSE_NO":"１１號之２","E_COORD97":189323.89999999999,"N_COORD97":2580099.4700000002,"ADDRESS":"東勢１１號之２","OBJECTID":206643},"geometry":{"x":189323.90000000037,"y":2580099.4700000025}},{"attributes":{"ID":206645,"DIS_CODE":0,"TOWNNAME":"東區","LI":"崇文里","LIN":"9鄰","STREET":"崇德十八街","SECT":" ","MAREA":" ","LANE":" ","ALLEY":" ","HOUSE_NO":"６５號","E_COORD97":170951.82000000001,"N_COORD97":2541042.7599999998,"ADDRESS":"崇德十八街６５號","OBJECTID":206644},"geometry":{"x":170951.8200000003,"y":2541042.7600000016}},{"attributes":{"ID":206646,"DIS_CODE":0,"TOWNNAME":"仁德區","LI":"仁義里","LIN":"25鄰","STREET":"中清二街","SECT":" ","MAREA":" ","LANE":" ","ALLEY":" ","HOUSE_NO":"２３號","E_COORD97":173546.10000000001,"N_COORD97":2541425.04,"ADDRESS":"中清二街２３號","OBJECTID":206645},"geometry":{"x":173546.10000000056,"y":2541425.0399999991}},{"attributes":{"ID":206647,"DIS_CODE":0,"TOWNNAME":"仁德區","LI":"仁義里","LIN":"1鄰","STREET":"義林路","SECT":" ","MAREA":" ","LANE":" ","ALLEY":" ","HOUSE_NO":"２０９號","E_COORD97":174477.29000000001,"N_COORD97":2541040.77,"ADDRESS":"義林路２０９號","OBJECTID":206646},"geometry":{"x":174477.29000000097,"y":2541040.7699999996}},{"attributes":{"ID":206648,"DIS_CODE":0,"TOWNNAME":"安南區","LI":"理想里","LIN":"8鄰","STREET":"海佃路","SECT":"二段","MAREA":" ","LANE":"１５０巷","ALLEY":"１１２弄","HOUSE_NO":"１之４６號","E_COORD97":167313.12,"N_COORD97":2548406.3500000001,"ADDRESS":"海佃路二段１５０巷１１２弄１之４６號","OBJECTID":206647},"geometry":{"x":167313.12000000104,"y":2548406.3500000015}},{"attributes":{"ID":206649,"DIS_CODE":0,"TOWNNAME":"安南區","LI":"理想里","LIN":"8鄰","STREET":"海佃路","SECT":"二段","MAREA":" ","LANE":"１５０巷","ALLEY":"１１２弄","HOUSE_NO":"１之４７號","E_COORD97":167317.23999999999,"N_COORD97":2548403.8100000001,"ADDRESS":"海佃路二段１５０巷１１２弄１之４７號","OBJECTID":206648},"geometry":{"x":167317.24000000115,"y":2548403.8100000024}},{"attributes":{"ID":206650,"DIS_CODE":0,"TOWNNAME":"安南區","LI":"理想里","LIN":"8鄰","STREET":"海佃路","SECT":"二段","MAREA":" ","LANE":"１５０巷","ALLEY":"１１２弄","HOUSE_NO":"１之４８號","E_COORD97":167321.69,"N_COORD97":2548400.79,"ADDRESS":"海佃路二段１５０巷１１２弄１之４８號","OBJECTID":206649},"geometry":{"x":167321.69000000041,"y":2548400.7899999991}},{"attributes":{"ID":206651,"DIS_CODE":0,"TOWNNAME":"安南區","LI":"理想里","LIN":"8鄰","STREET":"海佃路","SECT":"二段","MAREA":" ","LANE":"１５０巷","ALLEY":"１１２弄","HOUSE_NO":"１之４９號","E_COORD97":167325.97,"N_COORD97":2548397.46,"ADDRESS":"海佃路二段１５０巷１１２弄１之４９號","OBJECTID":206650},"geometry":{"x":167325.96999999974,"y":2548397.4600000009}},{"attributes":{"ID":206652,"DIS_CODE":0,"TOWNNAME":"安南區","LI":"理想里","LIN":"8鄰","STREET":"海佃路","SECT":"二段","MAREA":" ","LANE":"１５０巷","ALLEY":"１１２弄","HOUSE_NO":"１之５０號","E_COORD97":167330.10000000001,"N_COORD97":2548393.96,"ADDRESS":"海佃路二段１５０巷１１２弄１之５０號","OBJECTID":206651},"geometry":{"x":167330.09999999963,"y":2548393.9600000028}},{"attributes":{"ID":206653,"DIS_CODE":0,"TOWNNAME":"東山區","LI":"青山里","LIN":"2鄰","STREET":" ","SECT":" ","MAREA":"青山","LANE":" ","ALLEY":" ","HOUSE_NO":"１８５之３號","E_COORD97":195377.75,"N_COORD97":2575216.4900000002,"ADDRESS":"青山１８５之３號","OBJECTID":206652},"geometry":{"x":195377.75000000093,"y":2575216.4900000021}},{"attributes":{"ID":206654,"DIS_CODE":0,"TOWNNAME":"安南區","LI":"理想里","LIN":"8鄰","STREET":"海佃路","SECT":"二段","MAREA":" ","LANE":"１５０巷","ALLEY":"１１２弄","HOUSE_NO":"１之５９號","E_COORD97":167283.25,"N_COORD97":2548377.5899999999,"ADDRESS":"海佃路二段１５０巷１１２弄１之５９號","OBJECTID":206653},"geometry":{"x":167283.25000000093,"y":2548377.5900000017}},{"attributes":{"ID":206655,"DIS_CODE":0,"TOWNNAME":"安南區","LI":"理想里","LIN":"8鄰","STREET":"海佃路","SECT":"二段","MAREA":" ","LANE":"１５０巷","ALLEY":"１１２弄","HOUSE_NO":"１之６０號","E_COORD97":167278.81,"N_COORD97":2548380.4500000002,"ADDRESS":"海佃路二段１５０巷１１２弄１之６０號","OBJECTID":206654},"geometry":{"x":167278.81000000052,"y":2548380.450000003}},{"attributes":{"ID":206656,"DIS_CODE":0,"TOWNNAME":"安南區","LI":"理想里","LIN":"8鄰","STREET":"海佃路","SECT":"二段","MAREA":" ","LANE":"１５０巷","ALLEY":"１１２弄","HOUSE_NO":"１之６１號","E_COORD97":167275.63,"N_COORD97":2548382.04,"ADDRESS":"海佃路二段１５０巷１１２弄１之６１號","OBJECTID":206655},"geometry":{"x":167275.63000000082,"y":2548382.0399999991}},{"attributes":{"ID":206657,"DIS_CODE":0,"TOWNNAME":"安南區","LI":"理想里","LIN":"8鄰","STREET":"海佃路","SECT":"二段","MAREA":" ","LANE":"１５０巷","ALLEY":"１１２弄","HOUSE_NO":"１之６２號","E_COORD97":167271.98000000001,"N_COORD97":2548384.2599999998,"ADDRESS":"海佃路二段１５０巷１１２弄１之６２號","OBJECTID":206656},"geometry":{"x":167271.98000000138,"y":2548384.2599999998}},{"attributes":{"ID":206658,"DIS_CODE":0,"TOWNNAME":"安南區","LI":"理想里","LIN":"8鄰","STREET":"海佃路","SECT":"二段","MAREA":" ","LANE":"１５０巷","ALLEY":"１１２弄","HOUSE_NO":"１之６３號","E_COORD97":167268.64999999999,"N_COORD97":2548385.6899999999,"ADDRESS":"海佃路二段１５０巷１１２弄１之６３號","OBJECTID":206657},"geometry":{"x":167268.6500000013,"y":2548385.6900000032}},{"attributes":{"ID":206659,"DIS_CODE":0,"TOWNNAME":"安南區","LI":"理想里","LIN":"8鄰","STREET":"海佃路","SECT":"二段","MAREA":" ","LANE":"１５０巷","ALLEY":"１１２弄","HOUSE_NO":"１之７３號","E_COORD97":167256.60000000001,"N_COORD97":2548417.2999999998,"ADDRESS":"海佃路二段１５０巷１１２弄１之７３號","OBJECTID":206658},"geometry":{"x":167256.60000000056,"y":2548417.3000000026}},{"attributes":{"ID":206660,"DIS_CODE":0,"TOWNNAME":"安南區","LI":"理想里","LIN":"8鄰","STREET":"海佃路","SECT":"二段","MAREA":" ","LANE":"１５０巷","ALLEY":"１１２弄","HOUSE_NO":"１之７５號","E_COORD97":167260.57000000001,"N_COORD97":2548424.1299999999,"ADDRESS":"海佃路二段１５０巷１１２弄１之７５號","OBJECTID":206659},"geometry":{"x":167260.57000000216,"y":2548424.1300000008}},{"attributes":{"ID":206661,"DIS_CODE":0,"TOWNNAME":"安南區","LI":"新順里","LIN":"8鄰","STREET":"總安街","SECT":"一段","MAREA":" ","LANE":"三六二巷","ALLEY":"４６弄","HOUSE_NO":"２號","E_COORD97":169223.75,"N_COORD97":2550519.1099999999,"ADDRESS":"總安街一段三六二巷４６弄２號","OBJECTID":206660},"geometry":{"x":169223.75000000186,"y":2550519.1100000031}},{"attributes":{"ID":206662,"DIS_CODE":0,"TOWNNAME":"安南區","LI":"新順里","LIN":"8鄰","STREET":"總安街","SECT":"一段","MAREA":" ","LANE":"三六二巷","ALLEY":"４６弄","HOUSE_NO":"２之１號","E_COORD97":169226.17000000001,"N_COORD97":2550519.1099999999,"ADDRESS":"總安街一段三六二巷４６弄２之１號","OBJECTID":206661},"geometry":{"x":169226.17000000086,"y":2550519.1100000031}},{"attributes":{"ID":206663,"DIS_CODE":0,"TOWNNAME":"安南區","LI":"新順里","LIN":"8鄰","STREET":"總安街","SECT":"一段","MAREA":" ","LANE":"三六二巷","ALLEY":"４６弄","HOUSE_NO":"２之２號","E_COORD97":169228.45000000001,"N_COORD97":2550519.1099999999,"ADDRESS":"總安街一段三六二巷４６弄２之２號","OBJECTID":206662},"geometry":{"x":169228.45000000019,"y":2550519.1100000031}},{"attributes":{"ID":206664,"DIS_CODE":0,"TOWNNAME":"安南區","LI":"新順里","LIN":"8鄰","STREET":"總安街","SECT":"一段","MAREA":" ","LANE":"三六二巷","ALLEY":"４６弄","HOUSE_NO":"２之３號","E_COORD97":169230.98999999999,"N_COORD97":2550518.9900000002,"ADDRESS":"總安街一段三六二巷４６弄２之３號","OBJECTID":206663},"geometry":{"x":169230.99000000115,"y":2550518.9900000002}},{"attributes":{"ID":206665,"DIS_CODE":0,"TOWNNAME":"北區","LI":"文元里","LIN":"5鄰","STREET":"文賢路","SECT":" ","MAREA":" ","LANE":"１１２２巷","ALLEY":"５９弄","HOUSE_NO":"２７號","E_COORD97":167490.87,"N_COORD97":2546450.1699999999,"ADDRESS":"文賢路１１２２巷５９弄２７號","OBJECTID":206664},"geometry":{"x":167490.87000000104,"y":2546450.1699999999}},{"attributes":{"ID":206666,"DIS_CODE":0,"TOWNNAME":"北區","LI":"文元里","LIN":"5鄰","STREET":"文賢路","SECT":" ","MAREA":" ","LANE":"１１２２巷","ALLEY":"５９弄","HOUSE_NO":"２９號","E_COORD97":167490.47,"N_COORD97":2546454.9399999999,"ADDRESS":"文賢路１１２２巷５９弄２９號","OBJECTID":206665},"geometry":{"x":167490.46999999974,"y":2546454.9400000032}},{"attributes":{"ID":206667,"DIS_CODE":0,"TOWNNAME":"北區","LI":"文元里","LIN":"5鄰","STREET":"文賢路","SECT":" ","MAREA":" ","LANE":"１１２２巷","ALLEY":"５９弄","HOUSE_NO":"３１號","E_COORD97":167490.20000000001,"N_COORD97":2546459.1699999999,"ADDRESS":"文賢路１１２２巷５９弄３１號","OBJECTID":206666},"geometry":{"x":167490.20000000112,"y":2546459.1699999999}},{"attributes":{"ID":206668,"DIS_CODE":0,"TOWNNAME":"南區","LI":"明德里","LIN":"8鄰","STREET":"大成路","SECT":"一段","MAREA":" ","LANE":"８８巷","ALLEY":"５弄","HOUSE_NO":"１５號","E_COORD97":168002.42000000001,"N_COORD97":2541763.3300000001,"ADDRESS":"大成路一段８８巷５弄１５號","OBJECTID":206667},"geometry":{"x":168002.42000000086,"y":2541763.3300000001}},{"attributes":{"ID":206669,"DIS_CODE":0,"TOWNNAME":"安南區","LI":"溪心里","LIN":"17鄰","STREET":"智安四街","SECT":" ","MAREA":" ","LANE":" ","ALLEY":" ","HOUSE_NO":"４９號","E_COORD97":166207.73999999999,"N_COORD97":2550219.4500000002,"ADDRESS":"智安四街４９號","OBJECTID":206668},"geometry":{"x":166207.74000000022,"y":2550219.4500000011}},{"attributes":{"ID":206670,"DIS_CODE":0,"TOWNNAME":"東山區","LI":"東正里","LIN":"2鄰","STREET":" ","SECT":" ","MAREA":"東勢","LANE":" ","ALLEY":" ","HOUSE_NO":"１１號之３","E_COORD97":189310.82000000001,"N_COORD97":2580117.29,"ADDRESS":"東勢１１號之３","OBJECTID":206669},"geometry":{"x":189310.8200000003,"y":2580117.2899999991}},{"attributes":{"ID":206671,"DIS_CODE":0,"TOWNNAME":"東山區","LI":"東正里","LIN":"2鄰","STREET":" ","SECT":" ","MAREA":"東勢","LANE":" ","ALLEY":" ","HOUSE_NO":"１１號之５","E_COORD97":189325.70000000001,"N_COORD97":2580109.5699999998,"ADDRESS":"東勢１１號之５","OBJECTID":206670},"geometry":{"x":189325.70000000205,"y":2580109.5700000022}},{"attributes":{"ID":206672,"DIS_CODE":0,"TOWNNAME":"東山區","LI":"東正里","LIN":"2鄰","STREET":" ","SECT":" ","MAREA":"東勢","LANE":" ","ALLEY":" ","HOUSE_NO":"１１號","E_COORD97":189343.45999999999,"N_COORD97":2580111.46,"ADDRESS":"東勢１１號","OBJECTID":206671},"geometry":{"x":189343.45999999996,"y":2580111.4600000009}},{"attributes":{"ID":206673,"DIS_CODE":0,"TOWNNAME":"北區","LI":"文元里","LIN":"7鄰","STREET":"文賢路","SECT":" ","MAREA":" ","LANE":"１１２２巷","ALLEY":"９２弄","HOUSE_NO":"３６號","E_COORD97":167571.01999999999,"N_COORD97":2546294.5800000001,"ADDRESS":"文賢路１１２２巷９２弄３６號","OBJECTID":206672},"geometry":{"x":167571.02000000048,"y":2546294.5800000001}},{"attributes":{"ID":206674,"DIS_CODE":0,"TOWNNAME":"北區","LI":"文元里","LIN":"9鄰","STREET":"文賢路","SECT":" ","MAREA":" ","LANE":"１１２２巷","ALLEY":"７８弄","HOUSE_NO":"１９號","E_COORD97":167551.66,"N_COORD97":2546324.9199999999,"ADDRESS":"文賢路１１２２巷７８弄１９號","OBJECTID":206673},"geometry":{"x":167551.66000000108,"y":2546324.9200000018}},{"attributes":{"ID":206675,"DIS_CODE":0,"TOWNNAME":"北區","LI":"文元里","LIN":"9鄰","STREET":"文賢路","SECT":" ","MAREA":" ","LANE":"１１２２巷","ALLEY":"７８弄","HOUSE_NO":"７號","E_COORD97":167550.17000000001,"N_COORD97":2546352.27,"ADDRESS":"文賢路１１２２巷７８弄７號","OBJECTID":206674},"geometry":{"x":167550.16999999993,"y":2546352.2700000014}},{"attributes":{"ID":206676,"DIS_CODE":0,"TOWNNAME":"安南區","LI":"顯宮里","LIN":"8鄰","STREET":"媽祖宮五街","SECT":" ","MAREA":" ","LANE":" ","ALLEY":" ","HOUSE_NO":"５０號","E_COORD97":160391.79000000001,"N_COORD97":2548926.21,"ADDRESS":"媽祖宮五街５０號","OBJECTID":206675},"geometry":{"x":160391.79000000097,"y":2548926.2100000046}},{"attributes":{"ID":206677,"DIS_CODE":0,"TOWNNAME":"安南區","LI":"顯宮里","LIN":"8鄰","STREET":"媽祖宮五街","SECT":" ","MAREA":" ","LANE":" ","ALLEY":" ","HOUSE_NO":"９０號","E_COORD97":160403.32999999999,"N_COORD97":2548971.5,"ADDRESS":"媽祖宮五街９０號","OBJECTID":206676},"geometry":{"x":160403.33000000101,"y":2548971.5000000019}},{"attributes":{"ID":206678,"DIS_CODE":0,"TOWNNAME":"安南區","LI":"理想里","LIN":"8鄰","STREET":"海佃路","SECT":"二段","MAREA":" ","LANE":"１５０巷","ALLEY":"１１２弄","HOUSE_NO":"１之５８號","E_COORD97":167288.32999999999,"N_COORD97":2548375.0499999998,"ADDRESS":"海佃路二段１５０巷１１２弄１之５８號","OBJECTID":206677},"geometry":{"x":167288.33000000007,"y":2548375.0500000026}},{"attributes":{"ID":206679,"DIS_CODE":0,"TOWNNAME":"中西區","LI":"光賢里","LIN":"8鄰","STREET":"武聖路","SECT":" ","MAREA":" ","LANE":"６９巷","ALLEY":"９９弄","HOUSE_NO":"４號","E_COORD97":166845.94,"N_COORD97":2544812.1099999999,"ADDRESS":"武聖路６９巷９９弄４號","OBJECTID":206678},"geometry":{"x":166845.94000000041,"y":2544812.1099999994}},{"attributes":{"ID":206680,"DIS_CODE":0,"TOWNNAME":"東山區","LI":"東正里","LIN":"2鄰","STREET":" ","SECT":" ","MAREA":"東勢","LANE":" ","ALLEY":" ","HOUSE_NO":"８號之１","E_COORD97":189270.20999999999,"N_COORD97":2580136.9199999999,"ADDRESS":"東勢８號之１","OBJECTID":206679},"geometry":{"x":189270.21000000089,"y":2580136.9200000018}},{"attributes":{"ID":206681,"DIS_CODE":0,"TOWNNAME":"東山區","LI":"東正里","LIN":"2鄰","STREET":" ","SECT":" ","MAREA":"東勢","LANE":" ","ALLEY":" ","HOUSE_NO":"８號","E_COORD97":189264.88,"N_COORD97":2580137.77,"ADDRESS":"東勢８號","OBJECTID":206680},"geometry":{"x":189264.88000000175,"y":2580137.7700000014}},{"attributes":{"ID":206682,"DIS_CODE":0,"TOWNNAME":"東山區","LI":"東正里","LIN":"2鄰","STREET":" ","SECT":" ","MAREA":"東勢","LANE":" ","ALLEY":" ","HOUSE_NO":"９號之１","E_COORD97":189296.39000000001,"N_COORD97":2580122.3599999999,"ADDRESS":"東勢９號之１","OBJECTID":206681},"geometry":{"x":189296.38999999966,"y":2580122.3600000013}},{"attributes":{"ID":206683,"DIS_CODE":0,"TOWNNAME":"東山區","LI":"林安里","LIN":"2鄰","STREET":" ","SECT":" ","MAREA":"林安","LANE":" ","ALLEY":" ","HOUSE_NO":"１０號","E_COORD97":192237.47,"N_COORD97":2575208.77,"ADDRESS":"林安１０號","OBJECTID":206682},"geometry":{"x":192237.4700000016,"y":2575208.7699999996}},{"attributes":{"ID":206684,"DIS_CODE":0,"TOWNNAME":"東山區","LI":"林安里","LIN":"2鄰","STREET":" ","SECT":" ","MAREA":"林安","LANE":" ","ALLEY":" ","HOUSE_NO":"１１號","E_COORD97":192217.92000000001,"N_COORD97":2575221.2200000002,"ADDRESS":"林安１１號","OBJECTID":206683},"geometry":{"x":192217.92000000086,"y":2575221.2200000007}},{"attributes":{"ID":206685,"DIS_CODE":0,"TOWNNAME":"東山區","LI":"林安里","LIN":"2鄰","STREET":" ","SECT":" ","MAREA":"林安","LANE":" ","ALLEY":" ","HOUSE_NO":"１３號","E_COORD97":192198.32999999999,"N_COORD97":2575235.2200000002,"ADDRESS":"林安１３號","OBJECTID":206684},"geometry":{"x":192198.33000000101,"y":2575235.2200000044}},{"attributes":{"ID":206686,"DIS_CODE":0,"TOWNNAME":"東山區","LI":"林安里","LIN":"2鄰","STREET":" ","SECT":" ","MAREA":"林安","LANE":" ","ALLEY":" ","HOUSE_NO":"１５號","E_COORD97":192189.35999999999,"N_COORD97":2575209.0600000001,"ADDRESS":"林安１５號","OBJECTID":206685},"geometry":{"x":192189.36000000034,"y":2575209.0600000042}},{"attributes":{"ID":206687,"DIS_CODE":0,"TOWNNAME":"東山區","LI":"林安里","LIN":"2鄰","STREET":" ","SECT":" ","MAREA":"林安","LANE":" ","ALLEY":" ","HOUSE_NO":"１７號","E_COORD97":192246.29999999999,"N_COORD97":2575189.3100000001,"ADDRESS":"林安１７號","OBJECTID":206686},"geometry":{"x":192246.30000000075,"y":2575189.3100000005}},{"attributes":{"ID":206688,"DIS_CODE":0,"TOWNNAME":"東山區","LI":"林安里","LIN":"2鄰","STREET":" ","SECT":" ","MAREA":"林安","LANE":" ","ALLEY":" ","HOUSE_NO":"１９號之１","E_COORD97":192297.26999999999,"N_COORD97":2575179.04,"ADDRESS":"林安１９號之１","OBJECTID":206687},"geometry":{"x":192297.26999999955,"y":2575179.0399999991}},{"attributes":{"ID":206689,"DIS_CODE":0,"TOWNNAME":"安南區","LI":"鹿耳里","LIN":"8鄰","STREET":"北汕尾二路","SECT":" ","MAREA":" ","LANE":"５５０巷","ALLEY":"８１弄","HOUSE_NO":"４號","E_COORD97":160677.64999999999,"N_COORD97":2547956.6699999999,"ADDRESS":"北汕尾二路５５０巷８１弄４號","OBJECTID":206688},"geometry":{"x":160677.65000000224,"y":2547956.6700000018}},{"attributes":{"ID":206690,"DIS_CODE":0,"TOWNNAME":"東山區","LI":"青山里","LIN":"2鄰","STREET":" ","SECT":" ","MAREA":"青山","LANE":" ","ALLEY":" ","HOUSE_NO":"１４６號之１","E_COORD97":195403.39000000001,"N_COORD97":2575278.9500000002,"ADDRESS":"青山１４６號之１","OBJECTID":206689},"geometry":{"x":195403.3900000006,"y":2575278.9499999993}},{"attributes":{"ID":206691,"DIS_CODE":0,"TOWNNAME":"東山區","LI":"青山里","LIN":"2鄰","STREET":" ","SECT":" ","MAREA":"青山","LANE":" ","ALLEY":" ","HOUSE_NO":"１４６號","E_COORD97":195402.31,"N_COORD97":2575253.6299999999,"ADDRESS":"青山１４６號","OBJECTID":206690},"geometry":{"x":195402.31000000052,"y":2575253.629999999}},{"attributes":{"ID":206692,"DIS_CODE":0,"TOWNNAME":"東山區","LI":"青山里","LIN":"2鄰","STREET":" ","SECT":" ","MAREA":"青山","LANE":" ","ALLEY":" ","HOUSE_NO":"１４號之１","E_COORD97":195451.57999999999,"N_COORD97":2575229.8100000001,"ADDRESS":"青山１４號之１","OBJECTID":206691},"geometry":{"x":195451.58000000101,"y":2575229.8100000005}},{"attributes":{"ID":206693,"DIS_CODE":0,"TOWNNAME":"東山區","LI":"青山里","LIN":"2鄰","STREET":" ","SECT":" ","MAREA":"青山","LANE":" ","ALLEY":" ","HOUSE_NO":"１４號之２","E_COORD97":195450.38,"N_COORD97":2575209.23,"ADDRESS":"青山１４號之２","OBJECTID":206692},"geometry":{"x":195450.37999999989,"y":2575209.2300000023}},{"attributes":{"ID":206694,"DIS_CODE":0,"TOWNNAME":"東山區","LI":"青山里","LIN":"2鄰","STREET":" ","SECT":" ","MAREA":"青山","LANE":" ","ALLEY":" ","HOUSE_NO":"１５２號","E_COORD97":195258.72,"N_COORD97":2575207.02,"ADDRESS":"青山１５２號","OBJECTID":206693},"geometry":{"x":195258.72000000067,"y":2575207.0199999996}},{"attributes":{"ID":206695,"DIS_CODE":0,"TOWNNAME":"東山區","LI":"青山里","LIN":"2鄰","STREET":" ","SECT":" ","MAREA":"青山","LANE":" ","ALLEY":" ","HOUSE_NO":"１５號之１８","E_COORD97":195382.62,"N_COORD97":2575190.6600000001,"ADDRESS":"青山１５號之１８","OBJECTID":206694},"geometry":{"x":195382.62000000011,"y":2575190.6600000001}},{"attributes":{"ID":206696,"DIS_CODE":0,"TOWNNAME":"東山區","LI":"青山里","LIN":"2鄰","STREET":" ","SECT":" ","MAREA":"青山","LANE":" ","ALLEY":" ","HOUSE_NO":"１５號之２０","E_COORD97":195371.20000000001,"N_COORD97":2575181.7799999998,"ADDRESS":"青山１５號之２０","OBJECTID":206695},"geometry":{"x":195371.20000000112,"y":2575181.7799999993}},{"attributes":{"ID":206697,"DIS_CODE":0,"TOWNNAME":"東山區","LI":"青山里","LIN":"2鄰","STREET":" ","SECT":" ","MAREA":"青山","LANE":" ","ALLEY":" ","HOUSE_NO":"１５號之２１","E_COORD97":195363.48999999999,"N_COORD97":2575175.6800000002,"ADDRESS":"青山１５號之２１","OBJECTID":206696},"geometry":{"x":195363.49000000022,"y":2575175.6799999997}},{"attributes":{"ID":206698,"DIS_CODE":0,"TOWNNAME":"東山區","LI":"青山里","LIN":"2鄰","STREET":" ","SECT":" ","MAREA":"青山","LANE":" ","ALLEY":" ","HOUSE_NO":"１５號之２２","E_COORD97":195354.42999999999,"N_COORD97":2575169.1200000001,"ADDRESS":"青山１５號之２２","OBJECTID":206697},"geometry":{"x":195354.4299999997,"y":2575169.1200000029}},{"attributes":{"ID":206699,"DIS_CODE":0,"TOWNNAME":"東山區","LI":"青山里","LIN":"2鄰","STREET":" ","SECT":" ","MAREA":"青山","LANE":" ","ALLEY":" ","HOUSE_NO":"１５號之２３","E_COORD97":195348.16,"N_COORD97":2575163.52,"ADDRESS":"青山１５號之２３","OBJECTID":206698},"geometry":{"x":195348.16000000015,"y":2575163.5199999996}},{"attributes":{"ID":206700,"DIS_CODE":0,"TOWNNAME":"東山區","LI":"青山里","LIN":"2鄰","STREET":" ","SECT":" ","MAREA":"青山","LANE":" ","ALLEY":" ","HOUSE_NO":"１５號之２","E_COORD97":195432.39999999999,"N_COORD97":2575229.9700000002,"ADDRESS":"青山１５號之２","OBJECTID":206699},"geometry":{"x":195432.40000000224,"y":2575229.9699999988}},{"attributes":{"ID":206701,"DIS_CODE":0,"TOWNNAME":"東山區","LI":"青山里","LIN":"2鄰","STREET":" ","SECT":" ","MAREA":"青山","LANE":" ","ALLEY":" ","HOUSE_NO":"１５號之４","E_COORD97":195431.98000000001,"N_COORD97":2575259.0099999998,"ADDRESS":"青山１５號之４","OBJECTID":206700},"geometry":{"x":195431.98000000231,"y":2575259.0099999998}},{"attributes":{"ID":206702,"DIS_CODE":0,"TOWNNAME":"東山區","LI":"青山里","LIN":"2鄰","STREET":" ","SECT":" ","MAREA":"青山","LANE":" ","ALLEY":" ","HOUSE_NO":"１５號之７","E_COORD97":195497.95999999999,"N_COORD97":2575271.9199999999,"ADDRESS":"青山１５號之７","OBJECTID":206701},"geometry":{"x":195497.96000000089,"y":2575271.9200000018}},{"attributes":{"ID":206703,"DIS_CODE":0,"TOWNNAME":"東山區","LI":"青山里","LIN":"2鄰","STREET":" ","SECT":" ","MAREA":"青山","LANE":" ","ALLEY":" ","HOUSE_NO":"１５號","E_COORD97":195421.72,"N_COORD97":2575219.4900000002,"ADDRESS":"青山１５號","OBJECTID":206702},"geometry":{"x":195421.72000000067,"y":2575219.4900000039}},{"attributes":{"ID":206704,"DIS_CODE":0,"TOWNNAME":"東山區","LI":"青山里","LIN":"2鄰","STREET":" ","SECT":" ","MAREA":"青山","LANE":" ","ALLEY":" ","HOUSE_NO":"１８４號","E_COORD97":195401.82999999999,"N_COORD97":2575234.9300000002,"ADDRESS":"青山１８４號","OBJECTID":206703},"geometry":{"x":195401.83000000007,"y":2575234.9299999997}},{"attributes":{"ID":206705,"DIS_CODE":0,"TOWNNAME":"東山區","LI":"青山里","LIN":"2鄰","STREET":" ","SECT":" ","MAREA":"青山","LANE":" ","ALLEY":" ","HOUSE_NO":"１８５號之１２","E_COORD97":195342.85999999999,"N_COORD97":2575188.5800000001,"ADDRESS":"青山１８５號之１２","OBJECTID":206704},"geometry":{"x":195342.86000000127,"y":2575188.5800000019}},{"attributes":{"ID":206706,"DIS_CODE":0,"TOWNNAME":"東山區","LI":"青山里","LIN":"2鄰","STREET":" ","SECT":" ","MAREA":"青山","LANE":" ","ALLEY":" ","HOUSE_NO":"１８５號之１","E_COORD97":195389.79000000001,"N_COORD97":2575226.1000000001,"ADDRESS":"青山１８５號之１","OBJECTID":206705},"geometry":{"x":195389.79000000004,"y":2575226.1000000015}},{"attributes":{"ID":206707,"DIS_CODE":0,"TOWNNAME":"東山區","LI":"青山里","LIN":"2鄰","STREET":" ","SECT":" ","MAREA":"青山","LANE":" ","ALLEY":" ","HOUSE_NO":"１８５號之２","E_COORD97":195382.51999999999,"N_COORD97":2575220.0899999999,"ADDRESS":"青山１８５號之２","OBJECTID":206706},"geometry":{"x":195382.51999999955,"y":2575220.0899999999}},{"attributes":{"ID":206708,"DIS_CODE":0,"TOWNNAME":"東山區","LI":"青山里","LIN":"2鄰","STREET":" ","SECT":" ","MAREA":"青山","LANE":" ","ALLEY":" ","HOUSE_NO":"１８５號之５","E_COORD97":195360.79999999999,"N_COORD97":2575203.3799999999,"ADDRESS":"青山１８５號之５","OBJECTID":206707},"geometry":{"x":195360.79999999981,"y":2575203.3800000008}},{"attributes":{"ID":206709,"DIS_CODE":0,"TOWNNAME":"東山區","LI":"青山里","LIN":"2鄰","STREET":" ","SECT":" ","MAREA":"青山","LANE":" ","ALLEY":" ","HOUSE_NO":"１８５號之６","E_COORD97":195364.76000000001,"N_COORD97":2575206.7599999998,"ADDRESS":"青山１８５號之６","OBJECTID":206708},"geometry":{"x":195364.75999999885,"y":2575206.7599999979}},{"attributes":{"ID":206710,"DIS_CODE":0,"TOWNNAME":"東山區","LI":"青山里","LIN":"2鄰","STREET":" ","SECT":" ","MAREA":"青山","LANE":" ","ALLEY":" ","HOUSE_NO":"１８５號之７","E_COORD97":195368.10999999999,"N_COORD97":2575210.02,"ADDRESS":"青山１８５號之７","OBJECTID":206709},"geometry":{"x":195368.1100000022,"y":2575210.0200000014}},{"attributes":{"ID":206711,"DIS_CODE":0,"TOWNNAME":"東山區","LI":"青山里","LIN":"2鄰","STREET":" ","SECT":" ","MAREA":"青山","LANE":" ","ALLEY":" ","HOUSE_NO":"１８５號","E_COORD97":195397.09,"N_COORD97":2575230.8500000001,"ADDRESS":"青山１８５號","OBJECTID":206710},"geometry":{"x":195397.09000000078,"y":2575230.8500000015}},{"attributes":{"ID":206712,"DIS_CODE":0,"TOWNNAME":"新化區","LI":"山\u25A0里","LIN":"2鄰","STREET":" ","SECT":" ","MAREA":"頂山\u25A0","LANE":" ","ALLEY":" ","HOUSE_NO":"５４號之１１３","E_COORD97":179260.73000000001,"N_COORD97":2546166.2599999998,"ADDRESS":"頂山\u25A0５４號之１１３","OBJECTID":206711},"geometry":{"x":179260.73000000045,"y":2546166.2600000016}},{"attributes":{"ID":206713,"DIS_CODE":0,"TOWNNAME":"新化區","LI":"\u25A0拔里","LIN":"2鄰","STREET":" ","SECT":" ","MAREA":"\u25A0拔林","LANE":" ","ALLEY":" ","HOUSE_NO":"８２號之１","E_COORD97":183455.29999999999,"N_COORD97":2552029.2599999998,"ADDRESS":"\u25A0拔林８２號之１","OBJECTID":206712},"geometry":{"x":183455.29999999981,"y":2552029.2599999998}},{"attributes":{"ID":206714,"DIS_CODE":0,"TOWNNAME":"新化區","LI":"\u25A0拔里","LIN":"2鄰","STREET":" ","SECT":" ","MAREA":"\u25A0拔林","LANE":" ","ALLEY":" ","HOUSE_NO":"８８號之１","E_COORD97":183371.89999999999,"N_COORD97":2552134.2599999998,"ADDRESS":"\u25A0拔林８８號之１","OBJECTID":206713},"geometry":{"x":183371.9000000013,"y":2552134.2599999998}},{"attributes":{"ID":206715,"DIS_CODE":0,"TOWNNAME":"新化區","LI":"崙頂里","LIN":"2鄰","STREET":" ","SECT":" ","MAREA":"崙子頂","LANE":" ","ALLEY":" ","HOUSE_NO":"８０號之３","E_COORD97":176868.42999999999,"N_COORD97":2546774.2599999998,"ADDRESS":"崙子頂８０號之３","OBJECTID":206714},"geometry":{"x":176868.4299999997,"y":2546774.2599999998}},{"attributes":{"ID":206716,"DIS_CODE":0,"TOWNNAME":"新化區","LI":"豐榮里","LIN":"2鄰","STREET":" ","SECT":" ","MAREA":"洋子","LANE":" ","ALLEY":" ","HOUSE_NO":"３９號","E_COORD97":178079.03,"N_COORD97":2548246.25,"ADDRESS":"洋子３９號","OBJECTID":206715},"geometry":{"x":178079.03000000026,"y":2548246.25}},{"attributes":{"ID":206717,"DIS_CODE":0,"TOWNNAME":"安南區","LI":"布袋里","LIN":"8鄰","STREET":"長和路","SECT":"四段","MAREA":" ","LANE":"１６０巷","ALLEY":"５弄","HOUSE_NO":"１１號","E_COORD97":168930.32999999999,"N_COORD97":2551708.02,"ADDRESS":"長和路四段１６０巷５弄１１號","OBJECTID":206716},"geometry":{"x":168930.33000000101,"y":2551708.0199999996}},{"attributes":{"ID":206718,"DIS_CODE":0,"TOWNNAME":"安南區","LI":"布袋里","LIN":"8鄰","STREET":"長和路","SECT":"四段","MAREA":" ","LANE":"１６０巷","ALLEY":"５弄","HOUSE_NO":"１３號","E_COORD97":168928.41,"N_COORD97":2551711.98,"ADDRESS":"長和路四段１６０巷５弄１３號","OBJECTID":206717},"geometry":{"x":168928.41000000108,"y":2551711.9800000023}},{"attributes":{"ID":206719,"DIS_CODE":0,"TOWNNAME":"安南區","LI":"布袋里","LIN":"8鄰","STREET":"長和路","SECT":"四段","MAREA":" ","LANE":"１６０巷","ALLEY":"５弄","HOUSE_NO":"１７號","E_COORD97":168924.01000000001,"N_COORD97":2551719.8799999999,"ADDRESS":"長和路四段１６０巷５弄１７號","OBJECTID":206718},"geometry":{"x":168924.01000000071,"y":2551719.8799999971}},{"attributes":{"ID":206720,"DIS_CODE":0,"TOWNNAME":"仁德區","LI":"太子里","LIN":"47鄰","STREET":"太子路","SECT":" ","MAREA":" ","LANE":"９巷","ALLEY":" ","HOUSE_NO":"１１號","E_COORD97":175477.17999999999,"N_COORD97":2543492.25,"ADDRESS":"太子路９巷１１號","OBJECTID":206719},"geometry":{"x":175477.1799999997,"y":2543492.25}},{"attributes":{"ID":206721,"DIS_CODE":0,"TOWNNAME":"永康區","LI":"永康里","LIN":"40鄰","STREET":"永大二路","SECT":" ","MAREA":" ","LANE":" ","ALLEY":" ","HOUSE_NO":"４６號三樓之２","E_COORD97":174255.57000000001,"N_COORD97":2546582.0899999999,"ADDRESS":"永大二路４６號三樓之２","OBJECTID":206720},"geometry":{"x":174255.57000000123,"y":2546582.0899999999}},{"attributes":{"ID":206722,"DIS_CODE":0,"TOWNNAME":"永康區","LI":"正強里","LIN":"40鄰","STREET":"四維街","SECT":" ","MAREA":" ","LANE":" ","ALLEY":" ","HOUSE_NO":"１９９號","E_COORD97":173252.54000000001,"N_COORD97":2548473.0699999998,"ADDRESS":"四維街１９９號","OBJECTID":206721},"geometry":{"x":173252.54000000004,"y":2548473.0700000022}},{"attributes":{"ID":206723,"DIS_CODE":0,"TOWNNAME":"安南區","LI":"布袋里","LIN":"8鄰","STREET":"長和路","SECT":"四段","MAREA":" ","LANE":"１６０巷","ALLEY":"５弄","HOUSE_NO":"１９號","E_COORD97":168921.70999999999,"N_COORD97":2551723.71,"ADDRESS":"長和路四段１６０巷５弄１９號","OBJECTID":206722},"geometry":{"x":168921.70999999996,"y":2551723.7100000028}},{"attributes":{"ID":206724,"DIS_CODE":0,"TOWNNAME":"安南區","LI":"布袋里","LIN":"8鄰","STREET":"長和路","SECT":"四段","MAREA":" ","LANE":"１６０巷","ALLEY":"５弄","HOUSE_NO":"１５號","E_COORD97":168926.56,"N_COORD97":2551715.8700000001,"ADDRESS":"長和路四段１６０巷５弄１５號","OBJECTID":206723},"geometry":{"x":168926.56000000052,"y":2551715.8700000048}},{"attributes":{"ID":206725,"DIS_CODE":0,"TOWNNAME":"北區","LI":"大豐里","LIN":"20鄰","STREET":"大興街","SECT":" ","MAREA":" ","LANE":"２３３巷","ALLEY":"４６弄","HOUSE_NO":"３５號","E_COORD97":166776.59,"N_COORD97":2545505.4900000002,"ADDRESS":"大興街２３３巷４６弄３５號","OBJECTID":206724},"geometry":{"x":166776.58999999892,"y":2545505.4900000002}},{"attributes":{"ID":206726,"DIS_CODE":0,"TOWNNAME":"新營區","LI":"民榮里","LIN":"39鄰","STREET":"太子路","SECT":" ","MAREA":" ","LANE":"５３巷","ALLEY":"７弄","HOUSE_NO":"２３號","E_COORD97":178310.98000000001,"N_COORD97":2577898.6099999999,"ADDRESS":"太子路５３巷７弄２３號","OBJECTID":206725},"geometry":{"x":178310.98000000138,"y":2577898.6099999994}},{"attributes":{"ID":206727,"DIS_CODE":0,"TOWNNAME":"仁德區","LI":"仁德里","LIN":"39鄰","STREET":"文山路","SECT":" ","MAREA":" ","LANE":" ","ALLEY":" ","HOUSE_NO":"２５７號","E_COORD97":172632.79000000001,"N_COORD97":2541781.3300000001,"ADDRESS":"文山路２５７號","OBJECTID":206726},"geometry":{"x":172632.79000000097,"y":2541781.3300000019}},{"attributes":{"ID":206728,"DIS_CODE":0,"TOWNNAME":"麻豆區","LI":"海埔里","LIN":"5鄰","STREET":" ","SECT":" ","MAREA":"海埔","LANE":" ","ALLEY":" ","HOUSE_NO":"３號","E_COORD97":169561.87,"N_COORD97":2566701.6299999999,"ADDRESS":"海埔３號","OBJECTID":206727},"geometry":{"x":169561.86999999918,"y":2566701.6300000008}},{"attributes":{"ID":206729,"DIS_CODE":0,"TOWNNAME":"北區","LI":"成德里","LIN":"39鄰","STREET":"中華北路","SECT":"二段","MAREA":" ","LANE":"１９４巷","ALLEY":"７０弄","HOUSE_NO":"３號","E_COORD97":168353.97,"N_COORD97":2546572.3799999999,"ADDRESS":"中華北路二段１９４巷７０弄３號","OBJECTID":206728},"geometry":{"x":168353.9700000016,"y":2546572.379999999}},{"attributes":{"ID":206730,"DIS_CODE":0,"TOWNNAME":"安南區","LI":"公\u25A0里","LIN":"8鄰","STREET":"安興街","SECT":" ","MAREA":" ","LANE":"１８１巷","ALLEY":"２６弄","HOUSE_NO":"７０號","E_COORD97":163982.07000000001,"N_COORD97":2552056.52,"ADDRESS":"安興街１８１巷２６弄７０號","OBJECTID":206729},"geometry":{"x":163982.07000000216,"y":2552056.5200000014}},{"attributes":{"ID":206731,"DIS_CODE":0,"TOWNNAME":"北區","LI":"國興里","LIN":"8鄰","STREET":"南園街","SECT":" ","MAREA":" ","LANE":"１０１巷","ALLEY":"２１弄","HOUSE_NO":"４９號","E_COORD97":170683.39999999999,"N_COORD97":2545467.9900000002,"ADDRESS":"南園街１０１巷２１弄４９號","OBJECTID":206730},"geometry":{"x":170683.4000000013,"y":2545467.9900000002}},{"attributes":{"ID":206732,"DIS_CODE":0,"TOWNNAME":"北區","LI":"國興里","LIN":"8鄰","STREET":"南園街","SECT":" ","MAREA":" ","LANE":"１０１巷","ALLEY":"２１弄","HOUSE_NO":"５７號","E_COORD97":170699.42999999999,"N_COORD97":2545478.79,"ADDRESS":"南園街１０１巷２１弄５７號","OBJECTID":206731},"geometry":{"x":170699.43000000063,"y":2545478.7899999991}},{"attributes":{"ID":206733,"DIS_CODE":0,"TOWNNAME":"北區","LI":"國興里","LIN":"8鄰","STREET":"南園街","SECT":" ","MAREA":" ","LANE":"１０１巷","ALLEY":"２１弄","HOUSE_NO":"５１號","E_COORD97":170687.37,"N_COORD97":2545470.3700000001,"ADDRESS":"南園街１０１巷２１弄５１號","OBJECTID":206732},"geometry":{"x":170687.37000000011,"y":2545470.3699999992}},{"attributes":{"ID":206734,"DIS_CODE":0,"TOWNNAME":"北區","LI":"國興里","LIN":"8鄰","STREET":"南園街","SECT":" ","MAREA":" ","LANE":"１０１巷","ALLEY":"２１弄","HOUSE_NO":"５３號","E_COORD97":170691.64999999999,"N_COORD97":2545473.3900000001,"ADDRESS":"南園街１０１巷２１弄５３號","OBJECTID":206733},"geometry":{"x":170691.6500000013,"y":2545473.3900000043}},{"attributes":{"ID":206735,"DIS_CODE":0,"TOWNNAME":"北區","LI":"國興里","LIN":"8鄰","STREET":"南園街","SECT":" ","MAREA":" ","LANE":"１０１巷","ALLEY":"２１弄","HOUSE_NO":"５５號","E_COORD97":170695.62,"N_COORD97":2545476.0899999999,"ADDRESS":"南園街１０１巷２１弄５５號","OBJECTID":206734},"geometry":{"x":170695.62000000011,"y":2545476.0900000017}},{"attributes":{"ID":206736,"DIS_CODE":0,"TOWNNAME":"新化區","LI":"羊林里","LIN":"2鄰","STREET":" ","SECT":" ","MAREA":"\u25A0拔林","LANE":" ","ALLEY":" ","HOUSE_NO":"４０３號","E_COORD97":183714.01999999999,"N_COORD97":2551854.25,"ADDRESS":"\u25A0拔林４０３號","OBJECTID":206735},"geometry":{"x":183714.02000000048,"y":2551854.2500000037}},{"attributes":{"ID":206737,"DIS_CODE":0,"TOWNNAME":"北區","LI":"國興里","LIN":"8鄰","STREET":"南園街","SECT":" ","MAREA":" ","LANE":"１０１巷","ALLEY":"２１弄","HOUSE_NO":"５９號","E_COORD97":170705.78,"N_COORD97":2545482.1200000001,"ADDRESS":"南園街１０１巷２１弄５９號","OBJECTID":206736},"geometry":{"x":170705.78000000119,"y":2545482.120000001}},{"attributes":{"ID":206738,"DIS_CODE":0,"TOWNNAME":"北區","LI":"國興里","LIN":"8鄰","STREET":"南園街","SECT":" ","MAREA":" ","LANE":"１０１巷","ALLEY":"２１弄","HOUSE_NO":"６１號","E_COORD97":170709.59,"N_COORD97":2545485.1400000001,"ADDRESS":"南園街１０１巷２１弄６１號","OBJECTID":206737},"geometry":{"x":170709.59000000171,"y":2545485.1400000043}},{"attributes":{"ID":206739,"DIS_CODE":0,"TOWNNAME":"永康區","LI":"大橋里","LIN":"9鄰","STREET":"大橋三街","SECT":" ","MAREA":" ","LANE":" ","ALLEY":" ","HOUSE_NO":"２８７號六樓之２","E_COORD97":171119.37,"N_COORD97":2546965.5499999998,"ADDRESS":"大橋三街２８７號六樓之２","OBJECTID":206738},"geometry":{"x":171119.37000000011,"y":2546965.5500000026}},{"attributes":{"ID":206740,"DIS_CODE":0,"TOWNNAME":"北區","LI":"國興里","LIN":"8鄰","STREET":"南園街","SECT":" ","MAREA":" ","LANE":"１０１巷","ALLEY":"２１弄","HOUSE_NO":"６３號","E_COORD97":170713.88,"N_COORD97":2545488.3100000001,"ADDRESS":"南園街１０１巷２１弄６３號","OBJECTID":206739},"geometry":{"x":170713.87999999989,"y":2545488.3100000024}},{"attributes":{"ID":206741,"DIS_CODE":0,"TOWNNAME":"永康區","LI":"大橋里","LIN":"9鄰","STREET":"大橋三街","SECT":" ","MAREA":" ","LANE":" ","ALLEY":" ","HOUSE_NO":"２８７號六樓之１","E_COORD97":171119.23000000001,"N_COORD97":2546965.5499999998,"ADDRESS":"大橋三街２８７號六樓之１","OBJECTID":206740},"geometry":{"x":171119.23000000045,"y":2546965.5500000026}},{"attributes":{"ID":206742,"DIS_CODE":0,"TOWNNAME":"北區","LI":"國興里","LIN":"8鄰","STREET":"南園街","SECT":" ","MAREA":" ","LANE":"１０１巷","ALLEY":"２１弄","HOUSE_NO":"６５號","E_COORD97":170718.48000000001,"N_COORD97":2545491.3300000001,"ADDRESS":"南園街１０１巷２１弄６５號","OBJECTID":206741},"geometry":{"x":170718.48000000138,"y":2545491.3300000019}},{"attributes":{"ID":206743,"DIS_CODE":0,"TOWNNAME":"北區","LI":"成德里","LIN":"8鄰","STREET":"西門路","SECT":"四段","MAREA":" ","LANE":"６５巷","ALLEY":"１３０弄","HOUSE_NO":"１１號","E_COORD97":168413.98999999999,"N_COORD97":2545530.4300000002,"ADDRESS":"西門路四段６５巷１３０弄１１號","OBJECTID":206742},"geometry":{"x":168413.99000000115,"y":2545530.4300000016}},{"attributes":{"ID":206744,"DIS_CODE":0,"TOWNNAME":"北區","LI":"成德里","LIN":"8鄰","STREET":"西門路","SECT":"四段","MAREA":" ","LANE":"６５巷","ALLEY":"１３０弄","HOUSE_NO":"１３號","E_COORD97":168417,"N_COORD97":2545535.9900000002,"ADDRESS":"西門路四段６５巷１３０弄１３號","OBJECTID":206743},"geometry":{"x":168417.00000000093,"y":2545535.9900000002}},{"attributes":{"ID":206745,"DIS_CODE":0,"TOWNNAME":"北區","LI":"成德里","LIN":"8鄰","STREET":"西門路","SECT":"四段","MAREA":" ","LANE":"６５巷","ALLEY":"１３０弄","HOUSE_NO":"１５號","E_COORD97":168419.85999999999,"N_COORD97":2545540.5899999999,"ADDRESS":"西門路四段６５巷１３０弄１５號","OBJECTID":206744},"geometry":{"x":168419.8600000022,"y":2545540.5900000017}},{"attributes":{"ID":206746,"DIS_CODE":0,"TOWNNAME":"北區","LI":"成德里","LIN":"8鄰","STREET":"西門路","SECT":"四段","MAREA":" ","LANE":"６５巷","ALLEY":"１３０弄","HOUSE_NO":"１７號","E_COORD97":168422.72,"N_COORD97":2545545.04,"ADDRESS":"西門路四段６５巷１３０弄１７號","OBJECTID":206745},"geometry":{"x":168422.71999999974,"y":2545545.0399999972}},{"attributes":{"ID":206747,"DIS_CODE":0,"TOWNNAME":"安平區","LI":"平安里","LIN":"22鄰","STREET":"安平路","SECT":" ","MAREA":" ","LANE":"４４６巷","ALLEY":"１７弄","HOUSE_NO":"４４號","E_COORD97":165181.59,"N_COORD97":2544389.7400000002,"ADDRESS":"安平路４４６巷１７弄４４號","OBJECTID":206746},"geometry":{"x":165181.59000000171,"y":2544389.7400000021}},{"attributes":{"ID":206748,"DIS_CODE":0,"TOWNNAME":"安平區","LI":"平安里","LIN":"22鄰","STREET":"安平路","SECT":" ","MAREA":" ","LANE":"４４６巷","ALLEY":"１７弄","HOUSE_NO":"４８號","E_COORD97":165178.62,"N_COORD97":2544390.1800000002,"ADDRESS":"安平路４４６巷１７弄４８號","OBJECTID":206747},"geometry":{"x":165178.62000000104,"y":2544390.1800000016}},{"attributes":{"ID":206749,"DIS_CODE":0,"TOWNNAME":"永康區","LI":"大橋里","LIN":"9鄰","STREET":"大橋三街","SECT":" ","MAREA":" ","LANE":" ","ALLEY":" ","HOUSE_NO":"２８１號六樓之３","E_COORD97":171125.51999999999,"N_COORD97":2546950.7599999998,"ADDRESS":"大橋三街２８１號六樓之３","OBJECTID":206748},"geometry":{"x":171125.52000000048,"y":2546950.7599999998}},{"attributes":{"ID":206750,"DIS_CODE":0,"TOWNNAME":"安平區","LI":"平安里","LIN":"22鄰","STREET":"安平路","SECT":" ","MAREA":" ","LANE":"４４６巷","ALLEY":"１７弄","HOUSE_NO":"５０號","E_COORD97":165175.42999999999,"N_COORD97":2544391.2799999998,"ADDRESS":"安平路４４６巷１７弄５０號","OBJECTID":206749},"geometry":{"x":165175.4299999997,"y":2544391.2800000031}},{"attributes":{"ID":206751,"DIS_CODE":0,"TOWNNAME":"安平區","LI":"平安里","LIN":"22鄰","STREET":"安平路","SECT":" ","MAREA":" ","LANE":"４４６巷","ALLEY":"１７弄","HOUSE_NO":"５２號","E_COORD97":165171.79999999999,"N_COORD97":2544392.4900000002,"ADDRESS":"安平路４４６巷１７弄５２號","OBJECTID":206750},"geometry":{"x":165171.80000000075,"y":2544392.4900000002}},{"attributes":{"ID":206752,"DIS_CODE":0,"TOWNNAME":"安南區","LI":"安順里","LIN":"22鄰","STREET":"北安路","SECT":"三段","MAREA":" ","LANE":"６８０巷","ALLEY":"８弄","HOUSE_NO":"２０號","E_COORD97":169451.59,"N_COORD97":2550421.3999999999,"ADDRESS":"北安路三段６８０巷８弄２０號","OBJECTID":206751},"geometry":{"x":169451.58999999892,"y":2550421.4000000004}},{"attributes":{"ID":206753,"DIS_CODE":0,"TOWNNAME":"永康區","LI":"大橋里","LIN":"9鄰","STREET":"大橋三街","SECT":" ","MAREA":" ","LANE":" ","ALLEY":" ","HOUSE_NO":"２８７號二樓之１","E_COORD97":171119.23000000001,"N_COORD97":2546965.5499999998,"ADDRESS":"大橋三街２８７號二樓之１","OBJECTID":206752},"geometry":{"x":171119.23000000045,"y":2546965.5500000026}},{"attributes":{"ID":206754,"DIS_CODE":0,"TOWNNAME":"安南區","LI":"溪心里","LIN":"17鄰","STREET":"智安四街","SECT":" ","MAREA":" ","LANE":" ","ALLEY":" ","HOUSE_NO":"５１號","E_COORD97":166204.45000000001,"N_COORD97":2550223.9900000002,"ADDRESS":"智安四街５１號","OBJECTID":206753},"geometry":{"x":166204.45000000019,"y":2550223.9900000002}},{"attributes":{"ID":206755,"DIS_CODE":0,"TOWNNAME":"安南區","LI":"溪心里","LIN":"17鄰","STREET":"智安四街","SECT":" ","MAREA":" ","LANE":" ","ALLEY":" ","HOUSE_NO":"５３號","E_COORD97":166201.16,"N_COORD97":2550228.5299999998,"ADDRESS":"智安四街５３號","OBJECTID":206754},"geometry":{"x":166201.16000000015,"y":2550228.5300000012}},{"attributes":{"ID":206756,"DIS_CODE":0,"TOWNNAME":"安南區","LI":"安順里","LIN":"22鄰","STREET":"北安路","SECT":"三段","MAREA":" ","LANE":"６８０巷","ALLEY":"８弄","HOUSE_NO":"１８號","E_COORD97":169451.91,"N_COORD97":2550426.7999999998,"ADDRESS":"北安路三段６８０巷８弄１８號","OBJECTID":206755},"geometry":{"x":169451.91000000108,"y":2550426.8000000007}},{"attributes":{"ID":206757,"DIS_CODE":0,"TOWNNAME":"永康區","LI":"復華里","LIN":"9鄰","STREET":"復國二路","SECT":" ","MAREA":" ","LANE":"２１５巷","ALLEY":" ","HOUSE_NO":"３６號十樓之１","E_COORD97":172910.41,"N_COORD97":2546067.8500000001,"ADDRESS":"復國二路２１５巷３６號十樓之１","OBJECTID":206756},"geometry":{"x":172910.41000000108,"y":2546067.8499999996}},{"attributes":{"ID":206758,"DIS_CODE":0,"TOWNNAME":"安南區","LI":"溪心里","LIN":"17鄰","STREET":"智安四街","SECT":" ","MAREA":" ","LANE":" ","ALLEY":" ","HOUSE_NO":"５５號","E_COORD97":166198.5,"N_COORD97":2550232.6000000001,"ADDRESS":"智安四街５５號","OBJECTID":206757},"geometry":{"x":166198.50000000093,"y":2550232.6000000015}},{"attributes":{"ID":206759,"DIS_CODE":0,"TOWNNAME":"安南區","LI":"溪心里","LIN":"17鄰","STREET":"智安四街","SECT":" ","MAREA":" ","LANE":" ","ALLEY":" ","HOUSE_NO":"５７號","E_COORD97":166194.89999999999,"N_COORD97":2550237.2999999998,"ADDRESS":"智安四街５７號","OBJECTID":206758},"geometry":{"x":166194.90000000037,"y":2550237.2999999989}},{"attributes":{"ID":206760,"DIS_CODE":0,"TOWNNAME":"安南區","LI":"溪心里","LIN":"17鄰","STREET":"智安四街","SECT":" ","MAREA":" ","LANE":" ","ALLEY":" ","HOUSE_NO":"５９號","E_COORD97":166191.45000000001,"N_COORD97":2550241.6800000002,"ADDRESS":"智安四街５９號","OBJECTID":206759},"geometry":{"x":166191.45000000205,"y":2550241.6800000016}},{"attributes":{"ID":206761,"DIS_CODE":0,"TOWNNAME":"安南區","LI":"溪心里","LIN":"17鄰","STREET":"智安四街","SECT":" ","MAREA":" ","LANE":" ","ALLEY":" ","HOUSE_NO":"６１號","E_COORD97":166187.69,"N_COORD97":2550246.2200000002,"ADDRESS":"智安四街６１號","OBJECTID":206760},"geometry":{"x":166187.69000000041,"y":2550246.2200000025}},{"attributes":{"ID":206762,"DIS_CODE":0,"TOWNNAME":"安南區","LI":"溪心里","LIN":"17鄰","STREET":"智安四街","SECT":" ","MAREA":" ","LANE":" ","ALLEY":" ","HOUSE_NO":"６３號","E_COORD97":166184.39999999999,"N_COORD97":2550250.6000000001,"ADDRESS":"智安四街６３號","OBJECTID":206761},"geometry":{"x":166184.40000000037,"y":2550250.5999999996}},{"attributes":{"ID":206763,"DIS_CODE":0,"TOWNNAME":"安南區","LI":"溪頂里","LIN":"27鄰","STREET":"郡安路","SECT":"四段","MAREA":" ","LANE":" ","ALLEY":" ","HOUSE_NO":"２６６號","E_COORD97":168632.84,"N_COORD97":2547635.8100000001,"ADDRESS":"郡安路四段２６６號","OBJECTID":206762},"geometry":{"x":168632.83999999892,"y":2547635.8100000005}},{"attributes":{"ID":206764,"DIS_CODE":0,"TOWNNAME":"新化區","LI":"\u25A0拔里","LIN":"2鄰","STREET":" ","SECT":" ","MAREA":"\u25A0拔林","LANE":" ","ALLEY":" ","HOUSE_NO":"８８號之７","E_COORD97":183436.72,"N_COORD97":2552189.2599999998,"ADDRESS":"\u25A0拔林８８號之７","OBJECTID":206763},"geometry":{"x":183436.72000000067,"y":2552189.2599999998}},{"attributes":{"ID":206765,"DIS_CODE":0,"TOWNNAME":"新化區","LI":"北勢里","LIN":"2鄰","STREET":" ","SECT":" ","MAREA":"北勢","LANE":" ","ALLEY":" ","HOUSE_NO":"１９號之１５","E_COORD97":177492.54000000001,"N_COORD97":2549482.2599999998,"ADDRESS":"北勢１９號之１５","OBJECTID":206764},"geometry":{"x":177492.5400000019,"y":2549482.2600000016}},{"attributes":{"ID":206766,"DIS_CODE":0,"TOWNNAME":"新化區","LI":"北勢里","LIN":"2鄰","STREET":" ","SECT":" ","MAREA":"北勢","LANE":" ","ALLEY":" ","HOUSE_NO":"１７號","E_COORD97":177426.82999999999,"N_COORD97":2549448.2599999998,"ADDRESS":"北勢１７號","OBJECTID":206765},"geometry":{"x":177426.83000000101,"y":2549448.2600000016}},{"attributes":{"ID":206767,"DIS_CODE":0,"TOWNNAME":"新化區","LI":"全興里","LIN":"2鄰","STREET":" ","SECT":" ","MAREA":"竹子\u25A0","LANE":" ","ALLEY":" ","HOUSE_NO":"３３號","E_COORD97":177679.88,"N_COORD97":2547756.25,"ADDRESS":"竹子\u25A0３３號","OBJECTID":206766},"geometry":{"x":177679.88000000175,"y":2547756.2500000019}},{"attributes":{"ID":206768,"DIS_CODE":0,"TOWNNAME":"安南區","LI":"安順里","LIN":"22鄰","STREET":"北安路","SECT":"三段","MAREA":" ","LANE":"６８０巷","ALLEY":"８弄","HOUSE_NO":"１０號","E_COORD97":169452.70000000001,"N_COORD97":2550440.9300000002,"ADDRESS":"北安路三段６８０巷８弄１０號","OBJECTID":206767},"geometry":{"x":169452.70000000019,"y":2550440.9299999997}},{"attributes":{"ID":206769,"DIS_CODE":0,"TOWNNAME":"安南區","LI":"安順里","LIN":"22鄰","STREET":"北安路","SECT":"三段","MAREA":" ","LANE":"６８０巷","ALLEY":"８弄","HOUSE_NO":"６號","E_COORD97":169453.34,"N_COORD97":2550449.6600000001,"ADDRESS":"北安路三段６８０巷８弄６號","OBJECTID":206768},"geometry":{"x":169453.33999999892,"y":2550449.660000002}},{"attributes":{"ID":206770,"DIS_CODE":0,"TOWNNAME":"安南區","LI":"安順里","LIN":"22鄰","STREET":"北安路","SECT":"三段","MAREA":" ","LANE":"６８０巷","ALLEY":"８弄","HOUSE_NO":"８號","E_COORD97":169453.01999999999,"N_COORD97":2550445.2200000002,"ADDRESS":"北安路三段６８０巷８弄８號","OBJECTID":206769},"geometry":{"x":169453.01999999955,"y":2550445.2200000025}},{"attributes":{"ID":206771,"DIS_CODE":0,"TOWNNAME":"安南區","LI":"安順里","LIN":"22鄰","STREET":"北安路","SECT":"三段","MAREA":" ","LANE":"６８０巷","ALLEY":"８弄","HOUSE_NO":"１２號","E_COORD97":169452.54000000001,"N_COORD97":2550436.1699999999,"ADDRESS":"北安路三段６８０巷８弄１２號","OBJECTID":206770},"geometry":{"x":169452.54000000097,"y":2550436.1699999999}},{"attributes":{"ID":206772,"DIS_CODE":0,"TOWNNAME":"安南區","LI":"安順里","LIN":"22鄰","STREET":"北安路","SECT":"三段","MAREA":" ","LANE":"６８０巷","ALLEY":"８弄","HOUSE_NO":"１６號","E_COORD97":169452.23000000001,"N_COORD97":2550431.8799999999,"ADDRESS":"北安路三段６８０巷８弄１６號","OBJECTID":206771},"geometry":{"x":169452.23000000138,"y":2550431.8800000027}},{"attributes":{"ID":206773,"DIS_CODE":0,"TOWNNAME":"新化區","LI":"崙頂里","LIN":"2鄰","STREET":" ","SECT":" ","MAREA":"崙子頂","LANE":" ","ALLEY":" ","HOUSE_NO":"８５號之７","E_COORD97":176890.92000000001,"N_COORD97":2546650.2599999998,"ADDRESS":"崙子頂８５號之７","OBJECTID":206772},"geometry":{"x":176890.91999999993,"y":2546650.2600000016}},{"attributes":{"ID":206774,"DIS_CODE":0,"TOWNNAME":"安南區","LI":"安順里","LIN":"22鄰","STREET":"北安路","SECT":"三段","MAREA":" ","LANE":"６８０巷","ALLEY":"８弄","HOUSE_NO":"２８號","E_COORD97":169451.10999999999,"N_COORD97":2550408.0699999998,"ADDRESS":"北安路三段６８０巷８弄２８號","OBJECTID":206773},"geometry":{"x":169451.11000000127,"y":2550408.070000004}},{"attributes":{"ID":206775,"DIS_CODE":0,"TOWNNAME":"安南區","LI":"安順里","LIN":"22鄰","STREET":"北安路","SECT":"三段","MAREA":" ","LANE":"６８０巷","ALLEY":"８弄","HOUSE_NO":"２２號","E_COORD97":169451.59,"N_COORD97":2550417.1200000001,"ADDRESS":"北安路三段６８０巷８弄２２號","OBJECTID":206774},"geometry":{"x":169451.58999999892,"y":2550417.120000001}},{"attributes":{"ID":206776,"DIS_CODE":0,"TOWNNAME":"新化區","LI":"山\u25A0里","LIN":"2鄰","STREET":" ","SECT":" ","MAREA":"頂山\u25A0","LANE":" ","ALLEY":" ","HOUSE_NO":"５４號之１３１","E_COORD97":179300.31,"N_COORD97":2546133.2599999998,"ADDRESS":"頂山\u25A0５４號之１３１","OBJECTID":206775},"geometry":{"x":179300.30999999959,"y":2546133.2599999998}},{"attributes":{"ID":206777,"DIS_CODE":0,"TOWNNAME":"安南區","LI":"安順里","LIN":"22鄰","STREET":"北安路","SECT":"三段","MAREA":" ","LANE":"６８０巷","ALLEY":"８弄","HOUSE_NO":"２６號","E_COORD97":169451.42999999999,"N_COORD97":2550412.5099999998,"ADDRESS":"北安路三段６８０巷８弄２６號","OBJECTID":206776},"geometry":{"x":169451.43000000063,"y":2550412.5100000016}},{"attributes":{"ID":206778,"DIS_CODE":0,"TOWNNAME":"安南區","LI":"安順里","LIN":"22鄰","STREET":"北安路","SECT":"三段","MAREA":" ","LANE":"６８０巷","ALLEY":"８弄","HOUSE_NO":"３０號","E_COORD97":169451.10999999999,"N_COORD97":2550400.9300000002,"ADDRESS":"北安路三段６８０巷８弄３０號","OBJECTID":206777},"geometry":{"x":169451.11000000127,"y":2550400.9299999997}},{"attributes":{"ID":206779,"DIS_CODE":0,"TOWNNAME":"安南區","LI":"安順里","LIN":"22鄰","STREET":"北安路","SECT":"三段","MAREA":" ","LANE":"６８０巷","ALLEY":"１０弄","HOUSE_NO":"１號","E_COORD97":169495.41,"N_COORD97":2550449.98,"ADDRESS":"北安路三段６８０巷１０弄１號","OBJECTID":206778},"geometry":{"x":169495.41000000015,"y":2550449.9800000023}},{"attributes":{"ID":206780,"DIS_CODE":0,"TOWNNAME":"安南區","LI":"安順里","LIN":"22鄰","STREET":"北安路","SECT":"三段","MAREA":" ","LANE":"６８０巷","ALLEY":"１０弄","HOUSE_NO":"３１號","E_COORD97":169495.72,"N_COORD97":2550360.9199999999,"ADDRESS":"北安路三段６８０巷１０弄３１號","OBJECTID":206779},"geometry":{"x":169495.71999999974,"y":2550360.9199999999}},{"attributes":{"ID":206781,"DIS_CODE":0,"TOWNNAME":"安南區","LI":"安順里","LIN":"22鄰","STREET":"北安路","SECT":"三段","MAREA":" ","LANE":"６８０巷","ALLEY":"１０弄","HOUSE_NO":"３２號","E_COORD97":169466.98999999999,"N_COORD97":2550382.0299999998,"ADDRESS":"北安路三段６８０巷１０弄３２號","OBJECTID":206780},"geometry":{"x":169466.99000000115,"y":2550382.0299999993}},{"attributes":{"ID":206782,"DIS_CODE":0,"TOWNNAME":"安南區","LI":"安順里","LIN":"22鄰","STREET":"北安路","SECT":"三段","MAREA":" ","LANE":"６８０巷","ALLEY":"１０弄","HOUSE_NO":"３６號","E_COORD97":169466.67000000001,"N_COORD97":2550376.3199999998,"ADDRESS":"北安路三段６８０巷１０弄３６號","OBJECTID":206781},"geometry":{"x":169466.67000000086,"y":2550376.3200000022}},{"attributes":{"ID":206783,"DIS_CODE":0,"TOWNNAME":"安南區","LI":"安順里","LIN":"22鄰","STREET":"北安路","SECT":"三段","MAREA":" ","LANE":"６８０巷","ALLEY":"１０弄","HOUSE_NO":"３８號","E_COORD97":169466.20000000001,"N_COORD97":2550369.3300000001,"ADDRESS":"北安路三段６８０巷１０弄３８號","OBJECTID":206782},"geometry":{"x":169466.20000000019,"y":2550369.3300000019}},{"attributes":{"ID":206784,"DIS_CODE":0,"TOWNNAME":"安南區","LI":"安順里","LIN":"22鄰","STREET":"北安路","SECT":"三段","MAREA":" ","LANE":"６８０巷","ALLEY":"１０弄","HOUSE_NO":"２５號","E_COORD97":169495.56,"N_COORD97":2550381.2400000002,"ADDRESS":"北安路三段６８０巷１０弄２５號","OBJECTID":206783},"geometry":{"x":169495.55999999959,"y":2550381.2400000021}},{"attributes":{"ID":206785,"DIS_CODE":0,"TOWNNAME":"安南區","LI":"安順里","LIN":"22鄰","STREET":"北安路","SECT":"三段","MAREA":" ","LANE":"６８０巷","ALLEY":"１０弄","HOUSE_NO":"２７號","E_COORD97":169495.41,"N_COORD97":2550375.21,"ADDRESS":"北安路三段６８０巷１０弄２７號","OBJECTID":206784},"geometry":{"x":169495.41000000015,"y":2550375.2100000028}},{"attributes":{"ID":206786,"DIS_CODE":0,"TOWNNAME":"東區","LI":"忠孝里","LIN":"32鄰","STREET":"崇明六街","SECT":" ","MAREA":" ","LANE":"８巷","ALLEY":"３弄","HOUSE_NO":"３號","E_COORD97":169645.60000000001,"N_COORD97":2542170.5899999999,"ADDRESS":"崇明六街８巷３弄３號","OBJECTID":206785},"geometry":{"x":169645.59999999963,"y":2542170.5900000017}},{"attributes":{"ID":206787,"DIS_CODE":0,"TOWNNAME":"安南區","LI":"安順里","LIN":"22鄰","STREET":"北安路","SECT":"三段","MAREA":" ","LANE":"６８０巷","ALLEY":"１０弄","HOUSE_NO":"２９號","E_COORD97":169495.25,"N_COORD97":2550368.2200000002,"ADDRESS":"北安路三段６８０巷１０弄２９號","OBJECTID":206786},"geometry":{"x":169495.25000000093,"y":2550368.2200000025}},{"attributes":{"ID":206788,"DIS_CODE":0,"TOWNNAME":"安南區","LI":"安順里","LIN":"22鄰","STREET":"北安路","SECT":"三段","MAREA":" ","LANE":"６８０巷","ALLEY":"１０弄","HOUSE_NO":"２８號","E_COORD97":169467.47,"N_COORD97":2550391.5600000001,"ADDRESS":"北安路三段６８０巷１０弄２８號","OBJECTID":206787},"geometry":{"x":169467.46999999974,"y":2550391.5600000042}},{"attributes":{"ID":206789,"DIS_CODE":0,"TOWNNAME":"安南區","LI":"安順里","LIN":"22鄰","STREET":"北安路","SECT":"三段","MAREA":" ","LANE":"６８０巷","ALLEY":"１０弄","HOUSE_NO":"２１號","E_COORD97":169494.60999999999,"N_COORD97":2550391.3999999999,"ADDRESS":"北安路三段６８０巷１０弄２１號","OBJECTID":206788},"geometry":{"x":169494.6100000022,"y":2550391.4000000004}},{"attributes":{"ID":206790,"DIS_CODE":0,"TOWNNAME":"安南區","LI":"安順里","LIN":"22鄰","STREET":"北安路","SECT":"三段","MAREA":" ","LANE":"６８０巷","ALLEY":"１０弄","HOUSE_NO":"２３號","E_COORD97":169494.92999999999,"N_COORD97":2550386.6400000001,"ADDRESS":"北安路三段６８０巷１０弄２３號","OBJECTID":206789},"geometry":{"x":169494.92999999877,"y":2550386.6400000006}},{"attributes":{"ID":206791,"DIS_CODE":0,"TOWNNAME":"安南區","LI":"安順里","LIN":"22鄰","STREET":"北安路","SECT":"三段","MAREA":" ","LANE":"６８０巷","ALLEY":"１０弄","HOUSE_NO":"１１號","E_COORD97":169494.76999999999,"N_COORD97":2550418.23,"ADDRESS":"北安路三段６８０巷１０弄１１號","OBJECTID":206790},"geometry":{"x":169494.77000000048,"y":2550418.2300000023}},{"attributes":{"ID":206792,"DIS_CODE":0,"TOWNNAME":"安南區","LI":"安順里","LIN":"22鄰","STREET":"北安路","SECT":"三段","MAREA":" ","LANE":"６８０巷","ALLEY":"１０弄","HOUSE_NO":"１６號","E_COORD97":169470.32000000001,"N_COORD97":2550419.3399999999,"ADDRESS":"北安路三段６８０巷１０弄１６號","OBJECTID":206791},"geometry":{"x":169470.3200000003,"y":2550419.3400000036}},{"attributes":{"ID":206793,"DIS_CODE":0,"TOWNNAME":"新化區","LI":"山\u25A0里","LIN":"2鄰","STREET":" ","SECT":" ","MAREA":"頂山\u25A0","LANE":" ","ALLEY":" ","HOUSE_NO":"５４號之１２２","E_COORD97":179248.73000000001,"N_COORD97":2546131.2599999998,"ADDRESS":"頂山\u25A0５４號之１２２","OBJECTID":206792},"geometry":{"x":179248.73000000138,"y":2546131.2600000035}},{"attributes":{"ID":206794,"DIS_CODE":0,"TOWNNAME":"新化區","LI":"山\u25A0里","LIN":"2鄰","STREET":" ","SECT":" ","MAREA":"頂山\u25A0","LANE":" ","ALLEY":" ","HOUSE_NO":"５４號之１２７","E_COORD97":179279.51999999999,"N_COORD97":2546132.2599999998,"ADDRESS":"頂山\u25A0５４號之１２７","OBJECTID":206793},"geometry":{"x":179279.52000000048,"y":2546132.2600000016}},{"attributes":{"ID":206795,"DIS_CODE":0,"TOWNNAME":"新化區","LI":"\u25A0拔里","LIN":"2鄰","STREET":" ","SECT":" ","MAREA":"\u25A0拔林","LANE":" ","ALLEY":" ","HOUSE_NO":"８７號之４","E_COORD97":183350.41,"N_COORD97":2552112.2599999998,"ADDRESS":"\u25A0拔林８７號之４","OBJECTID":206794},"geometry":{"x":183350.41000000201,"y":2552112.2600000016}},{"attributes":{"ID":206796,"DIS_CODE":0,"TOWNNAME":"新化區","LI":"全興里","LIN":"2鄰","STREET":" ","SECT":" ","MAREA":"竹子\u25A0","LANE":" ","ALLEY":" ","HOUSE_NO":"３１號之２","E_COORD97":177709.23999999999,"N_COORD97":2547752.2599999998,"ADDRESS":"竹子\u25A0３１號之２","OBJECTID":206795},"geometry":{"x":177709.24000000022,"y":2547752.2600000016}},{"attributes":{"ID":206797,"DIS_CODE":0,"TOWNNAME":"新化區","LI":"崙頂里","LIN":"2鄰","STREET":" ","SECT":" ","MAREA":"崙子頂","LANE":" ","ALLEY":" ","HOUSE_NO":"８６號之３","E_COORD97":176872.82999999999,"N_COORD97":2546672.2599999998,"ADDRESS":"崙子頂８６號之３","OBJECTID":206796},"geometry":{"x":176872.83000000007,"y":2546672.2599999998}},{"attributes":{"ID":206798,"DIS_CODE":0,"TOWNNAME":"新化區","LI":"\u25A0拔里","LIN":"2鄰","STREET":" ","SECT":" ","MAREA":"\u25A0拔林","LANE":" ","ALLEY":" ","HOUSE_NO":"８３號之５","E_COORD97":183511.42999999999,"N_COORD97":2552095.2599999998,"ADDRESS":"\u25A0拔林８３號之５","OBJECTID":206797},"geometry":{"x":183511.43000000063,"y":2552095.2600000016}},{"attributes":{"ID":206799,"DIS_CODE":0,"TOWNNAME":"新化區","LI":"崙頂里","LIN":"2鄰","STREET":" ","SECT":" ","MAREA":"崙子頂","LANE":" ","ALLEY":" ","HOUSE_NO":"７９號之２","E_COORD97":176867.53,"N_COORD97":2546793.2599999998,"ADDRESS":"崙子頂７９號之２","OBJECTID":206798},"geometry":{"x":176867.53000000119,"y":2546793.2600000016}},{"attributes":{"ID":206800,"DIS_CODE":0,"TOWNNAME":"新化區","LI":"全興里","LIN":"2鄰","STREET":" ","SECT":" ","MAREA":"竹子\u25A0","LANE":" ","ALLEY":" ","HOUSE_NO":"２００號之１３","E_COORD97":177857.73000000001,"N_COORD97":2547747.2599999998,"ADDRESS":"竹子\u25A0２００號之１３","OBJECTID":206799},"geometry":{"x":177857.72999999952,"y":2547747.2599999998}},{"attributes":{"ID":206801,"DIS_CODE":0,"TOWNNAME":"新化區","LI":"山\u25A0里","LIN":"2鄰","STREET":" ","SECT":" ","MAREA":"頂山\u25A0","LANE":" ","ALLEY":" ","HOUSE_NO":"５４號之１４１","E_COORD97":179319.31,"N_COORD97":2546132.2599999998,"ADDRESS":"頂山\u25A0５４號之１４１","OBJECTID":206800},"geometry":{"x":179319.31000000145,"y":2546132.2600000016}}]}