{"displayFieldName":"TOWNNAME","fieldAliases":{"ID":"ID","DIS_CODE":"DIS_CODE","TOWNNAME":"TOWNNAME","LI":"LI","LIN":"LIN","STREET":"STREET","SECT":"SECT","MAREA":"MAREA","LANE":"LANE","ALLEY":"ALLEY","HOUSE_NO":"HOUSE_NO","E_COORD97":"E_COORD97","N_COORD97":"N_COORD97","ADDRESS":"ADDRESS","OBJECTID":"OBJECTID"},"geometryType":"esriGeometryPoint","spatialReference":{"wkid":102443,"latestWkid":3826},"fields":[{"name":"ID","type":"esriFieldTypeDouble","alias":"ID"},{"name":"DIS_CODE","type":"esriFieldTypeInteger","alias":"DIS_CODE"},{"name":"TOWNNAME","type":"esriFieldTypeString","alias":"TOWNNAME","length":8},{"name":"LI","type":"esriFieldTypeString","alias":"LI","length":8},{"name":"LIN","type":"esriFieldTypeString","alias":"LIN","length":12},{"name":"STREET","type":"esriFieldTypeString","alias":"STREET","length":20},{"name":"SECT","type":"esriFieldTypeString","alias":"SECT","length":8},{"name":"MAREA","type":"esriFieldTypeString","alias":"MAREA","length":12},{"name":"LANE","type":"esriFieldTypeString","alias":"LANE","length":10},{"name":"ALLEY","type":"esriFieldTypeString","alias":"ALLEY","length":10},{"name":"HOUSE_NO","type":"esriFieldTypeString","alias":"HOUSE_NO","length":20},{"name":"E_COORD97","type":"esriFieldTypeDouble","alias":"E_COORD97"},{"name":"N_COORD97","type":"esriFieldTypeDouble","alias":"N_COORD97"},{"name":"ADDRESS","type":"esriFieldTypeString","alias":"ADDRESS","length":50},{"name":"OBJECTID","type":"esriFieldTypeOID","alias":"OBJECTID"}],"features":[{"attributes":{"ID":245605,"DIS_CODE":0,"TOWNNAME":"仁德區","LI":"新田里","LIN":"1鄰","STREET":"新田二街","SECT":" ","MAREA":" ","LANE":"１３８巷","ALLEY":" ","HOUSE_NO":"１００號","E_COORD97":175038.57599799999,"N_COORD97":2539860.2377200001,"ADDRESS":"新田二街１３８巷１００號","OBJECTID":245601},"geometry":{"x":175038.5759980008,"y":2539860.2377190031}},{"attributes":{"ID":245606,"DIS_CODE":0,"TOWNNAME":"新化區","LI":"唪口里","LIN":"11鄰","STREET":" ","SECT":" ","MAREA":"唪口","LANE":" ","ALLEY":" ","HOUSE_NO":"１６３號之２","E_COORD97":177615.10000000001,"N_COORD97":2548866.2599999998,"ADDRESS":"唪口１６３號之２","OBJECTID":245602},"geometry":{"x":177615.09999999963,"y":2548866.2599999998}},{"attributes":{"ID":245607,"DIS_CODE":0,"TOWNNAME":"新營區","LI":"民權里","LIN":"24鄰","STREET":"民治路","SECT":" ","MAREA":" ","LANE":"５３巷","ALLEY":" ","HOUSE_NO":"１１之１號四樓","E_COORD97":179683.14999999999,"N_COORD97":2578681.71,"ADDRESS":"民治路５３巷１１之１號四樓","OBJECTID":245603},"geometry":{"x":179683.1500000013,"y":2578681.7100000028}},{"attributes":{"ID":245608,"DIS_CODE":0,"TOWNNAME":"新化區","LI":"唪口里","LIN":"11鄰","STREET":" ","SECT":" ","MAREA":"唪口","LANE":" ","ALLEY":" ","HOUSE_NO":"１６７號之１","E_COORD97":177635.88,"N_COORD97":2548932.2599999998,"ADDRESS":"唪口１６７號之１","OBJECTID":245604},"geometry":{"x":177635.88000000175,"y":2548932.2600000016}},{"attributes":{"ID":245609,"DIS_CODE":0,"TOWNNAME":"新營區","LI":"民權里","LIN":"24鄰","STREET":"民治路","SECT":" ","MAREA":" ","LANE":"５３巷","ALLEY":" ","HOUSE_NO":"５號之１二樓","E_COORD97":179701.70999999999,"N_COORD97":2578755.8199999998,"ADDRESS":"民治路５３巷５號之１二樓","OBJECTID":245605},"geometry":{"x":179701.70999999903,"y":2578755.8200000003}},{"attributes":{"ID":245610,"DIS_CODE":0,"TOWNNAME":"新營區","LI":"民權里","LIN":"24鄰","STREET":"民治路","SECT":" ","MAREA":" ","LANE":"５３巷","ALLEY":" ","HOUSE_NO":"１１之２號二樓","E_COORD97":179683.14999999999,"N_COORD97":2578681.71,"ADDRESS":"民治路５３巷１１之２號二樓","OBJECTID":245606},"geometry":{"x":179683.1500000013,"y":2578681.7100000028}},{"attributes":{"ID":245611,"DIS_CODE":0,"TOWNNAME":"新化區","LI":"全興里","LIN":"11鄰","STREET":" ","SECT":" ","MAREA":"竹子\u25A0","LANE":" ","ALLEY":" ","HOUSE_NO":"３２６號之１","E_COORD97":178033.06,"N_COORD97":2547093.2599999998,"ADDRESS":"竹子\u25A0３２６號之１","OBJECTID":245607},"geometry":{"x":178033.06000000052,"y":2547093.2599999998}},{"attributes":{"ID":245612,"DIS_CODE":0,"TOWNNAME":"新化區","LI":"唪口里","LIN":"11鄰","STREET":" ","SECT":" ","MAREA":"唪口","LANE":" ","ALLEY":" ","HOUSE_NO":"１６３號之７","E_COORD97":177617.89000000001,"N_COORD97":2548845.2599999998,"ADDRESS":"唪口１６３號之７","OBJECTID":245608},"geometry":{"x":177617.88999999966,"y":2548845.2599999998}},{"attributes":{"ID":245613,"DIS_CODE":0,"TOWNNAME":"新營區","LI":"民權里","LIN":"24鄰","STREET":"民治路","SECT":" ","MAREA":" ","LANE":"５３巷","ALLEY":" ","HOUSE_NO":"３之１號三樓","E_COORD97":179697.79999999999,"N_COORD97":2578780.2000000002,"ADDRESS":"民治路５３巷３之１號三樓","OBJECTID":245609},"geometry":{"x":179697.80000000168,"y":2578780.200000003}},{"attributes":{"ID":245614,"DIS_CODE":0,"TOWNNAME":"新營區","LI":"新北里","LIN":"24鄰","STREET":"民生路","SECT":" ","MAREA":" ","LANE":"４２０巷","ALLEY":" ","HOUSE_NO":"４１號四樓之１","E_COORD97":178928.45000000001,"N_COORD97":2579414.02,"ADDRESS":"民生路４２０巷４１號四樓之１","OBJECTID":245610},"geometry":{"x":178928.45000000019,"y":2579414.0200000014}},{"attributes":{"ID":245615,"DIS_CODE":0,"TOWNNAME":"新營區","LI":"新北里","LIN":"24鄰","STREET":"民生路","SECT":" ","MAREA":" ","LANE":"４２０巷","ALLEY":" ","HOUSE_NO":"４１號二樓之１","E_COORD97":178928.45000000001,"N_COORD97":2579414.02,"ADDRESS":"民生路４２０巷４１號二樓之１","OBJECTID":245611},"geometry":{"x":178928.45000000019,"y":2579414.0200000014}},{"attributes":{"ID":245616,"DIS_CODE":0,"TOWNNAME":"新營區","LI":"新北里","LIN":"24鄰","STREET":"民生路","SECT":" ","MAREA":" ","LANE":"４２０巷","ALLEY":" ","HOUSE_NO":"４１號五樓之１","E_COORD97":178928.45000000001,"N_COORD97":2579414.02,"ADDRESS":"民生路４２０巷４１號五樓之１","OBJECTID":245612},"geometry":{"x":178928.45000000019,"y":2579414.0200000014}},{"attributes":{"ID":245617,"DIS_CODE":0,"TOWNNAME":"永康區","LI":"安康里","LIN":"24鄰","STREET":"中華路","SECT":" ","MAREA":" ","LANE":"７０３巷","ALLEY":" ","HOUSE_NO":"６４號五樓","E_COORD97":170753.23999999999,"N_COORD97":2546246.7599999998,"ADDRESS":"中華路７０３巷６４號五樓","OBJECTID":245613},"geometry":{"x":170753.24000000115,"y":2546246.7600000016}},{"attributes":{"ID":245618,"DIS_CODE":0,"TOWNNAME":"永康區","LI":"安康里","LIN":"24鄰","STREET":"中華路","SECT":" ","MAREA":" ","LANE":"７０３巷","ALLEY":" ","HOUSE_NO":"５４號五樓","E_COORD97":170763.04000000001,"N_COORD97":2546274.25,"ADDRESS":"中華路７０３巷５４號五樓","OBJECTID":245614},"geometry":{"x":170763.04000000097,"y":2546274.2500000019}},{"attributes":{"ID":245619,"DIS_CODE":0,"TOWNNAME":"永康區","LI":"安康里","LIN":"24鄰","STREET":"中華路","SECT":" ","MAREA":" ","LANE":"７０３巷","ALLEY":" ","HOUSE_NO":"６２號六樓","E_COORD97":170760.39999999999,"N_COORD97":2546251,"ADDRESS":"中華路７０３巷６２號六樓","OBJECTID":245615},"geometry":{"x":170760.40000000037,"y":2546251}},{"attributes":{"ID":245620,"DIS_CODE":0,"TOWNNAME":"永康區","LI":"安康里","LIN":"24鄰","STREET":"中華路","SECT":" ","MAREA":" ","LANE":"７０３巷","ALLEY":" ","HOUSE_NO":"５６號六樓","E_COORD97":170753.84,"N_COORD97":2546269,"ADDRESS":"中華路７０３巷５６號六樓","OBJECTID":245616},"geometry":{"x":170753.84000000078,"y":2546269.0000000019}},{"attributes":{"ID":245621,"DIS_CODE":0,"TOWNNAME":"永康區","LI":"安康里","LIN":"24鄰","STREET":"中華路","SECT":" ","MAREA":" ","LANE":"７０３巷","ALLEY":" ","HOUSE_NO":"６０號四樓","E_COORD97":170751.22,"N_COORD97":2546259,"ADDRESS":"中華路７０３巷６０號四樓","OBJECTID":245617},"geometry":{"x":170751.22000000067,"y":2546259.0000000019}},{"attributes":{"ID":245622,"DIS_CODE":0,"TOWNNAME":"永康區","LI":"安康里","LIN":"24鄰","STREET":"中華路","SECT":" ","MAREA":" ","LANE":"７０３巷","ALLEY":" ","HOUSE_NO":"５４號六樓","E_COORD97":170763.04000000001,"N_COORD97":2546274.25,"ADDRESS":"中華路７０３巷５４號六樓","OBJECTID":245618},"geometry":{"x":170763.04000000097,"y":2546274.2500000019}},{"attributes":{"ID":245623,"DIS_CODE":0,"TOWNNAME":"永康區","LI":"安康里","LIN":"24鄰","STREET":"中華路","SECT":" ","MAREA":" ","LANE":"７０３巷","ALLEY":" ","HOUSE_NO":"５８號五樓","E_COORD97":170746.48000000001,"N_COORD97":2546266.5,"ADDRESS":"中華路７０３巷５８號五樓","OBJECTID":245619},"geometry":{"x":170746.48000000231,"y":2546266.5000000019}},{"attributes":{"ID":245624,"DIS_CODE":0,"TOWNNAME":"永康區","LI":"安康里","LIN":"24鄰","STREET":"中華路","SECT":" ","MAREA":" ","LANE":"７０３巷","ALLEY":" ","HOUSE_NO":"５６號四樓","E_COORD97":170753.84,"N_COORD97":2546269,"ADDRESS":"中華路７０３巷５６號四樓","OBJECTID":245620},"geometry":{"x":170753.84000000078,"y":2546269.0000000019}},{"attributes":{"ID":245625,"DIS_CODE":0,"TOWNNAME":"永康區","LI":"安康里","LIN":"24鄰","STREET":"中華路","SECT":" ","MAREA":" ","LANE":"７０３巷","ALLEY":" ","HOUSE_NO":"５４號四樓","E_COORD97":170763.04000000001,"N_COORD97":2546274.25,"ADDRESS":"中華路７０３巷５４號四樓","OBJECTID":245621},"geometry":{"x":170763.04000000097,"y":2546274.2500000019}},{"attributes":{"ID":245626,"DIS_CODE":0,"TOWNNAME":"永康區","LI":"安康里","LIN":"24鄰","STREET":"中華路","SECT":" ","MAREA":" ","LANE":"７０３巷","ALLEY":" ","HOUSE_NO":"５４號七樓","E_COORD97":170763.04000000001,"N_COORD97":2546274.25,"ADDRESS":"中華路７０３巷５４號七樓","OBJECTID":245622},"geometry":{"x":170763.04000000097,"y":2546274.2500000019}},{"attributes":{"ID":245627,"DIS_CODE":0,"TOWNNAME":"永康區","LI":"安康里","LIN":"24鄰","STREET":"中華路","SECT":" ","MAREA":" ","LANE":"７０３巷","ALLEY":" ","HOUSE_NO":"５２號四樓","E_COORD97":170770.67999999999,"N_COORD97":2546278.9900000002,"ADDRESS":"中華路７０３巷５２號四樓","OBJECTID":245623},"geometry":{"x":170770.6799999997,"y":2546278.9899999984}},{"attributes":{"ID":245628,"DIS_CODE":0,"TOWNNAME":"永康區","LI":"安康里","LIN":"24鄰","STREET":"中華路","SECT":" ","MAREA":" ","LANE":"７０３巷","ALLEY":" ","HOUSE_NO":"５６號五樓","E_COORD97":170753.84,"N_COORD97":2546269,"ADDRESS":"中華路７０３巷５６號五樓","OBJECTID":245624},"geometry":{"x":170753.84000000078,"y":2546269.0000000019}},{"attributes":{"ID":245629,"DIS_CODE":0,"TOWNNAME":"永康區","LI":"安康里","LIN":"24鄰","STREET":"中華路","SECT":" ","MAREA":" ","LANE":"７０３巷","ALLEY":" ","HOUSE_NO":"５８號六樓","E_COORD97":170746.48000000001,"N_COORD97":2546266.5,"ADDRESS":"中華路７０３巷５８號六樓","OBJECTID":245625},"geometry":{"x":170746.48000000231,"y":2546266.5000000019}},{"attributes":{"ID":245630,"DIS_CODE":0,"TOWNNAME":"新營區","LI":"嘉芳里","LIN":"14鄰","STREET":"新芳街","SECT":" ","MAREA":" ","LANE":" ","ALLEY":" ","HOUSE_NO":"１２號","E_COORD97":176658.04000000001,"N_COORD97":2578549.02,"ADDRESS":"新芳街１２號","OBJECTID":245626},"geometry":{"x":176658.04000000004,"y":2578549.0200000014}},{"attributes":{"ID":245631,"DIS_CODE":0,"TOWNNAME":"新化區","LI":"太平里","LIN":"11鄰","STREET":"中正路","SECT":" ","MAREA":" ","LANE":"７０７巷","ALLEY":" ","HOUSE_NO":"２９號之３","E_COORD97":178642.51000000001,"N_COORD97":2549084.2599999998,"ADDRESS":"中正路７０７巷２９號之３","OBJECTID":245627},"geometry":{"x":178642.51000000071,"y":2549084.2600000035}},{"attributes":{"ID":245632,"DIS_CODE":0,"TOWNNAME":"新化區","LI":"東榮里","LIN":"11鄰","STREET":"中興路","SECT":" ","MAREA":" ","LANE":"４９０巷","ALLEY":" ","HOUSE_NO":"３０號","E_COORD97":180069.16,"N_COORD97":2547928.25,"ADDRESS":"中興路４９０巷３０號","OBJECTID":245628},"geometry":{"x":180069.16000000108,"y":2547928.2500000037}},{"attributes":{"ID":245633,"DIS_CODE":0,"TOWNNAME":"安南區","LI":"新順里","LIN":"11鄰","STREET":"安和路","SECT":"三段","MAREA":" ","LANE":"１１５巷","ALLEY":" ","HOUSE_NO":"１２號","E_COORD97":169780.82000000001,"N_COORD97":2549659.9100000001,"ADDRESS":"安和路三段１１５巷１２號","OBJECTID":245629},"geometry":{"x":169780.8200000003,"y":2549659.9100000039}},{"attributes":{"ID":245634,"DIS_CODE":0,"TOWNNAME":"安南區","LI":"新順里","LIN":"11鄰","STREET":"安和路","SECT":"三段","MAREA":" ","LANE":"１１５巷","ALLEY":" ","HOUSE_NO":"１６號","E_COORD97":169776.14999999999,"N_COORD97":2549661.23,"ADDRESS":"安和路三段１１５巷１６號","OBJECTID":245630},"geometry":{"x":169776.1500000013,"y":2549661.2300000042}},{"attributes":{"ID":245635,"DIS_CODE":0,"TOWNNAME":"新化區","LI":"唪口里","LIN":"11鄰","STREET":" ","SECT":" ","MAREA":"唪口","LANE":" ","ALLEY":" ","HOUSE_NO":"１７２號之９","E_COORD97":177694.59,"N_COORD97":2548953.2599999998,"ADDRESS":"唪口１７２號之９","OBJECTID":245631},"geometry":{"x":177694.58999999985,"y":2548953.2600000016}},{"attributes":{"ID":245636,"DIS_CODE":0,"TOWNNAME":"安南區","LI":"新順里","LIN":"11鄰","STREET":"安和路","SECT":"三段","MAREA":" ","LANE":"１１５巷","ALLEY":" ","HOUSE_NO":"１８號","E_COORD97":169771.70999999999,"N_COORD97":2549662.9100000001,"ADDRESS":"安和路三段１１５巷１８號","OBJECTID":245632},"geometry":{"x":169771.71000000089,"y":2549662.9100000001}},{"attributes":{"ID":245637,"DIS_CODE":0,"TOWNNAME":"安南區","LI":"新順里","LIN":"11鄰","STREET":"安和路","SECT":"三段","MAREA":" ","LANE":"１１５巷","ALLEY":" ","HOUSE_NO":"２０號","E_COORD97":169766.88,"N_COORD97":2549664.5899999999,"ADDRESS":"安和路三段１１５巷２０號","OBJECTID":245633},"geometry":{"x":169766.88000000175,"y":2549664.5899999999}},{"attributes":{"ID":245638,"DIS_CODE":0,"TOWNNAME":"安南區","LI":"新順里","LIN":"11鄰","STREET":"安和路","SECT":"三段","MAREA":" ","LANE":"１１５巷","ALLEY":" ","HOUSE_NO":"２２號","E_COORD97":169762.48000000001,"N_COORD97":2549666.2799999998,"ADDRESS":"安和路三段１１５巷２２號","OBJECTID":245634},"geometry":{"x":169762.48000000045,"y":2549666.2799999993}},{"attributes":{"ID":245639,"DIS_CODE":0,"TOWNNAME":"安南區","LI":"新順里","LIN":"11鄰","STREET":"安和路","SECT":"三段","MAREA":" ","LANE":"１１５巷","ALLEY":" ","HOUSE_NO":"２６號","E_COORD97":169758.41,"N_COORD97":2549667.7999999998,"ADDRESS":"安和路三段１１５巷２６號","OBJECTID":245635},"geometry":{"x":169758.41000000201,"y":2549667.7999999989}},{"attributes":{"ID":245640,"DIS_CODE":0,"TOWNNAME":"安南區","LI":"新順里","LIN":"11鄰","STREET":"安和路","SECT":"三段","MAREA":" ","LANE":"１１５巷","ALLEY":" ","HOUSE_NO":"２８號","E_COORD97":169753.84,"N_COORD97":2549670.0099999998,"ADDRESS":"安和路三段１１５巷２８號","OBJECTID":245636},"geometry":{"x":169753.84000000078,"y":2549670.0100000016}},{"attributes":{"ID":245641,"DIS_CODE":0,"TOWNNAME":"東區","LI":"路東里","LIN":"14鄰","STREET":"林森路","SECT":"一段","MAREA":" ","LANE":" ","ALLEY":" ","HOUSE_NO":"１３２號二樓之７","E_COORD97":169417.22,"N_COORD97":2542428.8700000001,"ADDRESS":"林森路一段１３２號二樓之７","OBJECTID":245637},"geometry":{"x":169417.22000000067,"y":2542428.870000001}},{"attributes":{"ID":245642,"DIS_CODE":0,"TOWNNAME":"新化區","LI":"大坑里","LIN":"11鄰","STREET":" ","SECT":" ","MAREA":"大坑尾","LANE":" ","ALLEY":" ","HOUSE_NO":"２６６號","E_COORD97":184154.63,"N_COORD97":2546507.25,"ADDRESS":"大坑尾２６６號","OBJECTID":245638},"geometry":{"x":184154.63000000082,"y":2546507.25}},{"attributes":{"ID":245643,"DIS_CODE":0,"TOWNNAME":"東區","LI":"路東里","LIN":"14鄰","STREET":"林森路","SECT":"一段","MAREA":" ","LANE":" ","ALLEY":" ","HOUSE_NO":"１３２號二樓之８","E_COORD97":169417.22,"N_COORD97":2542428.8700000001,"ADDRESS":"林森路一段１３２號二樓之８","OBJECTID":245639},"geometry":{"x":169417.22000000067,"y":2542428.870000001}},{"attributes":{"ID":245644,"DIS_CODE":0,"TOWNNAME":"東區","LI":"路東里","LIN":"14鄰","STREET":"林森路","SECT":"一段","MAREA":" ","LANE":" ","ALLEY":" ","HOUSE_NO":"１３２號二樓之９","E_COORD97":169417.22,"N_COORD97":2542428.8700000001,"ADDRESS":"林森路一段１３２號二樓之９","OBJECTID":245640},"geometry":{"x":169417.22000000067,"y":2542428.870000001}},{"attributes":{"ID":245645,"DIS_CODE":0,"TOWNNAME":"東區","LI":"路東里","LIN":"14鄰","STREET":"林森路","SECT":"一段","MAREA":" ","LANE":" ","ALLEY":" ","HOUSE_NO":"１３２號八樓之１０","E_COORD97":169417.22,"N_COORD97":2542428.8700000001,"ADDRESS":"林森路一段１３２號八樓之１０","OBJECTID":245641},"geometry":{"x":169417.22000000067,"y":2542428.870000001}},{"attributes":{"ID":245646,"DIS_CODE":0,"TOWNNAME":"東區","LI":"路東里","LIN":"14鄰","STREET":"林森路","SECT":"一段","MAREA":" ","LANE":" ","ALLEY":" ","HOUSE_NO":"１３２號八樓之５","E_COORD97":169417.22,"N_COORD97":2542428.8700000001,"ADDRESS":"林森路一段１３２號八樓之５","OBJECTID":245642},"geometry":{"x":169417.22000000067,"y":2542428.870000001}},{"attributes":{"ID":245647,"DIS_CODE":0,"TOWNNAME":"東區","LI":"路東里","LIN":"14鄰","STREET":"林森路","SECT":"一段","MAREA":" ","LANE":" ","ALLEY":" ","HOUSE_NO":"１３２號八樓之６","E_COORD97":169417.22,"N_COORD97":2542428.8700000001,"ADDRESS":"林森路一段１３２號八樓之６","OBJECTID":245643},"geometry":{"x":169417.22000000067,"y":2542428.870000001}},{"attributes":{"ID":245648,"DIS_CODE":0,"TOWNNAME":"東區","LI":"路東里","LIN":"14鄰","STREET":"林森路","SECT":"一段","MAREA":" ","LANE":" ","ALLEY":" ","HOUSE_NO":"１３２號八樓之７","E_COORD97":169417.22,"N_COORD97":2542428.8700000001,"ADDRESS":"林森路一段１３２號八樓之７","OBJECTID":245644},"geometry":{"x":169417.22000000067,"y":2542428.870000001}},{"attributes":{"ID":245649,"DIS_CODE":0,"TOWNNAME":"東區","LI":"路東里","LIN":"14鄰","STREET":"林森路","SECT":"一段","MAREA":" ","LANE":" ","ALLEY":" ","HOUSE_NO":"１３２號八樓之８","E_COORD97":169417.22,"N_COORD97":2542428.8700000001,"ADDRESS":"林森路一段１３２號八樓之８","OBJECTID":245645},"geometry":{"x":169417.22000000067,"y":2542428.870000001}},{"attributes":{"ID":245650,"DIS_CODE":0,"TOWNNAME":"東區","LI":"路東里","LIN":"14鄰","STREET":"林森路","SECT":"一段","MAREA":" ","LANE":" ","ALLEY":" ","HOUSE_NO":"１３２號八樓之９","E_COORD97":169417.22,"N_COORD97":2542428.8700000001,"ADDRESS":"林森路一段１３２號八樓之９","OBJECTID":245646},"geometry":{"x":169417.22000000067,"y":2542428.870000001}},{"attributes":{"ID":245651,"DIS_CODE":0,"TOWNNAME":"永康區","LI":"安康里","LIN":"24鄰","STREET":"中華路","SECT":" ","MAREA":" ","LANE":"７０３巷","ALLEY":" ","HOUSE_NO":"６４號二樓之２","E_COORD97":170755.51000000001,"N_COORD97":2546246.7999999998,"ADDRESS":"中華路７０３巷６４號二樓之２","OBJECTID":245647},"geometry":{"x":170755.50999999978,"y":2546246.8000000007}},{"attributes":{"ID":245652,"DIS_CODE":0,"TOWNNAME":"永康區","LI":"安康里","LIN":"24鄰","STREET":"中華路","SECT":" ","MAREA":" ","LANE":"７０３巷","ALLEY":" ","HOUSE_NO":"５６號二樓","E_COORD97":170753.84,"N_COORD97":2546269,"ADDRESS":"中華路７０３巷５６號二樓","OBJECTID":245648},"geometry":{"x":170753.84000000078,"y":2546269.0000000019}},{"attributes":{"ID":245653,"DIS_CODE":0,"TOWNNAME":"永康區","LI":"安康里","LIN":"24鄰","STREET":"中華路","SECT":" ","MAREA":" ","LANE":"７０３巷","ALLEY":" ","HOUSE_NO":"４８號六樓之２","E_COORD97":170778.73000000001,"N_COORD97":2546259.54,"ADDRESS":"中華路７０３巷４８號六樓之２","OBJECTID":245649},"geometry":{"x":170778.73000000231,"y":2546259.5399999991}},{"attributes":{"ID":245654,"DIS_CODE":0,"TOWNNAME":"東區","LI":"虎尾里","LIN":"24鄰","STREET":"東成街","SECT":" ","MAREA":" ","LANE":"２２２巷","ALLEY":" ","HOUSE_NO":"２１號","E_COORD97":171910.57999999999,"N_COORD97":2542247.8999999999,"ADDRESS":"東成街２２２巷２１號","OBJECTID":245650},"geometry":{"x":171910.58000000101,"y":2542247.9000000004}},{"attributes":{"ID":245655,"DIS_CODE":0,"TOWNNAME":"南區","LI":"府南里","LIN":"24鄰","STREET":"大成路","SECT":"二段","MAREA":" ","LANE":"１４３巷","ALLEY":" ","HOUSE_NO":"２５號二樓","E_COORD97":167302.17999999999,"N_COORD97":2541616.8999999999,"ADDRESS":"大成路二段１４３巷２５號二樓","OBJECTID":245651},"geometry":{"x":167302.18000000063,"y":2541616.9000000004}},{"attributes":{"ID":245656,"DIS_CODE":0,"TOWNNAME":"南區","LI":"府南里","LIN":"24鄰","STREET":"大成路","SECT":"二段","MAREA":" ","LANE":"１４３巷","ALLEY":" ","HOUSE_NO":"２５號三樓","E_COORD97":167302.17999999999,"N_COORD97":2541616.8999999999,"ADDRESS":"大成路二段１４３巷２５號三樓","OBJECTID":245652},"geometry":{"x":167302.18000000063,"y":2541616.9000000004}},{"attributes":{"ID":245657,"DIS_CODE":0,"TOWNNAME":"南區","LI":"府南里","LIN":"24鄰","STREET":"大成路","SECT":"二段","MAREA":" ","LANE":"１４３巷","ALLEY":" ","HOUSE_NO":"２５號五樓","E_COORD97":167302.17999999999,"N_COORD97":2541616.8999999999,"ADDRESS":"大成路二段１４３巷２５號五樓","OBJECTID":245653},"geometry":{"x":167302.18000000063,"y":2541616.9000000004}},{"attributes":{"ID":245658,"DIS_CODE":0,"TOWNNAME":"南區","LI":"府南里","LIN":"24鄰","STREET":"大成路","SECT":"二段","MAREA":" ","LANE":"１４３巷","ALLEY":" ","HOUSE_NO":"２５號四樓","E_COORD97":167302.17999999999,"N_COORD97":2541616.8999999999,"ADDRESS":"大成路二段１４３巷２５號四樓","OBJECTID":245654},"geometry":{"x":167302.18000000063,"y":2541616.9000000004}},{"attributes":{"ID":245659,"DIS_CODE":0,"TOWNNAME":"南區","LI":"府南里","LIN":"24鄰","STREET":"大成路","SECT":"二段","MAREA":" ","LANE":"１４３巷","ALLEY":" ","HOUSE_NO":"２５號之１二樓","E_COORD97":167324.01000000001,"N_COORD97":2541609.77,"ADDRESS":"大成路二段１４３巷２５號之１二樓","OBJECTID":245655},"geometry":{"x":167324.00999999978,"y":2541609.7699999996}},{"attributes":{"ID":245660,"DIS_CODE":0,"TOWNNAME":"南區","LI":"府南里","LIN":"24鄰","STREET":"大成路","SECT":"二段","MAREA":" ","LANE":"１４３巷","ALLEY":" ","HOUSE_NO":"２５號之１三樓","E_COORD97":167324.01000000001,"N_COORD97":2541609.77,"ADDRESS":"大成路二段１４３巷２５號之１三樓","OBJECTID":245656},"geometry":{"x":167324.00999999978,"y":2541609.7699999996}},{"attributes":{"ID":245661,"DIS_CODE":0,"TOWNNAME":"新營區","LI":"嘉芳里","LIN":"14鄰","STREET":"新芳街","SECT":" ","MAREA":" ","LANE":" ","ALLEY":" ","HOUSE_NO":"３號","E_COORD97":176634.41,"N_COORD97":2578555.7799999998,"ADDRESS":"新芳街３號","OBJECTID":245657},"geometry":{"x":176634.41000000108,"y":2578555.7799999975}},{"attributes":{"ID":245662,"DIS_CODE":0,"TOWNNAME":"南區","LI":"同安里","LIN":"11鄰","STREET":"明興路","SECT":" ","MAREA":" ","LANE":"１２５３巷","ALLEY":" ","HOUSE_NO":"３０號","E_COORD97":166495.91,"N_COORD97":2536075.3300000001,"ADDRESS":"明興路１２５３巷３０號","OBJECTID":245658},"geometry":{"x":166495.91000000108,"y":2536075.3300000019}},{"attributes":{"ID":245663,"DIS_CODE":0,"TOWNNAME":"南區","LI":"同安里","LIN":"11鄰","STREET":"明興路","SECT":" ","MAREA":" ","LANE":"１２５３巷","ALLEY":" ","HOUSE_NO":"３２號","E_COORD97":166501.38,"N_COORD97":2536078.5699999998,"ADDRESS":"明興路１２５３巷３２號","OBJECTID":245659},"geometry":{"x":166501.37999999989,"y":2536078.5700000022}},{"attributes":{"ID":245664,"DIS_CODE":0,"TOWNNAME":"南區","LI":"府南里","LIN":"24鄰","STREET":"大成路","SECT":"二段","MAREA":" ","LANE":"１４３巷","ALLEY":" ","HOUSE_NO":"２５號之１五樓","E_COORD97":167324.01000000001,"N_COORD97":2541609.77,"ADDRESS":"大成路二段１４３巷２５號之１五樓","OBJECTID":245660},"geometry":{"x":167324.00999999978,"y":2541609.7699999996}},{"attributes":{"ID":245665,"DIS_CODE":0,"TOWNNAME":"東區","LI":"虎尾里","LIN":"24鄰","STREET":"東成街","SECT":" ","MAREA":" ","LANE":"２２２巷","ALLEY":" ","HOUSE_NO":"２３號","E_COORD97":171905.29999999999,"N_COORD97":2542248.1699999999,"ADDRESS":"東成街２２２巷２３號","OBJECTID":245661},"geometry":{"x":171905.30000000075,"y":2542248.1699999999}},{"attributes":{"ID":245666,"DIS_CODE":0,"TOWNNAME":"佳里區","LI":"民安里","LIN":"11鄰","STREET":" ","SECT":" ","MAREA":"新宅","LANE":" ","ALLEY":" ","HOUSE_NO":"１號之１２","E_COORD97":167487.45000000001,"N_COORD97":2563747.96,"ADDRESS":"新宅１號之１２","OBJECTID":245662},"geometry":{"x":167487.45000000112,"y":2563747.9600000028}},{"attributes":{"ID":245667,"DIS_CODE":0,"TOWNNAME":"南區","LI":"府南里","LIN":"24鄰","STREET":"大成路","SECT":"二段","MAREA":" ","LANE":"１４３巷","ALLEY":" ","HOUSE_NO":"２５號之１四樓","E_COORD97":167324.01000000001,"N_COORD97":2541609.77,"ADDRESS":"大成路二段１４３巷２５號之１四樓","OBJECTID":245663},"geometry":{"x":167324.00999999978,"y":2541609.7699999996}},{"attributes":{"ID":245668,"DIS_CODE":0,"TOWNNAME":"南區","LI":"府南里","LIN":"24鄰","STREET":"大成路","SECT":"二段","MAREA":" ","LANE":"１４３巷","ALLEY":" ","HOUSE_NO":"２７號二樓","E_COORD97":167299.76999999999,"N_COORD97":2541610.3799999999,"ADDRESS":"大成路二段１４３巷２７號二樓","OBJECTID":245664},"geometry":{"x":167299.77000000048,"y":2541610.3800000008}},{"attributes":{"ID":245669,"DIS_CODE":0,"TOWNNAME":"南區","LI":"府南里","LIN":"24鄰","STREET":"大成路","SECT":"二段","MAREA":" ","LANE":"１４３巷","ALLEY":" ","HOUSE_NO":"２７號三樓","E_COORD97":167299.76999999999,"N_COORD97":2541610.3799999999,"ADDRESS":"大成路二段１４３巷２７號三樓","OBJECTID":245665},"geometry":{"x":167299.77000000048,"y":2541610.3800000008}},{"attributes":{"ID":245670,"DIS_CODE":0,"TOWNNAME":"南區","LI":"府南里","LIN":"24鄰","STREET":"大成路","SECT":"二段","MAREA":" ","LANE":"１４３巷","ALLEY":" ","HOUSE_NO":"２７號五樓","E_COORD97":167299.76999999999,"N_COORD97":2541610.3799999999,"ADDRESS":"大成路二段１４３巷２７號五樓","OBJECTID":245666},"geometry":{"x":167299.77000000048,"y":2541610.3800000008}},{"attributes":{"ID":245671,"DIS_CODE":0,"TOWNNAME":"南區","LI":"府南里","LIN":"24鄰","STREET":"大成路","SECT":"二段","MAREA":" ","LANE":"１４３巷","ALLEY":" ","HOUSE_NO":"２７號四樓","E_COORD97":167299.76999999999,"N_COORD97":2541610.3799999999,"ADDRESS":"大成路二段１４３巷２７號四樓","OBJECTID":245667},"geometry":{"x":167299.77000000048,"y":2541610.3800000008}},{"attributes":{"ID":245672,"DIS_CODE":0,"TOWNNAME":"南區","LI":"府南里","LIN":"24鄰","STREET":"大成路","SECT":"二段","MAREA":" ","LANE":"１４３巷","ALLEY":" ","HOUSE_NO":"２９號一樓","E_COORD97":167297.78,"N_COORD97":2541603.9900000002,"ADDRESS":"大成路二段１４３巷２９號一樓","OBJECTID":245668},"geometry":{"x":167297.78000000026,"y":2541603.9900000039}},{"attributes":{"ID":245673,"DIS_CODE":0,"TOWNNAME":"南區","LI":"府南里","LIN":"24鄰","STREET":"大成路","SECT":"二段","MAREA":" ","LANE":"１４３巷","ALLEY":" ","HOUSE_NO":"２９號三樓","E_COORD97":167297.78,"N_COORD97":2541603.9900000002,"ADDRESS":"大成路二段１４３巷２９號三樓","OBJECTID":245669},"geometry":{"x":167297.78000000026,"y":2541603.9900000039}},{"attributes":{"ID":245674,"DIS_CODE":0,"TOWNNAME":"南區","LI":"府南里","LIN":"24鄰","STREET":"大成路","SECT":"二段","MAREA":" ","LANE":"１４３巷","ALLEY":" ","HOUSE_NO":"２９號五樓","E_COORD97":167297.78,"N_COORD97":2541603.9900000002,"ADDRESS":"大成路二段１４３巷２９號五樓","OBJECTID":245670},"geometry":{"x":167297.78000000026,"y":2541603.9900000039}},{"attributes":{"ID":245675,"DIS_CODE":0,"TOWNNAME":"南區","LI":"府南里","LIN":"24鄰","STREET":"大成路","SECT":"二段","MAREA":" ","LANE":"１４３巷","ALLEY":" ","HOUSE_NO":"２９號四樓","E_COORD97":167297.78,"N_COORD97":2541603.9900000002,"ADDRESS":"大成路二段１４３巷２９號四樓","OBJECTID":245671},"geometry":{"x":167297.78000000026,"y":2541603.9900000039}},{"attributes":{"ID":245676,"DIS_CODE":0,"TOWNNAME":"南區","LI":"府南里","LIN":"24鄰","STREET":"大成路","SECT":"二段","MAREA":" ","LANE":"１４３巷","ALLEY":" ","HOUSE_NO":"２９號之１二樓","E_COORD97":167318.85999999999,"N_COORD97":2541598.27,"ADDRESS":"大成路二段１４３巷２９號之１二樓","OBJECTID":245672},"geometry":{"x":167318.86000000034,"y":2541598.2700000014}},{"attributes":{"ID":245677,"DIS_CODE":0,"TOWNNAME":"南區","LI":"府南里","LIN":"24鄰","STREET":"大成路","SECT":"二段","MAREA":" ","LANE":"１４３巷","ALLEY":" ","HOUSE_NO":"２９號之１三樓","E_COORD97":167318.85999999999,"N_COORD97":2541598.27,"ADDRESS":"大成路二段１４３巷２９號之１三樓","OBJECTID":245673},"geometry":{"x":167318.86000000034,"y":2541598.2700000014}},{"attributes":{"ID":245678,"DIS_CODE":0,"TOWNNAME":"南區","LI":"府南里","LIN":"24鄰","STREET":"大成路","SECT":"二段","MAREA":" ","LANE":"１４３巷","ALLEY":" ","HOUSE_NO":"２９號之１五樓","E_COORD97":167318.85999999999,"N_COORD97":2541598.27,"ADDRESS":"大成路二段１４３巷２９號之１五樓","OBJECTID":245674},"geometry":{"x":167318.86000000034,"y":2541598.2700000014}},{"attributes":{"ID":245679,"DIS_CODE":0,"TOWNNAME":"南區","LI":"府南里","LIN":"24鄰","STREET":"大成路","SECT":"二段","MAREA":" ","LANE":"１４３巷","ALLEY":" ","HOUSE_NO":"２９號之１四樓","E_COORD97":167318.85999999999,"N_COORD97":2541598.27,"ADDRESS":"大成路二段１４３巷２９號之１四樓","OBJECTID":245675},"geometry":{"x":167318.86000000034,"y":2541598.2700000014}},{"attributes":{"ID":245680,"DIS_CODE":0,"TOWNNAME":"南區","LI":"府南里","LIN":"24鄰","STREET":"大成路","SECT":"二段","MAREA":" ","LANE":"１４３巷","ALLEY":" ","HOUSE_NO":"３１號二樓","E_COORD97":167294.63,"N_COORD97":2541596.8599999999,"ADDRESS":"大成路二段１４３巷３１號二樓","OBJECTID":245676},"geometry":{"x":167294.62999999989,"y":2541596.8599999975}},{"attributes":{"ID":245681,"DIS_CODE":0,"TOWNNAME":"東區","LI":"路東里","LIN":"14鄰","STREET":"林森路","SECT":"一段","MAREA":" ","LANE":" ","ALLEY":" ","HOUSE_NO":"１３２號十一樓之１０","E_COORD97":169417.22,"N_COORD97":2542428.8700000001,"ADDRESS":"林森路一段１３２號十一樓之１０","OBJECTID":245677},"geometry":{"x":169417.22000000067,"y":2542428.870000001}},{"attributes":{"ID":245682,"DIS_CODE":0,"TOWNNAME":"東區","LI":"路東里","LIN":"14鄰","STREET":"林森路","SECT":"一段","MAREA":" ","LANE":" ","ALLEY":" ","HOUSE_NO":"１３２號十一樓之５","E_COORD97":169417.22,"N_COORD97":2542428.8700000001,"ADDRESS":"林森路一段１３２號十一樓之５","OBJECTID":245678},"geometry":{"x":169417.22000000067,"y":2542428.870000001}},{"attributes":{"ID":245683,"DIS_CODE":0,"TOWNNAME":"南區","LI":"府南里","LIN":"24鄰","STREET":"大成路","SECT":"二段","MAREA":" ","LANE":"１４３巷","ALLEY":" ","HOUSE_NO":"３１號三樓","E_COORD97":167294.63,"N_COORD97":2541596.8599999999,"ADDRESS":"大成路二段１４３巷３１號三樓","OBJECTID":245679},"geometry":{"x":167294.62999999989,"y":2541596.8599999975}},{"attributes":{"ID":245684,"DIS_CODE":0,"TOWNNAME":"南區","LI":"府南里","LIN":"24鄰","STREET":"大成路","SECT":"二段","MAREA":" ","LANE":"１４３巷","ALLEY":" ","HOUSE_NO":"３１號五樓","E_COORD97":167294.63,"N_COORD97":2541596.8599999999,"ADDRESS":"大成路二段１４３巷３１號五樓","OBJECTID":245680},"geometry":{"x":167294.62999999989,"y":2541596.8599999975}},{"attributes":{"ID":245685,"DIS_CODE":0,"TOWNNAME":"東區","LI":"虎尾里","LIN":"24鄰","STREET":"東成街","SECT":" ","MAREA":" ","LANE":"２２２巷","ALLEY":" ","HOUSE_NO":"２號","E_COORD97":171934.17000000001,"N_COORD97":2542268.0699999998,"ADDRESS":"東成街２２２巷２號","OBJECTID":245681},"geometry":{"x":171934.16999999993,"y":2542268.070000004}},{"attributes":{"ID":245686,"DIS_CODE":0,"TOWNNAME":"南區","LI":"府南里","LIN":"24鄰","STREET":"大成路","SECT":"二段","MAREA":" ","LANE":"１４３巷","ALLEY":" ","HOUSE_NO":"３１號四樓","E_COORD97":167294.63,"N_COORD97":2541596.8599999999,"ADDRESS":"大成路二段１４３巷３１號四樓","OBJECTID":245682},"geometry":{"x":167294.62999999989,"y":2541596.8599999975}},{"attributes":{"ID":245687,"DIS_CODE":0,"TOWNNAME":"南區","LI":"府南里","LIN":"24鄰","STREET":"大成路","SECT":"二段","MAREA":" ","LANE":"１４３巷","ALLEY":" ","HOUSE_NO":"３１號之１二樓","E_COORD97":167315.04000000001,"N_COORD97":2541590.3100000001,"ADDRESS":"大成路二段１４３巷３１號之１二樓","OBJECTID":245683},"geometry":{"x":167315.04000000097,"y":2541590.3100000005}},{"attributes":{"ID":245688,"DIS_CODE":0,"TOWNNAME":"南區","LI":"府南里","LIN":"24鄰","STREET":"大成路","SECT":"二段","MAREA":" ","LANE":"１４３巷","ALLEY":" ","HOUSE_NO":"３１號之１三樓","E_COORD97":167315.04000000001,"N_COORD97":2541590.3100000001,"ADDRESS":"大成路二段１４３巷３１號之１三樓","OBJECTID":245684},"geometry":{"x":167315.04000000097,"y":2541590.3100000005}},{"attributes":{"ID":245689,"DIS_CODE":0,"TOWNNAME":"南區","LI":"府南里","LIN":"24鄰","STREET":"大成路","SECT":"二段","MAREA":" ","LANE":"１４３巷","ALLEY":" ","HOUSE_NO":"３１號之１五樓","E_COORD97":167315.04000000001,"N_COORD97":2541590.3100000001,"ADDRESS":"大成路二段１４３巷３１號之１五樓","OBJECTID":245685},"geometry":{"x":167315.04000000097,"y":2541590.3100000005}},{"attributes":{"ID":245690,"DIS_CODE":0,"TOWNNAME":"南區","LI":"府南里","LIN":"24鄰","STREET":"大成路","SECT":"二段","MAREA":" ","LANE":"１４３巷","ALLEY":" ","HOUSE_NO":"３１號之１四樓","E_COORD97":167315.04000000001,"N_COORD97":2541590.3100000001,"ADDRESS":"大成路二段１４３巷３１號之１四樓","OBJECTID":245686},"geometry":{"x":167315.04000000097,"y":2541590.3100000005}},{"attributes":{"ID":245691,"DIS_CODE":0,"TOWNNAME":"東區","LI":"虎尾里","LIN":"24鄰","STREET":"東成街","SECT":" ","MAREA":" ","LANE":"２２２巷","ALLEY":" ","HOUSE_NO":"２５號","E_COORD97":171900.31,"N_COORD97":2542247.6200000001,"ADDRESS":"東成街２２２巷２５號","OBJECTID":245687},"geometry":{"x":171900.31000000052,"y":2542247.620000001}},{"attributes":{"ID":245692,"DIS_CODE":0,"TOWNNAME":"永康區","LI":"埔園里","LIN":"24鄰","STREET":"中正路","SECT":" ","MAREA":" ","LANE":"１４８巷","ALLEY":" ","HOUSE_NO":"２號之２五樓","E_COORD97":173569.63,"N_COORD97":2547932.29,"ADDRESS":"中正路１４８巷２號之２五樓","OBJECTID":245688},"geometry":{"x":173569.63000000082,"y":2547932.2899999991}},{"attributes":{"ID":245693,"DIS_CODE":0,"TOWNNAME":"永康區","LI":"埔園里","LIN":"24鄰","STREET":"中正路","SECT":" ","MAREA":" ","LANE":"１４８巷","ALLEY":" ","HOUSE_NO":"２號之４四樓","E_COORD97":173562.01000000001,"N_COORD97":2547921.54,"ADDRESS":"中正路１４８巷２號之４四樓","OBJECTID":245689},"geometry":{"x":173562.01000000071,"y":2547921.5399999991}},{"attributes":{"ID":245694,"DIS_CODE":0,"TOWNNAME":"安平區","LI":"億載里","LIN":"5鄰","STREET":"永華十一街","SECT":" ","MAREA":" ","LANE":"１１３巷","ALLEY":" ","HOUSE_NO":"２之１號","E_COORD97":164050.66,"N_COORD97":2543693.2400000002,"ADDRESS":"永華十一街１１３巷２之１號","OBJECTID":245690},"geometry":{"x":164050.66000000201,"y":2543693.2400000002}},{"attributes":{"ID":245695,"DIS_CODE":0,"TOWNNAME":"安平區","LI":"金城里","LIN":"13鄰","STREET":"世平三街","SECT":" ","MAREA":" ","LANE":"１２巷","ALLEY":" ","HOUSE_NO":"２之１號","E_COORD97":162820.64999999999,"N_COORD97":2544054.2599999998,"ADDRESS":"世平三街１２巷２之１號","OBJECTID":245691},"geometry":{"x":162820.6500000013,"y":2544054.2600000016}},{"attributes":{"ID":245696,"DIS_CODE":0,"TOWNNAME":"永康區","LI":"埔園里","LIN":"24鄰","STREET":"中正路","SECT":" ","MAREA":" ","LANE":"１４８巷","ALLEY":" ","HOUSE_NO":"２號之７五樓","E_COORD97":173551.10999999999,"N_COORD97":2547924.1400000001,"ADDRESS":"中正路１４８巷２號之７五樓","OBJECTID":245692},"geometry":{"x":173551.1100000022,"y":2547924.1400000025}},{"attributes":{"ID":245697,"DIS_CODE":0,"TOWNNAME":"新營區","LI":"嘉芳里","LIN":"14鄰","STREET":"八德路","SECT":" ","MAREA":" ","LANE":" ","ALLEY":" ","HOUSE_NO":"１５號","E_COORD97":176555.39999999999,"N_COORD97":2578063.3500000001,"ADDRESS":"八德路１５號","OBJECTID":245693},"geometry":{"x":176555.4000000013,"y":2578063.3499999996}},{"attributes":{"ID":245698,"DIS_CODE":0,"TOWNNAME":"永康區","LI":"埔園里","LIN":"24鄰","STREET":"中正路","SECT":" ","MAREA":" ","LANE":"１４８巷","ALLEY":" ","HOUSE_NO":"２號之７二樓","E_COORD97":173551.10999999999,"N_COORD97":2547924.1400000001,"ADDRESS":"中正路１４８巷２號之７二樓","OBJECTID":245694},"geometry":{"x":173551.1100000022,"y":2547924.1400000025}},{"attributes":{"ID":245699,"DIS_CODE":0,"TOWNNAME":"安南區","LI":"溪心里","LIN":"11鄰","STREET":"安吉路","SECT":"一段","MAREA":" ","LANE":"９９９巷","ALLEY":" ","HOUSE_NO":"２５號","E_COORD97":166909.38,"N_COORD97":2550599.4900000002,"ADDRESS":"安吉路一段９９９巷２５號","OBJECTID":245695},"geometry":{"x":166909.38000000082,"y":2550599.4900000021}},{"attributes":{"ID":245700,"DIS_CODE":0,"TOWNNAME":"安南區","LI":"溪心里","LIN":"11鄰","STREET":"安吉路","SECT":"一段","MAREA":" ","LANE":"９９９巷","ALLEY":" ","HOUSE_NO":"１２５號","E_COORD97":166721.89000000001,"N_COORD97":2550527.04,"ADDRESS":"安吉路一段９９９巷１２５號","OBJECTID":245696},"geometry":{"x":166721.89000000153,"y":2550527.040000001}},{"attributes":{"ID":245701,"DIS_CODE":0,"TOWNNAME":"仁德區","LI":"土庫里","LIN":"11鄰","STREET":"土庫路","SECT":" ","MAREA":" ","LANE":"９９巷","ALLEY":" ","HOUSE_NO":"４號","E_COORD97":174326.35999999999,"N_COORD97":2543197,"ADDRESS":"土庫路９９巷４號","OBJECTID":245697},"geometry":{"x":174326.36000000127,"y":2543197.0000000037}},{"attributes":{"ID":245702,"DIS_CODE":0,"TOWNNAME":"仁德區","LI":"土庫里","LIN":"11鄰","STREET":"土庫路","SECT":" ","MAREA":" ","LANE":"１１１巷","ALLEY":" ","HOUSE_NO":"６號","E_COORD97":174360.75,"N_COORD97":2543183.4900000002,"ADDRESS":"土庫路１１１巷６號","OBJECTID":245698},"geometry":{"x":174360.75000000093,"y":2543183.4899999984}},{"attributes":{"ID":245703,"DIS_CODE":0,"TOWNNAME":"仁德區","LI":"二行里","LIN":"11鄰","STREET":"中正西路","SECT":" ","MAREA":" ","LANE":"２１１巷","ALLEY":" ","HOUSE_NO":"７８號","E_COORD97":170041.95999999999,"N_COORD97":2535169.4900000002,"ADDRESS":"中正西路２１１巷７８號","OBJECTID":245699},"geometry":{"x":170041.95999999996,"y":2535169.4900000021}},{"attributes":{"ID":245704,"DIS_CODE":0,"TOWNNAME":"仁德區","LI":"太子里","LIN":"11鄰","STREET":"長興二街","SECT":" ","MAREA":" ","LANE":"９２巷","ALLEY":" ","HOUSE_NO":"２６號","E_COORD97":174205.23000000001,"N_COORD97":2543778.5,"ADDRESS":"長興二街９２巷２６號","OBJECTID":245700},"geometry":{"x":174205.23000000138,"y":2543778.5}},{"attributes":{"ID":245705,"DIS_CODE":0,"TOWNNAME":"仁德區","LI":"太子里","LIN":"11鄰","STREET":"長興二街","SECT":" ","MAREA":" ","LANE":"８４巷","ALLEY":" ","HOUSE_NO":"８號","E_COORD97":174241.63,"N_COORD97":2543738.0099999998,"ADDRESS":"長興二街８４巷８號","OBJECTID":245701},"geometry":{"x":174241.62999999989,"y":2543738.0099999998}},{"attributes":{"ID":245706,"DIS_CODE":0,"TOWNNAME":"仁德區","LI":"中生里","LIN":"11鄰","STREET":" ","SECT":" ","MAREA":"中洲","LANE":" ","ALLEY":" ","HOUSE_NO":"１９３號","E_COORD97":173140.48999999999,"N_COORD97":2534071.4900000002,"ADDRESS":"中洲１９３號","OBJECTID":245702},"geometry":{"x":173140.49000000115,"y":2534071.4900000021}},{"attributes":{"ID":245707,"DIS_CODE":0,"TOWNNAME":"仁德區","LI":"保安里","LIN":"11鄰","STREET":"中正路","SECT":"一段","MAREA":" ","LANE":"２５１巷","ALLEY":" ","HOUSE_NO":"５號","E_COORD97":171771.98999999999,"N_COORD97":2536008.27,"ADDRESS":"中正路一段２５１巷５號","OBJECTID":245703},"geometry":{"x":171771.99000000115,"y":2536008.2700000014}},{"attributes":{"ID":245708,"DIS_CODE":0,"TOWNNAME":"安南區","LI":"四草里","LIN":"3鄰","STREET":"大眾六街","SECT":" ","MAREA":" ","LANE":"１４８巷","ALLEY":" ","HOUSE_NO":"７號","E_COORD97":160434.08436099999,"N_COORD97":2546718.5814999999,"ADDRESS":"大眾六街１４８巷７號","OBJECTID":245704},"geometry":{"x":160434.08436100185,"y":2546718.5815040022}},{"attributes":{"ID":245709,"DIS_CODE":0,"TOWNNAME":"仁德區","LI":"太子里","LIN":"11鄰","STREET":"長興二街","SECT":" ","MAREA":" ","LANE":"９２巷","ALLEY":" ","HOUSE_NO":"１２號","E_COORD97":174208.64999999999,"N_COORD97":2543737.7599999998,"ADDRESS":"長興二街９２巷１２號","OBJECTID":245705},"geometry":{"x":174208.65000000224,"y":2543737.7600000016}},{"attributes":{"ID":245710,"DIS_CODE":0,"TOWNNAME":"安南區","LI":"溪心里","LIN":"11鄰","STREET":"功安三街","SECT":" ","MAREA":" ","LANE":" ","ALLEY":" ","HOUSE_NO":"２０號","E_COORD97":166204.70000000001,"N_COORD97":2550068.4900000002,"ADDRESS":"功安三街２０號","OBJECTID":245706},"geometry":{"x":166204.70000000019,"y":2550068.4900000002}},{"attributes":{"ID":245711,"DIS_CODE":0,"TOWNNAME":"安南區","LI":"溪心里","LIN":"11鄰","STREET":"功安三街","SECT":" ","MAREA":" ","LANE":" ","ALLEY":" ","HOUSE_NO":"２２號","E_COORD97":166202.64000000001,"N_COORD97":2550070.8799999999,"ADDRESS":"功安三街２２號","OBJECTID":245707},"geometry":{"x":166202.63999999966,"y":2550070.879999999}},{"attributes":{"ID":245712,"DIS_CODE":0,"TOWNNAME":"仁德區","LI":"一甲里","LIN":"11鄰","STREET":"忠義二街","SECT":" ","MAREA":" ","LANE":" ","ALLEY":" ","HOUSE_NO":"３號","E_COORD97":173988.09,"N_COORD97":2542076.77,"ADDRESS":"忠義二街３號","OBJECTID":245708},"geometry":{"x":173988.09000000171,"y":2542076.7700000014}},{"attributes":{"ID":245713,"DIS_CODE":0,"TOWNNAME":"仁德區","LI":"一甲里","LIN":"11鄰","STREET":"義林路","SECT":" ","MAREA":" ","LANE":" ","ALLEY":" ","HOUSE_NO":"３０６號之２","E_COORD97":174637.14999999999,"N_COORD97":2541717.79,"ADDRESS":"義林路３０６號之２","OBJECTID":245709},"geometry":{"x":174637.15000000037,"y":2541717.7899999991}},{"attributes":{"ID":245714,"DIS_CODE":0,"TOWNNAME":"仁德區","LI":"一甲里","LIN":"11鄰","STREET":"義林路","SECT":" ","MAREA":" ","LANE":" ","ALLEY":" ","HOUSE_NO":"３１６之１號","E_COORD97":174680.04000000001,"N_COORD97":2541850.0499999998,"ADDRESS":"義林路３１６之１號","OBJECTID":245710},"geometry":{"x":174680.04000000004,"y":2541850.0500000007}},{"attributes":{"ID":245715,"DIS_CODE":0,"TOWNNAME":"仁德區","LI":"一甲里","LIN":"11鄰","STREET":"忠義一街","SECT":" ","MAREA":" ","LANE":" ","ALLEY":" ","HOUSE_NO":"６５號","E_COORD97":173869.69,"N_COORD97":2541933.0099999998,"ADDRESS":"忠義一街６５號","OBJECTID":245711},"geometry":{"x":173869.69000000134,"y":2541933.0100000016}},{"attributes":{"ID":245716,"DIS_CODE":0,"TOWNNAME":"仁德區","LI":"一甲里","LIN":"11鄰","STREET":"忠義一街","SECT":" ","MAREA":" ","LANE":" ","ALLEY":" ","HOUSE_NO":"４８號","E_COORD97":173905.39999999999,"N_COORD97":2542062.77,"ADDRESS":"忠義一街４８號","OBJECTID":245712},"geometry":{"x":173905.4000000013,"y":2542062.7700000014}},{"attributes":{"ID":245717,"DIS_CODE":0,"TOWNNAME":"仁德區","LI":"一甲里","LIN":"11鄰","STREET":"忠義一街","SECT":" ","MAREA":" ","LANE":" ","ALLEY":" ","HOUSE_NO":"５９號","E_COORD97":173876.19,"N_COORD97":2541981.27,"ADDRESS":"忠義一街５９號","OBJECTID":245713},"geometry":{"x":173876.19000000227,"y":2541981.2700000014}},{"attributes":{"ID":245718,"DIS_CODE":0,"TOWNNAME":"仁德區","LI":"仁義里","LIN":"11鄰","STREET":"中山路","SECT":" ","MAREA":" ","LANE":" ","ALLEY":" ","HOUSE_NO":"６１５號","E_COORD97":173305.37,"N_COORD97":2541317.9900000002,"ADDRESS":"中山路６１５號","OBJECTID":245714},"geometry":{"x":173305.37000000104,"y":2541317.9900000002}},{"attributes":{"ID":245719,"DIS_CODE":0,"TOWNNAME":"仁德區","LI":"仁義里","LIN":"11鄰","STREET":"中山路","SECT":" ","MAREA":" ","LANE":" ","ALLEY":" ","HOUSE_NO":"６０５號","E_COORD97":173324.32000000001,"N_COORD97":2541315.7400000002,"ADDRESS":"中山路６０５號","OBJECTID":245715},"geometry":{"x":173324.32000000123,"y":2541315.7400000002}},{"attributes":{"ID":245720,"DIS_CODE":0,"TOWNNAME":"仁德區","LI":"後壁里","LIN":"11鄰","STREET":"德善路","SECT":" ","MAREA":" ","LANE":" ","ALLEY":" ","HOUSE_NO":"２４１號","E_COORD97":173814.09,"N_COORD97":2538713.7599999998,"ADDRESS":"德善路２４１號","OBJECTID":245716},"geometry":{"x":173814.09000000078,"y":2538713.7600000016}},{"attributes":{"ID":245721,"DIS_CODE":0,"TOWNNAME":"仁德區","LI":"中洲里","LIN":"11鄰","STREET":" ","SECT":" ","MAREA":"中洲","LANE":" ","ALLEY":" ","HOUSE_NO":"３２７號之１","E_COORD97":173280.37,"N_COORD97":2534113.7999999998,"ADDRESS":"中洲３２７號之１","OBJECTID":245717},"geometry":{"x":173280.37000000104,"y":2534113.8000000026}},{"attributes":{"ID":245722,"DIS_CODE":0,"TOWNNAME":"仁德區","LI":"中洲里","LIN":"11鄰","STREET":" ","SECT":" ","MAREA":"中洲","LANE":" ","ALLEY":" ","HOUSE_NO":"３２０號","E_COORD97":173292.67999999999,"N_COORD97":2534085.25,"ADDRESS":"中洲３２０號","OBJECTID":245718},"geometry":{"x":173292.68000000063,"y":2534085.2500000037}},{"attributes":{"ID":245723,"DIS_CODE":0,"TOWNNAME":"仁德區","LI":"太子里","LIN":"11鄰","STREET":"長興二街","SECT":" ","MAREA":" ","LANE":"９２巷","ALLEY":" ","HOUSE_NO":"１０號","E_COORD97":174208.92999999999,"N_COORD97":2543731.7599999998,"ADDRESS":"長興二街９２巷１０號","OBJECTID":245719},"geometry":{"x":174208.9299999997,"y":2543731.7600000016}},{"attributes":{"ID":245724,"DIS_CODE":0,"TOWNNAME":"仁德區","LI":"保安里","LIN":"11鄰","STREET":"文賢路","SECT":"一段","MAREA":" ","LANE":"８４７巷","ALLEY":" ","HOUSE_NO":"２６號","E_COORD97":171695.26000000001,"N_COORD97":2535999.0699999998,"ADDRESS":"文賢路一段８４７巷２６號","OBJECTID":245720},"geometry":{"x":171695.26000000071,"y":2535999.070000004}},{"attributes":{"ID":245725,"DIS_CODE":0,"TOWNNAME":"仁德區","LI":"中洲里","LIN":"11鄰","STREET":" ","SECT":" ","MAREA":"中洲","LANE":" ","ALLEY":" ","HOUSE_NO":"３２９之１號","E_COORD97":173274.34,"N_COORD97":2534149.29,"ADDRESS":"中洲３２９之１號","OBJECTID":245721},"geometry":{"x":173274.34000000171,"y":2534149.290000001}},{"attributes":{"ID":245726,"DIS_CODE":0,"TOWNNAME":"仁德區","LI":"中洲里","LIN":"11鄰","STREET":" ","SECT":" ","MAREA":"中洲","LANE":" ","ALLEY":" ","HOUSE_NO":"３３６號之７","E_COORD97":173246.67999999999,"N_COORD97":2534252.79,"ADDRESS":"中洲３３６號之７","OBJECTID":245722},"geometry":{"x":173246.68000000063,"y":2534252.7899999991}},{"attributes":{"ID":245727,"DIS_CODE":0,"TOWNNAME":"佳里區","LI":"龍安里","LIN":"11鄰","STREET":" ","SECT":" ","MAREA":"塭子內","LANE":" ","ALLEY":" ","HOUSE_NO":"１０２號之１０","E_COORD97":164597.64999999999,"N_COORD97":2558249.3399999999,"ADDRESS":"塭子內１０２號之１０","OBJECTID":245723},"geometry":{"x":164597.6500000013,"y":2558249.3400000017}},{"attributes":{"ID":245728,"DIS_CODE":0,"TOWNNAME":"仁德區","LI":"成功里","LIN":"11鄰","STREET":"成功二街","SECT":" ","MAREA":" ","LANE":"３１巷","ALLEY":" ","HOUSE_NO":"３８號","E_COORD97":171019.89000000001,"N_COORD97":2539840.25,"ADDRESS":"成功二街３１巷３８號","OBJECTID":245724},"geometry":{"x":171019.8900000006,"y":2539840.2500000019}},{"attributes":{"ID":245729,"DIS_CODE":0,"TOWNNAME":"佳里區","LI":"龍安里","LIN":"11鄰","STREET":" ","SECT":" ","MAREA":"塭子內","LANE":" ","ALLEY":" ","HOUSE_NO":"１０２號之１１","E_COORD97":164607.14999999999,"N_COORD97":2558151.2599999998,"ADDRESS":"塭子內１０２號之１１","OBJECTID":245725},"geometry":{"x":164607.1500000013,"y":2558151.2600000016}},{"attributes":{"ID":245730,"DIS_CODE":0,"TOWNNAME":"佳里區","LI":"龍安里","LIN":"11鄰","STREET":" ","SECT":" ","MAREA":"塭子內","LANE":" ","ALLEY":" ","HOUSE_NO":"１０２號之１５","E_COORD97":164618.70000000001,"N_COORD97":2558147.1499999999,"ADDRESS":"塭子內１０２號之１５","OBJECTID":245726},"geometry":{"x":164618.70000000112,"y":2558147.1500000004}},{"attributes":{"ID":245731,"DIS_CODE":0,"TOWNNAME":"仁德區","LI":"大甲里","LIN":"11鄰","STREET":"行大街","SECT":" ","MAREA":" ","LANE":"３４１巷","ALLEY":" ","HOUSE_NO":"２７號","E_COORD97":169611.56,"N_COORD97":2535103.9900000002,"ADDRESS":"行大街３４１巷２７號","OBJECTID":245727},"geometry":{"x":169611.56000000052,"y":2535103.9900000002}},{"attributes":{"ID":245732,"DIS_CODE":0,"TOWNNAME":"佳里區","LI":"龍安里","LIN":"11鄰","STREET":" ","SECT":" ","MAREA":"塭子內","LANE":" ","ALLEY":" ","HOUSE_NO":"１０２號之１６","E_COORD97":164623.07000000001,"N_COORD97":2558145.5600000001,"ADDRESS":"塭子內１０２號之１６","OBJECTID":245728},"geometry":{"x":164623.07000000123,"y":2558145.5600000042}},{"attributes":{"ID":245733,"DIS_CODE":0,"TOWNNAME":"永康區","LI":"埔園里","LIN":"24鄰","STREET":"中正路","SECT":" ","MAREA":" ","LANE":"１４８巷","ALLEY":" ","HOUSE_NO":"２號之２二樓","E_COORD97":173569.63,"N_COORD97":2547932.29,"ADDRESS":"中正路１４８巷２號之２二樓","OBJECTID":245729},"geometry":{"x":173569.63000000082,"y":2547932.2899999991}},{"attributes":{"ID":245734,"DIS_CODE":0,"TOWNNAME":"永康區","LI":"埔園里","LIN":"24鄰","STREET":"中正路","SECT":" ","MAREA":" ","LANE":"１４８巷","ALLEY":" ","HOUSE_NO":"２號之１四樓","E_COORD97":173558.62,"N_COORD97":2547937.54,"ADDRESS":"中正路１４８巷２號之１四樓","OBJECTID":245730},"geometry":{"x":173558.62000000011,"y":2547937.5399999991}},{"attributes":{"ID":245735,"DIS_CODE":0,"TOWNNAME":"東區","LI":"路東里","LIN":"14鄰","STREET":"林森路","SECT":"一段","MAREA":" ","LANE":" ","ALLEY":" ","HOUSE_NO":"１３２號十一樓之６","E_COORD97":169417.22,"N_COORD97":2542428.8700000001,"ADDRESS":"林森路一段１３２號十一樓之６","OBJECTID":245731},"geometry":{"x":169417.22000000067,"y":2542428.870000001}},{"attributes":{"ID":245736,"DIS_CODE":0,"TOWNNAME":"東區","LI":"路東里","LIN":"14鄰","STREET":"林森路","SECT":"一段","MAREA":" ","LANE":" ","ALLEY":" ","HOUSE_NO":"１３２號十一樓之７","E_COORD97":169417.22,"N_COORD97":2542428.8700000001,"ADDRESS":"林森路一段１３２號十一樓之７","OBJECTID":245732},"geometry":{"x":169417.22000000067,"y":2542428.870000001}},{"attributes":{"ID":245737,"DIS_CODE":0,"TOWNNAME":"東區","LI":"路東里","LIN":"14鄰","STREET":"林森路","SECT":"一段","MAREA":" ","LANE":" ","ALLEY":" ","HOUSE_NO":"１３２號十一樓之８","E_COORD97":169417.22,"N_COORD97":2542428.8700000001,"ADDRESS":"林森路一段１３２號十一樓之８","OBJECTID":245733},"geometry":{"x":169417.22000000067,"y":2542428.870000001}},{"attributes":{"ID":245738,"DIS_CODE":0,"TOWNNAME":"佳里區","LI":"龍安里","LIN":"11鄰","STREET":" ","SECT":" ","MAREA":"塭子內","LANE":" ","ALLEY":" ","HOUSE_NO":"１０２號之１７","E_COORD97":164627.73999999999,"N_COORD97":2558143.8300000001,"ADDRESS":"塭子內１０２號之１７","OBJECTID":245734},"geometry":{"x":164627.74000000022,"y":2558143.8300000019}},{"attributes":{"ID":245739,"DIS_CODE":0,"TOWNNAME":"佳里區","LI":"龍安里","LIN":"11鄰","STREET":" ","SECT":" ","MAREA":"塭子內","LANE":" ","ALLEY":" ","HOUSE_NO":"１０２號之１８","E_COORD97":164632.26999999999,"N_COORD97":2558142.4900000002,"ADDRESS":"塭子內１０２號之１８","OBJECTID":245735},"geometry":{"x":164632.26999999955,"y":2558142.4900000021}},{"attributes":{"ID":245740,"DIS_CODE":0,"TOWNNAME":"佳里區","LI":"龍安里","LIN":"11鄰","STREET":" ","SECT":" ","MAREA":"塭子內","LANE":" ","ALLEY":" ","HOUSE_NO":"１０２號之１","E_COORD97":164587.85999999999,"N_COORD97":2558161.1699999999,"ADDRESS":"塭子內１０２號之１","OBJECTID":245736},"geometry":{"x":164587.86000000034,"y":2558161.1700000018}},{"attributes":{"ID":245741,"DIS_CODE":0,"TOWNNAME":"安南區","LI":"四草里","LIN":"1鄰","STREET":"大眾六街","SECT":" ","MAREA":" ","LANE":"１４８巷","ALLEY":" ","HOUSE_NO":"２５號","E_COORD97":160510.964714,"N_COORD97":2546726.4131700001,"ADDRESS":"大眾六街１４８巷２５號","OBJECTID":245737},"geometry":{"x":160510.964714,"y":2546726.4131670017}},{"attributes":{"ID":245742,"DIS_CODE":0,"TOWNNAME":"佳里區","LI":"龍安里","LIN":"11鄰","STREET":" ","SECT":" ","MAREA":"塭子內","LANE":" ","ALLEY":" ","HOUSE_NO":"１０２號之４","E_COORD97":164587.06,"N_COORD97":2558214.4900000002,"ADDRESS":"塭子內１０２號之４","OBJECTID":245738},"geometry":{"x":164587.06000000052,"y":2558214.4900000021}},{"attributes":{"ID":245743,"DIS_CODE":0,"TOWNNAME":"佳里區","LI":"龍安里","LIN":"11鄰","STREET":" ","SECT":" ","MAREA":"塭子內","LANE":" ","ALLEY":" ","HOUSE_NO":"１０２號之５","E_COORD97":164594.04000000001,"N_COORD97":2558186.7599999998,"ADDRESS":"塭子內１０２號之５","OBJECTID":245739},"geometry":{"x":164594.04000000097,"y":2558186.7599999998}},{"attributes":{"ID":245744,"DIS_CODE":0,"TOWNNAME":"佳里區","LI":"龍安里","LIN":"11鄰","STREET":" ","SECT":" ","MAREA":"塭子內","LANE":" ","ALLEY":" ","HOUSE_NO":"１０２號之６","E_COORD97":164582.04000000001,"N_COORD97":2558186.6499999999,"ADDRESS":"塭子內１０２號之６","OBJECTID":245740},"geometry":{"x":164582.0400000019,"y":2558186.6500000022}},{"attributes":{"ID":245745,"DIS_CODE":0,"TOWNNAME":"佳里區","LI":"龍安里","LIN":"11鄰","STREET":" ","SECT":" ","MAREA":"塭子內","LANE":" ","ALLEY":" ","HOUSE_NO":"１０２號之７","E_COORD97":164592.81,"N_COORD97":2558178.2200000002,"ADDRESS":"塭子內１０２號之７","OBJECTID":245741},"geometry":{"x":164592.80999999959,"y":2558178.2200000044}},{"attributes":{"ID":245746,"DIS_CODE":0,"TOWNNAME":"佳里區","LI":"龍安里","LIN":"11鄰","STREET":" ","SECT":" ","MAREA":"塭子內","LANE":" ","ALLEY":" ","HOUSE_NO":"１０２號之８","E_COORD97":164581.45000000001,"N_COORD97":2558180.2200000002,"ADDRESS":"塭子內１０２號之８","OBJECTID":245742},"geometry":{"x":164581.45000000112,"y":2558180.2200000007}},{"attributes":{"ID":245747,"DIS_CODE":0,"TOWNNAME":"佳里區","LI":"龍安里","LIN":"11鄰","STREET":" ","SECT":" ","MAREA":"塭子內","LANE":" ","ALLEY":" ","HOUSE_NO":"１０２號之９","E_COORD97":164594.45999999999,"N_COORD97":2558156.0899999999,"ADDRESS":"塭子內１０２號之９","OBJECTID":245743},"geometry":{"x":164594.46000000089,"y":2558156.0900000017}},{"attributes":{"ID":245748,"DIS_CODE":0,"TOWNNAME":"佳里區","LI":"龍安里","LIN":"11鄰","STREET":" ","SECT":" ","MAREA":"塭子內","LANE":" ","ALLEY":" ","HOUSE_NO":"１０２號","E_COORD97":164620.60999999999,"N_COORD97":2558232.9199999999,"ADDRESS":"塭子內１０２號","OBJECTID":245744},"geometry":{"x":164620.61000000034,"y":2558232.9199999999}},{"attributes":{"ID":245749,"DIS_CODE":0,"TOWNNAME":"佳里區","LI":"龍安里","LIN":"11鄰","STREET":" ","SECT":" ","MAREA":"塭子內","LANE":" ","ALLEY":" ","HOUSE_NO":"１０３號","E_COORD97":164643.72,"N_COORD97":2558197.29,"ADDRESS":"塭子內１０３號","OBJECTID":245745},"geometry":{"x":164643.72000000067,"y":2558197.290000001}},{"attributes":{"ID":245750,"DIS_CODE":0,"TOWNNAME":"佳里區","LI":"龍安里","LIN":"11鄰","STREET":" ","SECT":" ","MAREA":"塭子內","LANE":" ","ALLEY":" ","HOUSE_NO":"１０４號之１","E_COORD97":164584.57999999999,"N_COORD97":2558135.0600000001,"ADDRESS":"塭子內１０４號之１","OBJECTID":245746},"geometry":{"x":164584.58000000007,"y":2558135.0600000042}},{"attributes":{"ID":245751,"DIS_CODE":0,"TOWNNAME":"佳里區","LI":"龍安里","LIN":"11鄰","STREET":" ","SECT":" ","MAREA":"塭子內","LANE":" ","ALLEY":" ","HOUSE_NO":"１０４號之２","E_COORD97":164611.95999999999,"N_COORD97":2558078.4500000002,"ADDRESS":"塭子內１０４號之２","OBJECTID":245747},"geometry":{"x":164611.96000000089,"y":2558078.4500000011}},{"attributes":{"ID":245752,"DIS_CODE":0,"TOWNNAME":"永康區","LI":"埔園里","LIN":"24鄰","STREET":"中正路","SECT":" ","MAREA":" ","LANE":"１４８巷","ALLEY":" ","HOUSE_NO":"２號之４三樓","E_COORD97":173562.01000000001,"N_COORD97":2547921.54,"ADDRESS":"中正路１４８巷２號之４三樓","OBJECTID":245748},"geometry":{"x":173562.01000000071,"y":2547921.5399999991}},{"attributes":{"ID":245753,"DIS_CODE":0,"TOWNNAME":"永康區","LI":"埔園里","LIN":"24鄰","STREET":"中正路","SECT":" ","MAREA":" ","LANE":"１４８巷","ALLEY":" ","HOUSE_NO":"２號之２四樓","E_COORD97":173569.63,"N_COORD97":2547932.29,"ADDRESS":"中正路１４８巷２號之２四樓","OBJECTID":245749},"geometry":{"x":173569.63000000082,"y":2547932.2899999991}},{"attributes":{"ID":245754,"DIS_CODE":0,"TOWNNAME":"安南區","LI":"海東里","LIN":"24鄰","STREET":"同安路","SECT":" ","MAREA":" ","LANE":"２２５巷","ALLEY":" ","HOUSE_NO":"３９號六樓","E_COORD97":167103.81,"N_COORD97":2549198.6899999999,"ADDRESS":"同安路２２５巷３９號六樓","OBJECTID":245750},"geometry":{"x":167103.81000000145,"y":2549198.6899999995}},{"attributes":{"ID":245755,"DIS_CODE":0,"TOWNNAME":"安南區","LI":"海東里","LIN":"24鄰","STREET":"同安路","SECT":" ","MAREA":" ","LANE":"２２５巷","ALLEY":" ","HOUSE_NO":"３９號七樓","E_COORD97":167103.81,"N_COORD97":2549198.6899999999,"ADDRESS":"同安路２２５巷３９號七樓","OBJECTID":245751},"geometry":{"x":167103.81000000145,"y":2549198.6899999995}},{"attributes":{"ID":245756,"DIS_CODE":0,"TOWNNAME":"安南區","LI":"海東里","LIN":"24鄰","STREET":"同安路","SECT":" ","MAREA":" ","LANE":"２２５巷","ALLEY":" ","HOUSE_NO":"３９號八樓","E_COORD97":167103.81,"N_COORD97":2549198.6899999999,"ADDRESS":"同安路２２５巷３９號八樓","OBJECTID":245752},"geometry":{"x":167103.81000000145,"y":2549198.6899999995}},{"attributes":{"ID":245757,"DIS_CODE":0,"TOWNNAME":"安南區","LI":"海東里","LIN":"24鄰","STREET":"同安路","SECT":" ","MAREA":" ","LANE":"２２５巷","ALLEY":" ","HOUSE_NO":"４１號八樓","E_COORD97":167102.35000000001,"N_COORD97":2549206.1499999999,"ADDRESS":"同安路２２５巷４１號八樓","OBJECTID":245753},"geometry":{"x":167102.35000000056,"y":2549206.1500000004}},{"attributes":{"ID":245758,"DIS_CODE":0,"TOWNNAME":"佳里區","LI":"龍安里","LIN":"11鄰","STREET":" ","SECT":" ","MAREA":"塭子內","LANE":" ","ALLEY":" ","HOUSE_NO":"１０４號","E_COORD97":164601.59,"N_COORD97":2558136.8999999999,"ADDRESS":"塭子內１０４號","OBJECTID":245754},"geometry":{"x":164601.58999999985,"y":2558136.9000000022}},{"attributes":{"ID":245759,"DIS_CODE":0,"TOWNNAME":"佳里區","LI":"民安里","LIN":"11鄰","STREET":" ","SECT":" ","MAREA":"新宅","LANE":" ","ALLEY":" ","HOUSE_NO":"１０號之１","E_COORD97":167208.66,"N_COORD97":2563968.29,"ADDRESS":"新宅１０號之１","OBJECTID":245755},"geometry":{"x":167208.66000000015,"y":2563968.290000001}},{"attributes":{"ID":245760,"DIS_CODE":0,"TOWNNAME":"佳里區","LI":"民安里","LIN":"11鄰","STREET":" ","SECT":" ","MAREA":"新宅","LANE":" ","ALLEY":" ","HOUSE_NO":"１號之１５","E_COORD97":167592.62,"N_COORD97":2563878.2400000002,"ADDRESS":"新宅１號之１５","OBJECTID":245756},"geometry":{"x":167592.62000000104,"y":2563878.2400000021}},{"attributes":{"ID":245761,"DIS_CODE":0,"TOWNNAME":"佳里區","LI":"民安里","LIN":"11鄰","STREET":" ","SECT":" ","MAREA":"新宅","LANE":" ","ALLEY":" ","HOUSE_NO":"１號之２０","E_COORD97":167643.95999999999,"N_COORD97":2563870.9100000001,"ADDRESS":"新宅１號之２０","OBJECTID":245757},"geometry":{"x":167643.96000000183,"y":2563870.9100000001}},{"attributes":{"ID":245762,"DIS_CODE":0,"TOWNNAME":"佳里區","LI":"民安里","LIN":"11鄰","STREET":" ","SECT":" ","MAREA":"新宅","LANE":" ","ALLEY":" ","HOUSE_NO":"１號之２２","E_COORD97":167703.73999999999,"N_COORD97":2563708.6899999999,"ADDRESS":"新宅１號之２２","OBJECTID":245758},"geometry":{"x":167703.74000000115,"y":2563708.6899999995}},{"attributes":{"ID":245763,"DIS_CODE":0,"TOWNNAME":"佳里區","LI":"民安里","LIN":"11鄰","STREET":" ","SECT":" ","MAREA":"新宅","LANE":" ","ALLEY":" ","HOUSE_NO":"１號之２３","E_COORD97":167681.14000000001,"N_COORD97":2563505.8100000001,"ADDRESS":"新宅１號之２３","OBJECTID":245759},"geometry":{"x":167681.13999999966,"y":2563505.8100000005}},{"attributes":{"ID":245764,"DIS_CODE":0,"TOWNNAME":"佳里區","LI":"民安里","LIN":"11鄰","STREET":" ","SECT":" ","MAREA":"新宅","LANE":" ","ALLEY":" ","HOUSE_NO":"１號之２６","E_COORD97":167576.85000000001,"N_COORD97":2563375.3199999998,"ADDRESS":"新宅１號之２６","OBJECTID":245760},"geometry":{"x":167576.85000000056,"y":2563375.3200000022}},{"attributes":{"ID":245765,"DIS_CODE":0,"TOWNNAME":"佳里區","LI":"民安里","LIN":"11鄰","STREET":" ","SECT":" ","MAREA":"新宅","LANE":" ","ALLEY":" ","HOUSE_NO":"１號","E_COORD97":166821.73000000001,"N_COORD97":2564022.6400000001,"ADDRESS":"新宅１號","OBJECTID":245761},"geometry":{"x":166821.73000000045,"y":2564022.6400000006}},{"attributes":{"ID":245766,"DIS_CODE":0,"TOWNNAME":"佳里區","LI":"民安里","LIN":"11鄰","STREET":" ","SECT":" ","MAREA":"新宅","LANE":" ","ALLEY":" ","HOUSE_NO":"２號之１","E_COORD97":167222.98999999999,"N_COORD97":2563938.6699999999,"ADDRESS":"新宅２號之１","OBJECTID":245762},"geometry":{"x":167222.99000000022,"y":2563938.6700000018}},{"attributes":{"ID":245767,"DIS_CODE":0,"TOWNNAME":"佳里區","LI":"民安里","LIN":"11鄰","STREET":" ","SECT":" ","MAREA":"新宅","LANE":" ","ALLEY":" ","HOUSE_NO":"２號","E_COORD97":167227.28,"N_COORD97":2563899.3500000001,"ADDRESS":"新宅２號","OBJECTID":245763},"geometry":{"x":167227.28000000119,"y":2563899.3500000034}},{"attributes":{"ID":245768,"DIS_CODE":0,"TOWNNAME":"佳里區","LI":"民安里","LIN":"11鄰","STREET":" ","SECT":" ","MAREA":"新宅","LANE":" ","ALLEY":" ","HOUSE_NO":"８號","E_COORD97":167192.01000000001,"N_COORD97":2563939.7599999998,"ADDRESS":"新宅８號","OBJECTID":245764},"geometry":{"x":167192.00999999978,"y":2563939.7599999998}},{"attributes":{"ID":245769,"DIS_CODE":0,"TOWNNAME":"佳里區","LI":"民安里","LIN":"11鄰","STREET":" ","SECT":" ","MAREA":"新宅","LANE":" ","ALLEY":" ","HOUSE_NO":"３號","E_COORD97":167190.23000000001,"N_COORD97":2563924.77,"ADDRESS":"新宅３號","OBJECTID":245765},"geometry":{"x":167190.23000000138,"y":2563924.7700000014}},{"attributes":{"ID":245770,"DIS_CODE":0,"TOWNNAME":"佳里區","LI":"安西里","LIN":"11鄰","STREET":"義民街","SECT":" ","MAREA":" ","LANE":"２９３巷","ALLEY":" ","HOUSE_NO":"１２號","E_COORD97":165344.20999999999,"N_COORD97":2562328.7200000002,"ADDRESS":"義民街２９３巷１２號","OBJECTID":245766},"geometry":{"x":165344.21000000089,"y":2562328.7200000025}},{"attributes":{"ID":245771,"DIS_CODE":0,"TOWNNAME":"永康區","LI":"成功里","LIN":"11鄰","STREET":"忠孝路","SECT":" ","MAREA":" ","LANE":"１９９巷","ALLEY":" ","HOUSE_NO":"２８號","E_COORD97":172021.60000000001,"N_COORD97":2544872,"ADDRESS":"忠孝路１９９巷２８號","OBJECTID":245767},"geometry":{"x":172021.60000000056,"y":2544872.0000000037}},{"attributes":{"ID":245772,"DIS_CODE":0,"TOWNNAME":"安南區","LI":"海東里","LIN":"24鄰","STREET":"同安路","SECT":" ","MAREA":" ","LANE":"２２５巷","ALLEY":" ","HOUSE_NO":"４１號九樓","E_COORD97":167102.35000000001,"N_COORD97":2549206.1499999999,"ADDRESS":"同安路２２５巷４１號九樓","OBJECTID":245768},"geometry":{"x":167102.35000000056,"y":2549206.1500000004}},{"attributes":{"ID":245773,"DIS_CODE":0,"TOWNNAME":"安南區","LI":"海東里","LIN":"24鄰","STREET":"同安路","SECT":" ","MAREA":" ","LANE":"２２５巷","ALLEY":" ","HOUSE_NO":"４３號二樓","E_COORD97":167097.17999999999,"N_COORD97":2549212.3300000001,"ADDRESS":"同安路２２５巷４３號二樓","OBJECTID":245769},"geometry":{"x":167097.18000000063,"y":2549212.3300000001}},{"attributes":{"ID":245774,"DIS_CODE":0,"TOWNNAME":"安南區","LI":"海東里","LIN":"24鄰","STREET":"同安路","SECT":" ","MAREA":" ","LANE":"２２５巷","ALLEY":" ","HOUSE_NO":"４３號三樓","E_COORD97":167097.17999999999,"N_COORD97":2549212.3300000001,"ADDRESS":"同安路２２５巷４３號三樓","OBJECTID":245770},"geometry":{"x":167097.18000000063,"y":2549212.3300000001}},{"attributes":{"ID":245775,"DIS_CODE":0,"TOWNNAME":"安南區","LI":"海東里","LIN":"24鄰","STREET":"同安路","SECT":" ","MAREA":" ","LANE":"２２５巷","ALLEY":" ","HOUSE_NO":"４３號四樓","E_COORD97":167097.17999999999,"N_COORD97":2549212.3300000001,"ADDRESS":"同安路２２５巷４３號四樓","OBJECTID":245771},"geometry":{"x":167097.18000000063,"y":2549212.3300000001}},{"attributes":{"ID":245776,"DIS_CODE":0,"TOWNNAME":"東區","LI":"路東里","LIN":"14鄰","STREET":"林森路","SECT":"一段","MAREA":" ","LANE":" ","ALLEY":" ","HOUSE_NO":"１３２號十一樓之９","E_COORD97":169417.22,"N_COORD97":2542428.8700000001,"ADDRESS":"林森路一段１３２號十一樓之９","OBJECTID":245772},"geometry":{"x":169417.22000000067,"y":2542428.870000001}},{"attributes":{"ID":245777,"DIS_CODE":0,"TOWNNAME":"佳里區","LI":"民安里","LIN":"11鄰","STREET":" ","SECT":" ","MAREA":"新宅","LANE":" ","ALLEY":" ","HOUSE_NO":"４號之１","E_COORD97":167165.45000000001,"N_COORD97":2563858.5499999998,"ADDRESS":"新宅４號之１","OBJECTID":245773},"geometry":{"x":167165.45000000019,"y":2563858.5500000045}},{"attributes":{"ID":245778,"DIS_CODE":0,"TOWNNAME":"佳里區","LI":"民安里","LIN":"11鄰","STREET":" ","SECT":" ","MAREA":"新宅","LANE":" ","ALLEY":" ","HOUSE_NO":"４號","E_COORD97":167201.14000000001,"N_COORD97":2563887.25,"ADDRESS":"新宅４號","OBJECTID":245774},"geometry":{"x":167201.13999999966,"y":2563887.2500000019}},{"attributes":{"ID":245779,"DIS_CODE":0,"TOWNNAME":"佳里區","LI":"民安里","LIN":"11鄰","STREET":" ","SECT":" ","MAREA":"新宅","LANE":" ","ALLEY":" ","HOUSE_NO":"５號","E_COORD97":167191.19,"N_COORD97":2563909.3100000001,"ADDRESS":"新宅５號","OBJECTID":245775},"geometry":{"x":167191.19000000041,"y":2563909.3100000005}},{"attributes":{"ID":245780,"DIS_CODE":0,"TOWNNAME":"新營區","LI":"嘉芳里","LIN":"14鄰","STREET":"新芳街","SECT":" ","MAREA":" ","LANE":" ","ALLEY":" ","HOUSE_NO":"１號","E_COORD97":176582.14999999999,"N_COORD97":2578553.8199999998,"ADDRESS":"新芳街１號","OBJECTID":245776},"geometry":{"x":176582.1500000013,"y":2578553.8200000022}},{"attributes":{"ID":245781,"DIS_CODE":0,"TOWNNAME":"永康區","LI":"成功里","LIN":"11鄰","STREET":"忠孝路","SECT":" ","MAREA":" ","LANE":"１９９巷","ALLEY":" ","HOUSE_NO":"２４號","E_COORD97":172029.06,"N_COORD97":2544872.75,"ADDRESS":"忠孝路１９９巷２４號","OBJECTID":245777},"geometry":{"x":172029.06000000052,"y":2544872.75}},{"attributes":{"ID":245782,"DIS_CODE":0,"TOWNNAME":"永康區","LI":"大橋里","LIN":"11鄰","STREET":"大橋三街","SECT":" ","MAREA":" ","LANE":"２６６巷","ALLEY":" ","HOUSE_NO":"１２１號","E_COORD97":170903.76000000001,"N_COORD97":2546720,"ADDRESS":"大橋三街２６６巷１２１號","OBJECTID":245778},"geometry":{"x":170903.76000000071,"y":2546720.0000000019}},{"attributes":{"ID":245783,"DIS_CODE":0,"TOWNNAME":"永康區","LI":"復華里","LIN":"11鄰","STREET":"國華街","SECT":" ","MAREA":" ","LANE":"１０２巷","ALLEY":" ","HOUSE_NO":"４０號","E_COORD97":172898.48999999999,"N_COORD97":2546080.7999999998,"ADDRESS":"國華街１０２巷４０號","OBJECTID":245779},"geometry":{"x":172898.49000000022,"y":2546080.7999999989}},{"attributes":{"ID":245784,"DIS_CODE":0,"TOWNNAME":"永康區","LI":"復國里","LIN":"11鄰","STREET":"復國一路","SECT":" ","MAREA":" ","LANE":"２７６巷","ALLEY":" ","HOUSE_NO":"４７號","E_COORD97":172819.97,"N_COORD97":2545443.8399999999,"ADDRESS":"復國一路２７６巷４７號","OBJECTID":245780},"geometry":{"x":172819.96999999974,"y":2545443.8400000017}},{"attributes":{"ID":245785,"DIS_CODE":0,"TOWNNAME":"永康區","LI":"勝利里","LIN":"11鄰","STREET":"勝利街","SECT":" ","MAREA":" ","LANE":"７３巷","ALLEY":" ","HOUSE_NO":"１８號","E_COORD97":171283.45999999999,"N_COORD97":2544732.5,"ADDRESS":"勝利街７３巷１８號","OBJECTID":245781},"geometry":{"x":171283.46000000183,"y":2544732.5}},{"attributes":{"ID":245786,"DIS_CODE":0,"TOWNNAME":"永康區","LI":"埔園里","LIN":"11鄰","STREET":"中山路","SECT":" ","MAREA":" ","LANE":"１５５巷","ALLEY":" ","HOUSE_NO":"１４號","E_COORD97":173653.70999999999,"N_COORD97":2547930.7400000002,"ADDRESS":"中山路１５５巷１４號","OBJECTID":245782},"geometry":{"x":173653.71000000089,"y":2547930.7400000002}},{"attributes":{"ID":245787,"DIS_CODE":0,"TOWNNAME":"永康區","LI":"南灣里","LIN":"11鄰","STREET":"大灣路","SECT":" ","MAREA":" ","LANE":"５２８巷","ALLEY":" ","HOUSE_NO":"１０號","E_COORD97":174637.16,"N_COORD97":2544840.1000000001,"ADDRESS":"大灣路５２８巷１０號","OBJECTID":245783},"geometry":{"x":174637.16000000201,"y":2544840.0999999978}},{"attributes":{"ID":245788,"DIS_CODE":0,"TOWNNAME":"安南區","LI":"海東里","LIN":"24鄰","STREET":"同安路","SECT":" ","MAREA":" ","LANE":"２２５巷","ALLEY":" ","HOUSE_NO":"４３號五樓","E_COORD97":167097.17999999999,"N_COORD97":2549212.3300000001,"ADDRESS":"同安路２２５巷４３號五樓","OBJECTID":245784},"geometry":{"x":167097.18000000063,"y":2549212.3300000001}},{"attributes":{"ID":245789,"DIS_CODE":0,"TOWNNAME":"安南區","LI":"海東里","LIN":"24鄰","STREET":"同安路","SECT":" ","MAREA":" ","LANE":"２２５巷","ALLEY":" ","HOUSE_NO":"４３號六樓","E_COORD97":167097.17999999999,"N_COORD97":2549212.3300000001,"ADDRESS":"同安路２２５巷４３號六樓","OBJECTID":245785},"geometry":{"x":167097.18000000063,"y":2549212.3300000001}},{"attributes":{"ID":245790,"DIS_CODE":0,"TOWNNAME":"安南區","LI":"海東里","LIN":"24鄰","STREET":"同安路","SECT":" ","MAREA":" ","LANE":"２２５巷","ALLEY":" ","HOUSE_NO":"４３號七樓","E_COORD97":167097.17999999999,"N_COORD97":2549212.3300000001,"ADDRESS":"同安路２２５巷４３號七樓","OBJECTID":245786},"geometry":{"x":167097.18000000063,"y":2549212.3300000001}},{"attributes":{"ID":245791,"DIS_CODE":0,"TOWNNAME":"安南區","LI":"海東里","LIN":"24鄰","STREET":"同安路","SECT":" ","MAREA":" ","LANE":"２２５巷","ALLEY":" ","HOUSE_NO":"４３號八樓","E_COORD97":167097.17999999999,"N_COORD97":2549212.3300000001,"ADDRESS":"同安路２２５巷４３號八樓","OBJECTID":245787},"geometry":{"x":167097.18000000063,"y":2549212.3300000001}},{"attributes":{"ID":245792,"DIS_CODE":0,"TOWNNAME":"安南區","LI":"海東里","LIN":"24鄰","STREET":"同安路","SECT":" ","MAREA":" ","LANE":"２２５巷","ALLEY":" ","HOUSE_NO":"４５號二樓","E_COORD97":167091.97,"N_COORD97":2549221.1099999999,"ADDRESS":"同安路２２５巷４５號二樓","OBJECTID":245788},"geometry":{"x":167091.96999999974,"y":2549221.1100000013}},{"attributes":{"ID":245793,"DIS_CODE":0,"TOWNNAME":"安南區","LI":"海東里","LIN":"24鄰","STREET":"同安路","SECT":" ","MAREA":" ","LANE":"２２５巷","ALLEY":" ","HOUSE_NO":"４５號三樓","E_COORD97":167091.97,"N_COORD97":2549221.1099999999,"ADDRESS":"同安路２２５巷４５號三樓","OBJECTID":245789},"geometry":{"x":167091.96999999974,"y":2549221.1100000013}},{"attributes":{"ID":245794,"DIS_CODE":0,"TOWNNAME":"安南區","LI":"海東里","LIN":"24鄰","STREET":"同安路","SECT":" ","MAREA":" ","LANE":"２２５巷","ALLEY":" ","HOUSE_NO":"４５號四樓","E_COORD97":167091.97,"N_COORD97":2549221.1099999999,"ADDRESS":"同安路２２５巷４５號四樓","OBJECTID":245790},"geometry":{"x":167091.96999999974,"y":2549221.1100000013}},{"attributes":{"ID":245795,"DIS_CODE":0,"TOWNNAME":"安南區","LI":"海東里","LIN":"24鄰","STREET":"同安路","SECT":" ","MAREA":" ","LANE":"２２５巷","ALLEY":" ","HOUSE_NO":"４５號五樓","E_COORD97":167091.97,"N_COORD97":2549221.1099999999,"ADDRESS":"同安路２２５巷４５號五樓","OBJECTID":245791},"geometry":{"x":167091.96999999974,"y":2549221.1100000013}},{"attributes":{"ID":245796,"DIS_CODE":0,"TOWNNAME":"安南區","LI":"海東里","LIN":"24鄰","STREET":"同安路","SECT":" ","MAREA":" ","LANE":"２２５巷","ALLEY":" ","HOUSE_NO":"４５號六樓","E_COORD97":167091.97,"N_COORD97":2549221.1099999999,"ADDRESS":"同安路２２５巷４５號六樓","OBJECTID":245792},"geometry":{"x":167091.96999999974,"y":2549221.1100000013}},{"attributes":{"ID":245797,"DIS_CODE":0,"TOWNNAME":"東區","LI":"路東里","LIN":"14鄰","STREET":"林森路","SECT":"一段","MAREA":" ","LANE":" ","ALLEY":" ","HOUSE_NO":"１３２號十二樓之１０","E_COORD97":169417.22,"N_COORD97":2542428.8700000001,"ADDRESS":"林森路一段１３２號十二樓之１０","OBJECTID":245793},"geometry":{"x":169417.22000000067,"y":2542428.870000001}},{"attributes":{"ID":245798,"DIS_CODE":0,"TOWNNAME":"東區","LI":"路東里","LIN":"14鄰","STREET":"林森路","SECT":"一段","MAREA":" ","LANE":" ","ALLEY":" ","HOUSE_NO":"１３２號十二樓之５","E_COORD97":169417.22,"N_COORD97":2542428.8700000001,"ADDRESS":"林森路一段１３２號十二樓之５","OBJECTID":245794},"geometry":{"x":169417.22000000067,"y":2542428.870000001}},{"attributes":{"ID":245799,"DIS_CODE":0,"TOWNNAME":"東區","LI":"路東里","LIN":"14鄰","STREET":"林森路","SECT":"一段","MAREA":" ","LANE":" ","ALLEY":" ","HOUSE_NO":"１３２號十二樓之６","E_COORD97":169417.22,"N_COORD97":2542428.8700000001,"ADDRESS":"林森路一段１３２號十二樓之６","OBJECTID":245795},"geometry":{"x":169417.22000000067,"y":2542428.870000001}},{"attributes":{"ID":245800,"DIS_CODE":0,"TOWNNAME":"東區","LI":"路東里","LIN":"14鄰","STREET":"林森路","SECT":"一段","MAREA":" ","LANE":" ","ALLEY":" ","HOUSE_NO":"１３２號十二樓之７","E_COORD97":169417.22,"N_COORD97":2542428.8700000001,"ADDRESS":"林森路一段１３２號十二樓之７","OBJECTID":245796},"geometry":{"x":169417.22000000067,"y":2542428.870000001}},{"attributes":{"ID":245801,"DIS_CODE":0,"TOWNNAME":"東區","LI":"路東里","LIN":"14鄰","STREET":"林森路","SECT":"一段","MAREA":" ","LANE":" ","ALLEY":" ","HOUSE_NO":"１３２號十二樓之８","E_COORD97":169417.22,"N_COORD97":2542428.8700000001,"ADDRESS":"林森路一段１３２號十二樓之８","OBJECTID":245797},"geometry":{"x":169417.22000000067,"y":2542428.870000001}},{"attributes":{"ID":245802,"DIS_CODE":0,"TOWNNAME":"東區","LI":"路東里","LIN":"14鄰","STREET":"林森路","SECT":"一段","MAREA":" ","LANE":" ","ALLEY":" ","HOUSE_NO":"１３２號十二樓之９","E_COORD97":169417.22,"N_COORD97":2542428.8700000001,"ADDRESS":"林森路一段１３２號十二樓之９","OBJECTID":245798},"geometry":{"x":169417.22000000067,"y":2542428.870000001}},{"attributes":{"ID":245803,"DIS_CODE":0,"TOWNNAME":"永康區","LI":"五王里","LIN":"11鄰","STREET":"中山東路","SECT":" ","MAREA":" ","LANE":"２１８巷","ALLEY":" ","HOUSE_NO":"５號","E_COORD97":171754.51999999999,"N_COORD97":2545733.7400000002,"ADDRESS":"中山東路２１８巷５號","OBJECTID":245799},"geometry":{"x":171754.52000000048,"y":2545733.7400000002}},{"attributes":{"ID":245804,"DIS_CODE":0,"TOWNNAME":"永康區","LI":"中興里","LIN":"11鄰","STREET":"中興街","SECT":" ","MAREA":" ","LANE":"３５巷","ALLEY":" ","HOUSE_NO":"５１號","E_COORD97":171962.28,"N_COORD97":2545160.5099999998,"ADDRESS":"中興街３５巷５１號","OBJECTID":245800},"geometry":{"x":171962.28000000119,"y":2545160.5100000016}}]}