{"displayFieldName":"TOWNNAME","fieldAliases":{"ID":"ID","DIS_CODE":"DIS_CODE","TOWNNAME":"TOWNNAME","LI":"LI","LIN":"LIN","STREET":"STREET","SECT":"SECT","MAREA":"MAREA","LANE":"LANE","ALLEY":"ALLEY","HOUSE_NO":"HOUSE_NO","E_COORD97":"E_COORD97","N_COORD97":"N_COORD97","ADDRESS":"ADDRESS","OBJECTID":"OBJECTID"},"geometryType":"esriGeometryPoint","spatialReference":{"wkid":102443,"latestWkid":3826},"fields":[{"name":"ID","type":"esriFieldTypeDouble","alias":"ID"},{"name":"DIS_CODE","type":"esriFieldTypeInteger","alias":"DIS_CODE"},{"name":"TOWNNAME","type":"esriFieldTypeString","alias":"TOWNNAME","length":8},{"name":"LI","type":"esriFieldTypeString","alias":"LI","length":8},{"name":"LIN","type":"esriFieldTypeString","alias":"LIN","length":12},{"name":"STREET","type":"esriFieldTypeString","alias":"STREET","length":20},{"name":"SECT","type":"esriFieldTypeString","alias":"SECT","length":8},{"name":"MAREA","type":"esriFieldTypeString","alias":"MAREA","length":12},{"name":"LANE","type":"esriFieldTypeString","alias":"LANE","length":10},{"name":"ALLEY","type":"esriFieldTypeString","alias":"ALLEY","length":10},{"name":"HOUSE_NO","type":"esriFieldTypeString","alias":"HOUSE_NO","length":20},{"name":"E_COORD97","type":"esriFieldTypeDouble","alias":"E_COORD97"},{"name":"N_COORD97","type":"esriFieldTypeDouble","alias":"N_COORD97"},{"name":"ADDRESS","type":"esriFieldTypeString","alias":"ADDRESS","length":50},{"name":"OBJECTID","type":"esriFieldTypeOID","alias":"OBJECTID"}],"features":[{"attributes":{"ID":76601,"DIS_CODE":0,"TOWNNAME":"佳里區","LI":"營頂里","LIN":"6鄰","STREET":" ","SECT":" ","MAREA":"營頂","LANE":" ","ALLEY":" ","HOUSE_NO":"６９號","E_COORD97":166985.92999999999,"N_COORD97":2566636.6299999999,"ADDRESS":"營頂６９號","OBJECTID":76601},"geometry":{"x":166985.9299999997,"y":2566636.6300000008}},{"attributes":{"ID":76602,"DIS_CODE":0,"TOWNNAME":"新化區","LI":"唪口里","LIN":"6鄰","STREET":" ","SECT":" ","MAREA":"唪口","LANE":" ","ALLEY":" ","HOUSE_NO":"６６號之２","E_COORD97":178087.85000000001,"N_COORD97":2548993.2599999998,"ADDRESS":"唪口６６號之２","OBJECTID":76602},"geometry":{"x":178087.84999999963,"y":2548993.2600000016}},{"attributes":{"ID":76603,"DIS_CODE":0,"TOWNNAME":"新化區","LI":"崙頂里","LIN":"6鄰","STREET":" ","SECT":" ","MAREA":"崙子頂","LANE":" ","ALLEY":" ","HOUSE_NO":"３０７號之１","E_COORD97":176809.95999999999,"N_COORD97":2546991.2599999998,"ADDRESS":"崙子頂３０７號之１","OBJECTID":76603},"geometry":{"x":176809.96000000183,"y":2546991.2599999998}},{"attributes":{"ID":76604,"DIS_CODE":0,"TOWNNAME":"新化區","LI":"豐榮里","LIN":"6鄰","STREET":" ","SECT":" ","MAREA":"洋子","LANE":" ","ALLEY":" ","HOUSE_NO":"１１２號","E_COORD97":177919.78,"N_COORD97":2548202.25,"ADDRESS":"洋子１１２號","OBJECTID":76604},"geometry":{"x":177919.78000000026,"y":2548202.25}},{"attributes":{"ID":76605,"DIS_CODE":0,"TOWNNAME":"新化區","LI":"豐榮里","LIN":"6鄰","STREET":" ","SECT":" ","MAREA":"洋子","LANE":" ","ALLEY":" ","HOUSE_NO":"１４１號之２","E_COORD97":177855.63,"N_COORD97":2548127.2599999998,"ADDRESS":"洋子１４１號之２","OBJECTID":76605},"geometry":{"x":177855.62999999989,"y":2548127.2599999998}},{"attributes":{"ID":76606,"DIS_CODE":0,"TOWNNAME":"西港區","LI":"南海里","LIN":"6鄰","STREET":" ","SECT":" ","MAREA":"南海埔","LANE":" ","ALLEY":" ","HOUSE_NO":"４６號之１８","E_COORD97":167612.42000000001,"N_COORD97":2557558.1000000001,"ADDRESS":"南海埔４６號之１８","OBJECTID":76606},"geometry":{"x":167612.42000000086,"y":2557558.1000000015}},{"attributes":{"ID":76607,"DIS_CODE":0,"TOWNNAME":"西港區","LI":"南海里","LIN":"6鄰","STREET":" ","SECT":" ","MAREA":"南海埔","LANE":" ","ALLEY":" ","HOUSE_NO":"４６號之１９","E_COORD97":167616.64000000001,"N_COORD97":2557557.9399999999,"ADDRESS":"南海埔４６號之１９","OBJECTID":76607},"geometry":{"x":167616.63999999966,"y":2557557.9399999995}},{"attributes":{"ID":76608,"DIS_CODE":0,"TOWNNAME":"西港區","LI":"南海里","LIN":"6鄰","STREET":" ","SECT":" ","MAREA":"南海埔","LANE":" ","ALLEY":" ","HOUSE_NO":"４６號之２","E_COORD97":167648.20999999999,"N_COORD97":2557516.3100000001,"ADDRESS":"南海埔４６號之２","OBJECTID":76608},"geometry":{"x":167648.20999999996,"y":2557516.3100000042}},{"attributes":{"ID":76609,"DIS_CODE":0,"TOWNNAME":"西港區","LI":"南海里","LIN":"6鄰","STREET":" ","SECT":" ","MAREA":"南海埔","LANE":" ","ALLEY":" ","HOUSE_NO":"４６號之３","E_COORD97":167622.91,"N_COORD97":2557558.4900000002,"ADDRESS":"南海埔４６號之３","OBJECTID":76609},"geometry":{"x":167622.91000000108,"y":2557558.4900000002}},{"attributes":{"ID":76610,"DIS_CODE":0,"TOWNNAME":"西港區","LI":"南海里","LIN":"6鄰","STREET":" ","SECT":" ","MAREA":"南海埔","LANE":" ","ALLEY":" ","HOUSE_NO":"４６號之４","E_COORD97":167627.75,"N_COORD97":2557558.8999999999,"ADDRESS":"南海埔４６號之４","OBJECTID":76610},"geometry":{"x":167627.75,"y":2557558.9000000004}},{"attributes":{"ID":76611,"DIS_CODE":0,"TOWNNAME":"西港區","LI":"南海里","LIN":"6鄰","STREET":" ","SECT":" ","MAREA":"南海埔","LANE":" ","ALLEY":" ","HOUSE_NO":"４６號之６","E_COORD97":167636.73000000001,"N_COORD97":2557560.02,"ADDRESS":"南海埔４６號之６","OBJECTID":76611},"geometry":{"x":167636.73000000045,"y":2557560.0199999996}},{"attributes":{"ID":76612,"DIS_CODE":0,"TOWNNAME":"東區","LI":"復興里","LIN":"19鄰","STREET":"自由路","SECT":"三段","MAREA":" ","LANE":"１５５巷","ALLEY":" ","HOUSE_NO":"１０號","E_COORD97":171763.12,"N_COORD97":2542415.6600000001,"ADDRESS":"自由路三段１５５巷１０號","OBJECTID":76612},"geometry":{"x":171763.12000000104,"y":2542415.6600000001}},{"attributes":{"ID":76613,"DIS_CODE":0,"TOWNNAME":"東區","LI":"復興里","LIN":"19鄰","STREET":"自由路","SECT":"三段","MAREA":" ","LANE":"１５５巷","ALLEY":" ","HOUSE_NO":"８號","E_COORD97":171767.76999999999,"N_COORD97":2542415.7200000002,"ADDRESS":"自由路三段１５５巷８號","OBJECTID":76613},"geometry":{"x":171767.77000000048,"y":2542415.7200000007}},{"attributes":{"ID":76614,"DIS_CODE":0,"TOWNNAME":"東區","LI":"復興里","LIN":"19鄰","STREET":"自由路","SECT":"三段","MAREA":" ","LANE":"１５５巷","ALLEY":" ","HOUSE_NO":"６號","E_COORD97":171771.73999999999,"N_COORD97":2542415.96,"ADDRESS":"自由路三段１５５巷６號","OBJECTID":76614},"geometry":{"x":171771.73999999929,"y":2542415.9600000028}},{"attributes":{"ID":76615,"DIS_CODE":0,"TOWNNAME":"東區","LI":"復興里","LIN":"19鄰","STREET":"自由路","SECT":"三段","MAREA":" ","LANE":"１５５巷","ALLEY":"２弄","HOUSE_NO":"３號","E_COORD97":171764.44,"N_COORD97":2542438.8100000001,"ADDRESS":"自由路三段１５５巷２弄３號","OBJECTID":76615},"geometry":{"x":171764.44000000134,"y":2542438.8100000005}},{"attributes":{"ID":76616,"DIS_CODE":0,"TOWNNAME":"東區","LI":"復興里","LIN":"19鄰","STREET":"自由路","SECT":"三段","MAREA":" ","LANE":"１５５巷","ALLEY":"２弄","HOUSE_NO":"５號","E_COORD97":171764.25,"N_COORD97":2542443.5899999999,"ADDRESS":"自由路三段１５５巷２弄５號","OBJECTID":76616},"geometry":{"x":171764.25,"y":2542443.5900000036}},{"attributes":{"ID":76617,"DIS_CODE":0,"TOWNNAME":"東區","LI":"復興里","LIN":"19鄰","STREET":"自由路","SECT":"三段","MAREA":" ","LANE":"１５５巷","ALLEY":"２弄","HOUSE_NO":"７號","E_COORD97":171764.06,"N_COORD97":2542448.3100000001,"ADDRESS":"自由路三段１５５巷２弄７號","OBJECTID":76617},"geometry":{"x":171764.06000000052,"y":2542448.3100000005}},{"attributes":{"ID":76618,"DIS_CODE":0,"TOWNNAME":"安南區","LI":"梅花里","LIN":"19鄰","STREET":"安中路","SECT":"一段","MAREA":" ","LANE":"７０５巷","ALLEY":"３弄","HOUSE_NO":"４８號","E_COORD97":167364.84,"N_COORD97":2549150.25,"ADDRESS":"安中路一段７０５巷３弄４８號","OBJECTID":76618},"geometry":{"x":167364.83999999892,"y":2549150.2500000019}},{"attributes":{"ID":76619,"DIS_CODE":0,"TOWNNAME":"安南區","LI":"淵中里","LIN":"19鄰","STREET":"安中路","SECT":"四段","MAREA":" ","LANE":"１９７巷","ALLEY":"４９弄","HOUSE_NO":"４８號","E_COORD97":164836.29000000001,"N_COORD97":2549916.8199999998,"ADDRESS":"安中路四段１９７巷４９弄４８號","OBJECTID":76619},"geometry":{"x":164836.2900000019,"y":2549916.8200000003}},{"attributes":{"ID":76620,"DIS_CODE":0,"TOWNNAME":"安南區","LI":"淵中里","LIN":"19鄰","STREET":"安中路","SECT":"四段","MAREA":" ","LANE":"１９７巷","ALLEY":"４９弄","HOUSE_NO":"５０號","E_COORD97":164842.32999999999,"N_COORD97":2549914.7599999998,"ADDRESS":"安中路四段１９７巷４９弄５０號","OBJECTID":76620},"geometry":{"x":164842.33000000007,"y":2549914.7600000035}},{"attributes":{"ID":76621,"DIS_CODE":0,"TOWNNAME":"安南區","LI":"淵中里","LIN":"19鄰","STREET":"安中路","SECT":"四段","MAREA":" ","LANE":"１９７巷","ALLEY":"４９弄","HOUSE_NO":"５２號","E_COORD97":164847.25,"N_COORD97":2549913.0099999998,"ADDRESS":"安中路四段１９７巷４９弄５２號","OBJECTID":76621},"geometry":{"x":164847.25000000093,"y":2549913.0100000035}},{"attributes":{"ID":76622,"DIS_CODE":0,"TOWNNAME":"安南區","LI":"淵中里","LIN":"19鄰","STREET":"安中路","SECT":"四段","MAREA":" ","LANE":"１９７巷","ALLEY":"４９弄","HOUSE_NO":"５６號","E_COORD97":164852.79999999999,"N_COORD97":2549910.6299999999,"ADDRESS":"安中路四段１９７巷４９弄５６號","OBJECTID":76622},"geometry":{"x":164852.79999999888,"y":2549910.629999999}},{"attributes":{"ID":76623,"DIS_CODE":0,"TOWNNAME":"麻豆區","LI":"北勢里","LIN":"7鄰","STREET":"新生北路","SECT":" ","MAREA":" ","LANE":" ","ALLEY":" ","HOUSE_NO":"４３９號","E_COORD97":172798.10999999999,"N_COORD97":2565559.7400000002,"ADDRESS":"新生北路４３９號","OBJECTID":76623},"geometry":{"x":172798.11000000034,"y":2565559.7400000021}},{"attributes":{"ID":76624,"DIS_CODE":0,"TOWNNAME":"西港區","LI":"南海里","LIN":"6鄰","STREET":" ","SECT":" ","MAREA":"南海埔","LANE":" ","ALLEY":" ","HOUSE_NO":"４６號之７","E_COORD97":167641.26999999999,"N_COORD97":2557560.5699999998,"ADDRESS":"南海埔４６號之７","OBJECTID":76624},"geometry":{"x":167641.26999999955,"y":2557560.5700000003}},{"attributes":{"ID":76625,"DIS_CODE":0,"TOWNNAME":"西港區","LI":"南海里","LIN":"6鄰","STREET":" ","SECT":" ","MAREA":"南海埔","LANE":" ","ALLEY":" ","HOUSE_NO":"４６號之８","E_COORD97":167597.20999999999,"N_COORD97":2557533.46,"ADDRESS":"南海埔４６號之８","OBJECTID":76625},"geometry":{"x":167597.21000000089,"y":2557533.4600000028}},{"attributes":{"ID":76626,"DIS_CODE":0,"TOWNNAME":"西港區","LI":"南海里","LIN":"6鄰","STREET":" ","SECT":" ","MAREA":"南海埔","LANE":" ","ALLEY":" ","HOUSE_NO":"４６號之９","E_COORD97":167601.79999999999,"N_COORD97":2557533.8100000001,"ADDRESS":"南海埔４６號之９","OBJECTID":76626},"geometry":{"x":167601.79999999981,"y":2557533.8100000024}},{"attributes":{"ID":76627,"DIS_CODE":0,"TOWNNAME":"西港區","LI":"南海里","LIN":"6鄰","STREET":" ","SECT":" ","MAREA":"南海埔","LANE":" ","ALLEY":" ","HOUSE_NO":"４６號","E_COORD97":167655.17999999999,"N_COORD97":2557532.5800000001,"ADDRESS":"南海埔４６號","OBJECTID":76627},"geometry":{"x":167655.1799999997,"y":2557532.5800000019}},{"attributes":{"ID":76628,"DIS_CODE":0,"TOWNNAME":"西港區","LI":"南海里","LIN":"6鄰","STREET":" ","SECT":" ","MAREA":"南海埔","LANE":" ","ALLEY":" ","HOUSE_NO":"４７號之１０","E_COORD97":167516.89999999999,"N_COORD97":2557551.1600000001,"ADDRESS":"南海埔４７號之１０","OBJECTID":76628},"geometry":{"x":167516.90000000037,"y":2557551.1600000039}},{"attributes":{"ID":76629,"DIS_CODE":0,"TOWNNAME":"西港區","LI":"南海里","LIN":"6鄰","STREET":" ","SECT":" ","MAREA":"南海埔","LANE":" ","ALLEY":" ","HOUSE_NO":"４７號之１１","E_COORD97":167522.82000000001,"N_COORD97":2557551.54,"ADDRESS":"南海埔４７號之１１","OBJECTID":76629},"geometry":{"x":167522.8200000003,"y":2557551.540000001}},{"attributes":{"ID":76630,"DIS_CODE":0,"TOWNNAME":"西港區","LI":"南海里","LIN":"6鄰","STREET":" ","SECT":" ","MAREA":"南海埔","LANE":" ","ALLEY":" ","HOUSE_NO":"４７號之１２","E_COORD97":167529.57000000001,"N_COORD97":2557552.4300000002,"ADDRESS":"南海埔４７號之１２","OBJECTID":76630},"geometry":{"x":167529.5700000003,"y":2557552.4300000016}},{"attributes":{"ID":76631,"DIS_CODE":0,"TOWNNAME":"西港區","LI":"南海里","LIN":"6鄰","STREET":" ","SECT":" ","MAREA":"南海埔","LANE":" ","ALLEY":" ","HOUSE_NO":"４７號之１３","E_COORD97":167535.78,"N_COORD97":2557552.9300000002,"ADDRESS":"南海埔４７號之１３","OBJECTID":76631},"geometry":{"x":167535.78000000119,"y":2557552.9300000016}},{"attributes":{"ID":76632,"DIS_CODE":0,"TOWNNAME":"西港區","LI":"南海里","LIN":"6鄰","STREET":" ","SECT":" ","MAREA":"南海埔","LANE":" ","ALLEY":" ","HOUSE_NO":"４７號之１４","E_COORD97":167541.23000000001,"N_COORD97":2557553.75,"ADDRESS":"南海埔４７號之１４","OBJECTID":76632},"geometry":{"x":167541.23000000138,"y":2557553.7500000037}},{"attributes":{"ID":76633,"DIS_CODE":0,"TOWNNAME":"西港區","LI":"南海里","LIN":"6鄰","STREET":" ","SECT":" ","MAREA":"南海埔","LANE":" ","ALLEY":" ","HOUSE_NO":"４７號之１５","E_COORD97":167547.42999999999,"N_COORD97":2557554.3399999999,"ADDRESS":"南海埔４７號之１５","OBJECTID":76633},"geometry":{"x":167547.43000000063,"y":2557554.3400000017}},{"attributes":{"ID":76634,"DIS_CODE":0,"TOWNNAME":"西港區","LI":"南海里","LIN":"6鄰","STREET":" ","SECT":" ","MAREA":"南海埔","LANE":" ","ALLEY":" ","HOUSE_NO":"４７號之１６","E_COORD97":167553.94,"N_COORD97":2557554.7599999998,"ADDRESS":"南海埔４７號之１６","OBJECTID":76634},"geometry":{"x":167553.94000000041,"y":2557554.7600000016}},{"attributes":{"ID":76635,"DIS_CODE":0,"TOWNNAME":"西港區","LI":"南海里","LIN":"6鄰","STREET":" ","SECT":" ","MAREA":"南海埔","LANE":" ","ALLEY":" ","HOUSE_NO":"４７號之１７","E_COORD97":167496.34,"N_COORD97":2557576.1699999999,"ADDRESS":"南海埔４７號之１７","OBJECTID":76635},"geometry":{"x":167496.33999999985,"y":2557576.1699999999}},{"attributes":{"ID":76636,"DIS_CODE":0,"TOWNNAME":"西港區","LI":"南海里","LIN":"6鄰","STREET":" ","SECT":" ","MAREA":"南海埔","LANE":" ","ALLEY":" ","HOUSE_NO":"４７號之１８","E_COORD97":167500.92999999999,"N_COORD97":2557576.7599999998,"ADDRESS":"南海埔４７號之１８","OBJECTID":76636},"geometry":{"x":167500.9299999997,"y":2557576.7599999979}},{"attributes":{"ID":76637,"DIS_CODE":0,"TOWNNAME":"西港區","LI":"南海里","LIN":"6鄰","STREET":" ","SECT":" ","MAREA":"南海埔","LANE":" ","ALLEY":" ","HOUSE_NO":"４７號之１９","E_COORD97":167504.85999999999,"N_COORD97":2557577.1099999999,"ADDRESS":"南海埔４７號之１９","OBJECTID":76637},"geometry":{"x":167504.86000000127,"y":2557577.1099999994}},{"attributes":{"ID":76638,"DIS_CODE":0,"TOWNNAME":"西港區","LI":"南海里","LIN":"6鄰","STREET":" ","SECT":" ","MAREA":"南海埔","LANE":" ","ALLEY":" ","HOUSE_NO":"４７號之１","E_COORD97":167573.22,"N_COORD97":2557557.02,"ADDRESS":"南海埔４７號之１","OBJECTID":76638},"geometry":{"x":167573.22000000067,"y":2557557.0199999996}},{"attributes":{"ID":76639,"DIS_CODE":0,"TOWNNAME":"西港區","LI":"南海里","LIN":"6鄰","STREET":" ","SECT":" ","MAREA":"南海埔","LANE":" ","ALLEY":" ","HOUSE_NO":"４７號之２０","E_COORD97":167508.95000000001,"N_COORD97":2557577.3100000001,"ADDRESS":"南海埔４７號之２０","OBJECTID":76639},"geometry":{"x":167508.95000000112,"y":2557577.3100000042}},{"attributes":{"ID":76640,"DIS_CODE":0,"TOWNNAME":"西港區","LI":"南海里","LIN":"6鄰","STREET":" ","SECT":" ","MAREA":"南海埔","LANE":" ","ALLEY":" ","HOUSE_NO":"４７號之２１","E_COORD97":167513.51000000001,"N_COORD97":2557577.8199999998,"ADDRESS":"南海埔４７號之２１","OBJECTID":76640},"geometry":{"x":167513.51000000071,"y":2557577.8200000022}},{"attributes":{"ID":76641,"DIS_CODE":0,"TOWNNAME":"西港區","LI":"南海里","LIN":"6鄰","STREET":" ","SECT":" ","MAREA":"南海埔","LANE":" ","ALLEY":" ","HOUSE_NO":"４７號之２２","E_COORD97":167518.14999999999,"N_COORD97":2557578.2200000002,"ADDRESS":"南海埔４７號之２２","OBJECTID":76641},"geometry":{"x":167518.1500000013,"y":2557578.2200000044}},{"attributes":{"ID":76642,"DIS_CODE":0,"TOWNNAME":"西港區","LI":"南海里","LIN":"6鄰","STREET":" ","SECT":" ","MAREA":"南海埔","LANE":" ","ALLEY":" ","HOUSE_NO":"４７號之２３","E_COORD97":167522.64999999999,"N_COORD97":2557578.4199999999,"ADDRESS":"南海埔４７號之２３","OBJECTID":76642},"geometry":{"x":167522.64999999944,"y":2557578.4199999999}},{"attributes":{"ID":76643,"DIS_CODE":0,"TOWNNAME":"西港區","LI":"南海里","LIN":"6鄰","STREET":" ","SECT":" ","MAREA":"南海埔","LANE":" ","ALLEY":" ","HOUSE_NO":"４７號之２４","E_COORD97":167526.35999999999,"N_COORD97":2557578.3999999999,"ADDRESS":"南海埔４７號之２４","OBJECTID":76643},"geometry":{"x":167526.3600000022,"y":2557578.4000000004}},{"attributes":{"ID":76644,"DIS_CODE":0,"TOWNNAME":"歸仁區","LI":"沙崙里","LIN":"7鄰","STREET":" ","SECT":" ","MAREA":"沙崙","LANE":" ","ALLEY":" ","HOUSE_NO":"２６７號","E_COORD97":179616.88,"N_COORD97":2537916.25,"ADDRESS":"沙崙２６７號","OBJECTID":76644},"geometry":{"x":179616.87999999989,"y":2537916.2499999981}},{"attributes":{"ID":76645,"DIS_CODE":0,"TOWNNAME":"西港區","LI":"南海里","LIN":"6鄰","STREET":" ","SECT":" ","MAREA":"南海埔","LANE":" ","ALLEY":" ","HOUSE_NO":"４７號之２５","E_COORD97":167531.01999999999,"N_COORD97":2557578.9199999999,"ADDRESS":"南海埔４７號之２５","OBJECTID":76645},"geometry":{"x":167531.01999999955,"y":2557578.9199999999}},{"attributes":{"ID":76646,"DIS_CODE":0,"TOWNNAME":"永康區","LI":"甲頂里","LIN":"19鄰","STREET":"中正南路","SECT":" ","MAREA":" ","LANE":"５２巷","ALLEY":"４６弄","HOUSE_NO":"７８號","E_COORD97":169901.04000000001,"N_COORD97":2546565.9399999999,"ADDRESS":"中正南路５２巷４６弄７８號","OBJECTID":76646},"geometry":{"x":169901.04000000004,"y":2546565.9399999995}},{"attributes":{"ID":76647,"DIS_CODE":0,"TOWNNAME":"永康區","LI":"甲頂里","LIN":"19鄰","STREET":"中正南路","SECT":" ","MAREA":" ","LANE":"５２巷","ALLEY":"４６弄","HOUSE_NO":"８３號","E_COORD97":169869.84,"N_COORD97":2546564.9399999999,"ADDRESS":"中正南路５２巷４６弄８３號","OBJECTID":76647},"geometry":{"x":169869.83999999985,"y":2546564.9400000013}},{"attributes":{"ID":76648,"DIS_CODE":0,"TOWNNAME":"永康區","LI":"甲頂里","LIN":"19鄰","STREET":"中正南路","SECT":" ","MAREA":" ","LANE":"５２巷","ALLEY":"４６弄","HOUSE_NO":"８６號","E_COORD97":169841.04000000001,"N_COORD97":2546559.0899999999,"ADDRESS":"中正南路５２巷４６弄８６號","OBJECTID":76648},"geometry":{"x":169841.04000000097,"y":2546559.0899999999}},{"attributes":{"ID":76649,"DIS_CODE":0,"TOWNNAME":"永康區","LI":"甲頂里","LIN":"19鄰","STREET":"中正南路","SECT":" ","MAREA":" ","LANE":"５２巷","ALLEY":"４６弄","HOUSE_NO":"６７號","E_COORD97":169900.85000000001,"N_COORD97":2546580.5800000001,"ADDRESS":"中正南路５２巷４６弄６７號","OBJECTID":76649},"geometry":{"x":169900.85000000056,"y":2546580.5800000019}},{"attributes":{"ID":76650,"DIS_CODE":0,"TOWNNAME":"永康區","LI":"甲頂里","LIN":"19鄰","STREET":"中正南路","SECT":" ","MAREA":" ","LANE":"５２巷","ALLEY":"４６弄","HOUSE_NO":"７１號","E_COORD97":169914.92999999999,"N_COORD97":2546607.5800000001,"ADDRESS":"中正南路５２巷４６弄７１號","OBJECTID":76650},"geometry":{"x":169914.9299999997,"y":2546607.5800000019}},{"attributes":{"ID":76651,"DIS_CODE":0,"TOWNNAME":"永康區","LI":"甲頂里","LIN":"19鄰","STREET":"中正南路","SECT":" ","MAREA":" ","LANE":"５２巷","ALLEY":"４６弄","HOUSE_NO":"７０號","E_COORD97":169914.59,"N_COORD97":2546612.3399999999,"ADDRESS":"中正南路５２巷４６弄７０號","OBJECTID":76651},"geometry":{"x":169914.59000000171,"y":2546612.3400000017}},{"attributes":{"ID":76652,"DIS_CODE":0,"TOWNNAME":"永康區","LI":"甲頂里","LIN":"19鄰","STREET":"中正南路","SECT":" ","MAREA":" ","LANE":"５２巷","ALLEY":"４６弄","HOUSE_NO":"８４號","E_COORD97":169863.14999999999,"N_COORD97":2546564.4399999999,"ADDRESS":"中正南路５２巷４６弄８４號","OBJECTID":76652},"geometry":{"x":169863.15000000037,"y":2546564.4400000013}},{"attributes":{"ID":76653,"DIS_CODE":0,"TOWNNAME":"永康區","LI":"甲頂里","LIN":"19鄰","STREET":"中正南路","SECT":" ","MAREA":" ","LANE":"５２巷","ALLEY":"４６弄","HOUSE_NO":"７３號","E_COORD97":169914.92999999999,"N_COORD97":2546598.8300000001,"ADDRESS":"中正南路５２巷４６弄７３號","OBJECTID":76653},"geometry":{"x":169914.9299999997,"y":2546598.8300000038}},{"attributes":{"ID":76654,"DIS_CODE":0,"TOWNNAME":"仁德區","LI":"保安里","LIN":"19鄰","STREET":"文賢路","SECT":"二段","MAREA":" ","LANE":"１５巷","ALLEY":"１８弄","HOUSE_NO":"１７號五樓之１","E_COORD97":171882.29000000001,"N_COORD97":2535881.3300000001,"ADDRESS":"文賢路二段１５巷１８弄１７號五樓之１","OBJECTID":76654},"geometry":{"x":171882.29000000097,"y":2535881.3300000001}},{"attributes":{"ID":76655,"DIS_CODE":0,"TOWNNAME":"西港區","LI":"南海里","LIN":"6鄰","STREET":" ","SECT":" ","MAREA":"南海埔","LANE":" ","ALLEY":" ","HOUSE_NO":"４７號之２６","E_COORD97":167535.19,"N_COORD97":2557579.2799999998,"ADDRESS":"南海埔４７號之２６","OBJECTID":76655},"geometry":{"x":167535.19000000134,"y":2557579.2799999993}},{"attributes":{"ID":76656,"DIS_CODE":0,"TOWNNAME":"西港區","LI":"南海里","LIN":"6鄰","STREET":" ","SECT":" ","MAREA":"南海埔","LANE":" ","ALLEY":" ","HOUSE_NO":"４７號之２７","E_COORD97":167524.51999999999,"N_COORD97":2557586.52,"ADDRESS":"南海埔４７號之２７","OBJECTID":76656},"geometry":{"x":167524.52000000142,"y":2557586.5200000014}},{"attributes":{"ID":76657,"DIS_CODE":0,"TOWNNAME":"西港區","LI":"南海里","LIN":"6鄰","STREET":" ","SECT":" ","MAREA":"南海埔","LANE":" ","ALLEY":" ","HOUSE_NO":"４７號之２８","E_COORD97":167524.14000000001,"N_COORD97":2557590.1600000001,"ADDRESS":"南海埔４７號之２８","OBJECTID":76657},"geometry":{"x":167524.1400000006,"y":2557590.1600000001}},{"attributes":{"ID":76658,"DIS_CODE":0,"TOWNNAME":"西港區","LI":"南海里","LIN":"6鄰","STREET":" ","SECT":" ","MAREA":"南海埔","LANE":" ","ALLEY":" ","HOUSE_NO":"４７號之２９","E_COORD97":167523.56,"N_COORD97":2557594.77,"ADDRESS":"南海埔４７號之２９","OBJECTID":76658},"geometry":{"x":167523.55999999959,"y":2557594.7700000014}},{"attributes":{"ID":76659,"DIS_CODE":0,"TOWNNAME":"西港區","LI":"南海里","LIN":"6鄰","STREET":" ","SECT":" ","MAREA":"南海埔","LANE":" ","ALLEY":" ","HOUSE_NO":"４７號之２","E_COORD97":167541.76000000001,"N_COORD97":2557536.1299999999,"ADDRESS":"南海埔４７號之２","OBJECTID":76659},"geometry":{"x":167541.76000000164,"y":2557536.1299999971}},{"attributes":{"ID":76660,"DIS_CODE":0,"TOWNNAME":"西港區","LI":"南海里","LIN":"6鄰","STREET":" ","SECT":" ","MAREA":"南海埔","LANE":" ","ALLEY":" ","HOUSE_NO":"４７號之３０","E_COORD97":167522.85000000001,"N_COORD97":2557598.9900000002,"ADDRESS":"南海埔４７號之３０","OBJECTID":76660},"geometry":{"x":167522.85000000056,"y":2557598.9900000002}},{"attributes":{"ID":76661,"DIS_CODE":0,"TOWNNAME":"西港區","LI":"南海里","LIN":"6鄰","STREET":" ","SECT":" ","MAREA":"南海埔","LANE":" ","ALLEY":" ","HOUSE_NO":"４７號之３１","E_COORD97":167522.57999999999,"N_COORD97":2557603.3799999999,"ADDRESS":"南海埔４７號之３１","OBJECTID":76661},"geometry":{"x":167522.58000000007,"y":2557603.3800000008}},{"attributes":{"ID":76662,"DIS_CODE":0,"TOWNNAME":"西港區","LI":"南海里","LIN":"6鄰","STREET":" ","SECT":" ","MAREA":"南海埔","LANE":" ","ALLEY":" ","HOUSE_NO":"４７號之３２","E_COORD97":167521.92000000001,"N_COORD97":2557607.3999999999,"ADDRESS":"南海埔４７號之３２","OBJECTID":76662},"geometry":{"x":167521.91999999993,"y":2557607.4000000041}},{"attributes":{"ID":76663,"DIS_CODE":0,"TOWNNAME":"西港區","LI":"南海里","LIN":"6鄰","STREET":" ","SECT":" ","MAREA":"南海埔","LANE":" ","ALLEY":" ","HOUSE_NO":"４７號之３３","E_COORD97":167498.59,"N_COORD97":2557605.2599999998,"ADDRESS":"南海埔４７號之３３","OBJECTID":76663},"geometry":{"x":167498.58999999985,"y":2557605.2600000016}},{"attributes":{"ID":76664,"DIS_CODE":0,"TOWNNAME":"西港區","LI":"南海里","LIN":"6鄰","STREET":" ","SECT":" ","MAREA":"南海埔","LANE":" ","ALLEY":" ","HOUSE_NO":"４７號之３４","E_COORD97":167498.79999999999,"N_COORD97":2557601,"ADDRESS":"南海埔４７號之３４","OBJECTID":76664},"geometry":{"x":167498.79999999981,"y":2557601.0000000019}},{"attributes":{"ID":76665,"DIS_CODE":0,"TOWNNAME":"西港區","LI":"南海里","LIN":"6鄰","STREET":" ","SECT":" ","MAREA":"南海埔","LANE":" ","ALLEY":" ","HOUSE_NO":"４７號之３５","E_COORD97":167498.44,"N_COORD97":2557596.8500000001,"ADDRESS":"南海埔４７號之３５","OBJECTID":76665},"geometry":{"x":167498.44000000041,"y":2557596.8500000015}},{"attributes":{"ID":76666,"DIS_CODE":0,"TOWNNAME":"西港區","LI":"南海里","LIN":"6鄰","STREET":" ","SECT":" ","MAREA":"南海埔","LANE":" ","ALLEY":" ","HOUSE_NO":"４７號之３６","E_COORD97":167498.88,"N_COORD97":2557592.9300000002,"ADDRESS":"南海埔４７號之３６","OBJECTID":76666},"geometry":{"x":167498.88000000082,"y":2557592.9300000034}},{"attributes":{"ID":76667,"DIS_CODE":0,"TOWNNAME":"西港區","LI":"南海里","LIN":"6鄰","STREET":" ","SECT":" ","MAREA":"南海埔","LANE":" ","ALLEY":" ","HOUSE_NO":"４７號之３７","E_COORD97":167499.20999999999,"N_COORD97":2557588.73,"ADDRESS":"南海埔４７號之３７","OBJECTID":76667},"geometry":{"x":167499.20999999996,"y":2557588.7300000023}},{"attributes":{"ID":76668,"DIS_CODE":0,"TOWNNAME":"西港區","LI":"南海里","LIN":"6鄰","STREET":" ","SECT":" ","MAREA":"南海埔","LANE":" ","ALLEY":" ","HOUSE_NO":"４７號之３８","E_COORD97":167498.66,"N_COORD97":2557584.1000000001,"ADDRESS":"南海埔４７號之３８","OBJECTID":76668},"geometry":{"x":167498.66000000201,"y":2557584.0999999996}},{"attributes":{"ID":76669,"DIS_CODE":0,"TOWNNAME":"西港區","LI":"南海里","LIN":"6鄰","STREET":" ","SECT":" ","MAREA":"南海埔","LANE":" ","ALLEY":" ","HOUSE_NO":"４７號之３９","E_COORD97":167477.41,"N_COORD97":2557579.23,"ADDRESS":"南海埔４７號之３９","OBJECTID":76669},"geometry":{"x":167477.41000000108,"y":2557579.2300000023}},{"attributes":{"ID":76670,"DIS_CODE":0,"TOWNNAME":"仁德區","LI":"保安里","LIN":"19鄰","STREET":"文賢路","SECT":"二段","MAREA":" ","LANE":"１５巷","ALLEY":"１８弄","HOUSE_NO":"１７號三樓之２","E_COORD97":171882.42000000001,"N_COORD97":2535881.3300000001,"ADDRESS":"文賢路二段１５巷１８弄１７號三樓之２","OBJECTID":76670},"geometry":{"x":171882.42000000086,"y":2535881.3300000001}},{"attributes":{"ID":76671,"DIS_CODE":0,"TOWNNAME":"仁德區","LI":"保安里","LIN":"19鄰","STREET":"文賢路","SECT":"二段","MAREA":" ","LANE":"１５巷","ALLEY":"１８弄","HOUSE_NO":"１７號九樓之１","E_COORD97":171882.29000000001,"N_COORD97":2535881.3300000001,"ADDRESS":"文賢路二段１５巷１８弄１７號九樓之１","OBJECTID":76671},"geometry":{"x":171882.29000000097,"y":2535881.3300000001}},{"attributes":{"ID":76672,"DIS_CODE":0,"TOWNNAME":"永康區","LI":"神洲里","LIN":"19鄰","STREET":"忠孝路","SECT":" ","MAREA":" ","LANE":"７６巷","ALLEY":"６３弄","HOUSE_NO":"１４號五樓","E_COORD97":172232.57000000001,"N_COORD97":2545050.0899999999,"ADDRESS":"忠孝路７６巷６３弄１４號五樓","OBJECTID":76672},"geometry":{"x":172232.57000000216,"y":2545050.0899999999}},{"attributes":{"ID":76673,"DIS_CODE":0,"TOWNNAME":"永康區","LI":"神洲里","LIN":"19鄰","STREET":"忠孝路","SECT":" ","MAREA":" ","LANE":"７６巷","ALLEY":"６３弄","HOUSE_NO":"１６號四樓","E_COORD97":172223.32000000001,"N_COORD97":2545049.9500000002,"ADDRESS":"忠孝路７６巷６３弄１６號四樓","OBJECTID":76673},"geometry":{"x":172223.3200000003,"y":2545049.9499999993}},{"attributes":{"ID":76674,"DIS_CODE":0,"TOWNNAME":"永康區","LI":"西橋里","LIN":"19鄰","STREET":"大橋三街","SECT":" ","MAREA":" ","LANE":"５７巷","ALLEY":"７弄","HOUSE_NO":"４１號五樓之５","E_COORD97":170508.89000000001,"N_COORD97":2546462.1600000001,"ADDRESS":"大橋三街５７巷７弄４１號五樓之５","OBJECTID":76674},"geometry":{"x":170508.88999999873,"y":2546462.160000002}},{"attributes":{"ID":76675,"DIS_CODE":0,"TOWNNAME":"麻豆區","LI":"龍泉里","LIN":"7鄰","STREET":" ","SECT":" ","MAREA":"溝子墘","LANE":" ","ALLEY":" ","HOUSE_NO":"６４號","E_COORD97":174230.57999999999,"N_COORD97":2564091.23,"ADDRESS":"溝子墘６４號","OBJECTID":76675},"geometry":{"x":174230.58000000007,"y":2564091.2300000023}},{"attributes":{"ID":76676,"DIS_CODE":0,"TOWNNAME":"麻豆區","LI":"龍泉里","LIN":"7鄰","STREET":" ","SECT":" ","MAREA":"溝子墘","LANE":" ","ALLEY":" ","HOUSE_NO":"６６號","E_COORD97":174224.89999999999,"N_COORD97":2564155.8999999999,"ADDRESS":"溝子墘６６號","OBJECTID":76676},"geometry":{"x":174224.90000000037,"y":2564155.9000000004}},{"attributes":{"ID":76677,"DIS_CODE":0,"TOWNNAME":"永康區","LI":"西橋里","LIN":"19鄰","STREET":"大橋三街","SECT":" ","MAREA":" ","LANE":"５７巷","ALLEY":"７弄","HOUSE_NO":"４１號四樓之２","E_COORD97":170508.98999999999,"N_COORD97":2546462.1600000001,"ADDRESS":"大橋三街５７巷７弄４１號四樓之２","OBJECTID":76677},"geometry":{"x":170508.99000000209,"y":2546462.160000002}},{"attributes":{"ID":76678,"DIS_CODE":0,"TOWNNAME":"麻豆區","LI":"龍泉里","LIN":"7鄰","STREET":" ","SECT":" ","MAREA":"溝子墘","LANE":" ","ALLEY":" ","HOUSE_NO":"９１號之２","E_COORD97":174239.87,"N_COORD97":2564189.4700000002,"ADDRESS":"溝子墘９１號之２","OBJECTID":76678},"geometry":{"x":174239.87000000011,"y":2564189.4700000007}},{"attributes":{"ID":76679,"DIS_CODE":0,"TOWNNAME":"麻豆區","LI":"龍泉里","LIN":"7鄰","STREET":" ","SECT":" ","MAREA":"溝子墘","LANE":" ","ALLEY":" ","HOUSE_NO":"９１號","E_COORD97":174235.23999999999,"N_COORD97":2564188.4199999999,"ADDRESS":"溝子墘９１號","OBJECTID":76679},"geometry":{"x":174235.24000000115,"y":2564188.4200000018}},{"attributes":{"ID":76680,"DIS_CODE":0,"TOWNNAME":"麻豆區","LI":"龍泉里","LIN":"7鄰","STREET":" ","SECT":" ","MAREA":"溝子墘","LANE":" ","ALLEY":" ","HOUSE_NO":"９２號","E_COORD97":174202.60000000001,"N_COORD97":2564174.6200000001,"ADDRESS":"溝子墘９２號","OBJECTID":76680},"geometry":{"x":174202.59999999963,"y":2564174.6200000029}},{"attributes":{"ID":76681,"DIS_CODE":0,"TOWNNAME":"麻豆區","LI":"龍泉里","LIN":"7鄰","STREET":" ","SECT":" ","MAREA":"溝子墘","LANE":" ","ALLEY":" ","HOUSE_NO":"９３號","E_COORD97":174187.94,"N_COORD97":2564178.2400000002,"ADDRESS":"溝子墘９３號","OBJECTID":76681},"geometry":{"x":174187.94000000227,"y":2564178.2400000002}},{"attributes":{"ID":76682,"DIS_CODE":0,"TOWNNAME":"西港區","LI":"南海里","LIN":"6鄰","STREET":" ","SECT":" ","MAREA":"南海埔","LANE":" ","ALLEY":" ","HOUSE_NO":"４７號之３","E_COORD97":167535.88,"N_COORD97":2557535.3900000001,"ADDRESS":"南海埔４７號之３","OBJECTID":76682},"geometry":{"x":167535.88000000175,"y":2557535.3900000006}},{"attributes":{"ID":76683,"DIS_CODE":0,"TOWNNAME":"西港區","LI":"南海里","LIN":"6鄰","STREET":" ","SECT":" ","MAREA":"南海埔","LANE":" ","ALLEY":" ","HOUSE_NO":"４７號之４０","E_COORD97":167470.13,"N_COORD97":2557584.8199999998,"ADDRESS":"南海埔４７號之４０","OBJECTID":76683},"geometry":{"x":167470.13000000082,"y":2557584.8200000022}},{"attributes":{"ID":76684,"DIS_CODE":0,"TOWNNAME":"西港區","LI":"南海里","LIN":"6鄰","STREET":" ","SECT":" ","MAREA":"南海埔","LANE":" ","ALLEY":" ","HOUSE_NO":"４７號之４１","E_COORD97":167471.17999999999,"N_COORD97":2557589,"ADDRESS":"南海埔４７號之４１","OBJECTID":76684},"geometry":{"x":167471.18000000063,"y":2557588.9999999981}},{"attributes":{"ID":76685,"DIS_CODE":0,"TOWNNAME":"西港區","LI":"南海里","LIN":"6鄰","STREET":" ","SECT":" ","MAREA":"南海埔","LANE":" ","ALLEY":" ","HOUSE_NO":"４７號之４２","E_COORD97":167472.34,"N_COORD97":2557592.8799999999,"ADDRESS":"南海埔４７號之４２","OBJECTID":76685},"geometry":{"x":167472.34000000078,"y":2557592.8800000008}},{"attributes":{"ID":76686,"DIS_CODE":0,"TOWNNAME":"西港區","LI":"南海里","LIN":"6鄰","STREET":" ","SECT":" ","MAREA":"南海埔","LANE":" ","ALLEY":" ","HOUSE_NO":"４７號之４３","E_COORD97":167472.76000000001,"N_COORD97":2557597.6899999999,"ADDRESS":"南海埔４７號之４３","OBJECTID":76686},"geometry":{"x":167472.76000000071,"y":2557597.6900000032}},{"attributes":{"ID":76687,"DIS_CODE":0,"TOWNNAME":"西港區","LI":"南海里","LIN":"6鄰","STREET":" ","SECT":" ","MAREA":"南海埔","LANE":" ","ALLEY":" ","HOUSE_NO":"４７號之４４","E_COORD97":167473.79999999999,"N_COORD97":2557602.29,"ADDRESS":"南海埔４７號之４４","OBJECTID":76687},"geometry":{"x":167473.80000000168,"y":2557602.2899999991}},{"attributes":{"ID":76688,"DIS_CODE":0,"TOWNNAME":"西港區","LI":"南海里","LIN":"6鄰","STREET":" ","SECT":" ","MAREA":"南海埔","LANE":" ","ALLEY":" ","HOUSE_NO":"４７號之４５","E_COORD97":167474.39000000001,"N_COORD97":2557606.54,"ADDRESS":"南海埔４７號之４５","OBJECTID":76688},"geometry":{"x":167474.38999999966,"y":2557606.540000001}},{"attributes":{"ID":76689,"DIS_CODE":0,"TOWNNAME":"西港區","LI":"南海里","LIN":"6鄰","STREET":" ","SECT":" ","MAREA":"南海埔","LANE":" ","ALLEY":" ","HOUSE_NO":"４７號之４６","E_COORD97":167547.73999999999,"N_COORD97":2557536.8999999999,"ADDRESS":"南海埔４７號之４６","OBJECTID":76689},"geometry":{"x":167547.74000000115,"y":2557536.9000000022}},{"attributes":{"ID":76690,"DIS_CODE":0,"TOWNNAME":"永康區","LI":"西勢里","LIN":"19鄰","STREET":"富強路","SECT":"一段","MAREA":" ","LANE":"１８５巷","ALLEY":"２弄","HOUSE_NO":"４２號六樓之３","E_COORD97":175603.42999999999,"N_COORD97":2546515.4300000002,"ADDRESS":"富強路一段１８５巷２弄４２號六樓之３","OBJECTID":76690},"geometry":{"x":175603.43000000063,"y":2546515.4299999997}},{"attributes":{"ID":76691,"DIS_CODE":0,"TOWNNAME":"西港區","LI":"南海里","LIN":"6鄰","STREET":" ","SECT":" ","MAREA":"南海埔","LANE":" ","ALLEY":" ","HOUSE_NO":"４７號之４７","E_COORD97":167474.19,"N_COORD97":2557611.3599999999,"ADDRESS":"南海埔４７號之４７","OBJECTID":76691},"geometry":{"x":167474.19000000134,"y":2557611.3600000013}},{"attributes":{"ID":76692,"DIS_CODE":0,"TOWNNAME":"永康區","LI":"西橋里","LIN":"19鄰","STREET":"大橋三街","SECT":" ","MAREA":" ","LANE":"５７巷","ALLEY":"７弄","HOUSE_NO":"４１號三樓之２","E_COORD97":170508.98999999999,"N_COORD97":2546462.1600000001,"ADDRESS":"大橋三街５７巷７弄４１號三樓之２","OBJECTID":76692},"geometry":{"x":170508.99000000209,"y":2546462.160000002}},{"attributes":{"ID":76693,"DIS_CODE":0,"TOWNNAME":"西港區","LI":"南海里","LIN":"6鄰","STREET":" ","SECT":" ","MAREA":"南海埔","LANE":" ","ALLEY":" ","HOUSE_NO":"４７號之４８","E_COORD97":167474.73000000001,"N_COORD97":2557615.6800000002,"ADDRESS":"南海埔４７號之４８","OBJECTID":76693},"geometry":{"x":167474.72999999952,"y":2557615.6800000016}},{"attributes":{"ID":76694,"DIS_CODE":0,"TOWNNAME":"西港區","LI":"南海里","LIN":"6鄰","STREET":" ","SECT":" ","MAREA":"南海埔","LANE":" ","ALLEY":" ","HOUSE_NO":"４７號之４９","E_COORD97":167475.64999999999,"N_COORD97":2557620.3300000001,"ADDRESS":"南海埔４７號之４９","OBJECTID":76694},"geometry":{"x":167475.6500000013,"y":2557620.3300000001}},{"attributes":{"ID":76695,"DIS_CODE":0,"TOWNNAME":"西港區","LI":"南海里","LIN":"6鄰","STREET":" ","SECT":" ","MAREA":"南海埔","LANE":" ","ALLEY":" ","HOUSE_NO":"４７號之４","E_COORD97":167529.64000000001,"N_COORD97":2557534.7599999998,"ADDRESS":"南海埔４７號之４","OBJECTID":76695},"geometry":{"x":167529.6400000006,"y":2557534.7599999998}},{"attributes":{"ID":76696,"DIS_CODE":0,"TOWNNAME":"西港區","LI":"南海里","LIN":"6鄰","STREET":" ","SECT":" ","MAREA":"南海埔","LANE":" ","ALLEY":" ","HOUSE_NO":"４７號之５０","E_COORD97":167477.54000000001,"N_COORD97":2557631.2999999998,"ADDRESS":"南海埔４７號之５０","OBJECTID":76696},"geometry":{"x":167477.54000000097,"y":2557631.3000000007}},{"attributes":{"ID":76697,"DIS_CODE":0,"TOWNNAME":"西港區","LI":"南海里","LIN":"6鄰","STREET":" ","SECT":" ","MAREA":"南海埔","LANE":" ","ALLEY":" ","HOUSE_NO":"４７號之５１","E_COORD97":167478.60999999999,"N_COORD97":2557635.6699999999,"ADDRESS":"南海埔４７號之５１","OBJECTID":76697},"geometry":{"x":167478.61000000034,"y":2557635.6700000018}},{"attributes":{"ID":76698,"DIS_CODE":0,"TOWNNAME":"西港區","LI":"南海里","LIN":"6鄰","STREET":" ","SECT":" ","MAREA":"南海埔","LANE":" ","ALLEY":" ","HOUSE_NO":"４７號之５２","E_COORD97":167479.67999999999,"N_COORD97":2557642.0899999999,"ADDRESS":"南海埔４７號之５２","OBJECTID":76698},"geometry":{"x":167479.68000000063,"y":2557642.0899999999}},{"attributes":{"ID":76699,"DIS_CODE":0,"TOWNNAME":"西港區","LI":"南海里","LIN":"6鄰","STREET":" ","SECT":" ","MAREA":"南海埔","LANE":" ","ALLEY":" ","HOUSE_NO":"４７號之５３","E_COORD97":167496.31,"N_COORD97":2557619.0099999998,"ADDRESS":"南海埔４７號之５３","OBJECTID":76699},"geometry":{"x":167496.30999999959,"y":2557619.0099999998}},{"attributes":{"ID":76700,"DIS_CODE":0,"TOWNNAME":"北門區","LI":"永華里","LIN":"1鄰","STREET":" ","SECT":" ","MAREA":"井子\u25A0","LANE":" ","ALLEY":" ","HOUSE_NO":"６號","E_COORD97":160200.79999999999,"N_COORD97":2573090.2400000002,"ADDRESS":"井子\u25A0６號","OBJECTID":76700},"geometry":{"x":160200.79999999981,"y":2573090.2400000021}},{"attributes":{"ID":76701,"DIS_CODE":0,"TOWNNAME":"西港區","LI":"南海里","LIN":"6鄰","STREET":" ","SECT":" ","MAREA":"南海埔","LANE":" ","ALLEY":" ","HOUSE_NO":"４７號之５４","E_COORD97":167501.72,"N_COORD97":2557619.71,"ADDRESS":"南海埔４７號之５４","OBJECTID":76701},"geometry":{"x":167501.72000000067,"y":2557619.7100000028}},{"attributes":{"ID":76702,"DIS_CODE":0,"TOWNNAME":"西港區","LI":"南海里","LIN":"6鄰","STREET":" ","SECT":" ","MAREA":"南海埔","LANE":" ","ALLEY":" ","HOUSE_NO":"４７號之５５","E_COORD97":167507.57000000001,"N_COORD97":2557620.6099999999,"ADDRESS":"南海埔４７號之５５","OBJECTID":76702},"geometry":{"x":167507.5700000003,"y":2557620.6099999994}},{"attributes":{"ID":76703,"DIS_CODE":0,"TOWNNAME":"麻豆區","LI":"新建里","LIN":"7鄰","STREET":"新生南路","SECT":" ","MAREA":" ","LANE":" ","ALLEY":" ","HOUSE_NO":"３５號","E_COORD97":172339.17000000001,"N_COORD97":2564831.6600000001,"ADDRESS":"新生南路３５號","OBJECTID":76703},"geometry":{"x":172339.16999999993,"y":2564831.660000002}},{"attributes":{"ID":76704,"DIS_CODE":0,"TOWNNAME":"麻豆區","LI":"新建里","LIN":"7鄰","STREET":"新生南路","SECT":" ","MAREA":" ","LANE":" ","ALLEY":" ","HOUSE_NO":"３７號","E_COORD97":172339.47,"N_COORD97":2564825.3199999998,"ADDRESS":"新生南路３７號","OBJECTID":76704},"geometry":{"x":172339.47000000067,"y":2564825.3200000003}},{"attributes":{"ID":76705,"DIS_CODE":0,"TOWNNAME":"永康區","LI":"西橋里","LIN":"19鄰","STREET":"大橋三街","SECT":" ","MAREA":" ","LANE":"５７巷","ALLEY":"７弄","HOUSE_NO":"４１號五樓之１","E_COORD97":170508.85999999999,"N_COORD97":2546462.1600000001,"ADDRESS":"大橋三街５７巷７弄４１號五樓之１","OBJECTID":76705},"geometry":{"x":170508.86000000127,"y":2546462.160000002}},{"attributes":{"ID":76706,"DIS_CODE":0,"TOWNNAME":"西港區","LI":"南海里","LIN":"6鄰","STREET":" ","SECT":" ","MAREA":"南海埔","LANE":" ","ALLEY":" ","HOUSE_NO":"４７號之５６","E_COORD97":167513.01999999999,"N_COORD97":2557621.4900000002,"ADDRESS":"南海埔４７號之５６","OBJECTID":76706},"geometry":{"x":167513.02000000048,"y":2557621.4900000021}},{"attributes":{"ID":76707,"DIS_CODE":0,"TOWNNAME":"西港區","LI":"南海里","LIN":"6鄰","STREET":" ","SECT":" ","MAREA":"南海埔","LANE":" ","ALLEY":" ","HOUSE_NO":"４７號之５７","E_COORD97":167518.48000000001,"N_COORD97":2557622.0499999998,"ADDRESS":"南海埔４７號之５７","OBJECTID":76707},"geometry":{"x":167518.48000000045,"y":2557622.0500000007}},{"attributes":{"ID":76708,"DIS_CODE":0,"TOWNNAME":"永康區","LI":"西橋里","LIN":"19鄰","STREET":"大橋三街","SECT":" ","MAREA":" ","LANE":"５７巷","ALLEY":"７弄","HOUSE_NO":"４１號二樓之２","E_COORD97":170508.98999999999,"N_COORD97":2546462.1600000001,"ADDRESS":"大橋三街５７巷７弄４１號二樓之２","OBJECTID":76708},"geometry":{"x":170508.99000000209,"y":2546462.160000002}},{"attributes":{"ID":76709,"DIS_CODE":0,"TOWNNAME":"西港區","LI":"南海里","LIN":"6鄰","STREET":" ","SECT":" ","MAREA":"南海埔","LANE":" ","ALLEY":" ","HOUSE_NO":"４７號之５８","E_COORD97":167502.29999999999,"N_COORD97":2557638.6299999999,"ADDRESS":"南海埔４７號之５８","OBJECTID":76709},"geometry":{"x":167502.29999999981,"y":2557638.6300000008}},{"attributes":{"ID":76710,"DIS_CODE":0,"TOWNNAME":"西港區","LI":"南海里","LIN":"6鄰","STREET":" ","SECT":" ","MAREA":"南海埔","LANE":" ","ALLEY":" ","HOUSE_NO":"４７號之５９","E_COORD97":167509.12,"N_COORD97":2557643.5899999999,"ADDRESS":"南海埔４７號之５９","OBJECTID":76710},"geometry":{"x":167509.12000000197,"y":2557643.5900000017}},{"attributes":{"ID":76711,"DIS_CODE":0,"TOWNNAME":"西港區","LI":"南海里","LIN":"6鄰","STREET":" ","SECT":" ","MAREA":"南海埔","LANE":" ","ALLEY":" ","HOUSE_NO":"４７號之５","E_COORD97":167524.10000000001,"N_COORD97":2557534.48,"ADDRESS":"南海埔４７號之５","OBJECTID":76711},"geometry":{"x":167524.10000000149,"y":2557534.4800000004}},{"attributes":{"ID":76712,"DIS_CODE":0,"TOWNNAME":"西港區","LI":"南海里","LIN":"6鄰","STREET":" ","SECT":" ","MAREA":"南海埔","LANE":" ","ALLEY":" ","HOUSE_NO":"４７號之６０","E_COORD97":167512.57000000001,"N_COORD97":2557644.9300000002,"ADDRESS":"南海埔４７號之６０","OBJECTID":76712},"geometry":{"x":167512.5700000003,"y":2557644.9300000016}},{"attributes":{"ID":76713,"DIS_CODE":0,"TOWNNAME":"永康區","LI":"西勢里","LIN":"19鄰","STREET":"富強路","SECT":"一段","MAREA":" ","LANE":"１８５巷","ALLEY":"２弄","HOUSE_NO":"４２號三樓之４","E_COORD97":175603.35999999999,"N_COORD97":2546515.4300000002,"ADDRESS":"富強路一段１８５巷２弄４２號三樓之４","OBJECTID":76713},"geometry":{"x":175603.36000000034,"y":2546515.4299999997}},{"attributes":{"ID":76714,"DIS_CODE":0,"TOWNNAME":"西港區","LI":"南海里","LIN":"6鄰","STREET":" ","SECT":" ","MAREA":"南海埔","LANE":" ","ALLEY":" ","HOUSE_NO":"４７號之６１","E_COORD97":167569.42999999999,"N_COORD97":2557556.75,"ADDRESS":"南海埔４７號之６１","OBJECTID":76714},"geometry":{"x":167569.43000000063,"y":2557556.7499999981}},{"attributes":{"ID":76715,"DIS_CODE":0,"TOWNNAME":"西港區","LI":"南海里","LIN":"6鄰","STREET":" ","SECT":" ","MAREA":"南海埔","LANE":" ","ALLEY":" ","HOUSE_NO":"４７號之６２","E_COORD97":167559.97,"N_COORD97":2557555.3199999998,"ADDRESS":"南海埔４７號之６２","OBJECTID":76715},"geometry":{"x":167559.96999999974,"y":2557555.3200000003}},{"attributes":{"ID":76716,"DIS_CODE":0,"TOWNNAME":"永康區","LI":"西勢里","LIN":"19鄰","STREET":"富強路","SECT":"一段","MAREA":" ","LANE":"１８５巷","ALLEY":"２弄","HOUSE_NO":"４２號五樓之４","E_COORD97":175603.35999999999,"N_COORD97":2546515.4300000002,"ADDRESS":"富強路一段１８５巷２弄４２號五樓之４","OBJECTID":76716},"geometry":{"x":175603.36000000034,"y":2546515.4299999997}},{"attributes":{"ID":76717,"DIS_CODE":0,"TOWNNAME":"西港區","LI":"南海里","LIN":"6鄰","STREET":" ","SECT":" ","MAREA":"南海埔","LANE":" ","ALLEY":" ","HOUSE_NO":"４７號之６３","E_COORD97":167555.85000000001,"N_COORD97":2557535.52,"ADDRESS":"南海埔４７號之６３","OBJECTID":76717},"geometry":{"x":167555.84999999963,"y":2557535.5200000014}},{"attributes":{"ID":76718,"DIS_CODE":0,"TOWNNAME":"西港區","LI":"南海里","LIN":"6鄰","STREET":" ","SECT":" ","MAREA":"南海埔","LANE":" ","ALLEY":" ","HOUSE_NO":"４７號之６４","E_COORD97":167561.32000000001,"N_COORD97":2557535.7799999998,"ADDRESS":"南海埔４７號之６４","OBJECTID":76718},"geometry":{"x":167561.32000000123,"y":2557535.7800000031}},{"attributes":{"ID":76719,"DIS_CODE":0,"TOWNNAME":"西港區","LI":"南海里","LIN":"6鄰","STREET":" ","SECT":" ","MAREA":"南海埔","LANE":" ","ALLEY":" ","HOUSE_NO":"４７號之６５","E_COORD97":167588.44,"N_COORD97":2557554.0299999998,"ADDRESS":"南海埔４７號之６５","OBJECTID":76719},"geometry":{"x":167588.44000000041,"y":2557554.0299999993}},{"attributes":{"ID":76720,"DIS_CODE":0,"TOWNNAME":"西港區","LI":"南海里","LIN":"6鄰","STREET":" ","SECT":" ","MAREA":"南海埔","LANE":" ","ALLEY":" ","HOUSE_NO":"４７號之６","E_COORD97":167517.76000000001,"N_COORD97":2557533.9500000002,"ADDRESS":"南海埔４７號之６","OBJECTID":76720},"geometry":{"x":167517.75999999978,"y":2557533.9499999993}},{"attributes":{"ID":76721,"DIS_CODE":0,"TOWNNAME":"西港區","LI":"南海里","LIN":"6鄰","STREET":" ","SECT":" ","MAREA":"南海埔","LANE":" ","ALLEY":" ","HOUSE_NO":"４７號之７","E_COORD97":167511.75,"N_COORD97":2557534.27,"ADDRESS":"南海埔４７號之７","OBJECTID":76721},"geometry":{"x":167511.75000000093,"y":2557534.2700000014}},{"attributes":{"ID":76722,"DIS_CODE":0,"TOWNNAME":"歸仁區","LI":"新厝里","LIN":"7鄰","STREET":"公園十街","SECT":" ","MAREA":" ","LANE":" ","ALLEY":" ","HOUSE_NO":"５６號","E_COORD97":177690.39999999999,"N_COORD97":2540577.9300000002,"ADDRESS":"公園十街５６號","OBJECTID":76722},"geometry":{"x":177690.39999999944,"y":2540577.9300000016}},{"attributes":{"ID":76723,"DIS_CODE":0,"TOWNNAME":"西港區","LI":"南海里","LIN":"6鄰","STREET":" ","SECT":" ","MAREA":"南海埔","LANE":" ","ALLEY":" ","HOUSE_NO":"４７號之８","E_COORD97":167503.79000000001,"N_COORD97":2557545.5600000001,"ADDRESS":"南海埔４７號之８","OBJECTID":76723},"geometry":{"x":167503.79000000004,"y":2557545.5600000024}},{"attributes":{"ID":76724,"DIS_CODE":0,"TOWNNAME":"西港區","LI":"南海里","LIN":"6鄰","STREET":" ","SECT":" ","MAREA":"南海埔","LANE":" ","ALLEY":" ","HOUSE_NO":"４７號之９","E_COORD97":167511.03,"N_COORD97":2557550.9300000002,"ADDRESS":"南海埔４７號之９","OBJECTID":76724},"geometry":{"x":167511.03000000026,"y":2557550.9299999997}},{"attributes":{"ID":76725,"DIS_CODE":0,"TOWNNAME":"西港區","LI":"南海里","LIN":"6鄰","STREET":" ","SECT":" ","MAREA":"南海埔","LANE":" ","ALLEY":" ","HOUSE_NO":"４７號","E_COORD97":167578.89999999999,"N_COORD97":2557532.9100000001,"ADDRESS":"南海埔４７號","OBJECTID":76725},"geometry":{"x":167578.9000000013,"y":2557532.910000002}},{"attributes":{"ID":76726,"DIS_CODE":0,"TOWNNAME":"歸仁區","LI":"歸仁里","LIN":"7鄰","STREET":"中山路","SECT":"一段","MAREA":" ","LANE":" ","ALLEY":" ","HOUSE_NO":"５５０號","E_COORD97":177747.31,"N_COORD97":2540775.1800000002,"ADDRESS":"中山路一段５５０號","OBJECTID":76726},"geometry":{"x":177747.30999999959,"y":2540775.1800000016}},{"attributes":{"ID":76727,"DIS_CODE":0,"TOWNNAME":"西港區","LI":"南海里","LIN":"6鄰","STREET":" ","SECT":" ","MAREA":"南海埔","LANE":" ","ALLEY":" ","HOUSE_NO":"４８號之１","E_COORD97":167618.01000000001,"N_COORD97":2557497.8700000001,"ADDRESS":"南海埔４８號之１","OBJECTID":76727},"geometry":{"x":167618.01000000164,"y":2557497.8700000029}},{"attributes":{"ID":76728,"DIS_CODE":0,"TOWNNAME":"西港區","LI":"南海里","LIN":"6鄰","STREET":" ","SECT":" ","MAREA":"南海埔","LANE":" ","ALLEY":" ","HOUSE_NO":"４８號","E_COORD97":167598.64999999999,"N_COORD97":2557491.8799999999,"ADDRESS":"南海埔４８號","OBJECTID":76728},"geometry":{"x":167598.65000000037,"y":2557491.8800000008}},{"attributes":{"ID":76729,"DIS_CODE":0,"TOWNNAME":"西港區","LI":"南海里","LIN":"6鄰","STREET":" ","SECT":" ","MAREA":"南海埔","LANE":" ","ALLEY":" ","HOUSE_NO":"４９號","E_COORD97":167578.73999999999,"N_COORD97":2557473.8500000001,"ADDRESS":"南海埔４９號","OBJECTID":76729},"geometry":{"x":167578.74000000115,"y":2557473.8499999996}},{"attributes":{"ID":76730,"DIS_CODE":0,"TOWNNAME":"新市區","LI":"永就里","LIN":"6鄰","STREET":" ","SECT":" ","MAREA":"永就","LANE":" ","ALLEY":" ","HOUSE_NO":"６１之２號","E_COORD97":177706.09,"N_COORD97":2551497.2999999998,"ADDRESS":"永就６１之２號","OBJECTID":76730},"geometry":{"x":177706.09000000078,"y":2551497.3000000007}},{"attributes":{"ID":76731,"DIS_CODE":0,"TOWNNAME":"新市區","LI":"三舍里","LIN":"6鄰","STREET":" ","SECT":" ","MAREA":"三舍","LANE":" ","ALLEY":" ","HOUSE_NO":"１４６號","E_COORD97":177760.06,"N_COORD97":2554553.5,"ADDRESS":"三舍１４６號","OBJECTID":76731},"geometry":{"x":177760.06000000052,"y":2554553.5}},{"attributes":{"ID":76732,"DIS_CODE":0,"TOWNNAME":"西港區","LI":"後營里","LIN":"6鄰","STREET":" ","SECT":" ","MAREA":"後營","LANE":" ","ALLEY":" ","HOUSE_NO":"１９９號之５","E_COORD97":169970.89000000001,"N_COORD97":2560235.8399999999,"ADDRESS":"後營１９９號之５","OBJECTID":76732},"geometry":{"x":169970.88999999966,"y":2560235.8400000017}},{"attributes":{"ID":76733,"DIS_CODE":0,"TOWNNAME":"西港區","LI":"後營里","LIN":"6鄰","STREET":" ","SECT":" ","MAREA":"後營","LANE":" ","ALLEY":" ","HOUSE_NO":"２００號之１","E_COORD97":169963.54000000001,"N_COORD97":2560215.73,"ADDRESS":"後營２００號之１","OBJECTID":76733},"geometry":{"x":169963.54000000004,"y":2560215.7300000042}},{"attributes":{"ID":76734,"DIS_CODE":0,"TOWNNAME":"西港區","LI":"後營里","LIN":"6鄰","STREET":" ","SECT":" ","MAREA":"後營","LANE":" ","ALLEY":" ","HOUSE_NO":"２００號","E_COORD97":169962.82000000001,"N_COORD97":2560223.0699999998,"ADDRESS":"後營２００號","OBJECTID":76734},"geometry":{"x":169962.82000000123,"y":2560223.0699999984}},{"attributes":{"ID":76735,"DIS_CODE":0,"TOWNNAME":"歸仁區","LI":"歸仁里","LIN":"7鄰","STREET":"中山路","SECT":"一段","MAREA":" ","LANE":" ","ALLEY":" ","HOUSE_NO":"５５６號","E_COORD97":177734.01000000001,"N_COORD97":2540777.1800000002,"ADDRESS":"中山路一段５５６號","OBJECTID":76735},"geometry":{"x":177734.01000000071,"y":2540777.1799999997}},{"attributes":{"ID":76736,"DIS_CODE":0,"TOWNNAME":"歸仁區","LI":"歸仁里","LIN":"7鄰","STREET":"中山路","SECT":"一段","MAREA":" ","LANE":" ","ALLEY":" ","HOUSE_NO":"５６２號","E_COORD97":177722.70999999999,"N_COORD97":2540778.1800000002,"ADDRESS":"中山路一段５６２號","OBJECTID":76736},"geometry":{"x":177722.70999999996,"y":2540778.1800000034}},{"attributes":{"ID":76737,"DIS_CODE":0,"TOWNNAME":"歸仁區","LI":"歸仁里","LIN":"7鄰","STREET":"中山路","SECT":"一段","MAREA":" ","LANE":" ","ALLEY":" ","HOUSE_NO":"５４８號","E_COORD97":177751.41,"N_COORD97":2540775.1800000002,"ADDRESS":"中山路一段５４８號","OBJECTID":76737},"geometry":{"x":177751.41000000108,"y":2540775.1800000016}},{"attributes":{"ID":76738,"DIS_CODE":0,"TOWNNAME":"歸仁區","LI":"新厝里","LIN":"7鄰","STREET":"中正三街","SECT":" ","MAREA":" ","LANE":" ","ALLEY":" ","HOUSE_NO":"５７號","E_COORD97":177749.78,"N_COORD97":2540568.9300000002,"ADDRESS":"中正三街５７號","OBJECTID":76738},"geometry":{"x":177749.78000000026,"y":2540568.9299999997}},{"attributes":{"ID":76739,"DIS_CODE":0,"TOWNNAME":"永康區","LI":"西橋里","LIN":"19鄰","STREET":"大橋三街","SECT":" ","MAREA":" ","LANE":"５７巷","ALLEY":"７弄","HOUSE_NO":"４１號四樓之５","E_COORD97":170509.01999999999,"N_COORD97":2546462.1600000001,"ADDRESS":"大橋三街５７巷７弄４１號四樓之５","OBJECTID":76739},"geometry":{"x":170509.01999999955,"y":2546462.160000002}},{"attributes":{"ID":76740,"DIS_CODE":0,"TOWNNAME":"永康區","LI":"西勢里","LIN":"19鄰","STREET":"富強路","SECT":"一段","MAREA":" ","LANE":"１８５巷","ALLEY":"２弄","HOUSE_NO":"４２號二樓之４","E_COORD97":175603.35999999999,"N_COORD97":2546515.4300000002,"ADDRESS":"富強路一段１８５巷２弄４２號二樓之４","OBJECTID":76740},"geometry":{"x":175603.36000000034,"y":2546515.4299999997}},{"attributes":{"ID":76741,"DIS_CODE":0,"TOWNNAME":"新營區","LI":"鐵線里","LIN":"7鄰","STREET":" ","SECT":" ","MAREA":"鐵線橋","LANE":" ","ALLEY":" ","HOUSE_NO":"７６號","E_COORD97":175971.54000000001,"N_COORD97":2573799.2200000002,"ADDRESS":"鐵線橋７６號","OBJECTID":76741},"geometry":{"x":175971.54000000004,"y":2573799.2200000025}},{"attributes":{"ID":76742,"DIS_CODE":0,"TOWNNAME":"永康區","LI":"西橋里","LIN":"19鄰","STREET":"大橋三街","SECT":" ","MAREA":" ","LANE":"５７巷","ALLEY":"７弄","HOUSE_NO":"４１號四樓之３","E_COORD97":170508.95999999999,"N_COORD97":2546462.1600000001,"ADDRESS":"大橋三街５７巷７弄４１號四樓之３","OBJECTID":76742},"geometry":{"x":170508.96000000089,"y":2546462.160000002}},{"attributes":{"ID":76743,"DIS_CODE":0,"TOWNNAME":"永康區","LI":"西勢里","LIN":"19鄰","STREET":"富強路","SECT":"一段","MAREA":" ","LANE":"１８５巷","ALLEY":"２弄","HOUSE_NO":"５０號二樓之１","E_COORD97":175613.60999999999,"N_COORD97":2546536.54,"ADDRESS":"富強路一段１８５巷２弄５０號二樓之１","OBJECTID":76743},"geometry":{"x":175613.61000000034,"y":2546536.540000001}},{"attributes":{"ID":76744,"DIS_CODE":0,"TOWNNAME":"西港區","LI":"後營里","LIN":"6鄰","STREET":" ","SECT":" ","MAREA":"後營","LANE":" ","ALLEY":" ","HOUSE_NO":"２０１號","E_COORD97":169990.04000000001,"N_COORD97":2560205.9100000001,"ADDRESS":"後營２０１號","OBJECTID":76744},"geometry":{"x":169990.04000000097,"y":2560205.9100000001}},{"attributes":{"ID":76745,"DIS_CODE":0,"TOWNNAME":"西港區","LI":"後營里","LIN":"6鄰","STREET":" ","SECT":" ","MAREA":"後營","LANE":" ","ALLEY":" ","HOUSE_NO":"２０２號之１","E_COORD97":169978.97,"N_COORD97":2560164.6499999999,"ADDRESS":"後營２０２號之１","OBJECTID":76745},"geometry":{"x":169978.96999999974,"y":2560164.6500000004}},{"attributes":{"ID":76746,"DIS_CODE":0,"TOWNNAME":"西港區","LI":"後營里","LIN":"6鄰","STREET":" ","SECT":" ","MAREA":"後營","LANE":" ","ALLEY":" ","HOUSE_NO":"２０２號之４","E_COORD97":169964.81,"N_COORD97":2560175.6600000001,"ADDRESS":"後營２０２號之４","OBJECTID":76746},"geometry":{"x":169964.80999999959,"y":2560175.660000002}},{"attributes":{"ID":76747,"DIS_CODE":0,"TOWNNAME":"西港區","LI":"後營里","LIN":"6鄰","STREET":" ","SECT":" ","MAREA":"後營","LANE":" ","ALLEY":" ","HOUSE_NO":"２０２號之５","E_COORD97":169964.73000000001,"N_COORD97":2560182.5600000001,"ADDRESS":"後營２０２號之５","OBJECTID":76747},"geometry":{"x":169964.73000000045,"y":2560182.5600000005}},{"attributes":{"ID":76748,"DIS_CODE":0,"TOWNNAME":"永康區","LI":"西橋里","LIN":"19鄰","STREET":"大橋三街","SECT":" ","MAREA":" ","LANE":"５７巷","ALLEY":"７弄","HOUSE_NO":"４１號三樓之１","E_COORD97":170508.85999999999,"N_COORD97":2546462.1600000001,"ADDRESS":"大橋三街５７巷７弄４１號三樓之１","OBJECTID":76748},"geometry":{"x":170508.86000000127,"y":2546462.160000002}},{"attributes":{"ID":76749,"DIS_CODE":0,"TOWNNAME":"永康區","LI":"西橋里","LIN":"19鄰","STREET":"大橋三街","SECT":" ","MAREA":" ","LANE":"５７巷","ALLEY":"７弄","HOUSE_NO":"４１號五樓之３","E_COORD97":170508.95999999999,"N_COORD97":2546462.1600000001,"ADDRESS":"大橋三街５７巷７弄４１號五樓之３","OBJECTID":76749},"geometry":{"x":170508.96000000089,"y":2546462.160000002}},{"attributes":{"ID":76750,"DIS_CODE":0,"TOWNNAME":"西港區","LI":"後營里","LIN":"6鄰","STREET":" ","SECT":" ","MAREA":"後營","LANE":" ","ALLEY":" ","HOUSE_NO":"２０２號之６","E_COORD97":169964.35999999999,"N_COORD97":2560186.8599999999,"ADDRESS":"後營２０２號之６","OBJECTID":76750},"geometry":{"x":169964.36000000127,"y":2560186.8600000013}},{"attributes":{"ID":76751,"DIS_CODE":0,"TOWNNAME":"永康區","LI":"西橋里","LIN":"19鄰","STREET":"大橋三街","SECT":" ","MAREA":" ","LANE":"５７巷","ALLEY":"７弄","HOUSE_NO":"４１號六樓之３","E_COORD97":170508.95999999999,"N_COORD97":2546462.1600000001,"ADDRESS":"大橋三街５７巷７弄４１號六樓之３","OBJECTID":76751},"geometry":{"x":170508.96000000089,"y":2546462.160000002}},{"attributes":{"ID":76752,"DIS_CODE":0,"TOWNNAME":"新市區","LI":"三舍里","LIN":"6鄰","STREET":" ","SECT":" ","MAREA":"三舍","LANE":" ","ALLEY":" ","HOUSE_NO":"１６１之８號","E_COORD97":177913.62,"N_COORD97":2554676.7999999998,"ADDRESS":"三舍１６１之８號","OBJECTID":76752},"geometry":{"x":177913.62000000011,"y":2554676.8000000026}},{"attributes":{"ID":76753,"DIS_CODE":0,"TOWNNAME":"永康區","LI":"西勢里","LIN":"19鄰","STREET":"富強路","SECT":"一段","MAREA":" ","LANE":"１８５巷","ALLEY":"２弄","HOUSE_NO":"４２號二樓之１","E_COORD97":175603.32999999999,"N_COORD97":2546515.4300000002,"ADDRESS":"富強路一段１８５巷２弄４２號二樓之１","OBJECTID":76753},"geometry":{"x":175603.33000000007,"y":2546515.4299999997}},{"attributes":{"ID":76754,"DIS_CODE":0,"TOWNNAME":"歸仁區","LI":"歸南里","LIN":"7鄰","STREET":"中正南路","SECT":"一段","MAREA":" ","LANE":" ","ALLEY":" ","HOUSE_NO":"６９０號","E_COORD97":176531.35999999999,"N_COORD97":2539786.9500000002,"ADDRESS":"中正南路一段６９０號","OBJECTID":76754},"geometry":{"x":176531.36000000127,"y":2539786.9500000011}},{"attributes":{"ID":76755,"DIS_CODE":0,"TOWNNAME":"歸仁區","LI":"歸仁里","LIN":"7鄰","STREET":"中山路","SECT":"一段","MAREA":" ","LANE":" ","ALLEY":" ","HOUSE_NO":"５２２號","E_COORD97":177804.70999999999,"N_COORD97":2540768.1800000002,"ADDRESS":"中山路一段５２２號","OBJECTID":76755},"geometry":{"x":177804.70999999996,"y":2540768.1800000034}},{"attributes":{"ID":76756,"DIS_CODE":0,"TOWNNAME":"歸仁區","LI":"歸仁里","LIN":"7鄰","STREET":"中山路","SECT":"一段","MAREA":" ","LANE":" ","ALLEY":" ","HOUSE_NO":"５３０號","E_COORD97":177788.31,"N_COORD97":2540769.1800000002,"ADDRESS":"中山路一段５３０號","OBJECTID":76756},"geometry":{"x":177788.30999999959,"y":2540769.1800000016}},{"attributes":{"ID":76757,"DIS_CODE":0,"TOWNNAME":"新市區","LI":"三舍里","LIN":"6鄰","STREET":" ","SECT":" ","MAREA":"三舍","LANE":" ","ALLEY":" ","HOUSE_NO":"１３７號","E_COORD97":177774.82000000001,"N_COORD97":2554485,"ADDRESS":"三舍１３７號","OBJECTID":76757},"geometry":{"x":177774.82000000123,"y":2554485.0000000019}},{"attributes":{"ID":76758,"DIS_CODE":0,"TOWNNAME":"新市區","LI":"大營里","LIN":"6鄰","STREET":" ","SECT":" ","MAREA":"大營","LANE":" ","ALLEY":" ","HOUSE_NO":"８６之２５號","E_COORD97":179751.60000000001,"N_COORD97":2555370.0499999998,"ADDRESS":"大營８６之２５號","OBJECTID":76758},"geometry":{"x":179751.60000000056,"y":2555370.0500000026}},{"attributes":{"ID":76759,"DIS_CODE":0,"TOWNNAME":"新市區","LI":"三舍里","LIN":"6鄰","STREET":" ","SECT":" ","MAREA":"三舍","LANE":" ","ALLEY":" ","HOUSE_NO":"１６３之２號","E_COORD97":177964.12,"N_COORD97":2554721.2999999998,"ADDRESS":"三舍１６３之２號","OBJECTID":76759},"geometry":{"x":177964.12000000104,"y":2554721.3000000026}},{"attributes":{"ID":76760,"DIS_CODE":0,"TOWNNAME":"歸仁區","LI":"文化里","LIN":"7鄰","STREET":"文化三街","SECT":" ","MAREA":" ","LANE":" ","ALLEY":" ","HOUSE_NO":"５２號","E_COORD97":177223.95999999999,"N_COORD97":2541321.3399999999,"ADDRESS":"文化三街５２號","OBJECTID":76760},"geometry":{"x":177223.96000000089,"y":2541321.3400000017}},{"attributes":{"ID":76761,"DIS_CODE":0,"TOWNNAME":"新市區","LI":"大營里","LIN":"6鄰","STREET":" ","SECT":" ","MAREA":"大營","LANE":" ","ALLEY":" ","HOUSE_NO":"１４０號","E_COORD97":179584.29000000001,"N_COORD97":2555292.75,"ADDRESS":"大營１４０號","OBJECTID":76761},"geometry":{"x":179584.28999999911,"y":2555292.7500000019}},{"attributes":{"ID":76762,"DIS_CODE":0,"TOWNNAME":"新市區","LI":"三舍里","LIN":"6鄰","STREET":" ","SECT":" ","MAREA":"三舍","LANE":" ","ALLEY":" ","HOUSE_NO":"１５７號","E_COORD97":177873.39999999999,"N_COORD97":2554663.25,"ADDRESS":"三舍１５７號","OBJECTID":76762},"geometry":{"x":177873.40000000037,"y":2554663.2500000019}},{"attributes":{"ID":76763,"DIS_CODE":0,"TOWNNAME":"新市區","LI":"三舍里","LIN":"6鄰","STREET":" ","SECT":" ","MAREA":"三舍","LANE":" ","ALLEY":" ","HOUSE_NO":"１６１之９號","E_COORD97":177912.12,"N_COORD97":2554680.5499999998,"ADDRESS":"三舍１６１之９號","OBJECTID":76763},"geometry":{"x":177912.12000000011,"y":2554680.5500000045}},{"attributes":{"ID":76764,"DIS_CODE":0,"TOWNNAME":"新市區","LI":"大營里","LIN":"6鄰","STREET":" ","SECT":" ","MAREA":"大營","LANE":" ","ALLEY":" ","HOUSE_NO":"１３８號","E_COORD97":179587.10000000001,"N_COORD97":2555284,"ADDRESS":"大營１３８號","OBJECTID":76764},"geometry":{"x":179587.10000000056,"y":2555284.0000000019}},{"attributes":{"ID":76765,"DIS_CODE":0,"TOWNNAME":"新市區","LI":"三舍里","LIN":"6鄰","STREET":" ","SECT":" ","MAREA":"三舍","LANE":" ","ALLEY":" ","HOUSE_NO":"１５８之５號","E_COORD97":177913.28,"N_COORD97":2554762.7999999998,"ADDRESS":"三舍１５８之５號","OBJECTID":76765},"geometry":{"x":177913.28000000212,"y":2554762.8000000007}},{"attributes":{"ID":76766,"DIS_CODE":0,"TOWNNAME":"新市區","LI":"三舍里","LIN":"6鄰","STREET":" ","SECT":" ","MAREA":"三舍","LANE":" ","ALLEY":" ","HOUSE_NO":"１６１之１２號","E_COORD97":177905.84,"N_COORD97":2554701.0499999998,"ADDRESS":"三舍１６１之１２號","OBJECTID":76766},"geometry":{"x":177905.84000000078,"y":2554701.0500000045}},{"attributes":{"ID":76767,"DIS_CODE":0,"TOWNNAME":"新市區","LI":"大營里","LIN":"6鄰","STREET":" ","SECT":" ","MAREA":"大營","LANE":" ","ALLEY":" ","HOUSE_NO":"８６之２０號","E_COORD97":179668.95999999999,"N_COORD97":2555294.2999999998,"ADDRESS":"大營８６之２０號","OBJECTID":76767},"geometry":{"x":179668.95999999996,"y":2555294.3000000026}},{"attributes":{"ID":76768,"DIS_CODE":0,"TOWNNAME":"歸仁區","LI":"南保里","LIN":"7鄰","STREET":"民權北路","SECT":" ","MAREA":" ","LANE":" ","ALLEY":" ","HOUSE_NO":"１８３號","E_COORD97":177007.84,"N_COORD97":2541317.29,"ADDRESS":"民權北路１８３號","OBJECTID":76768},"geometry":{"x":177007.84000000078,"y":2541317.290000001}},{"attributes":{"ID":76769,"DIS_CODE":0,"TOWNNAME":"麻豆區","LI":"大埕里","LIN":"7鄰","STREET":" ","SECT":" ","MAREA":"大埕","LANE":" ","ALLEY":" ","HOUSE_NO":"１０號之２","E_COORD97":173225.12,"N_COORD97":2565113.75,"ADDRESS":"大埕１０號之２","OBJECTID":76769},"geometry":{"x":173225.12000000011,"y":2565113.75}},{"attributes":{"ID":76770,"DIS_CODE":0,"TOWNNAME":"麻豆區","LI":"大埕里","LIN":"7鄰","STREET":" ","SECT":" ","MAREA":"大埕","LANE":" ","ALLEY":" ","HOUSE_NO":"１０號","E_COORD97":173230.20000000001,"N_COORD97":2565112.4900000002,"ADDRESS":"大埕１０號","OBJECTID":76770},"geometry":{"x":173230.20000000112,"y":2565112.4899999984}},{"attributes":{"ID":76771,"DIS_CODE":0,"TOWNNAME":"麻豆區","LI":"大埕里","LIN":"7鄰","STREET":" ","SECT":" ","MAREA":"大埕","LANE":" ","ALLEY":" ","HOUSE_NO":"１２號之１","E_COORD97":173229.60999999999,"N_COORD97":2565218.0099999998,"ADDRESS":"大埕１２號之１","OBJECTID":76771},"geometry":{"x":173229.61000000127,"y":2565218.0100000016}},{"attributes":{"ID":76772,"DIS_CODE":0,"TOWNNAME":"新營區","LI":"太南里","LIN":"7鄰","STREET":" ","SECT":" ","MAREA":"太子宮","LANE":" ","ALLEY":" ","HOUSE_NO":"２２２號","E_COORD97":176151.09,"N_COORD97":2576925.79,"ADDRESS":"太子宮２２２號","OBJECTID":76772},"geometry":{"x":176151.09000000171,"y":2576925.790000001}},{"attributes":{"ID":76773,"DIS_CODE":0,"TOWNNAME":"新營區","LI":"太南里","LIN":"7鄰","STREET":" ","SECT":" ","MAREA":"太子宮","LANE":" ","ALLEY":" ","HOUSE_NO":"２１８號","E_COORD97":176134.88,"N_COORD97":2576956.8799999999,"ADDRESS":"太子宮２１８號","OBJECTID":76773},"geometry":{"x":176134.87999999989,"y":2576956.879999999}},{"attributes":{"ID":76774,"DIS_CODE":0,"TOWNNAME":"新市區","LI":"三舍里","LIN":"6鄰","STREET":" ","SECT":" ","MAREA":"三舍","LANE":" ","ALLEY":" ","HOUSE_NO":"１６１號","E_COORD97":177918.37,"N_COORD97":2554653,"ADDRESS":"三舍１６１號","OBJECTID":76774},"geometry":{"x":177918.37000000104,"y":2554653.0000000037}},{"attributes":{"ID":76775,"DIS_CODE":0,"TOWNNAME":"新市區","LI":"三舍里","LIN":"6鄰","STREET":" ","SECT":" ","MAREA":"三舍","LANE":" ","ALLEY":" ","HOUSE_NO":"１５８號","E_COORD97":177835.59,"N_COORD97":2554724,"ADDRESS":"三舍１５８號","OBJECTID":76775},"geometry":{"x":177835.58999999985,"y":2554724}},{"attributes":{"ID":76776,"DIS_CODE":0,"TOWNNAME":"新市區","LI":"大營里","LIN":"6鄰","STREET":" ","SECT":" ","MAREA":"大營","LANE":" ","ALLEY":" ","HOUSE_NO":"１４２號","E_COORD97":179581.23999999999,"N_COORD97":2555301,"ADDRESS":"大營１４２號","OBJECTID":76776},"geometry":{"x":179581.24000000022,"y":2555301.0000000019}},{"attributes":{"ID":76777,"DIS_CODE":0,"TOWNNAME":"新市區","LI":"大營里","LIN":"6鄰","STREET":" ","SECT":" ","MAREA":"大營","LANE":" ","ALLEY":" ","HOUSE_NO":"８７之１１號","E_COORD97":179681.06,"N_COORD97":2555264.2999999998,"ADDRESS":"大營８７之１１號","OBJECTID":76777},"geometry":{"x":179681.06000000052,"y":2555264.3000000007}},{"attributes":{"ID":76778,"DIS_CODE":0,"TOWNNAME":"新市區","LI":"大營里","LIN":"6鄰","STREET":" ","SECT":" ","MAREA":"大營","LANE":" ","ALLEY":" ","HOUSE_NO":"８９號","E_COORD97":179745.57000000001,"N_COORD97":2555236.25,"ADDRESS":"大營８９號","OBJECTID":76778},"geometry":{"x":179745.57000000216,"y":2555236.25}},{"attributes":{"ID":76779,"DIS_CODE":0,"TOWNNAME":"新市區","LI":"三舍里","LIN":"6鄰","STREET":" ","SECT":" ","MAREA":"三舍","LANE":" ","ALLEY":" ","HOUSE_NO":"１３８號","E_COORD97":177775.64000000001,"N_COORD97":2554482.25,"ADDRESS":"三舍１３８號","OBJECTID":76779},"geometry":{"x":177775.63999999966,"y":2554482.2500000019}},{"attributes":{"ID":76780,"DIS_CODE":0,"TOWNNAME":"永康區","LI":"西勢里","LIN":"19鄰","STREET":"富強路","SECT":"一段","MAREA":" ","LANE":"１８５巷","ALLEY":"２弄","HOUSE_NO":"５０號六樓之１","E_COORD97":175613.60999999999,"N_COORD97":2546536.54,"ADDRESS":"富強路一段１８５巷２弄５０號六樓之１","OBJECTID":76780},"geometry":{"x":175613.61000000034,"y":2546536.540000001}},{"attributes":{"ID":76781,"DIS_CODE":0,"TOWNNAME":"新市區","LI":"三舍里","LIN":"6鄰","STREET":" ","SECT":" ","MAREA":"三舍","LANE":" ","ALLEY":" ","HOUSE_NO":"１４４之１號","E_COORD97":177772.70000000001,"N_COORD97":2554527.5499999998,"ADDRESS":"三舍１４４之１號","OBJECTID":76781},"geometry":{"x":177772.70000000019,"y":2554527.5500000007}},{"attributes":{"ID":76782,"DIS_CODE":0,"TOWNNAME":"新市區","LI":"大營里","LIN":"6鄰","STREET":" ","SECT":" ","MAREA":"大營","LANE":" ","ALLEY":" ","HOUSE_NO":"１５５號","E_COORD97":179526.32000000001,"N_COORD97":2555390.5,"ADDRESS":"大營１５５號","OBJECTID":76782},"geometry":{"x":179526.3200000003,"y":2555390.5}},{"attributes":{"ID":76783,"DIS_CODE":0,"TOWNNAME":"新市區","LI":"永就里","LIN":"6鄰","STREET":" ","SECT":" ","MAREA":"永就","LANE":" ","ALLEY":" ","HOUSE_NO":"６０號","E_COORD97":177691.84,"N_COORD97":2551522.5,"ADDRESS":"永就６０號","OBJECTID":76783},"geometry":{"x":177691.83999999985,"y":2551522.5}},{"attributes":{"ID":76784,"DIS_CODE":0,"TOWNNAME":"新市區","LI":"三舍里","LIN":"6鄰","STREET":" ","SECT":" ","MAREA":"三舍","LANE":" ","ALLEY":" ","HOUSE_NO":"１６１之６號","E_COORD97":177917.07000000001,"N_COORD97":2554668.7999999998,"ADDRESS":"三舍１６１之６號","OBJECTID":76784},"geometry":{"x":177917.07000000123,"y":2554668.8000000045}},{"attributes":{"ID":76785,"DIS_CODE":0,"TOWNNAME":"新市區","LI":"三舍里","LIN":"6鄰","STREET":" ","SECT":" ","MAREA":"三舍","LANE":" ","ALLEY":" ","HOUSE_NO":"１５３號","E_COORD97":177666.39999999999,"N_COORD97":2554943,"ADDRESS":"三舍１５３號","OBJECTID":76785},"geometry":{"x":177666.40000000037,"y":2554943}},{"attributes":{"ID":76786,"DIS_CODE":0,"TOWNNAME":"新市區","LI":"三舍里","LIN":"6鄰","STREET":" ","SECT":" ","MAREA":"三舍","LANE":" ","ALLEY":" ","HOUSE_NO":"１５８之２號","E_COORD97":177858.39000000001,"N_COORD97":2554746.5499999998,"ADDRESS":"三舍１５８之２號","OBJECTID":76786},"geometry":{"x":177858.3900000006,"y":2554746.5500000026}},{"attributes":{"ID":76787,"DIS_CODE":0,"TOWNNAME":"永康區","LI":"西勢里","LIN":"19鄰","STREET":"富強路","SECT":"一段","MAREA":" ","LANE":"１８５巷","ALLEY":"２弄","HOUSE_NO":"４２號五樓之１","E_COORD97":175603.32999999999,"N_COORD97":2546515.4300000002,"ADDRESS":"富強路一段１８５巷２弄４２號五樓之１","OBJECTID":76787},"geometry":{"x":175603.33000000007,"y":2546515.4299999997}},{"attributes":{"ID":76788,"DIS_CODE":0,"TOWNNAME":"永康區","LI":"西勢里","LIN":"19鄰","STREET":"富強路","SECT":"一段","MAREA":" ","LANE":"１８５巷","ALLEY":"２弄","HOUSE_NO":"４２號六樓之２","E_COORD97":175603.45999999999,"N_COORD97":2546515.4300000002,"ADDRESS":"富強路一段１８５巷２弄４２號六樓之２","OBJECTID":76788},"geometry":{"x":175603.46000000089,"y":2546515.4299999997}},{"attributes":{"ID":76789,"DIS_CODE":0,"TOWNNAME":"永康區","LI":"西勢里","LIN":"19鄰","STREET":"富強路","SECT":"一段","MAREA":" ","LANE":"１８５巷","ALLEY":"２弄","HOUSE_NO":"５０號六樓之２","E_COORD97":175613.75,"N_COORD97":2546536.54,"ADDRESS":"富強路一段１８５巷２弄５０號六樓之２","OBJECTID":76789},"geometry":{"x":175613.75,"y":2546536.540000001}},{"attributes":{"ID":76790,"DIS_CODE":0,"TOWNNAME":"永康區","LI":"西橋里","LIN":"19鄰","STREET":"大橋三街","SECT":" ","MAREA":" ","LANE":"５７巷","ALLEY":"７弄","HOUSE_NO":"４１號二樓之１","E_COORD97":170508.85999999999,"N_COORD97":2546462.1600000001,"ADDRESS":"大橋三街５７巷７弄４１號二樓之１","OBJECTID":76790},"geometry":{"x":170508.86000000127,"y":2546462.160000002}},{"attributes":{"ID":76791,"DIS_CODE":0,"TOWNNAME":"新市區","LI":"三舍里","LIN":"6鄰","STREET":" ","SECT":" ","MAREA":"三舍","LANE":" ","ALLEY":" ","HOUSE_NO":"１５６號","E_COORD97":177833.14999999999,"N_COORD97":2554630.5,"ADDRESS":"三舍１５６號","OBJECTID":76791},"geometry":{"x":177833.1500000013,"y":2554630.5000000019}},{"attributes":{"ID":76792,"DIS_CODE":0,"TOWNNAME":"新市區","LI":"大營里","LIN":"6鄰","STREET":" ","SECT":" ","MAREA":"大營","LANE":" ","ALLEY":" ","HOUSE_NO":"１００之８號","E_COORD97":179827.60000000001,"N_COORD97":2555226.2999999998,"ADDRESS":"大營１００之８號","OBJECTID":76792},"geometry":{"x":179827.5999999987,"y":2555226.3000000026}},{"attributes":{"ID":76793,"DIS_CODE":0,"TOWNNAME":"新市區","LI":"大營里","LIN":"6鄰","STREET":" ","SECT":" ","MAREA":"大營","LANE":" ","ALLEY":" ","HOUSE_NO":"１２４號","E_COORD97":179676.51000000001,"N_COORD97":2555098.5,"ADDRESS":"大營１２４號","OBJECTID":76793},"geometry":{"x":179676.51000000071,"y":2555098.5000000019}},{"attributes":{"ID":76794,"DIS_CODE":0,"TOWNNAME":"永康區","LI":"西勢里","LIN":"19鄰","STREET":"富強路","SECT":"一段","MAREA":" ","LANE":"１８５巷","ALLEY":"２弄","HOUSE_NO":"４２號三樓之３","E_COORD97":175603.42999999999,"N_COORD97":2546515.4300000002,"ADDRESS":"富強路一段１８５巷２弄４２號三樓之３","OBJECTID":76794},"geometry":{"x":175603.43000000063,"y":2546515.4299999997}},{"attributes":{"ID":76795,"DIS_CODE":0,"TOWNNAME":"永康區","LI":"西橋里","LIN":"19鄰","STREET":"大橋三街","SECT":" ","MAREA":" ","LANE":"５７巷","ALLEY":"７弄","HOUSE_NO":"４１號二樓之５","E_COORD97":170508.89000000001,"N_COORD97":2546462.1600000001,"ADDRESS":"大橋三街５７巷７弄４１號二樓之５","OBJECTID":76795},"geometry":{"x":170508.88999999873,"y":2546462.160000002}},{"attributes":{"ID":76796,"DIS_CODE":0,"TOWNNAME":"永康區","LI":"西勢里","LIN":"19鄰","STREET":"富強路","SECT":"一段","MAREA":" ","LANE":"１８５巷","ALLEY":"２弄","HOUSE_NO":"４２號三樓之１","E_COORD97":175603.32999999999,"N_COORD97":2546515.4300000002,"ADDRESS":"富強路一段１８５巷２弄４２號三樓之１","OBJECTID":76796},"geometry":{"x":175603.33000000007,"y":2546515.4299999997}},{"attributes":{"ID":76797,"DIS_CODE":0,"TOWNNAME":"歸仁區","LI":"崙頂里","LIN":"7鄰","STREET":"崙頂一街","SECT":" ","MAREA":" ","LANE":" ","ALLEY":" ","HOUSE_NO":"５８號","E_COORD97":177976.87,"N_COORD97":2539975.6800000002,"ADDRESS":"崙頂一街５８號","OBJECTID":76797},"geometry":{"x":177976.87000000197,"y":2539975.6800000016}},{"attributes":{"ID":76798,"DIS_CODE":0,"TOWNNAME":"永康區","LI":"西勢里","LIN":"19鄰","STREET":"富強路","SECT":"一段","MAREA":" ","LANE":"１８５巷","ALLEY":"２弄","HOUSE_NO":"５０號三樓之１","E_COORD97":175613.60999999999,"N_COORD97":2546536.54,"ADDRESS":"富強路一段１８５巷２弄５０號三樓之１","OBJECTID":76798},"geometry":{"x":175613.61000000034,"y":2546536.540000001}},{"attributes":{"ID":76799,"DIS_CODE":0,"TOWNNAME":"新營區","LI":"太南里","LIN":"7鄰","STREET":" ","SECT":" ","MAREA":"太子宮","LANE":" ","ALLEY":" ","HOUSE_NO":"２２４之１號","E_COORD97":176095.41,"N_COORD97":2576952.71,"ADDRESS":"太子宮２２４之１號","OBJECTID":76799},"geometry":{"x":176095.41000000108,"y":2576952.7100000028}},{"attributes":{"ID":76800,"DIS_CODE":0,"TOWNNAME":"永康區","LI":"西勢里","LIN":"19鄰","STREET":"富強路","SECT":"一段","MAREA":" ","LANE":"１８５巷","ALLEY":"２弄","HOUSE_NO":"５６號三樓之２","E_COORD97":175621.64999999999,"N_COORD97":2546548.6800000002,"ADDRESS":"富強路一段１８５巷２弄５６號三樓之２","OBJECTID":76800},"geometry":{"x":175621.65000000037,"y":2546548.6800000034}}]}