{"displayFieldName":"TOWNNAME","fieldAliases":{"ID":"ID","DIS_CODE":"DIS_CODE","TOWNNAME":"TOWNNAME","LI":"LI","LIN":"LIN","STREET":"STREET","SECT":"SECT","MAREA":"MAREA","LANE":"LANE","ALLEY":"ALLEY","HOUSE_NO":"HOUSE_NO","E_COORD97":"E_COORD97","N_COORD97":"N_COORD97","ADDRESS":"ADDRESS","OBJECTID":"OBJECTID"},"geometryType":"esriGeometryPoint","spatialReference":{"wkid":102443,"latestWkid":3826},"fields":[{"name":"ID","type":"esriFieldTypeDouble","alias":"ID"},{"name":"DIS_CODE","type":"esriFieldTypeInteger","alias":"DIS_CODE"},{"name":"TOWNNAME","type":"esriFieldTypeString","alias":"TOWNNAME","length":8},{"name":"LI","type":"esriFieldTypeString","alias":"LI","length":8},{"name":"LIN","type":"esriFieldTypeString","alias":"LIN","length":12},{"name":"STREET","type":"esriFieldTypeString","alias":"STREET","length":20},{"name":"SECT","type":"esriFieldTypeString","alias":"SECT","length":8},{"name":"MAREA","type":"esriFieldTypeString","alias":"MAREA","length":12},{"name":"LANE","type":"esriFieldTypeString","alias":"LANE","length":10},{"name":"ALLEY","type":"esriFieldTypeString","alias":"ALLEY","length":10},{"name":"HOUSE_NO","type":"esriFieldTypeString","alias":"HOUSE_NO","length":20},{"name":"E_COORD97","type":"esriFieldTypeDouble","alias":"E_COORD97"},{"name":"N_COORD97","type":"esriFieldTypeDouble","alias":"N_COORD97"},{"name":"ADDRESS","type":"esriFieldTypeString","alias":"ADDRESS","length":50},{"name":"OBJECTID","type":"esriFieldTypeOID","alias":"OBJECTID"}],"features":[{"attributes":{"ID":330410,"DIS_CODE":0,"TOWNNAME":"安南區","LI":"溪心里","LIN":"17鄰","STREET":"功安四街","SECT":" ","MAREA":" ","LANE":" ","ALLEY":" ","HOUSE_NO":"７２號","E_COORD97":166154.19,"N_COORD97":2550228,"ADDRESS":"功安四街７２號","OBJECTID":330401},"geometry":{"x":166154.19000000041,"y":2550228}},{"attributes":{"ID":330411,"DIS_CODE":0,"TOWNNAME":"安南區","LI":"溪心里","LIN":"17鄰","STREET":"功安四街","SECT":" ","MAREA":" ","LANE":" ","ALLEY":" ","HOUSE_NO":"７３號","E_COORD97":166193.82999999999,"N_COORD97":2550135.1899999999,"ADDRESS":"功安四街７３號","OBJECTID":330402},"geometry":{"x":166193.83000000194,"y":2550135.1900000032}},{"attributes":{"ID":330412,"DIS_CODE":0,"TOWNNAME":"安南區","LI":"溪心里","LIN":"17鄰","STREET":"功安四街","SECT":" ","MAREA":" ","LANE":" ","ALLEY":" ","HOUSE_NO":"７５號","E_COORD97":166190.42999999999,"N_COORD97":2550137.3700000001,"ADDRESS":"功安四街７５號","OBJECTID":330403},"geometry":{"x":166190.4299999997,"y":2550137.3700000029}},{"attributes":{"ID":330413,"DIS_CODE":0,"TOWNNAME":"永康區","LI":"崑山里","LIN":" ","STREET":"大仁街","SECT":" ","MAREA":" ","LANE":"５１巷","ALLEY":" ","HOUSE_NO":"５之１號","E_COORD97":173761.10999999999,"N_COORD97":2544642.4199999999,"ADDRESS":"大仁街５１巷５之１號","OBJECTID":330404},"geometry":{"x":173761.11000000034,"y":2544642.4200000018}},{"attributes":{"ID":330414,"DIS_CODE":0,"TOWNNAME":"永康區","LI":"尚頂里","LIN":" ","STREET":"國聖街","SECT":" ","MAREA":" ","LANE":"４３巷","ALLEY":" ","HOUSE_NO":"５８號","E_COORD97":170253.57999999999,"N_COORD97":2547667.2400000002,"ADDRESS":"國聖街４３巷５８號","OBJECTID":330405},"geometry":{"x":170253.58000000007,"y":2547667.2399999984}},{"attributes":{"ID":330415,"DIS_CODE":0,"TOWNNAME":"永康區","LI":"南灣里","LIN":" ","STREET":"南興路","SECT":" ","MAREA":" ","LANE":"１１２巷","ALLEY":" ","HOUSE_NO":"９之２號","E_COORD97":174340.39000000001,"N_COORD97":2544500.9900000002,"ADDRESS":"南興路１１２巷９之２號","OBJECTID":330406},"geometry":{"x":174340.3900000006,"y":2544500.9900000002}},{"attributes":{"ID":330416,"DIS_CODE":0,"TOWNNAME":"永康區","LI":"三民里","LIN":" ","STREET":"和平路","SECT":" ","MAREA":" ","LANE":"２３８巷","ALLEY":" ","HOUSE_NO":"２號","E_COORD97":174772.01000000001,"N_COORD97":2550723.7400000002,"ADDRESS":"和平路２３８巷２號","OBJECTID":330407},"geometry":{"x":174772.01000000071,"y":2550723.7400000021}},{"attributes":{"ID":330417,"DIS_CODE":0,"TOWNNAME":"永康區","LI":"三合里","LIN":" ","STREET":"南工街","SECT":" ","MAREA":" ","LANE":"１５８巷","ALLEY":" ","HOUSE_NO":"４號","E_COORD97":171995.31,"N_COORD97":2545847.4100000001,"ADDRESS":"南工街１５８巷４號","OBJECTID":330408},"geometry":{"x":171995.30999999959,"y":2545847.4100000001}},{"attributes":{"ID":330418,"DIS_CODE":0,"TOWNNAME":"永康區","LI":"尚頂里","LIN":" ","STREET":"國聖街","SECT":" ","MAREA":" ","LANE":"４３巷","ALLEY":" ","HOUSE_NO":"６０號","E_COORD97":170240.72,"N_COORD97":2547653.7400000002,"ADDRESS":"國聖街４３巷６０號","OBJECTID":330409},"geometry":{"x":170240.7200000016,"y":2547653.7399999984}},{"attributes":{"ID":330419,"DIS_CODE":0,"TOWNNAME":"永康區","LI":"三合里","LIN":" ","STREET":"南工街","SECT":" ","MAREA":" ","LANE":"１５８巷","ALLEY":" ","HOUSE_NO":"６號","E_COORD97":171991.01000000001,"N_COORD97":2545848.6600000001,"ADDRESS":"南工街１５８巷６號","OBJECTID":330410},"geometry":{"x":171991.00999999978,"y":2545848.660000002}},{"attributes":{"ID":330420,"DIS_CODE":0,"TOWNNAME":"永康區","LI":"\u25A0洲里","LIN":"5鄰","STREET":"仁愛街","SECT":" ","MAREA":" ","LANE":"１０３巷","ALLEY":" ","HOUSE_NO":"１０６號","E_COORD97":171843.34,"N_COORD97":2549591.02,"ADDRESS":"仁愛街１０３巷１０６號","OBJECTID":330411},"geometry":{"x":171843.33999999985,"y":2549591.0200000014}},{"attributes":{"ID":330421,"DIS_CODE":0,"TOWNNAME":"永康區","LI":"\u25A0洲里","LIN":"40鄰","STREET":"正南六街","SECT":" ","MAREA":" ","LANE":"１０５巷","ALLEY":" ","HOUSE_NO":"１２號","E_COORD97":170784.04000000001,"N_COORD97":2548614.5,"ADDRESS":"正南六街１０５巷１２號","OBJECTID":330412},"geometry":{"x":170784.04000000004,"y":2548614.5}},{"attributes":{"ID":330422,"DIS_CODE":0,"TOWNNAME":"安平區","LI":"金城里","LIN":"15鄰","STREET":"州平三街","SECT":" ","MAREA":" ","LANE":"８巷","ALLEY":" ","HOUSE_NO":"７號","E_COORD97":162799.54000000001,"N_COORD97":2544397.5800000001,"ADDRESS":"州平三街８巷７號","OBJECTID":330413},"geometry":{"x":162799.54000000004,"y":2544397.5800000019}},{"attributes":{"ID":330423,"DIS_CODE":0,"TOWNNAME":"安平區","LI":"金城里","LIN":"15鄰","STREET":"州平三街","SECT":" ","MAREA":" ","LANE":"８巷","ALLEY":" ","HOUSE_NO":"１６號","E_COORD97":162808.42999999999,"N_COORD97":2544405.8300000001,"ADDRESS":"州平三街８巷１６號","OBJECTID":330414},"geometry":{"x":162808.4299999997,"y":2544405.8300000019}},{"attributes":{"ID":330424,"DIS_CODE":0,"TOWNNAME":"安平區","LI":"金城里","LIN":"15鄰","STREET":"州平三街","SECT":" ","MAREA":" ","LANE":"８巷","ALLEY":" ","HOUSE_NO":"１８號","E_COORD97":162813.82999999999,"N_COORD97":2544408.3700000001,"ADDRESS":"州平三街８巷１８號","OBJECTID":330415},"geometry":{"x":162813.83000000101,"y":2544408.370000001}},{"attributes":{"ID":330425,"DIS_CODE":0,"TOWNNAME":"安平區","LI":"金城里","LIN":"15鄰","STREET":"州平三街","SECT":" ","MAREA":" ","LANE":"８巷","ALLEY":" ","HOUSE_NO":"１１號","E_COORD97":162809.70000000001,"N_COORD97":2544402.9700000002,"ADDRESS":"州平三街８巷１１號","OBJECTID":330416},"geometry":{"x":162809.70000000205,"y":2544402.9700000025}},{"attributes":{"ID":330426,"DIS_CODE":0,"TOWNNAME":"安平區","LI":"金城里","LIN":"15鄰","STREET":"州平三街","SECT":" ","MAREA":" ","LANE":"８巷","ALLEY":" ","HOUSE_NO":"１２號","E_COORD97":162803.35000000001,"N_COORD97":2544403.4500000002,"ADDRESS":"州平三街８巷１２號","OBJECTID":330417},"geometry":{"x":162803.35000000056,"y":2544403.450000003}},{"attributes":{"ID":330427,"DIS_CODE":0,"TOWNNAME":"安平區","LI":"金城里","LIN":"15鄰","STREET":"州平三街","SECT":" ","MAREA":" ","LANE":"８巷","ALLEY":" ","HOUSE_NO":"３號","E_COORD97":162789.54000000001,"N_COORD97":2544390.75,"ADDRESS":"州平三街８巷３號","OBJECTID":330418},"geometry":{"x":162789.54000000004,"y":2544390.75}},{"attributes":{"ID":330428,"DIS_CODE":0,"TOWNNAME":"安平區","LI":"金城里","LIN":"15鄰","STREET":"州平三街","SECT":" ","MAREA":" ","LANE":"８巷","ALLEY":" ","HOUSE_NO":"８號","E_COORD97":162791.92000000001,"N_COORD97":2544397.8900000001,"ADDRESS":"州平三街８巷８號","OBJECTID":330419},"geometry":{"x":162791.91999999993,"y":2544397.8900000006}},{"attributes":{"ID":330429,"DIS_CODE":0,"TOWNNAME":"安南區","LI":"溪心里","LIN":"17鄰","STREET":"海佃路","SECT":"三段","MAREA":" ","LANE":" ","ALLEY":" ","HOUSE_NO":"１３０號","E_COORD97":166165.92999999999,"N_COORD97":2550024.5499999998,"ADDRESS":"海佃路三段１３０號","OBJECTID":330420},"geometry":{"x":166165.93000000063,"y":2550024.5500000007}},{"attributes":{"ID":330430,"DIS_CODE":0,"TOWNNAME":"安南區","LI":"溪心里","LIN":"17鄰","STREET":"海佃路","SECT":"三段","MAREA":" ","LANE":" ","ALLEY":" ","HOUSE_NO":"１３６號","E_COORD97":166157.16,"N_COORD97":2550034.5899999999,"ADDRESS":"海佃路三段１３６號","OBJECTID":330421},"geometry":{"x":166157.16000000015,"y":2550034.5900000036}},{"attributes":{"ID":330431,"DIS_CODE":0,"TOWNNAME":"安南區","LI":"溪心里","LIN":"17鄰","STREET":"海佃路","SECT":"三段","MAREA":" ","LANE":" ","ALLEY":" ","HOUSE_NO":"２２８號","E_COORD97":166006.70999999999,"N_COORD97":2550224.1200000001,"ADDRESS":"海佃路三段２２８號","OBJECTID":330422},"geometry":{"x":166006.71000000089,"y":2550224.120000001}},{"attributes":{"ID":330432,"DIS_CODE":0,"TOWNNAME":"安南區","LI":"溪心里","LIN":"17鄰","STREET":"海佃路","SECT":"三段","MAREA":" ","LANE":" ","ALLEY":" ","HOUSE_NO":"２３０號","E_COORD97":166004.92999999999,"N_COORD97":2550228.1099999999,"ADDRESS":"海佃路三段２３０號","OBJECTID":330423},"geometry":{"x":166004.93000000063,"y":2550228.1100000013}},{"attributes":{"ID":330433,"DIS_CODE":0,"TOWNNAME":"安南區","LI":"溪心里","LIN":"17鄰","STREET":"海佃路","SECT":"三段","MAREA":" ","LANE":" ","ALLEY":" ","HOUSE_NO":"２３４號","E_COORD97":165999.94,"N_COORD97":2550235.2000000002,"ADDRESS":"海佃路三段２３４號","OBJECTID":330424},"geometry":{"x":165999.94000000041,"y":2550235.1999999993}},{"attributes":{"ID":330434,"DIS_CODE":0,"TOWNNAME":"安南區","LI":"溪心里","LIN":"17鄰","STREET":"海佃路","SECT":"三段","MAREA":" ","LANE":" ","ALLEY":" ","HOUSE_NO":"２３６號","E_COORD97":165995.95000000001,"N_COORD97":2550238.4199999999,"ADDRESS":"海佃路三段２３６號","OBJECTID":330425},"geometry":{"x":165995.95000000019,"y":2550238.4199999999}},{"attributes":{"ID":330435,"DIS_CODE":0,"TOWNNAME":"安南區","LI":"溪心里","LIN":"17鄰","STREET":"海佃路","SECT":"三段","MAREA":" ","LANE":" ","ALLEY":" ","HOUSE_NO":"２３８號","E_COORD97":165991.85000000001,"N_COORD97":2550241.1899999999,"ADDRESS":"海佃路三段２３８號","OBJECTID":330426},"geometry":{"x":165991.85000000056,"y":2550241.1900000013}},{"attributes":{"ID":330436,"DIS_CODE":0,"TOWNNAME":"安南區","LI":"溪心里","LIN":"17鄰","STREET":"海佃路","SECT":"三段","MAREA":" ","LANE":" ","ALLEY":" ","HOUSE_NO":"２４０號","E_COORD97":165988.95999999999,"N_COORD97":2550244.8399999999,"ADDRESS":"海佃路三段２４０號","OBJECTID":330427},"geometry":{"x":165988.95999999996,"y":2550244.8399999999}},{"attributes":{"ID":330437,"DIS_CODE":0,"TOWNNAME":"永康區","LI":"尚頂里","LIN":" ","STREET":"中華路","SECT":" ","MAREA":" ","LANE":"９１２巷","ALLEY":" ","HOUSE_NO":"７號","E_COORD97":170535.39999999999,"N_COORD97":2546786.5800000001,"ADDRESS":"中華路９１２巷７號","OBJECTID":330428},"geometry":{"x":170535.4000000013,"y":2546786.5800000001}},{"attributes":{"ID":330438,"DIS_CODE":0,"TOWNNAME":"永康區","LI":"勝利里","LIN":"13鄰","STREET":"勝利街","SECT":" ","MAREA":" ","LANE":"７５巷","ALLEY":" ","HOUSE_NO":"２１號","E_COORD97":171273.78,"N_COORD97":2544748.0099999998,"ADDRESS":"勝利街７５巷２１號","OBJECTID":330429},"geometry":{"x":171273.78000000119,"y":2544748.0099999998}},{"attributes":{"ID":330439,"DIS_CODE":0,"TOWNNAME":"永康區","LI":"西勢里","LIN":"24鄰","STREET":"廣興街","SECT":" ","MAREA":" ","LANE":"２６巷","ALLEY":" ","HOUSE_NO":"３號","E_COORD97":175893.45000000001,"N_COORD97":2546538.1400000001,"ADDRESS":"廣興街２６巷３號","OBJECTID":330430},"geometry":{"x":175893.45000000112,"y":2546538.1400000006}},{"attributes":{"ID":330440,"DIS_CODE":0,"TOWNNAME":"永康區","LI":"尚頂里","LIN":" ","STREET":"正南一街","SECT":" ","MAREA":" ","LANE":"１８１巷","ALLEY":" ","HOUSE_NO":"３號","E_COORD97":170668.85000000001,"N_COORD97":2547357.52,"ADDRESS":"正南一街１８１巷３號","OBJECTID":330431},"geometry":{"x":170668.85000000056,"y":2547357.5200000014}},{"attributes":{"ID":330441,"DIS_CODE":0,"TOWNNAME":"永康區","LI":"西勢里","LIN":" ","STREET":"富強路","SECT":"一段","MAREA":" ","LANE":"１９４巷","ALLEY":" ","HOUSE_NO":"２１５之４號","E_COORD97":175694.51999999999,"N_COORD97":2545873.21,"ADDRESS":"富強路一段１９４巷２１５之４號","OBJECTID":330432},"geometry":{"x":175694.51999999955,"y":2545873.2100000028}},{"attributes":{"ID":330442,"DIS_CODE":0,"TOWNNAME":"永康區","LI":"南灣里","LIN":" ","STREET":"南興路","SECT":" ","MAREA":" ","LANE":"９２巷","ALLEY":" ","HOUSE_NO":"３之６號","E_COORD97":174350.63,"N_COORD97":2544254.2999999998,"ADDRESS":"南興路９２巷３之６號","OBJECTID":330433},"geometry":{"x":174350.63000000175,"y":2544254.3000000026}},{"attributes":{"ID":330443,"DIS_CODE":0,"TOWNNAME":"永康區","LI":"尚頂里","LIN":" ","STREET":"南台街","SECT":" ","MAREA":" ","LANE":"２６巷","ALLEY":" ","HOUSE_NO":"３號","E_COORD97":170426.32000000001,"N_COORD97":2546988.7400000002,"ADDRESS":"南台街２６巷３號","OBJECTID":330434},"geometry":{"x":170426.3200000003,"y":2546988.7400000002}},{"attributes":{"ID":330444,"DIS_CODE":0,"TOWNNAME":"永康區","LI":"尚頂里","LIN":" ","STREET":"中華路","SECT":" ","MAREA":" ","LANE":"９１２巷","ALLEY":" ","HOUSE_NO":"５號","E_COORD97":170540.01000000001,"N_COORD97":2546786.5800000001,"ADDRESS":"中華路９１２巷５號","OBJECTID":330435},"geometry":{"x":170540.00999999978,"y":2546786.5800000001}},{"attributes":{"ID":330445,"DIS_CODE":0,"TOWNNAME":"安平區","LI":"金城里","LIN":"15鄰","STREET":"州平三街","SECT":" ","MAREA":" ","LANE":"８巷","ALLEY":" ","HOUSE_NO":"２０號","E_COORD97":162818.59,"N_COORD97":2544411.23,"ADDRESS":"州平三街８巷２０號","OBJECTID":330436},"geometry":{"x":162818.59000000078,"y":2544411.2300000023}},{"attributes":{"ID":330446,"DIS_CODE":0,"TOWNNAME":"安平區","LI":"金城里","LIN":"15鄰","STREET":"州平三街","SECT":" ","MAREA":" ","LANE":"８巷","ALLEY":" ","HOUSE_NO":"１３號","E_COORD97":162815.42000000001,"N_COORD97":2544405.6699999999,"ADDRESS":"州平三街８巷１３號","OBJECTID":330437},"geometry":{"x":162815.42000000086,"y":2544405.6699999999}},{"attributes":{"ID":330447,"DIS_CODE":0,"TOWNNAME":"安平區","LI":"金城里","LIN":"15鄰","STREET":"州平三街","SECT":" ","MAREA":" ","LANE":"８巷","ALLEY":" ","HOUSE_NO":"９號","E_COORD97":162804.45999999999,"N_COORD97":2544400.4300000002,"ADDRESS":"州平三街８巷９號","OBJECTID":330438},"geometry":{"x":162804.46000000089,"y":2544400.4299999997}},{"attributes":{"ID":330448,"DIS_CODE":0,"TOWNNAME":"安平區","LI":"金城里","LIN":"15鄰","STREET":"州平三街","SECT":" ","MAREA":" ","LANE":"８巷","ALLEY":" ","HOUSE_NO":"１５號","E_COORD97":162820.17999999999,"N_COORD97":2544408.0499999998,"ADDRESS":"州平三街８巷１５號","OBJECTID":330439},"geometry":{"x":162820.18000000063,"y":2544408.0500000045}},{"attributes":{"ID":330449,"DIS_CODE":0,"TOWNNAME":"安平區","LI":"金城里","LIN":"15鄰","STREET":"州平二街","SECT":" ","MAREA":" ","LANE":"１９０巷","ALLEY":" ","HOUSE_NO":"２號","E_COORD97":162888.60000000001,"N_COORD97":2544495,"ADDRESS":"州平二街１９０巷２號","OBJECTID":330440},"geometry":{"x":162888.59999999963,"y":2544495}},{"attributes":{"ID":330450,"DIS_CODE":0,"TOWNNAME":"安平區","LI":"金城里","LIN":"15鄰","STREET":"州平二街","SECT":" ","MAREA":" ","LANE":"１９０巷","ALLEY":" ","HOUSE_NO":"６號","E_COORD97":162893.67999999999,"N_COORD97":2544495.8500000001,"ADDRESS":"州平二街１９０巷６號","OBJECTID":330441},"geometry":{"x":162893.6799999997,"y":2544495.8499999996}},{"attributes":{"ID":330451,"DIS_CODE":0,"TOWNNAME":"安平區","LI":"金城里","LIN":"15鄰","STREET":"州平二街","SECT":" ","MAREA":" ","LANE":"１９０巷","ALLEY":" ","HOUSE_NO":"８號","E_COORD97":162897.91,"N_COORD97":2544497.3300000001,"ADDRESS":"州平二街１９０巷８號","OBJECTID":330442},"geometry":{"x":162897.91000000201,"y":2544497.3300000019}},{"attributes":{"ID":330452,"DIS_CODE":0,"TOWNNAME":"安平區","LI":"金城里","LIN":"15鄰","STREET":"州平二街","SECT":" ","MAREA":" ","LANE":"１９０巷","ALLEY":" ","HOUSE_NO":"１０號","E_COORD97":162902.57000000001,"N_COORD97":2544500.29,"ADDRESS":"州平二街１９０巷１０號","OBJECTID":330443},"geometry":{"x":162902.57000000123,"y":2544500.290000001}},{"attributes":{"ID":330453,"DIS_CODE":0,"TOWNNAME":"新化區","LI":"太平里","LIN":"17鄰","STREET":"太平街","SECT":" ","MAREA":" ","LANE":" ","ALLEY":" ","HOUSE_NO":"７９號","E_COORD97":178757.37,"N_COORD97":2548762.25,"ADDRESS":"太平街７９號","OBJECTID":330444},"geometry":{"x":178757.37000000104,"y":2548762.2500000037}},{"attributes":{"ID":330454,"DIS_CODE":0,"TOWNNAME":"白河區","LI":"白河里","LIN":"17鄰","STREET":"開明街","SECT":" ","MAREA":" ","LANE":" ","ALLEY":" ","HOUSE_NO":"２２２號","E_COORD97":190366,"N_COORD97":2583204.6499999999,"ADDRESS":"開明街２２２號","OBJECTID":330445},"geometry":{"x":190366.00000000186,"y":2583204.6500000004}},{"attributes":{"ID":330455,"DIS_CODE":0,"TOWNNAME":"白河區","LI":"白河里","LIN":"17鄰","STREET":"開明街","SECT":" ","MAREA":" ","LANE":" ","ALLEY":" ","HOUSE_NO":"２２８號","E_COORD97":190360.67999999999,"N_COORD97":2583208.1400000001,"ADDRESS":"開明街２２８號","OBJECTID":330446},"geometry":{"x":190360.6799999997,"y":2583208.1400000025}},{"attributes":{"ID":330456,"DIS_CODE":0,"TOWNNAME":"白河區","LI":"白河里","LIN":"17鄰","STREET":"開明街","SECT":" ","MAREA":" ","LANE":" ","ALLEY":" ","HOUSE_NO":"２３０號","E_COORD97":190356.01000000001,"N_COORD97":2583210.3999999999,"ADDRESS":"開明街２３０號","OBJECTID":330447},"geometry":{"x":190356.01000000071,"y":2583210.4000000004}},{"attributes":{"ID":330457,"DIS_CODE":0,"TOWNNAME":"白河區","LI":"白河里","LIN":"17鄰","STREET":"開明街","SECT":" ","MAREA":" ","LANE":" ","ALLEY":" ","HOUSE_NO":"２３２號","E_COORD97":190351.67000000001,"N_COORD97":2583213.2200000002,"ADDRESS":"開明街２３２號","OBJECTID":330448},"geometry":{"x":190351.67000000086,"y":2583213.2200000025}},{"attributes":{"ID":330458,"DIS_CODE":0,"TOWNNAME":"白河區","LI":"白河里","LIN":"17鄰","STREET":"開明街","SECT":" ","MAREA":" ","LANE":" ","ALLEY":" ","HOUSE_NO":"２３６號","E_COORD97":190345.85999999999,"N_COORD97":2583216.8500000001,"ADDRESS":"開明街２３６號","OBJECTID":330449},"geometry":{"x":190345.86000000127,"y":2583216.8499999996}},{"attributes":{"ID":330459,"DIS_CODE":0,"TOWNNAME":"西港區","LI":"慶安里","LIN":"17鄰","STREET":"新興街","SECT":" ","MAREA":" ","LANE":" ","ALLEY":" ","HOUSE_NO":"２９號","E_COORD97":168176.66,"N_COORD97":2557932.4399999999,"ADDRESS":"新興街２９號","OBJECTID":330450},"geometry":{"x":168176.65999999922,"y":2557932.4400000013}},{"attributes":{"ID":330460,"DIS_CODE":0,"TOWNNAME":"西港區","LI":"慶安里","LIN":"17鄰","STREET":"新興街","SECT":" ","MAREA":" ","LANE":" ","ALLEY":" ","HOUSE_NO":"３１號","E_COORD97":168176.28,"N_COORD97":2557937.0699999998,"ADDRESS":"新興街３１號","OBJECTID":330451},"geometry":{"x":168176.28000000119,"y":2557937.0700000003}},{"attributes":{"ID":330461,"DIS_CODE":0,"TOWNNAME":"西港區","LI":"慶安里","LIN":"17鄰","STREET":"新興街","SECT":" ","MAREA":" ","LANE":" ","ALLEY":" ","HOUSE_NO":"３３號","E_COORD97":168175.76000000001,"N_COORD97":2557941.54,"ADDRESS":"新興街３３號","OBJECTID":330452},"geometry":{"x":168175.76000000164,"y":2557941.540000001}},{"attributes":{"ID":330462,"DIS_CODE":0,"TOWNNAME":"永康區","LI":"安康里","LIN":" ","STREET":"中華路","SECT":" ","MAREA":" ","LANE":"６６１巷","ALLEY":" ","HOUSE_NO":"９號","E_COORD97":170965.20000000001,"N_COORD97":2546203,"ADDRESS":"中華路６６１巷９號","OBJECTID":330453},"geometry":{"x":170965.20000000205,"y":2546203}},{"attributes":{"ID":330463,"DIS_CODE":0,"TOWNNAME":"永康區","LI":"復華里","LIN":" ","STREET":"復國一路","SECT":" ","MAREA":" ","LANE":"１７３巷","ALLEY":" ","HOUSE_NO":"３３號","E_COORD97":172582.10000000001,"N_COORD97":2545211.25,"ADDRESS":"復國一路１７３巷３３號","OBJECTID":330454},"geometry":{"x":172582.09999999963,"y":2545211.25}},{"attributes":{"ID":330464,"DIS_CODE":0,"TOWNNAME":"永康區","LI":"復華里","LIN":" ","STREET":"復國一路","SECT":" ","MAREA":" ","LANE":"１５９巷","ALLEY":" ","HOUSE_NO":"４號","E_COORD97":172691.91,"N_COORD97":2545179.8700000001,"ADDRESS":"復國一路１５９巷４號","OBJECTID":330455},"geometry":{"x":172691.91000000108,"y":2545179.8700000029}},{"attributes":{"ID":330465,"DIS_CODE":0,"TOWNNAME":"永康區","LI":"尚頂里","LIN":" ","STREET":"中正南路","SECT":" ","MAREA":" ","LANE":"２１０巷","ALLEY":" ","HOUSE_NO":"４號","E_COORD97":170086.17000000001,"N_COORD97":2547284.0600000001,"ADDRESS":"中正南路２１０巷４號","OBJECTID":330456},"geometry":{"x":170086.16999999993,"y":2547284.0600000024}},{"attributes":{"ID":330466,"DIS_CODE":0,"TOWNNAME":"安平區","LI":"金城里","LIN":"15鄰","STREET":"州平二街","SECT":" ","MAREA":" ","LANE":"１９０巷","ALLEY":" ","HOUSE_NO":"１２號","E_COORD97":162907.23000000001,"N_COORD97":2544501.3500000001,"ADDRESS":"州平二街１９０巷１２號","OBJECTID":330457},"geometry":{"x":162907.23000000045,"y":2544501.3499999996}},{"attributes":{"ID":330467,"DIS_CODE":0,"TOWNNAME":"安平區","LI":"金城里","LIN":"15鄰","STREET":"州平二街","SECT":" ","MAREA":" ","LANE":"１９０巷","ALLEY":" ","HOUSE_NO":"１６號","E_COORD97":162912.09,"N_COORD97":2544504.7400000002,"ADDRESS":"州平二街１９０巷１６號","OBJECTID":330458},"geometry":{"x":162912.09000000078,"y":2544504.7400000021}},{"attributes":{"ID":330468,"DIS_CODE":0,"TOWNNAME":"安平區","LI":"金城里","LIN":"15鄰","STREET":"州平二街","SECT":" ","MAREA":" ","LANE":"１９０巷","ALLEY":" ","HOUSE_NO":"１８號","E_COORD97":162917.39000000001,"N_COORD97":2544507.2799999998,"ADDRESS":"州平二街１９０巷１８號","OBJECTID":330459},"geometry":{"x":162917.38999999966,"y":2544507.2800000012}},{"attributes":{"ID":330469,"DIS_CODE":0,"TOWNNAME":"安平區","LI":"金城里","LIN":"15鄰","STREET":"州平二街","SECT":" ","MAREA":" ","LANE":"１９０巷","ALLEY":" ","HOUSE_NO":"２０號","E_COORD97":162923.31,"N_COORD97":2544507.4900000002,"ADDRESS":"州平二街１９０巷２０號","OBJECTID":330460},"geometry":{"x":162923.30999999959,"y":2544507.4900000021}},{"attributes":{"ID":330470,"DIS_CODE":0,"TOWNNAME":"南區","LI":"田寮里","LIN":"15鄰","STREET":"新興路","SECT":" ","MAREA":" ","LANE":"９１巷","ALLEY":" ","HOUSE_NO":"６號","E_COORD97":167608.69,"N_COORD97":2542144.0499999998,"ADDRESS":"新興路９１巷６號","OBJECTID":330461},"geometry":{"x":167608.69000000041,"y":2542144.0500000026}},{"attributes":{"ID":330471,"DIS_CODE":0,"TOWNNAME":"永康區","LI":"南灣里","LIN":"17鄰","STREET":"大灣路","SECT":" ","MAREA":" ","LANE":" ","ALLEY":" ","HOUSE_NO":"６６０號","E_COORD97":174443.79999999999,"N_COORD97":2544598.1000000001,"ADDRESS":"大灣路６６０號","OBJECTID":330462},"geometry":{"x":174443.79999999981,"y":2544598.0999999996}},{"attributes":{"ID":330472,"DIS_CODE":0,"TOWNNAME":"永康區","LI":"南灣里","LIN":"17鄰","STREET":"大灣路","SECT":" ","MAREA":" ","LANE":" ","ALLEY":" ","HOUSE_NO":"６７０號","E_COORD97":174420.69,"N_COORD97":2544592.3500000001,"ADDRESS":"大灣路６７０號","OBJECTID":330463},"geometry":{"x":174420.69000000134,"y":2544592.3500000015}},{"attributes":{"ID":330473,"DIS_CODE":0,"TOWNNAME":"永康區","LI":"南灣里","LIN":"17鄰","STREET":"大灣路","SECT":" ","MAREA":" ","LANE":" ","ALLEY":" ","HOUSE_NO":"６９０號","E_COORD97":174374.66,"N_COORD97":2544583.96,"ADDRESS":"大灣路６９０號","OBJECTID":330464},"geometry":{"x":174374.66000000108,"y":2544583.9600000009}},{"attributes":{"ID":330474,"DIS_CODE":0,"TOWNNAME":"永康區","LI":"南灣里","LIN":"17鄰","STREET":"大灣路","SECT":" ","MAREA":" ","LANE":" ","ALLEY":" ","HOUSE_NO":"７０４號","E_COORD97":174344.26999999999,"N_COORD97":2544576.27,"ADDRESS":"大灣路７０４號","OBJECTID":330465},"geometry":{"x":174344.27000000142,"y":2544576.2700000014}},{"attributes":{"ID":330475,"DIS_CODE":0,"TOWNNAME":"永康區","LI":"\u25A0洲里","LIN":"4鄰","STREET":"\u25A0洲二街","SECT":" ","MAREA":" ","LANE":"１３３巷","ALLEY":" ","HOUSE_NO":"９號","E_COORD97":171614.98000000001,"N_COORD97":2549357.5299999998,"ADDRESS":"\u25A0洲二街１３３巷９號","OBJECTID":330466},"geometry":{"x":171614.98000000138,"y":2549357.5300000012}},{"attributes":{"ID":330476,"DIS_CODE":0,"TOWNNAME":"永康區","LI":"尚頂里","LIN":" ","STREET":"正南一街","SECT":" ","MAREA":" ","LANE":"１１８巷","ALLEY":" ","HOUSE_NO":"２１號","E_COORD97":170957.03,"N_COORD97":2547363.02,"ADDRESS":"正南一街１１８巷２１號","OBJECTID":330467},"geometry":{"x":170957.03000000119,"y":2547363.0199999977}},{"attributes":{"ID":330477,"DIS_CODE":0,"TOWNNAME":"永康區","LI":"西勢里","LIN":" ","STREET":"富強路","SECT":"一段","MAREA":" ","LANE":"１９４巷","ALLEY":" ","HOUSE_NO":"２１５之５號","E_COORD97":175694.98999999999,"N_COORD97":2545882.79,"ADDRESS":"富強路一段１９４巷２１５之５號","OBJECTID":330468},"geometry":{"x":175694.99000000115,"y":2545882.7900000028}},{"attributes":{"ID":330478,"DIS_CODE":0,"TOWNNAME":"歸仁區","LI":"武東里","LIN":"6鄰","STREET":"高鐵七路","SECT":" ","MAREA":" ","LANE":"１１０巷","ALLEY":" ","HOUSE_NO":"１０號","E_COORD97":175910.024481,"N_COORD97":2535676.3119299999,"ADDRESS":"高鐵七路１１０巷１０號","OBJECTID":330469},"geometry":{"x":175910.02448100131,"y":2535676.3119340017}},{"attributes":{"ID":330479,"DIS_CODE":0,"TOWNNAME":"鹽水區","LI":"岸內里","LIN":"11鄰","STREET":"朝琴路","SECT":" ","MAREA":" ","LANE":"２４９巷","ALLEY":" ","HOUSE_NO":"１２號","E_COORD97":175804.70999999999,"N_COORD97":2580503.3700000001,"ADDRESS":"朝琴路２４９巷１２號","OBJECTID":330470},"geometry":{"x":175804.71000000183,"y":2580503.3700000048}},{"attributes":{"ID":330480,"DIS_CODE":0,"TOWNNAME":"永康區","LI":"甲頂里","LIN":" ","STREET":"中正南路","SECT":" ","MAREA":" ","LANE":"５２巷","ALLEY":" ","HOUSE_NO":"５７號","E_COORD97":169883.62,"N_COORD97":2546793.4900000002,"ADDRESS":"中正南路５２巷５７號","OBJECTID":330471},"geometry":{"x":169883.62000000011,"y":2546793.4900000002}},{"attributes":{"ID":330481,"DIS_CODE":0,"TOWNNAME":"東山區","LI":"科里里","LIN":"2鄰","STREET":" ","SECT":" ","MAREA":"下庄子","LANE":" ","ALLEY":" ","HOUSE_NO":"２０號之１","E_COORD97":189581.84451,"N_COORD97":2578409.6041799998,"ADDRESS":"下庄子２０號之１","OBJECTID":330472},"geometry":{"x":189581.84451000206,"y":2578409.6041800026}},{"attributes":{"ID":330482,"DIS_CODE":0,"TOWNNAME":"永康區","LI":"烏竹里","LIN":"17鄰","STREET":"龍橋街","SECT":" ","MAREA":" ","LANE":" ","ALLEY":" ","HOUSE_NO":"２６５號","E_COORD97":174558.51000000001,"N_COORD97":2548863.9900000002,"ADDRESS":"龍橋街２６５號","OBJECTID":330473},"geometry":{"x":174558.51000000071,"y":2548863.9900000021}},{"attributes":{"ID":330483,"DIS_CODE":0,"TOWNNAME":"永康區","LI":"烏竹里","LIN":"17鄰","STREET":"龍橋街","SECT":" ","MAREA":" ","LANE":" ","ALLEY":" ","HOUSE_NO":"２７５號","E_COORD97":174549.29000000001,"N_COORD97":2548885.8900000001,"ADDRESS":"龍橋街２７５號","OBJECTID":330474},"geometry":{"x":174549.29000000004,"y":2548885.8900000006}},{"attributes":{"ID":330484,"DIS_CODE":0,"TOWNNAME":"永康區","LI":"南灣里","LIN":"17鄰","STREET":"立興街","SECT":" ","MAREA":" ","LANE":" ","ALLEY":" ","HOUSE_NO":"１５７號","E_COORD97":174347.76000000001,"N_COORD97":2544609.1299999999,"ADDRESS":"立興街１５７號","OBJECTID":330475},"geometry":{"x":174347.75999999885,"y":2544609.1300000008}},{"attributes":{"ID":330485,"DIS_CODE":0,"TOWNNAME":"永康區","LI":"烏竹里","LIN":"17鄰","STREET":"龍橋街","SECT":" ","MAREA":" ","LANE":" ","ALLEY":" ","HOUSE_NO":"２７３號","E_COORD97":174550.95000000001,"N_COORD97":2548882.1200000001,"ADDRESS":"龍橋街２７３號","OBJECTID":330476},"geometry":{"x":174550.95000000112,"y":2548882.120000001}},{"attributes":{"ID":330486,"DIS_CODE":0,"TOWNNAME":"永康區","LI":"埔園里","LIN":"17鄰","STREET":"八德街","SECT":" ","MAREA":" ","LANE":" ","ALLEY":" ","HOUSE_NO":"４３２號","E_COORD97":173360.85999999999,"N_COORD97":2548541.98,"ADDRESS":"八德街４３２號","OBJECTID":330477},"geometry":{"x":173360.86000000034,"y":2548541.9800000023}},{"attributes":{"ID":330487,"DIS_CODE":0,"TOWNNAME":"山上區","LI":"明和里","LIN":"20鄰","STREET":" ","SECT":" ","MAREA":"明和","LANE":" ","ALLEY":" ","HOUSE_NO":"７５之１３號","E_COORD97":182817.0784,"N_COORD97":2555981.7923900001,"ADDRESS":"明和７５之１３號","OBJECTID":330478},"geometry":{"x":182817.07840000093,"y":2555981.7923870012}},{"attributes":{"ID":330488,"DIS_CODE":0,"TOWNNAME":"永康區","LI":"永康里","LIN":" ","STREET":"中山南路","SECT":" ","MAREA":" ","LANE":"６２１巷","ALLEY":" ","HOUSE_NO":"１６號","E_COORD97":173558.76999999999,"N_COORD97":2547303.9100000001,"ADDRESS":"中山南路６２１巷１６號","OBJECTID":330479},"geometry":{"x":173558.76999999955,"y":2547303.910000002}},{"attributes":{"ID":330489,"DIS_CODE":0,"TOWNNAME":"永康區","LI":"尚頂里","LIN":" ","STREET":"國聖街","SECT":" ","MAREA":" ","LANE":"４３巷","ALLEY":" ","HOUSE_NO":"２號","E_COORD97":170344.42000000001,"N_COORD97":2547869.3599999999,"ADDRESS":"國聖街４３巷２號","OBJECTID":330480},"geometry":{"x":170344.41999999993,"y":2547869.3600000031}},{"attributes":{"ID":330490,"DIS_CODE":0,"TOWNNAME":"永康區","LI":"六合里","LIN":" ","STREET":"六合路","SECT":" ","MAREA":" ","LANE":"４２巷","ALLEY":" ","HOUSE_NO":"５６號","E_COORD97":171339.87,"N_COORD97":2545517.25,"ADDRESS":"六合路４２巷５６號","OBJECTID":330481},"geometry":{"x":171339.87000000011,"y":2545517.25}},{"attributes":{"ID":330491,"DIS_CODE":0,"TOWNNAME":"永康區","LI":"永康里","LIN":" ","STREET":"中山南路","SECT":" ","MAREA":" ","LANE":"６２１巷","ALLEY":" ","HOUSE_NO":"３４號","E_COORD97":173548.01000000001,"N_COORD97":2547339.25,"ADDRESS":"中山南路６２１巷３４號","OBJECTID":330482},"geometry":{"x":173548.01000000071,"y":2547339.2500000019}},{"attributes":{"ID":330492,"DIS_CODE":0,"TOWNNAME":"永康區","LI":"尚頂里","LIN":" ","STREET":"國聖街","SECT":" ","MAREA":" ","LANE":"４３巷","ALLEY":" ","HOUSE_NO":"６９號","E_COORD97":170252.64000000001,"N_COORD97":2547629.98,"ADDRESS":"國聖街４３巷６９號","OBJECTID":330483},"geometry":{"x":170252.63999999966,"y":2547629.9800000023}},{"attributes":{"ID":330493,"DIS_CODE":0,"TOWNNAME":"永康區","LI":"\u25A0洲里","LIN":"25鄰","STREET":"洲工街","SECT":" ","MAREA":" ","LANE":"９巷","ALLEY":" ","HOUSE_NO":"４號","E_COORD97":170593.37,"N_COORD97":2548031.7400000002,"ADDRESS":"洲工街９巷４號","OBJECTID":330484},"geometry":{"x":170593.37000000104,"y":2548031.7400000021}},{"attributes":{"ID":330494,"DIS_CODE":0,"TOWNNAME":"永康區","LI":"尚頂里","LIN":" ","STREET":"國聖街","SECT":" ","MAREA":" ","LANE":"４３巷","ALLEY":" ","HOUSE_NO":"７３號","E_COORD97":170243.64000000001,"N_COORD97":2547616.73,"ADDRESS":"國聖街４３巷７３號","OBJECTID":330485},"geometry":{"x":170243.6400000006,"y":2547616.7299999986}},{"attributes":{"ID":330495,"DIS_CODE":0,"TOWNNAME":"永康區","LI":"尚頂里","LIN":"32鄰","STREET":"中正南路","SECT":" ","MAREA":" ","LANE":"３１３巷","ALLEY":" ","HOUSE_NO":"１１號","E_COORD97":170152.10000000001,"N_COORD97":2547563.5,"ADDRESS":"中正南路３１３巷１１號","OBJECTID":330486},"geometry":{"x":170152.10000000056,"y":2547563.5}},{"attributes":{"ID":330496,"DIS_CODE":0,"TOWNNAME":"鹽水區","LI":"岸內里","LIN":"11鄰","STREET":"朝琴路","SECT":" ","MAREA":" ","LANE":"２４９巷","ALLEY":" ","HOUSE_NO":"１８號","E_COORD97":175796.59,"N_COORD97":2580508.0699999998,"ADDRESS":"朝琴路２４９巷１８號","OBJECTID":330487},"geometry":{"x":175796.58999999985,"y":2580508.070000004}},{"attributes":{"ID":330497,"DIS_CODE":0,"TOWNNAME":"永康區","LI":"南灣里","LIN":"17鄰","STREET":"大灣路","SECT":" ","MAREA":" ","LANE":" ","ALLEY":" ","HOUSE_NO":"７１２號","E_COORD97":174326.63,"N_COORD97":2544572.52,"ADDRESS":"大灣路７１２號","OBJECTID":330488},"geometry":{"x":174326.62999999989,"y":2544572.5199999996}},{"attributes":{"ID":330498,"DIS_CODE":0,"TOWNNAME":"永康區","LI":"南灣里","LIN":"17鄰","STREET":"大灣路","SECT":" ","MAREA":" ","LANE":" ","ALLEY":" ","HOUSE_NO":"６７４號","E_COORD97":174411.82999999999,"N_COORD97":2544590.3599999999,"ADDRESS":"大灣路６７４號","OBJECTID":330489},"geometry":{"x":174411.83000000007,"y":2544590.3599999994}},{"attributes":{"ID":330499,"DIS_CODE":0,"TOWNNAME":"永康區","LI":"西勢里","LIN":"17鄰","STREET":"富強路","SECT":"一段","MAREA":" ","LANE":" ","ALLEY":" ","HOUSE_NO":"２６０號","E_COORD97":175689.45000000001,"N_COORD97":2546506.27,"ADDRESS":"富強路一段２６０號","OBJECTID":330490},"geometry":{"x":175689.45000000019,"y":2546506.2699999996}},{"attributes":{"ID":330500,"DIS_CODE":0,"TOWNNAME":"永康區","LI":"西勢里","LIN":"17鄰","STREET":"富強路","SECT":"一段","MAREA":" ","LANE":" ","ALLEY":" ","HOUSE_NO":"２４４號","E_COORD97":175664.84,"N_COORD97":2546464.02,"ADDRESS":"富強路一段２４４號","OBJECTID":330491},"geometry":{"x":175664.84000000078,"y":2546464.0199999996}},{"attributes":{"ID":330501,"DIS_CODE":0,"TOWNNAME":"永康區","LI":"西橋里","LIN":"17鄰","STREET":"大橋三街","SECT":" ","MAREA":" ","LANE":" ","ALLEY":" ","HOUSE_NO":"４６號","E_COORD97":170573.62,"N_COORD97":2546468.2400000002,"ADDRESS":"大橋三街４６號","OBJECTID":330492},"geometry":{"x":170573.62000000011,"y":2546468.2400000021}},{"attributes":{"ID":330502,"DIS_CODE":0,"TOWNNAME":"永康區","LI":"西橋里","LIN":"17鄰","STREET":"大橋三街","SECT":" ","MAREA":" ","LANE":" ","ALLEY":" ","HOUSE_NO":"４０號","E_COORD97":170567.48000000001,"N_COORD97":2546458.7400000002,"ADDRESS":"大橋三街４０號","OBJECTID":330493},"geometry":{"x":170567.48000000138,"y":2546458.7400000021}},{"attributes":{"ID":330503,"DIS_CODE":0,"TOWNNAME":"東區","LI":"裕聖里","LIN":"17鄰","STREET":"裕華一街","SECT":" ","MAREA":" ","LANE":" ","ALLEY":" ","HOUSE_NO":"２號","E_COORD97":172675.79000000001,"N_COORD97":2542180.0499999998,"ADDRESS":"裕華一街２號","OBJECTID":330494},"geometry":{"x":172675.79000000004,"y":2542180.0500000007}},{"attributes":{"ID":330504,"DIS_CODE":0,"TOWNNAME":"東區","LI":"裕聖里","LIN":"17鄰","STREET":"裕華一街","SECT":" ","MAREA":" ","LANE":" ","ALLEY":" ","HOUSE_NO":"６號","E_COORD97":172699.04000000001,"N_COORD97":2542180.7000000002,"ADDRESS":"裕華一街６號","OBJECTID":330495},"geometry":{"x":172699.04000000097,"y":2542180.6999999993}},{"attributes":{"ID":330505,"DIS_CODE":0,"TOWNNAME":"東區","LI":"裕聖里","LIN":"17鄰","STREET":"裕華二街","SECT":" ","MAREA":" ","LANE":" ","ALLEY":" ","HOUSE_NO":"１０號","E_COORD97":172703.63,"N_COORD97":2542158.27,"ADDRESS":"裕華二街１０號","OBJECTID":330496},"geometry":{"x":172703.63000000082,"y":2542158.2700000014}},{"attributes":{"ID":330506,"DIS_CODE":0,"TOWNNAME":"麻豆區","LI":"北勢里","LIN":"4鄰","STREET":" ","SECT":" ","MAREA":"加輦邦","LANE":" ","ALLEY":" ","HOUSE_NO":"３３號之３","E_COORD97":172995.19,"N_COORD97":2567136.4100000001,"ADDRESS":"加輦邦３３號之３","OBJECTID":330497},"geometry":{"x":172995.19000000134,"y":2567136.4100000001}},{"attributes":{"ID":330507,"DIS_CODE":0,"TOWNNAME":"永康區","LI":"\u25A0洲里","LIN":"25鄰","STREET":"國聖街","SECT":" ","MAREA":" ","LANE":"１６７巷","ALLEY":" ","HOUSE_NO":"１２號","E_COORD97":170647.14000000001,"N_COORD97":2548286.25,"ADDRESS":"國聖街１６７巷１２號","OBJECTID":330498},"geometry":{"x":170647.13999999966,"y":2548286.25}},{"attributes":{"ID":330508,"DIS_CODE":0,"TOWNNAME":"永康區","LI":"\u25A0洲里","LIN":"4鄰","STREET":"\u25A0洲二街","SECT":" ","MAREA":" ","LANE":"１５３巷","ALLEY":" ","HOUSE_NO":"２６號","E_COORD97":171651.45999999999,"N_COORD97":2549422.4199999999,"ADDRESS":"\u25A0洲二街１５３巷２６號","OBJECTID":330499},"geometry":{"x":171651.46000000183,"y":2549422.4200000037}},{"attributes":{"ID":330509,"DIS_CODE":0,"TOWNNAME":"永康區","LI":"\u25A0洲里","LIN":"4鄰","STREET":"\u25A0洲二街","SECT":" ","MAREA":" ","LANE":"１５３巷","ALLEY":" ","HOUSE_NO":"１號","E_COORD97":171660.64999999999,"N_COORD97":2549380.2400000002,"ADDRESS":"\u25A0洲二街１５３巷１號","OBJECTID":330500},"geometry":{"x":171660.65000000224,"y":2549380.2400000021}},{"attributes":{"ID":330510,"DIS_CODE":0,"TOWNNAME":"永康區","LI":"尚頂里","LIN":" ","STREET":"尚頂路","SECT":" ","MAREA":" ","LANE":"５２０巷","ALLEY":" ","HOUSE_NO":"７號","E_COORD97":171227.12,"N_COORD97":2547534.48,"ADDRESS":"尚頂路５２０巷７號","OBJECTID":330501},"geometry":{"x":171227.12000000104,"y":2547534.4800000023}},{"attributes":{"ID":330511,"DIS_CODE":0,"TOWNNAME":"永康區","LI":"東橋里","LIN":" ","STREET":"大橋一街","SECT":" ","MAREA":" ","LANE":"３２４巷","ALLEY":" ","HOUSE_NO":"１１號","E_COORD97":171525.69,"N_COORD97":2546369.73,"ADDRESS":"大橋一街３２４巷１１號","OBJECTID":330502},"geometry":{"x":171525.69000000134,"y":2546369.7300000023}},{"attributes":{"ID":330512,"DIS_CODE":0,"TOWNNAME":"鹽水區","LI":"岸內里","LIN":"15鄰","STREET":"蔦松路","SECT":" ","MAREA":" ","LANE":"１１巷","ALLEY":" ","HOUSE_NO":"１０號","E_COORD97":175526.48999999999,"N_COORD97":2580386.8199999998,"ADDRESS":"蔦松路１１巷１０號","OBJECTID":330503},"geometry":{"x":175526.49000000022,"y":2580386.8200000003}},{"attributes":{"ID":330513,"DIS_CODE":0,"TOWNNAME":"鹽水區","LI":"岸內里","LIN":"15鄰","STREET":"蔦松路","SECT":" ","MAREA":" ","LANE":"１１巷","ALLEY":" ","HOUSE_NO":"１２號","E_COORD97":175529.51000000001,"N_COORD97":2580404.7400000002,"ADDRESS":"蔦松路１１巷１２號","OBJECTID":330504},"geometry":{"x":175529.51000000164,"y":2580404.7399999984}},{"attributes":{"ID":330514,"DIS_CODE":0,"TOWNNAME":"鹽水區","LI":"岸內里","LIN":"15鄰","STREET":"蔦松路","SECT":" ","MAREA":" ","LANE":"１１巷","ALLEY":" ","HOUSE_NO":"１６號","E_COORD97":175517.32999999999,"N_COORD97":2580384.9399999999,"ADDRESS":"蔦松路１１巷１６號","OBJECTID":330505},"geometry":{"x":175517.32999999914,"y":2580384.9399999995}},{"attributes":{"ID":330515,"DIS_CODE":0,"TOWNNAME":"東區","LI":"裕聖里","LIN":"17鄰","STREET":"裕華二街","SECT":" ","MAREA":" ","LANE":" ","ALLEY":" ","HOUSE_NO":"１２號","E_COORD97":172703.95000000001,"N_COORD97":2542155.1600000001,"ADDRESS":"裕華二街１２號","OBJECTID":330506},"geometry":{"x":172703.95000000019,"y":2542155.1600000039}},{"attributes":{"ID":330516,"DIS_CODE":0,"TOWNNAME":"東區","LI":"裕聖里","LIN":"17鄰","STREET":"裕華二街","SECT":" ","MAREA":" ","LANE":" ","ALLEY":" ","HOUSE_NO":"１６號","E_COORD97":172703.95000000001,"N_COORD97":2542151.5600000001,"ADDRESS":"裕華二街１６號","OBJECTID":330507},"geometry":{"x":172703.95000000019,"y":2542151.5600000005}},{"attributes":{"ID":330517,"DIS_CODE":0,"TOWNNAME":"東區","LI":"裕聖里","LIN":"17鄰","STREET":"裕華二街","SECT":" ","MAREA":" ","LANE":" ","ALLEY":" ","HOUSE_NO":"１８號","E_COORD97":172703.95000000001,"N_COORD97":2542147.96,"ADDRESS":"裕華二街１８號","OBJECTID":330508},"geometry":{"x":172703.95000000019,"y":2542147.9600000028}},{"attributes":{"ID":330518,"DIS_CODE":0,"TOWNNAME":"東區","LI":"裕聖里","LIN":"17鄰","STREET":"裕華二街","SECT":" ","MAREA":" ","LANE":" ","ALLEY":" ","HOUSE_NO":"２０號","E_COORD97":172704.12,"N_COORD97":2542142.5499999998,"ADDRESS":"裕華二街２０號","OBJECTID":330509},"geometry":{"x":172704.12000000011,"y":2542142.5500000007}},{"attributes":{"ID":330519,"DIS_CODE":0,"TOWNNAME":"東區","LI":"裕聖里","LIN":"17鄰","STREET":"裕華二街","SECT":" ","MAREA":" ","LANE":" ","ALLEY":" ","HOUSE_NO":"２２號","E_COORD97":172704.12,"N_COORD97":2542138.1299999999,"ADDRESS":"裕華二街２２號","OBJECTID":330510},"geometry":{"x":172704.12000000011,"y":2542138.1300000008}},{"attributes":{"ID":330520,"DIS_CODE":0,"TOWNNAME":"東區","LI":"裕聖里","LIN":"17鄰","STREET":"裕華二街","SECT":" ","MAREA":" ","LANE":" ","ALLEY":" ","HOUSE_NO":"２６號","E_COORD97":172704.45000000001,"N_COORD97":2542132.3999999999,"ADDRESS":"裕華二街２６號","OBJECTID":330511},"geometry":{"x":172704.45000000205,"y":2542132.4000000004}},{"attributes":{"ID":330521,"DIS_CODE":0,"TOWNNAME":"永康區","LI":"永康里","LIN":" ","STREET":"永信路","SECT":" ","MAREA":" ","LANE":"５８巷","ALLEY":" ","HOUSE_NO":"６２之１１號","E_COORD97":174170.01999999999,"N_COORD97":2546478.9500000002,"ADDRESS":"永信路５８巷６２之１１號","OBJECTID":330512},"geometry":{"x":174170.02000000048,"y":2546478.9500000011}},{"attributes":{"ID":330522,"DIS_CODE":0,"TOWNNAME":"永康區","LI":"中華里","LIN":"5鄰","STREET":"忠勇街","SECT":" ","MAREA":" ","LANE":"３２巷","ALLEY":" ","HOUSE_NO":"１３號","E_COORD97":171971.79000000001,"N_COORD97":2544432.4900000002,"ADDRESS":"忠勇街３２巷１３號","OBJECTID":330513},"geometry":{"x":171971.79000000097,"y":2544432.4900000021}},{"attributes":{"ID":330523,"DIS_CODE":0,"TOWNNAME":"永康區","LI":"\u25A0洲里","LIN":"38鄰","STREET":"\u25A0行路","SECT":" ","MAREA":" ","LANE":"１８８巷","ALLEY":" ","HOUSE_NO":"１５號","E_COORD97":171297.60000000001,"N_COORD97":2549245.3599999999,"ADDRESS":"\u25A0行路１８８巷１５號","OBJECTID":330514},"geometry":{"x":171297.60000000149,"y":2549245.3599999994}},{"attributes":{"ID":330524,"DIS_CODE":0,"TOWNNAME":"永康區","LI":"\u25A0洲里","LIN":"38鄰","STREET":"\u25A0行路","SECT":" ","MAREA":" ","LANE":"１８８巷","ALLEY":" ","HOUSE_NO":"７號","E_COORD97":171307.81,"N_COORD97":2549233.6099999999,"ADDRESS":"\u25A0行路１８８巷７號","OBJECTID":330515},"geometry":{"x":171307.80999999866,"y":2549233.6099999994}},{"attributes":{"ID":330525,"DIS_CODE":0,"TOWNNAME":"永康區","LI":"\u25A0洲里","LIN":" ","STREET":"正南二街","SECT":" ","MAREA":" ","LANE":"８６巷","ALLEY":" ","HOUSE_NO":"１７號","E_COORD97":170759.01000000001,"N_COORD97":2548464.2400000002,"ADDRESS":"正南二街８６巷１７號","OBJECTID":330516},"geometry":{"x":170759.00999999978,"y":2548464.2400000039}},{"attributes":{"ID":330526,"DIS_CODE":0,"TOWNNAME":"鹽水區","LI":"岸內里","LIN":"13鄰","STREET":"蔦松路","SECT":" ","MAREA":" ","LANE":"５６巷","ALLEY":" ","HOUSE_NO":"７號","E_COORD97":175609.51999999999,"N_COORD97":2580449.3599999999,"ADDRESS":"蔦松路５６巷７號","OBJECTID":330517},"geometry":{"x":175609.52000000048,"y":2580449.3599999994}},{"attributes":{"ID":330527,"DIS_CODE":0,"TOWNNAME":"永康區","LI":"中華里","LIN":"25鄰","STREET":"忠義街","SECT":" ","MAREA":" ","LANE":"７１巷","ALLEY":" ","HOUSE_NO":"１０號","E_COORD97":171677.31,"N_COORD97":2544625.1800000002,"ADDRESS":"忠義街７１巷１０號","OBJECTID":330518},"geometry":{"x":171677.30999999866,"y":2544625.1799999997}},{"attributes":{"ID":330528,"DIS_CODE":0,"TOWNNAME":"永康區","LI":"\u25A0洲里","LIN":"32鄰","STREET":"洲尾街","SECT":" ","MAREA":" ","LANE":"７４巷","ALLEY":" ","HOUSE_NO":"１２號","E_COORD97":170961.84,"N_COORD97":2548972.7599999998,"ADDRESS":"洲尾街７４巷１２號","OBJECTID":330519},"geometry":{"x":170961.83999999985,"y":2548972.7600000016}},{"attributes":{"ID":330529,"DIS_CODE":0,"TOWNNAME":"永康區","LI":"中華里","LIN":"4鄰","STREET":"忠勇街","SECT":" ","MAREA":" ","LANE":"３２巷","ALLEY":" ","HOUSE_NO":"１８號","E_COORD97":171980.25,"N_COORD97":2544419.5,"ADDRESS":"忠勇街３２巷１８號","OBJECTID":330520},"geometry":{"x":171980.25000000093,"y":2544419.5}},{"attributes":{"ID":330530,"DIS_CODE":0,"TOWNNAME":"鹽水區","LI":"岸內里","LIN":"15鄰","STREET":"蔦松路","SECT":" ","MAREA":" ","LANE":"１１巷","ALLEY":" ","HOUSE_NO":"１８號","E_COORD97":175513.26999999999,"N_COORD97":2580384.8399999999,"ADDRESS":"蔦松路１１巷１８號","OBJECTID":330521},"geometry":{"x":175513.26999999955,"y":2580384.8400000017}},{"attributes":{"ID":330531,"DIS_CODE":0,"TOWNNAME":"鹽水區","LI":"岸內里","LIN":"15鄰","STREET":"蔦松路","SECT":" ","MAREA":" ","LANE":"１１巷","ALLEY":" ","HOUSE_NO":"２０號","E_COORD97":175508.88,"N_COORD97":2580384.9500000002,"ADDRESS":"蔦松路１１巷２０號","OBJECTID":330522},"geometry":{"x":175508.88000000082,"y":2580384.9499999993}},{"attributes":{"ID":330532,"DIS_CODE":0,"TOWNNAME":"鹽水區","LI":"岸內里","LIN":"15鄰","STREET":"蔦松路","SECT":" ","MAREA":" ","LANE":"１１巷","ALLEY":" ","HOUSE_NO":"２２號","E_COORD97":175504.20000000001,"N_COORD97":2580384.8399999999,"ADDRESS":"蔦松路１１巷２２號","OBJECTID":330523},"geometry":{"x":175504.20000000019,"y":2580384.8400000017}},{"attributes":{"ID":330533,"DIS_CODE":0,"TOWNNAME":"鹽水區","LI":"岸內里","LIN":"15鄰","STREET":"蔦松路","SECT":" ","MAREA":" ","LANE":"１１巷","ALLEY":" ","HOUSE_NO":"２號","E_COORD97":175538.82999999999,"N_COORD97":2580387.1499999999,"ADDRESS":"蔦松路１１巷２號","OBJECTID":330524},"geometry":{"x":175538.83000000007,"y":2580387.1500000004}},{"attributes":{"ID":330534,"DIS_CODE":0,"TOWNNAME":"鹽水區","LI":"岸內里","LIN":"15鄰","STREET":"蔦松路","SECT":" ","MAREA":" ","LANE":"１１巷","ALLEY":" ","HOUSE_NO":"６號","E_COORD97":175534.72,"N_COORD97":2580387.04,"ADDRESS":"蔦松路１１巷６號","OBJECTID":330525},"geometry":{"x":175534.7200000016,"y":2580387.0399999991}},{"attributes":{"ID":330535,"DIS_CODE":0,"TOWNNAME":"東區","LI":"裕聖里","LIN":"17鄰","STREET":"裕華二街","SECT":" ","MAREA":" ","LANE":" ","ALLEY":" ","HOUSE_NO":"５２號","E_COORD97":172705.10000000001,"N_COORD97":2542082.6299999999,"ADDRESS":"裕華二街５２號","OBJECTID":330526},"geometry":{"x":172705.10000000056,"y":2542082.629999999}},{"attributes":{"ID":330536,"DIS_CODE":0,"TOWNNAME":"東區","LI":"裕聖里","LIN":"17鄰","STREET":"裕華二街","SECT":" ","MAREA":" ","LANE":" ","ALLEY":" ","HOUSE_NO":"２８號","E_COORD97":172704.60999999999,"N_COORD97":2542128.7999999998,"ADDRESS":"裕華二街２８號","OBJECTID":330527},"geometry":{"x":172704.61000000034,"y":2542128.8000000026}},{"attributes":{"ID":330537,"DIS_CODE":0,"TOWNNAME":"東區","LI":"裕聖里","LIN":"17鄰","STREET":"裕華二街","SECT":" ","MAREA":" ","LANE":" ","ALLEY":" ","HOUSE_NO":"３０號","E_COORD97":172704.60999999999,"N_COORD97":2542124.54,"ADDRESS":"裕華二街３０號","OBJECTID":330528},"geometry":{"x":172704.61000000034,"y":2542124.5400000028}},{"attributes":{"ID":330538,"DIS_CODE":0,"TOWNNAME":"東區","LI":"裕聖里","LIN":"17鄰","STREET":"裕華二街","SECT":" ","MAREA":" ","LANE":" ","ALLEY":" ","HOUSE_NO":"３２號","E_COORD97":172704.60999999999,"N_COORD97":2542119.6299999999,"ADDRESS":"裕華二街３２號","OBJECTID":330529},"geometry":{"x":172704.61000000034,"y":2542119.629999999}},{"attributes":{"ID":330539,"DIS_CODE":0,"TOWNNAME":"東區","LI":"裕聖里","LIN":"17鄰","STREET":"裕華二街","SECT":" ","MAREA":" ","LANE":" ","ALLEY":" ","HOUSE_NO":"３６號","E_COORD97":172704.76999999999,"N_COORD97":2542114.7200000002,"ADDRESS":"裕華二街３６號","OBJECTID":330530},"geometry":{"x":172704.76999999955,"y":2542114.7200000044}},{"attributes":{"ID":330540,"DIS_CODE":0,"TOWNNAME":"東區","LI":"裕聖里","LIN":"17鄰","STREET":"裕華二街","SECT":" ","MAREA":" ","LANE":" ","ALLEY":" ","HOUSE_NO":"３８號","E_COORD97":172704.94,"N_COORD97":2542109.9700000002,"ADDRESS":"裕華二街３８號","OBJECTID":330531},"geometry":{"x":172704.94000000134,"y":2542109.9700000025}},{"attributes":{"ID":330541,"DIS_CODE":0,"TOWNNAME":"東區","LI":"裕聖里","LIN":"17鄰","STREET":"裕華二街","SECT":" ","MAREA":" ","LANE":" ","ALLEY":" ","HOUSE_NO":"４０號","E_COORD97":172704.60999999999,"N_COORD97":2542105.0600000001,"ADDRESS":"裕華二街４０號","OBJECTID":330532},"geometry":{"x":172704.61000000034,"y":2542105.0600000005}},{"attributes":{"ID":330542,"DIS_CODE":0,"TOWNNAME":"東區","LI":"裕聖里","LIN":"17鄰","STREET":"裕華二街","SECT":" ","MAREA":" ","LANE":" ","ALLEY":" ","HOUSE_NO":"４２號","E_COORD97":172704.94,"N_COORD97":2542100.3100000001,"ADDRESS":"裕華二街４２號","OBJECTID":330533},"geometry":{"x":172704.94000000134,"y":2542100.3100000042}},{"attributes":{"ID":330543,"DIS_CODE":0,"TOWNNAME":"東區","LI":"裕聖里","LIN":"17鄰","STREET":"裕華二街","SECT":" ","MAREA":" ","LANE":" ","ALLEY":" ","HOUSE_NO":"４６號","E_COORD97":172705.26000000001,"N_COORD97":2542096.0499999998,"ADDRESS":"裕華二街４６號","OBJECTID":330534},"geometry":{"x":172705.26000000164,"y":2542096.0500000026}},{"attributes":{"ID":330544,"DIS_CODE":0,"TOWNNAME":"麻豆區","LI":"北勢里","LIN":"4鄰","STREET":" ","SECT":" ","MAREA":"加輦邦","LANE":" ","ALLEY":" ","HOUSE_NO":"３３號","E_COORD97":172878.01999999999,"N_COORD97":2566879.6099999999,"ADDRESS":"加輦邦３３號","OBJECTID":330535},"geometry":{"x":172878.02000000048,"y":2566879.6099999994}},{"attributes":{"ID":330545,"DIS_CODE":0,"TOWNNAME":"永康區","LI":"中華里","LIN":"20鄰","STREET":"小東路","SECT":" ","MAREA":" ","LANE":"４７７巷","ALLEY":" ","HOUSE_NO":"３號","E_COORD97":171603.54000000001,"N_COORD97":2544391.0299999998,"ADDRESS":"小東路４７７巷３號","OBJECTID":330536},"geometry":{"x":171603.5400000019,"y":2544391.0300000012}},{"attributes":{"ID":330546,"DIS_CODE":0,"TOWNNAME":"永康區","LI":"\u25A0洲里","LIN":"25鄰","STREET":"國聖街","SECT":" ","MAREA":" ","LANE":"１６７巷","ALLEY":" ","HOUSE_NO":"２０號","E_COORD97":170623.03,"N_COORD97":2548297.75,"ADDRESS":"國聖街１６７巷２０號","OBJECTID":330537},"geometry":{"x":170623.03000000119,"y":2548297.7500000037}},{"attributes":{"ID":330547,"DIS_CODE":0,"TOWNNAME":"永康區","LI":"\u25A0洲里","LIN":"4鄰","STREET":"\u25A0洲二街","SECT":" ","MAREA":" ","LANE":"１５３巷","ALLEY":" ","HOUSE_NO":"１８號","E_COORD97":171659.75,"N_COORD97":2549413.9199999999,"ADDRESS":"\u25A0洲二街１５３巷１８號","OBJECTID":330538},"geometry":{"x":171659.75000000186,"y":2549413.9199999999}},{"attributes":{"ID":330548,"DIS_CODE":0,"TOWNNAME":"永康區","LI":"中華里","LIN":"4鄰","STREET":"忠勇街","SECT":" ","MAREA":" ","LANE":"３２巷","ALLEY":" ","HOUSE_NO":"２０號","E_COORD97":171983.89000000001,"N_COORD97":2544419.7999999998,"ADDRESS":"忠勇街３２巷２０號","OBJECTID":330539},"geometry":{"x":171983.89000000153,"y":2544419.8000000045}},{"attributes":{"ID":330549,"DIS_CODE":0,"TOWNNAME":"鹽水區","LI":"岸內里","LIN":"15鄰","STREET":"蔦松路","SECT":" ","MAREA":" ","LANE":"１１巷","ALLEY":" ","HOUSE_NO":"８號","E_COORD97":175530.60999999999,"N_COORD97":2580386.9300000002,"ADDRESS":"蔦松路１１巷８號","OBJECTID":330540},"geometry":{"x":175530.61000000034,"y":2580386.9300000016}},{"attributes":{"ID":330550,"DIS_CODE":0,"TOWNNAME":"鹽水區","LI":"岸內里","LIN":"15鄰","STREET":"蔦松路","SECT":" ","MAREA":" ","LANE":"１巷","ALLEY":" ","HOUSE_NO":"１１號","E_COORD97":175518.92999999999,"N_COORD97":2580356.9399999999,"ADDRESS":"蔦松路１巷１１號","OBJECTID":330541},"geometry":{"x":175518.9299999997,"y":2580356.9400000013}},{"attributes":{"ID":330551,"DIS_CODE":0,"TOWNNAME":"鹽水區","LI":"岸內里","LIN":"15鄰","STREET":"蔦松路","SECT":" ","MAREA":" ","LANE":"１巷","ALLEY":" ","HOUSE_NO":"１３號","E_COORD97":175514.63,"N_COORD97":2580356.7000000002,"ADDRESS":"蔦松路１巷１３號","OBJECTID":330542},"geometry":{"x":175514.62999999989,"y":2580356.700000003}},{"attributes":{"ID":330552,"DIS_CODE":0,"TOWNNAME":"鹽水區","LI":"岸內里","LIN":"15鄰","STREET":"蔦松路","SECT":" ","MAREA":" ","LANE":"１巷","ALLEY":" ","HOUSE_NO":"１５號","E_COORD97":175508.25,"N_COORD97":2580356.4500000002,"ADDRESS":"蔦松路１巷１５號","OBJECTID":330543},"geometry":{"x":175508.25000000093,"y":2580356.4500000011}},{"attributes":{"ID":330553,"DIS_CODE":0,"TOWNNAME":"鹽水區","LI":"岸內里","LIN":"15鄰","STREET":"蔦松路","SECT":" ","MAREA":" ","LANE":"１巷","ALLEY":" ","HOUSE_NO":"１號","E_COORD97":175540.41,"N_COORD97":2580358.1600000001,"ADDRESS":"蔦松路１巷１號","OBJECTID":330544},"geometry":{"x":175540.41000000015,"y":2580358.1600000039}},{"attributes":{"ID":330554,"DIS_CODE":0,"TOWNNAME":"鹽水區","LI":"岸內里","LIN":"15鄰","STREET":"蔦松路","SECT":" ","MAREA":" ","LANE":"１巷","ALLEY":" ","HOUSE_NO":"３號","E_COORD97":175536.12,"N_COORD97":2580357.9199999999,"ADDRESS":"蔦松路１巷３號","OBJECTID":330545},"geometry":{"x":175536.12000000104,"y":2580357.9199999999}},{"attributes":{"ID":330555,"DIS_CODE":0,"TOWNNAME":"鹽水區","LI":"岸內里","LIN":"15鄰","STREET":"蔦松路","SECT":" ","MAREA":" ","LANE":"１巷","ALLEY":" ","HOUSE_NO":"５號","E_COORD97":175531.82000000001,"N_COORD97":2580357.6699999999,"ADDRESS":"蔦松路１巷５號","OBJECTID":330546},"geometry":{"x":175531.82000000123,"y":2580357.6700000037}},{"attributes":{"ID":330556,"DIS_CODE":0,"TOWNNAME":"鹽水區","LI":"岸內里","LIN":"15鄰","STREET":"蔦松路","SECT":" ","MAREA":" ","LANE":"１巷","ALLEY":" ","HOUSE_NO":"７號","E_COORD97":175527.51999999999,"N_COORD97":2580357.4300000002,"ADDRESS":"蔦松路１巷７號","OBJECTID":330547},"geometry":{"x":175527.52000000142,"y":2580357.4299999997}},{"attributes":{"ID":330557,"DIS_CODE":0,"TOWNNAME":"鹽水區","LI":"岸內里","LIN":"15鄰","STREET":"蔦松路","SECT":" ","MAREA":" ","LANE":"１巷","ALLEY":" ","HOUSE_NO":"９號","E_COORD97":175523.23000000001,"N_COORD97":2580357.1899999999,"ADDRESS":"蔦松路１巷９號","OBJECTID":330548},"geometry":{"x":175523.23000000045,"y":2580357.1900000032}},{"attributes":{"ID":330558,"DIS_CODE":0,"TOWNNAME":"東區","LI":"裕聖里","LIN":"17鄰","STREET":"裕華二街","SECT":" ","MAREA":" ","LANE":" ","ALLEY":" ","HOUSE_NO":"４８號","E_COORD97":172704.94,"N_COORD97":2542090.98,"ADDRESS":"裕華二街４８號","OBJECTID":330549},"geometry":{"x":172704.94000000134,"y":2542090.9800000004}},{"attributes":{"ID":330559,"DIS_CODE":0,"TOWNNAME":"東區","LI":"裕聖里","LIN":"17鄰","STREET":"裕華二街","SECT":" ","MAREA":" ","LANE":" ","ALLEY":" ","HOUSE_NO":"５０號","E_COORD97":172705.10000000001,"N_COORD97":2542087.21,"ADDRESS":"裕華二街５０號","OBJECTID":330550},"geometry":{"x":172705.10000000056,"y":2542087.2100000009}},{"attributes":{"ID":330560,"DIS_CODE":0,"TOWNNAME":"鹽水區","LI":"岸內里","LIN":"14鄰","STREET":"蔦松路","SECT":" ","MAREA":" ","LANE":"２８巷","ALLEY":" ","HOUSE_NO":"１１號","E_COORD97":175616.76000000001,"N_COORD97":2580403.1899999999,"ADDRESS":"蔦松路２８巷１１號","OBJECTID":330551},"geometry":{"x":175616.75999999978,"y":2580403.1899999995}},{"attributes":{"ID":330561,"DIS_CODE":0,"TOWNNAME":"東區","LI":"裕聖里","LIN":"17鄰","STREET":"裕敬二街","SECT":" ","MAREA":" ","LANE":" ","ALLEY":" ","HOUSE_NO":"１５號","E_COORD97":172671.20999999999,"N_COORD97":2542175.79,"ADDRESS":"裕敬二街１５號","OBJECTID":330552},"geometry":{"x":172671.20999999996,"y":2542175.7899999991}},{"attributes":{"ID":330562,"DIS_CODE":0,"TOWNNAME":"東區","LI":"裕聖里","LIN":"17鄰","STREET":"裕敬二街","SECT":" ","MAREA":" ","LANE":" ","ALLEY":" ","HOUSE_NO":"１７號","E_COORD97":172671.20999999999,"N_COORD97":2542172.1899999999,"ADDRESS":"裕敬二街１７號","OBJECTID":330553},"geometry":{"x":172671.20999999996,"y":2542172.1900000013}},{"attributes":{"ID":330563,"DIS_CODE":0,"TOWNNAME":"東區","LI":"裕聖里","LIN":"17鄰","STREET":"裕敬二街","SECT":" ","MAREA":" ","LANE":" ","ALLEY":" ","HOUSE_NO":"１９號","E_COORD97":172671.37,"N_COORD97":2542168.75,"ADDRESS":"裕敬二街１９號","OBJECTID":330554},"geometry":{"x":172671.37000000104,"y":2542168.7500000019}},{"attributes":{"ID":330564,"DIS_CODE":0,"TOWNNAME":"永康區","LI":"\u25A0洲里","LIN":"4鄰","STREET":"\u25A0洲二街","SECT":" ","MAREA":" ","LANE":"１１１巷","ALLEY":" ","HOUSE_NO":"６號","E_COORD97":171605.01999999999,"N_COORD97":2549330.75,"ADDRESS":"\u25A0洲二街１１１巷６號","OBJECTID":330555},"geometry":{"x":171605.02000000048,"y":2549330.75}},{"attributes":{"ID":330565,"DIS_CODE":0,"TOWNNAME":"永康區","LI":"勝利里","LIN":" ","STREET":"勝利街","SECT":" ","MAREA":" ","LANE":"７４巷","ALLEY":" ","HOUSE_NO":"４號","E_COORD97":171368.59,"N_COORD97":2544705.75,"ADDRESS":"勝利街７４巷４號","OBJECTID":330556},"geometry":{"x":171368.58999999985,"y":2544705.75}},{"attributes":{"ID":330566,"DIS_CODE":0,"TOWNNAME":"東區","LI":"裕聖里","LIN":"17鄰","STREET":"裕敬二街","SECT":" ","MAREA":" ","LANE":" ","ALLEY":" ","HOUSE_NO":"２３號","E_COORD97":172673.98999999999,"N_COORD97":2542141.8999999999,"ADDRESS":"裕敬二街２３號","OBJECTID":330557},"geometry":{"x":172673.99000000115,"y":2542141.9000000022}},{"attributes":{"ID":330567,"DIS_CODE":0,"TOWNNAME":"東區","LI":"裕聖里","LIN":"17鄰","STREET":"裕敬二街","SECT":" ","MAREA":" ","LANE":" ","ALLEY":" ","HOUSE_NO":"２５號","E_COORD97":172673.98999999999,"N_COORD97":2542134.8599999999,"ADDRESS":"裕敬二街２５號","OBJECTID":330558},"geometry":{"x":172673.99000000115,"y":2542134.8599999994}},{"attributes":{"ID":330568,"DIS_CODE":0,"TOWNNAME":"東區","LI":"裕聖里","LIN":"17鄰","STREET":"裕敬二街","SECT":" ","MAREA":" ","LANE":" ","ALLEY":" ","HOUSE_NO":"３８號","E_COORD97":172645.67000000001,"N_COORD97":2542163.02,"ADDRESS":"裕敬二街３８號","OBJECTID":330559},"geometry":{"x":172645.67000000086,"y":2542163.0200000014}},{"attributes":{"ID":330569,"DIS_CODE":0,"TOWNNAME":"永康區","LI":"\u25A0行里","LIN":" ","STREET":"中正五街","SECT":" ","MAREA":" ","LANE":"１１巷","ALLEY":" ","HOUSE_NO":"１１號","E_COORD97":172568.34,"N_COORD97":2548655.4900000002,"ADDRESS":"中正五街１１巷１１號","OBJECTID":330560},"geometry":{"x":172568.33999999985,"y":2548655.4900000002}},{"attributes":{"ID":330570,"DIS_CODE":0,"TOWNNAME":"鹽水區","LI":"岸內里","LIN":"14鄰","STREET":"蔦松路","SECT":" ","MAREA":" ","LANE":"２８巷","ALLEY":" ","HOUSE_NO":"１８號","E_COORD97":175624.97,"N_COORD97":2580383.02,"ADDRESS":"蔦松路２８巷１８號","OBJECTID":330561},"geometry":{"x":175624.97000000067,"y":2580383.0200000014}},{"attributes":{"ID":330571,"DIS_CODE":0,"TOWNNAME":"鹽水區","LI":"岸內里","LIN":"14鄰","STREET":"蔦松路","SECT":" ","MAREA":" ","LANE":"２８巷","ALLEY":" ","HOUSE_NO":"１號","E_COORD97":175595.73000000001,"N_COORD97":2580401.9300000002,"ADDRESS":"蔦松路２８巷１號","OBJECTID":330562},"geometry":{"x":175595.73000000045,"y":2580401.9299999997}},{"attributes":{"ID":330572,"DIS_CODE":0,"TOWNNAME":"鹽水區","LI":"岸內里","LIN":"14鄰","STREET":"蔦松路","SECT":" ","MAREA":" ","LANE":"２８巷","ALLEY":" ","HOUSE_NO":"２０號","E_COORD97":175628.92999999999,"N_COORD97":2580383.2200000002,"ADDRESS":"蔦松路２８巷２０號","OBJECTID":330563},"geometry":{"x":175628.93000000063,"y":2580383.2200000025}},{"attributes":{"ID":330573,"DIS_CODE":0,"TOWNNAME":"鹽水區","LI":"岸內里","LIN":"14鄰","STREET":"蔦松路","SECT":" ","MAREA":" ","LANE":"２８巷","ALLEY":" ","HOUSE_NO":"２２號","E_COORD97":175633.29999999999,"N_COORD97":2580383.5099999998,"ADDRESS":"蔦松路２８巷２２號","OBJECTID":330564},"geometry":{"x":175633.30000000075,"y":2580383.5100000016}},{"attributes":{"ID":330574,"DIS_CODE":0,"TOWNNAME":"鹽水區","LI":"岸內里","LIN":"14鄰","STREET":"蔦松路","SECT":" ","MAREA":" ","LANE":"２８巷","ALLEY":" ","HOUSE_NO":"２６號","E_COORD97":175637.67000000001,"N_COORD97":2580383.79,"ADDRESS":"蔦松路２８巷２６號","OBJECTID":330565},"geometry":{"x":175637.67000000086,"y":2580383.790000001}},{"attributes":{"ID":330575,"DIS_CODE":0,"TOWNNAME":"鹽水區","LI":"岸內里","LIN":"15鄰","STREET":"蔦松路","SECT":" ","MAREA":" ","LANE":"３７巷","ALLEY":" ","HOUSE_NO":"１６號","E_COORD97":175511.84,"N_COORD97":2580447.9500000002,"ADDRESS":"蔦松路３７巷１６號","OBJECTID":330566},"geometry":{"x":175511.83999999985,"y":2580447.9500000011}},{"attributes":{"ID":330576,"DIS_CODE":0,"TOWNNAME":"鹽水區","LI":"岸內里","LIN":"15鄰","STREET":"蔦松路","SECT":" ","MAREA":" ","LANE":"３７巷","ALLEY":" ","HOUSE_NO":"２號","E_COORD97":175534.75,"N_COORD97":2580449.1899999999,"ADDRESS":"蔦松路３７巷２號","OBJECTID":330567},"geometry":{"x":175534.74999999907,"y":2580449.1900000013}},{"attributes":{"ID":330577,"DIS_CODE":0,"TOWNNAME":"鹽水區","LI":"岸內里","LIN":"15鄰","STREET":"蔦松路","SECT":" ","MAREA":" ","LANE":"３７巷","ALLEY":" ","HOUSE_NO":"９號","E_COORD97":175521.48999999999,"N_COORD97":2580424.6899999999,"ADDRESS":"蔦松路３７巷９號","OBJECTID":330568},"geometry":{"x":175521.48999999929,"y":2580424.6899999976}},{"attributes":{"ID":330578,"DIS_CODE":0,"TOWNNAME":"東區","LI":"裕聖里","LIN":"17鄰","STREET":"裕敬二街","SECT":" ","MAREA":" ","LANE":" ","ALLEY":" ","HOUSE_NO":"４０號","E_COORD97":172645.82999999999,"N_COORD97":2542158.6000000001,"ADDRESS":"裕敬二街４０號","OBJECTID":330569},"geometry":{"x":172645.83000000194,"y":2542158.6000000034}},{"attributes":{"ID":330579,"DIS_CODE":0,"TOWNNAME":"東區","LI":"裕聖里","LIN":"17鄰","STREET":"裕敬二街","SECT":" ","MAREA":" ","LANE":" ","ALLEY":" ","HOUSE_NO":"４２號","E_COORD97":172646.16,"N_COORD97":2542154.0099999998,"ADDRESS":"裕敬二街４２號","OBJECTID":330570},"geometry":{"x":172646.16000000015,"y":2542154.0100000016}},{"attributes":{"ID":330580,"DIS_CODE":0,"TOWNNAME":"東區","LI":"裕聖里","LIN":"17鄰","STREET":"裕敬二街","SECT":" ","MAREA":" ","LANE":" ","ALLEY":" ","HOUSE_NO":"４６號","E_COORD97":172646.32000000001,"N_COORD97":2542149.4300000002,"ADDRESS":"裕敬二街４６號","OBJECTID":330571},"geometry":{"x":172646.32000000123,"y":2542149.4300000034}},{"attributes":{"ID":330581,"DIS_CODE":0,"TOWNNAME":"東區","LI":"裕聖里","LIN":"17鄰","STREET":"裕敬二街","SECT":" ","MAREA":" ","LANE":" ","ALLEY":" ","HOUSE_NO":"５０號","E_COORD97":172646.48999999999,"N_COORD97":2542144.1899999999,"ADDRESS":"裕敬二街５０號","OBJECTID":330572},"geometry":{"x":172646.49000000209,"y":2542144.1900000032}},{"attributes":{"ID":330582,"DIS_CODE":0,"TOWNNAME":"東區","LI":"裕聖里","LIN":"17鄰","STREET":"裕敬二街","SECT":" ","MAREA":" ","LANE":" ","ALLEY":" ","HOUSE_NO":"５２號","E_COORD97":172646.81,"N_COORD97":2542139.9300000002,"ADDRESS":"裕敬二街５２號","OBJECTID":330573},"geometry":{"x":172646.80999999959,"y":2542139.9300000016}},{"attributes":{"ID":330583,"DIS_CODE":0,"TOWNNAME":"安南區","LI":"海西里","LIN":"16鄰","STREET":"海前路","SECT":" ","MAREA":" ","LANE":" ","ALLEY":" ","HOUSE_NO":"１７１號","E_COORD97":166636.54749200001,"N_COORD97":2548094.82424,"ADDRESS":"海前路１７１號","OBJECTID":330574},"geometry":{"x":166636.54749200027,"y":2548094.824236}},{"attributes":{"ID":330584,"DIS_CODE":0,"TOWNNAME":"安南區","LI":"\u25A0南里","LIN":"7鄰","STREET":"安昌街","SECT":" ","MAREA":" ","LANE":"１１９巷","ALLEY":" ","HOUSE_NO":"２２號","E_COORD97":169959.37,"N_COORD97":2552294.1000000001,"ADDRESS":"安昌街１１９巷２２號","OBJECTID":330575},"geometry":{"x":169959.37000000104,"y":2552294.0999999996}},{"attributes":{"ID":330585,"DIS_CODE":0,"TOWNNAME":"安南區","LI":"\u25A0南里","LIN":"7鄰","STREET":"安昌街","SECT":" ","MAREA":" ","LANE":"１０３巷","ALLEY":" ","HOUSE_NO":"１０號","E_COORD97":169948.54999999999,"N_COORD97":2552229.77,"ADDRESS":"安昌街１０３巷１０號","OBJECTID":330576},"geometry":{"x":169948.54999999888,"y":2552229.7699999996}},{"attributes":{"ID":330586,"DIS_CODE":0,"TOWNNAME":"安南區","LI":"\u25A0南里","LIN":"7鄰","STREET":"安昌街","SECT":" ","MAREA":" ","LANE":"１０３巷","ALLEY":" ","HOUSE_NO":"１２號","E_COORD97":169944.81,"N_COORD97":2552229.46,"ADDRESS":"安昌街１０３巷１２號","OBJECTID":330577},"geometry":{"x":169944.80999999866,"y":2552229.4600000009}},{"attributes":{"ID":330587,"DIS_CODE":0,"TOWNNAME":"安南區","LI":"\u25A0南里","LIN":"7鄰","STREET":"安昌街","SECT":" ","MAREA":" ","LANE":"１０３巷","ALLEY":" ","HOUSE_NO":"１４號","E_COORD97":169939.73000000001,"N_COORD97":2552228.5899999999,"ADDRESS":"安昌街１０３巷１４號","OBJECTID":330578},"geometry":{"x":169939.73000000231,"y":2552228.5900000017}},{"attributes":{"ID":330588,"DIS_CODE":0,"TOWNNAME":"安南區","LI":"\u25A0南里","LIN":"7鄰","STREET":"安昌街","SECT":" ","MAREA":" ","LANE":"１０３巷","ALLEY":" ","HOUSE_NO":"１６號","E_COORD97":169934.64999999999,"N_COORD97":2552228.4500000002,"ADDRESS":"安昌街１０３巷１６號","OBJECTID":330579},"geometry":{"x":169934.65000000037,"y":2552228.450000003}},{"attributes":{"ID":330589,"DIS_CODE":0,"TOWNNAME":"安南區","LI":"\u25A0南里","LIN":"7鄰","STREET":"安昌街","SECT":" ","MAREA":" ","LANE":"１０３巷","ALLEY":" ","HOUSE_NO":"２號","E_COORD97":169964.79000000001,"N_COORD97":2552229.46,"ADDRESS":"安昌街１０３巷２號","OBJECTID":330580},"geometry":{"x":169964.79000000097,"y":2552229.4600000009}},{"attributes":{"ID":330590,"DIS_CODE":0,"TOWNNAME":"安南區","LI":"\u25A0南里","LIN":"7鄰","STREET":"安昌街","SECT":" ","MAREA":" ","LANE":"１０３巷","ALLEY":" ","HOUSE_NO":"２號之１","E_COORD97":169960.73000000001,"N_COORD97":2552229.46,"ADDRESS":"安昌街１０３巷２號之１","OBJECTID":330581},"geometry":{"x":169960.73000000138,"y":2552229.4600000009}},{"attributes":{"ID":330591,"DIS_CODE":0,"TOWNNAME":"歸仁區","LI":"武東里","LIN":"6鄰","STREET":"高鐵七路","SECT":" ","MAREA":" ","LANE":"１１０巷","ALLEY":" ","HOUSE_NO":"８０號","E_COORD97":175818.90763,"N_COORD97":2535711.5715399999,"ADDRESS":"高鐵七路１１０巷８０號","OBJECTID":330582},"geometry":{"x":175818.90763000119,"y":2535711.571541002}},{"attributes":{"ID":330592,"DIS_CODE":0,"TOWNNAME":"鹽水區","LI":"岸內里","LIN":"14鄰","STREET":"蔦松路","SECT":" ","MAREA":" ","LANE":"２巷","ALLEY":" ","HOUSE_NO":"２１號","E_COORD97":175649.48000000001,"N_COORD97":2580364.8199999998,"ADDRESS":"蔦松路２巷２１號","OBJECTID":330583},"geometry":{"x":175649.48000000138,"y":2580364.8200000022}},{"attributes":{"ID":330593,"DIS_CODE":0,"TOWNNAME":"東區","LI":"裕聖里","LIN":"17鄰","STREET":"裕敬二街","SECT":" ","MAREA":" ","LANE":" ","ALLEY":" ","HOUSE_NO":"２０號","E_COORD97":172636.60000000001,"N_COORD97":2542195.3900000001,"ADDRESS":"裕敬二街２０號","OBJECTID":330584},"geometry":{"x":172636.5999999987,"y":2542195.3900000025}},{"attributes":{"ID":330594,"DIS_CODE":0,"TOWNNAME":"東區","LI":"裕聖里","LIN":"17鄰","STREET":"裕敬二街","SECT":" ","MAREA":" ","LANE":" ","ALLEY":" ","HOUSE_NO":"１８號","E_COORD97":172641.62,"N_COORD97":2542195.6600000001,"ADDRESS":"裕敬二街１８號","OBJECTID":330585},"geometry":{"x":172641.62000000011,"y":2542195.6599999983}},{"attributes":{"ID":330595,"DIS_CODE":0,"TOWNNAME":"東區","LI":"裕聖里","LIN":"17鄰","STREET":"裕敬二街","SECT":" ","MAREA":" ","LANE":" ","ALLEY":" ","HOUSE_NO":"１６號","E_COORD97":172645.97,"N_COORD97":2542195.52,"ADDRESS":"裕敬二街１６號","OBJECTID":330586},"geometry":{"x":172645.96999999974,"y":2542195.5199999996}},{"attributes":{"ID":330596,"DIS_CODE":0,"TOWNNAME":"東區","LI":"裕聖里","LIN":"17鄰","STREET":"裕敬二街","SECT":" ","MAREA":" ","LANE":" ","ALLEY":" ","HOUSE_NO":"２６號","E_COORD97":172641.89999999999,"N_COORD97":2542181.2599999998,"ADDRESS":"裕敬二街２６號","OBJECTID":330587},"geometry":{"x":172641.90000000037,"y":2542181.2600000035}},{"attributes":{"ID":330597,"DIS_CODE":0,"TOWNNAME":"東區","LI":"裕聖里","LIN":"17鄰","STREET":"裕敬二街","SECT":" ","MAREA":" ","LANE":" ","ALLEY":" ","HOUSE_NO":"２８號","E_COORD97":172646.92000000001,"N_COORD97":2542181.1299999999,"ADDRESS":"裕敬二街２８號","OBJECTID":330588},"geometry":{"x":172646.92000000086,"y":2542181.1299999971}},{"attributes":{"ID":330598,"DIS_CODE":0,"TOWNNAME":"東區","LI":"裕聖里","LIN":"17鄰","STREET":"裕敬二街","SECT":" ","MAREA":" ","LANE":" ","ALLEY":" ","HOUSE_NO":"２２號","E_COORD97":172636.73999999999,"N_COORD97":2542180.8500000001,"ADDRESS":"裕敬二街２２號","OBJECTID":330589},"geometry":{"x":172636.74000000115,"y":2542180.8500000015}},{"attributes":{"ID":330599,"DIS_CODE":0,"TOWNNAME":"東區","LI":"裕聖里","LIN":"17鄰","STREET":"裕信路","SECT":" ","MAREA":" ","LANE":" ","ALLEY":" ","HOUSE_NO":"３６１號","E_COORD97":172612.76000000001,"N_COORD97":2542142.3500000001,"ADDRESS":"裕信路３６１號","OBJECTID":330590},"geometry":{"x":172612.76000000071,"y":2542142.3499999996}},{"attributes":{"ID":330600,"DIS_CODE":0,"TOWNNAME":"西港區","LI":"慶安里","LIN":"17鄰","STREET":"慶安路","SECT":" ","MAREA":" ","LANE":" ","ALLEY":" ","HOUSE_NO":"５６號","E_COORD97":168181.85999999999,"N_COORD97":2557915.04,"ADDRESS":"慶安路５６號","OBJECTID":330591},"geometry":{"x":168181.86000000034,"y":2557915.040000001}},{"attributes":{"ID":330601,"DIS_CODE":0,"TOWNNAME":"麻豆區","LI":"北勢里","LIN":"1鄰","STREET":" ","SECT":" ","MAREA":"加輦邦","LANE":" ","ALLEY":" ","HOUSE_NO":"４號","E_COORD97":173546.97,"N_COORD97":2566139.48,"ADDRESS":"加輦邦４號","OBJECTID":330592},"geometry":{"x":173546.97000000067,"y":2566139.4800000004}},{"attributes":{"ID":330602,"DIS_CODE":0,"TOWNNAME":"安南區","LI":"州北里","LIN":"24鄰","STREET":"長和路","SECT":"二段","MAREA":" ","LANE":"１４０巷","ALLEY":" ","HOUSE_NO":"２２９號","E_COORD97":170359.12,"N_COORD97":2552013.6099999999,"ADDRESS":"長和路二段１４０巷２２９號","OBJECTID":330593},"geometry":{"x":170359.12000000104,"y":2552013.6099999994}},{"attributes":{"ID":330603,"DIS_CODE":0,"TOWNNAME":"安南區","LI":"州北里","LIN":"24鄰","STREET":"長和路","SECT":"二段","MAREA":" ","LANE":"１４０巷","ALLEY":" ","HOUSE_NO":"２２７號","E_COORD97":170357.23999999999,"N_COORD97":2552010.2799999998,"ADDRESS":"長和路二段１４０巷２２７號","OBJECTID":330594},"geometry":{"x":170357.24000000022,"y":2552010.2800000012}},{"attributes":{"ID":330604,"DIS_CODE":0,"TOWNNAME":"安南區","LI":"州北里","LIN":"24鄰","STREET":"長和路","SECT":"二段","MAREA":" ","LANE":"１４０巷","ALLEY":" ","HOUSE_NO":"２２５號","E_COORD97":170355.64000000001,"N_COORD97":2552006.52,"ADDRESS":"長和路二段１４０巷２２５號","OBJECTID":330595},"geometry":{"x":170355.63999999966,"y":2552006.5199999996}},{"attributes":{"ID":330605,"DIS_CODE":0,"TOWNNAME":"安南區","LI":"州北里","LIN":"24鄰","STREET":"長和路","SECT":"二段","MAREA":" ","LANE":"１４０巷","ALLEY":" ","HOUSE_NO":"２２３號","E_COORD97":170353.47,"N_COORD97":2552002.9100000001,"ADDRESS":"長和路二段１４０巷２２３號","OBJECTID":330596},"geometry":{"x":170353.46999999974,"y":2552002.910000002}},{"attributes":{"ID":330606,"DIS_CODE":0,"TOWNNAME":"安南區","LI":"州北里","LIN":"24鄰","STREET":"長和路","SECT":"二段","MAREA":" ","LANE":"１４０巷","ALLEY":" ","HOUSE_NO":"２２１號","E_COORD97":170351.14999999999,"N_COORD97":2551999.8700000001,"ADDRESS":"長和路二段１４０巷２２１號","OBJECTID":330597},"geometry":{"x":170351.1500000013,"y":2551999.870000001}},{"attributes":{"ID":330607,"DIS_CODE":0,"TOWNNAME":"安南區","LI":"州北里","LIN":"24鄰","STREET":"長和路","SECT":"二段","MAREA":" ","LANE":"１４０巷","ALLEY":" ","HOUSE_NO":"２１９號","E_COORD97":170349.26999999999,"N_COORD97":2551996.1099999999,"ADDRESS":"長和路二段１４０巷２１９號","OBJECTID":330598},"geometry":{"x":170349.27000000048,"y":2551996.1099999994}},{"attributes":{"ID":330608,"DIS_CODE":0,"TOWNNAME":"安南區","LI":"州北里","LIN":"24鄰","STREET":"長和路","SECT":"二段","MAREA":" ","LANE":"１４０巷","ALLEY":" ","HOUSE_NO":"２１７號","E_COORD97":170347.23999999999,"N_COORD97":2551992.0600000001,"ADDRESS":"長和路二段１４０巷２１７號","OBJECTID":330599},"geometry":{"x":170347.24000000022,"y":2551992.0600000024}},{"attributes":{"ID":330609,"DIS_CODE":0,"TOWNNAME":"西港區","LI":"慶安里","LIN":"17鄰","STREET":"慶安路","SECT":" ","MAREA":" ","LANE":" ","ALLEY":" ","HOUSE_NO":"５８號","E_COORD97":168177.06,"N_COORD97":2557914.7799999998,"ADDRESS":"慶安路５８號","OBJECTID":330600},"geometry":{"x":168177.06000000052,"y":2557914.7799999993}}]}