{"displayFieldName":"TOWNNAME","fieldAliases":{"ID":"ID","DIS_CODE":"DIS_CODE","TOWNNAME":"TOWNNAME","LI":"LI","LIN":"LIN","STREET":"STREET","SECT":"SECT","MAREA":"MAREA","LANE":"LANE","ALLEY":"ALLEY","HOUSE_NO":"HOUSE_NO","E_COORD97":"E_COORD97","N_COORD97":"N_COORD97","ADDRESS":"ADDRESS","OBJECTID":"OBJECTID"},"geometryType":"esriGeometryPoint","spatialReference":{"wkid":102443,"latestWkid":3826},"fields":[{"name":"ID","type":"esriFieldTypeDouble","alias":"ID"},{"name":"DIS_CODE","type":"esriFieldTypeInteger","alias":"DIS_CODE"},{"name":"TOWNNAME","type":"esriFieldTypeString","alias":"TOWNNAME","length":8},{"name":"LI","type":"esriFieldTypeString","alias":"LI","length":8},{"name":"LIN","type":"esriFieldTypeString","alias":"LIN","length":12},{"name":"STREET","type":"esriFieldTypeString","alias":"STREET","length":20},{"name":"SECT","type":"esriFieldTypeString","alias":"SECT","length":8},{"name":"MAREA","type":"esriFieldTypeString","alias":"MAREA","length":12},{"name":"LANE","type":"esriFieldTypeString","alias":"LANE","length":10},{"name":"ALLEY","type":"esriFieldTypeString","alias":"ALLEY","length":10},{"name":"HOUSE_NO","type":"esriFieldTypeString","alias":"HOUSE_NO","length":20},{"name":"E_COORD97","type":"esriFieldTypeDouble","alias":"E_COORD97"},{"name":"N_COORD97","type":"esriFieldTypeDouble","alias":"N_COORD97"},{"name":"ADDRESS","type":"esriFieldTypeString","alias":"ADDRESS","length":50},{"name":"OBJECTID","type":"esriFieldTypeOID","alias":"OBJECTID"}],"features":[{"attributes":{"ID":458826,"DIS_CODE":0,"TOWNNAME":"北區","LI":"和順里","LIN":"13鄰","STREET":"民德路","SECT":" ","MAREA":" ","LANE":"１０５巷","ALLEY":" ","HOUSE_NO":"３５號","E_COORD97":168111.04000000001,"N_COORD97":2545123.9100000001,"ADDRESS":"民德路１０５巷３５號","OBJECTID":458801},"geometry":{"x":168111.04000000004,"y":2545123.910000002}},{"attributes":{"ID":458827,"DIS_CODE":0,"TOWNNAME":"北區","LI":"和順里","LIN":"13鄰","STREET":"民德路","SECT":" ","MAREA":" ","LANE":"１０５巷","ALLEY":" ","HOUSE_NO":"３６號","E_COORD97":168085.95999999999,"N_COORD97":2545144.0499999998,"ADDRESS":"民德路１０５巷３６號","OBJECTID":458802},"geometry":{"x":168085.95999999996,"y":2545144.0500000026}},{"attributes":{"ID":458828,"DIS_CODE":0,"TOWNNAME":"北區","LI":"和順里","LIN":"13鄰","STREET":"民德路","SECT":" ","MAREA":" ","LANE":"１０５巷","ALLEY":" ","HOUSE_NO":"３７號","E_COORD97":168107.76000000001,"N_COORD97":2545122.1699999999,"ADDRESS":"民德路１０５巷３７號","OBJECTID":458803},"geometry":{"x":168107.75999999978,"y":2545122.1700000018}},{"attributes":{"ID":458829,"DIS_CODE":0,"TOWNNAME":"北區","LI":"和順里","LIN":"13鄰","STREET":"民德路","SECT":" ","MAREA":" ","LANE":"１０５巷","ALLEY":" ","HOUSE_NO":"３８號","E_COORD97":168081.51999999999,"N_COORD97":2545143.0899999999,"ADDRESS":"民德路１０５巷３８號","OBJECTID":458804},"geometry":{"x":168081.51999999955,"y":2545143.0900000017}},{"attributes":{"ID":458830,"DIS_CODE":0,"TOWNNAME":"北區","LI":"和順里","LIN":"13鄰","STREET":"民德路","SECT":" ","MAREA":" ","LANE":"１０５巷","ALLEY":" ","HOUSE_NO":"３９號","E_COORD97":168103.70999999999,"N_COORD97":2545120.8300000001,"ADDRESS":"民德路１０５巷３９號","OBJECTID":458805},"geometry":{"x":168103.71000000089,"y":2545120.8300000038}},{"attributes":{"ID":458831,"DIS_CODE":0,"TOWNNAME":"安平區","LI":"怡平里","LIN":"18鄰","STREET":"文平路","SECT":" ","MAREA":" ","LANE":"４６１巷","ALLEY":" ","HOUSE_NO":"６９號","E_COORD97":165645.09,"N_COORD97":2543881.9500000002,"ADDRESS":"文平路４６１巷６９號","OBJECTID":458806},"geometry":{"x":165645.09000000078,"y":2543881.9500000011}},{"attributes":{"ID":458832,"DIS_CODE":0,"TOWNNAME":"北區","LI":"和順里","LIN":"13鄰","STREET":"民德路","SECT":" ","MAREA":" ","LANE":"１０５巷","ALLEY":" ","HOUSE_NO":"９號","E_COORD97":168162.94,"N_COORD97":2545143.5699999998,"ADDRESS":"民德路１０５巷９號","OBJECTID":458807},"geometry":{"x":168162.94000000041,"y":2545143.5700000022}},{"attributes":{"ID":458833,"DIS_CODE":0,"TOWNNAME":"北區","LI":"文元里","LIN":"13鄰","STREET":"文賢路","SECT":" ","MAREA":" ","LANE":"１１８０巷","ALLEY":" ","HOUSE_NO":"３９號","E_COORD97":167413.07000000001,"N_COORD97":2546490.6899999999,"ADDRESS":"文賢路１１８０巷３９號","OBJECTID":458808},"geometry":{"x":167413.07000000216,"y":2546490.6900000032}},{"attributes":{"ID":458834,"DIS_CODE":0,"TOWNNAME":"北區","LI":"文元里","LIN":"13鄰","STREET":"文賢路","SECT":" ","MAREA":" ","LANE":"１１８０巷","ALLEY":" ","HOUSE_NO":"４１號","E_COORD97":167417.10999999999,"N_COORD97":2546492.5,"ADDRESS":"文賢路１１８０巷４１號","OBJECTID":458809},"geometry":{"x":167417.11000000034,"y":2546492.5000000037}},{"attributes":{"ID":458835,"DIS_CODE":0,"TOWNNAME":"北區","LI":"文元里","LIN":"13鄰","STREET":"文賢路","SECT":" ","MAREA":" ","LANE":"１１８０巷","ALLEY":" ","HOUSE_NO":"４３號","E_COORD97":167420.34,"N_COORD97":2546494.1600000001,"ADDRESS":"文賢路１１８０巷４３號","OBJECTID":458810},"geometry":{"x":167420.33999999985,"y":2546494.1600000001}},{"attributes":{"ID":458836,"DIS_CODE":0,"TOWNNAME":"北區","LI":"文元里","LIN":"13鄰","STREET":"文賢路","SECT":" ","MAREA":" ","LANE":"１１８０巷","ALLEY":" ","HOUSE_NO":"４５號","E_COORD97":167424.23000000001,"N_COORD97":2546496.21,"ADDRESS":"文賢路１１８０巷４５號","OBJECTID":458811},"geometry":{"x":167424.23000000138,"y":2546496.2100000028}},{"attributes":{"ID":458837,"DIS_CODE":0,"TOWNNAME":"北區","LI":"文元里","LIN":"13鄰","STREET":"文賢路","SECT":" ","MAREA":" ","LANE":"１１８０巷","ALLEY":" ","HOUSE_NO":"４７號","E_COORD97":167428.13,"N_COORD97":2546497.8500000001,"ADDRESS":"文賢路１１８０巷４７號","OBJECTID":458812},"geometry":{"x":167428.13000000082,"y":2546497.8500000015}},{"attributes":{"ID":458838,"DIS_CODE":0,"TOWNNAME":"北區","LI":"文元里","LIN":"13鄰","STREET":"文賢路","SECT":" ","MAREA":" ","LANE":"１１８０巷","ALLEY":" ","HOUSE_NO":"４９號","E_COORD97":167431.60999999999,"N_COORD97":2546499.2799999998,"ADDRESS":"文賢路１１８０巷４９號","OBJECTID":458813},"geometry":{"x":167431.61000000127,"y":2546499.2799999993}},{"attributes":{"ID":458839,"DIS_CODE":0,"TOWNNAME":"北區","LI":"文元里","LIN":"13鄰","STREET":"文賢路","SECT":" ","MAREA":" ","LANE":"１１８０巷","ALLEY":" ","HOUSE_NO":"５１號","E_COORD97":167435.29999999999,"N_COORD97":2546501.1200000001,"ADDRESS":"文賢路１１８０巷５１號","OBJECTID":458814},"geometry":{"x":167435.30000000075,"y":2546501.1200000029}},{"attributes":{"ID":458840,"DIS_CODE":0,"TOWNNAME":"北區","LI":"文元里","LIN":"13鄰","STREET":"文賢路","SECT":" ","MAREA":" ","LANE":"１１８０巷","ALLEY":" ","HOUSE_NO":"５３號","E_COORD97":167438.98999999999,"N_COORD97":2546502.96,"ADDRESS":"文賢路１１８０巷５３號","OBJECTID":458815},"geometry":{"x":167438.99000000209,"y":2546502.9600000009}},{"attributes":{"ID":458841,"DIS_CODE":0,"TOWNNAME":"歸仁區","LI":"歸仁里","LIN":"13鄰","STREET":"文化街","SECT":"一段","MAREA":" ","LANE":"１２５巷","ALLEY":" ","HOUSE_NO":"３號","E_COORD97":177902.98999999999,"N_COORD97":2541096.0499999998,"ADDRESS":"文化街一段１２５巷３號","OBJECTID":458816},"geometry":{"x":177902.99000000022,"y":2541096.0500000026}},{"attributes":{"ID":458842,"DIS_CODE":0,"TOWNNAME":"南區","LI":"大林里","LIN":"13鄰","STREET":"國民路","SECT":" ","MAREA":" ","LANE":"５１１巷","ALLEY":" ","HOUSE_NO":"３２號","E_COORD97":168583.20000000001,"N_COORD97":2541415.23,"ADDRESS":"國民路５１１巷３２號","OBJECTID":458817},"geometry":{"x":168583.20000000019,"y":2541415.2300000004}},{"attributes":{"ID":458843,"DIS_CODE":0,"TOWNNAME":"南區","LI":"大林里","LIN":"13鄰","STREET":"國民路","SECT":" ","MAREA":" ","LANE":"５１１巷","ALLEY":" ","HOUSE_NO":"４２號之１","E_COORD97":168541.23999999999,"N_COORD97":2541277.6600000001,"ADDRESS":"國民路５１１巷４２號之１","OBJECTID":458818},"geometry":{"x":168541.24000000115,"y":2541277.660000002}},{"attributes":{"ID":458844,"DIS_CODE":0,"TOWNNAME":"安平區","LI":"怡平里","LIN":"18鄰","STREET":"文平路","SECT":" ","MAREA":" ","LANE":"４６１巷","ALLEY":" ","HOUSE_NO":"３４號","E_COORD97":165721.94,"N_COORD97":2543890,"ADDRESS":"文平路４６１巷３４號","OBJECTID":458819},"geometry":{"x":165721.94000000041,"y":2543890.0000000019}},{"attributes":{"ID":458845,"DIS_CODE":0,"TOWNNAME":"安平區","LI":"怡平里","LIN":"18鄰","STREET":"文平路","SECT":" ","MAREA":" ","LANE":"４６１巷","ALLEY":" ","HOUSE_NO":"３６號","E_COORD97":165717.25,"N_COORD97":2543891.3100000001,"ADDRESS":"文平路４６１巷３６號","OBJECTID":458820},"geometry":{"x":165717.25,"y":2543891.3100000024}},{"attributes":{"ID":458846,"DIS_CODE":0,"TOWNNAME":"安平區","LI":"怡平里","LIN":"18鄰","STREET":"文平路","SECT":" ","MAREA":" ","LANE":"４６１巷","ALLEY":" ","HOUSE_NO":"３８號","E_COORD97":165712.57000000001,"N_COORD97":2543891.6800000002,"ADDRESS":"文平路４６１巷３８號","OBJECTID":458821},"geometry":{"x":165712.5700000003,"y":2543891.6800000016}},{"attributes":{"ID":458847,"DIS_CODE":0,"TOWNNAME":"安平區","LI":"怡平里","LIN":"18鄰","STREET":"文平路","SECT":" ","MAREA":" ","LANE":"４６１巷","ALLEY":" ","HOUSE_NO":"４０號","E_COORD97":165708.44,"N_COORD97":2543892.8100000001,"ADDRESS":"文平路４６１巷４０號","OBJECTID":458822},"geometry":{"x":165708.44000000041,"y":2543892.8100000005}},{"attributes":{"ID":458848,"DIS_CODE":0,"TOWNNAME":"安平區","LI":"怡平里","LIN":"17鄰","STREET":"永華六街","SECT":" ","MAREA":" ","LANE":"１５４巷","ALLEY":" ","HOUSE_NO":"３號","E_COORD97":165754.38,"N_COORD97":2543910.48,"ADDRESS":"永華六街１５４巷３號","OBJECTID":458823},"geometry":{"x":165754.38000000175,"y":2543910.4800000023}},{"attributes":{"ID":458849,"DIS_CODE":0,"TOWNNAME":"安平區","LI":"怡平里","LIN":"17鄰","STREET":"永華六街","SECT":" ","MAREA":" ","LANE":"１５４巷","ALLEY":" ","HOUSE_NO":"５號","E_COORD97":165749.23999999999,"N_COORD97":2543917.04,"ADDRESS":"永華六街１５４巷５號","OBJECTID":458824},"geometry":{"x":165749.24000000115,"y":2543917.0399999991}},{"attributes":{"ID":458850,"DIS_CODE":0,"TOWNNAME":"新營區","LI":"南紙里","LIN":"13鄰","STREET":"太子路","SECT":" ","MAREA":" ","LANE":"２３８巷","ALLEY":" ","HOUSE_NO":"３４號","E_COORD97":177791.51999999999,"N_COORD97":2577931.0299999998,"ADDRESS":"太子路２３８巷３４號","OBJECTID":458825},"geometry":{"x":177791.51999999955,"y":2577931.0300000012}},{"attributes":{"ID":458851,"DIS_CODE":0,"TOWNNAME":"新營區","LI":"忠政里","LIN":"13鄰","STREET":"中正路","SECT":" ","MAREA":" ","LANE":"１０７巷","ALLEY":" ","HOUSE_NO":"５０號","E_COORD97":179902.87,"N_COORD97":2579690.6000000001,"ADDRESS":"中正路１０７巷５０號","OBJECTID":458826},"geometry":{"x":179902.87000000104,"y":2579690.6000000015}},{"attributes":{"ID":458852,"DIS_CODE":0,"TOWNNAME":"新營區","LI":"忠政里","LIN":"13鄰","STREET":"中正路","SECT":" ","MAREA":" ","LANE":"１０７巷","ALLEY":" ","HOUSE_NO":"６０號","E_COORD97":179860.91,"N_COORD97":2579688.5800000001,"ADDRESS":"中正路１０７巷６０號","OBJECTID":458827},"geometry":{"x":179860.91000000015,"y":2579688.5800000019}},{"attributes":{"ID":458853,"DIS_CODE":0,"TOWNNAME":"新營區","LI":"新北里","LIN":"13鄰","STREET":"周武街","SECT":" ","MAREA":" ","LANE":"７９巷","ALLEY":" ","HOUSE_NO":"３６號","E_COORD97":179303.42000000001,"N_COORD97":2579013.4700000002,"ADDRESS":"周武街７９巷３６號","OBJECTID":458828},"geometry":{"x":179303.41999999993,"y":2579013.4700000007}},{"attributes":{"ID":458854,"DIS_CODE":0,"TOWNNAME":"新營區","LI":"興業里","LIN":"13鄰","STREET":"中興路","SECT":" ","MAREA":" ","LANE":"１３巷","ALLEY":" ","HOUSE_NO":"２０號","E_COORD97":180147.48000000001,"N_COORD97":2577981.7400000002,"ADDRESS":"中興路１３巷２０號","OBJECTID":458829},"geometry":{"x":180147.48000000045,"y":2577981.7400000021}},{"attributes":{"ID":458855,"DIS_CODE":0,"TOWNNAME":"新營區","LI":"南紙里","LIN":"13鄰","STREET":"太子路","SECT":" ","MAREA":" ","LANE":"２００巷","ALLEY":" ","HOUSE_NO":"１９號","E_COORD97":177880.41,"N_COORD97":2577927.27,"ADDRESS":"太子路２００巷１９號","OBJECTID":458830},"geometry":{"x":177880.41000000108,"y":2577927.2700000014}},{"attributes":{"ID":458856,"DIS_CODE":0,"TOWNNAME":"新營區","LI":"忠政里","LIN":"13鄰","STREET":"中正路","SECT":" ","MAREA":" ","LANE":"１１５巷","ALLEY":" ","HOUSE_NO":"３７號","E_COORD97":179885.44,"N_COORD97":2579667.4199999999,"ADDRESS":"中正路１１５巷３７號","OBJECTID":458831},"geometry":{"x":179885.43999999948,"y":2579667.4199999999}},{"attributes":{"ID":458857,"DIS_CODE":0,"TOWNNAME":"新營區","LI":"南紙里","LIN":"13鄰","STREET":"太子路","SECT":" ","MAREA":" ","LANE":"２００巷","ALLEY":" ","HOUSE_NO":"３１號","E_COORD97":177872.42000000001,"N_COORD97":2577950.5699999998,"ADDRESS":"太子路２００巷３１號","OBJECTID":458832},"geometry":{"x":177872.41999999993,"y":2577950.5700000003}},{"attributes":{"ID":458858,"DIS_CODE":0,"TOWNNAME":"新營區","LI":"南興里","LIN":"13鄰","STREET":"興農街","SECT":" ","MAREA":" ","LANE":"１３６巷","ALLEY":" ","HOUSE_NO":"２４號","E_COORD97":179149.45000000001,"N_COORD97":2577618.8100000001,"ADDRESS":"興農街１３６巷２４號","OBJECTID":458833},"geometry":{"x":179149.45000000205,"y":2577618.8100000024}},{"attributes":{"ID":458859,"DIS_CODE":0,"TOWNNAME":"安平區","LI":"華平里","LIN":"20鄰","STREET":"永華八街","SECT":" ","MAREA":" ","LANE":"１９３巷","ALLEY":" ","HOUSE_NO":"６號","E_COORD97":165129.51999999999,"N_COORD97":2543749.23,"ADDRESS":"永華八街１９３巷６號","OBJECTID":458834},"geometry":{"x":165129.52000000048,"y":2543749.2300000023}},{"attributes":{"ID":458860,"DIS_CODE":0,"TOWNNAME":"安平區","LI":"華平里","LIN":"26鄰","STREET":"健康二街","SECT":" ","MAREA":" ","LANE":"４１９巷","ALLEY":" ","HOUSE_NO":"２４號","E_COORD97":165247.73999999999,"N_COORD97":2543726.1099999999,"ADDRESS":"健康二街４１９巷２４號","OBJECTID":458835},"geometry":{"x":165247.74000000115,"y":2543726.1100000013}},{"attributes":{"ID":458861,"DIS_CODE":0,"TOWNNAME":"安平區","LI":"華平里","LIN":"26鄰","STREET":"健康二街","SECT":" ","MAREA":" ","LANE":"４１９巷","ALLEY":" ","HOUSE_NO":"２６號","E_COORD97":165243.04000000001,"N_COORD97":2543726.4399999999,"ADDRESS":"健康二街４１９巷２６號","OBJECTID":458836},"geometry":{"x":165243.0400000019,"y":2543726.4400000013}},{"attributes":{"ID":458862,"DIS_CODE":0,"TOWNNAME":"安平區","LI":"華平里","LIN":"26鄰","STREET":"健康二街","SECT":" ","MAREA":" ","LANE":"４１９巷","ALLEY":" ","HOUSE_NO":"２８號","E_COORD97":165239.01000000001,"N_COORD97":2543727,"ADDRESS":"健康二街４１９巷２８號","OBJECTID":458837},"geometry":{"x":165239.00999999978,"y":2543727.0000000019}},{"attributes":{"ID":458863,"DIS_CODE":0,"TOWNNAME":"新營區","LI":"忠政里","LIN":"13鄰","STREET":"中正路","SECT":" ","MAREA":" ","LANE":"１１５巷","ALLEY":" ","HOUSE_NO":"２９號","E_COORD97":179923.26000000001,"N_COORD97":2579666.1400000001,"ADDRESS":"中正路１１５巷２９號","OBJECTID":458838},"geometry":{"x":179923.25999999885,"y":2579666.1400000006}},{"attributes":{"ID":458864,"DIS_CODE":0,"TOWNNAME":"新營區","LI":"嘉芳里","LIN":"13鄰","STREET":"復興路","SECT":" ","MAREA":" ","LANE":"９７１巷","ALLEY":" ","HOUSE_NO":"１３號","E_COORD97":176804.85999999999,"N_COORD97":2578659.04,"ADDRESS":"復興路９７１巷１３號","OBJECTID":458839},"geometry":{"x":176804.86000000127,"y":2578659.0400000028}},{"attributes":{"ID":458865,"DIS_CODE":0,"TOWNNAME":"新營區","LI":"南紙里","LIN":"13鄰","STREET":"太子路","SECT":" ","MAREA":" ","LANE":"２００巷","ALLEY":" ","HOUSE_NO":"５９之１號","E_COORD97":177837.26000000001,"N_COORD97":2578002.8500000001,"ADDRESS":"太子路２００巷５９之１號","OBJECTID":458840},"geometry":{"x":177837.26000000071,"y":2578002.8499999996}},{"attributes":{"ID":458866,"DIS_CODE":0,"TOWNNAME":"新營區","LI":"埤寮里","LIN":"13鄰","STREET":"中正路","SECT":" ","MAREA":" ","LANE":"４７９巷","ALLEY":" ","HOUSE_NO":"３之３號","E_COORD97":179981.54999999999,"N_COORD97":2580476.5699999998,"ADDRESS":"中正路４７９巷３之３號","OBJECTID":458841},"geometry":{"x":179981.55000000075,"y":2580476.5700000003}},{"attributes":{"ID":458867,"DIS_CODE":0,"TOWNNAME":"安平區","LI":"怡平里","LIN":"13鄰","STREET":"建平十二街","SECT":" ","MAREA":" ","LANE":"３８６巷","ALLEY":" ","HOUSE_NO":"６號","E_COORD97":165615.95999999999,"N_COORD97":2544062.3700000001,"ADDRESS":"建平十二街３８６巷６號","OBJECTID":458842},"geometry":{"x":165615.95999999996,"y":2544062.370000001}},{"attributes":{"ID":458868,"DIS_CODE":0,"TOWNNAME":"安平區","LI":"怡平里","LIN":"13鄰","STREET":"建平十二街","SECT":" ","MAREA":" ","LANE":"３８６巷","ALLEY":" ","HOUSE_NO":"７號","E_COORD97":165593.10999999999,"N_COORD97":2544064.9700000002,"ADDRESS":"建平十二街３８６巷７號","OBJECTID":458843},"geometry":{"x":165593.11000000034,"y":2544064.9700000007}},{"attributes":{"ID":458869,"DIS_CODE":0,"TOWNNAME":"安平區","LI":"怡平里","LIN":"13鄰","STREET":"建平十二街","SECT":" ","MAREA":" ","LANE":"３８６巷","ALLEY":" ","HOUSE_NO":"８號","E_COORD97":165616.76000000001,"N_COORD97":2544068.5600000001,"ADDRESS":"建平十二街３８６巷８號","OBJECTID":458844},"geometry":{"x":165616.76000000071,"y":2544068.5600000042}},{"attributes":{"ID":458870,"DIS_CODE":0,"TOWNNAME":"安平區","LI":"怡平里","LIN":"13鄰","STREET":"建平十二街","SECT":" ","MAREA":" ","LANE":"３８６巷","ALLEY":" ","HOUSE_NO":"１０號","E_COORD97":165618.23000000001,"N_COORD97":2544071.77,"ADDRESS":"建平十二街３８６巷１０號","OBJECTID":458845},"geometry":{"x":165618.23000000045,"y":2544071.7699999996}},{"attributes":{"ID":458871,"DIS_CODE":0,"TOWNNAME":"安平區","LI":"怡平里","LIN":"13鄰","STREET":"建平十二街","SECT":" ","MAREA":" ","LANE":"３８６巷","ALLEY":" ","HOUSE_NO":"１１號","E_COORD97":165594.22,"N_COORD97":2544074.2599999998,"ADDRESS":"建平十二街３８６巷１１號","OBJECTID":458846},"geometry":{"x":165594.2200000016,"y":2544074.2600000016}},{"attributes":{"ID":458872,"DIS_CODE":0,"TOWNNAME":"安平區","LI":"怡平里","LIN":"13鄰","STREET":"建平十二街","SECT":" ","MAREA":" ","LANE":"３８６巷","ALLEY":" ","HOUSE_NO":"１２號","E_COORD97":165615.01000000001,"N_COORD97":2544077.77,"ADDRESS":"建平十二街３８６巷１２號","OBJECTID":458847},"geometry":{"x":165615.01000000071,"y":2544077.7700000014}},{"attributes":{"ID":458873,"DIS_CODE":0,"TOWNNAME":"安平區","LI":"怡平里","LIN":"13鄰","STREET":"建平十二街","SECT":" ","MAREA":" ","LANE":"３８６巷","ALLEY":" ","HOUSE_NO":"１３號","E_COORD97":165595.19,"N_COORD97":2544078.5600000001,"ADDRESS":"建平十二街３８６巷１３號","OBJECTID":458848},"geometry":{"x":165595.19000000227,"y":2544078.5600000042}},{"attributes":{"ID":458874,"DIS_CODE":0,"TOWNNAME":"安平區","LI":"怡平里","LIN":"13鄰","STREET":"建平十二街","SECT":" ","MAREA":" ","LANE":"３８６巷","ALLEY":" ","HOUSE_NO":"１４號","E_COORD97":165615.17000000001,"N_COORD97":2544082.5299999998,"ADDRESS":"建平十二街３８６巷１４號","OBJECTID":458849},"geometry":{"x":165615.17000000179,"y":2544082.5300000012}},{"attributes":{"ID":458875,"DIS_CODE":0,"TOWNNAME":"安平區","LI":"怡平里","LIN":"13鄰","STREET":"建平十二街","SECT":" ","MAREA":" ","LANE":"３８６巷","ALLEY":" ","HOUSE_NO":"１５號","E_COORD97":165595.75,"N_COORD97":2544083.1299999999,"ADDRESS":"建平十二街３８６巷１５號","OBJECTID":458850},"geometry":{"x":165595.75,"y":2544083.1299999971}},{"attributes":{"ID":458876,"DIS_CODE":0,"TOWNNAME":"安平區","LI":"怡平里","LIN":"13鄰","STREET":"建平十二街","SECT":" ","MAREA":" ","LANE":"３８６巷","ALLEY":" ","HOUSE_NO":"１７號","E_COORD97":165596.17000000001,"N_COORD97":2544087.4300000002,"ADDRESS":"建平十二街３８６巷１７號","OBJECTID":458851},"geometry":{"x":165596.16999999993,"y":2544087.4299999997}},{"attributes":{"ID":458877,"DIS_CODE":0,"TOWNNAME":"安平區","LI":"怡平里","LIN":"13鄰","STREET":"建平十二街","SECT":" ","MAREA":" ","LANE":"３８６巷","ALLEY":" ","HOUSE_NO":"１９號","E_COORD97":165596.44,"N_COORD97":2544091.73,"ADDRESS":"建平十二街３８６巷１９號","OBJECTID":458852},"geometry":{"x":165596.44000000041,"y":2544091.7300000023}},{"attributes":{"ID":458878,"DIS_CODE":0,"TOWNNAME":"安平區","LI":"怡平里","LIN":"13鄰","STREET":"建平十二街","SECT":" ","MAREA":" ","LANE":"３８６巷","ALLEY":" ","HOUSE_NO":"２１號","E_COORD97":165597.35999999999,"N_COORD97":2544095.8799999999,"ADDRESS":"建平十二街３８６巷２１號","OBJECTID":458853},"geometry":{"x":165597.3600000022,"y":2544095.8800000008}},{"attributes":{"ID":458879,"DIS_CODE":0,"TOWNNAME":"安平區","LI":"怡平里","LIN":"13鄰","STREET":"建平十二街","SECT":" ","MAREA":" ","LANE":"３８６巷","ALLEY":" ","HOUSE_NO":"２３號","E_COORD97":165597.91,"N_COORD97":2544101.1000000001,"ADDRESS":"建平十二街３８６巷２３號","OBJECTID":458854},"geometry":{"x":165597.91000000015,"y":2544101.1000000034}},{"attributes":{"ID":458880,"DIS_CODE":0,"TOWNNAME":"安平區","LI":"怡平里","LIN":"13鄰","STREET":"建平十二街","SECT":" ","MAREA":" ","LANE":"３８６巷","ALLEY":" ","HOUSE_NO":"２５號","E_COORD97":165598.19,"N_COORD97":2544104.9500000002,"ADDRESS":"建平十二街３８６巷２５號","OBJECTID":458855},"geometry":{"x":165598.19000000041,"y":2544104.9499999974}},{"attributes":{"ID":458881,"DIS_CODE":0,"TOWNNAME":"安平區","LI":"怡平里","LIN":"13鄰","STREET":"建平十二街","SECT":" ","MAREA":" ","LANE":"３８６巷","ALLEY":" ","HOUSE_NO":"２７號","E_COORD97":165599.01000000001,"N_COORD97":2544110.5800000001,"ADDRESS":"建平十二街３８６巷２７號","OBJECTID":458856},"geometry":{"x":165599.01000000164,"y":2544110.5800000001}},{"attributes":{"ID":458882,"DIS_CODE":0,"TOWNNAME":"佳里區","LI":"六安里","LIN":"4鄰","STREET":"青年街","SECT":" ","MAREA":" ","LANE":" ","ALLEY":" ","HOUSE_NO":"６號","E_COORD97":166225.06,"N_COORD97":2563010.7999999998,"ADDRESS":"青年街６號","OBJECTID":458857},"geometry":{"x":166225.05999999959,"y":2563010.8000000026}},{"attributes":{"ID":458883,"DIS_CODE":0,"TOWNNAME":"安平區","LI":"怡平里","LIN":"13鄰","STREET":"建平十二街","SECT":" ","MAREA":" ","LANE":"３９６巷","ALLEY":" ","HOUSE_NO":"２號","E_COORD97":165568.54999999999,"N_COORD97":2544053.8799999999,"ADDRESS":"建平十二街３９６巷２號","OBJECTID":458858},"geometry":{"x":165568.55000000075,"y":2544053.879999999}},{"attributes":{"ID":458884,"DIS_CODE":0,"TOWNNAME":"安平區","LI":"怡平里","LIN":"13鄰","STREET":"建平十二街","SECT":" ","MAREA":" ","LANE":"３９６巷","ALLEY":" ","HOUSE_NO":"４號","E_COORD97":165568.69,"N_COORD97":2544058.1800000002,"ADDRESS":"建平十二街３９６巷４號","OBJECTID":458859},"geometry":{"x":165568.69000000134,"y":2544058.1800000016}},{"attributes":{"ID":458885,"DIS_CODE":0,"TOWNNAME":"安平區","LI":"怡平里","LIN":"13鄰","STREET":"建平十二街","SECT":" ","MAREA":" ","LANE":"３９６巷","ALLEY":" ","HOUSE_NO":"６號","E_COORD97":165568.97,"N_COORD97":2544063.1699999999,"ADDRESS":"建平十二街３９６巷６號","OBJECTID":458860},"geometry":{"x":165568.97000000067,"y":2544063.1699999999}},{"attributes":{"ID":458886,"DIS_CODE":0,"TOWNNAME":"安平區","LI":"怡平里","LIN":"13鄰","STREET":"建平十二街","SECT":" ","MAREA":" ","LANE":"３９６巷","ALLEY":" ","HOUSE_NO":"８號","E_COORD97":165569.10999999999,"N_COORD97":2544067.4700000002,"ADDRESS":"建平十二街３９６巷８號","OBJECTID":458861},"geometry":{"x":165569.11000000127,"y":2544067.4700000025}},{"attributes":{"ID":458887,"DIS_CODE":0,"TOWNNAME":"安平區","LI":"金城里","LIN":"13鄰","STREET":"世平一街","SECT":" ","MAREA":" ","LANE":"７２巷","ALLEY":" ","HOUSE_NO":"２１號","E_COORD97":162775.51000000001,"N_COORD97":2543970.5499999998,"ADDRESS":"世平一街７２巷２１號","OBJECTID":458862},"geometry":{"x":162775.51000000071,"y":2543970.5500000045}},{"attributes":{"ID":458888,"DIS_CODE":0,"TOWNNAME":"安平區","LI":"金城里","LIN":"13鄰","STREET":"世平一街","SECT":" ","MAREA":" ","LANE":"７２巷","ALLEY":" ","HOUSE_NO":"２２號","E_COORD97":162800.19,"N_COORD97":2543988.79,"ADDRESS":"世平一街７２巷２２號","OBJECTID":458863},"geometry":{"x":162800.19000000134,"y":2543988.790000001}},{"attributes":{"ID":458889,"DIS_CODE":0,"TOWNNAME":"安平區","LI":"金城里","LIN":"13鄰","STREET":"世平一街","SECT":" ","MAREA":" ","LANE":"７２巷","ALLEY":" ","HOUSE_NO":"２３號","E_COORD97":162771.32000000001,"N_COORD97":2543975.9700000002,"ADDRESS":"世平一街７２巷２３號","OBJECTID":458864},"geometry":{"x":162771.3200000003,"y":2543975.9700000025}},{"attributes":{"ID":458890,"DIS_CODE":0,"TOWNNAME":"安平區","LI":"金城里","LIN":"13鄰","STREET":"世平三街","SECT":" ","MAREA":" ","LANE":"１２巷","ALLEY":" ","HOUSE_NO":"１０號","E_COORD97":162812.26000000001,"N_COORD97":2544065.9900000002,"ADDRESS":"世平三街１２巷１０號","OBJECTID":458865},"geometry":{"x":162812.26000000164,"y":2544065.9900000021}},{"attributes":{"ID":458891,"DIS_CODE":0,"TOWNNAME":"安平區","LI":"金城里","LIN":"13鄰","STREET":"世平三街","SECT":" ","MAREA":" ","LANE":"１２巷","ALLEY":" ","HOUSE_NO":"１２號","E_COORD97":162809.82999999999,"N_COORD97":2544068.4100000001,"ADDRESS":"世平三街１２巷１２號","OBJECTID":458866},"geometry":{"x":162809.83000000007,"y":2544068.4100000001}},{"attributes":{"ID":458892,"DIS_CODE":0,"TOWNNAME":"安平區","LI":"金城里","LIN":"13鄰","STREET":"世平三街","SECT":" ","MAREA":" ","LANE":"１２巷","ALLEY":" ","HOUSE_NO":"１４號","E_COORD97":162807.41,"N_COORD97":2544071.3900000001,"ADDRESS":"世平三街１２巷１４號","OBJECTID":458867},"geometry":{"x":162807.41000000015,"y":2544071.3900000025}},{"attributes":{"ID":458893,"DIS_CODE":0,"TOWNNAME":"安平區","LI":"金城里","LIN":"13鄰","STREET":"世平三街","SECT":" ","MAREA":" ","LANE":"１２巷","ALLEY":" ","HOUSE_NO":"１６號","E_COORD97":162804.60999999999,"N_COORD97":2544074.9300000002,"ADDRESS":"世平三街１２巷１６號","OBJECTID":458868},"geometry":{"x":162804.61000000034,"y":2544074.9299999997}},{"attributes":{"ID":458894,"DIS_CODE":0,"TOWNNAME":"安平區","LI":"金城里","LIN":"13鄰","STREET":"世平三街","SECT":" ","MAREA":" ","LANE":"１２巷","ALLEY":" ","HOUSE_NO":"１８號","E_COORD97":162802.38,"N_COORD97":2544078.4700000002,"ADDRESS":"世平三街１２巷１８號","OBJECTID":458869},"geometry":{"x":162802.37999999989,"y":2544078.4700000007}},{"attributes":{"ID":458895,"DIS_CODE":0,"TOWNNAME":"安平區","LI":"金城里","LIN":"13鄰","STREET":"世平三街","SECT":" ","MAREA":" ","LANE":"１２巷","ALLEY":" ","HOUSE_NO":"２０號","E_COORD97":162798.82999999999,"N_COORD97":2544081.4500000002,"ADDRESS":"世平三街１２巷２０號","OBJECTID":458870},"geometry":{"x":162798.83000000101,"y":2544081.450000003}},{"attributes":{"ID":458896,"DIS_CODE":0,"TOWNNAME":"安平區","LI":"金城里","LIN":"13鄰","STREET":"世平三街","SECT":" ","MAREA":" ","LANE":"１２巷","ALLEY":" ","HOUSE_NO":"２２號","E_COORD97":162796.22,"N_COORD97":2544084.6200000001,"ADDRESS":"世平三街１２巷２２號","OBJECTID":458871},"geometry":{"x":162796.22000000067,"y":2544084.620000001}},{"attributes":{"ID":458897,"DIS_CODE":0,"TOWNNAME":"安平區","LI":"金城里","LIN":"13鄰","STREET":"世平三街","SECT":" ","MAREA":" ","LANE":"１２巷","ALLEY":" ","HOUSE_NO":"２號","E_COORD97":162824,"N_COORD97":2544049.4199999999,"ADDRESS":"世平三街１２巷２號","OBJECTID":458872},"geometry":{"x":162824,"y":2544049.4200000018}},{"attributes":{"ID":458898,"DIS_CODE":0,"TOWNNAME":"安平區","LI":"金城里","LIN":"13鄰","STREET":"世平三街","SECT":" ","MAREA":" ","LANE":"１２巷","ALLEY":" ","HOUSE_NO":"６號","E_COORD97":162817.29000000001,"N_COORD97":2544058.3599999999,"ADDRESS":"世平三街１２巷６號","OBJECTID":458873},"geometry":{"x":162817.2900000019,"y":2544058.3600000031}},{"attributes":{"ID":458899,"DIS_CODE":0,"TOWNNAME":"安平區","LI":"金城里","LIN":"13鄰","STREET":"世平三街","SECT":" ","MAREA":" ","LANE":"１２巷","ALLEY":" ","HOUSE_NO":"８號","E_COORD97":162814.48999999999,"N_COORD97":2544061.71,"ADDRESS":"世平三街１２巷８號","OBJECTID":458874},"geometry":{"x":162814.49000000209,"y":2544061.7100000028}},{"attributes":{"ID":458900,"DIS_CODE":0,"TOWNNAME":"安平區","LI":"金城里","LIN":"13鄰","STREET":"世平三街","SECT":" ","MAREA":" ","LANE":"２４巷","ALLEY":" ","HOUSE_NO":"２０號","E_COORD97":162739.73000000001,"N_COORD97":2544065.0600000001,"ADDRESS":"世平三街２４巷２０號","OBJECTID":458875},"geometry":{"x":162739.73000000045,"y":2544065.0600000042}},{"attributes":{"ID":458901,"DIS_CODE":0,"TOWNNAME":"南區","LI":"省躬里","LIN":"13鄰","STREET":"明興路","SECT":" ","MAREA":" ","LANE":"８６１巷","ALLEY":" ","HOUSE_NO":"２４號","E_COORD97":166157.37,"N_COORD97":2537308.3999999999,"ADDRESS":"明興路８６１巷２４號","OBJECTID":458876},"geometry":{"x":166157.37000000011,"y":2537308.4000000004}},{"attributes":{"ID":458902,"DIS_CODE":0,"TOWNNAME":"南區","LI":"省躬里","LIN":"13鄰","STREET":"明興路","SECT":" ","MAREA":" ","LANE":"８６１巷","ALLEY":" ","HOUSE_NO":"２６號","E_COORD97":166162.07999999999,"N_COORD97":2537309.9700000002,"ADDRESS":"明興路８６１巷２６號","OBJECTID":458877},"geometry":{"x":166162.08000000101,"y":2537309.9700000025}},{"attributes":{"ID":458903,"DIS_CODE":0,"TOWNNAME":"南區","LI":"省躬里","LIN":"13鄰","STREET":"明興路","SECT":" ","MAREA":" ","LANE":"８６１巷","ALLEY":" ","HOUSE_NO":"２８號","E_COORD97":166165.85999999999,"N_COORD97":2537312.48,"ADDRESS":"明興路８６１巷２８號","OBJECTID":458878},"geometry":{"x":166165.86000000127,"y":2537312.4800000023}},{"attributes":{"ID":458904,"DIS_CODE":0,"TOWNNAME":"南區","LI":"省躬里","LIN":"13鄰","STREET":"明興路","SECT":" ","MAREA":" ","LANE":"８６１巷","ALLEY":" ","HOUSE_NO":"３０號","E_COORD97":166171.20000000001,"N_COORD97":2537311.23,"ADDRESS":"明興路８６１巷３０號","OBJECTID":458879},"geometry":{"x":166171.20000000205,"y":2537311.2300000023}},{"attributes":{"ID":458905,"DIS_CODE":0,"TOWNNAME":"南區","LI":"省躬里","LIN":"13鄰","STREET":"明興路","SECT":" ","MAREA":" ","LANE":"８８３巷","ALLEY":" ","HOUSE_NO":"１１號","E_COORD97":166142.89999999999,"N_COORD97":2537281.4300000002,"ADDRESS":"明興路８８３巷１１號","OBJECTID":458880},"geometry":{"x":166142.90000000224,"y":2537281.4300000016}},{"attributes":{"ID":458906,"DIS_CODE":0,"TOWNNAME":"南區","LI":"省躬里","LIN":"13鄰","STREET":"明興路","SECT":" ","MAREA":" ","LANE":"８８３巷","ALLEY":" ","HOUSE_NO":"１３號","E_COORD97":166146.98999999999,"N_COORD97":2537283.9399999999,"ADDRESS":"明興路８８３巷１３號","OBJECTID":458881},"geometry":{"x":166146.99000000022,"y":2537283.9400000032}},{"attributes":{"ID":458907,"DIS_CODE":0,"TOWNNAME":"南區","LI":"省躬里","LIN":"13鄰","STREET":"明興路","SECT":" ","MAREA":" ","LANE":"８８３巷","ALLEY":" ","HOUSE_NO":"１５號","E_COORD97":166152.32999999999,"N_COORD97":2537282.3700000001,"ADDRESS":"明興路８８３巷１５號","OBJECTID":458882},"geometry":{"x":166152.33000000101,"y":2537282.370000001}},{"attributes":{"ID":458908,"DIS_CODE":0,"TOWNNAME":"南區","LI":"省躬里","LIN":"13鄰","STREET":"明興路","SECT":" ","MAREA":" ","LANE":"８８３巷","ALLEY":" ","HOUSE_NO":"１７號","E_COORD97":166156.10999999999,"N_COORD97":2537284.5699999998,"ADDRESS":"明興路８８３巷１７號","OBJECTID":458883},"geometry":{"x":166156.11000000034,"y":2537284.5700000022}},{"attributes":{"ID":458909,"DIS_CODE":0,"TOWNNAME":"南區","LI":"省躬里","LIN":"13鄰","STREET":"明興路","SECT":" ","MAREA":" ","LANE":"８８３巷","ALLEY":" ","HOUSE_NO":"１９號","E_COORD97":166160.51000000001,"N_COORD97":2537286.1400000001,"ADDRESS":"明興路８８３巷１９號","OBJECTID":458884},"geometry":{"x":166160.51000000071,"y":2537286.1400000006}},{"attributes":{"ID":458910,"DIS_CODE":0,"TOWNNAME":"南區","LI":"省躬里","LIN":"13鄰","STREET":"明興路","SECT":" ","MAREA":" ","LANE":"８８３巷","ALLEY":" ","HOUSE_NO":"１號","E_COORD97":166122.45999999999,"N_COORD97":2537272.6299999999,"ADDRESS":"明興路８８３巷１號","OBJECTID":458885},"geometry":{"x":166122.46000000089,"y":2537272.6300000008}},{"attributes":{"ID":458911,"DIS_CODE":0,"TOWNNAME":"南區","LI":"省躬里","LIN":"13鄰","STREET":"明興路","SECT":" ","MAREA":" ","LANE":"８８３巷","ALLEY":" ","HOUSE_NO":"２１號","E_COORD97":166163.97,"N_COORD97":2537289.2799999998,"ADDRESS":"明興路８８３巷２１號","OBJECTID":458886},"geometry":{"x":166163.97000000067,"y":2537289.2800000012}},{"attributes":{"ID":458912,"DIS_CODE":0,"TOWNNAME":"南區","LI":"省躬里","LIN":"13鄰","STREET":"明興路","SECT":" ","MAREA":" ","LANE":"８８３巷","ALLEY":" ","HOUSE_NO":"２３號","E_COORD97":166169.63,"N_COORD97":2537288.02,"ADDRESS":"明興路８８３巷２３號","OBJECTID":458887},"geometry":{"x":166169.63000000175,"y":2537288.0200000014}},{"attributes":{"ID":458913,"DIS_CODE":0,"TOWNNAME":"南區","LI":"省躬里","LIN":"13鄰","STREET":"明興路","SECT":" ","MAREA":" ","LANE":"８８３巷","ALLEY":" ","HOUSE_NO":"２５號","E_COORD97":166172.45999999999,"N_COORD97":2537290.8500000001,"ADDRESS":"明興路８８３巷２５號","OBJECTID":458888},"geometry":{"x":166172.46000000183,"y":2537290.8499999996}},{"attributes":{"ID":458914,"DIS_CODE":0,"TOWNNAME":"南區","LI":"省躬里","LIN":"13鄰","STREET":"明興路","SECT":" ","MAREA":" ","LANE":"８８３巷","ALLEY":" ","HOUSE_NO":"２７號","E_COORD97":166177.17999999999,"N_COORD97":2537293.0499999998,"ADDRESS":"明興路８８３巷２７號","OBJECTID":458889},"geometry":{"x":166177.1799999997,"y":2537293.0500000026}},{"attributes":{"ID":458915,"DIS_CODE":0,"TOWNNAME":"南區","LI":"省躬里","LIN":"13鄰","STREET":"明興路","SECT":" ","MAREA":" ","LANE":"８８３巷","ALLEY":" ","HOUSE_NO":"２號","E_COORD97":166124.76999999999,"N_COORD97":2537247.6200000001,"ADDRESS":"明興路８８３巷２號","OBJECTID":458890},"geometry":{"x":166124.77000000048,"y":2537247.6200000029}},{"attributes":{"ID":458916,"DIS_CODE":0,"TOWNNAME":"南區","LI":"省躬里","LIN":"13鄰","STREET":"明興路","SECT":" ","MAREA":" ","LANE":"８８３巷","ALLEY":" ","HOUSE_NO":"９號","E_COORD97":166138.81,"N_COORD97":2537279.54,"ADDRESS":"明興路８８３巷９號","OBJECTID":458891},"geometry":{"x":166138.80999999959,"y":2537279.5400000028}},{"attributes":{"ID":458917,"DIS_CODE":0,"TOWNNAME":"南區","LI":"省躬里","LIN":"13鄰","STREET":"萬年路","SECT":" ","MAREA":" ","LANE":"８１巷","ALLEY":" ","HOUSE_NO":"１６號","E_COORD97":166319.51000000001,"N_COORD97":2537264.6699999999,"ADDRESS":"萬年路８１巷１６號","OBJECTID":458892},"geometry":{"x":166319.51000000164,"y":2537264.6699999999}},{"attributes":{"ID":458918,"DIS_CODE":0,"TOWNNAME":"南區","LI":"省躬里","LIN":"13鄰","STREET":"萬年路","SECT":" ","MAREA":" ","LANE":"８１巷","ALLEY":" ","HOUSE_NO":"１２號","E_COORD97":166323.28,"N_COORD97":2537256.8199999998,"ADDRESS":"萬年路８１巷１２號","OBJECTID":458893},"geometry":{"x":166323.28000000212,"y":2537256.8200000022}},{"attributes":{"ID":458919,"DIS_CODE":0,"TOWNNAME":"南區","LI":"省躬里","LIN":"13鄰","STREET":"萬年路","SECT":" ","MAREA":" ","LANE":"８１巷","ALLEY":" ","HOUSE_NO":"１０號","E_COORD97":166325.48000000001,"N_COORD97":2537251.1699999999,"ADDRESS":"萬年路８１巷１０號","OBJECTID":458894},"geometry":{"x":166325.48000000231,"y":2537251.1699999999}},{"attributes":{"ID":458920,"DIS_CODE":0,"TOWNNAME":"南區","LI":"省躬里","LIN":"13鄰","STREET":"萬年路","SECT":" ","MAREA":" ","LANE":"２８７巷","ALLEY":" ","HOUSE_NO":"１７號","E_COORD97":166745.72,"N_COORD97":2537481.0099999998,"ADDRESS":"萬年路２８７巷１７號","OBJECTID":458895},"geometry":{"x":166745.72000000067,"y":2537481.0100000016}},{"attributes":{"ID":458921,"DIS_CODE":0,"TOWNNAME":"南區","LI":"省躬里","LIN":"13鄰","STREET":"萬年路","SECT":" ","MAREA":" ","LANE":"２８７巷","ALLEY":" ","HOUSE_NO":"１９號","E_COORD97":166746.54000000001,"N_COORD97":2537497.3799999999,"ADDRESS":"萬年路２８７巷１９號","OBJECTID":458896},"geometry":{"x":166746.54000000004,"y":2537497.3800000027}},{"attributes":{"ID":458922,"DIS_CODE":0,"TOWNNAME":"南區","LI":"省躬里","LIN":"13鄰","STREET":"萬年路","SECT":" ","MAREA":" ","LANE":"２８７巷","ALLEY":" ","HOUSE_NO":"２０號","E_COORD97":166749.82000000001,"N_COORD97":2537516.3799999999,"ADDRESS":"萬年路２８７巷２０號","OBJECTID":458897},"geometry":{"x":166749.8200000003,"y":2537516.379999999}},{"attributes":{"ID":458923,"DIS_CODE":0,"TOWNNAME":"南區","LI":"省躬里","LIN":"13鄰","STREET":"萬年路","SECT":" ","MAREA":" ","LANE":"２８７巷","ALLEY":" ","HOUSE_NO":"２８號","E_COORD97":166760.06,"N_COORD97":2537451.1499999999,"ADDRESS":"萬年路２８７巷２８號","OBJECTID":458898},"geometry":{"x":166760.06000000052,"y":2537451.1500000022}},{"attributes":{"ID":458924,"DIS_CODE":0,"TOWNNAME":"南區","LI":"永寧里","LIN":"13鄰","STREET":"灣裡路","SECT":" ","MAREA":" ","LANE":"２３８巷","ALLEY":" ","HOUSE_NO":"４號","E_COORD97":166034.22,"N_COORD97":2536487.4900000002,"ADDRESS":"灣裡路２３８巷４號","OBJECTID":458899},"geometry":{"x":166034.21999999974,"y":2536487.4899999984}},{"attributes":{"ID":458925,"DIS_CODE":0,"TOWNNAME":"南區","LI":"永寧里","LIN":"13鄰","STREET":"灣裡路","SECT":" ","MAREA":" ","LANE":"２３８巷","ALLEY":" ","HOUSE_NO":"１０號","E_COORD97":166021.60000000001,"N_COORD97":2536481.23,"ADDRESS":"灣裡路２３８巷１０號","OBJECTID":458900},"geometry":{"x":166021.59999999963,"y":2536481.2300000023}},{"attributes":{"ID":458926,"DIS_CODE":0,"TOWNNAME":"南區","LI":"喜南里","LIN":"13鄰","STREET":"喜樹路","SECT":" ","MAREA":" ","LANE":"２２２巷","ALLEY":" ","HOUSE_NO":"３號","E_COORD97":165712.01000000001,"N_COORD97":2537996.6800000002,"ADDRESS":"喜樹路２２２巷３號","OBJECTID":458901},"geometry":{"x":165712.00999999978,"y":2537996.6799999997}},{"attributes":{"ID":458927,"DIS_CODE":0,"TOWNNAME":"南區","LI":"喜南里","LIN":"13鄰","STREET":"喜樹路","SECT":" ","MAREA":" ","LANE":"２２２巷","ALLEY":" ","HOUSE_NO":"５號","E_COORD97":165705.92000000001,"N_COORD97":2537997.7200000002,"ADDRESS":"喜樹路２２２巷５號","OBJECTID":458902},"geometry":{"x":165705.91999999993,"y":2537997.7200000007}},{"attributes":{"ID":458928,"DIS_CODE":0,"TOWNNAME":"歸仁區","LI":"南興里","LIN":"18鄰","STREET":"南興一街","SECT":" ","MAREA":" ","LANE":" ","ALLEY":" ","HOUSE_NO":"７號","E_COORD97":175665.23999999999,"N_COORD97":2541343.25,"ADDRESS":"南興一街７號","OBJECTID":458903},"geometry":{"x":175665.24000000022,"y":2541343.25}},{"attributes":{"ID":458929,"DIS_CODE":0,"TOWNNAME":"永康區","LI":"復華里","LIN":"36鄰","STREET":"復華七街","SECT":" ","MAREA":" ","LANE":" ","ALLEY":" ","HOUSE_NO":"７號","E_COORD97":172568.82999999999,"N_COORD97":2545984.52,"ADDRESS":"復華七街７號","OBJECTID":458904},"geometry":{"x":172568.83000000007,"y":2545984.5200000014}},{"attributes":{"ID":458930,"DIS_CODE":0,"TOWNNAME":"新市區","LI":"新和里","LIN":"36鄰","STREET":"華興街","SECT":" ","MAREA":" ","LANE":" ","ALLEY":" ","HOUSE_NO":"８５號","E_COORD97":177563.53,"N_COORD97":2552968.25,"ADDRESS":"華興街８５號","OBJECTID":458905},"geometry":{"x":177563.53000000026,"y":2552968.25}},{"attributes":{"ID":458931,"DIS_CODE":0,"TOWNNAME":"麻豆區","LI":"穀興里","LIN":"5鄰","STREET":"大同街","SECT":" ","MAREA":" ","LANE":" ","ALLEY":" ","HOUSE_NO":"１號","E_COORD97":172881.13,"N_COORD97":2564981.2000000002,"ADDRESS":"大同街１號","OBJECTID":458906},"geometry":{"x":172881.13000000082,"y":2564981.1999999974}},{"attributes":{"ID":458932,"DIS_CODE":0,"TOWNNAME":"永康區","LI":"北灣里","LIN":" ","STREET":"大灣路","SECT":" ","MAREA":" ","LANE":" ","ALLEY":" ","HOUSE_NO":"６８號","E_COORD97":175241.20999999999,"N_COORD97":2545786.6699999999,"ADDRESS":"大灣路６８號","OBJECTID":458907},"geometry":{"x":175241.20999999996,"y":2545786.6700000018}},{"attributes":{"ID":458933,"DIS_CODE":0,"TOWNNAME":"新市區","LI":"港墘里","LIN":"5鄰","STREET":"民族路","SECT":" ","MAREA":" ","LANE":" ","ALLEY":" ","HOUSE_NO":"８４號","E_COORD97":178299.89999999999,"N_COORD97":2553624.79,"ADDRESS":"民族路８４號","OBJECTID":458908},"geometry":{"x":178299.9000000013,"y":2553624.7899999991}},{"attributes":{"ID":458934,"DIS_CODE":0,"TOWNNAME":"新營區","LI":"忠政里","LIN":"5鄰","STREET":"安和街","SECT":" ","MAREA":" ","LANE":" ","ALLEY":" ","HOUSE_NO":"５號","E_COORD97":180060.10999999999,"N_COORD97":2579250.1899999999,"ADDRESS":"安和街５號","OBJECTID":458909},"geometry":{"x":180060.11000000034,"y":2579250.1899999995}},{"attributes":{"ID":458935,"DIS_CODE":0,"TOWNNAME":"南區","LI":"大恩里","LIN":"5鄰","STREET":"國民路","SECT":" ","MAREA":" ","LANE":" ","ALLEY":" ","HOUSE_NO":"７號","E_COORD97":169565.66,"N_COORD97":2540873.27,"ADDRESS":"國民路７號","OBJECTID":458910},"geometry":{"x":169565.66000000108,"y":2540873.2700000014}},{"attributes":{"ID":458936,"DIS_CODE":0,"TOWNNAME":"東區","LI":"崇信里","LIN":"6鄰","STREET":"崇信街","SECT":" ","MAREA":" ","LANE":" ","ALLEY":" ","HOUSE_NO":"４５號","E_COORD97":170725.70999999999,"N_COORD97":2542451.1299999999,"ADDRESS":"崇信街４５號","OBJECTID":458911},"geometry":{"x":170725.70999999903,"y":2542451.129999999}},{"attributes":{"ID":458937,"DIS_CODE":0,"TOWNNAME":"白河區","LI":"庄內里","LIN":"5鄰","STREET":"長安路","SECT":" ","MAREA":" ","LANE":" ","ALLEY":" ","HOUSE_NO":"５號","E_COORD97":190797.92999999999,"N_COORD97":2583490.21,"ADDRESS":"長安路５號","OBJECTID":458912},"geometry":{"x":190797.9299999997,"y":2583490.2100000009}},{"attributes":{"ID":458938,"DIS_CODE":0,"TOWNNAME":"歸仁區","LI":"南興里","LIN":"5鄰","STREET":"民生二街","SECT":" ","MAREA":" ","LANE":" ","ALLEY":" ","HOUSE_NO":"７號","E_COORD97":176228.35999999999,"N_COORD97":2541327.25,"ADDRESS":"民生二街７號","OBJECTID":458913},"geometry":{"x":176228.36000000127,"y":2541327.2500000037}},{"attributes":{"ID":458939,"DIS_CODE":0,"TOWNNAME":"麻豆區","LI":"興農里","LIN":"5鄰","STREET":"和平路","SECT":" ","MAREA":" ","LANE":" ","ALLEY":" ","HOUSE_NO":"２３號","E_COORD97":172396.62,"N_COORD97":2564212.1099999999,"ADDRESS":"和平路２３號","OBJECTID":458914},"geometry":{"x":172396.62000000104,"y":2564212.1099999994}},{"attributes":{"ID":458940,"DIS_CODE":0,"TOWNNAME":"關廟區","LI":"山西里","LIN":"5鄰","STREET":"正義街","SECT":" ","MAREA":" ","LANE":" ","ALLEY":" ","HOUSE_NO":"７２號","E_COORD97":180847.85999999999,"N_COORD97":2540286.27,"ADDRESS":"正義街７２號","OBJECTID":458915},"geometry":{"x":180847.86000000127,"y":2540286.2700000014}},{"attributes":{"ID":458941,"DIS_CODE":0,"TOWNNAME":"關廟區","LI":"布袋里","LIN":"5鄰","STREET":"長文街","SECT":" ","MAREA":" ","LANE":" ","ALLEY":" ","HOUSE_NO":"１１號","E_COORD97":183077.59,"N_COORD97":2535522.25,"ADDRESS":"長文街１１號","OBJECTID":458916},"geometry":{"x":183077.59000000171,"y":2535522.25}},{"attributes":{"ID":458942,"DIS_CODE":0,"TOWNNAME":"中西區","LI":"萬昌里","LIN":"5鄰","STREET":"萬昌街","SECT":" ","MAREA":" ","LANE":" ","ALLEY":" ","HOUSE_NO":"７號","E_COORD97":168968.45999999999,"N_COORD97":2543323.8399999999,"ADDRESS":"萬昌街７號","OBJECTID":458917},"geometry":{"x":168968.46000000089,"y":2543323.8400000017}},{"attributes":{"ID":458943,"DIS_CODE":0,"TOWNNAME":"永康區","LI":"\u25A0行里","LIN":"41鄰","STREET":"永安一街","SECT":" ","MAREA":" ","LANE":" ","ALLEY":" ","HOUSE_NO":"９８號","E_COORD97":172433.26000000001,"N_COORD97":2549396.3100000001,"ADDRESS":"永安一街９８號","OBJECTID":458918},"geometry":{"x":172433.25999999978,"y":2549396.3100000042}},{"attributes":{"ID":458944,"DIS_CODE":0,"TOWNNAME":"歸仁區","LI":"大廟里","LIN":"18鄰","STREET":"大廟五街","SECT":" ","MAREA":" ","LANE":" ","ALLEY":" ","HOUSE_NO":"２３號","E_COORD97":175914.47,"N_COORD97":2544213.25,"ADDRESS":"大廟五街２３號","OBJECTID":458919},"geometry":{"x":175914.4700000016,"y":2544213.2500000019}},{"attributes":{"ID":458945,"DIS_CODE":0,"TOWNNAME":"仁德區","LI":"土庫里","LIN":"18鄰","STREET":"土庫一街","SECT":" ","MAREA":" ","LANE":" ","ALLEY":" ","HOUSE_NO":"３２號","E_COORD97":174505.04000000001,"N_COORD97":2543102.75,"ADDRESS":"土庫一街３２號","OBJECTID":458920},"geometry":{"x":174505.04000000004,"y":2543102.75}},{"attributes":{"ID":458946,"DIS_CODE":0,"TOWNNAME":"西港區","LI":"慶安里","LIN":"18鄰","STREET":"新興街","SECT":" ","MAREA":" ","LANE":" ","ALLEY":" ","HOUSE_NO":"５８號","E_COORD97":168186.60999999999,"N_COORD97":2558015.77,"ADDRESS":"新興街５８號","OBJECTID":458921},"geometry":{"x":168186.61000000127,"y":2558015.7699999996}},{"attributes":{"ID":458947,"DIS_CODE":0,"TOWNNAME":"歸仁區","LI":"看西里","LIN":"11鄰","STREET":"成功六街","SECT":" ","MAREA":" ","LANE":" ","ALLEY":" ","HOUSE_NO":"８６號","E_COORD97":178404.13,"N_COORD97":2540291.8300000001,"ADDRESS":"成功六街８６號","OBJECTID":458922},"geometry":{"x":178404.13000000082,"y":2540291.8300000001}},{"attributes":{"ID":458948,"DIS_CODE":0,"TOWNNAME":"歸仁區","LI":"許厝里","LIN":"32鄰","STREET":"復興路","SECT":" ","MAREA":" ","LANE":" ","ALLEY":" ","HOUSE_NO":"５７號","E_COORD97":177873.39999999999,"N_COORD97":2540605.54,"ADDRESS":"復興路５７號","OBJECTID":458923},"geometry":{"x":177873.40000000037,"y":2540605.5400000028}},{"attributes":{"ID":458949,"DIS_CODE":0,"TOWNNAME":"東區","LI":"大智里","LIN":"20鄰","STREET":"崇善十五街","SECT":" ","MAREA":" ","LANE":" ","ALLEY":" ","HOUSE_NO":"４號","E_COORD97":171428.41,"N_COORD97":2540576.1800000002,"ADDRESS":"崇善十五街４號","OBJECTID":458924},"geometry":{"x":171428.41000000108,"y":2540576.1800000016}},{"attributes":{"ID":458950,"DIS_CODE":0,"TOWNNAME":"東區","LI":"和平里","LIN":"20鄰","STREET":"仁和路","SECT":" ","MAREA":" ","LANE":" ","ALLEY":" ","HOUSE_NO":"５１號","E_COORD97":171116.67999999999,"N_COORD97":2541841.4500000002,"ADDRESS":"仁和路５１號","OBJECTID":458925},"geometry":{"x":171116.6799999997,"y":2541841.4500000011}},{"attributes":{"ID":458951,"DIS_CODE":0,"TOWNNAME":"下營區","LI":"營前里","LIN":"25鄰","STREET":"仁愛街","SECT":" ","MAREA":" ","LANE":" ","ALLEY":" ","HOUSE_NO":"２９號","E_COORD97":174815.54000000001,"N_COORD97":2570093.0499999998,"ADDRESS":"仁愛街２９號","OBJECTID":458926},"geometry":{"x":174815.54000000004,"y":2570093.0499999989}},{"attributes":{"ID":458952,"DIS_CODE":0,"TOWNNAME":"下營區","LI":"營前里","LIN":"25鄰","STREET":"仁愛街","SECT":" ","MAREA":" ","LANE":" ","ALLEY":" ","HOUSE_NO":"２５號","E_COORD97":174808.03,"N_COORD97":2570090.25,"ADDRESS":"仁愛街２５號","OBJECTID":458927},"geometry":{"x":174808.03000000119,"y":2570090.25}},{"attributes":{"ID":458953,"DIS_CODE":0,"TOWNNAME":"東山區","LI":"東中里","LIN":"25鄰","STREET":"和平街","SECT":" ","MAREA":" ","LANE":" ","ALLEY":" ","HOUSE_NO":"２號","E_COORD97":188884.48999999999,"N_COORD97":2579889.2000000002,"ADDRESS":"和平街２號","OBJECTID":458928},"geometry":{"x":188884.49000000022,"y":2579889.2000000011}},{"attributes":{"ID":458954,"DIS_CODE":0,"TOWNNAME":"永康區","LI":"西灣里","LIN":"32鄰","STREET":"國光八街","SECT":" ","MAREA":" ","LANE":" ","ALLEY":" ","HOUSE_NO":"６２號","E_COORD97":174258.95000000001,"N_COORD97":2545776.21,"ADDRESS":"國光八街６２號","OBJECTID":458929},"geometry":{"x":174258.95000000205,"y":2545776.2100000009}},{"attributes":{"ID":458955,"DIS_CODE":0,"TOWNNAME":"永康區","LI":"崑山里","LIN":"32鄰","STREET":"國光三街","SECT":" ","MAREA":" ","LANE":" ","ALLEY":" ","HOUSE_NO":"５號","E_COORD97":174122.29999999999,"N_COORD97":2544856.4199999999,"ADDRESS":"國光三街５號","OBJECTID":458930},"geometry":{"x":174122.30000000168,"y":2544856.4200000018}},{"attributes":{"ID":458956,"DIS_CODE":0,"TOWNNAME":"新市區","LI":"新和里","LIN":"41鄰","STREET":"西寧街","SECT":" ","MAREA":" ","LANE":" ","ALLEY":" ","HOUSE_NO":"４號","E_COORD97":177149.95000000001,"N_COORD97":2552914,"ADDRESS":"西寧街４號","OBJECTID":458931},"geometry":{"x":177149.95000000112,"y":2552914.0000000037}},{"attributes":{"ID":458957,"DIS_CODE":0,"TOWNNAME":"官田區","LI":"隆本里","LIN":"13鄰","STREET":"復興街","SECT":" ","MAREA":" ","LANE":" ","ALLEY":" ","HOUSE_NO":"５號","E_COORD97":179903.22,"N_COORD97":2566438.3199999998,"ADDRESS":"復興街５號","OBJECTID":458932},"geometry":{"x":179903.2200000016,"y":2566438.3200000003}},{"attributes":{"ID":458958,"DIS_CODE":0,"TOWNNAME":"永康區","LI":"東橋里","LIN":"13鄰","STREET":"東橋一路","SECT":" ","MAREA":" ","LANE":" ","ALLEY":" ","HOUSE_NO":"５號","E_COORD97":171653.03,"N_COORD97":2546252.02,"ADDRESS":"東橋一路５號","OBJECTID":458933},"geometry":{"x":171653.03000000212,"y":2546252.0200000014}},{"attributes":{"ID":458959,"DIS_CODE":0,"TOWNNAME":"佳里區","LI":"鎮山里","LIN":"13鄰","STREET":"祥和三街","SECT":" ","MAREA":" ","LANE":" ","ALLEY":" ","HOUSE_NO":"３３號","E_COORD97":166023.79000000001,"N_COORD97":2561273.3799999999,"ADDRESS":"祥和三街３３號","OBJECTID":458934},"geometry":{"x":166023.79000000004,"y":2561273.379999999}},{"attributes":{"ID":458960,"DIS_CODE":0,"TOWNNAME":"永康區","LI":"復華里","LIN":"40鄰","STREET":"復華七街","SECT":" ","MAREA":" ","LANE":" ","ALLEY":" ","HOUSE_NO":"２２號","E_COORD97":172620.67999999999,"N_COORD97":2545962.9500000002,"ADDRESS":"復華七街２２號","OBJECTID":458935},"geometry":{"x":172620.6799999997,"y":2545962.9499999974}},{"attributes":{"ID":458961,"DIS_CODE":0,"TOWNNAME":"永康區","LI":"崑山里","LIN":"24鄰","STREET":"大仁街","SECT":" ","MAREA":" ","LANE":" ","ALLEY":" ","HOUSE_NO":"７０號","E_COORD97":173825.45999999999,"N_COORD97":2544714.3300000001,"ADDRESS":"大仁街７０號","OBJECTID":458936},"geometry":{"x":173825.45999999996,"y":2544714.3300000019}},{"attributes":{"ID":458962,"DIS_CODE":0,"TOWNNAME":"歸仁區","LI":"新厝里","LIN":"24鄰","STREET":"大成十街","SECT":" ","MAREA":" ","LANE":" ","ALLEY":" ","HOUSE_NO":"３７號","E_COORD97":177658.54000000001,"N_COORD97":2540199.1800000002,"ADDRESS":"大成十街３７號","OBJECTID":458937},"geometry":{"x":177658.53999999911,"y":2540199.1800000016}},{"attributes":{"ID":458963,"DIS_CODE":0,"TOWNNAME":"東山區","LI":"東中里","LIN":"24鄰","STREET":"鳳安一街","SECT":" ","MAREA":" ","LANE":" ","ALLEY":" ","HOUSE_NO":"２號","E_COORD97":188929.04999999999,"N_COORD97":2579695.1400000001,"ADDRESS":"鳳安一街２號","OBJECTID":458938},"geometry":{"x":188929.04999999981,"y":2579695.1400000025}},{"attributes":{"ID":458964,"DIS_CODE":0,"TOWNNAME":"新營區","LI":"大宏里","LIN":"30鄰","STREET":"開元路","SECT":" ","MAREA":" ","LANE":" ","ALLEY":" ","HOUSE_NO":"２３號","E_COORD97":180803.87,"N_COORD97":2578572.2599999998,"ADDRESS":"開元路２３號","OBJECTID":458939},"geometry":{"x":180803.87000000011,"y":2578572.2599999998}},{"attributes":{"ID":458965,"DIS_CODE":0,"TOWNNAME":"永康區","LI":"南灣里","LIN":"24鄰","STREET":"大安街","SECT":" ","MAREA":" ","LANE":" ","ALLEY":" ","HOUSE_NO":"２２號","E_COORD97":174442.39999999999,"N_COORD97":2544798.1499999999,"ADDRESS":"大安街２２號","OBJECTID":458940},"geometry":{"x":174442.39999999944,"y":2544798.1500000022}},{"attributes":{"ID":458966,"DIS_CODE":0,"TOWNNAME":"永康區","LI":"西灣里","LIN":"24鄰","STREET":"國光八街","SECT":" ","MAREA":" ","LANE":" ","ALLEY":" ","HOUSE_NO":"９號","E_COORD97":174417.29000000001,"N_COORD97":2545748.4900000002,"ADDRESS":"國光八街９號","OBJECTID":458941},"geometry":{"x":174417.29000000004,"y":2545748.4900000021}},{"attributes":{"ID":458967,"DIS_CODE":0,"TOWNNAME":"中西區","LI":"法華里","LIN":"24鄰","STREET":"慶中街","SECT":" ","MAREA":" ","LANE":" ","ALLEY":" ","HOUSE_NO":"２號二樓","E_COORD97":168555.60000000001,"N_COORD97":2542479.7599999998,"ADDRESS":"慶中街２號二樓","OBJECTID":458942},"geometry":{"x":168555.59999999963,"y":2542479.7600000035}},{"attributes":{"ID":458968,"DIS_CODE":0,"TOWNNAME":"中西區","LI":"西湖里","LIN":"34鄰","STREET":"西湖街","SECT":" ","MAREA":" ","LANE":" ","ALLEY":" ","HOUSE_NO":"９３號","E_COORD97":166352.81,"N_COORD97":2544896.7000000002,"ADDRESS":"西湖街９３號","OBJECTID":458943},"geometry":{"x":166352.81000000145,"y":2544896.700000003}},{"attributes":{"ID":458969,"DIS_CODE":0,"TOWNNAME":"歸仁區","LI":"南保里","LIN":"34鄰","STREET":"民權八街","SECT":" ","MAREA":" ","LANE":" ","ALLEY":" ","HOUSE_NO":"８４號","E_COORD97":176736.70999999999,"N_COORD97":2541007.25,"ADDRESS":"民權八街８４號","OBJECTID":458944},"geometry":{"x":176736.70999999996,"y":2541007.25}},{"attributes":{"ID":458970,"DIS_CODE":0,"TOWNNAME":"永康區","LI":"王行里","LIN":"14鄰","STREET":"環工路","SECT":" ","MAREA":" ","LANE":" ","ALLEY":" ","HOUSE_NO":"５０號","E_COORD97":174956.66,"N_COORD97":2549589.23,"ADDRESS":"環工路５０號","OBJECTID":458945},"geometry":{"x":174956.66000000108,"y":2549589.2300000004}},{"attributes":{"ID":458971,"DIS_CODE":0,"TOWNNAME":"永康區","LI":"甲頂里","LIN":"14鄰","STREET":"大武街","SECT":" ","MAREA":" ","LANE":" ","ALLEY":" ","HOUSE_NO":"１７號","E_COORD97":170285.32999999999,"N_COORD97":2546687.7400000002,"ADDRESS":"大武街１７號","OBJECTID":458946},"geometry":{"x":170285.33000000007,"y":2546687.7400000039}},{"attributes":{"ID":458972,"DIS_CODE":0,"TOWNNAME":"歸仁區","LI":"許厝里","LIN":"33鄰","STREET":"公園八街","SECT":" ","MAREA":" ","LANE":" ","ALLEY":" ","HOUSE_NO":"３號","E_COORD97":177871.48000000001,"N_COORD97":2540493.8199999998,"ADDRESS":"公園八街３號","OBJECTID":458947},"geometry":{"x":177871.48000000231,"y":2540493.8200000022}},{"attributes":{"ID":458973,"DIS_CODE":0,"TOWNNAME":"安南區","LI":"理想里","LIN":"14鄰","STREET":"大安街","SECT":" ","MAREA":" ","LANE":" ","ALLEY":" ","HOUSE_NO":"７７號","E_COORD97":167210.03,"N_COORD97":2548049.54,"ADDRESS":"大安街７７號","OBJECTID":458948},"geometry":{"x":167210.03000000119,"y":2548049.5399999991}},{"attributes":{"ID":458974,"DIS_CODE":0,"TOWNNAME":"安南區","LI":"新順里","LIN":"14鄰","STREET":"永安路","SECT":" ","MAREA":" ","LANE":" ","ALLEY":" ","HOUSE_NO":"８０號","E_COORD97":170210.42999999999,"N_COORD97":2549410.6099999999,"ADDRESS":"永安路８０號","OBJECTID":458949},"geometry":{"x":170210.43000000156,"y":2549410.6100000013}},{"attributes":{"ID":458975,"DIS_CODE":0,"TOWNNAME":"歸仁區","LI":"文化里","LIN":"18鄰","STREET":"文化北二街","SECT":" ","MAREA":" ","LANE":" ","ALLEY":" ","HOUSE_NO":"７號","E_COORD97":177210.26000000001,"N_COORD97":2541458.3399999999,"ADDRESS":"文化北二街７號","OBJECTID":458950},"geometry":{"x":177210.25999999978,"y":2541458.3399999999}},{"attributes":{"ID":458976,"DIS_CODE":0,"TOWNNAME":"佳里區","LI":"東寧里","LIN":"14鄰","STREET":"和平街","SECT":" ","MAREA":" ","LANE":" ","ALLEY":" ","HOUSE_NO":"７５號","E_COORD97":165889.04999999999,"N_COORD97":2562507.7599999998,"ADDRESS":"和平街７５號","OBJECTID":458951},"geometry":{"x":165889.05000000075,"y":2562507.7600000016}},{"attributes":{"ID":458977,"DIS_CODE":0,"TOWNNAME":"歸仁區","LI":"崙頂里","LIN":"14鄰","STREET":"崙頂五街","SECT":" ","MAREA":" ","LANE":" ","ALLEY":" ","HOUSE_NO":"１３號","E_COORD97":177911.32999999999,"N_COORD97":2539828.25,"ADDRESS":"崙頂五街１３號","OBJECTID":458952},"geometry":{"x":177911.33000000101,"y":2539828.25}},{"attributes":{"ID":458978,"DIS_CODE":0,"TOWNNAME":"鹽水區","LI":"水秀里","LIN":"14鄰","STREET":"忠義路","SECT":" ","MAREA":" ","LANE":" ","ALLEY":" ","HOUSE_NO":"６號","E_COORD97":175239.66,"N_COORD97":2580138.1000000001,"ADDRESS":"忠義路６號","OBJECTID":458953},"geometry":{"x":175239.66000000108,"y":2580138.1000000015}},{"attributes":{"ID":458979,"DIS_CODE":0,"TOWNNAME":"安南區","LI":"溪北里","LIN":"17鄰","STREET":"惠安街","SECT":" ","MAREA":" ","LANE":" ","ALLEY":" ","HOUSE_NO":"１號","E_COORD97":169148.48000000001,"N_COORD97":2547456.9900000002,"ADDRESS":"惠安街１號","OBJECTID":458954},"geometry":{"x":169148.48000000138,"y":2547456.9900000021}},{"attributes":{"ID":458980,"DIS_CODE":0,"TOWNNAME":"新營區","LI":"王公里","LIN":"17鄰","STREET":"大智街","SECT":" ","MAREA":" ","LANE":" ","ALLEY":" ","HOUSE_NO":"７號","E_COORD97":180180.13,"N_COORD97":2579321.6000000001,"ADDRESS":"大智街７號","OBJECTID":458955},"geometry":{"x":180180.12999999989,"y":2579321.6000000015}},{"attributes":{"ID":458981,"DIS_CODE":0,"TOWNNAME":"麻豆區","LI":"\u25A0江里","LIN":"17鄰","STREET":"民權路","SECT":" ","MAREA":" ","LANE":" ","ALLEY":" ","HOUSE_NO":"２７號","E_COORD97":173399.75,"N_COORD97":2564722.1400000001,"ADDRESS":"民權路２７號","OBJECTID":458956},"geometry":{"x":173399.75,"y":2564722.1400000043}},{"attributes":{"ID":458982,"DIS_CODE":0,"TOWNNAME":"中西區","LI":"青年里","LIN":"8鄰","STREET":"青年路","SECT":" ","MAREA":" ","LANE":" ","ALLEY":" ","HOUSE_NO":"８１號","E_COORD97":168812.17000000001,"N_COORD97":2543636.5299999998,"ADDRESS":"青年路８１號","OBJECTID":458957},"geometry":{"x":168812.17000000179,"y":2543636.5299999993}},{"attributes":{"ID":458983,"DIS_CODE":0,"TOWNNAME":"中西區","LI":"協和里","LIN":"8鄰","STREET":"和美街","SECT":" ","MAREA":" ","LANE":" ","ALLEY":" ","HOUSE_NO":"２號","E_COORD97":167246.70999999999,"N_COORD97":2544654.3599999999,"ADDRESS":"和美街２號","OBJECTID":458958},"geometry":{"x":167246.70999999996,"y":2544654.3599999994}},{"attributes":{"ID":458984,"DIS_CODE":0,"TOWNNAME":"東區","LI":"崇善里","LIN":"8鄰","STREET":"崇善七街","SECT":" ","MAREA":" ","LANE":" ","ALLEY":" ","HOUSE_NO":"４８號","E_COORD97":171166.51999999999,"N_COORD97":2541485.4399999999,"ADDRESS":"崇善七街４８號","OBJECTID":458959},"geometry":{"x":171166.52000000048,"y":2541485.4400000013}},{"attributes":{"ID":458985,"DIS_CODE":0,"TOWNNAME":"玉井區","LI":"竹圍里","LIN":"8鄰","STREET":"武成街","SECT":" ","MAREA":" ","LANE":" ","ALLEY":" ","HOUSE_NO":"８號","E_COORD97":195921.01999999999,"N_COORD97":2559021.7599999998,"ADDRESS":"武成街８號","OBJECTID":458960},"geometry":{"x":195921.02000000048,"y":2559021.7600000016}},{"attributes":{"ID":458986,"DIS_CODE":0,"TOWNNAME":"安平區","LI":"金城里","LIN":"8鄰","STREET":"世平四街","SECT":" ","MAREA":" ","LANE":" ","ALLEY":" ","HOUSE_NO":"２號","E_COORD97":162987.22,"N_COORD97":2544209.1299999999,"ADDRESS":"世平四街２號","OBJECTID":458961},"geometry":{"x":162987.22000000067,"y":2544209.1300000008}},{"attributes":{"ID":458987,"DIS_CODE":0,"TOWNNAME":"南區","LI":"金華里","LIN":"12鄰","STREET":"賢南街","SECT":" ","MAREA":" ","LANE":" ","ALLEY":" ","HOUSE_NO":"１１號","E_COORD97":166913.75,"N_COORD97":2542419.8100000001,"ADDRESS":"賢南街１１號","OBJECTID":458962},"geometry":{"x":166913.75000000093,"y":2542419.8100000024}},{"attributes":{"ID":458988,"DIS_CODE":0,"TOWNNAME":"關廟區","LI":"北勢里","LIN":"8鄰","STREET":"北安三街","SECT":" ","MAREA":" ","LANE":" ","ALLEY":" ","HOUSE_NO":"４７號","E_COORD97":181663.29000000001,"N_COORD97":2540536.3199999998,"ADDRESS":"北安三街４７號","OBJECTID":458963},"geometry":{"x":181663.29000000097,"y":2540536.3200000003}},{"attributes":{"ID":458989,"DIS_CODE":0,"TOWNNAME":"新營區","LI":"大宏里","LIN":"8鄰","STREET":"民族路","SECT":" ","MAREA":" ","LANE":" ","ALLEY":" ","HOUSE_NO":"４號","E_COORD97":180324,"N_COORD97":2578368.52,"ADDRESS":"民族路４號","OBJECTID":458964},"geometry":{"x":180324.00000000093,"y":2578368.5200000014}},{"attributes":{"ID":458990,"DIS_CODE":0,"TOWNNAME":"仁德區","LI":"田厝里","LIN":"7鄰","STREET":"田厝二街","SECT":" ","MAREA":" ","LANE":" ","ALLEY":" ","HOUSE_NO":"２號","E_COORD97":172518.20999999999,"N_COORD97":2537570.2400000002,"ADDRESS":"田厝二街２號","OBJECTID":458965},"geometry":{"x":172518.21000000089,"y":2537570.2400000002}},{"attributes":{"ID":458991,"DIS_CODE":0,"TOWNNAME":"永康區","LI":"蔦松里","LIN":"7鄰","STREET":"正北三路","SECT":" ","MAREA":" ","LANE":" ","ALLEY":" ","HOUSE_NO":"８９號","E_COORD97":174461.39000000001,"N_COORD97":2549927.3999999999,"ADDRESS":"正北三路８９號","OBJECTID":458966},"geometry":{"x":174461.38999999966,"y":2549927.4000000004}},{"attributes":{"ID":458992,"DIS_CODE":0,"TOWNNAME":"東區","LI":"崇德里","LIN":"7鄰","STREET":"崇德七街","SECT":" ","MAREA":" ","LANE":" ","ALLEY":" ","HOUSE_NO":"１號","E_COORD97":170739.29999999999,"N_COORD97":2541696.3500000001,"ADDRESS":"崇德七街１號","OBJECTID":458967},"geometry":{"x":170739.30000000075,"y":2541696.3500000015}},{"attributes":{"ID":458993,"DIS_CODE":0,"TOWNNAME":"仁德區","LI":"仁德里","LIN":"7鄰","STREET":"仁德三街","SECT":" ","MAREA":" ","LANE":" ","ALLEY":" ","HOUSE_NO":"６號","E_COORD97":173316.12,"N_COORD97":2541025.02,"ADDRESS":"仁德三街６號","OBJECTID":458968},"geometry":{"x":173316.12000000011,"y":2541025.0199999996}},{"attributes":{"ID":458994,"DIS_CODE":0,"TOWNNAME":"中西區","LI":"三合里","LIN":"7鄰","STREET":"信義街","SECT":" ","MAREA":" ","LANE":" ","ALLEY":" ","HOUSE_NO":"１８號","E_COORD97":167621.17999999999,"N_COORD97":2544484.3799999999,"ADDRESS":"信義街１８號","OBJECTID":458969},"geometry":{"x":167621.1799999997,"y":2544484.379999999}},{"attributes":{"ID":458995,"DIS_CODE":0,"TOWNNAME":"北區","LI":"玉皇里","LIN":"15鄰","STREET":"成功路","SECT":" ","MAREA":" ","LANE":" ","ALLEY":" ","HOUSE_NO":"９８號","E_COORD97":168590.26000000001,"N_COORD97":2544324.48,"ADDRESS":"成功路９８號","OBJECTID":458970},"geometry":{"x":168590.25999999978,"y":2544324.4800000023}},{"attributes":{"ID":458996,"DIS_CODE":0,"TOWNNAME":"北區","LI":"三德里","LIN":"7鄰","STREET":"裕民街","SECT":" ","MAREA":" ","LANE":" ","ALLEY":" ","HOUSE_NO":"６號","E_COORD97":168434.48999999999,"N_COORD97":2544393.29,"ADDRESS":"裕民街６號","OBJECTID":458971},"geometry":{"x":168434.49000000115,"y":2544393.2899999991}},{"attributes":{"ID":458997,"DIS_CODE":0,"TOWNNAME":"歸仁區","LI":"許厝里","LIN":"11鄰","STREET":"公園路","SECT":" ","MAREA":" ","LANE":" ","ALLEY":" ","HOUSE_NO":"４７號","E_COORD97":178148.97,"N_COORD97":2540559.1000000001,"ADDRESS":"公園路４７號","OBJECTID":458972},"geometry":{"x":178148.97000000067,"y":2540559.1000000015}},{"attributes":{"ID":458998,"DIS_CODE":0,"TOWNNAME":"歸仁區","LI":"新厝里","LIN":"5鄰","STREET":"中正三街","SECT":" ","MAREA":" ","LANE":" ","ALLEY":" ","HOUSE_NO":"５號","E_COORD97":177637.10000000001,"N_COORD97":2540578.6400000001,"ADDRESS":"中正三街５號","OBJECTID":458973},"geometry":{"x":177637.09999999963,"y":2540578.6400000006}},{"attributes":{"ID":458999,"DIS_CODE":0,"TOWNNAME":"新營區","LI":"民榮里","LIN":" ","STREET":"太子路","SECT":" ","MAREA":" ","LANE":" ","ALLEY":" ","HOUSE_NO":"６８號","E_COORD97":178209.34,"N_COORD97":2578045.2799999998,"ADDRESS":"太子路６８號","OBJECTID":458974},"geometry":{"x":178209.34000000078,"y":2578045.2800000012}},{"attributes":{"ID":459000,"DIS_CODE":0,"TOWNNAME":"新營區","LI":"忠政里","LIN":" ","STREET":"中正路","SECT":" ","MAREA":" ","LANE":" ","ALLEY":" ","HOUSE_NO":"６１號","E_COORD97":180066.94,"N_COORD97":2579568,"ADDRESS":"中正路６１號","OBJECTID":458975},"geometry":{"x":180066.94000000227,"y":2579568}},{"attributes":{"ID":459001,"DIS_CODE":0,"TOWNNAME":"關廟區","LI":"關廟里","LIN":"5鄰","STREET":"文化街","SECT":" ","MAREA":" ","LANE":" ","ALLEY":" ","HOUSE_NO":"５９號","E_COORD97":180719.69,"N_COORD97":2539935.3300000001,"ADDRESS":"文化街５９號","OBJECTID":458976},"geometry":{"x":180719.69000000227,"y":2539935.3300000001}},{"attributes":{"ID":459002,"DIS_CODE":0,"TOWNNAME":"歸仁區","LI":"辜厝里","LIN":"7鄰","STREET":"大順二街","SECT":" ","MAREA":" ","LANE":" ","ALLEY":" ","HOUSE_NO":"７號","E_COORD97":177482.26999999999,"N_COORD97":2540573.5899999999,"ADDRESS":"大順二街７號","OBJECTID":458977},"geometry":{"x":177482.27000000048,"y":2540573.5900000017}},{"attributes":{"ID":459003,"DIS_CODE":0,"TOWNNAME":"歸仁區","LI":"南保里","LIN":"64鄰","STREET":"中山九街","SECT":" ","MAREA":" ","LANE":" ","ALLEY":" ","HOUSE_NO":"９號","E_COORD97":176440.01000000001,"N_COORD97":2540832.25,"ADDRESS":"中山九街９號","OBJECTID":458978},"geometry":{"x":176440.01000000071,"y":2540832.2500000037}},{"attributes":{"ID":459004,"DIS_CODE":0,"TOWNNAME":"仁德區","LI":"二行里","LIN":"15鄰","STREET":"行大二街","SECT":" ","MAREA":" ","LANE":" ","ALLEY":" ","HOUSE_NO":"１號","E_COORD97":169735.26000000001,"N_COORD97":2535366,"ADDRESS":"行大二街１號","OBJECTID":458979},"geometry":{"x":169735.26000000164,"y":2535366.0000000019}},{"attributes":{"ID":459005,"DIS_CODE":0,"TOWNNAME":"新市區","LI":"港墘里","LIN":"15鄰","STREET":"光華街","SECT":" ","MAREA":" ","LANE":" ","ALLEY":" ","HOUSE_NO":"７號","E_COORD97":178107.92000000001,"N_COORD97":2552400.75,"ADDRESS":"光華街７號","OBJECTID":458980},"geometry":{"x":178107.91999999993,"y":2552400.7500000019}},{"attributes":{"ID":459006,"DIS_CODE":0,"TOWNNAME":"鹽水區","LI":"橋南里","LIN":"15鄰","STREET":"南門路","SECT":" ","MAREA":" ","LANE":" ","ALLEY":" ","HOUSE_NO":"８號","E_COORD97":175031.5,"N_COORD97":2579453.8799999999,"ADDRESS":"南門路８號","OBJECTID":458981},"geometry":{"x":175031.50000000093,"y":2579453.8800000008}},{"attributes":{"ID":459007,"DIS_CODE":0,"TOWNNAME":"北區","LI":"小康里","LIN":"8鄰","STREET":"實踐街","SECT":" ","MAREA":" ","LANE":"２３巷","ALLEY":" ","HOUSE_NO":"６號","E_COORD97":169828.72,"N_COORD97":2546101.5,"ADDRESS":"實踐街２３巷６號","OBJECTID":458982},"geometry":{"x":169828.7200000016,"y":2546101.5}},{"attributes":{"ID":459008,"DIS_CODE":0,"TOWNNAME":"鹽水區","LI":"橋南里","LIN":"14鄰","STREET":"南門路","SECT":" ","MAREA":" ","LANE":" ","ALLEY":" ","HOUSE_NO":"９號","E_COORD97":175042.38,"N_COORD97":2579489.6800000002,"ADDRESS":"南門路９號","OBJECTID":458983},"geometry":{"x":175042.38000000082,"y":2579489.6800000034}},{"attributes":{"ID":459009,"DIS_CODE":0,"TOWNNAME":"麻豆區","LI":"東角里","LIN":"15鄰","STREET":"同仁街","SECT":" ","MAREA":" ","LANE":" ","ALLEY":" ","HOUSE_NO":"１６號","E_COORD97":173786.76999999999,"N_COORD97":2564625.0600000001,"ADDRESS":"同仁街１６號","OBJECTID":458984},"geometry":{"x":173786.77000000048,"y":2564625.0600000024}},{"attributes":{"ID":459010,"DIS_CODE":0,"TOWNNAME":"北區","LI":"力行里","LIN":"15鄰","STREET":"力行街","SECT":" ","MAREA":" ","LANE":" ","ALLEY":" ","HOUSE_NO":"３號","E_COORD97":170852.04999999999,"N_COORD97":2545369.1699999999,"ADDRESS":"力行街３號","OBJECTID":458985},"geometry":{"x":170852.04999999888,"y":2545369.1700000037}},{"attributes":{"ID":459011,"DIS_CODE":0,"TOWNNAME":"北區","LI":"成德里","LIN":"15鄰","STREET":"文成一路","SECT":" ","MAREA":" ","LANE":" ","ALLEY":" ","HOUSE_NO":"１號","E_COORD97":168918.14999999999,"N_COORD97":2545988.6699999999,"ADDRESS":"文成一路１號","OBJECTID":458986},"geometry":{"x":168918.1500000013,"y":2545988.6699999999}},{"attributes":{"ID":459012,"DIS_CODE":0,"TOWNNAME":"新營區","LI":"新東里","LIN":"15鄰","STREET":"東泰路","SECT":" ","MAREA":" ","LANE":" ","ALLEY":" ","HOUSE_NO":"１號","E_COORD97":181119.07999999999,"N_COORD97":2579551.9900000002,"ADDRESS":"東泰路１號","OBJECTID":458987},"geometry":{"x":181119.08000000101,"y":2579551.9900000002}},{"attributes":{"ID":459013,"DIS_CODE":0,"TOWNNAME":"南區","LI":"大忠里","LIN":"15鄰","STREET":"公英六街","SECT":" ","MAREA":" ","LANE":" ","ALLEY":" ","HOUSE_NO":"７號","E_COORD97":169417.20999999999,"N_COORD97":2541090.79,"ADDRESS":"公英六街７號","OBJECTID":458988},"geometry":{"x":169417.21000000183,"y":2541090.7899999991}},{"attributes":{"ID":459014,"DIS_CODE":0,"TOWNNAME":"新市區","LI":"永就里","LIN":"15鄰","STREET":"永華二街","SECT":" ","MAREA":" ","LANE":" ","ALLEY":" ","HOUSE_NO":"１０號","E_COORD97":177670.95999999999,"N_COORD97":2551014,"ADDRESS":"永華二街１０號","OBJECTID":458989},"geometry":{"x":177670.96000000183,"y":2551014}},{"attributes":{"ID":459015,"DIS_CODE":0,"TOWNNAME":"仁德區","LI":"二行里","LIN":"15鄰","STREET":"行大二街","SECT":" ","MAREA":" ","LANE":" ","ALLEY":" ","HOUSE_NO":"３號","E_COORD97":169733.42000000001,"N_COORD97":2535362.5,"ADDRESS":"行大二街３號","OBJECTID":458990},"geometry":{"x":169733.42000000086,"y":2535362.5000000019}},{"attributes":{"ID":459016,"DIS_CODE":0,"TOWNNAME":"新營區","LI":"民權里","LIN":"4鄰","STREET":"中正路","SECT":" ","MAREA":" ","LANE":" ","ALLEY":" ","HOUSE_NO":"７號","E_COORD97":180022.19,"N_COORD97":2578365.5099999998,"ADDRESS":"中正路７號","OBJECTID":458991},"geometry":{"x":180022.19000000041,"y":2578365.5100000016}},{"attributes":{"ID":459017,"DIS_CODE":0,"TOWNNAME":"安平區","LI":"港仔里","LIN":"1鄰","STREET":"安平路","SECT":" ","MAREA":" ","LANE":" ","ALLEY":" ","HOUSE_NO":"２３號","E_COORD97":164687.67999999999,"N_COORD97":2544415.8599999999,"ADDRESS":"安平路２３號","OBJECTID":458992},"geometry":{"x":164687.68000000063,"y":2544415.8600000013}},{"attributes":{"ID":459018,"DIS_CODE":0,"TOWNNAME":"東區","LI":"自強里","LIN":"1鄰","STREET":"東成街","SECT":" ","MAREA":" ","LANE":" ","ALLEY":" ","HOUSE_NO":"５號","E_COORD97":171247.44,"N_COORD97":2542254.1200000001,"ADDRESS":"東成街５號","OBJECTID":458993},"geometry":{"x":171247.44000000134,"y":2542254.120000001}},{"attributes":{"ID":459019,"DIS_CODE":0,"TOWNNAME":"仁德區","LI":"土庫里","LIN":"1鄰","STREET":"大發路","SECT":" ","MAREA":" ","LANE":" ","ALLEY":" ","HOUSE_NO":"６號","E_COORD97":173228.75,"N_COORD97":2542569.0099999998,"ADDRESS":"大發路６號","OBJECTID":458994},"geometry":{"x":173228.75,"y":2542569.0099999998}},{"attributes":{"ID":459020,"DIS_CODE":0,"TOWNNAME":"學甲區","LI":"仁得里","LIN":"1鄰","STREET":"公園街","SECT":" ","MAREA":" ","LANE":" ","ALLEY":" ","HOUSE_NO":"３號","E_COORD97":166302.42000000001,"N_COORD97":2569648.8100000001,"ADDRESS":"公園街３號","OBJECTID":458995},"geometry":{"x":166302.42000000086,"y":2569648.8100000024}},{"attributes":{"ID":459021,"DIS_CODE":0,"TOWNNAME":"鹽水區","LI":"橋南里","LIN":" ","STREET":"仁愛路","SECT":" ","MAREA":" ","LANE":" ","ALLEY":" ","HOUSE_NO":"２號","E_COORD97":174701.66,"N_COORD97":2578955.8100000001,"ADDRESS":"仁愛路２號","OBJECTID":458996},"geometry":{"x":174701.66000000201,"y":2578955.8100000005}},{"attributes":{"ID":459022,"DIS_CODE":0,"TOWNNAME":"新營區","LI":"延平里","LIN":"1鄰","STREET":"武侯街","SECT":" ","MAREA":" ","LANE":" ","ALLEY":" ","HOUSE_NO":"８號","E_COORD97":179703.23432700001,"N_COORD97":2577685.9307599999,"ADDRESS":"武侯街８號","OBJECTID":458997},"geometry":{"x":179703.23432700057,"y":2577685.9307620041}},{"attributes":{"ID":459023,"DIS_CODE":0,"TOWNNAME":"關廟區","LI":"新埔里","LIN":"1鄰","STREET":"新埔一街","SECT":" ","MAREA":" ","LANE":" ","ALLEY":" ","HOUSE_NO":"４１號","E_COORD97":181285.57000000001,"N_COORD97":2540827.25,"ADDRESS":"新埔一街４１號","OBJECTID":458998},"geometry":{"x":181285.57000000123,"y":2540827.25}},{"attributes":{"ID":459024,"DIS_CODE":0,"TOWNNAME":"白河區","LI":"白河里","LIN":"1鄰","STREET":"八德街","SECT":" ","MAREA":" ","LANE":" ","ALLEY":" ","HOUSE_NO":"５號","E_COORD97":190017.89000000001,"N_COORD97":2582692.29,"ADDRESS":"八德街５號","OBJECTID":458999},"geometry":{"x":190017.8900000006,"y":2582692.290000001}},{"attributes":{"ID":459025,"DIS_CODE":0,"TOWNNAME":"安南區","LI":"新順里","LIN":"10鄰","STREET":"興安路","SECT":" ","MAREA":" ","LANE":" ","ALLEY":" ","HOUSE_NO":"６號","E_COORD97":169581.98000000001,"N_COORD97":2549078.0699999998,"ADDRESS":"興安路６號","OBJECTID":459000},"geometry":{"x":169581.98000000231,"y":2549078.0700000003}}]}