{"displayFieldName":"TOWNNAME","fieldAliases":{"ID":"ID","DIS_CODE":"DIS_CODE","TOWNNAME":"TOWNNAME","LI":"LI","LIN":"LIN","STREET":"STREET","SECT":"SECT","MAREA":"MAREA","LANE":"LANE","ALLEY":"ALLEY","HOUSE_NO":"HOUSE_NO","E_COORD97":"E_COORD97","N_COORD97":"N_COORD97","ADDRESS":"ADDRESS","OBJECTID":"OBJECTID"},"geometryType":"esriGeometryPoint","spatialReference":{"wkid":102443,"latestWkid":3826},"fields":[{"name":"ID","type":"esriFieldTypeDouble","alias":"ID"},{"name":"DIS_CODE","type":"esriFieldTypeInteger","alias":"DIS_CODE"},{"name":"TOWNNAME","type":"esriFieldTypeString","alias":"TOWNNAME","length":8},{"name":"LI","type":"esriFieldTypeString","alias":"LI","length":8},{"name":"LIN","type":"esriFieldTypeString","alias":"LIN","length":12},{"name":"STREET","type":"esriFieldTypeString","alias":"STREET","length":20},{"name":"SECT","type":"esriFieldTypeString","alias":"SECT","length":8},{"name":"MAREA","type":"esriFieldTypeString","alias":"MAREA","length":12},{"name":"LANE","type":"esriFieldTypeString","alias":"LANE","length":10},{"name":"ALLEY","type":"esriFieldTypeString","alias":"ALLEY","length":10},{"name":"HOUSE_NO","type":"esriFieldTypeString","alias":"HOUSE_NO","length":20},{"name":"E_COORD97","type":"esriFieldTypeDouble","alias":"E_COORD97"},{"name":"N_COORD97","type":"esriFieldTypeDouble","alias":"N_COORD97"},{"name":"ADDRESS","type":"esriFieldTypeString","alias":"ADDRESS","length":50},{"name":"OBJECTID","type":"esriFieldTypeOID","alias":"OBJECTID"}],"features":[{"attributes":{"ID":515628,"DIS_CODE":0,"TOWNNAME":"北區","LI":"勝安里","LIN":"1鄰","STREET":"開元路","SECT":" ","MAREA":" ","LANE":" ","ALLEY":" ","HOUSE_NO":"７號","E_COORD97":169512.89999999999,"N_COORD97":2545106.0099999998,"ADDRESS":"開元路７號","OBJECTID":515601},"geometry":{"x":169512.90000000224,"y":2545106.0100000016}},{"attributes":{"ID":515629,"DIS_CODE":0,"TOWNNAME":"北區","LI":"勝安里","LIN":"1鄰","STREET":"開元路","SECT":" ","MAREA":" ","LANE":" ","ALLEY":" ","HOUSE_NO":"１１號","E_COORD97":169519.37,"N_COORD97":2545111.3700000001,"ADDRESS":"開元路１１號","OBJECTID":515602},"geometry":{"x":169519.37000000011,"y":2545111.3700000048}},{"attributes":{"ID":515630,"DIS_CODE":0,"TOWNNAME":"北區","LI":"勝安里","LIN":"1鄰","STREET":"開元路","SECT":" ","MAREA":" ","LANE":" ","ALLEY":" ","HOUSE_NO":"１３號","E_COORD97":169522.51999999999,"N_COORD97":2545113.5699999998,"ADDRESS":"開元路１３號","OBJECTID":515603},"geometry":{"x":169522.51999999955,"y":2545113.5700000022}},{"attributes":{"ID":515631,"DIS_CODE":0,"TOWNNAME":"北區","LI":"勝安里","LIN":"1鄰","STREET":"開元路","SECT":" ","MAREA":" ","LANE":" ","ALLEY":" ","HOUSE_NO":"１５號","E_COORD97":169525.51999999999,"N_COORD97":2545115.7799999998,"ADDRESS":"開元路１５號","OBJECTID":515604},"geometry":{"x":169525.52000000048,"y":2545115.7799999993}},{"attributes":{"ID":515632,"DIS_CODE":0,"TOWNNAME":"北區","LI":"勝安里","LIN":"1鄰","STREET":"開元路","SECT":" ","MAREA":" ","LANE":" ","ALLEY":" ","HOUSE_NO":"１７號","E_COORD97":169529.14999999999,"N_COORD97":2545117.04,"ADDRESS":"開元路１７號","OBJECTID":515605},"geometry":{"x":169529.15000000037,"y":2545117.0399999991}},{"attributes":{"ID":515633,"DIS_CODE":0,"TOWNNAME":"北區","LI":"勝安里","LIN":"1鄰","STREET":"開元路","SECT":" ","MAREA":" ","LANE":" ","ALLEY":" ","HOUSE_NO":"１９號","E_COORD97":169531.82999999999,"N_COORD97":2545119.4100000001,"ADDRESS":"開元路１９號","OBJECTID":515606},"geometry":{"x":169531.83000000194,"y":2545119.4100000001}},{"attributes":{"ID":515634,"DIS_CODE":0,"TOWNNAME":"北區","LI":"勝安里","LIN":"1鄰","STREET":"開元路","SECT":" ","MAREA":" ","LANE":" ","ALLEY":" ","HOUSE_NO":"２１號","E_COORD97":169536.72,"N_COORD97":2545119.5600000001,"ADDRESS":"開元路２１號","OBJECTID":515607},"geometry":{"x":169536.71999999974,"y":2545119.5600000042}},{"attributes":{"ID":515635,"DIS_CODE":0,"TOWNNAME":"北區","LI":"重興里","LIN":"1鄰","STREET":"林森路","SECT":"三段","MAREA":" ","LANE":" ","ALLEY":" ","HOUSE_NO":"７３號","E_COORD97":170500.59,"N_COORD97":2544817.29,"ADDRESS":"林森路三段７３號","OBJECTID":515608},"geometry":{"x":170500.58999999985,"y":2544817.2899999991}},{"attributes":{"ID":515636,"DIS_CODE":0,"TOWNNAME":"北區","LI":"重興里","LIN":"1鄰","STREET":"林森路","SECT":"三段","MAREA":" ","LANE":" ","ALLEY":" ","HOUSE_NO":"７１號","E_COORD97":170500.91,"N_COORD97":2544808.7200000002,"ADDRESS":"林森路三段７１號","OBJECTID":515609},"geometry":{"x":170500.91000000201,"y":2544808.7200000007}},{"attributes":{"ID":515637,"DIS_CODE":0,"TOWNNAME":"北區","LI":"重興里","LIN":"1鄰","STREET":"東豐路","SECT":" ","MAREA":" ","LANE":" ","ALLEY":" ","HOUSE_NO":"３３７號","E_COORD97":170500.44,"N_COORD97":2544801.5800000001,"ADDRESS":"東豐路３３７號","OBJECTID":515610},"geometry":{"x":170500.44000000041,"y":2544801.5800000019}},{"attributes":{"ID":515638,"DIS_CODE":0,"TOWNNAME":"北區","LI":"長榮里","LIN":"1鄰","STREET":"長勝路","SECT":" ","MAREA":" ","LANE":" ","ALLEY":" ","HOUSE_NO":"８１號","E_COORD97":169881.89000000001,"N_COORD97":2545673.6299999999,"ADDRESS":"長勝路８１號","OBJECTID":515611},"geometry":{"x":169881.89000000153,"y":2545673.6300000027}},{"attributes":{"ID":515639,"DIS_CODE":0,"TOWNNAME":"北區","LI":"長榮里","LIN":"1鄰","STREET":"長勝路","SECT":" ","MAREA":" ","LANE":" ","ALLEY":" ","HOUSE_NO":"８３號","E_COORD97":169879.35000000001,"N_COORD97":2545676.3300000001,"ADDRESS":"長勝路８３號","OBJECTID":515612},"geometry":{"x":169879.35000000056,"y":2545676.3299999982}},{"attributes":{"ID":515640,"DIS_CODE":0,"TOWNNAME":"北區","LI":"長榮里","LIN":"1鄰","STREET":"長勝路","SECT":" ","MAREA":" ","LANE":" ","ALLEY":" ","HOUSE_NO":"８５號","E_COORD97":169876.17999999999,"N_COORD97":2545678.8700000001,"ADDRESS":"長勝路８５號","OBJECTID":515613},"geometry":{"x":169876.1799999997,"y":2545678.8700000029}},{"attributes":{"ID":515641,"DIS_CODE":0,"TOWNNAME":"北區","LI":"長榮里","LIN":"1鄰","STREET":"長勝路","SECT":" ","MAREA":" ","LANE":" ","ALLEY":" ","HOUSE_NO":"８７號","E_COORD97":169874.26999999999,"N_COORD97":2545680.46,"ADDRESS":"長勝路８７號","OBJECTID":515614},"geometry":{"x":169874.27000000048,"y":2545680.4600000028}},{"attributes":{"ID":515642,"DIS_CODE":0,"TOWNNAME":"南區","LI":"南華里","LIN":"1鄰","STREET":"中華南路","SECT":"二段","MAREA":" ","LANE":" ","ALLEY":" ","HOUSE_NO":"４０８號","E_COORD97":166381.76000000001,"N_COORD97":2540298.98,"ADDRESS":"中華南路二段４０８號","OBJECTID":515615},"geometry":{"x":166381.75999999978,"y":2540298.9800000042}},{"attributes":{"ID":515643,"DIS_CODE":0,"TOWNNAME":"北區","LI":"華興里","LIN":"1鄰","STREET":"開南街","SECT":" ","MAREA":" ","LANE":" ","ALLEY":" ","HOUSE_NO":"９號","E_COORD97":170305.23000000001,"N_COORD97":2545399.4399999999,"ADDRESS":"開南街９號","OBJECTID":515616},"geometry":{"x":170305.23000000045,"y":2545399.4399999995}},{"attributes":{"ID":515644,"DIS_CODE":0,"TOWNNAME":"北區","LI":"華興里","LIN":"1鄰","STREET":"開南街","SECT":" ","MAREA":" ","LANE":" ","ALLEY":" ","HOUSE_NO":"１１號","E_COORD97":170311.26999999999,"N_COORD97":2545401.73,"ADDRESS":"開南街１１號","OBJECTID":515617},"geometry":{"x":170311.26999999862,"y":2545401.7300000004}},{"attributes":{"ID":515645,"DIS_CODE":0,"TOWNNAME":"北區","LI":"華興里","LIN":"1鄰","STREET":"開南街","SECT":" ","MAREA":" ","LANE":" ","ALLEY":" ","HOUSE_NO":"１５號","E_COORD97":170310.26000000001,"N_COORD97":2545391.2999999998,"ADDRESS":"開南街１５號","OBJECTID":515618},"geometry":{"x":170310.26000000071,"y":2545391.3000000007}},{"attributes":{"ID":515646,"DIS_CODE":0,"TOWNNAME":"北區","LI":"華興里","LIN":"1鄰","STREET":"開南街","SECT":" ","MAREA":" ","LANE":" ","ALLEY":" ","HOUSE_NO":"２１號","E_COORD97":170299.37,"N_COORD97":2545383.6200000001,"ADDRESS":"開南街２１號","OBJECTID":515619},"geometry":{"x":170299.37000000197,"y":2545383.620000001}},{"attributes":{"ID":515647,"DIS_CODE":0,"TOWNNAME":"北區","LI":"華興里","LIN":"1鄰","STREET":"開南街","SECT":" ","MAREA":" ","LANE":" ","ALLEY":" ","HOUSE_NO":"２３號","E_COORD97":170311.01999999999,"N_COORD97":2545376.2599999998,"ADDRESS":"開南街２３號","OBJECTID":515620},"geometry":{"x":170311.01999999955,"y":2545376.2600000016}},{"attributes":{"ID":515648,"DIS_CODE":0,"TOWNNAME":"北區","LI":"華興里","LIN":"1鄰","STREET":"開南街","SECT":" ","MAREA":" ","LANE":" ","ALLEY":" ","HOUSE_NO":"２５號","E_COORD97":170314.23000000001,"N_COORD97":2545373.3399999999,"ADDRESS":"開南街２５號","OBJECTID":515621},"geometry":{"x":170314.23000000231,"y":2545373.3399999999}},{"attributes":{"ID":515649,"DIS_CODE":0,"TOWNNAME":"北區","LI":"華興里","LIN":"1鄰","STREET":"開南街","SECT":" ","MAREA":" ","LANE":" ","ALLEY":" ","HOUSE_NO":"２７號","E_COORD97":170317.25,"N_COORD97":2545370.77,"ADDRESS":"開南街２７號","OBJECTID":515622},"geometry":{"x":170317.25000000093,"y":2545370.7699999996}},{"attributes":{"ID":515650,"DIS_CODE":0,"TOWNNAME":"北區","LI":"華興里","LIN":"1鄰","STREET":"開南街","SECT":" ","MAREA":" ","LANE":" ","ALLEY":" ","HOUSE_NO":"２９號","E_COORD97":170320.54000000001,"N_COORD97":2545368.2999999998,"ADDRESS":"開南街２９號","OBJECTID":515623},"geometry":{"x":170320.54000000097,"y":2545368.3000000007}},{"attributes":{"ID":515651,"DIS_CODE":0,"TOWNNAME":"北區","LI":"華興里","LIN":"1鄰","STREET":"開南街","SECT":" ","MAREA":" ","LANE":" ","ALLEY":" ","HOUSE_NO":"３１號","E_COORD97":170323.29000000001,"N_COORD97":2545365.1899999999,"ADDRESS":"開南街３１號","OBJECTID":515624},"geometry":{"x":170323.29000000004,"y":2545365.1900000032}},{"attributes":{"ID":515652,"DIS_CODE":0,"TOWNNAME":"南區","LI":"南華里","LIN":"1鄰","STREET":"中華南路","SECT":"二段","MAREA":" ","LANE":" ","ALLEY":" ","HOUSE_NO":"４１０號","E_COORD97":166375.42999999999,"N_COORD97":2540298.7400000002,"ADDRESS":"中華南路二段４１０號","OBJECTID":515625},"geometry":{"x":166375.4299999997,"y":2540298.7400000002}},{"attributes":{"ID":515653,"DIS_CODE":0,"TOWNNAME":"南區","LI":"南華里","LIN":"1鄰","STREET":"中華南路","SECT":"二段","MAREA":" ","LANE":" ","ALLEY":" ","HOUSE_NO":"４１２號","E_COORD97":166370.51000000001,"N_COORD97":2540298.6299999999,"ADDRESS":"中華南路二段４１２號","OBJECTID":515626},"geometry":{"x":166370.51000000071,"y":2540298.629999999}},{"attributes":{"ID":515654,"DIS_CODE":0,"TOWNNAME":"南區","LI":"南華里","LIN":"1鄰","STREET":"中華南路","SECT":"二段","MAREA":" ","LANE":" ","ALLEY":" ","HOUSE_NO":"４１４號","E_COORD97":166366.17999999999,"N_COORD97":2540298.6299999999,"ADDRESS":"中華南路二段４１４號","OBJECTID":515627},"geometry":{"x":166366.18000000063,"y":2540298.629999999}},{"attributes":{"ID":515655,"DIS_CODE":0,"TOWNNAME":"南區","LI":"南華里","LIN":"1鄰","STREET":"中華南路","SECT":"二段","MAREA":" ","LANE":" ","ALLEY":" ","HOUSE_NO":"４１６號","E_COORD97":166362.19,"N_COORD97":2540298.5099999998,"ADDRESS":"中華南路二段４１６號","OBJECTID":515628},"geometry":{"x":166362.19000000041,"y":2540298.5100000016}},{"attributes":{"ID":515656,"DIS_CODE":0,"TOWNNAME":"南區","LI":"南華里","LIN":"1鄰","STREET":"中華南路","SECT":"二段","MAREA":" ","LANE":" ","ALLEY":" ","HOUSE_NO":"４１８號","E_COORD97":166357.64000000001,"N_COORD97":2540298.5099999998,"ADDRESS":"中華南路二段４１８號","OBJECTID":515629},"geometry":{"x":166357.6400000006,"y":2540298.5100000016}},{"attributes":{"ID":515657,"DIS_CODE":0,"TOWNNAME":"南區","LI":"南華里","LIN":"1鄰","STREET":"中華南路","SECT":"二段","MAREA":" ","LANE":" ","ALLEY":" ","HOUSE_NO":"４２０號","E_COORD97":166353.07000000001,"N_COORD97":2540298.3900000001,"ADDRESS":"中華南路二段４２０號","OBJECTID":515630},"geometry":{"x":166353.0700000003,"y":2540298.3900000006}},{"attributes":{"ID":515658,"DIS_CODE":0,"TOWNNAME":"南區","LI":"南華里","LIN":"1鄰","STREET":"中華南路","SECT":"二段","MAREA":" ","LANE":" ","ALLEY":" ","HOUSE_NO":"４２２號","E_COORD97":166349.09,"N_COORD97":2540298.6299999999,"ADDRESS":"中華南路二段４２２號","OBJECTID":515631},"geometry":{"x":166349.08999999985,"y":2540298.629999999}},{"attributes":{"ID":515659,"DIS_CODE":0,"TOWNNAME":"東山區","LI":"東中里","LIN":"1鄰","STREET":"中興南路","SECT":" ","MAREA":" ","LANE":" ","ALLEY":" ","HOUSE_NO":"１００號","E_COORD97":188974.42999999999,"N_COORD97":2579933.29,"ADDRESS":"中興南路１００號","OBJECTID":515632},"geometry":{"x":188974.43000000156,"y":2579933.290000001}},{"attributes":{"ID":515660,"DIS_CODE":0,"TOWNNAME":"東山區","LI":"東中里","LIN":"1鄰","STREET":"中興南路","SECT":" ","MAREA":" ","LANE":" ","ALLEY":" ","HOUSE_NO":"１０２號","E_COORD97":188974.60000000001,"N_COORD97":2579937.3300000001,"ADDRESS":"中興南路１０２號","OBJECTID":515633},"geometry":{"x":188974.59999999963,"y":2579937.3300000019}},{"attributes":{"ID":515661,"DIS_CODE":0,"TOWNNAME":"新營區","LI":"民權里","LIN":" ","STREET":"信義街","SECT":" ","MAREA":" ","LANE":" ","ALLEY":" ","HOUSE_NO":"７３號","E_COORD97":179783.51000000001,"N_COORD97":2578675.6299999999,"ADDRESS":"信義街７３號","OBJECTID":515634},"geometry":{"x":179783.51000000071,"y":2578675.6300000008}},{"attributes":{"ID":515662,"DIS_CODE":0,"TOWNNAME":"東山區","LI":"東中里","LIN":"1鄰","STREET":"中興南路","SECT":" ","MAREA":" ","LANE":" ","ALLEY":" ","HOUSE_NO":"１０６號","E_COORD97":188975.67000000001,"N_COORD97":2579943.6099999999,"ADDRESS":"中興南路１０６號","OBJECTID":515635},"geometry":{"x":188975.66999999993,"y":2579943.6099999994}},{"attributes":{"ID":515663,"DIS_CODE":0,"TOWNNAME":"東山區","LI":"東中里","LIN":"1鄰","STREET":"中興南路","SECT":" ","MAREA":" ","LANE":" ","ALLEY":" ","HOUSE_NO":"１１２號","E_COORD97":188976.32999999999,"N_COORD97":2579957.02,"ADDRESS":"中興南路１１２號","OBJECTID":515636},"geometry":{"x":188976.33000000101,"y":2579957.0199999996}},{"attributes":{"ID":515664,"DIS_CODE":0,"TOWNNAME":"東山區","LI":"東中里","LIN":"1鄰","STREET":"中興南路","SECT":" ","MAREA":" ","LANE":" ","ALLEY":" ","HOUSE_NO":"１１６號","E_COORD97":188976.94,"N_COORD97":2579962.2799999998,"ADDRESS":"中興南路１１６號","OBJECTID":515637},"geometry":{"x":188976.94000000227,"y":2579962.2799999993}},{"attributes":{"ID":515665,"DIS_CODE":0,"TOWNNAME":"東山區","LI":"東中里","LIN":"1鄰","STREET":"中興南路","SECT":" ","MAREA":" ","LANE":" ","ALLEY":" ","HOUSE_NO":"１１８號","E_COORD97":188977.54000000001,"N_COORD97":2579967.3300000001,"ADDRESS":"中興南路１１８號","OBJECTID":515638},"geometry":{"x":188977.5400000019,"y":2579967.3300000019}},{"attributes":{"ID":515666,"DIS_CODE":0,"TOWNNAME":"東山區","LI":"東中里","LIN":"1鄰","STREET":"中興南路","SECT":" ","MAREA":" ","LANE":" ","ALLEY":" ","HOUSE_NO":"３１號","E_COORD97":188947.20999999999,"N_COORD97":2579880.9199999999,"ADDRESS":"中興南路３１號","OBJECTID":515639},"geometry":{"x":188947.20999999996,"y":2579880.9199999999}},{"attributes":{"ID":515667,"DIS_CODE":0,"TOWNNAME":"東山區","LI":"東中里","LIN":"1鄰","STREET":"中興南路","SECT":" ","MAREA":" ","LANE":" ","ALLEY":" ","HOUSE_NO":"５７號","E_COORD97":188952.06,"N_COORD97":2579933.1499999999,"ADDRESS":"中興南路５７號","OBJECTID":515640},"geometry":{"x":188952.06000000052,"y":2579933.1500000004}},{"attributes":{"ID":515668,"DIS_CODE":0,"TOWNNAME":"東山區","LI":"東中里","LIN":"1鄰","STREET":"中興南路","SECT":" ","MAREA":" ","LANE":" ","ALLEY":" ","HOUSE_NO":"５９號之１","E_COORD97":188933.14000000001,"N_COORD97":2579967.1400000001,"ADDRESS":"中興南路５９號之１","OBJECTID":515641},"geometry":{"x":188933.1400000006,"y":2579967.1400000006}},{"attributes":{"ID":515669,"DIS_CODE":0,"TOWNNAME":"東山區","LI":"東中里","LIN":"1鄰","STREET":"中興南路","SECT":" ","MAREA":" ","LANE":" ","ALLEY":" ","HOUSE_NO":"５９號","E_COORD97":188949.34,"N_COORD97":2579966.2599999998,"ADDRESS":"中興南路５９號","OBJECTID":515642},"geometry":{"x":188949.33999999985,"y":2579966.2599999998}},{"attributes":{"ID":515670,"DIS_CODE":0,"TOWNNAME":"東山區","LI":"東中里","LIN":"1鄰","STREET":"中興南路","SECT":" ","MAREA":" ","LANE":" ","ALLEY":" ","HOUSE_NO":"７８號","E_COORD97":188979.20999999999,"N_COORD97":2579876.21,"ADDRESS":"中興南路７８號","OBJECTID":515643},"geometry":{"x":188979.20999999996,"y":2579876.2100000009}},{"attributes":{"ID":515671,"DIS_CODE":0,"TOWNNAME":"東山區","LI":"東中里","LIN":"1鄰","STREET":"中興南路","SECT":" ","MAREA":" ","LANE":" ","ALLEY":" ","HOUSE_NO":"８０號","E_COORD97":188974.69,"N_COORD97":2579889.4100000001,"ADDRESS":"中興南路８０號","OBJECTID":515644},"geometry":{"x":188974.69000000041,"y":2579889.410000002}},{"attributes":{"ID":515672,"DIS_CODE":0,"TOWNNAME":"東山區","LI":"東中里","LIN":"1鄰","STREET":"中興南路","SECT":" ","MAREA":" ","LANE":" ","ALLEY":" ","HOUSE_NO":"９０號","E_COORD97":188972.89000000001,"N_COORD97":2579916.71,"ADDRESS":"中興南路９０號","OBJECTID":515645},"geometry":{"x":188972.88999999873,"y":2579916.7100000009}},{"attributes":{"ID":515673,"DIS_CODE":0,"TOWNNAME":"東山區","LI":"東中里","LIN":"1鄰","STREET":"中興南路","SECT":" ","MAREA":" ","LANE":" ","ALLEY":" ","HOUSE_NO":"９２號","E_COORD97":188973.26999999999,"N_COORD97":2579922.25,"ADDRESS":"中興南路９２號","OBJECTID":515646},"geometry":{"x":188973.26999999955,"y":2579922.25}},{"attributes":{"ID":515674,"DIS_CODE":0,"TOWNNAME":"東山區","LI":"東中里","LIN":"1鄰","STREET":"中興南路","SECT":" ","MAREA":" ","LANE":" ","ALLEY":" ","HOUSE_NO":"９６號","E_COORD97":188973.60000000001,"N_COORD97":2579926.3500000001,"ADDRESS":"中興南路９６號","OBJECTID":515647},"geometry":{"x":188973.60000000056,"y":2579926.3500000015}},{"attributes":{"ID":515675,"DIS_CODE":0,"TOWNNAME":"東山區","LI":"東中里","LIN":"1鄰","STREET":"中興南路","SECT":" ","MAREA":" ","LANE":" ","ALLEY":" ","HOUSE_NO":"９８號","E_COORD97":188974.23000000001,"N_COORD97":2579929.6400000001,"ADDRESS":"中興南路９８號","OBJECTID":515648},"geometry":{"x":188974.23000000045,"y":2579929.6400000025}},{"attributes":{"ID":515676,"DIS_CODE":0,"TOWNNAME":"新營區","LI":"埤寮里","LIN":"1鄰","STREET":"中正路","SECT":" ","MAREA":" ","LANE":" ","ALLEY":" ","HOUSE_NO":"５０５號","E_COORD97":180053.79000000001,"N_COORD97":2580630.1200000001,"ADDRESS":"中正路５０５號","OBJECTID":515649},"geometry":{"x":180053.79000000004,"y":2580630.120000001}},{"attributes":{"ID":515677,"DIS_CODE":0,"TOWNNAME":"新營區","LI":"埤寮里","LIN":"1鄰","STREET":"中正路","SECT":" ","MAREA":" ","LANE":" ","ALLEY":" ","HOUSE_NO":"５１１之３號","E_COORD97":180020.76999999999,"N_COORD97":2580687.9199999999,"ADDRESS":"中正路５１１之３號","OBJECTID":515650},"geometry":{"x":180020.76999999955,"y":2580687.9199999999}},{"attributes":{"ID":515678,"DIS_CODE":0,"TOWNNAME":"新營區","LI":"南興里","LIN":"1鄰","STREET":"南昌街","SECT":" ","MAREA":" ","LANE":" ","ALLEY":" ","HOUSE_NO":"９號","E_COORD97":179678.01000000001,"N_COORD97":2577628.4700000002,"ADDRESS":"南昌街９號","OBJECTID":515651},"geometry":{"x":179678.01000000071,"y":2577628.4700000025}},{"attributes":{"ID":515679,"DIS_CODE":0,"TOWNNAME":"新營區","LI":"埤寮里","LIN":"1鄰","STREET":"中正路","SECT":" ","MAREA":" ","LANE":" ","ALLEY":" ","HOUSE_NO":"４１２號","E_COORD97":180097.14999999999,"N_COORD97":2580487.0499999998,"ADDRESS":"中正路４１２號","OBJECTID":515652},"geometry":{"x":180097.15000000037,"y":2580487.0500000007}},{"attributes":{"ID":515680,"DIS_CODE":0,"TOWNNAME":"新營區","LI":"埤寮里","LIN":"1鄰","STREET":"中正路","SECT":" ","MAREA":" ","LANE":" ","ALLEY":" ","HOUSE_NO":"４８６號","E_COORD97":180084.16,"N_COORD97":2580768.3999999999,"ADDRESS":"中正路４８６號","OBJECTID":515653},"geometry":{"x":180084.16000000108,"y":2580768.4000000022}},{"attributes":{"ID":515681,"DIS_CODE":0,"TOWNNAME":"新營區","LI":"民榮里","LIN":"1鄰","STREET":"復興路","SECT":" ","MAREA":" ","LANE":" ","ALLEY":" ","HOUSE_NO":"１３１之５號","E_COORD97":179340.23999999999,"N_COORD97":2578032.1600000001,"ADDRESS":"復興路１３１之５號","OBJECTID":515654},"geometry":{"x":179340.24000000022,"y":2578032.1600000039}},{"attributes":{"ID":515682,"DIS_CODE":0,"TOWNNAME":"新營區","LI":"埤寮里","LIN":"1鄰","STREET":"中正路","SECT":" ","MAREA":" ","LANE":" ","ALLEY":" ","HOUSE_NO":"５０９號","E_COORD97":180055.88,"N_COORD97":2580640.0699999998,"ADDRESS":"中正路５０９號","OBJECTID":515655},"geometry":{"x":180055.87999999989,"y":2580640.070000004}},{"attributes":{"ID":515683,"DIS_CODE":0,"TOWNNAME":"新營區","LI":"新南里","LIN":"1鄰","STREET":"民治路","SECT":" ","MAREA":" ","LANE":" ","ALLEY":" ","HOUSE_NO":"２１４號","E_COORD97":178871.98999999999,"N_COORD97":2578585.8500000001,"ADDRESS":"民治路２１４號","OBJECTID":515656},"geometry":{"x":178871.99000000115,"y":2578585.8499999996}},{"attributes":{"ID":515684,"DIS_CODE":0,"TOWNNAME":"新營區","LI":"忠政里","LIN":"1鄰","STREET":"中正路","SECT":" ","MAREA":" ","LANE":" ","ALLEY":" ","HOUSE_NO":"２７之６號","E_COORD97":180104.60000000001,"N_COORD97":2578986.4700000002,"ADDRESS":"中正路２７之６號","OBJECTID":515657},"geometry":{"x":180104.60000000056,"y":2578986.4700000007}},{"attributes":{"ID":515685,"DIS_CODE":0,"TOWNNAME":"新營區","LI":"新南里","LIN":"1鄰","STREET":"民治路","SECT":" ","MAREA":" ","LANE":" ","ALLEY":" ","HOUSE_NO":"２１８號","E_COORD97":178860.70000000001,"N_COORD97":2578578.1499999999,"ADDRESS":"民治路２１８號","OBJECTID":515658},"geometry":{"x":178860.70000000019,"y":2578578.1499999985}},{"attributes":{"ID":515686,"DIS_CODE":0,"TOWNNAME":"新營區","LI":"民榮里","LIN":"1鄰","STREET":"和平路","SECT":" ","MAREA":" ","LANE":" ","ALLEY":" ","HOUSE_NO":"６之１號","E_COORD97":179398.95000000001,"N_COORD97":2577994.21,"ADDRESS":"和平路６之１號","OBJECTID":515659},"geometry":{"x":179398.95000000112,"y":2577994.2100000009}},{"attributes":{"ID":515687,"DIS_CODE":0,"TOWNNAME":"新營區","LI":"王公里","LIN":"1鄰","STREET":"中正路","SECT":" ","MAREA":" ","LANE":" ","ALLEY":" ","HOUSE_NO":"６２號","E_COORD97":180127.62,"N_COORD97":2578988.5099999998,"ADDRESS":"中正路６２號","OBJECTID":515660},"geometry":{"x":180127.62000000011,"y":2578988.5099999998}},{"attributes":{"ID":515688,"DIS_CODE":0,"TOWNNAME":"新營區","LI":"王公里","LIN":"1鄰","STREET":"民治路","SECT":" ","MAREA":" ","LANE":" ","ALLEY":" ","HOUSE_NO":"２８號","E_COORD97":180183.47,"N_COORD97":2578888.5800000001,"ADDRESS":"民治路２８號","OBJECTID":515661},"geometry":{"x":180183.47000000067,"y":2578888.5800000019}},{"attributes":{"ID":515689,"DIS_CODE":0,"TOWNNAME":"新營區","LI":"新北里","LIN":"1鄰","STREET":"周武街","SECT":" ","MAREA":" ","LANE":" ","ALLEY":" ","HOUSE_NO":"３０號","E_COORD97":179402.10000000001,"N_COORD97":2578901.1400000001,"ADDRESS":"周武街３０號","OBJECTID":515662},"geometry":{"x":179402.0999999987,"y":2578901.1400000025}},{"attributes":{"ID":515690,"DIS_CODE":0,"TOWNNAME":"新營區","LI":"新北里","LIN":"1鄰","STREET":"周武街","SECT":" ","MAREA":" ","LANE":" ","ALLEY":" ","HOUSE_NO":"２７號","E_COORD97":179391.72,"N_COORD97":2578873.5099999998,"ADDRESS":"周武街２７號","OBJECTID":515663},"geometry":{"x":179391.72000000067,"y":2578873.5100000035}},{"attributes":{"ID":515691,"DIS_CODE":0,"TOWNNAME":"新營區","LI":"新北里","LIN":"1鄰","STREET":"周武街","SECT":" ","MAREA":" ","LANE":" ","ALLEY":" ","HOUSE_NO":"２４號","E_COORD97":179408.10000000001,"N_COORD97":2578876.75,"ADDRESS":"周武街２４號","OBJECTID":515664},"geometry":{"x":179408.10000000056,"y":2578876.7500000019}},{"attributes":{"ID":515692,"DIS_CODE":0,"TOWNNAME":"新營區","LI":"民榮里","LIN":"1鄰","STREET":"和平路","SECT":" ","MAREA":" ","LANE":" ","ALLEY":" ","HOUSE_NO":"２號","E_COORD97":179395.60000000001,"N_COORD97":2578018.5299999998,"ADDRESS":"和平路２號","OBJECTID":515665},"geometry":{"x":179395.60000000056,"y":2578018.5300000031}},{"attributes":{"ID":515693,"DIS_CODE":0,"TOWNNAME":"新營區","LI":"王公里","LIN":"1鄰","STREET":"中正路","SECT":" ","MAREA":" ","LANE":" ","ALLEY":" ","HOUSE_NO":"６０號","E_COORD97":180128.63,"N_COORD97":2578985.1899999999,"ADDRESS":"中正路６０號","OBJECTID":515666},"geometry":{"x":180128.63000000082,"y":2578985.1900000013}},{"attributes":{"ID":515694,"DIS_CODE":0,"TOWNNAME":"東山區","LI":"東中里","LIN":"1鄰","STREET":"民享街","SECT":" ","MAREA":" ","LANE":" ","ALLEY":" ","HOUSE_NO":"１１號","E_COORD97":189051.10999999999,"N_COORD97":2579883.73,"ADDRESS":"民享街１１號","OBJECTID":515667},"geometry":{"x":189051.11000000034,"y":2579883.7300000023}},{"attributes":{"ID":515695,"DIS_CODE":0,"TOWNNAME":"東山區","LI":"東中里","LIN":"1鄰","STREET":"民享街","SECT":" ","MAREA":" ","LANE":" ","ALLEY":" ","HOUSE_NO":"１號","E_COORD97":188993.41,"N_COORD97":2579868.5699999998,"ADDRESS":"民享街１號","OBJECTID":515668},"geometry":{"x":188993.41000000015,"y":2579868.5700000022}},{"attributes":{"ID":515696,"DIS_CODE":0,"TOWNNAME":"東山區","LI":"東中里","LIN":"1鄰","STREET":"民享街","SECT":" ","MAREA":" ","LANE":" ","ALLEY":" ","HOUSE_NO":"３號","E_COORD97":189003.92999999999,"N_COORD97":2579867.9500000002,"ADDRESS":"民享街３號","OBJECTID":515669},"geometry":{"x":189003.93000000063,"y":2579867.9500000011}},{"attributes":{"ID":515697,"DIS_CODE":0,"TOWNNAME":"東山區","LI":"東中里","LIN":"1鄰","STREET":"信義街","SECT":" ","MAREA":" ","LANE":" ","ALLEY":" ","HOUSE_NO":"１０號","E_COORD97":188870.31,"N_COORD97":2579964.9500000002,"ADDRESS":"信義街１０號","OBJECTID":515670},"geometry":{"x":188870.31000000052,"y":2579964.9499999974}},{"attributes":{"ID":515698,"DIS_CODE":0,"TOWNNAME":"東山區","LI":"東中里","LIN":"1鄰","STREET":"信義街","SECT":" ","MAREA":" ","LANE":" ","ALLEY":" ","HOUSE_NO":"１１號","E_COORD97":188825.85999999999,"N_COORD97":2579953.27,"ADDRESS":"信義街１１號","OBJECTID":515671},"geometry":{"x":188825.86000000034,"y":2579953.2700000033}},{"attributes":{"ID":515699,"DIS_CODE":0,"TOWNNAME":"東山區","LI":"東中里","LIN":"1鄰","STREET":"信義街","SECT":" ","MAREA":" ","LANE":" ","ALLEY":" ","HOUSE_NO":"１２號","E_COORD97":188860.32999999999,"N_COORD97":2579966.02,"ADDRESS":"信義街１２號","OBJECTID":515672},"geometry":{"x":188860.33000000194,"y":2579966.0200000014}},{"attributes":{"ID":515700,"DIS_CODE":0,"TOWNNAME":"東山區","LI":"東中里","LIN":"1鄰","STREET":"信義街","SECT":" ","MAREA":" ","LANE":" ","ALLEY":" ","HOUSE_NO":"１３號","E_COORD97":188819.62,"N_COORD97":2579954.75,"ADDRESS":"信義街１３號","OBJECTID":515673},"geometry":{"x":188819.62000000104,"y":2579954.7500000019}},{"attributes":{"ID":515701,"DIS_CODE":0,"TOWNNAME":"東山區","LI":"東中里","LIN":"1鄰","STREET":"信義街","SECT":" ","MAREA":" ","LANE":" ","ALLEY":" ","HOUSE_NO":"１５號","E_COORD97":188812.22,"N_COORD97":2579957.0499999998,"ADDRESS":"信義街１５號","OBJECTID":515674},"geometry":{"x":188812.22000000067,"y":2579957.0500000026}},{"attributes":{"ID":515702,"DIS_CODE":0,"TOWNNAME":"東山區","LI":"東中里","LIN":"1鄰","STREET":"信義街","SECT":" ","MAREA":" ","LANE":" ","ALLEY":" ","HOUSE_NO":"１６號","E_COORD97":188835.16,"N_COORD97":2579969.9199999999,"ADDRESS":"信義街１６號","OBJECTID":515675},"geometry":{"x":188835.16000000108,"y":2579969.9200000018}},{"attributes":{"ID":515703,"DIS_CODE":0,"TOWNNAME":"東山區","LI":"東中里","LIN":"1鄰","STREET":"信義街","SECT":" ","MAREA":" ","LANE":" ","ALLEY":" ","HOUSE_NO":"１７號","E_COORD97":188803.29000000001,"N_COORD97":2579958.1800000002,"ADDRESS":"信義街１７號","OBJECTID":515676},"geometry":{"x":188803.29000000097,"y":2579958.1800000016}},{"attributes":{"ID":515704,"DIS_CODE":0,"TOWNNAME":"東山區","LI":"東中里","LIN":"1鄰","STREET":"信義街","SECT":" ","MAREA":" ","LANE":" ","ALLEY":" ","HOUSE_NO":"１８號","E_COORD97":188829.97,"N_COORD97":2579971.04,"ADDRESS":"信義街１８號","OBJECTID":515677},"geometry":{"x":188829.96999999974,"y":2579971.0399999972}},{"attributes":{"ID":515705,"DIS_CODE":0,"TOWNNAME":"東山區","LI":"東中里","LIN":"1鄰","STREET":"信義街","SECT":" ","MAREA":" ","LANE":" ","ALLEY":" ","HOUSE_NO":"１９號","E_COORD97":188792.98999999999,"N_COORD97":2579959.5600000001,"ADDRESS":"信義街１９號","OBJECTID":515678},"geometry":{"x":188792.99000000022,"y":2579959.5600000024}},{"attributes":{"ID":515706,"DIS_CODE":0,"TOWNNAME":"東山區","LI":"東中里","LIN":"1鄰","STREET":"信義街","SECT":" ","MAREA":" ","LANE":" ","ALLEY":" ","HOUSE_NO":"２０號","E_COORD97":188823.48999999999,"N_COORD97":2579971.73,"ADDRESS":"信義街２０號","OBJECTID":515679},"geometry":{"x":188823.49000000022,"y":2579971.7300000023}},{"attributes":{"ID":515707,"DIS_CODE":0,"TOWNNAME":"東山區","LI":"東中里","LIN":"1鄰","STREET":"信義街","SECT":" ","MAREA":" ","LANE":" ","ALLEY":" ","HOUSE_NO":"２２號","E_COORD97":188816.70999999999,"N_COORD97":2579972.6899999999,"ADDRESS":"信義街２２號","OBJECTID":515680},"geometry":{"x":188816.70999999996,"y":2579972.6899999995}},{"attributes":{"ID":515708,"DIS_CODE":0,"TOWNNAME":"東山區","LI":"東中里","LIN":"1鄰","STREET":"信義街","SECT":" ","MAREA":" ","LANE":" ","ALLEY":" ","HOUSE_NO":"２６號","E_COORD97":188810.70999999999,"N_COORD97":2579973.7400000002,"ADDRESS":"信義街２６號","OBJECTID":515681},"geometry":{"x":188810.71000000089,"y":2579973.7400000002}},{"attributes":{"ID":515709,"DIS_CODE":0,"TOWNNAME":"東山區","LI":"東中里","LIN":"1鄰","STREET":"信義街","SECT":" ","MAREA":" ","LANE":" ","ALLEY":" ","HOUSE_NO":"２８號","E_COORD97":188804.28,"N_COORD97":2579974.4500000002,"ADDRESS":"信義街２８號","OBJECTID":515682},"geometry":{"x":188804.28000000026,"y":2579974.4499999993}},{"attributes":{"ID":515710,"DIS_CODE":0,"TOWNNAME":"東山區","LI":"東中里","LIN":"1鄰","STREET":"信義街","SECT":" ","MAREA":" ","LANE":" ","ALLEY":" ","HOUSE_NO":"３０號","E_COORD97":188798.51999999999,"N_COORD97":2579975.3900000001,"ADDRESS":"信義街３０號","OBJECTID":515683},"geometry":{"x":188798.51999999955,"y":2579975.3900000025}},{"attributes":{"ID":515711,"DIS_CODE":0,"TOWNNAME":"東山區","LI":"東中里","LIN":"1鄰","STREET":"信義街","SECT":" ","MAREA":" ","LANE":" ","ALLEY":" ","HOUSE_NO":"３２號","E_COORD97":188792.23999999999,"N_COORD97":2579976.4700000002,"ADDRESS":"信義街３２號","OBJECTID":515684},"geometry":{"x":188792.24000000115,"y":2579976.4699999988}},{"attributes":{"ID":515712,"DIS_CODE":0,"TOWNNAME":"東山區","LI":"東中里","LIN":"1鄰","STREET":"信義街","SECT":" ","MAREA":" ","LANE":" ","ALLEY":" ","HOUSE_NO":"３６號","E_COORD97":188785.07000000001,"N_COORD97":2579977.6600000001,"ADDRESS":"信義街３６號","OBJECTID":515685},"geometry":{"x":188785.07000000123,"y":2579977.6600000001}},{"attributes":{"ID":515713,"DIS_CODE":0,"TOWNNAME":"東山區","LI":"東中里","LIN":"1鄰","STREET":"信義街","SECT":" ","MAREA":" ","LANE":" ","ALLEY":" ","HOUSE_NO":"３８號","E_COORD97":188779.10999999999,"N_COORD97":2579978.52,"ADDRESS":"信義街３８號","OBJECTID":515686},"geometry":{"x":188779.11000000127,"y":2579978.5200000033}},{"attributes":{"ID":515714,"DIS_CODE":0,"TOWNNAME":"東山區","LI":"東中里","LIN":"1鄰","STREET":"信義街","SECT":" ","MAREA":" ","LANE":" ","ALLEY":" ","HOUSE_NO":"３號","E_COORD97":188853.29000000001,"N_COORD97":2579940.2599999998,"ADDRESS":"信義街３號","OBJECTID":515687},"geometry":{"x":188853.29000000004,"y":2579940.2600000016}},{"attributes":{"ID":515715,"DIS_CODE":0,"TOWNNAME":"東山區","LI":"東中里","LIN":"1鄰","STREET":"信義街","SECT":" ","MAREA":" ","LANE":" ","ALLEY":" ","HOUSE_NO":"５號","E_COORD97":188845.17999999999,"N_COORD97":2579951.21,"ADDRESS":"信義街５號","OBJECTID":515688},"geometry":{"x":188845.1799999997,"y":2579951.2100000009}},{"attributes":{"ID":515716,"DIS_CODE":0,"TOWNNAME":"東山區","LI":"東中里","LIN":"1鄰","STREET":"信義街","SECT":" ","MAREA":" ","LANE":" ","ALLEY":" ","HOUSE_NO":"７號","E_COORD97":188838.32999999999,"N_COORD97":2579951.9199999999,"ADDRESS":"信義街７號","OBJECTID":515689},"geometry":{"x":188838.33000000194,"y":2579951.9199999999}},{"attributes":{"ID":515717,"DIS_CODE":0,"TOWNNAME":"東山區","LI":"東中里","LIN":"1鄰","STREET":"信義街","SECT":" ","MAREA":" ","LANE":" ","ALLEY":" ","HOUSE_NO":"９號","E_COORD97":188832.75,"N_COORD97":2579952.79,"ADDRESS":"信義街９號","OBJECTID":515690},"geometry":{"x":188832.75,"y":2579952.7900000028}},{"attributes":{"ID":515718,"DIS_CODE":0,"TOWNNAME":"北區","LI":"三德里","LIN":"1鄰","STREET":"公園南路","SECT":" ","MAREA":" ","LANE":" ","ALLEY":" ","HOUSE_NO":"１７９號","E_COORD97":168599.17000000001,"N_COORD97":2544688.1299999999,"ADDRESS":"公園南路１７９號","OBJECTID":515691},"geometry":{"x":168599.17000000086,"y":2544688.1300000008}},{"attributes":{"ID":515719,"DIS_CODE":0,"TOWNNAME":"北區","LI":"三德里","LIN":"1鄰","STREET":"公園南路","SECT":" ","MAREA":" ","LANE":" ","ALLEY":" ","HOUSE_NO":"２１１號","E_COORD97":168573.54999999999,"N_COORD97":2544685.25,"ADDRESS":"公園南路２１１號","OBJECTID":515692},"geometry":{"x":168573.54999999981,"y":2544685.2500000019}},{"attributes":{"ID":515720,"DIS_CODE":0,"TOWNNAME":"北區","LI":"三德里","LIN":"1鄰","STREET":"公園南路","SECT":" ","MAREA":" ","LANE":" ","ALLEY":" ","HOUSE_NO":"２１９號","E_COORD97":168563.17999999999,"N_COORD97":2544699.0800000001,"ADDRESS":"公園南路２１９號","OBJECTID":515693},"geometry":{"x":168563.18000000063,"y":2544699.0800000019}},{"attributes":{"ID":515721,"DIS_CODE":0,"TOWNNAME":"北區","LI":"三德里","LIN":"1鄰","STREET":"北華街","SECT":" ","MAREA":" ","LANE":" ","ALLEY":" ","HOUSE_NO":"１４４號","E_COORD97":168570.5,"N_COORD97":2544614.6299999999,"ADDRESS":"北華街１４４號","OBJECTID":515694},"geometry":{"x":168570.5,"y":2544614.629999999}},{"attributes":{"ID":515722,"DIS_CODE":0,"TOWNNAME":"北區","LI":"三德里","LIN":"1鄰","STREET":"北華街","SECT":" ","MAREA":" ","LANE":" ","ALLEY":" ","HOUSE_NO":"１４６號","E_COORD97":168566.82000000001,"N_COORD97":2544614.4700000002,"ADDRESS":"北華街１４６號","OBJECTID":515695},"geometry":{"x":168566.8200000003,"y":2544614.4700000007}},{"attributes":{"ID":515723,"DIS_CODE":0,"TOWNNAME":"北區","LI":"三德里","LIN":"1鄰","STREET":"北華街","SECT":" ","MAREA":" ","LANE":" ","ALLEY":" ","HOUSE_NO":"１４８號","E_COORD97":168563.45999999999,"N_COORD97":2544614.6299999999,"ADDRESS":"北華街１４８號","OBJECTID":515696},"geometry":{"x":168563.46000000089,"y":2544614.629999999}},{"attributes":{"ID":515724,"DIS_CODE":0,"TOWNNAME":"北區","LI":"三德里","LIN":"1鄰","STREET":"北華街","SECT":" ","MAREA":" ","LANE":" ","ALLEY":" ","HOUSE_NO":"１５０號","E_COORD97":168560.09,"N_COORD97":2544613.9900000002,"ADDRESS":"北華街１５０號","OBJECTID":515697},"geometry":{"x":168560.09000000171,"y":2544613.9900000002}},{"attributes":{"ID":515725,"DIS_CODE":0,"TOWNNAME":"北區","LI":"三德里","LIN":"1鄰","STREET":"北華街","SECT":" ","MAREA":" ","LANE":" ","ALLEY":" ","HOUSE_NO":"１５２號","E_COORD97":168556.25,"N_COORD97":2544613.3500000001,"ADDRESS":"北華街１５２號","OBJECTID":515698},"geometry":{"x":168556.25000000093,"y":2544613.3499999996}},{"attributes":{"ID":515726,"DIS_CODE":0,"TOWNNAME":"北區","LI":"三德里","LIN":"1鄰","STREET":"北華街","SECT":" ","MAREA":" ","LANE":" ","ALLEY":" ","HOUSE_NO":"１５４號","E_COORD97":168552.89000000001,"N_COORD97":2544613.5099999998,"ADDRESS":"北華街１５４號","OBJECTID":515699},"geometry":{"x":168552.8900000006,"y":2544613.5099999998}},{"attributes":{"ID":515727,"DIS_CODE":0,"TOWNNAME":"北區","LI":"三德里","LIN":"1鄰","STREET":"北華街","SECT":" ","MAREA":" ","LANE":" ","ALLEY":" ","HOUSE_NO":"１５６號","E_COORD97":168549.85000000001,"N_COORD97":2544613.6699999999,"ADDRESS":"北華街１５６號","OBJECTID":515700},"geometry":{"x":168549.85000000056,"y":2544613.6700000018}},{"attributes":{"ID":515728,"DIS_CODE":0,"TOWNNAME":"北區","LI":"三德里","LIN":"1鄰","STREET":"北華街","SECT":" ","MAREA":" ","LANE":" ","ALLEY":" ","HOUSE_NO":"１５８號","E_COORD97":168546.48999999999,"N_COORD97":2544613.6699999999,"ADDRESS":"北華街１５８號","OBJECTID":515701},"geometry":{"x":168546.49000000115,"y":2544613.6700000018}},{"attributes":{"ID":515729,"DIS_CODE":0,"TOWNNAME":"北區","LI":"三德里","LIN":"1鄰","STREET":"北華街","SECT":" ","MAREA":" ","LANE":" ","ALLEY":" ","HOUSE_NO":"１６０號","E_COORD97":168542.95999999999,"N_COORD97":2544613.1899999999,"ADDRESS":"北華街１６０號","OBJECTID":515702},"geometry":{"x":168542.96000000089,"y":2544613.1900000013}},{"attributes":{"ID":515730,"DIS_CODE":0,"TOWNNAME":"北區","LI":"三德里","LIN":"1鄰","STREET":"北華街","SECT":" ","MAREA":" ","LANE":" ","ALLEY":" ","HOUSE_NO":"１６２號","E_COORD97":168538.16,"N_COORD97":2544612.8700000001,"ADDRESS":"北華街１６２號","OBJECTID":515703},"geometry":{"x":168538.16000000108,"y":2544612.8700000048}},{"attributes":{"ID":515731,"DIS_CODE":0,"TOWNNAME":"北區","LI":"三德里","LIN":"1鄰","STREET":"北華街","SECT":" ","MAREA":" ","LANE":" ","ALLEY":" ","HOUSE_NO":"１６４號","E_COORD97":168535.12,"N_COORD97":2544613.0299999998,"ADDRESS":"北華街１６４號","OBJECTID":515704},"geometry":{"x":168535.12000000104,"y":2544613.0299999975}},{"attributes":{"ID":515732,"DIS_CODE":0,"TOWNNAME":"北區","LI":"三德里","LIN":"1鄰","STREET":"北華街","SECT":" ","MAREA":" ","LANE":" ","ALLEY":" ","HOUSE_NO":"１６６號","E_COORD97":168531.28,"N_COORD97":2544613.3500000001,"ADDRESS":"北華街１６６號","OBJECTID":515705},"geometry":{"x":168531.28000000026,"y":2544613.3499999996}},{"attributes":{"ID":515733,"DIS_CODE":0,"TOWNNAME":"北區","LI":"長德里","LIN":"1鄰","STREET":"公園南路","SECT":" ","MAREA":" ","LANE":" ","ALLEY":" ","HOUSE_NO":"１３２號","E_COORD97":168708.89999999999,"N_COORD97":2544683.0499999998,"ADDRESS":"公園南路１３２號","OBJECTID":515706},"geometry":{"x":168708.90000000037,"y":2544683.0500000026}},{"attributes":{"ID":515734,"DIS_CODE":0,"TOWNNAME":"北區","LI":"玉皇里","LIN":"1鄰","STREET":"北華街","SECT":" ","MAREA":" ","LANE":" ","ALLEY":" ","HOUSE_NO":"１１８號","E_COORD97":168649.48999999999,"N_COORD97":2544649.1400000001,"ADDRESS":"北華街１１８號","OBJECTID":515707},"geometry":{"x":168649.49000000115,"y":2544649.1400000025}},{"attributes":{"ID":515735,"DIS_CODE":0,"TOWNNAME":"北區","LI":"玉皇里","LIN":"1鄰","STREET":"北華街","SECT":" ","MAREA":" ","LANE":" ","ALLEY":" ","HOUSE_NO":"１２０號","E_COORD97":168644.01000000001,"N_COORD97":2544646.7000000002,"ADDRESS":"北華街１２０號","OBJECTID":515708},"geometry":{"x":168644.01000000071,"y":2544646.7000000011}},{"attributes":{"ID":515736,"DIS_CODE":0,"TOWNNAME":"北區","LI":"玉皇里","LIN":"1鄰","STREET":"北華街","SECT":" ","MAREA":" ","LANE":" ","ALLEY":" ","HOUSE_NO":"１２２號","E_COORD97":168639.20000000001,"N_COORD97":2544656.3500000001,"ADDRESS":"北華街１２２號","OBJECTID":515709},"geometry":{"x":168639.19999999925,"y":2544656.3500000015}},{"attributes":{"ID":515737,"DIS_CODE":0,"TOWNNAME":"北區","LI":"玉皇里","LIN":"1鄰","STREET":"北華街","SECT":" ","MAREA":" ","LANE":" ","ALLEY":" ","HOUSE_NO":"１２４號","E_COORD97":168634.38,"N_COORD97":2544659.6800000002,"ADDRESS":"北華街１２４號","OBJECTID":515710},"geometry":{"x":168634.38000000175,"y":2544659.6799999997}},{"attributes":{"ID":515738,"DIS_CODE":0,"TOWNNAME":"北區","LI":"玉皇里","LIN":"1鄰","STREET":"北華街","SECT":" ","MAREA":" ","LANE":" ","ALLEY":" ","HOUSE_NO":"１２６號","E_COORD97":168633.79000000001,"N_COORD97":2544651.02,"ADDRESS":"北華街１２６號","OBJECTID":515711},"geometry":{"x":168633.79000000097,"y":2544651.0200000033}},{"attributes":{"ID":515739,"DIS_CODE":0,"TOWNNAME":"北區","LI":"玉皇里","LIN":"1鄰","STREET":"北華街","SECT":" ","MAREA":" ","LANE":" ","ALLEY":" ","HOUSE_NO":"１２８號","E_COORD97":168641.06,"N_COORD97":2544628.4100000001,"ADDRESS":"北華街１２８號","OBJECTID":515712},"geometry":{"x":168641.05999999959,"y":2544628.4100000039}},{"attributes":{"ID":515740,"DIS_CODE":0,"TOWNNAME":"北區","LI":"玉皇里","LIN":"1鄰","STREET":"北華街","SECT":" ","MAREA":" ","LANE":" ","ALLEY":" ","HOUSE_NO":"１３０號","E_COORD97":168630.29999999999,"N_COORD97":2544623.75,"ADDRESS":"北華街１３０號","OBJECTID":515713},"geometry":{"x":168630.30000000075,"y":2544623.7500000019}},{"attributes":{"ID":515741,"DIS_CODE":0,"TOWNNAME":"北區","LI":"玉皇里","LIN":"1鄰","STREET":"北華街","SECT":" ","MAREA":" ","LANE":" ","ALLEY":" ","HOUSE_NO":"１３２號","E_COORD97":168622.10999999999,"N_COORD97":2544620.5099999998,"ADDRESS":"北華街１３２號","OBJECTID":515714},"geometry":{"x":168622.11000000127,"y":2544620.5099999979}},{"attributes":{"ID":515742,"DIS_CODE":0,"TOWNNAME":"北區","LI":"玉皇里","LIN":"1鄰","STREET":"忠義路","SECT":"三段","MAREA":" ","LANE":" ","ALLEY":" ","HOUSE_NO":"１００號","E_COORD97":168621.69,"N_COORD97":2544649.46,"ADDRESS":"忠義路三段１００號","OBJECTID":515715},"geometry":{"x":168621.69000000134,"y":2544649.4600000046}},{"attributes":{"ID":515743,"DIS_CODE":0,"TOWNNAME":"北區","LI":"玉皇里","LIN":"1鄰","STREET":"忠義路","SECT":"三段","MAREA":" ","LANE":" ","ALLEY":" ","HOUSE_NO":"１０４號","E_COORD97":168625.03,"N_COORD97":2544657.7599999998,"ADDRESS":"忠義路三段１０４號","OBJECTID":515716},"geometry":{"x":168625.03000000026,"y":2544657.7600000016}},{"attributes":{"ID":515744,"DIS_CODE":0,"TOWNNAME":"北區","LI":"玉皇里","LIN":"1鄰","STREET":"忠義路","SECT":"三段","MAREA":" ","LANE":" ","ALLEY":" ","HOUSE_NO":"１０６號","E_COORD97":168629.92000000001,"N_COORD97":2544670.5899999999,"ADDRESS":"忠義路三段１０６號","OBJECTID":515717},"geometry":{"x":168629.92000000086,"y":2544670.5899999999}},{"attributes":{"ID":515745,"DIS_CODE":0,"TOWNNAME":"北區","LI":"三德里","LIN":"1鄰","STREET":"忠義路","SECT":"三段","MAREA":" ","LANE":" ","ALLEY":" ","HOUSE_NO":"１０９號","E_COORD97":168595.32000000001,"N_COORD97":2544650.4399999999,"ADDRESS":"忠義路三段１０９號","OBJECTID":515718},"geometry":{"x":168595.32000000123,"y":2544650.4399999995}},{"attributes":{"ID":515746,"DIS_CODE":0,"TOWNNAME":"北區","LI":"三德里","LIN":"1鄰","STREET":"忠義路","SECT":"三段","MAREA":" ","LANE":" ","ALLEY":" ","HOUSE_NO":"１１３號","E_COORD97":168603.48999999999,"N_COORD97":2544672.1400000001,"ADDRESS":"忠義路三段１１３號","OBJECTID":515719},"geometry":{"x":168603.49000000209,"y":2544672.1400000025}},{"attributes":{"ID":515747,"DIS_CODE":0,"TOWNNAME":"北區","LI":"三德里","LIN":"1鄰","STREET":"忠義路","SECT":"三段","MAREA":" ","LANE":" ","ALLEY":" ","HOUSE_NO":"１１５號","E_COORD97":168594.04999999999,"N_COORD97":2544683.0099999998,"ADDRESS":"忠義路三段１１５號","OBJECTID":515720},"geometry":{"x":168594.04999999888,"y":2544683.0100000016}},{"attributes":{"ID":515748,"DIS_CODE":0,"TOWNNAME":"北區","LI":"三德里","LIN":"1鄰","STREET":"忠義路","SECT":"三段","MAREA":" ","LANE":" ","ALLEY":" ","HOUSE_NO":"１１７號","E_COORD97":168605.09,"N_COORD97":2544678.2200000002,"ADDRESS":"忠義路三段１１７號","OBJECTID":515721},"geometry":{"x":168605.08999999985,"y":2544678.2200000025}},{"attributes":{"ID":515749,"DIS_CODE":0,"TOWNNAME":"北區","LI":"三德里","LIN":"1鄰","STREET":"忠義路","SECT":"三段","MAREA":" ","LANE":" ","ALLEY":" ","HOUSE_NO":"１１９號","E_COORD97":168608.57000000001,"N_COORD97":2544677.6400000001,"ADDRESS":"忠義路三段１１９號","OBJECTID":515722},"geometry":{"x":168608.57000000123,"y":2544677.6400000006}},{"attributes":{"ID":515750,"DIS_CODE":0,"TOWNNAME":"北區","LI":"玉皇里","LIN":"1鄰","STREET":"忠義路","SECT":"三段","MAREA":" ","LANE":" ","ALLEY":" ","HOUSE_NO":"９８號","E_COORD97":168619.62,"N_COORD97":2544644.1299999999,"ADDRESS":"忠義路三段９８號","OBJECTID":515723},"geometry":{"x":168619.62000000104,"y":2544644.1300000008}},{"attributes":{"ID":515751,"DIS_CODE":0,"TOWNNAME":"北區","LI":"長德里","LIN":"1鄰","STREET":"公園南路","SECT":" ","MAREA":" ","LANE":" ","ALLEY":" ","HOUSE_NO":"１５６號","E_COORD97":168648.57999999999,"N_COORD97":2544703.3199999998,"ADDRESS":"公園南路１５６號","OBJECTID":515724},"geometry":{"x":168648.58000000194,"y":2544703.3200000003}},{"attributes":{"ID":515752,"DIS_CODE":0,"TOWNNAME":"北區","LI":"長德里","LIN":"1鄰","STREET":"公園南路","SECT":" ","MAREA":" ","LANE":" ","ALLEY":" ","HOUSE_NO":"１６０號","E_COORD97":168643.39000000001,"N_COORD97":2544705.0499999998,"ADDRESS":"公園南路１６０號","OBJECTID":515725},"geometry":{"x":168643.3900000006,"y":2544705.0500000007}},{"attributes":{"ID":515753,"DIS_CODE":0,"TOWNNAME":"北區","LI":"長德里","LIN":"1鄰","STREET":"公園南路","SECT":" ","MAREA":" ","LANE":" ","ALLEY":" ","HOUSE_NO":"１７２號","E_COORD97":168640.26999999999,"N_COORD97":2544708.1600000001,"ADDRESS":"公園南路１７２號","OBJECTID":515726},"geometry":{"x":168640.27000000048,"y":2544708.1600000039}},{"attributes":{"ID":515754,"DIS_CODE":0,"TOWNNAME":"北區","LI":"長德里","LIN":"1鄰","STREET":"公園南路","SECT":" ","MAREA":" ","LANE":" ","ALLEY":" ","HOUSE_NO":"１７６號","E_COORD97":168639.23000000001,"N_COORD97":2544709.8900000001,"ADDRESS":"公園南路１７６號","OBJECTID":515727},"geometry":{"x":168639.23000000045,"y":2544709.8900000006}},{"attributes":{"ID":515755,"DIS_CODE":0,"TOWNNAME":"北區","LI":"長德里","LIN":"1鄰","STREET":"公園南路","SECT":" ","MAREA":" ","LANE":" ","ALLEY":" ","HOUSE_NO":"１１０號","E_COORD97":168726.92000000001,"N_COORD97":2544676.8199999998,"ADDRESS":"公園南路１１０號","OBJECTID":515728},"geometry":{"x":168726.91999999993,"y":2544676.820000004}},{"attributes":{"ID":515756,"DIS_CODE":0,"TOWNNAME":"北區","LI":"長德里","LIN":"1鄰","STREET":"公園南路","SECT":" ","MAREA":" ","LANE":" ","ALLEY":" ","HOUSE_NO":"１２０之１號","E_COORD97":168720.67999999999,"N_COORD97":2544678.5499999998,"ADDRESS":"公園南路１２０之１號","OBJECTID":515729},"geometry":{"x":168720.68000000063,"y":2544678.5500000007}},{"attributes":{"ID":515757,"DIS_CODE":0,"TOWNNAME":"北區","LI":"長德里","LIN":"1鄰","STREET":"公園南路","SECT":" ","MAREA":" ","LANE":" ","ALLEY":" ","HOUSE_NO":"１２０號","E_COORD97":168724.14999999999,"N_COORD97":2544677.5099999998,"ADDRESS":"公園南路１２０號","OBJECTID":515730},"geometry":{"x":168724.15000000037,"y":2544677.5099999998}},{"attributes":{"ID":515758,"DIS_CODE":0,"TOWNNAME":"北區","LI":"玉皇里","LIN":"1鄰","STREET":"公園南路","SECT":" ","MAREA":" ","LANE":" ","ALLEY":" ","HOUSE_NO":"１５１號","E_COORD97":168697.25,"N_COORD97":2544657.0099999998,"ADDRESS":"公園南路１５１號","OBJECTID":515731},"geometry":{"x":168697.25000000093,"y":2544657.0099999998}},{"attributes":{"ID":515759,"DIS_CODE":0,"TOWNNAME":"北區","LI":"長德里","LIN":"1鄰","STREET":"公園南路","SECT":" ","MAREA":" ","LANE":" ","ALLEY":" ","HOUSE_NO":"９８號","E_COORD97":168731.07999999999,"N_COORD97":2544676.1299999999,"ADDRESS":"公園南路９８號","OBJECTID":515732},"geometry":{"x":168731.08000000007,"y":2544676.129999999}},{"attributes":{"ID":515760,"DIS_CODE":0,"TOWNNAME":"北區","LI":"玉皇里","LIN":"1鄰","STREET":"北華街","SECT":" ","MAREA":" ","LANE":" ","ALLEY":" ","HOUSE_NO":"１０４號","E_COORD97":168701.17999999999,"N_COORD97":2544645.9100000001,"ADDRESS":"北華街１０４號","OBJECTID":515733},"geometry":{"x":168701.1799999997,"y":2544645.910000002}},{"attributes":{"ID":515761,"DIS_CODE":0,"TOWNNAME":"北區","LI":"玉皇里","LIN":"1鄰","STREET":"北華街","SECT":" ","MAREA":" ","LANE":" ","ALLEY":" ","HOUSE_NO":"１０６號","E_COORD97":168697.25,"N_COORD97":2544645.02,"ADDRESS":"北華街１０６號","OBJECTID":515734},"geometry":{"x":168697.25000000093,"y":2544645.0200000014}},{"attributes":{"ID":515762,"DIS_CODE":0,"TOWNNAME":"北區","LI":"玉皇里","LIN":"1鄰","STREET":"北華街","SECT":" ","MAREA":" ","LANE":" ","ALLEY":" ","HOUSE_NO":"１１０號","E_COORD97":168690.81,"N_COORD97":2544642.5099999998,"ADDRESS":"北華街１１０號","OBJECTID":515735},"geometry":{"x":168690.81000000052,"y":2544642.5100000016}},{"attributes":{"ID":515763,"DIS_CODE":0,"TOWNNAME":"北區","LI":"玉皇里","LIN":"1鄰","STREET":"北華街","SECT":" ","MAREA":" ","LANE":" ","ALLEY":" ","HOUSE_NO":"１１０號之１","E_COORD97":168686.95999999999,"N_COORD97":2544641.6200000001,"ADDRESS":"北華街１１０號之１","OBJECTID":515736},"geometry":{"x":168686.96000000089,"y":2544641.6200000048}},{"attributes":{"ID":515764,"DIS_CODE":0,"TOWNNAME":"北區","LI":"玉皇里","LIN":"1鄰","STREET":"北華街","SECT":" ","MAREA":" ","LANE":" ","ALLEY":" ","HOUSE_NO":"１１０號之２","E_COORD97":168683.76999999999,"N_COORD97":2544640.4300000002,"ADDRESS":"北華街１１０號之２","OBJECTID":515737},"geometry":{"x":168683.76999999955,"y":2544640.4299999997}},{"attributes":{"ID":515765,"DIS_CODE":0,"TOWNNAME":"北區","LI":"玉皇里","LIN":"1鄰","STREET":"北華街","SECT":" ","MAREA":" ","LANE":" ","ALLEY":" ","HOUSE_NO":"１１０號之３","E_COORD97":168680.34,"N_COORD97":2544639.29,"ADDRESS":"北華街１１０號之３","OBJECTID":515738},"geometry":{"x":168680.34000000171,"y":2544639.290000001}},{"attributes":{"ID":515766,"DIS_CODE":0,"TOWNNAME":"北區","LI":"玉皇里","LIN":"1鄰","STREET":"北華街","SECT":" ","MAREA":" ","LANE":" ","ALLEY":" ","HOUSE_NO":"１１０號之４","E_COORD97":168676.85999999999,"N_COORD97":2544638.04,"ADDRESS":"北華街１１０號之４","OBJECTID":515739},"geometry":{"x":168676.86000000034,"y":2544638.040000001}},{"attributes":{"ID":515767,"DIS_CODE":0,"TOWNNAME":"北區","LI":"玉皇里","LIN":"1鄰","STREET":"北華街","SECT":" ","MAREA":" ","LANE":" ","ALLEY":" ","HOUSE_NO":"１１０號之５","E_COORD97":168673.67999999999,"N_COORD97":2544636.6299999999,"ADDRESS":"北華街１１０號之５","OBJECTID":515740},"geometry":{"x":168673.68000000063,"y":2544636.6300000008}},{"attributes":{"ID":515768,"DIS_CODE":0,"TOWNNAME":"北區","LI":"玉皇里","LIN":"1鄰","STREET":"北華街","SECT":" ","MAREA":" ","LANE":" ","ALLEY":" ","HOUSE_NO":"１１０號之６","E_COORD97":168669.31,"N_COORD97":2544635.4500000002,"ADDRESS":"北華街１１０號之６","OBJECTID":515741},"geometry":{"x":168669.31000000052,"y":2544635.4500000011}},{"attributes":{"ID":515769,"DIS_CODE":0,"TOWNNAME":"北區","LI":"玉皇里","LIN":"1鄰","STREET":"北華街","SECT":" ","MAREA":" ","LANE":" ","ALLEY":" ","HOUSE_NO":"９６號","E_COORD97":168709.32999999999,"N_COORD97":2544648.0600000001,"ADDRESS":"北華街９６號","OBJECTID":515742},"geometry":{"x":168709.33000000007,"y":2544648.0599999987}},{"attributes":{"ID":515770,"DIS_CODE":0,"TOWNNAME":"北區","LI":"成功里","LIN":"1鄰","STREET":"北安路","SECT":"一段","MAREA":" ","LANE":" ","ALLEY":" ","HOUSE_NO":"９２號","E_COORD97":169072.78,"N_COORD97":2546349.9399999999,"ADDRESS":"北安路一段９２號","OBJECTID":515743},"geometry":{"x":169072.78000000212,"y":2546349.9400000032}},{"attributes":{"ID":515771,"DIS_CODE":0,"TOWNNAME":"北區","LI":"成功里","LIN":"1鄰","STREET":"西門路","SECT":"四段","MAREA":" ","LANE":" ","ALLEY":" ","HOUSE_NO":"３７１號","E_COORD97":169089.64000000001,"N_COORD97":2546334.54,"ADDRESS":"西門路四段３７１號","OBJECTID":515744},"geometry":{"x":169089.63999999966,"y":2546334.5399999991}},{"attributes":{"ID":515772,"DIS_CODE":0,"TOWNNAME":"北區","LI":"成功里","LIN":"1鄰","STREET":"西門路","SECT":"四段","MAREA":" ","LANE":" ","ALLEY":" ","HOUSE_NO":"３７３號","E_COORD97":169093.01000000001,"N_COORD97":2546339.8300000001,"ADDRESS":"西門路四段３７３號","OBJECTID":515745},"geometry":{"x":169093.01000000071,"y":2546339.8300000001}},{"attributes":{"ID":515773,"DIS_CODE":0,"TOWNNAME":"北區","LI":"成功里","LIN":"1鄰","STREET":"西門路","SECT":"四段","MAREA":" ","LANE":" ","ALLEY":" ","HOUSE_NO":"３７５號","E_COORD97":169095.89999999999,"N_COORD97":2546343.2000000002,"ADDRESS":"西門路四段３７５號","OBJECTID":515746},"geometry":{"x":169095.90000000224,"y":2546343.1999999993}},{"attributes":{"ID":515774,"DIS_CODE":0,"TOWNNAME":"北區","LI":"成功里","LIN":"1鄰","STREET":"西門路","SECT":"四段","MAREA":" ","LANE":" ","ALLEY":" ","HOUSE_NO":"３７７號","E_COORD97":169098.31,"N_COORD97":2546346.5699999998,"ADDRESS":"西門路四段３７７號","OBJECTID":515747},"geometry":{"x":169098.30999999959,"y":2546346.570000004}},{"attributes":{"ID":515775,"DIS_CODE":0,"TOWNNAME":"北區","LI":"成功里","LIN":"1鄰","STREET":"西門路","SECT":"四段","MAREA":" ","LANE":" ","ALLEY":" ","HOUSE_NO":"３７９號","E_COORD97":169100.23999999999,"N_COORD97":2546349.9399999999,"ADDRESS":"西門路四段３７９號","OBJECTID":515748},"geometry":{"x":169100.24000000209,"y":2546349.9400000032}},{"attributes":{"ID":515776,"DIS_CODE":0,"TOWNNAME":"北區","LI":"成功里","LIN":"1鄰","STREET":"西門路","SECT":"四段","MAREA":" ","LANE":" ","ALLEY":" ","HOUSE_NO":"３８１號","E_COORD97":169104.09,"N_COORD97":2546353.79,"ADDRESS":"西門路四段３８１號","OBJECTID":515749},"geometry":{"x":169104.08999999892,"y":2546353.7900000028}},{"attributes":{"ID":515777,"DIS_CODE":0,"TOWNNAME":"北區","LI":"成功里","LIN":"1鄰","STREET":"西門路","SECT":"四段","MAREA":" ","LANE":" ","ALLEY":" ","HOUSE_NO":"３８３號","E_COORD97":169107.94,"N_COORD97":2546356.1899999999,"ADDRESS":"西門路四段３８３號","OBJECTID":515750},"geometry":{"x":169107.94000000134,"y":2546356.1900000013}},{"attributes":{"ID":515778,"DIS_CODE":0,"TOWNNAME":"北區","LI":"成功里","LIN":"1鄰","STREET":"西門路","SECT":"四段","MAREA":" ","LANE":" ","ALLEY":" ","HOUSE_NO":"３８５號","E_COORD97":169111.31,"N_COORD97":2546358.6000000001,"ADDRESS":"西門路四段３８５號","OBJECTID":515751},"geometry":{"x":169111.31000000052,"y":2546358.5999999996}},{"attributes":{"ID":515779,"DIS_CODE":0,"TOWNNAME":"北區","LI":"成功里","LIN":"1鄰","STREET":"西門路","SECT":"四段","MAREA":" ","LANE":" ","ALLEY":" ","HOUSE_NO":"３８７號","E_COORD97":169114.69,"N_COORD97":2546361.48,"ADDRESS":"西門路四段３８７號","OBJECTID":515752},"geometry":{"x":169114.69000000134,"y":2546361.4800000023}},{"attributes":{"ID":515780,"DIS_CODE":0,"TOWNNAME":"北區","LI":"成功里","LIN":"1鄰","STREET":"西門路","SECT":"四段","MAREA":" ","LANE":" ","ALLEY":" ","HOUSE_NO":"３８９號","E_COORD97":169118.06,"N_COORD97":2546365.3300000001,"ADDRESS":"西門路四段３８９號","OBJECTID":515753},"geometry":{"x":169118.06000000052,"y":2546365.3300000019}},{"attributes":{"ID":515781,"DIS_CODE":0,"TOWNNAME":"北區","LI":"成功里","LIN":"1鄰","STREET":"西門路","SECT":"四段","MAREA":" ","LANE":" ","ALLEY":" ","HOUSE_NO":"３９１號","E_COORD97":169120.85000000001,"N_COORD97":2546368.3799999999,"ADDRESS":"西門路四段３９１號","OBJECTID":515754},"geometry":{"x":169120.85000000149,"y":2546368.3800000008}},{"attributes":{"ID":515782,"DIS_CODE":0,"TOWNNAME":"北區","LI":"成功里","LIN":"1鄰","STREET":"西門路","SECT":"四段","MAREA":" ","LANE":" ","ALLEY":" ","HOUSE_NO":"３９３號","E_COORD97":169123.95000000001,"N_COORD97":2546371.5699999998,"ADDRESS":"西門路四段３９３號","OBJECTID":515755},"geometry":{"x":169123.95000000019,"y":2546371.5700000022}},{"attributes":{"ID":515783,"DIS_CODE":0,"TOWNNAME":"北區","LI":"成功里","LIN":"1鄰","STREET":"西門路","SECT":"四段","MAREA":" ","LANE":" ","ALLEY":" ","HOUSE_NO":"３９５號","E_COORD97":169125.76000000001,"N_COORD97":2546375.9199999999,"ADDRESS":"西門路四段３９５號","OBJECTID":515756},"geometry":{"x":169125.76000000071,"y":2546375.9200000018}},{"attributes":{"ID":515784,"DIS_CODE":0,"TOWNNAME":"北區","LI":"成功里","LIN":"1鄰","STREET":"西門路","SECT":"四段","MAREA":" ","LANE":" ","ALLEY":" ","HOUSE_NO":"３９７號","E_COORD97":169127.69,"N_COORD97":2546380.73,"ADDRESS":"西門路四段３９７號","OBJECTID":515757},"geometry":{"x":169127.69000000041,"y":2546380.7300000023}},{"attributes":{"ID":515785,"DIS_CODE":0,"TOWNNAME":"北區","LI":"成功里","LIN":"1鄰","STREET":"西門路","SECT":"四段","MAREA":" ","LANE":" ","ALLEY":" ","HOUSE_NO":"３９９號","E_COORD97":169130.10000000001,"N_COORD97":2546383.6099999999,"ADDRESS":"西門路四段３９９號","OBJECTID":515758},"geometry":{"x":169130.10000000056,"y":2546383.6100000013}},{"attributes":{"ID":515786,"DIS_CODE":0,"TOWNNAME":"北區","LI":"成功里","LIN":"1鄰","STREET":"西門路","SECT":"四段","MAREA":" ","LANE":" ","ALLEY":" ","HOUSE_NO":"４０１號","E_COORD97":169132.51000000001,"N_COORD97":2546388.4199999999,"ADDRESS":"西門路四段４０１號","OBJECTID":515759},"geometry":{"x":169132.51000000071,"y":2546388.4200000018}},{"attributes":{"ID":515787,"DIS_CODE":0,"TOWNNAME":"北區","LI":"成功里","LIN":"1鄰","STREET":"西門路","SECT":"四段","MAREA":" ","LANE":" ","ALLEY":" ","HOUSE_NO":"４０３號","E_COORD97":169134.92000000001,"N_COORD97":2546391.3100000001,"ADDRESS":"西門路四段４０３號","OBJECTID":515760},"geometry":{"x":169134.92000000086,"y":2546391.3100000005}},{"attributes":{"ID":515788,"DIS_CODE":0,"TOWNNAME":"北區","LI":"成功里","LIN":"1鄰","STREET":"西門路","SECT":"四段","MAREA":" ","LANE":" ","ALLEY":" ","HOUSE_NO":"４０５號","E_COORD97":169139.73000000001,"N_COORD97":2546394.6800000002,"ADDRESS":"西門路四段４０５號","OBJECTID":515761},"geometry":{"x":169139.73000000138,"y":2546394.6799999997}},{"attributes":{"ID":515789,"DIS_CODE":0,"TOWNNAME":"北區","LI":"成功里","LIN":"1鄰","STREET":"西門路","SECT":"四段","MAREA":" ","LANE":" ","ALLEY":" ","HOUSE_NO":"４０７號","E_COORD97":169141.66,"N_COORD97":2546398.04,"ADDRESS":"西門路四段４０７號","OBJECTID":515762},"geometry":{"x":169141.66000000108,"y":2546398.0399999991}},{"attributes":{"ID":515790,"DIS_CODE":0,"TOWNNAME":"北區","LI":"成功里","LIN":"1鄰","STREET":"西門路","SECT":"四段","MAREA":" ","LANE":" ","ALLEY":" ","HOUSE_NO":"４０９號","E_COORD97":169145.03,"N_COORD97":2546401.4100000001,"ADDRESS":"西門路四段４０９號","OBJECTID":515763},"geometry":{"x":169145.03000000026,"y":2546401.4099999983}},{"attributes":{"ID":515791,"DIS_CODE":0,"TOWNNAME":"北區","LI":"成功里","LIN":"1鄰","STREET":"西門路","SECT":"四段","MAREA":" ","LANE":" ","ALLEY":" ","HOUSE_NO":"４１１號","E_COORD97":169146.95999999999,"N_COORD97":2546405.7400000002,"ADDRESS":"西門路四段４１１號","OBJECTID":515764},"geometry":{"x":169146.95999999996,"y":2546405.7400000002}},{"attributes":{"ID":515792,"DIS_CODE":0,"TOWNNAME":"北區","LI":"成功里","LIN":"1鄰","STREET":"西門路","SECT":"四段","MAREA":" ","LANE":" ","ALLEY":" ","HOUSE_NO":"４１３號","E_COORD97":169150.32999999999,"N_COORD97":2546408.1499999999,"ADDRESS":"西門路四段４１３號","OBJECTID":515765},"geometry":{"x":169150.33000000194,"y":2546408.1500000022}},{"attributes":{"ID":515793,"DIS_CODE":0,"TOWNNAME":"北區","LI":"成功里","LIN":"1鄰","STREET":"西門路","SECT":"四段","MAREA":" ","LANE":" ","ALLEY":" ","HOUSE_NO":"４１５號","E_COORD97":169153.22,"N_COORD97":2546412.48,"ADDRESS":"西門路四段４１５號","OBJECTID":515766},"geometry":{"x":169153.21999999974,"y":2546412.4800000023}},{"attributes":{"ID":515794,"DIS_CODE":0,"TOWNNAME":"北區","LI":"成功里","LIN":"1鄰","STREET":"西門路","SECT":"四段","MAREA":" ","LANE":" ","ALLEY":" ","HOUSE_NO":"４１７號","E_COORD97":169155.63,"N_COORD97":2546415.8399999999,"ADDRESS":"西門路四段４１７號","OBJECTID":515767},"geometry":{"x":169155.63000000082,"y":2546415.8400000017}},{"attributes":{"ID":515795,"DIS_CODE":0,"TOWNNAME":"北區","LI":"成功里","LIN":"1鄰","STREET":"西門路","SECT":"四段","MAREA":" ","LANE":" ","ALLEY":" ","HOUSE_NO":"４１９號","E_COORD97":169158.04000000001,"N_COORD97":2546419.6899999999,"ADDRESS":"西門路四段４１９號","OBJECTID":515768},"geometry":{"x":169158.04000000097,"y":2546419.6900000013}},{"attributes":{"ID":515796,"DIS_CODE":0,"TOWNNAME":"北區","LI":"成功里","LIN":"1鄰","STREET":"西門路","SECT":"四段","MAREA":" ","LANE":" ","ALLEY":" ","HOUSE_NO":"４２１號","E_COORD97":169161.41,"N_COORD97":2546423.0600000001,"ADDRESS":"西門路四段４２１號","OBJECTID":515769},"geometry":{"x":169161.41000000015,"y":2546423.0600000024}},{"attributes":{"ID":515797,"DIS_CODE":0,"TOWNNAME":"北區","LI":"成功里","LIN":"1鄰","STREET":"西門路","SECT":"四段","MAREA":" ","LANE":" ","ALLEY":" ","HOUSE_NO":"４２３號","E_COORD97":169163.34,"N_COORD97":2546425.9500000002,"ADDRESS":"西門路四段４２３號","OBJECTID":515770},"geometry":{"x":169163.33999999985,"y":2546425.9499999993}},{"attributes":{"ID":515798,"DIS_CODE":0,"TOWNNAME":"北區","LI":"成功里","LIN":"1鄰","STREET":"西門路","SECT":"四段","MAREA":" ","LANE":" ","ALLEY":" ","HOUSE_NO":"４２５號","E_COORD97":169167.67000000001,"N_COORD97":2546428.8300000001,"ADDRESS":"西門路四段４２５號","OBJECTID":515771},"geometry":{"x":169167.66999999993,"y":2546428.8300000001}},{"attributes":{"ID":515799,"DIS_CODE":0,"TOWNNAME":"北區","LI":"成功里","LIN":"1鄰","STREET":"西門路","SECT":"四段","MAREA":" ","LANE":" ","ALLEY":" ","HOUSE_NO":"４２７號","E_COORD97":169170.07999999999,"N_COORD97":2546432.6800000002,"ADDRESS":"西門路四段４２７號","OBJECTID":515772},"geometry":{"x":169170.08000000007,"y":2546432.6799999997}},{"attributes":{"ID":515800,"DIS_CODE":0,"TOWNNAME":"鹽水區","LI":"三生里","LIN":"1鄰","STREET":"三福路","SECT":" ","MAREA":" ","LANE":" ","ALLEY":" ","HOUSE_NO":"１０號","E_COORD97":175084.79000000001,"N_COORD97":2580015.6200000001,"ADDRESS":"三福路１０號","OBJECTID":515773},"geometry":{"x":175084.79000000004,"y":2580015.620000001}},{"attributes":{"ID":515801,"DIS_CODE":0,"TOWNNAME":"鹽水區","LI":"三生里","LIN":"1鄰","STREET":"三福路","SECT":" ","MAREA":" ","LANE":" ","ALLEY":" ","HOUSE_NO":"１２號","E_COORD97":175079.38,"N_COORD97":2580031.5600000001,"ADDRESS":"三福路１２號","OBJECTID":515774},"geometry":{"x":175079.37999999896,"y":2580031.5600000024}},{"attributes":{"ID":515802,"DIS_CODE":0,"TOWNNAME":"鹽水區","LI":"三生里","LIN":"1鄰","STREET":"三福路","SECT":" ","MAREA":" ","LANE":" ","ALLEY":" ","HOUSE_NO":"１６號","E_COORD97":175080.79999999999,"N_COORD97":2580016.0299999998,"ADDRESS":"三福路１６號","OBJECTID":515775},"geometry":{"x":175080.80000000075,"y":2580016.0300000012}},{"attributes":{"ID":515803,"DIS_CODE":0,"TOWNNAME":"鹽水區","LI":"三生里","LIN":"1鄰","STREET":"三福路","SECT":" ","MAREA":" ","LANE":" ","ALLEY":" ","HOUSE_NO":"１８號","E_COORD97":175079.48999999999,"N_COORD97":2580035.8199999998,"ADDRESS":"三福路１８號","OBJECTID":515776},"geometry":{"x":175079.49000000115,"y":2580035.8200000022}},{"attributes":{"ID":515804,"DIS_CODE":0,"TOWNNAME":"鹽水區","LI":"三生里","LIN":"1鄰","STREET":"三福路","SECT":" ","MAREA":" ","LANE":" ","ALLEY":" ","HOUSE_NO":"２０號","E_COORD97":175076.79999999999,"N_COORD97":2580016.4300000002,"ADDRESS":"三福路２０號","OBJECTID":515777},"geometry":{"x":175076.80000000075,"y":2580016.4299999978}},{"attributes":{"ID":515805,"DIS_CODE":0,"TOWNNAME":"鹽水區","LI":"三生里","LIN":"1鄰","STREET":"三福路","SECT":" ","MAREA":" ","LANE":" ","ALLEY":" ","HOUSE_NO":"２２號之１","E_COORD97":175068.81,"N_COORD97":2580017.23,"ADDRESS":"三福路２２號之１","OBJECTID":515778},"geometry":{"x":175068.80999999959,"y":2580017.2300000004}},{"attributes":{"ID":515806,"DIS_CODE":0,"TOWNNAME":"鹽水區","LI":"三生里","LIN":"1鄰","STREET":"三福路","SECT":" ","MAREA":" ","LANE":" ","ALLEY":" ","HOUSE_NO":"２２號","E_COORD97":175072.79999999999,"N_COORD97":2580016.8300000001,"ADDRESS":"三福路２２號","OBJECTID":515779},"geometry":{"x":175072.79999999981,"y":2580016.8300000001}},{"attributes":{"ID":515807,"DIS_CODE":0,"TOWNNAME":"鹽水區","LI":"武廟里","LIN":"1鄰","STREET":"三福路","SECT":" ","MAREA":" ","LANE":" ","ALLEY":" ","HOUSE_NO":"２６號之１","E_COORD97":175056.28,"N_COORD97":2580022.8300000001,"ADDRESS":"三福路２６號之１","OBJECTID":515780},"geometry":{"x":175056.28000000026,"y":2580022.8300000001}},{"attributes":{"ID":515808,"DIS_CODE":0,"TOWNNAME":"鹽水區","LI":"武廟里","LIN":"1鄰","STREET":"三福路","SECT":" ","MAREA":" ","LANE":" ","ALLEY":" ","HOUSE_NO":"２８號","E_COORD97":175052.29000000001,"N_COORD97":2580022.7799999998,"ADDRESS":"三福路２８號","OBJECTID":515781},"geometry":{"x":175052.29000000097,"y":2580022.7799999993}},{"attributes":{"ID":515809,"DIS_CODE":0,"TOWNNAME":"鹽水區","LI":"三生里","LIN":"1鄰","STREET":"三福路","SECT":" ","MAREA":" ","LANE":" ","ALLEY":" ","HOUSE_NO":"２號","E_COORD97":175100.76999999999,"N_COORD97":2580014.04,"ADDRESS":"三福路２號","OBJECTID":515782},"geometry":{"x":175100.77000000048,"y":2580014.0399999991}},{"attributes":{"ID":515810,"DIS_CODE":0,"TOWNNAME":"鹽水區","LI":"武廟里","LIN":"1鄰","STREET":"三福路","SECT":" ","MAREA":" ","LANE":" ","ALLEY":" ","HOUSE_NO":"３０號","E_COORD97":175047.53,"N_COORD97":2580022.6800000002,"ADDRESS":"三福路３０號","OBJECTID":515783},"geometry":{"x":175047.53000000119,"y":2580022.6800000016}},{"attributes":{"ID":515811,"DIS_CODE":0,"TOWNNAME":"鹽水區","LI":"武廟里","LIN":"1鄰","STREET":"三福路","SECT":" ","MAREA":" ","LANE":" ","ALLEY":" ","HOUSE_NO":"３２號","E_COORD97":175042.76000000001,"N_COORD97":2580022.5899999999,"ADDRESS":"三福路３２號","OBJECTID":515784},"geometry":{"x":175042.75999999978,"y":2580022.5900000036}},{"attributes":{"ID":515812,"DIS_CODE":0,"TOWNNAME":"鹽水區","LI":"武廟里","LIN":"1鄰","STREET":"三福路","SECT":" ","MAREA":" ","LANE":" ","ALLEY":" ","HOUSE_NO":"３６號","E_COORD97":175033.22,"N_COORD97":2580022.4100000001,"ADDRESS":"三福路３６號","OBJECTID":515785},"geometry":{"x":175033.22000000067,"y":2580022.4100000001}},{"attributes":{"ID":515813,"DIS_CODE":0,"TOWNNAME":"鹽水區","LI":"武廟里","LIN":"1鄰","STREET":"三福路","SECT":" ","MAREA":" ","LANE":" ","ALLEY":" ","HOUSE_NO":"４２號","E_COORD97":175019.53,"N_COORD97":2580022.2599999998,"ADDRESS":"三福路４２號","OBJECTID":515786},"geometry":{"x":175019.53000000212,"y":2580022.2600000016}},{"attributes":{"ID":515814,"DIS_CODE":0,"TOWNNAME":"鹽水區","LI":"武廟里","LIN":"1鄰","STREET":"三福路","SECT":" ","MAREA":" ","LANE":" ","ALLEY":" ","HOUSE_NO":"４４號","E_COORD97":175014.73999999999,"N_COORD97":2580022.7400000002,"ADDRESS":"三福路４４號","OBJECTID":515787},"geometry":{"x":175014.74000000209,"y":2580022.7400000021}},{"attributes":{"ID":515815,"DIS_CODE":0,"TOWNNAME":"鹽水區","LI":"中境里","LIN":"1鄰","STREET":"三福路","SECT":" ","MAREA":" ","LANE":" ","ALLEY":" ","HOUSE_NO":"４７號","E_COORD97":174955,"N_COORD97":2579998.9500000002,"ADDRESS":"三福路４７號","OBJECTID":515788},"geometry":{"x":174954.99999999907,"y":2579998.9499999974}},{"attributes":{"ID":515816,"DIS_CODE":0,"TOWNNAME":"鹽水區","LI":"中境里","LIN":"1鄰","STREET":"三福路","SECT":" ","MAREA":" ","LANE":" ","ALLEY":" ","HOUSE_NO":"４９號","E_COORD97":174950.28,"N_COORD97":2579999.4199999999,"ADDRESS":"三福路４９號","OBJECTID":515789},"geometry":{"x":174950.28000000119,"y":2579999.4199999999}},{"attributes":{"ID":515817,"DIS_CODE":0,"TOWNNAME":"鹽水區","LI":"三生里","LIN":"1鄰","STREET":"三福路","SECT":" ","MAREA":" ","LANE":" ","ALLEY":" ","HOUSE_NO":"４號","E_COORD97":175096.78,"N_COORD97":2580014.4399999999,"ADDRESS":"三福路４號","OBJECTID":515790},"geometry":{"x":175096.78000000026,"y":2580014.4400000013}},{"attributes":{"ID":515818,"DIS_CODE":0,"TOWNNAME":"鹽水區","LI":"中境里","LIN":"1鄰","STREET":"三福路","SECT":" ","MAREA":" ","LANE":" ","ALLEY":" ","HOUSE_NO":"５１號","E_COORD97":174945.56,"N_COORD97":2579999.8799999999,"ADDRESS":"三福路５１號","OBJECTID":515791},"geometry":{"x":174945.55999999959,"y":2579999.8800000008}},{"attributes":{"ID":515819,"DIS_CODE":0,"TOWNNAME":"鹽水區","LI":"中境里","LIN":"1鄰","STREET":"三福路","SECT":" ","MAREA":" ","LANE":" ","ALLEY":" ","HOUSE_NO":"５５號","E_COORD97":174936.54999999999,"N_COORD97":2580001.2799999998,"ADDRESS":"三福路５５號","OBJECTID":515792},"geometry":{"x":174936.55000000075,"y":2580001.2800000012}},{"attributes":{"ID":515820,"DIS_CODE":0,"TOWNNAME":"鹽水區","LI":"中境里","LIN":"1鄰","STREET":"三福路","SECT":" ","MAREA":" ","LANE":" ","ALLEY":" ","HOUSE_NO":"５７號","E_COORD97":174920.91,"N_COORD97":2580002.2599999998,"ADDRESS":"三福路５７號","OBJECTID":515793},"geometry":{"x":174920.91000000108,"y":2580002.2600000016}},{"attributes":{"ID":515821,"DIS_CODE":0,"TOWNNAME":"鹽水區","LI":"三生里","LIN":"1鄰","STREET":"三福路","SECT":" ","MAREA":" ","LANE":" ","ALLEY":" ","HOUSE_NO":"６號","E_COORD97":175092.78,"N_COORD97":2580014.8399999999,"ADDRESS":"三福路６號","OBJECTID":515794},"geometry":{"x":175092.78000000119,"y":2580014.8400000017}},{"attributes":{"ID":515822,"DIS_CODE":0,"TOWNNAME":"鹽水區","LI":"三生里","LIN":"1鄰","STREET":"三福路","SECT":" ","MAREA":" ","LANE":" ","ALLEY":" ","HOUSE_NO":"８號","E_COORD97":175088.79000000001,"N_COORD97":2580015.2400000002,"ADDRESS":"三福路８號","OBJECTID":515795},"geometry":{"x":175088.7900000019,"y":2580015.2400000039}},{"attributes":{"ID":515823,"DIS_CODE":0,"TOWNNAME":"鹽水區","LI":"水正里","LIN":"1鄰","STREET":"中山路","SECT":" ","MAREA":" ","LANE":" ","ALLEY":" ","HOUSE_NO":"１之３２號","E_COORD97":175330.79000000001,"N_COORD97":2579771.4300000002,"ADDRESS":"中山路１之３２號","OBJECTID":515796},"geometry":{"x":175330.79000000004,"y":2579771.4299999997}},{"attributes":{"ID":515824,"DIS_CODE":0,"TOWNNAME":"鹽水區","LI":"水正里","LIN":"1鄰","STREET":"中山路","SECT":" ","MAREA":" ","LANE":" ","ALLEY":" ","HOUSE_NO":"１之３５號","E_COORD97":175338.98000000001,"N_COORD97":2579768.3399999999,"ADDRESS":"中山路１之３５號","OBJECTID":515797},"geometry":{"x":175338.98000000138,"y":2579768.3399999999}},{"attributes":{"ID":515825,"DIS_CODE":0,"TOWNNAME":"鹽水區","LI":"水正里","LIN":"1鄰","STREET":"中山路","SECT":" ","MAREA":" ","LANE":" ","ALLEY":" ","HOUSE_NO":"１號之３６","E_COORD97":175345.70000000001,"N_COORD97":2579763.3799999999,"ADDRESS":"中山路１號之３６","OBJECTID":515798},"geometry":{"x":175345.70000000112,"y":2579763.3800000008}},{"attributes":{"ID":515826,"DIS_CODE":0,"TOWNNAME":"鹽水區","LI":"水正里","LIN":"1鄰","STREET":"中山路","SECT":" ","MAREA":" ","LANE":" ","ALLEY":" ","HOUSE_NO":"１號之３７","E_COORD97":175348.23000000001,"N_COORD97":2579761.0899999999,"ADDRESS":"中山路１號之３７","OBJECTID":515799},"geometry":{"x":175348.23000000045,"y":2579761.0899999999}},{"attributes":{"ID":515827,"DIS_CODE":0,"TOWNNAME":"鹽水區","LI":"水正里","LIN":"1鄰","STREET":"中山路","SECT":" ","MAREA":" ","LANE":" ","ALLEY":" ","HOUSE_NO":"１號之３８","E_COORD97":175352.14000000001,"N_COORD97":2579758.7799999998,"ADDRESS":"中山路１號之３８","OBJECTID":515800},"geometry":{"x":175352.14000000153,"y":2579758.7799999993}}]}