{"displayFieldName":"TOWNNAME","fieldAliases":{"ID":"ID","DIS_CODE":"DIS_CODE","TOWNNAME":"TOWNNAME","LI":"LI","LIN":"LIN","STREET":"STREET","SECT":"SECT","MAREA":"MAREA","LANE":"LANE","ALLEY":"ALLEY","HOUSE_NO":"HOUSE_NO","E_COORD97":"E_COORD97","N_COORD97":"N_COORD97","ADDRESS":"ADDRESS","OBJECTID":"OBJECTID"},"geometryType":"esriGeometryPoint","spatialReference":{"wkid":102443,"latestWkid":3826},"fields":[{"name":"ID","type":"esriFieldTypeDouble","alias":"ID"},{"name":"DIS_CODE","type":"esriFieldTypeInteger","alias":"DIS_CODE"},{"name":"TOWNNAME","type":"esriFieldTypeString","alias":"TOWNNAME","length":8},{"name":"LI","type":"esriFieldTypeString","alias":"LI","length":8},{"name":"LIN","type":"esriFieldTypeString","alias":"LIN","length":12},{"name":"STREET","type":"esriFieldTypeString","alias":"STREET","length":20},{"name":"SECT","type":"esriFieldTypeString","alias":"SECT","length":8},{"name":"MAREA","type":"esriFieldTypeString","alias":"MAREA","length":12},{"name":"LANE","type":"esriFieldTypeString","alias":"LANE","length":10},{"name":"ALLEY","type":"esriFieldTypeString","alias":"ALLEY","length":10},{"name":"HOUSE_NO","type":"esriFieldTypeString","alias":"HOUSE_NO","length":20},{"name":"E_COORD97","type":"esriFieldTypeDouble","alias":"E_COORD97"},{"name":"N_COORD97","type":"esriFieldTypeDouble","alias":"N_COORD97"},{"name":"ADDRESS","type":"esriFieldTypeString","alias":"ADDRESS","length":50},{"name":"OBJECTID","type":"esriFieldTypeOID","alias":"OBJECTID"}],"features":[{"attributes":{"ID":466026,"DIS_CODE":0,"TOWNNAME":"楠西區","LI":"東勢里","LIN":"5鄰","STREET":"東勢路","SECT":" ","MAREA":" ","LANE":" ","ALLEY":" ","HOUSE_NO":"１５１號","E_COORD97":197310.37,"N_COORD97":2564019.29,"ADDRESS":"東勢路１５１號","OBJECTID":466001},"geometry":{"x":197310.37000000011,"y":2564019.290000001}},{"attributes":{"ID":466027,"DIS_CODE":0,"TOWNNAME":"楠西區","LI":"東勢里","LIN":"5鄰","STREET":"東勢路","SECT":" ","MAREA":" ","LANE":" ","ALLEY":" ","HOUSE_NO":"１４７號","E_COORD97":197317.76999999999,"N_COORD97":2564019.29,"ADDRESS":"東勢路１４７號","OBJECTID":466002},"geometry":{"x":197317.77000000048,"y":2564019.290000001}},{"attributes":{"ID":466028,"DIS_CODE":0,"TOWNNAME":"楠西區","LI":"東勢里","LIN":"5鄰","STREET":"東勢路","SECT":" ","MAREA":" ","LANE":" ","ALLEY":" ","HOUSE_NO":"１１７號","E_COORD97":197381.87,"N_COORD97":2564019.29,"ADDRESS":"東勢路１１７號","OBJECTID":466003},"geometry":{"x":197381.87000000104,"y":2564019.290000001}},{"attributes":{"ID":466029,"DIS_CODE":0,"TOWNNAME":"楠西區","LI":"東勢里","LIN":"5鄰","STREET":"東勢路","SECT":" ","MAREA":" ","LANE":" ","ALLEY":" ","HOUSE_NO":"１５５號","E_COORD97":197298.76999999999,"N_COORD97":2564019.29,"ADDRESS":"東勢路１５５號","OBJECTID":466004},"geometry":{"x":197298.77000000142,"y":2564019.290000001}},{"attributes":{"ID":466030,"DIS_CODE":0,"TOWNNAME":"楠西區","LI":"東勢里","LIN":"5鄰","STREET":"東勢路","SECT":" ","MAREA":" ","LANE":" ","ALLEY":" ","HOUSE_NO":"１３５號","E_COORD97":197338.87,"N_COORD97":2564021.29,"ADDRESS":"東勢路１３５號","OBJECTID":466005},"geometry":{"x":197338.87000000011,"y":2564021.2900000028}},{"attributes":{"ID":466031,"DIS_CODE":0,"TOWNNAME":"楠西區","LI":"楠西里","LIN":"5鄰","STREET":"中興路","SECT":" ","MAREA":" ","LANE":" ","ALLEY":" ","HOUSE_NO":"２０５號之１","E_COORD97":197614.10000000001,"N_COORD97":2564787.2999999998,"ADDRESS":"中興路２０５號之１","OBJECTID":466006},"geometry":{"x":197614.10000000056,"y":2564787.3000000026}},{"attributes":{"ID":466032,"DIS_CODE":0,"TOWNNAME":"楠西區","LI":"楠西里","LIN":"5鄰","STREET":"水庫路","SECT":" ","MAREA":" ","LANE":" ","ALLEY":" ","HOUSE_NO":"１號","E_COORD97":197972.17000000001,"N_COORD97":2565594.25,"ADDRESS":"水庫路１號","OBJECTID":466007},"geometry":{"x":197972.16999999993,"y":2565594.25}},{"attributes":{"ID":466033,"DIS_CODE":0,"TOWNNAME":"楠西區","LI":"楠西里","LIN":"5鄰","STREET":"水庫路","SECT":" ","MAREA":" ","LANE":" ","ALLEY":" ","HOUSE_NO":"３號","E_COORD97":197759.57000000001,"N_COORD97":2565035.25,"ADDRESS":"水庫路３號","OBJECTID":466008},"geometry":{"x":197759.5700000003,"y":2565035.25}},{"attributes":{"ID":466034,"DIS_CODE":0,"TOWNNAME":"楠西區","LI":"楠西里","LIN":"5鄰","STREET":"中興路","SECT":" ","MAREA":" ","LANE":" ","ALLEY":" ","HOUSE_NO":"９３號之１","E_COORD97":197242.25,"N_COORD97":2564450.2999999998,"ADDRESS":"中興路９３號之１","OBJECTID":466009},"geometry":{"x":197242.25000000093,"y":2564450.3000000045}},{"attributes":{"ID":466035,"DIS_CODE":0,"TOWNNAME":"楠西區","LI":"東勢里","LIN":"5鄰","STREET":"中正路","SECT":" ","MAREA":" ","LANE":" ","ALLEY":" ","HOUSE_NO":"１２３號","E_COORD97":197290.56,"N_COORD97":2563988.25,"ADDRESS":"中正路１２３號","OBJECTID":466010},"geometry":{"x":197290.56000000052,"y":2563988.2499999981}},{"attributes":{"ID":466036,"DIS_CODE":0,"TOWNNAME":"楠西區","LI":"東勢里","LIN":"5鄰","STREET":"中正路","SECT":" ","MAREA":" ","LANE":" ","ALLEY":" ","HOUSE_NO":"１１７號","E_COORD97":197288.56,"N_COORD97":2563996.25,"ADDRESS":"中正路１１７號","OBJECTID":466011},"geometry":{"x":197288.56000000052,"y":2563996.2500000019}},{"attributes":{"ID":466037,"DIS_CODE":0,"TOWNNAME":"楠西區","LI":"東勢里","LIN":"5鄰","STREET":"東勢路","SECT":" ","MAREA":" ","LANE":" ","ALLEY":" ","HOUSE_NO":"１２９號","E_COORD97":197349.47,"N_COORD97":2564022.29,"ADDRESS":"東勢路１２９號","OBJECTID":466012},"geometry":{"x":197349.46999999974,"y":2564022.290000001}},{"attributes":{"ID":466038,"DIS_CODE":0,"TOWNNAME":"楠西區","LI":"東勢里","LIN":"5鄰","STREET":"中正路","SECT":" ","MAREA":" ","LANE":" ","ALLEY":" ","HOUSE_NO":"１１５號","E_COORD97":197286.76000000001,"N_COORD97":2564005.25,"ADDRESS":"中正路１１５號","OBJECTID":466013},"geometry":{"x":197286.75999999978,"y":2564005.2499999981}},{"attributes":{"ID":466039,"DIS_CODE":0,"TOWNNAME":"楠西區","LI":"東勢里","LIN":"5鄰","STREET":"中正路","SECT":" ","MAREA":" ","LANE":" ","ALLEY":" ","HOUSE_NO":"１２５號","E_COORD97":197301.85999999999,"N_COORD97":2563930.25,"ADDRESS":"中正路１２５號","OBJECTID":466014},"geometry":{"x":197301.86000000034,"y":2563930.25}},{"attributes":{"ID":466040,"DIS_CODE":0,"TOWNNAME":"楠西區","LI":"東勢里","LIN":"5鄰","STREET":"中正路","SECT":" ","MAREA":" ","LANE":" ","ALLEY":" ","HOUSE_NO":"１２９號","E_COORD97":197306.85999999999,"N_COORD97":2563926.25,"ADDRESS":"中正路１２９號","OBJECTID":466015},"geometry":{"x":197306.86000000034,"y":2563926.25}},{"attributes":{"ID":466041,"DIS_CODE":0,"TOWNNAME":"楠西區","LI":"楠西里","LIN":"5鄰","STREET":"民族路","SECT":" ","MAREA":" ","LANE":" ","ALLEY":" ","HOUSE_NO":"２３６號","E_COORD97":197223.29000000001,"N_COORD97":2564428.29,"ADDRESS":"民族路２３６號","OBJECTID":466016},"geometry":{"x":197223.29000000097,"y":2564428.2900000028}},{"attributes":{"ID":466042,"DIS_CODE":0,"TOWNNAME":"楠西區","LI":"東勢里","LIN":"5鄰","STREET":"中正路","SECT":" ","MAREA":" ","LANE":" ","ALLEY":" ","HOUSE_NO":"１２１號","E_COORD97":197295.06,"N_COORD97":2563936.25,"ADDRESS":"中正路１２１號","OBJECTID":466017},"geometry":{"x":197295.05999999866,"y":2563936.25}},{"attributes":{"ID":466043,"DIS_CODE":0,"TOWNNAME":"楠西區","LI":"東勢里","LIN":"5鄰","STREET":"東勢路","SECT":" ","MAREA":" ","LANE":" ","ALLEY":" ","HOUSE_NO":"１４３號","E_COORD97":197324.47,"N_COORD97":2564020.29,"ADDRESS":"東勢路１４３號","OBJECTID":466018},"geometry":{"x":197324.46999999974,"y":2564020.2899999991}},{"attributes":{"ID":466044,"DIS_CODE":0,"TOWNNAME":"楠西區","LI":"東勢里","LIN":"5鄰","STREET":"中正路","SECT":" ","MAREA":" ","LANE":" ","ALLEY":" ","HOUSE_NO":"１１９號","E_COORD97":197293.06,"N_COORD97":2563939.25,"ADDRESS":"中正路１１９號","OBJECTID":466019},"geometry":{"x":197293.05999999959,"y":2563939.2500000019}},{"attributes":{"ID":466045,"DIS_CODE":0,"TOWNNAME":"楠西區","LI":"楠西里","LIN":"5鄰","STREET":"中興路","SECT":" ","MAREA":" ","LANE":" ","ALLEY":" ","HOUSE_NO":"１１１號之１","E_COORD97":197363.23999999999,"N_COORD97":2564686.8500000001,"ADDRESS":"中興路１１１號之１","OBJECTID":466020},"geometry":{"x":197363.24000000022,"y":2564686.8500000015}},{"attributes":{"ID":466046,"DIS_CODE":0,"TOWNNAME":"柳營區","LI":"士林里","LIN":"5鄰","STREET":"士賢街","SECT":" ","MAREA":" ","LANE":" ","ALLEY":" ","HOUSE_NO":"４５號","E_COORD97":179392.16,"N_COORD97":2575241.5099999998,"ADDRESS":"士賢街４５號","OBJECTID":466021},"geometry":{"x":179392.16000000201,"y":2575241.5099999998}},{"attributes":{"ID":466047,"DIS_CODE":0,"TOWNNAME":"柳營區","LI":"士林里","LIN":"5鄰","STREET":"士賢街","SECT":" ","MAREA":" ","LANE":" ","ALLEY":" ","HOUSE_NO":"４７號","E_COORD97":179387.67999999999,"N_COORD97":2575240.5499999998,"ADDRESS":"士賢街４７號","OBJECTID":466022},"geometry":{"x":179387.6799999997,"y":2575240.5500000026}},{"attributes":{"ID":466048,"DIS_CODE":0,"TOWNNAME":"柳營區","LI":"士林里","LIN":"5鄰","STREET":"士賢街","SECT":" ","MAREA":" ","LANE":" ","ALLEY":" ","HOUSE_NO":"４９號","E_COORD97":179383.20000000001,"N_COORD97":2575239.5800000001,"ADDRESS":"士賢街４９號","OBJECTID":466023},"geometry":{"x":179383.20000000019,"y":2575239.5800000019}},{"attributes":{"ID":466049,"DIS_CODE":0,"TOWNNAME":"柳營區","LI":"士林里","LIN":"5鄰","STREET":"士賢街","SECT":" ","MAREA":" ","LANE":" ","ALLEY":" ","HOUSE_NO":"５１號","E_COORD97":179378.70999999999,"N_COORD97":2575238.6099999999,"ADDRESS":"士賢街５１號","OBJECTID":466024},"geometry":{"x":179378.71000000089,"y":2575238.6100000013}},{"attributes":{"ID":466050,"DIS_CODE":0,"TOWNNAME":"柳營區","LI":"士林里","LIN":"5鄰","STREET":"士賢街","SECT":" ","MAREA":" ","LANE":" ","ALLEY":" ","HOUSE_NO":"６７號","E_COORD97":179340.78,"N_COORD97":2575239.7599999998,"ADDRESS":"士賢街６７號","OBJECTID":466025},"geometry":{"x":179340.78000000119,"y":2575239.7599999998}},{"attributes":{"ID":466051,"DIS_CODE":0,"TOWNNAME":"南區","LI":"大恩里","LIN":"5鄰","STREET":"大同路","SECT":"二段","MAREA":" ","LANE":" ","ALLEY":" ","HOUSE_NO":"７１４號","E_COORD97":169587.35999999999,"N_COORD97":2540817.25,"ADDRESS":"大同路二段７１４號","OBJECTID":466026},"geometry":{"x":169587.36000000034,"y":2540817.25}},{"attributes":{"ID":466052,"DIS_CODE":0,"TOWNNAME":"南區","LI":"大恩里","LIN":"5鄰","STREET":"大同路","SECT":"二段","MAREA":" ","LANE":" ","ALLEY":" ","HOUSE_NO":"７１６號","E_COORD97":169586.70999999999,"N_COORD97":2540812.5299999998,"ADDRESS":"大同路二段７１６號","OBJECTID":466027},"geometry":{"x":169586.71000000183,"y":2540812.5300000031}},{"attributes":{"ID":466053,"DIS_CODE":0,"TOWNNAME":"南區","LI":"大恩里","LIN":"5鄰","STREET":"大同路","SECT":"二段","MAREA":" ","LANE":" ","ALLEY":" ","HOUSE_NO":"７１８號","E_COORD97":169587.79000000001,"N_COORD97":2540807.3799999999,"ADDRESS":"大同路二段７１８號","OBJECTID":466028},"geometry":{"x":169587.78999999911,"y":2540807.3800000008}},{"attributes":{"ID":466054,"DIS_CODE":0,"TOWNNAME":"南區","LI":"大恩里","LIN":"5鄰","STREET":"大同路","SECT":"二段","MAREA":" ","LANE":" ","ALLEY":" ","HOUSE_NO":"７２０號","E_COORD97":169588,"N_COORD97":2540802.7599999998,"ADDRESS":"大同路二段７２０號","OBJECTID":466029},"geometry":{"x":169587.99999999907,"y":2540802.7600000016}},{"attributes":{"ID":466055,"DIS_CODE":0,"TOWNNAME":"南區","LI":"大恩里","LIN":"5鄰","STREET":"大同路","SECT":"二段","MAREA":" ","LANE":" ","ALLEY":" ","HOUSE_NO":"７２２號","E_COORD97":169591.22,"N_COORD97":2540793.9700000002,"ADDRESS":"大同路二段７２２號","OBJECTID":466030},"geometry":{"x":169591.21999999974,"y":2540793.9699999988}},{"attributes":{"ID":466056,"DIS_CODE":0,"TOWNNAME":"南區","LI":"大恩里","LIN":"5鄰","STREET":"大同路","SECT":"二段","MAREA":" ","LANE":" ","ALLEY":" ","HOUSE_NO":"７２４號","E_COORD97":169591.32999999999,"N_COORD97":2540791.1600000001,"ADDRESS":"大同路二段７２４號","OBJECTID":466031},"geometry":{"x":169591.33000000101,"y":2540791.1600000001}},{"attributes":{"ID":466057,"DIS_CODE":0,"TOWNNAME":"南區","LI":"大恩里","LIN":"5鄰","STREET":"國民路","SECT":" ","MAREA":" ","LANE":" ","ALLEY":" ","HOUSE_NO":"１１號","E_COORD97":169550.28,"N_COORD97":2540871.4300000002,"ADDRESS":"國民路１１號","OBJECTID":466032},"geometry":{"x":169550.28000000026,"y":2540871.4300000034}},{"attributes":{"ID":466058,"DIS_CODE":0,"TOWNNAME":"南區","LI":"大恩里","LIN":"5鄰","STREET":"國民路","SECT":" ","MAREA":" ","LANE":" ","ALLEY":" ","HOUSE_NO":"１３號","E_COORD97":169544.73999999999,"N_COORD97":2540871.75,"ADDRESS":"國民路１３號","OBJECTID":466033},"geometry":{"x":169544.74000000115,"y":2540871.75}},{"attributes":{"ID":466059,"DIS_CODE":0,"TOWNNAME":"新營區","LI":"新北里","LIN":"5鄰","STREET":"三興街","SECT":" ","MAREA":" ","LANE":" ","ALLEY":" ","HOUSE_NO":"１０１號之１","E_COORD97":179429.35999999999,"N_COORD97":2579206.7400000002,"ADDRESS":"三興街１０１號之１","OBJECTID":466034},"geometry":{"x":179429.36000000034,"y":2579206.7400000002}},{"attributes":{"ID":466060,"DIS_CODE":0,"TOWNNAME":"新營區","LI":"大宏里","LIN":"5鄰","STREET":"三民路","SECT":" ","MAREA":" ","LANE":" ","ALLEY":" ","HOUSE_NO":"７６之１號","E_COORD97":180136.98000000001,"N_COORD97":2578486.8500000001,"ADDRESS":"三民路７６之１號","OBJECTID":466035},"geometry":{"x":180136.98000000138,"y":2578486.8499999996}},{"attributes":{"ID":466061,"DIS_CODE":0,"TOWNNAME":"新營區","LI":"民權里","LIN":"5鄰","STREET":"信義街","SECT":" ","MAREA":" ","LANE":" ","ALLEY":" ","HOUSE_NO":"７０號之３","E_COORD97":179916,"N_COORD97":2578535.52,"ADDRESS":"信義街７０號之３","OBJECTID":466036},"geometry":{"x":179916.00000000093,"y":2578535.5200000014}},{"attributes":{"ID":466062,"DIS_CODE":0,"TOWNNAME":"新營區","LI":"新南里","LIN":"5鄰","STREET":"金華路","SECT":"二段","MAREA":" ","LANE":" ","ALLEY":" ","HOUSE_NO":"１３０號","E_COORD97":178577.01999999999,"N_COORD97":2578732.3500000001,"ADDRESS":"金華路二段１３０號","OBJECTID":466037},"geometry":{"x":178577.02000000142,"y":2578732.3500000034}},{"attributes":{"ID":466063,"DIS_CODE":0,"TOWNNAME":"新營區","LI":"新北里","LIN":"5鄰","STREET":"三興街","SECT":" ","MAREA":" ","LANE":" ","ALLEY":" ","HOUSE_NO":"９５號之７","E_COORD97":179372.81,"N_COORD97":2579182.6400000001,"ADDRESS":"三興街９５號之７","OBJECTID":466038},"geometry":{"x":179372.80999999959,"y":2579182.6400000025}},{"attributes":{"ID":466064,"DIS_CODE":0,"TOWNNAME":"新營區","LI":"大宏里","LIN":"5鄰","STREET":"三民路","SECT":" ","MAREA":" ","LANE":" ","ALLEY":" ","HOUSE_NO":"６８之８號","E_COORD97":180222.20999999999,"N_COORD97":2578562.8700000001,"ADDRESS":"三民路６８之８號","OBJECTID":466039},"geometry":{"x":180222.21000000183,"y":2578562.870000001}},{"attributes":{"ID":466065,"DIS_CODE":0,"TOWNNAME":"新營區","LI":"大宏里","LIN":"5鄰","STREET":"三民路","SECT":" ","MAREA":" ","LANE":" ","ALLEY":" ","HOUSE_NO":"５８之１號","E_COORD97":180247.48000000001,"N_COORD97":2578496.2999999998,"ADDRESS":"三民路５８之１號","OBJECTID":466040},"geometry":{"x":180247.48000000045,"y":2578496.3000000045}},{"attributes":{"ID":466066,"DIS_CODE":0,"TOWNNAME":"新營區","LI":"新南里","LIN":"5鄰","STREET":"新北三街","SECT":" ","MAREA":" ","LANE":" ","ALLEY":" ","HOUSE_NO":"４９號","E_COORD97":178573.95999999999,"N_COORD97":2578763.3599999999,"ADDRESS":"新北三街４９號","OBJECTID":466041},"geometry":{"x":178573.95999999996,"y":2578763.3600000013}},{"attributes":{"ID":466067,"DIS_CODE":0,"TOWNNAME":"新營區","LI":"南興里","LIN":"5鄰","STREET":"建業路","SECT":" ","MAREA":" ","LANE":" ","ALLEY":" ","HOUSE_NO":"５２之３號","E_COORD97":179491.19,"N_COORD97":2577554.1200000001,"ADDRESS":"建業路５２之３號","OBJECTID":466042},"geometry":{"x":179491.19000000134,"y":2577554.120000001}},{"attributes":{"ID":466068,"DIS_CODE":0,"TOWNNAME":"新營區","LI":"大宏里","LIN":"5鄰","STREET":"三民路","SECT":" ","MAREA":" ","LANE":" ","ALLEY":" ","HOUSE_NO":"６８之９號","E_COORD97":180221.22,"N_COORD97":2578568.4100000001,"ADDRESS":"三民路６８之９號","OBJECTID":466043},"geometry":{"x":180221.21999999974,"y":2578568.4100000001}},{"attributes":{"ID":466069,"DIS_CODE":0,"TOWNNAME":"新營區","LI":"新南里","LIN":"5鄰","STREET":"新北三街","SECT":" ","MAREA":" ","LANE":" ","ALLEY":" ","HOUSE_NO":"３６號","E_COORD97":178586.39999999999,"N_COORD97":2578797.6299999999,"ADDRESS":"新北三街３６號","OBJECTID":466044},"geometry":{"x":178586.40000000037,"y":2578797.6300000027}},{"attributes":{"ID":466070,"DIS_CODE":0,"TOWNNAME":"新營區","LI":"大宏里","LIN":"5鄰","STREET":"三民路","SECT":" ","MAREA":" ","LANE":" ","ALLEY":" ","HOUSE_NO":"７６之１２號","E_COORD97":180095.25,"N_COORD97":2578482.6299999999,"ADDRESS":"三民路７６之１２號","OBJECTID":466045},"geometry":{"x":180095.25000000093,"y":2578482.6300000008}},{"attributes":{"ID":466071,"DIS_CODE":0,"TOWNNAME":"新營區","LI":"民權里","LIN":"5鄰","STREET":"信義街","SECT":" ","MAREA":" ","LANE":" ","ALLEY":" ","HOUSE_NO":"７０號之１","E_COORD97":179915.89999999999,"N_COORD97":2578535.52,"ADDRESS":"信義街７０號之１","OBJECTID":466046},"geometry":{"x":179915.90000000037,"y":2578535.5200000014}},{"attributes":{"ID":466072,"DIS_CODE":0,"TOWNNAME":"新營區","LI":"忠政里","LIN":"5鄰","STREET":"安和街","SECT":" ","MAREA":" ","LANE":" ","ALLEY":" ","HOUSE_NO":"２５之１號","E_COORD97":180013.81,"N_COORD97":2579254.9100000001,"ADDRESS":"安和街２５之１號","OBJECTID":466047},"geometry":{"x":180013.80999999959,"y":2579254.910000002}},{"attributes":{"ID":466073,"DIS_CODE":0,"TOWNNAME":"新營區","LI":"中營里","LIN":"5鄰","STREET":"大同路","SECT":" ","MAREA":" ","LANE":" ","ALLEY":" ","HOUSE_NO":"５號","E_COORD97":180704.10999999999,"N_COORD97":2578515.1400000001,"ADDRESS":"大同路５號","OBJECTID":466048},"geometry":{"x":180704.11000000034,"y":2578515.1400000025}},{"attributes":{"ID":466074,"DIS_CODE":0,"TOWNNAME":"新營區","LI":"永生里","LIN":"5鄰","STREET":"仁壽街","SECT":" ","MAREA":" ","LANE":" ","ALLEY":" ","HOUSE_NO":"７號","E_COORD97":179972.37,"N_COORD97":2577996.9700000002,"ADDRESS":"仁壽街７號","OBJECTID":466049},"geometry":{"x":179972.37000000104,"y":2577996.9700000044}},{"attributes":{"ID":466075,"DIS_CODE":0,"TOWNNAME":"新營區","LI":"忠政里","LIN":"5鄰","STREET":"安和街","SECT":" ","MAREA":" ","LANE":" ","ALLEY":" ","HOUSE_NO":"９號","E_COORD97":180051.88,"N_COORD97":2579251.3399999999,"ADDRESS":"安和街９號","OBJECTID":466050},"geometry":{"x":180051.88000000082,"y":2579251.3400000036}},{"attributes":{"ID":466076,"DIS_CODE":0,"TOWNNAME":"新營區","LI":"南紙里","LIN":"5鄰","STREET":"南紙街","SECT":" ","MAREA":" ","LANE":" ","ALLEY":" ","HOUSE_NO":"４３號","E_COORD97":177832.23000000001,"N_COORD97":2577681.6499999999,"ADDRESS":"南紙街４３號","OBJECTID":466051},"geometry":{"x":177832.23000000045,"y":2577681.6500000004}},{"attributes":{"ID":466077,"DIS_CODE":0,"TOWNNAME":"新營區","LI":"民權里","LIN":"5鄰","STREET":"信義街","SECT":" ","MAREA":" ","LANE":" ","ALLEY":" ","HOUSE_NO":"６４號","E_COORD97":179917.67999999999,"N_COORD97":2578501.1200000001,"ADDRESS":"信義街６４號","OBJECTID":466052},"geometry":{"x":179917.68000000063,"y":2578501.1199999992}},{"attributes":{"ID":466078,"DIS_CODE":0,"TOWNNAME":"新營區","LI":"新北里","LIN":"5鄰","STREET":"三興街","SECT":" ","MAREA":" ","LANE":" ","ALLEY":" ","HOUSE_NO":"９５號之１１","E_COORD97":179357.60999999999,"N_COORD97":2579181.6099999999,"ADDRESS":"三興街９５號之１１","OBJECTID":466053},"geometry":{"x":179357.61000000127,"y":2579181.6100000013}},{"attributes":{"ID":466079,"DIS_CODE":0,"TOWNNAME":"新營區","LI":"忠政里","LIN":"5鄰","STREET":"安和街","SECT":" ","MAREA":" ","LANE":" ","ALLEY":" ","HOUSE_NO":"１７號","E_COORD97":180035.78,"N_COORD97":2579253.6299999999,"ADDRESS":"安和街１７號","OBJECTID":466054},"geometry":{"x":180035.78000000119,"y":2579253.629999999}},{"attributes":{"ID":466080,"DIS_CODE":0,"TOWNNAME":"新營區","LI":"三仙里","LIN":"5鄰","STREET":"博愛街","SECT":" ","MAREA":" ","LANE":" ","ALLEY":" ","HOUSE_NO":"１５５號","E_COORD97":179595.91,"N_COORD97":2578113.9399999999,"ADDRESS":"博愛街１５５號","OBJECTID":466055},"geometry":{"x":179595.91000000108,"y":2578113.9399999995}},{"attributes":{"ID":466081,"DIS_CODE":0,"TOWNNAME":"新營區","LI":"南紙里","LIN":"5鄰","STREET":"南紙街","SECT":" ","MAREA":" ","LANE":" ","ALLEY":" ","HOUSE_NO":"４９號","E_COORD97":177827.04999999999,"N_COORD97":2577668.3799999999,"ADDRESS":"南紙街４９號","OBJECTID":466056},"geometry":{"x":177827.04999999981,"y":2577668.3800000008}},{"attributes":{"ID":466082,"DIS_CODE":0,"TOWNNAME":"新營區","LI":"忠政里","LIN":"5鄰","STREET":"安和街","SECT":" ","MAREA":" ","LANE":" ","ALLEY":" ","HOUSE_NO":"１９號","E_COORD97":180032.72,"N_COORD97":2579253.6499999999,"ADDRESS":"安和街１９號","OBJECTID":466057},"geometry":{"x":180032.72000000067,"y":2579253.6500000022}},{"attributes":{"ID":466083,"DIS_CODE":0,"TOWNNAME":"新營區","LI":"新北里","LIN":"5鄰","STREET":"三興街","SECT":" ","MAREA":" ","LANE":" ","ALLEY":" ","HOUSE_NO":"９５號之１７","E_COORD97":179346.60000000001,"N_COORD97":2579213.7799999998,"ADDRESS":"三興街９５號之１７","OBJECTID":466058},"geometry":{"x":179346.60000000056,"y":2579213.7800000031}},{"attributes":{"ID":466084,"DIS_CODE":0,"TOWNNAME":"新營區","LI":"延平里","LIN":"5鄰","STREET":"長春街","SECT":" ","MAREA":" ","LANE":" ","ALLEY":" ","HOUSE_NO":"２之１號","E_COORD97":179775.19,"N_COORD97":2577944.7999999998,"ADDRESS":"長春街２之１號","OBJECTID":466059},"geometry":{"x":179775.19000000041,"y":2577944.8000000026}},{"attributes":{"ID":466085,"DIS_CODE":0,"TOWNNAME":"新營區","LI":"民榮里","LIN":"5鄰","STREET":"濟安街","SECT":" ","MAREA":" ","LANE":" ","ALLEY":" ","HOUSE_NO":"６１號","E_COORD97":179292.03,"N_COORD97":2577930.4300000002,"ADDRESS":"濟安街６１號","OBJECTID":466060},"geometry":{"x":179292.03000000119,"y":2577930.4299999997}},{"attributes":{"ID":466086,"DIS_CODE":0,"TOWNNAME":"新營區","LI":"中營里","LIN":"5鄰","STREET":"中山路","SECT":" ","MAREA":" ","LANE":" ","ALLEY":" ","HOUSE_NO":"２２號","E_COORD97":180643.56,"N_COORD97":2578412.4300000002,"ADDRESS":"中山路２２號","OBJECTID":466061},"geometry":{"x":180643.56000000052,"y":2578412.4299999997}},{"attributes":{"ID":466087,"DIS_CODE":0,"TOWNNAME":"新營區","LI":"民權里","LIN":"5鄰","STREET":"信義街","SECT":" ","MAREA":" ","LANE":" ","ALLEY":" ","HOUSE_NO":"６８號之１","E_COORD97":179915.82999999999,"N_COORD97":2578525.5600000001,"ADDRESS":"信義街６８號之１","OBJECTID":466062},"geometry":{"x":179915.83000000007,"y":2578525.5600000024}},{"attributes":{"ID":466088,"DIS_CODE":0,"TOWNNAME":"新營區","LI":"好平里","LIN":"5鄰","STREET":"新進路","SECT":"二段","MAREA":" ","LANE":" ","ALLEY":" ","HOUSE_NO":"９８號","E_COORD97":179484.44,"N_COORD97":2577743.46,"ADDRESS":"新進路二段９８號","OBJECTID":466063},"geometry":{"x":179484.44000000134,"y":2577743.4600000028}},{"attributes":{"ID":466089,"DIS_CODE":0,"TOWNNAME":"新營區","LI":"南興里","LIN":"5鄰","STREET":"建業路","SECT":" ","MAREA":" ","LANE":" ","ALLEY":" ","HOUSE_NO":"５０號","E_COORD97":179497.91,"N_COORD97":2577554.02,"ADDRESS":"建業路５０號","OBJECTID":466064},"geometry":{"x":179497.91000000108,"y":2577554.0199999996}},{"attributes":{"ID":466090,"DIS_CODE":0,"TOWNNAME":"安平區","LI":"金城里","LIN":"5鄰","STREET":"湖內二街","SECT":" ","MAREA":" ","LANE":" ","ALLEY":" ","HOUSE_NO":"４９號","E_COORD97":163767.85000000001,"N_COORD97":2544341.79,"ADDRESS":"湖內二街４９號","OBJECTID":466065},"geometry":{"x":163767.85000000056,"y":2544341.7899999991}},{"attributes":{"ID":466091,"DIS_CODE":0,"TOWNNAME":"安平區","LI":"億載里","LIN":"5鄰","STREET":"光州七街","SECT":" ","MAREA":" ","LANE":" ","ALLEY":" ","HOUSE_NO":"１２１號","E_COORD97":163949.03,"N_COORD97":2543713.3300000001,"ADDRESS":"光州七街１２１號","OBJECTID":466066},"geometry":{"x":163949.03000000119,"y":2543713.3299999982}},{"attributes":{"ID":466092,"DIS_CODE":0,"TOWNNAME":"安平區","LI":"億載里","LIN":"5鄰","STREET":"光州七街","SECT":" ","MAREA":" ","LANE":" ","ALLEY":" ","HOUSE_NO":"１２５號","E_COORD97":163938.42999999999,"N_COORD97":2543714.8999999999,"ADDRESS":"光州七街１２５號","OBJECTID":466067},"geometry":{"x":163938.43000000063,"y":2543714.9000000022}},{"attributes":{"ID":466093,"DIS_CODE":0,"TOWNNAME":"安平區","LI":"億載里","LIN":"5鄰","STREET":"光州七街","SECT":" ","MAREA":" ","LANE":" ","ALLEY":" ","HOUSE_NO":"１２７號","E_COORD97":163934.89999999999,"N_COORD97":2543714.1099999999,"ADDRESS":"光州七街１２７號","OBJECTID":466068},"geometry":{"x":163934.90000000037,"y":2543714.1099999975}},{"attributes":{"ID":466094,"DIS_CODE":0,"TOWNNAME":"安平區","LI":"億載里","LIN":"5鄰","STREET":"光州七街","SECT":" ","MAREA":" ","LANE":" ","ALLEY":" ","HOUSE_NO":"１３１號","E_COORD97":163927.04999999999,"N_COORD97":2543712.54,"ADDRESS":"光州七街１３１號","OBJECTID":466069},"geometry":{"x":163927.04999999981,"y":2543712.540000001}},{"attributes":{"ID":466095,"DIS_CODE":0,"TOWNNAME":"安平區","LI":"億載里","LIN":"5鄰","STREET":"光州七街","SECT":" ","MAREA":" ","LANE":" ","ALLEY":" ","HOUSE_NO":"１３３號","E_COORD97":163922.73000000001,"N_COORD97":2543711.7599999998,"ADDRESS":"光州七街１３３號","OBJECTID":466070},"geometry":{"x":163922.73000000045,"y":2543711.7600000016}},{"attributes":{"ID":466096,"DIS_CODE":0,"TOWNNAME":"安平區","LI":"億載里","LIN":"5鄰","STREET":"光州七街","SECT":" ","MAREA":" ","LANE":" ","ALLEY":" ","HOUSE_NO":"１３５號","E_COORD97":163918.79999999999,"N_COORD97":2543711.3700000001,"ADDRESS":"光州七街１３５號","OBJECTID":466071},"geometry":{"x":163918.80000000168,"y":2543711.3700000029}},{"attributes":{"ID":466097,"DIS_CODE":0,"TOWNNAME":"安平區","LI":"億載里","LIN":"5鄰","STREET":"光州七街","SECT":" ","MAREA":" ","LANE":" ","ALLEY":" ","HOUSE_NO":"１３７號","E_COORD97":163909.78,"N_COORD97":2543709.0099999998,"ADDRESS":"光州七街１３７號","OBJECTID":466072},"geometry":{"x":163909.78000000119,"y":2543709.0100000016}},{"attributes":{"ID":466098,"DIS_CODE":0,"TOWNNAME":"安平區","LI":"億載里","LIN":"5鄰","STREET":"光州七街","SECT":" ","MAREA":" ","LANE":" ","ALLEY":" ","HOUSE_NO":"８１號","E_COORD97":164056.29999999999,"N_COORD97":2543731.8500000001,"ADDRESS":"光州七街８１號","OBJECTID":466073},"geometry":{"x":164056.30000000075,"y":2543731.8499999996}},{"attributes":{"ID":466099,"DIS_CODE":0,"TOWNNAME":"安平區","LI":"億載里","LIN":"5鄰","STREET":"光州七街","SECT":" ","MAREA":" ","LANE":" ","ALLEY":" ","HOUSE_NO":"８３號","E_COORD97":164051.22,"N_COORD97":2543730.7200000002,"ADDRESS":"光州七街８３號","OBJECTID":466074},"geometry":{"x":164051.21999999974,"y":2543730.7200000007}},{"attributes":{"ID":466100,"DIS_CODE":0,"TOWNNAME":"安平區","LI":"億載里","LIN":"5鄰","STREET":"光州七街","SECT":" ","MAREA":" ","LANE":" ","ALLEY":" ","HOUSE_NO":"８５號","E_COORD97":164046.42999999999,"N_COORD97":2543730.4399999999,"ADDRESS":"光州七街８５號","OBJECTID":466075},"geometry":{"x":164046.4299999997,"y":2543730.4400000013}},{"attributes":{"ID":466101,"DIS_CODE":0,"TOWNNAME":"安平區","LI":"億載里","LIN":"5鄰","STREET":"光州七街","SECT":" ","MAREA":" ","LANE":" ","ALLEY":" ","HOUSE_NO":"８７號","E_COORD97":164041.92000000001,"N_COORD97":2543729.8799999999,"ADDRESS":"光州七街８７號","OBJECTID":466076},"geometry":{"x":164041.92000000179,"y":2543729.8800000008}},{"attributes":{"ID":466102,"DIS_CODE":0,"TOWNNAME":"安平區","LI":"億載里","LIN":"5鄰","STREET":"光州七街","SECT":" ","MAREA":" ","LANE":" ","ALLEY":" ","HOUSE_NO":"９５號","E_COORD97":164015.78,"N_COORD97":2543726.27,"ADDRESS":"光州七街９５號","OBJECTID":466077},"geometry":{"x":164015.78000000026,"y":2543726.2699999996}},{"attributes":{"ID":466103,"DIS_CODE":0,"TOWNNAME":"安平區","LI":"億載里","LIN":"5鄰","STREET":"光州七街","SECT":" ","MAREA":" ","LANE":" ","ALLEY":" ","HOUSE_NO":"９７號","E_COORD97":164010.67000000001,"N_COORD97":2543724.7000000002,"ADDRESS":"光州七街９７號","OBJECTID":466078},"geometry":{"x":164010.66999999993,"y":2543724.7000000011}},{"attributes":{"ID":466104,"DIS_CODE":0,"TOWNNAME":"安平區","LI":"億載里","LIN":"5鄰","STREET":"光州七街","SECT":" ","MAREA":" ","LANE":" ","ALLEY":" ","HOUSE_NO":"９９號","E_COORD97":164005.17999999999,"N_COORD97":2543723.1299999999,"ADDRESS":"光州七街９９號","OBJECTID":466079},"geometry":{"x":164005.1799999997,"y":2543723.129999999}},{"attributes":{"ID":466105,"DIS_CODE":0,"TOWNNAME":"安平區","LI":"億載里","LIN":"5鄰","STREET":"永華十一街","SECT":" ","MAREA":" ","LANE":" ","ALLEY":" ","HOUSE_NO":"１１５號","E_COORD97":164073.51000000001,"N_COORD97":2543695.77,"ADDRESS":"永華十一街１１５號","OBJECTID":466080},"geometry":{"x":164073.51000000071,"y":2543695.7699999996}},{"attributes":{"ID":466106,"DIS_CODE":0,"TOWNNAME":"南區","LI":"鯤鯓里","LIN":"5鄰","STREET":"鯤鯓路","SECT":" ","MAREA":" ","LANE":" ","ALLEY":" ","HOUSE_NO":"１２７號之１０","E_COORD97":164862.92999999999,"N_COORD97":2539973.1699999999,"ADDRESS":"鯤鯓路１２７號之１０","OBJECTID":466081},"geometry":{"x":164862.9299999997,"y":2539973.1700000018}},{"attributes":{"ID":466107,"DIS_CODE":0,"TOWNNAME":"南區","LI":"鯤鯓里","LIN":"5鄰","STREET":"鯤鯓路","SECT":" ","MAREA":" ","LANE":" ","ALLEY":" ","HOUSE_NO":"１２７號之５","E_COORD97":164860.66,"N_COORD97":2540001.6099999999,"ADDRESS":"鯤鯓路１２７號之５","OBJECTID":466082},"geometry":{"x":164860.66000000015,"y":2540001.6099999975}},{"attributes":{"ID":466108,"DIS_CODE":0,"TOWNNAME":"南區","LI":"大恩里","LIN":"5鄰","STREET":"國民路","SECT":" ","MAREA":" ","LANE":" ","ALLEY":" ","HOUSE_NO":"２２號","E_COORD97":169505.57999999999,"N_COORD97":2540907.7999999998,"ADDRESS":"國民路２２號","OBJECTID":466083},"geometry":{"x":169505.58000000007,"y":2540907.8000000026}},{"attributes":{"ID":466109,"DIS_CODE":0,"TOWNNAME":"南區","LI":"大恩里","LIN":"5鄰","STREET":"國民路","SECT":" ","MAREA":" ","LANE":" ","ALLEY":" ","HOUSE_NO":"２８號","E_COORD97":169493.98000000001,"N_COORD97":2540906.5800000001,"ADDRESS":"國民路２８號","OBJECTID":466084},"geometry":{"x":169493.98000000138,"y":2540906.5800000001}},{"attributes":{"ID":466110,"DIS_CODE":0,"TOWNNAME":"南區","LI":"大恩里","LIN":"5鄰","STREET":"國民路","SECT":" ","MAREA":" ","LANE":" ","ALLEY":" ","HOUSE_NO":"４１號","E_COORD97":169466.23999999999,"N_COORD97":2540864.9900000002,"ADDRESS":"國民路４１號","OBJECTID":466085},"geometry":{"x":169466.23999999929,"y":2540864.9900000039}},{"attributes":{"ID":466111,"DIS_CODE":0,"TOWNNAME":"南區","LI":"大恩里","LIN":"5鄰","STREET":"國民路","SECT":" ","MAREA":" ","LANE":" ","ALLEY":" ","HOUSE_NO":"４３號","E_COORD97":169458.07999999999,"N_COORD97":2540864.3500000001,"ADDRESS":"國民路４３號","OBJECTID":466086},"geometry":{"x":169458.08000000007,"y":2540864.3499999996}},{"attributes":{"ID":466112,"DIS_CODE":0,"TOWNNAME":"南區","LI":"大恩里","LIN":"5鄰","STREET":"國民路","SECT":" ","MAREA":" ","LANE":" ","ALLEY":" ","HOUSE_NO":"４５號","E_COORD97":169454.10000000001,"N_COORD97":2540864.4500000002,"ADDRESS":"國民路４５號","OBJECTID":466087},"geometry":{"x":169454.09999999963,"y":2540864.4500000011}},{"attributes":{"ID":466113,"DIS_CODE":0,"TOWNNAME":"南區","LI":"大恩里","LIN":"5鄰","STREET":"國民路","SECT":" ","MAREA":" ","LANE":" ","ALLEY":" ","HOUSE_NO":"５號","E_COORD97":169568.51999999999,"N_COORD97":2540873.27,"ADDRESS":"國民路５號","OBJECTID":466088},"geometry":{"x":169568.51999999955,"y":2540873.2700000014}},{"attributes":{"ID":466114,"DIS_CODE":0,"TOWNNAME":"南區","LI":"大恩里","LIN":"5鄰","STREET":"國民路","SECT":" ","MAREA":" ","LANE":" ","ALLEY":" ","HOUSE_NO":"９號","E_COORD97":169561.54000000001,"N_COORD97":2540872.79,"ADDRESS":"國民路９號","OBJECTID":466089},"geometry":{"x":169561.54000000097,"y":2540872.790000001}},{"attributes":{"ID":466115,"DIS_CODE":0,"TOWNNAME":"學甲區","LI":"仁得里","LIN":"5鄰","STREET":"華宗路","SECT":" ","MAREA":" ","LANE":" ","ALLEY":" ","HOUSE_NO":"３５５號","E_COORD97":166306.62,"N_COORD97":2570196.1299999999,"ADDRESS":"華宗路３５５號","OBJECTID":466090},"geometry":{"x":166306.62000000011,"y":2570196.1300000027}},{"attributes":{"ID":466116,"DIS_CODE":0,"TOWNNAME":"學甲區","LI":"仁得里","LIN":"5鄰","STREET":"華宗路","SECT":" ","MAREA":" ","LANE":" ","ALLEY":" ","HOUSE_NO":"３５７號","E_COORD97":166306.45999999999,"N_COORD97":2570199.3700000001,"ADDRESS":"華宗路３５７號","OBJECTID":466091},"geometry":{"x":166306.46000000183,"y":2570199.370000001}},{"attributes":{"ID":466117,"DIS_CODE":0,"TOWNNAME":"學甲區","LI":"仁得里","LIN":"5鄰","STREET":"華宗路","SECT":" ","MAREA":" ","LANE":" ","ALLEY":" ","HOUSE_NO":"３５９號","E_COORD97":166303.94,"N_COORD97":2570207.1299999999,"ADDRESS":"華宗路３５９號","OBJECTID":466092},"geometry":{"x":166303.94000000134,"y":2570207.1300000008}},{"attributes":{"ID":466118,"DIS_CODE":0,"TOWNNAME":"學甲區","LI":"仁得里","LIN":"5鄰","STREET":"華宗路","SECT":" ","MAREA":" ","LANE":" ","ALLEY":" ","HOUSE_NO":"３６３號","E_COORD97":166302.53,"N_COORD97":2570217.1000000001,"ADDRESS":"華宗路３６３號","OBJECTID":466093},"geometry":{"x":166302.53000000026,"y":2570217.0999999978}},{"attributes":{"ID":466119,"DIS_CODE":0,"TOWNNAME":"學甲區","LI":"仁得里","LIN":"5鄰","STREET":"華宗路","SECT":" ","MAREA":" ","LANE":" ","ALLEY":" ","HOUSE_NO":"３６５號","E_COORD97":166301.39000000001,"N_COORD97":2570223.48,"ADDRESS":"華宗路３６５號","OBJECTID":466094},"geometry":{"x":166301.38999999873,"y":2570223.4800000023}},{"attributes":{"ID":466120,"DIS_CODE":0,"TOWNNAME":"學甲區","LI":"仁得里","LIN":"5鄰","STREET":"華宗路","SECT":" ","MAREA":" ","LANE":" ","ALLEY":" ","HOUSE_NO":"３６７號","E_COORD97":166300.01999999999,"N_COORD97":2570229.7599999998,"ADDRESS":"華宗路３６７號","OBJECTID":466095},"geometry":{"x":166300.01999999955,"y":2570229.7600000035}},{"attributes":{"ID":466121,"DIS_CODE":0,"TOWNNAME":"學甲區","LI":"仁得里","LIN":"5鄰","STREET":"華宗路","SECT":" ","MAREA":" ","LANE":" ","ALLEY":" ","HOUSE_NO":"３６９號","E_COORD97":166299,"N_COORD97":2570234.3500000001,"ADDRESS":"華宗路３６９號","OBJECTID":466096},"geometry":{"x":166299,"y":2570234.3499999996}},{"attributes":{"ID":466122,"DIS_CODE":0,"TOWNNAME":"學甲區","LI":"仁得里","LIN":"5鄰","STREET":"華宗路","SECT":" ","MAREA":" ","LANE":" ","ALLEY":" ","HOUSE_NO":"３７１號","E_COORD97":166298.16,"N_COORD97":2570239.21,"ADDRESS":"華宗路３７１號","OBJECTID":466097},"geometry":{"x":166298.16000000015,"y":2570239.2100000028}},{"attributes":{"ID":466123,"DIS_CODE":0,"TOWNNAME":"學甲區","LI":"仁得里","LIN":"5鄰","STREET":"華宗路","SECT":" ","MAREA":" ","LANE":" ","ALLEY":" ","HOUSE_NO":"３７３號","E_COORD97":166296.76999999999,"N_COORD97":2570245.4199999999,"ADDRESS":"華宗路３７３號","OBJECTID":466098},"geometry":{"x":166296.76999999955,"y":2570245.4199999999}},{"attributes":{"ID":466124,"DIS_CODE":0,"TOWNNAME":"學甲區","LI":"仁得里","LIN":"5鄰","STREET":"華宗路","SECT":" ","MAREA":" ","LANE":" ","ALLEY":" ","HOUSE_NO":"３７５號","E_COORD97":166297.20000000001,"N_COORD97":2570256.1099999999,"ADDRESS":"華宗路３７５號","OBJECTID":466099},"geometry":{"x":166297.20000000112,"y":2570256.1099999994}},{"attributes":{"ID":466125,"DIS_CODE":0,"TOWNNAME":"學甲區","LI":"新達里","LIN":"5鄰","STREET":"華宗路","SECT":" ","MAREA":" ","LANE":" ","ALLEY":" ","HOUSE_NO":"４３７號","E_COORD97":166327.35999999999,"N_COORD97":2570440.8700000001,"ADDRESS":"華宗路４３７號","OBJECTID":466100},"geometry":{"x":166327.36000000034,"y":2570440.8700000048}},{"attributes":{"ID":466126,"DIS_CODE":0,"TOWNNAME":"學甲區","LI":"新達里","LIN":"5鄰","STREET":"華宗路","SECT":" ","MAREA":" ","LANE":" ","ALLEY":" ","HOUSE_NO":"４３９號","E_COORD97":166341.17999999999,"N_COORD97":2570486.3399999999,"ADDRESS":"華宗路４３９號","OBJECTID":466101},"geometry":{"x":166341.1799999997,"y":2570486.3399999999}},{"attributes":{"ID":466127,"DIS_CODE":0,"TOWNNAME":"學甲區","LI":"新達里","LIN":"5鄰","STREET":"華宗路","SECT":" ","MAREA":" ","LANE":" ","ALLEY":" ","HOUSE_NO":"４４１號","E_COORD97":166342.29000000001,"N_COORD97":2570490.1699999999,"ADDRESS":"華宗路４４１號","OBJECTID":466102},"geometry":{"x":166342.29000000097,"y":2570490.1699999999}},{"attributes":{"ID":466128,"DIS_CODE":0,"TOWNNAME":"學甲區","LI":"新達里","LIN":"5鄰","STREET":"華宗路","SECT":" ","MAREA":" ","LANE":" ","ALLEY":" ","HOUSE_NO":"４４３號","E_COORD97":166343.14000000001,"N_COORD97":2570494.0699999998,"ADDRESS":"華宗路４４３號","OBJECTID":466103},"geometry":{"x":166343.13999999966,"y":2570494.0700000022}},{"attributes":{"ID":466129,"DIS_CODE":0,"TOWNNAME":"學甲區","LI":"新達里","LIN":"5鄰","STREET":"華宗路","SECT":" ","MAREA":" ","LANE":" ","ALLEY":" ","HOUSE_NO":"４４５號","E_COORD97":166343.95999999999,"N_COORD97":2570497.8599999999,"ADDRESS":"華宗路４４５號","OBJECTID":466104},"geometry":{"x":166343.96000000089,"y":2570497.8600000013}},{"attributes":{"ID":466130,"DIS_CODE":0,"TOWNNAME":"學甲區","LI":"新達里","LIN":"5鄰","STREET":"華宗路","SECT":" ","MAREA":" ","LANE":" ","ALLEY":" ","HOUSE_NO":"４４７號","E_COORD97":166345.03,"N_COORD97":2570501.9399999999,"ADDRESS":"華宗路４４７號","OBJECTID":466105},"geometry":{"x":166345.03000000026,"y":2570501.9399999995}},{"attributes":{"ID":466131,"DIS_CODE":0,"TOWNNAME":"學甲區","LI":"新達里","LIN":"5鄰","STREET":"華宗路","SECT":" ","MAREA":" ","LANE":" ","ALLEY":" ","HOUSE_NO":"４４９號","E_COORD97":166345.88,"N_COORD97":2570505.9399999999,"ADDRESS":"華宗路４４９號","OBJECTID":466106},"geometry":{"x":166345.88000000175,"y":2570505.9399999995}},{"attributes":{"ID":466132,"DIS_CODE":0,"TOWNNAME":"學甲區","LI":"新達里","LIN":"5鄰","STREET":"華宗路","SECT":" ","MAREA":" ","LANE":" ","ALLEY":" ","HOUSE_NO":"４５５號","E_COORD97":166348.28,"N_COORD97":2570520.8199999998,"ADDRESS":"華宗路４５５號","OBJECTID":466107},"geometry":{"x":166348.28000000026,"y":2570520.8200000003}},{"attributes":{"ID":466133,"DIS_CODE":0,"TOWNNAME":"學甲區","LI":"新達里","LIN":"5鄰","STREET":"華宗路","SECT":" ","MAREA":" ","LANE":" ","ALLEY":" ","HOUSE_NO":"４６１號","E_COORD97":166352.22,"N_COORD97":2570533.1400000001,"ADDRESS":"華宗路４６１號","OBJECTID":466108},"geometry":{"x":166352.22000000067,"y":2570533.1399999987}},{"attributes":{"ID":466134,"DIS_CODE":0,"TOWNNAME":"學甲區","LI":"新達里","LIN":"5鄰","STREET":"華宗路","SECT":" ","MAREA":" ","LANE":" ","ALLEY":" ","HOUSE_NO":"４６３號之３","E_COORD97":166349.76999999999,"N_COORD97":2570554.1400000001,"ADDRESS":"華宗路４６３號之３","OBJECTID":466109},"geometry":{"x":166349.77000000142,"y":2570554.1400000025}},{"attributes":{"ID":466135,"DIS_CODE":0,"TOWNNAME":"學甲區","LI":"新達里","LIN":"5鄰","STREET":"華宗路","SECT":" ","MAREA":" ","LANE":" ","ALLEY":" ","HOUSE_NO":"４６３號","E_COORD97":166353.67000000001,"N_COORD97":2570537.6200000001,"ADDRESS":"華宗路４６３號","OBJECTID":466110},"geometry":{"x":166353.66999999993,"y":2570537.6200000029}},{"attributes":{"ID":466136,"DIS_CODE":0,"TOWNNAME":"學甲區","LI":"新達里","LIN":"5鄰","STREET":"華宗路","SECT":" ","MAREA":" ","LANE":" ","ALLEY":" ","HOUSE_NO":"４６５號","E_COORD97":166354.69,"N_COORD97":2570541.9900000002,"ADDRESS":"華宗路４６５號","OBJECTID":466111},"geometry":{"x":166354.69000000134,"y":2570541.9900000021}},{"attributes":{"ID":466137,"DIS_CODE":0,"TOWNNAME":"學甲區","LI":"新達里","LIN":"5鄰","STREET":"華宗路","SECT":" ","MAREA":" ","LANE":" ","ALLEY":" ","HOUSE_NO":"４６９號","E_COORD97":166329.94,"N_COORD97":2570559.5499999998,"ADDRESS":"華宗路４６９號","OBJECTID":466112},"geometry":{"x":166329.94000000041,"y":2570559.5500000007}},{"attributes":{"ID":466138,"DIS_CODE":0,"TOWNNAME":"學甲區","LI":"新達里","LIN":"5鄰","STREET":"華宗路","SECT":" ","MAREA":" ","LANE":" ","ALLEY":" ","HOUSE_NO":"４８１號","E_COORD97":166356.29000000001,"N_COORD97":2570563.4399999999,"ADDRESS":"華宗路４８１號","OBJECTID":466113},"geometry":{"x":166356.29000000004,"y":2570563.4399999995}},{"attributes":{"ID":466139,"DIS_CODE":0,"TOWNNAME":"學甲區","LI":"新達里","LIN":"5鄰","STREET":"華宗路","SECT":" ","MAREA":" ","LANE":" ","ALLEY":" ","HOUSE_NO":"４８３號","E_COORD97":166356.37,"N_COORD97":2570571.25,"ADDRESS":"華宗路４８３號","OBJECTID":466114},"geometry":{"x":166356.37000000197,"y":2570571.25}},{"attributes":{"ID":466140,"DIS_CODE":0,"TOWNNAME":"學甲區","LI":"新達里","LIN":"5鄰","STREET":"華宗路","SECT":" ","MAREA":" ","LANE":" ","ALLEY":" ","HOUSE_NO":"４８５號","E_COORD97":166357.97,"N_COORD97":2570575.9399999999,"ADDRESS":"華宗路４８５號","OBJECTID":466115},"geometry":{"x":166357.96999999974,"y":2570575.9399999995}},{"attributes":{"ID":466141,"DIS_CODE":0,"TOWNNAME":"學甲區","LI":"新達里","LIN":"5鄰","STREET":"華宗路","SECT":" ","MAREA":" ","LANE":" ","ALLEY":" ","HOUSE_NO":"４８７號","E_COORD97":166359,"N_COORD97":2570580.6099999999,"ADDRESS":"華宗路４８７號","OBJECTID":466116},"geometry":{"x":166359.00000000093,"y":2570580.6100000013}},{"attributes":{"ID":466142,"DIS_CODE":0,"TOWNNAME":"學甲區","LI":"新達里","LIN":"5鄰","STREET":"華宗路","SECT":" ","MAREA":" ","LANE":" ","ALLEY":" ","HOUSE_NO":"４８９號","E_COORD97":166360,"N_COORD97":2570584.4199999999,"ADDRESS":"華宗路４８９號","OBJECTID":466117},"geometry":{"x":166360,"y":2570584.4199999999}},{"attributes":{"ID":466143,"DIS_CODE":0,"TOWNNAME":"學甲區","LI":"新達里","LIN":"5鄰","STREET":"華宗路","SECT":" ","MAREA":" ","LANE":" ","ALLEY":" ","HOUSE_NO":"４９１號","E_COORD97":166364.94,"N_COORD97":2570587.7200000002,"ADDRESS":"華宗路４９１號","OBJECTID":466118},"geometry":{"x":166364.94000000134,"y":2570587.7200000025}},{"attributes":{"ID":466144,"DIS_CODE":0,"TOWNNAME":"學甲區","LI":"新達里","LIN":"5鄰","STREET":"華宗路","SECT":" ","MAREA":" ","LANE":" ","ALLEY":" ","HOUSE_NO":"４９７號","E_COORD97":166366.17999999999,"N_COORD97":2570602.4399999999,"ADDRESS":"華宗路４９７號","OBJECTID":466119},"geometry":{"x":166366.18000000063,"y":2570602.4400000013}},{"attributes":{"ID":466145,"DIS_CODE":0,"TOWNNAME":"學甲區","LI":"新達里","LIN":"5鄰","STREET":"華宗路","SECT":" ","MAREA":" ","LANE":" ","ALLEY":" ","HOUSE_NO":"５１７號","E_COORD97":166346.14000000001,"N_COORD97":2570694.23,"ADDRESS":"華宗路５１７號","OBJECTID":466120},"geometry":{"x":166346.1400000006,"y":2570694.2300000004}},{"attributes":{"ID":466146,"DIS_CODE":0,"TOWNNAME":"學甲區","LI":"新達里","LIN":"5鄰","STREET":"華宗路","SECT":" ","MAREA":" ","LANE":" ","ALLEY":" ","HOUSE_NO":"５２３號","E_COORD97":166384.75,"N_COORD97":2570709.6099999999,"ADDRESS":"華宗路５２３號","OBJECTID":466121},"geometry":{"x":166384.75000000093,"y":2570709.6100000013}},{"attributes":{"ID":466147,"DIS_CODE":0,"TOWNNAME":"學甲區","LI":"新達里","LIN":"5鄰","STREET":"華宗路","SECT":" ","MAREA":" ","LANE":" ","ALLEY":" ","HOUSE_NO":"５２５號","E_COORD97":166386.31,"N_COORD97":2570713.9700000002,"ADDRESS":"華宗路５２５號","OBJECTID":466122},"geometry":{"x":166386.30999999959,"y":2570713.9699999988}},{"attributes":{"ID":466148,"DIS_CODE":0,"TOWNNAME":"學甲區","LI":"新達里","LIN":"5鄰","STREET":"華宗路","SECT":" ","MAREA":" ","LANE":" ","ALLEY":" ","HOUSE_NO":"５２７號","E_COORD97":166387.10999999999,"N_COORD97":2570718.48,"ADDRESS":"華宗路５２７號","OBJECTID":466123},"geometry":{"x":166387.1099999994,"y":2570718.4800000023}},{"attributes":{"ID":466149,"DIS_CODE":0,"TOWNNAME":"學甲區","LI":"新達里","LIN":"5鄰","STREET":"華宗路","SECT":" ","MAREA":" ","LANE":" ","ALLEY":" ","HOUSE_NO":"５２９號","E_COORD97":166387.79999999999,"N_COORD97":2570723.0899999999,"ADDRESS":"華宗路５２９號","OBJECTID":466124},"geometry":{"x":166387.80000000075,"y":2570723.0900000017}},{"attributes":{"ID":466150,"DIS_CODE":0,"TOWNNAME":"學甲區","LI":"新達里","LIN":"5鄰","STREET":"華宗路","SECT":" ","MAREA":" ","LANE":" ","ALLEY":" ","HOUSE_NO":"５３１號","E_COORD97":166389.47,"N_COORD97":2570727.29,"ADDRESS":"華宗路５３１號","OBJECTID":466125},"geometry":{"x":166389.47000000067,"y":2570727.2900000028}},{"attributes":{"ID":466151,"DIS_CODE":0,"TOWNNAME":"學甲區","LI":"新達里","LIN":"5鄰","STREET":"華宗路","SECT":" ","MAREA":" ","LANE":" ","ALLEY":" ","HOUSE_NO":"５３７號","E_COORD97":166396.26999999999,"N_COORD97":2570752.6400000001,"ADDRESS":"華宗路５３７號","OBJECTID":466126},"geometry":{"x":166396.27000000048,"y":2570752.6400000006}},{"attributes":{"ID":466152,"DIS_CODE":0,"TOWNNAME":"學甲區","LI":"新達里","LIN":"5鄰","STREET":"華宗路","SECT":" ","MAREA":" ","LANE":" ","ALLEY":" ","HOUSE_NO":"５３９號","E_COORD97":166400.28,"N_COORD97":2570760.1099999999,"ADDRESS":"華宗路５３９號","OBJECTID":466127},"geometry":{"x":166400.28000000119,"y":2570760.1100000013}},{"attributes":{"ID":466153,"DIS_CODE":0,"TOWNNAME":"學甲區","LI":"新達里","LIN":"5鄰","STREET":"華宗路","SECT":" ","MAREA":" ","LANE":" ","ALLEY":" ","HOUSE_NO":"５４１號","E_COORD97":166400.82000000001,"N_COORD97":2570766.3999999999,"ADDRESS":"華宗路５４１號","OBJECTID":466128},"geometry":{"x":166400.8200000003,"y":2570766.4000000022}},{"attributes":{"ID":466154,"DIS_CODE":0,"TOWNNAME":"學甲區","LI":"新達里","LIN":"5鄰","STREET":"華宗路","SECT":" ","MAREA":" ","LANE":" ","ALLEY":" ","HOUSE_NO":"５４３號","E_COORD97":166403.64000000001,"N_COORD97":2570775.2000000002,"ADDRESS":"華宗路５４３號","OBJECTID":466129},"geometry":{"x":166403.6400000006,"y":2570775.1999999993}},{"attributes":{"ID":466155,"DIS_CODE":0,"TOWNNAME":"學甲區","LI":"新達里","LIN":"5鄰","STREET":"華宗路","SECT":" ","MAREA":" ","LANE":" ","ALLEY":" ","HOUSE_NO":"５４５號","E_COORD97":166404.87,"N_COORD97":2570778.73,"ADDRESS":"華宗路５４５號","OBJECTID":466130},"geometry":{"x":166404.87000000011,"y":2570778.7300000004}},{"attributes":{"ID":466156,"DIS_CODE":0,"TOWNNAME":"學甲區","LI":"新達里","LIN":"5鄰","STREET":"華宗路","SECT":" ","MAREA":" ","LANE":" ","ALLEY":" ","HOUSE_NO":"５４７號","E_COORD97":166403.89999999999,"N_COORD97":2570783.5099999998,"ADDRESS":"華宗路５４７號","OBJECTID":466131},"geometry":{"x":166403.90000000224,"y":2570783.5099999998}},{"attributes":{"ID":466157,"DIS_CODE":0,"TOWNNAME":"學甲區","LI":"新達里","LIN":"5鄰","STREET":"華宗路","SECT":" ","MAREA":" ","LANE":" ","ALLEY":" ","HOUSE_NO":"５４９號","E_COORD97":166404.64999999999,"N_COORD97":2570787.8799999999,"ADDRESS":"華宗路５４９號","OBJECTID":466132},"geometry":{"x":166404.6500000013,"y":2570787.8800000027}},{"attributes":{"ID":466158,"DIS_CODE":0,"TOWNNAME":"學甲區","LI":"新達里","LIN":"5鄰","STREET":"華宗路","SECT":" ","MAREA":" ","LANE":" ","ALLEY":" ","HOUSE_NO":"５５１號","E_COORD97":166405.25,"N_COORD97":2570792.29,"ADDRESS":"華宗路５５１號","OBJECTID":466133},"geometry":{"x":166405.25000000093,"y":2570792.290000001}},{"attributes":{"ID":466159,"DIS_CODE":0,"TOWNNAME":"學甲區","LI":"新達里","LIN":"5鄰","STREET":"華宗路","SECT":" ","MAREA":" ","LANE":" ","ALLEY":" ","HOUSE_NO":"５５３號","E_COORD97":166406.76000000001,"N_COORD97":2570796.1800000002,"ADDRESS":"華宗路５５３號","OBJECTID":466134},"geometry":{"x":166406.76000000071,"y":2570796.1799999997}},{"attributes":{"ID":466160,"DIS_CODE":0,"TOWNNAME":"學甲區","LI":"新達里","LIN":"5鄰","STREET":"華宗路","SECT":" ","MAREA":" ","LANE":" ","ALLEY":" ","HOUSE_NO":"５５５號","E_COORD97":166408.23999999999,"N_COORD97":2570799.9399999999,"ADDRESS":"華宗路５５５號","OBJECTID":466135},"geometry":{"x":166408.24000000209,"y":2570799.9399999995}},{"attributes":{"ID":466161,"DIS_CODE":0,"TOWNNAME":"學甲區","LI":"新達里","LIN":"5鄰","STREET":"華宗路","SECT":" ","MAREA":" ","LANE":" ","ALLEY":" ","HOUSE_NO":"５６３號","E_COORD97":166412.95000000001,"N_COORD97":2570817.4399999999,"ADDRESS":"華宗路５６３號","OBJECTID":466136},"geometry":{"x":166412.95000000019,"y":2570817.4399999995}},{"attributes":{"ID":466162,"DIS_CODE":0,"TOWNNAME":"學甲區","LI":"新達里","LIN":"5鄰","STREET":"華宗路","SECT":" ","MAREA":" ","LANE":" ","ALLEY":" ","HOUSE_NO":"５６５號","E_COORD97":166412.79999999999,"N_COORD97":2570821.8300000001,"ADDRESS":"華宗路５６５號","OBJECTID":466137},"geometry":{"x":166412.80000000075,"y":2570821.8300000001}},{"attributes":{"ID":466163,"DIS_CODE":0,"TOWNNAME":"學甲區","LI":"新達里","LIN":"5鄰","STREET":"華宗路","SECT":" ","MAREA":" ","LANE":" ","ALLEY":" ","HOUSE_NO":"５７７號","E_COORD97":166416.5,"N_COORD97":2570843.5099999998,"ADDRESS":"華宗路５７７號","OBJECTID":466138},"geometry":{"x":166416.50000000186,"y":2570843.5100000016}},{"attributes":{"ID":466164,"DIS_CODE":0,"TOWNNAME":"學甲區","LI":"仁得里","LIN":"5鄰","STREET":"廣文路","SECT":" ","MAREA":" ","LANE":" ","ALLEY":" ","HOUSE_NO":"１６號","E_COORD97":166291.98000000001,"N_COORD97":2570195.4700000002,"ADDRESS":"廣文路１６號","OBJECTID":466139},"geometry":{"x":166291.98000000138,"y":2570195.4700000044}},{"attributes":{"ID":466165,"DIS_CODE":0,"TOWNNAME":"學甲區","LI":"仁得里","LIN":"5鄰","STREET":"廣文路","SECT":" ","MAREA":" ","LANE":" ","ALLEY":" ","HOUSE_NO":"１８號","E_COORD97":166283.44,"N_COORD97":2570201.3900000001,"ADDRESS":"廣文路１８號","OBJECTID":466140},"geometry":{"x":166283.44000000227,"y":2570201.3900000006}},{"attributes":{"ID":466166,"DIS_CODE":0,"TOWNNAME":"學甲區","LI":"仁得里","LIN":"5鄰","STREET":"廣文路","SECT":" ","MAREA":" ","LANE":" ","ALLEY":" ","HOUSE_NO":"２０號之１","E_COORD97":166274.88,"N_COORD97":2570219.02,"ADDRESS":"廣文路２０號之１","OBJECTID":466141},"geometry":{"x":166274.88000000082,"y":2570219.0200000014}},{"attributes":{"ID":466167,"DIS_CODE":0,"TOWNNAME":"學甲區","LI":"仁得里","LIN":"5鄰","STREET":"廣文路","SECT":" ","MAREA":" ","LANE":" ","ALLEY":" ","HOUSE_NO":"２０號之２","E_COORD97":166275.53,"N_COORD97":2570223.3500000001,"ADDRESS":"廣文路２０號之２","OBJECTID":466142},"geometry":{"x":166275.53000000026,"y":2570223.3500000015}},{"attributes":{"ID":466168,"DIS_CODE":0,"TOWNNAME":"學甲區","LI":"仁得里","LIN":"5鄰","STREET":"廣文路","SECT":" ","MAREA":" ","LANE":" ","ALLEY":" ","HOUSE_NO":"２０號之３","E_COORD97":166276.70000000001,"N_COORD97":2570227.3300000001,"ADDRESS":"廣文路２０號之３","OBJECTID":466143},"geometry":{"x":166276.70000000112,"y":2570227.3300000019}},{"attributes":{"ID":466169,"DIS_CODE":0,"TOWNNAME":"學甲區","LI":"仁得里","LIN":"5鄰","STREET":"廣文路","SECT":" ","MAREA":" ","LANE":" ","ALLEY":" ","HOUSE_NO":"２０號之４","E_COORD97":166277.35999999999,"N_COORD97":2570231.6800000002,"ADDRESS":"廣文路２０號之４","OBJECTID":466144},"geometry":{"x":166277.36000000127,"y":2570231.6800000016}},{"attributes":{"ID":466170,"DIS_CODE":0,"TOWNNAME":"學甲區","LI":"仁得里","LIN":"5鄰","STREET":"廣文路","SECT":" ","MAREA":" ","LANE":" ","ALLEY":" ","HOUSE_NO":"２０號","E_COORD97":166277,"N_COORD97":2570202.02,"ADDRESS":"廣文路２０號","OBJECTID":466145},"geometry":{"x":166277,"y":2570202.0200000014}},{"attributes":{"ID":466171,"DIS_CODE":0,"TOWNNAME":"學甲區","LI":"仁得里","LIN":"5鄰","STREET":"廣文路","SECT":" ","MAREA":" ","LANE":" ","ALLEY":" ","HOUSE_NO":"２２號之１","E_COORD97":166258.35000000001,"N_COORD97":2570203.0899999999,"ADDRESS":"廣文路２２號之１","OBJECTID":466146},"geometry":{"x":166258.35000000056,"y":2570203.0899999999}},{"attributes":{"ID":466172,"DIS_CODE":0,"TOWNNAME":"學甲區","LI":"仁得里","LIN":"5鄰","STREET":"廣文路","SECT":" ","MAREA":" ","LANE":" ","ALLEY":" ","HOUSE_NO":"２２號","E_COORD97":166265.66,"N_COORD97":2570202.96,"ADDRESS":"廣文路２２號","OBJECTID":466147},"geometry":{"x":166265.66000000015,"y":2570202.9600000028}},{"attributes":{"ID":466173,"DIS_CODE":0,"TOWNNAME":"學甲區","LI":"仁得里","LIN":"5鄰","STREET":"廣文路","SECT":" ","MAREA":" ","LANE":" ","ALLEY":" ","HOUSE_NO":"２４號","E_COORD97":166253.82999999999,"N_COORD97":2570204.1800000002,"ADDRESS":"廣文路２４號","OBJECTID":466148},"geometry":{"x":166253.83000000101,"y":2570204.1800000016}},{"attributes":{"ID":466174,"DIS_CODE":0,"TOWNNAME":"學甲區","LI":"仁得里","LIN":"5鄰","STREET":"濟生路","SECT":" ","MAREA":" ","LANE":" ","ALLEY":" ","HOUSE_NO":"１０１號之２","E_COORD97":166253.98000000001,"N_COORD97":2570267.3500000001,"ADDRESS":"濟生路１０１號之２","OBJECTID":466149},"geometry":{"x":166253.98000000045,"y":2570267.3500000015}},{"attributes":{"ID":466175,"DIS_CODE":0,"TOWNNAME":"學甲區","LI":"仁得里","LIN":"5鄰","STREET":"濟生路","SECT":" ","MAREA":" ","LANE":" ","ALLEY":" ","HOUSE_NO":"１０３號之１","E_COORD97":166246.64999999999,"N_COORD97":2570264.1699999999,"ADDRESS":"濟生路１０３號之１","OBJECTID":466150},"geometry":{"x":166246.6500000013,"y":2570264.1699999999}},{"attributes":{"ID":466176,"DIS_CODE":0,"TOWNNAME":"學甲區","LI":"仁得里","LIN":"5鄰","STREET":"濟生路","SECT":" ","MAREA":" ","LANE":" ","ALLEY":" ","HOUSE_NO":"１０３號","E_COORD97":166238.37,"N_COORD97":2570267.8900000001,"ADDRESS":"濟生路１０３號","OBJECTID":466151},"geometry":{"x":166238.37000000104,"y":2570267.8900000025}},{"attributes":{"ID":466177,"DIS_CODE":0,"TOWNNAME":"學甲區","LI":"仁得里","LIN":"5鄰","STREET":"濟生路","SECT":" ","MAREA":" ","LANE":" ","ALLEY":" ","HOUSE_NO":"８７號","E_COORD97":166289.20999999999,"N_COORD97":2570258.1200000001,"ADDRESS":"濟生路８７號","OBJECTID":466152},"geometry":{"x":166289.20999999996,"y":2570258.120000001}},{"attributes":{"ID":466178,"DIS_CODE":0,"TOWNNAME":"學甲區","LI":"仁得里","LIN":"5鄰","STREET":"濟生路","SECT":" ","MAREA":" ","LANE":" ","ALLEY":" ","HOUSE_NO":"８９號","E_COORD97":166283.42999999999,"N_COORD97":2570259.6699999999,"ADDRESS":"濟生路８９號","OBJECTID":466153},"geometry":{"x":166283.43000000063,"y":2570259.6699999999}},{"attributes":{"ID":466179,"DIS_CODE":0,"TOWNNAME":"學甲區","LI":"仁得里","LIN":"5鄰","STREET":"濟生路","SECT":" ","MAREA":" ","LANE":" ","ALLEY":" ","HOUSE_NO":"９５號","E_COORD97":166274.95000000001,"N_COORD97":2570260.3999999999,"ADDRESS":"濟生路９５號","OBJECTID":466154},"geometry":{"x":166274.95000000112,"y":2570260.4000000022}},{"attributes":{"ID":466180,"DIS_CODE":0,"TOWNNAME":"學甲區","LI":"仁得里","LIN":"5鄰","STREET":"濟生路","SECT":" ","MAREA":" ","LANE":" ","ALLEY":" ","HOUSE_NO":"９７號","E_COORD97":166266.85999999999,"N_COORD97":2570262.2999999998,"ADDRESS":"濟生路９７號","OBJECTID":466155},"geometry":{"x":166266.8600000022,"y":2570262.3000000026}},{"attributes":{"ID":466181,"DIS_CODE":0,"TOWNNAME":"學甲區","LI":"仁得里","LIN":"5鄰","STREET":"濟生路","SECT":" ","MAREA":" ","LANE":" ","ALLEY":" ","HOUSE_NO":"９９號之１","E_COORD97":166257.98000000001,"N_COORD97":2570265.0600000001,"ADDRESS":"濟生路９９號之１","OBJECTID":466156},"geometry":{"x":166257.98000000138,"y":2570265.0600000005}},{"attributes":{"ID":466182,"DIS_CODE":0,"TOWNNAME":"東區","LI":"崇信里","LIN":"4鄰","STREET":"中華東路","SECT":"三段","MAREA":" ","LANE":" ","ALLEY":" ","HOUSE_NO":"１０號","E_COORD97":170944.56,"N_COORD97":2542372.5099999998,"ADDRESS":"中華東路三段１０號","OBJECTID":466157},"geometry":{"x":170944.55999999959,"y":2542372.5099999998}},{"attributes":{"ID":466183,"DIS_CODE":0,"TOWNNAME":"東區","LI":"崇信里","LIN":"4鄰","STREET":"中華東路","SECT":"三段","MAREA":" ","LANE":" ","ALLEY":" ","HOUSE_NO":"１２號","E_COORD97":170940.89000000001,"N_COORD97":2542369.1800000002,"ADDRESS":"中華東路三段１２號","OBJECTID":466158},"geometry":{"x":170940.88999999966,"y":2542369.1800000016}},{"attributes":{"ID":466184,"DIS_CODE":0,"TOWNNAME":"學甲區","LI":"仁得里","LIN":"5鄰","STREET":"濟生路","SECT":" ","MAREA":" ","LANE":" ","ALLEY":" ","HOUSE_NO":"９９號","E_COORD97":166261.85000000001,"N_COORD97":2570265.1200000001,"ADDRESS":"濟生路９９號","OBJECTID":466159},"geometry":{"x":166261.85000000056,"y":2570265.120000001}},{"attributes":{"ID":466185,"DIS_CODE":0,"TOWNNAME":"學甲區","LI":"新達里","LIN":"5鄰","STREET":"中正路","SECT":" ","MAREA":" ","LANE":" ","ALLEY":" ","HOUSE_NO":"４５０號","E_COORD97":166423.44,"N_COORD97":2570857.9900000002,"ADDRESS":"中正路４５０號","OBJECTID":466160},"geometry":{"x":166423.44000000041,"y":2570857.9900000002}},{"attributes":{"ID":466186,"DIS_CODE":0,"TOWNNAME":"六甲區","LI":"七甲里","LIN":"5鄰","STREET":"七甲街","SECT":" ","MAREA":" ","LANE":" ","ALLEY":" ","HOUSE_NO":"１２８號","E_COORD97":183012.04999999999,"N_COORD97":2569038.8900000001,"ADDRESS":"七甲街１２８號","OBJECTID":466161},"geometry":{"x":183012.05000000075,"y":2569038.8900000006}},{"attributes":{"ID":466187,"DIS_CODE":0,"TOWNNAME":"六甲區","LI":"七甲里","LIN":"5鄰","STREET":"七甲街","SECT":" ","MAREA":" ","LANE":" ","ALLEY":" ","HOUSE_NO":"１３２號","E_COORD97":182994.89999999999,"N_COORD97":2569067.4100000001,"ADDRESS":"七甲街１３２號","OBJECTID":466162},"geometry":{"x":182994.9000000013,"y":2569067.410000002}},{"attributes":{"ID":466188,"DIS_CODE":0,"TOWNNAME":"六甲區","LI":"七甲里","LIN":"5鄰","STREET":"七甲街","SECT":" ","MAREA":" ","LANE":" ","ALLEY":" ","HOUSE_NO":"１３４號","E_COORD97":182996,"N_COORD97":2569070.8599999999,"ADDRESS":"七甲街１３４號","OBJECTID":466163},"geometry":{"x":182996.00000000093,"y":2569070.8600000013}},{"attributes":{"ID":466189,"DIS_CODE":0,"TOWNNAME":"六甲區","LI":"七甲里","LIN":"5鄰","STREET":"七甲街","SECT":" ","MAREA":" ","LANE":" ","ALLEY":" ","HOUSE_NO":"１３６號","E_COORD97":182996.67000000001,"N_COORD97":2569075.79,"ADDRESS":"七甲街１３６號","OBJECTID":466164},"geometry":{"x":182996.66999999993,"y":2569075.7899999991}},{"attributes":{"ID":466190,"DIS_CODE":0,"TOWNNAME":"六甲區","LI":"七甲里","LIN":"5鄰","STREET":"七甲街","SECT":" ","MAREA":" ","LANE":" ","ALLEY":" ","HOUSE_NO":"１３８號","E_COORD97":182997.20999999999,"N_COORD97":2569079.8300000001,"ADDRESS":"七甲街１３８號","OBJECTID":466165},"geometry":{"x":182997.20999999903,"y":2569079.8300000001}},{"attributes":{"ID":466191,"DIS_CODE":0,"TOWNNAME":"六甲區","LI":"七甲里","LIN":"5鄰","STREET":"七甲街","SECT":" ","MAREA":" ","LANE":" ","ALLEY":" ","HOUSE_NO":"１４０號","E_COORD97":182996.63,"N_COORD97":2569083.2799999998,"ADDRESS":"七甲街１４０號","OBJECTID":466166},"geometry":{"x":182996.63000000082,"y":2569083.2800000031}},{"attributes":{"ID":466192,"DIS_CODE":0,"TOWNNAME":"六甲區","LI":"七甲里","LIN":"5鄰","STREET":"七甲街","SECT":" ","MAREA":" ","LANE":" ","ALLEY":" ","HOUSE_NO":"１４２號","E_COORD97":182997.17999999999,"N_COORD97":2569086.9700000002,"ADDRESS":"七甲街１４２號","OBJECTID":466167},"geometry":{"x":182997.18000000156,"y":2569086.9700000044}},{"attributes":{"ID":466193,"DIS_CODE":0,"TOWNNAME":"六甲區","LI":"七甲里","LIN":"5鄰","STREET":"七甲街","SECT":" ","MAREA":" ","LANE":" ","ALLEY":" ","HOUSE_NO":"１４４號","E_COORD97":182997.51999999999,"N_COORD97":2569090.9100000001,"ADDRESS":"七甲街１４４號","OBJECTID":466168},"geometry":{"x":182997.51999999955,"y":2569090.910000002}},{"attributes":{"ID":466194,"DIS_CODE":0,"TOWNNAME":"六甲區","LI":"七甲里","LIN":"5鄰","STREET":"七甲街","SECT":" ","MAREA":" ","LANE":" ","ALLEY":" ","HOUSE_NO":"１４６號","E_COORD97":182997.98000000001,"N_COORD97":2569095.02,"ADDRESS":"七甲街１４６號","OBJECTID":466169},"geometry":{"x":182997.98000000138,"y":2569095.0199999996}},{"attributes":{"ID":466195,"DIS_CODE":0,"TOWNNAME":"六甲區","LI":"七甲里","LIN":"5鄰","STREET":"七甲街","SECT":" ","MAREA":" ","LANE":" ","ALLEY":" ","HOUSE_NO":"１４８號","E_COORD97":182998.88,"N_COORD97":2569099.6000000001,"ADDRESS":"七甲街１４８號","OBJECTID":466170},"geometry":{"x":182998.87999999989,"y":2569099.6000000015}},{"attributes":{"ID":466196,"DIS_CODE":0,"TOWNNAME":"六甲區","LI":"七甲里","LIN":"5鄰","STREET":"七甲街","SECT":" ","MAREA":" ","LANE":" ","ALLEY":" ","HOUSE_NO":"１５６號","E_COORD97":183005.72,"N_COORD97":2569127.6200000001,"ADDRESS":"七甲街１５６號","OBJECTID":466171},"geometry":{"x":183005.72000000067,"y":2569127.6200000029}},{"attributes":{"ID":466197,"DIS_CODE":0,"TOWNNAME":"六甲區","LI":"七甲里","LIN":"5鄰","STREET":"七甲街","SECT":" ","MAREA":" ","LANE":" ","ALLEY":" ","HOUSE_NO":"１５８號","E_COORD97":183008.32000000001,"N_COORD97":2569132.48,"ADDRESS":"七甲街１５８號","OBJECTID":466172},"geometry":{"x":183008.3200000003,"y":2569132.4800000004}},{"attributes":{"ID":466198,"DIS_CODE":0,"TOWNNAME":"北區","LI":"三德里","LIN":"5鄰","STREET":"裕民街","SECT":" ","MAREA":" ","LANE":" ","ALLEY":" ","HOUSE_NO":"５０號","E_COORD97":168474.32000000001,"N_COORD97":2544464.27,"ADDRESS":"裕民街５０號","OBJECTID":466173},"geometry":{"x":168474.32000000216,"y":2544464.2700000014}},{"attributes":{"ID":466199,"DIS_CODE":0,"TOWNNAME":"北區","LI":"三德里","LIN":"5鄰","STREET":"裕民街","SECT":" ","MAREA":" ","LANE":" ","ALLEY":" ","HOUSE_NO":"５６號","E_COORD97":168482.78,"N_COORD97":2544473.9300000002,"ADDRESS":"裕民街５６號","OBJECTID":466174},"geometry":{"x":168482.77999999933,"y":2544473.9299999997}},{"attributes":{"ID":466200,"DIS_CODE":0,"TOWNNAME":"北區","LI":"文成里","LIN":"5鄰","STREET":"文賢路","SECT":" ","MAREA":" ","LANE":" ","ALLEY":" ","HOUSE_NO":"６０８號","E_COORD97":167375.39000000001,"N_COORD97":2545502.7599999998,"ADDRESS":"文賢路６０８號","OBJECTID":466175},"geometry":{"x":167375.3900000006,"y":2545502.7599999998}},{"attributes":{"ID":466201,"DIS_CODE":0,"TOWNNAME":"北區","LI":"文成里","LIN":"5鄰","STREET":"文賢路","SECT":" ","MAREA":" ","LANE":" ","ALLEY":" ","HOUSE_NO":"６１２號","E_COORD97":167376.14999999999,"N_COORD97":2545512.8599999999,"ADDRESS":"文賢路６１２號","OBJECTID":466176},"geometry":{"x":167376.15000000037,"y":2545512.8600000031}},{"attributes":{"ID":466202,"DIS_CODE":0,"TOWNNAME":"北區","LI":"三德里","LIN":"5鄰","STREET":"裕民街","SECT":" ","MAREA":" ","LANE":" ","ALLEY":" ","HOUSE_NO":"６４號","E_COORD97":168488.79999999999,"N_COORD97":2544487.0699999998,"ADDRESS":"裕民街６４號","OBJECTID":466177},"geometry":{"x":168488.79999999981,"y":2544487.0700000003}},{"attributes":{"ID":466203,"DIS_CODE":0,"TOWNNAME":"北區","LI":"文成里","LIN":"5鄰","STREET":"文賢路","SECT":" ","MAREA":" ","LANE":" ","ALLEY":" ","HOUSE_NO":"５９２號","E_COORD97":167372.69,"N_COORD97":2545467.0899999999,"ADDRESS":"文賢路５９２號","OBJECTID":466178},"geometry":{"x":167372.69000000041,"y":2545467.0899999999}},{"attributes":{"ID":466204,"DIS_CODE":0,"TOWNNAME":"北區","LI":"文成里","LIN":"5鄰","STREET":"文賢路","SECT":" ","MAREA":" ","LANE":" ","ALLEY":" ","HOUSE_NO":"５９８號","E_COORD97":167373.07999999999,"N_COORD97":2545479.6600000001,"ADDRESS":"文賢路５９８號","OBJECTID":466179},"geometry":{"x":167373.08000000007,"y":2545479.6600000001}},{"attributes":{"ID":466205,"DIS_CODE":0,"TOWNNAME":"北區","LI":"文成里","LIN":"5鄰","STREET":"文賢路","SECT":" ","MAREA":" ","LANE":" ","ALLEY":" ","HOUSE_NO":"６０２號","E_COORD97":167373.26999999999,"N_COORD97":2545489.1800000002,"ADDRESS":"文賢路６０２號","OBJECTID":466180},"geometry":{"x":167373.26999999955,"y":2545489.1799999997}},{"attributes":{"ID":466206,"DIS_CODE":0,"TOWNNAME":"北區","LI":"文成里","LIN":"5鄰","STREET":"文賢路","SECT":" ","MAREA":" ","LANE":" ","ALLEY":" ","HOUSE_NO":"６０６號","E_COORD97":167373.26999999999,"N_COORD97":2545495.8500000001,"ADDRESS":"文賢路６０６號","OBJECTID":466181},"geometry":{"x":167373.26999999955,"y":2545495.8499999996}},{"attributes":{"ID":466207,"DIS_CODE":0,"TOWNNAME":"北區","LI":"文成里","LIN":"5鄰","STREET":"文賢路","SECT":" ","MAREA":" ","LANE":" ","ALLEY":" ","HOUSE_NO":"５７８號","E_COORD97":167369.64000000001,"N_COORD97":2545435.5699999998,"ADDRESS":"文賢路５７８號","OBJECTID":466182},"geometry":{"x":167369.6400000006,"y":2545435.5700000022}},{"attributes":{"ID":466208,"DIS_CODE":0,"TOWNNAME":"北區","LI":"文成里","LIN":"5鄰","STREET":"文賢路","SECT":" ","MAREA":" ","LANE":" ","ALLEY":" ","HOUSE_NO":"５８０號","E_COORD97":167369.64000000001,"N_COORD97":2545439.7599999998,"ADDRESS":"文賢路５８０號","OBJECTID":466183},"geometry":{"x":167369.6400000006,"y":2545439.7600000016}},{"attributes":{"ID":466209,"DIS_CODE":0,"TOWNNAME":"北區","LI":"文成里","LIN":"5鄰","STREET":"文賢路","SECT":" ","MAREA":" ","LANE":" ","ALLEY":" ","HOUSE_NO":"５８２號","E_COORD97":167369.45000000001,"N_COORD97":2545444.52,"ADDRESS":"文賢路５８２號","OBJECTID":466184},"geometry":{"x":167369.45000000019,"y":2545444.5200000014}},{"attributes":{"ID":466210,"DIS_CODE":0,"TOWNNAME":"東區","LI":"崇信里","LIN":"6鄰","STREET":"崇信街","SECT":" ","MAREA":" ","LANE":" ","ALLEY":" ","HOUSE_NO":"４７號","E_COORD97":170726.95999999999,"N_COORD97":2542447.1699999999,"ADDRESS":"崇信街４７號","OBJECTID":466185},"geometry":{"x":170726.95999999996,"y":2542447.1700000018}},{"attributes":{"ID":466211,"DIS_CODE":0,"TOWNNAME":"東區","LI":"崇信里","LIN":"6鄰","STREET":"崇信街","SECT":" ","MAREA":" ","LANE":" ","ALLEY":" ","HOUSE_NO":"４９號","E_COORD97":170731.34,"N_COORD97":2542439.25,"ADDRESS":"崇信街４９號","OBJECTID":466186},"geometry":{"x":170731.33999999985,"y":2542439.2500000037}},{"attributes":{"ID":466212,"DIS_CODE":0,"TOWNNAME":"東區","LI":"崇信里","LIN":"9鄰","STREET":"崇信街","SECT":" ","MAREA":" ","LANE":" ","ALLEY":" ","HOUSE_NO":"５３號","E_COORD97":170735.89999999999,"N_COORD97":2542420.1699999999,"ADDRESS":"崇信街５３號","OBJECTID":466187},"geometry":{"x":170735.9000000013,"y":2542420.1700000018}},{"attributes":{"ID":466213,"DIS_CODE":0,"TOWNNAME":"東區","LI":"崇信里","LIN":"9鄰","STREET":"崇信街","SECT":" ","MAREA":" ","LANE":" ","ALLEY":" ","HOUSE_NO":"５５號","E_COORD97":170738.17000000001,"N_COORD97":2542415.6499999999,"ADDRESS":"崇信街５５號","OBJECTID":466188},"geometry":{"x":170738.17000000086,"y":2542415.6500000004}},{"attributes":{"ID":466214,"DIS_CODE":0,"TOWNNAME":"東區","LI":"崇信里","LIN":"9鄰","STREET":"崇信街","SECT":" ","MAREA":" ","LANE":" ","ALLEY":" ","HOUSE_NO":"５７號","E_COORD97":170738.42000000001,"N_COORD97":2542411.6299999999,"ADDRESS":"崇信街５７號","OBJECTID":466189},"geometry":{"x":170738.42000000086,"y":2542411.6299999971}},{"attributes":{"ID":466215,"DIS_CODE":0,"TOWNNAME":"北區","LI":"大豐里","LIN":"5鄰","STREET":"武聖路","SECT":" ","MAREA":" ","LANE":" ","ALLEY":" ","HOUSE_NO":"１３２號","E_COORD97":167008.88,"N_COORD97":2545231.2799999998,"ADDRESS":"武聖路１３２號","OBJECTID":466190},"geometry":{"x":167008.88000000082,"y":2545231.2799999993}},{"attributes":{"ID":466216,"DIS_CODE":0,"TOWNNAME":"北區","LI":"大豐里","LIN":"5鄰","STREET":"武聖路","SECT":" ","MAREA":" ","LANE":" ","ALLEY":" ","HOUSE_NO":"１４４號","E_COORD97":166983.79000000001,"N_COORD97":2545244.4100000001,"ADDRESS":"武聖路１４４號","OBJECTID":466191},"geometry":{"x":166983.79000000004,"y":2545244.4100000001}},{"attributes":{"ID":466217,"DIS_CODE":0,"TOWNNAME":"北區","LI":"六甲里","LIN":"5鄰","STREET":"公園路","SECT":" ","MAREA":" ","LANE":" ","ALLEY":" ","HOUSE_NO":"５６９號","E_COORD97":169087.42000000001,"N_COORD97":2545668.0099999998,"ADDRESS":"公園路５６９號","OBJECTID":466192},"geometry":{"x":169087.42000000086,"y":2545668.0099999979}},{"attributes":{"ID":466218,"DIS_CODE":0,"TOWNNAME":"北區","LI":"安民里","LIN":"5鄰","STREET":"康樂街","SECT":" ","MAREA":" ","LANE":" ","ALLEY":" ","HOUSE_NO":"４０８號","E_COORD97":167784.07000000001,"N_COORD97":2544725.8700000001,"ADDRESS":"康樂街４０８號","OBJECTID":466193},"geometry":{"x":167784.0700000003,"y":2544725.8700000029}},{"attributes":{"ID":466219,"DIS_CODE":0,"TOWNNAME":"北區","LI":"安民里","LIN":"5鄰","STREET":"康樂街","SECT":" ","MAREA":" ","LANE":" ","ALLEY":" ","HOUSE_NO":"４１０號","E_COORD97":167786.98999999999,"N_COORD97":2544731.2799999998,"ADDRESS":"康樂街４１０號","OBJECTID":466194},"geometry":{"x":167786.99000000115,"y":2544731.2800000012}},{"attributes":{"ID":466220,"DIS_CODE":0,"TOWNNAME":"北區","LI":"安民里","LIN":"5鄰","STREET":"康樂街","SECT":" ","MAREA":" ","LANE":" ","ALLEY":" ","HOUSE_NO":"４１２號","E_COORD97":167788.23999999999,"N_COORD97":2544733.5699999998,"ADDRESS":"康樂街４１２號","OBJECTID":466195},"geometry":{"x":167788.24000000209,"y":2544733.5700000022}},{"attributes":{"ID":466221,"DIS_CODE":0,"TOWNNAME":"北區","LI":"安民里","LIN":"5鄰","STREET":"康樂街","SECT":" ","MAREA":" ","LANE":" ","ALLEY":" ","HOUSE_NO":"４１４號","E_COORD97":167790.95000000001,"N_COORD97":2544737.1099999999,"ADDRESS":"康樂街４１４號","OBJECTID":466196},"geometry":{"x":167790.95000000019,"y":2544737.1099999994}},{"attributes":{"ID":466222,"DIS_CODE":0,"TOWNNAME":"北區","LI":"安民里","LIN":"5鄰","STREET":"康樂街","SECT":" ","MAREA":" ","LANE":" ","ALLEY":" ","HOUSE_NO":"４１６號","E_COORD97":167792.62,"N_COORD97":2544740.4500000002,"ADDRESS":"康樂街４１６號","OBJECTID":466197},"geometry":{"x":167792.62000000104,"y":2544740.4500000011}},{"attributes":{"ID":466223,"DIS_CODE":0,"TOWNNAME":"北區","LI":"安民里","LIN":"5鄰","STREET":"康樂街","SECT":" ","MAREA":" ","LANE":" ","ALLEY":" ","HOUSE_NO":"４１８號","E_COORD97":167794.29000000001,"N_COORD97":2544744.1899999999,"ADDRESS":"康樂街４１８號","OBJECTID":466198},"geometry":{"x":167794.28999999911,"y":2544744.1899999995}},{"attributes":{"ID":466224,"DIS_CODE":0,"TOWNNAME":"北區","LI":"安民里","LIN":"5鄰","STREET":"康樂街","SECT":" ","MAREA":" ","LANE":" ","ALLEY":" ","HOUSE_NO":"４２０號","E_COORD97":167797.62,"N_COORD97":2544746.4900000002,"ADDRESS":"康樂街４２０號","OBJECTID":466199},"geometry":{"x":167797.62000000104,"y":2544746.4899999984}},{"attributes":{"ID":466225,"DIS_CODE":0,"TOWNNAME":"北區","LI":"安民里","LIN":"5鄰","STREET":"康樂街","SECT":" ","MAREA":" ","LANE":" ","ALLEY":" ","HOUSE_NO":"４２２號","E_COORD97":167798.66,"N_COORD97":2544750.23,"ADDRESS":"康樂街４２２號","OBJECTID":466200},"geometry":{"x":167798.65999999922,"y":2544750.2300000023}}]}