{"displayFieldName":"TOWNNAME","fieldAliases":{"ID":"ID","DIS_CODE":"DIS_CODE","TOWNNAME":"TOWNNAME","LI":"LI","LIN":"LIN","STREET":"STREET","SECT":"SECT","MAREA":"MAREA","LANE":"LANE","ALLEY":"ALLEY","HOUSE_NO":"HOUSE_NO","E_COORD97":"E_COORD97","N_COORD97":"N_COORD97","ADDRESS":"ADDRESS","OBJECTID":"OBJECTID"},"geometryType":"esriGeometryPoint","spatialReference":{"wkid":102443,"latestWkid":3826},"fields":[{"name":"ID","type":"esriFieldTypeDouble","alias":"ID"},{"name":"DIS_CODE","type":"esriFieldTypeInteger","alias":"DIS_CODE"},{"name":"TOWNNAME","type":"esriFieldTypeString","alias":"TOWNNAME","length":8},{"name":"LI","type":"esriFieldTypeString","alias":"LI","length":8},{"name":"LIN","type":"esriFieldTypeString","alias":"LIN","length":12},{"name":"STREET","type":"esriFieldTypeString","alias":"STREET","length":20},{"name":"SECT","type":"esriFieldTypeString","alias":"SECT","length":8},{"name":"MAREA","type":"esriFieldTypeString","alias":"MAREA","length":12},{"name":"LANE","type":"esriFieldTypeString","alias":"LANE","length":10},{"name":"ALLEY","type":"esriFieldTypeString","alias":"ALLEY","length":10},{"name":"HOUSE_NO","type":"esriFieldTypeString","alias":"HOUSE_NO","length":20},{"name":"E_COORD97","type":"esriFieldTypeDouble","alias":"E_COORD97"},{"name":"N_COORD97","type":"esriFieldTypeDouble","alias":"N_COORD97"},{"name":"ADDRESS","type":"esriFieldTypeString","alias":"ADDRESS","length":50},{"name":"OBJECTID","type":"esriFieldTypeOID","alias":"OBJECTID"}],"features":[{"attributes":{"ID":252605,"DIS_CODE":0,"TOWNNAME":"南區","LI":"文南里","LIN":"24鄰","STREET":"永南四街","SECT":" ","MAREA":" ","LANE":" ","ALLEY":" ","HOUSE_NO":"６號","E_COORD97":166907.92000000001,"N_COORD97":2542745.6600000001,"ADDRESS":"永南四街６號","OBJECTID":252601},"geometry":{"x":166907.91999999993,"y":2542745.660000002}},{"attributes":{"ID":252606,"DIS_CODE":0,"TOWNNAME":"南區","LI":"大忠里","LIN":"24鄰","STREET":"公英一街","SECT":" ","MAREA":" ","LANE":" ","ALLEY":" ","HOUSE_NO":"６２號","E_COORD97":169323.09,"N_COORD97":2541251.5099999998,"ADDRESS":"公英一街６２號","OBJECTID":252602},"geometry":{"x":169323.09000000078,"y":2541251.5100000016}},{"attributes":{"ID":252607,"DIS_CODE":0,"TOWNNAME":"南區","LI":"大忠里","LIN":"24鄰","STREET":"公英一街","SECT":" ","MAREA":" ","LANE":" ","ALLEY":" ","HOUSE_NO":"６４號","E_COORD97":169307.20999999999,"N_COORD97":2541248.1800000002,"ADDRESS":"公英一街６４號","OBJECTID":252603},"geometry":{"x":169307.21000000089,"y":2541248.1799999997}},{"attributes":{"ID":252608,"DIS_CODE":0,"TOWNNAME":"南區","LI":"廣州里","LIN":"24鄰","STREET":"金華路","SECT":"二段","MAREA":" ","LANE":" ","ALLEY":" ","HOUSE_NO":"２９２號","E_COORD97":167133.12,"N_COORD97":2542578.6699999999,"ADDRESS":"金華路二段２９２號","OBJECTID":252604},"geometry":{"x":167133.12000000104,"y":2542578.6700000037}},{"attributes":{"ID":252609,"DIS_CODE":0,"TOWNNAME":"南區","LI":"大忠里","LIN":"24鄰","STREET":"公英一街","SECT":" ","MAREA":" ","LANE":" ","ALLEY":" ","HOUSE_NO":"６８號","E_COORD97":169291.89999999999,"N_COORD97":2541248.73,"ADDRESS":"公英一街６８號","OBJECTID":252605},"geometry":{"x":169291.90000000037,"y":2541248.7300000004}},{"attributes":{"ID":252610,"DIS_CODE":0,"TOWNNAME":"南區","LI":"文南里","LIN":"24鄰","STREET":"育南街","SECT":" ","MAREA":" ","LANE":" ","ALLEY":" ","HOUSE_NO":"７６號","E_COORD97":166887.57000000001,"N_COORD97":2542774.5499999998,"ADDRESS":"育南街７６號","OBJECTID":252606},"geometry":{"x":166887.57000000216,"y":2542774.5500000026}},{"attributes":{"ID":252611,"DIS_CODE":0,"TOWNNAME":"安平區","LI":"怡平里","LIN":"24鄰","STREET":"文平路","SECT":" ","MAREA":" ","LANE":" ","ALLEY":" ","HOUSE_NO":"３７１號","E_COORD97":165771.91,"N_COORD97":2543615.3900000001,"ADDRESS":"文平路３７１號","OBJECTID":252607},"geometry":{"x":165771.91000000108,"y":2543615.3900000043}},{"attributes":{"ID":252612,"DIS_CODE":0,"TOWNNAME":"安平區","LI":"怡平里","LIN":"24鄰","STREET":"文平路","SECT":" ","MAREA":" ","LANE":" ","ALLEY":" ","HOUSE_NO":"３７３號","E_COORD97":165772.64000000001,"N_COORD97":2543619.9100000001,"ADDRESS":"文平路３７３號","OBJECTID":252608},"geometry":{"x":165772.64000000153,"y":2543619.9100000001}},{"attributes":{"ID":252613,"DIS_CODE":0,"TOWNNAME":"安平區","LI":"怡平里","LIN":"24鄰","STREET":"文平路","SECT":" ","MAREA":" ","LANE":" ","ALLEY":" ","HOUSE_NO":"３７５號","E_COORD97":165773.22,"N_COORD97":2543624.1400000001,"ADDRESS":"文平路３７５號","OBJECTID":252609},"geometry":{"x":165773.21999999974,"y":2543624.1400000025}},{"attributes":{"ID":252614,"DIS_CODE":0,"TOWNNAME":"安平區","LI":"文平里","LIN":"24鄰","STREET":"建平二街","SECT":" ","MAREA":" ","LANE":" ","ALLEY":" ","HOUSE_NO":"４８號","E_COORD97":166226.22,"N_COORD97":2542821.4399999999,"ADDRESS":"建平二街４８號","OBJECTID":252610},"geometry":{"x":166226.21999999974,"y":2542821.4400000013}},{"attributes":{"ID":252615,"DIS_CODE":0,"TOWNNAME":"安平區","LI":"文平里","LIN":"24鄰","STREET":"建平二街","SECT":" ","MAREA":" ","LANE":" ","ALLEY":" ","HOUSE_NO":"５０號","E_COORD97":166220.82000000001,"N_COORD97":2542822.23,"ADDRESS":"建平二街５０號","OBJECTID":252611},"geometry":{"x":166220.8200000003,"y":2542822.2300000004}},{"attributes":{"ID":252616,"DIS_CODE":0,"TOWNNAME":"安平區","LI":"文平里","LIN":"24鄰","STREET":"建平二街","SECT":" ","MAREA":" ","LANE":" ","ALLEY":" ","HOUSE_NO":"５２號","E_COORD97":166216.38,"N_COORD97":2542822.71,"ADDRESS":"建平二街５２號","OBJECTID":252612},"geometry":{"x":166216.37999999989,"y":2542822.7100000009}},{"attributes":{"ID":252617,"DIS_CODE":0,"TOWNNAME":"安平區","LI":"文平里","LIN":"24鄰","STREET":"建平二街","SECT":" ","MAREA":" ","LANE":" ","ALLEY":" ","HOUSE_NO":"５６號","E_COORD97":166212.25,"N_COORD97":2542823.6600000001,"ADDRESS":"建平二街５６號","OBJECTID":252613},"geometry":{"x":166212.25,"y":2542823.660000002}},{"attributes":{"ID":252618,"DIS_CODE":0,"TOWNNAME":"南區","LI":"建南里","LIN":"11鄰","STREET":"中華南路","SECT":"二段","MAREA":" ","LANE":"１７７巷","ALLEY":" ","HOUSE_NO":"１００號","E_COORD97":167069.51999999999,"N_COORD97":2539895.5600000001,"ADDRESS":"中華南路二段１７７巷１００號","OBJECTID":252614},"geometry":{"x":167069.51999999955,"y":2539895.5600000024}},{"attributes":{"ID":252619,"DIS_CODE":0,"TOWNNAME":"南區","LI":"建南里","LIN":"11鄰","STREET":"中華南路","SECT":"二段","MAREA":" ","LANE":"１７７巷","ALLEY":" ","HOUSE_NO":"１０１號","E_COORD97":167097.87,"N_COORD97":2539895.3700000001,"ADDRESS":"中華南路二段１７７巷１０１號","OBJECTID":252615},"geometry":{"x":167097.87000000104,"y":2539895.370000001}},{"attributes":{"ID":252620,"DIS_CODE":0,"TOWNNAME":"南區","LI":"建南里","LIN":"11鄰","STREET":"中華南路","SECT":"二段","MAREA":" ","LANE":"１７７巷","ALLEY":" ","HOUSE_NO":"１０２號","E_COORD97":167071.20999999999,"N_COORD97":2539891.4300000002,"ADDRESS":"中華南路二段１７７巷１０２號","OBJECTID":252616},"geometry":{"x":167071.21000000089,"y":2539891.4300000034}},{"attributes":{"ID":252621,"DIS_CODE":0,"TOWNNAME":"南區","LI":"建南里","LIN":"11鄰","STREET":"中華南路","SECT":"二段","MAREA":" ","LANE":"１７７巷","ALLEY":" ","HOUSE_NO":"１０３號","E_COORD97":167097.87,"N_COORD97":2539890.5800000001,"ADDRESS":"中華南路二段１７７巷１０３號","OBJECTID":252617},"geometry":{"x":167097.87000000104,"y":2539890.5800000001}},{"attributes":{"ID":252622,"DIS_CODE":0,"TOWNNAME":"南區","LI":"建南里","LIN":"11鄰","STREET":"中華南路","SECT":"二段","MAREA":" ","LANE":"１７７巷","ALLEY":" ","HOUSE_NO":"１０４號","E_COORD97":167069.70999999999,"N_COORD97":2539886.3700000001,"ADDRESS":"中華南路二段１７７巷１０４號","OBJECTID":252618},"geometry":{"x":167069.71000000089,"y":2539886.3699999992}},{"attributes":{"ID":252623,"DIS_CODE":0,"TOWNNAME":"南區","LI":"建南里","LIN":"11鄰","STREET":"中華南路","SECT":"二段","MAREA":" ","LANE":"１７７巷","ALLEY":" ","HOUSE_NO":"１０５號","E_COORD97":167098.38,"N_COORD97":2539885.79,"ADDRESS":"中華南路二段１７７巷１０５號","OBJECTID":252619},"geometry":{"x":167098.37999999989,"y":2539885.790000001}},{"attributes":{"ID":252624,"DIS_CODE":0,"TOWNNAME":"南區","LI":"建南里","LIN":"11鄰","STREET":"中華南路","SECT":"二段","MAREA":" ","LANE":"１７７巷","ALLEY":" ","HOUSE_NO":"１０６號","E_COORD97":167069.51999999999,"N_COORD97":2539882.9900000002,"ADDRESS":"中華南路二段１７７巷１０６號","OBJECTID":252620},"geometry":{"x":167069.51999999955,"y":2539882.9900000021}},{"attributes":{"ID":252625,"DIS_CODE":0,"TOWNNAME":"東區","LI":"崇信里","LIN":"14鄰","STREET":"崇學路","SECT":" ","MAREA":" ","LANE":"１８８巷","ALLEY":" ","HOUSE_NO":"４４號","E_COORD97":170540,"N_COORD97":2542384.8300000001,"ADDRESS":"崇學路１８８巷４４號","OBJECTID":252621},"geometry":{"x":170540,"y":2542384.8300000019}},{"attributes":{"ID":252626,"DIS_CODE":0,"TOWNNAME":"東區","LI":"崇信里","LIN":"14鄰","STREET":"崇學路","SECT":" ","MAREA":" ","LANE":"１８８巷","ALLEY":" ","HOUSE_NO":"４６號","E_COORD97":170536.79999999999,"N_COORD97":2542382.0299999998,"ADDRESS":"崇學路１８８巷４６號","OBJECTID":252622},"geometry":{"x":170536.79999999888,"y":2542382.0299999993}},{"attributes":{"ID":252627,"DIS_CODE":0,"TOWNNAME":"東區","LI":"崇信里","LIN":"14鄰","STREET":"崇學路","SECT":" ","MAREA":" ","LANE":"１８８巷","ALLEY":" ","HOUSE_NO":"４８號","E_COORD97":170533.19,"N_COORD97":2542378.29,"ADDRESS":"崇學路１８８巷４８號","OBJECTID":252623},"geometry":{"x":170533.19000000227,"y":2542378.290000001}},{"attributes":{"ID":252628,"DIS_CODE":0,"TOWNNAME":"永康區","LI":"正強里","LIN":"14鄰","STREET":"自強路","SECT":" ","MAREA":" ","LANE":"１８８巷","ALLEY":" ","HOUSE_NO":"５５號","E_COORD97":173229.85999999999,"N_COORD97":2547329.5800000001,"ADDRESS":"自強路１８８巷５５號","OBJECTID":252624},"geometry":{"x":173229.86000000034,"y":2547329.5800000038}},{"attributes":{"ID":252629,"DIS_CODE":0,"TOWNNAME":"永康區","LI":"正強里","LIN":"14鄰","STREET":"自強路","SECT":" ","MAREA":" ","LANE":"１８８巷","ALLEY":" ","HOUSE_NO":"６３號","E_COORD97":173231.57999999999,"N_COORD97":2547312.0800000001,"ADDRESS":"自強路１８８巷６３號","OBJECTID":252625},"geometry":{"x":173231.58000000007,"y":2547312.0800000001}},{"attributes":{"ID":252630,"DIS_CODE":0,"TOWNNAME":"永康區","LI":"安康里","LIN":"14鄰","STREET":"中華路","SECT":" ","MAREA":" ","LANE":"６１９巷","ALLEY":" ","HOUSE_NO":"７２號","E_COORD97":170901.75,"N_COORD97":2546025,"ADDRESS":"中華路６１９巷７２號","OBJECTID":252626},"geometry":{"x":170901.74999999907,"y":2546025.0000000019}},{"attributes":{"ID":252631,"DIS_CODE":0,"TOWNNAME":"永康區","LI":"正強里","LIN":"14鄰","STREET":"自強路","SECT":" ","MAREA":" ","LANE":"１８８巷","ALLEY":" ","HOUSE_NO":"４５號","E_COORD97":173226.14999999999,"N_COORD97":2547352.0899999999,"ADDRESS":"自強路１８８巷４５號","OBJECTID":252627},"geometry":{"x":173226.1500000013,"y":2547352.0899999999}},{"attributes":{"ID":252632,"DIS_CODE":0,"TOWNNAME":"永康區","LI":"正強里","LIN":"14鄰","STREET":"自強路","SECT":" ","MAREA":" ","LANE":"１８８巷","ALLEY":" ","HOUSE_NO":"４１號","E_COORD97":173224.81,"N_COORD97":2547360.3399999999,"ADDRESS":"自強路１８８巷４１號","OBJECTID":252628},"geometry":{"x":173224.80999999959,"y":2547360.3399999999}},{"attributes":{"ID":252633,"DIS_CODE":0,"TOWNNAME":"安南區","LI":"州北里","LIN":"14鄰","STREET":"安和路","SECT":"五段","MAREA":" ","LANE":"１７８巷","ALLEY":" ","HOUSE_NO":"５號","E_COORD97":169913.07000000001,"N_COORD97":2551875.1200000001,"ADDRESS":"安和路五段１７８巷５號","OBJECTID":252629},"geometry":{"x":169913.0700000003,"y":2551875.120000001}},{"attributes":{"ID":252634,"DIS_CODE":0,"TOWNNAME":"安南區","LI":"安東里","LIN":"14鄰","STREET":"安通路","SECT":"三段","MAREA":" ","LANE":"１３０巷","ALLEY":" ","HOUSE_NO":"３２號","E_COORD97":169442.64999999999,"N_COORD97":2547934.5600000001,"ADDRESS":"安通路三段１３０巷３２號","OBJECTID":252630},"geometry":{"x":169442.65000000037,"y":2547934.5600000024}},{"attributes":{"ID":252635,"DIS_CODE":0,"TOWNNAME":"安南區","LI":"安東里","LIN":"14鄰","STREET":"安和路","SECT":"一段","MAREA":" ","LANE":"２２０巷","ALLEY":" ","HOUSE_NO":"１４號","E_COORD97":169391.91,"N_COORD97":2547925.7000000002,"ADDRESS":"安和路一段２２０巷１４號","OBJECTID":252631},"geometry":{"x":169391.91000000015,"y":2547925.7000000011}},{"attributes":{"ID":252636,"DIS_CODE":0,"TOWNNAME":"安南區","LI":"安東里","LIN":"14鄰","STREET":"安和路","SECT":"一段","MAREA":" ","LANE":"２２０巷","ALLEY":" ","HOUSE_NO":"１６號","E_COORD97":169395.26999999999,"N_COORD97":2547928.8399999999,"ADDRESS":"安和路一段２２０巷１６號","OBJECTID":252632},"geometry":{"x":169395.26999999955,"y":2547928.8400000017}},{"attributes":{"ID":252637,"DIS_CODE":0,"TOWNNAME":"安平區","LI":"文平里","LIN":"24鄰","STREET":"建平二街","SECT":" ","MAREA":" ","LANE":" ","ALLEY":" ","HOUSE_NO":"５８號","E_COORD97":166207.01000000001,"N_COORD97":2542823.6600000001,"ADDRESS":"建平二街５８號","OBJECTID":252633},"geometry":{"x":166207.00999999978,"y":2542823.660000002}},{"attributes":{"ID":252638,"DIS_CODE":0,"TOWNNAME":"安平區","LI":"文平里","LIN":"24鄰","STREET":"建平二街","SECT":" ","MAREA":" ","LANE":" ","ALLEY":" ","HOUSE_NO":"６０號","E_COORD97":166202.25,"N_COORD97":2542823.8199999998,"ADDRESS":"建平二街６０號","OBJECTID":252634},"geometry":{"x":166202.25,"y":2542823.8200000022}},{"attributes":{"ID":252639,"DIS_CODE":0,"TOWNNAME":"安平區","LI":"文平里","LIN":"24鄰","STREET":"建平二街","SECT":" ","MAREA":" ","LANE":" ","ALLEY":" ","HOUSE_NO":"６２號","E_COORD97":166197.01000000001,"N_COORD97":2542824.46,"ADDRESS":"建平二街６２號","OBJECTID":252635},"geometry":{"x":166197.00999999978,"y":2542824.4600000009}},{"attributes":{"ID":252640,"DIS_CODE":0,"TOWNNAME":"安平區","LI":"文平里","LIN":"24鄰","STREET":"建平三街","SECT":" ","MAREA":" ","LANE":" ","ALLEY":" ","HOUSE_NO":"５之１號","E_COORD97":166239.88,"N_COORD97":2542858.4700000002,"ADDRESS":"建平三街５之１號","OBJECTID":252636},"geometry":{"x":166239.88000000082,"y":2542858.4700000007}},{"attributes":{"ID":252641,"DIS_CODE":0,"TOWNNAME":"安平區","LI":"文平里","LIN":"24鄰","STREET":"建平三街","SECT":" ","MAREA":" ","LANE":" ","ALLEY":" ","HOUSE_NO":"５之２號","E_COORD97":166235.60000000001,"N_COORD97":2542858.3100000001,"ADDRESS":"建平三街５之２號","OBJECTID":252637},"geometry":{"x":166235.60000000149,"y":2542858.3100000005}},{"attributes":{"ID":252642,"DIS_CODE":0,"TOWNNAME":"安平區","LI":"文平里","LIN":"24鄰","STREET":"建平三街","SECT":" ","MAREA":" ","LANE":" ","ALLEY":" ","HOUSE_NO":"７號","E_COORD97":166230.04000000001,"N_COORD97":2542858.3100000001,"ADDRESS":"建平三街７號","OBJECTID":252638},"geometry":{"x":166230.04000000097,"y":2542858.3100000005}},{"attributes":{"ID":252643,"DIS_CODE":0,"TOWNNAME":"新營區","LI":"新南里","LIN":"1鄰","STREET":"民治路","SECT":" ","MAREA":" ","LANE":"２３０巷","ALLEY":" ","HOUSE_NO":"２４號","E_COORD97":178755.77719600001,"N_COORD97":2578609.4680400002,"ADDRESS":"民治路２３０巷２４號","OBJECTID":252639},"geometry":{"x":178755.77719600033,"y":2578609.4680359997}},{"attributes":{"ID":252644,"DIS_CODE":0,"TOWNNAME":"安平區","LI":"文平里","LIN":"24鄰","STREET":"建平三街","SECT":" ","MAREA":" ","LANE":" ","ALLEY":" ","HOUSE_NO":"７之１號","E_COORD97":166225.60000000001,"N_COORD97":2542858.79,"ADDRESS":"建平三街７之１號","OBJECTID":252640},"geometry":{"x":166225.60000000149,"y":2542858.790000001}},{"attributes":{"ID":252645,"DIS_CODE":0,"TOWNNAME":"安平區","LI":"文平里","LIN":"24鄰","STREET":"建平三街","SECT":" ","MAREA":" ","LANE":" ","ALLEY":" ","HOUSE_NO":"７之２號","E_COORD97":166220.35999999999,"N_COORD97":2542859.2599999998,"ADDRESS":"建平三街７之２號","OBJECTID":252641},"geometry":{"x":166220.36000000034,"y":2542859.2600000035}},{"attributes":{"ID":252646,"DIS_CODE":0,"TOWNNAME":"安平區","LI":"文平里","LIN":"24鄰","STREET":"建平三街","SECT":" ","MAREA":" ","LANE":" ","ALLEY":" ","HOUSE_NO":"９號","E_COORD97":166216.07000000001,"N_COORD97":2542859.5800000001,"ADDRESS":"建平三街９號","OBJECTID":252642},"geometry":{"x":166216.0700000003,"y":2542859.5800000001}},{"attributes":{"ID":252647,"DIS_CODE":0,"TOWNNAME":"安南區","LI":"安東里","LIN":"14鄰","STREET":"安和路","SECT":"一段","MAREA":" ","LANE":"２２０巷","ALLEY":" ","HOUSE_NO":"１８號","E_COORD97":169398.41,"N_COORD97":2547931.5699999998,"ADDRESS":"安和路一段２２０巷１８號","OBJECTID":252643},"geometry":{"x":169398.41000000015,"y":2547931.5700000003}},{"attributes":{"ID":252648,"DIS_CODE":0,"TOWNNAME":"安南區","LI":"安東里","LIN":"14鄰","STREET":"安和路","SECT":"一段","MAREA":" ","LANE":"２２０巷","ALLEY":" ","HOUSE_NO":"２２號","E_COORD97":169408.89999999999,"N_COORD97":2547933.2400000002,"ADDRESS":"安和路一段２２０巷２２號","OBJECTID":252644},"geometry":{"x":169408.90000000037,"y":2547933.2400000021}},{"attributes":{"ID":252649,"DIS_CODE":0,"TOWNNAME":"安南區","LI":"安東里","LIN":"14鄰","STREET":"安和路","SECT":"一段","MAREA":" ","LANE":"２２０巷","ALLEY":" ","HOUSE_NO":"４８號","E_COORD97":169453.34,"N_COORD97":2547977.5,"ADDRESS":"安和路一段２２０巷４８號","OBJECTID":252645},"geometry":{"x":169453.33999999892,"y":2547977.5000000037}},{"attributes":{"ID":252650,"DIS_CODE":0,"TOWNNAME":"安南區","LI":"安東里","LIN":"14鄰","STREET":"安和路","SECT":"一段","MAREA":" ","LANE":"２２０巷","ALLEY":" ","HOUSE_NO":"３２號","E_COORD97":169420.22,"N_COORD97":2547950.0600000001,"ADDRESS":"安和路一段２２０巷３２號","OBJECTID":252646},"geometry":{"x":169420.2200000016,"y":2547950.0600000005}},{"attributes":{"ID":252651,"DIS_CODE":0,"TOWNNAME":"安南區","LI":"安慶里","LIN":"14鄰","STREET":"安中路","SECT":"一段","MAREA":" ","LANE":"１１３巷","ALLEY":" ","HOUSE_NO":"１０號","E_COORD97":168963.48000000001,"N_COORD97":2548317.8599999999,"ADDRESS":"安中路一段１１３巷１０號","OBJECTID":252647},"geometry":{"x":168963.48000000138,"y":2548317.8600000013}},{"attributes":{"ID":252652,"DIS_CODE":0,"TOWNNAME":"安南區","LI":"安慶里","LIN":"14鄰","STREET":"安中路","SECT":"一段","MAREA":" ","LANE":"１１３巷","ALLEY":" ","HOUSE_NO":"１２號","E_COORD97":168963.14000000001,"N_COORD97":2548313.6299999999,"ADDRESS":"安中路一段１１３巷１２號","OBJECTID":252648},"geometry":{"x":168963.1400000006,"y":2548313.629999999}},{"attributes":{"ID":252653,"DIS_CODE":0,"TOWNNAME":"安南區","LI":"安慶里","LIN":"14鄰","STREET":"安中路","SECT":"一段","MAREA":" ","LANE":"１１３巷","ALLEY":" ","HOUSE_NO":"１４號","E_COORD97":168962.70000000001,"N_COORD97":2548309.6299999999,"ADDRESS":"安中路一段１１３巷１４號","OBJECTID":252649},"geometry":{"x":168962.70000000019,"y":2548309.629999999}},{"attributes":{"ID":252654,"DIS_CODE":0,"TOWNNAME":"安南區","LI":"安慶里","LIN":"14鄰","STREET":"安中路","SECT":"一段","MAREA":" ","LANE":"１１３巷","ALLEY":" ","HOUSE_NO":"１６號","E_COORD97":168963.03,"N_COORD97":2548305.8399999999,"ADDRESS":"安中路一段１１３巷１６號","OBJECTID":252650},"geometry":{"x":168963.03000000119,"y":2548305.8399999999}},{"attributes":{"ID":252655,"DIS_CODE":0,"TOWNNAME":"安南區","LI":"安慶里","LIN":"14鄰","STREET":"安中路","SECT":"一段","MAREA":" ","LANE":"１１３巷","ALLEY":" ","HOUSE_NO":"２０號","E_COORD97":168963.81,"N_COORD97":2548297.7200000002,"ADDRESS":"安中路一段１１３巷２０號","OBJECTID":252651},"geometry":{"x":168963.81000000052,"y":2548297.7200000007}},{"attributes":{"ID":252656,"DIS_CODE":0,"TOWNNAME":"安南區","LI":"安慶里","LIN":"14鄰","STREET":"安中路","SECT":"一段","MAREA":" ","LANE":"１１３巷","ALLEY":" ","HOUSE_NO":"２４號","E_COORD97":168965.07000000001,"N_COORD97":2548289.8199999998,"ADDRESS":"安中路一段１１３巷２４號","OBJECTID":252652},"geometry":{"x":168965.0700000003,"y":2548289.8200000003}},{"attributes":{"ID":252657,"DIS_CODE":0,"TOWNNAME":"安南區","LI":"安慶里","LIN":"14鄰","STREET":"安中路","SECT":"一段","MAREA":" ","LANE":"１１３巷","ALLEY":" ","HOUSE_NO":"２６號","E_COORD97":168965.25,"N_COORD97":2548285.8300000001,"ADDRESS":"安中路一段１１３巷２６號","OBJECTID":252653},"geometry":{"x":168965.25,"y":2548285.8300000001}},{"attributes":{"ID":252658,"DIS_CODE":0,"TOWNNAME":"安南區","LI":"安慶里","LIN":"14鄰","STREET":"安中路","SECT":"一段","MAREA":" ","LANE":"１１３巷","ALLEY":" ","HOUSE_NO":"２８號","E_COORD97":168965.57000000001,"N_COORD97":2548281.7799999998,"ADDRESS":"安中路一段１１３巷２８號","OBJECTID":252654},"geometry":{"x":168965.5700000003,"y":2548281.7799999993}},{"attributes":{"ID":252659,"DIS_CODE":0,"TOWNNAME":"安南區","LI":"安慶里","LIN":"14鄰","STREET":"安中路","SECT":"一段","MAREA":" ","LANE":"１１３巷","ALLEY":" ","HOUSE_NO":"２號","E_COORD97":168962.45999999999,"N_COORD97":2548333.5299999998,"ADDRESS":"安中路一段１１３巷２號","OBJECTID":252655},"geometry":{"x":168962.45999999996,"y":2548333.5300000012}},{"attributes":{"ID":252660,"DIS_CODE":0,"TOWNNAME":"安南區","LI":"安慶里","LIN":"14鄰","STREET":"安中路","SECT":"一段","MAREA":" ","LANE":"１１３巷","ALLEY":" ","HOUSE_NO":"３０號","E_COORD97":168965.67000000001,"N_COORD97":2548278.1099999999,"ADDRESS":"安中路一段１１３巷３０號","OBJECTID":252656},"geometry":{"x":168965.66999999993,"y":2548278.1100000013}},{"attributes":{"ID":252661,"DIS_CODE":0,"TOWNNAME":"安南區","LI":"安慶里","LIN":"14鄰","STREET":"安中路","SECT":"一段","MAREA":" ","LANE":"１１３巷","ALLEY":" ","HOUSE_NO":"３２號","E_COORD97":168965.39999999999,"N_COORD97":2548274.48,"ADDRESS":"安中路一段１１３巷３２號","OBJECTID":252657},"geometry":{"x":168965.40000000224,"y":2548274.4800000023}},{"attributes":{"ID":252662,"DIS_CODE":0,"TOWNNAME":"安南區","LI":"安慶里","LIN":"14鄰","STREET":"安中路","SECT":"一段","MAREA":" ","LANE":"１１３巷","ALLEY":" ","HOUSE_NO":"３６號","E_COORD97":168965.94,"N_COORD97":2548266.23,"ADDRESS":"安中路一段１１３巷３６號","OBJECTID":252658},"geometry":{"x":168965.94000000134,"y":2548266.2300000004}},{"attributes":{"ID":252663,"DIS_CODE":0,"TOWNNAME":"安南區","LI":"安慶里","LIN":"14鄰","STREET":"安中路","SECT":"一段","MAREA":" ","LANE":"１１３巷","ALLEY":" ","HOUSE_NO":"３８號","E_COORD97":168965.89000000001,"N_COORD97":2548262.2999999998,"ADDRESS":"安中路一段１１３巷３８號","OBJECTID":252659},"geometry":{"x":168965.88999999966,"y":2548262.3000000026}},{"attributes":{"ID":252664,"DIS_CODE":0,"TOWNNAME":"安南區","LI":"安慶里","LIN":"14鄰","STREET":"安中路","SECT":"一段","MAREA":" ","LANE":"１１３巷","ALLEY":" ","HOUSE_NO":"４０號","E_COORD97":168965.07000000001,"N_COORD97":2548258.0299999998,"ADDRESS":"安中路一段１１３巷４０號","OBJECTID":252660},"geometry":{"x":168965.0700000003,"y":2548258.0300000031}},{"attributes":{"ID":252665,"DIS_CODE":0,"TOWNNAME":"安南區","LI":"安慶里","LIN":"14鄰","STREET":"安中路","SECT":"一段","MAREA":" ","LANE":"１１３巷","ALLEY":" ","HOUSE_NO":"６號","E_COORD97":168963.48999999999,"N_COORD97":2548325.9399999999,"ADDRESS":"安中路一段１１３巷６號","OBJECTID":252661},"geometry":{"x":168963.49000000115,"y":2548325.9399999995}},{"attributes":{"ID":252666,"DIS_CODE":0,"TOWNNAME":"安南區","LI":"安慶里","LIN":"14鄰","STREET":"安中路","SECT":"一段","MAREA":" ","LANE":"１３０巷","ALLEY":" ","HOUSE_NO":"２號","E_COORD97":168925.17999999999,"N_COORD97":2548451.5899999999,"ADDRESS":"安中路一段１３０巷２號","OBJECTID":252662},"geometry":{"x":168925.1799999997,"y":2548451.5900000017}},{"attributes":{"ID":252667,"DIS_CODE":0,"TOWNNAME":"安南區","LI":"安西里","LIN":"14鄰","STREET":"安和路","SECT":"一段","MAREA":" ","LANE":"１５９巷","ALLEY":" ","HOUSE_NO":"１１８號","E_COORD97":169188.10999999999,"N_COORD97":2547952.3900000001,"ADDRESS":"安和路一段１５９巷１１８號","OBJECTID":252663},"geometry":{"x":169188.11000000127,"y":2547952.3900000025}},{"attributes":{"ID":252668,"DIS_CODE":0,"TOWNNAME":"安南區","LI":"安西里","LIN":"14鄰","STREET":"安和路","SECT":"一段","MAREA":" ","LANE":"１５９巷","ALLEY":" ","HOUSE_NO":"１２０號","E_COORD97":169186.14999999999,"N_COORD97":2547956.6899999999,"ADDRESS":"安和路一段１５９巷１２０號","OBJECTID":252664},"geometry":{"x":169186.1500000013,"y":2547956.6900000013}},{"attributes":{"ID":252669,"DIS_CODE":0,"TOWNNAME":"安南區","LI":"溪墘里","LIN":"14鄰","STREET":"海佃路","SECT":"一段","MAREA":" ","LANE":"３２０巷","ALLEY":" ","HOUSE_NO":"１號","E_COORD97":167128.73999999999,"N_COORD97":2547484.7000000002,"ADDRESS":"海佃路一段３２０巷１號","OBJECTID":252665},"geometry":{"x":167128.74000000209,"y":2547484.7000000011}},{"attributes":{"ID":252670,"DIS_CODE":0,"TOWNNAME":"安南區","LI":"溪墘里","LIN":"14鄰","STREET":"海佃路","SECT":"一段","MAREA":" ","LANE":"３２０巷","ALLEY":" ","HOUSE_NO":"２５號","E_COORD97":167205.20000000001,"N_COORD97":2547500.8500000001,"ADDRESS":"海佃路一段３２０巷２５號","OBJECTID":252666},"geometry":{"x":167205.20000000205,"y":2547500.8500000015}},{"attributes":{"ID":252671,"DIS_CODE":0,"TOWNNAME":"安南區","LI":"溪墘里","LIN":"14鄰","STREET":"海佃路","SECT":"一段","MAREA":" ","LANE":"３２０巷","ALLEY":" ","HOUSE_NO":"２９號","E_COORD97":167218.35999999999,"N_COORD97":2547503.6200000001,"ADDRESS":"海佃路一段３２０巷２９號","OBJECTID":252667},"geometry":{"x":167218.36000000127,"y":2547503.6200000029}},{"attributes":{"ID":252672,"DIS_CODE":0,"TOWNNAME":"安南區","LI":"溪墘里","LIN":"14鄰","STREET":"海佃路","SECT":"一段","MAREA":" ","LANE":"３２０巷","ALLEY":" ","HOUSE_NO":"３１號","E_COORD97":167225.25,"N_COORD97":2547505.1699999999,"ADDRESS":"海佃路一段３２０巷３１號","OBJECTID":252668},"geometry":{"x":167225.25000000093,"y":2547505.1700000037}},{"attributes":{"ID":252673,"DIS_CODE":0,"TOWNNAME":"北區","LI":"三德里","LIN":"11鄰","STREET":"裕民街","SECT":" ","MAREA":" ","LANE":" ","ALLEY":" ","HOUSE_NO":"５３號","E_COORD97":168483.31,"N_COORD97":2544490.5299999998,"ADDRESS":"裕民街５３號","OBJECTID":252669},"geometry":{"x":168483.30999999959,"y":2544490.5299999993}},{"attributes":{"ID":252674,"DIS_CODE":0,"TOWNNAME":"安南區","LI":"溪墘里","LIN":"14鄰","STREET":"海佃路","SECT":"一段","MAREA":" ","LANE":"３２０巷","ALLEY":" ","HOUSE_NO":"３３號","E_COORD97":167230.59,"N_COORD97":2547506.96,"ADDRESS":"海佃路一段３２０巷３３號","OBJECTID":252670},"geometry":{"x":167230.58999999985,"y":2547506.9600000009}},{"attributes":{"ID":252675,"DIS_CODE":0,"TOWNNAME":"安南區","LI":"溪墘里","LIN":"14鄰","STREET":"海佃路","SECT":"一段","MAREA":" ","LANE":"３２０巷","ALLEY":" ","HOUSE_NO":"３５號","E_COORD97":167238.20999999999,"N_COORD97":2547507.6099999999,"ADDRESS":"海佃路一段３２０巷３５號","OBJECTID":252671},"geometry":{"x":167238.20999999996,"y":2547507.6099999994}},{"attributes":{"ID":252676,"DIS_CODE":0,"TOWNNAME":"安南區","LI":"溪墘里","LIN":"14鄰","STREET":"海佃路","SECT":"一段","MAREA":" ","LANE":"３２０巷","ALLEY":" ","HOUSE_NO":"３７號","E_COORD97":167244.64999999999,"N_COORD97":2547508.9300000002,"ADDRESS":"海佃路一段３２０巷３７號","OBJECTID":252672},"geometry":{"x":167244.64999999944,"y":2547508.9299999997}},{"attributes":{"ID":252677,"DIS_CODE":0,"TOWNNAME":"安南區","LI":"溪墘里","LIN":"14鄰","STREET":"海佃路","SECT":"一段","MAREA":" ","LANE":"３２０巷","ALLEY":" ","HOUSE_NO":"３９號","E_COORD97":167251.73999999999,"N_COORD97":2547510.8900000001,"ADDRESS":"海佃路一段３２０巷３９號","OBJECTID":252673},"geometry":{"x":167251.74000000022,"y":2547510.8900000043}},{"attributes":{"ID":252678,"DIS_CODE":0,"TOWNNAME":"安南區","LI":"溪墘里","LIN":"14鄰","STREET":"海佃路","SECT":"一段","MAREA":" ","LANE":"３２０巷","ALLEY":" ","HOUSE_NO":"３號","E_COORD97":167135.03,"N_COORD97":2547485.7400000002,"ADDRESS":"海佃路一段３２０巷３號","OBJECTID":252674},"geometry":{"x":167135.03000000026,"y":2547485.7400000021}},{"attributes":{"ID":252679,"DIS_CODE":0,"TOWNNAME":"安南區","LI":"溪墘里","LIN":"14鄰","STREET":"海佃路","SECT":"一段","MAREA":" ","LANE":"３２０巷","ALLEY":" ","HOUSE_NO":"４１號","E_COORD97":167257,"N_COORD97":2547511.9399999999,"ADDRESS":"海佃路一段３２０巷４１號","OBJECTID":252675},"geometry":{"x":167257,"y":2547511.9399999995}},{"attributes":{"ID":252680,"DIS_CODE":0,"TOWNNAME":"安南區","LI":"溪墘里","LIN":"14鄰","STREET":"海佃路","SECT":"一段","MAREA":" ","LANE":"３２０巷","ALLEY":" ","HOUSE_NO":"４３號","E_COORD97":167264.22,"N_COORD97":2547513.7799999998,"ADDRESS":"海佃路一段３２０巷４３號","OBJECTID":252676},"geometry":{"x":167264.22000000067,"y":2547513.7800000031}},{"attributes":{"ID":252681,"DIS_CODE":0,"TOWNNAME":"安南區","LI":"溪墘里","LIN":"14鄰","STREET":"海佃路","SECT":"一段","MAREA":" ","LANE":"３２０巷","ALLEY":" ","HOUSE_NO":"４５號","E_COORD97":167270.92000000001,"N_COORD97":2547514.4399999999,"ADDRESS":"海佃路一段３２０巷４５號","OBJECTID":252677},"geometry":{"x":167270.91999999993,"y":2547514.4400000013}},{"attributes":{"ID":252682,"DIS_CODE":0,"TOWNNAME":"安南區","LI":"溪墘里","LIN":"14鄰","STREET":"海佃路","SECT":"一段","MAREA":" ","LANE":"３２０巷","ALLEY":" ","HOUSE_NO":"４７號","E_COORD97":167277.75,"N_COORD97":2547515.8799999999,"ADDRESS":"海佃路一段３２０巷４７號","OBJECTID":252678},"geometry":{"x":167277.75000000093,"y":2547515.8799999971}},{"attributes":{"ID":252683,"DIS_CODE":0,"TOWNNAME":"安南區","LI":"溪墘里","LIN":"14鄰","STREET":"海佃路","SECT":"一段","MAREA":" ","LANE":"３２０巷","ALLEY":" ","HOUSE_NO":"５號","E_COORD97":167141.42000000001,"N_COORD97":2547487.6800000002,"ADDRESS":"海佃路一段３２０巷５號","OBJECTID":252679},"geometry":{"x":167141.42000000086,"y":2547487.6800000034}},{"attributes":{"ID":252684,"DIS_CODE":0,"TOWNNAME":"安南區","LI":"溪墘里","LIN":"14鄰","STREET":"海佃路","SECT":"一段","MAREA":" ","LANE":"３２０巷","ALLEY":" ","HOUSE_NO":"７號","E_COORD97":167147.23999999999,"N_COORD97":2547488.7599999998,"ADDRESS":"海佃路一段３２０巷７號","OBJECTID":252680},"geometry":{"x":167147.23999999929,"y":2547488.7600000016}},{"attributes":{"ID":252685,"DIS_CODE":0,"TOWNNAME":"安南區","LI":"溪墘里","LIN":"14鄰","STREET":"海佃路","SECT":"一段","MAREA":" ","LANE":"３２０巷","ALLEY":" ","HOUSE_NO":"９號","E_COORD97":167153.54000000001,"N_COORD97":2547490.3399999999,"ADDRESS":"海佃路一段３２０巷９號","OBJECTID":252681},"geometry":{"x":167153.5400000019,"y":2547490.3400000036}},{"attributes":{"ID":252686,"DIS_CODE":0,"TOWNNAME":"北區","LI":"振興里","LIN":"14鄰","STREET":"長榮路","SECT":"四段","MAREA":" ","LANE":"１３０巷","ALLEY":" ","HOUSE_NO":"１０號","E_COORD97":170290.17999999999,"N_COORD97":2545163.96,"ADDRESS":"長榮路四段１３０巷１０號","OBJECTID":252682},"geometry":{"x":170290.18000000156,"y":2545163.9600000009}},{"attributes":{"ID":252687,"DIS_CODE":0,"TOWNNAME":"北區","LI":"振興里","LIN":"14鄰","STREET":"長榮路","SECT":"四段","MAREA":" ","LANE":"１３０巷","ALLEY":" ","HOUSE_NO":"１２號","E_COORD97":170293.67000000001,"N_COORD97":2545165.6000000001,"ADDRESS":"長榮路四段１３０巷１２號","OBJECTID":252683},"geometry":{"x":170293.66999999899,"y":2545165.6000000034}},{"attributes":{"ID":252688,"DIS_CODE":0,"TOWNNAME":"北區","LI":"振興里","LIN":"14鄰","STREET":"長榮路","SECT":"四段","MAREA":" ","LANE":"１３０巷","ALLEY":" ","HOUSE_NO":"２號","E_COORD97":170276.10999999999,"N_COORD97":2545155.0299999998,"ADDRESS":"長榮路四段１３０巷２號","OBJECTID":252684},"geometry":{"x":170276.11000000127,"y":2545155.0299999993}},{"attributes":{"ID":252689,"DIS_CODE":0,"TOWNNAME":"北區","LI":"振興里","LIN":"14鄰","STREET":"長榮路","SECT":"四段","MAREA":" ","LANE":"１３０巷","ALLEY":" ","HOUSE_NO":"４號","E_COORD97":170280.03,"N_COORD97":2545157.21,"ADDRESS":"長榮路四段１３０巷４號","OBJECTID":252685},"geometry":{"x":170280.03000000119,"y":2545157.2100000028}},{"attributes":{"ID":252690,"DIS_CODE":0,"TOWNNAME":"北區","LI":"振興里","LIN":"14鄰","STREET":"長榮路","SECT":"四段","MAREA":" ","LANE":"１３０巷","ALLEY":" ","HOUSE_NO":"６號","E_COORD97":170283.41,"N_COORD97":2545159.5,"ADDRESS":"長榮路四段１３０巷６號","OBJECTID":252686},"geometry":{"x":170283.41000000015,"y":2545159.5}},{"attributes":{"ID":252691,"DIS_CODE":0,"TOWNNAME":"北區","LI":"振興里","LIN":"14鄰","STREET":"長榮路","SECT":"四段","MAREA":" ","LANE":"１３０巷","ALLEY":" ","HOUSE_NO":"８號","E_COORD97":170287.12,"N_COORD97":2545161.7799999998,"ADDRESS":"長榮路四段１３０巷８號","OBJECTID":252687},"geometry":{"x":170287.12000000011,"y":2545161.7800000012}},{"attributes":{"ID":252692,"DIS_CODE":0,"TOWNNAME":"北區","LI":"振興里","LIN":"14鄰","STREET":"開元路","SECT":" ","MAREA":" ","LANE":"２１２巷","ALLEY":" ","HOUSE_NO":"５８號之１","E_COORD97":170309.48000000001,"N_COORD97":2545167.4500000002,"ADDRESS":"開元路２１２巷５８號之１","OBJECTID":252688},"geometry":{"x":170309.48000000138,"y":2545167.4500000011}},{"attributes":{"ID":252693,"DIS_CODE":0,"TOWNNAME":"北區","LI":"振興里","LIN":"14鄰","STREET":"開元路","SECT":" ","MAREA":" ","LANE":"２１２巷","ALLEY":" ","HOUSE_NO":"６０號","E_COORD97":170313.29999999999,"N_COORD97":2545164.3999999999,"ADDRESS":"開元路２１２巷６０號","OBJECTID":252689},"geometry":{"x":170313.30000000075,"y":2545164.4000000041}},{"attributes":{"ID":252694,"DIS_CODE":0,"TOWNNAME":"北區","LI":"振興里","LIN":"14鄰","STREET":"開元路","SECT":" ","MAREA":" ","LANE":"２１２巷","ALLEY":" ","HOUSE_NO":"６０號之１","E_COORD97":170316.45999999999,"N_COORD97":2545162,"ADDRESS":"開元路２１２巷６０號之１","OBJECTID":252690},"geometry":{"x":170316.45999999996,"y":2545162}},{"attributes":{"ID":252695,"DIS_CODE":0,"TOWNNAME":"北區","LI":"振興里","LIN":"14鄰","STREET":"開元路","SECT":" ","MAREA":" ","LANE":"２１２巷","ALLEY":" ","HOUSE_NO":"６０號之２","E_COORD97":170318.53,"N_COORD97":2545158.5099999998,"ADDRESS":"開元路２１２巷６０號之２","OBJECTID":252691},"geometry":{"x":170318.53000000026,"y":2545158.5099999998}},{"attributes":{"ID":252696,"DIS_CODE":0,"TOWNNAME":"北區","LI":"振興里","LIN":"14鄰","STREET":"長榮路","SECT":"四段","MAREA":" ","LANE":"１１４巷","ALLEY":" ","HOUSE_NO":"１１號","E_COORD97":170300.76000000001,"N_COORD97":2545153.1699999999,"ADDRESS":"長榮路四段１１４巷１１號","OBJECTID":252692},"geometry":{"x":170300.75999999978,"y":2545153.1700000018}},{"attributes":{"ID":252697,"DIS_CODE":0,"TOWNNAME":"北區","LI":"振興里","LIN":"14鄰","STREET":"長榮路","SECT":"四段","MAREA":" ","LANE":"１１４巷","ALLEY":" ","HOUSE_NO":"１２號","E_COORD97":170313.19,"N_COORD97":2545137.46,"ADDRESS":"長榮路四段１１４巷１２號","OBJECTID":252693},"geometry":{"x":170313.19000000134,"y":2545137.4600000046}},{"attributes":{"ID":252698,"DIS_CODE":0,"TOWNNAME":"北區","LI":"振興里","LIN":"14鄰","STREET":"長榮路","SECT":"四段","MAREA":" ","LANE":"１１４巷","ALLEY":" ","HOUSE_NO":"１３號","E_COORD97":170304.79000000001,"N_COORD97":2545154.8100000001,"ADDRESS":"長榮路四段１１４巷１３號","OBJECTID":252694},"geometry":{"x":170304.79000000004,"y":2545154.8099999987}},{"attributes":{"ID":252699,"DIS_CODE":0,"TOWNNAME":"北區","LI":"振興里","LIN":"14鄰","STREET":"長榮路","SECT":"四段","MAREA":" ","LANE":"１１４巷","ALLEY":" ","HOUSE_NO":"１４號","E_COORD97":170316.89000000001,"N_COORD97":2545140.29,"ADDRESS":"長榮路四段１１４巷１４號","OBJECTID":252695},"geometry":{"x":170316.88999999966,"y":2545140.2900000028}},{"attributes":{"ID":252700,"DIS_CODE":0,"TOWNNAME":"北區","LI":"振興里","LIN":"14鄰","STREET":"長榮路","SECT":"四段","MAREA":" ","LANE":"１１４巷","ALLEY":" ","HOUSE_NO":"１５號","E_COORD97":170307.85000000001,"N_COORD97":2545157.21,"ADDRESS":"長榮路四段１１４巷１５號","OBJECTID":252696},"geometry":{"x":170307.85000000056,"y":2545157.2100000028}},{"attributes":{"ID":252701,"DIS_CODE":0,"TOWNNAME":"北區","LI":"振興里","LIN":"14鄰","STREET":"長榮路","SECT":"四段","MAREA":" ","LANE":"１１４巷","ALLEY":" ","HOUSE_NO":"１６號","E_COORD97":170320.60000000001,"N_COORD97":2545142.4700000002,"ADDRESS":"長榮路四段１１４巷１６號","OBJECTID":252697},"geometry":{"x":170320.59999999963,"y":2545142.4700000007}},{"attributes":{"ID":252702,"DIS_CODE":0,"TOWNNAME":"北區","LI":"振興里","LIN":"14鄰","STREET":"長榮路","SECT":"四段","MAREA":" ","LANE":"１１４巷","ALLEY":" ","HOUSE_NO":"１號","E_COORD97":170284.07000000001,"N_COORD97":2545142.2799999998,"ADDRESS":"長榮路四段１１４巷１號","OBJECTID":252698},"geometry":{"x":170284.0700000003,"y":2545142.2799999993}},{"attributes":{"ID":252703,"DIS_CODE":0,"TOWNNAME":"北區","LI":"振興里","LIN":"14鄰","STREET":"長榮路","SECT":"四段","MAREA":" ","LANE":"１１４巷","ALLEY":" ","HOUSE_NO":"３號","E_COORD97":170287.56,"N_COORD97":2545144.5699999998,"ADDRESS":"長榮路四段１１４巷３號","OBJECTID":252699},"geometry":{"x":170287.56000000052,"y":2545144.5700000022}},{"attributes":{"ID":252704,"DIS_CODE":0,"TOWNNAME":"北區","LI":"振興里","LIN":"14鄰","STREET":"長榮路","SECT":"四段","MAREA":" ","LANE":"１１４巷","ALLEY":" ","HOUSE_NO":"４號","E_COORD97":170297.48000000001,"N_COORD97":2545128.7400000002,"ADDRESS":"長榮路四段１１４巷４號","OBJECTID":252700},"geometry":{"x":170297.48000000138,"y":2545128.7400000021}},{"attributes":{"ID":252705,"DIS_CODE":0,"TOWNNAME":"關廟區","LI":"關廟里","LIN":"14鄰","STREET":"民生街","SECT":" ","MAREA":" ","LANE":"１１５巷","ALLEY":" ","HOUSE_NO":"５號","E_COORD97":180820.09,"N_COORD97":2539746.29,"ADDRESS":"民生街１１５巷５號","OBJECTID":252701},"geometry":{"x":180820.09000000078,"y":2539746.2900000028}},{"attributes":{"ID":252706,"DIS_CODE":0,"TOWNNAME":"北區","LI":"振興里","LIN":"14鄰","STREET":"長榮路","SECT":"四段","MAREA":" ","LANE":"１１４巷","ALLEY":" ","HOUSE_NO":"５號","E_COORD97":170291.16,"N_COORD97":2545146.7400000002,"ADDRESS":"長榮路四段１１４巷５號","OBJECTID":252702},"geometry":{"x":170291.16000000108,"y":2545146.7400000021}},{"attributes":{"ID":252707,"DIS_CODE":0,"TOWNNAME":"北區","LI":"振興里","LIN":"14鄰","STREET":"長榮路","SECT":"四段","MAREA":" ","LANE":"１１４巷","ALLEY":" ","HOUSE_NO":"６號","E_COORD97":170301.07999999999,"N_COORD97":2545130.8100000001,"ADDRESS":"長榮路四段１１４巷６號","OBJECTID":252703},"geometry":{"x":170301.08000000007,"y":2545130.8100000005}},{"attributes":{"ID":252708,"DIS_CODE":0,"TOWNNAME":"北區","LI":"振興里","LIN":"14鄰","STREET":"長榮路","SECT":"四段","MAREA":" ","LANE":"１１４巷","ALLEY":" ","HOUSE_NO":"７號","E_COORD97":170294.98000000001,"N_COORD97":2545149.4700000002,"ADDRESS":"長榮路四段１１４巷７號","OBJECTID":252704},"geometry":{"x":170294.98000000045,"y":2545149.4700000007}},{"attributes":{"ID":252709,"DIS_CODE":0,"TOWNNAME":"北區","LI":"振興里","LIN":"14鄰","STREET":"長榮路","SECT":"四段","MAREA":" ","LANE":"１１４巷","ALLEY":" ","HOUSE_NO":"８號","E_COORD97":170305.22,"N_COORD97":2545132.4500000002,"ADDRESS":"長榮路四段１１４巷８號","OBJECTID":252705},"geometry":{"x":170305.2200000016,"y":2545132.450000003}},{"attributes":{"ID":252710,"DIS_CODE":0,"TOWNNAME":"北區","LI":"振興里","LIN":"14鄰","STREET":"長榮路","SECT":"四段","MAREA":" ","LANE":"１１４巷","ALLEY":" ","HOUSE_NO":"９號","E_COORD97":170297.48000000001,"N_COORD97":2545151.6499999999,"ADDRESS":"長榮路四段１１４巷９號","OBJECTID":252706},"geometry":{"x":170297.48000000138,"y":2545151.6500000004}},{"attributes":{"ID":252711,"DIS_CODE":0,"TOWNNAME":"北區","LI":"振興里","LIN":"14鄰","STREET":"開元路","SECT":" ","MAREA":" ","LANE":"２１２巷","ALLEY":" ","HOUSE_NO":"６４號","E_COORD97":170327.57999999999,"N_COORD97":2545151.6299999999,"ADDRESS":"開元路２１２巷６４號","OBJECTID":252707},"geometry":{"x":170327.58000000101,"y":2545151.6300000008}},{"attributes":{"ID":252712,"DIS_CODE":0,"TOWNNAME":"北區","LI":"振興里","LIN":"14鄰","STREET":"開元路","SECT":" ","MAREA":" ","LANE":"２１２巷","ALLEY":" ","HOUSE_NO":"６４號之１","E_COORD97":170330.42000000001,"N_COORD97":2545148.5800000001,"ADDRESS":"開元路２１２巷６４號之１","OBJECTID":252708},"geometry":{"x":170330.41999999993,"y":2545148.5800000001}},{"attributes":{"ID":252713,"DIS_CODE":0,"TOWNNAME":"北區","LI":"振興里","LIN":"14鄰","STREET":"開元路","SECT":" ","MAREA":" ","LANE":"２１２巷","ALLEY":" ","HOUSE_NO":"６４號之２","E_COORD97":170335.10999999999,"N_COORD97":2545145.8500000001,"ADDRESS":"開元路２１２巷６４號之２","OBJECTID":252709},"geometry":{"x":170335.11000000034,"y":2545145.8499999996}},{"attributes":{"ID":252714,"DIS_CODE":0,"TOWNNAME":"北區","LI":"安民里","LIN":"11鄰","STREET":"海成街","SECT":" ","MAREA":" ","LANE":" ","ALLEY":" ","HOUSE_NO":"９號","E_COORD97":167996.85000000001,"N_COORD97":2544612.0600000001,"ADDRESS":"海成街９號","OBJECTID":252710},"geometry":{"x":167996.8499999987,"y":2544612.0600000024}},{"attributes":{"ID":252715,"DIS_CODE":0,"TOWNNAME":"北區","LI":"振興里","LIN":"14鄰","STREET":"開元路","SECT":" ","MAREA":" ","LANE":"２１２巷","ALLEY":" ","HOUSE_NO":"６６號","E_COORD97":170338.48999999999,"N_COORD97":2545142.9100000001,"ADDRESS":"開元路２１２巷６６號","OBJECTID":252711},"geometry":{"x":170338.49000000115,"y":2545142.9100000001}},{"attributes":{"ID":252716,"DIS_CODE":0,"TOWNNAME":"北區","LI":"振興里","LIN":"14鄰","STREET":"開元路","SECT":" ","MAREA":" ","LANE":"２１２巷","ALLEY":" ","HOUSE_NO":"６６號之１","E_COORD97":170340.89000000001,"N_COORD97":2545139.8599999999,"ADDRESS":"開元路２１２巷６６號之１","OBJECTID":252712},"geometry":{"x":170340.88999999966,"y":2545139.8599999975}},{"attributes":{"ID":252717,"DIS_CODE":0,"TOWNNAME":"北區","LI":"振興里","LIN":"14鄰","STREET":"開元路","SECT":" ","MAREA":" ","LANE":"２１２巷","ALLEY":" ","HOUSE_NO":"６６號之２","E_COORD97":170343.84,"N_COORD97":2545136.5899999999,"ADDRESS":"開元路２１２巷６６號之２","OBJECTID":252713},"geometry":{"x":170343.84000000078,"y":2545136.5900000017}},{"attributes":{"ID":252718,"DIS_CODE":0,"TOWNNAME":"新營區","LI":"民生里","LIN":"14鄰","STREET":"公園路","SECT":"一段","MAREA":" ","LANE":"１６０巷","ALLEY":" ","HOUSE_NO":"８６號","E_COORD97":178783.23999999999,"N_COORD97":2578257.3500000001,"ADDRESS":"公園路一段１６０巷８６號","OBJECTID":252714},"geometry":{"x":178783.24000000209,"y":2578257.3499999978}},{"attributes":{"ID":252719,"DIS_CODE":0,"TOWNNAME":"新營區","LI":"新南里","LIN":"14鄰","STREET":"民治路","SECT":" ","MAREA":" ","LANE":"３００巷","ALLEY":" ","HOUSE_NO":"７０之８號","E_COORD97":178618.95999999999,"N_COORD97":2578680.1499999999,"ADDRESS":"民治路３００巷７０之８號","OBJECTID":252715},"geometry":{"x":178618.96000000089,"y":2578680.1500000041}},{"attributes":{"ID":252720,"DIS_CODE":0,"TOWNNAME":"新營區","LI":"新北里","LIN":"14鄰","STREET":"南新街","SECT":" ","MAREA":" ","LANE":"１３巷","ALLEY":" ","HOUSE_NO":"６６號","E_COORD97":179255.29999999999,"N_COORD97":2578806.6000000001,"ADDRESS":"南新街１３巷６６號","OBJECTID":252716},"geometry":{"x":179255.30000000168,"y":2578806.6000000015}},{"attributes":{"ID":252721,"DIS_CODE":0,"TOWNNAME":"新營區","LI":"王公里","LIN":"14鄰","STREET":"公正街","SECT":" ","MAREA":" ","LANE":"７０巷","ALLEY":" ","HOUSE_NO":"５號","E_COORD97":180200.92999999999,"N_COORD97":2579396.8100000001,"ADDRESS":"公正街７０巷５號","OBJECTID":252717},"geometry":{"x":180200.93000000063,"y":2579396.8100000005}},{"attributes":{"ID":252722,"DIS_CODE":0,"TOWNNAME":"新營區","LI":"新北里","LIN":"14鄰","STREET":"南新街","SECT":" ","MAREA":" ","LANE":"１３巷","ALLEY":" ","HOUSE_NO":"２６號","E_COORD97":179297.35999999999,"N_COORD97":2578818.5800000001,"ADDRESS":"南新街１３巷２６號","OBJECTID":252718},"geometry":{"x":179297.36000000034,"y":2578818.5800000001}},{"attributes":{"ID":252723,"DIS_CODE":0,"TOWNNAME":"新營區","LI":"新北里","LIN":"14鄰","STREET":"南新街","SECT":" ","MAREA":" ","LANE":"１３巷","ALLEY":" ","HOUSE_NO":"５６號","E_COORD97":179275.79999999999,"N_COORD97":2578812.04,"ADDRESS":"南新街１３巷５６號","OBJECTID":252719},"geometry":{"x":179275.80000000075,"y":2578812.040000001}},{"attributes":{"ID":252724,"DIS_CODE":0,"TOWNNAME":"新營區","LI":"新北里","LIN":"14鄰","STREET":"南新街","SECT":" ","MAREA":" ","LANE":"１３巷","ALLEY":" ","HOUSE_NO":"６號","E_COORD97":179330.88,"N_COORD97":2578829.5,"ADDRESS":"南新街１３巷６號","OBJECTID":252720},"geometry":{"x":179330.87999999989,"y":2578829.5}},{"attributes":{"ID":252725,"DIS_CODE":0,"TOWNNAME":"六甲區","LI":"龍湖里","LIN":"14鄰","STREET":"中正路","SECT":" ","MAREA":" ","LANE":"１２０巷","ALLEY":" ","HOUSE_NO":"２號","E_COORD97":183473.28,"N_COORD97":2568951.1800000002,"ADDRESS":"中正路１２０巷２號","OBJECTID":252721},"geometry":{"x":183473.28000000026,"y":2568951.1799999997}},{"attributes":{"ID":252726,"DIS_CODE":0,"TOWNNAME":"六甲區","LI":"龍湖里","LIN":"14鄰","STREET":"中正路","SECT":" ","MAREA":" ","LANE":"１４６巷","ALLEY":" ","HOUSE_NO":"１２號","E_COORD97":183489.79999999999,"N_COORD97":2568978.1600000001,"ADDRESS":"中正路１４６巷１２號","OBJECTID":252722},"geometry":{"x":183489.80000000168,"y":2568978.160000002}},{"attributes":{"ID":252727,"DIS_CODE":0,"TOWNNAME":"六甲區","LI":"龍湖里","LIN":"14鄰","STREET":"中正路","SECT":" ","MAREA":" ","LANE":"１４６巷","ALLEY":" ","HOUSE_NO":"２２號","E_COORD97":183574.95999999999,"N_COORD97":2568970.5699999998,"ADDRESS":"中正路１４６巷２２號","OBJECTID":252723},"geometry":{"x":183574.95999999996,"y":2568970.570000004}},{"attributes":{"ID":252728,"DIS_CODE":0,"TOWNNAME":"六甲區","LI":"龍湖里","LIN":"14鄰","STREET":"中正路","SECT":" ","MAREA":" ","LANE":"１４６巷","ALLEY":" ","HOUSE_NO":"２４號","E_COORD97":183609.60000000001,"N_COORD97":2568963.4100000001,"ADDRESS":"中正路１４６巷２４號","OBJECTID":252724},"geometry":{"x":183609.60000000149,"y":2568963.4100000001}},{"attributes":{"ID":252729,"DIS_CODE":0,"TOWNNAME":"六甲區","LI":"龍湖里","LIN":"14鄰","STREET":"中正路","SECT":" ","MAREA":" ","LANE":"１４６巷","ALLEY":" ","HOUSE_NO":"２６號之１","E_COORD97":183835.29000000001,"N_COORD97":2568861.5899999999,"ADDRESS":"中正路１４６巷２６號之１","OBJECTID":252725},"geometry":{"x":183835.29000000004,"y":2568861.5900000036}},{"attributes":{"ID":252730,"DIS_CODE":0,"TOWNNAME":"六甲區","LI":"龍湖里","LIN":"14鄰","STREET":"中正路","SECT":" ","MAREA":" ","LANE":"１４６巷","ALLEY":" ","HOUSE_NO":"２８號","E_COORD97":183855.79999999999,"N_COORD97":2568852.6699999999,"ADDRESS":"中正路１４６巷２８號","OBJECTID":252726},"geometry":{"x":183855.79999999981,"y":2568852.6699999999}},{"attributes":{"ID":252731,"DIS_CODE":0,"TOWNNAME":"六甲區","LI":"龍湖里","LIN":"14鄰","STREET":"中正路","SECT":" ","MAREA":" ","LANE":"１４６巷","ALLEY":" ","HOUSE_NO":"３２號之１","E_COORD97":183960.01000000001,"N_COORD97":2568789.8399999999,"ADDRESS":"中正路１４６巷３２號之１","OBJECTID":252727},"geometry":{"x":183960.01000000071,"y":2568789.8400000017}},{"attributes":{"ID":252732,"DIS_CODE":0,"TOWNNAME":"北門區","LI":"北門里","LIN":"11鄰","STREET":" ","SECT":" ","MAREA":"北門","LANE":" ","ALLEY":" ","HOUSE_NO":"２９３號二樓","E_COORD97":160330.63,"N_COORD97":2574295.23,"ADDRESS":"北門２９３號二樓","OBJECTID":252728},"geometry":{"x":160330.62999999989,"y":2574295.2300000004}},{"attributes":{"ID":252733,"DIS_CODE":0,"TOWNNAME":"六甲區","LI":"龍湖里","LIN":"14鄰","STREET":"中正路","SECT":" ","MAREA":" ","LANE":"１４６巷","ALLEY":" ","HOUSE_NO":"３２號","E_COORD97":183955,"N_COORD97":2568791.2599999998,"ADDRESS":"中正路１４６巷３２號","OBJECTID":252729},"geometry":{"x":183955.00000000093,"y":2568791.2599999998}},{"attributes":{"ID":252734,"DIS_CODE":0,"TOWNNAME":"六甲區","LI":"龍湖里","LIN":"14鄰","STREET":"中正路","SECT":" ","MAREA":" ","LANE":"１６３巷","ALLEY":" ","HOUSE_NO":"１７號","E_COORD97":183342.51000000001,"N_COORD97":2569091.1499999999,"ADDRESS":"中正路１６３巷１７號","OBJECTID":252730},"geometry":{"x":183342.51000000164,"y":2569091.1500000004}},{"attributes":{"ID":252735,"DIS_CODE":0,"TOWNNAME":"六甲區","LI":"龍湖里","LIN":"14鄰","STREET":"中正路","SECT":" ","MAREA":" ","LANE":"１６３巷","ALLEY":" ","HOUSE_NO":"１號","E_COORD97":183389.04000000001,"N_COORD97":2569073.4300000002,"ADDRESS":"中正路１６３巷１號","OBJECTID":252731},"geometry":{"x":183389.04000000097,"y":2569073.4300000016}},{"attributes":{"ID":252736,"DIS_CODE":0,"TOWNNAME":"六甲區","LI":"龍湖里","LIN":"14鄰","STREET":"中正路","SECT":" ","MAREA":" ","LANE":"１６３巷","ALLEY":" ","HOUSE_NO":"３號","E_COORD97":183370.35000000001,"N_COORD97":2569065.6899999999,"ADDRESS":"中正路１６３巷３號","OBJECTID":252732},"geometry":{"x":183370.34999999963,"y":2569065.6899999995}},{"attributes":{"ID":252737,"DIS_CODE":0,"TOWNNAME":"六甲區","LI":"龍湖里","LIN":"14鄰","STREET":"中正路","SECT":" ","MAREA":" ","LANE":"１８９巷","ALLEY":" ","HOUSE_NO":"１１號","E_COORD97":183305.04999999999,"N_COORD97":2569134.1699999999,"ADDRESS":"中正路１８９巷１１號","OBJECTID":252733},"geometry":{"x":183305.05000000168,"y":2569134.1699999999}},{"attributes":{"ID":252738,"DIS_CODE":0,"TOWNNAME":"六甲區","LI":"龍湖里","LIN":"14鄰","STREET":"中正路","SECT":" ","MAREA":" ","LANE":"１８９巷","ALLEY":" ","HOUSE_NO":"１３號","E_COORD97":183301.85000000001,"N_COORD97":2569126.2200000002,"ADDRESS":"中正路１８９巷１３號","OBJECTID":252734},"geometry":{"x":183301.85000000056,"y":2569126.2200000025}},{"attributes":{"ID":252739,"DIS_CODE":0,"TOWNNAME":"六甲區","LI":"水林里","LIN":"14鄰","STREET":"民族街","SECT":" ","MAREA":" ","LANE":"３１０巷","ALLEY":" ","HOUSE_NO":"１０號","E_COORD97":183123.26000000001,"N_COORD97":2570404.27,"ADDRESS":"民族街３１０巷１０號","OBJECTID":252735},"geometry":{"x":183123.25999999978,"y":2570404.2699999996}},{"attributes":{"ID":252740,"DIS_CODE":0,"TOWNNAME":"六甲區","LI":"水林里","LIN":"14鄰","STREET":"民族街","SECT":" ","MAREA":" ","LANE":"３１０巷","ALLEY":" ","HOUSE_NO":"１２號","E_COORD97":183137.07000000001,"N_COORD97":2570421,"ADDRESS":"民族街３１０巷１２號","OBJECTID":252736},"geometry":{"x":183137.0700000003,"y":2570421}},{"attributes":{"ID":252741,"DIS_CODE":0,"TOWNNAME":"六甲區","LI":"水林里","LIN":"14鄰","STREET":"民族街","SECT":" ","MAREA":" ","LANE":"３１０巷","ALLEY":" ","HOUSE_NO":"１３號","E_COORD97":183101.84,"N_COORD97":2570399.9199999999,"ADDRESS":"民族街３１０巷１３號","OBJECTID":252737},"geometry":{"x":183101.84000000078,"y":2570399.9200000018}},{"attributes":{"ID":252742,"DIS_CODE":0,"TOWNNAME":"六甲區","LI":"水林里","LIN":"14鄰","STREET":"民族街","SECT":" ","MAREA":" ","LANE":"３１０巷","ALLEY":" ","HOUSE_NO":"１８號","E_COORD97":183124.60000000001,"N_COORD97":2570437.6499999999,"ADDRESS":"民族街３１０巷１８號","OBJECTID":252738},"geometry":{"x":183124.59999999963,"y":2570437.6500000004}},{"attributes":{"ID":252743,"DIS_CODE":0,"TOWNNAME":"六甲區","LI":"水林里","LIN":"14鄰","STREET":"民族街","SECT":" ","MAREA":" ","LANE":"３１０巷","ALLEY":" ","HOUSE_NO":"１號","E_COORD97":183104.26000000001,"N_COORD97":2570379.71,"ADDRESS":"民族街３１０巷１號","OBJECTID":252739},"geometry":{"x":183104.26000000071,"y":2570379.7100000009}},{"attributes":{"ID":252744,"DIS_CODE":0,"TOWNNAME":"六甲區","LI":"水林里","LIN":"14鄰","STREET":"民族街","SECT":" ","MAREA":" ","LANE":"３１０巷","ALLEY":" ","HOUSE_NO":"２０號","E_COORD97":183136.73999999999,"N_COORD97":2570451.3999999999,"ADDRESS":"民族街３１０巷２０號","OBJECTID":252740},"geometry":{"x":183136.74000000115,"y":2570451.4000000022}},{"attributes":{"ID":252745,"DIS_CODE":0,"TOWNNAME":"六甲區","LI":"水林里","LIN":"14鄰","STREET":"民族街","SECT":" ","MAREA":" ","LANE":"３５２巷","ALLEY":" ","HOUSE_NO":"１０號","E_COORD97":183055.01999999999,"N_COORD97":2570393.3100000001,"ADDRESS":"民族街３５２巷１０號","OBJECTID":252741},"geometry":{"x":183055.01999999955,"y":2570393.3100000042}},{"attributes":{"ID":252746,"DIS_CODE":0,"TOWNNAME":"六甲區","LI":"水林里","LIN":"14鄰","STREET":"民族街","SECT":" ","MAREA":" ","LANE":"３５２巷","ALLEY":" ","HOUSE_NO":"２３號","E_COORD97":183030.89000000001,"N_COORD97":2570459.2400000002,"ADDRESS":"民族街３５２巷２３號","OBJECTID":252742},"geometry":{"x":183030.88999999966,"y":2570459.2400000021}},{"attributes":{"ID":252747,"DIS_CODE":0,"TOWNNAME":"六甲區","LI":"水林里","LIN":"14鄰","STREET":"民族街","SECT":" ","MAREA":" ","LANE":"３５２巷","ALLEY":" ","HOUSE_NO":"２５號","E_COORD97":183032.91,"N_COORD97":2570479.71,"ADDRESS":"民族街３５２巷２５號","OBJECTID":252743},"geometry":{"x":183032.91000000015,"y":2570479.7100000028}},{"attributes":{"ID":252748,"DIS_CODE":0,"TOWNNAME":"六甲區","LI":"水林里","LIN":"14鄰","STREET":"民族街","SECT":" ","MAREA":" ","LANE":"３５２巷","ALLEY":" ","HOUSE_NO":"２號之１","E_COORD97":183038.37,"N_COORD97":2570374.6200000001,"ADDRESS":"民族街３５２巷２號之１","OBJECTID":252744},"geometry":{"x":183038.37000000011,"y":2570374.6200000048}},{"attributes":{"ID":252749,"DIS_CODE":0,"TOWNNAME":"六甲區","LI":"水林里","LIN":"14鄰","STREET":"民族街","SECT":" ","MAREA":" ","LANE":"３５２巷","ALLEY":" ","HOUSE_NO":"２號","E_COORD97":183027.62,"N_COORD97":2570381.6899999999,"ADDRESS":"民族街３５２巷２號","OBJECTID":252745},"geometry":{"x":183027.62000000104,"y":2570381.6899999995}},{"attributes":{"ID":252750,"DIS_CODE":0,"TOWNNAME":"六甲區","LI":"水林里","LIN":"14鄰","STREET":"民族街","SECT":" ","MAREA":" ","LANE":"３５２巷","ALLEY":" ","HOUSE_NO":"４０號","E_COORD97":183094.48000000001,"N_COORD97":2570468.4100000001,"ADDRESS":"民族街３５２巷４０號","OBJECTID":252746},"geometry":{"x":183094.48000000138,"y":2570468.4100000001}},{"attributes":{"ID":252751,"DIS_CODE":0,"TOWNNAME":"六甲區","LI":"水林里","LIN":"14鄰","STREET":"民族街","SECT":" ","MAREA":" ","LANE":"３５２巷","ALLEY":" ","HOUSE_NO":"４８號","E_COORD97":183075.94,"N_COORD97":2570494.96,"ADDRESS":"民族街３５２巷４８號","OBJECTID":252747},"geometry":{"x":183075.94000000227,"y":2570494.9600000028}},{"attributes":{"ID":252752,"DIS_CODE":0,"TOWNNAME":"六甲區","LI":"水林里","LIN":"14鄰","STREET":"民族街","SECT":" ","MAREA":" ","LANE":"３５２巷","ALLEY":" ","HOUSE_NO":"５４號","E_COORD97":183098.64999999999,"N_COORD97":2570496.25,"ADDRESS":"民族街３５２巷５４號","OBJECTID":252748},"geometry":{"x":183098.6500000013,"y":2570496.2500000019}},{"attributes":{"ID":252753,"DIS_CODE":0,"TOWNNAME":"六甲區","LI":"水林里","LIN":"14鄰","STREET":"民族街","SECT":" ","MAREA":" ","LANE":"３７８巷","ALLEY":" ","HOUSE_NO":"２號之３","E_COORD97":182971.59,"N_COORD97":2570384.02,"ADDRESS":"民族街３７８巷２號之３","OBJECTID":252749},"geometry":{"x":182971.59000000078,"y":2570384.0200000033}},{"attributes":{"ID":252754,"DIS_CODE":0,"TOWNNAME":"六甲區","LI":"水林里","LIN":"14鄰","STREET":"民族街","SECT":" ","MAREA":" ","LANE":"３７８巷","ALLEY":" ","HOUSE_NO":"２之４號","E_COORD97":182980.13,"N_COORD97":2570385.9500000002,"ADDRESS":"民族街３７８巷２之４號","OBJECTID":252750},"geometry":{"x":182980.12999999989,"y":2570385.9499999993}},{"attributes":{"ID":252755,"DIS_CODE":0,"TOWNNAME":"六甲區","LI":"水林里","LIN":"14鄰","STREET":"民族街","SECT":" ","MAREA":" ","LANE":"３７８巷","ALLEY":" ","HOUSE_NO":"２之５號","E_COORD97":182984.62,"N_COORD97":2570384.0499999998,"ADDRESS":"民族街３７８巷２之５號","OBJECTID":252751},"geometry":{"x":182984.62000000197,"y":2570384.0500000007}},{"attributes":{"ID":252756,"DIS_CODE":0,"TOWNNAME":"六甲區","LI":"水林里","LIN":"14鄰","STREET":"民族街","SECT":" ","MAREA":" ","LANE":"３７８巷","ALLEY":" ","HOUSE_NO":"２之６號","E_COORD97":182989.10999999999,"N_COORD97":2570382.1499999999,"ADDRESS":"民族街３７８巷２之６號","OBJECTID":252752},"geometry":{"x":182989.11000000034,"y":2570382.1500000004}},{"attributes":{"ID":252757,"DIS_CODE":0,"TOWNNAME":"六甲區","LI":"水林里","LIN":"14鄰","STREET":"民族街","SECT":" ","MAREA":" ","LANE":"３７８巷","ALLEY":" ","HOUSE_NO":"３０號","E_COORD97":182997.75,"N_COORD97":2570482.8300000001,"ADDRESS":"民族街３７８巷３０號","OBJECTID":252753},"geometry":{"x":182997.75000000093,"y":2570482.8300000001}},{"attributes":{"ID":252758,"DIS_CODE":0,"TOWNNAME":"六甲區","LI":"水林里","LIN":"14鄰","STREET":"民族街","SECT":" ","MAREA":" ","LANE":"３７８巷","ALLEY":" ","HOUSE_NO":"３２號","E_COORD97":182999.19,"N_COORD97":2570486.48,"ADDRESS":"民族街３７８巷３２號","OBJECTID":252754},"geometry":{"x":182999.19000000041,"y":2570486.4800000004}},{"attributes":{"ID":252759,"DIS_CODE":0,"TOWNNAME":"後壁區","LI":"嘉田里","LIN":"1鄰","STREET":" ","SECT":" ","MAREA":"上茄苳","LANE":" ","ALLEY":" ","HOUSE_NO":"２號","E_COORD97":186952.64999999999,"N_COORD97":2587486.2400000002,"ADDRESS":"上茄苳２號","OBJECTID":252755},"geometry":{"x":186952.65000000037,"y":2587486.2400000002}},{"attributes":{"ID":252760,"DIS_CODE":0,"TOWNNAME":"六甲區","LI":"水林里","LIN":"14鄰","STREET":"民族街","SECT":" ","MAREA":" ","LANE":"３７８巷","ALLEY":" ","HOUSE_NO":"４號","E_COORD97":183002.48000000001,"N_COORD97":2570428.5699999998,"ADDRESS":"民族街３７８巷４號","OBJECTID":252756},"geometry":{"x":183002.48000000045,"y":2570428.570000004}},{"attributes":{"ID":252761,"DIS_CODE":0,"TOWNNAME":"六甲區","LI":"水林里","LIN":"14鄰","STREET":"民族街","SECT":" ","MAREA":" ","LANE":"３７８巷","ALLEY":" ","HOUSE_NO":"６號","E_COORD97":182985.62,"N_COORD97":2570431.54,"ADDRESS":"民族街３７８巷６號","OBJECTID":252757},"geometry":{"x":182985.62000000011,"y":2570431.540000001}},{"attributes":{"ID":252762,"DIS_CODE":0,"TOWNNAME":"六甲區","LI":"水林里","LIN":"14鄰","STREET":"民族街","SECT":" ","MAREA":" ","LANE":"３７８巷","ALLEY":" ","HOUSE_NO":"８號","E_COORD97":183001.89999999999,"N_COORD97":2570456.2799999998,"ADDRESS":"民族街３７８巷８號","OBJECTID":252758},"geometry":{"x":183001.9000000013,"y":2570456.2799999975}},{"attributes":{"ID":252763,"DIS_CODE":0,"TOWNNAME":"新營區","LI":"南興里","LIN":"14鄰","STREET":"興農街","SECT":" ","MAREA":" ","LANE":"１３６巷","ALLEY":" ","HOUSE_NO":"２１號","E_COORD97":179160.60999999999,"N_COORD97":2577601.04,"ADDRESS":"興農街１３６巷２１號","OBJECTID":252759},"geometry":{"x":179160.61000000127,"y":2577601.0399999991}},{"attributes":{"ID":252764,"DIS_CODE":0,"TOWNNAME":"新營區","LI":"南興里","LIN":"14鄰","STREET":"興農街","SECT":" ","MAREA":" ","LANE":"１３６巷","ALLEY":" ","HOUSE_NO":"２３號","E_COORD97":179148.32999999999,"N_COORD97":2577601.1000000001,"ADDRESS":"興農街１３６巷２３號","OBJECTID":252760},"geometry":{"x":179148.33000000007,"y":2577601.0999999996}},{"attributes":{"ID":252765,"DIS_CODE":0,"TOWNNAME":"柳營區","LI":"光福里","LIN":"14鄰","STREET":"成功街","SECT":" ","MAREA":" ","LANE":"２２２巷","ALLEY":" ","HOUSE_NO":"２號","E_COORD97":179732.79999999999,"N_COORD97":2575303.6499999999,"ADDRESS":"成功街２２２巷２號","OBJECTID":252761},"geometry":{"x":179732.79999999981,"y":2575303.6500000022}},{"attributes":{"ID":252766,"DIS_CODE":0,"TOWNNAME":"南區","LI":"建南里","LIN":"14鄰","STREET":"中華南路","SECT":"二段","MAREA":" ","LANE":"１９７巷","ALLEY":" ","HOUSE_NO":"１號","E_COORD97":166987.32999999999,"N_COORD97":2540195.21,"ADDRESS":"中華南路二段１９７巷１號","OBJECTID":252762},"geometry":{"x":166987.33000000194,"y":2540195.2100000009}},{"attributes":{"ID":252767,"DIS_CODE":0,"TOWNNAME":"南區","LI":"同安里","LIN":"14鄰","STREET":"明興路","SECT":" ","MAREA":" ","LANE":"１３６５巷","ALLEY":" ","HOUSE_NO":"１２號","E_COORD97":166421.38,"N_COORD97":2535885.73,"ADDRESS":"明興路１３６５巷１２號","OBJECTID":252763},"geometry":{"x":166421.37999999989,"y":2535885.7300000004}},{"attributes":{"ID":252768,"DIS_CODE":0,"TOWNNAME":"南區","LI":"同安里","LIN":"14鄰","STREET":"明興路","SECT":" ","MAREA":" ","LANE":"１３６５巷","ALLEY":" ","HOUSE_NO":"１４號","E_COORD97":166425.70000000001,"N_COORD97":2535884.6899999999,"ADDRESS":"明興路１３６５巷１４號","OBJECTID":252764},"geometry":{"x":166425.70000000112,"y":2535884.6899999995}},{"attributes":{"ID":252769,"DIS_CODE":0,"TOWNNAME":"南區","LI":"同安里","LIN":"14鄰","STREET":"明興路","SECT":" ","MAREA":" ","LANE":"１３６５巷","ALLEY":" ","HOUSE_NO":"１６號","E_COORD97":166429.57000000001,"N_COORD97":2535886.7000000002,"ADDRESS":"明興路１３６５巷１６號","OBJECTID":252765},"geometry":{"x":166429.5700000003,"y":2535886.7000000011}},{"attributes":{"ID":252770,"DIS_CODE":0,"TOWNNAME":"南區","LI":"同安里","LIN":"14鄰","STREET":"明興路","SECT":" ","MAREA":" ","LANE":"１３６５巷","ALLEY":" ","HOUSE_NO":"１８號","E_COORD97":166433.98000000001,"N_COORD97":2535885.9300000002,"ADDRESS":"明興路１３６５巷１８號","OBJECTID":252766},"geometry":{"x":166433.98000000231,"y":2535885.9299999997}},{"attributes":{"ID":252771,"DIS_CODE":0,"TOWNNAME":"南區","LI":"同安里","LIN":"14鄰","STREET":"明興路","SECT":" ","MAREA":" ","LANE":"１３６５巷","ALLEY":" ","HOUSE_NO":"２０號","E_COORD97":166438.48000000001,"N_COORD97":2535884.71,"ADDRESS":"明興路１３６５巷２０號","OBJECTID":252767},"geometry":{"x":166438.48000000045,"y":2535884.7100000028}},{"attributes":{"ID":252772,"DIS_CODE":0,"TOWNNAME":"南區","LI":"同安里","LIN":"14鄰","STREET":"明興路","SECT":" ","MAREA":" ","LANE":"１３６５巷","ALLEY":" ","HOUSE_NO":"２６號","E_COORD97":166451.64000000001,"N_COORD97":2535880.5699999998,"ADDRESS":"明興路１３６５巷２６號","OBJECTID":252768},"geometry":{"x":166451.63999999966,"y":2535880.570000004}},{"attributes":{"ID":252773,"DIS_CODE":0,"TOWNNAME":"南區","LI":"同安里","LIN":"14鄰","STREET":"明興路","SECT":" ","MAREA":" ","LANE":"１３６５巷","ALLEY":" ","HOUSE_NO":"２８號","E_COORD97":166455.62,"N_COORD97":2535882.21,"ADDRESS":"明興路１３６５巷２８號","OBJECTID":252769},"geometry":{"x":166455.62000000011,"y":2535882.2100000009}},{"attributes":{"ID":252774,"DIS_CODE":0,"TOWNNAME":"南區","LI":"同安里","LIN":"14鄰","STREET":"明興路","SECT":" ","MAREA":" ","LANE":"１３６５巷","ALLEY":" ","HOUSE_NO":"２號","E_COORD97":166402.42000000001,"N_COORD97":2535891.8700000001,"ADDRESS":"明興路１３６５巷２號","OBJECTID":252770},"geometry":{"x":166402.42000000086,"y":2535891.870000001}},{"attributes":{"ID":252775,"DIS_CODE":0,"TOWNNAME":"南區","LI":"同安里","LIN":"14鄰","STREET":"明興路","SECT":" ","MAREA":" ","LANE":"１３６５巷","ALLEY":" ","HOUSE_NO":"３０號","E_COORD97":166459.42999999999,"N_COORD97":2535879.27,"ADDRESS":"明興路１３６５巷３０號","OBJECTID":252771},"geometry":{"x":166459.43000000063,"y":2535879.2700000014}},{"attributes":{"ID":252776,"DIS_CODE":0,"TOWNNAME":"後壁區","LI":"嘉田里","LIN":"5鄰","STREET":" ","SECT":" ","MAREA":"上茄苳","LANE":" ","ALLEY":" ","HOUSE_NO":"４７號之３２","E_COORD97":186910.48000000001,"N_COORD97":2587043.8599999999,"ADDRESS":"上茄苳４７號之３２","OBJECTID":252772},"geometry":{"x":186910.48000000138,"y":2587043.8599999994}},{"attributes":{"ID":252777,"DIS_CODE":0,"TOWNNAME":"後壁區","LI":"嘉田里","LIN":"5鄰","STREET":" ","SECT":" ","MAREA":"上茄苳","LANE":" ","ALLEY":" ","HOUSE_NO":"４７號之６","E_COORD97":186867.09,"N_COORD97":2587071.75,"ADDRESS":"上茄苳４７號之６","OBJECTID":252773},"geometry":{"x":186867.09000000078,"y":2587071.7500000019}},{"attributes":{"ID":252778,"DIS_CODE":0,"TOWNNAME":"後壁區","LI":"嘉田里","LIN":"5鄰","STREET":" ","SECT":" ","MAREA":"上茄苳","LANE":" ","ALLEY":" ","HOUSE_NO":"４７號之７","E_COORD97":186888.17000000001,"N_COORD97":2587072.9700000002,"ADDRESS":"上茄苳４７號之７","OBJECTID":252774},"geometry":{"x":186888.17000000086,"y":2587072.9700000044}},{"attributes":{"ID":252779,"DIS_CODE":0,"TOWNNAME":"後壁區","LI":"嘉田里","LIN":"5鄰","STREET":" ","SECT":" ","MAREA":"上茄苳","LANE":" ","ALLEY":" ","HOUSE_NO":"４７號","E_COORD97":186852.97,"N_COORD97":2587113.1499999999,"ADDRESS":"上茄苳４７號","OBJECTID":252775},"geometry":{"x":186852.96999999974,"y":2587113.1500000022}},{"attributes":{"ID":252780,"DIS_CODE":0,"TOWNNAME":"南區","LI":"同安里","LIN":"14鄰","STREET":"明興路","SECT":" ","MAREA":" ","LANE":"１３６５巷","ALLEY":" ","HOUSE_NO":"３４號","E_COORD97":166467.04999999999,"N_COORD97":2535876.7599999998,"ADDRESS":"明興路１３６５巷３４號","OBJECTID":252776},"geometry":{"x":166467.05000000075,"y":2535876.7600000016}},{"attributes":{"ID":252781,"DIS_CODE":0,"TOWNNAME":"歸仁區","LI":"許厝里","LIN":"14鄰","STREET":"中山路","SECT":"一段","MAREA":" ","LANE":"３８２巷","ALLEY":" ","HOUSE_NO":"２３號","E_COORD97":178149.20000000001,"N_COORD97":2540770.27,"ADDRESS":"中山路一段３８２巷２３號","OBJECTID":252777},"geometry":{"x":178149.20000000019,"y":2540770.2699999996}},{"attributes":{"ID":252782,"DIS_CODE":0,"TOWNNAME":"歸仁區","LI":"許厝里","LIN":"14鄰","STREET":"中山路","SECT":"一段","MAREA":" ","LANE":"３８２巷","ALLEY":" ","HOUSE_NO":"４２號","E_COORD97":178119.60000000001,"N_COORD97":2540814.27,"ADDRESS":"中山路一段３８２巷４２號","OBJECTID":252778},"geometry":{"x":178119.60000000056,"y":2540814.2699999996}},{"attributes":{"ID":252783,"DIS_CODE":0,"TOWNNAME":"歸仁區","LI":"看東里","LIN":"14鄰","STREET":"中山一街","SECT":" ","MAREA":" ","LANE":"１２巷","ALLEY":" ","HOUSE_NO":"１０號","E_COORD97":178572.89000000001,"N_COORD97":2540592.6400000001,"ADDRESS":"中山一街１２巷１０號","OBJECTID":252779},"geometry":{"x":178572.88999999873,"y":2540592.6399999987}},{"attributes":{"ID":252784,"DIS_CODE":0,"TOWNNAME":"歸仁區","LI":"看東里","LIN":"14鄰","STREET":"中山一街","SECT":" ","MAREA":" ","LANE":"１２巷","ALLEY":" ","HOUSE_NO":"１６號","E_COORD97":178560.59,"N_COORD97":2540593.6400000001,"ADDRESS":"中山一街１２巷１６號","OBJECTID":252780},"geometry":{"x":178560.59000000078,"y":2540593.6400000025}},{"attributes":{"ID":252785,"DIS_CODE":0,"TOWNNAME":"歸仁區","LI":"武東里","LIN":"14鄰","STREET":"明德路","SECT":" ","MAREA":" ","LANE":"５２巷","ALLEY":" ","HOUSE_NO":"２號","E_COORD97":175503.04000000001,"N_COORD97":2536234.27,"ADDRESS":"明德路５２巷２號","OBJECTID":252781},"geometry":{"x":175503.04000000097,"y":2536234.2700000033}},{"attributes":{"ID":252786,"DIS_CODE":0,"TOWNNAME":"歸仁區","LI":"西埔里","LIN":"14鄰","STREET":"西埔二街","SECT":" ","MAREA":" ","LANE":"８７巷","ALLEY":" ","HOUSE_NO":"３號","E_COORD97":176741.64000000001,"N_COORD97":2544708.25,"ADDRESS":"西埔二街８７巷３號","OBJECTID":252782},"geometry":{"x":176741.63999999966,"y":2544708.2500000019}},{"attributes":{"ID":252787,"DIS_CODE":0,"TOWNNAME":"歸仁區","LI":"西埔里","LIN":"14鄰","STREET":"西埔二街","SECT":" ","MAREA":" ","LANE":"８７巷","ALLEY":" ","HOUSE_NO":"５號","E_COORD97":176763.14000000001,"N_COORD97":2544711.25,"ADDRESS":"西埔二街８７巷５號","OBJECTID":252783},"geometry":{"x":176763.1400000006,"y":2544711.2500000019}},{"attributes":{"ID":252788,"DIS_CODE":0,"TOWNNAME":"歸仁區","LI":"武東里","LIN":"14鄰","STREET":"光明街","SECT":" ","MAREA":" ","LANE":"８６巷","ALLEY":" ","HOUSE_NO":"１３５號","E_COORD97":175367.69,"N_COORD97":2536558.25,"ADDRESS":"光明街８６巷１３５號","OBJECTID":252784},"geometry":{"x":175367.69000000041,"y":2536558.2500000019}},{"attributes":{"ID":252789,"DIS_CODE":0,"TOWNNAME":"歸仁區","LI":"武東里","LIN":"14鄰","STREET":"明德路","SECT":" ","MAREA":" ","LANE":"５２巷","ALLEY":" ","HOUSE_NO":"３５號","E_COORD97":175476.19,"N_COORD97":2536365.27,"ADDRESS":"明德路５２巷３５號","OBJECTID":252785},"geometry":{"x":175476.19000000041,"y":2536365.2699999996}},{"attributes":{"ID":252790,"DIS_CODE":0,"TOWNNAME":"歸仁區","LI":"武東里","LIN":"14鄰","STREET":"明德路","SECT":" ","MAREA":" ","LANE":"５２巷","ALLEY":" ","HOUSE_NO":"３６號","E_COORD97":175499.79000000001,"N_COORD97":2536363.27,"ADDRESS":"明德路５２巷３６號","OBJECTID":252786},"geometry":{"x":175499.79000000097,"y":2536363.2700000033}},{"attributes":{"ID":252791,"DIS_CODE":0,"TOWNNAME":"北區","LI":"中樓里","LIN":"18鄰","STREET":"勝利路","SECT":" ","MAREA":" ","LANE":"３７７巷","ALLEY":" ","HOUSE_NO":"１０號","E_COORD97":169860.601799,"N_COORD97":2544909.01198,"ADDRESS":"勝利路３７７巷１０號","OBJECTID":252787},"geometry":{"x":169860.60179900192,"y":2544909.0119819995}},{"attributes":{"ID":252792,"DIS_CODE":0,"TOWNNAME":"北區","LI":"中樓里","LIN":"18鄰","STREET":"勝利路","SECT":" ","MAREA":" ","LANE":"３７７巷","ALLEY":" ","HOUSE_NO":"１２號","E_COORD97":169857.213105,"N_COORD97":2544907.5303199999,"ADDRESS":"勝利路３７７巷１２號","OBJECTID":252788},"geometry":{"x":169857.21310500056,"y":2544907.5303159989}},{"attributes":{"ID":252793,"DIS_CODE":0,"TOWNNAME":"北區","LI":"中樓里","LIN":"18鄰","STREET":"勝利路","SECT":" ","MAREA":" ","LANE":"３７７巷","ALLEY":" ","HOUSE_NO":"１４號","E_COORD97":169853.18903099999,"N_COORD97":2544907.3186499998,"ADDRESS":"勝利路３７７巷１４號","OBJECTID":252789},"geometry":{"x":169853.18903100211,"y":2544907.3186490014}},{"attributes":{"ID":252794,"DIS_CODE":0,"TOWNNAME":"北區","LI":"中樓里","LIN":"18鄰","STREET":"勝利路","SECT":" ","MAREA":" ","LANE":"３７７巷","ALLEY":" ","HOUSE_NO":"２號","E_COORD97":169895.33591200001,"N_COORD97":2544921.9236400002,"ADDRESS":"勝利路３７７巷２號","OBJECTID":252790},"geometry":{"x":169895.33591200039,"y":2544921.9236409999}},{"attributes":{"ID":252795,"DIS_CODE":0,"TOWNNAME":"北區","LI":"中樓里","LIN":"18鄰","STREET":"勝利路","SECT":" ","MAREA":" ","LANE":"３７７巷","ALLEY":" ","HOUSE_NO":"６號","E_COORD97":169888.134938,"N_COORD97":2544920.23031,"ADDRESS":"勝利路３７７巷６號","OBJECTID":252791},"geometry":{"x":169888.1349380007,"y":2544920.2303090002}},{"attributes":{"ID":252796,"DIS_CODE":0,"TOWNNAME":"北區","LI":"中樓里","LIN":"18鄰","STREET":"勝利路","SECT":" ","MAREA":" ","LANE":"３７７巷","ALLEY":" ","HOUSE_NO":"８號","E_COORD97":169874.580162,"N_COORD97":2544913.6686499999,"ADDRESS":"勝利路３７７巷８號","OBJECTID":252792},"geometry":{"x":169874.58016200084,"y":2544913.6686460003}},{"attributes":{"ID":252797,"DIS_CODE":0,"TOWNNAME":"歸仁區","LI":"歸南里","LIN":"14鄰","STREET":"民生南街","SECT":"二段","MAREA":" ","LANE":"２７７巷","ALLEY":" ","HOUSE_NO":"４０號","E_COORD97":176195.91,"N_COORD97":2539988.25,"ADDRESS":"民生南街二段２７７巷４０號","OBJECTID":252793},"geometry":{"x":176195.91000000015,"y":2539988.2500000037}},{"attributes":{"ID":252798,"DIS_CODE":0,"TOWNNAME":"歸仁區","LI":"歸南里","LIN":"14鄰","STREET":"民生南街","SECT":"二段","MAREA":" ","LANE":"２７７巷","ALLEY":" ","HOUSE_NO":"３６號","E_COORD97":176185.60999999999,"N_COORD97":2539987.25,"ADDRESS":"民生南街二段２７７巷３６號","OBJECTID":252794},"geometry":{"x":176185.61000000127,"y":2539987.25}},{"attributes":{"ID":252799,"DIS_CODE":0,"TOWNNAME":"歸仁區","LI":"歸南里","LIN":"14鄰","STREET":"民生南街","SECT":"二段","MAREA":" ","LANE":"２７７巷","ALLEY":" ","HOUSE_NO":"１８號","E_COORD97":176137.41,"N_COORD97":2539978.25,"ADDRESS":"民生南街二段２７７巷１８號","OBJECTID":252795},"geometry":{"x":176137.41000000201,"y":2539978.2500000019}},{"attributes":{"ID":252800,"DIS_CODE":0,"TOWNNAME":"歸仁區","LI":"歸南里","LIN":"14鄰","STREET":"民生南街","SECT":"二段","MAREA":" ","LANE":"２７７巷","ALLEY":" ","HOUSE_NO":"２６號","E_COORD97":176161.01000000001,"N_COORD97":2539983.25,"ADDRESS":"民生南街二段２７７巷２６號","OBJECTID":252796},"geometry":{"x":176161.00999999978,"y":2539983.25}},{"attributes":{"ID":252801,"DIS_CODE":0,"TOWNNAME":"歸仁區","LI":"歸南里","LIN":"14鄰","STREET":"民生南街","SECT":"二段","MAREA":" ","LANE":"２７７巷","ALLEY":" ","HOUSE_NO":"４２號","E_COORD97":176200.01000000001,"N_COORD97":2539989.25,"ADDRESS":"民生南街二段２７７巷４２號","OBJECTID":252797},"geometry":{"x":176200.00999999978,"y":2539989.2500000019}},{"attributes":{"ID":252802,"DIS_CODE":0,"TOWNNAME":"歸仁區","LI":"歸南里","LIN":"14鄰","STREET":"民生南街","SECT":"二段","MAREA":" ","LANE":"２７７巷","ALLEY":" ","HOUSE_NO":"１６號","E_COORD97":176133.31,"N_COORD97":2539978.25,"ADDRESS":"民生南街二段２７７巷１６號","OBJECTID":252798},"geometry":{"x":176133.30999999959,"y":2539978.2500000019}},{"attributes":{"ID":252803,"DIS_CODE":0,"TOWNNAME":"歸仁區","LI":"歸南里","LIN":"14鄰","STREET":"民生南街","SECT":"二段","MAREA":" ","LANE":"２７７巷","ALLEY":" ","HOUSE_NO":"４８號","E_COORD97":176209.20999999999,"N_COORD97":2539992.25,"ADDRESS":"民生南街二段２７７巷４８號","OBJECTID":252799},"geometry":{"x":176209.20999999996,"y":2539992.2500000019}},{"attributes":{"ID":252804,"DIS_CODE":0,"TOWNNAME":"歸仁區","LI":"歸南里","LIN":"14鄰","STREET":"民生南街","SECT":"二段","MAREA":" ","LANE":"２７７巷","ALLEY":" ","HOUSE_NO":"３２號","E_COORD97":176175.41,"N_COORD97":2539985.25,"ADDRESS":"民生南街二段２７７巷３２號","OBJECTID":252800},"geometry":{"x":176175.41000000108,"y":2539985.2500000019}}]}