{"displayFieldName":"TOWNNAME","fieldAliases":{"ID":"ID","DIS_CODE":"DIS_CODE","TOWNNAME":"TOWNNAME","LI":"LI","LIN":"LIN","STREET":"STREET","SECT":"SECT","MAREA":"MAREA","LANE":"LANE","ALLEY":"ALLEY","HOUSE_NO":"HOUSE_NO","E_COORD97":"E_COORD97","N_COORD97":"N_COORD97","ADDRESS":"ADDRESS","OBJECTID":"OBJECTID"},"geometryType":"esriGeometryPoint","spatialReference":{"wkid":102443,"latestWkid":3826},"fields":[{"name":"ID","type":"esriFieldTypeDouble","alias":"ID"},{"name":"DIS_CODE","type":"esriFieldTypeInteger","alias":"DIS_CODE"},{"name":"TOWNNAME","type":"esriFieldTypeString","alias":"TOWNNAME","length":8},{"name":"LI","type":"esriFieldTypeString","alias":"LI","length":8},{"name":"LIN","type":"esriFieldTypeString","alias":"LIN","length":12},{"name":"STREET","type":"esriFieldTypeString","alias":"STREET","length":20},{"name":"SECT","type":"esriFieldTypeString","alias":"SECT","length":8},{"name":"MAREA","type":"esriFieldTypeString","alias":"MAREA","length":12},{"name":"LANE","type":"esriFieldTypeString","alias":"LANE","length":10},{"name":"ALLEY","type":"esriFieldTypeString","alias":"ALLEY","length":10},{"name":"HOUSE_NO","type":"esriFieldTypeString","alias":"HOUSE_NO","length":20},{"name":"E_COORD97","type":"esriFieldTypeDouble","alias":"E_COORD97"},{"name":"N_COORD97","type":"esriFieldTypeDouble","alias":"N_COORD97"},{"name":"ADDRESS","type":"esriFieldTypeString","alias":"ADDRESS","length":50},{"name":"OBJECTID","type":"esriFieldTypeOID","alias":"OBJECTID"}],"features":[{"attributes":{"ID":52401,"DIS_CODE":0,"TOWNNAME":"東區","LI":"富裕里","LIN":"15鄰","STREET":"東門路","SECT":"二段","MAREA":" ","LANE":"３０１巷","ALLEY":"７３弄","HOUSE_NO":"１１號","E_COORD97":170901.37,"N_COORD97":2542785.23,"ADDRESS":"東門路二段３０１巷７３弄１１號","OBJECTID":52401},"geometry":{"x":170901.37000000104,"y":2542785.2300000004}},{"attributes":{"ID":52402,"DIS_CODE":0,"TOWNNAME":"佳里區","LI":"民安里","LIN":"1鄰","STREET":" ","SECT":" ","MAREA":"同安寮","LANE":" ","ALLEY":" ","HOUSE_NO":"１號之３１","E_COORD97":167219.35000000001,"N_COORD97":2562994.3399999999,"ADDRESS":"同安寮１號之３１","OBJECTID":52402},"geometry":{"x":167219.35000000056,"y":2562994.3400000036}},{"attributes":{"ID":52403,"DIS_CODE":0,"TOWNNAME":"東區","LI":"富裕里","LIN":"15鄰","STREET":"東門路","SECT":"二段","MAREA":" ","LANE":"３０１巷","ALLEY":"７３弄","HOUSE_NO":"１２號","E_COORD97":170897.29999999999,"N_COORD97":2542785.1200000001,"ADDRESS":"東門路二段３０１巷７３弄１２號","OBJECTID":52403},"geometry":{"x":170897.29999999981,"y":2542785.1200000029}},{"attributes":{"ID":52404,"DIS_CODE":0,"TOWNNAME":"東區","LI":"富裕里","LIN":"15鄰","STREET":"東門路","SECT":"二段","MAREA":" ","LANE":"３０１巷","ALLEY":"７３弄","HOUSE_NO":"１３號","E_COORD97":170892.73000000001,"N_COORD97":2542785.0099999998,"ADDRESS":"東門路二段３０１巷７３弄１３號","OBJECTID":52404},"geometry":{"x":170892.73000000138,"y":2542785.0099999998}},{"attributes":{"ID":52405,"DIS_CODE":0,"TOWNNAME":"東區","LI":"富裕里","LIN":"15鄰","STREET":"東門路","SECT":"二段","MAREA":" ","LANE":"３０１巷","ALLEY":"７３弄","HOUSE_NO":"１４號","E_COORD97":170888.54000000001,"N_COORD97":2542784.8999999999,"ADDRESS":"東門路二段３０１巷７３弄１４號","OBJECTID":52405},"geometry":{"x":170888.54000000097,"y":2542784.9000000022}},{"attributes":{"ID":52406,"DIS_CODE":0,"TOWNNAME":"東區","LI":"富裕里","LIN":"15鄰","STREET":"東門路","SECT":"二段","MAREA":" ","LANE":"３０１巷","ALLEY":"７３弄","HOUSE_NO":"１５號","E_COORD97":170883.81,"N_COORD97":2542784.5699999998,"ADDRESS":"東門路二段３０１巷７３弄１５號","OBJECTID":52406},"geometry":{"x":170883.80999999959,"y":2542784.5700000022}},{"attributes":{"ID":52407,"DIS_CODE":0,"TOWNNAME":"東區","LI":"富裕里","LIN":"15鄰","STREET":"東門路","SECT":"二段","MAREA":" ","LANE":"３０１巷","ALLEY":"７３弄","HOUSE_NO":"１號","E_COORD97":170902.26000000001,"N_COORD97":2542751.7200000002,"ADDRESS":"東門路二段３０１巷７３弄１號","OBJECTID":52407},"geometry":{"x":170902.26000000071,"y":2542751.7200000007}},{"attributes":{"ID":52408,"DIS_CODE":0,"TOWNNAME":"新營區","LI":"新東里","LIN":"17鄰","STREET":"東興四街","SECT":" ","MAREA":" ","LANE":"３２巷","ALLEY":"１３弄","HOUSE_NO":"６號","E_COORD97":180920.70000000001,"N_COORD97":2579121,"ADDRESS":"東興四街３２巷１３弄６號","OBJECTID":52408},"geometry":{"x":180920.70000000019,"y":2579121}},{"attributes":{"ID":52409,"DIS_CODE":0,"TOWNNAME":"佳里區","LI":"民安里","LIN":"1鄰","STREET":" ","SECT":" ","MAREA":"同安寮","LANE":" ","ALLEY":" ","HOUSE_NO":"１號之３２","E_COORD97":166829.17000000001,"N_COORD97":2562806.9199999999,"ADDRESS":"同安寮１號之３２","OBJECTID":52409},"geometry":{"x":166829.17000000086,"y":2562806.9199999999}},{"attributes":{"ID":52410,"DIS_CODE":0,"TOWNNAME":"佳里區","LI":"民安里","LIN":"1鄰","STREET":" ","SECT":" ","MAREA":"同安寮","LANE":" ","ALLEY":" ","HOUSE_NO":"１號之３３","E_COORD97":167163.67000000001,"N_COORD97":2563026.5899999999,"ADDRESS":"同安寮１號之３３","OBJECTID":52410},"geometry":{"x":167163.66999999993,"y":2563026.5900000036}},{"attributes":{"ID":52411,"DIS_CODE":0,"TOWNNAME":"東區","LI":"富裕里","LIN":"15鄰","STREET":"東門路","SECT":"二段","MAREA":" ","LANE":"３０１巷","ALLEY":"７３弄","HOUSE_NO":"２號","E_COORD97":170898.13,"N_COORD97":2542751.2799999998,"ADDRESS":"東門路二段３０１巷７３弄２號","OBJECTID":52411},"geometry":{"x":170898.13000000082,"y":2542751.2800000012}},{"attributes":{"ID":52412,"DIS_CODE":0,"TOWNNAME":"東區","LI":"富裕里","LIN":"15鄰","STREET":"東門路","SECT":"二段","MAREA":" ","LANE":"３０１巷","ALLEY":"７３弄","HOUSE_NO":"５號","E_COORD97":170886.35000000001,"N_COORD97":2542751.1699999999,"ADDRESS":"東門路二段３０１巷７３弄５號","OBJECTID":52412},"geometry":{"x":170886.35000000056,"y":2542751.1699999999}},{"attributes":{"ID":52413,"DIS_CODE":0,"TOWNNAME":"東區","LI":"富裕里","LIN":"15鄰","STREET":"東門路","SECT":"二段","MAREA":" ","LANE":"３０１巷","ALLEY":"７３弄","HOUSE_NO":"６號","E_COORD97":170900.26999999999,"N_COORD97":2542767.04,"ADDRESS":"東門路二段３０１巷７３弄６號","OBJECTID":52413},"geometry":{"x":170900.27000000048,"y":2542767.0399999991}},{"attributes":{"ID":52414,"DIS_CODE":0,"TOWNNAME":"東區","LI":"富裕里","LIN":"15鄰","STREET":"東門路","SECT":"二段","MAREA":" ","LANE":"３０１巷","ALLEY":"７３弄","HOUSE_NO":"７號","E_COORD97":170896.57999999999,"N_COORD97":2542766.98,"ADDRESS":"東門路二段３０１巷７３弄７號","OBJECTID":52414},"geometry":{"x":170896.58000000101,"y":2542766.9800000042}},{"attributes":{"ID":52415,"DIS_CODE":0,"TOWNNAME":"東區","LI":"富裕里","LIN":"15鄰","STREET":"東門路","SECT":"二段","MAREA":" ","LANE":"３０１巷","ALLEY":"７３弄","HOUSE_NO":"８號","E_COORD97":170892.78,"N_COORD97":2542766.4900000002,"ADDRESS":"東門路二段３０１巷７３弄８號","OBJECTID":52415},"geometry":{"x":170892.78000000026,"y":2542766.4899999984}},{"attributes":{"ID":52416,"DIS_CODE":0,"TOWNNAME":"東區","LI":"富裕里","LIN":"15鄰","STREET":"東門路","SECT":"二段","MAREA":" ","LANE":"３０１巷","ALLEY":"７３弄","HOUSE_NO":"９號","E_COORD97":170888.88,"N_COORD97":2542766.21,"ADDRESS":"東門路二段３０１巷７３弄９號","OBJECTID":52416},"geometry":{"x":170888.87999999896,"y":2542766.2100000046}},{"attributes":{"ID":52417,"DIS_CODE":0,"TOWNNAME":"佳里區","LI":"民安里","LIN":"1鄰","STREET":" ","SECT":" ","MAREA":"同安寮","LANE":" ","ALLEY":" ","HOUSE_NO":"１號之３５","E_COORD97":167169.19,"N_COORD97":2562994.7200000002,"ADDRESS":"同安寮１號之３５","OBJECTID":52417},"geometry":{"x":167169.19000000041,"y":2562994.7200000007}},{"attributes":{"ID":52418,"DIS_CODE":0,"TOWNNAME":"佳里區","LI":"民安里","LIN":"1鄰","STREET":" ","SECT":" ","MAREA":"同安寮","LANE":" ","ALLEY":" ","HOUSE_NO":"１號之３６","E_COORD97":167256.56,"N_COORD97":2562908.0099999998,"ADDRESS":"同安寮１號之３６","OBJECTID":52418},"geometry":{"x":167256.56000000052,"y":2562908.0099999998}},{"attributes":{"ID":52419,"DIS_CODE":0,"TOWNNAME":"佳里區","LI":"民安里","LIN":"1鄰","STREET":" ","SECT":" ","MAREA":"同安寮","LANE":" ","ALLEY":" ","HOUSE_NO":"１號之３８","E_COORD97":167274.67000000001,"N_COORD97":2562907.46,"ADDRESS":"同安寮１號之３８","OBJECTID":52419},"geometry":{"x":167274.67000000179,"y":2562907.4600000028}},{"attributes":{"ID":52420,"DIS_CODE":0,"TOWNNAME":"東區","LI":"和平里","LIN":"15鄰","STREET":"東門路","SECT":"三段","MAREA":" ","LANE":"２２６巷","ALLEY":"５０弄","HOUSE_NO":"１１號","E_COORD97":171458.67000000001,"N_COORD97":2541922.3700000001,"ADDRESS":"東門路三段２２６巷５０弄１１號","OBJECTID":52420},"geometry":{"x":171458.67000000086,"y":2541922.3700000029}},{"attributes":{"ID":52421,"DIS_CODE":0,"TOWNNAME":"東區","LI":"和平里","LIN":"15鄰","STREET":"東門路","SECT":"三段","MAREA":" ","LANE":"２２６巷","ALLEY":"５０弄","HOUSE_NO":"１號","E_COORD97":171461.22,"N_COORD97":2541895.5499999998,"ADDRESS":"東門路三段２２６巷５０弄１號","OBJECTID":52421},"geometry":{"x":171461.2200000016,"y":2541895.5500000045}},{"attributes":{"ID":52422,"DIS_CODE":0,"TOWNNAME":"東區","LI":"和平里","LIN":"15鄰","STREET":"東門路","SECT":"三段","MAREA":" ","LANE":"２２６巷","ALLEY":"５０弄","HOUSE_NO":"３號","E_COORD97":171461.73999999999,"N_COORD97":2541900.4100000001,"ADDRESS":"東門路三段２２６巷５０弄３號","OBJECTID":52422},"geometry":{"x":171461.74000000115,"y":2541900.410000002}},{"attributes":{"ID":52423,"DIS_CODE":0,"TOWNNAME":"東區","LI":"和平里","LIN":"15鄰","STREET":"東門路","SECT":"三段","MAREA":" ","LANE":"２２６巷","ALLEY":"５０弄","HOUSE_NO":"９號","E_COORD97":171459.17999999999,"N_COORD97":2541917.0099999998,"ADDRESS":"東門路三段２２６巷５０弄９號","OBJECTID":52423},"geometry":{"x":171459.1799999997,"y":2541917.0099999998}},{"attributes":{"ID":52424,"DIS_CODE":0,"TOWNNAME":"東區","LI":"富強里","LIN":"15鄰","STREET":"裕農路","SECT":" ","MAREA":" ","LANE":"３５０巷","ALLEY":"１０弄","HOUSE_NO":"１號","E_COORD97":171016.34,"N_COORD97":2543003.5899999999,"ADDRESS":"裕農路３５０巷１０弄１號","OBJECTID":52424},"geometry":{"x":171016.34000000171,"y":2543003.5900000017}},{"attributes":{"ID":52425,"DIS_CODE":0,"TOWNNAME":"東區","LI":"富強里","LIN":"15鄰","STREET":"裕農路","SECT":" ","MAREA":" ","LANE":"３５０巷","ALLEY":"１０弄","HOUSE_NO":"２號","E_COORD97":171005.26999999999,"N_COORD97":2543016.7000000002,"ADDRESS":"裕農路３５０巷１０弄２號","OBJECTID":52425},"geometry":{"x":171005.27000000048,"y":2543016.7000000011}},{"attributes":{"ID":52426,"DIS_CODE":0,"TOWNNAME":"佳里區","LI":"民安里","LIN":"1鄰","STREET":" ","SECT":" ","MAREA":"同安寮","LANE":" ","ALLEY":" ","HOUSE_NO":"１號之３９","E_COORD97":167194.07000000001,"N_COORD97":2562891.9100000001,"ADDRESS":"同安寮１號之３９","OBJECTID":52426},"geometry":{"x":167194.0700000003,"y":2562891.9100000001}},{"attributes":{"ID":52427,"DIS_CODE":0,"TOWNNAME":"佳里區","LI":"民安里","LIN":"1鄰","STREET":" ","SECT":" ","MAREA":"同安寮","LANE":" ","ALLEY":" ","HOUSE_NO":"１號之３","E_COORD97":166951.97,"N_COORD97":2562656.9199999999,"ADDRESS":"同安寮１號之３","OBJECTID":52427},"geometry":{"x":166951.9700000016,"y":2562656.9199999999}},{"attributes":{"ID":52428,"DIS_CODE":0,"TOWNNAME":"佳里區","LI":"民安里","LIN":"1鄰","STREET":" ","SECT":" ","MAREA":"同安寮","LANE":" ","ALLEY":" ","HOUSE_NO":"１號之４７","E_COORD97":166978.88,"N_COORD97":2562925.7200000002,"ADDRESS":"同安寮１號之４７","OBJECTID":52428},"geometry":{"x":166978.88000000082,"y":2562925.7200000025}},{"attributes":{"ID":52429,"DIS_CODE":0,"TOWNNAME":"佳里區","LI":"民安里","LIN":"1鄰","STREET":" ","SECT":" ","MAREA":"同安寮","LANE":" ","ALLEY":" ","HOUSE_NO":"１號之４","E_COORD97":167230.51000000001,"N_COORD97":2562894.9100000001,"ADDRESS":"同安寮１號之４","OBJECTID":52429},"geometry":{"x":167230.51000000071,"y":2562894.9100000001}},{"attributes":{"ID":52430,"DIS_CODE":0,"TOWNNAME":"東區","LI":"富強里","LIN":"15鄰","STREET":"裕農路","SECT":" ","MAREA":" ","LANE":"３５０巷","ALLEY":"１０弄","HOUSE_NO":"３號","E_COORD97":171012.85999999999,"N_COORD97":2543001.5299999998,"ADDRESS":"裕農路３５０巷１０弄３號","OBJECTID":52430},"geometry":{"x":171012.86000000034,"y":2543001.5299999993}},{"attributes":{"ID":52431,"DIS_CODE":0,"TOWNNAME":"大內區","LI":"石湖里","LIN":"17鄰","STREET":" ","SECT":" ","MAREA":"新厝子","LANE":" ","ALLEY":" ","HOUSE_NO":"５６號","E_COORD97":183457.72,"N_COORD97":2560912.25,"ADDRESS":"新厝子５６號","OBJECTID":52431},"geometry":{"x":183457.71999999974,"y":2560912.25}},{"attributes":{"ID":52432,"DIS_CODE":0,"TOWNNAME":"東區","LI":"富強里","LIN":"15鄰","STREET":"裕農路","SECT":" ","MAREA":" ","LANE":"３５０巷","ALLEY":"１０弄","HOUSE_NO":"５號","E_COORD97":171008.59,"N_COORD97":2542999.9500000002,"ADDRESS":"裕農路３５０巷１０弄５號","OBJECTID":52432},"geometry":{"x":171008.59000000078,"y":2542999.950000003}},{"attributes":{"ID":52433,"DIS_CODE":0,"TOWNNAME":"新營區","LI":"新南里","LIN":"24鄰","STREET":"隋唐街","SECT":" ","MAREA":" ","LANE":"２９５巷","ALLEY":"２７弄","HOUSE_NO":"１０號","E_COORD97":178199.19,"N_COORD97":2578486.0899999999,"ADDRESS":"隋唐街２９５巷２７弄１０號","OBJECTID":52433},"geometry":{"x":178199.19000000134,"y":2578486.0899999999}},{"attributes":{"ID":52434,"DIS_CODE":0,"TOWNNAME":"東區","LI":"富強里","LIN":"15鄰","STREET":"裕農路","SECT":" ","MAREA":" ","LANE":"３５０巷","ALLEY":"２４弄","HOUSE_NO":"１１號","E_COORD97":171005.57999999999,"N_COORD97":2542968.79,"ADDRESS":"裕農路３５０巷２４弄１１號","OBJECTID":52434},"geometry":{"x":171005.58000000101,"y":2542968.7899999991}},{"attributes":{"ID":52435,"DIS_CODE":0,"TOWNNAME":"東區","LI":"富強里","LIN":"15鄰","STREET":"裕農路","SECT":" ","MAREA":" ","LANE":"３５０巷","ALLEY":"２４弄","HOUSE_NO":"１號","E_COORD97":171027.41,"N_COORD97":2542971.1600000001,"ADDRESS":"裕農路３５０巷２４弄１號","OBJECTID":52435},"geometry":{"x":171027.41000000015,"y":2542971.1600000001}},{"attributes":{"ID":52436,"DIS_CODE":0,"TOWNNAME":"東區","LI":"富強里","LIN":"15鄰","STREET":"裕農路","SECT":" ","MAREA":" ","LANE":"３５０巷","ALLEY":"２４弄","HOUSE_NO":"２號","E_COORD97":171022.35000000001,"N_COORD97":2542990.48,"ADDRESS":"裕農路３５０巷２４弄２號","OBJECTID":52436},"geometry":{"x":171022.34999999963,"y":2542990.4800000004}},{"attributes":{"ID":52437,"DIS_CODE":0,"TOWNNAME":"東區","LI":"富強里","LIN":"15鄰","STREET":"裕農路","SECT":" ","MAREA":" ","LANE":"３５０巷","ALLEY":"２４弄","HOUSE_NO":"３號","E_COORD97":171022.82000000001,"N_COORD97":2542969.5800000001,"ADDRESS":"裕農路３５０巷２４弄３號","OBJECTID":52437},"geometry":{"x":171022.82000000123,"y":2542969.5800000038}},{"attributes":{"ID":52438,"DIS_CODE":0,"TOWNNAME":"東區","LI":"富強里","LIN":"15鄰","STREET":"裕農路","SECT":" ","MAREA":" ","LANE":"３５０巷","ALLEY":"２４弄","HOUSE_NO":"６號","E_COORD97":171018.54999999999,"N_COORD97":2542988.7400000002,"ADDRESS":"裕農路３５０巷２４弄６號","OBJECTID":52438},"geometry":{"x":171018.55000000075,"y":2542988.7400000039}},{"attributes":{"ID":52439,"DIS_CODE":0,"TOWNNAME":"東區","LI":"虎尾里","LIN":"17鄰","STREET":"富農街","SECT":"一段","MAREA":" ","LANE":"２９巷","ALLEY":" ","HOUSE_NO":"６號","E_COORD97":171492.42999999999,"N_COORD97":2542203.8300000001,"ADDRESS":"富農街一段２９巷６號","OBJECTID":52439},"geometry":{"x":171492.43000000063,"y":2542203.8300000001}},{"attributes":{"ID":52440,"DIS_CODE":0,"TOWNNAME":"北區","LI":"成德里","LIN":"35鄰","STREET":"育德一街","SECT":" ","MAREA":" ","LANE":" ","ALLEY":" ","HOUSE_NO":"２２０號","E_COORD97":168560.63,"N_COORD97":2546248.6899999999,"ADDRESS":"育德一街２２０號","OBJECTID":52440},"geometry":{"x":168560.63000000082,"y":2546248.6899999995}},{"attributes":{"ID":52441,"DIS_CODE":0,"TOWNNAME":"北區","LI":"成德里","LIN":"26鄰","STREET":"育德一街","SECT":" ","MAREA":" ","LANE":" ","ALLEY":" ","HOUSE_NO":"３號","E_COORD97":168478.51000000001,"N_COORD97":2545786,"ADDRESS":"育德一街３號","OBJECTID":52441},"geometry":{"x":168478.50999999978,"y":2545786}},{"attributes":{"ID":52442,"DIS_CODE":0,"TOWNNAME":"北區","LI":"成德里","LIN":"25鄰","STREET":"育德一街","SECT":" ","MAREA":" ","LANE":" ","ALLEY":" ","HOUSE_NO":"２８號","E_COORD97":168545.17999999999,"N_COORD97":2545833.6200000001,"ADDRESS":"育德一街２８號","OBJECTID":52442},"geometry":{"x":168545.1799999997,"y":2545833.620000001}},{"attributes":{"ID":52443,"DIS_CODE":0,"TOWNNAME":"北區","LI":"成德里","LIN":"25鄰","STREET":"育德一街","SECT":" ","MAREA":" ","LANE":" ","ALLEY":" ","HOUSE_NO":"２號","E_COORD97":168522.95999999999,"N_COORD97":2545781.23,"ADDRESS":"育德一街２號","OBJECTID":52443},"geometry":{"x":168522.95999999996,"y":2545781.2300000004}},{"attributes":{"ID":52444,"DIS_CODE":0,"TOWNNAME":"北區","LI":"成德里","LIN":"25鄰","STREET":"育德一街","SECT":" ","MAREA":" ","LANE":" ","ALLEY":" ","HOUSE_NO":"３０號","E_COORD97":168528.67000000001,"N_COORD97":2545835.21,"ADDRESS":"育德一街３０號","OBJECTID":52444},"geometry":{"x":168528.66999999993,"y":2545835.2100000028}},{"attributes":{"ID":52445,"DIS_CODE":0,"TOWNNAME":"東區","LI":"虎尾里","LIN":"17鄰","STREET":"富農街","SECT":"一段","MAREA":" ","LANE":" ","ALLEY":" ","HOUSE_NO":"３７號","E_COORD97":171505.92999999999,"N_COORD97":2542212.3900000001,"ADDRESS":"富農街一段３７號","OBJECTID":52445},"geometry":{"x":171505.93000000063,"y":2542212.3900000025}},{"attributes":{"ID":52446,"DIS_CODE":0,"TOWNNAME":"玉井區","LI":"中正里","LIN":"8鄰","STREET":"健康街","SECT":" ","MAREA":" ","LANE":" ","ALLEY":" ","HOUSE_NO":"６５號","E_COORD97":195570.14000000001,"N_COORD97":2558850.2999999998,"ADDRESS":"健康街６５號","OBJECTID":52446},"geometry":{"x":195570.13999999966,"y":2558850.3000000026}},{"attributes":{"ID":52447,"DIS_CODE":0,"TOWNNAME":"玉井區","LI":"玉井里","LIN":"8鄰","STREET":"富強街","SECT":" ","MAREA":" ","LANE":" ","ALLEY":" ","HOUSE_NO":"５８號","E_COORD97":194837.62,"N_COORD97":2558251.25,"ADDRESS":"富強街５８號","OBJECTID":52447},"geometry":{"x":194837.62000000104,"y":2558251.25}},{"attributes":{"ID":52448,"DIS_CODE":0,"TOWNNAME":"玉井區","LI":"玉井里","LIN":"8鄰","STREET":"富強街","SECT":" ","MAREA":" ","LANE":" ","ALLEY":" ","HOUSE_NO":"６２號","E_COORD97":194826.70999999999,"N_COORD97":2558251.25,"ADDRESS":"富強街６２號","OBJECTID":52448},"geometry":{"x":194826.71000000089,"y":2558251.25}},{"attributes":{"ID":52449,"DIS_CODE":0,"TOWNNAME":"玉井區","LI":"玉井里","LIN":"8鄰","STREET":"富強街","SECT":" ","MAREA":" ","LANE":" ","ALLEY":" ","HOUSE_NO":"６８號","E_COORD97":194815.62,"N_COORD97":2558252.25,"ADDRESS":"富強街６８號","OBJECTID":52449},"geometry":{"x":194815.62000000104,"y":2558252.2500000019}},{"attributes":{"ID":52450,"DIS_CODE":0,"TOWNNAME":"玉井區","LI":"玉井里","LIN":"8鄰","STREET":"富強街","SECT":" ","MAREA":" ","LANE":" ","ALLEY":" ","HOUSE_NO":"５６號","E_COORD97":194842.42000000001,"N_COORD97":2558251.25,"ADDRESS":"富強街５６號","OBJECTID":52450},"geometry":{"x":194842.42000000086,"y":2558251.25}},{"attributes":{"ID":52451,"DIS_CODE":0,"TOWNNAME":"玉井區","LI":"中正里","LIN":"8鄰","STREET":"中正路","SECT":" ","MAREA":" ","LANE":" ","ALLEY":" ","HOUSE_NO":"５８３號","E_COORD97":195700.14999999999,"N_COORD97":2558849.25,"ADDRESS":"中正路５８３號","OBJECTID":52451},"geometry":{"x":195700.15000000224,"y":2558849.2500000019}},{"attributes":{"ID":52452,"DIS_CODE":0,"TOWNNAME":"玉井區","LI":"玉井里","LIN":"8鄰","STREET":"民生路","SECT":" ","MAREA":" ","LANE":" ","ALLEY":" ","HOUSE_NO":"３０號","E_COORD97":194779.92999999999,"N_COORD97":2558260.29,"ADDRESS":"民生路３０號","OBJECTID":52452},"geometry":{"x":194779.9299999997,"y":2558260.2899999991}},{"attributes":{"ID":52453,"DIS_CODE":0,"TOWNNAME":"玉井區","LI":"玉井里","LIN":"8鄰","STREET":"民生路","SECT":" ","MAREA":" ","LANE":" ","ALLEY":" ","HOUSE_NO":"３６號","E_COORD97":194781.63,"N_COORD97":2558268.2799999998,"ADDRESS":"民生路３６號","OBJECTID":52453},"geometry":{"x":194781.63000000082,"y":2558268.2800000031}},{"attributes":{"ID":52454,"DIS_CODE":0,"TOWNNAME":"大內區","LI":"石湖里","LIN":"17鄰","STREET":" ","SECT":" ","MAREA":"新厝子","LANE":" ","ALLEY":" ","HOUSE_NO":"４４號","E_COORD97":183989.42000000001,"N_COORD97":2560849.25,"ADDRESS":"新厝子４４號","OBJECTID":52454},"geometry":{"x":183989.42000000086,"y":2560849.2500000037}},{"attributes":{"ID":52455,"DIS_CODE":0,"TOWNNAME":"佳里區","LI":"民安里","LIN":"1鄰","STREET":" ","SECT":" ","MAREA":"同安寮","LANE":" ","ALLEY":" ","HOUSE_NO":"１號之５","E_COORD97":167149.04999999999,"N_COORD97":2562905.6899999999,"ADDRESS":"同安寮１號之５","OBJECTID":52455},"geometry":{"x":167149.04999999981,"y":2562905.6899999995}},{"attributes":{"ID":52456,"DIS_CODE":0,"TOWNNAME":"東區","LI":"富強里","LIN":"15鄰","STREET":"裕農路","SECT":" ","MAREA":" ","LANE":"３５０巷","ALLEY":"２４弄","HOUSE_NO":"７號","E_COORD97":171014.28,"N_COORD97":2542968.3100000001,"ADDRESS":"裕農路３５０巷２４弄７號","OBJECTID":52456},"geometry":{"x":171014.28000000119,"y":2542968.3100000042}},{"attributes":{"ID":52457,"DIS_CODE":0,"TOWNNAME":"東區","LI":"富強里","LIN":"15鄰","STREET":"裕農路","SECT":" ","MAREA":" ","LANE":"３５０巷","ALLEY":"２４弄","HOUSE_NO":"８號","E_COORD97":171013.64999999999,"N_COORD97":2542988.4199999999,"ADDRESS":"裕農路３５０巷２４弄８號","OBJECTID":52457},"geometry":{"x":171013.6500000013,"y":2542988.4200000018}},{"attributes":{"ID":52458,"DIS_CODE":0,"TOWNNAME":"安南區","LI":"淵中里","LIN":"15鄰","STREET":"安中路","SECT":"四段","MAREA":" ","LANE":"１５４巷","ALLEY":"９７弄","HOUSE_NO":"９號","E_COORD97":165070.97460399999,"N_COORD97":2550222.0438899999,"ADDRESS":"安中路四段１５４巷９７弄９號","OBJECTID":52458},"geometry":{"x":165070.97460400034,"y":2550222.0438900013}},{"attributes":{"ID":52459,"DIS_CODE":0,"TOWNNAME":"安南區","LI":"淵中里","LIN":"15鄰","STREET":"安中路","SECT":"四段","MAREA":" ","LANE":"１５４巷","ALLEY":"９７弄","HOUSE_NO":"７號","E_COORD97":165073.09352600001,"N_COORD97":2550216.7522300002,"ADDRESS":"安中路四段１５４巷９７弄７號","OBJECTID":52459},"geometry":{"x":165073.09352600016,"y":2550216.7522270009}},{"attributes":{"ID":52460,"DIS_CODE":0,"TOWNNAME":"安南區","LI":"淵中里","LIN":"15鄰","STREET":"安中路","SECT":"四段","MAREA":" ","LANE":"１５４巷","ALLEY":"９７弄","HOUSE_NO":"１３號","E_COORD97":165065.25351400001,"N_COORD97":2550234.3205499998,"ADDRESS":"安中路四段１５４巷９７弄１３號","OBJECTID":52460},"geometry":{"x":165065.25351400021,"y":2550234.3205500003}},{"attributes":{"ID":52461,"DIS_CODE":0,"TOWNNAME":"佳里區","LI":"民安里","LIN":"1鄰","STREET":" ","SECT":" ","MAREA":"同安寮","LANE":" ","ALLEY":" ","HOUSE_NO":"１號之６","E_COORD97":167224.92999999999,"N_COORD97":2562894.21,"ADDRESS":"同安寮１號之６","OBJECTID":52461},"geometry":{"x":167224.9299999997,"y":2562894.2100000009}},{"attributes":{"ID":52462,"DIS_CODE":0,"TOWNNAME":"佳里區","LI":"民安里","LIN":"1鄰","STREET":" ","SECT":" ","MAREA":"同安寮","LANE":" ","ALLEY":" ","HOUSE_NO":"１號之８","E_COORD97":167049.22,"N_COORD97":2562859.1899999999,"ADDRESS":"同安寮１號之８","OBJECTID":52462},"geometry":{"x":167049.22000000067,"y":2562859.1899999976}},{"attributes":{"ID":52463,"DIS_CODE":0,"TOWNNAME":"中西區","LI":"大涼里","LIN":"15鄰","STREET":"府前一街","SECT":" ","MAREA":" ","LANE":"９巷","ALLEY":"１２弄","HOUSE_NO":"２８號","E_COORD97":166765.5,"N_COORD97":2543780.9900000002,"ADDRESS":"府前一街９巷１２弄２８號","OBJECTID":52463},"geometry":{"x":166765.49999999907,"y":2543780.9900000021}},{"attributes":{"ID":52464,"DIS_CODE":0,"TOWNNAME":"中西區","LI":"大涼里","LIN":"15鄰","STREET":"府前一街","SECT":" ","MAREA":" ","LANE":"９巷","ALLEY":"１２弄","HOUSE_NO":"３０號","E_COORD97":166764.73000000001,"N_COORD97":2543784.7999999998,"ADDRESS":"府前一街９巷１２弄３０號","OBJECTID":52464},"geometry":{"x":166764.73000000138,"y":2543784.8000000007}},{"attributes":{"ID":52465,"DIS_CODE":0,"TOWNNAME":"中西區","LI":"大涼里","LIN":"15鄰","STREET":"府前一街","SECT":" ","MAREA":" ","LANE":"９巷","ALLEY":"１２弄","HOUSE_NO":"３２號","E_COORD97":166764.13,"N_COORD97":2543789.23,"ADDRESS":"府前一街９巷１２弄３２號","OBJECTID":52465},"geometry":{"x":166764.12999999989,"y":2543789.2300000042}},{"attributes":{"ID":52466,"DIS_CODE":0,"TOWNNAME":"中西區","LI":"大涼里","LIN":"15鄰","STREET":"府前一街","SECT":" ","MAREA":" ","LANE":"９巷","ALLEY":"１２弄","HOUSE_NO":"３４號","E_COORD97":166761.44,"N_COORD97":2543793.5899999999,"ADDRESS":"府前一街９巷１２弄３４號","OBJECTID":52466},"geometry":{"x":166761.44000000227,"y":2543793.5900000017}},{"attributes":{"ID":52467,"DIS_CODE":0,"TOWNNAME":"佳里區","LI":"民安里","LIN":"1鄰","STREET":" ","SECT":" ","MAREA":"同安寮","LANE":" ","ALLEY":" ","HOUSE_NO":"１號之９","E_COORD97":166929.22,"N_COORD97":2562836.5800000001,"ADDRESS":"同安寮１號之９","OBJECTID":52467},"geometry":{"x":166929.21999999974,"y":2562836.5800000001}},{"attributes":{"ID":52468,"DIS_CODE":0,"TOWNNAME":"佳里區","LI":"民安里","LIN":"1鄰","STREET":" ","SECT":" ","MAREA":"同安寮","LANE":" ","ALLEY":" ","HOUSE_NO":"２號之１０","E_COORD97":166632.51999999999,"N_COORD97":2562405.5600000001,"ADDRESS":"同安寮２號之１０","OBJECTID":52468},"geometry":{"x":166632.51999999955,"y":2562405.5600000005}},{"attributes":{"ID":52469,"DIS_CODE":0,"TOWNNAME":"佳里區","LI":"民安里","LIN":"1鄰","STREET":" ","SECT":" ","MAREA":"同安寮","LANE":" ","ALLEY":" ","HOUSE_NO":"２號之１１","E_COORD97":166885.85000000001,"N_COORD97":2562384.04,"ADDRESS":"同安寮２號之１１","OBJECTID":52469},"geometry":{"x":166885.84999999963,"y":2562384.0399999991}},{"attributes":{"ID":52470,"DIS_CODE":0,"TOWNNAME":"中西區","LI":"大涼里","LIN":"15鄰","STREET":"府前一街","SECT":" ","MAREA":" ","LANE":"９巷","ALLEY":"１２弄","HOUSE_NO":"３６號","E_COORD97":166761.79999999999,"N_COORD97":2543798.1000000001,"ADDRESS":"府前一街９巷１２弄３６號","OBJECTID":52470},"geometry":{"x":166761.80000000168,"y":2543798.0999999996}},{"attributes":{"ID":52471,"DIS_CODE":0,"TOWNNAME":"中西區","LI":"大涼里","LIN":"15鄰","STREET":"府前一街","SECT":" ","MAREA":" ","LANE":"９巷","ALLEY":"１２弄","HOUSE_NO":"３８號","E_COORD97":166760.70999999999,"N_COORD97":2543802.6000000001,"ADDRESS":"府前一街９巷１２弄３８號","OBJECTID":52471},"geometry":{"x":166760.71000000183,"y":2543802.5999999978}},{"attributes":{"ID":52472,"DIS_CODE":0,"TOWNNAME":"中西區","LI":"大涼里","LIN":"15鄰","STREET":"府前一街","SECT":" ","MAREA":" ","LANE":"９巷","ALLEY":"１２弄","HOUSE_NO":"４０號","E_COORD97":166759.17999999999,"N_COORD97":2543807.04,"ADDRESS":"府前一街９巷１２弄４０號","OBJECTID":52472},"geometry":{"x":166759.18000000063,"y":2543807.040000001}},{"attributes":{"ID":52473,"DIS_CODE":0,"TOWNNAME":"中西區","LI":"大涼里","LIN":"15鄰","STREET":"府前一街","SECT":" ","MAREA":" ","LANE":"９巷","ALLEY":"１２弄","HOUSE_NO":"４２號","E_COORD97":166757.51000000001,"N_COORD97":2543811.5099999998,"ADDRESS":"府前一街９巷１２弄４２號","OBJECTID":52473},"geometry":{"x":166757.51000000071,"y":2543811.5100000016}},{"attributes":{"ID":52474,"DIS_CODE":0,"TOWNNAME":"中西區","LI":"大涼里","LIN":"15鄰","STREET":"府前一街","SECT":" ","MAREA":" ","LANE":"９巷","ALLEY":"１２弄","HOUSE_NO":"４２號之１","E_COORD97":166756.64000000001,"N_COORD97":2543816.6699999999,"ADDRESS":"府前一街９巷１２弄４２號之１","OBJECTID":52474},"geometry":{"x":166756.6400000006,"y":2543816.6700000018}},{"attributes":{"ID":52475,"DIS_CODE":0,"TOWNNAME":"中西區","LI":"大涼里","LIN":"15鄰","STREET":"府前一街","SECT":" ","MAREA":" ","LANE":"９巷","ALLEY":"１２弄","HOUSE_NO":"４６號","E_COORD97":166755.76000000001,"N_COORD97":2543820.7000000002,"ADDRESS":"府前一街９巷１２弄４６號","OBJECTID":52475},"geometry":{"x":166755.76000000071,"y":2543820.6999999993}},{"attributes":{"ID":52476,"DIS_CODE":0,"TOWNNAME":"中西區","LI":"大涼里","LIN":"15鄰","STREET":"府前一街","SECT":" ","MAREA":" ","LANE":"９巷","ALLEY":"１２弄","HOUSE_NO":"４８號","E_COORD97":166756.13,"N_COORD97":2543825.21,"ADDRESS":"府前一街９巷１２弄４８號","OBJECTID":52476},"geometry":{"x":166756.13000000175,"y":2543825.2100000028}},{"attributes":{"ID":52477,"DIS_CODE":0,"TOWNNAME":"中西區","LI":"大涼里","LIN":"15鄰","STREET":"府前一街","SECT":" ","MAREA":" ","LANE":"９巷","ALLEY":"１２弄","HOUSE_NO":"５０號","E_COORD97":166754.45000000001,"N_COORD97":2543830.2200000002,"ADDRESS":"府前一街９巷１２弄５０號","OBJECTID":52477},"geometry":{"x":166754.45000000112,"y":2543830.2200000044}},{"attributes":{"ID":52478,"DIS_CODE":0,"TOWNNAME":"永康區","LI":"埔園里","LIN":"15鄰","STREET":"中山路","SECT":" ","MAREA":" ","LANE":"３８３巷","ALLEY":"１弄","HOUSE_NO":"２０號","E_COORD97":173522.95000000001,"N_COORD97":2548487.98,"ADDRESS":"中山路３８３巷１弄２０號","OBJECTID":52478},"geometry":{"x":173522.95000000019,"y":2548487.9800000023}},{"attributes":{"ID":52479,"DIS_CODE":0,"TOWNNAME":"永康區","LI":"埔園里","LIN":"15鄰","STREET":"中山路","SECT":" ","MAREA":" ","LANE":"３８３巷","ALLEY":"１弄","HOUSE_NO":"１５號","E_COORD97":173535.94,"N_COORD97":2548492.8500000001,"ADDRESS":"中山路３８３巷１弄１５號","OBJECTID":52479},"geometry":{"x":173535.94000000134,"y":2548492.8499999996}},{"attributes":{"ID":52480,"DIS_CODE":0,"TOWNNAME":"永康區","LI":"埔園里","LIN":"15鄰","STREET":"中山路","SECT":" ","MAREA":" ","LANE":"３８３巷","ALLEY":"１弄","HOUSE_NO":"２６號","E_COORD97":173525.06,"N_COORD97":2548479.73,"ADDRESS":"中山路３８３巷１弄２６號","OBJECTID":52480},"geometry":{"x":173525.05999999866,"y":2548479.7300000023}},{"attributes":{"ID":52481,"DIS_CODE":0,"TOWNNAME":"北區","LI":"成德里","LIN":"26鄰","STREET":"育德一街","SECT":" ","MAREA":" ","LANE":" ","ALLEY":" ","HOUSE_NO":"５號","E_COORD97":168463.89999999999,"N_COORD97":2545787.5800000001,"ADDRESS":"育德一街５號","OBJECTID":52481},"geometry":{"x":168463.9000000013,"y":2545787.5800000019}},{"attributes":{"ID":52482,"DIS_CODE":0,"TOWNNAME":"北區","LI":"成德里","LIN":"26鄰","STREET":"育德一街","SECT":" ","MAREA":" ","LANE":" ","ALLEY":" ","HOUSE_NO":"７號","E_COORD97":168449.62,"N_COORD97":2545787.8999999999,"ADDRESS":"育德一街７號","OBJECTID":52482},"geometry":{"x":168449.62000000011,"y":2545787.9000000004}},{"attributes":{"ID":52483,"DIS_CODE":0,"TOWNNAME":"佳里區","LI":"民安里","LIN":"1鄰","STREET":" ","SECT":" ","MAREA":"同安寮","LANE":" ","ALLEY":" ","HOUSE_NO":"２號之１２","E_COORD97":166790.73000000001,"N_COORD97":2562482.9700000002,"ADDRESS":"同安寮２號之１２","OBJECTID":52483},"geometry":{"x":166790.73000000138,"y":2562482.9700000025}},{"attributes":{"ID":52484,"DIS_CODE":0,"TOWNNAME":"佳里區","LI":"民安里","LIN":"1鄰","STREET":" ","SECT":" ","MAREA":"同安寮","LANE":" ","ALLEY":" ","HOUSE_NO":"２號之１","E_COORD97":166955.73999999999,"N_COORD97":2562375.3900000001,"ADDRESS":"同安寮２號之１","OBJECTID":52484},"geometry":{"x":166955.74000000209,"y":2562375.3900000025}},{"attributes":{"ID":52485,"DIS_CODE":0,"TOWNNAME":"大內區","LI":"石湖里","LIN":"17鄰","STREET":" ","SECT":" ","MAREA":"新厝子","LANE":" ","ALLEY":" ","HOUSE_NO":"４６之６號","E_COORD97":183693.12,"N_COORD97":2560246.2999999998,"ADDRESS":"新厝子４６之６號","OBJECTID":52485},"geometry":{"x":183693.12000000197,"y":2560246.3000000026}},{"attributes":{"ID":52486,"DIS_CODE":0,"TOWNNAME":"大內區","LI":"石湖里","LIN":"17鄰","STREET":" ","SECT":" ","MAREA":"新厝子","LANE":" ","ALLEY":" ","HOUSE_NO":"４３號","E_COORD97":183982.42000000001,"N_COORD97":2560860.25,"ADDRESS":"新厝子４３號","OBJECTID":52486},"geometry":{"x":183982.42000000179,"y":2560860.2500000019}},{"attributes":{"ID":52487,"DIS_CODE":0,"TOWNNAME":"大內區","LI":"石湖里","LIN":"17鄰","STREET":" ","SECT":" ","MAREA":"新厝子","LANE":" ","ALLEY":" ","HOUSE_NO":"５０號之７","E_COORD97":183467.92999999999,"N_COORD97":2560146.2999999998,"ADDRESS":"新厝子５０號之７","OBJECTID":52487},"geometry":{"x":183467.9299999997,"y":2560146.3000000007}},{"attributes":{"ID":52488,"DIS_CODE":0,"TOWNNAME":"大內區","LI":"石湖里","LIN":"17鄰","STREET":" ","SECT":" ","MAREA":"新厝子","LANE":" ","ALLEY":" ","HOUSE_NO":"４５號之１","E_COORD97":183654.45000000001,"N_COORD97":2560993.2999999998,"ADDRESS":"新厝子４５號之１","OBJECTID":52488},"geometry":{"x":183654.45000000112,"y":2560993.3000000026}},{"attributes":{"ID":52489,"DIS_CODE":0,"TOWNNAME":"大內區","LI":"石湖里","LIN":"17鄰","STREET":" ","SECT":" ","MAREA":"新厝子","LANE":" ","ALLEY":" ","HOUSE_NO":"５８號","E_COORD97":183454.92000000001,"N_COORD97":2560922.25,"ADDRESS":"新厝子５８號","OBJECTID":52489},"geometry":{"x":183454.91999999993,"y":2560922.25}},{"attributes":{"ID":52490,"DIS_CODE":0,"TOWNNAME":"永康區","LI":"埔園里","LIN":"15鄰","STREET":"中山路","SECT":" ","MAREA":" ","LANE":"３８３巷","ALLEY":"１弄","HOUSE_NO":"３號","E_COORD97":173527.94,"N_COORD97":2548517.3500000001,"ADDRESS":"中山路３８３巷１弄３號","OBJECTID":52490},"geometry":{"x":173527.94000000041,"y":2548517.3500000034}},{"attributes":{"ID":52491,"DIS_CODE":0,"TOWNNAME":"歸仁區","LI":"媽廟里","LIN":"8鄰","STREET":"中正北路","SECT":"三段","MAREA":" ","LANE":"２０５巷","ALLEY":"２７弄","HOUSE_NO":"３號","E_COORD97":177468.15121800001,"N_COORD97":2543869.13791,"ADDRESS":"中正北路三段２０５巷２７弄３號","OBJECTID":52491},"geometry":{"x":177468.15121799987,"y":2543869.1379080005}},{"attributes":{"ID":52492,"DIS_CODE":0,"TOWNNAME":"新營區","LI":"新南里","LIN":"27鄰","STREET":"復興路","SECT":" ","MAREA":" ","LANE":"６２０巷","ALLEY":"６１弄","HOUSE_NO":"２號","E_COORD97":178034.59,"N_COORD97":2578535.6200000001,"ADDRESS":"復興路６２０巷６１弄２號","OBJECTID":52492},"geometry":{"x":178034.59000000171,"y":2578535.6200000029}},{"attributes":{"ID":52493,"DIS_CODE":0,"TOWNNAME":"新營區","LI":"民榮里","LIN":"38鄰","STREET":"太子路","SECT":" ","MAREA":" ","LANE":"５３巷","ALLEY":"６弄","HOUSE_NO":"１５之２號","E_COORD97":178295.26000000001,"N_COORD97":2577953,"ADDRESS":"太子路５３巷６弄１５之２號","OBJECTID":52493},"geometry":{"x":178295.25999999978,"y":2577953.0000000019}},{"attributes":{"ID":52494,"DIS_CODE":0,"TOWNNAME":"新營區","LI":"新東里","LIN":"14鄰","STREET":"東興六街","SECT":" ","MAREA":" ","LANE":"８９巷","ALLEY":"１４弄","HOUSE_NO":"１２號","E_COORD97":180999.32999999999,"N_COORD97":2579266.8300000001,"ADDRESS":"東興六街８９巷１４弄１２號","OBJECTID":52494},"geometry":{"x":180999.33000000007,"y":2579266.8300000001}},{"attributes":{"ID":52495,"DIS_CODE":0,"TOWNNAME":"新營區","LI":"新東里","LIN":"7鄰","STREET":"東學路","SECT":" ","MAREA":" ","LANE":"１７６巷","ALLEY":"６弄","HOUSE_NO":"１１號","E_COORD97":181170.98999999999,"N_COORD97":2579230.5899999999,"ADDRESS":"東學路１７６巷６弄１１號","OBJECTID":52495},"geometry":{"x":181170.99000000022,"y":2579230.5900000017}},{"attributes":{"ID":52496,"DIS_CODE":0,"TOWNNAME":"永康區","LI":"網寮里","LIN":"15鄰","STREET":"永二街","SECT":" ","MAREA":" ","LANE":"２４４巷","ALLEY":"４８弄","HOUSE_NO":"２號","E_COORD97":173305.64000000001,"N_COORD97":2546628.5,"ADDRESS":"永二街２４４巷４８弄２號","OBJECTID":52496},"geometry":{"x":173305.63999999966,"y":2546628.5000000019}},{"attributes":{"ID":52497,"DIS_CODE":0,"TOWNNAME":"東區","LI":"富強里","LIN":"27鄰","STREET":"裕農路","SECT":" ","MAREA":" ","LANE":"２８８巷","ALLEY":"７０弄","HOUSE_NO":"９號","E_COORD97":170952.72,"N_COORD97":2542900.6899999999,"ADDRESS":"裕農路２８８巷７０弄９號","OBJECTID":52497},"geometry":{"x":170952.7200000016,"y":2542900.6900000013}},{"attributes":{"ID":52498,"DIS_CODE":0,"TOWNNAME":"北區","LI":"成德里","LIN":"26鄰","STREET":"育德一街","SECT":" ","MAREA":" ","LANE":" ","ALLEY":" ","HOUSE_NO":"９號","E_COORD97":168450.25,"N_COORD97":2545806.6299999999,"ADDRESS":"育德一街９號","OBJECTID":52498},"geometry":{"x":168450.25,"y":2545806.6300000008}},{"attributes":{"ID":52499,"DIS_CODE":0,"TOWNNAME":"北區","LI":"成德里","LIN":"34鄰","STREET":"育德一街","SECT":" ","MAREA":" ","LANE":" ","ALLEY":" ","HOUSE_NO":"９８號","E_COORD97":168540.70999999999,"N_COORD97":2546021.77,"ADDRESS":"育德一街９８號","OBJECTID":52499},"geometry":{"x":168540.71000000183,"y":2546021.7699999996}},{"attributes":{"ID":52500,"DIS_CODE":0,"TOWNNAME":"大內區","LI":"石湖里","LIN":"17鄰","STREET":" ","SECT":" ","MAREA":"新厝子","LANE":" ","ALLEY":" ","HOUSE_NO":"５１號","E_COORD97":183460.01999999999,"N_COORD97":2560886.25,"ADDRESS":"新厝子５１號","OBJECTID":52500},"geometry":{"x":183460.02000000048,"y":2560886.2500000037}},{"attributes":{"ID":52501,"DIS_CODE":0,"TOWNNAME":"大內區","LI":"石湖里","LIN":"17鄰","STREET":" ","SECT":" ","MAREA":"新厝子","LANE":" ","ALLEY":" ","HOUSE_NO":"５０號之３","E_COORD97":183294.35000000001,"N_COORD97":2560974.2999999998,"ADDRESS":"新厝子５０號之３","OBJECTID":52501},"geometry":{"x":183294.35000000149,"y":2560974.3000000007}},{"attributes":{"ID":52502,"DIS_CODE":0,"TOWNNAME":"大內區","LI":"石湖里","LIN":"17鄰","STREET":" ","SECT":" ","MAREA":"新厝子","LANE":" ","ALLEY":" ","HOUSE_NO":"４２號之１","E_COORD97":184247.64999999999,"N_COORD97":2561082.2999999998,"ADDRESS":"新厝子４２號之１","OBJECTID":52502},"geometry":{"x":184247.6500000013,"y":2561082.3000000007}},{"attributes":{"ID":52503,"DIS_CODE":0,"TOWNNAME":"北區","LI":"成德里","LIN":"34鄰","STREET":"育德一街","SECT":" ","MAREA":" ","LANE":" ","ALLEY":" ","HOUSE_NO":"９６號","E_COORD97":168540.39000000001,"N_COORD97":2546015.7400000002,"ADDRESS":"育德一街９６號","OBJECTID":52503},"geometry":{"x":168540.38999999966,"y":2546015.7400000002}},{"attributes":{"ID":52504,"DIS_CODE":0,"TOWNNAME":"南區","LI":"大忠里","LIN":"27鄰","STREET":"大同路","SECT":"二段","MAREA":" ","LANE":"四八二巷","ALLEY":"１５５弄","HOUSE_NO":"４５號","E_COORD97":168982.31,"N_COORD97":2541482.77,"ADDRESS":"大同路二段四八二巷１５５弄４５號","OBJECTID":52504},"geometry":{"x":168982.31000000052,"y":2541482.7700000033}},{"attributes":{"ID":52505,"DIS_CODE":0,"TOWNNAME":"南區","LI":"大忠里","LIN":"27鄰","STREET":"大同路","SECT":"二段","MAREA":" ","LANE":"四八二巷","ALLEY":"１５５弄","HOUSE_NO":"４７號","E_COORD97":168979.14000000001,"N_COORD97":2541480.23,"ADDRESS":"大同路二段四八二巷１５５弄４７號","OBJECTID":52505},"geometry":{"x":168979.13999999966,"y":2541480.2299999986}},{"attributes":{"ID":52506,"DIS_CODE":0,"TOWNNAME":"南區","LI":"大忠里","LIN":"27鄰","STREET":"大同路","SECT":"二段","MAREA":" ","LANE":"四八二巷","ALLEY":"１５５弄","HOUSE_NO":"４９號","E_COORD97":168975.95999999999,"N_COORD97":2541477.3700000001,"ADDRESS":"大同路二段四八二巷１５５弄４９號","OBJECTID":52506},"geometry":{"x":168975.95999999996,"y":2541477.3700000029}},{"attributes":{"ID":52507,"DIS_CODE":0,"TOWNNAME":"南區","LI":"大忠里","LIN":"27鄰","STREET":"大同路","SECT":"二段","MAREA":" ","LANE":"四八二巷","ALLEY":"１５５弄","HOUSE_NO":"５１號","E_COORD97":168973.73999999999,"N_COORD97":2541474.8300000001,"ADDRESS":"大同路二段四八二巷１５５弄５１號","OBJECTID":52507},"geometry":{"x":168973.74000000115,"y":2541474.8300000001}},{"attributes":{"ID":52508,"DIS_CODE":0,"TOWNNAME":"南區","LI":"文南里","LIN":"27鄰","STREET":"大同路","SECT":"二段","MAREA":" ","LANE":"４８２巷","ALLEY":"９弄","HOUSE_NO":"２之１號","E_COORD97":169401.17000000001,"N_COORD97":2541549.5499999998,"ADDRESS":"大同路二段４８２巷９弄２之１號","OBJECTID":52508},"geometry":{"x":169401.17000000086,"y":2541549.5499999989}},{"attributes":{"ID":52509,"DIS_CODE":0,"TOWNNAME":"大內區","LI":"石湖里","LIN":"17鄰","STREET":" ","SECT":" ","MAREA":"新厝子","LANE":" ","ALLEY":" ","HOUSE_NO":"３６號","E_COORD97":184095.22,"N_COORD97":2560807.25,"ADDRESS":"新厝子３６號","OBJECTID":52509},"geometry":{"x":184095.21999999974,"y":2560807.25}},{"attributes":{"ID":52510,"DIS_CODE":0,"TOWNNAME":"大內區","LI":"石湖里","LIN":"17鄰","STREET":" ","SECT":" ","MAREA":"新厝子","LANE":" ","ALLEY":" ","HOUSE_NO":"５２號","E_COORD97":183459.51999999999,"N_COORD97":2560889.25,"ADDRESS":"新厝子５２號","OBJECTID":52510},"geometry":{"x":183459.52000000048,"y":2560889.25}},{"attributes":{"ID":52511,"DIS_CODE":0,"TOWNNAME":"大內區","LI":"石湖里","LIN":"17鄰","STREET":" ","SECT":" ","MAREA":"新厝子","LANE":" ","ALLEY":" ","HOUSE_NO":"７６號之２","E_COORD97":183445.59,"N_COORD97":2561068.2999999998,"ADDRESS":"新厝子７６號之２","OBJECTID":52511},"geometry":{"x":183445.59000000171,"y":2561068.3000000007}},{"attributes":{"ID":52512,"DIS_CODE":0,"TOWNNAME":"麻豆區","LI":"南勢里","LIN":"17鄰","STREET":" ","SECT":" ","MAREA":"南勢","LANE":" ","ALLEY":" ","HOUSE_NO":"３６號之１９８","E_COORD97":174375.42000000001,"N_COORD97":2564552.2599999998,"ADDRESS":"南勢３６號之１９８","OBJECTID":52512},"geometry":{"x":174375.41999999993,"y":2564552.2600000016}},{"attributes":{"ID":52513,"DIS_CODE":0,"TOWNNAME":"麻豆區","LI":"南勢里","LIN":"17鄰","STREET":" ","SECT":" ","MAREA":"南勢","LANE":" ","ALLEY":" ","HOUSE_NO":"３６號之１９９","E_COORD97":174380.51999999999,"N_COORD97":2564552.4300000002,"ADDRESS":"南勢３６號之１９９","OBJECTID":52513},"geometry":{"x":174380.52000000048,"y":2564552.4299999997}},{"attributes":{"ID":52514,"DIS_CODE":0,"TOWNNAME":"麻豆區","LI":"南勢里","LIN":"17鄰","STREET":" ","SECT":" ","MAREA":"南勢","LANE":" ","ALLEY":" ","HOUSE_NO":"３６號之２００","E_COORD97":174385.85999999999,"N_COORD97":2564548.6000000001,"ADDRESS":"南勢３６號之２００","OBJECTID":52514},"geometry":{"x":174385.86000000127,"y":2564548.6000000034}},{"attributes":{"ID":52515,"DIS_CODE":0,"TOWNNAME":"麻豆區","LI":"南勢里","LIN":"17鄰","STREET":" ","SECT":" ","MAREA":"南勢","LANE":" ","ALLEY":" ","HOUSE_NO":"３６號之２０１","E_COORD97":174402.39000000001,"N_COORD97":2564553.7799999998,"ADDRESS":"南勢３６號之２０１","OBJECTID":52515},"geometry":{"x":174402.38999999966,"y":2564553.7800000031}},{"attributes":{"ID":52516,"DIS_CODE":0,"TOWNNAME":"麻豆區","LI":"南勢里","LIN":"17鄰","STREET":" ","SECT":" ","MAREA":"南勢","LANE":" ","ALLEY":" ","HOUSE_NO":"３６號之２０２","E_COORD97":174410.79999999999,"N_COORD97":2564554.1600000001,"ADDRESS":"南勢３６號之２０２","OBJECTID":52516},"geometry":{"x":174410.80000000075,"y":2564554.1600000001}},{"attributes":{"ID":52517,"DIS_CODE":0,"TOWNNAME":"仁德區","LI":"仁和里","LIN":"17鄰","STREET":" ","SECT":" ","MAREA":"仁和","LANE":" ","ALLEY":" ","HOUSE_NO":"３５６號之１","E_COORD97":170465.18049500001,"N_COORD97":2539931.3209600002,"ADDRESS":"仁和３５６號之１","OBJECTID":52517},"geometry":{"x":170465.18049500138,"y":2539931.320960002}},{"attributes":{"ID":52518,"DIS_CODE":0,"TOWNNAME":"仁德區","LI":"仁和里","LIN":"17鄰","STREET":" ","SECT":" ","MAREA":"仁和","LANE":" ","ALLEY":" ","HOUSE_NO":"３５２號","E_COORD97":170488.84,"N_COORD97":2539900.5,"ADDRESS":"仁和３５２號","OBJECTID":52518},"geometry":{"x":170488.83999999985,"y":2539900.5}},{"attributes":{"ID":52519,"DIS_CODE":0,"TOWNNAME":"永康區","LI":"龍潭里","LIN":"17鄰","STREET":"龍潭街","SECT":" ","MAREA":" ","LANE":" ","ALLEY":" ","HOUSE_NO":"２０１之１號","E_COORD97":174935.39999999999,"N_COORD97":2548384.2200000002,"ADDRESS":"龍潭街２０１之１號","OBJECTID":52519},"geometry":{"x":174935.40000000037,"y":2548384.2200000025}},{"attributes":{"ID":52520,"DIS_CODE":0,"TOWNNAME":"仁德區","LI":"一甲里","LIN":"17鄰","STREET":"中清路","SECT":" ","MAREA":" ","LANE":" ","ALLEY":" ","HOUSE_NO":"２５０號","E_COORD97":173753.29000000001,"N_COORD97":2541745.0499999998,"ADDRESS":"中清路２５０號","OBJECTID":52520},"geometry":{"x":173753.29000000097,"y":2541745.0500000007}},{"attributes":{"ID":52521,"DIS_CODE":0,"TOWNNAME":"仁德區","LI":"上崙里","LIN":"17鄰","STREET":"德崙路","SECT":" ","MAREA":" ","LANE":" ","ALLEY":" ","HOUSE_NO":"３６６號","E_COORD97":173987.56,"N_COORD97":2538110.5099999998,"ADDRESS":"德崙路３６６號","OBJECTID":52521},"geometry":{"x":173987.55999999959,"y":2538110.5099999998}},{"attributes":{"ID":52522,"DIS_CODE":0,"TOWNNAME":"仁德區","LI":"大甲里","LIN":"17鄰","STREET":"行大一街","SECT":" ","MAREA":" ","LANE":" ","ALLEY":" ","HOUSE_NO":"４１２號","E_COORD97":169446.17999999999,"N_COORD97":2535215.4900000002,"ADDRESS":"行大一街４１２號","OBJECTID":52522},"geometry":{"x":169446.18000000063,"y":2535215.4900000002}},{"attributes":{"ID":52523,"DIS_CODE":0,"TOWNNAME":"仁德區","LI":"仁和里","LIN":"17鄰","STREET":" ","SECT":" ","MAREA":"仁和","LANE":" ","ALLEY":" ","HOUSE_NO":"３３７號","E_COORD97":170471.43546199999,"N_COORD97":2539944.5275699999,"ADDRESS":"仁和３３７號","OBJECTID":52523},"geometry":{"x":170471.43546199985,"y":2539944.5275670011}},{"attributes":{"ID":52524,"DIS_CODE":0,"TOWNNAME":"佳里區","LI":"民安里","LIN":"1鄰","STREET":" ","SECT":" ","MAREA":"同安寮","LANE":" ","ALLEY":" ","HOUSE_NO":"２號之３０","E_COORD97":166869.51999999999,"N_COORD97":2562761.8900000001,"ADDRESS":"同安寮２號之３０","OBJECTID":52524},"geometry":{"x":166869.51999999955,"y":2562761.8900000025}},{"attributes":{"ID":52525,"DIS_CODE":0,"TOWNNAME":"仁德區","LI":"土庫里","LIN":"17鄰","STREET":"土庫一街","SECT":" ","MAREA":" ","LANE":" ","ALLEY":" ","HOUSE_NO":"９５號","E_COORD97":174607.88,"N_COORD97":2543036.75,"ADDRESS":"土庫一街９５號","OBJECTID":52525},"geometry":{"x":174607.87999999989,"y":2543036.7500000019}},{"attributes":{"ID":52526,"DIS_CODE":0,"TOWNNAME":"佳里區","LI":"民安里","LIN":"1鄰","STREET":" ","SECT":" ","MAREA":"同安寮","LANE":" ","ALLEY":" ","HOUSE_NO":"２號之３","E_COORD97":166826.34,"N_COORD97":2562336.5499999998,"ADDRESS":"同安寮２號之３","OBJECTID":52526},"geometry":{"x":166826.34000000078,"y":2562336.5500000026}},{"attributes":{"ID":52527,"DIS_CODE":0,"TOWNNAME":"仁德區","LI":"大甲里","LIN":"17鄰","STREET":"行大街","SECT":" ","MAREA":" ","LANE":" ","ALLEY":" ","HOUSE_NO":"４１９號","E_COORD97":169469.45999999999,"N_COORD97":2535250.25,"ADDRESS":"行大街４１９號","OBJECTID":52527},"geometry":{"x":169469.45999999996,"y":2535250.25}},{"attributes":{"ID":52528,"DIS_CODE":0,"TOWNNAME":"仁德區","LI":"土庫里","LIN":"17鄰","STREET":"土庫一街","SECT":" ","MAREA":" ","LANE":" ","ALLEY":" ","HOUSE_NO":"５８號","E_COORD97":174582.54999999999,"N_COORD97":2543091.5,"ADDRESS":"土庫一街５８號","OBJECTID":52528},"geometry":{"x":174582.54999999981,"y":2543091.5}},{"attributes":{"ID":52529,"DIS_CODE":0,"TOWNNAME":"仁德區","LI":"土庫里","LIN":"17鄰","STREET":"土庫一街","SECT":" ","MAREA":" ","LANE":" ","ALLEY":" ","HOUSE_NO":"７０號","E_COORD97":174587.79000000001,"N_COORD97":2543070.9900000002,"ADDRESS":"土庫一街７０號","OBJECTID":52529},"geometry":{"x":174587.79000000097,"y":2543070.9900000002}},{"attributes":{"ID":52530,"DIS_CODE":0,"TOWNNAME":"佳里區","LI":"民安里","LIN":"1鄰","STREET":" ","SECT":" ","MAREA":"同安寮","LANE":" ","ALLEY":" ","HOUSE_NO":"６號之１","E_COORD97":166955.39999999999,"N_COORD97":2562315.0299999998,"ADDRESS":"同安寮６號之１","OBJECTID":52530},"geometry":{"x":166955.4000000013,"y":2562315.0300000012}},{"attributes":{"ID":52531,"DIS_CODE":0,"TOWNNAME":"佳里區","LI":"民安里","LIN":"1鄰","STREET":" ","SECT":" ","MAREA":"同安寮","LANE":" ","ALLEY":" ","HOUSE_NO":"６號之３","E_COORD97":166896.85000000001,"N_COORD97":2562265.1200000001,"ADDRESS":"同安寮６號之３","OBJECTID":52531},"geometry":{"x":166896.85000000149,"y":2562265.1200000029}},{"attributes":{"ID":52532,"DIS_CODE":0,"TOWNNAME":"佳里區","LI":"民安里","LIN":"1鄰","STREET":" ","SECT":" ","MAREA":"同安寮","LANE":" ","ALLEY":" ","HOUSE_NO":"６號之４","E_COORD97":166917.64000000001,"N_COORD97":2562264.77,"ADDRESS":"同安寮６號之４","OBJECTID":52532},"geometry":{"x":166917.6400000006,"y":2562264.7699999996}},{"attributes":{"ID":52533,"DIS_CODE":0,"TOWNNAME":"佳里區","LI":"民安里","LIN":"1鄰","STREET":" ","SECT":" ","MAREA":"同安寮","LANE":" ","ALLEY":" ","HOUSE_NO":"６號之５","E_COORD97":166912.29999999999,"N_COORD97":2562229.0699999998,"ADDRESS":"同安寮６號之５","OBJECTID":52533},"geometry":{"x":166912.29999999981,"y":2562229.0700000003}},{"attributes":{"ID":52534,"DIS_CODE":0,"TOWNNAME":"佳里區","LI":"民安里","LIN":"1鄰","STREET":" ","SECT":" ","MAREA":"同安寮","LANE":" ","ALLEY":" ","HOUSE_NO":"６號之６","E_COORD97":166907.10999999999,"N_COORD97":2562275.3500000001,"ADDRESS":"同安寮６號之６","OBJECTID":52534},"geometry":{"x":166907.11000000034,"y":2562275.3500000034}},{"attributes":{"ID":52535,"DIS_CODE":0,"TOWNNAME":"佳里區","LI":"民安里","LIN":"1鄰","STREET":" ","SECT":" ","MAREA":"同安寮","LANE":" ","ALLEY":" ","HOUSE_NO":"６號之７","E_COORD97":166943.98999999999,"N_COORD97":2562257.0800000001,"ADDRESS":"同安寮６號之７","OBJECTID":52535},"geometry":{"x":166943.99000000209,"y":2562257.0799999982}},{"attributes":{"ID":52536,"DIS_CODE":0,"TOWNNAME":"佳里區","LI":"民安里","LIN":"1鄰","STREET":" ","SECT":" ","MAREA":"同安寮","LANE":" ","ALLEY":" ","HOUSE_NO":"６號","E_COORD97":166963.91,"N_COORD97":2562340.77,"ADDRESS":"同安寮６號","OBJECTID":52536},"geometry":{"x":166963.91000000015,"y":2562340.7700000014}},{"attributes":{"ID":52537,"DIS_CODE":0,"TOWNNAME":"佳里區","LI":"民安里","LIN":"1鄰","STREET":" ","SECT":" ","MAREA":"同安寮","LANE":" ","ALLEY":" ","HOUSE_NO":"７號","E_COORD97":166973.03,"N_COORD97":2562375,"ADDRESS":"同安寮７號","OBJECTID":52537},"geometry":{"x":166973.03000000119,"y":2562375}},{"attributes":{"ID":52538,"DIS_CODE":0,"TOWNNAME":"佳里區","LI":"民安里","LIN":"1鄰","STREET":" ","SECT":" ","MAREA":"同安寮","LANE":" ","ALLEY":" ","HOUSE_NO":"９號之１","E_COORD97":166984.45999999999,"N_COORD97":2562317.2999999998,"ADDRESS":"同安寮９號之１","OBJECTID":52538},"geometry":{"x":166984.46000000183,"y":2562317.2999999989}},{"attributes":{"ID":52539,"DIS_CODE":0,"TOWNNAME":"佳里區","LI":"民安里","LIN":"1鄰","STREET":" ","SECT":" ","MAREA":"同安寮","LANE":" ","ALLEY":" ","HOUSE_NO":"９號","E_COORD97":166972.28,"N_COORD97":2562295.1899999999,"ADDRESS":"同安寮９號","OBJECTID":52539},"geometry":{"x":166972.28000000026,"y":2562295.1899999995}},{"attributes":{"ID":52540,"DIS_CODE":0,"TOWNNAME":"七股區","LI":"竹港里","LIN":"1鄰","STREET":" ","SECT":" ","MAREA":"竹港","LANE":" ","ALLEY":" ","HOUSE_NO":"８號之１","E_COORD97":165388.59,"N_COORD97":2557582.3900000001,"ADDRESS":"竹港８號之１","OBJECTID":52540},"geometry":{"x":165388.59000000078,"y":2557582.3900000006}},{"attributes":{"ID":52541,"DIS_CODE":0,"TOWNNAME":"七股區","LI":"竹港里","LIN":"1鄰","STREET":" ","SECT":" ","MAREA":"竹港","LANE":" ","ALLEY":" ","HOUSE_NO":"８號之２","E_COORD97":165394.45000000001,"N_COORD97":2557582.5299999998,"ADDRESS":"竹港８號之２","OBJECTID":52541},"geometry":{"x":165394.45000000019,"y":2557582.5300000012}},{"attributes":{"ID":52542,"DIS_CODE":0,"TOWNNAME":"七股區","LI":"竹港里","LIN":"1鄰","STREET":" ","SECT":" ","MAREA":"竹港","LANE":" ","ALLEY":" ","HOUSE_NO":"８號","E_COORD97":165366.32000000001,"N_COORD97":2557600.3700000001,"ADDRESS":"竹港８號","OBJECTID":52542},"geometry":{"x":165366.3200000003,"y":2557600.370000001}},{"attributes":{"ID":52543,"DIS_CODE":0,"TOWNNAME":"七股區","LI":"竹港里","LIN":"1鄰","STREET":" ","SECT":" ","MAREA":"竹港","LANE":" ","ALLEY":" ","HOUSE_NO":"９號之１","E_COORD97":165411.17999999999,"N_COORD97":2557573.71,"ADDRESS":"竹港９號之１","OBJECTID":52543},"geometry":{"x":165411.17999999877,"y":2557573.7100000009}},{"attributes":{"ID":52544,"DIS_CODE":0,"TOWNNAME":"七股區","LI":"竹港里","LIN":"1鄰","STREET":" ","SECT":" ","MAREA":"竹港","LANE":" ","ALLEY":" ","HOUSE_NO":"９號之３","E_COORD97":165453.42999999999,"N_COORD97":2557588.04,"ADDRESS":"竹港９號之３","OBJECTID":52544},"geometry":{"x":165453.4299999997,"y":2557588.0400000028}},{"attributes":{"ID":52545,"DIS_CODE":0,"TOWNNAME":"七股區","LI":"竹港里","LIN":"1鄰","STREET":" ","SECT":" ","MAREA":"竹港","LANE":" ","ALLEY":" ","HOUSE_NO":"９號之５","E_COORD97":165427.76999999999,"N_COORD97":2557584.9300000002,"ADDRESS":"竹港９號之５","OBJECTID":52545},"geometry":{"x":165427.77000000048,"y":2557584.9299999997}},{"attributes":{"ID":52546,"DIS_CODE":0,"TOWNNAME":"七股區","LI":"竹港里","LIN":"1鄰","STREET":" ","SECT":" ","MAREA":"竹港","LANE":" ","ALLEY":" ","HOUSE_NO":"９號","E_COORD97":165405.34,"N_COORD97":2557601.0800000001,"ADDRESS":"竹港９號","OBJECTID":52546},"geometry":{"x":165405.34000000171,"y":2557601.0800000001}},{"attributes":{"ID":52547,"DIS_CODE":0,"TOWNNAME":"七股區","LI":"竹橋里","LIN":"1鄰","STREET":" ","SECT":" ","MAREA":"竹橋","LANE":" ","ALLEY":" ","HOUSE_NO":"１０號之１","E_COORD97":164470.44,"N_COORD97":2556032.8900000001,"ADDRESS":"竹橋１０號之１","OBJECTID":52547},"geometry":{"x":164470.44000000041,"y":2556032.8900000006}},{"attributes":{"ID":52548,"DIS_CODE":0,"TOWNNAME":"七股區","LI":"竹橋里","LIN":"1鄰","STREET":" ","SECT":" ","MAREA":"竹橋","LANE":" ","ALLEY":" ","HOUSE_NO":"１０號之２","E_COORD97":164456.42000000001,"N_COORD97":2556059.2999999998,"ADDRESS":"竹橋１０號之２","OBJECTID":52548},"geometry":{"x":164456.41999999993,"y":2556059.3000000026}},{"attributes":{"ID":52549,"DIS_CODE":0,"TOWNNAME":"七股區","LI":"竹橋里","LIN":"1鄰","STREET":" ","SECT":" ","MAREA":"竹橋","LANE":" ","ALLEY":" ","HOUSE_NO":"１０號","E_COORD97":164446.87,"N_COORD97":2556057.8700000001,"ADDRESS":"竹橋１０號","OBJECTID":52549},"geometry":{"x":164446.87000000011,"y":2556057.870000001}},{"attributes":{"ID":52550,"DIS_CODE":0,"TOWNNAME":"七股區","LI":"竹橋里","LIN":"1鄰","STREET":" ","SECT":" ","MAREA":"竹橋","LANE":" ","ALLEY":" ","HOUSE_NO":"１號之１","E_COORD97":164394.88,"N_COORD97":2556143.8700000001,"ADDRESS":"竹橋１號之１","OBJECTID":52550},"geometry":{"x":164394.88000000082,"y":2556143.8700000029}},{"attributes":{"ID":52551,"DIS_CODE":0,"TOWNNAME":"七股區","LI":"竹橋里","LIN":"1鄰","STREET":" ","SECT":" ","MAREA":"竹橋","LANE":" ","ALLEY":" ","HOUSE_NO":"２號之１","E_COORD97":164408.19,"N_COORD97":2556104.7999999998,"ADDRESS":"竹橋２號之１","OBJECTID":52551},"geometry":{"x":164408.19000000041,"y":2556104.8000000007}},{"attributes":{"ID":52552,"DIS_CODE":0,"TOWNNAME":"七股區","LI":"竹橋里","LIN":"1鄰","STREET":" ","SECT":" ","MAREA":"竹橋","LANE":" ","ALLEY":" ","HOUSE_NO":"２號","E_COORD97":164404.76000000001,"N_COORD97":2556091.9500000002,"ADDRESS":"竹橋２號","OBJECTID":52552},"geometry":{"x":164404.75999999978,"y":2556091.9499999993}},{"attributes":{"ID":52553,"DIS_CODE":0,"TOWNNAME":"七股區","LI":"竹橋里","LIN":"1鄰","STREET":" ","SECT":" ","MAREA":"竹橋","LANE":" ","ALLEY":" ","HOUSE_NO":"３號","E_COORD97":164409.54000000001,"N_COORD97":2556077.1099999999,"ADDRESS":"竹橋３號","OBJECTID":52553},"geometry":{"x":164409.54000000097,"y":2556077.1100000013}},{"attributes":{"ID":52554,"DIS_CODE":0,"TOWNNAME":"七股區","LI":"竹橋里","LIN":"1鄰","STREET":" ","SECT":" ","MAREA":"竹橋","LANE":" ","ALLEY":" ","HOUSE_NO":"９號之１","E_COORD97":164532.56,"N_COORD97":2556072.1200000001,"ADDRESS":"竹橋９號之１","OBJECTID":52554},"geometry":{"x":164532.56000000052,"y":2556072.1200000029}},{"attributes":{"ID":52555,"DIS_CODE":0,"TOWNNAME":"七股區","LI":"西寮里","LIN":"1鄰","STREET":" ","SECT":" ","MAREA":"西寮","LANE":" ","ALLEY":" ","HOUSE_NO":"１０號","E_COORD97":157464.01999999999,"N_COORD97":2563469.3700000001,"ADDRESS":"西寮１０號","OBJECTID":52555},"geometry":{"x":157464.02000000048,"y":2563469.370000001}},{"attributes":{"ID":52556,"DIS_CODE":0,"TOWNNAME":"七股區","LI":"西寮里","LIN":"1鄰","STREET":" ","SECT":" ","MAREA":"西寮","LANE":" ","ALLEY":" ","HOUSE_NO":"１１號","E_COORD97":157478.03,"N_COORD97":2563473.2000000002,"ADDRESS":"西寮１１號","OBJECTID":52556},"geometry":{"x":157478.03000000119,"y":2563473.2000000011}},{"attributes":{"ID":52557,"DIS_CODE":0,"TOWNNAME":"七股區","LI":"西寮里","LIN":"1鄰","STREET":" ","SECT":" ","MAREA":"西寮","LANE":" ","ALLEY":" ","HOUSE_NO":"１號之３","E_COORD97":157544.60999999999,"N_COORD97":2563441.1099999999,"ADDRESS":"西寮１號之３","OBJECTID":52557},"geometry":{"x":157544.61000000034,"y":2563441.1100000013}},{"attributes":{"ID":52558,"DIS_CODE":0,"TOWNNAME":"七股區","LI":"西寮里","LIN":"1鄰","STREET":" ","SECT":" ","MAREA":"西寮","LANE":" ","ALLEY":" ","HOUSE_NO":"１號之５","E_COORD97":157527.37,"N_COORD97":2563405.3399999999,"ADDRESS":"西寮１號之５","OBJECTID":52558},"geometry":{"x":157527.37000000011,"y":2563405.3400000017}},{"attributes":{"ID":52559,"DIS_CODE":0,"TOWNNAME":"七股區","LI":"西寮里","LIN":"1鄰","STREET":" ","SECT":" ","MAREA":"西寮","LANE":" ","ALLEY":" ","HOUSE_NO":"１號之６","E_COORD97":157521.57999999999,"N_COORD97":2563414.8599999999,"ADDRESS":"西寮１號之６","OBJECTID":52559},"geometry":{"x":157521.58000000101,"y":2563414.8600000013}},{"attributes":{"ID":52560,"DIS_CODE":0,"TOWNNAME":"七股區","LI":"西寮里","LIN":"1鄰","STREET":" ","SECT":" ","MAREA":"西寮","LANE":" ","ALLEY":" ","HOUSE_NO":"１號之７","E_COORD97":157518.06,"N_COORD97":2563422.6699999999,"ADDRESS":"西寮１號之７","OBJECTID":52560},"geometry":{"x":157518.06000000052,"y":2563422.6700000037}},{"attributes":{"ID":52561,"DIS_CODE":0,"TOWNNAME":"七股區","LI":"西寮里","LIN":"1鄰","STREET":" ","SECT":" ","MAREA":"西寮","LANE":" ","ALLEY":" ","HOUSE_NO":"１號","E_COORD97":157540.26999999999,"N_COORD97":2563365.4500000002,"ADDRESS":"西寮１號","OBJECTID":52561},"geometry":{"x":157540.27000000048,"y":2563365.4499999993}},{"attributes":{"ID":52562,"DIS_CODE":0,"TOWNNAME":"七股區","LI":"西寮里","LIN":"1鄰","STREET":" ","SECT":" ","MAREA":"西寮","LANE":" ","ALLEY":" ","HOUSE_NO":"２號","E_COORD97":157518.32999999999,"N_COORD97":2563386.9500000002,"ADDRESS":"西寮２號","OBJECTID":52562},"geometry":{"x":157518.33000000101,"y":2563386.9500000011}},{"attributes":{"ID":52563,"DIS_CODE":0,"TOWNNAME":"七股區","LI":"樹林里","LIN":"1鄰","STREET":" ","SECT":" ","MAREA":"樹林","LANE":" ","ALLEY":" ","HOUSE_NO":"９號","E_COORD97":163759.47,"N_COORD97":2557188.75,"ADDRESS":"樹林９號","OBJECTID":52563},"geometry":{"x":163759.46999999974,"y":2557188.7500000019}},{"attributes":{"ID":52564,"DIS_CODE":0,"TOWNNAME":"七股區","LI":"西寮里","LIN":"1鄰","STREET":" ","SECT":" ","MAREA":"西寮","LANE":" ","ALLEY":" ","HOUSE_NO":"４號","E_COORD97":157504.84,"N_COORD97":2563412.5099999998,"ADDRESS":"西寮４號","OBJECTID":52564},"geometry":{"x":157504.84000000078,"y":2563412.5099999998}},{"attributes":{"ID":52565,"DIS_CODE":0,"TOWNNAME":"七股區","LI":"西寮里","LIN":"1鄰","STREET":" ","SECT":" ","MAREA":"西寮","LANE":" ","ALLEY":" ","HOUSE_NO":"５號之１","E_COORD97":157514.92999999999,"N_COORD97":2563430.1200000001,"ADDRESS":"西寮５號之１","OBJECTID":52565},"geometry":{"x":157514.9299999997,"y":2563430.120000001}},{"attributes":{"ID":52566,"DIS_CODE":0,"TOWNNAME":"七股區","LI":"看坪里","LIN":"1鄰","STREET":" ","SECT":" ","MAREA":"看坪","LANE":" ","ALLEY":" ","HOUSE_NO":"７號之１０","E_COORD97":162484.54000000001,"N_COORD97":2558754.52,"ADDRESS":"看坪７號之１０","OBJECTID":52566},"geometry":{"x":162484.54000000004,"y":2558754.5199999996}},{"attributes":{"ID":52567,"DIS_CODE":0,"TOWNNAME":"七股區","LI":"看坪里","LIN":"1鄰","STREET":" ","SECT":" ","MAREA":"看坪","LANE":" ","ALLEY":" ","HOUSE_NO":"７號之１１","E_COORD97":162489.26000000001,"N_COORD97":2558754.21,"ADDRESS":"看坪７號之１１","OBJECTID":52567},"geometry":{"x":162489.25999999978,"y":2558754.2100000009}},{"attributes":{"ID":52568,"DIS_CODE":0,"TOWNNAME":"七股區","LI":"看坪里","LIN":"1鄰","STREET":" ","SECT":" ","MAREA":"看坪","LANE":" ","ALLEY":" ","HOUSE_NO":"７號之１２","E_COORD97":162493.97,"N_COORD97":2558753.8999999999,"ADDRESS":"看坪７號之１２","OBJECTID":52568},"geometry":{"x":162493.97000000067,"y":2558753.9000000022}},{"attributes":{"ID":52569,"DIS_CODE":0,"TOWNNAME":"七股區","LI":"看坪里","LIN":"1鄰","STREET":" ","SECT":" ","MAREA":"看坪","LANE":" ","ALLEY":" ","HOUSE_NO":"７號之１３","E_COORD97":162498.69,"N_COORD97":2558753.6000000001,"ADDRESS":"看坪７號之１３","OBJECTID":52569},"geometry":{"x":162498.69000000134,"y":2558753.5999999996}},{"attributes":{"ID":52570,"DIS_CODE":0,"TOWNNAME":"七股區","LI":"看坪里","LIN":"1鄰","STREET":" ","SECT":" ","MAREA":"看坪","LANE":" ","ALLEY":" ","HOUSE_NO":"７號之１４","E_COORD97":162503.39999999999,"N_COORD97":2558753.29,"ADDRESS":"看坪７號之１４","OBJECTID":52570},"geometry":{"x":162503.40000000224,"y":2558753.290000001}},{"attributes":{"ID":52571,"DIS_CODE":0,"TOWNNAME":"七股區","LI":"看坪里","LIN":"1鄰","STREET":" ","SECT":" ","MAREA":"看坪","LANE":" ","ALLEY":" ","HOUSE_NO":"７號之１５","E_COORD97":162508.12,"N_COORD97":2558752.98,"ADDRESS":"看坪７號之１５","OBJECTID":52571},"geometry":{"x":162508.12000000011,"y":2558752.9800000023}},{"attributes":{"ID":52572,"DIS_CODE":0,"TOWNNAME":"七股區","LI":"看坪里","LIN":"1鄰","STREET":" ","SECT":" ","MAREA":"看坪","LANE":" ","ALLEY":" ","HOUSE_NO":"７號之１６","E_COORD97":162508.92999999999,"N_COORD97":2558771.2799999998,"ADDRESS":"看坪７號之１６","OBJECTID":52572},"geometry":{"x":162508.9299999997,"y":2558771.2800000012}},{"attributes":{"ID":52573,"DIS_CODE":0,"TOWNNAME":"七股區","LI":"看坪里","LIN":"1鄰","STREET":" ","SECT":" ","MAREA":"看坪","LANE":" ","ALLEY":" ","HOUSE_NO":"７號之１７","E_COORD97":162502.95000000001,"N_COORD97":2558771.3199999998,"ADDRESS":"看坪７號之１７","OBJECTID":52573},"geometry":{"x":162502.95000000112,"y":2558771.3200000022}},{"attributes":{"ID":52574,"DIS_CODE":0,"TOWNNAME":"七股區","LI":"看坪里","LIN":"1鄰","STREET":" ","SECT":" ","MAREA":"看坪","LANE":" ","ALLEY":" ","HOUSE_NO":"７號之１８","E_COORD97":162498.97,"N_COORD97":2558771.5600000001,"ADDRESS":"看坪７號之１８","OBJECTID":52574},"geometry":{"x":162498.97000000067,"y":2558771.5600000005}},{"attributes":{"ID":52575,"DIS_CODE":0,"TOWNNAME":"七股區","LI":"看坪里","LIN":"1鄰","STREET":" ","SECT":" ","MAREA":"看坪","LANE":" ","ALLEY":" ","HOUSE_NO":"７號之１９","E_COORD97":162495,"N_COORD97":2558771.7999999998,"ADDRESS":"看坪７號之１９","OBJECTID":52575},"geometry":{"x":162495,"y":2558771.8000000026}},{"attributes":{"ID":52576,"DIS_CODE":0,"TOWNNAME":"七股區","LI":"看坪里","LIN":"1鄰","STREET":" ","SECT":" ","MAREA":"看坪","LANE":" ","ALLEY":" ","HOUSE_NO":"７號之１","E_COORD97":162476.29000000001,"N_COORD97":2558717.0099999998,"ADDRESS":"看坪７號之１","OBJECTID":52576},"geometry":{"x":162476.29000000004,"y":2558717.0099999998}},{"attributes":{"ID":52577,"DIS_CODE":0,"TOWNNAME":"七股區","LI":"看坪里","LIN":"1鄰","STREET":" ","SECT":" ","MAREA":"看坪","LANE":" ","ALLEY":" ","HOUSE_NO":"７號之２０","E_COORD97":162491.01999999999,"N_COORD97":2558772.04,"ADDRESS":"看坪７號之２０","OBJECTID":52577},"geometry":{"x":162491.01999999955,"y":2558772.040000001}},{"attributes":{"ID":52578,"DIS_CODE":0,"TOWNNAME":"七股區","LI":"看坪里","LIN":"1鄰","STREET":" ","SECT":" ","MAREA":"看坪","LANE":" ","ALLEY":" ","HOUSE_NO":"７號之２１","E_COORD97":162487.04999999999,"N_COORD97":2558772.29,"ADDRESS":"看坪７號之２１","OBJECTID":52578},"geometry":{"x":162487.05000000075,"y":2558772.2899999991}},{"attributes":{"ID":52579,"DIS_CODE":0,"TOWNNAME":"七股區","LI":"看坪里","LIN":"1鄰","STREET":" ","SECT":" ","MAREA":"看坪","LANE":" ","ALLEY":" ","HOUSE_NO":"７號之２２","E_COORD97":162483.07999999999,"N_COORD97":2558772.5299999998,"ADDRESS":"看坪７號之２２","OBJECTID":52579},"geometry":{"x":162483.08000000194,"y":2558772.5300000012}},{"attributes":{"ID":52580,"DIS_CODE":0,"TOWNNAME":"七股區","LI":"看坪里","LIN":"1鄰","STREET":" ","SECT":" ","MAREA":"看坪","LANE":" ","ALLEY":" ","HOUSE_NO":"７號之２３","E_COORD97":162479.10000000001,"N_COORD97":2558772.77,"ADDRESS":"看坪７號之２３","OBJECTID":52580},"geometry":{"x":162479.10000000149,"y":2558772.7699999996}},{"attributes":{"ID":52581,"DIS_CODE":0,"TOWNNAME":"七股區","LI":"看坪里","LIN":"1鄰","STREET":" ","SECT":" ","MAREA":"看坪","LANE":" ","ALLEY":" ","HOUSE_NO":"７號之２４","E_COORD97":162475.13,"N_COORD97":2558773.0099999998,"ADDRESS":"看坪７號之２４","OBJECTID":52581},"geometry":{"x":162475.12999999989,"y":2558773.0100000016}},{"attributes":{"ID":52582,"DIS_CODE":0,"TOWNNAME":"七股區","LI":"看坪里","LIN":"1鄰","STREET":" ","SECT":" ","MAREA":"看坪","LANE":" ","ALLEY":" ","HOUSE_NO":"７號之２５","E_COORD97":162476.69,"N_COORD97":2558791.8999999999,"ADDRESS":"看坪７號之２５","OBJECTID":52582},"geometry":{"x":162476.69000000134,"y":2558791.9000000022}},{"attributes":{"ID":52583,"DIS_CODE":0,"TOWNNAME":"七股區","LI":"看坪里","LIN":"1鄰","STREET":" ","SECT":" ","MAREA":"看坪","LANE":" ","ALLEY":" ","HOUSE_NO":"７號之２６","E_COORD97":162480.13,"N_COORD97":2558791.7000000002,"ADDRESS":"看坪７號之２６","OBJECTID":52583},"geometry":{"x":162480.12999999989,"y":2558791.7000000011}},{"attributes":{"ID":52584,"DIS_CODE":0,"TOWNNAME":"七股區","LI":"看坪里","LIN":"1鄰","STREET":" ","SECT":" ","MAREA":"看坪","LANE":" ","ALLEY":" ","HOUSE_NO":"７號之２７","E_COORD97":162484.12,"N_COORD97":2558791.3999999999,"ADDRESS":"看坪７號之２７","OBJECTID":52584},"geometry":{"x":162484.12000000011,"y":2558791.4000000022}},{"attributes":{"ID":52585,"DIS_CODE":0,"TOWNNAME":"七股區","LI":"看坪里","LIN":"1鄰","STREET":" ","SECT":" ","MAREA":"看坪","LANE":" ","ALLEY":" ","HOUSE_NO":"７號之２８","E_COORD97":162488.10000000001,"N_COORD97":2558791.1000000001,"ADDRESS":"看坪７號之２８","OBJECTID":52585},"geometry":{"x":162488.10000000056,"y":2558791.0999999996}},{"attributes":{"ID":52586,"DIS_CODE":0,"TOWNNAME":"七股區","LI":"後港里","LIN":"1鄰","STREET":" ","SECT":" ","MAREA":"港東","LANE":" ","ALLEY":" ","HOUSE_NO":"７號之１","E_COORD97":163232.14999999999,"N_COORD97":2564470.3300000001,"ADDRESS":"港東７號之１","OBJECTID":52586},"geometry":{"x":163232.15000000224,"y":2564470.3300000019}},{"attributes":{"ID":52587,"DIS_CODE":0,"TOWNNAME":"七股區","LI":"後港里","LIN":"1鄰","STREET":" ","SECT":" ","MAREA":"港東","LANE":" ","ALLEY":" ","HOUSE_NO":"７號之２","E_COORD97":163228.35000000001,"N_COORD97":2564468.0099999998,"ADDRESS":"港東７號之２","OBJECTID":52587},"geometry":{"x":163228.35000000149,"y":2564468.0100000035}},{"attributes":{"ID":52588,"DIS_CODE":0,"TOWNNAME":"下營區","LI":"宅內里","LIN":" ","STREET":"人和三街","SECT":" ","MAREA":" ","LANE":" ","ALLEY":" ","HOUSE_NO":"６３號","E_COORD97":174259.37,"N_COORD97":2570707.8700000001,"ADDRESS":"人和三街６３號","OBJECTID":52588},"geometry":{"x":174259.37000000197,"y":2570707.870000001}},{"attributes":{"ID":52589,"DIS_CODE":0,"TOWNNAME":"下營區","LI":"後街里","LIN":" ","STREET":"三民街","SECT":" ","MAREA":" ","LANE":" ","ALLEY":" ","HOUSE_NO":"８號","E_COORD97":174427.82000000001,"N_COORD97":2570717.1200000001,"ADDRESS":"三民街８號","OBJECTID":52589},"geometry":{"x":174427.82000000216,"y":2570717.1200000048}},{"attributes":{"ID":52590,"DIS_CODE":0,"TOWNNAME":"下營區","LI":"下營里","LIN":" ","STREET":"中山路","SECT":"一段","MAREA":" ","LANE":" ","ALLEY":" ","HOUSE_NO":"１４０號","E_COORD97":174665.06,"N_COORD97":2570548.7799999998,"ADDRESS":"中山路一段１４０號","OBJECTID":52590},"geometry":{"x":174665.06000000052,"y":2570548.7800000012}},{"attributes":{"ID":52591,"DIS_CODE":0,"TOWNNAME":"下營區","LI":"新興里","LIN":" ","STREET":"中山路","SECT":"一段","MAREA":" ","LANE":" ","ALLEY":" ","HOUSE_NO":"２３２號","E_COORD97":174882.70000000001,"N_COORD97":2570642.79,"ADDRESS":"中山路一段２３２號","OBJECTID":52591},"geometry":{"x":174882.70000000205,"y":2570642.7900000028}},{"attributes":{"ID":52592,"DIS_CODE":0,"TOWNNAME":"下營區","LI":"新興里","LIN":" ","STREET":"中山路","SECT":"一段","MAREA":" ","LANE":" ","ALLEY":" ","HOUSE_NO":"２８３號","E_COORD97":174981.92000000001,"N_COORD97":2570745.8999999999,"ADDRESS":"中山路一段２８３號","OBJECTID":52592},"geometry":{"x":174981.91999999993,"y":2570745.9000000022}},{"attributes":{"ID":52593,"DIS_CODE":0,"TOWNNAME":"下營區","LI":"新興里","LIN":" ","STREET":"中山路","SECT":"一段","MAREA":" ","LANE":" ","ALLEY":" ","HOUSE_NO":"２９０號","E_COORD97":175015.37,"N_COORD97":2570730.3799999999,"ADDRESS":"中山路一段２９０號","OBJECTID":52593},"geometry":{"x":175015.37000000197,"y":2570730.3800000008}},{"attributes":{"ID":52594,"DIS_CODE":0,"TOWNNAME":"下營區","LI":"新興里","LIN":" ","STREET":"中山路","SECT":"一段","MAREA":" ","LANE":" ","ALLEY":" ","HOUSE_NO":"３０１之１號","E_COORD97":175058.23999999999,"N_COORD97":2570817.9300000002,"ADDRESS":"中山路一段３０１之１號","OBJECTID":52594},"geometry":{"x":175058.24000000022,"y":2570817.9299999997}},{"attributes":{"ID":52595,"DIS_CODE":0,"TOWNNAME":"下營區","LI":"新興里","LIN":" ","STREET":"中山路","SECT":"一段","MAREA":" ","LANE":" ","ALLEY":" ","HOUSE_NO":"３０８號","E_COORD97":175078.09,"N_COORD97":2570765.3500000001,"ADDRESS":"中山路一段３０８號","OBJECTID":52595},"geometry":{"x":175078.09000000171,"y":2570765.3500000015}},{"attributes":{"ID":52596,"DIS_CODE":0,"TOWNNAME":"安南區","LI":"頂安里","LIN":"17鄰","STREET":"北安路","SECT":"二段","MAREA":" ","LANE":" ","ALLEY":" ","HOUSE_NO":"４８０號","E_COORD97":168383.39000000001,"N_COORD97":2548446.6299999999,"ADDRESS":"北安路二段４８０號","OBJECTID":52596},"geometry":{"x":168383.3900000006,"y":2548446.6300000027}},{"attributes":{"ID":52597,"DIS_CODE":0,"TOWNNAME":"白河區","LI":"永安里","LIN":"17鄰","STREET":"七賢街","SECT":" ","MAREA":" ","LANE":" ","ALLEY":" ","HOUSE_NO":"４１號","E_COORD97":189987.91,"N_COORD97":2582873.0899999999,"ADDRESS":"七賢街４１號","OBJECTID":52597},"geometry":{"x":189987.91000000108,"y":2582873.0899999999}},{"attributes":{"ID":52598,"DIS_CODE":0,"TOWNNAME":"白河區","LI":"永安里","LIN":"17鄰","STREET":"七賢街","SECT":" ","MAREA":" ","LANE":" ","ALLEY":" ","HOUSE_NO":"４２之１號","E_COORD97":190008.57999999999,"N_COORD97":2582881.21,"ADDRESS":"七賢街４２之１號","OBJECTID":52598},"geometry":{"x":190008.58000000101,"y":2582881.2100000028}},{"attributes":{"ID":52599,"DIS_CODE":0,"TOWNNAME":"白河區","LI":"永安里","LIN":"17鄰","STREET":"七賢街","SECT":" ","MAREA":" ","LANE":" ","ALLEY":" ","HOUSE_NO":"４２號","E_COORD97":190006.23999999999,"N_COORD97":2582877.9700000002,"ADDRESS":"七賢街４２號","OBJECTID":52599},"geometry":{"x":190006.24000000022,"y":2582877.9700000007}},{"attributes":{"ID":52600,"DIS_CODE":0,"TOWNNAME":"下營區","LI":"新興里","LIN":" ","STREET":"中山路","SECT":"一段","MAREA":" ","LANE":" ","ALLEY":" ","HOUSE_NO":"３６８號","E_COORD97":175258.94,"N_COORD97":2570845.1800000002,"ADDRESS":"中山路一段３６８號","OBJECTID":52600},"geometry":{"x":175258.94000000041,"y":2570845.1800000016}}]}