{"displayFieldName":"TOWNNAME","fieldAliases":{"ID":"ID","DIS_CODE":"DIS_CODE","TOWNNAME":"TOWNNAME","LI":"LI","LIN":"LIN","STREET":"STREET","SECT":"SECT","MAREA":"MAREA","LANE":"LANE","ALLEY":"ALLEY","HOUSE_NO":"HOUSE_NO","E_COORD97":"E_COORD97","N_COORD97":"N_COORD97","ADDRESS":"ADDRESS","OBJECTID":"OBJECTID"},"geometryType":"esriGeometryPoint","spatialReference":{"wkid":102443,"latestWkid":3826},"fields":[{"name":"ID","type":"esriFieldTypeDouble","alias":"ID"},{"name":"DIS_CODE","type":"esriFieldTypeInteger","alias":"DIS_CODE"},{"name":"TOWNNAME","type":"esriFieldTypeString","alias":"TOWNNAME","length":8},{"name":"LI","type":"esriFieldTypeString","alias":"LI","length":8},{"name":"LIN","type":"esriFieldTypeString","alias":"LIN","length":12},{"name":"STREET","type":"esriFieldTypeString","alias":"STREET","length":20},{"name":"SECT","type":"esriFieldTypeString","alias":"SECT","length":8},{"name":"MAREA","type":"esriFieldTypeString","alias":"MAREA","length":12},{"name":"LANE","type":"esriFieldTypeString","alias":"LANE","length":10},{"name":"ALLEY","type":"esriFieldTypeString","alias":"ALLEY","length":10},{"name":"HOUSE_NO","type":"esriFieldTypeString","alias":"HOUSE_NO","length":20},{"name":"E_COORD97","type":"esriFieldTypeDouble","alias":"E_COORD97"},{"name":"N_COORD97","type":"esriFieldTypeDouble","alias":"N_COORD97"},{"name":"ADDRESS","type":"esriFieldTypeString","alias":"ADDRESS","length":50},{"name":"OBJECTID","type":"esriFieldTypeOID","alias":"OBJECTID"}],"features":[{"attributes":{"ID":497428,"DIS_CODE":0,"TOWNNAME":"下營區","LI":"仁里里","LIN":"7鄰","STREET":"仁美街","SECT":" ","MAREA":" ","LANE":" ","ALLEY":" ","HOUSE_NO":"５８號","E_COORD97":174182.62,"N_COORD97":2570165.8599999999,"ADDRESS":"仁美街５８號","OBJECTID":497401},"geometry":{"x":174182.62000000011,"y":2570165.8600000013}},{"attributes":{"ID":497429,"DIS_CODE":0,"TOWNNAME":"下營區","LI":"仁里里","LIN":"7鄰","STREET":"仁興街","SECT":" ","MAREA":" ","LANE":" ","ALLEY":" ","HOUSE_NO":"２８號","E_COORD97":174185.19,"N_COORD97":2570131.4300000002,"ADDRESS":"仁興街２８號","OBJECTID":497402},"geometry":{"x":174185.19000000134,"y":2570131.4300000016}},{"attributes":{"ID":497430,"DIS_CODE":0,"TOWNNAME":"下營區","LI":"仁里里","LIN":"7鄰","STREET":"公園路","SECT":" ","MAREA":" ","LANE":" ","ALLEY":" ","HOUSE_NO":"１１７號","E_COORD97":173934.19,"N_COORD97":2570247.8199999998,"ADDRESS":"公園路１１７號","OBJECTID":497403},"geometry":{"x":173934.19000000134,"y":2570247.8200000022}},{"attributes":{"ID":497431,"DIS_CODE":0,"TOWNNAME":"下營區","LI":"仁里里","LIN":"7鄰","STREET":"公園路","SECT":" ","MAREA":" ","LANE":" ","ALLEY":" ","HOUSE_NO":"４１號","E_COORD97":174187.70999999999,"N_COORD97":2570270.1299999999,"ADDRESS":"公園路４１號","OBJECTID":497404},"geometry":{"x":174187.71000000089,"y":2570270.129999999}},{"attributes":{"ID":497432,"DIS_CODE":0,"TOWNNAME":"下營區","LI":"仁里里","LIN":"7鄰","STREET":"公園路","SECT":" ","MAREA":" ","LANE":" ","ALLEY":" ","HOUSE_NO":"４３號","E_COORD97":174185.26999999999,"N_COORD97":2570266.9500000002,"ADDRESS":"公園路４３號","OBJECTID":497405},"geometry":{"x":174185.27000000048,"y":2570266.9500000011}},{"attributes":{"ID":497433,"DIS_CODE":0,"TOWNNAME":"下營區","LI":"仁里里","LIN":"7鄰","STREET":"公園路","SECT":" ","MAREA":" ","LANE":" ","ALLEY":" ","HOUSE_NO":"４５號","E_COORD97":174181.88,"N_COORD97":2570264.02,"ADDRESS":"公園路４５號","OBJECTID":497406},"geometry":{"x":174181.88000000082,"y":2570264.0199999996}},{"attributes":{"ID":497434,"DIS_CODE":0,"TOWNNAME":"下營區","LI":"仁里里","LIN":"7鄰","STREET":"公園路","SECT":" ","MAREA":" ","LANE":" ","ALLEY":" ","HOUSE_NO":"４７號","E_COORD97":174179.26999999999,"N_COORD97":2570261.98,"ADDRESS":"公園路４７號","OBJECTID":497407},"geometry":{"x":174179.26999999955,"y":2570261.9800000004}},{"attributes":{"ID":497435,"DIS_CODE":0,"TOWNNAME":"下營區","LI":"仁里里","LIN":"7鄰","STREET":"公園路","SECT":" ","MAREA":" ","LANE":" ","ALLEY":" ","HOUSE_NO":"４９號","E_COORD97":174176.13,"N_COORD97":2570258.4100000001,"ADDRESS":"公園路４９號","OBJECTID":497408},"geometry":{"x":174176.13000000082,"y":2570258.4100000001}},{"attributes":{"ID":497436,"DIS_CODE":0,"TOWNNAME":"下營區","LI":"仁里里","LIN":"7鄰","STREET":"公園路","SECT":" ","MAREA":" ","LANE":" ","ALLEY":" ","HOUSE_NO":"５１號","E_COORD97":174172.45000000001,"N_COORD97":2570255.1899999999,"ADDRESS":"公園路５１號","OBJECTID":497409},"geometry":{"x":174172.45000000205,"y":2570255.1900000013}},{"attributes":{"ID":497437,"DIS_CODE":0,"TOWNNAME":"下營區","LI":"仁里里","LIN":"7鄰","STREET":"公園路","SECT":" ","MAREA":" ","LANE":" ","ALLEY":" ","HOUSE_NO":"８９號","E_COORD97":173998.64000000001,"N_COORD97":2570217.9300000002,"ADDRESS":"公園路８９號","OBJECTID":497410},"geometry":{"x":173998.63999999966,"y":2570217.9299999997}},{"attributes":{"ID":497438,"DIS_CODE":0,"TOWNNAME":"下營區","LI":"仁里里","LIN":"7鄰","STREET":"公園路","SECT":" ","MAREA":" ","LANE":" ","ALLEY":" ","HOUSE_NO":"９５號","E_COORD97":173967.64999999999,"N_COORD97":2570250.6099999999,"ADDRESS":"公園路９５號","OBJECTID":497411},"geometry":{"x":173967.65000000037,"y":2570250.6099999975}},{"attributes":{"ID":497439,"DIS_CODE":0,"TOWNNAME":"下營區","LI":"下營里","LIN":"7鄰","STREET":"民生街","SECT":" ","MAREA":" ","LANE":" ","ALLEY":" ","HOUSE_NO":"３６號","E_COORD97":174472.17999999999,"N_COORD97":2570425.4199999999,"ADDRESS":"民生街３６號","OBJECTID":497412},"geometry":{"x":174472.18000000156,"y":2570425.4199999981}},{"attributes":{"ID":497440,"DIS_CODE":0,"TOWNNAME":"下營區","LI":"下營里","LIN":"7鄰","STREET":"民生街","SECT":" ","MAREA":" ","LANE":" ","ALLEY":" ","HOUSE_NO":"４６號之１","E_COORD97":174460.20000000001,"N_COORD97":2570421.8199999998,"ADDRESS":"民生街４６號之１","OBJECTID":497413},"geometry":{"x":174460.20000000019,"y":2570421.8200000003}},{"attributes":{"ID":497441,"DIS_CODE":0,"TOWNNAME":"下營區","LI":"下營里","LIN":"7鄰","STREET":"民生街","SECT":" ","MAREA":" ","LANE":" ","ALLEY":" ","HOUSE_NO":"４６號","E_COORD97":174463.64999999999,"N_COORD97":2570424.1499999999,"ADDRESS":"民生街４６號","OBJECTID":497414},"geometry":{"x":174463.6500000013,"y":2570424.1500000004}},{"attributes":{"ID":497442,"DIS_CODE":0,"TOWNNAME":"下營區","LI":"下營里","LIN":"7鄰","STREET":"民生街","SECT":" ","MAREA":" ","LANE":" ","ALLEY":" ","HOUSE_NO":"４８號","E_COORD97":174456.04999999999,"N_COORD97":2570422.3300000001,"ADDRESS":"民生街４８號","OBJECTID":497415},"geometry":{"x":174456.04999999888,"y":2570422.3300000001}},{"attributes":{"ID":497443,"DIS_CODE":0,"TOWNNAME":"下營區","LI":"新興里","LIN":"7鄰","STREET":"自由街","SECT":" ","MAREA":" ","LANE":" ","ALLEY":" ","HOUSE_NO":"１３號","E_COORD97":174780.29999999999,"N_COORD97":2570663.4900000002,"ADDRESS":"自由街１３號","OBJECTID":497416},"geometry":{"x":174780.30000000075,"y":2570663.4900000021}},{"attributes":{"ID":497444,"DIS_CODE":0,"TOWNNAME":"下營區","LI":"新興里","LIN":"7鄰","STREET":"自由街","SECT":" ","MAREA":" ","LANE":" ","ALLEY":" ","HOUSE_NO":"１５號","E_COORD97":174780.26999999999,"N_COORD97":2570667.4300000002,"ADDRESS":"自由街１５號","OBJECTID":497417},"geometry":{"x":174780.27000000048,"y":2570667.4300000016}},{"attributes":{"ID":497445,"DIS_CODE":0,"TOWNNAME":"下營區","LI":"新興里","LIN":"7鄰","STREET":"自由街","SECT":" ","MAREA":" ","LANE":" ","ALLEY":" ","HOUSE_NO":"１７號","E_COORD97":174780.16,"N_COORD97":2570671.5600000001,"ADDRESS":"自由街１７號","OBJECTID":497418},"geometry":{"x":174780.16000000108,"y":2570671.5600000005}},{"attributes":{"ID":497446,"DIS_CODE":0,"TOWNNAME":"下營區","LI":"新興里","LIN":"7鄰","STREET":"自由街","SECT":" ","MAREA":" ","LANE":" ","ALLEY":" ","HOUSE_NO":"１９號","E_COORD97":174779.63,"N_COORD97":2570676.0899999999,"ADDRESS":"自由街１９號","OBJECTID":497419},"geometry":{"x":174779.63000000082,"y":2570676.0900000017}},{"attributes":{"ID":497447,"DIS_CODE":0,"TOWNNAME":"下營區","LI":"新興里","LIN":"7鄰","STREET":"自由街","SECT":" ","MAREA":" ","LANE":" ","ALLEY":" ","HOUSE_NO":"１號","E_COORD97":174782.79000000001,"N_COORD97":2570630.5899999999,"ADDRESS":"自由街１號","OBJECTID":497420},"geometry":{"x":174782.79000000004,"y":2570630.5899999999}},{"attributes":{"ID":497448,"DIS_CODE":0,"TOWNNAME":"歸仁區","LI":"媽廟里","LIN":"5鄰","STREET":"中正北路","SECT":"三段","MAREA":" ","LANE":" ","ALLEY":" ","HOUSE_NO":"１７３號","E_COORD97":177585.06,"N_COORD97":2543781.7200000002,"ADDRESS":"中正北路三段１７３號","OBJECTID":497421},"geometry":{"x":177585.05999999866,"y":2543781.7200000007}},{"attributes":{"ID":497449,"DIS_CODE":0,"TOWNNAME":"歸仁區","LI":"歸南里","LIN":"26鄰","STREET":"民生十街","SECT":" ","MAREA":" ","LANE":" ","ALLEY":" ","HOUSE_NO":"１６號","E_COORD97":176045.70999999999,"N_COORD97":2540209.25,"ADDRESS":"民生十街１６號","OBJECTID":497422},"geometry":{"x":176045.71000000089,"y":2540209.2500000019}},{"attributes":{"ID":497450,"DIS_CODE":0,"TOWNNAME":"歸仁區","LI":"辜厝里","LIN":"47鄰","STREET":"民權九街","SECT":" ","MAREA":" ","LANE":" ","ALLEY":" ","HOUSE_NO":"６２號","E_COORD97":177093.62,"N_COORD97":2540339.0299999998,"ADDRESS":"民權九街６２號","OBJECTID":497423},"geometry":{"x":177093.61999999918,"y":2540339.0300000012}},{"attributes":{"ID":497451,"DIS_CODE":0,"TOWNNAME":"歸仁區","LI":"許厝里","LIN":"13鄰","STREET":"信義南路","SECT":" ","MAREA":" ","LANE":" ","ALLEY":" ","HOUSE_NO":"１５號","E_COORD97":178032.53,"N_COORD97":2540665.3900000001,"ADDRESS":"信義南路１５號","OBJECTID":497424},"geometry":{"x":178032.53000000119,"y":2540665.3900000006}},{"attributes":{"ID":497452,"DIS_CODE":0,"TOWNNAME":"永康區","LI":"正強里","LIN":"7鄰","STREET":"正義街","SECT":" ","MAREA":" ","LANE":" ","ALLEY":" ","HOUSE_NO":"８６號","E_COORD97":173470.09,"N_COORD97":2547598.2599999998,"ADDRESS":"正義街８６號","OBJECTID":497425},"geometry":{"x":173470.09000000078,"y":2547598.2599999998}},{"attributes":{"ID":497453,"DIS_CODE":0,"TOWNNAME":"歸仁區","LI":"辜厝里","LIN":"43鄰","STREET":"民權九街","SECT":" ","MAREA":" ","LANE":" ","ALLEY":" ","HOUSE_NO":"６１號","E_COORD97":177102.23999999999,"N_COORD97":2540356.3900000001,"ADDRESS":"民權九街６１號","OBJECTID":497426},"geometry":{"x":177102.24000000115,"y":2540356.3900000006}},{"attributes":{"ID":497454,"DIS_CODE":0,"TOWNNAME":"歸仁區","LI":"新厝里","LIN":"24鄰","STREET":"大成十街","SECT":" ","MAREA":" ","LANE":" ","ALLEY":" ","HOUSE_NO":"４１號","E_COORD97":177647.23999999999,"N_COORD97":2540193.1800000002,"ADDRESS":"大成十街４１號","OBJECTID":497427},"geometry":{"x":177647.23999999929,"y":2540193.1800000016}},{"attributes":{"ID":497455,"DIS_CODE":0,"TOWNNAME":"永康區","LI":"正強里","LIN":"7鄰","STREET":"正義街","SECT":" ","MAREA":" ","LANE":" ","ALLEY":" ","HOUSE_NO":"７０號","E_COORD97":173502.14999999999,"N_COORD97":2547623.2599999998,"ADDRESS":"正義街７０號","OBJECTID":497428},"geometry":{"x":173502.1500000013,"y":2547623.2600000016}},{"attributes":{"ID":497456,"DIS_CODE":0,"TOWNNAME":"永康區","LI":"蔦松里","LIN":"7鄰","STREET":"中正北路","SECT":" ","MAREA":" ","LANE":" ","ALLEY":" ","HOUSE_NO":"５８２號","E_COORD97":174330.73000000001,"N_COORD97":2549516.48,"ADDRESS":"中正北路５８２號","OBJECTID":497429},"geometry":{"x":174330.73000000138,"y":2549516.4800000004}},{"attributes":{"ID":497457,"DIS_CODE":0,"TOWNNAME":"永康區","LI":"勝利里","LIN":"7鄰","STREET":"勝利街","SECT":" ","MAREA":" ","LANE":" ","ALLEY":" ","HOUSE_NO":"２０號之６","E_COORD97":171251.22,"N_COORD97":2544581.7999999998,"ADDRESS":"勝利街２０號之６","OBJECTID":497430},"geometry":{"x":171251.22000000067,"y":2544581.8000000007}},{"attributes":{"ID":497458,"DIS_CODE":0,"TOWNNAME":"永康區","LI":"崑山里","LIN":"7鄰","STREET":"大灣路","SECT":" ","MAREA":" ","LANE":" ","ALLEY":" ","HOUSE_NO":"８９３號","E_COORD97":173610.20999999999,"N_COORD97":2544396.0099999998,"ADDRESS":"大灣路８９３號","OBJECTID":497431},"geometry":{"x":173610.20999999996,"y":2544396.0099999998}},{"attributes":{"ID":497459,"DIS_CODE":0,"TOWNNAME":"東區","LI":"崇信里","LIN":"7鄰","STREET":"崇信街","SECT":" ","MAREA":" ","LANE":" ","ALLEY":" ","HOUSE_NO":"１０１號","E_COORD97":170767.51000000001,"N_COORD97":2542320.6800000002,"ADDRESS":"崇信街１０１號","OBJECTID":497432},"geometry":{"x":170767.50999999978,"y":2542320.6800000034}},{"attributes":{"ID":497460,"DIS_CODE":0,"TOWNNAME":"東區","LI":"崇信里","LIN":"7鄰","STREET":"崇信街","SECT":" ","MAREA":" ","LANE":" ","ALLEY":" ","HOUSE_NO":"１０３號","E_COORD97":170768.91,"N_COORD97":2542316.2999999998,"ADDRESS":"崇信街１０３號","OBJECTID":497433},"geometry":{"x":170768.91000000108,"y":2542316.3000000007}},{"attributes":{"ID":497461,"DIS_CODE":0,"TOWNNAME":"歸仁區","LI":"媽廟里","LIN":"24鄰","STREET":"保大路","SECT":"一段","MAREA":" ","LANE":" ","ALLEY":" ","HOUSE_NO":"１４５號","E_COORD97":177735.63,"N_COORD97":2544020.7200000002,"ADDRESS":"保大路一段１４５號","OBJECTID":497434},"geometry":{"x":177735.62999999989,"y":2544020.7200000025}},{"attributes":{"ID":497462,"DIS_CODE":0,"TOWNNAME":"東區","LI":"崇信里","LIN":"7鄰","STREET":"崇信街","SECT":" ","MAREA":" ","LANE":" ","ALLEY":" ","HOUSE_NO":"１０５號","E_COORD97":170770.29999999999,"N_COORD97":2542312.5,"ADDRESS":"崇信街１０５號","OBJECTID":497435},"geometry":{"x":170770.29999999981,"y":2542312.5000000019}},{"attributes":{"ID":497463,"DIS_CODE":0,"TOWNNAME":"東區","LI":"崇信里","LIN":"7鄰","STREET":"崇信街","SECT":" ","MAREA":" ","LANE":" ","ALLEY":" ","HOUSE_NO":"１０７號","E_COORD97":170771.10000000001,"N_COORD97":2542308.7200000002,"ADDRESS":"崇信街１０７號","OBJECTID":497436},"geometry":{"x":170771.10000000056,"y":2542308.7200000025}},{"attributes":{"ID":497464,"DIS_CODE":0,"TOWNNAME":"東區","LI":"崇信里","LIN":"7鄰","STREET":"崇信街","SECT":" ","MAREA":" ","LANE":" ","ALLEY":" ","HOUSE_NO":"１０９號","E_COORD97":170772.89999999999,"N_COORD97":2542304.54,"ADDRESS":"崇信街１０９號","OBJECTID":497437},"geometry":{"x":170772.9000000013,"y":2542304.540000001}},{"attributes":{"ID":497465,"DIS_CODE":0,"TOWNNAME":"東區","LI":"崇信里","LIN":"7鄰","STREET":"崇信街","SECT":" ","MAREA":" ","LANE":" ","ALLEY":" ","HOUSE_NO":"１１１號","E_COORD97":170774.29000000001,"N_COORD97":2542300.1600000001,"ADDRESS":"崇信街１１１號","OBJECTID":497438},"geometry":{"x":170774.29000000004,"y":2542300.1600000001}},{"attributes":{"ID":497466,"DIS_CODE":0,"TOWNNAME":"東區","LI":"崇信里","LIN":"7鄰","STREET":"崇信街","SECT":" ","MAREA":" ","LANE":" ","ALLEY":" ","HOUSE_NO":"１１３號","E_COORD97":170776.09,"N_COORD97":2542295.3700000001,"ADDRESS":"崇信街１１３號","OBJECTID":497439},"geometry":{"x":170776.09000000078,"y":2542295.3700000029}},{"attributes":{"ID":497467,"DIS_CODE":0,"TOWNNAME":"東區","LI":"崇信里","LIN":"7鄰","STREET":"崇信街","SECT":" ","MAREA":" ","LANE":" ","ALLEY":" ","HOUSE_NO":"１１５號","E_COORD97":170777.67999999999,"N_COORD97":2542290.79,"ADDRESS":"崇信街１１５號","OBJECTID":497440},"geometry":{"x":170777.6799999997,"y":2542290.7899999991}},{"attributes":{"ID":497468,"DIS_CODE":0,"TOWNNAME":"東區","LI":"崇信里","LIN":"7鄰","STREET":"崇信街","SECT":" ","MAREA":" ","LANE":" ","ALLEY":" ","HOUSE_NO":"１１７號","E_COORD97":170779.28,"N_COORD97":2542285.6099999999,"ADDRESS":"崇信街１１７號","OBJECTID":497441},"geometry":{"x":170779.28000000026,"y":2542285.6099999994}},{"attributes":{"ID":497469,"DIS_CODE":0,"TOWNNAME":"東區","LI":"崇信里","LIN":"7鄰","STREET":"崇信街","SECT":" ","MAREA":" ","LANE":" ","ALLEY":" ","HOUSE_NO":"１１９號","E_COORD97":170780.28,"N_COORD97":2542281.23,"ADDRESS":"崇信街１１９號","OBJECTID":497442},"geometry":{"x":170780.28000000119,"y":2542281.2300000023}},{"attributes":{"ID":497470,"DIS_CODE":0,"TOWNNAME":"東區","LI":"崇信里","LIN":"7鄰","STREET":"崇信街","SECT":" ","MAREA":" ","LANE":" ","ALLEY":" ","HOUSE_NO":"１２１號","E_COORD97":170782.26999999999,"N_COORD97":2542277.2400000002,"ADDRESS":"崇信街１２１號","OBJECTID":497443},"geometry":{"x":170782.26999999955,"y":2542277.2400000021}},{"attributes":{"ID":497471,"DIS_CODE":0,"TOWNNAME":"東區","LI":"崇信里","LIN":"7鄰","STREET":"崇信街","SECT":" ","MAREA":" ","LANE":" ","ALLEY":" ","HOUSE_NO":"９７號","E_COORD97":170764.72,"N_COORD97":2542329.8500000001,"ADDRESS":"崇信街９７號","OBJECTID":497444},"geometry":{"x":170764.72000000067,"y":2542329.8500000034}},{"attributes":{"ID":497472,"DIS_CODE":0,"TOWNNAME":"東區","LI":"崇信里","LIN":"7鄰","STREET":"崇信街","SECT":" ","MAREA":" ","LANE":" ","ALLEY":" ","HOUSE_NO":"９９號","E_COORD97":170765.91,"N_COORD97":2542325.2599999998,"ADDRESS":"崇信街９９號","OBJECTID":497445},"geometry":{"x":170765.91000000108,"y":2542325.2600000016}},{"attributes":{"ID":497473,"DIS_CODE":0,"TOWNNAME":"東區","LI":"崇學里","LIN":"7鄰","STREET":"中華東路","SECT":"三段","MAREA":" ","LANE":" ","ALLEY":" ","HOUSE_NO":"１６２號","E_COORD97":170686.29000000001,"N_COORD97":2542062.27,"ADDRESS":"中華東路三段１６２號","OBJECTID":497446},"geometry":{"x":170686.2900000019,"y":2542062.2700000033}},{"attributes":{"ID":497474,"DIS_CODE":0,"TOWNNAME":"東區","LI":"崇學里","LIN":"7鄰","STREET":"中華東路","SECT":"三段","MAREA":" ","LANE":" ","ALLEY":" ","HOUSE_NO":"１６６號","E_COORD97":170675.17999999999,"N_COORD97":2542053.3500000001,"ADDRESS":"中華東路三段１６６號","OBJECTID":497447},"geometry":{"x":170675.18000000063,"y":2542053.3500000015}},{"attributes":{"ID":497475,"DIS_CODE":0,"TOWNNAME":"東區","LI":"崇學里","LIN":"7鄰","STREET":"中華東路","SECT":"三段","MAREA":" ","LANE":" ","ALLEY":" ","HOUSE_NO":"１６８號","E_COORD97":170671.92999999999,"N_COORD97":2542049.9500000002,"ADDRESS":"中華東路三段１６８號","OBJECTID":497448},"geometry":{"x":170671.93000000063,"y":2542049.9499999993}},{"attributes":{"ID":497476,"DIS_CODE":0,"TOWNNAME":"東區","LI":"崇學里","LIN":"7鄰","STREET":"中華東路","SECT":"三段","MAREA":" ","LANE":" ","ALLEY":" ","HOUSE_NO":"１７０號","E_COORD97":170655.48999999999,"N_COORD97":2542027.1299999999,"ADDRESS":"中華東路三段１７０號","OBJECTID":497449},"geometry":{"x":170655.49000000115,"y":2542027.129999999}},{"attributes":{"ID":497477,"DIS_CODE":0,"TOWNNAME":"東區","LI":"崇學里","LIN":"7鄰","STREET":"中華東路","SECT":"三段","MAREA":" ","LANE":" ","ALLEY":" ","HOUSE_NO":"１７２號","E_COORD97":170602.04999999999,"N_COORD97":2541982.9100000001,"ADDRESS":"中華東路三段１７２號","OBJECTID":497450},"geometry":{"x":170602.05000000075,"y":2541982.9100000001}},{"attributes":{"ID":497478,"DIS_CODE":0,"TOWNNAME":"東區","LI":"崇學里","LIN":"7鄰","STREET":"中華東路","SECT":"三段","MAREA":" ","LANE":" ","ALLEY":" ","HOUSE_NO":"１７４號","E_COORD97":170606.47,"N_COORD97":2541983,"ADDRESS":"中華東路三段１７４號","OBJECTID":497451},"geometry":{"x":170606.46999999974,"y":2541982.9999999981}},{"attributes":{"ID":497479,"DIS_CODE":0,"TOWNNAME":"東區","LI":"崇學里","LIN":"7鄰","STREET":"中華東路","SECT":"三段","MAREA":" ","LANE":" ","ALLEY":" ","HOUSE_NO":"１７６號","E_COORD97":170610.34,"N_COORD97":2541981.9500000002,"ADDRESS":"中華東路三段１７６號","OBJECTID":497452},"geometry":{"x":170610.34000000078,"y":2541981.9499999993}},{"attributes":{"ID":497480,"DIS_CODE":0,"TOWNNAME":"東區","LI":"崇學里","LIN":"7鄰","STREET":"崇善路","SECT":" ","MAREA":" ","LANE":" ","ALLEY":" ","HOUSE_NO":"２２０號","E_COORD97":170674.73999999999,"N_COORD97":2542072.04,"ADDRESS":"崇善路２２０號","OBJECTID":497453},"geometry":{"x":170674.74000000022,"y":2542072.0399999991}},{"attributes":{"ID":497481,"DIS_CODE":0,"TOWNNAME":"東區","LI":"崇學里","LIN":"7鄰","STREET":"崇善路","SECT":" ","MAREA":" ","LANE":" ","ALLEY":" ","HOUSE_NO":"２２２號","E_COORD97":170667.78,"N_COORD97":2542075.5899999999,"ADDRESS":"崇善路２２２號","OBJECTID":497454},"geometry":{"x":170667.78000000026,"y":2542075.5900000017}},{"attributes":{"ID":497482,"DIS_CODE":0,"TOWNNAME":"東區","LI":"崇學里","LIN":"7鄰","STREET":"崇德四街","SECT":" ","MAREA":" ","LANE":" ","ALLEY":" ","HOUSE_NO":"１００號","E_COORD97":170633.28,"N_COORD97":2542049.3799999999,"ADDRESS":"崇德四街１００號","OBJECTID":497455},"geometry":{"x":170633.28000000026,"y":2542049.379999999}},{"attributes":{"ID":497483,"DIS_CODE":0,"TOWNNAME":"東區","LI":"崇學里","LIN":"7鄰","STREET":"崇德四街","SECT":" ","MAREA":" ","LANE":" ","ALLEY":" ","HOUSE_NO":"１０２號","E_COORD97":170635.64999999999,"N_COORD97":2542052.6299999999,"ADDRESS":"崇德四街１０２號","OBJECTID":497456},"geometry":{"x":170635.6500000013,"y":2542052.6300000027}},{"attributes":{"ID":497484,"DIS_CODE":0,"TOWNNAME":"東區","LI":"崇學里","LIN":"7鄰","STREET":"崇德四街","SECT":" ","MAREA":" ","LANE":" ","ALLEY":" ","HOUSE_NO":"１０４號","E_COORD97":170638.31,"N_COORD97":2542055.7400000002,"ADDRESS":"崇德四街１０４號","OBJECTID":497457},"geometry":{"x":170638.31000000145,"y":2542055.7400000002}},{"attributes":{"ID":497485,"DIS_CODE":0,"TOWNNAME":"東區","LI":"崇學里","LIN":"7鄰","STREET":"崇德四街","SECT":" ","MAREA":" ","LANE":" ","ALLEY":" ","HOUSE_NO":"１０６號","E_COORD97":170640.09,"N_COORD97":2542059.1400000001,"ADDRESS":"崇德四街１０６號","OBJECTID":497458},"geometry":{"x":170640.09000000171,"y":2542059.1400000025}},{"attributes":{"ID":497486,"DIS_CODE":0,"TOWNNAME":"東區","LI":"崇學里","LIN":"7鄰","STREET":"崇德四街","SECT":" ","MAREA":" ","LANE":" ","ALLEY":" ","HOUSE_NO":"１０８號","E_COORD97":170642.60999999999,"N_COORD97":2542062.8399999999,"ADDRESS":"崇德四街１０８號","OBJECTID":497459},"geometry":{"x":170642.61000000127,"y":2542062.8400000017}},{"attributes":{"ID":497487,"DIS_CODE":0,"TOWNNAME":"東區","LI":"崇學里","LIN":"7鄰","STREET":"崇德四街","SECT":" ","MAREA":" ","LANE":" ","ALLEY":" ","HOUSE_NO":"８６號","E_COORD97":170616.39999999999,"N_COORD97":2542027.4300000002,"ADDRESS":"崇德四街８６號","OBJECTID":497460},"geometry":{"x":170616.40000000224,"y":2542027.4300000034}},{"attributes":{"ID":497488,"DIS_CODE":0,"TOWNNAME":"東區","LI":"崇學里","LIN":"7鄰","STREET":"崇德四街","SECT":" ","MAREA":" ","LANE":" ","ALLEY":" ","HOUSE_NO":"８８號","E_COORD97":170617.88,"N_COORD97":2542031.27,"ADDRESS":"崇德四街８８號","OBJECTID":497461},"geometry":{"x":170617.88000000175,"y":2542031.2699999996}},{"attributes":{"ID":497489,"DIS_CODE":0,"TOWNNAME":"東區","LI":"崇學里","LIN":"7鄰","STREET":"崇德四街","SECT":" ","MAREA":" ","LANE":" ","ALLEY":" ","HOUSE_NO":"９０號","E_COORD97":170621.57999999999,"N_COORD97":2542033.5499999998,"ADDRESS":"崇德四街９０號","OBJECTID":497462},"geometry":{"x":170621.57999999914,"y":2542033.5500000007}},{"attributes":{"ID":497490,"DIS_CODE":0,"TOWNNAME":"東區","LI":"崇學里","LIN":"7鄰","STREET":"崇德四街","SECT":" ","MAREA":" ","LANE":" ","ALLEY":" ","HOUSE_NO":"９２號","E_COORD97":170623.20999999999,"N_COORD97":2542036.7999999998,"ADDRESS":"崇德四街９２號","OBJECTID":497463},"geometry":{"x":170623.21000000089,"y":2542036.8000000026}},{"attributes":{"ID":497491,"DIS_CODE":0,"TOWNNAME":"東區","LI":"崇學里","LIN":"7鄰","STREET":"崇德四街","SECT":" ","MAREA":" ","LANE":" ","ALLEY":" ","HOUSE_NO":"９４號","E_COORD97":170625.73000000001,"N_COORD97":2542040.21,"ADDRESS":"崇德四街９４號","OBJECTID":497464},"geometry":{"x":170625.73000000045,"y":2542040.209999999}},{"attributes":{"ID":497492,"DIS_CODE":0,"TOWNNAME":"東區","LI":"崇學里","LIN":"7鄰","STREET":"崇德四街","SECT":" ","MAREA":" ","LANE":" ","ALLEY":" ","HOUSE_NO":"９６號","E_COORD97":170627.95000000001,"N_COORD97":2542043.7599999998,"ADDRESS":"崇德四街９６號","OBJECTID":497465},"geometry":{"x":170627.95000000112,"y":2542043.7600000016}},{"attributes":{"ID":497493,"DIS_CODE":0,"TOWNNAME":"東區","LI":"崇學里","LIN":"7鄰","STREET":"崇德四街","SECT":" ","MAREA":" ","LANE":" ","ALLEY":" ","HOUSE_NO":"９８號","E_COORD97":170630.76000000001,"N_COORD97":2542046.4199999999,"ADDRESS":"崇德四街９８號","OBJECTID":497466},"geometry":{"x":170630.76000000071,"y":2542046.4200000018}},{"attributes":{"ID":497494,"DIS_CODE":0,"TOWNNAME":"歸仁區","LI":"媽廟里","LIN":"14鄰","STREET":"中正北路","SECT":"三段","MAREA":" ","LANE":" ","ALLEY":" ","HOUSE_NO":"１０２號","E_COORD97":177603.45999999999,"N_COORD97":2543768.7200000002,"ADDRESS":"中正北路三段１０２號","OBJECTID":497467},"geometry":{"x":177603.46000000089,"y":2543768.7200000007}},{"attributes":{"ID":497495,"DIS_CODE":0,"TOWNNAME":"歸仁區","LI":"辜厝里","LIN":"5鄰","STREET":"民族南街","SECT":" ","MAREA":" ","LANE":" ","ALLEY":" ","HOUSE_NO":"５０號","E_COORD97":177397.79000000001,"N_COORD97":2540662.5499999998,"ADDRESS":"民族南街５０號","OBJECTID":497468},"geometry":{"x":177397.79000000097,"y":2540662.5500000026}},{"attributes":{"ID":497496,"DIS_CODE":0,"TOWNNAME":"歸仁區","LI":"新厝里","LIN":"20鄰","STREET":"大成路","SECT":" ","MAREA":" ","LANE":" ","ALLEY":" ","HOUSE_NO":"９４號","E_COORD97":177667.09,"N_COORD97":2540316.1800000002,"ADDRESS":"大成路９４號","OBJECTID":497469},"geometry":{"x":177667.09000000078,"y":2540316.1799999997}},{"attributes":{"ID":497497,"DIS_CODE":0,"TOWNNAME":"歸仁區","LI":"歸仁里","LIN":"24鄰","STREET":"忠孝北路","SECT":" ","MAREA":" ","LANE":" ","ALLEY":" ","HOUSE_NO":"２２８號","E_COORD97":178086.32000000001,"N_COORD97":2541267.1099999999,"ADDRESS":"忠孝北路２２８號","OBJECTID":497470},"geometry":{"x":178086.32000000123,"y":2541267.1100000013}},{"attributes":{"ID":497498,"DIS_CODE":0,"TOWNNAME":"歸仁區","LI":"歸仁里","LIN":"4鄰","STREET":"和平三街","SECT":" ","MAREA":" ","LANE":" ","ALLEY":" ","HOUSE_NO":"８號","E_COORD97":177819.34,"N_COORD97":2541007.04,"ADDRESS":"和平三街８號","OBJECTID":497471},"geometry":{"x":177819.34000000078,"y":2541007.040000001}},{"attributes":{"ID":497499,"DIS_CODE":0,"TOWNNAME":"歸仁區","LI":"新厝里","LIN":"1鄰","STREET":"中山路","SECT":"一段","MAREA":" ","LANE":" ","ALLEY":" ","HOUSE_NO":"６１７號","E_COORD97":177720.69,"N_COORD97":2540748.6800000002,"ADDRESS":"中山路一段６１７號","OBJECTID":497472},"geometry":{"x":177720.68999999948,"y":2540748.6800000016}},{"attributes":{"ID":497500,"DIS_CODE":0,"TOWNNAME":"歸仁區","LI":"新厝里","LIN":"2鄰","STREET":"復興路","SECT":" ","MAREA":" ","LANE":" ","ALLEY":" ","HOUSE_NO":"１６０號","E_COORD97":177650.87,"N_COORD97":2540651.25,"ADDRESS":"復興路１６０號","OBJECTID":497473},"geometry":{"x":177650.87000000011,"y":2540651.25}},{"attributes":{"ID":497501,"DIS_CODE":0,"TOWNNAME":"白河區","LI":"永安里","LIN":"7鄰","STREET":"富民路","SECT":" ","MAREA":" ","LANE":" ","ALLEY":" ","HOUSE_NO":"４２２號","E_COORD97":189613.39999999999,"N_COORD97":2583008.8900000001,"ADDRESS":"富民路４２２號","OBJECTID":497474},"geometry":{"x":189613.4000000013,"y":2583008.8900000025}},{"attributes":{"ID":497502,"DIS_CODE":0,"TOWNNAME":"白河區","LI":"永安里","LIN":"7鄰","STREET":"富民路","SECT":" ","MAREA":" ","LANE":" ","ALLEY":" ","HOUSE_NO":"４２４號","E_COORD97":189613.32000000001,"N_COORD97":2583012.8500000001,"ADDRESS":"富民路４２４號","OBJECTID":497475},"geometry":{"x":189613.32000000216,"y":2583012.8499999996}},{"attributes":{"ID":497503,"DIS_CODE":0,"TOWNNAME":"白河區","LI":"永安里","LIN":"7鄰","STREET":"富民路","SECT":" ","MAREA":" ","LANE":" ","ALLEY":" ","HOUSE_NO":"４２６號","E_COORD97":189613.66,"N_COORD97":2583017.3900000001,"ADDRESS":"富民路４２６號","OBJECTID":497476},"geometry":{"x":189613.66000000015,"y":2583017.3900000006}},{"attributes":{"ID":497504,"DIS_CODE":0,"TOWNNAME":"白河區","LI":"永安里","LIN":"7鄰","STREET":"富民路","SECT":" ","MAREA":" ","LANE":" ","ALLEY":" ","HOUSE_NO":"４２８號","E_COORD97":189613.89999999999,"N_COORD97":2583021.3199999998,"ADDRESS":"富民路４２８號","OBJECTID":497477},"geometry":{"x":189613.90000000037,"y":2583021.3200000003}},{"attributes":{"ID":497505,"DIS_CODE":0,"TOWNNAME":"白河區","LI":"永安里","LIN":"7鄰","STREET":"富民路","SECT":" ","MAREA":" ","LANE":" ","ALLEY":" ","HOUSE_NO":"４３０號","E_COORD97":189614.39000000001,"N_COORD97":2583025.3799999999,"ADDRESS":"富民路４３０號","OBJECTID":497478},"geometry":{"x":189614.3900000006,"y":2583025.379999999}},{"attributes":{"ID":497506,"DIS_CODE":0,"TOWNNAME":"白河區","LI":"永安里","LIN":"7鄰","STREET":"富民路","SECT":" ","MAREA":" ","LANE":" ","ALLEY":" ","HOUSE_NO":"４３２號","E_COORD97":189614.23000000001,"N_COORD97":2583029.46,"ADDRESS":"富民路４３２號","OBJECTID":497479},"geometry":{"x":189614.23000000138,"y":2583029.4600000028}},{"attributes":{"ID":497507,"DIS_CODE":0,"TOWNNAME":"白河區","LI":"永安里","LIN":"7鄰","STREET":"富民路","SECT":" ","MAREA":" ","LANE":" ","ALLEY":" ","HOUSE_NO":"４３４號","E_COORD97":189614.56,"N_COORD97":2583033.5299999998,"ADDRESS":"富民路４３４號","OBJECTID":497480},"geometry":{"x":189614.56000000052,"y":2583033.5300000012}},{"attributes":{"ID":497508,"DIS_CODE":0,"TOWNNAME":"白河區","LI":"永安里","LIN":"7鄰","STREET":"富民路","SECT":" ","MAREA":" ","LANE":" ","ALLEY":" ","HOUSE_NO":"４８３號","E_COORD97":189586.23999999999,"N_COORD97":2583014.5499999998,"ADDRESS":"富民路４８３號","OBJECTID":497481},"geometry":{"x":189586.24000000022,"y":2583014.5500000026}},{"attributes":{"ID":497509,"DIS_CODE":0,"TOWNNAME":"白河區","LI":"永安里","LIN":"7鄰","STREET":"富民路","SECT":" ","MAREA":" ","LANE":" ","ALLEY":" ","HOUSE_NO":"４８５號","E_COORD97":189586.67000000001,"N_COORD97":2583018.7000000002,"ADDRESS":"富民路４８５號","OBJECTID":497482},"geometry":{"x":189586.67000000179,"y":2583018.7000000011}},{"attributes":{"ID":497510,"DIS_CODE":0,"TOWNNAME":"白河區","LI":"永安里","LIN":"7鄰","STREET":"富民路","SECT":" ","MAREA":" ","LANE":" ","ALLEY":" ","HOUSE_NO":"４８７號","E_COORD97":189586.73999999999,"N_COORD97":2583022.1600000001,"ADDRESS":"富民路４８７號","OBJECTID":497483},"geometry":{"x":189586.74000000115,"y":2583022.1600000001}},{"attributes":{"ID":497511,"DIS_CODE":0,"TOWNNAME":"白河區","LI":"永安里","LIN":"7鄰","STREET":"富民路","SECT":" ","MAREA":" ","LANE":" ","ALLEY":" ","HOUSE_NO":"４８９號","E_COORD97":189586.44,"N_COORD97":2583026.5800000001,"ADDRESS":"富民路４８９號","OBJECTID":497484},"geometry":{"x":189586.44000000041,"y":2583026.5800000038}},{"attributes":{"ID":497512,"DIS_CODE":0,"TOWNNAME":"白河區","LI":"永安里","LIN":"7鄰","STREET":"富民路","SECT":" ","MAREA":" ","LANE":" ","ALLEY":" ","HOUSE_NO":"４９１號","E_COORD97":189586.84,"N_COORD97":2583031.4900000002,"ADDRESS":"富民路４９１號","OBJECTID":497485},"geometry":{"x":189586.83999999985,"y":2583031.4900000021}},{"attributes":{"ID":497513,"DIS_CODE":0,"TOWNNAME":"白河區","LI":"永安里","LIN":"7鄰","STREET":"富民路","SECT":" ","MAREA":" ","LANE":" ","ALLEY":" ","HOUSE_NO":"４９３號","E_COORD97":189586.79000000001,"N_COORD97":2583035.5600000001,"ADDRESS":"富民路４９３號","OBJECTID":497486},"geometry":{"x":189586.79000000097,"y":2583035.5600000024}},{"attributes":{"ID":497514,"DIS_CODE":0,"TOWNNAME":"歸仁區","LI":"歸仁里","LIN":"24鄰","STREET":"忠孝北路","SECT":" ","MAREA":" ","LANE":" ","ALLEY":" ","HOUSE_NO":"２１０號","E_COORD97":178111.82000000001,"N_COORD97":2541231.1099999999,"ADDRESS":"忠孝北路２１０號","OBJECTID":497487},"geometry":{"x":178111.82000000123,"y":2541231.1099999994}},{"attributes":{"ID":497515,"DIS_CODE":0,"TOWNNAME":"歸仁區","LI":"歸仁里","LIN":"8鄰","STREET":"和平北街","SECT":" ","MAREA":" ","LANE":" ","ALLEY":" ","HOUSE_NO":"１８號","E_COORD97":177848.48999999999,"N_COORD97":2540834.1699999999,"ADDRESS":"和平北街１８號","OBJECTID":497488},"geometry":{"x":177848.49000000022,"y":2540834.1700000018}},{"attributes":{"ID":497516,"DIS_CODE":0,"TOWNNAME":"歸仁區","LI":"歸仁里","LIN":"4鄰","STREET":"和平三街","SECT":" ","MAREA":" ","LANE":" ","ALLEY":" ","HOUSE_NO":"６號","E_COORD97":177823.44,"N_COORD97":2541007.04,"ADDRESS":"和平三街６號","OBJECTID":497489},"geometry":{"x":177823.44000000041,"y":2541007.040000001}},{"attributes":{"ID":497517,"DIS_CODE":0,"TOWNNAME":"安南區","LI":"\u25A0田里","LIN":"7鄰","STREET":"工環路","SECT":" ","MAREA":" ","LANE":" ","ALLEY":" ","HOUSE_NO":"１０號","E_COORD97":163749.34,"N_COORD97":2548618.2799999998,"ADDRESS":"工環路１０號","OBJECTID":497490},"geometry":{"x":163749.34000000078,"y":2548618.2799999993}},{"attributes":{"ID":497518,"DIS_CODE":0,"TOWNNAME":"安南區","LI":"\u25A0田里","LIN":"7鄰","STREET":"工業二路","SECT":" ","MAREA":" ","LANE":" ","ALLEY":" ","HOUSE_NO":"２０號","E_COORD97":163745.14000000001,"N_COORD97":2548444.5,"ADDRESS":"工業二路２０號","OBJECTID":497491},"geometry":{"x":163745.14000000153,"y":2548444.5}},{"attributes":{"ID":497519,"DIS_CODE":0,"TOWNNAME":"安南區","LI":"\u25A0田里","LIN":"7鄰","STREET":"工業二路","SECT":" ","MAREA":" ","LANE":" ","ALLEY":" ","HOUSE_NO":"３０號","E_COORD97":163673.62,"N_COORD97":2548556.77,"ADDRESS":"工業二路３０號","OBJECTID":497492},"geometry":{"x":163673.62000000104,"y":2548556.7699999996}},{"attributes":{"ID":497520,"DIS_CODE":0,"TOWNNAME":"安南區","LI":"頂安里","LIN":"7鄰","STREET":"頂安街","SECT":" ","MAREA":" ","LANE":" ","ALLEY":" ","HOUSE_NO":"５１９之１號","E_COORD97":168656.07000000001,"N_COORD97":2549275.48,"ADDRESS":"頂安街５１９之１號","OBJECTID":497493},"geometry":{"x":168656.07000000123,"y":2549275.4800000004}},{"attributes":{"ID":497521,"DIS_CODE":0,"TOWNNAME":"安南區","LI":"公親里","LIN":"7鄰","STREET":"公學路","SECT":"一段","MAREA":" ","LANE":" ","ALLEY":" ","HOUSE_NO":"１０２之１號","E_COORD97":168345.56,"N_COORD97":2553054.1499999999,"ADDRESS":"公學路一段１０２之１號","OBJECTID":497494},"geometry":{"x":168345.55999999959,"y":2553054.1500000004}},{"attributes":{"ID":497522,"DIS_CODE":0,"TOWNNAME":"安南區","LI":"新順里","LIN":"7鄰","STREET":"北安路","SECT":"三段","MAREA":" ","LANE":" ","ALLEY":" ","HOUSE_NO":"７４３號","E_COORD97":169096.17999999999,"N_COORD97":2549847.3999999999,"ADDRESS":"北安路三段７４３號","OBJECTID":497495},"geometry":{"x":169096.1799999997,"y":2549847.4000000022}},{"attributes":{"ID":497523,"DIS_CODE":0,"TOWNNAME":"安南區","LI":"城北里","LIN":"7鄰","STREET":"安中路","SECT":"六段","MAREA":" ","LANE":" ","ALLEY":" ","HOUSE_NO":"２１８之１３號","E_COORD97":161476.82000000001,"N_COORD97":2551303.9500000002,"ADDRESS":"安中路六段２１８之１３號","OBJECTID":497496},"geometry":{"x":161476.82000000123,"y":2551303.9500000011}},{"attributes":{"ID":497524,"DIS_CODE":0,"TOWNNAME":"安南區","LI":"\u25A0田里","LIN":"7鄰","STREET":"科技一路","SECT":" ","MAREA":" ","LANE":" ","ALLEY":" ","HOUSE_NO":"３５號","E_COORD97":162737.89000000001,"N_COORD97":2548688.8799999999,"ADDRESS":"科技一路３５號","OBJECTID":497497},"geometry":{"x":162737.88999999966,"y":2548688.8799999971}},{"attributes":{"ID":497525,"DIS_CODE":0,"TOWNNAME":"安南區","LI":"\u25A0田里","LIN":"7鄰","STREET":"工業二路","SECT":" ","MAREA":" ","LANE":" ","ALLEY":" ","HOUSE_NO":"５１號","E_COORD97":163006.29000000001,"N_COORD97":2549032.1099999999,"ADDRESS":"工業二路５１號","OBJECTID":497498},"geometry":{"x":163006.29000000097,"y":2549032.1100000013}},{"attributes":{"ID":497526,"DIS_CODE":0,"TOWNNAME":"佳里區","LI":"忠仁里","LIN":"7鄰","STREET":"延平路","SECT":" ","MAREA":" ","LANE":" ","ALLEY":" ","HOUSE_NO":"１８４號","E_COORD97":165921.54999999999,"N_COORD97":2562013.9500000002,"ADDRESS":"延平路１８４號","OBJECTID":497499},"geometry":{"x":165921.55000000075,"y":2562013.9500000011}},{"attributes":{"ID":497527,"DIS_CODE":0,"TOWNNAME":"佳里區","LI":"忠仁里","LIN":"7鄰","STREET":"延平路","SECT":" ","MAREA":" ","LANE":" ","ALLEY":" ","HOUSE_NO":"１８６號","E_COORD97":165920.85000000001,"N_COORD97":2562018.9900000002,"ADDRESS":"延平路１８６號","OBJECTID":497500},"geometry":{"x":165920.85000000056,"y":2562018.9900000002}},{"attributes":{"ID":497528,"DIS_CODE":0,"TOWNNAME":"佳里區","LI":"忠仁里","LIN":"7鄰","STREET":"延平路","SECT":" ","MAREA":" ","LANE":" ","ALLEY":" ","HOUSE_NO":"１８８號","E_COORD97":165919.63,"N_COORD97":2562027.8500000001,"ADDRESS":"延平路１８８號","OBJECTID":497501},"geometry":{"x":165919.62999999989,"y":2562027.8500000034}},{"attributes":{"ID":497529,"DIS_CODE":0,"TOWNNAME":"佳里區","LI":"忠仁里","LIN":"7鄰","STREET":"延平路","SECT":" ","MAREA":" ","LANE":" ","ALLEY":" ","HOUSE_NO":"１９０號","E_COORD97":165919.03,"N_COORD97":2562032.6200000001,"ADDRESS":"延平路１９０號","OBJECTID":497502},"geometry":{"x":165919.03000000026,"y":2562032.620000001}},{"attributes":{"ID":497530,"DIS_CODE":0,"TOWNNAME":"佳里區","LI":"東寧里","LIN":"7鄰","STREET":"延平路","SECT":" ","MAREA":" ","LANE":" ","ALLEY":" ","HOUSE_NO":"３０９號","E_COORD97":165848.35000000001,"N_COORD97":2562433.98,"ADDRESS":"延平路３０９號","OBJECTID":497503},"geometry":{"x":165848.34999999963,"y":2562433.9800000004}},{"attributes":{"ID":497531,"DIS_CODE":0,"TOWNNAME":"佳里區","LI":"東寧里","LIN":"7鄰","STREET":"延平路","SECT":" ","MAREA":" ","LANE":" ","ALLEY":" ","HOUSE_NO":"３１１號","E_COORD97":165844.79999999999,"N_COORD97":2562444.4500000002,"ADDRESS":"延平路３１１號","OBJECTID":497504},"geometry":{"x":165844.80000000075,"y":2562444.4500000011}},{"attributes":{"ID":497532,"DIS_CODE":0,"TOWNNAME":"佳里區","LI":"東寧里","LIN":"7鄰","STREET":"延平路","SECT":" ","MAREA":" ","LANE":" ","ALLEY":" ","HOUSE_NO":"３１３號","E_COORD97":165845.37,"N_COORD97":2562448.5699999998,"ADDRESS":"延平路３１３號","OBJECTID":497505},"geometry":{"x":165845.37000000011,"y":2562448.5700000022}},{"attributes":{"ID":497533,"DIS_CODE":0,"TOWNNAME":"佳里區","LI":"東寧里","LIN":"7鄰","STREET":"延平路","SECT":" ","MAREA":" ","LANE":" ","ALLEY":" ","HOUSE_NO":"３１５號","E_COORD97":165845.92999999999,"N_COORD97":2562452.48,"ADDRESS":"延平路３１５號","OBJECTID":497506},"geometry":{"x":165845.93000000063,"y":2562452.4800000023}},{"attributes":{"ID":497534,"DIS_CODE":0,"TOWNNAME":"佳里區","LI":"東寧里","LIN":"7鄰","STREET":"延平路","SECT":" ","MAREA":" ","LANE":" ","ALLEY":" ","HOUSE_NO":"３１７號","E_COORD97":165846.35999999999,"N_COORD97":2562456.3399999999,"ADDRESS":"延平路３１７號","OBJECTID":497507},"geometry":{"x":165846.3600000022,"y":2562456.3400000017}},{"attributes":{"ID":497535,"DIS_CODE":0,"TOWNNAME":"佳里區","LI":"東寧里","LIN":"7鄰","STREET":"延平路","SECT":" ","MAREA":" ","LANE":" ","ALLEY":" ","HOUSE_NO":"３２５號","E_COORD97":165845.85999999999,"N_COORD97":2562465.8399999999,"ADDRESS":"延平路３２５號","OBJECTID":497508},"geometry":{"x":165845.86000000034,"y":2562465.8400000017}},{"attributes":{"ID":497536,"DIS_CODE":0,"TOWNNAME":"佳里區","LI":"忠仁里","LIN":"7鄰","STREET":"忠仁街","SECT":" ","MAREA":" ","LANE":" ","ALLEY":" ","HOUSE_NO":"４３號","E_COORD97":166041.41,"N_COORD97":2562049.1299999999,"ADDRESS":"忠仁街４３號","OBJECTID":497509},"geometry":{"x":166041.41000000108,"y":2562049.1300000027}},{"attributes":{"ID":497537,"DIS_CODE":0,"TOWNNAME":"南區","LI":"日新里","LIN":"11鄰","STREET":"新興路","SECT":" ","MAREA":" ","LANE":"４３９巷","ALLEY":"１弄","HOUSE_NO":"５號","E_COORD97":166963.85999999999,"N_COORD97":2541731.79,"ADDRESS":"新興路４３９巷１弄５號","OBJECTID":497510},"geometry":{"x":166963.86000000127,"y":2541731.7899999991}},{"attributes":{"ID":497538,"DIS_CODE":0,"TOWNNAME":"佳里區","LI":"忠仁里","LIN":"7鄰","STREET":"忠仁街","SECT":" ","MAREA":" ","LANE":" ","ALLEY":" ","HOUSE_NO":"４５號","E_COORD97":166040.82999999999,"N_COORD97":2562053.0699999998,"ADDRESS":"忠仁街４５號","OBJECTID":497511},"geometry":{"x":166040.83000000007,"y":2562053.0700000003}},{"attributes":{"ID":497539,"DIS_CODE":0,"TOWNNAME":"佳里區","LI":"忠仁里","LIN":"7鄰","STREET":"忠仁街","SECT":" ","MAREA":" ","LANE":" ","ALLEY":" ","HOUSE_NO":"４７號","E_COORD97":166040.29000000001,"N_COORD97":2562057.25,"ADDRESS":"忠仁街４７號","OBJECTID":497512},"geometry":{"x":166040.29000000097,"y":2562057.2500000019}},{"attributes":{"ID":497540,"DIS_CODE":0,"TOWNNAME":"佳里區","LI":"忠仁里","LIN":"7鄰","STREET":"忠仁街","SECT":" ","MAREA":" ","LANE":" ","ALLEY":" ","HOUSE_NO":"４９號","E_COORD97":166039.73999999999,"N_COORD97":2562061.1200000001,"ADDRESS":"忠仁街４９號","OBJECTID":497513},"geometry":{"x":166039.74000000022,"y":2562061.1199999992}},{"attributes":{"ID":497541,"DIS_CODE":0,"TOWNNAME":"佳里區","LI":"忠仁里","LIN":"7鄰","STREET":"忠仁街","SECT":" ","MAREA":" ","LANE":" ","ALLEY":" ","HOUSE_NO":"５３號","E_COORD97":166038.17000000001,"N_COORD97":2562072.7799999998,"ADDRESS":"忠仁街５３號","OBJECTID":497514},"geometry":{"x":166038.16999999993,"y":2562072.7800000012}},{"attributes":{"ID":497542,"DIS_CODE":0,"TOWNNAME":"佳里區","LI":"六安里","LIN":"7鄰","STREET":"林園街","SECT":" ","MAREA":" ","LANE":" ","ALLEY":" ","HOUSE_NO":"６８號","E_COORD97":166002.48000000001,"N_COORD97":2562833.8900000001,"ADDRESS":"林園街６８號","OBJECTID":497515},"geometry":{"x":166002.48000000138,"y":2562833.8900000006}},{"attributes":{"ID":497543,"DIS_CODE":0,"TOWNNAME":"佳里區","LI":"鎮山里","LIN":"7鄰","STREET":"信義一街","SECT":" ","MAREA":" ","LANE":" ","ALLEY":" ","HOUSE_NO":"５５號","E_COORD97":166278.45000000001,"N_COORD97":2561700.71,"ADDRESS":"信義一街５５號","OBJECTID":497516},"geometry":{"x":166278.45000000112,"y":2561700.7100000009}},{"attributes":{"ID":497544,"DIS_CODE":0,"TOWNNAME":"佳里區","LI":"鎮山里","LIN":"7鄰","STREET":"信義一街","SECT":" ","MAREA":" ","LANE":" ","ALLEY":" ","HOUSE_NO":"５７號","E_COORD97":166275.20000000001,"N_COORD97":2561704.6400000001,"ADDRESS":"信義一街５７號","OBJECTID":497517},"geometry":{"x":166275.20000000112,"y":2561704.6400000043}},{"attributes":{"ID":497545,"DIS_CODE":0,"TOWNNAME":"佳里區","LI":"鎮山里","LIN":"7鄰","STREET":"信義一街","SECT":" ","MAREA":" ","LANE":" ","ALLEY":" ","HOUSE_NO":"５９號","E_COORD97":166272.42000000001,"N_COORD97":2561708.4399999999,"ADDRESS":"信義一街５９號","OBJECTID":497518},"geometry":{"x":166272.41999999993,"y":2561708.4400000032}},{"attributes":{"ID":497546,"DIS_CODE":0,"TOWNNAME":"佳里區","LI":"鎮山里","LIN":"7鄰","STREET":"信義一街","SECT":" ","MAREA":" ","LANE":" ","ALLEY":" ","HOUSE_NO":"６１號","E_COORD97":166269.67999999999,"N_COORD97":2561712.0099999998,"ADDRESS":"信義一街６１號","OBJECTID":497519},"geometry":{"x":166269.68000000063,"y":2561712.0100000016}},{"attributes":{"ID":497547,"DIS_CODE":0,"TOWNNAME":"佳里區","LI":"鎮山里","LIN":"7鄰","STREET":"信義一街","SECT":" ","MAREA":" ","LANE":" ","ALLEY":" ","HOUSE_NO":"６３號","E_COORD97":166266.66,"N_COORD97":2561715.8700000001,"ADDRESS":"信義一街６３號","OBJECTID":497520},"geometry":{"x":166266.66000000108,"y":2561715.870000001}},{"attributes":{"ID":497548,"DIS_CODE":0,"TOWNNAME":"佳里區","LI":"鎮山里","LIN":"7鄰","STREET":"信義一街","SECT":" ","MAREA":" ","LANE":" ","ALLEY":" ","HOUSE_NO":"６５號","E_COORD97":166263.35999999999,"N_COORD97":2561719.0099999998,"ADDRESS":"信義一街６５號","OBJECTID":497521},"geometry":{"x":166263.3599999994,"y":2561719.0100000016}},{"attributes":{"ID":497549,"DIS_CODE":0,"TOWNNAME":"佳里區","LI":"六安里","LIN":"7鄰","STREET":"青年街","SECT":" ","MAREA":" ","LANE":" ","ALLEY":" ","HOUSE_NO":"６１號","E_COORD97":166052.92000000001,"N_COORD97":2562979.9500000002,"ADDRESS":"青年街６１號","OBJECTID":497522},"geometry":{"x":166052.92000000086,"y":2562979.9500000011}},{"attributes":{"ID":497550,"DIS_CODE":0,"TOWNNAME":"佳里區","LI":"六安里","LIN":"7鄰","STREET":"青年街","SECT":" ","MAREA":" ","LANE":" ","ALLEY":" ","HOUSE_NO":"６５號","E_COORD97":166034.92999999999,"N_COORD97":2562983.3199999998,"ADDRESS":"青年街６５號","OBJECTID":497523},"geometry":{"x":166034.9299999997,"y":2562983.3200000003}},{"attributes":{"ID":497551,"DIS_CODE":0,"TOWNNAME":"佳里區","LI":"六安里","LIN":"7鄰","STREET":"青年街","SECT":" ","MAREA":" ","LANE":" ","ALLEY":" ","HOUSE_NO":"６７號","E_COORD97":166031.03,"N_COORD97":2562983.4900000002,"ADDRESS":"青年街６７號","OBJECTID":497524},"geometry":{"x":166031.03000000026,"y":2562983.4900000039}},{"attributes":{"ID":497552,"DIS_CODE":0,"TOWNNAME":"佳里區","LI":"六安里","LIN":"7鄰","STREET":"青年街","SECT":" ","MAREA":" ","LANE":" ","ALLEY":" ","HOUSE_NO":"６９號","E_COORD97":166026.95000000001,"N_COORD97":2562983.6800000002,"ADDRESS":"青年街６９號","OBJECTID":497525},"geometry":{"x":166026.94999999925,"y":2562983.6799999997}},{"attributes":{"ID":497553,"DIS_CODE":0,"TOWNNAME":"佳里區","LI":"六安里","LIN":"7鄰","STREET":"青年街","SECT":" ","MAREA":" ","LANE":" ","ALLEY":" ","HOUSE_NO":"７１號","E_COORD97":166023.03,"N_COORD97":2562984.0699999998,"ADDRESS":"青年街７１號","OBJECTID":497526},"geometry":{"x":166023.03000000026,"y":2562984.0700000022}},{"attributes":{"ID":497554,"DIS_CODE":0,"TOWNNAME":"佳里區","LI":"六安里","LIN":"7鄰","STREET":"青年街","SECT":" ","MAREA":" ","LANE":" ","ALLEY":" ","HOUSE_NO":"７３號","E_COORD97":166018.82999999999,"N_COORD97":2562984.2000000002,"ADDRESS":"青年街７３號","OBJECTID":497527},"geometry":{"x":166018.83000000007,"y":2562984.1999999993}},{"attributes":{"ID":497555,"DIS_CODE":0,"TOWNNAME":"歸仁區","LI":"看西里","LIN":"4鄰","STREET":"仁愛南街","SECT":" ","MAREA":" ","LANE":" ","ALLEY":" ","HOUSE_NO":"１１４號","E_COORD97":178272.64999999999,"N_COORD97":2540370.29,"ADDRESS":"仁愛南街１１４號","OBJECTID":497528},"geometry":{"x":178272.6500000013,"y":2540370.290000001}},{"attributes":{"ID":497556,"DIS_CODE":0,"TOWNNAME":"佳里區","LI":"六安里","LIN":"7鄰","STREET":"青年街","SECT":" ","MAREA":" ","LANE":" ","ALLEY":" ","HOUSE_NO":"７５號","E_COORD97":166014.47,"N_COORD97":2562984.4700000002,"ADDRESS":"青年街７５號","OBJECTID":497529},"geometry":{"x":166014.46999999881,"y":2562984.4700000025}},{"attributes":{"ID":497557,"DIS_CODE":0,"TOWNNAME":"佳里區","LI":"六安里","LIN":"7鄰","STREET":"青年街","SECT":" ","MAREA":" ","LANE":" ","ALLEY":" ","HOUSE_NO":"７７號","E_COORD97":166010.04999999999,"N_COORD97":2562984.6699999999,"ADDRESS":"青年街７７號","OBJECTID":497530},"geometry":{"x":166010.04999999981,"y":2562984.6699999999}},{"attributes":{"ID":497558,"DIS_CODE":0,"TOWNNAME":"佳里區","LI":"六安里","LIN":"7鄰","STREET":"青年街","SECT":" ","MAREA":" ","LANE":" ","ALLEY":" ","HOUSE_NO":"７９號","E_COORD97":166005.35999999999,"N_COORD97":2562985.23,"ADDRESS":"青年街７９號","OBJECTID":497531},"geometry":{"x":166005.36000000034,"y":2562985.2300000004}},{"attributes":{"ID":497559,"DIS_CODE":0,"TOWNNAME":"佳里區","LI":"六安里","LIN":"7鄰","STREET":"青年街","SECT":" ","MAREA":" ","LANE":" ","ALLEY":" ","HOUSE_NO":"８３號","E_COORD97":165994.78,"N_COORD97":2562983.1000000001,"ADDRESS":"青年街８３號","OBJECTID":497532},"geometry":{"x":165994.78000000119,"y":2562983.1000000015}},{"attributes":{"ID":497560,"DIS_CODE":0,"TOWNNAME":"佳里區","LI":"六安里","LIN":"7鄰","STREET":"信義二街","SECT":" ","MAREA":" ","LANE":" ","ALLEY":" ","HOUSE_NO":"１１７號","E_COORD97":166042.07000000001,"N_COORD97":2562962.1400000001,"ADDRESS":"信義二街１１７號","OBJECTID":497533},"geometry":{"x":166042.07000000123,"y":2562962.1400000006}},{"attributes":{"ID":497561,"DIS_CODE":0,"TOWNNAME":"佳里區","LI":"六安里","LIN":"7鄰","STREET":"信義二街","SECT":" ","MAREA":" ","LANE":" ","ALLEY":" ","HOUSE_NO":"８７號","E_COORD97":166054.45000000001,"N_COORD97":2562888.9300000002,"ADDRESS":"信義二街８７號","OBJECTID":497534},"geometry":{"x":166054.45000000112,"y":2562888.9300000016}},{"attributes":{"ID":497562,"DIS_CODE":0,"TOWNNAME":"佳里區","LI":"六安里","LIN":"7鄰","STREET":"信義二街","SECT":" ","MAREA":" ","LANE":" ","ALLEY":" ","HOUSE_NO":"８９號","E_COORD97":166055.07000000001,"N_COORD97":2562893.7799999998,"ADDRESS":"信義二街８９號","OBJECTID":497535},"geometry":{"x":166055.06999999937,"y":2562893.7800000012}},{"attributes":{"ID":497563,"DIS_CODE":0,"TOWNNAME":"佳里區","LI":"六安里","LIN":"7鄰","STREET":"信義二街","SECT":" ","MAREA":" ","LANE":" ","ALLEY":" ","HOUSE_NO":"９１號","E_COORD97":166054.42000000001,"N_COORD97":2562897.9399999999,"ADDRESS":"信義二街９１號","OBJECTID":497536},"geometry":{"x":166054.42000000086,"y":2562897.9399999995}},{"attributes":{"ID":497564,"DIS_CODE":0,"TOWNNAME":"佳里區","LI":"六安里","LIN":"7鄰","STREET":"信義二街","SECT":" ","MAREA":" ","LANE":" ","ALLEY":" ","HOUSE_NO":"９３號","E_COORD97":166054.51999999999,"N_COORD97":2562902.1800000002,"ADDRESS":"信義二街９３號","OBJECTID":497537},"geometry":{"x":166054.51999999955,"y":2562902.1799999997}},{"attributes":{"ID":497565,"DIS_CODE":0,"TOWNNAME":"佳里區","LI":"六安里","LIN":"7鄰","STREET":"信義二街","SECT":" ","MAREA":" ","LANE":" ","ALLEY":" ","HOUSE_NO":"９５號","E_COORD97":166054.06,"N_COORD97":2562907.3100000001,"ADDRESS":"信義二街９５號","OBJECTID":497538},"geometry":{"x":166054.05999999959,"y":2562907.3100000042}},{"attributes":{"ID":497566,"DIS_CODE":0,"TOWNNAME":"佳里區","LI":"六安里","LIN":"7鄰","STREET":"信義二街","SECT":" ","MAREA":" ","LANE":" ","ALLEY":" ","HOUSE_NO":"９７號","E_COORD97":166044.06,"N_COORD97":2562912.98,"ADDRESS":"信義二街９７號","OBJECTID":497539},"geometry":{"x":166044.05999999959,"y":2562912.9800000023}},{"attributes":{"ID":497567,"DIS_CODE":0,"TOWNNAME":"佳里區","LI":"建南里","LIN":"7鄰","STREET":"建南街","SECT":" ","MAREA":" ","LANE":" ","ALLEY":" ","HOUSE_NO":"１６９號","E_COORD97":165704.75,"N_COORD97":2562169.8599999999,"ADDRESS":"建南街１６９號","OBJECTID":497540},"geometry":{"x":165704.75000000093,"y":2562169.8600000031}},{"attributes":{"ID":497568,"DIS_CODE":0,"TOWNNAME":"安南區","LI":"安東里","LIN":"7鄰","STREET":"安和路","SECT":"一段","MAREA":" ","LANE":" ","ALLEY":" ","HOUSE_NO":"３３６號","E_COORD97":169295.13,"N_COORD97":2548145.6699999999,"ADDRESS":"安和路一段３３６號","OBJECTID":497541},"geometry":{"x":169295.12999999989,"y":2548145.6700000037}},{"attributes":{"ID":497569,"DIS_CODE":0,"TOWNNAME":"安南區","LI":"安東里","LIN":"7鄰","STREET":"安和路","SECT":"一段","MAREA":" ","LANE":" ","ALLEY":" ","HOUSE_NO":"３３８號","E_COORD97":169293.73000000001,"N_COORD97":2548150.2799999998,"ADDRESS":"安和路一段３３８號","OBJECTID":497542},"geometry":{"x":169293.73000000231,"y":2548150.2799999993}},{"attributes":{"ID":497570,"DIS_CODE":0,"TOWNNAME":"歸仁區","LI":"新厝里","LIN":"24鄰","STREET":"大成十街","SECT":" ","MAREA":" ","LANE":" ","ALLEY":" ","HOUSE_NO":"２６號","E_COORD97":177674.04000000001,"N_COORD97":2540223.1800000002,"ADDRESS":"大成十街２６號","OBJECTID":497543},"geometry":{"x":177674.0400000019,"y":2540223.1800000016}},{"attributes":{"ID":497571,"DIS_CODE":0,"TOWNNAME":"歸仁區","LI":"歸仁里","LIN":"14鄰","STREET":"文化街","SECT":"一段","MAREA":" ","LANE":" ","ALLEY":" ","HOUSE_NO":"１０５號","E_COORD97":177992.64000000001,"N_COORD97":2541122.1299999999,"ADDRESS":"文化街一段１０５號","OBJECTID":497544},"geometry":{"x":177992.63999999966,"y":2541122.129999999}},{"attributes":{"ID":497572,"DIS_CODE":0,"TOWNNAME":"安南區","LI":"城中里","LIN":"7鄰","STREET":"安中路","SECT":"六段","MAREA":" ","LANE":" ","ALLEY":" ","HOUSE_NO":"７５５號","E_COORD97":160605.57000000001,"N_COORD97":2551841.2200000002,"ADDRESS":"安中路六段７５５號","OBJECTID":497545},"geometry":{"x":160605.57000000123,"y":2551841.2200000007}},{"attributes":{"ID":497573,"DIS_CODE":0,"TOWNNAME":"東區","LI":"崇學里","LIN":"7鄰","STREET":"崇善路","SECT":" ","MAREA":" ","LANE":" ","ALLEY":" ","HOUSE_NO":"１９８號","E_COORD97":170600.60000000001,"N_COORD97":2542128.27,"ADDRESS":"崇善路１９８號","OBJECTID":497546},"geometry":{"x":170600.59999999963,"y":2542128.2700000014}},{"attributes":{"ID":497574,"DIS_CODE":0,"TOWNNAME":"東區","LI":"崇學里","LIN":"7鄰","STREET":"崇善路","SECT":" ","MAREA":" ","LANE":" ","ALLEY":" ","HOUSE_NO":"２００號","E_COORD97":170604.51000000001,"N_COORD97":2542125.4500000002,"ADDRESS":"崇善路２００號","OBJECTID":497547},"geometry":{"x":170604.50999999978,"y":2542125.450000003}},{"attributes":{"ID":497575,"DIS_CODE":0,"TOWNNAME":"歸仁區","LI":"歸南里","LIN":"6鄰","STREET":"中正南路","SECT":"一段","MAREA":" ","LANE":" ","ALLEY":" ","HOUSE_NO":"６１０號","E_COORD97":176672.56,"N_COORD97":2539901.25,"ADDRESS":"中正南路一段６１０號","OBJECTID":497548},"geometry":{"x":176672.55999999959,"y":2539901.2500000019}},{"attributes":{"ID":497576,"DIS_CODE":0,"TOWNNAME":"東區","LI":"成大里","LIN":"7鄰","STREET":"東寧路","SECT":"西段","MAREA":" ","LANE":" ","ALLEY":" ","HOUSE_NO":"１１６號","E_COORD97":169358.54000000001,"N_COORD97":2543842.7200000002,"ADDRESS":"東寧路西段１１６號","OBJECTID":497549},"geometry":{"x":169358.54000000004,"y":2543842.7200000007}},{"attributes":{"ID":497577,"DIS_CODE":0,"TOWNNAME":"東區","LI":"成大里","LIN":"7鄰","STREET":"東寧路","SECT":"西段","MAREA":" ","LANE":" ","ALLEY":" ","HOUSE_NO":"１１８號","E_COORD97":169355.07999999999,"N_COORD97":2543852.3399999999,"ADDRESS":"東寧路西段１１８號","OBJECTID":497550},"geometry":{"x":169355.08000000007,"y":2543852.3400000036}},{"attributes":{"ID":497578,"DIS_CODE":0,"TOWNNAME":"東區","LI":"成大里","LIN":"7鄰","STREET":"民族路","SECT":"一段","MAREA":" ","LANE":" ","ALLEY":" ","HOUSE_NO":"３３號","E_COORD97":169474.70999999999,"N_COORD97":2543864.7000000002,"ADDRESS":"民族路一段３３號","OBJECTID":497551},"geometry":{"x":169474.71000000183,"y":2543864.6999999993}},{"attributes":{"ID":497579,"DIS_CODE":0,"TOWNNAME":"東區","LI":"成大里","LIN":"7鄰","STREET":"民族路","SECT":"一段","MAREA":" ","LANE":" ","ALLEY":" ","HOUSE_NO":"３５號","E_COORD97":169471.29999999999,"N_COORD97":2543865.3399999999,"ADDRESS":"民族路一段３５號","OBJECTID":497552},"geometry":{"x":169471.30000000075,"y":2543865.3399999999}},{"attributes":{"ID":497580,"DIS_CODE":0,"TOWNNAME":"東區","LI":"成大里","LIN":"7鄰","STREET":"民族路","SECT":"一段","MAREA":" ","LANE":" ","ALLEY":" ","HOUSE_NO":"３７號","E_COORD97":169465.73999999999,"N_COORD97":2543865.77,"ADDRESS":"民族路一段３７號","OBJECTID":497553},"geometry":{"x":169465.74000000022,"y":2543865.7699999977}},{"attributes":{"ID":497581,"DIS_CODE":0,"TOWNNAME":"東區","LI":"成大里","LIN":"7鄰","STREET":"民族路","SECT":"一段","MAREA":" ","LANE":" ","ALLEY":" ","HOUSE_NO":"３９號","E_COORD97":169461.04000000001,"N_COORD97":2543865.77,"ADDRESS":"民族路一段３９號","OBJECTID":497554},"geometry":{"x":169461.04000000097,"y":2543865.7699999977}},{"attributes":{"ID":497582,"DIS_CODE":0,"TOWNNAME":"東區","LI":"成大里","LIN":"7鄰","STREET":"民族路","SECT":"一段","MAREA":" ","LANE":" ","ALLEY":" ","HOUSE_NO":"４３號","E_COORD97":169453.98999999999,"N_COORD97":2543866.3999999999,"ADDRESS":"民族路一段４３號","OBJECTID":497555},"geometry":{"x":169453.99000000022,"y":2543866.4000000022}},{"attributes":{"ID":497583,"DIS_CODE":0,"TOWNNAME":"東區","LI":"成大里","LIN":"7鄰","STREET":"民族路","SECT":"一段","MAREA":" ","LANE":" ","ALLEY":" ","HOUSE_NO":"４５號","E_COORD97":169449.92000000001,"N_COORD97":2543867.2599999998,"ADDRESS":"民族路一段４５號","OBJECTID":497556},"geometry":{"x":169449.92000000086,"y":2543867.2600000016}},{"attributes":{"ID":497584,"DIS_CODE":0,"TOWNNAME":"東區","LI":"成大里","LIN":"7鄰","STREET":"民族路","SECT":"一段","MAREA":" ","LANE":" ","ALLEY":" ","HOUSE_NO":"４７號","E_COORD97":169445.22,"N_COORD97":2543867.6899999999,"ADDRESS":"民族路一段４７號","OBJECTID":497557},"geometry":{"x":169445.21999999974,"y":2543867.6900000013}},{"attributes":{"ID":497585,"DIS_CODE":0,"TOWNNAME":"東區","LI":"成大里","LIN":"7鄰","STREET":"民族路","SECT":"一段","MAREA":" ","LANE":" ","ALLEY":" ","HOUSE_NO":"４９號","E_COORD97":169441.59,"N_COORD97":2543867.4700000002,"ADDRESS":"民族路一段４９號","OBJECTID":497558},"geometry":{"x":169441.59000000171,"y":2543867.4700000025}},{"attributes":{"ID":497586,"DIS_CODE":0,"TOWNNAME":"永康區","LI":"永康里","LIN":"7鄰","STREET":"永中街","SECT":" ","MAREA":" ","LANE":" ","ALLEY":" ","HOUSE_NO":"７９號","E_COORD97":173946.35999999999,"N_COORD97":2547253.25,"ADDRESS":"永中街７９號","OBJECTID":497559},"geometry":{"x":173946.36000000127,"y":2547253.25}},{"attributes":{"ID":497587,"DIS_CODE":0,"TOWNNAME":"永康區","LI":"安康里","LIN":"7鄰","STREET":"中華西街","SECT":" ","MAREA":" ","LANE":" ","ALLEY":" ","HOUSE_NO":"６號","E_COORD97":170844.57999999999,"N_COORD97":2545918.5,"ADDRESS":"中華西街６號","OBJECTID":497560},"geometry":{"x":170844.58000000101,"y":2545918.5}},{"attributes":{"ID":497588,"DIS_CODE":0,"TOWNNAME":"安南區","LI":"安東里","LIN":"7鄰","STREET":"安和路","SECT":"一段","MAREA":" ","LANE":" ","ALLEY":" ","HOUSE_NO":"３２０號","E_COORD97":169301.14000000001,"N_COORD97":2548111.8100000001,"ADDRESS":"安和路一段３２０號","OBJECTID":497561},"geometry":{"x":169301.1400000006,"y":2548111.8100000024}},{"attributes":{"ID":497589,"DIS_CODE":0,"TOWNNAME":"安南區","LI":"安東里","LIN":"7鄰","STREET":"安和路","SECT":"一段","MAREA":" ","LANE":" ","ALLEY":" ","HOUSE_NO":"３２２號","E_COORD97":169300.44,"N_COORD97":2548114.3199999998,"ADDRESS":"安和路一段３２２號","OBJECTID":497562},"geometry":{"x":169300.44000000041,"y":2548114.3199999984}},{"attributes":{"ID":497590,"DIS_CODE":0,"TOWNNAME":"安南區","LI":"安東里","LIN":"7鄰","STREET":"安和路","SECT":"一段","MAREA":" ","LANE":" ","ALLEY":" ","HOUSE_NO":"３２４號","E_COORD97":169299.45999999999,"N_COORD97":2548119.0699999998,"ADDRESS":"安和路一段３２４號","OBJECTID":497563},"geometry":{"x":169299.45999999996,"y":2548119.0700000003}},{"attributes":{"ID":497591,"DIS_CODE":0,"TOWNNAME":"安南區","LI":"安東里","LIN":"7鄰","STREET":"安和路","SECT":"一段","MAREA":" ","LANE":" ","ALLEY":" ","HOUSE_NO":"３２６號","E_COORD97":169295.82999999999,"N_COORD97":2548123.1200000001,"ADDRESS":"安和路一段３２６號","OBJECTID":497564},"geometry":{"x":169295.83000000007,"y":2548123.120000001}},{"attributes":{"ID":497592,"DIS_CODE":0,"TOWNNAME":"歸仁區","LI":"歸仁里","LIN":"8鄰","STREET":"和平北街","SECT":" ","MAREA":" ","LANE":" ","ALLEY":" ","HOUSE_NO":"１２號","E_COORD97":177847.39000000001,"N_COORD97":2540817.1699999999,"ADDRESS":"和平北街１２號","OBJECTID":497565},"geometry":{"x":177847.39000000153,"y":2540817.1700000018}},{"attributes":{"ID":497593,"DIS_CODE":0,"TOWNNAME":"歸仁區","LI":"歸仁里","LIN":"4鄰","STREET":"和平三街","SECT":" ","MAREA":" ","LANE":" ","ALLEY":" ","HOUSE_NO":"１４號","E_COORD97":177801.19,"N_COORD97":2541012.04,"ADDRESS":"和平三街１４號","OBJECTID":497566},"geometry":{"x":177801.19000000134,"y":2541012.0399999991}},{"attributes":{"ID":497594,"DIS_CODE":0,"TOWNNAME":"安南區","LI":"安東里","LIN":"7鄰","STREET":"安和路","SECT":"一段","MAREA":" ","LANE":" ","ALLEY":" ","HOUSE_NO":"３０６號","E_COORD97":169306.31,"N_COORD97":2548091.2799999998,"ADDRESS":"安和路一段３０６號","OBJECTID":497567},"geometry":{"x":169306.31000000052,"y":2548091.2800000012}},{"attributes":{"ID":497595,"DIS_CODE":0,"TOWNNAME":"安南區","LI":"安東里","LIN":"7鄰","STREET":"安和路","SECT":"一段","MAREA":" ","LANE":" ","ALLEY":" ","HOUSE_NO":"３０８號","E_COORD97":169304.35000000001,"N_COORD97":2548096.1699999999,"ADDRESS":"安和路一段３０８號","OBJECTID":497568},"geometry":{"x":169304.35000000056,"y":2548096.1700000018}},{"attributes":{"ID":497596,"DIS_CODE":0,"TOWNNAME":"歸仁區","LI":"新厝里","LIN":"9鄰","STREET":"公園路","SECT":" ","MAREA":" ","LANE":" ","ALLEY":" ","HOUSE_NO":"１７４號","E_COORD97":177784.67999999999,"N_COORD97":2540446.5,"ADDRESS":"公園路１７４號","OBJECTID":497569},"geometry":{"x":177784.68000000063,"y":2540446.5}},{"attributes":{"ID":497597,"DIS_CODE":0,"TOWNNAME":"新營區","LI":"永生里","LIN":"7鄰","STREET":"康樂街","SECT":" ","MAREA":" ","LANE":" ","ALLEY":" ","HOUSE_NO":"２之９號","E_COORD97":180066.67000000001,"N_COORD97":2577933.46,"ADDRESS":"康樂街２之９號","OBJECTID":497570},"geometry":{"x":180066.67000000086,"y":2577933.4600000028}},{"attributes":{"ID":497598,"DIS_CODE":0,"TOWNNAME":"新營區","LI":"新東里","LIN":"7鄰","STREET":"東學路","SECT":" ","MAREA":" ","LANE":" ","ALLEY":" ","HOUSE_NO":"１５６號","E_COORD97":181158.44,"N_COORD97":2579363.9900000002,"ADDRESS":"東學路１５６號","OBJECTID":497571},"geometry":{"x":181158.44000000041,"y":2579363.9900000021}},{"attributes":{"ID":497599,"DIS_CODE":0,"TOWNNAME":"新營區","LI":"南紙里","LIN":"7鄰","STREET":"南紙街","SECT":" ","MAREA":" ","LANE":" ","ALLEY":" ","HOUSE_NO":"１２３號","E_COORD97":177810.62,"N_COORD97":2577414.8700000001,"ADDRESS":"南紙街１２３號","OBJECTID":497572},"geometry":{"x":177810.62000000011,"y":2577414.8700000048}},{"attributes":{"ID":497600,"DIS_CODE":0,"TOWNNAME":"新營區","LI":"新南里","LIN":"7鄰","STREET":"新北街","SECT":" ","MAREA":" ","LANE":" ","ALLEY":" ","HOUSE_NO":"２６１號","E_COORD97":178612.04999999999,"N_COORD97":2579195.0899999999,"ADDRESS":"新北街２６１號","OBJECTID":497573},"geometry":{"x":178612.04999999981,"y":2579195.089999998}},{"attributes":{"ID":497601,"DIS_CODE":0,"TOWNNAME":"新營區","LI":"延平里","LIN":"7鄰","STREET":"復興路","SECT":" ","MAREA":" ","LANE":" ","ALLEY":" ","HOUSE_NO":"１之４２號","E_COORD97":179677.10000000001,"N_COORD97":2577933.0899999999,"ADDRESS":"復興路１之４２號","OBJECTID":497574},"geometry":{"x":179677.10000000056,"y":2577933.0899999999}},{"attributes":{"ID":497602,"DIS_CODE":0,"TOWNNAME":"安平區","LI":"文平里","LIN":"7鄰","STREET":"建平七街","SECT":" ","MAREA":" ","LANE":" ","ALLEY":" ","HOUSE_NO":"６３號","E_COORD97":166277.98000000001,"N_COORD97":2543219.5,"ADDRESS":"建平七街６３號","OBJECTID":497575},"geometry":{"x":166277.98000000231,"y":2543219.5}},{"attributes":{"ID":497603,"DIS_CODE":0,"TOWNNAME":"安平區","LI":"文平里","LIN":"7鄰","STREET":"建平七街","SECT":" ","MAREA":" ","LANE":" ","ALLEY":" ","HOUSE_NO":"６４號","E_COORD97":166305.53,"N_COORD97":2543242.1000000001,"ADDRESS":"建平七街６４號","OBJECTID":497576},"geometry":{"x":166305.53000000026,"y":2543242.0999999996}},{"attributes":{"ID":497604,"DIS_CODE":0,"TOWNNAME":"安平區","LI":"文平里","LIN":"7鄰","STREET":"建平七街","SECT":" ","MAREA":" ","LANE":" ","ALLEY":" ","HOUSE_NO":"６５號","E_COORD97":166274.23000000001,"N_COORD97":2543219.8500000001,"ADDRESS":"建平七街６５號","OBJECTID":497577},"geometry":{"x":166274.23000000045,"y":2543219.8499999996}},{"attributes":{"ID":497605,"DIS_CODE":0,"TOWNNAME":"安平區","LI":"文平里","LIN":"7鄰","STREET":"建平七街","SECT":" ","MAREA":" ","LANE":" ","ALLEY":" ","HOUSE_NO":"６７號","E_COORD97":166270.14000000001,"N_COORD97":2543221.48,"ADDRESS":"建平七街６７號","OBJECTID":497578},"geometry":{"x":166270.1400000006,"y":2543221.4800000042}},{"attributes":{"ID":497606,"DIS_CODE":0,"TOWNNAME":"安平區","LI":"文平里","LIN":"7鄰","STREET":"建平七街","SECT":" ","MAREA":" ","LANE":" ","ALLEY":" ","HOUSE_NO":"６９號","E_COORD97":166265.57999999999,"N_COORD97":2543221.48,"ADDRESS":"建平七街６９號","OBJECTID":497579},"geometry":{"x":166265.58000000101,"y":2543221.4800000042}},{"attributes":{"ID":497607,"DIS_CODE":0,"TOWNNAME":"安平區","LI":"文平里","LIN":"7鄰","STREET":"建平七街","SECT":" ","MAREA":" ","LANE":" ","ALLEY":" ","HOUSE_NO":"７０號","E_COORD97":166285.29000000001,"N_COORD97":2543245.4900000002,"ADDRESS":"建平七街７０號","OBJECTID":497580},"geometry":{"x":166285.29000000004,"y":2543245.4900000021}},{"attributes":{"ID":497608,"DIS_CODE":0,"TOWNNAME":"安平區","LI":"文平里","LIN":"7鄰","STREET":"建平七街","SECT":" ","MAREA":" ","LANE":" ","ALLEY":" ","HOUSE_NO":"７１號","E_COORD97":166261.01000000001,"N_COORD97":2543221.8300000001,"ADDRESS":"建平七街７１號","OBJECTID":497581},"geometry":{"x":166261.00999999978,"y":2543221.8300000038}},{"attributes":{"ID":497609,"DIS_CODE":0,"TOWNNAME":"安平區","LI":"文平里","LIN":"7鄰","STREET":"建平七街","SECT":" ","MAREA":" ","LANE":" ","ALLEY":" ","HOUSE_NO":"７２號","E_COORD97":166281.07999999999,"N_COORD97":2543245.3799999999,"ADDRESS":"建平七街７２號","OBJECTID":497582},"geometry":{"x":166281.08000000101,"y":2543245.3800000008}},{"attributes":{"ID":497610,"DIS_CODE":0,"TOWNNAME":"安平區","LI":"文平里","LIN":"7鄰","STREET":"建平七街","SECT":" ","MAREA":" ","LANE":" ","ALLEY":" ","HOUSE_NO":"７３號","E_COORD97":166257.5,"N_COORD97":2543222.1800000002,"ADDRESS":"建平七街７３號","OBJECTID":497583},"geometry":{"x":166257.50000000093,"y":2543222.1799999997}},{"attributes":{"ID":497611,"DIS_CODE":0,"TOWNNAME":"安平區","LI":"文平里","LIN":"7鄰","STREET":"建平七街","SECT":" ","MAREA":" ","LANE":" ","ALLEY":" ","HOUSE_NO":"７５號","E_COORD97":166252.70999999999,"N_COORD97":2543222.6499999999,"ADDRESS":"建平七街７５號","OBJECTID":497584},"geometry":{"x":166252.71000000089,"y":2543222.6500000004}},{"attributes":{"ID":497612,"DIS_CODE":0,"TOWNNAME":"安平區","LI":"文平里","LIN":"7鄰","STREET":"建平七街","SECT":" ","MAREA":" ","LANE":" ","ALLEY":" ","HOUSE_NO":"７７號","E_COORD97":166248.26000000001,"N_COORD97":2543223.2400000002,"ADDRESS":"建平七街７７號","OBJECTID":497585},"geometry":{"x":166248.26000000164,"y":2543223.2400000021}},{"attributes":{"ID":497613,"DIS_CODE":0,"TOWNNAME":"安平區","LI":"文平里","LIN":"7鄰","STREET":"建平七街","SECT":" ","MAREA":" ","LANE":" ","ALLEY":" ","HOUSE_NO":"７９號","E_COORD97":166244.98999999999,"N_COORD97":2543223.2400000002,"ADDRESS":"建平七街７９號","OBJECTID":497586},"geometry":{"x":166244.99000000022,"y":2543223.2400000021}},{"attributes":{"ID":497614,"DIS_CODE":0,"TOWNNAME":"安平區","LI":"文平里","LIN":"7鄰","STREET":"建平七街","SECT":" ","MAREA":" ","LANE":" ","ALLEY":" ","HOUSE_NO":"８１號","E_COORD97":166239.95999999999,"N_COORD97":2543224.1699999999,"ADDRESS":"建平七街８１號","OBJECTID":497587},"geometry":{"x":166239.95999999996,"y":2543224.1700000018}},{"attributes":{"ID":497615,"DIS_CODE":0,"TOWNNAME":"安平區","LI":"文平里","LIN":"7鄰","STREET":"建平七街","SECT":" ","MAREA":" ","LANE":" ","ALLEY":" ","HOUSE_NO":"８３號","E_COORD97":166234.34,"N_COORD97":2543225.1099999999,"ADDRESS":"建平七街８３號","OBJECTID":497588},"geometry":{"x":166234.34000000171,"y":2543225.1099999994}},{"attributes":{"ID":497616,"DIS_CODE":0,"TOWNNAME":"歸仁區","LI":"歸仁里","LIN":"26鄰","STREET":"文化一街","SECT":" ","MAREA":" ","LANE":" ","ALLEY":" ","HOUSE_NO":"２６之２號","E_COORD97":178228.87,"N_COORD97":2541214.1299999999,"ADDRESS":"文化一街２６之２號","OBJECTID":497589},"geometry":{"x":178228.87000000011,"y":2541214.129999999}},{"attributes":{"ID":497617,"DIS_CODE":0,"TOWNNAME":"歸仁區","LI":"辜厝里","LIN":"53鄰","STREET":"民權南路","SECT":" ","MAREA":" ","LANE":" ","ALLEY":" ","HOUSE_NO":"３２５號","E_COORD97":176965.82000000001,"N_COORD97":2540214.5899999999,"ADDRESS":"民權南路３２５號","OBJECTID":497590},"geometry":{"x":176965.82000000123,"y":2540214.5899999999}},{"attributes":{"ID":497618,"DIS_CODE":0,"TOWNNAME":"安平區","LI":"建平里","LIN":"7鄰","STREET":"府前四街","SECT":" ","MAREA":" ","LANE":" ","ALLEY":" ","HOUSE_NO":"１０８號","E_COORD97":166470.09,"N_COORD97":2544005.9100000001,"ADDRESS":"府前四街１０８號","OBJECTID":497591},"geometry":{"x":166470.09000000078,"y":2544005.910000002}},{"attributes":{"ID":497619,"DIS_CODE":0,"TOWNNAME":"安平區","LI":"建平里","LIN":"7鄰","STREET":"府前四街","SECT":" ","MAREA":" ","LANE":" ","ALLEY":" ","HOUSE_NO":"１１１號","E_COORD97":166435.12,"N_COORD97":2544031.75,"ADDRESS":"府前四街１１１號","OBJECTID":497592},"geometry":{"x":166435.12000000104,"y":2544031.75}},{"attributes":{"ID":497620,"DIS_CODE":0,"TOWNNAME":"安平區","LI":"建平里","LIN":"7鄰","STREET":"府前四街","SECT":" ","MAREA":" ","LANE":" ","ALLEY":" ","HOUSE_NO":"１１３號","E_COORD97":166436.01000000001,"N_COORD97":2544045.5899999999,"ADDRESS":"府前四街１１３號","OBJECTID":497593},"geometry":{"x":166436.00999999978,"y":2544045.5899999999}},{"attributes":{"ID":497621,"DIS_CODE":0,"TOWNNAME":"安平區","LI":"建平里","LIN":"7鄰","STREET":"府前四街","SECT":" ","MAREA":" ","LANE":" ","ALLEY":" ","HOUSE_NO":"１４９號","E_COORD97":166438.31,"N_COORD97":2544076.4199999999,"ADDRESS":"府前四街１４９號","OBJECTID":497594},"geometry":{"x":166438.31000000052,"y":2544076.4200000018}},{"attributes":{"ID":497622,"DIS_CODE":0,"TOWNNAME":"安平區","LI":"建平里","LIN":"7鄰","STREET":"府前四街","SECT":" ","MAREA":" ","LANE":" ","ALLEY":" ","HOUSE_NO":"３１號","E_COORD97":166427.64999999999,"N_COORD97":2543865.3900000001,"ADDRESS":"府前四街３１號","OBJECTID":497595},"geometry":{"x":166427.65000000224,"y":2543865.3900000006}},{"attributes":{"ID":497623,"DIS_CODE":0,"TOWNNAME":"安平區","LI":"建平里","LIN":"7鄰","STREET":"府前四街","SECT":" ","MAREA":" ","LANE":" ","ALLEY":" ","HOUSE_NO":"４１號","E_COORD97":166429.10999999999,"N_COORD97":2543906.1899999999,"ADDRESS":"府前四街４１號","OBJECTID":497596},"geometry":{"x":166429.11000000034,"y":2543906.1899999995}},{"attributes":{"ID":497624,"DIS_CODE":0,"TOWNNAME":"安平區","LI":"建平里","LIN":"7鄰","STREET":"府前四街","SECT":" ","MAREA":" ","LANE":" ","ALLEY":" ","HOUSE_NO":"４３號","E_COORD97":166429.41,"N_COORD97":2543933.3500000001,"ADDRESS":"府前四街４３號","OBJECTID":497597},"geometry":{"x":166429.41000000108,"y":2543933.3500000034}},{"attributes":{"ID":497625,"DIS_CODE":0,"TOWNNAME":"安平區","LI":"建平里","LIN":"7鄰","STREET":"府前四街","SECT":" ","MAREA":" ","LANE":" ","ALLEY":" ","HOUSE_NO":"９２號","E_COORD97":166467.42999999999,"N_COORD97":2543968.1400000001,"ADDRESS":"府前四街９２號","OBJECTID":497598},"geometry":{"x":166467.43000000156,"y":2543968.1400000006}},{"attributes":{"ID":497626,"DIS_CODE":0,"TOWNNAME":"安平區","LI":"建平里","LIN":"7鄰","STREET":"府前四街","SECT":" ","MAREA":" ","LANE":" ","ALLEY":" ","HOUSE_NO":"９４號","E_COORD97":166467.67999999999,"N_COORD97":2543972.3100000001,"ADDRESS":"府前四街９４號","OBJECTID":497599},"geometry":{"x":166467.68000000063,"y":2543972.3100000024}},{"attributes":{"ID":497627,"DIS_CODE":0,"TOWNNAME":"安平區","LI":"建平里","LIN":"7鄰","STREET":"府前四街","SECT":" ","MAREA":" ","LANE":" ","ALLEY":" ","HOUSE_NO":"９６號","E_COORD97":166468.51999999999,"N_COORD97":2543976.48,"ADDRESS":"府前四街９６號","OBJECTID":497600},"geometry":{"x":166468.52000000048,"y":2543976.4800000004}}]}