{"displayFieldName":"TOWNNAME","fieldAliases":{"ID":"ID","DIS_CODE":"DIS_CODE","TOWNNAME":"TOWNNAME","LI":"LI","LIN":"LIN","STREET":"STREET","SECT":"SECT","MAREA":"MAREA","LANE":"LANE","ALLEY":"ALLEY","HOUSE_NO":"HOUSE_NO","E_COORD97":"E_COORD97","N_COORD97":"N_COORD97","ADDRESS":"ADDRESS","OBJECTID":"OBJECTID"},"geometryType":"esriGeometryPoint","spatialReference":{"wkid":102443,"latestWkid":3826},"fields":[{"name":"ID","type":"esriFieldTypeDouble","alias":"ID"},{"name":"DIS_CODE","type":"esriFieldTypeInteger","alias":"DIS_CODE"},{"name":"TOWNNAME","type":"esriFieldTypeString","alias":"TOWNNAME","length":8},{"name":"LI","type":"esriFieldTypeString","alias":"LI","length":8},{"name":"LIN","type":"esriFieldTypeString","alias":"LIN","length":12},{"name":"STREET","type":"esriFieldTypeString","alias":"STREET","length":20},{"name":"SECT","type":"esriFieldTypeString","alias":"SECT","length":8},{"name":"MAREA","type":"esriFieldTypeString","alias":"MAREA","length":12},{"name":"LANE","type":"esriFieldTypeString","alias":"LANE","length":10},{"name":"ALLEY","type":"esriFieldTypeString","alias":"ALLEY","length":10},{"name":"HOUSE_NO","type":"esriFieldTypeString","alias":"HOUSE_NO","length":20},{"name":"E_COORD97","type":"esriFieldTypeDouble","alias":"E_COORD97"},{"name":"N_COORD97","type":"esriFieldTypeDouble","alias":"N_COORD97"},{"name":"ADDRESS","type":"esriFieldTypeString","alias":"ADDRESS","length":50},{"name":"OBJECTID","type":"esriFieldTypeOID","alias":"OBJECTID"}],"features":[{"attributes":{"ID":437026,"DIS_CODE":0,"TOWNNAME":"新化區","LI":"護國里","LIN":"4鄰","STREET":"中山路","SECT":" ","MAREA":" ","LANE":"１９４巷","ALLEY":" ","HOUSE_NO":"５號","E_COORD97":179172.41,"N_COORD97":2548483.25,"ADDRESS":"中山路１９４巷５號","OBJECTID":437001},"geometry":{"x":179172.41000000108,"y":2548483.25}},{"attributes":{"ID":437027,"DIS_CODE":0,"TOWNNAME":"新化區","LI":"護國里","LIN":"4鄰","STREET":"中山路","SECT":" ","MAREA":" ","LANE":"２２４巷","ALLEY":" ","HOUSE_NO":"８號","E_COORD97":179133.60999999999,"N_COORD97":2548491.25,"ADDRESS":"中山路２２４巷８號","OBJECTID":437002},"geometry":{"x":179133.61000000127,"y":2548491.2500000037}},{"attributes":{"ID":437028,"DIS_CODE":0,"TOWNNAME":"新化區","LI":"協興里","LIN":" ","STREET":"太平街","SECT":" ","MAREA":" ","LANE":"１３４巷","ALLEY":" ","HOUSE_NO":"１９之１號","E_COORD97":178443.57000000001,"N_COORD97":2548760.2599999998,"ADDRESS":"太平街１３４巷１９之１號","OBJECTID":437003},"geometry":{"x":178443.57000000216,"y":2548760.2600000016}},{"attributes":{"ID":437029,"DIS_CODE":0,"TOWNNAME":"新化區","LI":"協興里","LIN":"4鄰","STREET":"正新路","SECT":" ","MAREA":" ","LANE":"２５１巷","ALLEY":" ","HOUSE_NO":"２１號","E_COORD97":178496.26999999999,"N_COORD97":2548509.25,"ADDRESS":"正新路２５１巷２１號","OBJECTID":437004},"geometry":{"x":178496.27000000048,"y":2548509.2500000019}},{"attributes":{"ID":437030,"DIS_CODE":0,"TOWNNAME":"新化區","LI":"東榮里","LIN":"14鄰","STREET":"中興路","SECT":" ","MAREA":" ","LANE":"５８０巷","ALLEY":" ","HOUSE_NO":"３１號","E_COORD97":179846.66,"N_COORD97":2548044.25,"ADDRESS":"中興路５８０巷３１號","OBJECTID":437005},"geometry":{"x":179846.66000000108,"y":2548044.2500000019}},{"attributes":{"ID":437031,"DIS_CODE":0,"TOWNNAME":"新化區","LI":"護國里","LIN":"4鄰","STREET":"中山路","SECT":" ","MAREA":" ","LANE":"２２４巷","ALLEY":" ","HOUSE_NO":"６號之１","E_COORD97":179135.64000000001,"N_COORD97":2548479.2599999998,"ADDRESS":"中山路２２４巷６號之１","OBJECTID":437006},"geometry":{"x":179135.63999999966,"y":2548479.2599999998}},{"attributes":{"ID":437032,"DIS_CODE":0,"TOWNNAME":"新化區","LI":"護國里","LIN":"4鄰","STREET":"中山路","SECT":" ","MAREA":" ","LANE":"１９４巷","ALLEY":" ","HOUSE_NO":"７號","E_COORD97":179176.01000000001,"N_COORD97":2548488.25,"ADDRESS":"中山路１９４巷７號","OBJECTID":437007},"geometry":{"x":179176.01000000071,"y":2548488.2500000019}},{"attributes":{"ID":437033,"DIS_CODE":0,"TOWNNAME":"新化區","LI":"協興里","LIN":"4鄰","STREET":"正新路","SECT":" ","MAREA":" ","LANE":"２４７巷","ALLEY":" ","HOUSE_NO":"１７號","E_COORD97":178505.47,"N_COORD97":2548491.25,"ADDRESS":"正新路２４７巷１７號","OBJECTID":437008},"geometry":{"x":178505.47000000067,"y":2548491.2500000037}},{"attributes":{"ID":437034,"DIS_CODE":0,"TOWNNAME":"新化區","LI":"豐榮里","LIN":"13鄰","STREET":"民治路","SECT":" ","MAREA":" ","LANE":"３３巷","ALLEY":" ","HOUSE_NO":"１０號","E_COORD97":178695.31,"N_COORD97":2548055.25,"ADDRESS":"民治路３３巷１０號","OBJECTID":437009},"geometry":{"x":178695.30999999959,"y":2548055.2500000019}},{"attributes":{"ID":437035,"DIS_CODE":0,"TOWNNAME":"新化區","LI":"東榮里","LIN":"13鄰","STREET":"中興路","SECT":" ","MAREA":" ","LANE":"５８０巷","ALLEY":" ","HOUSE_NO":"３２號","E_COORD97":179855.76000000001,"N_COORD97":2548046.25,"ADDRESS":"中興路５８０巷３２號","OBJECTID":437010},"geometry":{"x":179855.76000000071,"y":2548046.25}},{"attributes":{"ID":437036,"DIS_CODE":0,"TOWNNAME":"新化區","LI":"東榮里","LIN":"4鄰","STREET":"信義路","SECT":" ","MAREA":" ","LANE":"９３巷","ALLEY":" ","HOUSE_NO":"１１號","E_COORD97":179860.03,"N_COORD97":2548662.25,"ADDRESS":"信義路９３巷１１號","OBJECTID":437011},"geometry":{"x":179860.03000000119,"y":2548662.2500000019}},{"attributes":{"ID":437037,"DIS_CODE":0,"TOWNNAME":"新化區","LI":"東榮里","LIN":"13鄰","STREET":"中興路","SECT":" ","MAREA":" ","LANE":"５８０巷","ALLEY":" ","HOUSE_NO":"３６號","E_COORD97":179855.16,"N_COORD97":2548055.25,"ADDRESS":"中興路５８０巷３６號","OBJECTID":437012},"geometry":{"x":179855.16000000108,"y":2548055.2500000019}},{"attributes":{"ID":437038,"DIS_CODE":0,"TOWNNAME":"新化區","LI":"協興里","LIN":"8鄰","STREET":"太平街","SECT":" ","MAREA":" ","LANE":"１３４巷","ALLEY":" ","HOUSE_NO":"１６號","E_COORD97":178487.97,"N_COORD97":2548744.25,"ADDRESS":"太平街１３４巷１６號","OBJECTID":437013},"geometry":{"x":178487.97000000067,"y":2548744.25}},{"attributes":{"ID":437039,"DIS_CODE":0,"TOWNNAME":"新化區","LI":"東榮里","LIN":"14鄰","STREET":"中興路","SECT":" ","MAREA":" ","LANE":"５８０巷","ALLEY":" ","HOUSE_NO":"３３號","E_COORD97":179846.26000000001,"N_COORD97":2548048.25,"ADDRESS":"中興路５８０巷３３號","OBJECTID":437014},"geometry":{"x":179846.25999999978,"y":2548048.2500000019}},{"attributes":{"ID":437040,"DIS_CODE":0,"TOWNNAME":"新化區","LI":"協興里","LIN":"4鄰","STREET":"正新路","SECT":" ","MAREA":" ","LANE":"２５１巷","ALLEY":" ","HOUSE_NO":"１５號","E_COORD97":178516.57000000001,"N_COORD97":2548508.25,"ADDRESS":"正新路２５１巷１５號","OBJECTID":437015},"geometry":{"x":178516.57000000216,"y":2548508.2500000037}},{"attributes":{"ID":437041,"DIS_CODE":0,"TOWNNAME":"新化區","LI":"協興里","LIN":"4鄰","STREET":"正新路","SECT":" ","MAREA":" ","LANE":"２５１巷","ALLEY":" ","HOUSE_NO":"１１號","E_COORD97":178524.57000000001,"N_COORD97":2548508.25,"ADDRESS":"正新路２５１巷１１號","OBJECTID":437016},"geometry":{"x":178524.5700000003,"y":2548508.2500000037}},{"attributes":{"ID":437042,"DIS_CODE":0,"TOWNNAME":"新化區","LI":"護國里","LIN":"4鄰","STREET":"中山路","SECT":" ","MAREA":" ","LANE":"１９４巷","ALLEY":" ","HOUSE_NO":"１１號","E_COORD97":179170.16,"N_COORD97":2548498.25,"ADDRESS":"中山路１９４巷１１號","OBJECTID":437017},"geometry":{"x":179170.16000000201,"y":2548498.2500000019}},{"attributes":{"ID":437043,"DIS_CODE":0,"TOWNNAME":"新化區","LI":"豐榮里","LIN":"13鄰","STREET":"民治路","SECT":" ","MAREA":" ","LANE":"１３巷","ALLEY":" ","HOUSE_NO":"８號","E_COORD97":178699.26000000001,"N_COORD97":2547997.25,"ADDRESS":"民治路１３巷８號","OBJECTID":437018},"geometry":{"x":178699.25999999978,"y":2547997.2500000019}},{"attributes":{"ID":437044,"DIS_CODE":0,"TOWNNAME":"新化區","LI":"協興里","LIN":"4鄰","STREET":"正新路","SECT":" ","MAREA":" ","LANE":"２４７巷","ALLEY":" ","HOUSE_NO":"３號","E_COORD97":178533.42000000001,"N_COORD97":2548488.25,"ADDRESS":"正新路２４７巷３號","OBJECTID":437019},"geometry":{"x":178533.41999999993,"y":2548488.2500000019}},{"attributes":{"ID":437045,"DIS_CODE":0,"TOWNNAME":"新化區","LI":"東榮里","LIN":"13鄰","STREET":"中興路","SECT":" ","MAREA":" ","LANE":"５８０巷","ALLEY":" ","HOUSE_NO":"３０號","E_COORD97":179856.56,"N_COORD97":2548042.25,"ADDRESS":"中興路５８０巷３０號","OBJECTID":437020},"geometry":{"x":179856.55999999959,"y":2548042.25}},{"attributes":{"ID":437046,"DIS_CODE":0,"TOWNNAME":"新化區","LI":"豐榮里","LIN":"13鄰","STREET":"民治路","SECT":" ","MAREA":" ","LANE":"１８巷","ALLEY":" ","HOUSE_NO":"５號","E_COORD97":178765.06,"N_COORD97":2548021.25,"ADDRESS":"民治路１８巷５號","OBJECTID":437021},"geometry":{"x":178765.06000000145,"y":2548021.2500000019}},{"attributes":{"ID":437047,"DIS_CODE":0,"TOWNNAME":"新化區","LI":"豐榮里","LIN":"13鄰","STREET":"民治路","SECT":" ","MAREA":" ","LANE":"１３巷","ALLEY":" ","HOUSE_NO":"１０號","E_COORD97":178695.20999999999,"N_COORD97":2547996.25,"ADDRESS":"民治路１３巷１０號","OBJECTID":437022},"geometry":{"x":178695.21000000089,"y":2547996.2500000037}},{"attributes":{"ID":437048,"DIS_CODE":0,"TOWNNAME":"新化區","LI":"東榮里","LIN":"18鄰","STREET":"中興路","SECT":" ","MAREA":" ","LANE":"６８５巷","ALLEY":" ","HOUSE_NO":"６１號","E_COORD97":179571.06,"N_COORD97":2548045.25,"ADDRESS":"中興路６８５巷６１號","OBJECTID":437023},"geometry":{"x":179571.06000000052,"y":2548045.25}},{"attributes":{"ID":437049,"DIS_CODE":0,"TOWNNAME":"新化區","LI":"太平里","LIN":"13鄰","STREET":"太平街","SECT":" ","MAREA":" ","LANE":"２２巷","ALLEY":" ","HOUSE_NO":"７號","E_COORD97":178844.26999999999,"N_COORD97":2548823.25,"ADDRESS":"太平街２２巷７號","OBJECTID":437024},"geometry":{"x":178844.26999999955,"y":2548823.2500000037}},{"attributes":{"ID":437050,"DIS_CODE":0,"TOWNNAME":"新化區","LI":"豐榮里","LIN":"13鄰","STREET":"民治路","SECT":" ","MAREA":" ","LANE":"１８巷","ALLEY":" ","HOUSE_NO":"１０號","E_COORD97":178775.91,"N_COORD97":2547992.25,"ADDRESS":"民治路１８巷１０號","OBJECTID":437025},"geometry":{"x":178775.91000000108,"y":2547992.25}},{"attributes":{"ID":437051,"DIS_CODE":0,"TOWNNAME":"新化區","LI":"護國里","LIN":"4鄰","STREET":"中山路","SECT":" ","MAREA":" ","LANE":"１９４巷","ALLEY":" ","HOUSE_NO":"１９號","E_COORD97":179162.45999999999,"N_COORD97":2548486.25,"ADDRESS":"中山路１９４巷１９號","OBJECTID":437026},"geometry":{"x":179162.45999999996,"y":2548486.25}},{"attributes":{"ID":437052,"DIS_CODE":0,"TOWNNAME":"新化區","LI":"豐榮里","LIN":"13鄰","STREET":"民治路","SECT":" ","MAREA":" ","LANE":"１８巷","ALLEY":" ","HOUSE_NO":"１號","E_COORD97":178758.66,"N_COORD97":2548006.25,"ADDRESS":"民治路１８巷１號","OBJECTID":437027},"geometry":{"x":178758.66000000108,"y":2548006.2500000037}},{"attributes":{"ID":437053,"DIS_CODE":0,"TOWNNAME":"新化區","LI":"豐榮里","LIN":"13鄰","STREET":"民治路","SECT":" ","MAREA":" ","LANE":"１３巷","ALLEY":" ","HOUSE_NO":"１６號","E_COORD97":178687.41,"N_COORD97":2547994.25,"ADDRESS":"民治路１３巷１６號","OBJECTID":437028},"geometry":{"x":178687.41000000108,"y":2547994.2500000019}},{"attributes":{"ID":437054,"DIS_CODE":0,"TOWNNAME":"新化區","LI":"武安里","LIN":"8鄰","STREET":"和平街","SECT":" ","MAREA":" ","LANE":"１４０巷","ALLEY":" ","HOUSE_NO":"９號","E_COORD97":178943.42000000001,"N_COORD97":2548209.25,"ADDRESS":"和平街１４０巷９號","OBJECTID":437029},"geometry":{"x":178943.42000000086,"y":2548209.25}},{"attributes":{"ID":437055,"DIS_CODE":0,"TOWNNAME":"新化區","LI":"東榮里","LIN":"4鄰","STREET":"信義路","SECT":" ","MAREA":" ","LANE":"９３巷","ALLEY":" ","HOUSE_NO":"５號","E_COORD97":179834.88,"N_COORD97":2548668.25,"ADDRESS":"信義路９３巷５號","OBJECTID":437030},"geometry":{"x":179834.88000000082,"y":2548668.2500000019}},{"attributes":{"ID":437056,"DIS_CODE":0,"TOWNNAME":"六甲區","LI":"甲東里","LIN":"14鄰","STREET":"忠孝街","SECT":" ","MAREA":" ","LANE":"１５６巷","ALLEY":" ","HOUSE_NO":"１號","E_COORD97":184018.20000000001,"N_COORD97":2569859.4100000001,"ADDRESS":"忠孝街１５６巷１號","OBJECTID":437031},"geometry":{"x":184018.20000000205,"y":2569859.4100000001}},{"attributes":{"ID":437057,"DIS_CODE":0,"TOWNNAME":"新化區","LI":"東榮里","LIN":"18鄰","STREET":"中興路","SECT":" ","MAREA":" ","LANE":"６８５巷","ALLEY":" ","HOUSE_NO":"２８號之５","E_COORD97":179535.32000000001,"N_COORD97":2548024.2599999998,"ADDRESS":"中興路６８５巷２８號之５","OBJECTID":437032},"geometry":{"x":179535.32000000216,"y":2548024.2600000016}},{"attributes":{"ID":437058,"DIS_CODE":0,"TOWNNAME":"新化區","LI":"東榮里","LIN":"14鄰","STREET":"中興路","SECT":" ","MAREA":" ","LANE":"５８０巷","ALLEY":" ","HOUSE_NO":"３５號","E_COORD97":179846.35999999999,"N_COORD97":2548053.25,"ADDRESS":"中興路５８０巷３５號","OBJECTID":437033},"geometry":{"x":179846.36000000034,"y":2548053.25}},{"attributes":{"ID":437059,"DIS_CODE":0,"TOWNNAME":"新化區","LI":"武安里","LIN":"4鄰","STREET":"中正路","SECT":" ","MAREA":" ","LANE":"３４１巷","ALLEY":" ","HOUSE_NO":"１７號之１","E_COORD97":179080.79000000001,"N_COORD97":2548185.2599999998,"ADDRESS":"中正路３４１巷１７號之１","OBJECTID":437034},"geometry":{"x":179080.79000000004,"y":2548185.2599999998}},{"attributes":{"ID":437060,"DIS_CODE":0,"TOWNNAME":"新化區","LI":"太平里","LIN":"13鄰","STREET":"太平街","SECT":" ","MAREA":" ","LANE":"２２巷","ALLEY":" ","HOUSE_NO":"１１號","E_COORD97":178856.82000000001,"N_COORD97":2548862.25,"ADDRESS":"太平街２２巷１１號","OBJECTID":437035},"geometry":{"x":178856.8200000003,"y":2548862.2500000019}},{"attributes":{"ID":437061,"DIS_CODE":0,"TOWNNAME":"新化區","LI":"東榮里","LIN":"24鄰","STREET":"中正路","SECT":" ","MAREA":" ","LANE":"２４４巷","ALLEY":" ","HOUSE_NO":"１５號","E_COORD97":179180.16,"N_COORD97":2547755.25,"ADDRESS":"中正路２４４巷１５號","OBJECTID":437036},"geometry":{"x":179180.15999999922,"y":2547755.2500000037}},{"attributes":{"ID":437062,"DIS_CODE":0,"TOWNNAME":"新化區","LI":"東榮里","LIN":"18鄰","STREET":"中興路","SECT":" ","MAREA":" ","LANE":"６８５巷","ALLEY":" ","HOUSE_NO":"２８號之２","E_COORD97":179536.60999999999,"N_COORD97":2548011.2599999998,"ADDRESS":"中興路６８５巷２８號之２","OBJECTID":437037},"geometry":{"x":179536.61000000034,"y":2548011.2599999998}},{"attributes":{"ID":437063,"DIS_CODE":0,"TOWNNAME":"新化區","LI":"東榮里","LIN":"18鄰","STREET":"中興路","SECT":" ","MAREA":" ","LANE":"６８５巷","ALLEY":" ","HOUSE_NO":"２８號","E_COORD97":179536.35999999999,"N_COORD97":2548002.25,"ADDRESS":"中興路６８５巷２８號","OBJECTID":437038},"geometry":{"x":179536.36000000034,"y":2548002.25}},{"attributes":{"ID":437064,"DIS_CODE":0,"TOWNNAME":"新化區","LI":"東榮里","LIN":"18鄰","STREET":"中興路","SECT":" ","MAREA":" ","LANE":"６８５巷","ALLEY":" ","HOUSE_NO":"２號","E_COORD97":179584.01000000001,"N_COORD97":2548071.25,"ADDRESS":"中興路６８５巷２號","OBJECTID":437039},"geometry":{"x":179584.00999999978,"y":2548071.2500000019}},{"attributes":{"ID":437065,"DIS_CODE":0,"TOWNNAME":"新化區","LI":"東榮里","LIN":"24鄰","STREET":"中正路","SECT":" ","MAREA":" ","LANE":"２４４巷","ALLEY":" ","HOUSE_NO":"１３號","E_COORD97":179171.66,"N_COORD97":2547751.25,"ADDRESS":"中正路２４４巷１３號","OBJECTID":437040},"geometry":{"x":179171.65999999922,"y":2547751.25}},{"attributes":{"ID":437066,"DIS_CODE":0,"TOWNNAME":"新化區","LI":"太平里","LIN":"4鄰","STREET":"民生路","SECT":" ","MAREA":" ","LANE":"２１７巷","ALLEY":" ","HOUSE_NO":"５號","E_COORD97":179039.91,"N_COORD97":2548938.25,"ADDRESS":"民生路２１７巷５號","OBJECTID":437041},"geometry":{"x":179039.91000000108,"y":2548938.25}},{"attributes":{"ID":437067,"DIS_CODE":0,"TOWNNAME":"新化區","LI":"協興里","LIN":"13鄰","STREET":"太平街","SECT":" ","MAREA":" ","LANE":"１５０巷","ALLEY":" ","HOUSE_NO":"９３號","E_COORD97":178280.76999999999,"N_COORD97":2548814.25,"ADDRESS":"太平街１５０巷９３號","OBJECTID":437042},"geometry":{"x":178280.77000000048,"y":2548814.2500000019}},{"attributes":{"ID":437068,"DIS_CODE":0,"TOWNNAME":"新化區","LI":"東榮里","LIN":"8鄰","STREET":"信義路","SECT":" ","MAREA":" ","LANE":"１１７巷","ALLEY":" ","HOUSE_NO":"３０號","E_COORD97":179695.38,"N_COORD97":2548271.25,"ADDRESS":"信義路１１７巷３０號","OBJECTID":437043},"geometry":{"x":179695.37999999896,"y":2548271.2500000019}},{"attributes":{"ID":437069,"DIS_CODE":0,"TOWNNAME":"新化區","LI":"武安里","LIN":"4鄰","STREET":"中正路","SECT":" ","MAREA":" ","LANE":"３４１巷","ALLEY":" ","HOUSE_NO":"１７號之４","E_COORD97":179083.39000000001,"N_COORD97":2548175.2599999998,"ADDRESS":"中正路３４１巷１７號之４","OBJECTID":437044},"geometry":{"x":179083.3900000006,"y":2548175.2599999979}},{"attributes":{"ID":437070,"DIS_CODE":0,"TOWNNAME":"新化區","LI":"東榮里","LIN":"18鄰","STREET":"中興路","SECT":" ","MAREA":" ","LANE":"６８５巷","ALLEY":" ","HOUSE_NO":"２９號","E_COORD97":179577.66,"N_COORD97":2547973.25,"ADDRESS":"中興路６８５巷２９號","OBJECTID":437045},"geometry":{"x":179577.66000000108,"y":2547973.2500000019}},{"attributes":{"ID":437071,"DIS_CODE":0,"TOWNNAME":"新化區","LI":"太平里","LIN":"4鄰","STREET":"民生路","SECT":" ","MAREA":" ","LANE":"２１７巷","ALLEY":" ","HOUSE_NO":"３號","E_COORD97":179043.41,"N_COORD97":2548939.25,"ADDRESS":"民生路２１７巷３號","OBJECTID":437046},"geometry":{"x":179043.41000000108,"y":2548939.2500000019}},{"attributes":{"ID":437072,"DIS_CODE":0,"TOWNNAME":"新化區","LI":"太平里","LIN":"13鄰","STREET":"太平街","SECT":" ","MAREA":" ","LANE":"２２巷","ALLEY":" ","HOUSE_NO":"２２號","E_COORD97":178850.12,"N_COORD97":2548892.25,"ADDRESS":"太平街２２巷２２號","OBJECTID":437047},"geometry":{"x":178850.12000000104,"y":2548892.2500000019}},{"attributes":{"ID":437073,"DIS_CODE":0,"TOWNNAME":"新化區","LI":"東榮里","LIN":"24鄰","STREET":"中正路","SECT":" ","MAREA":" ","LANE":"２４４巷","ALLEY":" ","HOUSE_NO":"１６號","E_COORD97":179192.56,"N_COORD97":2547769.25,"ADDRESS":"中正路２４４巷１６號","OBJECTID":437048},"geometry":{"x":179192.56000000052,"y":2547769.2500000019}},{"attributes":{"ID":437074,"DIS_CODE":0,"TOWNNAME":"新化區","LI":"知義里","LIN":"14鄰","STREET":"中正路","SECT":" ","MAREA":" ","LANE":"２００巷","ALLEY":" ","HOUSE_NO":"６９號","E_COORD97":179311.16,"N_COORD97":2547209.25,"ADDRESS":"中正路２００巷６９號","OBJECTID":437049},"geometry":{"x":179311.16000000108,"y":2547209.2499999981}},{"attributes":{"ID":437075,"DIS_CODE":0,"TOWNNAME":"新化區","LI":"東榮里","LIN":"24鄰","STREET":"中正路","SECT":" ","MAREA":" ","LANE":"２４４巷","ALLEY":" ","HOUSE_NO":"２號之６","E_COORD97":179132.76000000001,"N_COORD97":2547708.2599999998,"ADDRESS":"中正路２４４巷２號之６","OBJECTID":437050},"geometry":{"x":179132.75999999978,"y":2547708.2600000016}},{"attributes":{"ID":437076,"DIS_CODE":0,"TOWNNAME":"新化區","LI":"豐榮里","LIN":"8鄰","STREET":"大智路","SECT":" ","MAREA":" ","LANE":"７７巷","ALLEY":" ","HOUSE_NO":"１３號","E_COORD97":178293.73000000001,"N_COORD97":2548284.25,"ADDRESS":"大智路７７巷１３號","OBJECTID":437051},"geometry":{"x":178293.73000000138,"y":2548284.2500000037}},{"attributes":{"ID":437077,"DIS_CODE":0,"TOWNNAME":"新化區","LI":"護國里","LIN":"4鄰","STREET":"中山路","SECT":" ","MAREA":" ","LANE":"１９４巷","ALLEY":" ","HOUSE_NO":"２１號","E_COORD97":179163.76000000001,"N_COORD97":2548480.25,"ADDRESS":"中山路１９４巷２１號","OBJECTID":437052},"geometry":{"x":179163.75999999978,"y":2548480.25}},{"attributes":{"ID":437078,"DIS_CODE":0,"TOWNNAME":"新化區","LI":"協興里","LIN":"4鄰","STREET":"正新路","SECT":" ","MAREA":" ","LANE":"２５１巷","ALLEY":" ","HOUSE_NO":"１７號","E_COORD97":178512.57000000001,"N_COORD97":2548509.25,"ADDRESS":"正新路２５１巷１７號","OBJECTID":437053},"geometry":{"x":178512.5700000003,"y":2548509.2500000019}},{"attributes":{"ID":437079,"DIS_CODE":0,"TOWNNAME":"新化區","LI":"東榮里","LIN":"13鄰","STREET":"中興路","SECT":" ","MAREA":" ","LANE":"５５４巷","ALLEY":" ","HOUSE_NO":"３９號","E_COORD97":179910.56,"N_COORD97":2548042.25,"ADDRESS":"中興路５５４巷３９號","OBJECTID":437054},"geometry":{"x":179910.55999999959,"y":2548042.25}},{"attributes":{"ID":437080,"DIS_CODE":0,"TOWNNAME":"新化區","LI":"東榮里","LIN":"34鄰","STREET":"中正路","SECT":" ","MAREA":" ","LANE":"３８８巷","ALLEY":" ","HOUSE_NO":"１２號","E_COORD97":179137.66,"N_COORD97":2548398.25,"ADDRESS":"中正路３８８巷１２號","OBJECTID":437055},"geometry":{"x":179137.66000000015,"y":2548398.25}},{"attributes":{"ID":437081,"DIS_CODE":0,"TOWNNAME":"新化區","LI":"東榮里","LIN":"8鄰","STREET":"信義路","SECT":" ","MAREA":" ","LANE":"１１７巷","ALLEY":" ","HOUSE_NO":"２８號之１５","E_COORD97":179779.48999999999,"N_COORD97":2548306.2599999998,"ADDRESS":"信義路１１７巷２８號之１５","OBJECTID":437056},"geometry":{"x":179779.49000000022,"y":2548306.2599999998}},{"attributes":{"ID":437082,"DIS_CODE":0,"TOWNNAME":"新化區","LI":"東榮里","LIN":"8鄰","STREET":"信義路","SECT":" ","MAREA":" ","LANE":"１１７巷","ALLEY":" ","HOUSE_NO":"２８號之１９","E_COORD97":179762.87,"N_COORD97":2548306.2599999998,"ADDRESS":"信義路１１７巷２８號之１９","OBJECTID":437057},"geometry":{"x":179762.87000000011,"y":2548306.2599999998}},{"attributes":{"ID":437083,"DIS_CODE":0,"TOWNNAME":"新化區","LI":"東榮里","LIN":"18鄰","STREET":"中興路","SECT":" ","MAREA":" ","LANE":"６８５巷","ALLEY":" ","HOUSE_NO":"４４號","E_COORD97":179559.66,"N_COORD97":2548044.25,"ADDRESS":"中興路６８５巷４４號","OBJECTID":437058},"geometry":{"x":179559.66000000015,"y":2548044.2500000019}},{"attributes":{"ID":437084,"DIS_CODE":0,"TOWNNAME":"新化區","LI":"太平里","LIN":"13鄰","STREET":"太平街","SECT":" ","MAREA":" ","LANE":"２２巷","ALLEY":" ","HOUSE_NO":"２８號","E_COORD97":178815.12,"N_COORD97":2548875.2400000002,"ADDRESS":"太平街２２巷２８號","OBJECTID":437059},"geometry":{"x":178815.12000000104,"y":2548875.2400000021}},{"attributes":{"ID":437085,"DIS_CODE":0,"TOWNNAME":"新化區","LI":"太平里","LIN":"4鄰","STREET":"民生路","SECT":" ","MAREA":" ","LANE":"２１７巷","ALLEY":" ","HOUSE_NO":"６號","E_COORD97":179052.60999999999,"N_COORD97":2548955.25,"ADDRESS":"民生路２１７巷６號","OBJECTID":437060},"geometry":{"x":179052.61000000127,"y":2548955.25}},{"attributes":{"ID":437086,"DIS_CODE":0,"TOWNNAME":"新化區","LI":"協興里","LIN":"13鄰","STREET":"太平街","SECT":" ","MAREA":" ","LANE":"１５０巷","ALLEY":" ","HOUSE_NO":"８７號","E_COORD97":178292.97,"N_COORD97":2548817.25,"ADDRESS":"太平街１５０巷８７號","OBJECTID":437061},"geometry":{"x":178292.97000000067,"y":2548817.2500000019}},{"attributes":{"ID":437087,"DIS_CODE":0,"TOWNNAME":"新化區","LI":"東榮里","LIN":"24鄰","STREET":"中正路","SECT":" ","MAREA":" ","LANE":"２４４巷","ALLEY":" ","HOUSE_NO":"２號之２","E_COORD97":179135.45999999999,"N_COORD97":2547737.2599999998,"ADDRESS":"中正路２４４巷２號之２","OBJECTID":437062},"geometry":{"x":179135.45999999996,"y":2547737.2599999998}},{"attributes":{"ID":437088,"DIS_CODE":0,"TOWNNAME":"永康區","LI":"永康里","LIN":"40鄰","STREET":"永大二路","SECT":" ","MAREA":" ","LANE":" ","ALLEY":" ","HOUSE_NO":"５０號九樓之１","E_COORD97":174243.35999999999,"N_COORD97":2546574.3399999999,"ADDRESS":"永大二路５０號九樓之１","OBJECTID":437063},"geometry":{"x":174243.36000000127,"y":2546574.3399999999}},{"attributes":{"ID":437089,"DIS_CODE":0,"TOWNNAME":"新化區","LI":"東榮里","LIN":"24鄰","STREET":"中正路","SECT":" ","MAREA":" ","LANE":"２４４巷","ALLEY":" ","HOUSE_NO":"２號之１","E_COORD97":179137.14000000001,"N_COORD97":2547743.2599999998,"ADDRESS":"中正路２４４巷２號之１","OBJECTID":437064},"geometry":{"x":179137.13999999966,"y":2547743.2599999998}},{"attributes":{"ID":437090,"DIS_CODE":0,"TOWNNAME":"新化區","LI":"東榮里","LIN":"17鄰","STREET":"中興路","SECT":" ","MAREA":" ","LANE":"６７７巷","ALLEY":" ","HOUSE_NO":"２３號","E_COORD97":179609.76000000001,"N_COORD97":2547989.25,"ADDRESS":"中興路６７７巷２３號","OBJECTID":437065},"geometry":{"x":179609.76000000164,"y":2547989.2500000037}},{"attributes":{"ID":437091,"DIS_CODE":0,"TOWNNAME":"新化區","LI":"東榮里","LIN":"8鄰","STREET":"信義路","SECT":" ","MAREA":" ","LANE":"１１７巷","ALLEY":" ","HOUSE_NO":"２６號之３","E_COORD97":179706.42999999999,"N_COORD97":2548318.2599999998,"ADDRESS":"信義路１１７巷２６號之３","OBJECTID":437066},"geometry":{"x":179706.4299999997,"y":2548318.2600000016}},{"attributes":{"ID":437092,"DIS_CODE":0,"TOWNNAME":"新化區","LI":"東榮里","LIN":"8鄰","STREET":"信義路","SECT":" ","MAREA":" ","LANE":"１１７巷","ALLEY":" ","HOUSE_NO":"２８號之１３","E_COORD97":179789.17999999999,"N_COORD97":2548305.2599999998,"ADDRESS":"信義路１１７巷２８號之１３","OBJECTID":437067},"geometry":{"x":179789.1799999997,"y":2548305.2600000016}},{"attributes":{"ID":437093,"DIS_CODE":0,"TOWNNAME":"新化區","LI":"觀音里","LIN":"7鄰","STREET":"中正路","SECT":" ","MAREA":" ","LANE":"５４９巷","ALLEY":" ","HOUSE_NO":"７號之３","E_COORD97":178920.45999999999,"N_COORD97":2548648.2599999998,"ADDRESS":"中正路５４９巷７號之３","OBJECTID":437068},"geometry":{"x":178920.46000000183,"y":2548648.2600000016}},{"attributes":{"ID":437094,"DIS_CODE":0,"TOWNNAME":"新化區","LI":"協興里","LIN":"8鄰","STREET":"太平街","SECT":" ","MAREA":" ","LANE":"１３４巷","ALLEY":" ","HOUSE_NO":"６號","E_COORD97":178449.42000000001,"N_COORD97":2548753.25,"ADDRESS":"太平街１３４巷６號","OBJECTID":437069},"geometry":{"x":178449.42000000179,"y":2548753.2500000019}},{"attributes":{"ID":437095,"DIS_CODE":0,"TOWNNAME":"新化區","LI":"太平里","LIN":"4鄰","STREET":"民生路","SECT":" ","MAREA":" ","LANE":"１８６巷","ALLEY":" ","HOUSE_NO":"２３號","E_COORD97":179140.06,"N_COORD97":2548973.25,"ADDRESS":"民生路１８６巷２３號","OBJECTID":437070},"geometry":{"x":179140.06000000052,"y":2548973.2500000019}},{"attributes":{"ID":437096,"DIS_CODE":0,"TOWNNAME":"新化區","LI":"東榮里","LIN":"13鄰","STREET":"中興路","SECT":" ","MAREA":" ","LANE":"５８０巷","ALLEY":" ","HOUSE_NO":"６號","E_COORD97":179860.81,"N_COORD97":2547993.25,"ADDRESS":"中興路５８０巷６號","OBJECTID":437071},"geometry":{"x":179860.81000000052,"y":2547993.2500000019}},{"attributes":{"ID":437097,"DIS_CODE":0,"TOWNNAME":"新化區","LI":"太平里","LIN":"4鄰","STREET":"中正路","SECT":" ","MAREA":" ","LANE":"５８０巷","ALLEY":" ","HOUSE_NO":"２號之１０５","E_COORD97":178989.97,"N_COORD97":2549015.2599999998,"ADDRESS":"中正路５８０巷２號之１０５","OBJECTID":437072},"geometry":{"x":178989.97000000067,"y":2549015.2599999998}},{"attributes":{"ID":437098,"DIS_CODE":0,"TOWNNAME":"新化區","LI":"護國里","LIN":"4鄰","STREET":"建國街","SECT":" ","MAREA":" ","LANE":"９巷","ALLEY":" ","HOUSE_NO":"１３號","E_COORD97":179149.98000000001,"N_COORD97":2548513.2599999998,"ADDRESS":"建國街９巷１３號","OBJECTID":437073},"geometry":{"x":179149.98000000138,"y":2548513.2599999998}},{"attributes":{"ID":437099,"DIS_CODE":0,"TOWNNAME":"新化區","LI":"東榮里","LIN":"13鄰","STREET":"中興路","SECT":" ","MAREA":" ","LANE":"５８０巷","ALLEY":" ","HOUSE_NO":"１２號","E_COORD97":179860.76000000001,"N_COORD97":2548003.25,"ADDRESS":"中興路５８０巷１２號","OBJECTID":437074},"geometry":{"x":179860.76000000164,"y":2548003.2500000019}},{"attributes":{"ID":437100,"DIS_CODE":0,"TOWNNAME":"新化區","LI":"太平里","LIN":"17鄰","STREET":"太平街","SECT":" ","MAREA":" ","LANE":"９７巷","ALLEY":" ","HOUSE_NO":"１號","E_COORD97":178618.87,"N_COORD97":2548716.25,"ADDRESS":"太平街９７巷１號","OBJECTID":437075},"geometry":{"x":178618.87000000011,"y":2548716.2500000019}},{"attributes":{"ID":437101,"DIS_CODE":0,"TOWNNAME":"新化區","LI":"太平里","LIN":"4鄰","STREET":"中正路","SECT":" ","MAREA":" ","LANE":"５８４巷","ALLEY":" ","HOUSE_NO":"１３號","E_COORD97":178941.26000000001,"N_COORD97":2549107.25,"ADDRESS":"中正路５８４巷１３號","OBJECTID":437076},"geometry":{"x":178941.25999999978,"y":2549107.25}},{"attributes":{"ID":437102,"DIS_CODE":0,"TOWNNAME":"新化區","LI":"太平里","LIN":"4鄰","STREET":"民生路","SECT":" ","MAREA":" ","LANE":"１８６巷","ALLEY":" ","HOUSE_NO":"１號","E_COORD97":179122.51000000001,"N_COORD97":2548942.25,"ADDRESS":"民生路１８６巷１號","OBJECTID":437077},"geometry":{"x":179122.50999999978,"y":2548942.2500000037}},{"attributes":{"ID":437103,"DIS_CODE":0,"TOWNNAME":"新化區","LI":"太平里","LIN":"4鄰","STREET":"中正路","SECT":" ","MAREA":" ","LANE":"５８４巷","ALLEY":" ","HOUSE_NO":"３１號","E_COORD97":178973.35999999999,"N_COORD97":2549064.25,"ADDRESS":"中正路５８４巷３１號","OBJECTID":437078},"geometry":{"x":178973.36000000034,"y":2549064.2500000037}},{"attributes":{"ID":437104,"DIS_CODE":0,"TOWNNAME":"新化區","LI":"東榮里","LIN":"14鄰","STREET":"中興路","SECT":" ","MAREA":" ","LANE":"５９５巷","ALLEY":" ","HOUSE_NO":"５號","E_COORD97":179840.20999999999,"N_COORD97":2547913.25,"ADDRESS":"中興路５９５巷５號","OBJECTID":437079},"geometry":{"x":179840.20999999996,"y":2547913.25}},{"attributes":{"ID":437105,"DIS_CODE":0,"TOWNNAME":"新化區","LI":"太平里","LIN":"17鄰","STREET":"太平街","SECT":" ","MAREA":" ","LANE":"９７巷","ALLEY":" ","HOUSE_NO":"９號","E_COORD97":178638.26999999999,"N_COORD97":2548717.25,"ADDRESS":"太平街９７巷９號","OBJECTID":437080},"geometry":{"x":178638.27000000048,"y":2548717.25}},{"attributes":{"ID":437106,"DIS_CODE":0,"TOWNNAME":"新化區","LI":"太平里","LIN":"4鄰","STREET":"民生路","SECT":" ","MAREA":" ","LANE":"１８６巷","ALLEY":" ","HOUSE_NO":"３號","E_COORD97":179128.31,"N_COORD97":2548946.25,"ADDRESS":"民生路１８６巷３號","OBJECTID":437081},"geometry":{"x":179128.31000000052,"y":2548946.2500000019}},{"attributes":{"ID":437107,"DIS_CODE":0,"TOWNNAME":"新化區","LI":"東榮里","LIN":"4鄰","STREET":"信義路","SECT":" ","MAREA":" ","LANE":"２９巷","ALLEY":" ","HOUSE_NO":"３２號","E_COORD97":180791.53,"N_COORD97":2548607.25,"ADDRESS":"信義路２９巷３２號","OBJECTID":437082},"geometry":{"x":180791.53000000026,"y":2548607.2500000019}},{"attributes":{"ID":437108,"DIS_CODE":0,"TOWNNAME":"新化區","LI":"太平里","LIN":"4鄰","STREET":"民生路","SECT":" ","MAREA":" ","LANE":"１８６巷","ALLEY":" ","HOUSE_NO":"５號","E_COORD97":179120.51000000001,"N_COORD97":2548959.25,"ADDRESS":"民生路１８６巷５號","OBJECTID":437083},"geometry":{"x":179120.51000000071,"y":2548959.2500000019}},{"attributes":{"ID":437109,"DIS_CODE":0,"TOWNNAME":"新化區","LI":"太平里","LIN":"4鄰","STREET":"中正路","SECT":" ","MAREA":" ","LANE":"５８４巷","ALLEY":" ","HOUSE_NO":"１７號","E_COORD97":178954.16,"N_COORD97":2549113.25,"ADDRESS":"中正路５８４巷１７號","OBJECTID":437084},"geometry":{"x":178954.16000000015,"y":2549113.25}},{"attributes":{"ID":437110,"DIS_CODE":0,"TOWNNAME":"新化區","LI":"護國里","LIN":"4鄰","STREET":"建國街","SECT":" ","MAREA":" ","LANE":"９巷","ALLEY":" ","HOUSE_NO":"１５號","E_COORD97":179144.57999999999,"N_COORD97":2548511.2599999998,"ADDRESS":"建國街９巷１５號","OBJECTID":437085},"geometry":{"x":179144.58000000007,"y":2548511.2600000035}},{"attributes":{"ID":437111,"DIS_CODE":0,"TOWNNAME":"新化區","LI":"太平里","LIN":"4鄰","STREET":"中正路","SECT":" ","MAREA":" ","LANE":"５８４巷","ALLEY":" ","HOUSE_NO":"２１號","E_COORD97":178956.26000000001,"N_COORD97":2549080.25,"ADDRESS":"中正路５８４巷２１號","OBJECTID":437086},"geometry":{"x":178956.26000000071,"y":2549080.25}},{"attributes":{"ID":437112,"DIS_CODE":0,"TOWNNAME":"新化區","LI":"協興里","LIN":"4鄰","STREET":"正新路","SECT":" ","MAREA":" ","LANE":"２５１巷","ALLEY":" ","HOUSE_NO":"５號","E_COORD97":178536.72,"N_COORD97":2548506.25,"ADDRESS":"正新路２５１巷５號","OBJECTID":437087},"geometry":{"x":178536.71999999974,"y":2548506.2500000019}},{"attributes":{"ID":437113,"DIS_CODE":0,"TOWNNAME":"新化區","LI":"觀音里","LIN":"4鄰","STREET":"仁愛街","SECT":" ","MAREA":" ","LANE":"６５巷","ALLEY":" ","HOUSE_NO":"３３號","E_COORD97":178970.23000000001,"N_COORD97":2548507.25,"ADDRESS":"仁愛街６５巷３３號","OBJECTID":437088},"geometry":{"x":178970.23000000138,"y":2548507.25}},{"attributes":{"ID":437114,"DIS_CODE":0,"TOWNNAME":"新化區","LI":"觀音里","LIN":"4鄰","STREET":"仁愛街","SECT":" ","MAREA":" ","LANE":"６５巷","ALLEY":" ","HOUSE_NO":"３７號","E_COORD97":178970.03,"N_COORD97":2548501.25,"ADDRESS":"仁愛街６５巷３７號","OBJECTID":437089},"geometry":{"x":178970.03000000119,"y":2548501.2500000037}},{"attributes":{"ID":437115,"DIS_CODE":0,"TOWNNAME":"新化區","LI":"太平里","LIN":"4鄰","STREET":"中正路","SECT":" ","MAREA":" ","LANE":"５８４巷","ALLEY":" ","HOUSE_NO":"３３號","E_COORD97":178980.06,"N_COORD97":2549068.25,"ADDRESS":"中正路５８４巷３３號","OBJECTID":437090},"geometry":{"x":178980.05999999959,"y":2549068.2500000019}},{"attributes":{"ID":437116,"DIS_CODE":0,"TOWNNAME":"新化區","LI":"協興里","LIN":"13鄰","STREET":"太平街","SECT":" ","MAREA":" ","LANE":"１５０巷","ALLEY":" ","HOUSE_NO":"１１９號之１","E_COORD97":178305.54999999999,"N_COORD97":2548829.2599999998,"ADDRESS":"太平街１５０巷１１９號之１","OBJECTID":437091},"geometry":{"x":178305.54999999981,"y":2548829.2599999998}},{"attributes":{"ID":437117,"DIS_CODE":0,"TOWNNAME":"新化區","LI":"護國里","LIN":"8鄰","STREET":"信義路","SECT":" ","MAREA":" ","LANE":"４０巷","ALLEY":" ","HOUSE_NO":"５０號","E_COORD97":180563.03,"N_COORD97":2548995.25,"ADDRESS":"信義路４０巷５０號","OBJECTID":437092},"geometry":{"x":180563.03000000119,"y":2548995.25}},{"attributes":{"ID":437118,"DIS_CODE":0,"TOWNNAME":"新化區","LI":"東榮里","LIN":"4鄰","STREET":"信義路","SECT":" ","MAREA":" ","LANE":"９３巷","ALLEY":" ","HOUSE_NO":"３號","E_COORD97":179829.48000000001,"N_COORD97":2548658.25,"ADDRESS":"信義路９３巷３號","OBJECTID":437093},"geometry":{"x":179829.48000000231,"y":2548658.2500000019}},{"attributes":{"ID":437119,"DIS_CODE":0,"TOWNNAME":"新化區","LI":"護國里","LIN":"4鄰","STREET":"建國街","SECT":" ","MAREA":" ","LANE":"９巷","ALLEY":" ","HOUSE_NO":"３號","E_COORD97":179184.23000000001,"N_COORD97":2548514.2599999998,"ADDRESS":"建國街９巷３號","OBJECTID":437094},"geometry":{"x":179184.23000000138,"y":2548514.2599999979}},{"attributes":{"ID":437120,"DIS_CODE":0,"TOWNNAME":"新化區","LI":"觀音里","LIN":"4鄰","STREET":"仁愛街","SECT":" ","MAREA":" ","LANE":"６５巷","ALLEY":" ","HOUSE_NO":"２５號","E_COORD97":178970.63,"N_COORD97":2548526.25,"ADDRESS":"仁愛街６５巷２５號","OBJECTID":437095},"geometry":{"x":178970.63000000082,"y":2548526.2500000019}},{"attributes":{"ID":437121,"DIS_CODE":0,"TOWNNAME":"新化區","LI":"太平里","LIN":"4鄰","STREET":"民生路","SECT":" ","MAREA":" ","LANE":"１８６巷","ALLEY":" ","HOUSE_NO":"１９號","E_COORD97":179132.95999999999,"N_COORD97":2548961.25,"ADDRESS":"民生路１８６巷１９號","OBJECTID":437096},"geometry":{"x":179132.96000000089,"y":2548961.25}},{"attributes":{"ID":437122,"DIS_CODE":0,"TOWNNAME":"新化區","LI":"協興里","LIN":"4鄰","STREET":"正新路","SECT":" ","MAREA":" ","LANE":"２５１巷","ALLEY":" ","HOUSE_NO":"１９號","E_COORD97":178507.67000000001,"N_COORD97":2548509.25,"ADDRESS":"正新路２５１巷１９號","OBJECTID":437097},"geometry":{"x":178507.67000000086,"y":2548509.2500000019}},{"attributes":{"ID":437123,"DIS_CODE":0,"TOWNNAME":"新化區","LI":"協興里","LIN":"4鄰","STREET":"正新路","SECT":" ","MAREA":" ","LANE":"２５１巷","ALLEY":" ","HOUSE_NO":"７號","E_COORD97":178533.12,"N_COORD97":2548507.25,"ADDRESS":"正新路２５１巷７號","OBJECTID":437098},"geometry":{"x":178533.12000000104,"y":2548507.25}},{"attributes":{"ID":437124,"DIS_CODE":0,"TOWNNAME":"新化區","LI":"護國里","LIN":"4鄰","STREET":"建國街","SECT":" ","MAREA":" ","LANE":"９巷","ALLEY":" ","HOUSE_NO":"５號","E_COORD97":179173.23000000001,"N_COORD97":2548518.2599999998,"ADDRESS":"建國街９巷５號","OBJECTID":437099},"geometry":{"x":179173.22999999952,"y":2548518.2600000016}},{"attributes":{"ID":437125,"DIS_CODE":0,"TOWNNAME":"新化區","LI":"知義里","LIN":"14鄰","STREET":"復興路","SECT":" ","MAREA":" ","LANE":"１１４巷","ALLEY":" ","HOUSE_NO":"５號","E_COORD97":179650.92000000001,"N_COORD97":2547720.25,"ADDRESS":"復興路１１４巷５號","OBJECTID":437100},"geometry":{"x":179650.91999999993,"y":2547720.25}},{"attributes":{"ID":437126,"DIS_CODE":0,"TOWNNAME":"新化區","LI":"武安里","LIN":"13鄰","STREET":"健康路","SECT":" ","MAREA":" ","LANE":"６０巷","ALLEY":" ","HOUSE_NO":"１０號","E_COORD97":178889.82999999999,"N_COORD97":2548094.2599999998,"ADDRESS":"健康路６０巷１０號","OBJECTID":437101},"geometry":{"x":178889.83000000101,"y":2548094.2600000035}},{"attributes":{"ID":437127,"DIS_CODE":0,"TOWNNAME":"新化區","LI":"知義里","LIN":"14鄰","STREET":"復興路","SECT":" ","MAREA":" ","LANE":"８８巷","ALLEY":" ","HOUSE_NO":"４號","E_COORD97":179562.76999999999,"N_COORD97":2547579.25,"ADDRESS":"復興路８８巷４號","OBJECTID":437102},"geometry":{"x":179562.77000000048,"y":2547579.2500000037}},{"attributes":{"ID":437128,"DIS_CODE":0,"TOWNNAME":"新化區","LI":"武安里","LIN":"14鄰","STREET":"健康路","SECT":" ","MAREA":" ","LANE":"１０１巷","ALLEY":" ","HOUSE_NO":"５號","E_COORD97":178771.23000000001,"N_COORD97":2548139.2599999998,"ADDRESS":"健康路１０１巷５號","OBJECTID":437103},"geometry":{"x":178771.23000000045,"y":2548139.2600000016}},{"attributes":{"ID":437129,"DIS_CODE":0,"TOWNNAME":"新化區","LI":"武安里","LIN":"13鄰","STREET":"健康路","SECT":" ","MAREA":" ","LANE":"６０巷","ALLEY":" ","HOUSE_NO":"６號","E_COORD97":178883.38,"N_COORD97":2548088.2599999998,"ADDRESS":"健康路６０巷６號","OBJECTID":437104},"geometry":{"x":178883.37999999989,"y":2548088.2600000016}},{"attributes":{"ID":437130,"DIS_CODE":0,"TOWNNAME":"新化區","LI":"武安里","LIN":"13鄰","STREET":"健康路","SECT":" ","MAREA":" ","LANE":"６０巷","ALLEY":" ","HOUSE_NO":"１２號","E_COORD97":178894.53,"N_COORD97":2548099.2599999998,"ADDRESS":"健康路６０巷１２號","OBJECTID":437105},"geometry":{"x":178894.53000000026,"y":2548099.2599999998}},{"attributes":{"ID":437131,"DIS_CODE":0,"TOWNNAME":"新化區","LI":"豐榮里","LIN":"13鄰","STREET":"民治路","SECT":" ","MAREA":" ","LANE":"３３巷","ALLEY":" ","HOUSE_NO":"２７號","E_COORD97":178677.70999999999,"N_COORD97":2548027.25,"ADDRESS":"民治路３３巷２７號","OBJECTID":437106},"geometry":{"x":178677.70999999996,"y":2548027.2500000019}},{"attributes":{"ID":437132,"DIS_CODE":0,"TOWNNAME":"新化區","LI":"太平里","LIN":"4鄰","STREET":"太平街","SECT":" ","MAREA":" ","LANE":"１０巷","ALLEY":" ","HOUSE_NO":"１號","E_COORD97":179096.47,"N_COORD97":2548884.25,"ADDRESS":"太平街１０巷１號","OBJECTID":437107},"geometry":{"x":179096.4700000016,"y":2548884.2500000037}},{"attributes":{"ID":437133,"DIS_CODE":0,"TOWNNAME":"新化區","LI":"東榮里","LIN":"18鄰","STREET":"中興路","SECT":" ","MAREA":" ","LANE":"６８５巷","ALLEY":" ","HOUSE_NO":"２號之１","E_COORD97":179584.64000000001,"N_COORD97":2548065.2599999998,"ADDRESS":"中興路６８５巷２號之１","OBJECTID":437108},"geometry":{"x":179584.63999999966,"y":2548065.2600000016}},{"attributes":{"ID":437134,"DIS_CODE":0,"TOWNNAME":"新化區","LI":"東榮里","LIN":"25鄰","STREET":"光明路","SECT":" ","MAREA":" ","LANE":"７５巷","ALLEY":" ","HOUSE_NO":"２號","E_COORD97":179226.47,"N_COORD97":2548026.25,"ADDRESS":"光明路７５巷２號","OBJECTID":437109},"geometry":{"x":179226.46999999974,"y":2548026.25}},{"attributes":{"ID":437135,"DIS_CODE":0,"TOWNNAME":"新化區","LI":"武安里","LIN":"4鄰","STREET":"中正路","SECT":" ","MAREA":" ","LANE":"３４１巷","ALLEY":" ","HOUSE_NO":"１５號","E_COORD97":179071.85999999999,"N_COORD97":2548198.25,"ADDRESS":"中正路３４１巷１５號","OBJECTID":437110},"geometry":{"x":179071.86000000034,"y":2548198.25}},{"attributes":{"ID":437136,"DIS_CODE":0,"TOWNNAME":"新化區","LI":"護國里","LIN":"8鄰","STREET":"信義路","SECT":" ","MAREA":" ","LANE":"８６巷","ALLEY":" ","HOUSE_NO":"１１號","E_COORD97":179795.23000000001,"N_COORD97":2548769.25,"ADDRESS":"信義路８６巷１１號","OBJECTID":437111},"geometry":{"x":179795.23000000045,"y":2548769.2500000037}},{"attributes":{"ID":437137,"DIS_CODE":0,"TOWNNAME":"新化區","LI":"太平里","LIN":"4鄰","STREET":"民生路","SECT":" ","MAREA":" ","LANE":"１８６巷","ALLEY":" ","HOUSE_NO":"１１號","E_COORD97":179110.76000000001,"N_COORD97":2548972.25,"ADDRESS":"民生路１８６巷１１號","OBJECTID":437112},"geometry":{"x":179110.75999999978,"y":2548972.2499999981}},{"attributes":{"ID":437138,"DIS_CODE":0,"TOWNNAME":"新化區","LI":"護國里","LIN":"8鄰","STREET":"信義路","SECT":" ","MAREA":" ","LANE":"８６巷","ALLEY":" ","HOUSE_NO":"５號","E_COORD97":179807.17999999999,"N_COORD97":2548769.25,"ADDRESS":"信義路８６巷５號","OBJECTID":437113},"geometry":{"x":179807.18000000063,"y":2548769.2500000037}},{"attributes":{"ID":437139,"DIS_CODE":0,"TOWNNAME":"新化區","LI":"太平里","LIN":"4鄰","STREET":"中正路","SECT":" ","MAREA":" ","LANE":"５８０巷","ALLEY":" ","HOUSE_NO":"２號之１１１","E_COORD97":178997.44,"N_COORD97":2549031.2599999998,"ADDRESS":"中正路５８０巷２號之１１１","OBJECTID":437114},"geometry":{"x":178997.44000000134,"y":2549031.2600000016}},{"attributes":{"ID":437140,"DIS_CODE":0,"TOWNNAME":"新化區","LI":"太平里","LIN":"4鄰","STREET":"中正路","SECT":" ","MAREA":" ","LANE":"５８０巷","ALLEY":" ","HOUSE_NO":"２號之１５","E_COORD97":178960.12,"N_COORD97":2548987.2599999998,"ADDRESS":"中正路５８０巷２號之１５","OBJECTID":437115},"geometry":{"x":178960.12000000197,"y":2548987.2600000016}},{"attributes":{"ID":437141,"DIS_CODE":0,"TOWNNAME":"新化區","LI":"太平里","LIN":"4鄰","STREET":"中正路","SECT":" ","MAREA":" ","LANE":"５８０巷","ALLEY":" ","HOUSE_NO":"２號之１１","E_COORD97":178940.89000000001,"N_COORD97":2548992.2599999998,"ADDRESS":"中正路５８０巷２號之１１","OBJECTID":437116},"geometry":{"x":178940.89000000153,"y":2548992.2599999998}},{"attributes":{"ID":437142,"DIS_CODE":0,"TOWNNAME":"新化區","LI":"護國里","LIN":"8鄰","STREET":"信義路","SECT":" ","MAREA":" ","LANE":"８６巷","ALLEY":" ","HOUSE_NO":"１０號","E_COORD97":179840.23000000001,"N_COORD97":2548774.25,"ADDRESS":"信義路８６巷１０號","OBJECTID":437117},"geometry":{"x":179840.23000000138,"y":2548774.25}},{"attributes":{"ID":437143,"DIS_CODE":0,"TOWNNAME":"新化區","LI":"太平里","LIN":"4鄰","STREET":"中正路","SECT":" ","MAREA":" ","LANE":"５８０巷","ALLEY":" ","HOUSE_NO":"２號之１３","E_COORD97":178964.51000000001,"N_COORD97":2548990.2599999998,"ADDRESS":"中正路５８０巷２號之１３","OBJECTID":437118},"geometry":{"x":178964.51000000071,"y":2548990.2600000016}},{"attributes":{"ID":437144,"DIS_CODE":0,"TOWNNAME":"新化區","LI":"太平里","LIN":"4鄰","STREET":"中正路","SECT":" ","MAREA":" ","LANE":"５８０巷","ALLEY":" ","HOUSE_NO":"２號之２２","E_COORD97":178973.20999999999,"N_COORD97":2548985.2599999998,"ADDRESS":"中正路５８０巷２號之２２","OBJECTID":437119},"geometry":{"x":178973.21000000089,"y":2548985.2599999998}},{"attributes":{"ID":437145,"DIS_CODE":0,"TOWNNAME":"新化區","LI":"東榮里","LIN":"4鄰","STREET":"信義路","SECT":" ","MAREA":" ","LANE":"９３巷","ALLEY":" ","HOUSE_NO":"５號之１","E_COORD97":179839.41,"N_COORD97":2548668.2599999998,"ADDRESS":"信義路９３巷５號之１","OBJECTID":437120},"geometry":{"x":179839.41000000015,"y":2548668.2600000016}},{"attributes":{"ID":437146,"DIS_CODE":0,"TOWNNAME":"新化區","LI":"協興里","LIN":"14鄰","STREET":"太平街","SECT":" ","MAREA":" ","LANE":"１５０巷","ALLEY":" ","HOUSE_NO":"２１號","E_COORD97":178330.87,"N_COORD97":2548751.25,"ADDRESS":"太平街１５０巷２１號","OBJECTID":437121},"geometry":{"x":178330.87000000011,"y":2548751.25}},{"attributes":{"ID":437147,"DIS_CODE":0,"TOWNNAME":"新化區","LI":"太平里","LIN":"13鄰","STREET":"太平街","SECT":" ","MAREA":" ","LANE":"２２巷","ALLEY":" ","HOUSE_NO":"１０號","E_COORD97":178888.32000000001,"N_COORD97":2548831.25,"ADDRESS":"太平街２２巷１０號","OBJECTID":437122},"geometry":{"x":178888.32000000123,"y":2548831.2500000019}},{"attributes":{"ID":437148,"DIS_CODE":0,"TOWNNAME":"新化區","LI":"東榮里","LIN":"14鄰","STREET":"中興路","SECT":" ","MAREA":" ","LANE":"５９５巷","ALLEY":" ","HOUSE_NO":"１號","E_COORD97":179840.01000000001,"N_COORD97":2547924.25,"ADDRESS":"中興路５９５巷１號","OBJECTID":437123},"geometry":{"x":179840.00999999978,"y":2547924.25}},{"attributes":{"ID":437149,"DIS_CODE":0,"TOWNNAME":"新化區","LI":"太平里","LIN":"4鄰","STREET":"中正路","SECT":" ","MAREA":" ","LANE":"５８４巷","ALLEY":" ","HOUSE_NO":"１５號","E_COORD97":178947.85999999999,"N_COORD97":2549110.25,"ADDRESS":"中正路５８４巷１５號","OBJECTID":437124},"geometry":{"x":178947.86000000034,"y":2549110.25}},{"attributes":{"ID":437150,"DIS_CODE":0,"TOWNNAME":"新化區","LI":"武安里","LIN":"13鄰","STREET":"健康路","SECT":" ","MAREA":" ","LANE":"４７巷","ALLEY":" ","HOUSE_NO":"２９號","E_COORD97":178804.01000000001,"N_COORD97":2548018.79,"ADDRESS":"健康路４７巷２９號","OBJECTID":437125},"geometry":{"x":178804.00999999978,"y":2548018.7900000028}},{"attributes":{"ID":437151,"DIS_CODE":0,"TOWNNAME":"新化區","LI":"武安里","LIN":"13鄰","STREET":"健康路","SECT":" ","MAREA":" ","LANE":"４７巷","ALLEY":" ","HOUSE_NO":"３１號","E_COORD97":178798.17000000001,"N_COORD97":2548017.6699999999,"ADDRESS":"健康路４７巷３１號","OBJECTID":437126},"geometry":{"x":178798.16999999993,"y":2548017.6700000018}},{"attributes":{"ID":437152,"DIS_CODE":0,"TOWNNAME":"新化區","LI":"武安里","LIN":"13鄰","STREET":"健康路","SECT":" ","MAREA":" ","LANE":"４７巷","ALLEY":" ","HOUSE_NO":"２０號","E_COORD97":178830.22,"N_COORD97":2548076.8700000001,"ADDRESS":"健康路４７巷２０號","OBJECTID":437127},"geometry":{"x":178830.2200000016,"y":2548076.870000001}},{"attributes":{"ID":437153,"DIS_CODE":0,"TOWNNAME":"新化區","LI":"武安里","LIN":"13鄰","STREET":"健康路","SECT":" ","MAREA":" ","LANE":"４７巷","ALLEY":" ","HOUSE_NO":"２２號","E_COORD97":178823.14000000001,"N_COORD97":2548074.7599999998,"ADDRESS":"健康路４７巷２２號","OBJECTID":437128},"geometry":{"x":178823.13999999966,"y":2548074.7600000016}},{"attributes":{"ID":437154,"DIS_CODE":0,"TOWNNAME":"新化區","LI":"太平里","LIN":"4鄰","STREET":"民生路","SECT":" ","MAREA":" ","LANE":"１８６巷","ALLEY":" ","HOUSE_NO":"８號","E_COORD97":179154.29999999999,"N_COORD97":2548956.3100000001,"ADDRESS":"民生路１８６巷８號","OBJECTID":437129},"geometry":{"x":179154.30000000075,"y":2548956.3100000024}},{"attributes":{"ID":437155,"DIS_CODE":0,"TOWNNAME":"北區","LI":"成功里","LIN":"20鄰","STREET":"中華北路","SECT":"二段","MAREA":" ","LANE":"２６８巷","ALLEY":" ","HOUSE_NO":"１７號","E_COORD97":168849.67000000001,"N_COORD97":2546917.71,"ADDRESS":"中華北路二段２６８巷１７號","OBJECTID":437130},"geometry":{"x":168849.67000000086,"y":2546917.7100000009}},{"attributes":{"ID":437156,"DIS_CODE":0,"TOWNNAME":"北區","LI":"文元里","LIN":"26鄰","STREET":"文賢二街","SECT":" ","MAREA":" ","LANE":"４０２巷","ALLEY":" ","HOUSE_NO":"１７號","E_COORD97":167736.04999999999,"N_COORD97":2546100.1299999999,"ADDRESS":"文賢二街４０２巷１７號","OBJECTID":437131},"geometry":{"x":167736.04999999981,"y":2546100.129999999}},{"attributes":{"ID":437157,"DIS_CODE":0,"TOWNNAME":"北區","LI":"文元里","LIN":"26鄰","STREET":"文賢二街","SECT":" ","MAREA":" ","LANE":"４０２巷","ALLEY":" ","HOUSE_NO":"１９號","E_COORD97":167743.23999999999,"N_COORD97":2546104.1699999999,"ADDRESS":"文賢二街４０２巷１９號","OBJECTID":437132},"geometry":{"x":167743.24000000022,"y":2546104.1699999999}},{"attributes":{"ID":437158,"DIS_CODE":0,"TOWNNAME":"北區","LI":"成功里","LIN":"17鄰","STREET":"北成路","SECT":" ","MAREA":" ","LANE":"１２８巷","ALLEY":" ","HOUSE_NO":"７２號","E_COORD97":169025.79000000001,"N_COORD97":2546878.98,"ADDRESS":"北成路１２８巷７２號","OBJECTID":437133},"geometry":{"x":169025.79000000097,"y":2546878.9800000004}},{"attributes":{"ID":437159,"DIS_CODE":0,"TOWNNAME":"北區","LI":"成功里","LIN":"17鄰","STREET":"北成路","SECT":" ","MAREA":" ","LANE":"１２８巷","ALLEY":" ","HOUSE_NO":"７６號","E_COORD97":169025.79000000001,"N_COORD97":2546878.98,"ADDRESS":"北成路１２８巷７６號","OBJECTID":437134},"geometry":{"x":169025.79000000097,"y":2546878.9800000004}},{"attributes":{"ID":437160,"DIS_CODE":0,"TOWNNAME":"北區","LI":"賢北里","LIN":"7鄰","STREET":"賢北街","SECT":" ","MAREA":" ","LANE":"１５巷","ALLEY":" ","HOUSE_NO":"６７號","E_COORD97":166186.42000000001,"N_COORD97":2545143.0899999999,"ADDRESS":"賢北街１５巷６７號","OBJECTID":437135},"geometry":{"x":166186.42000000179,"y":2545143.0900000017}},{"attributes":{"ID":437161,"DIS_CODE":0,"TOWNNAME":"北區","LI":"賢北里","LIN":"7鄰","STREET":"賢北街","SECT":" ","MAREA":" ","LANE":"１５巷","ALLEY":" ","HOUSE_NO":"６９號","E_COORD97":166179.64999999999,"N_COORD97":2545140.75,"ADDRESS":"賢北街１５巷６９號","OBJECTID":437136},"geometry":{"x":166179.65000000037,"y":2545140.75}},{"attributes":{"ID":437162,"DIS_CODE":0,"TOWNNAME":"北區","LI":"文元里","LIN":"25鄰","STREET":"文賢二街","SECT":" ","MAREA":" ","LANE":"５００巷","ALLEY":" ","HOUSE_NO":"３８之２號","E_COORD97":167776.20000000001,"N_COORD97":2546197.9900000002,"ADDRESS":"文賢二街５００巷３８之２號","OBJECTID":437137},"geometry":{"x":167776.20000000019,"y":2546197.9900000039}},{"attributes":{"ID":437163,"DIS_CODE":0,"TOWNNAME":"楠西區","LI":"東勢里","LIN":"14鄰","STREET":"茄拔路","SECT":" ","MAREA":" ","LANE":"１７７巷","ALLEY":" ","HOUSE_NO":"３２號","E_COORD97":197464.47,"N_COORD97":2563845.1299999999,"ADDRESS":"茄拔路１７７巷３２號","OBJECTID":437138},"geometry":{"x":197464.47000000067,"y":2563845.129999999}},{"attributes":{"ID":437164,"DIS_CODE":0,"TOWNNAME":"永康區","LI":"東橋里","LIN":"14鄰","STREET":"東橋一路","SECT":" ","MAREA":" ","LANE":"２８２巷","ALLEY":" ","HOUSE_NO":"２８號","E_COORD97":171453.07999999999,"N_COORD97":2546707.8599999999,"ADDRESS":"東橋一路２８２巷２８號","OBJECTID":437139},"geometry":{"x":171453.08000000101,"y":2546707.8600000013}},{"attributes":{"ID":437165,"DIS_CODE":0,"TOWNNAME":"永康區","LI":"\u25A0行里","LIN":"39鄰","STREET":"永安路","SECT":" ","MAREA":" ","LANE":"１０３巷","ALLEY":" ","HOUSE_NO":"１２號","E_COORD97":172741.45999999999,"N_COORD97":2549236.5,"ADDRESS":"永安路１０３巷１２號","OBJECTID":437140},"geometry":{"x":172741.46000000183,"y":2549236.5000000019}},{"attributes":{"ID":437166,"DIS_CODE":0,"TOWNNAME":"麻豆區","LI":"大埕里","LIN":"8鄰","STREET":" ","SECT":" ","MAREA":"大埕","LANE":" ","ALLEY":" ","HOUSE_NO":"１５號之１６","E_COORD97":173156.58035999999,"N_COORD97":2565318.1813500002,"ADDRESS":"大埕１５號之１６","OBJECTID":437141},"geometry":{"x":173156.58036000188,"y":2565318.1813500002}},{"attributes":{"ID":437167,"DIS_CODE":0,"TOWNNAME":"永康區","LI":"\u25A0行里","LIN":"39鄰","STREET":"永安路","SECT":" ","MAREA":" ","LANE":"１０３巷","ALLEY":" ","HOUSE_NO":"２０號","E_COORD97":172744,"N_COORD97":2549204.6699999999,"ADDRESS":"永安路１０３巷２０號","OBJECTID":437142},"geometry":{"x":172744,"y":2549204.6700000018}},{"attributes":{"ID":437168,"DIS_CODE":0,"TOWNNAME":"佳里區","LI":"建南里","LIN":"36鄰","STREET":"成功路","SECT":" ","MAREA":" ","LANE":"１５０巷","ALLEY":" ","HOUSE_NO":"６０號","E_COORD97":165349.69,"N_COORD97":2561310.8799999999,"ADDRESS":"成功路１５０巷６０號","OBJECTID":437143},"geometry":{"x":165349.69000000134,"y":2561310.879999999}},{"attributes":{"ID":437169,"DIS_CODE":0,"TOWNNAME":"永康區","LI":"\u25A0行里","LIN":"39鄰","STREET":"永安路","SECT":" ","MAREA":" ","LANE":"１０３巷","ALLEY":" ","HOUSE_NO":"８號","E_COORD97":172741.81,"N_COORD97":2549258.96,"ADDRESS":"永安路１０３巷８號","OBJECTID":437144},"geometry":{"x":172741.80999999959,"y":2549258.9600000009}},{"attributes":{"ID":437170,"DIS_CODE":0,"TOWNNAME":"永康區","LI":"網寮里","LIN":"25鄰","STREET":"永大一路","SECT":" ","MAREA":" ","LANE":"１６０巷","ALLEY":" ","HOUSE_NO":"６０號","E_COORD97":173834.23000000001,"N_COORD97":2546556.02,"ADDRESS":"永大一路１６０巷６０號","OBJECTID":437145},"geometry":{"x":173834.23000000138,"y":2546556.0199999977}},{"attributes":{"ID":437171,"DIS_CODE":0,"TOWNNAME":"永康區","LI":"北灣里","LIN":"4鄰","STREET":"信義街","SECT":" ","MAREA":" ","LANE":"９４巷","ALLEY":" ","HOUSE_NO":"６號","E_COORD97":175301.82999999999,"N_COORD97":2545671.8900000001,"ADDRESS":"信義街９４巷６號","OBJECTID":437146},"geometry":{"x":175301.83000000007,"y":2545671.8900000006}},{"attributes":{"ID":437172,"DIS_CODE":0,"TOWNNAME":"永康區","LI":"網寮里","LIN":"14鄰","STREET":"永勝街","SECT":" ","MAREA":" ","LANE":"３０８巷","ALLEY":" ","HOUSE_NO":"１０號","E_COORD97":173500.32999999999,"N_COORD97":2546713.3300000001,"ADDRESS":"永勝街３０８巷１０號","OBJECTID":437147},"geometry":{"x":173500.33000000101,"y":2546713.3300000001}},{"attributes":{"ID":437173,"DIS_CODE":0,"TOWNNAME":"永康區","LI":"西灣里","LIN":"4鄰","STREET":"大灣五街","SECT":" ","MAREA":" ","LANE":"６９巷","ALLEY":" ","HOUSE_NO":"１７號","E_COORD97":174690.98000000001,"N_COORD97":2545202.0600000001,"ADDRESS":"大灣五街６９巷１７號","OBJECTID":437148},"geometry":{"x":174690.98000000045,"y":2545202.0600000024}},{"attributes":{"ID":437174,"DIS_CODE":0,"TOWNNAME":"永康區","LI":"安康里","LIN":"25鄰","STREET":"中華路","SECT":" ","MAREA":" ","LANE":"７０３巷","ALLEY":" ","HOUSE_NO":"２６之１號","E_COORD97":170821.64999999999,"N_COORD97":2546304.1400000001,"ADDRESS":"中華路７０３巷２６之１號","OBJECTID":437149},"geometry":{"x":170821.65000000224,"y":2546304.1400000006}},{"attributes":{"ID":437175,"DIS_CODE":0,"TOWNNAME":"永康區","LI":"\u25A0洲里","LIN":"40鄰","STREET":"正南六街","SECT":" ","MAREA":" ","LANE":"１０６巷","ALLEY":" ","HOUSE_NO":"２號","E_COORD97":170935.51000000001,"N_COORD97":2548646.1800000002,"ADDRESS":"正南六街１０６巷２號","OBJECTID":437150},"geometry":{"x":170935.51000000164,"y":2548646.1799999997}},{"attributes":{"ID":437176,"DIS_CODE":0,"TOWNNAME":"永康區","LI":"埔園里","LIN":"34鄰","STREET":"永大路","SECT":"三段","MAREA":" ","LANE":"５６０巷","ALLEY":" ","HOUSE_NO":"１１號","E_COORD97":174156.39999999999,"N_COORD97":2548642.3700000001,"ADDRESS":"永大路三段５６０巷１１號","OBJECTID":437151},"geometry":{"x":174156.4000000013,"y":2548642.370000001}},{"attributes":{"ID":437177,"DIS_CODE":0,"TOWNNAME":"永康區","LI":"西灣里","LIN":"4鄰","STREET":"大灣五街","SECT":" ","MAREA":" ","LANE":"６９巷","ALLEY":" ","HOUSE_NO":"１９號","E_COORD97":174689.28,"N_COORD97":2545196.6400000001,"ADDRESS":"大灣五街６９巷１９號","OBJECTID":437152},"geometry":{"x":174689.28000000119,"y":2545196.6400000006}},{"attributes":{"ID":437178,"DIS_CODE":0,"TOWNNAME":"永康區","LI":"南灣里","LIN":"38鄰","STREET":"大安街","SECT":" ","MAREA":" ","LANE":"９７巷","ALLEY":" ","HOUSE_NO":"３９號","E_COORD97":174451.72,"N_COORD97":2545056.7400000002,"ADDRESS":"大安街９７巷３９號","OBJECTID":437153},"geometry":{"x":174451.72000000067,"y":2545056.7399999984}},{"attributes":{"ID":437179,"DIS_CODE":0,"TOWNNAME":"永康區","LI":"埔園里","LIN":"34鄰","STREET":"八德街","SECT":" ","MAREA":" ","LANE":"８８巷","ALLEY":" ","HOUSE_NO":"５３號","E_COORD97":174191.73000000001,"N_COORD97":2548638.3999999999,"ADDRESS":"八德街８８巷５３號","OBJECTID":437154},"geometry":{"x":174191.73000000138,"y":2548638.4000000004}},{"attributes":{"ID":437180,"DIS_CODE":0,"TOWNNAME":"永康區","LI":"埔園里","LIN":"34鄰","STREET":"永大路","SECT":"三段","MAREA":" ","LANE":"５６０巷","ALLEY":" ","HOUSE_NO":"９號","E_COORD97":174151.73000000001,"N_COORD97":2548640.7400000002,"ADDRESS":"永大路三段５６０巷９號","OBJECTID":437155},"geometry":{"x":174151.73000000045,"y":2548640.7400000039}},{"attributes":{"ID":437181,"DIS_CODE":0,"TOWNNAME":"永康區","LI":"東橋里","LIN":"14鄰","STREET":"東橋一路","SECT":" ","MAREA":" ","LANE":"２７０巷","ALLEY":" ","HOUSE_NO":"１２號","E_COORD97":171438.35000000001,"N_COORD97":2546665.5800000001,"ADDRESS":"東橋一路２７０巷１２號","OBJECTID":437156},"geometry":{"x":171438.35000000056,"y":2546665.5800000019}},{"attributes":{"ID":437182,"DIS_CODE":0,"TOWNNAME":"永康區","LI":"網寮里","LIN":"25鄰","STREET":"永春街","SECT":" ","MAREA":" ","LANE":"１０８巷","ALLEY":" ","HOUSE_NO":"１５號","E_COORD97":173786.66,"N_COORD97":2546611.3599999999,"ADDRESS":"永春街１０８巷１５號","OBJECTID":437157},"geometry":{"x":173786.66000000108,"y":2546611.3600000031}},{"attributes":{"ID":437183,"DIS_CODE":0,"TOWNNAME":"永康區","LI":"勝利里","LIN":"20鄰","STREET":"勝學路","SECT":" ","MAREA":" ","LANE":"２８２巷","ALLEY":" ","HOUSE_NO":"１１號","E_COORD97":171251.04000000001,"N_COORD97":2545346.8799999999,"ADDRESS":"勝學路２８２巷１１號","OBJECTID":437158},"geometry":{"x":171251.04000000097,"y":2545346.8800000008}},{"attributes":{"ID":437184,"DIS_CODE":0,"TOWNNAME":"永康區","LI":"北灣里","LIN":"13鄰","STREET":"大灣路","SECT":" ","MAREA":" ","LANE":"４４巷","ALLEY":" ","HOUSE_NO":"１１號","E_COORD97":175219.20000000001,"N_COORD97":2545854.75,"ADDRESS":"大灣路４４巷１１號","OBJECTID":437159},"geometry":{"x":175219.20000000112,"y":2545854.7500000019}},{"attributes":{"ID":437185,"DIS_CODE":0,"TOWNNAME":"永康區","LI":"崑山里","LIN":"34鄰","STREET":"大灣路","SECT":" ","MAREA":" ","LANE":"９４２巷","ALLEY":" ","HOUSE_NO":"１５８號","E_COORD97":173783.73999999999,"N_COORD97":2544896.52,"ADDRESS":"大灣路９４２巷１５８號","OBJECTID":437160},"geometry":{"x":173783.74000000022,"y":2544896.5200000014}},{"attributes":{"ID":437186,"DIS_CODE":0,"TOWNNAME":"永康區","LI":"勝利里","LIN":"20鄰","STREET":"勝學路","SECT":" ","MAREA":" ","LANE":"２８２巷","ALLEY":" ","HOUSE_NO":"２８號","E_COORD97":171275.03,"N_COORD97":2545331.3300000001,"ADDRESS":"勝學路２８２巷２８號","OBJECTID":437161},"geometry":{"x":171275.03000000119,"y":2545331.3300000019}},{"attributes":{"ID":437187,"DIS_CODE":0,"TOWNNAME":"永康區","LI":"安康里","LIN":"25鄰","STREET":"中華路","SECT":" ","MAREA":" ","LANE":"７０３巷","ALLEY":" ","HOUSE_NO":"２６之５號","E_COORD97":170804.48999999999,"N_COORD97":2546298.0899999999,"ADDRESS":"中華路７０３巷２６之５號","OBJECTID":437162},"geometry":{"x":170804.49000000115,"y":2546298.0899999999}},{"attributes":{"ID":437188,"DIS_CODE":0,"TOWNNAME":"永康區","LI":"東橋里","LIN":"17鄰","STREET":"東橋十街","SECT":" ","MAREA":" ","LANE":"８８巷","ALLEY":" ","HOUSE_NO":"７號","E_COORD97":171416.89000000001,"N_COORD97":2546881.3199999998,"ADDRESS":"東橋十街８８巷７號","OBJECTID":437163},"geometry":{"x":171416.88999999966,"y":2546881.3200000022}},{"attributes":{"ID":437189,"DIS_CODE":0,"TOWNNAME":"永康區","LI":"勝利里","LIN":"20鄰","STREET":"勝學路","SECT":" ","MAREA":" ","LANE":"２８２巷","ALLEY":" ","HOUSE_NO":"１３號","E_COORD97":171255.84,"N_COORD97":2545348.5699999998,"ADDRESS":"勝學路２８２巷１３號","OBJECTID":437164},"geometry":{"x":171255.84000000078,"y":2545348.5700000003}},{"attributes":{"ID":437190,"DIS_CODE":0,"TOWNNAME":"永康區","LI":"勝利里","LIN":"20鄰","STREET":"勝學路","SECT":" ","MAREA":" ","LANE":"２８２巷","ALLEY":" ","HOUSE_NO":"３號","E_COORD97":171230.29999999999,"N_COORD97":2545346.5,"ADDRESS":"勝學路２８２巷３號","OBJECTID":437165},"geometry":{"x":171230.30000000168,"y":2545346.5000000037}},{"attributes":{"ID":437191,"DIS_CODE":0,"TOWNNAME":"永康區","LI":"勝利里","LIN":"20鄰","STREET":"勝學路","SECT":" ","MAREA":" ","LANE":"２８２巷","ALLEY":" ","HOUSE_NO":"１９號","E_COORD97":171271.45000000001,"N_COORD97":2545347.23,"ADDRESS":"勝學路２８２巷１９號","OBJECTID":437166},"geometry":{"x":171271.45000000019,"y":2545347.2300000004}},{"attributes":{"ID":437192,"DIS_CODE":0,"TOWNNAME":"永康區","LI":"\u25A0洲里","LIN":"40鄰","STREET":"洲工街","SECT":" ","MAREA":" ","LANE":"１４５巷","ALLEY":" ","HOUSE_NO":"１６號","E_COORD97":170650.45000000001,"N_COORD97":2548652.0299999998,"ADDRESS":"洲工街１４５巷１６號","OBJECTID":437167},"geometry":{"x":170650.45000000112,"y":2548652.0300000012}},{"attributes":{"ID":437193,"DIS_CODE":0,"TOWNNAME":"永康區","LI":"\u25A0行里","LIN":"39鄰","STREET":"永安路","SECT":" ","MAREA":" ","LANE":"１０３巷","ALLEY":" ","HOUSE_NO":"１８號","E_COORD97":172743.29000000001,"N_COORD97":2549212.9700000002,"ADDRESS":"永安路１０３巷１８號","OBJECTID":437168},"geometry":{"x":172743.29000000097,"y":2549212.9700000025}},{"attributes":{"ID":437194,"DIS_CODE":0,"TOWNNAME":"永康區","LI":"勝利里","LIN":"20鄰","STREET":"勝學路","SECT":" ","MAREA":" ","LANE":"２８２巷","ALLEY":" ","HOUSE_NO":"２０號","E_COORD97":171259.53,"N_COORD97":2545330.0299999998,"ADDRESS":"勝學路２８２巷２０號","OBJECTID":437169},"geometry":{"x":171259.52999999933,"y":2545330.0300000012}},{"attributes":{"ID":437195,"DIS_CODE":0,"TOWNNAME":"永康區","LI":"埔園里","LIN":"34鄰","STREET":"永大路","SECT":"三段","MAREA":" ","LANE":"６１８巷","ALLEY":" ","HOUSE_NO":"３６號","E_COORD97":174153.95000000001,"N_COORD97":2548714.1099999999,"ADDRESS":"永大路三段６１８巷３６號","OBJECTID":437170},"geometry":{"x":174153.95000000112,"y":2548714.1099999994}},{"attributes":{"ID":437196,"DIS_CODE":0,"TOWNNAME":"永康區","LI":"勝利里","LIN":"20鄰","STREET":"勝學路","SECT":" ","MAREA":" ","LANE":"２８２巷","ALLEY":" ","HOUSE_NO":"９號","E_COORD97":171245.59,"N_COORD97":2545348.3599999999,"ADDRESS":"勝學路２８２巷９號","OBJECTID":437171},"geometry":{"x":171245.59000000078,"y":2545348.3600000013}},{"attributes":{"ID":437197,"DIS_CODE":0,"TOWNNAME":"永康區","LI":"安康里","LIN":"25鄰","STREET":"中華路","SECT":" ","MAREA":" ","LANE":"７０３巷","ALLEY":" ","HOUSE_NO":"２６之２號","E_COORD97":170816.62,"N_COORD97":2546301.2000000002,"ADDRESS":"中華路７０３巷２６之２號","OBJECTID":437172},"geometry":{"x":170816.62000000104,"y":2546301.2000000011}},{"attributes":{"ID":437198,"DIS_CODE":0,"TOWNNAME":"東區","LI":"崇善里","LIN":"4鄰","STREET":"崇善二街","SECT":" ","MAREA":" ","LANE":"８２巷","ALLEY":" ","HOUSE_NO":"８號","E_COORD97":170998.31,"N_COORD97":2542088.2200000002,"ADDRESS":"崇善二街８２巷８號","OBJECTID":437173},"geometry":{"x":170998.31000000052,"y":2542088.2200000025}},{"attributes":{"ID":437199,"DIS_CODE":0,"TOWNNAME":"永康區","LI":"勝利里","LIN":"20鄰","STREET":"勝學路","SECT":" ","MAREA":" ","LANE":"２８２巷","ALLEY":" ","HOUSE_NO":"２號","E_COORD97":171222.73999999999,"N_COORD97":2545332.9199999999,"ADDRESS":"勝學路２８２巷２號","OBJECTID":437174},"geometry":{"x":171222.74000000115,"y":2545332.9199999999}},{"attributes":{"ID":437200,"DIS_CODE":0,"TOWNNAME":"東區","LI":"仁和里","LIN":"14鄰","STREET":"自由路","SECT":"一段","MAREA":" ","LANE":"２３８巷","ALLEY":" ","HOUSE_NO":"８號","E_COORD97":171866.23999999999,"N_COORD97":2541092.3100000001,"ADDRESS":"自由路一段２３８巷８號","OBJECTID":437175},"geometry":{"x":171866.24000000022,"y":2541092.3100000005}},{"attributes":{"ID":437201,"DIS_CODE":0,"TOWNNAME":"安平區","LI":"怡平里","LIN":"13鄰","STREET":"華平路","SECT":" ","MAREA":" ","LANE":"６７２巷","ALLEY":" ","HOUSE_NO":"６號","E_COORD97":165575,"N_COORD97":2544106.0600000001,"ADDRESS":"華平路６７２巷６號","OBJECTID":437176},"geometry":{"x":165575,"y":2544106.0600000024}},{"attributes":{"ID":437202,"DIS_CODE":0,"TOWNNAME":"安平區","LI":"怡平里","LIN":"13鄰","STREET":"華平路","SECT":" ","MAREA":" ","LANE":"６７２巷","ALLEY":" ","HOUSE_NO":"８號","E_COORD97":165574.37,"N_COORD97":2544101.1899999999,"ADDRESS":"華平路６７２巷８號","OBJECTID":437177},"geometry":{"x":165574.37000000011,"y":2544101.1900000013}},{"attributes":{"ID":437203,"DIS_CODE":0,"TOWNNAME":"永康區","LI":"復華里","LIN":"4鄰","STREET":"復國二路","SECT":" ","MAREA":" ","LANE":"３０３巷","ALLEY":" ","HOUSE_NO":"１１號","E_COORD97":173008.14000000001,"N_COORD97":2546279.7200000002,"ADDRESS":"復國二路３０３巷１１號","OBJECTID":437178},"geometry":{"x":173008.1400000006,"y":2546279.7200000025}},{"attributes":{"ID":437204,"DIS_CODE":0,"TOWNNAME":"永康區","LI":"復華里","LIN":"4鄰","STREET":"復國二路","SECT":" ","MAREA":" ","LANE":"３０３巷","ALLEY":" ","HOUSE_NO":"２１號","E_COORD97":172982.51999999999,"N_COORD97":2546278.8500000001,"ADDRESS":"復國二路３０３巷２１號","OBJECTID":437179},"geometry":{"x":172982.51999999955,"y":2546278.8499999996}},{"attributes":{"ID":437205,"DIS_CODE":0,"TOWNNAME":"歸仁區","LI":"歸仁里","LIN":"14鄰","STREET":"忠孝北路","SECT":" ","MAREA":" ","LANE":"９６巷","ALLEY":" ","HOUSE_NO":"１１號","E_COORD97":178014.98999999999,"N_COORD97":2541055.5600000001,"ADDRESS":"忠孝北路９６巷１１號","OBJECTID":437180},"geometry":{"x":178014.99000000022,"y":2541055.5600000024}},{"attributes":{"ID":437206,"DIS_CODE":0,"TOWNNAME":"歸仁區","LI":"歸仁里","LIN":"14鄰","STREET":"信義北路","SECT":" ","MAREA":" ","LANE":"９６巷","ALLEY":" ","HOUSE_NO":"９號","E_COORD97":178008.73999999999,"N_COORD97":2541076.2000000002,"ADDRESS":"信義北路９６巷９號","OBJECTID":437181},"geometry":{"x":178008.74000000115,"y":2541076.2000000011}},{"attributes":{"ID":437207,"DIS_CODE":0,"TOWNNAME":"永康區","LI":"光復里","LIN":"6鄰","STREET":"復國路","SECT":" ","MAREA":" ","LANE":"６１巷","ALLEY":" ","HOUSE_NO":"１２０號","E_COORD97":172550.82000000001,"N_COORD97":2544483.3999999999,"ADDRESS":"復國路６１巷１２０號","OBJECTID":437182},"geometry":{"x":172550.8200000003,"y":2544483.4000000022}},{"attributes":{"ID":437208,"DIS_CODE":0,"TOWNNAME":"歸仁區","LI":"歸仁里","LIN":"12鄰","STREET":"信義北路","SECT":" ","MAREA":" ","LANE":"９１巷","ALLEY":" ","HOUSE_NO":"１號","E_COORD97":177963.39999999999,"N_COORD97":2541013.23,"ADDRESS":"信義北路９１巷１號","OBJECTID":437183},"geometry":{"x":177963.40000000224,"y":2541013.2300000023}},{"attributes":{"ID":437209,"DIS_CODE":0,"TOWNNAME":"永康區","LI":"大灣里","LIN":"13鄰","STREET":"大灣路六街","SECT":" ","MAREA":" ","LANE":"５９巷","ALLEY":" ","HOUSE_NO":"３０號","E_COORD97":175091.79999999999,"N_COORD97":2545293.1800000002,"ADDRESS":"大灣路六街５９巷３０號","OBJECTID":437184},"geometry":{"x":175091.80000000168,"y":2545293.1799999997}},{"attributes":{"ID":437210,"DIS_CODE":0,"TOWNNAME":"東區","LI":"泉南里","LIN":"4鄰","STREET":"東門路","SECT":"一段","MAREA":" ","LANE":"１５６巷","ALLEY":" ","HOUSE_NO":"３號之１","E_COORD97":169522.04999999999,"N_COORD97":2543110.3599999999,"ADDRESS":"東門路一段１５６巷３號之１","OBJECTID":437185},"geometry":{"x":169522.05000000075,"y":2543110.3600000013}},{"attributes":{"ID":437211,"DIS_CODE":0,"TOWNNAME":"歸仁區","LI":"崙頂里","LIN":"26鄰","STREET":"成功十街","SECT":" ","MAREA":" ","LANE":"１３３巷","ALLEY":" ","HOUSE_NO":"７號","E_COORD97":177774.95000000001,"N_COORD97":2539861.9300000002,"ADDRESS":"成功十街１３３巷７號","OBJECTID":437186},"geometry":{"x":177774.95000000112,"y":2539861.9300000016}},{"attributes":{"ID":437212,"DIS_CODE":0,"TOWNNAME":"歸仁區","LI":"崙頂里","LIN":"26鄰","STREET":"成功十街","SECT":" ","MAREA":" ","LANE":"６９巷","ALLEY":" ","HOUSE_NO":"２５號","E_COORD97":177739.56,"N_COORD97":2539783.3999999999,"ADDRESS":"成功十街６９巷２５號","OBJECTID":437187},"geometry":{"x":177739.56000000145,"y":2539783.4000000004}},{"attributes":{"ID":437213,"DIS_CODE":0,"TOWNNAME":"永康區","LI":"大灣里","LIN":"13鄰","STREET":"大灣路","SECT":" ","MAREA":" ","LANE":"２１５巷","ALLEY":" ","HOUSE_NO":"３２號","E_COORD97":175072.94,"N_COORD97":2545309.0499999998,"ADDRESS":"大灣路２１５巷３２號","OBJECTID":437188},"geometry":{"x":175072.94000000227,"y":2545309.0500000007}},{"attributes":{"ID":437214,"DIS_CODE":0,"TOWNNAME":"永康區","LI":"建國里","LIN":"4鄰","STREET":"復興路","SECT":" ","MAREA":" ","LANE":"５６巷","ALLEY":" ","HOUSE_NO":"４號","E_COORD97":172868.57000000001,"N_COORD97":2544439.1600000001,"ADDRESS":"復興路５６巷４號","OBJECTID":437189},"geometry":{"x":172868.57000000123,"y":2544439.1600000001}},{"attributes":{"ID":437215,"DIS_CODE":0,"TOWNNAME":"歸仁區","LI":"許厝里","LIN":"26鄰","STREET":"信義北路","SECT":" ","MAREA":" ","LANE":"３０巷","ALLEY":" ","HOUSE_NO":"２號","E_COORD97":178014.57999999999,"N_COORD97":2540803.4199999999,"ADDRESS":"信義北路３０巷２號","OBJECTID":437190},"geometry":{"x":178014.58000000101,"y":2540803.4199999999}},{"attributes":{"ID":437216,"DIS_CODE":0,"TOWNNAME":"歸仁區","LI":"崙頂里","LIN":"13鄰","STREET":"成功路","SECT":"二段","MAREA":" ","LANE":"１６８巷","ALLEY":" ","HOUSE_NO":"３１號","E_COORD97":177937.76999999999,"N_COORD97":2539801.3900000001,"ADDRESS":"成功路二段１６８巷３１號","OBJECTID":437191},"geometry":{"x":177937.76999999955,"y":2539801.3900000043}},{"attributes":{"ID":437217,"DIS_CODE":0,"TOWNNAME":"歸仁區","LI":"許厝里","LIN":"14鄰","STREET":"信義北路","SECT":" ","MAREA":" ","LANE":"３０巷","ALLEY":" ","HOUSE_NO":"３５號","E_COORD97":178089.57999999999,"N_COORD97":2540824.1600000001,"ADDRESS":"信義北路３０巷３５號","OBJECTID":437192},"geometry":{"x":178089.58000000101,"y":2540824.160000002}},{"attributes":{"ID":437218,"DIS_CODE":0,"TOWNNAME":"永康區","LI":"西橋里","LIN":"18鄰","STREET":"大橋一街","SECT":" ","MAREA":" ","LANE":"３１巷","ALLEY":" ","HOUSE_NO":"６１之３號","E_COORD97":170608.38,"N_COORD97":2546440.4399999999,"ADDRESS":"大橋一街３１巷６１之３號","OBJECTID":437193},"geometry":{"x":170608.38000000082,"y":2546440.4399999995}},{"attributes":{"ID":437219,"DIS_CODE":0,"TOWNNAME":"東區","LI":"大智里","LIN":"4鄰","STREET":"生產路","SECT":" ","MAREA":" ","LANE":"５３４巷","ALLEY":" ","HOUSE_NO":"６號","E_COORD97":171087.26999999999,"N_COORD97":2540582.6400000001,"ADDRESS":"生產路５３４巷６號","OBJECTID":437194},"geometry":{"x":171087.26999999955,"y":2540582.6400000043}},{"attributes":{"ID":437220,"DIS_CODE":0,"TOWNNAME":"佳里區","LI":"建南里","LIN":"38鄰","STREET":"佳南路","SECT":" ","MAREA":" ","LANE":"３６８巷","ALLEY":" ","HOUSE_NO":"１號","E_COORD97":165779.67999999999,"N_COORD97":2560965.8900000001,"ADDRESS":"佳南路３６８巷１號","OBJECTID":437195},"geometry":{"x":165779.68000000063,"y":2560965.8900000006}},{"attributes":{"ID":437221,"DIS_CODE":0,"TOWNNAME":"東區","LI":"忠孝里","LIN":"20鄰","STREET":"榮譽街","SECT":" ","MAREA":" ","LANE":"１２７巷","ALLEY":" ","HOUSE_NO":"１７號","E_COORD97":169881.70999999999,"N_COORD97":2542020.9199999999,"ADDRESS":"榮譽街１２７巷１７號","OBJECTID":437196},"geometry":{"x":169881.71000000183,"y":2542020.9200000037}},{"attributes":{"ID":437222,"DIS_CODE":0,"TOWNNAME":"永康區","LI":"東灣里","LIN":"4鄰","STREET":"大灣路","SECT":" ","MAREA":" ","LANE":"４３６巷","ALLEY":" ","HOUSE_NO":"４２號","E_COORD97":174678.51000000001,"N_COORD97":2544953.1299999999,"ADDRESS":"大灣路４３６巷４２號","OBJECTID":437197},"geometry":{"x":174678.51000000164,"y":2544953.129999999}},{"attributes":{"ID":437223,"DIS_CODE":0,"TOWNNAME":"永康區","LI":"復華里","LIN":"4鄰","STREET":"復國二路","SECT":" ","MAREA":" ","LANE":"２４３巷","ALLEY":" ","HOUSE_NO":"２之２號","E_COORD97":172984.73000000001,"N_COORD97":2546125.0099999998,"ADDRESS":"復國二路２４３巷２之２號","OBJECTID":437198},"geometry":{"x":172984.73000000138,"y":2546125.0099999998}},{"attributes":{"ID":437224,"DIS_CODE":0,"TOWNNAME":"東區","LI":"忠孝里","LIN":"20鄰","STREET":"榮譽街","SECT":" ","MAREA":" ","LANE":"１２７巷","ALLEY":" ","HOUSE_NO":"７號","E_COORD97":169890.82000000001,"N_COORD97":2542001.23,"ADDRESS":"榮譽街１２７巷７號","OBJECTID":437199},"geometry":{"x":169890.8200000003,"y":2542001.2300000004}},{"attributes":{"ID":437225,"DIS_CODE":0,"TOWNNAME":"東區","LI":"忠孝里","LIN":"20鄰","STREET":"榮譽街","SECT":" ","MAREA":" ","LANE":"１２７巷","ALLEY":" ","HOUSE_NO":"３號","E_COORD97":169897.39000000001,"N_COORD97":2542003.4500000002,"ADDRESS":"榮譽街１２７巷３號","OBJECTID":437200},"geometry":{"x":169897.3900000006,"y":2542003.4500000011}}]}