{"displayFieldName":"TOWNNAME","fieldAliases":{"ID":"ID","DIS_CODE":"DIS_CODE","TOWNNAME":"TOWNNAME","LI":"LI","LIN":"LIN","STREET":"STREET","SECT":"SECT","MAREA":"MAREA","LANE":"LANE","ALLEY":"ALLEY","HOUSE_NO":"HOUSE_NO","E_COORD97":"E_COORD97","N_COORD97":"N_COORD97","ADDRESS":"ADDRESS","OBJECTID":"OBJECTID"},"geometryType":"esriGeometryPoint","spatialReference":{"wkid":102443,"latestWkid":3826},"fields":[{"name":"ID","type":"esriFieldTypeDouble","alias":"ID"},{"name":"DIS_CODE","type":"esriFieldTypeInteger","alias":"DIS_CODE"},{"name":"TOWNNAME","type":"esriFieldTypeString","alias":"TOWNNAME","length":8},{"name":"LI","type":"esriFieldTypeString","alias":"LI","length":8},{"name":"LIN","type":"esriFieldTypeString","alias":"LIN","length":12},{"name":"STREET","type":"esriFieldTypeString","alias":"STREET","length":20},{"name":"SECT","type":"esriFieldTypeString","alias":"SECT","length":8},{"name":"MAREA","type":"esriFieldTypeString","alias":"MAREA","length":12},{"name":"LANE","type":"esriFieldTypeString","alias":"LANE","length":10},{"name":"ALLEY","type":"esriFieldTypeString","alias":"ALLEY","length":10},{"name":"HOUSE_NO","type":"esriFieldTypeString","alias":"HOUSE_NO","length":20},{"name":"E_COORD97","type":"esriFieldTypeDouble","alias":"E_COORD97"},{"name":"N_COORD97","type":"esriFieldTypeDouble","alias":"N_COORD97"},{"name":"ADDRESS","type":"esriFieldTypeString","alias":"ADDRESS","length":50},{"name":"OBJECTID","type":"esriFieldTypeOID","alias":"OBJECTID"}],"features":[{"attributes":{"ID":636028,"DIS_CODE":0,"TOWNNAME":"歸仁區","LI":"辜厝里","LIN":"18鄰","STREET":"大順一街","SECT":" ","MAREA":" ","LANE":" ","ALLEY":" ","HOUSE_NO":"１號六樓","E_COORD97":177457.67999999999,"N_COORD97":2540505.9500000002,"ADDRESS":"大順一街１號六樓","OBJECTID":636001},"geometry":{"x":177457.68000000063,"y":2540505.9500000011}},{"attributes":{"ID":636029,"DIS_CODE":0,"TOWNNAME":"歸仁區","LI":"辜厝里","LIN":"7鄰","STREET":"大順二街","SECT":" ","MAREA":" ","LANE":" ","ALLEY":" ","HOUSE_NO":"９號五樓之２","E_COORD97":177486.32999999999,"N_COORD97":2540577.6000000001,"ADDRESS":"大順二街９號五樓之２","OBJECTID":636002},"geometry":{"x":177486.33000000101,"y":2540577.5999999996}},{"attributes":{"ID":636030,"DIS_CODE":0,"TOWNNAME":"歸仁區","LI":"南保里","LIN":"56鄰","STREET":"民權南路","SECT":" ","MAREA":" ","LANE":" ","ALLEY":" ","HOUSE_NO":"１６４號二樓之４","E_COORD97":176933.39999999999,"N_COORD97":2540441.2999999998,"ADDRESS":"民權南路１６４號二樓之４","OBJECTID":636003},"geometry":{"x":176933.4000000013,"y":2540441.3000000007}},{"attributes":{"ID":636031,"DIS_CODE":0,"TOWNNAME":"歸仁區","LI":"南保里","LIN":"56鄰","STREET":"民權南路","SECT":" ","MAREA":" ","LANE":" ","ALLEY":" ","HOUSE_NO":"１６４號四樓之５","E_COORD97":176933.53,"N_COORD97":2540441.2999999998,"ADDRESS":"民權南路１６４號四樓之５","OBJECTID":636004},"geometry":{"x":176933.53000000212,"y":2540441.3000000007}},{"attributes":{"ID":636032,"DIS_CODE":0,"TOWNNAME":"歸仁區","LI":"南保里","LIN":"56鄰","STREET":"民權南路","SECT":" ","MAREA":" ","LANE":" ","ALLEY":" ","HOUSE_NO":"１６４號一樓之１","E_COORD97":176933.37,"N_COORD97":2540441.2999999998,"ADDRESS":"民權南路１６４號一樓之１","OBJECTID":636005},"geometry":{"x":176933.37000000104,"y":2540441.3000000007}},{"attributes":{"ID":636033,"DIS_CODE":0,"TOWNNAME":"歸仁區","LI":"辜厝里","LIN":"18鄰","STREET":"大順一街","SECT":" ","MAREA":" ","LANE":" ","ALLEY":" ","HOUSE_NO":"１號十一樓","E_COORD97":177457.92999999999,"N_COORD97":2540505.9500000002,"ADDRESS":"大順一街１號十一樓","OBJECTID":636006},"geometry":{"x":177457.93000000063,"y":2540505.9500000011}},{"attributes":{"ID":636034,"DIS_CODE":0,"TOWNNAME":"歸仁區","LI":"文化里","LIN":"25鄰","STREET":"民權北路","SECT":" ","MAREA":" ","LANE":" ","ALLEY":" ","HOUSE_NO":"１８６號六樓之７","E_COORD97":177048.25,"N_COORD97":2541430.3399999999,"ADDRESS":"民權北路１８６號六樓之７","OBJECTID":636007},"geometry":{"x":177048.25,"y":2541430.3399999999}},{"attributes":{"ID":636035,"DIS_CODE":0,"TOWNNAME":"歸仁區","LI":"文化里","LIN":"25鄰","STREET":"民權北路","SECT":" ","MAREA":" ","LANE":" ","ALLEY":" ","HOUSE_NO":"１８６號五樓之１","E_COORD97":177048.23000000001,"N_COORD97":2541430.3399999999,"ADDRESS":"民權北路１８６號五樓之１","OBJECTID":636008},"geometry":{"x":177048.23000000138,"y":2541430.3399999999}},{"attributes":{"ID":636036,"DIS_CODE":0,"TOWNNAME":"北區","LI":"文成里","LIN":"13鄰","STREET":"海安路","SECT":"三段","MAREA":" ","LANE":" ","ALLEY":" ","HOUSE_NO":"２８７號二樓之９","E_COORD97":167962.07999999999,"N_COORD97":2545374.8399999999,"ADDRESS":"海安路三段２８７號二樓之９","OBJECTID":636009},"geometry":{"x":167962.08000000194,"y":2545374.8400000017}},{"attributes":{"ID":636037,"DIS_CODE":0,"TOWNNAME":"北區","LI":"文成里","LIN":"13鄰","STREET":"海安路","SECT":"三段","MAREA":" ","LANE":" ","ALLEY":" ","HOUSE_NO":"２８７號八樓","E_COORD97":167962.07999999999,"N_COORD97":2545374.8399999999,"ADDRESS":"海安路三段２８７號八樓","OBJECTID":636010},"geometry":{"x":167962.08000000194,"y":2545374.8400000017}},{"attributes":{"ID":636038,"DIS_CODE":0,"TOWNNAME":"北區","LI":"文成里","LIN":"13鄰","STREET":"海安路","SECT":"三段","MAREA":" ","LANE":" ","ALLEY":" ","HOUSE_NO":"２８７號三樓之１","E_COORD97":167962.07999999999,"N_COORD97":2545374.8399999999,"ADDRESS":"海安路三段２８７號三樓之１","OBJECTID":636011},"geometry":{"x":167962.08000000194,"y":2545374.8400000017}},{"attributes":{"ID":636039,"DIS_CODE":0,"TOWNNAME":"北區","LI":"文成里","LIN":"13鄰","STREET":"海安路","SECT":"三段","MAREA":" ","LANE":" ","ALLEY":" ","HOUSE_NO":"２８７號三樓之１０","E_COORD97":167962.07999999999,"N_COORD97":2545374.8399999999,"ADDRESS":"海安路三段２８７號三樓之１０","OBJECTID":636012},"geometry":{"x":167962.08000000194,"y":2545374.8400000017}},{"attributes":{"ID":636040,"DIS_CODE":0,"TOWNNAME":"北區","LI":"文成里","LIN":"13鄰","STREET":"海安路","SECT":"三段","MAREA":" ","LANE":" ","ALLEY":" ","HOUSE_NO":"２８７號三樓之１１","E_COORD97":167962.07999999999,"N_COORD97":2545374.8399999999,"ADDRESS":"海安路三段２８７號三樓之１１","OBJECTID":636013},"geometry":{"x":167962.08000000194,"y":2545374.8400000017}},{"attributes":{"ID":636041,"DIS_CODE":0,"TOWNNAME":"北區","LI":"文成里","LIN":"13鄰","STREET":"海安路","SECT":"三段","MAREA":" ","LANE":" ","ALLEY":" ","HOUSE_NO":"２８７號三樓之１２","E_COORD97":167962.07999999999,"N_COORD97":2545374.8399999999,"ADDRESS":"海安路三段２８７號三樓之１２","OBJECTID":636014},"geometry":{"x":167962.08000000194,"y":2545374.8400000017}},{"attributes":{"ID":636042,"DIS_CODE":0,"TOWNNAME":"北區","LI":"文成里","LIN":"13鄰","STREET":"海安路","SECT":"三段","MAREA":" ","LANE":" ","ALLEY":" ","HOUSE_NO":"２８７號三樓之１５","E_COORD97":167962.07999999999,"N_COORD97":2545374.8399999999,"ADDRESS":"海安路三段２８７號三樓之１５","OBJECTID":636015},"geometry":{"x":167962.08000000194,"y":2545374.8400000017}},{"attributes":{"ID":636043,"DIS_CODE":0,"TOWNNAME":"北區","LI":"文成里","LIN":"13鄰","STREET":"海安路","SECT":"三段","MAREA":" ","LANE":" ","ALLEY":" ","HOUSE_NO":"２８７號三樓之１６","E_COORD97":167962.07999999999,"N_COORD97":2545374.8399999999,"ADDRESS":"海安路三段２８７號三樓之１６","OBJECTID":636016},"geometry":{"x":167962.08000000194,"y":2545374.8400000017}},{"attributes":{"ID":636044,"DIS_CODE":0,"TOWNNAME":"北區","LI":"文成里","LIN":"13鄰","STREET":"海安路","SECT":"三段","MAREA":" ","LANE":" ","ALLEY":" ","HOUSE_NO":"２８７號三樓之１７","E_COORD97":167962.07999999999,"N_COORD97":2545374.8399999999,"ADDRESS":"海安路三段２８７號三樓之１７","OBJECTID":636017},"geometry":{"x":167962.08000000194,"y":2545374.8400000017}},{"attributes":{"ID":636045,"DIS_CODE":0,"TOWNNAME":"北區","LI":"文成里","LIN":"13鄰","STREET":"海安路","SECT":"三段","MAREA":" ","LANE":" ","ALLEY":" ","HOUSE_NO":"２８７號三樓之１８","E_COORD97":167962.07999999999,"N_COORD97":2545374.8399999999,"ADDRESS":"海安路三段２８７號三樓之１８","OBJECTID":636018},"geometry":{"x":167962.08000000194,"y":2545374.8400000017}},{"attributes":{"ID":636046,"DIS_CODE":0,"TOWNNAME":"北區","LI":"文成里","LIN":"13鄰","STREET":"海安路","SECT":"三段","MAREA":" ","LANE":" ","ALLEY":" ","HOUSE_NO":"２８７號三樓之１９","E_COORD97":167962.07999999999,"N_COORD97":2545374.8399999999,"ADDRESS":"海安路三段２８７號三樓之１９","OBJECTID":636019},"geometry":{"x":167962.08000000194,"y":2545374.8400000017}},{"attributes":{"ID":636047,"DIS_CODE":0,"TOWNNAME":"北區","LI":"文成里","LIN":"13鄰","STREET":"海安路","SECT":"三段","MAREA":" ","LANE":" ","ALLEY":" ","HOUSE_NO":"２８７號三樓之２","E_COORD97":167962.07999999999,"N_COORD97":2545374.8399999999,"ADDRESS":"海安路三段２８７號三樓之２","OBJECTID":636020},"geometry":{"x":167962.08000000194,"y":2545374.8400000017}},{"attributes":{"ID":636048,"DIS_CODE":0,"TOWNNAME":"北區","LI":"文成里","LIN":"13鄰","STREET":"海安路","SECT":"三段","MAREA":" ","LANE":" ","ALLEY":" ","HOUSE_NO":"２８７號三樓之３","E_COORD97":167962.07999999999,"N_COORD97":2545374.8399999999,"ADDRESS":"海安路三段２８７號三樓之３","OBJECTID":636021},"geometry":{"x":167962.08000000194,"y":2545374.8400000017}},{"attributes":{"ID":636049,"DIS_CODE":0,"TOWNNAME":"北區","LI":"文成里","LIN":"13鄰","STREET":"海安路","SECT":"三段","MAREA":" ","LANE":" ","ALLEY":" ","HOUSE_NO":"２８７號三樓之５","E_COORD97":167962.07999999999,"N_COORD97":2545374.8399999999,"ADDRESS":"海安路三段２８７號三樓之５","OBJECTID":636022},"geometry":{"x":167962.08000000194,"y":2545374.8400000017}},{"attributes":{"ID":636050,"DIS_CODE":0,"TOWNNAME":"北區","LI":"文成里","LIN":"13鄰","STREET":"海安路","SECT":"三段","MAREA":" ","LANE":" ","ALLEY":" ","HOUSE_NO":"２８７號三樓之６","E_COORD97":167962.07999999999,"N_COORD97":2545374.8399999999,"ADDRESS":"海安路三段２８７號三樓之６","OBJECTID":636023},"geometry":{"x":167962.08000000194,"y":2545374.8400000017}},{"attributes":{"ID":636051,"DIS_CODE":0,"TOWNNAME":"北區","LI":"文成里","LIN":"13鄰","STREET":"海安路","SECT":"三段","MAREA":" ","LANE":" ","ALLEY":" ","HOUSE_NO":"２８７號三樓之７","E_COORD97":167962.07999999999,"N_COORD97":2545374.8399999999,"ADDRESS":"海安路三段２８７號三樓之７","OBJECTID":636024},"geometry":{"x":167962.08000000194,"y":2545374.8400000017}},{"attributes":{"ID":636052,"DIS_CODE":0,"TOWNNAME":"北區","LI":"文成里","LIN":"13鄰","STREET":"海安路","SECT":"三段","MAREA":" ","LANE":" ","ALLEY":" ","HOUSE_NO":"２８７號三樓之８","E_COORD97":167962.07999999999,"N_COORD97":2545374.8399999999,"ADDRESS":"海安路三段２８７號三樓之８","OBJECTID":636025},"geometry":{"x":167962.08000000194,"y":2545374.8400000017}},{"attributes":{"ID":636053,"DIS_CODE":0,"TOWNNAME":"北區","LI":"文成里","LIN":"13鄰","STREET":"海安路","SECT":"三段","MAREA":" ","LANE":" ","ALLEY":" ","HOUSE_NO":"２８７號三樓之９","E_COORD97":167962.07999999999,"N_COORD97":2545374.8399999999,"ADDRESS":"海安路三段２８７號三樓之９","OBJECTID":636026},"geometry":{"x":167962.08000000194,"y":2545374.8400000017}},{"attributes":{"ID":636054,"DIS_CODE":0,"TOWNNAME":"北區","LI":"文成里","LIN":"13鄰","STREET":"海安路","SECT":"三段","MAREA":" ","LANE":" ","ALLEY":" ","HOUSE_NO":"２８７號五樓之１","E_COORD97":167962.07999999999,"N_COORD97":2545374.8399999999,"ADDRESS":"海安路三段２８７號五樓之１","OBJECTID":636027},"geometry":{"x":167962.08000000194,"y":2545374.8400000017}},{"attributes":{"ID":636055,"DIS_CODE":0,"TOWNNAME":"北區","LI":"文成里","LIN":"13鄰","STREET":"海安路","SECT":"三段","MAREA":" ","LANE":" ","ALLEY":" ","HOUSE_NO":"２８７號五樓之１０","E_COORD97":167962.07999999999,"N_COORD97":2545374.8399999999,"ADDRESS":"海安路三段２８７號五樓之１０","OBJECTID":636028},"geometry":{"x":167962.08000000194,"y":2545374.8400000017}},{"attributes":{"ID":636056,"DIS_CODE":0,"TOWNNAME":"北區","LI":"文成里","LIN":"13鄰","STREET":"海安路","SECT":"三段","MAREA":" ","LANE":" ","ALLEY":" ","HOUSE_NO":"２８７號五樓之１１","E_COORD97":167962.07999999999,"N_COORD97":2545374.8399999999,"ADDRESS":"海安路三段２８７號五樓之１１","OBJECTID":636029},"geometry":{"x":167962.08000000194,"y":2545374.8400000017}},{"attributes":{"ID":636057,"DIS_CODE":0,"TOWNNAME":"北區","LI":"公園里","LIN":"17鄰","STREET":"成功路","SECT":" ","MAREA":" ","LANE":" ","ALLEY":" ","HOUSE_NO":"５４號四樓之３","E_COORD97":168749.89999999999,"N_COORD97":2544293.8799999999,"ADDRESS":"成功路５４號四樓之３","OBJECTID":636030},"geometry":{"x":168749.90000000037,"y":2544293.879999999}},{"attributes":{"ID":636058,"DIS_CODE":0,"TOWNNAME":"北區","LI":"華興里","LIN":"1鄰","STREET":"開元路","SECT":" ","MAREA":" ","LANE":" ","ALLEY":" ","HOUSE_NO":"２８６號二樓","E_COORD97":170314.47,"N_COORD97":2545437.54,"ADDRESS":"開元路２８６號二樓","OBJECTID":636031},"geometry":{"x":170314.46999999974,"y":2545437.540000001}},{"attributes":{"ID":636059,"DIS_CODE":0,"TOWNNAME":"北區","LI":"華興里","LIN":"1鄰","STREET":"開元路","SECT":" ","MAREA":" ","LANE":" ","ALLEY":" ","HOUSE_NO":"２８６號三樓","E_COORD97":170314.47,"N_COORD97":2545437.54,"ADDRESS":"開元路２８６號三樓","OBJECTID":636032},"geometry":{"x":170314.46999999974,"y":2545437.540000001}},{"attributes":{"ID":636060,"DIS_CODE":0,"TOWNNAME":"北區","LI":"華興里","LIN":"1鄰","STREET":"開元路","SECT":" ","MAREA":" ","LANE":" ","ALLEY":" ","HOUSE_NO":"２８６號四樓","E_COORD97":170314.47,"N_COORD97":2545437.54,"ADDRESS":"開元路２８６號四樓","OBJECTID":636033},"geometry":{"x":170314.46999999974,"y":2545437.540000001}},{"attributes":{"ID":636061,"DIS_CODE":0,"TOWNNAME":"北區","LI":"華興里","LIN":"1鄰","STREET":"開元路","SECT":" ","MAREA":" ","LANE":" ","ALLEY":" ","HOUSE_NO":"２８６號五樓之１","E_COORD97":170314.47,"N_COORD97":2545437.54,"ADDRESS":"開元路２８６號五樓之１","OBJECTID":636034},"geometry":{"x":170314.46999999974,"y":2545437.540000001}},{"attributes":{"ID":636062,"DIS_CODE":0,"TOWNNAME":"北區","LI":"華興里","LIN":"1鄰","STREET":"開元路","SECT":" ","MAREA":" ","LANE":" ","ALLEY":" ","HOUSE_NO":"２８６號五樓之２","E_COORD97":170314.47,"N_COORD97":2545437.54,"ADDRESS":"開元路２８６號五樓之２","OBJECTID":636035},"geometry":{"x":170314.46999999974,"y":2545437.540000001}},{"attributes":{"ID":636063,"DIS_CODE":0,"TOWNNAME":"北區","LI":"華興里","LIN":"1鄰","STREET":"開元路","SECT":" ","MAREA":" ","LANE":" ","ALLEY":" ","HOUSE_NO":"２８６號六樓之１","E_COORD97":170314.47,"N_COORD97":2545437.54,"ADDRESS":"開元路２８６號六樓之１","OBJECTID":636036},"geometry":{"x":170314.46999999974,"y":2545437.540000001}},{"attributes":{"ID":636064,"DIS_CODE":0,"TOWNNAME":"北區","LI":"華興里","LIN":"1鄰","STREET":"開元路","SECT":" ","MAREA":" ","LANE":" ","ALLEY":" ","HOUSE_NO":"２８６號六樓之２","E_COORD97":170314.47,"N_COORD97":2545437.54,"ADDRESS":"開元路２８６號六樓之２","OBJECTID":636037},"geometry":{"x":170314.46999999974,"y":2545437.540000001}},{"attributes":{"ID":636065,"DIS_CODE":0,"TOWNNAME":"北區","LI":"實踐里","LIN":"17鄰","STREET":"大武街","SECT":" ","MAREA":" ","LANE":" ","ALLEY":" ","HOUSE_NO":"１６８號二樓之１","E_COORD97":169671.70000000001,"N_COORD97":2546119.5299999998,"ADDRESS":"大武街１６８號二樓之１","OBJECTID":636038},"geometry":{"x":169671.70000000205,"y":2546119.5300000012}},{"attributes":{"ID":636066,"DIS_CODE":0,"TOWNNAME":"北區","LI":"實踐里","LIN":"17鄰","STREET":"大武街","SECT":" ","MAREA":" ","LANE":" ","ALLEY":" ","HOUSE_NO":"１６８號七樓之５","E_COORD97":169671.70000000001,"N_COORD97":2546119.5299999998,"ADDRESS":"大武街１６８號七樓之５","OBJECTID":636039},"geometry":{"x":169671.70000000205,"y":2546119.5300000012}},{"attributes":{"ID":636067,"DIS_CODE":0,"TOWNNAME":"北區","LI":"實踐里","LIN":"17鄰","STREET":"大武街","SECT":" ","MAREA":" ","LANE":" ","ALLEY":" ","HOUSE_NO":"１６８號四樓之２","E_COORD97":169671.70000000001,"N_COORD97":2546119.5299999998,"ADDRESS":"大武街１６８號四樓之２","OBJECTID":636040},"geometry":{"x":169671.70000000205,"y":2546119.5300000012}},{"attributes":{"ID":636068,"DIS_CODE":0,"TOWNNAME":"北區","LI":"實踐里","LIN":"17鄰","STREET":"大武街","SECT":" ","MAREA":" ","LANE":" ","ALLEY":" ","HOUSE_NO":"１６８號七樓之１","E_COORD97":169671.70000000001,"N_COORD97":2546119.5299999998,"ADDRESS":"大武街１６８號七樓之１","OBJECTID":636041},"geometry":{"x":169671.70000000205,"y":2546119.5300000012}},{"attributes":{"ID":636069,"DIS_CODE":0,"TOWNNAME":"北區","LI":"實踐里","LIN":"17鄰","STREET":"大武街","SECT":" ","MAREA":" ","LANE":" ","ALLEY":" ","HOUSE_NO":"１６８號七樓之２","E_COORD97":169671.70000000001,"N_COORD97":2546119.5299999998,"ADDRESS":"大武街１６８號七樓之２","OBJECTID":636042},"geometry":{"x":169671.70000000205,"y":2546119.5300000012}},{"attributes":{"ID":636070,"DIS_CODE":0,"TOWNNAME":"北區","LI":"實踐里","LIN":"17鄰","STREET":"大武街","SECT":" ","MAREA":" ","LANE":" ","ALLEY":" ","HOUSE_NO":"１６８號七樓之３","E_COORD97":169671.70000000001,"N_COORD97":2546119.5299999998,"ADDRESS":"大武街１６８號七樓之３","OBJECTID":636043},"geometry":{"x":169671.70000000205,"y":2546119.5300000012}},{"attributes":{"ID":636071,"DIS_CODE":0,"TOWNNAME":"北區","LI":"實踐里","LIN":"17鄰","STREET":"大武街","SECT":" ","MAREA":" ","LANE":" ","ALLEY":" ","HOUSE_NO":"１６８號七樓之４","E_COORD97":169671.70000000001,"N_COORD97":2546119.5299999998,"ADDRESS":"大武街１６８號七樓之４","OBJECTID":636044},"geometry":{"x":169671.70000000205,"y":2546119.5300000012}},{"attributes":{"ID":636072,"DIS_CODE":0,"TOWNNAME":"北區","LI":"實踐里","LIN":"17鄰","STREET":"大武街","SECT":" ","MAREA":" ","LANE":" ","ALLEY":" ","HOUSE_NO":"１６８號三樓之１","E_COORD97":169671.70000000001,"N_COORD97":2546119.5299999998,"ADDRESS":"大武街１６８號三樓之１","OBJECTID":636045},"geometry":{"x":169671.70000000205,"y":2546119.5300000012}},{"attributes":{"ID":636073,"DIS_CODE":0,"TOWNNAME":"北區","LI":"實踐里","LIN":"17鄰","STREET":"大武街","SECT":" ","MAREA":" ","LANE":" ","ALLEY":" ","HOUSE_NO":"１６８號三樓之２","E_COORD97":169671.70000000001,"N_COORD97":2546119.5299999998,"ADDRESS":"大武街１６８號三樓之２","OBJECTID":636046},"geometry":{"x":169671.70000000205,"y":2546119.5300000012}},{"attributes":{"ID":636074,"DIS_CODE":0,"TOWNNAME":"歸仁區","LI":"文化里","LIN":"25鄰","STREET":"民權北路","SECT":" ","MAREA":" ","LANE":" ","ALLEY":" ","HOUSE_NO":"１８６號七樓之１","E_COORD97":177048.23000000001,"N_COORD97":2541430.3399999999,"ADDRESS":"民權北路１８６號七樓之１","OBJECTID":636047},"geometry":{"x":177048.23000000138,"y":2541430.3399999999}},{"attributes":{"ID":636075,"DIS_CODE":0,"TOWNNAME":"歸仁區","LI":"文化里","LIN":"25鄰","STREET":"民權北路","SECT":" ","MAREA":" ","LANE":" ","ALLEY":" ","HOUSE_NO":"１８６號七樓之５","E_COORD97":177048.26000000001,"N_COORD97":2541430.3399999999,"ADDRESS":"民權北路１８６號七樓之５","OBJECTID":636048},"geometry":{"x":177048.26000000164,"y":2541430.3399999999}},{"attributes":{"ID":636076,"DIS_CODE":0,"TOWNNAME":"歸仁區","LI":"文化里","LIN":"25鄰","STREET":"民權北路","SECT":" ","MAREA":" ","LANE":" ","ALLEY":" ","HOUSE_NO":"１８６號四樓之７","E_COORD97":177048.25,"N_COORD97":2541430.3399999999,"ADDRESS":"民權北路１８６號四樓之７","OBJECTID":636049},"geometry":{"x":177048.25,"y":2541430.3399999999}},{"attributes":{"ID":636077,"DIS_CODE":0,"TOWNNAME":"歸仁區","LI":"八甲里","LIN":"15鄰","STREET":"大仁七街","SECT":" ","MAREA":" ","LANE":" ","ALLEY":" ","HOUSE_NO":"６０號四樓之８","E_COORD97":178121.48000000001,"N_COORD97":2541730.6200000001,"ADDRESS":"大仁七街６０號四樓之８","OBJECTID":636050},"geometry":{"x":178121.48000000045,"y":2541730.6200000029}},{"attributes":{"ID":636078,"DIS_CODE":0,"TOWNNAME":"歸仁區","LI":"八甲里","LIN":"15鄰","STREET":"大仁七街","SECT":" ","MAREA":" ","LANE":" ","ALLEY":" ","HOUSE_NO":"６０號六樓之８","E_COORD97":178121.48000000001,"N_COORD97":2541730.6200000001,"ADDRESS":"大仁七街６０號六樓之８","OBJECTID":636051},"geometry":{"x":178121.48000000045,"y":2541730.6200000029}},{"attributes":{"ID":636079,"DIS_CODE":0,"TOWNNAME":"南區","LI":"大成里","LIN":" ","STREET":"健康路","SECT":"一段","MAREA":" ","LANE":" ","ALLEY":" ","HOUSE_NO":"３９３號四樓","E_COORD97":167904.79999999999,"N_COORD97":2542433.5699999998,"ADDRESS":"健康路一段３９３號四樓","OBJECTID":636052},"geometry":{"x":167904.80000000075,"y":2542433.5700000003}},{"attributes":{"ID":636080,"DIS_CODE":0,"TOWNNAME":"南區","LI":"大成里","LIN":" ","STREET":"健康路","SECT":"一段","MAREA":" ","LANE":" ","ALLEY":" ","HOUSE_NO":"３９３號二樓","E_COORD97":167904.79999999999,"N_COORD97":2542433.5699999998,"ADDRESS":"健康路一段３９３號二樓","OBJECTID":636053},"geometry":{"x":167904.80000000075,"y":2542433.5700000003}},{"attributes":{"ID":636081,"DIS_CODE":0,"TOWNNAME":"南區","LI":"大成里","LIN":" ","STREET":"健康路","SECT":"一段","MAREA":" ","LANE":" ","ALLEY":" ","HOUSE_NO":"３９３號三樓","E_COORD97":167904.79999999999,"N_COORD97":2542433.5699999998,"ADDRESS":"健康路一段３９３號三樓","OBJECTID":636054},"geometry":{"x":167904.80000000075,"y":2542433.5700000003}},{"attributes":{"ID":636082,"DIS_CODE":0,"TOWNNAME":"南區","LI":"大成里","LIN":" ","STREET":"健康路","SECT":"一段","MAREA":" ","LANE":" ","ALLEY":" ","HOUSE_NO":"３９３號五樓","E_COORD97":167904.79999999999,"N_COORD97":2542433.5699999998,"ADDRESS":"健康路一段３９３號五樓","OBJECTID":636055},"geometry":{"x":167904.80000000075,"y":2542433.5700000003}},{"attributes":{"ID":636083,"DIS_CODE":0,"TOWNNAME":"新營區","LI":"忠政里","LIN":"4鄰","STREET":"中正路","SECT":" ","MAREA":" ","LANE":" ","ALLEY":" ","HOUSE_NO":"３７號之４四樓","E_COORD97":180091.66,"N_COORD97":2579178.1299999999,"ADDRESS":"中正路３７號之４四樓","OBJECTID":636056},"geometry":{"x":180091.66000000015,"y":2579178.1300000008}},{"attributes":{"ID":636084,"DIS_CODE":0,"TOWNNAME":"新營區","LI":"大宏里","LIN":"4鄰","STREET":"綠川北街","SECT":" ","MAREA":" ","LANE":" ","ALLEY":" ","HOUSE_NO":"１２５號三樓","E_COORD97":180236.20000000001,"N_COORD97":2578662.4399999999,"ADDRESS":"綠川北街１２５號三樓","OBJECTID":636057},"geometry":{"x":180236.20000000205,"y":2578662.4399999995}},{"attributes":{"ID":636085,"DIS_CODE":0,"TOWNNAME":"新營區","LI":"民榮里","LIN":" ","STREET":"裕民路","SECT":" ","MAREA":" ","LANE":" ","ALLEY":" ","HOUSE_NO":"１４之２號四樓","E_COORD97":179130.32999999999,"N_COORD97":2577936.8199999998,"ADDRESS":"裕民路１４之２號四樓","OBJECTID":636058},"geometry":{"x":179130.33000000101,"y":2577936.8200000022}},{"attributes":{"ID":636086,"DIS_CODE":0,"TOWNNAME":"新營區","LI":"永生里","LIN":" ","STREET":"康樂街","SECT":" ","MAREA":" ","LANE":" ","ALLEY":" ","HOUSE_NO":"１之８號７樓","E_COORD97":180081.31,"N_COORD97":2577920.1099999999,"ADDRESS":"康樂街１之８號７樓","OBJECTID":636059},"geometry":{"x":180081.31000000052,"y":2577920.1100000031}},{"attributes":{"ID":636087,"DIS_CODE":0,"TOWNNAME":"新營區","LI":"興業里","LIN":"20鄰","STREET":"中山路","SECT":" ","MAREA":" ","LANE":" ","ALLEY":" ","HOUSE_NO":"１１５號十二樓之２","E_COORD97":180280.57999999999,"N_COORD97":2578215.9900000002,"ADDRESS":"中山路１１５號十二樓之２","OBJECTID":636060},"geometry":{"x":180280.58000000007,"y":2578215.9900000002}},{"attributes":{"ID":636088,"DIS_CODE":0,"TOWNNAME":"新營區","LI":"新東里","LIN":"26鄰","STREET":"東興五街","SECT":" ","MAREA":" ","LANE":" ","ALLEY":" ","HOUSE_NO":"１號二樓","E_COORD97":180728.63,"N_COORD97":2579509.5299999998,"ADDRESS":"東興五街１號二樓","OBJECTID":636061},"geometry":{"x":180728.63000000082,"y":2579509.5299999993}},{"attributes":{"ID":636089,"DIS_CODE":0,"TOWNNAME":"新營區","LI":"大宏里","LIN":"4鄰","STREET":"綠川北街","SECT":" ","MAREA":" ","LANE":" ","ALLEY":" ","HOUSE_NO":"１２７號四樓","E_COORD97":180236.20000000001,"N_COORD97":2578662.4399999999,"ADDRESS":"綠川北街１２７號四樓","OBJECTID":636062},"geometry":{"x":180236.20000000205,"y":2578662.4399999995}},{"attributes":{"ID":636090,"DIS_CODE":0,"TOWNNAME":"新營區","LI":"忠政里","LIN":" ","STREET":"健康路","SECT":" ","MAREA":" ","LANE":" ","ALLEY":" ","HOUSE_NO":"２９２號四樓之２","E_COORD97":179675.42999999999,"N_COORD97":2579624.2000000002,"ADDRESS":"健康路２９２號四樓之２","OBJECTID":636063},"geometry":{"x":179675.43000000063,"y":2579624.1999999974}},{"attributes":{"ID":636091,"DIS_CODE":0,"TOWNNAME":"新營區","LI":"民權里","LIN":"24鄰","STREET":"民權路","SECT":" ","MAREA":" ","LANE":" ","ALLEY":" ","HOUSE_NO":"９６之２８號七樓","E_COORD97":179671.06,"N_COORD97":2578677.3500000001,"ADDRESS":"民權路９６之２８號七樓","OBJECTID":636064},"geometry":{"x":179671.06000000052,"y":2578677.3499999996}},{"attributes":{"ID":636092,"DIS_CODE":0,"TOWNNAME":"新營區","LI":"大宏里","LIN":"4鄰","STREET":"綠川北街","SECT":" ","MAREA":" ","LANE":" ","ALLEY":" ","HOUSE_NO":"１２６號五樓","E_COORD97":180236.20000000001,"N_COORD97":2578662.4399999999,"ADDRESS":"綠川北街１２６號五樓","OBJECTID":636065},"geometry":{"x":180236.20000000205,"y":2578662.4399999995}},{"attributes":{"ID":636093,"DIS_CODE":0,"TOWNNAME":"新營區","LI":"新南里","LIN":" ","STREET":"明清二街","SECT":" ","MAREA":" ","LANE":" ","ALLEY":" ","HOUSE_NO":"１７１號一樓","E_COORD97":178279.66,"N_COORD97":2578698.3599999999,"ADDRESS":"明清二街１７１號一樓","OBJECTID":636066},"geometry":{"x":178279.66000000015,"y":2578698.3600000013}},{"attributes":{"ID":636094,"DIS_CODE":0,"TOWNNAME":"新營區","LI":"延平里","LIN":" ","STREET":"延平路","SECT":" ","MAREA":" ","LANE":" ","ALLEY":" ","HOUSE_NO":"４０之１號三樓之２","E_COORD97":179768.48000000001,"N_COORD97":2577845.1899999999,"ADDRESS":"延平路４０之１號三樓之２","OBJECTID":636067},"geometry":{"x":179768.48000000138,"y":2577845.1900000013}},{"attributes":{"ID":636095,"DIS_CODE":0,"TOWNNAME":"新營區","LI":"民榮里","LIN":"17鄰","STREET":"富強街","SECT":" ","MAREA":" ","LANE":" ","ALLEY":" ","HOUSE_NO":"５７號七樓","E_COORD97":178908.56,"N_COORD97":2577856.98,"ADDRESS":"富強街５７號七樓","OBJECTID":636068},"geometry":{"x":178908.55999999959,"y":2577856.9800000004}},{"attributes":{"ID":636096,"DIS_CODE":0,"TOWNNAME":"新營區","LI":"永生里","LIN":" ","STREET":"康樂街","SECT":" ","MAREA":" ","LANE":" ","ALLEY":" ","HOUSE_NO":"１之７號５樓","E_COORD97":180081.31,"N_COORD97":2577920.1099999999,"ADDRESS":"康樂街１之７號５樓","OBJECTID":636069},"geometry":{"x":180081.31000000052,"y":2577920.1100000031}},{"attributes":{"ID":636097,"DIS_CODE":0,"TOWNNAME":"新營區","LI":"永生里","LIN":" ","STREET":"康樂街","SECT":" ","MAREA":" ","LANE":" ","ALLEY":" ","HOUSE_NO":"１之８號５樓","E_COORD97":180081.31,"N_COORD97":2577920.1099999999,"ADDRESS":"康樂街１之８號５樓","OBJECTID":636070},"geometry":{"x":180081.31000000052,"y":2577920.1100000031}},{"attributes":{"ID":636098,"DIS_CODE":0,"TOWNNAME":"新營區","LI":"嘉芳里","LIN":" ","STREET":"復興路","SECT":" ","MAREA":" ","LANE":" ","ALLEY":" ","HOUSE_NO":"１０７２號八樓","E_COORD97":176137.81,"N_COORD97":2578858.4100000001,"ADDRESS":"復興路１０７２號八樓","OBJECTID":636071},"geometry":{"x":176137.81000000052,"y":2578858.410000002}},{"attributes":{"ID":636099,"DIS_CODE":0,"TOWNNAME":"新營區","LI":"嘉芳里","LIN":" ","STREET":"復興路","SECT":" ","MAREA":" ","LANE":" ","ALLEY":" ","HOUSE_NO":"１０７２號十二樓","E_COORD97":176139.06,"N_COORD97":2578858.4100000001,"ADDRESS":"復興路１０７２號十二樓","OBJECTID":636072},"geometry":{"x":176139.05999999866,"y":2578858.410000002}},{"attributes":{"ID":636100,"DIS_CODE":0,"TOWNNAME":"新營區","LI":"三仙里","LIN":"24鄰","STREET":"三興街","SECT":" ","MAREA":" ","LANE":" ","ALLEY":" ","HOUSE_NO":"５２之２號四樓之４","E_COORD97":179451.89999999999,"N_COORD97":2578890.6899999999,"ADDRESS":"三興街５２之２號四樓之４","OBJECTID":636073},"geometry":{"x":179451.90000000224,"y":2578890.6900000013}},{"attributes":{"ID":636101,"DIS_CODE":0,"TOWNNAME":"新營區","LI":"民榮里","LIN":"34鄰","STREET":"復興路","SECT":" ","MAREA":" ","LANE":" ","ALLEY":" ","HOUSE_NO":"３０１號七樓之５","E_COORD97":178608.69,"N_COORD97":2578135.3500000001,"ADDRESS":"復興路３０１號七樓之５","OBJECTID":636074},"geometry":{"x":178608.69000000041,"y":2578135.3500000034}},{"attributes":{"ID":636102,"DIS_CODE":0,"TOWNNAME":"新營區","LI":"民榮里","LIN":"24鄰","STREET":"裕民路","SECT":" ","MAREA":" ","LANE":" ","ALLEY":" ","HOUSE_NO":"１４號三樓","E_COORD97":179127.82999999999,"N_COORD97":2577936.7799999998,"ADDRESS":"裕民路１４號三樓","OBJECTID":636075},"geometry":{"x":179127.83000000007,"y":2577936.7800000012}},{"attributes":{"ID":636103,"DIS_CODE":0,"TOWNNAME":"北區","LI":"重興里","LIN":"4鄰","STREET":"東豐路","SECT":" ","MAREA":" ","LANE":" ","ALLEY":" ","HOUSE_NO":"４１１號","E_COORD97":170679.32999999999,"N_COORD97":2544774.9300000002,"ADDRESS":"東豐路４１１號","OBJECTID":636076},"geometry":{"x":170679.33000000194,"y":2544774.9300000016}},{"attributes":{"ID":636104,"DIS_CODE":0,"TOWNNAME":"安平區","LI":"怡平里","LIN":"4鄰","STREET":"建平十七街","SECT":" ","MAREA":" ","LANE":" ","ALLEY":" ","HOUSE_NO":"２３１號九樓之７","E_COORD97":165551.87,"N_COORD97":2544199.1600000001,"ADDRESS":"建平十七街２３１號九樓之７","OBJECTID":636077},"geometry":{"x":165551.87000000104,"y":2544199.1600000001}},{"attributes":{"ID":636105,"DIS_CODE":0,"TOWNNAME":"安平區","LI":"怡平里","LIN":"4鄰","STREET":"建平十七街","SECT":" ","MAREA":" ","LANE":" ","ALLEY":" ","HOUSE_NO":"２３１號九樓之８","E_COORD97":165551.87,"N_COORD97":2544199.1600000001,"ADDRESS":"建平十七街２３１號九樓之８","OBJECTID":636078},"geometry":{"x":165551.87000000104,"y":2544199.1600000001}},{"attributes":{"ID":636106,"DIS_CODE":0,"TOWNNAME":"安平區","LI":"怡平里","LIN":"4鄰","STREET":"建平十七街","SECT":" ","MAREA":" ","LANE":" ","ALLEY":" ","HOUSE_NO":"２３１號九樓之９","E_COORD97":165551.87,"N_COORD97":2544199.1600000001,"ADDRESS":"建平十七街２３１號九樓之９","OBJECTID":636079},"geometry":{"x":165551.87000000104,"y":2544199.1600000001}},{"attributes":{"ID":636107,"DIS_CODE":0,"TOWNNAME":"安平區","LI":"怡平里","LIN":"4鄰","STREET":"建平十七街","SECT":" ","MAREA":" ","LANE":" ","ALLEY":" ","HOUSE_NO":"２３１號九樓之１０","E_COORD97":165551.87,"N_COORD97":2544199.1600000001,"ADDRESS":"建平十七街２３１號九樓之１０","OBJECTID":636080},"geometry":{"x":165551.87000000104,"y":2544199.1600000001}},{"attributes":{"ID":636108,"DIS_CODE":0,"TOWNNAME":"安平區","LI":"怡平里","LIN":"4鄰","STREET":"建平十七街","SECT":" ","MAREA":" ","LANE":" ","ALLEY":" ","HOUSE_NO":"２３１號九樓之１１","E_COORD97":165551.87,"N_COORD97":2544199.1600000001,"ADDRESS":"建平十七街２３１號九樓之１１","OBJECTID":636081},"geometry":{"x":165551.87000000104,"y":2544199.1600000001}},{"attributes":{"ID":636109,"DIS_CODE":0,"TOWNNAME":"安平區","LI":"怡平里","LIN":"4鄰","STREET":"建平十七街","SECT":" ","MAREA":" ","LANE":" ","ALLEY":" ","HOUSE_NO":"２３１號九樓之１２","E_COORD97":165551.87,"N_COORD97":2544199.1600000001,"ADDRESS":"建平十七街２３１號九樓之１２","OBJECTID":636082},"geometry":{"x":165551.87000000104,"y":2544199.1600000001}},{"attributes":{"ID":636110,"DIS_CODE":0,"TOWNNAME":"安平區","LI":"怡平里","LIN":"4鄰","STREET":"建平十七街","SECT":" ","MAREA":" ","LANE":" ","ALLEY":" ","HOUSE_NO":"２３１號十樓之１","E_COORD97":165551.87,"N_COORD97":2544199.1600000001,"ADDRESS":"建平十七街２３１號十樓之１","OBJECTID":636083},"geometry":{"x":165551.87000000104,"y":2544199.1600000001}},{"attributes":{"ID":636111,"DIS_CODE":0,"TOWNNAME":"安平區","LI":"怡平里","LIN":"4鄰","STREET":"建平十七街","SECT":" ","MAREA":" ","LANE":" ","ALLEY":" ","HOUSE_NO":"２３１號十樓之２","E_COORD97":165551.87,"N_COORD97":2544199.1600000001,"ADDRESS":"建平十七街２３１號十樓之２","OBJECTID":636084},"geometry":{"x":165551.87000000104,"y":2544199.1600000001}},{"attributes":{"ID":636112,"DIS_CODE":0,"TOWNNAME":"安平區","LI":"怡平里","LIN":"4鄰","STREET":"建平十七街","SECT":" ","MAREA":" ","LANE":" ","ALLEY":" ","HOUSE_NO":"２３１號十樓之３","E_COORD97":165551.87,"N_COORD97":2544199.1600000001,"ADDRESS":"建平十七街２３１號十樓之３","OBJECTID":636085},"geometry":{"x":165551.87000000104,"y":2544199.1600000001}},{"attributes":{"ID":636113,"DIS_CODE":0,"TOWNNAME":"安平區","LI":"怡平里","LIN":"4鄰","STREET":"建平十七街","SECT":" ","MAREA":" ","LANE":" ","ALLEY":" ","HOUSE_NO":"２３１號十樓之４","E_COORD97":165551.87,"N_COORD97":2544199.1600000001,"ADDRESS":"建平十七街２３１號十樓之４","OBJECTID":636086},"geometry":{"x":165551.87000000104,"y":2544199.1600000001}},{"attributes":{"ID":636114,"DIS_CODE":0,"TOWNNAME":"安平區","LI":"怡平里","LIN":"4鄰","STREET":"建平十七街","SECT":" ","MAREA":" ","LANE":" ","ALLEY":" ","HOUSE_NO":"２３１號十樓之５","E_COORD97":165551.87,"N_COORD97":2544199.1600000001,"ADDRESS":"建平十七街２３１號十樓之５","OBJECTID":636087},"geometry":{"x":165551.87000000104,"y":2544199.1600000001}},{"attributes":{"ID":636115,"DIS_CODE":0,"TOWNNAME":"安平區","LI":"怡平里","LIN":"4鄰","STREET":"建平十七街","SECT":" ","MAREA":" ","LANE":" ","ALLEY":" ","HOUSE_NO":"２３１號十樓之６","E_COORD97":165551.87,"N_COORD97":2544199.1600000001,"ADDRESS":"建平十七街２３１號十樓之６","OBJECTID":636088},"geometry":{"x":165551.87000000104,"y":2544199.1600000001}},{"attributes":{"ID":636116,"DIS_CODE":0,"TOWNNAME":"安平區","LI":"怡平里","LIN":"4鄰","STREET":"建平十七街","SECT":" ","MAREA":" ","LANE":" ","ALLEY":" ","HOUSE_NO":"２３１號十樓之７","E_COORD97":165551.87,"N_COORD97":2544199.1600000001,"ADDRESS":"建平十七街２３１號十樓之７","OBJECTID":636089},"geometry":{"x":165551.87000000104,"y":2544199.1600000001}},{"attributes":{"ID":636117,"DIS_CODE":0,"TOWNNAME":"安平區","LI":"怡平里","LIN":"4鄰","STREET":"建平十七街","SECT":" ","MAREA":" ","LANE":" ","ALLEY":" ","HOUSE_NO":"２３１號十樓之８","E_COORD97":165551.87,"N_COORD97":2544199.1600000001,"ADDRESS":"建平十七街２３１號十樓之８","OBJECTID":636090},"geometry":{"x":165551.87000000104,"y":2544199.1600000001}},{"attributes":{"ID":636118,"DIS_CODE":0,"TOWNNAME":"安平區","LI":"怡平里","LIN":"4鄰","STREET":"建平十七街","SECT":" ","MAREA":" ","LANE":" ","ALLEY":" ","HOUSE_NO":"２３１號十樓之９","E_COORD97":165551.87,"N_COORD97":2544199.1600000001,"ADDRESS":"建平十七街２３１號十樓之９","OBJECTID":636091},"geometry":{"x":165551.87000000104,"y":2544199.1600000001}},{"attributes":{"ID":636119,"DIS_CODE":0,"TOWNNAME":"安平區","LI":"華平里","LIN":"31鄰","STREET":"永華八街","SECT":" ","MAREA":" ","LANE":" ","ALLEY":" ","HOUSE_NO":"２１１號六樓之９","E_COORD97":165164.03,"N_COORD97":2543836.2999999998,"ADDRESS":"永華八街２１１號六樓之９","OBJECTID":636092},"geometry":{"x":165164.03000000119,"y":2543836.2999999989}},{"attributes":{"ID":636120,"DIS_CODE":0,"TOWNNAME":"安平區","LI":"華平里","LIN":"31鄰","STREET":"永華八街","SECT":" ","MAREA":" ","LANE":" ","ALLEY":" ","HOUSE_NO":"２１１號四樓之１","E_COORD97":165164.03,"N_COORD97":2543836.2999999998,"ADDRESS":"永華八街２１１號四樓之１","OBJECTID":636093},"geometry":{"x":165164.03000000119,"y":2543836.2999999989}},{"attributes":{"ID":636121,"DIS_CODE":0,"TOWNNAME":"安平區","LI":"華平里","LIN":"31鄰","STREET":"永華八街","SECT":" ","MAREA":" ","LANE":" ","ALLEY":" ","HOUSE_NO":"２１１號四樓之１０","E_COORD97":165164.03,"N_COORD97":2543836.2999999998,"ADDRESS":"永華八街２１１號四樓之１０","OBJECTID":636094},"geometry":{"x":165164.03000000119,"y":2543836.2999999989}},{"attributes":{"ID":636122,"DIS_CODE":0,"TOWNNAME":"安平區","LI":"華平里","LIN":"31鄰","STREET":"永華八街","SECT":" ","MAREA":" ","LANE":" ","ALLEY":" ","HOUSE_NO":"２１１號四樓之１１","E_COORD97":165164.03,"N_COORD97":2543836.2999999998,"ADDRESS":"永華八街２１１號四樓之１１","OBJECTID":636095},"geometry":{"x":165164.03000000119,"y":2543836.2999999989}},{"attributes":{"ID":636123,"DIS_CODE":0,"TOWNNAME":"安平區","LI":"華平里","LIN":"31鄰","STREET":"永華八街","SECT":" ","MAREA":" ","LANE":" ","ALLEY":" ","HOUSE_NO":"２１１號四樓之１２","E_COORD97":165164.03,"N_COORD97":2543836.2999999998,"ADDRESS":"永華八街２１１號四樓之１２","OBJECTID":636096},"geometry":{"x":165164.03000000119,"y":2543836.2999999989}},{"attributes":{"ID":636124,"DIS_CODE":0,"TOWNNAME":"安平區","LI":"華平里","LIN":"31鄰","STREET":"永華八街","SECT":" ","MAREA":" ","LANE":" ","ALLEY":" ","HOUSE_NO":"２１１號四樓之１３","E_COORD97":165164.03,"N_COORD97":2543836.2999999998,"ADDRESS":"永華八街２１１號四樓之１３","OBJECTID":636097},"geometry":{"x":165164.03000000119,"y":2543836.2999999989}},{"attributes":{"ID":636125,"DIS_CODE":0,"TOWNNAME":"安平區","LI":"華平里","LIN":"31鄰","STREET":"永華八街","SECT":" ","MAREA":" ","LANE":" ","ALLEY":" ","HOUSE_NO":"２１１號四樓之１４","E_COORD97":165164.03,"N_COORD97":2543836.2999999998,"ADDRESS":"永華八街２１１號四樓之１４","OBJECTID":636098},"geometry":{"x":165164.03000000119,"y":2543836.2999999989}},{"attributes":{"ID":636126,"DIS_CODE":0,"TOWNNAME":"安平區","LI":"華平里","LIN":"31鄰","STREET":"永華八街","SECT":" ","MAREA":" ","LANE":" ","ALLEY":" ","HOUSE_NO":"２１１號四樓之１５","E_COORD97":165164.03,"N_COORD97":2543836.2999999998,"ADDRESS":"永華八街２１１號四樓之１５","OBJECTID":636099},"geometry":{"x":165164.03000000119,"y":2543836.2999999989}},{"attributes":{"ID":636127,"DIS_CODE":0,"TOWNNAME":"安平區","LI":"華平里","LIN":"31鄰","STREET":"永華八街","SECT":" ","MAREA":" ","LANE":" ","ALLEY":" ","HOUSE_NO":"２１１號四樓之１６","E_COORD97":165164.03,"N_COORD97":2543836.2999999998,"ADDRESS":"永華八街２１１號四樓之１６","OBJECTID":636100},"geometry":{"x":165164.03000000119,"y":2543836.2999999989}},{"attributes":{"ID":636128,"DIS_CODE":0,"TOWNNAME":"安平區","LI":"華平里","LIN":"31鄰","STREET":"永華八街","SECT":" ","MAREA":" ","LANE":" ","ALLEY":" ","HOUSE_NO":"２１１號四樓之１７","E_COORD97":165164.03,"N_COORD97":2543836.2999999998,"ADDRESS":"永華八街２１１號四樓之１７","OBJECTID":636101},"geometry":{"x":165164.03000000119,"y":2543836.2999999989}},{"attributes":{"ID":636129,"DIS_CODE":0,"TOWNNAME":"安平區","LI":"華平里","LIN":"31鄰","STREET":"永華八街","SECT":" ","MAREA":" ","LANE":" ","ALLEY":" ","HOUSE_NO":"２１１號四樓之１８","E_COORD97":165164.03,"N_COORD97":2543836.2999999998,"ADDRESS":"永華八街２１１號四樓之１８","OBJECTID":636102},"geometry":{"x":165164.03000000119,"y":2543836.2999999989}},{"attributes":{"ID":636130,"DIS_CODE":0,"TOWNNAME":"安平區","LI":"怡平里","LIN":"4鄰","STREET":"建平十七街","SECT":" ","MAREA":" ","LANE":" ","ALLEY":" ","HOUSE_NO":"２３１號十樓之１０","E_COORD97":165551.87,"N_COORD97":2544199.1600000001,"ADDRESS":"建平十七街２３１號十樓之１０","OBJECTID":636103},"geometry":{"x":165551.87000000104,"y":2544199.1600000001}},{"attributes":{"ID":636131,"DIS_CODE":0,"TOWNNAME":"安平區","LI":"怡平里","LIN":"4鄰","STREET":"建平十七街","SECT":" ","MAREA":" ","LANE":" ","ALLEY":" ","HOUSE_NO":"２３１號十樓之１１","E_COORD97":165551.87,"N_COORD97":2544199.1600000001,"ADDRESS":"建平十七街２３１號十樓之１１","OBJECTID":636104},"geometry":{"x":165551.87000000104,"y":2544199.1600000001}},{"attributes":{"ID":636132,"DIS_CODE":0,"TOWNNAME":"安平區","LI":"怡平里","LIN":"4鄰","STREET":"建平十七街","SECT":" ","MAREA":" ","LANE":" ","ALLEY":" ","HOUSE_NO":"２３１號十樓之１２","E_COORD97":165551.87,"N_COORD97":2544199.1600000001,"ADDRESS":"建平十七街２３１號十樓之１２","OBJECTID":636105},"geometry":{"x":165551.87000000104,"y":2544199.1600000001}},{"attributes":{"ID":636133,"DIS_CODE":0,"TOWNNAME":"安平區","LI":"怡平里","LIN":"4鄰","STREET":"建平十七街","SECT":" ","MAREA":" ","LANE":" ","ALLEY":" ","HOUSE_NO":"２３１號十一樓之１","E_COORD97":165551.87,"N_COORD97":2544199.1600000001,"ADDRESS":"建平十七街２３１號十一樓之１","OBJECTID":636106},"geometry":{"x":165551.87000000104,"y":2544199.1600000001}},{"attributes":{"ID":636134,"DIS_CODE":0,"TOWNNAME":"安平區","LI":"怡平里","LIN":"4鄰","STREET":"建平十七街","SECT":" ","MAREA":" ","LANE":" ","ALLEY":" ","HOUSE_NO":"２３１號十一樓之２","E_COORD97":165551.87,"N_COORD97":2544199.1600000001,"ADDRESS":"建平十七街２３１號十一樓之２","OBJECTID":636107},"geometry":{"x":165551.87000000104,"y":2544199.1600000001}},{"attributes":{"ID":636135,"DIS_CODE":0,"TOWNNAME":"安平區","LI":"怡平里","LIN":"4鄰","STREET":"建平十七街","SECT":" ","MAREA":" ","LANE":" ","ALLEY":" ","HOUSE_NO":"２３１號十一樓之３","E_COORD97":165551.87,"N_COORD97":2544199.1600000001,"ADDRESS":"建平十七街２３１號十一樓之３","OBJECTID":636108},"geometry":{"x":165551.87000000104,"y":2544199.1600000001}},{"attributes":{"ID":636136,"DIS_CODE":0,"TOWNNAME":"安平區","LI":"怡平里","LIN":"7鄰","STREET":"慶平路","SECT":" ","MAREA":" ","LANE":" ","ALLEY":" ","HOUSE_NO":"２００號四樓之２","E_COORD97":165800.79999999999,"N_COORD97":2544196.79,"ADDRESS":"慶平路２００號四樓之２","OBJECTID":636109},"geometry":{"x":165800.80000000075,"y":2544196.7899999991}},{"attributes":{"ID":636137,"DIS_CODE":0,"TOWNNAME":"北區","LI":"重興里","LIN":"4鄰","STREET":"林森路","SECT":"三段","MAREA":" ","LANE":" ","ALLEY":" ","HOUSE_NO":"１５３號之２５","E_COORD97":170508.20999999999,"N_COORD97":2544919.5800000001,"ADDRESS":"林森路三段１５３號之２５","OBJECTID":636110},"geometry":{"x":170508.20999999996,"y":2544919.5800000019}},{"attributes":{"ID":636138,"DIS_CODE":0,"TOWNNAME":"安平區","LI":"怡平里","LIN":"4鄰","STREET":"建平十七街","SECT":" ","MAREA":" ","LANE":" ","ALLEY":" ","HOUSE_NO":"２３１號十一樓之４","E_COORD97":165551.87,"N_COORD97":2544199.1600000001,"ADDRESS":"建平十七街２３１號十一樓之４","OBJECTID":636111},"geometry":{"x":165551.87000000104,"y":2544199.1600000001}},{"attributes":{"ID":636139,"DIS_CODE":0,"TOWNNAME":"安平區","LI":"怡平里","LIN":"11鄰","STREET":"建平十二街","SECT":" ","MAREA":" ","LANE":" ","ALLEY":" ","HOUSE_NO":"１３５號二樓之１","E_COORD97":165720.42000000001,"N_COORD97":2544006.29,"ADDRESS":"建平十二街１３５號二樓之１","OBJECTID":636112},"geometry":{"x":165720.42000000086,"y":2544006.2899999991}},{"attributes":{"ID":636140,"DIS_CODE":0,"TOWNNAME":"安平區","LI":"怡平里","LIN":"11鄰","STREET":"建平十二街","SECT":" ","MAREA":" ","LANE":" ","ALLEY":" ","HOUSE_NO":"１３５號二樓之２","E_COORD97":165720.42000000001,"N_COORD97":2544006.29,"ADDRESS":"建平十二街１３５號二樓之２","OBJECTID":636113},"geometry":{"x":165720.42000000086,"y":2544006.2899999991}},{"attributes":{"ID":636141,"DIS_CODE":0,"TOWNNAME":"安平區","LI":"怡平里","LIN":"11鄰","STREET":"建平十二街","SECT":" ","MAREA":" ","LANE":" ","ALLEY":" ","HOUSE_NO":"１３５號二樓之３","E_COORD97":165720.42000000001,"N_COORD97":2544006.29,"ADDRESS":"建平十二街１３５號二樓之３","OBJECTID":636114},"geometry":{"x":165720.42000000086,"y":2544006.2899999991}},{"attributes":{"ID":636142,"DIS_CODE":0,"TOWNNAME":"安平區","LI":"怡平里","LIN":"11鄰","STREET":"建平十二街","SECT":" ","MAREA":" ","LANE":" ","ALLEY":" ","HOUSE_NO":"１３５號二樓之４","E_COORD97":165720.42000000001,"N_COORD97":2544006.29,"ADDRESS":"建平十二街１３５號二樓之４","OBJECTID":636115},"geometry":{"x":165720.42000000086,"y":2544006.2899999991}},{"attributes":{"ID":636143,"DIS_CODE":0,"TOWNNAME":"安平區","LI":"怡平里","LIN":"11鄰","STREET":"建平十二街","SECT":" ","MAREA":" ","LANE":" ","ALLEY":" ","HOUSE_NO":"１３５號二樓之５","E_COORD97":165720.42000000001,"N_COORD97":2544006.29,"ADDRESS":"建平十二街１３５號二樓之５","OBJECTID":636116},"geometry":{"x":165720.42000000086,"y":2544006.2899999991}},{"attributes":{"ID":636144,"DIS_CODE":0,"TOWNNAME":"北區","LI":"重興里","LIN":"4鄰","STREET":"林森路","SECT":"三段","MAREA":" ","LANE":" ","ALLEY":" ","HOUSE_NO":"１５３號之２７","E_COORD97":170506.32999999999,"N_COORD97":2544906.6400000001,"ADDRESS":"林森路三段１５３號之２７","OBJECTID":636117},"geometry":{"x":170506.32999999914,"y":2544906.6400000025}},{"attributes":{"ID":636145,"DIS_CODE":0,"TOWNNAME":"安平區","LI":"怡平里","LIN":"4鄰","STREET":"建平十七街","SECT":" ","MAREA":" ","LANE":" ","ALLEY":" ","HOUSE_NO":"２３１號十一樓之５","E_COORD97":165551.87,"N_COORD97":2544199.1600000001,"ADDRESS":"建平十七街２３１號十一樓之５","OBJECTID":636118},"geometry":{"x":165551.87000000104,"y":2544199.1600000001}},{"attributes":{"ID":636146,"DIS_CODE":0,"TOWNNAME":"安平區","LI":"怡平里","LIN":"4鄰","STREET":"建平十七街","SECT":" ","MAREA":" ","LANE":" ","ALLEY":" ","HOUSE_NO":"２３１號十一樓之６","E_COORD97":165551.87,"N_COORD97":2544199.1600000001,"ADDRESS":"建平十七街２３１號十一樓之６","OBJECTID":636119},"geometry":{"x":165551.87000000104,"y":2544199.1600000001}},{"attributes":{"ID":636147,"DIS_CODE":0,"TOWNNAME":"安平區","LI":"怡平里","LIN":"4鄰","STREET":"建平十七街","SECT":" ","MAREA":" ","LANE":" ","ALLEY":" ","HOUSE_NO":"２３１號十一樓之７","E_COORD97":165551.87,"N_COORD97":2544199.1600000001,"ADDRESS":"建平十七街２３１號十一樓之７","OBJECTID":636120},"geometry":{"x":165551.87000000104,"y":2544199.1600000001}},{"attributes":{"ID":636148,"DIS_CODE":0,"TOWNNAME":"安平區","LI":"怡平里","LIN":"4鄰","STREET":"建平十七街","SECT":" ","MAREA":" ","LANE":" ","ALLEY":" ","HOUSE_NO":"２３１號十一樓之８","E_COORD97":165551.87,"N_COORD97":2544199.1600000001,"ADDRESS":"建平十七街２３１號十一樓之８","OBJECTID":636121},"geometry":{"x":165551.87000000104,"y":2544199.1600000001}},{"attributes":{"ID":636149,"DIS_CODE":0,"TOWNNAME":"安平區","LI":"怡平里","LIN":"4鄰","STREET":"建平十七街","SECT":" ","MAREA":" ","LANE":" ","ALLEY":" ","HOUSE_NO":"２３１號十一樓之９","E_COORD97":165551.87,"N_COORD97":2544199.1600000001,"ADDRESS":"建平十七街２３１號十一樓之９","OBJECTID":636122},"geometry":{"x":165551.87000000104,"y":2544199.1600000001}},{"attributes":{"ID":636150,"DIS_CODE":0,"TOWNNAME":"安平區","LI":"怡平里","LIN":"4鄰","STREET":"建平十七街","SECT":" ","MAREA":" ","LANE":" ","ALLEY":" ","HOUSE_NO":"２３１號十一樓之１０","E_COORD97":165551.87,"N_COORD97":2544199.1600000001,"ADDRESS":"建平十七街２３１號十一樓之１０","OBJECTID":636123},"geometry":{"x":165551.87000000104,"y":2544199.1600000001}},{"attributes":{"ID":636151,"DIS_CODE":0,"TOWNNAME":"安平區","LI":"怡平里","LIN":"4鄰","STREET":"建平十七街","SECT":" ","MAREA":" ","LANE":" ","ALLEY":" ","HOUSE_NO":"２３１號十一樓之１１","E_COORD97":165551.87,"N_COORD97":2544199.1600000001,"ADDRESS":"建平十七街２３１號十一樓之１１","OBJECTID":636124},"geometry":{"x":165551.87000000104,"y":2544199.1600000001}},{"attributes":{"ID":636152,"DIS_CODE":0,"TOWNNAME":"安平區","LI":"怡平里","LIN":"4鄰","STREET":"建平十七街","SECT":" ","MAREA":" ","LANE":" ","ALLEY":" ","HOUSE_NO":"２３１號十二樓之１","E_COORD97":165551.87,"N_COORD97":2544199.1600000001,"ADDRESS":"建平十七街２３１號十二樓之１","OBJECTID":636125},"geometry":{"x":165551.87000000104,"y":2544199.1600000001}},{"attributes":{"ID":636153,"DIS_CODE":0,"TOWNNAME":"安平區","LI":"怡平里","LIN":"4鄰","STREET":"建平十七街","SECT":" ","MAREA":" ","LANE":" ","ALLEY":" ","HOUSE_NO":"２３１號十二樓之２","E_COORD97":165551.87,"N_COORD97":2544199.1600000001,"ADDRESS":"建平十七街２３１號十二樓之２","OBJECTID":636126},"geometry":{"x":165551.87000000104,"y":2544199.1600000001}},{"attributes":{"ID":636154,"DIS_CODE":0,"TOWNNAME":"安平區","LI":"怡平里","LIN":"4鄰","STREET":"建平十七街","SECT":" ","MAREA":" ","LANE":" ","ALLEY":" ","HOUSE_NO":"２３１號十二樓之３","E_COORD97":165551.87,"N_COORD97":2544199.1600000001,"ADDRESS":"建平十七街２３１號十二樓之３","OBJECTID":636127},"geometry":{"x":165551.87000000104,"y":2544199.1600000001}},{"attributes":{"ID":636155,"DIS_CODE":0,"TOWNNAME":"安平區","LI":"怡平里","LIN":"4鄰","STREET":"建平十七街","SECT":" ","MAREA":" ","LANE":" ","ALLEY":" ","HOUSE_NO":"２３１號十二樓之４","E_COORD97":165551.87,"N_COORD97":2544199.1600000001,"ADDRESS":"建平十七街２３１號十二樓之４","OBJECTID":636128},"geometry":{"x":165551.87000000104,"y":2544199.1600000001}},{"attributes":{"ID":636156,"DIS_CODE":0,"TOWNNAME":"安平區","LI":"怡平里","LIN":"4鄰","STREET":"建平十七街","SECT":" ","MAREA":" ","LANE":" ","ALLEY":" ","HOUSE_NO":"２３１號十二樓之５","E_COORD97":165551.87,"N_COORD97":2544199.1600000001,"ADDRESS":"建平十七街２３１號十二樓之５","OBJECTID":636129},"geometry":{"x":165551.87000000104,"y":2544199.1600000001}},{"attributes":{"ID":636157,"DIS_CODE":0,"TOWNNAME":"安平區","LI":"怡平里","LIN":"7鄰","STREET":"慶平路","SECT":" ","MAREA":" ","LANE":" ","ALLEY":" ","HOUSE_NO":"２００號四樓之１５","E_COORD97":165800.79999999999,"N_COORD97":2544196.79,"ADDRESS":"慶平路２００號四樓之１５","OBJECTID":636130},"geometry":{"x":165800.80000000075,"y":2544196.7899999991}},{"attributes":{"ID":636158,"DIS_CODE":0,"TOWNNAME":"北區","LI":"公園里","LIN":"6鄰","STREET":"成功路","SECT":" ","MAREA":" ","LANE":" ","ALLEY":" ","HOUSE_NO":"２號四樓之６","E_COORD97":169158.57999999999,"N_COORD97":2544255.9300000002,"ADDRESS":"成功路２號四樓之６","OBJECTID":636131},"geometry":{"x":169158.58000000007,"y":2544255.9300000016}},{"attributes":{"ID":636159,"DIS_CODE":0,"TOWNNAME":"北區","LI":"三德里","LIN":"13鄰","STREET":"成功路","SECT":" ","MAREA":" ","LANE":" ","ALLEY":" ","HOUSE_NO":"２０２號十一樓","E_COORD97":168358.97,"N_COORD97":2544434.04,"ADDRESS":"成功路２０２號十一樓","OBJECTID":636132},"geometry":{"x":168358.9700000016,"y":2544434.040000001}},{"attributes":{"ID":636160,"DIS_CODE":0,"TOWNNAME":"安平區","LI":"怡平里","LIN":"6鄰","STREET":"慶平路","SECT":" ","MAREA":" ","LANE":" ","ALLEY":" ","HOUSE_NO":"２３４號三樓之１","E_COORD97":165744.56,"N_COORD97":2544194.4399999999,"ADDRESS":"慶平路２３４號三樓之１","OBJECTID":636133},"geometry":{"x":165744.56000000052,"y":2544194.4400000013}},{"attributes":{"ID":636161,"DIS_CODE":0,"TOWNNAME":"安平區","LI":"怡平里","LIN":"6鄰","STREET":"慶平路","SECT":" ","MAREA":" ","LANE":" ","ALLEY":" ","HOUSE_NO":"２３４號三樓之２","E_COORD97":165744.56,"N_COORD97":2544194.4399999999,"ADDRESS":"慶平路２３４號三樓之２","OBJECTID":636134},"geometry":{"x":165744.56000000052,"y":2544194.4400000013}},{"attributes":{"ID":636162,"DIS_CODE":0,"TOWNNAME":"安平區","LI":"怡平里","LIN":"6鄰","STREET":"慶平路","SECT":" ","MAREA":" ","LANE":" ","ALLEY":" ","HOUSE_NO":"２３４號三樓之３","E_COORD97":165744.56,"N_COORD97":2544194.4399999999,"ADDRESS":"慶平路２３４號三樓之３","OBJECTID":636135},"geometry":{"x":165744.56000000052,"y":2544194.4400000013}},{"attributes":{"ID":636163,"DIS_CODE":0,"TOWNNAME":"安平區","LI":"怡平里","LIN":"6鄰","STREET":"慶平路","SECT":" ","MAREA":" ","LANE":" ","ALLEY":" ","HOUSE_NO":"２３４號三樓之４","E_COORD97":165744.56,"N_COORD97":2544194.4399999999,"ADDRESS":"慶平路２３４號三樓之４","OBJECTID":636136},"geometry":{"x":165744.56000000052,"y":2544194.4400000013}},{"attributes":{"ID":636164,"DIS_CODE":0,"TOWNNAME":"安平區","LI":"怡平里","LIN":"6鄰","STREET":"慶平路","SECT":" ","MAREA":" ","LANE":" ","ALLEY":" ","HOUSE_NO":"２３４號三樓之５","E_COORD97":165744.56,"N_COORD97":2544194.4399999999,"ADDRESS":"慶平路２３４號三樓之５","OBJECTID":636137},"geometry":{"x":165744.56000000052,"y":2544194.4400000013}},{"attributes":{"ID":636165,"DIS_CODE":0,"TOWNNAME":"安平區","LI":"怡平里","LIN":"6鄰","STREET":"慶平路","SECT":" ","MAREA":" ","LANE":" ","ALLEY":" ","HOUSE_NO":"２３４號三樓之６","E_COORD97":165744.56,"N_COORD97":2544194.4399999999,"ADDRESS":"慶平路２３４號三樓之６","OBJECTID":636138},"geometry":{"x":165744.56000000052,"y":2544194.4400000013}},{"attributes":{"ID":636166,"DIS_CODE":0,"TOWNNAME":"安平區","LI":"怡平里","LIN":"6鄰","STREET":"慶平路","SECT":" ","MAREA":" ","LANE":" ","ALLEY":" ","HOUSE_NO":"２３４號三樓之７","E_COORD97":165744.56,"N_COORD97":2544194.4399999999,"ADDRESS":"慶平路２３４號三樓之７","OBJECTID":636139},"geometry":{"x":165744.56000000052,"y":2544194.4400000013}},{"attributes":{"ID":636167,"DIS_CODE":0,"TOWNNAME":"安平區","LI":"怡平里","LIN":"6鄰","STREET":"慶平路","SECT":" ","MAREA":" ","LANE":" ","ALLEY":" ","HOUSE_NO":"２３４號四樓之２","E_COORD97":165744.56,"N_COORD97":2544194.4399999999,"ADDRESS":"慶平路２３４號四樓之２","OBJECTID":636140},"geometry":{"x":165744.56000000052,"y":2544194.4400000013}},{"attributes":{"ID":636168,"DIS_CODE":0,"TOWNNAME":"安平區","LI":"怡平里","LIN":"6鄰","STREET":"慶平路","SECT":" ","MAREA":" ","LANE":" ","ALLEY":" ","HOUSE_NO":"２３４號四樓之３","E_COORD97":165744.56,"N_COORD97":2544194.4399999999,"ADDRESS":"慶平路２３４號四樓之３","OBJECTID":636141},"geometry":{"x":165744.56000000052,"y":2544194.4400000013}},{"attributes":{"ID":636169,"DIS_CODE":0,"TOWNNAME":"安平區","LI":"怡平里","LIN":"6鄰","STREET":"慶平路","SECT":" ","MAREA":" ","LANE":" ","ALLEY":" ","HOUSE_NO":"２３４號四樓之３之１","E_COORD97":165744.56,"N_COORD97":2544194.4399999999,"ADDRESS":"慶平路２３４號四樓之３之１","OBJECTID":636142},"geometry":{"x":165744.56000000052,"y":2544194.4400000013}},{"attributes":{"ID":636170,"DIS_CODE":0,"TOWNNAME":"安平區","LI":"怡平里","LIN":"6鄰","STREET":"慶平路","SECT":" ","MAREA":" ","LANE":" ","ALLEY":" ","HOUSE_NO":"２３４號四樓之５","E_COORD97":165744.56,"N_COORD97":2544194.4399999999,"ADDRESS":"慶平路２３４號四樓之５","OBJECTID":636143},"geometry":{"x":165744.56000000052,"y":2544194.4400000013}},{"attributes":{"ID":636171,"DIS_CODE":0,"TOWNNAME":"安平區","LI":"怡平里","LIN":"6鄰","STREET":"慶平路","SECT":" ","MAREA":" ","LANE":" ","ALLEY":" ","HOUSE_NO":"２３４號四樓之７","E_COORD97":165744.56,"N_COORD97":2544194.4399999999,"ADDRESS":"慶平路２３４號四樓之７","OBJECTID":636144},"geometry":{"x":165744.56000000052,"y":2544194.4400000013}},{"attributes":{"ID":636172,"DIS_CODE":0,"TOWNNAME":"安平區","LI":"怡平里","LIN":"12鄰","STREET":"建平十二街","SECT":" ","MAREA":" ","LANE":" ","ALLEY":" ","HOUSE_NO":"１４５號二樓之１","E_COORD97":165680.06,"N_COORD97":2544012.3199999998,"ADDRESS":"建平十二街１４５號二樓之１","OBJECTID":636145},"geometry":{"x":165680.06000000052,"y":2544012.320000004}},{"attributes":{"ID":636173,"DIS_CODE":0,"TOWNNAME":"南區","LI":"金華里","LIN":"4鄰","STREET":"金華路","SECT":"二段","MAREA":" ","LANE":" ","ALLEY":" ","HOUSE_NO":"７３號四樓","E_COORD97":167059.57000000001,"N_COORD97":2542192.7599999998,"ADDRESS":"金華路二段７３號四樓","OBJECTID":636146},"geometry":{"x":167059.5700000003,"y":2542192.7600000016}},{"attributes":{"ID":636174,"DIS_CODE":0,"TOWNNAME":"南區","LI":"金華里","LIN":"4鄰","STREET":"金華路","SECT":"二段","MAREA":" ","LANE":" ","ALLEY":" ","HOUSE_NO":"７３號五樓","E_COORD97":167059.57000000001,"N_COORD97":2542192.7599999998,"ADDRESS":"金華路二段７３號五樓","OBJECTID":636147},"geometry":{"x":167059.5700000003,"y":2542192.7600000016}},{"attributes":{"ID":636175,"DIS_CODE":0,"TOWNNAME":"南區","LI":"明興里","LIN":"1鄰","STREET":"新都路","SECT":" ","MAREA":" ","LANE":" ","ALLEY":" ","HOUSE_NO":"５４１號七樓","E_COORD97":166995.88,"N_COORD97":2540878.1099999999,"ADDRESS":"新都路５４１號七樓","OBJECTID":636148},"geometry":{"x":166995.88000000082,"y":2540878.1100000013}},{"attributes":{"ID":636176,"DIS_CODE":0,"TOWNNAME":"南區","LI":"明興里","LIN":"1鄰","STREET":"新都路","SECT":" ","MAREA":" ","LANE":" ","ALLEY":" ","HOUSE_NO":"５４１號二樓","E_COORD97":166995.88,"N_COORD97":2540878.1099999999,"ADDRESS":"新都路５４１號二樓","OBJECTID":636149},"geometry":{"x":166995.88000000082,"y":2540878.1100000013}},{"attributes":{"ID":636177,"DIS_CODE":0,"TOWNNAME":"南區","LI":"大林里","LIN":"1鄰","STREET":"大林路","SECT":" ","MAREA":" ","LANE":" ","ALLEY":" ","HOUSE_NO":"５３號二樓","E_COORD97":169270.29000000001,"N_COORD97":2541806.4500000002,"ADDRESS":"大林路５３號二樓","OBJECTID":636150},"geometry":{"x":169270.29000000004,"y":2541806.450000003}},{"attributes":{"ID":636178,"DIS_CODE":0,"TOWNNAME":"南區","LI":"大林里","LIN":"1鄰","STREET":"大林路","SECT":" ","MAREA":" ","LANE":" ","ALLEY":" ","HOUSE_NO":"５３號三樓","E_COORD97":169270.29000000001,"N_COORD97":2541806.4500000002,"ADDRESS":"大林路５３號三樓","OBJECTID":636151},"geometry":{"x":169270.29000000004,"y":2541806.450000003}},{"attributes":{"ID":636179,"DIS_CODE":0,"TOWNNAME":"南區","LI":"大林里","LIN":"1鄰","STREET":"大林路","SECT":" ","MAREA":" ","LANE":" ","ALLEY":" ","HOUSE_NO":"５３號四樓","E_COORD97":169270.29000000001,"N_COORD97":2541806.4500000002,"ADDRESS":"大林路５３號四樓","OBJECTID":636152},"geometry":{"x":169270.29000000004,"y":2541806.450000003}},{"attributes":{"ID":636180,"DIS_CODE":0,"TOWNNAME":"南區","LI":"新生里","LIN":"19鄰","STREET":"大同路","SECT":"二段","MAREA":" ","LANE":" ","ALLEY":" ","HOUSE_NO":"１０４號二樓之２","E_COORD97":169228.20999999999,"N_COORD97":2542307.8900000001,"ADDRESS":"大同路二段１０４號二樓之２","OBJECTID":636153},"geometry":{"x":169228.20999999996,"y":2542307.8900000025}},{"attributes":{"ID":636181,"DIS_CODE":0,"TOWNNAME":"南區","LI":"新生里","LIN":"19鄰","STREET":"大同路","SECT":"二段","MAREA":" ","LANE":" ","ALLEY":" ","HOUSE_NO":"１０４號三樓之３","E_COORD97":169228.20999999999,"N_COORD97":2542307.8900000001,"ADDRESS":"大同路二段１０４號三樓之３","OBJECTID":636154},"geometry":{"x":169228.20999999996,"y":2542307.8900000025}},{"attributes":{"ID":636182,"DIS_CODE":0,"TOWNNAME":"南區","LI":"新生里","LIN":"19鄰","STREET":"大同路","SECT":"二段","MAREA":" ","LANE":" ","ALLEY":" ","HOUSE_NO":"１０４號三樓之５","E_COORD97":169228.20999999999,"N_COORD97":2542307.8900000001,"ADDRESS":"大同路二段１０４號三樓之５","OBJECTID":636155},"geometry":{"x":169228.20999999996,"y":2542307.8900000025}},{"attributes":{"ID":636183,"DIS_CODE":0,"TOWNNAME":"南區","LI":"新生里","LIN":"19鄰","STREET":"大同路","SECT":"二段","MAREA":" ","LANE":" ","ALLEY":" ","HOUSE_NO":"１０４號四樓之３","E_COORD97":169228.20999999999,"N_COORD97":2542307.8900000001,"ADDRESS":"大同路二段１０４號四樓之３","OBJECTID":636156},"geometry":{"x":169228.20999999996,"y":2542307.8900000025}},{"attributes":{"ID":636184,"DIS_CODE":0,"TOWNNAME":"南區","LI":"新生里","LIN":"19鄰","STREET":"大同路","SECT":"二段","MAREA":" ","LANE":" ","ALLEY":" ","HOUSE_NO":"１０４號四樓之５","E_COORD97":169228.20999999999,"N_COORD97":2542307.8900000001,"ADDRESS":"大同路二段１０４號四樓之５","OBJECTID":636157},"geometry":{"x":169228.20999999996,"y":2542307.8900000025}},{"attributes":{"ID":636185,"DIS_CODE":0,"TOWNNAME":"南區","LI":"新生里","LIN":"19鄰","STREET":"大同路","SECT":"二段","MAREA":" ","LANE":" ","ALLEY":" ","HOUSE_NO":"１０４號六樓之３","E_COORD97":169228.20999999999,"N_COORD97":2542307.8900000001,"ADDRESS":"大同路二段１０４號六樓之３","OBJECTID":636158},"geometry":{"x":169228.20999999996,"y":2542307.8900000025}},{"attributes":{"ID":636186,"DIS_CODE":0,"TOWNNAME":"南區","LI":"新生里","LIN":"19鄰","STREET":"大同路","SECT":"二段","MAREA":" ","LANE":" ","ALLEY":" ","HOUSE_NO":"１０４號六樓之５","E_COORD97":169228.20999999999,"N_COORD97":2542307.8900000001,"ADDRESS":"大同路二段１０４號六樓之５","OBJECTID":636159},"geometry":{"x":169228.20999999996,"y":2542307.8900000025}},{"attributes":{"ID":636187,"DIS_CODE":0,"TOWNNAME":"南區","LI":"新生里","LIN":"19鄰","STREET":"大同路","SECT":"二段","MAREA":" ","LANE":" ","ALLEY":" ","HOUSE_NO":"１０４號七樓之３","E_COORD97":169228.20999999999,"N_COORD97":2542307.8900000001,"ADDRESS":"大同路二段１０４號七樓之３","OBJECTID":636160},"geometry":{"x":169228.20999999996,"y":2542307.8900000025}},{"attributes":{"ID":636188,"DIS_CODE":0,"TOWNNAME":"南區","LI":"新生里","LIN":"19鄰","STREET":"大同路","SECT":"二段","MAREA":" ","LANE":" ","ALLEY":" ","HOUSE_NO":"１０４號七樓之５","E_COORD97":169228.20999999999,"N_COORD97":2542307.8900000001,"ADDRESS":"大同路二段１０４號七樓之５","OBJECTID":636161},"geometry":{"x":169228.20999999996,"y":2542307.8900000025}},{"attributes":{"ID":636189,"DIS_CODE":0,"TOWNNAME":"南區","LI":"新生里","LIN":"19鄰","STREET":"大同路","SECT":"二段","MAREA":" ","LANE":" ","ALLEY":" ","HOUSE_NO":"１０４號八樓之３","E_COORD97":169228.20999999999,"N_COORD97":2542307.8900000001,"ADDRESS":"大同路二段１０４號八樓之３","OBJECTID":636162},"geometry":{"x":169228.20999999996,"y":2542307.8900000025}},{"attributes":{"ID":636190,"DIS_CODE":0,"TOWNNAME":"南區","LI":"新生里","LIN":"19鄰","STREET":"大同路","SECT":"二段","MAREA":" ","LANE":" ","ALLEY":" ","HOUSE_NO":"１０４號八樓之５","E_COORD97":169228.20999999999,"N_COORD97":2542307.8900000001,"ADDRESS":"大同路二段１０４號八樓之５","OBJECTID":636163},"geometry":{"x":169228.20999999996,"y":2542307.8900000025}},{"attributes":{"ID":636191,"DIS_CODE":0,"TOWNNAME":"南區","LI":"新生里","LIN":"19鄰","STREET":"大同路","SECT":"二段","MAREA":" ","LANE":" ","ALLEY":" ","HOUSE_NO":"１０４號九樓之３","E_COORD97":169228.20999999999,"N_COORD97":2542307.8900000001,"ADDRESS":"大同路二段１０４號九樓之３","OBJECTID":636164},"geometry":{"x":169228.20999999996,"y":2542307.8900000025}},{"attributes":{"ID":636192,"DIS_CODE":0,"TOWNNAME":"南區","LI":"新生里","LIN":"19鄰","STREET":"大同路","SECT":"二段","MAREA":" ","LANE":" ","ALLEY":" ","HOUSE_NO":"１０４號九樓之５","E_COORD97":169228.20999999999,"N_COORD97":2542307.8900000001,"ADDRESS":"大同路二段１０４號九樓之５","OBJECTID":636165},"geometry":{"x":169228.20999999996,"y":2542307.8900000025}},{"attributes":{"ID":636193,"DIS_CODE":0,"TOWNNAME":"南區","LI":"新生里","LIN":"19鄰","STREET":"大同路","SECT":"二段","MAREA":" ","LANE":" ","ALLEY":" ","HOUSE_NO":"１０４號十樓之３","E_COORD97":169228.20999999999,"N_COORD97":2542307.8900000001,"ADDRESS":"大同路二段１０４號十樓之３","OBJECTID":636166},"geometry":{"x":169228.20999999996,"y":2542307.8900000025}},{"attributes":{"ID":636194,"DIS_CODE":0,"TOWNNAME":"南區","LI":"新生里","LIN":"19鄰","STREET":"大同路","SECT":"二段","MAREA":" ","LANE":" ","ALLEY":" ","HOUSE_NO":"１０４號十樓之５","E_COORD97":169228.20999999999,"N_COORD97":2542307.8900000001,"ADDRESS":"大同路二段１０４號十樓之５","OBJECTID":636167},"geometry":{"x":169228.20999999996,"y":2542307.8900000025}},{"attributes":{"ID":636195,"DIS_CODE":0,"TOWNNAME":"南區","LI":"新生里","LIN":"19鄰","STREET":"大同路","SECT":"二段","MAREA":" ","LANE":" ","ALLEY":" ","HOUSE_NO":"１０４號五樓之３","E_COORD97":169228.20999999999,"N_COORD97":2542307.8900000001,"ADDRESS":"大同路二段１０４號五樓之３","OBJECTID":636168},"geometry":{"x":169228.20999999996,"y":2542307.8900000025}},{"attributes":{"ID":636196,"DIS_CODE":0,"TOWNNAME":"北區","LI":"公園里","LIN":"6鄰","STREET":"成功路","SECT":" ","MAREA":" ","LANE":" ","ALLEY":" ","HOUSE_NO":"２號四樓之８","E_COORD97":169158.57999999999,"N_COORD97":2544255.9300000002,"ADDRESS":"成功路２號四樓之８","OBJECTID":636169},"geometry":{"x":169158.58000000007,"y":2544255.9300000016}},{"attributes":{"ID":636197,"DIS_CODE":0,"TOWNNAME":"東區","LI":"富強里","LIN":"3鄰","STREET":"中華東路","SECT":"二段","MAREA":" ","LANE":" ","ALLEY":" ","HOUSE_NO":"１０號","E_COORD97":171395.41,"N_COORD97":2543134.1699999999,"ADDRESS":"中華東路二段１０號","OBJECTID":636170},"geometry":{"x":171395.41000000015,"y":2543134.1699999999}},{"attributes":{"ID":636198,"DIS_CODE":0,"TOWNNAME":"南區","LI":"新生里","LIN":"1鄰","STREET":"大林路","SECT":" ","MAREA":" ","LANE":" ","ALLEY":" ","HOUSE_NO":"２號三樓之１","E_COORD97":169367.64999999999,"N_COORD97":2541886.5499999998,"ADDRESS":"大林路２號三樓之１","OBJECTID":636171},"geometry":{"x":169367.6500000013,"y":2541886.5500000026}},{"attributes":{"ID":636199,"DIS_CODE":0,"TOWNNAME":"南區","LI":"新生里","LIN":"1鄰","STREET":"大林路","SECT":" ","MAREA":" ","LANE":" ","ALLEY":" ","HOUSE_NO":"６號五樓之１","E_COORD97":169339.28,"N_COORD97":2541879,"ADDRESS":"大林路６號五樓之１","OBJECTID":636172},"geometry":{"x":169339.28000000119,"y":2541879.0000000019}},{"attributes":{"ID":636200,"DIS_CODE":0,"TOWNNAME":"南區","LI":"新生里","LIN":"6鄰","STREET":"大同路","SECT":"二段","MAREA":" ","LANE":" ","ALLEY":" ","HOUSE_NO":"１７４號九樓之２","E_COORD97":169345.73000000001,"N_COORD97":2541989.2799999998,"ADDRESS":"大同路二段１７４號九樓之２","OBJECTID":636173},"geometry":{"x":169345.73000000045,"y":2541989.2799999993}},{"attributes":{"ID":636201,"DIS_CODE":0,"TOWNNAME":"南區","LI":"新生里","LIN":"6鄰","STREET":"大同路","SECT":"二段","MAREA":" ","LANE":" ","ALLEY":" ","HOUSE_NO":"１７４號十樓之１","E_COORD97":169345.73000000001,"N_COORD97":2541989.2799999998,"ADDRESS":"大同路二段１７４號十樓之１","OBJECTID":636174},"geometry":{"x":169345.73000000045,"y":2541989.2799999993}},{"attributes":{"ID":636202,"DIS_CODE":0,"TOWNNAME":"南區","LI":"新生里","LIN":"6鄰","STREET":"大同路","SECT":"二段","MAREA":" ","LANE":" ","ALLEY":" ","HOUSE_NO":"１７４號十樓之２","E_COORD97":169345.73000000001,"N_COORD97":2541989.2799999998,"ADDRESS":"大同路二段１７４號十樓之２","OBJECTID":636175},"geometry":{"x":169345.73000000045,"y":2541989.2799999993}},{"attributes":{"ID":636203,"DIS_CODE":0,"TOWNNAME":"南區","LI":"新生里","LIN":"6鄰","STREET":"大同路","SECT":"二段","MAREA":" ","LANE":" ","ALLEY":" ","HOUSE_NO":"１７４號十一樓之１","E_COORD97":169345.73000000001,"N_COORD97":2541989.2799999998,"ADDRESS":"大同路二段１７４號十一樓之１","OBJECTID":636176},"geometry":{"x":169345.73000000045,"y":2541989.2799999993}},{"attributes":{"ID":636204,"DIS_CODE":0,"TOWNNAME":"南區","LI":"新生里","LIN":"6鄰","STREET":"大同路","SECT":"二段","MAREA":" ","LANE":" ","ALLEY":" ","HOUSE_NO":"１７４號十一樓之２","E_COORD97":169345.73000000001,"N_COORD97":2541989.2799999998,"ADDRESS":"大同路二段１７４號十一樓之２","OBJECTID":636177},"geometry":{"x":169345.73000000045,"y":2541989.2799999993}},{"attributes":{"ID":636205,"DIS_CODE":0,"TOWNNAME":"南區","LI":"新生里","LIN":"6鄰","STREET":"大同路","SECT":"二段","MAREA":" ","LANE":" ","ALLEY":" ","HOUSE_NO":"１７４號十二樓之２","E_COORD97":169345.73000000001,"N_COORD97":2541989.2799999998,"ADDRESS":"大同路二段１７４號十二樓之２","OBJECTID":636178},"geometry":{"x":169345.73000000045,"y":2541989.2799999993}},{"attributes":{"ID":636206,"DIS_CODE":0,"TOWNNAME":"南區","LI":"新生里","LIN":"6鄰","STREET":"大同路","SECT":"二段","MAREA":" ","LANE":" ","ALLEY":" ","HOUSE_NO":"１７４號十二樓之１","E_COORD97":169345.73000000001,"N_COORD97":2541989.2799999998,"ADDRESS":"大同路二段１７４號十二樓之１","OBJECTID":636179},"geometry":{"x":169345.73000000045,"y":2541989.2799999993}},{"attributes":{"ID":636207,"DIS_CODE":0,"TOWNNAME":"南區","LI":"新生里","LIN":"6鄰","STREET":"大同路","SECT":"二段","MAREA":" ","LANE":" ","ALLEY":" ","HOUSE_NO":"１７４號二樓之１","E_COORD97":169345.73000000001,"N_COORD97":2541989.2799999998,"ADDRESS":"大同路二段１７４號二樓之１","OBJECTID":636180},"geometry":{"x":169345.73000000045,"y":2541989.2799999993}},{"attributes":{"ID":636208,"DIS_CODE":0,"TOWNNAME":"南區","LI":"新生里","LIN":"6鄰","STREET":"大同路","SECT":"二段","MAREA":" ","LANE":" ","ALLEY":" ","HOUSE_NO":"１７４號三樓之１","E_COORD97":169345.73000000001,"N_COORD97":2541989.2799999998,"ADDRESS":"大同路二段１７４號三樓之１","OBJECTID":636181},"geometry":{"x":169345.73000000045,"y":2541989.2799999993}},{"attributes":{"ID":636209,"DIS_CODE":0,"TOWNNAME":"南區","LI":"新生里","LIN":"6鄰","STREET":"大同路","SECT":"二段","MAREA":" ","LANE":" ","ALLEY":" ","HOUSE_NO":"１７４號三樓之２","E_COORD97":169345.73000000001,"N_COORD97":2541989.2799999998,"ADDRESS":"大同路二段１７４號三樓之２","OBJECTID":636182},"geometry":{"x":169345.73000000045,"y":2541989.2799999993}},{"attributes":{"ID":636210,"DIS_CODE":0,"TOWNNAME":"南區","LI":"新生里","LIN":"6鄰","STREET":"大同路","SECT":"二段","MAREA":" ","LANE":" ","ALLEY":" ","HOUSE_NO":"１７４號四樓之１","E_COORD97":169345.73000000001,"N_COORD97":2541989.2799999998,"ADDRESS":"大同路二段１７４號四樓之１","OBJECTID":636183},"geometry":{"x":169345.73000000045,"y":2541989.2799999993}},{"attributes":{"ID":636211,"DIS_CODE":0,"TOWNNAME":"南區","LI":"新生里","LIN":"6鄰","STREET":"大同路","SECT":"二段","MAREA":" ","LANE":" ","ALLEY":" ","HOUSE_NO":"１７４號四樓之２","E_COORD97":169345.73000000001,"N_COORD97":2541989.2799999998,"ADDRESS":"大同路二段１７４號四樓之２","OBJECTID":636184},"geometry":{"x":169345.73000000045,"y":2541989.2799999993}},{"attributes":{"ID":636212,"DIS_CODE":0,"TOWNNAME":"南區","LI":"新生里","LIN":"6鄰","STREET":"大同路","SECT":"二段","MAREA":" ","LANE":" ","ALLEY":" ","HOUSE_NO":"１７４號五樓之１","E_COORD97":169345.73000000001,"N_COORD97":2541989.2799999998,"ADDRESS":"大同路二段１７４號五樓之１","OBJECTID":636185},"geometry":{"x":169345.73000000045,"y":2541989.2799999993}},{"attributes":{"ID":636213,"DIS_CODE":0,"TOWNNAME":"南區","LI":"新生里","LIN":"6鄰","STREET":"大同路","SECT":"二段","MAREA":" ","LANE":" ","ALLEY":" ","HOUSE_NO":"１７４號五樓之２","E_COORD97":169345.73000000001,"N_COORD97":2541989.2799999998,"ADDRESS":"大同路二段１７４號五樓之２","OBJECTID":636186},"geometry":{"x":169345.73000000045,"y":2541989.2799999993}},{"attributes":{"ID":636214,"DIS_CODE":0,"TOWNNAME":"南區","LI":"新生里","LIN":"6鄰","STREET":"大同路","SECT":"二段","MAREA":" ","LANE":" ","ALLEY":" ","HOUSE_NO":"１７４號六樓之１","E_COORD97":169345.73000000001,"N_COORD97":2541989.2799999998,"ADDRESS":"大同路二段１７４號六樓之１","OBJECTID":636187},"geometry":{"x":169345.73000000045,"y":2541989.2799999993}},{"attributes":{"ID":636215,"DIS_CODE":0,"TOWNNAME":"南區","LI":"新生里","LIN":"6鄰","STREET":"大同路","SECT":"二段","MAREA":" ","LANE":" ","ALLEY":" ","HOUSE_NO":"１７４號六樓之２","E_COORD97":169345.73000000001,"N_COORD97":2541989.2799999998,"ADDRESS":"大同路二段１７４號六樓之２","OBJECTID":636188},"geometry":{"x":169345.73000000045,"y":2541989.2799999993}},{"attributes":{"ID":636216,"DIS_CODE":0,"TOWNNAME":"北區","LI":"成德里","LIN":"26鄰","STREET":"育德一街","SECT":" ","MAREA":" ","LANE":" ","ALLEY":" ","HOUSE_NO":"３號四樓","E_COORD97":168478.51000000001,"N_COORD97":2545786,"ADDRESS":"育德一街３號四樓","OBJECTID":636189},"geometry":{"x":168478.50999999978,"y":2545786}},{"attributes":{"ID":636217,"DIS_CODE":0,"TOWNNAME":"北區","LI":"成德里","LIN":"39鄰","STREET":"北成路","SECT":" ","MAREA":" ","LANE":" ","ALLEY":" ","HOUSE_NO":"３３５號二樓","E_COORD97":168301.64999999999,"N_COORD97":2546596.0600000001,"ADDRESS":"北成路３３５號二樓","OBJECTID":636190},"geometry":{"x":168301.6500000013,"y":2546596.0600000005}},{"attributes":{"ID":636218,"DIS_CODE":0,"TOWNNAME":"北區","LI":"成德里","LIN":"39鄰","STREET":"北成路","SECT":" ","MAREA":" ","LANE":" ","ALLEY":" ","HOUSE_NO":"３３５號三樓","E_COORD97":168301.64999999999,"N_COORD97":2546596.0600000001,"ADDRESS":"北成路３３５號三樓","OBJECTID":636191},"geometry":{"x":168301.6500000013,"y":2546596.0600000005}},{"attributes":{"ID":636219,"DIS_CODE":0,"TOWNNAME":"北區","LI":"成德里","LIN":"39鄰","STREET":"北成路","SECT":" ","MAREA":" ","LANE":" ","ALLEY":" ","HOUSE_NO":"３３５號四樓","E_COORD97":168301.64999999999,"N_COORD97":2546596.0600000001,"ADDRESS":"北成路３３５號四樓","OBJECTID":636192},"geometry":{"x":168301.6500000013,"y":2546596.0600000005}},{"attributes":{"ID":636220,"DIS_CODE":0,"TOWNNAME":"北區","LI":"成德里","LIN":"26鄰","STREET":"育德一街","SECT":" ","MAREA":" ","LANE":" ","ALLEY":" ","HOUSE_NO":"３號六樓","E_COORD97":168478.51000000001,"N_COORD97":2545786,"ADDRESS":"育德一街３號六樓","OBJECTID":636193},"geometry":{"x":168478.50999999978,"y":2545786}},{"attributes":{"ID":636221,"DIS_CODE":0,"TOWNNAME":"北區","LI":"三德里","LIN":"13鄰","STREET":"成功路","SECT":" ","MAREA":" ","LANE":" ","ALLEY":" ","HOUSE_NO":"２０２號七樓","E_COORD97":168358.97,"N_COORD97":2544434.04,"ADDRESS":"成功路２０２號七樓","OBJECTID":636194},"geometry":{"x":168358.9700000016,"y":2544434.040000001}},{"attributes":{"ID":636222,"DIS_CODE":0,"TOWNNAME":"北區","LI":"三德里","LIN":"13鄰","STREET":"成功路","SECT":" ","MAREA":" ","LANE":" ","ALLEY":" ","HOUSE_NO":"２０２號九樓","E_COORD97":168358.97,"N_COORD97":2544434.04,"ADDRESS":"成功路２０２號九樓","OBJECTID":636195},"geometry":{"x":168358.9700000016,"y":2544434.040000001}},{"attributes":{"ID":636223,"DIS_CODE":0,"TOWNNAME":"北區","LI":"三德里","LIN":"13鄰","STREET":"成功路","SECT":" ","MAREA":" ","LANE":" ","ALLEY":" ","HOUSE_NO":"２０２號八樓","E_COORD97":168358.97,"N_COORD97":2544434.04,"ADDRESS":"成功路２０２號八樓","OBJECTID":636196},"geometry":{"x":168358.9700000016,"y":2544434.040000001}},{"attributes":{"ID":636224,"DIS_CODE":0,"TOWNNAME":"北區","LI":"三德里","LIN":"13鄰","STREET":"成功路","SECT":" ","MAREA":" ","LANE":" ","ALLEY":" ","HOUSE_NO":"２０２號十二樓","E_COORD97":168358.97,"N_COORD97":2544434.04,"ADDRESS":"成功路２０２號十二樓","OBJECTID":636197},"geometry":{"x":168358.9700000016,"y":2544434.040000001}},{"attributes":{"ID":636225,"DIS_CODE":0,"TOWNNAME":"北區","LI":"三德里","LIN":"6鄰","STREET":"忠義路","SECT":"三段","MAREA":" ","LANE":" ","ALLEY":" ","HOUSE_NO":"２９號二樓之１","E_COORD97":168515.39000000001,"N_COORD97":2544429.02,"ADDRESS":"忠義路三段２９號二樓之１","OBJECTID":636198},"geometry":{"x":168515.39000000153,"y":2544429.0199999996}},{"attributes":{"ID":636226,"DIS_CODE":0,"TOWNNAME":"北區","LI":"三德里","LIN":"6鄰","STREET":"忠義路","SECT":"三段","MAREA":" ","LANE":" ","ALLEY":" ","HOUSE_NO":"２９號二樓之２","E_COORD97":168515.39000000001,"N_COORD97":2544429.02,"ADDRESS":"忠義路三段２９號二樓之２","OBJECTID":636199},"geometry":{"x":168515.39000000153,"y":2544429.0199999996}},{"attributes":{"ID":636227,"DIS_CODE":0,"TOWNNAME":"北區","LI":"三德里","LIN":"6鄰","STREET":"忠義路","SECT":"三段","MAREA":" ","LANE":" ","ALLEY":" ","HOUSE_NO":"２９號三樓之１","E_COORD97":168515.39000000001,"N_COORD97":2544429.02,"ADDRESS":"忠義路三段２９號三樓之１","OBJECTID":636200},"geometry":{"x":168515.39000000153,"y":2544429.0199999996}}]}