{"displayFieldName":"TOWNNAME","fieldAliases":{"ID":"ID","DIS_CODE":"DIS_CODE","TOWNNAME":"TOWNNAME","LI":"LI","LIN":"LIN","STREET":"STREET","SECT":"SECT","MAREA":"MAREA","LANE":"LANE","ALLEY":"ALLEY","HOUSE_NO":"HOUSE_NO","E_COORD97":"E_COORD97","N_COORD97":"N_COORD97","ADDRESS":"ADDRESS","OBJECTID":"OBJECTID"},"geometryType":"esriGeometryPoint","spatialReference":{"wkid":102443,"latestWkid":3826},"fields":[{"name":"ID","type":"esriFieldTypeDouble","alias":"ID"},{"name":"DIS_CODE","type":"esriFieldTypeInteger","alias":"DIS_CODE"},{"name":"TOWNNAME","type":"esriFieldTypeString","alias":"TOWNNAME","length":8},{"name":"LI","type":"esriFieldTypeString","alias":"LI","length":8},{"name":"LIN","type":"esriFieldTypeString","alias":"LIN","length":12},{"name":"STREET","type":"esriFieldTypeString","alias":"STREET","length":20},{"name":"SECT","type":"esriFieldTypeString","alias":"SECT","length":8},{"name":"MAREA","type":"esriFieldTypeString","alias":"MAREA","length":12},{"name":"LANE","type":"esriFieldTypeString","alias":"LANE","length":10},{"name":"ALLEY","type":"esriFieldTypeString","alias":"ALLEY","length":10},{"name":"HOUSE_NO","type":"esriFieldTypeString","alias":"HOUSE_NO","length":20},{"name":"E_COORD97","type":"esriFieldTypeDouble","alias":"E_COORD97"},{"name":"N_COORD97","type":"esriFieldTypeDouble","alias":"N_COORD97"},{"name":"ADDRESS","type":"esriFieldTypeString","alias":"ADDRESS","length":50},{"name":"OBJECTID","type":"esriFieldTypeOID","alias":"OBJECTID"}],"features":[{"attributes":{"ID":115001,"DIS_CODE":0,"TOWNNAME":"東區","LI":"富強里","LIN":"28鄰","STREET":"東門路","SECT":"二段","MAREA":" ","LANE":"３６５巷","ALLEY":"３４弄","HOUSE_NO":"１號三樓","E_COORD97":170875.84,"N_COORD97":2542688.4199999999,"ADDRESS":"東門路二段３６５巷３４弄１號三樓","OBJECTID":115001},"geometry":{"x":170875.84000000078,"y":2542688.4199999999}},{"attributes":{"ID":115002,"DIS_CODE":0,"TOWNNAME":"東區","LI":"富強里","LIN":"28鄰","STREET":"東門路","SECT":"二段","MAREA":" ","LANE":"３６５巷","ALLEY":"３４弄","HOUSE_NO":"１號五樓","E_COORD97":170875.84,"N_COORD97":2542688.4199999999,"ADDRESS":"東門路二段３６５巷３４弄１號五樓","OBJECTID":115002},"geometry":{"x":170875.84000000078,"y":2542688.4199999999}},{"attributes":{"ID":115003,"DIS_CODE":0,"TOWNNAME":"東區","LI":"富強里","LIN":"28鄰","STREET":"東門路","SECT":"二段","MAREA":" ","LANE":"３６５巷","ALLEY":"３４弄","HOUSE_NO":"１號四樓","E_COORD97":170875.84,"N_COORD97":2542688.4199999999,"ADDRESS":"東門路二段３６５巷３４弄１號四樓","OBJECTID":115003},"geometry":{"x":170875.84000000078,"y":2542688.4199999999}},{"attributes":{"ID":115004,"DIS_CODE":0,"TOWNNAME":"安南區","LI":"\u25A0南里","LIN":"28鄰","STREET":"安昌街","SECT":" ","MAREA":" ","LANE":"３２２巷","ALLEY":"２弄","HOUSE_NO":"１２號","E_COORD97":170234.67999999999,"N_COORD97":2552837.5800000001,"ADDRESS":"安昌街３２２巷２弄１２號","OBJECTID":115004},"geometry":{"x":170234.68000000063,"y":2552837.5800000001}},{"attributes":{"ID":115005,"DIS_CODE":0,"TOWNNAME":"東區","LI":"富強里","LIN":"28鄰","STREET":"東門路","SECT":"二段","MAREA":" ","LANE":"３６５巷","ALLEY":"３４弄","HOUSE_NO":"３號二樓","E_COORD97":170882.94,"N_COORD97":2542689.4700000002,"ADDRESS":"東門路二段３６５巷３４弄３號二樓","OBJECTID":115005},"geometry":{"x":170882.94000000134,"y":2542689.4700000044}},{"attributes":{"ID":115006,"DIS_CODE":0,"TOWNNAME":"東區","LI":"富強里","LIN":"28鄰","STREET":"東門路","SECT":"二段","MAREA":" ","LANE":"３６５巷","ALLEY":"３４弄","HOUSE_NO":"３號三樓","E_COORD97":170882.94,"N_COORD97":2542689.4700000002,"ADDRESS":"東門路二段３６５巷３４弄３號三樓","OBJECTID":115006},"geometry":{"x":170882.94000000134,"y":2542689.4700000044}},{"attributes":{"ID":115007,"DIS_CODE":0,"TOWNNAME":"東區","LI":"富強里","LIN":"28鄰","STREET":"東門路","SECT":"二段","MAREA":" ","LANE":"３６５巷","ALLEY":"３４弄","HOUSE_NO":"３號四樓","E_COORD97":170882.94,"N_COORD97":2542689.4700000002,"ADDRESS":"東門路二段３６５巷３４弄３號四樓","OBJECTID":115007},"geometry":{"x":170882.94000000134,"y":2542689.4700000044}},{"attributes":{"ID":115008,"DIS_CODE":0,"TOWNNAME":"東區","LI":"富強里","LIN":"28鄰","STREET":"東門路","SECT":"二段","MAREA":" ","LANE":"３６５巷","ALLEY":"３４弄","HOUSE_NO":"５號二樓","E_COORD97":170890.64000000001,"N_COORD97":2542690.3799999999,"ADDRESS":"東門路二段３６５巷３４弄５號二樓","OBJECTID":115008},"geometry":{"x":170890.6400000006,"y":2542690.379999999}},{"attributes":{"ID":115009,"DIS_CODE":0,"TOWNNAME":"東區","LI":"富強里","LIN":"28鄰","STREET":"東門路","SECT":"二段","MAREA":" ","LANE":"３６５巷","ALLEY":"３４弄","HOUSE_NO":"５號三樓","E_COORD97":170890.64000000001,"N_COORD97":2542690.3799999999,"ADDRESS":"東門路二段３６５巷３４弄５號三樓","OBJECTID":115009},"geometry":{"x":170890.6400000006,"y":2542690.379999999}},{"attributes":{"ID":115010,"DIS_CODE":0,"TOWNNAME":"東區","LI":"富強里","LIN":"28鄰","STREET":"東門路","SECT":"二段","MAREA":" ","LANE":"３６５巷","ALLEY":"３４弄","HOUSE_NO":"５號四樓","E_COORD97":170890.64000000001,"N_COORD97":2542690.3799999999,"ADDRESS":"東門路二段３６５巷３４弄５號四樓","OBJECTID":115010},"geometry":{"x":170890.6400000006,"y":2542690.379999999}},{"attributes":{"ID":115011,"DIS_CODE":0,"TOWNNAME":"東區","LI":"富強里","LIN":"28鄰","STREET":"東門路","SECT":"二段","MAREA":" ","LANE":"３６５巷","ALLEY":"３４弄","HOUSE_NO":"７號二樓","E_COORD97":170896.53,"N_COORD97":2542689.9300000002,"ADDRESS":"東門路二段３６５巷３４弄７號二樓","OBJECTID":115011},"geometry":{"x":170896.53000000026,"y":2542689.9300000016}},{"attributes":{"ID":115012,"DIS_CODE":0,"TOWNNAME":"東山區","LI":"青山里","LIN":"16鄰","STREET":" ","SECT":" ","MAREA":"青山","LANE":" ","ALLEY":" ","HOUSE_NO":"３９號","E_COORD97":195661.25,"N_COORD97":2575358.98,"ADDRESS":"青山３９號","OBJECTID":115012},"geometry":{"x":195661.25,"y":2575358.9800000042}},{"attributes":{"ID":115013,"DIS_CODE":0,"TOWNNAME":"永康區","LI":"網寮里","LIN":"17鄰","STREET":"永興路","SECT":" ","MAREA":" ","LANE":"４２７巷","ALLEY":"２弄","HOUSE_NO":"３３號","E_COORD97":173222.60999999999,"N_COORD97":2546815.1699999999,"ADDRESS":"永興路４２７巷２弄３３號","OBJECTID":115013},"geometry":{"x":173222.61000000127,"y":2546815.1699999999}},{"attributes":{"ID":115014,"DIS_CODE":0,"TOWNNAME":"永康區","LI":"網寮里","LIN":"17鄰","STREET":"永興路","SECT":" ","MAREA":" ","LANE":"４２７巷","ALLEY":"２弄","HOUSE_NO":"４５號","E_COORD97":173215.73000000001,"N_COORD97":2546803.5899999999,"ADDRESS":"永興路４２７巷２弄４５號","OBJECTID":115014},"geometry":{"x":173215.73000000045,"y":2546803.5900000036}},{"attributes":{"ID":115015,"DIS_CODE":0,"TOWNNAME":"東區","LI":"虎尾里","LIN":"23鄰","STREET":"東成街","SECT":" ","MAREA":" ","LANE":"１８２巷","ALLEY":"１弄","HOUSE_NO":"３號","E_COORD97":171776.94,"N_COORD97":2542278.5499999998,"ADDRESS":"東成街１８２巷１弄３號","OBJECTID":115015},"geometry":{"x":171776.94000000041,"y":2542278.5500000045}},{"attributes":{"ID":115016,"DIS_CODE":0,"TOWNNAME":"東區","LI":"虎尾里","LIN":"23鄰","STREET":"東成街","SECT":" ","MAREA":" ","LANE":"１８２巷","ALLEY":"１弄","HOUSE_NO":"５號","E_COORD97":171786.32999999999,"N_COORD97":2542279.3799999999,"ADDRESS":"東成街１８２巷１弄５號","OBJECTID":115016},"geometry":{"x":171786.33000000194,"y":2542279.3800000008}},{"attributes":{"ID":115017,"DIS_CODE":0,"TOWNNAME":"東區","LI":"虎尾里","LIN":"23鄰","STREET":"東成街","SECT":" ","MAREA":" ","LANE":"１８２巷","ALLEY":"１弄","HOUSE_NO":"７號","E_COORD97":171794.76000000001,"N_COORD97":2542280.21,"ADDRESS":"東成街１８２巷１弄７號","OBJECTID":115017},"geometry":{"x":171794.75999999978,"y":2542280.2100000009}},{"attributes":{"ID":115018,"DIS_CODE":0,"TOWNNAME":"永康區","LI":"龍潭里","LIN":"23鄰","STREET":"自強路","SECT":" ","MAREA":" ","LANE":"７５０巷","ALLEY":"６８弄","HOUSE_NO":"１２號","E_COORD97":174554.67000000001,"N_COORD97":2548426.8500000001,"ADDRESS":"自強路７５０巷６８弄１２號","OBJECTID":115018},"geometry":{"x":174554.66999999993,"y":2548426.8500000015}},{"attributes":{"ID":115019,"DIS_CODE":0,"TOWNNAME":"永康區","LI":"復國里","LIN":"22鄰","STREET":"復華六街","SECT":" ","MAREA":" ","LANE":"９３巷","ALLEY":"２０弄","HOUSE_NO":"５號","E_COORD97":172583.16,"N_COORD97":2545777.5899999999,"ADDRESS":"復華六街９３巷２０弄５號","OBJECTID":115019},"geometry":{"x":172583.16000000108,"y":2545777.5900000017}},{"attributes":{"ID":115020,"DIS_CODE":0,"TOWNNAME":"永康區","LI":"勝利里","LIN":"20鄰","STREET":"勝利街","SECT":" ","MAREA":" ","LANE":"１９７巷","ALLEY":"４０弄","HOUSE_NO":"１５號","E_COORD97":171280.34,"N_COORD97":2545177.7599999998,"ADDRESS":"勝利街１９７巷４０弄１５號","OBJECTID":115020},"geometry":{"x":171280.33999999985,"y":2545177.7599999998}},{"attributes":{"ID":115021,"DIS_CODE":0,"TOWNNAME":"永康區","LI":"復興里","LIN":"24鄰","STREET":"復興路","SECT":" ","MAREA":" ","LANE":"３５６巷","ALLEY":"８０弄","HOUSE_NO":"５７號","E_COORD97":172428.01000000001,"N_COORD97":2544564.9700000002,"ADDRESS":"復興路３５６巷８０弄５７號","OBJECTID":115021},"geometry":{"x":172428.01000000071,"y":2544564.9700000025}},{"attributes":{"ID":115022,"DIS_CODE":0,"TOWNNAME":"永康區","LI":"復興里","LIN":"24鄰","STREET":"復興路","SECT":" ","MAREA":" ","LANE":"３５６巷","ALLEY":"８０弄","HOUSE_NO":"３５號","E_COORD97":172393.59,"N_COORD97":2544560.0299999998,"ADDRESS":"復興路３５６巷８０弄３５號","OBJECTID":115022},"geometry":{"x":172393.59000000078,"y":2544560.0300000012}},{"attributes":{"ID":115023,"DIS_CODE":0,"TOWNNAME":"永康區","LI":"復興里","LIN":"24鄰","STREET":"復興路","SECT":" ","MAREA":" ","LANE":"３５６巷","ALLEY":"８０弄","HOUSE_NO":"１１號","E_COORD97":172385.48000000001,"N_COORD97":2544560.5299999998,"ADDRESS":"復興路３５６巷８０弄１１號","OBJECTID":115023},"geometry":{"x":172385.48000000045,"y":2544560.5300000012}},{"attributes":{"ID":115024,"DIS_CODE":0,"TOWNNAME":"永康區","LI":"網寮里","LIN":"17鄰","STREET":"永興路","SECT":" ","MAREA":" ","LANE":"４２７巷","ALLEY":"２弄","HOUSE_NO":"４３號","E_COORD97":173216.75,"N_COORD97":2546797.8399999999,"ADDRESS":"永興路４２７巷２弄４３號","OBJECTID":115024},"geometry":{"x":173216.75,"y":2546797.8399999999}},{"attributes":{"ID":115025,"DIS_CODE":0,"TOWNNAME":"永康區","LI":"二王里","LIN":"23鄰","STREET":"忠孝路","SECT":" ","MAREA":" ","LANE":"４２９巷","ALLEY":"１５弄","HOUSE_NO":"６號","E_COORD97":172451.25,"N_COORD97":2546504.8599999999,"ADDRESS":"忠孝路４２９巷１５弄６號","OBJECTID":115025},"geometry":{"x":172451.25000000186,"y":2546504.8599999994}},{"attributes":{"ID":115026,"DIS_CODE":0,"TOWNNAME":"永康區","LI":"三合里","LIN":"23鄰","STREET":"南工街","SECT":" ","MAREA":" ","LANE":"３２３巷","ALLEY":"３２弄","HOUSE_NO":"２號","E_COORD97":171776.35999999999,"N_COORD97":2545942.7400000002,"ADDRESS":"南工街３２３巷３２弄２號","OBJECTID":115026},"geometry":{"x":171776.36000000127,"y":2545942.7400000021}},{"attributes":{"ID":115027,"DIS_CODE":0,"TOWNNAME":"安南區","LI":"鳳凰里","LIN":"23鄰","STREET":"怡安路","SECT":"二段","MAREA":" ","LANE":"５４５巷","ALLEY":"６弄","HOUSE_NO":"１號","E_COORD97":167508.98000000001,"N_COORD97":2549386.3199999998,"ADDRESS":"怡安路二段５４５巷６弄１號","OBJECTID":115027},"geometry":{"x":167508.98000000138,"y":2549386.3200000022}},{"attributes":{"ID":115028,"DIS_CODE":0,"TOWNNAME":"南區","LI":"再興里","LIN":"1鄰","STREET":"健康路","SECT":"二段","MAREA":" ","LANE":" ","ALLEY":" ","HOUSE_NO":"１７１號","E_COORD97":167263.37,"N_COORD97":2542453.3199999998,"ADDRESS":"健康路二段１７１號","OBJECTID":115028},"geometry":{"x":167263.37000000197,"y":2542453.3200000022}},{"attributes":{"ID":115029,"DIS_CODE":0,"TOWNNAME":"南區","LI":"再興里","LIN":"1鄰","STREET":"健康路","SECT":"二段","MAREA":" ","LANE":" ","ALLEY":" ","HOUSE_NO":"１９９號","E_COORD97":167186.17000000001,"N_COORD97":2542454.8799999999,"ADDRESS":"健康路二段１９９號","OBJECTID":115029},"geometry":{"x":167186.16999999993,"y":2542454.8800000008}},{"attributes":{"ID":115030,"DIS_CODE":0,"TOWNNAME":"南區","LI":"大恩里","LIN":"1鄰","STREET":"國民路","SECT":" ","MAREA":" ","LANE":" ","ALLEY":" ","HOUSE_NO":"６２號","E_COORD97":169416.29999999999,"N_COORD97":2540903.3999999999,"ADDRESS":"國民路６２號","OBJECTID":115030},"geometry":{"x":169416.30000000168,"y":2540903.4000000022}},{"attributes":{"ID":115031,"DIS_CODE":0,"TOWNNAME":"南區","LI":"大恩里","LIN":"1鄰","STREET":"國民路","SECT":" ","MAREA":" ","LANE":" ","ALLEY":" ","HOUSE_NO":"６２之１號","E_COORD97":169412.17000000001,"N_COORD97":2540903.2400000002,"ADDRESS":"國民路６２之１號","OBJECTID":115031},"geometry":{"x":169412.16999999899,"y":2540903.2400000002}},{"attributes":{"ID":115032,"DIS_CODE":0,"TOWNNAME":"南區","LI":"大恩里","LIN":"1鄰","STREET":"國民路","SECT":" ","MAREA":" ","LANE":" ","ALLEY":" ","HOUSE_NO":"６６號","E_COORD97":169406.92999999999,"N_COORD97":2540902.7599999998,"ADDRESS":"國民路６６號","OBJECTID":115032},"geometry":{"x":169406.93000000156,"y":2540902.7599999998}},{"attributes":{"ID":115033,"DIS_CODE":0,"TOWNNAME":"南區","LI":"大恩里","LIN":"1鄰","STREET":"國民路","SECT":" ","MAREA":" ","LANE":" ","ALLEY":" ","HOUSE_NO":"６８號","E_COORD97":169402.95999999999,"N_COORD97":2540903.2400000002,"ADDRESS":"國民路６８號","OBJECTID":115033},"geometry":{"x":169402.95999999996,"y":2540903.2400000002}},{"attributes":{"ID":115034,"DIS_CODE":0,"TOWNNAME":"南區","LI":"竹溪里","LIN":"1鄰","STREET":"竹溪街","SECT":" ","MAREA":" ","LANE":" ","ALLEY":" ","HOUSE_NO":"７０號","E_COORD97":169011.85000000001,"N_COORD97":2542256.3399999999,"ADDRESS":"竹溪街７０號","OBJECTID":115034},"geometry":{"x":169011.84999999963,"y":2542256.3400000017}},{"attributes":{"ID":115035,"DIS_CODE":0,"TOWNNAME":"下營區","LI":"開化里","LIN":"1鄰","STREET":" ","SECT":" ","MAREA":"中營","LANE":" ","ALLEY":" ","HOUSE_NO":"３３號","E_COORD97":175462.06,"N_COORD97":2568318.1699999999,"ADDRESS":"中營３３號","OBJECTID":115035},"geometry":{"x":175462.05999999959,"y":2568318.1699999999}},{"attributes":{"ID":115036,"DIS_CODE":0,"TOWNNAME":"南區","LI":"佛壇里","LIN":"1鄰","STREET":"興南街","SECT":" ","MAREA":" ","LANE":" ","ALLEY":" ","HOUSE_NO":"３４０之１號","E_COORD97":165742.82999999999,"N_COORD97":2535540.9500000002,"ADDRESS":"興南街３４０之１號","OBJECTID":115036},"geometry":{"x":165742.82999999914,"y":2535540.950000003}},{"attributes":{"ID":115037,"DIS_CODE":0,"TOWNNAME":"南區","LI":"鯤鯓里","LIN":"1鄰","STREET":"清水路","SECT":" ","MAREA":" ","LANE":" ","ALLEY":" ","HOUSE_NO":"３９７號","E_COORD97":165151.59,"N_COORD97":2539708.0099999998,"ADDRESS":"清水路３９７號","OBJECTID":115037},"geometry":{"x":165151.59000000078,"y":2539708.0100000035}},{"attributes":{"ID":115038,"DIS_CODE":0,"TOWNNAME":"下營區","LI":"大屯里","LIN":"3鄰","STREET":" ","SECT":" ","MAREA":"大屯寮","LANE":" ","ALLEY":" ","HOUSE_NO":"２６號之１１","E_COORD97":172001.39999999999,"N_COORD97":2570288.1200000001,"ADDRESS":"大屯寮２６號之１１","OBJECTID":115038},"geometry":{"x":172001.40000000224,"y":2570288.120000001}},{"attributes":{"ID":115039,"DIS_CODE":0,"TOWNNAME":"新市區","LI":"社內里","LIN":"20鄰","STREET":" ","SECT":" ","MAREA":"社內","LANE":" ","ALLEY":" ","HOUSE_NO":"２０８號","E_COORD97":175877.5,"N_COORD97":2553015.75,"ADDRESS":"社內２０８號","OBJECTID":115039},"geometry":{"x":175877.50000000093,"y":2553015.75}},{"attributes":{"ID":115040,"DIS_CODE":0,"TOWNNAME":"新市區","LI":"永就里","LIN":"4鄰","STREET":" ","SECT":" ","MAREA":"永就","LANE":" ","ALLEY":" ","HOUSE_NO":"３９之４號","E_COORD97":178518.60999999999,"N_COORD97":2551485.7999999998,"ADDRESS":"永就３９之４號","OBJECTID":115040},"geometry":{"x":178518.61000000127,"y":2551485.8000000026}},{"attributes":{"ID":115041,"DIS_CODE":0,"TOWNNAME":"新市區","LI":"永就里","LIN":"4鄰","STREET":" ","SECT":" ","MAREA":"永就","LANE":" ","ALLEY":" ","HOUSE_NO":"４２之１６號","E_COORD97":178412.75,"N_COORD97":2551527.0499999998,"ADDRESS":"永就４２之１６號","OBJECTID":115041},"geometry":{"x":178412.75,"y":2551527.0500000007}},{"attributes":{"ID":115042,"DIS_CODE":0,"TOWNNAME":"新市區","LI":"永就里","LIN":"4鄰","STREET":" ","SECT":" ","MAREA":"永就","LANE":" ","ALLEY":" ","HOUSE_NO":"４２之４號","E_COORD97":178444.39999999999,"N_COORD97":2551521.0499999998,"ADDRESS":"永就４２之４號","OBJECTID":115042},"geometry":{"x":178444.40000000037,"y":2551521.0500000045}},{"attributes":{"ID":115043,"DIS_CODE":0,"TOWNNAME":"新市區","LI":"大社里","LIN":"32鄰","STREET":" ","SECT":" ","MAREA":"大社","LANE":" ","ALLEY":" ","HOUSE_NO":"２８４之１９號","E_COORD97":180645.60000000001,"N_COORD97":2554644.5499999998,"ADDRESS":"大社２８４之１９號","OBJECTID":115043},"geometry":{"x":180645.59999999963,"y":2554644.5500000026}},{"attributes":{"ID":115044,"DIS_CODE":0,"TOWNNAME":"新市區","LI":"社內里","LIN":"13鄰","STREET":" ","SECT":" ","MAREA":"社內","LANE":" ","ALLEY":" ","HOUSE_NO":"１３６之２號","E_COORD97":176318.20000000001,"N_COORD97":2552769.5499999998,"ADDRESS":"社內１３６之２號","OBJECTID":115044},"geometry":{"x":176318.20000000019,"y":2552769.5500000026}},{"attributes":{"ID":115045,"DIS_CODE":0,"TOWNNAME":"新市區","LI":"大社里","LIN":"4鄰","STREET":" ","SECT":" ","MAREA":"大社","LANE":" ","ALLEY":" ","HOUSE_NO":"１６３號","E_COORD97":180134.81,"N_COORD97":2554298.5,"ADDRESS":"大社１６３號","OBJECTID":115045},"geometry":{"x":180134.81000000145,"y":2554298.5000000019}},{"attributes":{"ID":115046,"DIS_CODE":0,"TOWNNAME":"新市區","LI":"三舍里","LIN":"4鄰","STREET":" ","SECT":" ","MAREA":"三舍","LANE":" ","ALLEY":" ","HOUSE_NO":"１０８之５號","E_COORD97":178026.89999999999,"N_COORD97":2554568.7999999998,"ADDRESS":"三舍１０８之５號","OBJECTID":115046},"geometry":{"x":178026.9000000013,"y":2554568.8000000007}},{"attributes":{"ID":115047,"DIS_CODE":0,"TOWNNAME":"安南區","LI":"鳳凰里","LIN":"23鄰","STREET":"怡安路","SECT":"二段","MAREA":" ","LANE":"５４５巷","ALLEY":"６弄","HOUSE_NO":"３號","E_COORD97":167494.29000000001,"N_COORD97":2549386.9199999999,"ADDRESS":"怡安路二段５４５巷６弄３號","OBJECTID":115047},"geometry":{"x":167494.2900000019,"y":2549386.9199999999}},{"attributes":{"ID":115048,"DIS_CODE":0,"TOWNNAME":"南區","LI":"竹溪里","LIN":"1鄰","STREET":"竹溪街","SECT":" ","MAREA":" ","LANE":" ","ALLEY":" ","HOUSE_NO":"１２號","E_COORD97":168970.82000000001,"N_COORD97":2542375.6899999999,"ADDRESS":"竹溪街１２號","OBJECTID":115048},"geometry":{"x":168970.81999999937,"y":2542375.6900000013}},{"attributes":{"ID":115049,"DIS_CODE":0,"TOWNNAME":"南區","LI":"明亮里","LIN":"1鄰","STREET":"金華路","SECT":"一段","MAREA":" ","LANE":" ","ALLEY":" ","HOUSE_NO":"２８８之２號","E_COORD97":167009.64000000001,"N_COORD97":2541019.3700000001,"ADDRESS":"金華路一段２８８之２號","OBJECTID":115049},"geometry":{"x":167009.63999999966,"y":2541019.3700000029}},{"attributes":{"ID":115050,"DIS_CODE":0,"TOWNNAME":"安南區","LI":"鳳凰里","LIN":"23鄰","STREET":"怡安路","SECT":"二段","MAREA":" ","LANE":"５４５巷","ALLEY":"６弄","HOUSE_NO":"５號","E_COORD97":167491.92000000001,"N_COORD97":2549387.3300000001,"ADDRESS":"怡安路二段５４５巷６弄５號","OBJECTID":115050},"geometry":{"x":167491.92000000086,"y":2549387.3300000019}},{"attributes":{"ID":115051,"DIS_CODE":0,"TOWNNAME":"新化區","LI":"東榮里","LIN":"20鄰","STREET":"民生路","SECT":" ","MAREA":" ","LANE":" ","ALLEY":" ","HOUSE_NO":"１５號","E_COORD97":179426.85999999999,"N_COORD97":2548230.25,"ADDRESS":"民生路１５號","OBJECTID":115051},"geometry":{"x":179426.86000000127,"y":2548230.2500000037}},{"attributes":{"ID":115052,"DIS_CODE":0,"TOWNNAME":"永康區","LI":"勝利里","LIN":"38鄰","STREET":"勝利街","SECT":" ","MAREA":" ","LANE":"１９７巷","ALLEY":"８弄","HOUSE_NO":"２號","E_COORD97":171332.84,"N_COORD97":2545155.25,"ADDRESS":"勝利街１９７巷８弄２號","OBJECTID":115052},"geometry":{"x":171332.83999999985,"y":2545155.2500000019}},{"attributes":{"ID":115053,"DIS_CODE":0,"TOWNNAME":"永康區","LI":"勝利里","LIN":"20鄰","STREET":"勝利街","SECT":" ","MAREA":" ","LANE":"１９７巷","ALLEY":"４０弄","HOUSE_NO":"２４號","E_COORD97":171295.64000000001,"N_COORD97":2545165.5099999998,"ADDRESS":"勝利街１９７巷４０弄２４號","OBJECTID":115053},"geometry":{"x":171295.64000000153,"y":2545165.5099999998}},{"attributes":{"ID":115054,"DIS_CODE":0,"TOWNNAME":"安南區","LI":"鳳凰里","LIN":"23鄰","STREET":"怡安路","SECT":"二段","MAREA":" ","LANE":"５４５巷","ALLEY":"６弄","HOUSE_NO":"７號","E_COORD97":167489.44,"N_COORD97":2549387.9500000002,"ADDRESS":"怡安路二段５４５巷６弄７號","OBJECTID":115054},"geometry":{"x":167489.44000000134,"y":2549387.9500000011}},{"attributes":{"ID":115055,"DIS_CODE":0,"TOWNNAME":"安南區","LI":"鳳凰里","LIN":"23鄰","STREET":"怡安路","SECT":"二段","MAREA":" ","LANE":"５４５巷","ALLEY":"６弄","HOUSE_NO":"９號","E_COORD97":167483.78,"N_COORD97":2549389.3900000001,"ADDRESS":"怡安路二段５４５巷６弄９號","OBJECTID":115055},"geometry":{"x":167483.78000000026,"y":2549389.3900000043}},{"attributes":{"ID":115056,"DIS_CODE":0,"TOWNNAME":"安南區","LI":"鳳凰里","LIN":"23鄰","STREET":"怡安路","SECT":"二段","MAREA":" ","LANE":"５４５巷","ALLEY":"６弄","HOUSE_NO":"１１號","E_COORD97":167481.10000000001,"N_COORD97":2549389.7999999998,"ADDRESS":"怡安路二段５４５巷６弄１１號","OBJECTID":115056},"geometry":{"x":167481.09999999963,"y":2549389.7999999989}},{"attributes":{"ID":115057,"DIS_CODE":0,"TOWNNAME":"安南區","LI":"鳳凰里","LIN":"23鄰","STREET":"怡安路","SECT":"二段","MAREA":" ","LANE":"５４５巷","ALLEY":"６弄","HOUSE_NO":"１３號","E_COORD97":167479.25,"N_COORD97":2549390.3199999998,"ADDRESS":"怡安路二段５４５巷６弄１３號","OBJECTID":115057},"geometry":{"x":167479.25000000186,"y":2549390.3200000022}},{"attributes":{"ID":115058,"DIS_CODE":0,"TOWNNAME":"安南區","LI":"鳳凰里","LIN":"23鄰","STREET":"怡安路","SECT":"二段","MAREA":" ","LANE":"５４５巷","ALLEY":"６弄","HOUSE_NO":"１５號","E_COORD97":167468.17999999999,"N_COORD97":2549394.4300000002,"ADDRESS":"怡安路二段５４５巷６弄１５號","OBJECTID":115058},"geometry":{"x":167468.18000000063,"y":2549394.4299999997}},{"attributes":{"ID":115059,"DIS_CODE":0,"TOWNNAME":"安南區","LI":"鳳凰里","LIN":"23鄰","STREET":"怡安路","SECT":"二段","MAREA":" ","LANE":"５４５巷","ALLEY":"６弄","HOUSE_NO":"１７號","E_COORD97":167460.97,"N_COORD97":2549395.77,"ADDRESS":"怡安路二段５４５巷６弄１７號","OBJECTID":115059},"geometry":{"x":167460.97000000067,"y":2549395.7700000033}},{"attributes":{"ID":115060,"DIS_CODE":0,"TOWNNAME":"安南區","LI":"鳳凰里","LIN":"23鄰","STREET":"怡安路","SECT":"二段","MAREA":" ","LANE":"５４５巷","ALLEY":"６弄","HOUSE_NO":"１９號","E_COORD97":167456.75,"N_COORD97":2549396.5899999999,"ADDRESS":"怡安路二段５４５巷６弄１９號","OBJECTID":115060},"geometry":{"x":167456.75,"y":2549396.5899999999}},{"attributes":{"ID":115061,"DIS_CODE":0,"TOWNNAME":"安南區","LI":"鳳凰里","LIN":"23鄰","STREET":"怡安路","SECT":"二段","MAREA":" ","LANE":"５４５巷","ALLEY":"６弄","HOUSE_NO":"２１號","E_COORD97":167452.63,"N_COORD97":2549400.1899999999,"ADDRESS":"怡安路二段５４５巷６弄２１號","OBJECTID":115061},"geometry":{"x":167452.62999999989,"y":2549400.1900000013}},{"attributes":{"ID":115062,"DIS_CODE":0,"TOWNNAME":"安南區","LI":"鳳凰里","LIN":"23鄰","STREET":"怡安路","SECT":"二段","MAREA":" ","LANE":"５４５巷","ALLEY":"６弄","HOUSE_NO":"２３號","E_COORD97":167447.79000000001,"N_COORD97":2549401.2200000002,"ADDRESS":"怡安路二段５４５巷６弄２３號","OBJECTID":115062},"geometry":{"x":167447.79000000004,"y":2549401.2200000025}},{"attributes":{"ID":115063,"DIS_CODE":0,"TOWNNAME":"安南區","LI":"安富里","LIN":"23鄰","STREET":"郡安路","SECT":"五段","MAREA":" ","LANE":"１６４巷","ALLEY":"７弄","HOUSE_NO":"６號","E_COORD97":167686.29999999999,"N_COORD97":2547613.4399999999,"ADDRESS":"郡安路五段１６４巷７弄６號","OBJECTID":115063},"geometry":{"x":167686.30000000075,"y":2547613.4399999995}},{"attributes":{"ID":115064,"DIS_CODE":0,"TOWNNAME":"永康區","LI":"網寮里","LIN":"17鄰","STREET":"永興路","SECT":" ","MAREA":" ","LANE":"４２７巷","ALLEY":"２弄","HOUSE_NO":"４９號","E_COORD97":173213.5,"N_COORD97":2546815.0899999999,"ADDRESS":"永興路４２７巷２弄４９號","OBJECTID":115064},"geometry":{"x":173213.5,"y":2546815.0900000017}},{"attributes":{"ID":115065,"DIS_CODE":0,"TOWNNAME":"永康區","LI":"勝利里","LIN":"19鄰","STREET":"勝利街","SECT":" ","MAREA":" ","LANE":"１９７巷","ALLEY":"２５弄","HOUSE_NO":"２９號","E_COORD97":171277.23000000001,"N_COORD97":2545027.25,"ADDRESS":"勝利街１９７巷２５弄２９號","OBJECTID":115065},"geometry":{"x":171277.23000000231,"y":2545027.2500000019}},{"attributes":{"ID":115066,"DIS_CODE":0,"TOWNNAME":"東區","LI":"虎尾里","LIN":"23鄰","STREET":"東成街","SECT":" ","MAREA":" ","LANE":"１８２巷","ALLEY":"１弄","HOUSE_NO":"９號","E_COORD97":171803.60000000001,"N_COORD97":2542280.7599999998,"ADDRESS":"東成街１８２巷１弄９號","OBJECTID":115066},"geometry":{"x":171803.59999999963,"y":2542280.7600000016}},{"attributes":{"ID":115067,"DIS_CODE":0,"TOWNNAME":"東區","LI":"虎尾里","LIN":"23鄰","STREET":"東成街","SECT":" ","MAREA":" ","LANE":"１８２巷","ALLEY":"１弄","HOUSE_NO":"１號","E_COORD97":171768.23999999999,"N_COORD97":2542277.73,"ADDRESS":"東成街１８２巷１弄１號","OBJECTID":115067},"geometry":{"x":171768.24000000022,"y":2542277.7300000023}},{"attributes":{"ID":115068,"DIS_CODE":0,"TOWNNAME":"東區","LI":"虎尾里","LIN":"23鄰","STREET":"東成街","SECT":" ","MAREA":" ","LANE":"１８２巷","ALLEY":"１弄","HOUSE_NO":"１１號","E_COORD97":171812.98999999999,"N_COORD97":2542281.04,"ADDRESS":"東成街１８２巷１弄１１號","OBJECTID":115068},"geometry":{"x":171812.99000000115,"y":2542281.040000001}},{"attributes":{"ID":115069,"DIS_CODE":0,"TOWNNAME":"永康區","LI":"復興里","LIN":"18鄰","STREET":"復興路","SECT":" ","MAREA":" ","LANE":"３５６巷","ALLEY":"７１弄","HOUSE_NO":"２２號","E_COORD97":172325.17000000001,"N_COORD97":2544544.0299999998,"ADDRESS":"復興路３５６巷７１弄２２號","OBJECTID":115069},"geometry":{"x":172325.17000000086,"y":2544544.0299999993}},{"attributes":{"ID":115070,"DIS_CODE":0,"TOWNNAME":"永康區","LI":"勝利里","LIN":"20鄰","STREET":"勝利街","SECT":" ","MAREA":" ","LANE":"１９７巷","ALLEY":"４０弄","HOUSE_NO":"２７號","E_COORD97":171304.39999999999,"N_COORD97":2545176.7599999998,"ADDRESS":"勝利街１９７巷４０弄２７號","OBJECTID":115070},"geometry":{"x":171304.40000000037,"y":2545176.7599999998}},{"attributes":{"ID":115071,"DIS_CODE":0,"TOWNNAME":"永康區","LI":"復興里","LIN":"30鄰","STREET":"復興路","SECT":" ","MAREA":" ","LANE":"３５６巷","ALLEY":"８０弄","HOUSE_NO":"１０８號","E_COORD97":172475.95000000001,"N_COORD97":2544589.7799999998,"ADDRESS":"復興路３５６巷８０弄１０８號","OBJECTID":115071},"geometry":{"x":172475.95000000112,"y":2544589.7799999993}},{"attributes":{"ID":115072,"DIS_CODE":0,"TOWNNAME":"永康區","LI":"勝利里","LIN":"30鄰","STREET":"勝利街","SECT":" ","MAREA":" ","LANE":"３０巷","ALLEY":"７弄","HOUSE_NO":"３０號之１","E_COORD97":171476.66,"N_COORD97":2544560.0299999998,"ADDRESS":"勝利街３０巷７弄３０號之１","OBJECTID":115072},"geometry":{"x":171476.66000000015,"y":2544560.0300000012}},{"attributes":{"ID":115073,"DIS_CODE":0,"TOWNNAME":"新市區","LI":"三舍里","LIN":"4鄰","STREET":" ","SECT":" ","MAREA":"三舍","LANE":" ","ALLEY":" ","HOUSE_NO":"１０１之１號","E_COORD97":178125.51000000001,"N_COORD97":2554633.2999999998,"ADDRESS":"三舍１０１之１號","OBJECTID":115073},"geometry":{"x":178125.51000000071,"y":2554633.3000000007}},{"attributes":{"ID":115074,"DIS_CODE":0,"TOWNNAME":"新市區","LI":"大社里","LIN":"26鄰","STREET":" ","SECT":" ","MAREA":"大社","LANE":" ","ALLEY":" ","HOUSE_NO":"６７１號","E_COORD97":179927.73000000001,"N_COORD97":2554352.25,"ADDRESS":"大社６７１號","OBJECTID":115074},"geometry":{"x":179927.73000000231,"y":2554352.25}},{"attributes":{"ID":115075,"DIS_CODE":0,"TOWNNAME":"新市區","LI":"大社里","LIN":"24鄰","STREET":" ","SECT":" ","MAREA":"大社","LANE":" ","ALLEY":" ","HOUSE_NO":"８７６之８號","E_COORD97":179524.14999999999,"N_COORD97":2554043.5499999998,"ADDRESS":"大社８７６之８號","OBJECTID":115075},"geometry":{"x":179524.15000000037,"y":2554043.5500000026}},{"attributes":{"ID":115076,"DIS_CODE":0,"TOWNNAME":"新市區","LI":"大社里","LIN":"24鄰","STREET":" ","SECT":" ","MAREA":"大社","LANE":" ","ALLEY":" ","HOUSE_NO":"８７２號","E_COORD97":179664.76000000001,"N_COORD97":2553964,"ADDRESS":"大社８７２號","OBJECTID":115076},"geometry":{"x":179664.76000000071,"y":2553964}},{"attributes":{"ID":115077,"DIS_CODE":0,"TOWNNAME":"東區","LI":"小東里","LIN":"23鄰","STREET":"光明街","SECT":" ","MAREA":" ","LANE":"２０１巷","ALLEY":"９弄","HOUSE_NO":"７號","E_COORD97":170965.98000000001,"N_COORD97":2544087.6600000001,"ADDRESS":"光明街２０１巷９弄７號","OBJECTID":115077},"geometry":{"x":170965.98000000138,"y":2544087.6600000039}},{"attributes":{"ID":115078,"DIS_CODE":0,"TOWNNAME":"新化區","LI":"羊林里","LIN":"6鄰","STREET":" ","SECT":" ","MAREA":"\u25A0拔林","LANE":" ","ALLEY":" ","HOUSE_NO":"４９３號之３","E_COORD97":183516.47,"N_COORD97":2551507.2599999998,"ADDRESS":"\u25A0拔林４９３號之３","OBJECTID":115078},"geometry":{"x":183516.47000000067,"y":2551507.2599999998}},{"attributes":{"ID":115079,"DIS_CODE":0,"TOWNNAME":"南區","LI":"光明里","LIN":"1鄰","STREET":"利南街","SECT":" ","MAREA":" ","LANE":" ","ALLEY":" ","HOUSE_NO":"１５７號","E_COORD97":166823.28,"N_COORD97":2541384.9300000002,"ADDRESS":"利南街１５７號","OBJECTID":115079},"geometry":{"x":166823.28000000212,"y":2541384.9300000016}},{"attributes":{"ID":115080,"DIS_CODE":0,"TOWNNAME":"永康區","LI":"龍潭里","LIN":"23鄰","STREET":"自強路","SECT":" ","MAREA":" ","LANE":"７５０巷","ALLEY":"２８弄","HOUSE_NO":"９３號","E_COORD97":174534.25,"N_COORD97":2548353.4199999999,"ADDRESS":"自強路７５０巷２８弄９３號","OBJECTID":115080},"geometry":{"x":174534.25,"y":2548353.4199999999}},{"attributes":{"ID":115081,"DIS_CODE":0,"TOWNNAME":"新化區","LI":"全興里","LIN":"5鄰","STREET":" ","SECT":" ","MAREA":"竹子\u25A0","LANE":" ","ALLEY":" ","HOUSE_NO":"６３號之１","E_COORD97":177656.41,"N_COORD97":2547685.2599999998,"ADDRESS":"竹子\u25A0６３號之１","OBJECTID":115081},"geometry":{"x":177656.41000000201,"y":2547685.2600000016}},{"attributes":{"ID":115082,"DIS_CODE":0,"TOWNNAME":"新化區","LI":"崙頂里","LIN":"8鄰","STREET":" ","SECT":" ","MAREA":"崙子頂","LANE":" ","ALLEY":" ","HOUSE_NO":"３１５號","E_COORD97":176736.92999999999,"N_COORD97":2547005.25,"ADDRESS":"崙子頂３１５號","OBJECTID":115082},"geometry":{"x":176736.93000000156,"y":2547005.25}},{"attributes":{"ID":115083,"DIS_CODE":0,"TOWNNAME":"新化區","LI":"山\u25A0里","LIN":"7鄰","STREET":" ","SECT":" ","MAREA":"頂山\u25A0","LANE":" ","ALLEY":" ","HOUSE_NO":"１５０號之１","E_COORD97":179758.26000000001,"N_COORD97":2546758.2599999998,"ADDRESS":"頂山\u25A0１５０號之１","OBJECTID":115083},"geometry":{"x":179758.25999999978,"y":2546758.2600000035}},{"attributes":{"ID":115084,"DIS_CODE":0,"TOWNNAME":"善化區","LI":"什乃里","LIN":"1鄰","STREET":" ","SECT":" ","MAREA":"什乃","LANE":" ","ALLEY":" ","HOUSE_NO":"１號","E_COORD97":176211.32000000001,"N_COORD97":2560336.4900000002,"ADDRESS":"什乃１號","OBJECTID":115084},"geometry":{"x":176211.32000000123,"y":2560336.4900000021}},{"attributes":{"ID":115085,"DIS_CODE":0,"TOWNNAME":"永康區","LI":"龍潭里","LIN":"23鄰","STREET":"自強路","SECT":" ","MAREA":" ","LANE":"７５０巷","ALLEY":"２８弄","HOUSE_NO":"５７號","E_COORD97":174486.41,"N_COORD97":2548412.7599999998,"ADDRESS":"自強路７５０巷２８弄５７號","OBJECTID":115085},"geometry":{"x":174486.41000000108,"y":2548412.7600000035}},{"attributes":{"ID":115086,"DIS_CODE":0,"TOWNNAME":"永康區","LI":"龍潭里","LIN":"23鄰","STREET":"自強路","SECT":" ","MAREA":" ","LANE":"７５０巷","ALLEY":"２８弄","HOUSE_NO":"３７號","E_COORD97":174528.81,"N_COORD97":2548410.7000000002,"ADDRESS":"自強路７５０巷２８弄３７號","OBJECTID":115086},"geometry":{"x":174528.81000000145,"y":2548410.7000000011}},{"attributes":{"ID":115087,"DIS_CODE":0,"TOWNNAME":"新市區","LI":"大社里","LIN":"24鄰","STREET":" ","SECT":" ","MAREA":"大社","LANE":" ","ALLEY":" ","HOUSE_NO":"８７９號","E_COORD97":179662.84,"N_COORD97":2553847.5,"ADDRESS":"大社８７９號","OBJECTID":115087},"geometry":{"x":179662.83999999985,"y":2553847.5000000019}},{"attributes":{"ID":115088,"DIS_CODE":0,"TOWNNAME":"新市區","LI":"大社里","LIN":"4鄰","STREET":" ","SECT":" ","MAREA":"大社","LANE":" ","ALLEY":" ","HOUSE_NO":"１６７號","E_COORD97":180114.12,"N_COORD97":2554321,"ADDRESS":"大社１６７號","OBJECTID":115088},"geometry":{"x":180114.12000000011,"y":2554321.0000000037}},{"attributes":{"ID":115089,"DIS_CODE":0,"TOWNNAME":"新市區","LI":"大社里","LIN":"26鄰","STREET":" ","SECT":" ","MAREA":"大社","LANE":" ","ALLEY":" ","HOUSE_NO":"６６０號","E_COORD97":179977.62,"N_COORD97":2554356.25,"ADDRESS":"大社６６０號","OBJECTID":115089},"geometry":{"x":179977.62000000104,"y":2554356.2499999981}},{"attributes":{"ID":115090,"DIS_CODE":0,"TOWNNAME":"新市區","LI":"社內里","LIN":"14鄰","STREET":" ","SECT":" ","MAREA":"社內","LANE":" ","ALLEY":" ","HOUSE_NO":"１４９之２號","E_COORD97":176233.72,"N_COORD97":2552962.0499999998,"ADDRESS":"社內１４９之２號","OBJECTID":115090},"geometry":{"x":176233.72000000067,"y":2552962.0500000026}},{"attributes":{"ID":115091,"DIS_CODE":0,"TOWNNAME":"新市區","LI":"社內里","LIN":"4鄰","STREET":" ","SECT":" ","MAREA":"社內","LANE":" ","ALLEY":" ","HOUSE_NO":"４８之６號","E_COORD97":176542.5,"N_COORD97":2552370.0499999998,"ADDRESS":"社內４８之６號","OBJECTID":115091},"geometry":{"x":176542.50000000093,"y":2552370.0500000026}},{"attributes":{"ID":115092,"DIS_CODE":0,"TOWNNAME":"新市區","LI":"大社里","LIN":"5鄰","STREET":" ","SECT":" ","MAREA":"大社","LANE":" ","ALLEY":" ","HOUSE_NO":"１５３之２號","E_COORD97":180147.70999999999,"N_COORD97":2554250.0499999998,"ADDRESS":"大社１５３之２號","OBJECTID":115092},"geometry":{"x":180147.71000000183,"y":2554250.0500000045}},{"attributes":{"ID":115093,"DIS_CODE":0,"TOWNNAME":"新市區","LI":"大營里","LIN":"5鄰","STREET":" ","SECT":" ","MAREA":"大營","LANE":" ","ALLEY":" ","HOUSE_NO":"８２之８號","E_COORD97":179561.13,"N_COORD97":2555425.0499999998,"ADDRESS":"大營８２之８號","OBJECTID":115093},"geometry":{"x":179561.12999999989,"y":2555425.0500000007}},{"attributes":{"ID":115094,"DIS_CODE":0,"TOWNNAME":"新市區","LI":"大社里","LIN":"32鄰","STREET":" ","SECT":" ","MAREA":"大社","LANE":" ","ALLEY":" ","HOUSE_NO":"２８４之１５號","E_COORD97":180658.82000000001,"N_COORD97":2554633.0499999998,"ADDRESS":"大社２８４之１５號","OBJECTID":115094},"geometry":{"x":180658.8200000003,"y":2554633.0499999989}},{"attributes":{"ID":115095,"DIS_CODE":0,"TOWNNAME":"新市區","LI":"社內里","LIN":"15鄰","STREET":" ","SECT":" ","MAREA":"社內","LANE":" ","ALLEY":" ","HOUSE_NO":"１６１號","E_COORD97":176223.62,"N_COORD97":2553224.25,"ADDRESS":"社內１６１號","OBJECTID":115095},"geometry":{"x":176223.62000000011,"y":2553224.2500000037}},{"attributes":{"ID":115096,"DIS_CODE":0,"TOWNNAME":"新市區","LI":"永就里","LIN":"4鄰","STREET":" ","SECT":" ","MAREA":"永就","LANE":" ","ALLEY":" ","HOUSE_NO":"４６之３０號","E_COORD97":178812.98000000001,"N_COORD97":2551780.0499999998,"ADDRESS":"永就４６之３０號","OBJECTID":115096},"geometry":{"x":178812.98000000138,"y":2551780.0500000026}},{"attributes":{"ID":115097,"DIS_CODE":0,"TOWNNAME":"新市區","LI":"大營里","LIN":"4鄰","STREET":" ","SECT":" ","MAREA":"大營","LANE":" ","ALLEY":" ","HOUSE_NO":"６２號","E_COORD97":179542.10000000001,"N_COORD97":2555606.75,"ADDRESS":"大營６２號","OBJECTID":115097},"geometry":{"x":179542.09999999963,"y":2555606.75}},{"attributes":{"ID":115098,"DIS_CODE":0,"TOWNNAME":"新市區","LI":"大社里","LIN":"4鄰","STREET":" ","SECT":" ","MAREA":"大社","LANE":" ","ALLEY":" ","HOUSE_NO":"１７３號","E_COORD97":180104.82000000001,"N_COORD97":2554340.75,"ADDRESS":"大社１７３號","OBJECTID":115098},"geometry":{"x":180104.81999999937,"y":2554340.7500000019}},{"attributes":{"ID":115099,"DIS_CODE":0,"TOWNNAME":"新市區","LI":"大社里","LIN":"20鄰","STREET":" ","SECT":" ","MAREA":"大社","LANE":" ","ALLEY":" ","HOUSE_NO":"７９０之１１號","E_COORD97":179886.51999999999,"N_COORD97":2554234.5499999998,"ADDRESS":"大社７９０之１１號","OBJECTID":115099},"geometry":{"x":179886.52000000048,"y":2554234.5500000026}},{"attributes":{"ID":115100,"DIS_CODE":0,"TOWNNAME":"新市區","LI":"大社里","LIN":"26鄰","STREET":" ","SECT":" ","MAREA":"大社","LANE":" ","ALLEY":" ","HOUSE_NO":"６５０號","E_COORD97":180012.57000000001,"N_COORD97":2554364.5,"ADDRESS":"大社６５０號","OBJECTID":115100},"geometry":{"x":180012.5700000003,"y":2554364.5}},{"attributes":{"ID":115101,"DIS_CODE":0,"TOWNNAME":"新市區","LI":"大社里","LIN":"26鄰","STREET":" ","SECT":" ","MAREA":"大社","LANE":" ","ALLEY":" ","HOUSE_NO":"６７２之６號","E_COORD97":179900.17000000001,"N_COORD97":2554341.0499999998,"ADDRESS":"大社６７２之６號","OBJECTID":115101},"geometry":{"x":179900.16999999993,"y":2554341.0500000007}},{"attributes":{"ID":115102,"DIS_CODE":0,"TOWNNAME":"新市區","LI":"大社里","LIN":"24鄰","STREET":" ","SECT":" ","MAREA":"大社","LANE":" ","ALLEY":" ","HOUSE_NO":"８７２之１號","E_COORD97":179691.04000000001,"N_COORD97":2554010.5499999998,"ADDRESS":"大社８７２之１號","OBJECTID":115102},"geometry":{"x":179691.04000000004,"y":2554010.5500000026}},{"attributes":{"ID":115103,"DIS_CODE":0,"TOWNNAME":"新市區","LI":"三舍里","LIN":"4鄰","STREET":" ","SECT":" ","MAREA":"三舍","LANE":" ","ALLEY":" ","HOUSE_NO":"９０號","E_COORD97":178067.70000000001,"N_COORD97":2554413.5,"ADDRESS":"三舍９０號","OBJECTID":115103},"geometry":{"x":178067.70000000019,"y":2554413.5000000019}},{"attributes":{"ID":115104,"DIS_CODE":0,"TOWNNAME":"新市區","LI":"三舍里","LIN":"4鄰","STREET":" ","SECT":" ","MAREA":"三舍","LANE":" ","ALLEY":" ","HOUSE_NO":"１０８之８號","E_COORD97":178026.98999999999,"N_COORD97":2554581.7999999998,"ADDRESS":"三舍１０８之８號","OBJECTID":115104},"geometry":{"x":178026.99000000209,"y":2554581.8000000026}},{"attributes":{"ID":115105,"DIS_CODE":0,"TOWNNAME":"新市區","LI":"永就里","LIN":"4鄰","STREET":" ","SECT":" ","MAREA":"永就","LANE":" ","ALLEY":" ","HOUSE_NO":"４６之２號","E_COORD97":178584.76000000001,"N_COORD97":2551637.7999999998,"ADDRESS":"永就４６之２號","OBJECTID":115105},"geometry":{"x":178584.76000000071,"y":2551637.8000000045}},{"attributes":{"ID":115106,"DIS_CODE":0,"TOWNNAME":"新市區","LI":"大社里","LIN":"26鄰","STREET":" ","SECT":" ","MAREA":"大社","LANE":" ","ALLEY":" ","HOUSE_NO":"６５１號","E_COORD97":180008.57000000001,"N_COORD97":2554362.75,"ADDRESS":"大社６５１號","OBJECTID":115106},"geometry":{"x":180008.57000000123,"y":2554362.75}},{"attributes":{"ID":115107,"DIS_CODE":0,"TOWNNAME":"新市區","LI":"大社里","LIN":"26鄰","STREET":" ","SECT":" ","MAREA":"大社","LANE":" ","ALLEY":" ","HOUSE_NO":"６７５號之１","E_COORD97":179957.19,"N_COORD97":2554276.5499999998,"ADDRESS":"大社６７５號之１","OBJECTID":115107},"geometry":{"x":179957.19000000134,"y":2554276.5500000007}},{"attributes":{"ID":115108,"DIS_CODE":0,"TOWNNAME":"東區","LI":"大德里","LIN":"1鄰","STREET":"立德八路","SECT":" ","MAREA":" ","LANE":" ","ALLEY":" ","HOUSE_NO":"６９號","E_COORD97":169590.35000000001,"N_COORD97":2541953.4100000001,"ADDRESS":"立德八路６９號","OBJECTID":115108},"geometry":{"x":169590.3499999987,"y":2541953.4100000039}},{"attributes":{"ID":115109,"DIS_CODE":0,"TOWNNAME":"新市區","LI":"社內里","LIN":"13鄰","STREET":" ","SECT":" ","MAREA":"社內","LANE":" ","ALLEY":" ","HOUSE_NO":"１３９之１００號","E_COORD97":176104.5,"N_COORD97":2552637.2999999998,"ADDRESS":"社內１３９之１００號","OBJECTID":115109},"geometry":{"x":176104.50000000186,"y":2552637.3000000007}},{"attributes":{"ID":115110,"DIS_CODE":0,"TOWNNAME":"東區","LI":"大德里","LIN":"1鄰","STREET":"立德八路","SECT":" ","MAREA":" ","LANE":" ","ALLEY":" ","HOUSE_NO":"７１號","E_COORD97":169595.48999999999,"N_COORD97":2541954.6299999999,"ADDRESS":"立德八路７１號","OBJECTID":115110},"geometry":{"x":169595.49000000115,"y":2541954.6300000008}},{"attributes":{"ID":115111,"DIS_CODE":0,"TOWNNAME":"新市區","LI":"社內里","LIN":"13鄰","STREET":" ","SECT":" ","MAREA":"社內","LANE":" ","ALLEY":" ","HOUSE_NO":"１４３之８９號","E_COORD97":176291.06,"N_COORD97":2551933.2999999998,"ADDRESS":"社內１４３之８９號","OBJECTID":115111},"geometry":{"x":176291.05999999959,"y":2551933.3000000026}},{"attributes":{"ID":115112,"DIS_CODE":0,"TOWNNAME":"新市區","LI":"社內里","LIN":"4鄰","STREET":" ","SECT":" ","MAREA":"社內","LANE":" ","ALLEY":" ","HOUSE_NO":"４５之７號","E_COORD97":176600.22,"N_COORD97":2552347.5499999998,"ADDRESS":"社內４５之７號","OBJECTID":115112},"geometry":{"x":176600.21999999974,"y":2552347.5500000007}},{"attributes":{"ID":115113,"DIS_CODE":0,"TOWNNAME":"新市區","LI":"大營里","LIN":"20鄰","STREET":" ","SECT":" ","MAREA":"豐榮","LANE":" ","ALLEY":" ","HOUSE_NO":"５２之１１號","E_COORD97":178817.04000000001,"N_COORD97":2554208.0499999998,"ADDRESS":"豐榮５２之１１號","OBJECTID":115113},"geometry":{"x":178817.04000000097,"y":2554208.0500000007}},{"attributes":{"ID":115114,"DIS_CODE":0,"TOWNNAME":"新市區","LI":"大社里","LIN":"26鄰","STREET":" ","SECT":" ","MAREA":"大社","LANE":" ","ALLEY":" ","HOUSE_NO":"６７９號","E_COORD97":179908.01999999999,"N_COORD97":2554259.25,"ADDRESS":"大社６７９號","OBJECTID":115114},"geometry":{"x":179908.02000000048,"y":2554259.2500000019}},{"attributes":{"ID":115115,"DIS_CODE":0,"TOWNNAME":"新市區","LI":"社內里","LIN":"1鄰","STREET":" ","SECT":" ","MAREA":"社內","LANE":" ","ALLEY":" ","HOUSE_NO":"７號","E_COORD97":176869.39000000001,"N_COORD97":2552990.75,"ADDRESS":"社內７號","OBJECTID":115115},"geometry":{"x":176869.39000000153,"y":2552990.7500000019}},{"attributes":{"ID":115116,"DIS_CODE":0,"TOWNNAME":"新市區","LI":"大社里","LIN":"4鄰","STREET":" ","SECT":" ","MAREA":"大社","LANE":" ","ALLEY":" ","HOUSE_NO":"２１０號","E_COORD97":180076.01000000001,"N_COORD97":2554431.75,"ADDRESS":"大社２１０號","OBJECTID":115116},"geometry":{"x":180076.01000000164,"y":2554431.7500000019}},{"attributes":{"ID":115117,"DIS_CODE":0,"TOWNNAME":"新市區","LI":"社內里","LIN":"4鄰","STREET":" ","SECT":" ","MAREA":"社內","LANE":" ","ALLEY":" ","HOUSE_NO":"４３之２號","E_COORD97":176582.92000000001,"N_COORD97":2552376.2999999998,"ADDRESS":"社內４３之２號","OBJECTID":115117},"geometry":{"x":176582.92000000179,"y":2552376.3000000007}},{"attributes":{"ID":115118,"DIS_CODE":0,"TOWNNAME":"新市區","LI":"社內里","LIN":"13鄰","STREET":" ","SECT":" ","MAREA":"社內","LANE":" ","ALLEY":" ","HOUSE_NO":"１４０之３號","E_COORD97":176348.42000000001,"N_COORD97":2552613.0499999998,"ADDRESS":"社內１４０之３號","OBJECTID":115118},"geometry":{"x":176348.41999999993,"y":2552613.0500000026}},{"attributes":{"ID":115119,"DIS_CODE":0,"TOWNNAME":"新市區","LI":"永就里","LIN":"4鄰","STREET":" ","SECT":" ","MAREA":"永就","LANE":" ","ALLEY":" ","HOUSE_NO":"４６之６０號","E_COORD97":178361.60999999999,"N_COORD97":2552001.2999999998,"ADDRESS":"永就４６之６０號","OBJECTID":115119},"geometry":{"x":178361.61000000034,"y":2552001.3000000026}},{"attributes":{"ID":115120,"DIS_CODE":0,"TOWNNAME":"新市區","LI":"三舍里","LIN":"4鄰","STREET":" ","SECT":" ","MAREA":"三舍","LANE":" ","ALLEY":" ","HOUSE_NO":"８９之２號","E_COORD97":178088.23999999999,"N_COORD97":2554413.2999999998,"ADDRESS":"三舍８９之２號","OBJECTID":115120},"geometry":{"x":178088.24000000115,"y":2554413.3000000007}},{"attributes":{"ID":115121,"DIS_CODE":0,"TOWNNAME":"新市區","LI":"永就里","LIN":"4鄰","STREET":" ","SECT":" ","MAREA":"永就","LANE":" ","ALLEY":" ","HOUSE_NO":"４６之５號","E_COORD97":178405.48000000001,"N_COORD97":2551837.2999999998,"ADDRESS":"永就４６之５號","OBJECTID":115121},"geometry":{"x":178405.48000000231,"y":2551837.3000000007}},{"attributes":{"ID":115122,"DIS_CODE":0,"TOWNNAME":"新市區","LI":"三舍里","LIN":"4鄰","STREET":" ","SECT":" ","MAREA":"三舍","LANE":" ","ALLEY":" ","HOUSE_NO":"９８之２號","E_COORD97":178091.20000000001,"N_COORD97":2554576.0499999998,"ADDRESS":"三舍９８之２號","OBJECTID":115122},"geometry":{"x":178091.20000000019,"y":2554576.0500000026}},{"attributes":{"ID":115123,"DIS_CODE":0,"TOWNNAME":"新市區","LI":"永就里","LIN":"5鄰","STREET":" ","SECT":" ","MAREA":"永就","LANE":" ","ALLEY":" ","HOUSE_NO":"５３號","E_COORD97":178095.92000000001,"N_COORD97":2551275.25,"ADDRESS":"永就５３號","OBJECTID":115123},"geometry":{"x":178095.91999999993,"y":2551275.2500000019}},{"attributes":{"ID":115124,"DIS_CODE":0,"TOWNNAME":"新市區","LI":"大社里","LIN":"32鄰","STREET":" ","SECT":" ","MAREA":"大社","LANE":" ","ALLEY":" ","HOUSE_NO":"２８５號","E_COORD97":180693.14999999999,"N_COORD97":2554534.9900000002,"ADDRESS":"大社２８５號","OBJECTID":115124},"geometry":{"x":180693.1500000013,"y":2554534.9900000039}},{"attributes":{"ID":115125,"DIS_CODE":0,"TOWNNAME":"東區","LI":"大德里","LIN":"1鄰","STREET":"立德八路","SECT":" ","MAREA":" ","LANE":" ","ALLEY":" ","HOUSE_NO":"７３號","E_COORD97":169599.39999999999,"N_COORD97":2541955.8599999999,"ADDRESS":"立德八路７３號","OBJECTID":115125},"geometry":{"x":169599.40000000224,"y":2541955.8599999994}},{"attributes":{"ID":115126,"DIS_CODE":0,"TOWNNAME":"東區","LI":"圍下里","LIN":"1鄰","STREET":"勝利路","SECT":" ","MAREA":" ","LANE":" ","ALLEY":" ","HOUSE_NO":"４１號","E_COORD97":169733,"N_COORD97":2543248.0299999998,"ADDRESS":"勝利路４１號","OBJECTID":115126},"geometry":{"x":169733.00000000093,"y":2543248.0300000012}},{"attributes":{"ID":115127,"DIS_CODE":0,"TOWNNAME":"新市區","LI":"三舍里","LIN":"4鄰","STREET":" ","SECT":" ","MAREA":"三舍","LANE":" ","ALLEY":" ","HOUSE_NO":"１０５號","E_COORD97":178003.09,"N_COORD97":2554717.75,"ADDRESS":"三舍１０５號","OBJECTID":115127},"geometry":{"x":178003.09000000078,"y":2554717.75}},{"attributes":{"ID":115128,"DIS_CODE":0,"TOWNNAME":"新市區","LI":"大社里","LIN":"20鄰","STREET":" ","SECT":" ","MAREA":"大社","LANE":" ","ALLEY":" ","HOUSE_NO":"７９０之８號","E_COORD97":179888.87,"N_COORD97":2554221.7999999998,"ADDRESS":"大社７９０之８號","OBJECTID":115128},"geometry":{"x":179888.87000000011,"y":2554221.8000000026}},{"attributes":{"ID":115129,"DIS_CODE":0,"TOWNNAME":"新市區","LI":"大社里","LIN":"32鄰","STREET":" ","SECT":" ","MAREA":"大社","LANE":" ","ALLEY":" ","HOUSE_NO":"２８５之２７號","E_COORD97":180643.95999999999,"N_COORD97":2554563.7999999998,"ADDRESS":"大社２８５之２７號","OBJECTID":115129},"geometry":{"x":180643.95999999996,"y":2554563.8000000045}},{"attributes":{"ID":115130,"DIS_CODE":0,"TOWNNAME":"新市區","LI":"社內里","LIN":"13鄰","STREET":" ","SECT":" ","MAREA":"社內","LANE":" ","ALLEY":" ","HOUSE_NO":"１３５之１號","E_COORD97":176343.32999999999,"N_COORD97":2552676.0499999998,"ADDRESS":"社內１３５之１號","OBJECTID":115130},"geometry":{"x":176343.33000000101,"y":2552676.0500000007}},{"attributes":{"ID":115131,"DIS_CODE":0,"TOWNNAME":"新市區","LI":"大營里","LIN":"20鄰","STREET":" ","SECT":" ","MAREA":"豐榮","LANE":" ","ALLEY":" ","HOUSE_NO":"５３之５號","E_COORD97":178782.26000000001,"N_COORD97":2554187.2999999998,"ADDRESS":"豐榮５３之５號","OBJECTID":115131},"geometry":{"x":178782.25999999978,"y":2554187.3000000045}},{"attributes":{"ID":115132,"DIS_CODE":0,"TOWNNAME":"新市區","LI":"大社里","LIN":"26鄰","STREET":" ","SECT":" ","MAREA":"大社","LANE":" ","ALLEY":" ","HOUSE_NO":"６７２號","E_COORD97":179941.32000000001,"N_COORD97":2554303.5,"ADDRESS":"大社６７２號","OBJECTID":115132},"geometry":{"x":179941.3200000003,"y":2554303.5}},{"attributes":{"ID":115133,"DIS_CODE":0,"TOWNNAME":"新市區","LI":"大社里","LIN":"26鄰","STREET":" ","SECT":" ","MAREA":"大社","LANE":" ","ALLEY":" ","HOUSE_NO":"６１０號","E_COORD97":179984.01000000001,"N_COORD97":2554420.5,"ADDRESS":"大社６１０號","OBJECTID":115133},"geometry":{"x":179984.00999999978,"y":2554420.5000000019}},{"attributes":{"ID":115134,"DIS_CODE":0,"TOWNNAME":"永康區","LI":"龍潭里","LIN":"23鄰","STREET":"自強路","SECT":" ","MAREA":" ","LANE":"７５０巷","ALLEY":"１８弄","HOUSE_NO":"１６號","E_COORD97":174439.95000000001,"N_COORD97":2548453.54,"ADDRESS":"自強路７５０巷１８弄１６號","OBJECTID":115134},"geometry":{"x":174439.95000000019,"y":2548453.5399999991}},{"attributes":{"ID":115135,"DIS_CODE":0,"TOWNNAME":"永康區","LI":"復國里","LIN":"22鄰","STREET":"復華六街","SECT":" ","MAREA":" ","LANE":"９３巷","ALLEY":"３４弄","HOUSE_NO":"９號","E_COORD97":172570.35999999999,"N_COORD97":2545738.2000000002,"ADDRESS":"復華六街９３巷３４弄９號","OBJECTID":115135},"geometry":{"x":172570.36000000127,"y":2545738.2000000011}},{"attributes":{"ID":115136,"DIS_CODE":0,"TOWNNAME":"永康區","LI":"勝利里","LIN":"36鄰","STREET":"勝學路","SECT":" ","MAREA":" ","LANE":"８２巷","ALLEY":"２弄","HOUSE_NO":"９號","E_COORD97":171200.82000000001,"N_COORD97":2544762.7599999998,"ADDRESS":"勝學路８２巷２弄９號","OBJECTID":115136},"geometry":{"x":171200.82000000123,"y":2544762.7600000016}},{"attributes":{"ID":115137,"DIS_CODE":0,"TOWNNAME":"永康區","LI":"勝利里","LIN":"32鄰","STREET":"勝利街","SECT":" ","MAREA":" ","LANE":"３０巷","ALLEY":"７弄","HOUSE_NO":"８０號","E_COORD97":171497.98999999999,"N_COORD97":2544543.5099999998,"ADDRESS":"勝利街３０巷７弄８０號","OBJECTID":115137},"geometry":{"x":171497.99000000115,"y":2544543.5100000016}},{"attributes":{"ID":115138,"DIS_CODE":0,"TOWNNAME":"永康區","LI":"龍潭里","LIN":"23鄰","STREET":"自強路","SECT":" ","MAREA":" ","LANE":"７５０巷","ALLEY":"２８弄","HOUSE_NO":"１號","E_COORD97":174476.42000000001,"N_COORD97":2548434.27,"ADDRESS":"自強路７５０巷２８弄１號","OBJECTID":115138},"geometry":{"x":174476.42000000086,"y":2548434.2700000014}},{"attributes":{"ID":115139,"DIS_CODE":0,"TOWNNAME":"永康區","LI":"龍潭里","LIN":"23鄰","STREET":"自強路","SECT":" ","MAREA":" ","LANE":"７５０巷","ALLEY":"２８弄","HOUSE_NO":"５１號","E_COORD97":174500.85000000001,"N_COORD97":2548410.7599999998,"ADDRESS":"自強路７５０巷２８弄５１號","OBJECTID":115139},"geometry":{"x":174500.84999999963,"y":2548410.7600000016}},{"attributes":{"ID":115140,"DIS_CODE":0,"TOWNNAME":"永康區","LI":"復興里","LIN":"23鄰","STREET":"復興路","SECT":" ","MAREA":" ","LANE":"２４６巷","ALLEY":"２７弄","HOUSE_NO":"１１號","E_COORD97":172374.88,"N_COORD97":2544472.2799999998,"ADDRESS":"復興路２４６巷２７弄１１號","OBJECTID":115140},"geometry":{"x":172374.87999999989,"y":2544472.2799999993}},{"attributes":{"ID":115141,"DIS_CODE":0,"TOWNNAME":"新化區","LI":"協興里","LIN":"14鄰","STREET":"太平街","SECT":" ","MAREA":" ","LANE":" ","ALLEY":" ","HOUSE_NO":"１５８號之１","E_COORD97":178308.64999999999,"N_COORD97":2548682.2599999998,"ADDRESS":"太平街１５８號之１","OBJECTID":115141},"geometry":{"x":178308.65000000037,"y":2548682.2600000016}},{"attributes":{"ID":115142,"DIS_CODE":0,"TOWNNAME":"永康區","LI":"復興里","LIN":"23鄰","STREET":"復興路","SECT":" ","MAREA":" ","LANE":"２４６巷","ALLEY":"２７弄","HOUSE_NO":"１２號","E_COORD97":172366.16,"N_COORD97":2544488.02,"ADDRESS":"復興路２４６巷２７弄１２號","OBJECTID":115142},"geometry":{"x":172366.16000000108,"y":2544488.0200000033}},{"attributes":{"ID":115143,"DIS_CODE":0,"TOWNNAME":"安南區","LI":"安慶里","LIN":"23鄰","STREET":"安中路","SECT":"一段","MAREA":" ","LANE":"１８９巷","ALLEY":"９２弄","HOUSE_NO":"１７號","E_COORD97":168752.98999999999,"N_COORD97":2548246.3799999999,"ADDRESS":"安中路一段１８９巷９２弄１７號","OBJECTID":115143},"geometry":{"x":168752.99000000115,"y":2548246.3800000008}},{"attributes":{"ID":115144,"DIS_CODE":0,"TOWNNAME":"安南區","LI":"安慶里","LIN":"23鄰","STREET":"安中路","SECT":"一段","MAREA":" ","LANE":"１８９巷","ALLEY":"９２弄","HOUSE_NO":"３４號","E_COORD97":168683.23000000001,"N_COORD97":2548265.2400000002,"ADDRESS":"安中路一段１８９巷９２弄３４號","OBJECTID":115144},"geometry":{"x":168683.23000000045,"y":2548265.2400000021}},{"attributes":{"ID":115145,"DIS_CODE":0,"TOWNNAME":"善化區","LI":"牛庄里","LIN":"1鄰","STREET":" ","SECT":" ","MAREA":"牛庄","LANE":" ","ALLEY":" ","HOUSE_NO":"１５之３號","E_COORD97":180278.13,"N_COORD97":2559851.02,"ADDRESS":"牛庄１５之３號","OBJECTID":115145},"geometry":{"x":180278.12999999989,"y":2559851.0200000014}},{"attributes":{"ID":115146,"DIS_CODE":0,"TOWNNAME":"安南區","LI":"安慶里","LIN":"23鄰","STREET":"安中路","SECT":"一段","MAREA":" ","LANE":"１８９巷","ALLEY":"９２弄","HOUSE_NO":"５２號","E_COORD97":168646.95000000001,"N_COORD97":2548260.77,"ADDRESS":"安中路一段１８９巷９２弄５２號","OBJECTID":115146},"geometry":{"x":168646.95000000112,"y":2548260.7700000014}},{"attributes":{"ID":115147,"DIS_CODE":0,"TOWNNAME":"安南區","LI":"安慶里","LIN":"23鄰","STREET":"安中路","SECT":"一段","MAREA":" ","LANE":"１８９巷","ALLEY":"９２弄","HOUSE_NO":"５６號","E_COORD97":168639.44,"N_COORD97":2548259.52,"ADDRESS":"安中路一段１８９巷９２弄５６號","OBJECTID":115147},"geometry":{"x":168639.44000000041,"y":2548259.5200000014}},{"attributes":{"ID":115148,"DIS_CODE":0,"TOWNNAME":"安南區","LI":"安慶里","LIN":"23鄰","STREET":"安中路","SECT":"一段","MAREA":" ","LANE":"１８９巷","ALLEY":"９２弄","HOUSE_NO":"５８號","E_COORD97":168635.42000000001,"N_COORD97":2548260.1400000001,"ADDRESS":"安中路一段１８９巷９２弄５８號","OBJECTID":115148},"geometry":{"x":168635.41999999993,"y":2548260.1400000025}},{"attributes":{"ID":115149,"DIS_CODE":0,"TOWNNAME":"永康區","LI":"復興里","LIN":"24鄰","STREET":"復興路","SECT":" ","MAREA":" ","LANE":"３５６巷","ALLEY":"８０弄","HOUSE_NO":"９４號","E_COORD97":172467.48000000001,"N_COORD97":2544571.5299999998,"ADDRESS":"復興路３５６巷８０弄９４號","OBJECTID":115149},"geometry":{"x":172467.48000000138,"y":2544571.5299999993}},{"attributes":{"ID":115150,"DIS_CODE":0,"TOWNNAME":"安南區","LI":"長安里","LIN":"23鄰","STREET":"長溪路","SECT":"三段","MAREA":" ","LANE":"３７３巷","ALLEY":"２１弄","HOUSE_NO":"１７８號","E_COORD97":167469.82000000001,"N_COORD97":2551763.5800000001,"ADDRESS":"長溪路三段３７３巷２１弄１７８號","OBJECTID":115150},"geometry":{"x":167469.8200000003,"y":2551763.5800000001}},{"attributes":{"ID":115151,"DIS_CODE":0,"TOWNNAME":"安南區","LI":"海佃里","LIN":"23鄰","STREET":"國安街","SECT":" ","MAREA":" ","LANE":"１５６巷","ALLEY":"１０２弄","HOUSE_NO":"１８號","E_COORD97":166770.41,"N_COORD97":2547248.9900000002,"ADDRESS":"國安街１５６巷１０２弄１８號","OBJECTID":115151},"geometry":{"x":166770.41000000108,"y":2547248.9900000039}},{"attributes":{"ID":115152,"DIS_CODE":0,"TOWNNAME":"永康區","LI":"復國里","LIN":"22鄰","STREET":"復華六街","SECT":" ","MAREA":" ","LANE":"９３巷","ALLEY":"１１弄","HOUSE_NO":"１５號","E_COORD97":172657.92000000001,"N_COORD97":2545786.1000000001,"ADDRESS":"復華六街９３巷１１弄１５號","OBJECTID":115152},"geometry":{"x":172657.91999999993,"y":2545786.1000000034}},{"attributes":{"ID":115153,"DIS_CODE":0,"TOWNNAME":"永康區","LI":"勝利里","LIN":"20鄰","STREET":"勝利街","SECT":" ","MAREA":" ","LANE":"１９７巷","ALLEY":"４０弄","HOUSE_NO":"７號","E_COORD97":171263.45000000001,"N_COORD97":2545178.2599999998,"ADDRESS":"勝利街１９７巷４０弄７號","OBJECTID":115153},"geometry":{"x":171263.45000000205,"y":2545178.2600000035}},{"attributes":{"ID":115154,"DIS_CODE":0,"TOWNNAME":"永康區","LI":"二王里","LIN":"23鄰","STREET":"忠孝路","SECT":" ","MAREA":" ","LANE":"４２９巷","ALLEY":"１５弄","HOUSE_NO":"８號","E_COORD97":172435.79999999999,"N_COORD97":2546478.6099999999,"ADDRESS":"忠孝路４２９巷１５弄８號","OBJECTID":115154},"geometry":{"x":172435.80000000075,"y":2546478.6100000013}},{"attributes":{"ID":115155,"DIS_CODE":0,"TOWNNAME":"善化區","LI":"牛庄里","LIN":"1鄰","STREET":" ","SECT":" ","MAREA":"牛庄","LANE":" ","ALLEY":" ","HOUSE_NO":"９之１號","E_COORD97":180215.51999999999,"N_COORD97":2559802.02,"ADDRESS":"牛庄９之１號","OBJECTID":115155},"geometry":{"x":180215.51999999955,"y":2559802.0199999996}},{"attributes":{"ID":115156,"DIS_CODE":0,"TOWNNAME":"新市區","LI":"大社里","LIN":"32鄰","STREET":" ","SECT":" ","MAREA":"大社","LANE":" ","ALLEY":" ","HOUSE_NO":"２８４號","E_COORD97":180663.39999999999,"N_COORD97":2554588.5,"ADDRESS":"大社２８４號","OBJECTID":115156},"geometry":{"x":180663.40000000037,"y":2554588.4999999981}},{"attributes":{"ID":115157,"DIS_CODE":0,"TOWNNAME":"新市區","LI":"大社里","LIN":"32鄰","STREET":" ","SECT":" ","MAREA":"大社","LANE":" ","ALLEY":" ","HOUSE_NO":"２８４之３號","E_COORD97":180665.57000000001,"N_COORD97":2554608.2999999998,"ADDRESS":"大社２８４之３號","OBJECTID":115157},"geometry":{"x":180665.5700000003,"y":2554608.3000000026}},{"attributes":{"ID":115158,"DIS_CODE":0,"TOWNNAME":"新市區","LI":"大社里","LIN":"32鄰","STREET":" ","SECT":" ","MAREA":"大社","LANE":" ","ALLEY":" ","HOUSE_NO":"２８４之２７號","E_COORD97":180622.45999999999,"N_COORD97":2554680.2999999998,"ADDRESS":"大社２８４之２７號","OBJECTID":115158},"geometry":{"x":180622.46000000089,"y":2554680.3000000026}},{"attributes":{"ID":115159,"DIS_CODE":0,"TOWNNAME":"新市區","LI":"大社里","LIN":"32鄰","STREET":" ","SECT":" ","MAREA":"大社","LANE":" ","ALLEY":" ","HOUSE_NO":"２８４之２４號","E_COORD97":180634.62,"N_COORD97":2554666.2999999998,"ADDRESS":"大社２８４之２４號","OBJECTID":115159},"geometry":{"x":180634.62000000011,"y":2554666.3000000026}},{"attributes":{"ID":115160,"DIS_CODE":0,"TOWNNAME":"永康區","LI":"三合里","LIN":"23鄰","STREET":"南工街","SECT":" ","MAREA":" ","LANE":"３２３巷","ALLEY":"１４弄","HOUSE_NO":"１號","E_COORD97":171764.76000000001,"N_COORD97":2545991.5,"ADDRESS":"南工街３２３巷１４弄１號","OBJECTID":115160},"geometry":{"x":171764.76000000071,"y":2545991.5000000019}},{"attributes":{"ID":115161,"DIS_CODE":0,"TOWNNAME":"永康區","LI":"三合里","LIN":"23鄰","STREET":"南工街","SECT":" ","MAREA":" ","LANE":"３２３巷","ALLEY":"３５弄","HOUSE_NO":"７號","E_COORD97":171799.16,"N_COORD97":2545938.2400000002,"ADDRESS":"南工街３２３巷３５弄７號","OBJECTID":115161},"geometry":{"x":171799.16000000015,"y":2545938.2399999984}},{"attributes":{"ID":115162,"DIS_CODE":0,"TOWNNAME":"新市區","LI":"大營里","LIN":"4鄰","STREET":" ","SECT":" ","MAREA":"大營","LANE":" ","ALLEY":" ","HOUSE_NO":"５８之２號","E_COORD97":179548.73999999999,"N_COORD97":2555593.5499999998,"ADDRESS":"大營５８之２號","OBJECTID":115162},"geometry":{"x":179548.74000000022,"y":2555593.5500000026}},{"attributes":{"ID":115163,"DIS_CODE":0,"TOWNNAME":"新市區","LI":"大社里","LIN":"5鄰","STREET":" ","SECT":" ","MAREA":"大社","LANE":" ","ALLEY":" ","HOUSE_NO":"１９０之１５號","E_COORD97":180224.06,"N_COORD97":2554327.0499999998,"ADDRESS":"大社１９０之１５號","OBJECTID":115163},"geometry":{"x":180224.05999999959,"y":2554327.0500000007}},{"attributes":{"ID":115164,"DIS_CODE":0,"TOWNNAME":"新市區","LI":"大社里","LIN":"26鄰","STREET":" ","SECT":" ","MAREA":"大社","LANE":" ","ALLEY":" ","HOUSE_NO":"６７２號之２","E_COORD97":179908.92000000001,"N_COORD97":2554323.0499999998,"ADDRESS":"大社６７２號之２","OBJECTID":115164},"geometry":{"x":179908.92000000179,"y":2554323.0500000007}},{"attributes":{"ID":115165,"DIS_CODE":0,"TOWNNAME":"新市區","LI":"社內里","LIN":"13鄰","STREET":" ","SECT":" ","MAREA":"社內","LANE":" ","ALLEY":" ","HOUSE_NO":"１３７之１１號","E_COORD97":176171.39999999999,"N_COORD97":2552870.5499999998,"ADDRESS":"社內１３７之１１號","OBJECTID":115165},"geometry":{"x":176171.40000000037,"y":2552870.5500000026}},{"attributes":{"ID":115166,"DIS_CODE":0,"TOWNNAME":"新市區","LI":"大社里","LIN":"24鄰","STREET":" ","SECT":" ","MAREA":"大社","LANE":" ","ALLEY":" ","HOUSE_NO":"８８２號","E_COORD97":179771.20000000001,"N_COORD97":2554054.25,"ADDRESS":"大社８８２號","OBJECTID":115166},"geometry":{"x":179771.20000000019,"y":2554054.25}},{"attributes":{"ID":115167,"DIS_CODE":0,"TOWNNAME":"永康區","LI":"二王里","LIN":"23鄰","STREET":"中山南路","SECT":" ","MAREA":" ","LANE":"５４４巷","ALLEY":"５９弄","HOUSE_NO":"２６號","E_COORD97":172410.92999999999,"N_COORD97":2546433.3300000001,"ADDRESS":"中山南路５４４巷５９弄２６號","OBJECTID":115167},"geometry":{"x":172410.93000000063,"y":2546433.3300000019}},{"attributes":{"ID":115168,"DIS_CODE":0,"TOWNNAME":"永康區","LI":"復國里","LIN":"22鄰","STREET":"復華六街","SECT":" ","MAREA":" ","LANE":"９３巷","ALLEY":"３４弄","HOUSE_NO":"３號","E_COORD97":172588.04999999999,"N_COORD97":2545737.2000000002,"ADDRESS":"復華六街９３巷３４弄３號","OBJECTID":115168},"geometry":{"x":172588.05000000168,"y":2545737.1999999993}},{"attributes":{"ID":115169,"DIS_CODE":0,"TOWNNAME":"新市區","LI":"大社里","LIN":"4鄰","STREET":" ","SECT":" ","MAREA":"大社","LANE":" ","ALLEY":" ","HOUSE_NO":"２１１號","E_COORD97":180096.37,"N_COORD97":2554424.75,"ADDRESS":"大社２１１號","OBJECTID":115169},"geometry":{"x":180096.37000000104,"y":2554424.7500000019}},{"attributes":{"ID":115170,"DIS_CODE":0,"TOWNNAME":"新市區","LI":"大社里","LIN":"32鄰","STREET":" ","SECT":" ","MAREA":"大社","LANE":" ","ALLEY":" ","HOUSE_NO":"２８４之１８號","E_COORD97":180641.70999999999,"N_COORD97":2554643.0499999998,"ADDRESS":"大社２８４之１８號","OBJECTID":115170},"geometry":{"x":180641.71000000089,"y":2554643.0500000007}},{"attributes":{"ID":115171,"DIS_CODE":0,"TOWNNAME":"新市區","LI":"永就里","LIN":"4鄰","STREET":" ","SECT":" ","MAREA":"永就","LANE":" ","ALLEY":" ","HOUSE_NO":"４６號","E_COORD97":178511.42000000001,"N_COORD97":2551614.75,"ADDRESS":"永就４６號","OBJECTID":115171},"geometry":{"x":178511.41999999993,"y":2551614.7500000019}},{"attributes":{"ID":115172,"DIS_CODE":0,"TOWNNAME":"永康區","LI":"勝利里","LIN":"36鄰","STREET":"勝學路","SECT":" ","MAREA":" ","LANE":"８２巷","ALLEY":"２弄","HOUSE_NO":"７號","E_COORD97":171201.57999999999,"N_COORD97":2544767.0099999998,"ADDRESS":"勝學路８２巷２弄７號","OBJECTID":115172},"geometry":{"x":171201.58000000194,"y":2544767.0100000016}},{"attributes":{"ID":115173,"DIS_CODE":0,"TOWNNAME":"永康區","LI":"復興里","LIN":"24鄰","STREET":"復興路","SECT":" ","MAREA":" ","LANE":"３５６巷","ALLEY":"８０弄","HOUSE_NO":"８號","E_COORD97":172391.75,"N_COORD97":2544549.7799999998,"ADDRESS":"復興路３５６巷８０弄８號","OBJECTID":115173},"geometry":{"x":172391.75,"y":2544549.7799999993}},{"attributes":{"ID":115174,"DIS_CODE":0,"TOWNNAME":"永康區","LI":"勝利里","LIN":"30鄰","STREET":"勝利街","SECT":" ","MAREA":" ","LANE":"３０巷","ALLEY":"７弄","HOUSE_NO":"３８號","E_COORD97":171503.48999999999,"N_COORD97":2544565.2400000002,"ADDRESS":"勝利街３０巷７弄３８號","OBJECTID":115174},"geometry":{"x":171503.49000000022,"y":2544565.2400000039}},{"attributes":{"ID":115175,"DIS_CODE":0,"TOWNNAME":"永康區","LI":"二王里","LIN":"23鄰","STREET":"中山南路","SECT":" ","MAREA":" ","LANE":"５４４巷","ALLEY":"５９弄","HOUSE_NO":"１６號","E_COORD97":172381.78,"N_COORD97":2546434.0800000001,"ADDRESS":"中山南路５４４巷５９弄１６號","OBJECTID":115175},"geometry":{"x":172381.78000000212,"y":2546434.0799999982}},{"attributes":{"ID":115176,"DIS_CODE":0,"TOWNNAME":"永康區","LI":"二王里","LIN":"23鄰","STREET":"忠孝路","SECT":" ","MAREA":" ","LANE":"４２９巷","ALLEY":"１５弄","HOUSE_NO":"１０號","E_COORD97":172416.98999999999,"N_COORD97":2546477.1200000001,"ADDRESS":"忠孝路４２９巷１５弄１０號","OBJECTID":115176},"geometry":{"x":172416.99000000022,"y":2546477.1200000029}},{"attributes":{"ID":115177,"DIS_CODE":0,"TOWNNAME":"永康區","LI":"三合里","LIN":"23鄰","STREET":"南工街","SECT":" ","MAREA":" ","LANE":"３２３巷","ALLEY":"３２弄","HOUSE_NO":"６號","E_COORD97":171768.22,"N_COORD97":2545944.4900000002,"ADDRESS":"南工街３２３巷３２弄６號","OBJECTID":115177},"geometry":{"x":171768.22000000067,"y":2545944.4900000021}},{"attributes":{"ID":115178,"DIS_CODE":0,"TOWNNAME":"永康區","LI":"三合里","LIN":"23鄰","STREET":"南工街","SECT":" ","MAREA":" ","LANE":"３２３巷","ALLEY":"１４弄","HOUSE_NO":"５號","E_COORD97":171756.25,"N_COORD97":2545992.25,"ADDRESS":"南工街３２３巷１４弄５號","OBJECTID":115178},"geometry":{"x":171756.25000000186,"y":2545992.2500000037}},{"attributes":{"ID":115179,"DIS_CODE":0,"TOWNNAME":"永康區","LI":"二王里","LIN":"23鄰","STREET":"中山南路","SECT":" ","MAREA":" ","LANE":"５４４巷","ALLEY":"５９弄","HOUSE_NO":"１０號","E_COORD97":172363.92999999999,"N_COORD97":2546434.0800000001,"ADDRESS":"中山南路５４４巷５９弄１０號","OBJECTID":115179},"geometry":{"x":172363.93000000063,"y":2546434.0799999982}},{"attributes":{"ID":115180,"DIS_CODE":0,"TOWNNAME":"永康區","LI":"勝利里","LIN":"36鄰","STREET":"勝學路","SECT":" ","MAREA":" ","LANE":"８２巷","ALLEY":"２弄","HOUSE_NO":"８號","E_COORD97":171188.51000000001,"N_COORD97":2544771.7599999998,"ADDRESS":"勝學路８２巷２弄８號","OBJECTID":115180},"geometry":{"x":171188.51000000071,"y":2544771.7600000035}},{"attributes":{"ID":115181,"DIS_CODE":0,"TOWNNAME":"永康區","LI":"勝利里","LIN":"31鄰","STREET":"勝利街","SECT":" ","MAREA":" ","LANE":"３０巷","ALLEY":"７弄","HOUSE_NO":"１７號","E_COORD97":171398.09,"N_COORD97":2544519.5,"ADDRESS":"勝利街３０巷７弄１７號","OBJECTID":115181},"geometry":{"x":171398.09000000078,"y":2544519.5000000037}},{"attributes":{"ID":115182,"DIS_CODE":0,"TOWNNAME":"仁德區","LI":"仁義里","LIN":"23鄰","STREET":"中清路","SECT":" ","MAREA":" ","LANE":"１６０巷","ALLEY":"２弄","HOUSE_NO":"４號","E_COORD97":173758.701787,"N_COORD97":2541471.1696799998,"ADDRESS":"中清路１６０巷２弄４號","OBJECTID":115182},"geometry":{"x":173758.70178700052,"y":2541471.169679001}},{"attributes":{"ID":115183,"DIS_CODE":0,"TOWNNAME":"永康區","LI":"復華里","LIN":"13鄰","STREET":"國華街","SECT":" ","MAREA":" ","LANE":"９６巷","ALLEY":"１５弄","HOUSE_NO":"１８號","E_COORD97":172931.19,"N_COORD97":2546004.21,"ADDRESS":"國華街９６巷１５弄１８號","OBJECTID":115183},"geometry":{"x":172931.19000000041,"y":2546004.2100000028}},{"attributes":{"ID":115184,"DIS_CODE":0,"TOWNNAME":"仁德區","LI":"成功里","LIN":"23鄰","STREET":"保華路","SECT":" ","MAREA":" ","LANE":"２６５巷","ALLEY":"２１弄","HOUSE_NO":"１６號","E_COORD97":170706.89000000001,"N_COORD97":2539887.0099999998,"ADDRESS":"保華路２６５巷２１弄１６號","OBJECTID":115184},"geometry":{"x":170706.88999999966,"y":2539887.0099999998}},{"attributes":{"ID":115185,"DIS_CODE":0,"TOWNNAME":"安南區","LI":"安富里","LIN":"23鄰","STREET":"郡安路","SECT":"五段","MAREA":" ","LANE":"１６４巷","ALLEY":"８弄","HOUSE_NO":"１２號","E_COORD97":167606.57999999999,"N_COORD97":2547618.5800000001,"ADDRESS":"郡安路五段１６４巷８弄１２號","OBJECTID":115185},"geometry":{"x":167606.58000000101,"y":2547618.5800000019}},{"attributes":{"ID":115186,"DIS_CODE":0,"TOWNNAME":"善化區","LI":"牛庄里","LIN":"1鄰","STREET":" ","SECT":" ","MAREA":"牛庄","LANE":" ","ALLEY":" ","HOUSE_NO":"４之１２號","E_COORD97":180171.79999999999,"N_COORD97":2559752.02,"ADDRESS":"牛庄４之１２號","OBJECTID":115186},"geometry":{"x":180171.79999999981,"y":2559752.0200000014}},{"attributes":{"ID":115187,"DIS_CODE":0,"TOWNNAME":"善化區","LI":"田寮里","LIN":"1鄰","STREET":" ","SECT":" ","MAREA":"六分寮","LANE":" ","ALLEY":" ","HOUSE_NO":"１７之３號","E_COORD97":178356.03,"N_COORD97":2561315.27,"ADDRESS":"六分寮１７之３號","OBJECTID":115187},"geometry":{"x":178356.03000000119,"y":2561315.2699999996}},{"attributes":{"ID":115188,"DIS_CODE":0,"TOWNNAME":"善化區","LI":"溪美里","LIN":"1鄰","STREET":" ","SECT":" ","MAREA":"溪尾","LANE":" ","ALLEY":" ","HOUSE_NO":"６７９號之１","E_COORD97":177122.12,"N_COORD97":2560864.27,"ADDRESS":"溪尾６７９號之１","OBJECTID":115188},"geometry":{"x":177122.12000000011,"y":2560864.2699999996}},{"attributes":{"ID":115189,"DIS_CODE":0,"TOWNNAME":"安南區","LI":"砂崙里","LIN":"1鄰","STREET":"城北路","SECT":" ","MAREA":" ","LANE":"８７１巷","ALLEY":" ","HOUSE_NO":"５７號","E_COORD97":160732.17000000001,"N_COORD97":2553250.6400000001,"ADDRESS":"城北路８７１巷５７號","OBJECTID":115189},"geometry":{"x":160732.16999999993,"y":2553250.6400000025}},{"attributes":{"ID":115190,"DIS_CODE":0,"TOWNNAME":"善化區","LI":"牛庄里","LIN":"1鄰","STREET":" ","SECT":" ","MAREA":"牛庄","LANE":" ","ALLEY":" ","HOUSE_NO":"１６號之１１","E_COORD97":180210.60999999999,"N_COORD97":2559697.27,"ADDRESS":"牛庄１６號之１１","OBJECTID":115190},"geometry":{"x":180210.61000000127,"y":2559697.2700000014}},{"attributes":{"ID":115191,"DIS_CODE":0,"TOWNNAME":"善化區","LI":"六分里","LIN":"1鄰","STREET":" ","SECT":" ","MAREA":"六分寮","LANE":" ","ALLEY":" ","HOUSE_NO":"１號","E_COORD97":178313.42000000001,"N_COORD97":2561257.5,"ADDRESS":"六分寮１號","OBJECTID":115191},"geometry":{"x":178313.41999999993,"y":2561257.5000000037}},{"attributes":{"ID":115192,"DIS_CODE":0,"TOWNNAME":"善化區","LI":"什乃里","LIN":"1鄰","STREET":" ","SECT":" ","MAREA":"什乃","LANE":" ","ALLEY":" ","HOUSE_NO":"１５之１８號","E_COORD97":176257.98999999999,"N_COORD97":2560555.02,"ADDRESS":"什乃１５之１８號","OBJECTID":115192},"geometry":{"x":176257.99000000115,"y":2560555.0200000033}},{"attributes":{"ID":115193,"DIS_CODE":0,"TOWNNAME":"南區","LI":"明興里","LIN":"5鄰","STREET":"金華路","SECT":"一段","MAREA":" ","LANE":" ","ALLEY":" ","HOUSE_NO":"１９６號","E_COORD97":166954.64000000001,"N_COORD97":2540766.71,"ADDRESS":"金華路一段１９６號","OBJECTID":115193},"geometry":{"x":166954.6400000006,"y":2540766.7100000028}},{"attributes":{"ID":115194,"DIS_CODE":0,"TOWNNAME":"新營區","LI":"新東里","LIN":"24鄰","STREET":"民治路","SECT":" ","MAREA":" ","LANE":" ","ALLEY":" ","HOUSE_NO":"６之４６號","E_COORD97":180658.54999999999,"N_COORD97":2578908.5600000001,"ADDRESS":"民治路６之４６號","OBJECTID":115194},"geometry":{"x":180658.54999999981,"y":2578908.5600000024}},{"attributes":{"ID":115195,"DIS_CODE":0,"TOWNNAME":"新營區","LI":"忠政里","LIN":"24鄰","STREET":"健康路","SECT":" ","MAREA":" ","LANE":" ","ALLEY":" ","HOUSE_NO":"１６號","E_COORD97":179692.48999999999,"N_COORD97":2578899.7599999998,"ADDRESS":"健康路１６號","OBJECTID":115195},"geometry":{"x":179692.49000000115,"y":2578899.7600000016}},{"attributes":{"ID":115196,"DIS_CODE":0,"TOWNNAME":"新營區","LI":"忠政里","LIN":"24鄰","STREET":"健康路","SECT":" ","MAREA":" ","LANE":" ","ALLEY":" ","HOUSE_NO":"３１６號","E_COORD97":179668.85999999999,"N_COORD97":2579672.8900000001,"ADDRESS":"健康路３１６號","OBJECTID":115196},"geometry":{"x":179668.86000000034,"y":2579672.8900000025}},{"attributes":{"ID":115197,"DIS_CODE":0,"TOWNNAME":"新營區","LI":"新南里","LIN":"24鄰","STREET":"隋唐街","SECT":" ","MAREA":" ","LANE":" ","ALLEY":" ","HOUSE_NO":"２８５號","E_COORD97":178216.29000000001,"N_COORD97":2578575.7200000002,"ADDRESS":"隋唐街２８５號","OBJECTID":115197},"geometry":{"x":178216.28999999911,"y":2578575.7200000025}},{"attributes":{"ID":115198,"DIS_CODE":0,"TOWNNAME":"新營區","LI":"民權里","LIN":"24鄰","STREET":"信義街","SECT":" ","MAREA":" ","LANE":" ","ALLEY":" ","HOUSE_NO":"９３之１號","E_COORD97":179782.23000000001,"N_COORD97":2578752.1099999999,"ADDRESS":"信義街９３之１號","OBJECTID":115198},"geometry":{"x":179782.23000000138,"y":2578752.1100000013}},{"attributes":{"ID":115199,"DIS_CODE":0,"TOWNNAME":"安南區","LI":"鳳凰里","LIN":"23鄰","STREET":"怡安路","SECT":"二段","MAREA":" ","LANE":"５４５巷","ALLEY":"６弄","HOUSE_NO":"２５號","E_COORD97":167443.67000000001,"N_COORD97":2549402.25,"ADDRESS":"怡安路二段５４５巷６弄２５號","OBJECTID":115199},"geometry":{"x":167443.66999999993,"y":2549402.25}},{"attributes":{"ID":115200,"DIS_CODE":0,"TOWNNAME":"永康區","LI":"新樹里","LIN":"4鄰","STREET":"富強路","SECT":"二段","MAREA":" ","LANE":"３９８巷","ALLEY":"３０弄","HOUSE_NO":"７號","E_COORD97":175665.48000000001,"N_COORD97":2547602.73,"ADDRESS":"富強路二段３９８巷３０弄７號","OBJECTID":115200},"geometry":{"x":175665.48000000045,"y":2547602.7300000004}}]}