{"displayFieldName":"TOWNNAME","fieldAliases":{"ID":"ID","DIS_CODE":"DIS_CODE","TOWNNAME":"TOWNNAME","LI":"LI","LIN":"LIN","STREET":"STREET","SECT":"SECT","MAREA":"MAREA","LANE":"LANE","ALLEY":"ALLEY","HOUSE_NO":"HOUSE_NO","E_COORD97":"E_COORD97","N_COORD97":"N_COORD97","ADDRESS":"ADDRESS","OBJECTID":"OBJECTID"},"geometryType":"esriGeometryPoint","spatialReference":{"wkid":102443,"latestWkid":3826},"fields":[{"name":"ID","type":"esriFieldTypeDouble","alias":"ID"},{"name":"DIS_CODE","type":"esriFieldTypeInteger","alias":"DIS_CODE"},{"name":"TOWNNAME","type":"esriFieldTypeString","alias":"TOWNNAME","length":8},{"name":"LI","type":"esriFieldTypeString","alias":"LI","length":8},{"name":"LIN","type":"esriFieldTypeString","alias":"LIN","length":12},{"name":"STREET","type":"esriFieldTypeString","alias":"STREET","length":20},{"name":"SECT","type":"esriFieldTypeString","alias":"SECT","length":8},{"name":"MAREA","type":"esriFieldTypeString","alias":"MAREA","length":12},{"name":"LANE","type":"esriFieldTypeString","alias":"LANE","length":10},{"name":"ALLEY","type":"esriFieldTypeString","alias":"ALLEY","length":10},{"name":"HOUSE_NO","type":"esriFieldTypeString","alias":"HOUSE_NO","length":20},{"name":"E_COORD97","type":"esriFieldTypeDouble","alias":"E_COORD97"},{"name":"N_COORD97","type":"esriFieldTypeDouble","alias":"N_COORD97"},{"name":"ADDRESS","type":"esriFieldTypeString","alias":"ADDRESS","length":50},{"name":"OBJECTID","type":"esriFieldTypeOID","alias":"OBJECTID"}],"features":[{"attributes":{"ID":3401,"DIS_CODE":0,"TOWNNAME":"安南區","LI":"青草里","LIN":"7鄰","STREET":"青砂街","SECT":"二段","MAREA":" ","LANE":" ","ALLEY":" ","HOUSE_NO":"９１４號","E_COORD97":157759.99702000001,"N_COORD97":2552575.0022200001,"ADDRESS":"青砂街二段９１４號","OBJECTID":3401},"geometry":{"x":157759.99702000059,"y":2552575.0022230018}},{"attributes":{"ID":3402,"DIS_CODE":0,"TOWNNAME":"將軍區","LI":"北埔里","LIN":"10鄰","STREET":" ","SECT":" ","MAREA":"北埔","LANE":" ","ALLEY":" ","HOUSE_NO":"９５之１號","E_COORD97":162977.134941,"N_COORD97":2569157.98306,"ADDRESS":"北埔９５之１號","OBJECTID":3402},"geometry":{"x":162977.13494100049,"y":2569157.983055003}},{"attributes":{"ID":3403,"DIS_CODE":0,"TOWNNAME":"將軍區","LI":"北埔里","LIN":"11鄰","STREET":" ","SECT":" ","MAREA":"北埔","LANE":" ","ALLEY":" ","HOUSE_NO":"９９之１號","E_COORD97":162989.70999999999,"N_COORD97":2569112.6499999999,"ADDRESS":"北埔９９之１號","OBJECTID":3403},"geometry":{"x":162989.71000000089,"y":2569112.6500000041}},{"attributes":{"ID":3404,"DIS_CODE":0,"TOWNNAME":"東山區","LI":"青山里","LIN":"8鄰","STREET":" ","SECT":" ","MAREA":"青山","LANE":" ","ALLEY":" ","HOUSE_NO":"６９之１４７號","E_COORD97":197585.358503,"N_COORD97":2575021.8680099999,"ADDRESS":"青山６９之１４７號","OBJECTID":3404},"geometry":{"x":197585.35850300174,"y":2575021.8680079989}},{"attributes":{"ID":3405,"DIS_CODE":0,"TOWNNAME":"歸仁區","LI":"南保里","LIN":"2鄰","STREET":"民權二街","SECT":" ","MAREA":" ","LANE":" ","ALLEY":" ","HOUSE_NO":"２９之１６號","E_COORD97":176885.07581400001,"N_COORD97":2541344.2033299999,"ADDRESS":"民權二街２９之１６號","OBJECTID":3405},"geometry":{"x":176885.07581400126,"y":2541344.2033299971}},{"attributes":{"ID":3406,"DIS_CODE":0,"TOWNNAME":"安南區","LI":"青草里","LIN":"7鄰","STREET":"青砂街","SECT":"二段","MAREA":" ","LANE":" ","ALLEY":" ","HOUSE_NO":"８９１號之２１","E_COORD97":157857.18248799999,"N_COORD97":2552652.47218,"ADDRESS":"青砂街二段８９１號之２１","OBJECTID":3406},"geometry":{"x":157857.18248800095,"y":2552652.4721810035}},{"attributes":{"ID":3407,"DIS_CODE":0,"TOWNNAME":"關廟區","LI":"埤頭里","LIN":"8鄰","STREET":"保東路","SECT":" ","MAREA":" ","LANE":"８８巷","ALLEY":" ","HOUSE_NO":"４５號","E_COORD97":178841.49057200001,"N_COORD97":2544158.65069,"ADDRESS":"保東路８８巷４５號","OBJECTID":3407},"geometry":{"x":178841.49057199992,"y":2544158.6506920028}},{"attributes":{"ID":3408,"DIS_CODE":0,"TOWNNAME":"東山區","LI":"青山里","LIN":"8鄰","STREET":" ","SECT":" ","MAREA":"青山","LANE":" ","ALLEY":" ","HOUSE_NO":"６９之５１號","E_COORD97":197616.281976,"N_COORD97":2574951.80638,"ADDRESS":"青山６９之５１號","OBJECTID":3408},"geometry":{"x":197616.28197600134,"y":2574951.8063790016}},{"attributes":{"ID":3409,"DIS_CODE":0,"TOWNNAME":"安南區","LI":"安和里","LIN":"2鄰","STREET":"府安路","SECT":"三段","MAREA":" ","LANE":" ","ALLEY":" ","HOUSE_NO":"３２０號","E_COORD97":169811.919406,"N_COORD97":2547605.3812199999,"ADDRESS":"府安路三段３２０號","OBJECTID":3409},"geometry":{"x":169811.91940600052,"y":2547605.3812160026}},{"attributes":{"ID":3410,"DIS_CODE":0,"TOWNNAME":"安南區","LI":"安和里","LIN":"2鄰","STREET":"府安路","SECT":"三段","MAREA":" ","LANE":" ","ALLEY":" ","HOUSE_NO":"３１５號","E_COORD97":169824.84179100001,"N_COORD97":2547622.1028700001,"ADDRESS":"府安路三段３１５號","OBJECTID":3410},"geometry":{"x":169824.84179100115,"y":2547622.1028739996}},{"attributes":{"ID":3411,"DIS_CODE":0,"TOWNNAME":"安南區","LI":"青草里","LIN":"7鄰","STREET":"青砂街","SECT":"二段","MAREA":" ","LANE":"７３７巷","ALLEY":"６３弄","HOUSE_NO":"６６號","E_COORD97":158529.85837,"N_COORD97":2552692.9004899999,"ADDRESS":"青砂街二段７３７巷６３弄６６號","OBJECTID":3411},"geometry":{"x":158529.85836999957,"y":2552692.9004919995}},{"attributes":{"ID":3412,"DIS_CODE":0,"TOWNNAME":"安南區","LI":"安和里","LIN":"2鄰","STREET":"府安路","SECT":"三段","MAREA":" ","LANE":" ","ALLEY":" ","HOUSE_NO":"３１８號","E_COORD97":169817.63915,"N_COORD97":2547613.6362100001,"ADDRESS":"府安路三段３１８號","OBJECTID":3412},"geometry":{"x":169817.63915000018,"y":2547613.6362120006}},{"attributes":{"ID":3413,"DIS_CODE":0,"TOWNNAME":"關廟區","LI":"埤頭里","LIN":"11鄰","STREET":"保東路","SECT":" ","MAREA":" ","LANE":"８８巷","ALLEY":" ","HOUSE_NO":"５２號","E_COORD97":178854.01999999999,"N_COORD97":2544189.2999999998,"ADDRESS":"保東路８８巷５２號","OBJECTID":3413},"geometry":{"x":178854.02000000048,"y":2544189.3000000045}},{"attributes":{"ID":3414,"DIS_CODE":0,"TOWNNAME":"安南區","LI":"安和里","LIN":"2鄰","STREET":"府安路","SECT":"三段","MAREA":" ","LANE":" ","ALLEY":" ","HOUSE_NO":"３１９號","E_COORD97":169813.825988,"N_COORD97":2547609.8262100001,"ADDRESS":"府安路三段３１９號","OBJECTID":3414},"geometry":{"x":169813.82598800212,"y":2547609.8262140006}},{"attributes":{"ID":3415,"DIS_CODE":0,"TOWNNAME":"仁德區","LI":"大甲里","LIN":"20鄰","STREET":"行大街","SECT":" ","MAREA":" ","LANE":"４２２巷","ALLEY":" ","HOUSE_NO":"１１號","E_COORD97":169423.99273299999,"N_COORD97":2535336.7524999999,"ADDRESS":"行大街４２２巷１１號","OBJECTID":3415},"geometry":{"x":169423.99273300078,"y":2535336.7524989992}},{"attributes":{"ID":3416,"DIS_CODE":0,"TOWNNAME":"仁德區","LI":"大甲里","LIN":"20鄰","STREET":"行大街","SECT":" ","MAREA":" ","LANE":"４２２巷","ALLEY":" ","HOUSE_NO":"１１之１號","E_COORD97":169416.150494,"N_COORD97":2535332.8366700001,"ADDRESS":"行大街４２２巷１１之１號","OBJECTID":3416},"geometry":{"x":169416.15049400087,"y":2535332.8366669994}},{"attributes":{"ID":3417,"DIS_CODE":0,"TOWNNAME":"關廟區","LI":"埤頭里","LIN":"11鄰","STREET":"保東路","SECT":" ","MAREA":" ","LANE":"８８巷","ALLEY":" ","HOUSE_NO":"５６號","E_COORD97":178848.62,"N_COORD97":2544199.2999999998,"ADDRESS":"保東路８８巷５６號","OBJECTID":3417},"geometry":{"x":178848.62000000104,"y":2544199.3000000045}},{"attributes":{"ID":3418,"DIS_CODE":0,"TOWNNAME":"關廟區","LI":"埤頭里","LIN":"11鄰","STREET":"保東路","SECT":" ","MAREA":" ","LANE":"８８巷","ALLEY":" ","HOUSE_NO":"６６號","E_COORD97":178854.72,"N_COORD97":2544239.2999999998,"ADDRESS":"保東路８８巷６６號","OBJECTID":3418},"geometry":{"x":178854.72000000067,"y":2544239.3000000007}},{"attributes":{"ID":3419,"DIS_CODE":0,"TOWNNAME":"將軍區","LI":"北埔里","LIN":"10鄰","STREET":" ","SECT":" ","MAREA":"北埔","LANE":" ","ALLEY":" ","HOUSE_NO":"９８號","E_COORD97":162998.95247600001,"N_COORD97":2569072.8931,"ADDRESS":"北埔９８號","OBJECTID":3419},"geometry":{"x":162998.95247600134,"y":2569072.8931009993}},{"attributes":{"ID":3420,"DIS_CODE":0,"TOWNNAME":"東山區","LI":"青山里","LIN":"8鄰","STREET":" ","SECT":" ","MAREA":"青山","LANE":" ","ALLEY":" ","HOUSE_NO":"６９之１７６號","E_COORD97":197586.20572100001,"N_COORD97":2575129.6062799999,"ADDRESS":"青山６９之１７６號","OBJECTID":3420},"geometry":{"x":197586.20572100021,"y":2575129.6062830016}},{"attributes":{"ID":3421,"DIS_CODE":0,"TOWNNAME":"東山區","LI":"青山里","LIN":"8鄰","STREET":" ","SECT":" ","MAREA":"青山","LANE":" ","ALLEY":" ","HOUSE_NO":"６９之３１號","E_COORD97":197598.06677899999,"N_COORD97":2575138.28461,"ADDRESS":"青山６９之３１號","OBJECTID":3421},"geometry":{"x":197598.06677900068,"y":2575138.2846119981}},{"attributes":{"ID":3422,"DIS_CODE":0,"TOWNNAME":"將軍區","LI":"北埔里","LIN":"10鄰","STREET":" ","SECT":" ","MAREA":"北埔","LANE":" ","ALLEY":" ","HOUSE_NO":"９４之２０號","E_COORD97":162828.542701,"N_COORD97":2568978.9131499999,"ADDRESS":"北埔９４之２０號","OBJECTID":3422},"geometry":{"x":162828.54270100128,"y":2568978.9131510016}},{"attributes":{"ID":3423,"DIS_CODE":0,"TOWNNAME":"中西區","LI":"水仙里","LIN":"18鄰","STREET":"海安路","SECT":"二段","MAREA":" ","LANE":" ","ALLEY":" ","HOUSE_NO":"２３８號","E_COORD97":167766.75400300001,"N_COORD97":2544264.7504599998,"ADDRESS":"海安路二段２３８號","OBJECTID":3423},"geometry":{"x":167766.75400300138,"y":2544264.7504610028}},{"attributes":{"ID":3424,"DIS_CODE":0,"TOWNNAME":"仁德區","LI":"大甲里","LIN":"21鄰","STREET":"行大街","SECT":" ","MAREA":" ","LANE":" ","ALLEY":" ","HOUSE_NO":"９號","E_COORD97":169482.59757099999,"N_COORD97":2535298.9700199999,"ADDRESS":"行大街９號","OBJECTID":3424},"geometry":{"x":169482.59757100046,"y":2535298.9700189997}},{"attributes":{"ID":3425,"DIS_CODE":0,"TOWNNAME":"仁德區","LI":"大甲里","LIN":"21鄰","STREET":"行大街","SECT":" ","MAREA":" ","LANE":"４０２巷","ALLEY":" ","HOUSE_NO":"１１號","E_COORD97":169477.823343,"N_COORD97":2535299.0229400001,"ADDRESS":"行大街４０２巷１１號","OBJECTID":3425},"geometry":{"x":169477.82334300037,"y":2535299.0229360014}},{"attributes":{"ID":3426,"DIS_CODE":0,"TOWNNAME":"關廟區","LI":"埤頭里","LIN":"11鄰","STREET":"關新路","SECT":"二段","MAREA":" ","LANE":"１０３巷","ALLEY":" ","HOUSE_NO":"１１５號","E_COORD97":178868.62,"N_COORD97":2544278.2999999998,"ADDRESS":"關新路二段１０３巷１１５號","OBJECTID":3426},"geometry":{"x":178868.62000000197,"y":2544278.3000000026}},{"attributes":{"ID":3427,"DIS_CODE":0,"TOWNNAME":"關廟區","LI":"埤頭里","LIN":"12鄰","STREET":"保東路","SECT":" ","MAREA":" ","LANE":"８８巷","ALLEY":" ","HOUSE_NO":"１１２號","E_COORD97":178808.65112200001,"N_COORD97":2544343.0122600002,"ADDRESS":"保東路８８巷１１２號","OBJECTID":3427},"geometry":{"x":178808.65112200007,"y":2544343.012258999}},{"attributes":{"ID":3428,"DIS_CODE":0,"TOWNNAME":"東山區","LI":"青山里","LIN":"8鄰","STREET":" ","SECT":" ","MAREA":"青山","LANE":" ","ALLEY":" ","HOUSE_NO":"６９之７９號","E_COORD97":197521.923021,"N_COORD97":2575164.6370999999,"ADDRESS":"青山６９之７９號","OBJECTID":3428},"geometry":{"x":197521.92302099988,"y":2575164.6370980013}},{"attributes":{"ID":3429,"DIS_CODE":0,"TOWNNAME":"中西區","LI":"水仙里","LIN":"18鄰","STREET":"海安路","SECT":"二段","MAREA":" ","LANE":"２７０巷","ALLEY":" ","HOUSE_NO":"２３號","E_COORD97":167811.20000000001,"N_COORD97":2544265.6000000001,"ADDRESS":"海安路二段２７０巷２３號","OBJECTID":3429},"geometry":{"x":167811.20000000112,"y":2544265.5999999996}},{"attributes":{"ID":3430,"DIS_CODE":0,"TOWNNAME":"關廟區","LI":"埤頭里","LIN":"12鄰","STREET":"保東路","SECT":" ","MAREA":" ","LANE":"８８巷","ALLEY":" ","HOUSE_NO":"１５０號","E_COORD97":178802.71883500001,"N_COORD97":2544415.8255500002,"ADDRESS":"保東路８８巷１５０號","OBJECTID":3430},"geometry":{"x":178802.71883500088,"y":2544415.825553}},{"attributes":{"ID":3431,"DIS_CODE":0,"TOWNNAME":"將軍區","LI":"北埔里","LIN":"6鄰","STREET":" ","SECT":" ","MAREA":"北埔","LANE":" ","ALLEY":" ","HOUSE_NO":"５０之５號","E_COORD97":163245.19407100001,"N_COORD97":2569287.3113199999,"ADDRESS":"北埔５０之５號","OBJECTID":3431},"geometry":{"x":163245.19407100044,"y":2569287.3113180026}},{"attributes":{"ID":3432,"DIS_CODE":0,"TOWNNAME":"將軍區","LI":"北埔里","LIN":"6鄰","STREET":" ","SECT":" ","MAREA":"北埔","LANE":" ","ALLEY":" ","HOUSE_NO":"５０之６號","E_COORD97":163239.474911,"N_COORD97":2569288.1579800001,"ADDRESS":"北埔５０之６號","OBJECTID":3432},"geometry":{"x":163239.47491100058,"y":2569288.1579839997}},{"attributes":{"ID":3433,"DIS_CODE":0,"TOWNNAME":"東山區","LI":"青山里","LIN":"8鄰","STREET":" ","SECT":" ","MAREA":"青山","LANE":" ","ALLEY":" ","HOUSE_NO":"６９之２７號","E_COORD97":197571.27349600001,"N_COORD97":2575175.0087600001,"ADDRESS":"青山６９之２７號","OBJECTID":3433},"geometry":{"x":197571.27349600103,"y":2575175.0087590013}},{"attributes":{"ID":3434,"DIS_CODE":0,"TOWNNAME":"安南區","LI":"佃東里","LIN":"5鄰","STREET":"公學路","SECT":"四段","MAREA":" ","LANE":"１２２巷","ALLEY":" ","HOUSE_NO":"１３１號之２５０","E_COORD97":165589.46153900001,"N_COORD97":2552884.45872,"ADDRESS":"公學路四段１２２巷１３１號之２５０","OBJECTID":3434},"geometry":{"x":165589.46153899934,"y":2552884.4587220009}},{"attributes":{"ID":3435,"DIS_CODE":0,"TOWNNAME":"東山區","LI":"青山里","LIN":"8鄰","STREET":" ","SECT":" ","MAREA":"青山","LANE":" ","ALLEY":" ","HOUSE_NO":"６９之２８號","E_COORD97":197583.34635899999,"N_COORD97":2575163.7904300001,"ADDRESS":"青山６９之２８號","OBJECTID":3435},"geometry":{"x":197583.34635899961,"y":2575163.7904310003}},{"attributes":{"ID":3436,"DIS_CODE":0,"TOWNNAME":"歸仁區","LI":"南保里","LIN":"2鄰","STREET":"民權二街","SECT":" ","MAREA":" ","LANE":" ","ALLEY":" ","HOUSE_NO":"２９之１０號","E_COORD97":176884.65201200001,"N_COORD97":2541355.7391599999,"ADDRESS":"民權二街２９之１０號","OBJECTID":3436},"geometry":{"x":176884.65201200172,"y":2541355.7391570006}},{"attributes":{"ID":3437,"DIS_CODE":0,"TOWNNAME":"歸仁區","LI":"南保里","LIN":"2鄰","STREET":"民權二街","SECT":" ","MAREA":" ","LANE":" ","ALLEY":" ","HOUSE_NO":"２９之１號","E_COORD97":176920.67511899999,"N_COORD97":2541354.0458200001,"ADDRESS":"民權二街２９之１號","OBJECTID":3437},"geometry":{"x":176920.67511900049,"y":2541354.0458250027}},{"attributes":{"ID":3438,"DIS_CODE":0,"TOWNNAME":"東山區","LI":"青山里","LIN":"8鄰","STREET":" ","SECT":" ","MAREA":"青山","LANE":" ","ALLEY":" ","HOUSE_NO":"６９之８８號","E_COORD97":197602.40877400001,"N_COORD97":2575199.1387499999,"ADDRESS":"青山６９之８８號","OBJECTID":3438},"geometry":{"x":197602.40877399966,"y":2575199.1387460008}},{"attributes":{"ID":3439,"DIS_CODE":0,"TOWNNAME":"安南區","LI":"東和里","LIN":"7鄰","STREET":"長和路","SECT":"一段","MAREA":" ","LANE":"２２２巷","ALLEY":" ","HOUSE_NO":"３７７號","E_COORD97":172638.901648,"N_COORD97":2551643.13698,"ADDRESS":"長和路一段２２２巷３７７號","OBJECTID":3439},"geometry":{"x":172638.90164800081,"y":2551643.1369749997}},{"attributes":{"ID":3440,"DIS_CODE":0,"TOWNNAME":"關廟區","LI":"埤頭里","LIN":"11鄰","STREET":"保東二街","SECT":" ","MAREA":" ","LANE":" ","ALLEY":" ","HOUSE_NO":"１８８號","E_COORD97":178776.235407,"N_COORD97":2544610.9821100002,"ADDRESS":"保東二街１８８號","OBJECTID":3440},"geometry":{"x":178776.23540700134,"y":2544610.9821139984}},{"attributes":{"ID":3441,"DIS_CODE":0,"TOWNNAME":"東山區","LI":"青山里","LIN":"8鄰","STREET":" ","SECT":" ","MAREA":"青山","LANE":" ","ALLEY":" ","HOUSE_NO":"６９之４５號","E_COORD97":197614.48163699999,"N_COORD97":2575186.2270900002,"ADDRESS":"青山６９之４５號","OBJECTID":3441},"geometry":{"x":197614.48163700011,"y":2575186.227086002}},{"attributes":{"ID":3442,"DIS_CODE":0,"TOWNNAME":"歸仁區","LI":"南保里","LIN":"2鄰","STREET":"民權二街","SECT":" ","MAREA":" ","LANE":" ","ALLEY":" ","HOUSE_NO":"２９之２２號","E_COORD97":176875.116484,"N_COORD97":2541369.2858199999,"ADDRESS":"民權二街２９之２２號","OBJECTID":3442},"geometry":{"x":176875.11648400035,"y":2541369.2858169992}},{"attributes":{"ID":3443,"DIS_CODE":0,"TOWNNAME":"歸仁區","LI":"南保里","LIN":"2鄰","STREET":"民權二街","SECT":" ","MAREA":" ","LANE":" ","ALLEY":" ","HOUSE_NO":"２９之２０號","E_COORD97":176854.56212300001,"N_COORD97":2541357.8558200002,"ADDRESS":"民權二街２９之２０號","OBJECTID":3443},"geometry":{"x":176854.56212300062,"y":2541357.8558230028}},{"attributes":{"ID":3444,"DIS_CODE":0,"TOWNNAME":"歸仁區","LI":"南保里","LIN":"2鄰","STREET":"民權二街","SECT":" ","MAREA":" ","LANE":" ","ALLEY":" ","HOUSE_NO":"２９之２１號","E_COORD97":176849.26460699999,"N_COORD97":2541358.7024900001,"ADDRESS":"民權二街２９之２１號","OBJECTID":3444},"geometry":{"x":176849.26460700016,"y":2541358.7024889998}},{"attributes":{"ID":3445,"DIS_CODE":0,"TOWNNAME":"安南區","LI":"東和里","LIN":"7鄰","STREET":"長和路","SECT":"一段","MAREA":" ","LANE":"２２２巷","ALLEY":" ","HOUSE_NO":"３７０號","E_COORD97":172638.26623099999,"N_COORD97":2551606.5186600001,"ADDRESS":"長和路一段２２２巷３７０號","OBJECTID":3445},"geometry":{"x":172638.26623100229,"y":2551606.5186620038}},{"attributes":{"ID":3446,"DIS_CODE":0,"TOWNNAME":"關廟區","LI":"埤頭里","LIN":"11鄰","STREET":"保東二街","SECT":" ","MAREA":" ","LANE":" ","ALLEY":" ","HOUSE_NO":"２９６號","E_COORD97":178724.32788900001,"N_COORD97":2544812.912,"ADDRESS":"保東二街２９６號","OBJECTID":3446},"geometry":{"x":178724.327889001,"y":2544812.9120049998}},{"attributes":{"ID":3447,"DIS_CODE":0,"TOWNNAME":"將軍區","LI":"北埔里","LIN":"6鄰","STREET":" ","SECT":" ","MAREA":"北埔","LANE":" ","ALLEY":" ","HOUSE_NO":"５３之２５號","E_COORD97":163215.22143800001,"N_COORD97":2570065.8209000002,"ADDRESS":"北埔５３之２５號","OBJECTID":3447},"geometry":{"x":163215.22143800091,"y":2570065.8208980002}},{"attributes":{"ID":3448,"DIS_CODE":0,"TOWNNAME":"安南區","LI":"東和里","LIN":"7鄰","STREET":"長和路","SECT":"一段","MAREA":" ","LANE":"２２２巷","ALLEY":" ","HOUSE_NO":"３６９號","E_COORD97":172633.39470599999,"N_COORD97":2551594.2420000001,"ADDRESS":"長和路一段２２２巷３６９號","OBJECTID":3448},"geometry":{"x":172633.39470600151,"y":2551594.2420010008}},{"attributes":{"ID":3449,"DIS_CODE":0,"TOWNNAME":"安南區","LI":"佃東里","LIN":"13鄰","STREET":"公學路","SECT":"四段","MAREA":" ","LANE":"１２２巷","ALLEY":"４８弄","HOUSE_NO":"２６號","E_COORD97":165654.46358400001,"N_COORD97":2552177.9157699998,"ADDRESS":"公學路四段１２２巷４８弄２６號","OBJECTID":3449},"geometry":{"x":165654.46358400118,"y":2552177.9157700017}},{"attributes":{"ID":3450,"DIS_CODE":0,"TOWNNAME":"歸仁區","LI":"南保里","LIN":"33鄰","STREET":"中山路","SECT":"三段","MAREA":" ","LANE":" ","ALLEY":" ","HOUSE_NO":"７２號","E_COORD97":176806.49823200001,"N_COORD97":2540892.7152200001,"ADDRESS":"中山路三段７２號","OBJECTID":3450},"geometry":{"x":176806.49823200051,"y":2540892.7152250018}},{"attributes":{"ID":3451,"DIS_CODE":0,"TOWNNAME":"中西區","LI":"水仙里","LIN":"18鄰","STREET":"海安路","SECT":"二段","MAREA":" ","LANE":"２７０巷","ALLEY":" ","HOUSE_NO":"１８號二樓之１","E_COORD97":167785.73000000001,"N_COORD97":2544258.9300000002,"ADDRESS":"海安路二段２７０巷１８號二樓之１","OBJECTID":3451},"geometry":{"x":167785.73000000138,"y":2544258.9300000016}},{"attributes":{"ID":3452,"DIS_CODE":0,"TOWNNAME":"關廟區","LI":"埤頭里","LIN":"11鄰","STREET":"保東二街","SECT":" ","MAREA":" ","LANE":" ","ALLEY":" ","HOUSE_NO":"３８８號","E_COORD97":178675.38651499999,"N_COORD97":2544925.09528,"ADDRESS":"保東二街３８８號","OBJECTID":3452},"geometry":{"x":178675.3865149999,"y":2544925.0952780023}},{"attributes":{"ID":3453,"DIS_CODE":0,"TOWNNAME":"關廟區","LI":"埤頭里","LIN":"11鄰","STREET":"保東二街","SECT":" ","MAREA":" ","LANE":"２９１巷","ALLEY":" ","HOUSE_NO":"６１號","E_COORD97":178411.18784299999,"N_COORD97":2544789.7345199999,"ADDRESS":"保東二街２９１巷６１號","OBJECTID":3453},"geometry":{"x":178411.18784300052,"y":2544789.7345180027}},{"attributes":{"ID":3454,"DIS_CODE":0,"TOWNNAME":"中西區","LI":"水仙里","LIN":"18鄰","STREET":"海安路","SECT":"二段","MAREA":" ","LANE":"２７０巷","ALLEY":" ","HOUSE_NO":"１８號三樓之３","E_COORD97":167785.73000000001,"N_COORD97":2544258.9300000002,"ADDRESS":"海安路二段２７０巷１８號三樓之３","OBJECTID":3454},"geometry":{"x":167785.73000000138,"y":2544258.9300000016}},{"attributes":{"ID":3455,"DIS_CODE":0,"TOWNNAME":"安南區","LI":"佃東里","LIN":"1鄰","STREET":"海佃路","SECT":"四段","MAREA":" ","LANE":"３８８巷","ALLEY":"６弄","HOUSE_NO":"１００號之３０","E_COORD97":165983.48587999999,"N_COORD97":2551625.6508900002,"ADDRESS":"海佃路四段３８８巷６弄１００號之３０","OBJECTID":3455},"geometry":{"x":165983.48588000052,"y":2551625.650890002}},{"attributes":{"ID":3456,"DIS_CODE":0,"TOWNNAME":"安南區","LI":"安和里","LIN":"1鄰","STREET":"府安路","SECT":"三段","MAREA":" ","LANE":" ","ALLEY":" ","HOUSE_NO":"３４６號","E_COORD97":169724.879449,"N_COORD97":2547500.0326200002,"ADDRESS":"府安路三段３４６號","OBJECTID":3456},"geometry":{"x":169724.87944900058,"y":2547500.0326230004}},{"attributes":{"ID":3457,"DIS_CODE":0,"TOWNNAME":"安南區","LI":"安和里","LIN":"1鄰","STREET":"府安路","SECT":"三段","MAREA":" ","LANE":" ","ALLEY":" ","HOUSE_NO":"３４３號","E_COORD97":169731.87024700001,"N_COORD97":2547508.2876200001,"ADDRESS":"府安路三段３４３號","OBJECTID":3457},"geometry":{"x":169731.8702469999,"y":2547508.2876190022}},{"attributes":{"ID":3458,"DIS_CODE":0,"TOWNNAME":"安南區","LI":"佃東里","LIN":"14鄰","STREET":"公學路","SECT":"四段","MAREA":" ","LANE":"２巷","ALLEY":" ","HOUSE_NO":"３００號之１","E_COORD97":166126.62826999999,"N_COORD97":2552537.9605700001,"ADDRESS":"公學路四段２巷３００號之１","OBJECTID":3458},"geometry":{"x":166126.62827000022,"y":2552537.9605700038}},{"attributes":{"ID":3459,"DIS_CODE":0,"TOWNNAME":"安南區","LI":"安和里","LIN":"1鄰","STREET":"府安路","SECT":"三段","MAREA":" ","LANE":" ","ALLEY":" ","HOUSE_NO":"３４７號","E_COORD97":169721.27812900001,"N_COORD97":2547496.6459599999,"ADDRESS":"府安路三段３４７號","OBJECTID":3459},"geometry":{"x":169721.27812900022,"y":2547496.6459579989}},{"attributes":{"ID":3460,"DIS_CODE":0,"TOWNNAME":"將軍區","LI":"北埔里","LIN":"6鄰","STREET":" ","SECT":" ","MAREA":"北埔","LANE":" ","ALLEY":" ","HOUSE_NO":"５６號","E_COORD97":163131.12860900001,"N_COORD97":2569349.9646200002,"ADDRESS":"北埔５６號","OBJECTID":3460},"geometry":{"x":163131.12860899977,"y":2569349.964618003}},{"attributes":{"ID":3461,"DIS_CODE":0,"TOWNNAME":"安平區","LI":"平通里","LIN":"21鄰","STREET":"育平七街","SECT":" ","MAREA":" ","LANE":"６０巷","ALLEY":" ","HOUSE_NO":"１１０號","E_COORD97":164457.52542600001,"N_COORD97":2544162.2922399999,"ADDRESS":"育平七街６０巷１１０號","OBJECTID":3461},"geometry":{"x":164457.52542600036,"y":2544162.2922419999}},{"attributes":{"ID":3462,"DIS_CODE":0,"TOWNNAME":"安平區","LI":"億載里","LIN":"5鄰","STREET":"光州七街","SECT":" ","MAREA":" ","LANE":" ","ALLEY":" ","HOUSE_NO":"１１１號","E_COORD97":163978.736676,"N_COORD97":2543718.0448500002,"ADDRESS":"光州七街１１１號","OBJECTID":3462},"geometry":{"x":163978.73667600006,"y":2543718.0448540002}},{"attributes":{"ID":3463,"DIS_CODE":0,"TOWNNAME":"關廟區","LI":"埤頭里","LIN":"11鄰","STREET":"保東二街","SECT":" ","MAREA":" ","LANE":"２９１巷","ALLEY":" ","HOUSE_NO":"５７號","E_COORD97":178402.71314599999,"N_COORD97":2544777.2461899999,"ADDRESS":"保東二街２９１巷５７號","OBJECTID":3463},"geometry":{"x":178402.7131460011,"y":2544777.2461910006}},{"attributes":{"ID":3464,"DIS_CODE":0,"TOWNNAME":"安平區","LI":"石門里","LIN":"8鄰","STREET":"安北路","SECT":" ","MAREA":" ","LANE":" ","ALLEY":" ","HOUSE_NO":"１２０號","E_COORD97":164333.225362,"N_COORD97":2544799.5388199999,"ADDRESS":"安北路１２０號","OBJECTID":3464},"geometry":{"x":164333.22536200006,"y":2544799.5388210025}},{"attributes":{"ID":3465,"DIS_CODE":0,"TOWNNAME":"安南區","LI":"淵東里","LIN":"4鄰","STREET":"智安二街","SECT":" ","MAREA":" ","LANE":"５０巷","ALLEY":" ","HOUSE_NO":"３１號","E_COORD97":165793.04774800001,"N_COORD97":2550264.1043799999,"ADDRESS":"智安二街５０巷３１號","OBJECTID":3465},"geometry":{"x":165793.04774800036,"y":2550264.1043820027}},{"attributes":{"ID":3466,"DIS_CODE":0,"TOWNNAME":"安平區","LI":"億載里","LIN":"3鄰","STREET":"光州路","SECT":" ","MAREA":" ","LANE":" ","ALLEY":" ","HOUSE_NO":"１２７號","E_COORD97":163812.063257,"N_COORD97":2543735.0433100001,"ADDRESS":"光州路１２７號","OBJECTID":3466},"geometry":{"x":163812.06325700041,"y":2543735.0433060005}},{"attributes":{"ID":3467,"DIS_CODE":0,"TOWNNAME":"安南區","LI":"佃東里","LIN":"5鄰","STREET":"公學路","SECT":"四段","MAREA":" ","LANE":"１２６巷","ALLEY":" ","HOUSE_NO":"２０號之２","E_COORD97":165536.74001099999,"N_COORD97":2552063.40417,"ADDRESS":"公學路四段１２６巷２０號之２","OBJECTID":3467},"geometry":{"x":165536.74001100101,"y":2552063.4041660018}},{"attributes":{"ID":3468,"DIS_CODE":0,"TOWNNAME":"大內區","LI":"頭社里","LIN":"1鄰","STREET":" ","SECT":" ","MAREA":"頭社","LANE":" ","ALLEY":" ","HOUSE_NO":"１０之７號","E_COORD97":186687.50112999999,"N_COORD97":2560068.1629499998,"ADDRESS":"頭社１０之７號","OBJECTID":3468},"geometry":{"x":186687.50112999976,"y":2560068.1629520003}},{"attributes":{"ID":3469,"DIS_CODE":0,"TOWNNAME":"大內區","LI":"頭社里","LIN":"9鄰","STREET":" ","SECT":" ","MAREA":"頭社","LANE":" ","ALLEY":" ","HOUSE_NO":"１１２號","E_COORD97":186078.02839699999,"N_COORD97":2561618.6406299998,"ADDRESS":"頭社１１２號","OBJECTID":3469},"geometry":{"x":186078.02839700039,"y":2561618.6406310014}},{"attributes":{"ID":3470,"DIS_CODE":0,"TOWNNAME":"安南區","LI":"理想里","LIN":"13鄰","STREET":"海佃路","SECT":"二段","MAREA":" ","LANE":"１０２巷","ALLEY":" ","HOUSE_NO":"２５號","E_COORD97":167093.58057699999,"N_COORD97":2548027.3685699999,"ADDRESS":"海佃路二段１０２巷２５號","OBJECTID":3470},"geometry":{"x":167093.58057700004,"y":2548027.3685660008}},{"attributes":{"ID":3471,"DIS_CODE":0,"TOWNNAME":"新市區","LI":"潭頂里","LIN":"1鄰","STREET":" ","SECT":" ","MAREA":"潭頂","LANE":" ","ALLEY":" ","HOUSE_NO":"８之５號","E_COORD97":181678.125145,"N_COORD97":2552224.0207500001,"ADDRESS":"潭頂８之５號","OBJECTID":3471},"geometry":{"x":181678.12514500041,"y":2552224.0207500029}},{"attributes":{"ID":3472,"DIS_CODE":0,"TOWNNAME":"安平區","LI":"建平里","LIN":"9鄰","STREET":"建平十五街","SECT":" ","MAREA":" ","LANE":" ","ALLEY":" ","HOUSE_NO":"１５５號","E_COORD97":166174.579493,"N_COORD97":2544103.71759,"ADDRESS":"建平十五街１５５號","OBJECTID":3472},"geometry":{"x":166174.5794930011,"y":2544103.7175940033}},{"attributes":{"ID":3473,"DIS_CODE":0,"TOWNNAME":"東山區","LI":"青山里","LIN":"8鄰","STREET":" ","SECT":" ","MAREA":"青山","LANE":" ","ALLEY":" ","HOUSE_NO":"６９之１８３號","E_COORD97":197640.74435600001,"N_COORD97":2575119.2430400001,"ADDRESS":"青山６９之１８３號","OBJECTID":3473},"geometry":{"x":197640.7443560008,"y":2575119.2430409994}},{"attributes":{"ID":3474,"DIS_CODE":0,"TOWNNAME":"安平區","LI":"建平里","LIN":"9鄰","STREET":"建平十五街","SECT":" ","MAREA":" ","LANE":" ","ALLEY":" ","HOUSE_NO":"１５７號","E_COORD97":166171.18897300001,"N_COORD97":2544104.3525899998,"ADDRESS":"建平十五街１５７號","OBJECTID":3474},"geometry":{"x":166171.18897300214,"y":2544104.3525940031}},{"attributes":{"ID":3475,"DIS_CODE":0,"TOWNNAME":"東山區","LI":"青山里","LIN":"8鄰","STREET":" ","SECT":" ","MAREA":"青山","LANE":" ","ALLEY":" ","HOUSE_NO":"６９之９０號","E_COORD97":197644.98044799999,"N_COORD97":2575109.7180499998,"ADDRESS":"青山６９之９０號","OBJECTID":3475},"geometry":{"x":197644.98044800106,"y":2575109.7180460002}},{"attributes":{"ID":3476,"DIS_CODE":0,"TOWNNAME":"安南區","LI":"佃東里","LIN":"8鄰","STREET":"公學路","SECT":"四段","MAREA":" ","LANE":"１２２巷","ALLEY":"２３弄","HOUSE_NO":"８０號之１","E_COORD97":165377.72849400001,"N_COORD97":2552095.7891500001,"ADDRESS":"公學路四段１２２巷２３弄８０號之１","OBJECTID":3476},"geometry":{"x":165377.72849400155,"y":2552095.789148001}},{"attributes":{"ID":3477,"DIS_CODE":0,"TOWNNAME":"新市區","LI":"潭頂里","LIN":"1鄰","STREET":" ","SECT":" ","MAREA":"潭頂","LANE":" ","ALLEY":" ","HOUSE_NO":"１１之１１號","E_COORD97":181762.14369900001,"N_COORD97":2552376.0787499999,"ADDRESS":"潭頂１１之１１號","OBJECTID":3477},"geometry":{"x":181762.14369899966,"y":2552376.0787450001}},{"attributes":{"ID":3478,"DIS_CODE":0,"TOWNNAME":"安南區","LI":"淵東里","LIN":"14鄰","STREET":"智安二街","SECT":" ","MAREA":" ","LANE":"５３巷","ALLEY":" ","HOUSE_NO":"１０號","E_COORD97":165691.00630199999,"N_COORD97":2550225.72474,"ADDRESS":"智安二街５３巷１０號","OBJECTID":3478},"geometry":{"x":165691.00630200095,"y":2550225.724735003}},{"attributes":{"ID":3479,"DIS_CODE":0,"TOWNNAME":"安平區","LI":"建平里","LIN":"9鄰","STREET":"永華三街","SECT":" ","MAREA":" ","LANE":" ","ALLEY":" ","HOUSE_NO":"２８６號","E_COORD97":166166.747065,"N_COORD97":2544104.8084900002,"ADDRESS":"永華三街２８６號","OBJECTID":3479},"geometry":{"x":166166.74706500024,"y":2544104.808490999}},{"attributes":{"ID":3480,"DIS_CODE":0,"TOWNNAME":"東山區","LI":"青山里","LIN":"8鄰","STREET":" ","SECT":" ","MAREA":"青山","LANE":" ","ALLEY":" ","HOUSE_NO":"６９之１８６號","E_COORD97":197628.883298,"N_COORD97":2575135.3297000001,"ADDRESS":"青山６９之１８６號","OBJECTID":3480},"geometry":{"x":197628.88329800218,"y":2575135.3296990022}},{"attributes":{"ID":3481,"DIS_CODE":0,"TOWNNAME":"將軍區","LI":"北埔里","LIN":"7鄰","STREET":" ","SECT":" ","MAREA":"北埔","LANE":" ","ALLEY":" ","HOUSE_NO":"５９號","E_COORD97":163151.14566800001,"N_COORD97":2569273.1296600001,"ADDRESS":"北埔５９號","OBJECTID":3481},"geometry":{"x":163151.14566800091,"y":2569273.1296590026}},{"attributes":{"ID":3482,"DIS_CODE":0,"TOWNNAME":"安平區","LI":"華平里","LIN":"9鄰","STREET":"怡平路","SECT":" ","MAREA":" ","LANE":"４１０巷","ALLEY":" ","HOUSE_NO":"２５號","E_COORD97":165393.455758,"N_COORD97":2543890.4879700001,"ADDRESS":"怡平路４１０巷２５號","OBJECTID":3482},"geometry":{"x":165393.45575799979,"y":2543890.4879659992}},{"attributes":{"ID":3483,"DIS_CODE":0,"TOWNNAME":"大內區","LI":"石湖里","LIN":"17鄰","STREET":" ","SECT":" ","MAREA":"新厝子","LANE":" ","ALLEY":" ","HOUSE_NO":"４６號之２","E_COORD97":183609.39000000001,"N_COORD97":2560530.2999999998,"ADDRESS":"新厝子４６號之２","OBJECTID":3483},"geometry":{"x":183609.39000000153,"y":2560530.3000000007}},{"attributes":{"ID":3484,"DIS_CODE":0,"TOWNNAME":"東山區","LI":"青山里","LIN":"8鄰","STREET":" ","SECT":" ","MAREA":"青山","LANE":" ","ALLEY":" ","HOUSE_NO":"６９之１００號","E_COORD97":197623.58818200001,"N_COORD97":2575142.3147,"ADDRESS":"青山６９之１００號","OBJECTID":3484},"geometry":{"x":197623.58818200044,"y":2575142.3146950006}},{"attributes":{"ID":3485,"DIS_CODE":0,"TOWNNAME":"玉井區","LI":"豐里里","LIN":"1鄰","STREET":" ","SECT":" ","MAREA":"豐里","LANE":" ","ALLEY":" ","HOUSE_NO":"２之５號","E_COORD97":193129.090241,"N_COORD97":2557835.7239000001,"ADDRESS":"豐里２之５號","OBJECTID":3485},"geometry":{"x":193129.09024100099,"y":2557835.7239040006}},{"attributes":{"ID":3486,"DIS_CODE":0,"TOWNNAME":"中西區","LI":"水仙里","LIN":"18鄰","STREET":"海安路","SECT":"二段","MAREA":" ","LANE":"２７０巷","ALLEY":" ","HOUSE_NO":"１６號","E_COORD97":167782.220325,"N_COORD97":2544266.4437899999,"ADDRESS":"海安路二段２７０巷１６號","OBJECTID":3486},"geometry":{"x":167782.22032499965,"y":2544266.4437940009}},{"attributes":{"ID":3487,"DIS_CODE":0,"TOWNNAME":"將軍區","LI":"北埔里","LIN":"7鄰","STREET":" ","SECT":" ","MAREA":"北埔","LANE":" ","ALLEY":" ","HOUSE_NO":"５８號","E_COORD97":163146.06197099999,"N_COORD97":2569288.1579800001,"ADDRESS":"北埔５８號","OBJECTID":3487},"geometry":{"x":163146.0619710004,"y":2569288.1579839997}},{"attributes":{"ID":3488,"DIS_CODE":0,"TOWNNAME":"安平區","LI":"億載里","LIN":"17鄰","STREET":"平豐路","SECT":" ","MAREA":" ","LANE":"４３巷","ALLEY":" ","HOUSE_NO":"３９號","E_COORD97":164244.45241,"N_COORD97":2542987.53474,"ADDRESS":"平豐路４３巷３９號","OBJECTID":3488},"geometry":{"x":164244.45241000038,"y":2542987.5347349998}},{"attributes":{"ID":3489,"DIS_CODE":0,"TOWNNAME":"安南區","LI":"佃東里","LIN":"14鄰","STREET":"公學路","SECT":"三段","MAREA":" ","LANE":" ","ALLEY":" ","HOUSE_NO":"３５２之５號","E_COORD97":166227.413202,"N_COORD97":2552134.9474599999,"ADDRESS":"公學路三段３５２之５號","OBJECTID":3489},"geometry":{"x":166227.41320199985,"y":2552134.9474600013}},{"attributes":{"ID":3490,"DIS_CODE":0,"TOWNNAME":"安平區","LI":"億載里","LIN":"17鄰","STREET":"平豐路","SECT":" ","MAREA":" ","LANE":"４３巷","ALLEY":" ","HOUSE_NO":"３５號","E_COORD97":164255.68350899999,"N_COORD97":2542988.5930699999,"ADDRESS":"平豐路４３巷３５號","OBJECTID":3490},"geometry":{"x":164255.68350899965,"y":2542988.5930680037}},{"attributes":{"ID":3491,"DIS_CODE":0,"TOWNNAME":"安平區","LI":"億載里","LIN":"17鄰","STREET":"平豐路","SECT":" ","MAREA":" ","LANE":"４３巷","ALLEY":" ","HOUSE_NO":"３１號","E_COORD97":164267.79000000001,"N_COORD97":2542989.9300000002,"ADDRESS":"平豐路４３巷３１號","OBJECTID":3491},"geometry":{"x":164267.79000000004,"y":2542989.9299999997}},{"attributes":{"ID":3492,"DIS_CODE":0,"TOWNNAME":"玉井區","LI":"豐里里","LIN":"4鄰","STREET":" ","SECT":" ","MAREA":"豐里","LANE":" ","ALLEY":" ","HOUSE_NO":"４０號","E_COORD97":193181.20214800001,"N_COORD97":2558156.6104000001,"ADDRESS":"豐里４０號","OBJECTID":3492},"geometry":{"x":193181.20214800164,"y":2558156.6103980001}},{"attributes":{"ID":3493,"DIS_CODE":0,"TOWNNAME":"安平區","LI":"億載里","LIN":"5鄰","STREET":"永華十一街","SECT":" ","MAREA":" ","LANE":"１１３巷","ALLEY":" ","HOUSE_NO":"４０號","E_COORD97":163959.237108,"N_COORD97":2543690.45493,"ADDRESS":"永華十一街１１３巷４０號","OBJECTID":3493},"geometry":{"x":163959.23710800055,"y":2543690.4549330007}},{"attributes":{"ID":3494,"DIS_CODE":0,"TOWNNAME":"中西區","LI":"水仙里","LIN":"18鄰","STREET":"海安路","SECT":"二段","MAREA":" ","LANE":"２７０巷","ALLEY":" ","HOUSE_NO":"２６號","E_COORD97":167800.229055,"N_COORD97":2544260.3054599999,"ADDRESS":"海安路二段２７０巷２６號","OBJECTID":3494},"geometry":{"x":167800.22905500047,"y":2544260.3054639995}},{"attributes":{"ID":3495,"DIS_CODE":0,"TOWNNAME":"中西區","LI":"水仙里","LIN":"18鄰","STREET":"海安路","SECT":"二段","MAREA":" ","LANE":"２７０巷","ALLEY":" ","HOUSE_NO":"２８號","E_COORD97":167805.94947600001,"N_COORD97":2544257.97713,"ADDRESS":"海安路二段２７０巷２８號","OBJECTID":3495},"geometry":{"x":167805.94947599992,"y":2544257.977132}},{"attributes":{"ID":3496,"DIS_CODE":0,"TOWNNAME":"安南區","LI":"佃東里","LIN":"14鄰","STREET":"公學路","SECT":"三段","MAREA":" ","LANE":"３６０巷","ALLEY":" ","HOUSE_NO":"５８號","E_COORD97":166290.93311499999,"N_COORD97":2552194.6374300001,"ADDRESS":"公學路三段３６０巷５８號","OBJECTID":3496},"geometry":{"x":166290.93311500177,"y":2552194.6374280006}},{"attributes":{"ID":3497,"DIS_CODE":0,"TOWNNAME":"東山區","LI":"青山里","LIN":"8鄰","STREET":" ","SECT":" ","MAREA":"青山","LANE":" ","ALLEY":" ","HOUSE_NO":"６９之１３３號","E_COORD97":197592.876513,"N_COORD97":2575215.5513200001,"ADDRESS":"青山６９之１３３號","OBJECTID":3497},"geometry":{"x":197592.87651300058,"y":2575215.5513220001}},{"attributes":{"ID":3498,"DIS_CODE":0,"TOWNNAME":"東山區","LI":"青山里","LIN":"8鄰","STREET":" ","SECT":" ","MAREA":"青山","LANE":" ","ALLEY":" ","HOUSE_NO":"６９之１３１號","E_COORD97":197575.508535,"N_COORD97":2575230.3679800001,"ADDRESS":"青山６９之１３１號","OBJECTID":3498},"geometry":{"x":197575.5085350005,"y":2575230.3679810017}},{"attributes":{"ID":3499,"DIS_CODE":0,"TOWNNAME":"下營區","LI":"後街里","LIN":"19鄰","STREET":"大和街","SECT":" ","MAREA":" ","LANE":"１８巷","ALLEY":"２１弄","HOUSE_NO":"５號","E_COORD97":174658.568769,"N_COORD97":2571425.33714,"ADDRESS":"大和街１８巷２１弄５號","OBJECTID":3499},"geometry":{"x":174658.5687690014,"y":2571425.3371409979}},{"attributes":{"ID":3500,"DIS_CODE":0,"TOWNNAME":"關廟區","LI":"埤頭里","LIN":"12鄰","STREET":"保東路","SECT":" ","MAREA":" ","LANE":"２８８巷","ALLEY":" ","HOUSE_NO":"６８號","E_COORD97":178455.78593499999,"N_COORD97":2544126.4773800001,"ADDRESS":"保東路２８８巷６８號","OBJECTID":3500},"geometry":{"x":178455.78593500052,"y":2544126.477376001}},{"attributes":{"ID":3501,"DIS_CODE":0,"TOWNNAME":"東山區","LI":"青山里","LIN":"8鄰","STREET":" ","SECT":" ","MAREA":"青山","LANE":" ","ALLEY":" ","HOUSE_NO":"６９之１２９號","E_COORD97":197555.387097,"N_COORD97":2575240.5279799998,"ADDRESS":"青山６９之１２９號","OBJECTID":3501},"geometry":{"x":197555.38709700014,"y":2575240.5279750004}},{"attributes":{"ID":3502,"DIS_CODE":0,"TOWNNAME":"安南區","LI":"安和里","LIN":"3鄰","STREET":"府安路","SECT":"三段","MAREA":" ","LANE":" ","ALLEY":" ","HOUSE_NO":"２５１號","E_COORD97":169920.409958,"N_COORD97":2547937.9707200001,"ADDRESS":"府安路三段２５１號","OBJECTID":3502},"geometry":{"x":169920.40995800029,"y":2547937.9707200006}},{"attributes":{"ID":3503,"DIS_CODE":0,"TOWNNAME":"玉井區","LI":"豐里里","LIN":"8鄰","STREET":" ","SECT":" ","MAREA":"豐里","LANE":" ","ALLEY":" ","HOUSE_NO":"７４之２６號","E_COORD97":192952.92506000001,"N_COORD97":2558948.6288399999,"ADDRESS":"豐里７４之２６號","OBJECTID":3503},"geometry":{"x":192952.92506000027,"y":2558948.6288390011}},{"attributes":{"ID":3504,"DIS_CODE":0,"TOWNNAME":"下營區","LI":"紅厝里","LIN":"7鄰","STREET":" ","SECT":" ","MAREA":"紅毛厝","LANE":" ","ALLEY":" ","HOUSE_NO":"４８號","E_COORD97":174927.81094699999,"N_COORD97":2571702.1969900001,"ADDRESS":"紅毛厝４８號","OBJECTID":3504},"geometry":{"x":174927.81094700005,"y":2571702.1969910003}},{"attributes":{"ID":3505,"DIS_CODE":0,"TOWNNAME":"歸仁區","LI":"六甲里","LIN":"17鄰","STREET":"凱旋路","SECT":"三段","MAREA":" ","LANE":" ","ALLEY":" ","HOUSE_NO":"３３６號","E_COORD97":175692.85112000001,"N_COORD97":2539018.1781500001,"ADDRESS":"凱旋路三段３３６號","OBJECTID":3505},"geometry":{"x":175692.85111999977,"y":2539018.1781500001}},{"attributes":{"ID":3506,"DIS_CODE":0,"TOWNNAME":"安南區","LI":"安和里","LIN":"3鄰","STREET":"府安路","SECT":"三段","MAREA":" ","LANE":" ","ALLEY":" ","HOUSE_NO":"２５３號","E_COORD97":169924.43496300001,"N_COORD97":2547930.13906,"ADDRESS":"府安路三段２５３號","OBJECTID":3506},"geometry":{"x":169924.43496300094,"y":2547930.1390579995}},{"attributes":{"ID":3507,"DIS_CODE":0,"TOWNNAME":"東山區","LI":"青山里","LIN":"8鄰","STREET":" ","SECT":" ","MAREA":"青山","LANE":" ","ALLEY":" ","HOUSE_NO":"６９之１２８號","E_COORD97":197541.61979699999,"N_COORD97":2575242.0096399998,"ADDRESS":"青山６９之１２８號","OBJECTID":3507},"geometry":{"x":197541.61979700066,"y":2575242.0096410029}},{"attributes":{"ID":3508,"DIS_CODE":0,"TOWNNAME":"安南區","LI":"安和里","LIN":"3鄰","STREET":"府安路","SECT":"三段","MAREA":" ","LANE":" ","ALLEY":" ","HOUSE_NO":"２５５號","E_COORD97":169926.12970200001,"N_COORD97":2547926.54073,"ADDRESS":"府安路三段２５５號","OBJECTID":3508},"geometry":{"x":169926.12970199995,"y":2547926.5407260023}},{"attributes":{"ID":3509,"DIS_CODE":0,"TOWNNAME":"玉井區","LI":"豐里里","LIN":"8鄰","STREET":" ","SECT":" ","MAREA":"豐里","LANE":" ","ALLEY":" ","HOUSE_NO":"７４之１９號","E_COORD97":192908.439285,"N_COORD97":2558972.7588300002,"ADDRESS":"豐里７４之１９號","OBJECTID":3509},"geometry":{"x":192908.43928500172,"y":2558972.7588260006}},{"attributes":{"ID":3510,"DIS_CODE":0,"TOWNNAME":"安南區","LI":"安和里","LIN":"3鄰","STREET":"府安路","SECT":"三段","MAREA":" ","LANE":" ","ALLEY":" ","HOUSE_NO":"２５６號","E_COORD97":169927.40075599999,"N_COORD97":2547923.3657300002,"ADDRESS":"府安路三段２５６號","OBJECTID":3510},"geometry":{"x":169927.40075599961,"y":2547923.365728002}},{"attributes":{"ID":3511,"DIS_CODE":0,"TOWNNAME":"關廟區","LI":"埤頭里","LIN":"12鄰","STREET":"保東路","SECT":" ","MAREA":" ","LANE":"３５６巷","ALLEY":" ","HOUSE_NO":"１００號","E_COORD97":178335.42000000001,"N_COORD97":2544251.2999999998,"ADDRESS":"保東路３５６巷１００號","OBJECTID":3511},"geometry":{"x":178335.41999999993,"y":2544251.3000000026}},{"attributes":{"ID":3512,"DIS_CODE":0,"TOWNNAME":"安南區","LI":"安和里","LIN":"3鄰","STREET":"府安路","SECT":"三段","MAREA":" ","LANE":" ","ALLEY":" ","HOUSE_NO":"２５７號","E_COORD97":169928.67181,"N_COORD97":2547919.5557300001,"ADDRESS":"府安路三段２５７號","OBJECTID":3512},"geometry":{"x":169928.6718100002,"y":2547919.5557300039}},{"attributes":{"ID":3513,"DIS_CODE":0,"TOWNNAME":"安南區","LI":"東和里","LIN":"7鄰","STREET":"環館北路","SECT":" ","MAREA":" ","LANE":"８４９巷","ALLEY":"７弄","HOUSE_NO":"３８號","E_COORD97":171237.032664,"N_COORD97":2551458.0112700001,"ADDRESS":"環館北路８４９巷７弄３８號","OBJECTID":3513},"geometry":{"x":171237.03266400006,"y":2551458.011268001}},{"attributes":{"ID":3514,"DIS_CODE":0,"TOWNNAME":"安南區","LI":"東和里","LIN":"7鄰","STREET":"環館北路","SECT":" ","MAREA":" ","LANE":"８４９巷","ALLEY":"７弄","HOUSE_NO":"３２號","E_COORD97":171225.53088400001,"N_COORD97":2551453.4816899998,"ADDRESS":"環館北路８４９巷７弄３２號","OBJECTID":3514},"geometry":{"x":171225.5308840014,"y":2551453.481687}},{"attributes":{"ID":3515,"DIS_CODE":0,"TOWNNAME":"大內區","LI":"石湖里","LIN":"17鄰","STREET":" ","SECT":" ","MAREA":"新厝子","LANE":" ","ALLEY":" ","HOUSE_NO":"４６之３號","E_COORD97":183656.37216999999,"N_COORD97":2560527.9440799998,"ADDRESS":"新厝子４６之３號","OBJECTID":3515},"geometry":{"x":183656.3721700022,"y":2560527.9440820012}},{"attributes":{"ID":3516,"DIS_CODE":0,"TOWNNAME":"大內區","LI":"頭社里","LIN":"6鄰","STREET":" ","SECT":" ","MAREA":"頭社","LANE":" ","ALLEY":" ","HOUSE_NO":"８３之１５號","E_COORD97":186971.06488799999,"N_COORD97":2560738.1998700001,"ADDRESS":"頭社８３之１５號","OBJECTID":3516},"geometry":{"x":186971.06488800049,"y":2560738.1998690013}},{"attributes":{"ID":3517,"DIS_CODE":0,"TOWNNAME":"大內區","LI":"環湖里","LIN":"9鄰","STREET":" ","SECT":" ","MAREA":"環湖","LANE":" ","ALLEY":" ","HOUSE_NO":"１３０之１號（農業資","E_COORD97":189188.03045600001,"N_COORD97":2561434.3241499998,"ADDRESS":"環湖１３０之１號（農業資材室）","OBJECTID":3517},"geometry":{"x":189188.03045600094,"y":2561434.3241530024}},{"attributes":{"ID":3518,"DIS_CODE":0,"TOWNNAME":"安南區","LI":"安和里","LIN":"3鄰","STREET":"府安路","SECT":"三段","MAREA":" ","LANE":" ","ALLEY":" ","HOUSE_NO":"２５８號","E_COORD97":169930.15470700001,"N_COORD97":2547915.53406,"ADDRESS":"府安路三段２５８號","OBJECTID":3518},"geometry":{"x":169930.15470700152,"y":2547915.5340650026}},{"attributes":{"ID":3519,"DIS_CODE":0,"TOWNNAME":"關廟區","LI":"埤頭里","LIN":"12鄰","STREET":"保東路","SECT":" ","MAREA":" ","LANE":"３５６巷","ALLEY":" ","HOUSE_NO":"８８號","E_COORD97":178341.37752800001,"N_COORD97":2544228.1831499999,"ADDRESS":"保東路３５６巷８８號","OBJECTID":3519},"geometry":{"x":178341.37752799969,"y":2544228.1831540018}},{"attributes":{"ID":3520,"DIS_CODE":0,"TOWNNAME":"東山區","LI":"青山里","LIN":"8鄰","STREET":" ","SECT":" ","MAREA":"青山","LANE":" ","ALLEY":" ","HOUSE_NO":"６９之１１８號","E_COORD97":197503.07135700001,"N_COORD97":2575275.2412899998,"ADDRESS":"青山６９之１１８號","OBJECTID":3520},"geometry":{"x":197503.07135700062,"y":2575275.2412900031}},{"attributes":{"ID":3521,"DIS_CODE":0,"TOWNNAME":"安南區","LI":"安和里","LIN":"3鄰","STREET":"府安路","SECT":"三段","MAREA":" ","LANE":" ","ALLEY":" ","HOUSE_NO":"２５９號","E_COORD97":169932.27313099999,"N_COORD97":2547911.5123999999,"ADDRESS":"府安路三段２５９號","OBJECTID":3521},"geometry":{"x":169932.27313100081,"y":2547911.5124010015}},{"attributes":{"ID":3522,"DIS_CODE":0,"TOWNNAME":"中西區","LI":"普濟里","LIN":"5鄰","STREET":"海安路","SECT":"二段","MAREA":" ","LANE":"３０２巷","ALLEY":" ","HOUSE_NO":"１０號","E_COORD97":167811.47,"N_COORD97":2544364.5099999998,"ADDRESS":"海安路二段３０２巷１０號","OBJECTID":3522},"geometry":{"x":167811.4700000016,"y":2544364.5100000016}},{"attributes":{"ID":3523,"DIS_CODE":0,"TOWNNAME":"安南區","LI":"安和里","LIN":"3鄰","STREET":"府安路","SECT":"三段","MAREA":" ","LANE":" ","ALLEY":" ","HOUSE_NO":"２６０號","E_COORD97":169934.17971200001,"N_COORD97":2547908.12574,"ADDRESS":"府安路三段２６０號","OBJECTID":3523},"geometry":{"x":169934.17971199937,"y":2547908.125736}},{"attributes":{"ID":3524,"DIS_CODE":0,"TOWNNAME":"歸仁區","LI":"六甲里","LIN":"11鄰","STREET":"中正南路","SECT":"一段","MAREA":" ","LANE":"１２６３巷","ALLEY":" ","HOUSE_NO":"６３號","E_COORD97":176479.76758000001,"N_COORD97":2537989.18934,"ADDRESS":"中正南路一段１２６３巷６３號","OBJECTID":3524},"geometry":{"x":176479.76757999975,"y":2537989.1893400028}},{"attributes":{"ID":3525,"DIS_CODE":0,"TOWNNAME":"安南區","LI":"安和里","LIN":"3鄰","STREET":"府安路","SECT":"三段","MAREA":" ","LANE":" ","ALLEY":" ","HOUSE_NO":"２６１號","E_COORD97":169935.02708100001,"N_COORD97":2547904.7390700001,"ADDRESS":"府安路三段２６１號","OBJECTID":3525},"geometry":{"x":169935.02708100062,"y":2547904.7390710004}},{"attributes":{"ID":3526,"DIS_CODE":0,"TOWNNAME":"中西區","LI":"普濟里","LIN":"5鄰","STREET":"海安路","SECT":"二段","MAREA":" ","LANE":"３０２巷","ALLEY":" ","HOUSE_NO":"１２號","E_COORD97":167812.35999999999,"N_COORD97":2544361.8900000001,"ADDRESS":"海安路二段３０２巷１２號","OBJECTID":3526},"geometry":{"x":167812.36000000034,"y":2544361.8900000025}},{"attributes":{"ID":3527,"DIS_CODE":0,"TOWNNAME":"安南區","LI":"安和里","LIN":"3鄰","STREET":"府安路","SECT":"三段","MAREA":" ","LANE":" ","ALLEY":" ","HOUSE_NO":"２６２號","E_COORD97":169936.086293,"N_COORD97":2547900.2940699998,"ADDRESS":"府安路三段２６２號","OBJECTID":3527},"geometry":{"x":169936.08629299887,"y":2547900.2940740008}},{"attributes":{"ID":3528,"DIS_CODE":0,"TOWNNAME":"安南區","LI":"安和里","LIN":"3鄰","STREET":"府安路","SECT":"三段","MAREA":" ","LANE":" ","ALLEY":" ","HOUSE_NO":"２６３號","E_COORD97":169937.56919000001,"N_COORD97":2547897.11907,"ADDRESS":"府安路三段２６３號","OBJECTID":3528},"geometry":{"x":169937.56919000018,"y":2547897.1190750021}},{"attributes":{"ID":3529,"DIS_CODE":0,"TOWNNAME":"安南區","LI":"安和里","LIN":"3鄰","STREET":"府安路","SECT":"三段","MAREA":" ","LANE":" ","ALLEY":" ","HOUSE_NO":"２６５號","E_COORD97":169938.84024399999,"N_COORD97":2547892.4624100002,"ADDRESS":"府安路三段２６５號","OBJECTID":3529},"geometry":{"x":169938.84024400078,"y":2547892.4624110013}},{"attributes":{"ID":3530,"DIS_CODE":0,"TOWNNAME":"安南區","LI":"淵東里","LIN":"14鄰","STREET":"智安二街","SECT":" ","MAREA":" ","LANE":"５３巷","ALLEY":" ","HOUSE_NO":"１２號","E_COORD97":165685.79528799999,"N_COORD97":2550222.67784,"ADDRESS":"智安二街５３巷１２號","OBJECTID":3530},"geometry":{"x":165685.79528800026,"y":2550222.6778380014}},{"attributes":{"ID":3531,"DIS_CODE":0,"TOWNNAME":"將軍區","LI":"北埔里","LIN":"7鄰","STREET":" ","SECT":" ","MAREA":"北埔","LANE":" ","ALLEY":" ","HOUSE_NO":"６０號","E_COORD97":163123.608974,"N_COORD97":2569291.3329799999,"ADDRESS":"北埔６０號","OBJECTID":3531},"geometry":{"x":163123.60897400137,"y":2569291.3329830021}},{"attributes":{"ID":3532,"DIS_CODE":0,"TOWNNAME":"安南區","LI":"安和里","LIN":"3鄰","STREET":"府安路","SECT":"三段","MAREA":" ","LANE":" ","ALLEY":" ","HOUSE_NO":"２６６號","E_COORD97":169940.74682500001,"N_COORD97":2547888.8640800002,"ADDRESS":"府安路三段２６６號","OBJECTID":3532},"geometry":{"x":169940.74682500027,"y":2547888.8640800025}},{"attributes":{"ID":3533,"DIS_CODE":0,"TOWNNAME":"安南區","LI":"安和里","LIN":"3鄰","STREET":"府安路","SECT":"三段","MAREA":" ","LANE":" ","ALLEY":" ","HOUSE_NO":"２６７號","E_COORD97":169940.95866800001,"N_COORD97":2547885.90075,"ADDRESS":"府安路三段２６７號","OBJECTID":3533},"geometry":{"x":169940.95866800006,"y":2547885.9007479995}},{"attributes":{"ID":3534,"DIS_CODE":0,"TOWNNAME":"東山區","LI":"青山里","LIN":"8鄰","STREET":" ","SECT":" ","MAREA":"青山","LANE":" ","ALLEY":" ","HOUSE_NO":"６９之１２５號","E_COORD97":197497.77624199999,"N_COORD97":2575255.5562999998,"ADDRESS":"青山６９之１２５號","OBJECTID":3534},"geometry":{"x":197497.77624200098,"y":2575255.5563000012}},{"attributes":{"ID":3535,"DIS_CODE":0,"TOWNNAME":"官田區","LI":"南\u25A0里","LIN":"7鄰","STREET":" ","SECT":" ","MAREA":" ","LANE":" ","ALLEY":" ","HOUSE_NO":"１０３號之７","E_COORD97":178000.41436600001,"N_COORD97":2568050.0032199998,"ADDRESS":"１０３號之７","OBJECTID":3535},"geometry":{"x":178000.41436600126,"y":2568050.0032160003}},{"attributes":{"ID":3536,"DIS_CODE":0,"TOWNNAME":"官田區","LI":"南\u25A0里","LIN":"7鄰","STREET":" ","SECT":" ","MAREA":" ","LANE":" ","ALLEY":" ","HOUSE_NO":"１０３號之１３","E_COORD97":178000.41436600001,"N_COORD97":2568050.0032199998,"ADDRESS":"１０３號之１３","OBJECTID":3536},"geometry":{"x":178000.41436600126,"y":2568050.0032160003}},{"attributes":{"ID":3537,"DIS_CODE":0,"TOWNNAME":"中西區","LI":"普濟里","LIN":"7鄰","STREET":"海安路","SECT":"二段","MAREA":" ","LANE":"２９６巷","ALLEY":" ","HOUSE_NO":"１５號","E_COORD97":167837.59,"N_COORD97":2544384.5499999998,"ADDRESS":"海安路二段２９６巷１５號","OBJECTID":3537},"geometry":{"x":167837.58999999985,"y":2544384.5500000026}},{"attributes":{"ID":3538,"DIS_CODE":0,"TOWNNAME":"東山區","LI":"青山里","LIN":"8鄰","STREET":" ","SECT":" ","MAREA":"青山","LANE":" ","ALLEY":" ","HOUSE_NO":"６９之１２３號","E_COORD97":197488.03323,"N_COORD97":2575257.0379699999,"ADDRESS":"青山６９之１２３號","OBJECTID":3538},"geometry":{"x":197488.03323000018,"y":2575257.0379660036}},{"attributes":{"ID":3539,"DIS_CODE":0,"TOWNNAME":"玉井區","LI":"玉田里","LIN":"23鄰","STREET":"民權路","SECT":" ","MAREA":" ","LANE":"３９巷","ALLEY":" ","HOUSE_NO":"５號","E_COORD97":194959.02165899999,"N_COORD97":2557868.91775,"ADDRESS":"民權路３９巷５號","OBJECTID":3539},"geometry":{"x":194959.02165899985,"y":2557868.917755004}},{"attributes":{"ID":3540,"DIS_CODE":0,"TOWNNAME":"關廟區","LI":"埤頭里","LIN":"5鄰","STREET":"保東路","SECT":" ","MAREA":" ","LANE":"３巷","ALLEY":" ","HOUSE_NO":"２號","E_COORD97":179039.268809,"N_COORD97":2544000.4299400002,"ADDRESS":"保東路３巷２號","OBJECTID":3540},"geometry":{"x":179039.26880900096,"y":2544000.4299440011}},{"attributes":{"ID":3541,"DIS_CODE":0,"TOWNNAME":"東山區","LI":"青山里","LIN":"8鄰","STREET":" ","SECT":" ","MAREA":"青山","LANE":" ","ALLEY":" ","HOUSE_NO":"６９之１５號","E_COORD97":197472.359688,"N_COORD97":2575242.2213099999,"ADDRESS":"青山６９之１５號","OBJECTID":3541},"geometry":{"x":197472.35968800075,"y":2575242.2213080041}},{"attributes":{"ID":3542,"DIS_CODE":0,"TOWNNAME":"中西區","LI":"普濟里","LIN":"6鄰","STREET":"海安路","SECT":"二段","MAREA":" ","LANE":"２９６巷","ALLEY":" ","HOUSE_NO":"２０號","E_COORD97":167820.64999999999,"N_COORD97":2544370.8799999999,"ADDRESS":"海安路二段２９６巷２０號","OBJECTID":3542},"geometry":{"x":167820.65000000037,"y":2544370.8800000008}},{"attributes":{"ID":3543,"DIS_CODE":0,"TOWNNAME":"安南區","LI":"安和里","LIN":"3鄰","STREET":"府安路","SECT":"三段","MAREA":" ","LANE":" ","ALLEY":" ","HOUSE_NO":"２６８號","E_COORD97":169943.07709100001,"N_COORD97":2547881.8790799999,"ADDRESS":"府安路三段２６８號","OBJECTID":3543},"geometry":{"x":169943.07709100004,"y":2547881.8790840041}},{"attributes":{"ID":3544,"DIS_CODE":0,"TOWNNAME":"仁德區","LI":"大甲里","LIN":"22鄰","STREET":"行大街","SECT":" ","MAREA":" ","LANE":" ","ALLEY":" ","HOUSE_NO":"３８４號","E_COORD97":169509.13931,"N_COORD97":2535238.0629699999,"ADDRESS":"行大街３８４號","OBJECTID":3544},"geometry":{"x":169509.1393100014,"y":2535238.0629690029}},{"attributes":{"ID":3545,"DIS_CODE":0,"TOWNNAME":"仁德區","LI":"大甲里","LIN":"22鄰","STREET":"行大街","SECT":" ","MAREA":" ","LANE":" ","ALLEY":" ","HOUSE_NO":"３８６號","E_COORD97":169501.03213100001,"N_COORD97":2535238.9625499998,"ADDRESS":"行大街３８６號","OBJECTID":3545},"geometry":{"x":169501.03213100135,"y":2535238.9625510033}},{"attributes":{"ID":3546,"DIS_CODE":0,"TOWNNAME":"仁德區","LI":"大甲里","LIN":"22鄰","STREET":"行大街","SECT":" ","MAREA":" ","LANE":" ","ALLEY":" ","HOUSE_NO":"３９０之２號","E_COORD97":169498.70065399999,"N_COORD97":2535241.3967200001,"ADDRESS":"行大街３９０之２號","OBJECTID":3546},"geometry":{"x":169498.70065400004,"y":2535241.3967170008}},{"attributes":{"ID":3547,"DIS_CODE":0,"TOWNNAME":"下營區","LI":"大埤里","LIN":"8鄰","STREET":" ","SECT":" ","MAREA":"大埤寮","LANE":" ","ALLEY":" ","HOUSE_NO":"６８之１號","E_COORD97":172970.95900900001,"N_COORD97":2569711.3681800002,"ADDRESS":"大埤寮６８之１號","OBJECTID":3547},"geometry":{"x":172970.9590090001,"y":2569711.368180003}},{"attributes":{"ID":3548,"DIS_CODE":0,"TOWNNAME":"安南區","LI":"東和里","LIN":"7鄰","STREET":"環館北路","SECT":" ","MAREA":" ","LANE":"８４９巷","ALLEY":"７弄","HOUSE_NO":"１８號","E_COORD97":171196.56282299999,"N_COORD97":2551437.9712800002,"ADDRESS":"環館北路８４９巷７弄１８號","OBJECTID":3548},"geometry":{"x":171196.56282300223,"y":2551437.971276002}},{"attributes":{"ID":3549,"DIS_CODE":0,"TOWNNAME":"安南區","LI":"東和里","LIN":"7鄰","STREET":"環館北路","SECT":" ","MAREA":" ","LANE":"８４９巷","ALLEY":"７弄","HOUSE_NO":"１６號","E_COORD97":171191.05588199999,"N_COORD97":2551435.21961,"ADDRESS":"環館北路８４９巷７弄１６號","OBJECTID":3549},"geometry":{"x":171191.0558820013,"y":2551435.2196110003}},{"attributes":{"ID":3550,"DIS_CODE":0,"TOWNNAME":"安南區","LI":"東和里","LIN":"7鄰","STREET":"環館北路","SECT":" ","MAREA":" ","LANE":"８４９巷","ALLEY":"５弄","HOUSE_NO":"４０號","E_COORD97":171220.07322600001,"N_COORD97":2551492.3695800002,"ADDRESS":"環館北路８４９巷５弄４０號","OBJECTID":3550},"geometry":{"x":171220.07322600111,"y":2551492.3695800006}},{"attributes":{"ID":3551,"DIS_CODE":0,"TOWNNAME":"安南區","LI":"東和里","LIN":"7鄰","STREET":"環館北路","SECT":" ","MAREA":" ","LANE":"８４９巷","ALLEY":"５弄","HOUSE_NO":"３８號","E_COORD97":171215.20170100001,"N_COORD97":2551490.4645799999,"ADDRESS":"環館北路８４９巷５弄３８號","OBJECTID":3551},"geometry":{"x":171215.20170100033,"y":2551490.4645809997}},{"attributes":{"ID":3552,"DIS_CODE":0,"TOWNNAME":"安南區","LI":"東和里","LIN":"7鄰","STREET":"環館北路","SECT":" ","MAREA":" ","LANE":"８４９巷","ALLEY":"５弄","HOUSE_NO":"３６號","E_COORD97":171210.541982,"N_COORD97":2551488.13625,"ADDRESS":"環館北路８４９巷５弄３６號","OBJECTID":3552},"geometry":{"x":171210.54198200069,"y":2551488.1362490021}},{"attributes":{"ID":3553,"DIS_CODE":0,"TOWNNAME":"安南區","LI":"東和里","LIN":"7鄰","STREET":"環館北路","SECT":" ","MAREA":" ","LANE":"８４９巷","ALLEY":"５弄","HOUSE_NO":"３０號","E_COORD97":171200.375321,"N_COORD97":2551482.4212500001,"ADDRESS":"環館北路８４９巷５弄３０號","OBJECTID":3553},"geometry":{"x":171200.37532100081,"y":2551482.4212520029}},{"attributes":{"ID":3554,"DIS_CODE":0,"TOWNNAME":"安南區","LI":"東和里","LIN":"7鄰","STREET":"環館北路","SECT":" ","MAREA":" ","LANE":"８４９巷","ALLEY":"７弄","HOUSE_NO":"１１號","E_COORD97":171180.04199900001,"N_COORD97":2551454.2696000002,"ADDRESS":"環館北路８４９巷７弄１１號","OBJECTID":3554},"geometry":{"x":171180.04199900012,"y":2551454.2696000021}},{"attributes":{"ID":3555,"DIS_CODE":0,"TOWNNAME":"安南區","LI":"東和里","LIN":"7鄰","STREET":"環館北路","SECT":" ","MAREA":" ","LANE":"８４９巷","ALLEY":"７弄","HOUSE_NO":"９號","E_COORD97":171173.05241999999,"N_COORD97":2551449.6129399999,"ADDRESS":"環館北路８４９巷７弄９號","OBJECTID":3555},"geometry":{"x":171173.05242000055,"y":2551449.6129360013}},{"attributes":{"ID":3556,"DIS_CODE":0,"TOWNNAME":"大內區","LI":"頭社里","LIN":"13鄰","STREET":" ","SECT":" ","MAREA":"頭社","LANE":" ","ALLEY":" ","HOUSE_NO":"１７４之７號","E_COORD97":187365.10607899999,"N_COORD97":2561892.2624599999,"ADDRESS":"頭社１７４之７號","OBJECTID":3556},"geometry":{"x":187365.10607900005,"y":2561892.2624600008}},{"attributes":{"ID":3557,"DIS_CODE":0,"TOWNNAME":"大內區","LI":"頭社里","LIN":"9鄰","STREET":" ","SECT":" ","MAREA":"頭社","LANE":" ","ALLEY":" ","HOUSE_NO":"１１７之２號","E_COORD97":185844.95181,"N_COORD97":2561422.1868799999,"ADDRESS":"頭社１１７之２號","OBJECTID":3557},"geometry":{"x":185844.95181000046,"y":2561422.1868779995}},{"attributes":{"ID":3558,"DIS_CODE":0,"TOWNNAME":"大內區","LI":"石湖里","LIN":"17鄰","STREET":" ","SECT":" ","MAREA":"新厝子","LANE":" ","ALLEY":" ","HOUSE_NO":"４２之１０１號","E_COORD97":184339.065887,"N_COORD97":2561293.20866,"ADDRESS":"新厝子４２之１０１號","OBJECTID":3558},"geometry":{"x":184339.06588700227,"y":2561293.2086590026}},{"attributes":{"ID":3559,"DIS_CODE":0,"TOWNNAME":"安南區","LI":"東和里","LIN":"7鄰","STREET":"環館北路","SECT":" ","MAREA":" ","LANE":"８４９巷","ALLEY":"５弄","HOUSE_NO":"３１號","E_COORD97":171209.48295400001,"N_COORD97":2551512.90124,"ADDRESS":"環館北路８４９巷５弄３１號","OBJECTID":3559},"geometry":{"x":171209.48295400199,"y":2551512.9012349974}},{"attributes":{"ID":3560,"DIS_CODE":0,"TOWNNAME":"下營區","LI":"西連里","LIN":"4鄰","STREET":" ","SECT":" ","MAREA":"連表","LANE":" ","ALLEY":" ","HOUSE_NO":"３５之１２號","E_COORD97":174951.73999999999,"N_COORD97":2567918.4500000002,"ADDRESS":"連表３５之１２號","OBJECTID":3560},"geometry":{"x":174951.74000000022,"y":2567918.4499999993}},{"attributes":{"ID":3561,"DIS_CODE":0,"TOWNNAME":"安南區","LI":"東和里","LIN":"7鄰","STREET":"環館北路","SECT":" ","MAREA":" ","LANE":"８４９巷","ALLEY":"２弄","HOUSE_NO":"３０號","E_COORD97":171014.41,"N_COORD97":2551461.46,"ADDRESS":"環館北路８４９巷２弄３０號","OBJECTID":3561},"geometry":{"x":171014.40999999922,"y":2551461.4600000028}},{"attributes":{"ID":3562,"DIS_CODE":0,"TOWNNAME":"仁德區","LI":"成功里","LIN":"1鄰","STREET":"保生東路","SECT":" ","MAREA":" ","LANE":"１３８巷","ALLEY":"６弄","HOUSE_NO":"３０號","E_COORD97":171223.71283800001,"N_COORD97":2539521.0272499998,"ADDRESS":"保生東路１３８巷６弄３０號","OBJECTID":3562},"geometry":{"x":171223.71283799969,"y":2539521.0272510014}},{"attributes":{"ID":3563,"DIS_CODE":0,"TOWNNAME":"安南區","LI":"東和里","LIN":"7鄰","STREET":"環館北路","SECT":" ","MAREA":" ","LANE":"８４９巷","ALLEY":"２弄","HOUSE_NO":"４３號","E_COORD97":170991.29088499999,"N_COORD97":2551412.6664499999,"ADDRESS":"環館北路８４９巷２弄４３號","OBJECTID":3563},"geometry":{"x":170991.29088500049,"y":2551412.6664500013}},{"attributes":{"ID":3564,"DIS_CODE":0,"TOWNNAME":"安南區","LI":"東和里","LIN":"7鄰","STREET":"環館北路","SECT":" ","MAREA":" ","LANE":"８４９巷","ALLEY":"２弄","HOUSE_NO":"５６號","E_COORD97":170991.29088499999,"N_COORD97":2551412.6664499999,"ADDRESS":"環館北路８４９巷２弄５６號","OBJECTID":3564},"geometry":{"x":170991.29088500049,"y":2551412.6664500013}},{"attributes":{"ID":3565,"DIS_CODE":0,"TOWNNAME":"仁德區","LI":"成功里","LIN":"1鄰","STREET":"保生東路","SECT":" ","MAREA":" ","LANE":"１３８巷","ALLEY":"６弄","HOUSE_NO":"３２號","E_COORD97":171229.43154600001,"N_COORD97":2539520.7097499999,"ADDRESS":"保生東路１３８巷６弄３２號","OBJECTID":3565},"geometry":{"x":171229.43154600076,"y":2539520.7097510025}},{"attributes":{"ID":3566,"DIS_CODE":0,"TOWNNAME":"安南區","LI":"東和里","LIN":"7鄰","STREET":"環館北路","SECT":" ","MAREA":" ","LANE":"８４９巷","ALLEY":"６弄","HOUSE_NO":"３５號","E_COORD97":171001.45754599999,"N_COORD97":2551402.2947900002,"ADDRESS":"環館北路８４９巷６弄３５號","OBJECTID":3566},"geometry":{"x":171001.45754600223,"y":2551402.2947890013}},{"attributes":{"ID":3567,"DIS_CODE":0,"TOWNNAME":"安南區","LI":"東和里","LIN":"7鄰","STREET":"環館北路","SECT":" ","MAREA":" ","LANE":"８４９巷","ALLEY":"６弄","HOUSE_NO":"４６號","E_COORD97":171001.45754599999,"N_COORD97":2551402.2947900002,"ADDRESS":"環館北路８４９巷６弄４６號","OBJECTID":3567},"geometry":{"x":171001.45754600223,"y":2551402.2947890013}},{"attributes":{"ID":3568,"DIS_CODE":0,"TOWNNAME":"仁德區","LI":"成功里","LIN":"1鄰","STREET":"保生東路","SECT":" ","MAREA":" ","LANE":"１３８巷","ALLEY":"６弄","HOUSE_NO":"３６號","E_COORD97":171236.10337200001,"N_COORD97":2539519.3339200001,"ADDRESS":"保生東路１３８巷６弄３６號","OBJECTID":3568},"geometry":{"x":171236.10337200016,"y":2539519.3339190017}},{"attributes":{"ID":3569,"DIS_CODE":0,"TOWNNAME":"仁德區","LI":"成功里","LIN":"1鄰","STREET":"保生東路","SECT":" ","MAREA":" ","LANE":"１３８巷","ALLEY":"６弄","HOUSE_NO":"３８號","E_COORD97":171241.504373,"N_COORD97":2539518.4872499998,"ADDRESS":"保生東路１３８巷６弄３８號","OBJECTID":3569},"geometry":{"x":171241.504373,"y":2539518.4872520007}},{"attributes":{"ID":3570,"DIS_CODE":0,"TOWNNAME":"仁德區","LI":"成功里","LIN":"1鄰","STREET":"保生東路","SECT":" ","MAREA":" ","LANE":"１３８巷","ALLEY":"６弄","HOUSE_NO":"４０號","E_COORD97":171246.69357100001,"N_COORD97":2539517.2172500002,"ADDRESS":"保生東路１３８巷６弄４０號","OBJECTID":3570},"geometry":{"x":171246.69357100129,"y":2539517.2172530014}},{"attributes":{"ID":3571,"DIS_CODE":0,"TOWNNAME":"安南區","LI":"東和里","LIN":"7鄰","STREET":"環館北路","SECT":" ","MAREA":" ","LANE":"８４９巷","ALLEY":"３弄","HOUSE_NO":"４６號","E_COORD97":171203.40144700001,"N_COORD97":2551525.0270400001,"ADDRESS":"環館北路８４９巷３弄４６號","OBJECTID":3571},"geometry":{"x":171203.40144700091,"y":2551525.027038997}},{"attributes":{"ID":3572,"DIS_CODE":0,"TOWNNAME":"仁德區","LI":"成功里","LIN":"1鄰","STREET":"保生東路","SECT":" ","MAREA":" ","LANE":" ","ALLEY":" ","HOUSE_NO":"１３６號","E_COORD97":171188.34450000001,"N_COORD97":2539574.2184000001,"ADDRESS":"保生東路１３６號","OBJECTID":3572},"geometry":{"x":171188.34450000059,"y":2539574.2184000015}},{"attributes":{"ID":3573,"DIS_CODE":0,"TOWNNAME":"安南區","LI":"東和里","LIN":"7鄰","STREET":"環館北路","SECT":" ","MAREA":" ","LANE":"８４９巷","ALLEY":"１弄","HOUSE_NO":"５６號","E_COORD97":171188.57506599999,"N_COORD97":2551554.0253599999,"ADDRESS":"環館北路８４９巷１弄５６號","OBJECTID":3573},"geometry":{"x":171188.57506600022,"y":2551554.0253570005}},{"attributes":{"ID":3574,"DIS_CODE":0,"TOWNNAME":"仁德區","LI":"成功里","LIN":"1鄰","STREET":"保生東路","SECT":" ","MAREA":" ","LANE":" ","ALLEY":" ","HOUSE_NO":"１４０號","E_COORD97":171189.50649,"N_COORD97":2539593.5230399999,"ADDRESS":"保生東路１４０號","OBJECTID":3574},"geometry":{"x":171189.50649000052,"y":2539593.5230400022}},{"attributes":{"ID":3575,"DIS_CODE":0,"TOWNNAME":"仁德區","LI":"成功里","LIN":"1鄰","STREET":"保生東路","SECT":" ","MAREA":" ","LANE":" ","ALLEY":" ","HOUSE_NO":"１４２號","E_COORD97":171190.35371,"N_COORD97":2539597.9680400002,"ADDRESS":"保生東路１４２號","OBJECTID":3575},"geometry":{"x":171190.3537100004,"y":2539597.9680430014}},{"attributes":{"ID":3576,"DIS_CODE":0,"TOWNNAME":"仁德區","LI":"成功里","LIN":"1鄰","STREET":"保生東路","SECT":" ","MAREA":" ","LANE":"１３８巷","ALLEY":" ","HOUSE_NO":"１號","E_COORD97":171200.52030100001,"N_COORD97":2539595.1105399998,"ADDRESS":"保生東路１３８巷１號","OBJECTID":3576},"geometry":{"x":171200.52030100115,"y":2539595.1105439998}},{"attributes":{"ID":3577,"DIS_CODE":0,"TOWNNAME":"安南區","LI":"東和里","LIN":"7鄰","STREET":"環館北路","SECT":" ","MAREA":" ","LANE":"８４９巷","ALLEY":"３弄","HOUSE_NO":"３５號","E_COORD97":171194.717424,"N_COORD97":2551540.0553600001,"ADDRESS":"環館北路８４９巷３弄３５號","OBJECTID":3577},"geometry":{"x":171194.71742400061,"y":2551540.0553640034}},{"attributes":{"ID":3578,"DIS_CODE":0,"TOWNNAME":"官田區","LI":"南\u25A0里","LIN":"7鄰","STREET":" ","SECT":" ","MAREA":"南\u25A0","LANE":" ","ALLEY":" ","HOUSE_NO":"１０３號之７","E_COORD97":178560.52598000001,"N_COORD97":2568098.4104599999,"ADDRESS":"南\u25A0１０３號之７","OBJECTID":3578},"geometry":{"x":178560.52598000225,"y":2568098.4104550034}},{"attributes":{"ID":3579,"DIS_CODE":0,"TOWNNAME":"官田區","LI":"南\u25A0里","LIN":"13鄰","STREET":" ","SECT":" ","MAREA":" ","LANE":" ","ALLEY":" ","HOUSE_NO":"４２號之３６","E_COORD97":180020.533177,"N_COORD97":2567499.9055499998,"ADDRESS":"４２號之３６","OBJECTID":3579},"geometry":{"x":180020.5331770014,"y":2567499.9055500012}},{"attributes":{"ID":3580,"DIS_CODE":0,"TOWNNAME":"六甲區","LI":"甲東里","LIN":"9鄰","STREET":"曾文街","SECT":" ","MAREA":" ","LANE":" ","ALLEY":" ","HOUSE_NO":"６５號","E_COORD97":184127.70381499999,"N_COORD97":2570246.5961699998,"ADDRESS":"曾文街６５號","OBJECTID":3580},"geometry":{"x":184127.7038149992,"y":2570246.596168004}},{"attributes":{"ID":3581,"DIS_CODE":0,"TOWNNAME":"官田區","LI":"南\u25A0里","LIN":"10鄰","STREET":" ","SECT":" ","MAREA":" ","LANE":" ","ALLEY":" ","HOUSE_NO":"１６６號","E_COORD97":179253.22869300001,"N_COORD97":2567967.6532999999,"ADDRESS":"１６６號","OBJECTID":3581},"geometry":{"x":179253.22869300097,"y":2567967.653299002}},{"attributes":{"ID":3582,"DIS_CODE":0,"TOWNNAME":"歸仁區","LI":"六甲里","LIN":"12鄰","STREET":"中正南路","SECT":"一段","MAREA":" ","LANE":" ","ALLEY":" ","HOUSE_NO":"１０５０之１號","E_COORD97":175966.85643799999,"N_COORD97":2539124.7967300001,"ADDRESS":"中正南路一段１０５０之１號","OBJECTID":3582},"geometry":{"x":175966.85643800069,"y":2539124.7967270035}},{"attributes":{"ID":3583,"DIS_CODE":0,"TOWNNAME":"仁德區","LI":"大甲里","LIN":"22鄰","STREET":"行大街","SECT":" ","MAREA":" ","LANE":" ","ALLEY":" ","HOUSE_NO":"３８８號","E_COORD97":169496.63411799999,"N_COORD97":2535243.0900500002,"ADDRESS":"行大街３８８號","OBJECTID":3583},"geometry":{"x":169496.63411800191,"y":2535243.0900489986}},{"attributes":{"ID":3584,"DIS_CODE":0,"TOWNNAME":"歸仁區","LI":"六甲里","LIN":"12鄰","STREET":"中正南路","SECT":"一段","MAREA":" ","LANE":" ","ALLEY":" ","HOUSE_NO":"１０５０號","E_COORD97":175965.90908899999,"N_COORD97":2539119.6866899999,"ADDRESS":"中正南路一段１０５０號","OBJECTID":3584},"geometry":{"x":175965.90908900183,"y":2539119.6866910011}},{"attributes":{"ID":3585,"DIS_CODE":0,"TOWNNAME":"官田區","LI":"社子里","LIN":"12鄰","STREET":" ","SECT":" ","MAREA":"六\u25A0","LANE":" ","ALLEY":" ","HOUSE_NO":"１６號之５","E_COORD97":185163.44437000001,"N_COORD97":2562860.00318,"ADDRESS":"六\u25A0１６號之５","OBJECTID":3585},"geometry":{"x":185163.44436999969,"y":2562860.0031800028}},{"attributes":{"ID":3586,"DIS_CODE":0,"TOWNNAME":"歸仁區","LI":"六甲里","LIN":"12鄰","STREET":"中正南路","SECT":"一段","MAREA":" ","LANE":" ","ALLEY":" ","HOUSE_NO":"１０５２號","E_COORD97":175964.77226999999,"N_COORD97":2539106.81697,"ADDRESS":"中正南路一段１０５２號","OBJECTID":3586},"geometry":{"x":175964.77226999961,"y":2539106.816974001}},{"attributes":{"ID":3587,"DIS_CODE":0,"TOWNNAME":"歸仁區","LI":"六甲里","LIN":"12鄰","STREET":"中正南路","SECT":"一段","MAREA":" ","LANE":" ","ALLEY":" ","HOUSE_NO":"１０５６號","E_COORD97":175964.01439,"N_COORD97":2539102.0854600002,"ADDRESS":"中正南路一段１０５６號","OBJECTID":3587},"geometry":{"x":175964.01439000107,"y":2539102.0854599997}},{"attributes":{"ID":3588,"DIS_CODE":0,"TOWNNAME":"歸仁區","LI":"六甲里","LIN":"12鄰","STREET":"中正南路","SECT":"一段","MAREA":" ","LANE":" ","ALLEY":" ","HOUSE_NO":"１０５８號","E_COORD97":175962.87757099999,"N_COORD97":2539097.16469,"ADDRESS":"中正南路一段１０５８號","OBJECTID":3588},"geometry":{"x":175962.87757100165,"y":2539097.1646850016}},{"attributes":{"ID":3589,"DIS_CODE":0,"TOWNNAME":"歸仁區","LI":"六甲里","LIN":"12鄰","STREET":"中正南路","SECT":"一段","MAREA":" ","LANE":" ","ALLEY":" ","HOUSE_NO":"１０６０號","E_COORD97":175962.11969200001,"N_COORD97":2539092.62243,"ADDRESS":"中正南路一段１０６０號","OBJECTID":3589},"geometry":{"x":175962.11969199963,"y":2539092.6224320009}},{"attributes":{"ID":3590,"DIS_CODE":0,"TOWNNAME":"官田區","LI":"社子里","LIN":"2鄰","STREET":" ","SECT":" ","MAREA":"社子","LANE":" ","ALLEY":" ","HOUSE_NO":"１０號之５","E_COORD97":184421.18606099999,"N_COORD97":2564654.9080400001,"ADDRESS":"社子１０號之５","OBJECTID":3590},"geometry":{"x":184421.18606100045,"y":2564654.9080380015}},{"attributes":{"ID":3591,"DIS_CODE":0,"TOWNNAME":"新營區","LI":"新東里","LIN":"10鄰","STREET":"東仁街","SECT":" ","MAREA":" ","LANE":"１０巷","ALLEY":" ","HOUSE_NO":"１１號","E_COORD97":181301.76551500001,"N_COORD97":2579529.23245,"ADDRESS":"東仁街１０巷１１號","OBJECTID":3591},"geometry":{"x":181301.76551500149,"y":2579529.2324480005}},{"attributes":{"ID":3592,"DIS_CODE":0,"TOWNNAME":"新營區","LI":"新東里","LIN":"10鄰","STREET":"東仁街","SECT":" ","MAREA":" ","LANE":"１０巷","ALLEY":" ","HOUSE_NO":"９號","E_COORD97":181296.733312,"N_COORD97":2579529.6557800001,"ADDRESS":"東仁街１０巷９號","OBJECTID":3592},"geometry":{"x":181296.73331200052,"y":2579529.6557810046}},{"attributes":{"ID":3593,"DIS_CODE":0,"TOWNNAME":"仁德區","LI":"太子里","LIN":"32鄰","STREET":"太子路","SECT":" ","MAREA":" ","LANE":"４９５巷","ALLEY":" ","HOUSE_NO":"１號","E_COORD97":174031.21687,"N_COORD97":2543490.1518299999,"ADDRESS":"太子路４９５巷１號","OBJECTID":3593},"geometry":{"x":174031.21687000059,"y":2543490.1518249996}},{"attributes":{"ID":3594,"DIS_CODE":0,"TOWNNAME":"仁德區","LI":"大甲里","LIN":"22鄰","STREET":"行大街","SECT":" ","MAREA":" ","LANE":"４０２巷","ALLEY":" ","HOUSE_NO":"２７之１號","E_COORD97":169484.764784,"N_COORD97":2535308.7596,"ADDRESS":"行大街４０２巷２７之１號","OBJECTID":3594},"geometry":{"x":169484.76478400081,"y":2535308.7595970016}},{"attributes":{"ID":3595,"DIS_CODE":0,"TOWNNAME":"歸仁區","LI":"六甲里","LIN":"12鄰","STREET":"中正二十街","SECT":" ","MAREA":" ","LANE":" ","ALLEY":" ","HOUSE_NO":"１２號","E_COORD97":175930.461052,"N_COORD97":2539122.3363399999,"ADDRESS":"中正二十街１２號","OBJECTID":3595},"geometry":{"x":175930.46105199959,"y":2539122.3363390006}},{"attributes":{"ID":3596,"DIS_CODE":0,"TOWNNAME":"歸仁區","LI":"六甲里","LIN":"12鄰","STREET":"中正二十街","SECT":" ","MAREA":" ","LANE":" ","ALLEY":" ","HOUSE_NO":"１０號","E_COORD97":175936.68489,"N_COORD97":2539122.0586799998,"ADDRESS":"中正二十街１０號","OBJECTID":3596},"geometry":{"x":175936.68489000108,"y":2539122.0586779993}},{"attributes":{"ID":3597,"DIS_CODE":0,"TOWNNAME":"歸仁區","LI":"六甲里","LIN":"12鄰","STREET":"中正二十街","SECT":" ","MAREA":" ","LANE":" ","ALLEY":" ","HOUSE_NO":"８號","E_COORD97":175943.04190800001,"N_COORD97":2539121.7411799999,"ADDRESS":"中正二十街８號","OBJECTID":3597},"geometry":{"x":175943.04190800153,"y":2539121.7411780022}},{"attributes":{"ID":3598,"DIS_CODE":0,"TOWNNAME":"歸仁區","LI":"六甲里","LIN":"12鄰","STREET":"中正二十街","SECT":" ","MAREA":" ","LANE":" ","ALLEY":" ","HOUSE_NO":"６號","E_COORD97":175948.975126,"N_COORD97":2539121.0003499999,"ADDRESS":"中正二十街６號","OBJECTID":3598},"geometry":{"x":175948.97512600012,"y":2539121.000345001}},{"attributes":{"ID":3599,"DIS_CODE":0,"TOWNNAME":"歸仁區","LI":"六甲里","LIN":"12鄰","STREET":"中正二十街","SECT":" ","MAREA":" ","LANE":" ","ALLEY":" ","HOUSE_NO":"２號","E_COORD97":175956.17974699999,"N_COORD97":2539120.2595099998,"ADDRESS":"中正二十街２號","OBJECTID":3599},"geometry":{"x":175956.17974700127,"y":2539120.259513}},{"attributes":{"ID":3600,"DIS_CODE":0,"TOWNNAME":"安南區","LI":"東和里","LIN":"7鄰","STREET":"環館北路","SECT":" ","MAREA":" ","LANE":"８４９巷","ALLEY":"８弄","HOUSE_NO":"１０號","E_COORD97":171083.36460999999,"N_COORD97":2551427.9980000001,"ADDRESS":"環館北路８４９巷８弄１０號","OBJECTID":3600},"geometry":{"x":171083.36461000144,"y":2551427.9980000015}}]}