{"displayFieldName":"TOWNNAME","fieldAliases":{"ID":"ID","DIS_CODE":"DIS_CODE","TOWNNAME":"TOWNNAME","LI":"LI","LIN":"LIN","STREET":"STREET","SECT":"SECT","MAREA":"MAREA","LANE":"LANE","ALLEY":"ALLEY","HOUSE_NO":"HOUSE_NO","E_COORD97":"E_COORD97","N_COORD97":"N_COORD97","ADDRESS":"ADDRESS","OBJECTID":"OBJECTID"},"geometryType":"esriGeometryPoint","spatialReference":{"wkid":102443,"latestWkid":3826},"fields":[{"name":"ID","type":"esriFieldTypeDouble","alias":"ID"},{"name":"DIS_CODE","type":"esriFieldTypeInteger","alias":"DIS_CODE"},{"name":"TOWNNAME","type":"esriFieldTypeString","alias":"TOWNNAME","length":8},{"name":"LI","type":"esriFieldTypeString","alias":"LI","length":8},{"name":"LIN","type":"esriFieldTypeString","alias":"LIN","length":12},{"name":"STREET","type":"esriFieldTypeString","alias":"STREET","length":20},{"name":"SECT","type":"esriFieldTypeString","alias":"SECT","length":8},{"name":"MAREA","type":"esriFieldTypeString","alias":"MAREA","length":12},{"name":"LANE","type":"esriFieldTypeString","alias":"LANE","length":10},{"name":"ALLEY","type":"esriFieldTypeString","alias":"ALLEY","length":10},{"name":"HOUSE_NO","type":"esriFieldTypeString","alias":"HOUSE_NO","length":20},{"name":"E_COORD97","type":"esriFieldTypeDouble","alias":"E_COORD97"},{"name":"N_COORD97","type":"esriFieldTypeDouble","alias":"N_COORD97"},{"name":"ADDRESS","type":"esriFieldTypeString","alias":"ADDRESS","length":50},{"name":"OBJECTID","type":"esriFieldTypeOID","alias":"OBJECTID"}],"features":[{"attributes":{"ID":358611,"DIS_CODE":0,"TOWNNAME":"北區","LI":"和順里","LIN":"30鄰","STREET":"海安路","SECT":"三段","MAREA":" ","LANE":"１３５巷","ALLEY":" ","HOUSE_NO":"４１號","E_COORD97":167856.10999999999,"N_COORD97":2544999.8199999998,"ADDRESS":"海安路三段１３５巷４１號","OBJECTID":358601},"geometry":{"x":167856.11000000034,"y":2544999.8200000022}},{"attributes":{"ID":358612,"DIS_CODE":0,"TOWNNAME":"下營區","LI":"後街里","LIN":"19鄰","STREET":"大孝街","SECT":" ","MAREA":" ","LANE":"５８巷","ALLEY":" ","HOUSE_NO":"３號","E_COORD97":174569.44,"N_COORD97":2571156.48,"ADDRESS":"大孝街５８巷３號","OBJECTID":358602},"geometry":{"x":174569.44000000227,"y":2571156.4800000004}},{"attributes":{"ID":358613,"DIS_CODE":0,"TOWNNAME":"北區","LI":"和順里","LIN":"30鄰","STREET":"海安路","SECT":"三段","MAREA":" ","LANE":"１３５巷","ALLEY":" ","HOUSE_NO":"４３號","E_COORD97":167851.48999999999,"N_COORD97":2545000.1299999999,"ADDRESS":"海安路三段１３５巷４３號","OBJECTID":358603},"geometry":{"x":167851.49000000115,"y":2545000.1300000008}},{"attributes":{"ID":358614,"DIS_CODE":0,"TOWNNAME":"北區","LI":"和順里","LIN":"30鄰","STREET":"海安路","SECT":"三段","MAREA":" ","LANE":"１３５巷","ALLEY":" ","HOUSE_NO":"４５號","E_COORD97":167846.07999999999,"N_COORD97":2544999.8199999998,"ADDRESS":"海安路三段１３５巷４５號","OBJECTID":358604},"geometry":{"x":167846.08000000007,"y":2544999.8200000022}},{"attributes":{"ID":358615,"DIS_CODE":0,"TOWNNAME":"北區","LI":"和順里","LIN":"30鄰","STREET":"海安路","SECT":"三段","MAREA":" ","LANE":"１３５巷","ALLEY":" ","HOUSE_NO":"７號","E_COORD97":167947.42999999999,"N_COORD97":2545002.9900000002,"ADDRESS":"海安路三段１３５巷７號","OBJECTID":358605},"geometry":{"x":167947.43000000156,"y":2545002.9900000002}},{"attributes":{"ID":358616,"DIS_CODE":0,"TOWNNAME":"北區","LI":"和順里","LIN":"30鄰","STREET":"海安路","SECT":"三段","MAREA":" ","LANE":"１３５巷","ALLEY":" ","HOUSE_NO":"９號","E_COORD97":167943.45000000001,"N_COORD97":2545002.6800000002,"ADDRESS":"海安路三段１３５巷９號","OBJECTID":358606},"geometry":{"x":167943.45000000112,"y":2545002.6800000034}},{"attributes":{"ID":358617,"DIS_CODE":0,"TOWNNAME":"中西區","LI":"三合里","LIN":"8鄰","STREET":"成功路","SECT":" ","MAREA":" ","LANE":" ","ALLEY":" ","HOUSE_NO":"４５３號三樓之７","E_COORD97":167642.97,"N_COORD97":2544635.1600000001,"ADDRESS":"成功路４５３號三樓之７","OBJECTID":358607},"geometry":{"x":167642.96999999974,"y":2544635.160000002}},{"attributes":{"ID":358618,"DIS_CODE":0,"TOWNNAME":"六甲區","LI":"六甲里","LIN":"25鄰","STREET":"民權街","SECT":" ","MAREA":" ","LANE":"３８巷","ALLEY":" ","HOUSE_NO":"２０號","E_COORD97":183443.41,"N_COORD97":2569717.6699999999,"ADDRESS":"民權街３８巷２０號","OBJECTID":358608},"geometry":{"x":183443.41000000015,"y":2569717.6699999999}},{"attributes":{"ID":358619,"DIS_CODE":0,"TOWNNAME":"六甲區","LI":"六甲里","LIN":"25鄰","STREET":"民權街","SECT":" ","MAREA":" ","LANE":"３８巷","ALLEY":" ","HOUSE_NO":"２６號","E_COORD97":183475.64999999999,"N_COORD97":2569723.4100000001,"ADDRESS":"民權街３８巷２６號","OBJECTID":358609},"geometry":{"x":183475.65000000037,"y":2569723.4100000001}},{"attributes":{"ID":358620,"DIS_CODE":0,"TOWNNAME":"六甲區","LI":"二甲里","LIN":"25鄰","STREET":"和平街","SECT":" ","MAREA":" ","LANE":"４４７巷","ALLEY":" ","HOUSE_NO":"８５號","E_COORD97":182544.95999999999,"N_COORD97":2570067.71,"ADDRESS":"和平街４４７巷８５號","OBJECTID":358610},"geometry":{"x":182544.96000000089,"y":2570067.7100000009}},{"attributes":{"ID":358621,"DIS_CODE":0,"TOWNNAME":"六甲區","LI":"二甲里","LIN":"25鄰","STREET":"和平街","SECT":" ","MAREA":" ","LANE":"４４７巷","ALLEY":" ","HOUSE_NO":"９５號","E_COORD97":182544.51999999999,"N_COORD97":2570136.3599999999,"ADDRESS":"和平街４４７巷９５號","OBJECTID":358611},"geometry":{"x":182544.52000000048,"y":2570136.3599999994}},{"attributes":{"ID":358622,"DIS_CODE":0,"TOWNNAME":"六甲區","LI":"二甲里","LIN":"25鄰","STREET":"和平街","SECT":" ","MAREA":" ","LANE":"４４７巷","ALLEY":" ","HOUSE_NO":"９６號","E_COORD97":182514.26999999999,"N_COORD97":2570052.9100000001,"ADDRESS":"和平街４４７巷９６號","OBJECTID":358612},"geometry":{"x":182514.26999999955,"y":2570052.9100000039}},{"attributes":{"ID":358623,"DIS_CODE":0,"TOWNNAME":"六甲區","LI":"二甲里","LIN":"25鄰","STREET":"和平街","SECT":" ","MAREA":" ","LANE":"４４７巷","ALLEY":" ","HOUSE_NO":"９８號","E_COORD97":182559.60999999999,"N_COORD97":2570067.4900000002,"ADDRESS":"和平街４４７巷９８號","OBJECTID":358613},"geometry":{"x":182559.61000000127,"y":2570067.4900000021}},{"attributes":{"ID":358624,"DIS_CODE":0,"TOWNNAME":"六甲區","LI":"二甲里","LIN":"25鄰","STREET":"和平街","SECT":" ","MAREA":" ","LANE":"４４７巷","ALLEY":" ","HOUSE_NO":"９９號","E_COORD97":182545.51999999999,"N_COORD97":2570167.5099999998,"ADDRESS":"和平街４４７巷９９號","OBJECTID":358614},"geometry":{"x":182545.52000000142,"y":2570167.5100000016}},{"attributes":{"ID":358625,"DIS_CODE":0,"TOWNNAME":"新營區","LI":"新南里","LIN":"30鄰","STREET":"明清三街","SECT":" ","MAREA":" ","LANE":"２９巷","ALLEY":" ","HOUSE_NO":"５０號","E_COORD97":178181.25,"N_COORD97":2578790.73,"ADDRESS":"明清三街２９巷５０號","OBJECTID":358615},"geometry":{"x":178181.25000000093,"y":2578790.7300000004}},{"attributes":{"ID":358626,"DIS_CODE":0,"TOWNNAME":"新營區","LI":"王公里","LIN":"30鄰","STREET":"民族路","SECT":" ","MAREA":" ","LANE":"２６８巷","ALLEY":" ","HOUSE_NO":"２１號","E_COORD97":180453.04999999999,"N_COORD97":2579600.6200000001,"ADDRESS":"民族路２６８巷２１號","OBJECTID":358616},"geometry":{"x":180453.04999999981,"y":2579600.6200000029}},{"attributes":{"ID":358627,"DIS_CODE":0,"TOWNNAME":"南區","LI":"大忠里","LIN":"30鄰","STREET":"中華南路","SECT":"一段","MAREA":" ","LANE":"１８６巷","ALLEY":" ","HOUSE_NO":"２號","E_COORD97":169111.70000000001,"N_COORD97":2541257.5899999999,"ADDRESS":"中華南路一段１８６巷２號","OBJECTID":358617},"geometry":{"x":169111.70000000019,"y":2541257.5900000017}},{"attributes":{"ID":358628,"DIS_CODE":0,"TOWNNAME":"歸仁區","LI":"南興里","LIN":"30鄰","STREET":"保興街","SECT":" ","MAREA":" ","LANE":"５５巷","ALLEY":" ","HOUSE_NO":"１２號","E_COORD97":176461.37,"N_COORD97":2541071.25,"ADDRESS":"保興街５５巷１２號","OBJECTID":358618},"geometry":{"x":176461.37000000197,"y":2541071.25}},{"attributes":{"ID":358629,"DIS_CODE":0,"TOWNNAME":"新營區","LI":"南興里","LIN":"30鄰","STREET":"建業路","SECT":" ","MAREA":" ","LANE":"１５７巷","ALLEY":" ","HOUSE_NO":"５號","E_COORD97":178401.64999999999,"N_COORD97":2577456.2799999998,"ADDRESS":"建業路１５７巷５號","OBJECTID":358619},"geometry":{"x":178401.65000000037,"y":2577456.2799999993}},{"attributes":{"ID":358630,"DIS_CODE":0,"TOWNNAME":"新營區","LI":"新北里","LIN":"30鄰","STREET":"新北街","SECT":" ","MAREA":" ","LANE":"１７０巷","ALLEY":" ","HOUSE_NO":"１２號","E_COORD97":178708.94,"N_COORD97":2578986.4199999999,"ADDRESS":"新北街１７０巷１２號","OBJECTID":358620},"geometry":{"x":178708.93999999948,"y":2578986.4200000037}},{"attributes":{"ID":358631,"DIS_CODE":0,"TOWNNAME":"新營區","LI":"新北里","LIN":"30鄰","STREET":"新北街","SECT":" ","MAREA":" ","LANE":"１７０巷","ALLEY":" ","HOUSE_NO":"７號","E_COORD97":178701.64000000001,"N_COORD97":2578996.4100000001,"ADDRESS":"新北街１７０巷７號","OBJECTID":358621},"geometry":{"x":178701.63999999966,"y":2578996.4100000001}},{"attributes":{"ID":358632,"DIS_CODE":0,"TOWNNAME":"新營區","LI":"民生里","LIN":"19鄰","STREET":"進修街","SECT":" ","MAREA":" ","LANE":"２９巷","ALLEY":" ","HOUSE_NO":"４３號","E_COORD97":178872.17000000001,"N_COORD97":2578457.3799999999,"ADDRESS":"進修街２９巷４３號","OBJECTID":358622},"geometry":{"x":178872.17000000086,"y":2578457.3800000008}},{"attributes":{"ID":358633,"DIS_CODE":0,"TOWNNAME":"中西區","LI":"三合里","LIN":"8鄰","STREET":"成功路","SECT":" ","MAREA":" ","LANE":" ","ALLEY":" ","HOUSE_NO":"４５３號三樓之８","E_COORD97":167642.97,"N_COORD97":2544635.1600000001,"ADDRESS":"成功路４５３號三樓之８","OBJECTID":358623},"geometry":{"x":167642.96999999974,"y":2544635.160000002}},{"attributes":{"ID":358634,"DIS_CODE":0,"TOWNNAME":"東區","LI":"崇成里","LIN":"8鄰","STREET":"崇德十三街","SECT":" ","MAREA":" ","LANE":" ","ALLEY":" ","HOUSE_NO":"７５號","E_COORD97":170996.25,"N_COORD97":2541311.1200000001,"ADDRESS":"崇德十三街７５號","OBJECTID":358624},"geometry":{"x":170996.25,"y":2541311.120000001}},{"attributes":{"ID":358635,"DIS_CODE":0,"TOWNNAME":"中西區","LI":"三合里","LIN":"8鄰","STREET":"成功路","SECT":" ","MAREA":" ","LANE":" ","ALLEY":" ","HOUSE_NO":"４５３號三樓之９","E_COORD97":167642.97,"N_COORD97":2544635.1600000001,"ADDRESS":"成功路４５３號三樓之９","OBJECTID":358625},"geometry":{"x":167642.96999999974,"y":2544635.160000002}},{"attributes":{"ID":358636,"DIS_CODE":0,"TOWNNAME":"中西區","LI":"三合里","LIN":"8鄰","STREET":"成功路","SECT":" ","MAREA":" ","LANE":" ","ALLEY":" ","HOUSE_NO":"４５３號四樓之１","E_COORD97":167642.97,"N_COORD97":2544635.1600000001,"ADDRESS":"成功路４５３號四樓之１","OBJECTID":358626},"geometry":{"x":167642.96999999974,"y":2544635.160000002}},{"attributes":{"ID":358637,"DIS_CODE":0,"TOWNNAME":"中西區","LI":"三合里","LIN":"8鄰","STREET":"成功路","SECT":" ","MAREA":" ","LANE":" ","ALLEY":" ","HOUSE_NO":"４５３號四樓之２","E_COORD97":167642.97,"N_COORD97":2544635.1600000001,"ADDRESS":"成功路４５３號四樓之２","OBJECTID":358627},"geometry":{"x":167642.96999999974,"y":2544635.160000002}},{"attributes":{"ID":358638,"DIS_CODE":0,"TOWNNAME":"中西區","LI":"三合里","LIN":"8鄰","STREET":"成功路","SECT":" ","MAREA":" ","LANE":" ","ALLEY":" ","HOUSE_NO":"４５３號九樓之８","E_COORD97":167642.97,"N_COORD97":2544635.1600000001,"ADDRESS":"成功路４５３號九樓之８","OBJECTID":358628},"geometry":{"x":167642.96999999974,"y":2544635.160000002}},{"attributes":{"ID":358639,"DIS_CODE":0,"TOWNNAME":"六甲區","LI":"二甲里","LIN":"25鄰","STREET":"和平街","SECT":" ","MAREA":" ","LANE":"４８０巷","ALLEY":" ","HOUSE_NO":"３號","E_COORD97":182917.59,"N_COORD97":2570098.2999999998,"ADDRESS":"和平街４８０巷３號","OBJECTID":358629},"geometry":{"x":182917.58999999985,"y":2570098.3000000045}},{"attributes":{"ID":358640,"DIS_CODE":0,"TOWNNAME":"六甲區","LI":"二甲里","LIN":"25鄰","STREET":"和平街","SECT":" ","MAREA":" ","LANE":"４８０巷","ALLEY":" ","HOUSE_NO":"４號","E_COORD97":182910.31,"N_COORD97":2570088.8100000001,"ADDRESS":"和平街４８０巷４號","OBJECTID":358630},"geometry":{"x":182910.31000000052,"y":2570088.8100000024}},{"attributes":{"ID":358641,"DIS_CODE":0,"TOWNNAME":"六甲區","LI":"二甲里","LIN":"25鄰","STREET":"和平街","SECT":" ","MAREA":" ","LANE":"４８０巷","ALLEY":" ","HOUSE_NO":"８號","E_COORD97":182930.85999999999,"N_COORD97":2570082.8700000001,"ADDRESS":"和平街４８０巷８號","OBJECTID":358631},"geometry":{"x":182930.86000000127,"y":2570082.8700000029}},{"attributes":{"ID":358642,"DIS_CODE":0,"TOWNNAME":"六甲區","LI":"六甲里","LIN":"25鄰","STREET":"信義街","SECT":" ","MAREA":" ","LANE":"２３８巷","ALLEY":" ","HOUSE_NO":"１１號","E_COORD97":183393.37,"N_COORD97":2569794.2799999998,"ADDRESS":"信義街２３８巷１１號","OBJECTID":358632},"geometry":{"x":183393.37000000104,"y":2569794.2799999993}},{"attributes":{"ID":358643,"DIS_CODE":0,"TOWNNAME":"六甲區","LI":"六甲里","LIN":"25鄰","STREET":"信義街","SECT":" ","MAREA":" ","LANE":"２３８巷","ALLEY":" ","HOUSE_NO":"５號","E_COORD97":183379.97,"N_COORD97":2569798.7599999998,"ADDRESS":"信義街２３８巷５號","OBJECTID":358633},"geometry":{"x":183379.96999999881,"y":2569798.7599999998}},{"attributes":{"ID":358644,"DIS_CODE":0,"TOWNNAME":"六甲區","LI":"六甲里","LIN":"25鄰","STREET":"信義街","SECT":" ","MAREA":" ","LANE":"２３８巷","ALLEY":" ","HOUSE_NO":"７號","E_COORD97":183384.35000000001,"N_COORD97":2569797.4300000002,"ADDRESS":"信義街２３８巷７號","OBJECTID":358634},"geometry":{"x":183384.35000000056,"y":2569797.4299999997}},{"attributes":{"ID":358645,"DIS_CODE":0,"TOWNNAME":"六甲區","LI":"六甲里","LIN":"25鄰","STREET":"信義街","SECT":" ","MAREA":" ","LANE":"２３８巷","ALLEY":" ","HOUSE_NO":"８號","E_COORD97":183377.95000000001,"N_COORD97":2569781.0800000001,"ADDRESS":"信義街２３８巷８號","OBJECTID":358635},"geometry":{"x":183377.95000000112,"y":2569781.0800000019}},{"attributes":{"ID":358646,"DIS_CODE":0,"TOWNNAME":"六甲區","LI":"六甲里","LIN":"25鄰","STREET":"信義街","SECT":" ","MAREA":" ","LANE":"２３８巷","ALLEY":" ","HOUSE_NO":"９號","E_COORD97":183389.12,"N_COORD97":2569795.5699999998,"ADDRESS":"信義街２３８巷９號","OBJECTID":358636},"geometry":{"x":183389.12000000011,"y":2569795.5700000022}},{"attributes":{"ID":358647,"DIS_CODE":0,"TOWNNAME":"六甲區","LI":"甲南里","LIN":"25鄰","STREET":"珊瑚路","SECT":" ","MAREA":" ","LANE":"２０巷","ALLEY":" ","HOUSE_NO":"１４號","E_COORD97":183632.29999999999,"N_COORD97":2569408.4199999999,"ADDRESS":"珊瑚路２０巷１４號","OBJECTID":358637},"geometry":{"x":183632.30000000168,"y":2569408.4200000037}},{"attributes":{"ID":358648,"DIS_CODE":0,"TOWNNAME":"六甲區","LI":"甲南里","LIN":"25鄰","STREET":"珊瑚路","SECT":" ","MAREA":" ","LANE":"２０巷","ALLEY":" ","HOUSE_NO":"１６號","E_COORD97":183628.37,"N_COORD97":2569400.6600000001,"ADDRESS":"珊瑚路２０巷１６號","OBJECTID":358638},"geometry":{"x":183628.37000000011,"y":2569400.660000002}},{"attributes":{"ID":358649,"DIS_CODE":0,"TOWNNAME":"六甲區","LI":"甲南里","LIN":"25鄰","STREET":"珊瑚路","SECT":" ","MAREA":" ","LANE":"２０巷","ALLEY":" ","HOUSE_NO":"１號","E_COORD97":183663.54999999999,"N_COORD97":2569451.0299999998,"ADDRESS":"珊瑚路２０巷１號","OBJECTID":358639},"geometry":{"x":183663.55000000075,"y":2569451.0299999975}},{"attributes":{"ID":358650,"DIS_CODE":0,"TOWNNAME":"南區","LI":"開南里","LIN":"19鄰","STREET":"新建路","SECT":" ","MAREA":" ","LANE":"３９巷","ALLEY":" ","HOUSE_NO":"１０號","E_COORD97":166516.26000000001,"N_COORD97":2541015.8900000001,"ADDRESS":"新建路３９巷１０號","OBJECTID":358640},"geometry":{"x":166516.26000000071,"y":2541015.8900000025}},{"attributes":{"ID":358651,"DIS_CODE":0,"TOWNNAME":"南區","LI":"開南里","LIN":"19鄰","STREET":"新建路","SECT":" ","MAREA":" ","LANE":"３９巷","ALLEY":" ","HOUSE_NO":"１２號","E_COORD97":166521.26000000001,"N_COORD97":2541015.8900000001,"ADDRESS":"新建路３９巷１２號","OBJECTID":358641},"geometry":{"x":166521.26000000164,"y":2541015.8900000025}},{"attributes":{"ID":358652,"DIS_CODE":0,"TOWNNAME":"南區","LI":"開南里","LIN":"19鄰","STREET":"新建路","SECT":" ","MAREA":" ","LANE":"３９巷","ALLEY":" ","HOUSE_NO":"１４號","E_COORD97":166533.82000000001,"N_COORD97":2541015.73,"ADDRESS":"新建路３９巷１４號","OBJECTID":358642},"geometry":{"x":166533.82000000123,"y":2541015.7299999986}},{"attributes":{"ID":358653,"DIS_CODE":0,"TOWNNAME":"南區","LI":"開南里","LIN":"19鄰","STREET":"新建路","SECT":" ","MAREA":" ","LANE":"３９巷","ALLEY":" ","HOUSE_NO":"１６號","E_COORD97":166538.82000000001,"N_COORD97":2541016.0499999998,"ADDRESS":"新建路３９巷１６號","OBJECTID":358643},"geometry":{"x":166538.82000000123,"y":2541016.0500000007}},{"attributes":{"ID":358654,"DIS_CODE":0,"TOWNNAME":"南區","LI":"開南里","LIN":"19鄰","STREET":"新建路","SECT":" ","MAREA":" ","LANE":"３９巷","ALLEY":" ","HOUSE_NO":"１號","E_COORD97":166634.03,"N_COORD97":2541050.0099999998,"ADDRESS":"新建路３９巷１號","OBJECTID":358644},"geometry":{"x":166634.03000000119,"y":2541050.0099999998}},{"attributes":{"ID":358655,"DIS_CODE":0,"TOWNNAME":"中西區","LI":"三合里","LIN":"8鄰","STREET":"成功路","SECT":" ","MAREA":" ","LANE":" ","ALLEY":" ","HOUSE_NO":"４５３號十樓之１","E_COORD97":167642.97,"N_COORD97":2544635.1600000001,"ADDRESS":"成功路４５３號十樓之１","OBJECTID":358645},"geometry":{"x":167642.96999999974,"y":2544635.160000002}},{"attributes":{"ID":358656,"DIS_CODE":0,"TOWNNAME":"中西區","LI":"三合里","LIN":"8鄰","STREET":"成功路","SECT":" ","MAREA":" ","LANE":" ","ALLEY":" ","HOUSE_NO":"４５３號十樓之２","E_COORD97":167642.97,"N_COORD97":2544635.1600000001,"ADDRESS":"成功路４５３號十樓之２","OBJECTID":358646},"geometry":{"x":167642.96999999974,"y":2544635.160000002}},{"attributes":{"ID":358657,"DIS_CODE":0,"TOWNNAME":"中西區","LI":"三合里","LIN":"8鄰","STREET":"成功路","SECT":" ","MAREA":" ","LANE":" ","ALLEY":" ","HOUSE_NO":"４５３號十樓之３","E_COORD97":167642.97,"N_COORD97":2544635.1600000001,"ADDRESS":"成功路４５３號十樓之３","OBJECTID":358647},"geometry":{"x":167642.96999999974,"y":2544635.160000002}},{"attributes":{"ID":358658,"DIS_CODE":0,"TOWNNAME":"中西區","LI":"三合里","LIN":"8鄰","STREET":"成功路","SECT":" ","MAREA":" ","LANE":" ","ALLEY":" ","HOUSE_NO":"４５３號十樓之５","E_COORD97":167642.97,"N_COORD97":2544635.1600000001,"ADDRESS":"成功路４５３號十樓之５","OBJECTID":358648},"geometry":{"x":167642.96999999974,"y":2544635.160000002}},{"attributes":{"ID":358659,"DIS_CODE":0,"TOWNNAME":"中西區","LI":"三合里","LIN":"8鄰","STREET":"成功路","SECT":" ","MAREA":" ","LANE":" ","ALLEY":" ","HOUSE_NO":"４５３號十樓之６","E_COORD97":167642.97,"N_COORD97":2544635.1600000001,"ADDRESS":"成功路４５３號十樓之６","OBJECTID":358649},"geometry":{"x":167642.96999999974,"y":2544635.160000002}},{"attributes":{"ID":358660,"DIS_CODE":0,"TOWNNAME":"中西區","LI":"三合里","LIN":"8鄰","STREET":"成功路","SECT":" ","MAREA":" ","LANE":" ","ALLEY":" ","HOUSE_NO":"４５３號十樓之７","E_COORD97":167642.97,"N_COORD97":2544635.1600000001,"ADDRESS":"成功路４５３號十樓之７","OBJECTID":358650},"geometry":{"x":167642.96999999974,"y":2544635.160000002}},{"attributes":{"ID":358661,"DIS_CODE":0,"TOWNNAME":"中西區","LI":"三合里","LIN":"8鄰","STREET":"成功路","SECT":" ","MAREA":" ","LANE":" ","ALLEY":" ","HOUSE_NO":"４５３號十樓之８","E_COORD97":167642.97,"N_COORD97":2544635.1600000001,"ADDRESS":"成功路４５３號十樓之８","OBJECTID":358651},"geometry":{"x":167642.96999999974,"y":2544635.160000002}},{"attributes":{"ID":358662,"DIS_CODE":0,"TOWNNAME":"中西區","LI":"三合里","LIN":"8鄰","STREET":"成功路","SECT":" ","MAREA":" ","LANE":" ","ALLEY":" ","HOUSE_NO":"４５３號十一樓之１","E_COORD97":167642.97,"N_COORD97":2544635.1600000001,"ADDRESS":"成功路４５３號十一樓之１","OBJECTID":358652},"geometry":{"x":167642.96999999974,"y":2544635.160000002}},{"attributes":{"ID":358663,"DIS_CODE":0,"TOWNNAME":"中西區","LI":"三合里","LIN":"8鄰","STREET":"成功路","SECT":" ","MAREA":" ","LANE":" ","ALLEY":" ","HOUSE_NO":"４５３號十一樓之２","E_COORD97":167642.97,"N_COORD97":2544635.1600000001,"ADDRESS":"成功路４５３號十一樓之２","OBJECTID":358653},"geometry":{"x":167642.96999999974,"y":2544635.160000002}},{"attributes":{"ID":358664,"DIS_CODE":0,"TOWNNAME":"中西區","LI":"三合里","LIN":"8鄰","STREET":"成功路","SECT":" ","MAREA":" ","LANE":" ","ALLEY":" ","HOUSE_NO":"４５３號十一樓之３","E_COORD97":167642.97,"N_COORD97":2544635.1600000001,"ADDRESS":"成功路４５３號十一樓之３","OBJECTID":358654},"geometry":{"x":167642.96999999974,"y":2544635.160000002}},{"attributes":{"ID":358665,"DIS_CODE":0,"TOWNNAME":"永康區","LI":"安康里","LIN":"8鄰","STREET":"中山南路","SECT":" ","MAREA":" ","LANE":" ","ALLEY":" ","HOUSE_NO":"１６１號","E_COORD97":171085.54999999999,"N_COORD97":2545974.4900000002,"ADDRESS":"中山南路１６１號","OBJECTID":358655},"geometry":{"x":171085.54999999981,"y":2545974.4900000021}},{"attributes":{"ID":358666,"DIS_CODE":0,"TOWNNAME":"六甲區","LI":"甲南里","LIN":"25鄰","STREET":"珊瑚路","SECT":" ","MAREA":" ","LANE":"２０巷","ALLEY":" ","HOUSE_NO":"２號","E_COORD97":183647.5,"N_COORD97":2569477.54,"ADDRESS":"珊瑚路２０巷２號","OBJECTID":358656},"geometry":{"x":183647.5,"y":2569477.5399999991}},{"attributes":{"ID":358667,"DIS_CODE":0,"TOWNNAME":"六甲區","LI":"甲南里","LIN":"25鄰","STREET":"珊瑚路","SECT":" ","MAREA":" ","LANE":"２０巷","ALLEY":" ","HOUSE_NO":"４號","E_COORD97":183644.70999999999,"N_COORD97":2569471.4500000002,"ADDRESS":"珊瑚路２０巷４號","OBJECTID":358657},"geometry":{"x":183644.70999999903,"y":2569471.4499999993}},{"attributes":{"ID":358668,"DIS_CODE":0,"TOWNNAME":"六甲區","LI":"甲南里","LIN":"25鄰","STREET":"珊瑚路","SECT":" ","MAREA":" ","LANE":"２０巷","ALLEY":" ","HOUSE_NO":"５號","E_COORD97":183651.57000000001,"N_COORD97":2569424.1800000002,"ADDRESS":"珊瑚路２０巷５號","OBJECTID":358658},"geometry":{"x":183651.57000000123,"y":2569424.1800000016}},{"attributes":{"ID":358669,"DIS_CODE":0,"TOWNNAME":"六甲區","LI":"甲南里","LIN":"25鄰","STREET":"珊瑚路","SECT":" ","MAREA":" ","LANE":"２０巷","ALLEY":" ","HOUSE_NO":"６號","E_COORD97":183644.26999999999,"N_COORD97":2569449.04,"ADDRESS":"珊瑚路２０巷６號","OBJECTID":358659},"geometry":{"x":183644.27000000048,"y":2569449.040000001}},{"attributes":{"ID":358670,"DIS_CODE":0,"TOWNNAME":"六甲區","LI":"甲南里","LIN":"25鄰","STREET":"珊瑚路","SECT":" ","MAREA":" ","LANE":"１２２巷","ALLEY":" ","HOUSE_NO":"２號","E_COORD97":183914.41,"N_COORD97":2569153.4100000001,"ADDRESS":"珊瑚路１２２巷２號","OBJECTID":358660},"geometry":{"x":183914.41000000015,"y":2569153.4100000001}},{"attributes":{"ID":358671,"DIS_CODE":0,"TOWNNAME":"六甲區","LI":"甲南里","LIN":"25鄰","STREET":"珊瑚路","SECT":" ","MAREA":" ","LANE":"１２２巷","ALLEY":" ","HOUSE_NO":"８號","E_COORD97":183893.41,"N_COORD97":2569106.2999999998,"ADDRESS":"珊瑚路１２２巷８號","OBJECTID":358661},"geometry":{"x":183893.41000000108,"y":2569106.3000000026}},{"attributes":{"ID":358672,"DIS_CODE":0,"TOWNNAME":"六甲區","LI":"甲南里","LIN":"25鄰","STREET":"珊瑚路","SECT":" ","MAREA":" ","LANE":"６４巷","ALLEY":" ","HOUSE_NO":"１號","E_COORD97":183753.25,"N_COORD97":2569332.46,"ADDRESS":"珊瑚路６４巷１號","OBJECTID":358662},"geometry":{"x":183753.25000000093,"y":2569332.4600000028}},{"attributes":{"ID":358673,"DIS_CODE":0,"TOWNNAME":"六甲區","LI":"甲南里","LIN":"25鄰","STREET":"珊瑚路","SECT":" ","MAREA":" ","LANE":"８６巷","ALLEY":" ","HOUSE_NO":"１０號","E_COORD97":183764.14000000001,"N_COORD97":2569293.1600000001,"ADDRESS":"珊瑚路８６巷１０號","OBJECTID":358663},"geometry":{"x":183764.1400000006,"y":2569293.160000002}},{"attributes":{"ID":358674,"DIS_CODE":0,"TOWNNAME":"六甲區","LI":"甲南里","LIN":"25鄰","STREET":"珊瑚路","SECT":" ","MAREA":" ","LANE":"８６巷","ALLEY":" ","HOUSE_NO":"１２號","E_COORD97":183760.92999999999,"N_COORD97":2569297.5,"ADDRESS":"珊瑚路８６巷１２號","OBJECTID":358664},"geometry":{"x":183760.9299999997,"y":2569297.5000000019}},{"attributes":{"ID":358675,"DIS_CODE":0,"TOWNNAME":"六甲區","LI":"甲南里","LIN":"25鄰","STREET":"珊瑚路","SECT":" ","MAREA":" ","LANE":"８６巷","ALLEY":" ","HOUSE_NO":"１３號","E_COORD97":183758.79999999999,"N_COORD97":2569268.9900000002,"ADDRESS":"珊瑚路８６巷１３號","OBJECTID":358665},"geometry":{"x":183758.79999999981,"y":2569268.9900000002}},{"attributes":{"ID":358676,"DIS_CODE":0,"TOWNNAME":"六甲區","LI":"甲南里","LIN":"25鄰","STREET":"珊瑚路","SECT":" ","MAREA":" ","LANE":"８６巷","ALLEY":" ","HOUSE_NO":"１５號","E_COORD97":183754.59,"N_COORD97":2569271.7200000002,"ADDRESS":"珊瑚路８６巷１５號","OBJECTID":358666},"geometry":{"x":183754.59000000078,"y":2569271.7200000044}},{"attributes":{"ID":358677,"DIS_CODE":0,"TOWNNAME":"六甲區","LI":"甲南里","LIN":"25鄰","STREET":"珊瑚路","SECT":" ","MAREA":" ","LANE":"８６巷","ALLEY":" ","HOUSE_NO":"１６號","E_COORD97":183756.95999999999,"N_COORD97":2569301.5,"ADDRESS":"珊瑚路８６巷１６號","OBJECTID":358667},"geometry":{"x":183756.96000000089,"y":2569301.5}},{"attributes":{"ID":358678,"DIS_CODE":0,"TOWNNAME":"六甲區","LI":"甲南里","LIN":"25鄰","STREET":"珊瑚路","SECT":" ","MAREA":" ","LANE":"８６巷","ALLEY":" ","HOUSE_NO":"１７號","E_COORD97":183751.29000000001,"N_COORD97":2569276.4399999999,"ADDRESS":"珊瑚路８６巷１７號","OBJECTID":358668},"geometry":{"x":183751.2900000019,"y":2569276.4400000013}},{"attributes":{"ID":358679,"DIS_CODE":0,"TOWNNAME":"南區","LI":"開南里","LIN":"19鄰","STREET":"新建路","SECT":" ","MAREA":" ","LANE":"３９巷","ALLEY":" ","HOUSE_NO":"２號","E_COORD97":166481.63,"N_COORD97":2541015.5699999998,"ADDRESS":"新建路３９巷２號","OBJECTID":358669},"geometry":{"x":166481.63000000175,"y":2541015.5700000003}},{"attributes":{"ID":358680,"DIS_CODE":0,"TOWNNAME":"南區","LI":"開南里","LIN":"19鄰","STREET":"新建路","SECT":" ","MAREA":" ","LANE":"３９巷","ALLEY":" ","HOUSE_NO":"３號","E_COORD97":166634.19,"N_COORD97":2541084.9300000002,"ADDRESS":"新建路３９巷３號","OBJECTID":358670},"geometry":{"x":166634.19000000227,"y":2541084.9300000034}},{"attributes":{"ID":358681,"DIS_CODE":0,"TOWNNAME":"中西區","LI":"三合里","LIN":"8鄰","STREET":"成功路","SECT":" ","MAREA":" ","LANE":" ","ALLEY":" ","HOUSE_NO":"４５３號十一樓之５","E_COORD97":167642.97,"N_COORD97":2544635.1600000001,"ADDRESS":"成功路４５３號十一樓之５","OBJECTID":358671},"geometry":{"x":167642.96999999974,"y":2544635.160000002}},{"attributes":{"ID":358682,"DIS_CODE":0,"TOWNNAME":"中西區","LI":"三合里","LIN":"8鄰","STREET":"成功路","SECT":" ","MAREA":" ","LANE":" ","ALLEY":" ","HOUSE_NO":"４５３號十一樓之６","E_COORD97":167642.97,"N_COORD97":2544635.1600000001,"ADDRESS":"成功路４５３號十一樓之６","OBJECTID":358672},"geometry":{"x":167642.96999999974,"y":2544635.160000002}},{"attributes":{"ID":358683,"DIS_CODE":0,"TOWNNAME":"中西區","LI":"三合里","LIN":"8鄰","STREET":"成功路","SECT":" ","MAREA":" ","LANE":" ","ALLEY":" ","HOUSE_NO":"４５３號十一樓之７","E_COORD97":167642.97,"N_COORD97":2544635.1600000001,"ADDRESS":"成功路４５３號十一樓之７","OBJECTID":358673},"geometry":{"x":167642.96999999974,"y":2544635.160000002}},{"attributes":{"ID":358684,"DIS_CODE":0,"TOWNNAME":"中西區","LI":"三合里","LIN":"8鄰","STREET":"成功路","SECT":" ","MAREA":" ","LANE":" ","ALLEY":" ","HOUSE_NO":"４５３號十一樓之８","E_COORD97":167642.97,"N_COORD97":2544635.1600000001,"ADDRESS":"成功路４５３號十一樓之８","OBJECTID":358674},"geometry":{"x":167642.96999999974,"y":2544635.160000002}},{"attributes":{"ID":358685,"DIS_CODE":0,"TOWNNAME":"中西區","LI":"三合里","LIN":"8鄰","STREET":"成功路","SECT":" ","MAREA":" ","LANE":" ","ALLEY":" ","HOUSE_NO":"４５３號十二樓之１","E_COORD97":167642.97,"N_COORD97":2544635.1600000001,"ADDRESS":"成功路４５３號十二樓之１","OBJECTID":358675},"geometry":{"x":167642.96999999974,"y":2544635.160000002}},{"attributes":{"ID":358686,"DIS_CODE":0,"TOWNNAME":"中西區","LI":"三合里","LIN":"8鄰","STREET":"成功路","SECT":" ","MAREA":" ","LANE":" ","ALLEY":" ","HOUSE_NO":"４５３號十二樓之２","E_COORD97":167642.97,"N_COORD97":2544635.1600000001,"ADDRESS":"成功路４５３號十二樓之２","OBJECTID":358676},"geometry":{"x":167642.96999999974,"y":2544635.160000002}},{"attributes":{"ID":358687,"DIS_CODE":0,"TOWNNAME":"中西區","LI":"三合里","LIN":"8鄰","STREET":"成功路","SECT":" ","MAREA":" ","LANE":" ","ALLEY":" ","HOUSE_NO":"４５３號十二樓之３","E_COORD97":167642.97,"N_COORD97":2544635.1600000001,"ADDRESS":"成功路４５３號十二樓之３","OBJECTID":358677},"geometry":{"x":167642.96999999974,"y":2544635.160000002}},{"attributes":{"ID":358688,"DIS_CODE":0,"TOWNNAME":"中西區","LI":"三合里","LIN":"8鄰","STREET":"成功路","SECT":" ","MAREA":" ","LANE":" ","ALLEY":" ","HOUSE_NO":"４５３號十二樓之５","E_COORD97":167642.97,"N_COORD97":2544635.1600000001,"ADDRESS":"成功路４５３號十二樓之５","OBJECTID":358678},"geometry":{"x":167642.96999999974,"y":2544635.160000002}},{"attributes":{"ID":358689,"DIS_CODE":0,"TOWNNAME":"中西區","LI":"三合里","LIN":"8鄰","STREET":"成功路","SECT":" ","MAREA":" ","LANE":" ","ALLEY":" ","HOUSE_NO":"４５３號十二樓之６","E_COORD97":167642.97,"N_COORD97":2544635.1600000001,"ADDRESS":"成功路４５３號十二樓之６","OBJECTID":358679},"geometry":{"x":167642.96999999974,"y":2544635.160000002}},{"attributes":{"ID":358690,"DIS_CODE":0,"TOWNNAME":"中西區","LI":"三合里","LIN":"8鄰","STREET":"成功路","SECT":" ","MAREA":" ","LANE":" ","ALLEY":" ","HOUSE_NO":"４５３號十二樓之７","E_COORD97":167642.97,"N_COORD97":2544635.1600000001,"ADDRESS":"成功路４５３號十二樓之７","OBJECTID":358680},"geometry":{"x":167642.96999999974,"y":2544635.160000002}},{"attributes":{"ID":358691,"DIS_CODE":0,"TOWNNAME":"中西區","LI":"三合里","LIN":"8鄰","STREET":"成功路","SECT":" ","MAREA":" ","LANE":" ","ALLEY":" ","HOUSE_NO":"４５３號十二樓之８","E_COORD97":167642.97,"N_COORD97":2544635.1600000001,"ADDRESS":"成功路４５３號十二樓之８","OBJECTID":358681},"geometry":{"x":167642.96999999974,"y":2544635.160000002}},{"attributes":{"ID":358692,"DIS_CODE":0,"TOWNNAME":"六甲區","LI":"甲南里","LIN":"25鄰","STREET":"珊瑚路","SECT":" ","MAREA":" ","LANE":"８６巷","ALLEY":" ","HOUSE_NO":"１８號","E_COORD97":183754.51999999999,"N_COORD97":2569304.71,"ADDRESS":"珊瑚路８６巷１８號","OBJECTID":358682},"geometry":{"x":183754.52000000048,"y":2569304.7100000009}},{"attributes":{"ID":358693,"DIS_CODE":0,"TOWNNAME":"新營區","LI":"新北里","LIN":"19鄰","STREET":"民生路","SECT":" ","MAREA":" ","LANE":"２２６巷","ALLEY":" ","HOUSE_NO":"３４之１號","E_COORD97":179102.63,"N_COORD97":2579064.3300000001,"ADDRESS":"民生路２２６巷３４之１號","OBJECTID":358683},"geometry":{"x":179102.63000000082,"y":2579064.3300000001}},{"attributes":{"ID":358694,"DIS_CODE":0,"TOWNNAME":"新營區","LI":"新北里","LIN":"19鄰","STREET":"民生路","SECT":" ","MAREA":" ","LANE":"２２６巷","ALLEY":" ","HOUSE_NO":"３２號","E_COORD97":179104.23999999999,"N_COORD97":2579069.7999999998,"ADDRESS":"民生路２２６巷３２號","OBJECTID":358684},"geometry":{"x":179104.24000000115,"y":2579069.8000000026}},{"attributes":{"ID":358695,"DIS_CODE":0,"TOWNNAME":"新營區","LI":"新北里","LIN":"19鄰","STREET":"民生路","SECT":" ","MAREA":" ","LANE":"２０８巷","ALLEY":" ","HOUSE_NO":"２６號","E_COORD97":179148.17999999999,"N_COORD97":2579065.1600000001,"ADDRESS":"民生路２０８巷２６號","OBJECTID":358685},"geometry":{"x":179148.18000000063,"y":2579065.1600000001}},{"attributes":{"ID":358696,"DIS_CODE":0,"TOWNNAME":"楠西區","LI":"楠西里","LIN":"19鄰","STREET":"中正路","SECT":" ","MAREA":" ","LANE":"９６巷","ALLEY":" ","HOUSE_NO":"６號之１","E_COORD97":197245.04999999999,"N_COORD97":2563966.2999999998,"ADDRESS":"中正路９６巷６號之１","OBJECTID":358686},"geometry":{"x":197245.05000000075,"y":2563966.3000000026}},{"attributes":{"ID":358697,"DIS_CODE":0,"TOWNNAME":"永康區","LI":"永康里","LIN":"19鄰","STREET":"永中街","SECT":" ","MAREA":" ","LANE":"１３８巷","ALLEY":" ","HOUSE_NO":"１號","E_COORD97":173999.64999999999,"N_COORD97":2547274.3500000001,"ADDRESS":"永中街１３８巷１號","OBJECTID":358687},"geometry":{"x":173999.65000000037,"y":2547274.3500000015}},{"attributes":{"ID":358698,"DIS_CODE":0,"TOWNNAME":"永康區","LI":"永康里","LIN":"19鄰","STREET":"永中街","SECT":" ","MAREA":" ","LANE":"１６６巷","ALLEY":" ","HOUSE_NO":"２６號","E_COORD97":174072.17000000001,"N_COORD97":2547265.98,"ADDRESS":"永中街１６６巷２６號","OBJECTID":358688},"geometry":{"x":174072.16999999993,"y":2547265.9800000042}},{"attributes":{"ID":358699,"DIS_CODE":0,"TOWNNAME":"南區","LI":"再興里","LIN":"19鄰","STREET":"新慶街","SECT":" ","MAREA":" ","LANE":"３３巷","ALLEY":" ","HOUSE_NO":"３０號","E_COORD97":167210.19,"N_COORD97":2542240.96,"ADDRESS":"新慶街３３巷３０號","OBJECTID":358689},"geometry":{"x":167210.19000000041,"y":2542240.9600000009}},{"attributes":{"ID":358700,"DIS_CODE":0,"TOWNNAME":"南區","LI":"再興里","LIN":"19鄰","STREET":"新慶街","SECT":" ","MAREA":" ","LANE":"３３巷","ALLEY":" ","HOUSE_NO":"３１號","E_COORD97":167214.79999999999,"N_COORD97":2542215,"ADDRESS":"新慶街３３巷３１號","OBJECTID":358690},"geometry":{"x":167214.80000000075,"y":2542215.0000000019}},{"attributes":{"ID":358701,"DIS_CODE":0,"TOWNNAME":"南區","LI":"再興里","LIN":"19鄰","STREET":"新慶街","SECT":" ","MAREA":" ","LANE":"３３巷","ALLEY":" ","HOUSE_NO":"３２號","E_COORD97":167208.72,"N_COORD97":2542236.46,"ADDRESS":"新慶街３３巷３２號","OBJECTID":358691},"geometry":{"x":167208.72000000067,"y":2542236.4600000028}},{"attributes":{"ID":358702,"DIS_CODE":0,"TOWNNAME":"南區","LI":"再興里","LIN":"19鄰","STREET":"新慶街","SECT":" ","MAREA":" ","LANE":"３３巷","ALLEY":" ","HOUSE_NO":"３３號","E_COORD97":167212.70000000001,"N_COORD97":2542208.7200000002,"ADDRESS":"新慶街３３巷３３號","OBJECTID":358692},"geometry":{"x":167212.70000000112,"y":2542208.7200000007}},{"attributes":{"ID":358703,"DIS_CODE":0,"TOWNNAME":"南區","LI":"再興里","LIN":"19鄰","STREET":"新慶街","SECT":" ","MAREA":" ","LANE":"３３巷","ALLEY":" ","HOUSE_NO":"３４號","E_COORD97":167207.57000000001,"N_COORD97":2542231.8599999999,"ADDRESS":"新慶街３３巷３４號","OBJECTID":358693},"geometry":{"x":167207.5700000003,"y":2542231.8600000013}},{"attributes":{"ID":358704,"DIS_CODE":0,"TOWNNAME":"南區","LI":"再興里","LIN":"19鄰","STREET":"新慶街","SECT":" ","MAREA":" ","LANE":"３３巷","ALLEY":" ","HOUSE_NO":"３５號","E_COORD97":167210.92000000001,"N_COORD97":2542203.2799999998,"ADDRESS":"新慶街３３巷３５號","OBJECTID":358694},"geometry":{"x":167210.92000000086,"y":2542203.2799999993}},{"attributes":{"ID":358705,"DIS_CODE":0,"TOWNNAME":"南區","LI":"再興里","LIN":"19鄰","STREET":"新慶街","SECT":" ","MAREA":" ","LANE":"３３巷","ALLEY":" ","HOUSE_NO":"３６號","E_COORD97":167206.20999999999,"N_COORD97":2542228.2999999998,"ADDRESS":"新慶街３３巷３６號","OBJECTID":358695},"geometry":{"x":167206.20999999996,"y":2542228.3000000007}},{"attributes":{"ID":358706,"DIS_CODE":0,"TOWNNAME":"南區","LI":"再興里","LIN":"19鄰","STREET":"新慶街","SECT":" ","MAREA":" ","LANE":"３３巷","ALLEY":" ","HOUSE_NO":"３８號","E_COORD97":167204.63,"N_COORD97":2542224.21,"ADDRESS":"新慶街３３巷３８號","OBJECTID":358696},"geometry":{"x":167204.62999999989,"y":2542224.2100000028}},{"attributes":{"ID":358707,"DIS_CODE":0,"TOWNNAME":"南區","LI":"再興里","LIN":"19鄰","STREET":"新慶街","SECT":" ","MAREA":" ","LANE":"３３巷","ALLEY":" ","HOUSE_NO":"４２號","E_COORD97":167201.17999999999,"N_COORD97":2542216.6800000002,"ADDRESS":"新慶街３３巷４２號","OBJECTID":358697},"geometry":{"x":167201.1799999997,"y":2542216.6800000016}},{"attributes":{"ID":358708,"DIS_CODE":0,"TOWNNAME":"南區","LI":"再興里","LIN":"19鄰","STREET":"新慶街","SECT":" ","MAREA":" ","LANE":"３３巷","ALLEY":" ","HOUSE_NO":"４６號","E_COORD97":167197.82000000001,"N_COORD97":2542209.5600000001,"ADDRESS":"新慶街３３巷４６號","OBJECTID":358698},"geometry":{"x":167197.82000000216,"y":2542209.5600000005}},{"attributes":{"ID":358709,"DIS_CODE":0,"TOWNNAME":"永康區","LI":"埔園里","LIN":"19鄰","STREET":"四維街","SECT":" ","MAREA":" ","LANE":"１４０巷","ALLEY":" ","HOUSE_NO":"２７號","E_COORD97":173401.89999999999,"N_COORD97":2548334.2400000002,"ADDRESS":"四維街１４０巷２７號","OBJECTID":358699},"geometry":{"x":173401.9000000013,"y":2548334.2400000002}},{"attributes":{"ID":358710,"DIS_CODE":0,"TOWNNAME":"中西區","LI":"仙草里","LIN":"19鄰","STREET":"健康路","SECT":"一段","MAREA":" ","LANE":"３９０巷","ALLEY":" ","HOUSE_NO":"４２號","E_COORD97":167856.04999999999,"N_COORD97":2542556.3799999999,"ADDRESS":"健康路一段３９０巷４２號","OBJECTID":358700},"geometry":{"x":167856.04999999981,"y":2542556.3800000008}},{"attributes":{"ID":358711,"DIS_CODE":0,"TOWNNAME":"永康區","LI":"復興里","LIN":"19鄰","STREET":"復興路","SECT":" ","MAREA":" ","LANE":"３５６巷","ALLEY":" ","HOUSE_NO":"３４號","E_COORD97":172290.12,"N_COORD97":2544426.27,"ADDRESS":"復興路３５６巷３４號","OBJECTID":358701},"geometry":{"x":172290.12000000104,"y":2544426.2700000014}},{"attributes":{"ID":358712,"DIS_CODE":0,"TOWNNAME":"中西區","LI":"三合里","LIN":"8鄰","STREET":"成功路","SECT":" ","MAREA":" ","LANE":" ","ALLEY":" ","HOUSE_NO":"４５３號十三樓之１","E_COORD97":167642.97,"N_COORD97":2544635.1600000001,"ADDRESS":"成功路４５３號十三樓之１","OBJECTID":358702},"geometry":{"x":167642.96999999974,"y":2544635.160000002}},{"attributes":{"ID":358713,"DIS_CODE":0,"TOWNNAME":"柳營區","LI":"光福里","LIN":"25鄰","STREET":" ","SECT":" ","MAREA":"柳營","LANE":" ","ALLEY":" ","HOUSE_NO":"１３２之３８號","E_COORD97":179930.91,"N_COORD97":2574408.46,"ADDRESS":"柳營１３２之３８號","OBJECTID":358703},"geometry":{"x":179930.91000000015,"y":2574408.4600000009}},{"attributes":{"ID":358714,"DIS_CODE":0,"TOWNNAME":"柳營區","LI":"光福里","LIN":"25鄰","STREET":" ","SECT":" ","MAREA":"柳營","LANE":" ","ALLEY":" ","HOUSE_NO":"１３２之３９號","E_COORD97":179939.72,"N_COORD97":2574450.3500000001,"ADDRESS":"柳營１３２之３９號","OBJECTID":358704},"geometry":{"x":179939.71999999974,"y":2574450.3500000034}},{"attributes":{"ID":358715,"DIS_CODE":0,"TOWNNAME":"東區","LI":"崇德里","LIN":"19鄰","STREET":"崇明十三街","SECT":" ","MAREA":" ","LANE":"１１巷","ALLEY":" ","HOUSE_NO":"１０１號","E_COORD97":170566.16,"N_COORD97":2541737.8700000001,"ADDRESS":"崇明十三街１１巷１０１號","OBJECTID":358705},"geometry":{"x":170566.16000000015,"y":2541737.8700000048}},{"attributes":{"ID":358716,"DIS_CODE":0,"TOWNNAME":"東區","LI":"莊敬里","LIN":"19鄰","STREET":"莊敬路","SECT":" ","MAREA":" ","LANE":"１８１巷","ALLEY":" ","HOUSE_NO":"１３號","E_COORD97":171320.95000000001,"N_COORD97":2544096.1600000001,"ADDRESS":"莊敬路１８１巷１３號","OBJECTID":358706},"geometry":{"x":171320.95000000019,"y":2544096.160000002}},{"attributes":{"ID":358717,"DIS_CODE":0,"TOWNNAME":"東區","LI":"莊敬里","LIN":"19鄰","STREET":"莊敬路","SECT":" ","MAREA":" ","LANE":"１８１巷","ALLEY":" ","HOUSE_NO":"１５號","E_COORD97":171317.04000000001,"N_COORD97":2544097.9199999999,"ADDRESS":"莊敬路１８１巷１５號","OBJECTID":358707},"geometry":{"x":171317.0400000019,"y":2544097.9199999999}},{"attributes":{"ID":358718,"DIS_CODE":0,"TOWNNAME":"東區","LI":"莊敬里","LIN":"19鄰","STREET":"莊敬路","SECT":" ","MAREA":" ","LANE":"１８１巷","ALLEY":" ","HOUSE_NO":"１７號","E_COORD97":171312.95000000001,"N_COORD97":2544096.9900000002,"ADDRESS":"莊敬路１８１巷１７號","OBJECTID":358708},"geometry":{"x":171312.95000000112,"y":2544096.9900000021}},{"attributes":{"ID":358719,"DIS_CODE":0,"TOWNNAME":"東區","LI":"莊敬里","LIN":"19鄰","STREET":"莊敬路","SECT":" ","MAREA":" ","LANE":"１８１巷","ALLEY":" ","HOUSE_NO":"１９號","E_COORD97":171308.76999999999,"N_COORD97":2544098.0099999998,"ADDRESS":"莊敬路１８１巷１９號","OBJECTID":358709},"geometry":{"x":171308.77000000048,"y":2544098.0099999998}},{"attributes":{"ID":358720,"DIS_CODE":0,"TOWNNAME":"東區","LI":"莊敬里","LIN":"19鄰","STREET":"莊敬路","SECT":" ","MAREA":" ","LANE":"１８１巷","ALLEY":" ","HOUSE_NO":"１號","E_COORD97":171344.75,"N_COORD97":2544091.5099999998,"ADDRESS":"莊敬路１８１巷１號","OBJECTID":358710},"geometry":{"x":171344.75000000093,"y":2544091.5099999979}},{"attributes":{"ID":358721,"DIS_CODE":0,"TOWNNAME":"東區","LI":"莊敬里","LIN":"19鄰","STREET":"莊敬路","SECT":" ","MAREA":" ","LANE":"１８１巷","ALLEY":" ","HOUSE_NO":"２３號","E_COORD97":171300.76999999999,"N_COORD97":2544099.1299999999,"ADDRESS":"莊敬路１８１巷２３號","OBJECTID":358711},"geometry":{"x":171300.76999999955,"y":2544099.129999999}},{"attributes":{"ID":358722,"DIS_CODE":0,"TOWNNAME":"善化區","LI":"文昌里","LIN":"19鄰","STREET":"中正路","SECT":" ","MAREA":" ","LANE":"２４６巷","ALLEY":" ","HOUSE_NO":"９號","E_COORD97":177761.87,"N_COORD97":2558373.25,"ADDRESS":"中正路２４６巷９號","OBJECTID":358712},"geometry":{"x":177761.87000000104,"y":2558373.25}},{"attributes":{"ID":358723,"DIS_CODE":0,"TOWNNAME":"永康區","LI":"網寮里","LIN":"19鄰","STREET":"永大一路","SECT":" ","MAREA":" ","LANE":"３８０巷","ALLEY":" ","HOUSE_NO":"７號","E_COORD97":173480.32000000001,"N_COORD97":2546182.6200000001,"ADDRESS":"永大一路３８０巷７號","OBJECTID":358713},"geometry":{"x":173480.32000000123,"y":2546182.620000001}},{"attributes":{"ID":358724,"DIS_CODE":0,"TOWNNAME":"永康區","LI":"復國里","LIN":"19鄰","STREET":"復國一路","SECT":" ","MAREA":" ","LANE":"３６２巷","ALLEY":" ","HOUSE_NO":"１８號","E_COORD97":172821.92000000001,"N_COORD97":2545769.6499999999,"ADDRESS":"復國一路３６２巷１８號","OBJECTID":358714},"geometry":{"x":172821.92000000086,"y":2545769.6500000041}},{"attributes":{"ID":358725,"DIS_CODE":0,"TOWNNAME":"永康區","LI":"復國里","LIN":"19鄰","STREET":"復國一路","SECT":" ","MAREA":" ","LANE":"３６２巷","ALLEY":" ","HOUSE_NO":"８號","E_COORD97":172800.48000000001,"N_COORD97":2545770.1499999999,"ADDRESS":"復國一路３６２巷８號","OBJECTID":358715},"geometry":{"x":172800.48000000045,"y":2545770.1500000022}},{"attributes":{"ID":358726,"DIS_CODE":0,"TOWNNAME":"永康區","LI":"二王里","LIN":"19鄰","STREET":"中山南路","SECT":" ","MAREA":" ","LANE":"６４４巷","ALLEY":" ","HOUSE_NO":"２７號","E_COORD97":172408.54999999999,"N_COORD97":2546586.8999999999,"ADDRESS":"中山南路６４４巷２７號","OBJECTID":358716},"geometry":{"x":172408.55000000075,"y":2546586.9000000004}},{"attributes":{"ID":358727,"DIS_CODE":0,"TOWNNAME":"安南區","LI":"幸福里","LIN":"19鄰","STREET":"府安路","SECT":"六段","MAREA":" ","LANE":"７巷","ALLEY":" ","HOUSE_NO":"２０號","E_COORD97":167156.62,"N_COORD97":2546786.6499999999,"ADDRESS":"府安路六段７巷２０號","OBJECTID":358717},"geometry":{"x":167156.62000000197,"y":2546786.6500000041}},{"attributes":{"ID":358728,"DIS_CODE":0,"TOWNNAME":"安南區","LI":"幸福里","LIN":"19鄰","STREET":"府安路","SECT":"六段","MAREA":" ","LANE":"７巷","ALLEY":" ","HOUSE_NO":"２１號","E_COORD97":167122.67999999999,"N_COORD97":2546782.96,"ADDRESS":"府安路六段７巷２１號","OBJECTID":358718},"geometry":{"x":167122.6799999997,"y":2546782.9600000028}},{"attributes":{"ID":358729,"DIS_CODE":0,"TOWNNAME":"安南區","LI":"幸福里","LIN":"19鄰","STREET":"府安路","SECT":"六段","MAREA":" ","LANE":"７巷","ALLEY":" ","HOUSE_NO":"２２號","E_COORD97":167162.67999999999,"N_COORD97":2546790.0099999998,"ADDRESS":"府安路六段７巷２２號","OBJECTID":358719},"geometry":{"x":167162.68000000063,"y":2546790.0099999998}},{"attributes":{"ID":358730,"DIS_CODE":0,"TOWNNAME":"安南區","LI":"幸福里","LIN":"19鄰","STREET":"府安路","SECT":"六段","MAREA":" ","LANE":"７巷","ALLEY":" ","HOUSE_NO":"２３號","E_COORD97":167116.57999999999,"N_COORD97":2546778.3700000001,"ADDRESS":"府安路六段７巷２３號","OBJECTID":358720},"geometry":{"x":167116.58000000101,"y":2546778.370000001}},{"attributes":{"ID":358731,"DIS_CODE":0,"TOWNNAME":"安南區","LI":"幸福里","LIN":"19鄰","STREET":"府安路","SECT":"六段","MAREA":" ","LANE":"７巷","ALLEY":" ","HOUSE_NO":"２４號","E_COORD97":167169.98000000001,"N_COORD97":2546788.1299999999,"ADDRESS":"府安路六段７巷２４號","OBJECTID":358721},"geometry":{"x":167169.98000000138,"y":2546788.129999999}},{"attributes":{"ID":358732,"DIS_CODE":0,"TOWNNAME":"安南區","LI":"幸福里","LIN":"19鄰","STREET":"府安路","SECT":"六段","MAREA":" ","LANE":"７巷","ALLEY":" ","HOUSE_NO":"２６號","E_COORD97":167164.66,"N_COORD97":2546812.1000000001,"ADDRESS":"府安路六段７巷２６號","OBJECTID":358722},"geometry":{"x":167164.65999999922,"y":2546812.0999999996}},{"attributes":{"ID":358733,"DIS_CODE":0,"TOWNNAME":"安南區","LI":"幸福里","LIN":"19鄰","STREET":"府安路","SECT":"六段","MAREA":" ","LANE":"７巷","ALLEY":" ","HOUSE_NO":"２７號","E_COORD97":167119.20999999999,"N_COORD97":2546803.1699999999,"ADDRESS":"府安路六段７巷２７號","OBJECTID":358723},"geometry":{"x":167119.21000000089,"y":2546803.1700000037}},{"attributes":{"ID":358734,"DIS_CODE":0,"TOWNNAME":"安南區","LI":"幸福里","LIN":"19鄰","STREET":"府安路","SECT":"六段","MAREA":" ","LANE":"７巷","ALLEY":" ","HOUSE_NO":"２９號","E_COORD97":167125.48999999999,"N_COORD97":2546804.1299999999,"ADDRESS":"府安路六段７巷２９號","OBJECTID":358724},"geometry":{"x":167125.49000000115,"y":2546804.129999999}},{"attributes":{"ID":358735,"DIS_CODE":0,"TOWNNAME":"安南區","LI":"幸福里","LIN":"19鄰","STREET":"府安路","SECT":"六段","MAREA":" ","LANE":"７巷","ALLEY":" ","HOUSE_NO":"２號","E_COORD97":167157.13,"N_COORD97":2546750.3500000001,"ADDRESS":"府安路六段７巷２號","OBJECTID":358725},"geometry":{"x":167157.12999999989,"y":2546750.3499999996}},{"attributes":{"ID":358736,"DIS_CODE":0,"TOWNNAME":"安南區","LI":"幸福里","LIN":"19鄰","STREET":"府安路","SECT":"六段","MAREA":" ","LANE":"７巷","ALLEY":" ","HOUSE_NO":"３０號","E_COORD97":167151.72,"N_COORD97":2546810.6499999999,"ADDRESS":"府安路六段７巷３０號","OBJECTID":358726},"geometry":{"x":167151.71999999974,"y":2546810.6500000041}},{"attributes":{"ID":358737,"DIS_CODE":0,"TOWNNAME":"安南區","LI":"幸福里","LIN":"19鄰","STREET":"府安路","SECT":"六段","MAREA":" ","LANE":"７巷","ALLEY":" ","HOUSE_NO":"３１號","E_COORD97":167131.42000000001,"N_COORD97":2546805.5800000001,"ADDRESS":"府安路六段７巷３１號","OBJECTID":358727},"geometry":{"x":167131.41999999993,"y":2546805.5800000019}},{"attributes":{"ID":358738,"DIS_CODE":0,"TOWNNAME":"安南區","LI":"幸福里","LIN":"19鄰","STREET":"府安路","SECT":"六段","MAREA":" ","LANE":"７巷","ALLEY":" ","HOUSE_NO":"３２號","E_COORD97":167145.32000000001,"N_COORD97":2546809.6899999999,"ADDRESS":"府安路六段７巷３２號","OBJECTID":358728},"geometry":{"x":167145.32000000123,"y":2546809.6900000013}},{"attributes":{"ID":358739,"DIS_CODE":0,"TOWNNAME":"安南區","LI":"幸福里","LIN":"19鄰","STREET":"府安路","SECT":"六段","MAREA":" ","LANE":"７巷","ALLEY":" ","HOUSE_NO":"３３號","E_COORD97":167128.64000000001,"N_COORD97":2546816.9399999999,"ADDRESS":"府安路六段７巷３３號","OBJECTID":358729},"geometry":{"x":167128.63999999873,"y":2546816.9399999995}},{"attributes":{"ID":358740,"DIS_CODE":0,"TOWNNAME":"安南區","LI":"幸福里","LIN":"19鄰","STREET":"府安路","SECT":"六段","MAREA":" ","LANE":"７巷","ALLEY":" ","HOUSE_NO":"３５號","E_COORD97":167121.87,"N_COORD97":2546817.8999999999,"ADDRESS":"府安路六段７巷３５號","OBJECTID":358730},"geometry":{"x":167121.87000000011,"y":2546817.9000000004}},{"attributes":{"ID":358741,"DIS_CODE":0,"TOWNNAME":"安南區","LI":"幸福里","LIN":"19鄰","STREET":"府安路","SECT":"六段","MAREA":" ","LANE":"７巷","ALLEY":" ","HOUSE_NO":"３６號","E_COORD97":167149.06,"N_COORD97":2546824.1800000002,"ADDRESS":"府安路六段７巷３６號","OBJECTID":358731},"geometry":{"x":167149.05999999959,"y":2546824.1800000016}},{"attributes":{"ID":358742,"DIS_CODE":0,"TOWNNAME":"安南區","LI":"幸福里","LIN":"19鄰","STREET":"府安路","SECT":"六段","MAREA":" ","LANE":"７巷","ALLEY":" ","HOUSE_NO":"３８號","E_COORD97":167156.07999999999,"N_COORD97":2546821.4100000001,"ADDRESS":"府安路六段７巷３８號","OBJECTID":358732},"geometry":{"x":167156.08000000007,"y":2546821.4100000001}},{"attributes":{"ID":358743,"DIS_CODE":0,"TOWNNAME":"柳營區","LI":"光福里","LIN":"25鄰","STREET":"柳營路","SECT":"一段","MAREA":" ","LANE":"６６２巷","ALLEY":" ","HOUSE_NO":"９１號","E_COORD97":180063.20999999999,"N_COORD97":2574543.3900000001,"ADDRESS":"柳營路一段６６２巷９１號","OBJECTID":358733},"geometry":{"x":180063.21000000089,"y":2574543.3900000025}},{"attributes":{"ID":358744,"DIS_CODE":0,"TOWNNAME":"南區","LI":"金華里","LIN":"25鄰","STREET":"惠南街","SECT":" ","MAREA":" ","LANE":"１０９巷","ALLEY":" ","HOUSE_NO":"１０號","E_COORD97":166688.72,"N_COORD97":2542354.52,"ADDRESS":"惠南街１０９巷１０號","OBJECTID":358734},"geometry":{"x":166688.71999999974,"y":2542354.5199999996}},{"attributes":{"ID":358745,"DIS_CODE":0,"TOWNNAME":"南區","LI":"金華里","LIN":"25鄰","STREET":"惠南街","SECT":" ","MAREA":" ","LANE":"１０９巷","ALLEY":" ","HOUSE_NO":"１２號","E_COORD97":166682.67000000001,"N_COORD97":2542354.02,"ADDRESS":"惠南街１０９巷１２號","OBJECTID":358735},"geometry":{"x":166682.66999999993,"y":2542354.0199999996}},{"attributes":{"ID":358746,"DIS_CODE":0,"TOWNNAME":"南區","LI":"金華里","LIN":"25鄰","STREET":"惠南街","SECT":" ","MAREA":" ","LANE":"１０９巷","ALLEY":" ","HOUSE_NO":"１４號","E_COORD97":166678.17999999999,"N_COORD97":2542353.21,"ADDRESS":"惠南街１０９巷１４號","OBJECTID":358736},"geometry":{"x":166678.18000000063,"y":2542353.2100000028}},{"attributes":{"ID":358747,"DIS_CODE":0,"TOWNNAME":"南區","LI":"金華里","LIN":"25鄰","STREET":"惠南街","SECT":" ","MAREA":" ","LANE":"１０９巷","ALLEY":" ","HOUSE_NO":"１６號","E_COORD97":166673.94,"N_COORD97":2542352.3399999999,"ADDRESS":"惠南街１０９巷１６號","OBJECTID":358737},"geometry":{"x":166673.94000000134,"y":2542352.3399999999}},{"attributes":{"ID":358748,"DIS_CODE":0,"TOWNNAME":"南區","LI":"金華里","LIN":"25鄰","STREET":"惠南街","SECT":" ","MAREA":" ","LANE":"１０９巷","ALLEY":" ","HOUSE_NO":"１８號","E_COORD97":166667.70000000001,"N_COORD97":2542351.5299999998,"ADDRESS":"惠南街１０９巷１８號","OBJECTID":358738},"geometry":{"x":166667.69999999925,"y":2542351.5299999993}},{"attributes":{"ID":358749,"DIS_CODE":0,"TOWNNAME":"中西區","LI":"三合里","LIN":"8鄰","STREET":"成功路","SECT":" ","MAREA":" ","LANE":" ","ALLEY":" ","HOUSE_NO":"４５３號十三樓之２","E_COORD97":167642.97,"N_COORD97":2544635.1600000001,"ADDRESS":"成功路４５３號十三樓之２","OBJECTID":358739},"geometry":{"x":167642.96999999974,"y":2544635.160000002}},{"attributes":{"ID":358750,"DIS_CODE":0,"TOWNNAME":"中西區","LI":"三合里","LIN":"8鄰","STREET":"成功路","SECT":" ","MAREA":" ","LANE":" ","ALLEY":" ","HOUSE_NO":"４５３號十三樓之３","E_COORD97":167642.97,"N_COORD97":2544635.1600000001,"ADDRESS":"成功路４５３號十三樓之３","OBJECTID":358740},"geometry":{"x":167642.96999999974,"y":2544635.160000002}},{"attributes":{"ID":358751,"DIS_CODE":0,"TOWNNAME":"中西區","LI":"三合里","LIN":"8鄰","STREET":"成功路","SECT":" ","MAREA":" ","LANE":" ","ALLEY":" ","HOUSE_NO":"４５３號十三樓之５","E_COORD97":167642.97,"N_COORD97":2544635.1600000001,"ADDRESS":"成功路４５３號十三樓之５","OBJECTID":358741},"geometry":{"x":167642.96999999974,"y":2544635.160000002}},{"attributes":{"ID":358752,"DIS_CODE":0,"TOWNNAME":"中西區","LI":"三合里","LIN":"8鄰","STREET":"成功路","SECT":" ","MAREA":" ","LANE":" ","ALLEY":" ","HOUSE_NO":"４５３號十三樓之６","E_COORD97":167642.97,"N_COORD97":2544635.1600000001,"ADDRESS":"成功路４５３號十三樓之６","OBJECTID":358742},"geometry":{"x":167642.96999999974,"y":2544635.160000002}},{"attributes":{"ID":358753,"DIS_CODE":0,"TOWNNAME":"中西區","LI":"三合里","LIN":"8鄰","STREET":"成功路","SECT":" ","MAREA":" ","LANE":" ","ALLEY":" ","HOUSE_NO":"４５３號十三樓之７","E_COORD97":167642.97,"N_COORD97":2544635.1600000001,"ADDRESS":"成功路４５３號十三樓之７","OBJECTID":358743},"geometry":{"x":167642.96999999974,"y":2544635.160000002}},{"attributes":{"ID":358754,"DIS_CODE":0,"TOWNNAME":"永康區","LI":"安康里","LIN":"8鄰","STREET":"中山南路","SECT":" ","MAREA":" ","LANE":" ","ALLEY":" ","HOUSE_NO":"１６７號","E_COORD97":171112.26000000001,"N_COORD97":2545981.9900000002,"ADDRESS":"中山南路１６７號","OBJECTID":358744},"geometry":{"x":171112.26000000071,"y":2545981.9900000021}},{"attributes":{"ID":358755,"DIS_CODE":0,"TOWNNAME":"六甲區","LI":"甲東里","LIN":"25鄰","STREET":"裕農街","SECT":" ","MAREA":" ","LANE":"２巷","ALLEY":" ","HOUSE_NO":"３１號","E_COORD97":183876.82000000001,"N_COORD97":2569520.3700000001,"ADDRESS":"裕農街２巷３１號","OBJECTID":358745},"geometry":{"x":183876.82000000216,"y":2569520.370000001}},{"attributes":{"ID":358756,"DIS_CODE":0,"TOWNNAME":"新營區","LI":"大宏里","LIN":"25鄰","STREET":"同濟街","SECT":" ","MAREA":" ","LANE":"１３６巷","ALLEY":" ","HOUSE_NO":"４１號","E_COORD97":180572.57000000001,"N_COORD97":2578759.3999999999,"ADDRESS":"同濟街１３６巷４１號","OBJECTID":358746},"geometry":{"x":180572.5700000003,"y":2578759.4000000004}},{"attributes":{"ID":358757,"DIS_CODE":0,"TOWNNAME":"新營區","LI":"大宏里","LIN":"25鄰","STREET":"同濟街","SECT":" ","MAREA":" ","LANE":"１３６巷","ALLEY":" ","HOUSE_NO":"１３號","E_COORD97":180497.79999999999,"N_COORD97":2578755.3199999998,"ADDRESS":"同濟街１３６巷１３號","OBJECTID":358747},"geometry":{"x":180497.80000000168,"y":2578755.3200000003}},{"attributes":{"ID":358758,"DIS_CODE":0,"TOWNNAME":"新營區","LI":"新東里","LIN":"25鄰","STREET":"民族路","SECT":" ","MAREA":" ","LANE":"１５０巷","ALLEY":" ","HOUSE_NO":"５４號","E_COORD97":180603.91,"N_COORD97":2579347.3100000001,"ADDRESS":"民族路１５０巷５４號","OBJECTID":358748},"geometry":{"x":180603.91000000015,"y":2579347.3100000042}},{"attributes":{"ID":358759,"DIS_CODE":0,"TOWNNAME":"安南區","LI":"幸福里","LIN":"19鄰","STREET":"府安路","SECT":"六段","MAREA":" ","LANE":"７巷","ALLEY":" ","HOUSE_NO":"３９號","E_COORD97":167109.14000000001,"N_COORD97":2546816.0699999998,"ADDRESS":"府安路六段７巷３９號","OBJECTID":358749},"geometry":{"x":167109.1400000006,"y":2546816.0700000003}},{"attributes":{"ID":358760,"DIS_CODE":0,"TOWNNAME":"安南區","LI":"幸福里","LIN":"19鄰","STREET":"府安路","SECT":"六段","MAREA":" ","LANE":"７巷","ALLEY":" ","HOUSE_NO":"４０號","E_COORD97":167162.85000000001,"N_COORD97":2546823.9399999999,"ADDRESS":"府安路六段７巷４０號","OBJECTID":358750},"geometry":{"x":167162.85000000149,"y":2546823.9399999995}},{"attributes":{"ID":358761,"DIS_CODE":0,"TOWNNAME":"安南區","LI":"幸福里","LIN":"19鄰","STREET":"府安路","SECT":"六段","MAREA":" ","LANE":"７巷","ALLEY":" ","HOUSE_NO":"４號","E_COORD97":167162.82000000001,"N_COORD97":2546755.1800000002,"ADDRESS":"府安路六段７巷４號","OBJECTID":358751},"geometry":{"x":167162.82000000123,"y":2546755.1799999978}},{"attributes":{"ID":358762,"DIS_CODE":0,"TOWNNAME":"安南區","LI":"幸福里","LIN":"19鄰","STREET":"府安路","SECT":"六段","MAREA":" ","LANE":"７巷","ALLEY":" ","HOUSE_NO":"５號","E_COORD97":167130.29999999999,"N_COORD97":2546745.6800000002,"ADDRESS":"府安路六段７巷５號","OBJECTID":358752},"geometry":{"x":167130.30000000075,"y":2546745.6800000016}},{"attributes":{"ID":358763,"DIS_CODE":0,"TOWNNAME":"安南區","LI":"幸福里","LIN":"19鄰","STREET":"府安路","SECT":"六段","MAREA":" ","LANE":"７巷","ALLEY":" ","HOUSE_NO":"６號","E_COORD97":167169.84,"N_COORD97":2546753.0800000001,"ADDRESS":"府安路六段７巷６號","OBJECTID":358753},"geometry":{"x":167169.83999999985,"y":2546753.0800000038}},{"attributes":{"ID":358764,"DIS_CODE":0,"TOWNNAME":"安南區","LI":"幸福里","LIN":"19鄰","STREET":"府安路","SECT":"六段","MAREA":" ","LANE":"７巷","ALLEY":" ","HOUSE_NO":"７號","E_COORD97":167124.51000000001,"N_COORD97":2546742.1699999999,"ADDRESS":"府安路六段７巷７號","OBJECTID":358754},"geometry":{"x":167124.50999999978,"y":2546742.1700000037}},{"attributes":{"ID":358765,"DIS_CODE":0,"TOWNNAME":"安南區","LI":"幸福里","LIN":"19鄰","STREET":"府安路","SECT":"六段","MAREA":" ","LANE":"７巷","ALLEY":" ","HOUSE_NO":"８號","E_COORD97":167176.07999999999,"N_COORD97":2546755.8799999999,"ADDRESS":"府安路六段７巷８號","OBJECTID":358755},"geometry":{"x":167176.08000000101,"y":2546755.879999999}},{"attributes":{"ID":358766,"DIS_CODE":0,"TOWNNAME":"安南區","LI":"幸福里","LIN":"19鄰","STREET":"府安路","SECT":"六段","MAREA":" ","LANE":"７巷","ALLEY":" ","HOUSE_NO":"９號","E_COORD97":167119.31,"N_COORD97":2546765.4700000002,"ADDRESS":"府安路六段７巷９號","OBJECTID":358756},"geometry":{"x":167119.31000000052,"y":2546765.4700000025}},{"attributes":{"ID":358767,"DIS_CODE":0,"TOWNNAME":"安南區","LI":"幸福里","LIN":"19鄰","STREET":"府安路","SECT":"六段","MAREA":" ","LANE":"７巷","ALLEY":" ","HOUSE_NO":"２５號","E_COORD97":167112.29000000001,"N_COORD97":2546802.1899999999,"ADDRESS":"府安路六段７巷２５號","OBJECTID":358757},"geometry":{"x":167112.29000000004,"y":2546802.1899999995}},{"attributes":{"ID":358768,"DIS_CODE":0,"TOWNNAME":"安南區","LI":"幸福里","LIN":"19鄰","STREET":"府安路","SECT":"六段","MAREA":" ","LANE":"７巷","ALLEY":" ","HOUSE_NO":"１９號","E_COORD97":167129.20999999999,"N_COORD97":2546781.79,"ADDRESS":"府安路六段７巷１９號","OBJECTID":358758},"geometry":{"x":167129.21000000089,"y":2546781.790000001}},{"attributes":{"ID":358769,"DIS_CODE":0,"TOWNNAME":"安南區","LI":"幸福里","LIN":"19鄰","STREET":"府安路","SECT":"六段","MAREA":" ","LANE":"７巷","ALLEY":" ","HOUSE_NO":"２８號","E_COORD97":167158.73000000001,"N_COORD97":2546809.0800000001,"ADDRESS":"府安路六段７巷２８號","OBJECTID":358759},"geometry":{"x":167158.73000000045,"y":2546809.0800000001}},{"attributes":{"ID":358770,"DIS_CODE":0,"TOWNNAME":"安南區","LI":"幸福里","LIN":"19鄰","STREET":"府安路","SECT":"六段","MAREA":" ","LANE":"７巷","ALLEY":" ","HOUSE_NO":"３號","E_COORD97":167137.03,"N_COORD97":2546745.4700000002,"ADDRESS":"府安路六段７巷３號","OBJECTID":358760},"geometry":{"x":167137.03000000212,"y":2546745.4700000025}},{"attributes":{"ID":358771,"DIS_CODE":0,"TOWNNAME":"安南區","LI":"幸福里","LIN":"19鄰","STREET":"府安路","SECT":"六段","MAREA":" ","LANE":"７巷","ALLEY":" ","HOUSE_NO":"３４號","E_COORD97":167143.26000000001,"N_COORD97":2546819.71,"ADDRESS":"府安路六段７巷３４號","OBJECTID":358761},"geometry":{"x":167143.25999999885,"y":2546819.7100000009}},{"attributes":{"ID":358772,"DIS_CODE":0,"TOWNNAME":"東區","LI":"莊敬里","LIN":"19鄰","STREET":"莊敬路","SECT":" ","MAREA":" ","LANE":"１８１巷","ALLEY":" ","HOUSE_NO":"２１號","E_COORD97":171304.85999999999,"N_COORD97":2544099.6899999999,"ADDRESS":"莊敬路１８１巷２１號","OBJECTID":358762},"geometry":{"x":171304.8599999994,"y":2544099.6899999995}},{"attributes":{"ID":358773,"DIS_CODE":0,"TOWNNAME":"東區","LI":"莊敬里","LIN":"19鄰","STREET":"莊敬路","SECT":" ","MAREA":" ","LANE":"１８１巷","ALLEY":" ","HOUSE_NO":"２５號","E_COORD97":171297.04999999999,"N_COORD97":2544100.6099999999,"ADDRESS":"莊敬路１８１巷２５號","OBJECTID":358763},"geometry":{"x":171297.05000000075,"y":2544100.6099999975}},{"attributes":{"ID":358774,"DIS_CODE":0,"TOWNNAME":"新市區","LI":"新市里","LIN":"19鄰","STREET":"和平街","SECT":" ","MAREA":" ","LANE":"１５巷","ALLEY":" ","HOUSE_NO":"２２號","E_COORD97":177751.64000000001,"N_COORD97":2553376,"ADDRESS":"和平街１５巷２２號","OBJECTID":358764},"geometry":{"x":177751.6400000006,"y":2553376.0000000019}},{"attributes":{"ID":358775,"DIS_CODE":0,"TOWNNAME":"南區","LI":"府南里","LIN":"15鄰","STREET":"金華路","SECT":"一段","MAREA":" ","LANE":"５４０巷","ALLEY":" ","HOUSE_NO":"７號","E_COORD97":167085.82000000001,"N_COORD97":2541676.8500000001,"ADDRESS":"金華路一段５４０巷７號","OBJECTID":358765},"geometry":{"x":167085.82000000216,"y":2541676.8500000015}},{"attributes":{"ID":358776,"DIS_CODE":0,"TOWNNAME":"中西區","LI":"三合里","LIN":"8鄰","STREET":"成功路","SECT":" ","MAREA":" ","LANE":" ","ALLEY":" ","HOUSE_NO":"４５３號十三樓之８","E_COORD97":167642.97,"N_COORD97":2544635.1600000001,"ADDRESS":"成功路４５３號十三樓之８","OBJECTID":358766},"geometry":{"x":167642.96999999974,"y":2544635.160000002}},{"attributes":{"ID":358777,"DIS_CODE":0,"TOWNNAME":"中西區","LI":"三合里","LIN":"8鄰","STREET":"成功路","SECT":" ","MAREA":" ","LANE":" ","ALLEY":" ","HOUSE_NO":"４５３號四樓之３","E_COORD97":167642.97,"N_COORD97":2544635.1600000001,"ADDRESS":"成功路４５３號四樓之３","OBJECTID":358767},"geometry":{"x":167642.96999999974,"y":2544635.160000002}},{"attributes":{"ID":358778,"DIS_CODE":0,"TOWNNAME":"東區","LI":"崇成里","LIN":"8鄰","STREET":"崇德十三街","SECT":" ","MAREA":" ","LANE":" ","ALLEY":" ","HOUSE_NO":"７７號","E_COORD97":171002.31,"N_COORD97":2541312.6299999999,"ADDRESS":"崇德十三街７７號","OBJECTID":358768},"geometry":{"x":171002.30999999959,"y":2541312.629999999}},{"attributes":{"ID":358779,"DIS_CODE":0,"TOWNNAME":"中西區","LI":"三合里","LIN":"8鄰","STREET":"成功路","SECT":" ","MAREA":" ","LANE":" ","ALLEY":" ","HOUSE_NO":"４５３號四樓之５","E_COORD97":167642.97,"N_COORD97":2544635.1600000001,"ADDRESS":"成功路４５３號四樓之５","OBJECTID":358769},"geometry":{"x":167642.96999999974,"y":2544635.160000002}},{"attributes":{"ID":358780,"DIS_CODE":0,"TOWNNAME":"東山區","LI":"東原里","LIN":"25鄰","STREET":" ","SECT":" ","MAREA":"前大埔","LANE":" ","ALLEY":" ","HOUSE_NO":"８８號","E_COORD97":193250.35000000001,"N_COORD97":2573624.6299999999,"ADDRESS":"前大埔８８號","OBJECTID":358770},"geometry":{"x":193250.35000000056,"y":2573624.6300000008}},{"attributes":{"ID":358781,"DIS_CODE":0,"TOWNNAME":"關廟區","LI":"香洋里","LIN":"25鄰","STREET":"南雄路","SECT":"一段","MAREA":" ","LANE":"１１５９巷","ALLEY":" ","HOUSE_NO":"１２號","E_COORD97":181038.07999999999,"N_COORD97":2539950.9399999999,"ADDRESS":"南雄路一段１１５９巷１２號","OBJECTID":358771},"geometry":{"x":181038.08000000007,"y":2539950.9399999995}},{"attributes":{"ID":358782,"DIS_CODE":0,"TOWNNAME":"關廟區","LI":"香洋里","LIN":"25鄰","STREET":"南雄路","SECT":"一段","MAREA":" ","LANE":"１１５９巷","ALLEY":" ","HOUSE_NO":"２２號","E_COORD97":181025.48000000001,"N_COORD97":2539954.9399999999,"ADDRESS":"南雄路一段１１５９巷２２號","OBJECTID":358772},"geometry":{"x":181025.48000000045,"y":2539954.9399999995}},{"attributes":{"ID":358783,"DIS_CODE":0,"TOWNNAME":"北區","LI":"大和里","LIN":"25鄰","STREET":"大和路","SECT":" ","MAREA":" ","LANE":"３６０巷","ALLEY":" ","HOUSE_NO":"１８號","E_COORD97":166955.29000000001,"N_COORD97":2546189.3700000001,"ADDRESS":"大和路３６０巷１８號","OBJECTID":358773},"geometry":{"x":166955.2900000019,"y":2546189.3700000048}},{"attributes":{"ID":358784,"DIS_CODE":0,"TOWNNAME":"歸仁區","LI":"歸南里","LIN":"25鄰","STREET":"民生十街","SECT":" ","MAREA":" ","LANE":"８巷","ALLEY":" ","HOUSE_NO":"１號","E_COORD97":176069.66,"N_COORD97":2540214.25,"ADDRESS":"民生十街８巷１號","OBJECTID":358774},"geometry":{"x":176069.66000000201,"y":2540214.25}},{"attributes":{"ID":358785,"DIS_CODE":0,"TOWNNAME":"歸仁區","LI":"歸南里","LIN":"25鄰","STREET":"民生十街","SECT":" ","MAREA":" ","LANE":"８巷","ALLEY":" ","HOUSE_NO":"１０號","E_COORD97":176088.41,"N_COORD97":2540221.25,"ADDRESS":"民生十街８巷１０號","OBJECTID":358775},"geometry":{"x":176088.41000000108,"y":2540221.25}},{"attributes":{"ID":358786,"DIS_CODE":0,"TOWNNAME":"歸仁區","LI":"崙頂里","LIN":"25鄰","STREET":"崙頂街","SECT":" ","MAREA":" ","LANE":"１５０巷","ALLEY":" ","HOUSE_NO":"２０號","E_COORD97":177814.67999999999,"N_COORD97":2539829.25,"ADDRESS":"崙頂街１５０巷２０號","OBJECTID":358776},"geometry":{"x":177814.6799999997,"y":2539829.2500000019}},{"attributes":{"ID":358787,"DIS_CODE":0,"TOWNNAME":"歸仁區","LI":"許厝里","LIN":"25鄰","STREET":"信義北路","SECT":" ","MAREA":" ","LANE":"３０巷","ALLEY":" ","HOUSE_NO":"１７號","E_COORD97":178062.17999999999,"N_COORD97":2540852.23,"ADDRESS":"信義北路３０巷１７號","OBJECTID":358777},"geometry":{"x":178062.1799999997,"y":2540852.2300000004}},{"attributes":{"ID":358788,"DIS_CODE":0,"TOWNNAME":"南區","LI":"府南里","LIN":"15鄰","STREET":"金華路","SECT":"一段","MAREA":" ","LANE":"５４０巷","ALLEY":" ","HOUSE_NO":"９號","E_COORD97":167090.95999999999,"N_COORD97":2541675.98,"ADDRESS":"金華路一段５４０巷９號","OBJECTID":358778},"geometry":{"x":167090.95999999996,"y":2541675.9800000023}},{"attributes":{"ID":358789,"DIS_CODE":0,"TOWNNAME":"中西區","LI":"三合里","LIN":"8鄰","STREET":"成功路","SECT":" ","MAREA":" ","LANE":" ","ALLEY":" ","HOUSE_NO":"４５３號四樓之６","E_COORD97":167642.97,"N_COORD97":2544635.1600000001,"ADDRESS":"成功路４５３號四樓之６","OBJECTID":358779},"geometry":{"x":167642.96999999974,"y":2544635.160000002}},{"attributes":{"ID":358790,"DIS_CODE":0,"TOWNNAME":"中西區","LI":"三合里","LIN":"8鄰","STREET":"成功路","SECT":" ","MAREA":" ","LANE":" ","ALLEY":" ","HOUSE_NO":"４５３號四樓之７","E_COORD97":167642.97,"N_COORD97":2544635.1600000001,"ADDRESS":"成功路４５３號四樓之７","OBJECTID":358780},"geometry":{"x":167642.96999999974,"y":2544635.160000002}},{"attributes":{"ID":358791,"DIS_CODE":0,"TOWNNAME":"東山區","LI":"東原里","LIN":"25鄰","STREET":" ","SECT":" ","MAREA":"前大埔","LANE":" ","ALLEY":" ","HOUSE_NO":"９０號","E_COORD97":193265.92999999999,"N_COORD97":2573624.5699999998,"ADDRESS":"前大埔９０號","OBJECTID":358781},"geometry":{"x":193265.9299999997,"y":2573624.5700000003}},{"attributes":{"ID":358792,"DIS_CODE":0,"TOWNNAME":"東山區","LI":"東原里","LIN":"25鄰","STREET":" ","SECT":" ","MAREA":"前大埔","LANE":" ","ALLEY":" ","HOUSE_NO":"９１號","E_COORD97":193273.76999999999,"N_COORD97":2573632.4700000002,"ADDRESS":"前大埔９１號","OBJECTID":358782},"geometry":{"x":193273.76999999955,"y":2573632.4700000007}},{"attributes":{"ID":358793,"DIS_CODE":0,"TOWNNAME":"東山區","LI":"東原里","LIN":"25鄰","STREET":" ","SECT":" ","MAREA":"前大埔","LANE":" ","ALLEY":" ","HOUSE_NO":"９２號之１","E_COORD97":193282.38,"N_COORD97":2573634.5699999998,"ADDRESS":"前大埔９２號之１","OBJECTID":358783},"geometry":{"x":193282.37999999896,"y":2573634.5700000003}},{"attributes":{"ID":358794,"DIS_CODE":0,"TOWNNAME":"東山區","LI":"東原里","LIN":"25鄰","STREET":" ","SECT":" ","MAREA":"前大埔","LANE":" ","ALLEY":" ","HOUSE_NO":"９２號之２","E_COORD97":193285.95000000001,"N_COORD97":2573635.6000000001,"ADDRESS":"前大埔９２號之２","OBJECTID":358784},"geometry":{"x":193285.95000000112,"y":2573635.6000000015}},{"attributes":{"ID":358795,"DIS_CODE":0,"TOWNNAME":"東山區","LI":"東原里","LIN":"25鄰","STREET":" ","SECT":" ","MAREA":"前大埔","LANE":" ","ALLEY":" ","HOUSE_NO":"９２號","E_COORD97":193278.42999999999,"N_COORD97":2573633.1400000001,"ADDRESS":"前大埔９２號","OBJECTID":358785},"geometry":{"x":193278.42999999877,"y":2573633.1400000025}},{"attributes":{"ID":358796,"DIS_CODE":0,"TOWNNAME":"東山區","LI":"東原里","LIN":"25鄰","STREET":" ","SECT":" ","MAREA":"前大埔","LANE":" ","ALLEY":" ","HOUSE_NO":"９３號之１","E_COORD97":193296.53,"N_COORD97":2573638.5800000001,"ADDRESS":"前大埔９３號之１","OBJECTID":358786},"geometry":{"x":193296.53000000026,"y":2573638.5799999982}},{"attributes":{"ID":358797,"DIS_CODE":0,"TOWNNAME":"東山區","LI":"東原里","LIN":"25鄰","STREET":" ","SECT":" ","MAREA":"前大埔","LANE":" ","ALLEY":" ","HOUSE_NO":"９３號","E_COORD97":193291.04000000001,"N_COORD97":2573636.8199999998,"ADDRESS":"前大埔９３號","OBJECTID":358787},"geometry":{"x":193291.04000000004,"y":2573636.8200000003}},{"attributes":{"ID":358798,"DIS_CODE":0,"TOWNNAME":"東山區","LI":"東原里","LIN":"25鄰","STREET":" ","SECT":" ","MAREA":"前大埔","LANE":" ","ALLEY":" ","HOUSE_NO":"９４號之７","E_COORD97":193327.32999999999,"N_COORD97":2573644.7599999998,"ADDRESS":"前大埔９４號之７","OBJECTID":358788},"geometry":{"x":193327.33000000101,"y":2573644.7600000016}},{"attributes":{"ID":358799,"DIS_CODE":0,"TOWNNAME":"東山區","LI":"東原里","LIN":"25鄰","STREET":" ","SECT":" ","MAREA":"前大埔","LANE":" ","ALLEY":" ","HOUSE_NO":"９５號之１","E_COORD97":193338.06,"N_COORD97":2573646.77,"ADDRESS":"前大埔９５號之１","OBJECTID":358789},"geometry":{"x":193338.05999999959,"y":2573646.7699999996}},{"attributes":{"ID":358800,"DIS_CODE":0,"TOWNNAME":"中西區","LI":"三合里","LIN":"8鄰","STREET":"成功路","SECT":" ","MAREA":" ","LANE":" ","ALLEY":" ","HOUSE_NO":"４５３號四樓之８","E_COORD97":167642.97,"N_COORD97":2544635.1600000001,"ADDRESS":"成功路４５３號四樓之８","OBJECTID":358790},"geometry":{"x":167642.96999999974,"y":2544635.160000002}},{"attributes":{"ID":358801,"DIS_CODE":0,"TOWNNAME":"中西區","LI":"三合里","LIN":"8鄰","STREET":"成功路","SECT":" ","MAREA":" ","LANE":" ","ALLEY":" ","HOUSE_NO":"４５３號四樓之９","E_COORD97":167642.97,"N_COORD97":2544635.1600000001,"ADDRESS":"成功路４５３號四樓之９","OBJECTID":358791},"geometry":{"x":167642.96999999974,"y":2544635.160000002}},{"attributes":{"ID":358802,"DIS_CODE":0,"TOWNNAME":"中西區","LI":"三合里","LIN":"8鄰","STREET":"成功路","SECT":" ","MAREA":" ","LANE":" ","ALLEY":" ","HOUSE_NO":"４５３號五樓之１","E_COORD97":167642.97,"N_COORD97":2544635.1600000001,"ADDRESS":"成功路４５３號五樓之１","OBJECTID":358792},"geometry":{"x":167642.96999999974,"y":2544635.160000002}},{"attributes":{"ID":358803,"DIS_CODE":0,"TOWNNAME":"中西區","LI":"三合里","LIN":"8鄰","STREET":"成功路","SECT":" ","MAREA":" ","LANE":" ","ALLEY":" ","HOUSE_NO":"４５３號五樓之２","E_COORD97":167642.97,"N_COORD97":2544635.1600000001,"ADDRESS":"成功路４５３號五樓之２","OBJECTID":358793},"geometry":{"x":167642.96999999974,"y":2544635.160000002}},{"attributes":{"ID":358804,"DIS_CODE":0,"TOWNNAME":"永康區","LI":"安康里","LIN":"8鄰","STREET":"中山南路","SECT":" ","MAREA":" ","LANE":" ","ALLEY":" ","HOUSE_NO":"１６３號","E_COORD97":171101.45999999999,"N_COORD97":2545978.7400000002,"ADDRESS":"中山南路１６３號","OBJECTID":358794},"geometry":{"x":171101.45999999996,"y":2545978.7400000002}},{"attributes":{"ID":358805,"DIS_CODE":0,"TOWNNAME":"關廟區","LI":"東勢里","LIN":"25鄰","STREET":"東興路","SECT":" ","MAREA":" ","LANE":"１４８巷","ALLEY":" ","HOUSE_NO":"８號","E_COORD97":181546.37,"N_COORD97":2539519.25,"ADDRESS":"東興路１４８巷８號","OBJECTID":358795},"geometry":{"x":181546.37000000011,"y":2539519.25}},{"attributes":{"ID":358806,"DIS_CODE":0,"TOWNNAME":"關廟區","LI":"東勢里","LIN":"25鄰","STREET":"東興路","SECT":" ","MAREA":" ","LANE":"１４８巷","ALLEY":" ","HOUSE_NO":"１２號","E_COORD97":181548.01999999999,"N_COORD97":2539511.25,"ADDRESS":"東興路１４８巷１２號","OBJECTID":358796},"geometry":{"x":181548.01999999955,"y":2539511.2500000019}},{"attributes":{"ID":358807,"DIS_CODE":0,"TOWNNAME":"安平區","LI":"文平里","LIN":"25鄰","STREET":"永華二街","SECT":" ","MAREA":" ","LANE":"４０巷","ALLEY":" ","HOUSE_NO":"３２號","E_COORD97":166253.70000000001,"N_COORD97":2542925.3100000001,"ADDRESS":"永華二街４０巷３２號","OBJECTID":358797},"geometry":{"x":166253.70000000019,"y":2542925.3100000024}},{"attributes":{"ID":358808,"DIS_CODE":0,"TOWNNAME":"安平區","LI":"文平里","LIN":"25鄰","STREET":"永華二街","SECT":" ","MAREA":" ","LANE":"４１巷","ALLEY":" ","HOUSE_NO":"１１號","E_COORD97":166302.97,"N_COORD97":2542948.4100000001,"ADDRESS":"永華二街４１巷１１號","OBJECTID":358798},"geometry":{"x":166302.97000000067,"y":2542948.410000002}},{"attributes":{"ID":358809,"DIS_CODE":0,"TOWNNAME":"安平區","LI":"文平里","LIN":"25鄰","STREET":"永華二街","SECT":" ","MAREA":" ","LANE":"４１巷","ALLEY":" ","HOUSE_NO":"１３號","E_COORD97":166298.04999999999,"N_COORD97":2542948.4100000001,"ADDRESS":"永華二街４１巷１３號","OBJECTID":358799},"geometry":{"x":166298.05000000075,"y":2542948.410000002}},{"attributes":{"ID":358810,"DIS_CODE":0,"TOWNNAME":"安平區","LI":"文平里","LIN":"25鄰","STREET":"永華二街","SECT":" ","MAREA":" ","LANE":"４１巷","ALLEY":" ","HOUSE_NO":"７號","E_COORD97":166313.29000000001,"N_COORD97":2542946.8199999998,"ADDRESS":"永華二街４１巷７號","OBJECTID":358800},"geometry":{"x":166313.29000000097,"y":2542946.8200000003}}]}