{"displayFieldName":"TOWNNAME","fieldAliases":{"ID":"ID","DIS_CODE":"DIS_CODE","TOWNNAME":"TOWNNAME","LI":"LI","LIN":"LIN","STREET":"STREET","SECT":"SECT","MAREA":"MAREA","LANE":"LANE","ALLEY":"ALLEY","HOUSE_NO":"HOUSE_NO","E_COORD97":"E_COORD97","N_COORD97":"N_COORD97","ADDRESS":"ADDRESS","OBJECTID":"OBJECTID"},"geometryType":"esriGeometryPoint","spatialReference":{"wkid":102443,"latestWkid":3826},"fields":[{"name":"ID","type":"esriFieldTypeDouble","alias":"ID"},{"name":"DIS_CODE","type":"esriFieldTypeInteger","alias":"DIS_CODE"},{"name":"TOWNNAME","type":"esriFieldTypeString","alias":"TOWNNAME","length":8},{"name":"LI","type":"esriFieldTypeString","alias":"LI","length":8},{"name":"LIN","type":"esriFieldTypeString","alias":"LIN","length":12},{"name":"STREET","type":"esriFieldTypeString","alias":"STREET","length":20},{"name":"SECT","type":"esriFieldTypeString","alias":"SECT","length":8},{"name":"MAREA","type":"esriFieldTypeString","alias":"MAREA","length":12},{"name":"LANE","type":"esriFieldTypeString","alias":"LANE","length":10},{"name":"ALLEY","type":"esriFieldTypeString","alias":"ALLEY","length":10},{"name":"HOUSE_NO","type":"esriFieldTypeString","alias":"HOUSE_NO","length":20},{"name":"E_COORD97","type":"esriFieldTypeDouble","alias":"E_COORD97"},{"name":"N_COORD97","type":"esriFieldTypeDouble","alias":"N_COORD97"},{"name":"ADDRESS","type":"esriFieldTypeString","alias":"ADDRESS","length":50},{"name":"OBJECTID","type":"esriFieldTypeOID","alias":"OBJECTID"}],"features":[{"attributes":{"ID":163602,"DIS_CODE":0,"TOWNNAME":"新市區","LI":"新和里","LIN":"20鄰","STREET":"中正路","SECT":" ","MAREA":" ","LANE":"１１６巷","ALLEY":"２弄","HOUSE_NO":"７號","E_COORD97":177466.48999999999,"N_COORD97":2552548.75,"ADDRESS":"中正路１１６巷２弄７號","OBJECTID":163601},"geometry":{"x":177466.49000000115,"y":2552548.75}},{"attributes":{"ID":163603,"DIS_CODE":0,"TOWNNAME":"新市區","LI":"新和里","LIN":"39鄰","STREET":"中正路","SECT":" ","MAREA":" ","LANE":"２６８巷","ALLEY":"１２弄","HOUSE_NO":"５號","E_COORD97":177512.98999999999,"N_COORD97":2553003.75,"ADDRESS":"中正路２６８巷１２弄５號","OBJECTID":163602},"geometry":{"x":177512.99000000022,"y":2553003.7500000037}},{"attributes":{"ID":163604,"DIS_CODE":0,"TOWNNAME":"新市區","LI":"新和里","LIN":"26鄰","STREET":"永福街","SECT":" ","MAREA":" ","LANE":"１６巷","ALLEY":"１８弄","HOUSE_NO":"１５號","E_COORD97":177847.37,"N_COORD97":2552723.25,"ADDRESS":"永福街１６巷１８弄１５號","OBJECTID":163603},"geometry":{"x":177847.37000000011,"y":2552723.2500000019}},{"attributes":{"ID":163605,"DIS_CODE":0,"TOWNNAME":"新市區","LI":"新和里","LIN":"50鄰","STREET":"自強街","SECT":" ","MAREA":" ","LANE":"３４巷","ALLEY":"１弄","HOUSE_NO":"２６號","E_COORD97":177608.82999999999,"N_COORD97":2553531.5,"ADDRESS":"自強街３４巷１弄２６號","OBJECTID":163604},"geometry":{"x":177608.83000000007,"y":2553531.5000000019}},{"attributes":{"ID":163606,"DIS_CODE":0,"TOWNNAME":"中西區","LI":"法華里","LIN":"7鄰","STREET":"府連路","SECT":" ","MAREA":" ","LANE":" ","ALLEY":" ","HOUSE_NO":"２０號","E_COORD97":168984.53,"N_COORD97":2542504.8599999999,"ADDRESS":"府連路２０號","OBJECTID":163605},"geometry":{"x":168984.53000000026,"y":2542504.8599999994}},{"attributes":{"ID":163607,"DIS_CODE":0,"TOWNNAME":"中西區","LI":"法華里","LIN":"7鄰","STREET":"府連路","SECT":" ","MAREA":" ","LANE":" ","ALLEY":" ","HOUSE_NO":"４號","E_COORD97":168985.92999999999,"N_COORD97":2542462.71,"ADDRESS":"府連路４號","OBJECTID":163606},"geometry":{"x":168985.9299999997,"y":2542462.7100000009}},{"attributes":{"ID":163608,"DIS_CODE":0,"TOWNNAME":"中西區","LI":"法華里","LIN":"7鄰","STREET":"府連路","SECT":" ","MAREA":" ","LANE":" ","ALLEY":" ","HOUSE_NO":"８號","E_COORD97":168985,"N_COORD97":2542471.04,"ADDRESS":"府連路８號","OBJECTID":163607},"geometry":{"x":168985.00000000093,"y":2542471.040000001}},{"attributes":{"ID":163609,"DIS_CODE":0,"TOWNNAME":"中西區","LI":"大南里","LIN":"6鄰","STREET":"南寧街","SECT":" ","MAREA":" ","LANE":" ","ALLEY":" ","HOUSE_NO":"９０號底層","E_COORD97":168206.39000000001,"N_COORD97":2542860.6899999999,"ADDRESS":"南寧街９０號底層","OBJECTID":163608},"geometry":{"x":168206.38999999966,"y":2542860.6900000013}},{"attributes":{"ID":163610,"DIS_CODE":0,"TOWNNAME":"新市區","LI":"新和里","LIN":"26鄰","STREET":"永福街","SECT":" ","MAREA":" ","LANE":"１５巷","ALLEY":"１１弄","HOUSE_NO":"１號","E_COORD97":177802.14999999999,"N_COORD97":2552654.5,"ADDRESS":"永福街１５巷１１弄１號","OBJECTID":163609},"geometry":{"x":177802.15000000037,"y":2552654.5}},{"attributes":{"ID":163611,"DIS_CODE":0,"TOWNNAME":"新市區","LI":"新和里","LIN":"50鄰","STREET":"自強街","SECT":" ","MAREA":" ","LANE":"３４巷","ALLEY":"１弄","HOUSE_NO":"３８號","E_COORD97":177577.10000000001,"N_COORD97":2553507,"ADDRESS":"自強街３４巷１弄３８號","OBJECTID":163610},"geometry":{"x":177577.10000000056,"y":2553507.0000000037}},{"attributes":{"ID":163612,"DIS_CODE":0,"TOWNNAME":"新市區","LI":"新和里","LIN":"50鄰","STREET":"自強街","SECT":" ","MAREA":" ","LANE":"３４巷","ALLEY":"１弄","HOUSE_NO":"３２號","E_COORD97":177589.54999999999,"N_COORD97":2553531.25,"ADDRESS":"自強街３４巷１弄３２號","OBJECTID":163611},"geometry":{"x":177589.55000000075,"y":2553531.25}},{"attributes":{"ID":163613,"DIS_CODE":0,"TOWNNAME":"新市區","LI":"新市里","LIN":"25鄰","STREET":"復興路","SECT":" ","MAREA":" ","LANE":"６巷","ALLEY":"２２弄","HOUSE_NO":"３號","E_COORD97":177901.07000000001,"N_COORD97":2553323.7799999998,"ADDRESS":"復興路６巷２２弄３號","OBJECTID":163612},"geometry":{"x":177901.06999999937,"y":2553323.7799999993}},{"attributes":{"ID":163614,"DIS_CODE":0,"TOWNNAME":"新市區","LI":"新和里","LIN":"26鄰","STREET":"永福街","SECT":" ","MAREA":" ","LANE":"１６巷","ALLEY":"１８弄","HOUSE_NO":"１號","E_COORD97":177813.92000000001,"N_COORD97":2552730.25,"ADDRESS":"永福街１６巷１８弄１號","OBJECTID":163613},"geometry":{"x":177813.92000000086,"y":2552730.2500000019}},{"attributes":{"ID":163615,"DIS_CODE":0,"TOWNNAME":"新市區","LI":"新和里","LIN":"50鄰","STREET":"自強街","SECT":" ","MAREA":" ","LANE":"３４巷","ALLEY":"１弄","HOUSE_NO":"１１號","E_COORD97":177642.5,"N_COORD97":2553524.25,"ADDRESS":"自強街３４巷１弄１１號","OBJECTID":163614},"geometry":{"x":177642.50000000093,"y":2553524.25}},{"attributes":{"ID":163616,"DIS_CODE":0,"TOWNNAME":"新市區","LI":"新和里","LIN":"50鄰","STREET":"自強街","SECT":" ","MAREA":" ","LANE":"３４巷","ALLEY":"１弄","HOUSE_NO":"９號","E_COORD97":177645.39000000001,"N_COORD97":2553525.25,"ADDRESS":"自強街３４巷１弄９號","OBJECTID":163615},"geometry":{"x":177645.38999999966,"y":2553525.25}},{"attributes":{"ID":163617,"DIS_CODE":0,"TOWNNAME":"新市區","LI":"新和里","LIN":"26鄰","STREET":"永福街","SECT":" ","MAREA":" ","LANE":"１６巷","ALLEY":"１８弄","HOUSE_NO":"４號","E_COORD97":177814.14999999999,"N_COORD97":2552714.25,"ADDRESS":"永福街１６巷１８弄４號","OBJECTID":163616},"geometry":{"x":177814.14999999944,"y":2552714.25}},{"attributes":{"ID":163618,"DIS_CODE":0,"TOWNNAME":"新市區","LI":"新和里","LIN":"39鄰","STREET":"中正路","SECT":" ","MAREA":" ","LANE":"２６８巷","ALLEY":"１２弄","HOUSE_NO":"１４號","E_COORD97":177499.01000000001,"N_COORD97":2553012.5,"ADDRESS":"中正路２６８巷１２弄１４號","OBJECTID":163617},"geometry":{"x":177499.00999999978,"y":2553012.5000000019}},{"attributes":{"ID":163619,"DIS_CODE":0,"TOWNNAME":"永康區","LI":"五王里","LIN":"4鄰","STREET":"中華二路","SECT":" ","MAREA":" ","LANE":"２０６巷","ALLEY":"３０弄","HOUSE_NO":"３３號","E_COORD97":171707.94,"N_COORD97":2545595.1800000002,"ADDRESS":"中華二路２０６巷３０弄３３號","OBJECTID":163618},"geometry":{"x":171707.94000000227,"y":2545595.1799999997}},{"attributes":{"ID":163620,"DIS_CODE":0,"TOWNNAME":"永康區","LI":"北灣里","LIN":"39鄰","STREET":"大同街","SECT":" ","MAREA":" ","LANE":"４２５巷","ALLEY":"１弄","HOUSE_NO":"１９號","E_COORD97":174608.35000000001,"N_COORD97":2546275.5899999999,"ADDRESS":"大同街４２５巷１弄１９號","OBJECTID":163619},"geometry":{"x":174608.35000000056,"y":2546275.5900000017}},{"attributes":{"ID":163621,"DIS_CODE":0,"TOWNNAME":"永康區","LI":"北灣里","LIN":"39鄰","STREET":"永大路","SECT":"二段","MAREA":" ","LANE":"９８６巷","ALLEY":"２弄","HOUSE_NO":"８號","E_COORD97":174503.89000000001,"N_COORD97":2546349.2599999998,"ADDRESS":"永大路二段９８６巷２弄８號","OBJECTID":163620},"geometry":{"x":174503.88999999966,"y":2546349.2600000016}},{"attributes":{"ID":163622,"DIS_CODE":0,"TOWNNAME":"永康區","LI":"北灣里","LIN":"39鄰","STREET":"大同街","SECT":" ","MAREA":" ","LANE":"６３９巷","ALLEY":"２弄","HOUSE_NO":"２號","E_COORD97":174543.20999999999,"N_COORD97":2546485.6299999999,"ADDRESS":"大同街６３９巷２弄２號","OBJECTID":163621},"geometry":{"x":174543.20999999996,"y":2546485.629999999}},{"attributes":{"ID":163623,"DIS_CODE":0,"TOWNNAME":"永康區","LI":"正強里","LIN":"25鄰","STREET":"中正路","SECT":" ","MAREA":" ","LANE":"１２７巷","ALLEY":"２４弄","HOUSE_NO":"２號","E_COORD97":173364.17000000001,"N_COORD97":2547805.4900000002,"ADDRESS":"中正路１２７巷２４弄２號","OBJECTID":163622},"geometry":{"x":173364.17000000086,"y":2547805.4900000021}},{"attributes":{"ID":163624,"DIS_CODE":0,"TOWNNAME":"永康區","LI":"北灣里","LIN":"39鄰","STREET":"永大路","SECT":"二段","MAREA":" ","LANE":"９８６巷","ALLEY":"２弄","HOUSE_NO":"５號","E_COORD97":174533.66,"N_COORD97":2546328.8500000001,"ADDRESS":"永大路二段９８６巷２弄５號","OBJECTID":163623},"geometry":{"x":174533.65999999922,"y":2546328.8499999996}},{"attributes":{"ID":163625,"DIS_CODE":0,"TOWNNAME":"永康區","LI":"正強里","LIN":"25鄰","STREET":"中正路","SECT":" ","MAREA":" ","LANE":"１２７巷","ALLEY":"２４弄","HOUSE_NO":"６號","E_COORD97":173355.12,"N_COORD97":2547801.75,"ADDRESS":"中正路１２７巷２４弄６號","OBJECTID":163624},"geometry":{"x":173355.12000000011,"y":2547801.75}},{"attributes":{"ID":163626,"DIS_CODE":0,"TOWNNAME":"永康區","LI":"北灣里","LIN":"20鄰","STREET":"北興路","SECT":" ","MAREA":" ","LANE":"３２巷","ALLEY":"８弄","HOUSE_NO":"３號","E_COORD97":174651.04999999999,"N_COORD97":2545985.3999999999,"ADDRESS":"北興路３２巷８弄３號","OBJECTID":163625},"geometry":{"x":174651.05000000168,"y":2545985.4000000022}},{"attributes":{"ID":163627,"DIS_CODE":0,"TOWNNAME":"中西區","LI":"大南里","LIN":"6鄰","STREET":"南寧街","SECT":" ","MAREA":" ","LANE":" ","ALLEY":" ","HOUSE_NO":"９０號","E_COORD97":168206.39000000001,"N_COORD97":2542860.6899999999,"ADDRESS":"南寧街９０號","OBJECTID":163626},"geometry":{"x":168206.38999999966,"y":2542860.6900000013}},{"attributes":{"ID":163628,"DIS_CODE":0,"TOWNNAME":"中西區","LI":"大南里","LIN":"6鄰","STREET":"南寧街","SECT":" ","MAREA":" ","LANE":" ","ALLEY":" ","HOUSE_NO":"５６號","E_COORD97":168300.91,"N_COORD97":2542849.4300000002,"ADDRESS":"南寧街５６號","OBJECTID":163627},"geometry":{"x":168300.91000000108,"y":2542849.4300000016}},{"attributes":{"ID":163629,"DIS_CODE":0,"TOWNNAME":"中西區","LI":"郡王里","LIN":"6鄰","STREET":"大埔街","SECT":" ","MAREA":" ","LANE":" ","ALLEY":" ","HOUSE_NO":"５９號","E_COORD97":168844.06,"N_COORD97":2543060.8900000001,"ADDRESS":"大埔街５９號","OBJECTID":163628},"geometry":{"x":168844.05999999959,"y":2543060.8900000025}},{"attributes":{"ID":163630,"DIS_CODE":0,"TOWNNAME":"中西區","LI":"仙草里","LIN":"14鄰","STREET":"西門路","SECT":"一段","MAREA":" ","LANE":" ","ALLEY":" ","HOUSE_NO":"４９０號","E_COORD97":167745.82999999999,"N_COORD97":2542707.48,"ADDRESS":"西門路一段４９０號","OBJECTID":163629},"geometry":{"x":167745.83000000007,"y":2542707.4800000023}},{"attributes":{"ID":163631,"DIS_CODE":0,"TOWNNAME":"安南區","LI":"南興里","LIN":"12鄰","STREET":"公學路","SECT":"五段","MAREA":" ","LANE":" ","ALLEY":" ","HOUSE_NO":"６３０號","E_COORD97":164050.39999999999,"N_COORD97":2552718.4199999999,"ADDRESS":"公學路五段６３０號","OBJECTID":163630},"geometry":{"x":164050.40000000037,"y":2552718.4200000018}},{"attributes":{"ID":163632,"DIS_CODE":0,"TOWNNAME":"安南區","LI":"南興里","LIN":"12鄰","STREET":"公學路","SECT":"五段","MAREA":" ","LANE":" ","ALLEY":" ","HOUSE_NO":"６３４號","E_COORD97":164040.37,"N_COORD97":2552712.6400000001,"ADDRESS":"公學路五段６３４號","OBJECTID":163631},"geometry":{"x":164040.37000000011,"y":2552712.6400000006}},{"attributes":{"ID":163633,"DIS_CODE":0,"TOWNNAME":"安南區","LI":"南興里","LIN":"12鄰","STREET":"公學路","SECT":"五段","MAREA":" ","LANE":" ","ALLEY":" ","HOUSE_NO":"６４２號","E_COORD97":164031.10999999999,"N_COORD97":2552719.5699999998,"ADDRESS":"公學路五段６４２號","OBJECTID":163632},"geometry":{"x":164031.11000000127,"y":2552719.5700000003}},{"attributes":{"ID":163634,"DIS_CODE":0,"TOWNNAME":"永康區","LI":"正強里","LIN":"25鄰","STREET":"中正路","SECT":" ","MAREA":" ","LANE":"１２７巷","ALLEY":"２４弄","HOUSE_NO":"１０號","E_COORD97":173346.76000000001,"N_COORD97":2547799.25,"ADDRESS":"中正路１２７巷２４弄１０號","OBJECTID":163633},"geometry":{"x":173346.76000000071,"y":2547799.2499999981}},{"attributes":{"ID":163635,"DIS_CODE":0,"TOWNNAME":"安南區","LI":"南興里","LIN":"12鄰","STREET":"公學路","SECT":"五段","MAREA":" ","LANE":" ","ALLEY":" ","HOUSE_NO":"６４６號","E_COORD97":164034.20000000001,"N_COORD97":2552754.6299999999,"ADDRESS":"公學路五段６４６號","OBJECTID":163634},"geometry":{"x":164034.20000000112,"y":2552754.629999999}},{"attributes":{"ID":163636,"DIS_CODE":0,"TOWNNAME":"安南區","LI":"南興里","LIN":"12鄰","STREET":"公學路","SECT":"五段","MAREA":" ","LANE":" ","ALLEY":" ","HOUSE_NO":"６４８號","E_COORD97":164043.45000000001,"N_COORD97":2552755.0099999998,"ADDRESS":"公學路五段６４８號","OBJECTID":163635},"geometry":{"x":164043.45000000019,"y":2552755.0100000016}},{"attributes":{"ID":163637,"DIS_CODE":0,"TOWNNAME":"安南區","LI":"南興里","LIN":"12鄰","STREET":"公學路","SECT":"五段","MAREA":" ","LANE":" ","ALLEY":" ","HOUSE_NO":"６６９號","E_COORD97":163916.88,"N_COORD97":2552788.0099999998,"ADDRESS":"公學路五段６６９號","OBJECTID":163636},"geometry":{"x":163916.88000000082,"y":2552788.0100000035}},{"attributes":{"ID":163638,"DIS_CODE":0,"TOWNNAME":"安南區","LI":"南興里","LIN":"12鄰","STREET":"公學路","SECT":"五段","MAREA":" ","LANE":" ","ALLEY":" ","HOUSE_NO":"６７０號","E_COORD97":163950.54999999999,"N_COORD97":2552804.3700000001,"ADDRESS":"公學路五段６７０號","OBJECTID":163637},"geometry":{"x":163950.54999999981,"y":2552804.3700000029}},{"attributes":{"ID":163639,"DIS_CODE":0,"TOWNNAME":"安南區","LI":"南興里","LIN":"12鄰","STREET":"公學路","SECT":"五段","MAREA":" ","LANE":" ","ALLEY":" ","HOUSE_NO":"６７１號","E_COORD97":163906.29000000001,"N_COORD97":2552796.75,"ADDRESS":"公學路五段６７１號","OBJECTID":163638},"geometry":{"x":163906.29000000097,"y":2552796.7500000037}},{"attributes":{"ID":163640,"DIS_CODE":0,"TOWNNAME":"安南區","LI":"南興里","LIN":"12鄰","STREET":"公學路","SECT":"五段","MAREA":" ","LANE":" ","ALLEY":" ","HOUSE_NO":"６７５號","E_COORD97":163895.14999999999,"N_COORD97":2552810.2200000002,"ADDRESS":"公學路五段６７５號","OBJECTID":163639},"geometry":{"x":163895.15000000224,"y":2552810.2200000007}},{"attributes":{"ID":163641,"DIS_CODE":0,"TOWNNAME":"安南區","LI":"南興里","LIN":"12鄰","STREET":"公學路","SECT":"五段","MAREA":" ","LANE":" ","ALLEY":" ","HOUSE_NO":"６７８號","E_COORD97":163946.73999999999,"N_COORD97":2552816.3700000001,"ADDRESS":"公學路五段６７８號","OBJECTID":163640},"geometry":{"x":163946.73999999929,"y":2552816.370000001}},{"attributes":{"ID":163642,"DIS_CODE":0,"TOWNNAME":"永康區","LI":"北灣里","LIN":"38鄰","STREET":"大灣路","SECT":" ","MAREA":" ","LANE":"４０巷","ALLEY":"２０９弄","HOUSE_NO":"２８號","E_COORD97":174749.14000000001,"N_COORD97":2546307.9399999999,"ADDRESS":"大灣路４０巷２０９弄２８號","OBJECTID":163641},"geometry":{"x":174749.1400000006,"y":2546307.9399999995}},{"attributes":{"ID":163643,"DIS_CODE":0,"TOWNNAME":"永康區","LI":"北灣里","LIN":"39鄰","STREET":"大同街","SECT":" ","MAREA":" ","LANE":"６３９巷","ALLEY":"１弄","HOUSE_NO":"８號","E_COORD97":174535.95000000001,"N_COORD97":2546456.9399999999,"ADDRESS":"大同街６３９巷１弄８號","OBJECTID":163642},"geometry":{"x":174535.95000000112,"y":2546456.9399999995}},{"attributes":{"ID":163644,"DIS_CODE":0,"TOWNNAME":"永康區","LI":"北灣里","LIN":"39鄰","STREET":"大同街","SECT":" ","MAREA":" ","LANE":"６３９巷","ALLEY":"２弄","HOUSE_NO":"８號","E_COORD97":174541.20000000001,"N_COORD97":2546493.6299999999,"ADDRESS":"大同街６３９巷２弄８號","OBJECTID":163643},"geometry":{"x":174541.20000000019,"y":2546493.6299999971}},{"attributes":{"ID":163645,"DIS_CODE":0,"TOWNNAME":"永康區","LI":"北灣里","LIN":"38鄰","STREET":"大灣路","SECT":" ","MAREA":" ","LANE":"４０巷","ALLEY":"２０９弄","HOUSE_NO":"２２號","E_COORD97":174755.45000000001,"N_COORD97":2546314.3799999999,"ADDRESS":"大灣路４０巷２０９弄２２號","OBJECTID":163644},"geometry":{"x":174755.44999999925,"y":2546314.379999999}},{"attributes":{"ID":163646,"DIS_CODE":0,"TOWNNAME":"中西區","LI":"仙草里","LIN":"14鄰","STREET":"西門路","SECT":"一段","MAREA":" ","LANE":" ","ALLEY":" ","HOUSE_NO":"４９６號底二層","E_COORD97":167749.60000000001,"N_COORD97":2542735.3100000001,"ADDRESS":"西門路一段４９６號底二層","OBJECTID":163645},"geometry":{"x":167749.60000000056,"y":2542735.3100000024}},{"attributes":{"ID":163647,"DIS_CODE":0,"TOWNNAME":"永康區","LI":"北灣里","LIN":"39鄰","STREET":"永大路","SECT":"二段","MAREA":" ","LANE":"９５２巷","ALLEY":"２０弄","HOUSE_NO":"１７號","E_COORD97":174559.79999999999,"N_COORD97":2546273.1800000002,"ADDRESS":"永大路二段９５２巷２０弄１７號","OBJECTID":163646},"geometry":{"x":174559.80000000075,"y":2546273.1799999997}},{"attributes":{"ID":163648,"DIS_CODE":0,"TOWNNAME":"永康區","LI":"復華里","LIN":"24鄰","STREET":"國華街","SECT":" ","MAREA":" ","LANE":"１３２巷","ALLEY":"３弄","HOUSE_NO":"８號","E_COORD97":172830.965738,"N_COORD97":2546324.0073299999,"ADDRESS":"國華街１３２巷３弄８號","OBJECTID":163647},"geometry":{"x":172830.96573800128,"y":2546324.0073310025}},{"attributes":{"ID":163649,"DIS_CODE":0,"TOWNNAME":"永康區","LI":"北灣里","LIN":"39鄰","STREET":"永大路","SECT":"二段","MAREA":" ","LANE":"９５２巷","ALLEY":"２０弄","HOUSE_NO":"１３號","E_COORD97":174551.48999999999,"N_COORD97":2546271.1800000002,"ADDRESS":"永大路二段９５２巷２０弄１３號","OBJECTID":163648},"geometry":{"x":174551.49000000022,"y":2546271.1800000016}},{"attributes":{"ID":163650,"DIS_CODE":0,"TOWNNAME":"永康區","LI":"北灣里","LIN":"39鄰","STREET":"永大路","SECT":"二段","MAREA":" ","LANE":"９８６巷","ALLEY":"２弄","HOUSE_NO":"１號","E_COORD97":174523.16,"N_COORD97":2546325.8500000001,"ADDRESS":"永大路二段９８６巷２弄１號","OBJECTID":163649},"geometry":{"x":174523.16000000015,"y":2546325.8499999996}},{"attributes":{"ID":163651,"DIS_CODE":0,"TOWNNAME":"永康區","LI":"北灣里","LIN":"39鄰","STREET":"永大路","SECT":"二段","MAREA":" ","LANE":"９８６巷","ALLEY":"２弄","HOUSE_NO":"２０號","E_COORD97":174510.41,"N_COORD97":2546327.7599999998,"ADDRESS":"永大路二段９８６巷２弄２０號","OBJECTID":163650},"geometry":{"x":174510.41000000108,"y":2546327.7600000035}},{"attributes":{"ID":163652,"DIS_CODE":0,"TOWNNAME":"永康區","LI":"北灣里","LIN":"39鄰","STREET":"永大路","SECT":"二段","MAREA":" ","LANE":"９８６巷","ALLEY":"２弄","HOUSE_NO":"１０號","E_COORD97":174506.06,"N_COORD97":2546344.7599999998,"ADDRESS":"永大路二段９８６巷２弄１０號","OBJECTID":163651},"geometry":{"x":174506.05999999959,"y":2546344.7600000035}},{"attributes":{"ID":163653,"DIS_CODE":0,"TOWNNAME":"後壁區","LI":"新嘉里","LIN":"12鄰","STREET":" ","SECT":" ","MAREA":"白沙屯","LANE":" ","ALLEY":" ","HOUSE_NO":"１１９號","E_COORD97":179654.31,"N_COORD97":2585623.5299999998,"ADDRESS":"白沙屯１１９號","OBJECTID":163652},"geometry":{"x":179654.30999999959,"y":2585623.5300000031}},{"attributes":{"ID":163654,"DIS_CODE":0,"TOWNNAME":"西港區","LI":"營西里","LIN":"18鄰","STREET":" ","SECT":" ","MAREA":"後營","LANE":" ","ALLEY":" ","HOUSE_NO":"１３７號之４","E_COORD97":169561.17000000001,"N_COORD97":2560571.8300000001,"ADDRESS":"後營１３７號之４","OBJECTID":163653},"geometry":{"x":169561.16999999993,"y":2560571.8300000019}},{"attributes":{"ID":163655,"DIS_CODE":0,"TOWNNAME":"西港區","LI":"營西里","LIN":"18鄰","STREET":" ","SECT":" ","MAREA":"後營","LANE":" ","ALLEY":" ","HOUSE_NO":"１３７號之６","E_COORD97":169481.10000000001,"N_COORD97":2560552.6499999999,"ADDRESS":"後營１３７號之６","OBJECTID":163654},"geometry":{"x":169481.09999999963,"y":2560552.6500000022}},{"attributes":{"ID":163656,"DIS_CODE":0,"TOWNNAME":"西港區","LI":"營西里","LIN":"18鄰","STREET":" ","SECT":" ","MAREA":"後營","LANE":" ","ALLEY":" ","HOUSE_NO":"１３７號","E_COORD97":169648.29999999999,"N_COORD97":2560619.5499999998,"ADDRESS":"後營１３７號","OBJECTID":163655},"geometry":{"x":169648.29999999981,"y":2560619.5500000007}},{"attributes":{"ID":163657,"DIS_CODE":0,"TOWNNAME":"西港區","LI":"營西里","LIN":"18鄰","STREET":" ","SECT":" ","MAREA":"後營","LANE":" ","ALLEY":" ","HOUSE_NO":"１３８號之２","E_COORD97":169701.23999999999,"N_COORD97":2560533.9700000002,"ADDRESS":"後營１３８號之２","OBJECTID":163656},"geometry":{"x":169701.24000000022,"y":2560533.9700000025}},{"attributes":{"ID":163658,"DIS_CODE":0,"TOWNNAME":"西港區","LI":"營西里","LIN":"18鄰","STREET":" ","SECT":" ","MAREA":"後營","LANE":" ","ALLEY":" ","HOUSE_NO":"１３８號之３","E_COORD97":169729.42000000001,"N_COORD97":2560567.27,"ADDRESS":"後營１３８號之３","OBJECTID":163657},"geometry":{"x":169729.42000000086,"y":2560567.2700000014}},{"attributes":{"ID":163659,"DIS_CODE":0,"TOWNNAME":"西港區","LI":"營西里","LIN":"18鄰","STREET":" ","SECT":" ","MAREA":"後營","LANE":" ","ALLEY":" ","HOUSE_NO":"１３８號","E_COORD97":169711.51000000001,"N_COORD97":2560580.8300000001,"ADDRESS":"後營１３８號","OBJECTID":163658},"geometry":{"x":169711.51000000164,"y":2560580.8300000038}},{"attributes":{"ID":163660,"DIS_CODE":0,"TOWNNAME":"西港區","LI":"營西里","LIN":"18鄰","STREET":" ","SECT":" ","MAREA":"後營","LANE":" ","ALLEY":" ","HOUSE_NO":"１３９號之１","E_COORD97":169770.88,"N_COORD97":2560548.1800000002,"ADDRESS":"後營１３９號之１","OBJECTID":163659},"geometry":{"x":169770.88000000082,"y":2560548.1800000016}},{"attributes":{"ID":163661,"DIS_CODE":0,"TOWNNAME":"西港區","LI":"營西里","LIN":"18鄰","STREET":" ","SECT":" ","MAREA":"後營","LANE":" ","ALLEY":" ","HOUSE_NO":"１３９號","E_COORD97":169759.57000000001,"N_COORD97":2560546.6200000001,"ADDRESS":"後營１３９號","OBJECTID":163660},"geometry":{"x":169759.57000000123,"y":2560546.6200000029}},{"attributes":{"ID":163662,"DIS_CODE":0,"TOWNNAME":"西港區","LI":"營西里","LIN":"18鄰","STREET":" ","SECT":" ","MAREA":"後營","LANE":" ","ALLEY":" ","HOUSE_NO":"１４０號之１","E_COORD97":169755.09,"N_COORD97":2560629.9500000002,"ADDRESS":"後營１４０號之１","OBJECTID":163661},"geometry":{"x":169755.09000000171,"y":2560629.950000003}},{"attributes":{"ID":163663,"DIS_CODE":0,"TOWNNAME":"永康區","LI":"北灣里","LIN":"20鄰","STREET":"大安街","SECT":" ","MAREA":" ","LANE":"４６８巷","ALLEY":"３弄","HOUSE_NO":"９號","E_COORD97":174603.76000000001,"N_COORD97":2545998.0099999998,"ADDRESS":"大安街４６８巷３弄９號","OBJECTID":163662},"geometry":{"x":174603.75999999885,"y":2545998.0100000016}},{"attributes":{"ID":163664,"DIS_CODE":0,"TOWNNAME":"永康區","LI":"北灣里","LIN":"39鄰","STREET":"永大路","SECT":"二段","MAREA":" ","LANE":"９５２巷","ALLEY":"２０弄","HOUSE_NO":"２５號","E_COORD97":174576.54000000001,"N_COORD97":2546278.1800000002,"ADDRESS":"永大路二段９５２巷２０弄２５號","OBJECTID":163663},"geometry":{"x":174576.54000000004,"y":2546278.1800000016}},{"attributes":{"ID":163665,"DIS_CODE":0,"TOWNNAME":"永康區","LI":"北灣里","LIN":"38鄰","STREET":"大灣路","SECT":" ","MAREA":" ","LANE":"４０巷","ALLEY":"２０９弄","HOUSE_NO":"３０號","E_COORD97":174745.76999999999,"N_COORD97":2546304.8799999999,"ADDRESS":"大灣路４０巷２０９弄３０號","OBJECTID":163664},"geometry":{"x":174745.76999999955,"y":2546304.879999999}},{"attributes":{"ID":163666,"DIS_CODE":0,"TOWNNAME":"永康區","LI":"北灣里","LIN":"20鄰","STREET":"北興路","SECT":" ","MAREA":" ","LANE":"３２巷","ALLEY":"８弄","HOUSE_NO":"１２號","E_COORD97":174639.70000000001,"N_COORD97":2545998.8199999998,"ADDRESS":"北興路３２巷８弄１２號","OBJECTID":163665},"geometry":{"x":174639.70000000019,"y":2545998.8199999984}},{"attributes":{"ID":163667,"DIS_CODE":0,"TOWNNAME":"中西區","LI":"仙草里","LIN":"14鄰","STREET":"西門路","SECT":"一段","MAREA":" ","LANE":" ","ALLEY":" ","HOUSE_NO":"４８４號","E_COORD97":167747.81,"N_COORD97":2542688.4700000002,"ADDRESS":"西門路一段４８４號","OBJECTID":163666},"geometry":{"x":167747.80999999959,"y":2542688.4700000007}},{"attributes":{"ID":163668,"DIS_CODE":0,"TOWNNAME":"中西區","LI":"仙草里","LIN":"14鄰","STREET":"西門路","SECT":"一段","MAREA":" ","LANE":" ","ALLEY":" ","HOUSE_NO":"４８６號","E_COORD97":167747.22,"N_COORD97":2542695.3999999999,"ADDRESS":"西門路一段４８６號","OBJECTID":163667},"geometry":{"x":167747.22000000067,"y":2542695.4000000004}},{"attributes":{"ID":163669,"DIS_CODE":0,"TOWNNAME":"中西區","LI":"仙草里","LIN":"14鄰","STREET":"西門路","SECT":"一段","MAREA":" ","LANE":" ","ALLEY":" ","HOUSE_NO":"４８８號","E_COORD97":167747.01999999999,"N_COORD97":2542701.9300000002,"ADDRESS":"西門路一段４８８號","OBJECTID":163668},"geometry":{"x":167747.02000000048,"y":2542701.9299999978}},{"attributes":{"ID":163670,"DIS_CODE":0,"TOWNNAME":"永康區","LI":"永康里","LIN":"26鄰","STREET":"永明街","SECT":" ","MAREA":" ","LANE":"５３巷","ALLEY":"２弄","HOUSE_NO":"９號","E_COORD97":174145.42999999999,"N_COORD97":2547348.1699999999,"ADDRESS":"永明街５３巷２弄９號","OBJECTID":163669},"geometry":{"x":174145.43000000063,"y":2547348.1699999999}},{"attributes":{"ID":163671,"DIS_CODE":0,"TOWNNAME":"永康區","LI":"北灣里","LIN":"39鄰","STREET":"永大路","SECT":"二段","MAREA":" ","LANE":"９８６巷","ALLEY":"２弄","HOUSE_NO":"７號","E_COORD97":174538.76000000001,"N_COORD97":2546330.3500000001,"ADDRESS":"永大路二段９８６巷２弄７號","OBJECTID":163670},"geometry":{"x":174538.75999999978,"y":2546330.3500000034}},{"attributes":{"ID":163672,"DIS_CODE":0,"TOWNNAME":"永康區","LI":"北灣里","LIN":"38鄰","STREET":"大灣路","SECT":" ","MAREA":" ","LANE":"４０巷","ALLEY":"２０９弄","HOUSE_NO":"６號","E_COORD97":174775.20000000001,"N_COORD97":2546337.6899999999,"ADDRESS":"大灣路４０巷２０９弄６號","OBJECTID":163671},"geometry":{"x":174775.20000000019,"y":2546337.6899999995}},{"attributes":{"ID":163673,"DIS_CODE":0,"TOWNNAME":"永康區","LI":"北灣里","LIN":"39鄰","STREET":"大同街","SECT":" ","MAREA":" ","LANE":"４２５巷","ALLEY":"１弄","HOUSE_NO":"６號","E_COORD97":174581.51000000001,"N_COORD97":2546304,"ADDRESS":"大同街４２５巷１弄６號","OBJECTID":163672},"geometry":{"x":174581.50999999978,"y":2546304.0000000019}},{"attributes":{"ID":163674,"DIS_CODE":0,"TOWNNAME":"永康區","LI":"北灣里","LIN":"38鄰","STREET":"大灣路","SECT":" ","MAREA":" ","LANE":"４０巷","ALLEY":"１５３弄","HOUSE_NO":"６號","E_COORD97":174887.01999999999,"N_COORD97":2546227.75,"ADDRESS":"大灣路４０巷１５３弄６號","OBJECTID":163673},"geometry":{"x":174887.02000000048,"y":2546227.7500000019}},{"attributes":{"ID":163675,"DIS_CODE":0,"TOWNNAME":"永康區","LI":"北灣里","LIN":"26鄰","STREET":"文賢街","SECT":" ","MAREA":" ","LANE":"７８巷","ALLEY":"１９弄","HOUSE_NO":"７９號","E_COORD97":175444.73000000001,"N_COORD97":2545435.7599999998,"ADDRESS":"文賢街７８巷１９弄７９號","OBJECTID":163674},"geometry":{"x":175444.73000000138,"y":2545435.7599999998}},{"attributes":{"ID":163676,"DIS_CODE":0,"TOWNNAME":"永康區","LI":"北灣里","LIN":"38鄰","STREET":"大灣路","SECT":" ","MAREA":" ","LANE":"４０巷","ALLEY":"２０９弄","HOUSE_NO":"３２號","E_COORD97":174741.78,"N_COORD97":2546290.6800000002,"ADDRESS":"大灣路４０巷２０９弄３２號","OBJECTID":163675},"geometry":{"x":174741.78000000119,"y":2546290.6799999978}},{"attributes":{"ID":163677,"DIS_CODE":0,"TOWNNAME":"永康區","LI":"北灣里","LIN":"38鄰","STREET":"大灣路","SECT":" ","MAREA":" ","LANE":"４０巷","ALLEY":"２０９弄","HOUSE_NO":"１２號","E_COORD97":174767.67999999999,"N_COORD97":2546327.1899999999,"ADDRESS":"大灣路４０巷２０９弄１２號","OBJECTID":163676},"geometry":{"x":174767.68000000063,"y":2546327.1899999995}},{"attributes":{"ID":163678,"DIS_CODE":0,"TOWNNAME":"永康區","LI":"北灣里","LIN":"38鄰","STREET":"大灣路","SECT":" ","MAREA":" ","LANE":"４０巷","ALLEY":"２０９弄","HOUSE_NO":"４０號","E_COORD97":174732.28,"N_COORD97":2546298.9300000002,"ADDRESS":"大灣路４０巷２０９弄４０號","OBJECTID":163677},"geometry":{"x":174732.28000000026,"y":2546298.9299999997}},{"attributes":{"ID":163679,"DIS_CODE":0,"TOWNNAME":"永康區","LI":"北灣里","LIN":"20鄰","STREET":"北興路","SECT":" ","MAREA":" ","LANE":"３２巷","ALLEY":"８弄","HOUSE_NO":"２號","E_COORD97":174656.60000000001,"N_COORD97":2546001.8199999998,"ADDRESS":"北興路３２巷８弄２號","OBJECTID":163678},"geometry":{"x":174656.59999999963,"y":2546001.8200000003}},{"attributes":{"ID":163680,"DIS_CODE":0,"TOWNNAME":"永康區","LI":"北灣里","LIN":"39鄰","STREET":"永大路","SECT":"二段","MAREA":" ","LANE":"９８６巷","ALLEY":"２弄","HOUSE_NO":"３號","E_COORD97":174528.59,"N_COORD97":2546327.3500000001,"ADDRESS":"永大路二段９８６巷２弄３號","OBJECTID":163679},"geometry":{"x":174528.58999999985,"y":2546327.3500000015}},{"attributes":{"ID":163681,"DIS_CODE":0,"TOWNNAME":"永康區","LI":"北灣里","LIN":"26鄰","STREET":"文賢街","SECT":" ","MAREA":" ","LANE":"７８巷","ALLEY":"１９弄","HOUSE_NO":"９５號","E_COORD97":175453.70999999999,"N_COORD97":2545477.02,"ADDRESS":"文賢街７８巷１９弄９５號","OBJECTID":163680},"geometry":{"x":175453.71000000183,"y":2545477.0199999996}},{"attributes":{"ID":163682,"DIS_CODE":0,"TOWNNAME":"永康區","LI":"北灣里","LIN":"39鄰","STREET":"大同街","SECT":" ","MAREA":" ","LANE":"４２５巷","ALLEY":"１弄","HOUSE_NO":"８號","E_COORD97":174582.76000000001,"N_COORD97":2546299.9900000002,"ADDRESS":"大同街４２５巷１弄８號","OBJECTID":163681},"geometry":{"x":174582.75999999978,"y":2546299.9900000021}},{"attributes":{"ID":163683,"DIS_CODE":0,"TOWNNAME":"永康區","LI":"北灣里","LIN":"26鄰","STREET":"文賢街","SECT":" ","MAREA":" ","LANE":"７８巷","ALLEY":"１９弄","HOUSE_NO":"９７號","E_COORD97":175454,"N_COORD97":2545481.27,"ADDRESS":"文賢街７８巷１９弄９７號","OBJECTID":163682},"geometry":{"x":175454.00000000093,"y":2545481.2700000014}},{"attributes":{"ID":163684,"DIS_CODE":0,"TOWNNAME":"永康區","LI":"正強里","LIN":"25鄰","STREET":"中正路","SECT":" ","MAREA":" ","LANE":"１２７巷","ALLEY":"８弄","HOUSE_NO":"１６號","E_COORD97":173322.26999999999,"N_COORD97":2547837.5699999998,"ADDRESS":"中正路１２７巷８弄１６號","OBJECTID":163683},"geometry":{"x":173322.27000000048,"y":2547837.5700000003}},{"attributes":{"ID":163685,"DIS_CODE":0,"TOWNNAME":"永康區","LI":"北灣里","LIN":"38鄰","STREET":"大灣路","SECT":" ","MAREA":" ","LANE":"４０巷","ALLEY":"１５３弄","HOUSE_NO":"８號","E_COORD97":174882.09,"N_COORD97":2546222.75,"ADDRESS":"大灣路４０巷１５３弄８號","OBJECTID":163684},"geometry":{"x":174882.09000000078,"y":2546222.7499999981}},{"attributes":{"ID":163686,"DIS_CODE":0,"TOWNNAME":"永康區","LI":"北灣里","LIN":"20鄰","STREET":"北興路","SECT":" ","MAREA":" ","LANE":"３２巷","ALLEY":"８弄","HOUSE_NO":"６號","E_COORD97":174651.35000000001,"N_COORD97":2546000.5699999998,"ADDRESS":"北興路３２巷８弄６號","OBJECTID":163685},"geometry":{"x":174651.35000000056,"y":2546000.570000004}},{"attributes":{"ID":163687,"DIS_CODE":0,"TOWNNAME":"永康區","LI":"正強里","LIN":"25鄰","STREET":"中正路","SECT":" ","MAREA":" ","LANE":"１２７巷","ALLEY":"８弄","HOUSE_NO":"１３號","E_COORD97":173327.38,"N_COORD97":2547823.2400000002,"ADDRESS":"中正路１２７巷８弄１３號","OBJECTID":163686},"geometry":{"x":173327.38000000082,"y":2547823.2399999984}},{"attributes":{"ID":163688,"DIS_CODE":0,"TOWNNAME":"永康區","LI":"北灣里","LIN":"38鄰","STREET":"大灣路","SECT":" ","MAREA":" ","LANE":"４０巷","ALLEY":"１５３弄","HOUSE_NO":"１２號","E_COORD97":174873.76999999999,"N_COORD97":2546212,"ADDRESS":"大灣路４０巷１５３弄１２號","OBJECTID":163687},"geometry":{"x":174873.77000000048,"y":2546212.0000000019}},{"attributes":{"ID":163689,"DIS_CODE":0,"TOWNNAME":"永康區","LI":"永康里","LIN":"26鄰","STREET":"永明街","SECT":" ","MAREA":" ","LANE":"６９巷","ALLEY":"５弄","HOUSE_NO":"１６號","E_COORD97":174149.92999999999,"N_COORD97":2547334.2400000002,"ADDRESS":"永明街６９巷５弄１６號","OBJECTID":163688},"geometry":{"x":174149.92999999877,"y":2547334.2400000002}},{"attributes":{"ID":163690,"DIS_CODE":0,"TOWNNAME":"永康區","LI":"永康里","LIN":"26鄰","STREET":"永明街","SECT":" ","MAREA":" ","LANE":"６９巷","ALLEY":"５弄","HOUSE_NO":"１１號","E_COORD97":174138.42999999999,"N_COORD97":2547327.9900000002,"ADDRESS":"永明街６９巷５弄１１號","OBJECTID":163689},"geometry":{"x":174138.43000000063,"y":2547327.9900000021}},{"attributes":{"ID":163691,"DIS_CODE":0,"TOWNNAME":"永康區","LI":"永康里","LIN":"26鄰","STREET":"永明街","SECT":" ","MAREA":" ","LANE":"６９巷","ALLEY":"５弄","HOUSE_NO":"３號","E_COORD97":174155.34,"N_COORD97":2547311.9900000002,"ADDRESS":"永明街６９巷５弄３號","OBJECTID":163690},"geometry":{"x":174155.33999999985,"y":2547311.9900000002}},{"attributes":{"ID":163692,"DIS_CODE":0,"TOWNNAME":"永康區","LI":"正強里","LIN":"26鄰","STREET":"中正路","SECT":" ","MAREA":" ","LANE":"１５５巷","ALLEY":"１７弄","HOUSE_NO":"２號","E_COORD97":173237.64999999999,"N_COORD97":2547823.52,"ADDRESS":"中正路１５５巷１７弄２號","OBJECTID":163691},"geometry":{"x":173237.6500000013,"y":2547823.5199999996}},{"attributes":{"ID":163693,"DIS_CODE":0,"TOWNNAME":"永康區","LI":"北灣里","LIN":"39鄰","STREET":"永大路","SECT":"二段","MAREA":" ","LANE":"９５２巷","ALLEY":"２０弄","HOUSE_NO":"１５號","E_COORD97":174555.91,"N_COORD97":2546271.9300000002,"ADDRESS":"永大路二段９５２巷２０弄１５號","OBJECTID":163692},"geometry":{"x":174555.91000000201,"y":2546271.9299999997}},{"attributes":{"ID":163694,"DIS_CODE":0,"TOWNNAME":"永康區","LI":"正強里","LIN":"25鄰","STREET":"中正路","SECT":" ","MAREA":" ","LANE":"１２７巷","ALLEY":"８弄","HOUSE_NO":"１８號","E_COORD97":173317.57000000001,"N_COORD97":2547836.0699999998,"ADDRESS":"中正路１２７巷８弄１８號","OBJECTID":163693},"geometry":{"x":173317.57000000123,"y":2547836.0700000022}},{"attributes":{"ID":163695,"DIS_CODE":0,"TOWNNAME":"永康區","LI":"北灣里","LIN":"38鄰","STREET":"大灣路","SECT":" ","MAREA":" ","LANE":"４０巷","ALLEY":"２０９弄","HOUSE_NO":"１０號","E_COORD97":174770.45999999999,"N_COORD97":2546330.6899999999,"ADDRESS":"大灣路４０巷２０９弄１０號","OBJECTID":163694},"geometry":{"x":174770.46000000183,"y":2546330.6899999995}},{"attributes":{"ID":163696,"DIS_CODE":0,"TOWNNAME":"永康區","LI":"北灣里","LIN":"38鄰","STREET":"大灣路","SECT":" ","MAREA":" ","LANE":"４０巷","ALLEY":"１５３弄","HOUSE_NO":"１１號","E_COORD97":174878.78,"N_COORD97":2546200.3799999999,"ADDRESS":"大灣路４０巷１５３弄１１號","OBJECTID":163695},"geometry":{"x":174878.77999999933,"y":2546200.3799999971}},{"attributes":{"ID":163697,"DIS_CODE":0,"TOWNNAME":"後壁區","LI":"福安里","LIN":"12鄰","STREET":" ","SECT":" ","MAREA":"下寮","LANE":" ","ALLEY":" ","HOUSE_NO":"１２４號之２","E_COORD97":184198,"N_COORD97":2580852.3500000001,"ADDRESS":"下寮１２４號之２","OBJECTID":163696},"geometry":{"x":184198.00000000093,"y":2580852.3500000015}},{"attributes":{"ID":163698,"DIS_CODE":0,"TOWNNAME":"後壁區","LI":"福安里","LIN":"12鄰","STREET":" ","SECT":" ","MAREA":"下寮","LANE":" ","ALLEY":" ","HOUSE_NO":"１２４號之３","E_COORD97":184212.10999999999,"N_COORD97":2580830.7799999998,"ADDRESS":"下寮１２４號之３","OBJECTID":163697},"geometry":{"x":184212.1100000022,"y":2580830.7799999975}},{"attributes":{"ID":163699,"DIS_CODE":0,"TOWNNAME":"後壁區","LI":"福安里","LIN":"12鄰","STREET":" ","SECT":" ","MAREA":"下寮","LANE":" ","ALLEY":" ","HOUSE_NO":"１２４號之４","E_COORD97":184220.97,"N_COORD97":2580814.6499999999,"ADDRESS":"下寮１２４號之４","OBJECTID":163698},"geometry":{"x":184220.9700000016,"y":2580814.6500000004}},{"attributes":{"ID":163700,"DIS_CODE":0,"TOWNNAME":"後壁區","LI":"福安里","LIN":"12鄰","STREET":" ","SECT":" ","MAREA":"下寮","LANE":" ","ALLEY":" ","HOUSE_NO":"１２５號之１","E_COORD97":184163.17999999999,"N_COORD97":2580878.1600000001,"ADDRESS":"下寮１２５號之１","OBJECTID":163699},"geometry":{"x":184163.1799999997,"y":2580878.160000002}},{"attributes":{"ID":163701,"DIS_CODE":0,"TOWNNAME":"後壁區","LI":"福安里","LIN":"12鄰","STREET":" ","SECT":" ","MAREA":"下寮","LANE":" ","ALLEY":" ","HOUSE_NO":"１２６號","E_COORD97":184150.98999999999,"N_COORD97":2580871.6299999999,"ADDRESS":"下寮１２６號","OBJECTID":163700},"geometry":{"x":184150.99000000022,"y":2580871.629999999}},{"attributes":{"ID":163702,"DIS_CODE":0,"TOWNNAME":"後壁區","LI":"福安里","LIN":"12鄰","STREET":" ","SECT":" ","MAREA":"下寮","LANE":" ","ALLEY":" ","HOUSE_NO":"１２８號","E_COORD97":184146.01999999999,"N_COORD97":2580847.6099999999,"ADDRESS":"下寮１２８號","OBJECTID":163701},"geometry":{"x":184146.02000000048,"y":2580847.6099999994}},{"attributes":{"ID":163703,"DIS_CODE":0,"TOWNNAME":"後壁區","LI":"福安里","LIN":"12鄰","STREET":" ","SECT":" ","MAREA":"下寮","LANE":" ","ALLEY":" ","HOUSE_NO":"１２９號","E_COORD97":184122.82000000001,"N_COORD97":2580851.3300000001,"ADDRESS":"下寮１２９號","OBJECTID":163702},"geometry":{"x":184122.82000000123,"y":2580851.3300000001}},{"attributes":{"ID":163704,"DIS_CODE":0,"TOWNNAME":"後壁區","LI":"福安里","LIN":"12鄰","STREET":" ","SECT":" ","MAREA":"下寮","LANE":" ","ALLEY":" ","HOUSE_NO":"１３０號之１","E_COORD97":184129.10999999999,"N_COORD97":2580822.2200000002,"ADDRESS":"下寮１３０號之１","OBJECTID":163703},"geometry":{"x":184129.1100000022,"y":2580822.2200000007}},{"attributes":{"ID":163705,"DIS_CODE":0,"TOWNNAME":"後壁區","LI":"福安里","LIN":"12鄰","STREET":" ","SECT":" ","MAREA":"下寮","LANE":" ","ALLEY":" ","HOUSE_NO":"１３０號之２","E_COORD97":184127.79000000001,"N_COORD97":2580830.46,"ADDRESS":"下寮１３０號之２","OBJECTID":163704},"geometry":{"x":184127.79000000097,"y":2580830.4600000009}},{"attributes":{"ID":163706,"DIS_CODE":0,"TOWNNAME":"永康區","LI":"王行里","LIN":"4鄰","STREET":"育樂街","SECT":" ","MAREA":" ","LANE":"１４３巷","ALLEY":"２５弄","HOUSE_NO":"１１號","E_COORD97":175149.81,"N_COORD97":2548248.46,"ADDRESS":"育樂街１４３巷２５弄１１號","OBJECTID":163705},"geometry":{"x":175149.81000000052,"y":2548248.4600000009}},{"attributes":{"ID":163707,"DIS_CODE":0,"TOWNNAME":"仁德區","LI":"保安里","LIN":"12鄰","STREET":"民生路","SECT":" ","MAREA":" ","LANE":" ","ALLEY":" ","HOUSE_NO":"７號","E_COORD97":172877.51000000001,"N_COORD97":2536086.29,"ADDRESS":"民生路７號","OBJECTID":163706},"geometry":{"x":172877.50999999978,"y":2536086.2899999991}},{"attributes":{"ID":163708,"DIS_CODE":0,"TOWNNAME":"後壁區","LI":"福安里","LIN":"12鄰","STREET":" ","SECT":" ","MAREA":"下寮","LANE":" ","ALLEY":" ","HOUSE_NO":"１３０號","E_COORD97":184145.17000000001,"N_COORD97":2580826.5299999998,"ADDRESS":"下寮１３０號","OBJECTID":163707},"geometry":{"x":184145.17000000179,"y":2580826.5300000012}},{"attributes":{"ID":163709,"DIS_CODE":0,"TOWNNAME":"後壁區","LI":"福安里","LIN":"12鄰","STREET":" ","SECT":" ","MAREA":"下寮","LANE":" ","ALLEY":" ","HOUSE_NO":"１３２號","E_COORD97":184163.39999999999,"N_COORD97":2580802.0800000001,"ADDRESS":"下寮１３２號","OBJECTID":163708},"geometry":{"x":184163.4000000013,"y":2580802.0800000001}},{"attributes":{"ID":163710,"DIS_CODE":0,"TOWNNAME":"東區","LI":"崇信里","LIN":"24鄰","STREET":"崇善一街","SECT":" ","MAREA":" ","LANE":" ","ALLEY":" ","HOUSE_NO":"８０號十三樓之２","E_COORD97":170834.92000000001,"N_COORD97":2542294.98,"ADDRESS":"崇善一街８０號十三樓之２","OBJECTID":163709},"geometry":{"x":170834.92000000086,"y":2542294.9800000004}},{"attributes":{"ID":163711,"DIS_CODE":0,"TOWNNAME":"後壁區","LI":"嘉民里","LIN":"12鄰","STREET":" ","SECT":" ","MAREA":"上茄苳","LANE":" ","ALLEY":" ","HOUSE_NO":"２５９號","E_COORD97":186058.95999999999,"N_COORD97":2586857.9500000002,"ADDRESS":"上茄苳２５９號","OBJECTID":163710},"geometry":{"x":186058.96000000089,"y":2586857.950000003}},{"attributes":{"ID":163712,"DIS_CODE":0,"TOWNNAME":"後壁區","LI":"土溝里","LIN":"12鄰","STREET":" ","SECT":" ","MAREA":"土溝","LANE":" ","ALLEY":" ","HOUSE_NO":"１１５號","E_COORD97":187490.73999999999,"N_COORD97":2585875.2200000002,"ADDRESS":"土溝１１５號","OBJECTID":163711},"geometry":{"x":187490.74000000022,"y":2585875.2200000025}},{"attributes":{"ID":163713,"DIS_CODE":0,"TOWNNAME":"後壁區","LI":"土溝里","LIN":"12鄰","STREET":" ","SECT":" ","MAREA":"土溝","LANE":" ","ALLEY":" ","HOUSE_NO":"１１６號","E_COORD97":187525.26999999999,"N_COORD97":2585872.0499999998,"ADDRESS":"土溝１１６號","OBJECTID":163712},"geometry":{"x":187525.26999999955,"y":2585872.0500000045}},{"attributes":{"ID":163714,"DIS_CODE":0,"TOWNNAME":"後壁區","LI":"土溝里","LIN":"12鄰","STREET":" ","SECT":" ","MAREA":"土溝","LANE":" ","ALLEY":" ","HOUSE_NO":"１１８號之２","E_COORD97":187528.47,"N_COORD97":2585895.1699999999,"ADDRESS":"土溝１１８號之２","OBJECTID":163713},"geometry":{"x":187528.47000000067,"y":2585895.1700000018}},{"attributes":{"ID":163715,"DIS_CODE":0,"TOWNNAME":"後壁區","LI":"土溝里","LIN":"12鄰","STREET":" ","SECT":" ","MAREA":"土溝","LANE":" ","ALLEY":" ","HOUSE_NO":"１１８號","E_COORD97":187529.39000000001,"N_COORD97":2585880.27,"ADDRESS":"土溝１１８號","OBJECTID":163714},"geometry":{"x":187529.3900000006,"y":2585880.2700000014}},{"attributes":{"ID":163716,"DIS_CODE":0,"TOWNNAME":"後壁區","LI":"嘉苳里","LIN":"12鄰","STREET":" ","SECT":" ","MAREA":"本協","LANE":" ","ALLEY":" ","HOUSE_NO":"１５號","E_COORD97":187102.39999999999,"N_COORD97":2583617.5299999998,"ADDRESS":"本協１５號","OBJECTID":163715},"geometry":{"x":187102.4000000013,"y":2583617.5300000012}},{"attributes":{"ID":163717,"DIS_CODE":0,"TOWNNAME":"永康區","LI":"五王里","LIN":"13鄰","STREET":"成功路","SECT":" ","MAREA":" ","LANE":"１７２巷","ALLEY":"６２弄","HOUSE_NO":"１８號","E_COORD97":171639.62,"N_COORD97":2545746.3799999999,"ADDRESS":"成功路１７２巷６２弄１８號","OBJECTID":163716},"geometry":{"x":171639.62000000011,"y":2545746.3800000027}},{"attributes":{"ID":163718,"DIS_CODE":0,"TOWNNAME":"永康區","LI":"北灣里","LIN":"39鄰","STREET":"大同街","SECT":" ","MAREA":" ","LANE":"６３９巷","ALLEY":"１弄","HOUSE_NO":"５號","E_COORD97":174551.64999999999,"N_COORD97":2546460.7400000002,"ADDRESS":"大同街６３９巷１弄５號","OBJECTID":163717},"geometry":{"x":174551.6500000013,"y":2546460.7400000039}},{"attributes":{"ID":163719,"DIS_CODE":0,"TOWNNAME":"永康區","LI":"五王里","LIN":"25鄰","STREET":"成功路","SECT":" ","MAREA":" ","LANE":"２４４巷","ALLEY":"４９弄","HOUSE_NO":"７號","E_COORD97":171409.19,"N_COORD97":2545902.3599999999,"ADDRESS":"成功路２４４巷４９弄７號","OBJECTID":163718},"geometry":{"x":171409.19000000041,"y":2545902.3599999994}},{"attributes":{"ID":163720,"DIS_CODE":0,"TOWNNAME":"永康區","LI":"五王里","LIN":"25鄰","STREET":"成功路","SECT":" ","MAREA":" ","LANE":"２４４巷","ALLEY":"４９弄","HOUSE_NO":"２號","E_COORD97":171429.88,"N_COORD97":2545901.77,"ADDRESS":"成功路２４４巷４９弄２號","OBJECTID":163719},"geometry":{"x":171429.88000000175,"y":2545901.7700000014}},{"attributes":{"ID":163721,"DIS_CODE":0,"TOWNNAME":"永康區","LI":"北灣里","LIN":"39鄰","STREET":"大同街","SECT":" ","MAREA":" ","LANE":"６３９巷","ALLEY":"２弄","HOUSE_NO":"５號","E_COORD97":174527.85999999999,"N_COORD97":2546488.25,"ADDRESS":"大同街６３９巷２弄５號","OBJECTID":163720},"geometry":{"x":174527.86000000127,"y":2546488.2500000019}},{"attributes":{"ID":163722,"DIS_CODE":0,"TOWNNAME":"後壁區","LI":"新嘉里","LIN":"12鄰","STREET":" ","SECT":" ","MAREA":"白沙屯","LANE":" ","ALLEY":" ","HOUSE_NO":"１２８號","E_COORD97":179640.32000000001,"N_COORD97":2585498.4500000002,"ADDRESS":"白沙屯１２８號","OBJECTID":163721},"geometry":{"x":179640.31999999937,"y":2585498.450000003}},{"attributes":{"ID":163723,"DIS_CODE":0,"TOWNNAME":"永康區","LI":"北灣里","LIN":"39鄰","STREET":"大同街","SECT":" ","MAREA":" ","LANE":"４２５巷","ALLEY":"１弄","HOUSE_NO":"１６號","E_COORD97":174586.85000000001,"N_COORD97":2546287.7400000002,"ADDRESS":"大同街４２５巷１弄１６號","OBJECTID":163722},"geometry":{"x":174586.85000000056,"y":2546287.7400000039}},{"attributes":{"ID":163724,"DIS_CODE":0,"TOWNNAME":"仁德區","LI":"後壁里","LIN":"12鄰","STREET":"德南路","SECT":" ","MAREA":" ","LANE":" ","ALLEY":" ","HOUSE_NO":"１００號","E_COORD97":173581.25,"N_COORD97":2538578.02,"ADDRESS":"德南路１００號","OBJECTID":163723},"geometry":{"x":173581.25,"y":2538578.0199999996}},{"attributes":{"ID":163725,"DIS_CODE":0,"TOWNNAME":"永康區","LI":"北灣里","LIN":"39鄰","STREET":"大同街","SECT":" ","MAREA":" ","LANE":"６３９巷","ALLEY":"２弄","HOUSE_NO":"１１號","E_COORD97":174526.32000000001,"N_COORD97":2546500,"ADDRESS":"大同街６３９巷２弄１１號","OBJECTID":163724},"geometry":{"x":174526.32000000123,"y":2546500.0000000019}},{"attributes":{"ID":163726,"DIS_CODE":0,"TOWNNAME":"永康區","LI":"北灣里","LIN":"20鄰","STREET":"大安街","SECT":" ","MAREA":" ","LANE":"４６８巷","ALLEY":"３弄","HOUSE_NO":"７號","E_COORD97":174600.97,"N_COORD97":2546000.7599999998,"ADDRESS":"大安街４６８巷３弄７號","OBJECTID":163725},"geometry":{"x":174600.97000000067,"y":2546000.7599999998}},{"attributes":{"ID":163727,"DIS_CODE":0,"TOWNNAME":"永康區","LI":"五王里","LIN":"25鄰","STREET":"成功路","SECT":" ","MAREA":" ","LANE":"２４４巷","ALLEY":"４９弄","HOUSE_NO":"１０號","E_COORD97":171419.42999999999,"N_COORD97":2545919.27,"ADDRESS":"成功路２４４巷４９弄１０號","OBJECTID":163726},"geometry":{"x":171419.43000000063,"y":2545919.2699999996}},{"attributes":{"ID":163728,"DIS_CODE":0,"TOWNNAME":"永康區","LI":"五王里","LIN":"25鄰","STREET":"成功路","SECT":" ","MAREA":" ","LANE":"２４４巷","ALLEY":"４９弄","HOUSE_NO":"５號","E_COORD97":171411.42999999999,"N_COORD97":2545899.1099999999,"ADDRESS":"成功路２４４巷４９弄５號","OBJECTID":163727},"geometry":{"x":171411.43000000063,"y":2545899.1100000013}},{"attributes":{"ID":163729,"DIS_CODE":0,"TOWNNAME":"仁德區","LI":"後壁里","LIN":"12鄰","STREET":"德南路","SECT":" ","MAREA":" ","LANE":" ","ALLEY":" ","HOUSE_NO":"１０２之２號","E_COORD97":173573.92999999999,"N_COORD97":2538560.0499999998,"ADDRESS":"德南路１０２之２號","OBJECTID":163728},"geometry":{"x":173573.93000000063,"y":2538560.0500000026}},{"attributes":{"ID":163730,"DIS_CODE":0,"TOWNNAME":"仁德區","LI":"後壁里","LIN":"12鄰","STREET":"德南路","SECT":" ","MAREA":" ","LANE":" ","ALLEY":" ","HOUSE_NO":"１０２之１１號","E_COORD97":173558.57000000001,"N_COORD97":2538525.29,"ADDRESS":"德南路１０２之１１號","OBJECTID":163729},"geometry":{"x":173558.57000000123,"y":2538525.2899999972}},{"attributes":{"ID":163731,"DIS_CODE":0,"TOWNNAME":"仁德區","LI":"後壁里","LIN":"12鄰","STREET":"德南路","SECT":" ","MAREA":" ","LANE":" ","ALLEY":" ","HOUSE_NO":"１０２之９號","E_COORD97":173561.17999999999,"N_COORD97":2538532.7999999998,"ADDRESS":"德南路１０２之９號","OBJECTID":163730},"geometry":{"x":173561.1799999997,"y":2538532.8000000007}},{"attributes":{"ID":163732,"DIS_CODE":0,"TOWNNAME":"新市區","LI":"新和里","LIN":"26鄰","STREET":"永福街","SECT":" ","MAREA":" ","LANE":"１６巷","ALLEY":"１８弄","HOUSE_NO":"９號","E_COORD97":177832.39999999999,"N_COORD97":2552726.75,"ADDRESS":"永福街１６巷１８弄９號","OBJECTID":163731},"geometry":{"x":177832.40000000037,"y":2552726.7500000019}},{"attributes":{"ID":163733,"DIS_CODE":0,"TOWNNAME":"仁德區","LI":"後壁里","LIN":"12鄰","STREET":"德南路","SECT":" ","MAREA":" ","LANE":" ","ALLEY":" ","HOUSE_NO":"１０２之５號","E_COORD97":173567.31,"N_COORD97":2538549.0499999998,"ADDRESS":"德南路１０２之５號","OBJECTID":163732},"geometry":{"x":173567.30999999959,"y":2538549.0499999989}},{"attributes":{"ID":163734,"DIS_CODE":0,"TOWNNAME":"永康區","LI":"五王里","LIN":"4鄰","STREET":"中華二路","SECT":" ","MAREA":" ","LANE":"２０６巷","ALLEY":"３０弄","HOUSE_NO":"４１號","E_COORD97":171725.07000000001,"N_COORD97":2545599.3599999999,"ADDRESS":"中華二路２０６巷３０弄４１號","OBJECTID":163733},"geometry":{"x":171725.0700000003,"y":2545599.3600000013}},{"attributes":{"ID":163735,"DIS_CODE":0,"TOWNNAME":"仁德區","LI":"後壁里","LIN":"12鄰","STREET":"德南路","SECT":" ","MAREA":" ","LANE":" ","ALLEY":" ","HOUSE_NO":"１０２之３號","E_COORD97":173571.75,"N_COORD97":2538557.0499999998,"ADDRESS":"德南路１０２之３號","OBJECTID":163734},"geometry":{"x":173571.75000000186,"y":2538557.0500000026}},{"attributes":{"ID":163736,"DIS_CODE":0,"TOWNNAME":"仁德區","LI":"後壁里","LIN":"12鄰","STREET":"德南路","SECT":" ","MAREA":" ","LANE":" ","ALLEY":" ","HOUSE_NO":"１０２之６號","E_COORD97":173565.20999999999,"N_COORD97":2538545.7999999998,"ADDRESS":"德南路１０２之６號","OBJECTID":163735},"geometry":{"x":173565.21000000183,"y":2538545.8000000026}},{"attributes":{"ID":163737,"DIS_CODE":0,"TOWNNAME":"永康區","LI":"五王里","LIN":"25鄰","STREET":"成功路","SECT":" ","MAREA":" ","LANE":"２４４巷","ALLEY":"４９弄","HOUSE_NO":"９號","E_COORD97":171406.82999999999,"N_COORD97":2545906.1099999999,"ADDRESS":"成功路２４４巷４９弄９號","OBJECTID":163736},"geometry":{"x":171406.83000000101,"y":2545906.1100000013}},{"attributes":{"ID":163738,"DIS_CODE":0,"TOWNNAME":"永康區","LI":"王行里","LIN":"5鄰","STREET":"育樂街","SECT":" ","MAREA":" ","LANE":"１８３巷","ALLEY":"５弄","HOUSE_NO":"５號","E_COORD97":174973.85000000001,"N_COORD97":2548313.6400000001,"ADDRESS":"育樂街１８３巷５弄５號","OBJECTID":163737},"geometry":{"x":174973.84999999963,"y":2548313.6400000025}},{"attributes":{"ID":163739,"DIS_CODE":0,"TOWNNAME":"仁德區","LI":"新田里","LIN":"12鄰","STREET":"北保三街","SECT":" ","MAREA":" ","LANE":" ","ALLEY":" ","HOUSE_NO":"１２號","E_COORD97":173172.70000000001,"N_COORD97":2539405.5,"ADDRESS":"北保三街１２號","OBJECTID":163738},"geometry":{"x":173172.70000000112,"y":2539405.5}},{"attributes":{"ID":163740,"DIS_CODE":0,"TOWNNAME":"仁德區","LI":"後壁里","LIN":"12鄰","STREET":"德南路","SECT":" ","MAREA":" ","LANE":" ","ALLEY":" ","HOUSE_NO":"１６９號","E_COORD97":173624.39000000001,"N_COORD97":2538568.77,"ADDRESS":"德南路１６９號","OBJECTID":163739},"geometry":{"x":173624.38999999966,"y":2538568.7699999996}},{"attributes":{"ID":163741,"DIS_CODE":0,"TOWNNAME":"中西區","LI":"仙草里","LIN":"14鄰","STREET":"西門路","SECT":"一段","MAREA":" ","LANE":" ","ALLEY":" ","HOUSE_NO":"４９２號","E_COORD97":167746.23000000001,"N_COORD97":2542710.0499999998,"ADDRESS":"西門路一段４９２號","OBJECTID":163740},"geometry":{"x":167746.23000000138,"y":2542710.0500000026}},{"attributes":{"ID":163742,"DIS_CODE":0,"TOWNNAME":"中西區","LI":"法華里","LIN":"6鄰","STREET":"健康路","SECT":"一段","MAREA":" ","LANE":" ","ALLEY":" ","HOUSE_NO":"２號","E_COORD97":169190.35999999999,"N_COORD97":2542435.8300000001,"ADDRESS":"健康路一段２號","OBJECTID":163741},"geometry":{"x":169190.36000000034,"y":2542435.8300000019}},{"attributes":{"ID":163743,"DIS_CODE":0,"TOWNNAME":"永康區","LI":"北灣里","LIN":"39鄰","STREET":"大同街","SECT":" ","MAREA":" ","LANE":"６３９巷","ALLEY":"２弄","HOUSE_NO":"１０號","E_COORD97":174541.5,"N_COORD97":2546497.3799999999,"ADDRESS":"大同街６３９巷２弄１０號","OBJECTID":163742},"geometry":{"x":174541.50000000186,"y":2546497.379999999}},{"attributes":{"ID":163744,"DIS_CODE":0,"TOWNNAME":"永康區","LI":"五王里","LIN":"25鄰","STREET":"成功路","SECT":" ","MAREA":" ","LANE":"２４４巷","ALLEY":"４９弄","HOUSE_NO":"１１號","E_COORD97":171405.48999999999,"N_COORD97":2545909.1099999999,"ADDRESS":"成功路２４４巷４９弄１１號","OBJECTID":163743},"geometry":{"x":171405.49000000022,"y":2545909.1100000013}},{"attributes":{"ID":163745,"DIS_CODE":0,"TOWNNAME":"中西區","LI":"小西里","LIN":"4鄰","STREET":"和意路","SECT":" ","MAREA":" ","LANE":" ","ALLEY":" ","HOUSE_NO":"６８號","E_COORD97":167796.38,"N_COORD97":2543244.3900000001,"ADDRESS":"和意路６８號","OBJECTID":163744},"geometry":{"x":167796.37999999989,"y":2543244.3900000006}},{"attributes":{"ID":163746,"DIS_CODE":0,"TOWNNAME":"永康區","LI":"北灣里","LIN":"20鄰","STREET":"大安街","SECT":" ","MAREA":" ","LANE":"４６８巷","ALLEY":"３弄","HOUSE_NO":"１１號","E_COORD97":174607.92000000001,"N_COORD97":2545994.2599999998,"ADDRESS":"大安街４６８巷３弄１１號","OBJECTID":163745},"geometry":{"x":174607.91999999899,"y":2545994.2599999998}},{"attributes":{"ID":163747,"DIS_CODE":0,"TOWNNAME":"後壁區","LI":"後壁里","LIN":"12鄰","STREET":" ","SECT":" ","MAREA":"後壁","LANE":" ","ALLEY":" ","HOUSE_NO":"３３４號","E_COORD97":185928.04000000001,"N_COORD97":2584755.4700000002,"ADDRESS":"後壁３３４號","OBJECTID":163746},"geometry":{"x":185928.04000000097,"y":2584755.4700000025}},{"attributes":{"ID":163748,"DIS_CODE":0,"TOWNNAME":"西港區","LI":"營西里","LIN":"18鄰","STREET":" ","SECT":" ","MAREA":"後營","LANE":" ","ALLEY":" ","HOUSE_NO":"１４０號之２","E_COORD97":169755.92999999999,"N_COORD97":2560616.8900000001,"ADDRESS":"後營１４０號之２","OBJECTID":163747},"geometry":{"x":169755.9299999997,"y":2560616.8900000006}},{"attributes":{"ID":163749,"DIS_CODE":0,"TOWNNAME":"西港區","LI":"營西里","LIN":"18鄰","STREET":" ","SECT":" ","MAREA":"後營","LANE":" ","ALLEY":" ","HOUSE_NO":"１４０號之６","E_COORD97":169744.66,"N_COORD97":2560687.2799999998,"ADDRESS":"後營１４０號之６","OBJECTID":163748},"geometry":{"x":169744.66000000015,"y":2560687.2799999993}},{"attributes":{"ID":163750,"DIS_CODE":0,"TOWNNAME":"西港區","LI":"營西里","LIN":"18鄰","STREET":" ","SECT":" ","MAREA":"後營","LANE":" ","ALLEY":" ","HOUSE_NO":"１４０號","E_COORD97":169754.47,"N_COORD97":2560597.2400000002,"ADDRESS":"後營１４０號","OBJECTID":163749},"geometry":{"x":169754.47000000067,"y":2560597.2400000002}},{"attributes":{"ID":163751,"DIS_CODE":0,"TOWNNAME":"西港區","LI":"營西里","LIN":"18鄰","STREET":" ","SECT":" ","MAREA":"後營","LANE":" ","ALLEY":" ","HOUSE_NO":"１４８之５號","E_COORD97":169078.48999999999,"N_COORD97":2561029.8599999999,"ADDRESS":"後營１４８之５號","OBJECTID":163750},"geometry":{"x":169078.49000000115,"y":2561029.8599999994}},{"attributes":{"ID":163752,"DIS_CODE":0,"TOWNNAME":"西港區","LI":"營西里","LIN":"18鄰","STREET":" ","SECT":" ","MAREA":"後營","LANE":" ","ALLEY":" ","HOUSE_NO":"１５０之１２號","E_COORD97":169720.07999999999,"N_COORD97":2560954.46,"ADDRESS":"後營１５０之１２號","OBJECTID":163751},"geometry":{"x":169720.08000000101,"y":2560954.4600000028}},{"attributes":{"ID":163753,"DIS_CODE":0,"TOWNNAME":"西港區","LI":"營西里","LIN":"18鄰","STREET":" ","SECT":" ","MAREA":"後營","LANE":" ","ALLEY":" ","HOUSE_NO":"１５０之２０號","E_COORD97":169595.51999999999,"N_COORD97":2561058.6000000001,"ADDRESS":"後營１５０之２０號","OBJECTID":163752},"geometry":{"x":169595.51999999955,"y":2561058.5999999996}},{"attributes":{"ID":163754,"DIS_CODE":0,"TOWNNAME":"西港區","LI":"營西里","LIN":"18鄰","STREET":" ","SECT":" ","MAREA":"後營","LANE":" ","ALLEY":" ","HOUSE_NO":"１５０號","E_COORD97":169374.88,"N_COORD97":2560848.7799999998,"ADDRESS":"後營１５０號","OBJECTID":163753},"geometry":{"x":169374.87999999989,"y":2560848.7800000012}},{"attributes":{"ID":163755,"DIS_CODE":0,"TOWNNAME":"新市區","LI":"大營里","LIN":"18鄰","STREET":" ","SECT":" ","MAREA":"豐榮","LANE":" ","ALLEY":" ","HOUSE_NO":"２６號","E_COORD97":178887.39999999999,"N_COORD97":2554426.25,"ADDRESS":"豐榮２６號","OBJECTID":163754},"geometry":{"x":178887.40000000224,"y":2554426.25}},{"attributes":{"ID":163756,"DIS_CODE":0,"TOWNNAME":"仁德區","LI":"後壁里","LIN":"12鄰","STREET":"德南路","SECT":" ","MAREA":" ","LANE":" ","ALLEY":" ","HOUSE_NO":"１０２之１０號","E_COORD97":173560.42000000001,"N_COORD97":2538529.04,"ADDRESS":"德南路１０２之１０號","OBJECTID":163755},"geometry":{"x":173560.42000000179,"y":2538529.0399999991}},{"attributes":{"ID":163757,"DIS_CODE":0,"TOWNNAME":"永康區","LI":"五王里","LIN":"25鄰","STREET":"成功路","SECT":" ","MAREA":" ","LANE":"２４４巷","ALLEY":"４９弄","HOUSE_NO":"８號","E_COORD97":171421.13,"N_COORD97":2545915.27,"ADDRESS":"成功路２４４巷４９弄８號","OBJECTID":163756},"geometry":{"x":171421.12999999989,"y":2545915.2700000014}},{"attributes":{"ID":163758,"DIS_CODE":0,"TOWNNAME":"永康區","LI":"五王里","LIN":"25鄰","STREET":"成功路","SECT":" ","MAREA":" ","LANE":"２４４巷","ALLEY":"４９弄","HOUSE_NO":"６號","E_COORD97":171423.64999999999,"N_COORD97":2545911.02,"ADDRESS":"成功路２４４巷４９弄６號","OBJECTID":163757},"geometry":{"x":171423.6500000013,"y":2545911.0199999996}},{"attributes":{"ID":163759,"DIS_CODE":0,"TOWNNAME":"新市區","LI":"社內里","LIN":"18鄰","STREET":" ","SECT":" ","MAREA":"社內","LANE":" ","ALLEY":" ","HOUSE_NO":"１９１之１號","E_COORD97":176149.39671900001,"N_COORD97":2553060.3916500001,"ADDRESS":"社內１９１之１號","OBJECTID":163758},"geometry":{"x":176149.39671900123,"y":2553060.3916540015}},{"attributes":{"ID":163760,"DIS_CODE":0,"TOWNNAME":"新市區","LI":"社內里","LIN":"18鄰","STREET":" ","SECT":" ","MAREA":"社內","LANE":" ","ALLEY":" ","HOUSE_NO":"１８７之２號","E_COORD97":176200.81,"N_COORD97":2553079.5499999998,"ADDRESS":"社內１８７之２號","OBJECTID":163759},"geometry":{"x":176200.81000000052,"y":2553079.5500000007}},{"attributes":{"ID":163761,"DIS_CODE":0,"TOWNNAME":"新市區","LI":"社內里","LIN":"18鄰","STREET":" ","SECT":" ","MAREA":"社內","LANE":" ","ALLEY":" ","HOUSE_NO":"１８９之６號","E_COORD97":176130.72,"N_COORD97":2553036.2999999998,"ADDRESS":"社內１８９之６號","OBJECTID":163760},"geometry":{"x":176130.71999999974,"y":2553036.3000000026}},{"attributes":{"ID":163762,"DIS_CODE":0,"TOWNNAME":"新市區","LI":"社內里","LIN":"18鄰","STREET":" ","SECT":" ","MAREA":"社內","LANE":" ","ALLEY":" ","HOUSE_NO":"１６４之９號","E_COORD97":176172.89000000001,"N_COORD97":2553084.5499999998,"ADDRESS":"社內１６４之９號","OBJECTID":163761},"geometry":{"x":176172.8900000006,"y":2553084.5500000026}},{"attributes":{"ID":163763,"DIS_CODE":0,"TOWNNAME":"仁德區","LI":"新田里","LIN":"12鄰","STREET":"北保三街","SECT":" ","MAREA":" ","LANE":" ","ALLEY":" ","HOUSE_NO":"１０號","E_COORD97":173170,"N_COORD97":2539402.25,"ADDRESS":"北保三街１０號","OBJECTID":163762},"geometry":{"x":173170.00000000186,"y":2539402.2500000019}},{"attributes":{"ID":163764,"DIS_CODE":0,"TOWNNAME":"永康區","LI":"五王里","LIN":"4鄰","STREET":"中華二路","SECT":" ","MAREA":" ","LANE":"２０６巷","ALLEY":"３０弄","HOUSE_NO":"３１號","E_COORD97":171703.76000000001,"N_COORD97":2545594.4300000002,"ADDRESS":"中華二路２０６巷３０弄３１號","OBJECTID":163763},"geometry":{"x":171703.76000000071,"y":2545594.4300000016}},{"attributes":{"ID":163765,"DIS_CODE":0,"TOWNNAME":"新市區","LI":"社內里","LIN":"18鄰","STREET":" ","SECT":" ","MAREA":"社內","LANE":" ","ALLEY":" ","HOUSE_NO":"１８８之１號","E_COORD97":176161.047639,"N_COORD97":2553060.1799900001,"ADDRESS":"社內１８８之１號","OBJECTID":163764},"geometry":{"x":176161.04763900209,"y":2553060.1799870003}},{"attributes":{"ID":163766,"DIS_CODE":0,"TOWNNAME":"新市區","LI":"社內里","LIN":"18鄰","STREET":" ","SECT":" ","MAREA":"社內","LANE":" ","ALLEY":" ","HOUSE_NO":"１８５之１號","E_COORD97":176133.23000000001,"N_COORD97":2553238.0499999998,"ADDRESS":"社內１８５之１號","OBJECTID":163765},"geometry":{"x":176133.23000000045,"y":2553238.0500000007}},{"attributes":{"ID":163767,"DIS_CODE":0,"TOWNNAME":"仁德區","LI":"後壁里","LIN":"12鄰","STREET":"德南路","SECT":" ","MAREA":" ","LANE":" ","ALLEY":" ","HOUSE_NO":"９６號","E_COORD97":173572.01999999999,"N_COORD97":2538583.27,"ADDRESS":"德南路９６號","OBJECTID":163766},"geometry":{"x":173572.02000000048,"y":2538583.2699999996}},{"attributes":{"ID":163768,"DIS_CODE":0,"TOWNNAME":"仁德區","LI":"新田里","LIN":"12鄰","STREET":"北保三街","SECT":" ","MAREA":" ","LANE":" ","ALLEY":" ","HOUSE_NO":"８號","E_COORD97":173167.34,"N_COORD97":2539398.8100000001,"ADDRESS":"北保三街８號","OBJECTID":163767},"geometry":{"x":173167.33999999985,"y":2539398.8100000024}},{"attributes":{"ID":163769,"DIS_CODE":0,"TOWNNAME":"永康區","LI":"正強里","LIN":"24鄰","STREET":"中正路","SECT":" ","MAREA":" ","LANE":"１２７巷","ALLEY":"１９弄","HOUSE_NO":"６號","E_COORD97":173411.42000000001,"N_COORD97":2547807.21,"ADDRESS":"中正路１２７巷１９弄６號","OBJECTID":163768},"geometry":{"x":173411.42000000086,"y":2547807.209999999}},{"attributes":{"ID":163770,"DIS_CODE":0,"TOWNNAME":"新市區","LI":"社內里","LIN":"18鄰","STREET":" ","SECT":" ","MAREA":"社內","LANE":" ","ALLEY":" ","HOUSE_NO":"１９３號","E_COORD97":176091.92000000001,"N_COORD97":2553090,"ADDRESS":"社內１９３號","OBJECTID":163769},"geometry":{"x":176091.92000000086,"y":2553090.0000000037}},{"attributes":{"ID":163771,"DIS_CODE":0,"TOWNNAME":"永康區","LI":"五王里","LIN":"4鄰","STREET":"中華二路","SECT":" ","MAREA":" ","LANE":"２０６巷","ALLEY":"３０弄","HOUSE_NO":"２７號","E_COORD97":171696.01999999999,"N_COORD97":2545593.3599999999,"ADDRESS":"中華二路２０６巷３０弄２７號","OBJECTID":163770},"geometry":{"x":171696.01999999955,"y":2545593.3599999994}},{"attributes":{"ID":163772,"DIS_CODE":0,"TOWNNAME":"新市區","LI":"新和里","LIN":"50鄰","STREET":"自強街","SECT":" ","MAREA":" ","LANE":"３４巷","ALLEY":"１弄","HOUSE_NO":"７號","E_COORD97":177649.44,"N_COORD97":2553526.25,"ADDRESS":"自強街３４巷１弄７號","OBJECTID":163771},"geometry":{"x":177649.43999999948,"y":2553526.2500000019}},{"attributes":{"ID":163773,"DIS_CODE":0,"TOWNNAME":"新市區","LI":"新和里","LIN":"20鄰","STREET":"中正路","SECT":" ","MAREA":" ","LANE":"１１６巷","ALLEY":"２弄","HOUSE_NO":"１０號","E_COORD97":177454.84,"N_COORD97":2552542.25,"ADDRESS":"中正路１１６巷２弄１０號","OBJECTID":163772},"geometry":{"x":177454.84000000171,"y":2552542.25}},{"attributes":{"ID":163774,"DIS_CODE":0,"TOWNNAME":"新市區","LI":"新和里","LIN":"39鄰","STREET":"中正路","SECT":" ","MAREA":" ","LANE":"２６８巷","ALLEY":"１２弄","HOUSE_NO":"８號","E_COORD97":177502.95000000001,"N_COORD97":2553000,"ADDRESS":"中正路２６８巷１２弄８號","OBJECTID":163773},"geometry":{"x":177502.95000000019,"y":2553000.0000000019}},{"attributes":{"ID":163775,"DIS_CODE":0,"TOWNNAME":"新市區","LI":"新和里","LIN":"50鄰","STREET":"自強街","SECT":" ","MAREA":" ","LANE":"３４巷","ALLEY":"１弄","HOUSE_NO":"１５號","E_COORD97":177634.10000000001,"N_COORD97":2553522.25,"ADDRESS":"自強街３４巷１弄１５號","OBJECTID":163774},"geometry":{"x":177634.10000000149,"y":2553522.2499999981}},{"attributes":{"ID":163776,"DIS_CODE":0,"TOWNNAME":"新市區","LI":"新市里","LIN":"25鄰","STREET":"復興路","SECT":" ","MAREA":" ","LANE":"６巷","ALLEY":"２２弄","HOUSE_NO":"９號","E_COORD97":177905.32000000001,"N_COORD97":2553312.2799999998,"ADDRESS":"復興路６巷２２弄９號","OBJECTID":163775},"geometry":{"x":177905.32000000123,"y":2553312.2800000012}},{"attributes":{"ID":163777,"DIS_CODE":0,"TOWNNAME":"新市區","LI":"新和里","LIN":"50鄰","STREET":"自強街","SECT":" ","MAREA":" ","LANE":"３４巷","ALLEY":"１弄","HOUSE_NO":"８號","E_COORD97":177655.5,"N_COORD97":2553541.75,"ADDRESS":"自強街３４巷１弄８號","OBJECTID":163776},"geometry":{"x":177655.50000000186,"y":2553541.75}},{"attributes":{"ID":163778,"DIS_CODE":0,"TOWNNAME":"新市區","LI":"新市里","LIN":"26鄰","STREET":"復興路","SECT":" ","MAREA":" ","LANE":"６巷","ALLEY":"４１弄","HOUSE_NO":"１號","E_COORD97":177935.37,"N_COORD97":2553389.2799999998,"ADDRESS":"復興路６巷４１弄１號","OBJECTID":163777},"geometry":{"x":177935.37000000011,"y":2553389.2800000031}},{"attributes":{"ID":163779,"DIS_CODE":0,"TOWNNAME":"新市區","LI":"新和里","LIN":"50鄰","STREET":"自強街","SECT":" ","MAREA":" ","LANE":"３４巷","ALLEY":"１弄","HOUSE_NO":"２４號","E_COORD97":177617.72,"N_COORD97":2553533.75,"ADDRESS":"自強街３４巷１弄２４號","OBJECTID":163778},"geometry":{"x":177617.71999999974,"y":2553533.7500000019}},{"attributes":{"ID":163780,"DIS_CODE":0,"TOWNNAME":"新市區","LI":"新和里","LIN":"26鄰","STREET":"永福街","SECT":" ","MAREA":" ","LANE":"１６巷","ALLEY":"１８弄","HOUSE_NO":"１２號","E_COORD97":177834.20000000001,"N_COORD97":2552710,"ADDRESS":"永福街１６巷１８弄１２號","OBJECTID":163779},"geometry":{"x":177834.20000000112,"y":2552710}},{"attributes":{"ID":163781,"DIS_CODE":0,"TOWNNAME":"新市區","LI":"新和里","LIN":"50鄰","STREET":"自強街","SECT":" ","MAREA":" ","LANE":"３４巷","ALLEY":"１弄","HOUSE_NO":"１２號","E_COORD97":177648.66,"N_COORD97":2553539.25,"ADDRESS":"自強街３４巷１弄１２號","OBJECTID":163780},"geometry":{"x":177648.66000000015,"y":2553539.2500000037}},{"attributes":{"ID":163782,"DIS_CODE":0,"TOWNNAME":"新市區","LI":"新和里","LIN":"26鄰","STREET":"永福街","SECT":" ","MAREA":" ","LANE":"１６巷","ALLEY":"１８弄","HOUSE_NO":"１０號","E_COORD97":177829.01000000001,"N_COORD97":2552711.5,"ADDRESS":"永福街１６巷１８弄１０號","OBJECTID":163781},"geometry":{"x":177829.00999999978,"y":2552711.5000000019}},{"attributes":{"ID":163783,"DIS_CODE":0,"TOWNNAME":"新市區","LI":"新市里","LIN":"25鄰","STREET":"復興路","SECT":" ","MAREA":" ","LANE":"６巷","ALLEY":"２２弄","HOUSE_NO":"７號","E_COORD97":177903.98000000001,"N_COORD97":2553316.2799999998,"ADDRESS":"復興路６巷２２弄７號","OBJECTID":163782},"geometry":{"x":177903.98000000138,"y":2553316.2800000012}},{"attributes":{"ID":163784,"DIS_CODE":0,"TOWNNAME":"仁德區","LI":"後壁里","LIN":"12鄰","STREET":"德南路","SECT":" ","MAREA":" ","LANE":" ","ALLEY":" ","HOUSE_NO":"１６７號","E_COORD97":173620.88,"N_COORD97":2538572.77,"ADDRESS":"德南路１６７號","OBJECTID":163783},"geometry":{"x":173620.87999999989,"y":2538572.7699999996}},{"attributes":{"ID":163785,"DIS_CODE":0,"TOWNNAME":"山上區","LI":"南洲里","LIN":"18鄰","STREET":" ","SECT":" ","MAREA":"南洲","LANE":" ","ALLEY":" ","HOUSE_NO":"３４５號之１３","E_COORD97":183484.92000000001,"N_COORD97":2555845.2999999998,"ADDRESS":"南洲３４５號之１３","OBJECTID":163784},"geometry":{"x":183484.91999999993,"y":2555845.3000000045}},{"attributes":{"ID":163786,"DIS_CODE":0,"TOWNNAME":"山上區","LI":"南洲里","LIN":"18鄰","STREET":" ","SECT":" ","MAREA":"南洲","LANE":" ","ALLEY":" ","HOUSE_NO":"２９８之１號","E_COORD97":183676.65068600001,"N_COORD97":2555719.1344400002,"ADDRESS":"南洲２９８之１號","OBJECTID":163785},"geometry":{"x":183676.65068599954,"y":2555719.134443}},{"attributes":{"ID":163787,"DIS_CODE":0,"TOWNNAME":"山上區","LI":"南洲里","LIN":"18鄰","STREET":" ","SECT":" ","MAREA":"南洲","LANE":" ","ALLEY":" ","HOUSE_NO":"３４５號之１２","E_COORD97":183489.85999999999,"N_COORD97":2555846.2999999998,"ADDRESS":"南洲３４５號之１２","OBJECTID":163786},"geometry":{"x":183489.8599999994,"y":2555846.3000000026}},{"attributes":{"ID":163788,"DIS_CODE":0,"TOWNNAME":"山上區","LI":"明和里","LIN":"18鄰","STREET":" ","SECT":" ","MAREA":"明和","LANE":" ","ALLEY":" ","HOUSE_NO":"４２之３號","E_COORD97":183320.79000000001,"N_COORD97":2556087.2999999998,"ADDRESS":"明和４２之３號","OBJECTID":163787},"geometry":{"x":183320.79000000097,"y":2556087.3000000026}},{"attributes":{"ID":163789,"DIS_CODE":0,"TOWNNAME":"新市區","LI":"新和里","LIN":"50鄰","STREET":"自強街","SECT":" ","MAREA":" ","LANE":"３４巷","ALLEY":"１弄","HOUSE_NO":"３０號","E_COORD97":177592.94,"N_COORD97":2553523.25,"ADDRESS":"自強街３４巷１弄３０號","OBJECTID":163788},"geometry":{"x":177592.94000000041,"y":2553523.2500000019}},{"attributes":{"ID":163790,"DIS_CODE":0,"TOWNNAME":"新市區","LI":"新市里","LIN":"26鄰","STREET":"復興路","SECT":" ","MAREA":" ","LANE":"６巷","ALLEY":"４１弄","HOUSE_NO":"３號","E_COORD97":177936.03,"N_COORD97":2553394.0299999998,"ADDRESS":"復興路６巷４１弄３號","OBJECTID":163789},"geometry":{"x":177936.03000000119,"y":2553394.0299999993}},{"attributes":{"ID":163791,"DIS_CODE":0,"TOWNNAME":"安南區","LI":"溪心里","LIN":"12鄰","STREET":"海佃路","SECT":"二段","MAREA":" ","LANE":" ","ALLEY":" ","HOUSE_NO":"６７０號","E_COORD97":166591.38,"N_COORD97":2549438.2599999998,"ADDRESS":"海佃路二段６７０號","OBJECTID":163790},"geometry":{"x":166591.37999999989,"y":2549438.2600000016}},{"attributes":{"ID":163792,"DIS_CODE":0,"TOWNNAME":"中西區","LI":"藥王里","LIN":"12鄰","STREET":"和善街","SECT":" ","MAREA":" ","LANE":" ","ALLEY":" ","HOUSE_NO":"９號","E_COORD97":167117.14999999999,"N_COORD97":2544548.71,"ADDRESS":"和善街９號","OBJECTID":163791},"geometry":{"x":167117.15000000037,"y":2544548.7100000009}},{"attributes":{"ID":163793,"DIS_CODE":0,"TOWNNAME":"安南區","LI":"安順里","LIN":"12鄰","STREET":"安和路","SECT":"三段","MAREA":" ","LANE":" ","ALLEY":" ","HOUSE_NO":"１９２號","E_COORD97":169975.63,"N_COORD97":2549843.5099999998,"ADDRESS":"安和路三段１９２號","OBJECTID":163792},"geometry":{"x":169975.63000000082,"y":2549843.5100000016}},{"attributes":{"ID":163794,"DIS_CODE":0,"TOWNNAME":"新市區","LI":"新和里","LIN":"50鄰","STREET":"自強街","SECT":" ","MAREA":" ","LANE":"３４巷","ALLEY":"１弄","HOUSE_NO":"３４號","E_COORD97":177585.10000000001,"N_COORD97":2553513.5,"ADDRESS":"自強街３４巷１弄３４號","OBJECTID":163793},"geometry":{"x":177585.10000000056,"y":2553513.5}},{"attributes":{"ID":163795,"DIS_CODE":0,"TOWNNAME":"永康區","LI":"五王里","LIN":"12鄰","STREET":"中山東路","SECT":" ","MAREA":" ","LANE":" ","ALLEY":" ","HOUSE_NO":"１９２號","E_COORD97":171764.92000000001,"N_COORD97":2545794.1099999999,"ADDRESS":"中山東路１９２號","OBJECTID":163794},"geometry":{"x":171764.91999999993,"y":2545794.1100000013}},{"attributes":{"ID":163796,"DIS_CODE":0,"TOWNNAME":"永康區","LI":"五王里","LIN":"12鄰","STREET":"中山東路","SECT":" ","MAREA":" ","LANE":" ","ALLEY":" ","HOUSE_NO":"２１２號","E_COORD97":171773.26999999999,"N_COORD97":2545760.6000000001,"ADDRESS":"中山東路２１２號","OBJECTID":163795},"geometry":{"x":171773.27000000048,"y":2545760.6000000015}},{"attributes":{"ID":163797,"DIS_CODE":0,"TOWNNAME":"永康區","LI":"五王里","LIN":"12鄰","STREET":"中山東路","SECT":" ","MAREA":" ","LANE":" ","ALLEY":" ","HOUSE_NO":"２０２號","E_COORD97":171769.10999999999,"N_COORD97":2545777.3500000001,"ADDRESS":"中山東路２０２號","OBJECTID":163796},"geometry":{"x":171769.11000000034,"y":2545777.3499999996}},{"attributes":{"ID":163798,"DIS_CODE":0,"TOWNNAME":"新市區","LI":"新市里","LIN":"26鄰","STREET":"復興路","SECT":" ","MAREA":" ","LANE":"６巷","ALLEY":"４１弄","HOUSE_NO":"７號","E_COORD97":177936.32000000001,"N_COORD97":2553401.5299999998,"ADDRESS":"復興路６巷４１弄７號","OBJECTID":163797},"geometry":{"x":177936.3200000003,"y":2553401.5300000012}},{"attributes":{"ID":163799,"DIS_CODE":0,"TOWNNAME":"中西區","LI":"藥王里","LIN":"12鄰","STREET":"協和街","SECT":" ","MAREA":" ","LANE":" ","ALLEY":" ","HOUSE_NO":"６９號","E_COORD97":167068.87,"N_COORD97":2544544.0099999998,"ADDRESS":"協和街６９號","OBJECTID":163798},"geometry":{"x":167068.87000000104,"y":2544544.0100000016}},{"attributes":{"ID":163800,"DIS_CODE":0,"TOWNNAME":"新市區","LI":"新和里","LIN":"20鄰","STREET":"中正路","SECT":" ","MAREA":" ","LANE":"１１６巷","ALLEY":"２弄","HOUSE_NO":"１４號","E_COORD97":177455.31,"N_COORD97":2552532.25,"ADDRESS":"中正路１１６巷２弄１４號","OBJECTID":163799},"geometry":{"x":177455.31000000052,"y":2552532.2499999981}},{"attributes":{"ID":163801,"DIS_CODE":0,"TOWNNAME":"永康區","LI":"五王里","LIN":"12鄰","STREET":"中山東路","SECT":" ","MAREA":" ","LANE":" ","ALLEY":" ","HOUSE_NO":"２００號","E_COORD97":171768.03,"N_COORD97":2545781.6000000001,"ADDRESS":"中山東路２００號","OBJECTID":163800},"geometry":{"x":171768.03000000026,"y":2545781.5999999996}}]}