{"displayFieldName":"TOWNNAME","fieldAliases":{"ID":"ID","DIS_CODE":"DIS_CODE","TOWNNAME":"TOWNNAME","LI":"LI","LIN":"LIN","STREET":"STREET","SECT":"SECT","MAREA":"MAREA","LANE":"LANE","ALLEY":"ALLEY","HOUSE_NO":"HOUSE_NO","E_COORD97":"E_COORD97","N_COORD97":"N_COORD97","ADDRESS":"ADDRESS","OBJECTID":"OBJECTID"},"geometryType":"esriGeometryPoint","spatialReference":{"wkid":102443,"latestWkid":3826},"fields":[{"name":"ID","type":"esriFieldTypeDouble","alias":"ID"},{"name":"DIS_CODE","type":"esriFieldTypeInteger","alias":"DIS_CODE"},{"name":"TOWNNAME","type":"esriFieldTypeString","alias":"TOWNNAME","length":8},{"name":"LI","type":"esriFieldTypeString","alias":"LI","length":8},{"name":"LIN","type":"esriFieldTypeString","alias":"LIN","length":12},{"name":"STREET","type":"esriFieldTypeString","alias":"STREET","length":20},{"name":"SECT","type":"esriFieldTypeString","alias":"SECT","length":8},{"name":"MAREA","type":"esriFieldTypeString","alias":"MAREA","length":12},{"name":"LANE","type":"esriFieldTypeString","alias":"LANE","length":10},{"name":"ALLEY","type":"esriFieldTypeString","alias":"ALLEY","length":10},{"name":"HOUSE_NO","type":"esriFieldTypeString","alias":"HOUSE_NO","length":20},{"name":"E_COORD97","type":"esriFieldTypeDouble","alias":"E_COORD97"},{"name":"N_COORD97","type":"esriFieldTypeDouble","alias":"N_COORD97"},{"name":"ADDRESS","type":"esriFieldTypeString","alias":"ADDRESS","length":50},{"name":"OBJECTID","type":"esriFieldTypeOID","alias":"OBJECTID"}],"features":[{"attributes":{"ID":572428,"DIS_CODE":0,"TOWNNAME":"北區","LI":"成德里","LIN":"29鄰","STREET":"立賢路","SECT":"一段","MAREA":" ","LANE":" ","ALLEY":" ","HOUSE_NO":"６０６號","E_COORD97":168386.53,"N_COORD97":2545589.1299999999,"ADDRESS":"立賢路一段６０６號","OBJECTID":572401},"geometry":{"x":168386.53000000119,"y":2545589.1300000008}},{"attributes":{"ID":572429,"DIS_CODE":0,"TOWNNAME":"北區","LI":"成德里","LIN":"29鄰","STREET":"立賢路","SECT":"一段","MAREA":" ","LANE":" ","ALLEY":" ","HOUSE_NO":"６０８號","E_COORD97":168377.01000000001,"N_COORD97":2545589.1299999999,"ADDRESS":"立賢路一段６０８號","OBJECTID":572402},"geometry":{"x":168377.00999999978,"y":2545589.1300000008}},{"attributes":{"ID":572430,"DIS_CODE":0,"TOWNNAME":"北區","LI":"文元里","LIN":"29鄰","STREET":"文成路","SECT":" ","MAREA":" ","LANE":" ","ALLEY":" ","HOUSE_NO":"５６２號","E_COORD97":167900.87,"N_COORD97":2545902.46,"ADDRESS":"文成路５６２號","OBJECTID":572403},"geometry":{"x":167900.87000000104,"y":2545902.4600000009}},{"attributes":{"ID":572431,"DIS_CODE":0,"TOWNNAME":"北區","LI":"文元里","LIN":"29鄰","STREET":"文成路","SECT":" ","MAREA":" ","LANE":" ","ALLEY":" ","HOUSE_NO":"６９６號","E_COORD97":167656.67000000001,"N_COORD97":2545890.6200000001,"ADDRESS":"文成路６９６號","OBJECTID":572404},"geometry":{"x":167656.67000000086,"y":2545890.6200000029}},{"attributes":{"ID":572432,"DIS_CODE":0,"TOWNNAME":"南區","LI":"大忠里","LIN":"29鄰","STREET":"中華南路","SECT":"一段","MAREA":" ","LANE":" ","ALLEY":" ","HOUSE_NO":"９８號","E_COORD97":169258.60999999999,"N_COORD97":2541360.2599999998,"ADDRESS":"中華南路一段９８號","OBJECTID":572405},"geometry":{"x":169258.61000000034,"y":2541360.2599999998}},{"attributes":{"ID":572433,"DIS_CODE":0,"TOWNNAME":"北區","LI":"和順里","LIN":"29鄰","STREET":"海安路","SECT":"三段","MAREA":" ","LANE":" ","ALLEY":" ","HOUSE_NO":"１３７號","E_COORD97":167960.82999999999,"N_COORD97":2545038.1600000001,"ADDRESS":"海安路三段１３７號","OBJECTID":572406},"geometry":{"x":167960.83000000101,"y":2545038.160000002}},{"attributes":{"ID":572434,"DIS_CODE":0,"TOWNNAME":"北區","LI":"和順里","LIN":"29鄰","STREET":"海安路","SECT":"三段","MAREA":" ","LANE":" ","ALLEY":" ","HOUSE_NO":"１４３號","E_COORD97":167960.98000000001,"N_COORD97":2545049.1400000001,"ADDRESS":"海安路三段１４３號","OBJECTID":572407},"geometry":{"x":167960.98000000045,"y":2545049.1400000025}},{"attributes":{"ID":572435,"DIS_CODE":0,"TOWNNAME":"北區","LI":"和順里","LIN":"29鄰","STREET":"海安路","SECT":"三段","MAREA":" ","LANE":" ","ALLEY":" ","HOUSE_NO":"１４５號","E_COORD97":167961.26000000001,"N_COORD97":2545053.7200000002,"ADDRESS":"海安路三段１４５號","OBJECTID":572408},"geometry":{"x":167961.26000000071,"y":2545053.7200000007}},{"attributes":{"ID":572436,"DIS_CODE":0,"TOWNNAME":"北區","LI":"和順里","LIN":"29鄰","STREET":"海安路","SECT":"三段","MAREA":" ","LANE":" ","ALLEY":" ","HOUSE_NO":"１４７號","E_COORD97":167961.12,"N_COORD97":2545057.2999999998,"ADDRESS":"海安路三段１４７號","OBJECTID":572409},"geometry":{"x":167961.12000000011,"y":2545057.3000000045}},{"attributes":{"ID":572437,"DIS_CODE":0,"TOWNNAME":"北區","LI":"和順里","LIN":"29鄰","STREET":"海安路","SECT":"三段","MAREA":" ","LANE":" ","ALLEY":" ","HOUSE_NO":"１４９號","E_COORD97":167961.12,"N_COORD97":2545062.0299999998,"ADDRESS":"海安路三段１４９號","OBJECTID":572410},"geometry":{"x":167961.12000000011,"y":2545062.0300000012}},{"attributes":{"ID":572438,"DIS_CODE":0,"TOWNNAME":"北區","LI":"和順里","LIN":"29鄰","STREET":"海安路","SECT":"三段","MAREA":" ","LANE":" ","ALLEY":" ","HOUSE_NO":"１５１號","E_COORD97":167961.26000000001,"N_COORD97":2545066.8999999999,"ADDRESS":"海安路三段１５１號","OBJECTID":572411},"geometry":{"x":167961.26000000071,"y":2545066.9000000022}},{"attributes":{"ID":572439,"DIS_CODE":0,"TOWNNAME":"北區","LI":"和順里","LIN":"29鄰","STREET":"海安路","SECT":"三段","MAREA":" ","LANE":" ","ALLEY":" ","HOUSE_NO":"１５３號","E_COORD97":167961.41,"N_COORD97":2545071.1899999999,"ADDRESS":"海安路三段１５３號","OBJECTID":572412},"geometry":{"x":167961.40999999922,"y":2545071.1900000013}},{"attributes":{"ID":572440,"DIS_CODE":0,"TOWNNAME":"北區","LI":"和順里","LIN":"29鄰","STREET":"海安路","SECT":"三段","MAREA":" ","LANE":" ","ALLEY":" ","HOUSE_NO":"１５５號","E_COORD97":167961.54999999999,"N_COORD97":2545076.0600000001,"ADDRESS":"海安路三段１５５號","OBJECTID":572413},"geometry":{"x":167961.54999999981,"y":2545076.0600000024}},{"attributes":{"ID":572441,"DIS_CODE":0,"TOWNNAME":"北區","LI":"和順里","LIN":"29鄰","STREET":"海安路","SECT":"三段","MAREA":" ","LANE":" ","ALLEY":" ","HOUSE_NO":"１５７號","E_COORD97":167961.41,"N_COORD97":2545080.0699999998,"ADDRESS":"海安路三段１５７號","OBJECTID":572414},"geometry":{"x":167961.40999999922,"y":2545080.0700000022}},{"attributes":{"ID":572442,"DIS_CODE":0,"TOWNNAME":"北區","LI":"和順里","LIN":"29鄰","STREET":"海安路","SECT":"三段","MAREA":" ","LANE":" ","ALLEY":" ","HOUSE_NO":"１５９號","E_COORD97":167961.41,"N_COORD97":2545084.7999999998,"ADDRESS":"海安路三段１５９號","OBJECTID":572415},"geometry":{"x":167961.40999999922,"y":2545084.8000000026}},{"attributes":{"ID":572443,"DIS_CODE":0,"TOWNNAME":"北區","LI":"和順里","LIN":"29鄰","STREET":"海安路","SECT":"三段","MAREA":" ","LANE":" ","ALLEY":" ","HOUSE_NO":"１６１號","E_COORD97":167961.41,"N_COORD97":2545089.1000000001,"ADDRESS":"海安路三段１６１號","OBJECTID":572416},"geometry":{"x":167961.40999999922,"y":2545089.1000000015}},{"attributes":{"ID":572444,"DIS_CODE":0,"TOWNNAME":"北區","LI":"和順里","LIN":"29鄰","STREET":"海安路","SECT":"三段","MAREA":" ","LANE":" ","ALLEY":" ","HOUSE_NO":"１６３號","E_COORD97":167961.41,"N_COORD97":2545094.25,"ADDRESS":"海安路三段１６３號","OBJECTID":572417},"geometry":{"x":167961.40999999922,"y":2545094.2500000019}},{"attributes":{"ID":572445,"DIS_CODE":0,"TOWNNAME":"北區","LI":"和順里","LIN":"29鄰","STREET":"海安路","SECT":"三段","MAREA":" ","LANE":" ","ALLEY":" ","HOUSE_NO":"１６５號","E_COORD97":167961.84,"N_COORD97":2545099.0499999998,"ADDRESS":"海安路三段１６５號","OBJECTID":572418},"geometry":{"x":167961.84000000078,"y":2545099.0500000007}},{"attributes":{"ID":572446,"DIS_CODE":0,"TOWNNAME":"北區","LI":"和順里","LIN":"29鄰","STREET":"海安路","SECT":"三段","MAREA":" ","LANE":" ","ALLEY":" ","HOUSE_NO":"１６７號","E_COORD97":167961.98000000001,"N_COORD97":2545103.0600000001,"ADDRESS":"海安路三段１６７號","OBJECTID":572419},"geometry":{"x":167961.98000000138,"y":2545103.0600000024}},{"attributes":{"ID":572447,"DIS_CODE":0,"TOWNNAME":"北區","LI":"和順里","LIN":"29鄰","STREET":"海安路","SECT":"三段","MAREA":" ","LANE":" ","ALLEY":" ","HOUSE_NO":"１６９號","E_COORD97":167961.84,"N_COORD97":2545107.21,"ADDRESS":"海安路三段１６９號","OBJECTID":572420},"geometry":{"x":167961.84000000078,"y":2545107.2100000009}},{"attributes":{"ID":572448,"DIS_CODE":0,"TOWNNAME":"北區","LI":"和順里","LIN":"29鄰","STREET":"海安路","SECT":"三段","MAREA":" ","LANE":" ","ALLEY":" ","HOUSE_NO":"１７１號","E_COORD97":167961.98000000001,"N_COORD97":2545112.2200000002,"ADDRESS":"海安路三段１７１號","OBJECTID":572421},"geometry":{"x":167961.98000000138,"y":2545112.2200000025}},{"attributes":{"ID":572449,"DIS_CODE":0,"TOWNNAME":"東區","LI":"東安里","LIN":"20鄰","STREET":"林森路","SECT":"二段","MAREA":" ","LANE":" ","ALLEY":" ","HOUSE_NO":"７３號","E_COORD97":170310.98000000001,"N_COORD97":2543056.52,"ADDRESS":"林森路二段７３號","OBJECTID":572422},"geometry":{"x":170310.98000000231,"y":2543056.5199999996}},{"attributes":{"ID":572450,"DIS_CODE":0,"TOWNNAME":"東區","LI":"東安里","LIN":"20鄰","STREET":"林森路","SECT":"二段","MAREA":" ","LANE":" ","ALLEY":" ","HOUSE_NO":"７７號","E_COORD97":170312.70999999999,"N_COORD97":2543066.5899999999,"ADDRESS":"林森路二段７７號","OBJECTID":572423},"geometry":{"x":170312.71000000089,"y":2543066.5899999999}},{"attributes":{"ID":572451,"DIS_CODE":0,"TOWNNAME":"東區","LI":"東安里","LIN":"20鄰","STREET":"衛國街","SECT":" ","MAREA":" ","LANE":" ","ALLEY":" ","HOUSE_NO":"５４號","E_COORD97":170295.70000000001,"N_COORD97":2543067.3999999999,"ADDRESS":"衛國街５４號","OBJECTID":572424},"geometry":{"x":170295.70000000112,"y":2543067.4000000022}},{"attributes":{"ID":572452,"DIS_CODE":0,"TOWNNAME":"東區","LI":"東安里","LIN":"20鄰","STREET":"衛國街","SECT":" ","MAREA":" ","LANE":" ","ALLEY":" ","HOUSE_NO":"５８號","E_COORD97":170294.34,"N_COORD97":2543058.0600000001,"ADDRESS":"衛國街５８號","OBJECTID":572425},"geometry":{"x":170294.34000000171,"y":2543058.0600000042}},{"attributes":{"ID":572453,"DIS_CODE":0,"TOWNNAME":"東區","LI":"小東里","LIN":"33鄰","STREET":"東平路","SECT":" ","MAREA":" ","LANE":" ","ALLEY":" ","HOUSE_NO":"１３４號","E_COORD97":171055.91,"N_COORD97":2543983.1099999999,"ADDRESS":"東平路１３４號","OBJECTID":572426},"geometry":{"x":171055.91000000108,"y":2543983.1100000013}},{"attributes":{"ID":572454,"DIS_CODE":0,"TOWNNAME":"東區","LI":"崇德里","LIN":"21鄰","STREET":"崇德路","SECT":" ","MAREA":" ","LANE":" ","ALLEY":" ","HOUSE_NO":"４０４號","E_COORD97":170572.35999999999,"N_COORD97":2541756.2799999998,"ADDRESS":"崇德路４０４號","OBJECTID":572427},"geometry":{"x":170572.36000000034,"y":2541756.2799999993}},{"attributes":{"ID":572455,"DIS_CODE":0,"TOWNNAME":"北區","LI":"和順里","LIN":"29鄰","STREET":"海安路","SECT":"三段","MAREA":" ","LANE":" ","ALLEY":" ","HOUSE_NO":"１７３號","E_COORD97":167961.84,"N_COORD97":2545116.0899999999,"ADDRESS":"海安路三段１７３號","OBJECTID":572428},"geometry":{"x":167961.84000000078,"y":2545116.0900000017}},{"attributes":{"ID":572456,"DIS_CODE":0,"TOWNNAME":"北區","LI":"和順里","LIN":"29鄰","STREET":"海安路","SECT":"三段","MAREA":" ","LANE":" ","ALLEY":" ","HOUSE_NO":"１７５號","E_COORD97":167961.54999999999,"N_COORD97":2545120.5299999998,"ADDRESS":"海安路三段１７５號","OBJECTID":572429},"geometry":{"x":167961.54999999981,"y":2545120.5299999993}},{"attributes":{"ID":572457,"DIS_CODE":0,"TOWNNAME":"北區","LI":"和順里","LIN":"29鄰","STREET":"海安路","SECT":"三段","MAREA":" ","LANE":" ","ALLEY":" ","HOUSE_NO":"１７７號","E_COORD97":167961.54999999999,"N_COORD97":2545125.2599999998,"ADDRESS":"海安路三段１７７號","OBJECTID":572430},"geometry":{"x":167961.54999999981,"y":2545125.2600000016}},{"attributes":{"ID":572458,"DIS_CODE":0,"TOWNNAME":"北區","LI":"和順里","LIN":"29鄰","STREET":"海安路","SECT":"三段","MAREA":" ","LANE":" ","ALLEY":" ","HOUSE_NO":"１７９號","E_COORD97":167961.26000000001,"N_COORD97":2545130.0499999998,"ADDRESS":"海安路三段１７９號","OBJECTID":572431},"geometry":{"x":167961.26000000071,"y":2545130.0500000045}},{"attributes":{"ID":572459,"DIS_CODE":0,"TOWNNAME":"東區","LI":"東安里","LIN":"16鄰","STREET":"衛國街","SECT":" ","MAREA":" ","LANE":" ","ALLEY":" ","HOUSE_NO":"１號之６","E_COORD97":170214.34,"N_COORD97":2542948.2400000002,"ADDRESS":"衛國街１號之６","OBJECTID":572432},"geometry":{"x":170214.33999999985,"y":2542948.2400000039}},{"attributes":{"ID":572460,"DIS_CODE":0,"TOWNNAME":"東區","LI":"東安里","LIN":"16鄰","STREET":"衛國街","SECT":" ","MAREA":" ","LANE":" ","ALLEY":" ","HOUSE_NO":"１號之９","E_COORD97":170217.19,"N_COORD97":2542959.1600000001,"ADDRESS":"衛國街１號之９","OBJECTID":572433},"geometry":{"x":170217.19000000041,"y":2542959.160000002}},{"attributes":{"ID":572461,"DIS_CODE":0,"TOWNNAME":"東區","LI":"東安里","LIN":"22鄰","STREET":"東門路","SECT":"二段","MAREA":" ","LANE":" ","ALLEY":" ","HOUSE_NO":"１２９號","E_COORD97":170248.34,"N_COORD97":2542913.6200000001,"ADDRESS":"東門路二段１２９號","OBJECTID":572434},"geometry":{"x":170248.33999999892,"y":2542913.6200000029}},{"attributes":{"ID":572462,"DIS_CODE":0,"TOWNNAME":"東區","LI":"小東里","LIN":"33鄰","STREET":"東興路","SECT":" ","MAREA":" ","LANE":" ","ALLEY":" ","HOUSE_NO":"２８０號","E_COORD97":171056.69,"N_COORD97":2544008.1899999999,"ADDRESS":"東興路２８０號","OBJECTID":572435},"geometry":{"x":171056.69000000041,"y":2544008.1899999995}},{"attributes":{"ID":572463,"DIS_CODE":0,"TOWNNAME":"東區","LI":"忠孝里","LIN":"30鄰","STREET":"崇明十街","SECT":" ","MAREA":" ","LANE":" ","ALLEY":" ","HOUSE_NO":"６９號","E_COORD97":170133.19,"N_COORD97":2541831.5899999999,"ADDRESS":"崇明十街６９號","OBJECTID":572436},"geometry":{"x":170133.19000000227,"y":2541831.5900000017}},{"attributes":{"ID":572464,"DIS_CODE":0,"TOWNNAME":"東區","LI":"東明里","LIN":"5鄰","STREET":"怡東路","SECT":" ","MAREA":" ","LANE":" ","ALLEY":" ","HOUSE_NO":"６８號","E_COORD97":170857.45999999999,"N_COORD97":2543622.8399999999,"ADDRESS":"怡東路６８號","OBJECTID":572437},"geometry":{"x":170857.45999999996,"y":2543622.8400000017}},{"attributes":{"ID":572465,"DIS_CODE":0,"TOWNNAME":"東區","LI":"東明里","LIN":"4鄰","STREET":"東興路","SECT":" ","MAREA":" ","LANE":" ","ALLEY":" ","HOUSE_NO":"８１號","E_COORD97":170940.10000000001,"N_COORD97":2543592.8999999999,"ADDRESS":"東興路８１號","OBJECTID":572438},"geometry":{"x":170940.10000000056,"y":2543592.9000000022}},{"attributes":{"ID":572466,"DIS_CODE":0,"TOWNNAME":"東區","LI":"崇德里","LIN":"25鄰","STREET":"崇道路","SECT":" ","MAREA":" ","LANE":" ","ALLEY":" ","HOUSE_NO":"１號","E_COORD97":170598.23999999999,"N_COORD97":2541420.3100000001,"ADDRESS":"崇道路１號","OBJECTID":572439},"geometry":{"x":170598.24000000022,"y":2541420.3100000024}},{"attributes":{"ID":572467,"DIS_CODE":0,"TOWNNAME":"東區","LI":"崇德里","LIN":"25鄰","STREET":"崇道路","SECT":" ","MAREA":" ","LANE":" ","ALLEY":" ","HOUSE_NO":"３號","E_COORD97":170604.29999999999,"N_COORD97":2541421.2999999998,"ADDRESS":"崇道路３號","OBJECTID":572440},"geometry":{"x":170604.29999999981,"y":2541421.3000000007}},{"attributes":{"ID":572468,"DIS_CODE":0,"TOWNNAME":"東區","LI":"崇德里","LIN":"25鄰","STREET":"崇道路","SECT":" ","MAREA":" ","LANE":" ","ALLEY":" ","HOUSE_NO":"５號","E_COORD97":170608.53,"N_COORD97":2541423.5600000001,"ADDRESS":"崇道路５號","OBJECTID":572441},"geometry":{"x":170608.53000000026,"y":2541423.5600000005}},{"attributes":{"ID":572469,"DIS_CODE":0,"TOWNNAME":"東區","LI":"崇德里","LIN":"25鄰","STREET":"崇道路","SECT":" ","MAREA":" ","LANE":" ","ALLEY":" ","HOUSE_NO":"７號","E_COORD97":170612.62,"N_COORD97":2541421.02,"ADDRESS":"崇道路７號","OBJECTID":572442},"geometry":{"x":170612.62000000011,"y":2541421.0200000014}},{"attributes":{"ID":572470,"DIS_CODE":0,"TOWNNAME":"東區","LI":"崇德里","LIN":"25鄰","STREET":"崇道路","SECT":" ","MAREA":" ","LANE":" ","ALLEY":" ","HOUSE_NO":"９號","E_COORD97":170617.28,"N_COORD97":2541423.8399999999,"ADDRESS":"崇道路９號","OBJECTID":572443},"geometry":{"x":170617.28000000212,"y":2541423.8399999999}},{"attributes":{"ID":572471,"DIS_CODE":0,"TOWNNAME":"東區","LI":"東明里","LIN":"12鄰","STREET":"怡東路","SECT":" ","MAREA":" ","LANE":" ","ALLEY":" ","HOUSE_NO":"９２號","E_COORD97":170881.44,"N_COORD97":2543732.3199999998,"ADDRESS":"怡東路９２號","OBJECTID":572444},"geometry":{"x":170881.44000000134,"y":2543732.3200000022}},{"attributes":{"ID":572472,"DIS_CODE":0,"TOWNNAME":"東區","LI":"東明里","LIN":"12鄰","STREET":"怡東路","SECT":" ","MAREA":" ","LANE":" ","ALLEY":" ","HOUSE_NO":"９４號","E_COORD97":170884.95000000001,"N_COORD97":2543742.5499999998,"ADDRESS":"怡東路９４號","OBJECTID":572445},"geometry":{"x":170884.95000000019,"y":2543742.5500000007}},{"attributes":{"ID":572473,"DIS_CODE":0,"TOWNNAME":"東區","LI":"東明里","LIN":"12鄰","STREET":"凱旋路","SECT":" ","MAREA":" ","LANE":" ","ALLEY":" ","HOUSE_NO":"１６１號","E_COORD97":170953.91,"N_COORD97":2543735.6400000001,"ADDRESS":"凱旋路１６１號","OBJECTID":572446},"geometry":{"x":170953.91000000108,"y":2543735.6400000043}},{"attributes":{"ID":572474,"DIS_CODE":0,"TOWNNAME":"東區","LI":"小東里","LIN":"34鄰","STREET":"東興路","SECT":" ","MAREA":" ","LANE":" ","ALLEY":" ","HOUSE_NO":"２６３號","E_COORD97":171032.79999999999,"N_COORD97":2544014.8700000001,"ADDRESS":"東興路２６３號","OBJECTID":572447},"geometry":{"x":171032.79999999981,"y":2544014.870000001}},{"attributes":{"ID":572475,"DIS_CODE":0,"TOWNNAME":"東區","LI":"小東里","LIN":"34鄰","STREET":"東興路","SECT":" ","MAREA":" ","LANE":" ","ALLEY":" ","HOUSE_NO":"２８１號","E_COORD97":171047.56,"N_COORD97":2544071.9399999999,"ADDRESS":"東興路２８１號","OBJECTID":572448},"geometry":{"x":171047.56000000052,"y":2544071.9400000013}},{"attributes":{"ID":572476,"DIS_CODE":0,"TOWNNAME":"東區","LI":"小東里","LIN":"34鄰","STREET":"東興路","SECT":" ","MAREA":" ","LANE":" ","ALLEY":" ","HOUSE_NO":"２９１號","E_COORD97":171052.78,"N_COORD97":2544096.0699999998,"ADDRESS":"東興路２９１號","OBJECTID":572449},"geometry":{"x":171052.78000000212,"y":2544096.0700000022}},{"attributes":{"ID":572477,"DIS_CODE":0,"TOWNNAME":"東區","LI":"小東里","LIN":"35鄰","STREET":"東興路","SECT":" ","MAREA":" ","LANE":" ","ALLEY":" ","HOUSE_NO":"３６５號","E_COORD97":171012.53,"N_COORD97":2544291.6400000001,"ADDRESS":"東興路３６５號","OBJECTID":572450},"geometry":{"x":171012.53000000119,"y":2544291.6400000043}},{"attributes":{"ID":572478,"DIS_CODE":0,"TOWNNAME":"東區","LI":"小東里","LIN":"35鄰","STREET":"東興路","SECT":" ","MAREA":" ","LANE":" ","ALLEY":" ","HOUSE_NO":"３６７號","E_COORD97":171012.20999999999,"N_COORD97":2544295.2400000002,"ADDRESS":"東興路３６７號","OBJECTID":572451},"geometry":{"x":171012.20999999903,"y":2544295.2400000021}},{"attributes":{"ID":572479,"DIS_CODE":0,"TOWNNAME":"東區","LI":"小東里","LIN":"33鄰","STREET":"東平路","SECT":" ","MAREA":" ","LANE":" ","ALLEY":" ","HOUSE_NO":"１００號","E_COORD97":171143.94,"N_COORD97":2543968.6299999999,"ADDRESS":"東平路１００號","OBJECTID":572452},"geometry":{"x":171143.94000000134,"y":2543968.6300000008}},{"attributes":{"ID":572480,"DIS_CODE":0,"TOWNNAME":"東區","LI":"小東里","LIN":"33鄰","STREET":"東平路","SECT":" ","MAREA":" ","LANE":" ","ALLEY":" ","HOUSE_NO":"１０２號","E_COORD97":171140.06,"N_COORD97":2543968.8900000001,"ADDRESS":"東平路１０２號","OBJECTID":572453},"geometry":{"x":171140.06000000145,"y":2543968.8900000025}},{"attributes":{"ID":572481,"DIS_CODE":0,"TOWNNAME":"東區","LI":"小東里","LIN":"33鄰","STREET":"東平路","SECT":" ","MAREA":" ","LANE":" ","ALLEY":" ","HOUSE_NO":"１０４號","E_COORD97":171135.66,"N_COORD97":2543970.1800000002,"ADDRESS":"東平路１０４號","OBJECTID":572454},"geometry":{"x":171135.66000000108,"y":2543970.1799999997}},{"attributes":{"ID":572482,"DIS_CODE":0,"TOWNNAME":"東區","LI":"小東里","LIN":"33鄰","STREET":"東平路","SECT":" ","MAREA":" ","LANE":" ","ALLEY":" ","HOUSE_NO":"１０６號","E_COORD97":171131.78,"N_COORD97":2543970.4399999999,"ADDRESS":"東平路１０６號","OBJECTID":572455},"geometry":{"x":171131.78000000026,"y":2543970.4400000013}},{"attributes":{"ID":572483,"DIS_CODE":0,"TOWNNAME":"東區","LI":"小東里","LIN":"33鄰","STREET":"東平路","SECT":" ","MAREA":" ","LANE":" ","ALLEY":" ","HOUSE_NO":"１０８號","E_COORD97":171126.85999999999,"N_COORD97":2543971.9900000002,"ADDRESS":"東平路１０８號","OBJECTID":572456},"geometry":{"x":171126.8599999994,"y":2543971.9900000021}},{"attributes":{"ID":572484,"DIS_CODE":0,"TOWNNAME":"東區","LI":"小東里","LIN":"33鄰","STREET":"東平路","SECT":" ","MAREA":" ","LANE":" ","ALLEY":" ","HOUSE_NO":"１２０號","E_COORD97":171092.42000000001,"N_COORD97":2543976.8999999999,"ADDRESS":"東平路１２０號","OBJECTID":572457},"geometry":{"x":171092.42000000086,"y":2543976.9000000004}},{"attributes":{"ID":572485,"DIS_CODE":0,"TOWNNAME":"東區","LI":"小東里","LIN":"33鄰","STREET":"東平路","SECT":" ","MAREA":" ","LANE":" ","ALLEY":" ","HOUSE_NO":"１２２號","E_COORD97":171087.5,"N_COORD97":2543978.2000000002,"ADDRESS":"東平路１２２號","OBJECTID":572458},"geometry":{"x":171087.5,"y":2543978.200000003}},{"attributes":{"ID":572486,"DIS_CODE":0,"TOWNNAME":"東區","LI":"小東里","LIN":"33鄰","STREET":"東平路","SECT":" ","MAREA":" ","LANE":" ","ALLEY":" ","HOUSE_NO":"１３２號","E_COORD97":171062.64999999999,"N_COORD97":2543981.8199999998,"ADDRESS":"東平路１３２號","OBJECTID":572459},"geometry":{"x":171062.6500000013,"y":2543981.820000004}},{"attributes":{"ID":572487,"DIS_CODE":0,"TOWNNAME":"東區","LI":"小東里","LIN":"33鄰","STREET":"東平路","SECT":" ","MAREA":" ","LANE":" ","ALLEY":" ","HOUSE_NO":"１３６號","E_COORD97":171050.98999999999,"N_COORD97":2543984.9199999999,"ADDRESS":"東平路１３６號","OBJECTID":572460},"geometry":{"x":171050.99000000022,"y":2543984.9200000018}},{"attributes":{"ID":572488,"DIS_CODE":0,"TOWNNAME":"東區","LI":"小東里","LIN":"33鄰","STREET":"東興路","SECT":" ","MAREA":" ","LANE":" ","ALLEY":" ","HOUSE_NO":"２８２號","E_COORD97":171057.98000000001,"N_COORD97":2544011.04,"ADDRESS":"東興路２８２號","OBJECTID":572461},"geometry":{"x":171057.98000000045,"y":2544011.040000001}},{"attributes":{"ID":572489,"DIS_CODE":0,"TOWNNAME":"東區","LI":"東明里","LIN":"14鄰","STREET":"怡東路","SECT":" ","MAREA":" ","LANE":" ","ALLEY":" ","HOUSE_NO":"８５號","E_COORD97":170841.94,"N_COORD97":2543680.5800000001,"ADDRESS":"怡東路８５號","OBJECTID":572462},"geometry":{"x":170841.94000000134,"y":2543680.5800000001}},{"attributes":{"ID":572490,"DIS_CODE":0,"TOWNNAME":"東區","LI":"虎尾里","LIN":"21鄰","STREET":"東門路","SECT":"三段","MAREA":" ","LANE":" ","ALLEY":" ","HOUSE_NO":"２７５號","E_COORD97":171739.69,"N_COORD97":2541856.8500000001,"ADDRESS":"東門路三段２７５號","OBJECTID":572463},"geometry":{"x":171739.69000000041,"y":2541856.8499999996}},{"attributes":{"ID":572491,"DIS_CODE":0,"TOWNNAME":"東區","LI":"虎尾里","LIN":"21鄰","STREET":"東門路","SECT":"三段","MAREA":" ","LANE":" ","ALLEY":" ","HOUSE_NO":"２７９號","E_COORD97":171749.14000000001,"N_COORD97":2541854.71,"ADDRESS":"東門路三段２７９號","OBJECTID":572464},"geometry":{"x":171749.13999999966,"y":2541854.7100000028}},{"attributes":{"ID":572492,"DIS_CODE":0,"TOWNNAME":"東區","LI":"虎尾里","LIN":"21鄰","STREET":"東門路","SECT":"三段","MAREA":" ","LANE":" ","ALLEY":" ","HOUSE_NO":"２８７號","E_COORD97":171767.70000000001,"N_COORD97":2541849.71,"ADDRESS":"東門路三段２８７號","OBJECTID":572465},"geometry":{"x":171767.70000000112,"y":2541849.7100000009}},{"attributes":{"ID":572493,"DIS_CODE":0,"TOWNNAME":"東區","LI":"虎尾里","LIN":"21鄰","STREET":"東門路","SECT":"三段","MAREA":" ","LANE":" ","ALLEY":" ","HOUSE_NO":"２８９號","E_COORD97":171771.62,"N_COORD97":2541848.29,"ADDRESS":"東門路三段２８９號","OBJECTID":572466},"geometry":{"x":171771.62000000104,"y":2541848.2900000028}},{"attributes":{"ID":572494,"DIS_CODE":0,"TOWNNAME":"東區","LI":"虎尾里","LIN":"21鄰","STREET":"東門路","SECT":"三段","MAREA":" ","LANE":" ","ALLEY":" ","HOUSE_NO":"２９１號","E_COORD97":171776.26000000001,"N_COORD97":2541847.3999999999,"ADDRESS":"東門路三段２９１號","OBJECTID":572467},"geometry":{"x":171776.26000000164,"y":2541847.4000000004}},{"attributes":{"ID":572495,"DIS_CODE":0,"TOWNNAME":"善化區","LI":"光文里","LIN":"29鄰","STREET":"公園路","SECT":" ","MAREA":" ","LANE":" ","ALLEY":" ","HOUSE_NO":"２５３號九樓之２","E_COORD97":177716.67999999999,"N_COORD97":2559128.1299999999,"ADDRESS":"公園路２５３號九樓之２","OBJECTID":572468},"geometry":{"x":177716.68000000156,"y":2559128.129999999}},{"attributes":{"ID":572496,"DIS_CODE":0,"TOWNNAME":"善化區","LI":"光文里","LIN":"29鄰","STREET":"公園路","SECT":" ","MAREA":" ","LANE":" ","ALLEY":" ","HOUSE_NO":"２５３號九樓之３","E_COORD97":177716.67999999999,"N_COORD97":2559128.1299999999,"ADDRESS":"公園路２５３號九樓之３","OBJECTID":572469},"geometry":{"x":177716.68000000156,"y":2559128.129999999}},{"attributes":{"ID":572497,"DIS_CODE":0,"TOWNNAME":"善化區","LI":"光文里","LIN":"29鄰","STREET":"公園路","SECT":" ","MAREA":" ","LANE":" ","ALLEY":" ","HOUSE_NO":"２５３號九樓之５","E_COORD97":177716.67999999999,"N_COORD97":2559128.1299999999,"ADDRESS":"公園路２５３號九樓之５","OBJECTID":572470},"geometry":{"x":177716.68000000156,"y":2559128.129999999}},{"attributes":{"ID":572498,"DIS_CODE":0,"TOWNNAME":"善化區","LI":"光文里","LIN":"29鄰","STREET":"公園路","SECT":" ","MAREA":" ","LANE":" ","ALLEY":" ","HOUSE_NO":"２５３號九樓之６","E_COORD97":177716.67999999999,"N_COORD97":2559128.1299999999,"ADDRESS":"公園路２５３號九樓之６","OBJECTID":572471},"geometry":{"x":177716.68000000156,"y":2559128.129999999}},{"attributes":{"ID":572499,"DIS_CODE":0,"TOWNNAME":"善化區","LI":"光文里","LIN":"29鄰","STREET":"公園路","SECT":" ","MAREA":" ","LANE":" ","ALLEY":" ","HOUSE_NO":"２５３號九樓之７","E_COORD97":177716.67999999999,"N_COORD97":2559128.1299999999,"ADDRESS":"公園路２５３號九樓之７","OBJECTID":572472},"geometry":{"x":177716.68000000156,"y":2559128.129999999}},{"attributes":{"ID":572500,"DIS_CODE":0,"TOWNNAME":"善化區","LI":"光文里","LIN":"29鄰","STREET":"公園路","SECT":" ","MAREA":" ","LANE":" ","ALLEY":" ","HOUSE_NO":"２５３號九樓之８","E_COORD97":177716.67999999999,"N_COORD97":2559128.1299999999,"ADDRESS":"公園路２５３號九樓之８","OBJECTID":572473},"geometry":{"x":177716.68000000156,"y":2559128.129999999}},{"attributes":{"ID":572501,"DIS_CODE":0,"TOWNNAME":"善化區","LI":"光文里","LIN":"29鄰","STREET":"公園路","SECT":" ","MAREA":" ","LANE":" ","ALLEY":" ","HOUSE_NO":"２５３號九樓之９","E_COORD97":177716.67999999999,"N_COORD97":2559128.1299999999,"ADDRESS":"公園路２５３號九樓之９","OBJECTID":572474},"geometry":{"x":177716.68000000156,"y":2559128.129999999}},{"attributes":{"ID":572502,"DIS_CODE":0,"TOWNNAME":"善化區","LI":"光文里","LIN":"29鄰","STREET":"公園路","SECT":" ","MAREA":" ","LANE":" ","ALLEY":" ","HOUSE_NO":"２５３號十樓之１","E_COORD97":177716.67999999999,"N_COORD97":2559128.1299999999,"ADDRESS":"公園路２５３號十樓之１","OBJECTID":572475},"geometry":{"x":177716.68000000156,"y":2559128.129999999}},{"attributes":{"ID":572503,"DIS_CODE":0,"TOWNNAME":"善化區","LI":"光文里","LIN":"29鄰","STREET":"公園路","SECT":" ","MAREA":" ","LANE":" ","ALLEY":" ","HOUSE_NO":"２５３號十樓之２","E_COORD97":177716.67999999999,"N_COORD97":2559128.1299999999,"ADDRESS":"公園路２５３號十樓之２","OBJECTID":572476},"geometry":{"x":177716.68000000156,"y":2559128.129999999}},{"attributes":{"ID":572504,"DIS_CODE":0,"TOWNNAME":"善化區","LI":"光文里","LIN":"29鄰","STREET":"公園路","SECT":" ","MAREA":" ","LANE":" ","ALLEY":" ","HOUSE_NO":"２５３號十樓之３","E_COORD97":177716.67999999999,"N_COORD97":2559128.1299999999,"ADDRESS":"公園路２５３號十樓之３","OBJECTID":572477},"geometry":{"x":177716.68000000156,"y":2559128.129999999}},{"attributes":{"ID":572505,"DIS_CODE":0,"TOWNNAME":"善化區","LI":"光文里","LIN":"29鄰","STREET":"公園路","SECT":" ","MAREA":" ","LANE":" ","ALLEY":" ","HOUSE_NO":"２５３號十樓之５","E_COORD97":177716.67999999999,"N_COORD97":2559128.1299999999,"ADDRESS":"公園路２５３號十樓之５","OBJECTID":572478},"geometry":{"x":177716.68000000156,"y":2559128.129999999}},{"attributes":{"ID":572506,"DIS_CODE":0,"TOWNNAME":"善化區","LI":"光文里","LIN":"29鄰","STREET":"公園路","SECT":" ","MAREA":" ","LANE":" ","ALLEY":" ","HOUSE_NO":"２５３號十樓之６","E_COORD97":177716.67999999999,"N_COORD97":2559128.1299999999,"ADDRESS":"公園路２５３號十樓之６","OBJECTID":572479},"geometry":{"x":177716.68000000156,"y":2559128.129999999}},{"attributes":{"ID":572507,"DIS_CODE":0,"TOWNNAME":"善化區","LI":"光文里","LIN":"29鄰","STREET":"公園路","SECT":" ","MAREA":" ","LANE":" ","ALLEY":" ","HOUSE_NO":"２５３號十樓之７","E_COORD97":177716.67999999999,"N_COORD97":2559128.1299999999,"ADDRESS":"公園路２５３號十樓之７","OBJECTID":572480},"geometry":{"x":177716.68000000156,"y":2559128.129999999}},{"attributes":{"ID":572508,"DIS_CODE":0,"TOWNNAME":"善化區","LI":"光文里","LIN":"29鄰","STREET":"公園路","SECT":" ","MAREA":" ","LANE":" ","ALLEY":" ","HOUSE_NO":"２５３號十樓之８","E_COORD97":177716.67999999999,"N_COORD97":2559128.1299999999,"ADDRESS":"公園路２５３號十樓之８","OBJECTID":572481},"geometry":{"x":177716.68000000156,"y":2559128.129999999}},{"attributes":{"ID":572509,"DIS_CODE":0,"TOWNNAME":"善化區","LI":"光文里","LIN":"29鄰","STREET":"公園路","SECT":" ","MAREA":" ","LANE":" ","ALLEY":" ","HOUSE_NO":"２５３號十樓之９","E_COORD97":177716.67999999999,"N_COORD97":2559128.1299999999,"ADDRESS":"公園路２５３號十樓之９","OBJECTID":572482},"geometry":{"x":177716.68000000156,"y":2559128.129999999}},{"attributes":{"ID":572510,"DIS_CODE":0,"TOWNNAME":"善化區","LI":"光文里","LIN":"29鄰","STREET":"公園路","SECT":" ","MAREA":" ","LANE":" ","ALLEY":" ","HOUSE_NO":"２５３號二樓之１","E_COORD97":177716.67999999999,"N_COORD97":2559128.1299999999,"ADDRESS":"公園路２５３號二樓之１","OBJECTID":572483},"geometry":{"x":177716.68000000156,"y":2559128.129999999}},{"attributes":{"ID":572511,"DIS_CODE":0,"TOWNNAME":"善化區","LI":"光文里","LIN":"29鄰","STREET":"公園路","SECT":" ","MAREA":" ","LANE":" ","ALLEY":" ","HOUSE_NO":"２５３號二樓之２","E_COORD97":177716.67999999999,"N_COORD97":2559128.1299999999,"ADDRESS":"公園路２５３號二樓之２","OBJECTID":572484},"geometry":{"x":177716.68000000156,"y":2559128.129999999}},{"attributes":{"ID":572512,"DIS_CODE":0,"TOWNNAME":"善化區","LI":"光文里","LIN":"29鄰","STREET":"公園路","SECT":" ","MAREA":" ","LANE":" ","ALLEY":" ","HOUSE_NO":"２５３號二樓之３","E_COORD97":177716.67999999999,"N_COORD97":2559128.1299999999,"ADDRESS":"公園路２５３號二樓之３","OBJECTID":572485},"geometry":{"x":177716.68000000156,"y":2559128.129999999}},{"attributes":{"ID":572513,"DIS_CODE":0,"TOWNNAME":"善化區","LI":"光文里","LIN":"29鄰","STREET":"公園路","SECT":" ","MAREA":" ","LANE":" ","ALLEY":" ","HOUSE_NO":"２５３號二樓之５","E_COORD97":177716.67999999999,"N_COORD97":2559128.1299999999,"ADDRESS":"公園路２５３號二樓之５","OBJECTID":572486},"geometry":{"x":177716.68000000156,"y":2559128.129999999}},{"attributes":{"ID":572514,"DIS_CODE":0,"TOWNNAME":"善化區","LI":"光文里","LIN":"29鄰","STREET":"公園路","SECT":" ","MAREA":" ","LANE":" ","ALLEY":" ","HOUSE_NO":"２５３號二樓之６","E_COORD97":177716.67999999999,"N_COORD97":2559128.1299999999,"ADDRESS":"公園路２５３號二樓之６","OBJECTID":572487},"geometry":{"x":177716.68000000156,"y":2559128.129999999}},{"attributes":{"ID":572515,"DIS_CODE":0,"TOWNNAME":"善化區","LI":"光文里","LIN":"29鄰","STREET":"公園路","SECT":" ","MAREA":" ","LANE":" ","ALLEY":" ","HOUSE_NO":"２５３號二樓之７","E_COORD97":177716.67999999999,"N_COORD97":2559128.1299999999,"ADDRESS":"公園路２５３號二樓之７","OBJECTID":572488},"geometry":{"x":177716.68000000156,"y":2559128.129999999}},{"attributes":{"ID":572516,"DIS_CODE":0,"TOWNNAME":"善化區","LI":"光文里","LIN":"29鄰","STREET":"公園路","SECT":" ","MAREA":" ","LANE":" ","ALLEY":" ","HOUSE_NO":"２５３號三樓之１","E_COORD97":177716.67999999999,"N_COORD97":2559128.1299999999,"ADDRESS":"公園路２５３號三樓之１","OBJECTID":572489},"geometry":{"x":177716.68000000156,"y":2559128.129999999}},{"attributes":{"ID":572517,"DIS_CODE":0,"TOWNNAME":"善化區","LI":"光文里","LIN":"29鄰","STREET":"公園路","SECT":" ","MAREA":" ","LANE":" ","ALLEY":" ","HOUSE_NO":"２５３號三樓之２","E_COORD97":177716.67999999999,"N_COORD97":2559128.1299999999,"ADDRESS":"公園路２５３號三樓之２","OBJECTID":572490},"geometry":{"x":177716.68000000156,"y":2559128.129999999}},{"attributes":{"ID":572518,"DIS_CODE":0,"TOWNNAME":"善化區","LI":"光文里","LIN":"29鄰","STREET":"公園路","SECT":" ","MAREA":" ","LANE":" ","ALLEY":" ","HOUSE_NO":"２５３號三樓之３","E_COORD97":177716.67999999999,"N_COORD97":2559128.1299999999,"ADDRESS":"公園路２５３號三樓之３","OBJECTID":572491},"geometry":{"x":177716.68000000156,"y":2559128.129999999}},{"attributes":{"ID":572519,"DIS_CODE":0,"TOWNNAME":"善化區","LI":"光文里","LIN":"29鄰","STREET":"公園路","SECT":" ","MAREA":" ","LANE":" ","ALLEY":" ","HOUSE_NO":"２５３號三樓之５","E_COORD97":177716.67999999999,"N_COORD97":2559128.1299999999,"ADDRESS":"公園路２５３號三樓之５","OBJECTID":572492},"geometry":{"x":177716.68000000156,"y":2559128.129999999}},{"attributes":{"ID":572520,"DIS_CODE":0,"TOWNNAME":"善化區","LI":"光文里","LIN":"29鄰","STREET":"公園路","SECT":" ","MAREA":" ","LANE":" ","ALLEY":" ","HOUSE_NO":"２５３號三樓之６","E_COORD97":177716.67999999999,"N_COORD97":2559128.1299999999,"ADDRESS":"公園路２５３號三樓之６","OBJECTID":572493},"geometry":{"x":177716.68000000156,"y":2559128.129999999}},{"attributes":{"ID":572521,"DIS_CODE":0,"TOWNNAME":"善化區","LI":"光文里","LIN":"29鄰","STREET":"公園路","SECT":" ","MAREA":" ","LANE":" ","ALLEY":" ","HOUSE_NO":"２５３號三樓之７","E_COORD97":177716.67999999999,"N_COORD97":2559128.1299999999,"ADDRESS":"公園路２５３號三樓之７","OBJECTID":572494},"geometry":{"x":177716.68000000156,"y":2559128.129999999}},{"attributes":{"ID":572522,"DIS_CODE":0,"TOWNNAME":"善化區","LI":"光文里","LIN":"29鄰","STREET":"公園路","SECT":" ","MAREA":" ","LANE":" ","ALLEY":" ","HOUSE_NO":"２５３號三樓之８","E_COORD97":177716.67999999999,"N_COORD97":2559128.1299999999,"ADDRESS":"公園路２５３號三樓之８","OBJECTID":572495},"geometry":{"x":177716.68000000156,"y":2559128.129999999}},{"attributes":{"ID":572523,"DIS_CODE":0,"TOWNNAME":"善化區","LI":"光文里","LIN":"29鄰","STREET":"公園路","SECT":" ","MAREA":" ","LANE":" ","ALLEY":" ","HOUSE_NO":"２５３號三樓之９","E_COORD97":177716.67999999999,"N_COORD97":2559128.1299999999,"ADDRESS":"公園路２５３號三樓之９","OBJECTID":572496},"geometry":{"x":177716.68000000156,"y":2559128.129999999}},{"attributes":{"ID":572524,"DIS_CODE":0,"TOWNNAME":"善化區","LI":"光文里","LIN":"29鄰","STREET":"公園路","SECT":" ","MAREA":" ","LANE":" ","ALLEY":" ","HOUSE_NO":"２５３號四樓之１","E_COORD97":177716.67999999999,"N_COORD97":2559128.1299999999,"ADDRESS":"公園路２５３號四樓之１","OBJECTID":572497},"geometry":{"x":177716.68000000156,"y":2559128.129999999}},{"attributes":{"ID":572525,"DIS_CODE":0,"TOWNNAME":"善化區","LI":"光文里","LIN":"29鄰","STREET":"公園路","SECT":" ","MAREA":" ","LANE":" ","ALLEY":" ","HOUSE_NO":"２５３號四樓之２","E_COORD97":177716.67999999999,"N_COORD97":2559128.1299999999,"ADDRESS":"公園路２５３號四樓之２","OBJECTID":572498},"geometry":{"x":177716.68000000156,"y":2559128.129999999}},{"attributes":{"ID":572526,"DIS_CODE":0,"TOWNNAME":"佳里區","LI":"安西里","LIN":"29鄰","STREET":"佳西路","SECT":" ","MAREA":" ","LANE":" ","ALLEY":" ","HOUSE_NO":"６００號","E_COORD97":165080.67000000001,"N_COORD97":2563230.52,"ADDRESS":"佳西路６００號","OBJECTID":572499},"geometry":{"x":165080.66999999993,"y":2563230.5200000014}},{"attributes":{"ID":572527,"DIS_CODE":0,"TOWNNAME":"善化區","LI":"光文里","LIN":"29鄰","STREET":"公園路","SECT":" ","MAREA":" ","LANE":" ","ALLEY":" ","HOUSE_NO":"２５３號四樓之３","E_COORD97":177716.67999999999,"N_COORD97":2559128.1299999999,"ADDRESS":"公園路２５３號四樓之３","OBJECTID":572500},"geometry":{"x":177716.68000000156,"y":2559128.129999999}},{"attributes":{"ID":572528,"DIS_CODE":0,"TOWNNAME":"善化區","LI":"光文里","LIN":"29鄰","STREET":"公園路","SECT":" ","MAREA":" ","LANE":" ","ALLEY":" ","HOUSE_NO":"２５３號四樓之５","E_COORD97":177716.67999999999,"N_COORD97":2559128.1299999999,"ADDRESS":"公園路２５３號四樓之５","OBJECTID":572501},"geometry":{"x":177716.68000000156,"y":2559128.129999999}},{"attributes":{"ID":572529,"DIS_CODE":0,"TOWNNAME":"善化區","LI":"光文里","LIN":"29鄰","STREET":"公園路","SECT":" ","MAREA":" ","LANE":" ","ALLEY":" ","HOUSE_NO":"２５３號四樓之６","E_COORD97":177716.67999999999,"N_COORD97":2559128.1299999999,"ADDRESS":"公園路２５３號四樓之６","OBJECTID":572502},"geometry":{"x":177716.68000000156,"y":2559128.129999999}},{"attributes":{"ID":572530,"DIS_CODE":0,"TOWNNAME":"善化區","LI":"光文里","LIN":"29鄰","STREET":"公園路","SECT":" ","MAREA":" ","LANE":" ","ALLEY":" ","HOUSE_NO":"２５３號四樓之７","E_COORD97":177716.67999999999,"N_COORD97":2559128.1299999999,"ADDRESS":"公園路２５３號四樓之７","OBJECTID":572503},"geometry":{"x":177716.68000000156,"y":2559128.129999999}},{"attributes":{"ID":572531,"DIS_CODE":0,"TOWNNAME":"善化區","LI":"光文里","LIN":"29鄰","STREET":"公園路","SECT":" ","MAREA":" ","LANE":" ","ALLEY":" ","HOUSE_NO":"２５３號四樓之８","E_COORD97":177716.67999999999,"N_COORD97":2559128.1299999999,"ADDRESS":"公園路２５３號四樓之８","OBJECTID":572504},"geometry":{"x":177716.68000000156,"y":2559128.129999999}},{"attributes":{"ID":572532,"DIS_CODE":0,"TOWNNAME":"善化區","LI":"光文里","LIN":"29鄰","STREET":"公園路","SECT":" ","MAREA":" ","LANE":" ","ALLEY":" ","HOUSE_NO":"２５３號四樓之９","E_COORD97":177716.67999999999,"N_COORD97":2559128.1299999999,"ADDRESS":"公園路２５３號四樓之９","OBJECTID":572505},"geometry":{"x":177716.68000000156,"y":2559128.129999999}},{"attributes":{"ID":572533,"DIS_CODE":0,"TOWNNAME":"善化區","LI":"光文里","LIN":"29鄰","STREET":"公園路","SECT":" ","MAREA":" ","LANE":" ","ALLEY":" ","HOUSE_NO":"２５３號五樓之１","E_COORD97":177716.67999999999,"N_COORD97":2559128.1299999999,"ADDRESS":"公園路２５３號五樓之１","OBJECTID":572506},"geometry":{"x":177716.68000000156,"y":2559128.129999999}},{"attributes":{"ID":572534,"DIS_CODE":0,"TOWNNAME":"善化區","LI":"光文里","LIN":"29鄰","STREET":"公園路","SECT":" ","MAREA":" ","LANE":" ","ALLEY":" ","HOUSE_NO":"２５３號五樓之２","E_COORD97":177716.67999999999,"N_COORD97":2559128.1299999999,"ADDRESS":"公園路２５３號五樓之２","OBJECTID":572507},"geometry":{"x":177716.68000000156,"y":2559128.129999999}},{"attributes":{"ID":572535,"DIS_CODE":0,"TOWNNAME":"善化區","LI":"光文里","LIN":"29鄰","STREET":"公園路","SECT":" ","MAREA":" ","LANE":" ","ALLEY":" ","HOUSE_NO":"２５３號五樓之３","E_COORD97":177716.67999999999,"N_COORD97":2559128.1299999999,"ADDRESS":"公園路２５３號五樓之３","OBJECTID":572508},"geometry":{"x":177716.68000000156,"y":2559128.129999999}},{"attributes":{"ID":572536,"DIS_CODE":0,"TOWNNAME":"善化區","LI":"光文里","LIN":"29鄰","STREET":"公園路","SECT":" ","MAREA":" ","LANE":" ","ALLEY":" ","HOUSE_NO":"２５３號五樓之５","E_COORD97":177716.67999999999,"N_COORD97":2559128.1299999999,"ADDRESS":"公園路２５３號五樓之５","OBJECTID":572509},"geometry":{"x":177716.68000000156,"y":2559128.129999999}},{"attributes":{"ID":572537,"DIS_CODE":0,"TOWNNAME":"善化區","LI":"光文里","LIN":"29鄰","STREET":"公園路","SECT":" ","MAREA":" ","LANE":" ","ALLEY":" ","HOUSE_NO":"２５３號五樓之６","E_COORD97":177716.67999999999,"N_COORD97":2559128.1299999999,"ADDRESS":"公園路２５３號五樓之６","OBJECTID":572510},"geometry":{"x":177716.68000000156,"y":2559128.129999999}},{"attributes":{"ID":572538,"DIS_CODE":0,"TOWNNAME":"善化區","LI":"光文里","LIN":"29鄰","STREET":"公園路","SECT":" ","MAREA":" ","LANE":" ","ALLEY":" ","HOUSE_NO":"２５３號五樓之７","E_COORD97":177716.67999999999,"N_COORD97":2559128.1299999999,"ADDRESS":"公園路２５３號五樓之７","OBJECTID":572511},"geometry":{"x":177716.68000000156,"y":2559128.129999999}},{"attributes":{"ID":572539,"DIS_CODE":0,"TOWNNAME":"善化區","LI":"光文里","LIN":"29鄰","STREET":"公園路","SECT":" ","MAREA":" ","LANE":" ","ALLEY":" ","HOUSE_NO":"２５３號五樓之８","E_COORD97":177716.67999999999,"N_COORD97":2559128.1299999999,"ADDRESS":"公園路２５３號五樓之８","OBJECTID":572512},"geometry":{"x":177716.68000000156,"y":2559128.129999999}},{"attributes":{"ID":572540,"DIS_CODE":0,"TOWNNAME":"善化區","LI":"光文里","LIN":"29鄰","STREET":"公園路","SECT":" ","MAREA":" ","LANE":" ","ALLEY":" ","HOUSE_NO":"２５３號五樓之９","E_COORD97":177716.67999999999,"N_COORD97":2559128.1299999999,"ADDRESS":"公園路２５３號五樓之９","OBJECTID":572513},"geometry":{"x":177716.68000000156,"y":2559128.129999999}},{"attributes":{"ID":572541,"DIS_CODE":0,"TOWNNAME":"善化區","LI":"光文里","LIN":"29鄰","STREET":"公園路","SECT":" ","MAREA":" ","LANE":" ","ALLEY":" ","HOUSE_NO":"２５３號六樓之１","E_COORD97":177716.67999999999,"N_COORD97":2559128.1299999999,"ADDRESS":"公園路２５３號六樓之１","OBJECTID":572514},"geometry":{"x":177716.68000000156,"y":2559128.129999999}},{"attributes":{"ID":572542,"DIS_CODE":0,"TOWNNAME":"善化區","LI":"光文里","LIN":"29鄰","STREET":"公園路","SECT":" ","MAREA":" ","LANE":" ","ALLEY":" ","HOUSE_NO":"２５３號六樓之２","E_COORD97":177716.67999999999,"N_COORD97":2559128.1299999999,"ADDRESS":"公園路２５３號六樓之２","OBJECTID":572515},"geometry":{"x":177716.68000000156,"y":2559128.129999999}},{"attributes":{"ID":572543,"DIS_CODE":0,"TOWNNAME":"善化區","LI":"光文里","LIN":"29鄰","STREET":"公園路","SECT":" ","MAREA":" ","LANE":" ","ALLEY":" ","HOUSE_NO":"２５３號六樓之３","E_COORD97":177716.67999999999,"N_COORD97":2559128.1299999999,"ADDRESS":"公園路２５３號六樓之３","OBJECTID":572516},"geometry":{"x":177716.68000000156,"y":2559128.129999999}},{"attributes":{"ID":572544,"DIS_CODE":0,"TOWNNAME":"善化區","LI":"光文里","LIN":"29鄰","STREET":"公園路","SECT":" ","MAREA":" ","LANE":" ","ALLEY":" ","HOUSE_NO":"２５３號六樓之５","E_COORD97":177716.67999999999,"N_COORD97":2559128.1299999999,"ADDRESS":"公園路２５３號六樓之５","OBJECTID":572517},"geometry":{"x":177716.68000000156,"y":2559128.129999999}},{"attributes":{"ID":572545,"DIS_CODE":0,"TOWNNAME":"善化區","LI":"光文里","LIN":"29鄰","STREET":"公園路","SECT":" ","MAREA":" ","LANE":" ","ALLEY":" ","HOUSE_NO":"２５３號六樓之６","E_COORD97":177716.67999999999,"N_COORD97":2559128.1299999999,"ADDRESS":"公園路２５３號六樓之６","OBJECTID":572518},"geometry":{"x":177716.68000000156,"y":2559128.129999999}},{"attributes":{"ID":572546,"DIS_CODE":0,"TOWNNAME":"善化區","LI":"光文里","LIN":"29鄰","STREET":"公園路","SECT":" ","MAREA":" ","LANE":" ","ALLEY":" ","HOUSE_NO":"２５３號六樓之７","E_COORD97":177716.67999999999,"N_COORD97":2559128.1299999999,"ADDRESS":"公園路２５３號六樓之７","OBJECTID":572519},"geometry":{"x":177716.68000000156,"y":2559128.129999999}},{"attributes":{"ID":572547,"DIS_CODE":0,"TOWNNAME":"善化區","LI":"光文里","LIN":"29鄰","STREET":"公園路","SECT":" ","MAREA":" ","LANE":" ","ALLEY":" ","HOUSE_NO":"２５３號六樓之８","E_COORD97":177716.67999999999,"N_COORD97":2559128.1299999999,"ADDRESS":"公園路２５３號六樓之８","OBJECTID":572520},"geometry":{"x":177716.68000000156,"y":2559128.129999999}},{"attributes":{"ID":572548,"DIS_CODE":0,"TOWNNAME":"善化區","LI":"光文里","LIN":"29鄰","STREET":"公園路","SECT":" ","MAREA":" ","LANE":" ","ALLEY":" ","HOUSE_NO":"２５３號六樓之９","E_COORD97":177716.67999999999,"N_COORD97":2559128.1299999999,"ADDRESS":"公園路２５３號六樓之９","OBJECTID":572521},"geometry":{"x":177716.68000000156,"y":2559128.129999999}},{"attributes":{"ID":572549,"DIS_CODE":0,"TOWNNAME":"善化區","LI":"光文里","LIN":"29鄰","STREET":"公園路","SECT":" ","MAREA":" ","LANE":" ","ALLEY":" ","HOUSE_NO":"２５３號七樓之１","E_COORD97":177716.67999999999,"N_COORD97":2559128.1299999999,"ADDRESS":"公園路２５３號七樓之１","OBJECTID":572522},"geometry":{"x":177716.68000000156,"y":2559128.129999999}},{"attributes":{"ID":572550,"DIS_CODE":0,"TOWNNAME":"善化區","LI":"光文里","LIN":"29鄰","STREET":"公園路","SECT":" ","MAREA":" ","LANE":" ","ALLEY":" ","HOUSE_NO":"２５３號七樓之２","E_COORD97":177716.67999999999,"N_COORD97":2559128.1299999999,"ADDRESS":"公園路２５３號七樓之２","OBJECTID":572523},"geometry":{"x":177716.68000000156,"y":2559128.129999999}},{"attributes":{"ID":572551,"DIS_CODE":0,"TOWNNAME":"善化區","LI":"光文里","LIN":"29鄰","STREET":"公園路","SECT":" ","MAREA":" ","LANE":" ","ALLEY":" ","HOUSE_NO":"２５３號七樓之３","E_COORD97":177716.67999999999,"N_COORD97":2559128.1299999999,"ADDRESS":"公園路２５３號七樓之３","OBJECTID":572524},"geometry":{"x":177716.68000000156,"y":2559128.129999999}},{"attributes":{"ID":572552,"DIS_CODE":0,"TOWNNAME":"善化區","LI":"光文里","LIN":"29鄰","STREET":"公園路","SECT":" ","MAREA":" ","LANE":" ","ALLEY":" ","HOUSE_NO":"２５３號七樓之５","E_COORD97":177716.67999999999,"N_COORD97":2559128.1299999999,"ADDRESS":"公園路２５３號七樓之５","OBJECTID":572525},"geometry":{"x":177716.68000000156,"y":2559128.129999999}},{"attributes":{"ID":572553,"DIS_CODE":0,"TOWNNAME":"善化區","LI":"光文里","LIN":"29鄰","STREET":"公園路","SECT":" ","MAREA":" ","LANE":" ","ALLEY":" ","HOUSE_NO":"２５３號七樓之６","E_COORD97":177716.67999999999,"N_COORD97":2559128.1299999999,"ADDRESS":"公園路２５３號七樓之６","OBJECTID":572526},"geometry":{"x":177716.68000000156,"y":2559128.129999999}},{"attributes":{"ID":572554,"DIS_CODE":0,"TOWNNAME":"善化區","LI":"光文里","LIN":"29鄰","STREET":"公園路","SECT":" ","MAREA":" ","LANE":" ","ALLEY":" ","HOUSE_NO":"２５３號七樓之７","E_COORD97":177716.67999999999,"N_COORD97":2559128.1299999999,"ADDRESS":"公園路２５３號七樓之７","OBJECTID":572527},"geometry":{"x":177716.68000000156,"y":2559128.129999999}},{"attributes":{"ID":572555,"DIS_CODE":0,"TOWNNAME":"善化區","LI":"光文里","LIN":"29鄰","STREET":"公園路","SECT":" ","MAREA":" ","LANE":" ","ALLEY":" ","HOUSE_NO":"２５３號七樓之８","E_COORD97":177716.67999999999,"N_COORD97":2559128.1299999999,"ADDRESS":"公園路２５３號七樓之８","OBJECTID":572528},"geometry":{"x":177716.68000000156,"y":2559128.129999999}},{"attributes":{"ID":572556,"DIS_CODE":0,"TOWNNAME":"善化區","LI":"光文里","LIN":"29鄰","STREET":"公園路","SECT":" ","MAREA":" ","LANE":" ","ALLEY":" ","HOUSE_NO":"２５３號七樓之９","E_COORD97":177716.67999999999,"N_COORD97":2559128.1299999999,"ADDRESS":"公園路２５３號七樓之９","OBJECTID":572529},"geometry":{"x":177716.68000000156,"y":2559128.129999999}},{"attributes":{"ID":572557,"DIS_CODE":0,"TOWNNAME":"善化區","LI":"光文里","LIN":"29鄰","STREET":"公園路","SECT":" ","MAREA":" ","LANE":" ","ALLEY":" ","HOUSE_NO":"２５３號八樓之１","E_COORD97":177716.67999999999,"N_COORD97":2559128.1299999999,"ADDRESS":"公園路２５３號八樓之１","OBJECTID":572530},"geometry":{"x":177716.68000000156,"y":2559128.129999999}},{"attributes":{"ID":572558,"DIS_CODE":0,"TOWNNAME":"善化區","LI":"光文里","LIN":"29鄰","STREET":"公園路","SECT":" ","MAREA":" ","LANE":" ","ALLEY":" ","HOUSE_NO":"２５３號八樓之２","E_COORD97":177716.67999999999,"N_COORD97":2559128.1299999999,"ADDRESS":"公園路２５３號八樓之２","OBJECTID":572531},"geometry":{"x":177716.68000000156,"y":2559128.129999999}},{"attributes":{"ID":572559,"DIS_CODE":0,"TOWNNAME":"善化區","LI":"光文里","LIN":"29鄰","STREET":"公園路","SECT":" ","MAREA":" ","LANE":" ","ALLEY":" ","HOUSE_NO":"２５３號八樓之３","E_COORD97":177716.67999999999,"N_COORD97":2559128.1299999999,"ADDRESS":"公園路２５３號八樓之３","OBJECTID":572532},"geometry":{"x":177716.68000000156,"y":2559128.129999999}},{"attributes":{"ID":572560,"DIS_CODE":0,"TOWNNAME":"善化區","LI":"光文里","LIN":"29鄰","STREET":"公園路","SECT":" ","MAREA":" ","LANE":" ","ALLEY":" ","HOUSE_NO":"２５３號八樓之５","E_COORD97":177716.67999999999,"N_COORD97":2559128.1299999999,"ADDRESS":"公園路２５３號八樓之５","OBJECTID":572533},"geometry":{"x":177716.68000000156,"y":2559128.129999999}},{"attributes":{"ID":572561,"DIS_CODE":0,"TOWNNAME":"善化區","LI":"光文里","LIN":"29鄰","STREET":"公園路","SECT":" ","MAREA":" ","LANE":" ","ALLEY":" ","HOUSE_NO":"２５３號八樓之６","E_COORD97":177716.67999999999,"N_COORD97":2559128.1299999999,"ADDRESS":"公園路２５３號八樓之６","OBJECTID":572534},"geometry":{"x":177716.68000000156,"y":2559128.129999999}},{"attributes":{"ID":572562,"DIS_CODE":0,"TOWNNAME":"善化區","LI":"光文里","LIN":"29鄰","STREET":"公園路","SECT":" ","MAREA":" ","LANE":" ","ALLEY":" ","HOUSE_NO":"２５３號八樓之７","E_COORD97":177716.67999999999,"N_COORD97":2559128.1299999999,"ADDRESS":"公園路２５３號八樓之７","OBJECTID":572535},"geometry":{"x":177716.68000000156,"y":2559128.129999999}},{"attributes":{"ID":572563,"DIS_CODE":0,"TOWNNAME":"善化區","LI":"光文里","LIN":"29鄰","STREET":"公園路","SECT":" ","MAREA":" ","LANE":" ","ALLEY":" ","HOUSE_NO":"２５３號八樓之８","E_COORD97":177716.67999999999,"N_COORD97":2559128.1299999999,"ADDRESS":"公園路２５３號八樓之８","OBJECTID":572536},"geometry":{"x":177716.68000000156,"y":2559128.129999999}},{"attributes":{"ID":572564,"DIS_CODE":0,"TOWNNAME":"善化區","LI":"光文里","LIN":"29鄰","STREET":"公園路","SECT":" ","MAREA":" ","LANE":" ","ALLEY":" ","HOUSE_NO":"２５３號八樓之９","E_COORD97":177716.67999999999,"N_COORD97":2559128.1299999999,"ADDRESS":"公園路２５３號八樓之９","OBJECTID":572537},"geometry":{"x":177716.68000000156,"y":2559128.129999999}},{"attributes":{"ID":572565,"DIS_CODE":0,"TOWNNAME":"善化區","LI":"光文里","LIN":"29鄰","STREET":"公園路","SECT":" ","MAREA":" ","LANE":" ","ALLEY":" ","HOUSE_NO":"２５３號九樓之１","E_COORD97":177716.67999999999,"N_COORD97":2559128.1299999999,"ADDRESS":"公園路２５３號九樓之１","OBJECTID":572538},"geometry":{"x":177716.68000000156,"y":2559128.129999999}},{"attributes":{"ID":572566,"DIS_CODE":0,"TOWNNAME":"善化區","LI":"光文里","LIN":"29鄰","STREET":"公園路","SECT":" ","MAREA":" ","LANE":" ","ALLEY":" ","HOUSE_NO":"２５３號十一樓之１","E_COORD97":177716.67999999999,"N_COORD97":2559128.1299999999,"ADDRESS":"公園路２５３號十一樓之１","OBJECTID":572539},"geometry":{"x":177716.68000000156,"y":2559128.129999999}},{"attributes":{"ID":572567,"DIS_CODE":0,"TOWNNAME":"善化區","LI":"光文里","LIN":"29鄰","STREET":"公園路","SECT":" ","MAREA":" ","LANE":" ","ALLEY":" ","HOUSE_NO":"２５３號十一樓之２","E_COORD97":177716.67999999999,"N_COORD97":2559128.1299999999,"ADDRESS":"公園路２５３號十一樓之２","OBJECTID":572540},"geometry":{"x":177716.68000000156,"y":2559128.129999999}},{"attributes":{"ID":572568,"DIS_CODE":0,"TOWNNAME":"善化區","LI":"光文里","LIN":"29鄰","STREET":"公園路","SECT":" ","MAREA":" ","LANE":" ","ALLEY":" ","HOUSE_NO":"２５３號十一樓之３","E_COORD97":177716.67999999999,"N_COORD97":2559128.1299999999,"ADDRESS":"公園路２５３號十一樓之３","OBJECTID":572541},"geometry":{"x":177716.68000000156,"y":2559128.129999999}},{"attributes":{"ID":572569,"DIS_CODE":0,"TOWNNAME":"善化區","LI":"光文里","LIN":"29鄰","STREET":"公園路","SECT":" ","MAREA":" ","LANE":" ","ALLEY":" ","HOUSE_NO":"２５３號十一樓之５","E_COORD97":177716.67999999999,"N_COORD97":2559128.1299999999,"ADDRESS":"公園路２５３號十一樓之５","OBJECTID":572542},"geometry":{"x":177716.68000000156,"y":2559128.129999999}},{"attributes":{"ID":572570,"DIS_CODE":0,"TOWNNAME":"善化區","LI":"光文里","LIN":"29鄰","STREET":"公園路","SECT":" ","MAREA":" ","LANE":" ","ALLEY":" ","HOUSE_NO":"２５３號十一樓之６","E_COORD97":177716.67999999999,"N_COORD97":2559128.1299999999,"ADDRESS":"公園路２５３號十一樓之６","OBJECTID":572543},"geometry":{"x":177716.68000000156,"y":2559128.129999999}},{"attributes":{"ID":572571,"DIS_CODE":0,"TOWNNAME":"善化區","LI":"光文里","LIN":"29鄰","STREET":"公園路","SECT":" ","MAREA":" ","LANE":" ","ALLEY":" ","HOUSE_NO":"２５３號十一樓之７","E_COORD97":177716.67999999999,"N_COORD97":2559128.1299999999,"ADDRESS":"公園路２５３號十一樓之７","OBJECTID":572544},"geometry":{"x":177716.68000000156,"y":2559128.129999999}},{"attributes":{"ID":572572,"DIS_CODE":0,"TOWNNAME":"善化區","LI":"光文里","LIN":"29鄰","STREET":"公園路","SECT":" ","MAREA":" ","LANE":" ","ALLEY":" ","HOUSE_NO":"２５３號十一樓之８","E_COORD97":177716.67999999999,"N_COORD97":2559128.1299999999,"ADDRESS":"公園路２５３號十一樓之８","OBJECTID":572545},"geometry":{"x":177716.68000000156,"y":2559128.129999999}},{"attributes":{"ID":572573,"DIS_CODE":0,"TOWNNAME":"善化區","LI":"光文里","LIN":"29鄰","STREET":"公園路","SECT":" ","MAREA":" ","LANE":" ","ALLEY":" ","HOUSE_NO":"２５３號十二樓之３","E_COORD97":177716.67999999999,"N_COORD97":2559128.1299999999,"ADDRESS":"公園路２５３號十二樓之３","OBJECTID":572546},"geometry":{"x":177716.68000000156,"y":2559128.129999999}},{"attributes":{"ID":572574,"DIS_CODE":0,"TOWNNAME":"善化區","LI":"光文里","LIN":"29鄰","STREET":"公園路","SECT":" ","MAREA":" ","LANE":" ","ALLEY":" ","HOUSE_NO":"２５３號十二樓之５","E_COORD97":177716.67999999999,"N_COORD97":2559128.1299999999,"ADDRESS":"公園路２５３號十二樓之５","OBJECTID":572547},"geometry":{"x":177716.68000000156,"y":2559128.129999999}},{"attributes":{"ID":572575,"DIS_CODE":0,"TOWNNAME":"善化區","LI":"光文里","LIN":"29鄰","STREET":"公園路","SECT":" ","MAREA":" ","LANE":" ","ALLEY":" ","HOUSE_NO":"２５３號十二樓之６","E_COORD97":177716.67999999999,"N_COORD97":2559128.1299999999,"ADDRESS":"公園路２５３號十二樓之６","OBJECTID":572548},"geometry":{"x":177716.68000000156,"y":2559128.129999999}},{"attributes":{"ID":572576,"DIS_CODE":0,"TOWNNAME":"善化區","LI":"光文里","LIN":"29鄰","STREET":"公園路","SECT":" ","MAREA":" ","LANE":" ","ALLEY":" ","HOUSE_NO":"２５３號十二樓之７","E_COORD97":177716.67999999999,"N_COORD97":2559128.1299999999,"ADDRESS":"公園路２５３號十二樓之７","OBJECTID":572549},"geometry":{"x":177716.68000000156,"y":2559128.129999999}},{"attributes":{"ID":572577,"DIS_CODE":0,"TOWNNAME":"善化區","LI":"光文里","LIN":"29鄰","STREET":"公園路","SECT":" ","MAREA":" ","LANE":" ","ALLEY":" ","HOUSE_NO":"２５３號十二樓之８","E_COORD97":177716.67999999999,"N_COORD97":2559128.1299999999,"ADDRESS":"公園路２５３號十二樓之８","OBJECTID":572550},"geometry":{"x":177716.68000000156,"y":2559128.129999999}},{"attributes":{"ID":572578,"DIS_CODE":0,"TOWNNAME":"善化區","LI":"光文里","LIN":"29鄰","STREET":"公園路","SECT":" ","MAREA":" ","LANE":" ","ALLEY":" ","HOUSE_NO":"２５３號十二樓之９","E_COORD97":177716.67999999999,"N_COORD97":2559128.1299999999,"ADDRESS":"公園路２５３號十二樓之９","OBJECTID":572551},"geometry":{"x":177716.68000000156,"y":2559128.129999999}},{"attributes":{"ID":572579,"DIS_CODE":0,"TOWNNAME":"善化區","LI":"光文里","LIN":"29鄰","STREET":"公園路","SECT":" ","MAREA":" ","LANE":" ","ALLEY":" ","HOUSE_NO":"２５３號十三樓之１","E_COORD97":177716.67999999999,"N_COORD97":2559128.1299999999,"ADDRESS":"公園路２５３號十三樓之１","OBJECTID":572552},"geometry":{"x":177716.68000000156,"y":2559128.129999999}},{"attributes":{"ID":572580,"DIS_CODE":0,"TOWNNAME":"善化區","LI":"光文里","LIN":"29鄰","STREET":"公園路","SECT":" ","MAREA":" ","LANE":" ","ALLEY":" ","HOUSE_NO":"２５３號十三樓之２","E_COORD97":177716.67999999999,"N_COORD97":2559128.1299999999,"ADDRESS":"公園路２５３號十三樓之２","OBJECTID":572553},"geometry":{"x":177716.68000000156,"y":2559128.129999999}},{"attributes":{"ID":572581,"DIS_CODE":0,"TOWNNAME":"善化區","LI":"光文里","LIN":"29鄰","STREET":"公園路","SECT":" ","MAREA":" ","LANE":" ","ALLEY":" ","HOUSE_NO":"２５３號十三樓之３","E_COORD97":177716.67999999999,"N_COORD97":2559128.1299999999,"ADDRESS":"公園路２５３號十三樓之３","OBJECTID":572554},"geometry":{"x":177716.68000000156,"y":2559128.129999999}},{"attributes":{"ID":572582,"DIS_CODE":0,"TOWNNAME":"善化區","LI":"光文里","LIN":"29鄰","STREET":"公園路","SECT":" ","MAREA":" ","LANE":" ","ALLEY":" ","HOUSE_NO":"２５３號十三樓之５","E_COORD97":177716.67999999999,"N_COORD97":2559128.1299999999,"ADDRESS":"公園路２５３號十三樓之５","OBJECTID":572555},"geometry":{"x":177716.68000000156,"y":2559128.129999999}},{"attributes":{"ID":572583,"DIS_CODE":0,"TOWNNAME":"善化區","LI":"光文里","LIN":"29鄰","STREET":"公園路","SECT":" ","MAREA":" ","LANE":" ","ALLEY":" ","HOUSE_NO":"２５３號十三樓之６","E_COORD97":177716.67999999999,"N_COORD97":2559128.1299999999,"ADDRESS":"公園路２５３號十三樓之６","OBJECTID":572556},"geometry":{"x":177716.68000000156,"y":2559128.129999999}},{"attributes":{"ID":572584,"DIS_CODE":0,"TOWNNAME":"善化區","LI":"光文里","LIN":"29鄰","STREET":"公園路","SECT":" ","MAREA":" ","LANE":" ","ALLEY":" ","HOUSE_NO":"２５３號十三樓之７","E_COORD97":177716.67999999999,"N_COORD97":2559128.1299999999,"ADDRESS":"公園路２５３號十三樓之７","OBJECTID":572557},"geometry":{"x":177716.68000000156,"y":2559128.129999999}},{"attributes":{"ID":572585,"DIS_CODE":0,"TOWNNAME":"善化區","LI":"光文里","LIN":"29鄰","STREET":"公園路","SECT":" ","MAREA":" ","LANE":" ","ALLEY":" ","HOUSE_NO":"２５３號十三樓之８","E_COORD97":177716.67999999999,"N_COORD97":2559128.1299999999,"ADDRESS":"公園路２５３號十三樓之８","OBJECTID":572558},"geometry":{"x":177716.68000000156,"y":2559128.129999999}},{"attributes":{"ID":572586,"DIS_CODE":0,"TOWNNAME":"北區","LI":"力行里","LIN":"15鄰","STREET":"力行街","SECT":" ","MAREA":" ","LANE":" ","ALLEY":" ","HOUSE_NO":"５號","E_COORD97":170856.78,"N_COORD97":2545368.3500000001,"ADDRESS":"力行街５號","OBJECTID":572559},"geometry":{"x":170856.78000000119,"y":2545368.3500000015}},{"attributes":{"ID":572587,"DIS_CODE":0,"TOWNNAME":"善化區","LI":"光文里","LIN":"29鄰","STREET":"公園路","SECT":" ","MAREA":" ","LANE":" ","ALLEY":" ","HOUSE_NO":"２５３號十三樓之９","E_COORD97":177716.67999999999,"N_COORD97":2559128.1299999999,"ADDRESS":"公園路２５３號十三樓之９","OBJECTID":572560},"geometry":{"x":177716.68000000156,"y":2559128.129999999}},{"attributes":{"ID":572588,"DIS_CODE":0,"TOWNNAME":"東區","LI":"大智里","LIN":"29鄰","STREET":"德東街","SECT":" ","MAREA":" ","LANE":" ","ALLEY":" ","HOUSE_NO":"２５２號七樓之８","E_COORD97":171463.54000000001,"N_COORD97":2540245.54,"ADDRESS":"德東街２５２號七樓之８","OBJECTID":572561},"geometry":{"x":171463.54000000097,"y":2540245.5399999991}},{"attributes":{"ID":572589,"DIS_CODE":0,"TOWNNAME":"東區","LI":"大智里","LIN":"29鄰","STREET":"德東街","SECT":" ","MAREA":" ","LANE":" ","ALLEY":" ","HOUSE_NO":"２５２號三樓","E_COORD97":171463.54000000001,"N_COORD97":2540245.54,"ADDRESS":"德東街２５２號三樓","OBJECTID":572562},"geometry":{"x":171463.54000000097,"y":2540245.5399999991}},{"attributes":{"ID":572590,"DIS_CODE":0,"TOWNNAME":"東區","LI":"大智里","LIN":"29鄰","STREET":"德東街","SECT":" ","MAREA":" ","LANE":" ","ALLEY":" ","HOUSE_NO":"２５２號三樓之１","E_COORD97":171463.54000000001,"N_COORD97":2540245.54,"ADDRESS":"德東街２５２號三樓之１","OBJECTID":572563},"geometry":{"x":171463.54000000097,"y":2540245.5399999991}},{"attributes":{"ID":572591,"DIS_CODE":0,"TOWNNAME":"東區","LI":"大智里","LIN":"29鄰","STREET":"德東街","SECT":" ","MAREA":" ","LANE":" ","ALLEY":" ","HOUSE_NO":"２５２號三樓之２","E_COORD97":171463.54000000001,"N_COORD97":2540245.54,"ADDRESS":"德東街２５２號三樓之２","OBJECTID":572564},"geometry":{"x":171463.54000000097,"y":2540245.5399999991}},{"attributes":{"ID":572592,"DIS_CODE":0,"TOWNNAME":"東區","LI":"大智里","LIN":"29鄰","STREET":"德東街","SECT":" ","MAREA":" ","LANE":" ","ALLEY":" ","HOUSE_NO":"２５２號三樓之４","E_COORD97":171463.54000000001,"N_COORD97":2540245.54,"ADDRESS":"德東街２５２號三樓之４","OBJECTID":572565},"geometry":{"x":171463.54000000097,"y":2540245.5399999991}},{"attributes":{"ID":572593,"DIS_CODE":0,"TOWNNAME":"東區","LI":"大智里","LIN":"29鄰","STREET":"德東街","SECT":" ","MAREA":" ","LANE":" ","ALLEY":" ","HOUSE_NO":"２５２號三樓之５","E_COORD97":171463.54000000001,"N_COORD97":2540245.54,"ADDRESS":"德東街２５２號三樓之５","OBJECTID":572566},"geometry":{"x":171463.54000000097,"y":2540245.5399999991}},{"attributes":{"ID":572594,"DIS_CODE":0,"TOWNNAME":"東區","LI":"大智里","LIN":"29鄰","STREET":"德東街","SECT":" ","MAREA":" ","LANE":" ","ALLEY":" ","HOUSE_NO":"２５２號三樓之６","E_COORD97":171463.54000000001,"N_COORD97":2540245.54,"ADDRESS":"德東街２５２號三樓之６","OBJECTID":572567},"geometry":{"x":171463.54000000097,"y":2540245.5399999991}},{"attributes":{"ID":572595,"DIS_CODE":0,"TOWNNAME":"東區","LI":"大智里","LIN":"29鄰","STREET":"德東街","SECT":" ","MAREA":" ","LANE":" ","ALLEY":" ","HOUSE_NO":"２５２號三樓之７","E_COORD97":171463.54000000001,"N_COORD97":2540245.54,"ADDRESS":"德東街２５２號三樓之７","OBJECTID":572568},"geometry":{"x":171463.54000000097,"y":2540245.5399999991}},{"attributes":{"ID":572596,"DIS_CODE":0,"TOWNNAME":"東區","LI":"大智里","LIN":"29鄰","STREET":"德東街","SECT":" ","MAREA":" ","LANE":" ","ALLEY":" ","HOUSE_NO":"２５２號五樓","E_COORD97":171463.54000000001,"N_COORD97":2540245.54,"ADDRESS":"德東街２５２號五樓","OBJECTID":572569},"geometry":{"x":171463.54000000097,"y":2540245.5399999991}},{"attributes":{"ID":572597,"DIS_CODE":0,"TOWNNAME":"東區","LI":"大智里","LIN":"29鄰","STREET":"德東街","SECT":" ","MAREA":" ","LANE":" ","ALLEY":" ","HOUSE_NO":"２５２號五樓之２","E_COORD97":171463.54000000001,"N_COORD97":2540245.54,"ADDRESS":"德東街２５２號五樓之２","OBJECTID":572570},"geometry":{"x":171463.54000000097,"y":2540245.5399999991}},{"attributes":{"ID":572598,"DIS_CODE":0,"TOWNNAME":"東區","LI":"大智里","LIN":"29鄰","STREET":"德東街","SECT":" ","MAREA":" ","LANE":" ","ALLEY":" ","HOUSE_NO":"２５２號五樓之３","E_COORD97":171463.54000000001,"N_COORD97":2540245.54,"ADDRESS":"德東街２５２號五樓之３","OBJECTID":572571},"geometry":{"x":171463.54000000097,"y":2540245.5399999991}},{"attributes":{"ID":572599,"DIS_CODE":0,"TOWNNAME":"東區","LI":"大智里","LIN":"29鄰","STREET":"德東街","SECT":" ","MAREA":" ","LANE":" ","ALLEY":" ","HOUSE_NO":"２５２號五樓之４","E_COORD97":171463.54000000001,"N_COORD97":2540245.54,"ADDRESS":"德東街２５２號五樓之４","OBJECTID":572572},"geometry":{"x":171463.54000000097,"y":2540245.5399999991}},{"attributes":{"ID":572600,"DIS_CODE":0,"TOWNNAME":"東區","LI":"大智里","LIN":"29鄰","STREET":"德東街","SECT":" ","MAREA":" ","LANE":" ","ALLEY":" ","HOUSE_NO":"２５２號五樓之５","E_COORD97":171463.54000000001,"N_COORD97":2540245.54,"ADDRESS":"德東街２５２號五樓之５","OBJECTID":572573},"geometry":{"x":171463.54000000097,"y":2540245.5399999991}},{"attributes":{"ID":572601,"DIS_CODE":0,"TOWNNAME":"東區","LI":"崇德里","LIN":"25鄰","STREET":"崇道路","SECT":" ","MAREA":" ","LANE":" ","ALLEY":" ","HOUSE_NO":"４７號","E_COORD97":170708.37,"N_COORD97":2541422.8500000001,"ADDRESS":"崇道路４７號","OBJECTID":572574},"geometry":{"x":170708.37000000104,"y":2541422.8499999996}},{"attributes":{"ID":572602,"DIS_CODE":0,"TOWNNAME":"東區","LI":"小東里","LIN":"33鄰","STREET":"東興路","SECT":" ","MAREA":" ","LANE":" ","ALLEY":" ","HOUSE_NO":"２７６號","E_COORD97":171054.35999999999,"N_COORD97":2544001.4700000002,"ADDRESS":"東興路２７６號","OBJECTID":572575},"geometry":{"x":171054.36000000127,"y":2544001.4700000044}},{"attributes":{"ID":572603,"DIS_CODE":0,"TOWNNAME":"東區","LI":"莊敬里","LIN":"19鄰","STREET":"莊敬路","SECT":" ","MAREA":" ","LANE":" ","ALLEY":" ","HOUSE_NO":"１６３號","E_COORD97":171352.13,"N_COORD97":2544052.5099999998,"ADDRESS":"莊敬路１６３號","OBJECTID":572576},"geometry":{"x":171352.13000000082,"y":2544052.5100000016}},{"attributes":{"ID":572604,"DIS_CODE":0,"TOWNNAME":"東區","LI":"莊敬里","LIN":"19鄰","STREET":"莊敬路","SECT":" ","MAREA":" ","LANE":" ","ALLEY":" ","HOUSE_NO":"１６５號","E_COORD97":171352.92999999999,"N_COORD97":2544058.1699999999,"ADDRESS":"莊敬路１６５號","OBJECTID":572577},"geometry":{"x":171352.93000000156,"y":2544058.1700000018}},{"attributes":{"ID":572605,"DIS_CODE":0,"TOWNNAME":"東區","LI":"莊敬里","LIN":"19鄰","STREET":"莊敬路","SECT":" ","MAREA":" ","LANE":" ","ALLEY":" ","HOUSE_NO":"１６７號","E_COORD97":171355.85000000001,"N_COORD97":2544063.1299999999,"ADDRESS":"莊敬路１６７號","OBJECTID":572578},"geometry":{"x":171355.85000000056,"y":2544063.1300000027}},{"attributes":{"ID":572606,"DIS_CODE":0,"TOWNNAME":"東區","LI":"莊敬里","LIN":"19鄰","STREET":"莊敬路","SECT":" ","MAREA":" ","LANE":" ","ALLEY":" ","HOUSE_NO":"１６９號","E_COORD97":171356.73999999999,"N_COORD97":2544067.6400000001,"ADDRESS":"莊敬路１６９號","OBJECTID":572579},"geometry":{"x":171356.74000000115,"y":2544067.6400000006}},{"attributes":{"ID":572607,"DIS_CODE":0,"TOWNNAME":"東區","LI":"大智里","LIN":"29鄰","STREET":"德東街","SECT":" ","MAREA":" ","LANE":" ","ALLEY":" ","HOUSE_NO":"２５２號五樓之６","E_COORD97":171463.54000000001,"N_COORD97":2540245.54,"ADDRESS":"德東街２５２號五樓之６","OBJECTID":572580},"geometry":{"x":171463.54000000097,"y":2540245.5399999991}},{"attributes":{"ID":572608,"DIS_CODE":0,"TOWNNAME":"東區","LI":"大智里","LIN":"29鄰","STREET":"德東街","SECT":" ","MAREA":" ","LANE":" ","ALLEY":" ","HOUSE_NO":"２５２號五樓之７","E_COORD97":171463.54000000001,"N_COORD97":2540245.54,"ADDRESS":"德東街２５２號五樓之７","OBJECTID":572581},"geometry":{"x":171463.54000000097,"y":2540245.5399999991}},{"attributes":{"ID":572609,"DIS_CODE":0,"TOWNNAME":"東區","LI":"大智里","LIN":"29鄰","STREET":"德東街","SECT":" ","MAREA":" ","LANE":" ","ALLEY":" ","HOUSE_NO":"２５２號五樓之８","E_COORD97":171463.54000000001,"N_COORD97":2540245.54,"ADDRESS":"德東街２５２號五樓之８","OBJECTID":572582},"geometry":{"x":171463.54000000097,"y":2540245.5399999991}},{"attributes":{"ID":572610,"DIS_CODE":0,"TOWNNAME":"東區","LI":"大智里","LIN":"29鄰","STREET":"德東街","SECT":" ","MAREA":" ","LANE":" ","ALLEY":" ","HOUSE_NO":"２５２號六樓之２","E_COORD97":171463.54000000001,"N_COORD97":2540245.54,"ADDRESS":"德東街２５２號六樓之２","OBJECTID":572583},"geometry":{"x":171463.54000000097,"y":2540245.5399999991}},{"attributes":{"ID":572611,"DIS_CODE":0,"TOWNNAME":"東區","LI":"大智里","LIN":"29鄰","STREET":"德東街","SECT":" ","MAREA":" ","LANE":" ","ALLEY":" ","HOUSE_NO":"２５２號六樓之４","E_COORD97":171463.54000000001,"N_COORD97":2540245.54,"ADDRESS":"德東街２５２號六樓之４","OBJECTID":572584},"geometry":{"x":171463.54000000097,"y":2540245.5399999991}},{"attributes":{"ID":572612,"DIS_CODE":0,"TOWNNAME":"東區","LI":"大智里","LIN":"29鄰","STREET":"德東街","SECT":" ","MAREA":" ","LANE":" ","ALLEY":" ","HOUSE_NO":"２５２號六樓之６","E_COORD97":171463.54000000001,"N_COORD97":2540245.54,"ADDRESS":"德東街２５２號六樓之６","OBJECTID":572585},"geometry":{"x":171463.54000000097,"y":2540245.5399999991}},{"attributes":{"ID":572613,"DIS_CODE":0,"TOWNNAME":"東區","LI":"大智里","LIN":"29鄰","STREET":"德東街","SECT":" ","MAREA":" ","LANE":" ","ALLEY":" ","HOUSE_NO":"２５２號六樓之７","E_COORD97":171463.54000000001,"N_COORD97":2540245.54,"ADDRESS":"德東街２５２號六樓之７","OBJECTID":572586},"geometry":{"x":171463.54000000097,"y":2540245.5399999991}},{"attributes":{"ID":572614,"DIS_CODE":0,"TOWNNAME":"東區","LI":"大智里","LIN":"29鄰","STREET":"德東街","SECT":" ","MAREA":" ","LANE":" ","ALLEY":" ","HOUSE_NO":"２５２號四樓","E_COORD97":171463.54000000001,"N_COORD97":2540245.54,"ADDRESS":"德東街２５２號四樓","OBJECTID":572587},"geometry":{"x":171463.54000000097,"y":2540245.5399999991}},{"attributes":{"ID":572615,"DIS_CODE":0,"TOWNNAME":"東區","LI":"莊敬里","LIN":"21鄰","STREET":"莊敬路","SECT":" ","MAREA":" ","LANE":" ","ALLEY":" ","HOUSE_NO":"１４２號","E_COORD97":171378.47,"N_COORD97":2544055.6499999999,"ADDRESS":"莊敬路１４２號","OBJECTID":572588},"geometry":{"x":171378.47000000067,"y":2544055.6500000022}},{"attributes":{"ID":572616,"DIS_CODE":0,"TOWNNAME":"東區","LI":"大智里","LIN":"29鄰","STREET":"德東街","SECT":" ","MAREA":" ","LANE":" ","ALLEY":" ","HOUSE_NO":"２５２號四樓之１","E_COORD97":171463.54000000001,"N_COORD97":2540245.54,"ADDRESS":"德東街２５２號四樓之１","OBJECTID":572589},"geometry":{"x":171463.54000000097,"y":2540245.5399999991}},{"attributes":{"ID":572617,"DIS_CODE":0,"TOWNNAME":"東區","LI":"大智里","LIN":"29鄰","STREET":"德東街","SECT":" ","MAREA":" ","LANE":" ","ALLEY":" ","HOUSE_NO":"２５２號四樓之５","E_COORD97":171463.54000000001,"N_COORD97":2540245.54,"ADDRESS":"德東街２５２號四樓之５","OBJECTID":572590},"geometry":{"x":171463.54000000097,"y":2540245.5399999991}},{"attributes":{"ID":572618,"DIS_CODE":0,"TOWNNAME":"東區","LI":"崇文里","LIN":"29鄰","STREET":"崇德路","SECT":" ","MAREA":" ","LANE":" ","ALLEY":" ","HOUSE_NO":"７８１號","E_COORD97":170806.20000000001,"N_COORD97":2540821.71,"ADDRESS":"崇德路７８１號","OBJECTID":572591},"geometry":{"x":170806.20000000112,"y":2540821.7100000009}},{"attributes":{"ID":572619,"DIS_CODE":0,"TOWNNAME":"東區","LI":"大智里","LIN":"29鄰","STREET":"德東街","SECT":" ","MAREA":" ","LANE":" ","ALLEY":" ","HOUSE_NO":"２５２號四樓之６","E_COORD97":171463.54000000001,"N_COORD97":2540245.54,"ADDRESS":"德東街２５２號四樓之６","OBJECTID":572592},"geometry":{"x":171463.54000000097,"y":2540245.5399999991}},{"attributes":{"ID":572620,"DIS_CODE":0,"TOWNNAME":"東區","LI":"大智里","LIN":"29鄰","STREET":"德東街","SECT":" ","MAREA":" ","LANE":" ","ALLEY":" ","HOUSE_NO":"２５２號四樓之７","E_COORD97":171463.54000000001,"N_COORD97":2540245.54,"ADDRESS":"德東街２５２號四樓之７","OBJECTID":572593},"geometry":{"x":171463.54000000097,"y":2540245.5399999991}},{"attributes":{"ID":572621,"DIS_CODE":0,"TOWNNAME":"東區","LI":"大智里","LIN":"29鄰","STREET":"德東街","SECT":" ","MAREA":" ","LANE":" ","ALLEY":" ","HOUSE_NO":"２５２號四樓之８","E_COORD97":171463.54000000001,"N_COORD97":2540245.54,"ADDRESS":"德東街２５２號四樓之８","OBJECTID":572594},"geometry":{"x":171463.54000000097,"y":2540245.5399999991}},{"attributes":{"ID":572622,"DIS_CODE":0,"TOWNNAME":"東區","LI":"大智里","LIN":"29鄰","STREET":"德東街","SECT":" ","MAREA":" ","LANE":" ","ALLEY":" ","HOUSE_NO":"２６４號二樓","E_COORD97":171474.26999999999,"N_COORD97":2540218,"ADDRESS":"德東街２６４號二樓","OBJECTID":572595},"geometry":{"x":171474.27000000142,"y":2540218.0000000019}},{"attributes":{"ID":572623,"DIS_CODE":0,"TOWNNAME":"東區","LI":"大智里","LIN":"29鄰","STREET":"德東街","SECT":" ","MAREA":" ","LANE":" ","ALLEY":" ","HOUSE_NO":"２６４號三樓","E_COORD97":171474.26999999999,"N_COORD97":2540218,"ADDRESS":"德東街２６４號三樓","OBJECTID":572596},"geometry":{"x":171474.27000000142,"y":2540218.0000000019}},{"attributes":{"ID":572624,"DIS_CODE":0,"TOWNNAME":"東區","LI":"大智里","LIN":"29鄰","STREET":"德東街","SECT":" ","MAREA":" ","LANE":" ","ALLEY":" ","HOUSE_NO":"２６４號五樓","E_COORD97":171474.26999999999,"N_COORD97":2540218,"ADDRESS":"德東街２６４號五樓","OBJECTID":572597},"geometry":{"x":171474.27000000142,"y":2540218.0000000019}},{"attributes":{"ID":572625,"DIS_CODE":0,"TOWNNAME":"東區","LI":"大智里","LIN":"29鄰","STREET":"德東街","SECT":" ","MAREA":" ","LANE":" ","ALLEY":" ","HOUSE_NO":"２６４號六樓","E_COORD97":171474.26999999999,"N_COORD97":2540218,"ADDRESS":"德東街２６４號六樓","OBJECTID":572598},"geometry":{"x":171474.27000000142,"y":2540218.0000000019}},{"attributes":{"ID":572626,"DIS_CODE":0,"TOWNNAME":"東區","LI":"大智里","LIN":"29鄰","STREET":"德東街","SECT":" ","MAREA":" ","LANE":" ","ALLEY":" ","HOUSE_NO":"２６４號四樓","E_COORD97":171474.26999999999,"N_COORD97":2540218,"ADDRESS":"德東街２６４號四樓","OBJECTID":572599},"geometry":{"x":171474.27000000142,"y":2540218.0000000019}},{"attributes":{"ID":572627,"DIS_CODE":0,"TOWNNAME":"東區","LI":"大智里","LIN":"29鄰","STREET":"德東街","SECT":" ","MAREA":" ","LANE":" ","ALLEY":" ","HOUSE_NO":"２６６號七樓","E_COORD97":171488.34,"N_COORD97":2540217.3100000001,"ADDRESS":"德東街２６６號七樓","OBJECTID":572600},"geometry":{"x":171488.34000000078,"y":2540217.3100000005}}]}