{"displayFieldName":"TOWNNAME","fieldAliases":{"ID":"ID","DIS_CODE":"DIS_CODE","TOWNNAME":"TOWNNAME","LI":"LI","LIN":"LIN","STREET":"STREET","SECT":"SECT","MAREA":"MAREA","LANE":"LANE","ALLEY":"ALLEY","HOUSE_NO":"HOUSE_NO","E_COORD97":"E_COORD97","N_COORD97":"N_COORD97","ADDRESS":"ADDRESS","OBJECTID":"OBJECTID"},"geometryType":"esriGeometryPoint","spatialReference":{"wkid":102443,"latestWkid":3826},"fields":[{"name":"ID","type":"esriFieldTypeDouble","alias":"ID"},{"name":"DIS_CODE","type":"esriFieldTypeInteger","alias":"DIS_CODE"},{"name":"TOWNNAME","type":"esriFieldTypeString","alias":"TOWNNAME","length":8},{"name":"LI","type":"esriFieldTypeString","alias":"LI","length":8},{"name":"LIN","type":"esriFieldTypeString","alias":"LIN","length":12},{"name":"STREET","type":"esriFieldTypeString","alias":"STREET","length":20},{"name":"SECT","type":"esriFieldTypeString","alias":"SECT","length":8},{"name":"MAREA","type":"esriFieldTypeString","alias":"MAREA","length":12},{"name":"LANE","type":"esriFieldTypeString","alias":"LANE","length":10},{"name":"ALLEY","type":"esriFieldTypeString","alias":"ALLEY","length":10},{"name":"HOUSE_NO","type":"esriFieldTypeString","alias":"HOUSE_NO","length":20},{"name":"E_COORD97","type":"esriFieldTypeDouble","alias":"E_COORD97"},{"name":"N_COORD97","type":"esriFieldTypeDouble","alias":"N_COORD97"},{"name":"ADDRESS","type":"esriFieldTypeString","alias":"ADDRESS","length":50},{"name":"OBJECTID","type":"esriFieldTypeOID","alias":"OBJECTID"}],"features":[{"attributes":{"ID":328210,"DIS_CODE":0,"TOWNNAME":"安南區","LI":"安順里","LIN":"17鄰","STREET":"開安三街","SECT":" ","MAREA":" ","LANE":" ","ALLEY":" ","HOUSE_NO":"５９號","E_COORD97":170741.69,"N_COORD97":2549759.5699999998,"ADDRESS":"開安三街５９號","OBJECTID":328201},"geometry":{"x":170741.69000000227,"y":2549759.5700000003}},{"attributes":{"ID":328211,"DIS_CODE":0,"TOWNNAME":"安南區","LI":"安順里","LIN":"17鄰","STREET":"開安三街","SECT":" ","MAREA":" ","LANE":" ","ALLEY":" ","HOUSE_NO":"６０號","E_COORD97":170722.88,"N_COORD97":2549719.1899999999,"ADDRESS":"開安三街６０號","OBJECTID":328202},"geometry":{"x":170722.88000000175,"y":2549719.1900000013}},{"attributes":{"ID":328212,"DIS_CODE":0,"TOWNNAME":"安南區","LI":"安順里","LIN":"17鄰","STREET":"開安三街","SECT":" ","MAREA":" ","LANE":" ","ALLEY":" ","HOUSE_NO":"６６號","E_COORD97":170753.70000000001,"N_COORD97":2549705.2000000002,"ADDRESS":"開安三街６６號","OBJECTID":328203},"geometry":{"x":170753.70000000112,"y":2549705.2000000011}},{"attributes":{"ID":328213,"DIS_CODE":0,"TOWNNAME":"安南區","LI":"新順里","LIN":"17鄰","STREET":"頂安街","SECT":" ","MAREA":" ","LANE":" ","ALLEY":" ","HOUSE_NO":"６１號","E_COORD97":169520.25,"N_COORD97":2549340.9900000002,"ADDRESS":"頂安街６１號","OBJECTID":328204},"geometry":{"x":169520.25000000186,"y":2549340.9900000021}},{"attributes":{"ID":328214,"DIS_CODE":0,"TOWNNAME":"安南區","LI":"新順里","LIN":"17鄰","STREET":"頂安街","SECT":" ","MAREA":" ","LANE":" ","ALLEY":" ","HOUSE_NO":"６３號","E_COORD97":169515.45000000001,"N_COORD97":2549342.0699999998,"ADDRESS":"頂安街６３號","OBJECTID":328205},"geometry":{"x":169515.45000000019,"y":2549342.0700000003}},{"attributes":{"ID":328215,"DIS_CODE":0,"TOWNNAME":"安南區","LI":"新順里","LIN":"17鄰","STREET":"頂安街","SECT":" ","MAREA":" ","LANE":" ","ALLEY":" ","HOUSE_NO":"６７號","E_COORD97":169505.85000000001,"N_COORD97":2549344.0800000001,"ADDRESS":"頂安街６７號","OBJECTID":328206},"geometry":{"x":169505.85000000056,"y":2549344.0800000019}},{"attributes":{"ID":328216,"DIS_CODE":0,"TOWNNAME":"新化區","LI":"太平里","LIN":"17鄰","STREET":"太平街","SECT":" ","MAREA":" ","LANE":" ","ALLEY":" ","HOUSE_NO":"９５號","E_COORD97":178643.47,"N_COORD97":2548739.25,"ADDRESS":"太平街９５號","OBJECTID":328207},"geometry":{"x":178643.46999999974,"y":2548739.2500000019}},{"attributes":{"ID":328217,"DIS_CODE":0,"TOWNNAME":"永康區","LI":"西勢里","LIN":"25鄰","STREET":"廣興街","SECT":" ","MAREA":" ","LANE":"２６巷","ALLEY":" ","HOUSE_NO":"７４號","E_COORD97":175995.85000000001,"N_COORD97":2546388.7400000002,"ADDRESS":"廣興街２６巷７４號","OBJECTID":328208},"geometry":{"x":175995.84999999963,"y":2546388.7400000002}},{"attributes":{"ID":328218,"DIS_CODE":0,"TOWNNAME":"永康區","LI":"甲頂里","LIN":"13鄰","STREET":"大武街","SECT":" ","MAREA":" ","LANE":"２巷","ALLEY":" ","HOUSE_NO":"４０號","E_COORD97":170375.70000000001,"N_COORD97":2546553.0099999998,"ADDRESS":"大武街２巷４０號","OBJECTID":328209},"geometry":{"x":170375.70000000112,"y":2546553.0099999979}},{"attributes":{"ID":328219,"DIS_CODE":0,"TOWNNAME":"永康區","LI":"西勢里","LIN":"24鄰","STREET":"廣興街","SECT":" ","MAREA":" ","LANE":"２６巷","ALLEY":" ","HOUSE_NO":"１號","E_COORD97":175889.41,"N_COORD97":2546546.8900000001,"ADDRESS":"廣興街２６巷１號","OBJECTID":328210},"geometry":{"x":175889.41000000015,"y":2546546.8900000006}},{"attributes":{"ID":328220,"DIS_CODE":0,"TOWNNAME":"永康區","LI":"東橋里","LIN":"4鄰","STREET":"大橋一街","SECT":" ","MAREA":" ","LANE":"３２４巷","ALLEY":" ","HOUSE_NO":"４７號","E_COORD97":171383.22,"N_COORD97":2546580.5299999998,"ADDRESS":"大橋一街３２４巷４７號","OBJECTID":328211},"geometry":{"x":171383.2200000016,"y":2546580.5300000012}},{"attributes":{"ID":328221,"DIS_CODE":0,"TOWNNAME":"永康區","LI":"成功里","LIN":"38鄰","STREET":"中華路","SECT":" ","MAREA":" ","LANE":"１５４巷","ALLEY":" ","HOUSE_NO":"８２號","E_COORD97":171805.54000000001,"N_COORD97":2544897.6299999999,"ADDRESS":"中華路１５４巷８２號","OBJECTID":328212},"geometry":{"x":171805.54000000097,"y":2544897.6300000008}},{"attributes":{"ID":328222,"DIS_CODE":0,"TOWNNAME":"永康區","LI":"甲頂里","LIN":"13鄰","STREET":"大武街","SECT":" ","MAREA":" ","LANE":"２巷","ALLEY":" ","HOUSE_NO":"４２號","E_COORD97":170379.07000000001,"N_COORD97":2546550.1899999999,"ADDRESS":"大武街２巷４２號","OBJECTID":328213},"geometry":{"x":170379.0700000003,"y":2546550.1899999995}},{"attributes":{"ID":328223,"DIS_CODE":0,"TOWNNAME":"永康區","LI":"安康里","LIN":"20鄰","STREET":"中華西街","SECT":" ","MAREA":" ","LANE":"１２２巷","ALLEY":" ","HOUSE_NO":"７４號","E_COORD97":170884.5,"N_COORD97":2546231.25,"ADDRESS":"中華西街１２２巷７４號","OBJECTID":328214},"geometry":{"x":170884.5,"y":2546231.2500000019}},{"attributes":{"ID":328224,"DIS_CODE":0,"TOWNNAME":"永康區","LI":"西勢里","LIN":"25鄰","STREET":"廣興街","SECT":" ","MAREA":" ","LANE":"２６巷","ALLEY":" ","HOUSE_NO":"４８號","E_COORD97":175957.06,"N_COORD97":2546425,"ADDRESS":"廣興街２６巷４８號","OBJECTID":328215},"geometry":{"x":175957.05999999959,"y":2546425.0000000019}},{"attributes":{"ID":328225,"DIS_CODE":0,"TOWNNAME":"永康區","LI":"西橋里","LIN":"4鄰","STREET":"中華西街","SECT":" ","MAREA":" ","LANE":"２１巷","ALLEY":" ","HOUSE_NO":"１７號","E_COORD97":170773.10999999999,"N_COORD97":2545919.5,"ADDRESS":"中華西街２１巷１７號","OBJECTID":328216},"geometry":{"x":170773.11000000127,"y":2545919.5000000037}},{"attributes":{"ID":328226,"DIS_CODE":0,"TOWNNAME":"永康區","LI":"西勢里","LIN":"25鄰","STREET":"廣興街","SECT":" ","MAREA":" ","LANE":"２６巷","ALLEY":" ","HOUSE_NO":"４２號","E_COORD97":175948.95999999999,"N_COORD97":2546433.5,"ADDRESS":"廣興街２６巷４２號","OBJECTID":328217},"geometry":{"x":175948.96000000089,"y":2546433.5}},{"attributes":{"ID":328227,"DIS_CODE":0,"TOWNNAME":"永康區","LI":"西灣里","LIN":"41鄰","STREET":"國光六街","SECT":" ","MAREA":" ","LANE":"９０巷","ALLEY":" ","HOUSE_NO":"１８號","E_COORD97":174064.17000000001,"N_COORD97":2545388.6899999999,"ADDRESS":"國光六街９０巷１８號","OBJECTID":328218},"geometry":{"x":174064.17000000086,"y":2545388.6900000032}},{"attributes":{"ID":328228,"DIS_CODE":0,"TOWNNAME":"安南區","LI":"海西里","LIN":"15鄰","STREET":"海環街","SECT":" ","MAREA":" ","LANE":"３６５巷","ALLEY":" ","HOUSE_NO":"１０號","E_COORD97":166028.07000000001,"N_COORD97":2548888.52,"ADDRESS":"海環街３６５巷１０號","OBJECTID":328219},"geometry":{"x":166028.07000000216,"y":2548888.5199999996}},{"attributes":{"ID":328229,"DIS_CODE":0,"TOWNNAME":"安南區","LI":"海西里","LIN":"15鄰","STREET":"海環街","SECT":" ","MAREA":" ","LANE":"３６５巷","ALLEY":" ","HOUSE_NO":"１２號","E_COORD97":166024.92000000001,"N_COORD97":2548886.0600000001,"ADDRESS":"海環街３６５巷１２號","OBJECTID":328220},"geometry":{"x":166024.91999999993,"y":2548886.0600000042}},{"attributes":{"ID":328230,"DIS_CODE":0,"TOWNNAME":"安南區","LI":"海西里","LIN":"15鄰","STREET":"海環街","SECT":" ","MAREA":" ","LANE":"３６５巷","ALLEY":" ","HOUSE_NO":"１４號","E_COORD97":166021.44,"N_COORD97":2548883.4500000002,"ADDRESS":"海環街３６５巷１４號","OBJECTID":328221},"geometry":{"x":166021.44000000041,"y":2548883.4500000011}},{"attributes":{"ID":328231,"DIS_CODE":0,"TOWNNAME":"安南區","LI":"海西里","LIN":"15鄰","STREET":"海環街","SECT":" ","MAREA":" ","LANE":"３６５巷","ALLEY":" ","HOUSE_NO":"２號","E_COORD97":166042.73000000001,"N_COORD97":2548898.1400000001,"ADDRESS":"海環街３６５巷２號","OBJECTID":328222},"geometry":{"x":166042.73000000138,"y":2548898.1400000006}},{"attributes":{"ID":328232,"DIS_CODE":0,"TOWNNAME":"安南區","LI":"海西里","LIN":"15鄰","STREET":"海環街","SECT":" ","MAREA":" ","LANE":"３６５巷","ALLEY":" ","HOUSE_NO":"６號","E_COORD97":166036.03,"N_COORD97":2548893.54,"ADDRESS":"海環街３６５巷６號","OBJECTID":328223},"geometry":{"x":166036.03000000026,"y":2548893.5399999991}},{"attributes":{"ID":328233,"DIS_CODE":0,"TOWNNAME":"安南區","LI":"頂安里","LIN":"17鄰","STREET":"北安路","SECT":"三段","MAREA":" ","LANE":" ","ALLEY":" ","HOUSE_NO":"１３０號","E_COORD97":168348.76000000001,"N_COORD97":2549115.5099999998,"ADDRESS":"北安路三段１３０號","OBJECTID":328224},"geometry":{"x":168348.76000000071,"y":2549115.5099999998}},{"attributes":{"ID":328234,"DIS_CODE":0,"TOWNNAME":"東區","LI":"關聖里","LIN":"17鄰","STREET":"裕平路","SECT":" ","MAREA":" ","LANE":" ","ALLEY":" ","HOUSE_NO":"９９號","E_COORD97":172307.07999999999,"N_COORD97":2542854.29,"ADDRESS":"裕平路９９號","OBJECTID":328225},"geometry":{"x":172307.08000000101,"y":2542854.2899999991}},{"attributes":{"ID":328235,"DIS_CODE":0,"TOWNNAME":"安南區","LI":"頂安里","LIN":"17鄰","STREET":"安中路","SECT":"一段","MAREA":" ","LANE":" ","ALLEY":" ","HOUSE_NO":"３９０號","E_COORD97":168363.42999999999,"N_COORD97":2548776.77,"ADDRESS":"安中路一段３９０號","OBJECTID":328226},"geometry":{"x":168363.43000000063,"y":2548776.7700000014}},{"attributes":{"ID":328236,"DIS_CODE":0,"TOWNNAME":"安南區","LI":"頂安里","LIN":"17鄰","STREET":"安中路","SECT":"一段","MAREA":" ","LANE":" ","ALLEY":" ","HOUSE_NO":"３９２號","E_COORD97":168359.81,"N_COORD97":2548777.4300000002,"ADDRESS":"安中路一段３９２號","OBJECTID":328227},"geometry":{"x":168359.80999999866,"y":2548777.4299999997}},{"attributes":{"ID":328237,"DIS_CODE":0,"TOWNNAME":"安南區","LI":"頂安里","LIN":"17鄰","STREET":"安中路","SECT":"一段","MAREA":" ","LANE":" ","ALLEY":" ","HOUSE_NO":"３９４號","E_COORD97":168355.87,"N_COORD97":2548780.0600000001,"ADDRESS":"安中路一段３９４號","OBJECTID":328228},"geometry":{"x":168355.87000000011,"y":2548780.0600000005}},{"attributes":{"ID":328238,"DIS_CODE":0,"TOWNNAME":"安南區","LI":"頂安里","LIN":"17鄰","STREET":"安中路","SECT":"一段","MAREA":" ","LANE":" ","ALLEY":" ","HOUSE_NO":"３９６號","E_COORD97":168352.57999999999,"N_COORD97":2548782.3599999999,"ADDRESS":"安中路一段３９６號","OBJECTID":328229},"geometry":{"x":168352.58000000101,"y":2548782.3600000013}},{"attributes":{"ID":328239,"DIS_CODE":0,"TOWNNAME":"安南區","LI":"頂安里","LIN":"17鄰","STREET":"安中路","SECT":"一段","MAREA":" ","LANE":" ","ALLEY":" ","HOUSE_NO":"３９８號","E_COORD97":168348.64000000001,"N_COORD97":2548784.3300000001,"ADDRESS":"安中路一段３９８號","OBJECTID":328230},"geometry":{"x":168348.63999999966,"y":2548784.3300000001}},{"attributes":{"ID":328240,"DIS_CODE":0,"TOWNNAME":"安南區","LI":"頂安里","LIN":"17鄰","STREET":"安中路","SECT":"一段","MAREA":" ","LANE":" ","ALLEY":" ","HOUSE_NO":"４００號","E_COORD97":168345.01999999999,"N_COORD97":2548786.2999999998,"ADDRESS":"安中路一段４００號","OBJECTID":328231},"geometry":{"x":168345.02000000142,"y":2548786.2999999989}},{"attributes":{"ID":328241,"DIS_CODE":0,"TOWNNAME":"安南區","LI":"頂安里","LIN":"17鄰","STREET":"安中路","SECT":"一段","MAREA":" ","LANE":" ","ALLEY":" ","HOUSE_NO":"４０２號","E_COORD97":168341.41,"N_COORD97":2548788.6000000001,"ADDRESS":"安中路一段４０２號","OBJECTID":328232},"geometry":{"x":168341.41000000108,"y":2548788.5999999996}},{"attributes":{"ID":328242,"DIS_CODE":0,"TOWNNAME":"安南區","LI":"頂安里","LIN":"17鄰","STREET":"安中路","SECT":"一段","MAREA":" ","LANE":" ","ALLEY":" ","HOUSE_NO":"４０４號","E_COORD97":168337.79000000001,"N_COORD97":2548791.2200000002,"ADDRESS":"安中路一段４０４號","OBJECTID":328233},"geometry":{"x":168337.79000000004,"y":2548791.2200000025}},{"attributes":{"ID":328243,"DIS_CODE":0,"TOWNNAME":"安南區","LI":"安順里","LIN":"11鄰","STREET":"安和路","SECT":"四段","MAREA":" ","LANE":" ","ALLEY":" ","HOUSE_NO":"１７４之１號","E_COORD97":169943.324013,"N_COORD97":2550496.9949599998,"ADDRESS":"安和路四段１７４之１號","OBJECTID":328234},"geometry":{"x":169943.32401300129,"y":2550496.9949599989}},{"attributes":{"ID":328244,"DIS_CODE":0,"TOWNNAME":"永康區","LI":"西勢里","LIN":"20鄰","STREET":"富強路","SECT":"一段","MAREA":" ","LANE":"２２７巷","ALLEY":" ","HOUSE_NO":"２５號","E_COORD97":175581.69,"N_COORD97":2546504.0699999998,"ADDRESS":"富強路一段２２７巷２５號","OBJECTID":328235},"geometry":{"x":175581.69000000134,"y":2546504.0700000022}},{"attributes":{"ID":328245,"DIS_CODE":0,"TOWNNAME":"永康區","LI":"西橋里","LIN":"4鄰","STREET":"中華西街","SECT":" ","MAREA":" ","LANE":"２１巷","ALLEY":" ","HOUSE_NO":"１５號","E_COORD97":170763.76000000001,"N_COORD97":2545930.25,"ADDRESS":"中華西街２１巷１５號","OBJECTID":328236},"geometry":{"x":170763.75999999978,"y":2545930.25}},{"attributes":{"ID":328246,"DIS_CODE":0,"TOWNNAME":"永康區","LI":"西橋里","LIN":"4鄰","STREET":"中華西街","SECT":" ","MAREA":" ","LANE":"２１巷","ALLEY":" ","HOUSE_NO":"２３號","E_COORD97":170748.57000000001,"N_COORD97":2545915.25,"ADDRESS":"中華西街２１巷２３號","OBJECTID":328237},"geometry":{"x":170748.5700000003,"y":2545915.2500000019}},{"attributes":{"ID":328247,"DIS_CODE":0,"TOWNNAME":"永康區","LI":"東橋里","LIN":"4鄰","STREET":"大橋一街","SECT":" ","MAREA":" ","LANE":"３２４巷","ALLEY":" ","HOUSE_NO":"４９號","E_COORD97":171385.76999999999,"N_COORD97":2546577.5299999998,"ADDRESS":"大橋一街３２４巷４９號","OBJECTID":328238},"geometry":{"x":171385.76999999955,"y":2546577.5300000012}},{"attributes":{"ID":328248,"DIS_CODE":0,"TOWNNAME":"官田區","LI":"社子里","LIN":"6鄰","STREET":" ","SECT":" ","MAREA":"社子","LANE":" ","ALLEY":" ","HOUSE_NO":"４０號","E_COORD97":184697.38,"N_COORD97":2564473.2999999998,"ADDRESS":"社子４０號","OBJECTID":328239},"geometry":{"x":184697.37999999989,"y":2564473.3000000007}},{"attributes":{"ID":328249,"DIS_CODE":0,"TOWNNAME":"永康區","LI":"東橋里","LIN":"4鄰","STREET":"大橋一街","SECT":" ","MAREA":" ","LANE":"３２４巷","ALLEY":" ","HOUSE_NO":"５３號","E_COORD97":171391.34,"N_COORD97":2546571.2799999998,"ADDRESS":"大橋一街３２４巷５３號","OBJECTID":328240},"geometry":{"x":171391.34000000078,"y":2546571.2800000031}},{"attributes":{"ID":328250,"DIS_CODE":0,"TOWNNAME":"永康區","LI":"崑山里","LIN":" ","STREET":"大灣路","SECT":" ","MAREA":" ","LANE":"８９１巷","ALLEY":" ","HOUSE_NO":"５６號","E_COORD97":173592.84,"N_COORD97":2544221.2400000002,"ADDRESS":"大灣路８９１巷５６號","OBJECTID":328241},"geometry":{"x":173592.83999999985,"y":2544221.2400000002}},{"attributes":{"ID":328251,"DIS_CODE":0,"TOWNNAME":"永康區","LI":"二王里","LIN":"39鄰","STREET":"中山南路","SECT":" ","MAREA":" ","LANE":"３１６巷","ALLEY":" ","HOUSE_NO":"７３號","E_COORD97":172051.53,"N_COORD97":2546153.9900000002,"ADDRESS":"中山南路３１６巷７３號","OBJECTID":328242},"geometry":{"x":172051.53000000119,"y":2546153.9900000021}},{"attributes":{"ID":328252,"DIS_CODE":0,"TOWNNAME":"永康區","LI":"大橋里","LIN":" ","STREET":"大橋一街","SECT":" ","MAREA":" ","LANE":"１３７巷","ALLEY":" ","HOUSE_NO":"６號","E_COORD97":171034.60000000001,"N_COORD97":2546534.25,"ADDRESS":"大橋一街１３７巷６號","OBJECTID":328243},"geometry":{"x":171034.5999999987,"y":2546534.25}},{"attributes":{"ID":328253,"DIS_CODE":0,"TOWNNAME":"永康區","LI":"安康里","LIN":"15鄰","STREET":"中華路","SECT":" ","MAREA":" ","LANE":"６１９巷","ALLEY":" ","HOUSE_NO":"６８號之３","E_COORD97":170892.78,"N_COORD97":2546047.79,"ADDRESS":"中華路６１９巷６８號之３","OBJECTID":328244},"geometry":{"x":170892.78000000026,"y":2546047.7899999991}},{"attributes":{"ID":328254,"DIS_CODE":0,"TOWNNAME":"安南區","LI":"州北里","LIN":"15鄰","STREET":"安和路","SECT":"五段","MAREA":" ","LANE":"１７１巷","ALLEY":" ","HOUSE_NO":"６號","E_COORD97":169823.82000000001,"N_COORD97":2551847.2400000002,"ADDRESS":"安和路五段１７１巷６號","OBJECTID":328245},"geometry":{"x":169823.82000000123,"y":2551847.2400000002}},{"attributes":{"ID":328255,"DIS_CODE":0,"TOWNNAME":"安南區","LI":"安東里","LIN":"15鄰","STREET":"安通路","SECT":"三段","MAREA":" ","LANE":"１３０巷","ALLEY":" ","HOUSE_NO":"１７號","E_COORD97":169432.38,"N_COORD97":2547875.4199999999,"ADDRESS":"安通路三段１３０巷１７號","OBJECTID":328246},"geometry":{"x":169432.37999999989,"y":2547875.4199999999}},{"attributes":{"ID":328256,"DIS_CODE":0,"TOWNNAME":"安南區","LI":"安東里","LIN":"15鄰","STREET":"安通路","SECT":"三段","MAREA":" ","LANE":"１３０巷","ALLEY":" ","HOUSE_NO":"１９號","E_COORD97":169427.76000000001,"N_COORD97":2547872.7000000002,"ADDRESS":"安通路三段１３０巷１９號","OBJECTID":328247},"geometry":{"x":169427.75999999978,"y":2547872.6999999993}},{"attributes":{"ID":328257,"DIS_CODE":0,"TOWNNAME":"安南區","LI":"安東里","LIN":"15鄰","STREET":"安通路","SECT":"三段","MAREA":" ","LANE":"１３０巷","ALLEY":" ","HOUSE_NO":"２１號","E_COORD97":169421.26999999999,"N_COORD97":2547890.29,"ADDRESS":"安通路三段１３０巷２１號","OBJECTID":328248},"geometry":{"x":169421.26999999862,"y":2547890.290000001}},{"attributes":{"ID":328258,"DIS_CODE":0,"TOWNNAME":"安南區","LI":"頂安里","LIN":"17鄰","STREET":"安中路","SECT":"一段","MAREA":" ","LANE":" ","ALLEY":" ","HOUSE_NO":"４０６號","E_COORD97":168334.17999999999,"N_COORD97":2548792.54,"ADDRESS":"安中路一段４０６號","OBJECTID":328249},"geometry":{"x":168334.18000000063,"y":2548792.5399999991}},{"attributes":{"ID":328259,"DIS_CODE":0,"TOWNNAME":"安南區","LI":"頂安里","LIN":"17鄰","STREET":"安中路","SECT":"一段","MAREA":" ","LANE":" ","ALLEY":" ","HOUSE_NO":"４０８號","E_COORD97":168330.23000000001,"N_COORD97":2548799.1000000001,"ADDRESS":"安中路一段４０８號","OBJECTID":328250},"geometry":{"x":168330.23000000045,"y":2548799.0999999996}},{"attributes":{"ID":328260,"DIS_CODE":0,"TOWNNAME":"安南區","LI":"頂安里","LIN":"17鄰","STREET":"安中路","SECT":"一段","MAREA":" ","LANE":" ","ALLEY":" ","HOUSE_NO":"４１２號","E_COORD97":168313.70000000001,"N_COORD97":2548806.52,"ADDRESS":"安中路一段４１２號","OBJECTID":328251},"geometry":{"x":168313.70000000019,"y":2548806.5199999996}},{"attributes":{"ID":328261,"DIS_CODE":0,"TOWNNAME":"安南區","LI":"頂安里","LIN":"17鄰","STREET":"安中路","SECT":"一段","MAREA":" ","LANE":" ","ALLEY":" ","HOUSE_NO":"４１４號","E_COORD97":168310.42999999999,"N_COORD97":2548808.7000000002,"ADDRESS":"安中路一段４１４號","OBJECTID":328252},"geometry":{"x":168310.43000000063,"y":2548808.6999999993}},{"attributes":{"ID":328262,"DIS_CODE":0,"TOWNNAME":"安南區","LI":"頂安里","LIN":"17鄰","STREET":"安中路","SECT":"一段","MAREA":" ","LANE":" ","ALLEY":" ","HOUSE_NO":"４１６號","E_COORD97":168306.60999999999,"N_COORD97":2548810.8799999999,"ADDRESS":"安中路一段４１６號","OBJECTID":328253},"geometry":{"x":168306.61000000127,"y":2548810.879999999}},{"attributes":{"ID":328263,"DIS_CODE":0,"TOWNNAME":"安南區","LI":"頂安里","LIN":"17鄰","STREET":"安中路","SECT":"一段","MAREA":" ","LANE":" ","ALLEY":" ","HOUSE_NO":"４１８號","E_COORD97":168303.07000000001,"N_COORD97":2548813.3399999999,"ADDRESS":"安中路一段４１８號","OBJECTID":328254},"geometry":{"x":168303.07000000216,"y":2548813.3400000017}},{"attributes":{"ID":328264,"DIS_CODE":0,"TOWNNAME":"安南區","LI":"頂安里","LIN":"17鄰","STREET":"安中路","SECT":"一段","MAREA":" ","LANE":" ","ALLEY":" ","HOUSE_NO":"４２０號","E_COORD97":168299.79000000001,"N_COORD97":2548815.2400000002,"ADDRESS":"安中路一段４２０號","OBJECTID":328255},"geometry":{"x":168299.79000000097,"y":2548815.2400000002}},{"attributes":{"ID":328265,"DIS_CODE":0,"TOWNNAME":"安南區","LI":"頂安里","LIN":"17鄰","STREET":"安中路","SECT":"一段","MAREA":" ","LANE":" ","ALLEY":" ","HOUSE_NO":"４２２號","E_COORD97":168296.25,"N_COORD97":2548817.7000000002,"ADDRESS":"安中路一段４２２號","OBJECTID":328256},"geometry":{"x":168296.24999999907,"y":2548817.7000000011}},{"attributes":{"ID":328266,"DIS_CODE":0,"TOWNNAME":"安南區","LI":"頂安里","LIN":"17鄰","STREET":"安中路","SECT":"一段","MAREA":" ","LANE":" ","ALLEY":" ","HOUSE_NO":"４２４號","E_COORD97":168292.70000000001,"N_COORD97":2548820.4199999999,"ADDRESS":"安中路一段４２４號","OBJECTID":328257},"geometry":{"x":168292.70000000019,"y":2548820.4199999999}},{"attributes":{"ID":328267,"DIS_CODE":0,"TOWNNAME":"永康區","LI":"烏竹里","LIN":"5鄰","STREET":"烏竹街","SECT":" ","MAREA":" ","LANE":" ","ALLEY":" ","HOUSE_NO":"３６號","E_COORD97":174498.10000000001,"N_COORD97":2549295.7400000002,"ADDRESS":"烏竹街３６號","OBJECTID":328258},"geometry":{"x":174498.10000000149,"y":2549295.7400000021}},{"attributes":{"ID":328268,"DIS_CODE":0,"TOWNNAME":"永康區","LI":"\u25A0行里","LIN":"25鄰","STREET":"\u25A0和街","SECT":" ","MAREA":" ","LANE":"２７４巷","ALLEY":" ","HOUSE_NO":"１號","E_COORD97":171572.23999999999,"N_COORD97":2548448.9900000002,"ADDRESS":"\u25A0和街２７４巷１號","OBJECTID":328259},"geometry":{"x":171572.24000000115,"y":2548448.9900000039}},{"attributes":{"ID":328269,"DIS_CODE":0,"TOWNNAME":"永康區","LI":"崑山里","LIN":" ","STREET":"大灣路","SECT":" ","MAREA":" ","LANE":"８９１巷","ALLEY":" ","HOUSE_NO":"３３之１８號","E_COORD97":173652.06,"N_COORD97":2544249.8999999999,"ADDRESS":"大灣路８９１巷３３之１８號","OBJECTID":328260},"geometry":{"x":173652.05999999959,"y":2544249.9000000022}},{"attributes":{"ID":328270,"DIS_CODE":0,"TOWNNAME":"永康區","LI":"\u25A0行里","LIN":"38鄰","STREET":"仁愛街","SECT":" ","MAREA":" ","LANE":"１３８巷","ALLEY":" ","HOUSE_NO":"３４號","E_COORD97":172292.03,"N_COORD97":2549642.2799999998,"ADDRESS":"仁愛街１３８巷３４號","OBJECTID":328261},"geometry":{"x":172292.03000000212,"y":2549642.2799999993}},{"attributes":{"ID":328271,"DIS_CODE":0,"TOWNNAME":"永康區","LI":"\u25A0行里","LIN":"38鄰","STREET":"仁愛街","SECT":" ","MAREA":" ","LANE":"１３６巷","ALLEY":" ","HOUSE_NO":"５９號","E_COORD97":172303.62,"N_COORD97":2549611.27,"ADDRESS":"仁愛街１３６巷５９號","OBJECTID":328262},"geometry":{"x":172303.62000000104,"y":2549611.2699999996}},{"attributes":{"ID":328272,"DIS_CODE":0,"TOWNNAME":"安南區","LI":"安東里","LIN":"15鄰","STREET":"安通路","SECT":"三段","MAREA":" ","LANE":"１３０巷","ALLEY":" ","HOUSE_NO":"２３號","E_COORD97":169408.06,"N_COORD97":2547914.3900000001,"ADDRESS":"安通路三段１３０巷２３號","OBJECTID":328263},"geometry":{"x":169408.06000000052,"y":2547914.3900000043}},{"attributes":{"ID":328273,"DIS_CODE":0,"TOWNNAME":"安南區","LI":"安東里","LIN":"15鄰","STREET":"安通路","SECT":"三段","MAREA":" ","LANE":"１３０巷","ALLEY":" ","HOUSE_NO":"２５號","E_COORD97":169418.54000000001,"N_COORD97":2547920.8799999999,"ADDRESS":"安通路三段１３０巷２５號","OBJECTID":328264},"geometry":{"x":169418.54000000097,"y":2547920.8800000008}},{"attributes":{"ID":328274,"DIS_CODE":0,"TOWNNAME":"安南區","LI":"安慶里","LIN":"15鄰","STREET":"安中路","SECT":"一段","MAREA":" ","LANE":"１５８巷","ALLEY":" ","HOUSE_NO":"３號","E_COORD97":168844.42999999999,"N_COORD97":2548478.3300000001,"ADDRESS":"安中路一段１５８巷３號","OBJECTID":328265},"geometry":{"x":168844.43000000063,"y":2548478.3300000019}},{"attributes":{"ID":328275,"DIS_CODE":0,"TOWNNAME":"安南區","LI":"安慶里","LIN":"15鄰","STREET":"安中路","SECT":"一段","MAREA":" ","LANE":"１５８巷","ALLEY":" ","HOUSE_NO":"５號","E_COORD97":168848.63,"N_COORD97":2548499.5800000001,"ADDRESS":"安中路一段１５８巷５號","OBJECTID":328266},"geometry":{"x":168848.63000000082,"y":2548499.5800000019}},{"attributes":{"ID":328276,"DIS_CODE":0,"TOWNNAME":"安南區","LI":"安慶里","LIN":"15鄰","STREET":"安中路","SECT":"一段","MAREA":" ","LANE":"１８９巷","ALLEY":" ","HOUSE_NO":"１０號","E_COORD97":168757.97,"N_COORD97":2548442.79,"ADDRESS":"安中路一段１８９巷１０號","OBJECTID":328267},"geometry":{"x":168757.97000000067,"y":2548442.790000001}},{"attributes":{"ID":328277,"DIS_CODE":0,"TOWNNAME":"安南區","LI":"安慶里","LIN":"15鄰","STREET":"安中路","SECT":"一段","MAREA":" ","LANE":"１８９巷","ALLEY":" ","HOUSE_NO":"１１號","E_COORD97":168779.32000000001,"N_COORD97":2548424.54,"ADDRESS":"安中路一段１８９巷１１號","OBJECTID":328268},"geometry":{"x":168779.32000000216,"y":2548424.540000001}},{"attributes":{"ID":328278,"DIS_CODE":0,"TOWNNAME":"安南區","LI":"安慶里","LIN":"15鄰","STREET":"安中路","SECT":"一段","MAREA":" ","LANE":"１８９巷","ALLEY":" ","HOUSE_NO":"１２號","E_COORD97":168757.17999999999,"N_COORD97":2548438.4199999999,"ADDRESS":"安中路一段１８９巷１２號","OBJECTID":328269},"geometry":{"x":168757.1799999997,"y":2548438.4199999999}},{"attributes":{"ID":328279,"DIS_CODE":0,"TOWNNAME":"安南區","LI":"安慶里","LIN":"15鄰","STREET":"安中路","SECT":"一段","MAREA":" ","LANE":"１８９巷","ALLEY":" ","HOUSE_NO":"１３號","E_COORD97":168778.29999999999,"N_COORD97":2548420.1200000001,"ADDRESS":"安中路一段１８９巷１３號","OBJECTID":328270},"geometry":{"x":168778.29999999981,"y":2548420.1200000029}},{"attributes":{"ID":328280,"DIS_CODE":0,"TOWNNAME":"安南區","LI":"安慶里","LIN":"15鄰","STREET":"安中路","SECT":"一段","MAREA":" ","LANE":"１８９巷","ALLEY":" ","HOUSE_NO":"１５號","E_COORD97":168777.92000000001,"N_COORD97":2548415.0499999998,"ADDRESS":"安中路一段１８９巷１５號","OBJECTID":328271},"geometry":{"x":168777.91999999993,"y":2548415.0499999989}},{"attributes":{"ID":328281,"DIS_CODE":0,"TOWNNAME":"永康區","LI":"\u25A0行里","LIN":" ","STREET":"正南五街","SECT":" ","MAREA":" ","LANE":"７２巷","ALLEY":" ","HOUSE_NO":"１７號","E_COORD97":172147.95999999999,"N_COORD97":2547837.7400000002,"ADDRESS":"正南五街７２巷１７號","OBJECTID":328272},"geometry":{"x":172147.95999999903,"y":2547837.7400000021}},{"attributes":{"ID":328282,"DIS_CODE":0,"TOWNNAME":"安南區","LI":"安慶里","LIN":"15鄰","STREET":"安中路","SECT":"一段","MAREA":" ","LANE":"１８９巷","ALLEY":" ","HOUSE_NO":"２２號","E_COORD97":168754.25,"N_COORD97":2548415.9399999999,"ADDRESS":"安中路一段１８９巷２２號","OBJECTID":328273},"geometry":{"x":168754.25000000093,"y":2548415.9400000013}},{"attributes":{"ID":328283,"DIS_CODE":0,"TOWNNAME":"安南區","LI":"頂安里","LIN":"17鄰","STREET":"安中路","SECT":"一段","MAREA":" ","LANE":" ","ALLEY":" ","HOUSE_NO":"４２６號","E_COORD97":168288.88,"N_COORD97":2548822.8799999999,"ADDRESS":"安中路一段４２６號","OBJECTID":328274},"geometry":{"x":168288.88000000082,"y":2548822.8800000008}},{"attributes":{"ID":328284,"DIS_CODE":0,"TOWNNAME":"安南區","LI":"頂安里","LIN":"17鄰","STREET":"安中路","SECT":"一段","MAREA":" ","LANE":" ","ALLEY":" ","HOUSE_NO":"４２８號","E_COORD97":168285.06,"N_COORD97":2548825.6000000001,"ADDRESS":"安中路一段４２８號","OBJECTID":328275},"geometry":{"x":168285.05999999959,"y":2548825.6000000015}},{"attributes":{"ID":328285,"DIS_CODE":0,"TOWNNAME":"安南區","LI":"頂安里","LIN":"17鄰","STREET":"北安路","SECT":"三段","MAREA":" ","LANE":" ","ALLEY":" ","HOUSE_NO":"８號","E_COORD97":168286.42999999999,"N_COORD97":2548849.04,"ADDRESS":"北安路三段８號","OBJECTID":328276},"geometry":{"x":168286.43000000156,"y":2548849.040000001}},{"attributes":{"ID":328286,"DIS_CODE":0,"TOWNNAME":"新化區","LI":"太平里","LIN":"17鄰","STREET":"民權街","SECT":" ","MAREA":" ","LANE":" ","ALLEY":" ","HOUSE_NO":"９４號","E_COORD97":178744.35999999999,"N_COORD97":2548702.25,"ADDRESS":"民權街９４號","OBJECTID":328277},"geometry":{"x":178744.36000000034,"y":2548702.2500000019}},{"attributes":{"ID":328287,"DIS_CODE":0,"TOWNNAME":"新化區","LI":"太平里","LIN":"17鄰","STREET":"忠孝路","SECT":" ","MAREA":" ","LANE":" ","ALLEY":" ","HOUSE_NO":"１３４號","E_COORD97":178655.22,"N_COORD97":2548649.25,"ADDRESS":"忠孝路１３４號","OBJECTID":328278},"geometry":{"x":178655.21999999974,"y":2548649.25}},{"attributes":{"ID":328288,"DIS_CODE":0,"TOWNNAME":"新化區","LI":"太平里","LIN":"17鄰","STREET":"太平街","SECT":" ","MAREA":" ","LANE":" ","ALLEY":" ","HOUSE_NO":"８７號之１","E_COORD97":178685.97988599999,"N_COORD97":2548747.8486899999,"ADDRESS":"太平街８７號之１","OBJECTID":328279},"geometry":{"x":178685.97988599911,"y":2548747.8486920018}},{"attributes":{"ID":328289,"DIS_CODE":0,"TOWNNAME":"永康區","LI":"\u25A0行里","LIN":"41鄰","STREET":"永安路","SECT":" ","MAREA":" ","LANE":"１６５巷","ALLEY":" ","HOUSE_NO":"１５３號","E_COORD97":172414.95000000001,"N_COORD97":2549430.0699999998,"ADDRESS":"永安路１６５巷１５３號","OBJECTID":328280},"geometry":{"x":172414.95000000112,"y":2549430.0700000003}},{"attributes":{"ID":328290,"DIS_CODE":0,"TOWNNAME":"永康區","LI":"崑山里","LIN":" ","STREET":"永大路","SECT":"一段","MAREA":" ","LANE":"２８７巷","ALLEY":" ","HOUSE_NO":"５４號","E_COORD97":173899.92999999999,"N_COORD97":2544414.6499999999,"ADDRESS":"永大路一段２８７巷５４號","OBJECTID":328281},"geometry":{"x":173899.93000000063,"y":2544414.6500000022}},{"attributes":{"ID":328291,"DIS_CODE":0,"TOWNNAME":"永康區","LI":"\u25A0行里","LIN":"20鄰","STREET":"正南五街","SECT":" ","MAREA":" ","LANE":"２８９巷","ALLEY":" ","HOUSE_NO":"８３號","E_COORD97":171796.70999999999,"N_COORD97":2548345.3500000001,"ADDRESS":"正南五街２８９巷８３號","OBJECTID":328282},"geometry":{"x":171796.70999999996,"y":2548345.3500000015}},{"attributes":{"ID":328292,"DIS_CODE":0,"TOWNNAME":"永康區","LI":"\u25A0行里","LIN":"25鄰","STREET":"\u25A0和街","SECT":" ","MAREA":" ","LANE":"２５２巷","ALLEY":" ","HOUSE_NO":"１號","E_COORD97":171692.38,"N_COORD97":2548346.9900000002,"ADDRESS":"\u25A0和街２５２巷１號","OBJECTID":328283},"geometry":{"x":171692.37999999989,"y":2548346.9900000002}},{"attributes":{"ID":328293,"DIS_CODE":0,"TOWNNAME":"永康區","LI":"\u25A0行里","LIN":"4鄰","STREET":"新行街","SECT":" ","MAREA":" ","LANE":"４巷","ALLEY":" ","HOUSE_NO":"５號","E_COORD97":172241.26000000001,"N_COORD97":2548725.75,"ADDRESS":"新行街４巷５號","OBJECTID":328284},"geometry":{"x":172241.26000000071,"y":2548725.7500000019}},{"attributes":{"ID":328294,"DIS_CODE":0,"TOWNNAME":"大內區","LI":"環湖里","LIN":"10鄰","STREET":" ","SECT":" ","MAREA":"燒灰子","LANE":" ","ALLEY":" ","HOUSE_NO":"７號","E_COORD97":188913.656292,"N_COORD97":2562316.9058900001,"ADDRESS":"燒灰子７號","OBJECTID":328285},"geometry":{"x":188913.65629199985,"y":2562316.9058890026}},{"attributes":{"ID":328295,"DIS_CODE":0,"TOWNNAME":"永康區","LI":"\u25A0行里","LIN":"4鄰","STREET":"新行街","SECT":" ","MAREA":" ","LANE":"２０巷","ALLEY":" ","HOUSE_NO":"１號","E_COORD97":172243.17999999999,"N_COORD97":2548759.7400000002,"ADDRESS":"新行街２０巷１號","OBJECTID":328286},"geometry":{"x":172243.18000000063,"y":2548759.7400000021}},{"attributes":{"ID":328296,"DIS_CODE":0,"TOWNNAME":"永康區","LI":"\u25A0行里","LIN":"25鄰","STREET":"\u25A0和街","SECT":" ","MAREA":" ","LANE":" ","ALLEY":" ","HOUSE_NO":"２５５號","E_COORD97":171532.92999999999,"N_COORD97":2548417.8799999999,"ADDRESS":"\u25A0和街２５５號","OBJECTID":328287},"geometry":{"x":171532.93000000063,"y":2548417.8800000027}},{"attributes":{"ID":328297,"DIS_CODE":0,"TOWNNAME":"永康區","LI":"甲頂里","LIN":" ","STREET":"大武街","SECT":" ","MAREA":" ","LANE":"５９７巷","ALLEY":" ","HOUSE_NO":"４８號","E_COORD97":170243.42999999999,"N_COORD97":2546589.1000000001,"ADDRESS":"大武街５９７巷４８號","OBJECTID":328288},"geometry":{"x":170243.43000000063,"y":2546589.0999999996}},{"attributes":{"ID":328298,"DIS_CODE":0,"TOWNNAME":"永康區","LI":"\u25A0行里","LIN":"42鄰","STREET":"永安二街","SECT":" ","MAREA":" ","LANE":"２５巷","ALLEY":" ","HOUSE_NO":"３６號","E_COORD97":172426.95999999999,"N_COORD97":2549502.29,"ADDRESS":"永安二街２５巷３６號","OBJECTID":328289},"geometry":{"x":172426.95999999996,"y":2549502.2899999991}},{"attributes":{"ID":328299,"DIS_CODE":0,"TOWNNAME":"永康區","LI":"\u25A0行里","LIN":"25鄰","STREET":"\u25A0和街","SECT":" ","MAREA":" ","LANE":" ","ALLEY":" ","HOUSE_NO":"２７８號","E_COORD97":171531.16,"N_COORD97":2548445.2400000002,"ADDRESS":"\u25A0和街２７８號","OBJECTID":328290},"geometry":{"x":171531.16000000015,"y":2548445.2400000021}},{"attributes":{"ID":328300,"DIS_CODE":0,"TOWNNAME":"永康區","LI":"龍潭里","LIN":"42鄰","STREET":"永平街","SECT":" ","MAREA":" ","LANE":" ","ALLEY":" ","HOUSE_NO":"７６１之１８號","E_COORD97":174633.25,"N_COORD97":2547074.2999999998,"ADDRESS":"永平街７６１之１８號","OBJECTID":328291},"geometry":{"x":174633.25000000093,"y":2547074.3000000045}},{"attributes":{"ID":328301,"DIS_CODE":0,"TOWNNAME":"永康區","LI":"\u25A0行里","LIN":"42鄰","STREET":"永安二街","SECT":" ","MAREA":" ","LANE":" ","ALLEY":" ","HOUSE_NO":"１８號","E_COORD97":172447.85999999999,"N_COORD97":2549612.5600000001,"ADDRESS":"永安二街１８號","OBJECTID":328292},"geometry":{"x":172447.86000000127,"y":2549612.5600000024}},{"attributes":{"ID":328302,"DIS_CODE":0,"TOWNNAME":"永康區","LI":"蔦松里","LIN":"5鄰","STREET":"蔦松二街","SECT":" ","MAREA":" ","LANE":" ","ALLEY":" ","HOUSE_NO":"１０９號","E_COORD97":173774.32000000001,"N_COORD97":2549385.5499999998,"ADDRESS":"蔦松二街１０９號","OBJECTID":328293},"geometry":{"x":173774.3200000003,"y":2549385.5500000026}},{"attributes":{"ID":328303,"DIS_CODE":0,"TOWNNAME":"永康區","LI":"\u25A0行里","LIN":"25鄰","STREET":"\u25A0和街","SECT":" ","MAREA":" ","LANE":" ","ALLEY":" ","HOUSE_NO":"２５３號","E_COORD97":171525.41,"N_COORD97":2548426.2400000002,"ADDRESS":"\u25A0和街２５３號","OBJECTID":328294},"geometry":{"x":171525.41000000108,"y":2548426.2400000002}},{"attributes":{"ID":328304,"DIS_CODE":0,"TOWNNAME":"永康區","LI":"\u25A0洲里","LIN":"25鄰","STREET":"洲工街","SECT":" ","MAREA":" ","LANE":" ","ALLEY":" ","HOUSE_NO":"１６號","E_COORD97":170632.17000000001,"N_COORD97":2548112.6299999999,"ADDRESS":"洲工街１６號","OBJECTID":328295},"geometry":{"x":170632.16999999993,"y":2548112.6300000008}},{"attributes":{"ID":328305,"DIS_CODE":0,"TOWNNAME":"永康區","LI":"\u25A0洲里","LIN":"25鄰","STREET":"洲工街","SECT":" ","MAREA":" ","LANE":" ","ALLEY":" ","HOUSE_NO":"１５之１號","E_COORD97":170624.76999999999,"N_COORD97":2548086.5499999998,"ADDRESS":"洲工街１５之１號","OBJECTID":328296},"geometry":{"x":170624.76999999955,"y":2548086.5500000045}},{"attributes":{"ID":328306,"DIS_CODE":0,"TOWNNAME":"永康區","LI":"龍潭里","LIN":"39鄰","STREET":"國民路","SECT":" ","MAREA":" ","LANE":" ","ALLEY":" ","HOUSE_NO":"１０３號","E_COORD97":174387.45000000001,"N_COORD97":2547269.0600000001,"ADDRESS":"國民路１０３號","OBJECTID":328297},"geometry":{"x":174387.45000000019,"y":2547269.0600000042}},{"attributes":{"ID":328307,"DIS_CODE":0,"TOWNNAME":"永康區","LI":"\u25A0行里","LIN":"25鄰","STREET":"\u25A0和街","SECT":" ","MAREA":" ","LANE":" ","ALLEY":" ","HOUSE_NO":"２３７號","E_COORD97":171608.48999999999,"N_COORD97":2548334.9900000002,"ADDRESS":"\u25A0和街２３７號","OBJECTID":328298},"geometry":{"x":171608.49000000022,"y":2548334.9900000021}},{"attributes":{"ID":328308,"DIS_CODE":0,"TOWNNAME":"麻豆區","LI":"安正里","LIN":"1鄰","STREET":" ","SECT":" ","MAREA":"前班","LANE":" ","ALLEY":" ","HOUSE_NO":"１號之１","E_COORD97":171643.60000000001,"N_COORD97":2563371.0499999998,"ADDRESS":"前班１號之１","OBJECTID":328299},"geometry":{"x":171643.60000000056,"y":2563371.0500000026}},{"attributes":{"ID":328309,"DIS_CODE":0,"TOWNNAME":"永康區","LI":"\u25A0行里","LIN":"18鄰","STREET":"中正路","SECT":" ","MAREA":" ","LANE":"６３５巷","ALLEY":" ","HOUSE_NO":"４０號","E_COORD97":171643.35000000001,"N_COORD97":2548812.75,"ADDRESS":"中正路６３５巷４０號","OBJECTID":328300},"geometry":{"x":171643.35000000149,"y":2548812.75}},{"attributes":{"ID":328310,"DIS_CODE":0,"TOWNNAME":"永康區","LI":"\u25A0行里","LIN":"20鄰","STREET":"正南五街","SECT":" ","MAREA":" ","LANE":"２８９巷","ALLEY":" ","HOUSE_NO":"１１０號","E_COORD97":171825.67999999999,"N_COORD97":2548322.3500000001,"ADDRESS":"正南五街２８９巷１１０號","OBJECTID":328301},"geometry":{"x":171825.6799999997,"y":2548322.3499999996}},{"attributes":{"ID":328311,"DIS_CODE":0,"TOWNNAME":"永康區","LI":"\u25A0行里","LIN":"25鄰","STREET":"\u25A0和街","SECT":" ","MAREA":" ","LANE":"２４７巷","ALLEY":" ","HOUSE_NO":"４號","E_COORD97":171520.98000000001,"N_COORD97":2548374.46,"ADDRESS":"\u25A0和街２４７巷４號","OBJECTID":328302},"geometry":{"x":171520.98000000045,"y":2548374.4600000009}},{"attributes":{"ID":328312,"DIS_CODE":0,"TOWNNAME":"永康區","LI":"\u25A0行里","LIN":"42鄰","STREET":"永安二街","SECT":" ","MAREA":" ","LANE":"２５巷","ALLEY":" ","HOUSE_NO":"５號","E_COORD97":172464.98000000001,"N_COORD97":2549579.8100000001,"ADDRESS":"永安二街２５巷５號","OBJECTID":328303},"geometry":{"x":172464.98000000045,"y":2549579.8100000024}},{"attributes":{"ID":328313,"DIS_CODE":0,"TOWNNAME":"永康區","LI":"\u25A0行里","LIN":"32鄰","STREET":"三村一街","SECT":" ","MAREA":" ","LANE":"１３８巷","ALLEY":" ","HOUSE_NO":"７２號","E_COORD97":172100.04000000001,"N_COORD97":2549388.9900000002,"ADDRESS":"三村一街１３８巷７２號","OBJECTID":328304},"geometry":{"x":172100.03999999911,"y":2549388.9900000021}},{"attributes":{"ID":328314,"DIS_CODE":0,"TOWNNAME":"永康區","LI":"\u25A0行里","LIN":"42鄰","STREET":"永安二街","SECT":" ","MAREA":" ","LANE":"２５巷","ALLEY":" ","HOUSE_NO":"９號","E_COORD97":172454.97,"N_COORD97":2549579.5600000001,"ADDRESS":"永安二街２５巷９號","OBJECTID":328305},"geometry":{"x":172454.97000000067,"y":2549579.5600000005}},{"attributes":{"ID":328315,"DIS_CODE":0,"TOWNNAME":"永康區","LI":"\u25A0行里","LIN":"42鄰","STREET":"永安二街","SECT":" ","MAREA":" ","LANE":"２５巷","ALLEY":" ","HOUSE_NO":"６號","E_COORD97":172424.78,"N_COORD97":2549572.0600000001,"ADDRESS":"永安二街２５巷６號","OBJECTID":328306},"geometry":{"x":172424.78000000119,"y":2549572.0600000024}},{"attributes":{"ID":328316,"DIS_CODE":0,"TOWNNAME":"安南區","LI":"安慶里","LIN":"15鄰","STREET":"安中路","SECT":"一段","MAREA":" ","LANE":"１８９巷","ALLEY":" ","HOUSE_NO":"２３號","E_COORD97":168776.28,"N_COORD97":2548397.6600000001,"ADDRESS":"安中路一段１８９巷２３號","OBJECTID":328307},"geometry":{"x":168776.28000000212,"y":2548397.660000002}},{"attributes":{"ID":328317,"DIS_CODE":0,"TOWNNAME":"安南區","LI":"安慶里","LIN":"15鄰","STREET":"安中路","SECT":"一段","MAREA":" ","LANE":"１８９巷","ALLEY":" ","HOUSE_NO":"２５號","E_COORD97":168776.14999999999,"N_COORD97":2548392.8500000001,"ADDRESS":"安中路一段１８９巷２５號","OBJECTID":328308},"geometry":{"x":168776.1500000013,"y":2548392.8500000015}},{"attributes":{"ID":328318,"DIS_CODE":0,"TOWNNAME":"安南區","LI":"安慶里","LIN":"15鄰","STREET":"安中路","SECT":"一段","MAREA":" ","LANE":"１８９巷","ALLEY":" ","HOUSE_NO":"２７號","E_COORD97":168775.01000000001,"N_COORD97":2548388.7999999998,"ADDRESS":"安中路一段１８９巷２７號","OBJECTID":328309},"geometry":{"x":168775.00999999978,"y":2548388.8000000007}},{"attributes":{"ID":328319,"DIS_CODE":0,"TOWNNAME":"安南區","LI":"安慶里","LIN":"15鄰","STREET":"安中路","SECT":"一段","MAREA":" ","LANE":"１８９巷","ALLEY":" ","HOUSE_NO":"２號","E_COORD97":168759.82999999999,"N_COORD97":2548460.5299999998,"ADDRESS":"安中路一段１８９巷２號","OBJECTID":328310},"geometry":{"x":168759.83000000007,"y":2548460.5299999993}},{"attributes":{"ID":328320,"DIS_CODE":0,"TOWNNAME":"安南區","LI":"安慶里","LIN":"15鄰","STREET":"安中路","SECT":"一段","MAREA":" ","LANE":"１８９巷","ALLEY":" ","HOUSE_NO":"３０號","E_COORD97":168752.92000000001,"N_COORD97":2548398.0600000001,"ADDRESS":"安中路一段１８９巷３０號","OBJECTID":328311},"geometry":{"x":168752.92000000179,"y":2548398.0600000042}},{"attributes":{"ID":328321,"DIS_CODE":0,"TOWNNAME":"安南區","LI":"安慶里","LIN":"15鄰","STREET":"安中路","SECT":"一段","MAREA":" ","LANE":"１８９巷","ALLEY":" ","HOUSE_NO":"３４號","E_COORD97":168751.85999999999,"N_COORD97":2548389.0499999998,"ADDRESS":"安中路一段１８９巷３４號","OBJECTID":328312},"geometry":{"x":168751.8599999994,"y":2548389.0500000026}},{"attributes":{"ID":328322,"DIS_CODE":0,"TOWNNAME":"安南區","LI":"安慶里","LIN":"15鄰","STREET":"安中路","SECT":"一段","MAREA":" ","LANE":"１８９巷","ALLEY":" ","HOUSE_NO":"４號","E_COORD97":168758.76999999999,"N_COORD97":2548456.2999999998,"ADDRESS":"安中路一段１８９巷４號","OBJECTID":328313},"geometry":{"x":168758.77000000048,"y":2548456.3000000007}},{"attributes":{"ID":328323,"DIS_CODE":0,"TOWNNAME":"新化區","LI":"太平里","LIN":"17鄰","STREET":"太平街","SECT":" ","MAREA":" ","LANE":" ","ALLEY":" ","HOUSE_NO":"８１號","E_COORD97":178703.76999999999,"N_COORD97":2548750.25,"ADDRESS":"太平街８１號","OBJECTID":328314},"geometry":{"x":178703.76999999955,"y":2548750.2500000019}},{"attributes":{"ID":328324,"DIS_CODE":0,"TOWNNAME":"新化區","LI":"太平里","LIN":"17鄰","STREET":"太平街","SECT":" ","MAREA":" ","LANE":" ","ALLEY":" ","HOUSE_NO":"９５號之５","E_COORD97":178623.23000000001,"N_COORD97":2548734.2599999998,"ADDRESS":"太平街９５號之５","OBJECTID":328315},"geometry":{"x":178623.23000000045,"y":2548734.2599999998}},{"attributes":{"ID":328325,"DIS_CODE":0,"TOWNNAME":"新化區","LI":"太平里","LIN":"17鄰","STREET":"太平街","SECT":" ","MAREA":" ","LANE":" ","ALLEY":" ","HOUSE_NO":"８５號","E_COORD97":178694.76999999999,"N_COORD97":2548749.25,"ADDRESS":"太平街８５號","OBJECTID":328316},"geometry":{"x":178694.77000000048,"y":2548749.2500000019}},{"attributes":{"ID":328326,"DIS_CODE":0,"TOWNNAME":"新化區","LI":"太平里","LIN":"17鄰","STREET":"太平街","SECT":" ","MAREA":" ","LANE":" ","ALLEY":" ","HOUSE_NO":"９５號之２","E_COORD97":178635.42999999999,"N_COORD97":2548737.2599999998,"ADDRESS":"太平街９５號之２","OBJECTID":328317},"geometry":{"x":178635.43000000156,"y":2548737.2599999998}},{"attributes":{"ID":328327,"DIS_CODE":0,"TOWNNAME":"新化區","LI":"太平里","LIN":"17鄰","STREET":"太平街","SECT":" ","MAREA":" ","LANE":" ","ALLEY":" ","HOUSE_NO":"９５號之１","E_COORD97":178640.20000000001,"N_COORD97":2548738.2599999998,"ADDRESS":"太平街９５號之１","OBJECTID":328318},"geometry":{"x":178640.20000000019,"y":2548738.2600000035}},{"attributes":{"ID":328328,"DIS_CODE":0,"TOWNNAME":"歸仁區","LI":"後市里","LIN":"26鄰","STREET":"中山路","SECT":"二段","MAREA":" ","LANE":" ","ALLEY":" ","HOUSE_NO":"９６號","E_COORD97":177347.78,"N_COORD97":2540824.7400000002,"ADDRESS":"中山路二段９６號","OBJECTID":328319},"geometry":{"x":177347.78000000119,"y":2540824.7400000002}},{"attributes":{"ID":328329,"DIS_CODE":0,"TOWNNAME":"歸仁區","LI":"八甲里","LIN":"14鄰","STREET":"大明三街","SECT":" ","MAREA":" ","LANE":" ","ALLEY":" ","HOUSE_NO":"９號","E_COORD97":178115.57000000001,"N_COORD97":2541812.6099999999,"ADDRESS":"大明三街９號","OBJECTID":328320},"geometry":{"x":178115.57000000123,"y":2541812.6100000031}},{"attributes":{"ID":328330,"DIS_CODE":0,"TOWNNAME":"安南區","LI":"淵東里","LIN":"17鄰","STREET":"功安一街","SECT":" ","MAREA":" ","LANE":" ","ALLEY":" ","HOUSE_NO":"２５６號","E_COORD97":165799.32999999999,"N_COORD97":2550083.8799999999,"ADDRESS":"功安一街２５６號","OBJECTID":328321},"geometry":{"x":165799.33000000101,"y":2550083.8800000008}},{"attributes":{"ID":328331,"DIS_CODE":0,"TOWNNAME":"安南區","LI":"安慶里","LIN":"15鄰","STREET":"安中路","SECT":"一段","MAREA":" ","LANE":"１８９巷","ALLEY":" ","HOUSE_NO":"６號","E_COORD97":168757.84,"N_COORD97":2548452.2000000002,"ADDRESS":"安中路一段１８９巷６號","OBJECTID":328322},"geometry":{"x":168757.83999999985,"y":2548452.1999999993}},{"attributes":{"ID":328332,"DIS_CODE":0,"TOWNNAME":"安南區","LI":"安慶里","LIN":"15鄰","STREET":"安中路","SECT":"一段","MAREA":" ","LANE":"１８９巷","ALLEY":" ","HOUSE_NO":"７號","E_COORD97":168779.44,"N_COORD97":2548432.8999999999,"ADDRESS":"安中路一段１８９巷７號","OBJECTID":328323},"geometry":{"x":168779.44000000134,"y":2548432.9000000041}},{"attributes":{"ID":328333,"DIS_CODE":0,"TOWNNAME":"安南區","LI":"安慶里","LIN":"15鄰","STREET":"安中路","SECT":"一段","MAREA":" ","LANE":"１８９巷","ALLEY":" ","HOUSE_NO":"８號","E_COORD97":168758.23999999999,"N_COORD97":2548447.96,"ADDRESS":"安中路一段１８９巷８號","OBJECTID":328324},"geometry":{"x":168758.24000000115,"y":2548447.9600000028}},{"attributes":{"ID":328334,"DIS_CODE":0,"TOWNNAME":"安南區","LI":"安慶里","LIN":"15鄰","STREET":"安中路","SECT":"一段","MAREA":" ","LANE":"１８９巷","ALLEY":" ","HOUSE_NO":"９號","E_COORD97":168779.57000000001,"N_COORD97":2548428.7200000002,"ADDRESS":"安中路一段１８９巷９號","OBJECTID":328325},"geometry":{"x":168779.57000000123,"y":2548428.7200000025}},{"attributes":{"ID":328335,"DIS_CODE":0,"TOWNNAME":"安南區","LI":"安慶里","LIN":"15鄰","STREET":"安中路","SECT":"一段","MAREA":" ","LANE":"１８９巷","ALLEY":" ","HOUSE_NO":"５號","E_COORD97":168780.45999999999,"N_COORD97":2548437.71,"ADDRESS":"安中路一段１８９巷５號","OBJECTID":328326},"geometry":{"x":168780.46000000089,"y":2548437.7100000009}},{"attributes":{"ID":328336,"DIS_CODE":0,"TOWNNAME":"安南區","LI":"安慶里","LIN":"15鄰","STREET":"安中路","SECT":"一段","MAREA":" ","LANE":"１８９巷","ALLEY":" ","HOUSE_NO":"２４號","E_COORD97":168754.38,"N_COORD97":2548411.5699999998,"ADDRESS":"安中路一段１８９巷２４號","OBJECTID":328327},"geometry":{"x":168754.37999999989,"y":2548411.5700000022}},{"attributes":{"ID":328337,"DIS_CODE":0,"TOWNNAME":"官田區","LI":"官田里","LIN":"6鄰","STREET":" ","SECT":" ","MAREA":"官田","LANE":" ","ALLEY":" ","HOUSE_NO":"５０號之７","E_COORD97":182640.06,"N_COORD97":2565023.9199999999,"ADDRESS":"官田５０號之７","OBJECTID":328328},"geometry":{"x":182640.05999999959,"y":2565023.9199999999}},{"attributes":{"ID":328338,"DIS_CODE":0,"TOWNNAME":"中西區","LI":"萬昌里","LIN":"4鄰","STREET":"府前路","SECT":"一段","MAREA":" ","LANE":"９０巷","ALLEY":" ","HOUSE_NO":"１０號","E_COORD97":168888.62,"N_COORD97":2543316.9199999999,"ADDRESS":"府前路一段９０巷１０號","OBJECTID":328329},"geometry":{"x":168888.62000000011,"y":2543316.9200000018}},{"attributes":{"ID":328339,"DIS_CODE":0,"TOWNNAME":"中西區","LI":"仙草里","LIN":"4鄰","STREET":"府緯街","SECT":" ","MAREA":" ","LANE":"９巷","ALLEY":" ","HOUSE_NO":"３０號","E_COORD97":167821.32000000001,"N_COORD97":2542684.4500000002,"ADDRESS":"府緯街９巷３０號","OBJECTID":328330},"geometry":{"x":167821.3200000003,"y":2542684.4499999974}},{"attributes":{"ID":328340,"DIS_CODE":0,"TOWNNAME":"中西區","LI":"仙草里","LIN":"4鄰","STREET":"府緯街","SECT":" ","MAREA":" ","LANE":"９巷","ALLEY":" ","HOUSE_NO":"３２號","E_COORD97":167822.31,"N_COORD97":2542680.6899999999,"ADDRESS":"府緯街９巷３２號","OBJECTID":328331},"geometry":{"x":167822.30999999959,"y":2542680.6900000013}},{"attributes":{"ID":328341,"DIS_CODE":0,"TOWNNAME":"官田區","LI":"官田里","LIN":"9鄰","STREET":" ","SECT":" ","MAREA":"官田","LANE":" ","ALLEY":" ","HOUSE_NO":"８４號","E_COORD97":182375.23000000001,"N_COORD97":2565153.71,"ADDRESS":"官田８４號","OBJECTID":328332},"geometry":{"x":182375.23000000045,"y":2565153.7100000028}},{"attributes":{"ID":328342,"DIS_CODE":0,"TOWNNAME":"中西區","LI":"仙草里","LIN":"4鄰","STREET":"府緯街","SECT":" ","MAREA":" ","LANE":"９巷","ALLEY":" ","HOUSE_NO":"３４號","E_COORD97":167822.70999999999,"N_COORD97":2542677.52,"ADDRESS":"府緯街９巷３４號","OBJECTID":328333},"geometry":{"x":167822.71000000089,"y":2542677.5199999977}},{"attributes":{"ID":328343,"DIS_CODE":0,"TOWNNAME":"安南區","LI":"安西里","LIN":"15鄰","STREET":"安和路","SECT":"一段","MAREA":" ","LANE":"４５９巷","ALLEY":" ","HOUSE_NO":"１０號","E_COORD97":169337.25,"N_COORD97":2548501.9900000002,"ADDRESS":"安和路一段４５９巷１０號","OBJECTID":328334},"geometry":{"x":169337.25000000186,"y":2548501.9900000002}},{"attributes":{"ID":328344,"DIS_CODE":0,"TOWNNAME":"安南區","LI":"安西里","LIN":"15鄰","STREET":"安和路","SECT":"一段","MAREA":" ","LANE":"４５９巷","ALLEY":" ","HOUSE_NO":"１６號","E_COORD97":169305.42000000001,"N_COORD97":2548521.2200000002,"ADDRESS":"安和路一段４５９巷１６號","OBJECTID":328335},"geometry":{"x":169305.42000000179,"y":2548521.2200000007}},{"attributes":{"ID":328345,"DIS_CODE":0,"TOWNNAME":"安南區","LI":"安西里","LIN":"15鄰","STREET":"安和路","SECT":"一段","MAREA":" ","LANE":"４５９巷","ALLEY":" ","HOUSE_NO":"３２號","E_COORD97":169284.35999999999,"N_COORD97":2548523.6499999999,"ADDRESS":"安和路一段４５９巷３２號","OBJECTID":328336},"geometry":{"x":169284.3600000022,"y":2548523.6500000022}},{"attributes":{"ID":328346,"DIS_CODE":0,"TOWNNAME":"安南區","LI":"安西里","LIN":"15鄰","STREET":"安和路","SECT":"一段","MAREA":" ","LANE":"４５９巷","ALLEY":" ","HOUSE_NO":"３４號","E_COORD97":169278.16,"N_COORD97":2548523.0299999998,"ADDRESS":"安和路一段４５９巷３４號","OBJECTID":328337},"geometry":{"x":169278.16000000015,"y":2548523.0300000012}},{"attributes":{"ID":328347,"DIS_CODE":0,"TOWNNAME":"安南區","LI":"溪墘里","LIN":"15鄰","STREET":"海佃路","SECT":"一段","MAREA":" ","LANE":"３４０巷","ALLEY":" ","HOUSE_NO":"２０號","E_COORD97":167162.22,"N_COORD97":2547510.4399999999,"ADDRESS":"海佃路一段３４０巷２０號","OBJECTID":328338},"geometry":{"x":167162.2200000016,"y":2547510.4400000013}},{"attributes":{"ID":328348,"DIS_CODE":0,"TOWNNAME":"官田區","LI":"官田里","LIN":"10鄰","STREET":" ","SECT":" ","MAREA":"官田","LANE":" ","ALLEY":" ","HOUSE_NO":"９６號","E_COORD97":182368.88,"N_COORD97":2565076.79,"ADDRESS":"官田９６號","OBJECTID":328339},"geometry":{"x":182368.88000000175,"y":2565076.790000001}},{"attributes":{"ID":328349,"DIS_CODE":0,"TOWNNAME":"官田區","LI":"拔林里","LIN":"4鄰","STREET":" ","SECT":" ","MAREA":"拔子林","LANE":" ","ALLEY":" ","HOUSE_NO":"２４號之１","E_COORD97":180607.01000000001,"N_COORD97":2563606.2799999998,"ADDRESS":"拔子林２４號之１","OBJECTID":328340},"geometry":{"x":180607.01000000071,"y":2563606.2799999993}},{"attributes":{"ID":328350,"DIS_CODE":0,"TOWNNAME":"安南區","LI":"溪墘里","LIN":"15鄰","STREET":"海佃路","SECT":"一段","MAREA":" ","LANE":"３４０巷","ALLEY":" ","HOUSE_NO":"２２號","E_COORD97":167166.62,"N_COORD97":2547511.5800000001,"ADDRESS":"海佃路一段３４０巷２２號","OBJECTID":328341},"geometry":{"x":167166.62000000197,"y":2547511.5800000001}},{"attributes":{"ID":328351,"DIS_CODE":0,"TOWNNAME":"安南區","LI":"溪墘里","LIN":"15鄰","STREET":"海佃路","SECT":"一段","MAREA":" ","LANE":"３４０巷","ALLEY":" ","HOUSE_NO":"２４號","E_COORD97":167170.82000000001,"N_COORD97":2547512.4399999999,"ADDRESS":"海佃路一段３４０巷２４號","OBJECTID":328342},"geometry":{"x":167170.82000000123,"y":2547512.4399999995}},{"attributes":{"ID":328352,"DIS_CODE":0,"TOWNNAME":"安南區","LI":"溪墘里","LIN":"15鄰","STREET":"海佃路","SECT":"一段","MAREA":" ","LANE":"３４０巷","ALLEY":" ","HOUSE_NO":"２６號","E_COORD97":167175.10000000001,"N_COORD97":2547513.7799999998,"ADDRESS":"海佃路一段３４０巷２６號","OBJECTID":328343},"geometry":{"x":167175.10000000056,"y":2547513.7800000031}},{"attributes":{"ID":328353,"DIS_CODE":0,"TOWNNAME":"安南區","LI":"溪墘里","LIN":"15鄰","STREET":"海佃路","SECT":"一段","MAREA":" ","LANE":"３４０巷","ALLEY":" ","HOUSE_NO":"２８號","E_COORD97":167179.10999999999,"N_COORD97":2547515.02,"ADDRESS":"海佃路一段３４０巷２８號","OBJECTID":328344},"geometry":{"x":167179.11000000127,"y":2547515.0199999996}},{"attributes":{"ID":328354,"DIS_CODE":0,"TOWNNAME":"安南區","LI":"溪墘里","LIN":"15鄰","STREET":"海佃路","SECT":"一段","MAREA":" ","LANE":"３４０巷","ALLEY":" ","HOUSE_NO":"３０號","E_COORD97":167184.54999999999,"N_COORD97":2547515.7799999998,"ADDRESS":"海佃路一段３４０巷３０號","OBJECTID":328345},"geometry":{"x":167184.55000000075,"y":2547515.7799999993}},{"attributes":{"ID":328355,"DIS_CODE":0,"TOWNNAME":"安南區","LI":"淵東里","LIN":"17鄰","STREET":"功安一街","SECT":" ","MAREA":" ","LANE":" ","ALLEY":" ","HOUSE_NO":"２５８號","E_COORD97":165791.23000000001,"N_COORD97":2550085.3100000001,"ADDRESS":"功安一街２５８號","OBJECTID":328346},"geometry":{"x":165791.23000000045,"y":2550085.3100000024}},{"attributes":{"ID":328356,"DIS_CODE":0,"TOWNNAME":"安南區","LI":"淵東里","LIN":"17鄰","STREET":"功安一街","SECT":" ","MAREA":" ","LANE":" ","ALLEY":" ","HOUSE_NO":"２６０號","E_COORD97":165783.76999999999,"N_COORD97":2550088.6400000001,"ADDRESS":"功安一街２６０號","OBJECTID":328347},"geometry":{"x":165783.77000000048,"y":2550088.6400000006}},{"attributes":{"ID":328357,"DIS_CODE":0,"TOWNNAME":"安南區","LI":"淵東里","LIN":"17鄰","STREET":"功安一街","SECT":" ","MAREA":" ","LANE":" ","ALLEY":" ","HOUSE_NO":"２６２號","E_COORD97":165777.89999999999,"N_COORD97":2550090.8700000001,"ADDRESS":"功安一街２６２號","OBJECTID":328348},"geometry":{"x":165777.90000000037,"y":2550090.870000001}},{"attributes":{"ID":328358,"DIS_CODE":0,"TOWNNAME":"安南區","LI":"淵東里","LIN":"17鄰","STREET":"功安一街","SECT":" ","MAREA":" ","LANE":" ","ALLEY":" ","HOUSE_NO":"２６６號","E_COORD97":165771.70000000001,"N_COORD97":2550092.9300000002,"ADDRESS":"功安一街２６６號","OBJECTID":328349},"geometry":{"x":165771.70000000112,"y":2550092.9299999978}},{"attributes":{"ID":328359,"DIS_CODE":0,"TOWNNAME":"安南區","LI":"溪墘里","LIN":"15鄰","STREET":"海佃路","SECT":"一段","MAREA":" ","LANE":"３４０巷","ALLEY":" ","HOUSE_NO":"３２號","E_COORD97":167188.56,"N_COORD97":2547516.6400000001,"ADDRESS":"海佃路一段３４０巷３２號","OBJECTID":328350},"geometry":{"x":167188.56000000145,"y":2547516.6400000025}},{"attributes":{"ID":328360,"DIS_CODE":0,"TOWNNAME":"中西區","LI":"大南里","LIN":"1鄰","STREET":"南門路","SECT":" ","MAREA":" ","LANE":" ","ALLEY":" ","HOUSE_NO":"７０號","E_COORD97":168352.45000000001,"N_COORD97":2542510.98,"ADDRESS":"南門路７０號","OBJECTID":328351},"geometry":{"x":168352.45000000019,"y":2542510.9800000023}},{"attributes":{"ID":328361,"DIS_CODE":0,"TOWNNAME":"大內區","LI":"環湖里","LIN":"10鄰","STREET":" ","SECT":" ","MAREA":"燒灰子","LANE":" ","ALLEY":" ","HOUSE_NO":"９號","E_COORD97":188926.58110700001,"N_COORD97":2562314.36589,"ADDRESS":"燒灰子９號","OBJECTID":328352},"geometry":{"x":188926.58110699989,"y":2562314.3658900037}},{"attributes":{"ID":328362,"DIS_CODE":0,"TOWNNAME":"官田區","LI":"拔林里","LIN":"4鄰","STREET":" ","SECT":" ","MAREA":"拔子林","LANE":" ","ALLEY":" ","HOUSE_NO":"２８號之４","E_COORD97":180583.91,"N_COORD97":2563637.8300000001,"ADDRESS":"拔子林２８號之４","OBJECTID":328353},"geometry":{"x":180583.91000000201,"y":2563637.8300000001}},{"attributes":{"ID":328363,"DIS_CODE":0,"TOWNNAME":"官田區","LI":"拔林里","LIN":"4鄰","STREET":" ","SECT":" ","MAREA":"拔子林","LANE":" ","ALLEY":" ","HOUSE_NO":"２８號","E_COORD97":180570.29000000001,"N_COORD97":2563636.6200000001,"ADDRESS":"拔子林２８號","OBJECTID":328354},"geometry":{"x":180570.29000000004,"y":2563636.620000001}},{"attributes":{"ID":328364,"DIS_CODE":0,"TOWNNAME":"安南區","LI":"溪墘里","LIN":"15鄰","STREET":"海佃路","SECT":"一段","MAREA":" ","LANE":"３４０巷","ALLEY":" ","HOUSE_NO":"３４號","E_COORD97":167193.14000000001,"N_COORD97":2547517.5899999999,"ADDRESS":"海佃路一段３４０巷３４號","OBJECTID":328355},"geometry":{"x":167193.14000000153,"y":2547517.5899999999}},{"attributes":{"ID":328365,"DIS_CODE":0,"TOWNNAME":"安南區","LI":"溪墘里","LIN":"15鄰","STREET":"海佃路","SECT":"一段","MAREA":" ","LANE":"３４０巷","ALLEY":" ","HOUSE_NO":"３６號","E_COORD97":167196.85999999999,"N_COORD97":2547518.9300000002,"ADDRESS":"海佃路一段３４０巷３６號","OBJECTID":328356},"geometry":{"x":167196.86000000034,"y":2547518.9299999997}},{"attributes":{"ID":328366,"DIS_CODE":0,"TOWNNAME":"官田區","LI":"社子里","LIN":"4鄰","STREET":" ","SECT":" ","MAREA":"社子","LANE":" ","ALLEY":" ","HOUSE_NO":"２３號之２７","E_COORD97":185800.84,"N_COORD97":2564259.0899999999,"ADDRESS":"社子２３號之２７","OBJECTID":328357},"geometry":{"x":185800.84000000078,"y":2564259.0899999999}},{"attributes":{"ID":328367,"DIS_CODE":0,"TOWNNAME":"官田區","LI":"社子里","LIN":"4鄰","STREET":" ","SECT":" ","MAREA":"社子","LANE":" ","ALLEY":" ","HOUSE_NO":"２３號之４","E_COORD97":185195.14000000001,"N_COORD97":2564648.8199999998,"ADDRESS":"社子２３號之４","OBJECTID":328358},"geometry":{"x":185195.1400000006,"y":2564648.8200000003}},{"attributes":{"ID":328368,"DIS_CODE":0,"TOWNNAME":"官田區","LI":"社子里","LIN":"4鄰","STREET":" ","SECT":" ","MAREA":"社子","LANE":" ","ALLEY":" ","HOUSE_NO":"２３號之５","E_COORD97":185124.20000000001,"N_COORD97":2564586.3900000001,"ADDRESS":"社子２３號之５","OBJECTID":328359},"geometry":{"x":185124.20000000112,"y":2564586.3900000025}},{"attributes":{"ID":328369,"DIS_CODE":0,"TOWNNAME":"官田區","LI":"社子里","LIN":"4鄰","STREET":" ","SECT":" ","MAREA":"社子","LANE":" ","ALLEY":" ","HOUSE_NO":"２３號之９","E_COORD97":185007.97,"N_COORD97":2564570.21,"ADDRESS":"社子２３號之９","OBJECTID":328360},"geometry":{"x":185007.97000000067,"y":2564570.2100000028}},{"attributes":{"ID":328370,"DIS_CODE":0,"TOWNNAME":"官田區","LI":"社子里","LIN":"4鄰","STREET":" ","SECT":" ","MAREA":"社子","LANE":" ","ALLEY":" ","HOUSE_NO":"２３號","E_COORD97":184897.01999999999,"N_COORD97":2564521.3900000001,"ADDRESS":"社子２３號","OBJECTID":328361},"geometry":{"x":184897.02000000048,"y":2564521.3900000025}},{"attributes":{"ID":328371,"DIS_CODE":0,"TOWNNAME":"官田區","LI":"社子里","LIN":"4鄰","STREET":" ","SECT":" ","MAREA":"社子","LANE":" ","ALLEY":" ","HOUSE_NO":"２５號","E_COORD97":184872.10000000001,"N_COORD97":2564538.5499999998,"ADDRESS":"社子２５號","OBJECTID":328362},"geometry":{"x":184872.09999999963,"y":2564538.5500000007}},{"attributes":{"ID":328372,"DIS_CODE":0,"TOWNNAME":"官田區","LI":"社子里","LIN":"4鄰","STREET":" ","SECT":" ","MAREA":"社子","LANE":" ","ALLEY":" ","HOUSE_NO":"２８號","E_COORD97":184812.72,"N_COORD97":2564501.9700000002,"ADDRESS":"社子２８號","OBJECTID":328363},"geometry":{"x":184812.72000000067,"y":2564501.9700000007}},{"attributes":{"ID":328373,"DIS_CODE":0,"TOWNNAME":"官田區","LI":"社子里","LIN":"4鄰","STREET":" ","SECT":" ","MAREA":"社子","LANE":" ","ALLEY":" ","HOUSE_NO":"２９號之１","E_COORD97":184860.03,"N_COORD97":2564505.7000000002,"ADDRESS":"社子２９號之１","OBJECTID":328364},"geometry":{"x":184860.02999999933,"y":2564505.6999999993}},{"attributes":{"ID":328374,"DIS_CODE":0,"TOWNNAME":"官田區","LI":"社子里","LIN":"4鄰","STREET":" ","SECT":" ","MAREA":"社子","LANE":" ","ALLEY":" ","HOUSE_NO":"２９號","E_COORD97":184852.07000000001,"N_COORD97":2564524.7999999998,"ADDRESS":"社子２９號","OBJECTID":328365},"geometry":{"x":184852.07000000123,"y":2564524.8000000045}},{"attributes":{"ID":328375,"DIS_CODE":0,"TOWNNAME":"官田區","LI":"社子里","LIN":"6鄰","STREET":" ","SECT":" ","MAREA":"社子","LANE":" ","ALLEY":" ","HOUSE_NO":"３９號之１","E_COORD97":184723.29999999999,"N_COORD97":2564436.4100000001,"ADDRESS":"社子３９號之１","OBJECTID":328366},"geometry":{"x":184723.29999999981,"y":2564436.410000002}},{"attributes":{"ID":328376,"DIS_CODE":0,"TOWNNAME":"安南區","LI":"溪墘里","LIN":"15鄰","STREET":"海佃路","SECT":"一段","MAREA":" ","LANE":"３４０巷","ALLEY":" ","HOUSE_NO":"４８號","E_COORD97":167223.98000000001,"N_COORD97":2547525.0299999998,"ADDRESS":"海佃路一段３４０巷４８號","OBJECTID":328367},"geometry":{"x":167223.98000000231,"y":2547525.0299999993}},{"attributes":{"ID":328377,"DIS_CODE":0,"TOWNNAME":"麻豆區","LI":"安正里","LIN":"1鄰","STREET":" ","SECT":" ","MAREA":"前班","LANE":" ","ALLEY":" ","HOUSE_NO":"１號","E_COORD97":171598.20999999999,"N_COORD97":2563385.0600000001,"ADDRESS":"前班１號","OBJECTID":328368},"geometry":{"x":171598.20999999996,"y":2563385.0600000024}},{"attributes":{"ID":328378,"DIS_CODE":0,"TOWNNAME":"官田區","LI":"社子里","LIN":"6鄰","STREET":" ","SECT":" ","MAREA":"社子","LANE":" ","ALLEY":" ","HOUSE_NO":"３９號之２","E_COORD97":184696.22,"N_COORD97":2564452.8900000001,"ADDRESS":"社子３９號之２","OBJECTID":328369},"geometry":{"x":184696.22000000067,"y":2564452.8900000043}},{"attributes":{"ID":328379,"DIS_CODE":0,"TOWNNAME":"官田區","LI":"社子里","LIN":"6鄰","STREET":" ","SECT":" ","MAREA":"社子","LANE":" ","ALLEY":" ","HOUSE_NO":"３９號之３","E_COORD97":184714.89999999999,"N_COORD97":2564422.23,"ADDRESS":"社子３９號之３","OBJECTID":328370},"geometry":{"x":184714.90000000037,"y":2564422.2300000004}},{"attributes":{"ID":328380,"DIS_CODE":0,"TOWNNAME":"官田區","LI":"社子里","LIN":"6鄰","STREET":" ","SECT":" ","MAREA":"社子","LANE":" ","ALLEY":" ","HOUSE_NO":"３９號之４","E_COORD97":184723.54999999999,"N_COORD97":2564401.6000000001,"ADDRESS":"社子３９號之４","OBJECTID":328371},"geometry":{"x":184723.54999999981,"y":2564401.5999999996}},{"attributes":{"ID":328381,"DIS_CODE":0,"TOWNNAME":"安南區","LI":"溪墘里","LIN":"15鄰","STREET":"海佃路","SECT":"一段","MAREA":" ","LANE":"３４０巷","ALLEY":" ","HOUSE_NO":"５０號","E_COORD97":167226.84,"N_COORD97":2547528.4700000002,"ADDRESS":"海佃路一段３４０巷５０號","OBJECTID":328372},"geometry":{"x":167226.83999999985,"y":2547528.4700000025}},{"attributes":{"ID":328382,"DIS_CODE":0,"TOWNNAME":"新化區","LI":"全興里","LIN":"20鄰","STREET":" ","SECT":" ","MAREA":"竹子\u25A0","LANE":" ","ALLEY":" ","HOUSE_NO":"２４７號之３３０","E_COORD97":178483.97,"N_COORD97":2546672.2599999998,"ADDRESS":"竹子\u25A0２４７號之３３０","OBJECTID":328373},"geometry":{"x":178483.96999999974,"y":2546672.2599999998}},{"attributes":{"ID":328383,"DIS_CODE":0,"TOWNNAME":"新化區","LI":"崙頂里","LIN":"4鄰","STREET":" ","SECT":" ","MAREA":"崙子頂","LANE":" ","ALLEY":" ","HOUSE_NO":"１９８號之２","E_COORD97":176688.25,"N_COORD97":2546816.52,"ADDRESS":"崙子頂１９８號之２","OBJECTID":328374},"geometry":{"x":176688.25000000093,"y":2546816.5199999996}},{"attributes":{"ID":328384,"DIS_CODE":0,"TOWNNAME":"新化區","LI":"知義里","LIN":"13鄰","STREET":" ","SECT":" ","MAREA":"口埤","LANE":" ","ALLEY":" ","HOUSE_NO":"７０號","E_COORD97":183766.51000000001,"N_COORD97":2546927.6699999999,"ADDRESS":"口埤７０號","OBJECTID":328375},"geometry":{"x":183766.51000000071,"y":2546927.6699999999}},{"attributes":{"ID":328385,"DIS_CODE":0,"TOWNNAME":"新化區","LI":"知義里","LIN":"13鄰","STREET":" ","SECT":" ","MAREA":"口埤","LANE":" ","ALLEY":" ","HOUSE_NO":"７６號","E_COORD97":183698.89999999999,"N_COORD97":2547086.9100000001,"ADDRESS":"口埤７６號","OBJECTID":328376},"geometry":{"x":183698.9000000013,"y":2547086.910000002}},{"attributes":{"ID":328386,"DIS_CODE":0,"TOWNNAME":"新化區","LI":"知義里","LIN":"7鄰","STREET":" ","SECT":" ","MAREA":"新和庄","LANE":" ","ALLEY":" ","HOUSE_NO":"１１１號之１","E_COORD97":182407.54999999999,"N_COORD97":2545991.6000000001,"ADDRESS":"新和庄１１１號之１","OBJECTID":328377},"geometry":{"x":182407.54999999981,"y":2545991.5999999996}},{"attributes":{"ID":328387,"DIS_CODE":0,"TOWNNAME":"新化區","LI":"礁坑里","LIN":"13鄰","STREET":" ","SECT":" ","MAREA":"礁坑子","LANE":" ","ALLEY":" ","HOUSE_NO":"２９號之２","E_COORD97":183264.91,"N_COORD97":2547984.5499999998,"ADDRESS":"礁坑子２９號之２","OBJECTID":328378},"geometry":{"x":183264.91000000015,"y":2547984.5500000045}},{"attributes":{"ID":328388,"DIS_CODE":0,"TOWNNAME":"安南區","LI":"溪墘里","LIN":"15鄰","STREET":"海佃路","SECT":"一段","MAREA":" ","LANE":"３４０巷","ALLEY":" ","HOUSE_NO":"５２號","E_COORD97":167231.45999999999,"N_COORD97":2547527.1000000001,"ADDRESS":"海佃路一段３４０巷５２號","OBJECTID":328379},"geometry":{"x":167231.45999999996,"y":2547527.1000000015}},{"attributes":{"ID":328389,"DIS_CODE":0,"TOWNNAME":"安南區","LI":"溪墘里","LIN":"15鄰","STREET":"海佃路","SECT":"一段","MAREA":" ","LANE":"３４０巷","ALLEY":" ","HOUSE_NO":"５４號","E_COORD97":167236.53,"N_COORD97":2547527.73,"ADDRESS":"海佃路一段３４０巷５４號","OBJECTID":328380},"geometry":{"x":167236.53000000026,"y":2547527.7300000004}},{"attributes":{"ID":328390,"DIS_CODE":0,"TOWNNAME":"安南區","LI":"溪墘里","LIN":"15鄰","STREET":"海佃路","SECT":"一段","MAREA":" ","LANE":"３４０巷","ALLEY":" ","HOUSE_NO":"５６號","E_COORD97":167240.73999999999,"N_COORD97":2547528.2599999998,"ADDRESS":"海佃路一段３４０巷５６號","OBJECTID":328381},"geometry":{"x":167240.74000000115,"y":2547528.2600000016}},{"attributes":{"ID":328391,"DIS_CODE":0,"TOWNNAME":"安南區","LI":"溪墘里","LIN":"15鄰","STREET":"海佃路","SECT":"一段","MAREA":" ","LANE":"３４０巷","ALLEY":" ","HOUSE_NO":"５８號","E_COORD97":167245.38,"N_COORD97":2547528.5699999998,"ADDRESS":"海佃路一段３４０巷５８號","OBJECTID":328382},"geometry":{"x":167245.37999999989,"y":2547528.5700000003}},{"attributes":{"ID":328392,"DIS_CODE":0,"TOWNNAME":"安南區","LI":"溪墘里","LIN":"15鄰","STREET":"海佃路","SECT":"一段","MAREA":" ","LANE":"３４０巷","ALLEY":" ","HOUSE_NO":"６４號","E_COORD97":167259.41,"N_COORD97":2547531.52,"ADDRESS":"海佃路一段３４０巷６４號","OBJECTID":328383},"geometry":{"x":167259.41000000015,"y":2547531.5199999996}},{"attributes":{"ID":328393,"DIS_CODE":0,"TOWNNAME":"安南區","LI":"溪墘里","LIN":"15鄰","STREET":"海佃路","SECT":"一段","MAREA":" ","LANE":"３４０巷","ALLEY":" ","HOUSE_NO":"６８號","E_COORD97":167267.63,"N_COORD97":2547534.4700000002,"ADDRESS":"海佃路一段３４０巷６８號","OBJECTID":328384},"geometry":{"x":167267.62999999989,"y":2547534.4700000044}},{"attributes":{"ID":328394,"DIS_CODE":0,"TOWNNAME":"安南區","LI":"溪墘里","LIN":"15鄰","STREET":"海佃路","SECT":"一段","MAREA":" ","LANE":"３４０巷","ALLEY":" ","HOUSE_NO":"６號","E_COORD97":167132.14999999999,"N_COORD97":2547503.2799999998,"ADDRESS":"海佃路一段３４０巷６號","OBJECTID":328385},"geometry":{"x":167132.15000000037,"y":2547503.2799999993}},{"attributes":{"ID":328395,"DIS_CODE":0,"TOWNNAME":"安南區","LI":"溪墘里","LIN":"15鄰","STREET":"海佃路","SECT":"一段","MAREA":" ","LANE":"３４０巷","ALLEY":" ","HOUSE_NO":"７０號","E_COORD97":167272.59,"N_COORD97":2547534.8900000001,"ADDRESS":"海佃路一段３４０巷７０號","OBJECTID":328386},"geometry":{"x":167272.58999999985,"y":2547534.8900000043}},{"attributes":{"ID":328396,"DIS_CODE":0,"TOWNNAME":"安南區","LI":"溪墘里","LIN":"15鄰","STREET":"海佃路","SECT":"一段","MAREA":" ","LANE":"３４０巷","ALLEY":" ","HOUSE_NO":"７２號","E_COORD97":167276.79999999999,"N_COORD97":2547535.6299999999,"ADDRESS":"海佃路一段３４０巷７２號","OBJECTID":328387},"geometry":{"x":167276.79999999981,"y":2547535.6300000008}},{"attributes":{"ID":328397,"DIS_CODE":0,"TOWNNAME":"安南區","LI":"城南里","LIN":"6鄰","STREET":"城西街","SECT":"一段","MAREA":" ","LANE":"１８１巷","ALLEY":" ","HOUSE_NO":"２７號","E_COORD97":160555.62,"N_COORD97":2551197.1800000002,"ADDRESS":"城西街一段１８１巷２７號","OBJECTID":328388},"geometry":{"x":160555.62000000104,"y":2551197.1800000016}},{"attributes":{"ID":328398,"DIS_CODE":0,"TOWNNAME":"安南區","LI":"城南里","LIN":"6鄰","STREET":"城西街","SECT":"一段","MAREA":" ","LANE":"１８１巷","ALLEY":" ","HOUSE_NO":"２９號","E_COORD97":160555.62,"N_COORD97":2551193.71,"ADDRESS":"城西街一段１８１巷２９號","OBJECTID":328389},"geometry":{"x":160555.62000000104,"y":2551193.7100000009}},{"attributes":{"ID":328399,"DIS_CODE":0,"TOWNNAME":"安南區","LI":"城南里","LIN":"6鄰","STREET":"城西街","SECT":"一段","MAREA":" ","LANE":"１８１巷","ALLEY":" ","HOUSE_NO":"３１號","E_COORD97":160556.85999999999,"N_COORD97":2551188.7400000002,"ADDRESS":"城西街一段１８１巷３１號","OBJECTID":328390},"geometry":{"x":160556.86000000034,"y":2551188.7400000002}},{"attributes":{"ID":328400,"DIS_CODE":0,"TOWNNAME":"安南區","LI":"城南里","LIN":"6鄰","STREET":"城西街","SECT":"一段","MAREA":" ","LANE":"１８１巷","ALLEY":" ","HOUSE_NO":"３７號","E_COORD97":160538.70999999999,"N_COORD97":2551171.3300000001,"ADDRESS":"城西街一段１８１巷３７號","OBJECTID":328391},"geometry":{"x":160538.70999999996,"y":2551171.3300000001}},{"attributes":{"ID":328401,"DIS_CODE":0,"TOWNNAME":"安南區","LI":"溪墘里","LIN":"15鄰","STREET":"海佃路","SECT":"一段","MAREA":" ","LANE":"３４０巷","ALLEY":" ","HOUSE_NO":"７４號","E_COORD97":167280.81,"N_COORD97":2547537.4199999999,"ADDRESS":"海佃路一段３４０巷７４號","OBJECTID":328392},"geometry":{"x":167280.81000000052,"y":2547537.4200000018}},{"attributes":{"ID":328402,"DIS_CODE":0,"TOWNNAME":"北區","LI":"振興里","LIN":"15鄰","STREET":"長榮路","SECT":"四段","MAREA":" ","LANE":"１０２巷","ALLEY":" ","HOUSE_NO":"１６號","E_COORD97":170337.53,"N_COORD97":2545114.8399999999,"ADDRESS":"長榮路四段１０２巷１６號","OBJECTID":328393},"geometry":{"x":170337.53000000212,"y":2545114.8400000017}},{"attributes":{"ID":328403,"DIS_CODE":0,"TOWNNAME":"北區","LI":"振興里","LIN":"15鄰","STREET":"長榮路","SECT":"四段","MAREA":" ","LANE":"１０２巷","ALLEY":" ","HOUSE_NO":"１８號","E_COORD97":170340.79999999999,"N_COORD97":2545116.7999999998,"ADDRESS":"長榮路四段１０２巷１８號","OBJECTID":328394},"geometry":{"x":170340.80000000075,"y":2545116.8000000007}},{"attributes":{"ID":328404,"DIS_CODE":0,"TOWNNAME":"北區","LI":"振興里","LIN":"15鄰","STREET":"長榮路","SECT":"四段","MAREA":" ","LANE":"１０２巷","ALLEY":" ","HOUSE_NO":"２０號","E_COORD97":170344.07000000001,"N_COORD97":2545118.98,"ADDRESS":"長榮路四段１０２巷２０號","OBJECTID":328395},"geometry":{"x":170344.07000000216,"y":2545118.9800000004}},{"attributes":{"ID":328405,"DIS_CODE":0,"TOWNNAME":"北區","LI":"振興里","LIN":"15鄰","STREET":"長榮路","SECT":"四段","MAREA":" ","LANE":"１０２巷","ALLEY":" ","HOUSE_NO":"２２號","E_COORD97":170347.23000000001,"N_COORD97":2545121.71,"ADDRESS":"長榮路四段１０２巷２２號","OBJECTID":328396},"geometry":{"x":170347.23000000138,"y":2545121.7100000009}},{"attributes":{"ID":328406,"DIS_CODE":0,"TOWNNAME":"北區","LI":"振興里","LIN":"15鄰","STREET":"長榮路","SECT":"四段","MAREA":" ","LANE":"１０２巷","ALLEY":" ","HOUSE_NO":"２４號","E_COORD97":170350.51000000001,"N_COORD97":2545124.21,"ADDRESS":"長榮路四段１０２巷２４號","OBJECTID":328397},"geometry":{"x":170350.50999999885,"y":2545124.2100000009}},{"attributes":{"ID":328407,"DIS_CODE":0,"TOWNNAME":"北區","LI":"振興里","LIN":"15鄰","STREET":"長榮路","SECT":"四段","MAREA":" ","LANE":"１０２巷","ALLEY":" ","HOUSE_NO":"２號","E_COORD97":170312.98000000001,"N_COORD97":2545100.7799999998,"ADDRESS":"長榮路四段１０２巷２號","OBJECTID":328398},"geometry":{"x":170312.98000000138,"y":2545100.7800000012}},{"attributes":{"ID":328408,"DIS_CODE":0,"TOWNNAME":"北區","LI":"振興里","LIN":"15鄰","STREET":"長榮路","SECT":"四段","MAREA":" ","LANE":"１０２巷","ALLEY":" ","HOUSE_NO":"４號","E_COORD97":170316.79999999999,"N_COORD97":2545102.3100000001,"ADDRESS":"長榮路四段１０２巷４號","OBJECTID":328399},"geometry":{"x":170316.80000000075,"y":2545102.3100000024}},{"attributes":{"ID":328409,"DIS_CODE":0,"TOWNNAME":"北區","LI":"振興里","LIN":"15鄰","STREET":"長榮路","SECT":"四段","MAREA":" ","LANE":"１０２巷","ALLEY":" ","HOUSE_NO":"６號","E_COORD97":170320.07000000001,"N_COORD97":2545104.71,"ADDRESS":"長榮路四段１０２巷６號","OBJECTID":328400},"geometry":{"x":170320.0700000003,"y":2545104.7100000009}}]}