{"displayFieldName":"TOWNNAME","fieldAliases":{"ID":"ID","DIS_CODE":"DIS_CODE","TOWNNAME":"TOWNNAME","LI":"LI","LIN":"LIN","STREET":"STREET","SECT":"SECT","MAREA":"MAREA","LANE":"LANE","ALLEY":"ALLEY","HOUSE_NO":"HOUSE_NO","E_COORD97":"E_COORD97","N_COORD97":"N_COORD97","ADDRESS":"ADDRESS","OBJECTID":"OBJECTID"},"geometryType":"esriGeometryPoint","spatialReference":{"wkid":102443,"latestWkid":3826},"fields":[{"name":"ID","type":"esriFieldTypeDouble","alias":"ID"},{"name":"DIS_CODE","type":"esriFieldTypeInteger","alias":"DIS_CODE"},{"name":"TOWNNAME","type":"esriFieldTypeString","alias":"TOWNNAME","length":8},{"name":"LI","type":"esriFieldTypeString","alias":"LI","length":8},{"name":"LIN","type":"esriFieldTypeString","alias":"LIN","length":12},{"name":"STREET","type":"esriFieldTypeString","alias":"STREET","length":20},{"name":"SECT","type":"esriFieldTypeString","alias":"SECT","length":8},{"name":"MAREA","type":"esriFieldTypeString","alias":"MAREA","length":12},{"name":"LANE","type":"esriFieldTypeString","alias":"LANE","length":10},{"name":"ALLEY","type":"esriFieldTypeString","alias":"ALLEY","length":10},{"name":"HOUSE_NO","type":"esriFieldTypeString","alias":"HOUSE_NO","length":20},{"name":"E_COORD97","type":"esriFieldTypeDouble","alias":"E_COORD97"},{"name":"N_COORD97","type":"esriFieldTypeDouble","alias":"N_COORD97"},{"name":"ADDRESS","type":"esriFieldTypeString","alias":"ADDRESS","length":50},{"name":"OBJECTID","type":"esriFieldTypeOID","alias":"OBJECTID"}],"features":[{"attributes":{"ID":18601,"DIS_CODE":0,"TOWNNAME":"佳里區","LI":"龍安里","LIN":"14鄰","STREET":" ","SECT":" ","MAREA":"塭子內","LANE":" ","ALLEY":" ","HOUSE_NO":"１２５號之２","E_COORD97":164160.19,"N_COORD97":2557573.5499999998,"ADDRESS":"塭子內１２５號之２","OBJECTID":18601},"geometry":{"x":164160.19000000041,"y":2557573.5500000026}},{"attributes":{"ID":18602,"DIS_CODE":0,"TOWNNAME":"永康區","LI":"龍潭里","LIN":"34鄰","STREET":"龍埔街","SECT":" ","MAREA":" ","LANE":"１７５巷","ALLEY":"１弄","HOUSE_NO":"１６號","E_COORD97":174496.35000000001,"N_COORD97":2548193.8700000001,"ADDRESS":"龍埔街１７５巷１弄１６號","OBJECTID":18602},"geometry":{"x":174496.35000000149,"y":2548193.8700000029}},{"attributes":{"ID":18603,"DIS_CODE":0,"TOWNNAME":"永康區","LI":"龍潭里","LIN":"34鄰","STREET":"龍埔街","SECT":" ","MAREA":" ","LANE":"１７５巷","ALLEY":"１弄","HOUSE_NO":"１號","E_COORD97":174469.39999999999,"N_COORD97":2548208.7400000002,"ADDRESS":"龍埔街１７５巷１弄１號","OBJECTID":18603},"geometry":{"x":174469.40000000037,"y":2548208.7400000002}},{"attributes":{"ID":18604,"DIS_CODE":0,"TOWNNAME":"永康區","LI":"五王里","LIN":"24鄰","STREET":"成功路","SECT":" ","MAREA":" ","LANE":" ","ALLEY":" ","HOUSE_NO":"２５８號七樓之８","E_COORD97":171313.88,"N_COORD97":2545846.04,"ADDRESS":"成功路２５８號七樓之８","OBJECTID":18604},"geometry":{"x":171313.87999999989,"y":2545846.0399999991}},{"attributes":{"ID":18605,"DIS_CODE":0,"TOWNNAME":"永康區","LI":"五王里","LIN":"24鄰","STREET":"成功路","SECT":" ","MAREA":" ","LANE":" ","ALLEY":" ","HOUSE_NO":"２５８號六樓之１３","E_COORD97":171315.07999999999,"N_COORD97":2545846.04,"ADDRESS":"成功路２５８號六樓之１３","OBJECTID":18605},"geometry":{"x":171315.08000000194,"y":2545846.0399999991}},{"attributes":{"ID":18606,"DIS_CODE":0,"TOWNNAME":"佳里區","LI":"龍安里","LIN":"14鄰","STREET":" ","SECT":" ","MAREA":"塭子內","LANE":" ","ALLEY":" ","HOUSE_NO":"１２５號之３０","E_COORD97":164140.76999999999,"N_COORD97":2557540.2200000002,"ADDRESS":"塭子內１２５號之３０","OBJECTID":18606},"geometry":{"x":164140.76999999862,"y":2557540.2200000007}},{"attributes":{"ID":18607,"DIS_CODE":0,"TOWNNAME":"佳里區","LI":"龍安里","LIN":"14鄰","STREET":" ","SECT":" ","MAREA":"塭子內","LANE":" ","ALLEY":" ","HOUSE_NO":"１２５號之３１","E_COORD97":164141.13,"N_COORD97":2557535.9199999999,"ADDRESS":"塭子內１２５號之３１","OBJECTID":18607},"geometry":{"x":164141.13000000082,"y":2557535.9200000018}},{"attributes":{"ID":18608,"DIS_CODE":0,"TOWNNAME":"佳里區","LI":"龍安里","LIN":"14鄰","STREET":" ","SECT":" ","MAREA":"塭子內","LANE":" ","ALLEY":" ","HOUSE_NO":"１２５號之３２","E_COORD97":164141.57999999999,"N_COORD97":2557531.6000000001,"ADDRESS":"塭子內１２５號之３２","OBJECTID":18608},"geometry":{"x":164141.58000000101,"y":2557531.6000000015}},{"attributes":{"ID":18609,"DIS_CODE":0,"TOWNNAME":"佳里區","LI":"龍安里","LIN":"14鄰","STREET":" ","SECT":" ","MAREA":"塭子內","LANE":" ","ALLEY":" ","HOUSE_NO":"１２５號之３３","E_COORD97":164140.89999999999,"N_COORD97":2557527.6499999999,"ADDRESS":"塭子內１２５號之３３","OBJECTID":18609},"geometry":{"x":164140.90000000224,"y":2557527.6500000041}},{"attributes":{"ID":18610,"DIS_CODE":0,"TOWNNAME":"永康區","LI":"龍潭里","LIN":"34鄰","STREET":"龍埔街","SECT":" ","MAREA":" ","LANE":"１７５巷","ALLEY":"１弄","HOUSE_NO":"６號","E_COORD97":174474.89999999999,"N_COORD97":2548196.3700000001,"ADDRESS":"龍埔街１７５巷１弄６號","OBJECTID":18610},"geometry":{"x":174474.9000000013,"y":2548196.3700000048}},{"attributes":{"ID":18611,"DIS_CODE":0,"TOWNNAME":"佳里區","LI":"龍安里","LIN":"14鄰","STREET":" ","SECT":" ","MAREA":"塭子內","LANE":" ","ALLEY":" ","HOUSE_NO":"１２５號之３４","E_COORD97":164141.64000000001,"N_COORD97":2557522.8599999999,"ADDRESS":"塭子內１２５號之３４","OBJECTID":18611},"geometry":{"x":164141.63999999966,"y":2557522.8600000013}},{"attributes":{"ID":18612,"DIS_CODE":0,"TOWNNAME":"永康區","LI":"北灣里","LIN":"34鄰","STREET":"大灣路","SECT":" ","MAREA":" ","LANE":"４０巷","ALLEY":"１６弄","HOUSE_NO":"２０號","E_COORD97":175264.28,"N_COORD97":2546006.54,"ADDRESS":"大灣路４０巷１６弄２０號","OBJECTID":18612},"geometry":{"x":175264.28000000119,"y":2546006.5400000028}},{"attributes":{"ID":18613,"DIS_CODE":0,"TOWNNAME":"佳里區","LI":"龍安里","LIN":"14鄰","STREET":" ","SECT":" ","MAREA":"塭子內","LANE":" ","ALLEY":" ","HOUSE_NO":"１２５號之３５","E_COORD97":164142.22,"N_COORD97":2557518.5600000001,"ADDRESS":"塭子內１２５號之３５","OBJECTID":18613},"geometry":{"x":164142.22000000067,"y":2557518.5600000024}},{"attributes":{"ID":18614,"DIS_CODE":0,"TOWNNAME":"佳里區","LI":"龍安里","LIN":"14鄰","STREET":" ","SECT":" ","MAREA":"塭子內","LANE":" ","ALLEY":" ","HOUSE_NO":"１２５號之３６","E_COORD97":164142,"N_COORD97":2557513.54,"ADDRESS":"塭子內１２５號之３６","OBJECTID":18614},"geometry":{"x":164142.00000000093,"y":2557513.5400000028}},{"attributes":{"ID":18615,"DIS_CODE":0,"TOWNNAME":"佳里區","LI":"龍安里","LIN":"14鄰","STREET":" ","SECT":" ","MAREA":"塭子內","LANE":" ","ALLEY":" ","HOUSE_NO":"１２５號之３７","E_COORD97":164142,"N_COORD97":2557509.3399999999,"ADDRESS":"塭子內１２５號之３７","OBJECTID":18615},"geometry":{"x":164142.00000000093,"y":2557509.3400000017}},{"attributes":{"ID":18616,"DIS_CODE":0,"TOWNNAME":"永康區","LI":"北灣里","LIN":"34鄰","STREET":"大灣路","SECT":" ","MAREA":" ","LANE":"４０巷","ALLEY":"１６弄","HOUSE_NO":"２４號","E_COORD97":175270.82999999999,"N_COORD97":2546014.04,"ADDRESS":"大灣路４０巷１６弄２４號","OBJECTID":18616},"geometry":{"x":175270.83000000007,"y":2546014.040000001}},{"attributes":{"ID":18617,"DIS_CODE":0,"TOWNNAME":"永康區","LI":"北灣里","LIN":"34鄰","STREET":"大灣路","SECT":" ","MAREA":" ","LANE":"４０巷","ALLEY":"１４弄","HOUSE_NO":"７號","E_COORD97":175256.13,"N_COORD97":2545968.1099999999,"ADDRESS":"大灣路４０巷１４弄７號","OBJECTID":18617},"geometry":{"x":175256.13000000082,"y":2545968.1099999994}},{"attributes":{"ID":18618,"DIS_CODE":0,"TOWNNAME":"東區","LI":"崇文里","LIN":"34鄰","STREET":"生產路","SECT":" ","MAREA":" ","LANE":"３４１巷","ALLEY":"１１弄","HOUSE_NO":"１２號","E_COORD97":171108.95999999999,"N_COORD97":2540732.8300000001,"ADDRESS":"生產路３４１巷１１弄１２號","OBJECTID":18618},"geometry":{"x":171108.96000000183,"y":2540732.8300000001}},{"attributes":{"ID":18619,"DIS_CODE":0,"TOWNNAME":"永康區","LI":"\u25A0洲里","LIN":"34鄰","STREET":"洲尾街","SECT":" ","MAREA":" ","LANE":"１９１巷","ALLEY":"６弄","HOUSE_NO":"７號","E_COORD97":170820.64999999999,"N_COORD97":2549013.3999999999,"ADDRESS":"洲尾街１９１巷６弄７號","OBJECTID":18619},"geometry":{"x":170820.6500000013,"y":2549013.4000000022}},{"attributes":{"ID":18620,"DIS_CODE":0,"TOWNNAME":"永康區","LI":"龍潭里","LIN":"34鄰","STREET":"龍埔街","SECT":" ","MAREA":" ","LANE":"１７５巷","ALLEY":"３弄","HOUSE_NO":"５號","E_COORD97":174469.32999999999,"N_COORD97":2548155.75,"ADDRESS":"龍埔街１７５巷３弄５號","OBJECTID":18620},"geometry":{"x":174469.33000000007,"y":2548155.7500000019}},{"attributes":{"ID":18621,"DIS_CODE":0,"TOWNNAME":"永康區","LI":"\u25A0洲里","LIN":"34鄰","STREET":"洲尾街","SECT":" ","MAREA":" ","LANE":"１９１巷","ALLEY":"６弄","HOUSE_NO":"２號","E_COORD97":170833.79999999999,"N_COORD97":2548995.0699999998,"ADDRESS":"洲尾街１９１巷６弄２號","OBJECTID":18621},"geometry":{"x":170833.80000000075,"y":2548995.0700000022}},{"attributes":{"ID":18622,"DIS_CODE":0,"TOWNNAME":"永康區","LI":"復華里","LIN":"34鄰","STREET":"復國一路","SECT":" ","MAREA":" ","LANE":"４７５巷","ALLEY":"６０弄","HOUSE_NO":"６號","E_COORD97":172512.45999999999,"N_COORD97":2546004.8399999999,"ADDRESS":"復國一路４７５巷６０弄６號","OBJECTID":18622},"geometry":{"x":172512.45999999903,"y":2546004.8399999999}},{"attributes":{"ID":18623,"DIS_CODE":0,"TOWNNAME":"佳里區","LI":"龍安里","LIN":"14鄰","STREET":" ","SECT":" ","MAREA":"塭子內","LANE":" ","ALLEY":" ","HOUSE_NO":"１２５號之３８","E_COORD97":164142.57000000001,"N_COORD97":2557505.6899999999,"ADDRESS":"塭子內１２５號之３８","OBJECTID":18623},"geometry":{"x":164142.5700000003,"y":2557505.6899999976}},{"attributes":{"ID":18624,"DIS_CODE":0,"TOWNNAME":"佳里區","LI":"龍安里","LIN":"14鄰","STREET":" ","SECT":" ","MAREA":"塭子內","LANE":" ","ALLEY":" ","HOUSE_NO":"１２５號之３９","E_COORD97":164142.14000000001,"N_COORD97":2557500.5899999999,"ADDRESS":"塭子內１２５號之３９","OBJECTID":18624},"geometry":{"x":164142.1400000006,"y":2557500.5900000017}},{"attributes":{"ID":18625,"DIS_CODE":0,"TOWNNAME":"佳里區","LI":"龍安里","LIN":"14鄰","STREET":" ","SECT":" ","MAREA":"塭子內","LANE":" ","ALLEY":" ","HOUSE_NO":"１２５號之３","E_COORD97":164149.23999999999,"N_COORD97":2557572.8599999999,"ADDRESS":"塭子內１２５號之３","OBJECTID":18625},"geometry":{"x":164149.24000000115,"y":2557572.8600000013}},{"attributes":{"ID":18626,"DIS_CODE":0,"TOWNNAME":"永康區","LI":"\u25A0洲里","LIN":"34鄰","STREET":"洲尾街","SECT":" ","MAREA":" ","LANE":"１９１巷","ALLEY":"１１弄","HOUSE_NO":"９號","E_COORD97":170828.79999999999,"N_COORD97":2548966.4700000002,"ADDRESS":"洲尾街１９１巷１１弄９號","OBJECTID":18626},"geometry":{"x":170828.80000000075,"y":2548966.4700000025}},{"attributes":{"ID":18627,"DIS_CODE":0,"TOWNNAME":"永康區","LI":"五王里","LIN":"24鄰","STREET":"成功路","SECT":" ","MAREA":" ","LANE":" ","ALLEY":" ","HOUSE_NO":"２５８號六樓之９","E_COORD97":171313.82000000001,"N_COORD97":2545846.04,"ADDRESS":"成功路２５８號六樓之９","OBJECTID":18627},"geometry":{"x":171313.82000000123,"y":2545846.0399999991}},{"attributes":{"ID":18628,"DIS_CODE":0,"TOWNNAME":"永康區","LI":"五王里","LIN":"24鄰","STREET":"成功路","SECT":" ","MAREA":" ","LANE":" ","ALLEY":" ","HOUSE_NO":"２５８號三樓之７","E_COORD97":171313.81,"N_COORD97":2545846.04,"ADDRESS":"成功路２５８號三樓之７","OBJECTID":18628},"geometry":{"x":171313.81000000052,"y":2545846.0399999991}},{"attributes":{"ID":18629,"DIS_CODE":0,"TOWNNAME":"永康區","LI":"西灣里","LIN":"24鄰","STREET":"國光八街","SECT":" ","MAREA":" ","LANE":" ","ALLEY":" ","HOUSE_NO":"７號五樓","E_COORD97":174424.04000000001,"N_COORD97":2545749,"ADDRESS":"國光八街７號五樓","OBJECTID":18629},"geometry":{"x":174424.04000000004,"y":2545749}},{"attributes":{"ID":18630,"DIS_CODE":0,"TOWNNAME":"佳里區","LI":"龍安里","LIN":"14鄰","STREET":" ","SECT":" ","MAREA":"塭子內","LANE":" ","ALLEY":" ","HOUSE_NO":"１２５號之４","E_COORD97":164144.17999999999,"N_COORD97":2557572.6499999999,"ADDRESS":"塭子內１２５號之４","OBJECTID":18630},"geometry":{"x":164144.1799999997,"y":2557572.6500000022}},{"attributes":{"ID":18631,"DIS_CODE":0,"TOWNNAME":"東山區","LI":"青山里","LIN":"16鄰","STREET":" ","SECT":" ","MAREA":"青山","LANE":" ","ALLEY":" ","HOUSE_NO":"４６號之２","E_COORD97":195553.82000000001,"N_COORD97":2575249.8799999999,"ADDRESS":"青山４６號之２","OBJECTID":18631},"geometry":{"x":195553.82000000123,"y":2575249.8800000008}},{"attributes":{"ID":18632,"DIS_CODE":0,"TOWNNAME":"永康區","LI":"五王里","LIN":"24鄰","STREET":"成功路","SECT":" ","MAREA":" ","LANE":" ","ALLEY":" ","HOUSE_NO":"２５８號五樓之１７","E_COORD97":171315.06,"N_COORD97":2545846.04,"ADDRESS":"成功路２５８號五樓之１７","OBJECTID":18632},"geometry":{"x":171315.06000000052,"y":2545846.0399999991}},{"attributes":{"ID":18633,"DIS_CODE":0,"TOWNNAME":"永康區","LI":"五王里","LIN":"24鄰","STREET":"成功路","SECT":" ","MAREA":" ","LANE":" ","ALLEY":" ","HOUSE_NO":"２５８號四樓之９","E_COORD97":171313.82000000001,"N_COORD97":2545846.04,"ADDRESS":"成功路２５８號四樓之９","OBJECTID":18633},"geometry":{"x":171313.82000000123,"y":2545846.0399999991}},{"attributes":{"ID":18634,"DIS_CODE":0,"TOWNNAME":"永康區","LI":"西勢里","LIN":"24鄰","STREET":"廣興街","SECT":" ","MAREA":" ","LANE":" ","ALLEY":" ","HOUSE_NO":"４０號四樓","E_COORD97":175939.48999999999,"N_COORD97":2546571.6299999999,"ADDRESS":"廣興街４０號四樓","OBJECTID":18634},"geometry":{"x":175939.49000000022,"y":2546571.6299999971}},{"attributes":{"ID":18635,"DIS_CODE":0,"TOWNNAME":"東區","LI":"大福里","LIN":"24鄰","STREET":"中華東路","SECT":"三段","MAREA":" ","LANE":" ","ALLEY":" ","HOUSE_NO":"５２４號五樓之７","E_COORD97":169690.23000000001,"N_COORD97":2541533.2999999998,"ADDRESS":"中華東路三段５２４號五樓之７","OBJECTID":18635},"geometry":{"x":169690.23000000045,"y":2541533.3000000007}},{"attributes":{"ID":18636,"DIS_CODE":0,"TOWNNAME":"東區","LI":"大福里","LIN":"24鄰","STREET":"中華東路","SECT":"三段","MAREA":" ","LANE":" ","ALLEY":" ","HOUSE_NO":"５２４號四樓之９","E_COORD97":169690.23000000001,"N_COORD97":2541533.2999999998,"ADDRESS":"中華東路三段５２４號四樓之９","OBJECTID":18636},"geometry":{"x":169690.23000000045,"y":2541533.3000000007}},{"attributes":{"ID":18637,"DIS_CODE":0,"TOWNNAME":"東區","LI":"大福里","LIN":"24鄰","STREET":"中華東路","SECT":"三段","MAREA":" ","LANE":" ","ALLEY":" ","HOUSE_NO":"５２４號四樓之５","E_COORD97":169690.23000000001,"N_COORD97":2541533.2999999998,"ADDRESS":"中華東路三段５２４號四樓之５","OBJECTID":18637},"geometry":{"x":169690.23000000045,"y":2541533.3000000007}},{"attributes":{"ID":18638,"DIS_CODE":0,"TOWNNAME":"佳里區","LI":"龍安里","LIN":"14鄰","STREET":" ","SECT":" ","MAREA":"塭子內","LANE":" ","ALLEY":" ","HOUSE_NO":"１２５號之５","E_COORD97":164139.67999999999,"N_COORD97":2557572.5699999998,"ADDRESS":"塭子內１２５號之５","OBJECTID":18638},"geometry":{"x":164139.6799999997,"y":2557572.5700000022}},{"attributes":{"ID":18639,"DIS_CODE":0,"TOWNNAME":"佳里區","LI":"龍安里","LIN":"14鄰","STREET":" ","SECT":" ","MAREA":"塭子內","LANE":" ","ALLEY":" ","HOUSE_NO":"１２５號之６","E_COORD97":164135.01999999999,"N_COORD97":2557572.23,"ADDRESS":"塭子內１２５號之６","OBJECTID":18639},"geometry":{"x":164135.01999999955,"y":2557572.2300000023}},{"attributes":{"ID":18640,"DIS_CODE":0,"TOWNNAME":"佳里區","LI":"龍安里","LIN":"14鄰","STREET":" ","SECT":" ","MAREA":"塭子內","LANE":" ","ALLEY":" ","HOUSE_NO":"１２５號之７","E_COORD97":164160.79999999999,"N_COORD97":2557556.2400000002,"ADDRESS":"塭子內１２５號之７","OBJECTID":18640},"geometry":{"x":164160.79999999981,"y":2557556.2400000002}},{"attributes":{"ID":18641,"DIS_CODE":0,"TOWNNAME":"佳里區","LI":"龍安里","LIN":"14鄰","STREET":" ","SECT":" ","MAREA":"塭子內","LANE":" ","ALLEY":" ","HOUSE_NO":"１２５號之８","E_COORD97":164160.76999999999,"N_COORD97":2557550.2799999998,"ADDRESS":"塭子內１２５號之８","OBJECTID":18641},"geometry":{"x":164160.76999999955,"y":2557550.2800000012}},{"attributes":{"ID":18642,"DIS_CODE":0,"TOWNNAME":"佳里區","LI":"龍安里","LIN":"14鄰","STREET":" ","SECT":" ","MAREA":"塭子內","LANE":" ","ALLEY":" ","HOUSE_NO":"１２５號之９","E_COORD97":164161.39000000001,"N_COORD97":2557544.9300000002,"ADDRESS":"塭子內１２５號之９","OBJECTID":18642},"geometry":{"x":164161.38999999966,"y":2557544.9299999997}},{"attributes":{"ID":18643,"DIS_CODE":0,"TOWNNAME":"佳里區","LI":"龍安里","LIN":"14鄰","STREET":" ","SECT":" ","MAREA":"塭子內","LANE":" ","ALLEY":" ","HOUSE_NO":"１３０號","E_COORD97":164077.16,"N_COORD97":2557553.9500000002,"ADDRESS":"塭子內１３０號","OBJECTID":18643},"geometry":{"x":164077.16000000015,"y":2557553.9499999993}},{"attributes":{"ID":18644,"DIS_CODE":0,"TOWNNAME":"佳里區","LI":"龍安里","LIN":"14鄰","STREET":" ","SECT":" ","MAREA":"塭子內","LANE":" ","ALLEY":" ","HOUSE_NO":"１３２號","E_COORD97":164086.28,"N_COORD97":2557538.5600000001,"ADDRESS":"塭子內１３２號","OBJECTID":18644},"geometry":{"x":164086.28000000119,"y":2557538.5600000042}},{"attributes":{"ID":18645,"DIS_CODE":0,"TOWNNAME":"佳里區","LI":"民安里","LIN":"14鄰","STREET":" ","SECT":" ","MAREA":"新宅","LANE":" ","ALLEY":" ","HOUSE_NO":"２７號之１","E_COORD97":167599.45000000001,"N_COORD97":2564698.1499999999,"ADDRESS":"新宅２７號之１","OBJECTID":18645},"geometry":{"x":167599.45000000019,"y":2564698.1500000041}},{"attributes":{"ID":18646,"DIS_CODE":0,"TOWNNAME":"佳里區","LI":"民安里","LIN":"14鄰","STREET":" ","SECT":" ","MAREA":"新宅","LANE":" ","ALLEY":" ","HOUSE_NO":"２７號","E_COORD97":167577.79000000001,"N_COORD97":2564689.6499999999,"ADDRESS":"新宅２７號","OBJECTID":18646},"geometry":{"x":167577.79000000097,"y":2564689.6500000022}},{"attributes":{"ID":18647,"DIS_CODE":0,"TOWNNAME":"永康區","LI":"\u25A0行里","LIN":"34鄰","STREET":"中正北路","SECT":" ","MAREA":" ","LANE":"１７７巷","ALLEY":"２０弄","HOUSE_NO":"５號","E_COORD97":172372.98000000001,"N_COORD97":2549243.2200000002,"ADDRESS":"中正北路１７７巷２０弄５號","OBJECTID":18647},"geometry":{"x":172372.98000000138,"y":2549243.2200000007}},{"attributes":{"ID":18648,"DIS_CODE":0,"TOWNNAME":"歸仁區","LI":"六甲里","LIN":"34鄰","STREET":"六甲六街","SECT":" ","MAREA":" ","LANE":"１１巷","ALLEY":"１弄","HOUSE_NO":"１號","E_COORD97":175596.68801300001,"N_COORD97":2539300.5774699999,"ADDRESS":"六甲六街１１巷１弄１號","OBJECTID":18648},"geometry":{"x":175596.68801300135,"y":2539300.5774650015}},{"attributes":{"ID":18649,"DIS_CODE":0,"TOWNNAME":"永康區","LI":"二王里","LIN":"47鄰","STREET":"南工街","SECT":" ","MAREA":" ","LANE":"２２６巷","ALLEY":"１弄","HOUSE_NO":"１號","E_COORD97":171980.28,"N_COORD97":2546024.9300000002,"ADDRESS":"南工街２２６巷１弄１號","OBJECTID":18649},"geometry":{"x":171980.28000000119,"y":2546024.9300000034}},{"attributes":{"ID":18650,"DIS_CODE":0,"TOWNNAME":"永康區","LI":"二王里","LIN":"47鄰","STREET":"南工街","SECT":" ","MAREA":" ","LANE":"２２６巷","ALLEY":"１弄","HOUSE_NO":"１２號","E_COORD97":171933.42999999999,"N_COORD97":2546041.6899999999,"ADDRESS":"南工街２２６巷１弄１２號","OBJECTID":18650},"geometry":{"x":171933.43000000063,"y":2546041.6899999995}},{"attributes":{"ID":18651,"DIS_CODE":0,"TOWNNAME":"官田區","LI":"官田里","LIN":"14鄰","STREET":" ","SECT":" ","MAREA":"官田","LANE":" ","ALLEY":" ","HOUSE_NO":"１５１號","E_COORD97":182501.75,"N_COORD97":2564999.4100000001,"ADDRESS":"官田１５１號","OBJECTID":18651},"geometry":{"x":182501.75,"y":2564999.410000002}},{"attributes":{"ID":18652,"DIS_CODE":0,"TOWNNAME":"永康區","LI":"二王里","LIN":"47鄰","STREET":"南工街","SECT":" ","MAREA":" ","LANE":"２２６巷","ALLEY":"６弄","HOUSE_NO":"５號","E_COORD97":172010.92000000001,"N_COORD97":2546012.1499999999,"ADDRESS":"南工街２２６巷６弄５號","OBJECTID":18652},"geometry":{"x":172010.91999999899,"y":2546012.1500000004}},{"attributes":{"ID":18653,"DIS_CODE":0,"TOWNNAME":"永康區","LI":"二王里","LIN":"47鄰","STREET":"南工街","SECT":" ","MAREA":" ","LANE":"２２６巷","ALLEY":"８弄","HOUSE_NO":"１１號","E_COORD97":172032.56,"N_COORD97":2546039.5,"ADDRESS":"南工街２２６巷８弄１１號","OBJECTID":18653},"geometry":{"x":172032.56000000052,"y":2546039.5000000019}},{"attributes":{"ID":18654,"DIS_CODE":0,"TOWNNAME":"永康區","LI":"二王里","LIN":"47鄰","STREET":"南工街","SECT":" ","MAREA":" ","LANE":"２２６巷","ALLEY":"３弄","HOUSE_NO":"３號","E_COORD97":171962.85999999999,"N_COORD97":2545991.5499999998,"ADDRESS":"南工街２２６巷３弄３號","OBJECTID":18654},"geometry":{"x":171962.86000000127,"y":2545991.5500000026}},{"attributes":{"ID":18655,"DIS_CODE":0,"TOWNNAME":"永康區","LI":"二王里","LIN":"47鄰","STREET":"南工街","SECT":" ","MAREA":" ","LANE":"２２６巷","ALLEY":"８弄","HOUSE_NO":"１３號","E_COORD97":172036.73000000001,"N_COORD97":2546038.75,"ADDRESS":"南工街２２６巷８弄１３號","OBJECTID":18655},"geometry":{"x":172036.73000000138,"y":2546038.75}},{"attributes":{"ID":18656,"DIS_CODE":0,"TOWNNAME":"永康區","LI":"二王里","LIN":"47鄰","STREET":"南工街","SECT":" ","MAREA":" ","LANE":"２２６巷","ALLEY":"３弄","HOUSE_NO":"２號","E_COORD97":171977.70000000001,"N_COORD97":2545998.98,"ADDRESS":"南工街２２６巷３弄２號","OBJECTID":18656},"geometry":{"x":171977.70000000112,"y":2545998.9800000023}},{"attributes":{"ID":18657,"DIS_CODE":0,"TOWNNAME":"永康區","LI":"二王里","LIN":"47鄰","STREET":"南工街","SECT":" ","MAREA":" ","LANE":"２２６巷","ALLEY":"３弄","HOUSE_NO":"５號","E_COORD97":171954.23000000001,"N_COORD97":2545992.7999999998,"ADDRESS":"南工街２２６巷３弄５號","OBJECTID":18657},"geometry":{"x":171954.23000000138,"y":2545992.8000000045}},{"attributes":{"ID":18658,"DIS_CODE":0,"TOWNNAME":"永康區","LI":"二王里","LIN":"47鄰","STREET":"南工街","SECT":" ","MAREA":" ","LANE":"２２６巷","ALLEY":"６弄","HOUSE_NO":"１６號","E_COORD97":172038.76000000001,"N_COORD97":2546019.5,"ADDRESS":"南工街２２６巷６弄１６號","OBJECTID":18658},"geometry":{"x":172038.75999999978,"y":2546019.5}},{"attributes":{"ID":18659,"DIS_CODE":0,"TOWNNAME":"永康區","LI":"二王里","LIN":"47鄰","STREET":"南工街","SECT":" ","MAREA":" ","LANE":"２２６巷","ALLEY":"６弄","HOUSE_NO":"６號","E_COORD97":172008.28,"N_COORD97":2546023.75,"ADDRESS":"南工街２２６巷６弄６號","OBJECTID":18659},"geometry":{"x":172008.28000000026,"y":2546023.7500000019}},{"attributes":{"ID":18660,"DIS_CODE":0,"TOWNNAME":"永康區","LI":"二王里","LIN":"47鄰","STREET":"南工街","SECT":" ","MAREA":" ","LANE":"２２６巷","ALLEY":"６弄","HOUSE_NO":"１１號","E_COORD97":172027.45000000001,"N_COORD97":2546009.8999999999,"ADDRESS":"南工街２２６巷６弄１１號","OBJECTID":18660},"geometry":{"x":172027.45000000019,"y":2546009.9000000022}},{"attributes":{"ID":18661,"DIS_CODE":0,"TOWNNAME":"永康區","LI":"二王里","LIN":"47鄰","STREET":"南工街","SECT":" ","MAREA":" ","LANE":"２２６巷","ALLEY":"８弄","HOUSE_NO":"１號","E_COORD97":172006.63,"N_COORD97":2546042.4900000002,"ADDRESS":"南工街２２６巷８弄１號","OBJECTID":18661},"geometry":{"x":172006.63000000082,"y":2546042.4900000021}},{"attributes":{"ID":18662,"DIS_CODE":0,"TOWNNAME":"永康區","LI":"二王里","LIN":"47鄰","STREET":"南工街","SECT":" ","MAREA":" ","LANE":"２２６巷","ALLEY":"３弄","HOUSE_NO":"１０號","E_COORD97":171938.70000000001,"N_COORD97":2546003.98,"ADDRESS":"南工街２２６巷３弄１０號","OBJECTID":18662},"geometry":{"x":171938.70000000112,"y":2546003.9800000004}},{"attributes":{"ID":18663,"DIS_CODE":0,"TOWNNAME":"永康區","LI":"二王里","LIN":"47鄰","STREET":"南工街","SECT":" ","MAREA":" ","LANE":"２２６巷","ALLEY":"８弄","HOUSE_NO":"１５號","E_COORD97":172041.38,"N_COORD97":2546038,"ADDRESS":"南工街２２６巷８弄１５號","OBJECTID":18663},"geometry":{"x":172041.37999999989,"y":2546038.0000000037}},{"attributes":{"ID":18664,"DIS_CODE":0,"TOWNNAME":"永康區","LI":"二王里","LIN":"47鄰","STREET":"南工街","SECT":" ","MAREA":" ","LANE":"２２６巷","ALLEY":"８弄","HOUSE_NO":"３號","E_COORD97":172011.44,"N_COORD97":2546041.9900000002,"ADDRESS":"南工街２２６巷８弄３號","OBJECTID":18664},"geometry":{"x":172011.44000000227,"y":2546041.9900000039}},{"attributes":{"ID":18665,"DIS_CODE":0,"TOWNNAME":"永康區","LI":"二王里","LIN":"47鄰","STREET":"南工街","SECT":" ","MAREA":" ","LANE":"２２６巷","ALLEY":"２弄","HOUSE_NO":"１３號","E_COORD97":172028.16,"N_COORD97":2545981.8999999999,"ADDRESS":"南工街２２６巷２弄１３號","OBJECTID":18665},"geometry":{"x":172028.15999999922,"y":2545981.9000000022}},{"attributes":{"ID":18666,"DIS_CODE":0,"TOWNNAME":"永康區","LI":"二王里","LIN":"47鄰","STREET":"南工街","SECT":" ","MAREA":" ","LANE":"２２６巷","ALLEY":"２弄","HOUSE_NO":"５號","E_COORD97":172007.51999999999,"N_COORD97":2545984.6499999999,"ADDRESS":"南工街２２６巷２弄５號","OBJECTID":18666},"geometry":{"x":172007.51999999955,"y":2545984.6500000022}},{"attributes":{"ID":18667,"DIS_CODE":0,"TOWNNAME":"永康區","LI":"二王里","LIN":"47鄰","STREET":"南工街","SECT":" ","MAREA":" ","LANE":"２２６巷","ALLEY":"２弄","HOUSE_NO":"１０號","E_COORD97":172014.88,"N_COORD97":2545993.75,"ADDRESS":"南工街２２６巷２弄１０號","OBJECTID":18667},"geometry":{"x":172014.88000000082,"y":2545993.7500000019}},{"attributes":{"ID":18668,"DIS_CODE":0,"TOWNNAME":"永康區","LI":"二王里","LIN":"47鄰","STREET":"南工街","SECT":" ","MAREA":" ","LANE":"２２６巷","ALLEY":"２弄","HOUSE_NO":"３號","E_COORD97":172002.22,"N_COORD97":2545985.6499999999,"ADDRESS":"南工街２２６巷２弄３號","OBJECTID":18668},"geometry":{"x":172002.22000000067,"y":2545985.6500000004}},{"attributes":{"ID":18669,"DIS_CODE":0,"TOWNNAME":"永康區","LI":"二王里","LIN":"47鄰","STREET":"南工街","SECT":" ","MAREA":" ","LANE":"２２６巷","ALLEY":"１弄","HOUSE_NO":"１０號","E_COORD97":171943.48999999999,"N_COORD97":2546040.4500000002,"ADDRESS":"南工街２２６巷１弄１０號","OBJECTID":18669},"geometry":{"x":171943.49000000115,"y":2546040.4499999993}},{"attributes":{"ID":18670,"DIS_CODE":0,"TOWNNAME":"永康區","LI":"二王里","LIN":"47鄰","STREET":"南工街","SECT":" ","MAREA":" ","LANE":"２２６巷","ALLEY":"６弄","HOUSE_NO":"２號","E_COORD97":172003.57999999999,"N_COORD97":2546024.5,"ADDRESS":"南工街２２６巷６弄２號","OBJECTID":18670},"geometry":{"x":172003.58000000101,"y":2546024.5000000037}},{"attributes":{"ID":18671,"DIS_CODE":0,"TOWNNAME":"永康區","LI":"二王里","LIN":"47鄰","STREET":"南工街","SECT":" ","MAREA":" ","LANE":"２２６巷","ALLEY":"２弄","HOUSE_NO":"８號","E_COORD97":172008.72,"N_COORD97":2545994.25,"ADDRESS":"南工街２２６巷２弄８號","OBJECTID":18671},"geometry":{"x":172008.7200000016,"y":2545994.25}},{"attributes":{"ID":18672,"DIS_CODE":0,"TOWNNAME":"永康區","LI":"二王里","LIN":"47鄰","STREET":"南工街","SECT":" ","MAREA":" ","LANE":"２２６巷","ALLEY":"６弄","HOUSE_NO":"７號","E_COORD97":172015.92000000001,"N_COORD97":2546011.3999999999,"ADDRESS":"南工街２２６巷６弄７號","OBJECTID":18672},"geometry":{"x":172015.91999999993,"y":2546011.4000000004}},{"attributes":{"ID":18673,"DIS_CODE":0,"TOWNNAME":"永康區","LI":"二王里","LIN":"47鄰","STREET":"南工街","SECT":" ","MAREA":" ","LANE":"２２６巷","ALLEY":"６弄","HOUSE_NO":"３號","E_COORD97":172006.01999999999,"N_COORD97":2546012.6499999999,"ADDRESS":"南工街２２６巷６弄３號","OBJECTID":18673},"geometry":{"x":172006.01999999955,"y":2546012.6500000004}},{"attributes":{"ID":18674,"DIS_CODE":0,"TOWNNAME":"永康區","LI":"二王里","LIN":"47鄰","STREET":"南工街","SECT":" ","MAREA":" ","LANE":"２２６巷","ALLEY":"２弄","HOUSE_NO":"２號","E_COORD97":171998.20000000001,"N_COORD97":2545996,"ADDRESS":"南工街２２６巷２弄２號","OBJECTID":18674},"geometry":{"x":171998.20000000112,"y":2545996}},{"attributes":{"ID":18675,"DIS_CODE":0,"TOWNNAME":"永康區","LI":"西灣里","LIN":"47鄰","STREET":"永華路","SECT":" ","MAREA":" ","LANE":"２０１巷","ALLEY":"３２弄","HOUSE_NO":"１５號","E_COORD97":173987.48000000001,"N_COORD97":2545651.0499999998,"ADDRESS":"永華路２０１巷３２弄１５號","OBJECTID":18675},"geometry":{"x":173987.48000000045,"y":2545651.0500000007}},{"attributes":{"ID":18676,"DIS_CODE":0,"TOWNNAME":"永康區","LI":"二王里","LIN":"47鄰","STREET":"南工街","SECT":" ","MAREA":" ","LANE":"２２６巷","ALLEY":"３弄","HOUSE_NO":"１號","E_COORD97":171973.20999999999,"N_COORD97":2545990.5499999998,"ADDRESS":"南工街２２６巷３弄１號","OBJECTID":18676},"geometry":{"x":171973.20999999996,"y":2545990.5500000007}},{"attributes":{"ID":18677,"DIS_CODE":0,"TOWNNAME":"永康區","LI":"二王里","LIN":"47鄰","STREET":"南工街","SECT":" ","MAREA":" ","LANE":"２２６巷","ALLEY":"６弄","HOUSE_NO":"１號","E_COORD97":172000.88,"N_COORD97":2546013.6499999999,"ADDRESS":"南工街２２６巷６弄１號","OBJECTID":18677},"geometry":{"x":172000.87999999989,"y":2546013.6500000041}},{"attributes":{"ID":18678,"DIS_CODE":0,"TOWNNAME":"永康區","LI":"二王里","LIN":"47鄰","STREET":"南工街","SECT":" ","MAREA":" ","LANE":"２２６巷","ALLEY":"２弄","HOUSE_NO":"１６號","E_COORD97":172035.35000000001,"N_COORD97":2545990.75,"ADDRESS":"南工街２２６巷２弄１６號","OBJECTID":18678},"geometry":{"x":172035.35000000056,"y":2545990.75}},{"attributes":{"ID":18679,"DIS_CODE":0,"TOWNNAME":"永康區","LI":"二王里","LIN":"47鄰","STREET":"南工街","SECT":" ","MAREA":" ","LANE":"２２６巷","ALLEY":"６弄","HOUSE_NO":"１３號","E_COORD97":172031.59,"N_COORD97":2546009.1499999999,"ADDRESS":"南工街２２６巷６弄１３號","OBJECTID":18679},"geometry":{"x":172031.58999999985,"y":2546009.1500000004}},{"attributes":{"ID":18680,"DIS_CODE":0,"TOWNNAME":"仁德區","LI":"成功里","LIN":"47鄰","STREET":"文賢路","SECT":"一段","MAREA":" ","LANE":"８１巷","ALLEY":"５９弄","HOUSE_NO":"８號","E_COORD97":170258.75,"N_COORD97":2538321.0699999998,"ADDRESS":"文賢路一段８１巷５９弄８號","OBJECTID":18680},"geometry":{"x":170258.75,"y":2538321.0700000003}},{"attributes":{"ID":18681,"DIS_CODE":0,"TOWNNAME":"新市區","LI":"新和里","LIN":"47鄰","STREET":"和平街","SECT":" ","MAREA":" ","LANE":"１６８巷","ALLEY":"１７弄","HOUSE_NO":"２號","E_COORD97":177410.37,"N_COORD97":2553342.75,"ADDRESS":"和平街１６８巷１７弄２號","OBJECTID":18681},"geometry":{"x":177410.37000000011,"y":2553342.7500000037}},{"attributes":{"ID":18682,"DIS_CODE":0,"TOWNNAME":"新市區","LI":"新和里","LIN":"47鄰","STREET":"和平街","SECT":" ","MAREA":" ","LANE":"１６８巷","ALLEY":"１７弄","HOUSE_NO":"８號","E_COORD97":177399.62,"N_COORD97":2553334.75,"ADDRESS":"和平街１６８巷１７弄８號","OBJECTID":18682},"geometry":{"x":177399.62000000104,"y":2553334.75}},{"attributes":{"ID":18683,"DIS_CODE":0,"TOWNNAME":"官田區","LI":"官田里","LIN":"14鄰","STREET":" ","SECT":" ","MAREA":"官田","LANE":" ","ALLEY":" ","HOUSE_NO":"１５２號","E_COORD97":182526.64000000001,"N_COORD97":2564971.4900000002,"ADDRESS":"官田１５２號","OBJECTID":18683},"geometry":{"x":182526.6400000006,"y":2564971.4900000021}},{"attributes":{"ID":18684,"DIS_CODE":0,"TOWNNAME":"新市區","LI":"新和里","LIN":"47鄰","STREET":"和平街","SECT":" ","MAREA":" ","LANE":"１６８巷","ALLEY":"１７弄","HOUSE_NO":"６號","E_COORD97":177403.26000000001,"N_COORD97":2553337.25,"ADDRESS":"和平街１６８巷１７弄６號","OBJECTID":18684},"geometry":{"x":177403.26000000071,"y":2553337.2500000019}},{"attributes":{"ID":18685,"DIS_CODE":0,"TOWNNAME":"新市區","LI":"新和里","LIN":"47鄰","STREET":"和平街","SECT":" ","MAREA":" ","LANE":"１６８巷","ALLEY":"１７弄","HOUSE_NO":"１０號","E_COORD97":177397.45999999999,"N_COORD97":2553332,"ADDRESS":"和平街１６８巷１７弄１０號","OBJECTID":18685},"geometry":{"x":177397.45999999996,"y":2553332.0000000019}},{"attributes":{"ID":18686,"DIS_CODE":0,"TOWNNAME":"新市區","LI":"新和里","LIN":"47鄰","STREET":"和平街","SECT":" ","MAREA":" ","LANE":"１６８巷","ALLEY":"１７弄","HOUSE_NO":"１號","E_COORD97":177403.26000000001,"N_COORD97":2553324,"ADDRESS":"和平街１６８巷１７弄１號","OBJECTID":18686},"geometry":{"x":177403.26000000071,"y":2553324.0000000037}},{"attributes":{"ID":18687,"DIS_CODE":0,"TOWNNAME":"新市區","LI":"新和里","LIN":"47鄰","STREET":"和平街","SECT":" ","MAREA":" ","LANE":"１６８巷","ALLEY":"１７弄","HOUSE_NO":"３號","E_COORD97":177399.62,"N_COORD97":2553321.5,"ADDRESS":"和平街１６８巷１７弄３號","OBJECTID":18687},"geometry":{"x":177399.62000000104,"y":2553321.5000000019}},{"attributes":{"ID":18688,"DIS_CODE":0,"TOWNNAME":"永康區","LI":"西灣里","LIN":"47鄰","STREET":"永華路","SECT":" ","MAREA":" ","LANE":"２０１巷","ALLEY":"３２弄","HOUSE_NO":"１９號","E_COORD97":173985.26999999999,"N_COORD97":2545659.2999999998,"ADDRESS":"永華路２０１巷３２弄１９號","OBJECTID":18688},"geometry":{"x":173985.27000000048,"y":2545659.3000000007}},{"attributes":{"ID":18689,"DIS_CODE":0,"TOWNNAME":"永康區","LI":"西灣里","LIN":"47鄰","STREET":"永華路","SECT":" ","MAREA":" ","LANE":"２０１巷","ALLEY":"３２弄","HOUSE_NO":"１號","E_COORD97":173992.48999999999,"N_COORD97":2545622.3100000001,"ADDRESS":"永華路２０１巷３２弄１號","OBJECTID":18689},"geometry":{"x":173992.49000000209,"y":2545622.3100000005}},{"attributes":{"ID":18690,"DIS_CODE":0,"TOWNNAME":"永康區","LI":"西灣里","LIN":"47鄰","STREET":"永華路","SECT":" ","MAREA":" ","LANE":"２０１巷","ALLEY":"３２弄","HOUSE_NO":"２５號","E_COORD97":173981.47,"N_COORD97":2545671.7999999998,"ADDRESS":"永華路２０１巷３２弄２５號","OBJECTID":18690},"geometry":{"x":173981.46999999974,"y":2545671.8000000026}},{"attributes":{"ID":18691,"DIS_CODE":0,"TOWNNAME":"新市區","LI":"新和里","LIN":"47鄰","STREET":"和平街","SECT":" ","MAREA":" ","LANE":"１６８巷","ALLEY":"１７弄","HOUSE_NO":"５號","E_COORD97":177396.01000000001,"N_COORD97":2553318.75,"ADDRESS":"和平街１６８巷１７弄５號","OBJECTID":18691},"geometry":{"x":177396.01000000071,"y":2553318.7499999981}},{"attributes":{"ID":18692,"DIS_CODE":0,"TOWNNAME":"新市區","LI":"新和里","LIN":"47鄰","STREET":"和平街","SECT":" ","MAREA":" ","LANE":"１６８巷","ALLEY":"１７弄","HOUSE_NO":"１６號","E_COORD97":177387.01000000001,"N_COORD97":2553324,"ADDRESS":"和平街１６８巷１７弄１６號","OBJECTID":18692},"geometry":{"x":177387.00999999978,"y":2553324.0000000037}},{"attributes":{"ID":18693,"DIS_CODE":0,"TOWNNAME":"永康區","LI":"西灣里","LIN":"47鄰","STREET":"永華路","SECT":" ","MAREA":" ","LANE":"２０１巷","ALLEY":"３２弄","HOUSE_NO":"３１號","E_COORD97":173977.79999999999,"N_COORD97":2545684.0600000001,"ADDRESS":"永華路２０１巷３２弄３１號","OBJECTID":18693},"geometry":{"x":173977.79999999981,"y":2545684.0600000005}},{"attributes":{"ID":18694,"DIS_CODE":0,"TOWNNAME":"新市區","LI":"新和里","LIN":"47鄰","STREET":"和平街","SECT":" ","MAREA":" ","LANE":"１６８巷","ALLEY":"１７弄","HOUSE_NO":"１２號","E_COORD97":177394.07000000001,"N_COORD97":2553329.25,"ADDRESS":"和平街１６８巷１７弄１２號","OBJECTID":18694},"geometry":{"x":177394.0700000003,"y":2553329.2500000037}},{"attributes":{"ID":18695,"DIS_CODE":0,"TOWNNAME":"新市區","LI":"新和里","LIN":"47鄰","STREET":"和平街","SECT":" ","MAREA":" ","LANE":"１６８巷","ALLEY":"１７弄","HOUSE_NO":"１４號","E_COORD97":177390.57000000001,"N_COORD97":2553326.5,"ADDRESS":"和平街１６８巷１７弄１４號","OBJECTID":18695},"geometry":{"x":177390.5700000003,"y":2553326.5}},{"attributes":{"ID":18696,"DIS_CODE":0,"TOWNNAME":"永康區","LI":"西灣里","LIN":"47鄰","STREET":"永華路","SECT":" ","MAREA":" ","LANE":"２０１巷","ALLEY":"３２弄","HOUSE_NO":"１１號","E_COORD97":173989.66,"N_COORD97":2545642.5499999998,"ADDRESS":"永華路２０１巷３２弄１１號","OBJECTID":18696},"geometry":{"x":173989.66000000201,"y":2545642.5500000026}},{"attributes":{"ID":18697,"DIS_CODE":0,"TOWNNAME":"永康區","LI":"西灣里","LIN":"47鄰","STREET":"大灣路","SECT":" ","MAREA":" ","LANE":"９４２巷","ALLEY":"５６１弄","HOUSE_NO":"２號","E_COORD97":173917.95999999999,"N_COORD97":2545629.9900000002,"ADDRESS":"大灣路９４２巷５６１弄２號","OBJECTID":18697},"geometry":{"x":173917.96000000183,"y":2545629.9900000002}},{"attributes":{"ID":18698,"DIS_CODE":0,"TOWNNAME":"永康區","LI":"西灣里","LIN":"47鄰","STREET":"永華路","SECT":" ","MAREA":" ","LANE":"２０１巷","ALLEY":"３２弄","HOUSE_NO":"１７號","E_COORD97":173986.13,"N_COORD97":2545655.0499999998,"ADDRESS":"永華路２０１巷３２弄１７號","OBJECTID":18698},"geometry":{"x":173986.13000000175,"y":2545655.0500000007}},{"attributes":{"ID":18699,"DIS_CODE":0,"TOWNNAME":"永康區","LI":"西灣里","LIN":"47鄰","STREET":"永華路","SECT":" ","MAREA":" ","LANE":"２０１巷","ALLEY":"３２弄","HOUSE_NO":"７號","E_COORD97":173990.63,"N_COORD97":2545634.2999999998,"ADDRESS":"永華路２０１巷３２弄７號","OBJECTID":18699},"geometry":{"x":173990.62999999989,"y":2545634.3000000026}},{"attributes":{"ID":18700,"DIS_CODE":0,"TOWNNAME":"永康區","LI":"西灣里","LIN":"47鄰","STREET":"永華路","SECT":" ","MAREA":" ","LANE":"２０１巷","ALLEY":"３２弄","HOUSE_NO":"５號","E_COORD97":173991.73999999999,"N_COORD97":2545630.7999999998,"ADDRESS":"永華路２０１巷３２弄５號","OBJECTID":18700},"geometry":{"x":173991.74000000022,"y":2545630.8000000026}},{"attributes":{"ID":18701,"DIS_CODE":0,"TOWNNAME":"永康區","LI":"西灣里","LIN":"47鄰","STREET":"永華路","SECT":" ","MAREA":" ","LANE":"２０１巷","ALLEY":"３２弄","HOUSE_NO":"９號","E_COORD97":173989.42999999999,"N_COORD97":2545638.2999999998,"ADDRESS":"永華路２０１巷３２弄９號","OBJECTID":18701},"geometry":{"x":173989.43000000063,"y":2545638.3000000026}},{"attributes":{"ID":18702,"DIS_CODE":0,"TOWNNAME":"永康區","LI":"西灣里","LIN":"47鄰","STREET":"永華路","SECT":" ","MAREA":" ","LANE":"２０１巷","ALLEY":"３２弄","HOUSE_NO":"３號","E_COORD97":173992.92000000001,"N_COORD97":2545627.04,"ADDRESS":"永華路２０１巷３２弄３號","OBJECTID":18702},"geometry":{"x":173992.92000000086,"y":2545627.040000001}},{"attributes":{"ID":18703,"DIS_CODE":0,"TOWNNAME":"永康區","LI":"西灣里","LIN":"47鄰","STREET":"永華路","SECT":" ","MAREA":" ","LANE":"２０１巷","ALLEY":"３２弄","HOUSE_NO":"２３號","E_COORD97":173982.76999999999,"N_COORD97":2545667.5499999998,"ADDRESS":"永華路２０１巷３２弄２３號","OBJECTID":18703},"geometry":{"x":173982.76999999955,"y":2545667.5500000007}},{"attributes":{"ID":18704,"DIS_CODE":0,"TOWNNAME":"佳里區","LI":"安西里","LIN":"47鄰","STREET":"安西路","SECT":" ","MAREA":" ","LANE":"２３巷","ALLEY":"１弄","HOUSE_NO":"１０號","E_COORD97":165082.79999999999,"N_COORD97":2562168.9100000001,"ADDRESS":"安西路２３巷１弄１０號","OBJECTID":18704},"geometry":{"x":165082.79999999981,"y":2562168.9100000001}},{"attributes":{"ID":18705,"DIS_CODE":0,"TOWNNAME":"佳里區","LI":"安西里","LIN":"47鄰","STREET":"安西路","SECT":" ","MAREA":" ","LANE":"２３巷","ALLEY":"１弄","HOUSE_NO":"１２號","E_COORD97":165082.57999999999,"N_COORD97":2562172.6699999999,"ADDRESS":"安西路２３巷１弄１２號","OBJECTID":18705},"geometry":{"x":165082.58000000101,"y":2562172.6700000018}},{"attributes":{"ID":18706,"DIS_CODE":0,"TOWNNAME":"佳里區","LI":"安西里","LIN":"47鄰","STREET":"安西路","SECT":" ","MAREA":" ","LANE":"２３巷","ALLEY":"１弄","HOUSE_NO":"１４號","E_COORD97":165082.73000000001,"N_COORD97":2562176.7000000002,"ADDRESS":"安西路２３巷１弄１４號","OBJECTID":18706},"geometry":{"x":165082.73000000045,"y":2562176.6999999993}},{"attributes":{"ID":18707,"DIS_CODE":0,"TOWNNAME":"佳里區","LI":"安西里","LIN":"47鄰","STREET":"安西路","SECT":" ","MAREA":" ","LANE":"２３巷","ALLEY":"１弄","HOUSE_NO":"１６號","E_COORD97":165082.67999999999,"N_COORD97":2562180.2000000002,"ADDRESS":"安西路２３巷１弄１６號","OBJECTID":18707},"geometry":{"x":165082.68000000063,"y":2562180.1999999993}},{"attributes":{"ID":18708,"DIS_CODE":0,"TOWNNAME":"佳里區","LI":"安西里","LIN":"47鄰","STREET":"安西路","SECT":" ","MAREA":" ","LANE":"２３巷","ALLEY":"１弄","HOUSE_NO":"１８號","E_COORD97":165082.97,"N_COORD97":2562184.48,"ADDRESS":"安西路２３巷１弄１８號","OBJECTID":18708},"geometry":{"x":165082.97000000067,"y":2562184.4800000023}},{"attributes":{"ID":18709,"DIS_CODE":0,"TOWNNAME":"佳里區","LI":"安西里","LIN":"47鄰","STREET":"安西路","SECT":" ","MAREA":" ","LANE":"２３巷","ALLEY":"１弄","HOUSE_NO":"２０號","E_COORD97":165083.23999999999,"N_COORD97":2562188.5299999998,"ADDRESS":"安西路２３巷１弄２０號","OBJECTID":18709},"geometry":{"x":165083.24000000115,"y":2562188.5299999993}},{"attributes":{"ID":18710,"DIS_CODE":0,"TOWNNAME":"佳里區","LI":"安西里","LIN":"47鄰","STREET":"安西路","SECT":" ","MAREA":" ","LANE":"２３巷","ALLEY":"１弄","HOUSE_NO":"２２號","E_COORD97":165083.51000000001,"N_COORD97":2562193.1499999999,"ADDRESS":"安西路２３巷１弄２２號","OBJECTID":18710},"geometry":{"x":165083.50999999978,"y":2562193.1500000022}},{"attributes":{"ID":18711,"DIS_CODE":0,"TOWNNAME":"佳里區","LI":"安西里","LIN":"47鄰","STREET":"安西路","SECT":" ","MAREA":" ","LANE":"２３巷","ALLEY":"１弄","HOUSE_NO":"２４號","E_COORD97":165083.20000000001,"N_COORD97":2562196.77,"ADDRESS":"安西路２３巷１弄２４號","OBJECTID":18711},"geometry":{"x":165083.20000000112,"y":2562196.7699999996}},{"attributes":{"ID":18712,"DIS_CODE":0,"TOWNNAME":"佳里區","LI":"安西里","LIN":"47鄰","STREET":"安西路","SECT":" ","MAREA":" ","LANE":"２３巷","ALLEY":"１弄","HOUSE_NO":"２６號","E_COORD97":165083.60999999999,"N_COORD97":2562200.5,"ADDRESS":"安西路２３巷１弄２６號","OBJECTID":18712},"geometry":{"x":165083.6100000022,"y":2562200.5000000019}},{"attributes":{"ID":18713,"DIS_CODE":0,"TOWNNAME":"佳里區","LI":"安西里","LIN":"47鄰","STREET":"安西路","SECT":" ","MAREA":" ","LANE":"２３巷","ALLEY":"１弄","HOUSE_NO":"２８號","E_COORD97":165083.82999999999,"N_COORD97":2562204.4100000001,"ADDRESS":"安西路２３巷１弄２８號","OBJECTID":18713},"geometry":{"x":165083.83000000101,"y":2562204.4100000039}},{"attributes":{"ID":18714,"DIS_CODE":0,"TOWNNAME":"佳里區","LI":"安西里","LIN":"47鄰","STREET":"安西路","SECT":" ","MAREA":" ","LANE":"２３巷","ALLEY":"１弄","HOUSE_NO":"３０號","E_COORD97":165083.07000000001,"N_COORD97":2562208.52,"ADDRESS":"安西路２３巷１弄３０號","OBJECTID":18714},"geometry":{"x":165083.0700000003,"y":2562208.5199999996}},{"attributes":{"ID":18715,"DIS_CODE":0,"TOWNNAME":"佳里區","LI":"安西里","LIN":"47鄰","STREET":"安西路","SECT":" ","MAREA":" ","LANE":"２３巷","ALLEY":"１弄","HOUSE_NO":"３２號","E_COORD97":165083.47,"N_COORD97":2562212.75,"ADDRESS":"安西路２３巷１弄３２號","OBJECTID":18715},"geometry":{"x":165083.46999999974,"y":2562212.7500000019}},{"attributes":{"ID":18716,"DIS_CODE":0,"TOWNNAME":"佳里區","LI":"安西里","LIN":"47鄰","STREET":"安西路","SECT":" ","MAREA":" ","LANE":"２３巷","ALLEY":"１弄","HOUSE_NO":"３４號","E_COORD97":165084.07000000001,"N_COORD97":2562216.2599999998,"ADDRESS":"安西路２３巷１弄３４號","OBJECTID":18716},"geometry":{"x":165084.07000000123,"y":2562216.2600000016}},{"attributes":{"ID":18717,"DIS_CODE":0,"TOWNNAME":"佳里區","LI":"安西里","LIN":"47鄰","STREET":"安西路","SECT":" ","MAREA":" ","LANE":"２３巷","ALLEY":"１弄","HOUSE_NO":"３６號","E_COORD97":165083.85000000001,"N_COORD97":2562220.5499999998,"ADDRESS":"安西路２３巷１弄３６號","OBJECTID":18717},"geometry":{"x":165083.84999999963,"y":2562220.5500000007}},{"attributes":{"ID":18718,"DIS_CODE":0,"TOWNNAME":"佳里區","LI":"安西里","LIN":"47鄰","STREET":"安西路","SECT":" ","MAREA":" ","LANE":"２３巷","ALLEY":"１弄","HOUSE_NO":"３８號","E_COORD97":165083.75,"N_COORD97":2562224.6600000001,"ADDRESS":"安西路２３巷１弄３８號","OBJECTID":18718},"geometry":{"x":165083.75,"y":2562224.6600000001}},{"attributes":{"ID":18719,"DIS_CODE":0,"TOWNNAME":"佳里區","LI":"安西里","LIN":"47鄰","STREET":"安西路","SECT":" ","MAREA":" ","LANE":"２３巷","ALLEY":"１弄","HOUSE_NO":"４０號","E_COORD97":165081.67999999999,"N_COORD97":2562234.04,"ADDRESS":"安西路２３巷１弄４０號","OBJECTID":18719},"geometry":{"x":165081.6799999997,"y":2562234.040000001}},{"attributes":{"ID":18720,"DIS_CODE":0,"TOWNNAME":"佳里區","LI":"安西里","LIN":"47鄰","STREET":"安西路","SECT":" ","MAREA":" ","LANE":"２３巷","ALLEY":"１弄","HOUSE_NO":"４２號","E_COORD97":165081.76999999999,"N_COORD97":2562235.8900000001,"ADDRESS":"安西路２３巷１弄４２號","OBJECTID":18720},"geometry":{"x":165081.77000000142,"y":2562235.8900000025}},{"attributes":{"ID":18721,"DIS_CODE":0,"TOWNNAME":"佳里區","LI":"安西里","LIN":"47鄰","STREET":"安西路","SECT":" ","MAREA":" ","LANE":"２３巷","ALLEY":"１弄","HOUSE_NO":"４４號","E_COORD97":165082.10000000001,"N_COORD97":2562238.7599999998,"ADDRESS":"安西路２３巷１弄４４號","OBJECTID":18721},"geometry":{"x":165082.09999999963,"y":2562238.7600000035}},{"attributes":{"ID":18722,"DIS_CODE":0,"TOWNNAME":"佳里區","LI":"安西里","LIN":"47鄰","STREET":"安西路","SECT":" ","MAREA":" ","LANE":"２３巷","ALLEY":"１弄","HOUSE_NO":"４６號","E_COORD97":165082,"N_COORD97":2562242.9199999999,"ADDRESS":"安西路２３巷１弄４６號","OBJECTID":18722},"geometry":{"x":165082,"y":2562242.9199999999}},{"attributes":{"ID":18723,"DIS_CODE":0,"TOWNNAME":"佳里區","LI":"安西里","LIN":"47鄰","STREET":"安西路","SECT":" ","MAREA":" ","LANE":"２３巷","ALLEY":"１弄","HOUSE_NO":"４８號","E_COORD97":165082.48999999999,"N_COORD97":2562247.3900000001,"ADDRESS":"安西路２３巷１弄４８號","OBJECTID":18723},"geometry":{"x":165082.48999999929,"y":2562247.3900000006}},{"attributes":{"ID":18724,"DIS_CODE":0,"TOWNNAME":"佳里區","LI":"安西里","LIN":"47鄰","STREET":"安西路","SECT":" ","MAREA":" ","LANE":"２３巷","ALLEY":"１弄","HOUSE_NO":"５０號","E_COORD97":165082.39999999999,"N_COORD97":2562251.21,"ADDRESS":"安西路２３巷１弄５０號","OBJECTID":18724},"geometry":{"x":165082.4000000013,"y":2562251.2100000028}},{"attributes":{"ID":18725,"DIS_CODE":0,"TOWNNAME":"佳里區","LI":"安西里","LIN":"47鄰","STREET":"安西路","SECT":" ","MAREA":" ","LANE":"２３巷","ALLEY":"１弄","HOUSE_NO":"５２號","E_COORD97":165082.17000000001,"N_COORD97":2562254.98,"ADDRESS":"安西路２３巷１弄５２號","OBJECTID":18725},"geometry":{"x":165082.16999999993,"y":2562254.9800000042}},{"attributes":{"ID":18726,"DIS_CODE":0,"TOWNNAME":"佳里區","LI":"安西里","LIN":"47鄰","STREET":"安西路","SECT":" ","MAREA":" ","LANE":"２３巷","ALLEY":"１弄","HOUSE_NO":"５４號","E_COORD97":165082.34,"N_COORD97":2562258.9700000002,"ADDRESS":"安西路２３巷１弄５４號","OBJECTID":18726},"geometry":{"x":165082.34000000078,"y":2562258.9700000025}},{"attributes":{"ID":18727,"DIS_CODE":0,"TOWNNAME":"佳里區","LI":"安西里","LIN":"47鄰","STREET":"安西路","SECT":" ","MAREA":" ","LANE":"２３巷","ALLEY":"１弄","HOUSE_NO":"５６號","E_COORD97":165082.82999999999,"N_COORD97":2562262.98,"ADDRESS":"安西路２３巷１弄５６號","OBJECTID":18727},"geometry":{"x":165082.83000000007,"y":2562262.9800000023}},{"attributes":{"ID":18728,"DIS_CODE":0,"TOWNNAME":"佳里區","LI":"安西里","LIN":"47鄰","STREET":"安西路","SECT":" ","MAREA":" ","LANE":"２３巷","ALLEY":"１弄","HOUSE_NO":"６號","E_COORD97":165082.89999999999,"N_COORD97":2562160.4399999999,"ADDRESS":"安西路２３巷１弄６號","OBJECTID":18728},"geometry":{"x":165082.90000000037,"y":2562160.4400000013}},{"attributes":{"ID":18729,"DIS_CODE":0,"TOWNNAME":"佳里區","LI":"安西里","LIN":"47鄰","STREET":"安西路","SECT":" ","MAREA":" ","LANE":"２３巷","ALLEY":"１弄","HOUSE_NO":"８號","E_COORD97":165082.60000000001,"N_COORD97":2562164.27,"ADDRESS":"安西路２３巷１弄８號","OBJECTID":18729},"geometry":{"x":165082.59999999963,"y":2562164.2700000014}},{"attributes":{"ID":18730,"DIS_CODE":0,"TOWNNAME":"永康區","LI":"二王里","LIN":"47鄰","STREET":"南工街","SECT":" ","MAREA":" ","LANE":"２２６巷","ALLEY":"１弄","HOUSE_NO":"２號四樓之１","E_COORD97":171984.51999999999,"N_COORD97":2546036.2599999998,"ADDRESS":"南工街２２６巷１弄２號四樓之１","OBJECTID":18730},"geometry":{"x":171984.52000000142,"y":2546036.2600000035}},{"attributes":{"ID":18731,"DIS_CODE":0,"TOWNNAME":"永康區","LI":"二王里","LIN":"47鄰","STREET":"南工街","SECT":" ","MAREA":" ","LANE":"２２６巷","ALLEY":"１弄","HOUSE_NO":"６號三樓之２","E_COORD97":171965.54999999999,"N_COORD97":2546038.2599999998,"ADDRESS":"南工街２２６巷１弄６號三樓之２","OBJECTID":18731},"geometry":{"x":171965.54999999981,"y":2546038.2599999998}},{"attributes":{"ID":18732,"DIS_CODE":0,"TOWNNAME":"永康區","LI":"二王里","LIN":"47鄰","STREET":"南工街","SECT":" ","MAREA":" ","LANE":"２２６巷","ALLEY":"１弄","HOUSE_NO":"２號五樓之２","E_COORD97":171984.66,"N_COORD97":2546036.2599999998,"ADDRESS":"南工街２２６巷１弄２號五樓之２","OBJECTID":18732},"geometry":{"x":171984.66000000108,"y":2546036.2600000035}},{"attributes":{"ID":18733,"DIS_CODE":0,"TOWNNAME":"永康區","LI":"二王里","LIN":"47鄰","STREET":"南工街","SECT":" ","MAREA":" ","LANE":"２２６巷","ALLEY":"１弄","HOUSE_NO":"５號四樓之２","E_COORD97":171963.16,"N_COORD97":2546027.73,"ADDRESS":"南工街２２６巷１弄５號四樓之２","OBJECTID":18733},"geometry":{"x":171963.16000000015,"y":2546027.7300000023}},{"attributes":{"ID":18734,"DIS_CODE":0,"TOWNNAME":"永康區","LI":"二王里","LIN":"47鄰","STREET":"南工街","SECT":" ","MAREA":" ","LANE":"２２６巷","ALLEY":"１弄","HOUSE_NO":"２號四樓之２","E_COORD97":171984.66,"N_COORD97":2546036.2599999998,"ADDRESS":"南工街２２６巷１弄２號四樓之２","OBJECTID":18734},"geometry":{"x":171984.66000000108,"y":2546036.2600000035}},{"attributes":{"ID":18735,"DIS_CODE":0,"TOWNNAME":"西港區","LI":"\u25A0林里","LIN":"14鄰","STREET":" ","SECT":" ","MAREA":"太西","LANE":" ","ALLEY":" ","HOUSE_NO":"２１號","E_COORD97":171052.67999999999,"N_COORD97":2560094.5,"ADDRESS":"太西２１號","OBJECTID":18735},"geometry":{"x":171052.6799999997,"y":2560094.4999999981}},{"attributes":{"ID":18736,"DIS_CODE":0,"TOWNNAME":"永康區","LI":"二王里","LIN":"47鄰","STREET":"南工街","SECT":" ","MAREA":" ","LANE":"２２６巷","ALLEY":"１弄","HOUSE_NO":"２號三樓之２","E_COORD97":171984.66,"N_COORD97":2546036.2599999998,"ADDRESS":"南工街２２６巷１弄２號三樓之２","OBJECTID":18736},"geometry":{"x":171984.66000000108,"y":2546036.2600000035}},{"attributes":{"ID":18737,"DIS_CODE":0,"TOWNNAME":"永康區","LI":"二王里","LIN":"47鄰","STREET":"南工街","SECT":" ","MAREA":" ","LANE":"２２６巷","ALLEY":"１弄","HOUSE_NO":"６號四樓之１","E_COORD97":171965.41,"N_COORD97":2546038.2599999998,"ADDRESS":"南工街２２６巷１弄６號四樓之１","OBJECTID":18737},"geometry":{"x":171965.40999999922,"y":2546038.2599999998}},{"attributes":{"ID":18738,"DIS_CODE":0,"TOWNNAME":"永康區","LI":"二王里","LIN":"47鄰","STREET":"南工街","SECT":" ","MAREA":" ","LANE":"２２６巷","ALLEY":"３弄","HOUSE_NO":"７號八樓之２","E_COORD97":171948.20000000001,"N_COORD97":2545994.3500000001,"ADDRESS":"南工街２２６巷３弄７號八樓之２","OBJECTID":18738},"geometry":{"x":171948.20000000019,"y":2545994.3499999996}},{"attributes":{"ID":18739,"DIS_CODE":0,"TOWNNAME":"永康區","LI":"二王里","LIN":"47鄰","STREET":"南工街","SECT":" ","MAREA":" ","LANE":"２２６巷","ALLEY":"１弄","HOUSE_NO":"５號三樓之２","E_COORD97":171963.16,"N_COORD97":2546027.73,"ADDRESS":"南工街２２６巷１弄５號三樓之２","OBJECTID":18739},"geometry":{"x":171963.16000000015,"y":2546027.7300000023}},{"attributes":{"ID":18740,"DIS_CODE":0,"TOWNNAME":"永康區","LI":"二王里","LIN":"47鄰","STREET":"南工街","SECT":" ","MAREA":" ","LANE":"２２６巷","ALLEY":"３弄","HOUSE_NO":"３號四樓之１","E_COORD97":171967.48999999999,"N_COORD97":2545991.6000000001,"ADDRESS":"南工街２２６巷３弄３號四樓之１","OBJECTID":18740},"geometry":{"x":171967.49000000115,"y":2545991.5999999996}},{"attributes":{"ID":18741,"DIS_CODE":0,"TOWNNAME":"永康區","LI":"二王里","LIN":"47鄰","STREET":"南工街","SECT":" ","MAREA":" ","LANE":"２２６巷","ALLEY":"３弄","HOUSE_NO":"２號七樓之２","E_COORD97":171982.47,"N_COORD97":2545999.0299999998,"ADDRESS":"南工街２２６巷３弄２號七樓之２","OBJECTID":18741},"geometry":{"x":171982.47000000067,"y":2545999.0299999993}},{"attributes":{"ID":18742,"DIS_CODE":0,"TOWNNAME":"永康區","LI":"二王里","LIN":"47鄰","STREET":"南工街","SECT":" ","MAREA":" ","LANE":"２２６巷","ALLEY":"１弄","HOUSE_NO":"１號五樓之１","E_COORD97":171984.91,"N_COORD97":2546024.98,"ADDRESS":"南工街２２６巷１弄１號五樓之１","OBJECTID":18742},"geometry":{"x":171984.91000000108,"y":2546024.9799999986}},{"attributes":{"ID":18743,"DIS_CODE":0,"TOWNNAME":"永康區","LI":"二王里","LIN":"47鄰","STREET":"南工街","SECT":" ","MAREA":" ","LANE":"２２６巷","ALLEY":"１弄","HOUSE_NO":"２號六樓之２","E_COORD97":171984.66,"N_COORD97":2546036.2599999998,"ADDRESS":"南工街２２６巷１弄２號六樓之２","OBJECTID":18743},"geometry":{"x":171984.66000000108,"y":2546036.2600000035}},{"attributes":{"ID":18744,"DIS_CODE":0,"TOWNNAME":"永康區","LI":"二王里","LIN":"47鄰","STREET":"南工街","SECT":" ","MAREA":" ","LANE":"２２６巷","ALLEY":"１弄","HOUSE_NO":"５號七樓之１","E_COORD97":171963.01999999999,"N_COORD97":2546027.73,"ADDRESS":"南工街２２６巷１弄５號七樓之１","OBJECTID":18744},"geometry":{"x":171963.02000000048,"y":2546027.7300000023}},{"attributes":{"ID":18745,"DIS_CODE":0,"TOWNNAME":"永康區","LI":"二王里","LIN":"47鄰","STREET":"南工街","SECT":" ","MAREA":" ","LANE":"２２６巷","ALLEY":"３弄","HOUSE_NO":"７號四樓之１","E_COORD97":171948.06,"N_COORD97":2545994.3500000001,"ADDRESS":"南工街２２６巷３弄７號四樓之１","OBJECTID":18745},"geometry":{"x":171948.05999999959,"y":2545994.3499999996}},{"attributes":{"ID":18746,"DIS_CODE":0,"TOWNNAME":"永康區","LI":"二王里","LIN":"47鄰","STREET":"南工街","SECT":" ","MAREA":" ","LANE":"２２６巷","ALLEY":"１弄","HOUSE_NO":"５號五樓之２","E_COORD97":171963.16,"N_COORD97":2546027.73,"ADDRESS":"南工街２２６巷１弄５號五樓之２","OBJECTID":18746},"geometry":{"x":171963.16000000015,"y":2546027.7300000023}},{"attributes":{"ID":18747,"DIS_CODE":0,"TOWNNAME":"永康區","LI":"二王里","LIN":"47鄰","STREET":"南工街","SECT":" ","MAREA":" ","LANE":"２２６巷","ALLEY":"１弄","HOUSE_NO":"５號五樓之１","E_COORD97":171963.01999999999,"N_COORD97":2546027.73,"ADDRESS":"南工街２２６巷１弄５號五樓之１","OBJECTID":18747},"geometry":{"x":171963.02000000048,"y":2546027.7300000023}},{"attributes":{"ID":18748,"DIS_CODE":0,"TOWNNAME":"永康區","LI":"二王里","LIN":"47鄰","STREET":"南工街","SECT":" ","MAREA":" ","LANE":"２２６巷","ALLEY":"１弄","HOUSE_NO":"６號五樓之２","E_COORD97":171965.54999999999,"N_COORD97":2546038.2599999998,"ADDRESS":"南工街２２６巷１弄６號五樓之２","OBJECTID":18748},"geometry":{"x":171965.54999999981,"y":2546038.2599999998}},{"attributes":{"ID":18749,"DIS_CODE":0,"TOWNNAME":"永康區","LI":"二王里","LIN":"47鄰","STREET":"南工街","SECT":" ","MAREA":" ","LANE":"２２６巷","ALLEY":"１弄","HOUSE_NO":"１號七樓之１","E_COORD97":171984.91,"N_COORD97":2546024.98,"ADDRESS":"南工街２２６巷１弄１號七樓之１","OBJECTID":18749},"geometry":{"x":171984.91000000108,"y":2546024.9799999986}},{"attributes":{"ID":18750,"DIS_CODE":0,"TOWNNAME":"永康區","LI":"二王里","LIN":"47鄰","STREET":"南工街","SECT":" ","MAREA":" ","LANE":"２２６巷","ALLEY":"３弄","HOUSE_NO":"２號二樓之１","E_COORD97":171982.32999999999,"N_COORD97":2545999.0299999998,"ADDRESS":"南工街２２６巷３弄２號二樓之１","OBJECTID":18750},"geometry":{"x":171982.33000000007,"y":2545999.0299999993}},{"attributes":{"ID":18751,"DIS_CODE":0,"TOWNNAME":"永康區","LI":"二王里","LIN":"47鄰","STREET":"南工街","SECT":" ","MAREA":" ","LANE":"２２６巷","ALLEY":"１弄","HOUSE_NO":"２號二樓之２","E_COORD97":171984.66,"N_COORD97":2546036.2599999998,"ADDRESS":"南工街２２６巷１弄２號二樓之２","OBJECTID":18751},"geometry":{"x":171984.66000000108,"y":2546036.2600000035}},{"attributes":{"ID":18752,"DIS_CODE":0,"TOWNNAME":"永康區","LI":"二王里","LIN":"47鄰","STREET":"南工街","SECT":" ","MAREA":" ","LANE":"２２６巷","ALLEY":"１弄","HOUSE_NO":"６號五樓之１","E_COORD97":171965.41,"N_COORD97":2546038.2599999998,"ADDRESS":"南工街２２６巷１弄６號五樓之１","OBJECTID":18752},"geometry":{"x":171965.40999999922,"y":2546038.2599999998}},{"attributes":{"ID":18753,"DIS_CODE":0,"TOWNNAME":"永康區","LI":"二王里","LIN":"47鄰","STREET":"南工街","SECT":" ","MAREA":" ","LANE":"２２６巷","ALLEY":"３弄","HOUSE_NO":"２號二樓之２","E_COORD97":171982.47,"N_COORD97":2545999.0299999998,"ADDRESS":"南工街２２６巷３弄２號二樓之２","OBJECTID":18753},"geometry":{"x":171982.47000000067,"y":2545999.0299999993}},{"attributes":{"ID":18754,"DIS_CODE":0,"TOWNNAME":"永康區","LI":"二王里","LIN":"47鄰","STREET":"南工街","SECT":" ","MAREA":" ","LANE":"２２６巷","ALLEY":"３弄","HOUSE_NO":"２號五樓之２","E_COORD97":171982.47,"N_COORD97":2545999.0299999998,"ADDRESS":"南工街２２６巷３弄２號五樓之２","OBJECTID":18754},"geometry":{"x":171982.47000000067,"y":2545999.0299999993}},{"attributes":{"ID":18755,"DIS_CODE":0,"TOWNNAME":"永康區","LI":"二王里","LIN":"47鄰","STREET":"南工街","SECT":" ","MAREA":" ","LANE":"２２６巷","ALLEY":"３弄","HOUSE_NO":"２號五樓之１","E_COORD97":171982.32999999999,"N_COORD97":2545999.0299999998,"ADDRESS":"南工街２２６巷３弄２號五樓之１","OBJECTID":18755},"geometry":{"x":171982.33000000007,"y":2545999.0299999993}},{"attributes":{"ID":18756,"DIS_CODE":0,"TOWNNAME":"永康區","LI":"二王里","LIN":"47鄰","STREET":"南工街","SECT":" ","MAREA":" ","LANE":"２２６巷","ALLEY":"３弄","HOUSE_NO":"１號五樓之１","E_COORD97":171977.84,"N_COORD97":2545990.6000000001,"ADDRESS":"南工街２２６巷３弄１號五樓之１","OBJECTID":18756},"geometry":{"x":171977.84000000078,"y":2545990.6000000015}},{"attributes":{"ID":18757,"DIS_CODE":0,"TOWNNAME":"永康區","LI":"二王里","LIN":"47鄰","STREET":"南工街","SECT":" ","MAREA":" ","LANE":"２２６巷","ALLEY":"１弄","HOUSE_NO":"５號二樓之２","E_COORD97":171963.16,"N_COORD97":2546027.73,"ADDRESS":"南工街２２６巷１弄５號二樓之２","OBJECTID":18757},"geometry":{"x":171963.16000000015,"y":2546027.7300000023}},{"attributes":{"ID":18758,"DIS_CODE":0,"TOWNNAME":"永康區","LI":"二王里","LIN":"47鄰","STREET":"南工街","SECT":" ","MAREA":" ","LANE":"２２６巷","ALLEY":"３弄","HOUSE_NO":"３號五樓之２","E_COORD97":171967.63,"N_COORD97":2545991.6000000001,"ADDRESS":"南工街２２６巷３弄３號五樓之２","OBJECTID":18758},"geometry":{"x":171967.63000000082,"y":2545991.5999999996}},{"attributes":{"ID":18759,"DIS_CODE":0,"TOWNNAME":"永康區","LI":"二王里","LIN":"47鄰","STREET":"南工街","SECT":" ","MAREA":" ","LANE":"２２６巷","ALLEY":"３弄","HOUSE_NO":"６號七樓之２","E_COORD97":171959.19,"N_COORD97":2546002.0299999998,"ADDRESS":"南工街２２６巷３弄６號七樓之２","OBJECTID":18759},"geometry":{"x":171959.19000000134,"y":2546002.0299999993}},{"attributes":{"ID":18760,"DIS_CODE":0,"TOWNNAME":"永康區","LI":"二王里","LIN":"47鄰","STREET":"南工街","SECT":" ","MAREA":" ","LANE":"２２６巷","ALLEY":"１弄","HOUSE_NO":"２號五樓之１","E_COORD97":171984.51999999999,"N_COORD97":2546036.2599999998,"ADDRESS":"南工街２２６巷１弄２號五樓之１","OBJECTID":18760},"geometry":{"x":171984.52000000142,"y":2546036.2600000035}},{"attributes":{"ID":18761,"DIS_CODE":0,"TOWNNAME":"永康區","LI":"二王里","LIN":"47鄰","STREET":"南工街","SECT":" ","MAREA":" ","LANE":"２２６巷","ALLEY":"３弄","HOUSE_NO":"１０號五樓之１","E_COORD97":171943.32999999999,"N_COORD97":2546004.0299999998,"ADDRESS":"南工街２２６巷３弄１０號五樓之１","OBJECTID":18761},"geometry":{"x":171943.33000000007,"y":2546004.0300000012}},{"attributes":{"ID":18762,"DIS_CODE":0,"TOWNNAME":"永康區","LI":"二王里","LIN":"47鄰","STREET":"南工街","SECT":" ","MAREA":" ","LANE":"２２６巷","ALLEY":"３弄","HOUSE_NO":"３號四樓之２","E_COORD97":171967.63,"N_COORD97":2545991.6000000001,"ADDRESS":"南工街２２６巷３弄３號四樓之２","OBJECTID":18762},"geometry":{"x":171967.63000000082,"y":2545991.5999999996}},{"attributes":{"ID":18763,"DIS_CODE":0,"TOWNNAME":"永康區","LI":"二王里","LIN":"47鄰","STREET":"南工街","SECT":" ","MAREA":" ","LANE":"２２６巷","ALLEY":"３弄","HOUSE_NO":"１０號六樓之１","E_COORD97":171943.32999999999,"N_COORD97":2546004.0299999998,"ADDRESS":"南工街２２６巷３弄１０號六樓之１","OBJECTID":18763},"geometry":{"x":171943.33000000007,"y":2546004.0300000012}},{"attributes":{"ID":18764,"DIS_CODE":0,"TOWNNAME":"西港區","LI":"\u25A0林里","LIN":"14鄰","STREET":" ","SECT":" ","MAREA":"太西","LANE":" ","ALLEY":" ","HOUSE_NO":"２２號","E_COORD97":171049.13,"N_COORD97":2560115.9500000002,"ADDRESS":"太西２２號","OBJECTID":18764},"geometry":{"x":171049.13000000082,"y":2560115.9500000011}},{"attributes":{"ID":18765,"DIS_CODE":0,"TOWNNAME":"西港區","LI":"\u25A0林里","LIN":"14鄰","STREET":" ","SECT":" ","MAREA":"太西","LANE":" ","ALLEY":" ","HOUSE_NO":"２３號","E_COORD97":171031.51999999999,"N_COORD97":2560110.9900000002,"ADDRESS":"太西２３號","OBJECTID":18765},"geometry":{"x":171031.51999999955,"y":2560110.9900000002}},{"attributes":{"ID":18766,"DIS_CODE":0,"TOWNNAME":"西港區","LI":"\u25A0林里","LIN":"14鄰","STREET":" ","SECT":" ","MAREA":"太西","LANE":" ","ALLEY":" ","HOUSE_NO":"２４號","E_COORD97":171015.56,"N_COORD97":2560107.8900000001,"ADDRESS":"太西２４號","OBJECTID":18766},"geometry":{"x":171015.55999999959,"y":2560107.8900000006}},{"attributes":{"ID":18767,"DIS_CODE":0,"TOWNNAME":"西港區","LI":"西港里","LIN":"14鄰","STREET":" ","SECT":" ","MAREA":"西港","LANE":" ","ALLEY":" ","HOUSE_NO":"４５號","E_COORD97":168559.78,"N_COORD97":2557980.8199999998,"ADDRESS":"西港４５號","OBJECTID":18767},"geometry":{"x":168559.78000000119,"y":2557980.820000004}},{"attributes":{"ID":18768,"DIS_CODE":0,"TOWNNAME":"西港區","LI":"西港里","LIN":"14鄰","STREET":" ","SECT":" ","MAREA":"西港","LANE":" ","ALLEY":" ","HOUSE_NO":"４６號之１０","E_COORD97":168554.20000000001,"N_COORD97":2557960.3700000001,"ADDRESS":"西港４６號之１０","OBJECTID":18768},"geometry":{"x":168554.20000000019,"y":2557960.370000001}},{"attributes":{"ID":18769,"DIS_CODE":0,"TOWNNAME":"西港區","LI":"西港里","LIN":"14鄰","STREET":" ","SECT":" ","MAREA":"西港","LANE":" ","ALLEY":" ","HOUSE_NO":"４６號之１１","E_COORD97":168558.60999999999,"N_COORD97":2557961.4700000002,"ADDRESS":"西港４６號之１１","OBJECTID":18769},"geometry":{"x":168558.6099999994,"y":2557961.4700000007}},{"attributes":{"ID":18770,"DIS_CODE":0,"TOWNNAME":"西港區","LI":"西港里","LIN":"14鄰","STREET":" ","SECT":" ","MAREA":"西港","LANE":" ","ALLEY":" ","HOUSE_NO":"４６號之１","E_COORD97":168539.10999999999,"N_COORD97":2557975.1000000001,"ADDRESS":"西港４６號之１","OBJECTID":18770},"geometry":{"x":168539.11000000127,"y":2557975.1000000015}},{"attributes":{"ID":18771,"DIS_CODE":0,"TOWNNAME":"永康區","LI":"二王里","LIN":"47鄰","STREET":"南工街","SECT":" ","MAREA":" ","LANE":"２２６巷","ALLEY":"３弄","HOUSE_NO":"３號二樓之２","E_COORD97":171967.63,"N_COORD97":2545991.6000000001,"ADDRESS":"南工街２２６巷３弄３號二樓之２","OBJECTID":18771},"geometry":{"x":171967.63000000082,"y":2545991.5999999996}},{"attributes":{"ID":18772,"DIS_CODE":0,"TOWNNAME":"西港區","LI":"西港里","LIN":"14鄰","STREET":" ","SECT":" ","MAREA":"西港","LANE":" ","ALLEY":" ","HOUSE_NO":"４６號之２","E_COORD97":168543.01000000001,"N_COORD97":2557975.9500000002,"ADDRESS":"西港４６號之２","OBJECTID":18772},"geometry":{"x":168543.00999999978,"y":2557975.9500000011}},{"attributes":{"ID":18773,"DIS_CODE":0,"TOWNNAME":"永康區","LI":"二王里","LIN":"47鄰","STREET":"南工街","SECT":" ","MAREA":" ","LANE":"２２６巷","ALLEY":"１弄","HOUSE_NO":"２號七樓之２","E_COORD97":171984.66,"N_COORD97":2546036.2599999998,"ADDRESS":"南工街２２６巷１弄２號七樓之２","OBJECTID":18773},"geometry":{"x":171984.66000000108,"y":2546036.2600000035}},{"attributes":{"ID":18774,"DIS_CODE":0,"TOWNNAME":"西港區","LI":"營西里","LIN":"14鄰","STREET":" ","SECT":" ","MAREA":"後營","LANE":" ","ALLEY":" ","HOUSE_NO":"１１０號之４","E_COORD97":169846.39999999999,"N_COORD97":2560388.0499999998,"ADDRESS":"後營１１０號之４","OBJECTID":18774},"geometry":{"x":169846.40000000037,"y":2560388.0500000026}},{"attributes":{"ID":18775,"DIS_CODE":0,"TOWNNAME":"西港區","LI":"營西里","LIN":"14鄰","STREET":" ","SECT":" ","MAREA":"後營","LANE":" ","ALLEY":" ","HOUSE_NO":"１１０號之５","E_COORD97":169847.23000000001,"N_COORD97":2560383.52,"ADDRESS":"後營１１０號之５","OBJECTID":18775},"geometry":{"x":169847.23000000045,"y":2560383.5200000014}},{"attributes":{"ID":18776,"DIS_CODE":0,"TOWNNAME":"永康區","LI":"二王里","LIN":"47鄰","STREET":"南工街","SECT":" ","MAREA":" ","LANE":"２２６巷","ALLEY":"１弄","HOUSE_NO":"５號六樓之２","E_COORD97":171963.16,"N_COORD97":2546027.73,"ADDRESS":"南工街２２６巷１弄５號六樓之２","OBJECTID":18776},"geometry":{"x":171963.16000000015,"y":2546027.7300000023}},{"attributes":{"ID":18777,"DIS_CODE":0,"TOWNNAME":"永康區","LI":"二王里","LIN":"47鄰","STREET":"南工街","SECT":" ","MAREA":" ","LANE":"２２６巷","ALLEY":"３弄","HOUSE_NO":"７號五樓之１","E_COORD97":171948.06,"N_COORD97":2545994.3500000001,"ADDRESS":"南工街２２６巷３弄７號五樓之１","OBJECTID":18777},"geometry":{"x":171948.05999999959,"y":2545994.3499999996}},{"attributes":{"ID":18778,"DIS_CODE":0,"TOWNNAME":"西港區","LI":"西港里","LIN":"14鄰","STREET":" ","SECT":" ","MAREA":"西港","LANE":" ","ALLEY":" ","HOUSE_NO":"４６號之３","E_COORD97":168546.95999999999,"N_COORD97":2557977.04,"ADDRESS":"西港４６號之３","OBJECTID":18778},"geometry":{"x":168546.95999999996,"y":2557977.0399999991}},{"attributes":{"ID":18779,"DIS_CODE":0,"TOWNNAME":"永康區","LI":"二王里","LIN":"47鄰","STREET":"南工街","SECT":" ","MAREA":" ","LANE":"２２６巷","ALLEY":"１弄","HOUSE_NO":"５號三樓之１","E_COORD97":171963.01999999999,"N_COORD97":2546027.73,"ADDRESS":"南工街２２６巷１弄５號三樓之１","OBJECTID":18779},"geometry":{"x":171963.02000000048,"y":2546027.7300000023}},{"attributes":{"ID":18780,"DIS_CODE":0,"TOWNNAME":"永康區","LI":"二王里","LIN":"47鄰","STREET":"南工街","SECT":" ","MAREA":" ","LANE":"２２６巷","ALLEY":"１弄","HOUSE_NO":"１號二樓之１","E_COORD97":171984.91,"N_COORD97":2546024.98,"ADDRESS":"南工街２２６巷１弄１號二樓之１","OBJECTID":18780},"geometry":{"x":171984.91000000108,"y":2546024.9799999986}},{"attributes":{"ID":18781,"DIS_CODE":0,"TOWNNAME":"西港區","LI":"西港里","LIN":"14鄰","STREET":" ","SECT":" ","MAREA":"西港","LANE":" ","ALLEY":" ","HOUSE_NO":"４６號之４","E_COORD97":168550.82999999999,"N_COORD97":2557978.21,"ADDRESS":"西港４６號之４","OBJECTID":18781},"geometry":{"x":168550.83000000101,"y":2557978.2100000009}},{"attributes":{"ID":18782,"DIS_CODE":0,"TOWNNAME":"永康區","LI":"二王里","LIN":"47鄰","STREET":"南工街","SECT":" ","MAREA":" ","LANE":"２２６巷","ALLEY":"１弄","HOUSE_NO":"２號二樓之１","E_COORD97":171984.51999999999,"N_COORD97":2546036.2599999998,"ADDRESS":"南工街２２６巷１弄２號二樓之１","OBJECTID":18782},"geometry":{"x":171984.52000000142,"y":2546036.2600000035}},{"attributes":{"ID":18783,"DIS_CODE":0,"TOWNNAME":"西港區","LI":"西港里","LIN":"14鄰","STREET":" ","SECT":" ","MAREA":"西港","LANE":" ","ALLEY":" ","HOUSE_NO":"４６號之５","E_COORD97":168554.73000000001,"N_COORD97":2557979.0600000001,"ADDRESS":"西港４６號之５","OBJECTID":18783},"geometry":{"x":168554.73000000231,"y":2557979.0600000042}},{"attributes":{"ID":18784,"DIS_CODE":0,"TOWNNAME":"歸仁區","LI":"文化里","LIN":"24鄰","STREET":"大德路","SECT":" ","MAREA":" ","LANE":" ","ALLEY":" ","HOUSE_NO":"２５３號八樓之７","E_COORD97":177107.91,"N_COORD97":2541521.3399999999,"ADDRESS":"大德路２５３號八樓之７","OBJECTID":18784},"geometry":{"x":177107.91000000015,"y":2541521.3400000017}},{"attributes":{"ID":18785,"DIS_CODE":0,"TOWNNAME":"西港區","LI":"西港里","LIN":"14鄰","STREET":" ","SECT":" ","MAREA":"西港","LANE":" ","ALLEY":" ","HOUSE_NO":"４６號之６","E_COORD97":168549.07000000001,"N_COORD97":2557941.0600000001,"ADDRESS":"西港４６號之６","OBJECTID":18785},"geometry":{"x":168549.07000000123,"y":2557941.0600000005}},{"attributes":{"ID":18786,"DIS_CODE":0,"TOWNNAME":"西港區","LI":"西港里","LIN":"14鄰","STREET":" ","SECT":" ","MAREA":"西港","LANE":" ","ALLEY":" ","HOUSE_NO":"４６號之７","E_COORD97":168541.26000000001,"N_COORD97":2557957.3199999998,"ADDRESS":"西港４６號之７","OBJECTID":18786},"geometry":{"x":168541.25999999978,"y":2557957.3200000022}},{"attributes":{"ID":18787,"DIS_CODE":0,"TOWNNAME":"西港區","LI":"西港里","LIN":"14鄰","STREET":" ","SECT":" ","MAREA":"西港","LANE":" ","ALLEY":" ","HOUSE_NO":"４６號之８","E_COORD97":168545.97,"N_COORD97":2557958.4900000002,"ADDRESS":"西港４６號之８","OBJECTID":18787},"geometry":{"x":168545.97000000067,"y":2557958.4900000002}},{"attributes":{"ID":18788,"DIS_CODE":0,"TOWNNAME":"歸仁區","LI":"文化里","LIN":"24鄰","STREET":"大德路","SECT":" ","MAREA":" ","LANE":" ","ALLEY":" ","HOUSE_NO":"２５３號七樓之８","E_COORD97":177107.92999999999,"N_COORD97":2541521.3399999999,"ADDRESS":"大德路２５３號七樓之８","OBJECTID":18788},"geometry":{"x":177107.9299999997,"y":2541521.3400000017}},{"attributes":{"ID":18789,"DIS_CODE":0,"TOWNNAME":"西港區","LI":"西港里","LIN":"14鄰","STREET":" ","SECT":" ","MAREA":"西港","LANE":" ","ALLEY":" ","HOUSE_NO":"４６號之９","E_COORD97":168549.82000000001,"N_COORD97":2557959.4300000002,"ADDRESS":"西港４６號之９","OBJECTID":18789},"geometry":{"x":168549.8200000003,"y":2557959.4300000016}},{"attributes":{"ID":18790,"DIS_CODE":0,"TOWNNAME":"歸仁區","LI":"文化里","LIN":"24鄰","STREET":"大德路","SECT":" ","MAREA":" ","LANE":" ","ALLEY":" ","HOUSE_NO":"２５３號十二樓之１","E_COORD97":177108.14999999999,"N_COORD97":2541521.3399999999,"ADDRESS":"大德路２５３號十二樓之１","OBJECTID":18790},"geometry":{"x":177108.1500000013,"y":2541521.3400000017}},{"attributes":{"ID":18791,"DIS_CODE":0,"TOWNNAME":"西港區","LI":"西港里","LIN":"14鄰","STREET":" ","SECT":" ","MAREA":"西港","LANE":" ","ALLEY":" ","HOUSE_NO":"５５號之１５","E_COORD97":168564.57999999999,"N_COORD97":2557844.1800000002,"ADDRESS":"西港５５號之１５","OBJECTID":18791},"geometry":{"x":168564.58000000101,"y":2557844.1799999997}},{"attributes":{"ID":18792,"DIS_CODE":0,"TOWNNAME":"西港區","LI":"西港里","LIN":"14鄰","STREET":" ","SECT":" ","MAREA":"西港","LANE":" ","ALLEY":" ","HOUSE_NO":"５４號","E_COORD97":168627.97,"N_COORD97":2557851.7200000002,"ADDRESS":"西港５４號","OBJECTID":18792},"geometry":{"x":168627.96999999974,"y":2557851.7200000007}},{"attributes":{"ID":18793,"DIS_CODE":0,"TOWNNAME":"歸仁區","LI":"文化里","LIN":"24鄰","STREET":"大德路","SECT":" ","MAREA":" ","LANE":" ","ALLEY":" ","HOUSE_NO":"２５３號八樓之５","E_COORD97":177107.92999999999,"N_COORD97":2541521.3399999999,"ADDRESS":"大德路２５３號八樓之５","OBJECTID":18793},"geometry":{"x":177107.9299999997,"y":2541521.3400000017}},{"attributes":{"ID":18794,"DIS_CODE":0,"TOWNNAME":"歸仁區","LI":"文化里","LIN":"24鄰","STREET":"大德路","SECT":" ","MAREA":" ","LANE":" ","ALLEY":" ","HOUSE_NO":"２５３號七樓之１","E_COORD97":177107.89999999999,"N_COORD97":2541521.3399999999,"ADDRESS":"大德路２５３號七樓之１","OBJECTID":18794},"geometry":{"x":177107.9000000013,"y":2541521.3400000017}},{"attributes":{"ID":18795,"DIS_CODE":0,"TOWNNAME":"歸仁區","LI":"文化里","LIN":"24鄰","STREET":"大德路","SECT":" ","MAREA":" ","LANE":" ","ALLEY":" ","HOUSE_NO":"２５３號十樓之１","E_COORD97":177107.89999999999,"N_COORD97":2541521.3399999999,"ADDRESS":"大德路２５３號十樓之１","OBJECTID":18795},"geometry":{"x":177107.9000000013,"y":2541521.3400000017}},{"attributes":{"ID":18796,"DIS_CODE":0,"TOWNNAME":"歸仁區","LI":"文化里","LIN":"24鄰","STREET":"大德路","SECT":" ","MAREA":" ","LANE":" ","ALLEY":" ","HOUSE_NO":"２５３號八樓之１","E_COORD97":177107.89999999999,"N_COORD97":2541521.3399999999,"ADDRESS":"大德路２５３號八樓之１","OBJECTID":18796},"geometry":{"x":177107.9000000013,"y":2541521.3400000017}},{"attributes":{"ID":18797,"DIS_CODE":0,"TOWNNAME":"歸仁區","LI":"文化里","LIN":"24鄰","STREET":"大德路","SECT":" ","MAREA":" ","LANE":" ","ALLEY":" ","HOUSE_NO":"２５３號十一樓之７","E_COORD97":177108.16,"N_COORD97":2541521.3399999999,"ADDRESS":"大德路２５３號十一樓之７","OBJECTID":18797},"geometry":{"x":177108.16000000015,"y":2541521.3400000017}},{"attributes":{"ID":18798,"DIS_CODE":0,"TOWNNAME":"西港區","LI":"西港里","LIN":"14鄰","STREET":" ","SECT":" ","MAREA":"西港","LANE":" ","ALLEY":" ","HOUSE_NO":"５５號之１０","E_COORD97":168568.84,"N_COORD97":2557822.0600000001,"ADDRESS":"西港５５號之１０","OBJECTID":18798},"geometry":{"x":168568.84000000078,"y":2557822.0600000005}},{"attributes":{"ID":18799,"DIS_CODE":0,"TOWNNAME":"西港區","LI":"西港里","LIN":"14鄰","STREET":" ","SECT":" ","MAREA":"西港","LANE":" ","ALLEY":" ","HOUSE_NO":"５５號之１１","E_COORD97":168568.20999999999,"N_COORD97":2557826.6699999999,"ADDRESS":"西港５５號之１１","OBJECTID":18799},"geometry":{"x":168568.21000000089,"y":2557826.6700000018}},{"attributes":{"ID":18800,"DIS_CODE":0,"TOWNNAME":"永康區","LI":"二王里","LIN":"47鄰","STREET":"南工街","SECT":" ","MAREA":" ","LANE":"２２６巷","ALLEY":"１弄","HOUSE_NO":"１號二樓之２","E_COORD97":171985.04999999999,"N_COORD97":2546024.98,"ADDRESS":"南工街２２６巷１弄１號二樓之２","OBJECTID":18800},"geometry":{"x":171985.05000000075,"y":2546024.9799999986}}]}