{"displayFieldName":"TOWNNAME","fieldAliases":{"ID":"ID","DIS_CODE":"DIS_CODE","TOWNNAME":"TOWNNAME","LI":"LI","LIN":"LIN","STREET":"STREET","SECT":"SECT","MAREA":"MAREA","LANE":"LANE","ALLEY":"ALLEY","HOUSE_NO":"HOUSE_NO","E_COORD97":"E_COORD97","N_COORD97":"N_COORD97","ADDRESS":"ADDRESS","OBJECTID":"OBJECTID"},"geometryType":"esriGeometryPoint","spatialReference":{"wkid":102443,"latestWkid":3826},"fields":[{"name":"ID","type":"esriFieldTypeDouble","alias":"ID"},{"name":"DIS_CODE","type":"esriFieldTypeInteger","alias":"DIS_CODE"},{"name":"TOWNNAME","type":"esriFieldTypeString","alias":"TOWNNAME","length":8},{"name":"LI","type":"esriFieldTypeString","alias":"LI","length":8},{"name":"LIN","type":"esriFieldTypeString","alias":"LIN","length":12},{"name":"STREET","type":"esriFieldTypeString","alias":"STREET","length":20},{"name":"SECT","type":"esriFieldTypeString","alias":"SECT","length":8},{"name":"MAREA","type":"esriFieldTypeString","alias":"MAREA","length":12},{"name":"LANE","type":"esriFieldTypeString","alias":"LANE","length":10},{"name":"ALLEY","type":"esriFieldTypeString","alias":"ALLEY","length":10},{"name":"HOUSE_NO","type":"esriFieldTypeString","alias":"HOUSE_NO","length":20},{"name":"E_COORD97","type":"esriFieldTypeDouble","alias":"E_COORD97"},{"name":"N_COORD97","type":"esriFieldTypeDouble","alias":"N_COORD97"},{"name":"ADDRESS","type":"esriFieldTypeString","alias":"ADDRESS","length":50},{"name":"OBJECTID","type":"esriFieldTypeOID","alias":"OBJECTID"}],"features":[{"attributes":{"ID":77401,"DIS_CODE":0,"TOWNNAME":"永康區","LI":"六合里","LIN":"19鄰","STREET":"中華二路","SECT":" ","MAREA":" ","LANE":"３４０巷","ALLEY":"１５弄","HOUSE_NO":"６號","E_COORD97":171146.31,"N_COORD97":2545520,"ADDRESS":"中華二路３４０巷１５弄６號","OBJECTID":77401},"geometry":{"x":171146.30999999959,"y":2545520.0000000019}},{"attributes":{"ID":77402,"DIS_CODE":0,"TOWNNAME":"永康區","LI":"六合里","LIN":"19鄰","STREET":"中華二路","SECT":" ","MAREA":" ","LANE":"３４０巷","ALLEY":"１５弄","HOUSE_NO":"８號","E_COORD97":171121.69,"N_COORD97":2545514.75,"ADDRESS":"中華二路３４０巷１５弄８號","OBJECTID":77402},"geometry":{"x":171121.69000000134,"y":2545514.7500000019}},{"attributes":{"ID":77403,"DIS_CODE":0,"TOWNNAME":"永康區","LI":"龍潭里","LIN":"19鄰","STREET":"自強路","SECT":" ","MAREA":" ","LANE":"８７２巷","ALLEY":"９弄","HOUSE_NO":"１８號","E_COORD97":174776.14000000001,"N_COORD97":2548708.8599999999,"ADDRESS":"自強路８７２巷９弄１８號","OBJECTID":77403},"geometry":{"x":174776.1400000006,"y":2548708.8599999994}},{"attributes":{"ID":77404,"DIS_CODE":0,"TOWNNAME":"新營區","LI":"護鎮里","LIN":" ","STREET":" ","SECT":" ","MAREA":"後鎮","LANE":" ","ALLEY":" ","HOUSE_NO":"８５之１８號","E_COORD97":179229.29999999999,"N_COORD97":2580913.1800000002,"ADDRESS":"後鎮８５之１８號","OBJECTID":77404},"geometry":{"x":179229.29999999981,"y":2580913.1799999978}},{"attributes":{"ID":77405,"DIS_CODE":0,"TOWNNAME":"西港區","LI":"港東里","LIN":"6鄰","STREET":" ","SECT":" ","MAREA":"烏竹林","LANE":" ","ALLEY":" ","HOUSE_NO":"１號之１９","E_COORD97":169667.51000000001,"N_COORD97":2557926.6000000001,"ADDRESS":"烏竹林１號之１９","OBJECTID":77405},"geometry":{"x":169667.51000000164,"y":2557926.5999999996}},{"attributes":{"ID":77406,"DIS_CODE":0,"TOWNNAME":"永康區","LI":"龍潭里","LIN":"19鄰","STREET":"自強路","SECT":" ","MAREA":" ","LANE":"８７２巷","ALLEY":"９弄","HOUSE_NO":"２０號","E_COORD97":174781.04000000001,"N_COORD97":2548708.6000000001,"ADDRESS":"自強路８７２巷９弄２０號","OBJECTID":77406},"geometry":{"x":174781.04000000097,"y":2548708.6000000034}},{"attributes":{"ID":77407,"DIS_CODE":0,"TOWNNAME":"永康區","LI":"龍潭里","LIN":"19鄰","STREET":"自強路","SECT":" ","MAREA":" ","LANE":"８７２巷","ALLEY":"９弄","HOUSE_NO":"１號","E_COORD97":174740.64000000001,"N_COORD97":2548710.4399999999,"ADDRESS":"自強路８７２巷９弄１號","OBJECTID":77407},"geometry":{"x":174740.6400000006,"y":2548710.4400000013}},{"attributes":{"ID":77408,"DIS_CODE":0,"TOWNNAME":"永康區","LI":"龍潭里","LIN":"19鄰","STREET":"自強路","SECT":" ","MAREA":" ","LANE":"８７２巷","ALLEY":"９弄","HOUSE_NO":"３號","E_COORD97":174738.84,"N_COORD97":2548720.2999999998,"ADDRESS":"自強路８７２巷９弄３號","OBJECTID":77408},"geometry":{"x":174738.83999999985,"y":2548720.3000000026}},{"attributes":{"ID":77409,"DIS_CODE":0,"TOWNNAME":"永康區","LI":"龍潭里","LIN":"19鄰","STREET":"自強路","SECT":" ","MAREA":" ","LANE":"８７２巷","ALLEY":"９弄","HOUSE_NO":"５號","E_COORD97":174743.67000000001,"N_COORD97":2548721.29,"ADDRESS":"自強路８７２巷９弄５號","OBJECTID":77409},"geometry":{"x":174743.67000000179,"y":2548721.290000001}},{"attributes":{"ID":77410,"DIS_CODE":0,"TOWNNAME":"永康區","LI":"龍潭里","LIN":"19鄰","STREET":"自強路","SECT":" ","MAREA":" ","LANE":"８７２巷","ALLEY":"９弄","HOUSE_NO":"７號","E_COORD97":174748.32000000001,"N_COORD97":2548722.4700000002,"ADDRESS":"自強路８７２巷９弄７號","OBJECTID":77410},"geometry":{"x":174748.32000000123,"y":2548722.4700000025}},{"attributes":{"ID":77411,"DIS_CODE":0,"TOWNNAME":"永康區","LI":"龍潭里","LIN":"19鄰","STREET":"自強路","SECT":" ","MAREA":" ","LANE":"８７２巷","ALLEY":"９弄","HOUSE_NO":"９號","E_COORD97":174752.16,"N_COORD97":2548723,"ADDRESS":"自強路８７２巷９弄９號","OBJECTID":77411},"geometry":{"x":174752.16000000015,"y":2548723}},{"attributes":{"ID":77412,"DIS_CODE":0,"TOWNNAME":"永康區","LI":"龍潭里","LIN":"19鄰","STREET":"自強路","SECT":" ","MAREA":" ","LANE":"８７２巷","ALLEY":"９弄","HOUSE_NO":"１１號","E_COORD97":174755.45000000001,"N_COORD97":2548725.6299999999,"ADDRESS":"自強路８７２巷９弄１１號","OBJECTID":77412},"geometry":{"x":174755.44999999925,"y":2548725.6300000008}},{"attributes":{"ID":77413,"DIS_CODE":0,"TOWNNAME":"永康區","LI":"龍潭里","LIN":"19鄰","STREET":"自強路","SECT":" ","MAREA":" ","LANE":"８７２巷","ALLEY":"９弄","HOUSE_NO":"１３號","E_COORD97":174755.66,"N_COORD97":2548731.4100000001,"ADDRESS":"自強路８７２巷９弄１３號","OBJECTID":77413},"geometry":{"x":174755.66000000015,"y":2548731.410000002}},{"attributes":{"ID":77414,"DIS_CODE":0,"TOWNNAME":"永康區","LI":"龍潭里","LIN":"19鄰","STREET":"自強路","SECT":" ","MAREA":" ","LANE":"８７２巷","ALLEY":"９弄","HOUSE_NO":"１５號","E_COORD97":174760.92000000001,"N_COORD97":2548732.8599999999,"ADDRESS":"自強路８７２巷９弄１５號","OBJECTID":77414},"geometry":{"x":174760.92000000086,"y":2548732.8599999994}},{"attributes":{"ID":77415,"DIS_CODE":0,"TOWNNAME":"永康區","LI":"龍潭里","LIN":"19鄰","STREET":"自強路","SECT":" ","MAREA":" ","LANE":"８７２巷","ALLEY":"９弄","HOUSE_NO":"１７號","E_COORD97":174764.92999999999,"N_COORD97":2548733.9300000002,"ADDRESS":"自強路８７２巷９弄１７號","OBJECTID":77415},"geometry":{"x":174764.9299999997,"y":2548733.9300000016}},{"attributes":{"ID":77416,"DIS_CODE":0,"TOWNNAME":"永康區","LI":"龍潭里","LIN":"19鄰","STREET":"自強路","SECT":" ","MAREA":" ","LANE":"８７２巷","ALLEY":"９弄","HOUSE_NO":"１９號","E_COORD97":174769.13,"N_COORD97":2548735.75,"ADDRESS":"自強路８７２巷９弄１９號","OBJECTID":77416},"geometry":{"x":174769.12999999989,"y":2548735.7500000019}},{"attributes":{"ID":77417,"DIS_CODE":0,"TOWNNAME":"永康區","LI":"龍潭里","LIN":"19鄰","STREET":"自強路","SECT":" ","MAREA":" ","LANE":"８７２巷","ALLEY":"９弄","HOUSE_NO":"２號","E_COORD97":174754.76999999999,"N_COORD97":2548693.3199999998,"ADDRESS":"自強路８７２巷９弄２號","OBJECTID":77417},"geometry":{"x":174754.77000000048,"y":2548693.3200000003}},{"attributes":{"ID":77418,"DIS_CODE":0,"TOWNNAME":"永康區","LI":"龍潭里","LIN":"19鄰","STREET":"自強路","SECT":" ","MAREA":" ","LANE":"８７２巷","ALLEY":"９弄","HOUSE_NO":"６號","E_COORD97":174757.06,"N_COORD97":2548697.8300000001,"ADDRESS":"自強路８７２巷９弄６號","OBJECTID":77418},"geometry":{"x":174757.05999999959,"y":2548697.8300000019}},{"attributes":{"ID":77419,"DIS_CODE":0,"TOWNNAME":"永康區","LI":"龍潭里","LIN":"19鄰","STREET":"自強路","SECT":" ","MAREA":" ","LANE":"８７２巷","ALLEY":"９弄","HOUSE_NO":"８號","E_COORD97":174761.44,"N_COORD97":2548698.98,"ADDRESS":"自強路８７２巷９弄８號","OBJECTID":77419},"geometry":{"x":174761.44000000134,"y":2548698.9800000004}},{"attributes":{"ID":77420,"DIS_CODE":0,"TOWNNAME":"永康區","LI":"龍潭里","LIN":"19鄰","STREET":"自強路","SECT":" ","MAREA":" ","LANE":"８７２巷","ALLEY":"９弄","HOUSE_NO":"１０號","E_COORD97":174766.13,"N_COORD97":2548700.8999999999,"ADDRESS":"自強路８７２巷９弄１０號","OBJECTID":77420},"geometry":{"x":174766.13000000082,"y":2548700.9000000041}},{"attributes":{"ID":77421,"DIS_CODE":0,"TOWNNAME":"永康區","LI":"龍潭里","LIN":"19鄰","STREET":"自強路","SECT":" ","MAREA":" ","LANE":"８７２巷","ALLEY":"９弄","HOUSE_NO":"１２號","E_COORD97":174769.47,"N_COORD97":2548703.5499999998,"ADDRESS":"自強路８７２巷９弄１２號","OBJECTID":77421},"geometry":{"x":174769.46999999974,"y":2548703.5500000045}},{"attributes":{"ID":77422,"DIS_CODE":0,"TOWNNAME":"永康區","LI":"龍潭里","LIN":"19鄰","STREET":"自強路","SECT":" ","MAREA":" ","LANE":"８７２巷","ALLEY":"９弄","HOUSE_NO":"１６號","E_COORD97":174771.92999999999,"N_COORD97":2548707.2999999998,"ADDRESS":"自強路８７２巷９弄１６號","OBJECTID":77422},"geometry":{"x":174771.9299999997,"y":2548707.3000000007}},{"attributes":{"ID":77423,"DIS_CODE":0,"TOWNNAME":"永康區","LI":"龍潭里","LIN":"19鄰","STREET":"自強路","SECT":" ","MAREA":" ","LANE":"８７２巷","ALLEY":"９弄","HOUSE_NO":"２２號","E_COORD97":174783.29000000001,"N_COORD97":2548712.7999999998,"ADDRESS":"自強路８７２巷９弄２２號","OBJECTID":77423},"geometry":{"x":174783.29000000004,"y":2548712.8000000026}},{"attributes":{"ID":77424,"DIS_CODE":0,"TOWNNAME":"永康區","LI":"龍潭里","LIN":"19鄰","STREET":"自強路","SECT":" ","MAREA":" ","LANE":"８７２巷","ALLEY":"９弄","HOUSE_NO":"２６號","E_COORD97":174787.66,"N_COORD97":2548715.5699999998,"ADDRESS":"自強路８７２巷９弄２６號","OBJECTID":77424},"geometry":{"x":174787.66000000015,"y":2548715.5700000003}},{"attributes":{"ID":77425,"DIS_CODE":0,"TOWNNAME":"西港區","LI":"港東里","LIN":"6鄰","STREET":" ","SECT":" ","MAREA":"烏竹林","LANE":" ","ALLEY":" ","HOUSE_NO":"１號之２","E_COORD97":169652.82999999999,"N_COORD97":2557980.5,"ADDRESS":"烏竹林１號之２","OBJECTID":77425},"geometry":{"x":169652.83000000101,"y":2557980.5000000019}},{"attributes":{"ID":77426,"DIS_CODE":0,"TOWNNAME":"西港區","LI":"港東里","LIN":"6鄰","STREET":" ","SECT":" ","MAREA":"烏竹林","LANE":" ","ALLEY":" ","HOUSE_NO":"１號之３","E_COORD97":169663.54999999999,"N_COORD97":2558006.9700000002,"ADDRESS":"烏竹林１號之３","OBJECTID":77426},"geometry":{"x":169663.54999999981,"y":2558006.9700000044}},{"attributes":{"ID":77427,"DIS_CODE":0,"TOWNNAME":"永康區","LI":"龍潭里","LIN":"19鄰","STREET":"自強路","SECT":" ","MAREA":" ","LANE":"８７２巷","ALLEY":"９弄","HOUSE_NO":"２８號","E_COORD97":174790.98000000001,"N_COORD97":2548718.3300000001,"ADDRESS":"自強路８７２巷９弄２８號","OBJECTID":77427},"geometry":{"x":174790.98000000045,"y":2548718.3300000019}},{"attributes":{"ID":77428,"DIS_CODE":0,"TOWNNAME":"永康區","LI":"龍潭里","LIN":"19鄰","STREET":"自強路","SECT":" ","MAREA":" ","LANE":"８７２巷","ALLEY":"９弄","HOUSE_NO":"３０號","E_COORD97":174794.35999999999,"N_COORD97":2548719.8900000001,"ADDRESS":"自強路８７２巷９弄３０號","OBJECTID":77428},"geometry":{"x":174794.36000000127,"y":2548719.8900000006}},{"attributes":{"ID":77429,"DIS_CODE":0,"TOWNNAME":"西港區","LI":"港東里","LIN":"6鄰","STREET":" ","SECT":" ","MAREA":"烏竹林","LANE":" ","ALLEY":" ","HOUSE_NO":"１號之４","E_COORD97":169664.13,"N_COORD97":2557962.1600000001,"ADDRESS":"烏竹林１號之４","OBJECTID":77429},"geometry":{"x":169664.13000000082,"y":2557962.160000002}},{"attributes":{"ID":77430,"DIS_CODE":0,"TOWNNAME":"西港區","LI":"港東里","LIN":"6鄰","STREET":" ","SECT":" ","MAREA":"烏竹林","LANE":" ","ALLEY":" ","HOUSE_NO":"１號之５","E_COORD97":169667.87,"N_COORD97":2557950.1499999999,"ADDRESS":"烏竹林１號之５","OBJECTID":77430},"geometry":{"x":169667.87000000104,"y":2557950.1500000004}},{"attributes":{"ID":77431,"DIS_CODE":0,"TOWNNAME":"永康區","LI":"龍潭里","LIN":"19鄰","STREET":"自強路","SECT":" ","MAREA":" ","LANE":"８７２巷","ALLEY":"１５弄","HOUSE_NO":"１號","E_COORD97":174770.13,"N_COORD97":2548674.71,"ADDRESS":"自強路８７２巷１５弄１號","OBJECTID":77431},"geometry":{"x":174770.13000000082,"y":2548674.7100000009}},{"attributes":{"ID":77432,"DIS_CODE":0,"TOWNNAME":"西港區","LI":"港東里","LIN":"6鄰","STREET":" ","SECT":" ","MAREA":"烏竹林","LANE":" ","ALLEY":" ","HOUSE_NO":"１號之６","E_COORD97":169663.56,"N_COORD97":2557950.1899999999,"ADDRESS":"烏竹林１號之６","OBJECTID":77432},"geometry":{"x":169663.56000000145,"y":2557950.1900000032}},{"attributes":{"ID":77433,"DIS_CODE":0,"TOWNNAME":"新營區","LI":"太北里","LIN":"2鄰","STREET":" ","SECT":" ","MAREA":"太子宮","LANE":" ","ALLEY":" ","HOUSE_NO":"１５號之９","E_COORD97":176157.47,"N_COORD97":2577149.52,"ADDRESS":"太子宮１５號之９","OBJECTID":77433},"geometry":{"x":176157.47000000067,"y":2577149.5199999996}},{"attributes":{"ID":77434,"DIS_CODE":0,"TOWNNAME":"南化區","LI":"西埔里","LIN":"7鄰","STREET":" ","SECT":" ","MAREA":"西埔","LANE":" ","ALLEY":" ","HOUSE_NO":"５６號","E_COORD97":194266.44,"N_COORD97":2548255.75,"ADDRESS":"西埔５６號","OBJECTID":77434},"geometry":{"x":194266.44000000134,"y":2548255.75}},{"attributes":{"ID":77435,"DIS_CODE":0,"TOWNNAME":"永康區","LI":"龍潭里","LIN":"19鄰","STREET":"自強路","SECT":" ","MAREA":" ","LANE":"８７２巷","ALLEY":"１５弄","HOUSE_NO":"５號","E_COORD97":174775.28,"N_COORD97":2548683.27,"ADDRESS":"自強路８７２巷１５弄５號","OBJECTID":77435},"geometry":{"x":174775.28000000026,"y":2548683.2699999996}},{"attributes":{"ID":77436,"DIS_CODE":0,"TOWNNAME":"新營區","LI":"太南里","LIN":"4鄰","STREET":" ","SECT":" ","MAREA":"太子宮","LANE":" ","ALLEY":" ","HOUSE_NO":"３３４號","E_COORD97":176375.81,"N_COORD97":2577060.8900000001,"ADDRESS":"太子宮３３４號","OBJECTID":77436},"geometry":{"x":176375.80999999959,"y":2577060.8900000006}},{"attributes":{"ID":77437,"DIS_CODE":0,"TOWNNAME":"西港區","LI":"港東里","LIN":"6鄰","STREET":" ","SECT":" ","MAREA":"烏竹林","LANE":" ","ALLEY":" ","HOUSE_NO":"１號之８","E_COORD97":169646.64000000001,"N_COORD97":2557959.8199999998,"ADDRESS":"烏竹林１號之８","OBJECTID":77437},"geometry":{"x":169646.6400000006,"y":2557959.8200000003}},{"attributes":{"ID":77438,"DIS_CODE":0,"TOWNNAME":"西港區","LI":"港東里","LIN":"6鄰","STREET":" ","SECT":" ","MAREA":"烏竹林","LANE":" ","ALLEY":" ","HOUSE_NO":"１號之９","E_COORD97":169643.89999999999,"N_COORD97":2557953.4900000002,"ADDRESS":"烏竹林１號之９","OBJECTID":77438},"geometry":{"x":169643.9000000013,"y":2557953.4900000021}},{"attributes":{"ID":77439,"DIS_CODE":0,"TOWNNAME":"西港區","LI":"港東里","LIN":"6鄰","STREET":" ","SECT":" ","MAREA":"烏竹林","LANE":" ","ALLEY":" ","HOUSE_NO":"２號之１１","E_COORD97":169716.41,"N_COORD97":2557936.8999999999,"ADDRESS":"烏竹林２號之１１","OBJECTID":77439},"geometry":{"x":169716.41000000108,"y":2557936.9000000022}},{"attributes":{"ID":77440,"DIS_CODE":0,"TOWNNAME":"西港區","LI":"港東里","LIN":"6鄰","STREET":" ","SECT":" ","MAREA":"烏竹林","LANE":" ","ALLEY":" ","HOUSE_NO":"５號之１","E_COORD97":169875.89999999999,"N_COORD97":2558039.1000000001,"ADDRESS":"烏竹林５號之１","OBJECTID":77440},"geometry":{"x":169875.9000000013,"y":2558039.1000000034}},{"attributes":{"ID":77441,"DIS_CODE":0,"TOWNNAME":"西港區","LI":"港東里","LIN":"6鄰","STREET":" ","SECT":" ","MAREA":"烏竹林","LANE":" ","ALLEY":" ","HOUSE_NO":"５號之２","E_COORD97":169893.98000000001,"N_COORD97":2558040.8599999999,"ADDRESS":"烏竹林５號之２","OBJECTID":77441},"geometry":{"x":169893.98000000231,"y":2558040.8600000013}},{"attributes":{"ID":77442,"DIS_CODE":0,"TOWNNAME":"永康區","LI":"龍潭里","LIN":"19鄰","STREET":"自強路","SECT":" ","MAREA":" ","LANE":"８７２巷","ALLEY":"１５弄","HOUSE_NO":"７號","E_COORD97":174778.64999999999,"N_COORD97":2548685.9399999999,"ADDRESS":"自強路８７２巷１５弄７號","OBJECTID":77442},"geometry":{"x":174778.6500000013,"y":2548685.9400000032}},{"attributes":{"ID":77443,"DIS_CODE":0,"TOWNNAME":"西港區","LI":"港東里","LIN":"6鄰","STREET":" ","SECT":" ","MAREA":"烏竹林","LANE":" ","ALLEY":" ","HOUSE_NO":"５之８號","E_COORD97":169924.10999999999,"N_COORD97":2558034.2799999998,"ADDRESS":"烏竹林５之８號","OBJECTID":77443},"geometry":{"x":169924.11000000127,"y":2558034.2800000031}},{"attributes":{"ID":77444,"DIS_CODE":0,"TOWNNAME":"永康區","LI":"龍潭里","LIN":"19鄰","STREET":"自強路","SECT":" ","MAREA":" ","LANE":"８７２巷","ALLEY":"１５弄","HOUSE_NO":"９號","E_COORD97":174782.01999999999,"N_COORD97":2548688.6099999999,"ADDRESS":"自強路８７２巷１５弄９號","OBJECTID":77444},"geometry":{"x":174782.02000000048,"y":2548688.6100000013}},{"attributes":{"ID":77445,"DIS_CODE":0,"TOWNNAME":"西港區","LI":"港東里","LIN":"6鄰","STREET":" ","SECT":" ","MAREA":"烏竹林","LANE":" ","ALLEY":" ","HOUSE_NO":"７號","E_COORD97":169880.92999999999,"N_COORD97":2557960.5,"ADDRESS":"烏竹林７號","OBJECTID":77445},"geometry":{"x":169880.9299999997,"y":2557960.5}},{"attributes":{"ID":77446,"DIS_CODE":0,"TOWNNAME":"西港區","LI":"港東里","LIN":"6鄰","STREET":" ","SECT":" ","MAREA":"烏竹林","LANE":" ","ALLEY":" ","HOUSE_NO":"８號","E_COORD97":169884.85999999999,"N_COORD97":2557947.96,"ADDRESS":"烏竹林８號","OBJECTID":77446},"geometry":{"x":169884.86000000127,"y":2557947.9600000028}},{"attributes":{"ID":77447,"DIS_CODE":0,"TOWNNAME":"永康區","LI":"龍潭里","LIN":"19鄰","STREET":"自強路","SECT":" ","MAREA":" ","LANE":"８７２巷","ALLEY":"１５弄","HOUSE_NO":"１１號","E_COORD97":174785.94,"N_COORD97":2548691.73,"ADDRESS":"自強路８７２巷１５弄１１號","OBJECTID":77447},"geometry":{"x":174785.94000000041,"y":2548691.7300000042}},{"attributes":{"ID":77448,"DIS_CODE":0,"TOWNNAME":"西港區","LI":"新復里","LIN":"6鄰","STREET":" ","SECT":" ","MAREA":"新港","LANE":" ","ALLEY":" ","HOUSE_NO":"４８號","E_COORD97":166390.32999999999,"N_COORD97":2556529.3399999999,"ADDRESS":"新港４８號","OBJECTID":77448},"geometry":{"x":166390.33000000007,"y":2556529.3400000017}},{"attributes":{"ID":77449,"DIS_CODE":0,"TOWNNAME":"西港區","LI":"新復里","LIN":"6鄰","STREET":" ","SECT":" ","MAREA":"新港","LANE":" ","ALLEY":" ","HOUSE_NO":"５１號之１","E_COORD97":166452.95000000001,"N_COORD97":2556492.5499999998,"ADDRESS":"新港５１號之１","OBJECTID":77449},"geometry":{"x":166452.95000000112,"y":2556492.5500000026}},{"attributes":{"ID":77450,"DIS_CODE":0,"TOWNNAME":"北區","LI":"永祥里","LIN":"19鄰","STREET":"大武街","SECT":" ","MAREA":" ","LANE":"５４１巷","ALLEY":"１２弄","HOUSE_NO":"８號","E_COORD97":170121.54000000001,"N_COORD97":2546457.8700000001,"ADDRESS":"大武街５４１巷１２弄８號","OBJECTID":77450},"geometry":{"x":170121.54000000004,"y":2546457.8700000029}},{"attributes":{"ID":77451,"DIS_CODE":0,"TOWNNAME":"永康區","LI":"龍潭里","LIN":"19鄰","STREET":"自強路","SECT":" ","MAREA":" ","LANE":"８７２巷","ALLEY":"１５弄","HOUSE_NO":"１３號","E_COORD97":174789.31,"N_COORD97":2548694.4700000002,"ADDRESS":"自強路８７２巷１５弄１３號","OBJECTID":77451},"geometry":{"x":174789.30999999959,"y":2548694.4700000025}},{"attributes":{"ID":77452,"DIS_CODE":0,"TOWNNAME":"西港區","LI":"新復里","LIN":"6鄰","STREET":" ","SECT":" ","MAREA":"新港","LANE":" ","ALLEY":" ","HOUSE_NO":"５１號","E_COORD97":166443.19,"N_COORD97":2556511.4900000002,"ADDRESS":"新港５１號","OBJECTID":77452},"geometry":{"x":166443.19000000134,"y":2556511.4900000039}},{"attributes":{"ID":77453,"DIS_CODE":0,"TOWNNAME":"麻豆區","LI":"北勢里","LIN":"6鄰","STREET":" ","SECT":" ","MAREA":"太子宅","LANE":" ","ALLEY":" ","HOUSE_NO":"５號","E_COORD97":173166.07999999999,"N_COORD97":2565973.3599999999,"ADDRESS":"太子宅５號","OBJECTID":77453},"geometry":{"x":173166.07999999914,"y":2565973.3599999994}},{"attributes":{"ID":77454,"DIS_CODE":0,"TOWNNAME":"永康區","LI":"龍潭里","LIN":"19鄰","STREET":"自強路","SECT":" ","MAREA":" ","LANE":"８７２巷","ALLEY":"１５弄","HOUSE_NO":"１５號","E_COORD97":174792.10999999999,"N_COORD97":2548696.7400000002,"ADDRESS":"自強路８７２巷１５弄１５號","OBJECTID":77454},"geometry":{"x":174792.11000000127,"y":2548696.7400000002}},{"attributes":{"ID":77455,"DIS_CODE":0,"TOWNNAME":"永康區","LI":"龍潭里","LIN":"19鄰","STREET":"自強路","SECT":" ","MAREA":" ","LANE":"８７２巷","ALLEY":"２２弄","HOUSE_NO":"２號","E_COORD97":174744.84,"N_COORD97":2548662.7799999998,"ADDRESS":"自強路８７２巷２２弄２號","OBJECTID":77455},"geometry":{"x":174744.84000000078,"y":2548662.7799999993}},{"attributes":{"ID":77456,"DIS_CODE":0,"TOWNNAME":"永康區","LI":"龍潭里","LIN":"19鄰","STREET":"自強路","SECT":" ","MAREA":" ","LANE":"８７２巷","ALLEY":"２２弄","HOUSE_NO":"６號","E_COORD97":174741.47,"N_COORD97":2548659.5299999998,"ADDRESS":"自強路８７２巷２２弄６號","OBJECTID":77456},"geometry":{"x":174741.4700000016,"y":2548659.5300000012}},{"attributes":{"ID":77457,"DIS_CODE":0,"TOWNNAME":"麻豆區","LI":"北勢里","LIN":"6鄰","STREET":" ","SECT":" ","MAREA":"太子宅","LANE":" ","ALLEY":" ","HOUSE_NO":"６號","E_COORD97":173155.42999999999,"N_COORD97":2565966.6299999999,"ADDRESS":"太子宅６號","OBJECTID":77457},"geometry":{"x":173155.43000000063,"y":2565966.629999999}},{"attributes":{"ID":77458,"DIS_CODE":0,"TOWNNAME":"永康區","LI":"龍潭里","LIN":"19鄰","STREET":"自強路","SECT":" ","MAREA":" ","LANE":"８７２巷","ALLEY":"２２弄","HOUSE_NO":"８號","E_COORD97":174738.92999999999,"N_COORD97":2548656.7799999998,"ADDRESS":"自強路８７２巷２２弄８號","OBJECTID":77458},"geometry":{"x":174738.93000000063,"y":2548656.7800000012}},{"attributes":{"ID":77459,"DIS_CODE":0,"TOWNNAME":"關廟區","LI":"香洋里","LIN":"7鄰","STREET":"南雄路","SECT":"二段","MAREA":" ","LANE":"５１巷","ALLEY":" ","HOUSE_NO":"１１號","E_COORD97":181076.94,"N_COORD97":2540161.02,"ADDRESS":"南雄路二段５１巷１１號","OBJECTID":77459},"geometry":{"x":181076.94000000041,"y":2540161.0199999996}},{"attributes":{"ID":77460,"DIS_CODE":0,"TOWNNAME":"關廟區","LI":"新埔里","LIN":"7鄰","STREET":"新埔三街","SECT":" ","MAREA":" ","LANE":" ","ALLEY":" ","HOUSE_NO":"３０號","E_COORD97":181136.67000000001,"N_COORD97":2541010.25,"ADDRESS":"新埔三街３０號","OBJECTID":77460},"geometry":{"x":181136.67000000086,"y":2541010.25}},{"attributes":{"ID":77461,"DIS_CODE":0,"TOWNNAME":"麻豆區","LI":"北勢里","LIN":"6鄰","STREET":" ","SECT":" ","MAREA":"太子宅","LANE":" ","ALLEY":" ","HOUSE_NO":"７號","E_COORD97":173125.70000000001,"N_COORD97":2565957.6400000001,"ADDRESS":"太子宅７號","OBJECTID":77461},"geometry":{"x":173125.70000000019,"y":2565957.6400000025}},{"attributes":{"ID":77462,"DIS_CODE":0,"TOWNNAME":"關廟區","LI":"新埔里","LIN":"7鄰","STREET":"新埔三街","SECT":" ","MAREA":" ","LANE":" ","ALLEY":" ","HOUSE_NO":"７６號","E_COORD97":181135.47,"N_COORD97":2541056.25,"ADDRESS":"新埔三街７６號","OBJECTID":77462},"geometry":{"x":181135.46999999974,"y":2541056.2500000019}},{"attributes":{"ID":77463,"DIS_CODE":0,"TOWNNAME":"白河區","LI":"大林里","LIN":"6鄰","STREET":" ","SECT":" ","MAREA":"檨子林","LANE":" ","ALLEY":" ","HOUSE_NO":"６４號","E_COORD97":193165.41,"N_COORD97":2582222.54,"ADDRESS":"檨子林６４號","OBJECTID":77463},"geometry":{"x":193165.41000000015,"y":2582222.5400000028}},{"attributes":{"ID":77464,"DIS_CODE":0,"TOWNNAME":"白河區","LI":"大林里","LIN":"6鄰","STREET":" ","SECT":" ","MAREA":"檨子林","LANE":" ","ALLEY":" ","HOUSE_NO":"６５號","E_COORD97":193134.09,"N_COORD97":2582239.2599999998,"ADDRESS":"檨子林６５號","OBJECTID":77464},"geometry":{"x":193134.09000000078,"y":2582239.2600000016}},{"attributes":{"ID":77465,"DIS_CODE":0,"TOWNNAME":"關廟區","LI":"新光里","LIN":"7鄰","STREET":"北寮街","SECT":" ","MAREA":" ","LANE":" ","ALLEY":" ","HOUSE_NO":"１００號","E_COORD97":184239.07000000001,"N_COORD97":2541917.25,"ADDRESS":"北寮街１００號","OBJECTID":77465},"geometry":{"x":184239.0700000003,"y":2541917.2500000037}},{"attributes":{"ID":77466,"DIS_CODE":0,"TOWNNAME":"新營區","LI":"太南里","LIN":"20鄰","STREET":" ","SECT":" ","MAREA":"太子宮","LANE":" ","ALLEY":" ","HOUSE_NO":"３３７號","E_COORD97":176402.45000000001,"N_COORD97":2577068.52,"ADDRESS":"太子宮３３７號","OBJECTID":77466},"geometry":{"x":176402.45000000112,"y":2577068.5199999996}},{"attributes":{"ID":77467,"DIS_CODE":0,"TOWNNAME":"新營區","LI":"太南里","LIN":"8鄰","STREET":" ","SECT":" ","MAREA":"太子宮","LANE":" ","ALLEY":" ","HOUSE_NO":"２２８號","E_COORD97":176086.60000000001,"N_COORD97":2576918.3599999999,"ADDRESS":"太子宮２２８號","OBJECTID":77467},"geometry":{"x":176086.60000000056,"y":2576918.3600000013}},{"attributes":{"ID":77468,"DIS_CODE":0,"TOWNNAME":"南化區","LI":"玉山里","LIN":"7鄰","STREET":" ","SECT":" ","MAREA":"玉山","LANE":" ","ALLEY":" ","HOUSE_NO":"８３號之２","E_COORD97":200861.64000000001,"N_COORD97":2552876.7999999998,"ADDRESS":"玉山８３號之２","OBJECTID":77468},"geometry":{"x":200861.6400000006,"y":2552876.8000000026}},{"attributes":{"ID":77469,"DIS_CODE":0,"TOWNNAME":"南化區","LI":"玉山里","LIN":"7鄰","STREET":" ","SECT":" ","MAREA":"玉山","LANE":" ","ALLEY":" ","HOUSE_NO":"８１號","E_COORD97":200784.67000000001,"N_COORD97":2552883.75,"ADDRESS":"玉山８１號","OBJECTID":77469},"geometry":{"x":200784.66999999993,"y":2552883.75}},{"attributes":{"ID":77470,"DIS_CODE":0,"TOWNNAME":"南化區","LI":"南化里","LIN":"7鄰","STREET":" ","SECT":" ","MAREA":"南化","LANE":" ","ALLEY":" ","HOUSE_NO":"８７號","E_COORD97":196391.39000000001,"N_COORD97":2549038.75,"ADDRESS":"南化８７號","OBJECTID":77470},"geometry":{"x":196391.3900000006,"y":2549038.75}},{"attributes":{"ID":77471,"DIS_CODE":0,"TOWNNAME":"南化區","LI":"玉山里","LIN":"7鄰","STREET":" ","SECT":" ","MAREA":"玉山","LANE":" ","ALLEY":" ","HOUSE_NO":"７９號之１","E_COORD97":200791.60000000001,"N_COORD97":2552858.7999999998,"ADDRESS":"玉山７９號之１","OBJECTID":77471},"geometry":{"x":200791.59999999963,"y":2552858.8000000026}},{"attributes":{"ID":77472,"DIS_CODE":0,"TOWNNAME":"南化區","LI":"西埔里","LIN":"7鄰","STREET":" ","SECT":" ","MAREA":"西埔","LANE":" ","ALLEY":" ","HOUSE_NO":"６１號之２","E_COORD97":194277.91,"N_COORD97":2548481.7999999998,"ADDRESS":"西埔６１號之２","OBJECTID":77472},"geometry":{"x":194277.91000000108,"y":2548481.8000000026}},{"attributes":{"ID":77473,"DIS_CODE":0,"TOWNNAME":"南化區","LI":"小崙里","LIN":"7鄰","STREET":" ","SECT":" ","MAREA":"小崙","LANE":" ","ALLEY":" ","HOUSE_NO":"７５號","E_COORD97":198086.97,"N_COORD97":2549728.75,"ADDRESS":"小崙７５號","OBJECTID":77473},"geometry":{"x":198086.96999999974,"y":2549728.7500000037}},{"attributes":{"ID":77474,"DIS_CODE":0,"TOWNNAME":"南化區","LI":"中坑里","LIN":"7鄰","STREET":" ","SECT":" ","MAREA":"中坑","LANE":" ","ALLEY":" ","HOUSE_NO":"７２號","E_COORD97":193566.26000000001,"N_COORD97":2550316.7799999998,"ADDRESS":"中坑７２號","OBJECTID":77474},"geometry":{"x":193566.26000000164,"y":2550316.7799999993}},{"attributes":{"ID":77475,"DIS_CODE":0,"TOWNNAME":"南化區","LI":"西埔里","LIN":"7鄰","STREET":" ","SECT":" ","MAREA":"西埔","LANE":" ","ALLEY":" ","HOUSE_NO":"５５號之１","E_COORD97":194327.57999999999,"N_COORD97":2548238.7999999998,"ADDRESS":"西埔５５號之１","OBJECTID":77475},"geometry":{"x":194327.58000000101,"y":2548238.8000000026}},{"attributes":{"ID":77476,"DIS_CODE":0,"TOWNNAME":"南化區","LI":"北寮里","LIN":"7鄰","STREET":" ","SECT":" ","MAREA":"北寮","LANE":" ","ALLEY":" ","HOUSE_NO":"１０２號","E_COORD97":197844.04000000001,"N_COORD97":2553056.75,"ADDRESS":"北寮１０２號","OBJECTID":77476},"geometry":{"x":197844.04000000097,"y":2553056.75}},{"attributes":{"ID":77477,"DIS_CODE":0,"TOWNNAME":"永康區","LI":"龍潭里","LIN":"19鄰","STREET":"自強路","SECT":" ","MAREA":" ","LANE":"８７２巷","ALLEY":"２２弄","HOUSE_NO":"１０號","E_COORD97":174735.19,"N_COORD97":2548656.1499999999,"ADDRESS":"自強路８７２巷２２弄１０號","OBJECTID":77477},"geometry":{"x":174735.19000000041,"y":2548656.1500000022}},{"attributes":{"ID":77478,"DIS_CODE":0,"TOWNNAME":"南化區","LI":"關山里","LIN":"7鄰","STREET":" ","SECT":" ","MAREA":"西阿里關","LANE":" ","ALLEY":" ","HOUSE_NO":"１５５號","E_COORD97":210629.09,"N_COORD97":2568561.75,"ADDRESS":"西阿里關１５５號","OBJECTID":77478},"geometry":{"x":210629.08999999985,"y":2568561.75}},{"attributes":{"ID":77479,"DIS_CODE":0,"TOWNNAME":"南化區","LI":"關山里","LIN":"7鄰","STREET":" ","SECT":" ","MAREA":"西阿里關","LANE":" ","ALLEY":" ","HOUSE_NO":"１４８號之１","E_COORD97":209943.82999999999,"N_COORD97":2568225.7999999998,"ADDRESS":"西阿里關１４８號之１","OBJECTID":77479},"geometry":{"x":209943.83000000101,"y":2568225.8000000007}},{"attributes":{"ID":77480,"DIS_CODE":0,"TOWNNAME":"永康區","LI":"龍潭里","LIN":"19鄰","STREET":"自強路","SECT":" ","MAREA":" ","LANE":"８７２巷","ALLEY":"２２弄","HOUSE_NO":"１號","E_COORD97":174768.16,"N_COORD97":2548650.3700000001,"ADDRESS":"自強路８７２巷２２弄１號","OBJECTID":77480},"geometry":{"x":174768.16000000108,"y":2548650.370000001}},{"attributes":{"ID":77481,"DIS_CODE":0,"TOWNNAME":"永康區","LI":"龍潭里","LIN":"19鄰","STREET":"自強路","SECT":" ","MAREA":" ","LANE":"８７２巷","ALLEY":"１５弄","HOUSE_NO":"２號","E_COORD97":174783.76000000001,"N_COORD97":2548659.27,"ADDRESS":"自強路８７２巷１５弄２號","OBJECTID":77481},"geometry":{"x":174783.76000000071,"y":2548659.2699999996}},{"attributes":{"ID":77482,"DIS_CODE":0,"TOWNNAME":"永康區","LI":"龍潭里","LIN":"19鄰","STREET":"自強路","SECT":" ","MAREA":" ","LANE":"８７２巷","ALLEY":"１５弄","HOUSE_NO":"６號","E_COORD97":174787.70999999999,"N_COORD97":2548660.4100000001,"ADDRESS":"自強路８７２巷１５弄６號","OBJECTID":77482},"geometry":{"x":174787.71000000089,"y":2548660.410000002}},{"attributes":{"ID":77483,"DIS_CODE":0,"TOWNNAME":"南化區","LI":"關山里","LIN":"7鄰","STREET":" ","SECT":" ","MAREA":"西阿里關","LANE":" ","ALLEY":" ","HOUSE_NO":"１４６號","E_COORD97":210101.89000000001,"N_COORD97":2567743.75,"ADDRESS":"西阿里關１４６號","OBJECTID":77483},"geometry":{"x":210101.89000000153,"y":2567743.75}},{"attributes":{"ID":77484,"DIS_CODE":0,"TOWNNAME":"永康區","LI":"龍潭里","LIN":"19鄰","STREET":"自強路","SECT":" ","MAREA":" ","LANE":"８７２巷","ALLEY":"１５弄","HOUSE_NO":"８號","E_COORD97":174794.28,"N_COORD97":2548659.7999999998,"ADDRESS":"自強路８７２巷１５弄８號","OBJECTID":77484},"geometry":{"x":174794.28000000119,"y":2548659.8000000007}},{"attributes":{"ID":77485,"DIS_CODE":0,"TOWNNAME":"南化區","LI":"玉山里","LIN":"7鄰","STREET":" ","SECT":" ","MAREA":"玉山","LANE":" ","ALLEY":" ","HOUSE_NO":"８０號之１","E_COORD97":200833.70000000001,"N_COORD97":2552910.7999999998,"ADDRESS":"玉山８０號之１","OBJECTID":77485},"geometry":{"x":200833.70000000019,"y":2552910.8000000026}},{"attributes":{"ID":77486,"DIS_CODE":0,"TOWNNAME":"關廟區","LI":"新埔里","LIN":"7鄰","STREET":"新埔三街","SECT":" ","MAREA":" ","LANE":" ","ALLEY":" ","HOUSE_NO":"９０號","E_COORD97":181151.97,"N_COORD97":2541095.25,"ADDRESS":"新埔三街９０號","OBJECTID":77486},"geometry":{"x":181151.96999999974,"y":2541095.25}},{"attributes":{"ID":77487,"DIS_CODE":0,"TOWNNAME":"永康區","LI":"龍潭里","LIN":"19鄰","STREET":"自強路","SECT":" ","MAREA":" ","LANE":"８７２巷","ALLEY":"１５弄","HOUSE_NO":"１０號","E_COORD97":174797.22,"N_COORD97":2548663.1400000001,"ADDRESS":"自強路８７２巷１５弄１０號","OBJECTID":77487},"geometry":{"x":174797.21999999881,"y":2548663.1400000025}},{"attributes":{"ID":77488,"DIS_CODE":0,"TOWNNAME":"新營區","LI":"太北里","LIN":"2鄰","STREET":" ","SECT":" ","MAREA":"太子宮","LANE":" ","ALLEY":" ","HOUSE_NO":"１５號之５","E_COORD97":176165.51999999999,"N_COORD97":2577121.7999999998,"ADDRESS":"太子宮１５號之５","OBJECTID":77488},"geometry":{"x":176165.52000000048,"y":2577121.8000000007}},{"attributes":{"ID":77489,"DIS_CODE":0,"TOWNNAME":"新營區","LI":"太北里","LIN":"2鄰","STREET":" ","SECT":" ","MAREA":"太子宮","LANE":" ","ALLEY":" ","HOUSE_NO":"１５號之２４","E_COORD97":176139.45999999999,"N_COORD97":2577183.96,"ADDRESS":"太子宮１５號之２４","OBJECTID":77489},"geometry":{"x":176139.45999999996,"y":2577183.9600000028}},{"attributes":{"ID":77490,"DIS_CODE":0,"TOWNNAME":"仁德區","LI":"大甲里","LIN":"19鄰","STREET":"中正西路","SECT":" ","MAREA":" ","LANE":"４９５巷","ALLEY":"２２弄","HOUSE_NO":"４８號","E_COORD97":169276.23999999999,"N_COORD97":2535413.2400000002,"ADDRESS":"中正西路４９５巷２２弄４８號","OBJECTID":77490},"geometry":{"x":169276.24000000022,"y":2535413.2400000002}},{"attributes":{"ID":77491,"DIS_CODE":0,"TOWNNAME":"歸仁區","LI":"歸南里","LIN":"19鄰","STREET":"民生八街","SECT":" ","MAREA":" ","LANE":"２８巷","ALLEY":"１弄","HOUSE_NO":"２７號","E_COORD97":176058.06,"N_COORD97":2540374.25,"ADDRESS":"民生八街２８巷１弄２７號","OBJECTID":77491},"geometry":{"x":176058.06000000052,"y":2540374.2499999981}},{"attributes":{"ID":77492,"DIS_CODE":0,"TOWNNAME":"新營區","LI":"大宏里","LIN":"13鄰","STREET":"三民路","SECT":" ","MAREA":" ","LANE":" ","ALLEY":" ","HOUSE_NO":"５１號","E_COORD97":180267.38,"N_COORD97":2578474,"ADDRESS":"三民路５１號","OBJECTID":77492},"geometry":{"x":180267.38000000082,"y":2578474.0000000037}},{"attributes":{"ID":77493,"DIS_CODE":0,"TOWNNAME":"南化區","LI":"北寮里","LIN":"7鄰","STREET":" ","SECT":" ","MAREA":"北寮","LANE":" ","ALLEY":" ","HOUSE_NO":"１０７號","E_COORD97":197864.94,"N_COORD97":2553037.75,"ADDRESS":"北寮１０７號","OBJECTID":77493},"geometry":{"x":197864.94000000134,"y":2553037.7500000037}},{"attributes":{"ID":77494,"DIS_CODE":0,"TOWNNAME":"南化區","LI":"北寮里","LIN":"7鄰","STREET":" ","SECT":" ","MAREA":"北寮","LANE":" ","ALLEY":" ","HOUSE_NO":"９３號","E_COORD97":197817.69,"N_COORD97":2553080.75,"ADDRESS":"北寮９３號","OBJECTID":77494},"geometry":{"x":197817.69000000134,"y":2553080.75}},{"attributes":{"ID":77495,"DIS_CODE":0,"TOWNNAME":"新營區","LI":"太南里","LIN":"7鄰","STREET":" ","SECT":" ","MAREA":"太子宮","LANE":" ","ALLEY":" ","HOUSE_NO":"２１７號","E_COORD97":176148.14999999999,"N_COORD97":2576952.3799999999,"ADDRESS":"太子宮２１７號","OBJECTID":77495},"geometry":{"x":176148.1500000013,"y":2576952.3800000008}},{"attributes":{"ID":77496,"DIS_CODE":0,"TOWNNAME":"新營區","LI":"太北里","LIN":"2鄰","STREET":" ","SECT":" ","MAREA":"太子宮","LANE":" ","ALLEY":" ","HOUSE_NO":"１５號之１８","E_COORD97":176172.28,"N_COORD97":2577199.29,"ADDRESS":"太子宮１５號之１８","OBJECTID":77496},"geometry":{"x":176172.28000000212,"y":2577199.2899999991}},{"attributes":{"ID":77497,"DIS_CODE":0,"TOWNNAME":"南化區","LI":"中坑里","LIN":"7鄰","STREET":" ","SECT":" ","MAREA":"中坑","LANE":" ","ALLEY":" ","HOUSE_NO":"５３號之１","E_COORD97":193644.5,"N_COORD97":2550033.7999999998,"ADDRESS":"中坑５３號之１","OBJECTID":77497},"geometry":{"x":193644.50000000186,"y":2550033.8000000007}},{"attributes":{"ID":77498,"DIS_CODE":0,"TOWNNAME":"北區","LI":"賢北里","LIN":"19鄰","STREET":"和緯路","SECT":"五段","MAREA":" ","LANE":"２３４巷","ALLEY":"２７弄","HOUSE_NO":"９號","E_COORD97":165998.32000000001,"N_COORD97":2545228.3599999999,"ADDRESS":"和緯路五段２３４巷２７弄９號","OBJECTID":77498},"geometry":{"x":165998.32000000123,"y":2545228.3600000031}},{"attributes":{"ID":77499,"DIS_CODE":0,"TOWNNAME":"南化區","LI":"小崙里","LIN":"7鄰","STREET":" ","SECT":" ","MAREA":"小崙","LANE":" ","ALLEY":" ","HOUSE_NO":"７９號之１","E_COORD97":198414,"N_COORD97":2549728.7999999998,"ADDRESS":"小崙７９號之１","OBJECTID":77499},"geometry":{"x":198414,"y":2549728.7999999989}},{"attributes":{"ID":77500,"DIS_CODE":0,"TOWNNAME":"北區","LI":"賢北里","LIN":"19鄰","STREET":"和緯路","SECT":"五段","MAREA":" ","LANE":"２３４巷","ALLEY":"５弄","HOUSE_NO":"１７號","E_COORD97":166020.5,"N_COORD97":2545183.52,"ADDRESS":"和緯路五段２３４巷５弄１７號","OBJECTID":77500},"geometry":{"x":166020.50000000093,"y":2545183.5200000014}},{"attributes":{"ID":77501,"DIS_CODE":0,"TOWNNAME":"南化區","LI":"北平里","LIN":"7鄰","STREET":" ","SECT":" ","MAREA":"北平","LANE":" ","ALLEY":" ","HOUSE_NO":"８５號","E_COORD97":194073.69,"N_COORD97":2550975.75,"ADDRESS":"北平８５號","OBJECTID":77501},"geometry":{"x":194073.69000000041,"y":2550975.75}},{"attributes":{"ID":77502,"DIS_CODE":0,"TOWNNAME":"南化區","LI":"北平里","LIN":"7鄰","STREET":" ","SECT":" ","MAREA":"北平","LANE":" ","ALLEY":" ","HOUSE_NO":"８９號","E_COORD97":193984.39000000001,"N_COORD97":2550825.75,"ADDRESS":"北平８９號","OBJECTID":77502},"geometry":{"x":193984.3900000006,"y":2550825.75}},{"attributes":{"ID":77503,"DIS_CODE":0,"TOWNNAME":"南化區","LI":"西埔里","LIN":"7鄰","STREET":" ","SECT":" ","MAREA":"西埔","LANE":" ","ALLEY":" ","HOUSE_NO":"６１號","E_COORD97":194359.04000000001,"N_COORD97":2548517.75,"ADDRESS":"西埔６１號","OBJECTID":77503},"geometry":{"x":194359.04000000004,"y":2548517.75}},{"attributes":{"ID":77504,"DIS_CODE":0,"TOWNNAME":"南化區","LI":"中坑里","LIN":"7鄰","STREET":" ","SECT":" ","MAREA":"中坑","LANE":" ","ALLEY":" ","HOUSE_NO":"７１號","E_COORD97":193499.76000000001,"N_COORD97":2550371.7799999998,"ADDRESS":"中坑７１號","OBJECTID":77504},"geometry":{"x":193499.75999999978,"y":2550371.7800000031}},{"attributes":{"ID":77505,"DIS_CODE":0,"TOWNNAME":"南化區","LI":"小崙里","LIN":"7鄰","STREET":" ","SECT":" ","MAREA":"小崙","LANE":" ","ALLEY":" ","HOUSE_NO":"７９號","E_COORD97":198354.37,"N_COORD97":2549643.75,"ADDRESS":"小崙７９號","OBJECTID":77505},"geometry":{"x":198354.37000000011,"y":2549643.7500000037}},{"attributes":{"ID":77506,"DIS_CODE":0,"TOWNNAME":"南化區","LI":"北平里","LIN":"7鄰","STREET":" ","SECT":" ","MAREA":"北平","LANE":" ","ALLEY":" ","HOUSE_NO":"８１號","E_COORD97":194029.69,"N_COORD97":2551058.75,"ADDRESS":"北平８１號","OBJECTID":77506},"geometry":{"x":194029.69000000041,"y":2551058.7500000019}},{"attributes":{"ID":77507,"DIS_CODE":0,"TOWNNAME":"南化區","LI":"北平里","LIN":"7鄰","STREET":" ","SECT":" ","MAREA":"北平","LANE":" ","ALLEY":" ","HOUSE_NO":"８３號","E_COORD97":194001.89000000001,"N_COORD97":2551067.75,"ADDRESS":"北平８３號","OBJECTID":77507},"geometry":{"x":194001.88999999966,"y":2551067.7500000037}},{"attributes":{"ID":77508,"DIS_CODE":0,"TOWNNAME":"南化區","LI":"中坑里","LIN":"7鄰","STREET":" ","SECT":" ","MAREA":"中坑","LANE":" ","ALLEY":" ","HOUSE_NO":"７３號","E_COORD97":193651.06,"N_COORD97":2550241.7799999998,"ADDRESS":"中坑７３號","OBJECTID":77508},"geometry":{"x":193651.06000000052,"y":2550241.7799999993}},{"attributes":{"ID":77509,"DIS_CODE":0,"TOWNNAME":"新營區","LI":"延平里","LIN":"7鄰","STREET":"復興路","SECT":" ","MAREA":" ","LANE":" ","ALLEY":" ","HOUSE_NO":"１之８號","E_COORD97":179735.29000000001,"N_COORD97":2577957.1699999999,"ADDRESS":"復興路１之８號","OBJECTID":77509},"geometry":{"x":179735.2900000019,"y":2577957.1699999981}},{"attributes":{"ID":77510,"DIS_CODE":0,"TOWNNAME":"新營區","LI":"永生里","LIN":"7鄰","STREET":"康樂街","SECT":" ","MAREA":" ","LANE":" ","ALLEY":" ","HOUSE_NO":"２之６號","E_COORD97":180083.04999999999,"N_COORD97":2577935.6000000001,"ADDRESS":"康樂街２之６號","OBJECTID":77510},"geometry":{"x":180083.05000000075,"y":2577935.5999999996}},{"attributes":{"ID":77511,"DIS_CODE":0,"TOWNNAME":"新營區","LI":"姑爺里","LIN":"7鄰","STREET":" ","SECT":" ","MAREA":"挖仔","LANE":" ","ALLEY":" ","HOUSE_NO":"１號","E_COORD97":173914.85999999999,"N_COORD97":2575632.5,"ADDRESS":"挖仔１號","OBJECTID":77511},"geometry":{"x":173914.86000000034,"y":2575632.4999999981}},{"attributes":{"ID":77512,"DIS_CODE":0,"TOWNNAME":"北區","LI":"賢北里","LIN":"19鄰","STREET":"和緯路","SECT":"五段","MAREA":" ","LANE":"２３４巷","ALLEY":"５弄","HOUSE_NO":"１８號","E_COORD97":165991.48000000001,"N_COORD97":2545202.1299999999,"ADDRESS":"和緯路五段２３４巷５弄１８號","OBJECTID":77512},"geometry":{"x":165991.48000000231,"y":2545202.1300000027}},{"attributes":{"ID":77513,"DIS_CODE":0,"TOWNNAME":"新營區","LI":"姑爺里","LIN":"7鄰","STREET":" ","SECT":" ","MAREA":"挖仔","LANE":" ","ALLEY":" ","HOUSE_NO":"２之６號","E_COORD97":174056.82000000001,"N_COORD97":2575682.7799999998,"ADDRESS":"挖仔２之６號","OBJECTID":77513},"geometry":{"x":174056.82000000123,"y":2575682.7799999993}},{"attributes":{"ID":77514,"DIS_CODE":0,"TOWNNAME":"北區","LI":"賢北里","LIN":"19鄰","STREET":"和緯路","SECT":"五段","MAREA":" ","LANE":"２３４巷","ALLEY":"５弄","HOUSE_NO":"１９號","E_COORD97":166016.48999999999,"N_COORD97":2545183.52,"ADDRESS":"和緯路五段２３４巷５弄１９號","OBJECTID":77514},"geometry":{"x":166016.49000000022,"y":2545183.5200000014}},{"attributes":{"ID":77515,"DIS_CODE":0,"TOWNNAME":"新營區","LI":"太南里","LIN":"20鄰","STREET":" ","SECT":" ","MAREA":"太子宮","LANE":" ","ALLEY":" ","HOUSE_NO":"３４１號之７","E_COORD97":176356.10000000001,"N_COORD97":2576971.3500000001,"ADDRESS":"太子宮３４１號之７","OBJECTID":77515},"geometry":{"x":176356.10000000056,"y":2576971.3499999996}},{"attributes":{"ID":77516,"DIS_CODE":0,"TOWNNAME":"新營區","LI":"五興里","LIN":"7鄰","STREET":" ","SECT":" ","MAREA":"五間厝","LANE":" ","ALLEY":" ","HOUSE_NO":"７７號","E_COORD97":175754.81,"N_COORD97":2574655.2599999998,"ADDRESS":"五間厝７７號","OBJECTID":77516},"geometry":{"x":175754.81000000052,"y":2574655.2600000016}},{"attributes":{"ID":77517,"DIS_CODE":0,"TOWNNAME":"北區","LI":"賢北里","LIN":"19鄰","STREET":"和緯路","SECT":"五段","MAREA":" ","LANE":"２３４巷","ALLEY":"５弄","HOUSE_NO":"１號","E_COORD97":166057.79000000001,"N_COORD97":2545176.6200000001,"ADDRESS":"和緯路五段２３４巷５弄１號","OBJECTID":77517},"geometry":{"x":166057.79000000004,"y":2545176.620000001}},{"attributes":{"ID":77518,"DIS_CODE":0,"TOWNNAME":"新營區","LI":"姑爺里","LIN":"7鄰","STREET":" ","SECT":" ","MAREA":"挖仔","LANE":" ","ALLEY":" ","HOUSE_NO":"９號","E_COORD97":173733.22,"N_COORD97":2575532.6600000001,"ADDRESS":"挖仔９號","OBJECTID":77518},"geometry":{"x":173733.22000000067,"y":2575532.6600000001}},{"attributes":{"ID":77519,"DIS_CODE":0,"TOWNNAME":"北區","LI":"賢北里","LIN":"19鄰","STREET":"和緯路","SECT":"五段","MAREA":" ","LANE":"２３４巷","ALLEY":"５弄","HOUSE_NO":"２０號","E_COORD97":165986.29000000001,"N_COORD97":2545202.6000000001,"ADDRESS":"和緯路五段２３４巷５弄２０號","OBJECTID":77519},"geometry":{"x":165986.29000000097,"y":2545202.5999999996}},{"attributes":{"ID":77520,"DIS_CODE":0,"TOWNNAME":"新化區","LI":"唪口里","LIN":"7鄰","STREET":" ","SECT":" ","MAREA":"唪口","LANE":" ","ALLEY":" ","HOUSE_NO":"１０１號之２","E_COORD97":177941.10000000001,"N_COORD97":2548999.2599999998,"ADDRESS":"唪口１０１號之２","OBJECTID":77520},"geometry":{"x":177941.10000000056,"y":2548999.2600000035}},{"attributes":{"ID":77521,"DIS_CODE":0,"TOWNNAME":"北區","LI":"賢北里","LIN":"19鄰","STREET":"和緯路","SECT":"五段","MAREA":" ","LANE":"２３４巷","ALLEY":"５弄","HOUSE_NO":"２１號","E_COORD97":166012.23999999999,"N_COORD97":2545183.75,"ADDRESS":"和緯路五段２３４巷５弄２１號","OBJECTID":77521},"geometry":{"x":166012.24000000115,"y":2545183.7500000019}},{"attributes":{"ID":77522,"DIS_CODE":0,"TOWNNAME":"北區","LI":"賢北里","LIN":"19鄰","STREET":"和緯路","SECT":"五段","MAREA":" ","LANE":"２３４巷","ALLEY":"５弄","HOUSE_NO":"２２號","E_COORD97":165982.51999999999,"N_COORD97":2545202.6000000001,"ADDRESS":"和緯路五段２３４巷５弄２２號","OBJECTID":77522},"geometry":{"x":165982.52000000048,"y":2545202.5999999996}},{"attributes":{"ID":77523,"DIS_CODE":0,"TOWNNAME":"新營區","LI":"三仙里","LIN":"7鄰","STREET":"博愛街","SECT":" ","MAREA":" ","LANE":" ","ALLEY":" ","HOUSE_NO":"８０號","E_COORD97":179703.25,"N_COORD97":2578135.5699999998,"ADDRESS":"博愛街８０號","OBJECTID":77523},"geometry":{"x":179703.25000000186,"y":2578135.5700000022}},{"attributes":{"ID":77524,"DIS_CODE":0,"TOWNNAME":"新營區","LI":"南興里","LIN":"7鄰","STREET":"南昌街","SECT":" ","MAREA":" ","LANE":" ","ALLEY":" ","HOUSE_NO":"５５號","E_COORD97":179494.25,"N_COORD97":2577645.96,"ADDRESS":"南昌街５５號","OBJECTID":77524},"geometry":{"x":179494.25,"y":2577645.9600000028}},{"attributes":{"ID":77525,"DIS_CODE":0,"TOWNNAME":"新化區","LI":"大坑里","LIN":"7鄰","STREET":" ","SECT":" ","MAREA":"大坑尾","LANE":" ","ALLEY":" ","HOUSE_NO":"１６８號","E_COORD97":186679.73000000001,"N_COORD97":2546424.25,"ADDRESS":"大坑尾１６８號","OBJECTID":77525},"geometry":{"x":186679.73000000231,"y":2546424.2500000019}},{"attributes":{"ID":77526,"DIS_CODE":0,"TOWNNAME":"白河區","LI":"大林里","LIN":"6鄰","STREET":" ","SECT":" ","MAREA":"檨子林","LANE":" ","ALLEY":" ","HOUSE_NO":"６６之１０號","E_COORD97":192886.79000000001,"N_COORD97":2582216.5299999998,"ADDRESS":"檨子林６６之１０號","OBJECTID":77526},"geometry":{"x":192886.79000000097,"y":2582216.5300000012}},{"attributes":{"ID":77527,"DIS_CODE":0,"TOWNNAME":"白河區","LI":"大林里","LIN":"6鄰","STREET":" ","SECT":" ","MAREA":"檨子林","LANE":" ","ALLEY":" ","HOUSE_NO":"６６之１號","E_COORD97":193044.17999999999,"N_COORD97":2582242.8399999999,"ADDRESS":"檨子林６６之１號","OBJECTID":77527},"geometry":{"x":193044.1799999997,"y":2582242.8400000017}},{"attributes":{"ID":77528,"DIS_CODE":0,"TOWNNAME":"白河區","LI":"大林里","LIN":"6鄰","STREET":" ","SECT":" ","MAREA":"檨子林","LANE":" ","ALLEY":" ","HOUSE_NO":"６６之２號","E_COORD97":192978.41,"N_COORD97":2582225.04,"ADDRESS":"檨子林６６之２號","OBJECTID":77528},"geometry":{"x":192978.41000000015,"y":2582225.0399999991}},{"attributes":{"ID":77529,"DIS_CODE":0,"TOWNNAME":"新營區","LI":"南興里","LIN":"7鄰","STREET":"南昌街","SECT":" ","MAREA":" ","LANE":" ","ALLEY":" ","HOUSE_NO":"５７號","E_COORD97":179488.10999999999,"N_COORD97":2577645.9900000002,"ADDRESS":"南昌街５７號","OBJECTID":77529},"geometry":{"x":179488.11000000127,"y":2577645.9900000002}},{"attributes":{"ID":77530,"DIS_CODE":0,"TOWNNAME":"白河區","LI":"大林里","LIN":"6鄰","STREET":" ","SECT":" ","MAREA":"檨子林","LANE":" ","ALLEY":" ","HOUSE_NO":"６６號","E_COORD97":193094.84,"N_COORD97":2582266.8100000001,"ADDRESS":"檨子林６６號","OBJECTID":77530},"geometry":{"x":193094.84000000078,"y":2582266.8100000024}},{"attributes":{"ID":77531,"DIS_CODE":0,"TOWNNAME":"白河區","LI":"大林里","LIN":"6鄰","STREET":" ","SECT":" ","MAREA":"檨子林","LANE":" ","ALLEY":" ","HOUSE_NO":"７０號","E_COORD97":193052.39999999999,"N_COORD97":2582268.8900000001,"ADDRESS":"檨子林７０號","OBJECTID":77531},"geometry":{"x":193052.40000000224,"y":2582268.8899999987}},{"attributes":{"ID":77532,"DIS_CODE":0,"TOWNNAME":"白河區","LI":"秀祐里","LIN":"6鄰","STREET":" ","SECT":" ","MAREA":"下秀祐","LANE":" ","ALLEY":" ","HOUSE_NO":"１２之３號","E_COORD97":188601.48999999999,"N_COORD97":2582926.96,"ADDRESS":"下秀祐１２之３號","OBJECTID":77532},"geometry":{"x":188601.49000000022,"y":2582926.9600000028}},{"attributes":{"ID":77533,"DIS_CODE":0,"TOWNNAME":"白河區","LI":"大竹里","LIN":"6鄰","STREET":" ","SECT":" ","MAREA":"大排竹","LANE":" ","ALLEY":" ","HOUSE_NO":"１００之２號","E_COORD97":189673.10999999999,"N_COORD97":2585347.4199999999,"ADDRESS":"大排竹１００之２號","OBJECTID":77533},"geometry":{"x":189673.11000000127,"y":2585347.4200000018}},{"attributes":{"ID":77534,"DIS_CODE":0,"TOWNNAME":"新營區","LI":"新南里","LIN":"28鄰","STREET":"明清街","SECT":" ","MAREA":" ","LANE":" ","ALLEY":" ","HOUSE_NO":"８８號","E_COORD97":178327.51999999999,"N_COORD97":2578780.0600000001,"ADDRESS":"明清街８８號","OBJECTID":77534},"geometry":{"x":178327.51999999955,"y":2578780.0600000024}},{"attributes":{"ID":77535,"DIS_CODE":0,"TOWNNAME":"新營區","LI":"南興里","LIN":"7鄰","STREET":"南昌街","SECT":" ","MAREA":" ","LANE":" ","ALLEY":" ","HOUSE_NO":"６５號","E_COORD97":179466.60999999999,"N_COORD97":2577643.8799999999,"ADDRESS":"南昌街６５號","OBJECTID":77535},"geometry":{"x":179466.61000000034,"y":2577643.8800000008}},{"attributes":{"ID":77536,"DIS_CODE":0,"TOWNNAME":"新營區","LI":"民生里","LIN":"13鄰","STREET":"復興路","SECT":" ","MAREA":" ","LANE":" ","ALLEY":" ","HOUSE_NO":"２８０之１號","E_COORD97":178717.87,"N_COORD97":2578135.9199999999,"ADDRESS":"復興路２８０之１號","OBJECTID":77536},"geometry":{"x":178717.87000000104,"y":2578135.9200000018}},{"attributes":{"ID":77537,"DIS_CODE":0,"TOWNNAME":"新營區","LI":"民權里","LIN":"7鄰","STREET":"民有街","SECT":" ","MAREA":" ","LANE":" ","ALLEY":" ","HOUSE_NO":"６０號","E_COORD97":179832.76000000001,"N_COORD97":2578065.1800000002,"ADDRESS":"民有街６０號","OBJECTID":77537},"geometry":{"x":179832.75999999978,"y":2578065.1799999997}},{"attributes":{"ID":77538,"DIS_CODE":0,"TOWNNAME":"新化區","LI":"唪口里","LIN":"7鄰","STREET":" ","SECT":" ","MAREA":"唪口","LANE":" ","ALLEY":" ","HOUSE_NO":"１０５號","E_COORD97":178031.14999999999,"N_COORD97":2548987.25,"ADDRESS":"唪口１０５號","OBJECTID":77538},"geometry":{"x":178031.15000000224,"y":2548987.2500000019}},{"attributes":{"ID":77539,"DIS_CODE":0,"TOWNNAME":"北區","LI":"賢北里","LIN":"19鄰","STREET":"和緯路","SECT":"五段","MAREA":" ","LANE":"２３４巷","ALLEY":"５弄","HOUSE_NO":"２３號","E_COORD97":166007.51999999999,"N_COORD97":2545183.75,"ADDRESS":"和緯路五段２３４巷５弄２３號","OBJECTID":77539},"geometry":{"x":166007.52000000048,"y":2545183.7500000019}},{"attributes":{"ID":77540,"DIS_CODE":0,"TOWNNAME":"新化區","LI":"崙頂里","LIN":"7鄰","STREET":" ","SECT":" ","MAREA":"崙子頂","LANE":" ","ALLEY":" ","HOUSE_NO":"２８５號","E_COORD97":176722.03,"N_COORD97":2547125.25,"ADDRESS":"崙子頂２８５號","OBJECTID":77540},"geometry":{"x":176722.03000000119,"y":2547125.2500000019}},{"attributes":{"ID":77541,"DIS_CODE":0,"TOWNNAME":"新化區","LI":"崙頂里","LIN":"7鄰","STREET":" ","SECT":" ","MAREA":"崙子頂","LANE":" ","ALLEY":" ","HOUSE_NO":"２９５號","E_COORD97":176796.42999999999,"N_COORD97":2547079.25,"ADDRESS":"崙子頂２９５號","OBJECTID":77541},"geometry":{"x":176796.43000000063,"y":2547079.25}},{"attributes":{"ID":77542,"DIS_CODE":0,"TOWNNAME":"新化區","LI":"唪口里","LIN":"7鄰","STREET":" ","SECT":" ","MAREA":"唪口","LANE":" ","ALLEY":" ","HOUSE_NO":"１０１號之１","E_COORD97":177935.38,"N_COORD97":2548996.2599999998,"ADDRESS":"唪口１０１號之１","OBJECTID":77542},"geometry":{"x":177935.37999999989,"y":2548996.2600000016}},{"attributes":{"ID":77543,"DIS_CODE":0,"TOWNNAME":"北區","LI":"賢北里","LIN":"19鄰","STREET":"和緯路","SECT":"五段","MAREA":" ","LANE":"２３４巷","ALLEY":"５弄","HOUSE_NO":"２４號","E_COORD97":165978.51000000001,"N_COORD97":2545202.6000000001,"ADDRESS":"和緯路五段２３４巷５弄２４號","OBJECTID":77543},"geometry":{"x":165978.50999999978,"y":2545202.5999999996}},{"attributes":{"ID":77544,"DIS_CODE":0,"TOWNNAME":"北區","LI":"賢北里","LIN":"19鄰","STREET":"和緯路","SECT":"五段","MAREA":" ","LANE":"２３４巷","ALLEY":"５弄","HOUSE_NO":"２５號","E_COORD97":166003.28,"N_COORD97":2545184.46,"ADDRESS":"和緯路五段２３４巷５弄２５號","OBJECTID":77544},"geometry":{"x":166003.28000000119,"y":2545184.4600000009}},{"attributes":{"ID":77545,"DIS_CODE":0,"TOWNNAME":"北區","LI":"賢北里","LIN":"19鄰","STREET":"和緯路","SECT":"五段","MAREA":" ","LANE":"２３４巷","ALLEY":"５弄","HOUSE_NO":"２６號","E_COORD97":165973.79000000001,"N_COORD97":2545203.54,"ADDRESS":"和緯路五段２３４巷５弄２６號","OBJECTID":77545},"geometry":{"x":165973.7900000019,"y":2545203.540000001}},{"attributes":{"ID":77546,"DIS_CODE":0,"TOWNNAME":"北區","LI":"賢北里","LIN":"19鄰","STREET":"和緯路","SECT":"五段","MAREA":" ","LANE":"２３４巷","ALLEY":"５弄","HOUSE_NO":"２７號","E_COORD97":165998.79000000001,"N_COORD97":2545184.9300000002,"ADDRESS":"和緯路五段２３４巷５弄２７號","OBJECTID":77546},"geometry":{"x":165998.79000000004,"y":2545184.9300000016}},{"attributes":{"ID":77547,"DIS_CODE":0,"TOWNNAME":"北區","LI":"賢北里","LIN":"19鄰","STREET":"和緯路","SECT":"五段","MAREA":" ","LANE":"２３４巷","ALLEY":"５弄","HOUSE_NO":"２９號","E_COORD97":165994.31,"N_COORD97":2545185.1699999999,"ADDRESS":"和緯路五段２３４巷５弄２９號","OBJECTID":77547},"geometry":{"x":165994.30999999959,"y":2545185.1699999999}},{"attributes":{"ID":77548,"DIS_CODE":0,"TOWNNAME":"北區","LI":"賢北里","LIN":"19鄰","STREET":"和緯路","SECT":"五段","MAREA":" ","LANE":"２３４巷","ALLEY":"５弄","HOUSE_NO":"２號","E_COORD97":166026.16,"N_COORD97":2545200.48,"ADDRESS":"和緯路五段２３４巷５弄２號","OBJECTID":77548},"geometry":{"x":166026.16000000108,"y":2545200.4800000004}},{"attributes":{"ID":77549,"DIS_CODE":0,"TOWNNAME":"北區","LI":"賢北里","LIN":"19鄰","STREET":"和緯路","SECT":"五段","MAREA":" ","LANE":"２３４巷","ALLEY":"５弄","HOUSE_NO":"３１號","E_COORD97":165990.07000000001,"N_COORD97":2545185.3999999999,"ADDRESS":"和緯路五段２３４巷５弄３１號","OBJECTID":77549},"geometry":{"x":165990.0700000003,"y":2545185.4000000022}},{"attributes":{"ID":77550,"DIS_CODE":0,"TOWNNAME":"北區","LI":"賢北里","LIN":"19鄰","STREET":"和緯路","SECT":"五段","MAREA":" ","LANE":"２３４巷","ALLEY":"５弄","HOUSE_NO":"３３號","E_COORD97":165986.06,"N_COORD97":2545185.6400000001,"ADDRESS":"和緯路五段２３４巷５弄３３號","OBJECTID":77550},"geometry":{"x":165986.05999999959,"y":2545185.6400000006}},{"attributes":{"ID":77551,"DIS_CODE":0,"TOWNNAME":"北區","LI":"賢北里","LIN":"19鄰","STREET":"和緯路","SECT":"五段","MAREA":" ","LANE":"２３４巷","ALLEY":"５弄","HOUSE_NO":"３５號","E_COORD97":165981.57000000001,"N_COORD97":2545186.3500000001,"ADDRESS":"和緯路五段２３４巷５弄３５號","OBJECTID":77551},"geometry":{"x":165981.5700000003,"y":2545186.3499999996}},{"attributes":{"ID":77552,"DIS_CODE":0,"TOWNNAME":"北區","LI":"賢北里","LIN":"19鄰","STREET":"和緯路","SECT":"五段","MAREA":" ","LANE":"２３４巷","ALLEY":"５弄","HOUSE_NO":"３７號","E_COORD97":165977.09,"N_COORD97":2545186.3500000001,"ADDRESS":"和緯路五段２３４巷５弄３７號","OBJECTID":77552},"geometry":{"x":165977.09000000078,"y":2545186.3499999996}},{"attributes":{"ID":77553,"DIS_CODE":0,"TOWNNAME":"北區","LI":"永祥里","LIN":"19鄰","STREET":"大武街","SECT":" ","MAREA":" ","LANE":"５４１巷","ALLEY":"１２弄","HOUSE_NO":"１０號","E_COORD97":170126.23999999999,"N_COORD97":2546457.5099999998,"ADDRESS":"大武街５４１巷１２弄１０號","OBJECTID":77553},"geometry":{"x":170126.24000000115,"y":2546457.5099999998}},{"attributes":{"ID":77554,"DIS_CODE":0,"TOWNNAME":"官田區","LI":"官田里","LIN":"6鄰","STREET":" ","SECT":" ","MAREA":"官田","LANE":" ","ALLEY":" ","HOUSE_NO":"４９號","E_COORD97":182589.66,"N_COORD97":2565067.71,"ADDRESS":"官田４９號","OBJECTID":77554},"geometry":{"x":182589.66000000108,"y":2565067.709999999}},{"attributes":{"ID":77555,"DIS_CODE":0,"TOWNNAME":"北區","LI":"永祥里","LIN":"19鄰","STREET":"大武街","SECT":" ","MAREA":" ","LANE":"５４１巷","ALLEY":"１２弄","HOUSE_NO":"１１號","E_COORD97":170136.57999999999,"N_COORD97":2546461.8999999999,"ADDRESS":"大武街５４１巷１２弄１１號","OBJECTID":77555},"geometry":{"x":170136.58000000007,"y":2546461.9000000004}},{"attributes":{"ID":77556,"DIS_CODE":0,"TOWNNAME":"北區","LI":"永祥里","LIN":"19鄰","STREET":"大武街","SECT":" ","MAREA":" ","LANE":"５４１巷","ALLEY":"１２弄","HOUSE_NO":"１２號","E_COORD97":170131.48999999999,"N_COORD97":2546457.4500000002,"ADDRESS":"大武街５４１巷１２弄１２號","OBJECTID":77556},"geometry":{"x":170131.49000000115,"y":2546457.4499999993}},{"attributes":{"ID":77557,"DIS_CODE":0,"TOWNNAME":"北區","LI":"永祥里","LIN":"19鄰","STREET":"大武街","SECT":" ","MAREA":" ","LANE":"５４１巷","ALLEY":"１２弄","HOUSE_NO":"１３號","E_COORD97":170142.07000000001,"N_COORD97":2546461.9700000002,"ADDRESS":"大武街５４１巷１２弄１３號","OBJECTID":77557},"geometry":{"x":170142.0700000003,"y":2546461.9700000007}},{"attributes":{"ID":77558,"DIS_CODE":0,"TOWNNAME":"北區","LI":"永祥里","LIN":"19鄰","STREET":"大武街","SECT":" ","MAREA":" ","LANE":"５４１巷","ALLEY":"１２弄","HOUSE_NO":"１５號","E_COORD97":170146.23000000001,"N_COORD97":2546462.4500000002,"ADDRESS":"大武街５４１巷１２弄１５號","OBJECTID":77558},"geometry":{"x":170146.23000000045,"y":2546462.4500000011}},{"attributes":{"ID":77559,"DIS_CODE":0,"TOWNNAME":"北區","LI":"永祥里","LIN":"19鄰","STREET":"大武街","SECT":" ","MAREA":" ","LANE":"５４１巷","ALLEY":"１２弄","HOUSE_NO":"１６號","E_COORD97":170136.95000000001,"N_COORD97":2546457.4500000002,"ADDRESS":"大武街５４１巷１２弄１６號","OBJECTID":77559},"geometry":{"x":170136.95000000112,"y":2546457.4499999993}},{"attributes":{"ID":77560,"DIS_CODE":0,"TOWNNAME":"北區","LI":"永祥里","LIN":"19鄰","STREET":"大武街","SECT":" ","MAREA":" ","LANE":"５４１巷","ALLEY":"１２弄","HOUSE_NO":"１７號","E_COORD97":170150.62,"N_COORD97":2546462.5099999998,"ADDRESS":"大武街５４１巷１２弄１７號","OBJECTID":77560},"geometry":{"x":170150.62000000104,"y":2546462.5100000016}},{"attributes":{"ID":77561,"DIS_CODE":0,"TOWNNAME":"北區","LI":"永祥里","LIN":"19鄰","STREET":"大武街","SECT":" ","MAREA":" ","LANE":"５４１巷","ALLEY":"１２弄","HOUSE_NO":"１８號","E_COORD97":170141.89000000001,"N_COORD97":2546457.5699999998,"ADDRESS":"大武街５４１巷１２弄１８號","OBJECTID":77561},"geometry":{"x":170141.8900000006,"y":2546457.5700000003}},{"attributes":{"ID":77562,"DIS_CODE":0,"TOWNNAME":"新營區","LI":"民榮里","LIN":"32鄰","STREET":"太子路","SECT":" ","MAREA":" ","LANE":" ","ALLEY":" ","HOUSE_NO":"７９號","E_COORD97":178252.29999999999,"N_COORD97":2578040.6400000001,"ADDRESS":"太子路７９號","OBJECTID":77562},"geometry":{"x":178252.30000000075,"y":2578040.6400000025}},{"attributes":{"ID":77563,"DIS_CODE":0,"TOWNNAME":"新化區","LI":"豐榮里","LIN":"7鄰","STREET":"大智路","SECT":" ","MAREA":" ","LANE":" ","ALLEY":" ","HOUSE_NO":"１６８號","E_COORD97":178044.23000000001,"N_COORD97":2548113.2400000002,"ADDRESS":"大智路１６８號","OBJECTID":77563},"geometry":{"x":178044.22999999952,"y":2548113.2400000021}},{"attributes":{"ID":77564,"DIS_CODE":0,"TOWNNAME":"南區","LI":"佛壇里","LIN":"7鄰","STREET":"明興路","SECT":" ","MAREA":" ","LANE":" ","ALLEY":" ","HOUSE_NO":"１３１４號","E_COORD97":166369.48000000001,"N_COORD97":2536031.4700000002,"ADDRESS":"明興路１３１４號","OBJECTID":77564},"geometry":{"x":166369.48000000231,"y":2536031.4700000025}},{"attributes":{"ID":77565,"DIS_CODE":0,"TOWNNAME":"南區","LI":"明德里","LIN":"7鄰","STREET":"新都路","SECT":" ","MAREA":" ","LANE":" ","ALLEY":" ","HOUSE_NO":"２５７號","E_COORD97":167889.29999999999,"N_COORD97":2541035.3199999998,"ADDRESS":"新都路２５７號","OBJECTID":77565},"geometry":{"x":167889.30000000075,"y":2541035.3199999984}},{"attributes":{"ID":77566,"DIS_CODE":0,"TOWNNAME":"北區","LI":"永祥里","LIN":"19鄰","STREET":"大武街","SECT":" ","MAREA":" ","LANE":"５４１巷","ALLEY":"１２弄","HOUSE_NO":"１９號","E_COORD97":170155.92999999999,"N_COORD97":2546462.7000000002,"ADDRESS":"大武街５４１巷１２弄１９號","OBJECTID":77566},"geometry":{"x":170155.9299999997,"y":2546462.6999999993}},{"attributes":{"ID":77567,"DIS_CODE":0,"TOWNNAME":"北區","LI":"永祥里","LIN":"19鄰","STREET":"大武街","SECT":" ","MAREA":" ","LANE":"５４１巷","ALLEY":"１２弄","HOUSE_NO":"１號","E_COORD97":170110.88,"N_COORD97":2546462.27,"ADDRESS":"大武街５４１巷１２弄１號","OBJECTID":77567},"geometry":{"x":170110.88000000175,"y":2546462.2699999996}},{"attributes":{"ID":77568,"DIS_CODE":0,"TOWNNAME":"北區","LI":"永祥里","LIN":"19鄰","STREET":"大武街","SECT":" ","MAREA":" ","LANE":"５４１巷","ALLEY":"１２弄","HOUSE_NO":"２０號","E_COORD97":170146.59,"N_COORD97":2546457.0899999999,"ADDRESS":"大武街５４１巷１２弄２０號","OBJECTID":77568},"geometry":{"x":170146.58999999985,"y":2546457.0899999999}},{"attributes":{"ID":77569,"DIS_CODE":0,"TOWNNAME":"北區","LI":"永祥里","LIN":"19鄰","STREET":"大武街","SECT":" ","MAREA":" ","LANE":"５４１巷","ALLEY":"１２弄","HOUSE_NO":"２２號","E_COORD97":170150.81,"N_COORD97":2546457.8799999999,"ADDRESS":"大武街５４１巷１２弄２２號","OBJECTID":77569},"geometry":{"x":170150.81000000052,"y":2546457.879999999}},{"attributes":{"ID":77570,"DIS_CODE":0,"TOWNNAME":"北區","LI":"永祥里","LIN":"19鄰","STREET":"大武街","SECT":" ","MAREA":" ","LANE":"５４１巷","ALLEY":"１２弄","HOUSE_NO":"２６號","E_COORD97":170155.69,"N_COORD97":2546456.96,"ADDRESS":"大武街５４１巷１２弄２６號","OBJECTID":77570},"geometry":{"x":170155.69000000134,"y":2546456.9600000028}},{"attributes":{"ID":77571,"DIS_CODE":0,"TOWNNAME":"新營區","LI":"埤寮里","LIN":"4鄰","STREET":" ","SECT":" ","MAREA":"許丑","LANE":" ","ALLEY":" ","HOUSE_NO":"４２之１２號","E_COORD97":179788.82999999999,"N_COORD97":2580935.98,"ADDRESS":"許丑４２之１２號","OBJECTID":77571},"geometry":{"x":179788.83000000007,"y":2580935.9800000042}},{"attributes":{"ID":77572,"DIS_CODE":0,"TOWNNAME":"新營區","LI":"太南里","LIN":"4鄰","STREET":" ","SECT":" ","MAREA":"太子宮","LANE":" ","ALLEY":" ","HOUSE_NO":"３３２之７號","E_COORD97":176332.32000000001,"N_COORD97":2577068.9300000002,"ADDRESS":"太子宮３３２之７號","OBJECTID":77572},"geometry":{"x":176332.3200000003,"y":2577068.9299999997}},{"attributes":{"ID":77573,"DIS_CODE":0,"TOWNNAME":"新營區","LI":"太北里","LIN":"18鄰","STREET":" ","SECT":" ","MAREA":"太子宮","LANE":" ","ALLEY":" ","HOUSE_NO":"８之３０號","E_COORD97":176201.89000000001,"N_COORD97":2577220.1800000002,"ADDRESS":"太子宮８之３０號","OBJECTID":77573},"geometry":{"x":176201.8900000006,"y":2577220.1799999997}},{"attributes":{"ID":77574,"DIS_CODE":0,"TOWNNAME":"白河區","LI":"崎內里","LIN":"6鄰","STREET":" ","SECT":" ","MAREA":"內崎內","LANE":" ","ALLEY":" ","HOUSE_NO":"５４之６號","E_COORD97":196229.84,"N_COORD97":2586759.2000000002,"ADDRESS":"內崎內５４之６號","OBJECTID":77574},"geometry":{"x":196229.83999999985,"y":2586759.2000000011}},{"attributes":{"ID":77575,"DIS_CODE":0,"TOWNNAME":"北區","LI":"永祥里","LIN":"19鄰","STREET":"大武街","SECT":" ","MAREA":" ","LANE":"５４１巷","ALLEY":"１２弄","HOUSE_NO":"２號","E_COORD97":170110.54999999999,"N_COORD97":2546458.1200000001,"ADDRESS":"大武街５４１巷１２弄２號","OBJECTID":77575},"geometry":{"x":170110.54999999981,"y":2546458.120000001}},{"attributes":{"ID":77576,"DIS_CODE":0,"TOWNNAME":"北區","LI":"永祥里","LIN":"19鄰","STREET":"大武街","SECT":" ","MAREA":" ","LANE":"５４１巷","ALLEY":"１２弄","HOUSE_NO":"３號","E_COORD97":170116.48999999999,"N_COORD97":2546462.0299999998,"ADDRESS":"大武街５４１巷１２弄３號","OBJECTID":77576},"geometry":{"x":170116.49000000022,"y":2546462.0300000012}},{"attributes":{"ID":77577,"DIS_CODE":0,"TOWNNAME":"北區","LI":"永祥里","LIN":"19鄰","STREET":"大武街","SECT":" ","MAREA":" ","LANE":"５４１巷","ALLEY":"１２弄","HOUSE_NO":"５號","E_COORD97":170121.79999999999,"N_COORD97":2546462.1499999999,"ADDRESS":"大武街５４１巷１２弄５號","OBJECTID":77577},"geometry":{"x":170121.80000000075,"y":2546462.1500000022}},{"attributes":{"ID":77578,"DIS_CODE":0,"TOWNNAME":"北區","LI":"永祥里","LIN":"19鄰","STREET":"大武街","SECT":" ","MAREA":" ","LANE":"５４１巷","ALLEY":"１２弄","HOUSE_NO":"６號","E_COORD97":170116.17000000001,"N_COORD97":2546458.1200000001,"ADDRESS":"大武街５４１巷１２弄６號","OBJECTID":77578},"geometry":{"x":170116.17000000086,"y":2546458.120000001}},{"attributes":{"ID":77579,"DIS_CODE":0,"TOWNNAME":"白河區","LI":"崎內里","LIN":"6鄰","STREET":" ","SECT":" ","MAREA":"內崎內","LANE":" ","ALLEY":" ","HOUSE_NO":"５７之１號","E_COORD97":196327.04999999999,"N_COORD97":2586608.3799999999,"ADDRESS":"內崎內５７之１號","OBJECTID":77579},"geometry":{"x":196327.04999999981,"y":2586608.3800000008}},{"attributes":{"ID":77580,"DIS_CODE":0,"TOWNNAME":"白河區","LI":"虎山里","LIN":"6鄰","STREET":" ","SECT":" ","MAREA":"木屐寮","LANE":" ","ALLEY":" ","HOUSE_NO":"８１號","E_COORD97":195041.85000000001,"N_COORD97":2583331.77,"ADDRESS":"木屐寮８１號","OBJECTID":77580},"geometry":{"x":195041.84999999963,"y":2583331.7699999996}},{"attributes":{"ID":77581,"DIS_CODE":0,"TOWNNAME":"善化區","LI":"六德里","LIN":"6鄰","STREET":" ","SECT":" ","MAREA":"六分寮","LANE":" ","ALLEY":" ","HOUSE_NO":"２５０號之３","E_COORD97":178802.64000000001,"N_COORD97":2561617.77,"ADDRESS":"六分寮２５０號之３","OBJECTID":77581},"geometry":{"x":178802.6400000006,"y":2561617.7699999977}},{"attributes":{"ID":77582,"DIS_CODE":0,"TOWNNAME":"北區","LI":"永祥里","LIN":"19鄰","STREET":"大武街","SECT":" ","MAREA":" ","LANE":"５４１巷","ALLEY":"１２弄","HOUSE_NO":"７號","E_COORD97":170126.63,"N_COORD97":2546461.7200000002,"ADDRESS":"大武街５４１巷１２弄７號","OBJECTID":77582},"geometry":{"x":170126.63000000082,"y":2546461.7200000025}},{"attributes":{"ID":77583,"DIS_CODE":0,"TOWNNAME":"北區","LI":"永祥里","LIN":"19鄰","STREET":"大武街","SECT":" ","MAREA":" ","LANE":"５４１巷","ALLEY":"１２弄","HOUSE_NO":"９號","E_COORD97":170131.70000000001,"N_COORD97":2546461.4199999999,"ADDRESS":"大武街５４１巷１２弄９號","OBJECTID":77583},"geometry":{"x":170131.70000000112,"y":2546461.4199999999}},{"attributes":{"ID":77584,"DIS_CODE":0,"TOWNNAME":"南區","LI":"明德里","LIN":"7鄰","STREET":"新都路","SECT":" ","MAREA":" ","LANE":" ","ALLEY":" ","HOUSE_NO":"１４５號","E_COORD97":168218.26000000001,"N_COORD97":2541363.0299999998,"ADDRESS":"新都路１４５號","OBJECTID":77584},"geometry":{"x":168218.26000000071,"y":2541363.0300000012}},{"attributes":{"ID":77585,"DIS_CODE":0,"TOWNNAME":"南區","LI":"明德里","LIN":"7鄰","STREET":"新都路","SECT":" ","MAREA":" ","LANE":" ","ALLEY":" ","HOUSE_NO":"１５１號","E_COORD97":168205.35999999999,"N_COORD97":2541314.8399999999,"ADDRESS":"新都路１５１號","OBJECTID":77585},"geometry":{"x":168205.36000000034,"y":2541314.8399999999}},{"attributes":{"ID":77586,"DIS_CODE":0,"TOWNNAME":"南區","LI":"明德里","LIN":"7鄰","STREET":"新都路","SECT":" ","MAREA":" ","LANE":" ","ALLEY":" ","HOUSE_NO":"１５５號","E_COORD97":168185.76999999999,"N_COORD97":2541298.6200000001,"ADDRESS":"新都路１５５號","OBJECTID":77586},"geometry":{"x":168185.77000000048,"y":2541298.6200000048}},{"attributes":{"ID":77587,"DIS_CODE":0,"TOWNNAME":"南區","LI":"明德里","LIN":"7鄰","STREET":"新都路","SECT":" ","MAREA":" ","LANE":" ","ALLEY":" ","HOUSE_NO":"１６３號","E_COORD97":168147.07999999999,"N_COORD97":2541257.4100000001,"ADDRESS":"新都路１６３號","OBJECTID":77587},"geometry":{"x":168147.08000000101,"y":2541257.4100000001}},{"attributes":{"ID":77588,"DIS_CODE":0,"TOWNNAME":"善化區","LI":"溪美里","LIN":"6鄰","STREET":" ","SECT":" ","MAREA":"溪尾","LANE":" ","ALLEY":" ","HOUSE_NO":"５１之１７號","E_COORD97":176868.23999999999,"N_COORD97":2561086.52,"ADDRESS":"溪尾５１之１７號","OBJECTID":77588},"geometry":{"x":176868.24000000115,"y":2561086.5199999996}},{"attributes":{"ID":77589,"DIS_CODE":0,"TOWNNAME":"善化區","LI":"嘉北里","LIN":"6鄰","STREET":" ","SECT":" ","MAREA":"茄拔","LANE":" ","ALLEY":" ","HOUSE_NO":"１６４號之１","E_COORD97":181068.75,"N_COORD97":2559828.27,"ADDRESS":"茄拔１６４號之１","OBJECTID":77589},"geometry":{"x":181068.75000000093,"y":2559828.2700000014}},{"attributes":{"ID":77590,"DIS_CODE":0,"TOWNNAME":"善化區","LI":"溪美里","LIN":"6鄰","STREET":" ","SECT":" ","MAREA":"溪尾","LANE":" ","ALLEY":" ","HOUSE_NO":"５１號之２１","E_COORD97":176898.45999999999,"N_COORD97":2561135.77,"ADDRESS":"溪尾５１號之２１","OBJECTID":77590},"geometry":{"x":176898.46000000089,"y":2561135.7699999996}},{"attributes":{"ID":77591,"DIS_CODE":0,"TOWNNAME":"善化區","LI":"嘉南里","LIN":"6鄰","STREET":" ","SECT":" ","MAREA":"茄拔","LANE":" ","ALLEY":" ","HOUSE_NO":"１０３號之６","E_COORD97":181058.35000000001,"N_COORD97":2559507.7599999998,"ADDRESS":"茄拔１０３號之６","OBJECTID":77591},"geometry":{"x":181058.35000000149,"y":2559507.7600000016}},{"attributes":{"ID":77592,"DIS_CODE":0,"TOWNNAME":"善化區","LI":"嘉北里","LIN":"6鄰","STREET":" ","SECT":" ","MAREA":"茄拔","LANE":" ","ALLEY":" ","HOUSE_NO":"１６８號之１","E_COORD97":181041.70000000001,"N_COORD97":2559896.27,"ADDRESS":"茄拔１６８號之１","OBJECTID":77592},"geometry":{"x":181041.70000000112,"y":2559896.2700000014}},{"attributes":{"ID":77593,"DIS_CODE":0,"TOWNNAME":"善化區","LI":"小新里","LIN":"6鄰","STREET":" ","SECT":" ","MAREA":"小新營","LANE":" ","ALLEY":" ","HOUSE_NO":"５０號之１","E_COORD97":179725.10000000001,"N_COORD97":2558287.27,"ADDRESS":"小新營５０號之１","OBJECTID":77593},"geometry":{"x":179725.10000000056,"y":2558287.2699999996}},{"attributes":{"ID":77594,"DIS_CODE":0,"TOWNNAME":"善化區","LI":"小新里","LIN":"6鄰","STREET":" ","SECT":" ","MAREA":"小新營","LANE":" ","ALLEY":" ","HOUSE_NO":"５１號之２","E_COORD97":179723.64999999999,"N_COORD97":2558302.02,"ADDRESS":"小新營５１號之２","OBJECTID":77594},"geometry":{"x":179723.6500000013,"y":2558302.0200000014}},{"attributes":{"ID":77595,"DIS_CODE":0,"TOWNNAME":"新營區","LI":"太北里","LIN":" ","STREET":" ","SECT":" ","MAREA":"太子宮","LANE":" ","ALLEY":" ","HOUSE_NO":"７２號","E_COORD97":176063.59,"N_COORD97":2577074.6299999999,"ADDRESS":"太子宮７２號","OBJECTID":77595},"geometry":{"x":176063.59000000078,"y":2577074.629999999}},{"attributes":{"ID":77596,"DIS_CODE":0,"TOWNNAME":"善化區","LI":"小新里","LIN":"6鄰","STREET":" ","SECT":" ","MAREA":"小新營","LANE":" ","ALLEY":" ","HOUSE_NO":"４８號","E_COORD97":179734.44827299999,"N_COORD97":2558249.8199900002,"ADDRESS":"小新營４８號","OBJECTID":77596},"geometry":{"x":179734.44827300217,"y":2558249.8199899998}},{"attributes":{"ID":77597,"DIS_CODE":0,"TOWNNAME":"善化區","LI":"小新里","LIN":"6鄰","STREET":" ","SECT":" ","MAREA":"小新營","LANE":" ","ALLEY":" ","HOUSE_NO":"５１號之３","E_COORD97":179730.07000000001,"N_COORD97":2558317.27,"ADDRESS":"小新營５１號之３","OBJECTID":77597},"geometry":{"x":179730.0700000003,"y":2558317.2700000014}},{"attributes":{"ID":77598,"DIS_CODE":0,"TOWNNAME":"善化區","LI":"小新里","LIN":"6鄰","STREET":" ","SECT":" ","MAREA":"小新營","LANE":" ","ALLEY":" ","HOUSE_NO":"５１號之１","E_COORD97":179730.32000000001,"N_COORD97":2558306.27,"ADDRESS":"小新營５１號之１","OBJECTID":77598},"geometry":{"x":179730.32000000216,"y":2558306.2700000014}},{"attributes":{"ID":77599,"DIS_CODE":0,"TOWNNAME":"善化區","LI":"六德里","LIN":"6鄰","STREET":" ","SECT":" ","MAREA":"六分寮","LANE":" ","ALLEY":" ","HOUSE_NO":"２５１號之１","E_COORD97":178790.17999999999,"N_COORD97":2561623.02,"ADDRESS":"六分寮２５１號之１","OBJECTID":77599},"geometry":{"x":178790.18000000063,"y":2561623.0200000033}},{"attributes":{"ID":77600,"DIS_CODE":0,"TOWNNAME":"善化區","LI":"六德里","LIN":"6鄰","STREET":" ","SECT":" ","MAREA":"六分寮","LANE":" ","ALLEY":" ","HOUSE_NO":"２５２號","E_COORD97":178778.42999999999,"N_COORD97":2561635.25,"ADDRESS":"六分寮２５２號","OBJECTID":77600},"geometry":{"x":178778.43000000063,"y":2561635.25}}]}