{"displayFieldName":"TOWNNAME","fieldAliases":{"ID":"ID","DIS_CODE":"DIS_CODE","TOWNNAME":"TOWNNAME","LI":"LI","LIN":"LIN","STREET":"STREET","SECT":"SECT","MAREA":"MAREA","LANE":"LANE","ALLEY":"ALLEY","HOUSE_NO":"HOUSE_NO","E_COORD97":"E_COORD97","N_COORD97":"N_COORD97","ADDRESS":"ADDRESS","OBJECTID":"OBJECTID"},"geometryType":"esriGeometryPoint","spatialReference":{"wkid":102443,"latestWkid":3826},"fields":[{"name":"ID","type":"esriFieldTypeDouble","alias":"ID"},{"name":"DIS_CODE","type":"esriFieldTypeInteger","alias":"DIS_CODE"},{"name":"TOWNNAME","type":"esriFieldTypeString","alias":"TOWNNAME","length":8},{"name":"LI","type":"esriFieldTypeString","alias":"LI","length":8},{"name":"LIN","type":"esriFieldTypeString","alias":"LIN","length":12},{"name":"STREET","type":"esriFieldTypeString","alias":"STREET","length":20},{"name":"SECT","type":"esriFieldTypeString","alias":"SECT","length":8},{"name":"MAREA","type":"esriFieldTypeString","alias":"MAREA","length":12},{"name":"LANE","type":"esriFieldTypeString","alias":"LANE","length":10},{"name":"ALLEY","type":"esriFieldTypeString","alias":"ALLEY","length":10},{"name":"HOUSE_NO","type":"esriFieldTypeString","alias":"HOUSE_NO","length":20},{"name":"E_COORD97","type":"esriFieldTypeDouble","alias":"E_COORD97"},{"name":"N_COORD97","type":"esriFieldTypeDouble","alias":"N_COORD97"},{"name":"ADDRESS","type":"esriFieldTypeString","alias":"ADDRESS","length":50},{"name":"OBJECTID","type":"esriFieldTypeOID","alias":"OBJECTID"}],"features":[{"attributes":{"ID":118601,"DIS_CODE":0,"TOWNNAME":"安南區","LI":"新順里","LIN":"23鄰","STREET":"安和路","SECT":"二段","MAREA":" ","LANE":"２８５巷","ALLEY":"１６弄","HOUSE_NO":"６０號","E_COORD97":169522.59,"N_COORD97":2549283.77,"ADDRESS":"安和路二段２８５巷１６弄６０號","OBJECTID":118601},"geometry":{"x":169522.58999999985,"y":2549283.7700000033}},{"attributes":{"ID":118602,"DIS_CODE":0,"TOWNNAME":"佳里區","LI":"安西里","LIN":"23鄰","STREET":"忠孝路","SECT":" ","MAREA":" ","LANE":"１１０巷","ALLEY":"１１弄","HOUSE_NO":"１號","E_COORD97":165266.25,"N_COORD97":2563217.1099999999,"ADDRESS":"忠孝路１１０巷１１弄１號","OBJECTID":118602},"geometry":{"x":165266.25,"y":2563217.1100000013}},{"attributes":{"ID":118603,"DIS_CODE":0,"TOWNNAME":"佳里區","LI":"安西里","LIN":"23鄰","STREET":"忠孝路","SECT":" ","MAREA":" ","LANE":"１１０巷","ALLEY":"１１弄","HOUSE_NO":"２號","E_COORD97":165279.57999999999,"N_COORD97":2563229.25,"ADDRESS":"忠孝路１１０巷１１弄２號","OBJECTID":118603},"geometry":{"x":165279.58000000007,"y":2563229.2500000037}},{"attributes":{"ID":118604,"DIS_CODE":0,"TOWNNAME":"佳里區","LI":"安西里","LIN":"23鄰","STREET":"忠孝路","SECT":" ","MAREA":" ","LANE":"１１０巷","ALLEY":"１１弄","HOUSE_NO":"３號","E_COORD97":165261.45000000001,"N_COORD97":2563222.2999999998,"ADDRESS":"忠孝路１１０巷１１弄３號","OBJECTID":118604},"geometry":{"x":165261.45000000112,"y":2563222.3000000007}},{"attributes":{"ID":118605,"DIS_CODE":0,"TOWNNAME":"歸仁區","LI":"後市里","LIN":"35鄰","STREET":"國光街","SECT":" ","MAREA":" ","LANE":" ","ALLEY":" ","HOUSE_NO":"８３號","E_COORD97":177241.29000000001,"N_COORD97":2540953.7400000002,"ADDRESS":"國光街８３號","OBJECTID":118605},"geometry":{"x":177241.29000000004,"y":2540953.7400000002}},{"attributes":{"ID":118606,"DIS_CODE":0,"TOWNNAME":"歸仁區","LI":"後市里","LIN":"35鄰","STREET":"中山八街","SECT":" ","MAREA":" ","LANE":" ","ALLEY":" ","HOUSE_NO":"４０號","E_COORD97":177232.53,"N_COORD97":2540996.7400000002,"ADDRESS":"中山八街４０號","OBJECTID":118606},"geometry":{"x":177232.53000000119,"y":2540996.7400000021}},{"attributes":{"ID":118607,"DIS_CODE":0,"TOWNNAME":"學甲區","LI":"中洲里","LIN":"35鄰","STREET":" ","SECT":" ","MAREA":"中洲","LANE":" ","ALLEY":" ","HOUSE_NO":"４６６號之２","E_COORD97":163947.57999999999,"N_COORD97":2571642.1499999999,"ADDRESS":"中洲４６６號之２","OBJECTID":118607},"geometry":{"x":163947.58000000007,"y":2571642.1500000022}},{"attributes":{"ID":118608,"DIS_CODE":0,"TOWNNAME":"學甲區","LI":"中洲里","LIN":"35鄰","STREET":" ","SECT":" ","MAREA":"中洲","LANE":" ","ALLEY":" ","HOUSE_NO":"４６６號","E_COORD97":163947.32000000001,"N_COORD97":2571631.6499999999,"ADDRESS":"中洲４６６號","OBJECTID":118608},"geometry":{"x":163947.3200000003,"y":2571631.6500000041}},{"attributes":{"ID":118609,"DIS_CODE":0,"TOWNNAME":"學甲區","LI":"中洲里","LIN":"35鄰","STREET":" ","SECT":" ","MAREA":"中洲","LANE":" ","ALLEY":" ","HOUSE_NO":"４６８號","E_COORD97":163916.69,"N_COORD97":2571665.4199999999,"ADDRESS":"中洲４６８號","OBJECTID":118609},"geometry":{"x":163916.69000000041,"y":2571665.4199999999}},{"attributes":{"ID":118610,"DIS_CODE":0,"TOWNNAME":"學甲區","LI":"中洲里","LIN":"35鄰","STREET":" ","SECT":" ","MAREA":"中洲","LANE":" ","ALLEY":" ","HOUSE_NO":"４６９號","E_COORD97":163937.41,"N_COORD97":2571672.4199999999,"ADDRESS":"中洲４６９號","OBJECTID":118610},"geometry":{"x":163937.41000000108,"y":2571672.4199999999}},{"attributes":{"ID":118611,"DIS_CODE":0,"TOWNNAME":"學甲區","LI":"中洲里","LIN":"35鄰","STREET":" ","SECT":" ","MAREA":"中洲","LANE":" ","ALLEY":" ","HOUSE_NO":"４７０號","E_COORD97":163907.98999999999,"N_COORD97":2571699.5299999998,"ADDRESS":"中洲４７０號","OBJECTID":118611},"geometry":{"x":163907.99000000115,"y":2571699.5300000012}},{"attributes":{"ID":118612,"DIS_CODE":0,"TOWNNAME":"學甲區","LI":"中洲里","LIN":"35鄰","STREET":" ","SECT":" ","MAREA":"中洲","LANE":" ","ALLEY":" ","HOUSE_NO":"４７１號","E_COORD97":163933.14999999999,"N_COORD97":2571698.5800000001,"ADDRESS":"中洲４７１號","OBJECTID":118612},"geometry":{"x":163933.1500000013,"y":2571698.5800000001}},{"attributes":{"ID":118613,"DIS_CODE":0,"TOWNNAME":"麻豆區","LI":"安正里","LIN":"4鄰","STREET":" ","SECT":" ","MAREA":"方厝寮","LANE":" ","ALLEY":" ","HOUSE_NO":"３８號之１７","E_COORD97":170998.70000000001,"N_COORD97":2562042.1800000002,"ADDRESS":"方厝寮３８號之１７","OBJECTID":118613},"geometry":{"x":170998.70000000019,"y":2562042.1799999997}},{"attributes":{"ID":118614,"DIS_CODE":0,"TOWNNAME":"麻豆區","LI":"安正里","LIN":"4鄰","STREET":" ","SECT":" ","MAREA":"方厝寮","LANE":" ","ALLEY":" ","HOUSE_NO":"３８號之１８","E_COORD97":171021.48000000001,"N_COORD97":2562012.6400000001,"ADDRESS":"方厝寮３８號之１８","OBJECTID":118614},"geometry":{"x":171021.48000000138,"y":2562012.6400000006}},{"attributes":{"ID":118615,"DIS_CODE":0,"TOWNNAME":"麻豆區","LI":"安正里","LIN":"4鄰","STREET":" ","SECT":" ","MAREA":"方厝寮","LANE":" ","ALLEY":" ","HOUSE_NO":"３８號之１","E_COORD97":170961.63,"N_COORD97":2562011.4900000002,"ADDRESS":"方厝寮３８號之１","OBJECTID":118615},"geometry":{"x":170961.62999999989,"y":2562011.4900000021}},{"attributes":{"ID":118616,"DIS_CODE":0,"TOWNNAME":"麻豆區","LI":"安正里","LIN":"4鄰","STREET":" ","SECT":" ","MAREA":"方厝寮","LANE":" ","ALLEY":" ","HOUSE_NO":"３８號之２０","E_COORD97":171026.92000000001,"N_COORD97":2562008.8300000001,"ADDRESS":"方厝寮３８號之２０","OBJECTID":118616},"geometry":{"x":171026.92000000086,"y":2562008.8300000019}},{"attributes":{"ID":118617,"DIS_CODE":0,"TOWNNAME":"佳里區","LI":"安西里","LIN":"23鄰","STREET":"忠孝路","SECT":" ","MAREA":" ","LANE":"１１０巷","ALLEY":"１１弄","HOUSE_NO":"４號","E_COORD97":165277.07000000001,"N_COORD97":2563232.9700000002,"ADDRESS":"忠孝路１１０巷１１弄４號","OBJECTID":118617},"geometry":{"x":165277.07000000216,"y":2563232.9700000025}},{"attributes":{"ID":118618,"DIS_CODE":0,"TOWNNAME":"歸仁區","LI":"後市里","LIN":"35鄰","STREET":"國光街","SECT":" ","MAREA":" ","LANE":" ","ALLEY":" ","HOUSE_NO":"７７號","E_COORD97":177226.98999999999,"N_COORD97":2540952.7400000002,"ADDRESS":"國光街７７號","OBJECTID":118618},"geometry":{"x":177226.99000000209,"y":2540952.7400000021}},{"attributes":{"ID":118619,"DIS_CODE":0,"TOWNNAME":"佳里區","LI":"安西里","LIN":"23鄰","STREET":"忠孝路","SECT":" ","MAREA":" ","LANE":"１１０巷","ALLEY":"１１弄","HOUSE_NO":"５號","E_COORD97":165254.32000000001,"N_COORD97":2563225.96,"ADDRESS":"忠孝路１１０巷１１弄５號","OBJECTID":118619},"geometry":{"x":165254.3200000003,"y":2563225.9600000028}},{"attributes":{"ID":118620,"DIS_CODE":0,"TOWNNAME":"歸仁區","LI":"後市里","LIN":"35鄰","STREET":"國光街","SECT":" ","MAREA":" ","LANE":" ","ALLEY":" ","HOUSE_NO":"８５號","E_COORD97":177247.48999999999,"N_COORD97":2540955.7400000002,"ADDRESS":"國光街８５號","OBJECTID":118620},"geometry":{"x":177247.49000000115,"y":2540955.7400000021}},{"attributes":{"ID":118621,"DIS_CODE":0,"TOWNNAME":"麻豆區","LI":"安正里","LIN":"4鄰","STREET":" ","SECT":" ","MAREA":"方厝寮","LANE":" ","ALLEY":" ","HOUSE_NO":"３８號之２１","E_COORD97":171007.72,"N_COORD97":2562047.7799999998,"ADDRESS":"方厝寮３８號之２１","OBJECTID":118621},"geometry":{"x":171007.72000000067,"y":2562047.7799999993}},{"attributes":{"ID":118622,"DIS_CODE":0,"TOWNNAME":"麻豆區","LI":"安正里","LIN":"4鄰","STREET":" ","SECT":" ","MAREA":"方厝寮","LANE":" ","ALLEY":" ","HOUSE_NO":"３８號之２３","E_COORD97":171012.23000000001,"N_COORD97":2562050.5800000001,"ADDRESS":"方厝寮３８號之２３","OBJECTID":118622},"geometry":{"x":171012.23000000045,"y":2562050.5800000038}},{"attributes":{"ID":118623,"DIS_CODE":0,"TOWNNAME":"麻豆區","LI":"安正里","LIN":"4鄰","STREET":" ","SECT":" ","MAREA":"方厝寮","LANE":" ","ALLEY":" ","HOUSE_NO":"３８號之２５","E_COORD97":171016.73999999999,"N_COORD97":2562053.3799999999,"ADDRESS":"方厝寮３８號之２５","OBJECTID":118623},"geometry":{"x":171016.74000000022,"y":2562053.379999999}},{"attributes":{"ID":118624,"DIS_CODE":0,"TOWNNAME":"麻豆區","LI":"安正里","LIN":"4鄰","STREET":" ","SECT":" ","MAREA":"方厝寮","LANE":" ","ALLEY":" ","HOUSE_NO":"３８號之２７","E_COORD97":171022.5,"N_COORD97":2562035.9500000002,"ADDRESS":"方厝寮３８號之２７","OBJECTID":118624},"geometry":{"x":171022.50000000093,"y":2562035.9499999993}},{"attributes":{"ID":118625,"DIS_CODE":0,"TOWNNAME":"歸仁區","LI":"後市里","LIN":"35鄰","STREET":"國光街","SECT":" ","MAREA":" ","LANE":" ","ALLEY":" ","HOUSE_NO":"９７號","E_COORD97":177276.19,"N_COORD97":2540970.7400000002,"ADDRESS":"國光街９７號","OBJECTID":118625},"geometry":{"x":177276.19000000041,"y":2540970.7400000002}},{"attributes":{"ID":118626,"DIS_CODE":0,"TOWNNAME":"佳里區","LI":"安西里","LIN":"23鄰","STREET":"忠孝路","SECT":" ","MAREA":" ","LANE":"１１０巷","ALLEY":"５弄","HOUSE_NO":"１１號","E_COORD97":165240.57999999999,"N_COORD97":2563218.8100000001,"ADDRESS":"忠孝路１１０巷５弄１１號","OBJECTID":118626},"geometry":{"x":165240.58000000007,"y":2563218.8099999987}},{"attributes":{"ID":118627,"DIS_CODE":0,"TOWNNAME":"佳里區","LI":"安西里","LIN":"23鄰","STREET":"忠孝路","SECT":" ","MAREA":" ","LANE":"１１０巷","ALLEY":"５弄","HOUSE_NO":"１３號","E_COORD97":165239.38,"N_COORD97":2563224.0800000001,"ADDRESS":"忠孝路１１０巷５弄１３號","OBJECTID":118627},"geometry":{"x":165239.38000000082,"y":2563224.0800000019}},{"attributes":{"ID":118628,"DIS_CODE":0,"TOWNNAME":"麻豆區","LI":"安正里","LIN":"4鄰","STREET":" ","SECT":" ","MAREA":"方厝寮","LANE":" ","ALLEY":" ","HOUSE_NO":"３８號之２９","E_COORD97":171026.41,"N_COORD97":2562032.6200000001,"ADDRESS":"方厝寮３８號之２９","OBJECTID":118628},"geometry":{"x":171026.41000000201,"y":2562032.620000001}},{"attributes":{"ID":118629,"DIS_CODE":0,"TOWNNAME":"安平區","LI":"育平里","LIN":"35鄰","STREET":"平豐路","SECT":" ","MAREA":" ","LANE":" ","ALLEY":" ","HOUSE_NO":"２２０號","E_COORD97":164320.48000000001,"N_COORD97":2543404.79,"ADDRESS":"平豐路２２０號","OBJECTID":118629},"geometry":{"x":164320.48000000138,"y":2543404.790000001}},{"attributes":{"ID":118630,"DIS_CODE":0,"TOWNNAME":"麻豆區","LI":"安正里","LIN":"4鄰","STREET":" ","SECT":" ","MAREA":"方厝寮","LANE":" ","ALLEY":" ","HOUSE_NO":"３８號之２","E_COORD97":170979.19,"N_COORD97":2562008.02,"ADDRESS":"方厝寮３８號之２","OBJECTID":118630},"geometry":{"x":170979.19000000134,"y":2562008.0199999996}},{"attributes":{"ID":118631,"DIS_CODE":0,"TOWNNAME":"麻豆區","LI":"安正里","LIN":"4鄰","STREET":" ","SECT":" ","MAREA":"方厝寮","LANE":" ","ALLEY":" ","HOUSE_NO":"３８號之３１","E_COORD97":171030.32999999999,"N_COORD97":2562029.2799999998,"ADDRESS":"方厝寮３８號之３１","OBJECTID":118631},"geometry":{"x":171030.33000000194,"y":2562029.2800000012}},{"attributes":{"ID":118632,"DIS_CODE":0,"TOWNNAME":"麻豆區","LI":"安正里","LIN":"4鄰","STREET":" ","SECT":" ","MAREA":"方厝寮","LANE":" ","ALLEY":" ","HOUSE_NO":"３８號之３３","E_COORD97":171034.23999999999,"N_COORD97":2562025.9500000002,"ADDRESS":"方厝寮３８號之３３","OBJECTID":118632},"geometry":{"x":171034.24000000022,"y":2562025.9499999993}},{"attributes":{"ID":118633,"DIS_CODE":0,"TOWNNAME":"佳里區","LI":"安西里","LIN":"23鄰","STREET":"忠孝路","SECT":" ","MAREA":" ","LANE":"１１０巷","ALLEY":"５弄","HOUSE_NO":"１５號","E_COORD97":165236.32999999999,"N_COORD97":2563226.3999999999,"ADDRESS":"忠孝路１１０巷５弄１５號","OBJECTID":118633},"geometry":{"x":165236.33000000101,"y":2563226.4000000022}},{"attributes":{"ID":118634,"DIS_CODE":0,"TOWNNAME":"麻豆區","LI":"安正里","LIN":"4鄰","STREET":" ","SECT":" ","MAREA":"方厝寮","LANE":" ","ALLEY":" ","HOUSE_NO":"３８號之３５","E_COORD97":171038.14999999999,"N_COORD97":2562022.6099999999,"ADDRESS":"方厝寮３８號之３５","OBJECTID":118634},"geometry":{"x":171038.15000000037,"y":2562022.6100000031}},{"attributes":{"ID":118635,"DIS_CODE":0,"TOWNNAME":"麻豆區","LI":"安正里","LIN":"4鄰","STREET":" ","SECT":" ","MAREA":"方厝寮","LANE":" ","ALLEY":" ","HOUSE_NO":"３８號之３７","E_COORD97":171042.06,"N_COORD97":2562019.2799999998,"ADDRESS":"方厝寮３８號之３７","OBJECTID":118635},"geometry":{"x":171042.06000000052,"y":2562019.2800000012}},{"attributes":{"ID":118636,"DIS_CODE":0,"TOWNNAME":"麻豆區","LI":"安正里","LIN":"4鄰","STREET":" ","SECT":" ","MAREA":"方厝寮","LANE":" ","ALLEY":" ","HOUSE_NO":"３８號之７","E_COORD97":170976.10000000001,"N_COORD97":2562028.1099999999,"ADDRESS":"方厝寮３８號之７","OBJECTID":118636},"geometry":{"x":170976.10000000056,"y":2562028.1099999994}},{"attributes":{"ID":118637,"DIS_CODE":0,"TOWNNAME":"佳里區","LI":"安西里","LIN":"23鄰","STREET":"忠孝路","SECT":" ","MAREA":" ","LANE":"１１０巷","ALLEY":"５弄","HOUSE_NO":"１號","E_COORD97":165255.67000000001,"N_COORD97":2563205.79,"ADDRESS":"忠孝路１１０巷５弄１號","OBJECTID":118637},"geometry":{"x":165255.67000000179,"y":2563205.790000001}},{"attributes":{"ID":118638,"DIS_CODE":0,"TOWNNAME":"佳里區","LI":"安西里","LIN":"23鄰","STREET":"忠孝路","SECT":" ","MAREA":" ","LANE":"１１０巷","ALLEY":"５弄","HOUSE_NO":"３號","E_COORD97":165252.42999999999,"N_COORD97":2563208.3999999999,"ADDRESS":"忠孝路１１０巷５弄３號","OBJECTID":118638},"geometry":{"x":165252.43000000063,"y":2563208.4000000022}},{"attributes":{"ID":118639,"DIS_CODE":0,"TOWNNAME":"麻豆區","LI":"安正里","LIN":"4鄰","STREET":" ","SECT":" ","MAREA":"方厝寮","LANE":" ","ALLEY":" ","HOUSE_NO":"３８號之８","E_COORD97":170998.28,"N_COORD97":2562013.7999999998,"ADDRESS":"方厝寮３８號之８","OBJECTID":118639},"geometry":{"x":170998.28000000026,"y":2562013.8000000026}},{"attributes":{"ID":118640,"DIS_CODE":0,"TOWNNAME":"佳里區","LI":"安西里","LIN":"23鄰","STREET":"忠孝路","SECT":" ","MAREA":" ","LANE":"１１０巷","ALLEY":"５弄","HOUSE_NO":"５號","E_COORD97":165249.48999999999,"N_COORD97":2563211.1000000001,"ADDRESS":"忠孝路１１０巷５弄５號","OBJECTID":118640},"geometry":{"x":165249.49000000115,"y":2563211.0999999996}},{"attributes":{"ID":118641,"DIS_CODE":0,"TOWNNAME":"麻豆區","LI":"安正里","LIN":"4鄰","STREET":" ","SECT":" ","MAREA":"方厝寮","LANE":" ","ALLEY":" ","HOUSE_NO":"３８號之９","E_COORD97":170980.82999999999,"N_COORD97":2562031.27,"ADDRESS":"方厝寮３８號之９","OBJECTID":118641},"geometry":{"x":170980.83000000007,"y":2562031.2699999996}},{"attributes":{"ID":118642,"DIS_CODE":0,"TOWNNAME":"佳里區","LI":"安西里","LIN":"23鄰","STREET":"忠孝路","SECT":" ","MAREA":" ","LANE":"１１０巷","ALLEY":"５弄","HOUSE_NO":"７號","E_COORD97":165246.67999999999,"N_COORD97":2563214.1699999999,"ADDRESS":"忠孝路１１０巷５弄７號","OBJECTID":118642},"geometry":{"x":165246.6799999997,"y":2563214.1700000018}},{"attributes":{"ID":118643,"DIS_CODE":0,"TOWNNAME":"麻豆區","LI":"安正里","LIN":"4鄰","STREET":" ","SECT":" ","MAREA":"方厝寮","LANE":" ","ALLEY":" ","HOUSE_NO":"３８號","E_COORD97":170958.78,"N_COORD97":2562018.2200000002,"ADDRESS":"方厝寮３８號","OBJECTID":118643},"geometry":{"x":170958.78000000026,"y":2562018.2200000007}},{"attributes":{"ID":118644,"DIS_CODE":0,"TOWNNAME":"麻豆區","LI":"安正里","LIN":"4鄰","STREET":" ","SECT":" ","MAREA":"方厝寮","LANE":" ","ALLEY":" ","HOUSE_NO":"３９號之１０","E_COORD97":171809.62,"N_COORD97":2562009.8199999998,"ADDRESS":"方厝寮３９號之１０","OBJECTID":118644},"geometry":{"x":171809.62000000011,"y":2562009.8200000022}},{"attributes":{"ID":118645,"DIS_CODE":0,"TOWNNAME":"佳里區","LI":"安西里","LIN":"23鄰","STREET":"忠孝路","SECT":" ","MAREA":" ","LANE":"１１０巷","ALLEY":"５弄","HOUSE_NO":"９號","E_COORD97":165243.25,"N_COORD97":2563217.1600000001,"ADDRESS":"忠孝路１１０巷５弄９號","OBJECTID":118645},"geometry":{"x":165243.24999999907,"y":2563217.160000002}},{"attributes":{"ID":118646,"DIS_CODE":0,"TOWNNAME":"安南區","LI":"安東里","LIN":"23鄰","STREET":"安和路","SECT":"一段","MAREA":" ","LANE":"４９６巷","ALLEY":"４１弄","HOUSE_NO":"１３號","E_COORD97":169566.64999999999,"N_COORD97":2548407.9900000002,"ADDRESS":"安和路一段４９６巷４１弄１３號","OBJECTID":118646},"geometry":{"x":169566.65000000037,"y":2548407.9900000002}},{"attributes":{"ID":118647,"DIS_CODE":0,"TOWNNAME":"安南區","LI":"安東里","LIN":"23鄰","STREET":"安和路","SECT":"一段","MAREA":" ","LANE":"４９６巷","ALLEY":"４１弄","HOUSE_NO":"１５號","E_COORD97":169571.12,"N_COORD97":2548407.9900000002,"ADDRESS":"安和路一段４９６巷４１弄１５號","OBJECTID":118647},"geometry":{"x":169571.12000000104,"y":2548407.9900000002}},{"attributes":{"ID":118648,"DIS_CODE":0,"TOWNNAME":"麻豆區","LI":"安正里","LIN":"4鄰","STREET":" ","SECT":" ","MAREA":"方厝寮","LANE":" ","ALLEY":" ","HOUSE_NO":"３９號之１１","E_COORD97":171810.87,"N_COORD97":2562005.0299999998,"ADDRESS":"方厝寮３９號之１１","OBJECTID":118648},"geometry":{"x":171810.87000000011,"y":2562005.0299999993}},{"attributes":{"ID":118649,"DIS_CODE":0,"TOWNNAME":"麻豆區","LI":"安正里","LIN":"4鄰","STREET":" ","SECT":" ","MAREA":"方厝寮","LANE":" ","ALLEY":" ","HOUSE_NO":"３９號之１３","E_COORD97":171826.98999999999,"N_COORD97":2561983.7200000002,"ADDRESS":"方厝寮３９號之１３","OBJECTID":118649},"geometry":{"x":171826.99000000022,"y":2561983.7200000025}},{"attributes":{"ID":118650,"DIS_CODE":0,"TOWNNAME":"麻豆區","LI":"安正里","LIN":"4鄰","STREET":" ","SECT":" ","MAREA":"方厝寮","LANE":" ","ALLEY":" ","HOUSE_NO":"３９號之１","E_COORD97":171839.51000000001,"N_COORD97":2561972.02,"ADDRESS":"方厝寮３９號之１","OBJECTID":118650},"geometry":{"x":171839.51000000071,"y":2561972.0199999996}},{"attributes":{"ID":118651,"DIS_CODE":0,"TOWNNAME":"玉井區","LI":"玉田里","LIN":"35鄰","STREET":"大勇街","SECT":" ","MAREA":" ","LANE":" ","ALLEY":" ","HOUSE_NO":"３號","E_COORD97":195671.45999999999,"N_COORD97":2558181.25,"ADDRESS":"大勇街３號","OBJECTID":118651},"geometry":{"x":195671.45999999996,"y":2558181.2500000019}},{"attributes":{"ID":118652,"DIS_CODE":0,"TOWNNAME":"玉井區","LI":"玉田里","LIN":"35鄰","STREET":"大成路","SECT":" ","MAREA":" ","LANE":" ","ALLEY":" ","HOUSE_NO":"１７８號","E_COORD97":195698.35999999999,"N_COORD97":2558163.2599999998,"ADDRESS":"大成路１７８號","OBJECTID":118652},"geometry":{"x":195698.36000000034,"y":2558163.2599999979}},{"attributes":{"ID":118653,"DIS_CODE":0,"TOWNNAME":"玉井區","LI":"玉田里","LIN":"35鄰","STREET":"大勇街","SECT":" ","MAREA":" ","LANE":" ","ALLEY":" ","HOUSE_NO":"７號","E_COORD97":195660.35999999999,"N_COORD97":2558181.25,"ADDRESS":"大勇街７號","OBJECTID":118653},"geometry":{"x":195660.36000000127,"y":2558181.2500000019}},{"attributes":{"ID":118654,"DIS_CODE":0,"TOWNNAME":"學甲區","LI":"三慶里","LIN":"35鄰","STREET":" ","SECT":" ","MAREA":"新芳","LANE":" ","ALLEY":" ","HOUSE_NO":"１１２號","E_COORD97":165378.39999999999,"N_COORD97":2575439.9500000002,"ADDRESS":"新芳１１２號","OBJECTID":118654},"geometry":{"x":165378.40000000224,"y":2575439.9500000011}},{"attributes":{"ID":118655,"DIS_CODE":0,"TOWNNAME":"學甲區","LI":"三慶里","LIN":"35鄰","STREET":" ","SECT":" ","MAREA":"新芳","LANE":" ","ALLEY":" ","HOUSE_NO":"１１３號","E_COORD97":165409.01000000001,"N_COORD97":2575432.1099999999,"ADDRESS":"新芳１１３號","OBJECTID":118655},"geometry":{"x":165409.00999999978,"y":2575432.1100000013}},{"attributes":{"ID":118656,"DIS_CODE":0,"TOWNNAME":"安南區","LI":"安東里","LIN":"23鄰","STREET":"安和路","SECT":"一段","MAREA":" ","LANE":"４９６巷","ALLEY":"４１弄","HOUSE_NO":"１７號","E_COORD97":169574.75,"N_COORD97":2548408.9700000002,"ADDRESS":"安和路一段４９６巷４１弄１７號","OBJECTID":118656},"geometry":{"x":169574.75000000093,"y":2548408.9700000044}},{"attributes":{"ID":118657,"DIS_CODE":0,"TOWNNAME":"安南區","LI":"安東里","LIN":"23鄰","STREET":"安和路","SECT":"一段","MAREA":" ","LANE":"４９６巷","ALLEY":"４１弄","HOUSE_NO":"１９號","E_COORD97":169578.95000000001,"N_COORD97":2548408.8300000001,"ADDRESS":"安和路一段４９６巷４１弄１９號","OBJECTID":118657},"geometry":{"x":169578.95000000112,"y":2548408.8300000001}},{"attributes":{"ID":118658,"DIS_CODE":0,"TOWNNAME":"安南區","LI":"安東里","LIN":"23鄰","STREET":"安和路","SECT":"一段","MAREA":" ","LANE":"４９６巷","ALLEY":"４１弄","HOUSE_NO":"２１號","E_COORD97":169582.72,"N_COORD97":2548409.1000000001,"ADDRESS":"安和路一段４９６巷４１弄２１號","OBJECTID":118658},"geometry":{"x":169582.71999999974,"y":2548409.0999999996}},{"attributes":{"ID":118659,"DIS_CODE":0,"TOWNNAME":"安南區","LI":"安東里","LIN":"23鄰","STREET":"安和路","SECT":"一段","MAREA":" ","LANE":"４９６巷","ALLEY":"４１弄","HOUSE_NO":"２３號","E_COORD97":169587.04999999999,"N_COORD97":2548408.9700000002,"ADDRESS":"安和路一段４９６巷４１弄２３號","OBJECTID":118659},"geometry":{"x":169587.04999999981,"y":2548408.9700000044}},{"attributes":{"ID":118660,"DIS_CODE":0,"TOWNNAME":"學甲區","LI":"三慶里","LIN":"35鄰","STREET":" ","SECT":" ","MAREA":"新芳","LANE":" ","ALLEY":" ","HOUSE_NO":"１１４號","E_COORD97":165403.84,"N_COORD97":2575415.79,"ADDRESS":"新芳１１４號","OBJECTID":118660},"geometry":{"x":165403.84000000078,"y":2575415.7899999991}},{"attributes":{"ID":118661,"DIS_CODE":0,"TOWNNAME":"安南區","LI":"安東里","LIN":"23鄰","STREET":"安和路","SECT":"一段","MAREA":" ","LANE":"４９６巷","ALLEY":"４１弄","HOUSE_NO":"２５號","E_COORD97":169590.95999999999,"N_COORD97":2548409.7999999998,"ADDRESS":"安和路一段４９６巷４１弄２５號","OBJECTID":118661},"geometry":{"x":169590.95999999996,"y":2548409.8000000007}},{"attributes":{"ID":118662,"DIS_CODE":0,"TOWNNAME":"學甲區","LI":"三慶里","LIN":"35鄰","STREET":" ","SECT":" ","MAREA":"新芳","LANE":" ","ALLEY":" ","HOUSE_NO":"１０９號","E_COORD97":165301.82999999999,"N_COORD97":2575474.5499999998,"ADDRESS":"新芳１０９號","OBJECTID":118662},"geometry":{"x":165301.83000000007,"y":2575474.5500000026}},{"attributes":{"ID":118663,"DIS_CODE":0,"TOWNNAME":"安南區","LI":"安東里","LIN":"23鄰","STREET":"安和路","SECT":"一段","MAREA":" ","LANE":"４９６巷","ALLEY":"４１弄","HOUSE_NO":"２７號","E_COORD97":169595.14999999999,"N_COORD97":2548409.3799999999,"ADDRESS":"安和路一段４９６巷４１弄２７號","OBJECTID":118663},"geometry":{"x":169595.15000000037,"y":2548409.3800000008}},{"attributes":{"ID":118664,"DIS_CODE":0,"TOWNNAME":"安南區","LI":"安東里","LIN":"23鄰","STREET":"安和路","SECT":"一段","MAREA":" ","LANE":"４９６巷","ALLEY":"４１弄","HOUSE_NO":"２９號","E_COORD97":169599.07000000001,"N_COORD97":2548410.2200000002,"ADDRESS":"安和路一段４９６巷４１弄２９號","OBJECTID":118664},"geometry":{"x":169599.0700000003,"y":2548410.2200000007}},{"attributes":{"ID":118665,"DIS_CODE":0,"TOWNNAME":"安南區","LI":"安東里","LIN":"23鄰","STREET":"安和路","SECT":"一段","MAREA":" ","LANE":"４９６巷","ALLEY":"４１弄","HOUSE_NO":"３１號","E_COORD97":169603.12,"N_COORD97":2548411.0600000001,"ADDRESS":"安和路一段４９６巷４１弄３１號","OBJECTID":118665},"geometry":{"x":169603.12000000104,"y":2548411.0600000005}},{"attributes":{"ID":118666,"DIS_CODE":0,"TOWNNAME":"新市區","LI":"社內里","LIN":"4鄰","STREET":" ","SECT":" ","MAREA":"社內","LANE":" ","ALLEY":" ","HOUSE_NO":"４０之３０號","E_COORD97":176682.10000000001,"N_COORD97":2552490.2999999998,"ADDRESS":"社內４０之３０號","OBJECTID":118666},"geometry":{"x":176682.10000000056,"y":2552490.3000000026}},{"attributes":{"ID":118667,"DIS_CODE":0,"TOWNNAME":"安南區","LI":"安東里","LIN":"23鄰","STREET":"安和路","SECT":"一段","MAREA":" ","LANE":"４９６巷","ALLEY":"４１弄","HOUSE_NO":"３３號","E_COORD97":169607.03,"N_COORD97":2548410.6400000001,"ADDRESS":"安和路一段４９６巷４１弄３３號","OBJECTID":118667},"geometry":{"x":169607.03000000119,"y":2548410.6400000006}},{"attributes":{"ID":118668,"DIS_CODE":0,"TOWNNAME":"安南區","LI":"安東里","LIN":"23鄰","STREET":"安和路","SECT":"一段","MAREA":" ","LANE":"４９６巷","ALLEY":"４１弄","HOUSE_NO":"３７號","E_COORD97":169617.23000000001,"N_COORD97":2548411.7599999998,"ADDRESS":"安和路一段４９６巷４１弄３７號","OBJECTID":118668},"geometry":{"x":169617.23000000045,"y":2548411.7599999998}},{"attributes":{"ID":118669,"DIS_CODE":0,"TOWNNAME":"安南區","LI":"安東里","LIN":"23鄰","STREET":"安和路","SECT":"一段","MAREA":" ","LANE":"４９６巷","ALLEY":"４１弄","HOUSE_NO":"４１號","E_COORD97":169625.60999999999,"N_COORD97":2548413.1499999999,"ADDRESS":"安和路一段４９６巷４１弄４１號","OBJECTID":118669},"geometry":{"x":169625.61000000127,"y":2548413.1500000004}},{"attributes":{"ID":118670,"DIS_CODE":0,"TOWNNAME":"安南區","LI":"安東里","LIN":"23鄰","STREET":"安和路","SECT":"一段","MAREA":" ","LANE":"４９６巷","ALLEY":"４１弄","HOUSE_NO":"４３號","E_COORD97":169629.67999999999,"N_COORD97":2548412.1800000002,"ADDRESS":"安和路一段４９６巷４１弄４３號","OBJECTID":118670},"geometry":{"x":169629.68000000063,"y":2548412.1799999997}},{"attributes":{"ID":118671,"DIS_CODE":0,"TOWNNAME":"學甲區","LI":"三慶里","LIN":"35鄰","STREET":" ","SECT":" ","MAREA":"新芳","LANE":" ","ALLEY":" ","HOUSE_NO":"１１０號之１","E_COORD97":165354.28,"N_COORD97":2575460.8500000001,"ADDRESS":"新芳１１０號之１","OBJECTID":118671},"geometry":{"x":165354.28000000119,"y":2575460.8500000015}},{"attributes":{"ID":118672,"DIS_CODE":0,"TOWNNAME":"學甲區","LI":"三慶里","LIN":"35鄰","STREET":" ","SECT":" ","MAREA":"新芳","LANE":" ","ALLEY":" ","HOUSE_NO":"１１０號","E_COORD97":165330.87,"N_COORD97":2575467.75,"ADDRESS":"新芳１１０號","OBJECTID":118672},"geometry":{"x":165330.87000000197,"y":2575467.75}},{"attributes":{"ID":118673,"DIS_CODE":0,"TOWNNAME":"學甲區","LI":"三慶里","LIN":"35鄰","STREET":" ","SECT":" ","MAREA":"新芳","LANE":" ","ALLEY":" ","HOUSE_NO":"１１５號之１","E_COORD97":165365.29999999999,"N_COORD97":2575437.3300000001,"ADDRESS":"新芳１１５號之１","OBJECTID":118673},"geometry":{"x":165365.30000000075,"y":2575437.3300000038}},{"attributes":{"ID":118674,"DIS_CODE":0,"TOWNNAME":"學甲區","LI":"三慶里","LIN":"35鄰","STREET":" ","SECT":" ","MAREA":"新芳","LANE":" ","ALLEY":" ","HOUSE_NO":"１１５號","E_COORD97":165368.75,"N_COORD97":2575411.04,"ADDRESS":"新芳１１５號","OBJECTID":118674},"geometry":{"x":165368.75000000186,"y":2575411.0400000028}},{"attributes":{"ID":118675,"DIS_CODE":0,"TOWNNAME":"麻豆區","LI":"安正里","LIN":"4鄰","STREET":" ","SECT":" ","MAREA":"方厝寮","LANE":" ","ALLEY":" ","HOUSE_NO":"３９號之２","E_COORD97":171826.20999999999,"N_COORD97":2561987.9399999999,"ADDRESS":"方厝寮３９號之２","OBJECTID":118675},"geometry":{"x":171826.21000000089,"y":2561987.9400000013}},{"attributes":{"ID":118676,"DIS_CODE":0,"TOWNNAME":"麻豆區","LI":"安正里","LIN":"4鄰","STREET":" ","SECT":" ","MAREA":"方厝寮","LANE":" ","ALLEY":" ","HOUSE_NO":"３９號之３","E_COORD97":171824.60000000001,"N_COORD97":2562020.8199999998,"ADDRESS":"方厝寮３９號之３","OBJECTID":118676},"geometry":{"x":171824.5999999987,"y":2562020.8200000003}},{"attributes":{"ID":118677,"DIS_CODE":0,"TOWNNAME":"麻豆區","LI":"安正里","LIN":"4鄰","STREET":" ","SECT":" ","MAREA":"方厝寮","LANE":" ","ALLEY":" ","HOUSE_NO":"３９號之５","E_COORD97":171762.37,"N_COORD97":2561998.4199999999,"ADDRESS":"方厝寮３９號之５","OBJECTID":118677},"geometry":{"x":171762.37000000197,"y":2561998.4200000018}},{"attributes":{"ID":118678,"DIS_CODE":0,"TOWNNAME":"麻豆區","LI":"安正里","LIN":"4鄰","STREET":" ","SECT":" ","MAREA":"方厝寮","LANE":" ","ALLEY":" ","HOUSE_NO":"３９號之７","E_COORD97":171738.94,"N_COORD97":2562005.7400000002,"ADDRESS":"方厝寮３９號之７","OBJECTID":118678},"geometry":{"x":171738.94000000134,"y":2562005.7400000021}},{"attributes":{"ID":118679,"DIS_CODE":0,"TOWNNAME":"麻豆區","LI":"安正里","LIN":"4鄰","STREET":" ","SECT":" ","MAREA":"方厝寮","LANE":" ","ALLEY":" ","HOUSE_NO":"３９號之８","E_COORD97":171835.64999999999,"N_COORD97":2561953.1200000001,"ADDRESS":"方厝寮３９號之８","OBJECTID":118679},"geometry":{"x":171835.6500000013,"y":2561953.1200000048}},{"attributes":{"ID":118680,"DIS_CODE":0,"TOWNNAME":"麻豆區","LI":"安正里","LIN":"4鄰","STREET":" ","SECT":" ","MAREA":"方厝寮","LANE":" ","ALLEY":" ","HOUSE_NO":"３９號之９","E_COORD97":171816.67999999999,"N_COORD97":2561952.6000000001,"ADDRESS":"方厝寮３９號之９","OBJECTID":118680},"geometry":{"x":171816.6799999997,"y":2561952.6000000015}},{"attributes":{"ID":118681,"DIS_CODE":0,"TOWNNAME":"麻豆區","LI":"安正里","LIN":"4鄰","STREET":" ","SECT":" ","MAREA":"方厝寮","LANE":" ","ALLEY":" ","HOUSE_NO":"３９號","E_COORD97":171854.97,"N_COORD97":2561954.8799999999,"ADDRESS":"方厝寮３９號","OBJECTID":118681},"geometry":{"x":171854.97000000067,"y":2561954.879999999}},{"attributes":{"ID":118682,"DIS_CODE":0,"TOWNNAME":"麻豆區","LI":"安正里","LIN":"4鄰","STREET":" ","SECT":" ","MAREA":"方厝寮","LANE":" ","ALLEY":" ","HOUSE_NO":"４號","E_COORD97":171409.35000000001,"N_COORD97":2561863.7000000002,"ADDRESS":"方厝寮４號","OBJECTID":118682},"geometry":{"x":171409.35000000149,"y":2561863.7000000011}},{"attributes":{"ID":118683,"DIS_CODE":0,"TOWNNAME":"麻豆區","LI":"安正里","LIN":"4鄰","STREET":" ","SECT":" ","MAREA":"方厝寮","LANE":" ","ALLEY":" ","HOUSE_NO":"５號之１","E_COORD97":171450.92000000001,"N_COORD97":2561813.1299999999,"ADDRESS":"方厝寮５號之１","OBJECTID":118683},"geometry":{"x":171450.91999999993,"y":2561813.1300000008}},{"attributes":{"ID":118684,"DIS_CODE":0,"TOWNNAME":"麻豆區","LI":"安正里","LIN":"4鄰","STREET":" ","SECT":" ","MAREA":"方厝寮","LANE":" ","ALLEY":" ","HOUSE_NO":"５號之２","E_COORD97":171518.81852,"N_COORD97":2561880.68181,"ADDRESS":"方厝寮５號之２","OBJECTID":118684},"geometry":{"x":171518.8185200002,"y":2561880.6818059999}},{"attributes":{"ID":118685,"DIS_CODE":0,"TOWNNAME":"麻豆區","LI":"安正里","LIN":"4鄰","STREET":" ","SECT":" ","MAREA":"方厝寮","LANE":" ","ALLEY":" ","HOUSE_NO":"５號之３","E_COORD97":171410.14000000001,"N_COORD97":2561812.3199999998,"ADDRESS":"方厝寮５號之３","OBJECTID":118685},"geometry":{"x":171410.13999999966,"y":2561812.3200000022}},{"attributes":{"ID":118686,"DIS_CODE":0,"TOWNNAME":"麻豆區","LI":"安正里","LIN":"4鄰","STREET":" ","SECT":" ","MAREA":"方厝寮","LANE":" ","ALLEY":" ","HOUSE_NO":"５號","E_COORD97":171390.22,"N_COORD97":2561826,"ADDRESS":"方厝寮５號","OBJECTID":118686},"geometry":{"x":171390.22000000067,"y":2561826}},{"attributes":{"ID":118687,"DIS_CODE":0,"TOWNNAME":"麻豆區","LI":"安正里","LIN":"4鄰","STREET":" ","SECT":" ","MAREA":"方厝寮","LANE":" ","ALLEY":" ","HOUSE_NO":"６號之１","E_COORD97":171380.48000000001,"N_COORD97":2561840.1000000001,"ADDRESS":"方厝寮６號之１","OBJECTID":118687},"geometry":{"x":171380.48000000231,"y":2561840.1000000015}},{"attributes":{"ID":118688,"DIS_CODE":0,"TOWNNAME":"麻豆區","LI":"安正里","LIN":"4鄰","STREET":" ","SECT":" ","MAREA":"方厝寮","LANE":" ","ALLEY":" ","HOUSE_NO":"６號之２","E_COORD97":171377.94,"N_COORD97":2561861.5899999999,"ADDRESS":"方厝寮６號之２","OBJECTID":118688},"geometry":{"x":171377.94000000134,"y":2561861.5900000017}},{"attributes":{"ID":118689,"DIS_CODE":0,"TOWNNAME":"麻豆區","LI":"安正里","LIN":"4鄰","STREET":" ","SECT":" ","MAREA":"方厝寮","LANE":" ","ALLEY":" ","HOUSE_NO":"６號","E_COORD97":171365.45000000001,"N_COORD97":2561817.3399999999,"ADDRESS":"方厝寮６號","OBJECTID":118689},"geometry":{"x":171365.45000000112,"y":2561817.3399999999}},{"attributes":{"ID":118690,"DIS_CODE":0,"TOWNNAME":"新市區","LI":"社內里","LIN":"4鄰","STREET":" ","SECT":" ","MAREA":"社內","LANE":" ","ALLEY":" ","HOUSE_NO":"４０之１號","E_COORD97":176688.14999999999,"N_COORD97":2552543.54,"ADDRESS":"社內４０之１號","OBJECTID":118690},"geometry":{"x":176688.15000000037,"y":2552543.540000001}},{"attributes":{"ID":118691,"DIS_CODE":0,"TOWNNAME":"新市區","LI":"社內里","LIN":"4鄰","STREET":" ","SECT":" ","MAREA":"社內","LANE":" ","ALLEY":" ","HOUSE_NO":"４０之２０號","E_COORD97":176689.57000000001,"N_COORD97":2552452.8700000001,"ADDRESS":"社內４０之２０號","OBJECTID":118691},"geometry":{"x":176689.57000000123,"y":2552452.8700000029}},{"attributes":{"ID":118692,"DIS_CODE":0,"TOWNNAME":"新市區","LI":"社內里","LIN":"4鄰","STREET":" ","SECT":" ","MAREA":"社內","LANE":" ","ALLEY":" ","HOUSE_NO":"４０之２１號","E_COORD97":176687.34,"N_COORD97":2552448.8799999999,"ADDRESS":"社內４０之２１號","OBJECTID":118692},"geometry":{"x":176687.34000000078,"y":2552448.8799999971}},{"attributes":{"ID":118693,"DIS_CODE":0,"TOWNNAME":"新市區","LI":"社內里","LIN":"4鄰","STREET":" ","SECT":" ","MAREA":"社內","LANE":" ","ALLEY":" ","HOUSE_NO":"４０之２２號","E_COORD97":176685,"N_COORD97":2552445.2599999998,"ADDRESS":"社內４０之２２號","OBJECTID":118693},"geometry":{"x":176685.00000000093,"y":2552445.2600000016}},{"attributes":{"ID":118694,"DIS_CODE":0,"TOWNNAME":"新市區","LI":"社內里","LIN":"4鄰","STREET":" ","SECT":" ","MAREA":"社內","LANE":" ","ALLEY":" ","HOUSE_NO":"４０之２３號","E_COORD97":176666.48000000001,"N_COORD97":2552513.0299999998,"ADDRESS":"社內４０之２３號","OBJECTID":118694},"geometry":{"x":176666.48000000138,"y":2552513.0300000031}},{"attributes":{"ID":118695,"DIS_CODE":0,"TOWNNAME":"新市區","LI":"社內里","LIN":"4鄰","STREET":" ","SECT":" ","MAREA":"社內","LANE":" ","ALLEY":" ","HOUSE_NO":"４０之２５號","E_COORD97":176664.48000000001,"N_COORD97":2552508.9700000002,"ADDRESS":"社內４０之２５號","OBJECTID":118695},"geometry":{"x":176664.48000000231,"y":2552508.9700000025}},{"attributes":{"ID":118696,"DIS_CODE":0,"TOWNNAME":"新市區","LI":"社內里","LIN":"4鄰","STREET":" ","SECT":" ","MAREA":"社內","LANE":" ","ALLEY":" ","HOUSE_NO":"４０之２６號","E_COORD97":176662.42000000001,"N_COORD97":2552505.2000000002,"ADDRESS":"社內４０之２６號","OBJECTID":118696},"geometry":{"x":176662.41999999993,"y":2552505.2000000011}},{"attributes":{"ID":118697,"DIS_CODE":0,"TOWNNAME":"新市區","LI":"社內里","LIN":"4鄰","STREET":" ","SECT":" ","MAREA":"社內","LANE":" ","ALLEY":" ","HOUSE_NO":"４０之２７號","E_COORD97":176659.98999999999,"N_COORD97":2552501.21,"ADDRESS":"社內４０之２７號","OBJECTID":118697},"geometry":{"x":176659.99000000022,"y":2552501.2100000028}},{"attributes":{"ID":118698,"DIS_CODE":0,"TOWNNAME":"新市區","LI":"社內里","LIN":"4鄰","STREET":" ","SECT":" ","MAREA":"社內","LANE":" ","ALLEY":" ","HOUSE_NO":"４０之２８號","E_COORD97":176657.85000000001,"N_COORD97":2552497.5800000001,"ADDRESS":"社內４０之２８號","OBJECTID":118698},"geometry":{"x":176657.85000000056,"y":2552497.5800000019}},{"attributes":{"ID":118699,"DIS_CODE":0,"TOWNNAME":"新市區","LI":"社內里","LIN":"4鄰","STREET":" ","SECT":" ","MAREA":"社內","LANE":" ","ALLEY":" ","HOUSE_NO":"４０之２９號","E_COORD97":176655.57000000001,"N_COORD97":2552493.3799999999,"ADDRESS":"社內４０之２９號","OBJECTID":118699},"geometry":{"x":176655.57000000123,"y":2552493.3800000027}},{"attributes":{"ID":118700,"DIS_CODE":0,"TOWNNAME":"新市區","LI":"社內里","LIN":"4鄰","STREET":" ","SECT":" ","MAREA":"社內","LANE":" ","ALLEY":" ","HOUSE_NO":"４０之２號","E_COORD97":176689.38,"N_COORD97":2552538.6299999999,"ADDRESS":"社內４０之２號","OBJECTID":118700},"geometry":{"x":176689.37999999989,"y":2552538.6299999971}},{"attributes":{"ID":118701,"DIS_CODE":0,"TOWNNAME":"新市區","LI":"社內里","LIN":"4鄰","STREET":" ","SECT":" ","MAREA":"社內","LANE":" ","ALLEY":" ","HOUSE_NO":"４０之５號","E_COORD97":176692.79000000001,"N_COORD97":2552529.8599999999,"ADDRESS":"社內４０之５號","OBJECTID":118701},"geometry":{"x":176692.79000000097,"y":2552529.8599999994}},{"attributes":{"ID":118702,"DIS_CODE":0,"TOWNNAME":"新市區","LI":"社內里","LIN":"4鄰","STREET":" ","SECT":" ","MAREA":"社內","LANE":" ","ALLEY":" ","HOUSE_NO":"４０之６號","E_COORD97":176694.01999999999,"N_COORD97":2552525.2799999998,"ADDRESS":"社內４０之６號","OBJECTID":118702},"geometry":{"x":176694.02000000048,"y":2552525.2800000012}},{"attributes":{"ID":118703,"DIS_CODE":0,"TOWNNAME":"新市區","LI":"社內里","LIN":"4鄰","STREET":" ","SECT":" ","MAREA":"社內","LANE":" ","ALLEY":" ","HOUSE_NO":"４０之７號","E_COORD97":176695.79000000001,"N_COORD97":2552520.71,"ADDRESS":"社內４０之７號","OBJECTID":118703},"geometry":{"x":176695.7900000019,"y":2552520.7100000028}},{"attributes":{"ID":118704,"DIS_CODE":0,"TOWNNAME":"新市區","LI":"社內里","LIN":"4鄰","STREET":" ","SECT":" ","MAREA":"社內","LANE":" ","ALLEY":" ","HOUSE_NO":"４０之８號","E_COORD97":176699.54000000001,"N_COORD97":2552510.7999999998,"ADDRESS":"社內４０之８號","OBJECTID":118704},"geometry":{"x":176699.54000000097,"y":2552510.8000000026}},{"attributes":{"ID":118705,"DIS_CODE":0,"TOWNNAME":"新市區","LI":"社內里","LIN":"4鄰","STREET":" ","SECT":" ","MAREA":"社內","LANE":" ","ALLEY":" ","HOUSE_NO":"４０之９號","E_COORD97":176700.81,"N_COORD97":2552505.79,"ADDRESS":"社內４０之９號","OBJECTID":118705},"geometry":{"x":176700.81000000052,"y":2552505.7899999991}},{"attributes":{"ID":118706,"DIS_CODE":0,"TOWNNAME":"七股區","LI":"大潭里","LIN":"4鄰","STREET":" ","SECT":" ","MAREA":"台潭","LANE":" ","ALLEY":" ","HOUSE_NO":"５３號之１６","E_COORD97":161226.78,"N_COORD97":2565495.9399999999,"ADDRESS":"台潭５３號之１６","OBJECTID":118706},"geometry":{"x":161226.78000000026,"y":2565495.9400000013}},{"attributes":{"ID":118707,"DIS_CODE":0,"TOWNNAME":"七股區","LI":"大潭里","LIN":"4鄰","STREET":" ","SECT":" ","MAREA":"台潭","LANE":" ","ALLEY":" ","HOUSE_NO":"５３號之１７","E_COORD97":161228.57000000001,"N_COORD97":2565491.6200000001,"ADDRESS":"台潭５３號之１７","OBJECTID":118707},"geometry":{"x":161228.5700000003,"y":2565491.620000001}},{"attributes":{"ID":118708,"DIS_CODE":0,"TOWNNAME":"七股區","LI":"大潭里","LIN":"4鄰","STREET":" ","SECT":" ","MAREA":"台潭","LANE":" ","ALLEY":" ","HOUSE_NO":"５３號之１","E_COORD97":161150.26000000001,"N_COORD97":2565461.46,"ADDRESS":"台潭５３號之１","OBJECTID":118708},"geometry":{"x":161150.25999999978,"y":2565461.4600000009}},{"attributes":{"ID":118709,"DIS_CODE":0,"TOWNNAME":"七股區","LI":"大潭里","LIN":"4鄰","STREET":" ","SECT":" ","MAREA":"台潭","LANE":" ","ALLEY":" ","HOUSE_NO":"５３號之２","E_COORD97":161156.72,"N_COORD97":2565464.4500000002,"ADDRESS":"台潭５３號之２","OBJECTID":118709},"geometry":{"x":161156.72000000067,"y":2565464.450000003}},{"attributes":{"ID":118710,"DIS_CODE":0,"TOWNNAME":"七股區","LI":"大潭里","LIN":"4鄰","STREET":" ","SECT":" ","MAREA":"台潭","LANE":" ","ALLEY":" ","HOUSE_NO":"５３號之３","E_COORD97":161162.34,"N_COORD97":2565466.1699999999,"ADDRESS":"台潭５３號之３","OBJECTID":118710},"geometry":{"x":161162.34000000171,"y":2565466.1699999999}},{"attributes":{"ID":118711,"DIS_CODE":0,"TOWNNAME":"七股區","LI":"大潭里","LIN":"4鄰","STREET":" ","SECT":" ","MAREA":"台潭","LANE":" ","ALLEY":" ","HOUSE_NO":"５３號之４","E_COORD97":161167.03,"N_COORD97":2565468.29,"ADDRESS":"台潭５３號之４","OBJECTID":118711},"geometry":{"x":161167.03000000119,"y":2565468.2899999991}},{"attributes":{"ID":118712,"DIS_CODE":0,"TOWNNAME":"七股區","LI":"大潭里","LIN":"4鄰","STREET":" ","SECT":" ","MAREA":"台潭","LANE":" ","ALLEY":" ","HOUSE_NO":"５３號之５","E_COORD97":161171.62,"N_COORD97":2565470.4100000001,"ADDRESS":"台潭５３號之５","OBJECTID":118712},"geometry":{"x":161171.62000000104,"y":2565470.410000002}},{"attributes":{"ID":118713,"DIS_CODE":0,"TOWNNAME":"七股區","LI":"大潭里","LIN":"4鄰","STREET":" ","SECT":" ","MAREA":"台潭","LANE":" ","ALLEY":" ","HOUSE_NO":"５３號之６","E_COORD97":161176.67000000001,"N_COORD97":2565472.54,"ADDRESS":"台潭５３號之６","OBJECTID":118713},"geometry":{"x":161176.66999999993,"y":2565472.5399999991}},{"attributes":{"ID":118714,"DIS_CODE":0,"TOWNNAME":"七股區","LI":"大潭里","LIN":"4鄰","STREET":" ","SECT":" ","MAREA":"台潭","LANE":" ","ALLEY":" ","HOUSE_NO":"５３號之７","E_COORD97":161181.04000000001,"N_COORD97":2565474.4500000002,"ADDRESS":"台潭５３號之７","OBJECTID":118714},"geometry":{"x":161181.04000000004,"y":2565474.4499999993}},{"attributes":{"ID":118715,"DIS_CODE":0,"TOWNNAME":"七股區","LI":"大潭里","LIN":"4鄰","STREET":" ","SECT":" ","MAREA":"台潭","LANE":" ","ALLEY":" ","HOUSE_NO":"５３號之８","E_COORD97":161185.89999999999,"N_COORD97":2565476.5699999998,"ADDRESS":"台潭５３號之８","OBJECTID":118715},"geometry":{"x":161185.90000000037,"y":2565476.5700000022}},{"attributes":{"ID":118716,"DIS_CODE":0,"TOWNNAME":"七股區","LI":"大潭里","LIN":"4鄰","STREET":" ","SECT":" ","MAREA":"台潭","LANE":" ","ALLEY":" ","HOUSE_NO":"５３號之９","E_COORD97":161190.57999999999,"N_COORD97":2565478.5699999998,"ADDRESS":"台潭５３號之９","OBJECTID":118716},"geometry":{"x":161190.58000000007,"y":2565478.570000004}},{"attributes":{"ID":118717,"DIS_CODE":0,"TOWNNAME":"七股區","LI":"大潭里","LIN":"4鄰","STREET":" ","SECT":" ","MAREA":"台潭","LANE":" ","ALLEY":" ","HOUSE_NO":"５３號","E_COORD97":161159.06,"N_COORD97":2565495.1400000001,"ADDRESS":"台潭５３號","OBJECTID":118717},"geometry":{"x":161159.06000000052,"y":2565495.1400000043}},{"attributes":{"ID":118718,"DIS_CODE":0,"TOWNNAME":"七股區","LI":"大潭里","LIN":"4鄰","STREET":" ","SECT":" ","MAREA":"台潭","LANE":" ","ALLEY":" ","HOUSE_NO":"５４號","E_COORD97":161159,"N_COORD97":2565508.2999999998,"ADDRESS":"台潭５４號","OBJECTID":118718},"geometry":{"x":161159,"y":2565508.3000000026}},{"attributes":{"ID":118719,"DIS_CODE":0,"TOWNNAME":"七股區","LI":"大潭里","LIN":"4鄰","STREET":" ","SECT":" ","MAREA":"台潭","LANE":" ","ALLEY":" ","HOUSE_NO":"５５號之１６","E_COORD97":161147.91,"N_COORD97":2565600.9700000002,"ADDRESS":"台潭５５號之１６","OBJECTID":118719},"geometry":{"x":161147.91000000015,"y":2565600.9700000007}},{"attributes":{"ID":118720,"DIS_CODE":0,"TOWNNAME":"七股區","LI":"大潭里","LIN":"4鄰","STREET":" ","SECT":" ","MAREA":"台潭","LANE":" ","ALLEY":" ","HOUSE_NO":"５５號之１７","E_COORD97":161143.95999999999,"N_COORD97":2565600.1699999999,"ADDRESS":"台潭５５號之１７","OBJECTID":118720},"geometry":{"x":161143.95999999996,"y":2565600.1700000018}},{"attributes":{"ID":118721,"DIS_CODE":0,"TOWNNAME":"七股區","LI":"大潭里","LIN":"4鄰","STREET":" ","SECT":" ","MAREA":"台潭","LANE":" ","ALLEY":" ","HOUSE_NO":"５５號之１８","E_COORD97":161140.09,"N_COORD97":2565599.3799999999,"ADDRESS":"台潭５５號之１８","OBJECTID":118721},"geometry":{"x":161140.08999999892,"y":2565599.379999999}},{"attributes":{"ID":118722,"DIS_CODE":0,"TOWNNAME":"七股區","LI":"大潭里","LIN":"4鄰","STREET":" ","SECT":" ","MAREA":"台潭","LANE":" ","ALLEY":" ","HOUSE_NO":"５５號之１９","E_COORD97":161136.13,"N_COORD97":2565598.4300000002,"ADDRESS":"台潭５５號之１９","OBJECTID":118722},"geometry":{"x":161136.12999999989,"y":2565598.4300000016}},{"attributes":{"ID":118723,"DIS_CODE":0,"TOWNNAME":"七股區","LI":"大潭里","LIN":"4鄰","STREET":" ","SECT":" ","MAREA":"台潭","LANE":" ","ALLEY":" ","HOUSE_NO":"５５號之２０","E_COORD97":161132.28,"N_COORD97":2565597.5699999998,"ADDRESS":"台潭５５號之２０","OBJECTID":118723},"geometry":{"x":161132.28000000026,"y":2565597.5700000022}},{"attributes":{"ID":118724,"DIS_CODE":0,"TOWNNAME":"七股區","LI":"大潭里","LIN":"4鄰","STREET":" ","SECT":" ","MAREA":"台潭","LANE":" ","ALLEY":" ","HOUSE_NO":"５５號之２１","E_COORD97":161128.5,"N_COORD97":2565596.54,"ADDRESS":"台潭５５號之２１","OBJECTID":118724},"geometry":{"x":161128.5,"y":2565596.540000001}},{"attributes":{"ID":118725,"DIS_CODE":0,"TOWNNAME":"七股區","LI":"大潭里","LIN":"4鄰","STREET":" ","SECT":" ","MAREA":"台潭","LANE":" ","ALLEY":" ","HOUSE_NO":"５５號之２２","E_COORD97":161124.95999999999,"N_COORD97":2565595.7000000002,"ADDRESS":"台潭５５號之２２","OBJECTID":118725},"geometry":{"x":161124.96000000089,"y":2565595.7000000011}},{"attributes":{"ID":118726,"DIS_CODE":0,"TOWNNAME":"七股區","LI":"大潭里","LIN":"4鄰","STREET":" ","SECT":" ","MAREA":"台潭","LANE":" ","ALLEY":" ","HOUSE_NO":"５５號之２３","E_COORD97":161120.67000000001,"N_COORD97":2565594.54,"ADDRESS":"台潭５５號之２３","OBJECTID":118726},"geometry":{"x":161120.66999999993,"y":2565594.5399999991}},{"attributes":{"ID":118727,"DIS_CODE":0,"TOWNNAME":"七股區","LI":"大潭里","LIN":"4鄰","STREET":" ","SECT":" ","MAREA":"台潭","LANE":" ","ALLEY":" ","HOUSE_NO":"５５號之２４","E_COORD97":161116.92999999999,"N_COORD97":2565593.6699999999,"ADDRESS":"台潭５５號之２４","OBJECTID":118727},"geometry":{"x":161116.9299999997,"y":2565593.6700000018}},{"attributes":{"ID":118728,"DIS_CODE":0,"TOWNNAME":"七股區","LI":"大潭里","LIN":"4鄰","STREET":" ","SECT":" ","MAREA":"台潭","LANE":" ","ALLEY":" ","HOUSE_NO":"５５號之２５","E_COORD97":161112.48999999999,"N_COORD97":2565592.4399999999,"ADDRESS":"台潭５５號之２５","OBJECTID":118728},"geometry":{"x":161112.49000000209,"y":2565592.4399999995}},{"attributes":{"ID":118729,"DIS_CODE":0,"TOWNNAME":"七股區","LI":"大潭里","LIN":"4鄰","STREET":" ","SECT":" ","MAREA":"台潭","LANE":" ","ALLEY":" ","HOUSE_NO":"５５號之２６","E_COORD97":161108.59,"N_COORD97":2565591.4900000002,"ADDRESS":"台潭５５號之２６","OBJECTID":118729},"geometry":{"x":161108.59000000078,"y":2565591.4900000021}},{"attributes":{"ID":118730,"DIS_CODE":0,"TOWNNAME":"七股區","LI":"大潭里","LIN":"4鄰","STREET":" ","SECT":" ","MAREA":"台潭","LANE":" ","ALLEY":" ","HOUSE_NO":"５５號之２７","E_COORD97":161104.82000000001,"N_COORD97":2565590.6099999999,"ADDRESS":"台潭５５號之２７","OBJECTID":118730},"geometry":{"x":161104.8200000003,"y":2565590.6100000013}},{"attributes":{"ID":118731,"DIS_CODE":0,"TOWNNAME":"七股區","LI":"大潭里","LIN":"4鄰","STREET":" ","SECT":" ","MAREA":"台潭","LANE":" ","ALLEY":" ","HOUSE_NO":"５５號之２８","E_COORD97":161100.85999999999,"N_COORD97":2565589.4399999999,"ADDRESS":"台潭５５號之２８","OBJECTID":118731},"geometry":{"x":161100.86000000034,"y":2565589.4399999995}},{"attributes":{"ID":118732,"DIS_CODE":0,"TOWNNAME":"七股區","LI":"大潭里","LIN":"4鄰","STREET":" ","SECT":" ","MAREA":"台潭","LANE":" ","ALLEY":" ","HOUSE_NO":"５５號之２９","E_COORD97":161096.57000000001,"N_COORD97":2565588.4700000002,"ADDRESS":"台潭５５號之２９","OBJECTID":118732},"geometry":{"x":161096.5700000003,"y":2565588.4700000025}},{"attributes":{"ID":118733,"DIS_CODE":0,"TOWNNAME":"七股區","LI":"大潭里","LIN":"4鄰","STREET":" ","SECT":" ","MAREA":"台潭","LANE":" ","ALLEY":" ","HOUSE_NO":"５５號之３０","E_COORD97":161092.5,"N_COORD97":2565587.52,"ADDRESS":"台潭５５號之３０","OBJECTID":118733},"geometry":{"x":161092.50000000093,"y":2565587.5200000014}},{"attributes":{"ID":118734,"DIS_CODE":0,"TOWNNAME":"七股區","LI":"大潭里","LIN":"4鄰","STREET":" ","SECT":" ","MAREA":"台潭","LANE":" ","ALLEY":" ","HOUSE_NO":"５５號之３１","E_COORD97":161088.19,"N_COORD97":2565586.7400000002,"ADDRESS":"台潭５５號之３１","OBJECTID":118734},"geometry":{"x":161088.19000000134,"y":2565586.7400000021}},{"attributes":{"ID":118735,"DIS_CODE":0,"TOWNNAME":"七股區","LI":"大潭里","LIN":"4鄰","STREET":" ","SECT":" ","MAREA":"台潭","LANE":" ","ALLEY":" ","HOUSE_NO":"５５號之３２","E_COORD97":161084.60999999999,"N_COORD97":2565585.8500000001,"ADDRESS":"台潭５５號之３２","OBJECTID":118735},"geometry":{"x":161084.6100000022,"y":2565585.8500000015}},{"attributes":{"ID":118736,"DIS_CODE":0,"TOWNNAME":"七股區","LI":"大潭里","LIN":"4鄰","STREET":" ","SECT":" ","MAREA":"台潭","LANE":" ","ALLEY":" ","HOUSE_NO":"５５號之３３","E_COORD97":161080.37,"N_COORD97":2565585.0699999998,"ADDRESS":"台潭５５號之３３","OBJECTID":118736},"geometry":{"x":161080.37000000011,"y":2565585.0700000022}},{"attributes":{"ID":118737,"DIS_CODE":0,"TOWNNAME":"七股區","LI":"大潭里","LIN":"4鄰","STREET":" ","SECT":" ","MAREA":"台潭","LANE":" ","ALLEY":" ","HOUSE_NO":"５５號之３４","E_COORD97":161076.35000000001,"N_COORD97":2565584.1600000001,"ADDRESS":"台潭５５號之３４","OBJECTID":118737},"geometry":{"x":161076.34999999963,"y":2565584.160000002}},{"attributes":{"ID":118738,"DIS_CODE":0,"TOWNNAME":"七股區","LI":"大潭里","LIN":"4鄰","STREET":" ","SECT":" ","MAREA":"台潭","LANE":" ","ALLEY":" ","HOUSE_NO":"５５號之３５","E_COORD97":161072.35000000001,"N_COORD97":2565583.1600000001,"ADDRESS":"台潭５５號之３５","OBJECTID":118738},"geometry":{"x":161072.35000000056,"y":2565583.160000002}},{"attributes":{"ID":118739,"DIS_CODE":0,"TOWNNAME":"七股區","LI":"大潭里","LIN":"4鄰","STREET":" ","SECT":" ","MAREA":"台潭","LANE":" ","ALLEY":" ","HOUSE_NO":"５５號之３６","E_COORD97":161068.34,"N_COORD97":2565582.1499999999,"ADDRESS":"台潭５５號之３６","OBJECTID":118739},"geometry":{"x":161068.33999999985,"y":2565582.1500000004}},{"attributes":{"ID":118740,"DIS_CODE":0,"TOWNNAME":"七股區","LI":"大潭里","LIN":"4鄰","STREET":" ","SECT":" ","MAREA":"台潭","LANE":" ","ALLEY":" ","HOUSE_NO":"５５號之３７","E_COORD97":161064.5,"N_COORD97":2565581.0899999999,"ADDRESS":"台潭５５號之３７","OBJECTID":118740},"geometry":{"x":161064.5,"y":2565581.0900000017}},{"attributes":{"ID":118741,"DIS_CODE":0,"TOWNNAME":"七股區","LI":"大潭里","LIN":"4鄰","STREET":" ","SECT":" ","MAREA":"台潭","LANE":" ","ALLEY":" ","HOUSE_NO":"５５號之３８","E_COORD97":161060.39999999999,"N_COORD97":2565580.29,"ADDRESS":"台潭５５號之３８","OBJECTID":118741},"geometry":{"x":161060.40000000037,"y":2565580.2899999991}},{"attributes":{"ID":118742,"DIS_CODE":0,"TOWNNAME":"七股區","LI":"大潭里","LIN":"4鄰","STREET":" ","SECT":" ","MAREA":"台潭","LANE":" ","ALLEY":" ","HOUSE_NO":"５５號之３９","E_COORD97":161056.42999999999,"N_COORD97":2565579.5,"ADDRESS":"台潭５５號之３９","OBJECTID":118742},"geometry":{"x":161056.43000000156,"y":2565579.5}},{"attributes":{"ID":118743,"DIS_CODE":0,"TOWNNAME":"七股區","LI":"大潭里","LIN":"4鄰","STREET":" ","SECT":" ","MAREA":"台潭","LANE":" ","ALLEY":" ","HOUSE_NO":"５５號之４０","E_COORD97":161052.34,"N_COORD97":2565578.6600000001,"ADDRESS":"台潭５５號之４０","OBJECTID":118743},"geometry":{"x":161052.34000000078,"y":2565578.6600000001}},{"attributes":{"ID":118744,"DIS_CODE":0,"TOWNNAME":"下營區","LI":"開化里","LIN":"4鄰","STREET":" ","SECT":" ","MAREA":"中營","LANE":" ","ALLEY":" ","HOUSE_NO":"２６３號","E_COORD97":175776.48999999999,"N_COORD97":2568007.4500000002,"ADDRESS":"中營２６３號","OBJECTID":118744},"geometry":{"x":175776.49000000115,"y":2568007.450000003}},{"attributes":{"ID":118745,"DIS_CODE":0,"TOWNNAME":"下營區","LI":"開化里","LIN":"4鄰","STREET":" ","SECT":" ","MAREA":"中營","LANE":" ","ALLEY":" ","HOUSE_NO":"２６４號","E_COORD97":175776.85000000001,"N_COORD97":2567995.29,"ADDRESS":"中營２６４號","OBJECTID":118745},"geometry":{"x":175776.85000000056,"y":2567995.290000001}},{"attributes":{"ID":118746,"DIS_CODE":0,"TOWNNAME":"下營區","LI":"開化里","LIN":"4鄰","STREET":" ","SECT":" ","MAREA":"中營","LANE":" ","ALLEY":" ","HOUSE_NO":"２６５號","E_COORD97":175782,"N_COORD97":2567976.5499999998,"ADDRESS":"中營２６５號","OBJECTID":118746},"geometry":{"x":175782,"y":2567976.5500000007}},{"attributes":{"ID":118747,"DIS_CODE":0,"TOWNNAME":"下營區","LI":"開化里","LIN":"4鄰","STREET":" ","SECT":" ","MAREA":"中營","LANE":" ","ALLEY":" ","HOUSE_NO":"２６７號","E_COORD97":175779.51999999999,"N_COORD97":2568106.4300000002,"ADDRESS":"中營２６７號","OBJECTID":118747},"geometry":{"x":175779.51999999955,"y":2568106.4300000034}},{"attributes":{"ID":118748,"DIS_CODE":0,"TOWNNAME":"下營區","LI":"開化里","LIN":"4鄰","STREET":" ","SECT":" ","MAREA":"中營","LANE":" ","ALLEY":" ","HOUSE_NO":"２６８號","E_COORD97":175740.78,"N_COORD97":2568115.8500000001,"ADDRESS":"中營２６８號","OBJECTID":118748},"geometry":{"x":175740.78000000119,"y":2568115.8499999996}},{"attributes":{"ID":118749,"DIS_CODE":0,"TOWNNAME":"下營區","LI":"開化里","LIN":"4鄰","STREET":" ","SECT":" ","MAREA":"中營","LANE":" ","ALLEY":" ","HOUSE_NO":"２６９號之１","E_COORD97":175715.16,"N_COORD97":2568080.8100000001,"ADDRESS":"中營２６９號之１","OBJECTID":118749},"geometry":{"x":175715.15999999922,"y":2568080.8100000042}},{"attributes":{"ID":118750,"DIS_CODE":0,"TOWNNAME":"下營區","LI":"開化里","LIN":"4鄰","STREET":" ","SECT":" ","MAREA":"中營","LANE":" ","ALLEY":" ","HOUSE_NO":"２６９之２號","E_COORD97":175709.89999999999,"N_COORD97":2568107.5099999998,"ADDRESS":"中營２６９之２號","OBJECTID":118750},"geometry":{"x":175709.90000000037,"y":2568107.5099999998}},{"attributes":{"ID":118751,"DIS_CODE":0,"TOWNNAME":"下營區","LI":"開化里","LIN":"4鄰","STREET":" ","SECT":" ","MAREA":"中營","LANE":" ","ALLEY":" ","HOUSE_NO":"２６９號","E_COORD97":175732.79999999999,"N_COORD97":2568115.0899999999,"ADDRESS":"中營２６９號","OBJECTID":118751},"geometry":{"x":175732.80000000075,"y":2568115.0899999999}},{"attributes":{"ID":118752,"DIS_CODE":0,"TOWNNAME":"下營區","LI":"開化里","LIN":"4鄰","STREET":" ","SECT":" ","MAREA":"中營","LANE":" ","ALLEY":" ","HOUSE_NO":"２７０號","E_COORD97":175937.17999999999,"N_COORD97":2568086.96,"ADDRESS":"中營２７０號","OBJECTID":118752},"geometry":{"x":175937.18000000063,"y":2568086.9600000046}},{"attributes":{"ID":118753,"DIS_CODE":0,"TOWNNAME":"下營區","LI":"開化里","LIN":"4鄰","STREET":" ","SECT":" ","MAREA":"中營","LANE":" ","ALLEY":" ","HOUSE_NO":"２７１號","E_COORD97":175849.20999999999,"N_COORD97":2568004.8900000001,"ADDRESS":"中營２７１號","OBJECTID":118753},"geometry":{"x":175849.21000000089,"y":2568004.8900000006}},{"attributes":{"ID":118754,"DIS_CODE":0,"TOWNNAME":"下營區","LI":"開化里","LIN":"4鄰","STREET":" ","SECT":" ","MAREA":"中營","LANE":" ","ALLEY":" ","HOUSE_NO":"２７２號","E_COORD97":175835.47,"N_COORD97":2567988.1899999999,"ADDRESS":"中營２７２號","OBJECTID":118754},"geometry":{"x":175835.47000000067,"y":2567988.1899999995}},{"attributes":{"ID":118755,"DIS_CODE":0,"TOWNNAME":"下營區","LI":"開化里","LIN":"4鄰","STREET":" ","SECT":" ","MAREA":"中營","LANE":" ","ALLEY":" ","HOUSE_NO":"２７３號","E_COORD97":175828.01000000001,"N_COORD97":2567972.4900000002,"ADDRESS":"中營２７３號","OBJECTID":118755},"geometry":{"x":175828.01000000071,"y":2567972.4900000021}},{"attributes":{"ID":118756,"DIS_CODE":0,"TOWNNAME":"下營區","LI":"開化里","LIN":"4鄰","STREET":" ","SECT":" ","MAREA":"中營","LANE":" ","ALLEY":" ","HOUSE_NO":"２７４號之１","E_COORD97":175808.48999999999,"N_COORD97":2567957.6600000001,"ADDRESS":"中營２７４號之１","OBJECTID":118756},"geometry":{"x":175808.49000000115,"y":2567957.660000002}},{"attributes":{"ID":118757,"DIS_CODE":0,"TOWNNAME":"下營區","LI":"開化里","LIN":"4鄰","STREET":" ","SECT":" ","MAREA":"中營","LANE":" ","ALLEY":" ","HOUSE_NO":"２７４號之２","E_COORD97":175807.54999999999,"N_COORD97":2567950.3700000001,"ADDRESS":"中營２７４號之２","OBJECTID":118757},"geometry":{"x":175807.55000000075,"y":2567950.3700000029}},{"attributes":{"ID":118758,"DIS_CODE":0,"TOWNNAME":"下營區","LI":"開化里","LIN":"4鄰","STREET":" ","SECT":" ","MAREA":"中營","LANE":" ","ALLEY":" ","HOUSE_NO":"２７４號","E_COORD97":175815.09,"N_COORD97":2567961.4300000002,"ADDRESS":"中營２７４號","OBJECTID":118758},"geometry":{"x":175815.08999999985,"y":2567961.4300000016}},{"attributes":{"ID":118759,"DIS_CODE":0,"TOWNNAME":"下營區","LI":"開化里","LIN":"4鄰","STREET":" ","SECT":" ","MAREA":"中營","LANE":" ","ALLEY":" ","HOUSE_NO":"２７５號之１","E_COORD97":175814.76999999999,"N_COORD97":2567935.9300000002,"ADDRESS":"中營２７５號之１","OBJECTID":118759},"geometry":{"x":175814.77000000048,"y":2567935.9299999997}},{"attributes":{"ID":118760,"DIS_CODE":0,"TOWNNAME":"下營區","LI":"開化里","LIN":"4鄰","STREET":" ","SECT":" ","MAREA":"中營","LANE":" ","ALLEY":" ","HOUSE_NO":"２７５號","E_COORD97":175803.64999999999,"N_COORD97":2567929.9100000001,"ADDRESS":"中營２７５號","OBJECTID":118760},"geometry":{"x":175803.64999999944,"y":2567929.9100000001}},{"attributes":{"ID":118761,"DIS_CODE":0,"TOWNNAME":"下營區","LI":"開化里","LIN":"4鄰","STREET":" ","SECT":" ","MAREA":"中營","LANE":" ","ALLEY":" ","HOUSE_NO":"２７６號","E_COORD97":175834.42000000001,"N_COORD97":2567923.27,"ADDRESS":"中營２７６號","OBJECTID":118761},"geometry":{"x":175834.42000000086,"y":2567923.2699999996}},{"attributes":{"ID":118762,"DIS_CODE":0,"TOWNNAME":"下營區","LI":"開化里","LIN":"4鄰","STREET":" ","SECT":" ","MAREA":"中營","LANE":" ","ALLEY":" ","HOUSE_NO":"２７７號","E_COORD97":175861.69,"N_COORD97":2567922.0800000001,"ADDRESS":"中營２７７號","OBJECTID":118762},"geometry":{"x":175861.69000000134,"y":2567922.0800000001}},{"attributes":{"ID":118763,"DIS_CODE":0,"TOWNNAME":"下營區","LI":"開化里","LIN":"4鄰","STREET":" ","SECT":" ","MAREA":"中營","LANE":" ","ALLEY":" ","HOUSE_NO":"２７８號","E_COORD97":175874.41,"N_COORD97":2567930.5499999998,"ADDRESS":"中營２７８號","OBJECTID":118763},"geometry":{"x":175874.41000000015,"y":2567930.5500000026}},{"attributes":{"ID":118764,"DIS_CODE":0,"TOWNNAME":"下營區","LI":"開化里","LIN":"4鄰","STREET":" ","SECT":" ","MAREA":"中營","LANE":" ","ALLEY":" ","HOUSE_NO":"２７９號","E_COORD97":175910.06,"N_COORD97":2567908.6000000001,"ADDRESS":"中營２７９號","OBJECTID":118764},"geometry":{"x":175910.05999999959,"y":2567908.6000000034}},{"attributes":{"ID":118765,"DIS_CODE":0,"TOWNNAME":"下營區","LI":"開化里","LIN":"4鄰","STREET":" ","SECT":" ","MAREA":"中營","LANE":" ","ALLEY":" ","HOUSE_NO":"２８１號","E_COORD97":175826.12,"N_COORD97":2567903.0099999998,"ADDRESS":"中營２８１號","OBJECTID":118765},"geometry":{"x":175826.12000000104,"y":2567903.0100000016}},{"attributes":{"ID":118766,"DIS_CODE":0,"TOWNNAME":"下營區","LI":"開化里","LIN":"4鄰","STREET":" ","SECT":" ","MAREA":"中營","LANE":" ","ALLEY":" ","HOUSE_NO":"２８２號之１","E_COORD97":175808,"N_COORD97":2567831.52,"ADDRESS":"中營２８２號之１","OBJECTID":118766},"geometry":{"x":175808.00000000093,"y":2567831.5200000014}},{"attributes":{"ID":118767,"DIS_CODE":0,"TOWNNAME":"下營區","LI":"開化里","LIN":"4鄰","STREET":" ","SECT":" ","MAREA":"中營","LANE":" ","ALLEY":" ","HOUSE_NO":"２８２號","E_COORD97":175824.72,"N_COORD97":2567894.9700000002,"ADDRESS":"中營２８２號","OBJECTID":118767},"geometry":{"x":175824.7200000016,"y":2567894.9700000025}},{"attributes":{"ID":118768,"DIS_CODE":0,"TOWNNAME":"下營區","LI":"開化里","LIN":"4鄰","STREET":" ","SECT":" ","MAREA":"中營","LANE":" ","ALLEY":" ","HOUSE_NO":"２９０號之１０","E_COORD97":175705.04000000001,"N_COORD97":2567671.4100000001,"ADDRESS":"中營２９０號之１０","OBJECTID":118768},"geometry":{"x":175705.04000000004,"y":2567671.4100000001}},{"attributes":{"ID":118769,"DIS_CODE":0,"TOWNNAME":"下營區","LI":"開化里","LIN":"4鄰","STREET":" ","SECT":" ","MAREA":"中營","LANE":" ","ALLEY":" ","HOUSE_NO":"２９０號之１１","E_COORD97":175801.38,"N_COORD97":2567586.0899999999,"ADDRESS":"中營２９０號之１１","OBJECTID":118769},"geometry":{"x":175801.37999999989,"y":2567586.0899999999}},{"attributes":{"ID":118770,"DIS_CODE":0,"TOWNNAME":"下營區","LI":"開化里","LIN":"4鄰","STREET":" ","SECT":" ","MAREA":"中營","LANE":" ","ALLEY":" ","HOUSE_NO":"２９０號之３５","E_COORD97":175578.53,"N_COORD97":2567269.29,"ADDRESS":"中營２９０號之３５","OBJECTID":118770},"geometry":{"x":175578.53000000026,"y":2567269.2900000028}},{"attributes":{"ID":118771,"DIS_CODE":0,"TOWNNAME":"下營區","LI":"開化里","LIN":"4鄰","STREET":" ","SECT":" ","MAREA":"中營","LANE":" ","ALLEY":" ","HOUSE_NO":"２９０號之３６","E_COORD97":175576.23000000001,"N_COORD97":2567229.3700000001,"ADDRESS":"中營２９０號之３６","OBJECTID":118771},"geometry":{"x":175576.23000000231,"y":2567229.370000001}},{"attributes":{"ID":118772,"DIS_CODE":0,"TOWNNAME":"安南區","LI":"安東里","LIN":"23鄰","STREET":"安和路","SECT":"一段","MAREA":" ","LANE":"４９６巷","ALLEY":"４１弄","HOUSE_NO":"４５號","E_COORD97":169632.70000000001,"N_COORD97":2548413.9399999999,"ADDRESS":"安和路一段４９６巷４１弄４５號","OBJECTID":118772},"geometry":{"x":169632.70000000205,"y":2548413.9399999995}},{"attributes":{"ID":118773,"DIS_CODE":0,"TOWNNAME":"新營區","LI":"忠政里","LIN":"24鄰","STREET":"健康路","SECT":" ","MAREA":" ","LANE":" ","ALLEY":" ","HOUSE_NO":"８號","E_COORD97":179691.23000000001,"N_COORD97":2578882.04,"ADDRESS":"健康路８號","OBJECTID":118773},"geometry":{"x":179691.23000000045,"y":2578882.0399999991}},{"attributes":{"ID":118774,"DIS_CODE":0,"TOWNNAME":"安南區","LI":"安東里","LIN":"23鄰","STREET":"安和路","SECT":"一段","MAREA":" ","LANE":"４９６巷","ALLEY":"４１弄","HOUSE_NO":"４９號","E_COORD97":169642.98999999999,"N_COORD97":2548416.4500000002,"ADDRESS":"安和路一段４９６巷４１弄４９號","OBJECTID":118774},"geometry":{"x":169642.99000000115,"y":2548416.4499999993}},{"attributes":{"ID":118775,"DIS_CODE":0,"TOWNNAME":"安南區","LI":"安東里","LIN":"23鄰","STREET":"安和路","SECT":"一段","MAREA":" ","LANE":"４９６巷","ALLEY":"４１弄","HOUSE_NO":"５３號","E_COORD97":169649.51999999999,"N_COORD97":2548416.4500000002,"ADDRESS":"安和路一段４９６巷４１弄５３號","OBJECTID":118775},"geometry":{"x":169649.51999999955,"y":2548416.4499999993}},{"attributes":{"ID":118776,"DIS_CODE":0,"TOWNNAME":"安南區","LI":"安東里","LIN":"23鄰","STREET":"安和路","SECT":"一段","MAREA":" ","LANE":"４９６巷","ALLEY":"４１弄","HOUSE_NO":"５５號","E_COORD97":169653.29000000001,"N_COORD97":2548417.2000000002,"ADDRESS":"安和路一段４９６巷４１弄５５號","OBJECTID":118776},"geometry":{"x":169653.29000000004,"y":2548417.2000000011}},{"attributes":{"ID":118777,"DIS_CODE":0,"TOWNNAME":"安南區","LI":"安東里","LIN":"23鄰","STREET":"安和路","SECT":"一段","MAREA":" ","LANE":"４９６巷","ALLEY":"４１弄","HOUSE_NO":"５７號","E_COORD97":169659.32000000001,"N_COORD97":2548417.9500000002,"ADDRESS":"安和路一段４９６巷４１弄５７號","OBJECTID":118777},"geometry":{"x":169659.32000000123,"y":2548417.950000003}},{"attributes":{"ID":118778,"DIS_CODE":0,"TOWNNAME":"安南區","LI":"安東里","LIN":"23鄰","STREET":"安和路","SECT":"一段","MAREA":" ","LANE":"４９６巷","ALLEY":"４１弄","HOUSE_NO":"６１號","E_COORD97":169665.10000000001,"N_COORD97":2548418.7000000002,"ADDRESS":"安和路一段４９６巷４１弄６１號","OBJECTID":118778},"geometry":{"x":169665.10000000149,"y":2548418.6999999993}},{"attributes":{"ID":118779,"DIS_CODE":0,"TOWNNAME":"安南區","LI":"安東里","LIN":"23鄰","STREET":"安和路","SECT":"一段","MAREA":" ","LANE":"４９６巷","ALLEY":"４１弄","HOUSE_NO":"６３號","E_COORD97":169668.85999999999,"N_COORD97":2548419.21,"ADDRESS":"安和路一段４９６巷４１弄６３號","OBJECTID":118779},"geometry":{"x":169668.86000000034,"y":2548419.2100000028}},{"attributes":{"ID":118780,"DIS_CODE":0,"TOWNNAME":"安南區","LI":"安慶里","LIN":"23鄰","STREET":"安中路","SECT":"一段","MAREA":" ","LANE":"１８９巷","ALLEY":"９２弄","HOUSE_NO":"２０號","E_COORD97":168711.57999999999,"N_COORD97":2548268.8199999998,"ADDRESS":"安中路一段１８９巷９２弄２０號","OBJECTID":118780},"geometry":{"x":168711.58000000101,"y":2548268.8200000022}},{"attributes":{"ID":118781,"DIS_CODE":0,"TOWNNAME":"安南區","LI":"安慶里","LIN":"23鄰","STREET":"安中路","SECT":"一段","MAREA":" ","LANE":"１８９巷","ALLEY":"９２弄","HOUSE_NO":"２４號","E_COORD97":168703.70999999999,"N_COORD97":2548267.8399999999,"ADDRESS":"安中路一段１８９巷９２弄２４號","OBJECTID":118781},"geometry":{"x":168703.71000000089,"y":2548267.8400000017}},{"attributes":{"ID":118782,"DIS_CODE":0,"TOWNNAME":"安南區","LI":"安慶里","LIN":"23鄰","STREET":"安中路","SECT":"一段","MAREA":" ","LANE":"１８９巷","ALLEY":"９２弄","HOUSE_NO":"４號","E_COORD97":168743.70000000001,"N_COORD97":2548272.9300000002,"ADDRESS":"安中路一段１８９巷９２弄４號","OBJECTID":118782},"geometry":{"x":168743.70000000019,"y":2548272.9300000016}},{"attributes":{"ID":118783,"DIS_CODE":0,"TOWNNAME":"安南區","LI":"安慶里","LIN":"23鄰","STREET":"安中路","SECT":"一段","MAREA":" ","LANE":"１８９巷","ALLEY":"９２弄","HOUSE_NO":"１２號","E_COORD97":168729.48000000001,"N_COORD97":2548270.3399999999,"ADDRESS":"安中路一段１８９巷９２弄１２號","OBJECTID":118783},"geometry":{"x":168729.48000000138,"y":2548270.3400000017}},{"attributes":{"ID":118784,"DIS_CODE":0,"TOWNNAME":"安南區","LI":"安慶里","LIN":"23鄰","STREET":"安中路","SECT":"一段","MAREA":" ","LANE":"１８９巷","ALLEY":"９２弄","HOUSE_NO":"１４號","E_COORD97":168723.57999999999,"N_COORD97":2548270.25,"ADDRESS":"安中路一段１８９巷９２弄１４號","OBJECTID":118784},"geometry":{"x":168723.58000000101,"y":2548270.25}},{"attributes":{"ID":118785,"DIS_CODE":0,"TOWNNAME":"安南區","LI":"安慶里","LIN":"23鄰","STREET":"安中路","SECT":"一段","MAREA":" ","LANE":"１８９巷","ALLEY":"９２弄","HOUSE_NO":"１６號","E_COORD97":168719.54000000001,"N_COORD97":2548269.1800000002,"ADDRESS":"安中路一段１８９巷９２弄１６號","OBJECTID":118785},"geometry":{"x":168719.54000000004,"y":2548269.1799999997}},{"attributes":{"ID":118786,"DIS_CODE":0,"TOWNNAME":"安南區","LI":"安慶里","LIN":"23鄰","STREET":"安中路","SECT":"一段","MAREA":" ","LANE":"１８９巷","ALLEY":"９２弄","HOUSE_NO":"１８號","E_COORD97":168715.60000000001,"N_COORD97":2548269.1800000002,"ADDRESS":"安中路一段１８９巷９２弄１８號","OBJECTID":118786},"geometry":{"x":168715.5999999987,"y":2548269.1799999997}},{"attributes":{"ID":118787,"DIS_CODE":0,"TOWNNAME":"安南區","LI":"安慶里","LIN":"23鄰","STREET":"安中路","SECT":"一段","MAREA":" ","LANE":"１８９巷","ALLEY":"９２弄","HOUSE_NO":"２２號","E_COORD97":168708.26999999999,"N_COORD97":2548267.9199999999,"ADDRESS":"安中路一段１８９巷９２弄２２號","OBJECTID":118787},"geometry":{"x":168708.27000000048,"y":2548267.9199999999}},{"attributes":{"ID":118788,"DIS_CODE":0,"TOWNNAME":"安南區","LI":"安慶里","LIN":"23鄰","STREET":"安中路","SECT":"一段","MAREA":" ","LANE":"１８９巷","ALLEY":"９２弄","HOUSE_NO":"２６號","E_COORD97":168699.67999999999,"N_COORD97":2548267.1200000001,"ADDRESS":"安中路一段１８９巷９２弄２６號","OBJECTID":118788},"geometry":{"x":168699.6799999997,"y":2548267.1200000029}},{"attributes":{"ID":118789,"DIS_CODE":0,"TOWNNAME":"安南區","LI":"安慶里","LIN":"23鄰","STREET":"安中路","SECT":"一段","MAREA":" ","LANE":"１８９巷","ALLEY":"９２弄","HOUSE_NO":"２８號","E_COORD97":168695.75,"N_COORD97":2548266.7599999998,"ADDRESS":"安中路一段１８９巷９２弄２８號","OBJECTID":118789},"geometry":{"x":168695.75,"y":2548266.7599999979}},{"attributes":{"ID":118790,"DIS_CODE":0,"TOWNNAME":"安南區","LI":"安慶里","LIN":"23鄰","STREET":"安中路","SECT":"一段","MAREA":" ","LANE":"１８９巷","ALLEY":"９２弄","HOUSE_NO":"２號","E_COORD97":168747.63,"N_COORD97":2548273.6499999999,"ADDRESS":"安中路一段１８９巷９２弄２號","OBJECTID":118790},"geometry":{"x":168747.62999999989,"y":2548273.6500000004}},{"attributes":{"ID":118791,"DIS_CODE":0,"TOWNNAME":"新化區","LI":"豐榮里","LIN":"4鄰","STREET":" ","SECT":" ","MAREA":"洋子","LANE":" ","ALLEY":" ","HOUSE_NO":"７５號","E_COORD97":177994.73000000001,"N_COORD97":2548273.25,"ADDRESS":"洋子７５號","OBJECTID":118791},"geometry":{"x":177994.73000000045,"y":2548273.25}},{"attributes":{"ID":118792,"DIS_CODE":0,"TOWNNAME":"安南區","LI":"安慶里","LIN":"23鄰","STREET":"安中路","SECT":"一段","MAREA":" ","LANE":"１８９巷","ALLEY":"９２弄","HOUSE_NO":"３０號","E_COORD97":168691.98999999999,"N_COORD97":2548266.0499999998,"ADDRESS":"安中路一段１８９巷９２弄３０號","OBJECTID":118792},"geometry":{"x":168691.99000000115,"y":2548266.0500000045}},{"attributes":{"ID":118793,"DIS_CODE":0,"TOWNNAME":"安南區","LI":"安慶里","LIN":"23鄰","STREET":"安中路","SECT":"一段","MAREA":" ","LANE":"１８９巷","ALLEY":"９２弄","HOUSE_NO":"３２號","E_COORD97":168687.60999999999,"N_COORD97":2548265.4199999999,"ADDRESS":"安中路一段１８９巷９２弄３２號","OBJECTID":118793},"geometry":{"x":168687.6100000022,"y":2548265.4199999999}},{"attributes":{"ID":118794,"DIS_CODE":0,"TOWNNAME":"安南區","LI":"安慶里","LIN":"23鄰","STREET":"安中路","SECT":"一段","MAREA":" ","LANE":"１８９巷","ALLEY":"９２弄","HOUSE_NO":"３６號","E_COORD97":168679.47,"N_COORD97":2548264.71,"ADDRESS":"安中路一段１８９巷９２弄３６號","OBJECTID":118794},"geometry":{"x":168679.4700000016,"y":2548264.7100000009}},{"attributes":{"ID":118795,"DIS_CODE":0,"TOWNNAME":"安南區","LI":"安慶里","LIN":"23鄰","STREET":"安中路","SECT":"一段","MAREA":" ","LANE":"１８９巷","ALLEY":"９２弄","HOUSE_NO":"３８號","E_COORD97":168675.12,"N_COORD97":2548263.98,"ADDRESS":"安中路一段１８９巷９２弄３８號","OBJECTID":118795},"geometry":{"x":168675.12000000011,"y":2548263.9800000023}},{"attributes":{"ID":118796,"DIS_CODE":0,"TOWNNAME":"安南區","LI":"安慶里","LIN":"23鄰","STREET":"安中路","SECT":"一段","MAREA":" ","LANE":"１８９巷","ALLEY":"９２弄","HOUSE_NO":"４０號","E_COORD97":168670.92000000001,"N_COORD97":2548263.3599999999,"ADDRESS":"安中路一段１８９巷９２弄４０號","OBJECTID":118796},"geometry":{"x":168670.91999999993,"y":2548263.3600000013}},{"attributes":{"ID":118797,"DIS_CODE":0,"TOWNNAME":"安南區","LI":"安慶里","LIN":"23鄰","STREET":"安中路","SECT":"一段","MAREA":" ","LANE":"１８９巷","ALLEY":"９２弄","HOUSE_NO":"４２號","E_COORD97":168667.17000000001,"N_COORD97":2548263.0899999999,"ADDRESS":"安中路一段１８９巷９２弄４２號","OBJECTID":118797},"geometry":{"x":168667.17000000086,"y":2548263.0900000017}},{"attributes":{"ID":118798,"DIS_CODE":0,"TOWNNAME":"安南區","LI":"安慶里","LIN":"23鄰","STREET":"安中路","SECT":"一段","MAREA":" ","LANE":"１８９巷","ALLEY":"９２弄","HOUSE_NO":"４３號","E_COORD97":168638.48999999999,"N_COORD97":2548238.0099999998,"ADDRESS":"安中路一段１８９巷９２弄４３號","OBJECTID":118798},"geometry":{"x":168638.49000000022,"y":2548238.0099999979}},{"attributes":{"ID":118799,"DIS_CODE":0,"TOWNNAME":"安南區","LI":"安慶里","LIN":"23鄰","STREET":"安中路","SECT":"一段","MAREA":" ","LANE":"１８９巷","ALLEY":"９２弄","HOUSE_NO":"４５號","E_COORD97":168639.06,"N_COORD97":2548234.0499999998,"ADDRESS":"安中路一段１８９巷９２弄４５號","OBJECTID":118799},"geometry":{"x":168639.05999999959,"y":2548234.0500000007}},{"attributes":{"ID":118800,"DIS_CODE":0,"TOWNNAME":"安南區","LI":"安慶里","LIN":"23鄰","STREET":"安中路","SECT":"一段","MAREA":" ","LANE":"１８９巷","ALLEY":"９２弄","HOUSE_NO":"４６號","E_COORD97":168659.03,"N_COORD97":2548262.29,"ADDRESS":"安中路一段１８９巷９２弄４６號","OBJECTID":118800},"geometry":{"x":168659.03000000026,"y":2548262.2899999991}}]}