{"displayFieldName":"TOWNNAME","fieldAliases":{"ID":"ID","DIS_CODE":"DIS_CODE","TOWNNAME":"TOWNNAME","LI":"LI","LIN":"LIN","STREET":"STREET","SECT":"SECT","MAREA":"MAREA","LANE":"LANE","ALLEY":"ALLEY","HOUSE_NO":"HOUSE_NO","E_COORD97":"E_COORD97","N_COORD97":"N_COORD97","ADDRESS":"ADDRESS","OBJECTID":"OBJECTID"},"geometryType":"esriGeometryPoint","spatialReference":{"wkid":102443,"latestWkid":3826},"fields":[{"name":"ID","type":"esriFieldTypeDouble","alias":"ID"},{"name":"DIS_CODE","type":"esriFieldTypeInteger","alias":"DIS_CODE"},{"name":"TOWNNAME","type":"esriFieldTypeString","alias":"TOWNNAME","length":8},{"name":"LI","type":"esriFieldTypeString","alias":"LI","length":8},{"name":"LIN","type":"esriFieldTypeString","alias":"LIN","length":12},{"name":"STREET","type":"esriFieldTypeString","alias":"STREET","length":20},{"name":"SECT","type":"esriFieldTypeString","alias":"SECT","length":8},{"name":"MAREA","type":"esriFieldTypeString","alias":"MAREA","length":12},{"name":"LANE","type":"esriFieldTypeString","alias":"LANE","length":10},{"name":"ALLEY","type":"esriFieldTypeString","alias":"ALLEY","length":10},{"name":"HOUSE_NO","type":"esriFieldTypeString","alias":"HOUSE_NO","length":20},{"name":"E_COORD97","type":"esriFieldTypeDouble","alias":"E_COORD97"},{"name":"N_COORD97","type":"esriFieldTypeDouble","alias":"N_COORD97"},{"name":"ADDRESS","type":"esriFieldTypeString","alias":"ADDRESS","length":50},{"name":"OBJECTID","type":"esriFieldTypeOID","alias":"OBJECTID"}],"features":[{"attributes":{"ID":396825,"DIS_CODE":0,"TOWNNAME":"安南區","LI":"理想里","LIN":"16鄰","STREET":"大安街","SECT":" ","MAREA":" ","LANE":"１８７巷","ALLEY":" ","HOUSE_NO":"１５號","E_COORD97":167321.91,"N_COORD97":2548303.3900000001,"ADDRESS":"大安街１８７巷１５號","OBJECTID":396801},"geometry":{"x":167321.91000000015,"y":2548303.3900000006}},{"attributes":{"ID":396826,"DIS_CODE":0,"TOWNNAME":"安南區","LI":"理想里","LIN":"16鄰","STREET":"大安街","SECT":" ","MAREA":" ","LANE":"１８７巷","ALLEY":" ","HOUSE_NO":"１６號","E_COORD97":167334.07000000001,"N_COORD97":2548321.9199999999,"ADDRESS":"大安街１８７巷１６號","OBJECTID":396802},"geometry":{"x":167334.07000000123,"y":2548321.9200000018}},{"attributes":{"ID":396827,"DIS_CODE":0,"TOWNNAME":"安南區","LI":"理想里","LIN":"16鄰","STREET":"大安街","SECT":" ","MAREA":" ","LANE":"１８７巷","ALLEY":" ","HOUSE_NO":"１７號","E_COORD97":167318.44,"N_COORD97":2548305.46,"ADDRESS":"大安街１８７巷１７號","OBJECTID":396803},"geometry":{"x":167318.44000000041,"y":2548305.4600000028}},{"attributes":{"ID":396828,"DIS_CODE":0,"TOWNNAME":"安南區","LI":"理想里","LIN":"16鄰","STREET":"大安街","SECT":" ","MAREA":" ","LANE":"１８７巷","ALLEY":" ","HOUSE_NO":"２０號","E_COORD97":167327,"N_COORD97":2548326.48,"ADDRESS":"大安街１８７巷２０號","OBJECTID":396804},"geometry":{"x":167327.00000000093,"y":2548326.4800000004}},{"attributes":{"ID":396829,"DIS_CODE":0,"TOWNNAME":"安南區","LI":"理想里","LIN":"16鄰","STREET":"大安街","SECT":" ","MAREA":" ","LANE":"１８７巷","ALLEY":" ","HOUSE_NO":"６號","E_COORD97":167352.85999999999,"N_COORD97":2548309.7799999998,"ADDRESS":"大安街１８７巷６號","OBJECTID":396805},"geometry":{"x":167352.86000000034,"y":2548309.7799999993}},{"attributes":{"ID":396830,"DIS_CODE":0,"TOWNNAME":"安南區","LI":"理想里","LIN":"16鄰","STREET":"大安街","SECT":" ","MAREA":" ","LANE":"１８７巷","ALLEY":" ","HOUSE_NO":"８號","E_COORD97":167348.84,"N_COORD97":2548312.2200000002,"ADDRESS":"大安街１８７巷８號","OBJECTID":396806},"geometry":{"x":167348.83999999985,"y":2548312.2200000044}},{"attributes":{"ID":396831,"DIS_CODE":0,"TOWNNAME":"安南區","LI":"理想里","LIN":"16鄰","STREET":"大安街","SECT":" ","MAREA":" ","LANE":"１８７巷","ALLEY":" ","HOUSE_NO":"１４號","E_COORD97":167337.19,"N_COORD97":2548319.1000000001,"ADDRESS":"大安街１８７巷１４號","OBJECTID":396807},"geometry":{"x":167337.19000000041,"y":2548319.1000000015}},{"attributes":{"ID":396832,"DIS_CODE":0,"TOWNNAME":"永康區","LI":"五王里","LIN":"27鄰","STREET":"五福街","SECT":" ","MAREA":" ","LANE":"１１０巷","ALLEY":" ","HOUSE_NO":"４２號","E_COORD97":171564.39000000001,"N_COORD97":2545925.21,"ADDRESS":"五福街１１０巷４２號","OBJECTID":396808},"geometry":{"x":171564.38999999966,"y":2545925.2100000009}},{"attributes":{"ID":396833,"DIS_CODE":0,"TOWNNAME":"永康區","LI":"中興里","LIN":"18鄰","STREET":"中華路","SECT":" ","MAREA":" ","LANE":"２８６巷","ALLEY":" ","HOUSE_NO":"４３號","E_COORD97":171655.39000000001,"N_COORD97":2545356.9900000002,"ADDRESS":"中華路２８６巷４３號","OBJECTID":396809},"geometry":{"x":171655.3900000006,"y":2545356.9900000039}},{"attributes":{"ID":396834,"DIS_CODE":0,"TOWNNAME":"永康區","LI":"五王里","LIN":"37鄰","STREET":"中華路","SECT":" ","MAREA":" ","LANE":"５７８巷","ALLEY":" ","HOUSE_NO":"１５號之４４","E_COORD97":171275.97,"N_COORD97":2545965.79,"ADDRESS":"中華路５７８巷１５號之４４","OBJECTID":396810},"geometry":{"x":171275.96999999974,"y":2545965.7899999991}},{"attributes":{"ID":396835,"DIS_CODE":0,"TOWNNAME":"永康區","LI":"中興里","LIN":"16鄰","STREET":"中華二路","SECT":" ","MAREA":" ","LANE":"１２７巷","ALLEY":" ","HOUSE_NO":"７號","E_COORD97":172011.87,"N_COORD97":2545407.5,"ADDRESS":"中華二路１２７巷７號","OBJECTID":396811},"geometry":{"x":172011.87000000104,"y":2545407.5000000037}},{"attributes":{"ID":396836,"DIS_CODE":0,"TOWNNAME":"永康區","LI":"大橋里","LIN":"16鄰","STREET":"大橋一街","SECT":" ","MAREA":" ","LANE":"１０３巷","ALLEY":" ","HOUSE_NO":"６４號","E_COORD97":170938.19,"N_COORD97":2546561.4900000002,"ADDRESS":"大橋一街１０３巷６４號","OBJECTID":396812},"geometry":{"x":170938.18999999948,"y":2546561.4900000021}},{"attributes":{"ID":396837,"DIS_CODE":0,"TOWNNAME":"安南區","LI":"安富里","LIN":"16鄰","STREET":"安富街","SECT":" ","MAREA":" ","LANE":"２４５巷","ALLEY":" ","HOUSE_NO":"６１號","E_COORD97":167618.45000000001,"N_COORD97":2547299.5699999998,"ADDRESS":"安富街２４５巷６１號","OBJECTID":396813},"geometry":{"x":167618.45000000019,"y":2547299.5700000022}},{"attributes":{"ID":396838,"DIS_CODE":0,"TOWNNAME":"安南區","LI":"安富里","LIN":"16鄰","STREET":"安富街","SECT":" ","MAREA":" ","LANE":"２４５巷","ALLEY":" ","HOUSE_NO":"６３號","E_COORD97":167619.35000000001,"N_COORD97":2547295.0600000001,"ADDRESS":"安富街２４５巷６３號","OBJECTID":396814},"geometry":{"x":167619.35000000056,"y":2547295.0600000005}},{"attributes":{"ID":396839,"DIS_CODE":0,"TOWNNAME":"安南區","LI":"安富里","LIN":"16鄰","STREET":"安富街","SECT":" ","MAREA":" ","LANE":"２４５巷","ALLEY":" ","HOUSE_NO":"６５號","E_COORD97":167620.26000000001,"N_COORD97":2547290.2599999998,"ADDRESS":"安富街２４５巷６５號","OBJECTID":396815},"geometry":{"x":167620.26000000071,"y":2547290.2599999998}},{"attributes":{"ID":396840,"DIS_CODE":0,"TOWNNAME":"安南區","LI":"安富里","LIN":"16鄰","STREET":"安富街","SECT":" ","MAREA":" ","LANE":"２４５巷","ALLEY":" ","HOUSE_NO":"６７號","E_COORD97":167620.85999999999,"N_COORD97":2547286.6600000001,"ADDRESS":"安富街２４５巷６７號","OBJECTID":396816},"geometry":{"x":167620.86000000034,"y":2547286.6600000001}},{"attributes":{"ID":396841,"DIS_CODE":0,"TOWNNAME":"安南區","LI":"安富里","LIN":"16鄰","STREET":"海佃路","SECT":"一段","MAREA":" ","LANE":"１５８巷","ALLEY":" ","HOUSE_NO":"１６７號","E_COORD97":167646.12,"N_COORD97":2547289.2599999998,"ADDRESS":"海佃路一段１５８巷１６７號","OBJECTID":396817},"geometry":{"x":167646.12000000011,"y":2547289.2599999998}},{"attributes":{"ID":396842,"DIS_CODE":0,"TOWNNAME":"安南區","LI":"安富里","LIN":"16鄰","STREET":"海佃路","SECT":"一段","MAREA":" ","LANE":"１５８巷","ALLEY":" ","HOUSE_NO":"１７５號","E_COORD97":167662.35999999999,"N_COORD97":2547295.5699999998,"ADDRESS":"海佃路一段１５８巷１７５號","OBJECTID":396818},"geometry":{"x":167662.36000000127,"y":2547295.5699999984}},{"attributes":{"ID":396843,"DIS_CODE":0,"TOWNNAME":"安南區","LI":"安富里","LIN":"16鄰","STREET":"海佃路","SECT":"一段","MAREA":" ","LANE":"１５８巷","ALLEY":" ","HOUSE_NO":"１７７號","E_COORD97":167667.78,"N_COORD97":2547294.0699999998,"ADDRESS":"海佃路一段１５８巷１７７號","OBJECTID":396819},"geometry":{"x":167667.78000000119,"y":2547294.0700000022}},{"attributes":{"ID":396844,"DIS_CODE":0,"TOWNNAME":"安南區","LI":"安富里","LIN":"16鄰","STREET":"海佃路","SECT":"一段","MAREA":" ","LANE":"１５８巷","ALLEY":" ","HOUSE_NO":"１７９號","E_COORD97":167672.29000000001,"N_COORD97":2547296.77,"ADDRESS":"海佃路一段１５８巷１７９號","OBJECTID":396820},"geometry":{"x":167672.2900000019,"y":2547296.7699999996}},{"attributes":{"ID":396845,"DIS_CODE":0,"TOWNNAME":"安南區","LI":"安富里","LIN":"16鄰","STREET":"海佃路","SECT":"一段","MAREA":" ","LANE":"１５８巷","ALLEY":" ","HOUSE_NO":"１８１號","E_COORD97":167676.5,"N_COORD97":2547299.4700000002,"ADDRESS":"海佃路一段１５８巷１８１號","OBJECTID":396821},"geometry":{"x":167676.50000000093,"y":2547299.4700000007}},{"attributes":{"ID":396846,"DIS_CODE":0,"TOWNNAME":"永康區","LI":"大灣里","LIN":"5鄰","STREET":"大民街","SECT":" ","MAREA":" ","LANE":"１２９巷","ALLEY":" ","HOUSE_NO":"１１號","E_COORD97":174891.85000000001,"N_COORD97":2545615.46,"ADDRESS":"大民街１２９巷１１號","OBJECTID":396822},"geometry":{"x":174891.85000000056,"y":2545615.4600000046}},{"attributes":{"ID":396847,"DIS_CODE":0,"TOWNNAME":"永康區","LI":"大灣里","LIN":"13鄰","STREET":"民族路","SECT":" ","MAREA":" ","LANE":"３４５巷","ALLEY":" ","HOUSE_NO":"１７號","E_COORD97":174945.23999999999,"N_COORD97":2545186.7599999998,"ADDRESS":"民族路３４５巷１７號","OBJECTID":396823},"geometry":{"x":174945.24000000209,"y":2545186.7600000016}},{"attributes":{"ID":396848,"DIS_CODE":0,"TOWNNAME":"永康區","LI":"中興里","LIN":"10鄰","STREET":"忠孝路","SECT":" ","MAREA":" ","LANE":"２３９巷","ALLEY":" ","HOUSE_NO":"１６號","E_COORD97":172040.89000000001,"N_COORD97":2545053.4900000002,"ADDRESS":"忠孝路２３９巷１６號","OBJECTID":396824},"geometry":{"x":172040.88999999966,"y":2545053.4900000021}},{"attributes":{"ID":396849,"DIS_CODE":0,"TOWNNAME":"永康區","LI":"五王里","LIN":"37鄰","STREET":"中華路","SECT":" ","MAREA":" ","LANE":"５７８巷","ALLEY":" ","HOUSE_NO":"１５號之４３","E_COORD97":171276.04999999999,"N_COORD97":2545965.79,"ADDRESS":"中華路５７８巷１５號之４３","OBJECTID":396825},"geometry":{"x":171276.05000000168,"y":2545965.7899999991}},{"attributes":{"ID":396850,"DIS_CODE":0,"TOWNNAME":"安南區","LI":"安富里","LIN":"16鄰","STREET":"海佃路","SECT":"一段","MAREA":" ","LANE":"１５８巷","ALLEY":" ","HOUSE_NO":"１８３號","E_COORD97":167681.31,"N_COORD97":2547297.0699999998,"ADDRESS":"海佃路一段１５８巷１８３號","OBJECTID":396826},"geometry":{"x":167681.30999999959,"y":2547297.0700000022}},{"attributes":{"ID":396851,"DIS_CODE":0,"TOWNNAME":"安南區","LI":"安富里","LIN":"16鄰","STREET":"海佃路","SECT":"一段","MAREA":" ","LANE":"１５８巷","ALLEY":" ","HOUSE_NO":"１８５號","E_COORD97":167685.51999999999,"N_COORD97":2547299.77,"ADDRESS":"海佃路一段１５８巷１８５號","OBJECTID":396827},"geometry":{"x":167685.52000000142,"y":2547299.7699999996}},{"attributes":{"ID":396852,"DIS_CODE":0,"TOWNNAME":"安南區","LI":"安富里","LIN":"16鄰","STREET":"海佃路","SECT":"一段","MAREA":" ","LANE":"１５８巷","ALLEY":" ","HOUSE_NO":"１８９號","E_COORD97":167694.84,"N_COORD97":2547300.3700000001,"ADDRESS":"海佃路一段１５８巷１８９號","OBJECTID":396828},"geometry":{"x":167694.83999999985,"y":2547300.370000001}},{"attributes":{"ID":396853,"DIS_CODE":0,"TOWNNAME":"安南區","LI":"安富里","LIN":"16鄰","STREET":"海佃路","SECT":"一段","MAREA":" ","LANE":"１５８巷","ALLEY":" ","HOUSE_NO":"１９１號","E_COORD97":167699.35999999999,"N_COORD97":2547301.8700000001,"ADDRESS":"海佃路一段１５８巷１９１號","OBJECTID":396829},"geometry":{"x":167699.3600000022,"y":2547301.8700000029}},{"attributes":{"ID":396854,"DIS_CODE":0,"TOWNNAME":"安南區","LI":"安富里","LIN":"16鄰","STREET":"海佃路","SECT":"一段","MAREA":" ","LANE":"１５８巷","ALLEY":" ","HOUSE_NO":"１９５號","E_COORD97":167707.78,"N_COORD97":2547305.1800000002,"ADDRESS":"海佃路一段１５８巷１９５號","OBJECTID":396830},"geometry":{"x":167707.78000000026,"y":2547305.1800000016}},{"attributes":{"ID":396855,"DIS_CODE":0,"TOWNNAME":"安南區","LI":"溪東里","LIN":"16鄰","STREET":"北安路","SECT":"二段","MAREA":" ","LANE":"１２３巷","ALLEY":" ","HOUSE_NO":"１０號","E_COORD97":168445.38,"N_COORD97":2547533.1699999999,"ADDRESS":"北安路二段１２３巷１０號","OBJECTID":396831},"geometry":{"x":168445.38000000082,"y":2547533.1700000018}},{"attributes":{"ID":396856,"DIS_CODE":0,"TOWNNAME":"安南區","LI":"溪東里","LIN":"16鄰","STREET":"北安路","SECT":"二段","MAREA":" ","LANE":"１２３巷","ALLEY":" ","HOUSE_NO":"１１號","E_COORD97":168429.07000000001,"N_COORD97":2547506.1200000001,"ADDRESS":"北安路二段１２３巷１１號","OBJECTID":396832},"geometry":{"x":168429.07000000123,"y":2547506.120000001}},{"attributes":{"ID":396857,"DIS_CODE":0,"TOWNNAME":"安南區","LI":"溪東里","LIN":"16鄰","STREET":"北安路","SECT":"二段","MAREA":" ","LANE":"１２３巷","ALLEY":" ","HOUSE_NO":"１２號","E_COORD97":168439.64000000001,"N_COORD97":2547533.6400000001,"ADDRESS":"北安路二段１２３巷１２號","OBJECTID":396833},"geometry":{"x":168439.6400000006,"y":2547533.6400000025}},{"attributes":{"ID":396858,"DIS_CODE":0,"TOWNNAME":"永康區","LI":"東橋里","LIN":"16鄰","STREET":"東橋三路","SECT":" ","MAREA":" ","LANE":"７７巷","ALLEY":" ","HOUSE_NO":"６號","E_COORD97":171556.37,"N_COORD97":2546620.9900000002,"ADDRESS":"東橋三路７７巷６號","OBJECTID":396834},"geometry":{"x":171556.37000000011,"y":2546620.9900000002}},{"attributes":{"ID":396859,"DIS_CODE":0,"TOWNNAME":"安南區","LI":"溪東里","LIN":"16鄰","STREET":"北安路","SECT":"二段","MAREA":" ","LANE":"１２３巷","ALLEY":" ","HOUSE_NO":"１６號","E_COORD97":168413.64000000001,"N_COORD97":2547529.8999999999,"ADDRESS":"北安路二段１２３巷１６號","OBJECTID":396835},"geometry":{"x":168413.63999999873,"y":2547529.9000000004}},{"attributes":{"ID":396860,"DIS_CODE":0,"TOWNNAME":"安南區","LI":"溪東里","LIN":"16鄰","STREET":"北安路","SECT":"二段","MAREA":" ","LANE":"１２３巷","ALLEY":" ","HOUSE_NO":"１８號","E_COORD97":168408.32999999999,"N_COORD97":2547528.4700000002,"ADDRESS":"北安路二段１２３巷１８號","OBJECTID":396836},"geometry":{"x":168408.33000000101,"y":2547528.4700000025}},{"attributes":{"ID":396861,"DIS_CODE":0,"TOWNNAME":"安南區","LI":"溪東里","LIN":"16鄰","STREET":"北安路","SECT":"二段","MAREA":" ","LANE":"１２３巷","ALLEY":" ","HOUSE_NO":"１號","E_COORD97":168463.64999999999,"N_COORD97":2547509.4399999999,"ADDRESS":"北安路二段１２３巷１號","OBJECTID":396837},"geometry":{"x":168463.65000000224,"y":2547509.4400000032}},{"attributes":{"ID":396862,"DIS_CODE":0,"TOWNNAME":"安南區","LI":"溪東里","LIN":"16鄰","STREET":"北安路","SECT":"二段","MAREA":" ","LANE":"１２３巷","ALLEY":" ","HOUSE_NO":"２２號","E_COORD97":168395.34,"N_COORD97":2547525.7200000002,"ADDRESS":"北安路二段１２３巷２２號","OBJECTID":396838},"geometry":{"x":168395.33999999985,"y":2547525.7200000044}},{"attributes":{"ID":396863,"DIS_CODE":0,"TOWNNAME":"安南區","LI":"溪東里","LIN":"16鄰","STREET":"北安路","SECT":"二段","MAREA":" ","LANE":"１２３巷","ALLEY":" ","HOUSE_NO":"２４號","E_COORD97":168387.97,"N_COORD97":2547525.4100000001,"ADDRESS":"北安路二段１２３巷２４號","OBJECTID":396839},"geometry":{"x":168387.9700000016,"y":2547525.410000002}},{"attributes":{"ID":396864,"DIS_CODE":0,"TOWNNAME":"安南區","LI":"溪東里","LIN":"16鄰","STREET":"北安路","SECT":"二段","MAREA":" ","LANE":"１２３巷","ALLEY":" ","HOUSE_NO":"２６號","E_COORD97":168382.25,"N_COORD97":2547524.3900000001,"ADDRESS":"北安路二段１２３巷２６號","OBJECTID":396840},"geometry":{"x":168382.25,"y":2547524.3900000043}},{"attributes":{"ID":396865,"DIS_CODE":0,"TOWNNAME":"永康區","LI":"中興里","LIN":"18鄰","STREET":"中華路","SECT":" ","MAREA":" ","LANE":"２８６巷","ALLEY":" ","HOUSE_NO":"２０號","E_COORD97":171632.79000000001,"N_COORD97":2545309.25,"ADDRESS":"中華路２８６巷２０號","OBJECTID":396841},"geometry":{"x":171632.79000000097,"y":2545309.25}},{"attributes":{"ID":396866,"DIS_CODE":0,"TOWNNAME":"永康區","LI":"中興里","LIN":"18鄰","STREET":"中華路","SECT":" ","MAREA":" ","LANE":"２８６巷","ALLEY":" ","HOUSE_NO":"４６號","E_COORD97":171704.76000000001,"N_COORD97":2545293.5,"ADDRESS":"中華路２８６巷４６號","OBJECTID":396842},"geometry":{"x":171704.75999999978,"y":2545293.5000000019}},{"attributes":{"ID":396867,"DIS_CODE":0,"TOWNNAME":"永康區","LI":"中興里","LIN":"18鄰","STREET":"中華路","SECT":" ","MAREA":" ","LANE":"２８６巷","ALLEY":" ","HOUSE_NO":"６２號之１","E_COORD97":171721.34,"N_COORD97":2545294.0299999998,"ADDRESS":"中華路２８６巷６２號之１","OBJECTID":396843},"geometry":{"x":171721.33999999985,"y":2545294.0299999993}},{"attributes":{"ID":396868,"DIS_CODE":0,"TOWNNAME":"永康區","LI":"中興里","LIN":"18鄰","STREET":"中華路","SECT":" ","MAREA":" ","LANE":"２８６巷","ALLEY":" ","HOUSE_NO":"５０號","E_COORD97":171705.13,"N_COORD97":2545306.25,"ADDRESS":"中華路２８６巷５０號","OBJECTID":396844},"geometry":{"x":171705.13000000082,"y":2545306.25}},{"attributes":{"ID":396869,"DIS_CODE":0,"TOWNNAME":"永康區","LI":"五王里","LIN":"12鄰","STREET":"中山東路","SECT":" ","MAREA":" ","LANE":"２１８巷","ALLEY":" ","HOUSE_NO":"２２號","E_COORD97":171721.69,"N_COORD97":2545740.3999999999,"ADDRESS":"中山東路２１８巷２２號","OBJECTID":396845},"geometry":{"x":171721.69000000134,"y":2545740.4000000004}},{"attributes":{"ID":396870,"DIS_CODE":0,"TOWNNAME":"永康區","LI":"大橋里","LIN":"9鄰","STREET":"大橋三街","SECT":" ","MAREA":" ","LANE":"２６１巷","ALLEY":" ","HOUSE_NO":"１８號","E_COORD97":171035.73999999999,"N_COORD97":2546940.25,"ADDRESS":"大橋三街２６１巷１８號","OBJECTID":396846},"geometry":{"x":171035.74000000022,"y":2546940.25}},{"attributes":{"ID":396871,"DIS_CODE":0,"TOWNNAME":"安南區","LI":"溪東里","LIN":"16鄰","STREET":"北安路","SECT":"二段","MAREA":" ","LANE":"１２３巷","ALLEY":" ","HOUSE_NO":"２號","E_COORD97":168461.94,"N_COORD97":2547534.2999999998,"ADDRESS":"北安路二段１２３巷２號","OBJECTID":396847},"geometry":{"x":168461.94000000134,"y":2547534.3000000007}},{"attributes":{"ID":396872,"DIS_CODE":0,"TOWNNAME":"安南區","LI":"溪東里","LIN":"16鄰","STREET":"北安路","SECT":"二段","MAREA":" ","LANE":"１２３巷","ALLEY":" ","HOUSE_NO":"３０號","E_COORD97":168369.95999999999,"N_COORD97":2547521.71,"ADDRESS":"北安路二段１２３巷３０號","OBJECTID":396848},"geometry":{"x":168369.96000000089,"y":2547521.7100000009}},{"attributes":{"ID":396873,"DIS_CODE":0,"TOWNNAME":"安南區","LI":"溪東里","LIN":"16鄰","STREET":"北安路","SECT":"二段","MAREA":" ","LANE":"１２３巷","ALLEY":" ","HOUSE_NO":"３３號","E_COORD97":168359.54000000001,"N_COORD97":2547497.23,"ADDRESS":"北安路二段１２３巷３３號","OBJECTID":396849},"geometry":{"x":168359.54000000097,"y":2547497.2300000004}},{"attributes":{"ID":396874,"DIS_CODE":0,"TOWNNAME":"安南區","LI":"溪東里","LIN":"16鄰","STREET":"北安路","SECT":"二段","MAREA":" ","LANE":"１２３巷","ALLEY":" ","HOUSE_NO":"３４號","E_COORD97":168356.54000000001,"N_COORD97":2547520.6200000001,"ADDRESS":"北安路二段１２３巷３４號","OBJECTID":396850},"geometry":{"x":168356.54000000004,"y":2547520.6200000029}},{"attributes":{"ID":396875,"DIS_CODE":0,"TOWNNAME":"南區","LI":"新興里","LIN":"16鄰","STREET":"三官路","SECT":" ","MAREA":" ","LANE":"７巷","ALLEY":" ","HOUSE_NO":"２５號","E_COORD97":167415.64999999999,"N_COORD97":2542397.6099999999,"ADDRESS":"三官路７巷２５號","OBJECTID":396851},"geometry":{"x":167415.65000000037,"y":2542397.6099999994}},{"attributes":{"ID":396876,"DIS_CODE":0,"TOWNNAME":"安南區","LI":"溪東里","LIN":"16鄰","STREET":"北安路","SECT":"二段","MAREA":" ","LANE":"１２３巷","ALLEY":" ","HOUSE_NO":"３５號","E_COORD97":168352.04000000001,"N_COORD97":2547495.4900000002,"ADDRESS":"北安路二段１２３巷３５號","OBJECTID":396852},"geometry":{"x":168352.0400000019,"y":2547495.4900000002}},{"attributes":{"ID":396877,"DIS_CODE":0,"TOWNNAME":"安南區","LI":"溪東里","LIN":"16鄰","STREET":"北安路","SECT":"二段","MAREA":" ","LANE":"１２３巷","ALLEY":" ","HOUSE_NO":"３６號","E_COORD97":168350.57000000001,"N_COORD97":2547520.23,"ADDRESS":"北安路二段１２３巷３６號","OBJECTID":396853},"geometry":{"x":168350.57000000216,"y":2547520.2300000023}},{"attributes":{"ID":396878,"DIS_CODE":0,"TOWNNAME":"安南區","LI":"溪東里","LIN":"16鄰","STREET":"北安路","SECT":"二段","MAREA":" ","LANE":"１２３巷","ALLEY":" ","HOUSE_NO":"４０號","E_COORD97":168336.76999999999,"N_COORD97":2547518.98,"ADDRESS":"北安路二段１２３巷４０號","OBJECTID":396854},"geometry":{"x":168336.77000000048,"y":2547518.9800000004}},{"attributes":{"ID":396879,"DIS_CODE":0,"TOWNNAME":"安南區","LI":"溪東里","LIN":"16鄰","STREET":"北安路","SECT":"二段","MAREA":" ","LANE":"１２３巷","ALLEY":" ","HOUSE_NO":"４３號","E_COORD97":168327.34,"N_COORD97":2547493.6600000001,"ADDRESS":"北安路二段１２３巷４３號","OBJECTID":396855},"geometry":{"x":168327.33999999985,"y":2547493.6600000001}},{"attributes":{"ID":396880,"DIS_CODE":0,"TOWNNAME":"安南區","LI":"溪東里","LIN":"16鄰","STREET":"北安路","SECT":"二段","MAREA":" ","LANE":"１２３巷","ALLEY":" ","HOUSE_NO":"４４號","E_COORD97":168323.82000000001,"N_COORD97":2547517.1600000001,"ADDRESS":"北安路二段１２３巷４４號","OBJECTID":396856},"geometry":{"x":168323.82000000123,"y":2547517.1600000001}},{"attributes":{"ID":396881,"DIS_CODE":0,"TOWNNAME":"安南區","LI":"溪東里","LIN":"16鄰","STREET":"北安路","SECT":"二段","MAREA":" ","LANE":"１２３巷","ALLEY":" ","HOUSE_NO":"４５號","E_COORD97":168320.01000000001,"N_COORD97":2547492.2200000002,"ADDRESS":"北安路二段１２３巷４５號","OBJECTID":396857},"geometry":{"x":168320.01000000071,"y":2547492.2200000025}},{"attributes":{"ID":396882,"DIS_CODE":0,"TOWNNAME":"永康區","LI":"中興里","LIN":"25鄰","STREET":"中華路","SECT":" ","MAREA":" ","LANE":"２８０巷","ALLEY":" ","HOUSE_NO":"４號","E_COORD97":171653.16,"N_COORD97":2545175,"ADDRESS":"中華路２８０巷４號","OBJECTID":396858},"geometry":{"x":171653.16000000015,"y":2545175.0000000019}},{"attributes":{"ID":396883,"DIS_CODE":0,"TOWNNAME":"永康區","LI":"二王里","LIN":"1鄰","STREET":"二王路","SECT":" ","MAREA":" ","LANE":"２７巷","ALLEY":" ","HOUSE_NO":"２１號","E_COORD97":173064.06,"N_COORD97":2546820.96,"ADDRESS":"二王路２７巷２１號","OBJECTID":396859},"geometry":{"x":173064.06000000145,"y":2546820.9600000009}},{"attributes":{"ID":396884,"DIS_CODE":0,"TOWNNAME":"永康區","LI":"大橋里","LIN":"10鄰","STREET":"大橋一街","SECT":" ","MAREA":" ","LANE":"１０３巷","ALLEY":" ","HOUSE_NO":"１７４號","E_COORD97":170851.72,"N_COORD97":2546717.25,"ADDRESS":"大橋一街１０３巷１７４號","OBJECTID":396860},"geometry":{"x":170851.72000000067,"y":2546717.25}},{"attributes":{"ID":396885,"DIS_CODE":0,"TOWNNAME":"安南區","LI":"溪東里","LIN":"16鄰","STREET":"北安路","SECT":"二段","MAREA":" ","LANE":"１２３巷","ALLEY":" ","HOUSE_NO":"５９號","E_COORD97":168266.87,"N_COORD97":2547486.6099999999,"ADDRESS":"北安路二段１２３巷５９號","OBJECTID":396861},"geometry":{"x":168266.87000000197,"y":2547486.6099999994}},{"attributes":{"ID":396886,"DIS_CODE":0,"TOWNNAME":"安南區","LI":"溪東里","LIN":"16鄰","STREET":"北安路","SECT":"二段","MAREA":" ","LANE":"１２３巷","ALLEY":" ","HOUSE_NO":"６０號","E_COORD97":168260.64000000001,"N_COORD97":2547510.98,"ADDRESS":"北安路二段１２３巷６０號","OBJECTID":396862},"geometry":{"x":168260.63999999966,"y":2547510.9800000023}},{"attributes":{"ID":396887,"DIS_CODE":0,"TOWNNAME":"安南區","LI":"溪東里","LIN":"16鄰","STREET":"北安路","SECT":"二段","MAREA":" ","LANE":"１２３巷","ALLEY":" ","HOUSE_NO":"６４號","E_COORD97":168250.84,"N_COORD97":2547512.4900000002,"ADDRESS":"北安路二段１２３巷６４號","OBJECTID":396863},"geometry":{"x":168250.83999999985,"y":2547512.4900000002}},{"attributes":{"ID":396888,"DIS_CODE":0,"TOWNNAME":"安南區","LI":"溪東里","LIN":"16鄰","STREET":"北安路","SECT":"二段","MAREA":" ","LANE":"１２３巷","ALLEY":" ","HOUSE_NO":"６６號","E_COORD97":168248.28,"N_COORD97":2547507.6699999999,"ADDRESS":"北安路二段１２３巷６６號","OBJECTID":396864},"geometry":{"x":168248.28000000026,"y":2547507.6699999999}},{"attributes":{"ID":396889,"DIS_CODE":0,"TOWNNAME":"安南區","LI":"溪東里","LIN":"16鄰","STREET":"北安路","SECT":"二段","MAREA":" ","LANE":"１２３巷","ALLEY":" ","HOUSE_NO":"６７號","E_COORD97":168246.84,"N_COORD97":2547484.3799999999,"ADDRESS":"北安路二段１２３巷６７號","OBJECTID":396865},"geometry":{"x":168246.84000000078,"y":2547484.379999999}},{"attributes":{"ID":396890,"DIS_CODE":0,"TOWNNAME":"永康區","LI":"中興里","LIN":"5鄰","STREET":"中華路","SECT":" ","MAREA":" ","LANE":"２１４巷","ALLEY":" ","HOUSE_NO":"１６號","E_COORD97":171739.48000000001,"N_COORD97":2545049.9900000002,"ADDRESS":"中華路２１４巷１６號","OBJECTID":396866},"geometry":{"x":171739.48000000045,"y":2545049.9900000021}},{"attributes":{"ID":396891,"DIS_CODE":0,"TOWNNAME":"永康區","LI":"大橋里","LIN":"24鄰","STREET":"大橋一街","SECT":" ","MAREA":" ","LANE":"２２３巷","ALLEY":" ","HOUSE_NO":"８４號","E_COORD97":171182.51999999999,"N_COORD97":2546766.3999999999,"ADDRESS":"大橋一街２２３巷８４號","OBJECTID":396867},"geometry":{"x":171182.51999999955,"y":2546766.4000000022}},{"attributes":{"ID":396892,"DIS_CODE":0,"TOWNNAME":"永康區","LI":"二王里","LIN":"1鄰","STREET":"二王路","SECT":" ","MAREA":" ","LANE":"２７巷","ALLEY":" ","HOUSE_NO":"１９號","E_COORD97":173059.85000000001,"N_COORD97":2546820.46,"ADDRESS":"二王路２７巷１９號","OBJECTID":396868},"geometry":{"x":173059.84999999963,"y":2546820.4600000028}},{"attributes":{"ID":396893,"DIS_CODE":0,"TOWNNAME":"永康區","LI":"大橋里","LIN":"9鄰","STREET":"大橋一街","SECT":" ","MAREA":" ","LANE":"２４７巷","ALLEY":" ","HOUSE_NO":"１２７號","E_COORD97":171091.07999999999,"N_COORD97":2546951.52,"ADDRESS":"大橋一街２４７巷１２７號","OBJECTID":396869},"geometry":{"x":171091.08000000007,"y":2546951.5199999996}},{"attributes":{"ID":396894,"DIS_CODE":0,"TOWNNAME":"安南區","LI":"溪東里","LIN":"16鄰","STREET":"北安路","SECT":"二段","MAREA":" ","LANE":"１２３巷","ALLEY":" ","HOUSE_NO":"６８號","E_COORD97":168243,"N_COORD97":2547506.77,"ADDRESS":"北安路二段１２３巷６８號","OBJECTID":396870},"geometry":{"x":168243,"y":2547506.7699999996}},{"attributes":{"ID":396895,"DIS_CODE":0,"TOWNNAME":"安南區","LI":"溪東里","LIN":"16鄰","STREET":"北安路","SECT":"二段","MAREA":" ","LANE":"１２３巷","ALLEY":" ","HOUSE_NO":"６９號","E_COORD97":168242.35999999999,"N_COORD97":2547483.46,"ADDRESS":"北安路二段１２３巷６９號","OBJECTID":396871},"geometry":{"x":168242.36000000127,"y":2547483.459999999}},{"attributes":{"ID":396896,"DIS_CODE":0,"TOWNNAME":"安南區","LI":"溪東里","LIN":"16鄰","STREET":"北安路","SECT":"二段","MAREA":" ","LANE":"１２３巷","ALLEY":" ","HOUSE_NO":"７９號","E_COORD97":168218.70999999999,"N_COORD97":2547480.2599999998,"ADDRESS":"北安路二段１２３巷７９號","OBJECTID":396872},"geometry":{"x":168218.71000000183,"y":2547480.2599999979}},{"attributes":{"ID":396897,"DIS_CODE":0,"TOWNNAME":"安南區","LI":"溪東里","LIN":"16鄰","STREET":"北安路","SECT":"二段","MAREA":" ","LANE":"１２３巷","ALLEY":" ","HOUSE_NO":"７號","E_COORD97":168447.82000000001,"N_COORD97":2547508.29,"ADDRESS":"北安路二段１２３巷７號","OBJECTID":396873},"geometry":{"x":168447.82000000123,"y":2547508.290000001}},{"attributes":{"ID":396898,"DIS_CODE":0,"TOWNNAME":"安南區","LI":"溪東里","LIN":"16鄰","STREET":"北安路","SECT":"二段","MAREA":" ","LANE":"１２３巷","ALLEY":" ","HOUSE_NO":"８１號","E_COORD97":168214.20000000001,"N_COORD97":2547479.6299999999,"ADDRESS":"北安路二段１２３巷８１號","OBJECTID":396874},"geometry":{"x":168214.20000000112,"y":2547479.629999999}},{"attributes":{"ID":396899,"DIS_CODE":0,"TOWNNAME":"安南區","LI":"溪東里","LIN":"16鄰","STREET":"北安路","SECT":"二段","MAREA":" ","LANE":"１２３巷","ALLEY":" ","HOUSE_NO":"８７號","E_COORD97":168200.01999999999,"N_COORD97":2547477.6600000001,"ADDRESS":"北安路二段１２３巷８７號","OBJECTID":396875},"geometry":{"x":168200.01999999955,"y":2547477.6600000001}},{"attributes":{"ID":396900,"DIS_CODE":0,"TOWNNAME":"安南區","LI":"溪東里","LIN":"16鄰","STREET":"北安路","SECT":"二段","MAREA":" ","LANE":"１２３巷","ALLEY":" ","HOUSE_NO":"８號","E_COORD97":168448.76999999999,"N_COORD97":2547533.3599999999,"ADDRESS":"北安路二段１２３巷８號","OBJECTID":396876},"geometry":{"x":168448.77000000048,"y":2547533.3599999975}},{"attributes":{"ID":396901,"DIS_CODE":0,"TOWNNAME":"中西區","LI":"藥王里","LIN":"16鄰","STREET":"民權路","SECT":"三段","MAREA":" ","LANE":"４００巷","ALLEY":" ","HOUSE_NO":"１０號","E_COORD97":166822.95999999999,"N_COORD97":2544440.6200000001,"ADDRESS":"民權路三段４００巷１０號","OBJECTID":396877},"geometry":{"x":166822.95999999996,"y":2544440.620000001}},{"attributes":{"ID":396902,"DIS_CODE":0,"TOWNNAME":"永康區","LI":"五王里","LIN":"27鄰","STREET":"五福街","SECT":" ","MAREA":" ","LANE":"１１０巷","ALLEY":" ","HOUSE_NO":"６０號","E_COORD97":171557.92999999999,"N_COORD97":2545902.5499999998,"ADDRESS":"五福街１１０巷６０號","OBJECTID":396878},"geometry":{"x":171557.9299999997,"y":2545902.5500000007}},{"attributes":{"ID":396903,"DIS_CODE":0,"TOWNNAME":"永康區","LI":"烏竹里","LIN":"16鄰","STREET":"自強路","SECT":" ","MAREA":" ","LANE":"９２５巷","ALLEY":" ","HOUSE_NO":"４９號","E_COORD97":174714.51000000001,"N_COORD97":2548904.6299999999,"ADDRESS":"自強路９２５巷４９號","OBJECTID":396879},"geometry":{"x":174714.51000000071,"y":2548904.6300000027}},{"attributes":{"ID":396904,"DIS_CODE":0,"TOWNNAME":"永康區","LI":"烏竹里","LIN":"16鄰","STREET":"自強路","SECT":" ","MAREA":" ","LANE":"９２５巷","ALLEY":" ","HOUSE_NO":"５１號","E_COORD97":174710,"N_COORD97":2548911.3100000001,"ADDRESS":"自強路９２５巷５１號","OBJECTID":396880},"geometry":{"x":174710.00000000093,"y":2548911.3100000005}},{"attributes":{"ID":396905,"DIS_CODE":0,"TOWNNAME":"永康區","LI":"五王里","LIN":"1鄰","STREET":"成功路","SECT":" ","MAREA":" ","LANE":"１３０巷","ALLEY":" ","HOUSE_NO":"２４號","E_COORD97":171522.81,"N_COORD97":2545535.2799999998,"ADDRESS":"成功路１３０巷２４號","OBJECTID":396881},"geometry":{"x":171522.80999999959,"y":2545535.2800000012}},{"attributes":{"ID":396906,"DIS_CODE":0,"TOWNNAME":"永康區","LI":"東橋里","LIN":"16鄰","STREET":"東橋一路","SECT":" ","MAREA":" ","LANE":"１５０巷","ALLEY":" ","HOUSE_NO":"１３號","E_COORD97":171565.01000000001,"N_COORD97":2546508.3700000001,"ADDRESS":"東橋一路１５０巷１３號","OBJECTID":396882},"geometry":{"x":171565.01000000071,"y":2546508.3700000029}},{"attributes":{"ID":396907,"DIS_CODE":0,"TOWNNAME":"永康區","LI":"東橋里","LIN":"16鄰","STREET":"東橋一路","SECT":" ","MAREA":" ","LANE":"１５０巷","ALLEY":" ","HOUSE_NO":"１５號","E_COORD97":171568.63,"N_COORD97":2546511.1899999999,"ADDRESS":"東橋一路１５０巷１５號","OBJECTID":396883},"geometry":{"x":171568.62999999989,"y":2546511.1900000032}},{"attributes":{"ID":396908,"DIS_CODE":0,"TOWNNAME":"永康區","LI":"東橋里","LIN":"16鄰","STREET":"東橋一路","SECT":" ","MAREA":" ","LANE":"１５０巷","ALLEY":" ","HOUSE_NO":"１６號","E_COORD97":171564.92000000001,"N_COORD97":2546499.8799999999,"ADDRESS":"東橋一路１５０巷１６號","OBJECTID":396884},"geometry":{"x":171564.91999999993,"y":2546499.8800000008}},{"attributes":{"ID":396909,"DIS_CODE":0,"TOWNNAME":"永康區","LI":"東橋里","LIN":"16鄰","STREET":"東橋一路","SECT":" ","MAREA":" ","LANE":"１５０巷","ALLEY":" ","HOUSE_NO":"１７號","E_COORD97":171572.42000000001,"N_COORD97":2546514,"ADDRESS":"東橋一路１５０巷１７號","OBJECTID":396885},"geometry":{"x":171572.42000000086,"y":2546514.0000000019}},{"attributes":{"ID":396910,"DIS_CODE":0,"TOWNNAME":"永康區","LI":"東橋里","LIN":"16鄰","STREET":"東橋一路","SECT":" ","MAREA":" ","LANE":"１５０巷","ALLEY":" ","HOUSE_NO":"１８號","E_COORD97":171569.07999999999,"N_COORD97":2546502.6400000001,"ADDRESS":"東橋一路１５０巷１８號","OBJECTID":396886},"geometry":{"x":171569.08000000007,"y":2546502.6400000025}},{"attributes":{"ID":396911,"DIS_CODE":0,"TOWNNAME":"永康區","LI":"中興里","LIN":"1鄰","STREET":"忠孝路","SECT":" ","MAREA":" ","LANE":"２１７巷","ALLEY":" ","HOUSE_NO":"３號","E_COORD97":172058.14999999999,"N_COORD97":2544985.75,"ADDRESS":"忠孝路２１７巷３號","OBJECTID":396887},"geometry":{"x":172058.1500000013,"y":2544985.7500000019}},{"attributes":{"ID":396912,"DIS_CODE":0,"TOWNNAME":"永康區","LI":"大灣里","LIN":"30鄰","STREET":"民族路","SECT":" ","MAREA":" ","LANE":"９６巷","ALLEY":" ","HOUSE_NO":"１０號","E_COORD97":175380.04999999999,"N_COORD97":2544838.9700000002,"ADDRESS":"民族路９６巷１０號","OBJECTID":396888},"geometry":{"x":175380.05000000168,"y":2544838.9700000044}},{"attributes":{"ID":396913,"DIS_CODE":0,"TOWNNAME":"永康區","LI":"東橋里","LIN":"16鄰","STREET":"東橋一路","SECT":" ","MAREA":" ","LANE":"１５０巷","ALLEY":" ","HOUSE_NO":"１９號","E_COORD97":171576.67999999999,"N_COORD97":2546516.4700000002,"ADDRESS":"東橋一路１５０巷１９號","OBJECTID":396889},"geometry":{"x":171576.68000000156,"y":2546516.4700000007}},{"attributes":{"ID":396914,"DIS_CODE":0,"TOWNNAME":"永康區","LI":"東橋里","LIN":"16鄰","STREET":"東橋一路","SECT":" ","MAREA":" ","LANE":"１５０巷","ALLEY":" ","HOUSE_NO":"１號","E_COORD97":171539.35000000001,"N_COORD97":2546492.7400000002,"ADDRESS":"東橋一路１５０巷１號","OBJECTID":396890},"geometry":{"x":171539.34999999963,"y":2546492.7400000021}},{"attributes":{"ID":396915,"DIS_CODE":0,"TOWNNAME":"永康區","LI":"東橋里","LIN":"16鄰","STREET":"東橋一路","SECT":" ","MAREA":" ","LANE":"１５０巷","ALLEY":" ","HOUSE_NO":"２０號","E_COORD97":171573.01999999999,"N_COORD97":2546505.3199999998,"ADDRESS":"東橋一路１５０巷２０號","OBJECTID":396891},"geometry":{"x":171573.02000000048,"y":2546505.3200000022}},{"attributes":{"ID":396916,"DIS_CODE":0,"TOWNNAME":"永康區","LI":"東橋里","LIN":"16鄰","STREET":"東橋一路","SECT":" ","MAREA":" ","LANE":"１５０巷","ALLEY":" ","HOUSE_NO":"２１號","E_COORD97":171580.82999999999,"N_COORD97":2546519.2400000002,"ADDRESS":"東橋一路１５０巷２１號","OBJECTID":396892},"geometry":{"x":171580.83000000007,"y":2546519.2400000021}},{"attributes":{"ID":396917,"DIS_CODE":0,"TOWNNAME":"永康區","LI":"東橋里","LIN":"16鄰","STREET":"東橋一路","SECT":" ","MAREA":" ","LANE":"１５０巷","ALLEY":" ","HOUSE_NO":"２２號","E_COORD97":171577.13,"N_COORD97":2546507.71,"ADDRESS":"東橋一路１５０巷２２號","OBJECTID":396893},"geometry":{"x":171577.12999999896,"y":2546507.7100000009}},{"attributes":{"ID":396918,"DIS_CODE":0,"TOWNNAME":"永康區","LI":"東橋里","LIN":"16鄰","STREET":"東橋一路","SECT":" ","MAREA":" ","LANE":"１５０巷","ALLEY":" ","HOUSE_NO":"２６號","E_COORD97":171581.26999999999,"N_COORD97":2546510.21,"ADDRESS":"東橋一路１５０巷２６號","OBJECTID":396894},"geometry":{"x":171581.27000000048,"y":2546510.2100000028}},{"attributes":{"ID":396919,"DIS_CODE":0,"TOWNNAME":"永康區","LI":"東橋里","LIN":"16鄰","STREET":"東橋一路","SECT":" ","MAREA":" ","LANE":"１５０巷","ALLEY":" ","HOUSE_NO":"２８號","E_COORD97":171584.98999999999,"N_COORD97":2546512.9100000001,"ADDRESS":"東橋一路１５０巷２８號","OBJECTID":396895},"geometry":{"x":171584.99000000022,"y":2546512.9100000001}},{"attributes":{"ID":396920,"DIS_CODE":0,"TOWNNAME":"永康區","LI":"東橋里","LIN":"16鄰","STREET":"東橋一路","SECT":" ","MAREA":" ","LANE":"１５０巷","ALLEY":" ","HOUSE_NO":"２號","E_COORD97":171543.47,"N_COORD97":2546486.9700000002,"ADDRESS":"東橋一路１５０巷２號","OBJECTID":396896},"geometry":{"x":171543.46999999974,"y":2546486.9700000025}},{"attributes":{"ID":396921,"DIS_CODE":0,"TOWNNAME":"永康區","LI":"東橋里","LIN":"16鄰","STREET":"東橋一路","SECT":" ","MAREA":" ","LANE":"１５０巷","ALLEY":" ","HOUSE_NO":"３號","E_COORD97":171543.51000000001,"N_COORD97":2546495.5499999998,"ADDRESS":"東橋一路１５０巷３號","OBJECTID":396897},"geometry":{"x":171543.50999999978,"y":2546495.5500000007}},{"attributes":{"ID":396922,"DIS_CODE":0,"TOWNNAME":"永康區","LI":"五王里","LIN":"27鄰","STREET":"五福街","SECT":" ","MAREA":" ","LANE":"１１０巷","ALLEY":" ","HOUSE_NO":"３２號","E_COORD97":171558.70000000001,"N_COORD97":2545941.2000000002,"ADDRESS":"五福街１１０巷３２號","OBJECTID":396898},"geometry":{"x":171558.70000000112,"y":2545941.200000003}},{"attributes":{"ID":396923,"DIS_CODE":0,"TOWNNAME":"永康區","LI":"東橋里","LIN":"16鄰","STREET":"東橋一路","SECT":" ","MAREA":" ","LANE":"１８０巷","ALLEY":" ","HOUSE_NO":"１２號","E_COORD97":171520.22,"N_COORD97":2546558.0499999998,"ADDRESS":"東橋一路１８０巷１２號","OBJECTID":396899},"geometry":{"x":171520.21999999974,"y":2546558.0500000026}},{"attributes":{"ID":396924,"DIS_CODE":0,"TOWNNAME":"永康區","LI":"中興里","LIN":"5鄰","STREET":"中華路","SECT":" ","MAREA":" ","LANE":"２１４巷","ALLEY":" ","HOUSE_NO":"５３號","E_COORD97":171826.51000000001,"N_COORD97":2545071.3799999999,"ADDRESS":"中華路２１４巷５３號","OBJECTID":396900},"geometry":{"x":171826.50999999978,"y":2545071.3799999971}},{"attributes":{"ID":396925,"DIS_CODE":0,"TOWNNAME":"永康區","LI":"中興里","LIN":"18鄰","STREET":"中華路","SECT":" ","MAREA":" ","LANE":"２８６巷","ALLEY":" ","HOUSE_NO":"４８號","E_COORD97":171704.76000000001,"N_COORD97":2545299,"ADDRESS":"中華路２８６巷４８號","OBJECTID":396901},"geometry":{"x":171704.75999999978,"y":2545299.0000000037}},{"attributes":{"ID":396926,"DIS_CODE":0,"TOWNNAME":"永康區","LI":"大橋里","LIN":"7鄰","STREET":"大橋三街","SECT":" ","MAREA":" ","LANE":"１９９巷","ALLEY":" ","HOUSE_NO":"１１７號","E_COORD97":171012.73999999999,"N_COORD97":2546942.4199999999,"ADDRESS":"大橋三街１９９巷１１７號","OBJECTID":396902},"geometry":{"x":171012.74000000115,"y":2546942.4199999999}},{"attributes":{"ID":396927,"DIS_CODE":0,"TOWNNAME":"永康區","LI":"五王里","LIN":"37鄰","STREET":"中華路","SECT":" ","MAREA":" ","LANE":"５７８巷","ALLEY":" ","HOUSE_NO":"１５號之９４","E_COORD97":171275.97,"N_COORD97":2545965.79,"ADDRESS":"中華路５７８巷１５號之９４","OBJECTID":396903},"geometry":{"x":171275.96999999974,"y":2545965.7899999991}},{"attributes":{"ID":396928,"DIS_CODE":0,"TOWNNAME":"永康區","LI":"東橋里","LIN":"16鄰","STREET":"東橋一路","SECT":" ","MAREA":" ","LANE":"１８０巷","ALLEY":" ","HOUSE_NO":"１３號","E_COORD97":171525.12,"N_COORD97":2546568.75,"ADDRESS":"東橋一路１８０巷１３號","OBJECTID":396904},"geometry":{"x":171525.12000000197,"y":2546568.7500000037}},{"attributes":{"ID":396929,"DIS_CODE":0,"TOWNNAME":"永康區","LI":"東橋里","LIN":"16鄰","STREET":"東橋一路","SECT":" ","MAREA":" ","LANE":"１８０巷","ALLEY":" ","HOUSE_NO":"１５號","E_COORD97":171529.54999999999,"N_COORD97":2546571.7400000002,"ADDRESS":"東橋一路１８０巷１５號","OBJECTID":396905},"geometry":{"x":171529.54999999981,"y":2546571.7400000002}},{"attributes":{"ID":396930,"DIS_CODE":0,"TOWNNAME":"永康區","LI":"東橋里","LIN":"16鄰","STREET":"東橋一路","SECT":" ","MAREA":" ","LANE":"１８０巷","ALLEY":" ","HOUSE_NO":"１６號","E_COORD97":171524.38,"N_COORD97":2546560.6400000001,"ADDRESS":"東橋一路１８０巷１６號","OBJECTID":396906},"geometry":{"x":171524.37999999989,"y":2546560.6400000025}},{"attributes":{"ID":396931,"DIS_CODE":0,"TOWNNAME":"永康區","LI":"東橋里","LIN":"16鄰","STREET":"東橋一路","SECT":" ","MAREA":" ","LANE":"１８０巷","ALLEY":" ","HOUSE_NO":"１７號","E_COORD97":171533.91,"N_COORD97":2546574.9300000002,"ADDRESS":"東橋一路１８０巷１７號","OBJECTID":396907},"geometry":{"x":171533.91000000108,"y":2546574.9300000016}},{"attributes":{"ID":396932,"DIS_CODE":0,"TOWNNAME":"永康區","LI":"東橋里","LIN":"16鄰","STREET":"東橋一路","SECT":" ","MAREA":" ","LANE":"１８０巷","ALLEY":" ","HOUSE_NO":"１８號","E_COORD97":171528.76000000001,"N_COORD97":2546563.4199999999,"ADDRESS":"東橋一路１８０巷１８號","OBJECTID":396908},"geometry":{"x":171528.76000000164,"y":2546563.4199999999}},{"attributes":{"ID":396933,"DIS_CODE":0,"TOWNNAME":"永康區","LI":"大灣里","LIN":"4鄰","STREET":"大民街","SECT":" ","MAREA":" ","LANE":"１４７巷","ALLEY":" ","HOUSE_NO":"２號","E_COORD97":174898.25,"N_COORD97":2545665.8199999998,"ADDRESS":"大民街１４７巷２號","OBJECTID":396909},"geometry":{"x":174898.25000000093,"y":2545665.8200000003}},{"attributes":{"ID":396934,"DIS_CODE":0,"TOWNNAME":"永康區","LI":"五王里","LIN":"37鄰","STREET":"中華路","SECT":" ","MAREA":" ","LANE":"５７８巷","ALLEY":" ","HOUSE_NO":"１５號之５６","E_COORD97":171276.04999999999,"N_COORD97":2545965.79,"ADDRESS":"中華路５７８巷１５號之５６","OBJECTID":396910},"geometry":{"x":171276.05000000168,"y":2545965.7899999991}},{"attributes":{"ID":396935,"DIS_CODE":0,"TOWNNAME":"永康區","LI":"五王里","LIN":"37鄰","STREET":"中華路","SECT":" ","MAREA":" ","LANE":"５７８巷","ALLEY":" ","HOUSE_NO":"１５號之６５","E_COORD97":171276.10000000001,"N_COORD97":2545965.79,"ADDRESS":"中華路５７８巷１５號之６５","OBJECTID":396911},"geometry":{"x":171276.10000000056,"y":2545965.7899999991}},{"attributes":{"ID":396936,"DIS_CODE":0,"TOWNNAME":"永康區","LI":"東橋里","LIN":"16鄰","STREET":"東橋一路","SECT":" ","MAREA":" ","LANE":"１８０巷","ALLEY":" ","HOUSE_NO":"１９號","E_COORD97":171537.91,"N_COORD97":2546577.0899999999,"ADDRESS":"東橋一路１８０巷１９號","OBJECTID":396912},"geometry":{"x":171537.91000000015,"y":2546577.0900000017}},{"attributes":{"ID":396937,"DIS_CODE":0,"TOWNNAME":"永康區","LI":"東橋里","LIN":"16鄰","STREET":"東橋一路","SECT":" ","MAREA":" ","LANE":"１８０巷","ALLEY":" ","HOUSE_NO":"１號","E_COORD97":171497.76000000001,"N_COORD97":2546551.7000000002,"ADDRESS":"東橋一路１８０巷１號","OBJECTID":396913},"geometry":{"x":171497.75999999978,"y":2546551.7000000011}},{"attributes":{"ID":396938,"DIS_CODE":0,"TOWNNAME":"永康區","LI":"東橋里","LIN":"16鄰","STREET":"東橋一路","SECT":" ","MAREA":" ","LANE":"１８０巷","ALLEY":" ","HOUSE_NO":"２０號","E_COORD97":171532.92999999999,"N_COORD97":2546566.1899999999,"ADDRESS":"東橋一路１８０巷２０號","OBJECTID":396914},"geometry":{"x":171532.93000000063,"y":2546566.1900000013}},{"attributes":{"ID":396939,"DIS_CODE":0,"TOWNNAME":"永康區","LI":"東橋里","LIN":"16鄰","STREET":"東橋一路","SECT":" ","MAREA":" ","LANE":"１８０巷","ALLEY":" ","HOUSE_NO":"２１號","E_COORD97":171542.48999999999,"N_COORD97":2546580.1899999999,"ADDRESS":"東橋一路１８０巷２１號","OBJECTID":396915},"geometry":{"x":171542.49000000022,"y":2546580.1900000013}},{"attributes":{"ID":396940,"DIS_CODE":0,"TOWNNAME":"永康區","LI":"東橋里","LIN":"16鄰","STREET":"東橋一路","SECT":" ","MAREA":" ","LANE":"１８０巷","ALLEY":" ","HOUSE_NO":"２２號","E_COORD97":171537.39999999999,"N_COORD97":2546569.1800000002,"ADDRESS":"東橋一路１８０巷２２號","OBJECTID":396916},"geometry":{"x":171537.4000000013,"y":2546569.1800000016}},{"attributes":{"ID":396941,"DIS_CODE":0,"TOWNNAME":"永康區","LI":"東橋里","LIN":"16鄰","STREET":"東橋一路","SECT":" ","MAREA":" ","LANE":"１８０巷","ALLEY":" ","HOUSE_NO":"２３號","E_COORD97":171546.70000000001,"N_COORD97":2546583,"ADDRESS":"東橋一路１８０巷２３號","OBJECTID":396917},"geometry":{"x":171546.70000000205,"y":2546583}},{"attributes":{"ID":396942,"DIS_CODE":0,"TOWNNAME":"永康區","LI":"東橋里","LIN":"16鄰","STREET":"東橋一路","SECT":" ","MAREA":" ","LANE":"１８０巷","ALLEY":" ","HOUSE_NO":"２５號","E_COORD97":171551.29000000001,"N_COORD97":2546585.8799999999,"ADDRESS":"東橋一路１８０巷２５號","OBJECTID":396918},"geometry":{"x":171551.29000000097,"y":2546585.879999999}},{"attributes":{"ID":396943,"DIS_CODE":0,"TOWNNAME":"永康區","LI":"東橋里","LIN":"16鄰","STREET":"東橋一路","SECT":" ","MAREA":" ","LANE":"１８０巷","ALLEY":" ","HOUSE_NO":"２６號","E_COORD97":171541.67000000001,"N_COORD97":2546571.8999999999,"ADDRESS":"東橋一路１８０巷２６號","OBJECTID":396919},"geometry":{"x":171541.67000000086,"y":2546571.9000000022}},{"attributes":{"ID":396944,"DIS_CODE":0,"TOWNNAME":"永康區","LI":"東橋里","LIN":"16鄰","STREET":"東橋一路","SECT":" ","MAREA":" ","LANE":"１８０巷","ALLEY":" ","HOUSE_NO":"２７號","E_COORD97":171555.5,"N_COORD97":2546589.0600000001,"ADDRESS":"東橋一路１８０巷２７號","OBJECTID":396920},"geometry":{"x":171555.5,"y":2546589.0600000024}},{"attributes":{"ID":396945,"DIS_CODE":0,"TOWNNAME":"永康區","LI":"東橋里","LIN":"16鄰","STREET":"東橋一路","SECT":" ","MAREA":" ","LANE":"１８０巷","ALLEY":" ","HOUSE_NO":"２８號","E_COORD97":171545.79000000001,"N_COORD97":2546574.79,"ADDRESS":"東橋一路１８０巷２８號","OBJECTID":396921},"geometry":{"x":171545.7900000019,"y":2546574.790000001}},{"attributes":{"ID":396946,"DIS_CODE":0,"TOWNNAME":"北區","LI":"玉皇里","LIN":"11鄰","STREET":"佑民街","SECT":" ","MAREA":" ","LANE":"７８巷","ALLEY":" ","HOUSE_NO":"３號","E_COORD97":168707.91,"N_COORD97":2544469.6499999999,"ADDRESS":"佑民街７８巷３號","OBJECTID":396922},"geometry":{"x":168707.91000000108,"y":2544469.6500000004}},{"attributes":{"ID":396947,"DIS_CODE":0,"TOWNNAME":"永康區","LI":"東橋里","LIN":"16鄰","STREET":"東橋一路","SECT":" ","MAREA":" ","LANE":"１８０巷","ALLEY":" ","HOUSE_NO":"２９號","E_COORD97":171559.60999999999,"N_COORD97":2546591.4500000002,"ADDRESS":"東橋一路１８０巷２９號","OBJECTID":396923},"geometry":{"x":171559.61000000127,"y":2546591.4500000011}},{"attributes":{"ID":396948,"DIS_CODE":0,"TOWNNAME":"永康區","LI":"東橋里","LIN":"16鄰","STREET":"東橋一路","SECT":" ","MAREA":" ","LANE":"１８０巷","ALLEY":" ","HOUSE_NO":"２號","E_COORD97":171501.42000000001,"N_COORD97":2546546.5600000001,"ADDRESS":"東橋一路１８０巷２號","OBJECTID":396924},"geometry":{"x":171501.42000000086,"y":2546546.5600000005}},{"attributes":{"ID":396949,"DIS_CODE":0,"TOWNNAME":"永康區","LI":"大灣里","LIN":"4鄰","STREET":"大民街","SECT":" ","MAREA":" ","LANE":"１４７巷","ALLEY":" ","HOUSE_NO":"３號","E_COORD97":174887.60000000001,"N_COORD97":2545654.3399999999,"ADDRESS":"大民街１４７巷３號","OBJECTID":396925},"geometry":{"x":174887.59999999963,"y":2545654.3399999999}},{"attributes":{"ID":396950,"DIS_CODE":0,"TOWNNAME":"永康區","LI":"中興里","LIN":"2鄰","STREET":"忠孝路","SECT":" ","MAREA":" ","LANE":"２３９巷","ALLEY":" ","HOUSE_NO":"１５號","E_COORD97":172019.98999999999,"N_COORD97":2545028.8799999999,"ADDRESS":"忠孝路２３９巷１５號","OBJECTID":396926},"geometry":{"x":172019.99000000115,"y":2545028.8800000008}},{"attributes":{"ID":396951,"DIS_CODE":0,"TOWNNAME":"永康區","LI":"中興里","LIN":"18鄰","STREET":"中華路","SECT":" ","MAREA":" ","LANE":"２８６巷","ALLEY":" ","HOUSE_NO":"３３號","E_COORD97":171654.70999999999,"N_COORD97":2545321.2400000002,"ADDRESS":"中華路２８６巷３３號","OBJECTID":396927},"geometry":{"x":171654.71000000183,"y":2545321.2400000039}},{"attributes":{"ID":396952,"DIS_CODE":0,"TOWNNAME":"永康區","LI":"五王里","LIN":"34鄰","STREET":"五福街","SECT":" ","MAREA":" ","LANE":"３３巷","ALLEY":" ","HOUSE_NO":"２號","E_COORD97":171324.26000000001,"N_COORD97":2545915,"ADDRESS":"五福街３３巷２號","OBJECTID":396928},"geometry":{"x":171324.26000000071,"y":2545915}},{"attributes":{"ID":396953,"DIS_CODE":0,"TOWNNAME":"永康區","LI":"大橋里","LIN":"15鄰","STREET":"大橋一街","SECT":" ","MAREA":" ","LANE":"７３巷","ALLEY":" ","HOUSE_NO":"２４號","E_COORD97":170895.54999999999,"N_COORD97":2546486.9900000002,"ADDRESS":"大橋一街７３巷２４號","OBJECTID":396929},"geometry":{"x":170895.54999999981,"y":2546486.9900000021}},{"attributes":{"ID":396954,"DIS_CODE":0,"TOWNNAME":"永康區","LI":"中興里","LIN":"1鄰","STREET":"忠孝路","SECT":" ","MAREA":" ","LANE":"２１７巷","ALLEY":" ","HOUSE_NO":"５號","E_COORD97":172043.10000000001,"N_COORD97":2544984.25,"ADDRESS":"忠孝路２１７巷５號","OBJECTID":396930},"geometry":{"x":172043.09999999963,"y":2544984.25}},{"attributes":{"ID":396955,"DIS_CODE":0,"TOWNNAME":"永康區","LI":"大灣里","LIN":"30鄰","STREET":"民族路","SECT":" ","MAREA":" ","LANE":"９６巷","ALLEY":" ","HOUSE_NO":"３號","E_COORD97":175356.07999999999,"N_COORD97":2544839.5299999998,"ADDRESS":"民族路９６巷３號","OBJECTID":396931},"geometry":{"x":175356.08000000007,"y":2544839.5299999993}},{"attributes":{"ID":396956,"DIS_CODE":0,"TOWNNAME":"永康區","LI":"五王里","LIN":"37鄰","STREET":"中華路","SECT":" ","MAREA":" ","LANE":"５７８巷","ALLEY":" ","HOUSE_NO":"１５號之９６","E_COORD97":171276.04999999999,"N_COORD97":2545965.79,"ADDRESS":"中華路５７８巷１５號之９６","OBJECTID":396932},"geometry":{"x":171276.05000000168,"y":2545965.7899999991}},{"attributes":{"ID":396957,"DIS_CODE":0,"TOWNNAME":"永康區","LI":"五王里","LIN":"37鄰","STREET":"中華路","SECT":" ","MAREA":" ","LANE":"５７８巷","ALLEY":" ","HOUSE_NO":"１５號之４０","E_COORD97":171276,"N_COORD97":2545965.79,"ADDRESS":"中華路５７８巷１５號之４０","OBJECTID":396933},"geometry":{"x":171276,"y":2545965.7899999991}},{"attributes":{"ID":396958,"DIS_CODE":0,"TOWNNAME":"永康區","LI":"五王里","LIN":"37鄰","STREET":"中華路","SECT":" ","MAREA":" ","LANE":"５７８巷","ALLEY":" ","HOUSE_NO":"１５號之４１","E_COORD97":171275.95000000001,"N_COORD97":2545965.79,"ADDRESS":"中華路５７８巷１５號之４１","OBJECTID":396934},"geometry":{"x":171275.95000000112,"y":2545965.7899999991}},{"attributes":{"ID":396959,"DIS_CODE":0,"TOWNNAME":"永康區","LI":"東橋里","LIN":"16鄰","STREET":"東橋一路","SECT":" ","MAREA":" ","LANE":"１８０巷","ALLEY":" ","HOUSE_NO":"３２號","E_COORD97":171554.42999999999,"N_COORD97":2546580.0899999999,"ADDRESS":"東橋一路１８０巷３２號","OBJECTID":396935},"geometry":{"x":171554.4299999997,"y":2546580.0900000036}},{"attributes":{"ID":396960,"DIS_CODE":0,"TOWNNAME":"永康區","LI":"東橋里","LIN":"16鄰","STREET":"東橋一路","SECT":" ","MAREA":" ","LANE":"１８０巷","ALLEY":" ","HOUSE_NO":"３３號","E_COORD97":171568.28,"N_COORD97":2546597.1000000001,"ADDRESS":"東橋一路１８０巷３３號","OBJECTID":396936},"geometry":{"x":171568.28000000212,"y":2546597.1000000015}},{"attributes":{"ID":396961,"DIS_CODE":0,"TOWNNAME":"永康區","LI":"東橋里","LIN":"16鄰","STREET":"東橋一路","SECT":" ","MAREA":" ","LANE":"１８０巷","ALLEY":" ","HOUSE_NO":"３５號","E_COORD97":171572.48999999999,"N_COORD97":2546600.1800000002,"ADDRESS":"東橋一路１８０巷３５號","OBJECTID":396937},"geometry":{"x":171572.49000000115,"y":2546600.1800000016}},{"attributes":{"ID":396962,"DIS_CODE":0,"TOWNNAME":"永康區","LI":"中興里","LIN":"2鄰","STREET":"忠孝路","SECT":" ","MAREA":" ","LANE":"２３９巷","ALLEY":" ","HOUSE_NO":"１３號","E_COORD97":172023.85000000001,"N_COORD97":2545029.8799999999,"ADDRESS":"忠孝路２３９巷１３號","OBJECTID":396938},"geometry":{"x":172023.85000000056,"y":2545029.879999999}},{"attributes":{"ID":396963,"DIS_CODE":0,"TOWNNAME":"永康區","LI":"東橋里","LIN":"16鄰","STREET":"東橋一路","SECT":" ","MAREA":" ","LANE":"１８０巷","ALLEY":" ","HOUSE_NO":"３６號","E_COORD97":171558.69,"N_COORD97":2546583.1699999999,"ADDRESS":"東橋一路１８０巷３６號","OBJECTID":396939},"geometry":{"x":171558.69000000227,"y":2546583.1700000018}},{"attributes":{"ID":396964,"DIS_CODE":0,"TOWNNAME":"永康區","LI":"中興里","LIN":"18鄰","STREET":"中華路","SECT":" ","MAREA":" ","LANE":"２８６巷","ALLEY":" ","HOUSE_NO":"６３號","E_COORD97":171690.17999999999,"N_COORD97":2545354.9900000002,"ADDRESS":"中華路２８６巷６３號","OBJECTID":396940},"geometry":{"x":171690.17999999877,"y":2545354.9900000021}},{"attributes":{"ID":396965,"DIS_CODE":0,"TOWNNAME":"永康區","LI":"大橋里","LIN":"4鄰","STREET":"大橋一街","SECT":" ","MAREA":" ","LANE":"２４７巷","ALLEY":" ","HOUSE_NO":"１６７號","E_COORD97":171014.22,"N_COORD97":2547037.4700000002,"ADDRESS":"大橋一街２４７巷１６７號","OBJECTID":396941},"geometry":{"x":171014.22000000067,"y":2547037.4700000025}},{"attributes":{"ID":396966,"DIS_CODE":0,"TOWNNAME":"永康區","LI":"東橋里","LIN":"16鄰","STREET":"東橋一路","SECT":" ","MAREA":" ","LANE":"１８０巷","ALLEY":" ","HOUSE_NO":"３８號","E_COORD97":171562.92999999999,"N_COORD97":2546586.02,"ADDRESS":"東橋一路１８０巷３８號","OBJECTID":396942},"geometry":{"x":171562.9299999997,"y":2546586.0199999996}},{"attributes":{"ID":396967,"DIS_CODE":0,"TOWNNAME":"永康區","LI":"東橋里","LIN":"16鄰","STREET":"東橋一路","SECT":" ","MAREA":" ","LANE":"１８０巷","ALLEY":" ","HOUSE_NO":"３號","E_COORD97":171502.39999999999,"N_COORD97":2546554.5899999999,"ADDRESS":"東橋一路１８０巷３號","OBJECTID":396943},"geometry":{"x":171502.40000000037,"y":2546554.5899999999}},{"attributes":{"ID":396968,"DIS_CODE":0,"TOWNNAME":"永康區","LI":"東橋里","LIN":"16鄰","STREET":"東橋一路","SECT":" ","MAREA":" ","LANE":"１８０巷","ALLEY":" ","HOUSE_NO":"４０號","E_COORD97":171567.38,"N_COORD97":2546588.8799999999,"ADDRESS":"東橋一路１８０巷４０號","OBJECTID":396944},"geometry":{"x":171567.38000000082,"y":2546588.879999999}},{"attributes":{"ID":396969,"DIS_CODE":0,"TOWNNAME":"永康區","LI":"東橋里","LIN":"16鄰","STREET":"東橋一路","SECT":" ","MAREA":" ","LANE":"１８０巷","ALLEY":" ","HOUSE_NO":"４２號","E_COORD97":171571.73000000001,"N_COORD97":2546591.7999999998,"ADDRESS":"東橋一路１８０巷４２號","OBJECTID":396945},"geometry":{"x":171571.73000000045,"y":2546591.8000000007}},{"attributes":{"ID":396970,"DIS_CODE":0,"TOWNNAME":"永康區","LI":"東橋里","LIN":"16鄰","STREET":"東橋一路","SECT":" ","MAREA":" ","LANE":"１８０巷","ALLEY":" ","HOUSE_NO":"４６號","E_COORD97":171575.85000000001,"N_COORD97":2546594.6699999999,"ADDRESS":"東橋一路１８０巷４６號","OBJECTID":396946},"geometry":{"x":171575.85000000056,"y":2546594.6699999999}},{"attributes":{"ID":396971,"DIS_CODE":0,"TOWNNAME":"南區","LI":"新興里","LIN":"16鄰","STREET":"三官路","SECT":" ","MAREA":" ","LANE":"７巷","ALLEY":" ","HOUSE_NO":"２６號","E_COORD97":167389.87,"N_COORD97":2542340.6899999999,"ADDRESS":"三官路７巷２６號","OBJECTID":396947},"geometry":{"x":167389.87000000011,"y":2542340.6900000032}},{"attributes":{"ID":396972,"DIS_CODE":0,"TOWNNAME":"永康區","LI":"東橋里","LIN":"16鄰","STREET":"東橋一路","SECT":" ","MAREA":" ","LANE":"１８０巷","ALLEY":" ","HOUSE_NO":"４８號","E_COORD97":171580.10000000001,"N_COORD97":2546597.2999999998,"ADDRESS":"東橋一路１８０巷４８號","OBJECTID":396948},"geometry":{"x":171580.09999999963,"y":2546597.3000000026}},{"attributes":{"ID":396973,"DIS_CODE":0,"TOWNNAME":"永康區","LI":"東橋里","LIN":"16鄰","STREET":"東橋一路","SECT":" ","MAREA":" ","LANE":"１８０巷","ALLEY":" ","HOUSE_NO":"５號","E_COORD97":171506.39999999999,"N_COORD97":2546557.6899999999,"ADDRESS":"東橋一路１８０巷５號","OBJECTID":396949},"geometry":{"x":171506.40000000224,"y":2546557.6899999995}},{"attributes":{"ID":396974,"DIS_CODE":0,"TOWNNAME":"永康區","LI":"東橋里","LIN":"16鄰","STREET":"東橋一路","SECT":" ","MAREA":" ","LANE":"１８０巷","ALLEY":" ","HOUSE_NO":"６號","E_COORD97":171505.85000000001,"N_COORD97":2546549.6099999999,"ADDRESS":"東橋一路１８０巷６號","OBJECTID":396950},"geometry":{"x":171505.8499999987,"y":2546549.6100000013}},{"attributes":{"ID":396975,"DIS_CODE":0,"TOWNNAME":"永康區","LI":"東橋里","LIN":"16鄰","STREET":"東橋一路","SECT":" ","MAREA":" ","LANE":"１８０巷","ALLEY":" ","HOUSE_NO":"７號","E_COORD97":171510.91,"N_COORD97":2546560,"ADDRESS":"東橋一路１８０巷７號","OBJECTID":396951},"geometry":{"x":171510.91000000015,"y":2546559.9999999981}},{"attributes":{"ID":396976,"DIS_CODE":0,"TOWNNAME":"永康區","LI":"東橋里","LIN":"16鄰","STREET":"東橋一路","SECT":" ","MAREA":" ","LANE":"１８０巷","ALLEY":" ","HOUSE_NO":"８號","E_COORD97":171510.48999999999,"N_COORD97":2546552.6400000001,"ADDRESS":"東橋一路１８０巷８號","OBJECTID":396952},"geometry":{"x":171510.49000000022,"y":2546552.6400000006}},{"attributes":{"ID":396977,"DIS_CODE":0,"TOWNNAME":"永康區","LI":"東橋里","LIN":"16鄰","STREET":"東橋一路","SECT":" ","MAREA":" ","LANE":"１８０巷","ALLEY":" ","HOUSE_NO":"９號","E_COORD97":171515.16,"N_COORD97":2546563.1600000001,"ADDRESS":"東橋一路１８０巷９號","OBJECTID":396953},"geometry":{"x":171515.16000000108,"y":2546563.160000002}},{"attributes":{"ID":396978,"DIS_CODE":0,"TOWNNAME":"東區","LI":"崇成里","LIN":"13鄰","STREET":"崇明十五街","SECT":" ","MAREA":" ","LANE":" ","ALLEY":" ","HOUSE_NO":"５３號","E_COORD97":170716.88,"N_COORD97":2541366.1299999999,"ADDRESS":"崇明十五街５３號","OBJECTID":396954},"geometry":{"x":170716.88000000082,"y":2541366.129999999}},{"attributes":{"ID":396979,"DIS_CODE":0,"TOWNNAME":"中西區","LI":"西賢里","LIN":"16鄰","STREET":"西賢一街","SECT":" ","MAREA":" ","LANE":"５１巷","ALLEY":" ","HOUSE_NO":"１１號","E_COORD97":165633.38,"N_COORD97":2544541.8999999999,"ADDRESS":"西賢一街５１巷１１號","OBJECTID":396955},"geometry":{"x":165633.37999999989,"y":2544541.9000000022}},{"attributes":{"ID":396980,"DIS_CODE":0,"TOWNNAME":"中西區","LI":"西賢里","LIN":"16鄰","STREET":"西賢一街","SECT":" ","MAREA":" ","LANE":"５１巷","ALLEY":" ","HOUSE_NO":"１２號","E_COORD97":165631.29999999999,"N_COORD97":2544563.75,"ADDRESS":"西賢一街５１巷１２號","OBJECTID":396956},"geometry":{"x":165631.30000000075,"y":2544563.75}},{"attributes":{"ID":396981,"DIS_CODE":0,"TOWNNAME":"中西區","LI":"西賢里","LIN":"16鄰","STREET":"西賢一街","SECT":" ","MAREA":" ","LANE":"５１巷","ALLEY":" ","HOUSE_NO":"１３號","E_COORD97":165621.42999999999,"N_COORD97":2544540.98,"ADDRESS":"西賢一街５１巷１３號","OBJECTID":396957},"geometry":{"x":165621.42999999877,"y":2544540.9800000023}},{"attributes":{"ID":396982,"DIS_CODE":0,"TOWNNAME":"中西區","LI":"西賢里","LIN":"16鄰","STREET":"西賢一街","SECT":" ","MAREA":" ","LANE":"５１巷","ALLEY":" ","HOUSE_NO":"１５號","E_COORD97":165609.17999999999,"N_COORD97":2544540.4500000002,"ADDRESS":"西賢一街５１巷１５號","OBJECTID":396958},"geometry":{"x":165609.1799999997,"y":2544540.4500000011}},{"attributes":{"ID":396983,"DIS_CODE":0,"TOWNNAME":"中西區","LI":"西賢里","LIN":"16鄰","STREET":"西賢一街","SECT":" ","MAREA":" ","LANE":"５１巷","ALLEY":" ","HOUSE_NO":"１６號","E_COORD97":165619.45999999999,"N_COORD97":2544562.8900000001,"ADDRESS":"西賢一街５１巷１６號","OBJECTID":396959},"geometry":{"x":165619.45999999996,"y":2544562.8900000025}},{"attributes":{"ID":396984,"DIS_CODE":0,"TOWNNAME":"中西區","LI":"西賢里","LIN":"16鄰","STREET":"西賢一街","SECT":" ","MAREA":" ","LANE":"５１巷","ALLEY":" ","HOUSE_NO":"１８號","E_COORD97":165607.85000000001,"N_COORD97":2544563.2799999998,"ADDRESS":"西賢一街５１巷１８號","OBJECTID":396960},"geometry":{"x":165607.84999999963,"y":2544563.2799999993}},{"attributes":{"ID":396985,"DIS_CODE":0,"TOWNNAME":"中西區","LI":"西賢里","LIN":"16鄰","STREET":"西賢一街","SECT":" ","MAREA":" ","LANE":"５１巷","ALLEY":" ","HOUSE_NO":"２０號","E_COORD97":165596.38,"N_COORD97":2544562.6400000001,"ADDRESS":"西賢一街５１巷２０號","OBJECTID":396961},"geometry":{"x":165596.37999999989,"y":2544562.6400000006}},{"attributes":{"ID":396986,"DIS_CODE":0,"TOWNNAME":"中西區","LI":"西賢里","LIN":"16鄰","STREET":"西賢一街","SECT":" ","MAREA":" ","LANE":"５１巷","ALLEY":" ","HOUSE_NO":"２號","E_COORD97":165673.47,"N_COORD97":2544564.6600000001,"ADDRESS":"西賢一街５１巷２號","OBJECTID":396962},"geometry":{"x":165673.46999999974,"y":2544564.6600000001}},{"attributes":{"ID":396987,"DIS_CODE":0,"TOWNNAME":"中西區","LI":"西賢里","LIN":"16鄰","STREET":"西賢一街","SECT":" ","MAREA":" ","LANE":"５１巷","ALLEY":" ","HOUSE_NO":"３號","E_COORD97":165668.79999999999,"N_COORD97":2544546.1699999999,"ADDRESS":"西賢一街５１巷３號","OBJECTID":396963},"geometry":{"x":165668.80000000075,"y":2544546.1700000018}},{"attributes":{"ID":396988,"DIS_CODE":0,"TOWNNAME":"中西區","LI":"西賢里","LIN":"16鄰","STREET":"西賢一街","SECT":" ","MAREA":" ","LANE":"５１巷","ALLEY":" ","HOUSE_NO":"５號","E_COORD97":165669.97,"N_COORD97":2544540.3399999999,"ADDRESS":"西賢一街５１巷５號","OBJECTID":396964},"geometry":{"x":165669.96999999974,"y":2544540.339999998}},{"attributes":{"ID":396989,"DIS_CODE":0,"TOWNNAME":"中西區","LI":"西賢里","LIN":"16鄰","STREET":"西賢一街","SECT":" ","MAREA":" ","LANE":"５１巷","ALLEY":" ","HOUSE_NO":"６號","E_COORD97":165662.95999999999,"N_COORD97":2544564.79,"ADDRESS":"西賢一街５１巷６號","OBJECTID":396965},"geometry":{"x":165662.96000000089,"y":2544564.790000001}},{"attributes":{"ID":396990,"DIS_CODE":0,"TOWNNAME":"中西區","LI":"西賢里","LIN":"16鄰","STREET":"西賢一街","SECT":" ","MAREA":" ","LANE":"５１巷","ALLEY":" ","HOUSE_NO":"７號","E_COORD97":165645.06,"N_COORD97":2544539.1800000002,"ADDRESS":"西賢一街５１巷７號","OBJECTID":396966},"geometry":{"x":165645.06000000052,"y":2544539.1800000016}},{"attributes":{"ID":396991,"DIS_CODE":0,"TOWNNAME":"中西區","LI":"西賢里","LIN":"16鄰","STREET":"西賢一街","SECT":" ","MAREA":" ","LANE":"５１巷","ALLEY":" ","HOUSE_NO":"８號","E_COORD97":165651.79999999999,"N_COORD97":2544564.27,"ADDRESS":"西賢一街５１巷８號","OBJECTID":396967},"geometry":{"x":165651.80000000075,"y":2544564.2700000033}},{"attributes":{"ID":396992,"DIS_CODE":0,"TOWNNAME":"中西區","LI":"西賢里","LIN":"16鄰","STREET":"西賢一街","SECT":" ","MAREA":" ","LANE":"５１巷","ALLEY":" ","HOUSE_NO":"９號","E_COORD97":165647.39000000001,"N_COORD97":2544545.6600000001,"ADDRESS":"西賢一街５１巷９號","OBJECTID":396968},"geometry":{"x":165647.3900000006,"y":2544545.6600000039}},{"attributes":{"ID":396993,"DIS_CODE":0,"TOWNNAME":"東區","LI":"德高里","LIN":"16鄰","STREET":"城東街","SECT":" ","MAREA":" ","LANE":"１２巷","ALLEY":" ","HOUSE_NO":"２號","E_COORD97":171524.78,"N_COORD97":2540625.77,"ADDRESS":"城東街１２巷２號","OBJECTID":396969},"geometry":{"x":171524.78000000119,"y":2540625.7700000014}},{"attributes":{"ID":396994,"DIS_CODE":0,"TOWNNAME":"東區","LI":"德高里","LIN":"16鄰","STREET":"城東街","SECT":" ","MAREA":" ","LANE":"１２巷","ALLEY":" ","HOUSE_NO":"４號","E_COORD97":171527.79000000001,"N_COORD97":2540623.7599999998,"ADDRESS":"城東街１２巷４號","OBJECTID":396970},"geometry":{"x":171527.79000000097,"y":2540623.7599999998}},{"attributes":{"ID":396995,"DIS_CODE":0,"TOWNNAME":"東區","LI":"德高里","LIN":"16鄰","STREET":"崇善路","SECT":" ","MAREA":" ","LANE":"１０７３巷","ALLEY":" ","HOUSE_NO":"１０號","E_COORD97":171541.09,"N_COORD97":2540571.71,"ADDRESS":"崇善路１０７３巷１０號","OBJECTID":396971},"geometry":{"x":171541.08999999985,"y":2540571.7100000009}},{"attributes":{"ID":396996,"DIS_CODE":0,"TOWNNAME":"東區","LI":"中西里","LIN":"29鄰","STREET":"東寧路","SECT":" ","MAREA":" ","LANE":"１３４巷","ALLEY":" ","HOUSE_NO":"４號之１","E_COORD97":170312.45000000001,"N_COORD97":2543490.3399999999,"ADDRESS":"東寧路１３４巷４號之１","OBJECTID":396972},"geometry":{"x":170312.45000000205,"y":2543490.3400000017}},{"attributes":{"ID":396997,"DIS_CODE":0,"TOWNNAME":"東區","LI":"中西里","LIN":"29鄰","STREET":"東寧路","SECT":" ","MAREA":" ","LANE":"１３４巷","ALLEY":" ","HOUSE_NO":"４號之２","E_COORD97":170312.06,"N_COORD97":2543482.1899999999,"ADDRESS":"東寧路１３４巷４號之２","OBJECTID":396973},"geometry":{"x":170312.05999999959,"y":2543482.1899999995}},{"attributes":{"ID":396998,"DIS_CODE":0,"TOWNNAME":"東區","LI":"中西里","LIN":"29鄰","STREET":"東寧路","SECT":" ","MAREA":" ","LANE":"１３４巷","ALLEY":" ","HOUSE_NO":"４號之３","E_COORD97":170313.73000000001,"N_COORD97":2543478.0600000001,"ADDRESS":"東寧路１３４巷４號之３","OBJECTID":396974},"geometry":{"x":170313.73000000045,"y":2543478.0600000005}},{"attributes":{"ID":396999,"DIS_CODE":0,"TOWNNAME":"東區","LI":"中西里","LIN":"29鄰","STREET":"東寧路","SECT":" ","MAREA":" ","LANE":"１３４巷","ALLEY":" ","HOUSE_NO":"４號之４","E_COORD97":170315.70000000001,"N_COORD97":2543473.8399999999,"ADDRESS":"東寧路１３４巷４號之４","OBJECTID":396975},"geometry":{"x":170315.70000000019,"y":2543473.8400000017}},{"attributes":{"ID":397000,"DIS_CODE":0,"TOWNNAME":"東區","LI":"中西里","LIN":"29鄰","STREET":"東寧路","SECT":" ","MAREA":" ","LANE":"１３４巷","ALLEY":" ","HOUSE_NO":"４號","E_COORD97":170310.29000000001,"N_COORD97":2543495.1499999999,"ADDRESS":"東寧路１３４巷４號","OBJECTID":396976},"geometry":{"x":170310.29000000097,"y":2543495.1500000022}},{"attributes":{"ID":397001,"DIS_CODE":0,"TOWNNAME":"東區","LI":"德高里","LIN":"16鄰","STREET":"崇善路","SECT":" ","MAREA":" ","LANE":"１０７３巷","ALLEY":" ","HOUSE_NO":"１２號","E_COORD97":171539.79999999999,"N_COORD97":2540576.1400000001,"ADDRESS":"崇善路１０７３巷１２號","OBJECTID":396977},"geometry":{"x":171539.79999999981,"y":2540576.1400000043}},{"attributes":{"ID":397002,"DIS_CODE":0,"TOWNNAME":"東區","LI":"德高里","LIN":"16鄰","STREET":"崇善路","SECT":" ","MAREA":" ","LANE":"１０７３巷","ALLEY":" ","HOUSE_NO":"１４號","E_COORD97":171539.66,"N_COORD97":2540580.5699999998,"ADDRESS":"崇善路１０７３巷１４號","OBJECTID":396978},"geometry":{"x":171539.66000000015,"y":2540580.5700000022}},{"attributes":{"ID":397003,"DIS_CODE":0,"TOWNNAME":"東區","LI":"德高里","LIN":"16鄰","STREET":"崇善路","SECT":" ","MAREA":" ","LANE":"１０７３巷","ALLEY":" ","HOUSE_NO":"１５號","E_COORD97":171513.06,"N_COORD97":2540588.98,"ADDRESS":"崇善路１０７３巷１５號","OBJECTID":396979},"geometry":{"x":171513.06000000145,"y":2540588.9800000004}},{"attributes":{"ID":397004,"DIS_CODE":0,"TOWNNAME":"東區","LI":"德高里","LIN":"16鄰","STREET":"崇善路","SECT":" ","MAREA":" ","LANE":"１０７３巷","ALLEY":" ","HOUSE_NO":"１６號","E_COORD97":171538.37,"N_COORD97":2540585,"ADDRESS":"崇善路１０７３巷１６號","OBJECTID":396980},"geometry":{"x":171538.37000000011,"y":2540585}},{"attributes":{"ID":397005,"DIS_CODE":0,"TOWNNAME":"東區","LI":"德高里","LIN":"16鄰","STREET":"崇善路","SECT":" ","MAREA":" ","LANE":"１０７３巷","ALLEY":" ","HOUSE_NO":"１７號","E_COORD97":171511.76000000001,"N_COORD97":2540593.1400000001,"ADDRESS":"崇善路１０７３巷１７號","OBJECTID":396981},"geometry":{"x":171511.75999999885,"y":2540593.1400000025}},{"attributes":{"ID":397006,"DIS_CODE":0,"TOWNNAME":"南區","LI":"新興里","LIN":"16鄰","STREET":"三官路","SECT":" ","MAREA":" ","LANE":"７巷","ALLEY":" ","HOUSE_NO":"２７號","E_COORD97":167415.45999999999,"N_COORD97":2542393.3700000001,"ADDRESS":"三官路７巷２７號","OBJECTID":396982},"geometry":{"x":167415.46000000089,"y":2542393.3700000029}},{"attributes":{"ID":397007,"DIS_CODE":0,"TOWNNAME":"東區","LI":"德高里","LIN":"16鄰","STREET":"崇善路","SECT":" ","MAREA":" ","LANE":"１０７３巷","ALLEY":" ","HOUSE_NO":"１８號","E_COORD97":171538.09,"N_COORD97":2540588.29,"ADDRESS":"崇善路１０７３巷１８號","OBJECTID":396983},"geometry":{"x":171538.08999999985,"y":2540588.290000001}},{"attributes":{"ID":397008,"DIS_CODE":0,"TOWNNAME":"東區","LI":"德高里","LIN":"16鄰","STREET":"崇善路","SECT":" ","MAREA":" ","LANE":"１０７３巷","ALLEY":" ","HOUSE_NO":"１９號","E_COORD97":171510.57999999999,"N_COORD97":2540597.29,"ADDRESS":"崇善路１０７３巷１９號","OBJECTID":396984},"geometry":{"x":171510.58000000101,"y":2540597.2900000028}},{"attributes":{"ID":397009,"DIS_CODE":0,"TOWNNAME":"東區","LI":"德高里","LIN":"16鄰","STREET":"崇善路","SECT":" ","MAREA":" ","LANE":"１０７３巷","ALLEY":" ","HOUSE_NO":"３１號","E_COORD97":171501.22,"N_COORD97":2540621.3300000001,"ADDRESS":"崇善路１０７３巷３１號","OBJECTID":396985},"geometry":{"x":171501.21999999974,"y":2540621.3299999982}},{"attributes":{"ID":397010,"DIS_CODE":0,"TOWNNAME":"東區","LI":"德高里","LIN":"16鄰","STREET":"崇善路","SECT":" ","MAREA":" ","LANE":"１０７３巷","ALLEY":" ","HOUSE_NO":"３２號","E_COORD97":171544.51999999999,"N_COORD97":2540615.0499999998,"ADDRESS":"崇善路１０７３巷３２號","OBJECTID":396986},"geometry":{"x":171544.52000000048,"y":2540615.0500000026}},{"attributes":{"ID":397011,"DIS_CODE":0,"TOWNNAME":"東區","LI":"德高里","LIN":"16鄰","STREET":"崇善路","SECT":" ","MAREA":" ","LANE":"１０７３巷","ALLEY":" ","HOUSE_NO":"３３號","E_COORD97":171505.38,"N_COORD97":2540630.9500000002,"ADDRESS":"崇善路１０７３巷３３號","OBJECTID":396987},"geometry":{"x":171505.37999999989,"y":2540630.9500000011}},{"attributes":{"ID":397012,"DIS_CODE":0,"TOWNNAME":"東區","LI":"德高里","LIN":"16鄰","STREET":"崇善路","SECT":" ","MAREA":" ","LANE":"１０７３巷","ALLEY":" ","HOUSE_NO":"３４號","E_COORD97":171541.38,"N_COORD97":2540612.3300000001,"ADDRESS":"崇善路１０７３巷３４號","OBJECTID":396988},"geometry":{"x":171541.37999999989,"y":2540612.3300000019}},{"attributes":{"ID":397013,"DIS_CODE":0,"TOWNNAME":"東區","LI":"德高里","LIN":"16鄰","STREET":"崇善路","SECT":" ","MAREA":" ","LANE":"１０７３巷","ALLEY":" ","HOUSE_NO":"３５號","E_COORD97":171503.82000000001,"N_COORD97":2540635.6299999999,"ADDRESS":"崇善路１０７３巷３５號","OBJECTID":396989},"geometry":{"x":171503.82000000123,"y":2540635.6300000008}},{"attributes":{"ID":397014,"DIS_CODE":0,"TOWNNAME":"東區","LI":"德高里","LIN":"16鄰","STREET":"崇善路","SECT":" ","MAREA":" ","LANE":"１０７３巷","ALLEY":" ","HOUSE_NO":"３６號","E_COORD97":171531.92999999999,"N_COORD97":2540605.8999999999,"ADDRESS":"崇善路１０７３巷３６號","OBJECTID":396990},"geometry":{"x":171531.9299999997,"y":2540605.9000000022}},{"attributes":{"ID":397015,"DIS_CODE":0,"TOWNNAME":"東區","LI":"德高里","LIN":"16鄰","STREET":"崇善路","SECT":" ","MAREA":" ","LANE":"１０７３巷","ALLEY":" ","HOUSE_NO":"３８號","E_COORD97":171530.64999999999,"N_COORD97":2540609.8999999999,"ADDRESS":"崇善路１０７３巷３８號","OBJECTID":396991},"geometry":{"x":171530.6500000013,"y":2540609.9000000004}},{"attributes":{"ID":397016,"DIS_CODE":0,"TOWNNAME":"東區","LI":"德高里","LIN":"16鄰","STREET":"崇善路","SECT":" ","MAREA":" ","LANE":"１０７３巷","ALLEY":" ","HOUSE_NO":"４０號","E_COORD97":171529.5,"N_COORD97":2540613.7599999998,"ADDRESS":"崇善路１０７３巷４０號","OBJECTID":396992},"geometry":{"x":171529.50000000093,"y":2540613.7599999998}},{"attributes":{"ID":397017,"DIS_CODE":0,"TOWNNAME":"東區","LI":"德高里","LIN":"16鄰","STREET":"崇善路","SECT":" ","MAREA":" ","LANE":"１０７３巷","ALLEY":" ","HOUSE_NO":"４２號","E_COORD97":171528.22,"N_COORD97":2540617.48,"ADDRESS":"崇善路１０７３巷４２號","OBJECTID":396993},"geometry":{"x":171528.21999999974,"y":2540617.4800000042}},{"attributes":{"ID":397018,"DIS_CODE":0,"TOWNNAME":"東區","LI":"德高里","LIN":"16鄰","STREET":"崇善路","SECT":" ","MAREA":" ","LANE":"１０７３巷","ALLEY":" ","HOUSE_NO":"６號","E_COORD97":171555.25,"N_COORD97":2540579.2799999998,"ADDRESS":"崇善路１０７３巷６號","OBJECTID":396994},"geometry":{"x":171555.25000000093,"y":2540579.2799999993}},{"attributes":{"ID":397019,"DIS_CODE":0,"TOWNNAME":"東區","LI":"德高里","LIN":"16鄰","STREET":"崇善路","SECT":" ","MAREA":" ","LANE":"１０７３巷","ALLEY":" ","HOUSE_NO":"８號","E_COORD97":171551.10000000001,"N_COORD97":2540577.5699999998,"ADDRESS":"崇善路１０７３巷８號","OBJECTID":396995},"geometry":{"x":171551.09999999963,"y":2540577.5700000022}},{"attributes":{"ID":397020,"DIS_CODE":0,"TOWNNAME":"東區","LI":"崇德里","LIN":"20鄰","STREET":"崇明十四街","SECT":" ","MAREA":" ","LANE":"６０巷","ALLEY":" ","HOUSE_NO":"１０號之１","E_COORD97":170660.16,"N_COORD97":2541593.6899999999,"ADDRESS":"崇明十四街６０巷１０號之１","OBJECTID":396996},"geometry":{"x":170660.15999999922,"y":2541593.6899999995}},{"attributes":{"ID":397021,"DIS_CODE":0,"TOWNNAME":"東區","LI":"崇德里","LIN":"20鄰","STREET":"崇明十四街","SECT":" ","MAREA":" ","LANE":"６０巷","ALLEY":" ","HOUSE_NO":"１０號之２","E_COORD97":170663.85999999999,"N_COORD97":2541595.7999999998,"ADDRESS":"崇明十四街６０巷１０號之２","OBJECTID":396997},"geometry":{"x":170663.86000000034,"y":2541595.8000000026}},{"attributes":{"ID":397022,"DIS_CODE":0,"TOWNNAME":"東區","LI":"崇德里","LIN":"20鄰","STREET":"崇明十四街","SECT":" ","MAREA":" ","LANE":"６０巷","ALLEY":" ","HOUSE_NO":"１０號之３","E_COORD97":170669.23999999999,"N_COORD97":2541593.8599999999,"ADDRESS":"崇明十四街６０巷１０號之３","OBJECTID":396998},"geometry":{"x":170669.24000000022,"y":2541593.8600000031}},{"attributes":{"ID":397023,"DIS_CODE":0,"TOWNNAME":"東區","LI":"崇德里","LIN":"20鄰","STREET":"崇明十四街","SECT":" ","MAREA":" ","LANE":"６０巷","ALLEY":" ","HOUSE_NO":"１２號","E_COORD97":170670.23000000001,"N_COORD97":2541602.1800000002,"ADDRESS":"崇明十四街６０巷１２號","OBJECTID":396999},"geometry":{"x":170670.23000000231,"y":2541602.1800000034}},{"attributes":{"ID":397024,"DIS_CODE":0,"TOWNNAME":"東區","LI":"德高里","LIN":"16鄰","STREET":"崇善路","SECT":" ","MAREA":" ","LANE":"１０７３巷","ALLEY":" ","HOUSE_NO":"２號","E_COORD97":171542.09,"N_COORD97":2540564.7000000002,"ADDRESS":"崇善路１０７３巷２號","OBJECTID":397000},"geometry":{"x":171542.09000000078,"y":2540564.7000000011}}]}