{"displayFieldName":"TOWNNAME","fieldAliases":{"ID":"ID","DIS_CODE":"DIS_CODE","TOWNNAME":"TOWNNAME","LI":"LI","LIN":"LIN","STREET":"STREET","SECT":"SECT","MAREA":"MAREA","LANE":"LANE","ALLEY":"ALLEY","HOUSE_NO":"HOUSE_NO","E_COORD97":"E_COORD97","N_COORD97":"N_COORD97","ADDRESS":"ADDRESS","OBJECTID":"OBJECTID"},"geometryType":"esriGeometryPoint","spatialReference":{"wkid":102443,"latestWkid":3826},"fields":[{"name":"ID","type":"esriFieldTypeDouble","alias":"ID"},{"name":"DIS_CODE","type":"esriFieldTypeInteger","alias":"DIS_CODE"},{"name":"TOWNNAME","type":"esriFieldTypeString","alias":"TOWNNAME","length":8},{"name":"LI","type":"esriFieldTypeString","alias":"LI","length":8},{"name":"LIN","type":"esriFieldTypeString","alias":"LIN","length":12},{"name":"STREET","type":"esriFieldTypeString","alias":"STREET","length":20},{"name":"SECT","type":"esriFieldTypeString","alias":"SECT","length":8},{"name":"MAREA","type":"esriFieldTypeString","alias":"MAREA","length":12},{"name":"LANE","type":"esriFieldTypeString","alias":"LANE","length":10},{"name":"ALLEY","type":"esriFieldTypeString","alias":"ALLEY","length":10},{"name":"HOUSE_NO","type":"esriFieldTypeString","alias":"HOUSE_NO","length":20},{"name":"E_COORD97","type":"esriFieldTypeDouble","alias":"E_COORD97"},{"name":"N_COORD97","type":"esriFieldTypeDouble","alias":"N_COORD97"},{"name":"ADDRESS","type":"esriFieldTypeString","alias":"ADDRESS","length":50},{"name":"OBJECTID","type":"esriFieldTypeOID","alias":"OBJECTID"}],"features":[{"attributes":{"ID":476226,"DIS_CODE":0,"TOWNNAME":"西港區","LI":"慶安里","LIN":"18鄰","STREET":"新興街","SECT":" ","MAREA":" ","LANE":" ","ALLEY":" ","HOUSE_NO":"５６號","E_COORD97":168187.32999999999,"N_COORD97":2558011.4500000002,"ADDRESS":"新興街５６號","OBJECTID":476201},"geometry":{"x":168187.32999999914,"y":2558011.4499999993}},{"attributes":{"ID":476227,"DIS_CODE":0,"TOWNNAME":"西港區","LI":"慶安里","LIN":"18鄰","STREET":"新興街","SECT":" ","MAREA":" ","LANE":" ","ALLEY":" ","HOUSE_NO":"６０號","E_COORD97":168186.23999999999,"N_COORD97":2558020.0499999998,"ADDRESS":"新興街６０號","OBJECTID":476202},"geometry":{"x":168186.24000000022,"y":2558020.0500000045}},{"attributes":{"ID":476228,"DIS_CODE":0,"TOWNNAME":"西港區","LI":"慶安里","LIN":"18鄰","STREET":"新興街","SECT":" ","MAREA":" ","LANE":" ","ALLEY":" ","HOUSE_NO":"６４號","E_COORD97":168186.12,"N_COORD97":2558026.04,"ADDRESS":"新興街６４號","OBJECTID":476203},"geometry":{"x":168186.12000000104,"y":2558026.040000001}},{"attributes":{"ID":476229,"DIS_CODE":0,"TOWNNAME":"西港區","LI":"慶安里","LIN":"18鄰","STREET":"新興街","SECT":" ","MAREA":" ","LANE":" ","ALLEY":" ","HOUSE_NO":"６８號","E_COORD97":168184.17999999999,"N_COORD97":2558040.9300000002,"ADDRESS":"新興街６８號","OBJECTID":476204},"geometry":{"x":168184.1799999997,"y":2558040.9300000016}},{"attributes":{"ID":476230,"DIS_CODE":0,"TOWNNAME":"永康區","LI":"東橋里","LIN":"18鄰","STREET":"中山南路","SECT":" ","MAREA":" ","LANE":" ","ALLEY":" ","HOUSE_NO":"３９９號","E_COORD97":172774.75,"N_COORD97":2546813.6400000001,"ADDRESS":"中山南路３９９號","OBJECTID":476205},"geometry":{"x":172774.75,"y":2546813.6400000006}},{"attributes":{"ID":476231,"DIS_CODE":0,"TOWNNAME":"永康區","LI":"東橋里","LIN":"18鄰","STREET":"中山南路","SECT":" ","MAREA":" ","LANE":" ","ALLEY":" ","HOUSE_NO":"３７９號","E_COORD97":172732.39000000001,"N_COORD97":2546797.1400000001,"ADDRESS":"中山南路３７９號","OBJECTID":476206},"geometry":{"x":172732.38999999966,"y":2546797.1400000043}},{"attributes":{"ID":476232,"DIS_CODE":0,"TOWNNAME":"永康區","LI":"東橋里","LIN":"18鄰","STREET":"中山南路","SECT":" ","MAREA":" ","LANE":" ","ALLEY":" ","HOUSE_NO":"３８７號","E_COORD97":172749.48000000001,"N_COORD97":2546803.1400000001,"ADDRESS":"中山南路３８７號","OBJECTID":476207},"geometry":{"x":172749.48000000045,"y":2546803.1400000006}},{"attributes":{"ID":476233,"DIS_CODE":0,"TOWNNAME":"永康區","LI":"東橋里","LIN":"18鄰","STREET":"中山南路","SECT":" ","MAREA":" ","LANE":" ","ALLEY":" ","HOUSE_NO":"３８３號","E_COORD97":172739.88,"N_COORD97":2546800.3900000001,"ADDRESS":"中山南路３８３號","OBJECTID":476208},"geometry":{"x":172739.87999999989,"y":2546800.3900000025}},{"attributes":{"ID":476234,"DIS_CODE":0,"TOWNNAME":"永康區","LI":"南灣里","LIN":"18鄰","STREET":"立興街","SECT":" ","MAREA":" ","LANE":" ","ALLEY":" ","HOUSE_NO":"１６２號","E_COORD97":174351.09,"N_COORD97":2544629.0899999999,"ADDRESS":"立興街１６２號","OBJECTID":476209},"geometry":{"x":174351.09000000078,"y":2544629.0899999999}},{"attributes":{"ID":476235,"DIS_CODE":0,"TOWNNAME":"永康區","LI":"東橋里","LIN":"18鄰","STREET":"中山南路","SECT":" ","MAREA":" ","LANE":" ","ALLEY":" ","HOUSE_NO":"４０１號","E_COORD97":172779.01000000001,"N_COORD97":2546814.8900000001,"ADDRESS":"中山南路４０１號","OBJECTID":476210},"geometry":{"x":172779.00999999978,"y":2546814.8900000006}},{"attributes":{"ID":476236,"DIS_CODE":0,"TOWNNAME":"永康區","LI":"西灣里","LIN":"18鄰","STREET":"大安街","SECT":" ","MAREA":" ","LANE":" ","ALLEY":" ","HOUSE_NO":"２８９號","E_COORD97":174663.92000000001,"N_COORD97":2545559.5600000001,"ADDRESS":"大安街２８９號","OBJECTID":476211},"geometry":{"x":174663.92000000179,"y":2545559.5600000005}},{"attributes":{"ID":476237,"DIS_CODE":0,"TOWNNAME":"永康區","LI":"西灣里","LIN":"18鄰","STREET":"大安街","SECT":" ","MAREA":" ","LANE":" ","ALLEY":" ","HOUSE_NO":"２６３號","E_COORD97":174690.34,"N_COORD97":2545468.4900000002,"ADDRESS":"大安街２６３號","OBJECTID":476212},"geometry":{"x":174690.34000000078,"y":2545468.4900000002}},{"attributes":{"ID":476238,"DIS_CODE":0,"TOWNNAME":"永康區","LI":"西灣里","LIN":"18鄰","STREET":"大安街","SECT":" ","MAREA":" ","LANE":" ","ALLEY":" ","HOUSE_NO":"２８１號","E_COORD97":174664.73999999999,"N_COORD97":2545540.5600000001,"ADDRESS":"大安街２８１號","OBJECTID":476213},"geometry":{"x":174664.74000000022,"y":2545540.5600000024}},{"attributes":{"ID":476239,"DIS_CODE":0,"TOWNNAME":"東區","LI":"裕聖里","LIN":"18鄰","STREET":"裕敬五街","SECT":" ","MAREA":" ","LANE":" ","ALLEY":" ","HOUSE_NO":"１１７號","E_COORD97":172849.67000000001,"N_COORD97":2541956.3900000001,"ADDRESS":"裕敬五街１１７號","OBJECTID":476214},"geometry":{"x":172849.66999999993,"y":2541956.3900000006}},{"attributes":{"ID":476240,"DIS_CODE":0,"TOWNNAME":"東區","LI":"裕聖里","LIN":"18鄰","STREET":"裕敬五街","SECT":" ","MAREA":" ","LANE":" ","ALLEY":" ","HOUSE_NO":"１７號","E_COORD97":172841.81,"N_COORD97":2542184.2999999998,"ADDRESS":"裕敬五街１７號","OBJECTID":476215},"geometry":{"x":172841.80999999959,"y":2542184.3000000007}},{"attributes":{"ID":476241,"DIS_CODE":0,"TOWNNAME":"東區","LI":"裕聖里","LIN":"18鄰","STREET":"裕敬五街","SECT":" ","MAREA":" ","LANE":" ","ALLEY":" ","HOUSE_NO":"１９號","E_COORD97":172847.22,"N_COORD97":2542184.2999999998,"ADDRESS":"裕敬五街１９號","OBJECTID":476216},"geometry":{"x":172847.21999999974,"y":2542184.3000000007}},{"attributes":{"ID":476242,"DIS_CODE":0,"TOWNNAME":"東區","LI":"裕聖里","LIN":"18鄰","STREET":"裕敬五街","SECT":" ","MAREA":" ","LANE":" ","ALLEY":" ","HOUSE_NO":"２３號","E_COORD97":172858.35000000001,"N_COORD97":2542184.1400000001,"ADDRESS":"裕敬五街２３號","OBJECTID":476217},"geometry":{"x":172858.34999999963,"y":2542184.1400000025}},{"attributes":{"ID":476243,"DIS_CODE":0,"TOWNNAME":"東區","LI":"裕聖里","LIN":"18鄰","STREET":"裕敬五街","SECT":" ","MAREA":" ","LANE":" ","ALLEY":" ","HOUSE_NO":"２１號","E_COORD97":172853.44,"N_COORD97":2542184.1400000001,"ADDRESS":"裕敬五街２１號","OBJECTID":476218},"geometry":{"x":172853.44000000041,"y":2542184.1400000025}},{"attributes":{"ID":476244,"DIS_CODE":0,"TOWNNAME":"東區","LI":"裕聖里","LIN":"18鄰","STREET":"裕敬五街","SECT":" ","MAREA":" ","LANE":" ","ALLEY":" ","HOUSE_NO":"２５號","E_COORD97":172844.42999999999,"N_COORD97":2542176.9300000002,"ADDRESS":"裕敬五街２５號","OBJECTID":476219},"geometry":{"x":172844.4299999997,"y":2542176.9300000016}},{"attributes":{"ID":476245,"DIS_CODE":0,"TOWNNAME":"東區","LI":"裕聖里","LIN":"18鄰","STREET":"裕敬五街","SECT":" ","MAREA":" ","LANE":" ","ALLEY":" ","HOUSE_NO":"８１號","E_COORD97":172845.95000000001,"N_COORD97":2542047.4900000002,"ADDRESS":"裕敬五街８１號","OBJECTID":476220},"geometry":{"x":172845.95000000019,"y":2542047.4900000002}},{"attributes":{"ID":476246,"DIS_CODE":0,"TOWNNAME":"東區","LI":"裕聖里","LIN":"18鄰","STREET":"裕敬五街","SECT":" ","MAREA":" ","LANE":" ","ALLEY":" ","HOUSE_NO":"８３號","E_COORD97":172845.66,"N_COORD97":2542043.54,"ADDRESS":"裕敬五街８３號","OBJECTID":476221},"geometry":{"x":172845.66000000108,"y":2542043.540000001}},{"attributes":{"ID":476247,"DIS_CODE":0,"TOWNNAME":"東區","LI":"裕聖里","LIN":"18鄰","STREET":"裕義路","SECT":" ","MAREA":" ","LANE":" ","ALLEY":" ","HOUSE_NO":"６１８號","E_COORD97":172883.59,"N_COORD97":2542096.0600000001,"ADDRESS":"裕義路６１８號","OBJECTID":476222},"geometry":{"x":172883.59000000078,"y":2542096.0600000024}},{"attributes":{"ID":476248,"DIS_CODE":0,"TOWNNAME":"東區","LI":"裕聖里","LIN":"18鄰","STREET":"裕義路","SECT":" ","MAREA":" ","LANE":" ","ALLEY":" ","HOUSE_NO":"５８０號","E_COORD97":172877.72,"N_COORD97":2542202.8300000001,"ADDRESS":"裕義路５８０號","OBJECTID":476223},"geometry":{"x":172877.71999999974,"y":2542202.8300000019}},{"attributes":{"ID":476249,"DIS_CODE":0,"TOWNNAME":"東區","LI":"裕聖里","LIN":"18鄰","STREET":"裕義路","SECT":" ","MAREA":" ","LANE":" ","ALLEY":" ","HOUSE_NO":"５８２號","E_COORD97":172878.03,"N_COORD97":2542194.9500000002,"ADDRESS":"裕義路５８２號","OBJECTID":476224},"geometry":{"x":172878.03000000026,"y":2542194.9499999993}},{"attributes":{"ID":476250,"DIS_CODE":0,"TOWNNAME":"東區","LI":"文聖里","LIN":"18鄰","STREET":"裕興街","SECT":" ","MAREA":" ","LANE":" ","ALLEY":" ","HOUSE_NO":"２５６號","E_COORD97":172518.82999999999,"N_COORD97":2542633.4900000002,"ADDRESS":"裕興街２５６號","OBJECTID":476225},"geometry":{"x":172518.83000000101,"y":2542633.4900000002}},{"attributes":{"ID":476251,"DIS_CODE":0,"TOWNNAME":"東區","LI":"文聖里","LIN":"18鄰","STREET":"裕興街","SECT":" ","MAREA":" ","LANE":" ","ALLEY":" ","HOUSE_NO":"２５８號","E_COORD97":172523.10999999999,"N_COORD97":2542633.3199999998,"ADDRESS":"裕興街２５８號","OBJECTID":476226},"geometry":{"x":172523.11000000034,"y":2542633.3200000022}},{"attributes":{"ID":476252,"DIS_CODE":0,"TOWNNAME":"東區","LI":"文聖里","LIN":"18鄰","STREET":"裕興街","SECT":" ","MAREA":" ","LANE":" ","ALLEY":" ","HOUSE_NO":"２６０號","E_COORD97":172528.28,"N_COORD97":2542633.3199999998,"ADDRESS":"裕興街２６０號","OBJECTID":476227},"geometry":{"x":172528.28000000119,"y":2542633.3200000022}},{"attributes":{"ID":476253,"DIS_CODE":0,"TOWNNAME":"東區","LI":"文聖里","LIN":"18鄰","STREET":"裕興街","SECT":" ","MAREA":" ","LANE":" ","ALLEY":" ","HOUSE_NO":"２６２號","E_COORD97":172533.09,"N_COORD97":2542633.1400000001,"ADDRESS":"裕興街２６２號","OBJECTID":476228},"geometry":{"x":172533.08999999985,"y":2542633.1400000006}},{"attributes":{"ID":476254,"DIS_CODE":0,"TOWNNAME":"東區","LI":"文聖里","LIN":"18鄰","STREET":"裕興街","SECT":" ","MAREA":" ","LANE":" ","ALLEY":" ","HOUSE_NO":"２６６號","E_COORD97":172537.91,"N_COORD97":2542632.96,"ADDRESS":"裕興街２６６號","OBJECTID":476229},"geometry":{"x":172537.91000000015,"y":2542632.9600000028}},{"attributes":{"ID":476255,"DIS_CODE":0,"TOWNNAME":"東區","LI":"文聖里","LIN":"18鄰","STREET":"裕興街","SECT":" ","MAREA":" ","LANE":" ","ALLEY":" ","HOUSE_NO":"２６８號","E_COORD97":172542.89999999999,"N_COORD97":2542632.96,"ADDRESS":"裕興街２６８號","OBJECTID":476230},"geometry":{"x":172542.9000000013,"y":2542632.9600000028}},{"attributes":{"ID":476256,"DIS_CODE":0,"TOWNNAME":"東區","LI":"文聖里","LIN":"18鄰","STREET":"裕興街","SECT":" ","MAREA":" ","LANE":" ","ALLEY":" ","HOUSE_NO":"２７０號","E_COORD97":172547.53,"N_COORD97":2542632.6000000001,"ADDRESS":"裕興街２７０號","OBJECTID":476231},"geometry":{"x":172547.53000000026,"y":2542632.5999999996}},{"attributes":{"ID":476257,"DIS_CODE":0,"TOWNNAME":"東區","LI":"文聖里","LIN":"18鄰","STREET":"裕興街","SECT":" ","MAREA":" ","LANE":" ","ALLEY":" ","HOUSE_NO":"２７２號","E_COORD97":172552.17000000001,"N_COORD97":2542633.1400000001,"ADDRESS":"裕興街２７２號","OBJECTID":476232},"geometry":{"x":172552.17000000086,"y":2542633.1400000006}},{"attributes":{"ID":476258,"DIS_CODE":0,"TOWNNAME":"東區","LI":"文聖里","LIN":"18鄰","STREET":"裕興街","SECT":" ","MAREA":" ","LANE":" ","ALLEY":" ","HOUSE_NO":"２７６號","E_COORD97":172557.34,"N_COORD97":2542633.3199999998,"ADDRESS":"裕興街２７６號","OBJECTID":476233},"geometry":{"x":172557.34000000171,"y":2542633.3200000022}},{"attributes":{"ID":476259,"DIS_CODE":0,"TOWNNAME":"東區","LI":"文聖里","LIN":"18鄰","STREET":"裕興街","SECT":" ","MAREA":" ","LANE":" ","ALLEY":" ","HOUSE_NO":"２７８號","E_COORD97":172561.79999999999,"N_COORD97":2542632.96,"ADDRESS":"裕興街２７８號","OBJECTID":476234},"geometry":{"x":172561.79999999981,"y":2542632.9600000028}},{"attributes":{"ID":476260,"DIS_CODE":0,"TOWNNAME":"東區","LI":"文聖里","LIN":"18鄰","STREET":"裕興街","SECT":" ","MAREA":" ","LANE":" ","ALLEY":" ","HOUSE_NO":"２８０號","E_COORD97":172566.42999999999,"N_COORD97":2542633.1400000001,"ADDRESS":"裕興街２８０號","OBJECTID":476235},"geometry":{"x":172566.4299999997,"y":2542633.1400000006}},{"attributes":{"ID":476261,"DIS_CODE":0,"TOWNNAME":"東區","LI":"文聖里","LIN":"18鄰","STREET":"裕興街","SECT":" ","MAREA":" ","LANE":" ","ALLEY":" ","HOUSE_NO":"２８２號","E_COORD97":172571.42000000001,"N_COORD97":2542633.4900000002,"ADDRESS":"裕興街２８２號","OBJECTID":476236},"geometry":{"x":172571.41999999993,"y":2542633.4900000002}},{"attributes":{"ID":476262,"DIS_CODE":0,"TOWNNAME":"東區","LI":"裕聖里","LIN":"18鄰","STREET":"裕敬路","SECT":" ","MAREA":" ","LANE":" ","ALLEY":" ","HOUSE_NO":"４２０號","E_COORD97":172840.98999999999,"N_COORD97":2542237.8399999999,"ADDRESS":"裕敬路４２０號","OBJECTID":476237},"geometry":{"x":172840.99000000022,"y":2542237.8399999999}},{"attributes":{"ID":476263,"DIS_CODE":0,"TOWNNAME":"東區","LI":"裕聖里","LIN":"18鄰","STREET":"裕敬五街","SECT":" ","MAREA":" ","LANE":" ","ALLEY":" ","HOUSE_NO":"１號","E_COORD97":172841.14999999999,"N_COORD97":2542230.7999999998,"ADDRESS":"裕敬五街１號","OBJECTID":476238},"geometry":{"x":172841.1500000013,"y":2542230.8000000026}},{"attributes":{"ID":476264,"DIS_CODE":0,"TOWNNAME":"東區","LI":"裕聖里","LIN":"18鄰","STREET":"裕敬路","SECT":" ","MAREA":" ","LANE":" ","ALLEY":" ","HOUSE_NO":"４２２號","E_COORD97":172845.73999999999,"N_COORD97":2542237.8399999999,"ADDRESS":"裕敬路４２２號","OBJECTID":476239},"geometry":{"x":172845.74000000022,"y":2542237.8399999999}},{"attributes":{"ID":476265,"DIS_CODE":0,"TOWNNAME":"東區","LI":"裕聖里","LIN":"18鄰","STREET":"裕敬路","SECT":" ","MAREA":" ","LANE":" ","ALLEY":" ","HOUSE_NO":"４２６號","E_COORD97":172850.32000000001,"N_COORD97":2542238,"ADDRESS":"裕敬路４２６號","OBJECTID":476240},"geometry":{"x":172850.32000000123,"y":2542238.0000000019}},{"attributes":{"ID":476266,"DIS_CODE":0,"TOWNNAME":"東區","LI":"裕聖里","LIN":"18鄰","STREET":"裕敬路","SECT":" ","MAREA":" ","LANE":" ","ALLEY":" ","HOUSE_NO":"４２８號","E_COORD97":172856.22,"N_COORD97":2542238,"ADDRESS":"裕敬路４２８號","OBJECTID":476241},"geometry":{"x":172856.21999999881,"y":2542238.0000000019}},{"attributes":{"ID":476267,"DIS_CODE":0,"TOWNNAME":"東區","LI":"裕聖里","LIN":"18鄰","STREET":"裕義路","SECT":" ","MAREA":" ","LANE":" ","ALLEY":" ","HOUSE_NO":"６８６號","E_COORD97":172895.51000000001,"N_COORD97":2541975.0600000001,"ADDRESS":"裕義路６８６號","OBJECTID":476242},"geometry":{"x":172895.51000000071,"y":2541975.0600000005}},{"attributes":{"ID":476268,"DIS_CODE":0,"TOWNNAME":"東區","LI":"裕聖里","LIN":"18鄰","STREET":"裕義路","SECT":" ","MAREA":" ","LANE":" ","ALLEY":" ","HOUSE_NO":"６８８號","E_COORD97":172895.84,"N_COORD97":2541969.3300000001,"ADDRESS":"裕義路６８８號","OBJECTID":476243},"geometry":{"x":172895.83999999985,"y":2541969.3300000001}},{"attributes":{"ID":476269,"DIS_CODE":0,"TOWNNAME":"東區","LI":"關聖里","LIN":"18鄰","STREET":"裕和路","SECT":" ","MAREA":" ","LANE":" ","ALLEY":" ","HOUSE_NO":"２６０號","E_COORD97":172480.60999999999,"N_COORD97":2543120.21,"ADDRESS":"裕和路２６０號","OBJECTID":476244},"geometry":{"x":172480.61000000034,"y":2543120.2100000028}},{"attributes":{"ID":476270,"DIS_CODE":0,"TOWNNAME":"東區","LI":"關聖里","LIN":"18鄰","STREET":"裕和路","SECT":" ","MAREA":" ","LANE":" ","ALLEY":" ","HOUSE_NO":"２６６號","E_COORD97":172488.79999999999,"N_COORD97":2543119.9900000002,"ADDRESS":"裕和路２６６號","OBJECTID":476245},"geometry":{"x":172488.80000000075,"y":2543119.9900000021}},{"attributes":{"ID":476271,"DIS_CODE":0,"TOWNNAME":"東區","LI":"關聖里","LIN":"18鄰","STREET":"裕和路","SECT":" ","MAREA":" ","LANE":" ","ALLEY":" ","HOUSE_NO":"２６８號","E_COORD97":172494.78,"N_COORD97":2543120.4300000002,"ADDRESS":"裕和路２６８號","OBJECTID":476246},"geometry":{"x":172494.78000000026,"y":2543120.4300000016}},{"attributes":{"ID":476272,"DIS_CODE":0,"TOWNNAME":"東區","LI":"關聖里","LIN":"18鄰","STREET":"裕和路","SECT":" ","MAREA":" ","LANE":" ","ALLEY":" ","HOUSE_NO":"２７０號","E_COORD97":172503.64000000001,"N_COORD97":2543119.54,"ADDRESS":"裕和路２７０號","OBJECTID":476247},"geometry":{"x":172503.63999999966,"y":2543119.5399999991}},{"attributes":{"ID":476273,"DIS_CODE":0,"TOWNNAME":"東區","LI":"關聖里","LIN":"18鄰","STREET":"裕和路","SECT":" ","MAREA":" ","LANE":" ","ALLEY":" ","HOUSE_NO":"２７６號","E_COORD97":172514.94,"N_COORD97":2543119.77,"ADDRESS":"裕和路２７６號","OBJECTID":476248},"geometry":{"x":172514.94000000227,"y":2543119.7699999996}},{"attributes":{"ID":476274,"DIS_CODE":0,"TOWNNAME":"東區","LI":"裕聖里","LIN":"18鄰","STREET":"裕孝三街","SECT":" ","MAREA":" ","LANE":" ","ALLEY":" ","HOUSE_NO":"８１號","E_COORD97":172853.10999999999,"N_COORD97":2542085.25,"ADDRESS":"裕孝三街８１號","OBJECTID":476249},"geometry":{"x":172853.11000000127,"y":2542085.25}},{"attributes":{"ID":476275,"DIS_CODE":0,"TOWNNAME":"東區","LI":"文聖里","LIN":"18鄰","STREET":"裕孝路","SECT":" ","MAREA":" ","LANE":" ","ALLEY":" ","HOUSE_NO":"２１７號","E_COORD97":172451.16,"N_COORD97":2542595.75,"ADDRESS":"裕孝路２１７號","OBJECTID":476250},"geometry":{"x":172451.16000000108,"y":2542595.7500000019}},{"attributes":{"ID":476276,"DIS_CODE":0,"TOWNNAME":"東區","LI":"文聖里","LIN":"18鄰","STREET":"裕孝路","SECT":" ","MAREA":" ","LANE":" ","ALLEY":" ","HOUSE_NO":"２１７之１號","E_COORD97":172450.62,"N_COORD97":2542591.6400000001,"ADDRESS":"裕孝路２１７之１號","OBJECTID":476251},"geometry":{"x":172450.62000000197,"y":2542591.6400000006}},{"attributes":{"ID":476277,"DIS_CODE":0,"TOWNNAME":"南區","LI":"佛壇里","LIN":"18鄰","STREET":"灣裡路","SECT":" ","MAREA":" ","LANE":" ","ALLEY":" ","HOUSE_NO":"５４３號","E_COORD97":166266.95000000001,"N_COORD97":2535563.75,"ADDRESS":"灣裡路５４３號","OBJECTID":476252},"geometry":{"x":166266.95000000019,"y":2535563.7500000037}},{"attributes":{"ID":476278,"DIS_CODE":0,"TOWNNAME":"東區","LI":"文聖里","LIN":"18鄰","STREET":"裕孝路","SECT":" ","MAREA":" ","LANE":" ","ALLEY":" ","HOUSE_NO":"２１９之１１號","E_COORD97":172513.84,"N_COORD97":2542591.1000000001,"ADDRESS":"裕孝路２１９之１１號","OBJECTID":476253},"geometry":{"x":172513.84000000078,"y":2542591.0999999996}},{"attributes":{"ID":476279,"DIS_CODE":0,"TOWNNAME":"東區","LI":"文聖里","LIN":"18鄰","STREET":"裕孝路","SECT":" ","MAREA":" ","LANE":" ","ALLEY":" ","HOUSE_NO":"２１９之１２號","E_COORD97":172513.48999999999,"N_COORD97":2542582.1699999999,"ADDRESS":"裕孝路２１９之１２號","OBJECTID":476254},"geometry":{"x":172513.49000000022,"y":2542582.1700000037}},{"attributes":{"ID":476280,"DIS_CODE":0,"TOWNNAME":"東區","LI":"文聖里","LIN":"18鄰","STREET":"裕孝路","SECT":" ","MAREA":" ","LANE":" ","ALLEY":" ","HOUSE_NO":"２１９之１５號","E_COORD97":172509.01999999999,"N_COORD97":2542580.5699999998,"ADDRESS":"裕孝路２１９之１５號","OBJECTID":476255},"geometry":{"x":172509.02000000048,"y":2542580.5700000022}},{"attributes":{"ID":476281,"DIS_CODE":0,"TOWNNAME":"東區","LI":"文聖里","LIN":"18鄰","STREET":"裕孝路","SECT":" ","MAREA":" ","LANE":" ","ALLEY":" ","HOUSE_NO":"２１９之１６號","E_COORD97":172503.48999999999,"N_COORD97":2542582.8900000001,"ADDRESS":"裕孝路２１９之１６號","OBJECTID":476256},"geometry":{"x":172503.49000000022,"y":2542582.8900000025}},{"attributes":{"ID":476282,"DIS_CODE":0,"TOWNNAME":"東區","LI":"文聖里","LIN":"18鄰","STREET":"裕孝路","SECT":" ","MAREA":" ","LANE":" ","ALLEY":" ","HOUSE_NO":"２１９之１７號","E_COORD97":172498.48999999999,"N_COORD97":2542580.0299999998,"ADDRESS":"裕孝路２１９之１７號","OBJECTID":476257},"geometry":{"x":172498.49000000022,"y":2542580.0300000012}},{"attributes":{"ID":476283,"DIS_CODE":0,"TOWNNAME":"東區","LI":"文聖里","LIN":"18鄰","STREET":"裕孝路","SECT":" ","MAREA":" ","LANE":" ","ALLEY":" ","HOUSE_NO":"２１９之１８號","E_COORD97":172493.13,"N_COORD97":2542583.4199999999,"ADDRESS":"裕孝路２１９之１８號","OBJECTID":476258},"geometry":{"x":172493.13000000082,"y":2542583.4199999999}},{"attributes":{"ID":476284,"DIS_CODE":0,"TOWNNAME":"東區","LI":"文聖里","LIN":"18鄰","STREET":"裕孝路","SECT":" ","MAREA":" ","LANE":" ","ALLEY":" ","HOUSE_NO":"２１９之１９號","E_COORD97":172486.88,"N_COORD97":2542580.0299999998,"ADDRESS":"裕孝路２１９之１９號","OBJECTID":476259},"geometry":{"x":172486.87999999989,"y":2542580.0300000012}},{"attributes":{"ID":476285,"DIS_CODE":0,"TOWNNAME":"東區","LI":"文聖里","LIN":"18鄰","STREET":"裕孝路","SECT":" ","MAREA":" ","LANE":" ","ALLEY":" ","HOUSE_NO":"２１９之１號","E_COORD97":172470.79999999999,"N_COORD97":2542591.46,"ADDRESS":"裕孝路２１９之１號","OBJECTID":476260},"geometry":{"x":172470.79999999981,"y":2542591.4600000046}},{"attributes":{"ID":476286,"DIS_CODE":0,"TOWNNAME":"東區","LI":"文聖里","LIN":"18鄰","STREET":"裕孝路","SECT":" ","MAREA":" ","LANE":" ","ALLEY":" ","HOUSE_NO":"２１９之２１號","E_COORD97":172482.59,"N_COORD97":2542583.4199999999,"ADDRESS":"裕孝路２１９之２１號","OBJECTID":476261},"geometry":{"x":172482.58999999892,"y":2542583.4199999999}},{"attributes":{"ID":476287,"DIS_CODE":0,"TOWNNAME":"東區","LI":"文聖里","LIN":"18鄰","STREET":"裕孝路","SECT":" ","MAREA":" ","LANE":" ","ALLEY":" ","HOUSE_NO":"２１９之２３號","E_COORD97":172477.04999999999,"N_COORD97":2542579.6699999999,"ADDRESS":"裕孝路２１９之２３號","OBJECTID":476262},"geometry":{"x":172477.04999999981,"y":2542579.6700000018}},{"attributes":{"ID":476288,"DIS_CODE":0,"TOWNNAME":"東區","LI":"文聖里","LIN":"18鄰","STREET":"裕孝路","SECT":" ","MAREA":" ","LANE":" ","ALLEY":" ","HOUSE_NO":"２１９之２５號","E_COORD97":172471.87,"N_COORD97":2542583.2400000002,"ADDRESS":"裕孝路２１９之２５號","OBJECTID":476263},"geometry":{"x":172471.87000000011,"y":2542583.2400000021}},{"attributes":{"ID":476289,"DIS_CODE":0,"TOWNNAME":"東區","LI":"文聖里","LIN":"18鄰","STREET":"裕孝路","SECT":" ","MAREA":" ","LANE":" ","ALLEY":" ","HOUSE_NO":"２１９之２６號","E_COORD97":172466.16,"N_COORD97":2542581.1000000001,"ADDRESS":"裕孝路２１９之２６號","OBJECTID":476264},"geometry":{"x":172466.16000000108,"y":2542581.0999999996}},{"attributes":{"ID":476290,"DIS_CODE":0,"TOWNNAME":"東區","LI":"文聖里","LIN":"18鄰","STREET":"裕孝路","SECT":" ","MAREA":" ","LANE":" ","ALLEY":" ","HOUSE_NO":"２１９之２號","E_COORD97":172476.16,"N_COORD97":2542593.4300000002,"ADDRESS":"裕孝路２１９之２號","OBJECTID":476265},"geometry":{"x":172476.16000000108,"y":2542593.4299999978}},{"attributes":{"ID":476291,"DIS_CODE":0,"TOWNNAME":"東區","LI":"文聖里","LIN":"18鄰","STREET":"裕孝路","SECT":" ","MAREA":" ","LANE":" ","ALLEY":" ","HOUSE_NO":"２１９之３號","E_COORD97":172481.16,"N_COORD97":2542590.75,"ADDRESS":"裕孝路２１９之３號","OBJECTID":476266},"geometry":{"x":172481.16000000108,"y":2542590.75}},{"attributes":{"ID":476292,"DIS_CODE":0,"TOWNNAME":"東區","LI":"文聖里","LIN":"18鄰","STREET":"裕孝路","SECT":" ","MAREA":" ","LANE":" ","ALLEY":" ","HOUSE_NO":"２１９之５號","E_COORD97":172486.16,"N_COORD97":2542592.8900000001,"ADDRESS":"裕孝路２１９之５號","OBJECTID":476267},"geometry":{"x":172486.16000000108,"y":2542592.8900000025}},{"attributes":{"ID":476293,"DIS_CODE":0,"TOWNNAME":"東區","LI":"文聖里","LIN":"18鄰","STREET":"裕孝路","SECT":" ","MAREA":" ","LANE":" ","ALLEY":" ","HOUSE_NO":"２１９之６號","E_COORD97":172491.34,"N_COORD97":2542590.3900000001,"ADDRESS":"裕孝路２１９之６號","OBJECTID":476268},"geometry":{"x":172491.34000000078,"y":2542590.3900000006}},{"attributes":{"ID":476294,"DIS_CODE":0,"TOWNNAME":"東區","LI":"文聖里","LIN":"18鄰","STREET":"裕孝路","SECT":" ","MAREA":" ","LANE":" ","ALLEY":" ","HOUSE_NO":"２１９之７號","E_COORD97":172497.06,"N_COORD97":2542592,"ADDRESS":"裕孝路２１９之７號","OBJECTID":476269},"geometry":{"x":172497.05999999959,"y":2542592}},{"attributes":{"ID":476295,"DIS_CODE":0,"TOWNNAME":"東區","LI":"文聖里","LIN":"18鄰","STREET":"裕孝路","SECT":" ","MAREA":" ","LANE":" ","ALLEY":" ","HOUSE_NO":"２１９之８號","E_COORD97":172501.88,"N_COORD97":2542590.3900000001,"ADDRESS":"裕孝路２１９之８號","OBJECTID":476270},"geometry":{"x":172501.88000000082,"y":2542590.3900000006}},{"attributes":{"ID":476296,"DIS_CODE":0,"TOWNNAME":"東區","LI":"文聖里","LIN":"18鄰","STREET":"裕孝路","SECT":" ","MAREA":" ","LANE":" ","ALLEY":" ","HOUSE_NO":"２１９之９號","E_COORD97":172507.76999999999,"N_COORD97":2542595.0299999998,"ADDRESS":"裕孝路２１９之９號","OBJECTID":476271},"geometry":{"x":172507.76999999955,"y":2542595.0299999993}},{"attributes":{"ID":476297,"DIS_CODE":0,"TOWNNAME":"東區","LI":"文聖里","LIN":"18鄰","STREET":"裕孝路","SECT":" ","MAREA":" ","LANE":" ","ALLEY":" ","HOUSE_NO":"２１９號","E_COORD97":172464.91,"N_COORD97":2542591.2799999998,"ADDRESS":"裕孝路２１９號","OBJECTID":476272},"geometry":{"x":172464.91000000015,"y":2542591.2800000012}},{"attributes":{"ID":476298,"DIS_CODE":0,"TOWNNAME":"東區","LI":"文聖里","LIN":"18鄰","STREET":"裕孝路","SECT":" ","MAREA":" ","LANE":" ","ALLEY":" ","HOUSE_NO":"２２１號","E_COORD97":172449.91,"N_COORD97":2542584.3199999998,"ADDRESS":"裕孝路２２１號","OBJECTID":476273},"geometry":{"x":172449.91000000015,"y":2542584.3200000003}},{"attributes":{"ID":476299,"DIS_CODE":0,"TOWNNAME":"東區","LI":"文聖里","LIN":"18鄰","STREET":"裕孝路","SECT":" ","MAREA":" ","LANE":" ","ALLEY":" ","HOUSE_NO":"２２１之１號","E_COORD97":172449.91,"N_COORD97":2542578.7799999998,"ADDRESS":"裕孝路２２１之１號","OBJECTID":476274},"geometry":{"x":172449.91000000015,"y":2542578.7800000012}},{"attributes":{"ID":476300,"DIS_CODE":0,"TOWNNAME":"東區","LI":"成大里","LIN":"18鄰","STREET":"前鋒路","SECT":" ","MAREA":" ","LANE":" ","ALLEY":" ","HOUSE_NO":"１８４之１號","E_COORD97":169377.03,"N_COORD97":2544039.7799999998,"ADDRESS":"前鋒路１８４之１號","OBJECTID":476275},"geometry":{"x":169377.03000000119,"y":2544039.7800000012}},{"attributes":{"ID":476301,"DIS_CODE":0,"TOWNNAME":"西港區","LI":"慶安里","LIN":"18鄰","STREET":"慶安路","SECT":" ","MAREA":" ","LANE":" ","ALLEY":" ","HOUSE_NO":"３２號","E_COORD97":168252.37,"N_COORD97":2557945.6800000002,"ADDRESS":"慶安路３２號","OBJECTID":476276},"geometry":{"x":168252.37000000104,"y":2557945.6799999997}},{"attributes":{"ID":476302,"DIS_CODE":0,"TOWNNAME":"西港區","LI":"慶安里","LIN":"18鄰","STREET":"慶安路","SECT":" ","MAREA":" ","LANE":" ","ALLEY":" ","HOUSE_NO":"４６號","E_COORD97":168216.95000000001,"N_COORD97":2557917.9900000002,"ADDRESS":"慶安路４６號","OBJECTID":476277},"geometry":{"x":168216.95000000019,"y":2557917.9900000002}},{"attributes":{"ID":476303,"DIS_CODE":0,"TOWNNAME":"西港區","LI":"慶安里","LIN":"18鄰","STREET":"慶安路","SECT":" ","MAREA":" ","LANE":" ","ALLEY":" ","HOUSE_NO":"５４號","E_COORD97":168200.35999999999,"N_COORD97":2557915.6200000001,"ADDRESS":"慶安路５４號","OBJECTID":476278},"geometry":{"x":168200.36000000034,"y":2557915.6200000029}},{"attributes":{"ID":476304,"DIS_CODE":0,"TOWNNAME":"東區","LI":"大福里","LIN":"18鄰","STREET":"立德八路","SECT":" ","MAREA":" ","LANE":" ","ALLEY":" ","HOUSE_NO":"５８號","E_COORD97":169560.76999999999,"N_COORD97":2541930.0699999998,"ADDRESS":"立德八路５８號","OBJECTID":476279},"geometry":{"x":169560.77000000048,"y":2541930.0700000022}},{"attributes":{"ID":476305,"DIS_CODE":0,"TOWNNAME":"南區","LI":"廣州里","LIN":"18鄰","STREET":"福吉四街","SECT":" ","MAREA":" ","LANE":" ","ALLEY":" ","HOUSE_NO":"２２號","E_COORD97":167287.01000000001,"N_COORD97":2542636.6200000001,"ADDRESS":"福吉四街２２號","OBJECTID":476280},"geometry":{"x":167287.00999999978,"y":2542636.620000001}},{"attributes":{"ID":476306,"DIS_CODE":0,"TOWNNAME":"南區","LI":"佛壇里","LIN":"18鄰","STREET":"灣裡路","SECT":" ","MAREA":" ","LANE":" ","ALLEY":" ","HOUSE_NO":"５３５號","E_COORD97":166296.37,"N_COORD97":2535583.25,"ADDRESS":"灣裡路５３５號","OBJECTID":476281},"geometry":{"x":166296.37000000011,"y":2535583.25}},{"attributes":{"ID":476307,"DIS_CODE":0,"TOWNNAME":"南區","LI":"佛壇里","LIN":"18鄰","STREET":"灣裡路","SECT":" ","MAREA":" ","LANE":" ","ALLEY":" ","HOUSE_NO":"５３７號","E_COORD97":166290.85999999999,"N_COORD97":2535577.75,"ADDRESS":"灣裡路５３７號","OBJECTID":476282},"geometry":{"x":166290.86000000127,"y":2535577.7500000019}},{"attributes":{"ID":476308,"DIS_CODE":0,"TOWNNAME":"南區","LI":"佛壇里","LIN":"18鄰","STREET":"灣裡路","SECT":" ","MAREA":" ","LANE":" ","ALLEY":" ","HOUSE_NO":"５３９號","E_COORD97":166284.09,"N_COORD97":2535574.79,"ADDRESS":"灣裡路５３９號","OBJECTID":476283},"geometry":{"x":166284.09000000078,"y":2535574.7899999991}},{"attributes":{"ID":476309,"DIS_CODE":0,"TOWNNAME":"南區","LI":"佛壇里","LIN":"18鄰","STREET":"灣裡路","SECT":" ","MAREA":" ","LANE":" ","ALLEY":" ","HOUSE_NO":"５４１號","E_COORD97":166273.29999999999,"N_COORD97":2535565.4500000002,"ADDRESS":"灣裡路５４１號","OBJECTID":476284},"geometry":{"x":166273.29999999981,"y":2535565.4500000011}},{"attributes":{"ID":476310,"DIS_CODE":0,"TOWNNAME":"南區","LI":"佛壇里","LIN":"18鄰","STREET":"灣裡路","SECT":" ","MAREA":" ","LANE":" ","ALLEY":" ","HOUSE_NO":"５４５號","E_COORD97":166257.20999999999,"N_COORD97":2535560.5,"ADDRESS":"灣裡路５４５號","OBJECTID":476285},"geometry":{"x":166257.20999999903,"y":2535560.5}},{"attributes":{"ID":476311,"DIS_CODE":0,"TOWNNAME":"南區","LI":"佛壇里","LIN":"18鄰","STREET":"灣裡路","SECT":" ","MAREA":" ","LANE":" ","ALLEY":" ","HOUSE_NO":"５５１之１號","E_COORD97":166250.22,"N_COORD97":2535557.6400000001,"ADDRESS":"灣裡路５５１之１號","OBJECTID":476286},"geometry":{"x":166250.2200000016,"y":2535557.6400000006}},{"attributes":{"ID":476312,"DIS_CODE":0,"TOWNNAME":"南區","LI":"佛壇里","LIN":"18鄰","STREET":"灣裡路","SECT":" ","MAREA":" ","LANE":" ","ALLEY":" ","HOUSE_NO":"５５１之２號","E_COORD97":166244.51000000001,"N_COORD97":2535554.1499999999,"ADDRESS":"灣裡路５５１之２號","OBJECTID":476287},"geometry":{"x":166244.50999999978,"y":2535554.1500000004}},{"attributes":{"ID":476313,"DIS_CODE":0,"TOWNNAME":"南區","LI":"佛壇里","LIN":"18鄰","STREET":"灣裡路","SECT":" ","MAREA":" ","LANE":" ","ALLEY":" ","HOUSE_NO":"５５１號","E_COORD97":166231.97,"N_COORD97":2535544.23,"ADDRESS":"灣裡路５５１號","OBJECTID":476288},"geometry":{"x":166231.97000000067,"y":2535544.2300000023}},{"attributes":{"ID":476314,"DIS_CODE":0,"TOWNNAME":"南區","LI":"佛壇里","LIN":"18鄰","STREET":"灣裡路","SECT":" ","MAREA":" ","LANE":" ","ALLEY":" ","HOUSE_NO":"５５３號","E_COORD97":166224.98000000001,"N_COORD97":2535539.7799999998,"ADDRESS":"灣裡路５５３號","OBJECTID":476289},"geometry":{"x":166224.98000000045,"y":2535539.7800000012}},{"attributes":{"ID":476315,"DIS_CODE":0,"TOWNNAME":"南區","LI":"佛壇里","LIN":"18鄰","STREET":"灣裡路","SECT":" ","MAREA":" ","LANE":" ","ALLEY":" ","HOUSE_NO":"５５５號","E_COORD97":166218.47,"N_COORD97":2535535.8100000001,"ADDRESS":"灣裡路５５５號","OBJECTID":476290},"geometry":{"x":166218.47000000067,"y":2535535.8100000005}},{"attributes":{"ID":476316,"DIS_CODE":0,"TOWNNAME":"南區","LI":"佛壇里","LIN":"18鄰","STREET":"灣裡路","SECT":" ","MAREA":" ","LANE":" ","ALLEY":" ","HOUSE_NO":"５５７號","E_COORD97":166211.48999999999,"N_COORD97":2535531.3700000001,"ADDRESS":"灣裡路５５７號","OBJECTID":476291},"geometry":{"x":166211.48999999929,"y":2535531.3700000029}},{"attributes":{"ID":476317,"DIS_CODE":0,"TOWNNAME":"南區","LI":"佛壇里","LIN":"18鄰","STREET":"灣裡路","SECT":" ","MAREA":" ","LANE":" ","ALLEY":" ","HOUSE_NO":"５５９號","E_COORD97":166204.03,"N_COORD97":2535526.4500000002,"ADDRESS":"灣裡路５５９號","OBJECTID":476292},"geometry":{"x":166204.03000000026,"y":2535526.4499999993}},{"attributes":{"ID":476318,"DIS_CODE":0,"TOWNNAME":"南區","LI":"佛壇里","LIN":"18鄰","STREET":"灣裡路","SECT":" ","MAREA":" ","LANE":" ","ALLEY":" ","HOUSE_NO":"５６１號","E_COORD97":166197.67999999999,"N_COORD97":2535523.1099999999,"ADDRESS":"灣裡路５６１號","OBJECTID":476293},"geometry":{"x":166197.6799999997,"y":2535523.1100000031}},{"attributes":{"ID":476319,"DIS_CODE":0,"TOWNNAME":"南區","LI":"佛壇里","LIN":"18鄰","STREET":"灣裡路","SECT":" ","MAREA":" ","LANE":" ","ALLEY":" ","HOUSE_NO":"６０２之２號","E_COORD97":166217.79000000001,"N_COORD97":2535588.4399999999,"ADDRESS":"灣裡路６０２之２號","OBJECTID":476294},"geometry":{"x":166217.7900000019,"y":2535588.4399999995}},{"attributes":{"ID":476320,"DIS_CODE":0,"TOWNNAME":"東區","LI":"大福里","LIN":"18鄰","STREET":"立德八路","SECT":" ","MAREA":" ","LANE":" ","ALLEY":" ","HOUSE_NO":"６２號","E_COORD97":169570.54000000001,"N_COORD97":2541932.5099999998,"ADDRESS":"立德八路６２號","OBJECTID":476295},"geometry":{"x":169570.54000000004,"y":2541932.5100000016}},{"attributes":{"ID":476321,"DIS_CODE":0,"TOWNNAME":"南區","LI":"佛壇里","LIN":"18鄰","STREET":"灣裡路","SECT":" ","MAREA":" ","LANE":" ","ALLEY":" ","HOUSE_NO":"６０２之３號","E_COORD97":166214.62,"N_COORD97":2535585.8999999999,"ADDRESS":"灣裡路６０２之３號","OBJECTID":476296},"geometry":{"x":166214.62000000104,"y":2535585.9000000004}},{"attributes":{"ID":476322,"DIS_CODE":0,"TOWNNAME":"東區","LI":"大福里","LIN":"18鄰","STREET":"立德八路","SECT":" ","MAREA":" ","LANE":" ","ALLEY":" ","HOUSE_NO":"７８號","E_COORD97":169607.51000000001,"N_COORD97":2541939.1200000001,"ADDRESS":"立德八路７８號","OBJECTID":476297},"geometry":{"x":169607.50999999978,"y":2541939.120000001}},{"attributes":{"ID":476323,"DIS_CODE":0,"TOWNNAME":"南區","LI":"佛壇里","LIN":"18鄰","STREET":"灣裡路","SECT":" ","MAREA":" ","LANE":" ","ALLEY":" ","HOUSE_NO":"６０２之５號","E_COORD97":166210.48999999999,"N_COORD97":2535583.04,"ADDRESS":"灣裡路６０２之５號","OBJECTID":476298},"geometry":{"x":166210.49000000115,"y":2535583.0399999991}},{"attributes":{"ID":476324,"DIS_CODE":0,"TOWNNAME":"南區","LI":"佛壇里","LIN":"18鄰","STREET":"灣裡路","SECT":" ","MAREA":" ","LANE":" ","ALLEY":" ","HOUSE_NO":"６０２之６號","E_COORD97":166206.84,"N_COORD97":2535580.3500000001,"ADDRESS":"灣裡路６０２之６號","OBJECTID":476299},"geometry":{"x":166206.83999999985,"y":2535580.3500000015}},{"attributes":{"ID":476325,"DIS_CODE":0,"TOWNNAME":"南區","LI":"佛壇里","LIN":"18鄰","STREET":"灣裡路","SECT":" ","MAREA":" ","LANE":" ","ALLEY":" ","HOUSE_NO":"６０２之７號","E_COORD97":166202.70999999999,"N_COORD97":2535577.1699999999,"ADDRESS":"灣裡路６０２之７號","OBJECTID":476300},"geometry":{"x":166202.70999999996,"y":2535577.1699999999}},{"attributes":{"ID":476326,"DIS_CODE":0,"TOWNNAME":"南區","LI":"佛壇里","LIN":"18鄰","STREET":"灣裡路","SECT":" ","MAREA":" ","LANE":" ","ALLEY":" ","HOUSE_NO":"５９８號","E_COORD97":166234.06,"N_COORD97":2535598.2799999998,"ADDRESS":"灣裡路５９８號","OBJECTID":476301},"geometry":{"x":166234.05999999866,"y":2535598.2799999993}},{"attributes":{"ID":476327,"DIS_CODE":0,"TOWNNAME":"南區","LI":"佛壇里","LIN":"18鄰","STREET":"灣裡路","SECT":" ","MAREA":" ","LANE":" ","ALLEY":" ","HOUSE_NO":"５９６號","E_COORD97":166237.87,"N_COORD97":2535600.8199999998,"ADDRESS":"灣裡路５９６號","OBJECTID":476302},"geometry":{"x":166237.87000000104,"y":2535600.820000004}},{"attributes":{"ID":476328,"DIS_CODE":0,"TOWNNAME":"南區","LI":"佛壇里","LIN":"18鄰","STREET":"灣裡路","SECT":" ","MAREA":" ","LANE":" ","ALLEY":" ","HOUSE_NO":"５９２號","E_COORD97":166241.20999999999,"N_COORD97":2535602.73,"ADDRESS":"灣裡路５９２號","OBJECTID":476303},"geometry":{"x":166241.20999999996,"y":2535602.7300000023}},{"attributes":{"ID":476329,"DIS_CODE":0,"TOWNNAME":"南區","LI":"佛壇里","LIN":"18鄰","STREET":"灣裡路","SECT":" ","MAREA":" ","LANE":" ","ALLEY":" ","HOUSE_NO":"５９０號","E_COORD97":166246.37,"N_COORD97":2535605.8999999999,"ADDRESS":"灣裡路５９０號","OBJECTID":476304},"geometry":{"x":166246.37000000104,"y":2535605.9000000004}},{"attributes":{"ID":476330,"DIS_CODE":0,"TOWNNAME":"南區","LI":"佛壇里","LIN":"18鄰","STREET":"灣裡路","SECT":" ","MAREA":" ","LANE":" ","ALLEY":" ","HOUSE_NO":"５８８號","E_COORD97":166251.60999999999,"N_COORD97":2535607.9700000002,"ADDRESS":"灣裡路５８８號","OBJECTID":476305},"geometry":{"x":166251.6100000022,"y":2535607.9700000025}},{"attributes":{"ID":476331,"DIS_CODE":0,"TOWNNAME":"南區","LI":"佛壇里","LIN":"18鄰","STREET":"灣裡路","SECT":" ","MAREA":" ","LANE":" ","ALLEY":" ","HOUSE_NO":"５６５號","E_COORD97":166186.41,"N_COORD97":2535515.2599999998,"ADDRESS":"灣裡路５６５號","OBJECTID":476306},"geometry":{"x":166186.41000000015,"y":2535515.2599999998}},{"attributes":{"ID":476332,"DIS_CODE":0,"TOWNNAME":"南區","LI":"佛壇里","LIN":"18鄰","STREET":"灣裡路","SECT":" ","MAREA":" ","LANE":" ","ALLEY":" ","HOUSE_NO":"６００號","E_COORD97":166318.67999999999,"N_COORD97":2535565.8199999998,"ADDRESS":"灣裡路６００號","OBJECTID":476307},"geometry":{"x":166318.68000000063,"y":2535565.8200000003}},{"attributes":{"ID":476333,"DIS_CODE":0,"TOWNNAME":"南區","LI":"佛壇里","LIN":"18鄰","STREET":"灣裡路","SECT":" ","MAREA":" ","LANE":" ","ALLEY":" ","HOUSE_NO":"５９８號之１","E_COORD97":166229.78,"N_COORD97":2535595.6600000001,"ADDRESS":"灣裡路５９８號之１","OBJECTID":476308},"geometry":{"x":166229.78000000026,"y":2535595.660000002}},{"attributes":{"ID":476334,"DIS_CODE":0,"TOWNNAME":"南區","LI":"佛壇里","LIN":"18鄰","STREET":"灣裡路","SECT":" ","MAREA":" ","LANE":" ","ALLEY":" ","HOUSE_NO":"５９８號之２","E_COORD97":166225.48999999999,"N_COORD97":2535593.6000000001,"ADDRESS":"灣裡路５９８號之２","OBJECTID":476309},"geometry":{"x":166225.49000000115,"y":2535593.5999999996}},{"attributes":{"ID":476335,"DIS_CODE":0,"TOWNNAME":"南區","LI":"佛壇里","LIN":"18鄰","STREET":"灣裡路","SECT":" ","MAREA":" ","LANE":" ","ALLEY":" ","HOUSE_NO":"６０２號","E_COORD97":166319.79000000001,"N_COORD97":2535561.6099999999,"ADDRESS":"灣裡路６０２號","OBJECTID":476310},"geometry":{"x":166319.79000000097,"y":2535561.6100000013}},{"attributes":{"ID":476336,"DIS_CODE":0,"TOWNNAME":"南區","LI":"金華里","LIN":"18鄰","STREET":"尊南街","SECT":" ","MAREA":" ","LANE":" ","ALLEY":" ","HOUSE_NO":"２２３號","E_COORD97":166834.04999999999,"N_COORD97":2542288.0899999999,"ADDRESS":"尊南街２２３號","OBJECTID":476311},"geometry":{"x":166834.04999999981,"y":2542288.0900000017}},{"attributes":{"ID":476337,"DIS_CODE":0,"TOWNNAME":"南區","LI":"郡南里","LIN":"18鄰","STREET":"德興路","SECT":" ","MAREA":" ","LANE":" ","ALLEY":" ","HOUSE_NO":"１７５之１號","E_COORD97":167217.69,"N_COORD97":2540364.02,"ADDRESS":"德興路１７５之１號","OBJECTID":476312},"geometry":{"x":167217.69000000134,"y":2540364.0199999996}},{"attributes":{"ID":476338,"DIS_CODE":0,"TOWNNAME":"南區","LI":"郡南里","LIN":"18鄰","STREET":"德興路","SECT":" ","MAREA":" ","LANE":" ","ALLEY":" ","HOUSE_NO":"１７５號","E_COORD97":167215.47,"N_COORD97":2540367.9900000002,"ADDRESS":"德興路１７５號","OBJECTID":476313},"geometry":{"x":167215.47000000067,"y":2540367.9900000021}},{"attributes":{"ID":476339,"DIS_CODE":0,"TOWNNAME":"南區","LI":"郡南里","LIN":"18鄰","STREET":"德興路","SECT":" ","MAREA":" ","LANE":" ","ALLEY":" ","HOUSE_NO":"１７３號","E_COORD97":167214.98999999999,"N_COORD97":2540371.96,"ADDRESS":"德興路１７３號","OBJECTID":476314},"geometry":{"x":167214.99000000022,"y":2540371.9600000028}},{"attributes":{"ID":476340,"DIS_CODE":0,"TOWNNAME":"南區","LI":"郡南里","LIN":"18鄰","STREET":"德興路","SECT":" ","MAREA":" ","LANE":" ","ALLEY":" ","HOUSE_NO":"１７１號","E_COORD97":167214.98999999999,"N_COORD97":2540376.5600000001,"ADDRESS":"德興路１７１號","OBJECTID":476315},"geometry":{"x":167214.99000000022,"y":2540376.5600000042}},{"attributes":{"ID":476341,"DIS_CODE":0,"TOWNNAME":"東區","LI":"大福里","LIN":"18鄰","STREET":"立德七路","SECT":" ","MAREA":" ","LANE":" ","ALLEY":" ","HOUSE_NO":"３１號","E_COORD97":169563.91,"N_COORD97":2541915.79,"ADDRESS":"立德七路３１號","OBJECTID":476316},"geometry":{"x":169563.91000000108,"y":2541915.7900000028}},{"attributes":{"ID":476342,"DIS_CODE":0,"TOWNNAME":"東區","LI":"大福里","LIN":"18鄰","STREET":"立德七路","SECT":" ","MAREA":" ","LANE":" ","ALLEY":" ","HOUSE_NO":"３３號","E_COORD97":169568.45000000001,"N_COORD97":2541916.8300000001,"ADDRESS":"立德七路３３號","OBJECTID":476317},"geometry":{"x":169568.45000000112,"y":2541916.8300000038}},{"attributes":{"ID":476343,"DIS_CODE":0,"TOWNNAME":"東區","LI":"大福里","LIN":"18鄰","STREET":"立德七路","SECT":" ","MAREA":" ","LANE":" ","ALLEY":" ","HOUSE_NO":"３５號","E_COORD97":169573.32999999999,"N_COORD97":2541918.2200000002,"ADDRESS":"立德七路３５號","OBJECTID":476318},"geometry":{"x":169573.33000000007,"y":2541918.2200000044}},{"attributes":{"ID":476344,"DIS_CODE":0,"TOWNNAME":"東區","LI":"大福里","LIN":"18鄰","STREET":"立德七路","SECT":" ","MAREA":" ","LANE":" ","ALLEY":" ","HOUSE_NO":"３７號","E_COORD97":169577.51999999999,"N_COORD97":2541918.5699999998,"ADDRESS":"立德七路３７號","OBJECTID":476319},"geometry":{"x":169577.52000000048,"y":2541918.570000004}},{"attributes":{"ID":476345,"DIS_CODE":0,"TOWNNAME":"東區","LI":"大福里","LIN":"18鄰","STREET":"立德七路","SECT":" ","MAREA":" ","LANE":" ","ALLEY":" ","HOUSE_NO":"３９號","E_COORD97":169581.70000000001,"N_COORD97":2541918.9199999999,"ADDRESS":"立德七路３９號","OBJECTID":476320},"geometry":{"x":169581.70000000019,"y":2541918.9199999999}},{"attributes":{"ID":476346,"DIS_CODE":0,"TOWNNAME":"東區","LI":"大福里","LIN":"18鄰","STREET":"立德七路","SECT":" ","MAREA":" ","LANE":" ","ALLEY":" ","HOUSE_NO":"４１號","E_COORD97":169588.67999999999,"N_COORD97":2541919.6200000001,"ADDRESS":"立德七路４１號","OBJECTID":476321},"geometry":{"x":169588.68000000063,"y":2541919.6200000029}},{"attributes":{"ID":476347,"DIS_CODE":0,"TOWNNAME":"東區","LI":"大福里","LIN":"18鄰","STREET":"立德七路","SECT":" ","MAREA":" ","LANE":" ","ALLEY":" ","HOUSE_NO":"４３號","E_COORD97":169593.20999999999,"N_COORD97":2541921.0099999998,"ADDRESS":"立德七路４３號","OBJECTID":476322},"geometry":{"x":169593.20999999996,"y":2541921.0099999998}},{"attributes":{"ID":476348,"DIS_CODE":0,"TOWNNAME":"東區","LI":"大福里","LIN":"18鄰","STREET":"立德七路","SECT":" ","MAREA":" ","LANE":" ","ALLEY":" ","HOUSE_NO":"４５號","E_COORD97":169597.75,"N_COORD97":2541921.0099999998,"ADDRESS":"立德七路４５號","OBJECTID":476323},"geometry":{"x":169597.75,"y":2541921.0099999998}},{"attributes":{"ID":476349,"DIS_CODE":0,"TOWNNAME":"東區","LI":"大福里","LIN":"18鄰","STREET":"立德七路","SECT":" ","MAREA":" ","LANE":" ","ALLEY":" ","HOUSE_NO":"４９號","E_COORD97":169606.47,"N_COORD97":2541923.4500000002,"ADDRESS":"立德七路４９號","OBJECTID":476324},"geometry":{"x":169606.46999999974,"y":2541923.4500000011}},{"attributes":{"ID":476350,"DIS_CODE":0,"TOWNNAME":"東區","LI":"大福里","LIN":"18鄰","STREET":"立德七路","SECT":" ","MAREA":" ","LANE":" ","ALLEY":" ","HOUSE_NO":"５１號","E_COORD97":169610.29999999999,"N_COORD97":2541925.1899999999,"ADDRESS":"立德七路５１號","OBJECTID":476325},"geometry":{"x":169610.30000000075,"y":2541925.1900000013}},{"attributes":{"ID":476351,"DIS_CODE":0,"TOWNNAME":"東區","LI":"大福里","LIN":"18鄰","STREET":"立德八路","SECT":" ","MAREA":" ","LANE":" ","ALLEY":" ","HOUSE_NO":"５６號","E_COORD97":169557.29000000001,"N_COORD97":2541929.02,"ADDRESS":"立德八路５６號","OBJECTID":476326},"geometry":{"x":169557.2900000019,"y":2541929.0200000014}},{"attributes":{"ID":476352,"DIS_CODE":0,"TOWNNAME":"東區","LI":"大福里","LIN":"18鄰","STREET":"立德八路","SECT":" ","MAREA":" ","LANE":" ","ALLEY":" ","HOUSE_NO":"６４號","E_COORD97":169574.73000000001,"N_COORD97":2541933.2000000002,"ADDRESS":"立德八路６４號","OBJECTID":476327},"geometry":{"x":169574.73000000045,"y":2541933.1999999993}},{"attributes":{"ID":476353,"DIS_CODE":0,"TOWNNAME":"東區","LI":"大福里","LIN":"18鄰","STREET":"立德八路","SECT":" ","MAREA":" ","LANE":" ","ALLEY":" ","HOUSE_NO":"６８號","E_COORD97":169584.48999999999,"N_COORD97":2541936.3399999999,"ADDRESS":"立德八路６８號","OBJECTID":476328},"geometry":{"x":169584.49000000022,"y":2541936.3399999999}},{"attributes":{"ID":476354,"DIS_CODE":0,"TOWNNAME":"東區","LI":"大福里","LIN":"18鄰","STREET":"立德八路","SECT":" ","MAREA":" ","LANE":" ","ALLEY":" ","HOUSE_NO":"７０號","E_COORD97":169589.37,"N_COORD97":2541935.29,"ADDRESS":"立德八路７０號","OBJECTID":476329},"geometry":{"x":169589.37000000104,"y":2541935.2899999991}},{"attributes":{"ID":476355,"DIS_CODE":0,"TOWNNAME":"東區","LI":"大福里","LIN":"18鄰","STREET":"立德八路","SECT":" ","MAREA":" ","LANE":" ","ALLEY":" ","HOUSE_NO":"７２號","E_COORD97":169593.91,"N_COORD97":2541935.9900000002,"ADDRESS":"立德八路７２號","OBJECTID":476330},"geometry":{"x":169593.91000000201,"y":2541935.9900000039}},{"attributes":{"ID":476356,"DIS_CODE":0,"TOWNNAME":"東區","LI":"大福里","LIN":"18鄰","STREET":"立德八路","SECT":" ","MAREA":" ","LANE":" ","ALLEY":" ","HOUSE_NO":"７４號","E_COORD97":169599.48999999999,"N_COORD97":2541938.0800000001,"ADDRESS":"立德八路７４號","OBJECTID":476331},"geometry":{"x":169599.49000000022,"y":2541938.0800000001}},{"attributes":{"ID":476357,"DIS_CODE":0,"TOWNNAME":"東區","LI":"大福里","LIN":"18鄰","STREET":"立德八路","SECT":" ","MAREA":" ","LANE":" ","ALLEY":" ","HOUSE_NO":"７６號","E_COORD97":169604.01999999999,"N_COORD97":2541939.1200000001,"ADDRESS":"立德八路７６號","OBJECTID":476332},"geometry":{"x":169604.01999999955,"y":2541939.120000001}},{"attributes":{"ID":476358,"DIS_CODE":0,"TOWNNAME":"東區","LI":"大福里","LIN":"18鄰","STREET":"立德八路","SECT":" ","MAREA":" ","LANE":" ","ALLEY":" ","HOUSE_NO":"８０號","E_COORD97":169613.44,"N_COORD97":2541939.8199999998,"ADDRESS":"立德八路８０號","OBJECTID":476333},"geometry":{"x":169613.44000000134,"y":2541939.8200000003}},{"attributes":{"ID":476359,"DIS_CODE":0,"TOWNNAME":"東區","LI":"大福里","LIN":"18鄰","STREET":"立德七路","SECT":" ","MAREA":" ","LANE":" ","ALLEY":" ","HOUSE_NO":"２９號","E_COORD97":169558.67999999999,"N_COORD97":2541914.7400000002,"ADDRESS":"立德七路２９號","OBJECTID":476334},"geometry":{"x":169558.6799999997,"y":2541914.7400000021}},{"attributes":{"ID":476360,"DIS_CODE":0,"TOWNNAME":"安南區","LI":"安順里","LIN":"18鄰","STREET":"育安街","SECT":" ","MAREA":" ","LANE":" ","ALLEY":" ","HOUSE_NO":"１９６號","E_COORD97":169585.44,"N_COORD97":2549956.5299999998,"ADDRESS":"育安街１９６號","OBJECTID":476335},"geometry":{"x":169585.43999999948,"y":2549956.5300000031}},{"attributes":{"ID":476361,"DIS_CODE":0,"TOWNNAME":"善化區","LI":"光文里","LIN":"18鄰","STREET":"信義路","SECT":" ","MAREA":" ","LANE":" ","ALLEY":" ","HOUSE_NO":"１３１號","E_COORD97":178242.54000000001,"N_COORD97":2558960,"ADDRESS":"信義路１３１號","OBJECTID":476336},"geometry":{"x":178242.54000000097,"y":2558960.0000000019}},{"attributes":{"ID":476362,"DIS_CODE":0,"TOWNNAME":"善化區","LI":"文昌里","LIN":"18鄰","STREET":"興華路","SECT":" ","MAREA":" ","LANE":" ","ALLEY":" ","HOUSE_NO":"３１１號","E_COORD97":177760.26999999999,"N_COORD97":2558489.5,"ADDRESS":"興華路３１１號","OBJECTID":476337},"geometry":{"x":177760.27000000048,"y":2558489.5}},{"attributes":{"ID":476363,"DIS_CODE":0,"TOWNNAME":"善化區","LI":"文昌里","LIN":"18鄰","STREET":"中正路","SECT":" ","MAREA":" ","LANE":" ","ALLEY":" ","HOUSE_NO":"２８６號","E_COORD97":177711.47,"N_COORD97":2558463.25,"ADDRESS":"中正路２８６號","OBJECTID":476338},"geometry":{"x":177711.4700000016,"y":2558463.2500000019}},{"attributes":{"ID":476364,"DIS_CODE":0,"TOWNNAME":"安南區","LI":"安順里","LIN":"18鄰","STREET":"安豐三街","SECT":" ","MAREA":" ","LANE":" ","ALLEY":" ","HOUSE_NO":"１８３號","E_COORD97":169678.20999999999,"N_COORD97":2549921.5,"ADDRESS":"安豐三街１８３號","OBJECTID":476339},"geometry":{"x":169678.21000000183,"y":2549921.5000000019}},{"attributes":{"ID":476365,"DIS_CODE":0,"TOWNNAME":"安南區","LI":"安順里","LIN":"18鄰","STREET":"安豐三街","SECT":" ","MAREA":" ","LANE":" ","ALLEY":" ","HOUSE_NO":"１８５號","E_COORD97":169684.70999999999,"N_COORD97":2549921.1200000001,"ADDRESS":"安豐三街１８５號","OBJECTID":476340},"geometry":{"x":169684.70999999996,"y":2549921.1200000029}},{"attributes":{"ID":476366,"DIS_CODE":0,"TOWNNAME":"安南區","LI":"安順里","LIN":"18鄰","STREET":"安豐三街","SECT":" ","MAREA":" ","LANE":" ","ALLEY":" ","HOUSE_NO":"１８７號","E_COORD97":169690.63,"N_COORD97":2549920.9300000002,"ADDRESS":"安豐三街１８７號","OBJECTID":476341},"geometry":{"x":169690.63000000175,"y":2549920.9300000016}},{"attributes":{"ID":476367,"DIS_CODE":0,"TOWNNAME":"仁德區","LI":"上崙里","LIN":"18鄰","STREET":"德崙路","SECT":" ","MAREA":" ","LANE":" ","ALLEY":" ","HOUSE_NO":"３２２號","E_COORD97":173905.84,"N_COORD97":2538112.5099999998,"ADDRESS":"德崙路３２２號","OBJECTID":476342},"geometry":{"x":173905.83999999985,"y":2538112.5100000016}},{"attributes":{"ID":476368,"DIS_CODE":0,"TOWNNAME":"仁德區","LI":"大甲里","LIN":"18鄰","STREET":"中正西路","SECT":" ","MAREA":" ","LANE":" ","ALLEY":" ","HOUSE_NO":"５７６號","E_COORD97":169036.48999999999,"N_COORD97":2535656,"ADDRESS":"中正西路５７６號","OBJECTID":476343},"geometry":{"x":169036.49000000115,"y":2535656}},{"attributes":{"ID":476369,"DIS_CODE":0,"TOWNNAME":"仁德區","LI":"大甲里","LIN":"18鄰","STREET":"行大一街","SECT":" ","MAREA":" ","LANE":" ","ALLEY":" ","HOUSE_NO":"４３７號","E_COORD97":169366.72,"N_COORD97":2535203.7400000002,"ADDRESS":"行大一街４３７號","OBJECTID":476344},"geometry":{"x":169366.72000000067,"y":2535203.7400000002}},{"attributes":{"ID":476370,"DIS_CODE":0,"TOWNNAME":"仁德區","LI":"大甲里","LIN":"18鄰","STREET":"行大一街","SECT":" ","MAREA":" ","LANE":" ","ALLEY":" ","HOUSE_NO":"４３１號","E_COORD97":169376.70999999999,"N_COORD97":2535195.7400000002,"ADDRESS":"行大一街４３１號","OBJECTID":476345},"geometry":{"x":169376.71000000089,"y":2535195.7400000021}},{"attributes":{"ID":476371,"DIS_CODE":0,"TOWNNAME":"仁德區","LI":"土庫里","LIN":"18鄰","STREET":"土庫一街","SECT":" ","MAREA":" ","LANE":" ","ALLEY":" ","HOUSE_NO":"４６號","E_COORD97":174563.03,"N_COORD97":2543118.5,"ADDRESS":"土庫一街４６號","OBJECTID":476346},"geometry":{"x":174563.03000000026,"y":2543118.5}},{"attributes":{"ID":476372,"DIS_CODE":0,"TOWNNAME":"仁德區","LI":"大甲里","LIN":"18鄰","STREET":"中正西路","SECT":" ","MAREA":" ","LANE":" ","ALLEY":" ","HOUSE_NO":"４１８號","E_COORD97":169511.41,"N_COORD97":2535443.75,"ADDRESS":"中正西路４１８號","OBJECTID":476347},"geometry":{"x":169511.41000000108,"y":2535443.75}},{"attributes":{"ID":476373,"DIS_CODE":0,"TOWNNAME":"仁德區","LI":"土庫里","LIN":"18鄰","STREET":"土庫一街","SECT":" ","MAREA":" ","LANE":" ","ALLEY":" ","HOUSE_NO":"３６號","E_COORD97":174529.09,"N_COORD97":2543109.25,"ADDRESS":"土庫一街３６號","OBJECTID":476348},"geometry":{"x":174529.09000000078,"y":2543109.25}},{"attributes":{"ID":476374,"DIS_CODE":0,"TOWNNAME":"仁德區","LI":"大甲里","LIN":"18鄰","STREET":"中正西路","SECT":" ","MAREA":" ","LANE":" ","ALLEY":" ","HOUSE_NO":"５５２號","E_COORD97":169136.69,"N_COORD97":2535579.7400000002,"ADDRESS":"中正西路５５２號","OBJECTID":476349},"geometry":{"x":169136.69000000134,"y":2535579.7400000002}},{"attributes":{"ID":476375,"DIS_CODE":0,"TOWNNAME":"仁德區","LI":"大甲里","LIN":"18鄰","STREET":"行大一街","SECT":" ","MAREA":" ","LANE":" ","ALLEY":" ","HOUSE_NO":"５１８號","E_COORD97":169288.54000000001,"N_COORD97":2535260.25,"ADDRESS":"行大一街５１８號","OBJECTID":476350},"geometry":{"x":169288.54000000097,"y":2535260.25}},{"attributes":{"ID":476376,"DIS_CODE":0,"TOWNNAME":"仁德區","LI":"大甲里","LIN":"18鄰","STREET":"行大一街","SECT":" ","MAREA":" ","LANE":" ","ALLEY":" ","HOUSE_NO":"４３３號","E_COORD97":169373.82000000001,"N_COORD97":2535200.2400000002,"ADDRESS":"行大一街４３３號","OBJECTID":476351},"geometry":{"x":169373.8200000003,"y":2535200.2400000002}},{"attributes":{"ID":476377,"DIS_CODE":0,"TOWNNAME":"仁德區","LI":"土庫里","LIN":"18鄰","STREET":"土庫一街","SECT":" ","MAREA":" ","LANE":" ","ALLEY":" ","HOUSE_NO":"２６號","E_COORD97":174476.5,"N_COORD97":2543092.5,"ADDRESS":"土庫一街２６號","OBJECTID":476352},"geometry":{"x":174476.5,"y":2543092.5000000019}},{"attributes":{"ID":476378,"DIS_CODE":0,"TOWNNAME":"仁德區","LI":"大甲里","LIN":"18鄰","STREET":"中正西路","SECT":" ","MAREA":" ","LANE":" ","ALLEY":" ","HOUSE_NO":"５２６號","E_COORD97":169208.01999999999,"N_COORD97":2535550.25,"ADDRESS":"中正西路５２６號","OBJECTID":476353},"geometry":{"x":169208.02000000048,"y":2535550.2500000037}},{"attributes":{"ID":476379,"DIS_CODE":0,"TOWNNAME":"仁德區","LI":"大甲里","LIN":"18鄰","STREET":"行大街","SECT":" ","MAREA":" ","LANE":" ","ALLEY":" ","HOUSE_NO":"５３１號","E_COORD97":169214.98999999999,"N_COORD97":2535350.5,"ADDRESS":"行大街５３１號","OBJECTID":476354},"geometry":{"x":169214.99000000022,"y":2535350.5}},{"attributes":{"ID":476380,"DIS_CODE":0,"TOWNNAME":"仁德區","LI":"大甲里","LIN":"18鄰","STREET":"行大街","SECT":" ","MAREA":" ","LANE":" ","ALLEY":" ","HOUSE_NO":"５０９號","E_COORD97":169256.10000000001,"N_COORD97":2535342.75,"ADDRESS":"行大街５０９號","OBJECTID":476355},"geometry":{"x":169256.09999999963,"y":2535342.75}},{"attributes":{"ID":476381,"DIS_CODE":0,"TOWNNAME":"仁德區","LI":"大甲里","LIN":"18鄰","STREET":"行大街","SECT":" ","MAREA":" ","LANE":" ","ALLEY":" ","HOUSE_NO":"４６１號","E_COORD97":169353.26000000001,"N_COORD97":2535308.2400000002,"ADDRESS":"行大街４６１號","OBJECTID":476356},"geometry":{"x":169353.25999999978,"y":2535308.2400000002}},{"attributes":{"ID":476382,"DIS_CODE":0,"TOWNNAME":"官田區","LI":"隆本里","LIN":"18鄰","STREET":"忠孝街","SECT":" ","MAREA":" ","LANE":" ","ALLEY":" ","HOUSE_NO":"１３３號","E_COORD97":179995.75,"N_COORD97":2566365.5899999999,"ADDRESS":"忠孝街１３３號","OBJECTID":476357},"geometry":{"x":179995.75,"y":2566365.5899999999}},{"attributes":{"ID":476383,"DIS_CODE":0,"TOWNNAME":"中西區","LI":"福安里","LIN":"18鄰","STREET":"友愛街","SECT":" ","MAREA":" ","LANE":" ","ALLEY":" ","HOUSE_NO":"８６號","E_COORD97":167927.45000000001,"N_COORD97":2543572.2200000002,"ADDRESS":"友愛街８６號","OBJECTID":476358},"geometry":{"x":167927.45000000205,"y":2543572.2200000007}},{"attributes":{"ID":476384,"DIS_CODE":0,"TOWNNAME":"中西區","LI":"福安里","LIN":"18鄰","STREET":"友愛街","SECT":" ","MAREA":" ","LANE":" ","ALLEY":" ","HOUSE_NO":"８８號","E_COORD97":167922.26999999999,"N_COORD97":2543573.5499999998,"ADDRESS":"友愛街８８號","OBJECTID":476359},"geometry":{"x":167922.26999999955,"y":2543573.5499999989}},{"attributes":{"ID":476385,"DIS_CODE":0,"TOWNNAME":"中西區","LI":"福安里","LIN":"18鄰","STREET":"友愛街","SECT":" ","MAREA":" ","LANE":" ","ALLEY":" ","HOUSE_NO":"９０號","E_COORD97":167917.07999999999,"N_COORD97":2543575.8100000001,"ADDRESS":"友愛街９０號","OBJECTID":476360},"geometry":{"x":167917.08000000007,"y":2543575.8100000024}},{"attributes":{"ID":476386,"DIS_CODE":0,"TOWNNAME":"東區","LI":"裕聖里","LIN":"18鄰","STREET":"裕信六街","SECT":" ","MAREA":" ","LANE":" ","ALLEY":" ","HOUSE_NO":"１６１號","E_COORD97":172854.081019,"N_COORD97":2541902.2487300001,"ADDRESS":"裕信六街１６１號","OBJECTID":476361},"geometry":{"x":172854.08101900108,"y":2541902.2487280015}},{"attributes":{"ID":476387,"DIS_CODE":0,"TOWNNAME":"東區","LI":"裕聖里","LIN":"18鄰","STREET":"裕義路","SECT":" ","MAREA":" ","LANE":" ","ALLEY":" ","HOUSE_NO":"７１６號","E_COORD97":172898.13,"N_COORD97":2541918.4900000002,"ADDRESS":"裕義路７１６號","OBJECTID":476362},"geometry":{"x":172898.13000000082,"y":2541918.4900000002}},{"attributes":{"ID":476388,"DIS_CODE":0,"TOWNNAME":"東區","LI":"裕聖里","LIN":"18鄰","STREET":"裕義路","SECT":" ","MAREA":" ","LANE":" ","ALLEY":" ","HOUSE_NO":"６３８號","E_COORD97":172889.56645799999,"N_COORD97":2542031.98508,"ADDRESS":"裕義路６３８號","OBJECTID":476363},"geometry":{"x":172889.56645799987,"y":2542031.9850790016}},{"attributes":{"ID":476389,"DIS_CODE":0,"TOWNNAME":"東區","LI":"崇學里","LIN":"18鄰","STREET":"崇德路","SECT":" ","MAREA":" ","LANE":" ","ALLEY":" ","HOUSE_NO":"２８７號","E_COORD97":170260.44,"N_COORD97":2542041.9300000002,"ADDRESS":"崇德路２８７號","OBJECTID":476364},"geometry":{"x":170260.44000000134,"y":2542041.9300000016}},{"attributes":{"ID":476390,"DIS_CODE":0,"TOWNNAME":"東區","LI":"裕聖里","LIN":"18鄰","STREET":"裕敬五街","SECT":" ","MAREA":" ","LANE":" ","ALLEY":" ","HOUSE_NO":"１０９號","E_COORD97":172849.59,"N_COORD97":2541978.0800000001,"ADDRESS":"裕敬五街１０９號","OBJECTID":476365},"geometry":{"x":172849.59000000078,"y":2541978.0800000001}},{"attributes":{"ID":476391,"DIS_CODE":0,"TOWNNAME":"東區","LI":"裕聖里","LIN":"18鄰","STREET":"裕敬五街","SECT":" ","MAREA":" ","LANE":" ","ALLEY":" ","HOUSE_NO":"１２７號","E_COORD97":172850.42999999999,"N_COORD97":2541931.9199999999,"ADDRESS":"裕敬五街１２７號","OBJECTID":476366},"geometry":{"x":172850.43000000063,"y":2541931.9199999999}},{"attributes":{"ID":476392,"DIS_CODE":0,"TOWNNAME":"東區","LI":"裕聖里","LIN":"18鄰","STREET":"裕敬五街","SECT":" ","MAREA":" ","LANE":" ","ALLEY":" ","HOUSE_NO":"１２９號","E_COORD97":172849.73000000001,"N_COORD97":2541929.1099999999,"ADDRESS":"裕敬五街１２９號","OBJECTID":476367},"geometry":{"x":172849.73000000045,"y":2541929.1100000013}},{"attributes":{"ID":476393,"DIS_CODE":0,"TOWNNAME":"東區","LI":"裕聖里","LIN":"18鄰","STREET":"裕敬五街","SECT":" ","MAREA":" ","LANE":" ","ALLEY":" ","HOUSE_NO":"１３１號","E_COORD97":172851,"N_COORD97":2541921.9500000002,"ADDRESS":"裕敬五街１３１號","OBJECTID":476368},"geometry":{"x":172851,"y":2541921.950000003}},{"attributes":{"ID":476394,"DIS_CODE":0,"TOWNNAME":"東區","LI":"裕聖里","LIN":"18鄰","STREET":"裕敬五街","SECT":" ","MAREA":" ","LANE":" ","ALLEY":" ","HOUSE_NO":"１３３號","E_COORD97":172849.73000000001,"N_COORD97":2541916.8999999999,"ADDRESS":"裕敬五街１３３號","OBJECTID":476369},"geometry":{"x":172849.73000000045,"y":2541916.9000000022}},{"attributes":{"ID":476395,"DIS_CODE":0,"TOWNNAME":"東區","LI":"裕聖里","LIN":"18鄰","STREET":"裕義路","SECT":" ","MAREA":" ","LANE":" ","ALLEY":" ","HOUSE_NO":"６３０號","E_COORD97":172887.73000000001,"N_COORD97":2542055.6299999999,"ADDRESS":"裕義路６３０號","OBJECTID":476370},"geometry":{"x":172887.73000000138,"y":2542055.6299999971}},{"attributes":{"ID":476396,"DIS_CODE":0,"TOWNNAME":"東區","LI":"裕聖里","LIN":"18鄰","STREET":"裕敬五街","SECT":" ","MAREA":" ","LANE":" ","ALLEY":" ","HOUSE_NO":"３７號","E_COORD97":172845.53,"N_COORD97":2542142.4900000002,"ADDRESS":"裕敬五街３７號","OBJECTID":476371},"geometry":{"x":172845.53000000026,"y":2542142.4900000002}},{"attributes":{"ID":476397,"DIS_CODE":0,"TOWNNAME":"東區","LI":"和平里","LIN":"18鄰","STREET":"仁和路","SECT":" ","MAREA":" ","LANE":" ","ALLEY":" ","HOUSE_NO":"７７號之１８","E_COORD97":171225.54999999999,"N_COORD97":2541580.1600000001,"ADDRESS":"仁和路７７號之１８","OBJECTID":476372},"geometry":{"x":171225.55000000075,"y":2541580.160000002}},{"attributes":{"ID":476398,"DIS_CODE":0,"TOWNNAME":"東區","LI":"和平里","LIN":"18鄰","STREET":"仁和路","SECT":" ","MAREA":" ","LANE":" ","ALLEY":" ","HOUSE_NO":"７７號","E_COORD97":171220.42000000001,"N_COORD97":2541589.6499999999,"ADDRESS":"仁和路７７號","OBJECTID":476373},"geometry":{"x":171220.41999999993,"y":2541589.6500000022}},{"attributes":{"ID":476399,"DIS_CODE":0,"TOWNNAME":"東區","LI":"和平里","LIN":"18鄰","STREET":"仁和路","SECT":" ","MAREA":" ","LANE":" ","ALLEY":" ","HOUSE_NO":"７７號之１","E_COORD97":171223.16,"N_COORD97":2541585.54,"ADDRESS":"仁和路７７號之１","OBJECTID":476374},"geometry":{"x":171223.16000000201,"y":2541585.5400000028}},{"attributes":{"ID":476400,"DIS_CODE":0,"TOWNNAME":"東區","LI":"和平里","LIN":"18鄰","STREET":"仁和路","SECT":" ","MAREA":" ","LANE":" ","ALLEY":" ","HOUSE_NO":"７７號之２","E_COORD97":171239.60999999999,"N_COORD97":2541597.9100000001,"ADDRESS":"仁和路７７號之２","OBJECTID":476375},"geometry":{"x":171239.61000000127,"y":2541597.910000002}},{"attributes":{"ID":476401,"DIS_CODE":0,"TOWNNAME":"東區","LI":"和平里","LIN":"18鄰","STREET":"仁和路","SECT":" ","MAREA":" ","LANE":" ","ALLEY":" ","HOUSE_NO":"７７號之３","E_COORD97":171243.91,"N_COORD97":2541599.6899999999,"ADDRESS":"仁和路７７號之３","OBJECTID":476376},"geometry":{"x":171243.91000000108,"y":2541599.6900000013}},{"attributes":{"ID":476402,"DIS_CODE":0,"TOWNNAME":"東區","LI":"和平里","LIN":"18鄰","STREET":"仁和路","SECT":" ","MAREA":" ","LANE":" ","ALLEY":" ","HOUSE_NO":"７７號之４","E_COORD97":171248.75,"N_COORD97":2541601.6600000001,"ADDRESS":"仁和路７７號之４","OBJECTID":476377},"geometry":{"x":171248.75,"y":2541601.6600000001}},{"attributes":{"ID":476403,"DIS_CODE":0,"TOWNNAME":"東區","LI":"和平里","LIN":"18鄰","STREET":"仁和路","SECT":" ","MAREA":" ","LANE":" ","ALLEY":" ","HOUSE_NO":"７７號之５","E_COORD97":171252.85999999999,"N_COORD97":2541603.9900000002,"ADDRESS":"仁和路７７號之５","OBJECTID":476378},"geometry":{"x":171252.86000000127,"y":2541603.9900000039}},{"attributes":{"ID":476404,"DIS_CODE":0,"TOWNNAME":"東區","LI":"和平里","LIN":"18鄰","STREET":"仁和路","SECT":" ","MAREA":" ","LANE":" ","ALLEY":" ","HOUSE_NO":"７７號之６","E_COORD97":171257.70000000001,"N_COORD97":2541605.9500000002,"ADDRESS":"仁和路７７號之６","OBJECTID":476379},"geometry":{"x":171257.70000000019,"y":2541605.9499999993}},{"attributes":{"ID":476405,"DIS_CODE":0,"TOWNNAME":"東區","LI":"和平里","LIN":"18鄰","STREET":"仁和路","SECT":" ","MAREA":" ","LANE":" ","ALLEY":" ","HOUSE_NO":"７７號之７","E_COORD97":171261.98999999999,"N_COORD97":2541607.7400000002,"ADDRESS":"仁和路７７號之７","OBJECTID":476380},"geometry":{"x":171261.99000000115,"y":2541607.7400000002}},{"attributes":{"ID":476406,"DIS_CODE":0,"TOWNNAME":"官田區","LI":"隆本里","LIN":"18鄰","STREET":"忠孝街","SECT":" ","MAREA":" ","LANE":" ","ALLEY":" ","HOUSE_NO":"１２６號","E_COORD97":180009.42000000001,"N_COORD97":2566367.71,"ADDRESS":"忠孝街１２６號","OBJECTID":476381},"geometry":{"x":180009.42000000086,"y":2566367.7100000028}},{"attributes":{"ID":476407,"DIS_CODE":0,"TOWNNAME":"善化區","LI":"文昌里","LIN":"18鄰","STREET":"中正路","SECT":" ","MAREA":" ","LANE":" ","ALLEY":" ","HOUSE_NO":"２８２號","E_COORD97":177711.59,"N_COORD97":2558453.5,"ADDRESS":"中正路２８２號","OBJECTID":476382},"geometry":{"x":177711.58999999985,"y":2558453.4999999981}},{"attributes":{"ID":476408,"DIS_CODE":0,"TOWNNAME":"善化區","LI":"文昌里","LIN":"18鄰","STREET":"中正路","SECT":" ","MAREA":" ","LANE":" ","ALLEY":" ","HOUSE_NO":"２８４號","E_COORD97":177711.25,"N_COORD97":2558458.25,"ADDRESS":"中正路２８４號","OBJECTID":476383},"geometry":{"x":177711.25,"y":2558458.25}},{"attributes":{"ID":476409,"DIS_CODE":0,"TOWNNAME":"善化區","LI":"文昌里","LIN":"18鄰","STREET":"興華路","SECT":" ","MAREA":" ","LANE":" ","ALLEY":" ","HOUSE_NO":"３２３號","E_COORD97":177736.10000000001,"N_COORD97":2558488,"ADDRESS":"興華路３２３號","OBJECTID":476384},"geometry":{"x":177736.10000000056,"y":2558488.0000000019}},{"attributes":{"ID":476410,"DIS_CODE":0,"TOWNNAME":"善化區","LI":"光文里","LIN":"18鄰","STREET":"信義路","SECT":" ","MAREA":" ","LANE":" ","ALLEY":" ","HOUSE_NO":"１３７號","E_COORD97":178240.34,"N_COORD97":2558975,"ADDRESS":"信義路１３７號","OBJECTID":476385},"geometry":{"x":178240.34000000078,"y":2558975}},{"attributes":{"ID":476411,"DIS_CODE":0,"TOWNNAME":"東區","LI":"大學里","LIN":"18鄰","STREET":"長榮路","SECT":"三段","MAREA":" ","LANE":" ","ALLEY":" ","HOUSE_NO":"３６號","E_COORD97":170216.66,"N_COORD97":2543719.7599999998,"ADDRESS":"長榮路三段３６號","OBJECTID":476386},"geometry":{"x":170216.66000000108,"y":2543719.7599999998}},{"attributes":{"ID":476412,"DIS_CODE":0,"TOWNNAME":"東區","LI":"大學里","LIN":"18鄰","STREET":"長榮路","SECT":"三段","MAREA":" ","LANE":" ","ALLEY":" ","HOUSE_NO":"３８號","E_COORD97":170216.67000000001,"N_COORD97":2543723.3799999999,"ADDRESS":"長榮路三段３８號","OBJECTID":476387},"geometry":{"x":170216.66999999993,"y":2543723.3800000008}},{"attributes":{"ID":476413,"DIS_CODE":0,"TOWNNAME":"東區","LI":"大學里","LIN":"18鄰","STREET":"長榮路","SECT":"三段","MAREA":" ","LANE":" ","ALLEY":" ","HOUSE_NO":"４０號","E_COORD97":170216.81,"N_COORD97":2543728.1200000001,"ADDRESS":"長榮路三段４０號","OBJECTID":476388},"geometry":{"x":170216.81000000052,"y":2543728.120000001}},{"attributes":{"ID":476414,"DIS_CODE":0,"TOWNNAME":"東區","LI":"大學里","LIN":"18鄰","STREET":"長榮路","SECT":"三段","MAREA":" ","LANE":" ","ALLEY":" ","HOUSE_NO":"４８號","E_COORD97":170218.89999999999,"N_COORD97":2543751.8100000001,"ADDRESS":"長榮路三段４８號","OBJECTID":476389},"geometry":{"x":170218.9000000013,"y":2543751.8100000024}},{"attributes":{"ID":476415,"DIS_CODE":0,"TOWNNAME":"東區","LI":"虎尾里","LIN":"18鄰","STREET":"富農街","SECT":"一段","MAREA":" ","LANE":" ","ALLEY":" ","HOUSE_NO":"１１８號","E_COORD97":171563.47,"N_COORD97":2542333.2000000002,"ADDRESS":"富農街一段１１８號","OBJECTID":476390},"geometry":{"x":171563.47000000067,"y":2542333.1999999993}},{"attributes":{"ID":476416,"DIS_CODE":0,"TOWNNAME":"東區","LI":"虎尾里","LIN":"18鄰","STREET":"富農街","SECT":"一段","MAREA":" ","LANE":" ","ALLEY":" ","HOUSE_NO":"１２８號","E_COORD97":171506.66,"N_COORD97":2542327,"ADDRESS":"富農街一段１２８號","OBJECTID":476391},"geometry":{"x":171506.66000000108,"y":2542327.0000000019}},{"attributes":{"ID":476417,"DIS_CODE":0,"TOWNNAME":"東區","LI":"虎尾里","LIN":"18鄰","STREET":"富農街","SECT":"一段","MAREA":" ","LANE":" ","ALLEY":" ","HOUSE_NO":"１３２號","E_COORD97":171510.84,"N_COORD97":2542342.8900000001,"ADDRESS":"富農街一段１３２號","OBJECTID":476392},"geometry":{"x":171510.83999999985,"y":2542342.8900000006}},{"attributes":{"ID":476418,"DIS_CODE":0,"TOWNNAME":"東區","LI":"虎尾里","LIN":"18鄰","STREET":"富農街","SECT":"一段","MAREA":" ","LANE":" ","ALLEY":" ","HOUSE_NO":"１３４號","E_COORD97":171511.03,"N_COORD97":2542346.8599999999,"ADDRESS":"富農街一段１３４號","OBJECTID":476393},"geometry":{"x":171511.03000000119,"y":2542346.8600000013}},{"attributes":{"ID":476419,"DIS_CODE":0,"TOWNNAME":"東區","LI":"虎尾里","LIN":"18鄰","STREET":"富農街","SECT":"一段","MAREA":" ","LANE":" ","ALLEY":" ","HOUSE_NO":"１３６號","E_COORD97":171510.84,"N_COORD97":2542351.0299999998,"ADDRESS":"富農街一段１３６號","OBJECTID":476394},"geometry":{"x":171510.83999999985,"y":2542351.0299999993}},{"attributes":{"ID":476420,"DIS_CODE":0,"TOWNNAME":"東區","LI":"虎尾里","LIN":"18鄰","STREET":"富農街","SECT":"一段","MAREA":" ","LANE":" ","ALLEY":" ","HOUSE_NO":"１４０號","E_COORD97":171515.41,"N_COORD97":2542361.7599999998,"ADDRESS":"富農街一段１４０號","OBJECTID":476395},"geometry":{"x":171515.41000000108,"y":2542361.7600000016}},{"attributes":{"ID":476421,"DIS_CODE":0,"TOWNNAME":"東區","LI":"虎尾里","LIN":"18鄰","STREET":"富農街","SECT":"一段","MAREA":" ","LANE":" ","ALLEY":" ","HOUSE_NO":"１４４號","E_COORD97":171515.60999999999,"N_COORD97":2542370.8900000001,"ADDRESS":"富農街一段１４４號","OBJECTID":476396},"geometry":{"x":171515.61000000127,"y":2542370.8899999987}},{"attributes":{"ID":476422,"DIS_CODE":0,"TOWNNAME":"東區","LI":"虎尾里","LIN":"18鄰","STREET":"富農街","SECT":"一段","MAREA":" ","LANE":" ","ALLEY":" ","HOUSE_NO":"１５０號","E_COORD97":171522.48000000001,"N_COORD97":2542394.4500000002,"ADDRESS":"富農街一段１５０號","OBJECTID":476397},"geometry":{"x":171522.48000000045,"y":2542394.4500000011}},{"attributes":{"ID":476423,"DIS_CODE":0,"TOWNNAME":"東區","LI":"虎尾里","LIN":"18鄰","STREET":"富農街","SECT":"一段","MAREA":" ","LANE":" ","ALLEY":" ","HOUSE_NO":"１５２號","E_COORD97":171529.82000000001,"N_COORD97":2542398.1200000001,"ADDRESS":"富農街一段１５２號","OBJECTID":476398},"geometry":{"x":171529.8200000003,"y":2542398.1200000029}},{"attributes":{"ID":476424,"DIS_CODE":0,"TOWNNAME":"東區","LI":"虎尾里","LIN":"18鄰","STREET":"富農街","SECT":"一段","MAREA":" ","LANE":" ","ALLEY":" ","HOUSE_NO":"１５４號","E_COORD97":171529.73999999999,"N_COORD97":2542402.7400000002,"ADDRESS":"富農街一段１５４號","OBJECTID":476399},"geometry":{"x":171529.74000000115,"y":2542402.7400000021}},{"attributes":{"ID":476425,"DIS_CODE":0,"TOWNNAME":"東區","LI":"虎尾里","LIN":"18鄰","STREET":"富農街","SECT":"一段","MAREA":" ","LANE":" ","ALLEY":" ","HOUSE_NO":"１５６號","E_COORD97":171530.54000000001,"N_COORD97":2542406.3500000001,"ADDRESS":"富農街一段１５６號","OBJECTID":476400},"geometry":{"x":171530.5400000019,"y":2542406.3499999996}}]}