{"displayFieldName":"TOWNNAME","fieldAliases":{"ID":"ID","DIS_CODE":"DIS_CODE","TOWNNAME":"TOWNNAME","LI":"LI","LIN":"LIN","STREET":"STREET","SECT":"SECT","MAREA":"MAREA","LANE":"LANE","ALLEY":"ALLEY","HOUSE_NO":"HOUSE_NO","E_COORD97":"E_COORD97","N_COORD97":"N_COORD97","ADDRESS":"ADDRESS","OBJECTID":"OBJECTID"},"geometryType":"esriGeometryPoint","spatialReference":{"wkid":102443,"latestWkid":3826},"fields":[{"name":"ID","type":"esriFieldTypeDouble","alias":"ID"},{"name":"DIS_CODE","type":"esriFieldTypeInteger","alias":"DIS_CODE"},{"name":"TOWNNAME","type":"esriFieldTypeString","alias":"TOWNNAME","length":8},{"name":"LI","type":"esriFieldTypeString","alias":"LI","length":8},{"name":"LIN","type":"esriFieldTypeString","alias":"LIN","length":12},{"name":"STREET","type":"esriFieldTypeString","alias":"STREET","length":20},{"name":"SECT","type":"esriFieldTypeString","alias":"SECT","length":8},{"name":"MAREA","type":"esriFieldTypeString","alias":"MAREA","length":12},{"name":"LANE","type":"esriFieldTypeString","alias":"LANE","length":10},{"name":"ALLEY","type":"esriFieldTypeString","alias":"ALLEY","length":10},{"name":"HOUSE_NO","type":"esriFieldTypeString","alias":"HOUSE_NO","length":20},{"name":"E_COORD97","type":"esriFieldTypeDouble","alias":"E_COORD97"},{"name":"N_COORD97","type":"esriFieldTypeDouble","alias":"N_COORD97"},{"name":"ADDRESS","type":"esriFieldTypeString","alias":"ADDRESS","length":50},{"name":"OBJECTID","type":"esriFieldTypeOID","alias":"OBJECTID"}],"features":[{"attributes":{"ID":358811,"DIS_CODE":0,"TOWNNAME":"安平區","LI":"文平里","LIN":"25鄰","STREET":"永華二街","SECT":" ","MAREA":" ","LANE":"４１巷","ALLEY":" ","HOUSE_NO":"９號","E_COORD97":166308.04999999999,"N_COORD97":2542947.9300000002,"ADDRESS":"永華二街４１巷９號","OBJECTID":358801},"geometry":{"x":166308.05000000075,"y":2542947.9300000016}},{"attributes":{"ID":358812,"DIS_CODE":0,"TOWNNAME":"北區","LI":"成德里","LIN":"25鄰","STREET":"育德路","SECT":" ","MAREA":" ","LANE":"２２１巷","ALLEY":" ","HOUSE_NO":"３０號","E_COORD97":168570.54000000001,"N_COORD97":2545761.4500000002,"ADDRESS":"育德路２２１巷３０號","OBJECTID":358802},"geometry":{"x":168570.54000000004,"y":2545761.4499999993}},{"attributes":{"ID":358813,"DIS_CODE":0,"TOWNNAME":"北區","LI":"文元里","LIN":"25鄰","STREET":"文賢二街","SECT":" ","MAREA":" ","LANE":"５００巷","ALLEY":" ","HOUSE_NO":"３８號","E_COORD97":167762.38,"N_COORD97":2546198.1000000001,"ADDRESS":"文賢二街５００巷３８號","OBJECTID":358803},"geometry":{"x":167762.37999999989,"y":2546198.1000000015}},{"attributes":{"ID":358814,"DIS_CODE":0,"TOWNNAME":"北區","LI":"長德里","LIN":"4鄰","STREET":"長北街","SECT":" ","MAREA":" ","LANE":"１５２巷","ALLEY":" ","HOUSE_NO":"１０號","E_COORD97":168522.23000000001,"N_COORD97":2544834.0899999999,"ADDRESS":"長北街１５２巷１０號","OBJECTID":358804},"geometry":{"x":168522.23000000045,"y":2544834.0900000017}},{"attributes":{"ID":358815,"DIS_CODE":0,"TOWNNAME":"仁德區","LI":"成功里","LIN":"19鄰","STREET":"成功一街","SECT":" ","MAREA":" ","LANE":"２０１巷","ALLEY":" ","HOUSE_NO":"１５號","E_COORD97":170605.95999999999,"N_COORD97":2539745.5099999998,"ADDRESS":"成功一街２０１巷１５號","OBJECTID":358805},"geometry":{"x":170605.96000000089,"y":2539745.5100000035}},{"attributes":{"ID":358816,"DIS_CODE":0,"TOWNNAME":"中西區","LI":"三合里","LIN":"8鄰","STREET":"成功路","SECT":" ","MAREA":" ","LANE":" ","ALLEY":" ","HOUSE_NO":"４５３號五樓之３","E_COORD97":167642.97,"N_COORD97":2544635.1600000001,"ADDRESS":"成功路４５３號五樓之３","OBJECTID":358806},"geometry":{"x":167642.96999999974,"y":2544635.160000002}},{"attributes":{"ID":358817,"DIS_CODE":0,"TOWNNAME":"中西區","LI":"三合里","LIN":"8鄰","STREET":"成功路","SECT":" ","MAREA":" ","LANE":" ","ALLEY":" ","HOUSE_NO":"４５３號五樓之５","E_COORD97":167642.97,"N_COORD97":2544635.1600000001,"ADDRESS":"成功路４５３號五樓之５","OBJECTID":358807},"geometry":{"x":167642.96999999974,"y":2544635.160000002}},{"attributes":{"ID":358818,"DIS_CODE":0,"TOWNNAME":"中西區","LI":"三合里","LIN":"8鄰","STREET":"成功路","SECT":" ","MAREA":" ","LANE":" ","ALLEY":" ","HOUSE_NO":"４５３號五樓之６","E_COORD97":167642.97,"N_COORD97":2544635.1600000001,"ADDRESS":"成功路４５３號五樓之６","OBJECTID":358808},"geometry":{"x":167642.96999999974,"y":2544635.160000002}},{"attributes":{"ID":358819,"DIS_CODE":0,"TOWNNAME":"中西區","LI":"三合里","LIN":"8鄰","STREET":"成功路","SECT":" ","MAREA":" ","LANE":" ","ALLEY":" ","HOUSE_NO":"４５３號五樓之７","E_COORD97":167642.97,"N_COORD97":2544635.1600000001,"ADDRESS":"成功路４５３號五樓之７","OBJECTID":358809},"geometry":{"x":167642.96999999974,"y":2544635.160000002}},{"attributes":{"ID":358820,"DIS_CODE":0,"TOWNNAME":"中西區","LI":"三合里","LIN":"8鄰","STREET":"成功路","SECT":" ","MAREA":" ","LANE":" ","ALLEY":" ","HOUSE_NO":"４５３號五樓之８","E_COORD97":167642.97,"N_COORD97":2544635.1600000001,"ADDRESS":"成功路４５３號五樓之８","OBJECTID":358810},"geometry":{"x":167642.96999999974,"y":2544635.160000002}},{"attributes":{"ID":358821,"DIS_CODE":0,"TOWNNAME":"中西區","LI":"三合里","LIN":"8鄰","STREET":"成功路","SECT":" ","MAREA":" ","LANE":" ","ALLEY":" ","HOUSE_NO":"４５３號五樓之９","E_COORD97":167642.97,"N_COORD97":2544635.1600000001,"ADDRESS":"成功路４５３號五樓之９","OBJECTID":358811},"geometry":{"x":167642.96999999974,"y":2544635.160000002}},{"attributes":{"ID":358822,"DIS_CODE":0,"TOWNNAME":"中西區","LI":"三合里","LIN":"8鄰","STREET":"成功路","SECT":" ","MAREA":" ","LANE":" ","ALLEY":" ","HOUSE_NO":"４５３號六樓之１","E_COORD97":167642.97,"N_COORD97":2544635.1600000001,"ADDRESS":"成功路４５３號六樓之１","OBJECTID":358812},"geometry":{"x":167642.96999999974,"y":2544635.160000002}},{"attributes":{"ID":358823,"DIS_CODE":0,"TOWNNAME":"中西區","LI":"三合里","LIN":"8鄰","STREET":"成功路","SECT":" ","MAREA":" ","LANE":" ","ALLEY":" ","HOUSE_NO":"４５３號六樓之２","E_COORD97":167642.97,"N_COORD97":2544635.1600000001,"ADDRESS":"成功路４５３號六樓之２","OBJECTID":358813},"geometry":{"x":167642.96999999974,"y":2544635.160000002}},{"attributes":{"ID":358824,"DIS_CODE":0,"TOWNNAME":"中西區","LI":"三合里","LIN":"8鄰","STREET":"成功路","SECT":" ","MAREA":" ","LANE":" ","ALLEY":" ","HOUSE_NO":"４５３號六樓之３","E_COORD97":167642.97,"N_COORD97":2544635.1600000001,"ADDRESS":"成功路４５３號六樓之３","OBJECTID":358814},"geometry":{"x":167642.96999999974,"y":2544635.160000002}},{"attributes":{"ID":358825,"DIS_CODE":0,"TOWNNAME":"北區","LI":"長德里","LIN":"4鄰","STREET":"長北街","SECT":" ","MAREA":" ","LANE":"１５２巷","ALLEY":" ","HOUSE_NO":"２號","E_COORD97":168501.79000000001,"N_COORD97":2544863.5,"ADDRESS":"長北街１５２巷２號","OBJECTID":358815},"geometry":{"x":168501.79000000097,"y":2544863.5}},{"attributes":{"ID":358826,"DIS_CODE":0,"TOWNNAME":"北區","LI":"長德里","LIN":"4鄰","STREET":"長北街","SECT":" ","MAREA":" ","LANE":"１５２巷","ALLEY":" ","HOUSE_NO":"４號","E_COORD97":168501.44,"N_COORD97":2544821.2799999998,"ADDRESS":"長北街１５２巷４號","OBJECTID":358816},"geometry":{"x":168501.44000000134,"y":2544821.2799999993}},{"attributes":{"ID":358827,"DIS_CODE":0,"TOWNNAME":"北區","LI":"長德里","LIN":"4鄰","STREET":"長北街","SECT":" ","MAREA":" ","LANE":"１５２巷","ALLEY":" ","HOUSE_NO":"６號","E_COORD97":168505.94,"N_COORD97":2544829.5899999999,"ADDRESS":"長北街１５２巷６號","OBJECTID":358817},"geometry":{"x":168505.94000000134,"y":2544829.5899999999}},{"attributes":{"ID":358828,"DIS_CODE":0,"TOWNNAME":"北區","LI":"長德里","LIN":"4鄰","STREET":"長北街","SECT":" ","MAREA":" ","LANE":"１５２巷","ALLEY":" ","HOUSE_NO":"８號","E_COORD97":168508.01999999999,"N_COORD97":2544834.0899999999,"ADDRESS":"長北街１５２巷８號","OBJECTID":358818},"geometry":{"x":168508.02000000048,"y":2544834.0900000017}},{"attributes":{"ID":358829,"DIS_CODE":0,"TOWNNAME":"北區","LI":"大和里","LIN":"25鄰","STREET":"大和路","SECT":" ","MAREA":" ","LANE":"３３０巷","ALLEY":" ","HOUSE_NO":"１１號","E_COORD97":166938.53,"N_COORD97":2546138,"ADDRESS":"大和路３３０巷１１號","OBJECTID":358819},"geometry":{"x":166938.53000000212,"y":2546138.0000000019}},{"attributes":{"ID":358830,"DIS_CODE":0,"TOWNNAME":"北區","LI":"大和里","LIN":"25鄰","STREET":"大和路","SECT":" ","MAREA":" ","LANE":"３３０巷","ALLEY":" ","HOUSE_NO":"１３號","E_COORD97":166942.17000000001,"N_COORD97":2546139.2799999998,"ADDRESS":"大和路３３０巷１３號","OBJECTID":358820},"geometry":{"x":166942.16999999993,"y":2546139.2799999993}},{"attributes":{"ID":358831,"DIS_CODE":0,"TOWNNAME":"北區","LI":"大和里","LIN":"25鄰","STREET":"大和路","SECT":" ","MAREA":" ","LANE":"３３０巷","ALLEY":" ","HOUSE_NO":"１５號","E_COORD97":166946.32000000001,"N_COORD97":2546141.25,"ADDRESS":"大和路３３０巷１５號","OBJECTID":358821},"geometry":{"x":166946.3200000003,"y":2546141.25}},{"attributes":{"ID":358832,"DIS_CODE":0,"TOWNNAME":"北區","LI":"大和里","LIN":"25鄰","STREET":"大和路","SECT":" ","MAREA":" ","LANE":"３３０巷","ALLEY":" ","HOUSE_NO":"１７號","E_COORD97":166950.60000000001,"N_COORD97":2546142.4700000002,"ADDRESS":"大和路３３０巷１７號","OBJECTID":358822},"geometry":{"x":166950.59999999963,"y":2546142.4700000007}},{"attributes":{"ID":358833,"DIS_CODE":0,"TOWNNAME":"北區","LI":"大和里","LIN":"25鄰","STREET":"大和路","SECT":" ","MAREA":" ","LANE":"３３０巷","ALLEY":" ","HOUSE_NO":"１９號","E_COORD97":166955.20000000001,"N_COORD97":2546144.8900000001,"ADDRESS":"大和路３３０巷１９號","OBJECTID":358823},"geometry":{"x":166955.20000000019,"y":2546144.8900000025}},{"attributes":{"ID":358834,"DIS_CODE":0,"TOWNNAME":"北區","LI":"大和里","LIN":"25鄰","STREET":"大和路","SECT":" ","MAREA":" ","LANE":"３３０巷","ALLEY":" ","HOUSE_NO":"２１號","E_COORD97":166962.29000000001,"N_COORD97":2546149.1699999999,"ADDRESS":"大和路３３０巷２１號","OBJECTID":358824},"geometry":{"x":166962.29000000097,"y":2546149.1700000018}},{"attributes":{"ID":358835,"DIS_CODE":0,"TOWNNAME":"仁德區","LI":"保安里","LIN":"19鄰","STREET":"文賢路","SECT":"二段","MAREA":" ","LANE":"１５巷","ALLEY":" ","HOUSE_NO":"４０號","E_COORD97":171904.26000000001,"N_COORD97":2535944.0800000001,"ADDRESS":"文賢路二段１５巷４０號","OBJECTID":358825},"geometry":{"x":171904.26000000071,"y":2535944.0800000001}},{"attributes":{"ID":358836,"DIS_CODE":0,"TOWNNAME":"仁德區","LI":"保安里","LIN":"19鄰","STREET":"文賢路","SECT":"二段","MAREA":" ","LANE":"１５巷","ALLEY":" ","HOUSE_NO":"３號","E_COORD97":171732.48000000001,"N_COORD97":2535862.5800000001,"ADDRESS":"文賢路二段１５巷３號","OBJECTID":358826},"geometry":{"x":171732.48000000045,"y":2535862.5800000001}},{"attributes":{"ID":358837,"DIS_CODE":0,"TOWNNAME":"仁德區","LI":"成功里","LIN":"19鄰","STREET":"成功一街","SECT":" ","MAREA":" ","LANE":"２０１巷","ALLEY":" ","HOUSE_NO":"１７號","E_COORD97":170610.60000000001,"N_COORD97":2539745.5099999998,"ADDRESS":"成功一街２０１巷１７號","OBJECTID":358827},"geometry":{"x":170610.59999999963,"y":2539745.5100000035}},{"attributes":{"ID":358838,"DIS_CODE":0,"TOWNNAME":"中西區","LI":"三合里","LIN":"8鄰","STREET":"成功路","SECT":" ","MAREA":" ","LANE":" ","ALLEY":" ","HOUSE_NO":"４５３號六樓之５","E_COORD97":167642.97,"N_COORD97":2544635.1600000001,"ADDRESS":"成功路４５３號六樓之５","OBJECTID":358828},"geometry":{"x":167642.96999999974,"y":2544635.160000002}},{"attributes":{"ID":358839,"DIS_CODE":0,"TOWNNAME":"中西區","LI":"三合里","LIN":"8鄰","STREET":"成功路","SECT":" ","MAREA":" ","LANE":" ","ALLEY":" ","HOUSE_NO":"４５３號六樓之６","E_COORD97":167642.97,"N_COORD97":2544635.1600000001,"ADDRESS":"成功路４５３號六樓之６","OBJECTID":358829},"geometry":{"x":167642.96999999974,"y":2544635.160000002}},{"attributes":{"ID":358840,"DIS_CODE":0,"TOWNNAME":"中西區","LI":"三合里","LIN":"8鄰","STREET":"成功路","SECT":" ","MAREA":" ","LANE":" ","ALLEY":" ","HOUSE_NO":"４５３號六樓之７","E_COORD97":167642.97,"N_COORD97":2544635.1600000001,"ADDRESS":"成功路４５３號六樓之７","OBJECTID":358830},"geometry":{"x":167642.96999999974,"y":2544635.160000002}},{"attributes":{"ID":358841,"DIS_CODE":0,"TOWNNAME":"中西區","LI":"三合里","LIN":"8鄰","STREET":"成功路","SECT":" ","MAREA":" ","LANE":" ","ALLEY":" ","HOUSE_NO":"４５３號六樓之８","E_COORD97":167642.97,"N_COORD97":2544635.1600000001,"ADDRESS":"成功路４５３號六樓之８","OBJECTID":358831},"geometry":{"x":167642.96999999974,"y":2544635.160000002}},{"attributes":{"ID":358842,"DIS_CODE":0,"TOWNNAME":"中西區","LI":"三合里","LIN":"8鄰","STREET":"成功路","SECT":" ","MAREA":" ","LANE":" ","ALLEY":" ","HOUSE_NO":"４５３號六樓之９","E_COORD97":167642.97,"N_COORD97":2544635.1600000001,"ADDRESS":"成功路４５３號六樓之９","OBJECTID":358832},"geometry":{"x":167642.96999999974,"y":2544635.160000002}},{"attributes":{"ID":358843,"DIS_CODE":0,"TOWNNAME":"中西區","LI":"三合里","LIN":"8鄰","STREET":"成功路","SECT":" ","MAREA":" ","LANE":" ","ALLEY":" ","HOUSE_NO":"４５３號七樓之１","E_COORD97":167642.97,"N_COORD97":2544635.1600000001,"ADDRESS":"成功路４５３號七樓之１","OBJECTID":358833},"geometry":{"x":167642.96999999974,"y":2544635.160000002}},{"attributes":{"ID":358844,"DIS_CODE":0,"TOWNNAME":"中西區","LI":"三合里","LIN":"8鄰","STREET":"成功路","SECT":" ","MAREA":" ","LANE":" ","ALLEY":" ","HOUSE_NO":"４５３號七樓之２","E_COORD97":167642.97,"N_COORD97":2544635.1600000001,"ADDRESS":"成功路４５３號七樓之２","OBJECTID":358834},"geometry":{"x":167642.96999999974,"y":2544635.160000002}},{"attributes":{"ID":358845,"DIS_CODE":0,"TOWNNAME":"中西區","LI":"三合里","LIN":"8鄰","STREET":"成功路","SECT":" ","MAREA":" ","LANE":" ","ALLEY":" ","HOUSE_NO":"４５３號七樓之３","E_COORD97":167642.97,"N_COORD97":2544635.1600000001,"ADDRESS":"成功路４５３號七樓之３","OBJECTID":358835},"geometry":{"x":167642.96999999974,"y":2544635.160000002}},{"attributes":{"ID":358846,"DIS_CODE":0,"TOWNNAME":"中西區","LI":"三合里","LIN":"8鄰","STREET":"成功路","SECT":" ","MAREA":" ","LANE":" ","ALLEY":" ","HOUSE_NO":"４５３號七樓之５","E_COORD97":167642.97,"N_COORD97":2544635.1600000001,"ADDRESS":"成功路４５３號七樓之５","OBJECTID":358836},"geometry":{"x":167642.96999999974,"y":2544635.160000002}},{"attributes":{"ID":358847,"DIS_CODE":0,"TOWNNAME":"仁德區","LI":"成功里","LIN":"19鄰","STREET":"成功一街","SECT":" ","MAREA":" ","LANE":"１８１巷","ALLEY":" ","HOUSE_NO":"４號","E_COORD97":170574.42000000001,"N_COORD97":2539766.0099999998,"ADDRESS":"成功一街１８１巷４號","OBJECTID":358837},"geometry":{"x":170574.41999999993,"y":2539766.0100000016}},{"attributes":{"ID":358848,"DIS_CODE":0,"TOWNNAME":"仁德區","LI":"成功里","LIN":"19鄰","STREET":"成功一街","SECT":" ","MAREA":" ","LANE":"２０１巷","ALLEY":" ","HOUSE_NO":"９號","E_COORD97":170591.39999999999,"N_COORD97":2539745.5099999998,"ADDRESS":"成功一街２０１巷９號","OBJECTID":358838},"geometry":{"x":170591.4000000013,"y":2539745.5100000035}},{"attributes":{"ID":358849,"DIS_CODE":0,"TOWNNAME":"仁德區","LI":"成功里","LIN":"19鄰","STREET":"成功一街","SECT":" ","MAREA":" ","LANE":"１８１巷","ALLEY":" ","HOUSE_NO":"２號","E_COORD97":170575.42000000001,"N_COORD97":2539770.5099999998,"ADDRESS":"成功一街１８１巷２號","OBJECTID":358839},"geometry":{"x":170575.42000000086,"y":2539770.5100000016}},{"attributes":{"ID":358850,"DIS_CODE":0,"TOWNNAME":"仁德區","LI":"保安里","LIN":"19鄰","STREET":"文賢路","SECT":"二段","MAREA":" ","LANE":"１５巷","ALLEY":" ","HOUSE_NO":"５０號","E_COORD97":171921.47,"N_COORD97":2535954.3300000001,"ADDRESS":"文賢路二段１５巷５０號","OBJECTID":358840},"geometry":{"x":171921.46999999974,"y":2535954.3300000019}},{"attributes":{"ID":358851,"DIS_CODE":0,"TOWNNAME":"仁德區","LI":"成功里","LIN":"19鄰","STREET":"成功一街","SECT":" ","MAREA":" ","LANE":"２０１巷","ALLEY":" ","HOUSE_NO":"６號","E_COORD97":170591.42000000001,"N_COORD97":2539734.5099999998,"ADDRESS":"成功一街２０１巷６號","OBJECTID":358841},"geometry":{"x":170591.41999999993,"y":2539734.5099999998}},{"attributes":{"ID":358852,"DIS_CODE":0,"TOWNNAME":"仁德區","LI":"成功里","LIN":"19鄰","STREET":"成功一街","SECT":" ","MAREA":" ","LANE":"２０１巷","ALLEY":" ","HOUSE_NO":"１１號","E_COORD97":170597.07000000001,"N_COORD97":2539745.2599999998,"ADDRESS":"成功一街２０１巷１１號","OBJECTID":358842},"geometry":{"x":170597.07000000123,"y":2539745.2600000016}},{"attributes":{"ID":358853,"DIS_CODE":0,"TOWNNAME":"仁德區","LI":"保安里","LIN":"19鄰","STREET":"文賢路","SECT":"二段","MAREA":" ","LANE":"１５巷","ALLEY":" ","HOUSE_NO":"５２號","E_COORD97":171925.76000000001,"N_COORD97":2535956.8300000001,"ADDRESS":"文賢路二段１５巷５２號","OBJECTID":358843},"geometry":{"x":171925.76000000071,"y":2535956.8300000019}},{"attributes":{"ID":358854,"DIS_CODE":0,"TOWNNAME":"仁德區","LI":"成功里","LIN":"19鄰","STREET":"成功一街","SECT":" ","MAREA":" ","LANE":"１８１巷","ALLEY":" ","HOUSE_NO":"３號","E_COORD97":170574.17999999999,"N_COORD97":2539789.52,"ADDRESS":"成功一街１８１巷３號","OBJECTID":358844},"geometry":{"x":170574.1799999997,"y":2539789.5200000014}},{"attributes":{"ID":358855,"DIS_CODE":0,"TOWNNAME":"仁德區","LI":"保安里","LIN":"19鄰","STREET":"文賢路","SECT":"二段","MAREA":" ","LANE":"１５巷","ALLEY":" ","HOUSE_NO":"４６號","E_COORD97":171912.95999999999,"N_COORD97":2535949.3300000001,"ADDRESS":"文賢路二段１５巷４６號","OBJECTID":358845},"geometry":{"x":171912.96000000089,"y":2535949.3299999982}},{"attributes":{"ID":358856,"DIS_CODE":0,"TOWNNAME":"仁德區","LI":"成功里","LIN":"19鄰","STREET":"成功一街","SECT":" ","MAREA":" ","LANE":"２０１巷","ALLEY":" ","HOUSE_NO":"３號","E_COORD97":170578.01999999999,"N_COORD97":2539745.5099999998,"ADDRESS":"成功一街２０１巷３號","OBJECTID":358846},"geometry":{"x":170578.02000000048,"y":2539745.5100000035}},{"attributes":{"ID":358857,"DIS_CODE":0,"TOWNNAME":"仁德區","LI":"後壁里","LIN":"19鄰","STREET":"德崙路","SECT":" ","MAREA":" ","LANE":"２１巷","ALLEY":" ","HOUSE_NO":"２９號","E_COORD97":173271.48999999999,"N_COORD97":2538676.02,"ADDRESS":"德崙路２１巷２９號","OBJECTID":358847},"geometry":{"x":173271.49000000022,"y":2538676.0199999996}},{"attributes":{"ID":358858,"DIS_CODE":0,"TOWNNAME":"官田區","LI":"隆本里","LIN":"19鄰","STREET":"勝利路","SECT":" ","MAREA":" ","LANE":"２７６巷","ALLEY":" ","HOUSE_NO":"１６號","E_COORD97":180046.04999999999,"N_COORD97":2566369.4100000001,"ADDRESS":"勝利路２７６巷１６號","OBJECTID":358848},"geometry":{"x":180046.04999999981,"y":2566369.4100000001}},{"attributes":{"ID":358859,"DIS_CODE":0,"TOWNNAME":"鹽水區","LI":"岸內里","LIN":"25鄰","STREET":" ","SECT":" ","MAREA":"新岸內","LANE":" ","ALLEY":" ","HOUSE_NO":"１之１５號","E_COORD97":174389.47,"N_COORD97":2580457.8999999999,"ADDRESS":"新岸內１之１５號","OBJECTID":358849},"geometry":{"x":174389.47000000067,"y":2580457.9000000004}},{"attributes":{"ID":358860,"DIS_CODE":0,"TOWNNAME":"鹽水區","LI":"岸內里","LIN":"25鄰","STREET":" ","SECT":" ","MAREA":"新岸內","LANE":" ","ALLEY":" ","HOUSE_NO":"１之１６號","E_COORD97":174389.07000000001,"N_COORD97":2580462.3900000001,"ADDRESS":"新岸內１之１６號","OBJECTID":358850},"geometry":{"x":174389.07000000123,"y":2580462.3900000025}},{"attributes":{"ID":358861,"DIS_CODE":0,"TOWNNAME":"鹽水區","LI":"岸內里","LIN":"25鄰","STREET":" ","SECT":" ","MAREA":"新岸內","LANE":" ","ALLEY":" ","HOUSE_NO":"１之１７號","E_COORD97":174388.48999999999,"N_COORD97":2580466.7200000002,"ADDRESS":"新岸內１之１７號","OBJECTID":358851},"geometry":{"x":174388.49000000022,"y":2580466.7200000044}},{"attributes":{"ID":358862,"DIS_CODE":0,"TOWNNAME":"鹽水區","LI":"岸內里","LIN":"25鄰","STREET":" ","SECT":" ","MAREA":"新岸內","LANE":" ","ALLEY":" ","HOUSE_NO":"１之２０號","E_COORD97":174386.97,"N_COORD97":2580478.52,"ADDRESS":"新岸內１之２０號","OBJECTID":358852},"geometry":{"x":174386.96999999974,"y":2580478.5200000014}},{"attributes":{"ID":358863,"DIS_CODE":0,"TOWNNAME":"鹽水區","LI":"岸內里","LIN":"25鄰","STREET":" ","SECT":" ","MAREA":"新岸內","LANE":" ","ALLEY":" ","HOUSE_NO":"１號之２０","E_COORD97":174386.97,"N_COORD97":2580478.52,"ADDRESS":"新岸內１號之２０","OBJECTID":358853},"geometry":{"x":174386.96999999974,"y":2580478.5200000014}},{"attributes":{"ID":358864,"DIS_CODE":0,"TOWNNAME":"鹽水區","LI":"岸內里","LIN":"25鄰","STREET":" ","SECT":" ","MAREA":"新岸內","LANE":" ","ALLEY":" ","HOUSE_NO":"１之２１號","E_COORD97":174386.57999999999,"N_COORD97":2580482.6000000001,"ADDRESS":"新岸內１之２１號","OBJECTID":358854},"geometry":{"x":174386.58000000007,"y":2580482.5999999996}},{"attributes":{"ID":358865,"DIS_CODE":0,"TOWNNAME":"鹽水區","LI":"岸內里","LIN":"25鄰","STREET":" ","SECT":" ","MAREA":"新岸內","LANE":" ","ALLEY":" ","HOUSE_NO":"１之２２號","E_COORD97":174386.48000000001,"N_COORD97":2580487.0699999998,"ADDRESS":"新岸內１之２２號","OBJECTID":358855},"geometry":{"x":174386.48000000138,"y":2580487.0700000003}},{"attributes":{"ID":358866,"DIS_CODE":0,"TOWNNAME":"鹽水區","LI":"岸內里","LIN":"25鄰","STREET":" ","SECT":" ","MAREA":"新岸內","LANE":" ","ALLEY":" ","HOUSE_NO":"１之２３號","E_COORD97":174385.85999999999,"N_COORD97":2580491.2200000002,"ADDRESS":"新岸內１之２３號","OBJECTID":358856},"geometry":{"x":174385.86000000127,"y":2580491.2200000025}},{"attributes":{"ID":358867,"DIS_CODE":0,"TOWNNAME":"鹽水區","LI":"岸內里","LIN":"25鄰","STREET":" ","SECT":" ","MAREA":"新岸內","LANE":" ","ALLEY":" ","HOUSE_NO":"１之２４號","E_COORD97":174385.45999999999,"N_COORD97":2580495.1699999999,"ADDRESS":"新岸內１之２４號","OBJECTID":358857},"geometry":{"x":174385.45999999996,"y":2580495.1699999999}},{"attributes":{"ID":358868,"DIS_CODE":0,"TOWNNAME":"鹽水區","LI":"岸內里","LIN":"25鄰","STREET":" ","SECT":" ","MAREA":"新岸內","LANE":" ","ALLEY":" ","HOUSE_NO":"１之２５號","E_COORD97":174385,"N_COORD97":2580499.6200000001,"ADDRESS":"新岸內１之２５號","OBJECTID":358858},"geometry":{"x":174385,"y":2580499.6200000029}},{"attributes":{"ID":358869,"DIS_CODE":0,"TOWNNAME":"鹽水區","LI":"岸內里","LIN":"25鄰","STREET":" ","SECT":" ","MAREA":"新岸內","LANE":" ","ALLEY":" ","HOUSE_NO":"１之２６號","E_COORD97":174384.44,"N_COORD97":2580503.6899999999,"ADDRESS":"新岸內１之２６號","OBJECTID":358859},"geometry":{"x":174384.44000000041,"y":2580503.6900000013}},{"attributes":{"ID":358870,"DIS_CODE":0,"TOWNNAME":"鹽水區","LI":"岸內里","LIN":"25鄰","STREET":" ","SECT":" ","MAREA":"新岸內","LANE":" ","ALLEY":" ","HOUSE_NO":"１之２７號","E_COORD97":174383.85000000001,"N_COORD97":2580507.8100000001,"ADDRESS":"新岸內１之２７號","OBJECTID":358860},"geometry":{"x":174383.84999999963,"y":2580507.8100000024}},{"attributes":{"ID":358871,"DIS_CODE":0,"TOWNNAME":"鹽水區","LI":"岸內里","LIN":"25鄰","STREET":" ","SECT":" ","MAREA":"新岸內","LANE":" ","ALLEY":" ","HOUSE_NO":"１之２８號","E_COORD97":174383.29999999999,"N_COORD97":2580512.0899999999,"ADDRESS":"新岸內１之２８號","OBJECTID":358861},"geometry":{"x":174383.30000000168,"y":2580512.0900000017}},{"attributes":{"ID":358872,"DIS_CODE":0,"TOWNNAME":"鹽水區","LI":"岸內里","LIN":"25鄰","STREET":" ","SECT":" ","MAREA":"新岸內","LANE":" ","ALLEY":" ","HOUSE_NO":"１之２９號","E_COORD97":174383.12,"N_COORD97":2580515.8799999999,"ADDRESS":"新岸內１之２９號","OBJECTID":358862},"geometry":{"x":174383.12000000197,"y":2580515.8800000008}},{"attributes":{"ID":358873,"DIS_CODE":0,"TOWNNAME":"鹽水區","LI":"岸內里","LIN":"25鄰","STREET":" ","SECT":" ","MAREA":"新岸內","LANE":" ","ALLEY":" ","HOUSE_NO":"１之３０號","E_COORD97":174382.76000000001,"N_COORD97":2580520.1200000001,"ADDRESS":"新岸內１之３０號","OBJECTID":358863},"geometry":{"x":174382.75999999978,"y":2580520.1200000029}},{"attributes":{"ID":358874,"DIS_CODE":0,"TOWNNAME":"鹽水區","LI":"岸內里","LIN":"25鄰","STREET":" ","SECT":" ","MAREA":"新岸內","LANE":" ","ALLEY":" ","HOUSE_NO":"１之３１號","E_COORD97":174382.23999999999,"N_COORD97":2580524.3199999998,"ADDRESS":"新岸內１之３１號","OBJECTID":358864},"geometry":{"x":174382.24000000022,"y":2580524.3200000022}},{"attributes":{"ID":358875,"DIS_CODE":0,"TOWNNAME":"官田區","LI":"隆本里","LIN":"19鄰","STREET":"勝利路","SECT":" ","MAREA":" ","LANE":"２７６巷","ALLEY":" ","HOUSE_NO":"１８號","E_COORD97":180035.76999999999,"N_COORD97":2566365.46,"ADDRESS":"勝利路２７６巷１８號","OBJECTID":358865},"geometry":{"x":180035.77000000048,"y":2566365.4600000028}},{"attributes":{"ID":358876,"DIS_CODE":0,"TOWNNAME":"官田區","LI":"隆本里","LIN":"19鄰","STREET":"勝利路","SECT":" ","MAREA":" ","LANE":"２７６巷","ALLEY":" ","HOUSE_NO":"２０號","E_COORD97":180018.35999999999,"N_COORD97":2566364.0299999998,"ADDRESS":"勝利路２７６巷２０號","OBJECTID":358866},"geometry":{"x":180018.36000000127,"y":2566364.0300000012}},{"attributes":{"ID":358877,"DIS_CODE":0,"TOWNNAME":"鹽水區","LI":"岸內里","LIN":"25鄰","STREET":" ","SECT":" ","MAREA":"新岸內","LANE":" ","ALLEY":" ","HOUSE_NO":"１之３２號","E_COORD97":174381.97,"N_COORD97":2580528.4199999999,"ADDRESS":"新岸內１之３２號","OBJECTID":358867},"geometry":{"x":174381.9700000016,"y":2580528.4199999999}},{"attributes":{"ID":358878,"DIS_CODE":0,"TOWNNAME":"鹽水區","LI":"岸內里","LIN":"25鄰","STREET":" ","SECT":" ","MAREA":"新岸內","LANE":" ","ALLEY":" ","HOUSE_NO":"１之３３號","E_COORD97":174381.53,"N_COORD97":2580532.5800000001,"ADDRESS":"新岸內１之３３號","OBJECTID":358868},"geometry":{"x":174381.53000000026,"y":2580532.5800000019}},{"attributes":{"ID":358879,"DIS_CODE":0,"TOWNNAME":"鹽水區","LI":"岸內里","LIN":"25鄰","STREET":" ","SECT":" ","MAREA":"新岸內","LANE":" ","ALLEY":" ","HOUSE_NO":"１之３４號","E_COORD97":174381.23999999999,"N_COORD97":2580536.7400000002,"ADDRESS":"新岸內１之３４號","OBJECTID":358869},"geometry":{"x":174381.24000000115,"y":2580536.7400000002}},{"attributes":{"ID":358880,"DIS_CODE":0,"TOWNNAME":"鹽水區","LI":"岸內里","LIN":"25鄰","STREET":" ","SECT":" ","MAREA":"新岸內","LANE":" ","ALLEY":" ","HOUSE_NO":"１號之３４","E_COORD97":174381.23999999999,"N_COORD97":2580536.7400000002,"ADDRESS":"新岸內１號之３４","OBJECTID":358870},"geometry":{"x":174381.24000000115,"y":2580536.7400000002}},{"attributes":{"ID":358881,"DIS_CODE":0,"TOWNNAME":"安平區","LI":"建平里","LIN":"25鄰","STREET":"建平九街","SECT":" ","MAREA":" ","LANE":"６０巷","ALLEY":" ","HOUSE_NO":"２號","E_COORD97":166027.42000000001,"N_COORD97":2543555.8700000001,"ADDRESS":"建平九街６０巷２號","OBJECTID":358871},"geometry":{"x":166027.42000000086,"y":2543555.8700000029}},{"attributes":{"ID":358882,"DIS_CODE":0,"TOWNNAME":"安平區","LI":"文平里","LIN":"25鄰","STREET":"永華二街","SECT":" ","MAREA":" ","LANE":"４１巷","ALLEY":" ","HOUSE_NO":"４５號","E_COORD97":166219.69,"N_COORD97":2542954.4100000001,"ADDRESS":"永華二街４１巷４５號","OBJECTID":358872},"geometry":{"x":166219.69000000134,"y":2542954.410000002}},{"attributes":{"ID":358883,"DIS_CODE":0,"TOWNNAME":"安平區","LI":"文平里","LIN":"25鄰","STREET":"永華二街","SECT":" ","MAREA":" ","LANE":"４１巷","ALLEY":" ","HOUSE_NO":"４７號","E_COORD97":166215.85000000001,"N_COORD97":2542954.79,"ADDRESS":"永華二街４１巷４７號","OBJECTID":358873},"geometry":{"x":166215.85000000056,"y":2542954.790000001}},{"attributes":{"ID":358884,"DIS_CODE":0,"TOWNNAME":"安平區","LI":"文平里","LIN":"25鄰","STREET":"永華二街","SECT":" ","MAREA":" ","LANE":"４１巷","ALLEY":" ","HOUSE_NO":"４９號","E_COORD97":166211.53,"N_COORD97":2542955.1699999999,"ADDRESS":"永華二街４１巷４９號","OBJECTID":358874},"geometry":{"x":166211.53000000119,"y":2542955.1700000037}},{"attributes":{"ID":358885,"DIS_CODE":0,"TOWNNAME":"安平區","LI":"文平里","LIN":"25鄰","STREET":"永華二街","SECT":" ","MAREA":" ","LANE":"４０巷","ALLEY":" ","HOUSE_NO":"６號","E_COORD97":166309.85000000001,"N_COORD97":2542919.0899999999,"ADDRESS":"永華二街４０巷６號","OBJECTID":358875},"geometry":{"x":166309.84999999963,"y":2542919.0900000017}},{"attributes":{"ID":358886,"DIS_CODE":0,"TOWNNAME":"安平區","LI":"文平里","LIN":"25鄰","STREET":"永華二街","SECT":" ","MAREA":" ","LANE":"４０巷","ALLEY":" ","HOUSE_NO":"８號","E_COORD97":166304.95999999999,"N_COORD97":2542919.9500000002,"ADDRESS":"永華二街４０巷８號","OBJECTID":358876},"geometry":{"x":166304.96000000089,"y":2542919.9500000011}},{"attributes":{"ID":358887,"DIS_CODE":0,"TOWNNAME":"安平區","LI":"文平里","LIN":"25鄰","STREET":"永華二街","SECT":" ","MAREA":" ","LANE":"４０巷","ALLEY":" ","HOUSE_NO":"１０號","E_COORD97":166300.07000000001,"N_COORD97":2542920.8100000001,"ADDRESS":"永華二街４０巷１０號","OBJECTID":358877},"geometry":{"x":166300.07000000123,"y":2542920.8100000042}},{"attributes":{"ID":358888,"DIS_CODE":0,"TOWNNAME":"安平區","LI":"文平里","LIN":"25鄰","STREET":"永華二街","SECT":" ","MAREA":" ","LANE":"４０巷","ALLEY":" ","HOUSE_NO":"１２號","E_COORD97":166295.07999999999,"N_COORD97":2542921.1000000001,"ADDRESS":"永華二街４０巷１２號","OBJECTID":358878},"geometry":{"x":166295.08000000007,"y":2542921.0999999978}},{"attributes":{"ID":358889,"DIS_CODE":0,"TOWNNAME":"安平區","LI":"文平里","LIN":"25鄰","STREET":"永華二街","SECT":" ","MAREA":" ","LANE":"４０巷","ALLEY":" ","HOUSE_NO":"１４號","E_COORD97":166287.41,"N_COORD97":2542921.29,"ADDRESS":"永華二街４０巷１４號","OBJECTID":358879},"geometry":{"x":166287.41000000108,"y":2542921.2899999991}},{"attributes":{"ID":358890,"DIS_CODE":0,"TOWNNAME":"安平區","LI":"文平里","LIN":"25鄰","STREET":"永華二街","SECT":" ","MAREA":" ","LANE":"４０巷","ALLEY":" ","HOUSE_NO":"１６號","E_COORD97":166280.89000000001,"N_COORD97":2542922.6299999999,"ADDRESS":"永華二街４０巷１６號","OBJECTID":358880},"geometry":{"x":166280.88999999966,"y":2542922.629999999}},{"attributes":{"ID":358891,"DIS_CODE":0,"TOWNNAME":"安平區","LI":"文平里","LIN":"25鄰","STREET":"永華二街","SECT":" ","MAREA":" ","LANE":"４０巷","ALLEY":" ","HOUSE_NO":"１８號","E_COORD97":166275.89999999999,"N_COORD97":2542923.6899999999,"ADDRESS":"永華二街４０巷１８號","OBJECTID":358881},"geometry":{"x":166275.9000000013,"y":2542923.6899999976}},{"attributes":{"ID":358892,"DIS_CODE":0,"TOWNNAME":"南區","LI":"大忠里","LIN":"25鄰","STREET":"公英一街","SECT":" ","MAREA":" ","LANE":"７７巷","ALLEY":" ","HOUSE_NO":"１３號","E_COORD97":169290.01000000001,"N_COORD97":2541105.4900000002,"ADDRESS":"公英一街７７巷１３號","OBJECTID":358882},"geometry":{"x":169290.01000000071,"y":2541105.4900000039}},{"attributes":{"ID":358893,"DIS_CODE":0,"TOWNNAME":"官田區","LI":"隆本里","LIN":"19鄰","STREET":"勝利路","SECT":" ","MAREA":" ","LANE":"２７６巷","ALLEY":" ","HOUSE_NO":"８號","E_COORD97":180058.20000000001,"N_COORD97":2566380.2599999998,"ADDRESS":"勝利路２７６巷８號","OBJECTID":358883},"geometry":{"x":180058.20000000205,"y":2566380.2599999998}},{"attributes":{"ID":358894,"DIS_CODE":0,"TOWNNAME":"中西區","LI":"三合里","LIN":"8鄰","STREET":"成功路","SECT":" ","MAREA":" ","LANE":" ","ALLEY":" ","HOUSE_NO":"４５３號七樓之６","E_COORD97":167642.97,"N_COORD97":2544635.1600000001,"ADDRESS":"成功路４５３號七樓之６","OBJECTID":358884},"geometry":{"x":167642.96999999974,"y":2544635.160000002}},{"attributes":{"ID":358895,"DIS_CODE":0,"TOWNNAME":"中西區","LI":"三合里","LIN":"8鄰","STREET":"成功路","SECT":" ","MAREA":" ","LANE":" ","ALLEY":" ","HOUSE_NO":"４５３號七樓之７","E_COORD97":167642.97,"N_COORD97":2544635.1600000001,"ADDRESS":"成功路４５３號七樓之７","OBJECTID":358885},"geometry":{"x":167642.96999999974,"y":2544635.160000002}},{"attributes":{"ID":358896,"DIS_CODE":0,"TOWNNAME":"中西區","LI":"三合里","LIN":"8鄰","STREET":"成功路","SECT":" ","MAREA":" ","LANE":" ","ALLEY":" ","HOUSE_NO":"４５３號七樓之８","E_COORD97":167642.97,"N_COORD97":2544635.1600000001,"ADDRESS":"成功路４５３號七樓之８","OBJECTID":358886},"geometry":{"x":167642.96999999974,"y":2544635.160000002}},{"attributes":{"ID":358897,"DIS_CODE":0,"TOWNNAME":"中西區","LI":"三合里","LIN":"8鄰","STREET":"成功路","SECT":" ","MAREA":" ","LANE":" ","ALLEY":" ","HOUSE_NO":"４５３號八樓之１","E_COORD97":167642.97,"N_COORD97":2544635.1600000001,"ADDRESS":"成功路４５３號八樓之１","OBJECTID":358887},"geometry":{"x":167642.96999999974,"y":2544635.160000002}},{"attributes":{"ID":358898,"DIS_CODE":0,"TOWNNAME":"中西區","LI":"三合里","LIN":"8鄰","STREET":"成功路","SECT":" ","MAREA":" ","LANE":" ","ALLEY":" ","HOUSE_NO":"４５３號八樓之２","E_COORD97":167642.97,"N_COORD97":2544635.1600000001,"ADDRESS":"成功路４５３號八樓之２","OBJECTID":358888},"geometry":{"x":167642.96999999974,"y":2544635.160000002}},{"attributes":{"ID":358899,"DIS_CODE":0,"TOWNNAME":"中西區","LI":"三合里","LIN":"8鄰","STREET":"成功路","SECT":" ","MAREA":" ","LANE":" ","ALLEY":" ","HOUSE_NO":"４５３號八樓之３","E_COORD97":167642.97,"N_COORD97":2544635.1600000001,"ADDRESS":"成功路４５３號八樓之３","OBJECTID":358889},"geometry":{"x":167642.96999999974,"y":2544635.160000002}},{"attributes":{"ID":358900,"DIS_CODE":0,"TOWNNAME":"中西區","LI":"三合里","LIN":"8鄰","STREET":"成功路","SECT":" ","MAREA":" ","LANE":" ","ALLEY":" ","HOUSE_NO":"４５３號八樓之５","E_COORD97":167642.97,"N_COORD97":2544635.1600000001,"ADDRESS":"成功路４５３號八樓之５","OBJECTID":358890},"geometry":{"x":167642.96999999974,"y":2544635.160000002}},{"attributes":{"ID":358901,"DIS_CODE":0,"TOWNNAME":"中西區","LI":"三合里","LIN":"8鄰","STREET":"成功路","SECT":" ","MAREA":" ","LANE":" ","ALLEY":" ","HOUSE_NO":"４５３號八樓之６","E_COORD97":167642.97,"N_COORD97":2544635.1600000001,"ADDRESS":"成功路４５３號八樓之６","OBJECTID":358891},"geometry":{"x":167642.96999999974,"y":2544635.160000002}},{"attributes":{"ID":358902,"DIS_CODE":0,"TOWNNAME":"中西區","LI":"三合里","LIN":"8鄰","STREET":"成功路","SECT":" ","MAREA":" ","LANE":" ","ALLEY":" ","HOUSE_NO":"４５３號八樓之７","E_COORD97":167642.97,"N_COORD97":2544635.1600000001,"ADDRESS":"成功路４５３號八樓之７","OBJECTID":358892},"geometry":{"x":167642.96999999974,"y":2544635.160000002}},{"attributes":{"ID":358903,"DIS_CODE":0,"TOWNNAME":"中西區","LI":"三合里","LIN":"8鄰","STREET":"成功路","SECT":" ","MAREA":" ","LANE":" ","ALLEY":" ","HOUSE_NO":"４５３號八樓之８","E_COORD97":167642.97,"N_COORD97":2544635.1600000001,"ADDRESS":"成功路４５３號八樓之８","OBJECTID":358893},"geometry":{"x":167642.96999999974,"y":2544635.160000002}},{"attributes":{"ID":358904,"DIS_CODE":0,"TOWNNAME":"永康區","LI":"南灣里","LIN":"1鄰","STREET":"大灣二街","SECT":" ","MAREA":" ","LANE":" ","ALLEY":" ","HOUSE_NO":"１０３號","E_COORD97":174760.35000000001,"N_COORD97":2544771.75,"ADDRESS":"大灣二街１０３號","OBJECTID":358894},"geometry":{"x":174760.34999999963,"y":2544771.7500000037}},{"attributes":{"ID":358905,"DIS_CODE":0,"TOWNNAME":"官田區","LI":"隆本里","LIN":"19鄰","STREET":"興隆街","SECT":" ","MAREA":" ","LANE":"１７巷","ALLEY":" ","HOUSE_NO":"１１號","E_COORD97":180052.70999999999,"N_COORD97":2566392.1400000001,"ADDRESS":"興隆街１７巷１１號","OBJECTID":358895},"geometry":{"x":180052.71000000183,"y":2566392.1400000006}},{"attributes":{"ID":358906,"DIS_CODE":0,"TOWNNAME":"官田區","LI":"隆本里","LIN":"19鄰","STREET":"興隆街","SECT":" ","MAREA":" ","LANE":"１７巷","ALLEY":" ","HOUSE_NO":"１３號","E_COORD97":180056.10999999999,"N_COORD97":2566393.1499999999,"ADDRESS":"興隆街１７巷１３號","OBJECTID":358896},"geometry":{"x":180056.11000000127,"y":2566393.1499999985}},{"attributes":{"ID":358907,"DIS_CODE":0,"TOWNNAME":"官田區","LI":"隆本里","LIN":"19鄰","STREET":"興隆街","SECT":" ","MAREA":" ","LANE":"１７巷","ALLEY":" ","HOUSE_NO":"１５號","E_COORD97":180059.26000000001,"N_COORD97":2566393.8599999999,"ADDRESS":"興隆街１７巷１５號","OBJECTID":358897},"geometry":{"x":180059.26000000071,"y":2566393.8599999994}},{"attributes":{"ID":358908,"DIS_CODE":0,"TOWNNAME":"官田區","LI":"隆本里","LIN":"19鄰","STREET":"興隆街","SECT":" ","MAREA":" ","LANE":"１７巷","ALLEY":" ","HOUSE_NO":"１號","E_COORD97":180035.84,"N_COORD97":2566385.0800000001,"ADDRESS":"興隆街１７巷１號","OBJECTID":358898},"geometry":{"x":180035.83999999985,"y":2566385.0800000001}},{"attributes":{"ID":358909,"DIS_CODE":0,"TOWNNAME":"官田區","LI":"隆本里","LIN":"19鄰","STREET":"興隆街","SECT":" ","MAREA":" ","LANE":"１７巷","ALLEY":" ","HOUSE_NO":"３號","E_COORD97":180039.32999999999,"N_COORD97":2566385.6499999999,"ADDRESS":"興隆街１７巷３號","OBJECTID":358899},"geometry":{"x":180039.33000000007,"y":2566385.6500000004}},{"attributes":{"ID":358910,"DIS_CODE":0,"TOWNNAME":"官田區","LI":"隆本里","LIN":"19鄰","STREET":"興隆街","SECT":" ","MAREA":" ","LANE":"１７巷","ALLEY":" ","HOUSE_NO":"５號","E_COORD97":180042.29999999999,"N_COORD97":2566389.02,"ADDRESS":"興隆街１７巷５號","OBJECTID":358900},"geometry":{"x":180042.30000000075,"y":2566389.0199999996}},{"attributes":{"ID":358911,"DIS_CODE":0,"TOWNNAME":"官田區","LI":"隆本里","LIN":"19鄰","STREET":"興隆街","SECT":" ","MAREA":" ","LANE":"１７巷","ALLEY":" ","HOUSE_NO":"７號","E_COORD97":180045.98000000001,"N_COORD97":2566389.8999999999,"ADDRESS":"興隆街１７巷７號","OBJECTID":358901},"geometry":{"x":180045.98000000045,"y":2566389.9000000022}},{"attributes":{"ID":358912,"DIS_CODE":0,"TOWNNAME":"官田區","LI":"隆本里","LIN":"19鄰","STREET":"興隆街","SECT":" ","MAREA":" ","LANE":"１７巷","ALLEY":" ","HOUSE_NO":"９號","E_COORD97":180049.23000000001,"N_COORD97":2566390.6600000001,"ADDRESS":"興隆街１７巷９號","OBJECTID":358902},"geometry":{"x":180049.23000000045,"y":2566390.660000002}},{"attributes":{"ID":358913,"DIS_CODE":0,"TOWNNAME":"官田區","LI":"隆本里","LIN":"19鄰","STREET":"興隆街","SECT":" ","MAREA":" ","LANE":"２１巷","ALLEY":" ","HOUSE_NO":"２號","E_COORD97":180019.42999999999,"N_COORD97":2566385.1899999999,"ADDRESS":"興隆街２１巷２號","OBJECTID":358903},"geometry":{"x":180019.43000000063,"y":2566385.1899999976}},{"attributes":{"ID":358914,"DIS_CODE":0,"TOWNNAME":"北區","LI":"大和里","LIN":"25鄰","STREET":"大和路","SECT":" ","MAREA":" ","LANE":"３３０巷","ALLEY":" ","HOUSE_NO":"９號","E_COORD97":166930.79999999999,"N_COORD97":2546135.4700000002,"ADDRESS":"大和路３３０巷９號","OBJECTID":358904},"geometry":{"x":166930.79999999981,"y":2546135.4700000025}},{"attributes":{"ID":358915,"DIS_CODE":0,"TOWNNAME":"新營區","LI":"新東里","LIN":"25鄰","STREET":"民族路","SECT":" ","MAREA":" ","LANE":"１５０巷","ALLEY":" ","HOUSE_NO":"１０２號","E_COORD97":180701.14999999999,"N_COORD97":2579320.27,"ADDRESS":"民族路１５０巷１０２號","OBJECTID":358905},"geometry":{"x":180701.15000000224,"y":2579320.2700000014}},{"attributes":{"ID":358916,"DIS_CODE":0,"TOWNNAME":"歸仁區","LI":"許厝里","LIN":"5鄰","STREET":"中山路","SECT":"一段","MAREA":" ","LANE":"３１９巷","ALLEY":" ","HOUSE_NO":"２６號","E_COORD97":178426.85999999999,"N_COORD97":2540574.25,"ADDRESS":"中山路一段３１９巷２６號","OBJECTID":358906},"geometry":{"x":178426.86000000127,"y":2540574.25}},{"attributes":{"ID":358917,"DIS_CODE":0,"TOWNNAME":"東山區","LI":"東中里","LIN":"25鄰","STREET":"和平街","SECT":" ","MAREA":" ","LANE":"３２巷","ALLEY":" ","HOUSE_NO":"１號","E_COORD97":188831.64999999999,"N_COORD97":2579920.3100000001,"ADDRESS":"和平街３２巷１號","OBJECTID":358907},"geometry":{"x":188831.6500000013,"y":2579920.3100000024}},{"attributes":{"ID":358918,"DIS_CODE":0,"TOWNNAME":"官田區","LI":"隆本里","LIN":"19鄰","STREET":"興隆街","SECT":" ","MAREA":" ","LANE":"２１巷","ALLEY":" ","HOUSE_NO":"６號","E_COORD97":180020.23999999999,"N_COORD97":2566382.6600000001,"ADDRESS":"興隆街２１巷６號","OBJECTID":358908},"geometry":{"x":180020.24000000022,"y":2566382.6599999983}},{"attributes":{"ID":358919,"DIS_CODE":0,"TOWNNAME":"官田區","LI":"隆本里","LIN":"19鄰","STREET":"興隆街","SECT":" ","MAREA":" ","LANE":"２１巷","ALLEY":" ","HOUSE_NO":"８號","E_COORD97":180020.42999999999,"N_COORD97":2566380.1400000001,"ADDRESS":"興隆街２１巷８號","OBJECTID":358909},"geometry":{"x":180020.43000000156,"y":2566380.1400000043}},{"attributes":{"ID":358920,"DIS_CODE":0,"TOWNNAME":"南區","LI":"明亮里","LIN":"5鄰","STREET":"新都路","SECT":" ","MAREA":" ","LANE":"５２０巷","ALLEY":" ","HOUSE_NO":"４１號","E_COORD97":167064.98000000001,"N_COORD97":2540975.2599999998,"ADDRESS":"新都路５２０巷４１號","OBJECTID":358910},"geometry":{"x":167064.98000000138,"y":2540975.2600000016}},{"attributes":{"ID":358921,"DIS_CODE":0,"TOWNNAME":"中西區","LI":"三合里","LIN":"8鄰","STREET":"成功路","SECT":" ","MAREA":" ","LANE":" ","ALLEY":" ","HOUSE_NO":"４５３號九樓之１","E_COORD97":167642.97,"N_COORD97":2544635.1600000001,"ADDRESS":"成功路４５３號九樓之１","OBJECTID":358911},"geometry":{"x":167642.96999999974,"y":2544635.160000002}},{"attributes":{"ID":358922,"DIS_CODE":0,"TOWNNAME":"中西區","LI":"三合里","LIN":"8鄰","STREET":"成功路","SECT":" ","MAREA":" ","LANE":" ","ALLEY":" ","HOUSE_NO":"４５３號九樓之２","E_COORD97":167642.97,"N_COORD97":2544635.1600000001,"ADDRESS":"成功路４５３號九樓之２","OBJECTID":358912},"geometry":{"x":167642.96999999974,"y":2544635.160000002}},{"attributes":{"ID":358923,"DIS_CODE":0,"TOWNNAME":"中西區","LI":"三合里","LIN":"8鄰","STREET":"成功路","SECT":" ","MAREA":" ","LANE":" ","ALLEY":" ","HOUSE_NO":"４５３號九樓之３","E_COORD97":167642.97,"N_COORD97":2544635.1600000001,"ADDRESS":"成功路４５３號九樓之３","OBJECTID":358913},"geometry":{"x":167642.96999999974,"y":2544635.160000002}},{"attributes":{"ID":358924,"DIS_CODE":0,"TOWNNAME":"中西區","LI":"三合里","LIN":"8鄰","STREET":"成功路","SECT":" ","MAREA":" ","LANE":" ","ALLEY":" ","HOUSE_NO":"４５３號九樓之５","E_COORD97":167642.97,"N_COORD97":2544635.1600000001,"ADDRESS":"成功路４５３號九樓之５","OBJECTID":358914},"geometry":{"x":167642.96999999974,"y":2544635.160000002}},{"attributes":{"ID":358925,"DIS_CODE":0,"TOWNNAME":"東山區","LI":"科里里","LIN":"25鄰","STREET":" ","SECT":" ","MAREA":"枋子林","LANE":" ","ALLEY":" ","HOUSE_NO":"１２號之１","E_COORD97":188095.63,"N_COORD97":2576919.9300000002,"ADDRESS":"枋子林１２號之１","OBJECTID":358915},"geometry":{"x":188095.63000000082,"y":2576919.9299999997}},{"attributes":{"ID":358926,"DIS_CODE":0,"TOWNNAME":"東山區","LI":"科里里","LIN":"25鄰","STREET":" ","SECT":" ","MAREA":"枋子林","LANE":" ","ALLEY":" ","HOUSE_NO":"１２號之２","E_COORD97":188069.89999999999,"N_COORD97":2576933.0800000001,"ADDRESS":"枋子林１２號之２","OBJECTID":358916},"geometry":{"x":188069.90000000037,"y":2576933.0800000001}},{"attributes":{"ID":358927,"DIS_CODE":0,"TOWNNAME":"東山區","LI":"科里里","LIN":"25鄰","STREET":" ","SECT":" ","MAREA":"枋子林","LANE":" ","ALLEY":" ","HOUSE_NO":"１２號","E_COORD97":188114.31,"N_COORD97":2576904.3999999999,"ADDRESS":"枋子林１２號","OBJECTID":358917},"geometry":{"x":188114.31000000052,"y":2576904.4000000004}},{"attributes":{"ID":358928,"DIS_CODE":0,"TOWNNAME":"東山區","LI":"科里里","LIN":"25鄰","STREET":" ","SECT":" ","MAREA":"枋子林","LANE":" ","ALLEY":" ","HOUSE_NO":"１３號","E_COORD97":188112.59,"N_COORD97":2576893.1400000001,"ADDRESS":"枋子林１３號","OBJECTID":358918},"geometry":{"x":188112.59000000078,"y":2576893.1400000006}},{"attributes":{"ID":358929,"DIS_CODE":0,"TOWNNAME":"東山區","LI":"科里里","LIN":"25鄰","STREET":" ","SECT":" ","MAREA":"枋子林","LANE":" ","ALLEY":" ","HOUSE_NO":"１４號","E_COORD97":188137.57000000001,"N_COORD97":2576870.1699999999,"ADDRESS":"枋子林１４號","OBJECTID":358919},"geometry":{"x":188137.5700000003,"y":2576870.1700000018}},{"attributes":{"ID":358930,"DIS_CODE":0,"TOWNNAME":"安南區","LI":"安順里","LIN":"1鄰","STREET":"安和路","SECT":"四段","MAREA":" ","LANE":" ","ALLEY":" ","HOUSE_NO":"１１號","E_COORD97":169943.79999999999,"N_COORD97":2550119.8999999999,"ADDRESS":"安和路四段１１號","OBJECTID":358920},"geometry":{"x":169943.80000000075,"y":2550119.9000000004}},{"attributes":{"ID":358931,"DIS_CODE":0,"TOWNNAME":"南區","LI":"明亮里","LIN":"5鄰","STREET":"新都路","SECT":" ","MAREA":" ","LANE":"５２０巷","ALLEY":" ","HOUSE_NO":"４３號","E_COORD97":167067.01000000001,"N_COORD97":2540986,"ADDRESS":"新都路５２０巷４３號","OBJECTID":358921},"geometry":{"x":167067.01000000164,"y":2540986}},{"attributes":{"ID":358932,"DIS_CODE":0,"TOWNNAME":"南區","LI":"明亮里","LIN":"5鄰","STREET":"新都路","SECT":" ","MAREA":" ","LANE":"５２０巷","ALLEY":" ","HOUSE_NO":"４５號","E_COORD97":167073.98999999999,"N_COORD97":2540975.2599999998,"ADDRESS":"新都路５２０巷４５號","OBJECTID":358922},"geometry":{"x":167073.99000000022,"y":2540975.2600000016}},{"attributes":{"ID":358933,"DIS_CODE":0,"TOWNNAME":"安南區","LI":"長安里","LIN":"19鄰","STREET":"公學路","SECT":"二段","MAREA":" ","LANE":"１９０巷","ALLEY":" ","HOUSE_NO":"１１號","E_COORD97":167525.62,"N_COORD97":2552204.4500000002,"ADDRESS":"公學路二段１９０巷１１號","OBJECTID":358923},"geometry":{"x":167525.62000000011,"y":2552204.4499999993}},{"attributes":{"ID":358934,"DIS_CODE":0,"TOWNNAME":"東山區","LI":"東正里","LIN":"25鄰","STREET":" ","SECT":" ","MAREA":"東勢","LANE":" ","ALLEY":" ","HOUSE_NO":"１９８號","E_COORD97":189306.26000000001,"N_COORD97":2580569.9100000001,"ADDRESS":"東勢１９８號","OBJECTID":358924},"geometry":{"x":189306.26000000164,"y":2580569.9100000039}},{"attributes":{"ID":358935,"DIS_CODE":0,"TOWNNAME":"東山區","LI":"東正里","LIN":"25鄰","STREET":" ","SECT":" ","MAREA":"東勢","LANE":" ","ALLEY":" ","HOUSE_NO":"２０２號","E_COORD97":189320.51000000001,"N_COORD97":2580564.9100000001,"ADDRESS":"東勢２０２號","OBJECTID":358925},"geometry":{"x":189320.51000000071,"y":2580564.9100000001}},{"attributes":{"ID":358936,"DIS_CODE":0,"TOWNNAME":"東山區","LI":"東正里","LIN":"25鄰","STREET":" ","SECT":" ","MAREA":"東勢","LANE":" ","ALLEY":" ","HOUSE_NO":"２０４號","E_COORD97":189329.29999999999,"N_COORD97":2580559.7799999998,"ADDRESS":"東勢２０４號","OBJECTID":358926},"geometry":{"x":189329.29999999981,"y":2580559.7800000031}},{"attributes":{"ID":358937,"DIS_CODE":0,"TOWNNAME":"安南區","LI":"長安里","LIN":"19鄰","STREET":"公學路","SECT":"二段","MAREA":" ","LANE":"２２０巷","ALLEY":" ","HOUSE_NO":"１０號","E_COORD97":167491.17000000001,"N_COORD97":2552191.7599999998,"ADDRESS":"公學路二段２２０巷１０號","OBJECTID":358927},"geometry":{"x":167491.16999999993,"y":2552191.7599999998}},{"attributes":{"ID":358938,"DIS_CODE":0,"TOWNNAME":"南區","LI":"明亮里","LIN":"7鄰","STREET":"新都路","SECT":" ","MAREA":" ","LANE":"５０６巷","ALLEY":" ","HOUSE_NO":"３號","E_COORD97":167148.82000000001,"N_COORD97":2540909.0499999998,"ADDRESS":"新都路５０６巷３號","OBJECTID":358928},"geometry":{"x":167148.82000000123,"y":2540909.0500000045}},{"attributes":{"ID":358939,"DIS_CODE":0,"TOWNNAME":"安南區","LI":"長安里","LIN":"19鄰","STREET":"公學路","SECT":"二段","MAREA":" ","LANE":"２２０巷","ALLEY":" ","HOUSE_NO":"１６號","E_COORD97":167502.14000000001,"N_COORD97":2552214.9500000002,"ADDRESS":"公學路二段２２０巷１６號","OBJECTID":358929},"geometry":{"x":167502.1400000006,"y":2552214.950000003}},{"attributes":{"ID":358940,"DIS_CODE":0,"TOWNNAME":"安南區","LI":"長安里","LIN":"19鄰","STREET":"公學路","SECT":"二段","MAREA":" ","LANE":"２２０巷","ALLEY":" ","HOUSE_NO":"２０號","E_COORD97":167480.64000000001,"N_COORD97":2552219.73,"ADDRESS":"公學路二段２２０巷２０號","OBJECTID":358930},"geometry":{"x":167480.63999999966,"y":2552219.7300000004}},{"attributes":{"ID":358941,"DIS_CODE":0,"TOWNNAME":"安南區","LI":"長安里","LIN":"19鄰","STREET":"公學路","SECT":"二段","MAREA":" ","LANE":"２２０巷","ALLEY":" ","HOUSE_NO":"２６號","E_COORD97":167475.12,"N_COORD97":2552186.0800000001,"ADDRESS":"公學路二段２２０巷２６號","OBJECTID":358931},"geometry":{"x":167475.11999999918,"y":2552186.0800000019}},{"attributes":{"ID":358942,"DIS_CODE":0,"TOWNNAME":"安南區","LI":"長安里","LIN":"19鄰","STREET":"公學路","SECT":"二段","MAREA":" ","LANE":"２２０巷","ALLEY":" ","HOUSE_NO":"３５號","E_COORD97":167406.20000000001,"N_COORD97":2552149.8799999999,"ADDRESS":"公學路二段２２０巷３５號","OBJECTID":358932},"geometry":{"x":167406.20000000019,"y":2552149.879999999}},{"attributes":{"ID":358943,"DIS_CODE":0,"TOWNNAME":"安南區","LI":"長安里","LIN":"19鄰","STREET":"公學路","SECT":"二段","MAREA":" ","LANE":"２２０巷","ALLEY":" ","HOUSE_NO":"４２號","E_COORD97":167440.12,"N_COORD97":2552177.4300000002,"ADDRESS":"公學路二段２２０巷４２號","OBJECTID":358933},"geometry":{"x":167440.12000000104,"y":2552177.4299999997}},{"attributes":{"ID":358944,"DIS_CODE":0,"TOWNNAME":"安南區","LI":"長安里","LIN":"19鄰","STREET":"公學路","SECT":"二段","MAREA":" ","LANE":"２２０巷","ALLEY":" ","HOUSE_NO":"６號","E_COORD97":167483.35000000001,"N_COORD97":2552168.6499999999,"ADDRESS":"公學路二段２２０巷６號","OBJECTID":358934},"geometry":{"x":167483.35000000149,"y":2552168.6500000022}},{"attributes":{"ID":358945,"DIS_CODE":0,"TOWNNAME":"永康區","LI":"尚頂里","LIN":"19鄰","STREET":"南台街","SECT":" ","MAREA":" ","LANE":"３巷","ALLEY":" ","HOUSE_NO":"１８號","E_COORD97":170491.73999999999,"N_COORD97":2546870.4900000002,"ADDRESS":"南台街３巷１８號","OBJECTID":358935},"geometry":{"x":170491.74000000022,"y":2546870.4900000021}},{"attributes":{"ID":358946,"DIS_CODE":0,"TOWNNAME":"南區","LI":"明亮里","LIN":"4鄰","STREET":"新都路","SECT":" ","MAREA":" ","LANE":"５２０巷","ALLEY":" ","HOUSE_NO":"３９號","E_COORD97":167069.92000000001,"N_COORD97":2540964.7999999998,"ADDRESS":"新都路５２０巷３９號","OBJECTID":358936},"geometry":{"x":167069.92000000086,"y":2540964.8000000045}},{"attributes":{"ID":358947,"DIS_CODE":0,"TOWNNAME":"永康區","LI":"尚頂里","LIN":"19鄰","STREET":"南台街","SECT":" ","MAREA":" ","LANE":"３巷","ALLEY":" ","HOUSE_NO":"２８號","E_COORD97":170502.38,"N_COORD97":2546832.25,"ADDRESS":"南台街３巷２８號","OBJECTID":358937},"geometry":{"x":170502.37999999896,"y":2546832.25}},{"attributes":{"ID":358948,"DIS_CODE":0,"TOWNNAME":"南區","LI":"明亮里","LIN":"5鄰","STREET":"新都路","SECT":" ","MAREA":" ","LANE":"５２０巷","ALLEY":" ","HOUSE_NO":"４７號","E_COORD97":167076.03,"N_COORD97":2540985.71,"ADDRESS":"新都路５２０巷４７號","OBJECTID":358938},"geometry":{"x":167076.03000000212,"y":2540985.7100000009}},{"attributes":{"ID":358949,"DIS_CODE":0,"TOWNNAME":"南區","LI":"明亮里","LIN":"5鄰","STREET":"新都路","SECT":" ","MAREA":" ","LANE":"５２０巷","ALLEY":" ","HOUSE_NO":"４９號","E_COORD97":167086.5,"N_COORD97":2540973.5099999998,"ADDRESS":"新都路５２０巷４９號","OBJECTID":358939},"geometry":{"x":167086.50000000093,"y":2540973.5100000016}},{"attributes":{"ID":358950,"DIS_CODE":0,"TOWNNAME":"南區","LI":"明亮里","LIN":"5鄰","STREET":"新都路","SECT":" ","MAREA":" ","LANE":"５２０巷","ALLEY":" ","HOUSE_NO":"５１號","E_COORD97":167089.41,"N_COORD97":2540985.4199999999,"ADDRESS":"新都路５２０巷５１號","OBJECTID":358940},"geometry":{"x":167089.41000000015,"y":2540985.4199999999}},{"attributes":{"ID":358951,"DIS_CODE":0,"TOWNNAME":"南區","LI":"明亮里","LIN":"5鄰","STREET":"新都路","SECT":" ","MAREA":" ","LANE":"５２０巷","ALLEY":" ","HOUSE_NO":"５３號","E_COORD97":167098.13,"N_COORD97":2540970.8999999999,"ADDRESS":"新都路５２０巷５３號","OBJECTID":358941},"geometry":{"x":167098.12999999989,"y":2540970.9000000022}},{"attributes":{"ID":358952,"DIS_CODE":0,"TOWNNAME":"南區","LI":"明亮里","LIN":"5鄰","STREET":"新都路","SECT":" ","MAREA":" ","LANE":"５２０巷","ALLEY":" ","HOUSE_NO":"５５號","E_COORD97":167100.45999999999,"N_COORD97":2540983.1000000001,"ADDRESS":"新都路５２０巷５５號","OBJECTID":358942},"geometry":{"x":167100.46000000089,"y":2540983.1000000015}},{"attributes":{"ID":358953,"DIS_CODE":0,"TOWNNAME":"南區","LI":"明亮里","LIN":"6鄰","STREET":"新都路","SECT":" ","MAREA":" ","LANE":"５２０巷","ALLEY":" ","HOUSE_NO":"５７號","E_COORD97":167111.51000000001,"N_COORD97":2540969.1600000001,"ADDRESS":"新都路５２０巷５７號","OBJECTID":358943},"geometry":{"x":167111.51000000071,"y":2540969.160000002}},{"attributes":{"ID":358954,"DIS_CODE":0,"TOWNNAME":"安南區","LI":"安東里","LIN":"8鄰","STREET":"安和路","SECT":"一段","MAREA":" ","LANE":" ","ALLEY":" ","HOUSE_NO":"２４０號","E_COORD97":169329.23000000001,"N_COORD97":2547955.77,"ADDRESS":"安和路一段２４０號","OBJECTID":358944},"geometry":{"x":169329.22999999952,"y":2547955.7700000014}},{"attributes":{"ID":358955,"DIS_CODE":0,"TOWNNAME":"歸仁區","LI":"八甲里","LIN":"5鄰","STREET":"大光二街","SECT":" ","MAREA":" ","LANE":"２６巷","ALLEY":" ","HOUSE_NO":"１７號","E_COORD97":177935.07000000001,"N_COORD97":2541818.6099999999,"ADDRESS":"大光二街２６巷１７號","OBJECTID":358945},"geometry":{"x":177935.07000000216,"y":2541818.6099999994}},{"attributes":{"ID":358956,"DIS_CODE":0,"TOWNNAME":"歸仁區","LI":"歸南里","LIN":"5鄰","STREET":"中正南路","SECT":"一段","MAREA":" ","LANE":"４９２巷","ALLEY":" ","HOUSE_NO":"１３號","E_COORD97":176886.44,"N_COORD97":2540106.2799999998,"ADDRESS":"中正南路一段４９２巷１３號","OBJECTID":358946},"geometry":{"x":176886.44000000041,"y":2540106.2800000012}},{"attributes":{"ID":358957,"DIS_CODE":0,"TOWNNAME":"永康區","LI":"勝利里","LIN":"25鄰","STREET":"中華路","SECT":" ","MAREA":" ","LANE":"１５５巷","ALLEY":" ","HOUSE_NO":"５０號","E_COORD97":171474.76000000001,"N_COORD97":2544792.0600000001,"ADDRESS":"中華路１５５巷５０號","OBJECTID":358947},"geometry":{"x":171474.76000000071,"y":2544792.0600000024}},{"attributes":{"ID":358958,"DIS_CODE":0,"TOWNNAME":"永康區","LI":"西勢里","LIN":"25鄰","STREET":"廣興街","SECT":" ","MAREA":" ","LANE":"２６巷","ALLEY":" ","HOUSE_NO":"４６號","E_COORD97":175954.29999999999,"N_COORD97":2546428,"ADDRESS":"廣興街２６巷４６號","OBJECTID":358948},"geometry":{"x":175954.29999999981,"y":2546428.0000000037}},{"attributes":{"ID":358959,"DIS_CODE":0,"TOWNNAME":"永康區","LI":"崑山里","LIN":"25鄰","STREET":"大灣路","SECT":" ","MAREA":" ","LANE":"９４２巷","ALLEY":" ","HOUSE_NO":"８０號","E_COORD97":173705.35999999999,"N_COORD97":2544691.5499999998,"ADDRESS":"大灣路９４２巷８０號","OBJECTID":358949},"geometry":{"x":173705.3600000022,"y":2544691.5500000007}},{"attributes":{"ID":358960,"DIS_CODE":0,"TOWNNAME":"永康區","LI":"南灣里","LIN":"19鄰","STREET":"大灣一街","SECT":" ","MAREA":" ","LANE":"６２巷","ALLEY":" ","HOUSE_NO":"１０號","E_COORD97":174341.23999999999,"N_COORD97":2544734.04,"ADDRESS":"大灣一街６２巷１０號","OBJECTID":358950},"geometry":{"x":174341.24000000022,"y":2544734.0399999991}},{"attributes":{"ID":358961,"DIS_CODE":0,"TOWNNAME":"永康區","LI":"南灣里","LIN":"19鄰","STREET":"立興街","SECT":" ","MAREA":" ","LANE":"１７６巷","ALLEY":" ","HOUSE_NO":"１５號","E_COORD97":174335.98999999999,"N_COORD97":2544662.1499999999,"ADDRESS":"立興街１７６巷１５號","OBJECTID":358951},"geometry":{"x":174335.99000000022,"y":2544662.1500000022}},{"attributes":{"ID":358962,"DIS_CODE":0,"TOWNNAME":"永康區","LI":"南灣里","LIN":"19鄰","STREET":"大灣一街","SECT":" ","MAREA":" ","LANE":"６２巷","ALLEY":" ","HOUSE_NO":"３０號","E_COORD97":174319.31,"N_COORD97":2544692.4199999999,"ADDRESS":"大灣一街６２巷３０號","OBJECTID":358952},"geometry":{"x":174319.31000000052,"y":2544692.4199999981}},{"attributes":{"ID":358963,"DIS_CODE":0,"TOWNNAME":"永康區","LI":"尚頂里","LIN":"19鄰","STREET":"南台街","SECT":" ","MAREA":" ","LANE":"３巷","ALLEY":" ","HOUSE_NO":"６號","E_COORD97":170478.79000000001,"N_COORD97":2546914.2400000002,"ADDRESS":"南台街３巷６號","OBJECTID":358953},"geometry":{"x":170478.79000000004,"y":2546914.2400000002}},{"attributes":{"ID":358964,"DIS_CODE":0,"TOWNNAME":"永康區","LI":"正強里","LIN":"19鄰","STREET":"中山南路","SECT":" ","MAREA":" ","LANE":"４７１巷","ALLEY":" ","HOUSE_NO":"４１號","E_COORD97":173181.91,"N_COORD97":2547173.3500000001,"ADDRESS":"中山南路４７１巷４１號","OBJECTID":358954},"geometry":{"x":173181.91000000015,"y":2547173.3499999996}},{"attributes":{"ID":358965,"DIS_CODE":0,"TOWNNAME":"永康區","LI":"西灣里","LIN":"19鄰","STREET":"大安街","SECT":" ","MAREA":" ","LANE":"３３３巷","ALLEY":" ","HOUSE_NO":"１號","E_COORD97":174595.54000000001,"N_COORD97":2545727.3700000001,"ADDRESS":"大安街３３３巷１號","OBJECTID":358955},"geometry":{"x":174595.5400000019,"y":2545727.370000001}},{"attributes":{"ID":358966,"DIS_CODE":0,"TOWNNAME":"南區","LI":"明亮里","LIN":"6鄰","STREET":"新都路","SECT":" ","MAREA":" ","LANE":"５２０巷","ALLEY":" ","HOUSE_NO":"５９號","E_COORD97":167113.82999999999,"N_COORD97":2540981.9300000002,"ADDRESS":"新都路５２０巷５９號","OBJECTID":358956},"geometry":{"x":167113.83000000007,"y":2540981.9299999997}},{"attributes":{"ID":358967,"DIS_CODE":0,"TOWNNAME":"南區","LI":"明亮里","LIN":"6鄰","STREET":"新都路","SECT":" ","MAREA":" ","LANE":"５２０巷","ALLEY":" ","HOUSE_NO":"６１號","E_COORD97":167121.39999999999,"N_COORD97":2540967.4100000001,"ADDRESS":"新都路５２０巷６１號","OBJECTID":358957},"geometry":{"x":167121.4000000013,"y":2540967.410000002}},{"attributes":{"ID":358968,"DIS_CODE":0,"TOWNNAME":"南區","LI":"明亮里","LIN":"6鄰","STREET":"新都路","SECT":" ","MAREA":" ","LANE":"５２０巷","ALLEY":" ","HOUSE_NO":"６３號","E_COORD97":167124.29999999999,"N_COORD97":2540977.5800000001,"ADDRESS":"新都路５２０巷６３號","OBJECTID":358958},"geometry":{"x":167124.29999999981,"y":2540977.5800000001}},{"attributes":{"ID":358969,"DIS_CODE":0,"TOWNNAME":"南區","LI":"明亮里","LIN":"6鄰","STREET":"新都路","SECT":" ","MAREA":" ","LANE":"５２０巷","ALLEY":" ","HOUSE_NO":"６５號","E_COORD97":167134.19,"N_COORD97":2540964.7999999998,"ADDRESS":"新都路５２０巷６５號","OBJECTID":358959},"geometry":{"x":167134.18999999948,"y":2540964.8000000045}},{"attributes":{"ID":358970,"DIS_CODE":0,"TOWNNAME":"南區","LI":"明亮里","LIN":"6鄰","STREET":"新都路","SECT":" ","MAREA":" ","LANE":"５２０巷","ALLEY":" ","HOUSE_NO":"６７號","E_COORD97":167135.35000000001,"N_COORD97":2540975.5499999998,"ADDRESS":"新都路５２０巷６７號","OBJECTID":358960},"geometry":{"x":167135.34999999963,"y":2540975.5500000007}},{"attributes":{"ID":358971,"DIS_CODE":0,"TOWNNAME":"永康區","LI":"安康里","LIN":"19鄰","STREET":"中華西街","SECT":" ","MAREA":" ","LANE":"１０４巷","ALLEY":" ","HOUSE_NO":"１１號","E_COORD97":170765.48999999999,"N_COORD97":2546134.25,"ADDRESS":"中華西街１０４巷１１號","OBJECTID":358961},"geometry":{"x":170765.49000000115,"y":2546134.25}},{"attributes":{"ID":358972,"DIS_CODE":0,"TOWNNAME":"中西區","LI":"三合里","LIN":"8鄰","STREET":"成功路","SECT":" ","MAREA":" ","LANE":" ","ALLEY":" ","HOUSE_NO":"４５３號九樓之６","E_COORD97":167642.97,"N_COORD97":2544635.1600000001,"ADDRESS":"成功路４５３號九樓之６","OBJECTID":358962},"geometry":{"x":167642.96999999974,"y":2544635.160000002}},{"attributes":{"ID":358973,"DIS_CODE":0,"TOWNNAME":"中西區","LI":"三合里","LIN":"8鄰","STREET":"成功路","SECT":" ","MAREA":" ","LANE":" ","ALLEY":" ","HOUSE_NO":"４５３號九樓之７","E_COORD97":167642.97,"N_COORD97":2544635.1600000001,"ADDRESS":"成功路４５３號九樓之７","OBJECTID":358963},"geometry":{"x":167642.96999999974,"y":2544635.160000002}},{"attributes":{"ID":358974,"DIS_CODE":0,"TOWNNAME":"東區","LI":"崇成里","LIN":"8鄰","STREET":"崇德十三街","SECT":" ","MAREA":" ","LANE":" ","ALLEY":" ","HOUSE_NO":"２１號三樓","E_COORD97":170854.12,"N_COORD97":2541303.1200000001,"ADDRESS":"崇德十三街２１號三樓","OBJECTID":358964},"geometry":{"x":170854.12000000104,"y":2541303.1200000029}},{"attributes":{"ID":358975,"DIS_CODE":0,"TOWNNAME":"東區","LI":"崇成里","LIN":"8鄰","STREET":"崇德十三街","SECT":" ","MAREA":" ","LANE":" ","ALLEY":" ","HOUSE_NO":"２１號五樓","E_COORD97":170854.12,"N_COORD97":2541303.1200000001,"ADDRESS":"崇德十三街２１號五樓","OBJECTID":358965},"geometry":{"x":170854.12000000104,"y":2541303.1200000029}},{"attributes":{"ID":358976,"DIS_CODE":0,"TOWNNAME":"東區","LI":"崇成里","LIN":"8鄰","STREET":"崇德十三街","SECT":" ","MAREA":" ","LANE":" ","ALLEY":" ","HOUSE_NO":"２１號六樓","E_COORD97":170854.12,"N_COORD97":2541303.1200000001,"ADDRESS":"崇德十三街２１號六樓","OBJECTID":358966},"geometry":{"x":170854.12000000104,"y":2541303.1200000029}},{"attributes":{"ID":358977,"DIS_CODE":0,"TOWNNAME":"新市區","LI":"大社里","LIN":"25鄰","STREET":" ","SECT":" ","MAREA":"大社","LANE":" ","ALLEY":" ","HOUSE_NO":"９０６號","E_COORD97":179884.76000000001,"N_COORD97":2554119,"ADDRESS":"大社９０６號","OBJECTID":358967},"geometry":{"x":179884.76000000071,"y":2554119.0000000019}},{"attributes":{"ID":358978,"DIS_CODE":0,"TOWNNAME":"歸仁區","LI":"西埔里","LIN":"15鄰","STREET":"西埔二街","SECT":" ","MAREA":" ","LANE":"７０巷","ALLEY":" ","HOUSE_NO":"６８號","E_COORD97":176934.79000000001,"N_COORD97":2544893.3700000001,"ADDRESS":"西埔二街７０巷６８號","OBJECTID":358968},"geometry":{"x":176934.7900000019,"y":2544893.370000001}},{"attributes":{"ID":358979,"DIS_CODE":0,"TOWNNAME":"南區","LI":"明亮里","LIN":"25鄰","STREET":"金華路","SECT":"一段","MAREA":" ","LANE":"４８４巷","ALLEY":" ","HOUSE_NO":"５２號","E_COORD97":167147.76999999999,"N_COORD97":2541443.2799999998,"ADDRESS":"金華路一段４８４巷５２號","OBJECTID":358969},"geometry":{"x":167147.76999999955,"y":2541443.2799999993}},{"attributes":{"ID":358980,"DIS_CODE":0,"TOWNNAME":"南區","LI":"明亮里","LIN":"25鄰","STREET":"金華路","SECT":"一段","MAREA":" ","LANE":"４８４巷","ALLEY":" ","HOUSE_NO":"５６號","E_COORD97":167154.97,"N_COORD97":2541438.48,"ADDRESS":"金華路一段４８４巷５６號","OBJECTID":358970},"geometry":{"x":167154.96999999974,"y":2541438.4800000023}},{"attributes":{"ID":358981,"DIS_CODE":0,"TOWNNAME":"南區","LI":"明亮里","LIN":"25鄰","STREET":"金華路","SECT":"一段","MAREA":" ","LANE":"４８４巷","ALLEY":" ","HOUSE_NO":"５８號","E_COORD97":167160.26000000001,"N_COORD97":2541435.1200000001,"ADDRESS":"金華路一段４８４巷５８號","OBJECTID":358971},"geometry":{"x":167160.26000000164,"y":2541435.1200000029}},{"attributes":{"ID":358982,"DIS_CODE":0,"TOWNNAME":"東區","LI":"中西里","LIN":"25鄰","STREET":"東寧路","SECT":" ","MAREA":" ","LANE":"１２０巷","ALLEY":" ","HOUSE_NO":"７號","E_COORD97":170236.03,"N_COORD97":2543552.8799999999,"ADDRESS":"東寧路１２０巷７號","OBJECTID":358972},"geometry":{"x":170236.03000000119,"y":2543552.8800000027}},{"attributes":{"ID":358983,"DIS_CODE":0,"TOWNNAME":"東區","LI":"中西里","LIN":"25鄰","STREET":"東寧路","SECT":" ","MAREA":" ","LANE":"１２０巷","ALLEY":" ","HOUSE_NO":"９號","E_COORD97":170244.23999999999,"N_COORD97":2543556.02,"ADDRESS":"東寧路１２０巷９號","OBJECTID":358973},"geometry":{"x":170244.24000000022,"y":2543556.0200000033}},{"attributes":{"ID":358984,"DIS_CODE":0,"TOWNNAME":"新市區","LI":"大社里","LIN":"25鄰","STREET":" ","SECT":" ","MAREA":"大社","LANE":" ","ALLEY":" ","HOUSE_NO":"９１８之６號","E_COORD97":179939.79000000001,"N_COORD97":2554043.7999999998,"ADDRESS":"大社９１８之６號","OBJECTID":358974},"geometry":{"x":179939.79000000004,"y":2554043.8000000007}},{"attributes":{"ID":358985,"DIS_CODE":0,"TOWNNAME":"新市區","LI":"大社里","LIN":"25鄰","STREET":" ","SECT":" ","MAREA":"大社","LANE":" ","ALLEY":" ","HOUSE_NO":"９１８之１號","E_COORD97":179956.26000000001,"N_COORD97":2554047.7999999998,"ADDRESS":"大社９１８之１號","OBJECTID":358975},"geometry":{"x":179956.26000000071,"y":2554047.8000000007}},{"attributes":{"ID":358986,"DIS_CODE":0,"TOWNNAME":"東區","LI":"中西里","LIN":"25鄰","STREET":"東寧路","SECT":" ","MAREA":" ","LANE":"１２０巷","ALLEY":" ","HOUSE_NO":"１７號","E_COORD97":170242.32000000001,"N_COORD97":2543531.1299999999,"ADDRESS":"東寧路１２０巷１７號","OBJECTID":358976},"geometry":{"x":170242.32000000216,"y":2543531.1300000008}},{"attributes":{"ID":358987,"DIS_CODE":0,"TOWNNAME":"新市區","LI":"新市里","LIN":"25鄰","STREET":"復興路","SECT":" ","MAREA":" ","LANE":"６巷","ALLEY":" ","HOUSE_NO":"４２號","E_COORD97":177928.26000000001,"N_COORD97":2553358.2799999998,"ADDRESS":"復興路６巷４２號","OBJECTID":358977},"geometry":{"x":177928.26000000164,"y":2553358.2799999993}},{"attributes":{"ID":358988,"DIS_CODE":0,"TOWNNAME":"永康區","LI":"勝利里","LIN":"25鄰","STREET":"中華路","SECT":" ","MAREA":" ","LANE":"１５５巷","ALLEY":" ","HOUSE_NO":"５４號","E_COORD97":171473.07000000001,"N_COORD97":2544781.5600000001,"ADDRESS":"中華路１５５巷５４號","OBJECTID":358978},"geometry":{"x":171473.07000000216,"y":2544781.5600000024}},{"attributes":{"ID":358989,"DIS_CODE":0,"TOWNNAME":"中西區","LI":"天后里","LIN":"19鄰","STREET":"西門路","SECT":"二段","MAREA":" ","LANE":"３７２巷","ALLEY":" ","HOUSE_NO":"２９號","E_COORD97":168106.54999999999,"N_COORD97":2544314.3500000001,"ADDRESS":"西門路二段３７２巷２９號","OBJECTID":358979},"geometry":{"x":168106.55000000075,"y":2544314.3500000015}},{"attributes":{"ID":358990,"DIS_CODE":0,"TOWNNAME":"中西區","LI":"天后里","LIN":"19鄰","STREET":"西門路","SECT":"二段","MAREA":" ","LANE":"４０２巷","ALLEY":" ","HOUSE_NO":"２號","E_COORD97":168123.91,"N_COORD97":2544374.1600000001,"ADDRESS":"西門路二段４０２巷２號","OBJECTID":358980},"geometry":{"x":168123.91000000015,"y":2544374.160000002}},{"attributes":{"ID":358991,"DIS_CODE":0,"TOWNNAME":"東區","LI":"崇成里","LIN":"8鄰","STREET":"崇德十三街","SECT":" ","MAREA":" ","LANE":" ","ALLEY":" ","HOUSE_NO":"２１號四樓","E_COORD97":170854.12,"N_COORD97":2541303.1200000001,"ADDRESS":"崇德十三街２１號四樓","OBJECTID":358981},"geometry":{"x":170854.12000000104,"y":2541303.1200000029}},{"attributes":{"ID":358992,"DIS_CODE":0,"TOWNNAME":"東區","LI":"崇成里","LIN":"8鄰","STREET":"崇德十三街","SECT":" ","MAREA":" ","LANE":" ","ALLEY":" ","HOUSE_NO":"２５號二樓","E_COORD97":170852.45999999999,"N_COORD97":2541317.3900000001,"ADDRESS":"崇德十三街２５號二樓","OBJECTID":358982},"geometry":{"x":170852.45999999996,"y":2541317.3900000025}},{"attributes":{"ID":358993,"DIS_CODE":0,"TOWNNAME":"東區","LI":"崇成里","LIN":"8鄰","STREET":"崇德十三街","SECT":" ","MAREA":" ","LANE":" ","ALLEY":" ","HOUSE_NO":"２５號三樓","E_COORD97":170852.45999999999,"N_COORD97":2541317.3900000001,"ADDRESS":"崇德十三街２５號三樓","OBJECTID":358983},"geometry":{"x":170852.45999999996,"y":2541317.3900000025}},{"attributes":{"ID":358994,"DIS_CODE":0,"TOWNNAME":"東區","LI":"崇成里","LIN":"8鄰","STREET":"崇德十三街","SECT":" ","MAREA":" ","LANE":" ","ALLEY":" ","HOUSE_NO":"２５號五樓","E_COORD97":170852.45999999999,"N_COORD97":2541317.3900000001,"ADDRESS":"崇德十三街２５號五樓","OBJECTID":358984},"geometry":{"x":170852.45999999996,"y":2541317.3900000025}},{"attributes":{"ID":358995,"DIS_CODE":0,"TOWNNAME":"東區","LI":"崇成里","LIN":"8鄰","STREET":"崇德十三街","SECT":" ","MAREA":" ","LANE":" ","ALLEY":" ","HOUSE_NO":"２５號六樓","E_COORD97":170852.45999999999,"N_COORD97":2541317.3900000001,"ADDRESS":"崇德十三街２５號六樓","OBJECTID":358985},"geometry":{"x":170852.45999999996,"y":2541317.3900000025}},{"attributes":{"ID":358996,"DIS_CODE":0,"TOWNNAME":"東區","LI":"崇成里","LIN":"8鄰","STREET":"崇德十三街","SECT":" ","MAREA":" ","LANE":" ","ALLEY":" ","HOUSE_NO":"２５號四樓","E_COORD97":170852.45999999999,"N_COORD97":2541317.3900000001,"ADDRESS":"崇德十三街２５號四樓","OBJECTID":358986},"geometry":{"x":170852.45999999996,"y":2541317.3900000025}},{"attributes":{"ID":358997,"DIS_CODE":0,"TOWNNAME":"東區","LI":"崇成里","LIN":"8鄰","STREET":"崇德十三街","SECT":" ","MAREA":" ","LANE":" ","ALLEY":" ","HOUSE_NO":"２７號二樓","E_COORD97":170864.35999999999,"N_COORD97":2541317.29,"ADDRESS":"崇德十三街２７號二樓","OBJECTID":358987},"geometry":{"x":170864.36000000127,"y":2541317.290000001}},{"attributes":{"ID":358998,"DIS_CODE":0,"TOWNNAME":"東區","LI":"崇成里","LIN":"8鄰","STREET":"崇德十三街","SECT":" ","MAREA":" ","LANE":" ","ALLEY":" ","HOUSE_NO":"２７號三樓","E_COORD97":170864.35999999999,"N_COORD97":2541317.29,"ADDRESS":"崇德十三街２７號三樓","OBJECTID":358988},"geometry":{"x":170864.36000000127,"y":2541317.290000001}},{"attributes":{"ID":358999,"DIS_CODE":0,"TOWNNAME":"東區","LI":"崇成里","LIN":"8鄰","STREET":"崇德十三街","SECT":" ","MAREA":" ","LANE":" ","ALLEY":" ","HOUSE_NO":"２７號五樓","E_COORD97":170864.35999999999,"N_COORD97":2541317.29,"ADDRESS":"崇德十三街２７號五樓","OBJECTID":358989},"geometry":{"x":170864.36000000127,"y":2541317.290000001}},{"attributes":{"ID":359000,"DIS_CODE":0,"TOWNNAME":"善化區","LI":"胡厝里","LIN":"25鄰","STREET":" ","SECT":" ","MAREA":"烏橋","LANE":" ","ALLEY":" ","HOUSE_NO":"２６號之５","E_COORD97":175391.54000000001,"N_COORD97":2558959.52,"ADDRESS":"烏橋２６號之５","OBJECTID":358990},"geometry":{"x":175391.54000000004,"y":2558959.5200000014}},{"attributes":{"ID":359001,"DIS_CODE":0,"TOWNNAME":"仁德區","LI":"仁和里","LIN":"25鄰","STREET":" ","SECT":" ","MAREA":"仁和","LANE":" ","ALLEY":" ","HOUSE_NO":"５０５號","E_COORD97":170433.79225,"N_COORD97":2539781.25,"ADDRESS":"仁和５０５號","OBJECTID":358991},"geometry":{"x":170433.79225000087,"y":2539781.2500000037}},{"attributes":{"ID":359002,"DIS_CODE":0,"TOWNNAME":"南區","LI":"明亮里","LIN":"7鄰","STREET":"新都路","SECT":" ","MAREA":" ","LANE":"５０６巷","ALLEY":" ","HOUSE_NO":"１號","E_COORD97":167147.32000000001,"N_COORD97":2540906.0499999998,"ADDRESS":"新都路５０６巷１號","OBJECTID":358992},"geometry":{"x":167147.32000000123,"y":2540906.0500000026}},{"attributes":{"ID":359003,"DIS_CODE":0,"TOWNNAME":"南區","LI":"明亮里","LIN":"7鄰","STREET":"新都路","SECT":" ","MAREA":" ","LANE":"５０６巷","ALLEY":" ","HOUSE_NO":"２號","E_COORD97":167170.94,"N_COORD97":2540903.2799999998,"ADDRESS":"新都路５０６巷２號","OBJECTID":358993},"geometry":{"x":167170.94000000041,"y":2540903.2800000012}},{"attributes":{"ID":359004,"DIS_CODE":0,"TOWNNAME":"南區","LI":"明亮里","LIN":"7鄰","STREET":"新都路","SECT":" ","MAREA":" ","LANE":"５０６巷","ALLEY":" ","HOUSE_NO":"４號","E_COORD97":167172.17000000001,"N_COORD97":2540908.5,"ADDRESS":"新都路５０６巷４號","OBJECTID":358994},"geometry":{"x":167172.16999999993,"y":2540908.5000000037}},{"attributes":{"ID":359005,"DIS_CODE":0,"TOWNNAME":"南區","LI":"明亮里","LIN":"7鄰","STREET":"新都路","SECT":" ","MAREA":" ","LANE":"５０６巷","ALLEY":" ","HOUSE_NO":"５號","E_COORD97":167150.32999999999,"N_COORD97":2540914.6800000002,"ADDRESS":"新都路５０６巷５號","OBJECTID":358995},"geometry":{"x":167150.33000000101,"y":2540914.6800000016}},{"attributes":{"ID":359006,"DIS_CODE":0,"TOWNNAME":"南區","LI":"明亮里","LIN":"7鄰","STREET":"新都路","SECT":" ","MAREA":" ","LANE":"５０６巷","ALLEY":" ","HOUSE_NO":"６號","E_COORD97":167173.09,"N_COORD97":2540912.79,"ADDRESS":"新都路５０６巷６號","OBJECTID":358996},"geometry":{"x":167173.08999999985,"y":2540912.790000001}},{"attributes":{"ID":359007,"DIS_CODE":0,"TOWNNAME":"南區","LI":"明亮里","LIN":"7鄰","STREET":"新都路","SECT":" ","MAREA":" ","LANE":"５０６巷","ALLEY":" ","HOUSE_NO":"７號","E_COORD97":167151.07999999999,"N_COORD97":2540919.1899999999,"ADDRESS":"新都路５０６巷７號","OBJECTID":358997},"geometry":{"x":167151.08000000007,"y":2540919.1899999995}},{"attributes":{"ID":359008,"DIS_CODE":0,"TOWNNAME":"南區","LI":"明亮里","LIN":"7鄰","STREET":"新都路","SECT":" ","MAREA":" ","LANE":"５０６巷","ALLEY":" ","HOUSE_NO":"８號","E_COORD97":167174.32000000001,"N_COORD97":2540917.0899999999,"ADDRESS":"新都路５０６巷８號","OBJECTID":358998},"geometry":{"x":167174.32000000123,"y":2540917.0899999999}},{"attributes":{"ID":359009,"DIS_CODE":0,"TOWNNAME":"南區","LI":"明亮里","LIN":"7鄰","STREET":"新都路","SECT":" ","MAREA":" ","LANE":"５０６巷","ALLEY":" ","HOUSE_NO":"９號","E_COORD97":167152.20999999999,"N_COORD97":2540923.3199999998,"ADDRESS":"新都路５０６巷９號","OBJECTID":358999},"geometry":{"x":167152.20999999903,"y":2540923.3199999984}},{"attributes":{"ID":359010,"DIS_CODE":0,"TOWNNAME":"南區","LI":"明亮里","LIN":"7鄰","STREET":"新都路","SECT":" ","MAREA":" ","LANE":"５０６巷","ALLEY":" ","HOUSE_NO":"１０號","E_COORD97":167174.63,"N_COORD97":2540921.3799999999,"ADDRESS":"新都路５０６巷１０號","OBJECTID":359000},"geometry":{"x":167174.62999999989,"y":2540921.379999999}}]}