{"displayFieldName":"TOWNNAME","fieldAliases":{"ID":"ID","DIS_CODE":"DIS_CODE","TOWNNAME":"TOWNNAME","LI":"LI","LIN":"LIN","STREET":"STREET","SECT":"SECT","MAREA":"MAREA","LANE":"LANE","ALLEY":"ALLEY","HOUSE_NO":"HOUSE_NO","E_COORD97":"E_COORD97","N_COORD97":"N_COORD97","ADDRESS":"ADDRESS","OBJECTID":"OBJECTID"},"geometryType":"esriGeometryPoint","spatialReference":{"wkid":102443,"latestWkid":3826},"fields":[{"name":"ID","type":"esriFieldTypeDouble","alias":"ID"},{"name":"DIS_CODE","type":"esriFieldTypeInteger","alias":"DIS_CODE"},{"name":"TOWNNAME","type":"esriFieldTypeString","alias":"TOWNNAME","length":8},{"name":"LI","type":"esriFieldTypeString","alias":"LI","length":8},{"name":"LIN","type":"esriFieldTypeString","alias":"LIN","length":12},{"name":"STREET","type":"esriFieldTypeString","alias":"STREET","length":20},{"name":"SECT","type":"esriFieldTypeString","alias":"SECT","length":8},{"name":"MAREA","type":"esriFieldTypeString","alias":"MAREA","length":12},{"name":"LANE","type":"esriFieldTypeString","alias":"LANE","length":10},{"name":"ALLEY","type":"esriFieldTypeString","alias":"ALLEY","length":10},{"name":"HOUSE_NO","type":"esriFieldTypeString","alias":"HOUSE_NO","length":20},{"name":"E_COORD97","type":"esriFieldTypeDouble","alias":"E_COORD97"},{"name":"N_COORD97","type":"esriFieldTypeDouble","alias":"N_COORD97"},{"name":"ADDRESS","type":"esriFieldTypeString","alias":"ADDRESS","length":50},{"name":"OBJECTID","type":"esriFieldTypeOID","alias":"OBJECTID"}],"features":[{"attributes":{"ID":418425,"DIS_CODE":0,"TOWNNAME":"北區","LI":"正風里","LIN":"2鄰","STREET":"公園路","SECT":" ","MAREA":" ","LANE":"９００巷","ALLEY":" ","HOUSE_NO":"２８號","E_COORD97":169401.47,"N_COORD97":2546051.3399999999,"ADDRESS":"公園路９００巷２８號","OBJECTID":418401},"geometry":{"x":169401.46999999881,"y":2546051.3399999999}},{"attributes":{"ID":418426,"DIS_CODE":0,"TOWNNAME":"北區","LI":"正風里","LIN":"2鄰","STREET":"公園路","SECT":" ","MAREA":" ","LANE":"９００巷","ALLEY":" ","HOUSE_NO":"２９號","E_COORD97":169412.89999999999,"N_COORD97":2546065.8300000001,"ADDRESS":"公園路９００巷２９號","OBJECTID":418402},"geometry":{"x":169412.90000000224,"y":2546065.8300000001}},{"attributes":{"ID":418427,"DIS_CODE":0,"TOWNNAME":"北區","LI":"正風里","LIN":"2鄰","STREET":"公園路","SECT":" ","MAREA":" ","LANE":"９００巷","ALLEY":" ","HOUSE_NO":"３０號","E_COORD97":169405.54999999999,"N_COORD97":2546048.0600000001,"ADDRESS":"公園路９００巷３０號","OBJECTID":418403},"geometry":{"x":169405.54999999981,"y":2546048.0600000005}},{"attributes":{"ID":418428,"DIS_CODE":0,"TOWNNAME":"北區","LI":"正風里","LIN":"2鄰","STREET":"公園路","SECT":" ","MAREA":" ","LANE":"９００巷","ALLEY":" ","HOUSE_NO":"３１號","E_COORD97":169416.17999999999,"N_COORD97":2546063,"ADDRESS":"公園路９００巷３１號","OBJECTID":418404},"geometry":{"x":169416.18000000063,"y":2546063.0000000019}},{"attributes":{"ID":418429,"DIS_CODE":0,"TOWNNAME":"北區","LI":"正風里","LIN":"2鄰","STREET":"公園路","SECT":" ","MAREA":" ","LANE":"９００巷","ALLEY":" ","HOUSE_NO":"３２號","E_COORD97":169409.63,"N_COORD97":2546045.48,"ADDRESS":"公園路９００巷３２號","OBJECTID":418405},"geometry":{"x":169409.63000000082,"y":2546045.4800000042}},{"attributes":{"ID":418430,"DIS_CODE":0,"TOWNNAME":"北區","LI":"東興里","LIN":"2鄰","STREET":"小東路","SECT":" ","MAREA":" ","LANE":"１８９巷","ALLEY":" ","HOUSE_NO":"１５號","E_COORD97":170800.79000000001,"N_COORD97":2544548.0600000001,"ADDRESS":"小東路１８９巷１５號","OBJECTID":418406},"geometry":{"x":170800.79000000004,"y":2544548.0600000024}},{"attributes":{"ID":418431,"DIS_CODE":0,"TOWNNAME":"北區","LI":"國興里","LIN":"2鄰","STREET":"開元路","SECT":" ","MAREA":" ","LANE":"３４２巷","ALLEY":" ","HOUSE_NO":"５號","E_COORD97":170481.14000000001,"N_COORD97":2545528.9900000002,"ADDRESS":"開元路３４２巷５號","OBJECTID":418407},"geometry":{"x":170481.13999999966,"y":2545528.9900000002}},{"attributes":{"ID":418432,"DIS_CODE":0,"TOWNNAME":"北區","LI":"國興里","LIN":"2鄰","STREET":"開元路","SECT":" ","MAREA":" ","LANE":"３４２巷","ALLEY":" ","HOUSE_NO":"９號","E_COORD97":170492.17999999999,"N_COORD97":2545519.6800000002,"ADDRESS":"開元路３４２巷９號","OBJECTID":418408},"geometry":{"x":170492.18000000063,"y":2545519.6799999997}},{"attributes":{"ID":418433,"DIS_CODE":0,"TOWNNAME":"北區","LI":"國興里","LIN":"2鄰","STREET":"開元路","SECT":" ","MAREA":" ","LANE":"３４２巷","ALLEY":" ","HOUSE_NO":"１１號","E_COORD97":170497.26999999999,"N_COORD97":2545513.1499999999,"ADDRESS":"開元路３４２巷１１號","OBJECTID":418409},"geometry":{"x":170497.26999999955,"y":2545513.1500000022}},{"attributes":{"ID":418434,"DIS_CODE":0,"TOWNNAME":"北區","LI":"國興里","LIN":"2鄰","STREET":"開元路","SECT":" ","MAREA":" ","LANE":"３４２巷","ALLEY":" ","HOUSE_NO":"１３號","E_COORD97":170498.23000000001,"N_COORD97":2545508.54,"ADDRESS":"開元路３４２巷１３號","OBJECTID":418410},"geometry":{"x":170498.23000000045,"y":2545508.540000001}},{"attributes":{"ID":418435,"DIS_CODE":0,"TOWNNAME":"北區","LI":"國興里","LIN":"2鄰","STREET":"開元路","SECT":" ","MAREA":" ","LANE":"３４２巷","ALLEY":" ","HOUSE_NO":"１５號","E_COORD97":170498.04000000001,"N_COORD97":2545504.3199999998,"ADDRESS":"開元路３４２巷１５號","OBJECTID":418411},"geometry":{"x":170498.04000000004,"y":2545504.3200000022}},{"attributes":{"ID":418436,"DIS_CODE":0,"TOWNNAME":"北區","LI":"國興里","LIN":"2鄰","STREET":"開元路","SECT":" ","MAREA":" ","LANE":"３４２巷","ALLEY":" ","HOUSE_NO":"１７號","E_COORD97":170498.81,"N_COORD97":2545500.2000000002,"ADDRESS":"開元路３４２巷１７號","OBJECTID":418412},"geometry":{"x":170498.80999999959,"y":2545500.200000003}},{"attributes":{"ID":418437,"DIS_CODE":0,"TOWNNAME":"北區","LI":"國興里","LIN":"2鄰","STREET":"開元路","SECT":" ","MAREA":" ","LANE":"３４２巷","ALLEY":" ","HOUSE_NO":"１９號","E_COORD97":170499.10000000001,"N_COORD97":2545496.0699999998,"ADDRESS":"開元路３４２巷１９號","OBJECTID":418413},"geometry":{"x":170499.10000000149,"y":2545496.0700000022}},{"attributes":{"ID":418438,"DIS_CODE":0,"TOWNNAME":"北區","LI":"國興里","LIN":"2鄰","STREET":"開元路","SECT":" ","MAREA":" ","LANE":"３４２巷","ALLEY":" ","HOUSE_NO":"２１號","E_COORD97":170499.85999999999,"N_COORD97":2545492.04,"ADDRESS":"開元路３４２巷２１號","OBJECTID":418414},"geometry":{"x":170499.86000000127,"y":2545492.040000001}},{"attributes":{"ID":418439,"DIS_CODE":0,"TOWNNAME":"北區","LI":"國興里","LIN":"2鄰","STREET":"開元路","SECT":" ","MAREA":" ","LANE":"３４２巷","ALLEY":" ","HOUSE_NO":"２３號","E_COORD97":170500.34,"N_COORD97":2545487.6299999999,"ADDRESS":"開元路３４２巷２３號","OBJECTID":418415},"geometry":{"x":170500.33999999985,"y":2545487.6300000008}},{"attributes":{"ID":418440,"DIS_CODE":0,"TOWNNAME":"北區","LI":"文元里","LIN":"2鄰","STREET":"中華北路","SECT":"二段","MAREA":" ","LANE":"８５巷","ALLEY":" ","HOUSE_NO":"５６號","E_COORD97":167740.64000000001,"N_COORD97":2546541.5299999998,"ADDRESS":"中華北路二段８５巷５６號","OBJECTID":418416},"geometry":{"x":167740.63999999873,"y":2546541.5299999993}},{"attributes":{"ID":418441,"DIS_CODE":0,"TOWNNAME":"北區","LI":"文元里","LIN":"2鄰","STREET":"中華北路","SECT":"二段","MAREA":" ","LANE":"９０巷","ALLEY":" ","HOUSE_NO":"４５號","E_COORD97":167789.70000000001,"N_COORD97":2546564.0699999998,"ADDRESS":"中華北路二段９０巷４５號","OBJECTID":418417},"geometry":{"x":167789.70000000019,"y":2546564.0700000022}},{"attributes":{"ID":418442,"DIS_CODE":0,"TOWNNAME":"北區","LI":"文元里","LIN":"2鄰","STREET":"中華北路","SECT":"二段","MAREA":" ","LANE":"９０巷","ALLEY":" ","HOUSE_NO":"４９號","E_COORD97":167800.32999999999,"N_COORD97":2546565.1899999999,"ADDRESS":"中華北路二段９０巷４９號","OBJECTID":418418},"geometry":{"x":167800.33000000007,"y":2546565.1900000032}},{"attributes":{"ID":418443,"DIS_CODE":0,"TOWNNAME":"北區","LI":"文元里","LIN":"2鄰","STREET":"中華北路","SECT":"二段","MAREA":" ","LANE":"９０巷","ALLEY":" ","HOUSE_NO":"５３號","E_COORD97":167811.60000000001,"N_COORD97":2546566.2999999998,"ADDRESS":"中華北路二段９０巷５３號","OBJECTID":418419},"geometry":{"x":167811.59999999963,"y":2546566.3000000026}},{"attributes":{"ID":418444,"DIS_CODE":0,"TOWNNAME":"北區","LI":"文元里","LIN":"2鄰","STREET":"中華北路","SECT":"二段","MAREA":" ","LANE":"９０巷","ALLEY":" ","HOUSE_NO":"４７號","E_COORD97":167795.25,"N_COORD97":2546564.71,"ADDRESS":"中華北路二段９０巷４７號","OBJECTID":418420},"geometry":{"x":167795.25000000093,"y":2546564.7100000028}},{"attributes":{"ID":418445,"DIS_CODE":0,"TOWNNAME":"北區","LI":"文元里","LIN":"2鄰","STREET":"中華北路","SECT":"二段","MAREA":" ","LANE":"９０巷","ALLEY":" ","HOUSE_NO":"５１號","E_COORD97":167806.20999999999,"N_COORD97":2546565.6600000001,"ADDRESS":"中華北路二段９０巷５１號","OBJECTID":418421},"geometry":{"x":167806.20999999996,"y":2546565.6600000001}},{"attributes":{"ID":418446,"DIS_CODE":0,"TOWNNAME":"北區","LI":"文元里","LIN":"2鄰","STREET":"中華北路","SECT":"二段","MAREA":" ","LANE":"９０巷","ALLEY":" ","HOUSE_NO":"５５號","E_COORD97":167812.56,"N_COORD97":2546558.9900000002,"ADDRESS":"中華北路二段９０巷５５號","OBJECTID":418422},"geometry":{"x":167812.56000000052,"y":2546558.9900000002}},{"attributes":{"ID":418447,"DIS_CODE":0,"TOWNNAME":"北區","LI":"文元里","LIN":"2鄰","STREET":"中華北路","SECT":"二段","MAREA":" ","LANE":"９０巷","ALLEY":" ","HOUSE_NO":"６３號","E_COORD97":167790.48999999999,"N_COORD97":2546556.77,"ADDRESS":"中華北路二段９０巷６３號","OBJECTID":418423},"geometry":{"x":167790.49000000115,"y":2546556.7699999996}},{"attributes":{"ID":418448,"DIS_CODE":0,"TOWNNAME":"北區","LI":"文元里","LIN":"2鄰","STREET":"中華北路","SECT":"二段","MAREA":" ","LANE":"９０巷","ALLEY":" ","HOUSE_NO":"５９號","E_COORD97":167801.60000000001,"N_COORD97":2546557.7200000002,"ADDRESS":"中華北路二段９０巷５９號","OBJECTID":418424},"geometry":{"x":167801.59999999963,"y":2546557.7200000025}},{"attributes":{"ID":418449,"DIS_CODE":0,"TOWNNAME":"北區","LI":"文元里","LIN":"2鄰","STREET":"中華北路","SECT":"二段","MAREA":" ","LANE":"９０巷","ALLEY":" ","HOUSE_NO":"５７號","E_COORD97":167807.48000000001,"N_COORD97":2546558.52,"ADDRESS":"中華北路二段９０巷５７號","OBJECTID":418425},"geometry":{"x":167807.48000000138,"y":2546558.5199999996}},{"attributes":{"ID":418450,"DIS_CODE":0,"TOWNNAME":"北區","LI":"文元里","LIN":"2鄰","STREET":"中華北路","SECT":"二段","MAREA":" ","LANE":"９０巷","ALLEY":" ","HOUSE_NO":"６１號","E_COORD97":167796.35999999999,"N_COORD97":2546557.4100000001,"ADDRESS":"中華北路二段９０巷６１號","OBJECTID":418426},"geometry":{"x":167796.36000000127,"y":2546557.4099999983}},{"attributes":{"ID":418451,"DIS_CODE":0,"TOWNNAME":"北區","LI":"文元里","LIN":"2鄰","STREET":"中華北路","SECT":"二段","MAREA":" ","LANE":"８０巷","ALLEY":" ","HOUSE_NO":"２３號","E_COORD97":167712.01000000001,"N_COORD97":2546602.04,"ADDRESS":"中華北路二段８０巷２３號","OBJECTID":418427},"geometry":{"x":167712.01000000071,"y":2546602.0399999991}},{"attributes":{"ID":418452,"DIS_CODE":0,"TOWNNAME":"北區","LI":"文元里","LIN":"2鄰","STREET":"中華北路","SECT":"二段","MAREA":" ","LANE":"８０巷","ALLEY":" ","HOUSE_NO":"２５號","E_COORD97":167712.51000000001,"N_COORD97":2546598.6099999999,"ADDRESS":"中華北路二段８０巷２５號","OBJECTID":418428},"geometry":{"x":167712.50999999978,"y":2546598.6099999994}},{"attributes":{"ID":418453,"DIS_CODE":0,"TOWNNAME":"北區","LI":"文元里","LIN":"2鄰","STREET":"中華北路","SECT":"二段","MAREA":" ","LANE":"８０巷","ALLEY":" ","HOUSE_NO":"２７號","E_COORD97":167712.89000000001,"N_COORD97":2546595.0499999998,"ADDRESS":"中華北路二段８０巷２７號","OBJECTID":418429},"geometry":{"x":167712.88999999966,"y":2546595.0500000026}},{"attributes":{"ID":418454,"DIS_CODE":0,"TOWNNAME":"北區","LI":"文元里","LIN":"2鄰","STREET":"中華北路","SECT":"二段","MAREA":" ","LANE":"８０巷","ALLEY":" ","HOUSE_NO":"２１號","E_COORD97":167711.88,"N_COORD97":2546605.27,"ADDRESS":"中華北路二段８０巷２１號","OBJECTID":418430},"geometry":{"x":167711.87999999989,"y":2546605.2699999977}},{"attributes":{"ID":418455,"DIS_CODE":0,"TOWNNAME":"北區","LI":"賢北里","LIN":"2鄰","STREET":"中華北路","SECT":"一段","MAREA":" ","LANE":"１０５巷","ALLEY":" ","HOUSE_NO":"５３號","E_COORD97":166362.79999999999,"N_COORD97":2545434.54,"ADDRESS":"中華北路一段１０５巷５３號","OBJECTID":418431},"geometry":{"x":166362.79999999981,"y":2545434.540000001}},{"attributes":{"ID":418456,"DIS_CODE":0,"TOWNNAME":"北區","LI":"賢北里","LIN":"2鄰","STREET":"中華北路","SECT":"一段","MAREA":" ","LANE":"５３巷","ALLEY":" ","HOUSE_NO":"１６號","E_COORD97":166476.67000000001,"N_COORD97":2545370.3700000001,"ADDRESS":"中華北路一段５３巷１６號","OBJECTID":418432},"geometry":{"x":166476.67000000086,"y":2545370.3700000029}},{"attributes":{"ID":418457,"DIS_CODE":0,"TOWNNAME":"北區","LI":"賢北里","LIN":"2鄰","STREET":"中華北路","SECT":"一段","MAREA":" ","LANE":"５３巷","ALLEY":" ","HOUSE_NO":"１８號","E_COORD97":166473.28,"N_COORD97":2545369.3100000001,"ADDRESS":"中華北路一段５３巷１８號","OBJECTID":418433},"geometry":{"x":166473.28000000026,"y":2545369.3100000024}},{"attributes":{"ID":418458,"DIS_CODE":0,"TOWNNAME":"北區","LI":"賢北里","LIN":"2鄰","STREET":"中華北路","SECT":"一段","MAREA":" ","LANE":"５３巷","ALLEY":" ","HOUSE_NO":"４６號","E_COORD97":166428.62,"N_COORD97":2545350.2599999998,"ADDRESS":"中華北路一段５３巷４６號","OBJECTID":418434},"geometry":{"x":166428.62000000011,"y":2545350.2599999998}},{"attributes":{"ID":418459,"DIS_CODE":0,"TOWNNAME":"北區","LI":"賢北里","LIN":"2鄰","STREET":"中華北路","SECT":"一段","MAREA":" ","LANE":"５３巷","ALLEY":" ","HOUSE_NO":"３０號","E_COORD97":166451.89999999999,"N_COORD97":2545359.79,"ADDRESS":"中華北路一段５３巷３０號","OBJECTID":418435},"geometry":{"x":166451.9000000013,"y":2545359.7899999991}},{"attributes":{"ID":418460,"DIS_CODE":0,"TOWNNAME":"北區","LI":"賢北里","LIN":"2鄰","STREET":"中華北路","SECT":"一段","MAREA":" ","LANE":"５３巷","ALLEY":" ","HOUSE_NO":"２０號","E_COORD97":166469.67999999999,"N_COORD97":2545368.04,"ADDRESS":"中華北路一段５３巷２０號","OBJECTID":418436},"geometry":{"x":166469.68000000063,"y":2545368.0399999991}},{"attributes":{"ID":418461,"DIS_CODE":0,"TOWNNAME":"北區","LI":"賢北里","LIN":"2鄰","STREET":"中華北路","SECT":"一段","MAREA":" ","LANE":"５３巷","ALLEY":" ","HOUSE_NO":"４０號","E_COORD97":166436.45000000001,"N_COORD97":2545354.0699999998,"ADDRESS":"中華北路一段５３巷４０號","OBJECTID":418437},"geometry":{"x":166436.45000000019,"y":2545354.0700000022}},{"attributes":{"ID":418462,"DIS_CODE":0,"TOWNNAME":"北區","LI":"賢北里","LIN":"2鄰","STREET":"中華北路","SECT":"一段","MAREA":" ","LANE":"５３巷","ALLEY":" ","HOUSE_NO":"４２號","E_COORD97":166432.22,"N_COORD97":2545352.1699999999,"ADDRESS":"中華北路一段５３巷４２號","OBJECTID":418438},"geometry":{"x":166432.22000000067,"y":2545352.1700000037}},{"attributes":{"ID":418463,"DIS_CODE":0,"TOWNNAME":"北區","LI":"賢北里","LIN":"2鄰","STREET":"中華北路","SECT":"一段","MAREA":" ","LANE":"５３巷","ALLEY":" ","HOUSE_NO":"５６號","E_COORD97":166369.20999999999,"N_COORD97":2545325.7599999998,"ADDRESS":"中華北路一段５３巷５６號","OBJECTID":418439},"geometry":{"x":166369.21000000183,"y":2545325.7600000016}},{"attributes":{"ID":418464,"DIS_CODE":0,"TOWNNAME":"北區","LI":"賢北里","LIN":"2鄰","STREET":"中華北路","SECT":"一段","MAREA":" ","LANE":"５３巷","ALLEY":" ","HOUSE_NO":"７２號","E_COORD97":166349.26999999999,"N_COORD97":2545318.1400000001,"ADDRESS":"中華北路一段５３巷７２號","OBJECTID":418440},"geometry":{"x":166349.26999999955,"y":2545318.1400000006}},{"attributes":{"ID":418465,"DIS_CODE":0,"TOWNNAME":"新營區","LI":"民榮里","LIN":"2鄰","STREET":"興農街","SECT":" ","MAREA":" ","LANE":"１３巷","ALLEY":" ","HOUSE_NO":"８號","E_COORD97":179300.34,"N_COORD97":2577991.29,"ADDRESS":"興農街１３巷８號","OBJECTID":418441},"geometry":{"x":179300.33999999985,"y":2577991.2899999991}},{"attributes":{"ID":418466,"DIS_CODE":0,"TOWNNAME":"新營區","LI":"民榮里","LIN":"2鄰","STREET":"興農街","SECT":" ","MAREA":" ","LANE":"１３巷","ALLEY":" ","HOUSE_NO":"６號","E_COORD97":179292.10000000001,"N_COORD97":2577990.2200000002,"ADDRESS":"興農街１３巷６號","OBJECTID":418442},"geometry":{"x":179292.10000000149,"y":2577990.2200000007}},{"attributes":{"ID":418467,"DIS_CODE":0,"TOWNNAME":"新營區","LI":"民榮里","LIN":"2鄰","STREET":"興農街","SECT":" ","MAREA":" ","LANE":"１３巷","ALLEY":" ","HOUSE_NO":"３號","E_COORD97":179300.29999999999,"N_COORD97":2577978.0099999998,"ADDRESS":"興農街１３巷３號","OBJECTID":418443},"geometry":{"x":179300.29999999981,"y":2577978.0099999998}},{"attributes":{"ID":418468,"DIS_CODE":0,"TOWNNAME":"新營區","LI":"民權里","LIN":"2鄰","STREET":"博愛街","SECT":" ","MAREA":" ","LANE":"２１巷","ALLEY":" ","HOUSE_NO":"８號","E_COORD97":179997.57000000001,"N_COORD97":2578125.3100000001,"ADDRESS":"博愛街２１巷８號","OBJECTID":418444},"geometry":{"x":179997.5700000003,"y":2578125.3100000005}},{"attributes":{"ID":418469,"DIS_CODE":0,"TOWNNAME":"新營區","LI":"護鎮里","LIN":"2鄰","STREET":"中正路","SECT":" ","MAREA":" ","LANE":"４７９巷","ALLEY":" ","HOUSE_NO":"６０號","E_COORD97":179625.34,"N_COORD97":2580479.3100000001,"ADDRESS":"中正路４７９巷６０號","OBJECTID":418445},"geometry":{"x":179625.34000000078,"y":2580479.3100000042}},{"attributes":{"ID":418470,"DIS_CODE":0,"TOWNNAME":"新營區","LI":"民權里","LIN":"2鄰","STREET":"博愛街","SECT":" ","MAREA":" ","LANE":"２１巷","ALLEY":" ","HOUSE_NO":"７號","E_COORD97":180020.04000000001,"N_COORD97":2578126.3100000001,"ADDRESS":"博愛街２１巷７號","OBJECTID":418446},"geometry":{"x":180020.0400000019,"y":2578126.3099999987}},{"attributes":{"ID":418471,"DIS_CODE":0,"TOWNNAME":"新營區","LI":"民權里","LIN":"2鄰","STREET":"博愛街","SECT":" ","MAREA":" ","LANE":"２１巷","ALLEY":" ","HOUSE_NO":"５號","E_COORD97":180007.75,"N_COORD97":2578125.2599999998,"ADDRESS":"博愛街２１巷５號","OBJECTID":418447},"geometry":{"x":180007.75,"y":2578125.2599999998}},{"attributes":{"ID":418472,"DIS_CODE":0,"TOWNNAME":"新營區","LI":"民權里","LIN":"2鄰","STREET":"博愛街","SECT":" ","MAREA":" ","LANE":"２１巷","ALLEY":" ","HOUSE_NO":"１３號","E_COORD97":179984.38,"N_COORD97":2578115.4199999999,"ADDRESS":"博愛街２１巷１３號","OBJECTID":418448},"geometry":{"x":179984.38000000082,"y":2578115.4200000018}},{"attributes":{"ID":418473,"DIS_CODE":0,"TOWNNAME":"新營區","LI":"民權里","LIN":"2鄰","STREET":"博愛街","SECT":" ","MAREA":" ","LANE":"２１巷","ALLEY":" ","HOUSE_NO":"１號","E_COORD97":180006.75,"N_COORD97":2578135.2400000002,"ADDRESS":"博愛街２１巷１號","OBJECTID":418449},"geometry":{"x":180006.75000000186,"y":2578135.2400000002}},{"attributes":{"ID":418474,"DIS_CODE":0,"TOWNNAME":"新營區","LI":"民榮里","LIN":"2鄰","STREET":"興農街","SECT":" ","MAREA":" ","LANE":"１３巷","ALLEY":" ","HOUSE_NO":"７號","E_COORD97":179297.23000000001,"N_COORD97":2577991.3100000001,"ADDRESS":"興農街１３巷７號","OBJECTID":418450},"geometry":{"x":179297.23000000138,"y":2577991.3100000024}},{"attributes":{"ID":418475,"DIS_CODE":0,"TOWNNAME":"新營區","LI":"民榮里","LIN":"2鄰","STREET":"興農街","SECT":" ","MAREA":" ","LANE":"１３巷","ALLEY":" ","HOUSE_NO":"２號","E_COORD97":179295.16,"N_COORD97":2577976.9199999999,"ADDRESS":"興農街１３巷２號","OBJECTID":418451},"geometry":{"x":179295.16000000015,"y":2577976.9200000018}},{"attributes":{"ID":418476,"DIS_CODE":0,"TOWNNAME":"新營區","LI":"民榮里","LIN":"2鄰","STREET":"興農街","SECT":" ","MAREA":" ","LANE":"１３巷","ALLEY":" ","HOUSE_NO":"５號","E_COORD97":179288.01000000001,"N_COORD97":2577989.1400000001,"ADDRESS":"興農街１３巷５號","OBJECTID":418452},"geometry":{"x":179288.01000000071,"y":2577989.1400000025}},{"attributes":{"ID":418477,"DIS_CODE":0,"TOWNNAME":"楠西區","LI":"楠西里","LIN":"2鄰","STREET":"中華路","SECT":" ","MAREA":" ","LANE":"２５２巷","ALLEY":" ","HOUSE_NO":"９號","E_COORD97":196995.06,"N_COORD97":2564361.2400000002,"ADDRESS":"中華路２５２巷９號","OBJECTID":418453},"geometry":{"x":196995.06000000145,"y":2564361.2400000002}},{"attributes":{"ID":418478,"DIS_CODE":0,"TOWNNAME":"楠西區","LI":"楠西里","LIN":"2鄰","STREET":"中華路","SECT":" ","MAREA":" ","LANE":"２５２巷","ALLEY":" ","HOUSE_NO":"２７號","E_COORD97":197025.41,"N_COORD97":2564404.25,"ADDRESS":"中華路２５２巷２７號","OBJECTID":418454},"geometry":{"x":197025.40999999922,"y":2564404.25}},{"attributes":{"ID":418479,"DIS_CODE":0,"TOWNNAME":"楠西區","LI":"楠西里","LIN":"2鄰","STREET":"中華路","SECT":" ","MAREA":" ","LANE":"２５２巷","ALLEY":" ","HOUSE_NO":"３７號","E_COORD97":197043.51000000001,"N_COORD97":2564433.25,"ADDRESS":"中華路２５２巷３７號","OBJECTID":418455},"geometry":{"x":197043.51000000071,"y":2564433.2500000019}},{"attributes":{"ID":418480,"DIS_CODE":0,"TOWNNAME":"東山區","LI":"東中里","LIN":"2鄰","STREET":"新東路","SECT":"一段","MAREA":" ","LANE":"７７巷","ALLEY":" ","HOUSE_NO":"１１號","E_COORD97":188755.17999999999,"N_COORD97":2580036.23,"ADDRESS":"新東路一段７７巷１１號","OBJECTID":418456},"geometry":{"x":188755.1799999997,"y":2580036.2300000023}},{"attributes":{"ID":418481,"DIS_CODE":0,"TOWNNAME":"東山區","LI":"東中里","LIN":"2鄰","STREET":"新東路","SECT":"一段","MAREA":" ","LANE":"７７巷","ALLEY":" ","HOUSE_NO":"１３號","E_COORD97":188759.22,"N_COORD97":2580035.3700000001,"ADDRESS":"新東路一段７７巷１３號","OBJECTID":418457},"geometry":{"x":188759.22000000067,"y":2580035.3700000048}},{"attributes":{"ID":418482,"DIS_CODE":0,"TOWNNAME":"東山區","LI":"東中里","LIN":"2鄰","STREET":"新東路","SECT":"一段","MAREA":" ","LANE":"７７巷","ALLEY":" ","HOUSE_NO":"３號","E_COORD97":188739.39000000001,"N_COORD97":2580042.1299999999,"ADDRESS":"新東路一段７７巷３號","OBJECTID":418458},"geometry":{"x":188739.3900000006,"y":2580042.1300000008}},{"attributes":{"ID":418483,"DIS_CODE":0,"TOWNNAME":"東山區","LI":"東中里","LIN":"2鄰","STREET":"新東路","SECT":"一段","MAREA":" ","LANE":"７７巷","ALLEY":" ","HOUSE_NO":"５號","E_COORD97":188743.01999999999,"N_COORD97":2580040.6899999999,"ADDRESS":"新東路一段７７巷５號","OBJECTID":418459},"geometry":{"x":188743.01999999862,"y":2580040.6899999995}},{"attributes":{"ID":418484,"DIS_CODE":0,"TOWNNAME":"東山區","LI":"東中里","LIN":"2鄰","STREET":"新東路","SECT":"一段","MAREA":" ","LANE":"７７巷","ALLEY":" ","HOUSE_NO":"７號","E_COORD97":188746.98999999999,"N_COORD97":2580039.4300000002,"ADDRESS":"新東路一段７７巷７號","OBJECTID":418460},"geometry":{"x":188746.99000000022,"y":2580039.4299999997}},{"attributes":{"ID":418485,"DIS_CODE":0,"TOWNNAME":"東山區","LI":"東中里","LIN":"2鄰","STREET":"新東路","SECT":"一段","MAREA":" ","LANE":"７７巷","ALLEY":" ","HOUSE_NO":"９號","E_COORD97":188750.81,"N_COORD97":2580038.0299999998,"ADDRESS":"新東路一段７７巷９號","OBJECTID":418461},"geometry":{"x":188750.80999999959,"y":2580038.0299999993}},{"attributes":{"ID":418486,"DIS_CODE":0,"TOWNNAME":"東山區","LI":"東中里","LIN":"2鄰","STREET":"鳳安二街","SECT":" ","MAREA":" ","LANE":"４７巷","ALLEY":" ","HOUSE_NO":"１５號","E_COORD97":188490.07000000001,"N_COORD97":2579912.4900000002,"ADDRESS":"鳳安二街４７巷１５號","OBJECTID":418462},"geometry":{"x":188490.07000000123,"y":2579912.4900000021}},{"attributes":{"ID":418487,"DIS_CODE":0,"TOWNNAME":"新化區","LI":"觀音里","LIN":"2鄰","STREET":"中山路","SECT":" ","MAREA":" ","LANE":"２５８巷","ALLEY":" ","HOUSE_NO":"３號","E_COORD97":179006.91,"N_COORD97":2548491.25,"ADDRESS":"中山路２５８巷３號","OBJECTID":418463},"geometry":{"x":179006.91000000015,"y":2548491.2500000037}},{"attributes":{"ID":418488,"DIS_CODE":0,"TOWNNAME":"新化區","LI":"協興里","LIN":"2鄰","STREET":"忠孝路","SECT":" ","MAREA":" ","LANE":"１９０巷","ALLEY":" ","HOUSE_NO":"１２號之１４","E_COORD97":178491.45999999999,"N_COORD97":2548652.2599999998,"ADDRESS":"忠孝路１９０巷１２號之１４","OBJECTID":418464},"geometry":{"x":178491.46000000183,"y":2548652.2599999998}},{"attributes":{"ID":418489,"DIS_CODE":0,"TOWNNAME":"新化區","LI":"武安里","LIN":"2鄰","STREET":"正新南路","SECT":" ","MAREA":" ","LANE":"６１巷","ALLEY":" ","HOUSE_NO":"１號","E_COORD97":179043.72,"N_COORD97":2547989.25,"ADDRESS":"正新南路６１巷１號","OBJECTID":418465},"geometry":{"x":179043.71999999881,"y":2547989.2500000037}},{"attributes":{"ID":418490,"DIS_CODE":0,"TOWNNAME":"新化區","LI":"太平里","LIN":"2鄰","STREET":"太平街","SECT":" ","MAREA":" ","LANE":"１巷","ALLEY":" ","HOUSE_NO":"９號之３","E_COORD97":179114.76999999999,"N_COORD97":2548778.2599999998,"ADDRESS":"太平街１巷９號之３","OBJECTID":418466},"geometry":{"x":179114.77000000048,"y":2548778.2599999998}},{"attributes":{"ID":418491,"DIS_CODE":0,"TOWNNAME":"新化區","LI":"竹林里","LIN":"2鄰","STREET":"竹林路","SECT":" ","MAREA":" ","LANE":"５５巷","ALLEY":" ","HOUSE_NO":"１號","E_COORD97":178815.28,"N_COORD97":2548570.25,"ADDRESS":"竹林路５５巷１號","OBJECTID":418467},"geometry":{"x":178815.28000000119,"y":2548570.2500000019}},{"attributes":{"ID":418492,"DIS_CODE":0,"TOWNNAME":"新化區","LI":"協興里","LIN":"2鄰","STREET":"忠孝路","SECT":" ","MAREA":" ","LANE":"１８０巷","ALLEY":" ","HOUSE_NO":"３號","E_COORD97":178438.92000000001,"N_COORD97":2548613.25,"ADDRESS":"忠孝路１８０巷３號","OBJECTID":418468},"geometry":{"x":178438.91999999993,"y":2548613.2500000037}},{"attributes":{"ID":418493,"DIS_CODE":0,"TOWNNAME":"新化區","LI":"武安里","LIN":"2鄰","STREET":"正新南路","SECT":" ","MAREA":" ","LANE":"６１巷","ALLEY":" ","HOUSE_NO":"３號","E_COORD97":179044.32000000001,"N_COORD97":2547985.25,"ADDRESS":"正新南路６１巷３號","OBJECTID":418469},"geometry":{"x":179044.32000000123,"y":2547985.25}},{"attributes":{"ID":418494,"DIS_CODE":0,"TOWNNAME":"新化區","LI":"協興里","LIN":"2鄰","STREET":"忠孝路","SECT":" ","MAREA":" ","LANE":"１９０巷","ALLEY":" ","HOUSE_NO":"１２號之１１","E_COORD97":178477.25,"N_COORD97":2548650.2599999998,"ADDRESS":"忠孝路１９０巷１２號之１１","OBJECTID":418470},"geometry":{"x":178477.25,"y":2548650.2600000035}},{"attributes":{"ID":418495,"DIS_CODE":0,"TOWNNAME":"新化區","LI":"協興里","LIN":"2鄰","STREET":"忠孝路","SECT":" ","MAREA":" ","LANE":"１９０巷","ALLEY":" ","HOUSE_NO":"２０號","E_COORD97":178410.37,"N_COORD97":2548665.25,"ADDRESS":"忠孝路１９０巷２０號","OBJECTID":418471},"geometry":{"x":178410.37000000011,"y":2548665.2500000019}},{"attributes":{"ID":418496,"DIS_CODE":0,"TOWNNAME":"新化區","LI":"觀音里","LIN":"2鄰","STREET":"中山路","SECT":" ","MAREA":" ","LANE":"２５８巷","ALLEY":" ","HOUSE_NO":"９號","E_COORD97":178995.70999999999,"N_COORD97":2548499.25,"ADDRESS":"中山路２５８巷９號","OBJECTID":418472},"geometry":{"x":178995.71000000089,"y":2548499.2500000019}},{"attributes":{"ID":418497,"DIS_CODE":0,"TOWNNAME":"新化區","LI":"協興里","LIN":"2鄰","STREET":"忠孝路","SECT":" ","MAREA":" ","LANE":"１６６巷","ALLEY":" ","HOUSE_NO":"７號","E_COORD97":178470.72,"N_COORD97":2548642.25,"ADDRESS":"忠孝路１６６巷７號","OBJECTID":418473},"geometry":{"x":178470.71999999881,"y":2548642.25}},{"attributes":{"ID":418498,"DIS_CODE":0,"TOWNNAME":"新化區","LI":"太平里","LIN":"2鄰","STREET":"太平街","SECT":" ","MAREA":" ","LANE":"１巷","ALLEY":" ","HOUSE_NO":"１１號","E_COORD97":179087.67000000001,"N_COORD97":2548783.25,"ADDRESS":"太平街１巷１１號","OBJECTID":418474},"geometry":{"x":179087.66999999993,"y":2548783.2500000019}},{"attributes":{"ID":418499,"DIS_CODE":0,"TOWNNAME":"新化區","LI":"太平里","LIN":"2鄰","STREET":"太平街","SECT":" ","MAREA":" ","LANE":"１巷","ALLEY":" ","HOUSE_NO":"７號之３","E_COORD97":179091.57000000001,"N_COORD97":2548791.2599999998,"ADDRESS":"太平街１巷７號之３","OBJECTID":418475},"geometry":{"x":179091.57000000123,"y":2548791.2599999998}},{"attributes":{"ID":418500,"DIS_CODE":0,"TOWNNAME":"新化區","LI":"東榮里","LIN":"2鄰","STREET":"中興路","SECT":" ","MAREA":" ","LANE":"１０４巷","ALLEY":" ","HOUSE_NO":"１０號","E_COORD97":181875.85999999999,"N_COORD97":2547347.25,"ADDRESS":"中興路１０４巷１０號","OBJECTID":418476},"geometry":{"x":181875.86000000034,"y":2547347.25}},{"attributes":{"ID":418501,"DIS_CODE":0,"TOWNNAME":"新化區","LI":"武安里","LIN":"2鄰","STREET":"正新南路","SECT":" ","MAREA":" ","LANE":"６１巷","ALLEY":" ","HOUSE_NO":"１８號","E_COORD97":179029.76999999999,"N_COORD97":2547961.25,"ADDRESS":"正新南路６１巷１８號","OBJECTID":418477},"geometry":{"x":179029.77000000142,"y":2547961.25}},{"attributes":{"ID":418502,"DIS_CODE":0,"TOWNNAME":"新化區","LI":"清水里","LIN":"2鄰","STREET":"信義路","SECT":" ","MAREA":" ","LANE":"４１２巷","ALLEY":" ","HOUSE_NO":"２１號","E_COORD97":178719.48000000001,"N_COORD97":2548347.25,"ADDRESS":"信義路４１２巷２１號","OBJECTID":418478},"geometry":{"x":178719.48000000138,"y":2548347.25}},{"attributes":{"ID":418503,"DIS_CODE":0,"TOWNNAME":"新化區","LI":"清水里","LIN":"2鄰","STREET":"信義路","SECT":" ","MAREA":" ","LANE":"４１２巷","ALLEY":" ","HOUSE_NO":"６號","E_COORD97":178740.73000000001,"N_COORD97":2548316.25,"ADDRESS":"信義路４１２巷６號","OBJECTID":418479},"geometry":{"x":178740.73000000045,"y":2548316.2500000019}},{"attributes":{"ID":418504,"DIS_CODE":0,"TOWNNAME":"新化區","LI":"東榮里","LIN":"2鄰","STREET":"中興路","SECT":" ","MAREA":" ","LANE":"１０４巷","ALLEY":" ","HOUSE_NO":"６號","E_COORD97":181872.31,"N_COORD97":2547334.25,"ADDRESS":"中興路１０４巷６號","OBJECTID":418480},"geometry":{"x":181872.31000000145,"y":2547334.25}},{"attributes":{"ID":418505,"DIS_CODE":0,"TOWNNAME":"新化區","LI":"竹林里","LIN":"2鄰","STREET":"竹林路","SECT":" ","MAREA":" ","LANE":"３３巷","ALLEY":" ","HOUSE_NO":"１２號","E_COORD97":178791.73000000001,"N_COORD97":2548527.2400000002,"ADDRESS":"竹林路３３巷１２號","OBJECTID":418481},"geometry":{"x":178791.73000000045,"y":2548527.2400000002}},{"attributes":{"ID":418506,"DIS_CODE":0,"TOWNNAME":"新化區","LI":"中央里","LIN":"2鄰","STREET":"中正路","SECT":" ","MAREA":" ","LANE":"４２７巷","ALLEY":" ","HOUSE_NO":"１７號","E_COORD97":179045.35999999999,"N_COORD97":2548349.25,"ADDRESS":"中正路４２７巷１７號","OBJECTID":418482},"geometry":{"x":179045.36000000127,"y":2548349.2500000019}},{"attributes":{"ID":418507,"DIS_CODE":0,"TOWNNAME":"新化區","LI":"清水里","LIN":"2鄰","STREET":"信義路","SECT":" ","MAREA":" ","LANE":"４１２巷","ALLEY":" ","HOUSE_NO":"３２號","E_COORD97":178755.28,"N_COORD97":2548327.25,"ADDRESS":"信義路４１２巷３２號","OBJECTID":418483},"geometry":{"x":178755.28000000026,"y":2548327.25}},{"attributes":{"ID":418508,"DIS_CODE":0,"TOWNNAME":"新化區","LI":"東榮里","LIN":"2鄰","STREET":"中興路","SECT":" ","MAREA":" ","LANE":"６０巷","ALLEY":" ","HOUSE_NO":"２８號","E_COORD97":181896.10999999999,"N_COORD97":2547382.25,"ADDRESS":"中興路６０巷２８號","OBJECTID":418484},"geometry":{"x":181896.11000000034,"y":2547382.2499999981}},{"attributes":{"ID":418509,"DIS_CODE":0,"TOWNNAME":"新化區","LI":"東榮里","LIN":"2鄰","STREET":"中興路","SECT":" ","MAREA":" ","LANE":"１０４巷","ALLEY":" ","HOUSE_NO":"１６號","E_COORD97":181869.95999999999,"N_COORD97":2547367.25,"ADDRESS":"中興路１０４巷１６號","OBJECTID":418485},"geometry":{"x":181869.96000000183,"y":2547367.25}},{"attributes":{"ID":418510,"DIS_CODE":0,"TOWNNAME":"新化區","LI":"東榮里","LIN":"2鄰","STREET":"中興路","SECT":" ","MAREA":" ","LANE":"１０４巷","ALLEY":" ","HOUSE_NO":"１４號","E_COORD97":181870.35999999999,"N_COORD97":2547362.25,"ADDRESS":"中興路１０４巷１４號","OBJECTID":418486},"geometry":{"x":181870.36000000034,"y":2547362.2500000037}},{"attributes":{"ID":418511,"DIS_CODE":0,"TOWNNAME":"新化區","LI":"武安里","LIN":"2鄰","STREET":"正新南路","SECT":" ","MAREA":" ","LANE":"６１巷","ALLEY":" ","HOUSE_NO":"６號","E_COORD97":179029.12,"N_COORD97":2547983.25,"ADDRESS":"正新南路６１巷６號","OBJECTID":418487},"geometry":{"x":179029.12000000011,"y":2547983.2500000019}},{"attributes":{"ID":418512,"DIS_CODE":0,"TOWNNAME":"新化區","LI":"武安里","LIN":"2鄰","STREET":"正新南路","SECT":" ","MAREA":" ","LANE":"６１巷","ALLEY":" ","HOUSE_NO":"１５號","E_COORD97":179049.76999999999,"N_COORD97":2547960.25,"ADDRESS":"正新南路６１巷１５號","OBJECTID":418488},"geometry":{"x":179049.76999999955,"y":2547960.2500000019}},{"attributes":{"ID":418513,"DIS_CODE":0,"TOWNNAME":"新化區","LI":"武安里","LIN":"2鄰","STREET":"正新南路","SECT":" ","MAREA":" ","LANE":"６１巷","ALLEY":" ","HOUSE_NO":"２０號","E_COORD97":179030.07000000001,"N_COORD97":2547957.25,"ADDRESS":"正新南路６１巷２０號","OBJECTID":418489},"geometry":{"x":179030.06999999937,"y":2547957.25}},{"attributes":{"ID":418514,"DIS_CODE":0,"TOWNNAME":"新化區","LI":"協興里","LIN":"2鄰","STREET":"忠孝路","SECT":" ","MAREA":" ","LANE":"１９０巷","ALLEY":" ","HOUSE_NO":"６號","E_COORD97":178405.51999999999,"N_COORD97":2548617.25,"ADDRESS":"忠孝路１９０巷６號","OBJECTID":418490},"geometry":{"x":178405.51999999955,"y":2548617.2500000019}},{"attributes":{"ID":418515,"DIS_CODE":0,"TOWNNAME":"新化區","LI":"東榮里","LIN":"2鄰","STREET":"中興路","SECT":" ","MAREA":" ","LANE":"６０巷","ALLEY":" ","HOUSE_NO":"２３號","E_COORD97":181884.10999999999,"N_COORD97":2547368.25,"ADDRESS":"中興路６０巷２３號","OBJECTID":418491},"geometry":{"x":181884.11000000034,"y":2547368.25}},{"attributes":{"ID":418516,"DIS_CODE":0,"TOWNNAME":"新化區","LI":"中央里","LIN":"2鄰","STREET":"中正路","SECT":" ","MAREA":" ","LANE":"４２７巷","ALLEY":" ","HOUSE_NO":"１５號","E_COORD97":179036.06,"N_COORD97":2548369.25,"ADDRESS":"中正路４２７巷１５號","OBJECTID":418492},"geometry":{"x":179036.05999999959,"y":2548369.2500000037}},{"attributes":{"ID":418517,"DIS_CODE":0,"TOWNNAME":"新化區","LI":"武安里","LIN":"2鄰","STREET":"正新南路","SECT":" ","MAREA":" ","LANE":"６１巷","ALLEY":" ","HOUSE_NO":"１１號","E_COORD97":179046.87,"N_COORD97":2547970.25,"ADDRESS":"正新南路６１巷１１號","OBJECTID":418493},"geometry":{"x":179046.87000000104,"y":2547970.2500000019}},{"attributes":{"ID":418518,"DIS_CODE":0,"TOWNNAME":"新化區","LI":"東榮里","LIN":"2鄰","STREET":"中興路","SECT":" ","MAREA":" ","LANE":"６０巷","ALLEY":" ","HOUSE_NO":"３２號","E_COORD97":181882.31,"N_COORD97":2547377.25,"ADDRESS":"中興路６０巷３２號","OBJECTID":418494},"geometry":{"x":181882.30999999959,"y":2547377.2500000019}},{"attributes":{"ID":418519,"DIS_CODE":0,"TOWNNAME":"新化區","LI":"觀音里","LIN":"2鄰","STREET":"仁愛街","SECT":" ","MAREA":" ","LANE":"６５巷","ALLEY":" ","HOUSE_NO":"３９號","E_COORD97":178970.53,"N_COORD97":2548497.25,"ADDRESS":"仁愛街６５巷３９號","OBJECTID":418495},"geometry":{"x":178970.53000000026,"y":2548497.25}},{"attributes":{"ID":418520,"DIS_CODE":0,"TOWNNAME":"新化區","LI":"觀音里","LIN":"2鄰","STREET":"仁愛街","SECT":" ","MAREA":" ","LANE":"６５巷","ALLEY":" ","HOUSE_NO":"４３號","E_COORD97":178971.13,"N_COORD97":2548491.25,"ADDRESS":"仁愛街６５巷４３號","OBJECTID":418496},"geometry":{"x":178971.12999999989,"y":2548491.2500000037}},{"attributes":{"ID":418521,"DIS_CODE":0,"TOWNNAME":"新化區","LI":"太平里","LIN":"2鄰","STREET":"太平街","SECT":" ","MAREA":" ","LANE":"１巷","ALLEY":" ","HOUSE_NO":"７號之１","E_COORD97":179084.75,"N_COORD97":2548793.2599999998,"ADDRESS":"太平街１巷７號之１","OBJECTID":418497},"geometry":{"x":179084.75000000093,"y":2548793.2600000016}},{"attributes":{"ID":418522,"DIS_CODE":0,"TOWNNAME":"新化區","LI":"太平里","LIN":"2鄰","STREET":"太平街","SECT":" ","MAREA":" ","LANE":"１巷","ALLEY":" ","HOUSE_NO":"５號","E_COORD97":179086.12,"N_COORD97":2548811.25,"ADDRESS":"太平街１巷５號","OBJECTID":418498},"geometry":{"x":179086.12000000104,"y":2548811.2500000019}},{"attributes":{"ID":418523,"DIS_CODE":0,"TOWNNAME":"新化區","LI":"協興里","LIN":"2鄰","STREET":"忠孝路","SECT":" ","MAREA":" ","LANE":"１９０巷","ALLEY":" ","HOUSE_NO":"１２號之１５","E_COORD97":178496.78,"N_COORD97":2548653.2599999998,"ADDRESS":"忠孝路１９０巷１２號之１５","OBJECTID":418499},"geometry":{"x":178496.78000000119,"y":2548653.2599999979}},{"attributes":{"ID":418524,"DIS_CODE":0,"TOWNNAME":"新化區","LI":"觀音里","LIN":"2鄰","STREET":"仁愛街","SECT":" ","MAREA":" ","LANE":"６５巷","ALLEY":" ","HOUSE_NO":"４５號","E_COORD97":178978.73000000001,"N_COORD97":2548471.25,"ADDRESS":"仁愛街６５巷４５號","OBJECTID":418500},"geometry":{"x":178978.73000000138,"y":2548471.2500000019}},{"attributes":{"ID":418525,"DIS_CODE":0,"TOWNNAME":"新化區","LI":"協興里","LIN":"2鄰","STREET":"忠孝路","SECT":" ","MAREA":" ","LANE":"１６６巷","ALLEY":" ","HOUSE_NO":"１７號","E_COORD97":178493.47,"N_COORD97":2548680.25,"ADDRESS":"忠孝路１６６巷１７號","OBJECTID":418501},"geometry":{"x":178493.47000000067,"y":2548680.25}},{"attributes":{"ID":418526,"DIS_CODE":0,"TOWNNAME":"新化區","LI":"協興里","LIN":"2鄰","STREET":"忠孝路","SECT":" ","MAREA":" ","LANE":"１８０巷","ALLEY":" ","HOUSE_NO":"７號","E_COORD97":178437.01999999999,"N_COORD97":2548622.25,"ADDRESS":"忠孝路１８０巷７號","OBJECTID":418502},"geometry":{"x":178437.02000000048,"y":2548622.25}},{"attributes":{"ID":418527,"DIS_CODE":0,"TOWNNAME":"新化區","LI":"協興里","LIN":"2鄰","STREET":"忠孝路","SECT":" ","MAREA":" ","LANE":"１８０巷","ALLEY":" ","HOUSE_NO":"１１號","E_COORD97":178434.57000000001,"N_COORD97":2548635.25,"ADDRESS":"忠孝路１８０巷１１號","OBJECTID":418503},"geometry":{"x":178434.5700000003,"y":2548635.25}},{"attributes":{"ID":418528,"DIS_CODE":0,"TOWNNAME":"新化區","LI":"中央里","LIN":"2鄰","STREET":"中正路","SECT":" ","MAREA":" ","LANE":"４２７巷","ALLEY":" ","HOUSE_NO":"２１號","E_COORD97":179017.66,"N_COORD97":2548366.25,"ADDRESS":"中正路４２７巷２１號","OBJECTID":418504},"geometry":{"x":179017.66000000108,"y":2548366.2500000019}},{"attributes":{"ID":418529,"DIS_CODE":0,"TOWNNAME":"新化區","LI":"清水里","LIN":"2鄰","STREET":"信義路","SECT":" ","MAREA":" ","LANE":"４１２巷","ALLEY":" ","HOUSE_NO":"１１號","E_COORD97":178719.07999999999,"N_COORD97":2548325.25,"ADDRESS":"信義路４１２巷１１號","OBJECTID":418505},"geometry":{"x":178719.08000000007,"y":2548325.2500000019}},{"attributes":{"ID":418530,"DIS_CODE":0,"TOWNNAME":"新化區","LI":"太平里","LIN":"2鄰","STREET":"太平街","SECT":" ","MAREA":" ","LANE":"１巷","ALLEY":" ","HOUSE_NO":"１號","E_COORD97":179098.22,"N_COORD97":2548840.25,"ADDRESS":"太平街１巷１號","OBJECTID":418506},"geometry":{"x":179098.22000000067,"y":2548840.2500000037}},{"attributes":{"ID":418531,"DIS_CODE":0,"TOWNNAME":"新化區","LI":"清水里","LIN":"2鄰","STREET":"信義路","SECT":" ","MAREA":" ","LANE":"４１２巷","ALLEY":" ","HOUSE_NO":"４２號","E_COORD97":178734.17999999999,"N_COORD97":2548327.25,"ADDRESS":"信義路４１２巷４２號","OBJECTID":418507},"geometry":{"x":178734.18000000063,"y":2548327.25}},{"attributes":{"ID":418532,"DIS_CODE":0,"TOWNNAME":"新化區","LI":"太平里","LIN":"2鄰","STREET":"太平街","SECT":" ","MAREA":" ","LANE":"１巷","ALLEY":" ","HOUSE_NO":"９號之２","E_COORD97":179109.88,"N_COORD97":2548783.2599999998,"ADDRESS":"太平街１巷９號之２","OBJECTID":418508},"geometry":{"x":179109.87999999989,"y":2548783.2600000016}},{"attributes":{"ID":418533,"DIS_CODE":0,"TOWNNAME":"新化區","LI":"護國里","LIN":"2鄰","STREET":"中正路","SECT":" ","MAREA":" ","LANE":"４６０巷","ALLEY":" ","HOUSE_NO":"１３號","E_COORD97":179110.45999999999,"N_COORD97":2548533.25,"ADDRESS":"中正路４６０巷１３號","OBJECTID":418509},"geometry":{"x":179110.46000000089,"y":2548533.2500000019}},{"attributes":{"ID":418534,"DIS_CODE":0,"TOWNNAME":"新化區","LI":"協興里","LIN":"2鄰","STREET":"忠孝路","SECT":" ","MAREA":" ","LANE":"１９０巷","ALLEY":" ","HOUSE_NO":"２號","E_COORD97":178411.22,"N_COORD97":2548606.25,"ADDRESS":"忠孝路１９０巷２號","OBJECTID":418510},"geometry":{"x":178411.21999999974,"y":2548606.2500000037}},{"attributes":{"ID":418535,"DIS_CODE":0,"TOWNNAME":"新化區","LI":"清水里","LIN":"2鄰","STREET":"信義路","SECT":" ","MAREA":" ","LANE":"４１２巷","ALLEY":" ","HOUSE_NO":"１號","E_COORD97":178719.92999999999,"N_COORD97":2548301.25,"ADDRESS":"信義路４１２巷１號","OBJECTID":418511},"geometry":{"x":178719.9299999997,"y":2548301.2500000037}},{"attributes":{"ID":418536,"DIS_CODE":0,"TOWNNAME":"新化區","LI":"清水里","LIN":"2鄰","STREET":"信義路","SECT":" ","MAREA":" ","LANE":"４１２巷","ALLEY":" ","HOUSE_NO":"１０號","E_COORD97":178747.98000000001,"N_COORD97":2548316.25,"ADDRESS":"信義路４１２巷１０號","OBJECTID":418512},"geometry":{"x":178747.98000000138,"y":2548316.2500000019}},{"attributes":{"ID":418537,"DIS_CODE":0,"TOWNNAME":"新市區","LI":"永就里","LIN":"9鄰","STREET":"中山路","SECT":" ","MAREA":" ","LANE":"１９５巷","ALLEY":" ","HOUSE_NO":"３號","E_COORD97":177649.09,"N_COORD97":2552073,"ADDRESS":"中山路１９５巷３號","OBJECTID":418513},"geometry":{"x":177649.08999999985,"y":2552073.0000000037}},{"attributes":{"ID":418538,"DIS_CODE":0,"TOWNNAME":"新化區","LI":"清水里","LIN":"2鄰","STREET":"信義路","SECT":" ","MAREA":" ","LANE":"４１２巷","ALLEY":" ","HOUSE_NO":"２４號","E_COORD97":178770.88,"N_COORD97":2548328.25,"ADDRESS":"信義路４１２巷２４號","OBJECTID":418514},"geometry":{"x":178770.87999999989,"y":2548328.2500000037}},{"attributes":{"ID":418539,"DIS_CODE":0,"TOWNNAME":"新化區","LI":"協興里","LIN":"2鄰","STREET":"忠孝路","SECT":" ","MAREA":" ","LANE":"１６６巷","ALLEY":" ","HOUSE_NO":"５號","E_COORD97":178481.51999999999,"N_COORD97":2548640.25,"ADDRESS":"忠孝路１６６巷５號","OBJECTID":418515},"geometry":{"x":178481.51999999955,"y":2548640.2500000037}},{"attributes":{"ID":418540,"DIS_CODE":0,"TOWNNAME":"新化區","LI":"協興里","LIN":"2鄰","STREET":"忠孝路","SECT":" ","MAREA":" ","LANE":"１６６巷","ALLEY":" ","HOUSE_NO":"１１號","E_COORD97":178459.47,"N_COORD97":2548638.25,"ADDRESS":"忠孝路１６６巷１１號","OBJECTID":418516},"geometry":{"x":178459.47000000067,"y":2548638.2500000019}},{"attributes":{"ID":418541,"DIS_CODE":0,"TOWNNAME":"新化區","LI":"清水里","LIN":"2鄰","STREET":"信義路","SECT":" ","MAREA":" ","LANE":"４１２巷","ALLEY":" ","HOUSE_NO":"５號","E_COORD97":178719.82999999999,"N_COORD97":2548311.25,"ADDRESS":"信義路４１２巷５號","OBJECTID":418517},"geometry":{"x":178719.83000000101,"y":2548311.2500000037}},{"attributes":{"ID":418542,"DIS_CODE":0,"TOWNNAME":"新化區","LI":"清水里","LIN":"2鄰","STREET":"信義路","SECT":" ","MAREA":" ","LANE":"４１２巷","ALLEY":" ","HOUSE_NO":"２０號","E_COORD97":178769.17999999999,"N_COORD97":2548315.25,"ADDRESS":"信義路４１２巷２０號","OBJECTID":418518},"geometry":{"x":178769.1799999997,"y":2548315.2500000019}},{"attributes":{"ID":418543,"DIS_CODE":0,"TOWNNAME":"新化區","LI":"太平里","LIN":"2鄰","STREET":"太平街","SECT":" ","MAREA":" ","LANE":"１巷","ALLEY":" ","HOUSE_NO":"１７號","E_COORD97":179074.67000000001,"N_COORD97":2548767.25,"ADDRESS":"太平街１巷１７號","OBJECTID":418519},"geometry":{"x":179074.66999999993,"y":2548767.2500000019}},{"attributes":{"ID":418544,"DIS_CODE":0,"TOWNNAME":"新化區","LI":"清水里","LIN":"2鄰","STREET":"信義路","SECT":" ","MAREA":" ","LANE":"４１２巷","ALLEY":" ","HOUSE_NO":"３４號","E_COORD97":178749.88,"N_COORD97":2548328.25,"ADDRESS":"信義路４１２巷３４號","OBJECTID":418520},"geometry":{"x":178749.88000000082,"y":2548328.2500000037}},{"attributes":{"ID":418545,"DIS_CODE":0,"TOWNNAME":"新化區","LI":"清水里","LIN":"2鄰","STREET":"信義路","SECT":" ","MAREA":" ","LANE":"４１２巷","ALLEY":" ","HOUSE_NO":"１９號","E_COORD97":178718.57999999999,"N_COORD97":2548343.25,"ADDRESS":"信義路４１２巷１９號","OBJECTID":418521},"geometry":{"x":178718.58000000101,"y":2548343.2500000019}},{"attributes":{"ID":418546,"DIS_CODE":0,"TOWNNAME":"新化區","LI":"清水里","LIN":"2鄰","STREET":"信義路","SECT":" ","MAREA":" ","LANE":"４１２巷","ALLEY":" ","HOUSE_NO":"５２號","E_COORD97":178736.07999999999,"N_COORD97":2548357.25,"ADDRESS":"信義路４１２巷５２號","OBJECTID":418522},"geometry":{"x":178736.08000000007,"y":2548357.25}},{"attributes":{"ID":418547,"DIS_CODE":0,"TOWNNAME":"新化區","LI":"協興里","LIN":"2鄰","STREET":"忠孝路","SECT":" ","MAREA":" ","LANE":"１６６巷","ALLEY":" ","HOUSE_NO":"９號","E_COORD97":178459.72,"N_COORD97":2548631.2400000002,"ADDRESS":"忠孝路１６６巷９號","OBJECTID":418523},"geometry":{"x":178459.72000000067,"y":2548631.2400000021}},{"attributes":{"ID":418548,"DIS_CODE":0,"TOWNNAME":"新化區","LI":"協興里","LIN":"2鄰","STREET":"忠孝路","SECT":" ","MAREA":" ","LANE":"１９０巷","ALLEY":" ","HOUSE_NO":"２號之１","E_COORD97":178410.45000000001,"N_COORD97":2548611.2599999998,"ADDRESS":"忠孝路１９０巷２號之１","OBJECTID":418524},"geometry":{"x":178410.45000000205,"y":2548611.2599999998}},{"attributes":{"ID":418549,"DIS_CODE":0,"TOWNNAME":"新化區","LI":"清水里","LIN":"2鄰","STREET":"信義路","SECT":" ","MAREA":" ","LANE":"４１２巷","ALLEY":" ","HOUSE_NO":"１７號","E_COORD97":178718.67999999999,"N_COORD97":2548339.25,"ADDRESS":"信義路４１２巷１７號","OBJECTID":418525},"geometry":{"x":178718.68000000156,"y":2548339.2500000019}},{"attributes":{"ID":418550,"DIS_CODE":0,"TOWNNAME":"新化區","LI":"清水里","LIN":"2鄰","STREET":"信義路","SECT":" ","MAREA":" ","LANE":"４１２巷","ALLEY":" ","HOUSE_NO":"８號","E_COORD97":178743.42999999999,"N_COORD97":2548315.25,"ADDRESS":"信義路４１２巷８號","OBJECTID":418526},"geometry":{"x":178743.4299999997,"y":2548315.2500000019}},{"attributes":{"ID":418551,"DIS_CODE":0,"TOWNNAME":"新化區","LI":"清水里","LIN":"2鄰","STREET":"信義路","SECT":" ","MAREA":" ","LANE":"４１２巷","ALLEY":" ","HOUSE_NO":"２３號","E_COORD97":178719.67999999999,"N_COORD97":2548351.25,"ADDRESS":"信義路４１２巷２３號","OBJECTID":418527},"geometry":{"x":178719.6799999997,"y":2548351.25}},{"attributes":{"ID":418552,"DIS_CODE":0,"TOWNNAME":"新化區","LI":"清水里","LIN":"2鄰","STREET":"信義路","SECT":" ","MAREA":" ","LANE":"４１２巷","ALLEY":" ","HOUSE_NO":"１８號","E_COORD97":178764.88,"N_COORD97":2548315.25,"ADDRESS":"信義路４１２巷１８號","OBJECTID":418528},"geometry":{"x":178764.88000000175,"y":2548315.2500000019}},{"attributes":{"ID":418553,"DIS_CODE":0,"TOWNNAME":"鹽水區","LI":"岸內里","LIN":"24鄰","STREET":"北門路","SECT":" ","MAREA":" ","LANE":"９巷","ALLEY":" ","HOUSE_NO":"３９號","E_COORD97":175413.01000000001,"N_COORD97":2580417.3199999998,"ADDRESS":"北門路９巷３９號","OBJECTID":418529},"geometry":{"x":175413.01000000071,"y":2580417.3200000003}},{"attributes":{"ID":418554,"DIS_CODE":0,"TOWNNAME":"新化區","LI":"清水里","LIN":"2鄰","STREET":"信義路","SECT":" ","MAREA":" ","LANE":"４１２巷","ALLEY":" ","HOUSE_NO":"２８號","E_COORD97":178762.57999999999,"N_COORD97":2548328.25,"ADDRESS":"信義路４１２巷２８號","OBJECTID":418530},"geometry":{"x":178762.58000000101,"y":2548328.2500000037}},{"attributes":{"ID":418555,"DIS_CODE":0,"TOWNNAME":"新化區","LI":"護國里","LIN":"2鄰","STREET":"建國街","SECT":" ","MAREA":" ","LANE":"９巷","ALLEY":" ","HOUSE_NO":"３７號","E_COORD97":179106.48000000001,"N_COORD97":2548564.2599999998,"ADDRESS":"建國街９巷３７號","OBJECTID":418531},"geometry":{"x":179106.48000000045,"y":2548564.2599999998}},{"attributes":{"ID":418556,"DIS_CODE":0,"TOWNNAME":"新化區","LI":"清水里","LIN":"2鄰","STREET":"信義路","SECT":" ","MAREA":" ","LANE":"４１２巷","ALLEY":" ","HOUSE_NO":"３０號","E_COORD97":178758.57999999999,"N_COORD97":2548328.25,"ADDRESS":"信義路４１２巷３０號","OBJECTID":418532},"geometry":{"x":178758.58000000194,"y":2548328.2500000037}},{"attributes":{"ID":418557,"DIS_CODE":0,"TOWNNAME":"新化區","LI":"清水里","LIN":"2鄰","STREET":"信義路","SECT":" ","MAREA":" ","LANE":"４１２巷","ALLEY":" ","HOUSE_NO":"４４號","E_COORD97":178730.98000000001,"N_COORD97":2548327.25,"ADDRESS":"信義路４１２巷４４號","OBJECTID":418533},"geometry":{"x":178730.98000000231,"y":2548327.25}},{"attributes":{"ID":418558,"DIS_CODE":0,"TOWNNAME":"新化區","LI":"清水里","LIN":"2鄰","STREET":"信義路","SECT":" ","MAREA":" ","LANE":"４１２巷","ALLEY":" ","HOUSE_NO":"３６號","E_COORD97":178746.78,"N_COORD97":2548328.25,"ADDRESS":"信義路４１２巷３６號","OBJECTID":418534},"geometry":{"x":178746.78000000026,"y":2548328.2500000037}},{"attributes":{"ID":418559,"DIS_CODE":0,"TOWNNAME":"新化區","LI":"協興里","LIN":"2鄰","STREET":"忠孝路","SECT":" ","MAREA":" ","LANE":"１９０巷","ALLEY":" ","HOUSE_NO":"１８號","E_COORD97":178409.37,"N_COORD97":2548661.25,"ADDRESS":"忠孝路１９０巷１８號","OBJECTID":418535},"geometry":{"x":178409.37000000104,"y":2548661.2500000019}},{"attributes":{"ID":418560,"DIS_CODE":0,"TOWNNAME":"新化區","LI":"中央里","LIN":"2鄰","STREET":"中正路","SECT":" ","MAREA":" ","LANE":"４２７巷","ALLEY":" ","HOUSE_NO":"１９號","E_COORD97":179027.45999999999,"N_COORD97":2548350.25,"ADDRESS":"中正路４２７巷１９號","OBJECTID":418536},"geometry":{"x":179027.46000000089,"y":2548350.2500000019}},{"attributes":{"ID":418561,"DIS_CODE":0,"TOWNNAME":"新化區","LI":"東榮里","LIN":"2鄰","STREET":"中興路","SECT":" ","MAREA":" ","LANE":"６０巷","ALLEY":" ","HOUSE_NO":"１２號","E_COORD97":181927.70999999999,"N_COORD97":2547366.25,"ADDRESS":"中興路６０巷１２號","OBJECTID":418537},"geometry":{"x":181927.71000000183,"y":2547366.2500000019}},{"attributes":{"ID":418562,"DIS_CODE":0,"TOWNNAME":"新化區","LI":"豐榮里","LIN":"2鄰","STREET":"大智路","SECT":" ","MAREA":" ","LANE":"１４５巷","ALLEY":" ","HOUSE_NO":"３１號","E_COORD97":178340.07999999999,"N_COORD97":2547999.25,"ADDRESS":"大智路１４５巷３１號","OBJECTID":418538},"geometry":{"x":178340.08000000101,"y":2547999.2499999981}},{"attributes":{"ID":418563,"DIS_CODE":0,"TOWNNAME":"新化區","LI":"東榮里","LIN":"2鄰","STREET":"中興路","SECT":" ","MAREA":" ","LANE":"６０巷","ALLEY":" ","HOUSE_NO":"１０號","E_COORD97":181938.60999999999,"N_COORD97":2547365.25,"ADDRESS":"中興路６０巷１０號","OBJECTID":418539},"geometry":{"x":181938.61000000034,"y":2547365.2499999981}},{"attributes":{"ID":418564,"DIS_CODE":0,"TOWNNAME":"新化區","LI":"護國里","LIN":"2鄰","STREET":"中正路","SECT":" ","MAREA":" ","LANE":"４６０巷","ALLEY":" ","HOUSE_NO":"１號","E_COORD97":179060.60999999999,"N_COORD97":2548559.25,"ADDRESS":"中正路４６０巷１號","OBJECTID":418540},"geometry":{"x":179060.61000000127,"y":2548559.2500000019}},{"attributes":{"ID":418565,"DIS_CODE":0,"TOWNNAME":"新化區","LI":"豐榮里","LIN":"2鄰","STREET":"大智路","SECT":" ","MAREA":" ","LANE":"８７巷","ALLEY":" ","HOUSE_NO":"２８號","E_COORD97":178342.23000000001,"N_COORD97":2548119.1400000001,"ADDRESS":"大智路８７巷２８號","OBJECTID":418541},"geometry":{"x":178342.23000000045,"y":2548119.1400000006}},{"attributes":{"ID":418566,"DIS_CODE":0,"TOWNNAME":"安平區","LI":"億載里","LIN":"2鄰","STREET":"永華十一街","SECT":" ","MAREA":" ","LANE":"１５９巷","ALLEY":" ","HOUSE_NO":"６５號","E_COORD97":163904.60999999999,"N_COORD97":2543798.7400000002,"ADDRESS":"永華十一街１５９巷６５號","OBJECTID":418542},"geometry":{"x":163904.61000000034,"y":2543798.7400000002}},{"attributes":{"ID":418567,"DIS_CODE":0,"TOWNNAME":"安平區","LI":"億載里","LIN":"2鄰","STREET":"永華十一街","SECT":" ","MAREA":" ","LANE":"１５９巷","ALLEY":" ","HOUSE_NO":"６７號","E_COORD97":163896.95000000001,"N_COORD97":2543798.5499999998,"ADDRESS":"永華十一街１５９巷６７號","OBJECTID":418543},"geometry":{"x":163896.95000000112,"y":2543798.5500000026}},{"attributes":{"ID":418568,"DIS_CODE":0,"TOWNNAME":"安平區","LI":"億載里","LIN":"2鄰","STREET":"永華十一街","SECT":" ","MAREA":" ","LANE":"１５９巷","ALLEY":" ","HOUSE_NO":"６２號","E_COORD97":163917.06,"N_COORD97":2543827.25,"ADDRESS":"永華十一街１５９巷６２號","OBJECTID":418544},"geometry":{"x":163917.06000000052,"y":2543827.2500000019}},{"attributes":{"ID":418569,"DIS_CODE":0,"TOWNNAME":"安平區","LI":"億載里","LIN":"2鄰","STREET":"永華十一街","SECT":" ","MAREA":" ","LANE":"１５９巷","ALLEY":" ","HOUSE_NO":"６６號","E_COORD97":163911.72,"N_COORD97":2543826.5299999998,"ADDRESS":"永華十一街１５９巷６６號","OBJECTID":418545},"geometry":{"x":163911.71999999974,"y":2543826.5299999975}},{"attributes":{"ID":418570,"DIS_CODE":0,"TOWNNAME":"安平區","LI":"億載里","LIN":"2鄰","STREET":"永華十一街","SECT":" ","MAREA":" ","LANE":"１５９巷","ALLEY":" ","HOUSE_NO":"６８號","E_COORD97":163905,"N_COORD97":2543824.8599999999,"ADDRESS":"永華十一街１５９巷６８號","OBJECTID":418546},"geometry":{"x":163905,"y":2543824.8600000013}},{"attributes":{"ID":418571,"DIS_CODE":0,"TOWNNAME":"安平區","LI":"億載里","LIN":"2鄰","STREET":"永華十一街","SECT":" ","MAREA":" ","LANE":"１５９巷","ALLEY":" ","HOUSE_NO":"７０號","E_COORD97":163900.66,"N_COORD97":2543823.1899999999,"ADDRESS":"永華十一街１５９巷７０號","OBJECTID":418547},"geometry":{"x":163900.66000000108,"y":2543823.1900000013}},{"attributes":{"ID":418572,"DIS_CODE":0,"TOWNNAME":"北區","LI":"賢北里","LIN":"2鄰","STREET":"中華北路","SECT":"一段","MAREA":" ","LANE":"１０５巷","ALLEY":" ","HOUSE_NO":"６１號","E_COORD97":166338.14000000001,"N_COORD97":2545410.5099999998,"ADDRESS":"中華北路一段１０５巷６１號","OBJECTID":418548},"geometry":{"x":166338.13999999966,"y":2545410.5100000035}},{"attributes":{"ID":418573,"DIS_CODE":0,"TOWNNAME":"北區","LI":"文元里","LIN":"2鄰","STREET":"中華北路","SECT":"二段","MAREA":" ","LANE":"９０巷","ALLEY":" ","HOUSE_NO":"３８之１號","E_COORD97":167766.45999999999,"N_COORD97":2546580.73,"ADDRESS":"中華北路二段９０巷３８之１號","OBJECTID":418549},"geometry":{"x":167766.46000000089,"y":2546580.7300000023}},{"attributes":{"ID":418574,"DIS_CODE":0,"TOWNNAME":"北區","LI":"文元里","LIN":"2鄰","STREET":"中華北路","SECT":"二段","MAREA":" ","LANE":"９０巷","ALLEY":" ","HOUSE_NO":"３９號","E_COORD97":167798.45000000001,"N_COORD97":2546588.5,"ADDRESS":"中華北路二段９０巷３９號","OBJECTID":418550},"geometry":{"x":167798.45000000205,"y":2546588.5000000019}},{"attributes":{"ID":418575,"DIS_CODE":0,"TOWNNAME":"安平區","LI":"國平里","LIN":"2鄰","STREET":"建平七街","SECT":" ","MAREA":" ","LANE":"４５３巷","ALLEY":" ","HOUSE_NO":"３號","E_COORD97":165468.91,"N_COORD97":2543317.71,"ADDRESS":"建平七街４５３巷３號","OBJECTID":418551},"geometry":{"x":165468.91000000015,"y":2543317.7100000009}},{"attributes":{"ID":418576,"DIS_CODE":0,"TOWNNAME":"安平區","LI":"國平里","LIN":"2鄰","STREET":"建平七街","SECT":" ","MAREA":" ","LANE":"４５３巷","ALLEY":" ","HOUSE_NO":"５號","E_COORD97":165469.37,"N_COORD97":2543312.0600000001,"ADDRESS":"建平七街４５３巷５號","OBJECTID":418552},"geometry":{"x":165469.37000000011,"y":2543312.0600000005}},{"attributes":{"ID":418578,"DIS_CODE":0,"TOWNNAME":"歸仁區","LI":"崙頂里","LIN":"2鄰","STREET":"成功路","SECT":"一段","MAREA":" ","LANE":"３３９巷","ALLEY":" ","HOUSE_NO":"１１號","E_COORD97":178231.94,"N_COORD97":2539887.75,"ADDRESS":"成功路一段３３９巷１１號","OBJECTID":418553},"geometry":{"x":178231.94000000041,"y":2539887.7500000019}},{"attributes":{"ID":418579,"DIS_CODE":0,"TOWNNAME":"歸仁區","LI":"崙頂里","LIN":"2鄰","STREET":"成功路","SECT":"一段","MAREA":" ","LANE":"３３９巷","ALLEY":" ","HOUSE_NO":"１５號","E_COORD97":178236.17999999999,"N_COORD97":2539887.1099999999,"ADDRESS":"成功路一段３３９巷１５號","OBJECTID":418554},"geometry":{"x":178236.18000000063,"y":2539887.1100000013}},{"attributes":{"ID":418580,"DIS_CODE":0,"TOWNNAME":"歸仁區","LI":"大廟里","LIN":"2鄰","STREET":"大廟二街","SECT":" ","MAREA":" ","LANE":"９３巷","ALLEY":" ","HOUSE_NO":"１號","E_COORD97":176053.37,"N_COORD97":2543916.6699999999,"ADDRESS":"大廟二街９３巷１號","OBJECTID":418555},"geometry":{"x":176053.37000000104,"y":2543916.6699999999}},{"attributes":{"ID":418581,"DIS_CODE":0,"TOWNNAME":"歸仁區","LI":"大廟里","LIN":"2鄰","STREET":"大廟二街","SECT":" ","MAREA":" ","LANE":"９３巷","ALLEY":" ","HOUSE_NO":"５號","E_COORD97":176058.88,"N_COORD97":2543921.96,"ADDRESS":"大廟二街９３巷５號","OBJECTID":418556},"geometry":{"x":176058.87999999989,"y":2543921.9600000028}},{"attributes":{"ID":418582,"DIS_CODE":0,"TOWNNAME":"歸仁區","LI":"大廟里","LIN":"2鄰","STREET":"大廟三街","SECT":" ","MAREA":" ","LANE":"２０巷","ALLEY":" ","HOUSE_NO":"２１號","E_COORD97":176071.81,"N_COORD97":2544018.0600000001,"ADDRESS":"大廟三街２０巷２１號","OBJECTID":418557},"geometry":{"x":176071.81000000052,"y":2544018.0600000024}},{"attributes":{"ID":418583,"DIS_CODE":0,"TOWNNAME":"學甲區","LI":"慈福里","LIN":"13鄰","STREET":"民族路","SECT":" ","MAREA":" ","LANE":" ","ALLEY":" ","HOUSE_NO":"５７號","E_COORD97":166582.06,"N_COORD97":2570350.5099999998,"ADDRESS":"民族路５７號","OBJECTID":418558},"geometry":{"x":166582.06000000052,"y":2570350.5100000016}},{"attributes":{"ID":418584,"DIS_CODE":0,"TOWNNAME":"歸仁區","LI":"大廟里","LIN":"2鄰","STREET":"大廟三街","SECT":" ","MAREA":" ","LANE":"２０巷","ALLEY":" ","HOUSE_NO":"１５號","E_COORD97":176068.63,"N_COORD97":2544030.1200000001,"ADDRESS":"大廟三街２０巷１５號","OBJECTID":418559},"geometry":{"x":176068.63000000082,"y":2544030.120000001}},{"attributes":{"ID":418585,"DIS_CODE":0,"TOWNNAME":"東區","LI":"東安里","LIN":"2鄰","STREET":"東門路","SECT":"二段","MAREA":" ","LANE":"７５巷","ALLEY":" ","HOUSE_NO":"３號","E_COORD97":170123.54999999999,"N_COORD97":2542994.96,"ADDRESS":"東門路二段７５巷３號","OBJECTID":418560},"geometry":{"x":170123.55000000075,"y":2542994.9600000046}},{"attributes":{"ID":418586,"DIS_CODE":0,"TOWNNAME":"玉井區","LI":"中正里","LIN":"2鄰","STREET":"玉安街","SECT":" ","MAREA":" ","LANE":"２４巷","ALLEY":" ","HOUSE_NO":"５號","E_COORD97":195278.62,"N_COORD97":2558761.3199999998,"ADDRESS":"玉安街２４巷５號","OBJECTID":418561},"geometry":{"x":195278.62000000104,"y":2558761.3200000022}},{"attributes":{"ID":418587,"DIS_CODE":0,"TOWNNAME":"南區","LI":"田寮里","LIN":"2鄰","STREET":"大成路","SECT":"二段","MAREA":" ","LANE":"１６４巷","ALLEY":" ","HOUSE_NO":"８號","E_COORD97":167305.22,"N_COORD97":2541767.8300000001,"ADDRESS":"大成路二段１６４巷８號","OBJECTID":418562},"geometry":{"x":167305.22000000067,"y":2541767.8300000019}},{"attributes":{"ID":418588,"DIS_CODE":0,"TOWNNAME":"南區","LI":"田寮里","LIN":"2鄰","STREET":"新興路","SECT":" ","MAREA":" ","LANE":"２６７巷","ALLEY":" ","HOUSE_NO":"２９號","E_COORD97":167228.70000000001,"N_COORD97":2541775.4900000002,"ADDRESS":"新興路２６７巷２９號","OBJECTID":418563},"geometry":{"x":167228.70000000019,"y":2541775.4900000002}},{"attributes":{"ID":418589,"DIS_CODE":0,"TOWNNAME":"南區","LI":"田寮里","LIN":"2鄰","STREET":"新興路","SECT":" ","MAREA":" ","LANE":"２６７巷","ALLEY":" ","HOUSE_NO":"３１號","E_COORD97":167233.28,"N_COORD97":2541759.5099999998,"ADDRESS":"新興路２６７巷３１號","OBJECTID":418564},"geometry":{"x":167233.28000000026,"y":2541759.5100000016}},{"attributes":{"ID":418590,"DIS_CODE":0,"TOWNNAME":"南區","LI":"田寮里","LIN":"2鄰","STREET":"新興路","SECT":" ","MAREA":" ","LANE":"２６７巷","ALLEY":" ","HOUSE_NO":"３３號","E_COORD97":167236.76999999999,"N_COORD97":2541758.6400000001,"ADDRESS":"新興路２６７巷３３號","OBJECTID":418565},"geometry":{"x":167236.77000000048,"y":2541758.6400000006}},{"attributes":{"ID":418591,"DIS_CODE":0,"TOWNNAME":"南區","LI":"田寮里","LIN":"2鄰","STREET":"新興路","SECT":" ","MAREA":" ","LANE":"３０１巷","ALLEY":" ","HOUSE_NO":"１５號","E_COORD97":167204.29999999999,"N_COORD97":2541802.9300000002,"ADDRESS":"新興路３０１巷１５號","OBJECTID":418566},"geometry":{"x":167204.30000000075,"y":2541802.9299999997}},{"attributes":{"ID":418592,"DIS_CODE":0,"TOWNNAME":"南區","LI":"田寮里","LIN":"2鄰","STREET":"新興路","SECT":" ","MAREA":" ","LANE":"３０１巷","ALLEY":" ","HOUSE_NO":"１７號","E_COORD97":167209.20999999999,"N_COORD97":2541796.27,"ADDRESS":"新興路３０１巷１７號","OBJECTID":418567},"geometry":{"x":167209.20999999996,"y":2541796.2699999996}},{"attributes":{"ID":418593,"DIS_CODE":0,"TOWNNAME":"南區","LI":"田寮里","LIN":"2鄰","STREET":"新興路","SECT":" ","MAREA":" ","LANE":"３０１巷","ALLEY":" ","HOUSE_NO":"１９號","E_COORD97":167212.07999999999,"N_COORD97":2541791.5699999998,"ADDRESS":"新興路３０１巷１９號","OBJECTID":418568},"geometry":{"x":167212.08000000007,"y":2541791.5700000003}},{"attributes":{"ID":418594,"DIS_CODE":0,"TOWNNAME":"佳里區","LI":"六安里","LIN":"2鄰","STREET":"進學路","SECT":" ","MAREA":" ","LANE":"１７８巷","ALLEY":" ","HOUSE_NO":"１號","E_COORD97":165934.19,"N_COORD97":2562706.3599999999,"ADDRESS":"進學路１７８巷１號","OBJECTID":418569},"geometry":{"x":165934.19000000227,"y":2562706.3600000013}},{"attributes":{"ID":418595,"DIS_CODE":0,"TOWNNAME":"佳里區","LI":"六安里","LIN":"2鄰","STREET":"進學路","SECT":" ","MAREA":" ","LANE":"１７８巷","ALLEY":" ","HOUSE_NO":"２號","E_COORD97":165929.88,"N_COORD97":2562706.1000000001,"ADDRESS":"進學路１７８巷２號","OBJECTID":418570},"geometry":{"x":165929.87999999989,"y":2562706.0999999996}},{"attributes":{"ID":418596,"DIS_CODE":0,"TOWNNAME":"佳里區","LI":"六安里","LIN":"2鄰","STREET":"進學路","SECT":" ","MAREA":" ","LANE":"１７８巷","ALLEY":" ","HOUSE_NO":"３號","E_COORD97":165925.45000000001,"N_COORD97":2562705.9300000002,"ADDRESS":"進學路１７８巷３號","OBJECTID":418571},"geometry":{"x":165925.45000000205,"y":2562705.9300000016}},{"attributes":{"ID":418597,"DIS_CODE":0,"TOWNNAME":"佳里區","LI":"六安里","LIN":"2鄰","STREET":"進學路","SECT":" ","MAREA":" ","LANE":"１７８巷","ALLEY":" ","HOUSE_NO":"５號","E_COORD97":165917.39999999999,"N_COORD97":2562705.8100000001,"ADDRESS":"進學路１７８巷５號","OBJECTID":418572},"geometry":{"x":165917.40000000224,"y":2562705.8100000005}},{"attributes":{"ID":418598,"DIS_CODE":0,"TOWNNAME":"佳里區","LI":"六安里","LIN":"2鄰","STREET":"進學路","SECT":" ","MAREA":" ","LANE":"１７８巷","ALLEY":" ","HOUSE_NO":"６號","E_COORD97":165913.38,"N_COORD97":2562706.1099999999,"ADDRESS":"進學路１７８巷６號","OBJECTID":418573},"geometry":{"x":165913.37999999989,"y":2562706.1099999994}},{"attributes":{"ID":418599,"DIS_CODE":0,"TOWNNAME":"佳里區","LI":"安西里","LIN":"2鄰","STREET":"進學路","SECT":" ","MAREA":" ","LANE":"１８１巷","ALLEY":" ","HOUSE_NO":"１號","E_COORD97":165676.51999999999,"N_COORD97":2562647.3700000001,"ADDRESS":"進學路１８１巷１號","OBJECTID":418574},"geometry":{"x":165676.51999999955,"y":2562647.3700000029}},{"attributes":{"ID":418600,"DIS_CODE":0,"TOWNNAME":"佳里區","LI":"安西里","LIN":"2鄰","STREET":"進學路","SECT":" ","MAREA":" ","LANE":"１８１巷","ALLEY":" ","HOUSE_NO":"４號","E_COORD97":165665.22,"N_COORD97":2562658.1400000001,"ADDRESS":"進學路１８１巷４號","OBJECTID":418575},"geometry":{"x":165665.21999999974,"y":2562658.1400000025}},{"attributes":{"ID":418601,"DIS_CODE":0,"TOWNNAME":"中西區","LI":"三合里","LIN":"2鄰","STREET":"康樂街","SECT":" ","MAREA":" ","LANE":"２８２巷","ALLEY":" ","HOUSE_NO":"１１號","E_COORD97":167679.01000000001,"N_COORD97":2544439.6899999999,"ADDRESS":"康樂街２８２巷１１號","OBJECTID":418576},"geometry":{"x":167679.01000000164,"y":2544439.6900000032}},{"attributes":{"ID":418602,"DIS_CODE":0,"TOWNNAME":"中西區","LI":"三合里","LIN":"2鄰","STREET":"康樂街","SECT":" ","MAREA":" ","LANE":"２８２巷","ALLEY":" ","HOUSE_NO":"１３號","E_COORD97":167682.73999999999,"N_COORD97":2544434.5,"ADDRESS":"康樂街２８２巷１３號","OBJECTID":418577},"geometry":{"x":167682.74000000022,"y":2544434.5000000037}},{"attributes":{"ID":418603,"DIS_CODE":0,"TOWNNAME":"中西區","LI":"三合里","LIN":"2鄰","STREET":"康樂街","SECT":" ","MAREA":" ","LANE":"２８２巷","ALLEY":" ","HOUSE_NO":"１５號","E_COORD97":167685.89999999999,"N_COORD97":2544431.9100000001,"ADDRESS":"康樂街２８２巷１５號","OBJECTID":418578},"geometry":{"x":167685.9000000013,"y":2544431.9100000039}},{"attributes":{"ID":418604,"DIS_CODE":0,"TOWNNAME":"中西區","LI":"三合里","LIN":"2鄰","STREET":"康樂街","SECT":" ","MAREA":" ","LANE":"２８２巷","ALLEY":" ","HOUSE_NO":"１７號","E_COORD97":167689.63,"N_COORD97":2544431.1200000001,"ADDRESS":"康樂街２８２巷１７號","OBJECTID":418579},"geometry":{"x":167689.62999999989,"y":2544431.1199999992}},{"attributes":{"ID":418605,"DIS_CODE":0,"TOWNNAME":"中西區","LI":"三合里","LIN":"2鄰","STREET":"康樂街","SECT":" ","MAREA":" ","LANE":"２８２巷","ALLEY":" ","HOUSE_NO":"２１號","E_COORD97":167701.03,"N_COORD97":2544422.6600000001,"ADDRESS":"康樂街２８２巷２１號","OBJECTID":418580},"geometry":{"x":167701.03000000026,"y":2544422.6600000001}},{"attributes":{"ID":418606,"DIS_CODE":0,"TOWNNAME":"中西區","LI":"三合里","LIN":"2鄰","STREET":"康樂街","SECT":" ","MAREA":" ","LANE":"２８２巷","ALLEY":" ","HOUSE_NO":"２３號","E_COORD97":167699.67999999999,"N_COORD97":2544417.3500000001,"ADDRESS":"康樂街２８２巷２３號","OBJECTID":418581},"geometry":{"x":167699.6799999997,"y":2544417.3499999996}},{"attributes":{"ID":418607,"DIS_CODE":0,"TOWNNAME":"中西區","LI":"三合里","LIN":"2鄰","STREET":"康樂街","SECT":" ","MAREA":" ","LANE":"２８２巷","ALLEY":" ","HOUSE_NO":"９號","E_COORD97":167690.53,"N_COORD97":2544418.3700000001,"ADDRESS":"康樂街２８２巷９號","OBJECTID":418582},"geometry":{"x":167690.53000000026,"y":2544418.370000001}},{"attributes":{"ID":418608,"DIS_CODE":0,"TOWNNAME":"中西區","LI":"三合里","LIN":"2鄰","STREET":"康樂街","SECT":" ","MAREA":" ","LANE":"２８２巷","ALLEY":" ","HOUSE_NO":"１２號","E_COORD97":167704.57000000001,"N_COORD97":2544396.5600000001,"ADDRESS":"康樂街２８２巷１２號","OBJECTID":418583},"geometry":{"x":167704.57000000216,"y":2544396.5600000005}},{"attributes":{"ID":418609,"DIS_CODE":0,"TOWNNAME":"永康區","LI":"六合里","LIN":"2鄰","STREET":"中山南路","SECT":" ","MAREA":" ","LANE":"３８巷","ALLEY":" ","HOUSE_NO":"３號","E_COORD97":170871.13,"N_COORD97":2545832.75,"ADDRESS":"中山南路３８巷３號","OBJECTID":418584},"geometry":{"x":170871.13000000082,"y":2545832.7499999981}},{"attributes":{"ID":418610,"DIS_CODE":0,"TOWNNAME":"永康區","LI":"西橋里","LIN":"2鄰","STREET":"中山南路","SECT":" ","MAREA":" ","LANE":"４３巷","ALLEY":" ","HOUSE_NO":"８號之１","E_COORD97":170755.17999999999,"N_COORD97":2545862.29,"ADDRESS":"中山南路４３巷８號之１","OBJECTID":418585},"geometry":{"x":170755.18000000063,"y":2545862.2900000028}},{"attributes":{"ID":418611,"DIS_CODE":0,"TOWNNAME":"永康區","LI":"六合里","LIN":"2鄰","STREET":"中山南路","SECT":" ","MAREA":" ","LANE":"３８巷","ALLEY":" ","HOUSE_NO":"９號","E_COORD97":170884.67999999999,"N_COORD97":2545805,"ADDRESS":"中山南路３８巷９號","OBJECTID":418586},"geometry":{"x":170884.6799999997,"y":2545805.0000000019}},{"attributes":{"ID":418612,"DIS_CODE":0,"TOWNNAME":"永康區","LI":"西橋里","LIN":"2鄰","STREET":"中山南路","SECT":" ","MAREA":" ","LANE":"４３巷","ALLEY":" ","HOUSE_NO":"８號","E_COORD97":170754.57999999999,"N_COORD97":2545858.7400000002,"ADDRESS":"中山南路４３巷８號","OBJECTID":418587},"geometry":{"x":170754.58000000101,"y":2545858.7400000021}},{"attributes":{"ID":418613,"DIS_CODE":0,"TOWNNAME":"永康區","LI":"六合里","LIN":"2鄰","STREET":"中山南路","SECT":" ","MAREA":" ","LANE":"３８巷","ALLEY":" ","HOUSE_NO":"８號","E_COORD97":170861,"N_COORD97":2545813,"ADDRESS":"中山南路３８巷８號","OBJECTID":418588},"geometry":{"x":170861,"y":2545813}},{"attributes":{"ID":418614,"DIS_CODE":0,"TOWNNAME":"永康區","LI":"東橋里","LIN":"2鄰","STREET":"大橋一街","SECT":" ","MAREA":" ","LANE":"３２４巷","ALLEY":" ","HOUSE_NO":"４８號","E_COORD97":171388.63,"N_COORD97":2546520.54,"ADDRESS":"大橋一街３２４巷４８號","OBJECTID":418589},"geometry":{"x":171388.62999999989,"y":2546520.5399999991}},{"attributes":{"ID":418615,"DIS_CODE":0,"TOWNNAME":"永康區","LI":"永康里","LIN":"2鄰","STREET":"中山北路","SECT":" ","MAREA":" ","LANE":"３５巷","ALLEY":" ","HOUSE_NO":"１７號之１","E_COORD97":173922.64999999999,"N_COORD97":2547450.5499999998,"ADDRESS":"中山北路３５巷１７號之１","OBJECTID":418590},"geometry":{"x":173922.6500000013,"y":2547450.5500000026}},{"attributes":{"ID":418616,"DIS_CODE":0,"TOWNNAME":"永康區","LI":"西勢里","LIN":"2鄰","STREET":"富強路","SECT":"一段","MAREA":" ","LANE":"３２１巷","ALLEY":" ","HOUSE_NO":"１１８號","E_COORD97":175538.41,"N_COORD97":2546804.21,"ADDRESS":"富強路一段３２１巷１１８號","OBJECTID":418591},"geometry":{"x":175538.41000000015,"y":2546804.2100000028}},{"attributes":{"ID":418617,"DIS_CODE":0,"TOWNNAME":"中西區","LI":"大涼里","LIN":"2鄰","STREET":"尊王路","SECT":" ","MAREA":" ","LANE":"１７６巷","ALLEY":" ","HOUSE_NO":"１２號","E_COORD97":167222.35999999999,"N_COORD97":2543712.6400000001,"ADDRESS":"尊王路１７６巷１２號","OBJECTID":418592},"geometry":{"x":167222.36000000034,"y":2543712.6400000025}},{"attributes":{"ID":418618,"DIS_CODE":0,"TOWNNAME":"中西區","LI":"大涼里","LIN":"2鄰","STREET":"尊王路","SECT":" ","MAREA":" ","LANE":"１７６巷","ALLEY":" ","HOUSE_NO":"１３號","E_COORD97":167212.79000000001,"N_COORD97":2543726.71,"ADDRESS":"尊王路１７６巷１３號","OBJECTID":418593},"geometry":{"x":167212.78999999911,"y":2543726.7100000028}},{"attributes":{"ID":418619,"DIS_CODE":0,"TOWNNAME":"中西區","LI":"大涼里","LIN":"2鄰","STREET":"尊王路","SECT":" ","MAREA":" ","LANE":"１７６巷","ALLEY":" ","HOUSE_NO":"１４號","E_COORD97":167223.39000000001,"N_COORD97":2543716.2599999998,"ADDRESS":"尊王路１７６巷１４號","OBJECTID":418594},"geometry":{"x":167223.38999999966,"y":2543716.2599999998}},{"attributes":{"ID":418620,"DIS_CODE":0,"TOWNNAME":"中西區","LI":"大涼里","LIN":"2鄰","STREET":"尊王路","SECT":" ","MAREA":" ","LANE":"１７６巷","ALLEY":" ","HOUSE_NO":"１７號","E_COORD97":167216.14999999999,"N_COORD97":2543736.7799999998,"ADDRESS":"尊王路１７６巷１７號","OBJECTID":418595},"geometry":{"x":167216.1500000013,"y":2543736.7800000031}},{"attributes":{"ID":418621,"DIS_CODE":0,"TOWNNAME":"中西區","LI":"大涼里","LIN":"2鄰","STREET":"尊王路","SECT":" ","MAREA":" ","LANE":"１７６巷","ALLEY":" ","HOUSE_NO":"１號","E_COORD97":167202.45000000001,"N_COORD97":2543692.8900000001,"ADDRESS":"尊王路１７６巷１號","OBJECTID":418596},"geometry":{"x":167202.45000000112,"y":2543692.8900000006}},{"attributes":{"ID":418622,"DIS_CODE":0,"TOWNNAME":"中西區","LI":"大涼里","LIN":"2鄰","STREET":"尊王路","SECT":" ","MAREA":" ","LANE":"１７６巷","ALLEY":" ","HOUSE_NO":"２１號","E_COORD97":167215.12,"N_COORD97":2543743.5,"ADDRESS":"尊王路１７６巷２１號","OBJECTID":418597},"geometry":{"x":167215.12000000011,"y":2543743.5000000019}},{"attributes":{"ID":418623,"DIS_CODE":0,"TOWNNAME":"中西區","LI":"大涼里","LIN":"2鄰","STREET":"尊王路","SECT":" ","MAREA":" ","LANE":"１７６巷","ALLEY":" ","HOUSE_NO":"２３號","E_COORD97":167215.38,"N_COORD97":2543747.1099999999,"ADDRESS":"尊王路１７６巷２３號","OBJECTID":418598},"geometry":{"x":167215.37999999989,"y":2543747.1099999994}},{"attributes":{"ID":418624,"DIS_CODE":0,"TOWNNAME":"中西區","LI":"大涼里","LIN":"2鄰","STREET":"尊王路","SECT":" ","MAREA":" ","LANE":"１７６巷","ALLEY":" ","HOUSE_NO":"２５號","E_COORD97":167207.62,"N_COORD97":2543757.4399999999,"ADDRESS":"尊王路１７６巷２５號","OBJECTID":418599},"geometry":{"x":167207.62000000104,"y":2543757.4400000013}},{"attributes":{"ID":418625,"DIS_CODE":0,"TOWNNAME":"中西區","LI":"大涼里","LIN":"2鄰","STREET":"尊王路","SECT":" ","MAREA":" ","LANE":"１７６巷","ALLEY":" ","HOUSE_NO":"２７號","E_COORD97":167219.51000000001,"N_COORD97":2543756.4100000001,"ADDRESS":"尊王路１７６巷２７號","OBJECTID":418600},"geometry":{"x":167219.50999999885,"y":2543756.4100000001}}]}