{"displayFieldName":"TOWNNAME","fieldAliases":{"ID":"ID","DIS_CODE":"DIS_CODE","TOWNNAME":"TOWNNAME","LI":"LI","LIN":"LIN","STREET":"STREET","SECT":"SECT","MAREA":"MAREA","LANE":"LANE","ALLEY":"ALLEY","HOUSE_NO":"HOUSE_NO","E_COORD97":"E_COORD97","N_COORD97":"N_COORD97","ADDRESS":"ADDRESS","OBJECTID":"OBJECTID"},"geometryType":"esriGeometryPoint","spatialReference":{"wkid":102443,"latestWkid":3826},"fields":[{"name":"ID","type":"esriFieldTypeDouble","alias":"ID"},{"name":"DIS_CODE","type":"esriFieldTypeInteger","alias":"DIS_CODE"},{"name":"TOWNNAME","type":"esriFieldTypeString","alias":"TOWNNAME","length":8},{"name":"LI","type":"esriFieldTypeString","alias":"LI","length":8},{"name":"LIN","type":"esriFieldTypeString","alias":"LIN","length":12},{"name":"STREET","type":"esriFieldTypeString","alias":"STREET","length":20},{"name":"SECT","type":"esriFieldTypeString","alias":"SECT","length":8},{"name":"MAREA","type":"esriFieldTypeString","alias":"MAREA","length":12},{"name":"LANE","type":"esriFieldTypeString","alias":"LANE","length":10},{"name":"ALLEY","type":"esriFieldTypeString","alias":"ALLEY","length":10},{"name":"HOUSE_NO","type":"esriFieldTypeString","alias":"HOUSE_NO","length":20},{"name":"E_COORD97","type":"esriFieldTypeDouble","alias":"E_COORD97"},{"name":"N_COORD97","type":"esriFieldTypeDouble","alias":"N_COORD97"},{"name":"ADDRESS","type":"esriFieldTypeString","alias":"ADDRESS","length":50},{"name":"OBJECTID","type":"esriFieldTypeOID","alias":"OBJECTID"}],"features":[{"attributes":{"ID":139201,"DIS_CODE":0,"TOWNNAME":"安南區","LI":"青草里","LIN":"6鄰","STREET":"青砂街","SECT":"二段","MAREA":" ","LANE":" ","ALLEY":" ","HOUSE_NO":"４００號之２","E_COORD97":158940.01999999999,"N_COORD97":2553056.8100000001,"ADDRESS":"青砂街二段４００號之２","OBJECTID":139201},"geometry":{"x":158940.02000000142,"y":2553056.8100000005}},{"attributes":{"ID":139202,"DIS_CODE":0,"TOWNNAME":"安南區","LI":"淵中里","LIN":"6鄰","STREET":"安中路","SECT":"四段","MAREA":" ","LANE":" ","ALLEY":" ","HOUSE_NO":"１３５號","E_COORD97":164950.26999999999,"N_COORD97":2549995.6200000001,"ADDRESS":"安中路四段１３５號","OBJECTID":139202},"geometry":{"x":164950.27000000048,"y":2549995.6200000029}},{"attributes":{"ID":139203,"DIS_CODE":0,"TOWNNAME":"安南區","LI":"淵中里","LIN":"6鄰","STREET":"安中路","SECT":"四段","MAREA":" ","LANE":" ","ALLEY":" ","HOUSE_NO":"１３７號","E_COORD97":164944.89000000001,"N_COORD97":2549997.3199999998,"ADDRESS":"安中路四段１３７號","OBJECTID":139203},"geometry":{"x":164944.88999999966,"y":2549997.3200000022}},{"attributes":{"ID":139204,"DIS_CODE":0,"TOWNNAME":"安南區","LI":"淵中里","LIN":"6鄰","STREET":"安中路","SECT":"四段","MAREA":" ","LANE":" ","ALLEY":" ","HOUSE_NO":"１３９號","E_COORD97":164941.01999999999,"N_COORD97":2549998.4900000002,"ADDRESS":"安中路四段１３９號","OBJECTID":139204},"geometry":{"x":164941.02000000142,"y":2549998.4900000039}},{"attributes":{"ID":139205,"DIS_CODE":0,"TOWNNAME":"北區","LI":"成德里","LIN":"22鄰","STREET":"中華北路","SECT":"二段","MAREA":" ","LANE":"１９４巷","ALLEY":"５９弄","HOUSE_NO":"１９號","E_COORD97":168399.72,"N_COORD97":2546630.5,"ADDRESS":"中華北路二段１９４巷５９弄１９號","OBJECTID":139205},"geometry":{"x":168399.7200000016,"y":2546630.5}},{"attributes":{"ID":139206,"DIS_CODE":0,"TOWNNAME":"安南區","LI":"淵中里","LIN":"6鄰","STREET":"安中路","SECT":"四段","MAREA":" ","LANE":" ","ALLEY":" ","HOUSE_NO":"１４１號","E_COORD97":164936.70999999999,"N_COORD97":2550000.1000000001,"ADDRESS":"安中路四段１４１號","OBJECTID":139206},"geometry":{"x":164936.71000000183,"y":2550000.0999999996}},{"attributes":{"ID":139207,"DIS_CODE":0,"TOWNNAME":"安南區","LI":"溪頂里","LIN":"6鄰","STREET":"府安路","SECT":"四段","MAREA":" ","LANE":" ","ALLEY":" ","HOUSE_NO":"１５４號","E_COORD97":168832.39999999999,"N_COORD97":2547254.52,"ADDRESS":"府安路四段１５４號","OBJECTID":139207},"geometry":{"x":168832.40000000037,"y":2547254.5199999977}},{"attributes":{"ID":139208,"DIS_CODE":0,"TOWNNAME":"安南區","LI":"頂安里","LIN":"6鄰","STREET":"怡安路","SECT":"一段","MAREA":" ","LANE":" ","ALLEY":" ","HOUSE_NO":"４０１號","E_COORD97":168694.70999999999,"N_COORD97":2549151.6400000001,"ADDRESS":"怡安路一段４０１號","OBJECTID":139208},"geometry":{"x":168694.70999999996,"y":2549151.6400000025}},{"attributes":{"ID":139209,"DIS_CODE":0,"TOWNNAME":"將軍區","LI":"西華里","LIN":" ","STREET":" ","SECT":" ","MAREA":"西華","LANE":" ","ALLEY":" ","HOUSE_NO":"３４號","E_COORD97":163832.89999999999,"N_COORD97":2566416.2799999998,"ADDRESS":"西華３４號","OBJECTID":139209},"geometry":{"x":163832.9000000013,"y":2566416.2800000012}},{"attributes":{"ID":139210,"DIS_CODE":0,"TOWNNAME":"安南區","LI":"頂安里","LIN":"6鄰","STREET":"怡安路","SECT":"一段","MAREA":" ","LANE":" ","ALLEY":" ","HOUSE_NO":"４０５號","E_COORD97":168687.82000000001,"N_COORD97":2549150.1600000001,"ADDRESS":"怡安路一段４０５號","OBJECTID":139210},"geometry":{"x":168687.82000000216,"y":2549150.160000002}},{"attributes":{"ID":139211,"DIS_CODE":0,"TOWNNAME":"北區","LI":"成德里","LIN":"22鄰","STREET":"中華北路","SECT":"二段","MAREA":" ","LANE":"１９４巷","ALLEY":"５９弄","HOUSE_NO":"２１號","E_COORD97":168404.38,"N_COORD97":2546631.77,"ADDRESS":"中華北路二段１９４巷５９弄２１號","OBJECTID":139211},"geometry":{"x":168404.38000000082,"y":2546631.7699999996}},{"attributes":{"ID":139212,"DIS_CODE":0,"TOWNNAME":"北區","LI":"成德里","LIN":"22鄰","STREET":"中華北路","SECT":"二段","MAREA":" ","LANE":"１９４巷","ALLEY":"５９弄","HOUSE_NO":"２３號","E_COORD97":168409.03,"N_COORD97":2546633.04,"ADDRESS":"中華北路二段１９４巷５９弄２３號","OBJECTID":139212},"geometry":{"x":168409.03000000119,"y":2546633.0399999991}},{"attributes":{"ID":139213,"DIS_CODE":0,"TOWNNAME":"北區","LI":"成德里","LIN":"22鄰","STREET":"中華北路","SECT":"二段","MAREA":" ","LANE":"１９４巷","ALLEY":"５９弄","HOUSE_NO":"２５號","E_COORD97":168413.48000000001,"N_COORD97":2546634.52,"ADDRESS":"中華北路二段１９４巷５９弄２５號","OBJECTID":139213},"geometry":{"x":168413.48000000045,"y":2546634.5200000014}},{"attributes":{"ID":139214,"DIS_CODE":0,"TOWNNAME":"北區","LI":"成德里","LIN":"22鄰","STREET":"中華北路","SECT":"二段","MAREA":" ","LANE":"１９４巷","ALLEY":"５９弄","HOUSE_NO":"２７號","E_COORD97":168417.5,"N_COORD97":2546635.79,"ADDRESS":"中華北路二段１９４巷５９弄２７號","OBJECTID":139214},"geometry":{"x":168417.50000000093,"y":2546635.790000001}},{"attributes":{"ID":139215,"DIS_CODE":0,"TOWNNAME":"北區","LI":"成德里","LIN":"22鄰","STREET":"中華北路","SECT":"二段","MAREA":" ","LANE":"１９４巷","ALLEY":"５９弄","HOUSE_NO":"２９號","E_COORD97":168421.95000000001,"N_COORD97":2546636.8500000001,"ADDRESS":"中華北路二段１９４巷５９弄２９號","OBJECTID":139215},"geometry":{"x":168421.95000000019,"y":2546636.8500000015}},{"attributes":{"ID":139216,"DIS_CODE":0,"TOWNNAME":"北區","LI":"成德里","LIN":"22鄰","STREET":"中華北路","SECT":"二段","MAREA":" ","LANE":"１９４巷","ALLEY":"５９弄","HOUSE_NO":"３１號","E_COORD97":168426.17999999999,"N_COORD97":2546637.7000000002,"ADDRESS":"中華北路二段１９４巷５９弄３１號","OBJECTID":139216},"geometry":{"x":168426.18000000063,"y":2546637.7000000011}},{"attributes":{"ID":139217,"DIS_CODE":0,"TOWNNAME":"北區","LI":"成德里","LIN":"22鄰","STREET":"中華北路","SECT":"二段","MAREA":" ","LANE":"１９４巷","ALLEY":"５９弄","HOUSE_NO":"２號","E_COORD97":168366.14999999999,"N_COORD97":2546603.9199999999,"ADDRESS":"中華北路二段１９４巷５９弄２號","OBJECTID":139217},"geometry":{"x":168366.15000000037,"y":2546603.9199999999}},{"attributes":{"ID":139218,"DIS_CODE":0,"TOWNNAME":"北區","LI":"成德里","LIN":"22鄰","STREET":"中華北路","SECT":"二段","MAREA":" ","LANE":"１９４巷","ALLEY":"５９弄","HOUSE_NO":"６號","E_COORD97":168369.95999999999,"N_COORD97":2546605.0600000001,"ADDRESS":"中華北路二段１９４巷５９弄６號","OBJECTID":139218},"geometry":{"x":168369.96000000089,"y":2546605.0600000024}},{"attributes":{"ID":139219,"DIS_CODE":0,"TOWNNAME":"北區","LI":"成德里","LIN":"22鄰","STREET":"中華北路","SECT":"二段","MAREA":" ","LANE":"１９４巷","ALLEY":"５９弄","HOUSE_NO":"８號","E_COORD97":168373.89999999999,"N_COORD97":2546606.5800000001,"ADDRESS":"中華北路二段１９４巷５９弄８號","OBJECTID":139219},"geometry":{"x":168373.9000000013,"y":2546606.5800000001}},{"attributes":{"ID":139220,"DIS_CODE":0,"TOWNNAME":"安南區","LI":"頂安里","LIN":"6鄰","STREET":"怡安路","SECT":"一段","MAREA":" ","LANE":" ","ALLEY":" ","HOUSE_NO":"４０６號","E_COORD97":168696.51999999999,"N_COORD97":2549183.3100000001,"ADDRESS":"怡安路一段４０６號","OBJECTID":139220},"geometry":{"x":168696.52000000048,"y":2549183.3100000024}},{"attributes":{"ID":139221,"DIS_CODE":0,"TOWNNAME":"將軍區","LI":"西華里","LIN":" ","STREET":" ","SECT":" ","MAREA":"西華","LANE":" ","ALLEY":" ","HOUSE_NO":"４０號","E_COORD97":163827.85000000001,"N_COORD97":2566392.04,"ADDRESS":"西華４０號","OBJECTID":139221},"geometry":{"x":163827.84999999963,"y":2566392.0399999991}},{"attributes":{"ID":139222,"DIS_CODE":0,"TOWNNAME":"將軍區","LI":"西華里","LIN":" ","STREET":" ","SECT":" ","MAREA":"西華","LANE":" ","ALLEY":" ","HOUSE_NO":"４６號","E_COORD97":163823.72,"N_COORD97":2566369.8500000001,"ADDRESS":"西華４６號","OBJECTID":139222},"geometry":{"x":163823.71999999974,"y":2566369.8499999996}},{"attributes":{"ID":139223,"DIS_CODE":0,"TOWNNAME":"將軍區","LI":"西華里","LIN":" ","STREET":" ","SECT":" ","MAREA":"西華","LANE":" ","ALLEY":" ","HOUSE_NO":"４之５號","E_COORD97":163805.28,"N_COORD97":2566524.3300000001,"ADDRESS":"西華４之５號","OBJECTID":139223},"geometry":{"x":163805.28000000026,"y":2566524.3300000019}},{"attributes":{"ID":139224,"DIS_CODE":0,"TOWNNAME":"將軍區","LI":"西華里","LIN":" ","STREET":" ","SECT":" ","MAREA":"西華","LANE":" ","ALLEY":" ","HOUSE_NO":"５８之５號","E_COORD97":163760.94,"N_COORD97":2566253.8300000001,"ADDRESS":"西華５８之５號","OBJECTID":139224},"geometry":{"x":163760.94000000227,"y":2566253.8300000019}},{"attributes":{"ID":139225,"DIS_CODE":0,"TOWNNAME":"將軍區","LI":"西華里","LIN":" ","STREET":" ","SECT":" ","MAREA":"西華","LANE":" ","ALLEY":" ","HOUSE_NO":"７５之１１５號","E_COORD97":163518.06,"N_COORD97":2566570.3500000001,"ADDRESS":"西華７５之１１５號","OBJECTID":139225},"geometry":{"x":163518.05999999959,"y":2566570.3499999996}},{"attributes":{"ID":139226,"DIS_CODE":0,"TOWNNAME":"將軍區","LI":"忠興里","LIN":" ","STREET":" ","SECT":" ","MAREA":"忠興","LANE":" ","ALLEY":" ","HOUSE_NO":"１８０之２６號","E_COORD97":163980.89000000001,"N_COORD97":2566791.3999999999,"ADDRESS":"忠興１８０之２６號","OBJECTID":139226},"geometry":{"x":163980.89000000153,"y":2566791.4000000004}},{"attributes":{"ID":139227,"DIS_CODE":0,"TOWNNAME":"將軍區","LI":"忠興里","LIN":" ","STREET":" ","SECT":" ","MAREA":"忠興","LANE":" ","ALLEY":" ","HOUSE_NO":"５之３號","E_COORD97":163798.23999999999,"N_COORD97":2566562.73,"ADDRESS":"忠興５之３號","OBJECTID":139227},"geometry":{"x":163798.24000000115,"y":2566562.7300000023}},{"attributes":{"ID":139228,"DIS_CODE":0,"TOWNNAME":"將軍區","LI":"忠興里","LIN":" ","STREET":" ","SECT":" ","MAREA":"忠興","LANE":" ","ALLEY":" ","HOUSE_NO":"７１之２號","E_COORD97":163823.19,"N_COORD97":2566994.98,"ADDRESS":"忠興７１之２號","OBJECTID":139228},"geometry":{"x":163823.19000000041,"y":2566994.9800000023}},{"attributes":{"ID":139229,"DIS_CODE":0,"TOWNNAME":"善化區","LI":"六分里","LIN":"6鄰","STREET":" ","SECT":" ","MAREA":"東勢宅","LANE":" ","ALLEY":" ","HOUSE_NO":"８６號","E_COORD97":177715.72,"N_COORD97":2561356.2599999998,"ADDRESS":"東勢宅８６號","OBJECTID":139229},"geometry":{"x":177715.71999999974,"y":2561356.2599999998}},{"attributes":{"ID":139230,"DIS_CODE":0,"TOWNNAME":"北區","LI":"成德里","LIN":"22鄰","STREET":"中華北路","SECT":"二段","MAREA":" ","LANE":"１９４巷","ALLEY":"５９弄","HOUSE_NO":"１０號","E_COORD97":168378.09,"N_COORD97":2546607.8500000001,"ADDRESS":"中華北路二段１９４巷５９弄１０號","OBJECTID":139230},"geometry":{"x":168378.08999999985,"y":2546607.8499999996}},{"attributes":{"ID":139231,"DIS_CODE":0,"TOWNNAME":"北區","LI":"成德里","LIN":"22鄰","STREET":"中華北路","SECT":"二段","MAREA":" ","LANE":"１９４巷","ALLEY":"５９弄","HOUSE_NO":"１２號","E_COORD97":168382.14999999999,"N_COORD97":2546609,"ADDRESS":"中華北路二段１９４巷５９弄１２號","OBJECTID":139231},"geometry":{"x":168382.15000000224,"y":2546609.0000000019}},{"attributes":{"ID":139232,"DIS_CODE":0,"TOWNNAME":"安南區","LI":"幸福里","LIN":"6鄰","STREET":"國安街","SECT":" ","MAREA":" ","LANE":" ","ALLEY":" ","HOUSE_NO":"１４９號","E_COORD97":166766.16,"N_COORD97":2546951.79,"ADDRESS":"國安街１４９號","OBJECTID":139232},"geometry":{"x":166766.16000000015,"y":2546951.790000001}},{"attributes":{"ID":139233,"DIS_CODE":0,"TOWNNAME":"善化區","LI":"田寮里","LIN":"6鄰","STREET":" ","SECT":" ","MAREA":"六分寮","LANE":" ","ALLEY":" ","HOUSE_NO":"８４號","E_COORD97":178543.72,"N_COORD97":2561292.25,"ADDRESS":"六分寮８４號","OBJECTID":139233},"geometry":{"x":178543.7200000016,"y":2561292.25}},{"attributes":{"ID":139234,"DIS_CODE":0,"TOWNNAME":"西港區","LI":"慶安里","LIN":"6鄰","STREET":"中山路","SECT":" ","MAREA":" ","LANE":" ","ALLEY":" ","HOUSE_NO":"４０１號","E_COORD97":168297.29999999999,"N_COORD97":2558391.6299999999,"ADDRESS":"中山路４０１號","OBJECTID":139234},"geometry":{"x":168297.29999999981,"y":2558391.6300000008}},{"attributes":{"ID":139235,"DIS_CODE":0,"TOWNNAME":"北區","LI":"成德里","LIN":"22鄰","STREET":"中華北路","SECT":"二段","MAREA":" ","LANE":"１９４巷","ALLEY":"５９弄","HOUSE_NO":"１６號","E_COORD97":168386.34,"N_COORD97":2546610.3900000001,"ADDRESS":"中華北路二段１９４巷５９弄１６號","OBJECTID":139235},"geometry":{"x":168386.33999999985,"y":2546610.3900000025}},{"attributes":{"ID":139236,"DIS_CODE":0,"TOWNNAME":"善化區","LI":"田寮里","LIN":"6鄰","STREET":" ","SECT":" ","MAREA":"六分寮","LANE":" ","ALLEY":" ","HOUSE_NO":"６７號之１","E_COORD97":178469.48000000001,"N_COORD97":2561267,"ADDRESS":"六分寮６７號之１","OBJECTID":139236},"geometry":{"x":178469.48000000045,"y":2561267}},{"attributes":{"ID":139237,"DIS_CODE":0,"TOWNNAME":"善化區","LI":"六分里","LIN":"6鄰","STREET":" ","SECT":" ","MAREA":"東勢宅","LANE":" ","ALLEY":" ","HOUSE_NO":"４３號","E_COORD97":177695.66,"N_COORD97":2561007.7599999998,"ADDRESS":"東勢宅４３號","OBJECTID":139237},"geometry":{"x":177695.66000000108,"y":2561007.7599999998}},{"attributes":{"ID":139238,"DIS_CODE":0,"TOWNNAME":"善化區","LI":"六分里","LIN":"6鄰","STREET":" ","SECT":" ","MAREA":"東勢宅","LANE":" ","ALLEY":" ","HOUSE_NO":"３６之６號","E_COORD97":177680.45999999999,"N_COORD97":2561123.02,"ADDRESS":"東勢宅３６之６號","OBJECTID":139238},"geometry":{"x":177680.45999999996,"y":2561123.0199999996}},{"attributes":{"ID":139239,"DIS_CODE":0,"TOWNNAME":"善化區","LI":"光文里","LIN":"6鄰","STREET":" ","SECT":" ","MAREA":"北子店","LANE":" ","ALLEY":" ","HOUSE_NO":"３４０號","E_COORD97":179092.28,"N_COORD97":2559365.25,"ADDRESS":"北子店３４０號","OBJECTID":139239},"geometry":{"x":179092.28000000026,"y":2559365.2500000019}},{"attributes":{"ID":139240,"DIS_CODE":0,"TOWNNAME":"善化區","LI":"胡家里","LIN":"6鄰","STREET":" ","SECT":" ","MAREA":"胡厝寮","LANE":" ","ALLEY":" ","HOUSE_NO":"５１號之３","E_COORD97":175420.19,"N_COORD97":2560575.77,"ADDRESS":"胡厝寮５１號之３","OBJECTID":139240},"geometry":{"x":175420.19000000041,"y":2560575.7699999996}},{"attributes":{"ID":139241,"DIS_CODE":0,"TOWNNAME":"西港區","LI":"慶安里","LIN":"6鄰","STREET":"中山路","SECT":" ","MAREA":" ","LANE":" ","ALLEY":" ","HOUSE_NO":"４３９號","E_COORD97":168270.12,"N_COORD97":2558566.2000000002,"ADDRESS":"中山路４３９號","OBJECTID":139241},"geometry":{"x":168270.11999999918,"y":2558566.1999999993}},{"attributes":{"ID":139242,"DIS_CODE":0,"TOWNNAME":"善化區","LI":"六分里","LIN":"6鄰","STREET":" ","SECT":" ","MAREA":"東勢宅","LANE":" ","ALLEY":" ","HOUSE_NO":"３８號","E_COORD97":177677.51000000001,"N_COORD97":2561083.2599999998,"ADDRESS":"東勢宅３８號","OBJECTID":139242},"geometry":{"x":177677.51000000071,"y":2561083.2600000016}},{"attributes":{"ID":139243,"DIS_CODE":0,"TOWNNAME":"善化區","LI":"嘉北里","LIN":"6鄰","STREET":" ","SECT":" ","MAREA":"茄拔","LANE":" ","ALLEY":" ","HOUSE_NO":"１６０號之３","E_COORD97":181053.32000000001,"N_COORD97":2559802.52,"ADDRESS":"茄拔１６０號之３","OBJECTID":139243},"geometry":{"x":181053.32000000123,"y":2559802.5200000033}},{"attributes":{"ID":139244,"DIS_CODE":0,"TOWNNAME":"善化區","LI":"田寮里","LIN":"6鄰","STREET":" ","SECT":" ","MAREA":"六分寮","LANE":" ","ALLEY":" ","HOUSE_NO":"８５號","E_COORD97":178527.51000000001,"N_COORD97":2561361.5,"ADDRESS":"六分寮８５號","OBJECTID":139244},"geometry":{"x":178527.50999999978,"y":2561361.5}},{"attributes":{"ID":139245,"DIS_CODE":0,"TOWNNAME":"善化區","LI":"文昌里","LIN":"6鄰","STREET":"文昌路","SECT":" ","MAREA":" ","LANE":" ","ALLEY":" ","HOUSE_NO":"４０號之５","E_COORD97":177228.98000000001,"N_COORD97":2558718.0299999998,"ADDRESS":"文昌路４０號之５","OBJECTID":139245},"geometry":{"x":177228.98000000231,"y":2558718.0300000012}},{"attributes":{"ID":139246,"DIS_CODE":0,"TOWNNAME":"善化區","LI":"坐駕里","LIN":"6鄰","STREET":"民權路","SECT":" ","MAREA":" ","LANE":" ","ALLEY":" ","HOUSE_NO":"２９３號","E_COORD97":177913.81,"N_COORD97":2558947.7599999998,"ADDRESS":"民權路２９３號","OBJECTID":139246},"geometry":{"x":177913.80999999959,"y":2558947.7600000016}},{"attributes":{"ID":139247,"DIS_CODE":0,"TOWNNAME":"善化區","LI":"文昌里","LIN":"6鄰","STREET":"文昌路","SECT":" ","MAREA":" ","LANE":" ","ALLEY":" ","HOUSE_NO":"４８之２號","E_COORD97":177162.45000000001,"N_COORD97":2558694.7799999998,"ADDRESS":"文昌路４８之２號","OBJECTID":139247},"geometry":{"x":177162.45000000019,"y":2558694.7799999993}},{"attributes":{"ID":139248,"DIS_CODE":0,"TOWNNAME":"善化區","LI":"文昌里","LIN":"6鄰","STREET":"永福路","SECT":" ","MAREA":" ","LANE":" ","ALLEY":" ","HOUSE_NO":"１６０號","E_COORD97":177169.67999999999,"N_COORD97":2558765.5,"ADDRESS":"永福路１６０號","OBJECTID":139248},"geometry":{"x":177169.68000000063,"y":2558765.5000000037}},{"attributes":{"ID":139249,"DIS_CODE":0,"TOWNNAME":"善化區","LI":"六德里","LIN":"6鄰","STREET":" ","SECT":" ","MAREA":"六分寮","LANE":" ","ALLEY":" ","HOUSE_NO":"２４８號","E_COORD97":178834.04000000001,"N_COORD97":2561635.75,"ADDRESS":"六分寮２４８號","OBJECTID":139249},"geometry":{"x":178834.04000000097,"y":2561635.7500000037}},{"attributes":{"ID":139250,"DIS_CODE":0,"TOWNNAME":"善化區","LI":"六分里","LIN":"6鄰","STREET":" ","SECT":" ","MAREA":"東勢宅","LANE":" ","ALLEY":" ","HOUSE_NO":"８０號","E_COORD97":177648.44,"N_COORD97":2561360.5099999998,"ADDRESS":"東勢宅８０號","OBJECTID":139250},"geometry":{"x":177648.44000000134,"y":2561360.5100000016}},{"attributes":{"ID":139251,"DIS_CODE":0,"TOWNNAME":"善化區","LI":"六分里","LIN":"6鄰","STREET":" ","SECT":" ","MAREA":"東勢宅","LANE":" ","ALLEY":" ","HOUSE_NO":"３６之４號","E_COORD97":177671.98000000001,"N_COORD97":2561119.77,"ADDRESS":"東勢宅３６之４號","OBJECTID":139251},"geometry":{"x":177671.98000000138,"y":2561119.7700000033}},{"attributes":{"ID":139252,"DIS_CODE":0,"TOWNNAME":"善化區","LI":"坐駕里","LIN":"6鄰","STREET":"民權路","SECT":" ","MAREA":" ","LANE":" ","ALLEY":" ","HOUSE_NO":"２８８號","E_COORD97":177912.38,"N_COORD97":2558983.2599999998,"ADDRESS":"民權路２８８號","OBJECTID":139252},"geometry":{"x":177912.38000000082,"y":2558983.2599999998}},{"attributes":{"ID":139253,"DIS_CODE":0,"TOWNNAME":"善化區","LI":"小新里","LIN":"6鄰","STREET":" ","SECT":" ","MAREA":"小新營","LANE":" ","ALLEY":" ","HOUSE_NO":"４９號","E_COORD97":179728.35000000001,"N_COORD97":2558260,"ADDRESS":"小新營４９號","OBJECTID":139253},"geometry":{"x":179728.35000000056,"y":2558260}},{"attributes":{"ID":139254,"DIS_CODE":0,"TOWNNAME":"善化區","LI":"小新里","LIN":"6鄰","STREET":" ","SECT":" ","MAREA":"小新營","LANE":" ","ALLEY":" ","HOUSE_NO":"４６號","E_COORD97":179716.26999999999,"N_COORD97":2558239.75,"ADDRESS":"小新營４６號","OBJECTID":139254},"geometry":{"x":179716.27000000142,"y":2558239.7500000019}},{"attributes":{"ID":139255,"DIS_CODE":0,"TOWNNAME":"北區","LI":"成德里","LIN":"22鄰","STREET":"中華北路","SECT":"二段","MAREA":" ","LANE":"１９４巷","ALLEY":"５９弄","HOUSE_NO":"１８號","E_COORD97":168390.79000000001,"N_COORD97":2546611.54,"ADDRESS":"中華北路二段１９４巷５９弄１８號","OBJECTID":139255},"geometry":{"x":168390.79000000004,"y":2546611.540000001}},{"attributes":{"ID":139256,"DIS_CODE":0,"TOWNNAME":"北區","LI":"成德里","LIN":"22鄰","STREET":"中華北路","SECT":"二段","MAREA":" ","LANE":"１９４巷","ALLEY":"５９弄","HOUSE_NO":"２０號","E_COORD97":168395.98999999999,"N_COORD97":2546612.9300000002,"ADDRESS":"中華北路二段１９４巷５９弄２０號","OBJECTID":139256},"geometry":{"x":168395.99000000022,"y":2546612.9300000016}},{"attributes":{"ID":139257,"DIS_CODE":0,"TOWNNAME":"北區","LI":"成德里","LIN":"22鄰","STREET":"中華北路","SECT":"二段","MAREA":" ","LANE":"１９４巷","ALLEY":"５９弄","HOUSE_NO":"２２號","E_COORD97":168400.31,"N_COORD97":2546614.3300000001,"ADDRESS":"中華北路二段１９４巷５９弄２２號","OBJECTID":139257},"geometry":{"x":168400.30999999959,"y":2546614.3300000001}},{"attributes":{"ID":139258,"DIS_CODE":0,"TOWNNAME":"北區","LI":"成德里","LIN":"22鄰","STREET":"中華北路","SECT":"二段","MAREA":" ","LANE":"１９４巷","ALLEY":"５９弄","HOUSE_NO":"２６號","E_COORD97":168404.25,"N_COORD97":2546615.3500000001,"ADDRESS":"中華北路二段１９４巷５９弄２６號","OBJECTID":139258},"geometry":{"x":168404.25,"y":2546615.3500000034}},{"attributes":{"ID":139259,"DIS_CODE":0,"TOWNNAME":"善化區","LI":"坐駕里","LIN":"6鄰","STREET":"民權路","SECT":" ","MAREA":" ","LANE":" ","ALLEY":" ","HOUSE_NO":"２９２號","E_COORD97":177900.42999999999,"N_COORD97":2558968.2599999998,"ADDRESS":"民權路２９２號","OBJECTID":139259},"geometry":{"x":177900.43000000063,"y":2558968.2600000016}},{"attributes":{"ID":139260,"DIS_CODE":0,"TOWNNAME":"善化區","LI":"坐駕里","LIN":"6鄰","STREET":"民權路","SECT":" ","MAREA":" ","LANE":" ","ALLEY":" ","HOUSE_NO":"２８９號","E_COORD97":177924.04999999999,"N_COORD97":2558949.2599999998,"ADDRESS":"民權路２８９號","OBJECTID":139260},"geometry":{"x":177924.04999999981,"y":2558949.2599999998}},{"attributes":{"ID":139261,"DIS_CODE":0,"TOWNNAME":"善化區","LI":"文昌里","LIN":"6鄰","STREET":"文昌路","SECT":" ","MAREA":" ","LANE":" ","ALLEY":" ","HOUSE_NO":"４８號","E_COORD97":177169.25,"N_COORD97":2558698.0299999998,"ADDRESS":"文昌路４８號","OBJECTID":139261},"geometry":{"x":177169.25000000093,"y":2558698.0300000012}},{"attributes":{"ID":139262,"DIS_CODE":0,"TOWNNAME":"善化區","LI":"牛庄里","LIN":"6鄰","STREET":" ","SECT":" ","MAREA":"牛庄","LANE":" ","ALLEY":" ","HOUSE_NO":"６５號","E_COORD97":180226.85000000001,"N_COORD97":2560017.5,"ADDRESS":"牛庄６５號","OBJECTID":139262},"geometry":{"x":180226.85000000056,"y":2560017.5000000019}},{"attributes":{"ID":139263,"DIS_CODE":0,"TOWNNAME":"善化區","LI":"六分里","LIN":"6鄰","STREET":" ","SECT":" ","MAREA":"東勢宅","LANE":" ","ALLEY":" ","HOUSE_NO":"４７號之２","E_COORD97":177629.89999999999,"N_COORD97":2561069.77,"ADDRESS":"東勢宅４７號之２","OBJECTID":139263},"geometry":{"x":177629.9000000013,"y":2561069.7700000014}},{"attributes":{"ID":139264,"DIS_CODE":0,"TOWNNAME":"善化區","LI":"六德里","LIN":"6鄰","STREET":" ","SECT":" ","MAREA":"六分寮","LANE":" ","ALLEY":" ","HOUSE_NO":"２４５號","E_COORD97":178811.60000000001,"N_COORD97":2561681,"ADDRESS":"六分寮２４５號","OBJECTID":139264},"geometry":{"x":178811.59999999963,"y":2561681}},{"attributes":{"ID":139265,"DIS_CODE":0,"TOWNNAME":"善化區","LI":"六分里","LIN":"6鄰","STREET":" ","SECT":" ","MAREA":"東勢宅","LANE":" ","ALLEY":" ","HOUSE_NO":"４８號之１","E_COORD97":177543.38,"N_COORD97":2561082.52,"ADDRESS":"東勢宅４８號之１","OBJECTID":139265},"geometry":{"x":177543.38000000082,"y":2561082.5199999996}},{"attributes":{"ID":139266,"DIS_CODE":0,"TOWNNAME":"善化區","LI":"牛庄里","LIN":"6鄰","STREET":" ","SECT":" ","MAREA":"牛庄","LANE":" ","ALLEY":" ","HOUSE_NO":"６７號之１","E_COORD97":180215.23999999999,"N_COORD97":2560023.52,"ADDRESS":"牛庄６７號之１","OBJECTID":139266},"geometry":{"x":180215.24000000022,"y":2560023.5200000014}},{"attributes":{"ID":139267,"DIS_CODE":0,"TOWNNAME":"善化區","LI":"文昌里","LIN":"6鄰","STREET":"文昌路","SECT":" ","MAREA":" ","LANE":" ","ALLEY":" ","HOUSE_NO":"４０號之１","E_COORD97":177246.53,"N_COORD97":2558722.5299999998,"ADDRESS":"文昌路４０號之１","OBJECTID":139267},"geometry":{"x":177246.53000000026,"y":2558722.5299999993}},{"attributes":{"ID":139268,"DIS_CODE":0,"TOWNNAME":"北區","LI":"成德里","LIN":"22鄰","STREET":"中華北路","SECT":"二段","MAREA":" ","LANE":"１９４巷","ALLEY":"５９弄","HOUSE_NO":"２８號","E_COORD97":168408.57000000001,"N_COORD97":2546616.6200000001,"ADDRESS":"中華北路二段１９４巷５９弄２８號","OBJECTID":139268},"geometry":{"x":168408.57000000123,"y":2546616.620000001}},{"attributes":{"ID":139269,"DIS_CODE":0,"TOWNNAME":"北區","LI":"成德里","LIN":"22鄰","STREET":"中華北路","SECT":"二段","MAREA":" ","LANE":"１９４巷","ALLEY":"５９弄","HOUSE_NO":"３０號","E_COORD97":168412.89000000001,"N_COORD97":2546618.0099999998,"ADDRESS":"中華北路二段１９４巷５９弄３０號","OBJECTID":139269},"geometry":{"x":168412.88999999966,"y":2546618.0100000016}},{"attributes":{"ID":139270,"DIS_CODE":0,"TOWNNAME":"善化區","LI":"牛庄里","LIN":"6鄰","STREET":" ","SECT":" ","MAREA":"牛庄","LANE":" ","ALLEY":" ","HOUSE_NO":"６４號","E_COORD97":180177.82000000001,"N_COORD97":2560007.25,"ADDRESS":"牛庄６４號","OBJECTID":139270},"geometry":{"x":180177.82000000216,"y":2560007.25}},{"attributes":{"ID":139271,"DIS_CODE":0,"TOWNNAME":"善化區","LI":"小新里","LIN":"6鄰","STREET":" ","SECT":" ","MAREA":"小新營","LANE":" ","ALLEY":" ","HOUSE_NO":"６６號之１","E_COORD97":179704.95000000001,"N_COORD97":2558281.77,"ADDRESS":"小新營６６號之１","OBJECTID":139271},"geometry":{"x":179704.95000000019,"y":2558281.7700000033}},{"attributes":{"ID":139272,"DIS_CODE":0,"TOWNNAME":"北區","LI":"成德里","LIN":"22鄰","STREET":"中華北路","SECT":"二段","MAREA":" ","LANE":"１９４巷","ALLEY":"５９弄","HOUSE_NO":"３２號","E_COORD97":168416.95000000001,"N_COORD97":2546619.1600000001,"ADDRESS":"中華北路二段１９４巷５９弄３２號","OBJECTID":139272},"geometry":{"x":168416.95000000019,"y":2546619.1600000001}},{"attributes":{"ID":139273,"DIS_CODE":0,"TOWNNAME":"北區","LI":"成德里","LIN":"22鄰","STREET":"中華北路","SECT":"二段","MAREA":" ","LANE":"１９４巷","ALLEY":"５９弄","HOUSE_NO":"３６號","E_COORD97":168421.26999999999,"N_COORD97":2546620.4300000002,"ADDRESS":"中華北路二段１９４巷５９弄３６號","OBJECTID":139273},"geometry":{"x":168421.27000000142,"y":2546620.4299999997}},{"attributes":{"ID":139274,"DIS_CODE":0,"TOWNNAME":"善化區","LI":"牛庄里","LIN":"6鄰","STREET":" ","SECT":" ","MAREA":"牛庄","LANE":" ","ALLEY":" ","HOUSE_NO":"６８號","E_COORD97":180186.35000000001,"N_COORD97":2560063,"ADDRESS":"牛庄６８號","OBJECTID":139274},"geometry":{"x":180186.34999999963,"y":2560063}},{"attributes":{"ID":139275,"DIS_CODE":0,"TOWNNAME":"善化區","LI":"六分里","LIN":"6鄰","STREET":" ","SECT":" ","MAREA":"東勢宅","LANE":" ","ALLEY":" ","HOUSE_NO":"３６號之１","E_COORD97":177646.66,"N_COORD97":2561139.27,"ADDRESS":"東勢宅３６號之１","OBJECTID":139275},"geometry":{"x":177646.66000000108,"y":2561139.2699999996}},{"attributes":{"ID":139276,"DIS_CODE":0,"TOWNNAME":"善化區","LI":"六德里","LIN":"6鄰","STREET":" ","SECT":" ","MAREA":"六分寮","LANE":" ","ALLEY":" ","HOUSE_NO":"２４３號","E_COORD97":178811.95999999999,"N_COORD97":2561714.25,"ADDRESS":"六分寮２４３號","OBJECTID":139276},"geometry":{"x":178811.96000000183,"y":2561714.2500000019}},{"attributes":{"ID":139277,"DIS_CODE":0,"TOWNNAME":"大內區","LI":"石城里","LIN":"6鄰","STREET":" ","SECT":" ","MAREA":"石子瀨","LANE":" ","ALLEY":" ","HOUSE_NO":"５０號","E_COORD97":184184.01999999999,"N_COORD97":2558015.25,"ADDRESS":"石子瀨５０號","OBJECTID":139277},"geometry":{"x":184184.01999999955,"y":2558015.2500000019}},{"attributes":{"ID":139278,"DIS_CODE":0,"TOWNNAME":"善化區","LI":"胡家里","LIN":"6鄰","STREET":" ","SECT":" ","MAREA":"胡厝寮","LANE":" ","ALLEY":" ","HOUSE_NO":"５１號之１","E_COORD97":175439.04999999999,"N_COORD97":2560626.02,"ADDRESS":"胡厝寮５１號之１","OBJECTID":139278},"geometry":{"x":175439.04999999981,"y":2560626.0199999996}},{"attributes":{"ID":139279,"DIS_CODE":0,"TOWNNAME":"善化區","LI":"東隆里","LIN":"6鄰","STREET":" ","SECT":" ","MAREA":"東勢寮","LANE":" ","ALLEY":" ","HOUSE_NO":"１７５之１１號","E_COORD97":180052.88,"N_COORD97":2561886.77,"ADDRESS":"東勢寮１７５之１１號","OBJECTID":139279},"geometry":{"x":180052.87999999989,"y":2561886.7700000014}},{"attributes":{"ID":139280,"DIS_CODE":0,"TOWNNAME":"善化區","LI":"牛庄里","LIN":"6鄰","STREET":" ","SECT":" ","MAREA":"牛庄","LANE":" ","ALLEY":" ","HOUSE_NO":"７９號","E_COORD97":180125.76999999999,"N_COORD97":2559923.5,"ADDRESS":"牛庄７９號","OBJECTID":139280},"geometry":{"x":180125.76999999955,"y":2559923.5}},{"attributes":{"ID":139281,"DIS_CODE":0,"TOWNNAME":"善化區","LI":"牛庄里","LIN":"6鄰","STREET":" ","SECT":" ","MAREA":"牛庄","LANE":" ","ALLEY":" ","HOUSE_NO":"７５號","E_COORD97":180128.48000000001,"N_COORD97":2559998.75,"ADDRESS":"牛庄７５號","OBJECTID":139281},"geometry":{"x":180128.48000000138,"y":2559998.7500000019}},{"attributes":{"ID":139282,"DIS_CODE":0,"TOWNNAME":"善化區","LI":"牛庄里","LIN":"6鄰","STREET":" ","SECT":" ","MAREA":"牛庄","LANE":" ","ALLEY":" ","HOUSE_NO":"５６號","E_COORD97":180157.76999999999,"N_COORD97":2559954.5,"ADDRESS":"牛庄５６號","OBJECTID":139282},"geometry":{"x":180157.77000000048,"y":2559954.5}},{"attributes":{"ID":139283,"DIS_CODE":0,"TOWNNAME":"南區","LI":"廣州里","LIN":"15鄰","STREET":"福吉二街","SECT":" ","MAREA":" ","LANE":" ","ALLEY":" ","HOUSE_NO":"１７號","E_COORD97":167343.79000000001,"N_COORD97":2542686.9300000002,"ADDRESS":"福吉二街１７號","OBJECTID":139283},"geometry":{"x":167343.79000000097,"y":2542686.9299999997}},{"attributes":{"ID":139284,"DIS_CODE":0,"TOWNNAME":"善化區","LI":"光文里","LIN":"6鄰","STREET":" ","SECT":" ","MAREA":"北子店","LANE":" ","ALLEY":" ","HOUSE_NO":"２０６號","E_COORD97":179268.73000000001,"N_COORD97":2559627.5,"ADDRESS":"北子店２０６號","OBJECTID":139284},"geometry":{"x":179268.73000000138,"y":2559627.5000000019}},{"attributes":{"ID":139285,"DIS_CODE":0,"TOWNNAME":"東區","LI":"龍山里","LIN":"6鄰","STREET":"林森路","SECT":"一段","MAREA":" ","LANE":" ","ALLEY":" ","HOUSE_NO":"３３７號","E_COORD97":170090.14000000001,"N_COORD97":2542743.5,"ADDRESS":"林森路一段３３７號","OBJECTID":139285},"geometry":{"x":170090.13999999873,"y":2542743.5000000019}},{"attributes":{"ID":139286,"DIS_CODE":0,"TOWNNAME":"東區","LI":"龍山里","LIN":"6鄰","STREET":"林森路","SECT":"一段","MAREA":" ","LANE":" ","ALLEY":" ","HOUSE_NO":"３６３號","E_COORD97":170133.38,"N_COORD97":2542792.04,"ADDRESS":"林森路一段３６３號","OBJECTID":139286},"geometry":{"x":170133.38000000082,"y":2542792.0399999991}},{"attributes":{"ID":139287,"DIS_CODE":0,"TOWNNAME":"北區","LI":"成德里","LIN":"22鄰","STREET":"中華北路","SECT":"二段","MAREA":" ","LANE":"１９４巷","ALLEY":"５９弄","HOUSE_NO":"３８號","E_COORD97":168425.59,"N_COORD97":2546621.5699999998,"ADDRESS":"中華北路二段１９４巷５９弄３８號","OBJECTID":139287},"geometry":{"x":168425.58999999985,"y":2546621.5700000022}},{"attributes":{"ID":139288,"DIS_CODE":0,"TOWNNAME":"北區","LI":"成德里","LIN":"22鄰","STREET":"中華北路","SECT":"二段","MAREA":" ","LANE":"１９４巷","ALLEY":"５９弄","HOUSE_NO":"４０號","E_COORD97":168430.03,"N_COORD97":2546622.9700000002,"ADDRESS":"中華北路二段１９４巷５９弄４０號","OBJECTID":139288},"geometry":{"x":168430.03000000026,"y":2546622.9700000025}},{"attributes":{"ID":139289,"DIS_CODE":0,"TOWNNAME":"東區","LI":"東安里","LIN":"9鄰","STREET":"長榮路","SECT":"二段","MAREA":" ","LANE":"３２巷","ALLEY":"４６弄","HOUSE_NO":"１７號","E_COORD97":170081.39000000001,"N_COORD97":2543154.2000000002,"ADDRESS":"長榮路二段３２巷４６弄１７號","OBJECTID":139289},"geometry":{"x":170081.38999999966,"y":2543154.200000003}},{"attributes":{"ID":139290,"DIS_CODE":0,"TOWNNAME":"東區","LI":"崇誨里","LIN":"28鄰","STREET":"裕豐街","SECT":" ","MAREA":" ","LANE":"１８５巷","ALLEY":"２６弄","HOUSE_NO":"３號","E_COORD97":170692.56,"N_COORD97":2543213.4199999999,"ADDRESS":"裕豐街１８５巷２６弄３號","OBJECTID":139290},"geometry":{"x":170692.56000000145,"y":2543213.4199999999}},{"attributes":{"ID":139291,"DIS_CODE":0,"TOWNNAME":"東區","LI":"裕農里","LIN":"6鄰","STREET":"裕農路","SECT":" ","MAREA":" ","LANE":" ","ALLEY":" ","HOUSE_NO":"３４３號之５","E_COORD97":170993.07999999999,"N_COORD97":2543062.9100000001,"ADDRESS":"裕農路３４３號之５","OBJECTID":139291},"geometry":{"x":170993.08000000194,"y":2543062.910000002}},{"attributes":{"ID":139292,"DIS_CODE":0,"TOWNNAME":"東區","LI":"龍山里","LIN":"6鄰","STREET":"林森路","SECT":"一段","MAREA":" ","LANE":" ","ALLEY":" ","HOUSE_NO":"３６９號","E_COORD97":170140.92999999999,"N_COORD97":2542800.0600000001,"ADDRESS":"林森路一段３６９號","OBJECTID":139292},"geometry":{"x":170140.93000000156,"y":2542800.0600000005}},{"attributes":{"ID":139293,"DIS_CODE":0,"TOWNNAME":"大內區","LI":"頭社里","LIN":"6鄰","STREET":" ","SECT":" ","MAREA":"頭社","LANE":" ","ALLEY":" ","HOUSE_NO":"８０號","E_COORD97":187236.84,"N_COORD97":2560423.25,"ADDRESS":"頭社８０號","OBJECTID":139293},"geometry":{"x":187236.83999999985,"y":2560423.2500000019}},{"attributes":{"ID":139294,"DIS_CODE":0,"TOWNNAME":"東區","LI":"小東里","LIN":"6鄰","STREET":"光明街","SECT":" ","MAREA":" ","LANE":" ","ALLEY":" ","HOUSE_NO":"８９號之１","E_COORD97":170918.45999999999,"N_COORD97":2544356.25,"ADDRESS":"光明街８９號之１","OBJECTID":139294},"geometry":{"x":170918.45999999996,"y":2544356.2500000019}},{"attributes":{"ID":139295,"DIS_CODE":0,"TOWNNAME":"東區","LI":"龍山里","LIN":"6鄰","STREET":"林森路","SECT":"一段","MAREA":" ","LANE":" ","ALLEY":" ","HOUSE_NO":"３７１號","E_COORD97":170142.06,"N_COORD97":2542804.0299999998,"ADDRESS":"林森路一段３７１號","OBJECTID":139295},"geometry":{"x":170142.06000000052,"y":2542804.0300000012}},{"attributes":{"ID":139296,"DIS_CODE":0,"TOWNNAME":"將軍區","LI":"嘉昌里","LIN":" ","STREET":" ","SECT":" ","MAREA":"昌平","LANE":" ","ALLEY":" ","HOUSE_NO":"７８之１號","E_COORD97":163329.17999999999,"N_COORD97":2567265.3700000001,"ADDRESS":"昌平７８之１號","OBJECTID":139296},"geometry":{"x":163329.1799999997,"y":2567265.3700000029}},{"attributes":{"ID":139297,"DIS_CODE":0,"TOWNNAME":"將軍區","LI":"長沙里","LIN":" ","STREET":" ","SECT":" ","MAREA":"長沙","LANE":" ","ALLEY":" ","HOUSE_NO":"１００之３號","E_COORD97":157203.09,"N_COORD97":2568752.2999999998,"ADDRESS":"長沙１００之３號","OBJECTID":139297},"geometry":{"x":157203.09000000078,"y":2568752.3000000045}},{"attributes":{"ID":139298,"DIS_CODE":0,"TOWNNAME":"將軍區","LI":"長沙里","LIN":" ","STREET":" ","SECT":" ","MAREA":"長沙","LANE":" ","ALLEY":" ","HOUSE_NO":"１０９之１號","E_COORD97":157166.10000000001,"N_COORD97":2568569.96,"ADDRESS":"長沙１０９之１號","OBJECTID":139298},"geometry":{"x":157166.09999999963,"y":2568569.9600000028}},{"attributes":{"ID":139299,"DIS_CODE":0,"TOWNNAME":"將軍區","LI":"長沙里","LIN":" ","STREET":" ","SECT":" ","MAREA":"長沙","LANE":" ","ALLEY":" ","HOUSE_NO":"１１３之１號","E_COORD97":157172.37,"N_COORD97":2568704.2400000002,"ADDRESS":"長沙１１３之１號","OBJECTID":139299},"geometry":{"x":157172.37000000104,"y":2568704.2400000002}},{"attributes":{"ID":139300,"DIS_CODE":0,"TOWNNAME":"將軍區","LI":"長沙里","LIN":" ","STREET":" ","SECT":" ","MAREA":"長沙","LANE":" ","ALLEY":" ","HOUSE_NO":"５１之１號","E_COORD97":157333.75,"N_COORD97":2568649.1699999999,"ADDRESS":"長沙５１之１號","OBJECTID":139300},"geometry":{"x":157333.75000000093,"y":2568649.1699999999}},{"attributes":{"ID":139301,"DIS_CODE":0,"TOWNNAME":"將軍區","LI":"長沙里","LIN":" ","STREET":" ","SECT":" ","MAREA":"長沙","LANE":" ","ALLEY":" ","HOUSE_NO":"６７之１號","E_COORD97":157235.70000000001,"N_COORD97":2568577.2000000002,"ADDRESS":"長沙６７之１號","OBJECTID":139301},"geometry":{"x":157235.69999999925,"y":2568577.1999999993}},{"attributes":{"ID":139302,"DIS_CODE":0,"TOWNNAME":"將軍區","LI":"長沙里","LIN":" ","STREET":" ","SECT":" ","MAREA":"長沙","LANE":" ","ALLEY":" ","HOUSE_NO":"９７之２號","E_COORD97":157205.89999999999,"N_COORD97":2568697.8700000001,"ADDRESS":"長沙９７之２號","OBJECTID":139302},"geometry":{"x":157205.90000000224,"y":2568697.8699999992}},{"attributes":{"ID":139303,"DIS_CODE":0,"TOWNNAME":"將軍區","LI":"長榮里","LIN":" ","STREET":" ","SECT":" ","MAREA":"長榮","LANE":" ","ALLEY":" ","HOUSE_NO":"１０８之１號","E_COORD97":163838.04000000001,"N_COORD97":2566286.7799999998,"ADDRESS":"長榮１０８之１號","OBJECTID":139303},"geometry":{"x":163838.04000000097,"y":2566286.7800000012}},{"attributes":{"ID":139304,"DIS_CODE":0,"TOWNNAME":"將軍區","LI":"長榮里","LIN":" ","STREET":" ","SECT":" ","MAREA":"長榮","LANE":" ","ALLEY":" ","HOUSE_NO":"１０８之４號","E_COORD97":163838.10000000001,"N_COORD97":2566302.2000000002,"ADDRESS":"長榮１０８之４號","OBJECTID":139304},"geometry":{"x":163838.09999999963,"y":2566302.1999999993}},{"attributes":{"ID":139305,"DIS_CODE":0,"TOWNNAME":"將軍區","LI":"長榮里","LIN":" ","STREET":" ","SECT":" ","MAREA":"長榮","LANE":" ","ALLEY":" ","HOUSE_NO":"１１４號","E_COORD97":163837.44,"N_COORD97":2566206.8500000001,"ADDRESS":"長榮１１４號","OBJECTID":139305},"geometry":{"x":163837.44000000134,"y":2566206.8499999996}},{"attributes":{"ID":139306,"DIS_CODE":0,"TOWNNAME":"將軍區","LI":"長榮里","LIN":" ","STREET":" ","SECT":" ","MAREA":"長榮","LANE":" ","ALLEY":" ","HOUSE_NO":"１２７之１號","E_COORD97":163837,"N_COORD97":2566109.1299999999,"ADDRESS":"長榮１２７之１號","OBJECTID":139306},"geometry":{"x":163837.00000000093,"y":2566109.129999999}},{"attributes":{"ID":139307,"DIS_CODE":0,"TOWNNAME":"將軍區","LI":"長榮里","LIN":" ","STREET":" ","SECT":" ","MAREA":"長榮","LANE":" ","ALLEY":" ","HOUSE_NO":"１９號","E_COORD97":163854.38,"N_COORD97":2566415.1299999999,"ADDRESS":"長榮１９號","OBJECTID":139307},"geometry":{"x":163854.38000000082,"y":2566415.129999999}},{"attributes":{"ID":139308,"DIS_CODE":0,"TOWNNAME":"將軍區","LI":"長榮里","LIN":" ","STREET":" ","SECT":" ","MAREA":"長榮","LANE":" ","ALLEY":" ","HOUSE_NO":"１之１號","E_COORD97":163881.23999999999,"N_COORD97":2566503.0699999998,"ADDRESS":"長榮１之１號","OBJECTID":139308},"geometry":{"x":163881.24000000115,"y":2566503.0700000022}},{"attributes":{"ID":139309,"DIS_CODE":0,"TOWNNAME":"將軍區","LI":"長榮里","LIN":" ","STREET":" ","SECT":" ","MAREA":"長榮","LANE":" ","ALLEY":" ","HOUSE_NO":"２０２之２號","E_COORD97":163742.26000000001,"N_COORD97":2565988.4700000002,"ADDRESS":"長榮２０２之２號","OBJECTID":139309},"geometry":{"x":163742.25999999978,"y":2565988.4700000025}},{"attributes":{"ID":139310,"DIS_CODE":0,"TOWNNAME":"將軍區","LI":"長榮里","LIN":" ","STREET":" ","SECT":" ","MAREA":"長榮","LANE":" ","ALLEY":" ","HOUSE_NO":"２０８之１號","E_COORD97":163811.17000000001,"N_COORD97":2566025.8900000001,"ADDRESS":"長榮２０８之１號","OBJECTID":139310},"geometry":{"x":163811.16999999993,"y":2566025.8900000043}},{"attributes":{"ID":139311,"DIS_CODE":0,"TOWNNAME":"將軍區","LI":"長榮里","LIN":" ","STREET":" ","SECT":" ","MAREA":"長榮","LANE":" ","ALLEY":" ","HOUSE_NO":"２０８之２號","E_COORD97":163811.19,"N_COORD97":2566021.3399999999,"ADDRESS":"長榮２０８之２號","OBJECTID":139311},"geometry":{"x":163811.19000000041,"y":2566021.3399999999}},{"attributes":{"ID":139312,"DIS_CODE":0,"TOWNNAME":"將軍區","LI":"長榮里","LIN":" ","STREET":" ","SECT":" ","MAREA":"長榮","LANE":" ","ALLEY":" ","HOUSE_NO":"５４之１號","E_COORD97":164029.67000000001,"N_COORD97":2566301.5600000001,"ADDRESS":"長榮５４之１號","OBJECTID":139312},"geometry":{"x":164029.66999999993,"y":2566301.5600000005}},{"attributes":{"ID":139313,"DIS_CODE":0,"TOWNNAME":"將軍區","LI":"長榮里","LIN":" ","STREET":" ","SECT":" ","MAREA":"長榮","LANE":" ","ALLEY":" ","HOUSE_NO":"９２之４號","E_COORD97":163946.10000000001,"N_COORD97":2566220.8100000001,"ADDRESS":"長榮９２之４號","OBJECTID":139313},"geometry":{"x":163946.10000000056,"y":2566220.8100000024}},{"attributes":{"ID":139314,"DIS_CODE":0,"TOWNNAME":"將軍區","LI":"苓和里","LIN":" ","STREET":" ","SECT":" ","MAREA":"苓和","LANE":" ","ALLEY":" ","HOUSE_NO":"１１０之３號","E_COORD97":164387.19,"N_COORD97":2568879.71,"ADDRESS":"苓和１１０之３號","OBJECTID":139314},"geometry":{"x":164387.19000000134,"y":2568879.7100000028}},{"attributes":{"ID":139315,"DIS_CODE":0,"TOWNNAME":"將軍區","LI":"苓和里","LIN":" ","STREET":" ","SECT":" ","MAREA":"苓和","LANE":" ","ALLEY":" ","HOUSE_NO":"２６之２號","E_COORD97":164693.73000000001,"N_COORD97":2568934.1800000002,"ADDRESS":"苓和２６之２號","OBJECTID":139315},"geometry":{"x":164693.73000000138,"y":2568934.1799999997}},{"attributes":{"ID":139316,"DIS_CODE":0,"TOWNNAME":"將軍區","LI":"苓和里","LIN":" ","STREET":" ","SECT":" ","MAREA":"苓和","LANE":" ","ALLEY":" ","HOUSE_NO":"６８之２號","E_COORD97":164595.48000000001,"N_COORD97":2568908.0800000001,"ADDRESS":"苓和６８之２號","OBJECTID":139316},"geometry":{"x":164595.48000000138,"y":2568908.0800000001}},{"attributes":{"ID":139317,"DIS_CODE":0,"TOWNNAME":"將軍區","LI":"保源里","LIN":" ","STREET":" ","SECT":" ","MAREA":"苓保","LANE":" ","ALLEY":" ","HOUSE_NO":"１０２號","E_COORD97":164434.39000000001,"N_COORD97":2568748.6200000001,"ADDRESS":"苓保１０２號","OBJECTID":139317},"geometry":{"x":164434.38999999966,"y":2568748.6200000029}},{"attributes":{"ID":139318,"DIS_CODE":0,"TOWNNAME":"將軍區","LI":"保源里","LIN":" ","STREET":" ","SECT":" ","MAREA":"苓保","LANE":" ","ALLEY":" ","HOUSE_NO":"９８之５號","E_COORD97":164490.97,"N_COORD97":2568752.8700000001,"ADDRESS":"苓保９８之５號","OBJECTID":139318},"geometry":{"x":164490.97000000067,"y":2568752.8700000029}},{"attributes":{"ID":139319,"DIS_CODE":0,"TOWNNAME":"將軍區","LI":"將富里","LIN":" ","STREET":" ","SECT":" ","MAREA":"將富","LANE":" ","ALLEY":" ","HOUSE_NO":"１１８之２號","E_COORD97":161765.70000000001,"N_COORD97":2568466.2599999998,"ADDRESS":"將富１１８之２號","OBJECTID":139319},"geometry":{"x":161765.70000000112,"y":2568466.2599999998}},{"attributes":{"ID":139320,"DIS_CODE":0,"TOWNNAME":"東區","LI":"忠孝里","LIN":"28鄰","STREET":"中華東路","SECT":"三段","MAREA":" ","LANE":"４５２巷","ALLEY":"８弄","HOUSE_NO":"１號","E_COORD97":169908.54000000001,"N_COORD97":2541620.8500000001,"ADDRESS":"中華東路三段４５２巷８弄１號","OBJECTID":139320},"geometry":{"x":169908.54000000097,"y":2541620.8499999978}},{"attributes":{"ID":139321,"DIS_CODE":0,"TOWNNAME":"東區","LI":"忠孝里","LIN":"28鄰","STREET":"中華東路","SECT":"三段","MAREA":" ","LANE":"４５２巷","ALLEY":"８弄","HOUSE_NO":"３號","E_COORD97":169913.60000000001,"N_COORD97":2541621.6000000001,"ADDRESS":"中華東路三段４５２巷８弄３號","OBJECTID":139321},"geometry":{"x":169913.59999999963,"y":2541621.5999999996}},{"attributes":{"ID":139322,"DIS_CODE":0,"TOWNNAME":"東區","LI":"忠孝里","LIN":"28鄰","STREET":"中華東路","SECT":"三段","MAREA":" ","LANE":"４５２巷","ALLEY":"８弄","HOUSE_NO":"５號","E_COORD97":169917.26999999999,"N_COORD97":2541622.3399999999,"ADDRESS":"中華東路三段４５２巷８弄５號","OBJECTID":139322},"geometry":{"x":169917.26999999955,"y":2541622.3400000017}},{"attributes":{"ID":139323,"DIS_CODE":0,"TOWNNAME":"南區","LI":"文南里","LIN":"22鄰","STREET":"中華西路","SECT":"一段","MAREA":" ","LANE":"１０９巷","ALLEY":"２弄","HOUSE_NO":"７號","E_COORD97":166436.17999999999,"N_COORD97":2542449.52,"ADDRESS":"中華西路一段１０９巷２弄７號","OBJECTID":139323},"geometry":{"x":166436.1799999997,"y":2542449.5199999996}},{"attributes":{"ID":139324,"DIS_CODE":0,"TOWNNAME":"東區","LI":"仁和里","LIN":"13鄰","STREET":"仁和路","SECT":" ","MAREA":" ","LANE":"１３９巷","ALLEY":"５１弄","HOUSE_NO":"２６號","E_COORD97":171765.45999999999,"N_COORD97":2541269.04,"ADDRESS":"仁和路１３９巷５１弄２６號","OBJECTID":139324},"geometry":{"x":171765.46000000089,"y":2541269.0399999991}},{"attributes":{"ID":139325,"DIS_CODE":0,"TOWNNAME":"東區","LI":"仁和里","LIN":"13鄰","STREET":"仁和路","SECT":" ","MAREA":" ","LANE":"１３９巷","ALLEY":"５１弄","HOUSE_NO":"２６號之１","E_COORD97":171761.56,"N_COORD97":2541267.5499999998,"ADDRESS":"仁和路１３９巷５１弄２６號之１","OBJECTID":139325},"geometry":{"x":171761.55999999959,"y":2541267.5500000007}},{"attributes":{"ID":139326,"DIS_CODE":0,"TOWNNAME":"東區","LI":"仁和里","LIN":"13鄰","STREET":"仁和路","SECT":" ","MAREA":" ","LANE":"１３９巷","ALLEY":"５１弄","HOUSE_NO":"２６號之２","E_COORD97":171756.54000000001,"N_COORD97":2541269.04,"ADDRESS":"仁和路１３９巷５１弄２６號之２","OBJECTID":139326},"geometry":{"x":171756.54000000097,"y":2541269.0399999991}},{"attributes":{"ID":139327,"DIS_CODE":0,"TOWNNAME":"東區","LI":"仁和里","LIN":"13鄰","STREET":"仁和路","SECT":" ","MAREA":" ","LANE":"１３９巷","ALLEY":"５１弄","HOUSE_NO":"２６號之３","E_COORD97":171752.07000000001,"N_COORD97":2541266.4399999999,"ADDRESS":"仁和路１３９巷５１弄２６號之３","OBJECTID":139327},"geometry":{"x":171752.0700000003,"y":2541266.4399999995}},{"attributes":{"ID":139328,"DIS_CODE":0,"TOWNNAME":"東區","LI":"仁和里","LIN":"13鄰","STREET":"仁和路","SECT":" ","MAREA":" ","LANE":"１３９巷","ALLEY":"５１弄","HOUSE_NO":"２６號之５","E_COORD97":171748.17000000001,"N_COORD97":2541268.6699999999,"ADDRESS":"仁和路１３９巷５１弄２６號之５","OBJECTID":139328},"geometry":{"x":171748.17000000179,"y":2541268.6699999999}},{"attributes":{"ID":139329,"DIS_CODE":0,"TOWNNAME":"東區","LI":"仁和里","LIN":"13鄰","STREET":"仁和路","SECT":" ","MAREA":" ","LANE":"１３９巷","ALLEY":"５１弄","HOUSE_NO":"２６號之６","E_COORD97":171743.89000000001,"N_COORD97":2541266.8100000001,"ADDRESS":"仁和路１３９巷５１弄２６號之６","OBJECTID":139329},"geometry":{"x":171743.8900000006,"y":2541266.8100000024}},{"attributes":{"ID":139330,"DIS_CODE":0,"TOWNNAME":"東區","LI":"忠孝里","LIN":"32鄰","STREET":"崇明六街","SECT":" ","MAREA":" ","LANE":"８巷","ALLEY":"３弄","HOUSE_NO":"１５號之１","E_COORD97":169678.76000000001,"N_COORD97":2542182.4500000002,"ADDRESS":"崇明六街８巷３弄１５號之１","OBJECTID":139330},"geometry":{"x":169678.75999999978,"y":2542182.4499999993}},{"attributes":{"ID":139331,"DIS_CODE":0,"TOWNNAME":"東區","LI":"大智里","LIN":"1鄰","STREET":"生產路","SECT":" ","MAREA":" ","LANE":"６１８巷","ALLEY":"４弄","HOUSE_NO":"６號","E_COORD97":171212.56,"N_COORD97":2540647.8599999999,"ADDRESS":"生產路６１８巷４弄６號","OBJECTID":139331},"geometry":{"x":171212.55999999959,"y":2540647.8600000031}},{"attributes":{"ID":139332,"DIS_CODE":0,"TOWNNAME":"東區","LI":"後甲里","LIN":"15鄰","STREET":"裕農路","SECT":" ","MAREA":" ","LANE":"６２１巷","ALLEY":"４１弄","HOUSE_NO":"２４號","E_COORD97":171540.60000000001,"N_COORD97":2543438.98,"ADDRESS":"裕農路６２１巷４１弄２４號","OBJECTID":139332},"geometry":{"x":171540.60000000056,"y":2543438.9800000023}},{"attributes":{"ID":139333,"DIS_CODE":0,"TOWNNAME":"東區","LI":"富強里","LIN":"10鄰","STREET":"中華東路","SECT":"二段","MAREA":" ","LANE":"２２６巷","ALLEY":"３０弄","HOUSE_NO":"１５號","E_COORD97":171152.63,"N_COORD97":2542716.4399999999,"ADDRESS":"中華東路二段２２６巷３０弄１５號","OBJECTID":139333},"geometry":{"x":171152.62999999989,"y":2542716.4400000013}},{"attributes":{"ID":139334,"DIS_CODE":0,"TOWNNAME":"東區","LI":"富強里","LIN":"10鄰","STREET":"中華東路","SECT":"二段","MAREA":" ","LANE":"２２６巷","ALLEY":"３０弄","HOUSE_NO":"１３號","E_COORD97":171152.45999999999,"N_COORD97":2542711.54,"ADDRESS":"中華東路二段２２６巷３０弄１３號","OBJECTID":139334},"geometry":{"x":171152.45999999996,"y":2542711.540000001}},{"attributes":{"ID":139335,"DIS_CODE":0,"TOWNNAME":"東區","LI":"大智里","LIN":"17鄰","STREET":"德東街","SECT":" ","MAREA":" ","LANE":"１５１巷","ALLEY":"３７弄","HOUSE_NO":"９號","E_COORD97":171142.17999999999,"N_COORD97":2540378.1000000001,"ADDRESS":"德東街１５１巷３７弄９號","OBJECTID":139335},"geometry":{"x":171142.1799999997,"y":2540378.0999999996}},{"attributes":{"ID":139336,"DIS_CODE":0,"TOWNNAME":"東區","LI":"大智里","LIN":"17鄰","STREET":"德東街","SECT":" ","MAREA":" ","LANE":"１５１巷","ALLEY":"３７弄","HOUSE_NO":"１３號","E_COORD97":171124.75,"N_COORD97":2540376.6299999999,"ADDRESS":"德東街１５１巷３７弄１３號","OBJECTID":139336},"geometry":{"x":171124.75000000093,"y":2540376.629999999}},{"attributes":{"ID":139337,"DIS_CODE":0,"TOWNNAME":"東區","LI":"大智里","LIN":"17鄰","STREET":"德東街","SECT":" ","MAREA":" ","LANE":"１５１巷","ALLEY":"３７弄","HOUSE_NO":"１１號","E_COORD97":171133.35999999999,"N_COORD97":2540377.02,"ADDRESS":"德東街１５１巷３７弄１１號","OBJECTID":139337},"geometry":{"x":171133.36000000034,"y":2540377.0200000014}},{"attributes":{"ID":139338,"DIS_CODE":0,"TOWNNAME":"東區","LI":"富裕里","LIN":"7鄰","STREET":"裕農路","SECT":" ","MAREA":" ","LANE":"２８８巷","ALLEY":"６０弄","HOUSE_NO":"７號","E_COORD97":170918.67999999999,"N_COORD97":2542909.7999999998,"ADDRESS":"裕農路２８８巷６０弄７號","OBJECTID":139338},"geometry":{"x":170918.6799999997,"y":2542909.8000000007}},{"attributes":{"ID":139339,"DIS_CODE":0,"TOWNNAME":"永康區","LI":"西橋里","LIN":"22鄰","STREET":"大橋三街","SECT":" ","MAREA":" ","LANE":"５７巷","ALLEY":"７弄","HOUSE_NO":"６號三樓","E_COORD97":170548.48999999999,"N_COORD97":2546546.5099999998,"ADDRESS":"大橋三街５７巷７弄６號三樓","OBJECTID":139339},"geometry":{"x":170548.49000000115,"y":2546546.5100000035}},{"attributes":{"ID":139340,"DIS_CODE":0,"TOWNNAME":"東區","LI":"南聖里","LIN":"8鄰","STREET":"裕農路","SECT":" ","MAREA":" ","LANE":"７２６巷","ALLEY":"９弄","HOUSE_NO":"８號","E_COORD97":171891.35000000001,"N_COORD97":2543133.3700000001,"ADDRESS":"裕農路７２６巷９弄８號","OBJECTID":139340},"geometry":{"x":171891.35000000056,"y":2543133.370000001}},{"attributes":{"ID":139341,"DIS_CODE":0,"TOWNNAME":"東區","LI":"虎尾里","LIN":"9鄰","STREET":"東成街","SECT":" ","MAREA":" ","LANE":"１８２巷","ALLEY":"１弄","HOUSE_NO":"２號","E_COORD97":171770.72,"N_COORD97":2542250.6099999999,"ADDRESS":"東成街１８２巷１弄２號","OBJECTID":139341},"geometry":{"x":171770.71999999974,"y":2542250.6100000013}},{"attributes":{"ID":139342,"DIS_CODE":0,"TOWNNAME":"永康區","LI":"光復里","LIN":"22鄰","STREET":"復興路","SECT":" ","MAREA":" ","LANE":"１２８巷","ALLEY":"１弄","HOUSE_NO":"８號五樓","E_COORD97":172667.38,"N_COORD97":2544380.8700000001,"ADDRESS":"復興路１２８巷１弄８號五樓","OBJECTID":139342},"geometry":{"x":172667.38000000175,"y":2544380.870000001}},{"attributes":{"ID":139343,"DIS_CODE":0,"TOWNNAME":"將軍區","LI":"將富里","LIN":" ","STREET":" ","SECT":" ","MAREA":"將富","LANE":" ","ALLEY":" ","HOUSE_NO":"４８之８號","E_COORD97":161462.54999999999,"N_COORD97":2568321.2999999998,"ADDRESS":"將富４８之８號","OBJECTID":139343},"geometry":{"x":161462.55000000168,"y":2568321.3000000007}},{"attributes":{"ID":139344,"DIS_CODE":0,"TOWNNAME":"將軍區","LI":"將富里","LIN":" ","STREET":" ","SECT":" ","MAREA":"將富","LANE":" ","ALLEY":" ","HOUSE_NO":"４８之９號","E_COORD97":161461.07000000001,"N_COORD97":2568315.3500000001,"ADDRESS":"將富４８之９號","OBJECTID":139344},"geometry":{"x":161461.06999999937,"y":2568315.3499999996}},{"attributes":{"ID":139345,"DIS_CODE":0,"TOWNNAME":"將軍區","LI":"將富里","LIN":" ","STREET":" ","SECT":" ","MAREA":"將富","LANE":" ","ALLEY":" ","HOUSE_NO":"４８號","E_COORD97":161535.64000000001,"N_COORD97":2568448.8100000001,"ADDRESS":"將富４８號","OBJECTID":139345},"geometry":{"x":161535.63999999966,"y":2568448.8100000005}},{"attributes":{"ID":139346,"DIS_CODE":0,"TOWNNAME":"將軍區","LI":"將富里","LIN":" ","STREET":" ","SECT":" ","MAREA":"將富","LANE":" ","ALLEY":" ","HOUSE_NO":"４９之１１號","E_COORD97":161560.51000000001,"N_COORD97":2568426.75,"ADDRESS":"將富４９之１１號","OBJECTID":139346},"geometry":{"x":161560.50999999978,"y":2568426.7500000037}},{"attributes":{"ID":139347,"DIS_CODE":0,"TOWNNAME":"永康區","LI":"光復里","LIN":"22鄰","STREET":"復興路","SECT":" ","MAREA":" ","LANE":"１２８巷","ALLEY":"１弄","HOUSE_NO":"６號二樓","E_COORD97":172678.73000000001,"N_COORD97":2544380.6200000001,"ADDRESS":"復興路１２８巷１弄６號二樓","OBJECTID":139347},"geometry":{"x":172678.73000000045,"y":2544380.6200000048}},{"attributes":{"ID":139348,"DIS_CODE":0,"TOWNNAME":"東區","LI":"成大里","LIN":"22鄰","STREET":"育樂街","SECT":" ","MAREA":" ","LANE":"５７巷","ALLEY":"２弄","HOUSE_NO":"１７號二樓之１","E_COORD97":169622.98999999999,"N_COORD97":2543972.4900000002,"ADDRESS":"育樂街５７巷２弄１７號二樓之１","OBJECTID":139348},"geometry":{"x":169622.99000000115,"y":2543972.4900000002}},{"attributes":{"ID":139349,"DIS_CODE":0,"TOWNNAME":"東區","LI":"成大里","LIN":"22鄰","STREET":"育樂街","SECT":" ","MAREA":" ","LANE":"５７巷","ALLEY":"２弄","HOUSE_NO":"１７號二樓之２","E_COORD97":169610.78,"N_COORD97":2543973.8500000001,"ADDRESS":"育樂街５７巷２弄１７號二樓之２","OBJECTID":139349},"geometry":{"x":169610.78000000119,"y":2543973.8499999978}},{"attributes":{"ID":139350,"DIS_CODE":0,"TOWNNAME":"東區","LI":"成大里","LIN":"22鄰","STREET":"育樂街","SECT":" ","MAREA":" ","LANE":"５７巷","ALLEY":"２弄","HOUSE_NO":"１７號二樓之３","E_COORD97":169625.54000000001,"N_COORD97":2543966.8999999999,"ADDRESS":"育樂街５７巷２弄１７號二樓之３","OBJECTID":139350},"geometry":{"x":169625.54000000097,"y":2543966.9000000004}},{"attributes":{"ID":139351,"DIS_CODE":0,"TOWNNAME":"東區","LI":"成大里","LIN":"22鄰","STREET":"育樂街","SECT":" ","MAREA":" ","LANE":"５７巷","ALLEY":"２弄","HOUSE_NO":"１７號二樓之４","E_COORD97":169624.17999999999,"N_COORD97":2543958.25,"ADDRESS":"育樂街５７巷２弄１７號二樓之４","OBJECTID":139351},"geometry":{"x":169624.18000000063,"y":2543958.2500000037}},{"attributes":{"ID":139352,"DIS_CODE":0,"TOWNNAME":"將軍區","LI":"將富里","LIN":" ","STREET":" ","SECT":" ","MAREA":"將富","LANE":" ","ALLEY":" ","HOUSE_NO":"５３之４號","E_COORD97":161674.69,"N_COORD97":2568393.4399999999,"ADDRESS":"將富５３之４號","OBJECTID":139352},"geometry":{"x":161674.69000000134,"y":2568393.4399999995}},{"attributes":{"ID":139353,"DIS_CODE":0,"TOWNNAME":"東區","LI":"成大里","LIN":"22鄰","STREET":"育樂街","SECT":" ","MAREA":" ","LANE":"５７巷","ALLEY":"２弄","HOUSE_NO":"１７號二樓之５","E_COORD97":169609.59,"N_COORD97":2543955.54,"ADDRESS":"育樂街５７巷２弄１７號二樓之５","OBJECTID":139353},"geometry":{"x":169609.59000000078,"y":2543955.540000001}},{"attributes":{"ID":139354,"DIS_CODE":0,"TOWNNAME":"將軍區","LI":"將富里","LIN":" ","STREET":" ","SECT":" ","MAREA":"將富","LANE":" ","ALLEY":" ","HOUSE_NO":"５４之４號","E_COORD97":161675.56,"N_COORD97":2568413.23,"ADDRESS":"將富５４之４號","OBJECTID":139354},"geometry":{"x":161675.55999999959,"y":2568413.2300000004}},{"attributes":{"ID":139355,"DIS_CODE":0,"TOWNNAME":"將軍區","LI":"將富里","LIN":" ","STREET":" ","SECT":" ","MAREA":"將富","LANE":" ","ALLEY":" ","HOUSE_NO":"６９號","E_COORD97":161748.35999999999,"N_COORD97":2568455.0099999998,"ADDRESS":"將富６９號","OBJECTID":139355},"geometry":{"x":161748.36000000034,"y":2568455.0100000035}},{"attributes":{"ID":139356,"DIS_CODE":0,"TOWNNAME":"將軍區","LI":"將富里","LIN":" ","STREET":" ","SECT":" ","MAREA":"將富","LANE":" ","ALLEY":" ","HOUSE_NO":"８１之１號","E_COORD97":161803.16,"N_COORD97":2568541.0600000001,"ADDRESS":"將富８１之１號","OBJECTID":139356},"geometry":{"x":161803.16000000108,"y":2568541.0600000024}},{"attributes":{"ID":139357,"DIS_CODE":0,"TOWNNAME":"將軍區","LI":"將富里","LIN":" ","STREET":" ","SECT":" ","MAREA":"將榮","LANE":" ","ALLEY":" ","HOUSE_NO":"１１２之８０號","E_COORD97":161239.91,"N_COORD97":2569038.6600000001,"ADDRESS":"將榮１１２之８０號","OBJECTID":139357},"geometry":{"x":161239.91000000015,"y":2569038.660000002}},{"attributes":{"ID":139358,"DIS_CODE":0,"TOWNNAME":"將軍區","LI":"將貴里","LIN":" ","STREET":" ","SECT":" ","MAREA":"將榮","LANE":" ","ALLEY":" ","HOUSE_NO":"２５之１號","E_COORD97":161908.45000000001,"N_COORD97":2568523.73,"ADDRESS":"將榮２５之１號","OBJECTID":139358},"geometry":{"x":161908.45000000112,"y":2568523.7300000023}},{"attributes":{"ID":139359,"DIS_CODE":0,"TOWNNAME":"將軍區","LI":"將富里","LIN":" ","STREET":" ","SECT":" ","MAREA":"將榮","LANE":" ","ALLEY":" ","HOUSE_NO":"６１之２號","E_COORD97":161932.92999999999,"N_COORD97":2568563.8399999999,"ADDRESS":"將榮６１之２號","OBJECTID":139359},"geometry":{"x":161932.93000000063,"y":2568563.8399999999}},{"attributes":{"ID":139360,"DIS_CODE":0,"TOWNNAME":"將軍區","LI":"保源里","LIN":" ","STREET":" ","SECT":" ","MAREA":"源頭","LANE":" ","ALLEY":" ","HOUSE_NO":"１３之１號","E_COORD97":164481.76000000001,"N_COORD97":2567847.04,"ADDRESS":"源頭１３之１號","OBJECTID":139360},"geometry":{"x":164481.75999999885,"y":2567847.0399999972}},{"attributes":{"ID":139361,"DIS_CODE":0,"TOWNNAME":"將軍區","LI":"保源里","LIN":" ","STREET":" ","SECT":" ","MAREA":"源頭","LANE":" ","ALLEY":" ","HOUSE_NO":"３０之１號","E_COORD97":164538.81,"N_COORD97":2567935.6400000001,"ADDRESS":"源頭３０之１號","OBJECTID":139361},"geometry":{"x":164538.80999999959,"y":2567935.6400000006}},{"attributes":{"ID":139362,"DIS_CODE":0,"TOWNNAME":"將軍區","LI":"保源里","LIN":" ","STREET":" ","SECT":" ","MAREA":"源頭","LANE":" ","ALLEY":" ","HOUSE_NO":"４號","E_COORD97":164513.23999999999,"N_COORD97":2567824.4700000002,"ADDRESS":"源頭４號","OBJECTID":139362},"geometry":{"x":164513.24000000115,"y":2567824.4700000007}},{"attributes":{"ID":139363,"DIS_CODE":0,"TOWNNAME":"將軍區","LI":"保源里","LIN":" ","STREET":" ","SECT":" ","MAREA":"源頭","LANE":" ","ALLEY":" ","HOUSE_NO":"６７之１１號","E_COORD97":164787.70999999999,"N_COORD97":2568048.6499999999,"ADDRESS":"源頭６７之１１號","OBJECTID":139363},"geometry":{"x":164787.71000000089,"y":2568048.6500000022}},{"attributes":{"ID":139364,"DIS_CODE":0,"TOWNNAME":"將軍區","LI":"廣山里","LIN":" ","STREET":" ","SECT":" ","MAREA":"廣山","LANE":" ","ALLEY":" ","HOUSE_NO":"１４４之１號","E_COORD97":159597.35000000001,"N_COORD97":2569216.5099999998,"ADDRESS":"廣山１４４之１號","OBJECTID":139364},"geometry":{"x":159597.35000000149,"y":2569216.5099999998}},{"attributes":{"ID":139365,"DIS_CODE":0,"TOWNNAME":"東區","LI":"成大里","LIN":"22鄰","STREET":"育樂街","SECT":" ","MAREA":" ","LANE":"５７巷","ALLEY":"２弄","HOUSE_NO":"１７號三樓之１","E_COORD97":169622.98999999999,"N_COORD97":2543972.4900000002,"ADDRESS":"育樂街５７巷２弄１７號三樓之１","OBJECTID":139365},"geometry":{"x":169622.99000000115,"y":2543972.4900000002}},{"attributes":{"ID":139366,"DIS_CODE":0,"TOWNNAME":"東區","LI":"成大里","LIN":"22鄰","STREET":"育樂街","SECT":" ","MAREA":" ","LANE":"５７巷","ALLEY":"２弄","HOUSE_NO":"１７號三樓之２","E_COORD97":169610.78,"N_COORD97":2543973.8500000001,"ADDRESS":"育樂街５７巷２弄１７號三樓之２","OBJECTID":139366},"geometry":{"x":169610.78000000119,"y":2543973.8499999978}},{"attributes":{"ID":139367,"DIS_CODE":0,"TOWNNAME":"東區","LI":"成大里","LIN":"22鄰","STREET":"育樂街","SECT":" ","MAREA":" ","LANE":"５７巷","ALLEY":"２弄","HOUSE_NO":"１７號三樓之３","E_COORD97":169625.54000000001,"N_COORD97":2543966.8999999999,"ADDRESS":"育樂街５７巷２弄１７號三樓之３","OBJECTID":139367},"geometry":{"x":169625.54000000097,"y":2543966.9000000004}},{"attributes":{"ID":139368,"DIS_CODE":0,"TOWNNAME":"東區","LI":"成大里","LIN":"22鄰","STREET":"育樂街","SECT":" ","MAREA":" ","LANE":"５７巷","ALLEY":"２弄","HOUSE_NO":"１７號三樓之４","E_COORD97":169624.17999999999,"N_COORD97":2543958.25,"ADDRESS":"育樂街５７巷２弄１７號三樓之４","OBJECTID":139368},"geometry":{"x":169624.18000000063,"y":2543958.2500000037}},{"attributes":{"ID":139369,"DIS_CODE":0,"TOWNNAME":"東區","LI":"成大里","LIN":"22鄰","STREET":"育樂街","SECT":" ","MAREA":" ","LANE":"５７巷","ALLEY":"２弄","HOUSE_NO":"１７號三樓之５","E_COORD97":169609.59,"N_COORD97":2543955.54,"ADDRESS":"育樂街５７巷２弄１７號三樓之５","OBJECTID":139369},"geometry":{"x":169609.59000000078,"y":2543955.540000001}},{"attributes":{"ID":139370,"DIS_CODE":0,"TOWNNAME":"東區","LI":"成大里","LIN":"22鄰","STREET":"育樂街","SECT":" ","MAREA":" ","LANE":"５７巷","ALLEY":"２弄","HOUSE_NO":"１７號四樓之１","E_COORD97":169622.98999999999,"N_COORD97":2543972.4900000002,"ADDRESS":"育樂街５７巷２弄１７號四樓之１","OBJECTID":139370},"geometry":{"x":169622.99000000115,"y":2543972.4900000002}},{"attributes":{"ID":139371,"DIS_CODE":0,"TOWNNAME":"東區","LI":"成大里","LIN":"22鄰","STREET":"育樂街","SECT":" ","MAREA":" ","LANE":"５７巷","ALLEY":"２弄","HOUSE_NO":"１７號四樓之２","E_COORD97":169610.78,"N_COORD97":2543973.8500000001,"ADDRESS":"育樂街５７巷２弄１７號四樓之２","OBJECTID":139371},"geometry":{"x":169610.78000000119,"y":2543973.8499999978}},{"attributes":{"ID":139372,"DIS_CODE":0,"TOWNNAME":"將軍區","LI":"廣山里","LIN":" ","STREET":" ","SECT":" ","MAREA":"廣山","LANE":" ","ALLEY":" ","HOUSE_NO":"１４６之２號","E_COORD97":159611.51999999999,"N_COORD97":2569253.4700000002,"ADDRESS":"廣山１４６之２號","OBJECTID":139372},"geometry":{"x":159611.52000000048,"y":2569253.4700000025}},{"attributes":{"ID":139373,"DIS_CODE":0,"TOWNNAME":"將軍區","LI":"廣山里","LIN":" ","STREET":" ","SECT":" ","MAREA":"廣山","LANE":" ","ALLEY":" ","HOUSE_NO":"１４８之３號","E_COORD97":159646.07000000001,"N_COORD97":2569214.4399999999,"ADDRESS":"廣山１４８之３號","OBJECTID":139373},"geometry":{"x":159646.07000000123,"y":2569214.4399999976}},{"attributes":{"ID":139374,"DIS_CODE":0,"TOWNNAME":"將軍區","LI":"廣山里","LIN":" ","STREET":" ","SECT":" ","MAREA":"廣山","LANE":" ","ALLEY":" ","HOUSE_NO":"２９之２號","E_COORD97":159860.42000000001,"N_COORD97":2568803.9199999999,"ADDRESS":"廣山２９之２號","OBJECTID":139374},"geometry":{"x":159860.42000000086,"y":2568803.9199999999}},{"attributes":{"ID":139375,"DIS_CODE":0,"TOWNNAME":"將軍區","LI":"廣山里","LIN":" ","STREET":" ","SECT":" ","MAREA":"廣山","LANE":" ","ALLEY":" ","HOUSE_NO":"３９之１號","E_COORD97":159793.37,"N_COORD97":2568817.3599999999,"ADDRESS":"廣山３９之１號","OBJECTID":139375},"geometry":{"x":159793.37000000104,"y":2568817.3599999994}},{"attributes":{"ID":139376,"DIS_CODE":0,"TOWNNAME":"將軍區","LI":"廣山里","LIN":" ","STREET":" ","SECT":" ","MAREA":"廣山","LANE":" ","ALLEY":" ","HOUSE_NO":"６１之１號","E_COORD97":159668.56,"N_COORD97":2568794.6899999999,"ADDRESS":"廣山６１之１號","OBJECTID":139376},"geometry":{"x":159668.55999999959,"y":2568794.6899999995}},{"attributes":{"ID":139377,"DIS_CODE":0,"TOWNNAME":"將軍區","LI":"廣山里","LIN":" ","STREET":" ","SECT":" ","MAREA":"廣山","LANE":" ","ALLEY":" ","HOUSE_NO":"６６之１號","E_COORD97":159606.23999999999,"N_COORD97":2568855.4399999999,"ADDRESS":"廣山６６之１號","OBJECTID":139377},"geometry":{"x":159606.24000000115,"y":2568855.4400000032}},{"attributes":{"ID":139378,"DIS_CODE":0,"TOWNNAME":"將軍區","LI":"鯤溟里","LIN":" ","STREET":" ","SECT":" ","MAREA":"鯤溟","LANE":" ","ALLEY":" ","HOUSE_NO":"４８之１號","E_COORD97":156585.10999999999,"N_COORD97":2565491.54,"ADDRESS":"鯤溟４８之１號","OBJECTID":139378},"geometry":{"x":156585.11000000034,"y":2565491.540000001}},{"attributes":{"ID":139379,"DIS_CODE":0,"TOWNNAME":"將軍區","LI":"鯤溟里","LIN":" ","STREET":" ","SECT":" ","MAREA":"鯤溟","LANE":" ","ALLEY":" ","HOUSE_NO":"４８之２號","E_COORD97":156584.26000000001,"N_COORD97":2565495.1299999999,"ADDRESS":"鯤溟４８之２號","OBJECTID":139379},"geometry":{"x":156584.26000000071,"y":2565495.1300000008}},{"attributes":{"ID":139380,"DIS_CODE":0,"TOWNNAME":"東區","LI":"關聖里","LIN":"6鄰","STREET":"富農街","SECT":"二段","MAREA":" ","LANE":" ","ALLEY":" ","HOUSE_NO":"２６號","E_COORD97":171653.73000000001,"N_COORD97":2542921.6600000001,"ADDRESS":"富農街二段２６號","OBJECTID":139380},"geometry":{"x":171653.73000000138,"y":2542921.6600000039}},{"attributes":{"ID":139381,"DIS_CODE":0,"TOWNNAME":"安南區","LI":"頂安里","LIN":"7鄰","STREET":"頂安街","SECT":" ","MAREA":" ","LANE":" ","ALLEY":" ","HOUSE_NO":"５１５之２號","E_COORD97":168686.01000000001,"N_COORD97":2549284.7000000002,"ADDRESS":"頂安街５１５之２號","OBJECTID":139381},"geometry":{"x":168686.01000000164,"y":2549284.7000000011}},{"attributes":{"ID":139382,"DIS_CODE":0,"TOWNNAME":"安南區","LI":"溪心里","LIN":"11鄰","STREET":"功安三街","SECT":" ","MAREA":" ","LANE":" ","ALLEY":" ","HOUSE_NO":"２號","E_COORD97":166276.66,"N_COORD97":2549974.4900000002,"ADDRESS":"功安三街２號","OBJECTID":139382},"geometry":{"x":166276.66000000108,"y":2549974.4899999984}},{"attributes":{"ID":139383,"DIS_CODE":0,"TOWNNAME":"東區","LI":"成大里","LIN":"22鄰","STREET":"育樂街","SECT":" ","MAREA":" ","LANE":"５７巷","ALLEY":"２弄","HOUSE_NO":"１７號四樓之３","E_COORD97":169625.54000000001,"N_COORD97":2543966.8999999999,"ADDRESS":"育樂街５７巷２弄１７號四樓之３","OBJECTID":139383},"geometry":{"x":169625.54000000097,"y":2543966.9000000004}},{"attributes":{"ID":139384,"DIS_CODE":0,"TOWNNAME":"東區","LI":"成大里","LIN":"22鄰","STREET":"育樂街","SECT":" ","MAREA":" ","LANE":"５７巷","ALLEY":"２弄","HOUSE_NO":"１７號四樓之４","E_COORD97":169624.17999999999,"N_COORD97":2543958.25,"ADDRESS":"育樂街５７巷２弄１７號四樓之４","OBJECTID":139384},"geometry":{"x":169624.18000000063,"y":2543958.2500000037}},{"attributes":{"ID":139385,"DIS_CODE":0,"TOWNNAME":"東區","LI":"成大里","LIN":"22鄰","STREET":"育樂街","SECT":" ","MAREA":" ","LANE":"５７巷","ALLEY":"２弄","HOUSE_NO":"１７號四樓之５","E_COORD97":169609.59,"N_COORD97":2543955.54,"ADDRESS":"育樂街５７巷２弄１７號四樓之５","OBJECTID":139385},"geometry":{"x":169609.59000000078,"y":2543955.540000001}},{"attributes":{"ID":139386,"DIS_CODE":0,"TOWNNAME":"東區","LI":"崇誨里","LIN":"26鄰","STREET":"林森路","SECT":"二段","MAREA":" ","LANE":"１９２巷","ALLEY":"７０弄","HOUSE_NO":"２０號","E_COORD97":170714.79999999999,"N_COORD97":2543312.46,"ADDRESS":"林森路二段１９２巷７０弄２０號","OBJECTID":139386},"geometry":{"x":170714.80000000168,"y":2543312.4600000009}},{"attributes":{"ID":139387,"DIS_CODE":0,"TOWNNAME":"東區","LI":"新東里","LIN":"6鄰","STREET":"衛國街","SECT":" ","MAREA":" ","LANE":"１０６巷","ALLEY":"５弄","HOUSE_NO":"４２號之１","E_COORD97":170536.04999999999,"N_COORD97":2543040.52,"ADDRESS":"衛國街１０６巷５弄４２號之１","OBJECTID":139387},"geometry":{"x":170536.04999999981,"y":2543040.5200000033}},{"attributes":{"ID":139388,"DIS_CODE":0,"TOWNNAME":"大內區","LI":"曲溪里","LIN":"6鄰","STREET":" ","SECT":" ","MAREA":"二重溪","LANE":" ","ALLEY":" ","HOUSE_NO":"５６號","E_COORD97":187263.29000000001,"N_COORD97":2557600.3100000001,"ADDRESS":"二重溪５６號","OBJECTID":139388},"geometry":{"x":187263.29000000004,"y":2557600.3100000005}},{"attributes":{"ID":139389,"DIS_CODE":0,"TOWNNAME":"大內區","LI":"環湖里","LIN":"6鄰","STREET":" ","SECT":" ","MAREA":"環湖","LANE":" ","ALLEY":" ","HOUSE_NO":"８６號","E_COORD97":190387.44,"N_COORD97":2560611.25,"ADDRESS":"環湖８６號","OBJECTID":139389},"geometry":{"x":190387.44000000134,"y":2560611.25}},{"attributes":{"ID":139390,"DIS_CODE":0,"TOWNNAME":"永康區","LI":"烏竹里","LIN":"6鄰","STREET":"龍橋街","SECT":" ","MAREA":" ","LANE":" ","ALLEY":" ","HOUSE_NO":"４６８之１號","E_COORD97":174442.87,"N_COORD97":2549328.8199999998,"ADDRESS":"龍橋街４６８之１號","OBJECTID":139390},"geometry":{"x":174442.87000000104,"y":2549328.8200000022}},{"attributes":{"ID":139391,"DIS_CODE":0,"TOWNNAME":"永康區","LI":"\u25A0行里","LIN":"6鄰","STREET":"新行街","SECT":" ","MAREA":" ","LANE":" ","ALLEY":" ","HOUSE_NO":"３７號","E_COORD97":172253.79000000001,"N_COORD97":2548824.0499999998,"ADDRESS":"新行街３７號","OBJECTID":139391},"geometry":{"x":172253.79000000004,"y":2548824.0500000007}},{"attributes":{"ID":139392,"DIS_CODE":0,"TOWNNAME":"永康區","LI":"\u25A0行里","LIN":"6鄰","STREET":"新行街","SECT":" ","MAREA":" ","LANE":" ","ALLEY":" ","HOUSE_NO":"３５號","E_COORD97":172249.28,"N_COORD97":2548820.0499999998,"ADDRESS":"新行街３５號","OBJECTID":139392},"geometry":{"x":172249.28000000026,"y":2548820.0500000026}},{"attributes":{"ID":139393,"DIS_CODE":0,"TOWNNAME":"安南區","LI":"頂安里","LIN":"8鄰","STREET":"頂安街","SECT":" ","MAREA":" ","LANE":" ","ALLEY":" ","HOUSE_NO":"５６３號","E_COORD97":168514.39999999999,"N_COORD97":2549253.75,"ADDRESS":"頂安街５６３號","OBJECTID":139393},"geometry":{"x":168514.40000000224,"y":2549253.7499999981}},{"attributes":{"ID":139394,"DIS_CODE":0,"TOWNNAME":"安南區","LI":"頂安里","LIN":"8鄰","STREET":"頂安街","SECT":" ","MAREA":" ","LANE":" ","ALLEY":" ","HOUSE_NO":"５６５號","E_COORD97":168508.35999999999,"N_COORD97":2549253.4300000002,"ADDRESS":"頂安街５６５號","OBJECTID":139394},"geometry":{"x":168508.36000000127,"y":2549253.4300000016}},{"attributes":{"ID":139395,"DIS_CODE":0,"TOWNNAME":"安南區","LI":"溪心里","LIN":"8鄰","STREET":"安中路","SECT":"二段","MAREA":" ","LANE":" ","ALLEY":" ","HOUSE_NO":"１１７號","E_COORD97":166590.78,"N_COORD97":2549670.3300000001,"ADDRESS":"安中路二段１１７號","OBJECTID":139395},"geometry":{"x":166590.78000000026,"y":2549670.3300000038}},{"attributes":{"ID":139396,"DIS_CODE":0,"TOWNNAME":"東區","LI":"大智里","LIN":"17鄰","STREET":"德東街","SECT":" ","MAREA":" ","LANE":"１５１巷","ALLEY":"３７弄","HOUSE_NO":"３號","E_COORD97":171162.54000000001,"N_COORD97":2540359.5099999998,"ADDRESS":"德東街１５１巷３７弄３號","OBJECTID":139396},"geometry":{"x":171162.54000000004,"y":2540359.5100000016}},{"attributes":{"ID":139397,"DIS_CODE":0,"TOWNNAME":"東區","LI":"崇德里","LIN":"6鄰","STREET":"崇德五街","SECT":" ","MAREA":" ","LANE":"２巷","ALLEY":"１１弄","HOUSE_NO":"１９號之２","E_COORD97":170711.57000000001,"N_COORD97":2541819.4500000002,"ADDRESS":"崇德五街２巷１１弄１９號之２","OBJECTID":139397},"geometry":{"x":170711.5700000003,"y":2541819.4499999993}},{"attributes":{"ID":139398,"DIS_CODE":0,"TOWNNAME":"東區","LI":"崇明里","LIN":"22鄰","STREET":"中華東路","SECT":"三段","MAREA":" ","LANE":"３９９巷","ALLEY":"２１弄","HOUSE_NO":"１０號七樓","E_COORD97":170142.35999999999,"N_COORD97":2541469.7400000002,"ADDRESS":"中華東路三段３９９巷２１弄１０號七樓","OBJECTID":139398},"geometry":{"x":170142.36000000127,"y":2541469.7399999984}},{"attributes":{"ID":139399,"DIS_CODE":0,"TOWNNAME":"將軍區","LI":"鯤鯓里","LIN":" ","STREET":" ","SECT":" ","MAREA":"鯤鯓","LANE":" ","ALLEY":" ","HOUSE_NO":"９９之４號","E_COORD97":156681.07000000001,"N_COORD97":2565577.52,"ADDRESS":"鯤鯓９９之４號","OBJECTID":139399},"geometry":{"x":156681.07000000123,"y":2565577.5200000014}},{"attributes":{"ID":139400,"DIS_CODE":0,"TOWNNAME":"安南區","LI":"溪心里","LIN":"4鄰","STREET":"安吉路","SECT":"二段","MAREA":" ","LANE":" ","ALLEY":" ","HOUSE_NO":"９３號","E_COORD97":167043.216744,"N_COORD97":2550837.2456399999,"ADDRESS":"安吉路二段９３號","OBJECTID":139400},"geometry":{"x":167043.21674400102,"y":2550837.2456420008}}]}