{"displayFieldName":"TOWNNAME","fieldAliases":{"ID":"ID","DIS_CODE":"DIS_CODE","TOWNNAME":"TOWNNAME","LI":"LI","LIN":"LIN","STREET":"STREET","SECT":"SECT","MAREA":"MAREA","LANE":"LANE","ALLEY":"ALLEY","HOUSE_NO":"HOUSE_NO","E_COORD97":"E_COORD97","N_COORD97":"N_COORD97","ADDRESS":"ADDRESS","OBJECTID":"OBJECTID"},"geometryType":"esriGeometryPoint","spatialReference":{"wkid":102443,"latestWkid":3826},"fields":[{"name":"ID","type":"esriFieldTypeDouble","alias":"ID"},{"name":"DIS_CODE","type":"esriFieldTypeInteger","alias":"DIS_CODE"},{"name":"TOWNNAME","type":"esriFieldTypeString","alias":"TOWNNAME","length":8},{"name":"LI","type":"esriFieldTypeString","alias":"LI","length":8},{"name":"LIN","type":"esriFieldTypeString","alias":"LIN","length":12},{"name":"STREET","type":"esriFieldTypeString","alias":"STREET","length":20},{"name":"SECT","type":"esriFieldTypeString","alias":"SECT","length":8},{"name":"MAREA","type":"esriFieldTypeString","alias":"MAREA","length":12},{"name":"LANE","type":"esriFieldTypeString","alias":"LANE","length":10},{"name":"ALLEY","type":"esriFieldTypeString","alias":"ALLEY","length":10},{"name":"HOUSE_NO","type":"esriFieldTypeString","alias":"HOUSE_NO","length":20},{"name":"E_COORD97","type":"esriFieldTypeDouble","alias":"E_COORD97"},{"name":"N_COORD97","type":"esriFieldTypeDouble","alias":"N_COORD97"},{"name":"ADDRESS","type":"esriFieldTypeString","alias":"ADDRESS","length":50},{"name":"OBJECTID","type":"esriFieldTypeOID","alias":"OBJECTID"}],"features":[{"attributes":{"ID":250205,"DIS_CODE":0,"TOWNNAME":"安平區","LI":"國平里","LIN":"14鄰","STREET":"健康路","SECT":"三段","MAREA":" ","LANE":" ","ALLEY":" ","HOUSE_NO":"１８０號之１７","E_COORD97":165566.73000000001,"N_COORD97":2542719.4100000001,"ADDRESS":"健康路三段１８０號之１７","OBJECTID":250201},"geometry":{"x":165566.73000000138,"y":2542719.4100000001}},{"attributes":{"ID":250206,"DIS_CODE":0,"TOWNNAME":"永康區","LI":"復國里","LIN":"5鄰","STREET":"復國二路","SECT":" ","MAREA":" ","LANE":"４０巷","ALLEY":" ","HOUSE_NO":"１０號","E_COORD97":172860.07999999999,"N_COORD97":2544977.5299999998,"ADDRESS":"復國二路４０巷１０號","OBJECTID":250202},"geometry":{"x":172860.08000000101,"y":2544977.5300000012}},{"attributes":{"ID":250207,"DIS_CODE":0,"TOWNNAME":"永康區","LI":"勝利里","LIN":"24鄰","STREET":"勝利街","SECT":" ","MAREA":" ","LANE":"１１６巷","ALLEY":" ","HOUSE_NO":"２９號","E_COORD97":171421.57999999999,"N_COORD97":2544865.7599999998,"ADDRESS":"勝利街１１６巷２９號","OBJECTID":250203},"geometry":{"x":171421.58000000007,"y":2544865.7599999998}},{"attributes":{"ID":250208,"DIS_CODE":0,"TOWNNAME":"永康區","LI":"崑山里","LIN":"47鄰","STREET":"國光五街","SECT":" ","MAREA":" ","LANE":"２２巷","ALLEY":" ","HOUSE_NO":"２６號","E_COORD97":174256.20999999999,"N_COORD97":2545174.5299999998,"ADDRESS":"國光五街２２巷２６號","OBJECTID":250204},"geometry":{"x":174256.20999999996,"y":2545174.5299999993}},{"attributes":{"ID":250209,"DIS_CODE":0,"TOWNNAME":"南區","LI":"再興里","LIN":"14鄰","STREET":"金華路","SECT":"二段","MAREA":" ","LANE":"１００巷","ALLEY":" ","HOUSE_NO":"３３號","E_COORD97":167189.45000000001,"N_COORD97":2542096.1800000002,"ADDRESS":"金華路二段１００巷３３號","OBJECTID":250205},"geometry":{"x":167189.45000000019,"y":2542096.1799999997}},{"attributes":{"ID":250210,"DIS_CODE":0,"TOWNNAME":"中西區","LI":"三民里","LIN":"14鄰","STREET":"民族路","SECT":"二段","MAREA":" ","LANE":"１７３巷","ALLEY":" ","HOUSE_NO":"６號二樓之７","E_COORD97":168659.42999999999,"N_COORD97":2543961.5299999998,"ADDRESS":"民族路二段１７３巷６號二樓之７","OBJECTID":250206},"geometry":{"x":168659.43000000156,"y":2543961.5299999993}},{"attributes":{"ID":250211,"DIS_CODE":0,"TOWNNAME":"中西區","LI":"三民里","LIN":"14鄰","STREET":"民族路","SECT":"二段","MAREA":" ","LANE":"１７３巷","ALLEY":" ","HOUSE_NO":"６號二樓之８","E_COORD97":168659.42999999999,"N_COORD97":2543961.5299999998,"ADDRESS":"民族路二段１７３巷６號二樓之８","OBJECTID":250207},"geometry":{"x":168659.43000000156,"y":2543961.5299999993}},{"attributes":{"ID":250212,"DIS_CODE":0,"TOWNNAME":"將軍區","LI":"仁和里","LIN":"11鄰","STREET":" ","SECT":" ","MAREA":"仁巷","LANE":" ","ALLEY":" ","HOUSE_NO":"１０６號","E_COORD97":163955.01999999999,"N_COORD97":2569084.71,"ADDRESS":"仁巷１０６號","OBJECTID":250208},"geometry":{"x":163955.02000000048,"y":2569084.7100000009}},{"attributes":{"ID":250213,"DIS_CODE":0,"TOWNNAME":"中西區","LI":"三民里","LIN":"14鄰","STREET":"民族路","SECT":"二段","MAREA":" ","LANE":"１７３巷","ALLEY":" ","HOUSE_NO":"６號二樓之９","E_COORD97":168659.42999999999,"N_COORD97":2543961.5299999998,"ADDRESS":"民族路二段１７３巷６號二樓之９","OBJECTID":250209},"geometry":{"x":168659.43000000156,"y":2543961.5299999993}},{"attributes":{"ID":250214,"DIS_CODE":0,"TOWNNAME":"安平區","LI":"國平里","LIN":"14鄰","STREET":"健康路","SECT":"三段","MAREA":" ","LANE":" ","ALLEY":" ","HOUSE_NO":"１８０號之１８","E_COORD97":165561.76000000001,"N_COORD97":2542720.3999999999,"ADDRESS":"健康路三段１８０號之１８","OBJECTID":250210},"geometry":{"x":165561.76000000164,"y":2542720.4000000022}},{"attributes":{"ID":250215,"DIS_CODE":0,"TOWNNAME":"安平區","LI":"國平里","LIN":"14鄰","STREET":"健康路","SECT":"三段","MAREA":" ","LANE":" ","ALLEY":" ","HOUSE_NO":"１８０號之１９","E_COORD97":165551.82999999999,"N_COORD97":2542721.79,"ADDRESS":"健康路三段１８０號之１９","OBJECTID":250211},"geometry":{"x":165551.83000000101,"y":2542721.7899999991}},{"attributes":{"ID":250216,"DIS_CODE":0,"TOWNNAME":"安平區","LI":"國平里","LIN":"14鄰","STREET":"健康路","SECT":"三段","MAREA":" ","LANE":" ","ALLEY":" ","HOUSE_NO":"１８０號之２","E_COORD97":165517.85999999999,"N_COORD97":2542722.3799999999,"ADDRESS":"健康路三段１８０號之２","OBJECTID":250212},"geometry":{"x":165517.86000000127,"y":2542722.3800000008}},{"attributes":{"ID":250217,"DIS_CODE":0,"TOWNNAME":"下營區","LI":"中營里","LIN":"11鄰","STREET":" ","SECT":" ","MAREA":"中營","LANE":" ","ALLEY":" ","HOUSE_NO":"１１１３號之１","E_COORD97":176003.85999999999,"N_COORD97":2568342.6800000002,"ADDRESS":"中營１１１３號之１","OBJECTID":250213},"geometry":{"x":176003.86000000034,"y":2568342.6800000016}},{"attributes":{"ID":250218,"DIS_CODE":0,"TOWNNAME":"下營區","LI":"後街里","LIN":"11鄰","STREET":"中正北路","SECT":" ","MAREA":" ","LANE":"４７巷","ALLEY":" ","HOUSE_NO":"１２號","E_COORD97":174457.16,"N_COORD97":2570651.7000000002,"ADDRESS":"中正北路４７巷１２號","OBJECTID":250214},"geometry":{"x":174457.16000000015,"y":2570651.7000000011}},{"attributes":{"ID":250219,"DIS_CODE":0,"TOWNNAME":"下營區","LI":"中營里","LIN":"11鄰","STREET":" ","SECT":" ","MAREA":"中營","LANE":" ","ALLEY":" ","HOUSE_NO":"１１１３號","E_COORD97":176008.79000000001,"N_COORD97":2568360.0499999998,"ADDRESS":"中營１１１３號","OBJECTID":250215},"geometry":{"x":176008.79000000004,"y":2568360.0500000007}},{"attributes":{"ID":250220,"DIS_CODE":0,"TOWNNAME":"下營區","LI":"中營里","LIN":"11鄰","STREET":" ","SECT":" ","MAREA":"中營","LANE":" ","ALLEY":" ","HOUSE_NO":"１１１５號之１","E_COORD97":176023.23000000001,"N_COORD97":2568354.29,"ADDRESS":"中營１１１５號之１","OBJECTID":250216},"geometry":{"x":176023.23000000045,"y":2568354.2900000028}},{"attributes":{"ID":250221,"DIS_CODE":0,"TOWNNAME":"下營區","LI":"中營里","LIN":"11鄰","STREET":" ","SECT":" ","MAREA":"中營","LANE":" ","ALLEY":" ","HOUSE_NO":"１１１５號","E_COORD97":176020.32000000001,"N_COORD97":2568350.8900000001,"ADDRESS":"中營１１１５號","OBJECTID":250217},"geometry":{"x":176020.32000000123,"y":2568350.8900000006}},{"attributes":{"ID":250222,"DIS_CODE":0,"TOWNNAME":"下營區","LI":"後街里","LIN":"11鄰","STREET":"中正北路","SECT":" ","MAREA":" ","LANE":"４７巷","ALLEY":" ","HOUSE_NO":"２號","E_COORD97":174478.29999999999,"N_COORD97":2570654.7000000002,"ADDRESS":"中正北路４７巷２號","OBJECTID":250218},"geometry":{"x":174478.30000000168,"y":2570654.7000000011}},{"attributes":{"ID":250223,"DIS_CODE":0,"TOWNNAME":"永康區","LI":"\u25A0洲里","LIN":"32鄰","STREET":"\u25A0行路","SECT":" ","MAREA":" ","LANE":"３３０巷","ALLEY":" ","HOUSE_NO":"１４號","E_COORD97":170999.69,"N_COORD97":2548986.3199999998,"ADDRESS":"\u25A0行路３３０巷１４號","OBJECTID":250219},"geometry":{"x":170999.69000000134,"y":2548986.3200000022}},{"attributes":{"ID":250224,"DIS_CODE":0,"TOWNNAME":"永康區","LI":"崑山里","LIN":"47鄰","STREET":"國光五街","SECT":" ","MAREA":" ","LANE":"２２巷","ALLEY":" ","HOUSE_NO":"１０號","E_COORD97":174234.67000000001,"N_COORD97":2545124.4500000002,"ADDRESS":"國光五街２２巷１０號","OBJECTID":250220},"geometry":{"x":174234.66999999993,"y":2545124.4499999993}},{"attributes":{"ID":250225,"DIS_CODE":0,"TOWNNAME":"下營區","LI":"中營里","LIN":"11鄰","STREET":" ","SECT":" ","MAREA":"中營","LANE":" ","ALLEY":" ","HOUSE_NO":"１１１７號","E_COORD97":176028.03,"N_COORD97":2568358.4300000002,"ADDRESS":"中營１１１７號","OBJECTID":250221},"geometry":{"x":176028.03000000026,"y":2568358.4300000016}},{"attributes":{"ID":250226,"DIS_CODE":0,"TOWNNAME":"永康區","LI":"\u25A0行里","LIN":"37鄰","STREET":"仁愛街","SECT":" ","MAREA":" ","LANE":"８４巷","ALLEY":" ","HOUSE_NO":"２號","E_COORD97":172058.35000000001,"N_COORD97":2549398.8999999999,"ADDRESS":"仁愛街８４巷２號","OBJECTID":250222},"geometry":{"x":172058.34999999963,"y":2549398.8999999985}},{"attributes":{"ID":250227,"DIS_CODE":0,"TOWNNAME":"安平區","LI":"國平里","LIN":"14鄰","STREET":"健康路","SECT":"三段","MAREA":" ","LANE":" ","ALLEY":" ","HOUSE_NO":"１８０號之２０","E_COORD97":165546.85999999999,"N_COORD97":2542722.5800000001,"ADDRESS":"健康路三段１８０號之２０","OBJECTID":250223},"geometry":{"x":165546.86000000127,"y":2542722.5800000019}},{"attributes":{"ID":250228,"DIS_CODE":0,"TOWNNAME":"安平區","LI":"國平里","LIN":"14鄰","STREET":"健康路","SECT":"三段","MAREA":" ","LANE":" ","ALLEY":" ","HOUSE_NO":"１８０號之６","E_COORD97":165536.14000000001,"N_COORD97":2542718.4199999999,"ADDRESS":"健康路三段１８０號之６","OBJECTID":250224},"geometry":{"x":165536.1400000006,"y":2542718.4199999999}},{"attributes":{"ID":250229,"DIS_CODE":0,"TOWNNAME":"安平區","LI":"國平里","LIN":"14鄰","STREET":"健康路","SECT":"三段","MAREA":" ","LANE":" ","ALLEY":" ","HOUSE_NO":"１８０號之２１","E_COORD97":165541.70000000001,"N_COORD97":2542723.3799999999,"ADDRESS":"健康路三段１８０號之２１","OBJECTID":250225},"geometry":{"x":165541.70000000019,"y":2542723.3800000008}},{"attributes":{"ID":250230,"DIS_CODE":0,"TOWNNAME":"安平區","LI":"國平里","LIN":"14鄰","STREET":"健康路","SECT":"三段","MAREA":" ","LANE":" ","ALLEY":" ","HOUSE_NO":"１８０號之２２","E_COORD97":165537.13,"N_COORD97":2542723.5699999998,"ADDRESS":"健康路三段１８０號之２２","OBJECTID":250226},"geometry":{"x":165537.12999999989,"y":2542723.5700000022}},{"attributes":{"ID":250231,"DIS_CODE":0,"TOWNNAME":"永康區","LI":"崑山里","LIN":"18鄰","STREET":"大仁街","SECT":" ","MAREA":" ","LANE":"１１巷","ALLEY":" ","HOUSE_NO":"２５號","E_COORD97":173697.60000000001,"N_COORD97":2544564.1400000001,"ADDRESS":"大仁街１１巷２５號","OBJECTID":250227},"geometry":{"x":173697.59999999963,"y":2544564.1400000025}},{"attributes":{"ID":250232,"DIS_CODE":0,"TOWNNAME":"下營區","LI":"開化里","LIN":"11鄰","STREET":" ","SECT":" ","MAREA":"中營","LANE":" ","ALLEY":" ","HOUSE_NO":"５８１號","E_COORD97":176097.72,"N_COORD97":2568335.5600000001,"ADDRESS":"中營５８１號","OBJECTID":250228},"geometry":{"x":176097.72000000067,"y":2568335.5600000005}},{"attributes":{"ID":250233,"DIS_CODE":0,"TOWNNAME":"永康區","LI":"崑山里","LIN":"25鄰","STREET":"大灣路","SECT":" ","MAREA":" ","LANE":"９４２巷","ALLEY":" ","HOUSE_NO":"１０２號","E_COORD97":173725.85000000001,"N_COORD97":2544753.25,"ADDRESS":"大灣路９４２巷１０２號","OBJECTID":250229},"geometry":{"x":173725.84999999963,"y":2544753.25}},{"attributes":{"ID":250234,"DIS_CODE":0,"TOWNNAME":"中西區","LI":"三民里","LIN":"14鄰","STREET":"民族路","SECT":"二段","MAREA":" ","LANE":"１７３巷","ALLEY":" ","HOUSE_NO":"６號三樓之１","E_COORD97":168659.42999999999,"N_COORD97":2543961.5299999998,"ADDRESS":"民族路二段１７３巷６號三樓之１","OBJECTID":250230},"geometry":{"x":168659.43000000156,"y":2543961.5299999993}},{"attributes":{"ID":250235,"DIS_CODE":0,"TOWNNAME":"下營區","LI":"開化里","LIN":"11鄰","STREET":" ","SECT":" ","MAREA":"中營","LANE":" ","ALLEY":" ","HOUSE_NO":"５８２號","E_COORD97":176100.79000000001,"N_COORD97":2568337.3799999999,"ADDRESS":"中營５８２號","OBJECTID":250231},"geometry":{"x":176100.7900000019,"y":2568337.3800000008}},{"attributes":{"ID":250236,"DIS_CODE":0,"TOWNNAME":"下營區","LI":"開化里","LIN":"11鄰","STREET":" ","SECT":" ","MAREA":"中營","LANE":" ","ALLEY":" ","HOUSE_NO":"５８３號","E_COORD97":176103.85999999999,"N_COORD97":2568339.1899999999,"ADDRESS":"中營５８３號","OBJECTID":250232},"geometry":{"x":176103.86000000034,"y":2568339.1900000013}},{"attributes":{"ID":250237,"DIS_CODE":0,"TOWNNAME":"安平區","LI":"國平里","LIN":"14鄰","STREET":"健康路","SECT":"三段","MAREA":" ","LANE":" ","ALLEY":" ","HOUSE_NO":"１８０號之２３","E_COORD97":165532.56,"N_COORD97":2542724.7599999998,"ADDRESS":"健康路三段１８０號之２３","OBJECTID":250233},"geometry":{"x":165532.56000000052,"y":2542724.7600000016}},{"attributes":{"ID":250238,"DIS_CODE":0,"TOWNNAME":"安平區","LI":"國平里","LIN":"14鄰","STREET":"健康路","SECT":"三段","MAREA":" ","LANE":" ","ALLEY":" ","HOUSE_NO":"１８０號之２４","E_COORD97":165527.59,"N_COORD97":2542725.1600000001,"ADDRESS":"健康路三段１８０號之２４","OBJECTID":250234},"geometry":{"x":165527.59000000078,"y":2542725.160000002}},{"attributes":{"ID":250239,"DIS_CODE":0,"TOWNNAME":"下營區","LI":"開化里","LIN":"11鄰","STREET":" ","SECT":" ","MAREA":"中營","LANE":" ","ALLEY":" ","HOUSE_NO":"５８４號","E_COORD97":176108.20999999999,"N_COORD97":2568341.1600000001,"ADDRESS":"中營５８４號","OBJECTID":250235},"geometry":{"x":176108.21000000089,"y":2568341.1600000001}},{"attributes":{"ID":250240,"DIS_CODE":0,"TOWNNAME":"官田區","LI":"南\u25A0里","LIN":"11鄰","STREET":" ","SECT":" ","MAREA":"三結義","LANE":" ","ALLEY":" ","HOUSE_NO":"５號","E_COORD97":179889.78,"N_COORD97":2568093.9300000002,"ADDRESS":"三結義５號","OBJECTID":250236},"geometry":{"x":179889.78000000212,"y":2568093.9300000016}},{"attributes":{"ID":250241,"DIS_CODE":0,"TOWNNAME":"永康區","LI":"崑山里","LIN":"34鄰","STREET":"大仁街","SECT":" ","MAREA":" ","LANE":"１２５巷","ALLEY":" ","HOUSE_NO":"３４號","E_COORD97":173779.12,"N_COORD97":2544883.1600000001,"ADDRESS":"大仁街１２５巷３４號","OBJECTID":250237},"geometry":{"x":173779.12000000011,"y":2544883.1600000001}},{"attributes":{"ID":250242,"DIS_CODE":0,"TOWNNAME":"永康區","LI":"神洲里","LIN":"7鄰","STREET":"忠孝路","SECT":" ","MAREA":" ","LANE":"５４巷","ALLEY":" ","HOUSE_NO":"５號","E_COORD97":172123.10000000001,"N_COORD97":2544765.5800000001,"ADDRESS":"忠孝路５４巷５號","OBJECTID":250238},"geometry":{"x":172123.10000000149,"y":2544765.5800000001}},{"attributes":{"ID":250243,"DIS_CODE":0,"TOWNNAME":"官田區","LI":"南\u25A0里","LIN":"11鄰","STREET":" ","SECT":" ","MAREA":"三結義","LANE":" ","ALLEY":" ","HOUSE_NO":"６號之１","E_COORD97":179833.85999999999,"N_COORD97":2567938.6299999999,"ADDRESS":"三結義６號之１","OBJECTID":250239},"geometry":{"x":179833.86000000127,"y":2567938.6300000008}},{"attributes":{"ID":250244,"DIS_CODE":0,"TOWNNAME":"官田區","LI":"南\u25A0里","LIN":"11鄰","STREET":" ","SECT":" ","MAREA":"三結義","LANE":" ","ALLEY":" ","HOUSE_NO":"６號之２","E_COORD97":179915.59,"N_COORD97":2568051.6299999999,"ADDRESS":"三結義６號之２","OBJECTID":250240},"geometry":{"x":179915.58999999985,"y":2568051.629999999}},{"attributes":{"ID":250245,"DIS_CODE":0,"TOWNNAME":"中西區","LI":"三民里","LIN":"14鄰","STREET":"民族路","SECT":"二段","MAREA":" ","LANE":"１７３巷","ALLEY":" ","HOUSE_NO":"６號三樓之１０","E_COORD97":168659.42999999999,"N_COORD97":2543961.5299999998,"ADDRESS":"民族路二段１７３巷６號三樓之１０","OBJECTID":250241},"geometry":{"x":168659.43000000156,"y":2543961.5299999993}},{"attributes":{"ID":250246,"DIS_CODE":0,"TOWNNAME":"中西區","LI":"三民里","LIN":"14鄰","STREET":"民族路","SECT":"二段","MAREA":" ","LANE":"１７３巷","ALLEY":" ","HOUSE_NO":"６號三樓之１１","E_COORD97":168659.42999999999,"N_COORD97":2543961.5299999998,"ADDRESS":"民族路二段１７３巷６號三樓之１１","OBJECTID":250242},"geometry":{"x":168659.43000000156,"y":2543961.5299999993}},{"attributes":{"ID":250247,"DIS_CODE":0,"TOWNNAME":"官田區","LI":"南\u25A0里","LIN":"11鄰","STREET":" ","SECT":" ","MAREA":"三結義","LANE":" ","ALLEY":" ","HOUSE_NO":"６號之３","E_COORD97":179801.64999999999,"N_COORD97":2567967.73,"ADDRESS":"三結義６號之３","OBJECTID":250243},"geometry":{"x":179801.6500000013,"y":2567967.7300000004}},{"attributes":{"ID":250248,"DIS_CODE":0,"TOWNNAME":"官田區","LI":"南\u25A0里","LIN":"11鄰","STREET":" ","SECT":" ","MAREA":"三結義","LANE":" ","ALLEY":" ","HOUSE_NO":"６號","E_COORD97":179895.59,"N_COORD97":2568055.27,"ADDRESS":"三結義６號","OBJECTID":250244},"geometry":{"x":179895.58999999985,"y":2568055.2699999996}},{"attributes":{"ID":250249,"DIS_CODE":0,"TOWNNAME":"中西區","LI":"三民里","LIN":"14鄰","STREET":"民族路","SECT":"二段","MAREA":" ","LANE":"１７３巷","ALLEY":" ","HOUSE_NO":"６號三樓之１２","E_COORD97":168659.42999999999,"N_COORD97":2543961.5299999998,"ADDRESS":"民族路二段１７３巷６號三樓之１２","OBJECTID":250245},"geometry":{"x":168659.43000000156,"y":2543961.5299999993}},{"attributes":{"ID":250250,"DIS_CODE":0,"TOWNNAME":"中西區","LI":"三民里","LIN":"14鄰","STREET":"民族路","SECT":"二段","MAREA":" ","LANE":"１７３巷","ALLEY":" ","HOUSE_NO":"６號三樓之２","E_COORD97":168659.42999999999,"N_COORD97":2543961.5299999998,"ADDRESS":"民族路二段１７３巷６號三樓之２","OBJECTID":250246},"geometry":{"x":168659.43000000156,"y":2543961.5299999993}},{"attributes":{"ID":250251,"DIS_CODE":0,"TOWNNAME":"中西區","LI":"三民里","LIN":"14鄰","STREET":"民族路","SECT":"二段","MAREA":" ","LANE":"１７３巷","ALLEY":" ","HOUSE_NO":"６號三樓之３","E_COORD97":168659.42999999999,"N_COORD97":2543961.5299999998,"ADDRESS":"民族路二段１７３巷６號三樓之３","OBJECTID":250247},"geometry":{"x":168659.43000000156,"y":2543961.5299999993}},{"attributes":{"ID":250252,"DIS_CODE":0,"TOWNNAME":"中西區","LI":"三民里","LIN":"14鄰","STREET":"民族路","SECT":"二段","MAREA":" ","LANE":"１７３巷","ALLEY":" ","HOUSE_NO":"６號三樓之４","E_COORD97":168659.42999999999,"N_COORD97":2543961.5299999998,"ADDRESS":"民族路二段１７３巷６號三樓之４","OBJECTID":250248},"geometry":{"x":168659.43000000156,"y":2543961.5299999993}},{"attributes":{"ID":250253,"DIS_CODE":0,"TOWNNAME":"中西區","LI":"三民里","LIN":"14鄰","STREET":"民族路","SECT":"二段","MAREA":" ","LANE":"１７３巷","ALLEY":" ","HOUSE_NO":"６號三樓之５","E_COORD97":168659.42999999999,"N_COORD97":2543961.5299999998,"ADDRESS":"民族路二段１７３巷６號三樓之５","OBJECTID":250249},"geometry":{"x":168659.43000000156,"y":2543961.5299999993}},{"attributes":{"ID":250254,"DIS_CODE":0,"TOWNNAME":"中西區","LI":"三民里","LIN":"14鄰","STREET":"民族路","SECT":"二段","MAREA":" ","LANE":"１７３巷","ALLEY":" ","HOUSE_NO":"６號三樓之６","E_COORD97":168659.42999999999,"N_COORD97":2543961.5299999998,"ADDRESS":"民族路二段１７３巷６號三樓之６","OBJECTID":250250},"geometry":{"x":168659.43000000156,"y":2543961.5299999993}},{"attributes":{"ID":250255,"DIS_CODE":0,"TOWNNAME":"中西區","LI":"三民里","LIN":"14鄰","STREET":"民族路","SECT":"二段","MAREA":" ","LANE":"１７３巷","ALLEY":" ","HOUSE_NO":"６號三樓之７","E_COORD97":168659.42999999999,"N_COORD97":2543961.5299999998,"ADDRESS":"民族路二段１７３巷６號三樓之７","OBJECTID":250251},"geometry":{"x":168659.43000000156,"y":2543961.5299999993}},{"attributes":{"ID":250256,"DIS_CODE":0,"TOWNNAME":"中西區","LI":"三民里","LIN":"14鄰","STREET":"民族路","SECT":"二段","MAREA":" ","LANE":"１７３巷","ALLEY":" ","HOUSE_NO":"６號三樓之８","E_COORD97":168659.42999999999,"N_COORD97":2543961.5299999998,"ADDRESS":"民族路二段１７３巷６號三樓之８","OBJECTID":250252},"geometry":{"x":168659.43000000156,"y":2543961.5299999993}},{"attributes":{"ID":250257,"DIS_CODE":0,"TOWNNAME":"中西區","LI":"三民里","LIN":"14鄰","STREET":"民族路","SECT":"二段","MAREA":" ","LANE":"１７３巷","ALLEY":" ","HOUSE_NO":"６號三樓之９","E_COORD97":168659.42999999999,"N_COORD97":2543961.5299999998,"ADDRESS":"民族路二段１７３巷６號三樓之９","OBJECTID":250253},"geometry":{"x":168659.43000000156,"y":2543961.5299999993}},{"attributes":{"ID":250258,"DIS_CODE":0,"TOWNNAME":"安平區","LI":"國平里","LIN":"14鄰","STREET":"健康路","SECT":"三段","MAREA":" ","LANE":" ","ALLEY":" ","HOUSE_NO":"１８０號之２５","E_COORD97":165524.22,"N_COORD97":2542726.3500000001,"ADDRESS":"健康路三段１８０號之２５","OBJECTID":250254},"geometry":{"x":165524.21999999974,"y":2542726.3500000034}},{"attributes":{"ID":250259,"DIS_CODE":0,"TOWNNAME":"安平區","LI":"國平里","LIN":"14鄰","STREET":"健康路","SECT":"三段","MAREA":" ","LANE":" ","ALLEY":" ","HOUSE_NO":"１８０號之２６","E_COORD97":165518.85000000001,"N_COORD97":2542727.7400000002,"ADDRESS":"健康路三段１８０號之２６","OBJECTID":250255},"geometry":{"x":165518.85000000056,"y":2542727.7400000039}},{"attributes":{"ID":250260,"DIS_CODE":0,"TOWNNAME":"中西區","LI":"三民里","LIN":"14鄰","STREET":"民族路","SECT":"二段","MAREA":" ","LANE":"１７３巷","ALLEY":" ","HOUSE_NO":"６號五樓之１","E_COORD97":168659.42999999999,"N_COORD97":2543961.5299999998,"ADDRESS":"民族路二段１７３巷６號五樓之１","OBJECTID":250256},"geometry":{"x":168659.43000000156,"y":2543961.5299999993}},{"attributes":{"ID":250261,"DIS_CODE":0,"TOWNNAME":"中西區","LI":"三民里","LIN":"14鄰","STREET":"民族路","SECT":"二段","MAREA":" ","LANE":"１７３巷","ALLEY":" ","HOUSE_NO":"６號五樓之１０","E_COORD97":168659.42999999999,"N_COORD97":2543961.5299999998,"ADDRESS":"民族路二段１７３巷６號五樓之１０","OBJECTID":250257},"geometry":{"x":168659.43000000156,"y":2543961.5299999993}},{"attributes":{"ID":250262,"DIS_CODE":0,"TOWNNAME":"中西區","LI":"三民里","LIN":"14鄰","STREET":"民族路","SECT":"二段","MAREA":" ","LANE":"１７３巷","ALLEY":" ","HOUSE_NO":"６號五樓之１１","E_COORD97":168659.42999999999,"N_COORD97":2543961.5299999998,"ADDRESS":"民族路二段１７３巷６號五樓之１１","OBJECTID":250258},"geometry":{"x":168659.43000000156,"y":2543961.5299999993}},{"attributes":{"ID":250263,"DIS_CODE":0,"TOWNNAME":"中西區","LI":"三民里","LIN":"14鄰","STREET":"民族路","SECT":"二段","MAREA":" ","LANE":"１７３巷","ALLEY":" ","HOUSE_NO":"６號五樓之１２","E_COORD97":168659.42999999999,"N_COORD97":2543961.5299999998,"ADDRESS":"民族路二段１７３巷６號五樓之１２","OBJECTID":250259},"geometry":{"x":168659.43000000156,"y":2543961.5299999993}},{"attributes":{"ID":250264,"DIS_CODE":0,"TOWNNAME":"中西區","LI":"三民里","LIN":"14鄰","STREET":"民族路","SECT":"二段","MAREA":" ","LANE":"１７３巷","ALLEY":" ","HOUSE_NO":"６號五樓之２","E_COORD97":168659.42999999999,"N_COORD97":2543961.5299999998,"ADDRESS":"民族路二段１７３巷６號五樓之２","OBJECTID":250260},"geometry":{"x":168659.43000000156,"y":2543961.5299999993}},{"attributes":{"ID":250265,"DIS_CODE":0,"TOWNNAME":"中西區","LI":"三民里","LIN":"14鄰","STREET":"民族路","SECT":"二段","MAREA":" ","LANE":"１７３巷","ALLEY":" ","HOUSE_NO":"６號五樓之３","E_COORD97":168659.42999999999,"N_COORD97":2543961.5299999998,"ADDRESS":"民族路二段１７３巷６號五樓之３","OBJECTID":250261},"geometry":{"x":168659.43000000156,"y":2543961.5299999993}},{"attributes":{"ID":250266,"DIS_CODE":0,"TOWNNAME":"中西區","LI":"三民里","LIN":"14鄰","STREET":"民族路","SECT":"二段","MAREA":" ","LANE":"１７３巷","ALLEY":" ","HOUSE_NO":"６號五樓之４","E_COORD97":168659.42999999999,"N_COORD97":2543961.5299999998,"ADDRESS":"民族路二段１７３巷６號五樓之４","OBJECTID":250262},"geometry":{"x":168659.43000000156,"y":2543961.5299999993}},{"attributes":{"ID":250267,"DIS_CODE":0,"TOWNNAME":"中西區","LI":"三民里","LIN":"14鄰","STREET":"民族路","SECT":"二段","MAREA":" ","LANE":"１７３巷","ALLEY":" ","HOUSE_NO":"６號五樓之５","E_COORD97":168659.42999999999,"N_COORD97":2543961.5299999998,"ADDRESS":"民族路二段１７３巷６號五樓之５","OBJECTID":250263},"geometry":{"x":168659.43000000156,"y":2543961.5299999993}},{"attributes":{"ID":250268,"DIS_CODE":0,"TOWNNAME":"中西區","LI":"三民里","LIN":"14鄰","STREET":"民族路","SECT":"二段","MAREA":" ","LANE":"１７３巷","ALLEY":" ","HOUSE_NO":"６號五樓之６","E_COORD97":168659.42999999999,"N_COORD97":2543961.5299999998,"ADDRESS":"民族路二段１７３巷６號五樓之６","OBJECTID":250264},"geometry":{"x":168659.43000000156,"y":2543961.5299999993}},{"attributes":{"ID":250269,"DIS_CODE":0,"TOWNNAME":"中西區","LI":"三民里","LIN":"14鄰","STREET":"民族路","SECT":"二段","MAREA":" ","LANE":"１７３巷","ALLEY":" ","HOUSE_NO":"６號五樓之７","E_COORD97":168659.42999999999,"N_COORD97":2543961.5299999998,"ADDRESS":"民族路二段１７３巷６號五樓之７","OBJECTID":250265},"geometry":{"x":168659.43000000156,"y":2543961.5299999993}},{"attributes":{"ID":250270,"DIS_CODE":0,"TOWNNAME":"中西區","LI":"三民里","LIN":"14鄰","STREET":"民族路","SECT":"二段","MAREA":" ","LANE":"１７３巷","ALLEY":" ","HOUSE_NO":"６號五樓之８","E_COORD97":168659.42999999999,"N_COORD97":2543961.5299999998,"ADDRESS":"民族路二段１７３巷６號五樓之８","OBJECTID":250266},"geometry":{"x":168659.43000000156,"y":2543961.5299999993}},{"attributes":{"ID":250271,"DIS_CODE":0,"TOWNNAME":"中西區","LI":"三民里","LIN":"14鄰","STREET":"民族路","SECT":"二段","MAREA":" ","LANE":"１７３巷","ALLEY":" ","HOUSE_NO":"６號五樓之９","E_COORD97":168659.42999999999,"N_COORD97":2543961.5299999998,"ADDRESS":"民族路二段１７３巷６號五樓之９","OBJECTID":250267},"geometry":{"x":168659.43000000156,"y":2543961.5299999993}},{"attributes":{"ID":250272,"DIS_CODE":0,"TOWNNAME":"中西區","LI":"三民里","LIN":"14鄰","STREET":"民族路","SECT":"二段","MAREA":" ","LANE":"１７３巷","ALLEY":" ","HOUSE_NO":"６號四樓之１","E_COORD97":168659.42999999999,"N_COORD97":2543961.5299999998,"ADDRESS":"民族路二段１７３巷６號四樓之１","OBJECTID":250268},"geometry":{"x":168659.43000000156,"y":2543961.5299999993}},{"attributes":{"ID":250273,"DIS_CODE":0,"TOWNNAME":"南區","LI":"白雪里","LIN":"19鄰","STREET":"鹽埕路","SECT":" ","MAREA":" ","LANE":"１６０巷","ALLEY":" ","HOUSE_NO":"５１號","E_COORD97":166944.57999999999,"N_COORD97":2541059.7400000002,"ADDRESS":"鹽埕路１６０巷５１號","OBJECTID":250269},"geometry":{"x":166944.58000000007,"y":2541059.7400000039}},{"attributes":{"ID":250274,"DIS_CODE":0,"TOWNNAME":"南區","LI":"白雪里","LIN":"19鄰","STREET":"鹽埕路","SECT":" ","MAREA":" ","LANE":"１６０巷","ALLEY":" ","HOUSE_NO":"５３號","E_COORD97":166941.37,"N_COORD97":2541060.6800000002,"ADDRESS":"鹽埕路１６０巷５３號","OBJECTID":250270},"geometry":{"x":166941.37000000104,"y":2541060.6800000016}},{"attributes":{"ID":250275,"DIS_CODE":0,"TOWNNAME":"中西區","LI":"三民里","LIN":"14鄰","STREET":"民族路","SECT":"二段","MAREA":" ","LANE":"１７３巷","ALLEY":" ","HOUSE_NO":"６號四樓之１０","E_COORD97":168659.42999999999,"N_COORD97":2543961.5299999998,"ADDRESS":"民族路二段１７３巷６號四樓之１０","OBJECTID":250271},"geometry":{"x":168659.43000000156,"y":2543961.5299999993}},{"attributes":{"ID":250276,"DIS_CODE":0,"TOWNNAME":"中西區","LI":"三民里","LIN":"14鄰","STREET":"民族路","SECT":"二段","MAREA":" ","LANE":"１７３巷","ALLEY":" ","HOUSE_NO":"６號四樓之１１","E_COORD97":168659.42999999999,"N_COORD97":2543961.5299999998,"ADDRESS":"民族路二段１７３巷６號四樓之１１","OBJECTID":250272},"geometry":{"x":168659.43000000156,"y":2543961.5299999993}},{"attributes":{"ID":250277,"DIS_CODE":0,"TOWNNAME":"中西區","LI":"三民里","LIN":"14鄰","STREET":"民族路","SECT":"二段","MAREA":" ","LANE":"１７３巷","ALLEY":" ","HOUSE_NO":"６號四樓之２","E_COORD97":168659.42999999999,"N_COORD97":2543961.5299999998,"ADDRESS":"民族路二段１７３巷６號四樓之２","OBJECTID":250273},"geometry":{"x":168659.43000000156,"y":2543961.5299999993}},{"attributes":{"ID":250278,"DIS_CODE":0,"TOWNNAME":"中西區","LI":"三民里","LIN":"14鄰","STREET":"民族路","SECT":"二段","MAREA":" ","LANE":"１７３巷","ALLEY":" ","HOUSE_NO":"６號四樓之３","E_COORD97":168659.42999999999,"N_COORD97":2543961.5299999998,"ADDRESS":"民族路二段１７３巷６號四樓之３","OBJECTID":250274},"geometry":{"x":168659.43000000156,"y":2543961.5299999993}},{"attributes":{"ID":250279,"DIS_CODE":0,"TOWNNAME":"中西區","LI":"三民里","LIN":"14鄰","STREET":"民族路","SECT":"二段","MAREA":" ","LANE":"１７３巷","ALLEY":" ","HOUSE_NO":"６號四樓之４","E_COORD97":168659.42999999999,"N_COORD97":2543961.5299999998,"ADDRESS":"民族路二段１７３巷６號四樓之４","OBJECTID":250275},"geometry":{"x":168659.43000000156,"y":2543961.5299999993}},{"attributes":{"ID":250280,"DIS_CODE":0,"TOWNNAME":"中西區","LI":"三民里","LIN":"14鄰","STREET":"民族路","SECT":"二段","MAREA":" ","LANE":"１７３巷","ALLEY":" ","HOUSE_NO":"６號四樓之５","E_COORD97":168659.42999999999,"N_COORD97":2543961.5299999998,"ADDRESS":"民族路二段１７３巷６號四樓之５","OBJECTID":250276},"geometry":{"x":168659.43000000156,"y":2543961.5299999993}},{"attributes":{"ID":250281,"DIS_CODE":0,"TOWNNAME":"中西區","LI":"三民里","LIN":"14鄰","STREET":"民族路","SECT":"二段","MAREA":" ","LANE":"１７３巷","ALLEY":" ","HOUSE_NO":"６號四樓之６","E_COORD97":168659.42999999999,"N_COORD97":2543961.5299999998,"ADDRESS":"民族路二段１７３巷６號四樓之６","OBJECTID":250277},"geometry":{"x":168659.43000000156,"y":2543961.5299999993}},{"attributes":{"ID":250282,"DIS_CODE":0,"TOWNNAME":"永康區","LI":"永康里","LIN":"11鄰","STREET":"中山南路","SECT":" ","MAREA":" ","LANE":"１０５４巷","ALLEY":" ","HOUSE_NO":"５３號","E_COORD97":173740.13,"N_COORD97":2547107.8799999999,"ADDRESS":"中山南路１０５４巷５３號","OBJECTID":250278},"geometry":{"x":173740.12999999989,"y":2547107.879999999}},{"attributes":{"ID":250283,"DIS_CODE":0,"TOWNNAME":"永康區","LI":"永康里","LIN":"11鄰","STREET":"中山南路","SECT":" ","MAREA":" ","LANE":"１０５４巷","ALLEY":" ","HOUSE_NO":"４０號","E_COORD97":173725.57999999999,"N_COORD97":2547134.21,"ADDRESS":"中山南路１０５４巷４０號","OBJECTID":250279},"geometry":{"x":173725.58000000194,"y":2547134.2100000028}},{"attributes":{"ID":250284,"DIS_CODE":0,"TOWNNAME":"中西區","LI":"三民里","LIN":"14鄰","STREET":"民族路","SECT":"二段","MAREA":" ","LANE":"１７３巷","ALLEY":" ","HOUSE_NO":"６號四樓之７","E_COORD97":168659.42999999999,"N_COORD97":2543961.5299999998,"ADDRESS":"民族路二段１７３巷６號四樓之７","OBJECTID":250280},"geometry":{"x":168659.43000000156,"y":2543961.5299999993}},{"attributes":{"ID":250285,"DIS_CODE":0,"TOWNNAME":"中西區","LI":"三民里","LIN":"14鄰","STREET":"民族路","SECT":"二段","MAREA":" ","LANE":"１７３巷","ALLEY":" ","HOUSE_NO":"６號四樓之８","E_COORD97":168659.42999999999,"N_COORD97":2543961.5299999998,"ADDRESS":"民族路二段１７３巷６號四樓之８","OBJECTID":250281},"geometry":{"x":168659.43000000156,"y":2543961.5299999993}},{"attributes":{"ID":250286,"DIS_CODE":0,"TOWNNAME":"中西區","LI":"三民里","LIN":"14鄰","STREET":"民族路","SECT":"二段","MAREA":" ","LANE":"１７３巷","ALLEY":" ","HOUSE_NO":"６號四樓之９","E_COORD97":168659.42999999999,"N_COORD97":2543961.5299999998,"ADDRESS":"民族路二段１７３巷６號四樓之９","OBJECTID":250282},"geometry":{"x":168659.43000000156,"y":2543961.5299999993}},{"attributes":{"ID":250287,"DIS_CODE":0,"TOWNNAME":"中西區","LI":"五妃里","LIN":"14鄰","STREET":"南門路","SECT":" ","MAREA":" ","LANE":"２０９巷","ALLEY":" ","HOUSE_NO":"１３號三樓","E_COORD97":168474.70999999999,"N_COORD97":2542842.5,"ADDRESS":"南門路２０９巷１３號三樓","OBJECTID":250283},"geometry":{"x":168474.71000000183,"y":2542842.5000000019}},{"attributes":{"ID":250288,"DIS_CODE":0,"TOWNNAME":"中西區","LI":"五妃里","LIN":"14鄰","STREET":"南門路","SECT":" ","MAREA":" ","LANE":"２０９巷","ALLEY":" ","HOUSE_NO":"１３號五樓","E_COORD97":168474.70999999999,"N_COORD97":2542842.5,"ADDRESS":"南門路２０９巷１３號五樓","OBJECTID":250284},"geometry":{"x":168474.71000000183,"y":2542842.5000000019}},{"attributes":{"ID":250289,"DIS_CODE":0,"TOWNNAME":"中西區","LI":"五妃里","LIN":"14鄰","STREET":"南門路","SECT":" ","MAREA":" ","LANE":"２０９巷","ALLEY":" ","HOUSE_NO":"１３號四樓","E_COORD97":168474.70999999999,"N_COORD97":2542842.5,"ADDRESS":"南門路２０９巷１３號四樓","OBJECTID":250285},"geometry":{"x":168474.71000000183,"y":2542842.5000000019}},{"attributes":{"ID":250290,"DIS_CODE":0,"TOWNNAME":"中西區","LI":"五妃里","LIN":"14鄰","STREET":"南門路","SECT":" ","MAREA":" ","LANE":"２０９巷","ALLEY":" ","HOUSE_NO":"９號二樓","E_COORD97":168456.20000000001,"N_COORD97":2542849.8999999999,"ADDRESS":"南門路２０９巷９號二樓","OBJECTID":250286},"geometry":{"x":168456.20000000205,"y":2542849.9000000022}},{"attributes":{"ID":250291,"DIS_CODE":0,"TOWNNAME":"中西區","LI":"五妃里","LIN":"14鄰","STREET":"南門路","SECT":" ","MAREA":" ","LANE":"２０９巷","ALLEY":" ","HOUSE_NO":"９號三樓","E_COORD97":168456.20000000001,"N_COORD97":2542849.8999999999,"ADDRESS":"南門路２０９巷９號三樓","OBJECTID":250287},"geometry":{"x":168456.20000000205,"y":2542849.9000000022}},{"attributes":{"ID":250292,"DIS_CODE":0,"TOWNNAME":"中西區","LI":"五妃里","LIN":"14鄰","STREET":"南門路","SECT":" ","MAREA":" ","LANE":"２０９巷","ALLEY":" ","HOUSE_NO":"９號三樓之１","E_COORD97":168456.20000000001,"N_COORD97":2542849.8999999999,"ADDRESS":"南門路２０９巷９號三樓之１","OBJECTID":250288},"geometry":{"x":168456.20000000205,"y":2542849.9000000022}},{"attributes":{"ID":250293,"DIS_CODE":0,"TOWNNAME":"中西區","LI":"五妃里","LIN":"14鄰","STREET":"南門路","SECT":" ","MAREA":" ","LANE":"２０９巷","ALLEY":" ","HOUSE_NO":"９號五樓之１","E_COORD97":168456.20000000001,"N_COORD97":2542849.8999999999,"ADDRESS":"南門路２０９巷９號五樓之１","OBJECTID":250289},"geometry":{"x":168456.20000000205,"y":2542849.9000000022}},{"attributes":{"ID":250294,"DIS_CODE":0,"TOWNNAME":"中西區","LI":"五妃里","LIN":"14鄰","STREET":"南門路","SECT":" ","MAREA":" ","LANE":"２０９巷","ALLEY":" ","HOUSE_NO":"９號五樓之２","E_COORD97":168456.20000000001,"N_COORD97":2542849.8999999999,"ADDRESS":"南門路２０９巷９號五樓之２","OBJECTID":250290},"geometry":{"x":168456.20000000205,"y":2542849.9000000022}},{"attributes":{"ID":250295,"DIS_CODE":0,"TOWNNAME":"安平區","LI":"國平里","LIN":"14鄰","STREET":"健康路","SECT":"三段","MAREA":" ","LANE":" ","ALLEY":" ","HOUSE_NO":"１８０號之２７","E_COORD97":165514.48000000001,"N_COORD97":2542728.3399999999,"ADDRESS":"健康路三段１８０號之２７","OBJECTID":250291},"geometry":{"x":165514.48000000045,"y":2542728.3400000017}},{"attributes":{"ID":250296,"DIS_CODE":0,"TOWNNAME":"安平區","LI":"國平里","LIN":"14鄰","STREET":"健康路","SECT":"三段","MAREA":" ","LANE":" ","ALLEY":" ","HOUSE_NO":"１８０號之２８","E_COORD97":165502.57000000001,"N_COORD97":2542728.3399999999,"ADDRESS":"健康路三段１８０號之２８","OBJECTID":250292},"geometry":{"x":165502.57000000216,"y":2542728.3400000017}},{"attributes":{"ID":250297,"DIS_CODE":0,"TOWNNAME":"安南區","LI":"新順里","LIN":"11鄰","STREET":"育安四街","SECT":" ","MAREA":" ","LANE":"８７巷","ALLEY":" ","HOUSE_NO":"４２號","E_COORD97":169657.89999999999,"N_COORD97":2549702.5600000001,"ADDRESS":"育安四街８７巷４２號","OBJECTID":250293},"geometry":{"x":169657.90000000037,"y":2549702.5600000005}},{"attributes":{"ID":250298,"DIS_CODE":0,"TOWNNAME":"安南區","LI":"新順里","LIN":"11鄰","STREET":"育安二街","SECT":" ","MAREA":" ","LANE":"９巷","ALLEY":" ","HOUSE_NO":"１號","E_COORD97":169682.51000000001,"N_COORD97":2549739.5499999998,"ADDRESS":"育安二街９巷１號","OBJECTID":250294},"geometry":{"x":169682.50999999978,"y":2549739.5500000007}},{"attributes":{"ID":250299,"DIS_CODE":0,"TOWNNAME":"中西區","LI":"五妃里","LIN":"14鄰","STREET":"南門路","SECT":" ","MAREA":" ","LANE":"２０９巷","ALLEY":" ","HOUSE_NO":"９號四樓之１","E_COORD97":168456.20000000001,"N_COORD97":2542849.8999999999,"ADDRESS":"南門路２０９巷９號四樓之１","OBJECTID":250295},"geometry":{"x":168456.20000000205,"y":2542849.9000000022}},{"attributes":{"ID":250300,"DIS_CODE":0,"TOWNNAME":"中西區","LI":"五妃里","LIN":"14鄰","STREET":"南門路","SECT":" ","MAREA":" ","LANE":"２０９巷","ALLEY":" ","HOUSE_NO":"９號四樓之２","E_COORD97":168456.20000000001,"N_COORD97":2542849.8999999999,"ADDRESS":"南門路２０９巷９號四樓之２","OBJECTID":250296},"geometry":{"x":168456.20000000205,"y":2542849.9000000022}},{"attributes":{"ID":250301,"DIS_CODE":0,"TOWNNAME":"中西區","LI":"仙草里","LIN":"14鄰","STREET":"西門路","SECT":"一段","MAREA":" ","LANE":"４８２巷","ALLEY":" ","HOUSE_NO":"１７號一樓","E_COORD97":167806.85999999999,"N_COORD97":2542680.4900000002,"ADDRESS":"西門路一段４８２巷１７號一樓","OBJECTID":250297},"geometry":{"x":167806.86000000127,"y":2542680.4900000002}},{"attributes":{"ID":250302,"DIS_CODE":0,"TOWNNAME":"中西區","LI":"仙草里","LIN":"14鄰","STREET":"西門路","SECT":"一段","MAREA":" ","LANE":"４８２巷","ALLEY":" ","HOUSE_NO":"１７號二樓","E_COORD97":167806.85999999999,"N_COORD97":2542680.4900000002,"ADDRESS":"西門路一段４８２巷１７號二樓","OBJECTID":250298},"geometry":{"x":167806.86000000127,"y":2542680.4900000002}},{"attributes":{"ID":250303,"DIS_CODE":0,"TOWNNAME":"中西區","LI":"仙草里","LIN":"14鄰","STREET":"西門路","SECT":"一段","MAREA":" ","LANE":"４８２巷","ALLEY":" ","HOUSE_NO":"１７號三樓","E_COORD97":167806.85999999999,"N_COORD97":2542680.4900000002,"ADDRESS":"西門路一段４８２巷１７號三樓","OBJECTID":250299},"geometry":{"x":167806.86000000127,"y":2542680.4900000002}},{"attributes":{"ID":250304,"DIS_CODE":0,"TOWNNAME":"新化區","LI":"武安里","LIN":"14鄰","STREET":"健康路","SECT":" ","MAREA":" ","LANE":"１０１巷","ALLEY":" ","HOUSE_NO":"５號三樓之５","E_COORD97":178772.19,"N_COORD97":2548139.2599999998,"ADDRESS":"健康路１０１巷５號三樓之５","OBJECTID":250300},"geometry":{"x":178772.19000000134,"y":2548139.2600000016}},{"attributes":{"ID":250305,"DIS_CODE":0,"TOWNNAME":"新化區","LI":"武安里","LIN":"14鄰","STREET":"健康路","SECT":" ","MAREA":" ","LANE":"１０１巷","ALLEY":" ","HOUSE_NO":"５號二樓之３","E_COORD97":178772.17999999999,"N_COORD97":2548139.2599999998,"ADDRESS":"健康路１０１巷５號二樓之３","OBJECTID":250301},"geometry":{"x":178772.1799999997,"y":2548139.2600000016}},{"attributes":{"ID":250306,"DIS_CODE":0,"TOWNNAME":"新化區","LI":"武安里","LIN":"14鄰","STREET":"健康路","SECT":" ","MAREA":" ","LANE":"１０１巷","ALLEY":" ","HOUSE_NO":"５號六樓之５","E_COORD97":178772.19,"N_COORD97":2548139.2599999998,"ADDRESS":"健康路１０１巷５號六樓之５","OBJECTID":250302},"geometry":{"x":178772.19000000134,"y":2548139.2600000016}},{"attributes":{"ID":250307,"DIS_CODE":0,"TOWNNAME":"東區","LI":"東安里","LIN":"14鄰","STREET":"長榮路","SECT":"二段","MAREA":" ","LANE":"３２巷","ALLEY":" ","HOUSE_NO":"２２５號五樓之１","E_COORD97":170221.92999999999,"N_COORD97":2543121.3100000001,"ADDRESS":"長榮路二段３２巷２２５號五樓之１","OBJECTID":250303},"geometry":{"x":170221.9299999997,"y":2543121.3100000024}},{"attributes":{"ID":250308,"DIS_CODE":0,"TOWNNAME":"東區","LI":"東安里","LIN":"14鄰","STREET":"長榮路","SECT":"二段","MAREA":" ","LANE":"３２巷","ALLEY":" ","HOUSE_NO":"２２５號五樓之３","E_COORD97":170226.70687299999,"N_COORD97":2543108.6427699998,"ADDRESS":"長榮路二段３２巷２２５號五樓之３","OBJECTID":250304},"geometry":{"x":170226.70687299967,"y":2543108.6427710038}},{"attributes":{"ID":250309,"DIS_CODE":0,"TOWNNAME":"東區","LI":"東安里","LIN":"14鄰","STREET":"長榮路","SECT":"二段","MAREA":" ","LANE":"３２巷","ALLEY":" ","HOUSE_NO":"２２７號四樓之２","E_COORD97":170214.84194499999,"N_COORD97":2543109.9127699998,"ADDRESS":"長榮路二段３２巷２２７號四樓之２","OBJECTID":250305},"geometry":{"x":170214.84194500186,"y":2543109.9127699994}},{"attributes":{"ID":250310,"DIS_CODE":0,"TOWNNAME":"東區","LI":"東安里","LIN":"14鄰","STREET":"長榮路","SECT":"二段","MAREA":" ","LANE":"３２巷","ALLEY":" ","HOUSE_NO":"２２７號三樓之２","E_COORD97":170214.84194499999,"N_COORD97":2543109.9127699998,"ADDRESS":"長榮路二段３２巷２２７號三樓之２","OBJECTID":250306},"geometry":{"x":170214.84194500186,"y":2543109.9127699994}},{"attributes":{"ID":250311,"DIS_CODE":0,"TOWNNAME":"東區","LI":"東安里","LIN":"14鄰","STREET":"長榮路","SECT":"二段","MAREA":" ","LANE":"３２巷","ALLEY":" ","HOUSE_NO":"２２７號四樓之１","E_COORD97":170214.13,"N_COORD97":2543109.8100000001,"ADDRESS":"長榮路二段３２巷２２７號四樓之１","OBJECTID":250307},"geometry":{"x":170214.12999999989,"y":2543109.8100000005}},{"attributes":{"ID":250312,"DIS_CODE":0,"TOWNNAME":"永康區","LI":"復國里","LIN":"14鄰","STREET":"復國二路","SECT":" ","MAREA":" ","LANE":"１３４巷","ALLEY":" ","HOUSE_NO":"５號","E_COORD97":172920.88,"N_COORD97":2545578.5299999998,"ADDRESS":"復國二路１３４巷５號","OBJECTID":250308},"geometry":{"x":172920.87999999989,"y":2545578.5299999993}},{"attributes":{"ID":250313,"DIS_CODE":0,"TOWNNAME":"永康區","LI":"大橋里","LIN":"14鄰","STREET":"大橋一街","SECT":" ","MAREA":" ","LANE":"７３巷","ALLEY":" ","HOUSE_NO":"５７號","E_COORD97":170812.73000000001,"N_COORD97":2546525.5,"ADDRESS":"大橋一街７３巷５７號","OBJECTID":250309},"geometry":{"x":170812.73000000231,"y":2546525.5}},{"attributes":{"ID":250314,"DIS_CODE":0,"TOWNNAME":"永康區","LI":"大橋里","LIN":"14鄰","STREET":"大橋一街","SECT":" ","MAREA":" ","LANE":"７３巷","ALLEY":" ","HOUSE_NO":"４３號","E_COORD97":170841.78,"N_COORD97":2546510.5,"ADDRESS":"大橋一街７３巷４３號","OBJECTID":250310},"geometry":{"x":170841.78000000026,"y":2546510.5000000019}},{"attributes":{"ID":250315,"DIS_CODE":0,"TOWNNAME":"安平區","LI":"國平里","LIN":"14鄰","STREET":"健康路","SECT":"三段","MAREA":" ","LANE":" ","ALLEY":" ","HOUSE_NO":"１８０號之２９","E_COORD97":165497.20000000001,"N_COORD97":2542729.9199999999,"ADDRESS":"健康路三段１８０號之２９","OBJECTID":250311},"geometry":{"x":165497.20000000112,"y":2542729.9200000018}},{"attributes":{"ID":250316,"DIS_CODE":0,"TOWNNAME":"東區","LI":"東門里","LIN":"1鄰","STREET":"東門路","SECT":"一段","MAREA":" ","LANE":" ","ALLEY":" ","HOUSE_NO":"４１號","E_COORD97":169220.35000000001,"N_COORD97":2543263.25,"ADDRESS":"東門路一段４１號","OBJECTID":250312},"geometry":{"x":169220.34999999963,"y":2543263.2500000037}},{"attributes":{"ID":250317,"DIS_CODE":0,"TOWNNAME":"永康區","LI":"復華里","LIN":"23鄰","STREET":"國華街","SECT":" ","MAREA":" ","LANE":"１３４巷","ALLEY":" ","HOUSE_NO":"３２號","E_COORD97":172757.59,"N_COORD97":2546198.25,"ADDRESS":"國華街１３４巷３２號","OBJECTID":250313},"geometry":{"x":172757.59000000078,"y":2546198.25}},{"attributes":{"ID":250318,"DIS_CODE":0,"TOWNNAME":"官田區","LI":"南\u25A0里","LIN":"6鄰","STREET":" ","SECT":" ","MAREA":"南\u25A0","LANE":" ","ALLEY":" ","HOUSE_NO":"７５號","E_COORD97":178857.81,"N_COORD97":2568023.98,"ADDRESS":"南\u25A0７５號","OBJECTID":250314},"geometry":{"x":178857.80999999959,"y":2568023.9800000004}},{"attributes":{"ID":250319,"DIS_CODE":0,"TOWNNAME":"安南區","LI":"新順里","LIN":"11鄰","STREET":"育安街","SECT":" ","MAREA":" ","LANE":"１２６巷","ALLEY":" ","HOUSE_NO":"２號","E_COORD97":169623.60999999999,"N_COORD97":2549763.6800000002,"ADDRESS":"育安街１２６巷２號","OBJECTID":250315},"geometry":{"x":169623.61000000127,"y":2549763.6800000016}},{"attributes":{"ID":250320,"DIS_CODE":0,"TOWNNAME":"安南區","LI":"新順里","LIN":"11鄰","STREET":"育安街","SECT":" ","MAREA":" ","LANE":"１２６巷","ALLEY":" ","HOUSE_NO":"３號","E_COORD97":169626.94,"N_COORD97":2549774.9500000002,"ADDRESS":"育安街１２６巷３號","OBJECTID":250316},"geometry":{"x":169626.94000000134,"y":2549774.9500000011}},{"attributes":{"ID":250321,"DIS_CODE":0,"TOWNNAME":"安南區","LI":"新順里","LIN":"11鄰","STREET":"育安街","SECT":" ","MAREA":" ","LANE":"１２６巷","ALLEY":" ","HOUSE_NO":"５號","E_COORD97":169632.01999999999,"N_COORD97":2549775.1099999999,"ADDRESS":"育安街１２６巷５號","OBJECTID":250317},"geometry":{"x":169632.02000000048,"y":2549775.1099999994}},{"attributes":{"ID":250322,"DIS_CODE":0,"TOWNNAME":"南區","LI":"竹溪里","LIN":"4鄰","STREET":"體育路","SECT":" ","MAREA":" ","LANE":"４１巷","ALLEY":" ","HOUSE_NO":"２４號","E_COORD97":168795.70999999999,"N_COORD97":2542237.7000000002,"ADDRESS":"體育路４１巷２４號","OBJECTID":250318},"geometry":{"x":168795.71000000089,"y":2542237.6999999993}},{"attributes":{"ID":250323,"DIS_CODE":0,"TOWNNAME":"南區","LI":"竹溪里","LIN":"4鄰","STREET":"體育路","SECT":" ","MAREA":" ","LANE":"４１巷","ALLEY":" ","HOUSE_NO":"２６號","E_COORD97":168801.26000000001,"N_COORD97":2542235.9700000002,"ADDRESS":"體育路４１巷２６號","OBJECTID":250319},"geometry":{"x":168801.26000000164,"y":2542235.9700000025}},{"attributes":{"ID":250324,"DIS_CODE":0,"TOWNNAME":"永康區","LI":"大橋里","LIN":"14鄰","STREET":"大橋一街","SECT":" ","MAREA":" ","LANE":"７３巷","ALLEY":" ","HOUSE_NO":"２５號","E_COORD97":170876.29999999999,"N_COORD97":2546489.9900000002,"ADDRESS":"大橋一街７３巷２５號","OBJECTID":250320},"geometry":{"x":170876.30000000075,"y":2546489.9900000021}},{"attributes":{"ID":250325,"DIS_CODE":0,"TOWNNAME":"南區","LI":"竹溪里","LIN":"4鄰","STREET":"體育路","SECT":" ","MAREA":" ","LANE":"４１巷","ALLEY":" ","HOUSE_NO":"２８號","E_COORD97":168809.23999999999,"N_COORD97":2542235.6200000001,"ADDRESS":"體育路４１巷２８號","OBJECTID":250321},"geometry":{"x":168809.24000000115,"y":2542235.6200000029}},{"attributes":{"ID":250326,"DIS_CODE":0,"TOWNNAME":"永康區","LI":"大橋里","LIN":"14鄰","STREET":"大橋一街","SECT":" ","MAREA":" ","LANE":"７３巷","ALLEY":" ","HOUSE_NO":"４５號","E_COORD97":170846.98000000001,"N_COORD97":2546512.75,"ADDRESS":"大橋一街７３巷４５號","OBJECTID":250322},"geometry":{"x":170846.98000000138,"y":2546512.7500000019}},{"attributes":{"ID":250327,"DIS_CODE":0,"TOWNNAME":"新市區","LI":"港墘里","LIN":"14鄰","STREET":"長安街","SECT":" ","MAREA":" ","LANE":"３６巷","ALLEY":" ","HOUSE_NO":"２０號","E_COORD97":178293.63,"N_COORD97":2552797.5699999998,"ADDRESS":"長安街３６巷２０號","OBJECTID":250323},"geometry":{"x":178293.63000000175,"y":2552797.5700000003}},{"attributes":{"ID":250328,"DIS_CODE":0,"TOWNNAME":"新市區","LI":"新市里","LIN":"14鄰","STREET":"中正路","SECT":" ","MAREA":" ","LANE":"３２３巷","ALLEY":" ","HOUSE_NO":"１３號","E_COORD97":177662.07000000001,"N_COORD97":2553331,"ADDRESS":"中正路３２３巷１３號","OBJECTID":250324},"geometry":{"x":177662.07000000216,"y":2553331.0000000037}},{"attributes":{"ID":250329,"DIS_CODE":0,"TOWNNAME":"安平區","LI":"國平里","LIN":"14鄰","STREET":"健康路","SECT":"三段","MAREA":" ","LANE":" ","ALLEY":" ","HOUSE_NO":"１８０號之３","E_COORD97":165523.42000000001,"N_COORD97":2542720.7999999998,"ADDRESS":"健康路三段１８０號之３","OBJECTID":250325},"geometry":{"x":165523.41999999899,"y":2542720.8000000007}},{"attributes":{"ID":250330,"DIS_CODE":0,"TOWNNAME":"六甲區","LI":"龍湖里","LIN":"14鄰","STREET":"中正路","SECT":" ","MAREA":" ","LANE":" ","ALLEY":" ","HOUSE_NO":"１４０號","E_COORD97":183437.95000000001,"N_COORD97":2568999.3199999998,"ADDRESS":"中正路１４０號","OBJECTID":250326},"geometry":{"x":183437.95000000019,"y":2568999.320000004}},{"attributes":{"ID":250331,"DIS_CODE":0,"TOWNNAME":"安平區","LI":"國平里","LIN":"14鄰","STREET":"健康路","SECT":"三段","MAREA":" ","LANE":" ","ALLEY":" ","HOUSE_NO":"１８０號之３０","E_COORD97":165491.84,"N_COORD97":2542730.9100000001,"ADDRESS":"健康路三段１８０號之３０","OBJECTID":250327},"geometry":{"x":165491.84000000171,"y":2542730.910000002}},{"attributes":{"ID":250332,"DIS_CODE":0,"TOWNNAME":"東區","LI":"東門里","LIN":"1鄰","STREET":"東門路","SECT":"一段","MAREA":" ","LANE":" ","ALLEY":" ","HOUSE_NO":"４３號","E_COORD97":169224.88,"N_COORD97":2543262.2599999998,"ADDRESS":"東門路一段４３號","OBJECTID":250328},"geometry":{"x":169224.88000000082,"y":2543262.2599999998}},{"attributes":{"ID":250333,"DIS_CODE":0,"TOWNNAME":"佳里區","LI":"安西里","LIN":"11鄰","STREET":" ","SECT":" ","MAREA":"安西","LANE":" ","ALLEY":" ","HOUSE_NO":"１３號","E_COORD97":165350.35999999999,"N_COORD97":2562275.6899999999,"ADDRESS":"安西１３號","OBJECTID":250329},"geometry":{"x":165350.36000000127,"y":2562275.6899999995}},{"attributes":{"ID":250334,"DIS_CODE":0,"TOWNNAME":"安南區","LI":"南興里","LIN":"11鄰","STREET":"公學路","SECT":"五段","MAREA":" ","LANE":"６９７巷","ALLEY":" ","HOUSE_NO":"６９號","E_COORD97":163856.23999999999,"N_COORD97":2552682.5299999998,"ADDRESS":"公學路五段６９７巷６９號","OBJECTID":250330},"geometry":{"x":163856.24000000022,"y":2552682.5300000031}},{"attributes":{"ID":250335,"DIS_CODE":0,"TOWNNAME":"安南區","LI":"南興里","LIN":"11鄰","STREET":"公學路","SECT":"五段","MAREA":" ","LANE":"６９７巷","ALLEY":" ","HOUSE_NO":"７１號","E_COORD97":163855.35000000001,"N_COORD97":2552677.9500000002,"ADDRESS":"公學路五段６９７巷７１號","OBJECTID":250331},"geometry":{"x":163855.34999999963,"y":2552677.9499999993}},{"attributes":{"ID":250336,"DIS_CODE":0,"TOWNNAME":"安南區","LI":"南興里","LIN":"11鄰","STREET":"公學路","SECT":"五段","MAREA":" ","LANE":"６９７巷","ALLEY":" ","HOUSE_NO":"７３號","E_COORD97":163855.10000000001,"N_COORD97":2552674.1400000001,"ADDRESS":"公學路五段６９７巷７３號","OBJECTID":250332},"geometry":{"x":163855.09999999963,"y":2552674.1400000025}},{"attributes":{"ID":250337,"DIS_CODE":0,"TOWNNAME":"安南區","LI":"南興里","LIN":"11鄰","STREET":"公學路","SECT":"五段","MAREA":" ","LANE":"６９７巷","ALLEY":" ","HOUSE_NO":"７５號","E_COORD97":163854.34,"N_COORD97":2552669.3199999998,"ADDRESS":"公學路五段６９７巷７５號","OBJECTID":250333},"geometry":{"x":163854.34000000171,"y":2552669.3200000022}},{"attributes":{"ID":250338,"DIS_CODE":0,"TOWNNAME":"永康區","LI":"崑山里","LIN":"3鄰","STREET":"永大路","SECT":"一段","MAREA":" ","LANE":"２８７巷","ALLEY":" ","HOUSE_NO":"１４０號","E_COORD97":173667.23000000001,"N_COORD97":2544344.23,"ADDRESS":"永大路一段２８７巷１４０號","OBJECTID":250334},"geometry":{"x":173667.22999999952,"y":2544344.2300000004}},{"attributes":{"ID":250339,"DIS_CODE":0,"TOWNNAME":"安南區","LI":"南興里","LIN":"11鄰","STREET":"公學路","SECT":"五段","MAREA":" ","LANE":"６９７巷","ALLEY":" ","HOUSE_NO":"７９號","E_COORD97":163851.92000000001,"N_COORD97":2552646.8399999999,"ADDRESS":"公學路五段６９７巷７９號","OBJECTID":250335},"geometry":{"x":163851.91999999899,"y":2552646.8400000036}},{"attributes":{"ID":250340,"DIS_CODE":0,"TOWNNAME":"佳里區","LI":"六安里","LIN":"11鄰","STREET":"佳北路","SECT":" ","MAREA":" ","LANE":"１０５巷","ALLEY":" ","HOUSE_NO":"１１號","E_COORD97":166056,"N_COORD97":2563352.1600000001,"ADDRESS":"佳北路１０５巷１１號","OBJECTID":250336},"geometry":{"x":166056.00000000093,"y":2563352.160000002}},{"attributes":{"ID":250341,"DIS_CODE":0,"TOWNNAME":"佳里區","LI":"六安里","LIN":"11鄰","STREET":"佳北路","SECT":" ","MAREA":" ","LANE":"１０５巷","ALLEY":" ","HOUSE_NO":"１號","E_COORD97":166076.04000000001,"N_COORD97":2563354.79,"ADDRESS":"佳北路１０５巷１號","OBJECTID":250337},"geometry":{"x":166076.04000000097,"y":2563354.790000001}},{"attributes":{"ID":250342,"DIS_CODE":0,"TOWNNAME":"佳里區","LI":"六安里","LIN":"11鄰","STREET":"佳北路","SECT":" ","MAREA":" ","LANE":"１０５巷","ALLEY":" ","HOUSE_NO":"３號","E_COORD97":166072.32000000001,"N_COORD97":2563354.6499999999,"ADDRESS":"佳北路１０５巷３號","OBJECTID":250338},"geometry":{"x":166072.32000000123,"y":2563354.6500000004}},{"attributes":{"ID":250343,"DIS_CODE":0,"TOWNNAME":"佳里區","LI":"六安里","LIN":"11鄰","STREET":"佳北路","SECT":" ","MAREA":" ","LANE":"１０５巷","ALLEY":" ","HOUSE_NO":"５號","E_COORD97":166067.98999999999,"N_COORD97":2563353.98,"ADDRESS":"佳北路１０５巷５號","OBJECTID":250339},"geometry":{"x":166067.99000000115,"y":2563353.9800000023}},{"attributes":{"ID":250344,"DIS_CODE":0,"TOWNNAME":"佳里區","LI":"六安里","LIN":"11鄰","STREET":"佳北路","SECT":" ","MAREA":" ","LANE":"１０５巷","ALLEY":" ","HOUSE_NO":"７號","E_COORD97":166064.26000000001,"N_COORD97":2563353.3100000001,"ADDRESS":"佳北路１０５巷７號","OBJECTID":250340},"geometry":{"x":166064.26000000071,"y":2563353.3100000005}},{"attributes":{"ID":250345,"DIS_CODE":0,"TOWNNAME":"南區","LI":"明興里","LIN":"15鄰","STREET":"德興路","SECT":" ","MAREA":" ","LANE":"１３０巷","ALLEY":" ","HOUSE_NO":"６８號","E_COORD97":167082.45999999999,"N_COORD97":2540401.79,"ADDRESS":"德興路１３０巷６８號","OBJECTID":250341},"geometry":{"x":167082.45999999996,"y":2540401.790000001}},{"attributes":{"ID":250346,"DIS_CODE":0,"TOWNNAME":"南區","LI":"明德里","LIN":"7鄰","STREET":"新都路","SECT":" ","MAREA":" ","LANE":"２５６巷","ALLEY":" ","HOUSE_NO":"４０號","E_COORD97":167761.62,"N_COORD97":2540999.0600000001,"ADDRESS":"新都路２５６巷４０號","OBJECTID":250342},"geometry":{"x":167761.62000000197,"y":2540999.0600000005}},{"attributes":{"ID":250347,"DIS_CODE":0,"TOWNNAME":"新市區","LI":"港墘里","LIN":"14鄰","STREET":"長安街","SECT":" ","MAREA":" ","LANE":"３６巷","ALLEY":" ","HOUSE_NO":"２６號","E_COORD97":178292.04000000001,"N_COORD97":2552810.0699999998,"ADDRESS":"長安街３６巷２６號","OBJECTID":250343},"geometry":{"x":178292.04000000004,"y":2552810.0700000022}},{"attributes":{"ID":250348,"DIS_CODE":0,"TOWNNAME":"安平區","LI":"國平里","LIN":"14鄰","STREET":"健康路","SECT":"三段","MAREA":" ","LANE":" ","ALLEY":" ","HOUSE_NO":"１８０號之３１","E_COORD97":165486.07999999999,"N_COORD97":2542731.9100000001,"ADDRESS":"健康路三段１８０號之３１","OBJECTID":250344},"geometry":{"x":165486.08000000101,"y":2542731.9100000001}},{"attributes":{"ID":250349,"DIS_CODE":0,"TOWNNAME":"安平區","LI":"國平里","LIN":"14鄰","STREET":"健康路","SECT":"三段","MAREA":" ","LANE":" ","ALLEY":" ","HOUSE_NO":"１８０號之３２","E_COORD97":165480.32000000001,"N_COORD97":2542732.8999999999,"ADDRESS":"健康路三段１８０號之３２","OBJECTID":250345},"geometry":{"x":165480.3200000003,"y":2542732.9000000004}},{"attributes":{"ID":250350,"DIS_CODE":0,"TOWNNAME":"安平區","LI":"國平里","LIN":"14鄰","STREET":"健康路","SECT":"三段","MAREA":" ","LANE":" ","ALLEY":" ","HOUSE_NO":"１８０號之３３","E_COORD97":165472.97,"N_COORD97":2542733.1000000001,"ADDRESS":"健康路三段１８０號之３３","OBJECTID":250346},"geometry":{"x":165472.96999999974,"y":2542733.1000000015}},{"attributes":{"ID":250351,"DIS_CODE":0,"TOWNNAME":"安平區","LI":"國平里","LIN":"14鄰","STREET":"健康路","SECT":"三段","MAREA":" ","LANE":" ","ALLEY":" ","HOUSE_NO":"１８０號之３４","E_COORD97":165467.88,"N_COORD97":2542733.7400000002,"ADDRESS":"健康路三段１８０號之３４","OBJECTID":250347},"geometry":{"x":165467.88000000175,"y":2542733.7400000002}},{"attributes":{"ID":250352,"DIS_CODE":0,"TOWNNAME":"安平區","LI":"國平里","LIN":"14鄰","STREET":"健康路","SECT":"三段","MAREA":" ","LANE":" ","ALLEY":" ","HOUSE_NO":"１８０號之３５","E_COORD97":165461.53,"N_COORD97":2542735.1299999999,"ADDRESS":"健康路三段１８０號之３５","OBJECTID":250348},"geometry":{"x":165461.53000000026,"y":2542735.1300000008}},{"attributes":{"ID":250353,"DIS_CODE":0,"TOWNNAME":"安平區","LI":"國平里","LIN":"14鄰","STREET":"健康路","SECT":"三段","MAREA":" ","LANE":" ","ALLEY":" ","HOUSE_NO":"１８０號之３６","E_COORD97":165450.20000000001,"N_COORD97":2542736.7200000002,"ADDRESS":"健康路三段１８０號之３６","OBJECTID":250349},"geometry":{"x":165450.20000000019,"y":2542736.7200000025}},{"attributes":{"ID":250354,"DIS_CODE":0,"TOWNNAME":"安平區","LI":"國平里","LIN":"14鄰","STREET":"健康路","SECT":"三段","MAREA":" ","LANE":" ","ALLEY":" ","HOUSE_NO":"１８０號之３７","E_COORD97":165443.85000000001,"N_COORD97":2542737.5099999998,"ADDRESS":"健康路三段１８０號之３７","OBJECTID":250350},"geometry":{"x":165443.84999999963,"y":2542737.5099999998}},{"attributes":{"ID":250355,"DIS_CODE":0,"TOWNNAME":"安平區","LI":"國平里","LIN":"14鄰","STREET":"健康路","SECT":"三段","MAREA":" ","LANE":" ","ALLEY":" ","HOUSE_NO":"１８０號之３８","E_COORD97":165438.88,"N_COORD97":2542739.1000000001,"ADDRESS":"健康路三段１８０號之３８","OBJECTID":250351},"geometry":{"x":165438.87999999896,"y":2542739.1000000015}},{"attributes":{"ID":250356,"DIS_CODE":0,"TOWNNAME":"安平區","LI":"國平里","LIN":"14鄰","STREET":"健康路","SECT":"三段","MAREA":" ","LANE":" ","ALLEY":" ","HOUSE_NO":"１８０號之３９","E_COORD97":165432.92000000001,"N_COORD97":2542739.7000000002,"ADDRESS":"健康路三段１８０號之３９","OBJECTID":250352},"geometry":{"x":165432.91999999993,"y":2542739.6999999993}},{"attributes":{"ID":250357,"DIS_CODE":0,"TOWNNAME":"安平區","LI":"國平里","LIN":"14鄰","STREET":"健康路","SECT":"三段","MAREA":" ","LANE":" ","ALLEY":" ","HOUSE_NO":"１８０號之４","E_COORD97":165526.79999999999,"N_COORD97":2542720,"ADDRESS":"健康路三段１８０號之４","OBJECTID":250353},"geometry":{"x":165526.79999999981,"y":2542720.0000000019}},{"attributes":{"ID":250358,"DIS_CODE":0,"TOWNNAME":"歸仁區","LI":"崙頂里","LIN":"1鄰","STREET":"成功路","SECT":"一段","MAREA":" ","LANE":"３３２巷","ALLEY":" ","HOUSE_NO":"１７號","E_COORD97":178224.60000000001,"N_COORD97":2539980.6800000002,"ADDRESS":"成功路一段３３２巷１７號","OBJECTID":250354},"geometry":{"x":178224.60000000056,"y":2539980.6799999997}},{"attributes":{"ID":250359,"DIS_CODE":0,"TOWNNAME":"東區","LI":"大智里","LIN":"14鄰","STREET":"長東街","SECT":" ","MAREA":" ","LANE":"１４３巷","ALLEY":" ","HOUSE_NO":"１７號","E_COORD97":171077.54999999999,"N_COORD97":2540109.29,"ADDRESS":"長東街１４３巷１７號","OBJECTID":250355},"geometry":{"x":171077.54999999888,"y":2540109.290000001}},{"attributes":{"ID":250360,"DIS_CODE":0,"TOWNNAME":"東區","LI":"大智里","LIN":"14鄰","STREET":"長東街","SECT":" ","MAREA":" ","LANE":"１４３巷","ALLEY":" ","HOUSE_NO":"３３號","E_COORD97":171121.28,"N_COORD97":2540113.1000000001,"ADDRESS":"長東街１４３巷３３號","OBJECTID":250356},"geometry":{"x":171121.28000000119,"y":2540113.0999999996}},{"attributes":{"ID":250361,"DIS_CODE":0,"TOWNNAME":"東區","LI":"大智里","LIN":"14鄰","STREET":"長東街","SECT":" ","MAREA":" ","LANE":"１４３巷","ALLEY":" ","HOUSE_NO":"３５號","E_COORD97":171125.47,"N_COORD97":2540111.4199999999,"ADDRESS":"長東街１４３巷３５號","OBJECTID":250357},"geometry":{"x":171125.46999999881,"y":2540111.4199999999}},{"attributes":{"ID":250362,"DIS_CODE":0,"TOWNNAME":"東區","LI":"大智里","LIN":"14鄰","STREET":"長東街","SECT":" ","MAREA":" ","LANE":"１４３巷","ALLEY":" ","HOUSE_NO":"３７號","E_COORD97":171129.94,"N_COORD97":2540113.2799999998,"ADDRESS":"長東街１４３巷３７號","OBJECTID":250358},"geometry":{"x":171129.94000000227,"y":2540113.2800000012}},{"attributes":{"ID":250363,"DIS_CODE":0,"TOWNNAME":"東區","LI":"大智里","LIN":"14鄰","STREET":"長東街","SECT":" ","MAREA":" ","LANE":"１４３巷","ALLEY":" ","HOUSE_NO":"３９號","E_COORD97":171134.5,"N_COORD97":2540111.98,"ADDRESS":"長東街１４３巷３９號","OBJECTID":250359},"geometry":{"x":171134.50000000093,"y":2540111.9800000004}},{"attributes":{"ID":250364,"DIS_CODE":0,"TOWNNAME":"東區","LI":"大智里","LIN":"14鄰","STREET":"長東街","SECT":" ","MAREA":" ","LANE":"１４３巷","ALLEY":" ","HOUSE_NO":"４０號","E_COORD97":171127.76000000001,"N_COORD97":2540093.3399999999,"ADDRESS":"長東街１４３巷４０號","OBJECTID":250360},"geometry":{"x":171127.76000000071,"y":2540093.3400000017}},{"attributes":{"ID":250365,"DIS_CODE":0,"TOWNNAME":"東區","LI":"大智里","LIN":"14鄰","STREET":"長東街","SECT":" ","MAREA":" ","LANE":"１４３巷","ALLEY":" ","HOUSE_NO":"４８號","E_COORD97":171145.54999999999,"N_COORD97":2540089.2799999998,"ADDRESS":"長東街１４３巷４８號","OBJECTID":250361},"geometry":{"x":171145.55000000168,"y":2540089.2800000012}},{"attributes":{"ID":250366,"DIS_CODE":0,"TOWNNAME":"東區","LI":"大智里","LIN":"14鄰","STREET":"長東街","SECT":" ","MAREA":" ","LANE":"１４３巷","ALLEY":" ","HOUSE_NO":"４９號","E_COORD97":171155.53,"N_COORD97":2540113.6499999999,"ADDRESS":"長東街１４３巷４９號","OBJECTID":250362},"geometry":{"x":171155.53000000026,"y":2540113.6500000004}},{"attributes":{"ID":250367,"DIS_CODE":0,"TOWNNAME":"東區","LI":"大智里","LIN":"14鄰","STREET":"長東街","SECT":" ","MAREA":" ","LANE":"１４３巷","ALLEY":" ","HOUSE_NO":"５１號","E_COORD97":171159.53,"N_COORD97":2540115.3300000001,"ADDRESS":"長東街１４３巷５１號","OBJECTID":250363},"geometry":{"x":171159.52999999933,"y":2540115.3300000001}},{"attributes":{"ID":250368,"DIS_CODE":0,"TOWNNAME":"東區","LI":"大智里","LIN":"14鄰","STREET":"長東街","SECT":" ","MAREA":" ","LANE":"１４３巷","ALLEY":" ","HOUSE_NO":"５２號","E_COORD97":171154.95999999999,"N_COORD97":2540089.8399999999,"ADDRESS":"長東街１４３巷５２號","OBJECTID":250364},"geometry":{"x":171154.96000000089,"y":2540089.8400000017}},{"attributes":{"ID":250369,"DIS_CODE":0,"TOWNNAME":"東區","LI":"大智里","LIN":"14鄰","STREET":"長東街","SECT":" ","MAREA":" ","LANE":"１４３巷","ALLEY":" ","HOUSE_NO":"５３號","E_COORD97":171163.89999999999,"N_COORD97":2540113.75,"ADDRESS":"長東街１４３巷５３號","OBJECTID":250365},"geometry":{"x":171163.89999999944,"y":2540113.7500000019}},{"attributes":{"ID":250370,"DIS_CODE":0,"TOWNNAME":"東區","LI":"大智里","LIN":"14鄰","STREET":"長東街","SECT":" ","MAREA":" ","LANE":"１４３巷","ALLEY":" ","HOUSE_NO":"５４號","E_COORD97":171158.82999999999,"N_COORD97":2540091.2200000002,"ADDRESS":"長東街１４３巷５４號","OBJECTID":250366},"geometry":{"x":171158.83000000007,"y":2540091.2200000025}},{"attributes":{"ID":250371,"DIS_CODE":0,"TOWNNAME":"東區","LI":"大智里","LIN":"14鄰","STREET":"長東街","SECT":" ","MAREA":" ","LANE":"１４３巷","ALLEY":" ","HOUSE_NO":"５５號","E_COORD97":171168.56,"N_COORD97":2540115.1400000001,"ADDRESS":"長東街１４３巷５５號","OBJECTID":250367},"geometry":{"x":171168.55999999959,"y":2540115.1400000025}},{"attributes":{"ID":250372,"DIS_CODE":0,"TOWNNAME":"東區","LI":"大智里","LIN":"14鄰","STREET":"長東街","SECT":" ","MAREA":" ","LANE":"１４３巷","ALLEY":" ","HOUSE_NO":"５６號","E_COORD97":171163.81,"N_COORD97":2540090.7599999998,"ADDRESS":"長東街１４３巷５６號","OBJECTID":250368},"geometry":{"x":171163.81000000145,"y":2540090.7600000016}},{"attributes":{"ID":250373,"DIS_CODE":0,"TOWNNAME":"東區","LI":"大智里","LIN":"14鄰","STREET":"長東街","SECT":" ","MAREA":" ","LANE":"１４３巷","ALLEY":" ","HOUSE_NO":"５７號","E_COORD97":171172.47,"N_COORD97":2540113.3700000001,"ADDRESS":"長東街１４３巷５７號","OBJECTID":250369},"geometry":{"x":171172.46999999974,"y":2540113.370000001}},{"attributes":{"ID":250374,"DIS_CODE":0,"TOWNNAME":"東區","LI":"大智里","LIN":"14鄰","STREET":"長東街","SECT":" ","MAREA":" ","LANE":"１４３巷","ALLEY":" ","HOUSE_NO":"５８號","E_COORD97":171168.60999999999,"N_COORD97":2540091.96,"ADDRESS":"長東街１４３巷５８號","OBJECTID":250370},"geometry":{"x":171168.61000000034,"y":2540091.9600000009}},{"attributes":{"ID":250375,"DIS_CODE":0,"TOWNNAME":"東區","LI":"大智里","LIN":"14鄰","STREET":"長東街","SECT":" ","MAREA":" ","LANE":"１４３巷","ALLEY":" ","HOUSE_NO":"５９號","E_COORD97":171176.56,"N_COORD97":2540115.4199999999,"ADDRESS":"長東街１４３巷５９號","OBJECTID":250371},"geometry":{"x":171176.55999999959,"y":2540115.4199999981}},{"attributes":{"ID":250376,"DIS_CODE":0,"TOWNNAME":"東區","LI":"大智里","LIN":"14鄰","STREET":"長東街","SECT":" ","MAREA":" ","LANE":"１４３巷","ALLEY":" ","HOUSE_NO":"６０號","E_COORD97":171172.94,"N_COORD97":2540090.7599999998,"ADDRESS":"長東街１４３巷６０號","OBJECTID":250372},"geometry":{"x":171172.94000000134,"y":2540090.7600000016}},{"attributes":{"ID":250377,"DIS_CODE":0,"TOWNNAME":"佳里區","LI":"六安里","LIN":"11鄰","STREET":"佳北路","SECT":" ","MAREA":" ","LANE":" ","ALLEY":" ","HOUSE_NO":"１３０號","E_COORD97":166059.98000000001,"N_COORD97":2563423.48,"ADDRESS":"佳北路１３０號","OBJECTID":250373},"geometry":{"x":166059.98000000138,"y":2563423.4800000004}},{"attributes":{"ID":250378,"DIS_CODE":0,"TOWNNAME":"安南區","LI":"淵東里","LIN":"11鄰","STREET":"仁安路","SECT":" ","MAREA":" ","LANE":"８３巷","ALLEY":" ","HOUSE_NO":"１７號","E_COORD97":165618.47,"N_COORD97":2550176.96,"ADDRESS":"仁安路８３巷１７號","OBJECTID":250374},"geometry":{"x":165618.47000000067,"y":2550176.9600000028}},{"attributes":{"ID":250379,"DIS_CODE":0,"TOWNNAME":"安南區","LI":"淵東里","LIN":"11鄰","STREET":"仁安路","SECT":" ","MAREA":" ","LANE":"８３巷","ALLEY":" ","HOUSE_NO":"１５號","E_COORD97":165620.37,"N_COORD97":2550172.5099999998,"ADDRESS":"仁安路８３巷１５號","OBJECTID":250375},"geometry":{"x":165620.37000000011,"y":2550172.5099999998}},{"attributes":{"ID":250380,"DIS_CODE":0,"TOWNNAME":"安南區","LI":"佃西里","LIN":"11鄰","STREET":"公學路","SECT":"五段","MAREA":" ","LANE":"１７６巷","ALLEY":" ","HOUSE_NO":"７號","E_COORD97":164797.12,"N_COORD97":2552089.75,"ADDRESS":"公學路五段１７６巷７號","OBJECTID":250376},"geometry":{"x":164797.12000000104,"y":2552089.7500000019}},{"attributes":{"ID":250381,"DIS_CODE":0,"TOWNNAME":"安南區","LI":"學東里","LIN":"11鄰","STREET":"公學路","SECT":"六段","MAREA":" ","LANE":"６６０巷","ALLEY":" ","HOUSE_NO":"１１號","E_COORD97":162234.87,"N_COORD97":2553318.4500000002,"ADDRESS":"公學路六段６６０巷１１號","OBJECTID":250377},"geometry":{"x":162234.87000000011,"y":2553318.4500000011}},{"attributes":{"ID":250382,"DIS_CODE":0,"TOWNNAME":"東區","LI":"大智里","LIN":"14鄰","STREET":"長東街","SECT":" ","MAREA":" ","LANE":"１４３巷","ALLEY":" ","HOUSE_NO":"６２號","E_COORD97":171177.92000000001,"N_COORD97":2540092.4199999999,"ADDRESS":"長東街１４３巷６２號","OBJECTID":250378},"geometry":{"x":171177.91999999993,"y":2540092.4200000018}},{"attributes":{"ID":250383,"DIS_CODE":0,"TOWNNAME":"東區","LI":"崇善里","LIN":"14鄰","STREET":"崇善十街","SECT":" ","MAREA":" ","LANE":"２８巷","ALLEY":" ","HOUSE_NO":"１３號","E_COORD97":171203.64999999999,"N_COORD97":2541261.8199999998,"ADDRESS":"崇善十街２８巷１３號","OBJECTID":250379},"geometry":{"x":171203.6500000013,"y":2541261.8200000003}},{"attributes":{"ID":250384,"DIS_CODE":0,"TOWNNAME":"東區","LI":"崇善里","LIN":"14鄰","STREET":"崇善十街","SECT":" ","MAREA":" ","LANE":"２８巷","ALLEY":" ","HOUSE_NO":"１５號","E_COORD97":171205.56,"N_COORD97":2541258.9700000002,"ADDRESS":"崇善十街２８巷１５號","OBJECTID":250380},"geometry":{"x":171205.55999999959,"y":2541258.9700000025}},{"attributes":{"ID":250385,"DIS_CODE":0,"TOWNNAME":"東區","LI":"崇善里","LIN":"14鄰","STREET":"崇善十街","SECT":" ","MAREA":" ","LANE":"２８巷","ALLEY":" ","HOUSE_NO":"１９號","E_COORD97":171208.64999999999,"N_COORD97":2541251.8399999999,"ADDRESS":"崇善十街２８巷１９號","OBJECTID":250381},"geometry":{"x":171208.6500000013,"y":2541251.8400000036}},{"attributes":{"ID":250386,"DIS_CODE":0,"TOWNNAME":"東區","LI":"崇善里","LIN":"14鄰","STREET":"崇善十街","SECT":" ","MAREA":" ","LANE":"２８巷","ALLEY":" ","HOUSE_NO":"２１號","E_COORD97":171210.56,"N_COORD97":2541248.5099999998,"ADDRESS":"崇善十街２８巷２１號","OBJECTID":250382},"geometry":{"x":171210.55999999959,"y":2541248.5100000016}},{"attributes":{"ID":250387,"DIS_CODE":0,"TOWNNAME":"東區","LI":"崇善里","LIN":"14鄰","STREET":"崇善十街","SECT":" ","MAREA":" ","LANE":"２８巷","ALLEY":" ","HOUSE_NO":"２３號","E_COORD97":171212.94,"N_COORD97":2541234.71,"ADDRESS":"崇善十街２８巷２３號","OBJECTID":250383},"geometry":{"x":171212.94000000227,"y":2541234.7100000028}},{"attributes":{"ID":250388,"DIS_CODE":0,"TOWNNAME":"東區","LI":"崇善里","LIN":"14鄰","STREET":"崇善十街","SECT":" ","MAREA":" ","LANE":"２８巷","ALLEY":" ","HOUSE_NO":"２７號","E_COORD97":171224.79999999999,"N_COORD97":2541237.3599999999,"ADDRESS":"崇善十街２８巷２７號","OBJECTID":250384},"geometry":{"x":171224.79999999981,"y":2541237.3599999994}},{"attributes":{"ID":250389,"DIS_CODE":0,"TOWNNAME":"安平區","LI":"國平里","LIN":"14鄰","STREET":"健康路","SECT":"三段","MAREA":" ","LANE":" ","ALLEY":" ","HOUSE_NO":"１８０號之４０","E_COORD97":165431.92999999999,"N_COORD97":2542734.9399999999,"ADDRESS":"健康路三段１８０號之４０","OBJECTID":250385},"geometry":{"x":165431.93000000063,"y":2542734.9399999995}},{"attributes":{"ID":250390,"DIS_CODE":0,"TOWNNAME":"安平區","LI":"國平里","LIN":"14鄰","STREET":"健康路","SECT":"三段","MAREA":" ","LANE":" ","ALLEY":" ","HOUSE_NO":"１８０號之４１","E_COORD97":165437.89000000001,"N_COORD97":2542734.9399999999,"ADDRESS":"健康路三段１８０號之４１","OBJECTID":250386},"geometry":{"x":165437.88999999966,"y":2542734.9399999995}},{"attributes":{"ID":250391,"DIS_CODE":0,"TOWNNAME":"安平區","LI":"國平里","LIN":"14鄰","STREET":"健康路","SECT":"三段","MAREA":" ","LANE":" ","ALLEY":" ","HOUSE_NO":"１８０號之４２","E_COORD97":165443.45000000001,"N_COORD97":2542734.3399999999,"ADDRESS":"健康路三段１８０號之４２","OBJECTID":250387},"geometry":{"x":165443.45000000019,"y":2542734.3400000017}},{"attributes":{"ID":250392,"DIS_CODE":0,"TOWNNAME":"東區","LI":"東門里","LIN":"1鄰","STREET":"東門路","SECT":"一段","MAREA":" ","LANE":" ","ALLEY":" ","HOUSE_NO":"４５號","E_COORD97":169228.82000000001,"N_COORD97":2543260.3900000001,"ADDRESS":"東門路一段４５號","OBJECTID":250388},"geometry":{"x":169228.82000000123,"y":2543260.3900000025}},{"attributes":{"ID":250393,"DIS_CODE":0,"TOWNNAME":"安南區","LI":"城南里","LIN":"11鄰","STREET":"城西街","SECT":"二段","MAREA":" ","LANE":"８０巷","ALLEY":" ","HOUSE_NO":"５號","E_COORD97":160053.31,"N_COORD97":2551100.77,"ADDRESS":"城西街二段８０巷５號","OBJECTID":250389},"geometry":{"x":160053.30999999959,"y":2551100.7699999996}},{"attributes":{"ID":250394,"DIS_CODE":0,"TOWNNAME":"安南區","LI":"城南里","LIN":"11鄰","STREET":"城西街","SECT":"二段","MAREA":" ","LANE":"８０巷","ALLEY":" ","HOUSE_NO":"７號","E_COORD97":160052.29999999999,"N_COORD97":2551110.29,"ADDRESS":"城西街二段８０巷７號","OBJECTID":250390},"geometry":{"x":160052.30000000075,"y":2551110.2899999991}},{"attributes":{"ID":250395,"DIS_CODE":0,"TOWNNAME":"東區","LI":"崇善里","LIN":"14鄰","STREET":"崇善十街","SECT":" ","MAREA":" ","LANE":"２８巷","ALLEY":" ","HOUSE_NO":"２９號","E_COORD97":171228.89000000001,"N_COORD97":2541237.5699999998,"ADDRESS":"崇善十街２８巷２９號","OBJECTID":250391},"geometry":{"x":171228.88999999966,"y":2541237.5700000022}},{"attributes":{"ID":250396,"DIS_CODE":0,"TOWNNAME":"安平區","LI":"國平里","LIN":"14鄰","STREET":"健康路","SECT":"三段","MAREA":" ","LANE":" ","ALLEY":" ","HOUSE_NO":"１８０號之４３","E_COORD97":165449.01000000001,"N_COORD97":2542732.9500000002,"ADDRESS":"健康路三段１８０號之４３","OBJECTID":250392},"geometry":{"x":165449.00999999978,"y":2542732.9500000011}},{"attributes":{"ID":250397,"DIS_CODE":0,"TOWNNAME":"七股區","LI":"竹橋里","LIN":"11鄰","STREET":" ","SECT":" ","MAREA":"竹橋","LANE":" ","ALLEY":" ","HOUSE_NO":"１１６號","E_COORD97":163978.16,"N_COORD97":2555828.1600000001,"ADDRESS":"竹橋１１６號","OBJECTID":250393},"geometry":{"x":163978.16000000108,"y":2555828.1600000001}},{"attributes":{"ID":250398,"DIS_CODE":0,"TOWNNAME":"七股區","LI":"竹橋里","LIN":"11鄰","STREET":" ","SECT":" ","MAREA":"竹橋","LANE":" ","ALLEY":" ","HOUSE_NO":"１１７號","E_COORD97":163956.25,"N_COORD97":2555819.04,"ADDRESS":"竹橋１１７號","OBJECTID":250394},"geometry":{"x":163956.25,"y":2555819.040000001}},{"attributes":{"ID":250399,"DIS_CODE":0,"TOWNNAME":"七股區","LI":"竹橋里","LIN":"11鄰","STREET":" ","SECT":" ","MAREA":"竹橋","LANE":" ","ALLEY":" ","HOUSE_NO":"１１８號","E_COORD97":163941.04999999999,"N_COORD97":2555811.6899999999,"ADDRESS":"竹橋１１８號","OBJECTID":250395},"geometry":{"x":163941.05000000075,"y":2555811.6900000013}},{"attributes":{"ID":250400,"DIS_CODE":0,"TOWNNAME":"安平區","LI":"國平里","LIN":"14鄰","STREET":"健康路","SECT":"三段","MAREA":" ","LANE":" ","ALLEY":" ","HOUSE_NO":"１８０號之４５","E_COORD97":165460.92999999999,"N_COORD97":2542731.3599999999,"ADDRESS":"健康路三段１８０號之４５","OBJECTID":250396},"geometry":{"x":165460.93000000063,"y":2542731.3599999994}},{"attributes":{"ID":250401,"DIS_CODE":0,"TOWNNAME":"七股區","LI":"篤加里","LIN":"11鄰","STREET":" ","SECT":" ","MAREA":"篤加","LANE":" ","ALLEY":" ","HOUSE_NO":"９９號","E_COORD97":160726.91,"N_COORD97":2562539.2999999998,"ADDRESS":"篤加９９號","OBJECTID":250397},"geometry":{"x":160726.91000000108,"y":2562539.3000000026}},{"attributes":{"ID":250402,"DIS_CODE":0,"TOWNNAME":"將軍區","LI":"仁和里","LIN":"11鄰","STREET":" ","SECT":" ","MAREA":"仁巷","LANE":" ","ALLEY":" ","HOUSE_NO":"１０８之１號","E_COORD97":163907.57000000001,"N_COORD97":2569042.25,"ADDRESS":"仁巷１０８之１號","OBJECTID":250398},"geometry":{"x":163907.57000000123,"y":2569042.25}},{"attributes":{"ID":250403,"DIS_CODE":0,"TOWNNAME":"將軍區","LI":"仁和里","LIN":"11鄰","STREET":" ","SECT":" ","MAREA":"仁巷","LANE":" ","ALLEY":" ","HOUSE_NO":"１０８之２號","E_COORD97":163909.92000000001,"N_COORD97":2569027.0800000001,"ADDRESS":"仁巷１０８之２號","OBJECTID":250399},"geometry":{"x":163909.92000000086,"y":2569027.0800000001}},{"attributes":{"ID":250404,"DIS_CODE":0,"TOWNNAME":"將軍區","LI":"仁和里","LIN":"11鄰","STREET":" ","SECT":" ","MAREA":"仁巷","LANE":" ","ALLEY":" ","HOUSE_NO":"１０８之３號","E_COORD97":163894.47,"N_COORD97":2569081.52,"ADDRESS":"仁巷１０８之３號","OBJECTID":250400},"geometry":{"x":163894.47000000067,"y":2569081.5199999996}}]}