{"displayFieldName":"TOWNNAME","fieldAliases":{"ID":"ID","DIS_CODE":"DIS_CODE","TOWNNAME":"TOWNNAME","LI":"LI","LIN":"LIN","STREET":"STREET","SECT":"SECT","MAREA":"MAREA","LANE":"LANE","ALLEY":"ALLEY","HOUSE_NO":"HOUSE_NO","E_COORD97":"E_COORD97","N_COORD97":"N_COORD97","ADDRESS":"ADDRESS","OBJECTID":"OBJECTID"},"geometryType":"esriGeometryPoint","spatialReference":{"wkid":102443,"latestWkid":3826},"fields":[{"name":"ID","type":"esriFieldTypeDouble","alias":"ID"},{"name":"DIS_CODE","type":"esriFieldTypeInteger","alias":"DIS_CODE"},{"name":"TOWNNAME","type":"esriFieldTypeString","alias":"TOWNNAME","length":8},{"name":"LI","type":"esriFieldTypeString","alias":"LI","length":8},{"name":"LIN","type":"esriFieldTypeString","alias":"LIN","length":12},{"name":"STREET","type":"esriFieldTypeString","alias":"STREET","length":20},{"name":"SECT","type":"esriFieldTypeString","alias":"SECT","length":8},{"name":"MAREA","type":"esriFieldTypeString","alias":"MAREA","length":12},{"name":"LANE","type":"esriFieldTypeString","alias":"LANE","length":10},{"name":"ALLEY","type":"esriFieldTypeString","alias":"ALLEY","length":10},{"name":"HOUSE_NO","type":"esriFieldTypeString","alias":"HOUSE_NO","length":20},{"name":"E_COORD97","type":"esriFieldTypeDouble","alias":"E_COORD97"},{"name":"N_COORD97","type":"esriFieldTypeDouble","alias":"N_COORD97"},{"name":"ADDRESS","type":"esriFieldTypeString","alias":"ADDRESS","length":50},{"name":"OBJECTID","type":"esriFieldTypeOID","alias":"OBJECTID"}],"features":[{"attributes":{"ID":262405,"DIS_CODE":0,"TOWNNAME":"善化區","LI":"小新里","LIN":"22鄰","STREET":" ","SECT":" ","MAREA":"士宏新村","LANE":" ","ALLEY":" ","HOUSE_NO":"５３號","E_COORD97":180431.07000000001,"N_COORD97":2558596.25,"ADDRESS":"士宏新村５３號","OBJECTID":262401},"geometry":{"x":180431.07000000123,"y":2558596.25}},{"attributes":{"ID":262406,"DIS_CODE":0,"TOWNNAME":"善化區","LI":"小新里","LIN":"22鄰","STREET":" ","SECT":" ","MAREA":"士宏新村","LANE":" ","ALLEY":" ","HOUSE_NO":"５６號","E_COORD97":180451.88,"N_COORD97":2558593,"ADDRESS":"士宏新村５６號","OBJECTID":262402},"geometry":{"x":180451.88000000082,"y":2558593.0000000019}},{"attributes":{"ID":262407,"DIS_CODE":0,"TOWNNAME":"善化區","LI":"小新里","LIN":"22鄰","STREET":" ","SECT":" ","MAREA":"士宏新村","LANE":" ","ALLEY":" ","HOUSE_NO":"３７號","E_COORD97":180432.45000000001,"N_COORD97":2558561.75,"ADDRESS":"士宏新村３７號","OBJECTID":262403},"geometry":{"x":180432.45000000019,"y":2558561.7500000019}},{"attributes":{"ID":262408,"DIS_CODE":0,"TOWNNAME":"仁德區","LI":"仁德里","LIN":"3鄰","STREET":"仁中七街","SECT":" ","MAREA":" ","LANE":" ","ALLEY":" ","HOUSE_NO":"９３號","E_COORD97":173233.55863399999,"N_COORD97":2540377.4760199999,"ADDRESS":"仁中七街９３號","OBJECTID":262404},"geometry":{"x":173233.55863400176,"y":2540377.4760180023}},{"attributes":{"ID":262409,"DIS_CODE":0,"TOWNNAME":"仁德區","LI":"仁德里","LIN":"3鄰","STREET":"仁中七街","SECT":" ","MAREA":" ","LANE":" ","ALLEY":" ","HOUSE_NO":"９５號","E_COORD97":173228.579742,"N_COORD97":2540377.68768,"ADDRESS":"仁中七街９５號","OBJECTID":262405},"geometry":{"x":173228.57974200044,"y":2540377.6876839995}},{"attributes":{"ID":262410,"DIS_CODE":0,"TOWNNAME":"下營區","LI":"營前里","LIN":"9鄰","STREET":"中山路","SECT":"二段","MAREA":" ","LANE":" ","ALLEY":" ","HOUSE_NO":"１２３號","E_COORD97":174517.19990599999,"N_COORD97":2570166.6943000001,"ADDRESS":"中山路二段１２３號","OBJECTID":262406},"geometry":{"x":174517.19990600087,"y":2570166.6943030022}},{"attributes":{"ID":262411,"DIS_CODE":0,"TOWNNAME":"仁德區","LI":"仁德里","LIN":"3鄰","STREET":"仁中七街","SECT":" ","MAREA":" ","LANE":" ","ALLEY":" ","HOUSE_NO":"９７號","E_COORD97":173223.70678400001,"N_COORD97":2540378.1110200002,"ADDRESS":"仁中七街９７號","OBJECTID":262407},"geometry":{"x":173223.70678400155,"y":2540378.1110169981}},{"attributes":{"ID":262412,"DIS_CODE":0,"TOWNNAME":"仁德區","LI":"仁德里","LIN":"3鄰","STREET":"仁中七街","SECT":" ","MAREA":" ","LANE":" ","ALLEY":" ","HOUSE_NO":"９９號","E_COORD97":173218.939759,"N_COORD97":2540378.3226800002,"ADDRESS":"仁中七街９９號","OBJECTID":262408},"geometry":{"x":173218.93975900114,"y":2540378.3226839993}},{"attributes":{"ID":262413,"DIS_CODE":0,"TOWNNAME":"仁德區","LI":"仁德里","LIN":"3鄰","STREET":"仁中七街","SECT":" ","MAREA":" ","LANE":" ","ALLEY":" ","HOUSE_NO":"１０１號","E_COORD97":173214.06680100001,"N_COORD97":2540378.5343499999,"ADDRESS":"仁中七街１０１號","OBJECTID":262409},"geometry":{"x":173214.06680100225,"y":2540378.5343500022}},{"attributes":{"ID":262414,"DIS_CODE":0,"TOWNNAME":"仁德區","LI":"仁德里","LIN":"3鄰","STREET":"仁中七街","SECT":" ","MAREA":" ","LANE":" ","ALLEY":" ","HOUSE_NO":"１０３號","E_COORD97":173208.770108,"N_COORD97":2540378.8518500002,"ADDRESS":"仁中七街１０３號","OBJECTID":262410},"geometry":{"x":173208.77010800131,"y":2540378.8518499993}},{"attributes":{"ID":262415,"DIS_CODE":0,"TOWNNAME":"官田區","LI":"隆本里","LIN":"22鄰","STREET":"仁愛街","SECT":" ","MAREA":" ","LANE":" ","ALLEY":" ","HOUSE_NO":"７９號","E_COORD97":179943.34,"N_COORD97":2566065.8500000001,"ADDRESS":"仁愛街７９號","OBJECTID":262411},"geometry":{"x":179943.34000000171,"y":2566065.8500000034}},{"attributes":{"ID":262416,"DIS_CODE":0,"TOWNNAME":"仁德區","LI":"仁愛里","LIN":"22鄰","STREET":" ","SECT":" ","MAREA":"仁愛","LANE":" ","ALLEY":" ","HOUSE_NO":"４７０號","E_COORD97":170098.01234300001,"N_COORD97":2540095.5499999998,"ADDRESS":"仁愛４７０號","OBJECTID":262412},"geometry":{"x":170098.01234300062,"y":2540095.5500000026}},{"attributes":{"ID":262417,"DIS_CODE":0,"TOWNNAME":"仁德區","LI":"仁和里","LIN":"22鄰","STREET":" ","SECT":" ","MAREA":"仁和","LANE":" ","ALLEY":" ","HOUSE_NO":"４４３號","E_COORD97":170409.05588,"N_COORD97":2539808.5499999998,"ADDRESS":"仁和４４３號","OBJECTID":262413},"geometry":{"x":170409.05587999895,"y":2539808.5500000026}},{"attributes":{"ID":262418,"DIS_CODE":0,"TOWNNAME":"仁德區","LI":"仁和里","LIN":"22鄰","STREET":" ","SECT":" ","MAREA":"仁和","LANE":" ","ALLEY":" ","HOUSE_NO":"４４２號","E_COORD97":170437.65896199999,"N_COORD97":2539815.5499999998,"ADDRESS":"仁和４４２號","OBJECTID":262414},"geometry":{"x":170437.65896200109,"y":2539815.5500000007}},{"attributes":{"ID":262419,"DIS_CODE":0,"TOWNNAME":"仁德區","LI":"仁和里","LIN":"22鄰","STREET":" ","SECT":" ","MAREA":"仁和","LANE":" ","ALLEY":" ","HOUSE_NO":"４４７號","E_COORD97":170421.50352,"N_COORD97":2539808.5499999998,"ADDRESS":"仁和４４７號","OBJECTID":262415},"geometry":{"x":170421.50352000073,"y":2539808.5500000026}},{"attributes":{"ID":262420,"DIS_CODE":0,"TOWNNAME":"仁德區","LI":"仁和里","LIN":"22鄰","STREET":" ","SECT":" ","MAREA":"仁和","LANE":" ","ALLEY":" ","HOUSE_NO":"４５２號","E_COORD97":170437.44708000001,"N_COORD97":2539808.5499999998,"ADDRESS":"仁和４５２號","OBJECTID":262416},"geometry":{"x":170437.44708000124,"y":2539808.5500000026}},{"attributes":{"ID":262421,"DIS_CODE":0,"TOWNNAME":"仁德區","LI":"仁和里","LIN":"22鄰","STREET":" ","SECT":" ","MAREA":"仁和","LANE":" ","ALLEY":" ","HOUSE_NO":"４５１號","E_COORD97":170433.63334,"N_COORD97":2539808.5499999998,"ADDRESS":"仁和４５１號","OBJECTID":262417},"geometry":{"x":170433.63334000111,"y":2539808.5500000026}},{"attributes":{"ID":262422,"DIS_CODE":0,"TOWNNAME":"仁德區","LI":"仁和里","LIN":"22鄰","STREET":" ","SECT":" ","MAREA":"仁和","LANE":" ","ALLEY":" ","HOUSE_NO":"４３７號","E_COORD97":170421.13274,"N_COORD97":2539815.5499999998,"ADDRESS":"仁和４３７號","OBJECTID":262418},"geometry":{"x":170421.13274000026,"y":2539815.5500000007}},{"attributes":{"ID":262423,"DIS_CODE":0,"TOWNNAME":"仁德區","LI":"仁和里","LIN":"22鄰","STREET":" ","SECT":" ","MAREA":"仁和","LANE":" ","ALLEY":" ","HOUSE_NO":"４４０號","E_COORD97":170431.24975399999,"N_COORD97":2539815.5499999998,"ADDRESS":"仁和４４０號","OBJECTID":262419},"geometry":{"x":170431.24975400139,"y":2539815.5500000007}},{"attributes":{"ID":262424,"DIS_CODE":0,"TOWNNAME":"仁德區","LI":"仁和里","LIN":"22鄰","STREET":" ","SECT":" ","MAREA":"仁和","LANE":" ","ALLEY":" ","HOUSE_NO":"４３５號","E_COORD97":170415.20024999999,"N_COORD97":2539815.5499999998,"ADDRESS":"仁和４３５號","OBJECTID":262420},"geometry":{"x":170415.20025000162,"y":2539815.5500000007}},{"attributes":{"ID":262425,"DIS_CODE":0,"TOWNNAME":"仁德區","LI":"仁和里","LIN":"22鄰","STREET":" ","SECT":" ","MAREA":"仁和","LANE":" ","ALLEY":" ","HOUSE_NO":"４４６號","E_COORD97":170418.64321000001,"N_COORD97":2539808.5499999998,"ADDRESS":"仁和４４６號","OBJECTID":262421},"geometry":{"x":170418.64321000129,"y":2539808.5500000026}},{"attributes":{"ID":262426,"DIS_CODE":0,"TOWNNAME":"仁德區","LI":"仁德里","LIN":"3鄰","STREET":"仁中七街","SECT":" ","MAREA":" ","LANE":" ","ALLEY":" ","HOUSE_NO":"１０５號","E_COORD97":173203.579348,"N_COORD97":2540378.6401800001,"ADDRESS":"仁中七街１０５號","OBJECTID":262422},"geometry":{"x":173203.57934799977,"y":2540378.640184002}},{"attributes":{"ID":262427,"DIS_CODE":0,"TOWNNAME":"仁德區","LI":"仁德里","LIN":"3鄰","STREET":"仁中七街","SECT":" ","MAREA":" ","LANE":" ","ALLEY":" ","HOUSE_NO":"１０７號","E_COORD97":173198.60045599999,"N_COORD97":2540379.1693500001,"ADDRESS":"仁中七街１０７號","OBJECTID":262423},"geometry":{"x":173198.60045600124,"y":2540379.169350002}},{"attributes":{"ID":262428,"DIS_CODE":0,"TOWNNAME":"歸仁區","LI":"西埔里","LIN":"7鄰","STREET":"保大路","SECT":"二段","MAREA":" ","LANE":" ","ALLEY":" ","HOUSE_NO":"１６號","E_COORD97":177355.66267200001,"N_COORD97":2544123.7577800001,"ADDRESS":"保大路二段１６號","OBJECTID":262424},"geometry":{"x":177355.66267200187,"y":2544123.7577780019}},{"attributes":{"ID":262429,"DIS_CODE":0,"TOWNNAME":"歸仁區","LI":"西埔里","LIN":"2鄰","STREET":"保大路","SECT":"二段","MAREA":" ","LANE":" ","ALLEY":" ","HOUSE_NO":"１５３號","E_COORD97":176900.14688799999,"N_COORD97":2544131.5894399998,"ADDRESS":"保大路二段１５３號","OBJECTID":262425},"geometry":{"x":176900.14688799996,"y":2544131.5894410033}},{"attributes":{"ID":262430,"DIS_CODE":0,"TOWNNAME":"仁德區","LI":"一甲里","LIN":"10鄰","STREET":"中正路","SECT":"三段","MAREA":" ","LANE":" ","ALLEY":" ","HOUSE_NO":"２２６號","E_COORD97":173706.73089800001,"N_COORD97":2541875.54874,"ADDRESS":"中正路三段２２６號","OBJECTID":262426},"geometry":{"x":173706.73089799937,"y":2541875.5487430003}},{"attributes":{"ID":262431,"DIS_CODE":0,"TOWNNAME":"仁德區","LI":"一甲里","LIN":"11鄰","STREET":"忠義一街","SECT":" ","MAREA":" ","LANE":" ","ALLEY":" ","HOUSE_NO":"４５號","E_COORD97":173978.28448900001,"N_COORD97":2542014.2074699998,"ADDRESS":"忠義一街４５號","OBJECTID":262427},"geometry":{"x":173978.28448900115,"y":2542014.2074700017}},{"attributes":{"ID":262432,"DIS_CODE":0,"TOWNNAME":"仁德區","LI":"一甲里","LIN":"11鄰","STREET":"忠義一街","SECT":" ","MAREA":" ","LANE":" ","ALLEY":" ","HOUSE_NO":"６２號","E_COORD97":173814.00268100001,"N_COORD97":2541924.1698099999,"ADDRESS":"忠義一街６２號","OBJECTID":262428},"geometry":{"x":173814.00268100109,"y":2541924.1698100008}},{"attributes":{"ID":262433,"DIS_CODE":0,"TOWNNAME":"仁德區","LI":"一甲里","LIN":"11鄰","STREET":"忠義二街","SECT":" ","MAREA":" ","LANE":" ","ALLEY":" ","HOUSE_NO":"２７號１","E_COORD97":173887.53481499999,"N_COORD97":2542076.35806,"ADDRESS":"忠義二街２７號１","OBJECTID":262429},"geometry":{"x":173887.53481500223,"y":2542076.3580610007}},{"attributes":{"ID":262434,"DIS_CODE":0,"TOWNNAME":"仁德區","LI":"成功里","LIN":"1鄰","STREET":"保生東路","SECT":" ","MAREA":" ","LANE":" ","ALLEY":" ","HOUSE_NO":"９０號","E_COORD97":171221.01793,"N_COORD97":2539502.4582799999,"ADDRESS":"保生東路９０號","OBJECTID":262430},"geometry":{"x":171221.01793000102,"y":2539502.458279999}},{"attributes":{"ID":262435,"DIS_CODE":0,"TOWNNAME":"仁德區","LI":"一甲里","LIN":"12鄰","STREET":"忠義路","SECT":" ","MAREA":" ","LANE":" ","ALLEY":" ","HOUSE_NO":"３３９號","E_COORD97":173575.641814,"N_COORD97":2541868.8163999999,"ADDRESS":"忠義路３３９號","OBJECTID":262431},"geometry":{"x":173575.6418140009,"y":2541868.8164030015}},{"attributes":{"ID":262436,"DIS_CODE":0,"TOWNNAME":"仁德區","LI":"成功里","LIN":"1鄰","STREET":"保生東路","SECT":" ","MAREA":" ","LANE":" ","ALLEY":" ","HOUSE_NO":"１２０號","E_COORD97":171183.04647199999,"N_COORD97":2539545.2948699999,"ADDRESS":"保生東路１２０號","OBJECTID":262432},"geometry":{"x":171183.04647200182,"y":2539545.2948730011}},{"attributes":{"ID":262437,"DIS_CODE":0,"TOWNNAME":"仁德區","LI":"成功里","LIN":"1鄰","STREET":"保生東路","SECT":" ","MAREA":" ","LANE":" ","ALLEY":" ","HOUSE_NO":"９８號","E_COORD97":171202.953374,"N_COORD97":2539507.0652700001,"ADDRESS":"保生東路９８號","OBJECTID":262433},"geometry":{"x":171202.95337400027,"y":2539507.0652729999}},{"attributes":{"ID":262438,"DIS_CODE":0,"TOWNNAME":"仁德區","LI":"成功里","LIN":"1鄰","STREET":"保生東路","SECT":" ","MAREA":" ","LANE":" ","ALLEY":" ","HOUSE_NO":"１００號","E_COORD97":171196.81105799999,"N_COORD97":2539509.2877699998,"ADDRESS":"保生東路１００號","OBJECTID":262434},"geometry":{"x":171196.81105800159,"y":2539509.2877719998}},{"attributes":{"ID":262439,"DIS_CODE":0,"TOWNNAME":"仁德區","LI":"成功里","LIN":"1鄰","STREET":"保生東路","SECT":" ","MAREA":" ","LANE":" ","ALLEY":" ","HOUSE_NO":"１０６號","E_COORD97":171181.34936699999,"N_COORD97":2539516.8019300001,"ADDRESS":"保生東路１０６號","OBJECTID":262435},"geometry":{"x":171181.34936700109,"y":2539516.8019350022}},{"attributes":{"ID":262440,"DIS_CODE":0,"TOWNNAME":"仁德區","LI":"仁義里","LIN":"22鄰","STREET":"中山路","SECT":" ","MAREA":" ","LANE":" ","ALLEY":" ","HOUSE_NO":"４１８號","E_COORD97":173737.09,"N_COORD97":2541290.4900000002,"ADDRESS":"中山路４１８號","OBJECTID":262436},"geometry":{"x":173737.09000000171,"y":2541290.4900000002}},{"attributes":{"ID":262441,"DIS_CODE":0,"TOWNNAME":"仁德區","LI":"仁義里","LIN":"22鄰","STREET":"中山路","SECT":" ","MAREA":" ","LANE":" ","ALLEY":" ","HOUSE_NO":"４２２號","E_COORD97":173726.79999999999,"N_COORD97":2541293.2400000002,"ADDRESS":"中山路４２２號","OBJECTID":262437},"geometry":{"x":173726.79999999981,"y":2541293.2400000002}},{"attributes":{"ID":262442,"DIS_CODE":0,"TOWNNAME":"仁德區","LI":"成功里","LIN":"1鄰","STREET":"保生東路","SECT":" ","MAREA":" ","LANE":" ","ALLEY":" ","HOUSE_NO":"１２２號","E_COORD97":171183.57598200001,"N_COORD97":2539549.8456999999,"ADDRESS":"保生東路１２２號","OBJECTID":262438},"geometry":{"x":171183.57598200161,"y":2539549.8457040023}},{"attributes":{"ID":262443,"DIS_CODE":0,"TOWNNAME":"仁德區","LI":"仁義里","LIN":"22鄰","STREET":"中清一街","SECT":" ","MAREA":" ","LANE":" ","ALLEY":" ","HOUSE_NO":"３６號","E_COORD97":173647.51999999999,"N_COORD97":2541384.04,"ADDRESS":"中清一街３６號","OBJECTID":262439},"geometry":{"x":173647.52000000142,"y":2541384.0399999991}},{"attributes":{"ID":262444,"DIS_CODE":0,"TOWNNAME":"仁德區","LI":"一甲里","LIN":"12鄰","STREET":"忠義路","SECT":" ","MAREA":" ","LANE":"３４１巷","ALLEY":" ","HOUSE_NO":"１３號","E_COORD97":173575.46011000001,"N_COORD97":2541832.9627100001,"ADDRESS":"忠義路３４１巷１３號","OBJECTID":262440},"geometry":{"x":173575.46011000127,"y":2541832.9627100006}},{"attributes":{"ID":262445,"DIS_CODE":0,"TOWNNAME":"仁德區","LI":"仁和里","LIN":"22鄰","STREET":" ","SECT":" ","MAREA":"仁和","LANE":" ","ALLEY":" ","HOUSE_NO":"４３３號","E_COORD97":170408.89697999999,"N_COORD97":2539815.5499999998,"ADDRESS":"仁和４３３號","OBJECTID":262441},"geometry":{"x":170408.89697999973,"y":2539815.5500000007}},{"attributes":{"ID":262446,"DIS_CODE":0,"TOWNNAME":"仁德區","LI":"一甲里","LIN":"12鄰","STREET":"忠義路","SECT":" ","MAREA":" ","LANE":" ","ALLEY":" ","HOUSE_NO":"１５號","E_COORD97":173569.314782,"N_COORD97":2541820.6860500001,"ADDRESS":"忠義路１５號","OBJECTID":262442},"geometry":{"x":173569.31478200015,"y":2541820.6860509999}},{"attributes":{"ID":262447,"DIS_CODE":0,"TOWNNAME":"仁德區","LI":"成功里","LIN":"1鄰","STREET":"保生東路","SECT":" ","MAREA":" ","LANE":" ","ALLEY":" ","HOUSE_NO":"１０２號","E_COORD97":171180.29302000001,"N_COORD97":2539511.9071499999,"ADDRESS":"保生東路１０２號","OBJECTID":262443},"geometry":{"x":171180.29301999975,"y":2539511.9071459994}},{"attributes":{"ID":262448,"DIS_CODE":0,"TOWNNAME":"仁德區","LI":"成功里","LIN":"1鄰","STREET":"保生東路","SECT":" ","MAREA":" ","LANE":" ","ALLEY":" ","HOUSE_NO":"１０８號","E_COORD97":171180.61072600001,"N_COORD97":2539521.2733900002,"ADDRESS":"保生東路１０８號","OBJECTID":262444},"geometry":{"x":171180.61072599981,"y":2539521.2733910028}},{"attributes":{"ID":262449,"DIS_CODE":0,"TOWNNAME":"仁德區","LI":"一甲里","LIN":"12鄰","STREET":"忠義路","SECT":" ","MAREA":" ","LANE":" ","ALLEY":" ","HOUSE_NO":"１７號","E_COORD97":173563.35114000001,"N_COORD97":2541823.7314300002,"ADDRESS":"忠義路１７號","OBJECTID":262445},"geometry":{"x":173563.35113999993,"y":2541823.7314270008}},{"attributes":{"ID":262450,"DIS_CODE":0,"TOWNNAME":"歸仁區","LI":"六甲里","LIN":"31鄰","STREET":"六甲六街","SECT":" ","MAREA":" ","LANE":" ","ALLEY":" ","HOUSE_NO":"７２號","E_COORD97":175614.05946799999,"N_COORD97":2539440.0715899998,"ADDRESS":"六甲六街７２號","OBJECTID":262446},"geometry":{"x":175614.05946800113,"y":2539440.0715870019}},{"attributes":{"ID":262451,"DIS_CODE":0,"TOWNNAME":"歸仁區","LI":"六甲里","LIN":"12鄰","STREET":"六甲路","SECT":" ","MAREA":" ","LANE":" ","ALLEY":" ","HOUSE_NO":"２２９號","E_COORD97":175970.63233600001,"N_COORD97":2539195.0675499998,"ADDRESS":"六甲路２２９號","OBJECTID":262447},"geometry":{"x":175970.63233599998,"y":2539195.0675530005}},{"attributes":{"ID":262452,"DIS_CODE":0,"TOWNNAME":"歸仁區","LI":"六甲里","LIN":"18鄰","STREET":"六甲路","SECT":" ","MAREA":" ","LANE":" ","ALLEY":" ","HOUSE_NO":"３６３號","E_COORD97":175612.57639599999,"N_COORD97":2539218.98587,"ADDRESS":"六甲路３６３號","OBJECTID":262448},"geometry":{"x":175612.57639600057,"y":2539218.9858730026}},{"attributes":{"ID":262453,"DIS_CODE":0,"TOWNNAME":"歸仁區","LI":"大潭里","LIN":"3鄰","STREET":"長榮路","SECT":"一段","MAREA":" ","LANE":" ","ALLEY":" ","HOUSE_NO":"３９９號","E_COORD97":175539.25470600001,"N_COORD97":2534510.6486399998,"ADDRESS":"長榮路一段３９９號","OBJECTID":262449},"geometry":{"x":175539.25470600091,"y":2534510.6486370005}},{"attributes":{"ID":262454,"DIS_CODE":0,"TOWNNAME":"關廟區","LI":"新埔里","LIN":"2鄰","STREET":"忠孝街","SECT":" ","MAREA":" ","LANE":" ","ALLEY":" ","HOUSE_NO":"３２７號","E_COORD97":181202.01863000001,"N_COORD97":2540942.7636699998,"ADDRESS":"忠孝街３２７號","OBJECTID":262450},"geometry":{"x":181202.01863000076,"y":2540942.7636719998}},{"attributes":{"ID":262455,"DIS_CODE":0,"TOWNNAME":"關廟區","LI":"新埔里","LIN":"7鄰","STREET":"忠孝街","SECT":" ","MAREA":" ","LANE":" ","ALLEY":" ","HOUSE_NO":"３３７號","E_COORD97":181195.23871800001,"N_COORD97":2540998.85531,"ADDRESS":"忠孝街３３７號","OBJECTID":262451},"geometry":{"x":181195.2387180021,"y":2540998.8553080019}},{"attributes":{"ID":262456,"DIS_CODE":0,"TOWNNAME":"歸仁區","LI":"六甲里","LIN":"12鄰","STREET":"凱旋路","SECT":"三段","MAREA":" ","LANE":" ","ALLEY":" ","HOUSE_NO":"５０１號","E_COORD97":175329.68049999999,"N_COORD97":2538930.8547800002,"ADDRESS":"凱旋路三段５０１號","OBJECTID":262452},"geometry":{"x":175329.68050000072,"y":2538930.8547790013}},{"attributes":{"ID":262457,"DIS_CODE":0,"TOWNNAME":"關廟區","LI":"新光里","LIN":"1鄰","STREET":"新湖街","SECT":" ","MAREA":" ","LANE":" ","ALLEY":" ","HOUSE_NO":"３３２號","E_COORD97":182978.09972100001,"N_COORD97":2542964.83861,"ADDRESS":"新湖街３３２號","OBJECTID":262453},"geometry":{"x":182978.0997209996,"y":2542964.8386100009}},{"attributes":{"ID":262458,"DIS_CODE":0,"TOWNNAME":"東區","LI":"莊敬里","LIN":"1鄰","STREET":"小東路","SECT":" ","MAREA":" ","LANE":" ","ALLEY":" ","HOUSE_NO":"２４８號","E_COORD97":171007.94439799999,"N_COORD97":2544397.06354,"ADDRESS":"小東路２４８號","OBJECTID":262454},"geometry":{"x":171007.94439800084,"y":2544397.0635359995}},{"attributes":{"ID":262459,"DIS_CODE":0,"TOWNNAME":"關廟區","LI":"新光里","LIN":"1鄰","STREET":"新湖街","SECT":" ","MAREA":" ","LANE":" ","ALLEY":" ","HOUSE_NO":"３２６號","E_COORD97":182980.74812400001,"N_COORD97":2542954.4669499998,"ADDRESS":"新湖街３２６號","OBJECTID":262455},"geometry":{"x":182980.74812399969,"y":2542954.466949001}},{"attributes":{"ID":262460,"DIS_CODE":0,"TOWNNAME":"關廟區","LI":"新光里","LIN":"1鄰","STREET":"新湖街","SECT":" ","MAREA":" ","LANE":" ","ALLEY":" ","HOUSE_NO":"３２２號","E_COORD97":182966.23487499999,"N_COORD97":2542959.1236100001,"ADDRESS":"新湖街３２２號","OBJECTID":262456},"geometry":{"x":182966.23487500008,"y":2542959.1236130018}},{"attributes":{"ID":262461,"DIS_CODE":0,"TOWNNAME":"南區","LI":"府南里","LIN":"10鄰","STREET":"永成路","SECT":"三段","MAREA":" ","LANE":" ","ALLEY":" ","HOUSE_NO":"２９５號","E_COORD97":167488.56765800001,"N_COORD97":2541091.5133000002,"ADDRESS":"永成路三段２９５號","OBJECTID":262457},"geometry":{"x":167488.56765800063,"y":2541091.5133030005}},{"attributes":{"ID":262462,"DIS_CODE":0,"TOWNNAME":"仁德區","LI":"仁愛里","LIN":"22鄰","STREET":" ","SECT":" ","MAREA":"仁愛","LANE":" ","ALLEY":" ","HOUSE_NO":"４６１號","E_COORD97":170130.89000000001,"N_COORD97":2540074.77,"ADDRESS":"仁愛４６１號","OBJECTID":262458},"geometry":{"x":170130.89000000153,"y":2540074.7699999996}},{"attributes":{"ID":262463,"DIS_CODE":0,"TOWNNAME":"仁德區","LI":"仁愛里","LIN":"22鄰","STREET":" ","SECT":" ","MAREA":"仁愛","LANE":" ","ALLEY":" ","HOUSE_NO":"４６４號","E_COORD97":170131.06478700001,"N_COORD97":2540095.5499999998,"ADDRESS":"仁愛４６４號","OBJECTID":262459},"geometry":{"x":170131.06478700135,"y":2540095.5500000026}},{"attributes":{"ID":262464,"DIS_CODE":0,"TOWNNAME":"仁德區","LI":"仁和里","LIN":"22鄰","STREET":" ","SECT":" ","MAREA":"仁和","LANE":" ","ALLEY":" ","HOUSE_NO":"４３８號","E_COORD97":170424.151954,"N_COORD97":2539815.5499999998,"ADDRESS":"仁和４３８號","OBJECTID":262460},"geometry":{"x":170424.15195399988,"y":2539815.5500000007}},{"attributes":{"ID":262465,"DIS_CODE":0,"TOWNNAME":"安南區","LI":"溪北里","LIN":" ","STREET":"郡安路","SECT":"四段","MAREA":" ","LANE":" ","ALLEY":" ","HOUSE_NO":"７６號之４","E_COORD97":169069.14999999999,"N_COORD97":2547575.2200000002,"ADDRESS":"郡安路四段７６號之４","OBJECTID":262461},"geometry":{"x":169069.1500000013,"y":2547575.2200000007}},{"attributes":{"ID":262466,"DIS_CODE":0,"TOWNNAME":"官田區","LI":"官田里","LIN":"22鄰","STREET":" ","SECT":" ","MAREA":"官田","LANE":" ","ALLEY":" ","HOUSE_NO":"３４０號之１８","E_COORD97":182174.07999999999,"N_COORD97":2565070.3799999999,"ADDRESS":"官田３４０號之１８","OBJECTID":262462},"geometry":{"x":182174.08000000007,"y":2565070.379999999}},{"attributes":{"ID":262467,"DIS_CODE":0,"TOWNNAME":"安南區","LI":"溪北里","LIN":"5鄰","STREET":"安和路","SECT":"一段","MAREA":" ","LANE":" ","ALLEY":" ","HOUSE_NO":"５５號","E_COORD97":169514.78,"N_COORD97":2547495.5800000001,"ADDRESS":"安和路一段５５號","OBJECTID":262463},"geometry":{"x":169514.78000000026,"y":2547495.5800000038}},{"attributes":{"ID":262468,"DIS_CODE":0,"TOWNNAME":"仁德區","LI":"後壁里","LIN":"12鄰","STREET":"德南路","SECT":" ","MAREA":" ","LANE":" ","ALLEY":" ","HOUSE_NO":"１９７號","E_COORD97":173687.86576700001,"N_COORD97":2538525.3541299999,"ADDRESS":"德南路１９７號","OBJECTID":262464},"geometry":{"x":173687.86576700024,"y":2538525.3541289996}},{"attributes":{"ID":262469,"DIS_CODE":0,"TOWNNAME":"安南區","LI":"溪北里","LIN":"23鄰","STREET":"敦安街","SECT":" ","MAREA":" ","LANE":" ","ALLEY":" ","HOUSE_NO":"３８號","E_COORD97":169261.45000000001,"N_COORD97":2547566.1200000001,"ADDRESS":"敦安街３８號","OBJECTID":262465},"geometry":{"x":169261.45000000205,"y":2547566.120000001}},{"attributes":{"ID":262470,"DIS_CODE":0,"TOWNNAME":"官田區","LI":"官田里","LIN":"22鄰","STREET":" ","SECT":" ","MAREA":"官田","LANE":" ","ALLEY":" ","HOUSE_NO":"３４０號","E_COORD97":182213.57000000001,"N_COORD97":2565067.1499999999,"ADDRESS":"官田３４０號","OBJECTID":262466},"geometry":{"x":182213.5700000003,"y":2565067.1500000004}},{"attributes":{"ID":262471,"DIS_CODE":0,"TOWNNAME":"官田區","LI":"官田里","LIN":"22鄰","STREET":" ","SECT":" ","MAREA":"官田","LANE":" ","ALLEY":" ","HOUSE_NO":"３４１號","E_COORD97":182257.97,"N_COORD97":2565055.3500000001,"ADDRESS":"官田３４１號","OBJECTID":262467},"geometry":{"x":182257.9700000016,"y":2565055.3500000034}},{"attributes":{"ID":262472,"DIS_CODE":0,"TOWNNAME":"官田區","LI":"官田里","LIN":"22鄰","STREET":" ","SECT":" ","MAREA":"官田","LANE":" ","ALLEY":" ","HOUSE_NO":"３４２號","E_COORD97":182268.39000000001,"N_COORD97":2565075.48,"ADDRESS":"官田３４２號","OBJECTID":262468},"geometry":{"x":182268.38999999873,"y":2565075.4799999986}},{"attributes":{"ID":262473,"DIS_CODE":0,"TOWNNAME":"官田區","LI":"官田里","LIN":"22鄰","STREET":" ","SECT":" ","MAREA":"官田","LANE":" ","ALLEY":" ","HOUSE_NO":"３４３號","E_COORD97":182247.91,"N_COORD97":2565086.3199999998,"ADDRESS":"官田３４３號","OBJECTID":262469},"geometry":{"x":182247.91000000015,"y":2565086.3200000003}},{"attributes":{"ID":262474,"DIS_CODE":0,"TOWNNAME":"官田區","LI":"官田里","LIN":"22鄰","STREET":" ","SECT":" ","MAREA":"官田","LANE":" ","ALLEY":" ","HOUSE_NO":"３４４號之１","E_COORD97":182213.35000000001,"N_COORD97":2565096.7200000002,"ADDRESS":"官田３４４號之１","OBJECTID":262470},"geometry":{"x":182213.35000000056,"y":2565096.7200000007}},{"attributes":{"ID":262475,"DIS_CODE":0,"TOWNNAME":"官田區","LI":"官田里","LIN":"22鄰","STREET":" ","SECT":" ","MAREA":"官田","LANE":" ","ALLEY":" ","HOUSE_NO":"３４４號","E_COORD97":182244.29999999999,"N_COORD97":2565067.0899999999,"ADDRESS":"官田３４４號","OBJECTID":262471},"geometry":{"x":182244.30000000075,"y":2565067.0899999999}},{"attributes":{"ID":262476,"DIS_CODE":0,"TOWNNAME":"官田區","LI":"官田里","LIN":"22鄰","STREET":" ","SECT":" ","MAREA":"官田","LANE":" ","ALLEY":" ","HOUSE_NO":"３４５號","E_COORD97":182210.07999999999,"N_COORD97":2565103.4900000002,"ADDRESS":"官田３４５號","OBJECTID":262472},"geometry":{"x":182210.08000000194,"y":2565103.4900000021}},{"attributes":{"ID":262477,"DIS_CODE":0,"TOWNNAME":"官田區","LI":"官田里","LIN":"22鄰","STREET":" ","SECT":" ","MAREA":"官田","LANE":" ","ALLEY":" ","HOUSE_NO":"３４６號","E_COORD97":182206.87,"N_COORD97":2565114.8999999999,"ADDRESS":"官田３４６號","OBJECTID":262473},"geometry":{"x":182206.87000000104,"y":2565114.9000000022}},{"attributes":{"ID":262478,"DIS_CODE":0,"TOWNNAME":"官田區","LI":"官田里","LIN":"22鄰","STREET":" ","SECT":" ","MAREA":"官田","LANE":" ","ALLEY":" ","HOUSE_NO":"３４７號","E_COORD97":182237.04000000001,"N_COORD97":2565122.6899999999,"ADDRESS":"官田３４７號","OBJECTID":262474},"geometry":{"x":182237.04000000004,"y":2565122.6899999995}},{"attributes":{"ID":262479,"DIS_CODE":0,"TOWNNAME":"官田區","LI":"官田里","LIN":"22鄰","STREET":" ","SECT":" ","MAREA":"官田","LANE":" ","ALLEY":" ","HOUSE_NO":"３４８號","E_COORD97":182223.12,"N_COORD97":2565125.2999999998,"ADDRESS":"官田３４８號","OBJECTID":262475},"geometry":{"x":182223.12000000011,"y":2565125.3000000026}},{"attributes":{"ID":262480,"DIS_CODE":0,"TOWNNAME":"佳里區","LI":"建南里","LIN":"37鄰","STREET":"祥和三街","SECT":" ","MAREA":" ","LANE":" ","ALLEY":" ","HOUSE_NO":"２３２號","E_COORD97":165570.67881700001,"N_COORD97":2561244.3147499999,"ADDRESS":"祥和三街２３２號","OBJECTID":262476},"geometry":{"x":165570.6788170021,"y":2561244.3147500008}},{"attributes":{"ID":262481,"DIS_CODE":0,"TOWNNAME":"官田區","LI":"官田里","LIN":"22鄰","STREET":" ","SECT":" ","MAREA":"官田","LANE":" ","ALLEY":" ","HOUSE_NO":"３４９號","E_COORD97":182232.85999999999,"N_COORD97":2565148.21,"ADDRESS":"官田３４９號","OBJECTID":262477},"geometry":{"x":182232.86000000127,"y":2565148.2100000009}},{"attributes":{"ID":262482,"DIS_CODE":0,"TOWNNAME":"仁德區","LI":"後壁里","LIN":"12鄰","STREET":"德南路","SECT":" ","MAREA":" ","LANE":" ","ALLEY":" ","HOUSE_NO":"１９９號","E_COORD97":173691.891248,"N_COORD97":2538523.23746,"ADDRESS":"德南路１９９號","OBJECTID":262478},"geometry":{"x":173691.89124800079,"y":2538523.237463003}},{"attributes":{"ID":262483,"DIS_CODE":0,"TOWNNAME":"佳里區","LI":"建南里","LIN":"37鄰","STREET":"祥和三街","SECT":" ","MAREA":" ","LANE":" ","ALLEY":" ","HOUSE_NO":"２３０號","E_COORD97":165574.915071,"N_COORD97":2561244.1030799998,"ADDRESS":"祥和三街２３０號","OBJECTID":262479},"geometry":{"x":165574.91507100128,"y":2561244.1030829996}},{"attributes":{"ID":262484,"DIS_CODE":0,"TOWNNAME":"東區","LI":"關聖里","LIN":"22鄰","STREET":"裕和五街","SECT":" ","MAREA":" ","LANE":" ","ALLEY":" ","HOUSE_NO":"１２３號","E_COORD97":172835.20999999999,"N_COORD97":2542978.2999999998,"ADDRESS":"裕和五街１２３號","OBJECTID":262480},"geometry":{"x":172835.21000000089,"y":2542978.3000000007}},{"attributes":{"ID":262485,"DIS_CODE":0,"TOWNNAME":"東區","LI":"關聖里","LIN":"22鄰","STREET":"裕信路","SECT":" ","MAREA":" ","LANE":" ","ALLEY":" ","HOUSE_NO":"１１５號","E_COORD97":172616.76000000001,"N_COORD97":2542952.9900000002,"ADDRESS":"裕信路１１５號","OBJECTID":262481},"geometry":{"x":172616.75999999978,"y":2542952.9899999984}},{"attributes":{"ID":262486,"DIS_CODE":0,"TOWNNAME":"東區","LI":"關聖里","LIN":"22鄰","STREET":"裕信路","SECT":" ","MAREA":" ","LANE":" ","ALLEY":" ","HOUSE_NO":"１１７號","E_COORD97":172616.10999999999,"N_COORD97":2542949.1099999999,"ADDRESS":"裕信路１１７號","OBJECTID":262482},"geometry":{"x":172616.11000000127,"y":2542949.1100000013}},{"attributes":{"ID":262487,"DIS_CODE":0,"TOWNNAME":"東區","LI":"關聖里","LIN":"22鄰","STREET":"裕義路","SECT":" ","MAREA":" ","LANE":" ","ALLEY":" ","HOUSE_NO":"１６８號","E_COORD97":172868.75,"N_COORD97":2542964.4900000002,"ADDRESS":"裕義路１６８號","OBJECTID":262483},"geometry":{"x":172868.75000000093,"y":2542964.4900000021}},{"attributes":{"ID":262488,"DIS_CODE":0,"TOWNNAME":"安南區","LI":"溪頂里","LIN":"16鄰","STREET":"德安街","SECT":" ","MAREA":" ","LANE":" ","ALLEY":" ","HOUSE_NO":"３３號","E_COORD97":168649.62,"N_COORD97":2547352.5899999999,"ADDRESS":"德安街３３號","OBJECTID":262484},"geometry":{"x":168649.62000000011,"y":2547352.589999998}},{"attributes":{"ID":262489,"DIS_CODE":0,"TOWNNAME":"白河區","LI":"白河里","LIN":" ","STREET":"中正路","SECT":" ","MAREA":" ","LANE":" ","ALLEY":" ","HOUSE_NO":"１３之１０號","E_COORD97":190225.35000000001,"N_COORD97":2583090.4900000002,"ADDRESS":"中正路１３之１０號","OBJECTID":262485},"geometry":{"x":190225.34999999963,"y":2583090.4900000002}},{"attributes":{"ID":262490,"DIS_CODE":0,"TOWNNAME":"仁德區","LI":"後壁里","LIN":"12鄰","STREET":"德南路","SECT":" ","MAREA":" ","LANE":" ","ALLEY":" ","HOUSE_NO":"２０１號","E_COORD97":173695.492994,"N_COORD97":2538521.1208000001,"ADDRESS":"德南路２０１號","OBJECTID":262486},"geometry":{"x":173695.49299400114,"y":2538521.1207980011}},{"attributes":{"ID":262491,"DIS_CODE":0,"TOWNNAME":"佳里區","LI":"建南里","LIN":"37鄰","STREET":"祥和三街","SECT":" ","MAREA":" ","LANE":" ","ALLEY":" ","HOUSE_NO":"２２８號","E_COORD97":165578.93951299999,"N_COORD97":2561243.8914200002,"ADDRESS":"祥和三街２２８號","OBJECTID":262487},"geometry":{"x":165578.93951300159,"y":2561243.8914170023}},{"attributes":{"ID":262492,"DIS_CODE":0,"TOWNNAME":"仁德區","LI":"後壁里","LIN":"12鄰","STREET":"德南路","SECT":" ","MAREA":" ","LANE":" ","ALLEY":" ","HOUSE_NO":"２０５號","E_COORD97":173702.484619,"N_COORD97":2538515.6174699999,"ADDRESS":"德南路２０５號","OBJECTID":262488},"geometry":{"x":173702.48461900093,"y":2538515.6174679995}},{"attributes":{"ID":262493,"DIS_CODE":0,"TOWNNAME":"佳里區","LI":"建南里","LIN":"37鄰","STREET":"祥和三街","SECT":" ","MAREA":" ","LANE":" ","ALLEY":" ","HOUSE_NO":"２２０號","E_COORD97":165592.07190000001,"N_COORD97":2561242.4097500001,"ADDRESS":"祥和三街２２０號","OBJECTID":262489},"geometry":{"x":165592.0719000008,"y":2561242.4097509999}},{"attributes":{"ID":262494,"DIS_CODE":0,"TOWNNAME":"佳里區","LI":"建南里","LIN":"37鄰","STREET":"祥和三街","SECT":" ","MAREA":" ","LANE":" ","ALLEY":" ","HOUSE_NO":"２１８號","E_COORD97":165595.884529,"N_COORD97":2561242.6214200002,"ADDRESS":"祥和三街２１８號","OBJECTID":262490},"geometry":{"x":165595.88452900015,"y":2561242.6214170028}},{"attributes":{"ID":262495,"DIS_CODE":0,"TOWNNAME":"仁德區","LI":"後壁里","LIN":"12鄰","STREET":"德南路","SECT":" ","MAREA":" ","LANE":" ","ALLEY":" ","HOUSE_NO":"２０７號","E_COORD97":173705.66263100001,"N_COORD97":2538513.0774699999,"ADDRESS":"德南路２０７號","OBJECTID":262491},"geometry":{"x":173705.66263100132,"y":2538513.0774690006}},{"attributes":{"ID":262496,"DIS_CODE":0,"TOWNNAME":"仁德區","LI":"後壁里","LIN":"12鄰","STREET":"德南路","SECT":" ","MAREA":" ","LANE":" ","ALLEY":" ","HOUSE_NO":"２０７之１號","E_COORD97":173709.052509,"N_COORD97":2538510.74914,"ADDRESS":"德南路２０７之１號","OBJECTID":262492},"geometry":{"x":173709.05250900146,"y":2538510.7491370011}},{"attributes":{"ID":262497,"DIS_CODE":0,"TOWNNAME":"仁德區","LI":"後壁里","LIN":"12鄰","STREET":"德南路","SECT":" ","MAREA":" ","LANE":" ","ALLEY":" ","HOUSE_NO":"２０７之２號","E_COORD97":173712.654255,"N_COORD97":2538507.5741400002,"ADDRESS":"德南路２０７之２號","OBJECTID":262493},"geometry":{"x":173712.65425500087,"y":2538507.5741390027}},{"attributes":{"ID":262498,"DIS_CODE":0,"TOWNNAME":"佳里區","LI":"建南里","LIN":"37鄰","STREET":"祥和三街","SECT":" ","MAREA":" ","LANE":" ","ALLEY":" ","HOUSE_NO":"２１６號","E_COORD97":165598.36925700001,"N_COORD97":2561242.4586,"ADDRESS":"祥和三街２１６號","OBJECTID":262494},"geometry":{"x":165598.36925700121,"y":2561242.4585980009}},{"attributes":{"ID":262499,"DIS_CODE":0,"TOWNNAME":"佳里區","LI":"建南里","LIN":"37鄰","STREET":"祥和三街","SECT":" ","MAREA":" ","LANE":" ","ALLEY":" ","HOUSE_NO":"２０２號","E_COORD97":165626.43444000001,"N_COORD97":2561241.4002700001,"ADDRESS":"祥和三街２０２號","OBJECTID":262495},"geometry":{"x":165626.43444000091,"y":2561241.4002659973}},{"attributes":{"ID":262500,"DIS_CODE":0,"TOWNNAME":"佳里區","LI":"建南里","LIN":"37鄰","STREET":"祥和三街","SECT":" ","MAREA":" ","LANE":" ","ALLEY":" ","HOUSE_NO":"２０６號","E_COORD97":165620.92731,"N_COORD97":2561241.8235999998,"ADDRESS":"祥和三街２０６號","OBJECTID":262496},"geometry":{"x":165620.92731000017,"y":2561241.8235990014}},{"attributes":{"ID":262501,"DIS_CODE":0,"TOWNNAME":"佳里區","LI":"建南里","LIN":"37鄰","STREET":"祥和三街","SECT":" ","MAREA":" ","LANE":" ","ALLEY":" ","HOUSE_NO":"２０８號","E_COORD97":165615.20836700001,"N_COORD97":2561242.2469299999,"ADDRESS":"祥和三街２０８號","OBJECTID":262497},"geometry":{"x":165615.20836700127,"y":2561242.2469319999}},{"attributes":{"ID":262502,"DIS_CODE":0,"TOWNNAME":"白河區","LI":"白河里","LIN":" ","STREET":"中正路","SECT":" ","MAREA":" ","LANE":" ","ALLEY":" ","HOUSE_NO":"１３之１１號","E_COORD97":190222.03,"N_COORD97":2583091.4100000001,"ADDRESS":"中正路１３之１１號","OBJECTID":262498},"geometry":{"x":190222.03000000212,"y":2583091.4100000001}},{"attributes":{"ID":262503,"DIS_CODE":0,"TOWNNAME":"白河區","LI":"白河里","LIN":" ","STREET":"中正路","SECT":" ","MAREA":" ","LANE":" ","ALLEY":" ","HOUSE_NO":"１３之１２號","E_COORD97":190218.72,"N_COORD97":2583092.3399999999,"ADDRESS":"中正路１３之１２號","OBJECTID":262499},"geometry":{"x":190218.72000000067,"y":2583092.339999998}},{"attributes":{"ID":262504,"DIS_CODE":0,"TOWNNAME":"安南區","LI":"海南里","LIN":"12鄰","STREET":"府安路","SECT":"七段","MAREA":" ","LANE":" ","ALLEY":" ","HOUSE_NO":"４００號之１０","E_COORD97":164202.37297699999,"N_COORD97":2546230.6583599998,"ADDRESS":"府安路七段４００號之１０","OBJECTID":262500},"geometry":{"x":164202.37297700066,"y":2546230.6583549995}},{"attributes":{"ID":262505,"DIS_CODE":0,"TOWNNAME":"白河區","LI":"白河里","LIN":" ","STREET":"中正路","SECT":" ","MAREA":" ","LANE":" ","ALLEY":" ","HOUSE_NO":"１３之１３號","E_COORD97":190215.39999999999,"N_COORD97":2583093.2599999998,"ADDRESS":"中正路１３之１３號","OBJECTID":262501},"geometry":{"x":190215.40000000037,"y":2583093.2600000016}},{"attributes":{"ID":262506,"DIS_CODE":0,"TOWNNAME":"白河區","LI":"白河里","LIN":" ","STREET":"中正路","SECT":" ","MAREA":" ","LANE":" ","ALLEY":" ","HOUSE_NO":"１３之１５號","E_COORD97":190208.76000000001,"N_COORD97":2583095.1099999999,"ADDRESS":"中正路１３之１５號","OBJECTID":262502},"geometry":{"x":190208.76000000071,"y":2583095.1100000013}},{"attributes":{"ID":262507,"DIS_CODE":0,"TOWNNAME":"白河區","LI":"白河里","LIN":" ","STREET":"中正路","SECT":" ","MAREA":" ","LANE":" ","ALLEY":" ","HOUSE_NO":"１３之１６號","E_COORD97":190205.97,"N_COORD97":2583095.75,"ADDRESS":"中正路１３之１６號","OBJECTID":262503},"geometry":{"x":190205.96999999974,"y":2583095.75}},{"attributes":{"ID":262508,"DIS_CODE":0,"TOWNNAME":"白河區","LI":"白河里","LIN":" ","STREET":"中正路","SECT":" ","MAREA":" ","LANE":" ","ALLEY":" ","HOUSE_NO":"１３之３號","E_COORD97":190248.37,"N_COORD97":2583084.27,"ADDRESS":"中正路１３之３號","OBJECTID":262504},"geometry":{"x":190248.37000000197,"y":2583084.2699999996}},{"attributes":{"ID":262509,"DIS_CODE":0,"TOWNNAME":"佳里區","LI":"建南里","LIN":"37鄰","STREET":"祥和三街","SECT":" ","MAREA":" ","LANE":" ","ALLEY":" ","HOUSE_NO":"２１０號","E_COORD97":165609.64828299999,"N_COORD97":2561242.5115100001,"ADDRESS":"祥和三街２１０號","OBJECTID":262505},"geometry":{"x":165609.64828300104,"y":2561242.511514999}},{"attributes":{"ID":262510,"DIS_CODE":0,"TOWNNAME":"佳里區","LI":"建南里","LIN":"37鄰","STREET":"祥和三街","SECT":" ","MAREA":" ","LANE":" ","ALLEY":" ","HOUSE_NO":"２１２號","E_COORD97":165603.65853399999,"N_COORD97":2561242.7714999998,"ADDRESS":"祥和三街２１２號","OBJECTID":262506},"geometry":{"x":165603.6585339997,"y":2561242.771497}},{"attributes":{"ID":262511,"DIS_CODE":0,"TOWNNAME":"佳里區","LI":"建南里","LIN":"37鄰","STREET":"祥和三街","SECT":" ","MAREA":" ","LANE":" ","ALLEY":" ","HOUSE_NO":"８號","E_COORD97":165636.29956099999,"N_COORD97":2561258.1126199998,"ADDRESS":"祥和三街８號","OBJECTID":262507},"geometry":{"x":165636.29956100136,"y":2561258.1126200017}},{"attributes":{"ID":262512,"DIS_CODE":0,"TOWNNAME":"佳里區","LI":"建南里","LIN":"37鄰","STREET":"祥和三街","SECT":" ","MAREA":" ","LANE":" ","ALLEY":" ","HOUSE_NO":"１０號","E_COORD97":165635.85242400001,"N_COORD97":2561263.9213999999,"ADDRESS":"祥和三街１０號","OBJECTID":262508},"geometry":{"x":165635.85242400225,"y":2561263.9213950019}},{"attributes":{"ID":262513,"DIS_CODE":0,"TOWNNAME":"佳里區","LI":"建南里","LIN":"37鄰","STREET":"祥和三街","SECT":" ","MAREA":" ","LANE":" ","ALLEY":" ","HOUSE_NO":"１２號","E_COORD97":165635.554332,"N_COORD97":2561270.0280599999,"ADDRESS":"祥和三街１２號","OBJECTID":262509},"geometry":{"x":165635.5543320002,"y":2561270.0280550029}},{"attributes":{"ID":262514,"DIS_CODE":0,"TOWNNAME":"佳里區","LI":"建南里","LIN":"37鄰","STREET":"祥和三街","SECT":" ","MAREA":" ","LANE":" ","ALLEY":" ","HOUSE_NO":"７號","E_COORD97":165625.568264,"N_COORD97":2561264.8150499999,"ADDRESS":"祥和三街７號","OBJECTID":262510},"geometry":{"x":165625.56826400012,"y":2561264.8150520008}},{"attributes":{"ID":262515,"DIS_CODE":0,"TOWNNAME":"白河區","LI":"白河里","LIN":" ","STREET":"中正路","SECT":" ","MAREA":" ","LANE":" ","ALLEY":" ","HOUSE_NO":"１３之４號","E_COORD97":190245.04999999999,"N_COORD97":2583085.1899999999,"ADDRESS":"中正路１３之４號","OBJECTID":262511},"geometry":{"x":190245.04999999888,"y":2583085.1899999995}},{"attributes":{"ID":262516,"DIS_CODE":0,"TOWNNAME":"永康區","LI":"六合里","LIN":"2鄰","STREET":"中山南路","SECT":" ","MAREA":" ","LANE":" ","ALLEY":" ","HOUSE_NO":"２８之１號","E_COORD97":170816.76921100001,"N_COORD97":2545835.7493400001,"ADDRESS":"中山南路２８之１號","OBJECTID":262512},"geometry":{"x":170816.76921100076,"y":2545835.7493400015}},{"attributes":{"ID":262517,"DIS_CODE":0,"TOWNNAME":"仁德區","LI":"後壁里","LIN":"12鄰","STREET":"德南路","SECT":" ","MAREA":" ","LANE":" ","ALLEY":" ","HOUSE_NO":"２０３號","E_COORD97":173698.67100599999,"N_COORD97":2538517.9457999999,"ADDRESS":"德南路２０３號","OBJECTID":262513},"geometry":{"x":173698.67100599967,"y":2538517.9458000027}},{"attributes":{"ID":262518,"DIS_CODE":0,"TOWNNAME":"佳里區","LI":"建南里","LIN":"37鄰","STREET":"祥和三街","SECT":" ","MAREA":" ","LANE":" ","ALLEY":" ","HOUSE_NO":"２２６號","E_COORD97":165583.81120500001,"N_COORD97":2561243.46808,"ADDRESS":"祥和三街２２６號","OBJECTID":262514},"geometry":{"x":165583.81120500062,"y":2561243.4680829998}},{"attributes":{"ID":262519,"DIS_CODE":0,"TOWNNAME":"關廟區","LI":"田中里","LIN":"4鄰","STREET":"中大街","SECT":" ","MAREA":" ","LANE":" ","ALLEY":" ","HOUSE_NO":"１３號","E_COORD97":183787.27081799999,"N_COORD97":2533780.5213299999,"ADDRESS":"中大街１３號","OBJECTID":262515},"geometry":{"x":183787.27081799973,"y":2533780.5213290025}},{"attributes":{"ID":262520,"DIS_CODE":0,"TOWNNAME":"關廟區","LI":"田中里","LIN":"4鄰","STREET":"中大街","SECT":" ","MAREA":" ","LANE":" ","ALLEY":" ","HOUSE_NO":"３６號","E_COORD97":183880.49461200001,"N_COORD97":2533754.7509300001,"ADDRESS":"中大街３６號","OBJECTID":262516},"geometry":{"x":183880.49461199995,"y":2533754.7509260029}},{"attributes":{"ID":262521,"DIS_CODE":0,"TOWNNAME":"中西區","LI":"西湖里","LIN":"19鄰","STREET":"民權路","SECT":"四段","MAREA":" ","LANE":" ","ALLEY":" ","HOUSE_NO":"２１８號","E_COORD97":165966.17412000001,"N_COORD97":2544438.0923000001,"ADDRESS":"民權路四段２１８號","OBJECTID":262517},"geometry":{"x":165966.17412000149,"y":2544438.0923030004}},{"attributes":{"ID":262522,"DIS_CODE":0,"TOWNNAME":"關廟區","LI":"田中里","LIN":"4鄰","STREET":"中大街","SECT":" ","MAREA":" ","LANE":" ","ALLEY":" ","HOUSE_NO":"１９號","E_COORD97":183806.55119,"N_COORD97":2533781.5796599998,"ADDRESS":"中大街１９號","OBJECTID":262518},"geometry":{"x":183806.55119000096,"y":2533781.5796600021}},{"attributes":{"ID":262523,"DIS_CODE":0,"TOWNNAME":"歸仁區","LI":"西埔里","LIN":"13鄰","STREET":"西埔二街","SECT":" ","MAREA":" ","LANE":" ","ALLEY":" ","HOUSE_NO":"５０號","E_COORD97":176968.72646400001,"N_COORD97":2544791.3020199998,"ADDRESS":"西埔二街５０號","OBJECTID":262519},"geometry":{"x":176968.72646400053,"y":2544791.3020170014}},{"attributes":{"ID":262524,"DIS_CODE":0,"TOWNNAME":"歸仁區","LI":"西埔里","LIN":"13鄰","STREET":"西埔二街","SECT":" ","MAREA":" ","LANE":" ","ALLEY":" ","HOUSE_NO":"５２號","E_COORD97":176932.680662,"N_COORD97":2544770.5586999999,"ADDRESS":"西埔二街５２號","OBJECTID":262520},"geometry":{"x":176932.68066200148,"y":2544770.5586950015}},{"attributes":{"ID":262525,"DIS_CODE":0,"TOWNNAME":"中西區","LI":"西湖里","LIN":"18鄰","STREET":"湖美二街","SECT":" ","MAREA":" ","LANE":" ","ALLEY":" ","HOUSE_NO":"１２３號","E_COORD97":166132.493843,"N_COORD97":2544961.4378499999,"ADDRESS":"湖美二街１２３號","OBJECTID":262521},"geometry":{"x":166132.49384300131,"y":2544961.4378540013}},{"attributes":{"ID":262526,"DIS_CODE":0,"TOWNNAME":"仁德區","LI":"仁德里","LIN":"3鄰","STREET":"仁中七街","SECT":" ","MAREA":" ","LANE":" ","ALLEY":" ","HOUSE_NO":"８５號","E_COORD97":173248.356562,"N_COORD97":2540356.4416499999,"ADDRESS":"仁中七街８５號","OBJECTID":262522},"geometry":{"x":173248.35656199884,"y":2540356.4416540023}},{"attributes":{"ID":262527,"DIS_CODE":0,"TOWNNAME":"仁德區","LI":"仁德里","LIN":"3鄰","STREET":"仁中七街","SECT":" ","MAREA":" ","LANE":" ","ALLEY":" ","HOUSE_NO":"８３號","E_COORD97":173241.57679399999,"N_COORD97":2540356.5474899998,"ADDRESS":"仁中七街８３號","OBJECTID":262523},"geometry":{"x":173241.57679400127,"y":2540356.547487}},{"attributes":{"ID":262528,"DIS_CODE":0,"TOWNNAME":"仁德區","LI":"仁德里","LIN":"3鄰","STREET":"仁中七街","SECT":" ","MAREA":" ","LANE":" ","ALLEY":" ","HOUSE_NO":"８１號","E_COORD97":173236.703836,"N_COORD97":2540356.65332,"ADDRESS":"仁中七街８１號","OBJECTID":262524},"geometry":{"x":173236.70383599959,"y":2540356.6533209998}},{"attributes":{"ID":262529,"DIS_CODE":0,"TOWNNAME":"仁德區","LI":"仁德里","LIN":"3鄰","STREET":"仁中七街","SECT":" ","MAREA":" ","LANE":" ","ALLEY":" ","HOUSE_NO":"７９號","E_COORD97":173231.83087800001,"N_COORD97":2540356.9708199999,"ADDRESS":"仁中七街７９號","OBJECTID":262525},"geometry":{"x":173231.83087800071,"y":2540356.9708200023}},{"attributes":{"ID":262530,"DIS_CODE":0,"TOWNNAME":"仁德區","LI":"仁德里","LIN":"3鄰","STREET":"仁中七街","SECT":" ","MAREA":" ","LANE":" ","ALLEY":" ","HOUSE_NO":"７７號","E_COORD97":173227.063853,"N_COORD97":2540356.9708199999,"ADDRESS":"仁中七街７７號","OBJECTID":262526},"geometry":{"x":173227.06385300029,"y":2540356.9708200023}},{"attributes":{"ID":262531,"DIS_CODE":0,"TOWNNAME":"仁德區","LI":"仁德里","LIN":"3鄰","STREET":"仁中七街","SECT":" ","MAREA":" ","LANE":" ","ALLEY":" ","HOUSE_NO":"７５號","E_COORD97":173222.19089500001,"N_COORD97":2540357.4999899999,"ADDRESS":"仁中七街７５號","OBJECTID":262527},"geometry":{"x":173222.1908950014,"y":2540357.4999870006}},{"attributes":{"ID":262532,"DIS_CODE":0,"TOWNNAME":"仁德區","LI":"仁德里","LIN":"3鄰","STREET":"仁中七街","SECT":" ","MAREA":" ","LANE":" ","ALLEY":" ","HOUSE_NO":"５１號","E_COORD97":173166.29062499999,"N_COORD97":2540359.3256100002,"ADDRESS":"仁中七街５１號","OBJECTID":262528},"geometry":{"x":173166.2906250013,"y":2540359.3256110009}},{"attributes":{"ID":262533,"DIS_CODE":0,"TOWNNAME":"仁德區","LI":"仁德里","LIN":"3鄰","STREET":"仁中七街","SECT":" ","MAREA":" ","LANE":" ","ALLEY":" ","HOUSE_NO":"４９號","E_COORD97":173161.84140199999,"N_COORD97":2540359.6431100001,"ADDRESS":"仁中七街４９號","OBJECTID":262529},"geometry":{"x":173161.84140199982,"y":2540359.6431109998}},{"attributes":{"ID":262534,"DIS_CODE":0,"TOWNNAME":"東區","LI":"泉南里","LIN":"22鄰","STREET":"光華街","SECT":" ","MAREA":" ","LANE":" ","ALLEY":" ","HOUSE_NO":"２１０號之２","E_COORD97":169438.26000000001,"N_COORD97":2543056.5099999998,"ADDRESS":"光華街２１０號之２","OBJECTID":262530},"geometry":{"x":169438.25999999978,"y":2543056.5099999998}},{"attributes":{"ID":262535,"DIS_CODE":0,"TOWNNAME":"東區","LI":"泉南里","LIN":"22鄰","STREET":"光華街","SECT":" ","MAREA":" ","LANE":" ","ALLEY":" ","HOUSE_NO":"１８８號","E_COORD97":169457.98000000001,"N_COORD97":2543054.6699999999,"ADDRESS":"光華街１８８號","OBJECTID":262531},"geometry":{"x":169457.98000000045,"y":2543054.6700000018}},{"attributes":{"ID":262536,"DIS_CODE":0,"TOWNNAME":"安南區","LI":"海南里","LIN":"12鄰","STREET":"府安路","SECT":"七段","MAREA":" ","LANE":" ","ALLEY":" ","HOUSE_NO":"３５０號","E_COORD97":163852.046791,"N_COORD97":2545380.6054799999,"ADDRESS":"府安路七段３５０號","OBJECTID":262532},"geometry":{"x":163852.04679100029,"y":2545380.6054800022}},{"attributes":{"ID":262537,"DIS_CODE":0,"TOWNNAME":"仁德區","LI":"仁德里","LIN":"3鄰","STREET":"仁中七街","SECT":" ","MAREA":" ","LANE":" ","ALLEY":" ","HOUSE_NO":"４７號","E_COORD97":173157.21312599999,"N_COORD97":2540359.6960300002,"ADDRESS":"仁中七街４７號","OBJECTID":262533},"geometry":{"x":173157.21312600002,"y":2540359.6960270014}},{"attributes":{"ID":262538,"DIS_CODE":0,"TOWNNAME":"仁德區","LI":"仁德里","LIN":"3鄰","STREET":"仁中七街","SECT":" ","MAREA":" ","LANE":" ","ALLEY":" ","HOUSE_NO":"７號","E_COORD97":173247.15098400001,"N_COORD97":2540347.4193699998,"ADDRESS":"仁中七街７號","OBJECTID":262534},"geometry":{"x":173247.15098400135,"y":2540347.4193670023}},{"attributes":{"ID":262539,"DIS_CODE":0,"TOWNNAME":"仁德區","LI":"仁德里","LIN":"3鄰","STREET":"仁中七街","SECT":" ","MAREA":" ","LANE":" ","ALLEY":" ","HOUSE_NO":"９號","E_COORD97":173241.43055399999,"N_COORD97":2540347.8426999999,"ADDRESS":"仁中七街９號","OBJECTID":262535},"geometry":{"x":173241.43055400159,"y":2540347.8427000009}},{"attributes":{"ID":262540,"DIS_CODE":0,"TOWNNAME":"關廟區","LI":"龜洞里","LIN":"5鄰","STREET":"南橋街","SECT":" ","MAREA":" ","LANE":" ","ALLEY":" ","HOUSE_NO":"４２號","E_COORD97":182202.42725400001,"N_COORD97":2532678.6675100001,"ADDRESS":"南橋街４２號","OBJECTID":262536},"geometry":{"x":182202.42725399975,"y":2532678.667512998}},{"attributes":{"ID":262541,"DIS_CODE":0,"TOWNNAME":"新營區","LI":"民權里","LIN":"20鄰","STREET":"仁愛街","SECT":" ","MAREA":" ","LANE":" ","ALLEY":" ","HOUSE_NO":"４７之５號","E_COORD97":179755.891538,"N_COORD97":2578288.4988600002,"ADDRESS":"仁愛街４７之５號","OBJECTID":262537},"geometry":{"x":179755.89153800067,"y":2578288.4988590013}},{"attributes":{"ID":262542,"DIS_CODE":0,"TOWNNAME":"仁德區","LI":"仁德里","LIN":"3鄰","STREET":"仁中七街","SECT":" ","MAREA":" ","LANE":" ","ALLEY":" ","HOUSE_NO":"１１號","E_COORD97":173236.557596,"N_COORD97":2540348.4777000002,"ADDRESS":"仁中七街１１號","OBJECTID":262538},"geometry":{"x":173236.55759599991,"y":2540348.4777000006}},{"attributes":{"ID":262543,"DIS_CODE":0,"TOWNNAME":"仁德區","LI":"仁德里","LIN":"3鄰","STREET":"仁中七街","SECT":" ","MAREA":" ","LANE":" ","ALLEY":" ","HOUSE_NO":"１３號","E_COORD97":173231.89650599999,"N_COORD97":2540348.3718699999,"ADDRESS":"仁中七街１３號","OBJECTID":262539},"geometry":{"x":173231.89650600124,"y":2540348.3718670048}},{"attributes":{"ID":262544,"DIS_CODE":0,"TOWNNAME":"關廟區","LI":"龜洞里","LIN":"5鄰","STREET":"南橋街","SECT":" ","MAREA":" ","LANE":" ","ALLEY":" ","HOUSE_NO":"４６號","E_COORD97":182197.34231899999,"N_COORD97":2532676.9741799999,"ADDRESS":"南橋街４６號","OBJECTID":262540},"geometry":{"x":182197.34231900051,"y":2532676.9741810001}},{"attributes":{"ID":262545,"DIS_CODE":0,"TOWNNAME":"仁德區","LI":"仁德里","LIN":"3鄰","STREET":"仁中七街","SECT":" ","MAREA":" ","LANE":" ","ALLEY":" ","HOUSE_NO":"１５號","E_COORD97":173227.023548,"N_COORD97":2540348.6893699998,"ADDRESS":"仁中七街１５號","OBJECTID":262541},"geometry":{"x":173227.02354800049,"y":2540348.6893670019}},{"attributes":{"ID":262546,"DIS_CODE":0,"TOWNNAME":"東區","LI":"泉南里","LIN":"22鄰","STREET":"光華街","SECT":" ","MAREA":" ","LANE":" ","ALLEY":" ","HOUSE_NO":"１９０號","E_COORD97":169453.38,"N_COORD97":2543056.2000000002,"ADDRESS":"光華街１９０號","OBJECTID":262542},"geometry":{"x":169453.38000000082,"y":2543056.2000000011}},{"attributes":{"ID":262547,"DIS_CODE":0,"TOWNNAME":"仁德區","LI":"仁義里","LIN":"1鄰","STREET":"中山路","SECT":" ","MAREA":" ","LANE":" ","ALLEY":" ","HOUSE_NO":"２９之１號","E_COORD97":175209.40208900001,"N_COORD97":2541064.5603700001,"ADDRESS":"中山路２９之１號","OBJECTID":262543},"geometry":{"x":175209.40208899975,"y":2541064.5603739992}},{"attributes":{"ID":262548,"DIS_CODE":0,"TOWNNAME":"關廟區","LI":"龜洞里","LIN":"5鄰","STREET":"南橋街","SECT":" ","MAREA":" ","LANE":" ","ALLEY":" ","HOUSE_NO":"６０號","E_COORD97":182167.89207500001,"N_COORD97":2532667.23752,"ADDRESS":"南橋街６０號","OBJECTID":262544},"geometry":{"x":182167.89207500126,"y":2532667.2375190016}},{"attributes":{"ID":262549,"DIS_CODE":0,"TOWNNAME":"安南區","LI":"海南里","LIN":"12鄰","STREET":"府安路","SECT":"七段","MAREA":" ","LANE":" ","ALLEY":" ","HOUSE_NO":"４４０號","E_COORD97":163318.508905,"N_COORD97":2545426.7487900001,"ADDRESS":"府安路七段４４０號","OBJECTID":262545},"geometry":{"x":163318.50890499912,"y":2545426.7487890031}},{"attributes":{"ID":262550,"DIS_CODE":0,"TOWNNAME":"東區","LI":"中西里","LIN":"22鄰","STREET":"長榮路","SECT":"二段","MAREA":" ","LANE":" ","ALLEY":" ","HOUSE_NO":"１２６號","E_COORD97":170057.73999999999,"N_COORD97":2543264.4500000002,"ADDRESS":"長榮路二段１２６號","OBJECTID":262546},"geometry":{"x":170057.74000000022,"y":2543264.450000003}},{"attributes":{"ID":262551,"DIS_CODE":0,"TOWNNAME":"安南區","LI":"海南里","LIN":"12鄰","STREET":"府安路","SECT":"七段","MAREA":" ","LANE":" ","ALLEY":" ","HOUSE_NO":"４４０號之１５０","E_COORD97":163349.00888800001,"N_COORD97":2545396.9038,"ADDRESS":"府安路七段４４０號之１５０","OBJECTID":262547},"geometry":{"x":163349.00888800062,"y":2545396.9038049988}},{"attributes":{"ID":262552,"DIS_CODE":0,"TOWNNAME":"鹽水區","LI":"橋南里","LIN":"10鄰","STREET":"橋南街","SECT":" ","MAREA":" ","LANE":" ","ALLEY":" ","HOUSE_NO":"８４號","E_COORD97":175133.783066,"N_COORD97":2579396.4554900001,"ADDRESS":"橋南街８４號","OBJECTID":262548},"geometry":{"x":175133.78306600172,"y":2579396.4554940034}},{"attributes":{"ID":262553,"DIS_CODE":0,"TOWNNAME":"永康區","LI":"建國里","LIN":"15鄰","STREET":"復國路","SECT":" ","MAREA":" ","LANE":" ","ALLEY":" ","HOUSE_NO":"２１號","E_COORD97":172685.357036,"N_COORD97":2544490.1795800002,"ADDRESS":"復國路２１號","OBJECTID":262549},"geometry":{"x":172685.35703600105,"y":2544490.1795830019}},{"attributes":{"ID":262554,"DIS_CODE":0,"TOWNNAME":"安南區","LI":"海南里","LIN":"12鄰","STREET":"府安路","SECT":"七段","MAREA":" ","LANE":" ","ALLEY":" ","HOUSE_NO":"４５０號","E_COORD97":162812.92933700001,"N_COORD97":2545642.8603400001,"ADDRESS":"府安路七段４５０號","OBJECTID":262550},"geometry":{"x":162812.92933700047,"y":2545642.8603390027}},{"attributes":{"ID":262555,"DIS_CODE":0,"TOWNNAME":"安南區","LI":"海南里","LIN":"12鄰","STREET":"府安路","SECT":"七段","MAREA":" ","LANE":" ","ALLEY":" ","HOUSE_NO":"４５５號","E_COORD97":162831.56821500001,"N_COORD97":2545657.46533,"ADDRESS":"府安路七段４５５號","OBJECTID":262551},"geometry":{"x":162831.56821500137,"y":2545657.4653310012}},{"attributes":{"ID":262556,"DIS_CODE":0,"TOWNNAME":"鹽水區","LI":"橋南里","LIN":"11鄰","STREET":"橋南街","SECT":" ","MAREA":" ","LANE":" ","ALLEY":" ","HOUSE_NO":"６８號","E_COORD97":175126.15224900001,"N_COORD97":2579419.73881,"ADDRESS":"橋南街６８號","OBJECTID":262552},"geometry":{"x":175126.15224900097,"y":2579419.7388150021}},{"attributes":{"ID":262557,"DIS_CODE":0,"TOWNNAME":"仁德區","LI":"仁德里","LIN":"3鄰","STREET":"仁中七街","SECT":" ","MAREA":" ","LANE":" ","ALLEY":" ","HOUSE_NO":"３１號","E_COORD97":173187.82801500001,"N_COORD97":2540350.40283,"ADDRESS":"仁中七街３１號","OBJECTID":262553},"geometry":{"x":173187.82801500056,"y":2540350.4028329998}},{"attributes":{"ID":262558,"DIS_CODE":0,"TOWNNAME":"關廟區","LI":"龜洞里","LIN":"6鄰","STREET":"南橋街","SECT":" ","MAREA":" ","LANE":" ","ALLEY":" ","HOUSE_NO":"２１號","E_COORD97":182240.14051600001,"N_COORD97":2532663.34815,"ADDRESS":"南橋街２１號","OBJECTID":262554},"geometry":{"x":182240.14051599987,"y":2532663.3481460027}},{"attributes":{"ID":262559,"DIS_CODE":0,"TOWNNAME":"仁德區","LI":"仁德里","LIN":"3鄰","STREET":"仁中七街","SECT":" ","MAREA":" ","LANE":" ","ALLEY":" ","HOUSE_NO":"３３號","E_COORD97":173183.484726,"N_COORD97":2540350.5086699999,"ADDRESS":"仁中七街３３號","OBJECTID":262555},"geometry":{"x":173183.48472600058,"y":2540350.5086660013}},{"attributes":{"ID":262560,"DIS_CODE":0,"TOWNNAME":"安南區","LI":"海南里","LIN":"12鄰","STREET":"府安路","SECT":"七段","MAREA":" ","LANE":" ","ALLEY":" ","HOUSE_NO":"３９５號","E_COORD97":164544.43875100001,"N_COORD97":2546180.70505,"ADDRESS":"府安路七段３９５號","OBJECTID":262556},"geometry":{"x":164544.43875100091,"y":2546180.7050480023}},{"attributes":{"ID":262561,"DIS_CODE":0,"TOWNNAME":"仁德區","LI":"仁德里","LIN":"3鄰","STREET":"仁中七街","SECT":" ","MAREA":" ","LANE":" ","ALLEY":" ","HOUSE_NO":"３５號","E_COORD97":173178.71770199999,"N_COORD97":2540350.932,"ADDRESS":"仁中七街３５號","OBJECTID":262557},"geometry":{"x":173178.71770200133,"y":2540350.9319989998}},{"attributes":{"ID":262562,"DIS_CODE":0,"TOWNNAME":"關廟區","LI":"龜洞里","LIN":"6鄰","STREET":"南橋街","SECT":" ","MAREA":" ","LANE":" ","ALLEY":" ","HOUSE_NO":"２３號","E_COORD97":182235.05558099999,"N_COORD97":2532661.01981,"ADDRESS":"南橋街２３號","OBJECTID":262558},"geometry":{"x":182235.05558100063,"y":2532661.0198139995}},{"attributes":{"ID":262563,"DIS_CODE":0,"TOWNNAME":"東區","LI":"中西里","LIN":"22鄰","STREET":"長榮路","SECT":"二段","MAREA":" ","LANE":" ","ALLEY":" ","HOUSE_NO":"１２８號","E_COORD97":170061.23999999999,"N_COORD97":2543272.7400000002,"ADDRESS":"長榮路二段１２８號","OBJECTID":262559},"geometry":{"x":170061.23999999929,"y":2543272.7400000002}},{"attributes":{"ID":262564,"DIS_CODE":0,"TOWNNAME":"東區","LI":"中西里","LIN":"22鄰","STREET":"長榮路","SECT":"二段","MAREA":" ","LANE":" ","ALLEY":" ","HOUSE_NO":"１３４號","E_COORD97":170039.79000000001,"N_COORD97":2543285.2599999998,"ADDRESS":"長榮路二段１３４號","OBJECTID":262560},"geometry":{"x":170039.79000000004,"y":2543285.2599999998}},{"attributes":{"ID":262565,"DIS_CODE":0,"TOWNNAME":"東區","LI":"中西里","LIN":"22鄰","STREET":"長榮路","SECT":"二段","MAREA":" ","LANE":" ","ALLEY":" ","HOUSE_NO":"１３６號","E_COORD97":170033.72,"N_COORD97":2543289.54,"ADDRESS":"長榮路二段１３６號","OBJECTID":262561},"geometry":{"x":170033.71999999974,"y":2543289.5399999991}},{"attributes":{"ID":262566,"DIS_CODE":0,"TOWNNAME":"東區","LI":"中西里","LIN":"22鄰","STREET":"長榮路","SECT":"二段","MAREA":" ","LANE":" ","ALLEY":" ","HOUSE_NO":"１４８號","E_COORD97":170030.37,"N_COORD97":2543312.1899999999,"ADDRESS":"長榮路二段１４８號","OBJECTID":262562},"geometry":{"x":170030.37000000104,"y":2543312.1899999995}},{"attributes":{"ID":262567,"DIS_CODE":0,"TOWNNAME":"仁德區","LI":"仁德里","LIN":"3鄰","STREET":"仁中七街","SECT":" ","MAREA":" ","LANE":" ","ALLEY":" ","HOUSE_NO":"３７號","E_COORD97":173174.480347,"N_COORD97":2540351.0378299998,"ADDRESS":"仁中七街３７號","OBJECTID":262563},"geometry":{"x":173174.48034700006,"y":2540351.0378320012}},{"attributes":{"ID":262568,"DIS_CODE":0,"TOWNNAME":"東區","LI":"中西里","LIN":"22鄰","STREET":"長榮路","SECT":"二段","MAREA":" ","LANE":" ","ALLEY":" ","HOUSE_NO":"１５０號","E_COORD97":170034.09,"N_COORD97":2543315.6699999999,"ADDRESS":"長榮路二段１５０號","OBJECTID":262564},"geometry":{"x":170034.08999999985,"y":2543315.6700000018}},{"attributes":{"ID":262569,"DIS_CODE":0,"TOWNNAME":"安南區","LI":"海南里","LIN":"12鄰","STREET":"府安路","SECT":"七段","MAREA":" ","LANE":" ","ALLEY":" ","HOUSE_NO":"４４０號之３０","E_COORD97":163432.24842300001,"N_COORD97":2545361.13216,"ADDRESS":"府安路七段４４０號之３０","OBJECTID":262565},"geometry":{"x":163432.24842300173,"y":2545361.1321569998}},{"attributes":{"ID":262570,"DIS_CODE":0,"TOWNNAME":"關廟區","LI":"龜洞里","LIN":"6鄰","STREET":"南橋街","SECT":" ","MAREA":" ","LANE":" ","ALLEY":" ","HOUSE_NO":"２９號","E_COORD97":182222.55511799999,"N_COORD97":2532659.9614800001,"ADDRESS":"南橋街２９號","OBJECTID":262566},"geometry":{"x":182222.55511800107,"y":2532659.9614820015}},{"attributes":{"ID":262571,"DIS_CODE":0,"TOWNNAME":"仁德區","LI":"仁德里","LIN":"3鄰","STREET":"仁中七街","SECT":" ","MAREA":" ","LANE":" ","ALLEY":" ","HOUSE_NO":"４１號","E_COORD97":173165.79376999999,"N_COORD97":2540351.3553300002,"ADDRESS":"仁中七街４１號","OBJECTID":262567},"geometry":{"x":173165.79377000127,"y":2540351.355332002}},{"attributes":{"ID":262572,"DIS_CODE":0,"TOWNNAME":"永康區","LI":"西勢里","LIN":"22鄰","STREET":"富強路","SECT":"一段","MAREA":" ","LANE":" ","ALLEY":" ","HOUSE_NO":"２３２之６號","E_COORD97":175678.45000000001,"N_COORD97":2546416.7999999998,"ADDRESS":"富強路一段２３２之６號","OBJECTID":262568},"geometry":{"x":175678.45000000112,"y":2546416.8000000045}},{"attributes":{"ID":262573,"DIS_CODE":0,"TOWNNAME":"仁德區","LI":"仁德里","LIN":"3鄰","STREET":"仁中七街","SECT":" ","MAREA":" ","LANE":" ","ALLEY":" ","HOUSE_NO":"４３號","E_COORD97":173161.76828300001,"N_COORD97":2540351.6728300001,"ADDRESS":"仁中七街４３號","OBJECTID":262569},"geometry":{"x":173161.76828300022,"y":2540351.6728319991}},{"attributes":{"ID":262574,"DIS_CODE":0,"TOWNNAME":"關廟區","LI":"龜洞里","LIN":"6鄰","STREET":"南橋街","SECT":" ","MAREA":" ","LANE":" ","ALLEY":" ","HOUSE_NO":"３１號","E_COORD97":182213.02086600001,"N_COORD97":2532652.7648200002,"ADDRESS":"南橋街３１號","OBJECTID":262570},"geometry":{"x":182213.02086599916,"y":2532652.7648189999}},{"attributes":{"ID":262575,"DIS_CODE":0,"TOWNNAME":"永康區","LI":"西勢里","LIN":"22鄰","STREET":"富強路","SECT":"一段","MAREA":" ","LANE":" ","ALLEY":" ","HOUSE_NO":"２００號","E_COORD97":175611.84,"N_COORD97":2546371.02,"ADDRESS":"富強路一段２００號","OBJECTID":262571},"geometry":{"x":175611.83999999985,"y":2546371.0200000014}},{"attributes":{"ID":262576,"DIS_CODE":0,"TOWNNAME":"永康區","LI":"安康里","LIN":"22鄰","STREET":"中華西街","SECT":" ","MAREA":" ","LANE":" ","ALLEY":" ","HOUSE_NO":"１６０號","E_COORD97":170664.89999999999,"N_COORD97":2546235,"ADDRESS":"中華西街１６０號","OBJECTID":262572},"geometry":{"x":170664.90000000037,"y":2546235.0000000037}},{"attributes":{"ID":262577,"DIS_CODE":0,"TOWNNAME":"仁德區","LI":"仁德里","LIN":"3鄰","STREET":"仁中七街","SECT":" ","MAREA":" ","LANE":" ","ALLEY":" ","HOUSE_NO":"４５號","E_COORD97":173157.001258,"N_COORD97":2540351.8845000002,"ADDRESS":"仁中七街４５號","OBJECTID":262573},"geometry":{"x":173157.0012579998,"y":2540351.884498002}},{"attributes":{"ID":262578,"DIS_CODE":0,"TOWNNAME":"安南區","LI":"海南里","LIN":"12鄰","STREET":"府安路","SECT":"七段","MAREA":" ","LANE":" ","ALLEY":" ","HOUSE_NO":"４４０號之１０","E_COORD97":163310.460299,"N_COORD97":2545423.3621200002,"ADDRESS":"府安路七段４４０號之１０","OBJECTID":262574},"geometry":{"x":163310.46029900014,"y":2545423.3621240016}},{"attributes":{"ID":262579,"DIS_CODE":0,"TOWNNAME":"安南區","LI":"海南里","LIN":"12鄰","STREET":"府安路","SECT":"七段","MAREA":" ","LANE":" ","ALLEY":" ","HOUSE_NO":"４４０號之８０","E_COORD97":163304.10613599999,"N_COORD97":2545418.2821300002,"ADDRESS":"府安路七段４４０號之８０","OBJECTID":262575},"geometry":{"x":163304.10613599978,"y":2545418.2821270023}},{"attributes":{"ID":262580,"DIS_CODE":0,"TOWNNAME":"仁德區","LI":"仁德里","LIN":"3鄰","STREET":"仁中五街","SECT":" ","MAREA":" ","LANE":" ","ALLEY":" ","HOUSE_NO":"１２６號","E_COORD97":173233.485514,"N_COORD97":2540317.7532700002,"ADDRESS":"仁中五街１２６號","OBJECTID":262576},"geometry":{"x":173233.48551400006,"y":2540317.7532670014}},{"attributes":{"ID":262581,"DIS_CODE":0,"TOWNNAME":"安南區","LI":"海南里","LIN":"12鄰","STREET":"府安路","SECT":"七段","MAREA":" ","LANE":" ","ALLEY":" ","HOUSE_NO":"４４０之５０號","E_COORD97":163319.35612700001,"N_COORD97":2545416.3771299999,"ADDRESS":"府安路七段４４０之５０號","OBJECTID":262577},"geometry":{"x":163319.35612700228,"y":2545416.3771280032}},{"attributes":{"ID":262582,"DIS_CODE":0,"TOWNNAME":"安南區","LI":"海南里","LIN":"12鄰","STREET":"府安路","SECT":"七段","MAREA":" ","LANE":" ","ALLEY":" ","HOUSE_NO":"４３０之１０號","E_COORD97":163200.88668699999,"N_COORD97":2546014.6345199998,"ADDRESS":"府安路七段４３０之１０號","OBJECTID":262578},"geometry":{"x":163200.88668700028,"y":2546014.6345150005}},{"attributes":{"ID":262583,"DIS_CODE":0,"TOWNNAME":"永康區","LI":"安康里","LIN":"6鄰","STREET":"中華路","SECT":" ","MAREA":" ","LANE":" ","ALLEY":" ","HOUSE_NO":"７３９號","E_COORD97":170747.780077,"N_COORD97":2546472.6435600002,"ADDRESS":"中華路７３９號","OBJECTID":262579},"geometry":{"x":170747.78007700015,"y":2546472.6435640026}},{"attributes":{"ID":262584,"DIS_CODE":0,"TOWNNAME":"安南區","LI":"海南里","LIN":"12鄰","STREET":"府安路","SECT":"七段","MAREA":" ","LANE":" ","ALLEY":" ","HOUSE_NO":"３６０之５０號","E_COORD97":164376.83045099999,"N_COORD97":2545814.1862900001,"ADDRESS":"府安路七段３６０之５０號","OBJECTID":262580},"geometry":{"x":164376.83045099955,"y":2545814.1862890013}},{"attributes":{"ID":262585,"DIS_CODE":0,"TOWNNAME":"安南區","LI":"海南里","LIN":"12鄰","STREET":"府安路","SECT":"七段","MAREA":" ","LANE":" ","ALLEY":" ","HOUSE_NO":"４２５之１０號","E_COORD97":163254.68526699999,"N_COORD97":2546043.42117,"ADDRESS":"府安路七段４２５之１０號","OBJECTID":262581},"geometry":{"x":163254.68526699953,"y":2546043.4211660009}},{"attributes":{"ID":262586,"DIS_CODE":0,"TOWNNAME":"新市區","LI":"港墘里","LIN":"18鄰","STREET":"華美街","SECT":" ","MAREA":" ","LANE":" ","ALLEY":" ","HOUSE_NO":"５號之４","E_COORD97":178101.54000000001,"N_COORD97":2552714.0499999998,"ADDRESS":"華美街５號之４","OBJECTID":262582},"geometry":{"x":178101.54000000097,"y":2552714.0499999989}},{"attributes":{"ID":262587,"DIS_CODE":0,"TOWNNAME":"安平區","LI":"文平里","LIN":"23鄰","STREET":"健康一街","SECT":" ","MAREA":" ","LANE":" ","ALLEY":" ","HOUSE_NO":"９０號之３","E_COORD97":165982.78396299999,"N_COORD97":2543082.2600799999,"ADDRESS":"健康一街９０號之３","OBJECTID":262583},"geometry":{"x":165982.78396300133,"y":2543082.2600779999}},{"attributes":{"ID":262588,"DIS_CODE":0,"TOWNNAME":"安南區","LI":"海南里","LIN":"12鄰","STREET":"府安路","SECT":"七段","MAREA":" ","LANE":" ","ALLEY":" ","HOUSE_NO":"４２５之８號","E_COORD97":163254.47346199999,"N_COORD97":2546052.5228300001,"ADDRESS":"府安路七段４２５之８號","OBJECTID":262584},"geometry":{"x":163254.47346200049,"y":2546052.5228270013}},{"attributes":{"ID":262589,"DIS_CODE":0,"TOWNNAME":"南區","LI":"郡南里","LIN":"24鄰","STREET":"永成路","SECT":"三段","MAREA":" ","LANE":" ","ALLEY":" ","HOUSE_NO":"２２６號","E_COORD97":167512.73470999999,"N_COORD97":2540719.4463599999,"ADDRESS":"永成路三段２２６號","OBJECTID":262585},"geometry":{"x":167512.73471000139,"y":2540719.4463590011}},{"attributes":{"ID":262590,"DIS_CODE":0,"TOWNNAME":"南區","LI":"郡南里","LIN":"24鄰","STREET":"永成路","SECT":"三段","MAREA":" ","LANE":" ","ALLEY":" ","HOUSE_NO":"２０６號","E_COORD97":167544.28904500001,"N_COORD97":2540712.3026100001,"ADDRESS":"永成路三段２０６號","OBJECTID":262586},"geometry":{"x":167544.28904500138,"y":2540712.3026129995}},{"attributes":{"ID":262591,"DIS_CODE":0,"TOWNNAME":"南區","LI":"郡南里","LIN":"24鄰","STREET":"永成路","SECT":"三段","MAREA":" ","LANE":" ","ALLEY":" ","HOUSE_NO":"２０２號","E_COORD97":167554.56008699999,"N_COORD97":2540696.2159500001,"ADDRESS":"永成路三段２０２號","OBJECTID":262587},"geometry":{"x":167554.56008700095,"y":2540696.2159550004}},{"attributes":{"ID":262592,"DIS_CODE":0,"TOWNNAME":"南區","LI":"郡南里","LIN":"24鄰","STREET":"永成路","SECT":"三段","MAREA":" ","LANE":" ","ALLEY":" ","HOUSE_NO":"２００號","E_COORD97":167549.68928300001,"N_COORD97":2540696.85096,"ADDRESS":"永成路三段２００號","OBJECTID":262588},"geometry":{"x":167549.68928300124,"y":2540696.8509550001}},{"attributes":{"ID":262593,"DIS_CODE":0,"TOWNNAME":"關廟區","LI":"新光里","LIN":"1鄰","STREET":"新湖街","SECT":" ","MAREA":" ","LANE":" ","ALLEY":" ","HOUSE_NO":"２３８號","E_COORD97":183140.94793900001,"N_COORD97":2542512.5959899998,"ADDRESS":"新湖街２３８號","OBJECTID":262589},"geometry":{"x":183140.94793900009,"y":2542512.5959920008}},{"attributes":{"ID":262594,"DIS_CODE":0,"TOWNNAME":"南區","LI":"郡南里","LIN":"24鄰","STREET":"永成路","SECT":"三段","MAREA":" ","LANE":" ","ALLEY":" ","HOUSE_NO":"１９８號","E_COORD97":167544.712593,"N_COORD97":2540697.2742900001,"ADDRESS":"永成路三段１９８號","OBJECTID":262590},"geometry":{"x":167544.71259300038,"y":2540697.2742880024}},{"attributes":{"ID":262595,"DIS_CODE":0,"TOWNNAME":"關廟區","LI":"香洋里","LIN":"19鄰","STREET":"中央路","SECT":" ","MAREA":" ","LANE":" ","ALLEY":" ","HOUSE_NO":"１２３號","E_COORD97":181354.55732699999,"N_COORD97":2540018.1332399999,"ADDRESS":"中央路１２３號","OBJECTID":262591},"geometry":{"x":181354.55732700136,"y":2540018.1332430001}},{"attributes":{"ID":262596,"DIS_CODE":0,"TOWNNAME":"南區","LI":"郡南里","LIN":"24鄰","STREET":"永成路","SECT":"三段","MAREA":" ","LANE":" ","ALLEY":" ","HOUSE_NO":"１９６號","E_COORD97":167539.41824200001,"N_COORD97":2540697.4859500001,"ADDRESS":"永成路三段１９６號","OBJECTID":262592},"geometry":{"x":167539.41824200004,"y":2540697.4859539997}},{"attributes":{"ID":262597,"DIS_CODE":0,"TOWNNAME":"南區","LI":"郡南里","LIN":"24鄰","STREET":"永成路","SECT":"三段","MAREA":" ","LANE":" ","ALLEY":" ","HOUSE_NO":"１９２號","E_COORD97":167534.759212,"N_COORD97":2540697.9092899999,"ADDRESS":"永成路三段１９２號","OBJECTID":262593},"geometry":{"x":167534.7592120003,"y":2540697.9092870038}},{"attributes":{"ID":262598,"DIS_CODE":0,"TOWNNAME":"南區","LI":"郡南里","LIN":"24鄰","STREET":"永成路","SECT":"三段","MAREA":" ","LANE":" ","ALLEY":" ","HOUSE_NO":"１９０號","E_COORD97":167529.25308699999,"N_COORD97":2540698.2267900002,"ADDRESS":"永成路三段１９０號","OBJECTID":262594},"geometry":{"x":167529.25308699999,"y":2540698.2267870009}},{"attributes":{"ID":262599,"DIS_CODE":0,"TOWNNAME":"南區","LI":"郡南里","LIN":"24鄰","STREET":"永成路","SECT":"三段","MAREA":" ","LANE":" ","ALLEY":" ","HOUSE_NO":"１８８號","E_COORD97":167525.12349299999,"N_COORD97":2540698.1209499999,"ADDRESS":"永成路三段１８８號","OBJECTID":262595},"geometry":{"x":167525.12349299993,"y":2540698.1209539995}},{"attributes":{"ID":262600,"DIS_CODE":0,"TOWNNAME":"關廟區","LI":"香洋里","LIN":"19鄰","STREET":"中央路","SECT":" ","MAREA":" ","LANE":" ","ALLEY":" ","HOUSE_NO":"１２５號","E_COORD97":181350.849648,"N_COORD97":2540018.3978300001,"ADDRESS":"中央路１２５號","OBJECTID":262596},"geometry":{"x":181350.84964800067,"y":2540018.397826001}},{"attributes":{"ID":262601,"DIS_CODE":0,"TOWNNAME":"南區","LI":"郡南里","LIN":"24鄰","STREET":"永成路","SECT":"三段","MAREA":" ","LANE":" ","ALLEY":" ","HOUSE_NO":"１８６號","E_COORD97":167511.25229199999,"N_COORD97":2540700.7667899998,"ADDRESS":"永成路三段１８６號","OBJECTID":262597},"geometry":{"x":167511.25229200069,"y":2540700.7667859998}},{"attributes":{"ID":262602,"DIS_CODE":0,"TOWNNAME":"南區","LI":"郡南里","LIN":"24鄰","STREET":"永成路","SECT":"三段","MAREA":" ","LANE":" ","ALLEY":" ","HOUSE_NO":"１８２號","E_COORD97":167511.358179,"N_COORD97":2540696.32179,"ADDRESS":"永成路三段１８２號","OBJECTID":262598},"geometry":{"x":167511.35817900021,"y":2540696.3217880018}},{"attributes":{"ID":262603,"DIS_CODE":0,"TOWNNAME":"南區","LI":"郡南里","LIN":"24鄰","STREET":"永成路","SECT":"三段","MAREA":" ","LANE":" ","ALLEY":" ","HOUSE_NO":"１８０號","E_COORD97":167511.67584000001,"N_COORD97":2540690.6067900001,"ADDRESS":"永成路三段１８０號","OBJECTID":262599},"geometry":{"x":167511.67583999969,"y":2540690.6067910027}},{"attributes":{"ID":262604,"DIS_CODE":0,"TOWNNAME":"中西區","LI":"協和里","LIN":"1鄰","STREET":"文賢路","SECT":" ","MAREA":" ","LANE":" ","ALLEY":" ","HOUSE_NO":"１０３號","E_COORD97":167410.92369299999,"N_COORD97":2544666.2751099998,"ADDRESS":"文賢路１０３號","OBJECTID":262600},"geometry":{"x":167410.9236930022,"y":2544666.2751129996}}]}