{"displayFieldName":"TOWNNAME","fieldAliases":{"ID":"ID","DIS_CODE":"DIS_CODE","TOWNNAME":"TOWNNAME","LI":"LI","LIN":"LIN","STREET":"STREET","SECT":"SECT","MAREA":"MAREA","LANE":"LANE","ALLEY":"ALLEY","HOUSE_NO":"HOUSE_NO","E_COORD97":"E_COORD97","N_COORD97":"N_COORD97","ADDRESS":"ADDRESS","OBJECTID":"OBJECTID"},"geometryType":"esriGeometryPoint","spatialReference":{"wkid":102443,"latestWkid":3826},"fields":[{"name":"ID","type":"esriFieldTypeDouble","alias":"ID"},{"name":"DIS_CODE","type":"esriFieldTypeInteger","alias":"DIS_CODE"},{"name":"TOWNNAME","type":"esriFieldTypeString","alias":"TOWNNAME","length":8},{"name":"LI","type":"esriFieldTypeString","alias":"LI","length":8},{"name":"LIN","type":"esriFieldTypeString","alias":"LIN","length":12},{"name":"STREET","type":"esriFieldTypeString","alias":"STREET","length":20},{"name":"SECT","type":"esriFieldTypeString","alias":"SECT","length":8},{"name":"MAREA","type":"esriFieldTypeString","alias":"MAREA","length":12},{"name":"LANE","type":"esriFieldTypeString","alias":"LANE","length":10},{"name":"ALLEY","type":"esriFieldTypeString","alias":"ALLEY","length":10},{"name":"HOUSE_NO","type":"esriFieldTypeString","alias":"HOUSE_NO","length":20},{"name":"E_COORD97","type":"esriFieldTypeDouble","alias":"E_COORD97"},{"name":"N_COORD97","type":"esriFieldTypeDouble","alias":"N_COORD97"},{"name":"ADDRESS","type":"esriFieldTypeString","alias":"ADDRESS","length":50},{"name":"OBJECTID","type":"esriFieldTypeOID","alias":"OBJECTID"}],"features":[{"attributes":{"ID":396025,"DIS_CODE":0,"TOWNNAME":"仁德區","LI":"仁德里","LIN":"16鄰","STREET":"中山路","SECT":" ","MAREA":" ","LANE":"６８７巷","ALLEY":" ","HOUSE_NO":"２５號","E_COORD97":172936.09,"N_COORD97":2541336.8700000001,"ADDRESS":"中山路６８７巷２５號","OBJECTID":396001},"geometry":{"x":172936.09000000078,"y":2541336.870000001}},{"attributes":{"ID":396026,"DIS_CODE":0,"TOWNNAME":"仁德區","LI":"仁德里","LIN":"16鄰","STREET":"中山路","SECT":" ","MAREA":" ","LANE":"６８７巷","ALLEY":" ","HOUSE_NO":"２７號","E_COORD97":172936.14000000001,"N_COORD97":2541332.1499999999,"ADDRESS":"中山路６８７巷２７號","OBJECTID":396002},"geometry":{"x":172936.13999999966,"y":2541332.1500000022}},{"attributes":{"ID":396027,"DIS_CODE":0,"TOWNNAME":"仁德區","LI":"仁德里","LIN":"16鄰","STREET":"中山路","SECT":" ","MAREA":" ","LANE":"６８７巷","ALLEY":" ","HOUSE_NO":"２９號","E_COORD97":172936.51000000001,"N_COORD97":2541327.8300000001,"ADDRESS":"中山路６８７巷２９號","OBJECTID":396003},"geometry":{"x":172936.51000000071,"y":2541327.8300000019}},{"attributes":{"ID":396028,"DIS_CODE":0,"TOWNNAME":"仁德區","LI":"仁德里","LIN":"16鄰","STREET":"中山路","SECT":" ","MAREA":" ","LANE":"６８７巷","ALLEY":" ","HOUSE_NO":"３１號","E_COORD97":172936.66,"N_COORD97":2541323.3599999999,"ADDRESS":"中山路６８７巷３１號","OBJECTID":396004},"geometry":{"x":172936.66000000015,"y":2541323.3600000013}},{"attributes":{"ID":396029,"DIS_CODE":0,"TOWNNAME":"仁德區","LI":"仁德里","LIN":"16鄰","STREET":"中山路","SECT":" ","MAREA":" ","LANE":"６８７巷","ALLEY":" ","HOUSE_NO":"３３號","E_COORD97":172936.57999999999,"N_COORD97":2541318.8999999999,"ADDRESS":"中山路６８７巷３３號","OBJECTID":396005},"geometry":{"x":172936.58000000007,"y":2541318.9000000004}},{"attributes":{"ID":396030,"DIS_CODE":0,"TOWNNAME":"仁德區","LI":"仁德里","LIN":"16鄰","STREET":"中山路","SECT":" ","MAREA":" ","LANE":"６８７巷","ALLEY":" ","HOUSE_NO":"３５號","E_COORD97":172936.42999999999,"N_COORD97":2541314.5,"ADDRESS":"中山路６８７巷３５號","OBJECTID":396006},"geometry":{"x":172936.43000000063,"y":2541314.5}},{"attributes":{"ID":396031,"DIS_CODE":0,"TOWNNAME":"仁德區","LI":"仁德里","LIN":"16鄰","STREET":"中山路","SECT":" ","MAREA":" ","LANE":"６８７巷","ALLEY":" ","HOUSE_NO":"３７號","E_COORD97":172936.57999999999,"N_COORD97":2541309.8900000001,"ADDRESS":"中山路６８７巷３７號","OBJECTID":396007},"geometry":{"x":172936.58000000007,"y":2541309.8900000043}},{"attributes":{"ID":396032,"DIS_CODE":0,"TOWNNAME":"仁德區","LI":"仁德里","LIN":"16鄰","STREET":"中山路","SECT":" ","MAREA":" ","LANE":"６８７巷","ALLEY":" ","HOUSE_NO":"３９號","E_COORD97":172936.79000000001,"N_COORD97":2541305.6600000001,"ADDRESS":"中山路６８７巷３９號","OBJECTID":396008},"geometry":{"x":172936.79000000004,"y":2541305.660000002}},{"attributes":{"ID":396033,"DIS_CODE":0,"TOWNNAME":"仁德區","LI":"仁德里","LIN":"16鄰","STREET":"中山路","SECT":" ","MAREA":" ","LANE":"６８７巷","ALLEY":" ","HOUSE_NO":"３號","E_COORD97":172933.41,"N_COORD97":2541385.6400000001,"ADDRESS":"中山路６８７巷３號","OBJECTID":396009},"geometry":{"x":172933.41000000201,"y":2541385.6400000006}},{"attributes":{"ID":396034,"DIS_CODE":0,"TOWNNAME":"仁德區","LI":"仁德里","LIN":"16鄰","STREET":"中山路","SECT":" ","MAREA":" ","LANE":"６８７巷","ALLEY":" ","HOUSE_NO":"４１號","E_COORD97":172936.66,"N_COORD97":2541300.9900000002,"ADDRESS":"中山路６８７巷４１號","OBJECTID":396010},"geometry":{"x":172936.66000000015,"y":2541300.9900000002}},{"attributes":{"ID":396035,"DIS_CODE":0,"TOWNNAME":"仁德區","LI":"仁德里","LIN":"16鄰","STREET":"中山路","SECT":" ","MAREA":" ","LANE":"６８７巷","ALLEY":" ","HOUSE_NO":"４３號","E_COORD97":172936.59,"N_COORD97":2541296.5099999998,"ADDRESS":"中山路６８７巷４３號","OBJECTID":396011},"geometry":{"x":172936.58999999985,"y":2541296.5099999998}},{"attributes":{"ID":396036,"DIS_CODE":0,"TOWNNAME":"仁德區","LI":"仁德里","LIN":"16鄰","STREET":"中山路","SECT":" ","MAREA":" ","LANE":"６８７巷","ALLEY":" ","HOUSE_NO":"４５號","E_COORD97":172936.66,"N_COORD97":2541292.04,"ADDRESS":"中山路６８７巷４５號","OBJECTID":396012},"geometry":{"x":172936.66000000015,"y":2541292.040000001}},{"attributes":{"ID":396037,"DIS_CODE":0,"TOWNNAME":"仁德區","LI":"仁德里","LIN":"16鄰","STREET":"中山路","SECT":" ","MAREA":" ","LANE":"６８７巷","ALLEY":" ","HOUSE_NO":"４７號","E_COORD97":172937,"N_COORD97":2541287.9100000001,"ADDRESS":"中山路６８７巷４７號","OBJECTID":396013},"geometry":{"x":172937,"y":2541287.9100000001}},{"attributes":{"ID":396038,"DIS_CODE":0,"TOWNNAME":"仁德區","LI":"仁德里","LIN":"16鄰","STREET":"中山路","SECT":" ","MAREA":" ","LANE":"６８７巷","ALLEY":" ","HOUSE_NO":"４９號","E_COORD97":172937.45999999999,"N_COORD97":2541283.5,"ADDRESS":"中山路６８７巷４９號","OBJECTID":396014},"geometry":{"x":172937.45999999996,"y":2541283.5}},{"attributes":{"ID":396039,"DIS_CODE":0,"TOWNNAME":"仁德區","LI":"仁德里","LIN":"16鄰","STREET":"中山路","SECT":" ","MAREA":" ","LANE":"６８７巷","ALLEY":" ","HOUSE_NO":"５１號","E_COORD97":172937.17999999999,"N_COORD97":2541278.79,"ADDRESS":"中山路６８７巷５１號","OBJECTID":396015},"geometry":{"x":172937.1799999997,"y":2541278.7900000028}},{"attributes":{"ID":396040,"DIS_CODE":0,"TOWNNAME":"仁德區","LI":"仁德里","LIN":"16鄰","STREET":"中山路","SECT":" ","MAREA":" ","LANE":"６８７巷","ALLEY":" ","HOUSE_NO":"５３號","E_COORD97":172937.45999999999,"N_COORD97":2541274.4300000002,"ADDRESS":"中山路６８７巷５３號","OBJECTID":396016},"geometry":{"x":172937.45999999996,"y":2541274.4299999997}},{"attributes":{"ID":396041,"DIS_CODE":0,"TOWNNAME":"仁德區","LI":"仁德里","LIN":"16鄰","STREET":"中山路","SECT":" ","MAREA":" ","LANE":"６８７巷","ALLEY":" ","HOUSE_NO":"５５號","E_COORD97":172937.25,"N_COORD97":2541270,"ADDRESS":"中山路６８７巷５５號","OBJECTID":396017},"geometry":{"x":172937.25,"y":2541270}},{"attributes":{"ID":396042,"DIS_CODE":0,"TOWNNAME":"仁德區","LI":"仁德里","LIN":"16鄰","STREET":"中山路","SECT":" ","MAREA":" ","LANE":"６８７巷","ALLEY":" ","HOUSE_NO":"５號","E_COORD97":172933.29000000001,"N_COORD97":2541381.1099999999,"ADDRESS":"中山路６８７巷５號","OBJECTID":396018},"geometry":{"x":172933.29000000097,"y":2541381.1099999994}},{"attributes":{"ID":396043,"DIS_CODE":0,"TOWNNAME":"仁德區","LI":"仁德里","LIN":"16鄰","STREET":"中山路","SECT":" ","MAREA":" ","LANE":"６８７巷","ALLEY":" ","HOUSE_NO":"７號","E_COORD97":172933.41,"N_COORD97":2541376.6899999999,"ADDRESS":"中山路６８７巷７號","OBJECTID":396019},"geometry":{"x":172933.41000000201,"y":2541376.6899999995}},{"attributes":{"ID":396044,"DIS_CODE":0,"TOWNNAME":"仁德區","LI":"仁德里","LIN":"16鄰","STREET":"中山路","SECT":" ","MAREA":" ","LANE":"６８７巷","ALLEY":" ","HOUSE_NO":"９號","E_COORD97":172934.39000000001,"N_COORD97":2541372.5099999998,"ADDRESS":"中山路６８７巷９號","OBJECTID":396020},"geometry":{"x":172934.38999999966,"y":2541372.5099999979}},{"attributes":{"ID":396045,"DIS_CODE":0,"TOWNNAME":"下營區","LI":"後街里","LIN":"16鄰","STREET":"人和二街","SECT":" ","MAREA":" ","LANE":"５７巷","ALLEY":" ","HOUSE_NO":"１２號","E_COORD97":174535.59,"N_COORD97":2570761.3100000001,"ADDRESS":"人和二街５７巷１２號","OBJECTID":396021},"geometry":{"x":174535.59000000171,"y":2570761.3100000005}},{"attributes":{"ID":396046,"DIS_CODE":0,"TOWNNAME":"下營區","LI":"後街里","LIN":"16鄰","STREET":"人和二街","SECT":" ","MAREA":" ","LANE":"５７巷","ALLEY":" ","HOUSE_NO":"１６號","E_COORD97":174530.06,"N_COORD97":2570759.3900000001,"ADDRESS":"人和二街５７巷１６號","OBJECTID":396022},"geometry":{"x":174530.05999999959,"y":2570759.3900000025}},{"attributes":{"ID":396047,"DIS_CODE":0,"TOWNNAME":"下營區","LI":"後街里","LIN":"16鄰","STREET":"人和二街","SECT":" ","MAREA":" ","LANE":"５７巷","ALLEY":" ","HOUSE_NO":"２０號","E_COORD97":174513.59,"N_COORD97":2570756.1499999999,"ADDRESS":"人和二街５７巷２０號","OBJECTID":396023},"geometry":{"x":174513.59000000171,"y":2570756.1500000004}},{"attributes":{"ID":396048,"DIS_CODE":0,"TOWNNAME":"佳里區","LI":"安西里","LIN":"16鄰","STREET":"文化路","SECT":" ","MAREA":" ","LANE":"３００巷","ALLEY":" ","HOUSE_NO":"５號之３","E_COORD97":165469.97,"N_COORD97":2562649.6200000001,"ADDRESS":"文化路３００巷５號之３","OBJECTID":396024},"geometry":{"x":165469.96999999974,"y":2562649.620000001}},{"attributes":{"ID":396049,"DIS_CODE":0,"TOWNNAME":"佳里區","LI":"安西里","LIN":"16鄰","STREET":"文化路","SECT":" ","MAREA":" ","LANE":"３００巷","ALLEY":" ","HOUSE_NO":"５號","E_COORD97":165469.5,"N_COORD97":2562641.6600000001,"ADDRESS":"文化路３００巷５號","OBJECTID":396025},"geometry":{"x":165469.50000000093,"y":2562641.6600000001}},{"attributes":{"ID":396050,"DIS_CODE":0,"TOWNNAME":"佳里區","LI":"安西里","LIN":"16鄰","STREET":"文化路","SECT":" ","MAREA":" ","LANE":"３００巷","ALLEY":" ","HOUSE_NO":"７號之１","E_COORD97":165470.5,"N_COORD97":2562655.4500000002,"ADDRESS":"文化路３００巷７號之１","OBJECTID":396026},"geometry":{"x":165470.50000000186,"y":2562655.4500000011}},{"attributes":{"ID":396051,"DIS_CODE":0,"TOWNNAME":"佳里區","LI":"安西里","LIN":"16鄰","STREET":"文化路","SECT":" ","MAREA":" ","LANE":"３００巷","ALLEY":" ","HOUSE_NO":"７號之２","E_COORD97":165470.57000000001,"N_COORD97":2562658.2000000002,"ADDRESS":"文化路３００巷７號之２","OBJECTID":396027},"geometry":{"x":165470.57000000123,"y":2562658.1999999993}},{"attributes":{"ID":396052,"DIS_CODE":0,"TOWNNAME":"佳里區","LI":"安西里","LIN":"16鄰","STREET":"文化路","SECT":" ","MAREA":" ","LANE":"３００巷","ALLEY":" ","HOUSE_NO":"７號之３","E_COORD97":165470.75,"N_COORD97":2562661,"ADDRESS":"文化路３００巷７號之３","OBJECTID":396028},"geometry":{"x":165470.75000000093,"y":2562660.9999999981}},{"attributes":{"ID":396053,"DIS_CODE":0,"TOWNNAME":"佳里區","LI":"安西里","LIN":"16鄰","STREET":"文化路","SECT":" ","MAREA":" ","LANE":"３００巷","ALLEY":" ","HOUSE_NO":"７號","E_COORD97":165470.37,"N_COORD97":2562652.9500000002,"ADDRESS":"文化路３００巷７號","OBJECTID":396029},"geometry":{"x":165470.37000000104,"y":2562652.9499999993}},{"attributes":{"ID":396054,"DIS_CODE":0,"TOWNNAME":"永康區","LI":"復華里","LIN":"4鄰","STREET":"復國二路","SECT":" ","MAREA":" ","LANE":"２４３巷","ALLEY":" ","HOUSE_NO":"６號","E_COORD97":172984.38,"N_COORD97":2546124.8199999998,"ADDRESS":"復國二路２４３巷６號","OBJECTID":396030},"geometry":{"x":172984.38000000175,"y":2546124.8200000022}},{"attributes":{"ID":396055,"DIS_CODE":0,"TOWNNAME":"永康區","LI":"復興里","LIN":"18鄰","STREET":"復興路","SECT":" ","MAREA":" ","LANE":"３５６巷","ALLEY":" ","HOUSE_NO":"７３號","E_COORD97":172327.35999999999,"N_COORD97":2544496.8300000001,"ADDRESS":"復興路３５６巷７３號","OBJECTID":396031},"geometry":{"x":172327.36000000127,"y":2544496.8300000038}},{"attributes":{"ID":396056,"DIS_CODE":0,"TOWNNAME":"永康區","LI":"復興里","LIN":"25鄰","STREET":"復興路","SECT":" ","MAREA":" ","LANE":"４２９巷","ALLEY":" ","HOUSE_NO":"１２８號","E_COORD97":172291.41,"N_COORD97":2543775.6600000001,"ADDRESS":"復興路４２９巷１２８號","OBJECTID":396032},"geometry":{"x":172291.41000000108,"y":2543775.6599999983}},{"attributes":{"ID":396057,"DIS_CODE":0,"TOWNNAME":"永康區","LI":"網寮里","LIN":"24鄰","STREET":"永春街","SECT":" ","MAREA":" ","LANE":"３８巷","ALLEY":" ","HOUSE_NO":"３２號","E_COORD97":173814.31,"N_COORD97":2546440.96,"ADDRESS":"永春街３８巷３２號","OBJECTID":396033},"geometry":{"x":173814.30999999959,"y":2546440.9600000028}},{"attributes":{"ID":396058,"DIS_CODE":0,"TOWNNAME":"永康區","LI":"龍潭里","LIN":"44鄰","STREET":"永平街","SECT":" ","MAREA":" ","LANE":"２９８巷","ALLEY":" ","HOUSE_NO":"１５之５號","E_COORD97":174676.23999999999,"N_COORD97":2547138.7999999998,"ADDRESS":"永平街２９８巷１５之５號","OBJECTID":396034},"geometry":{"x":174676.24000000115,"y":2547138.8000000045}},{"attributes":{"ID":396059,"DIS_CODE":0,"TOWNNAME":"永康區","LI":"復國里","LIN":"21鄰","STREET":"復華六街","SECT":" ","MAREA":" ","LANE":"８１巷","ALLEY":" ","HOUSE_NO":"６號","E_COORD97":172647.41,"N_COORD97":2545808.54,"ADDRESS":"復華六街８１巷６號","OBJECTID":396035},"geometry":{"x":172647.41000000108,"y":2545808.5399999991}},{"attributes":{"ID":396060,"DIS_CODE":0,"TOWNNAME":"永康區","LI":"網寮里","LIN":"15鄰","STREET":"永和街","SECT":" ","MAREA":" ","LANE":"２８２巷","ALLEY":" ","HOUSE_NO":"１號","E_COORD97":173314.59,"N_COORD97":2546607.2400000002,"ADDRESS":"永和街２８２巷１號","OBJECTID":396036},"geometry":{"x":173314.58999999985,"y":2546607.2400000021}},{"attributes":{"ID":396061,"DIS_CODE":0,"TOWNNAME":"永康區","LI":"新樹里","LIN":"12鄰","STREET":"富強路","SECT":"二段","MAREA":" ","LANE":"７７巷","ALLEY":" ","HOUSE_NO":"３６號","E_COORD97":175575.85000000001,"N_COORD97":2546951.25,"ADDRESS":"富強路二段７７巷３６號","OBJECTID":396037},"geometry":{"x":175575.84999999963,"y":2546951.25}},{"attributes":{"ID":396062,"DIS_CODE":0,"TOWNNAME":"永康區","LI":"勝利里","LIN":"16鄰","STREET":"勝利街","SECT":" ","MAREA":" ","LANE":"１１３巷","ALLEY":" ","HOUSE_NO":"２７號","E_COORD97":171289.98999999999,"N_COORD97":2544920.5,"ADDRESS":"勝利街１１３巷２７號","OBJECTID":396038},"geometry":{"x":171289.99000000022,"y":2544920.5000000019}},{"attributes":{"ID":396063,"DIS_CODE":0,"TOWNNAME":"永康區","LI":"安康里","LIN":"16鄰","STREET":"中華路","SECT":" ","MAREA":" ","LANE":"６６１巷","ALLEY":" ","HOUSE_NO":"８５號","E_COORD97":170845.13,"N_COORD97":2546132.75,"ADDRESS":"中華路６６１巷８５號","OBJECTID":396039},"geometry":{"x":170845.13000000082,"y":2546132.7500000019}},{"attributes":{"ID":396064,"DIS_CODE":0,"TOWNNAME":"永康區","LI":"尚頂里","LIN":"16鄰","STREET":"中正南路","SECT":" ","MAREA":" ","LANE":"２２０巷","ALLEY":" ","HOUSE_NO":"３７號","E_COORD97":170248.29000000001,"N_COORD97":2547323.4900000002,"ADDRESS":"中正南路２２０巷３７號","OBJECTID":396040},"geometry":{"x":170248.29000000004,"y":2547323.4900000039}},{"attributes":{"ID":396065,"DIS_CODE":0,"TOWNNAME":"永康區","LI":"東灣里","LIN":"16鄰","STREET":"大灣三街","SECT":" ","MAREA":" ","LANE":"５４巷","ALLEY":" ","HOUSE_NO":"２６號","E_COORD97":174887.87,"N_COORD97":2544998.8300000001,"ADDRESS":"大灣三街５４巷２６號","OBJECTID":396041},"geometry":{"x":174887.87000000011,"y":2544998.8300000019}},{"attributes":{"ID":396066,"DIS_CODE":0,"TOWNNAME":"永康區","LI":"西灣里","LIN":"16鄰","STREET":"民族路","SECT":" ","MAREA":" ","LANE":"４６５巷","ALLEY":" ","HOUSE_NO":"３３號","E_COORD97":174614.10000000001,"N_COORD97":2545317.2799999998,"ADDRESS":"民族路４６５巷３３號","OBJECTID":396042},"geometry":{"x":174614.10000000056,"y":2545317.2800000012}},{"attributes":{"ID":396067,"DIS_CODE":0,"TOWNNAME":"永康區","LI":"復興里","LIN":"17鄰","STREET":"復興路","SECT":" ","MAREA":" ","LANE":"３５６巷","ALLEY":" ","HOUSE_NO":"６９號","E_COORD97":172324.64999999999,"N_COORD97":2544486.9900000002,"ADDRESS":"復興路３５６巷６９號","OBJECTID":396043},"geometry":{"x":172324.65000000037,"y":2544486.9900000021}},{"attributes":{"ID":396068,"DIS_CODE":0,"TOWNNAME":"永康區","LI":"復興里","LIN":"4鄰","STREET":"復興路","SECT":" ","MAREA":" ","LANE":"４２３巷","ALLEY":" ","HOUSE_NO":"７４號","E_COORD97":172222.70999999999,"N_COORD97":2544083.52,"ADDRESS":"復興路４２３巷７４號","OBJECTID":396044},"geometry":{"x":172222.71000000183,"y":2544083.5199999996}},{"attributes":{"ID":396069,"DIS_CODE":0,"TOWNNAME":"永康區","LI":"新樹里","LIN":"12鄰","STREET":"富強路","SECT":"二段","MAREA":" ","LANE":"５９巷","ALLEY":" ","HOUSE_NO":"１０號","E_COORD97":175636.26999999999,"N_COORD97":2546929.6699999999,"ADDRESS":"富強路二段５９巷１０號","OBJECTID":396045},"geometry":{"x":175636.27000000048,"y":2546929.6700000018}},{"attributes":{"ID":396070,"DIS_CODE":0,"TOWNNAME":"永康區","LI":"復興里","LIN":"23鄰","STREET":"復興路","SECT":" ","MAREA":" ","LANE":"２４６巷","ALLEY":" ","HOUSE_NO":"１７號","E_COORD97":172392.47,"N_COORD97":2544439.3799999999,"ADDRESS":"復興路２４６巷１７號","OBJECTID":396046},"geometry":{"x":172392.47000000067,"y":2544439.379999999}},{"attributes":{"ID":396071,"DIS_CODE":0,"TOWNNAME":"永康區","LI":"復華里","LIN":"16鄰","STREET":"復華七街","SECT":" ","MAREA":" ","LANE":"１０６巷","ALLEY":" ","HOUSE_NO":"３號","E_COORD97":172882.45000000001,"N_COORD97":2546168.5099999998,"ADDRESS":"復華七街１０６巷３號","OBJECTID":396047},"geometry":{"x":172882.45000000205,"y":2546168.5099999998}},{"attributes":{"ID":396072,"DIS_CODE":0,"TOWNNAME":"永康區","LI":"東灣里","LIN":"16鄰","STREET":"大灣三街","SECT":" ","MAREA":" ","LANE":"５４巷","ALLEY":" ","HOUSE_NO":"８號","E_COORD97":174928.92999999999,"N_COORD97":2544971.8300000001,"ADDRESS":"大灣三街５４巷８號","OBJECTID":396048},"geometry":{"x":174928.93000000063,"y":2544971.8300000019}},{"attributes":{"ID":396073,"DIS_CODE":0,"TOWNNAME":"永康區","LI":"東灣里","LIN":"16鄰","STREET":"大灣三街","SECT":" ","MAREA":" ","LANE":"５４巷","ALLEY":" ","HOUSE_NO":"２２號","E_COORD97":174896.39999999999,"N_COORD97":2544982.96,"ADDRESS":"大灣三街５４巷２２號","OBJECTID":396049},"geometry":{"x":174896.40000000037,"y":2544982.9600000028}},{"attributes":{"ID":396074,"DIS_CODE":0,"TOWNNAME":"永康區","LI":"南灣里","LIN":"16鄰","STREET":"大灣一街","SECT":" ","MAREA":" ","LANE":"１３１巷","ALLEY":" ","HOUSE_NO":"３１號","E_COORD97":174600.23000000001,"N_COORD97":2544743.6600000001,"ADDRESS":"大灣一街１３１巷３１號","OBJECTID":396050},"geometry":{"x":174600.23000000138,"y":2544743.660000002}},{"attributes":{"ID":396075,"DIS_CODE":0,"TOWNNAME":"永康區","LI":"南灣里","LIN":"16鄰","STREET":"大灣一街","SECT":" ","MAREA":" ","LANE":"１３１巷","ALLEY":" ","HOUSE_NO":"１７號","E_COORD97":174588.64000000001,"N_COORD97":2544717.7400000002,"ADDRESS":"大灣一街１３１巷１７號","OBJECTID":396051},"geometry":{"x":174588.63999999966,"y":2544717.7399999984}},{"attributes":{"ID":396076,"DIS_CODE":0,"TOWNNAME":"永康區","LI":"東灣里","LIN":"16鄰","STREET":"大灣三街","SECT":" ","MAREA":" ","LANE":"５４巷","ALLEY":" ","HOUSE_NO":"３８號","E_COORD97":174849.76999999999,"N_COORD97":2545009.0499999998,"ADDRESS":"大灣三街５４巷３８號","OBJECTID":396052},"geometry":{"x":174849.77000000048,"y":2545009.0500000026}},{"attributes":{"ID":396077,"DIS_CODE":0,"TOWNNAME":"永康區","LI":"復興里","LIN":"4鄰","STREET":"復興路","SECT":" ","MAREA":" ","LANE":"４２３巷","ALLEY":" ","HOUSE_NO":"６７號","E_COORD97":172238.37,"N_COORD97":2544275.7799999998,"ADDRESS":"復興路４２３巷６７號","OBJECTID":396053},"geometry":{"x":172238.37000000011,"y":2544275.7799999975}},{"attributes":{"ID":396078,"DIS_CODE":0,"TOWNNAME":"永康區","LI":"新樹里","LIN":"4鄰","STREET":"富強路","SECT":"二段","MAREA":" ","LANE":"３９８巷","ALLEY":" ","HOUSE_NO":"１９３號之１５","E_COORD97":176094.82999999999,"N_COORD97":2547747.1000000001,"ADDRESS":"富強路二段３９８巷１９３號之１５","OBJECTID":396054},"geometry":{"x":176094.83000000007,"y":2547747.1000000015}},{"attributes":{"ID":396079,"DIS_CODE":0,"TOWNNAME":"永康區","LI":"網寮里","LIN":"19鄰","STREET":"永二街","SECT":" ","MAREA":" ","LANE":"２１５巷","ALLEY":" ","HOUSE_NO":"９號","E_COORD97":173438.91,"N_COORD97":2546269.9199999999,"ADDRESS":"永二街２１５巷９號","OBJECTID":396055},"geometry":{"x":173438.91000000108,"y":2546269.9200000018}},{"attributes":{"ID":396080,"DIS_CODE":0,"TOWNNAME":"永康區","LI":"復華里","LIN":"16鄰","STREET":"復華七街","SECT":" ","MAREA":" ","LANE":"１０６巷","ALLEY":" ","HOUSE_NO":"６號","E_COORD97":172876.26000000001,"N_COORD97":2546150.5,"ADDRESS":"復華七街１０６巷６號","OBJECTID":396056},"geometry":{"x":172876.25999999978,"y":2546150.5000000019}},{"attributes":{"ID":396081,"DIS_CODE":0,"TOWNNAME":"佳里區","LI":"建南里","LIN":"16鄰","STREET":"光復路","SECT":" ","MAREA":" ","LANE":"６２巷","ALLEY":" ","HOUSE_NO":"１２號之１","E_COORD97":165577.76000000001,"N_COORD97":2561955.3999999999,"ADDRESS":"光復路６２巷１２號之１","OBJECTID":396057},"geometry":{"x":165577.76000000071,"y":2561955.4000000004}},{"attributes":{"ID":396082,"DIS_CODE":0,"TOWNNAME":"佳里區","LI":"建南里","LIN":"16鄰","STREET":"光復路","SECT":" ","MAREA":" ","LANE":"６２巷","ALLEY":" ","HOUSE_NO":"１２號之２","E_COORD97":165577.69,"N_COORD97":2561961.3100000001,"ADDRESS":"光復路６２巷１２號之２","OBJECTID":396058},"geometry":{"x":165577.69000000041,"y":2561961.3100000042}},{"attributes":{"ID":396083,"DIS_CODE":0,"TOWNNAME":"永康區","LI":"新樹里","LIN":"7鄰","STREET":"西勢路","SECT":" ","MAREA":" ","LANE":"２２８巷","ALLEY":" ","HOUSE_NO":"３９號","E_COORD97":175744.45000000001,"N_COORD97":2546903.0699999998,"ADDRESS":"西勢路２２８巷３９號","OBJECTID":396059},"geometry":{"x":175744.45000000112,"y":2546903.0700000022}},{"attributes":{"ID":396084,"DIS_CODE":0,"TOWNNAME":"佳里區","LI":"建南里","LIN":"16鄰","STREET":"光復路","SECT":" ","MAREA":" ","LANE":"６２巷","ALLEY":" ","HOUSE_NO":"１２號","E_COORD97":165579.10000000001,"N_COORD97":2561949.7599999998,"ADDRESS":"光復路６２巷１２號","OBJECTID":396060},"geometry":{"x":165579.09999999963,"y":2561949.7599999998}},{"attributes":{"ID":396085,"DIS_CODE":0,"TOWNNAME":"佳里區","LI":"建南里","LIN":"16鄰","STREET":"光復路","SECT":" ","MAREA":" ","LANE":"６２巷","ALLEY":" ","HOUSE_NO":"１號","E_COORD97":165568.51000000001,"N_COORD97":2561945.2000000002,"ADDRESS":"光復路６２巷１號","OBJECTID":396061},"geometry":{"x":165568.51000000164,"y":2561945.2000000011}},{"attributes":{"ID":396086,"DIS_CODE":0,"TOWNNAME":"佳里區","LI":"建南里","LIN":"16鄰","STREET":"光復路","SECT":" ","MAREA":" ","LANE":"６２巷","ALLEY":" ","HOUSE_NO":"２號之１","E_COORD97":165573.26999999999,"N_COORD97":2561931.52,"ADDRESS":"光復路６２巷２號之１","OBJECTID":396062},"geometry":{"x":165573.27000000142,"y":2561931.5200000033}},{"attributes":{"ID":396087,"DIS_CODE":0,"TOWNNAME":"佳里區","LI":"建南里","LIN":"16鄰","STREET":"光復路","SECT":" ","MAREA":" ","LANE":"６２巷","ALLEY":" ","HOUSE_NO":"２號","E_COORD97":165569.73000000001,"N_COORD97":2561928.8599999999,"ADDRESS":"光復路６２巷２號","OBJECTID":396063},"geometry":{"x":165569.73000000138,"y":2561928.8599999994}},{"attributes":{"ID":396088,"DIS_CODE":0,"TOWNNAME":"佳里區","LI":"建南里","LIN":"16鄰","STREET":"光復路","SECT":" ","MAREA":" ","LANE":"６２巷","ALLEY":" ","HOUSE_NO":"３號","E_COORD97":165567.97,"N_COORD97":2561949.8799999999,"ADDRESS":"光復路６２巷３號","OBJECTID":396064},"geometry":{"x":165567.96999999974,"y":2561949.8800000008}},{"attributes":{"ID":396089,"DIS_CODE":0,"TOWNNAME":"佳里區","LI":"建南里","LIN":"16鄰","STREET":"光復路","SECT":" ","MAREA":" ","LANE":"６２巷","ALLEY":" ","HOUSE_NO":"５號","E_COORD97":165567.35000000001,"N_COORD97":2561956.7400000002,"ADDRESS":"光復路６２巷５號","OBJECTID":396065},"geometry":{"x":165567.34999999963,"y":2561956.7400000002}},{"attributes":{"ID":396090,"DIS_CODE":0,"TOWNNAME":"佳里區","LI":"建南里","LIN":"16鄰","STREET":"光復路","SECT":" ","MAREA":" ","LANE":"６２巷","ALLEY":" ","HOUSE_NO":"６號","E_COORD97":165577.76999999999,"N_COORD97":2561929.6600000001,"ADDRESS":"光復路６２巷６號","OBJECTID":396066},"geometry":{"x":165577.76999999955,"y":2561929.6600000001}},{"attributes":{"ID":396091,"DIS_CODE":0,"TOWNNAME":"佳里區","LI":"建南里","LIN":"16鄰","STREET":"光復路","SECT":" ","MAREA":" ","LANE":"６２巷","ALLEY":" ","HOUSE_NO":"７號","E_COORD97":165566.98000000001,"N_COORD97":2561963.0600000001,"ADDRESS":"光復路６２巷７號","OBJECTID":396067},"geometry":{"x":165566.98000000045,"y":2561963.0600000042}},{"attributes":{"ID":396092,"DIS_CODE":0,"TOWNNAME":"佳里區","LI":"建南里","LIN":"16鄰","STREET":"光復路","SECT":" ","MAREA":" ","LANE":"６２巷","ALLEY":" ","HOUSE_NO":"８號","E_COORD97":165581.66,"N_COORD97":2561930.2200000002,"ADDRESS":"光復路６２巷８號","OBJECTID":396068},"geometry":{"x":165581.66000000108,"y":2561930.2200000007}},{"attributes":{"ID":396093,"DIS_CODE":0,"TOWNNAME":"佳里區","LI":"建南里","LIN":"16鄰","STREET":"光復路","SECT":" ","MAREA":" ","LANE":"６２巷","ALLEY":" ","HOUSE_NO":"９號","E_COORD97":165566.45000000001,"N_COORD97":2561969.4399999999,"ADDRESS":"光復路６２巷９號","OBJECTID":396069},"geometry":{"x":165566.45000000112,"y":2561969.4400000032}},{"attributes":{"ID":396094,"DIS_CODE":0,"TOWNNAME":"永康區","LI":"復華里","LIN":"41鄰","STREET":"復華六街","SECT":" ","MAREA":" ","LANE":"８８巷","ALLEY":" ","HOUSE_NO":"９號","E_COORD97":172647.26000000001,"N_COORD97":2545889.3100000001,"ADDRESS":"復華六街８８巷９號","OBJECTID":396070},"geometry":{"x":172647.25999999978,"y":2545889.3100000005}},{"attributes":{"ID":396095,"DIS_CODE":0,"TOWNNAME":"永康區","LI":"\u25A0行里","LIN":"8鄰","STREET":"中正一街","SECT":" ","MAREA":" ","LANE":"３２巷","ALLEY":" ","HOUSE_NO":"２號","E_COORD97":172789.64999999999,"N_COORD97":2548298.25,"ADDRESS":"中正一街３２巷２號","OBJECTID":396071},"geometry":{"x":172789.65000000224,"y":2548298.2500000019}},{"attributes":{"ID":396096,"DIS_CODE":0,"TOWNNAME":"永康區","LI":"龍潭里","LIN":"45鄰","STREET":"永平街","SECT":" ","MAREA":" ","LANE":"２３２巷","ALLEY":" ","HOUSE_NO":"１２號","E_COORD97":174658.51000000001,"N_COORD97":2547103.7400000002,"ADDRESS":"永平街２３２巷１２號","OBJECTID":396072},"geometry":{"x":174658.51000000071,"y":2547103.7400000002}},{"attributes":{"ID":396097,"DIS_CODE":0,"TOWNNAME":"安南區","LI":"淵東里","LIN":"16鄰","STREET":"智安一街","SECT":" ","MAREA":" ","LANE":"１３巷","ALLEY":" ","HOUSE_NO":"６號","E_COORD97":165629.31,"N_COORD97":2549990.5099999998,"ADDRESS":"智安一街１３巷６號","OBJECTID":396073},"geometry":{"x":165629.31000000052,"y":2549990.5099999998}},{"attributes":{"ID":396098,"DIS_CODE":0,"TOWNNAME":"東區","LI":"虎尾里","LIN":"16鄰","STREET":"東成街","SECT":" ","MAREA":" ","LANE":"５６巷","ALLEY":" ","HOUSE_NO":"３８號","E_COORD97":171380.29000000001,"N_COORD97":2542165.1899999999,"ADDRESS":"東成街５６巷３８號","OBJECTID":396074},"geometry":{"x":171380.29000000097,"y":2542165.1900000013}},{"attributes":{"ID":396099,"DIS_CODE":0,"TOWNNAME":"安南區","LI":"州南里","LIN":"16鄰","STREET":"安和路","SECT":"五段","MAREA":" ","LANE":"８４巷","ALLEY":" ","HOUSE_NO":"１２之１號","E_COORD97":169958.76999999999,"N_COORD97":2551668.5600000001,"ADDRESS":"安和路五段８４巷１２之１號","OBJECTID":396075},"geometry":{"x":169958.77000000142,"y":2551668.5600000005}},{"attributes":{"ID":396100,"DIS_CODE":0,"TOWNNAME":"安南區","LI":"淵東里","LIN":"16鄰","STREET":"安中路","SECT":"三段","MAREA":" ","LANE":"２５６巷","ALLEY":" ","HOUSE_NO":"４９號","E_COORD97":165700.76999999999,"N_COORD97":2550004.7999999998,"ADDRESS":"安中路三段２５６巷４９號","OBJECTID":396076},"geometry":{"x":165700.77000000048,"y":2550004.8000000026}},{"attributes":{"ID":396101,"DIS_CODE":0,"TOWNNAME":"永康區","LI":"龍潭里","LIN":"37鄰","STREET":"中山北路","SECT":" ","MAREA":" ","LANE":"１６４巷","ALLEY":" ","HOUSE_NO":"１２０號之１","E_COORD97":174548.23000000001,"N_COORD97":2547375.6000000001,"ADDRESS":"中山北路１６４巷１２０號之１","OBJECTID":396077},"geometry":{"x":174548.23000000045,"y":2547375.5999999996}},{"attributes":{"ID":396102,"DIS_CODE":0,"TOWNNAME":"永康區","LI":"龍潭里","LIN":"37鄰","STREET":"中山北路","SECT":" ","MAREA":" ","LANE":"１６４巷","ALLEY":" ","HOUSE_NO":"１２０號之２","E_COORD97":174548.16,"N_COORD97":2547385.1000000001,"ADDRESS":"中山北路１６４巷１２０號之２","OBJECTID":396078},"geometry":{"x":174548.16000000015,"y":2547385.0999999996}},{"attributes":{"ID":396103,"DIS_CODE":0,"TOWNNAME":"中西區","LI":"三合里","LIN":"16鄰","STREET":"文賢路","SECT":" ","MAREA":" ","LANE":"１１０巷","ALLEY":" ","HOUSE_NO":"１３號","E_COORD97":167472.88,"N_COORD97":2544677.6299999999,"ADDRESS":"文賢路１１０巷１３號","OBJECTID":396079},"geometry":{"x":167472.87999999989,"y":2544677.6300000008}},{"attributes":{"ID":396104,"DIS_CODE":0,"TOWNNAME":"中西區","LI":"三合里","LIN":"16鄰","STREET":"文賢路","SECT":" ","MAREA":" ","LANE":"１１０巷","ALLEY":" ","HOUSE_NO":"１７號","E_COORD97":167477.44,"N_COORD97":2544670.79,"ADDRESS":"文賢路１１０巷１７號","OBJECTID":396080},"geometry":{"x":167477.44000000134,"y":2544670.7899999991}},{"attributes":{"ID":396105,"DIS_CODE":0,"TOWNNAME":"中西區","LI":"三合里","LIN":"16鄰","STREET":"文賢路","SECT":" ","MAREA":" ","LANE":"１１０巷","ALLEY":" ","HOUSE_NO":"１號","E_COORD97":167453.76999999999,"N_COORD97":2544675.5099999998,"ADDRESS":"文賢路１１０巷１號","OBJECTID":396081},"geometry":{"x":167453.77000000048,"y":2544675.5100000016}},{"attributes":{"ID":396106,"DIS_CODE":0,"TOWNNAME":"中西區","LI":"三合里","LIN":"16鄰","STREET":"文賢路","SECT":" ","MAREA":" ","LANE":"１１０巷","ALLEY":" ","HOUSE_NO":"５號","E_COORD97":167459.79999999999,"N_COORD97":2544697.8399999999,"ADDRESS":"文賢路１１０巷５號","OBJECTID":396082},"geometry":{"x":167459.79999999981,"y":2544697.8400000017}},{"attributes":{"ID":396107,"DIS_CODE":0,"TOWNNAME":"中西區","LI":"三合里","LIN":"16鄰","STREET":"文賢路","SECT":" ","MAREA":" ","LANE":"１１０巷","ALLEY":" ","HOUSE_NO":"７號","E_COORD97":167464.16,"N_COORD97":2544690.71,"ADDRESS":"文賢路１１０巷７號","OBJECTID":396083},"geometry":{"x":167464.16000000015,"y":2544690.7100000009}},{"attributes":{"ID":396108,"DIS_CODE":0,"TOWNNAME":"中西區","LI":"三合里","LIN":"16鄰","STREET":"文賢路","SECT":" ","MAREA":" ","LANE":"１１０巷","ALLEY":" ","HOUSE_NO":"９號","E_COORD97":167466.35000000001,"N_COORD97":2544687.5299999998,"ADDRESS":"文賢路１１０巷９號","OBJECTID":396084},"geometry":{"x":167466.35000000149,"y":2544687.5299999993}},{"attributes":{"ID":396109,"DIS_CODE":0,"TOWNNAME":"永康區","LI":"復華里","LIN":"11鄰","STREET":"復國二路","SECT":" ","MAREA":" ","LANE":"２１５巷","ALLEY":" ","HOUSE_NO":"１４號","E_COORD97":172972.37,"N_COORD97":2546044.5099999998,"ADDRESS":"復國二路２１５巷１４號","OBJECTID":396085},"geometry":{"x":172972.37000000011,"y":2546044.5100000035}},{"attributes":{"ID":396110,"DIS_CODE":0,"TOWNNAME":"中西區","LI":"三合里","LIN":"16鄰","STREET":"成功路","SECT":" ","MAREA":" ","LANE":"４９３巷","ALLEY":" ","HOUSE_NO":"１０號","E_COORD97":167478.01000000001,"N_COORD97":2544687.04,"ADDRESS":"成功路４９３巷１０號","OBJECTID":396086},"geometry":{"x":167478.01000000071,"y":2544687.0399999991}},{"attributes":{"ID":396111,"DIS_CODE":0,"TOWNNAME":"中西區","LI":"三合里","LIN":"16鄰","STREET":"成功路","SECT":" ","MAREA":" ","LANE":"４９３巷","ALLEY":" ","HOUSE_NO":"１１號","E_COORD97":167484.01000000001,"N_COORD97":2544680.4100000001,"ADDRESS":"成功路４９３巷１１號","OBJECTID":396087},"geometry":{"x":167484.01000000164,"y":2544680.410000002}},{"attributes":{"ID":396112,"DIS_CODE":0,"TOWNNAME":"中西區","LI":"三合里","LIN":"16鄰","STREET":"成功路","SECT":" ","MAREA":" ","LANE":"４９３巷","ALLEY":" ","HOUSE_NO":"５號","E_COORD97":167497.51000000001,"N_COORD97":2544692.79,"ADDRESS":"成功路４９３巷５號","OBJECTID":396088},"geometry":{"x":167497.50999999885,"y":2544692.7900000028}},{"attributes":{"ID":396113,"DIS_CODE":0,"TOWNNAME":"中西區","LI":"三合里","LIN":"16鄰","STREET":"成功路","SECT":" ","MAREA":" ","LANE":"４９３巷","ALLEY":" ","HOUSE_NO":"７號","E_COORD97":167494,"N_COORD97":2544689.1499999999,"ADDRESS":"成功路４９３巷７號","OBJECTID":396089},"geometry":{"x":167494,"y":2544689.1500000022}},{"attributes":{"ID":396114,"DIS_CODE":0,"TOWNNAME":"東區","LI":"大同里","LIN":"16鄰","STREET":"大同路","SECT":"一段","MAREA":" ","LANE":"１５５巷","ALLEY":" ","HOUSE_NO":"２號","E_COORD97":169158.09,"N_COORD97":2542858.5099999998,"ADDRESS":"大同路一段１５５巷２號","OBJECTID":396090},"geometry":{"x":169158.08999999985,"y":2542858.5100000016}},{"attributes":{"ID":396115,"DIS_CODE":0,"TOWNNAME":"東區","LI":"大同里","LIN":"16鄰","STREET":"大同路","SECT":"一段","MAREA":" ","LANE":"１５５巷","ALLEY":" ","HOUSE_NO":"４號","E_COORD97":169168.89000000001,"N_COORD97":2542865.3599999999,"ADDRESS":"大同路一段１５５巷４號","OBJECTID":396091},"geometry":{"x":169168.8900000006,"y":2542865.3600000013}},{"attributes":{"ID":396116,"DIS_CODE":0,"TOWNNAME":"東區","LI":"大同里","LIN":"16鄰","STREET":"府連路","SECT":" ","MAREA":" ","LANE":"１６５巷","ALLEY":" ","HOUSE_NO":"１號","E_COORD97":169182.98999999999,"N_COORD97":2542854.96,"ADDRESS":"府連路１６５巷１號","OBJECTID":396092},"geometry":{"x":169182.99000000022,"y":2542854.9600000009}},{"attributes":{"ID":396117,"DIS_CODE":0,"TOWNNAME":"安南區","LI":"總頭里","LIN":"6鄰","STREET":"長溪路","SECT":"二段","MAREA":" ","LANE":"５７０巷","ALLEY":"８１弄","HOUSE_NO":"３６０號之１","E_COORD97":168836.628662,"N_COORD97":2550576.2254300001,"ADDRESS":"長溪路二段５７０巷８１弄３６０號之１","OBJECTID":396093},"geometry":{"x":168836.62866200134,"y":2550576.2254259996}},{"attributes":{"ID":396118,"DIS_CODE":0,"TOWNNAME":"東區","LI":"大同里","LIN":"16鄰","STREET":"府連路","SECT":" ","MAREA":" ","LANE":"１６５巷","ALLEY":" ","HOUSE_NO":"３號","E_COORD97":169178.79000000001,"N_COORD97":2542858.3799999999,"ADDRESS":"府連路１６５巷３號","OBJECTID":396094},"geometry":{"x":169178.79000000004,"y":2542858.3800000008}},{"attributes":{"ID":396119,"DIS_CODE":0,"TOWNNAME":"東區","LI":"大同里","LIN":"16鄰","STREET":"府連路","SECT":" ","MAREA":" ","LANE":"１６５巷","ALLEY":" ","HOUSE_NO":"５號","E_COORD97":169175.48999999999,"N_COORD97":2542860.4100000001,"ADDRESS":"府連路１６５巷５號","OBJECTID":396095},"geometry":{"x":169175.49000000115,"y":2542860.410000002}},{"attributes":{"ID":396120,"DIS_CODE":0,"TOWNNAME":"東區","LI":"大同里","LIN":"16鄰","STREET":"府連路","SECT":" ","MAREA":" ","LANE":"１６５巷","ALLEY":" ","HOUSE_NO":"７號","E_COORD97":169172.44,"N_COORD97":2542862.8199999998,"ADDRESS":"府連路１６５巷７號","OBJECTID":396096},"geometry":{"x":169172.44000000134,"y":2542862.820000004}},{"attributes":{"ID":396121,"DIS_CODE":0,"TOWNNAME":"東區","LI":"大同里","LIN":"16鄰","STREET":"府連路","SECT":" ","MAREA":" ","LANE":"１６６巷","ALLEY":" ","HOUSE_NO":"１０號","E_COORD97":169203.07999999999,"N_COORD97":2542786.5,"ADDRESS":"府連路１６６巷１０號","OBJECTID":396097},"geometry":{"x":169203.08000000101,"y":2542786.4999999981}},{"attributes":{"ID":396122,"DIS_CODE":0,"TOWNNAME":"東區","LI":"大同里","LIN":"16鄰","STREET":"府連路","SECT":" ","MAREA":" ","LANE":"１６６巷","ALLEY":" ","HOUSE_NO":"２號","E_COORD97":169198.64000000001,"N_COORD97":2542804.1000000001,"ADDRESS":"府連路１６６巷２號","OBJECTID":396098},"geometry":{"x":169198.64000000153,"y":2542804.1000000015}},{"attributes":{"ID":396123,"DIS_CODE":0,"TOWNNAME":"東區","LI":"大同里","LIN":"16鄰","STREET":"府連路","SECT":" ","MAREA":" ","LANE":"１６６巷","ALLEY":" ","HOUSE_NO":"６號","E_COORD97":169199.78,"N_COORD97":2542795.8700000001,"ADDRESS":"府連路１６６巷６號","OBJECTID":396099},"geometry":{"x":169199.78000000026,"y":2542795.8700000029}},{"attributes":{"ID":396124,"DIS_CODE":0,"TOWNNAME":"東區","LI":"大同里","LIN":"16鄰","STREET":"府連路","SECT":" ","MAREA":" ","LANE":"１６６巷","ALLEY":" ","HOUSE_NO":"８號","E_COORD97":169201.42999999999,"N_COORD97":2542791.4300000002,"ADDRESS":"府連路１６６巷８號","OBJECTID":396100},"geometry":{"x":169201.4299999997,"y":2542791.4300000016}},{"attributes":{"ID":396125,"DIS_CODE":0,"TOWNNAME":"永康區","LI":"復興里","LIN":"4鄰","STREET":"復興路","SECT":" ","MAREA":" ","LANE":"４２３巷","ALLEY":" ","HOUSE_NO":"６６號","E_COORD97":172222.10000000001,"N_COORD97":2544115.27,"ADDRESS":"復興路４２３巷６６號","OBJECTID":396101},"geometry":{"x":172222.10000000056,"y":2544115.2699999996}},{"attributes":{"ID":396126,"DIS_CODE":0,"TOWNNAME":"永康區","LI":"復興里","LIN":"16鄰","STREET":"復興路","SECT":" ","MAREA":" ","LANE":"３５６巷","ALLEY":" ","HOUSE_NO":"３９號","E_COORD97":172292.76999999999,"N_COORD97":2544440.7799999998,"ADDRESS":"復興路３５６巷３９號","OBJECTID":396102},"geometry":{"x":172292.76999999955,"y":2544440.7799999993}},{"attributes":{"ID":396127,"DIS_CODE":0,"TOWNNAME":"永康區","LI":"龍潭里","LIN":"38鄰","STREET":"中山北路","SECT":" ","MAREA":" ","LANE":"１６４巷","ALLEY":" ","HOUSE_NO":"４８號","E_COORD97":174334.59,"N_COORD97":2547391.8799999999,"ADDRESS":"中山北路１６４巷４８號","OBJECTID":396103},"geometry":{"x":174334.59000000078,"y":2547391.8800000008}},{"attributes":{"ID":396128,"DIS_CODE":0,"TOWNNAME":"永康區","LI":"龍潭里","LIN":"38鄰","STREET":"中山北路","SECT":" ","MAREA":" ","LANE":"１６４巷","ALLEY":" ","HOUSE_NO":"５０號","E_COORD97":174338.92000000001,"N_COORD97":2547391.9300000002,"ADDRESS":"中山北路１６４巷５０號","OBJECTID":396104},"geometry":{"x":174338.92000000086,"y":2547391.9300000016}},{"attributes":{"ID":396129,"DIS_CODE":0,"TOWNNAME":"永康區","LI":"網寮里","LIN":"20鄰","STREET":"永二街","SECT":" ","MAREA":" ","LANE":"２４５巷","ALLEY":" ","HOUSE_NO":"２７號之２","E_COORD97":173326.67999999999,"N_COORD97":2546137.1200000001,"ADDRESS":"永二街２４５巷２７號之２","OBJECTID":396105},"geometry":{"x":173326.68000000063,"y":2546137.1200000029}},{"attributes":{"ID":396130,"DIS_CODE":0,"TOWNNAME":"永康區","LI":"網寮里","LIN":"24鄰","STREET":"永春街","SECT":" ","MAREA":" ","LANE":"３８巷","ALLEY":" ","HOUSE_NO":"１２號","E_COORD97":173769.22,"N_COORD97":2546423.6499999999,"ADDRESS":"永春街３８巷１２號","OBJECTID":396106},"geometry":{"x":173769.21999999974,"y":2546423.6500000004}},{"attributes":{"ID":396131,"DIS_CODE":0,"TOWNNAME":"永康區","LI":"復國里","LIN":"21鄰","STREET":"復華六街","SECT":" ","MAREA":" ","LANE":"８１巷","ALLEY":" ","HOUSE_NO":"１號","E_COORD97":172656.82999999999,"N_COORD97":2545819.3599999999,"ADDRESS":"復華六街８１巷１號","OBJECTID":396107},"geometry":{"x":172656.83000000007,"y":2545819.3600000013}},{"attributes":{"ID":396132,"DIS_CODE":0,"TOWNNAME":"永康區","LI":"龍潭里","LIN":"14鄰","STREET":"龍安街","SECT":" ","MAREA":" ","LANE":"８９巷","ALLEY":" ","HOUSE_NO":"２號","E_COORD97":174578.01999999999,"N_COORD97":2548310.9399999999,"ADDRESS":"龍安街８９巷２號","OBJECTID":396108},"geometry":{"x":174578.01999999862,"y":2548310.9400000013}},{"attributes":{"ID":396133,"DIS_CODE":0,"TOWNNAME":"永康區","LI":"網寮里","LIN":"15鄰","STREET":"永和街","SECT":" ","MAREA":" ","LANE":"２８２巷","ALLEY":" ","HOUSE_NO":"８號","E_COORD97":173329.17999999999,"N_COORD97":2546613.5,"ADDRESS":"永和街２８２巷８號","OBJECTID":396109},"geometry":{"x":173329.1799999997,"y":2546613.5}},{"attributes":{"ID":396134,"DIS_CODE":0,"TOWNNAME":"永康區","LI":"新樹里","LIN":"12鄰","STREET":"富強路","SECT":"二段","MAREA":" ","LANE":"７７巷","ALLEY":" ","HOUSE_NO":"３０號","E_COORD97":175596.60999999999,"N_COORD97":2546952.75,"ADDRESS":"富強路二段７７巷３０號","OBJECTID":396110},"geometry":{"x":175596.61000000034,"y":2546952.7500000019}},{"attributes":{"ID":396135,"DIS_CODE":0,"TOWNNAME":"永康區","LI":"網寮里","LIN":"21鄰","STREET":"文化路","SECT":" ","MAREA":" ","LANE":"２４２巷","ALLEY":" ","HOUSE_NO":"３０之１６號","E_COORD97":173572.53,"N_COORD97":2546192.0299999998,"ADDRESS":"文化路２４２巷３０之１６號","OBJECTID":396111},"geometry":{"x":173572.53000000119,"y":2546192.0299999993}},{"attributes":{"ID":396136,"DIS_CODE":0,"TOWNNAME":"永康區","LI":"網寮里","LIN":"23鄰","STREET":"永春街","SECT":" ","MAREA":" ","LANE":"１２巷","ALLEY":" ","HOUSE_NO":"１６號","E_COORD97":173828.57999999999,"N_COORD97":2546248.9300000002,"ADDRESS":"永春街１２巷１６號","OBJECTID":396112},"geometry":{"x":173828.58000000007,"y":2546248.9300000016}},{"attributes":{"ID":396137,"DIS_CODE":0,"TOWNNAME":"永康區","LI":"復華里","LIN":"11鄰","STREET":"復國二路","SECT":" ","MAREA":" ","LANE":"２４３巷","ALLEY":" ","HOUSE_NO":"１９號","E_COORD97":172973.69,"N_COORD97":2546107.77,"ADDRESS":"復國二路２４３巷１９號","OBJECTID":396113},"geometry":{"x":172973.69000000041,"y":2546107.7700000014}},{"attributes":{"ID":396138,"DIS_CODE":0,"TOWNNAME":"永康區","LI":"復華里","LIN":"34鄰","STREET":"復國一路","SECT":" ","MAREA":" ","LANE":"４７５巷","ALLEY":" ","HOUSE_NO":"８號","E_COORD97":172576.75,"N_COORD97":2546123.2599999998,"ADDRESS":"復國一路４７５巷８號","OBJECTID":396114},"geometry":{"x":172576.75000000186,"y":2546123.2599999998}},{"attributes":{"ID":396139,"DIS_CODE":0,"TOWNNAME":"永康區","LI":"復興里","LIN":"15鄰","STREET":"復興路","SECT":" ","MAREA":" ","LANE":"３５６巷","ALLEY":" ","HOUSE_NO":"１５號","E_COORD97":172242.70999999999,"N_COORD97":2544381.7799999998,"ADDRESS":"復興路３５６巷１５號","OBJECTID":396115},"geometry":{"x":172242.70999999996,"y":2544381.7800000012}},{"attributes":{"ID":396140,"DIS_CODE":0,"TOWNNAME":"永康區","LI":"網寮里","LIN":"21鄰","STREET":"文化路","SECT":" ","MAREA":" ","LANE":"２７９巷","ALLEY":" ","HOUSE_NO":"２號","E_COORD97":173518.09,"N_COORD97":2546102.0800000001,"ADDRESS":"文化路２７９巷２號","OBJECTID":396116},"geometry":{"x":173518.08999999985,"y":2546102.0800000038}},{"attributes":{"ID":396141,"DIS_CODE":0,"TOWNNAME":"永康區","LI":"網寮里","LIN":"21鄰","STREET":"文化路","SECT":" ","MAREA":" ","LANE":"２４２巷","ALLEY":" ","HOUSE_NO":"３２之１６號","E_COORD97":173563.42999999999,"N_COORD97":2546197.79,"ADDRESS":"文化路２４２巷３２之１６號","OBJECTID":396117},"geometry":{"x":173563.43000000156,"y":2546197.7899999972}},{"attributes":{"ID":396142,"DIS_CODE":0,"TOWNNAME":"永康區","LI":"復華里","LIN":"16鄰","STREET":"復華七街","SECT":" ","MAREA":" ","LANE":"１０６巷","ALLEY":" ","HOUSE_NO":"１號","E_COORD97":172878.31,"N_COORD97":2546170.2599999998,"ADDRESS":"復華七街１０６巷１號","OBJECTID":396118},"geometry":{"x":172878.31000000052,"y":2546170.2599999998}},{"attributes":{"ID":396143,"DIS_CODE":0,"TOWNNAME":"永康區","LI":"復華里","LIN":"1鄰","STREET":"復國二路","SECT":" ","MAREA":" ","LANE":"２８０巷","ALLEY":" ","HOUSE_NO":"１８號","E_COORD97":173060.09,"N_COORD97":2546093.7599999998,"ADDRESS":"復國二路２８０巷１８號","OBJECTID":396119},"geometry":{"x":173060.08999999985,"y":2546093.7600000035}},{"attributes":{"ID":396144,"DIS_CODE":0,"TOWNNAME":"永康區","LI":"復國里","LIN":"33鄰","STREET":"復華一街","SECT":" ","MAREA":" ","LANE":"６６巷","ALLEY":" ","HOUSE_NO":"１１號","E_COORD97":172530.94,"N_COORD97":2545119.27,"ADDRESS":"復華一街６６巷１１號","OBJECTID":396120},"geometry":{"x":172530.94000000134,"y":2545119.2699999996}},{"attributes":{"ID":396145,"DIS_CODE":0,"TOWNNAME":"永康區","LI":"復華里","LIN":"4鄰","STREET":"復國二路","SECT":" ","MAREA":" ","LANE":"２６９巷","ALLEY":" ","HOUSE_NO":"２９號","E_COORD97":172967.70000000001,"N_COORD97":2546198.3199999998,"ADDRESS":"復國二路２６９巷２９號","OBJECTID":396121},"geometry":{"x":172967.70000000112,"y":2546198.3200000003}},{"attributes":{"ID":396146,"DIS_CODE":0,"TOWNNAME":"東區","LI":"崇成里","LIN":"13鄰","STREET":"崇明十五街","SECT":" ","MAREA":" ","LANE":" ","ALLEY":" ","HOUSE_NO":"３１號","E_COORD97":170672.78,"N_COORD97":2541365.6299999999,"ADDRESS":"崇明十五街３１號","OBJECTID":396122},"geometry":{"x":170672.78000000026,"y":2541365.6300000008}},{"attributes":{"ID":396147,"DIS_CODE":0,"TOWNNAME":"永康區","LI":"復華里","LIN":"3鄰","STREET":"復國二路","SECT":" ","MAREA":" ","LANE":"３４０巷","ALLEY":" ","HOUSE_NO":"１５號","E_COORD97":173076.23999999999,"N_COORD97":2546157.8900000001,"ADDRESS":"復國二路３４０巷１５號","OBJECTID":396123},"geometry":{"x":173076.24000000115,"y":2546157.8900000006}},{"attributes":{"ID":396148,"DIS_CODE":0,"TOWNNAME":"永康區","LI":"復國里","LIN":"33鄰","STREET":"復華一街","SECT":" ","MAREA":" ","LANE":"６６巷","ALLEY":" ","HOUSE_NO":"１３號","E_COORD97":172531.07999999999,"N_COORD97":2545123.77,"ADDRESS":"復華一街６６巷１３號","OBJECTID":396124},"geometry":{"x":172531.08000000101,"y":2545123.7700000033}},{"attributes":{"ID":396149,"DIS_CODE":0,"TOWNNAME":"永康區","LI":"尚頂里","LIN":"16鄰","STREET":"中正南路","SECT":" ","MAREA":" ","LANE":"２２０巷","ALLEY":" ","HOUSE_NO":"３９號","E_COORD97":170258.51000000001,"N_COORD97":2547321.9900000002,"ADDRESS":"中正南路２２０巷３９號","OBJECTID":396125},"geometry":{"x":170258.50999999978,"y":2547321.9900000002}},{"attributes":{"ID":396150,"DIS_CODE":0,"TOWNNAME":"東區","LI":"崇成里","LIN":"13鄰","STREET":"崇明十五街","SECT":" ","MAREA":" ","LANE":" ","ALLEY":" ","HOUSE_NO":"３號","E_COORD97":170638.06,"N_COORD97":2541367.21,"ADDRESS":"崇明十五街３號","OBJECTID":396126},"geometry":{"x":170638.05999999959,"y":2541367.2100000028}},{"attributes":{"ID":396151,"DIS_CODE":0,"TOWNNAME":"永康區","LI":"復華里","LIN":"14鄰","STREET":"國華街","SECT":" ","MAREA":" ","LANE":"９２巷","ALLEY":" ","HOUSE_NO":"７號","E_COORD97":172883.07000000001,"N_COORD97":2545871.4900000002,"ADDRESS":"國華街９２巷７號","OBJECTID":396127},"geometry":{"x":172883.0700000003,"y":2545871.4900000002}},{"attributes":{"ID":396152,"DIS_CODE":0,"TOWNNAME":"永康區","LI":"西灣里","LIN":"16鄰","STREET":"民族路","SECT":" ","MAREA":" ","LANE":"４６５巷","ALLEY":" ","HOUSE_NO":"３１號","E_COORD97":174617.04999999999,"N_COORD97":2545328.0299999998,"ADDRESS":"民族路４６５巷３１號","OBJECTID":396128},"geometry":{"x":174617.04999999981,"y":2545328.0299999993}},{"attributes":{"ID":396153,"DIS_CODE":0,"TOWNNAME":"永康區","LI":"尚頂里","LIN":"16鄰","STREET":"中正南路","SECT":" ","MAREA":" ","LANE":"２２０巷","ALLEY":" ","HOUSE_NO":"１號","E_COORD97":170139.47,"N_COORD97":2547346,"ADDRESS":"中正南路２２０巷１號","OBJECTID":396129},"geometry":{"x":170139.47000000067,"y":2547346}},{"attributes":{"ID":396154,"DIS_CODE":0,"TOWNNAME":"永康區","LI":"尚頂里","LIN":"16鄰","STREET":"中正南路","SECT":" ","MAREA":" ","LANE":"２２０巷","ALLEY":" ","HOUSE_NO":"９號","E_COORD97":170157.06,"N_COORD97":2547325.21,"ADDRESS":"中正南路２２０巷９號","OBJECTID":396130},"geometry":{"x":170157.06000000052,"y":2547325.2100000009}},{"attributes":{"ID":396155,"DIS_CODE":0,"TOWNNAME":"永康區","LI":"正強里","LIN":"16鄰","STREET":"自強路","SECT":" ","MAREA":" ","LANE":"２１６巷","ALLEY":" ","HOUSE_NO":"８號","E_COORD97":173291.47,"N_COORD97":2547561.5,"ADDRESS":"自強路２１６巷８號","OBJECTID":396131},"geometry":{"x":173291.46999999974,"y":2547561.5000000019}},{"attributes":{"ID":396156,"DIS_CODE":0,"TOWNNAME":"永康區","LI":"復華里","LIN":"14鄰","STREET":"國華街","SECT":" ","MAREA":" ","LANE":"９２巷","ALLEY":" ","HOUSE_NO":"１１號","E_COORD97":172896.19,"N_COORD97":2545871.9900000002,"ADDRESS":"國華街９２巷１１號","OBJECTID":396132},"geometry":{"x":172896.19000000227,"y":2545871.9900000002}},{"attributes":{"ID":396157,"DIS_CODE":0,"TOWNNAME":"永康區","LI":"復國里","LIN":"6鄰","STREET":"復國一路","SECT":" ","MAREA":" ","LANE":"１２０巷","ALLEY":" ","HOUSE_NO":"４１號","E_COORD97":172777.51999999999,"N_COORD97":2545041.52,"ADDRESS":"復國一路１２０巷４１號","OBJECTID":396133},"geometry":{"x":172777.51999999955,"y":2545041.5200000014}},{"attributes":{"ID":396158,"DIS_CODE":0,"TOWNNAME":"永康區","LI":"復國里","LIN":"29鄰","STREET":"復華二街","SECT":" ","MAREA":" ","LANE":"３巷","ALLEY":" ","HOUSE_NO":"８號","E_COORD97":172651.37,"N_COORD97":2545313.2799999998,"ADDRESS":"復華二街３巷８號","OBJECTID":396134},"geometry":{"x":172651.37000000104,"y":2545313.2800000031}},{"attributes":{"ID":396159,"DIS_CODE":0,"TOWNNAME":"安南區","LI":"新順里","LIN":"16鄰","STREET":"頂安街","SECT":" ","MAREA":" ","LANE":"４０巷","ALLEY":" ","HOUSE_NO":"２號","E_COORD97":169624,"N_COORD97":2549360.04,"ADDRESS":"頂安街４０巷２號","OBJECTID":396135},"geometry":{"x":169624.00000000093,"y":2549360.040000001}},{"attributes":{"ID":396160,"DIS_CODE":0,"TOWNNAME":"安南區","LI":"新順里","LIN":"16鄰","STREET":"頂安街","SECT":" ","MAREA":" ","LANE":"４０巷","ALLEY":" ","HOUSE_NO":"３號","E_COORD97":169608.17000000001,"N_COORD97":2549366.6800000002,"ADDRESS":"頂安街４０巷３號","OBJECTID":396136},"geometry":{"x":169608.16999999993,"y":2549366.6800000016}},{"attributes":{"ID":396161,"DIS_CODE":0,"TOWNNAME":"安南區","LI":"新順里","LIN":"16鄰","STREET":"頂安街","SECT":" ","MAREA":" ","LANE":"４０巷","ALLEY":" ","HOUSE_NO":"５號","E_COORD97":169610.20999999999,"N_COORD97":2549371.79,"ADDRESS":"頂安街４０巷５號","OBJECTID":396137},"geometry":{"x":169610.20999999996,"y":2549371.790000001}},{"attributes":{"ID":396162,"DIS_CODE":0,"TOWNNAME":"安南區","LI":"新順里","LIN":"16鄰","STREET":"頂安街","SECT":" ","MAREA":" ","LANE":"６８巷","ALLEY":" ","HOUSE_NO":"１２號","E_COORD97":169570.63,"N_COORD97":2549386.73,"ADDRESS":"頂安街６８巷１２號","OBJECTID":396138},"geometry":{"x":169570.63000000082,"y":2549386.7300000042}},{"attributes":{"ID":396163,"DIS_CODE":0,"TOWNNAME":"安南區","LI":"新順里","LIN":"16鄰","STREET":"頂安街","SECT":" ","MAREA":" ","LANE":"６８巷","ALLEY":" ","HOUSE_NO":"１６號","E_COORD97":169572.16,"N_COORD97":2549390.5600000001,"ADDRESS":"頂安街６８巷１６號","OBJECTID":396139},"geometry":{"x":169572.16000000108,"y":2549390.5600000005}},{"attributes":{"ID":396164,"DIS_CODE":0,"TOWNNAME":"安南區","LI":"新順里","LIN":"16鄰","STREET":"頂安街","SECT":" ","MAREA":" ","LANE":"６８巷","ALLEY":" ","HOUSE_NO":"１８號","E_COORD97":169572.79999999999,"N_COORD97":2549395.2799999998,"ADDRESS":"頂安街６８巷１８號","OBJECTID":396140},"geometry":{"x":169572.80000000075,"y":2549395.2800000031}},{"attributes":{"ID":396165,"DIS_CODE":0,"TOWNNAME":"永康區","LI":"復國里","LIN":"5鄰","STREET":"復國一路","SECT":" ","MAREA":" ","LANE":"９０巷","ALLEY":" ","HOUSE_NO":"２１號","E_COORD97":172758.66,"N_COORD97":2544977.0299999998,"ADDRESS":"復國一路９０巷２１號","OBJECTID":396141},"geometry":{"x":172758.66000000015,"y":2544977.0300000012}},{"attributes":{"ID":396166,"DIS_CODE":0,"TOWNNAME":"永康區","LI":"復華里","LIN":"13鄰","STREET":"國華街","SECT":" ","MAREA":" ","LANE":"９６巷","ALLEY":" ","HOUSE_NO":"３號","E_COORD97":172860.10000000001,"N_COORD97":2545933.6400000001,"ADDRESS":"國華街９６巷３號","OBJECTID":396142},"geometry":{"x":172860.09999999963,"y":2545933.6400000025}},{"attributes":{"ID":396167,"DIS_CODE":0,"TOWNNAME":"永康區","LI":"復國里","LIN":"33鄰","STREET":"復華一街","SECT":" ","MAREA":" ","LANE":"３６巷","ALLEY":" ","HOUSE_NO":"６號","E_COORD97":172595.64000000001,"N_COORD97":2545126.02,"ADDRESS":"復華一街３６巷６號","OBJECTID":396143},"geometry":{"x":172595.63999999873,"y":2545126.0200000014}},{"attributes":{"ID":396168,"DIS_CODE":0,"TOWNNAME":"安南區","LI":"新順里","LIN":"16鄰","STREET":"頂安街","SECT":" ","MAREA":" ","LANE":"６８巷","ALLEY":" ","HOUSE_NO":"２０號","E_COORD97":169573.95000000001,"N_COORD97":2549399.1099999999,"ADDRESS":"頂安街６８巷２０號","OBJECTID":396144},"geometry":{"x":169573.95000000112,"y":2549399.1099999994}},{"attributes":{"ID":396169,"DIS_CODE":0,"TOWNNAME":"安南區","LI":"新順里","LIN":"16鄰","STREET":"頂安街","SECT":" ","MAREA":" ","LANE":"６８巷","ALLEY":" ","HOUSE_NO":"２２號","E_COORD97":169576.63,"N_COORD97":2549403.2000000002,"ADDRESS":"頂安街６８巷２２號","OBJECTID":396145},"geometry":{"x":169576.62999999989,"y":2549403.2000000011}},{"attributes":{"ID":396170,"DIS_CODE":0,"TOWNNAME":"安南區","LI":"新順里","LIN":"16鄰","STREET":"頂安街","SECT":" ","MAREA":" ","LANE":"６８巷","ALLEY":" ","HOUSE_NO":"２６號","E_COORD97":169578.16,"N_COORD97":2549407.1600000001,"ADDRESS":"頂安街６８巷２６號","OBJECTID":396146},"geometry":{"x":169578.16000000015,"y":2549407.1600000039}},{"attributes":{"ID":396171,"DIS_CODE":0,"TOWNNAME":"安南區","LI":"新順里","LIN":"16鄰","STREET":"頂安街","SECT":" ","MAREA":" ","LANE":"６８巷","ALLEY":" ","HOUSE_NO":"２８號","E_COORD97":169580.07999999999,"N_COORD97":2549410.9900000002,"ADDRESS":"頂安街６８巷２８號","OBJECTID":396147},"geometry":{"x":169580.08000000007,"y":2549410.9900000002}},{"attributes":{"ID":396172,"DIS_CODE":0,"TOWNNAME":"安南區","LI":"新順里","LIN":"16鄰","STREET":"頂安街","SECT":" ","MAREA":" ","LANE":"６８巷","ALLEY":" ","HOUSE_NO":"３０號","E_COORD97":169580.72,"N_COORD97":2549415.71,"ADDRESS":"頂安街６８巷３０號","OBJECTID":396148},"geometry":{"x":169580.71999999974,"y":2549415.7100000028}},{"attributes":{"ID":396173,"DIS_CODE":0,"TOWNNAME":"安南區","LI":"新順里","LIN":"16鄰","STREET":"頂安街","SECT":" ","MAREA":" ","LANE":"６８巷","ALLEY":" ","HOUSE_NO":"３２號","E_COORD97":169582.25,"N_COORD97":2549418.8999999999,"ADDRESS":"頂安街６８巷３２號","OBJECTID":396149},"geometry":{"x":169582.25,"y":2549418.9000000004}},{"attributes":{"ID":396174,"DIS_CODE":0,"TOWNNAME":"安南區","LI":"新順里","LIN":"16鄰","STREET":"頂安街","SECT":" ","MAREA":" ","LANE":"６８巷","ALLEY":" ","HOUSE_NO":"３６號","E_COORD97":169583.14000000001,"N_COORD97":2549423.5,"ADDRESS":"頂安街６８巷３６號","OBJECTID":396150},"geometry":{"x":169583.13999999966,"y":2549423.5}},{"attributes":{"ID":396175,"DIS_CODE":0,"TOWNNAME":"安南區","LI":"新順里","LIN":"16鄰","STREET":"頂安街","SECT":" ","MAREA":" ","LANE":"６８巷","ALLEY":" ","HOUSE_NO":"３８號","E_COORD97":169584.16,"N_COORD97":2549427.71,"ADDRESS":"頂安街６８巷３８號","OBJECTID":396151},"geometry":{"x":169584.16000000108,"y":2549427.7100000009}},{"attributes":{"ID":396176,"DIS_CODE":0,"TOWNNAME":"安南區","LI":"新順里","LIN":"16鄰","STREET":"頂安街","SECT":" ","MAREA":" ","LANE":"６８巷","ALLEY":" ","HOUSE_NO":"４０號","E_COORD97":169584.79999999999,"N_COORD97":2549431.9300000002,"ADDRESS":"頂安街６８巷４０號","OBJECTID":396152},"geometry":{"x":169584.80000000075,"y":2549431.9300000034}},{"attributes":{"ID":396177,"DIS_CODE":0,"TOWNNAME":"安南區","LI":"新順里","LIN":"16鄰","STREET":"頂安街","SECT":" ","MAREA":" ","LANE":"６８巷","ALLEY":" ","HOUSE_NO":"４２號","E_COORD97":169590.16,"N_COORD97":2549430.6499999999,"ADDRESS":"頂安街６８巷４２號","OBJECTID":396153},"geometry":{"x":169590.16000000015,"y":2549430.6500000004}},{"attributes":{"ID":396178,"DIS_CODE":0,"TOWNNAME":"安南區","LI":"新順里","LIN":"16鄰","STREET":"頂安街","SECT":" ","MAREA":" ","LANE":"６８巷","ALLEY":" ","HOUSE_NO":"４６號","E_COORD97":169596.04000000001,"N_COORD97":2549428.6099999999,"ADDRESS":"頂安街６８巷４６號","OBJECTID":396154},"geometry":{"x":169596.04000000004,"y":2549428.6100000013}},{"attributes":{"ID":396179,"DIS_CODE":0,"TOWNNAME":"安南區","LI":"新順里","LIN":"16鄰","STREET":"頂安街","SECT":" ","MAREA":" ","LANE":"６８巷","ALLEY":" ","HOUSE_NO":"５０號","E_COORD97":169602.29000000001,"N_COORD97":2549422.73,"ADDRESS":"頂安街６８巷５０號","OBJECTID":396155},"geometry":{"x":169602.29000000004,"y":2549422.7300000004}},{"attributes":{"ID":396180,"DIS_CODE":0,"TOWNNAME":"安南區","LI":"新順里","LIN":"16鄰","STREET":"頂安街","SECT":" ","MAREA":" ","LANE":"６８巷","ALLEY":" ","HOUSE_NO":"５６號","E_COORD97":169610.59,"N_COORD97":2549420.3100000001,"ADDRESS":"頂安街６８巷５６號","OBJECTID":396156},"geometry":{"x":169610.58999999985,"y":2549420.3100000042}},{"attributes":{"ID":396181,"DIS_CODE":0,"TOWNNAME":"安南區","LI":"新順里","LIN":"16鄰","STREET":"頂安街","SECT":" ","MAREA":" ","LANE":"６８巷","ALLEY":" ","HOUSE_NO":"５８號","E_COORD97":169617.23000000001,"N_COORD97":2549419.1600000001,"ADDRESS":"頂安街６８巷５８號","OBJECTID":396157},"geometry":{"x":169617.23000000045,"y":2549419.1600000001}},{"attributes":{"ID":396182,"DIS_CODE":0,"TOWNNAME":"東區","LI":"虎尾里","LIN":"16鄰","STREET":"東成街","SECT":" ","MAREA":" ","LANE":"５６巷","ALLEY":" ","HOUSE_NO":"４２號","E_COORD97":171380.41,"N_COORD97":2542156.8599999999,"ADDRESS":"東成街５６巷４２號","OBJECTID":396158},"geometry":{"x":171380.41000000015,"y":2542156.8600000013}},{"attributes":{"ID":396183,"DIS_CODE":0,"TOWNNAME":"東區","LI":"虎尾里","LIN":"16鄰","STREET":"東成街","SECT":" ","MAREA":" ","LANE":"５６巷","ALLEY":" ","HOUSE_NO":"４號","E_COORD97":171374.29000000001,"N_COORD97":2542236.96,"ADDRESS":"東成街５６巷４號","OBJECTID":396159},"geometry":{"x":171374.29000000004,"y":2542236.9600000028}},{"attributes":{"ID":396184,"DIS_CODE":0,"TOWNNAME":"永康區","LI":"復國里","LIN":"11鄰","STREET":"復國一路","SECT":" ","MAREA":" ","LANE":"２８０巷","ALLEY":" ","HOUSE_NO":"１９號","E_COORD97":172815.87,"N_COORD97":2545504.73,"ADDRESS":"復國一路２８０巷１９號","OBJECTID":396160},"geometry":{"x":172815.87000000104,"y":2545504.7300000042}},{"attributes":{"ID":396185,"DIS_CODE":0,"TOWNNAME":"永康區","LI":"復華里","LIN":"40鄰","STREET":"復華七街","SECT":" ","MAREA":" ","LANE":"３２巷","ALLEY":" ","HOUSE_NO":"６號","E_COORD97":172660.42000000001,"N_COORD97":2545964.0699999998,"ADDRESS":"復華七街３２巷６號","OBJECTID":396161},"geometry":{"x":172660.42000000086,"y":2545964.0700000022}},{"attributes":{"ID":396186,"DIS_CODE":0,"TOWNNAME":"永康區","LI":"復華里","LIN":"14鄰","STREET":"國華街","SECT":" ","MAREA":" ","LANE":"９４巷","ALLEY":" ","HOUSE_NO":"３６號","E_COORD97":172955.73000000001,"N_COORD97":2545890,"ADDRESS":"國華街９４巷３６號","OBJECTID":396162},"geometry":{"x":172955.73000000138,"y":2545890.0000000019}},{"attributes":{"ID":396187,"DIS_CODE":0,"TOWNNAME":"永康區","LI":"復華里","LIN":"1鄰","STREET":"復國二路","SECT":" ","MAREA":" ","LANE":"２８０巷","ALLEY":" ","HOUSE_NO":"２６號","E_COORD97":173077.23999999999,"N_COORD97":2546092.5,"ADDRESS":"復國二路２８０巷２６號","OBJECTID":396163},"geometry":{"x":173077.24000000209,"y":2546092.5000000037}},{"attributes":{"ID":396188,"DIS_CODE":0,"TOWNNAME":"永康區","LI":"復國里","LIN":"4鄰","STREET":"復國一路","SECT":" ","MAREA":" ","LANE":"６８巷","ALLEY":" ","HOUSE_NO":"３６號","E_COORD97":172806.42999999999,"N_COORD97":2544861.4900000002,"ADDRESS":"復國一路６８巷３６號","OBJECTID":396164},"geometry":{"x":172806.43000000063,"y":2544861.4900000002}},{"attributes":{"ID":396189,"DIS_CODE":0,"TOWNNAME":"永康區","LI":"復華里","LIN":"33鄰","STREET":"忠孝路","SECT":" ","MAREA":" ","LANE":"３５２巷","ALLEY":" ","HOUSE_NO":"２號","E_COORD97":172445.16,"N_COORD97":2546328.5,"ADDRESS":"忠孝路３５２巷２號","OBJECTID":396165},"geometry":{"x":172445.15999999922,"y":2546328.5}},{"attributes":{"ID":396190,"DIS_CODE":0,"TOWNNAME":"永康區","LI":"復國里","LIN":"28鄰","STREET":"復國一路","SECT":" ","MAREA":" ","LANE":"２３７巷","ALLEY":" ","HOUSE_NO":"２７號","E_COORD97":172649.20000000001,"N_COORD97":2545410.8900000001,"ADDRESS":"復國一路２３７巷２７號","OBJECTID":396166},"geometry":{"x":172649.20000000112,"y":2545410.8900000006}},{"attributes":{"ID":396191,"DIS_CODE":0,"TOWNNAME":"永康區","LI":"復華里","LIN":"28鄰","STREET":"復華八街","SECT":" ","MAREA":" ","LANE":"４５巷","ALLEY":" ","HOUSE_NO":"１號","E_COORD97":172759.75,"N_COORD97":2546333.5099999998,"ADDRESS":"復華八街４５巷１號","OBJECTID":396167},"geometry":{"x":172759.75000000186,"y":2546333.5100000016}},{"attributes":{"ID":396192,"DIS_CODE":0,"TOWNNAME":"永康區","LI":"復華里","LIN":"28鄰","STREET":"復華八街","SECT":" ","MAREA":" ","LANE":"４７巷","ALLEY":" ","HOUSE_NO":"１３號","E_COORD97":172742.63,"N_COORD97":2546369.21,"ADDRESS":"復華八街４７巷１３號","OBJECTID":396168},"geometry":{"x":172742.63000000082,"y":2546369.2100000009}},{"attributes":{"ID":396193,"DIS_CODE":0,"TOWNNAME":"永康區","LI":"復國里","LIN":"23鄰","STREET":"復國一路","SECT":" ","MAREA":" ","LANE":"３１５巷","ALLEY":" ","HOUSE_NO":"３０號","E_COORD97":172647.25,"N_COORD97":2545637.7400000002,"ADDRESS":"復國一路３１５巷３０號","OBJECTID":396169},"geometry":{"x":172647.25,"y":2545637.7400000021}},{"attributes":{"ID":396194,"DIS_CODE":0,"TOWNNAME":"安南區","LI":"淵東里","LIN":"16鄰","STREET":"智安一街","SECT":" ","MAREA":" ","LANE":"１８巷","ALLEY":" ","HOUSE_NO":"１號","E_COORD97":165678.95999999999,"N_COORD97":2549985.46,"ADDRESS":"智安一街１８巷１號","OBJECTID":396170},"geometry":{"x":165678.95999999996,"y":2549985.4600000009}},{"attributes":{"ID":396195,"DIS_CODE":0,"TOWNNAME":"永康區","LI":"崑山里","LIN":"38鄰","STREET":"崑山街","SECT":" ","MAREA":" ","LANE":"２０３巷","ALLEY":" ","HOUSE_NO":"９號","E_COORD97":174017.17999999999,"N_COORD97":2545003.7799999998,"ADDRESS":"崑山街２０３巷９號","OBJECTID":396171},"geometry":{"x":174017.1799999997,"y":2545003.7799999993}},{"attributes":{"ID":396196,"DIS_CODE":0,"TOWNNAME":"永康區","LI":"崑山里","LIN":"38鄰","STREET":"崑山街","SECT":" ","MAREA":" ","LANE":"２０３巷","ALLEY":" ","HOUSE_NO":"７號","E_COORD97":174037.48999999999,"N_COORD97":2545001.7400000002,"ADDRESS":"崑山街２０３巷７號","OBJECTID":396172},"geometry":{"x":174037.49000000022,"y":2545001.7400000002}},{"attributes":{"ID":396197,"DIS_CODE":0,"TOWNNAME":"永康區","LI":"復國里","LIN":"18鄰","STREET":"復國一路","SECT":" ","MAREA":" ","LANE":"３３４巷","ALLEY":" ","HOUSE_NO":"１３號","E_COORD97":172815.79000000001,"N_COORD97":2545668.27,"ADDRESS":"復國一路３３４巷１３號","OBJECTID":396173},"geometry":{"x":172815.79000000097,"y":2545668.2699999996}},{"attributes":{"ID":396198,"DIS_CODE":0,"TOWNNAME":"永康區","LI":"復華里","LIN":"25鄰","STREET":"復華八街","SECT":" ","MAREA":" ","LANE":"４９巷","ALLEY":" ","HOUSE_NO":"９號","E_COORD97":172764.82000000001,"N_COORD97":2546412.5299999998,"ADDRESS":"復華八街４９巷９號","OBJECTID":396174},"geometry":{"x":172764.82000000216,"y":2546412.5299999993}},{"attributes":{"ID":396199,"DIS_CODE":0,"TOWNNAME":"永康區","LI":"復華里","LIN":"25鄰","STREET":"復華八街","SECT":" ","MAREA":" ","LANE":"４９巷","ALLEY":" ","HOUSE_NO":"２５號","E_COORD97":172729.07999999999,"N_COORD97":2546413.0299999998,"ADDRESS":"復華八街４９巷２５號","OBJECTID":396175},"geometry":{"x":172729.08000000101,"y":2546413.0299999993}},{"attributes":{"ID":396200,"DIS_CODE":0,"TOWNNAME":"永康區","LI":"勝利里","LIN":"39鄰","STREET":"勝華街","SECT":" ","MAREA":" ","LANE":"３７巷","ALLEY":" ","HOUSE_NO":"３６號","E_COORD97":171438.23999999999,"N_COORD97":2545142.6000000001,"ADDRESS":"勝華街３７巷３６號","OBJECTID":396176},"geometry":{"x":171438.24000000115,"y":2545142.6000000015}},{"attributes":{"ID":396201,"DIS_CODE":0,"TOWNNAME":"永康區","LI":"復國里","LIN":"14鄰","STREET":"復國二路","SECT":" ","MAREA":" ","LANE":"１３４巷","ALLEY":" ","HOUSE_NO":"３號","E_COORD97":172916.01000000001,"N_COORD97":2545579.77,"ADDRESS":"復國二路１３４巷３號","OBJECTID":396177},"geometry":{"x":172916.01000000071,"y":2545579.7700000014}},{"attributes":{"ID":396202,"DIS_CODE":0,"TOWNNAME":"永康區","LI":"復華里","LIN":"15鄰","STREET":"國華街","SECT":" ","MAREA":" ","LANE":"８９巷","ALLEY":" ","HOUSE_NO":"１４號","E_COORD97":172797.79000000001,"N_COORD97":2545932.75,"ADDRESS":"國華街８９巷１４號","OBJECTID":396178},"geometry":{"x":172797.79000000004,"y":2545932.7500000019}},{"attributes":{"ID":396203,"DIS_CODE":0,"TOWNNAME":"永康區","LI":"復華里","LIN":"1鄰","STREET":"復國二路","SECT":" ","MAREA":" ","LANE":"２４４巷","ALLEY":" ","HOUSE_NO":"７號","E_COORD97":173030.35000000001,"N_COORD97":2545928.5299999998,"ADDRESS":"復國二路２４４巷７號","OBJECTID":396179},"geometry":{"x":173030.35000000056,"y":2545928.5299999975}},{"attributes":{"ID":396204,"DIS_CODE":0,"TOWNNAME":"永康區","LI":"復國里","LIN":"6鄰","STREET":"復國一路","SECT":" ","MAREA":" ","LANE":"１２０巷","ALLEY":" ","HOUSE_NO":"３９號","E_COORD97":172777.37,"N_COORD97":2545037.77,"ADDRESS":"復國一路１２０巷３９號","OBJECTID":396180},"geometry":{"x":172777.37000000011,"y":2545037.7699999996}},{"attributes":{"ID":396205,"DIS_CODE":0,"TOWNNAME":"安南區","LI":"學東里","LIN":"16鄰","STREET":"城北路","SECT":" ","MAREA":" ","LANE":"７３６巷","ALLEY":" ","HOUSE_NO":"５９之２號","E_COORD97":161111.81,"N_COORD97":2553041.2400000002,"ADDRESS":"城北路７３６巷５９之２號","OBJECTID":396181},"geometry":{"x":161111.81000000052,"y":2553041.2400000039}},{"attributes":{"ID":396206,"DIS_CODE":0,"TOWNNAME":"安南區","LI":"城南里","LIN":"16鄰","STREET":"青砂街","SECT":"一段","MAREA":" ","LANE":"１４５巷","ALLEY":" ","HOUSE_NO":"１號之１","E_COORD97":160480.97,"N_COORD97":2551778.3999999999,"ADDRESS":"青砂街一段１４５巷１號之１","OBJECTID":396182},"geometry":{"x":160480.96999999974,"y":2551778.4000000004}},{"attributes":{"ID":396207,"DIS_CODE":0,"TOWNNAME":"安南區","LI":"城南里","LIN":"16鄰","STREET":"青砂街","SECT":"一段","MAREA":" ","LANE":"３１巷","ALLEY":" ","HOUSE_NO":"５之１號","E_COORD97":160647.07999999999,"N_COORD97":2551497.2200000002,"ADDRESS":"青砂街一段３１巷５之１號","OBJECTID":396183},"geometry":{"x":160647.07999999914,"y":2551497.2200000025}},{"attributes":{"ID":396208,"DIS_CODE":0,"TOWNNAME":"安南區","LI":"城南里","LIN":"16鄰","STREET":"青砂街","SECT":"一段","MAREA":" ","LANE":"６５巷","ALLEY":" ","HOUSE_NO":"６２之９號","E_COORD97":160402.17999999999,"N_COORD97":2551580.3999999999,"ADDRESS":"青砂街一段６５巷６２之９號","OBJECTID":396184},"geometry":{"x":160402.18000000063,"y":2551580.4000000022}},{"attributes":{"ID":396209,"DIS_CODE":0,"TOWNNAME":"安南區","LI":"安慶里","LIN":"16鄰","STREET":"安中路","SECT":"一段","MAREA":" ","LANE":"１８９巷","ALLEY":" ","HOUSE_NO":"５１號","E_COORD97":168781.32000000001,"N_COORD97":2548336.21,"ADDRESS":"安中路一段１８９巷５１號","OBJECTID":396185},"geometry":{"x":168781.32000000123,"y":2548336.2100000046}},{"attributes":{"ID":396210,"DIS_CODE":0,"TOWNNAME":"永康區","LI":"復國里","LIN":"6鄰","STREET":"復國一路","SECT":" ","MAREA":" ","LANE":"１２０巷","ALLEY":" ","HOUSE_NO":"７３號","E_COORD97":172822.87,"N_COORD97":2545009.9500000002,"ADDRESS":"復國一路１２０巷７３號","OBJECTID":396186},"geometry":{"x":172822.87000000011,"y":2545009.9499999993}},{"attributes":{"ID":396211,"DIS_CODE":0,"TOWNNAME":"永康區","LI":"復國里","LIN":"9鄰","STREET":"復國一路","SECT":" ","MAREA":" ","LANE":"２１０巷","ALLEY":" ","HOUSE_NO":"１０號","E_COORD97":172777.25,"N_COORD97":2545197.5600000001,"ADDRESS":"復國一路２１０巷１０號","OBJECTID":396187},"geometry":{"x":172777.25000000093,"y":2545197.5600000042}},{"attributes":{"ID":396212,"DIS_CODE":0,"TOWNNAME":"永康區","LI":"復華里","LIN":"28鄰","STREET":"復華八街","SECT":" ","MAREA":" ","LANE":"４５巷","ALLEY":" ","HOUSE_NO":"１３號","E_COORD97":172731.29999999999,"N_COORD97":2546340.0099999998,"ADDRESS":"復華八街４５巷１３號","OBJECTID":396188},"geometry":{"x":172731.29999999981,"y":2546340.0100000016}},{"attributes":{"ID":396213,"DIS_CODE":0,"TOWNNAME":"永康區","LI":"復國里","LIN":"23鄰","STREET":"復國一路","SECT":" ","MAREA":" ","LANE":"３１５巷","ALLEY":" ","HOUSE_NO":"１４號","E_COORD97":172701.64999999999,"N_COORD97":2545634.52,"ADDRESS":"復國一路３１５巷１４號","OBJECTID":396189},"geometry":{"x":172701.65000000224,"y":2545634.5200000014}},{"attributes":{"ID":396214,"DIS_CODE":0,"TOWNNAME":"東區","LI":"成大里","LIN":"16鄰","STREET":"育樂街","SECT":" ","MAREA":" ","LANE":"１４８巷","ALLEY":" ","HOUSE_NO":"１９號","E_COORD97":169432.01999999999,"N_COORD97":2544031.3300000001,"ADDRESS":"育樂街１４８巷１９號","OBJECTID":396190},"geometry":{"x":169432.02000000048,"y":2544031.3300000001}},{"attributes":{"ID":396215,"DIS_CODE":0,"TOWNNAME":"東區","LI":"成大里","LIN":"16鄰","STREET":"育樂街","SECT":" ","MAREA":" ","LANE":"１４８巷","ALLEY":" ","HOUSE_NO":"１號","E_COORD97":169477.94,"N_COORD97":2544026.4300000002,"ADDRESS":"育樂街１４８巷１號","OBJECTID":396191},"geometry":{"x":169477.94000000041,"y":2544026.4299999997}},{"attributes":{"ID":396216,"DIS_CODE":0,"TOWNNAME":"永康區","LI":"復國里","LIN":"36鄰","STREET":"復國一路","SECT":" ","MAREA":" ","LANE":"２１巷","ALLEY":" ","HOUSE_NO":"１２號","E_COORD97":172659.25,"N_COORD97":2544817.52,"ADDRESS":"復國一路２１巷１２號","OBJECTID":396192},"geometry":{"x":172659.25,"y":2544817.5200000014}},{"attributes":{"ID":396217,"DIS_CODE":0,"TOWNNAME":"永康區","LI":"復國里","LIN":"32鄰","STREET":"復華一街","SECT":" ","MAREA":" ","LANE":"１９巷","ALLEY":" ","HOUSE_NO":"２９號","E_COORD97":172652.14999999999,"N_COORD97":2544971.0299999998,"ADDRESS":"復華一街１９巷２９號","OBJECTID":396193},"geometry":{"x":172652.15000000037,"y":2544971.0299999993}},{"attributes":{"ID":396218,"DIS_CODE":0,"TOWNNAME":"永康區","LI":"復國里","LIN":"7鄰","STREET":"復國一路","SECT":" ","MAREA":" ","LANE":"１５０巷","ALLEY":" ","HOUSE_NO":"２號","E_COORD97":172743.34,"N_COORD97":2545067.8100000001,"ADDRESS":"復國一路１５０巷２號","OBJECTID":396194},"geometry":{"x":172743.33999999985,"y":2545067.8100000024}},{"attributes":{"ID":396219,"DIS_CODE":0,"TOWNNAME":"永康區","LI":"勝利里","LIN":"35鄰","STREET":"勝利街","SECT":" ","MAREA":" ","LANE":"２巷","ALLEY":" ","HOUSE_NO":"１號之１４","E_COORD97":171135.28,"N_COORD97":2544690.5499999998,"ADDRESS":"勝利街２巷１號之１４","OBJECTID":396195},"geometry":{"x":171135.28000000026,"y":2544690.5500000026}},{"attributes":{"ID":396220,"DIS_CODE":0,"TOWNNAME":"永康區","LI":"復華里","LIN":"12鄰","STREET":"國華街","SECT":" ","MAREA":" ","LANE":"１０２巷","ALLEY":" ","HOUSE_NO":"８號","E_COORD97":172837.28,"N_COORD97":2546019,"ADDRESS":"國華街１０２巷８號","OBJECTID":396196},"geometry":{"x":172837.28000000026,"y":2546019.0000000019}},{"attributes":{"ID":396221,"DIS_CODE":0,"TOWNNAME":"永康區","LI":"復國里","LIN":"9鄰","STREET":"復國一路","SECT":" ","MAREA":" ","LANE":"２１０巷","ALLEY":" ","HOUSE_NO":"５號","E_COORD97":172761.37,"N_COORD97":2545217.0600000001,"ADDRESS":"復國一路２１０巷５號","OBJECTID":396197},"geometry":{"x":172761.37000000104,"y":2545217.0600000005}},{"attributes":{"ID":396222,"DIS_CODE":0,"TOWNNAME":"永康區","LI":"復國里","LIN":"23鄰","STREET":"復國一路","SECT":" ","MAREA":" ","LANE":"３２９巷","ALLEY":" ","HOUSE_NO":"９號","E_COORD97":172712.26000000001,"N_COORD97":2545659.27,"ADDRESS":"復國一路３２９巷９號","OBJECTID":396198},"geometry":{"x":172712.26000000071,"y":2545659.2699999977}},{"attributes":{"ID":396223,"DIS_CODE":0,"TOWNNAME":"東區","LI":"成大里","LIN":"16鄰","STREET":"育樂街","SECT":" ","MAREA":" ","LANE":"１４８巷","ALLEY":" ","HOUSE_NO":"２１號","E_COORD97":169426.72,"N_COORD97":2544031.3300000001,"ADDRESS":"育樂街１４８巷２１號","OBJECTID":396199},"geometry":{"x":169426.71999999974,"y":2544031.3300000001}},{"attributes":{"ID":396224,"DIS_CODE":0,"TOWNNAME":"永康區","LI":"復華里","LIN":"39鄰","STREET":"復華七街","SECT":" ","MAREA":" ","LANE":"３２巷","ALLEY":" ","HOUSE_NO":"９號","E_COORD97":172692.32999999999,"N_COORD97":2545948.02,"ADDRESS":"復華七街３２巷９號","OBJECTID":396200},"geometry":{"x":172692.33000000101,"y":2545948.0199999996}}]}