{"displayFieldName":"TOWNNAME","fieldAliases":{"ID":"ID","DIS_CODE":"DIS_CODE","TOWNNAME":"TOWNNAME","LI":"LI","LIN":"LIN","STREET":"STREET","SECT":"SECT","MAREA":"MAREA","LANE":"LANE","ALLEY":"ALLEY","HOUSE_NO":"HOUSE_NO","E_COORD97":"E_COORD97","N_COORD97":"N_COORD97","ADDRESS":"ADDRESS","OBJECTID":"OBJECTID"},"geometryType":"esriGeometryPoint","spatialReference":{"wkid":102443,"latestWkid":3826},"fields":[{"name":"ID","type":"esriFieldTypeDouble","alias":"ID"},{"name":"DIS_CODE","type":"esriFieldTypeInteger","alias":"DIS_CODE"},{"name":"TOWNNAME","type":"esriFieldTypeString","alias":"TOWNNAME","length":8},{"name":"LI","type":"esriFieldTypeString","alias":"LI","length":8},{"name":"LIN","type":"esriFieldTypeString","alias":"LIN","length":12},{"name":"STREET","type":"esriFieldTypeString","alias":"STREET","length":20},{"name":"SECT","type":"esriFieldTypeString","alias":"SECT","length":8},{"name":"MAREA","type":"esriFieldTypeString","alias":"MAREA","length":12},{"name":"LANE","type":"esriFieldTypeString","alias":"LANE","length":10},{"name":"ALLEY","type":"esriFieldTypeString","alias":"ALLEY","length":10},{"name":"HOUSE_NO","type":"esriFieldTypeString","alias":"HOUSE_NO","length":20},{"name":"E_COORD97","type":"esriFieldTypeDouble","alias":"E_COORD97"},{"name":"N_COORD97","type":"esriFieldTypeDouble","alias":"N_COORD97"},{"name":"ADDRESS","type":"esriFieldTypeString","alias":"ADDRESS","length":50},{"name":"OBJECTID","type":"esriFieldTypeOID","alias":"OBJECTID"}],"features":[{"attributes":{"ID":538628,"DIS_CODE":0,"TOWNNAME":"歸仁區","LI":"大廟里","LIN":"12鄰","STREET":"保大路","SECT":"三段","MAREA":" ","LANE":" ","ALLEY":" ","HOUSE_NO":"１１８號","E_COORD97":176128.67000000001,"N_COORD97":2544107.2799999998,"ADDRESS":"保大路三段１１８號","OBJECTID":538601},"geometry":{"x":176128.67000000179,"y":2544107.2800000012}},{"attributes":{"ID":538629,"DIS_CODE":0,"TOWNNAME":"麻豆區","LI":"大埕里","LIN":"12鄰","STREET":"忠孝路","SECT":" ","MAREA":" ","LANE":" ","ALLEY":" ","HOUSE_NO":"１號","E_COORD97":173051.98999999999,"N_COORD97":2565037.3300000001,"ADDRESS":"忠孝路１號","OBJECTID":538602},"geometry":{"x":173051.99000000115,"y":2565037.3300000019}},{"attributes":{"ID":538630,"DIS_CODE":0,"TOWNNAME":"南區","LI":"金華里","LIN":"12鄰","STREET":"賢南街","SECT":" ","MAREA":" ","LANE":" ","ALLEY":" ","HOUSE_NO":"２３號","E_COORD97":166886.38,"N_COORD97":2542415.3399999999,"ADDRESS":"賢南街２３號","OBJECTID":538603},"geometry":{"x":166886.37999999989,"y":2542415.3400000017}},{"attributes":{"ID":538631,"DIS_CODE":0,"TOWNNAME":"北區","LI":"長榮里","LIN":"12鄰","STREET":"長榮路","SECT":"五段","MAREA":" ","LANE":" ","ALLEY":" ","HOUSE_NO":"１１號","E_COORD97":170103.98000000001,"N_COORD97":2545381.9300000002,"ADDRESS":"長榮路五段１１號","OBJECTID":538604},"geometry":{"x":170103.98000000231,"y":2545381.9300000016}},{"attributes":{"ID":538632,"DIS_CODE":0,"TOWNNAME":"北區","LI":"長榮里","LIN":"12鄰","STREET":"長榮路","SECT":"五段","MAREA":" ","LANE":" ","ALLEY":" ","HOUSE_NO":"１３號","E_COORD97":170103.67000000001,"N_COORD97":2545386.8500000001,"ADDRESS":"長榮路五段１３號","OBJECTID":538605},"geometry":{"x":170103.66999999993,"y":2545386.8499999996}},{"attributes":{"ID":538633,"DIS_CODE":0,"TOWNNAME":"北區","LI":"長榮里","LIN":"12鄰","STREET":"長榮路","SECT":"五段","MAREA":" ","LANE":" ","ALLEY":" ","HOUSE_NO":"１５號","E_COORD97":170103.19,"N_COORD97":2545391.1299999999,"ADDRESS":"長榮路五段１５號","OBJECTID":538606},"geometry":{"x":170103.19000000134,"y":2545391.129999999}},{"attributes":{"ID":538634,"DIS_CODE":0,"TOWNNAME":"北區","LI":"長榮里","LIN":"12鄰","STREET":"長榮路","SECT":"五段","MAREA":" ","LANE":" ","ALLEY":" ","HOUSE_NO":"１７號","E_COORD97":170103.03,"N_COORD97":2545395.5800000001,"ADDRESS":"長榮路五段１７號","OBJECTID":538607},"geometry":{"x":170103.03000000026,"y":2545395.5800000001}},{"attributes":{"ID":538635,"DIS_CODE":0,"TOWNNAME":"南區","LI":"金華里","LIN":"12鄰","STREET":"健康路","SECT":"二段","MAREA":" ","LANE":" ","ALLEY":" ","HOUSE_NO":"２７１號","E_COORD97":166944.54000000001,"N_COORD97":2542463.4199999999,"ADDRESS":"健康路二段２７１號","OBJECTID":538608},"geometry":{"x":166944.54000000004,"y":2542463.4200000018}},{"attributes":{"ID":538636,"DIS_CODE":0,"TOWNNAME":"南區","LI":"金華里","LIN":"12鄰","STREET":"健康路","SECT":"二段","MAREA":" ","LANE":" ","ALLEY":" ","HOUSE_NO":"２７５號","E_COORD97":166935.85000000001,"N_COORD97":2542465.2599999998,"ADDRESS":"健康路二段２７５號","OBJECTID":538609},"geometry":{"x":166935.85000000149,"y":2542465.2599999998}},{"attributes":{"ID":538637,"DIS_CODE":0,"TOWNNAME":"南區","LI":"金華里","LIN":"12鄰","STREET":"尊南街","SECT":" ","MAREA":" ","LANE":" ","ALLEY":" ","HOUSE_NO":"２７４號","E_COORD97":166868.75,"N_COORD97":2542388.2799999998,"ADDRESS":"尊南街２７４號","OBJECTID":538610},"geometry":{"x":166868.75,"y":2542388.2800000012}},{"attributes":{"ID":538638,"DIS_CODE":0,"TOWNNAME":"南區","LI":"金華里","LIN":"12鄰","STREET":"尊南街","SECT":" ","MAREA":" ","LANE":" ","ALLEY":" ","HOUSE_NO":"２７６號","E_COORD97":166868.75,"N_COORD97":2542393.27,"ADDRESS":"尊南街２７６號","OBJECTID":538611},"geometry":{"x":166868.75,"y":2542393.2699999996}},{"attributes":{"ID":538639,"DIS_CODE":0,"TOWNNAME":"南區","LI":"金華里","LIN":"12鄰","STREET":"尊南街","SECT":" ","MAREA":" ","LANE":" ","ALLEY":" ","HOUSE_NO":"２７８號","E_COORD97":166869.54000000001,"N_COORD97":2542398.79,"ADDRESS":"尊南街２７８號","OBJECTID":538612},"geometry":{"x":166869.54000000097,"y":2542398.790000001}},{"attributes":{"ID":538640,"DIS_CODE":0,"TOWNNAME":"南區","LI":"金華里","LIN":"12鄰","STREET":"尊南街","SECT":" ","MAREA":" ","LANE":" ","ALLEY":" ","HOUSE_NO":"２８０號","E_COORD97":166869.54000000001,"N_COORD97":2542404.04,"ADDRESS":"尊南街２８０號","OBJECTID":538613},"geometry":{"x":166869.54000000097,"y":2542404.040000001}},{"attributes":{"ID":538641,"DIS_CODE":0,"TOWNNAME":"南區","LI":"金華里","LIN":"12鄰","STREET":"尊南街","SECT":" ","MAREA":" ","LANE":" ","ALLEY":" ","HOUSE_NO":"２８２號","E_COORD97":166870.32999999999,"N_COORD97":2542409.5600000001,"ADDRESS":"尊南街２８２號","OBJECTID":538614},"geometry":{"x":166870.33000000194,"y":2542409.5600000005}},{"attributes":{"ID":538642,"DIS_CODE":0,"TOWNNAME":"南區","LI":"金華里","LIN":"12鄰","STREET":"賢南街","SECT":" ","MAREA":" ","LANE":" ","ALLEY":" ","HOUSE_NO":"１３號","E_COORD97":166913.75,"N_COORD97":2542406.6699999999,"ADDRESS":"賢南街１３號","OBJECTID":538615},"geometry":{"x":166913.75000000093,"y":2542406.6700000018}},{"attributes":{"ID":538643,"DIS_CODE":0,"TOWNNAME":"南區","LI":"金華里","LIN":"12鄰","STREET":"賢南街","SECT":" ","MAREA":" ","LANE":" ","ALLEY":" ","HOUSE_NO":"１５號","E_COORD97":166904.01000000001,"N_COORD97":2542418.23,"ADDRESS":"賢南街１５號","OBJECTID":538616},"geometry":{"x":166904.00999999978,"y":2542418.2300000004}},{"attributes":{"ID":538644,"DIS_CODE":0,"TOWNNAME":"南區","LI":"金華里","LIN":"12鄰","STREET":"賢南街","SECT":" ","MAREA":" ","LANE":" ","ALLEY":" ","HOUSE_NO":"１７號","E_COORD97":166900.48000000001,"N_COORD97":2542417.2999999998,"ADDRESS":"賢南街１７號","OBJECTID":538617},"geometry":{"x":166900.48000000138,"y":2542417.3000000026}},{"attributes":{"ID":538645,"DIS_CODE":0,"TOWNNAME":"南區","LI":"金華里","LIN":"12鄰","STREET":"賢南街","SECT":" ","MAREA":" ","LANE":" ","ALLEY":" ","HOUSE_NO":"２７號","E_COORD97":166870.59,"N_COORD97":2542414.0299999998,"ADDRESS":"賢南街２７號","OBJECTID":538618},"geometry":{"x":166870.59000000078,"y":2542414.0300000012}},{"attributes":{"ID":538646,"DIS_CODE":0,"TOWNNAME":"南區","LI":"南華里","LIN":"12鄰","STREET":"中華南路","SECT":"二段","MAREA":" ","LANE":" ","ALLEY":" ","HOUSE_NO":"３０４號","E_COORD97":166641.13,"N_COORD97":2540299.4199999999,"ADDRESS":"中華南路二段３０４號","OBJECTID":538619},"geometry":{"x":166641.13000000082,"y":2540299.4200000018}},{"attributes":{"ID":538647,"DIS_CODE":0,"TOWNNAME":"佳里區","LI":"安西里","LIN":"10鄰","STREET":"義民街","SECT":" ","MAREA":" ","LANE":" ","ALLEY":" ","HOUSE_NO":"２００號","E_COORD97":165609.57999999999,"N_COORD97":2562413.23,"ADDRESS":"義民街２００號","OBJECTID":538620},"geometry":{"x":165609.58000000101,"y":2562413.2300000023}},{"attributes":{"ID":538648,"DIS_CODE":0,"TOWNNAME":"南區","LI":"南華里","LIN":"12鄰","STREET":"中華南路","SECT":"二段","MAREA":" ","LANE":" ","ALLEY":" ","HOUSE_NO":"３０６號","E_COORD97":166636.73000000001,"N_COORD97":2540299.4199999999,"ADDRESS":"中華南路二段３０６號","OBJECTID":538621},"geometry":{"x":166636.73000000045,"y":2540299.4200000018}},{"attributes":{"ID":538649,"DIS_CODE":0,"TOWNNAME":"南區","LI":"南華里","LIN":"12鄰","STREET":"中華南路","SECT":"二段","MAREA":" ","LANE":" ","ALLEY":" ","HOUSE_NO":"３０８號","E_COORD97":166632.57000000001,"N_COORD97":2540299.2999999998,"ADDRESS":"中華南路二段３０８號","OBJECTID":538622},"geometry":{"x":166632.5700000003,"y":2540299.3000000007}},{"attributes":{"ID":538650,"DIS_CODE":0,"TOWNNAME":"南區","LI":"南華里","LIN":"12鄰","STREET":"中華南路","SECT":"二段","MAREA":" ","LANE":" ","ALLEY":" ","HOUSE_NO":"３１０號","E_COORD97":166627.45999999999,"N_COORD97":2540298.9399999999,"ADDRESS":"中華南路二段３１０號","OBJECTID":538623},"geometry":{"x":166627.46000000089,"y":2540298.9400000013}},{"attributes":{"ID":538651,"DIS_CODE":0,"TOWNNAME":"南區","LI":"南華里","LIN":"12鄰","STREET":"中華南路","SECT":"二段","MAREA":" ","LANE":" ","ALLEY":" ","HOUSE_NO":"３１２號","E_COORD97":166621.87,"N_COORD97":2540298.9399999999,"ADDRESS":"中華南路二段３１２號","OBJECTID":538624},"geometry":{"x":166621.87000000011,"y":2540298.9400000013}},{"attributes":{"ID":538652,"DIS_CODE":0,"TOWNNAME":"南區","LI":"南華里","LIN":"12鄰","STREET":"中華南路","SECT":"二段","MAREA":" ","LANE":" ","ALLEY":" ","HOUSE_NO":"３１４號","E_COORD97":166617.47,"N_COORD97":2540298.7000000002,"ADDRESS":"中華南路二段３１４號","OBJECTID":538625},"geometry":{"x":166617.46999999974,"y":2540298.6999999993}},{"attributes":{"ID":538653,"DIS_CODE":0,"TOWNNAME":"南區","LI":"南華里","LIN":"12鄰","STREET":"中華南路","SECT":"二段","MAREA":" ","LANE":" ","ALLEY":" ","HOUSE_NO":"３１６號","E_COORD97":166613.07000000001,"N_COORD97":2540298.7000000002,"ADDRESS":"中華南路二段３１６號","OBJECTID":538626},"geometry":{"x":166613.07000000123,"y":2540298.6999999993}},{"attributes":{"ID":538654,"DIS_CODE":0,"TOWNNAME":"南區","LI":"南華里","LIN":"12鄰","STREET":"中華南路","SECT":"二段","MAREA":" ","LANE":" ","ALLEY":" ","HOUSE_NO":"３１８號","E_COORD97":166608.91,"N_COORD97":2540298.5800000001,"ADDRESS":"中華南路二段３１８號","OBJECTID":538627},"geometry":{"x":166608.91000000108,"y":2540298.5800000019}},{"attributes":{"ID":538655,"DIS_CODE":0,"TOWNNAME":"南區","LI":"南華里","LIN":"12鄰","STREET":"中華南路","SECT":"二段","MAREA":" ","LANE":" ","ALLEY":" ","HOUSE_NO":"３２０號","E_COORD97":166603.92000000001,"N_COORD97":2540298.7000000002,"ADDRESS":"中華南路二段３２０號","OBJECTID":538628},"geometry":{"x":166603.92000000086,"y":2540298.6999999993}},{"attributes":{"ID":538656,"DIS_CODE":0,"TOWNNAME":"南區","LI":"南華里","LIN":"12鄰","STREET":"中華南路","SECT":"二段","MAREA":" ","LANE":" ","ALLEY":" ","HOUSE_NO":"３２２號","E_COORD97":166599.76000000001,"N_COORD97":2540298.4700000002,"ADDRESS":"中華南路二段３２２號","OBJECTID":538629},"geometry":{"x":166599.76000000071,"y":2540298.4700000007}},{"attributes":{"ID":538657,"DIS_CODE":0,"TOWNNAME":"南區","LI":"南華里","LIN":"12鄰","STREET":"中華南路","SECT":"二段","MAREA":" ","LANE":" ","ALLEY":" ","HOUSE_NO":"３２４號","E_COORD97":166595.12,"N_COORD97":2540298.7000000002,"ADDRESS":"中華南路二段３２４號","OBJECTID":538630},"geometry":{"x":166595.12000000011,"y":2540298.6999999993}},{"attributes":{"ID":538658,"DIS_CODE":0,"TOWNNAME":"南區","LI":"南華里","LIN":"12鄰","STREET":"中華南路","SECT":"二段","MAREA":" ","LANE":" ","ALLEY":" ","HOUSE_NO":"３２６號","E_COORD97":166589.89000000001,"N_COORD97":2540298.3500000001,"ADDRESS":"中華南路二段３２６號","OBJECTID":538631},"geometry":{"x":166589.8900000006,"y":2540298.3499999996}},{"attributes":{"ID":538659,"DIS_CODE":0,"TOWNNAME":"南區","LI":"南華里","LIN":"12鄰","STREET":"中華南路","SECT":"二段","MAREA":" ","LANE":" ","ALLEY":" ","HOUSE_NO":"３２８號","E_COORD97":166585.75,"N_COORD97":2540298.3500000001,"ADDRESS":"中華南路二段３２８號","OBJECTID":538632},"geometry":{"x":166585.75,"y":2540298.3499999996}},{"attributes":{"ID":538660,"DIS_CODE":0,"TOWNNAME":"南區","LI":"南華里","LIN":"12鄰","STREET":"中華南路","SECT":"二段","MAREA":" ","LANE":" ","ALLEY":" ","HOUSE_NO":"３３０號","E_COORD97":166581.70999999999,"N_COORD97":2540298.5800000001,"ADDRESS":"中華南路二段３３０號","OBJECTID":538633},"geometry":{"x":166581.71000000089,"y":2540298.5800000019}},{"attributes":{"ID":538661,"DIS_CODE":0,"TOWNNAME":"南區","LI":"南華里","LIN":"12鄰","STREET":"中華南路","SECT":"二段","MAREA":" ","LANE":" ","ALLEY":" ","HOUSE_NO":"３３２號","E_COORD97":166576.95000000001,"N_COORD97":2540298.3500000001,"ADDRESS":"中華南路二段３３２號","OBJECTID":538634},"geometry":{"x":166576.95000000112,"y":2540298.3499999996}},{"attributes":{"ID":538662,"DIS_CODE":0,"TOWNNAME":"南區","LI":"南華里","LIN":"12鄰","STREET":"中華南路","SECT":"二段","MAREA":" ","LANE":" ","ALLEY":" ","HOUSE_NO":"３３４號","E_COORD97":166573.14999999999,"N_COORD97":2540298.4700000002,"ADDRESS":"中華南路二段３３４號","OBJECTID":538635},"geometry":{"x":166573.15000000037,"y":2540298.4700000007}},{"attributes":{"ID":538663,"DIS_CODE":0,"TOWNNAME":"新營區","LI":"新北里","LIN":"12鄰","STREET":"南新街","SECT":" ","MAREA":" ","LANE":" ","ALLEY":" ","HOUSE_NO":"２６號","E_COORD97":179355.79999999999,"N_COORD97":2578848.2000000002,"ADDRESS":"南新街２６號","OBJECTID":538636},"geometry":{"x":179355.80000000075,"y":2578848.200000003}},{"attributes":{"ID":538664,"DIS_CODE":0,"TOWNNAME":"新營區","LI":"新北里","LIN":"12鄰","STREET":"南新街","SECT":" ","MAREA":" ","LANE":" ","ALLEY":" ","HOUSE_NO":"２４號","E_COORD97":179356.81,"N_COORD97":2578844.8799999999,"ADDRESS":"南新街２４號","OBJECTID":538637},"geometry":{"x":179356.81000000052,"y":2578844.879999999}},{"attributes":{"ID":538665,"DIS_CODE":0,"TOWNNAME":"新營區","LI":"新南里","LIN":"12鄰","STREET":"新北七街","SECT":" ","MAREA":" ","LANE":" ","ALLEY":" ","HOUSE_NO":"３２號","E_COORD97":178514.64000000001,"N_COORD97":2579186.7000000002,"ADDRESS":"新北七街３２號","OBJECTID":538638},"geometry":{"x":178514.63999999966,"y":2579186.6999999993}},{"attributes":{"ID":538666,"DIS_CODE":0,"TOWNNAME":"歸仁區","LI":"南保里","LIN":"12鄰","STREET":"文化十街","SECT":" ","MAREA":" ","LANE":" ","ALLEY":" ","HOUSE_NO":"１８號","E_COORD97":176559.44,"N_COORD97":2541300.3300000001,"ADDRESS":"文化十街１８號","OBJECTID":538639},"geometry":{"x":176559.43999999948,"y":2541300.3300000019}},{"attributes":{"ID":538667,"DIS_CODE":0,"TOWNNAME":"歸仁區","LI":"南保里","LIN":"12鄰","STREET":"文化十街","SECT":" ","MAREA":" ","LANE":" ","ALLEY":" ","HOUSE_NO":"２０號","E_COORD97":176560.54000000001,"N_COORD97":2541307.3300000001,"ADDRESS":"文化十街２０號","OBJECTID":538640},"geometry":{"x":176560.54000000097,"y":2541307.3300000019}},{"attributes":{"ID":538668,"DIS_CODE":0,"TOWNNAME":"新營區","LI":"新東里","LIN":"12鄰","STREET":"東興路","SECT":" ","MAREA":" ","LANE":" ","ALLEY":" ","HOUSE_NO":"１０６號","E_COORD97":180782.42999999999,"N_COORD97":2579203.6099999999,"ADDRESS":"東興路１０６號","OBJECTID":538641},"geometry":{"x":180782.43000000063,"y":2579203.6099999994}},{"attributes":{"ID":538669,"DIS_CODE":0,"TOWNNAME":"新營區","LI":"忠政里","LIN":"12鄰","STREET":"中正路","SECT":" ","MAREA":" ","LANE":" ","ALLEY":" ","HOUSE_NO":"５７號之５","E_COORD97":180027.12,"N_COORD97":2579528.3799999999,"ADDRESS":"中正路５７號之５","OBJECTID":538642},"geometry":{"x":180027.12000000104,"y":2579528.3800000008}},{"attributes":{"ID":538670,"DIS_CODE":0,"TOWNNAME":"新營區","LI":"南興里","LIN":"12鄰","STREET":"建業路","SECT":" ","MAREA":" ","LANE":" ","ALLEY":" ","HOUSE_NO":"９２號之３","E_COORD97":179303.67999999999,"N_COORD97":2577497.4300000002,"ADDRESS":"建業路９２之３號","OBJECTID":538643},"geometry":{"x":179303.68000000063,"y":2577497.4299999978}},{"attributes":{"ID":538671,"DIS_CODE":0,"TOWNNAME":"歸仁區","LI":"八甲里","LIN":"12鄰","STREET":"大明二街","SECT":" ","MAREA":" ","LANE":" ","ALLEY":" ","HOUSE_NO":"５５號","E_COORD97":177886.72,"N_COORD97":2541931.6099999999,"ADDRESS":"大明二街５５號","OBJECTID":538644},"geometry":{"x":177886.72000000067,"y":2541931.6100000013}},{"attributes":{"ID":538672,"DIS_CODE":0,"TOWNNAME":"佳里區","LI":"安西里","LIN":"10鄰","STREET":"義民街","SECT":" ","MAREA":" ","LANE":" ","ALLEY":" ","HOUSE_NO":"１７２號","E_COORD97":165670.66,"N_COORD97":2562417.73,"ADDRESS":"義民街１７２號","OBJECTID":538645},"geometry":{"x":165670.66000000015,"y":2562417.7300000004}},{"attributes":{"ID":538673,"DIS_CODE":0,"TOWNNAME":"佳里區","LI":"安西里","LIN":"10鄰","STREET":"義民街","SECT":" ","MAREA":" ","LANE":" ","ALLEY":" ","HOUSE_NO":"１７４號","E_COORD97":165665.34,"N_COORD97":2562419.71,"ADDRESS":"義民街１７４號","OBJECTID":538646},"geometry":{"x":165665.34000000078,"y":2562419.709999999}},{"attributes":{"ID":538674,"DIS_CODE":0,"TOWNNAME":"佳里區","LI":"安西里","LIN":"10鄰","STREET":"義民街","SECT":" ","MAREA":" ","LANE":" ","ALLEY":" ","HOUSE_NO":"１７６號","E_COORD97":165660.26999999999,"N_COORD97":2562418.8700000001,"ADDRESS":"義民街１７６號","OBJECTID":538647},"geometry":{"x":165660.27000000048,"y":2562418.8699999992}},{"attributes":{"ID":538675,"DIS_CODE":0,"TOWNNAME":"佳里區","LI":"安西里","LIN":"10鄰","STREET":"義民街","SECT":" ","MAREA":" ","LANE":" ","ALLEY":" ","HOUSE_NO":"１７８號","E_COORD97":165653.87,"N_COORD97":2562417.9900000002,"ADDRESS":"義民街１７８號","OBJECTID":538648},"geometry":{"x":165653.87000000011,"y":2562417.9900000021}},{"attributes":{"ID":538676,"DIS_CODE":0,"TOWNNAME":"佳里區","LI":"安西里","LIN":"10鄰","STREET":"義民街","SECT":" ","MAREA":" ","LANE":" ","ALLEY":" ","HOUSE_NO":"１８０號","E_COORD97":165645.98999999999,"N_COORD97":2562448.5299999998,"ADDRESS":"義民街１８０號","OBJECTID":538649},"geometry":{"x":165645.99000000115,"y":2562448.5299999993}},{"attributes":{"ID":538677,"DIS_CODE":0,"TOWNNAME":"佳里區","LI":"安西里","LIN":"10鄰","STREET":"義民街","SECT":" ","MAREA":" ","LANE":" ","ALLEY":" ","HOUSE_NO":"１８４號","E_COORD97":165643.22,"N_COORD97":2562418.0099999998,"ADDRESS":"義民街１８４號","OBJECTID":538650},"geometry":{"x":165643.21999999881,"y":2562418.0100000016}},{"attributes":{"ID":538678,"DIS_CODE":0,"TOWNNAME":"佳里區","LI":"安西里","LIN":"10鄰","STREET":"義民街","SECT":" ","MAREA":" ","LANE":" ","ALLEY":" ","HOUSE_NO":"１８８號","E_COORD97":165633.23000000001,"N_COORD97":2562416.25,"ADDRESS":"義民街１８８號","OBJECTID":538651},"geometry":{"x":165633.23000000045,"y":2562416.2500000019}},{"attributes":{"ID":538679,"DIS_CODE":0,"TOWNNAME":"佳里區","LI":"安西里","LIN":"10鄰","STREET":"義民街","SECT":" ","MAREA":" ","LANE":" ","ALLEY":" ","HOUSE_NO":"１９２號","E_COORD97":165627.91,"N_COORD97":2562415.71,"ADDRESS":"義民街１９２號","OBJECTID":538652},"geometry":{"x":165627.91000000108,"y":2562415.7100000009}},{"attributes":{"ID":538680,"DIS_CODE":0,"TOWNNAME":"佳里區","LI":"安西里","LIN":"10鄰","STREET":"義民街","SECT":" ","MAREA":" ","LANE":" ","ALLEY":" ","HOUSE_NO":"１９４號","E_COORD97":165623.26999999999,"N_COORD97":2562415.1099999999,"ADDRESS":"義民街１９４號","OBJECTID":538653},"geometry":{"x":165623.27000000048,"y":2562415.1099999994}},{"attributes":{"ID":538681,"DIS_CODE":0,"TOWNNAME":"佳里區","LI":"安西里","LIN":"10鄰","STREET":"義民街","SECT":" ","MAREA":" ","LANE":" ","ALLEY":" ","HOUSE_NO":"１９６號","E_COORD97":165619.03,"N_COORD97":2562414.6400000001,"ADDRESS":"義民街１９６號","OBJECTID":538654},"geometry":{"x":165619.03000000026,"y":2562414.6400000025}},{"attributes":{"ID":538682,"DIS_CODE":0,"TOWNNAME":"佳里區","LI":"安西里","LIN":"10鄰","STREET":"義民街","SECT":" ","MAREA":" ","LANE":" ","ALLEY":" ","HOUSE_NO":"１９８號","E_COORD97":165614.38,"N_COORD97":2562413.8999999999,"ADDRESS":"義民街１９８號","OBJECTID":538655},"geometry":{"x":165614.38000000082,"y":2562413.9000000004}},{"attributes":{"ID":538683,"DIS_CODE":0,"TOWNNAME":"佳里區","LI":"安西里","LIN":"10鄰","STREET":"義民街","SECT":" ","MAREA":" ","LANE":" ","ALLEY":" ","HOUSE_NO":"２０６號","E_COORD97":165598.57999999999,"N_COORD97":2562408.7200000002,"ADDRESS":"義民街２０６號","OBJECTID":538656},"geometry":{"x":165598.58000000007,"y":2562408.7200000007}},{"attributes":{"ID":538684,"DIS_CODE":0,"TOWNNAME":"佳里區","LI":"安西里","LIN":"10鄰","STREET":"義民街","SECT":" ","MAREA":" ","LANE":" ","ALLEY":" ","HOUSE_NO":"２３２號","E_COORD97":165584.38,"N_COORD97":2562410.1499999999,"ADDRESS":"義民街２３２號","OBJECTID":538657},"geometry":{"x":165584.37999999989,"y":2562410.1500000022}},{"attributes":{"ID":538685,"DIS_CODE":0,"TOWNNAME":"佳里區","LI":"安西里","LIN":"10鄰","STREET":"義民街","SECT":" ","MAREA":" ","LANE":" ","ALLEY":" ","HOUSE_NO":"２３４號","E_COORD97":165580.76000000001,"N_COORD97":2562409.4100000001,"ADDRESS":"義民街２３４號","OBJECTID":538658},"geometry":{"x":165580.76000000071,"y":2562409.4100000001}},{"attributes":{"ID":538686,"DIS_CODE":0,"TOWNNAME":"佳里區","LI":"安西里","LIN":"10鄰","STREET":"義民街","SECT":" ","MAREA":" ","LANE":" ","ALLEY":" ","HOUSE_NO":"２３６號","E_COORD97":165577.35000000001,"N_COORD97":2562409.0899999999,"ADDRESS":"義民街２３６號","OBJECTID":538659},"geometry":{"x":165577.34999999963,"y":2562409.0899999999}},{"attributes":{"ID":538687,"DIS_CODE":0,"TOWNNAME":"佳里區","LI":"安西里","LIN":"10鄰","STREET":"義民街","SECT":" ","MAREA":" ","LANE":" ","ALLEY":" ","HOUSE_NO":"２３８號","E_COORD97":165572.20000000001,"N_COORD97":2562408.0600000001,"ADDRESS":"義民街２３８號","OBJECTID":538660},"geometry":{"x":165572.20000000019,"y":2562408.0600000024}},{"attributes":{"ID":538688,"DIS_CODE":0,"TOWNNAME":"佳里區","LI":"安西里","LIN":"10鄰","STREET":"義民街","SECT":" ","MAREA":" ","LANE":" ","ALLEY":" ","HOUSE_NO":"２４２號","E_COORD97":165563.89000000001,"N_COORD97":2562407.27,"ADDRESS":"義民街２４２號","OBJECTID":538661},"geometry":{"x":165563.88999999966,"y":2562407.2699999996}},{"attributes":{"ID":538689,"DIS_CODE":0,"TOWNNAME":"佳里區","LI":"安西里","LIN":"10鄰","STREET":"義民街","SECT":" ","MAREA":" ","LANE":" ","ALLEY":" ","HOUSE_NO":"２４６號","E_COORD97":165556.38,"N_COORD97":2562406.21,"ADDRESS":"義民街２４６號","OBJECTID":538662},"geometry":{"x":165556.38000000082,"y":2562406.209999999}},{"attributes":{"ID":538690,"DIS_CODE":0,"TOWNNAME":"佳里區","LI":"安西里","LIN":"10鄰","STREET":"義民街","SECT":" ","MAREA":" ","LANE":" ","ALLEY":" ","HOUSE_NO":"２４８號","E_COORD97":165550.32000000001,"N_COORD97":2562405.6000000001,"ADDRESS":"義民街２４８號","OBJECTID":538663},"geometry":{"x":165550.32000000123,"y":2562405.5999999978}},{"attributes":{"ID":538691,"DIS_CODE":0,"TOWNNAME":"佳里區","LI":"安西里","LIN":"10鄰","STREET":"義民街","SECT":" ","MAREA":" ","LANE":" ","ALLEY":" ","HOUSE_NO":"２５０號","E_COORD97":165545.53,"N_COORD97":2562404.71,"ADDRESS":"義民街２５０號","OBJECTID":538664},"geometry":{"x":165545.53000000119,"y":2562404.7100000009}},{"attributes":{"ID":538692,"DIS_CODE":0,"TOWNNAME":"佳里區","LI":"安西里","LIN":"10鄰","STREET":"義民街","SECT":" ","MAREA":" ","LANE":" ","ALLEY":" ","HOUSE_NO":"２５２號","E_COORD97":165540.98999999999,"N_COORD97":2562404.1400000001,"ADDRESS":"義民街２５２號","OBJECTID":538665},"geometry":{"x":165540.99000000115,"y":2562404.1400000025}},{"attributes":{"ID":538693,"DIS_CODE":0,"TOWNNAME":"佳里區","LI":"安西里","LIN":"10鄰","STREET":"義民街","SECT":" ","MAREA":" ","LANE":" ","ALLEY":" ","HOUSE_NO":"２５４號","E_COORD97":165535.94,"N_COORD97":2562404.1400000001,"ADDRESS":"義民街２５４號","OBJECTID":538666},"geometry":{"x":165535.94000000134,"y":2562404.1400000025}},{"attributes":{"ID":538694,"DIS_CODE":0,"TOWNNAME":"佳里區","LI":"安西里","LIN":"10鄰","STREET":"義民街","SECT":" ","MAREA":" ","LANE":" ","ALLEY":" ","HOUSE_NO":"２５６號","E_COORD97":165531.57000000001,"N_COORD97":2562403.3399999999,"ADDRESS":"義民街２５６號","OBJECTID":538667},"geometry":{"x":165531.57000000123,"y":2562403.3399999999}},{"attributes":{"ID":538695,"DIS_CODE":0,"TOWNNAME":"北區","LI":"裕民里","LIN":"12鄰","STREET":"臨安路","SECT":"二段","MAREA":" ","LANE":" ","ALLEY":" ","HOUSE_NO":"６９號","E_COORD97":167650.47,"N_COORD97":2544831.2000000002,"ADDRESS":"臨安路二段６９號","OBJECTID":538668},"geometry":{"x":167650.4700000016,"y":2544831.1999999993}},{"attributes":{"ID":538696,"DIS_CODE":0,"TOWNNAME":"北區","LI":"裕民里","LIN":"12鄰","STREET":"臨安路","SECT":"二段","MAREA":" ","LANE":" ","ALLEY":" ","HOUSE_NO":"７１號","E_COORD97":167653.79000000001,"N_COORD97":2544835.25,"ADDRESS":"臨安路二段７１號","OBJECTID":538669},"geometry":{"x":167653.7900000019,"y":2544835.25}},{"attributes":{"ID":538697,"DIS_CODE":0,"TOWNNAME":"北區","LI":"裕民里","LIN":"12鄰","STREET":"臨安路","SECT":"二段","MAREA":" ","LANE":" ","ALLEY":" ","HOUSE_NO":"７３號","E_COORD97":167657.12,"N_COORD97":2544838.5699999998,"ADDRESS":"臨安路二段７３號","OBJECTID":538670},"geometry":{"x":167657.12000000104,"y":2544838.5700000022}},{"attributes":{"ID":538698,"DIS_CODE":0,"TOWNNAME":"北區","LI":"裕民里","LIN":"9鄰","STREET":"臨安路","SECT":"二段","MAREA":" ","LANE":" ","ALLEY":" ","HOUSE_NO":"５７號","E_COORD97":167631.01999999999,"N_COORD97":2544820.9700000002,"ADDRESS":"臨安路二段５７號","OBJECTID":538671},"geometry":{"x":167631.01999999955,"y":2544820.9700000007}},{"attributes":{"ID":538699,"DIS_CODE":0,"TOWNNAME":"北區","LI":"裕民里","LIN":"12鄰","STREET":"臨安路","SECT":"二段","MAREA":" ","LANE":" ","ALLEY":" ","HOUSE_NO":"６３號","E_COORD97":167636.79999999999,"N_COORD97":2544828.2400000002,"ADDRESS":"臨安路二段６３號","OBJECTID":538672},"geometry":{"x":167636.80000000075,"y":2544828.2400000002}},{"attributes":{"ID":538700,"DIS_CODE":0,"TOWNNAME":"北區","LI":"裕民里","LIN":"12鄰","STREET":"臨安路","SECT":"二段","MAREA":" ","LANE":" ","ALLEY":" ","HOUSE_NO":"６５號","E_COORD97":167641.23000000001,"N_COORD97":2544827.5099999998,"ADDRESS":"臨安路二段６５號","OBJECTID":538673},"geometry":{"x":167641.23000000138,"y":2544827.5100000035}},{"attributes":{"ID":538701,"DIS_CODE":0,"TOWNNAME":"北區","LI":"裕民里","LIN":"12鄰","STREET":"臨安路","SECT":"二段","MAREA":" ","LANE":" ","ALLEY":" ","HOUSE_NO":"６７號","E_COORD97":167647.14000000001,"N_COORD97":2544828.2400000002,"ADDRESS":"臨安路二段６７號","OBJECTID":538674},"geometry":{"x":167647.13999999966,"y":2544828.2400000002}},{"attributes":{"ID":538702,"DIS_CODE":0,"TOWNNAME":"安平區","LI":"西門里","LIN":"12鄰","STREET":"古堡街","SECT":" ","MAREA":" ","LANE":" ","ALLEY":" ","HOUSE_NO":"１０９號","E_COORD97":163705.45999999999,"N_COORD97":2544856.1600000001,"ADDRESS":"古堡街１０９號","OBJECTID":538675},"geometry":{"x":163705.45999999996,"y":2544856.1600000001}},{"attributes":{"ID":538703,"DIS_CODE":0,"TOWNNAME":"安平區","LI":"港仔里","LIN":"12鄰","STREET":"觀音街","SECT":" ","MAREA":" ","LANE":" ","ALLEY":" ","HOUSE_NO":"３０號","E_COORD97":164266.37,"N_COORD97":2544519.77,"ADDRESS":"觀音街３０號","OBJECTID":538676},"geometry":{"x":164266.37000000104,"y":2544519.7699999996}},{"attributes":{"ID":538704,"DIS_CODE":0,"TOWNNAME":"安平區","LI":"港仔里","LIN":"12鄰","STREET":"觀音街","SECT":" ","MAREA":" ","LANE":" ","ALLEY":" ","HOUSE_NO":"３２號","E_COORD97":164262.69,"N_COORD97":2544521.5499999998,"ADDRESS":"觀音街３２號","OBJECTID":538677},"geometry":{"x":164262.69000000227,"y":2544521.5500000007}},{"attributes":{"ID":538705,"DIS_CODE":0,"TOWNNAME":"北區","LI":"成德里","LIN":"12鄰","STREET":"海安路","SECT":"三段","MAREA":" ","LANE":" ","ALLEY":" ","HOUSE_NO":"３５８號","E_COORD97":168010.29999999999,"N_COORD97":2545555.1600000001,"ADDRESS":"海安路三段３５８號","OBJECTID":538678},"geometry":{"x":168010.29999999981,"y":2545555.1600000001}},{"attributes":{"ID":538706,"DIS_CODE":0,"TOWNNAME":"南區","LI":"廣州里","LIN":"12鄰","STREET":"建南路","SECT":" ","MAREA":" ","LANE":" ","ALLEY":" ","HOUSE_NO":"５３號","E_COORD97":167317.19,"N_COORD97":2542824.8500000001,"ADDRESS":"建南路５３號","OBJECTID":538679},"geometry":{"x":167317.19000000041,"y":2542824.8500000034}},{"attributes":{"ID":538707,"DIS_CODE":0,"TOWNNAME":"南區","LI":"廣州里","LIN":"12鄰","STREET":"建南路","SECT":" ","MAREA":" ","LANE":" ","ALLEY":" ","HOUSE_NO":"５５號","E_COORD97":167311.28,"N_COORD97":2542824.8500000001,"ADDRESS":"建南路５５號","OBJECTID":538680},"geometry":{"x":167311.28000000026,"y":2542824.8500000034}},{"attributes":{"ID":538708,"DIS_CODE":0,"TOWNNAME":"北區","LI":"力行里","LIN":"12鄰","STREET":"力行街","SECT":" ","MAREA":" ","LANE":" ","ALLEY":" ","HOUSE_NO":"１２號","E_COORD97":170938.72,"N_COORD97":2545332.6200000001,"ADDRESS":"力行街１２號","OBJECTID":538681},"geometry":{"x":170938.71999999974,"y":2545332.620000001}},{"attributes":{"ID":538709,"DIS_CODE":0,"TOWNNAME":"南區","LI":"廣州里","LIN":"12鄰","STREET":"建南路","SECT":" ","MAREA":" ","LANE":" ","ALLEY":" ","HOUSE_NO":"５７號","E_COORD97":167305.37,"N_COORD97":2542826.5299999998,"ADDRESS":"建南路５７號","OBJECTID":538682},"geometry":{"x":167305.37000000011,"y":2542826.5300000031}},{"attributes":{"ID":538710,"DIS_CODE":0,"TOWNNAME":"南區","LI":"廣州里","LIN":"12鄰","STREET":"建南路","SECT":" ","MAREA":" ","LANE":" ","ALLEY":" ","HOUSE_NO":"５９號","E_COORD97":167296.92000000001,"N_COORD97":2542826.9500000002,"ADDRESS":"建南路５９號","OBJECTID":538683},"geometry":{"x":167296.92000000086,"y":2542826.950000003}},{"attributes":{"ID":538711,"DIS_CODE":0,"TOWNNAME":"佳里區","LI":"忠仁里","LIN":"10鄰","STREET":"興中街","SECT":" ","MAREA":" ","LANE":" ","ALLEY":" ","HOUSE_NO":"１２號","E_COORD97":165984.38,"N_COORD97":2562206.7200000002,"ADDRESS":"興中街１２號","OBJECTID":538684},"geometry":{"x":165984.37999999989,"y":2562206.7200000025}},{"attributes":{"ID":538712,"DIS_CODE":0,"TOWNNAME":"北區","LI":"成德里","LIN":"12鄰","STREET":"立賢路","SECT":"一段","MAREA":" ","LANE":" ","ALLEY":" ","HOUSE_NO":"５４９號","E_COORD97":168178.29999999999,"N_COORD97":2545566.23,"ADDRESS":"立賢路一段５４９號","OBJECTID":538685},"geometry":{"x":168178.29999999981,"y":2545566.2300000023}},{"attributes":{"ID":538713,"DIS_CODE":0,"TOWNNAME":"北區","LI":"成德里","LIN":"12鄰","STREET":"立賢路","SECT":"一段","MAREA":" ","LANE":" ","ALLEY":" ","HOUSE_NO":"５５１號","E_COORD97":168172.84,"N_COORD97":2545565.4700000002,"ADDRESS":"立賢路一段５５１號","OBJECTID":538686},"geometry":{"x":168172.83999999985,"y":2545565.4700000025}},{"attributes":{"ID":538714,"DIS_CODE":0,"TOWNNAME":"北區","LI":"成德里","LIN":"12鄰","STREET":"立賢路","SECT":"一段","MAREA":" ","LANE":" ","ALLEY":" ","HOUSE_NO":"５５３號","E_COORD97":168167.76000000001,"N_COORD97":2545565.9700000002,"ADDRESS":"立賢路一段５５３號","OBJECTID":538687},"geometry":{"x":168167.76000000071,"y":2545565.9700000025}},{"attributes":{"ID":538715,"DIS_CODE":0,"TOWNNAME":"北區","LI":"成德里","LIN":"12鄰","STREET":"立賢路","SECT":"一段","MAREA":" ","LANE":" ","ALLEY":" ","HOUSE_NO":"５５５號","E_COORD97":168162.17000000001,"N_COORD97":2545565.5899999999,"ADDRESS":"立賢路一段５５５號","OBJECTID":538688},"geometry":{"x":168162.16999999993,"y":2545565.5899999999}},{"attributes":{"ID":538716,"DIS_CODE":0,"TOWNNAME":"北區","LI":"成功里","LIN":"12鄰","STREET":"北成路","SECT":" ","MAREA":" ","LANE":" ","ALLEY":" ","HOUSE_NO":"３０號","E_COORD97":169136.57999999999,"N_COORD97":2546587.9199999999,"ADDRESS":"北成路３０號","OBJECTID":538689},"geometry":{"x":169136.58000000007,"y":2546587.9200000037}},{"attributes":{"ID":538717,"DIS_CODE":0,"TOWNNAME":"關廟區","LI":"關廟里","LIN":"12鄰","STREET":"民生街","SECT":" ","MAREA":" ","LANE":" ","ALLEY":" ","HOUSE_NO":"１７８號","E_COORD97":180872.89000000001,"N_COORD97":2539855.29,"ADDRESS":"民生街１７８號","OBJECTID":538690},"geometry":{"x":180872.88999999966,"y":2539855.290000001}},{"attributes":{"ID":538718,"DIS_CODE":0,"TOWNNAME":"北區","LI":"公園里","LIN":"12鄰","STREET":"西華街","SECT":" ","MAREA":" ","LANE":" ","ALLEY":" ","HOUSE_NO":"７５號","E_COORD97":169083.14999999999,"N_COORD97":2544505.98,"ADDRESS":"西華街７５號","OBJECTID":538691},"geometry":{"x":169083.1500000013,"y":2544505.9800000004}},{"attributes":{"ID":538719,"DIS_CODE":0,"TOWNNAME":"北區","LI":"公園里","LIN":"12鄰","STREET":"公園南路","SECT":" ","MAREA":" ","LANE":" ","ALLEY":" ","HOUSE_NO":"９５號","E_COORD97":169037.42000000001,"N_COORD97":2544489.5099999998,"ADDRESS":"公園南路９５號","OBJECTID":538692},"geometry":{"x":169037.41999999993,"y":2544489.5100000016}},{"attributes":{"ID":538720,"DIS_CODE":0,"TOWNNAME":"北區","LI":"公園里","LIN":"12鄰","STREET":"西華街","SECT":" ","MAREA":" ","LANE":" ","ALLEY":" ","HOUSE_NO":"６７號","E_COORD97":169079.13,"N_COORD97":2544488.6699999999,"ADDRESS":"西華街６７號","OBJECTID":538693},"geometry":{"x":169079.13000000082,"y":2544488.6700000018}},{"attributes":{"ID":538721,"DIS_CODE":0,"TOWNNAME":"北區","LI":"公園里","LIN":"12鄰","STREET":"西華街","SECT":" ","MAREA":" ","LANE":" ","ALLEY":" ","HOUSE_NO":"６９號","E_COORD97":169080.01999999999,"N_COORD97":2544493.02,"ADDRESS":"西華街６９號","OBJECTID":538694},"geometry":{"x":169080.01999999955,"y":2544493.0200000014}},{"attributes":{"ID":538722,"DIS_CODE":0,"TOWNNAME":"北區","LI":"公園里","LIN":"12鄰","STREET":"西華街","SECT":" ","MAREA":" ","LANE":" ","ALLEY":" ","HOUSE_NO":"７１號","E_COORD97":169081.03,"N_COORD97":2544497.1499999999,"ADDRESS":"西華街７１號","OBJECTID":538695},"geometry":{"x":169081.03000000026,"y":2544497.1500000004}},{"attributes":{"ID":538723,"DIS_CODE":0,"TOWNNAME":"北區","LI":"公園里","LIN":"12鄰","STREET":"西華街","SECT":" ","MAREA":" ","LANE":" ","ALLEY":" ","HOUSE_NO":"７３號","E_COORD97":169082.03,"N_COORD97":2544501.5099999998,"ADDRESS":"西華街７３號","OBJECTID":538696},"geometry":{"x":169082.03000000119,"y":2544501.5099999998}},{"attributes":{"ID":538724,"DIS_CODE":0,"TOWNNAME":"北區","LI":"公園里","LIN":"12鄰","STREET":"西華街","SECT":" ","MAREA":" ","LANE":" ","ALLEY":" ","HOUSE_NO":"７７號","E_COORD97":169084.16,"N_COORD97":2544510.4399999999,"ADDRESS":"西華街７７號","OBJECTID":538697},"geometry":{"x":169084.16000000108,"y":2544510.4400000013}},{"attributes":{"ID":538725,"DIS_CODE":0,"TOWNNAME":"北區","LI":"公園里","LIN":"12鄰","STREET":"西華街","SECT":" ","MAREA":" ","LANE":" ","ALLEY":" ","HOUSE_NO":"７７號地下室","E_COORD97":169084.16,"N_COORD97":2544510.4399999999,"ADDRESS":"西華街７７號地下室","OBJECTID":538698},"geometry":{"x":169084.16000000108,"y":2544510.4400000013}},{"attributes":{"ID":538726,"DIS_CODE":0,"TOWNNAME":"北區","LI":"公園里","LIN":"12鄰","STREET":"西華街","SECT":" ","MAREA":" ","LANE":" ","ALLEY":" ","HOUSE_NO":"８３號","E_COORD97":169069.62,"N_COORD97":2544489.5600000001,"ADDRESS":"西華街８３號","OBJECTID":538699},"geometry":{"x":169069.62000000011,"y":2544489.5600000024}},{"attributes":{"ID":538727,"DIS_CODE":0,"TOWNNAME":"北區","LI":"公園里","LIN":"12鄰","STREET":"西華街","SECT":" ","MAREA":" ","LANE":" ","ALLEY":" ","HOUSE_NO":"８７號","E_COORD97":169056.42999999999,"N_COORD97":2544492.6899999999,"ADDRESS":"西華街８７號","OBJECTID":538700},"geometry":{"x":169056.43000000063,"y":2544492.6899999995}},{"attributes":{"ID":538728,"DIS_CODE":0,"TOWNNAME":"北區","LI":"公園里","LIN":"12鄰","STREET":"西華街","SECT":" ","MAREA":" ","LANE":" ","ALLEY":" ","HOUSE_NO":"８９號","E_COORD97":169049.39000000001,"N_COORD97":2544494.3599999999,"ADDRESS":"西華街８９號","OBJECTID":538701},"geometry":{"x":169049.39000000153,"y":2544494.3599999994}},{"attributes":{"ID":538729,"DIS_CODE":0,"TOWNNAME":"北區","LI":"公園里","LIN":"12鄰","STREET":"西華街","SECT":" ","MAREA":" ","LANE":" ","ALLEY":" ","HOUSE_NO":"９１號","E_COORD97":169043.01000000001,"N_COORD97":2544495.9300000002,"ADDRESS":"西華街９１號","OBJECTID":538702},"geometry":{"x":169043.00999999978,"y":2544495.9300000034}},{"attributes":{"ID":538730,"DIS_CODE":0,"TOWNNAME":"北區","LI":"公園里","LIN":"12鄰","STREET":"西華街","SECT":" ","MAREA":" ","LANE":" ","ALLEY":" ","HOUSE_NO":"９３號","E_COORD97":169043.79999999999,"N_COORD97":2544508.54,"ADDRESS":"西華街９３號","OBJECTID":538703},"geometry":{"x":169043.80000000075,"y":2544508.540000001}},{"attributes":{"ID":538731,"DIS_CODE":0,"TOWNNAME":"北區","LI":"公園里","LIN":"12鄰","STREET":"西華街","SECT":" ","MAREA":" ","LANE":" ","ALLEY":" ","HOUSE_NO":"９５號","E_COORD97":169045.01999999999,"N_COORD97":2544514.8199999998,"ADDRESS":"西華街９５號","OBJECTID":538704},"geometry":{"x":169045.02000000142,"y":2544514.8200000022}},{"attributes":{"ID":538732,"DIS_CODE":0,"TOWNNAME":"北區","LI":"公園里","LIN":"12鄰","STREET":"西華街","SECT":" ","MAREA":" ","LANE":" ","ALLEY":" ","HOUSE_NO":"９７號","E_COORD97":169046.92000000001,"N_COORD97":2544521.75,"ADDRESS":"西華街９７號","OBJECTID":538705},"geometry":{"x":169046.92000000086,"y":2544521.7500000019}},{"attributes":{"ID":538733,"DIS_CODE":0,"TOWNNAME":"新營區","LI":"王公里","LIN":"12鄰","STREET":"義和街","SECT":" ","MAREA":" ","LANE":" ","ALLEY":" ","HOUSE_NO":"３之１８號","E_COORD97":180550.92000000001,"N_COORD97":2579060.79,"ADDRESS":"義和街３之１８號","OBJECTID":538706},"geometry":{"x":180550.91999999993,"y":2579060.7900000028}},{"attributes":{"ID":538734,"DIS_CODE":0,"TOWNNAME":"新營區","LI":"新東里","LIN":"12鄰","STREET":"東大街","SECT":" ","MAREA":" ","LANE":" ","ALLEY":" ","HOUSE_NO":"５８號","E_COORD97":181016.26000000001,"N_COORD97":2579162.6499999999,"ADDRESS":"東大街５８號","OBJECTID":538707},"geometry":{"x":181016.25999999978,"y":2579162.6500000022}},{"attributes":{"ID":538735,"DIS_CODE":0,"TOWNNAME":"新營區","LI":"民權里","LIN":"12鄰","STREET":"武昌街","SECT":" ","MAREA":" ","LANE":" ","ALLEY":" ","HOUSE_NO":"１７號","E_COORD97":179852.42999999999,"N_COORD97":2578333.1000000001,"ADDRESS":"武昌街１７號","OBJECTID":538708},"geometry":{"x":179852.4299999997,"y":2578333.0999999996}},{"attributes":{"ID":538736,"DIS_CODE":0,"TOWNNAME":"新營區","LI":"三仙里","LIN":"12鄰","STREET":"民權路","SECT":" ","MAREA":" ","LANE":" ","ALLEY":" ","HOUSE_NO":"５１號","E_COORD97":179688.72,"N_COORD97":2578317.2599999998,"ADDRESS":"民權路５１號","OBJECTID":538709},"geometry":{"x":179688.72000000067,"y":2578317.2600000016}},{"attributes":{"ID":538737,"DIS_CODE":0,"TOWNNAME":"新營區","LI":"新東里","LIN":"12鄰","STREET":"東大街","SECT":" ","MAREA":" ","LANE":" ","ALLEY":" ","HOUSE_NO":"４９號","E_COORD97":181002.01999999999,"N_COORD97":2579168.25,"ADDRESS":"東大街４９號","OBJECTID":538710},"geometry":{"x":181002.02000000048,"y":2579168.2500000019}},{"attributes":{"ID":538738,"DIS_CODE":0,"TOWNNAME":"新營區","LI":"王公里","LIN":"12鄰","STREET":"義和街","SECT":" ","MAREA":" ","LANE":" ","ALLEY":" ","HOUSE_NO":"３之７號","E_COORD97":180515.92000000001,"N_COORD97":2579062.0499999998,"ADDRESS":"義和街３之７號","OBJECTID":538711},"geometry":{"x":180515.92000000086,"y":2579062.0500000026}},{"attributes":{"ID":538739,"DIS_CODE":0,"TOWNNAME":"南區","LI":"再興里","LIN":"12鄰","STREET":"三官路","SECT":" ","MAREA":" ","LANE":" ","ALLEY":" ","HOUSE_NO":"２１４號","E_COORD97":167147.19,"N_COORD97":2541989.8700000001,"ADDRESS":"三官路２１４號","OBJECTID":538712},"geometry":{"x":167147.19000000041,"y":2541989.8700000029}},{"attributes":{"ID":538740,"DIS_CODE":0,"TOWNNAME":"南區","LI":"再興里","LIN":"12鄰","STREET":"三官路","SECT":" ","MAREA":" ","LANE":" ","ALLEY":" ","HOUSE_NO":"１９０號","E_COORD97":167199.42000000001,"N_COORD97":2542004.25,"ADDRESS":"三官路１９０號","OBJECTID":538713},"geometry":{"x":167199.41999999993,"y":2542004.25}},{"attributes":{"ID":538741,"DIS_CODE":0,"TOWNNAME":"南區","LI":"同安里","LIN":"12鄰","STREET":"明興路","SECT":" ","MAREA":" ","LANE":" ","ALLEY":" ","HOUSE_NO":"１１９５號之２","E_COORD97":166469.26000000001,"N_COORD97":2536246.29,"ADDRESS":"明興路１１９５號之２","OBJECTID":538714},"geometry":{"x":166469.26000000071,"y":2536246.2899999991}},{"attributes":{"ID":538742,"DIS_CODE":0,"TOWNNAME":"安平區","LI":"億載里","LIN":"12鄰","STREET":"郡平路","SECT":" ","MAREA":" ","LANE":" ","ALLEY":" ","HOUSE_NO":"３２１號","E_COORD97":164270.81,"N_COORD97":2543364.7599999998,"ADDRESS":"郡平路３２１號","OBJECTID":538715},"geometry":{"x":164270.80999999959,"y":2543364.7600000035}},{"attributes":{"ID":538743,"DIS_CODE":0,"TOWNNAME":"安平區","LI":"國平里","LIN":"12鄰","STREET":"文平路","SECT":" ","MAREA":" ","LANE":" ","ALLEY":" ","HOUSE_NO":"７９號","E_COORD97":165681.53,"N_COORD97":2542895.7000000002,"ADDRESS":"文平路７９號","OBJECTID":538716},"geometry":{"x":165681.53000000119,"y":2542895.6999999993}},{"attributes":{"ID":538744,"DIS_CODE":0,"TOWNNAME":"安平區","LI":"國平里","LIN":"12鄰","STREET":"文平路","SECT":" ","MAREA":" ","LANE":" ","ALLEY":" ","HOUSE_NO":"７７號","E_COORD97":165680.92000000001,"N_COORD97":2542892.2999999998,"ADDRESS":"文平路７７號","OBJECTID":538717},"geometry":{"x":165680.91999999993,"y":2542892.3000000026}},{"attributes":{"ID":538745,"DIS_CODE":0,"TOWNNAME":"安平區","LI":"國平里","LIN":"12鄰","STREET":"文平路","SECT":" ","MAREA":" ","LANE":" ","ALLEY":" ","HOUSE_NO":"７５號","E_COORD97":165680.12,"N_COORD97":2542888.8999999999,"ADDRESS":"文平路７５號","OBJECTID":538718},"geometry":{"x":165680.12000000197,"y":2542888.9000000004}},{"attributes":{"ID":538746,"DIS_CODE":0,"TOWNNAME":"安平區","LI":"金城里","LIN":"12鄰","STREET":"世平三街","SECT":" ","MAREA":" ","LANE":" ","ALLEY":" ","HOUSE_NO":"２５號","E_COORD97":162765.14999999999,"N_COORD97":2543983.1200000001,"ADDRESS":"世平三街２５號","OBJECTID":538719},"geometry":{"x":162765.1500000013,"y":2543983.120000001}},{"attributes":{"ID":538747,"DIS_CODE":0,"TOWNNAME":"安平區","LI":"怡平里","LIN":"12鄰","STREET":"建平十二街","SECT":" ","MAREA":" ","LANE":" ","ALLEY":" ","HOUSE_NO":"１３３號","E_COORD97":165734.34,"N_COORD97":2544017.8799999999,"ADDRESS":"建平十二街１３３號","OBJECTID":538720},"geometry":{"x":165734.34000000078,"y":2544017.8800000008}},{"attributes":{"ID":538748,"DIS_CODE":0,"TOWNNAME":"安平區","LI":"國平里","LIN":"12鄰","STREET":"建平三街","SECT":" ","MAREA":" ","LANE":" ","ALLEY":" ","HOUSE_NO":"１２３號","E_COORD97":165655.51999999999,"N_COORD97":2542928.6200000001,"ADDRESS":"建平三街１２３號","OBJECTID":538721},"geometry":{"x":165655.51999999955,"y":2542928.620000001}},{"attributes":{"ID":538749,"DIS_CODE":0,"TOWNNAME":"安平區","LI":"國平里","LIN":"12鄰","STREET":"建平三街","SECT":" ","MAREA":" ","LANE":" ","ALLEY":" ","HOUSE_NO":"１２５號","E_COORD97":165649.51000000001,"N_COORD97":2542927.5299999998,"ADDRESS":"建平三街１２５號","OBJECTID":538722},"geometry":{"x":165649.50999999978,"y":2542927.5299999993}},{"attributes":{"ID":538750,"DIS_CODE":0,"TOWNNAME":"安平區","LI":"建平里","LIN":"12鄰","STREET":"建平十四街","SECT":" ","MAREA":" ","LANE":" ","ALLEY":" ","HOUSE_NO":"６４號","E_COORD97":166259.29999999999,"N_COORD97":2544064.1200000001,"ADDRESS":"建平十四街６４號","OBJECTID":538723},"geometry":{"x":166259.29999999981,"y":2544064.120000001}},{"attributes":{"ID":538751,"DIS_CODE":0,"TOWNNAME":"安平區","LI":"建平里","LIN":"12鄰","STREET":"建平十四街","SECT":" ","MAREA":" ","LANE":" ","ALLEY":" ","HOUSE_NO":"６６號","E_COORD97":166248.26999999999,"N_COORD97":2544065.3399999999,"ADDRESS":"建平十四街６６號","OBJECTID":538724},"geometry":{"x":166248.27000000048,"y":2544065.3399999999}},{"attributes":{"ID":538752,"DIS_CODE":0,"TOWNNAME":"安平區","LI":"建平里","LIN":"12鄰","STREET":"建平十四街","SECT":" ","MAREA":" ","LANE":" ","ALLEY":" ","HOUSE_NO":"６８號","E_COORD97":166235.13,"N_COORD97":2544066.54,"ADDRESS":"建平十四街６８號","OBJECTID":538725},"geometry":{"x":166235.12999999989,"y":2544066.5399999991}},{"attributes":{"ID":538753,"DIS_CODE":0,"TOWNNAME":"安平區","LI":"建平里","LIN":"12鄰","STREET":"建平十四街","SECT":" ","MAREA":" ","LANE":" ","ALLEY":" ","HOUSE_NO":"７６號","E_COORD97":166203.81,"N_COORD97":2544072.2599999998,"ADDRESS":"建平十四街７６號","OBJECTID":538726},"geometry":{"x":166203.81000000052,"y":2544072.2599999998}},{"attributes":{"ID":538754,"DIS_CODE":0,"TOWNNAME":"安平區","LI":"建平里","LIN":"12鄰","STREET":"建平十四街","SECT":" ","MAREA":" ","LANE":" ","ALLEY":" ","HOUSE_NO":"７８號","E_COORD97":166190.79000000001,"N_COORD97":2544077.1600000001,"ADDRESS":"建平十四街７８號","OBJECTID":538727},"geometry":{"x":166190.7900000019,"y":2544077.1600000001}},{"attributes":{"ID":538755,"DIS_CODE":0,"TOWNNAME":"安平區","LI":"建平里","LIN":"12鄰","STREET":"建平十四街","SECT":" ","MAREA":" ","LANE":" ","ALLEY":" ","HOUSE_NO":"８０號","E_COORD97":166186.60999999999,"N_COORD97":2544076.3199999998,"ADDRESS":"建平十四街８０號","OBJECTID":538728},"geometry":{"x":166186.61000000034,"y":2544076.3200000003}},{"attributes":{"ID":538756,"DIS_CODE":0,"TOWNNAME":"安平區","LI":"建平里","LIN":"12鄰","STREET":"建平十四街","SECT":" ","MAREA":" ","LANE":" ","ALLEY":" ","HOUSE_NO":"８２號","E_COORD97":166182.66,"N_COORD97":2544076.5600000001,"ADDRESS":"建平十四街８２號","OBJECTID":538729},"geometry":{"x":166182.66000000015,"y":2544076.5600000024}},{"attributes":{"ID":538757,"DIS_CODE":0,"TOWNNAME":"安平區","LI":"建平里","LIN":"12鄰","STREET":"建平十四街","SECT":" ","MAREA":" ","LANE":" ","ALLEY":" ","HOUSE_NO":"８４號","E_COORD97":166177.88,"N_COORD97":2544076.5600000001,"ADDRESS":"建平十四街８４號","OBJECTID":538730},"geometry":{"x":166177.87999999989,"y":2544076.5600000024}},{"attributes":{"ID":538758,"DIS_CODE":0,"TOWNNAME":"安平區","LI":"建平里","LIN":"12鄰","STREET":"建平十四街","SECT":" ","MAREA":" ","LANE":" ","ALLEY":" ","HOUSE_NO":"８６號","E_COORD97":166174.06,"N_COORD97":2544076.7999999998,"ADDRESS":"建平十四街８６號","OBJECTID":538731},"geometry":{"x":166174.05999999959,"y":2544076.8000000007}},{"attributes":{"ID":538759,"DIS_CODE":0,"TOWNNAME":"安平區","LI":"建平里","LIN":"12鄰","STREET":"建平十四街","SECT":" ","MAREA":" ","LANE":" ","ALLEY":" ","HOUSE_NO":"８８號","E_COORD97":166169.51999999999,"N_COORD97":2544077.1600000001,"ADDRESS":"建平十四街８８號","OBJECTID":538732},"geometry":{"x":166169.51999999955,"y":2544077.1600000001}},{"attributes":{"ID":538760,"DIS_CODE":0,"TOWNNAME":"安平區","LI":"建平里","LIN":"12鄰","STREET":"建平十四街","SECT":" ","MAREA":" ","LANE":" ","ALLEY":" ","HOUSE_NO":"９０號","E_COORD97":166165.57999999999,"N_COORD97":2544077.6400000001,"ADDRESS":"建平十四街９０號","OBJECTID":538733},"geometry":{"x":166165.58000000101,"y":2544077.6400000006}},{"attributes":{"ID":538761,"DIS_CODE":0,"TOWNNAME":"安平區","LI":"建平里","LIN":"12鄰","STREET":"建平十四街","SECT":" ","MAREA":" ","LANE":" ","ALLEY":" ","HOUSE_NO":"９２號","E_COORD97":166160.92000000001,"N_COORD97":2544077.7599999998,"ADDRESS":"建平十四街９２號","OBJECTID":538734},"geometry":{"x":166160.92000000179,"y":2544077.7600000016}},{"attributes":{"ID":538762,"DIS_CODE":0,"TOWNNAME":"新化區","LI":"太平里","LIN":"12鄰","STREET":"中正路","SECT":" ","MAREA":" ","LANE":" ","ALLEY":" ","HOUSE_NO":"６４７號","E_COORD97":178880.20999999999,"N_COORD97":2548977.25,"ADDRESS":"中正路６４７號","OBJECTID":538735},"geometry":{"x":178880.21000000089,"y":2548977.2500000019}},{"attributes":{"ID":538763,"DIS_CODE":0,"TOWNNAME":"新化區","LI":"武安里","LIN":"12鄰","STREET":"正新南路","SECT":" ","MAREA":" ","LANE":" ","ALLEY":" ","HOUSE_NO":"９５號","E_COORD97":178924.01999999999,"N_COORD97":2547974.25,"ADDRESS":"正新南路９５號","OBJECTID":538736},"geometry":{"x":178924.01999999955,"y":2547974.25}},{"attributes":{"ID":538764,"DIS_CODE":0,"TOWNNAME":"新化區","LI":"太平里","LIN":"12鄰","STREET":"民權街","SECT":" ","MAREA":" ","LANE":" ","ALLEY":" ","HOUSE_NO":"２３３號","E_COORD97":178784.91,"N_COORD97":2548969.25,"ADDRESS":"民權街２３３號","OBJECTID":538737},"geometry":{"x":178784.91000000015,"y":2548969.2500000037}},{"attributes":{"ID":538765,"DIS_CODE":0,"TOWNNAME":"東區","LI":"德光里","LIN":"12鄰","STREET":"崇學路","SECT":" ","MAREA":" ","LANE":" ","ALLEY":" ","HOUSE_NO":"１５３號","E_COORD97":170342.81,"N_COORD97":2542269.3500000001,"ADDRESS":"崇學路１５３號","OBJECTID":538738},"geometry":{"x":170342.80999999959,"y":2542269.3500000015}},{"attributes":{"ID":538766,"DIS_CODE":0,"TOWNNAME":"東區","LI":"德光里","LIN":"12鄰","STREET":"崇學路","SECT":" ","MAREA":" ","LANE":" ","ALLEY":" ","HOUSE_NO":"１５５號","E_COORD97":170345.14999999999,"N_COORD97":2542273.1800000002,"ADDRESS":"崇學路１５５號","OBJECTID":538739},"geometry":{"x":170345.14999999944,"y":2542273.1800000034}},{"attributes":{"ID":538767,"DIS_CODE":0,"TOWNNAME":"東區","LI":"德光里","LIN":"12鄰","STREET":"崇學路","SECT":" ","MAREA":" ","LANE":" ","ALLEY":" ","HOUSE_NO":"１５９號","E_COORD97":170353.19,"N_COORD97":2542284.1699999999,"ADDRESS":"崇學路１５９號","OBJECTID":538740},"geometry":{"x":170353.19000000041,"y":2542284.1700000018}},{"attributes":{"ID":538768,"DIS_CODE":0,"TOWNNAME":"東區","LI":"德光里","LIN":"12鄰","STREET":"崇學路","SECT":" ","MAREA":" ","LANE":" ","ALLEY":" ","HOUSE_NO":"１６５號","E_COORD97":170364.45999999999,"N_COORD97":2542290.0299999998,"ADDRESS":"崇學路１６５號","OBJECTID":538741},"geometry":{"x":170364.45999999996,"y":2542290.0299999993}},{"attributes":{"ID":538769,"DIS_CODE":0,"TOWNNAME":"東區","LI":"德光里","LIN":"12鄰","STREET":"崇學路","SECT":" ","MAREA":" ","LANE":" ","ALLEY":" ","HOUSE_NO":"１６７號","E_COORD97":170367.29999999999,"N_COORD97":2542293.98,"ADDRESS":"崇學路１６７號","OBJECTID":538742},"geometry":{"x":170367.30000000168,"y":2542293.9800000023}},{"attributes":{"ID":538770,"DIS_CODE":0,"TOWNNAME":"東區","LI":"德光里","LIN":"12鄰","STREET":"崇學路","SECT":" ","MAREA":" ","LANE":" ","ALLEY":" ","HOUSE_NO":"１６９號","E_COORD97":170374.54000000001,"N_COORD97":2542302.75,"ADDRESS":"崇學路１６９號","OBJECTID":538743},"geometry":{"x":170374.5400000019,"y":2542302.75}},{"attributes":{"ID":538771,"DIS_CODE":0,"TOWNNAME":"永康區","LI":"永康里","LIN":"12鄰","STREET":"永中街","SECT":" ","MAREA":" ","LANE":" ","ALLEY":" ","HOUSE_NO":"１６號","E_COORD97":173870.89999999999,"N_COORD97":2547065.7400000002,"ADDRESS":"永中街１６號","OBJECTID":538744},"geometry":{"x":173870.90000000037,"y":2547065.7400000002}},{"attributes":{"ID":538772,"DIS_CODE":0,"TOWNNAME":"南區","LI":"竹溪里","LIN":"12鄰","STREET":"體育路","SECT":" ","MAREA":" ","LANE":" ","ALLEY":" ","HOUSE_NO":"８７號","E_COORD97":168857.79000000001,"N_COORD97":2542003.1800000002,"ADDRESS":"體育路８７號","OBJECTID":538745},"geometry":{"x":168857.79000000097,"y":2542003.1800000016}},{"attributes":{"ID":538773,"DIS_CODE":0,"TOWNNAME":"東區","LI":"崇文里","LIN":"12鄰","STREET":"崇德十八街","SECT":" ","MAREA":" ","LANE":" ","ALLEY":" ","HOUSE_NO":"９６之１號","E_COORD97":171051.38,"N_COORD97":2541012.8199999998,"ADDRESS":"崇德十八街９６之１號","OBJECTID":538746},"geometry":{"x":171051.37999999989,"y":2541012.8200000022}},{"attributes":{"ID":538774,"DIS_CODE":0,"TOWNNAME":"東區","LI":"裕聖里","LIN":"12鄰","STREET":"裕文路","SECT":" ","MAREA":" ","LANE":" ","ALLEY":" ","HOUSE_NO":"１５２號","E_COORD97":172451.26000000001,"N_COORD97":2542510.4900000002,"ADDRESS":"裕文路１５２號","OBJECTID":538747},"geometry":{"x":172451.26000000071,"y":2542510.4900000021}},{"attributes":{"ID":538775,"DIS_CODE":0,"TOWNNAME":"佳里區","LI":"忠仁里","LIN":"12鄰","STREET":"新生路","SECT":" ","MAREA":" ","LANE":" ","ALLEY":" ","HOUSE_NO":"６３號","E_COORD97":166032.32000000001,"N_COORD97":2562342.2200000002,"ADDRESS":"新生路６３號","OBJECTID":538748},"geometry":{"x":166032.3200000003,"y":2562342.2200000025}},{"attributes":{"ID":538776,"DIS_CODE":0,"TOWNNAME":"仁德區","LI":"新田里","LIN":"12鄰","STREET":"北保三街","SECT":" ","MAREA":" ","LANE":" ","ALLEY":" ","HOUSE_NO":"２號","E_COORD97":173156.98000000001,"N_COORD97":2539388.3100000001,"ADDRESS":"北保三街２號","OBJECTID":538749},"geometry":{"x":173156.97999999952,"y":2539388.3100000042}},{"attributes":{"ID":538777,"DIS_CODE":0,"TOWNNAME":"佳里區","LI":"忠仁里","LIN":"12鄰","STREET":"新生路","SECT":" ","MAREA":" ","LANE":" ","ALLEY":" ","HOUSE_NO":"１７號","E_COORD97":166137.67999999999,"N_COORD97":2562391.25,"ADDRESS":"新生路１７號","OBJECTID":538750},"geometry":{"x":166137.68000000063,"y":2562391.25}},{"attributes":{"ID":538778,"DIS_CODE":0,"TOWNNAME":"中西區","LI":"仙草里","LIN":"12鄰","STREET":"府緯街","SECT":" ","MAREA":" ","LANE":" ","ALLEY":" ","HOUSE_NO":"３２號","E_COORD97":167885.85999999999,"N_COORD97":2542731.3599999999,"ADDRESS":"府緯街３２號","OBJECTID":538751},"geometry":{"x":167885.8600000022,"y":2542731.3599999994}},{"attributes":{"ID":538779,"DIS_CODE":0,"TOWNNAME":"中西區","LI":"仙草里","LIN":"12鄰","STREET":"府緯街","SECT":" ","MAREA":" ","LANE":" ","ALLEY":" ","HOUSE_NO":"３４號","E_COORD97":167881.17000000001,"N_COORD97":2542731.5299999998,"ADDRESS":"府緯街３４號","OBJECTID":538752},"geometry":{"x":167881.16999999993,"y":2542731.5300000031}},{"attributes":{"ID":538780,"DIS_CODE":0,"TOWNNAME":"中西區","LI":"仙草里","LIN":"12鄰","STREET":"府緯街","SECT":" ","MAREA":" ","LANE":" ","ALLEY":" ","HOUSE_NO":"３６號","E_COORD97":167877.70000000001,"N_COORD97":2542731.3599999999,"ADDRESS":"府緯街３６號","OBJECTID":538753},"geometry":{"x":167877.70000000019,"y":2542731.3599999994}},{"attributes":{"ID":538781,"DIS_CODE":0,"TOWNNAME":"中西區","LI":"仙草里","LIN":"12鄰","STREET":"府緯街","SECT":" ","MAREA":" ","LANE":" ","ALLEY":" ","HOUSE_NO":"３８號","E_COORD97":167873.19,"N_COORD97":2542731.1800000002,"ADDRESS":"府緯街３８號","OBJECTID":538754},"geometry":{"x":167873.19000000041,"y":2542731.1800000034}},{"attributes":{"ID":538782,"DIS_CODE":0,"TOWNNAME":"中西區","LI":"仙草里","LIN":"12鄰","STREET":"府緯街","SECT":" ","MAREA":" ","LANE":" ","ALLEY":" ","HOUSE_NO":"４０號","E_COORD97":167868.16,"N_COORD97":2542731.7000000002,"ADDRESS":"府緯街４０號","OBJECTID":538755},"geometry":{"x":167868.15999999922,"y":2542731.7000000011}},{"attributes":{"ID":538783,"DIS_CODE":0,"TOWNNAME":"中西區","LI":"仙草里","LIN":"12鄰","STREET":"府緯街","SECT":" ","MAREA":" ","LANE":" ","ALLEY":" ","HOUSE_NO":"３０號","E_COORD97":167889.67999999999,"N_COORD97":2542730.4900000002,"ADDRESS":"府緯街３０號","OBJECTID":538756},"geometry":{"x":167889.68000000156,"y":2542730.4900000021}},{"attributes":{"ID":538784,"DIS_CODE":0,"TOWNNAME":"南區","LI":"郡南里","LIN":"12鄰","STREET":"永吉街","SECT":" ","MAREA":" ","LANE":" ","ALLEY":" ","HOUSE_NO":"６０號","E_COORD97":167321.75,"N_COORD97":2540700.8700000001,"ADDRESS":"永吉街６０號","OBJECTID":538757},"geometry":{"x":167321.75000000186,"y":2540700.8700000029}},{"attributes":{"ID":538785,"DIS_CODE":0,"TOWNNAME":"中西區","LI":"小西里","LIN":"12鄰","STREET":"府前路","SECT":"一段","MAREA":" ","LANE":" ","ALLEY":" ","HOUSE_NO":"３７７號","E_COORD97":167861.14000000001,"N_COORD97":2543403.3900000001,"ADDRESS":"府前路一段３７７號","OBJECTID":538758},"geometry":{"x":167861.14000000153,"y":2543403.3900000025}},{"attributes":{"ID":538786,"DIS_CODE":0,"TOWNNAME":"中西區","LI":"小西里","LIN":"12鄰","STREET":"府前路","SECT":"一段","MAREA":" ","LANE":" ","ALLEY":" ","HOUSE_NO":"３７９號","E_COORD97":167857.89000000001,"N_COORD97":2543405.1299999999,"ADDRESS":"府前路一段３７９號","OBJECTID":538759},"geometry":{"x":167857.8900000006,"y":2543405.1300000027}},{"attributes":{"ID":538787,"DIS_CODE":0,"TOWNNAME":"仁德區","LI":"一甲里","LIN":"12鄰","STREET":"忠義路","SECT":" ","MAREA":" ","LANE":" ","ALLEY":" ","HOUSE_NO":"３４７號","E_COORD97":173546.98000000001,"N_COORD97":2541872.77,"ADDRESS":"忠義路３４７號","OBJECTID":538760},"geometry":{"x":173546.98000000231,"y":2541872.7700000014}},{"attributes":{"ID":538788,"DIS_CODE":0,"TOWNNAME":"東區","LI":"龍山里","LIN":"12鄰","STREET":"東門路","SECT":"一段","MAREA":" ","LANE":" ","ALLEY":" ","HOUSE_NO":"３６２號","E_COORD97":169881.26999999999,"N_COORD97":2543001.29,"ADDRESS":"東門路一段３６２號","OBJECTID":538761},"geometry":{"x":169881.27000000048,"y":2543001.290000001}},{"attributes":{"ID":538789,"DIS_CODE":0,"TOWNNAME":"中西區","LI":"天后里","LIN":"12鄰","STREET":"民族路","SECT":"二段","MAREA":" ","LANE":" ","ALLEY":" ","HOUSE_NO":"３６９號","E_COORD97":168165.07999999999,"N_COORD97":2544166.6600000001,"ADDRESS":"民族路二段３６９號","OBJECTID":538762},"geometry":{"x":168165.08000000007,"y":2544166.660000002}},{"attributes":{"ID":538790,"DIS_CODE":0,"TOWNNAME":"東區","LI":"龍山里","LIN":"12鄰","STREET":"東門路","SECT":"一段","MAREA":" ","LANE":" ","ALLEY":" ","HOUSE_NO":"３６４號","E_COORD97":169877.41,"N_COORD97":2542983.0699999998,"ADDRESS":"東門路一段３６４號","OBJECTID":538763},"geometry":{"x":169877.41000000108,"y":2542983.0699999984}},{"attributes":{"ID":538791,"DIS_CODE":0,"TOWNNAME":"中西區","LI":"天后里","LIN":"12鄰","STREET":"民族路","SECT":"二段","MAREA":" ","LANE":" ","ALLEY":" ","HOUSE_NO":"３５５號","E_COORD97":168204.07000000001,"N_COORD97":2544162.1699999999,"ADDRESS":"民族路二段３５５號","OBJECTID":538764},"geometry":{"x":168204.0700000003,"y":2544162.1700000037}},{"attributes":{"ID":538792,"DIS_CODE":0,"TOWNNAME":"中西區","LI":"天后里","LIN":"12鄰","STREET":"民族路","SECT":"二段","MAREA":" ","LANE":" ","ALLEY":" ","HOUSE_NO":"３５７號","E_COORD97":168196.44,"N_COORD97":2544164.3100000001,"ADDRESS":"民族路二段３５７號","OBJECTID":538765},"geometry":{"x":168196.44000000041,"y":2544164.3100000005}},{"attributes":{"ID":538793,"DIS_CODE":0,"TOWNNAME":"麻豆區","LI":"中興里","LIN":"12鄰","STREET":"三民路","SECT":" ","MAREA":" ","LANE":" ","ALLEY":" ","HOUSE_NO":"１８號","E_COORD97":172774.39000000001,"N_COORD97":2564738.48,"ADDRESS":"三民路１８號","OBJECTID":538766},"geometry":{"x":172774.3900000006,"y":2564738.4800000004}},{"attributes":{"ID":538794,"DIS_CODE":0,"TOWNNAME":"中西區","LI":"天后里","LIN":"12鄰","STREET":"民族路","SECT":"二段","MAREA":" ","LANE":" ","ALLEY":" ","HOUSE_NO":"３６１號","E_COORD97":168185.01999999999,"N_COORD97":2544158.6499999999,"ADDRESS":"民族路二段３６１號","OBJECTID":538767},"geometry":{"x":168185.01999999955,"y":2544158.6500000004}},{"attributes":{"ID":538795,"DIS_CODE":0,"TOWNNAME":"中西區","LI":"天后里","LIN":"12鄰","STREET":"民族路","SECT":"二段","MAREA":" ","LANE":" ","ALLEY":" ","HOUSE_NO":"３６３號","E_COORD97":168181.10999999999,"N_COORD97":2544160.4100000001,"ADDRESS":"民族路二段３６３號","OBJECTID":538768},"geometry":{"x":168181.11000000127,"y":2544160.4099999983}},{"attributes":{"ID":538796,"DIS_CODE":0,"TOWNNAME":"中西區","LI":"天后里","LIN":"12鄰","STREET":"民族路","SECT":"二段","MAREA":" ","LANE":" ","ALLEY":" ","HOUSE_NO":"３６５號","E_COORD97":168177.98000000001,"N_COORD97":2544160.9900000002,"ADDRESS":"民族路二段３６５號","OBJECTID":538769},"geometry":{"x":168177.98000000045,"y":2544160.9900000021}},{"attributes":{"ID":538797,"DIS_CODE":0,"TOWNNAME":"中西區","LI":"天后里","LIN":"12鄰","STREET":"民族路","SECT":"二段","MAREA":" ","LANE":" ","ALLEY":" ","HOUSE_NO":"３６７號","E_COORD97":168172.89999999999,"N_COORD97":2544164.5099999998,"ADDRESS":"民族路二段３６７號","OBJECTID":538770},"geometry":{"x":168172.90000000037,"y":2544164.5100000016}},{"attributes":{"ID":538798,"DIS_CODE":0,"TOWNNAME":"中西區","LI":"天后里","LIN":"12鄰","STREET":"民族路","SECT":"二段","MAREA":" ","LANE":" ","ALLEY":" ","HOUSE_NO":"３７１號","E_COORD97":168159.64000000001,"N_COORD97":2544169.2799999998,"ADDRESS":"民族路二段３７１號","OBJECTID":538771},"geometry":{"x":168159.6400000006,"y":2544169.2799999993}},{"attributes":{"ID":538799,"DIS_CODE":0,"TOWNNAME":"中西區","LI":"天后里","LIN":"12鄰","STREET":"民族路","SECT":"二段","MAREA":" ","LANE":" ","ALLEY":" ","HOUSE_NO":"３７３號","E_COORD97":168157.04999999999,"N_COORD97":2544170.3599999999,"ADDRESS":"民族路二段３７３號","OBJECTID":538772},"geometry":{"x":168157.05000000075,"y":2544170.3600000031}},{"attributes":{"ID":538800,"DIS_CODE":0,"TOWNNAME":"中西區","LI":"天后里","LIN":"12鄰","STREET":"永福路","SECT":"二段","MAREA":" ","LANE":" ","ALLEY":" ","HOUSE_NO":"２２９號","E_COORD97":168200.32000000001,"N_COORD97":2544145.2400000002,"ADDRESS":"永福路二段２２９號","OBJECTID":538773},"geometry":{"x":168200.32000000123,"y":2544145.2400000021}},{"attributes":{"ID":538801,"DIS_CODE":0,"TOWNNAME":"中西區","LI":"法華里","LIN":"12鄰","STREET":"法華街","SECT":" ","MAREA":" ","LANE":" ","ALLEY":" ","HOUSE_NO":"１６３號","E_COORD97":168875.10999999999,"N_COORD97":2542460.75,"ADDRESS":"法華街１６３號","OBJECTID":538774},"geometry":{"x":168875.11000000034,"y":2542460.7500000019}},{"attributes":{"ID":538802,"DIS_CODE":0,"TOWNNAME":"中西區","LI":"法華里","LIN":"12鄰","STREET":"健康路","SECT":"一段","MAREA":" ","LANE":" ","ALLEY":" ","HOUSE_NO":"１１８號","E_COORD97":168875.10999999999,"N_COORD97":2542449.75,"ADDRESS":"健康路一段１１８號","OBJECTID":538775},"geometry":{"x":168875.11000000034,"y":2542449.7500000019}},{"attributes":{"ID":538803,"DIS_CODE":0,"TOWNNAME":"安南區","LI":"安順里","LIN":"12鄰","STREET":"安和路","SECT":"三段","MAREA":" ","LANE":" ","ALLEY":" ","HOUSE_NO":"２２７號","E_COORD97":169885.82999999999,"N_COORD97":2549984.79,"ADDRESS":"安和路三段２２７號","OBJECTID":538776},"geometry":{"x":169885.83000000007,"y":2549984.7899999972}},{"attributes":{"ID":538804,"DIS_CODE":0,"TOWNNAME":"安南區","LI":"安順里","LIN":"12鄰","STREET":"安和路","SECT":"四段","MAREA":" ","LANE":" ","ALLEY":" ","HOUSE_NO":"４２號","E_COORD97":169987.64000000001,"N_COORD97":2550171.96,"ADDRESS":"安和路四段４２號","OBJECTID":538777},"geometry":{"x":169987.6400000006,"y":2550171.959999999}},{"attributes":{"ID":538805,"DIS_CODE":0,"TOWNNAME":"安南區","LI":"安順里","LIN":"12鄰","STREET":"安和路","SECT":"四段","MAREA":" ","LANE":" ","ALLEY":" ","HOUSE_NO":"５４號","E_COORD97":169975.97,"N_COORD97":2550199,"ADDRESS":"安和路四段５４號","OBJECTID":538778},"geometry":{"x":169975.96999999974,"y":2550199.0000000019}},{"attributes":{"ID":538806,"DIS_CODE":0,"TOWNNAME":"安南區","LI":"安順里","LIN":"12鄰","STREET":"安和路","SECT":"三段","MAREA":" ","LANE":" ","ALLEY":" ","HOUSE_NO":"１６６號","E_COORD97":169910.48000000001,"N_COORD97":2549759.6699999999,"ADDRESS":"安和路三段１６６號","OBJECTID":538779},"geometry":{"x":169910.48000000045,"y":2549759.6700000037}},{"attributes":{"ID":538807,"DIS_CODE":0,"TOWNNAME":"安南區","LI":"安順里","LIN":"12鄰","STREET":"安和路","SECT":"三段","MAREA":" ","LANE":" ","ALLEY":" ","HOUSE_NO":"１６８號","E_COORD97":169907.75,"N_COORD97":2549768.5600000001,"ADDRESS":"安和路三段１６８號","OBJECTID":538780},"geometry":{"x":169907.75,"y":2549768.5600000024}},{"attributes":{"ID":538808,"DIS_CODE":0,"TOWNNAME":"安南區","LI":"安慶里","LIN":"12鄰","STREET":"長溪路","SECT":"一段","MAREA":" ","LANE":" ","ALLEY":" ","HOUSE_NO":"１１９號","E_COORD97":169079.37,"N_COORD97":2548437.1899999999,"ADDRESS":"長溪路一段１１９號","OBJECTID":538781},"geometry":{"x":169079.37000000104,"y":2548437.1900000013}},{"attributes":{"ID":538809,"DIS_CODE":0,"TOWNNAME":"中西區","LI":"協和里","LIN":"12鄰","STREET":"中和街","SECT":" ","MAREA":" ","LANE":" ","ALLEY":" ","HOUSE_NO":"２３４號","E_COORD97":167337.67000000001,"N_COORD97":2544811.9700000002,"ADDRESS":"中和街２３４號","OBJECTID":538782},"geometry":{"x":167337.67000000086,"y":2544811.9700000044}},{"attributes":{"ID":538810,"DIS_CODE":0,"TOWNNAME":"中西區","LI":"協和里","LIN":"12鄰","STREET":"中和街","SECT":" ","MAREA":" ","LANE":" ","ALLEY":" ","HOUSE_NO":"２３８號","E_COORD97":167344.35000000001,"N_COORD97":2544818.79,"ADDRESS":"中和街２３８號","OBJECTID":538783},"geometry":{"x":167344.35000000149,"y":2544818.790000001}},{"attributes":{"ID":538811,"DIS_CODE":0,"TOWNNAME":"中西區","LI":"協和里","LIN":"12鄰","STREET":"文賢路","SECT":" ","MAREA":" ","LANE":" ","ALLEY":" ","HOUSE_NO":"１６５號","E_COORD97":167370.70000000001,"N_COORD97":2544798.8700000001,"ADDRESS":"文賢路１６５號","OBJECTID":538784},"geometry":{"x":167370.70000000019,"y":2544798.870000001}},{"attributes":{"ID":538812,"DIS_CODE":0,"TOWNNAME":"中西區","LI":"協和里","LIN":"12鄰","STREET":"文賢路","SECT":" ","MAREA":" ","LANE":" ","ALLEY":" ","HOUSE_NO":"１６７號","E_COORD97":167368.06,"N_COORD97":2544802.54,"ADDRESS":"文賢路１６７號","OBJECTID":538785},"geometry":{"x":167368.05999999959,"y":2544802.5399999991}},{"attributes":{"ID":538813,"DIS_CODE":0,"TOWNNAME":"中西區","LI":"協和里","LIN":"12鄰","STREET":"文賢路","SECT":" ","MAREA":" ","LANE":" ","ALLEY":" ","HOUSE_NO":"１７５號","E_COORD97":167357.28,"N_COORD97":2544817.9300000002,"ADDRESS":"文賢路１７５號","OBJECTID":538786},"geometry":{"x":167357.28000000212,"y":2544817.9300000034}},{"attributes":{"ID":538814,"DIS_CODE":0,"TOWNNAME":"中西區","LI":"協和里","LIN":"12鄰","STREET":"文賢路","SECT":" ","MAREA":" ","LANE":" ","ALLEY":" ","HOUSE_NO":"１７７號","E_COORD97":167354.75,"N_COORD97":2544821.5899999999,"ADDRESS":"文賢路１７７號","OBJECTID":538787},"geometry":{"x":167354.75,"y":2544821.5900000017}},{"attributes":{"ID":538815,"DIS_CODE":0,"TOWNNAME":"中西區","LI":"協和里","LIN":"12鄰","STREET":"文賢路","SECT":" ","MAREA":" ","LANE":" ","ALLEY":" ","HOUSE_NO":"１７９號","E_COORD97":167351.66,"N_COORD97":2544826.0600000001,"ADDRESS":"文賢路１７９號","OBJECTID":538788},"geometry":{"x":167351.66000000108,"y":2544826.0600000024}},{"attributes":{"ID":538816,"DIS_CODE":0,"TOWNNAME":"中西區","LI":"協和里","LIN":"12鄰","STREET":"協和街","SECT":" ","MAREA":" ","LANE":" ","ALLEY":" ","HOUSE_NO":"２１９號","E_COORD97":167337.98000000001,"N_COORD97":2544774.6800000002,"ADDRESS":"協和街２１９號","OBJECTID":538789},"geometry":{"x":167337.98000000138,"y":2544774.6799999997}},{"attributes":{"ID":538817,"DIS_CODE":0,"TOWNNAME":"中西區","LI":"協和里","LIN":"12鄰","STREET":"協和街","SECT":" ","MAREA":" ","LANE":" ","ALLEY":" ","HOUSE_NO":"２２１號","E_COORD97":167340.78,"N_COORD97":2544777.3199999998,"ADDRESS":"協和街２２１號","OBJECTID":538790},"geometry":{"x":167340.78000000119,"y":2544777.3200000003}},{"attributes":{"ID":538818,"DIS_CODE":0,"TOWNNAME":"中西區","LI":"協和里","LIN":"12鄰","STREET":"協和街","SECT":" ","MAREA":" ","LANE":" ","ALLEY":" ","HOUSE_NO":"２２３號","E_COORD97":167343.89000000001,"N_COORD97":2544779.7999999998,"ADDRESS":"協和街２２３號","OBJECTID":538791},"geometry":{"x":167343.88999999966,"y":2544779.8000000026}},{"attributes":{"ID":538819,"DIS_CODE":0,"TOWNNAME":"永康區","LI":"永康里","LIN":"12鄰","STREET":"永二街","SECT":" ","MAREA":" ","LANE":" ","ALLEY":" ","HOUSE_NO":"７號","E_COORD97":173805.14999999999,"N_COORD97":2547131.04,"ADDRESS":"永二街７號","OBJECTID":538792},"geometry":{"x":173805.15000000224,"y":2547131.0399999991}},{"attributes":{"ID":538820,"DIS_CODE":0,"TOWNNAME":"永康區","LI":"中華里","LIN":"12鄰","STREET":"忠勇街","SECT":" ","MAREA":" ","LANE":" ","ALLEY":" ","HOUSE_NO":"１７號","E_COORD97":171878.5,"N_COORD97":2544400.1200000001,"ADDRESS":"忠勇街１７號","OBJECTID":538793},"geometry":{"x":171878.50000000093,"y":2544400.120000001}},{"attributes":{"ID":538821,"DIS_CODE":0,"TOWNNAME":"永康區","LI":"中華里","LIN":"12鄰","STREET":"忠勇街","SECT":" ","MAREA":" ","LANE":" ","ALLEY":" ","HOUSE_NO":"４１號","E_COORD97":171878.22,"N_COORD97":2544438.4700000002,"ADDRESS":"忠勇街４１號","OBJECTID":538794},"geometry":{"x":171878.2200000016,"y":2544438.4700000007}},{"attributes":{"ID":538822,"DIS_CODE":0,"TOWNNAME":"永康區","LI":"大灣里","LIN":"12鄰","STREET":"民族路","SECT":" ","MAREA":" ","LANE":" ","ALLEY":" ","HOUSE_NO":"３７８號","E_COORD97":174813.87,"N_COORD97":2545350.8199999998,"ADDRESS":"民族路３７８號","OBJECTID":538795},"geometry":{"x":174813.87000000104,"y":2545350.8200000003}},{"attributes":{"ID":538823,"DIS_CODE":0,"TOWNNAME":"永康區","LI":"大灣里","LIN":"12鄰","STREET":"民族路","SECT":" ","MAREA":" ","LANE":" ","ALLEY":" ","HOUSE_NO":"３８６號","E_COORD97":174796.20999999999,"N_COORD97":2545359.5299999998,"ADDRESS":"民族路３８６號","OBJECTID":538796},"geometry":{"x":174796.21000000089,"y":2545359.5300000012}},{"attributes":{"ID":538824,"DIS_CODE":0,"TOWNNAME":"永康區","LI":"大灣里","LIN":"12鄰","STREET":"民族路","SECT":" ","MAREA":" ","LANE":" ","ALLEY":" ","HOUSE_NO":"３９０號","E_COORD97":174792.59,"N_COORD97":2545361.6299999999,"ADDRESS":"民族路３９０號","OBJECTID":538797},"geometry":{"x":174792.58999999985,"y":2545361.6300000027}},{"attributes":{"ID":538825,"DIS_CODE":0,"TOWNNAME":"中西區","LI":"協和里","LIN":"12鄰","STREET":"協和街","SECT":" ","MAREA":" ","LANE":" ","ALLEY":" ","HOUSE_NO":"２２７號","E_COORD97":167345.59,"N_COORD97":2544790.7200000002,"ADDRESS":"協和街２２７號","OBJECTID":538798},"geometry":{"x":167345.58999999985,"y":2544790.7200000025}},{"attributes":{"ID":538826,"DIS_CODE":0,"TOWNNAME":"仁德區","LI":"保安里","LIN":"12鄰","STREET":"開發六路","SECT":" ","MAREA":" ","LANE":" ","ALLEY":" ","HOUSE_NO":"２１號","E_COORD97":173017.07999999999,"N_COORD97":2535768.77,"ADDRESS":"開發六路２１號","OBJECTID":538799},"geometry":{"x":173017.08000000194,"y":2535768.7699999996}},{"attributes":{"ID":538827,"DIS_CODE":0,"TOWNNAME":"仁德區","LI":"仁德里","LIN":"12鄰","STREET":"四維街","SECT":" ","MAREA":" ","LANE":" ","ALLEY":" ","HOUSE_NO":"５０號","E_COORD97":173213.41,"N_COORD97":2541536.5,"ADDRESS":"四維街５０號","OBJECTID":538800},"geometry":{"x":173213.41000000108,"y":2541536.5000000019}}]}