{"displayFieldName":"TOWNNAME","fieldAliases":{"ID":"ID","DIS_CODE":"DIS_CODE","TOWNNAME":"TOWNNAME","LI":"LI","LIN":"LIN","STREET":"STREET","SECT":"SECT","MAREA":"MAREA","LANE":"LANE","ALLEY":"ALLEY","HOUSE_NO":"HOUSE_NO","E_COORD97":"E_COORD97","N_COORD97":"N_COORD97","ADDRESS":"ADDRESS","OBJECTID":"OBJECTID"},"geometryType":"esriGeometryPoint","spatialReference":{"wkid":102443,"latestWkid":3826},"fields":[{"name":"ID","type":"esriFieldTypeDouble","alias":"ID"},{"name":"DIS_CODE","type":"esriFieldTypeInteger","alias":"DIS_CODE"},{"name":"TOWNNAME","type":"esriFieldTypeString","alias":"TOWNNAME","length":8},{"name":"LI","type":"esriFieldTypeString","alias":"LI","length":8},{"name":"LIN","type":"esriFieldTypeString","alias":"LIN","length":12},{"name":"STREET","type":"esriFieldTypeString","alias":"STREET","length":20},{"name":"SECT","type":"esriFieldTypeString","alias":"SECT","length":8},{"name":"MAREA","type":"esriFieldTypeString","alias":"MAREA","length":12},{"name":"LANE","type":"esriFieldTypeString","alias":"LANE","length":10},{"name":"ALLEY","type":"esriFieldTypeString","alias":"ALLEY","length":10},{"name":"HOUSE_NO","type":"esriFieldTypeString","alias":"HOUSE_NO","length":20},{"name":"E_COORD97","type":"esriFieldTypeDouble","alias":"E_COORD97"},{"name":"N_COORD97","type":"esriFieldTypeDouble","alias":"N_COORD97"},{"name":"ADDRESS","type":"esriFieldTypeString","alias":"ADDRESS","length":50},{"name":"OBJECTID","type":"esriFieldTypeOID","alias":"OBJECTID"}],"features":[{"attributes":{"ID":385825,"DIS_CODE":0,"TOWNNAME":"善化區","LI":"文正里","LIN":"9鄰","STREET":"文正路","SECT":" ","MAREA":" ","LANE":"２５巷","ALLEY":" ","HOUSE_NO":"１３號之６","E_COORD97":176963.75,"N_COORD97":2559315.2799999998,"ADDRESS":"文正路２５巷１３號之６","OBJECTID":385801},"geometry":{"x":176963.74999999907,"y":2559315.2799999993}},{"attributes":{"ID":385826,"DIS_CODE":0,"TOWNNAME":"善化區","LI":"文正里","LIN":"9鄰","STREET":"文正路","SECT":" ","MAREA":" ","LANE":"２５巷","ALLEY":" ","HOUSE_NO":"１３號之３","E_COORD97":176963.29000000001,"N_COORD97":2559331.0299999998,"ADDRESS":"文正路２５巷１３號之３","OBJECTID":385802},"geometry":{"x":176963.29000000004,"y":2559331.0300000031}},{"attributes":{"ID":385827,"DIS_CODE":0,"TOWNNAME":"善化區","LI":"北關里","LIN":"9鄰","STREET":"博愛路","SECT":" ","MAREA":" ","LANE":"２３巷","ALLEY":" ","HOUSE_NO":"１號","E_COORD97":177220.10000000001,"N_COORD97":2559193.2599999998,"ADDRESS":"博愛路２３巷１號","OBJECTID":385803},"geometry":{"x":177220.09999999963,"y":2559193.2599999998}},{"attributes":{"ID":385828,"DIS_CODE":0,"TOWNNAME":"善化區","LI":"北關里","LIN":"9鄰","STREET":"博愛路","SECT":" ","MAREA":" ","LANE":"３５巷","ALLEY":" ","HOUSE_NO":"１號","E_COORD97":177185.95999999999,"N_COORD97":2559202.0099999998,"ADDRESS":"博愛路３５巷１號","OBJECTID":385804},"geometry":{"x":177185.95999999996,"y":2559202.0099999998}},{"attributes":{"ID":385829,"DIS_CODE":0,"TOWNNAME":"善化區","LI":"文正里","LIN":"9鄰","STREET":"文正路","SECT":" ","MAREA":" ","LANE":"７９巷","ALLEY":" ","HOUSE_NO":"１９號之３","E_COORD97":176993.95999999999,"N_COORD97":2559319.2799999998,"ADDRESS":"文正路７９巷１９號之３","OBJECTID":385805},"geometry":{"x":176993.95999999996,"y":2559319.2800000031}},{"attributes":{"ID":385830,"DIS_CODE":0,"TOWNNAME":"善化區","LI":"西關里","LIN":"9鄰","STREET":"復興街","SECT":" ","MAREA":" ","LANE":"３６巷","ALLEY":" ","HOUSE_NO":"８號","E_COORD97":177026.39999999999,"N_COORD97":2559114.5099999998,"ADDRESS":"復興街３６巷８號","OBJECTID":385806},"geometry":{"x":177026.4000000013,"y":2559114.5100000035}},{"attributes":{"ID":385831,"DIS_CODE":0,"TOWNNAME":"善化區","LI":"光文里","LIN":"9鄰","STREET":"成功路","SECT":" ","MAREA":" ","LANE":"２６６巷","ALLEY":" ","HOUSE_NO":"３號","E_COORD97":179162.04000000001,"N_COORD97":2558884.75,"ADDRESS":"成功路２６６巷３號","OBJECTID":385807},"geometry":{"x":179162.04000000004,"y":2558884.75}},{"attributes":{"ID":385832,"DIS_CODE":0,"TOWNNAME":"善化區","LI":"光文里","LIN":"9鄰","STREET":"成功路","SECT":" ","MAREA":" ","LANE":"２６６巷","ALLEY":" ","HOUSE_NO":"７號","E_COORD97":179164.35000000001,"N_COORD97":2558892.75,"ADDRESS":"成功路２６６巷７號","OBJECTID":385808},"geometry":{"x":179164.34999999963,"y":2558892.7500000037}},{"attributes":{"ID":385833,"DIS_CODE":0,"TOWNNAME":"永康區","LI":"尚頂里","LIN":"9鄰","STREET":"正南一街","SECT":" ","MAREA":" ","LANE":"１２９巷","ALLEY":" ","HOUSE_NO":"２０號","E_COORD97":170799.84,"N_COORD97":2547200.6699999999,"ADDRESS":"正南一街１２９巷２０號","OBJECTID":385809},"geometry":{"x":170799.84000000078,"y":2547200.6700000018}},{"attributes":{"ID":385834,"DIS_CODE":0,"TOWNNAME":"永康區","LI":"尚頂里","LIN":"9鄰","STREET":"正南一街","SECT":" ","MAREA":" ","LANE":"１２９巷","ALLEY":" ","HOUSE_NO":"３２號","E_COORD97":170776.42999999999,"N_COORD97":2547169.9399999999,"ADDRESS":"正南一街１２９巷３２號","OBJECTID":385810},"geometry":{"x":170776.4299999997,"y":2547169.9399999995}},{"attributes":{"ID":385835,"DIS_CODE":0,"TOWNNAME":"永康區","LI":"\u25A0洲里","LIN":"9鄰","STREET":"\u25A0行路","SECT":" ","MAREA":" ","LANE":"２５巷","ALLEY":" ","HOUSE_NO":"６號","E_COORD97":171667.54000000001,"N_COORD97":2549138.1099999999,"ADDRESS":"\u25A0行路２５巷６號","OBJECTID":385811},"geometry":{"x":171667.54000000004,"y":2549138.1099999994}},{"attributes":{"ID":385836,"DIS_CODE":0,"TOWNNAME":"永康區","LI":"\u25A0行里","LIN":"9鄰","STREET":"中正路","SECT":" ","MAREA":" ","LANE":"３３７巷","ALLEY":" ","HOUSE_NO":"４號","E_COORD97":172504.73000000001,"N_COORD97":2548323.5099999998,"ADDRESS":"中正路３３７巷４號","OBJECTID":385812},"geometry":{"x":172504.73000000138,"y":2548323.5100000016}},{"attributes":{"ID":385837,"DIS_CODE":0,"TOWNNAME":"永康區","LI":"\u25A0行里","LIN":"9鄰","STREET":"中正路","SECT":" ","MAREA":" ","LANE":"３３７巷","ALLEY":" ","HOUSE_NO":"１２號","E_COORD97":172496.85999999999,"N_COORD97":2548305.5699999998,"ADDRESS":"中正路３３７巷１２號","OBJECTID":385813},"geometry":{"x":172496.86000000127,"y":2548305.5700000003}},{"attributes":{"ID":385838,"DIS_CODE":0,"TOWNNAME":"永康區","LI":"\u25A0行里","LIN":"9鄰","STREET":"中正路","SECT":" ","MAREA":" ","LANE":"３３７巷","ALLEY":" ","HOUSE_NO":"３號","E_COORD97":172506.98999999999,"N_COORD97":2548301.5,"ADDRESS":"中正路３３７巷３號","OBJECTID":385814},"geometry":{"x":172506.99000000022,"y":2548301.5}},{"attributes":{"ID":385839,"DIS_CODE":0,"TOWNNAME":"永康區","LI":"蔦松里","LIN":"9鄰","STREET":"正北三路","SECT":" ","MAREA":" ","LANE":"９１巷","ALLEY":" ","HOUSE_NO":"１２號","E_COORD97":174395.01000000001,"N_COORD97":2549896.9900000002,"ADDRESS":"正北三路９１巷１２號","OBJECTID":385815},"geometry":{"x":174395.00999999978,"y":2549896.9900000021}},{"attributes":{"ID":385840,"DIS_CODE":0,"TOWNNAME":"永康區","LI":"蔦松里","LIN":"9鄰","STREET":"正北三路","SECT":" ","MAREA":" ","LANE":"１１３巷","ALLEY":" ","HOUSE_NO":"８號","E_COORD97":174346.57000000001,"N_COORD97":2549990.2400000002,"ADDRESS":"正北三路１１３巷８號","OBJECTID":385816},"geometry":{"x":174346.57000000123,"y":2549990.2400000021}},{"attributes":{"ID":385841,"DIS_CODE":0,"TOWNNAME":"永康區","LI":"蔦松里","LIN":"9鄰","STREET":"正北三路","SECT":" ","MAREA":" ","LANE":"１３０巷","ALLEY":" ","HOUSE_NO":"１７號","E_COORD97":174466.85000000001,"N_COORD97":2550092.5099999998,"ADDRESS":"正北三路１３０巷１７號","OBJECTID":385817},"geometry":{"x":174466.84999999963,"y":2550092.5099999979}},{"attributes":{"ID":385842,"DIS_CODE":0,"TOWNNAME":"麻豆區","LI":"巷口里","LIN":"9鄰","STREET":"建南街","SECT":" ","MAREA":" ","LANE":"７４巷","ALLEY":" ","HOUSE_NO":"１２３號","E_COORD97":173242.76999999999,"N_COORD97":2564157.2000000002,"ADDRESS":"建南街７４巷１２３號","OBJECTID":385818},"geometry":{"x":173242.77000000048,"y":2564157.1999999993}},{"attributes":{"ID":385843,"DIS_CODE":0,"TOWNNAME":"麻豆區","LI":"巷口里","LIN":"9鄰","STREET":"建南街","SECT":" ","MAREA":" ","LANE":"７４巷","ALLEY":" ","HOUSE_NO":"１３７號","E_COORD97":173219.63,"N_COORD97":2564141.3300000001,"ADDRESS":"建南街７４巷１３７號","OBJECTID":385819},"geometry":{"x":173219.62999999989,"y":2564141.3300000019}},{"attributes":{"ID":385844,"DIS_CODE":0,"TOWNNAME":"麻豆區","LI":"巷口里","LIN":"9鄰","STREET":"建南街","SECT":" ","MAREA":" ","LANE":"７４巷","ALLEY":" ","HOUSE_NO":"１３９號","E_COORD97":173182.82000000001,"N_COORD97":2564165.4900000002,"ADDRESS":"建南街７４巷１３９號","OBJECTID":385820},"geometry":{"x":173182.8200000003,"y":2564165.4900000002}},{"attributes":{"ID":385845,"DIS_CODE":0,"TOWNNAME":"麻豆區","LI":"巷口里","LIN":"9鄰","STREET":"建南街","SECT":" ","MAREA":" ","LANE":"７４巷","ALLEY":" ","HOUSE_NO":"１４１號","E_COORD97":173173.63,"N_COORD97":2564165.4500000002,"ADDRESS":"建南街７４巷１４１號","OBJECTID":385821},"geometry":{"x":173173.62999999989,"y":2564165.4499999993}},{"attributes":{"ID":385846,"DIS_CODE":0,"TOWNNAME":"麻豆區","LI":"巷口里","LIN":"9鄰","STREET":"建南街","SECT":" ","MAREA":" ","LANE":"７４巷","ALLEY":" ","HOUSE_NO":"２９號","E_COORD97":173227.29000000001,"N_COORD97":2564206.3700000001,"ADDRESS":"建南街７４巷２９號","OBJECTID":385822},"geometry":{"x":173227.29000000004,"y":2564206.3700000029}},{"attributes":{"ID":385847,"DIS_CODE":0,"TOWNNAME":"麻豆區","LI":"巷口里","LIN":"9鄰","STREET":"建南街","SECT":" ","MAREA":" ","LANE":"７４巷","ALLEY":" ","HOUSE_NO":"５號","E_COORD97":173236.29000000001,"N_COORD97":2564205.8500000001,"ADDRESS":"建南街７４巷５號","OBJECTID":385823},"geometry":{"x":173236.29000000097,"y":2564205.8500000015}},{"attributes":{"ID":385848,"DIS_CODE":0,"TOWNNAME":"永康區","LI":"\u25A0行里","LIN":"13鄰","STREET":"中正南路","SECT":" ","MAREA":" ","LANE":" ","ALLEY":" ","HOUSE_NO":"８０４號","E_COORD97":171841.62,"N_COORD97":2549032,"ADDRESS":"中正南路８０４號","OBJECTID":385824},"geometry":{"x":171841.62000000011,"y":2549032.0000000037}},{"attributes":{"ID":385849,"DIS_CODE":0,"TOWNNAME":"麻豆區","LI":"巷口里","LIN":"9鄰","STREET":"建南街","SECT":" ","MAREA":" ","LANE":"７４巷","ALLEY":" ","HOUSE_NO":"７８號","E_COORD97":173222.82000000001,"N_COORD97":2564182.8300000001,"ADDRESS":"建南街７４巷７８號","OBJECTID":385825},"geometry":{"x":173222.82000000123,"y":2564182.8300000019}},{"attributes":{"ID":385850,"DIS_CODE":0,"TOWNNAME":"麻豆區","LI":"巷口里","LIN":"9鄰","STREET":"建南街","SECT":" ","MAREA":" ","LANE":"７４巷","ALLEY":" ","HOUSE_NO":"７９號","E_COORD97":173217.32000000001,"N_COORD97":2564182.29,"ADDRESS":"建南街７４巷７９號","OBJECTID":385826},"geometry":{"x":173217.32000000216,"y":2564182.2899999991}},{"attributes":{"ID":385851,"DIS_CODE":0,"TOWNNAME":"麻豆區","LI":"巷口里","LIN":"9鄰","STREET":"建南街","SECT":" ","MAREA":" ","LANE":"７４巷","ALLEY":" ","HOUSE_NO":"８０號","E_COORD97":173209.95999999999,"N_COORD97":2564181.7000000002,"ADDRESS":"建南街７４巷８０號","OBJECTID":385827},"geometry":{"x":173209.96000000089,"y":2564181.7000000011}},{"attributes":{"ID":385852,"DIS_CODE":0,"TOWNNAME":"仁德區","LI":"大甲里","LIN":"9鄰","STREET":"行大街","SECT":" ","MAREA":" ","LANE":"３０７巷","ALLEY":" ","HOUSE_NO":"５０號","E_COORD97":169681.54000000001,"N_COORD97":2535165.4900000002,"ADDRESS":"行大街３０７巷５０號","OBJECTID":385828},"geometry":{"x":169681.54000000097,"y":2535165.4900000039}},{"attributes":{"ID":385853,"DIS_CODE":0,"TOWNNAME":"東區","LI":"崇明里","LIN":"9鄰","STREET":"大同路","SECT":"二段","MAREA":" ","LANE":"４６９巷","ALLEY":" ","HOUSE_NO":"１０號","E_COORD97":169588.42000000001,"N_COORD97":2541158.73,"ADDRESS":"大同路二段４６９巷１０號","OBJECTID":385829},"geometry":{"x":169588.41999999993,"y":2541158.7300000023}},{"attributes":{"ID":385854,"DIS_CODE":0,"TOWNNAME":"東區","LI":"崇明里","LIN":"9鄰","STREET":"大同路","SECT":"二段","MAREA":" ","LANE":"４６９巷","ALLEY":" ","HOUSE_NO":"１２號","E_COORD97":169589.10999999999,"N_COORD97":2541153.2400000002,"ADDRESS":"大同路二段４６９巷１２號","OBJECTID":385830},"geometry":{"x":169589.11000000034,"y":2541153.2400000002}},{"attributes":{"ID":385855,"DIS_CODE":0,"TOWNNAME":"東區","LI":"崇明里","LIN":"9鄰","STREET":"大同路","SECT":"二段","MAREA":" ","LANE":"４６９巷","ALLEY":" ","HOUSE_NO":"１４號","E_COORD97":169600.56,"N_COORD97":2541159.1899999999,"ADDRESS":"大同路二段４６９巷１４號","OBJECTID":385831},"geometry":{"x":169600.55999999959,"y":2541159.1900000013}},{"attributes":{"ID":385856,"DIS_CODE":0,"TOWNNAME":"東區","LI":"崇明里","LIN":"9鄰","STREET":"大同路","SECT":"二段","MAREA":" ","LANE":"４６９巷","ALLEY":" ","HOUSE_NO":"１８號","E_COORD97":169595.98000000001,"N_COORD97":2541183.4500000002,"ADDRESS":"大同路二段４６９巷１８號","OBJECTID":385832},"geometry":{"x":169595.98000000138,"y":2541183.4500000011}},{"attributes":{"ID":385857,"DIS_CODE":0,"TOWNNAME":"東區","LI":"崇明里","LIN":"9鄰","STREET":"大同路","SECT":"二段","MAREA":" ","LANE":"４６９巷","ALLEY":" ","HOUSE_NO":"２號","E_COORD97":169581.54999999999,"N_COORD97":2541178.8700000001,"ADDRESS":"大同路二段４６９巷２號","OBJECTID":385833},"geometry":{"x":169581.55000000075,"y":2541178.8700000029}},{"attributes":{"ID":385858,"DIS_CODE":0,"TOWNNAME":"東區","LI":"崇明里","LIN":"9鄰","STREET":"大同路","SECT":"二段","MAREA":" ","LANE":"４６９巷","ALLEY":" ","HOUSE_NO":"４號","E_COORD97":169586.13,"N_COORD97":2541180.2400000002,"ADDRESS":"大同路二段４６９巷４號","OBJECTID":385834},"geometry":{"x":169586.13000000082,"y":2541180.2400000002}},{"attributes":{"ID":385859,"DIS_CODE":0,"TOWNNAME":"東區","LI":"崇明里","LIN":"9鄰","STREET":"大同路","SECT":"二段","MAREA":" ","LANE":"４６９巷","ALLEY":" ","HOUSE_NO":"６號","E_COORD97":169584.29999999999,"N_COORD97":2541170.3999999999,"ADDRESS":"大同路二段４６９巷６號","OBJECTID":385835},"geometry":{"x":169584.30000000168,"y":2541170.3999999985}},{"attributes":{"ID":385860,"DIS_CODE":0,"TOWNNAME":"東區","LI":"崇明里","LIN":"9鄰","STREET":"大同路","SECT":"二段","MAREA":" ","LANE":"４６９巷","ALLEY":" ","HOUSE_NO":"８號","E_COORD97":169585.91,"N_COORD97":2541165.1400000001,"ADDRESS":"大同路二段４６９巷８號","OBJECTID":385836},"geometry":{"x":169585.91000000108,"y":2541165.1400000006}},{"attributes":{"ID":385861,"DIS_CODE":0,"TOWNNAME":"東區","LI":"崇明里","LIN":"9鄰","STREET":"大同路","SECT":"二段","MAREA":" ","LANE":"４６９巷","ALLEY":" ","HOUSE_NO":"１６號","E_COORD97":169597.59,"N_COORD97":2541172.6899999999,"ADDRESS":"大同路二段４６９巷１６號","OBJECTID":385837},"geometry":{"x":169597.59000000171,"y":2541172.6900000013}},{"attributes":{"ID":385862,"DIS_CODE":0,"TOWNNAME":"東區","LI":"崇明里","LIN":"9鄰","STREET":"大同路","SECT":"二段","MAREA":" ","LANE":"４６９巷","ALLEY":" ","HOUSE_NO":"１號","E_COORD97":169576.73999999999,"N_COORD97":2541191.6899999999,"ADDRESS":"大同路二段４６９巷１號","OBJECTID":385838},"geometry":{"x":169576.74000000115,"y":2541191.6900000032}},{"attributes":{"ID":385863,"DIS_CODE":0,"TOWNNAME":"東區","LI":"崇明里","LIN":"9鄰","STREET":"大同路","SECT":"二段","MAREA":" ","LANE":"４６９巷","ALLEY":" ","HOUSE_NO":"３號","E_COORD97":169587.28,"N_COORD97":2541194.4399999999,"ADDRESS":"大同路二段４６９巷３號","OBJECTID":385839},"geometry":{"x":169587.28000000119,"y":2541194.4400000013}},{"attributes":{"ID":385864,"DIS_CODE":0,"TOWNNAME":"安南區","LI":"南興里","LIN":"9鄰","STREET":"安興街","SECT":" ","MAREA":" ","LANE":"６３２巷","ALLEY":" ","HOUSE_NO":"５５之２號","E_COORD97":163653.98000000001,"N_COORD97":2552469.8300000001,"ADDRESS":"安興街６３２巷５５之２號","OBJECTID":385840},"geometry":{"x":163653.98000000231,"y":2552469.8300000001}},{"attributes":{"ID":385865,"DIS_CODE":0,"TOWNNAME":"安南區","LI":"南興里","LIN":"9鄰","STREET":"安興街","SECT":" ","MAREA":" ","LANE":"６３２巷","ALLEY":" ","HOUSE_NO":"５５之４號","E_COORD97":163662.95000000001,"N_COORD97":2552468.9900000002,"ADDRESS":"安興街６３２巷５５之４號","OBJECTID":385841},"geometry":{"x":163662.95000000112,"y":2552468.9900000002}},{"attributes":{"ID":385866,"DIS_CODE":0,"TOWNNAME":"安南區","LI":"海東里","LIN":"9鄰","STREET":"海佃路","SECT":"二段","MAREA":" ","LANE":"４８３巷","ALLEY":" ","HOUSE_NO":"２５號","E_COORD97":166619.66,"N_COORD97":2549086.98,"ADDRESS":"海佃路二段４８３巷２５號","OBJECTID":385842},"geometry":{"x":166619.66000000108,"y":2549086.9800000023}},{"attributes":{"ID":385867,"DIS_CODE":0,"TOWNNAME":"永康區","LI":"大灣里","LIN":"9鄰","STREET":"大灣路","SECT":" ","MAREA":" ","LANE":"２１８巷","ALLEY":" ","HOUSE_NO":"２５號","E_COORD97":174875.26000000001,"N_COORD97":2545509.6099999999,"ADDRESS":"大灣路２１８巷２５號","OBJECTID":385843},"geometry":{"x":174875.26000000071,"y":2545509.6099999994}},{"attributes":{"ID":385868,"DIS_CODE":0,"TOWNNAME":"永康區","LI":"正強里","LIN":"9鄰","STREET":"正義街","SECT":" ","MAREA":" ","LANE":"１２６巷","ALLEY":" ","HOUSE_NO":"８號","E_COORD97":173393.06,"N_COORD97":2547582.27,"ADDRESS":"正義街１２６巷８號","OBJECTID":385844},"geometry":{"x":173393.06000000145,"y":2547582.2700000014}},{"attributes":{"ID":385869,"DIS_CODE":0,"TOWNNAME":"安南區","LI":"\u25A0南里","LIN":"9鄰","STREET":"安昌街","SECT":" ","MAREA":" ","LANE":"２２２巷","ALLEY":" ","HOUSE_NO":"１１號","E_COORD97":170150.82999999999,"N_COORD97":2552562.7599999998,"ADDRESS":"安昌街２２２巷１１號","OBJECTID":385845},"geometry":{"x":170150.83000000101,"y":2552562.7600000035}},{"attributes":{"ID":385870,"DIS_CODE":0,"TOWNNAME":"安南區","LI":"\u25A0南里","LIN":"9鄰","STREET":"安昌街","SECT":" ","MAREA":" ","LANE":"２２２巷","ALLEY":" ","HOUSE_NO":"１號","E_COORD97":170134.5,"N_COORD97":2552566.0299999998,"ADDRESS":"安昌街２２２巷１號","OBJECTID":385846},"geometry":{"x":170134.50000000093,"y":2552566.0299999993}},{"attributes":{"ID":385871,"DIS_CODE":0,"TOWNNAME":"安南區","LI":"\u25A0南里","LIN":"9鄰","STREET":"安昌街","SECT":" ","MAREA":" ","LANE":"２２２巷","ALLEY":" ","HOUSE_NO":"２３之１號","E_COORD97":170181.78,"N_COORD97":2552566.7999999998,"ADDRESS":"安昌街２２２巷２３之１號","OBJECTID":385847},"geometry":{"x":170181.78000000119,"y":2552566.8000000045}},{"attributes":{"ID":385872,"DIS_CODE":0,"TOWNNAME":"安南區","LI":"\u25A0南里","LIN":"9鄰","STREET":"安昌街","SECT":" ","MAREA":" ","LANE":"２２２巷","ALLEY":" ","HOUSE_NO":"２３之２號","E_COORD97":170166.79999999999,"N_COORD97":2552568.3399999999,"ADDRESS":"安昌街２２２巷２３之２號","OBJECTID":385848},"geometry":{"x":170166.79999999981,"y":2552568.3399999999}},{"attributes":{"ID":385873,"DIS_CODE":0,"TOWNNAME":"安南區","LI":"\u25A0南里","LIN":"9鄰","STREET":"安昌街","SECT":" ","MAREA":" ","LANE":"２２２巷","ALLEY":" ","HOUSE_NO":"２３號","E_COORD97":170175.35999999999,"N_COORD97":2552574.4399999999,"ADDRESS":"安昌街２２２巷２３號","OBJECTID":385849},"geometry":{"x":170175.36000000034,"y":2552574.4399999976}},{"attributes":{"ID":385874,"DIS_CODE":0,"TOWNNAME":"安南區","LI":"\u25A0南里","LIN":"9鄰","STREET":"安昌街","SECT":" ","MAREA":" ","LANE":"２２２巷","ALLEY":" ","HOUSE_NO":"３３號","E_COORD97":170187.59,"N_COORD97":2552561.8999999999,"ADDRESS":"安昌街２２２巷３３號","OBJECTID":385850},"geometry":{"x":170187.59000000078,"y":2552561.9000000004}},{"attributes":{"ID":385875,"DIS_CODE":0,"TOWNNAME":"安南區","LI":"\u25A0南里","LIN":"9鄰","STREET":"安昌街","SECT":" ","MAREA":" ","LANE":"２２２巷","ALLEY":" ","HOUSE_NO":"３３號","E_COORD97":170202.57000000001,"N_COORD97":2552575.9700000002,"ADDRESS":"安昌街２２２巷３３號","OBJECTID":385851},"geometry":{"x":170202.5700000003,"y":2552575.9700000025}},{"attributes":{"ID":385876,"DIS_CODE":0,"TOWNNAME":"安南區","LI":"\u25A0南里","LIN":"9鄰","STREET":"安昌街","SECT":" ","MAREA":" ","LANE":"２２２巷","ALLEY":" ","HOUSE_NO":"３９號","E_COORD97":170213.88,"N_COORD97":2552560.0899999999,"ADDRESS":"安昌街２２２巷３９號","OBJECTID":385852},"geometry":{"x":170213.87999999989,"y":2552560.0899999999}},{"attributes":{"ID":385877,"DIS_CODE":0,"TOWNNAME":"安南區","LI":"\u25A0南里","LIN":"9鄰","STREET":"安昌街","SECT":" ","MAREA":" ","LANE":"２２２巷","ALLEY":" ","HOUSE_NO":"５號","E_COORD97":170141.95999999999,"N_COORD97":2552563.9199999999,"ADDRESS":"安昌街２２２巷５號","OBJECTID":385853},"geometry":{"x":170141.95999999996,"y":2552563.9199999999}},{"attributes":{"ID":385878,"DIS_CODE":0,"TOWNNAME":"安南區","LI":"\u25A0南里","LIN":"9鄰","STREET":"安昌街","SECT":" ","MAREA":" ","LANE":"２２２巷","ALLEY":" ","HOUSE_NO":"７號","E_COORD97":170145.42999999999,"N_COORD97":2552563.1499999999,"ADDRESS":"安昌街２２２巷７號","OBJECTID":385854},"geometry":{"x":170145.4299999997,"y":2552563.1500000004}},{"attributes":{"ID":385879,"DIS_CODE":0,"TOWNNAME":"安南區","LI":"\u25A0南里","LIN":"9鄰","STREET":"安昌街","SECT":" ","MAREA":" ","LANE":"８５巷","ALLEY":" ","HOUSE_NO":"１５１號","E_COORD97":169918.17999999999,"N_COORD97":2552630.1600000001,"ADDRESS":"安昌街８５巷１５１號","OBJECTID":385855},"geometry":{"x":169918.1799999997,"y":2552630.1600000001}},{"attributes":{"ID":385880,"DIS_CODE":0,"TOWNNAME":"安南區","LI":"城南里","LIN":"9鄰","STREET":"城西街","SECT":"一段","MAREA":" ","LANE":"２４９巷","ALLEY":" ","HOUSE_NO":"８９號","E_COORD97":160368.20999999999,"N_COORD97":2551077.3399999999,"ADDRESS":"城西街一段２４９巷８９號","OBJECTID":385856},"geometry":{"x":160368.21000000183,"y":2551077.3400000036}},{"attributes":{"ID":385881,"DIS_CODE":0,"TOWNNAME":"安南區","LI":"青草里","LIN":"9鄰","STREET":"青砂街","SECT":"二段","MAREA":" ","LANE":"３７１巷","ALLEY":" ","HOUSE_NO":"９之３號","E_COORD97":159038.38,"N_COORD97":2552991.52,"ADDRESS":"青砂街二段３７１巷９之３號","OBJECTID":385857},"geometry":{"x":159038.38000000082,"y":2552991.5200000014}},{"attributes":{"ID":385882,"DIS_CODE":0,"TOWNNAME":"安南區","LI":"\u25A0南里","LIN":"9鄰","STREET":"安昌街","SECT":" ","MAREA":" ","LANE":"２５４巷","ALLEY":" ","HOUSE_NO":"２８號","E_COORD97":170185.54999999999,"N_COORD97":2552619.3100000001,"ADDRESS":"安昌街２５４巷２８號","OBJECTID":385858},"geometry":{"x":170185.54999999981,"y":2552619.3100000005}},{"attributes":{"ID":385883,"DIS_CODE":0,"TOWNNAME":"安南區","LI":"\u25A0南里","LIN":"9鄰","STREET":"安昌街","SECT":" ","MAREA":" ","LANE":"２５４巷","ALLEY":" ","HOUSE_NO":"３２號","E_COORD97":170200.32999999999,"N_COORD97":2552615.7400000002,"ADDRESS":"安昌街２５４巷３２號","OBJECTID":385859},"geometry":{"x":170200.33000000101,"y":2552615.7400000021}},{"attributes":{"ID":385884,"DIS_CODE":0,"TOWNNAME":"安南區","LI":"大安里","LIN":"9鄰","STREET":"大安街","SECT":" ","MAREA":" ","LANE":"２０８巷","ALLEY":" ","HOUSE_NO":"２１號","E_COORD97":167477.06,"N_COORD97":2548278.71,"ADDRESS":"大安街２０８巷２１號","OBJECTID":385860},"geometry":{"x":167477.06000000052,"y":2548278.7100000046}},{"attributes":{"ID":385885,"DIS_CODE":0,"TOWNNAME":"安南區","LI":"公親里","LIN":"9鄰","STREET":"公學路","SECT":"一段","MAREA":" ","LANE":"１７３巷","ALLEY":" ","HOUSE_NO":"４３號","E_COORD97":167982.23999999999,"N_COORD97":2552914.2799999998,"ADDRESS":"公學路一段１７３巷４３號","OBJECTID":385861},"geometry":{"x":167982.24000000022,"y":2552914.2799999993}},{"attributes":{"ID":385886,"DIS_CODE":0,"TOWNNAME":"安南區","LI":"安西里","LIN":"9鄰","STREET":"安和路","SECT":"一段","MAREA":" ","LANE":"３２１巷","ALLEY":" ","HOUSE_NO":"２２號","E_COORD97":169201.60000000001,"N_COORD97":2548185.3900000001,"ADDRESS":"安和路一段３２１巷２２號","OBJECTID":385862},"geometry":{"x":169201.59999999963,"y":2548185.3899999987}},{"attributes":{"ID":385887,"DIS_CODE":0,"TOWNNAME":"安南區","LI":"安富里","LIN":"9鄰","STREET":"郡安路","SECT":"五段","MAREA":" ","LANE":"１８４巷","ALLEY":" ","HOUSE_NO":"１０９號","E_COORD97":167535.85999999999,"N_COORD97":2547479.5600000001,"ADDRESS":"郡安路五段１８４巷１０９號","OBJECTID":385863},"geometry":{"x":167535.86000000034,"y":2547479.5600000024}},{"attributes":{"ID":385888,"DIS_CODE":0,"TOWNNAME":"安南區","LI":"安富里","LIN":"9鄰","STREET":"郡安路","SECT":"五段","MAREA":" ","LANE":"１８４巷","ALLEY":" ","HOUSE_NO":"１１３號","E_COORD97":167537.20000000001,"N_COORD97":2547470.5800000001,"ADDRESS":"郡安路五段１８４巷１１３號","OBJECTID":385864},"geometry":{"x":167537.20000000019,"y":2547470.5800000001}},{"attributes":{"ID":385889,"DIS_CODE":0,"TOWNNAME":"安南區","LI":"安富里","LIN":"9鄰","STREET":"郡安路","SECT":"五段","MAREA":" ","LANE":"１８４巷","ALLEY":" ","HOUSE_NO":"１１９號","E_COORD97":167539.53,"N_COORD97":2547456.9399999999,"ADDRESS":"郡安路五段１８４巷１１９號","OBJECTID":385865},"geometry":{"x":167539.53000000119,"y":2547456.9399999995}},{"attributes":{"ID":385890,"DIS_CODE":0,"TOWNNAME":"安南區","LI":"安富里","LIN":"9鄰","STREET":"郡安路","SECT":"五段","MAREA":" ","LANE":"１８４巷","ALLEY":" ","HOUSE_NO":"１１０號","E_COORD97":167512.14999999999,"N_COORD97":2547476.9399999999,"ADDRESS":"郡安路五段１８４巷１１０號","OBJECTID":385866},"geometry":{"x":167512.15000000037,"y":2547476.9400000013}},{"attributes":{"ID":385891,"DIS_CODE":0,"TOWNNAME":"安南區","LI":"安富里","LIN":"9鄰","STREET":"郡安路","SECT":"五段","MAREA":" ","LANE":"１８４巷","ALLEY":" ","HOUSE_NO":"１１２號","E_COORD97":167514.75,"N_COORD97":2547473.48,"ADDRESS":"郡安路五段１８４巷１１２號","OBJECTID":385867},"geometry":{"x":167514.74999999907,"y":2547473.4800000023}},{"attributes":{"ID":385892,"DIS_CODE":0,"TOWNNAME":"安南區","LI":"安富里","LIN":"9鄰","STREET":"郡安路","SECT":"五段","MAREA":" ","LANE":"１８４巷","ALLEY":" ","HOUSE_NO":"１１４號","E_COORD97":167515.39999999999,"N_COORD97":2547469.1499999999,"ADDRESS":"郡安路五段１８４巷１１４號","OBJECTID":385868},"geometry":{"x":167515.40000000037,"y":2547469.1500000022}},{"attributes":{"ID":385893,"DIS_CODE":0,"TOWNNAME":"善化區","LI":"光文里","LIN":"9鄰","STREET":"成功路","SECT":" ","MAREA":" ","LANE":"２６６巷","ALLEY":" ","HOUSE_NO":"９號","E_COORD97":179165.45000000001,"N_COORD97":2558896.75,"ADDRESS":"成功路２６６巷９號","OBJECTID":385869},"geometry":{"x":179165.45000000112,"y":2558896.7500000019}},{"attributes":{"ID":385894,"DIS_CODE":0,"TOWNNAME":"善化區","LI":"南關里","LIN":"9鄰","STREET":"三民路","SECT":" ","MAREA":" ","LANE":"４５巷","ALLEY":" ","HOUSE_NO":"５號","E_COORD97":177048.14999999999,"N_COORD97":2558961.0099999998,"ADDRESS":"三民路４５巷５號","OBJECTID":385870},"geometry":{"x":177048.1500000013,"y":2558961.0099999998}},{"attributes":{"ID":385895,"DIS_CODE":0,"TOWNNAME":"善化區","LI":"光文里","LIN":"9鄰","STREET":"成功路","SECT":" ","MAREA":" ","LANE":"２６６巷","ALLEY":" ","HOUSE_NO":"２號","E_COORD97":179170.20000000001,"N_COORD97":2558878,"ADDRESS":"成功路２６６巷２號","OBJECTID":385871},"geometry":{"x":179170.20000000112,"y":2558878.0000000019}},{"attributes":{"ID":385896,"DIS_CODE":0,"TOWNNAME":"善化區","LI":"光文里","LIN":"9鄰","STREET":"成功路","SECT":" ","MAREA":" ","LANE":"２６６巷","ALLEY":" ","HOUSE_NO":"１８號","E_COORD97":179160.26000000001,"N_COORD97":2558932.75,"ADDRESS":"成功路２６６巷１８號","OBJECTID":385872},"geometry":{"x":179160.25999999978,"y":2558932.75}},{"attributes":{"ID":385897,"DIS_CODE":0,"TOWNNAME":"善化區","LI":"光文里","LIN":"9鄰","STREET":"成功路","SECT":" ","MAREA":" ","LANE":"２６６巷","ALLEY":" ","HOUSE_NO":"１０號","E_COORD97":179175.32999999999,"N_COORD97":2558893.5,"ADDRESS":"成功路２６６巷１０號","OBJECTID":385873},"geometry":{"x":179175.33000000007,"y":2558893.5}},{"attributes":{"ID":385898,"DIS_CODE":0,"TOWNNAME":"善化區","LI":"南關里","LIN":"9鄰","STREET":"三民路","SECT":" ","MAREA":" ","LANE":"４５巷","ALLEY":" ","HOUSE_NO":"３號","E_COORD97":177067.17999999999,"N_COORD97":2558967.7599999998,"ADDRESS":"三民路４５巷３號","OBJECTID":385874},"geometry":{"x":177067.1799999997,"y":2558967.7600000016}},{"attributes":{"ID":385899,"DIS_CODE":0,"TOWNNAME":"善化區","LI":"光文里","LIN":"9鄰","STREET":"成功路","SECT":" ","MAREA":" ","LANE":"２６６巷","ALLEY":" ","HOUSE_NO":"５號","E_COORD97":179163.19,"N_COORD97":2558888.75,"ADDRESS":"成功路２６６巷５號","OBJECTID":385875},"geometry":{"x":179163.19000000041,"y":2558888.75}},{"attributes":{"ID":385900,"DIS_CODE":0,"TOWNNAME":"善化區","LI":"光文里","LIN":"9鄰","STREET":"成功路","SECT":" ","MAREA":" ","LANE":"２６６巷","ALLEY":" ","HOUSE_NO":"１６號","E_COORD97":179185.45999999999,"N_COORD97":2558936,"ADDRESS":"成功路２６６巷１６號","OBJECTID":385876},"geometry":{"x":179185.46000000089,"y":2558936.0000000019}},{"attributes":{"ID":385901,"DIS_CODE":0,"TOWNNAME":"善化區","LI":"光文里","LIN":"9鄰","STREET":"成功路","SECT":" ","MAREA":" ","LANE":"２６６巷","ALLEY":" ","HOUSE_NO":"８號","E_COORD97":179173.63,"N_COORD97":2558889.5,"ADDRESS":"成功路２６６巷８號","OBJECTID":385877},"geometry":{"x":179173.63000000082,"y":2558889.5}},{"attributes":{"ID":385902,"DIS_CODE":0,"TOWNNAME":"善化區","LI":"光文里","LIN":"9鄰","STREET":"成功路","SECT":" ","MAREA":" ","LANE":"２６６巷","ALLEY":" ","HOUSE_NO":"１２號","E_COORD97":179176.47,"N_COORD97":2558897.25,"ADDRESS":"成功路２６６巷１２號","OBJECTID":385878},"geometry":{"x":179176.47000000067,"y":2558897.2500000019}},{"attributes":{"ID":385903,"DIS_CODE":0,"TOWNNAME":"善化區","LI":"西關里","LIN":"9鄰","STREET":"復興街","SECT":" ","MAREA":" ","LANE":"３６巷","ALLEY":" ","HOUSE_NO":"７號","E_COORD97":177023.47,"N_COORD97":2559127.7599999998,"ADDRESS":"復興街３６巷７號","OBJECTID":385879},"geometry":{"x":177023.47000000067,"y":2559127.7600000016}},{"attributes":{"ID":385904,"DIS_CODE":0,"TOWNNAME":"善化區","LI":"光文里","LIN":"9鄰","STREET":"成功路","SECT":" ","MAREA":" ","LANE":"２６６巷","ALLEY":" ","HOUSE_NO":"４號","E_COORD97":179171.34,"N_COORD97":2558882,"ADDRESS":"成功路２６６巷４號","OBJECTID":385880},"geometry":{"x":179171.33999999985,"y":2558882.0000000019}},{"attributes":{"ID":385905,"DIS_CODE":0,"TOWNNAME":"永康區","LI":"蔦松里","LIN":"9鄰","STREET":"正北三路","SECT":" ","MAREA":" ","LANE":"１５０巷","ALLEY":" ","HOUSE_NO":"１２號","E_COORD97":174409.89000000001,"N_COORD97":2550125.5899999999,"ADDRESS":"正北三路１５０巷１２號","OBJECTID":385881},"geometry":{"x":174409.8900000006,"y":2550125.5899999999}},{"attributes":{"ID":385906,"DIS_CODE":0,"TOWNNAME":"東區","LI":"龍山里","LIN":"9鄰","STREET":"東門路","SECT":"二段","MAREA":" ","LANE":"１３４巷","ALLEY":" ","HOUSE_NO":"１７號","E_COORD97":170125.95000000001,"N_COORD97":2542882.5299999998,"ADDRESS":"東門路二段１３４巷１７號","OBJECTID":385882},"geometry":{"x":170125.95000000205,"y":2542882.5299999993}},{"attributes":{"ID":385907,"DIS_CODE":0,"TOWNNAME":"東區","LI":"龍山里","LIN":"9鄰","STREET":"東門路","SECT":"二段","MAREA":" ","LANE":"１３４巷","ALLEY":" ","HOUSE_NO":"１９號","E_COORD97":170123.01999999999,"N_COORD97":2542880.29,"ADDRESS":"東門路二段１３４巷１９號","OBJECTID":385883},"geometry":{"x":170123.01999999955,"y":2542880.290000001}},{"attributes":{"ID":385908,"DIS_CODE":0,"TOWNNAME":"東區","LI":"龍山里","LIN":"9鄰","STREET":"東門路","SECT":"二段","MAREA":" ","LANE":"１３４巷","ALLEY":" ","HOUSE_NO":"１號","E_COORD97":170120.26999999999,"N_COORD97":2542910.0899999999,"ADDRESS":"東門路二段１３４巷１號","OBJECTID":385884},"geometry":{"x":170120.27000000048,"y":2542910.0899999999}},{"attributes":{"ID":385909,"DIS_CODE":0,"TOWNNAME":"東區","LI":"龍山里","LIN":"9鄰","STREET":"東門路","SECT":"二段","MAREA":" ","LANE":"１３４巷","ALLEY":" ","HOUSE_NO":"２０號","E_COORD97":170072.23999999999,"N_COORD97":2542913.5299999998,"ADDRESS":"東門路二段１３４巷２０號","OBJECTID":385885},"geometry":{"x":170072.24000000115,"y":2542913.5299999993}},{"attributes":{"ID":385910,"DIS_CODE":0,"TOWNNAME":"東區","LI":"龍山里","LIN":"9鄰","STREET":"東門路","SECT":"二段","MAREA":" ","LANE":"１３４巷","ALLEY":" ","HOUSE_NO":"２１號","E_COORD97":170121.64999999999,"N_COORD97":2542875.8300000001,"ADDRESS":"東門路二段１３４巷２１號","OBJECTID":385886},"geometry":{"x":170121.6500000013,"y":2542875.8300000001}},{"attributes":{"ID":385911,"DIS_CODE":0,"TOWNNAME":"東區","LI":"龍山里","LIN":"9鄰","STREET":"東門路","SECT":"二段","MAREA":" ","LANE":"１３４巷","ALLEY":" ","HOUSE_NO":"２５號","E_COORD97":170112.88,"N_COORD97":2542883.73,"ADDRESS":"東門路二段１３４巷２５號","OBJECTID":385887},"geometry":{"x":170112.88000000082,"y":2542883.7299999986}},{"attributes":{"ID":385912,"DIS_CODE":0,"TOWNNAME":"東區","LI":"龍山里","LIN":"9鄰","STREET":"東門路","SECT":"二段","MAREA":" ","LANE":"１３４巷","ALLEY":" ","HOUSE_NO":"２７號","E_COORD97":170103.64000000001,"N_COORD97":2542892.1699999999,"ADDRESS":"東門路二段１３４巷２７號","OBJECTID":385888},"geometry":{"x":170103.63999999966,"y":2542892.1700000018}},{"attributes":{"ID":385913,"DIS_CODE":0,"TOWNNAME":"東區","LI":"龍山里","LIN":"9鄰","STREET":"東門路","SECT":"二段","MAREA":" ","LANE":"１３４巷","ALLEY":" ","HOUSE_NO":"２９號","E_COORD97":170092.78,"N_COORD97":2542879.9500000002,"ADDRESS":"東門路二段１３４巷２９號","OBJECTID":385889},"geometry":{"x":170092.78000000026,"y":2542879.9499999993}},{"attributes":{"ID":385914,"DIS_CODE":0,"TOWNNAME":"東區","LI":"龍山里","LIN":"9鄰","STREET":"東門路","SECT":"二段","MAREA":" ","LANE":"１３４巷","ALLEY":" ","HOUSE_NO":"５號","E_COORD97":170133.67999999999,"N_COORD97":2542902.8799999999,"ADDRESS":"東門路二段１３４巷５號","OBJECTID":385890},"geometry":{"x":170133.6799999997,"y":2542902.8800000008}},{"attributes":{"ID":385915,"DIS_CODE":0,"TOWNNAME":"東區","LI":"龍山里","LIN":"9鄰","STREET":"東門路","SECT":"二段","MAREA":" ","LANE":"１３４巷","ALLEY":" ","HOUSE_NO":"６號","E_COORD97":170096.98999999999,"N_COORD97":2542918.1600000001,"ADDRESS":"東門路二段１３４巷６號","OBJECTID":385891},"geometry":{"x":170096.99000000209,"y":2542918.1600000039}},{"attributes":{"ID":385916,"DIS_CODE":0,"TOWNNAME":"東區","LI":"龍山里","LIN":"9鄰","STREET":"東門路","SECT":"二段","MAREA":" ","LANE":"１３４巷","ALLEY":" ","HOUSE_NO":"７號","E_COORD97":170130.23999999999,"N_COORD97":2542904.4199999999,"ADDRESS":"東門路二段１３４巷７號","OBJECTID":385892},"geometry":{"x":170130.24000000022,"y":2542904.4199999999}},{"attributes":{"ID":385917,"DIS_CODE":0,"TOWNNAME":"東區","LI":"龍山里","LIN":"9鄰","STREET":"東門路","SECT":"二段","MAREA":" ","LANE":"１３４巷","ALLEY":" ","HOUSE_NO":"８號","E_COORD97":170082.20999999999,"N_COORD97":2542916.96,"ADDRESS":"東門路二段１３４巷８號","OBJECTID":385893},"geometry":{"x":170082.21000000089,"y":2542916.9600000046}},{"attributes":{"ID":385918,"DIS_CODE":0,"TOWNNAME":"東區","LI":"龍山里","LIN":"9鄰","STREET":"東門路","SECT":"二段","MAREA":" ","LANE":"１３４巷","ALLEY":" ","HOUSE_NO":"９號","E_COORD97":170132.82000000001,"N_COORD97":2542895.75,"ADDRESS":"東門路二段１３４巷９號","OBJECTID":385894},"geometry":{"x":170132.82000000123,"y":2542895.75}},{"attributes":{"ID":385919,"DIS_CODE":0,"TOWNNAME":"東區","LI":"龍山里","LIN":"9鄰","STREET":"東門路","SECT":"二段","MAREA":" ","LANE":"１５８巷","ALLEY":" ","HOUSE_NO":"１０號","E_COORD97":170137.45999999999,"N_COORD97":2542878.23,"ADDRESS":"東門路二段１５８巷１０號","OBJECTID":385895},"geometry":{"x":170137.45999999903,"y":2542878.2300000023}},{"attributes":{"ID":385920,"DIS_CODE":0,"TOWNNAME":"東區","LI":"龍山里","LIN":"9鄰","STREET":"東門路","SECT":"二段","MAREA":" ","LANE":"１５８巷","ALLEY":" ","HOUSE_NO":"１２號","E_COORD97":170134.37,"N_COORD97":2542874.9700000002,"ADDRESS":"東門路二段１５８巷１２號","OBJECTID":385896},"geometry":{"x":170134.37000000011,"y":2542874.9700000007}},{"attributes":{"ID":385921,"DIS_CODE":0,"TOWNNAME":"東區","LI":"龍山里","LIN":"9鄰","STREET":"東門路","SECT":"二段","MAREA":" ","LANE":"１５８巷","ALLEY":" ","HOUSE_NO":"１４號","E_COORD97":170132.79000000001,"N_COORD97":2542871.6099999999,"ADDRESS":"東門路二段１５８巷１４號","OBJECTID":385897},"geometry":{"x":170132.79000000097,"y":2542871.6100000013}},{"attributes":{"ID":385922,"DIS_CODE":0,"TOWNNAME":"東區","LI":"龍山里","LIN":"9鄰","STREET":"東門路","SECT":"二段","MAREA":" ","LANE":"１５８巷","ALLEY":" ","HOUSE_NO":"１６號","E_COORD97":170130.39999999999,"N_COORD97":2542861.71,"ADDRESS":"東門路二段１５８巷１６號","OBJECTID":385898},"geometry":{"x":170130.4000000013,"y":2542861.7100000028}},{"attributes":{"ID":385923,"DIS_CODE":0,"TOWNNAME":"東區","LI":"龍山里","LIN":"9鄰","STREET":"東門路","SECT":"二段","MAREA":" ","LANE":"１５８巷","ALLEY":" ","HOUSE_NO":"４號","E_COORD97":170144.32000000001,"N_COORD97":2542886.2200000002,"ADDRESS":"東門路二段１５８巷４號","OBJECTID":385899},"geometry":{"x":170144.32000000123,"y":2542886.2200000007}},{"attributes":{"ID":385924,"DIS_CODE":0,"TOWNNAME":"中西區","LI":"大涼里","LIN":"9鄰","STREET":"府前路","SECT":"二段","MAREA":" ","LANE":"２５８巷","ALLEY":" ","HOUSE_NO":"１９號","E_COORD97":166991.87,"N_COORD97":2543730.02,"ADDRESS":"府前路二段２５８巷１９號","OBJECTID":385900},"geometry":{"x":166991.87000000011,"y":2543730.0200000014}},{"attributes":{"ID":385925,"DIS_CODE":0,"TOWNNAME":"中西區","LI":"大涼里","LIN":"9鄰","STREET":"府前路","SECT":"二段","MAREA":" ","LANE":"２５８巷","ALLEY":" ","HOUSE_NO":"２１號","E_COORD97":167006.79000000001,"N_COORD97":2543739.0099999998,"ADDRESS":"府前路二段２５８巷２１號","OBJECTID":385901},"geometry":{"x":167006.79000000097,"y":2543739.0099999979}},{"attributes":{"ID":385926,"DIS_CODE":0,"TOWNNAME":"中西區","LI":"大涼里","LIN":"9鄰","STREET":"府前路","SECT":"二段","MAREA":" ","LANE":"２５８巷","ALLEY":" ","HOUSE_NO":"２５號","E_COORD97":167029.95000000001,"N_COORD97":2543724.8700000001,"ADDRESS":"府前路二段２５８巷２５號","OBJECTID":385902},"geometry":{"x":167029.95000000019,"y":2543724.8700000029}},{"attributes":{"ID":385927,"DIS_CODE":0,"TOWNNAME":"中西區","LI":"大涼里","LIN":"9鄰","STREET":"府前路","SECT":"二段","MAREA":" ","LANE":"２５８巷","ALLEY":" ","HOUSE_NO":"２７號","E_COORD97":167031.62,"N_COORD97":2543733.9199999999,"ADDRESS":"府前路二段２５８巷２７號","OBJECTID":385903},"geometry":{"x":167031.62000000104,"y":2543733.9200000018}},{"attributes":{"ID":385928,"DIS_CODE":0,"TOWNNAME":"中西區","LI":"大涼里","LIN":"9鄰","STREET":"府前路","SECT":"二段","MAREA":" ","LANE":"２５８巷","ALLEY":" ","HOUSE_NO":"５號","E_COORD97":167023.67000000001,"N_COORD97":2543697.6299999999,"ADDRESS":"府前路二段２５８巷５號","OBJECTID":385904},"geometry":{"x":167023.66999999899,"y":2543697.6300000008}},{"attributes":{"ID":385929,"DIS_CODE":0,"TOWNNAME":"中西區","LI":"大涼里","LIN":"9鄰","STREET":"府前路","SECT":"二段","MAREA":" ","LANE":"２５８巷","ALLEY":" ","HOUSE_NO":"７號","E_COORD97":167025.34,"N_COORD97":2543708.3500000001,"ADDRESS":"府前路二段２５８巷７號","OBJECTID":385905},"geometry":{"x":167025.33999999985,"y":2543708.3499999996}},{"attributes":{"ID":385930,"DIS_CODE":0,"TOWNNAME":"中西區","LI":"大涼里","LIN":"9鄰","STREET":"府前路","SECT":"二段","MAREA":" ","LANE":"２５８巷","ALLEY":" ","HOUSE_NO":"９號","E_COORD97":167011.26000000001,"N_COORD97":2543702.4399999999,"ADDRESS":"府前路二段２５８巷９號","OBJECTID":385906},"geometry":{"x":167011.26000000071,"y":2543702.4400000013}},{"attributes":{"ID":385931,"DIS_CODE":0,"TOWNNAME":"下營區","LI":"後街里","LIN":"9鄰","STREET":"民權一街","SECT":" ","MAREA":" ","LANE":"１３８巷","ALLEY":" ","HOUSE_NO":"８號","E_COORD97":174433.75,"N_COORD97":2570704.2999999998,"ADDRESS":"民權一街１３８巷８號","OBJECTID":385907},"geometry":{"x":174433.75000000093,"y":2570704.3000000007}},{"attributes":{"ID":385932,"DIS_CODE":0,"TOWNNAME":"永康區","LI":"\u25A0行里","LIN":"9鄰","STREET":"中正路","SECT":" ","MAREA":" ","LANE":"３３７巷","ALLEY":" ","HOUSE_NO":"３０號","E_COORD97":172440.22,"N_COORD97":2548237.2400000002,"ADDRESS":"中正路３３７巷３０號","OBJECTID":385908},"geometry":{"x":172440.21999999974,"y":2548237.2400000039}},{"attributes":{"ID":385933,"DIS_CODE":0,"TOWNNAME":"永康區","LI":"成功里","LIN":"9鄰","STREET":"忠孝路","SECT":" ","MAREA":" ","LANE":"１８１巷","ALLEY":" ","HOUSE_NO":"１８號","E_COORD97":172025.70999999999,"N_COORD97":2544728.7400000002,"ADDRESS":"忠孝路１８１巷１８號","OBJECTID":385909},"geometry":{"x":172025.70999999996,"y":2544728.7400000021}},{"attributes":{"ID":385934,"DIS_CODE":0,"TOWNNAME":"下營區","LI":"仁里里","LIN":"9鄰","STREET":"蚵寮街","SECT":" ","MAREA":" ","LANE":"１１７巷","ALLEY":" ","HOUSE_NO":"１１號","E_COORD97":173737.67999999999,"N_COORD97":2570369.9900000002,"ADDRESS":"蚵寮街１１７巷１１號","OBJECTID":385910},"geometry":{"x":173737.6799999997,"y":2570369.9900000002}},{"attributes":{"ID":385935,"DIS_CODE":0,"TOWNNAME":"下營區","LI":"仁里里","LIN":"9鄰","STREET":"蚵寮街","SECT":" ","MAREA":" ","LANE":"１１７巷","ALLEY":" ","HOUSE_NO":"１５號","E_COORD97":173744.79000000001,"N_COORD97":2570359.0099999998,"ADDRESS":"蚵寮街１１７巷１５號","OBJECTID":385911},"geometry":{"x":173744.79000000097,"y":2570359.0099999998}},{"attributes":{"ID":385936,"DIS_CODE":0,"TOWNNAME":"東區","LI":"路東里","LIN":"9鄰","STREET":"林森路","SECT":"一段","MAREA":" ","LANE":"５８巷","ALLEY":" ","HOUSE_NO":"１８號","E_COORD97":169346.85999999999,"N_COORD97":2542332.2200000002,"ADDRESS":"林森路一段５８巷１８號","OBJECTID":385912},"geometry":{"x":169346.8599999994,"y":2542332.2200000025}},{"attributes":{"ID":385937,"DIS_CODE":0,"TOWNNAME":"仁德區","LI":"成功里","LIN":"37鄰","STREET":"保華路","SECT":" ","MAREA":" ","LANE":"２２巷","ALLEY":" ","HOUSE_NO":"３號","E_COORD97":170718.60999999999,"N_COORD97":2540015,"ADDRESS":"保華路２２巷３號","OBJECTID":385913},"geometry":{"x":170718.61000000127,"y":2540015.0000000019}},{"attributes":{"ID":385938,"DIS_CODE":0,"TOWNNAME":"東區","LI":"路東里","LIN":"9鄰","STREET":"林森路","SECT":"一段","MAREA":" ","LANE":"５８巷","ALLEY":" ","HOUSE_NO":"１９號","E_COORD97":169367.79999999999,"N_COORD97":2542342.2400000002,"ADDRESS":"林森路一段５８巷１９號","OBJECTID":385914},"geometry":{"x":169367.80000000075,"y":2542342.2400000021}},{"attributes":{"ID":385939,"DIS_CODE":0,"TOWNNAME":"東區","LI":"路東里","LIN":"9鄰","STREET":"林森路","SECT":"一段","MAREA":" ","LANE":"５８巷","ALLEY":" ","HOUSE_NO":"１號","E_COORD97":169309.70000000001,"N_COORD97":2542351.8700000001,"ADDRESS":"林森路一段５８巷１號","OBJECTID":385915},"geometry":{"x":169309.70000000112,"y":2542351.8700000029}},{"attributes":{"ID":385940,"DIS_CODE":0,"TOWNNAME":"東區","LI":"路東里","LIN":"9鄰","STREET":"林森路","SECT":"一段","MAREA":" ","LANE":"５８巷","ALLEY":" ","HOUSE_NO":"２０號","E_COORD97":169352.57999999999,"N_COORD97":2542331.3700000001,"ADDRESS":"林森路一段５８巷２０號","OBJECTID":385916},"geometry":{"x":169352.58000000101,"y":2542331.3700000029}},{"attributes":{"ID":385941,"DIS_CODE":0,"TOWNNAME":"東區","LI":"路東里","LIN":"9鄰","STREET":"林森路","SECT":"一段","MAREA":" ","LANE":"５８巷","ALLEY":" ","HOUSE_NO":"２１號","E_COORD97":169373.85000000001,"N_COORD97":2542341.3500000001,"ADDRESS":"林森路一段５８巷２１號","OBJECTID":385917},"geometry":{"x":169373.85000000056,"y":2542341.3500000015}},{"attributes":{"ID":385942,"DIS_CODE":0,"TOWNNAME":"東區","LI":"路東里","LIN":"9鄰","STREET":"林森路","SECT":"一段","MAREA":" ","LANE":"５８巷","ALLEY":" ","HOUSE_NO":"２２號","E_COORD97":169358.5,"N_COORD97":2542330.7400000002,"ADDRESS":"林森路一段５８巷２２號","OBJECTID":385918},"geometry":{"x":169358.5,"y":2542330.7400000002}},{"attributes":{"ID":385943,"DIS_CODE":0,"TOWNNAME":"東區","LI":"路東里","LIN":"9鄰","STREET":"林森路","SECT":"一段","MAREA":" ","LANE":"５８巷","ALLEY":" ","HOUSE_NO":"２３號","E_COORD97":169380.09,"N_COORD97":2542341.1699999999,"ADDRESS":"林森路一段５８巷２３號","OBJECTID":385919},"geometry":{"x":169380.08999999985,"y":2542341.1699999981}},{"attributes":{"ID":385944,"DIS_CODE":0,"TOWNNAME":"東區","LI":"路東里","LIN":"9鄰","STREET":"林森路","SECT":"一段","MAREA":" ","LANE":"５８巷","ALLEY":" ","HOUSE_NO":"２５號","E_COORD97":169385.44,"N_COORD97":2542341,"ADDRESS":"林森路一段５８巷２５號","OBJECTID":385920},"geometry":{"x":169385.43999999948,"y":2542341}},{"attributes":{"ID":385945,"DIS_CODE":0,"TOWNNAME":"學甲區","LI":"新達里","LIN":"9鄰","STREET":"中學路","SECT":" ","MAREA":" ","LANE":"３２巷","ALLEY":" ","HOUSE_NO":"８號","E_COORD97":166645.16,"N_COORD97":2570729.5499999998,"ADDRESS":"中學路３２巷８號","OBJECTID":385921},"geometry":{"x":166645.16000000108,"y":2570729.5500000007}},{"attributes":{"ID":385946,"DIS_CODE":0,"TOWNNAME":"學甲區","LI":"新達里","LIN":"9鄰","STREET":"中學路","SECT":" ","MAREA":" ","LANE":"３２巷","ALLEY":" ","HOUSE_NO":"９號","E_COORD97":166633.04999999999,"N_COORD97":2570735.75,"ADDRESS":"中學路３２巷９號","OBJECTID":385922},"geometry":{"x":166633.05000000075,"y":2570735.7500000019}},{"attributes":{"ID":385947,"DIS_CODE":0,"TOWNNAME":"學甲區","LI":"新達里","LIN":"9鄰","STREET":"中學路","SECT":" ","MAREA":" ","LANE":"３３巷","ALLEY":" ","HOUSE_NO":"１０號","E_COORD97":166617.92999999999,"N_COORD97":2570652.3999999999,"ADDRESS":"中學路３３巷１０號","OBJECTID":385923},"geometry":{"x":166617.9299999997,"y":2570652.4000000004}},{"attributes":{"ID":385948,"DIS_CODE":0,"TOWNNAME":"中西區","LI":"仙草里","LIN":"21鄰","STREET":"健康路","SECT":"一段","MAREA":" ","LANE":"４１０巷","ALLEY":" ","HOUSE_NO":"１１號","E_COORD97":167792.62,"N_COORD97":2542497.9700000002,"ADDRESS":"健康路一段４１０巷１１號","OBJECTID":385924},"geometry":{"x":167792.62000000104,"y":2542497.9700000007}},{"attributes":{"ID":385949,"DIS_CODE":0,"TOWNNAME":"中西區","LI":"仙草里","LIN":"21鄰","STREET":"健康路","SECT":"一段","MAREA":" ","LANE":"４１０巷","ALLEY":" ","HOUSE_NO":"１３號","E_COORD97":167793.60999999999,"N_COORD97":2542502.48,"ADDRESS":"健康路一段４１０巷１３號","OBJECTID":385925},"geometry":{"x":167793.61000000034,"y":2542502.4800000042}},{"attributes":{"ID":385950,"DIS_CODE":0,"TOWNNAME":"中西區","LI":"仙草里","LIN":"21鄰","STREET":"健康路","SECT":"一段","MAREA":" ","LANE":"４１０巷","ALLEY":" ","HOUSE_NO":"１５號","E_COORD97":167794.78,"N_COORD97":2542506.6000000001,"ADDRESS":"健康路一段４１０巷１５號","OBJECTID":385926},"geometry":{"x":167794.78000000212,"y":2542506.5999999996}},{"attributes":{"ID":385951,"DIS_CODE":0,"TOWNNAME":"中西區","LI":"仙草里","LIN":"21鄰","STREET":"健康路","SECT":"一段","MAREA":" ","LANE":"４１０巷","ALLEY":" ","HOUSE_NO":"１７號","E_COORD97":167793.98999999999,"N_COORD97":2542517.98,"ADDRESS":"健康路一段４１０巷１７號","OBJECTID":385927},"geometry":{"x":167793.99000000115,"y":2542517.9800000004}},{"attributes":{"ID":385952,"DIS_CODE":0,"TOWNNAME":"中西區","LI":"仙草里","LIN":"21鄰","STREET":"健康路","SECT":"一段","MAREA":" ","LANE":"４１０巷","ALLEY":" ","HOUSE_NO":"１９號","E_COORD97":167793.79000000001,"N_COORD97":2542523.52,"ADDRESS":"健康路一段４１０巷１９號","OBJECTID":385928},"geometry":{"x":167793.79000000004,"y":2542523.5199999996}},{"attributes":{"ID":385953,"DIS_CODE":0,"TOWNNAME":"中西區","LI":"仙草里","LIN":"21鄰","STREET":"健康路","SECT":"一段","MAREA":" ","LANE":"４１０巷","ALLEY":" ","HOUSE_NO":"２１號","E_COORD97":167793.98999999999,"N_COORD97":2542527.6800000002,"ADDRESS":"健康路一段４１０巷２１號","OBJECTID":385929},"geometry":{"x":167793.99000000115,"y":2542527.6800000034}},{"attributes":{"ID":385954,"DIS_CODE":0,"TOWNNAME":"中西區","LI":"仙草里","LIN":"21鄰","STREET":"健康路","SECT":"一段","MAREA":" ","LANE":"４１０巷","ALLEY":" ","HOUSE_NO":"２３號","E_COORD97":167804.09,"N_COORD97":2542534.21,"ADDRESS":"健康路一段４１０巷２３號","OBJECTID":385930},"geometry":{"x":167804.09000000171,"y":2542534.2100000009}},{"attributes":{"ID":385955,"DIS_CODE":0,"TOWNNAME":"中西區","LI":"仙草里","LIN":"21鄰","STREET":"健康路","SECT":"一段","MAREA":" ","LANE":"４１０巷","ALLEY":" ","HOUSE_NO":"２５號","E_COORD97":167803.89000000001,"N_COORD97":2542537.3799999999,"ADDRESS":"健康路一段４１０巷２５號","OBJECTID":385931},"geometry":{"x":167803.8900000006,"y":2542537.379999999}},{"attributes":{"ID":385956,"DIS_CODE":0,"TOWNNAME":"中西區","LI":"仙草里","LIN":"21鄰","STREET":"健康路","SECT":"一段","MAREA":" ","LANE":"４１０巷","ALLEY":" ","HOUSE_NO":"２７號","E_COORD97":167803.69,"N_COORD97":2542540.75,"ADDRESS":"健康路一段４１０巷２７號","OBJECTID":385932},"geometry":{"x":167803.69000000041,"y":2542540.7499999981}},{"attributes":{"ID":385957,"DIS_CODE":0,"TOWNNAME":"中西區","LI":"仙草里","LIN":"21鄰","STREET":"健康路","SECT":"一段","MAREA":" ","LANE":"４１０巷","ALLEY":" ","HOUSE_NO":"２９號","E_COORD97":167803.89000000001,"N_COORD97":2542544.5099999998,"ADDRESS":"健康路一段４１０巷２９號","OBJECTID":385933},"geometry":{"x":167803.8900000006,"y":2542544.5099999998}},{"attributes":{"ID":385958,"DIS_CODE":0,"TOWNNAME":"中西區","LI":"仙草里","LIN":"21鄰","STREET":"健康路","SECT":"一段","MAREA":" ","LANE":"４１０巷","ALLEY":" ","HOUSE_NO":"３１號","E_COORD97":167804.48999999999,"N_COORD97":2542549.0600000001,"ADDRESS":"健康路一段４１０巷３１號","OBJECTID":385934},"geometry":{"x":167804.49000000022,"y":2542549.0600000005}},{"attributes":{"ID":385959,"DIS_CODE":0,"TOWNNAME":"中西區","LI":"仙草里","LIN":"21鄰","STREET":"健康路","SECT":"一段","MAREA":" ","LANE":"４１０巷","ALLEY":" ","HOUSE_NO":"３３號","E_COORD97":167804.67999999999,"N_COORD97":2542553.4199999999,"ADDRESS":"健康路一段４１０巷３３號","OBJECTID":385935},"geometry":{"x":167804.6799999997,"y":2542553.4200000037}},{"attributes":{"ID":385960,"DIS_CODE":0,"TOWNNAME":"中西區","LI":"仙草里","LIN":"21鄰","STREET":"健康路","SECT":"一段","MAREA":" ","LANE":"４１０巷","ALLEY":" ","HOUSE_NO":"３５號","E_COORD97":167804.29000000001,"N_COORD97":2542556.7799999998,"ADDRESS":"健康路一段４１０巷３５號","OBJECTID":385936},"geometry":{"x":167804.29000000004,"y":2542556.7799999975}},{"attributes":{"ID":385961,"DIS_CODE":0,"TOWNNAME":"中西區","LI":"仙草里","LIN":"21鄰","STREET":"健康路","SECT":"一段","MAREA":" ","LANE":"４１０巷","ALLEY":" ","HOUSE_NO":"３７號","E_COORD97":167804.48999999999,"N_COORD97":2542560.3500000001,"ADDRESS":"健康路一段４１０巷３７號","OBJECTID":385937},"geometry":{"x":167804.49000000022,"y":2542560.3500000034}},{"attributes":{"ID":385962,"DIS_CODE":0,"TOWNNAME":"北區","LI":"和順里","LIN":"37鄰","STREET":"公園南路","SECT":" ","MAREA":" ","LANE":"３７０巷","ALLEY":" ","HOUSE_NO":"２０號","E_COORD97":168209.42000000001,"N_COORD97":2544921.0800000001,"ADDRESS":"公園南路３７０巷２０號","OBJECTID":385938},"geometry":{"x":168209.42000000086,"y":2544921.0800000001}},{"attributes":{"ID":385963,"DIS_CODE":0,"TOWNNAME":"北區","LI":"和順里","LIN":"37鄰","STREET":"公園南路","SECT":" ","MAREA":" ","LANE":"３７０巷","ALLEY":" ","HOUSE_NO":"２１號","E_COORD97":168196.38,"N_COORD97":2544940.02,"ADDRESS":"公園南路３７０巷２１號","OBJECTID":385939},"geometry":{"x":168196.37999999989,"y":2544940.0200000014}},{"attributes":{"ID":385964,"DIS_CODE":0,"TOWNNAME":"北區","LI":"和順里","LIN":"37鄰","STREET":"公園南路","SECT":" ","MAREA":" ","LANE":"３７０巷","ALLEY":" ","HOUSE_NO":"２２號","E_COORD97":168210.76999999999,"N_COORD97":2544925.9399999999,"ADDRESS":"公園南路３７０巷２２號","OBJECTID":385940},"geometry":{"x":168210.76999999955,"y":2544925.9400000032}},{"attributes":{"ID":385965,"DIS_CODE":0,"TOWNNAME":"北區","LI":"和順里","LIN":"37鄰","STREET":"公園南路","SECT":" ","MAREA":" ","LANE":"３７０巷","ALLEY":" ","HOUSE_NO":"２６號","E_COORD97":168212.04999999999,"N_COORD97":2544930.77,"ADDRESS":"公園南路３７０巷２６號","OBJECTID":385941},"geometry":{"x":168212.04999999981,"y":2544930.7700000033}},{"attributes":{"ID":385966,"DIS_CODE":0,"TOWNNAME":"北區","LI":"和順里","LIN":"37鄰","STREET":"公園南路","SECT":" ","MAREA":" ","LANE":"３７０巷","ALLEY":" ","HOUSE_NO":"２７號","E_COORD97":168186.94,"N_COORD97":2544969.04,"ADDRESS":"公園南路３７０巷２７號","OBJECTID":385942},"geometry":{"x":168186.93999999948,"y":2544969.0400000028}},{"attributes":{"ID":385967,"DIS_CODE":0,"TOWNNAME":"北區","LI":"和順里","LIN":"37鄰","STREET":"公園南路","SECT":" ","MAREA":" ","LANE":"３７０巷","ALLEY":" ","HOUSE_NO":"２８號","E_COORD97":168213.37,"N_COORD97":2544934.75,"ADDRESS":"公園南路３７０巷２８號","OBJECTID":385943},"geometry":{"x":168213.37000000104,"y":2544934.7500000037}},{"attributes":{"ID":385968,"DIS_CODE":0,"TOWNNAME":"北區","LI":"和順里","LIN":"37鄰","STREET":"公園南路","SECT":" ","MAREA":" ","LANE":"３７０巷","ALLEY":" ","HOUSE_NO":"３０號","E_COORD97":168214.44,"N_COORD97":2544938.52,"ADDRESS":"公園南路３７０巷３０號","OBJECTID":385944},"geometry":{"x":168214.44000000134,"y":2544938.5199999996}},{"attributes":{"ID":385969,"DIS_CODE":0,"TOWNNAME":"北區","LI":"和順里","LIN":"37鄰","STREET":"公園南路","SECT":" ","MAREA":" ","LANE":"３７０巷","ALLEY":" ","HOUSE_NO":"３２號","E_COORD97":168215.57000000001,"N_COORD97":2544942.9900000002,"ADDRESS":"公園南路３７０巷３２號","OBJECTID":385945},"geometry":{"x":168215.57000000123,"y":2544942.9900000002}},{"attributes":{"ID":385970,"DIS_CODE":0,"TOWNNAME":"北區","LI":"和順里","LIN":"37鄰","STREET":"公園南路","SECT":" ","MAREA":" ","LANE":"３７０巷","ALLEY":" ","HOUSE_NO":"３６號","E_COORD97":168216.48000000001,"N_COORD97":2544946.9100000001,"ADDRESS":"公園南路３７０巷３６號","OBJECTID":385946},"geometry":{"x":168216.48000000045,"y":2544946.9100000001}},{"attributes":{"ID":385971,"DIS_CODE":0,"TOWNNAME":"北區","LI":"和順里","LIN":"37鄰","STREET":"公園南路","SECT":" ","MAREA":" ","LANE":"３７０巷","ALLEY":" ","HOUSE_NO":"３８號","E_COORD97":168224.07999999999,"N_COORD97":2544956.7400000002,"ADDRESS":"公園南路３７０巷３８號","OBJECTID":385947},"geometry":{"x":168224.08000000007,"y":2544956.7400000021}},{"attributes":{"ID":385972,"DIS_CODE":0,"TOWNNAME":"中西區","LI":"永華里","LIN":"19鄰","STREET":"中正路","SECT":" ","MAREA":" ","LANE":"５巷","ALLEY":" ","HOUSE_NO":"１號","E_COORD97":168369.69,"N_COORD97":2543570.1400000001,"ADDRESS":"中正路５巷１號","OBJECTID":385948},"geometry":{"x":168369.69000000041,"y":2543570.1400000025}},{"attributes":{"ID":385973,"DIS_CODE":0,"TOWNNAME":"中西區","LI":"仙草里","LIN":"21鄰","STREET":"健康路","SECT":"一段","MAREA":" ","LANE":"４２０巷","ALLEY":" ","HOUSE_NO":"９號","E_COORD97":167766.10999999999,"N_COORD97":2542495.2000000002,"ADDRESS":"健康路一段４２０巷９號","OBJECTID":385949},"geometry":{"x":167766.11000000127,"y":2542495.1999999993}},{"attributes":{"ID":385974,"DIS_CODE":0,"TOWNNAME":"北區","LI":"和順里","LIN":"37鄰","STREET":"公園南路","SECT":" ","MAREA":" ","LANE":"３７０巷","ALLEY":" ","HOUSE_NO":"４０號","E_COORD97":168231.39999999999,"N_COORD97":2544960.23,"ADDRESS":"公園南路３７０巷４０號","OBJECTID":385950},"geometry":{"x":168231.40000000224,"y":2544960.2300000023}},{"attributes":{"ID":385975,"DIS_CODE":0,"TOWNNAME":"北區","LI":"和順里","LIN":"37鄰","STREET":"公園南路","SECT":" ","MAREA":" ","LANE":"３７０巷","ALLEY":" ","HOUSE_NO":"４２號","E_COORD97":168237.39000000001,"N_COORD97":2544963.7200000002,"ADDRESS":"公園南路３７０巷４２號","OBJECTID":385951},"geometry":{"x":168237.39000000153,"y":2544963.7200000025}},{"attributes":{"ID":385976,"DIS_CODE":0,"TOWNNAME":"北區","LI":"和順里","LIN":"37鄰","STREET":"公園南路","SECT":" ","MAREA":" ","LANE":"３７０巷","ALLEY":" ","HOUSE_NO":"４６號","E_COORD97":168243.04999999999,"N_COORD97":2544965.5499999998,"ADDRESS":"公園南路３７０巷４６號","OBJECTID":385952},"geometry":{"x":168243.04999999981,"y":2544965.5500000007}},{"attributes":{"ID":385977,"DIS_CODE":0,"TOWNNAME":"北區","LI":"和順里","LIN":"37鄰","STREET":"公園南路","SECT":" ","MAREA":" ","LANE":"３７０巷","ALLEY":" ","HOUSE_NO":"５０號","E_COORD97":168248.04000000001,"N_COORD97":2544967.5499999998,"ADDRESS":"公園南路３７０巷５０號","OBJECTID":385953},"geometry":{"x":168248.04000000004,"y":2544967.5500000026}},{"attributes":{"ID":385978,"DIS_CODE":0,"TOWNNAME":"北區","LI":"和順里","LIN":"37鄰","STREET":"公園南路","SECT":" ","MAREA":" ","LANE":"３７０巷","ALLEY":" ","HOUSE_NO":"５２號","E_COORD97":168252.70000000001,"N_COORD97":2544969.3799999999,"ADDRESS":"公園南路３７０巷５２號","OBJECTID":385954},"geometry":{"x":168252.69999999925,"y":2544969.379999999}},{"attributes":{"ID":385979,"DIS_CODE":0,"TOWNNAME":"北區","LI":"和順里","LIN":"37鄰","STREET":"公園南路","SECT":" ","MAREA":" ","LANE":"３７０巷","ALLEY":" ","HOUSE_NO":"５６號","E_COORD97":168269.01999999999,"N_COORD97":2544973.3700000001,"ADDRESS":"公園南路３７０巷５６號","OBJECTID":385955},"geometry":{"x":168269.02000000048,"y":2544973.3700000029}},{"attributes":{"ID":385980,"DIS_CODE":0,"TOWNNAME":"北區","LI":"成德里","LIN":"37鄰","STREET":"文成五街","SECT":" ","MAREA":" ","LANE":"２８０巷","ALLEY":" ","HOUSE_NO":"１號","E_COORD97":168086.78,"N_COORD97":2546487.8199999998,"ADDRESS":"文成五街２８０巷１號","OBJECTID":385956},"geometry":{"x":168086.78000000119,"y":2546487.8200000022}},{"attributes":{"ID":385981,"DIS_CODE":0,"TOWNNAME":"北區","LI":"成德里","LIN":"37鄰","STREET":"文成五街","SECT":" ","MAREA":" ","LANE":"２８０巷","ALLEY":" ","HOUSE_NO":"３號","E_COORD97":168086.28,"N_COORD97":2546493.0299999998,"ADDRESS":"文成五街２８０巷３號","OBJECTID":385957},"geometry":{"x":168086.28000000212,"y":2546493.0300000012}},{"attributes":{"ID":385982,"DIS_CODE":0,"TOWNNAME":"北區","LI":"成德里","LIN":"37鄰","STREET":"文成五街","SECT":" ","MAREA":" ","LANE":"２８０巷","ALLEY":" ","HOUSE_NO":"２號","E_COORD97":168100.75,"N_COORD97":2546489.0899999999,"ADDRESS":"文成五街２８０巷２號","OBJECTID":385958},"geometry":{"x":168100.75,"y":2546489.0900000017}},{"attributes":{"ID":385983,"DIS_CODE":0,"TOWNNAME":"北區","LI":"成德里","LIN":"37鄰","STREET":"文成五街","SECT":" ","MAREA":" ","LANE":"２８０巷","ALLEY":" ","HOUSE_NO":"５號","E_COORD97":168085.51000000001,"N_COORD97":2546498.6200000001,"ADDRESS":"文成五街２８０巷５號","OBJECTID":385959},"geometry":{"x":168085.50999999978,"y":2546498.620000001}},{"attributes":{"ID":385984,"DIS_CODE":0,"TOWNNAME":"北區","LI":"成德里","LIN":"37鄰","STREET":"文成五街","SECT":" ","MAREA":" ","LANE":"２８０巷","ALLEY":" ","HOUSE_NO":"６號","E_COORD97":168100.25,"N_COORD97":2546494.4300000002,"ADDRESS":"文成五街２８０巷６號","OBJECTID":385960},"geometry":{"x":168100.25000000093,"y":2546494.4299999997}},{"attributes":{"ID":385985,"DIS_CODE":0,"TOWNNAME":"北區","LI":"成德里","LIN":"37鄰","STREET":"文成五街","SECT":" ","MAREA":" ","LANE":"２８０巷","ALLEY":" ","HOUSE_NO":"７號","E_COORD97":168085.13,"N_COORD97":2546504.0800000001,"ADDRESS":"文成五街２８０巷７號","OBJECTID":385961},"geometry":{"x":168085.13000000175,"y":2546504.0800000001}},{"attributes":{"ID":385986,"DIS_CODE":0,"TOWNNAME":"北區","LI":"成德里","LIN":"37鄰","STREET":"文成五街","SECT":" ","MAREA":" ","LANE":"２８０巷","ALLEY":" ","HOUSE_NO":"８號","E_COORD97":168099.48000000001,"N_COORD97":2546500.02,"ADDRESS":"文成五街２８０巷８號","OBJECTID":385962},"geometry":{"x":168099.48000000138,"y":2546500.0200000014}},{"attributes":{"ID":385987,"DIS_CODE":0,"TOWNNAME":"北區","LI":"成德里","LIN":"37鄰","STREET":"文成五街","SECT":" ","MAREA":" ","LANE":"２８０巷","ALLEY":" ","HOUSE_NO":"１０號","E_COORD97":168098.85000000001,"N_COORD97":2546505.6000000001,"ADDRESS":"文成五街２８０巷１０號","OBJECTID":385963},"geometry":{"x":168098.85000000056,"y":2546505.6000000015}},{"attributes":{"ID":385988,"DIS_CODE":0,"TOWNNAME":"北區","LI":"成德里","LIN":"37鄰","STREET":"文成五街","SECT":" ","MAREA":" ","LANE":"２８０巷","ALLEY":" ","HOUSE_NO":"１１號","E_COORD97":168084.12,"N_COORD97":2546514.8700000001,"ADDRESS":"文成五街２８０巷１１號","OBJECTID":385964},"geometry":{"x":168084.12000000104,"y":2546514.8700000048}},{"attributes":{"ID":385989,"DIS_CODE":0,"TOWNNAME":"中西區","LI":"永華里","LIN":"18鄰","STREET":"中正路","SECT":" ","MAREA":" ","LANE":"２１巷","ALLEY":" ","HOUSE_NO":"３３號","E_COORD97":168299.42000000001,"N_COORD97":2543509.6899999999,"ADDRESS":"中正路２１巷３３號","OBJECTID":385965},"geometry":{"x":168299.41999999993,"y":2543509.6899999995}},{"attributes":{"ID":385990,"DIS_CODE":0,"TOWNNAME":"永康區","LI":"埔園里","LIN":"37鄰","STREET":"龍國街","SECT":" ","MAREA":" ","LANE":"１３１巷","ALLEY":" ","HOUSE_NO":"２號","E_COORD97":174330.51000000001,"N_COORD97":2548087.52,"ADDRESS":"龍國街１３１巷２號","OBJECTID":385966},"geometry":{"x":174330.50999999978,"y":2548087.5199999996}},{"attributes":{"ID":385991,"DIS_CODE":0,"TOWNNAME":"南區","LI":"大忠里","LIN":"37鄰","STREET":"國民路","SECT":" ","MAREA":" ","LANE":"２７０巷","ALLEY":" ","HOUSE_NO":"４０號","E_COORD97":169094.91,"N_COORD97":2541516.2799999998,"ADDRESS":"國民路２７０巷４０號","OBJECTID":385967},"geometry":{"x":169094.91000000015,"y":2541516.2800000031}},{"attributes":{"ID":385992,"DIS_CODE":0,"TOWNNAME":"南區","LI":"大忠里","LIN":"37鄰","STREET":"國民路","SECT":" ","MAREA":" ","LANE":"２７０巷","ALLEY":" ","HOUSE_NO":"４２號","E_COORD97":169099.51000000001,"N_COORD97":2541520.0899999999,"ADDRESS":"國民路２７０巷４２號","OBJECTID":385968},"geometry":{"x":169099.50999999885,"y":2541520.0899999999}},{"attributes":{"ID":385993,"DIS_CODE":0,"TOWNNAME":"永康區","LI":"龍潭里","LIN":"37鄰","STREET":"中山北路","SECT":" ","MAREA":" ","LANE":"１６４巷","ALLEY":" ","HOUSE_NO":"１２０號之３","E_COORD97":174548.26000000001,"N_COORD97":2547397.3399999999,"ADDRESS":"中山北路１６４巷１２０號之３","OBJECTID":385969},"geometry":{"x":174548.26000000071,"y":2547397.3399999999}},{"attributes":{"ID":385994,"DIS_CODE":0,"TOWNNAME":"永康區","LI":"\u25A0洲里","LIN":"37鄰","STREET":"\u25A0洲二街","SECT":" ","MAREA":" ","LANE":"１９７巷","ALLEY":" ","HOUSE_NO":"２６號","E_COORD97":171726.95999999999,"N_COORD97":2549488.9900000002,"ADDRESS":"\u25A0洲二街１９７巷２６號","OBJECTID":385970},"geometry":{"x":171726.95999999996,"y":2549488.9900000002}},{"attributes":{"ID":385995,"DIS_CODE":0,"TOWNNAME":"永康區","LI":"\u25A0洲里","LIN":"37鄰","STREET":"\u25A0洲二街","SECT":" ","MAREA":" ","LANE":"１７５巷","ALLEY":" ","HOUSE_NO":"９５號","E_COORD97":171650.10000000001,"N_COORD97":2549514.3900000001,"ADDRESS":"\u25A0洲二街１７５巷９５號","OBJECTID":385971},"geometry":{"x":171650.10000000149,"y":2549514.3899999987}},{"attributes":{"ID":385996,"DIS_CODE":0,"TOWNNAME":"永康區","LI":"\u25A0洲里","LIN":"37鄰","STREET":"\u25A0洲二街","SECT":" ","MAREA":" ","LANE":"１９７巷","ALLEY":" ","HOUSE_NO":"３０號","E_COORD97":171722.20999999999,"N_COORD97":2549495.9900000002,"ADDRESS":"\u25A0洲二街１９７巷３０號","OBJECTID":385972},"geometry":{"x":171722.20999999996,"y":2549495.9900000002}},{"attributes":{"ID":385997,"DIS_CODE":0,"TOWNNAME":"永康區","LI":"\u25A0洲里","LIN":"37鄰","STREET":"\u25A0洲二街","SECT":" ","MAREA":" ","LANE":"１７５巷","ALLEY":" ","HOUSE_NO":"１６１號","E_COORD97":171744.44,"N_COORD97":2549572.2000000002,"ADDRESS":"\u25A0洲二街１７５巷１６１號","OBJECTID":385973},"geometry":{"x":171744.44000000041,"y":2549572.200000003}},{"attributes":{"ID":385998,"DIS_CODE":0,"TOWNNAME":"永康區","LI":"\u25A0洲里","LIN":"37鄰","STREET":"\u25A0洲二街","SECT":" ","MAREA":" ","LANE":"１７５巷","ALLEY":" ","HOUSE_NO":"９９號","E_COORD97":171644,"N_COORD97":2549520.3900000001,"ADDRESS":"\u25A0洲二街１７５巷９９號","OBJECTID":385974},"geometry":{"x":171644,"y":2549520.3900000006}},{"attributes":{"ID":385999,"DIS_CODE":0,"TOWNNAME":"永康區","LI":"\u25A0洲里","LIN":"37鄰","STREET":"\u25A0洲二街","SECT":" ","MAREA":" ","LANE":"１９７巷","ALLEY":" ","HOUSE_NO":"３７號","E_COORD97":171686.20999999999,"N_COORD97":2549500.4900000002,"ADDRESS":"\u25A0洲二街１９７巷３７號","OBJECTID":385975},"geometry":{"x":171686.20999999996,"y":2549500.4900000021}},{"attributes":{"ID":386000,"DIS_CODE":0,"TOWNNAME":"永康區","LI":"\u25A0洲里","LIN":"37鄰","STREET":"\u25A0洲二街","SECT":" ","MAREA":" ","LANE":"１７５巷","ALLEY":" ","HOUSE_NO":"１４５號","E_COORD97":171709.48999999999,"N_COORD97":2549551.5,"ADDRESS":"\u25A0洲二街１７５巷１４５號","OBJECTID":385976},"geometry":{"x":171709.49000000115,"y":2549551.5000000019}},{"attributes":{"ID":386001,"DIS_CODE":0,"TOWNNAME":"永康區","LI":"\u25A0洲里","LIN":"37鄰","STREET":"\u25A0洲二街","SECT":" ","MAREA":" ","LANE":"１７５巷","ALLEY":" ","HOUSE_NO":"１３５號","E_COORD97":171690.72,"N_COORD97":2549541.5,"ADDRESS":"\u25A0洲二街１７５巷１３５號","OBJECTID":385977},"geometry":{"x":171690.72000000067,"y":2549541.5000000019}},{"attributes":{"ID":386002,"DIS_CODE":0,"TOWNNAME":"永康區","LI":"\u25A0洲里","LIN":"37鄰","STREET":"\u25A0洲二街","SECT":" ","MAREA":" ","LANE":"１９７巷","ALLEY":" ","HOUSE_NO":"３６號","E_COORD97":171716.45999999999,"N_COORD97":2549501.7400000002,"ADDRESS":"\u25A0洲二街１９７巷３６號","OBJECTID":385978},"geometry":{"x":171716.46000000089,"y":2549501.7400000039}},{"attributes":{"ID":386003,"DIS_CODE":0,"TOWNNAME":"永康區","LI":"\u25A0洲里","LIN":"37鄰","STREET":"\u25A0洲二街","SECT":" ","MAREA":" ","LANE":"１９７巷","ALLEY":" ","HOUSE_NO":"４６號","E_COORD97":171707.39999999999,"N_COORD97":2549510.2400000002,"ADDRESS":"\u25A0洲二街１９７巷４６號","OBJECTID":385979},"geometry":{"x":171707.40000000037,"y":2549510.2400000002}},{"attributes":{"ID":386004,"DIS_CODE":0,"TOWNNAME":"永康區","LI":"\u25A0洲里","LIN":"37鄰","STREET":"\u25A0洲二街","SECT":" ","MAREA":" ","LANE":"１７５巷","ALLEY":" ","HOUSE_NO":"１５７號","E_COORD97":171732.60999999999,"N_COORD97":2549565.5,"ADDRESS":"\u25A0洲二街１７５巷１５７號","OBJECTID":385980},"geometry":{"x":171732.61000000127,"y":2549565.5000000019}},{"attributes":{"ID":386005,"DIS_CODE":0,"TOWNNAME":"永康區","LI":"\u25A0洲里","LIN":"37鄰","STREET":"\u25A0洲二街","SECT":" ","MAREA":" ","LANE":"１７５巷","ALLEY":" ","HOUSE_NO":"１４９號","E_COORD97":171716.92999999999,"N_COORD97":2549555.5,"ADDRESS":"\u25A0洲二街１７５巷１４９號","OBJECTID":385981},"geometry":{"x":171716.9299999997,"y":2549555.5000000019}},{"attributes":{"ID":386006,"DIS_CODE":0,"TOWNNAME":"永康區","LI":"\u25A0洲里","LIN":"37鄰","STREET":"\u25A0洲二街","SECT":" ","MAREA":" ","LANE":"１９７巷","ALLEY":" ","HOUSE_NO":"４２號","E_COORD97":171710.41,"N_COORD97":2549507.7400000002,"ADDRESS":"\u25A0洲二街１９７巷４２號","OBJECTID":385982},"geometry":{"x":171710.41000000015,"y":2549507.7400000002}},{"attributes":{"ID":386007,"DIS_CODE":0,"TOWNNAME":"永康區","LI":"\u25A0洲里","LIN":"37鄰","STREET":"\u25A0洲二街","SECT":" ","MAREA":" ","LANE":"１７５巷","ALLEY":" ","HOUSE_NO":"１３７號","E_COORD97":171694.10999999999,"N_COORD97":2549543.5,"ADDRESS":"\u25A0洲二街１７５巷１３７號","OBJECTID":385983},"geometry":{"x":171694.11000000034,"y":2549543.5}},{"attributes":{"ID":386008,"DIS_CODE":0,"TOWNNAME":"中西區","LI":"永華里","LIN":"22鄰","STREET":"忠義路","SECT":"二段","MAREA":" ","LANE":"５０巷","ALLEY":" ","HOUSE_NO":"１號","E_COORD97":168308.29999999999,"N_COORD97":2543728.6600000001,"ADDRESS":"忠義路二段５０巷１號","OBJECTID":385984},"geometry":{"x":168308.30000000075,"y":2543728.660000002}},{"attributes":{"ID":386009,"DIS_CODE":0,"TOWNNAME":"中西區","LI":"永華里","LIN":"22鄰","STREET":"忠義路","SECT":"二段","MAREA":" ","LANE":"５０巷","ALLEY":" ","HOUSE_NO":"２號","E_COORD97":168310.57000000001,"N_COORD97":2543728.2400000002,"ADDRESS":"忠義路二段５０巷２號","OBJECTID":385985},"geometry":{"x":168310.57000000123,"y":2543728.2400000021}},{"attributes":{"ID":386010,"DIS_CODE":0,"TOWNNAME":"永康區","LI":"\u25A0洲里","LIN":"37鄰","STREET":"\u25A0洲二街","SECT":" ","MAREA":" ","LANE":"１７５巷","ALLEY":" ","HOUSE_NO":"１０３號","E_COORD97":171639.23999999999,"N_COORD97":2549526.8900000001,"ADDRESS":"\u25A0洲二街１７５巷１０３號","OBJECTID":385986},"geometry":{"x":171639.24000000022,"y":2549526.8900000006}},{"attributes":{"ID":386011,"DIS_CODE":0,"TOWNNAME":"永康區","LI":"\u25A0洲里","LIN":"37鄰","STREET":"\u25A0洲二街","SECT":" ","MAREA":" ","LANE":"１９７巷","ALLEY":" ","HOUSE_NO":"１９號","E_COORD97":171712.10999999999,"N_COORD97":2549473.4900000002,"ADDRESS":"\u25A0洲二街１９７巷１９號","OBJECTID":385987},"geometry":{"x":171712.11000000127,"y":2549473.4900000021}},{"attributes":{"ID":386012,"DIS_CODE":0,"TOWNNAME":"永康區","LI":"\u25A0洲里","LIN":"37鄰","STREET":"\u25A0洲二街","SECT":" ","MAREA":" ","LANE":"１９７巷","ALLEY":" ","HOUSE_NO":"２３號","E_COORD97":171706.01999999999,"N_COORD97":2549479.4900000002,"ADDRESS":"\u25A0洲二街１９７巷２３號","OBJECTID":385988},"geometry":{"x":171706.01999999955,"y":2549479.4899999984}},{"attributes":{"ID":386013,"DIS_CODE":0,"TOWNNAME":"永康區","LI":"\u25A0洲里","LIN":"37鄰","STREET":"\u25A0洲二街","SECT":" ","MAREA":" ","LANE":"１９７巷","ALLEY":" ","HOUSE_NO":"１５號","E_COORD97":171717.91,"N_COORD97":2549467.4900000002,"ADDRESS":"\u25A0洲二街１９７巷１５號","OBJECTID":385989},"geometry":{"x":171717.90999999922,"y":2549467.4900000021}},{"attributes":{"ID":386014,"DIS_CODE":0,"TOWNNAME":"永康區","LI":"\u25A0洲里","LIN":"37鄰","STREET":"\u25A0洲二街","SECT":" ","MAREA":" ","LANE":"１９７巷","ALLEY":" ","HOUSE_NO":"６號","E_COORD97":171749.19,"N_COORD97":2549465.7400000002,"ADDRESS":"\u25A0洲二街１９７巷６號","OBJECTID":385990},"geometry":{"x":171749.19000000134,"y":2549465.7400000021}},{"attributes":{"ID":386015,"DIS_CODE":0,"TOWNNAME":"永康區","LI":"\u25A0洲里","LIN":"37鄰","STREET":"\u25A0洲二街","SECT":" ","MAREA":" ","LANE":"１７５巷","ALLEY":" ","HOUSE_NO":"１３９號","E_COORD97":171698.10999999999,"N_COORD97":2549545.5,"ADDRESS":"\u25A0洲二街１７５巷１３９號","OBJECTID":385991},"geometry":{"x":171698.1099999994,"y":2549545.5}},{"attributes":{"ID":386016,"DIS_CODE":0,"TOWNNAME":"永康區","LI":"\u25A0洲里","LIN":"37鄰","STREET":"\u25A0洲二街","SECT":" ","MAREA":" ","LANE":"１９７巷","ALLEY":" ","HOUSE_NO":"３５號","E_COORD97":171689.32000000001,"N_COORD97":2549497.7400000002,"ADDRESS":"\u25A0洲二街１９７巷３５號","OBJECTID":385992},"geometry":{"x":171689.3200000003,"y":2549497.7400000002}},{"attributes":{"ID":386017,"DIS_CODE":0,"TOWNNAME":"永康區","LI":"\u25A0洲里","LIN":"37鄰","STREET":"\u25A0洲二街","SECT":" ","MAREA":" ","LANE":"１９７巷","ALLEY":" ","HOUSE_NO":"２０號","E_COORD97":171733.76000000001,"N_COORD97":2549484.2400000002,"ADDRESS":"\u25A0洲二街１９７巷２０號","OBJECTID":385993},"geometry":{"x":171733.75999999978,"y":2549484.2400000002}},{"attributes":{"ID":386018,"DIS_CODE":0,"TOWNNAME":"永康區","LI":"\u25A0洲里","LIN":"37鄰","STREET":"\u25A0洲二街","SECT":" ","MAREA":" ","LANE":"１９７巷","ALLEY":" ","HOUSE_NO":"４１號","E_COORD97":171680.41,"N_COORD97":2549506.2400000002,"ADDRESS":"\u25A0洲二街１９７巷４１號","OBJECTID":385994},"geometry":{"x":171680.41000000015,"y":2549506.2400000021}},{"attributes":{"ID":386019,"DIS_CODE":0,"TOWNNAME":"永康區","LI":"\u25A0洲里","LIN":"37鄰","STREET":"\u25A0洲二街","SECT":" ","MAREA":" ","LANE":"１７５巷","ALLEY":" ","HOUSE_NO":"９３號","E_COORD97":171653.25,"N_COORD97":2549511.6400000001,"ADDRESS":"\u25A0洲二街１７５巷９３號","OBJECTID":385995},"geometry":{"x":171653.25000000093,"y":2549511.6400000006}},{"attributes":{"ID":386020,"DIS_CODE":0,"TOWNNAME":"永康區","LI":"\u25A0洲里","LIN":"37鄰","STREET":"\u25A0洲二街","SECT":" ","MAREA":" ","LANE":"１９７巷","ALLEY":" ","HOUSE_NO":"５２號","E_COORD97":171698.70999999999,"N_COORD97":2549519,"ADDRESS":"\u25A0洲二街１９７巷５２號","OBJECTID":385996},"geometry":{"x":171698.70999999903,"y":2549519}},{"attributes":{"ID":386021,"DIS_CODE":0,"TOWNNAME":"永康區","LI":"\u25A0洲里","LIN":"37鄰","STREET":"\u25A0洲二街","SECT":" ","MAREA":" ","LANE":"１７５巷","ALLEY":" ","HOUSE_NO":"９１號","E_COORD97":171656.10000000001,"N_COORD97":2549508.3799999999,"ADDRESS":"\u25A0洲二街１７５巷９１號","OBJECTID":385997},"geometry":{"x":171656.09999999963,"y":2549508.379999999}},{"attributes":{"ID":386022,"DIS_CODE":0,"TOWNNAME":"永康區","LI":"\u25A0洲里","LIN":"37鄰","STREET":"\u25A0洲二街","SECT":" ","MAREA":" ","LANE":"１７５巷","ALLEY":" ","HOUSE_NO":"１４３號","E_COORD97":171705.63,"N_COORD97":2549549.5,"ADDRESS":"\u25A0洲二街１７５巷１４３號","OBJECTID":385998},"geometry":{"x":171705.62999999989,"y":2549549.5}},{"attributes":{"ID":386023,"DIS_CODE":0,"TOWNNAME":"永康區","LI":"\u25A0洲里","LIN":"37鄰","STREET":"\u25A0洲二街","SECT":" ","MAREA":" ","LANE":"１７５巷","ALLEY":" ","HOUSE_NO":"１４７號","E_COORD97":171713.13,"N_COORD97":2549553.5,"ADDRESS":"\u25A0洲二街１７５巷１４７號","OBJECTID":385999},"geometry":{"x":171713.13000000082,"y":2549553.5}},{"attributes":{"ID":386024,"DIS_CODE":0,"TOWNNAME":"永康區","LI":"\u25A0洲里","LIN":"37鄰","STREET":"\u25A0洲二街","SECT":" ","MAREA":" ","LANE":"１７５巷","ALLEY":" ","HOUSE_NO":"８９號","E_COORD97":171659.25,"N_COORD97":2549505.1299999999,"ADDRESS":"\u25A0洲二街１７５巷８９號","OBJECTID":386000},"geometry":{"x":171659.25,"y":2549505.1300000008}}]}