{"displayFieldName":"TOWNNAME","fieldAliases":{"ID":"ID","DIS_CODE":"DIS_CODE","TOWNNAME":"TOWNNAME","LI":"LI","LIN":"LIN","STREET":"STREET","SECT":"SECT","MAREA":"MAREA","LANE":"LANE","ALLEY":"ALLEY","HOUSE_NO":"HOUSE_NO","E_COORD97":"E_COORD97","N_COORD97":"N_COORD97","ADDRESS":"ADDRESS","OBJECTID":"OBJECTID"},"geometryType":"esriGeometryPoint","spatialReference":{"wkid":102443,"latestWkid":3826},"fields":[{"name":"ID","type":"esriFieldTypeDouble","alias":"ID"},{"name":"DIS_CODE","type":"esriFieldTypeInteger","alias":"DIS_CODE"},{"name":"TOWNNAME","type":"esriFieldTypeString","alias":"TOWNNAME","length":8},{"name":"LI","type":"esriFieldTypeString","alias":"LI","length":8},{"name":"LIN","type":"esriFieldTypeString","alias":"LIN","length":12},{"name":"STREET","type":"esriFieldTypeString","alias":"STREET","length":20},{"name":"SECT","type":"esriFieldTypeString","alias":"SECT","length":8},{"name":"MAREA","type":"esriFieldTypeString","alias":"MAREA","length":12},{"name":"LANE","type":"esriFieldTypeString","alias":"LANE","length":10},{"name":"ALLEY","type":"esriFieldTypeString","alias":"ALLEY","length":10},{"name":"HOUSE_NO","type":"esriFieldTypeString","alias":"HOUSE_NO","length":20},{"name":"E_COORD97","type":"esriFieldTypeDouble","alias":"E_COORD97"},{"name":"N_COORD97","type":"esriFieldTypeDouble","alias":"N_COORD97"},{"name":"ADDRESS","type":"esriFieldTypeString","alias":"ADDRESS","length":50},{"name":"OBJECTID","type":"esriFieldTypeOID","alias":"OBJECTID"}],"features":[{"attributes":{"ID":35801,"DIS_CODE":0,"TOWNNAME":"安南區","LI":"理想里","LIN":"8鄰","STREET":"海佃路","SECT":"二段","MAREA":" ","LANE":"１５０巷","ALLEY":"１１２弄","HOUSE_NO":"１０４號","E_COORD97":167194.64000000001,"N_COORD97":2548353.6499999999,"ADDRESS":"海佃路二段１５０巷１１２弄１０４號","OBJECTID":35801},"geometry":{"x":167194.63999999966,"y":2548353.6500000022}},{"attributes":{"ID":35802,"DIS_CODE":0,"TOWNNAME":"安南區","LI":"理想里","LIN":"8鄰","STREET":"海佃路","SECT":"二段","MAREA":" ","LANE":"１５０巷","ALLEY":"１１２弄","HOUSE_NO":"１０６號","E_COORD97":167189.64999999999,"N_COORD97":2548355.6499999999,"ADDRESS":"海佃路二段１５０巷１１２弄１０６號","OBJECTID":35802},"geometry":{"x":167189.65000000037,"y":2548355.6500000004}},{"attributes":{"ID":35803,"DIS_CODE":0,"TOWNNAME":"安南區","LI":"理想里","LIN":"8鄰","STREET":"海佃路","SECT":"二段","MAREA":" ","LANE":"１５０巷","ALLEY":"１１２弄","HOUSE_NO":"３９號","E_COORD97":167292.60000000001,"N_COORD97":2548350.4300000002,"ADDRESS":"海佃路二段１５０巷１１２弄３９號","OBJECTID":35803},"geometry":{"x":167292.59999999963,"y":2548350.4300000034}},{"attributes":{"ID":35804,"DIS_CODE":0,"TOWNNAME":"安南區","LI":"理想里","LIN":"8鄰","STREET":"海佃路","SECT":"二段","MAREA":" ","LANE":"１５０巷","ALLEY":"１１２弄","HOUSE_NO":"４１號","E_COORD97":167296.76000000001,"N_COORD97":2548348,"ADDRESS":"海佃路二段１５０巷１１２弄４１號","OBJECTID":35804},"geometry":{"x":167296.75999999978,"y":2548348.0000000019}},{"attributes":{"ID":35805,"DIS_CODE":0,"TOWNNAME":"安南區","LI":"理想里","LIN":"8鄰","STREET":"海佃路","SECT":"二段","MAREA":" ","LANE":"１５０巷","ALLEY":"１１２弄","HOUSE_NO":"４３號","E_COORD97":167300.34,"N_COORD97":2548345.8500000001,"ADDRESS":"海佃路二段１５０巷１１２弄４３號","OBJECTID":35805},"geometry":{"x":167300.33999999985,"y":2548345.8500000015}},{"attributes":{"ID":35806,"DIS_CODE":0,"TOWNNAME":"安南區","LI":"理想里","LIN":"8鄰","STREET":"海佃路","SECT":"二段","MAREA":" ","LANE":"１５０巷","ALLEY":"１１２弄","HOUSE_NO":"４５號","E_COORD97":167304.42000000001,"N_COORD97":2548343.4900000002,"ADDRESS":"海佃路二段１５０巷１１２弄４５號","OBJECTID":35806},"geometry":{"x":167304.41999999993,"y":2548343.4900000002}},{"attributes":{"ID":35807,"DIS_CODE":0,"TOWNNAME":"安南區","LI":"理想里","LIN":"8鄰","STREET":"海佃路","SECT":"二段","MAREA":" ","LANE":"１５０巷","ALLEY":"１１２弄","HOUSE_NO":"４７號","E_COORD97":167308.64999999999,"N_COORD97":2548340.8399999999,"ADDRESS":"海佃路二段１５０巷１１２弄４７號","OBJECTID":35807},"geometry":{"x":167308.65000000037,"y":2548340.8399999999}},{"attributes":{"ID":35808,"DIS_CODE":0,"TOWNNAME":"仁德區","LI":"仁義里","LIN":"8鄰","STREET":"中山路","SECT":" ","MAREA":" ","LANE":"５０９巷","ALLEY":"３弄","HOUSE_NO":"１０號","E_COORD97":173581.87,"N_COORD97":2541246.75,"ADDRESS":"中山路５０９巷３弄１０號","OBJECTID":35808},"geometry":{"x":173581.87000000104,"y":2541246.7500000019}},{"attributes":{"ID":35809,"DIS_CODE":0,"TOWNNAME":"安南區","LI":"理想里","LIN":"8鄰","STREET":"海佃路","SECT":"二段","MAREA":" ","LANE":"１５０巷","ALLEY":"１１２弄","HOUSE_NO":"４９號","E_COORD97":167312.16,"N_COORD97":2548338.48,"ADDRESS":"海佃路二段１５０巷１１２弄４９號","OBJECTID":35809},"geometry":{"x":167312.15999999922,"y":2548338.4800000023}},{"attributes":{"ID":35810,"DIS_CODE":0,"TOWNNAME":"安南區","LI":"理想里","LIN":"8鄰","STREET":"海佃路","SECT":"二段","MAREA":" ","LANE":"１５０巷","ALLEY":"１１２弄","HOUSE_NO":"３７號","E_COORD97":167289.59,"N_COORD97":2548351.7200000002,"ADDRESS":"海佃路二段１５０巷１１２弄３７號","OBJECTID":35810},"geometry":{"x":167289.58999999985,"y":2548351.7200000007}},{"attributes":{"ID":35811,"DIS_CODE":0,"TOWNNAME":"南區","LI":"光明里","LIN":"8鄰","STREET":"新興路","SECT":" ","MAREA":" ","LANE":"５３３巷","ALLEY":"３３弄","HOUSE_NO":"２號","E_COORD97":166675.07000000001,"N_COORD97":2541557.98,"ADDRESS":"新興路５３３巷３３弄２號","OBJECTID":35811},"geometry":{"x":166675.0700000003,"y":2541557.9800000023}},{"attributes":{"ID":35812,"DIS_CODE":0,"TOWNNAME":"南區","LI":"光明里","LIN":"8鄰","STREET":"新興路","SECT":" ","MAREA":" ","LANE":"５３３巷","ALLEY":"３３弄","HOUSE_NO":"６號","E_COORD97":166689.23000000001,"N_COORD97":2541558.4100000001,"ADDRESS":"新興路５３３巷３３弄６號","OBJECTID":35812},"geometry":{"x":166689.23000000045,"y":2541558.410000002}},{"attributes":{"ID":35813,"DIS_CODE":0,"TOWNNAME":"南區","LI":"光明里","LIN":"8鄰","STREET":"新興路","SECT":" ","MAREA":" ","LANE":"５３３巷","ALLEY":"３３弄","HOUSE_NO":"１２號","E_COORD97":166726.48999999999,"N_COORD97":2541548.6099999999,"ADDRESS":"新興路５３３巷３３弄１２號","OBJECTID":35813},"geometry":{"x":166726.49000000022,"y":2541548.6100000013}},{"attributes":{"ID":35814,"DIS_CODE":0,"TOWNNAME":"南區","LI":"光明里","LIN":"8鄰","STREET":"新興路","SECT":" ","MAREA":" ","LANE":"５３３巷","ALLEY":"３３弄","HOUSE_NO":"１４號","E_COORD97":166726.19,"N_COORD97":2541553.0800000001,"ADDRESS":"新興路５３３巷３３弄１４號","OBJECTID":35814},"geometry":{"x":166726.19000000134,"y":2541553.0800000019}},{"attributes":{"ID":35815,"DIS_CODE":0,"TOWNNAME":"南區","LI":"光明里","LIN":"8鄰","STREET":"新興路","SECT":" ","MAREA":" ","LANE":"５３３巷","ALLEY":"３３弄","HOUSE_NO":"１６號","E_COORD97":166725.09,"N_COORD97":2541557.0600000001,"ADDRESS":"新興路５３３巷３３弄１６號","OBJECTID":35815},"geometry":{"x":166725.08999999985,"y":2541557.0600000024}},{"attributes":{"ID":35816,"DIS_CODE":0,"TOWNNAME":"南區","LI":"光明里","LIN":"8鄰","STREET":"新興路","SECT":" ","MAREA":" ","LANE":"５３３巷","ALLEY":"３３弄","HOUSE_NO":"１８號","E_COORD97":166724,"N_COORD97":2541562.8300000001,"ADDRESS":"新興路５３３巷３３弄１８號","OBJECTID":35816},"geometry":{"x":166724.00000000093,"y":2541562.8300000001}},{"attributes":{"ID":35817,"DIS_CODE":0,"TOWNNAME":"南區","LI":"光明里","LIN":"8鄰","STREET":"新興路","SECT":" ","MAREA":" ","LANE":"５３３巷","ALLEY":"３３弄","HOUSE_NO":"２０號","E_COORD97":166727.98000000001,"N_COORD97":2541564.4900000002,"ADDRESS":"新興路５３３巷３３弄２０號","OBJECTID":35817},"geometry":{"x":166727.98000000138,"y":2541564.4900000021}},{"attributes":{"ID":35818,"DIS_CODE":0,"TOWNNAME":"南區","LI":"光明里","LIN":"8鄰","STREET":"新興路","SECT":" ","MAREA":" ","LANE":"５３３巷","ALLEY":"３３弄","HOUSE_NO":"２２號","E_COORD97":166733.04999999999,"N_COORD97":2541565.0899999999,"ADDRESS":"新興路５３３巷３３弄２２號","OBJECTID":35818},"geometry":{"x":166733.05000000075,"y":2541565.0899999999}},{"attributes":{"ID":35819,"DIS_CODE":0,"TOWNNAME":"南區","LI":"光明里","LIN":"8鄰","STREET":"新興路","SECT":" ","MAREA":" ","LANE":"５３３巷","ALLEY":"３３弄","HOUSE_NO":"２４號","E_COORD97":166736.54000000001,"N_COORD97":2541567.0800000001,"ADDRESS":"新興路５３３巷３３弄２４號","OBJECTID":35819},"geometry":{"x":166736.5400000019,"y":2541567.0800000019}},{"attributes":{"ID":35820,"DIS_CODE":0,"TOWNNAME":"南區","LI":"光明里","LIN":"8鄰","STREET":"新興路","SECT":" ","MAREA":" ","LANE":"５３３巷","ALLEY":"３３弄","HOUSE_NO":"２６號","E_COORD97":166740.82000000001,"N_COORD97":2541568.3700000001,"ADDRESS":"新興路５３３巷３３弄２６號","OBJECTID":35820},"geometry":{"x":166740.82000000123,"y":2541568.3700000048}},{"attributes":{"ID":35821,"DIS_CODE":0,"TOWNNAME":"後壁區","LI":"侯伯里","LIN":"7鄰","STREET":" ","SECT":" ","MAREA":"後壁寮","LANE":" ","ALLEY":" ","HOUSE_NO":"５８號之２８","E_COORD97":185368.26000000001,"N_COORD97":2585090.6099999999,"ADDRESS":"後壁寮５８號之２８","OBJECTID":35821},"geometry":{"x":185368.26000000164,"y":2585090.6100000031}},{"attributes":{"ID":35822,"DIS_CODE":0,"TOWNNAME":"後壁區","LI":"侯伯里","LIN":"7鄰","STREET":" ","SECT":" ","MAREA":"後壁寮","LANE":" ","ALLEY":" ","HOUSE_NO":"５８號之３８","E_COORD97":185370.92000000001,"N_COORD97":2585115.2000000002,"ADDRESS":"後壁寮５８號之３８","OBJECTID":35822},"geometry":{"x":185370.92000000086,"y":2585115.1999999993}},{"attributes":{"ID":35823,"DIS_CODE":0,"TOWNNAME":"後壁區","LI":"侯伯里","LIN":"7鄰","STREET":" ","SECT":" ","MAREA":"後壁寮","LANE":" ","ALLEY":" ","HOUSE_NO":"５８號之２","E_COORD97":185312.23999999999,"N_COORD97":2585186.6600000001,"ADDRESS":"後壁寮５８號之２","OBJECTID":35823},"geometry":{"x":185312.24000000022,"y":2585186.660000002}},{"attributes":{"ID":35824,"DIS_CODE":0,"TOWNNAME":"下營區","LI":"營前里","LIN":"14鄰","STREET":"復興街","SECT":" ","MAREA":" ","LANE":" ","ALLEY":" ","HOUSE_NO":"１５號","E_COORD97":174731.88316299999,"N_COORD97":2570427.9768500002,"ADDRESS":"復興街１５號","OBJECTID":35824},"geometry":{"x":174731.88316299953,"y":2570427.9768460039}},{"attributes":{"ID":35825,"DIS_CODE":0,"TOWNNAME":"下營區","LI":"營前里","LIN":"14鄰","STREET":"復興街","SECT":" ","MAREA":" ","LANE":" ","ALLEY":" ","HOUSE_NO":"１３號","E_COORD97":174737.393171,"N_COORD97":2570429.2468500002,"ADDRESS":"復興街１３號","OBJECTID":35825},"geometry":{"x":174737.39317100216,"y":2570429.2468460016}},{"attributes":{"ID":35826,"DIS_CODE":0,"TOWNNAME":"後壁區","LI":"侯伯里","LIN":"7鄰","STREET":" ","SECT":" ","MAREA":"後壁寮","LANE":" ","ALLEY":" ","HOUSE_NO":"５８號之３７","E_COORD97":185366.85999999999,"N_COORD97":2585116.2799999998,"ADDRESS":"後壁寮５８號之３７","OBJECTID":35826},"geometry":{"x":185366.86000000127,"y":2585116.2799999975}},{"attributes":{"ID":35827,"DIS_CODE":0,"TOWNNAME":"後壁區","LI":"侯伯里","LIN":"7鄰","STREET":" ","SECT":" ","MAREA":"後壁寮","LANE":" ","ALLEY":" ","HOUSE_NO":"５８號之３６","E_COORD97":185362.81,"N_COORD97":2585117.3500000001,"ADDRESS":"後壁寮５８號之３６","OBJECTID":35827},"geometry":{"x":185362.81000000145,"y":2585117.3500000015}},{"attributes":{"ID":35828,"DIS_CODE":0,"TOWNNAME":"後壁區","LI":"侯伯里","LIN":"7鄰","STREET":" ","SECT":" ","MAREA":"後壁寮","LANE":" ","ALLEY":" ","HOUSE_NO":"５８號之３５","E_COORD97":185358.75,"N_COORD97":2585118.4199999999,"ADDRESS":"後壁寮５８號之３５","OBJECTID":35828},"geometry":{"x":185358.75000000093,"y":2585118.4199999999}},{"attributes":{"ID":35829,"DIS_CODE":0,"TOWNNAME":"後壁區","LI":"侯伯里","LIN":"7鄰","STREET":" ","SECT":" ","MAREA":"後壁寮","LANE":" ","ALLEY":" ","HOUSE_NO":"５８號之３４","E_COORD97":185354.69,"N_COORD97":2585119.5,"ADDRESS":"後壁寮５８號之３４","OBJECTID":35829},"geometry":{"x":185354.69000000134,"y":2585119.5000000019}},{"attributes":{"ID":35830,"DIS_CODE":0,"TOWNNAME":"後壁區","LI":"侯伯里","LIN":"7鄰","STREET":" ","SECT":" ","MAREA":"後壁寮","LANE":" ","ALLEY":" ","HOUSE_NO":"５８號之３３","E_COORD97":185350.63,"N_COORD97":2585120.5699999998,"ADDRESS":"後壁寮５８號之３３","OBJECTID":35830},"geometry":{"x":185350.63000000175,"y":2585120.5700000003}},{"attributes":{"ID":35831,"DIS_CODE":0,"TOWNNAME":"南區","LI":"光明里","LIN":"8鄰","STREET":"新興路","SECT":" ","MAREA":" ","LANE":"５３３巷","ALLEY":"３３弄","HOUSE_NO":"２８號","E_COORD97":166744.20000000001,"N_COORD97":2541570.46,"ADDRESS":"新興路５３３巷３３弄２８號","OBJECTID":35831},"geometry":{"x":166744.20000000205,"y":2541570.4600000009}},{"attributes":{"ID":35832,"DIS_CODE":0,"TOWNNAME":"南區","LI":"光明里","LIN":"8鄰","STREET":"新興路","SECT":" ","MAREA":" ","LANE":"５３３巷","ALLEY":"３３弄","HOUSE_NO":"３０號","E_COORD97":166746.69,"N_COORD97":2541572.6400000001,"ADDRESS":"新興路５３３巷３３弄３０號","OBJECTID":35832},"geometry":{"x":166746.69000000134,"y":2541572.6400000043}},{"attributes":{"ID":35833,"DIS_CODE":0,"TOWNNAME":"新營區","LI":"鐵線里","LIN":"14鄰","STREET":" ","SECT":" ","MAREA":"秀才","LANE":" ","ALLEY":" ","HOUSE_NO":"２１之２號","E_COORD97":174656.20999999999,"N_COORD97":2573800.3700000001,"ADDRESS":"秀才２１之２號","OBJECTID":35833},"geometry":{"x":174656.20999999996,"y":2573800.3699999992}},{"attributes":{"ID":35834,"DIS_CODE":0,"TOWNNAME":"南區","LI":"光明里","LIN":"8鄰","STREET":"新興路","SECT":" ","MAREA":" ","LANE":"５３３巷","ALLEY":"３３弄","HOUSE_NO":"３２號","E_COORD97":166750.57000000001,"N_COORD97":2541574.8300000001,"ADDRESS":"新興路５３３巷３３弄３２號","OBJECTID":35834},"geometry":{"x":166750.57000000123,"y":2541574.8300000019}},{"attributes":{"ID":35835,"DIS_CODE":0,"TOWNNAME":"白河區","LI":"汴頭里","LIN":"7鄰","STREET":" ","SECT":" ","MAREA":"五汴頭","LANE":" ","ALLEY":" ","HOUSE_NO":"２２號","E_COORD97":194325.44,"N_COORD97":2585403.1000000001,"ADDRESS":"五汴頭２２號","OBJECTID":35835},"geometry":{"x":194325.44000000134,"y":2585403.1000000015}},{"attributes":{"ID":35836,"DIS_CODE":0,"TOWNNAME":"南區","LI":"光明里","LIN":"8鄰","STREET":"新興路","SECT":" ","MAREA":" ","LANE":"５３３巷","ALLEY":"３３弄","HOUSE_NO":"３４號","E_COORD97":166754.04999999999,"N_COORD97":2541576.8199999998,"ADDRESS":"新興路５３３巷３３弄３４號","OBJECTID":35836},"geometry":{"x":166754.05000000075,"y":2541576.8200000003}},{"attributes":{"ID":35837,"DIS_CODE":0,"TOWNNAME":"南區","LI":"光明里","LIN":"8鄰","STREET":"新興路","SECT":" ","MAREA":" ","LANE":"５３３巷","ALLEY":"３３弄","HOUSE_NO":"３６號","E_COORD97":166757.23000000001,"N_COORD97":2541579.2999999998,"ADDRESS":"新興路５３３巷３３弄３６號","OBJECTID":35837},"geometry":{"x":166757.23000000045,"y":2541579.3000000026}},{"attributes":{"ID":35838,"DIS_CODE":0,"TOWNNAME":"新營區","LI":"新北里","LIN":"14鄰","STREET":"南新街","SECT":" ","MAREA":" ","LANE":"１３巷","ALLEY":" ","HOUSE_NO":"１８號","E_COORD97":179313.67999999999,"N_COORD97":2578822.9300000002,"ADDRESS":"南新街１３巷１８號","OBJECTID":35838},"geometry":{"x":179313.68000000156,"y":2578822.9299999997}},{"attributes":{"ID":35839,"DIS_CODE":0,"TOWNNAME":"新營區","LI":"三仙里","LIN":"14鄰","STREET":"中華路","SECT":" ","MAREA":" ","LANE":" ","ALLEY":" ","HOUSE_NO":"６８號之５","E_COORD97":179504.23000000001,"N_COORD97":2578189.73,"ADDRESS":"中華路６８號之５","OBJECTID":35839},"geometry":{"x":179504.23000000138,"y":2578189.7300000004}},{"attributes":{"ID":35840,"DIS_CODE":0,"TOWNNAME":"後壁區","LI":"侯伯里","LIN":"7鄰","STREET":" ","SECT":" ","MAREA":"後壁寮","LANE":" ","ALLEY":" ","HOUSE_NO":"５８號之３２","E_COORD97":185346.57000000001,"N_COORD97":2585121.6499999999,"ADDRESS":"後壁寮５８號之３２","OBJECTID":35840},"geometry":{"x":185346.57000000123,"y":2585121.6499999985}},{"attributes":{"ID":35841,"DIS_CODE":0,"TOWNNAME":"後壁區","LI":"侯伯里","LIN":"7鄰","STREET":" ","SECT":" ","MAREA":"後壁寮","LANE":" ","ALLEY":" ","HOUSE_NO":"５８號之３１","E_COORD97":185342.51000000001,"N_COORD97":2585122.7200000002,"ADDRESS":"後壁寮５８號之３１","OBJECTID":35841},"geometry":{"x":185342.50999999978,"y":2585122.7200000025}},{"attributes":{"ID":35842,"DIS_CODE":0,"TOWNNAME":"後壁區","LI":"侯伯里","LIN":"7鄰","STREET":" ","SECT":" ","MAREA":"後壁寮","LANE":" ","ALLEY":" ","HOUSE_NO":"５８號之３０","E_COORD97":185338.45000000001,"N_COORD97":2585123.7999999998,"ADDRESS":"後壁寮５８號之３０","OBJECTID":35842},"geometry":{"x":185338.45000000019,"y":2585123.8000000007}},{"attributes":{"ID":35843,"DIS_CODE":0,"TOWNNAME":"後壁區","LI":"侯伯里","LIN":"7鄰","STREET":" ","SECT":" ","MAREA":"後壁寮","LANE":" ","ALLEY":" ","HOUSE_NO":"５８號之２９","E_COORD97":185334.39999999999,"N_COORD97":2585124.8700000001,"ADDRESS":"後壁寮５８號之２９","OBJECTID":35843},"geometry":{"x":185334.4000000013,"y":2585124.8700000029}},{"attributes":{"ID":35844,"DIS_CODE":0,"TOWNNAME":"後壁區","LI":"侯伯里","LIN":"7鄰","STREET":" ","SECT":" ","MAREA":"後壁寮","LANE":" ","ALLEY":" ","HOUSE_NO":"５８號之３","E_COORD97":185310.29999999999,"N_COORD97":2585183.1800000002,"ADDRESS":"後壁寮５８號之３","OBJECTID":35844},"geometry":{"x":185310.29999999981,"y":2585183.1800000016}},{"attributes":{"ID":35845,"DIS_CODE":0,"TOWNNAME":"後壁區","LI":"侯伯里","LIN":"7鄰","STREET":" ","SECT":" ","MAREA":"後壁寮","LANE":" ","ALLEY":" ","HOUSE_NO":"５８號之４","E_COORD97":185308.37,"N_COORD97":2585179.71,"ADDRESS":"後壁寮５８號之４","OBJECTID":35845},"geometry":{"x":185308.37000000011,"y":2585179.7100000046}},{"attributes":{"ID":35846,"DIS_CODE":0,"TOWNNAME":"後壁區","LI":"侯伯里","LIN":"7鄰","STREET":" ","SECT":" ","MAREA":"後壁寮","LANE":" ","ALLEY":" ","HOUSE_NO":"５８號之５","E_COORD97":185307.31,"N_COORD97":2585175.7400000002,"ADDRESS":"後壁寮５８號之５","OBJECTID":35846},"geometry":{"x":185307.31000000052,"y":2585175.7400000021}},{"attributes":{"ID":35847,"DIS_CODE":0,"TOWNNAME":"後壁區","LI":"侯伯里","LIN":"7鄰","STREET":" ","SECT":" ","MAREA":"後壁寮","LANE":" ","ALLEY":" ","HOUSE_NO":"５８號之６","E_COORD97":185305.28,"N_COORD97":2585172.5099999998,"ADDRESS":"後壁寮５８號之６","OBJECTID":35847},"geometry":{"x":185305.28000000026,"y":2585172.5099999998}},{"attributes":{"ID":35848,"DIS_CODE":0,"TOWNNAME":"後壁區","LI":"侯伯里","LIN":"7鄰","STREET":" ","SECT":" ","MAREA":"後壁寮","LANE":" ","ALLEY":" ","HOUSE_NO":"５８號之７","E_COORD97":185303.39000000001,"N_COORD97":2585169.0600000001,"ADDRESS":"後壁寮５８號之７","OBJECTID":35848},"geometry":{"x":185303.3900000006,"y":2585169.0600000005}},{"attributes":{"ID":35849,"DIS_CODE":0,"TOWNNAME":"後壁區","LI":"侯伯里","LIN":"7鄰","STREET":" ","SECT":" ","MAREA":"後壁寮","LANE":" ","ALLEY":" ","HOUSE_NO":"５８號之８","E_COORD97":185301.5,"N_COORD97":2585165.6000000001,"ADDRESS":"後壁寮５８號之８","OBJECTID":35849},"geometry":{"x":185301.50000000093,"y":2585165.6000000034}},{"attributes":{"ID":35850,"DIS_CODE":0,"TOWNNAME":"後壁區","LI":"侯伯里","LIN":"7鄰","STREET":" ","SECT":" ","MAREA":"後壁寮","LANE":" ","ALLEY":" ","HOUSE_NO":"５８號之９","E_COORD97":185299.60999999999,"N_COORD97":2585162.1400000001,"ADDRESS":"後壁寮５８號之９","OBJECTID":35850},"geometry":{"x":185299.61000000034,"y":2585162.1400000006}},{"attributes":{"ID":35851,"DIS_CODE":0,"TOWNNAME":"後壁區","LI":"崁頂里","LIN":"7鄰","STREET":" ","SECT":" ","MAREA":"崁頂","LANE":" ","ALLEY":" ","HOUSE_NO":"７１號之１","E_COORD97":183065.07000000001,"N_COORD97":2586551.8399999999,"ADDRESS":"崁頂７１號之１","OBJECTID":35851},"geometry":{"x":183065.07000000123,"y":2586551.8400000017}},{"attributes":{"ID":35852,"DIS_CODE":0,"TOWNNAME":"後壁區","LI":"崁頂里","LIN":"7鄰","STREET":" ","SECT":" ","MAREA":"崁頂","LANE":" ","ALLEY":" ","HOUSE_NO":"７１號之２","E_COORD97":183041.87,"N_COORD97":2586505.5899999999,"ADDRESS":"崁頂７１號之２","OBJECTID":35852},"geometry":{"x":183041.87000000011,"y":2586505.5900000017}},{"attributes":{"ID":35853,"DIS_CODE":0,"TOWNNAME":"後壁區","LI":"崁頂里","LIN":"7鄰","STREET":" ","SECT":" ","MAREA":"崁頂","LANE":" ","ALLEY":" ","HOUSE_NO":"７１號之３","E_COORD97":183072.84,"N_COORD97":2586513.0699999998,"ADDRESS":"崁頂７１號之３","OBJECTID":35853},"geometry":{"x":183072.84000000078,"y":2586513.0700000022}},{"attributes":{"ID":35854,"DIS_CODE":0,"TOWNNAME":"後壁區","LI":"崁頂里","LIN":"7鄰","STREET":" ","SECT":" ","MAREA":"崁頂","LANE":" ","ALLEY":" ","HOUSE_NO":"７１號","E_COORD97":183060.89999999999,"N_COORD97":2586527.52,"ADDRESS":"崁頂７１號","OBJECTID":35854},"geometry":{"x":183060.90000000224,"y":2586527.5199999996}},{"attributes":{"ID":35855,"DIS_CODE":0,"TOWNNAME":"後壁區","LI":"崁頂里","LIN":"7鄰","STREET":" ","SECT":" ","MAREA":"崁頂","LANE":" ","ALLEY":" ","HOUSE_NO":"７２號之１","E_COORD97":183019.87,"N_COORD97":2586505.54,"ADDRESS":"崁頂７２號之１","OBJECTID":35855},"geometry":{"x":183019.87000000011,"y":2586505.540000001}},{"attributes":{"ID":35856,"DIS_CODE":0,"TOWNNAME":"後壁區","LI":"崁頂里","LIN":"7鄰","STREET":" ","SECT":" ","MAREA":"崁頂","LANE":" ","ALLEY":" ","HOUSE_NO":"７２號","E_COORD97":183017.04999999999,"N_COORD97":2586508.5099999998,"ADDRESS":"崁頂７２號","OBJECTID":35856},"geometry":{"x":183017.05000000075,"y":2586508.5099999979}},{"attributes":{"ID":35857,"DIS_CODE":0,"TOWNNAME":"後壁區","LI":"崁頂里","LIN":"7鄰","STREET":" ","SECT":" ","MAREA":"崁頂","LANE":" ","ALLEY":" ","HOUSE_NO":"７３號之１","E_COORD97":183042.28,"N_COORD97":2586528.1899999999,"ADDRESS":"崁頂７３號之１","OBJECTID":35857},"geometry":{"x":183042.28000000026,"y":2586528.1900000013}},{"attributes":{"ID":35858,"DIS_CODE":0,"TOWNNAME":"後壁區","LI":"崁頂里","LIN":"7鄰","STREET":" ","SECT":" ","MAREA":"崁頂","LANE":" ","ALLEY":" ","HOUSE_NO":"７４號之１","E_COORD97":183008.88,"N_COORD97":2586558.8799999999,"ADDRESS":"崁頂７４號之１","OBJECTID":35858},"geometry":{"x":183008.87999999989,"y":2586558.879999999}},{"attributes":{"ID":35859,"DIS_CODE":0,"TOWNNAME":"後壁區","LI":"烏樹里","LIN":"7鄰","STREET":" ","SECT":" ","MAREA":"烏樹林","LANE":" ","ALLEY":" ","HOUSE_NO":"８４號","E_COORD97":186201.42999999999,"N_COORD97":2581381.98,"ADDRESS":"烏樹林８４號","OBJECTID":35859},"geometry":{"x":186201.43000000063,"y":2581381.9800000004}},{"attributes":{"ID":35860,"DIS_CODE":0,"TOWNNAME":"後壁區","LI":"烏樹里","LIN":"7鄰","STREET":" ","SECT":" ","MAREA":"烏樹林","LANE":" ","ALLEY":" ","HOUSE_NO":"８８號之１","E_COORD97":186279.64000000001,"N_COORD97":2581363.6699999999,"ADDRESS":"烏樹林８８號之１","OBJECTID":35860},"geometry":{"x":186279.6400000006,"y":2581363.6699999999}},{"attributes":{"ID":35861,"DIS_CODE":0,"TOWNNAME":"後壁區","LI":"烏樹里","LIN":"7鄰","STREET":" ","SECT":" ","MAREA":"烏樹林","LANE":" ","ALLEY":" ","HOUSE_NO":"８８號之２","E_COORD97":186291.17999999999,"N_COORD97":2581362.0800000001,"ADDRESS":"烏樹林８８號之２","OBJECTID":35861},"geometry":{"x":186291.18000000063,"y":2581362.0800000038}},{"attributes":{"ID":35862,"DIS_CODE":0,"TOWNNAME":"後壁區","LI":"烏樹里","LIN":"7鄰","STREET":" ","SECT":" ","MAREA":"烏樹林","LANE":" ","ALLEY":" ","HOUSE_NO":"８８號之４","E_COORD97":186302.37,"N_COORD97":2581346.52,"ADDRESS":"烏樹林８８號之４","OBJECTID":35862},"geometry":{"x":186302.37000000104,"y":2581346.5200000014}},{"attributes":{"ID":35863,"DIS_CODE":0,"TOWNNAME":"後壁區","LI":"烏樹里","LIN":"7鄰","STREET":" ","SECT":" ","MAREA":"烏樹林","LANE":" ","ALLEY":" ","HOUSE_NO":"８８號","E_COORD97":186273.47,"N_COORD97":2581344.3100000001,"ADDRESS":"烏樹林８８號","OBJECTID":35863},"geometry":{"x":186273.46999999974,"y":2581344.3100000024}},{"attributes":{"ID":35864,"DIS_CODE":0,"TOWNNAME":"白河區","LI":"六溪里","LIN":"7鄰","STREET":" ","SECT":" ","MAREA":"六重溪","LANE":" ","ALLEY":" ","HOUSE_NO":"５８號","E_COORD97":195194.66,"N_COORD97":2579247.04,"ADDRESS":"六重溪５８號","OBJECTID":35864},"geometry":{"x":195194.66000000201,"y":2579247.040000001}},{"attributes":{"ID":35865,"DIS_CODE":0,"TOWNNAME":"白河區","LI":"汴頭里","LIN":"7鄰","STREET":" ","SECT":" ","MAREA":"五汴頭","LANE":" ","ALLEY":" ","HOUSE_NO":"２０之３號","E_COORD97":194418.48000000001,"N_COORD97":2585318.7000000002,"ADDRESS":"五汴頭２０之３號","OBJECTID":35865},"geometry":{"x":194418.48000000138,"y":2585318.6999999993}},{"attributes":{"ID":35866,"DIS_CODE":0,"TOWNNAME":"新營區","LI":"新南里","LIN":"14鄰","STREET":"民治路","SECT":" ","MAREA":" ","LANE":" ","ALLEY":" ","HOUSE_NO":"２３４號","E_COORD97":178826.76000000001,"N_COORD97":2578540.6600000001,"ADDRESS":"民治路２３４號","OBJECTID":35866},"geometry":{"x":178826.76000000071,"y":2578540.6600000039}},{"attributes":{"ID":35867,"DIS_CODE":0,"TOWNNAME":"白河區","LI":"汴頭里","LIN":"7鄰","STREET":" ","SECT":" ","MAREA":"五汴頭","LANE":" ","ALLEY":" ","HOUSE_NO":"２０之４號","E_COORD97":194334.57999999999,"N_COORD97":2585346.0800000001,"ADDRESS":"五汴頭２０之４號","OBJECTID":35867},"geometry":{"x":194334.58000000101,"y":2585346.0800000019}},{"attributes":{"ID":35868,"DIS_CODE":0,"TOWNNAME":"白河區","LI":"汴頭里","LIN":"7鄰","STREET":" ","SECT":" ","MAREA":"五汴頭","LANE":" ","ALLEY":" ","HOUSE_NO":"２０之５號","E_COORD97":194362.62,"N_COORD97":2585342.6600000001,"ADDRESS":"五汴頭２０之５號","OBJECTID":35868},"geometry":{"x":194362.62000000197,"y":2585342.660000002}},{"attributes":{"ID":35869,"DIS_CODE":0,"TOWNNAME":"白河區","LI":"汴頭里","LIN":"7鄰","STREET":" ","SECT":" ","MAREA":"五汴頭","LANE":" ","ALLEY":" ","HOUSE_NO":"２０之６號","E_COORD97":194413.51999999999,"N_COORD97":2585290.9300000002,"ADDRESS":"五汴頭２０之６號","OBJECTID":35869},"geometry":{"x":194413.52000000142,"y":2585290.9299999997}},{"attributes":{"ID":35870,"DIS_CODE":0,"TOWNNAME":"白河區","LI":"汴頭里","LIN":"7鄰","STREET":" ","SECT":" ","MAREA":"五汴頭","LANE":" ","ALLEY":" ","HOUSE_NO":"２０號","E_COORD97":194375.94,"N_COORD97":2585361.7200000002,"ADDRESS":"五汴頭２０號","OBJECTID":35870},"geometry":{"x":194375.94000000227,"y":2585361.7200000007}},{"attributes":{"ID":35871,"DIS_CODE":0,"TOWNNAME":"白河區","LI":"汴頭里","LIN":"7鄰","STREET":" ","SECT":" ","MAREA":"五汴頭","LANE":" ","ALLEY":" ","HOUSE_NO":"２１號","E_COORD97":194347.20000000001,"N_COORD97":2585430.6400000001,"ADDRESS":"五汴頭２１號","OBJECTID":35871},"geometry":{"x":194347.20000000112,"y":2585430.6400000043}},{"attributes":{"ID":35872,"DIS_CODE":0,"TOWNNAME":"白河區","LI":"汴頭里","LIN":"7鄰","STREET":" ","SECT":" ","MAREA":"五汴頭","LANE":" ","ALLEY":" ","HOUSE_NO":"２３之１號","E_COORD97":194313.78,"N_COORD97":2585427.0499999998,"ADDRESS":"五汴頭２３之１號","OBJECTID":35872},"geometry":{"x":194313.78000000026,"y":2585427.0500000007}},{"attributes":{"ID":35873,"DIS_CODE":0,"TOWNNAME":"白河區","LI":"汴頭里","LIN":"7鄰","STREET":" ","SECT":" ","MAREA":"五汴頭","LANE":" ","ALLEY":" ","HOUSE_NO":"２３之５０號","E_COORD97":194187.97,"N_COORD97":2585683.5299999998,"ADDRESS":"五汴頭２３之５０號","OBJECTID":35873},"geometry":{"x":194187.96999999974,"y":2585683.5299999993}},{"attributes":{"ID":35874,"DIS_CODE":0,"TOWNNAME":"白河區","LI":"汴頭里","LIN":"7鄰","STREET":" ","SECT":" ","MAREA":"五汴頭","LANE":" ","ALLEY":" ","HOUSE_NO":"２３之５６號","E_COORD97":194200.29999999999,"N_COORD97":2585812.3300000001,"ADDRESS":"五汴頭２３之５６號","OBJECTID":35874},"geometry":{"x":194200.30000000075,"y":2585812.3300000019}},{"attributes":{"ID":35875,"DIS_CODE":0,"TOWNNAME":"白河區","LI":"汴頭里","LIN":"7鄰","STREET":" ","SECT":" ","MAREA":"五汴頭","LANE":" ","ALLEY":" ","HOUSE_NO":"２３之７號","E_COORD97":194317.22,"N_COORD97":2585528.7400000002,"ADDRESS":"五汴頭２３之７號","OBJECTID":35875},"geometry":{"x":194317.21999999974,"y":2585528.7400000021}},{"attributes":{"ID":35876,"DIS_CODE":0,"TOWNNAME":"白河區","LI":"汴頭里","LIN":"7鄰","STREET":" ","SECT":" ","MAREA":"五汴頭","LANE":" ","ALLEY":" ","HOUSE_NO":"２３號","E_COORD97":194309.66,"N_COORD97":2585474.3900000001,"ADDRESS":"五汴頭２３號","OBJECTID":35876},"geometry":{"x":194309.66000000015,"y":2585474.3900000025}},{"attributes":{"ID":35877,"DIS_CODE":0,"TOWNNAME":"白河區","LI":"內角里","LIN":"7鄰","STREET":" ","SECT":" ","MAREA":"內角","LANE":" ","ALLEY":" ","HOUSE_NO":"９２號","E_COORD97":192193.91,"N_COORD97":2588413.0299999998,"ADDRESS":"內角９２號","OBJECTID":35877},"geometry":{"x":192193.91000000015,"y":2588413.0299999993}},{"attributes":{"ID":35878,"DIS_CODE":0,"TOWNNAME":"白河區","LI":"內角里","LIN":"7鄰","STREET":" ","SECT":" ","MAREA":"內角","LANE":" ","ALLEY":" ","HOUSE_NO":"９３之１號","E_COORD97":192214.47,"N_COORD97":2588443.6699999999,"ADDRESS":"內角９３之１號","OBJECTID":35878},"geometry":{"x":192214.47000000067,"y":2588443.6700000037}},{"attributes":{"ID":35879,"DIS_CODE":0,"TOWNNAME":"白河區","LI":"內角里","LIN":"7鄰","STREET":" ","SECT":" ","MAREA":"內角","LANE":" ","ALLEY":" ","HOUSE_NO":"９３號","E_COORD97":192205.34,"N_COORD97":2588443.0699999998,"ADDRESS":"內角９３號","OBJECTID":35879},"geometry":{"x":192205.34000000078,"y":2588443.0700000022}},{"attributes":{"ID":35880,"DIS_CODE":0,"TOWNNAME":"白河區","LI":"內角里","LIN":"7鄰","STREET":" ","SECT":" ","MAREA":"內角","LANE":" ","ALLEY":" ","HOUSE_NO":"９４號","E_COORD97":192111.85000000001,"N_COORD97":2588538.6899999999,"ADDRESS":"內角９４號","OBJECTID":35880},"geometry":{"x":192111.85000000056,"y":2588538.6900000013}},{"attributes":{"ID":35881,"DIS_CODE":0,"TOWNNAME":"白河區","LI":"內角里","LIN":"7鄰","STREET":" ","SECT":" ","MAREA":"內角","LANE":" ","ALLEY":" ","HOUSE_NO":"９５之１號","E_COORD97":192089.84,"N_COORD97":2588598.25,"ADDRESS":"內角９５之１號","OBJECTID":35881},"geometry":{"x":192089.84000000078,"y":2588598.25}},{"attributes":{"ID":35882,"DIS_CODE":0,"TOWNNAME":"白河區","LI":"內角里","LIN":"7鄰","STREET":" ","SECT":" ","MAREA":"內角","LANE":" ","ALLEY":" ","HOUSE_NO":"９６之２０號","E_COORD97":191762.32999999999,"N_COORD97":2588858.7999999998,"ADDRESS":"內角９６之２０號","OBJECTID":35882},"geometry":{"x":191762.32999999914,"y":2588858.8000000026}},{"attributes":{"ID":35883,"DIS_CODE":0,"TOWNNAME":"白河區","LI":"內角里","LIN":"7鄰","STREET":" ","SECT":" ","MAREA":"內角","LANE":" ","ALLEY":" ","HOUSE_NO":"９６之３３號","E_COORD97":191877.47,"N_COORD97":2588806.3500000001,"ADDRESS":"內角９６之３３號","OBJECTID":35883},"geometry":{"x":191877.46999999974,"y":2588806.3500000015}},{"attributes":{"ID":35884,"DIS_CODE":0,"TOWNNAME":"白河區","LI":"內角里","LIN":"7鄰","STREET":" ","SECT":" ","MAREA":"內角","LANE":" ","ALLEY":" ","HOUSE_NO":"９６號","E_COORD97":192051.84,"N_COORD97":2588612.1899999999,"ADDRESS":"內角９６號","OBJECTID":35884},"geometry":{"x":192051.83999999985,"y":2588612.1899999995}},{"attributes":{"ID":35885,"DIS_CODE":0,"TOWNNAME":"白河區","LI":"崎內里","LIN":"7鄰","STREET":" ","SECT":" ","MAREA":"內崎內","LANE":" ","ALLEY":" ","HOUSE_NO":"６３號","E_COORD97":196488.45999999999,"N_COORD97":2586432.8500000001,"ADDRESS":"內崎內６３號","OBJECTID":35885},"geometry":{"x":196488.45999999996,"y":2586432.8500000015}},{"attributes":{"ID":35886,"DIS_CODE":0,"TOWNNAME":"白河區","LI":"崎內里","LIN":"7鄰","STREET":" ","SECT":" ","MAREA":"內崎內","LANE":" ","ALLEY":" ","HOUSE_NO":"６４號","E_COORD97":196591.45999999999,"N_COORD97":2586405.52,"ADDRESS":"內崎內６４號","OBJECTID":35886},"geometry":{"x":196591.46000000089,"y":2586405.5199999996}},{"attributes":{"ID":35887,"DIS_CODE":0,"TOWNNAME":"白河區","LI":"崎內里","LIN":"7鄰","STREET":" ","SECT":" ","MAREA":"內崎內","LANE":" ","ALLEY":" ","HOUSE_NO":"６５之１號","E_COORD97":196580.70000000001,"N_COORD97":2586371.7799999998,"ADDRESS":"內崎內６５之１號","OBJECTID":35887},"geometry":{"x":196580.70000000019,"y":2586371.7800000012}},{"attributes":{"ID":35888,"DIS_CODE":0,"TOWNNAME":"白河區","LI":"崎內里","LIN":"7鄰","STREET":" ","SECT":" ","MAREA":"內崎內","LANE":" ","ALLEY":" ","HOUSE_NO":"６５號","E_COORD97":196609.81,"N_COORD97":2586371.6800000002,"ADDRESS":"內崎內６５號","OBJECTID":35888},"geometry":{"x":196609.80999999959,"y":2586371.6799999978}},{"attributes":{"ID":35889,"DIS_CODE":0,"TOWNNAME":"白河區","LI":"崎內里","LIN":"7鄰","STREET":" ","SECT":" ","MAREA":"內崎內","LANE":" ","ALLEY":" ","HOUSE_NO":"６６之１號","E_COORD97":196638.89000000001,"N_COORD97":2586450.71,"ADDRESS":"內崎內６６之１號","OBJECTID":35889},"geometry":{"x":196638.8900000006,"y":2586450.709999999}},{"attributes":{"ID":35890,"DIS_CODE":0,"TOWNNAME":"白河區","LI":"崎內里","LIN":"7鄰","STREET":" ","SECT":" ","MAREA":"內崎內","LANE":" ","ALLEY":" ","HOUSE_NO":"６７號","E_COORD97":196627.98000000001,"N_COORD97":2586533.2999999998,"ADDRESS":"內崎內６７號","OBJECTID":35890},"geometry":{"x":196627.98000000045,"y":2586533.3000000007}},{"attributes":{"ID":35891,"DIS_CODE":0,"TOWNNAME":"白河區","LI":"崎內里","LIN":"7鄰","STREET":" ","SECT":" ","MAREA":"內崎內","LANE":" ","ALLEY":" ","HOUSE_NO":"６８之１號","E_COORD97":196649.42999999999,"N_COORD97":2586536.9300000002,"ADDRESS":"內崎內６８之１號","OBJECTID":35891},"geometry":{"x":196649.4299999997,"y":2586536.9300000016}},{"attributes":{"ID":35892,"DIS_CODE":0,"TOWNNAME":"白河區","LI":"崎內里","LIN":"7鄰","STREET":" ","SECT":" ","MAREA":"內崎內","LANE":" ","ALLEY":" ","HOUSE_NO":"６８號","E_COORD97":196658.76000000001,"N_COORD97":2586514.4700000002,"ADDRESS":"內崎內６８號","OBJECTID":35892},"geometry":{"x":196658.76000000071,"y":2586514.4700000025}},{"attributes":{"ID":35893,"DIS_CODE":0,"TOWNNAME":"白河區","LI":"崎內里","LIN":"7鄰","STREET":" ","SECT":" ","MAREA":"內崎內","LANE":" ","ALLEY":" ","HOUSE_NO":"６９之１號","E_COORD97":196682.57999999999,"N_COORD97":2586505.2200000002,"ADDRESS":"內崎內６９之１號","OBJECTID":35893},"geometry":{"x":196682.58000000101,"y":2586505.2200000025}},{"attributes":{"ID":35894,"DIS_CODE":0,"TOWNNAME":"白河區","LI":"崎內里","LIN":"7鄰","STREET":" ","SECT":" ","MAREA":"內崎內","LANE":" ","ALLEY":" ","HOUSE_NO":"６９號","E_COORD97":196677.14999999999,"N_COORD97":2586492.98,"ADDRESS":"內崎內６９號","OBJECTID":35894},"geometry":{"x":196677.1500000013,"y":2586492.9800000042}},{"attributes":{"ID":35895,"DIS_CODE":0,"TOWNNAME":"白河區","LI":"崎內里","LIN":"7鄰","STREET":" ","SECT":" ","MAREA":"內崎內","LANE":" ","ALLEY":" ","HOUSE_NO":"７５之１號","E_COORD97":196713.10000000001,"N_COORD97":2586513.79,"ADDRESS":"內崎內７５之１號","OBJECTID":35895},"geometry":{"x":196713.09999999963,"y":2586513.790000001}},{"attributes":{"ID":35896,"DIS_CODE":0,"TOWNNAME":"白河區","LI":"崎內里","LIN":"7鄰","STREET":" ","SECT":" ","MAREA":"內崎內","LANE":" ","ALLEY":" ","HOUSE_NO":"７５號","E_COORD97":196692.23999999999,"N_COORD97":2586523.2999999998,"ADDRESS":"內崎內７５號","OBJECTID":35896},"geometry":{"x":196692.24000000022,"y":2586523.3000000007}},{"attributes":{"ID":35897,"DIS_CODE":0,"TOWNNAME":"白河區","LI":"崎內里","LIN":"7鄰","STREET":" ","SECT":" ","MAREA":"內崎內","LANE":" ","ALLEY":" ","HOUSE_NO":"８０號","E_COORD97":196727.20000000001,"N_COORD97":2586444.79,"ADDRESS":"內崎內８０號","OBJECTID":35897},"geometry":{"x":196727.20000000112,"y":2586444.7899999991}},{"attributes":{"ID":35898,"DIS_CODE":0,"TOWNNAME":"白河區","LI":"崎內里","LIN":"7鄰","STREET":" ","SECT":" ","MAREA":"內崎內","LANE":" ","ALLEY":" ","HOUSE_NO":"８１之３號","E_COORD97":196749.38,"N_COORD97":2586380,"ADDRESS":"內崎內８１之３號","OBJECTID":35898},"geometry":{"x":196749.38000000082,"y":2586379.9999999981}},{"attributes":{"ID":35899,"DIS_CODE":0,"TOWNNAME":"白河區","LI":"崎內里","LIN":"7鄰","STREET":" ","SECT":" ","MAREA":"內崎內","LANE":" ","ALLEY":" ","HOUSE_NO":"８１號","E_COORD97":196746.59,"N_COORD97":2586438.5099999998,"ADDRESS":"內崎內８１號","OBJECTID":35899},"geometry":{"x":196746.59000000078,"y":2586438.5100000016}},{"attributes":{"ID":35900,"DIS_CODE":0,"TOWNNAME":"白河區","LI":"六溪里","LIN":"7鄰","STREET":" ","SECT":" ","MAREA":"六重溪","LANE":" ","ALLEY":" ","HOUSE_NO":"５６號","E_COORD97":195082.88,"N_COORD97":2579037.6000000001,"ADDRESS":"六重溪５６號","OBJECTID":35900},"geometry":{"x":195082.88000000175,"y":2579037.5999999996}},{"attributes":{"ID":35901,"DIS_CODE":0,"TOWNNAME":"白河區","LI":"六溪里","LIN":"7鄰","STREET":" ","SECT":" ","MAREA":"六重溪","LANE":" ","ALLEY":" ","HOUSE_NO":"５７號","E_COORD97":195140.32000000001,"N_COORD97":2579009.8599999999,"ADDRESS":"六重溪５７號","OBJECTID":35901},"geometry":{"x":195140.32000000123,"y":2579009.8600000031}},{"attributes":{"ID":35902,"DIS_CODE":0,"TOWNNAME":"玉井區","LI":"層林里","LIN":"14鄰","STREET":" ","SECT":" ","MAREA":"層林","LANE":" ","ALLEY":" ","HOUSE_NO":"９號","E_COORD97":193785.12,"N_COORD97":2554252.2400000002,"ADDRESS":"層林９號","OBJECTID":35902},"geometry":{"x":193785.12000000104,"y":2554252.2400000021}},{"attributes":{"ID":35903,"DIS_CODE":0,"TOWNNAME":"白河區","LI":"六溪里","LIN":"7鄰","STREET":" ","SECT":" ","MAREA":"六重溪","LANE":" ","ALLEY":" ","HOUSE_NO":"５８之１０號","E_COORD97":195011.19,"N_COORD97":2579298.54,"ADDRESS":"六重溪５８之１０號","OBJECTID":35903},"geometry":{"x":195011.19000000041,"y":2579298.5399999991}},{"attributes":{"ID":35904,"DIS_CODE":0,"TOWNNAME":"白河區","LI":"六溪里","LIN":"7鄰","STREET":" ","SECT":" ","MAREA":"六重溪","LANE":" ","ALLEY":" ","HOUSE_NO":"５８之１２號","E_COORD97":195276.42999999999,"N_COORD97":2579452.8500000001,"ADDRESS":"六重溪５８之１２號","OBJECTID":35904},"geometry":{"x":195276.4299999997,"y":2579452.8499999996}},{"attributes":{"ID":35905,"DIS_CODE":0,"TOWNNAME":"白河區","LI":"六溪里","LIN":"7鄰","STREET":" ","SECT":" ","MAREA":"六重溪","LANE":" ","ALLEY":" ","HOUSE_NO":"５８之１號","E_COORD97":195367.32999999999,"N_COORD97":2579078.54,"ADDRESS":"六重溪５８之１號","OBJECTID":35905},"geometry":{"x":195367.33000000007,"y":2579078.5399999991}},{"attributes":{"ID":35906,"DIS_CODE":0,"TOWNNAME":"白河區","LI":"六溪里","LIN":"7鄰","STREET":" ","SECT":" ","MAREA":"六重溪","LANE":" ","ALLEY":" ","HOUSE_NO":"５８之２號","E_COORD97":195140.13,"N_COORD97":2579359.3599999999,"ADDRESS":"六重溪５８之２號","OBJECTID":35906},"geometry":{"x":195140.12999999989,"y":2579359.3600000031}},{"attributes":{"ID":35907,"DIS_CODE":0,"TOWNNAME":"白河區","LI":"六溪里","LIN":"7鄰","STREET":" ","SECT":" ","MAREA":"六重溪","LANE":" ","ALLEY":" ","HOUSE_NO":"５８之３號","E_COORD97":195223.45999999999,"N_COORD97":2579298.8199999998,"ADDRESS":"六重溪５８之３號","OBJECTID":35907},"geometry":{"x":195223.46000000089,"y":2579298.8200000003}},{"attributes":{"ID":35908,"DIS_CODE":0,"TOWNNAME":"將軍區","LI":"長榮里","LIN":"7鄰","STREET":" ","SECT":" ","MAREA":"長榮","LANE":" ","ALLEY":" ","HOUSE_NO":"７２之３號","E_COORD97":164018.62,"N_COORD97":2566221.8999999999,"ADDRESS":"長榮７２之３號","OBJECTID":35908},"geometry":{"x":164018.61999999918,"y":2566221.8999999985}},{"attributes":{"ID":35909,"DIS_CODE":0,"TOWNNAME":"將軍區","LI":"長榮里","LIN":"7鄰","STREET":" ","SECT":" ","MAREA":"長榮","LANE":" ","ALLEY":" ","HOUSE_NO":"７３號","E_COORD97":164011.19,"N_COORD97":2566246.9700000002,"ADDRESS":"長榮７３號","OBJECTID":35909},"geometry":{"x":164011.19000000041,"y":2566246.9700000025}},{"attributes":{"ID":35910,"DIS_CODE":0,"TOWNNAME":"將軍區","LI":"長榮里","LIN":"7鄰","STREET":" ","SECT":" ","MAREA":"長榮","LANE":" ","ALLEY":" ","HOUSE_NO":"７４號","E_COORD97":164007.84,"N_COORD97":2566263.8300000001,"ADDRESS":"長榮７４號","OBJECTID":35910},"geometry":{"x":164007.83999999985,"y":2566263.8300000019}},{"attributes":{"ID":35911,"DIS_CODE":0,"TOWNNAME":"將軍區","LI":"苓和里","LIN":"7鄰","STREET":" ","SECT":" ","MAREA":"苓和","LANE":" ","ALLEY":" ","HOUSE_NO":"６５號","E_COORD97":164637.29999999999,"N_COORD97":2568912.1699999999,"ADDRESS":"苓和６５號","OBJECTID":35911},"geometry":{"x":164637.29999999981,"y":2568912.1700000018}},{"attributes":{"ID":35912,"DIS_CODE":0,"TOWNNAME":"將軍區","LI":"苓和里","LIN":"7鄰","STREET":" ","SECT":" ","MAREA":"苓和","LANE":" ","ALLEY":" ","HOUSE_NO":"６６之１號","E_COORD97":164651.53,"N_COORD97":2568916.8900000001,"ADDRESS":"苓和６６之１號","OBJECTID":35912},"geometry":{"x":164651.53000000026,"y":2568916.8900000006}},{"attributes":{"ID":35913,"DIS_CODE":0,"TOWNNAME":"將軍區","LI":"苓和里","LIN":"7鄰","STREET":" ","SECT":" ","MAREA":"苓和","LANE":" ","ALLEY":" ","HOUSE_NO":"６６號","E_COORD97":164655.22,"N_COORD97":2568889.8999999999,"ADDRESS":"苓和６６號","OBJECTID":35913},"geometry":{"x":164655.22000000067,"y":2568889.9000000004}},{"attributes":{"ID":35914,"DIS_CODE":0,"TOWNNAME":"將軍區","LI":"苓和里","LIN":"7鄰","STREET":" ","SECT":" ","MAREA":"苓和","LANE":" ","ALLEY":" ","HOUSE_NO":"６７之１號","E_COORD97":164624.5,"N_COORD97":2568908.8700000001,"ADDRESS":"苓和６７之１號","OBJECTID":35914},"geometry":{"x":164624.49999999907,"y":2568908.8700000029}},{"attributes":{"ID":35915,"DIS_CODE":0,"TOWNNAME":"將軍區","LI":"苓和里","LIN":"7鄰","STREET":" ","SECT":" ","MAREA":"苓和","LANE":" ","ALLEY":" ","HOUSE_NO":"６７之２號","E_COORD97":164619.19,"N_COORD97":2568909.02,"ADDRESS":"苓和６７之２號","OBJECTID":35915},"geometry":{"x":164619.19000000134,"y":2568909.0200000033}},{"attributes":{"ID":35916,"DIS_CODE":0,"TOWNNAME":"將軍區","LI":"苓和里","LIN":"7鄰","STREET":" ","SECT":" ","MAREA":"苓和","LANE":" ","ALLEY":" ","HOUSE_NO":"６８之１號","E_COORD97":164605.19,"N_COORD97":2568908.71,"ADDRESS":"苓和６８之１號","OBJECTID":35916},"geometry":{"x":164605.19000000227,"y":2568908.7100000009}},{"attributes":{"ID":35917,"DIS_CODE":0,"TOWNNAME":"將軍區","LI":"苓和里","LIN":"7鄰","STREET":" ","SECT":" ","MAREA":"苓和","LANE":" ","ALLEY":" ","HOUSE_NO":"６８號","E_COORD97":164609.94,"N_COORD97":2568909.1299999999,"ADDRESS":"苓和６８號","OBJECTID":35917},"geometry":{"x":164609.94000000041,"y":2568909.1300000008}},{"attributes":{"ID":35918,"DIS_CODE":0,"TOWNNAME":"將軍區","LI":"苓和里","LIN":"7鄰","STREET":" ","SECT":" ","MAREA":"苓和","LANE":" ","ALLEY":" ","HOUSE_NO":"６９之１號","E_COORD97":164577.87,"N_COORD97":2568898.4399999999,"ADDRESS":"苓和６９之１號","OBJECTID":35918},"geometry":{"x":164577.87000000011,"y":2568898.4399999995}},{"attributes":{"ID":35919,"DIS_CODE":0,"TOWNNAME":"將軍區","LI":"苓和里","LIN":"7鄰","STREET":" ","SECT":" ","MAREA":"苓和","LANE":" ","ALLEY":" ","HOUSE_NO":"６９之２號","E_COORD97":164583.22,"N_COORD97":2568897.1600000001,"ADDRESS":"苓和６９之２號","OBJECTID":35919},"geometry":{"x":164583.21999999974,"y":2568897.1600000001}},{"attributes":{"ID":35920,"DIS_CODE":0,"TOWNNAME":"將軍區","LI":"苓和里","LIN":"7鄰","STREET":" ","SECT":" ","MAREA":"苓和","LANE":" ","ALLEY":" ","HOUSE_NO":"６９號","E_COORD97":164588.75,"N_COORD97":2568904.77,"ADDRESS":"苓和６９號","OBJECTID":35920},"geometry":{"x":164588.75,"y":2568904.7700000014}},{"attributes":{"ID":35921,"DIS_CODE":0,"TOWNNAME":"將軍區","LI":"苓和里","LIN":"7鄰","STREET":" ","SECT":" ","MAREA":"苓和","LANE":" ","ALLEY":" ","HOUSE_NO":"７０號","E_COORD97":164573.07000000001,"N_COORD97":2568897.4100000001,"ADDRESS":"苓和７０號","OBJECTID":35921},"geometry":{"x":164573.0700000003,"y":2568897.410000002}},{"attributes":{"ID":35922,"DIS_CODE":0,"TOWNNAME":"將軍區","LI":"苓和里","LIN":"7鄰","STREET":" ","SECT":" ","MAREA":"苓和","LANE":" ","ALLEY":" ","HOUSE_NO":"７１之１號","E_COORD97":164563.89000000001,"N_COORD97":2568894.9300000002,"ADDRESS":"苓和７１之１號","OBJECTID":35922},"geometry":{"x":164563.89000000153,"y":2568894.9299999997}},{"attributes":{"ID":35923,"DIS_CODE":0,"TOWNNAME":"將軍區","LI":"苓和里","LIN":"7鄰","STREET":" ","SECT":" ","MAREA":"苓和","LANE":" ","ALLEY":" ","HOUSE_NO":"７１號","E_COORD97":164567.5,"N_COORD97":2568895.0299999998,"ADDRESS":"苓和７１號","OBJECTID":35923},"geometry":{"x":164567.50000000093,"y":2568895.0300000031}},{"attributes":{"ID":35924,"DIS_CODE":0,"TOWNNAME":"將軍區","LI":"保源里","LIN":"7鄰","STREET":" ","SECT":" ","MAREA":"苓保","LANE":" ","ALLEY":" ","HOUSE_NO":"６１之１０號","E_COORD97":164658.38,"N_COORD97":2568556.5699999998,"ADDRESS":"苓保６１之１０號","OBJECTID":35924},"geometry":{"x":164658.37999999989,"y":2568556.5700000003}},{"attributes":{"ID":35925,"DIS_CODE":0,"TOWNNAME":"將軍區","LI":"保源里","LIN":"7鄰","STREET":" ","SECT":" ","MAREA":"苓保","LANE":" ","ALLEY":" ","HOUSE_NO":"６１之１２號","E_COORD97":164701.64000000001,"N_COORD97":2568576.0899999999,"ADDRESS":"苓保６１之１２號","OBJECTID":35925},"geometry":{"x":164701.6400000006,"y":2568576.0899999999}},{"attributes":{"ID":35926,"DIS_CODE":0,"TOWNNAME":"將軍區","LI":"保源里","LIN":"7鄰","STREET":" ","SECT":" ","MAREA":"苓保","LANE":" ","ALLEY":" ","HOUSE_NO":"６１號","E_COORD97":164653.89999999999,"N_COORD97":2568619.5800000001,"ADDRESS":"苓保６１號","OBJECTID":35926},"geometry":{"x":164653.90000000037,"y":2568619.5800000001}},{"attributes":{"ID":35927,"DIS_CODE":0,"TOWNNAME":"將軍區","LI":"保源里","LIN":"7鄰","STREET":" ","SECT":" ","MAREA":"苓保","LANE":" ","ALLEY":" ","HOUSE_NO":"６２之１號","E_COORD97":164637.85999999999,"N_COORD97":2568621.8799999999,"ADDRESS":"苓保６２之１號","OBJECTID":35927},"geometry":{"x":164637.8600000022,"y":2568621.8800000008}},{"attributes":{"ID":35928,"DIS_CODE":0,"TOWNNAME":"將軍區","LI":"保源里","LIN":"7鄰","STREET":" ","SECT":" ","MAREA":"苓保","LANE":" ","ALLEY":" ","HOUSE_NO":"６２之２號","E_COORD97":164628.48000000001,"N_COORD97":2568611.46,"ADDRESS":"苓保６２之２號","OBJECTID":35928},"geometry":{"x":164628.47999999952,"y":2568611.4600000009}},{"attributes":{"ID":35929,"DIS_CODE":0,"TOWNNAME":"將軍區","LI":"保源里","LIN":"7鄰","STREET":" ","SECT":" ","MAREA":"苓保","LANE":" ","ALLEY":" ","HOUSE_NO":"６４號","E_COORD97":164612.20000000001,"N_COORD97":2568622.1000000001,"ADDRESS":"苓保６４號","OBJECTID":35929},"geometry":{"x":164612.20000000112,"y":2568622.0999999996}},{"attributes":{"ID":35930,"DIS_CODE":0,"TOWNNAME":"將軍區","LI":"保源里","LIN":"7鄰","STREET":" ","SECT":" ","MAREA":"苓保","LANE":" ","ALLEY":" ","HOUSE_NO":"６５之５號","E_COORD97":164611.29999999999,"N_COORD97":2568542.2599999998,"ADDRESS":"苓保６５之５號","OBJECTID":35930},"geometry":{"x":164611.30000000075,"y":2568542.2600000016}},{"attributes":{"ID":35931,"DIS_CODE":0,"TOWNNAME":"將軍區","LI":"保源里","LIN":"7鄰","STREET":" ","SECT":" ","MAREA":"苓保","LANE":" ","ALLEY":" ","HOUSE_NO":"６５號","E_COORD97":164613.62,"N_COORD97":2568594.5299999998,"ADDRESS":"苓保６５號","OBJECTID":35931},"geometry":{"x":164613.61999999918,"y":2568594.5300000012}},{"attributes":{"ID":35932,"DIS_CODE":0,"TOWNNAME":"將軍區","LI":"保源里","LIN":"7鄰","STREET":" ","SECT":" ","MAREA":"苓保","LANE":" ","ALLEY":" ","HOUSE_NO":"６６之１０號","E_COORD97":164614.31,"N_COORD97":2568471.4500000002,"ADDRESS":"苓保６６之１０號","OBJECTID":35932},"geometry":{"x":164614.31000000052,"y":2568471.4499999993}},{"attributes":{"ID":35933,"DIS_CODE":0,"TOWNNAME":"西港區","LI":"\u25A0林里","LIN":"15鄰","STREET":" ","SECT":" ","MAREA":"太西","LANE":" ","ALLEY":" ","HOUSE_NO":"３５號","E_COORD97":170791.54000000001,"N_COORD97":2560154.6000000001,"ADDRESS":"太西３５號","OBJECTID":35933},"geometry":{"x":170791.5400000019,"y":2560154.6000000034}},{"attributes":{"ID":35934,"DIS_CODE":0,"TOWNNAME":"將軍區","LI":"保源里","LIN":"7鄰","STREET":" ","SECT":" ","MAREA":"苓保","LANE":" ","ALLEY":" ","HOUSE_NO":"６６之１１號","E_COORD97":164614.51000000001,"N_COORD97":2568465.9900000002,"ADDRESS":"苓保６６之１１號","OBJECTID":35934},"geometry":{"x":164614.51000000071,"y":2568465.9900000039}},{"attributes":{"ID":35935,"DIS_CODE":0,"TOWNNAME":"將軍區","LI":"保源里","LIN":"7鄰","STREET":" ","SECT":" ","MAREA":"苓保","LANE":" ","ALLEY":" ","HOUSE_NO":"６６之１２號","E_COORD97":164615.07000000001,"N_COORD97":2568460.75,"ADDRESS":"苓保６６之１２號","OBJECTID":35935},"geometry":{"x":164615.07000000123,"y":2568460.7500000019}},{"attributes":{"ID":35936,"DIS_CODE":0,"TOWNNAME":"將軍區","LI":"保源里","LIN":"7鄰","STREET":" ","SECT":" ","MAREA":"苓保","LANE":" ","ALLEY":" ","HOUSE_NO":"６６之１３號","E_COORD97":164614.84,"N_COORD97":2568455.77,"ADDRESS":"苓保６６之１３號","OBJECTID":35936},"geometry":{"x":164614.83999999985,"y":2568455.7699999996}},{"attributes":{"ID":35937,"DIS_CODE":0,"TOWNNAME":"將軍區","LI":"保源里","LIN":"7鄰","STREET":" ","SECT":" ","MAREA":"苓保","LANE":" ","ALLEY":" ","HOUSE_NO":"６６之１４號","E_COORD97":164614.98999999999,"N_COORD97":2568449.8900000001,"ADDRESS":"苓保６６之１４號","OBJECTID":35937},"geometry":{"x":164614.99000000115,"y":2568449.8900000043}},{"attributes":{"ID":35938,"DIS_CODE":0,"TOWNNAME":"將軍區","LI":"保源里","LIN":"7鄰","STREET":" ","SECT":" ","MAREA":"苓保","LANE":" ","ALLEY":" ","HOUSE_NO":"６６之１５號","E_COORD97":164615.37,"N_COORD97":2568444.9300000002,"ADDRESS":"苓保６６之１５號","OBJECTID":35938},"geometry":{"x":164615.37000000197,"y":2568444.9299999997}},{"attributes":{"ID":35939,"DIS_CODE":0,"TOWNNAME":"將軍區","LI":"保源里","LIN":"7鄰","STREET":" ","SECT":" ","MAREA":"苓保","LANE":" ","ALLEY":" ","HOUSE_NO":"６６之１６號","E_COORD97":164615.87,"N_COORD97":2568439.6299999999,"ADDRESS":"苓保６６之１６號","OBJECTID":35939},"geometry":{"x":164615.87000000104,"y":2568439.6299999971}},{"attributes":{"ID":35940,"DIS_CODE":0,"TOWNNAME":"將軍區","LI":"保源里","LIN":"7鄰","STREET":" ","SECT":" ","MAREA":"苓保","LANE":" ","ALLEY":" ","HOUSE_NO":"６６之１７號","E_COORD97":164616.03,"N_COORD97":2568434.27,"ADDRESS":"苓保６６之１７號","OBJECTID":35940},"geometry":{"x":164616.03000000026,"y":2568434.2700000014}},{"attributes":{"ID":35941,"DIS_CODE":0,"TOWNNAME":"將軍區","LI":"保源里","LIN":"7鄰","STREET":" ","SECT":" ","MAREA":"苓保","LANE":" ","ALLEY":" ","HOUSE_NO":"６６之１８號","E_COORD97":164616.04000000001,"N_COORD97":2568428.9700000002,"ADDRESS":"苓保６６之１８號","OBJECTID":35941},"geometry":{"x":164616.04000000097,"y":2568428.9700000044}},{"attributes":{"ID":35942,"DIS_CODE":0,"TOWNNAME":"將軍區","LI":"保源里","LIN":"7鄰","STREET":" ","SECT":" ","MAREA":"苓保","LANE":" ","ALLEY":" ","HOUSE_NO":"６６之１９號","E_COORD97":164615.63,"N_COORD97":2568424.04,"ADDRESS":"苓保６６之１９號","OBJECTID":35942},"geometry":{"x":164615.63000000082,"y":2568424.040000001}},{"attributes":{"ID":35943,"DIS_CODE":0,"TOWNNAME":"將軍區","LI":"保源里","LIN":"7鄰","STREET":" ","SECT":" ","MAREA":"苓保","LANE":" ","ALLEY":" ","HOUSE_NO":"６６之１號","E_COORD97":164564.48000000001,"N_COORD97":2568553.2599999998,"ADDRESS":"苓保６６之１號","OBJECTID":35943},"geometry":{"x":164564.48000000138,"y":2568553.2600000016}},{"attributes":{"ID":35944,"DIS_CODE":0,"TOWNNAME":"將軍區","LI":"保源里","LIN":"7鄰","STREET":" ","SECT":" ","MAREA":"苓保","LANE":" ","ALLEY":" ","HOUSE_NO":"６６之２０號","E_COORD97":164616.22,"N_COORD97":2568418.5499999998,"ADDRESS":"苓保６６之２０號","OBJECTID":35944},"geometry":{"x":164616.22000000067,"y":2568418.5500000045}},{"attributes":{"ID":35945,"DIS_CODE":0,"TOWNNAME":"將軍區","LI":"保源里","LIN":"7鄰","STREET":" ","SECT":" ","MAREA":"苓保","LANE":" ","ALLEY":" ","HOUSE_NO":"６６之２１號","E_COORD97":164617.37,"N_COORD97":2568413.1299999999,"ADDRESS":"苓保６６之２１號","OBJECTID":35945},"geometry":{"x":164617.37000000104,"y":2568413.1300000008}},{"attributes":{"ID":35946,"DIS_CODE":0,"TOWNNAME":"將軍區","LI":"保源里","LIN":"7鄰","STREET":" ","SECT":" ","MAREA":"苓保","LANE":" ","ALLEY":" ","HOUSE_NO":"６６之２２號","E_COORD97":164618.01000000001,"N_COORD97":2568408.0699999998,"ADDRESS":"苓保６６之２２號","OBJECTID":35946},"geometry":{"x":164618.01000000071,"y":2568408.0700000022}},{"attributes":{"ID":35947,"DIS_CODE":0,"TOWNNAME":"將軍區","LI":"保源里","LIN":"7鄰","STREET":" ","SECT":" ","MAREA":"苓保","LANE":" ","ALLEY":" ","HOUSE_NO":"６６之２３號","E_COORD97":164618.29000000001,"N_COORD97":2568402.2200000002,"ADDRESS":"苓保６６之２３號","OBJECTID":35947},"geometry":{"x":164618.29000000097,"y":2568402.2200000007}},{"attributes":{"ID":35948,"DIS_CODE":0,"TOWNNAME":"將軍區","LI":"保源里","LIN":"7鄰","STREET":" ","SECT":" ","MAREA":"苓保","LANE":" ","ALLEY":" ","HOUSE_NO":"６６之２５號","E_COORD97":164591.72,"N_COORD97":2568578.54,"ADDRESS":"苓保６６之２５號","OBJECTID":35948},"geometry":{"x":164591.71999999974,"y":2568578.5399999991}},{"attributes":{"ID":35949,"DIS_CODE":0,"TOWNNAME":"將軍區","LI":"保源里","LIN":"7鄰","STREET":" ","SECT":" ","MAREA":"苓保","LANE":" ","ALLEY":" ","HOUSE_NO":"６６之２號","E_COORD97":164611.85999999999,"N_COORD97":2568514.1800000002,"ADDRESS":"苓保６６之２號","OBJECTID":35949},"geometry":{"x":164611.86000000034,"y":2568514.1799999997}},{"attributes":{"ID":35950,"DIS_CODE":0,"TOWNNAME":"將軍區","LI":"保源里","LIN":"7鄰","STREET":" ","SECT":" ","MAREA":"苓保","LANE":" ","ALLEY":" ","HOUSE_NO":"６６之３號","E_COORD97":164612.23000000001,"N_COORD97":2568508.0899999999,"ADDRESS":"苓保６６之３號","OBJECTID":35950},"geometry":{"x":164612.23000000138,"y":2568508.0899999999}},{"attributes":{"ID":35951,"DIS_CODE":0,"TOWNNAME":"將軍區","LI":"保源里","LIN":"7鄰","STREET":" ","SECT":" ","MAREA":"苓保","LANE":" ","ALLEY":" ","HOUSE_NO":"６６之４５號","E_COORD97":164544.72,"N_COORD97":2568532.2200000002,"ADDRESS":"苓保６６之４５號","OBJECTID":35951},"geometry":{"x":164544.71999999881,"y":2568532.2200000007}},{"attributes":{"ID":35952,"DIS_CODE":0,"TOWNNAME":"將軍區","LI":"保源里","LIN":"7鄰","STREET":" ","SECT":" ","MAREA":"苓保","LANE":" ","ALLEY":" ","HOUSE_NO":"６６之４號","E_COORD97":164612.17000000001,"N_COORD97":2568503.0899999999,"ADDRESS":"苓保６６之４號","OBJECTID":35952},"geometry":{"x":164612.17000000086,"y":2568503.0900000017}},{"attributes":{"ID":35953,"DIS_CODE":0,"TOWNNAME":"將軍區","LI":"保源里","LIN":"7鄰","STREET":" ","SECT":" ","MAREA":"苓保","LANE":" ","ALLEY":" ","HOUSE_NO":"６６之５號","E_COORD97":164612.51000000001,"N_COORD97":2568497.6800000002,"ADDRESS":"苓保６６之５號","OBJECTID":35953},"geometry":{"x":164612.51000000164,"y":2568497.6799999978}},{"attributes":{"ID":35954,"DIS_CODE":0,"TOWNNAME":"將軍區","LI":"保源里","LIN":"7鄰","STREET":" ","SECT":" ","MAREA":"苓保","LANE":" ","ALLEY":" ","HOUSE_NO":"６６之６號","E_COORD97":164612.92000000001,"N_COORD97":2568492.5899999999,"ADDRESS":"苓保６６之６號","OBJECTID":35954},"geometry":{"x":164612.91999999993,"y":2568492.5900000017}},{"attributes":{"ID":35955,"DIS_CODE":0,"TOWNNAME":"將軍區","LI":"保源里","LIN":"7鄰","STREET":" ","SECT":" ","MAREA":"苓保","LANE":" ","ALLEY":" ","HOUSE_NO":"６６之７號","E_COORD97":164612.92999999999,"N_COORD97":2568487.1600000001,"ADDRESS":"苓保６６之７號","OBJECTID":35955},"geometry":{"x":164612.93000000156,"y":2568487.1600000001}},{"attributes":{"ID":35956,"DIS_CODE":0,"TOWNNAME":"將軍區","LI":"保源里","LIN":"7鄰","STREET":" ","SECT":" ","MAREA":"苓保","LANE":" ","ALLEY":" ","HOUSE_NO":"６６之８號","E_COORD97":164613.28,"N_COORD97":2568481.6600000001,"ADDRESS":"苓保６６之８號","OBJECTID":35956},"geometry":{"x":164613.28000000119,"y":2568481.6600000039}},{"attributes":{"ID":35957,"DIS_CODE":0,"TOWNNAME":"將軍區","LI":"保源里","LIN":"7鄰","STREET":" ","SECT":" ","MAREA":"苓保","LANE":" ","ALLEY":" ","HOUSE_NO":"６６之９號","E_COORD97":164613.73999999999,"N_COORD97":2568476.48,"ADDRESS":"苓保６６之９號","OBJECTID":35957},"geometry":{"x":164613.74000000115,"y":2568476.4800000042}},{"attributes":{"ID":35958,"DIS_CODE":0,"TOWNNAME":"南區","LI":"光明里","LIN":"8鄰","STREET":"新興路","SECT":" ","MAREA":" ","LANE":"５３３巷","ALLEY":"３３弄","HOUSE_NO":"３號","E_COORD97":166673.56,"N_COORD97":2541580.7000000002,"ADDRESS":"新興路５３３巷３３弄３號","OBJECTID":35958},"geometry":{"x":166673.56000000052,"y":2541580.6999999993}},{"attributes":{"ID":35959,"DIS_CODE":0,"TOWNNAME":"南區","LI":"光明里","LIN":"8鄰","STREET":"新興路","SECT":" ","MAREA":" ","LANE":"５３３巷","ALLEY":"３３弄","HOUSE_NO":"５號","E_COORD97":166678.42999999999,"N_COORD97":2541580.7000000002,"ADDRESS":"新興路５３３巷３３弄５號","OBJECTID":35959},"geometry":{"x":166678.43000000063,"y":2541580.6999999993}},{"attributes":{"ID":35960,"DIS_CODE":0,"TOWNNAME":"南區","LI":"光明里","LIN":"8鄰","STREET":"新興路","SECT":" ","MAREA":" ","LANE":"５３３巷","ALLEY":"３３弄","HOUSE_NO":"７號","E_COORD97":166683.10999999999,"N_COORD97":2541580.7000000002,"ADDRESS":"新興路５３３巷３３弄７號","OBJECTID":35960},"geometry":{"x":166683.11000000034,"y":2541580.6999999993}},{"attributes":{"ID":35961,"DIS_CODE":0,"TOWNNAME":"南區","LI":"光明里","LIN":"8鄰","STREET":"新興路","SECT":" ","MAREA":" ","LANE":"５３３巷","ALLEY":"３３弄","HOUSE_NO":"９號","E_COORD97":166687.69,"N_COORD97":2541581.9900000002,"ADDRESS":"新興路５３３巷３３弄９號","OBJECTID":35961},"geometry":{"x":166687.69000000041,"y":2541581.9900000002}},{"attributes":{"ID":35962,"DIS_CODE":0,"TOWNNAME":"南區","LI":"光明里","LIN":"8鄰","STREET":"新興路","SECT":" ","MAREA":" ","LANE":"５３３巷","ALLEY":"３３弄","HOUSE_NO":"１５號","E_COORD97":166701.22,"N_COORD97":2541581.5899999999,"ADDRESS":"新興路５３３巷３３弄１５號","OBJECTID":35962},"geometry":{"x":166701.2200000016,"y":2541581.5899999999}},{"attributes":{"ID":35963,"DIS_CODE":0,"TOWNNAME":"南區","LI":"光明里","LIN":"8鄰","STREET":"新興路","SECT":" ","MAREA":" ","LANE":"５３３巷","ALLEY":"３３弄","HOUSE_NO":"１７號","E_COORD97":166705.79999999999,"N_COORD97":2541582.5899999999,"ADDRESS":"新興路５３３巷３３弄１７號","OBJECTID":35963},"geometry":{"x":166705.80000000168,"y":2541582.5900000036}},{"attributes":{"ID":35964,"DIS_CODE":0,"TOWNNAME":"南區","LI":"光明里","LIN":"8鄰","STREET":"新興路","SECT":" ","MAREA":" ","LANE":"５３３巷","ALLEY":"３３弄","HOUSE_NO":"１９號","E_COORD97":166710.47,"N_COORD97":2541581.79,"ADDRESS":"新興路５３３巷３３弄１９號","OBJECTID":35964},"geometry":{"x":166710.46999999974,"y":2541581.790000001}},{"attributes":{"ID":35965,"DIS_CODE":0,"TOWNNAME":"南區","LI":"光明里","LIN":"8鄰","STREET":"新興路","SECT":" ","MAREA":" ","LANE":"５３３巷","ALLEY":"３３弄","HOUSE_NO":"２１號","E_COORD97":166715.23999999999,"N_COORD97":2541580.2999999998,"ADDRESS":"新興路５３３巷３３弄２１號","OBJECTID":35965},"geometry":{"x":166715.24000000115,"y":2541580.3000000007}},{"attributes":{"ID":35966,"DIS_CODE":0,"TOWNNAME":"六甲區","LI":"六甲里","LIN":"14鄰","STREET":"民生街","SECT":" ","MAREA":" ","LANE":" ","ALLEY":" ","HOUSE_NO":"１９７號","E_COORD97":183802.70999999999,"N_COORD97":2569920.6299999999,"ADDRESS":"民生街１９７號","OBJECTID":35966},"geometry":{"x":183802.71000000089,"y":2569920.629999999}},{"attributes":{"ID":35967,"DIS_CODE":0,"TOWNNAME":"南區","LI":"光明里","LIN":"8鄰","STREET":"新興路","SECT":" ","MAREA":" ","LANE":"５３３巷","ALLEY":"３３弄","HOUSE_NO":"２３號","E_COORD97":166719.32000000001,"N_COORD97":2541584.5800000001,"ADDRESS":"新興路５３３巷３３弄２３號","OBJECTID":35967},"geometry":{"x":166719.3200000003,"y":2541584.5800000001}},{"attributes":{"ID":35968,"DIS_CODE":0,"TOWNNAME":"南區","LI":"光明里","LIN":"8鄰","STREET":"新興路","SECT":" ","MAREA":" ","LANE":"５３３巷","ALLEY":"３３弄","HOUSE_NO":"２５號","E_COORD97":166724,"N_COORD97":2541586.46,"ADDRESS":"新興路５３３巷３３弄２５號","OBJECTID":35968},"geometry":{"x":166724.00000000093,"y":2541586.4600000009}},{"attributes":{"ID":35969,"DIS_CODE":0,"TOWNNAME":"安平區","LI":"建平里","LIN":"14鄰","STREET":"建平十三街","SECT":" ","MAREA":" ","LANE":" ","ALLEY":" ","HOUSE_NO":"１０號","E_COORD97":166273.85999999999,"N_COORD97":2544013.21,"ADDRESS":"建平十三街１０號","OBJECTID":35969},"geometry":{"x":166273.86000000127,"y":2544013.2100000009}},{"attributes":{"ID":35970,"DIS_CODE":0,"TOWNNAME":"安平區","LI":"建平里","LIN":"14鄰","STREET":"建平十三街","SECT":" ","MAREA":" ","LANE":" ","ALLEY":" ","HOUSE_NO":"１２號","E_COORD97":166265.62,"N_COORD97":2544014.29,"ADDRESS":"建平十三街１２號","OBJECTID":35970},"geometry":{"x":166265.62000000104,"y":2544014.2899999972}},{"attributes":{"ID":35971,"DIS_CODE":0,"TOWNNAME":"將軍區","LI":"保源里","LIN":"7鄰","STREET":" ","SECT":" ","MAREA":"苓保","LANE":" ","ALLEY":" ","HOUSE_NO":"６７之１號","E_COORD97":164580.20000000001,"N_COORD97":2568619.6499999999,"ADDRESS":"苓保６７之１號","OBJECTID":35971},"geometry":{"x":164580.20000000112,"y":2568619.6500000004}},{"attributes":{"ID":35972,"DIS_CODE":0,"TOWNNAME":"南區","LI":"光明里","LIN":"8鄰","STREET":"新興路","SECT":" ","MAREA":" ","LANE":"５３３巷","ALLEY":"３３弄","HOUSE_NO":"２７號","E_COORD97":166727.48000000001,"N_COORD97":2541589.1499999999,"ADDRESS":"新興路５３３巷３３弄２７號","OBJECTID":35972},"geometry":{"x":166727.48000000138,"y":2541589.1499999985}},{"attributes":{"ID":35973,"DIS_CODE":0,"TOWNNAME":"將軍區","LI":"保源里","LIN":"7鄰","STREET":" ","SECT":" ","MAREA":"苓保","LANE":" ","ALLEY":" ","HOUSE_NO":"６７之２號","E_COORD97":164600.48000000001,"N_COORD97":2568624.8199999998,"ADDRESS":"苓保６７之２號","OBJECTID":35973},"geometry":{"x":164600.48000000138,"y":2568624.8200000003}},{"attributes":{"ID":35974,"DIS_CODE":0,"TOWNNAME":"將軍區","LI":"保源里","LIN":"7鄰","STREET":" ","SECT":" ","MAREA":"苓保","LANE":" ","ALLEY":" ","HOUSE_NO":"６７號","E_COORD97":164593.07000000001,"N_COORD97":2568620.4199999999,"ADDRESS":"苓保６７號","OBJECTID":35974},"geometry":{"x":164593.0700000003,"y":2568620.4199999999}},{"attributes":{"ID":35975,"DIS_CODE":0,"TOWNNAME":"將軍區","LI":"保源里","LIN":"7鄰","STREET":" ","SECT":" ","MAREA":"苓保","LANE":" ","ALLEY":" ","HOUSE_NO":"６８號","E_COORD97":164543.39999999999,"N_COORD97":2568620.8999999999,"ADDRESS":"苓保６８號","OBJECTID":35975},"geometry":{"x":164543.4000000013,"y":2568620.9000000004}},{"attributes":{"ID":35976,"DIS_CODE":0,"TOWNNAME":"將軍區","LI":"保源里","LIN":"7鄰","STREET":" ","SECT":" ","MAREA":"苓保","LANE":" ","ALLEY":" ","HOUSE_NO":"６９號","E_COORD97":164551.92999999999,"N_COORD97":2568643.6099999999,"ADDRESS":"苓保６９號","OBJECTID":35976},"geometry":{"x":164551.93000000156,"y":2568643.6099999975}},{"attributes":{"ID":35977,"DIS_CODE":0,"TOWNNAME":"南區","LI":"光明里","LIN":"8鄰","STREET":"新興路","SECT":" ","MAREA":" ","LANE":"５３３巷","ALLEY":"３３弄","HOUSE_NO":"２９號","E_COORD97":166731.16,"N_COORD97":2541591.4300000002,"ADDRESS":"新興路５３３巷３３弄２９號","OBJECTID":35977},"geometry":{"x":166731.16000000108,"y":2541591.4300000016}},{"attributes":{"ID":35978,"DIS_CODE":0,"TOWNNAME":"南區","LI":"光明里","LIN":"8鄰","STREET":"新興路","SECT":" ","MAREA":" ","LANE":"５３３巷","ALLEY":"３３弄","HOUSE_NO":"３１號","E_COORD97":166735.04000000001,"N_COORD97":2541594.71,"ADDRESS":"新興路５３３巷３３弄３１號","OBJECTID":35978},"geometry":{"x":166735.04000000097,"y":2541594.7100000009}},{"attributes":{"ID":35979,"DIS_CODE":0,"TOWNNAME":"將軍區","LI":"將貴里","LIN":"7鄰","STREET":" ","SECT":" ","MAREA":"將貴","LANE":" ","ALLEY":" ","HOUSE_NO":"６８號","E_COORD97":161972.28,"N_COORD97":2567318.5699999998,"ADDRESS":"將貴６８號","OBJECTID":35979},"geometry":{"x":161972.28000000119,"y":2567318.5700000003}},{"attributes":{"ID":35980,"DIS_CODE":0,"TOWNNAME":"南區","LI":"光明里","LIN":"8鄰","STREET":"新興路","SECT":" ","MAREA":" ","LANE":"５３３巷","ALLEY":"４３弄","HOUSE_NO":"３號","E_COORD97":166693.29999999999,"N_COORD97":2541545.23,"ADDRESS":"新興路５３３巷４３弄３號","OBJECTID":35980},"geometry":{"x":166693.29999999981,"y":2541545.2300000023}},{"attributes":{"ID":35981,"DIS_CODE":0,"TOWNNAME":"南區","LI":"光明里","LIN":"8鄰","STREET":"新興路","SECT":" ","MAREA":" ","LANE":"５３３巷","ALLEY":"４３弄","HOUSE_NO":"４號","E_COORD97":166694.26999999999,"N_COORD97":2541520.3700000001,"ADDRESS":"新興路５３３巷４３弄４號","OBJECTID":35981},"geometry":{"x":166694.27000000048,"y":2541520.370000001}},{"attributes":{"ID":35982,"DIS_CODE":0,"TOWNNAME":"南區","LI":"光明里","LIN":"8鄰","STREET":"新興路","SECT":" ","MAREA":" ","LANE":"５３３巷","ALLEY":"４３弄","HOUSE_NO":"５號","E_COORD97":166697.59,"N_COORD97":2541545.3399999999,"ADDRESS":"新興路５３３巷４３弄５號","OBJECTID":35982},"geometry":{"x":166697.59000000078,"y":2541545.3399999999}},{"attributes":{"ID":35983,"DIS_CODE":0,"TOWNNAME":"南區","LI":"光明里","LIN":"8鄰","STREET":"新興路","SECT":" ","MAREA":" ","LANE":"５３３巷","ALLEY":"４３弄","HOUSE_NO":"６號","E_COORD97":166697.91,"N_COORD97":2541522.4100000001,"ADDRESS":"新興路５３３巷４３弄６號","OBJECTID":35983},"geometry":{"x":166697.91000000015,"y":2541522.4100000001}},{"attributes":{"ID":35984,"DIS_CODE":0,"TOWNNAME":"將軍區","LI":"保源里","LIN":"7鄰","STREET":" ","SECT":" ","MAREA":"苓保","LANE":" ","ALLEY":" ","HOUSE_NO":"７１之１號","E_COORD97":164525.85000000001,"N_COORD97":2568670.8300000001,"ADDRESS":"苓保７１之１號","OBJECTID":35984},"geometry":{"x":164525.85000000056,"y":2568670.8300000019}},{"attributes":{"ID":35985,"DIS_CODE":0,"TOWNNAME":"南區","LI":"光明里","LIN":"8鄰","STREET":"新興路","SECT":" ","MAREA":" ","LANE":"５３３巷","ALLEY":"４３弄","HOUSE_NO":"７號","E_COORD97":166701.23999999999,"N_COORD97":2541545.02,"ADDRESS":"新興路５３３巷４３弄７號","OBJECTID":35985},"geometry":{"x":166701.24000000022,"y":2541545.0199999977}},{"attributes":{"ID":35986,"DIS_CODE":0,"TOWNNAME":"南區","LI":"光明里","LIN":"8鄰","STREET":"新興路","SECT":" ","MAREA":" ","LANE":"５３３巷","ALLEY":"４３弄","HOUSE_NO":"８號","E_COORD97":166701.98999999999,"N_COORD97":2541521.3300000001,"ADDRESS":"新興路５３３巷４３弄８號","OBJECTID":35986},"geometry":{"x":166701.99000000115,"y":2541521.3300000019}},{"attributes":{"ID":35987,"DIS_CODE":0,"TOWNNAME":"南區","LI":"光明里","LIN":"8鄰","STREET":"新興路","SECT":" ","MAREA":" ","LANE":"５３３巷","ALLEY":"４３弄","HOUSE_NO":"９號","E_COORD97":166705.53,"N_COORD97":2541545.3399999999,"ADDRESS":"新興路５３３巷４３弄９號","OBJECTID":35987},"geometry":{"x":166705.53000000026,"y":2541545.3399999999}},{"attributes":{"ID":35988,"DIS_CODE":0,"TOWNNAME":"南區","LI":"光明里","LIN":"8鄰","STREET":"新興路","SECT":" ","MAREA":" ","LANE":"５３３巷","ALLEY":"４３弄","HOUSE_NO":"１０號","E_COORD97":166705.85000000001,"N_COORD97":2541522.5099999998,"ADDRESS":"新興路５３３巷４３弄１０號","OBJECTID":35988},"geometry":{"x":166705.85000000056,"y":2541522.5100000016}},{"attributes":{"ID":35989,"DIS_CODE":0,"TOWNNAME":"南區","LI":"光明里","LIN":"8鄰","STREET":"新興路","SECT":" ","MAREA":" ","LANE":"５３３巷","ALLEY":"４３弄","HOUSE_NO":"１１號","E_COORD97":166709.39000000001,"N_COORD97":2541546.4100000001,"ADDRESS":"新興路５３３巷４３弄１１號","OBJECTID":35989},"geometry":{"x":166709.38999999966,"y":2541546.4099999983}},{"attributes":{"ID":35990,"DIS_CODE":0,"TOWNNAME":"南區","LI":"光明里","LIN":"8鄰","STREET":"新興路","SECT":" ","MAREA":" ","LANE":"５３３巷","ALLEY":"４３弄","HOUSE_NO":"１２號","E_COORD97":166710.03,"N_COORD97":2541521.23,"ADDRESS":"新興路５３３巷４３弄１２號","OBJECTID":35990},"geometry":{"x":166710.03000000119,"y":2541521.2300000042}},{"attributes":{"ID":35991,"DIS_CODE":0,"TOWNNAME":"南區","LI":"同安里","LIN":"8鄰","STREET":"灣裡路","SECT":" ","MAREA":" ","LANE":"３３３巷","ALLEY":"４弄","HOUSE_NO":"２號","E_COORD97":166193.34,"N_COORD97":2536217.2200000002,"ADDRESS":"灣裡路３３３巷４弄２號","OBJECTID":35991},"geometry":{"x":166193.33999999985,"y":2536217.2200000007}},{"attributes":{"ID":35992,"DIS_CODE":0,"TOWNNAME":"南區","LI":"同安里","LIN":"8鄰","STREET":"灣裡路","SECT":" ","MAREA":" ","LANE":"３３３巷","ALLEY":"４弄","HOUSE_NO":"６號","E_COORD97":166204.10000000001,"N_COORD97":2536215.7999999998,"ADDRESS":"灣裡路３３３巷４弄６號","OBJECTID":35992},"geometry":{"x":166204.10000000056,"y":2536215.8000000026}},{"attributes":{"ID":35993,"DIS_CODE":0,"TOWNNAME":"南區","LI":"同安里","LIN":"8鄰","STREET":"灣裡路","SECT":" ","MAREA":" ","LANE":"３３３巷","ALLEY":"４弄","HOUSE_NO":"１０號","E_COORD97":166236.01999999999,"N_COORD97":2536229.3100000001,"ADDRESS":"灣裡路３３３巷４弄１０號","OBJECTID":35993},"geometry":{"x":166236.01999999862,"y":2536229.3100000024}},{"attributes":{"ID":35994,"DIS_CODE":0,"TOWNNAME":"六甲區","LI":"龍湖里","LIN":"14鄰","STREET":"中正路","SECT":" ","MAREA":" ","LANE":" ","ALLEY":" ","HOUSE_NO":"１２８號","E_COORD97":183436.48999999999,"N_COORD97":2568962.8599999999,"ADDRESS":"中正路１２８號","OBJECTID":35994},"geometry":{"x":183436.49000000209,"y":2568962.8599999994}},{"attributes":{"ID":35995,"DIS_CODE":0,"TOWNNAME":"六甲區","LI":"龍湖里","LIN":"14鄰","STREET":"中正路","SECT":" ","MAREA":" ","LANE":" ","ALLEY":" ","HOUSE_NO":"１３０號","E_COORD97":183435.01999999999,"N_COORD97":2568967.9199999999,"ADDRESS":"中正路１３０號","OBJECTID":35995},"geometry":{"x":183435.01999999955,"y":2568967.9200000037}},{"attributes":{"ID":35996,"DIS_CODE":0,"TOWNNAME":"將軍區","LI":"保源里","LIN":"7鄰","STREET":" ","SECT":" ","MAREA":"苓保","LANE":" ","ALLEY":" ","HOUSE_NO":"７１號","E_COORD97":164533.04999999999,"N_COORD97":2568655.5600000001,"ADDRESS":"苓保７１號","OBJECTID":35996},"geometry":{"x":164533.05000000075,"y":2568655.5600000042}},{"attributes":{"ID":35997,"DIS_CODE":0,"TOWNNAME":"將軍區","LI":"保源里","LIN":"7鄰","STREET":" ","SECT":" ","MAREA":"苓保","LANE":" ","ALLEY":" ","HOUSE_NO":"７２之１號","E_COORD97":164546.64000000001,"N_COORD97":2568663.6499999999,"ADDRESS":"苓保７２之１號","OBJECTID":35997},"geometry":{"x":164546.63999999966,"y":2568663.6500000004}},{"attributes":{"ID":35998,"DIS_CODE":0,"TOWNNAME":"將軍區","LI":"保源里","LIN":"7鄰","STREET":" ","SECT":" ","MAREA":"苓保","LANE":" ","ALLEY":" ","HOUSE_NO":"７２號","E_COORD97":164553.45999999999,"N_COORD97":2568659.4700000002,"ADDRESS":"苓保７２號","OBJECTID":35998},"geometry":{"x":164553.45999999996,"y":2568659.4699999988}},{"attributes":{"ID":35999,"DIS_CODE":0,"TOWNNAME":"將軍區","LI":"保源里","LIN":"7鄰","STREET":" ","SECT":" ","MAREA":"苓保","LANE":" ","ALLEY":" ","HOUSE_NO":"７３號","E_COORD97":164550.17999999999,"N_COORD97":2568668.73,"ADDRESS":"苓保７３號","OBJECTID":35999},"geometry":{"x":164550.18000000156,"y":2568668.7300000023}},{"attributes":{"ID":36000,"DIS_CODE":0,"TOWNNAME":"將軍區","LI":"將貴里","LIN":"7鄰","STREET":" ","SECT":" ","MAREA":"將貴","LANE":" ","ALLEY":" ","HOUSE_NO":"６３之５號","E_COORD97":161883.91,"N_COORD97":2567306.7400000002,"ADDRESS":"將貴６３之５號","OBJECTID":36000},"geometry":{"x":161883.91000000015,"y":2567306.7400000002}}]}