{"displayFieldName":"TOWNNAME","fieldAliases":{"ID":"ID","DIS_CODE":"DIS_CODE","TOWNNAME":"TOWNNAME","LI":"LI","LIN":"LIN","STREET":"STREET","SECT":"SECT","MAREA":"MAREA","LANE":"LANE","ALLEY":"ALLEY","HOUSE_NO":"HOUSE_NO","E_COORD97":"E_COORD97","N_COORD97":"N_COORD97","ADDRESS":"ADDRESS","OBJECTID":"OBJECTID"},"geometryType":"esriGeometryPoint","spatialReference":{"wkid":102443,"latestWkid":3826},"fields":[{"name":"ID","type":"esriFieldTypeDouble","alias":"ID"},{"name":"DIS_CODE","type":"esriFieldTypeInteger","alias":"DIS_CODE"},{"name":"TOWNNAME","type":"esriFieldTypeString","alias":"TOWNNAME","length":8},{"name":"LI","type":"esriFieldTypeString","alias":"LI","length":8},{"name":"LIN","type":"esriFieldTypeString","alias":"LIN","length":12},{"name":"STREET","type":"esriFieldTypeString","alias":"STREET","length":20},{"name":"SECT","type":"esriFieldTypeString","alias":"SECT","length":8},{"name":"MAREA","type":"esriFieldTypeString","alias":"MAREA","length":12},{"name":"LANE","type":"esriFieldTypeString","alias":"LANE","length":10},{"name":"ALLEY","type":"esriFieldTypeString","alias":"ALLEY","length":10},{"name":"HOUSE_NO","type":"esriFieldTypeString","alias":"HOUSE_NO","length":20},{"name":"E_COORD97","type":"esriFieldTypeDouble","alias":"E_COORD97"},{"name":"N_COORD97","type":"esriFieldTypeDouble","alias":"N_COORD97"},{"name":"ADDRESS","type":"esriFieldTypeString","alias":"ADDRESS","length":50},{"name":"OBJECTID","type":"esriFieldTypeOID","alias":"OBJECTID"}],"features":[{"attributes":{"ID":554428,"DIS_CODE":0,"TOWNNAME":"永康區","LI":"中華里","LIN":"21鄰","STREET":"中華路","SECT":" ","MAREA":" ","LANE":" ","ALLEY":" ","HOUSE_NO":"２２號十一樓之７","E_COORD97":171618.70000000001,"N_COORD97":2544543.8199999998,"ADDRESS":"中華路２２號十一樓之７","OBJECTID":554401},"geometry":{"x":171618.70000000019,"y":2544543.8200000003}},{"attributes":{"ID":554429,"DIS_CODE":0,"TOWNNAME":"永康區","LI":"中華里","LIN":"21鄰","STREET":"中華路","SECT":" ","MAREA":" ","LANE":" ","ALLEY":" ","HOUSE_NO":"２２號十六樓之７","E_COORD97":171618.70000000001,"N_COORD97":2544543.8199999998,"ADDRESS":"中華路２２號十六樓之７","OBJECTID":554402},"geometry":{"x":171618.70000000019,"y":2544543.8200000003}},{"attributes":{"ID":554430,"DIS_CODE":0,"TOWNNAME":"永康區","LI":"中華里","LIN":"21鄰","STREET":"中華路","SECT":" ","MAREA":" ","LANE":" ","ALLEY":" ","HOUSE_NO":"１２號十四樓之１","E_COORD97":171588.39000000001,"N_COORD97":2544494.1499999999,"ADDRESS":"中華路１２號十四樓之１","OBJECTID":554403},"geometry":{"x":171588.38999999966,"y":2544494.1500000004}},{"attributes":{"ID":554431,"DIS_CODE":0,"TOWNNAME":"永康區","LI":"中華里","LIN":"21鄰","STREET":"中華路","SECT":" ","MAREA":" ","LANE":" ","ALLEY":" ","HOUSE_NO":"２２號十六樓之５","E_COORD97":171618.76999999999,"N_COORD97":2544543.8199999998,"ADDRESS":"中華路２２號十六樓之５","OBJECTID":554404},"geometry":{"x":171618.77000000048,"y":2544543.8200000003}},{"attributes":{"ID":554432,"DIS_CODE":0,"TOWNNAME":"永康區","LI":"中華里","LIN":"21鄰","STREET":"中華路","SECT":" ","MAREA":" ","LANE":" ","ALLEY":" ","HOUSE_NO":"２２號八樓之５","E_COORD97":171617.51999999999,"N_COORD97":2544543.8199999998,"ADDRESS":"中華路２２號八樓之５","OBJECTID":554405},"geometry":{"x":171617.51999999955,"y":2544543.8200000003}},{"attributes":{"ID":554433,"DIS_CODE":0,"TOWNNAME":"永康區","LI":"中華里","LIN":"21鄰","STREET":"中華路","SECT":" ","MAREA":" ","LANE":" ","ALLEY":" ","HOUSE_NO":"２２號十七樓之４","E_COORD97":171618.64000000001,"N_COORD97":2544543.8199999998,"ADDRESS":"中華路２２號十七樓之４","OBJECTID":554406},"geometry":{"x":171618.63999999966,"y":2544543.8200000003}},{"attributes":{"ID":554434,"DIS_CODE":0,"TOWNNAME":"永康區","LI":"中華里","LIN":"21鄰","STREET":"中華路","SECT":" ","MAREA":" ","LANE":" ","ALLEY":" ","HOUSE_NO":"１２號七樓之１","E_COORD97":171587.14000000001,"N_COORD97":2544494.1499999999,"ADDRESS":"中華路１２號七樓之１","OBJECTID":554407},"geometry":{"x":171587.14000000153,"y":2544494.1500000004}},{"attributes":{"ID":554435,"DIS_CODE":0,"TOWNNAME":"永康區","LI":"中華里","LIN":"21鄰","STREET":"中華路","SECT":" ","MAREA":" ","LANE":" ","ALLEY":" ","HOUSE_NO":"２２號八樓之７","E_COORD97":171617.45000000001,"N_COORD97":2544543.8199999998,"ADDRESS":"中華路２２號八樓之７","OBJECTID":554408},"geometry":{"x":171617.45000000019,"y":2544543.8200000003}},{"attributes":{"ID":554436,"DIS_CODE":0,"TOWNNAME":"永康區","LI":"中華里","LIN":"21鄰","STREET":"中華路","SECT":" ","MAREA":" ","LANE":" ","ALLEY":" ","HOUSE_NO":"１２號十二樓之２","E_COORD97":171588.51999999999,"N_COORD97":2544494.1499999999,"ADDRESS":"中華路１２號十二樓之２","OBJECTID":554409},"geometry":{"x":171588.52000000048,"y":2544494.1500000004}},{"attributes":{"ID":554437,"DIS_CODE":0,"TOWNNAME":"永康區","LI":"中華里","LIN":"21鄰","STREET":"中華路","SECT":" ","MAREA":" ","LANE":" ","ALLEY":" ","HOUSE_NO":"１２號十七樓之３","E_COORD97":171588.48999999999,"N_COORD97":2544494.1499999999,"ADDRESS":"中華路１２號十七樓之３","OBJECTID":554410},"geometry":{"x":171588.49000000022,"y":2544494.1500000004}},{"attributes":{"ID":554438,"DIS_CODE":0,"TOWNNAME":"永康區","LI":"中華里","LIN":"21鄰","STREET":"中華路","SECT":" ","MAREA":" ","LANE":" ","ALLEY":" ","HOUSE_NO":"２２號六樓之７","E_COORD97":171617.45000000001,"N_COORD97":2544543.8199999998,"ADDRESS":"中華路２２號六樓之７","OBJECTID":554411},"geometry":{"x":171617.45000000019,"y":2544543.8200000003}},{"attributes":{"ID":554439,"DIS_CODE":0,"TOWNNAME":"永康區","LI":"中華里","LIN":"21鄰","STREET":"中華路","SECT":" ","MAREA":" ","LANE":" ","ALLEY":" ","HOUSE_NO":"１２號七樓之３","E_COORD97":171587.23999999999,"N_COORD97":2544494.1499999999,"ADDRESS":"中華路１２號七樓之３","OBJECTID":554412},"geometry":{"x":171587.24000000115,"y":2544494.1500000004}},{"attributes":{"ID":554440,"DIS_CODE":0,"TOWNNAME":"永康區","LI":"中華里","LIN":"21鄰","STREET":"中華路","SECT":" ","MAREA":" ","LANE":" ","ALLEY":" ","HOUSE_NO":"１２號八樓之２","E_COORD97":171587.26999999999,"N_COORD97":2544494.1499999999,"ADDRESS":"中華路１２號八樓之２","OBJECTID":554413},"geometry":{"x":171587.26999999955,"y":2544494.1500000004}},{"attributes":{"ID":554441,"DIS_CODE":0,"TOWNNAME":"永康區","LI":"中華里","LIN":"21鄰","STREET":"中華路","SECT":" ","MAREA":" ","LANE":" ","ALLEY":" ","HOUSE_NO":"２２號八樓之２","E_COORD97":171617.5,"N_COORD97":2544543.8199999998,"ADDRESS":"中華路２２號八樓之２","OBJECTID":554414},"geometry":{"x":171617.50000000093,"y":2544543.8200000003}},{"attributes":{"ID":554442,"DIS_CODE":0,"TOWNNAME":"永康區","LI":"中華里","LIN":"21鄰","STREET":"中華路","SECT":" ","MAREA":" ","LANE":" ","ALLEY":" ","HOUSE_NO":"２２號十樓之２","E_COORD97":171617.5,"N_COORD97":2544543.8199999998,"ADDRESS":"中華路２２號十樓之２","OBJECTID":554415},"geometry":{"x":171617.50000000093,"y":2544543.8200000003}},{"attributes":{"ID":554443,"DIS_CODE":0,"TOWNNAME":"永康區","LI":"中華里","LIN":"21鄰","STREET":"中華路","SECT":" ","MAREA":" ","LANE":" ","ALLEY":" ","HOUSE_NO":"２２號十七樓之１０","E_COORD97":171619.92000000001,"N_COORD97":2544543.8199999998,"ADDRESS":"中華路２２號十七樓之１０","OBJECTID":554416},"geometry":{"x":171619.92000000086,"y":2544543.8200000003}},{"attributes":{"ID":554444,"DIS_CODE":0,"TOWNNAME":"永康區","LI":"中華里","LIN":"21鄰","STREET":"中華路","SECT":" ","MAREA":" ","LANE":" ","ALLEY":" ","HOUSE_NO":"１２號十七樓之４","E_COORD97":171588.41,"N_COORD97":2544494.1499999999,"ADDRESS":"中華路１２號十七樓之４","OBJECTID":554417},"geometry":{"x":171588.41000000015,"y":2544494.1500000004}},{"attributes":{"ID":554445,"DIS_CODE":0,"TOWNNAME":"永康區","LI":"中華里","LIN":"21鄰","STREET":"中華路","SECT":" ","MAREA":" ","LANE":" ","ALLEY":" ","HOUSE_NO":"２２號八樓之４","E_COORD97":171617.39000000001,"N_COORD97":2544543.8199999998,"ADDRESS":"中華路２２號八樓之４","OBJECTID":554418},"geometry":{"x":171617.38999999966,"y":2544543.8200000003}},{"attributes":{"ID":554446,"DIS_CODE":0,"TOWNNAME":"永康區","LI":"中華里","LIN":"21鄰","STREET":"中華路","SECT":" ","MAREA":" ","LANE":" ","ALLEY":" ","HOUSE_NO":"２２號十一樓之４","E_COORD97":171618.64000000001,"N_COORD97":2544543.8199999998,"ADDRESS":"中華路２２號十一樓之４","OBJECTID":554419},"geometry":{"x":171618.63999999966,"y":2544543.8200000003}},{"attributes":{"ID":554447,"DIS_CODE":0,"TOWNNAME":"永康區","LI":"中華里","LIN":"21鄰","STREET":"中華路","SECT":" ","MAREA":" ","LANE":" ","ALLEY":" ","HOUSE_NO":"１２號十一樓之１","E_COORD97":171588.39000000001,"N_COORD97":2544494.1499999999,"ADDRESS":"中華路１２號十一樓之１","OBJECTID":554420},"geometry":{"x":171588.38999999966,"y":2544494.1500000004}},{"attributes":{"ID":554448,"DIS_CODE":0,"TOWNNAME":"永康區","LI":"西橋里","LIN":"19鄰","STREET":"大橋三街","SECT":" ","MAREA":" ","LANE":" ","ALLEY":" ","HOUSE_NO":"３３號","E_COORD97":170487.92000000001,"N_COORD97":2546383.7400000002,"ADDRESS":"大橋三街３３號","OBJECTID":554421},"geometry":{"x":170487.91999999993,"y":2546383.7400000021}},{"attributes":{"ID":554449,"DIS_CODE":0,"TOWNNAME":"永康區","LI":"西勢里","LIN":"21鄰","STREET":"富強路","SECT":"一段","MAREA":" ","LANE":" ","ALLEY":" ","HOUSE_NO":"４８號","E_COORD97":175441.75,"N_COORD97":2546077.52,"ADDRESS":"富強路一段４８號","OBJECTID":554422},"geometry":{"x":175441.75000000093,"y":2546077.5199999996}},{"attributes":{"ID":554450,"DIS_CODE":0,"TOWNNAME":"永康區","LI":"中華里","LIN":"21鄰","STREET":"中華路","SECT":" ","MAREA":" ","LANE":" ","ALLEY":" ","HOUSE_NO":"２２號七樓之２","E_COORD97":171617.5,"N_COORD97":2544543.8199999998,"ADDRESS":"中華路２２號七樓之２","OBJECTID":554423},"geometry":{"x":171617.50000000093,"y":2544543.8200000003}},{"attributes":{"ID":554451,"DIS_CODE":0,"TOWNNAME":"永康區","LI":"中華里","LIN":"21鄰","STREET":"中華路","SECT":" ","MAREA":" ","LANE":" ","ALLEY":" ","HOUSE_NO":"２２號十一樓之９","E_COORD97":171618.70000000001,"N_COORD97":2544543.8199999998,"ADDRESS":"中華路２２號十一樓之９","OBJECTID":554424},"geometry":{"x":171618.70000000019,"y":2544543.8200000003}},{"attributes":{"ID":554452,"DIS_CODE":0,"TOWNNAME":"永康區","LI":"中華里","LIN":"21鄰","STREET":"中華路","SECT":" ","MAREA":" ","LANE":" ","ALLEY":" ","HOUSE_NO":"１２號七樓之２","E_COORD97":171587.26999999999,"N_COORD97":2544494.1499999999,"ADDRESS":"中華路１２號七樓之２","OBJECTID":554425},"geometry":{"x":171587.26999999955,"y":2544494.1500000004}},{"attributes":{"ID":554453,"DIS_CODE":0,"TOWNNAME":"永康區","LI":"中華里","LIN":"21鄰","STREET":"中華路","SECT":" ","MAREA":" ","LANE":" ","ALLEY":" ","HOUSE_NO":"２２號四樓之６","E_COORD97":171617.47,"N_COORD97":2544543.8199999998,"ADDRESS":"中華路２２號四樓之６","OBJECTID":554426},"geometry":{"x":171617.47000000067,"y":2544543.8200000003}},{"attributes":{"ID":554454,"DIS_CODE":0,"TOWNNAME":"永康區","LI":"中華里","LIN":"21鄰","STREET":"中華路","SECT":" ","MAREA":" ","LANE":" ","ALLEY":" ","HOUSE_NO":"２２號九樓之６","E_COORD97":171617.47,"N_COORD97":2544543.8199999998,"ADDRESS":"中華路２２號九樓之６","OBJECTID":554427},"geometry":{"x":171617.47000000067,"y":2544543.8200000003}},{"attributes":{"ID":554455,"DIS_CODE":0,"TOWNNAME":"永康區","LI":"中華里","LIN":"21鄰","STREET":"中華路","SECT":" ","MAREA":" ","LANE":" ","ALLEY":" ","HOUSE_NO":"２２號九樓之８","E_COORD97":171617.51999999999,"N_COORD97":2544543.8199999998,"ADDRESS":"中華路２２號九樓之８","OBJECTID":554428},"geometry":{"x":171617.51999999955,"y":2544543.8200000003}},{"attributes":{"ID":554456,"DIS_CODE":0,"TOWNNAME":"永康區","LI":"中華里","LIN":"21鄰","STREET":"中華路","SECT":" ","MAREA":" ","LANE":" ","ALLEY":" ","HOUSE_NO":"２２號十一樓之２","E_COORD97":171618.75,"N_COORD97":2544543.8199999998,"ADDRESS":"中華路２２號十一樓之２","OBJECTID":554429},"geometry":{"x":171618.75,"y":2544543.8200000003}},{"attributes":{"ID":554457,"DIS_CODE":0,"TOWNNAME":"永康區","LI":"中華里","LIN":"21鄰","STREET":"中華路","SECT":" ","MAREA":" ","LANE":" ","ALLEY":" ","HOUSE_NO":"２２號十七樓之２","E_COORD97":171618.75,"N_COORD97":2544543.8199999998,"ADDRESS":"中華路２２號十七樓之２","OBJECTID":554430},"geometry":{"x":171618.75,"y":2544543.8200000003}},{"attributes":{"ID":554458,"DIS_CODE":0,"TOWNNAME":"永康區","LI":"中華里","LIN":"21鄰","STREET":"中華路","SECT":" ","MAREA":" ","LANE":" ","ALLEY":" ","HOUSE_NO":"２２號十一樓之１","E_COORD97":171618.62,"N_COORD97":2544543.8199999998,"ADDRESS":"中華路２２號十一樓之１","OBJECTID":554431},"geometry":{"x":171618.62000000104,"y":2544543.8200000003}},{"attributes":{"ID":554459,"DIS_CODE":0,"TOWNNAME":"永康區","LI":"中華里","LIN":"21鄰","STREET":"中華路","SECT":" ","MAREA":" ","LANE":" ","ALLEY":" ","HOUSE_NO":"１２號十二樓之１","E_COORD97":171588.39000000001,"N_COORD97":2544494.1499999999,"ADDRESS":"中華路１２號十二樓之１","OBJECTID":554432},"geometry":{"x":171588.38999999966,"y":2544494.1500000004}},{"attributes":{"ID":554460,"DIS_CODE":0,"TOWNNAME":"永康區","LI":"中華里","LIN":"21鄰","STREET":"中華路","SECT":" ","MAREA":" ","LANE":" ","ALLEY":" ","HOUSE_NO":"２２號八樓之６","E_COORD97":171617.47,"N_COORD97":2544543.8199999998,"ADDRESS":"中華路２２號八樓之６","OBJECTID":554433},"geometry":{"x":171617.47000000067,"y":2544543.8200000003}},{"attributes":{"ID":554461,"DIS_CODE":0,"TOWNNAME":"永康區","LI":"中華里","LIN":"21鄰","STREET":"中華路","SECT":" ","MAREA":" ","LANE":" ","ALLEY":" ","HOUSE_NO":"２２號十一樓之８","E_COORD97":171618.76999999999,"N_COORD97":2544543.8199999998,"ADDRESS":"中華路２２號十一樓之８","OBJECTID":554434},"geometry":{"x":171618.77000000048,"y":2544543.8200000003}},{"attributes":{"ID":554462,"DIS_CODE":0,"TOWNNAME":"永康區","LI":"中華里","LIN":"21鄰","STREET":"中華路","SECT":" ","MAREA":" ","LANE":" ","ALLEY":" ","HOUSE_NO":"１２號八樓之４","E_COORD97":171587.16,"N_COORD97":2544494.1499999999,"ADDRESS":"中華路１２號八樓之４","OBJECTID":554435},"geometry":{"x":171587.16000000015,"y":2544494.1500000004}},{"attributes":{"ID":554463,"DIS_CODE":0,"TOWNNAME":"永康區","LI":"中華里","LIN":"21鄰","STREET":"中華路","SECT":" ","MAREA":" ","LANE":" ","ALLEY":" ","HOUSE_NO":"１２號九樓之２","E_COORD97":171587.26999999999,"N_COORD97":2544494.1499999999,"ADDRESS":"中華路１２號九樓之２","OBJECTID":554436},"geometry":{"x":171587.26999999955,"y":2544494.1500000004}},{"attributes":{"ID":554464,"DIS_CODE":0,"TOWNNAME":"永康區","LI":"中華里","LIN":"21鄰","STREET":"中華路","SECT":" ","MAREA":" ","LANE":" ","ALLEY":" ","HOUSE_NO":"１２號十二樓之３","E_COORD97":171588.48999999999,"N_COORD97":2544494.1499999999,"ADDRESS":"中華路１２號十二樓之３","OBJECTID":554437},"geometry":{"x":171588.49000000022,"y":2544494.1500000004}},{"attributes":{"ID":554465,"DIS_CODE":0,"TOWNNAME":"永康區","LI":"中華里","LIN":"21鄰","STREET":"中華路","SECT":" ","MAREA":" ","LANE":" ","ALLEY":" ","HOUSE_NO":"１２號九樓之３","E_COORD97":171587.23999999999,"N_COORD97":2544494.1499999999,"ADDRESS":"中華路１２號九樓之３","OBJECTID":554438},"geometry":{"x":171587.24000000115,"y":2544494.1500000004}},{"attributes":{"ID":554466,"DIS_CODE":0,"TOWNNAME":"永康區","LI":"中華里","LIN":"21鄰","STREET":"中華路","SECT":" ","MAREA":" ","LANE":" ","ALLEY":" ","HOUSE_NO":"２２號十一樓之１０","E_COORD97":171619.92000000001,"N_COORD97":2544543.8199999998,"ADDRESS":"中華路２２號十一樓之１０","OBJECTID":554439},"geometry":{"x":171619.92000000086,"y":2544543.8200000003}},{"attributes":{"ID":554467,"DIS_CODE":0,"TOWNNAME":"永康區","LI":"中華里","LIN":"21鄰","STREET":"中華路","SECT":" ","MAREA":" ","LANE":" ","ALLEY":" ","HOUSE_NO":"２２號八樓之８","E_COORD97":171617.51999999999,"N_COORD97":2544543.8199999998,"ADDRESS":"中華路２２號八樓之８","OBJECTID":554440},"geometry":{"x":171617.51999999955,"y":2544543.8200000003}},{"attributes":{"ID":554468,"DIS_CODE":0,"TOWNNAME":"永康區","LI":"中華里","LIN":"21鄰","STREET":"中華路","SECT":" ","MAREA":" ","LANE":" ","ALLEY":" ","HOUSE_NO":"２２號十一樓之５","E_COORD97":171618.76999999999,"N_COORD97":2544543.8199999998,"ADDRESS":"中華路２２號十一樓之５","OBJECTID":554441},"geometry":{"x":171618.77000000048,"y":2544543.8200000003}},{"attributes":{"ID":554469,"DIS_CODE":0,"TOWNNAME":"永康區","LI":"中華里","LIN":"21鄰","STREET":"中華路","SECT":" ","MAREA":" ","LANE":" ","ALLEY":" ","HOUSE_NO":"２２號十二樓之８","E_COORD97":171618.76999999999,"N_COORD97":2544543.8199999998,"ADDRESS":"中華路２２號十二樓之８","OBJECTID":554442},"geometry":{"x":171618.77000000048,"y":2544543.8200000003}},{"attributes":{"ID":554470,"DIS_CODE":0,"TOWNNAME":"永康區","LI":"中華里","LIN":"21鄰","STREET":"中華路","SECT":" ","MAREA":" ","LANE":" ","ALLEY":" ","HOUSE_NO":"２２號十三樓之７","E_COORD97":171618.70000000001,"N_COORD97":2544543.8199999998,"ADDRESS":"中華路２２號十三樓之７","OBJECTID":554443},"geometry":{"x":171618.70000000019,"y":2544543.8200000003}},{"attributes":{"ID":554471,"DIS_CODE":0,"TOWNNAME":"永康區","LI":"中華里","LIN":"21鄰","STREET":"中華路","SECT":" ","MAREA":" ","LANE":" ","ALLEY":" ","HOUSE_NO":"１２號十四樓之２","E_COORD97":171588.51999999999,"N_COORD97":2544494.1499999999,"ADDRESS":"中華路１２號十四樓之２","OBJECTID":554444},"geometry":{"x":171588.52000000048,"y":2544494.1500000004}},{"attributes":{"ID":554472,"DIS_CODE":0,"TOWNNAME":"永康區","LI":"中華里","LIN":"21鄰","STREET":"中華路","SECT":" ","MAREA":" ","LANE":" ","ALLEY":" ","HOUSE_NO":"２２號七樓之８","E_COORD97":171617.51999999999,"N_COORD97":2544543.8199999998,"ADDRESS":"中華路２２號七樓之８","OBJECTID":554445},"geometry":{"x":171617.51999999955,"y":2544543.8200000003}},{"attributes":{"ID":554473,"DIS_CODE":0,"TOWNNAME":"永康區","LI":"\u25A0行里","LIN":"26鄰","STREET":"中正南路","SECT":" ","MAREA":" ","LANE":" ","ALLEY":" ","HOUSE_NO":"４７８號","E_COORD97":171245.92000000001,"N_COORD97":2548496.7599999998,"ADDRESS":"中正南路４７８號","OBJECTID":554446},"geometry":{"x":171245.91999999993,"y":2548496.7599999998}},{"attributes":{"ID":554474,"DIS_CODE":0,"TOWNNAME":"永康區","LI":"\u25A0行里","LIN":"44鄰","STREET":"\u25A0和街","SECT":" ","MAREA":" ","LANE":" ","ALLEY":" ","HOUSE_NO":"２２５號","E_COORD97":171740.66,"N_COORD97":2548176.25,"ADDRESS":"\u25A0和街２２５號","OBJECTID":554447},"geometry":{"x":171740.66000000108,"y":2548176.2500000019}},{"attributes":{"ID":554475,"DIS_CODE":0,"TOWNNAME":"永康區","LI":"\u25A0行里","LIN":"44鄰","STREET":"\u25A0和街","SECT":" ","MAREA":" ","LANE":" ","ALLEY":" ","HOUSE_NO":"２１３號","E_COORD97":171777.85999999999,"N_COORD97":2548121.96,"ADDRESS":"\u25A0和街２１３號","OBJECTID":554448},"geometry":{"x":171777.8600000022,"y":2548121.9600000028}},{"attributes":{"ID":554476,"DIS_CODE":0,"TOWNNAME":"永康區","LI":"中華里","LIN":"21鄰","STREET":"中華路","SECT":" ","MAREA":" ","LANE":" ","ALLEY":" ","HOUSE_NO":"２２號五樓之２","E_COORD97":171617.5,"N_COORD97":2544543.8199999998,"ADDRESS":"中華路２２號五樓之２","OBJECTID":554449},"geometry":{"x":171617.50000000093,"y":2544543.8200000003}},{"attributes":{"ID":554477,"DIS_CODE":0,"TOWNNAME":"永康區","LI":"中華里","LIN":"21鄰","STREET":"中華路","SECT":" ","MAREA":" ","LANE":" ","ALLEY":" ","HOUSE_NO":"１２號十樓之２","E_COORD97":171587.26999999999,"N_COORD97":2544494.1499999999,"ADDRESS":"中華路１２號十樓之２","OBJECTID":554450},"geometry":{"x":171587.26999999955,"y":2544494.1500000004}},{"attributes":{"ID":554478,"DIS_CODE":0,"TOWNNAME":"永康區","LI":"中華里","LIN":"21鄰","STREET":"中華路","SECT":" ","MAREA":" ","LANE":" ","ALLEY":" ","HOUSE_NO":"２２號六樓之６","E_COORD97":171617.47,"N_COORD97":2544543.8199999998,"ADDRESS":"中華路２２號六樓之６","OBJECTID":554451},"geometry":{"x":171617.47000000067,"y":2544543.8200000003}},{"attributes":{"ID":554479,"DIS_CODE":0,"TOWNNAME":"新市區","LI":"新市里","LIN":"21鄰","STREET":"和平街","SECT":" ","MAREA":" ","LANE":" ","ALLEY":" ","HOUSE_NO":"３４號","E_COORD97":177706.17999999999,"N_COORD97":2553458.5,"ADDRESS":"和平街３４號","OBJECTID":554452},"geometry":{"x":177706.1799999997,"y":2553458.5}},{"attributes":{"ID":554480,"DIS_CODE":0,"TOWNNAME":"永康區","LI":"中華里","LIN":"21鄰","STREET":"中華路","SECT":" ","MAREA":" ","LANE":" ","ALLEY":" ","HOUSE_NO":"２２號七樓之６","E_COORD97":171617.47,"N_COORD97":2544543.8199999998,"ADDRESS":"中華路２２號七樓之６","OBJECTID":554453},"geometry":{"x":171617.47000000067,"y":2544543.8200000003}},{"attributes":{"ID":554481,"DIS_CODE":0,"TOWNNAME":"永康區","LI":"中華里","LIN":"21鄰","STREET":"中華路","SECT":" ","MAREA":" ","LANE":" ","ALLEY":" ","HOUSE_NO":"１２號十五樓之１","E_COORD97":171588.39000000001,"N_COORD97":2544494.1499999999,"ADDRESS":"中華路１２號十五樓之１","OBJECTID":554454},"geometry":{"x":171588.38999999966,"y":2544494.1500000004}},{"attributes":{"ID":554482,"DIS_CODE":0,"TOWNNAME":"永康區","LI":"中華里","LIN":"21鄰","STREET":"中華路","SECT":" ","MAREA":" ","LANE":" ","ALLEY":" ","HOUSE_NO":"２２號十二樓之６","E_COORD97":171618.72,"N_COORD97":2544543.8199999998,"ADDRESS":"中華路２２號十二樓之６","OBJECTID":554455},"geometry":{"x":171618.71999999974,"y":2544543.8200000003}},{"attributes":{"ID":554483,"DIS_CODE":0,"TOWNNAME":"永康區","LI":"中華里","LIN":"21鄰","STREET":"中華路","SECT":" ","MAREA":" ","LANE":" ","ALLEY":" ","HOUSE_NO":"１２號六樓之４","E_COORD97":171587.16,"N_COORD97":2544494.1499999999,"ADDRESS":"中華路１２號六樓之４","OBJECTID":554456},"geometry":{"x":171587.16000000015,"y":2544494.1500000004}},{"attributes":{"ID":554484,"DIS_CODE":0,"TOWNNAME":"永康區","LI":"中華里","LIN":"21鄰","STREET":"中華路","SECT":" ","MAREA":" ","LANE":" ","ALLEY":" ","HOUSE_NO":"２２號十二樓之１０","E_COORD97":171619.92000000001,"N_COORD97":2544543.8199999998,"ADDRESS":"中華路２２號十二樓之１０","OBJECTID":554457},"geometry":{"x":171619.92000000086,"y":2544543.8200000003}},{"attributes":{"ID":554485,"DIS_CODE":0,"TOWNNAME":"永康區","LI":"中華里","LIN":"21鄰","STREET":"中華路","SECT":" ","MAREA":" ","LANE":" ","ALLEY":" ","HOUSE_NO":"２２號十三樓之３","E_COORD97":171618.72,"N_COORD97":2544543.8199999998,"ADDRESS":"中華路２２號十三樓之３","OBJECTID":554458},"geometry":{"x":171618.71999999974,"y":2544543.8200000003}},{"attributes":{"ID":554486,"DIS_CODE":0,"TOWNNAME":"永康區","LI":"中華里","LIN":"21鄰","STREET":"中華路","SECT":" ","MAREA":" ","LANE":" ","ALLEY":" ","HOUSE_NO":"１２號三樓","E_COORD97":171585,"N_COORD97":2544494.1099999999,"ADDRESS":"中華路１２號三樓","OBJECTID":554459},"geometry":{"x":171585.00000000186,"y":2544494.1100000031}},{"attributes":{"ID":554487,"DIS_CODE":0,"TOWNNAME":"永康區","LI":"中華里","LIN":"21鄰","STREET":"中華路","SECT":" ","MAREA":" ","LANE":" ","ALLEY":" ","HOUSE_NO":"２２號七樓之３","E_COORD97":171617.47,"N_COORD97":2544543.8199999998,"ADDRESS":"中華路２２號七樓之３","OBJECTID":554460},"geometry":{"x":171617.47000000067,"y":2544543.8200000003}},{"attributes":{"ID":554488,"DIS_CODE":0,"TOWNNAME":"永康區","LI":"中華里","LIN":"21鄰","STREET":"中華路","SECT":" ","MAREA":" ","LANE":" ","ALLEY":" ","HOUSE_NO":"１２號十六樓之３","E_COORD97":171588.48999999999,"N_COORD97":2544494.1499999999,"ADDRESS":"中華路１２號十六樓之３","OBJECTID":554461},"geometry":{"x":171588.49000000022,"y":2544494.1500000004}},{"attributes":{"ID":554489,"DIS_CODE":0,"TOWNNAME":"永康區","LI":"中華里","LIN":"21鄰","STREET":"中華路","SECT":" ","MAREA":" ","LANE":" ","ALLEY":" ","HOUSE_NO":"１２號十六樓之２","E_COORD97":171588.51999999999,"N_COORD97":2544494.1499999999,"ADDRESS":"中華路１２號十六樓之２","OBJECTID":554462},"geometry":{"x":171588.52000000048,"y":2544494.1500000004}},{"attributes":{"ID":554490,"DIS_CODE":0,"TOWNNAME":"永康區","LI":"中華里","LIN":"21鄰","STREET":"中華路","SECT":" ","MAREA":" ","LANE":" ","ALLEY":" ","HOUSE_NO":"１２號十六樓之１","E_COORD97":171588.39000000001,"N_COORD97":2544494.1499999999,"ADDRESS":"中華路１２號十六樓之１","OBJECTID":554463},"geometry":{"x":171588.38999999966,"y":2544494.1500000004}},{"attributes":{"ID":554491,"DIS_CODE":0,"TOWNNAME":"永康區","LI":"中華里","LIN":"21鄰","STREET":"中華路","SECT":" ","MAREA":" ","LANE":" ","ALLEY":" ","HOUSE_NO":"１２號十三樓之２","E_COORD97":171588.51999999999,"N_COORD97":2544494.1499999999,"ADDRESS":"中華路１２號十三樓之２","OBJECTID":554464},"geometry":{"x":171588.52000000048,"y":2544494.1500000004}},{"attributes":{"ID":554492,"DIS_CODE":0,"TOWNNAME":"永康區","LI":"中華里","LIN":"21鄰","STREET":"中華路","SECT":" ","MAREA":" ","LANE":" ","ALLEY":" ","HOUSE_NO":"２２號十四樓之７","E_COORD97":171618.70000000001,"N_COORD97":2544543.8199999998,"ADDRESS":"中華路２２號十四樓之７","OBJECTID":554465},"geometry":{"x":171618.70000000019,"y":2544543.8200000003}},{"attributes":{"ID":554493,"DIS_CODE":0,"TOWNNAME":"永康區","LI":"\u25A0洲里","LIN":"3鄰","STREET":"\u25A0洲二街","SECT":" ","MAREA":" ","LANE":" ","ALLEY":" ","HOUSE_NO":"１６８號","E_COORD97":171673.04999999999,"N_COORD97":2549342.46,"ADDRESS":"\u25A0洲二街１６８號","OBJECTID":554466},"geometry":{"x":171673.05000000075,"y":2549342.4600000028}},{"attributes":{"ID":554494,"DIS_CODE":0,"TOWNNAME":"永康區","LI":"安康里","LIN":"21鄰","STREET":"中華路","SECT":" ","MAREA":" ","LANE":" ","ALLEY":" ","HOUSE_NO":"６７５號","E_COORD97":170965.95999999999,"N_COORD97":2546254.7400000002,"ADDRESS":"中華路６７５號","OBJECTID":554467},"geometry":{"x":170965.95999999996,"y":2546254.7400000021}},{"attributes":{"ID":554495,"DIS_CODE":0,"TOWNNAME":"永康區","LI":"中華里","LIN":"21鄰","STREET":"中華路","SECT":" ","MAREA":" ","LANE":" ","ALLEY":" ","HOUSE_NO":"２２號四樓之１１","E_COORD97":171618.62,"N_COORD97":2544543.8199999998,"ADDRESS":"中華路２２號四樓之１１","OBJECTID":554468},"geometry":{"x":171618.62000000104,"y":2544543.8200000003}},{"attributes":{"ID":554496,"DIS_CODE":0,"TOWNNAME":"永康區","LI":"中華里","LIN":"21鄰","STREET":"中華路","SECT":" ","MAREA":" ","LANE":" ","ALLEY":" ","HOUSE_NO":"２２號七樓之９","E_COORD97":171617.45000000001,"N_COORD97":2544543.8199999998,"ADDRESS":"中華路２２號七樓之９","OBJECTID":554469},"geometry":{"x":171617.45000000019,"y":2544543.8200000003}},{"attributes":{"ID":554497,"DIS_CODE":0,"TOWNNAME":"永康區","LI":"中華里","LIN":"21鄰","STREET":"中華路","SECT":" ","MAREA":" ","LANE":" ","ALLEY":" ","HOUSE_NO":"２２號五樓之６","E_COORD97":171617.47,"N_COORD97":2544543.8199999998,"ADDRESS":"中華路２２號五樓之６","OBJECTID":554470},"geometry":{"x":171617.47000000067,"y":2544543.8200000003}},{"attributes":{"ID":554498,"DIS_CODE":0,"TOWNNAME":"永康區","LI":"中華里","LIN":"21鄰","STREET":"中華路","SECT":" ","MAREA":" ","LANE":" ","ALLEY":" ","HOUSE_NO":"２２號十四樓之５","E_COORD97":171618.76999999999,"N_COORD97":2544543.8199999998,"ADDRESS":"中華路２２號十四樓之５","OBJECTID":554471},"geometry":{"x":171618.77000000048,"y":2544543.8200000003}},{"attributes":{"ID":554499,"DIS_CODE":0,"TOWNNAME":"永康區","LI":"中華里","LIN":"21鄰","STREET":"中華路","SECT":" ","MAREA":" ","LANE":" ","ALLEY":" ","HOUSE_NO":"２２號十三樓之９","E_COORD97":171618.70000000001,"N_COORD97":2544543.8199999998,"ADDRESS":"中華路２２號十三樓之９","OBJECTID":554472},"geometry":{"x":171618.70000000019,"y":2544543.8200000003}},{"attributes":{"ID":554500,"DIS_CODE":0,"TOWNNAME":"永康區","LI":"中華里","LIN":"21鄰","STREET":"中華路","SECT":" ","MAREA":" ","LANE":" ","ALLEY":" ","HOUSE_NO":"１２號六樓之２","E_COORD97":171587.26999999999,"N_COORD97":2544494.1499999999,"ADDRESS":"中華路１２號六樓之２","OBJECTID":554473},"geometry":{"x":171587.26999999955,"y":2544494.1500000004}},{"attributes":{"ID":554501,"DIS_CODE":0,"TOWNNAME":"永康區","LI":"中華里","LIN":"21鄰","STREET":"中華路","SECT":" ","MAREA":" ","LANE":" ","ALLEY":" ","HOUSE_NO":"２２號四樓之２","E_COORD97":171617.5,"N_COORD97":2544543.8199999998,"ADDRESS":"中華路２２號四樓之２","OBJECTID":554474},"geometry":{"x":171617.50000000093,"y":2544543.8200000003}},{"attributes":{"ID":554502,"DIS_CODE":0,"TOWNNAME":"永康區","LI":"中華里","LIN":"21鄰","STREET":"中華路","SECT":" ","MAREA":" ","LANE":" ","ALLEY":" ","HOUSE_NO":"２２號九樓之７","E_COORD97":171617.45000000001,"N_COORD97":2544543.8199999998,"ADDRESS":"中華路２２號九樓之７","OBJECTID":554475},"geometry":{"x":171617.45000000019,"y":2544543.8200000003}},{"attributes":{"ID":554503,"DIS_CODE":0,"TOWNNAME":"永康區","LI":"中華里","LIN":"21鄰","STREET":"中華路","SECT":" ","MAREA":" ","LANE":" ","ALLEY":" ","HOUSE_NO":"１２號五樓之４","E_COORD97":171587.16,"N_COORD97":2544494.1499999999,"ADDRESS":"中華路１２號五樓之４","OBJECTID":554476},"geometry":{"x":171587.16000000015,"y":2544494.1500000004}},{"attributes":{"ID":554504,"DIS_CODE":0,"TOWNNAME":"永康區","LI":"中華里","LIN":"21鄰","STREET":"中華路","SECT":" ","MAREA":" ","LANE":" ","ALLEY":" ","HOUSE_NO":"２２號十樓之４","E_COORD97":171617.39000000001,"N_COORD97":2544543.8199999998,"ADDRESS":"中華路２２號十樓之４","OBJECTID":554477},"geometry":{"x":171617.38999999966,"y":2544543.8200000003}},{"attributes":{"ID":554505,"DIS_CODE":0,"TOWNNAME":"永康區","LI":"中華里","LIN":"21鄰","STREET":"中華路","SECT":" ","MAREA":" ","LANE":" ","ALLEY":" ","HOUSE_NO":"２２號十四樓之６","E_COORD97":171618.72,"N_COORD97":2544543.8199999998,"ADDRESS":"中華路２２號十四樓之６","OBJECTID":554478},"geometry":{"x":171618.71999999974,"y":2544543.8200000003}},{"attributes":{"ID":554506,"DIS_CODE":0,"TOWNNAME":"永康區","LI":"中華里","LIN":"21鄰","STREET":"中華路","SECT":" ","MAREA":" ","LANE":" ","ALLEY":" ","HOUSE_NO":"１２號十四樓之３","E_COORD97":171588.48999999999,"N_COORD97":2544494.1499999999,"ADDRESS":"中華路１２號十四樓之３","OBJECTID":554479},"geometry":{"x":171588.49000000022,"y":2544494.1500000004}},{"attributes":{"ID":554507,"DIS_CODE":0,"TOWNNAME":"永康區","LI":"中華里","LIN":"21鄰","STREET":"中華路","SECT":" ","MAREA":" ","LANE":" ","ALLEY":" ","HOUSE_NO":"２２號六樓之１０","E_COORD97":171618.67000000001,"N_COORD97":2544543.8199999998,"ADDRESS":"中華路２２號六樓之１０","OBJECTID":554480},"geometry":{"x":171618.66999999993,"y":2544543.8200000003}},{"attributes":{"ID":554508,"DIS_CODE":0,"TOWNNAME":"永康區","LI":"中華里","LIN":"21鄰","STREET":"中華路","SECT":" ","MAREA":" ","LANE":" ","ALLEY":" ","HOUSE_NO":"２２號十五樓之１０","E_COORD97":171619.92000000001,"N_COORD97":2544543.8199999998,"ADDRESS":"中華路２２號十五樓之１０","OBJECTID":554481},"geometry":{"x":171619.92000000086,"y":2544543.8200000003}},{"attributes":{"ID":554509,"DIS_CODE":0,"TOWNNAME":"永康區","LI":"中華里","LIN":"21鄰","STREET":"中華路","SECT":" ","MAREA":" ","LANE":" ","ALLEY":" ","HOUSE_NO":"２２號十樓之９","E_COORD97":171617.45000000001,"N_COORD97":2544543.8199999998,"ADDRESS":"中華路２２號十樓之９","OBJECTID":554482},"geometry":{"x":171617.45000000019,"y":2544543.8200000003}},{"attributes":{"ID":554510,"DIS_CODE":0,"TOWNNAME":"永康區","LI":"中華里","LIN":"21鄰","STREET":"中華路","SECT":" ","MAREA":" ","LANE":" ","ALLEY":" ","HOUSE_NO":"２２號十六樓之２","E_COORD97":171618.75,"N_COORD97":2544543.8199999998,"ADDRESS":"中華路２２號十六樓之２","OBJECTID":554483},"geometry":{"x":171618.75,"y":2544543.8200000003}},{"attributes":{"ID":554511,"DIS_CODE":0,"TOWNNAME":"永康區","LI":"中華里","LIN":"21鄰","STREET":"中華路","SECT":" ","MAREA":" ","LANE":" ","ALLEY":" ","HOUSE_NO":"２２號四樓之９","E_COORD97":171617.45000000001,"N_COORD97":2544543.8199999998,"ADDRESS":"中華路２２號四樓之９","OBJECTID":554484},"geometry":{"x":171617.45000000019,"y":2544543.8200000003}},{"attributes":{"ID":554512,"DIS_CODE":0,"TOWNNAME":"永康區","LI":"中華里","LIN":"21鄰","STREET":"中華路","SECT":" ","MAREA":" ","LANE":" ","ALLEY":" ","HOUSE_NO":"２２號十六樓之６","E_COORD97":171618.72,"N_COORD97":2544543.8199999998,"ADDRESS":"中華路２２號十六樓之６","OBJECTID":554485},"geometry":{"x":171618.71999999974,"y":2544543.8200000003}},{"attributes":{"ID":554513,"DIS_CODE":0,"TOWNNAME":"永康區","LI":"中華里","LIN":"21鄰","STREET":"中華路","SECT":" ","MAREA":" ","LANE":" ","ALLEY":" ","HOUSE_NO":"１２號十樓之４","E_COORD97":171587.16,"N_COORD97":2544494.1499999999,"ADDRESS":"中華路１２號十樓之４","OBJECTID":554486},"geometry":{"x":171587.16000000015,"y":2544494.1500000004}},{"attributes":{"ID":554514,"DIS_CODE":0,"TOWNNAME":"永康區","LI":"中華里","LIN":"21鄰","STREET":"中華路","SECT":" ","MAREA":" ","LANE":" ","ALLEY":" ","HOUSE_NO":"２２號四樓之３","E_COORD97":171617.47,"N_COORD97":2544543.8199999998,"ADDRESS":"中華路２２號四樓之３","OBJECTID":554487},"geometry":{"x":171617.47000000067,"y":2544543.8200000003}},{"attributes":{"ID":554515,"DIS_CODE":0,"TOWNNAME":"永康區","LI":"中華里","LIN":"21鄰","STREET":"中華路","SECT":" ","MAREA":" ","LANE":" ","ALLEY":" ","HOUSE_NO":"２２號五樓之５","E_COORD97":171617.51999999999,"N_COORD97":2544543.8199999998,"ADDRESS":"中華路２２號五樓之５","OBJECTID":554488},"geometry":{"x":171617.51999999955,"y":2544543.8200000003}},{"attributes":{"ID":554516,"DIS_CODE":0,"TOWNNAME":"永康區","LI":"中華里","LIN":"21鄰","STREET":"中華路","SECT":" ","MAREA":" ","LANE":" ","ALLEY":" ","HOUSE_NO":"１２號四樓之２","E_COORD97":171587.26999999999,"N_COORD97":2544494.1499999999,"ADDRESS":"中華路１２號四樓之２","OBJECTID":554489},"geometry":{"x":171587.26999999955,"y":2544494.1500000004}},{"attributes":{"ID":554517,"DIS_CODE":0,"TOWNNAME":"永康區","LI":"中華里","LIN":"21鄰","STREET":"中華路","SECT":" ","MAREA":" ","LANE":" ","ALLEY":" ","HOUSE_NO":"２２號十四樓之２","E_COORD97":171618.75,"N_COORD97":2544543.8199999998,"ADDRESS":"中華路２２號十四樓之２","OBJECTID":554490},"geometry":{"x":171618.75,"y":2544543.8200000003}},{"attributes":{"ID":554518,"DIS_CODE":0,"TOWNNAME":"永康區","LI":"中華里","LIN":"21鄰","STREET":"中華路","SECT":" ","MAREA":" ","LANE":" ","ALLEY":" ","HOUSE_NO":"１２號六樓之１","E_COORD97":171587.14000000001,"N_COORD97":2544494.1499999999,"ADDRESS":"中華路１２號六樓之１","OBJECTID":554491},"geometry":{"x":171587.14000000153,"y":2544494.1500000004}},{"attributes":{"ID":554519,"DIS_CODE":0,"TOWNNAME":"永康區","LI":"安康里","LIN":"9鄰","STREET":"中華西街","SECT":" ","MAREA":" ","LANE":" ","ALLEY":" ","HOUSE_NO":"２４號","E_COORD97":170823.19,"N_COORD97":2545952.4900000002,"ADDRESS":"中華西街２４號","OBJECTID":554492},"geometry":{"x":170823.19000000134,"y":2545952.4900000002}},{"attributes":{"ID":554520,"DIS_CODE":0,"TOWNNAME":"永康區","LI":"西勢里","LIN":"20鄰","STREET":"富強路","SECT":"一段","MAREA":" ","LANE":" ","ALLEY":" ","HOUSE_NO":"２１９號","E_COORD97":175621.56,"N_COORD97":2546451.4900000002,"ADDRESS":"富強路一段２１９號","OBJECTID":554493},"geometry":{"x":175621.55999999959,"y":2546451.4900000002}},{"attributes":{"ID":554521,"DIS_CODE":0,"TOWNNAME":"永康區","LI":"西勢里","LIN":"21鄰","STREET":"富強路","SECT":"一段","MAREA":" ","LANE":" ","ALLEY":" ","HOUSE_NO":"２１號","E_COORD97":175390.70000000001,"N_COORD97":2546050.02,"ADDRESS":"富強路一段２１號","OBJECTID":554494},"geometry":{"x":175390.70000000019,"y":2546050.0199999996}},{"attributes":{"ID":554522,"DIS_CODE":0,"TOWNNAME":"永康區","LI":"中華里","LIN":"21鄰","STREET":"中華路","SECT":" ","MAREA":" ","LANE":" ","ALLEY":" ","HOUSE_NO":"１２號十五樓之２","E_COORD97":171588.51999999999,"N_COORD97":2544494.1499999999,"ADDRESS":"中華路１２號十五樓之２","OBJECTID":554495},"geometry":{"x":171588.52000000048,"y":2544494.1500000004}},{"attributes":{"ID":554523,"DIS_CODE":0,"TOWNNAME":"永康區","LI":"中華里","LIN":"21鄰","STREET":"中華路","SECT":" ","MAREA":" ","LANE":" ","ALLEY":" ","HOUSE_NO":"１２號十樓之５","E_COORD97":171587.29000000001,"N_COORD97":2544494.1499999999,"ADDRESS":"中華路１２號十樓之５","OBJECTID":554496},"geometry":{"x":171587.29000000097,"y":2544494.1500000004}},{"attributes":{"ID":554524,"DIS_CODE":0,"TOWNNAME":"永康區","LI":"中華里","LIN":"21鄰","STREET":"中華路","SECT":" ","MAREA":" ","LANE":" ","ALLEY":" ","HOUSE_NO":"１２號四樓之１","E_COORD97":171587.14000000001,"N_COORD97":2544494.1499999999,"ADDRESS":"中華路１２號四樓之１","OBJECTID":554497},"geometry":{"x":171587.14000000153,"y":2544494.1500000004}},{"attributes":{"ID":554525,"DIS_CODE":0,"TOWNNAME":"永康區","LI":"中華里","LIN":"21鄰","STREET":"中華路","SECT":" ","MAREA":" ","LANE":" ","ALLEY":" ","HOUSE_NO":"１２號七樓之５","E_COORD97":171587.29000000001,"N_COORD97":2544494.1499999999,"ADDRESS":"中華路１２號七樓之５","OBJECTID":554498},"geometry":{"x":171587.29000000097,"y":2544494.1500000004}},{"attributes":{"ID":554526,"DIS_CODE":0,"TOWNNAME":"永康區","LI":"中華里","LIN":"21鄰","STREET":"中華路","SECT":" ","MAREA":" ","LANE":" ","ALLEY":" ","HOUSE_NO":"２２號五樓之３","E_COORD97":171617.47,"N_COORD97":2544543.8199999998,"ADDRESS":"中華路２２號五樓之３","OBJECTID":554499},"geometry":{"x":171617.47000000067,"y":2544543.8200000003}},{"attributes":{"ID":554527,"DIS_CODE":0,"TOWNNAME":"永康區","LI":"中華里","LIN":"21鄰","STREET":"中華路","SECT":" ","MAREA":" ","LANE":" ","ALLEY":" ","HOUSE_NO":"２２號九樓之１０","E_COORD97":171618.67000000001,"N_COORD97":2544543.8199999998,"ADDRESS":"中華路２２號九樓之１０","OBJECTID":554500},"geometry":{"x":171618.66999999993,"y":2544543.8200000003}},{"attributes":{"ID":554528,"DIS_CODE":0,"TOWNNAME":"永康區","LI":"中華里","LIN":"21鄰","STREET":"中華路","SECT":" ","MAREA":" ","LANE":" ","ALLEY":" ","HOUSE_NO":"２２號五樓之８","E_COORD97":171617.51999999999,"N_COORD97":2544543.8199999998,"ADDRESS":"中華路２２號五樓之８","OBJECTID":554501},"geometry":{"x":171617.51999999955,"y":2544543.8200000003}},{"attributes":{"ID":554529,"DIS_CODE":0,"TOWNNAME":"永康區","LI":"中華里","LIN":"21鄰","STREET":"中華路","SECT":" ","MAREA":" ","LANE":" ","ALLEY":" ","HOUSE_NO":"１２號五樓之５","E_COORD97":171587.29000000001,"N_COORD97":2544494.1499999999,"ADDRESS":"中華路１２號五樓之５","OBJECTID":554502},"geometry":{"x":171587.29000000097,"y":2544494.1500000004}},{"attributes":{"ID":554530,"DIS_CODE":0,"TOWNNAME":"永康區","LI":"中華里","LIN":"21鄰","STREET":"中華路","SECT":" ","MAREA":" ","LANE":" ","ALLEY":" ","HOUSE_NO":"１２號五樓之３","E_COORD97":171587.23999999999,"N_COORD97":2544494.1499999999,"ADDRESS":"中華路１２號五樓之３","OBJECTID":554503},"geometry":{"x":171587.24000000115,"y":2544494.1500000004}},{"attributes":{"ID":554531,"DIS_CODE":0,"TOWNNAME":"永康區","LI":"中華里","LIN":"21鄰","STREET":"中華路","SECT":" ","MAREA":" ","LANE":" ","ALLEY":" ","HOUSE_NO":"１２號十八樓之４","E_COORD97":171588.41,"N_COORD97":2544494.1499999999,"ADDRESS":"中華路１２號十八樓之４","OBJECTID":554504},"geometry":{"x":171588.41000000015,"y":2544494.1500000004}},{"attributes":{"ID":554532,"DIS_CODE":0,"TOWNNAME":"永康區","LI":"中華里","LIN":"21鄰","STREET":"中華路","SECT":" ","MAREA":" ","LANE":" ","ALLEY":" ","HOUSE_NO":"１２號六樓之５","E_COORD97":171587.29000000001,"N_COORD97":2544494.1499999999,"ADDRESS":"中華路１２號六樓之５","OBJECTID":554505},"geometry":{"x":171587.29000000097,"y":2544494.1500000004}},{"attributes":{"ID":554533,"DIS_CODE":0,"TOWNNAME":"永康區","LI":"中華里","LIN":"21鄰","STREET":"中華路","SECT":" ","MAREA":" ","LANE":" ","ALLEY":" ","HOUSE_NO":"２２號十四樓之９","E_COORD97":171618.70000000001,"N_COORD97":2544543.8199999998,"ADDRESS":"中華路２２號十四樓之９","OBJECTID":554506},"geometry":{"x":171618.70000000019,"y":2544543.8200000003}},{"attributes":{"ID":554534,"DIS_CODE":0,"TOWNNAME":"永康區","LI":"中華里","LIN":"21鄰","STREET":"中華路","SECT":" ","MAREA":" ","LANE":" ","ALLEY":" ","HOUSE_NO":"１２號十四樓之４","E_COORD97":171588.41,"N_COORD97":2544494.1499999999,"ADDRESS":"中華路１２號十四樓之４","OBJECTID":554507},"geometry":{"x":171588.41000000015,"y":2544494.1500000004}},{"attributes":{"ID":554535,"DIS_CODE":0,"TOWNNAME":"永康區","LI":"中華里","LIN":"21鄰","STREET":"中華路","SECT":" ","MAREA":" ","LANE":" ","ALLEY":" ","HOUSE_NO":"２２號十樓之５","E_COORD97":171617.51999999999,"N_COORD97":2544543.8199999998,"ADDRESS":"中華路２２號十樓之５","OBJECTID":554508},"geometry":{"x":171617.51999999955,"y":2544543.8200000003}},{"attributes":{"ID":554536,"DIS_CODE":0,"TOWNNAME":"永康區","LI":"中華里","LIN":"21鄰","STREET":"中華路","SECT":" ","MAREA":" ","LANE":" ","ALLEY":" ","HOUSE_NO":"１２號八樓之１","E_COORD97":171587.14000000001,"N_COORD97":2544494.1499999999,"ADDRESS":"中華路１２號八樓之１","OBJECTID":554509},"geometry":{"x":171587.14000000153,"y":2544494.1500000004}},{"attributes":{"ID":554537,"DIS_CODE":0,"TOWNNAME":"永康區","LI":"中華里","LIN":"21鄰","STREET":"中華路","SECT":" ","MAREA":" ","LANE":" ","ALLEY":" ","HOUSE_NO":"２２號九樓之２","E_COORD97":171617.5,"N_COORD97":2544543.8199999998,"ADDRESS":"中華路２２號九樓之２","OBJECTID":554510},"geometry":{"x":171617.50000000093,"y":2544543.8200000003}},{"attributes":{"ID":554538,"DIS_CODE":0,"TOWNNAME":"永康區","LI":"中華里","LIN":"21鄰","STREET":"中華路","SECT":" ","MAREA":" ","LANE":" ","ALLEY":" ","HOUSE_NO":"２２號十六樓之１","E_COORD97":171618.62,"N_COORD97":2544543.8199999998,"ADDRESS":"中華路２２號十六樓之１","OBJECTID":554511},"geometry":{"x":171618.62000000104,"y":2544543.8200000003}},{"attributes":{"ID":554539,"DIS_CODE":0,"TOWNNAME":"永康區","LI":"中華里","LIN":"21鄰","STREET":"中華路","SECT":" ","MAREA":" ","LANE":" ","ALLEY":" ","HOUSE_NO":"２２號十六樓之３","E_COORD97":171618.72,"N_COORD97":2544543.8199999998,"ADDRESS":"中華路２２號十六樓之３","OBJECTID":554512},"geometry":{"x":171618.71999999974,"y":2544543.8200000003}},{"attributes":{"ID":554540,"DIS_CODE":0,"TOWNNAME":"永康區","LI":"中華里","LIN":"21鄰","STREET":"中華路","SECT":" ","MAREA":" ","LANE":" ","ALLEY":" ","HOUSE_NO":"１２號十一樓之２","E_COORD97":171588.51999999999,"N_COORD97":2544494.1499999999,"ADDRESS":"中華路１２號十一樓之２","OBJECTID":554513},"geometry":{"x":171588.52000000048,"y":2544494.1500000004}},{"attributes":{"ID":554541,"DIS_CODE":0,"TOWNNAME":"永康區","LI":"中華里","LIN":"21鄰","STREET":"中華路","SECT":" ","MAREA":" ","LANE":" ","ALLEY":" ","HOUSE_NO":"２２號七樓之４","E_COORD97":171617.39000000001,"N_COORD97":2544543.8199999998,"ADDRESS":"中華路２２號七樓之４","OBJECTID":554514},"geometry":{"x":171617.38999999966,"y":2544543.8200000003}},{"attributes":{"ID":554542,"DIS_CODE":0,"TOWNNAME":"永康區","LI":"中華里","LIN":"21鄰","STREET":"中華路","SECT":" ","MAREA":" ","LANE":" ","ALLEY":" ","HOUSE_NO":"１２號十八樓之５","E_COORD97":171588.54000000001,"N_COORD97":2544494.1499999999,"ADDRESS":"中華路１２號十八樓之５","OBJECTID":554515},"geometry":{"x":171588.54000000097,"y":2544494.1500000004}},{"attributes":{"ID":554543,"DIS_CODE":0,"TOWNNAME":"永康區","LI":"中華里","LIN":"21鄰","STREET":"中華路","SECT":" ","MAREA":" ","LANE":" ","ALLEY":" ","HOUSE_NO":"２２號五樓之７","E_COORD97":171617.45000000001,"N_COORD97":2544543.8199999998,"ADDRESS":"中華路２２號五樓之７","OBJECTID":554516},"geometry":{"x":171617.45000000019,"y":2544543.8200000003}},{"attributes":{"ID":554544,"DIS_CODE":0,"TOWNNAME":"永康區","LI":"中華里","LIN":"21鄰","STREET":"中華路","SECT":" ","MAREA":" ","LANE":" ","ALLEY":" ","HOUSE_NO":"２２號六樓之８","E_COORD97":171617.51999999999,"N_COORD97":2544543.8199999998,"ADDRESS":"中華路２２號六樓之８","OBJECTID":554517},"geometry":{"x":171617.51999999955,"y":2544543.8200000003}},{"attributes":{"ID":554545,"DIS_CODE":0,"TOWNNAME":"永康區","LI":"中華里","LIN":"21鄰","STREET":"中華路","SECT":" ","MAREA":" ","LANE":" ","ALLEY":" ","HOUSE_NO":"２２號七樓之１０","E_COORD97":171618.67000000001,"N_COORD97":2544543.8199999998,"ADDRESS":"中華路２２號七樓之１０","OBJECTID":554518},"geometry":{"x":171618.66999999993,"y":2544543.8200000003}},{"attributes":{"ID":554546,"DIS_CODE":0,"TOWNNAME":"永康區","LI":"中華里","LIN":"21鄰","STREET":"中華路","SECT":" ","MAREA":" ","LANE":" ","ALLEY":" ","HOUSE_NO":"１２號七樓之４","E_COORD97":171587.16,"N_COORD97":2544494.1499999999,"ADDRESS":"中華路１２號七樓之４","OBJECTID":554519},"geometry":{"x":171587.16000000015,"y":2544494.1500000004}},{"attributes":{"ID":554547,"DIS_CODE":0,"TOWNNAME":"永康區","LI":"尚頂里","LIN":"22鄰","STREET":"大武街","SECT":" ","MAREA":" ","LANE":" ","ALLEY":" ","HOUSE_NO":"５７號","E_COORD97":170365.95000000001,"N_COORD97":2546802.9900000002,"ADDRESS":"大武街５７號","OBJECTID":554520},"geometry":{"x":170365.95000000019,"y":2546802.9900000002}},{"attributes":{"ID":554548,"DIS_CODE":0,"TOWNNAME":"永康區","LI":"西灣里","LIN":"8鄰","STREET":"大灣三街","SECT":" ","MAREA":" ","LANE":" ","ALLEY":" ","HOUSE_NO":"２２８號","E_COORD97":174458.38,"N_COORD97":2545175,"ADDRESS":"大灣三街２２８號","OBJECTID":554521},"geometry":{"x":174458.37999999989,"y":2545175.0000000019}},{"attributes":{"ID":554549,"DIS_CODE":0,"TOWNNAME":"永康區","LI":"中華里","LIN":"21鄰","STREET":"中華路","SECT":" ","MAREA":" ","LANE":" ","ALLEY":" ","HOUSE_NO":"２２號十樓之１","E_COORD97":171617.37,"N_COORD97":2544543.8199999998,"ADDRESS":"中華路２２號十樓之１","OBJECTID":554522},"geometry":{"x":171617.37000000104,"y":2544543.8200000003}},{"attributes":{"ID":554550,"DIS_CODE":0,"TOWNNAME":"永康區","LI":"中華里","LIN":"21鄰","STREET":"中華路","SECT":" ","MAREA":" ","LANE":" ","ALLEY":" ","HOUSE_NO":"１２號十三樓之４","E_COORD97":171588.41,"N_COORD97":2544494.1499999999,"ADDRESS":"中華路１２號十三樓之４","OBJECTID":554523},"geometry":{"x":171588.41000000015,"y":2544494.1500000004}},{"attributes":{"ID":554551,"DIS_CODE":0,"TOWNNAME":"永康區","LI":"中華里","LIN":"21鄰","STREET":"中華路","SECT":" ","MAREA":" ","LANE":" ","ALLEY":" ","HOUSE_NO":"２２號十三樓之６","E_COORD97":171618.72,"N_COORD97":2544543.8199999998,"ADDRESS":"中華路２２號十三樓之６","OBJECTID":554524},"geometry":{"x":171618.71999999974,"y":2544543.8200000003}},{"attributes":{"ID":554552,"DIS_CODE":0,"TOWNNAME":"永康區","LI":"中華里","LIN":"21鄰","STREET":"中華路","SECT":" ","MAREA":" ","LANE":" ","ALLEY":" ","HOUSE_NO":"１２號十八樓之３","E_COORD97":171588.48999999999,"N_COORD97":2544494.1499999999,"ADDRESS":"中華路１２號十八樓之３","OBJECTID":554525},"geometry":{"x":171588.49000000022,"y":2544494.1500000004}},{"attributes":{"ID":554553,"DIS_CODE":0,"TOWNNAME":"永康區","LI":"中華里","LIN":"21鄰","STREET":"中華路","SECT":" ","MAREA":" ","LANE":" ","ALLEY":" ","HOUSE_NO":"２２號十二樓之２","E_COORD97":171618.75,"N_COORD97":2544543.8199999998,"ADDRESS":"中華路２２號十二樓之２","OBJECTID":554526},"geometry":{"x":171618.75,"y":2544543.8200000003}},{"attributes":{"ID":554554,"DIS_CODE":0,"TOWNNAME":"永康區","LI":"中華里","LIN":"21鄰","STREET":"中華路","SECT":" ","MAREA":" ","LANE":" ","ALLEY":" ","HOUSE_NO":"２２號十五樓之９","E_COORD97":171618.70000000001,"N_COORD97":2544543.8199999998,"ADDRESS":"中華路２２號十五樓之９","OBJECTID":554527},"geometry":{"x":171618.70000000019,"y":2544543.8200000003}},{"attributes":{"ID":554555,"DIS_CODE":0,"TOWNNAME":"永康區","LI":"中華里","LIN":"21鄰","STREET":"中華路","SECT":" ","MAREA":" ","LANE":" ","ALLEY":" ","HOUSE_NO":"１２號十五樓之４","E_COORD97":171588.41,"N_COORD97":2544494.1499999999,"ADDRESS":"中華路１２號十五樓之４","OBJECTID":554528},"geometry":{"x":171588.41000000015,"y":2544494.1500000004}},{"attributes":{"ID":554556,"DIS_CODE":0,"TOWNNAME":"永康區","LI":"中華里","LIN":"21鄰","STREET":"中華路","SECT":" ","MAREA":" ","LANE":" ","ALLEY":" ","HOUSE_NO":"２２號十四樓之１０","E_COORD97":171619.92000000001,"N_COORD97":2544543.8199999998,"ADDRESS":"中華路２２號十四樓之１０","OBJECTID":554529},"geometry":{"x":171619.92000000086,"y":2544543.8200000003}},{"attributes":{"ID":554557,"DIS_CODE":0,"TOWNNAME":"永康區","LI":"中華里","LIN":"21鄰","STREET":"中華路","SECT":" ","MAREA":" ","LANE":" ","ALLEY":" ","HOUSE_NO":"１２號十四樓之５","E_COORD97":171588.54000000001,"N_COORD97":2544494.1499999999,"ADDRESS":"中華路１２號十四樓之５","OBJECTID":554530},"geometry":{"x":171588.54000000097,"y":2544494.1500000004}},{"attributes":{"ID":554558,"DIS_CODE":0,"TOWNNAME":"永康區","LI":"中華里","LIN":"21鄰","STREET":"中華路","SECT":" ","MAREA":" ","LANE":" ","ALLEY":" ","HOUSE_NO":"２２號四樓之７","E_COORD97":171617.45000000001,"N_COORD97":2544543.8199999998,"ADDRESS":"中華路２２號四樓之７","OBJECTID":554531},"geometry":{"x":171617.45000000019,"y":2544543.8200000003}},{"attributes":{"ID":554559,"DIS_CODE":0,"TOWNNAME":"永康區","LI":"中華里","LIN":"21鄰","STREET":"中華路","SECT":" ","MAREA":" ","LANE":" ","ALLEY":" ","HOUSE_NO":"２２號四樓之１０","E_COORD97":171618.67000000001,"N_COORD97":2544543.8199999998,"ADDRESS":"中華路２２號四樓之１０","OBJECTID":554532},"geometry":{"x":171618.66999999993,"y":2544543.8200000003}},{"attributes":{"ID":554560,"DIS_CODE":0,"TOWNNAME":"永康區","LI":"中華里","LIN":"21鄰","STREET":"中華路","SECT":" ","MAREA":" ","LANE":" ","ALLEY":" ","HOUSE_NO":"１２號十三樓之３","E_COORD97":171588.48999999999,"N_COORD97":2544494.1499999999,"ADDRESS":"中華路１２號十三樓之３","OBJECTID":554533},"geometry":{"x":171588.49000000022,"y":2544494.1500000004}},{"attributes":{"ID":554561,"DIS_CODE":0,"TOWNNAME":"安南區","LI":"溪北里","LIN":"21鄰","STREET":"郡安路","SECT":"四段","MAREA":" ","LANE":" ","ALLEY":" ","HOUSE_NO":"７６號之１８二樓","E_COORD97":169123.79000000001,"N_COORD97":2547568.4500000002,"ADDRESS":"郡安路四段７６號之１８二樓","OBJECTID":554534},"geometry":{"x":169123.79000000097,"y":2547568.4499999993}},{"attributes":{"ID":554562,"DIS_CODE":0,"TOWNNAME":"安南區","LI":"溪北里","LIN":"21鄰","STREET":"郡安路","SECT":"四段","MAREA":" ","LANE":" ","ALLEY":" ","HOUSE_NO":"７６號之１８三樓","E_COORD97":169123.79000000001,"N_COORD97":2547568.4500000002,"ADDRESS":"郡安路四段７６號之１８三樓","OBJECTID":554535},"geometry":{"x":169123.79000000097,"y":2547568.4499999993}},{"attributes":{"ID":554563,"DIS_CODE":0,"TOWNNAME":"安南區","LI":"溪北里","LIN":"21鄰","STREET":"郡安路","SECT":"四段","MAREA":" ","LANE":" ","ALLEY":" ","HOUSE_NO":"７６號之２０五樓","E_COORD97":169123.57999999999,"N_COORD97":2547556.48,"ADDRESS":"郡安路四段７６號之２０五樓","OBJECTID":554536},"geometry":{"x":169123.58000000101,"y":2547556.4800000004}},{"attributes":{"ID":554564,"DIS_CODE":0,"TOWNNAME":"東區","LI":"裕農里","LIN":"21鄰","STREET":"裕豐街","SECT":" ","MAREA":" ","LANE":" ","ALLEY":" ","HOUSE_NO":"１７４號四樓","E_COORD97":170776.98999999999,"N_COORD97":2543090.3599999999,"ADDRESS":"裕豐街１７４號四樓","OBJECTID":554537},"geometry":{"x":170776.99000000115,"y":2543090.3600000013}},{"attributes":{"ID":554565,"DIS_CODE":0,"TOWNNAME":"東區","LI":"裕農里","LIN":"21鄰","STREET":"裕豐街","SECT":" ","MAREA":" ","LANE":" ","ALLEY":" ","HOUSE_NO":"１７４號五樓","E_COORD97":170776.98999999999,"N_COORD97":2543090.3599999999,"ADDRESS":"裕豐街１７４號五樓","OBJECTID":554538},"geometry":{"x":170776.99000000115,"y":2543090.3600000013}},{"attributes":{"ID":554566,"DIS_CODE":0,"TOWNNAME":"東區","LI":"裕農里","LIN":"21鄰","STREET":"裕豐街","SECT":" ","MAREA":" ","LANE":" ","ALLEY":" ","HOUSE_NO":"１７６號四樓","E_COORD97":170778.04000000001,"N_COORD97":2543095.5699999998,"ADDRESS":"裕豐街１７６號四樓","OBJECTID":554539},"geometry":{"x":170778.04000000097,"y":2543095.5700000022}},{"attributes":{"ID":554567,"DIS_CODE":0,"TOWNNAME":"永康區","LI":"甲頂里","LIN":"29鄰","STREET":"中央路","SECT":" ","MAREA":" ","LANE":" ","ALLEY":" ","HOUSE_NO":"３５號","E_COORD97":169624.48000000001,"N_COORD97":2547034.4199999999,"ADDRESS":"中央路３５號","OBJECTID":554540},"geometry":{"x":169624.48000000138,"y":2547034.4199999999}},{"attributes":{"ID":554568,"DIS_CODE":0,"TOWNNAME":"永康區","LI":"西灣里","LIN":"10鄰","STREET":"大灣五街","SECT":" ","MAREA":" ","LANE":" ","ALLEY":" ","HOUSE_NO":"１２９號","E_COORD97":174493.97,"N_COORD97":2545306.75,"ADDRESS":"大灣五街１２９號","OBJECTID":554541},"geometry":{"x":174493.9700000016,"y":2545306.75}},{"attributes":{"ID":554569,"DIS_CODE":0,"TOWNNAME":"東區","LI":"裕農里","LIN":"21鄰","STREET":"裕豐街","SECT":" ","MAREA":" ","LANE":" ","ALLEY":" ","HOUSE_NO":"１７６號五樓","E_COORD97":170778.04000000001,"N_COORD97":2543095.5699999998,"ADDRESS":"裕豐街１７６號五樓","OBJECTID":554542},"geometry":{"x":170778.04000000097,"y":2543095.5700000022}},{"attributes":{"ID":554570,"DIS_CODE":0,"TOWNNAME":"東區","LI":"裕農里","LIN":"21鄰","STREET":"裕豐街","SECT":" ","MAREA":" ","LANE":" ","ALLEY":" ","HOUSE_NO":"１７６號之１二樓","E_COORD97":170789.85999999999,"N_COORD97":2543085.1499999999,"ADDRESS":"裕豐街１７６號之１二樓","OBJECTID":554543},"geometry":{"x":170789.86000000127,"y":2543085.1500000022}},{"attributes":{"ID":554571,"DIS_CODE":0,"TOWNNAME":"東區","LI":"裕農里","LIN":"21鄰","STREET":"裕豐街","SECT":" ","MAREA":" ","LANE":" ","ALLEY":" ","HOUSE_NO":"１７６號之１三樓","E_COORD97":170789.85999999999,"N_COORD97":2543085.1499999999,"ADDRESS":"裕豐街１７６號之１三樓","OBJECTID":554544},"geometry":{"x":170789.86000000127,"y":2543085.1500000022}},{"attributes":{"ID":554572,"DIS_CODE":0,"TOWNNAME":"東區","LI":"裕農里","LIN":"21鄰","STREET":"裕豐街","SECT":" ","MAREA":" ","LANE":" ","ALLEY":" ","HOUSE_NO":"１７６號之１四樓","E_COORD97":170789.85999999999,"N_COORD97":2543085.1499999999,"ADDRESS":"裕豐街１７６號之１四樓","OBJECTID":554545},"geometry":{"x":170789.86000000127,"y":2543085.1500000022}},{"attributes":{"ID":554573,"DIS_CODE":0,"TOWNNAME":"東區","LI":"裕農里","LIN":"21鄰","STREET":"裕豐街","SECT":" ","MAREA":" ","LANE":" ","ALLEY":" ","HOUSE_NO":"１７６號之１五樓","E_COORD97":170789.85999999999,"N_COORD97":2543085.1499999999,"ADDRESS":"裕豐街１７６號之１五樓","OBJECTID":554546},"geometry":{"x":170789.86000000127,"y":2543085.1500000022}},{"attributes":{"ID":554574,"DIS_CODE":0,"TOWNNAME":"東區","LI":"裕農里","LIN":"21鄰","STREET":"裕豐街","SECT":" ","MAREA":" ","LANE":" ","ALLEY":" ","HOUSE_NO":"１７６號之２二樓","E_COORD97":170800.45999999999,"N_COORD97":2543094.1800000002,"ADDRESS":"裕豐街１７６號之２二樓","OBJECTID":554547},"geometry":{"x":170800.46000000183,"y":2543094.1800000016}},{"attributes":{"ID":554575,"DIS_CODE":0,"TOWNNAME":"東區","LI":"裕農里","LIN":"21鄰","STREET":"裕豐街","SECT":" ","MAREA":" ","LANE":" ","ALLEY":" ","HOUSE_NO":"１７６號之２三樓","E_COORD97":170800.45999999999,"N_COORD97":2543094.1800000002,"ADDRESS":"裕豐街１７６號之２三樓","OBJECTID":554548},"geometry":{"x":170800.46000000183,"y":2543094.1800000016}},{"attributes":{"ID":554576,"DIS_CODE":0,"TOWNNAME":"東區","LI":"裕農里","LIN":"21鄰","STREET":"裕豐街","SECT":" ","MAREA":" ","LANE":" ","ALLEY":" ","HOUSE_NO":"１７６號之２四樓","E_COORD97":170800.45999999999,"N_COORD97":2543094.1800000002,"ADDRESS":"裕豐街１７６號之２四樓","OBJECTID":554549},"geometry":{"x":170800.46000000183,"y":2543094.1800000016}},{"attributes":{"ID":554577,"DIS_CODE":0,"TOWNNAME":"東區","LI":"裕農里","LIN":"21鄰","STREET":"裕豐街","SECT":" ","MAREA":" ","LANE":" ","ALLEY":" ","HOUSE_NO":"１７６號之２五樓","E_COORD97":170800.45999999999,"N_COORD97":2543094.1800000002,"ADDRESS":"裕豐街１７６號之２五樓","OBJECTID":554550},"geometry":{"x":170800.46000000183,"y":2543094.1800000016}},{"attributes":{"ID":554578,"DIS_CODE":0,"TOWNNAME":"東區","LI":"裕農里","LIN":"21鄰","STREET":"裕豐街","SECT":" ","MAREA":" ","LANE":" ","ALLEY":" ","HOUSE_NO":"１７６號之３二樓","E_COORD97":170799.42000000001,"N_COORD97":2543081.8500000001,"ADDRESS":"裕豐街１７６號之３二樓","OBJECTID":554551},"geometry":{"x":170799.42000000086,"y":2543081.8499999996}},{"attributes":{"ID":554579,"DIS_CODE":0,"TOWNNAME":"東區","LI":"裕農里","LIN":"21鄰","STREET":"裕豐街","SECT":" ","MAREA":" ","LANE":" ","ALLEY":" ","HOUSE_NO":"１７６號之３三樓","E_COORD97":170799.42000000001,"N_COORD97":2543081.8500000001,"ADDRESS":"裕豐街１７６號之３三樓","OBJECTID":554552},"geometry":{"x":170799.42000000086,"y":2543081.8499999996}},{"attributes":{"ID":554580,"DIS_CODE":0,"TOWNNAME":"東區","LI":"裕農里","LIN":"21鄰","STREET":"裕豐街","SECT":" ","MAREA":" ","LANE":" ","ALLEY":" ","HOUSE_NO":"１７６號之３四樓","E_COORD97":170799.42000000001,"N_COORD97":2543081.8500000001,"ADDRESS":"裕豐街１７６號之３四樓","OBJECTID":554553},"geometry":{"x":170799.42000000086,"y":2543081.8499999996}},{"attributes":{"ID":554581,"DIS_CODE":0,"TOWNNAME":"東區","LI":"裕農里","LIN":"21鄰","STREET":"裕豐街","SECT":" ","MAREA":" ","LANE":" ","ALLEY":" ","HOUSE_NO":"１７６號之３五樓","E_COORD97":170799.42000000001,"N_COORD97":2543081.8500000001,"ADDRESS":"裕豐街１７６號之３五樓","OBJECTID":554554},"geometry":{"x":170799.42000000086,"y":2543081.8499999996}},{"attributes":{"ID":554582,"DIS_CODE":0,"TOWNNAME":"東區","LI":"裕農里","LIN":"21鄰","STREET":"裕豐街","SECT":" ","MAREA":" ","LANE":" ","ALLEY":" ","HOUSE_NO":"１８２號四樓","E_COORD97":170781.57000000001,"N_COORD97":2543109.7799999998,"ADDRESS":"裕豐街１８２號四樓","OBJECTID":554555},"geometry":{"x":170781.57000000123,"y":2543109.7800000031}},{"attributes":{"ID":554583,"DIS_CODE":0,"TOWNNAME":"東區","LI":"裕農里","LIN":"21鄰","STREET":"裕豐街","SECT":" ","MAREA":" ","LANE":" ","ALLEY":" ","HOUSE_NO":"１８２號五樓","E_COORD97":170781.57000000001,"N_COORD97":2543109.7799999998,"ADDRESS":"裕豐街１８２號五樓","OBJECTID":554556},"geometry":{"x":170781.57000000123,"y":2543109.7800000031}},{"attributes":{"ID":554584,"DIS_CODE":0,"TOWNNAME":"東區","LI":"裕農里","LIN":"21鄰","STREET":"裕豐街","SECT":" ","MAREA":" ","LANE":" ","ALLEY":" ","HOUSE_NO":"１８０號之１二樓","E_COORD97":170797.56,"N_COORD97":2543103.98,"ADDRESS":"裕豐街１８０號之１二樓","OBJECTID":554557},"geometry":{"x":170797.56000000145,"y":2543103.9800000023}},{"attributes":{"ID":554585,"DIS_CODE":0,"TOWNNAME":"東區","LI":"裕農里","LIN":"21鄰","STREET":"裕豐街","SECT":" ","MAREA":" ","LANE":" ","ALLEY":" ","HOUSE_NO":"１８０號之１三樓","E_COORD97":170797.56,"N_COORD97":2543103.98,"ADDRESS":"裕豐街１８０號之１三樓","OBJECTID":554558},"geometry":{"x":170797.56000000145,"y":2543103.9800000023}},{"attributes":{"ID":554586,"DIS_CODE":0,"TOWNNAME":"東區","LI":"裕農里","LIN":"21鄰","STREET":"裕豐街","SECT":" ","MAREA":" ","LANE":" ","ALLEY":" ","HOUSE_NO":"１８０號之１四樓","E_COORD97":170797.56,"N_COORD97":2543103.98,"ADDRESS":"裕豐街１８０號之１四樓","OBJECTID":554559},"geometry":{"x":170797.56000000145,"y":2543103.9800000023}},{"attributes":{"ID":554587,"DIS_CODE":0,"TOWNNAME":"東區","LI":"裕農里","LIN":"21鄰","STREET":"裕豐街","SECT":" ","MAREA":" ","LANE":" ","ALLEY":" ","HOUSE_NO":"１８０號之１五樓","E_COORD97":170797.56,"N_COORD97":2543103.98,"ADDRESS":"裕豐街１８０號之１五樓","OBJECTID":554560},"geometry":{"x":170797.56000000145,"y":2543103.9800000023}},{"attributes":{"ID":554588,"DIS_CODE":0,"TOWNNAME":"東區","LI":"裕農里","LIN":"21鄰","STREET":"裕豐街","SECT":" ","MAREA":" ","LANE":" ","ALLEY":" ","HOUSE_NO":"１８２號之１二樓","E_COORD97":170796.47,"N_COORD97":2543110.1400000001,"ADDRESS":"裕豐街１８２號之１二樓","OBJECTID":554561},"geometry":{"x":170796.46999999974,"y":2543110.1400000025}},{"attributes":{"ID":554589,"DIS_CODE":0,"TOWNNAME":"東區","LI":"裕農里","LIN":"21鄰","STREET":"裕豐街","SECT":" ","MAREA":" ","LANE":" ","ALLEY":" ","HOUSE_NO":"１８２號之１三樓","E_COORD97":170796.47,"N_COORD97":2543110.1400000001,"ADDRESS":"裕豐街１８２號之１三樓","OBJECTID":554562},"geometry":{"x":170796.46999999974,"y":2543110.1400000025}},{"attributes":{"ID":554590,"DIS_CODE":0,"TOWNNAME":"東區","LI":"裕農里","LIN":"21鄰","STREET":"裕豐街","SECT":" ","MAREA":" ","LANE":" ","ALLEY":" ","HOUSE_NO":"１８２號之１四樓","E_COORD97":170796.47,"N_COORD97":2543110.1400000001,"ADDRESS":"裕豐街１８２號之１四樓","OBJECTID":554563},"geometry":{"x":170796.46999999974,"y":2543110.1400000025}},{"attributes":{"ID":554591,"DIS_CODE":0,"TOWNNAME":"東區","LI":"裕農里","LIN":"21鄰","STREET":"裕豐街","SECT":" ","MAREA":" ","LANE":" ","ALLEY":" ","HOUSE_NO":"１８２號之１五樓","E_COORD97":170796.47,"N_COORD97":2543110.1400000001,"ADDRESS":"裕豐街１８２號之１五樓","OBJECTID":554564},"geometry":{"x":170796.46999999974,"y":2543110.1400000025}},{"attributes":{"ID":554592,"DIS_CODE":0,"TOWNNAME":"永康區","LI":"西勢里","LIN":"16鄰","STREET":"西勢路","SECT":" ","MAREA":" ","LANE":" ","ALLEY":" ","HOUSE_NO":"４８號","E_COORD97":176184.10000000001,"N_COORD97":2546778.9199999999,"ADDRESS":"西勢路４８號","OBJECTID":554565},"geometry":{"x":176184.09999999963,"y":2546778.9200000018}},{"attributes":{"ID":554593,"DIS_CODE":0,"TOWNNAME":"東區","LI":"東明里","LIN":"21鄰","STREET":"東安路","SECT":" ","MAREA":" ","LANE":" ","ALLEY":" ","HOUSE_NO":"５０號六樓之１３","E_COORD97":170696.03,"N_COORD97":2543616.6800000002,"ADDRESS":"東安路５０號六樓之１３","OBJECTID":554566},"geometry":{"x":170696.03000000026,"y":2543616.6800000016}},{"attributes":{"ID":554594,"DIS_CODE":0,"TOWNNAME":"東區","LI":"東明里","LIN":"21鄰","STREET":"東安路","SECT":" ","MAREA":" ","LANE":" ","ALLEY":" ","HOUSE_NO":"５０號四樓之９","E_COORD97":170696.03,"N_COORD97":2543616.6800000002,"ADDRESS":"東安路５０號四樓之９","OBJECTID":554567},"geometry":{"x":170696.03000000026,"y":2543616.6800000016}},{"attributes":{"ID":554595,"DIS_CODE":0,"TOWNNAME":"安南區","LI":"溪北里","LIN":"21鄰","STREET":"郡安路","SECT":"四段","MAREA":" ","LANE":" ","ALLEY":" ","HOUSE_NO":"７６之１６號八樓","E_COORD97":169129.79000000001,"N_COORD97":2547582.7599999998,"ADDRESS":"郡安路四段７６之１６號八樓","OBJECTID":554568},"geometry":{"x":169129.79000000004,"y":2547582.7600000016}},{"attributes":{"ID":554596,"DIS_CODE":0,"TOWNNAME":"安南區","LI":"溪北里","LIN":"21鄰","STREET":"郡安路","SECT":"四段","MAREA":" ","LANE":" ","ALLEY":" ","HOUSE_NO":"７６號之１５二樓","E_COORD97":169124.41,"N_COORD97":2547587.6899999999,"ADDRESS":"郡安路四段７６號之１５二樓","OBJECTID":554569},"geometry":{"x":169124.41000000201,"y":2547587.6899999995}},{"attributes":{"ID":554597,"DIS_CODE":0,"TOWNNAME":"安南區","LI":"溪北里","LIN":"21鄰","STREET":"郡安路","SECT":"四段","MAREA":" ","LANE":" ","ALLEY":" ","HOUSE_NO":"７６號之１５八樓","E_COORD97":169124.41,"N_COORD97":2547587.6899999999,"ADDRESS":"郡安路四段７６號之１５八樓","OBJECTID":554570},"geometry":{"x":169124.41000000201,"y":2547587.6899999995}},{"attributes":{"ID":554598,"DIS_CODE":0,"TOWNNAME":"安南區","LI":"溪北里","LIN":"21鄰","STREET":"郡安路","SECT":"四段","MAREA":" ","LANE":" ","ALLEY":" ","HOUSE_NO":"７６號之１５十一樓","E_COORD97":169124.41,"N_COORD97":2547587.6899999999,"ADDRESS":"郡安路四段７６號之１５十一樓","OBJECTID":554571},"geometry":{"x":169124.41000000201,"y":2547587.6899999995}},{"attributes":{"ID":554599,"DIS_CODE":0,"TOWNNAME":"安南區","LI":"溪北里","LIN":"21鄰","STREET":"郡安路","SECT":"四段","MAREA":" ","LANE":" ","ALLEY":" ","HOUSE_NO":"７６號之１５十樓","E_COORD97":169124.41,"N_COORD97":2547587.6899999999,"ADDRESS":"郡安路四段７６號之１５十樓","OBJECTID":554572},"geometry":{"x":169124.41000000201,"y":2547587.6899999995}},{"attributes":{"ID":554600,"DIS_CODE":0,"TOWNNAME":"安南區","LI":"溪北里","LIN":"21鄰","STREET":"郡安路","SECT":"四段","MAREA":" ","LANE":" ","ALLEY":" ","HOUSE_NO":"７６號之１５三樓","E_COORD97":169124.41,"N_COORD97":2547587.6899999999,"ADDRESS":"郡安路四段７６號之１５三樓","OBJECTID":554573},"geometry":{"x":169124.41000000201,"y":2547587.6899999995}},{"attributes":{"ID":554601,"DIS_CODE":0,"TOWNNAME":"安南區","LI":"溪北里","LIN":"21鄰","STREET":"郡安路","SECT":"四段","MAREA":" ","LANE":" ","ALLEY":" ","HOUSE_NO":"７６號之１５五樓","E_COORD97":169124.41,"N_COORD97":2547587.6899999999,"ADDRESS":"郡安路四段７６號之１５五樓","OBJECTID":554574},"geometry":{"x":169124.41000000201,"y":2547587.6899999995}},{"attributes":{"ID":554602,"DIS_CODE":0,"TOWNNAME":"安南區","LI":"溪北里","LIN":"21鄰","STREET":"郡安路","SECT":"四段","MAREA":" ","LANE":" ","ALLEY":" ","HOUSE_NO":"７６號之１５六樓","E_COORD97":169124.41,"N_COORD97":2547587.6899999999,"ADDRESS":"郡安路四段７６號之１５六樓","OBJECTID":554575},"geometry":{"x":169124.41000000201,"y":2547587.6899999995}},{"attributes":{"ID":554603,"DIS_CODE":0,"TOWNNAME":"安南區","LI":"溪北里","LIN":"21鄰","STREET":"郡安路","SECT":"四段","MAREA":" ","LANE":" ","ALLEY":" ","HOUSE_NO":"７６號之１５四樓","E_COORD97":169124.41,"N_COORD97":2547587.6899999999,"ADDRESS":"郡安路四段７６號之１５四樓","OBJECTID":554576},"geometry":{"x":169124.41000000201,"y":2547587.6899999995}},{"attributes":{"ID":554604,"DIS_CODE":0,"TOWNNAME":"安南區","LI":"溪北里","LIN":"21鄰","STREET":"郡安路","SECT":"四段","MAREA":" ","LANE":" ","ALLEY":" ","HOUSE_NO":"７６號之１６七樓","E_COORD97":169129.79000000001,"N_COORD97":2547582.7599999998,"ADDRESS":"郡安路四段７６號之１６七樓","OBJECTID":554577},"geometry":{"x":169129.79000000004,"y":2547582.7600000016}},{"attributes":{"ID":554605,"DIS_CODE":0,"TOWNNAME":"安南區","LI":"溪北里","LIN":"21鄰","STREET":"郡安路","SECT":"四段","MAREA":" ","LANE":" ","ALLEY":" ","HOUSE_NO":"７６號之１６九樓","E_COORD97":169129.79000000001,"N_COORD97":2547582.7599999998,"ADDRESS":"郡安路四段７６號之１６九樓","OBJECTID":554578},"geometry":{"x":169129.79000000004,"y":2547582.7600000016}},{"attributes":{"ID":554606,"DIS_CODE":0,"TOWNNAME":"安南區","LI":"溪北里","LIN":"21鄰","STREET":"郡安路","SECT":"四段","MAREA":" ","LANE":" ","ALLEY":" ","HOUSE_NO":"７６號之１６十樓","E_COORD97":169129.79000000001,"N_COORD97":2547582.7599999998,"ADDRESS":"郡安路四段７６號之１６十樓","OBJECTID":554579},"geometry":{"x":169129.79000000004,"y":2547582.7600000016}},{"attributes":{"ID":554607,"DIS_CODE":0,"TOWNNAME":"安南區","LI":"溪北里","LIN":"21鄰","STREET":"郡安路","SECT":"四段","MAREA":" ","LANE":" ","ALLEY":" ","HOUSE_NO":"７６號之１６三樓","E_COORD97":169129.79000000001,"N_COORD97":2547582.7599999998,"ADDRESS":"郡安路四段７６號之１６三樓","OBJECTID":554580},"geometry":{"x":169129.79000000004,"y":2547582.7600000016}},{"attributes":{"ID":554608,"DIS_CODE":0,"TOWNNAME":"安南區","LI":"溪北里","LIN":"21鄰","STREET":"郡安路","SECT":"四段","MAREA":" ","LANE":" ","ALLEY":" ","HOUSE_NO":"７６號之１６五樓","E_COORD97":169129.79000000001,"N_COORD97":2547582.7599999998,"ADDRESS":"郡安路四段７６號之１６五樓","OBJECTID":554581},"geometry":{"x":169129.79000000004,"y":2547582.7600000016}},{"attributes":{"ID":554609,"DIS_CODE":0,"TOWNNAME":"安南區","LI":"溪北里","LIN":"21鄰","STREET":"郡安路","SECT":"四段","MAREA":" ","LANE":" ","ALLEY":" ","HOUSE_NO":"７６號之１６六樓","E_COORD97":169129.79000000001,"N_COORD97":2547582.7599999998,"ADDRESS":"郡安路四段７６號之１６六樓","OBJECTID":554582},"geometry":{"x":169129.79000000004,"y":2547582.7600000016}},{"attributes":{"ID":554610,"DIS_CODE":0,"TOWNNAME":"安南區","LI":"溪北里","LIN":"21鄰","STREET":"郡安路","SECT":"四段","MAREA":" ","LANE":" ","ALLEY":" ","HOUSE_NO":"７６號之１６四樓","E_COORD97":169129.79000000001,"N_COORD97":2547582.7599999998,"ADDRESS":"郡安路四段７６號之１６四樓","OBJECTID":554583},"geometry":{"x":169129.79000000004,"y":2547582.7600000016}},{"attributes":{"ID":554611,"DIS_CODE":0,"TOWNNAME":"安南區","LI":"溪北里","LIN":"21鄰","STREET":"郡安路","SECT":"四段","MAREA":" ","LANE":" ","ALLEY":" ","HOUSE_NO":"７６號之１７九樓","E_COORD97":169123.88,"N_COORD97":2547576.3599999999,"ADDRESS":"郡安路四段７６號之１７九樓","OBJECTID":554584},"geometry":{"x":169123.87999999989,"y":2547576.3599999994}},{"attributes":{"ID":554612,"DIS_CODE":0,"TOWNNAME":"安南區","LI":"溪北里","LIN":"21鄰","STREET":"郡安路","SECT":"四段","MAREA":" ","LANE":" ","ALLEY":" ","HOUSE_NO":"７６號之１７二樓","E_COORD97":169123.88,"N_COORD97":2547576.3599999999,"ADDRESS":"郡安路四段７６號之１７二樓","OBJECTID":554585},"geometry":{"x":169123.87999999989,"y":2547576.3599999994}},{"attributes":{"ID":554613,"DIS_CODE":0,"TOWNNAME":"安南區","LI":"溪北里","LIN":"21鄰","STREET":"郡安路","SECT":"四段","MAREA":" ","LANE":" ","ALLEY":" ","HOUSE_NO":"７６號之１７八樓","E_COORD97":169123.88,"N_COORD97":2547576.3599999999,"ADDRESS":"郡安路四段７６號之１７八樓","OBJECTID":554586},"geometry":{"x":169123.87999999989,"y":2547576.3599999994}},{"attributes":{"ID":554614,"DIS_CODE":0,"TOWNNAME":"安南區","LI":"溪北里","LIN":"21鄰","STREET":"郡安路","SECT":"四段","MAREA":" ","LANE":" ","ALLEY":" ","HOUSE_NO":"７６號之１７十樓","E_COORD97":169123.88,"N_COORD97":2547576.3599999999,"ADDRESS":"郡安路四段７６號之１７十樓","OBJECTID":554587},"geometry":{"x":169123.87999999989,"y":2547576.3599999994}},{"attributes":{"ID":554615,"DIS_CODE":0,"TOWNNAME":"安南區","LI":"溪北里","LIN":"21鄰","STREET":"郡安路","SECT":"四段","MAREA":" ","LANE":" ","ALLEY":" ","HOUSE_NO":"７６號之１７三樓","E_COORD97":169123.88,"N_COORD97":2547576.3599999999,"ADDRESS":"郡安路四段７６號之１７三樓","OBJECTID":554588},"geometry":{"x":169123.87999999989,"y":2547576.3599999994}},{"attributes":{"ID":554616,"DIS_CODE":0,"TOWNNAME":"安南區","LI":"溪北里","LIN":"21鄰","STREET":"郡安路","SECT":"四段","MAREA":" ","LANE":" ","ALLEY":" ","HOUSE_NO":"７６號之１７五樓","E_COORD97":169123.88,"N_COORD97":2547576.3599999999,"ADDRESS":"郡安路四段７６號之１７五樓","OBJECTID":554589},"geometry":{"x":169123.87999999989,"y":2547576.3599999994}},{"attributes":{"ID":554617,"DIS_CODE":0,"TOWNNAME":"安南區","LI":"溪北里","LIN":"21鄰","STREET":"郡安路","SECT":"四段","MAREA":" ","LANE":" ","ALLEY":" ","HOUSE_NO":"７６號之１７四樓","E_COORD97":169123.88,"N_COORD97":2547576.3599999999,"ADDRESS":"郡安路四段７６號之１７四樓","OBJECTID":554590},"geometry":{"x":169123.87999999989,"y":2547576.3599999994}},{"attributes":{"ID":554618,"DIS_CODE":0,"TOWNNAME":"安南區","LI":"溪北里","LIN":"21鄰","STREET":"郡安路","SECT":"四段","MAREA":" ","LANE":" ","ALLEY":" ","HOUSE_NO":"７６號之１８七樓","E_COORD97":169123.79000000001,"N_COORD97":2547568.4500000002,"ADDRESS":"郡安路四段７６號之１８七樓","OBJECTID":554591},"geometry":{"x":169123.79000000097,"y":2547568.4499999993}},{"attributes":{"ID":554619,"DIS_CODE":0,"TOWNNAME":"安南區","LI":"溪北里","LIN":"21鄰","STREET":"郡安路","SECT":"四段","MAREA":" ","LANE":" ","ALLEY":" ","HOUSE_NO":"７６號之１８九樓","E_COORD97":169123.79000000001,"N_COORD97":2547568.4500000002,"ADDRESS":"郡安路四段７６號之１８九樓","OBJECTID":554592},"geometry":{"x":169123.79000000097,"y":2547568.4499999993}},{"attributes":{"ID":554620,"DIS_CODE":0,"TOWNNAME":"安南區","LI":"溪北里","LIN":"21鄰","STREET":"郡安路","SECT":"四段","MAREA":" ","LANE":" ","ALLEY":" ","HOUSE_NO":"７６號之１８八樓","E_COORD97":169123.79000000001,"N_COORD97":2547568.4500000002,"ADDRESS":"郡安路四段７６號之１８八樓","OBJECTID":554593},"geometry":{"x":169123.79000000097,"y":2547568.4499999993}},{"attributes":{"ID":554621,"DIS_CODE":0,"TOWNNAME":"安南區","LI":"溪北里","LIN":"21鄰","STREET":"郡安路","SECT":"四段","MAREA":" ","LANE":" ","ALLEY":" ","HOUSE_NO":"７６號之１８十樓","E_COORD97":169123.79000000001,"N_COORD97":2547568.4500000002,"ADDRESS":"郡安路四段７６號之１８十樓","OBJECTID":554594},"geometry":{"x":169123.79000000097,"y":2547568.4499999993}},{"attributes":{"ID":554622,"DIS_CODE":0,"TOWNNAME":"永康區","LI":"網寮里","LIN":"21鄰","STREET":"文化路","SECT":" ","MAREA":" ","LANE":" ","ALLEY":" ","HOUSE_NO":"２３０號七樓之１","E_COORD97":173614.26000000001,"N_COORD97":2546146.7799999998,"ADDRESS":"文化路２３０號七樓之１","OBJECTID":554595},"geometry":{"x":173614.26000000071,"y":2546146.7799999993}},{"attributes":{"ID":554623,"DIS_CODE":0,"TOWNNAME":"東區","LI":"東明里","LIN":"21鄰","STREET":"東安路","SECT":" ","MAREA":" ","LANE":" ","ALLEY":" ","HOUSE_NO":"５０號六樓之９","E_COORD97":170696.03,"N_COORD97":2543616.6800000002,"ADDRESS":"東安路５０號六樓之９","OBJECTID":554596},"geometry":{"x":170696.03000000026,"y":2543616.6800000016}},{"attributes":{"ID":554624,"DIS_CODE":0,"TOWNNAME":"東區","LI":"東明里","LIN":"21鄰","STREET":"東安路","SECT":" ","MAREA":" ","LANE":" ","ALLEY":" ","HOUSE_NO":"５０號五樓之１３","E_COORD97":170696.03,"N_COORD97":2543616.6800000002,"ADDRESS":"東安路５０號五樓之１３","OBJECTID":554597},"geometry":{"x":170696.03000000026,"y":2543616.6800000016}},{"attributes":{"ID":554625,"DIS_CODE":0,"TOWNNAME":"東區","LI":"東明里","LIN":"21鄰","STREET":"東安路","SECT":" ","MAREA":" ","LANE":" ","ALLEY":" ","HOUSE_NO":"５０號四樓之１１","E_COORD97":170696.03,"N_COORD97":2543616.6800000002,"ADDRESS":"東安路５０號四樓之１１","OBJECTID":554598},"geometry":{"x":170696.03000000026,"y":2543616.6800000016}},{"attributes":{"ID":554626,"DIS_CODE":0,"TOWNNAME":"東區","LI":"東明里","LIN":"21鄰","STREET":"東安路","SECT":" ","MAREA":" ","LANE":" ","ALLEY":" ","HOUSE_NO":"５０號四樓之３","E_COORD97":170696.03,"N_COORD97":2543616.6800000002,"ADDRESS":"東安路５０號四樓之３","OBJECTID":554599},"geometry":{"x":170696.03000000026,"y":2543616.6800000016}},{"attributes":{"ID":554627,"DIS_CODE":0,"TOWNNAME":"東區","LI":"東明里","LIN":"21鄰","STREET":"東安路","SECT":" ","MAREA":" ","LANE":" ","ALLEY":" ","HOUSE_NO":"５０號四樓之７","E_COORD97":170696.03,"N_COORD97":2543616.6800000002,"ADDRESS":"東安路５０號四樓之７","OBJECTID":554600},"geometry":{"x":170696.03000000026,"y":2543616.6800000016}}]}