{"displayFieldName":"TOWNNAME","fieldAliases":{"ID":"ID","DIS_CODE":"DIS_CODE","TOWNNAME":"TOWNNAME","LI":"LI","LIN":"LIN","STREET":"STREET","SECT":"SECT","MAREA":"MAREA","LANE":"LANE","ALLEY":"ALLEY","HOUSE_NO":"HOUSE_NO","E_COORD97":"E_COORD97","N_COORD97":"N_COORD97","ADDRESS":"ADDRESS","OBJECTID":"OBJECTID"},"geometryType":"esriGeometryPoint","spatialReference":{"wkid":102443,"latestWkid":3826},"fields":[{"name":"ID","type":"esriFieldTypeDouble","alias":"ID"},{"name":"DIS_CODE","type":"esriFieldTypeInteger","alias":"DIS_CODE"},{"name":"TOWNNAME","type":"esriFieldTypeString","alias":"TOWNNAME","length":8},{"name":"LI","type":"esriFieldTypeString","alias":"LI","length":8},{"name":"LIN","type":"esriFieldTypeString","alias":"LIN","length":12},{"name":"STREET","type":"esriFieldTypeString","alias":"STREET","length":20},{"name":"SECT","type":"esriFieldTypeString","alias":"SECT","length":8},{"name":"MAREA","type":"esriFieldTypeString","alias":"MAREA","length":12},{"name":"LANE","type":"esriFieldTypeString","alias":"LANE","length":10},{"name":"ALLEY","type":"esriFieldTypeString","alias":"ALLEY","length":10},{"name":"HOUSE_NO","type":"esriFieldTypeString","alias":"HOUSE_NO","length":20},{"name":"E_COORD97","type":"esriFieldTypeDouble","alias":"E_COORD97"},{"name":"N_COORD97","type":"esriFieldTypeDouble","alias":"N_COORD97"},{"name":"ADDRESS","type":"esriFieldTypeString","alias":"ADDRESS","length":50},{"name":"OBJECTID","type":"esriFieldTypeOID","alias":"OBJECTID"}],"features":[{"attributes":{"ID":293809,"DIS_CODE":0,"TOWNNAME":"永康區","LI":"南灣里","LIN":"20鄰","STREET":"立興街","SECT":" ","MAREA":" ","LANE":"１７８巷","ALLEY":" ","HOUSE_NO":"１０號","E_COORD97":174260.54000000001,"N_COORD97":2544613.8500000001,"ADDRESS":"立興街１７８巷１０號","OBJECTID":293801},"geometry":{"x":174260.54000000097,"y":2544613.8499999996}},{"attributes":{"ID":293810,"DIS_CODE":0,"TOWNNAME":"永康區","LI":"大橋里","LIN":"26鄰","STREET":"大橋一街","SECT":" ","MAREA":" ","LANE":"２４７巷","ALLEY":" ","HOUSE_NO":"５２號","E_COORD97":171234.19,"N_COORD97":2546782.4900000002,"ADDRESS":"大橋一街２４７巷５２號","OBJECTID":293802},"geometry":{"x":171234.19000000041,"y":2546782.4900000021}},{"attributes":{"ID":293811,"DIS_CODE":0,"TOWNNAME":"新營區","LI":"南紙里","LIN":"14鄰","STREET":"南紙街","SECT":" ","MAREA":" ","LANE":" ","ALLEY":" ","HOUSE_NO":"１０６號","E_COORD97":177796.53,"N_COORD97":2577462.5499999998,"ADDRESS":"南紙街１０６號","OBJECTID":293803},"geometry":{"x":177796.53000000119,"y":2577462.5500000007}},{"attributes":{"ID":293812,"DIS_CODE":0,"TOWNNAME":"新營區","LI":"三仙里","LIN":"14鄰","STREET":"武昌街","SECT":" ","MAREA":" ","LANE":" ","ALLEY":" ","HOUSE_NO":"７１號","E_COORD97":179529.04000000001,"N_COORD97":2578290.3300000001,"ADDRESS":"武昌街７１號","OBJECTID":293804},"geometry":{"x":179529.04000000097,"y":2578290.3300000019}},{"attributes":{"ID":293813,"DIS_CODE":0,"TOWNNAME":"新營區","LI":"三仙里","LIN":"14鄰","STREET":"武昌街","SECT":" ","MAREA":" ","LANE":" ","ALLEY":" ","HOUSE_NO":"７１號之５","E_COORD97":179545.56,"N_COORD97":2578271.4900000002,"ADDRESS":"武昌街７１號之５","OBJECTID":293805},"geometry":{"x":179545.56000000052,"y":2578271.4900000021}},{"attributes":{"ID":293814,"DIS_CODE":0,"TOWNNAME":"新營區","LI":"三仙里","LIN":"14鄰","STREET":"武昌街","SECT":" ","MAREA":" ","LANE":" ","ALLEY":" ","HOUSE_NO":"７１號之１","E_COORD97":179535.26000000001,"N_COORD97":2578291.4700000002,"ADDRESS":"武昌街７１號之１","OBJECTID":293806},"geometry":{"x":179535.26000000164,"y":2578291.4699999988}},{"attributes":{"ID":293815,"DIS_CODE":0,"TOWNNAME":"新營區","LI":"三仙里","LIN":"14鄰","STREET":"中華路","SECT":" ","MAREA":" ","LANE":" ","ALLEY":" ","HOUSE_NO":"６２號","E_COORD97":179557.20999999999,"N_COORD97":2578197.1699999999,"ADDRESS":"中華路６２號","OBJECTID":293807},"geometry":{"x":179557.20999999996,"y":2578197.1699999999}},{"attributes":{"ID":293816,"DIS_CODE":0,"TOWNNAME":"新營區","LI":"三仙里","LIN":"14鄰","STREET":"中華路","SECT":" ","MAREA":" ","LANE":" ","ALLEY":" ","HOUSE_NO":"６４號之３","E_COORD97":179535.89999999999,"N_COORD97":2578194.0099999998,"ADDRESS":"中華路６４號之３","OBJECTID":293808},"geometry":{"x":179535.90000000037,"y":2578194.0099999998}},{"attributes":{"ID":293817,"DIS_CODE":0,"TOWNNAME":"歸仁區","LI":"文化里","LIN":"14鄰","STREET":"文化北二街","SECT":" ","MAREA":" ","LANE":" ","ALLEY":" ","HOUSE_NO":"１０號","E_COORD97":177223.07000000001,"N_COORD97":2541443.2599999998,"ADDRESS":"文化北二街１０號","OBJECTID":293809},"geometry":{"x":177223.07000000216,"y":2541443.2600000016}},{"attributes":{"ID":293818,"DIS_CODE":0,"TOWNNAME":"歸仁區","LI":"六甲里","LIN":"14鄰","STREET":"六甲一街","SECT":" ","MAREA":" ","LANE":" ","ALLEY":" ","HOUSE_NO":"３３號","E_COORD97":175851.47,"N_COORD97":2539126.25,"ADDRESS":"六甲一街３３號","OBJECTID":293810},"geometry":{"x":175851.46999999974,"y":2539126.25}},{"attributes":{"ID":293819,"DIS_CODE":0,"TOWNNAME":"歸仁區","LI":"六甲里","LIN":"14鄰","STREET":"六甲路","SECT":" ","MAREA":" ","LANE":" ","ALLEY":" ","HOUSE_NO":"２６５號","E_COORD97":175871.37,"N_COORD97":2539209.25,"ADDRESS":"六甲路２６５號","OBJECTID":293811},"geometry":{"x":175871.36999999918,"y":2539209.2500000019}},{"attributes":{"ID":293820,"DIS_CODE":0,"TOWNNAME":"歸仁區","LI":"歸仁里","LIN":"14鄰","STREET":"信義北路","SECT":" ","MAREA":" ","LANE":" ","ALLEY":" ","HOUSE_NO":"１１０號","E_COORD97":177972.79000000001,"N_COORD97":2541092.1099999999,"ADDRESS":"信義北路１１０號","OBJECTID":293812},"geometry":{"x":177972.79000000097,"y":2541092.1099999994}},{"attributes":{"ID":293821,"DIS_CODE":0,"TOWNNAME":"歸仁區","LI":"南興里","LIN":"14鄰","STREET":"文化街","SECT":"三段","MAREA":" ","LANE":" ","ALLEY":" ","HOUSE_NO":"５１８號","E_COORD97":175814.04000000001,"N_COORD97":2541215.3300000001,"ADDRESS":"文化街三段５１８號","OBJECTID":293813},"geometry":{"x":175814.04000000004,"y":2541215.3300000019}},{"attributes":{"ID":293822,"DIS_CODE":0,"TOWNNAME":"歸仁區","LI":"八甲里","LIN":"14鄰","STREET":"大明三街","SECT":" ","MAREA":" ","LANE":" ","ALLEY":" ","HOUSE_NO":"６９號","E_COORD97":178058.92000000001,"N_COORD97":2541711.6099999999,"ADDRESS":"大明三街６９號","OBJECTID":293814},"geometry":{"x":178058.91999999993,"y":2541711.6100000013}},{"attributes":{"ID":293823,"DIS_CODE":0,"TOWNNAME":"關廟區","LI":"北花里","LIN":"14鄰","STREET":"中正路","SECT":" ","MAREA":" ","LANE":" ","ALLEY":" ","HOUSE_NO":"５７６號","E_COORD97":181990.95999999999,"N_COORD97":2540400.25,"ADDRESS":"中正路５７６號","OBJECTID":293815},"geometry":{"x":181990.96000000089,"y":2540400.25}},{"attributes":{"ID":293824,"DIS_CODE":0,"TOWNNAME":"永康區","LI":"西灣里","LIN":"25鄰","STREET":"國光七街","SECT":" ","MAREA":" ","LANE":"２０巷","ALLEY":" ","HOUSE_NO":"１９號","E_COORD97":174326.04000000001,"N_COORD97":2545621.3999999999,"ADDRESS":"國光七街２０巷１９號","OBJECTID":293816},"geometry":{"x":174326.0400000019,"y":2545621.4000000004}},{"attributes":{"ID":293825,"DIS_CODE":0,"TOWNNAME":"永康區","LI":"西橋里","LIN":"4鄰","STREET":"中山南路","SECT":" ","MAREA":" ","LANE":"４３巷","ALLEY":" ","HOUSE_NO":"１０號","E_COORD97":170750.19,"N_COORD97":2545872.3900000001,"ADDRESS":"中山南路４３巷１０號","OBJECTID":293817},"geometry":{"x":170750.19000000227,"y":2545872.3900000006}},{"attributes":{"ID":293826,"DIS_CODE":0,"TOWNNAME":"東區","LI":"小東里","LIN":"17鄰","STREET":"光明街","SECT":" ","MAREA":" ","LANE":"１０２巷","ALLEY":" ","HOUSE_NO":"８號二樓","E_COORD97":170875.13,"N_COORD97":2544075.3700000001,"ADDRESS":"光明街１０２巷８號二樓","OBJECTID":293818},"geometry":{"x":170875.12999999989,"y":2544075.3700000029}},{"attributes":{"ID":293827,"DIS_CODE":0,"TOWNNAME":"東區","LI":"小東里","LIN":"17鄰","STREET":"光明街","SECT":" ","MAREA":" ","LANE":"１０２巷","ALLEY":" ","HOUSE_NO":"８號三樓","E_COORD97":170875.13,"N_COORD97":2544075.3700000001,"ADDRESS":"光明街１０２巷８號三樓","OBJECTID":293819},"geometry":{"x":170875.12999999989,"y":2544075.3700000029}},{"attributes":{"ID":293828,"DIS_CODE":0,"TOWNNAME":"東區","LI":"小東里","LIN":"17鄰","STREET":"光明街","SECT":" ","MAREA":" ","LANE":"１０２巷","ALLEY":" ","HOUSE_NO":"８號四樓","E_COORD97":170875.13,"N_COORD97":2544075.3700000001,"ADDRESS":"光明街１０２巷８號四樓","OBJECTID":293820},"geometry":{"x":170875.12999999989,"y":2544075.3700000029}},{"attributes":{"ID":293829,"DIS_CODE":0,"TOWNNAME":"東區","LI":"小東里","LIN":"17鄰","STREET":"光明街","SECT":" ","MAREA":" ","LANE":"１０２巷","ALLEY":" ","HOUSE_NO":"８號五樓","E_COORD97":170875.13,"N_COORD97":2544075.3700000001,"ADDRESS":"光明街１０２巷８號五樓","OBJECTID":293821},"geometry":{"x":170875.12999999989,"y":2544075.3700000029}},{"attributes":{"ID":293830,"DIS_CODE":0,"TOWNNAME":"東區","LI":"小東里","LIN":"17鄰","STREET":"光明街","SECT":" ","MAREA":" ","LANE":"１０２巷","ALLEY":" ","HOUSE_NO":"８號六樓","E_COORD97":170875.13,"N_COORD97":2544075.3700000001,"ADDRESS":"光明街１０２巷８號六樓","OBJECTID":293822},"geometry":{"x":170875.12999999989,"y":2544075.3700000029}},{"attributes":{"ID":293831,"DIS_CODE":0,"TOWNNAME":"東區","LI":"小東里","LIN":"17鄰","STREET":"光明街","SECT":" ","MAREA":" ","LANE":"１０２巷","ALLEY":" ","HOUSE_NO":"８號七樓","E_COORD97":170875.13,"N_COORD97":2544075.3700000001,"ADDRESS":"光明街１０２巷８號七樓","OBJECTID":293823},"geometry":{"x":170875.12999999989,"y":2544075.3700000029}},{"attributes":{"ID":293832,"DIS_CODE":0,"TOWNNAME":"東區","LI":"小東里","LIN":"17鄰","STREET":"光明街","SECT":" ","MAREA":" ","LANE":"１０２巷","ALLEY":" ","HOUSE_NO":"８號八樓","E_COORD97":170875.13,"N_COORD97":2544075.3700000001,"ADDRESS":"光明街１０２巷８號八樓","OBJECTID":293824},"geometry":{"x":170875.12999999989,"y":2544075.3700000029}},{"attributes":{"ID":293833,"DIS_CODE":0,"TOWNNAME":"東區","LI":"小東里","LIN":"17鄰","STREET":"光明街","SECT":" ","MAREA":" ","LANE":"１０２巷","ALLEY":" ","HOUSE_NO":"８號九樓","E_COORD97":170875.13,"N_COORD97":2544075.3700000001,"ADDRESS":"光明街１０２巷８號九樓","OBJECTID":293825},"geometry":{"x":170875.12999999989,"y":2544075.3700000029}},{"attributes":{"ID":293834,"DIS_CODE":0,"TOWNNAME":"東區","LI":"小東里","LIN":"17鄰","STREET":"光明街","SECT":" ","MAREA":" ","LANE":"１０２巷","ALLEY":" ","HOUSE_NO":"８號十樓","E_COORD97":170875.13,"N_COORD97":2544075.3700000001,"ADDRESS":"光明街１０２巷８號十樓","OBJECTID":293826},"geometry":{"x":170875.12999999989,"y":2544075.3700000029}},{"attributes":{"ID":293835,"DIS_CODE":0,"TOWNNAME":"東區","LI":"小東里","LIN":"17鄰","STREET":"光明街","SECT":" ","MAREA":" ","LANE":"１０２巷","ALLEY":" ","HOUSE_NO":"８號十一樓","E_COORD97":170875.13,"N_COORD97":2544075.3700000001,"ADDRESS":"光明街１０２巷８號十一樓","OBJECTID":293827},"geometry":{"x":170875.12999999989,"y":2544075.3700000029}},{"attributes":{"ID":293836,"DIS_CODE":0,"TOWNNAME":"東區","LI":"小東里","LIN":"17鄰","STREET":"光明街","SECT":" ","MAREA":" ","LANE":"１０２巷","ALLEY":" ","HOUSE_NO":"８號十二樓","E_COORD97":170875.13,"N_COORD97":2544075.3700000001,"ADDRESS":"光明街１０２巷８號十二樓","OBJECTID":293828},"geometry":{"x":170875.12999999989,"y":2544075.3700000029}},{"attributes":{"ID":293837,"DIS_CODE":0,"TOWNNAME":"東區","LI":"小東里","LIN":"17鄰","STREET":"光明街","SECT":" ","MAREA":" ","LANE":"１０２巷","ALLEY":" ","HOUSE_NO":"１０號二樓","E_COORD97":170864.79000000001,"N_COORD97":2544075.9199999999,"ADDRESS":"光明街１０２巷１０號二樓","OBJECTID":293829},"geometry":{"x":170864.79000000097,"y":2544075.9200000018}},{"attributes":{"ID":293838,"DIS_CODE":0,"TOWNNAME":"東區","LI":"小東里","LIN":"17鄰","STREET":"光明街","SECT":" ","MAREA":" ","LANE":"１０２巷","ALLEY":" ","HOUSE_NO":"１０號三樓","E_COORD97":170864.79000000001,"N_COORD97":2544075.9199999999,"ADDRESS":"光明街１０２巷１０號三樓","OBJECTID":293830},"geometry":{"x":170864.79000000097,"y":2544075.9200000018}},{"attributes":{"ID":293839,"DIS_CODE":0,"TOWNNAME":"東區","LI":"小東里","LIN":"17鄰","STREET":"光明街","SECT":" ","MAREA":" ","LANE":"１０２巷","ALLEY":" ","HOUSE_NO":"１０號四樓","E_COORD97":170864.79000000001,"N_COORD97":2544075.9199999999,"ADDRESS":"光明街１０２巷１０號四樓","OBJECTID":293831},"geometry":{"x":170864.79000000097,"y":2544075.9200000018}},{"attributes":{"ID":293840,"DIS_CODE":0,"TOWNNAME":"東區","LI":"小東里","LIN":"17鄰","STREET":"光明街","SECT":" ","MAREA":" ","LANE":"１０２巷","ALLEY":" ","HOUSE_NO":"１０號五樓","E_COORD97":170864.79000000001,"N_COORD97":2544075.9199999999,"ADDRESS":"光明街１０２巷１０號五樓","OBJECTID":293832},"geometry":{"x":170864.79000000097,"y":2544075.9200000018}},{"attributes":{"ID":293841,"DIS_CODE":0,"TOWNNAME":"東區","LI":"小東里","LIN":"17鄰","STREET":"光明街","SECT":" ","MAREA":" ","LANE":"１０２巷","ALLEY":" ","HOUSE_NO":"１０號六樓","E_COORD97":170864.79000000001,"N_COORD97":2544075.9199999999,"ADDRESS":"光明街１０２巷１０號六樓","OBJECTID":293833},"geometry":{"x":170864.79000000097,"y":2544075.9200000018}},{"attributes":{"ID":293842,"DIS_CODE":0,"TOWNNAME":"東區","LI":"小東里","LIN":"17鄰","STREET":"光明街","SECT":" ","MAREA":" ","LANE":"１０２巷","ALLEY":" ","HOUSE_NO":"１０號七樓","E_COORD97":170864.79000000001,"N_COORD97":2544075.9199999999,"ADDRESS":"光明街１０２巷１０號七樓","OBJECTID":293834},"geometry":{"x":170864.79000000097,"y":2544075.9200000018}},{"attributes":{"ID":293843,"DIS_CODE":0,"TOWNNAME":"東區","LI":"小東里","LIN":"17鄰","STREET":"光明街","SECT":" ","MAREA":" ","LANE":"１０２巷","ALLEY":" ","HOUSE_NO":"１０號八樓","E_COORD97":170864.79000000001,"N_COORD97":2544075.9199999999,"ADDRESS":"光明街１０２巷１０號八樓","OBJECTID":293835},"geometry":{"x":170864.79000000097,"y":2544075.9200000018}},{"attributes":{"ID":293844,"DIS_CODE":0,"TOWNNAME":"東區","LI":"小東里","LIN":"17鄰","STREET":"光明街","SECT":" ","MAREA":" ","LANE":"１０２巷","ALLEY":" ","HOUSE_NO":"１０號九樓","E_COORD97":170864.79000000001,"N_COORD97":2544075.9199999999,"ADDRESS":"光明街１０２巷１０號九樓","OBJECTID":293836},"geometry":{"x":170864.79000000097,"y":2544075.9200000018}},{"attributes":{"ID":293845,"DIS_CODE":0,"TOWNNAME":"東區","LI":"小東里","LIN":"17鄰","STREET":"光明街","SECT":" ","MAREA":" ","LANE":"１０２巷","ALLEY":" ","HOUSE_NO":"１０號十樓","E_COORD97":170864.79000000001,"N_COORD97":2544075.9199999999,"ADDRESS":"光明街１０２巷１０號十樓","OBJECTID":293837},"geometry":{"x":170864.79000000097,"y":2544075.9200000018}},{"attributes":{"ID":293846,"DIS_CODE":0,"TOWNNAME":"東區","LI":"小東里","LIN":"17鄰","STREET":"光明街","SECT":" ","MAREA":" ","LANE":"１０２巷","ALLEY":" ","HOUSE_NO":"１０號十一樓","E_COORD97":170864.79000000001,"N_COORD97":2544075.9199999999,"ADDRESS":"光明街１０２巷１０號十一樓","OBJECTID":293838},"geometry":{"x":170864.79000000097,"y":2544075.9200000018}},{"attributes":{"ID":293847,"DIS_CODE":0,"TOWNNAME":"東區","LI":"小東里","LIN":"17鄰","STREET":"光明街","SECT":" ","MAREA":" ","LANE":"１０２巷","ALLEY":" ","HOUSE_NO":"１０號十二樓","E_COORD97":170864.79000000001,"N_COORD97":2544075.9199999999,"ADDRESS":"光明街１０２巷１０號十二樓","OBJECTID":293839},"geometry":{"x":170864.79000000097,"y":2544075.9200000018}},{"attributes":{"ID":293848,"DIS_CODE":0,"TOWNNAME":"東區","LI":"小東里","LIN":"17鄰","STREET":"光明街","SECT":" ","MAREA":" ","LANE":"１０２巷","ALLEY":" ","HOUSE_NO":"１２號二樓","E_COORD97":170838.14000000001,"N_COORD97":2544076.46,"ADDRESS":"光明街１０２巷１２號二樓","OBJECTID":293840},"geometry":{"x":170838.1400000006,"y":2544076.4600000046}},{"attributes":{"ID":293849,"DIS_CODE":0,"TOWNNAME":"東區","LI":"小東里","LIN":"17鄰","STREET":"光明街","SECT":" ","MAREA":" ","LANE":"１０２巷","ALLEY":" ","HOUSE_NO":"１２號三樓","E_COORD97":170838.14000000001,"N_COORD97":2544076.46,"ADDRESS":"光明街１０２巷１２號三樓","OBJECTID":293841},"geometry":{"x":170838.1400000006,"y":2544076.4600000046}},{"attributes":{"ID":293850,"DIS_CODE":0,"TOWNNAME":"關廟區","LI":"山西里","LIN":"14鄰","STREET":"崇尚街","SECT":" ","MAREA":" ","LANE":" ","ALLEY":" ","HOUSE_NO":"６２號","E_COORD97":180999.51999999999,"N_COORD97":2540548.25,"ADDRESS":"崇尚街６２號","OBJECTID":293842},"geometry":{"x":180999.52000000142,"y":2540548.2500000019}},{"attributes":{"ID":293851,"DIS_CODE":0,"TOWNNAME":"關廟區","LI":"東勢里","LIN":"14鄰","STREET":"東榮街","SECT":" ","MAREA":" ","LANE":" ","ALLEY":" ","HOUSE_NO":"１４０號","E_COORD97":182163.76999999999,"N_COORD97":2539349.25,"ADDRESS":"東榮街１４０號","OBJECTID":293843},"geometry":{"x":182163.76999999955,"y":2539349.25}},{"attributes":{"ID":293852,"DIS_CODE":0,"TOWNNAME":"永康區","LI":"北灣里","LIN":"4鄰","STREET":"信義街","SECT":" ","MAREA":" ","LANE":"９４巷","ALLEY":" ","HOUSE_NO":"１０號","E_COORD97":175292.97,"N_COORD97":2545693.7599999998,"ADDRESS":"信義街９４巷１０號","OBJECTID":293844},"geometry":{"x":175292.97000000067,"y":2545693.7600000035}},{"attributes":{"ID":293853,"DIS_CODE":0,"TOWNNAME":"仁德區","LI":"太子里","LIN":"17鄰","STREET":"長興四街","SECT":" ","MAREA":" ","LANE":" ","ALLEY":" ","HOUSE_NO":"４５號","E_COORD97":174015.836989,"N_COORD97":2543591.4739899999,"ADDRESS":"長興四街４５號","OBJECTID":293845},"geometry":{"x":174015.8369890023,"y":2543591.473988004}},{"attributes":{"ID":293854,"DIS_CODE":0,"TOWNNAME":"東區","LI":"自強里","LIN":"23鄰","STREET":"富農街","SECT":"一段","MAREA":" ","LANE":"１９１巷","ALLEY":" ","HOUSE_NO":"１２號","E_COORD97":171499.13,"N_COORD97":2542594.0699999998,"ADDRESS":"富農街一段１９１巷１２號","OBJECTID":293846},"geometry":{"x":171499.12999999989,"y":2542594.0700000022}},{"attributes":{"ID":293855,"DIS_CODE":0,"TOWNNAME":"東區","LI":"自強里","LIN":"23鄰","STREET":"富農街","SECT":"一段","MAREA":" ","LANE":"１９１巷","ALLEY":" ","HOUSE_NO":"１４號","E_COORD97":171490.37,"N_COORD97":2542593.8100000001,"ADDRESS":"富農街一段１９１巷１４號","OBJECTID":293847},"geometry":{"x":171490.37000000011,"y":2542593.8100000005}},{"attributes":{"ID":293856,"DIS_CODE":0,"TOWNNAME":"東區","LI":"自強里","LIN":"23鄰","STREET":"富農街","SECT":"一段","MAREA":" ","LANE":"１９１巷","ALLEY":" ","HOUSE_NO":"１６號","E_COORD97":171482.63,"N_COORD97":2542594.0699999998,"ADDRESS":"富農街一段１９１巷１６號","OBJECTID":293848},"geometry":{"x":171482.63000000082,"y":2542594.0700000022}},{"attributes":{"ID":293857,"DIS_CODE":0,"TOWNNAME":"東區","LI":"自強里","LIN":"22鄰","STREET":"富農街","SECT":"一段","MAREA":" ","LANE":"１５３巷","ALLEY":" ","HOUSE_NO":"３號","E_COORD97":171527.89999999999,"N_COORD97":2542525.2999999998,"ADDRESS":"富農街一段１５３巷３號","OBJECTID":293849},"geometry":{"x":171527.90000000037,"y":2542525.3000000026}},{"attributes":{"ID":293858,"DIS_CODE":0,"TOWNNAME":"東區","LI":"自強里","LIN":"22鄰","STREET":"富農街","SECT":"一段","MAREA":" ","LANE":"１５３巷","ALLEY":" ","HOUSE_NO":"４０號","E_COORD97":171471.07000000001,"N_COORD97":2542535.4399999999,"ADDRESS":"富農街一段１５３巷４０號","OBJECTID":293850},"geometry":{"x":171471.0700000003,"y":2542535.4399999995}},{"attributes":{"ID":293859,"DIS_CODE":0,"TOWNNAME":"東區","LI":"自強里","LIN":"22鄰","STREET":"富農街","SECT":"一段","MAREA":" ","LANE":"１５３巷","ALLEY":" ","HOUSE_NO":"４２號","E_COORD97":171466.91,"N_COORD97":2542535.4399999999,"ADDRESS":"富農街一段１５３巷４２號","OBJECTID":293851},"geometry":{"x":171466.91000000015,"y":2542535.4399999995}},{"attributes":{"ID":293860,"DIS_CODE":0,"TOWNNAME":"關廟區","LI":"北花里","LIN":"14鄰","STREET":"中正路","SECT":" ","MAREA":" ","LANE":" ","ALLEY":" ","HOUSE_NO":"５７０號","E_COORD97":181999.35999999999,"N_COORD97":2540398.25,"ADDRESS":"中正路５７０號","OBJECTID":293852},"geometry":{"x":181999.36000000034,"y":2540398.2500000037}},{"attributes":{"ID":293861,"DIS_CODE":0,"TOWNNAME":"關廟區","LI":"北花里","LIN":"14鄰","STREET":"花園三街","SECT":" ","MAREA":" ","LANE":" ","ALLEY":" ","HOUSE_NO":"７號","E_COORD97":182009.79000000001,"N_COORD97":2540441.25,"ADDRESS":"花園三街７號","OBJECTID":293853},"geometry":{"x":182009.79000000004,"y":2540441.25}},{"attributes":{"ID":293862,"DIS_CODE":0,"TOWNNAME":"關廟區","LI":"北花里","LIN":"14鄰","STREET":"中正路","SECT":" ","MAREA":" ","LANE":" ","ALLEY":" ","HOUSE_NO":"５８０號","E_COORD97":181982.85999999999,"N_COORD97":2540401.25,"ADDRESS":"中正路５８０號","OBJECTID":293854},"geometry":{"x":181982.8599999994,"y":2540401.25}},{"attributes":{"ID":293863,"DIS_CODE":0,"TOWNNAME":"關廟區","LI":"山西里","LIN":"14鄰","STREET":"崇尚街","SECT":" ","MAREA":" ","LANE":" ","ALLEY":" ","HOUSE_NO":"５７號","E_COORD97":180954.92000000001,"N_COORD97":2540545.25,"ADDRESS":"崇尚街５７號","OBJECTID":293855},"geometry":{"x":180954.92000000179,"y":2540545.2500000019}},{"attributes":{"ID":293864,"DIS_CODE":0,"TOWNNAME":"關廟區","LI":"北花里","LIN":"14鄰","STREET":"中正路","SECT":" ","MAREA":" ","LANE":" ","ALLEY":" ","HOUSE_NO":"５７８號","E_COORD97":181986.76000000001,"N_COORD97":2540401.25,"ADDRESS":"中正路５７８號","OBJECTID":293856},"geometry":{"x":181986.76000000071,"y":2540401.25}},{"attributes":{"ID":293865,"DIS_CODE":0,"TOWNNAME":"關廟區","LI":"北花里","LIN":"14鄰","STREET":"花園三街","SECT":" ","MAREA":" ","LANE":" ","ALLEY":" ","HOUSE_NO":"４１號","E_COORD97":181943.04000000001,"N_COORD97":2540452.25,"ADDRESS":"花園三街４１號","OBJECTID":293857},"geometry":{"x":181943.04000000097,"y":2540452.2499999981}},{"attributes":{"ID":293866,"DIS_CODE":0,"TOWNNAME":"關廟區","LI":"東勢里","LIN":"14鄰","STREET":"東榮街","SECT":" ","MAREA":" ","LANE":" ","ALLEY":" ","HOUSE_NO":"１３６號","E_COORD97":182152.67000000001,"N_COORD97":2539353.25,"ADDRESS":"東榮街１３６號","OBJECTID":293858},"geometry":{"x":182152.66999999993,"y":2539353.25}},{"attributes":{"ID":293867,"DIS_CODE":0,"TOWNNAME":"關廟區","LI":"北花里","LIN":"14鄰","STREET":"中正路","SECT":" ","MAREA":" ","LANE":" ","ALLEY":" ","HOUSE_NO":"５８２號","E_COORD97":181979.85999999999,"N_COORD97":2540410.25,"ADDRESS":"中正路５８２號","OBJECTID":293859},"geometry":{"x":181979.86000000127,"y":2540410.25}},{"attributes":{"ID":293868,"DIS_CODE":0,"TOWNNAME":"關廟區","LI":"東勢里","LIN":"14鄰","STREET":"東榮街","SECT":" ","MAREA":" ","LANE":" ","ALLEY":" ","HOUSE_NO":"１８６號","E_COORD97":182250.17000000001,"N_COORD97":2539321.25,"ADDRESS":"東榮街１８６號","OBJECTID":293860},"geometry":{"x":182250.17000000086,"y":2539321.2500000019}},{"attributes":{"ID":293869,"DIS_CODE":0,"TOWNNAME":"東區","LI":"小東里","LIN":"17鄰","STREET":"光明街","SECT":" ","MAREA":" ","LANE":"１０２巷","ALLEY":" ","HOUSE_NO":"１２號四樓","E_COORD97":170838.14000000001,"N_COORD97":2544076.46,"ADDRESS":"光明街１０２巷１２號四樓","OBJECTID":293861},"geometry":{"x":170838.1400000006,"y":2544076.4600000046}},{"attributes":{"ID":293870,"DIS_CODE":0,"TOWNNAME":"東區","LI":"小東里","LIN":"17鄰","STREET":"光明街","SECT":" ","MAREA":" ","LANE":"１０２巷","ALLEY":" ","HOUSE_NO":"１２號五樓","E_COORD97":170838.14000000001,"N_COORD97":2544076.46,"ADDRESS":"光明街１０２巷１２號五樓","OBJECTID":293862},"geometry":{"x":170838.1400000006,"y":2544076.4600000046}},{"attributes":{"ID":293871,"DIS_CODE":0,"TOWNNAME":"東區","LI":"小東里","LIN":"17鄰","STREET":"光明街","SECT":" ","MAREA":" ","LANE":"１０２巷","ALLEY":" ","HOUSE_NO":"１２號六樓","E_COORD97":170838.14000000001,"N_COORD97":2544076.46,"ADDRESS":"光明街１０２巷１２號六樓","OBJECTID":293863},"geometry":{"x":170838.1400000006,"y":2544076.4600000046}},{"attributes":{"ID":293872,"DIS_CODE":0,"TOWNNAME":"東區","LI":"小東里","LIN":"17鄰","STREET":"光明街","SECT":" ","MAREA":" ","LANE":"１０２巷","ALLEY":" ","HOUSE_NO":"１２號七樓","E_COORD97":170838.14000000001,"N_COORD97":2544076.46,"ADDRESS":"光明街１０２巷１２號七樓","OBJECTID":293864},"geometry":{"x":170838.1400000006,"y":2544076.4600000046}},{"attributes":{"ID":293873,"DIS_CODE":0,"TOWNNAME":"東區","LI":"小東里","LIN":"17鄰","STREET":"光明街","SECT":" ","MAREA":" ","LANE":"１０２巷","ALLEY":" ","HOUSE_NO":"１２號八樓","E_COORD97":170838.14000000001,"N_COORD97":2544076.46,"ADDRESS":"光明街１０２巷１２號八樓","OBJECTID":293865},"geometry":{"x":170838.1400000006,"y":2544076.4600000046}},{"attributes":{"ID":293874,"DIS_CODE":0,"TOWNNAME":"東區","LI":"小東里","LIN":"17鄰","STREET":"光明街","SECT":" ","MAREA":" ","LANE":"１０２巷","ALLEY":" ","HOUSE_NO":"１２號九樓","E_COORD97":170838.14000000001,"N_COORD97":2544076.46,"ADDRESS":"光明街１０２巷１２號九樓","OBJECTID":293866},"geometry":{"x":170838.1400000006,"y":2544076.4600000046}},{"attributes":{"ID":293875,"DIS_CODE":0,"TOWNNAME":"東區","LI":"小東里","LIN":"17鄰","STREET":"光明街","SECT":" ","MAREA":" ","LANE":"１０２巷","ALLEY":" ","HOUSE_NO":"１２號十樓","E_COORD97":170838.14000000001,"N_COORD97":2544076.46,"ADDRESS":"光明街１０２巷１２號十樓","OBJECTID":293867},"geometry":{"x":170838.1400000006,"y":2544076.4600000046}},{"attributes":{"ID":293876,"DIS_CODE":0,"TOWNNAME":"東區","LI":"小東里","LIN":"17鄰","STREET":"光明街","SECT":" ","MAREA":" ","LANE":"１０２巷","ALLEY":" ","HOUSE_NO":"１２號十一樓","E_COORD97":170838.14000000001,"N_COORD97":2544076.46,"ADDRESS":"光明街１０２巷１２號十一樓","OBJECTID":293868},"geometry":{"x":170838.1400000006,"y":2544076.4600000046}},{"attributes":{"ID":293877,"DIS_CODE":0,"TOWNNAME":"東區","LI":"小東里","LIN":"17鄰","STREET":"光明街","SECT":" ","MAREA":" ","LANE":"１０２巷","ALLEY":" ","HOUSE_NO":"１２號十二樓","E_COORD97":170838.14000000001,"N_COORD97":2544076.46,"ADDRESS":"光明街１０２巷１２號十二樓","OBJECTID":293869},"geometry":{"x":170838.1400000006,"y":2544076.4600000046}},{"attributes":{"ID":293878,"DIS_CODE":0,"TOWNNAME":"東區","LI":"小東里","LIN":"17鄰","STREET":"光明街","SECT":" ","MAREA":" ","LANE":"１０２巷","ALLEY":" ","HOUSE_NO":"１６號二樓","E_COORD97":170824.54000000001,"N_COORD97":2544076.46,"ADDRESS":"光明街１０２巷１６號二樓","OBJECTID":293870},"geometry":{"x":170824.54000000004,"y":2544076.4600000046}},{"attributes":{"ID":293879,"DIS_CODE":0,"TOWNNAME":"東區","LI":"小東里","LIN":"17鄰","STREET":"光明街","SECT":" ","MAREA":" ","LANE":"１０２巷","ALLEY":" ","HOUSE_NO":"１６號三樓","E_COORD97":170824.54000000001,"N_COORD97":2544076.46,"ADDRESS":"光明街１０２巷１６號三樓","OBJECTID":293871},"geometry":{"x":170824.54000000004,"y":2544076.4600000046}},{"attributes":{"ID":293880,"DIS_CODE":0,"TOWNNAME":"東區","LI":"小東里","LIN":"17鄰","STREET":"光明街","SECT":" ","MAREA":" ","LANE":"１０２巷","ALLEY":" ","HOUSE_NO":"１６號四樓","E_COORD97":170824.54000000001,"N_COORD97":2544076.46,"ADDRESS":"光明街１０２巷１６號四樓","OBJECTID":293872},"geometry":{"x":170824.54000000004,"y":2544076.4600000046}},{"attributes":{"ID":293881,"DIS_CODE":0,"TOWNNAME":"東區","LI":"小東里","LIN":"17鄰","STREET":"光明街","SECT":" ","MAREA":" ","LANE":"１０２巷","ALLEY":" ","HOUSE_NO":"１６號五樓","E_COORD97":170824.54000000001,"N_COORD97":2544076.46,"ADDRESS":"光明街１０２巷１６號五樓","OBJECTID":293873},"geometry":{"x":170824.54000000004,"y":2544076.4600000046}},{"attributes":{"ID":293882,"DIS_CODE":0,"TOWNNAME":"東區","LI":"小東里","LIN":"17鄰","STREET":"光明街","SECT":" ","MAREA":" ","LANE":"１０２巷","ALLEY":" ","HOUSE_NO":"１６號六樓","E_COORD97":170824.54000000001,"N_COORD97":2544076.46,"ADDRESS":"光明街１０２巷１６號六樓","OBJECTID":293874},"geometry":{"x":170824.54000000004,"y":2544076.4600000046}},{"attributes":{"ID":293883,"DIS_CODE":0,"TOWNNAME":"東區","LI":"小東里","LIN":"17鄰","STREET":"光明街","SECT":" ","MAREA":" ","LANE":"１０２巷","ALLEY":" ","HOUSE_NO":"１６號七樓","E_COORD97":170824.54000000001,"N_COORD97":2544076.46,"ADDRESS":"光明街１０２巷１６號七樓","OBJECTID":293875},"geometry":{"x":170824.54000000004,"y":2544076.4600000046}},{"attributes":{"ID":293884,"DIS_CODE":0,"TOWNNAME":"東區","LI":"小東里","LIN":"17鄰","STREET":"光明街","SECT":" ","MAREA":" ","LANE":"１０２巷","ALLEY":" ","HOUSE_NO":"１６號八樓","E_COORD97":170824.54000000001,"N_COORD97":2544076.46,"ADDRESS":"光明街１０２巷１６號八樓","OBJECTID":293876},"geometry":{"x":170824.54000000004,"y":2544076.4600000046}},{"attributes":{"ID":293885,"DIS_CODE":0,"TOWNNAME":"東區","LI":"小東里","LIN":"17鄰","STREET":"光明街","SECT":" ","MAREA":" ","LANE":"１０２巷","ALLEY":" ","HOUSE_NO":"１６號九樓","E_COORD97":170824.54000000001,"N_COORD97":2544076.46,"ADDRESS":"光明街１０２巷１６號九樓","OBJECTID":293877},"geometry":{"x":170824.54000000004,"y":2544076.4600000046}},{"attributes":{"ID":293886,"DIS_CODE":0,"TOWNNAME":"關廟區","LI":"北勢里","LIN":"14鄰","STREET":"成功路","SECT":" ","MAREA":" ","LANE":" ","ALLEY":" ","HOUSE_NO":"３００號","E_COORD97":181388.47,"N_COORD97":2540499.27,"ADDRESS":"成功路３００號","OBJECTID":293878},"geometry":{"x":181388.47000000067,"y":2540499.2700000033}},{"attributes":{"ID":293887,"DIS_CODE":0,"TOWNNAME":"東區","LI":"小東里","LIN":"17鄰","STREET":"光明街","SECT":" ","MAREA":" ","LANE":"１０２巷","ALLEY":" ","HOUSE_NO":"１６號十樓","E_COORD97":170824.54000000001,"N_COORD97":2544076.46,"ADDRESS":"光明街１０２巷１６號十樓","OBJECTID":293879},"geometry":{"x":170824.54000000004,"y":2544076.4600000046}},{"attributes":{"ID":293888,"DIS_CODE":0,"TOWNNAME":"東區","LI":"小東里","LIN":"17鄰","STREET":"光明街","SECT":" ","MAREA":" ","LANE":"１０２巷","ALLEY":" ","HOUSE_NO":"１６號十一樓","E_COORD97":170824.54000000001,"N_COORD97":2544076.46,"ADDRESS":"光明街１０２巷１６號十一樓","OBJECTID":293880},"geometry":{"x":170824.54000000004,"y":2544076.4600000046}},{"attributes":{"ID":293889,"DIS_CODE":0,"TOWNNAME":"東區","LI":"小東里","LIN":"17鄰","STREET":"光明街","SECT":" ","MAREA":" ","LANE":"１０２巷","ALLEY":" ","HOUSE_NO":"１６號十二樓","E_COORD97":170824.54000000001,"N_COORD97":2544076.46,"ADDRESS":"光明街１０２巷１６號十二樓","OBJECTID":293881},"geometry":{"x":170824.54000000004,"y":2544076.4600000046}},{"attributes":{"ID":293890,"DIS_CODE":0,"TOWNNAME":"東區","LI":"小東里","LIN":"17鄰","STREET":"光明街","SECT":" ","MAREA":" ","LANE":"１０２巷","ALLEY":" ","HOUSE_NO":"１８號二樓","E_COORD97":170812.03,"N_COORD97":2544076.46,"ADDRESS":"光明街１０２巷１８號二樓","OBJECTID":293882},"geometry":{"x":170812.02999999933,"y":2544076.4600000046}},{"attributes":{"ID":293891,"DIS_CODE":0,"TOWNNAME":"東區","LI":"小東里","LIN":"17鄰","STREET":"光明街","SECT":" ","MAREA":" ","LANE":"１０２巷","ALLEY":" ","HOUSE_NO":"１８號三樓","E_COORD97":170812.03,"N_COORD97":2544076.46,"ADDRESS":"光明街１０２巷１８號三樓","OBJECTID":293883},"geometry":{"x":170812.02999999933,"y":2544076.4600000046}},{"attributes":{"ID":293892,"DIS_CODE":0,"TOWNNAME":"東區","LI":"小東里","LIN":"17鄰","STREET":"光明街","SECT":" ","MAREA":" ","LANE":"１０２巷","ALLEY":" ","HOUSE_NO":"１８號四樓","E_COORD97":170812.03,"N_COORD97":2544076.46,"ADDRESS":"光明街１０２巷１８號四樓","OBJECTID":293884},"geometry":{"x":170812.02999999933,"y":2544076.4600000046}},{"attributes":{"ID":293893,"DIS_CODE":0,"TOWNNAME":"東區","LI":"小東里","LIN":"17鄰","STREET":"光明街","SECT":" ","MAREA":" ","LANE":"１０２巷","ALLEY":" ","HOUSE_NO":"１８號五樓","E_COORD97":170812.03,"N_COORD97":2544076.46,"ADDRESS":"光明街１０２巷１８號五樓","OBJECTID":293885},"geometry":{"x":170812.02999999933,"y":2544076.4600000046}},{"attributes":{"ID":293894,"DIS_CODE":0,"TOWNNAME":"東區","LI":"小東里","LIN":"17鄰","STREET":"光明街","SECT":" ","MAREA":" ","LANE":"１０２巷","ALLEY":" ","HOUSE_NO":"１８號六樓","E_COORD97":170812.03,"N_COORD97":2544076.46,"ADDRESS":"光明街１０２巷１８號六樓","OBJECTID":293886},"geometry":{"x":170812.02999999933,"y":2544076.4600000046}},{"attributes":{"ID":293895,"DIS_CODE":0,"TOWNNAME":"東區","LI":"小東里","LIN":"17鄰","STREET":"光明街","SECT":" ","MAREA":" ","LANE":"１０２巷","ALLEY":" ","HOUSE_NO":"１８號七樓","E_COORD97":170812.03,"N_COORD97":2544076.46,"ADDRESS":"光明街１０２巷１８號七樓","OBJECTID":293887},"geometry":{"x":170812.02999999933,"y":2544076.4600000046}},{"attributes":{"ID":293896,"DIS_CODE":0,"TOWNNAME":"東區","LI":"小東里","LIN":"17鄰","STREET":"光明街","SECT":" ","MAREA":" ","LANE":"１０２巷","ALLEY":" ","HOUSE_NO":"１８號八樓","E_COORD97":170812.03,"N_COORD97":2544076.46,"ADDRESS":"光明街１０２巷１８號八樓","OBJECTID":293888},"geometry":{"x":170812.02999999933,"y":2544076.4600000046}},{"attributes":{"ID":293897,"DIS_CODE":0,"TOWNNAME":"東區","LI":"小東里","LIN":"17鄰","STREET":"光明街","SECT":" ","MAREA":" ","LANE":"１０２巷","ALLEY":" ","HOUSE_NO":"１８號九樓","E_COORD97":170812.03,"N_COORD97":2544076.46,"ADDRESS":"光明街１０２巷１８號九樓","OBJECTID":293889},"geometry":{"x":170812.02999999933,"y":2544076.4600000046}},{"attributes":{"ID":293898,"DIS_CODE":0,"TOWNNAME":"東區","LI":"小東里","LIN":"17鄰","STREET":"光明街","SECT":" ","MAREA":" ","LANE":"１０２巷","ALLEY":" ","HOUSE_NO":"１８號十樓","E_COORD97":170812.03,"N_COORD97":2544076.46,"ADDRESS":"光明街１０２巷１８號十樓","OBJECTID":293890},"geometry":{"x":170812.02999999933,"y":2544076.4600000046}},{"attributes":{"ID":293899,"DIS_CODE":0,"TOWNNAME":"新營區","LI":"大宏里","LIN":"19鄰","STREET":"三民路","SECT":" ","MAREA":" ","LANE":" ","ALLEY":" ","HOUSE_NO":"３６號之４０","E_COORD97":180455.37886999999,"N_COORD97":2578533.7727600001,"ADDRESS":"三民路３６號之４０","OBJECTID":293891},"geometry":{"x":180455.37887000013,"y":2578533.7727600001}},{"attributes":{"ID":293900,"DIS_CODE":0,"TOWNNAME":"東區","LI":"自強里","LIN":"27鄰","STREET":"中華東路","SECT":"二段","MAREA":" ","LANE":"１３３巷","ALLEY":" ","HOUSE_NO":"１０號","E_COORD97":171404.03,"N_COORD97":2542850.52,"ADDRESS":"中華東路二段１３３巷１０號","OBJECTID":293892},"geometry":{"x":171404.03000000119,"y":2542850.5200000033}},{"attributes":{"ID":293901,"DIS_CODE":0,"TOWNNAME":"永康區","LI":"正強里","LIN":"32鄰","STREET":"四維街","SECT":" ","MAREA":" ","LANE":"２９巷","ALLEY":" ","HOUSE_NO":"７號","E_COORD97":173386.13,"N_COORD97":2547998.5,"ADDRESS":"四維街２９巷７號","OBJECTID":293893},"geometry":{"x":173386.13000000175,"y":2547998.5000000019}},{"attributes":{"ID":293902,"DIS_CODE":0,"TOWNNAME":"東區","LI":"小東里","LIN":"17鄰","STREET":"光明街","SECT":" ","MAREA":" ","LANE":"１０２巷","ALLEY":" ","HOUSE_NO":"１８號十一樓","E_COORD97":170812.03,"N_COORD97":2544076.46,"ADDRESS":"光明街１０２巷１８號十一樓","OBJECTID":293894},"geometry":{"x":170812.02999999933,"y":2544076.4600000046}},{"attributes":{"ID":293903,"DIS_CODE":0,"TOWNNAME":"東區","LI":"小東里","LIN":"17鄰","STREET":"光明街","SECT":" ","MAREA":" ","LANE":"１０２巷","ALLEY":" ","HOUSE_NO":"１８號十二樓","E_COORD97":170812.03,"N_COORD97":2544076.46,"ADDRESS":"光明街１０２巷１８號十二樓","OBJECTID":293895},"geometry":{"x":170812.02999999933,"y":2544076.4600000046}},{"attributes":{"ID":293904,"DIS_CODE":0,"TOWNNAME":"東區","LI":"小東里","LIN":"17鄰","STREET":"光明街","SECT":" ","MAREA":" ","LANE":"１０２巷","ALLEY":" ","HOUSE_NO":"２０號二樓","E_COORD97":170801.14999999999,"N_COORD97":2544076.46,"ADDRESS":"光明街１０２巷２０號二樓","OBJECTID":293896},"geometry":{"x":170801.14999999944,"y":2544076.4600000046}},{"attributes":{"ID":293905,"DIS_CODE":0,"TOWNNAME":"東區","LI":"小東里","LIN":"17鄰","STREET":"光明街","SECT":" ","MAREA":" ","LANE":"１０２巷","ALLEY":" ","HOUSE_NO":"２０號三樓","E_COORD97":170801.14999999999,"N_COORD97":2544076.46,"ADDRESS":"光明街１０２巷２０號三樓","OBJECTID":293897},"geometry":{"x":170801.14999999944,"y":2544076.4600000046}},{"attributes":{"ID":293906,"DIS_CODE":0,"TOWNNAME":"東區","LI":"小東里","LIN":"17鄰","STREET":"光明街","SECT":" ","MAREA":" ","LANE":"１０２巷","ALLEY":" ","HOUSE_NO":"２０號四樓","E_COORD97":170801.14999999999,"N_COORD97":2544076.46,"ADDRESS":"光明街１０２巷２０號四樓","OBJECTID":293898},"geometry":{"x":170801.14999999944,"y":2544076.4600000046}},{"attributes":{"ID":293907,"DIS_CODE":0,"TOWNNAME":"東區","LI":"小東里","LIN":"17鄰","STREET":"光明街","SECT":" ","MAREA":" ","LANE":"１０２巷","ALLEY":" ","HOUSE_NO":"２０號五樓","E_COORD97":170801.14999999999,"N_COORD97":2544076.46,"ADDRESS":"光明街１０２巷２０號五樓","OBJECTID":293899},"geometry":{"x":170801.14999999944,"y":2544076.4600000046}},{"attributes":{"ID":293908,"DIS_CODE":0,"TOWNNAME":"東區","LI":"小東里","LIN":"17鄰","STREET":"光明街","SECT":" ","MAREA":" ","LANE":"１０２巷","ALLEY":" ","HOUSE_NO":"２０號六樓","E_COORD97":170801.14999999999,"N_COORD97":2544076.46,"ADDRESS":"光明街１０２巷２０號六樓","OBJECTID":293900},"geometry":{"x":170801.14999999944,"y":2544076.4600000046}},{"attributes":{"ID":293909,"DIS_CODE":0,"TOWNNAME":"東區","LI":"小東里","LIN":"17鄰","STREET":"光明街","SECT":" ","MAREA":" ","LANE":"１０２巷","ALLEY":" ","HOUSE_NO":"２０號七樓","E_COORD97":170801.14999999999,"N_COORD97":2544076.46,"ADDRESS":"光明街１０２巷２０號七樓","OBJECTID":293901},"geometry":{"x":170801.14999999944,"y":2544076.4600000046}},{"attributes":{"ID":293910,"DIS_CODE":0,"TOWNNAME":"東區","LI":"小東里","LIN":"17鄰","STREET":"光明街","SECT":" ","MAREA":" ","LANE":"１０２巷","ALLEY":" ","HOUSE_NO":"２０號八樓","E_COORD97":170801.14999999999,"N_COORD97":2544076.46,"ADDRESS":"光明街１０２巷２０號八樓","OBJECTID":293902},"geometry":{"x":170801.14999999944,"y":2544076.4600000046}},{"attributes":{"ID":293911,"DIS_CODE":0,"TOWNNAME":"東區","LI":"小東里","LIN":"17鄰","STREET":"光明街","SECT":" ","MAREA":" ","LANE":"１０２巷","ALLEY":" ","HOUSE_NO":"２０號九樓","E_COORD97":170801.14999999999,"N_COORD97":2544076.46,"ADDRESS":"光明街１０２巷２０號九樓","OBJECTID":293903},"geometry":{"x":170801.14999999944,"y":2544076.4600000046}},{"attributes":{"ID":293912,"DIS_CODE":0,"TOWNNAME":"東區","LI":"小東里","LIN":"17鄰","STREET":"光明街","SECT":" ","MAREA":" ","LANE":"１０２巷","ALLEY":" ","HOUSE_NO":"２０號十樓","E_COORD97":170801.14999999999,"N_COORD97":2544076.46,"ADDRESS":"光明街１０２巷２０號十樓","OBJECTID":293904},"geometry":{"x":170801.14999999944,"y":2544076.4600000046}},{"attributes":{"ID":293913,"DIS_CODE":0,"TOWNNAME":"東區","LI":"小東里","LIN":"17鄰","STREET":"光明街","SECT":" ","MAREA":" ","LANE":"１０２巷","ALLEY":" ","HOUSE_NO":"２０號十一樓","E_COORD97":170801.14999999999,"N_COORD97":2544076.46,"ADDRESS":"光明街１０２巷２０號十一樓","OBJECTID":293905},"geometry":{"x":170801.14999999944,"y":2544076.4600000046}},{"attributes":{"ID":293914,"DIS_CODE":0,"TOWNNAME":"東區","LI":"小東里","LIN":"17鄰","STREET":"光明街","SECT":" ","MAREA":" ","LANE":"１０２巷","ALLEY":" ","HOUSE_NO":"２０號十二樓","E_COORD97":170801.14999999999,"N_COORD97":2544076.46,"ADDRESS":"光明街１０２巷２０號十二樓","OBJECTID":293906},"geometry":{"x":170801.14999999944,"y":2544076.4600000046}},{"attributes":{"ID":293915,"DIS_CODE":0,"TOWNNAME":"安南區","LI":"理想里","LIN":"15鄰","STREET":"大安街","SECT":" ","MAREA":" ","LANE":"１１７巷","ALLEY":" ","HOUSE_NO":"９號","E_COORD97":167218.32000000001,"N_COORD97":2548142.7400000002,"ADDRESS":"大安街１１７巷９號","OBJECTID":293907},"geometry":{"x":167218.32000000123,"y":2548142.7400000021}},{"attributes":{"ID":293916,"DIS_CODE":0,"TOWNNAME":"永康區","LI":"復華里","LIN":"17鄰","STREET":"國華街","SECT":" ","MAREA":" ","LANE":"１０２巷","ALLEY":" ","HOUSE_NO":"６３號三樓之２","E_COORD97":172874.57000000001,"N_COORD97":2546145.02,"ADDRESS":"國華街１０２巷６３號三樓之２","OBJECTID":293908},"geometry":{"x":172874.5700000003,"y":2546145.0199999996}},{"attributes":{"ID":293917,"DIS_CODE":0,"TOWNNAME":"永康區","LI":"復華里","LIN":"17鄰","STREET":"國華街","SECT":" ","MAREA":" ","LANE":"１０２巷","ALLEY":" ","HOUSE_NO":"６７號七樓之２","E_COORD97":172887.85000000001,"N_COORD97":2546139.23,"ADDRESS":"國華街１０２巷６７號七樓之２","OBJECTID":293909},"geometry":{"x":172887.85000000056,"y":2546139.2300000023}},{"attributes":{"ID":293918,"DIS_CODE":0,"TOWNNAME":"仁德區","LI":"仁德里","LIN":"3鄰","STREET":"仁中五街","SECT":" ","MAREA":" ","LANE":" ","ALLEY":" ","HOUSE_NO":"１３６號","E_COORD97":173213.993682,"N_COORD97":2540319.9757699999,"ADDRESS":"仁中五街１３６號","OBJECTID":293910},"geometry":{"x":173213.99368199985,"y":2540319.9757659994}},{"attributes":{"ID":293919,"DIS_CODE":0,"TOWNNAME":"永康區","LI":"復華里","LIN":"17鄰","STREET":"國華街","SECT":" ","MAREA":" ","LANE":"１０２巷","ALLEY":" ","HOUSE_NO":"６７號九樓之２","E_COORD97":172887.85000000001,"N_COORD97":2546139.23,"ADDRESS":"國華街１０２巷６７號九樓之２","OBJECTID":293911},"geometry":{"x":172887.85000000056,"y":2546139.2300000023}},{"attributes":{"ID":293920,"DIS_CODE":0,"TOWNNAME":"永康區","LI":"復華里","LIN":"17鄰","STREET":"國華街","SECT":" ","MAREA":" ","LANE":"１０２巷","ALLEY":" ","HOUSE_NO":"６３號四樓之１","E_COORD97":172874.44,"N_COORD97":2546145.02,"ADDRESS":"國華街１０２巷６３號四樓之１","OBJECTID":293912},"geometry":{"x":172874.44000000134,"y":2546145.0199999996}},{"attributes":{"ID":293921,"DIS_CODE":0,"TOWNNAME":"永康區","LI":"復華里","LIN":"17鄰","STREET":"國華街","SECT":" ","MAREA":" ","LANE":"１０２巷","ALLEY":" ","HOUSE_NO":"６７號三樓之２","E_COORD97":172887.85000000001,"N_COORD97":2546139.23,"ADDRESS":"國華街１０２巷６７號三樓之２","OBJECTID":293913},"geometry":{"x":172887.85000000056,"y":2546139.2300000023}},{"attributes":{"ID":293922,"DIS_CODE":0,"TOWNNAME":"永康區","LI":"復華里","LIN":"17鄰","STREET":"國華街","SECT":" ","MAREA":" ","LANE":"１０２巷","ALLEY":" ","HOUSE_NO":"６３號八樓之３","E_COORD97":172874.54000000001,"N_COORD97":2546145.02,"ADDRESS":"國華街１０２巷６３號八樓之３","OBJECTID":293914},"geometry":{"x":172874.54000000004,"y":2546145.0199999996}},{"attributes":{"ID":293923,"DIS_CODE":0,"TOWNNAME":"永康區","LI":"中華里","LIN":"17鄰","STREET":"中華路","SECT":" ","MAREA":" ","LANE":"１０巷","ALLEY":" ","HOUSE_NO":"１６號之５２十一樓","E_COORD97":171634.31,"N_COORD97":2544437.71,"ADDRESS":"中華路１０巷１６號之５２十一樓","OBJECTID":293915},"geometry":{"x":171634.30999999959,"y":2544437.7100000028}},{"attributes":{"ID":293924,"DIS_CODE":0,"TOWNNAME":"永康區","LI":"復華里","LIN":"17鄰","STREET":"國華街","SECT":" ","MAREA":" ","LANE":"１０２巷","ALLEY":" ","HOUSE_NO":"６３號八樓之１","E_COORD97":172874.44,"N_COORD97":2546145.02,"ADDRESS":"國華街１０２巷６３號八樓之１","OBJECTID":293916},"geometry":{"x":172874.44000000134,"y":2546145.0199999996}},{"attributes":{"ID":293925,"DIS_CODE":0,"TOWNNAME":"永康區","LI":"復華里","LIN":"17鄰","STREET":"國華街","SECT":" ","MAREA":" ","LANE":"１０２巷","ALLEY":" ","HOUSE_NO":"６３號十一樓之３","E_COORD97":172875.79000000001,"N_COORD97":2546145.02,"ADDRESS":"國華街１０２巷６３號十一樓之３","OBJECTID":293917},"geometry":{"x":172875.79000000004,"y":2546145.0199999996}},{"attributes":{"ID":293926,"DIS_CODE":0,"TOWNNAME":"關廟區","LI":"山西里","LIN":"14鄰","STREET":"崇尚街","SECT":" ","MAREA":" ","LANE":" ","ALLEY":" ","HOUSE_NO":"７８號","E_COORD97":180956.12,"N_COORD97":2540557.25,"ADDRESS":"崇尚街７８號","OBJECTID":293918},"geometry":{"x":180956.12000000104,"y":2540557.25}},{"attributes":{"ID":293927,"DIS_CODE":0,"TOWNNAME":"關廟區","LI":"東勢里","LIN":"14鄰","STREET":"東榮街","SECT":" ","MAREA":" ","LANE":" ","ALLEY":" ","HOUSE_NO":"１４６號","E_COORD97":182171.07000000001,"N_COORD97":2539347.25,"ADDRESS":"東榮街１４６號","OBJECTID":293919},"geometry":{"x":182171.0700000003,"y":2539347.2500000037}},{"attributes":{"ID":293928,"DIS_CODE":0,"TOWNNAME":"關廟區","LI":"北勢里","LIN":"14鄰","STREET":"北安三街","SECT":" ","MAREA":" ","LANE":" ","ALLEY":" ","HOUSE_NO":"１６７號","E_COORD97":181378.54000000001,"N_COORD97":2540616.3199999998,"ADDRESS":"北安三街１６７號","OBJECTID":293920},"geometry":{"x":181378.54000000097,"y":2540616.3200000022}},{"attributes":{"ID":293929,"DIS_CODE":0,"TOWNNAME":"永康區","LI":"勝利里","LIN":"26鄰","STREET":"勝利街","SECT":" ","MAREA":" ","LANE":"７４巷","ALLEY":" ","HOUSE_NO":"２１號","E_COORD97":171432.48999999999,"N_COORD97":2544710.5,"ADDRESS":"勝利街７４巷２１號","OBJECTID":293921},"geometry":{"x":171432.49000000022,"y":2544710.5000000019}},{"attributes":{"ID":293930,"DIS_CODE":0,"TOWNNAME":"永康區","LI":"北灣里","LIN":"4鄰","STREET":"信義街","SECT":" ","MAREA":" ","LANE":"１２９巷","ALLEY":" ","HOUSE_NO":"５號","E_COORD97":175228.01999999999,"N_COORD97":2545596.7400000002,"ADDRESS":"信義街１２９巷５號","OBJECTID":293922},"geometry":{"x":175228.02000000048,"y":2545596.7400000021}},{"attributes":{"ID":293931,"DIS_CODE":0,"TOWNNAME":"永康區","LI":"東灣里","LIN":"26鄰","STREET":"大灣一街","SECT":" ","MAREA":" ","LANE":"２４２巷","ALLEY":" ","HOUSE_NO":"２１號","E_COORD97":174979.29000000001,"N_COORD97":2544589.9300000002,"ADDRESS":"大灣一街２４２巷２１號","OBJECTID":293923},"geometry":{"x":174979.29000000097,"y":2544589.9299999997}},{"attributes":{"ID":293932,"DIS_CODE":0,"TOWNNAME":"永康區","LI":"東橋里","LIN":"25鄰","STREET":"中正路","SECT":" ","MAREA":" ","LANE":"２１７巷","ALLEY":" ","HOUSE_NO":"２５號","E_COORD97":173008.63,"N_COORD97":2547656.75,"ADDRESS":"中正路２１７巷２５號","OBJECTID":293924},"geometry":{"x":173008.63000000082,"y":2547656.75}},{"attributes":{"ID":293933,"DIS_CODE":0,"TOWNNAME":"永康區","LI":"西灣里","LIN":"25鄰","STREET":"國光七街","SECT":" ","MAREA":" ","LANE":"２０巷","ALLEY":" ","HOUSE_NO":"２４號","E_COORD97":174330.89999999999,"N_COORD97":2545593.7599999998,"ADDRESS":"國光七街２０巷２４號","OBJECTID":293925},"geometry":{"x":174330.9000000013,"y":2545593.7599999998}},{"attributes":{"ID":293934,"DIS_CODE":0,"TOWNNAME":"永康區","LI":"復華里","LIN":"17鄰","STREET":"國華街","SECT":" ","MAREA":" ","LANE":"１０２巷","ALLEY":" ","HOUSE_NO":"６３號七樓之１","E_COORD97":172874.44,"N_COORD97":2546145.02,"ADDRESS":"國華街１０２巷６３號七樓之１","OBJECTID":293926},"geometry":{"x":172874.44000000134,"y":2546145.0199999996}},{"attributes":{"ID":293935,"DIS_CODE":0,"TOWNNAME":"永康區","LI":"復華里","LIN":"17鄰","STREET":"國華街","SECT":" ","MAREA":" ","LANE":"１０２巷","ALLEY":" ","HOUSE_NO":"５１號七樓之１","E_COORD97":172884.98999999999,"N_COORD97":2546112.2799999998,"ADDRESS":"國華街１０２巷５１號七樓之１","OBJECTID":293927},"geometry":{"x":172884.99000000022,"y":2546112.2799999993}},{"attributes":{"ID":293936,"DIS_CODE":0,"TOWNNAME":"永康區","LI":"復華里","LIN":"17鄰","STREET":"國華街","SECT":" ","MAREA":" ","LANE":"１０２巷","ALLEY":" ","HOUSE_NO":"６５號六樓之２","E_COORD97":172881.82000000001,"N_COORD97":2546141.7799999998,"ADDRESS":"國華街１０２巷６５號六樓之２","OBJECTID":293928},"geometry":{"x":172881.82000000216,"y":2546141.7800000012}},{"attributes":{"ID":293937,"DIS_CODE":0,"TOWNNAME":"永康區","LI":"中華里","LIN":"17鄰","STREET":"中華路","SECT":" ","MAREA":" ","LANE":"１０巷","ALLEY":" ","HOUSE_NO":"１６號之２９七樓","E_COORD97":171659.54000000001,"N_COORD97":2544438.0099999998,"ADDRESS":"中華路１０巷１６號之２９七樓","OBJECTID":293929},"geometry":{"x":171659.54000000097,"y":2544438.0100000016}},{"attributes":{"ID":293938,"DIS_CODE":0,"TOWNNAME":"永康區","LI":"復華里","LIN":"17鄰","STREET":"國華街","SECT":" ","MAREA":" ","LANE":"１０２巷","ALLEY":" ","HOUSE_NO":"６３號十樓之３","E_COORD97":172874.54000000001,"N_COORD97":2546145.02,"ADDRESS":"國華街１０２巷６３號十樓之３","OBJECTID":293930},"geometry":{"x":172874.54000000004,"y":2546145.0199999996}},{"attributes":{"ID":293939,"DIS_CODE":0,"TOWNNAME":"永康區","LI":"中華里","LIN":"17鄰","STREET":"中華路","SECT":" ","MAREA":" ","LANE":"１０巷","ALLEY":" ","HOUSE_NO":"１６號之２４六樓","E_COORD97":171659.54000000001,"N_COORD97":2544438.0099999998,"ADDRESS":"中華路１０巷１６號之２４六樓","OBJECTID":293931},"geometry":{"x":171659.54000000097,"y":2544438.0100000016}},{"attributes":{"ID":293940,"DIS_CODE":0,"TOWNNAME":"永康區","LI":"復華里","LIN":"17鄰","STREET":"國華街","SECT":" ","MAREA":" ","LANE":"１０２巷","ALLEY":" ","HOUSE_NO":"６５號十一樓之１","E_COORD97":172882.94,"N_COORD97":2546141.7799999998,"ADDRESS":"國華街１０２巷６５號十一樓之１","OBJECTID":293932},"geometry":{"x":172882.94000000134,"y":2546141.7800000012}},{"attributes":{"ID":293941,"DIS_CODE":0,"TOWNNAME":"永康區","LI":"復華里","LIN":"17鄰","STREET":"國華街","SECT":" ","MAREA":" ","LANE":"１０２巷","ALLEY":" ","HOUSE_NO":"６５號十樓之１","E_COORD97":172881.69,"N_COORD97":2546141.7799999998,"ADDRESS":"國華街１０２巷６５號十樓之１","OBJECTID":293933},"geometry":{"x":172881.69000000134,"y":2546141.7800000012}},{"attributes":{"ID":293942,"DIS_CODE":0,"TOWNNAME":"永康區","LI":"五王里","LIN":"17鄰","STREET":"成功路","SECT":" ","MAREA":" ","LANE":"２０４巷","ALLEY":" ","HOUSE_NO":"３１號六樓之２","E_COORD97":171477.53,"N_COORD97":2545766.8999999999,"ADDRESS":"成功路２０４巷３１號六樓之２","OBJECTID":293934},"geometry":{"x":171477.53000000026,"y":2545766.9000000004}},{"attributes":{"ID":293943,"DIS_CODE":0,"TOWNNAME":"永康區","LI":"大橋里","LIN":"17鄰","STREET":"大橋一街","SECT":" ","MAREA":" ","LANE":"１０３巷","ALLEY":" ","HOUSE_NO":"５０號三樓","E_COORD97":170951.34,"N_COORD97":2546547.7599999998,"ADDRESS":"大橋一街１０３巷５０號三樓","OBJECTID":293935},"geometry":{"x":170951.33999999985,"y":2546547.7599999998}},{"attributes":{"ID":293944,"DIS_CODE":0,"TOWNNAME":"永康區","LI":"五王里","LIN":"17鄰","STREET":"成功路","SECT":" ","MAREA":" ","LANE":"２０４巷","ALLEY":" ","HOUSE_NO":"３１號五樓之４","E_COORD97":171477.42000000001,"N_COORD97":2545766.8999999999,"ADDRESS":"成功路２０４巷３１號五樓之４","OBJECTID":293936},"geometry":{"x":171477.42000000086,"y":2545766.9000000004}},{"attributes":{"ID":293945,"DIS_CODE":0,"TOWNNAME":"關廟區","LI":"山西里","LIN":"14鄰","STREET":"崇尚街","SECT":" ","MAREA":" ","LANE":" ","ALLEY":" ","HOUSE_NO":"７２號","E_COORD97":180970.72,"N_COORD97":2540561.25,"ADDRESS":"崇尚街７２號","OBJECTID":293937},"geometry":{"x":180970.71999999974,"y":2540561.2500000019}},{"attributes":{"ID":293946,"DIS_CODE":0,"TOWNNAME":"關廟區","LI":"北花里","LIN":"14鄰","STREET":"花園三街","SECT":" ","MAREA":" ","LANE":" ","ALLEY":" ","HOUSE_NO":"１７號","E_COORD97":181994.14000000001,"N_COORD97":2540443.25,"ADDRESS":"花園三街１７號","OBJECTID":293938},"geometry":{"x":181994.1400000006,"y":2540443.2500000019}},{"attributes":{"ID":293947,"DIS_CODE":0,"TOWNNAME":"關廟區","LI":"北花里","LIN":"14鄰","STREET":"花園三街","SECT":" ","MAREA":" ","LANE":" ","ALLEY":" ","HOUSE_NO":"２５號","E_COORD97":181976.04000000001,"N_COORD97":2540446.25,"ADDRESS":"花園三街２５號","OBJECTID":293939},"geometry":{"x":181976.04000000004,"y":2540446.2500000019}},{"attributes":{"ID":293948,"DIS_CODE":0,"TOWNNAME":"關廟區","LI":"東勢里","LIN":"14鄰","STREET":"東榮街","SECT":" ","MAREA":" ","LANE":" ","ALLEY":" ","HOUSE_NO":"１３２號","E_COORD97":182149.57000000001,"N_COORD97":2539356.25,"ADDRESS":"東榮街１３２號","OBJECTID":293940},"geometry":{"x":182149.57000000123,"y":2539356.25}},{"attributes":{"ID":293949,"DIS_CODE":0,"TOWNNAME":"關廟區","LI":"關廟里","LIN":"14鄰","STREET":"大仁街","SECT":" ","MAREA":" ","LANE":" ","ALLEY":" ","HOUSE_NO":"３５８號","E_COORD97":180878.26999999999,"N_COORD97":2539726.25,"ADDRESS":"大仁街３５８號","OBJECTID":293941},"geometry":{"x":180878.27000000048,"y":2539726.25}},{"attributes":{"ID":293950,"DIS_CODE":0,"TOWNNAME":"關廟區","LI":"關廟里","LIN":"14鄰","STREET":"大仁街","SECT":" ","MAREA":" ","LANE":" ","ALLEY":" ","HOUSE_NO":"３３８號","E_COORD97":180831.47,"N_COORD97":2539696.25,"ADDRESS":"大仁街３３８號","OBJECTID":293942},"geometry":{"x":180831.46999999974,"y":2539696.2499999981}},{"attributes":{"ID":293951,"DIS_CODE":0,"TOWNNAME":"永康區","LI":"建國里","LIN":"25鄰","STREET":" ","SECT":" ","MAREA":"慈光九村","LANE":" ","ALLEY":" ","HOUSE_NO":"１號","E_COORD97":172866.95000000001,"N_COORD97":2544270.25,"ADDRESS":"慈光九村１號","OBJECTID":293943},"geometry":{"x":172866.95000000019,"y":2544270.2500000037}},{"attributes":{"ID":293952,"DIS_CODE":0,"TOWNNAME":"永康區","LI":"中興里","LIN":"18鄰","STREET":"中華路","SECT":" ","MAREA":" ","LANE":"２８６巷","ALLEY":" ","HOUSE_NO":"７３號","E_COORD97":171715.73999999999,"N_COORD97":2545335.4900000002,"ADDRESS":"中華路２８６巷７３號","OBJECTID":293944},"geometry":{"x":171715.73999999929,"y":2545335.4900000002}},{"attributes":{"ID":293953,"DIS_CODE":0,"TOWNNAME":"永康區","LI":"北灣里","LIN":"39鄰","STREET":"大同街","SECT":" ","MAREA":" ","LANE":"６３６巷","ALLEY":" ","HOUSE_NO":"７號","E_COORD97":174653.98999999999,"N_COORD97":2546362.04,"ADDRESS":"大同街６３６巷７號","OBJECTID":293945},"geometry":{"x":174653.99000000115,"y":2546362.0399999991}},{"attributes":{"ID":293954,"DIS_CODE":0,"TOWNNAME":"永康區","LI":"南灣里","LIN":"39鄰","STREET":"南灣街","SECT":" ","MAREA":" ","LANE":"１００巷","ALLEY":" ","HOUSE_NO":"９號","E_COORD97":174410.09,"N_COORD97":2544997.5,"ADDRESS":"南灣街１００巷９號","OBJECTID":293946},"geometry":{"x":174410.09000000171,"y":2544997.5000000037}},{"attributes":{"ID":293955,"DIS_CODE":0,"TOWNNAME":"永康區","LI":"三民里","LIN":"7鄰","STREET":"三民街","SECT":" ","MAREA":" ","LANE":"１３６巷","ALLEY":" ","HOUSE_NO":"３號","E_COORD97":172810.75,"N_COORD97":2550425.52,"ADDRESS":"三民街１３６巷３號","OBJECTID":293947},"geometry":{"x":172810.75000000186,"y":2550425.5200000014}},{"attributes":{"ID":293956,"DIS_CODE":0,"TOWNNAME":"永康區","LI":"勝利里","LIN":"4鄰","STREET":"勝學路","SECT":" ","MAREA":" ","LANE":"８９巷","ALLEY":" ","HOUSE_NO":"５號","E_COORD97":171127.51999999999,"N_COORD97":2544824.5,"ADDRESS":"勝學路８９巷５號","OBJECTID":293948},"geometry":{"x":171127.52000000048,"y":2544824.5000000037}},{"attributes":{"ID":293957,"DIS_CODE":0,"TOWNNAME":"永康區","LI":"北灣里","LIN":"4鄰","STREET":"信義街","SECT":" ","MAREA":" ","LANE":"９４巷","ALLEY":" ","HOUSE_NO":"２５號","E_COORD97":175287.41,"N_COORD97":2545733.7400000002,"ADDRESS":"信義街９４巷２５號","OBJECTID":293949},"geometry":{"x":175287.41000000015,"y":2545733.7400000002}},{"attributes":{"ID":293958,"DIS_CODE":0,"TOWNNAME":"永康區","LI":"復華里","LIN":"17鄰","STREET":"國華街","SECT":" ","MAREA":" ","LANE":"１０２巷","ALLEY":" ","HOUSE_NO":"５１號三樓之１","E_COORD97":172884.98999999999,"N_COORD97":2546112.2799999998,"ADDRESS":"國華街１０２巷５１號三樓之１","OBJECTID":293950},"geometry":{"x":172884.99000000022,"y":2546112.2799999993}},{"attributes":{"ID":293959,"DIS_CODE":0,"TOWNNAME":"永康區","LI":"復華里","LIN":"17鄰","STREET":"國華街","SECT":" ","MAREA":" ","LANE":"１０２巷","ALLEY":" ","HOUSE_NO":"５１號七樓之３","E_COORD97":172885.09,"N_COORD97":2546112.2799999998,"ADDRESS":"國華街１０２巷５１號七樓之３","OBJECTID":293951},"geometry":{"x":172885.09000000078,"y":2546112.2799999993}},{"attributes":{"ID":293960,"DIS_CODE":0,"TOWNNAME":"永康區","LI":"中華里","LIN":"17鄰","STREET":"中華路","SECT":" ","MAREA":" ","LANE":"１０巷","ALLEY":" ","HOUSE_NO":"１６號之４０九樓","E_COORD97":171633.06,"N_COORD97":2544437.71,"ADDRESS":"中華路１０巷１６號之４０九樓","OBJECTID":293952},"geometry":{"x":171633.05999999959,"y":2544437.7100000028}},{"attributes":{"ID":293961,"DIS_CODE":0,"TOWNNAME":"永康區","LI":"五王里","LIN":"17鄰","STREET":"成功路","SECT":" ","MAREA":" ","LANE":"２０４巷","ALLEY":" ","HOUSE_NO":"３１號三樓之１","E_COORD97":171477.39000000001,"N_COORD97":2545766.8999999999,"ADDRESS":"成功路２０４巷３１號三樓之１","OBJECTID":293953},"geometry":{"x":171477.3900000006,"y":2545766.9000000004}},{"attributes":{"ID":293962,"DIS_CODE":0,"TOWNNAME":"南區","LI":"新興里","LIN":"17鄰","STREET":"三官路","SECT":" ","MAREA":" ","LANE":"８９巷","ALLEY":" ","HOUSE_NO":"３２號之２三樓","E_COORD97":167420.13,"N_COORD97":2542161.7799999998,"ADDRESS":"三官路８９巷３２號之２三樓","OBJECTID":293954},"geometry":{"x":167420.12999999989,"y":2542161.7800000012}},{"attributes":{"ID":293963,"DIS_CODE":0,"TOWNNAME":"南區","LI":"新興里","LIN":"17鄰","STREET":"三官路","SECT":" ","MAREA":" ","LANE":"８９巷","ALLEY":" ","HOUSE_NO":"３２號之２五樓","E_COORD97":167420.13,"N_COORD97":2542161.7799999998,"ADDRESS":"三官路８９巷３２號之２五樓","OBJECTID":293955},"geometry":{"x":167420.12999999989,"y":2542161.7800000012}},{"attributes":{"ID":293964,"DIS_CODE":0,"TOWNNAME":"永康區","LI":"建國里","LIN":"26鄰","STREET":" ","SECT":" ","MAREA":"慈光九村","LANE":" ","ALLEY":" ","HOUSE_NO":"１１號","E_COORD97":172786.73999999999,"N_COORD97":2544264.75,"ADDRESS":"慈光九村１１號","OBJECTID":293956},"geometry":{"x":172786.74000000022,"y":2544264.7500000019}},{"attributes":{"ID":293965,"DIS_CODE":0,"TOWNNAME":"南區","LI":"新興里","LIN":"17鄰","STREET":"三官路","SECT":" ","MAREA":" ","LANE":"８９巷","ALLEY":" ","HOUSE_NO":"３２號之２四樓","E_COORD97":167420.13,"N_COORD97":2542161.7799999998,"ADDRESS":"三官路８９巷３２號之２四樓","OBJECTID":293957},"geometry":{"x":167420.12999999989,"y":2542161.7800000012}},{"attributes":{"ID":293966,"DIS_CODE":0,"TOWNNAME":"南區","LI":"新興里","LIN":"17鄰","STREET":"三官路","SECT":" ","MAREA":" ","LANE":"８９巷","ALLEY":" ","HOUSE_NO":"３２號之３二樓","E_COORD97":167418.26000000001,"N_COORD97":2542155.0499999998,"ADDRESS":"三官路８９巷３２號之３二樓","OBJECTID":293958},"geometry":{"x":167418.26000000071,"y":2542155.0500000007}},{"attributes":{"ID":293967,"DIS_CODE":0,"TOWNNAME":"南區","LI":"新興里","LIN":"17鄰","STREET":"三官路","SECT":" ","MAREA":" ","LANE":"８９巷","ALLEY":" ","HOUSE_NO":"３２號之３三樓","E_COORD97":167418.26000000001,"N_COORD97":2542155.0499999998,"ADDRESS":"三官路８９巷３２號之３三樓","OBJECTID":293959},"geometry":{"x":167418.26000000071,"y":2542155.0500000007}},{"attributes":{"ID":293968,"DIS_CODE":0,"TOWNNAME":"南區","LI":"新興里","LIN":"17鄰","STREET":"三官路","SECT":" ","MAREA":" ","LANE":"８９巷","ALLEY":" ","HOUSE_NO":"３２號之３四樓","E_COORD97":167418.26000000001,"N_COORD97":2542155.0499999998,"ADDRESS":"三官路８９巷３２號之３四樓","OBJECTID":293960},"geometry":{"x":167418.26000000071,"y":2542155.0500000007}},{"attributes":{"ID":293969,"DIS_CODE":0,"TOWNNAME":"安平區","LI":"文平里","LIN":"17鄰","STREET":"建平三街","SECT":" ","MAREA":" ","LANE":"６５巷","ALLEY":" ","HOUSE_NO":"１８號二樓之１","E_COORD97":165743.35000000001,"N_COORD97":2542877.1400000001,"ADDRESS":"建平三街６５巷１８號二樓之１","OBJECTID":293961},"geometry":{"x":165743.34999999963,"y":2542877.1400000006}},{"attributes":{"ID":293970,"DIS_CODE":0,"TOWNNAME":"安平區","LI":"文平里","LIN":"17鄰","STREET":"建平三街","SECT":" ","MAREA":" ","LANE":"６５巷","ALLEY":" ","HOUSE_NO":"１８號二樓之３","E_COORD97":165743.35000000001,"N_COORD97":2542877.1400000001,"ADDRESS":"建平三街６５巷１８號二樓之３","OBJECTID":293962},"geometry":{"x":165743.34999999963,"y":2542877.1400000006}},{"attributes":{"ID":293971,"DIS_CODE":0,"TOWNNAME":"安平區","LI":"文平里","LIN":"17鄰","STREET":"建平三街","SECT":" ","MAREA":" ","LANE":"６５巷","ALLEY":" ","HOUSE_NO":"１８號三樓之１","E_COORD97":165743.35000000001,"N_COORD97":2542877.1400000001,"ADDRESS":"建平三街６５巷１８號三樓之１","OBJECTID":293963},"geometry":{"x":165743.34999999963,"y":2542877.1400000006}},{"attributes":{"ID":293972,"DIS_CODE":0,"TOWNNAME":"關廟區","LI":"關廟里","LIN":"14鄰","STREET":"大仁街","SECT":" ","MAREA":" ","LANE":" ","ALLEY":" ","HOUSE_NO":"３２２號","E_COORD97":180809.17000000001,"N_COORD97":2539660.25,"ADDRESS":"大仁街３２２號","OBJECTID":293964},"geometry":{"x":180809.17000000086,"y":2539660.2500000019}},{"attributes":{"ID":293973,"DIS_CODE":0,"TOWNNAME":"關廟區","LI":"香洋里","LIN":"14鄰","STREET":"香洋路","SECT":" ","MAREA":" ","LANE":" ","ALLEY":" ","HOUSE_NO":"６７號","E_COORD97":181354.48999999999,"N_COORD97":2540102.25,"ADDRESS":"香洋路６７號","OBJECTID":293965},"geometry":{"x":181354.49000000022,"y":2540102.25}},{"attributes":{"ID":293974,"DIS_CODE":0,"TOWNNAME":"關廟區","LI":"深坑里","LIN":"14鄰","STREET":"南雄路","SECT":"一段","MAREA":" ","LANE":" ","ALLEY":" ","HOUSE_NO":"３８３號","E_COORD97":181788.51999999999,"N_COORD97":2537529.2999999998,"ADDRESS":"南雄路一段３８３號","OBJECTID":293966},"geometry":{"x":181788.52000000048,"y":2537529.3000000007}},{"attributes":{"ID":293975,"DIS_CODE":0,"TOWNNAME":"關廟區","LI":"新光里","LIN":"14鄰","STREET":"南寮街","SECT":" ","MAREA":" ","LANE":" ","ALLEY":" ","HOUSE_NO":"１１號","E_COORD97":184265.22,"N_COORD97":2541591.25,"ADDRESS":"南寮街１１號","OBJECTID":293967},"geometry":{"x":184265.22000000067,"y":2541591.25}},{"attributes":{"ID":293976,"DIS_CODE":0,"TOWNNAME":"關廟區","LI":"新光里","LIN":"14鄰","STREET":"新光街","SECT":" ","MAREA":" ","LANE":" ","ALLEY":" ","HOUSE_NO":"１８６號","E_COORD97":184214.17000000001,"N_COORD97":2541636.25,"ADDRESS":"新光街１８６號","OBJECTID":293968},"geometry":{"x":184214.16999999993,"y":2541636.2500000019}},{"attributes":{"ID":293977,"DIS_CODE":0,"TOWNNAME":"關廟區","LI":"香洋里","LIN":"14鄰","STREET":"仁愛路","SECT":" ","MAREA":" ","LANE":" ","ALLEY":" ","HOUSE_NO":"３６號","E_COORD97":181299.34,"N_COORD97":2540137.27,"ADDRESS":"仁愛路３６號","OBJECTID":293969},"geometry":{"x":181299.34000000171,"y":2540137.2700000014}},{"attributes":{"ID":293978,"DIS_CODE":0,"TOWNNAME":"永康區","LI":"正強里","LIN":"32鄰","STREET":"四維街","SECT":" ","MAREA":" ","LANE":"２９巷","ALLEY":" ","HOUSE_NO":"１２號","E_COORD97":173373.75,"N_COORD97":2548012.3100000001,"ADDRESS":"四維街２９巷１２號","OBJECTID":293970},"geometry":{"x":173373.75000000093,"y":2548012.3100000005}},{"attributes":{"ID":293979,"DIS_CODE":0,"TOWNNAME":"永康區","LI":"建國里","LIN":"26鄰","STREET":" ","SECT":" ","MAREA":"慈光九村","LANE":" ","ALLEY":" ","HOUSE_NO":"１８號","E_COORD97":172851.72,"N_COORD97":2544259.75,"ADDRESS":"慈光九村１８號","OBJECTID":293971},"geometry":{"x":172851.72000000067,"y":2544259.7500000037}},{"attributes":{"ID":293980,"DIS_CODE":0,"TOWNNAME":"永康區","LI":"埔園里","LIN":"34鄰","STREET":"八德街","SECT":" ","MAREA":" ","LANE":"８８巷","ALLEY":" ","HOUSE_NO":"６號","E_COORD97":174190.37,"N_COORD97":2548540.2599999998,"ADDRESS":"八德街８８巷６號","OBJECTID":293972},"geometry":{"x":174190.37000000104,"y":2548540.2599999998}},{"attributes":{"ID":293981,"DIS_CODE":0,"TOWNNAME":"永康區","LI":"西勢里","LIN":"25鄰","STREET":"廣興街","SECT":" ","MAREA":" ","LANE":"２６巷","ALLEY":" ","HOUSE_NO":"３８號","E_COORD97":175943.12,"N_COORD97":2546439.75,"ADDRESS":"廣興街２６巷３８號","OBJECTID":293973},"geometry":{"x":175943.12000000104,"y":2546439.7499999981}},{"attributes":{"ID":293982,"DIS_CODE":0,"TOWNNAME":"永康區","LI":"西勢里","LIN":"25鄰","STREET":"廣興街","SECT":" ","MAREA":" ","LANE":"２６巷","ALLEY":" ","HOUSE_NO":"６２號","E_COORD97":175976.76000000001,"N_COORD97":2546404.25,"ADDRESS":"廣興街２６巷６２號","OBJECTID":293974},"geometry":{"x":175976.75999999978,"y":2546404.2500000019}},{"attributes":{"ID":293983,"DIS_CODE":0,"TOWNNAME":"永康區","LI":"尚頂里","LIN":"26鄰","STREET":"南台街","SECT":" ","MAREA":" ","LANE":"５４巷","ALLEY":" ","HOUSE_NO":"８號之５","E_COORD97":170387.76999999999,"N_COORD97":2547007.23,"ADDRESS":"南台街５４巷８號之５","OBJECTID":293975},"geometry":{"x":170387.77000000048,"y":2547007.2300000023}},{"attributes":{"ID":293984,"DIS_CODE":0,"TOWNNAME":"永康區","LI":"復華里","LIN":"39鄰","STREET":"復華七街","SECT":" ","MAREA":" ","LANE":"３２巷","ALLEY":" ","HOUSE_NO":"１３號","E_COORD97":172696.17000000001,"N_COORD97":2545938.02,"ADDRESS":"復華七街３２巷１３號","OBJECTID":293976},"geometry":{"x":172696.17000000086,"y":2545938.0199999996}},{"attributes":{"ID":293985,"DIS_CODE":0,"TOWNNAME":"永康區","LI":"東灣里","LIN":"20鄰","STREET":"大灣三街","SECT":" ","MAREA":" ","LANE":"７３巷","ALLEY":" ","HOUSE_NO":"３１號","E_COORD97":174898.98999999999,"N_COORD97":2544879.3700000001,"ADDRESS":"大灣三街７３巷３１號","OBJECTID":293977},"geometry":{"x":174898.99000000022,"y":2544879.370000001}},{"attributes":{"ID":293986,"DIS_CODE":0,"TOWNNAME":"永康區","LI":"正強里","LIN":"42鄰","STREET":"中正路","SECT":" ","MAREA":" ","LANE":"２５６巷","ALLEY":" ","HOUSE_NO":"１號之５０","E_COORD97":173178.10999999999,"N_COORD97":2547946.8999999999,"ADDRESS":"中正路２５６巷１號之５０","OBJECTID":293978},"geometry":{"x":173178.1100000022,"y":2547946.9000000004}},{"attributes":{"ID":293987,"DIS_CODE":0,"TOWNNAME":"永康區","LI":"永康里","LIN":"39鄰","STREET":"永福街","SECT":" ","MAREA":" ","LANE":"２１巷","ALLEY":" ","HOUSE_NO":"１９號","E_COORD97":174270.95000000001,"N_COORD97":2546417.71,"ADDRESS":"永福街２１巷１９號","OBJECTID":293979},"geometry":{"x":174270.95000000112,"y":2546417.7100000028}},{"attributes":{"ID":293988,"DIS_CODE":0,"TOWNNAME":"關廟區","LI":"深坑里","LIN":"14鄰","STREET":"南雄路","SECT":"一段","MAREA":" ","LANE":" ","ALLEY":" ","HOUSE_NO":"３８１號","E_COORD97":181790.42000000001,"N_COORD97":2537525.2999999998,"ADDRESS":"南雄路一段３８１號","OBJECTID":293980},"geometry":{"x":181790.41999999899,"y":2537525.3000000026}},{"attributes":{"ID":293989,"DIS_CODE":0,"TOWNNAME":"關廟區","LI":"香洋里","LIN":"14鄰","STREET":"仁愛路","SECT":" ","MAREA":" ","LANE":" ","ALLEY":" ","HOUSE_NO":"６２號","E_COORD97":181314.64000000001,"N_COORD97":2540183.2799999998,"ADDRESS":"仁愛路６２號","OBJECTID":293981},"geometry":{"x":181314.6400000006,"y":2540183.2799999993}},{"attributes":{"ID":293990,"DIS_CODE":0,"TOWNNAME":"關廟區","LI":"松腳里","LIN":"14鄰","STREET":"東興路","SECT":" ","MAREA":" ","LANE":" ","ALLEY":" ","HOUSE_NO":"２４７號","E_COORD97":181847.47,"N_COORD97":2539565.25,"ADDRESS":"東興路２４７號","OBJECTID":293982},"geometry":{"x":181847.46999999974,"y":2539565.2500000019}},{"attributes":{"ID":293991,"DIS_CODE":0,"TOWNNAME":"關廟區","LI":"南花里","LIN":"14鄰","STREET":"和平路","SECT":" ","MAREA":" ","LANE":" ","ALLEY":" ","HOUSE_NO":"３２８號","E_COORD97":181652.54000000001,"N_COORD97":2540091.25,"ADDRESS":"和平路３２８號","OBJECTID":293983},"geometry":{"x":181652.5400000019,"y":2540091.2500000019}},{"attributes":{"ID":293992,"DIS_CODE":0,"TOWNNAME":"關廟區","LI":"松腳里","LIN":"14鄰","STREET":"四維街","SECT":" ","MAREA":" ","LANE":" ","ALLEY":" ","HOUSE_NO":"９１號","E_COORD97":181874.60999999999,"N_COORD97":2539674.25,"ADDRESS":"四維街９１號","OBJECTID":293984},"geometry":{"x":181874.61000000127,"y":2539674.2500000019}},{"attributes":{"ID":293993,"DIS_CODE":0,"TOWNNAME":"關廟區","LI":"南花里","LIN":"14鄰","STREET":"明德街","SECT":" ","MAREA":" ","LANE":" ","ALLEY":" ","HOUSE_NO":"６６號","E_COORD97":181684.23999999999,"N_COORD97":2540045.27,"ADDRESS":"明德街６６號","OBJECTID":293985},"geometry":{"x":181684.24000000115,"y":2540045.2700000033}},{"attributes":{"ID":293994,"DIS_CODE":0,"TOWNNAME":"關廟區","LI":"香洋里","LIN":"14鄰","STREET":"香洋路","SECT":" ","MAREA":" ","LANE":" ","ALLEY":" ","HOUSE_NO":"７１號","E_COORD97":181354.89000000001,"N_COORD97":2540114.25,"ADDRESS":"香洋路７１號","OBJECTID":293986},"geometry":{"x":181354.89000000153,"y":2540114.2500000019}},{"attributes":{"ID":293995,"DIS_CODE":0,"TOWNNAME":"關廟區","LI":"松腳里","LIN":"14鄰","STREET":"四維街","SECT":" ","MAREA":" ","LANE":" ","ALLEY":" ","HOUSE_NO":"１１０號","E_COORD97":181893.06,"N_COORD97":2539660.25,"ADDRESS":"四維街１１０號","OBJECTID":293987},"geometry":{"x":181893.06000000052,"y":2539660.2500000019}},{"attributes":{"ID":293996,"DIS_CODE":0,"TOWNNAME":"關廟區","LI":"松腳里","LIN":"14鄰","STREET":"四維街","SECT":" ","MAREA":" ","LANE":" ","ALLEY":" ","HOUSE_NO":"５７號","E_COORD97":181891.10999999999,"N_COORD97":2539591.25,"ADDRESS":"四維街５７號","OBJECTID":293988},"geometry":{"x":181891.11000000034,"y":2539591.2500000037}},{"attributes":{"ID":293997,"DIS_CODE":0,"TOWNNAME":"永康區","LI":"永康里","LIN":"12鄰","STREET":"永中街","SECT":" ","MAREA":" ","LANE":" ","ALLEY":" ","HOUSE_NO":"７號","E_COORD97":173840.47,"N_COORD97":2547059.3799999999,"ADDRESS":"永中街７號","OBJECTID":293989},"geometry":{"x":173840.46999999974,"y":2547059.3800000008}},{"attributes":{"ID":293998,"DIS_CODE":0,"TOWNNAME":"永康區","LI":"龍潭里","LIN":"39鄰","STREET":"永明街","SECT":" ","MAREA":" ","LANE":"２３１巷","ALLEY":" ","HOUSE_NO":"６０號","E_COORD97":174587.83107099999,"N_COORD97":2547348.3347700001,"ADDRESS":"永明街２３１巷６０號","OBJECTID":293990},"geometry":{"x":174587.83107099961,"y":2547348.3347659986}},{"attributes":{"ID":293999,"DIS_CODE":0,"TOWNNAME":"永康區","LI":"永康里","LIN":"18鄰","STREET":"永中街","SECT":" ","MAREA":" ","LANE":"１３８巷","ALLEY":" ","HOUSE_NO":"１２號","E_COORD97":174033.20000000001,"N_COORD97":2547245.5,"ADDRESS":"永中街１３８巷１２號","OBJECTID":293991},"geometry":{"x":174033.20000000019,"y":2547245.5000000019}},{"attributes":{"ID":294000,"DIS_CODE":0,"TOWNNAME":"永康區","LI":"北灣里","LIN":"20鄰","STREET":"大同街","SECT":" ","MAREA":" ","LANE":"３１５巷","ALLEY":" ","HOUSE_NO":"１號","E_COORD97":174730.44,"N_COORD97":2546006.8999999999,"ADDRESS":"大同街３１５巷１號","OBJECTID":293992},"geometry":{"x":174730.44000000227,"y":2546006.9000000022}},{"attributes":{"ID":294001,"DIS_CODE":0,"TOWNNAME":"永康區","LI":"勝利里","LIN":"25鄰","STREET":"中華路","SECT":" ","MAREA":" ","LANE":"１５５巷","ALLEY":" ","HOUSE_NO":"３８號","E_COORD97":171478.39000000001,"N_COORD97":2544823.7999999998,"ADDRESS":"中華路１５５巷３８號","OBJECTID":293993},"geometry":{"x":171478.38999999966,"y":2544823.8000000026}},{"attributes":{"ID":294002,"DIS_CODE":0,"TOWNNAME":"永康區","LI":"西橋里","LIN":"5鄰","STREET":"中華西街","SECT":" ","MAREA":" ","LANE":"２１巷","ALLEY":" ","HOUSE_NO":"１２號","E_COORD97":170745.60999999999,"N_COORD97":2545937.7400000002,"ADDRESS":"中華西街２１巷１２號","OBJECTID":293994},"geometry":{"x":170745.6100000022,"y":2545937.7400000002}},{"attributes":{"ID":294003,"DIS_CODE":0,"TOWNNAME":"永康區","LI":"永康里","LIN":"18鄰","STREET":"永中街","SECT":" ","MAREA":" ","LANE":"１３８巷","ALLEY":" ","HOUSE_NO":"６號","E_COORD97":173999.82000000001,"N_COORD97":2547261.6400000001,"ADDRESS":"永中街１３８巷６號","OBJECTID":293995},"geometry":{"x":173999.8200000003,"y":2547261.6400000043}},{"attributes":{"ID":294004,"DIS_CODE":0,"TOWNNAME":"永康區","LI":"正強里","LIN":"32鄰","STREET":"四維街","SECT":" ","MAREA":" ","LANE":"２９巷","ALLEY":" ","HOUSE_NO":"２２號","E_COORD97":173351.75,"N_COORD97":2548005.9300000002,"ADDRESS":"四維街２９巷２２號","OBJECTID":293996},"geometry":{"x":173351.75000000093,"y":2548005.9300000016}},{"attributes":{"ID":294005,"DIS_CODE":0,"TOWNNAME":"永康區","LI":"南灣里","LIN":"13鄰","STREET":"立興街","SECT":" ","MAREA":" ","LANE":"５７巷","ALLEY":" ","HOUSE_NO":"１２號","E_COORD97":174615.04999999999,"N_COORD97":2544780.5099999998,"ADDRESS":"立興街５７巷１２號","OBJECTID":293997},"geometry":{"x":174615.04999999981,"y":2544780.5100000016}},{"attributes":{"ID":294006,"DIS_CODE":0,"TOWNNAME":"永康區","LI":"東灣里","LIN":"26鄰","STREET":"大灣一街","SECT":" ","MAREA":" ","LANE":"２２０巷","ALLEY":" ","HOUSE_NO":"５號","E_COORD97":174900.29999999999,"N_COORD97":2544572,"ADDRESS":"大灣一街２２０巷５號","OBJECTID":293998},"geometry":{"x":174900.30000000168,"y":2544572}},{"attributes":{"ID":294007,"DIS_CODE":0,"TOWNNAME":"永康區","LI":"中興里","LIN":"4鄰","STREET":"中華路","SECT":" ","MAREA":" ","LANE":"２１２巷","ALLEY":" ","HOUSE_NO":"５４號","E_COORD97":171824.48999999999,"N_COORD97":2545013.2599999998,"ADDRESS":"中華路２１２巷５４號","OBJECTID":293999},"geometry":{"x":171824.49000000209,"y":2545013.2600000016}},{"attributes":{"ID":294008,"DIS_CODE":0,"TOWNNAME":"安平區","LI":"文平里","LIN":"17鄰","STREET":"建平三街","SECT":" ","MAREA":" ","LANE":"６５巷","ALLEY":" ","HOUSE_NO":"１８號五樓之３","E_COORD97":165743.35000000001,"N_COORD97":2542877.1400000001,"ADDRESS":"建平三街６５巷１８號五樓之３","OBJECTID":294000},"geometry":{"x":165743.34999999963,"y":2542877.1400000006}}]}