{"displayFieldName":"TOWNNAME","fieldAliases":{"ID":"ID","DIS_CODE":"DIS_CODE","TOWNNAME":"TOWNNAME","LI":"LI","LIN":"LIN","STREET":"STREET","SECT":"SECT","MAREA":"MAREA","LANE":"LANE","ALLEY":"ALLEY","HOUSE_NO":"HOUSE_NO","E_COORD97":"E_COORD97","N_COORD97":"N_COORD97","ADDRESS":"ADDRESS","OBJECTID":"OBJECTID"},"geometryType":"esriGeometryPoint","spatialReference":{"wkid":102443,"latestWkid":3826},"fields":[{"name":"ID","type":"esriFieldTypeDouble","alias":"ID"},{"name":"DIS_CODE","type":"esriFieldTypeInteger","alias":"DIS_CODE"},{"name":"TOWNNAME","type":"esriFieldTypeString","alias":"TOWNNAME","length":8},{"name":"LI","type":"esriFieldTypeString","alias":"LI","length":8},{"name":"LIN","type":"esriFieldTypeString","alias":"LIN","length":12},{"name":"STREET","type":"esriFieldTypeString","alias":"STREET","length":20},{"name":"SECT","type":"esriFieldTypeString","alias":"SECT","length":8},{"name":"MAREA","type":"esriFieldTypeString","alias":"MAREA","length":12},{"name":"LANE","type":"esriFieldTypeString","alias":"LANE","length":10},{"name":"ALLEY","type":"esriFieldTypeString","alias":"ALLEY","length":10},{"name":"HOUSE_NO","type":"esriFieldTypeString","alias":"HOUSE_NO","length":20},{"name":"E_COORD97","type":"esriFieldTypeDouble","alias":"E_COORD97"},{"name":"N_COORD97","type":"esriFieldTypeDouble","alias":"N_COORD97"},{"name":"ADDRESS","type":"esriFieldTypeString","alias":"ADDRESS","length":50},{"name":"OBJECTID","type":"esriFieldTypeOID","alias":"OBJECTID"}],"features":[{"attributes":{"ID":241405,"DIS_CODE":0,"TOWNNAME":"安南區","LI":"海東里","LIN":"24鄰","STREET":"同安路","SECT":" ","MAREA":" ","LANE":"１６７巷","ALLEY":" ","HOUSE_NO":"９６號","E_COORD97":166916.63,"N_COORD97":2549242.96,"ADDRESS":"同安路１６７巷９６號","OBJECTID":241401},"geometry":{"x":166916.62999999989,"y":2549242.9600000009}},{"attributes":{"ID":241406,"DIS_CODE":0,"TOWNNAME":"柳營區","LI":"八翁里","LIN":"16鄰","STREET":" ","SECT":" ","MAREA":"八老爺","LANE":" ","ALLEY":" ","HOUSE_NO":"１２７號","E_COORD97":178711.10999999999,"N_COORD97":2573872.0499999998,"ADDRESS":"八老爺１２７號","OBJECTID":241402},"geometry":{"x":178711.1099999994,"y":2573872.0500000007}},{"attributes":{"ID":241407,"DIS_CODE":0,"TOWNNAME":"柳營區","LI":"八翁里","LIN":"16鄰","STREET":" ","SECT":" ","MAREA":"八老爺","LANE":" ","ALLEY":" ","HOUSE_NO":"１２９號","E_COORD97":178918.69,"N_COORD97":2573917.29,"ADDRESS":"八老爺１２９號","OBJECTID":241403},"geometry":{"x":178918.69000000041,"y":2573917.2899999991}},{"attributes":{"ID":241408,"DIS_CODE":0,"TOWNNAME":"柳營區","LI":"八翁里","LIN":"16鄰","STREET":" ","SECT":" ","MAREA":"八老爺","LANE":" ","ALLEY":" ","HOUSE_NO":"１３６號","E_COORD97":178830.32999999999,"N_COORD97":2573879.29,"ADDRESS":"八老爺１３６號","OBJECTID":241404},"geometry":{"x":178830.33000000101,"y":2573879.2899999991}},{"attributes":{"ID":241409,"DIS_CODE":0,"TOWNNAME":"安南區","LI":"海東里","LIN":"24鄰","STREET":"同安路","SECT":" ","MAREA":" ","LANE":"１６７巷","ALLEY":" ","HOUSE_NO":"９８號","E_COORD97":166913.29000000001,"N_COORD97":2549245.5,"ADDRESS":"同安路１６７巷９８號","OBJECTID":241405},"geometry":{"x":166913.29000000097,"y":2549245.5000000037}},{"attributes":{"ID":241410,"DIS_CODE":0,"TOWNNAME":"柳營區","LI":"八翁里","LIN":"16鄰","STREET":" ","SECT":" ","MAREA":"八老爺","LANE":" ","ALLEY":" ","HOUSE_NO":"１３７之２１號","E_COORD97":178402.76999999999,"N_COORD97":2573635.7999999998,"ADDRESS":"八老爺１３７之２１號","OBJECTID":241406},"geometry":{"x":178402.77000000048,"y":2573635.8000000026}},{"attributes":{"ID":241411,"DIS_CODE":0,"TOWNNAME":"柳營區","LI":"八翁里","LIN":"16鄰","STREET":" ","SECT":" ","MAREA":"八老爺","LANE":" ","ALLEY":" ","HOUSE_NO":"１３７之２６號","E_COORD97":178447.72,"N_COORD97":2573627.0299999998,"ADDRESS":"八老爺１３７之２６號","OBJECTID":241407},"geometry":{"x":178447.72000000067,"y":2573627.0299999993}},{"attributes":{"ID":241412,"DIS_CODE":0,"TOWNNAME":"柳營區","LI":"八翁里","LIN":"16鄰","STREET":" ","SECT":" ","MAREA":"八老爺","LANE":" ","ALLEY":" ","HOUSE_NO":"１３７之５號","E_COORD97":178617.73000000001,"N_COORD97":2573654.3500000001,"ADDRESS":"八老爺１３７之５號","OBJECTID":241408},"geometry":{"x":178617.73000000138,"y":2573654.3500000015}},{"attributes":{"ID":241413,"DIS_CODE":0,"TOWNNAME":"安南區","LI":"海東里","LIN":"24鄰","STREET":"同安路","SECT":" ","MAREA":" ","LANE":"１６７巷","ALLEY":" ","HOUSE_NO":"１００號","E_COORD97":166909.39999999999,"N_COORD97":2549247.7000000002,"ADDRESS":"同安路１６７巷１００號","OBJECTID":241409},"geometry":{"x":166909.4000000013,"y":2549247.7000000011}},{"attributes":{"ID":241414,"DIS_CODE":0,"TOWNNAME":"柳營區","LI":"八翁里","LIN":"16鄰","STREET":" ","SECT":" ","MAREA":"八老爺","LANE":" ","ALLEY":" ","HOUSE_NO":"１３７號","E_COORD97":178550.56,"N_COORD97":2573725.5899999999,"ADDRESS":"八老爺１３７號","OBJECTID":241410},"geometry":{"x":178550.56000000052,"y":2573725.5899999999}},{"attributes":{"ID":241415,"DIS_CODE":0,"TOWNNAME":"安南區","LI":"海東里","LIN":"24鄰","STREET":"同安路","SECT":" ","MAREA":" ","LANE":"１６７巷","ALLEY":" ","HOUSE_NO":"１０２號","E_COORD97":166905.84,"N_COORD97":2549250.6200000001,"ADDRESS":"同安路１６７巷１０２號","OBJECTID":241411},"geometry":{"x":166905.84000000078,"y":2549250.6200000029}},{"attributes":{"ID":241416,"DIS_CODE":0,"TOWNNAME":"柳營區","LI":"八翁里","LIN":"16鄰","STREET":" ","SECT":" ","MAREA":"八老爺","LANE":" ","ALLEY":" ","HOUSE_NO":"１３８之１號","E_COORD97":178713.44,"N_COORD97":2573727.4199999999,"ADDRESS":"八老爺１３８之１號","OBJECTID":241412},"geometry":{"x":178713.44000000041,"y":2573727.4199999999}},{"attributes":{"ID":241417,"DIS_CODE":0,"TOWNNAME":"柳營區","LI":"八翁里","LIN":"16鄰","STREET":" ","SECT":" ","MAREA":"八老爺","LANE":" ","ALLEY":" ","HOUSE_NO":"１３８號","E_COORD97":178767.79000000001,"N_COORD97":2573729.2799999998,"ADDRESS":"八老爺１３８號","OBJECTID":241413},"geometry":{"x":178767.79000000097,"y":2573729.2800000012}},{"attributes":{"ID":241418,"DIS_CODE":0,"TOWNNAME":"柳營區","LI":"八翁里","LIN":"16鄰","STREET":" ","SECT":" ","MAREA":"八老爺","LANE":" ","ALLEY":" ","HOUSE_NO":"９３之１０７號","E_COORD97":178779.60000000001,"N_COORD97":2573877.75,"ADDRESS":"八老爺９３之１０７號","OBJECTID":241414},"geometry":{"x":178779.59999999963,"y":2573877.75}},{"attributes":{"ID":241419,"DIS_CODE":0,"TOWNNAME":"柳營區","LI":"八翁里","LIN":"16鄰","STREET":" ","SECT":" ","MAREA":"八老爺","LANE":" ","ALLEY":" ","HOUSE_NO":"９３之１１２號","E_COORD97":178923.19,"N_COORD97":2573878.21,"ADDRESS":"八老爺９３之１１２號","OBJECTID":241415},"geometry":{"x":178923.19000000134,"y":2573878.2100000009}},{"attributes":{"ID":241420,"DIS_CODE":0,"TOWNNAME":"柳營區","LI":"八翁里","LIN":"16鄰","STREET":" ","SECT":" ","MAREA":"八老爺","LANE":" ","ALLEY":" ","HOUSE_NO":"９３之１３９號","E_COORD97":178426.14000000001,"N_COORD97":2574140.6899999999,"ADDRESS":"八老爺９３之１３９號","OBJECTID":241416},"geometry":{"x":178426.1400000006,"y":2574140.6900000013}},{"attributes":{"ID":241421,"DIS_CODE":0,"TOWNNAME":"柳營區","LI":"八翁里","LIN":"16鄰","STREET":" ","SECT":" ","MAREA":"八老爺","LANE":" ","ALLEY":" ","HOUSE_NO":"９３之２１號","E_COORD97":178610.60000000001,"N_COORD97":2573999.6600000001,"ADDRESS":"八老爺９３之２１號","OBJECTID":241417},"geometry":{"x":178610.60000000149,"y":2573999.6600000001}},{"attributes":{"ID":241422,"DIS_CODE":0,"TOWNNAME":"柳營區","LI":"八翁里","LIN":"16鄰","STREET":" ","SECT":" ","MAREA":"八老爺","LANE":" ","ALLEY":" ","HOUSE_NO":"９３號之２５","E_COORD97":177526.23000000001,"N_COORD97":2573691.4700000002,"ADDRESS":"八老爺９３號之２５","OBJECTID":241418},"geometry":{"x":177526.23000000138,"y":2573691.4700000025}},{"attributes":{"ID":241423,"DIS_CODE":0,"TOWNNAME":"柳營區","LI":"八翁里","LIN":"16鄰","STREET":" ","SECT":" ","MAREA":"八老爺","LANE":" ","ALLEY":" ","HOUSE_NO":"９３之３３號","E_COORD97":178796.57000000001,"N_COORD97":2574139.8300000001,"ADDRESS":"八老爺９３之３３號","OBJECTID":241419},"geometry":{"x":178796.57000000123,"y":2574139.8300000019}},{"attributes":{"ID":241424,"DIS_CODE":0,"TOWNNAME":"柳營區","LI":"八翁里","LIN":"16鄰","STREET":" ","SECT":" ","MAREA":"八老爺","LANE":" ","ALLEY":" ","HOUSE_NO":"９３之３４號","E_COORD97":178615.82000000001,"N_COORD97":2574147.29,"ADDRESS":"八老爺９３之３４號","OBJECTID":241420},"geometry":{"x":178615.8200000003,"y":2574147.2899999991}},{"attributes":{"ID":241425,"DIS_CODE":0,"TOWNNAME":"柳營區","LI":"八翁里","LIN":"16鄰","STREET":" ","SECT":" ","MAREA":"八老爺","LANE":" ","ALLEY":" ","HOUSE_NO":"９３之３７號","E_COORD97":178800.16,"N_COORD97":2574177.52,"ADDRESS":"八老爺９３之３７號","OBJECTID":241421},"geometry":{"x":178800.16000000015,"y":2574177.5199999977}},{"attributes":{"ID":241426,"DIS_CODE":0,"TOWNNAME":"柳營區","LI":"八翁里","LIN":"16鄰","STREET":" ","SECT":" ","MAREA":"八老爺","LANE":" ","ALLEY":" ","HOUSE_NO":"９３之３８號","E_COORD97":178866.95999999999,"N_COORD97":2574110.5299999998,"ADDRESS":"八老爺９３之３８號","OBJECTID":241422},"geometry":{"x":178866.95999999996,"y":2574110.5300000012}},{"attributes":{"ID":241427,"DIS_CODE":0,"TOWNNAME":"南區","LI":"明興里","LIN":"22鄰","STREET":"永春街","SECT":" ","MAREA":" ","LANE":" ","ALLEY":" ","HOUSE_NO":"９號","E_COORD97":167094.95000000001,"N_COORD97":2540606.5299999998,"ADDRESS":"永春街９號","OBJECTID":241423},"geometry":{"x":167094.95000000205,"y":2540606.5300000012}},{"attributes":{"ID":241428,"DIS_CODE":0,"TOWNNAME":"柳營區","LI":"八翁里","LIN":"16鄰","STREET":" ","SECT":" ","MAREA":"八老爺","LANE":" ","ALLEY":" ","HOUSE_NO":"９３之４０號","E_COORD97":178389.81,"N_COORD97":2573950.1899999999,"ADDRESS":"八老爺９３之４０號","OBJECTID":241424},"geometry":{"x":178389.80999999959,"y":2573950.1900000013}},{"attributes":{"ID":241429,"DIS_CODE":0,"TOWNNAME":"柳營區","LI":"八翁里","LIN":"16鄰","STREET":" ","SECT":" ","MAREA":"八老爺","LANE":" ","ALLEY":" ","HOUSE_NO":"９３之４４號","E_COORD97":178621.26000000001,"N_COORD97":2573880.8799999999,"ADDRESS":"八老爺９３之４４號","OBJECTID":241425},"geometry":{"x":178621.25999999978,"y":2573880.8800000008}},{"attributes":{"ID":241430,"DIS_CODE":0,"TOWNNAME":"柳營區","LI":"八翁里","LIN":"16鄰","STREET":" ","SECT":" ","MAREA":"八老爺","LANE":" ","ALLEY":" ","HOUSE_NO":"９３之６８號","E_COORD97":178695.87,"N_COORD97":2574131.79,"ADDRESS":"八老爺９３之６８號","OBJECTID":241426},"geometry":{"x":178695.87000000104,"y":2574131.790000001}},{"attributes":{"ID":241431,"DIS_CODE":0,"TOWNNAME":"柳營區","LI":"八翁里","LIN":"16鄰","STREET":" ","SECT":" ","MAREA":"八老爺","LANE":" ","ALLEY":" ","HOUSE_NO":"９３之７１號","E_COORD97":178785.09,"N_COORD97":2573929.3500000001,"ADDRESS":"八老爺９３之７１號","OBJECTID":241427},"geometry":{"x":178785.08999999985,"y":2573929.3500000015}},{"attributes":{"ID":241432,"DIS_CODE":0,"TOWNNAME":"柳營區","LI":"八翁里","LIN":"16鄰","STREET":" ","SECT":" ","MAREA":"八老爺","LANE":" ","ALLEY":" ","HOUSE_NO":"９３之７２號","E_COORD97":178737.70999999999,"N_COORD97":2574111.98,"ADDRESS":"八老爺９３之７２號","OBJECTID":241428},"geometry":{"x":178737.71000000089,"y":2574111.9800000023}},{"attributes":{"ID":241433,"DIS_CODE":0,"TOWNNAME":"柳營區","LI":"八翁里","LIN":"16鄰","STREET":" ","SECT":" ","MAREA":"八老爺","LANE":" ","ALLEY":" ","HOUSE_NO":"９３之８０號","E_COORD97":178914.44,"N_COORD97":2574073.3599999999,"ADDRESS":"八老爺９３之８０號","OBJECTID":241429},"geometry":{"x":178914.44000000134,"y":2574073.3600000031}},{"attributes":{"ID":241434,"DIS_CODE":0,"TOWNNAME":"新營區","LI":"太北里","LIN":"16鄰","STREET":" ","SECT":" ","MAREA":"太子宮","LANE":" ","ALLEY":" ","HOUSE_NO":"１３３之１１號","E_COORD97":175888.09937400001,"N_COORD97":2576846.28131,"ADDRESS":"太子宮１３３之１１號","OBJECTID":241430},"geometry":{"x":175888.09937399998,"y":2576846.2813140005}},{"attributes":{"ID":241435,"DIS_CODE":0,"TOWNNAME":"新營區","LI":"太南里","LIN":"16鄰","STREET":" ","SECT":" ","MAREA":"太子宮","LANE":" ","ALLEY":" ","HOUSE_NO":"３０５之３２號","E_COORD97":175950.23000000001,"N_COORD97":2576713.1200000001,"ADDRESS":"太子宮３０５之３２號","OBJECTID":241431},"geometry":{"x":175950.23000000045,"y":2576713.120000001}},{"attributes":{"ID":241436,"DIS_CODE":0,"TOWNNAME":"新營區","LI":"土庫里","LIN":"16鄰","STREET":" ","SECT":" ","MAREA":"卯舍","LANE":" ","ALLEY":" ","HOUSE_NO":"１２之１３號","E_COORD97":181721.88,"N_COORD97":2580102.9900000002,"ADDRESS":"卯舍１２之１３號","OBJECTID":241432},"geometry":{"x":181721.88000000082,"y":2580102.9900000021}},{"attributes":{"ID":241437,"DIS_CODE":0,"TOWNNAME":"新營區","LI":"太北里","LIN":"16鄰","STREET":" ","SECT":" ","MAREA":"太子宮","LANE":" ","ALLEY":" ","HOUSE_NO":"１４６之２３號","E_COORD97":175740.25,"N_COORD97":2577087.3900000001,"ADDRESS":"太子宮１４６之２３號","OBJECTID":241433},"geometry":{"x":175740.25000000093,"y":2577087.3900000006}},{"attributes":{"ID":241438,"DIS_CODE":0,"TOWNNAME":"柳營區","LI":"東昇里","LIN":"16鄰","STREET":"十美街","SECT":" ","MAREA":" ","LANE":"８３巷","ALLEY":" ","HOUSE_NO":"３號","E_COORD97":180549.60999999999,"N_COORD97":2575467.5899999999,"ADDRESS":"十美街８３巷３號","OBJECTID":241434},"geometry":{"x":180549.61000000127,"y":2575467.5899999999}},{"attributes":{"ID":241439,"DIS_CODE":0,"TOWNNAME":"永康區","LI":"中興里","LIN":"5鄰","STREET":"中華路","SECT":" ","MAREA":" ","LANE":"２１４巷","ALLEY":" ","HOUSE_NO":"３３號","E_COORD97":171784.82000000001,"N_COORD97":2545067.6299999999,"ADDRESS":"中華路２１４巷３３號","OBJECTID":241435},"geometry":{"x":171784.81999999937,"y":2545067.6300000008}},{"attributes":{"ID":241440,"DIS_CODE":0,"TOWNNAME":"中西區","LI":"進學里","LIN":"14鄰","STREET":"忠義路","SECT":"一段","MAREA":" ","LANE":"１２５巷","ALLEY":" ","HOUSE_NO":"５號","E_COORD97":168126.08129,"N_COORD97":2543268.8014000002,"ADDRESS":"忠義路一段１２５巷５號","OBJECTID":241436},"geometry":{"x":168126.08129000105,"y":2543268.8014000002}},{"attributes":{"ID":241441,"DIS_CODE":0,"TOWNNAME":"永康區","LI":"大灣里","LIN":"5鄰","STREET":"大民街","SECT":" ","MAREA":" ","LANE":"１２９巷","ALLEY":" ","HOUSE_NO":"１２號","E_COORD97":174896.95000000001,"N_COORD97":2545629.5299999998,"ADDRESS":"大民街１２９巷１２號","OBJECTID":241437},"geometry":{"x":174896.95000000112,"y":2545629.5299999993}},{"attributes":{"ID":241442,"DIS_CODE":0,"TOWNNAME":"安南區","LI":"海東里","LIN":"24鄰","STREET":"同安路","SECT":" ","MAREA":" ","LANE":"１６７巷","ALLEY":" ","HOUSE_NO":"１０６號","E_COORD97":166902.66,"N_COORD97":2549253.1200000001,"ADDRESS":"同安路１６７巷１０６號","OBJECTID":241438},"geometry":{"x":166902.66000000108,"y":2549253.1200000029}},{"attributes":{"ID":241443,"DIS_CODE":0,"TOWNNAME":"安南區","LI":"海東里","LIN":"24鄰","STREET":"同安路","SECT":" ","MAREA":" ","LANE":"１６７巷","ALLEY":" ","HOUSE_NO":"１０８號","E_COORD97":166898.85000000001,"N_COORD97":2549255.9700000002,"ADDRESS":"同安路１６７巷１０８號","OBJECTID":241439},"geometry":{"x":166898.85000000056,"y":2549255.9700000007}},{"attributes":{"ID":241444,"DIS_CODE":0,"TOWNNAME":"安南區","LI":"海東里","LIN":"24鄰","STREET":"同安路","SECT":" ","MAREA":" ","LANE":"１９５巷","ALLEY":" ","HOUSE_NO":"７５號","E_COORD97":166957.42999999999,"N_COORD97":2549270.2599999998,"ADDRESS":"同安路１９５巷７５號","OBJECTID":241440},"geometry":{"x":166957.43000000156,"y":2549270.2599999998}},{"attributes":{"ID":241445,"DIS_CODE":0,"TOWNNAME":"安南區","LI":"海東里","LIN":"24鄰","STREET":"同安路","SECT":" ","MAREA":" ","LANE":"１９５巷","ALLEY":" ","HOUSE_NO":"７７號","E_COORD97":166954.89000000001,"N_COORD97":2549272.3300000001,"ADDRESS":"同安路１９５巷７７號","OBJECTID":241441},"geometry":{"x":166954.8900000006,"y":2549272.3300000001}},{"attributes":{"ID":241446,"DIS_CODE":0,"TOWNNAME":"安南區","LI":"海東里","LIN":"24鄰","STREET":"同安路","SECT":" ","MAREA":" ","LANE":"１９５巷","ALLEY":" ","HOUSE_NO":"７９號","E_COORD97":166951.07999999999,"N_COORD97":2549275.8199999998,"ADDRESS":"同安路１９５巷７９號","OBJECTID":241442},"geometry":{"x":166951.08000000007,"y":2549275.8200000003}},{"attributes":{"ID":241447,"DIS_CODE":0,"TOWNNAME":"安南區","LI":"海東里","LIN":"24鄰","STREET":"同安路","SECT":" ","MAREA":" ","LANE":"１９５巷","ALLEY":" ","HOUSE_NO":"８１號","E_COORD97":166947.73999999999,"N_COORD97":2549278.2000000002,"ADDRESS":"同安路１９５巷８１號","OBJECTID":241443},"geometry":{"x":166947.74000000115,"y":2549278.2000000011}},{"attributes":{"ID":241448,"DIS_CODE":0,"TOWNNAME":"安南區","LI":"海東里","LIN":"24鄰","STREET":"同安路","SECT":" ","MAREA":" ","LANE":"１９５巷","ALLEY":" ","HOUSE_NO":"８５號","E_COORD97":166941.07999999999,"N_COORD97":2549282.7999999998,"ADDRESS":"同安路１９５巷８５號","OBJECTID":241444},"geometry":{"x":166941.08000000007,"y":2549282.8000000026}},{"attributes":{"ID":241449,"DIS_CODE":0,"TOWNNAME":"安南區","LI":"海東里","LIN":"24鄰","STREET":"同安路","SECT":" ","MAREA":" ","LANE":"１９５巷","ALLEY":" ","HOUSE_NO":"８７號","E_COORD97":166937.89999999999,"N_COORD97":2549285.8199999998,"ADDRESS":"同安路１９５巷８７號","OBJECTID":241445},"geometry":{"x":166937.90000000224,"y":2549285.8200000022}},{"attributes":{"ID":241450,"DIS_CODE":0,"TOWNNAME":"中西區","LI":"藥王里","LIN":"14鄰","STREET":"臨安路","SECT":"一段","MAREA":" ","LANE":" ","ALLEY":" ","HOUSE_NO":"７３號五樓之９","E_COORD97":166995.17000000001,"N_COORD97":2544409.9300000002,"ADDRESS":"臨安路一段７３號五樓之９","OBJECTID":241446},"geometry":{"x":166995.17000000086,"y":2544409.9299999997}},{"attributes":{"ID":241451,"DIS_CODE":0,"TOWNNAME":"中西區","LI":"藥王里","LIN":"14鄰","STREET":"臨安路","SECT":"一段","MAREA":" ","LANE":" ","ALLEY":" ","HOUSE_NO":"７３號六樓之１","E_COORD97":166995.17000000001,"N_COORD97":2544409.9300000002,"ADDRESS":"臨安路一段７３號六樓之１","OBJECTID":241447},"geometry":{"x":166995.17000000086,"y":2544409.9299999997}},{"attributes":{"ID":241452,"DIS_CODE":0,"TOWNNAME":"柳營區","LI":"東昇里","LIN":"16鄰","STREET":"十美街","SECT":" ","MAREA":" ","LANE":" ","ALLEY":" ","HOUSE_NO":"７２號","E_COORD97":180659.41,"N_COORD97":2575495.6099999999,"ADDRESS":"十美街７２號","OBJECTID":241448},"geometry":{"x":180659.41000000015,"y":2575495.6099999975}},{"attributes":{"ID":241453,"DIS_CODE":0,"TOWNNAME":"新營區","LI":"民榮里","LIN":"16鄰","STREET":"太子路","SECT":" ","MAREA":" ","LANE":"１９巷","ALLEY":" ","HOUSE_NO":"４３號","E_COORD97":178470.20000000001,"N_COORD97":2578035.1600000001,"ADDRESS":"太子路１９巷４３號","OBJECTID":241449},"geometry":{"x":178470.20000000112,"y":2578035.1600000001}},{"attributes":{"ID":241454,"DIS_CODE":0,"TOWNNAME":"新營區","LI":"新南里","LIN":"16鄰","STREET":"隋唐街","SECT":" ","MAREA":" ","LANE":"３１巷","ALLEY":" ","HOUSE_NO":"２３號","E_COORD97":178712.41,"N_COORD97":2578418.2799999998,"ADDRESS":"隋唐街３１巷２３號","OBJECTID":241450},"geometry":{"x":178712.41000000201,"y":2578418.2800000012}},{"attributes":{"ID":241455,"DIS_CODE":0,"TOWNNAME":"新營區","LI":"南興里","LIN":"16鄰","STREET":"興農街","SECT":" ","MAREA":" ","LANE":"１４０巷","ALLEY":" ","HOUSE_NO":"８號之１","E_COORD97":179219.54000000001,"N_COORD97":2577545.4399999999,"ADDRESS":"興農街１４０巷８號之１","OBJECTID":241451},"geometry":{"x":179219.54000000004,"y":2577545.4400000013}},{"attributes":{"ID":241456,"DIS_CODE":0,"TOWNNAME":"新營區","LI":"大宏里","LIN":"16鄰","STREET":"開元路","SECT":" ","MAREA":" ","LANE":"５９巷","ALLEY":" ","HOUSE_NO":"８６號","E_COORD97":180804.13,"N_COORD97":2578846.9100000001,"ADDRESS":"開元路５９巷８６號","OBJECTID":241452},"geometry":{"x":180804.13000000175,"y":2578846.9100000001}},{"attributes":{"ID":241457,"DIS_CODE":0,"TOWNNAME":"新營區","LI":"太北里","LIN":"16鄰","STREET":" ","SECT":" ","MAREA":"太子宮","LANE":" ","ALLEY":" ","HOUSE_NO":"１３３號","E_COORD97":175877.64999999999,"N_COORD97":2576879.54,"ADDRESS":"太子宮１３３號","OBJECTID":241453},"geometry":{"x":175877.65000000037,"y":2576879.540000001}},{"attributes":{"ID":241458,"DIS_CODE":0,"TOWNNAME":"新營區","LI":"新南里","LIN":"16鄰","STREET":"隋唐街","SECT":" ","MAREA":" ","LANE":"３１巷","ALLEY":" ","HOUSE_NO":"３３號","E_COORD97":178706.14999999999,"N_COORD97":2578389.5099999998,"ADDRESS":"隋唐街３１巷３３號","OBJECTID":241454},"geometry":{"x":178706.1500000013,"y":2578389.5100000016}},{"attributes":{"ID":241459,"DIS_CODE":0,"TOWNNAME":"新營區","LI":"三仙里","LIN":"16鄰","STREET":"三興街","SECT":" ","MAREA":" ","LANE":"３２巷","ALLEY":" ","HOUSE_NO":"１０號","E_COORD97":179534.38,"N_COORD97":2578344.5699999998,"ADDRESS":"三興街３２巷１０號","OBJECTID":241455},"geometry":{"x":179534.37999999896,"y":2578344.5700000003}},{"attributes":{"ID":241460,"DIS_CODE":0,"TOWNNAME":"新營區","LI":"興業里","LIN":"16鄰","STREET":"中興路","SECT":" ","MAREA":" ","LANE":"１５巷","ALLEY":" ","HOUSE_NO":"２號","E_COORD97":180143.89999999999,"N_COORD97":2577920.8500000001,"ADDRESS":"中興路１５巷２號","OBJECTID":241456},"geometry":{"x":180143.9000000013,"y":2577920.8499999996}},{"attributes":{"ID":241461,"DIS_CODE":0,"TOWNNAME":"安南區","LI":"海東里","LIN":"24鄰","STREET":"同安路","SECT":" ","MAREA":" ","LANE":"１９５巷","ALLEY":" ","HOUSE_NO":"８９號","E_COORD97":166934.57000000001,"N_COORD97":2549288.04,"ADDRESS":"同安路１９５巷８９號","OBJECTID":241457},"geometry":{"x":166934.5700000003,"y":2549288.0399999972}},{"attributes":{"ID":241462,"DIS_CODE":0,"TOWNNAME":"安南區","LI":"海東里","LIN":"24鄰","STREET":"同安路","SECT":" ","MAREA":" ","LANE":"１９５巷","ALLEY":" ","HOUSE_NO":"９１號","E_COORD97":166930.76000000001,"N_COORD97":2549290.2599999998,"ADDRESS":"同安路１９５巷９１號","OBJECTID":241458},"geometry":{"x":166930.75999999978,"y":2549290.2599999998}},{"attributes":{"ID":241463,"DIS_CODE":0,"TOWNNAME":"安南區","LI":"海東里","LIN":"24鄰","STREET":"同安路","SECT":" ","MAREA":" ","LANE":"１９５巷","ALLEY":" ","HOUSE_NO":"９３號","E_COORD97":166927.57999999999,"N_COORD97":2549293.6000000001,"ADDRESS":"同安路１９５巷９３號","OBJECTID":241459},"geometry":{"x":166927.58000000007,"y":2549293.5999999996}},{"attributes":{"ID":241464,"DIS_CODE":0,"TOWNNAME":"中西區","LI":"藥王里","LIN":"14鄰","STREET":"臨安路","SECT":"一段","MAREA":" ","LANE":" ","ALLEY":" ","HOUSE_NO":"７３號六樓之１０","E_COORD97":166995.17000000001,"N_COORD97":2544409.9300000002,"ADDRESS":"臨安路一段７３號六樓之１０","OBJECTID":241460},"geometry":{"x":166995.17000000086,"y":2544409.9299999997}},{"attributes":{"ID":241465,"DIS_CODE":0,"TOWNNAME":"中西區","LI":"藥王里","LIN":"14鄰","STREET":"臨安路","SECT":"一段","MAREA":" ","LANE":" ","ALLEY":" ","HOUSE_NO":"７３號六樓之１１","E_COORD97":166995.17000000001,"N_COORD97":2544409.9300000002,"ADDRESS":"臨安路一段７３號六樓之１１","OBJECTID":241461},"geometry":{"x":166995.17000000086,"y":2544409.9299999997}},{"attributes":{"ID":241466,"DIS_CODE":0,"TOWNNAME":"中西區","LI":"藥王里","LIN":"14鄰","STREET":"臨安路","SECT":"一段","MAREA":" ","LANE":" ","ALLEY":" ","HOUSE_NO":"７３號六樓之１２","E_COORD97":166995.17000000001,"N_COORD97":2544409.9300000002,"ADDRESS":"臨安路一段７３號六樓之１２","OBJECTID":241462},"geometry":{"x":166995.17000000086,"y":2544409.9299999997}},{"attributes":{"ID":241467,"DIS_CODE":0,"TOWNNAME":"中西區","LI":"藥王里","LIN":"14鄰","STREET":"臨安路","SECT":"一段","MAREA":" ","LANE":" ","ALLEY":" ","HOUSE_NO":"７３號六樓之１３","E_COORD97":166995.17000000001,"N_COORD97":2544409.9300000002,"ADDRESS":"臨安路一段７３號六樓之１３","OBJECTID":241463},"geometry":{"x":166995.17000000086,"y":2544409.9299999997}},{"attributes":{"ID":241468,"DIS_CODE":0,"TOWNNAME":"中西區","LI":"藥王里","LIN":"14鄰","STREET":"臨安路","SECT":"一段","MAREA":" ","LANE":" ","ALLEY":" ","HOUSE_NO":"７３號六樓之２","E_COORD97":166995.17000000001,"N_COORD97":2544409.9300000002,"ADDRESS":"臨安路一段７３號六樓之２","OBJECTID":241464},"geometry":{"x":166995.17000000086,"y":2544409.9299999997}},{"attributes":{"ID":241469,"DIS_CODE":0,"TOWNNAME":"中西區","LI":"藥王里","LIN":"14鄰","STREET":"臨安路","SECT":"一段","MAREA":" ","LANE":" ","ALLEY":" ","HOUSE_NO":"７３號六樓之３","E_COORD97":166995.17000000001,"N_COORD97":2544409.9300000002,"ADDRESS":"臨安路一段７３號六樓之３","OBJECTID":241465},"geometry":{"x":166995.17000000086,"y":2544409.9299999997}},{"attributes":{"ID":241470,"DIS_CODE":0,"TOWNNAME":"新營區","LI":"土庫里","LIN":"16鄰","STREET":" ","SECT":" ","MAREA":"卯舍","LANE":" ","ALLEY":" ","HOUSE_NO":"１２之３號","E_COORD97":181763.63,"N_COORD97":2580113.8700000001,"ADDRESS":"卯舍１２之３號","OBJECTID":241466},"geometry":{"x":181763.63000000175,"y":2580113.8700000029}},{"attributes":{"ID":241471,"DIS_CODE":0,"TOWNNAME":"新營區","LI":"土庫里","LIN":"16鄰","STREET":" ","SECT":" ","MAREA":"卯舍","LANE":" ","ALLEY":" ","HOUSE_NO":"４號","E_COORD97":181973.85000000001,"N_COORD97":2580142.73,"ADDRESS":"卯舍４號","OBJECTID":241467},"geometry":{"x":181973.85000000149,"y":2580142.7300000004}},{"attributes":{"ID":241472,"DIS_CODE":0,"TOWNNAME":"仁德區","LI":"太子里","LIN":"28鄰","STREET":"太子五街","SECT":" ","MAREA":" ","LANE":" ","ALLEY":" ","HOUSE_NO":"１４號","E_COORD97":173060.41406000001,"N_COORD97":2543278.9747199998,"ADDRESS":"太子五街１４號","OBJECTID":241468},"geometry":{"x":173060.41406000126,"y":2543278.9747200012}},{"attributes":{"ID":241473,"DIS_CODE":0,"TOWNNAME":"新營區","LI":"太南里","LIN":"16鄰","STREET":" ","SECT":" ","MAREA":"太子宮","LANE":" ","ALLEY":" ","HOUSE_NO":"３０５之１８號","E_COORD97":175956.26000000001,"N_COORD97":2576693.1600000001,"ADDRESS":"太子宮３０５之１８號","OBJECTID":241469},"geometry":{"x":175956.25999999978,"y":2576693.1600000039}},{"attributes":{"ID":241474,"DIS_CODE":0,"TOWNNAME":"新營區","LI":"太南里","LIN":"16鄰","STREET":" ","SECT":" ","MAREA":"太子宮","LANE":" ","ALLEY":" ","HOUSE_NO":"３０５號","E_COORD97":176009.91,"N_COORD97":2576713.8599999999,"ADDRESS":"太子宮３０５號","OBJECTID":241470},"geometry":{"x":176009.91000000015,"y":2576713.8599999994}},{"attributes":{"ID":241475,"DIS_CODE":0,"TOWNNAME":"新營區","LI":"土庫里","LIN":"16鄰","STREET":" ","SECT":" ","MAREA":"卯舍","LANE":" ","ALLEY":" ","HOUSE_NO":"１２之３０號","E_COORD97":181720.92000000001,"N_COORD97":2580116.29,"ADDRESS":"卯舍１２之３０號","OBJECTID":241471},"geometry":{"x":181720.91999999899,"y":2580116.290000001}},{"attributes":{"ID":241476,"DIS_CODE":0,"TOWNNAME":"新營區","LI":"忠政里","LIN":"16鄰","STREET":"府西路","SECT":" ","MAREA":" ","LANE":"２６１巷","ALLEY":" ","HOUSE_NO":"１４號","E_COORD97":179767.23999999999,"N_COORD97":2579779.8399999999,"ADDRESS":"府西路２６１巷１４號","OBJECTID":241472},"geometry":{"x":179767.24000000022,"y":2579779.839999998}},{"attributes":{"ID":241477,"DIS_CODE":0,"TOWNNAME":"安南區","LI":"海東里","LIN":"24鄰","STREET":"同安路","SECT":" ","MAREA":" ","LANE":"１９５巷","ALLEY":" ","HOUSE_NO":"７３號","E_COORD97":166968.22,"N_COORD97":2549261.21,"ADDRESS":"同安路１９５巷７３號","OBJECTID":241473},"geometry":{"x":166968.21999999974,"y":2549261.2100000009}},{"attributes":{"ID":241478,"DIS_CODE":0,"TOWNNAME":"安南區","LI":"海東里","LIN":"24鄰","STREET":"同安路","SECT":" ","MAREA":" ","LANE":"１９５巷","ALLEY":" ","HOUSE_NO":"２７號","E_COORD97":167048.34,"N_COORD97":2549201.4700000002,"ADDRESS":"同安路１９５巷２７號","OBJECTID":241474},"geometry":{"x":167048.34000000078,"y":2549201.4700000007}},{"attributes":{"ID":241479,"DIS_CODE":0,"TOWNNAME":"安南區","LI":"海東里","LIN":"24鄰","STREET":"同安路","SECT":" ","MAREA":" ","LANE":"１９５巷","ALLEY":" ","HOUSE_NO":"２９號","E_COORD97":167044.73999999999,"N_COORD97":2549205.0099999998,"ADDRESS":"同安路１９５巷２９號","OBJECTID":241475},"geometry":{"x":167044.74000000115,"y":2549205.0100000016}},{"attributes":{"ID":241480,"DIS_CODE":0,"TOWNNAME":"安南區","LI":"海東里","LIN":"24鄰","STREET":"同安路","SECT":" ","MAREA":" ","LANE":"１９５巷","ALLEY":" ","HOUSE_NO":"３１號","E_COORD97":167041.57000000001,"N_COORD97":2549207.8700000001,"ADDRESS":"同安路１９５巷３１號","OBJECTID":241476},"geometry":{"x":167041.5700000003,"y":2549207.8700000029}},{"attributes":{"ID":241481,"DIS_CODE":0,"TOWNNAME":"安南區","LI":"海東里","LIN":"24鄰","STREET":"同安路","SECT":" ","MAREA":" ","LANE":"１９５巷","ALLEY":" ","HOUSE_NO":"３３號","E_COORD97":167038.39000000001,"N_COORD97":2549210.5699999998,"ADDRESS":"同安路１９５巷３３號","OBJECTID":241477},"geometry":{"x":167038.38999999966,"y":2549210.5700000003}},{"attributes":{"ID":241482,"DIS_CODE":0,"TOWNNAME":"安南區","LI":"海東里","LIN":"24鄰","STREET":"同安路","SECT":" ","MAREA":" ","LANE":"１９５巷","ALLEY":" ","HOUSE_NO":"３５號","E_COORD97":167034.89999999999,"N_COORD97":2549212.79,"ADDRESS":"同安路１９５巷３５號","OBJECTID":241478},"geometry":{"x":167034.9000000013,"y":2549212.790000001}},{"attributes":{"ID":241483,"DIS_CODE":0,"TOWNNAME":"安南區","LI":"海東里","LIN":"24鄰","STREET":"同安路","SECT":" ","MAREA":" ","LANE":"１９５巷","ALLEY":" ","HOUSE_NO":"３７號","E_COORD97":167030.45000000001,"N_COORD97":2549215.1699999999,"ADDRESS":"同安路１９５巷３７號","OBJECTID":241479},"geometry":{"x":167030.45000000019,"y":2549215.1700000018}},{"attributes":{"ID":241484,"DIS_CODE":0,"TOWNNAME":"安南區","LI":"海東里","LIN":"24鄰","STREET":"同安路","SECT":" ","MAREA":" ","LANE":"１９５巷","ALLEY":" ","HOUSE_NO":"３９號","E_COORD97":167026.64000000001,"N_COORD97":2549218.3500000001,"ADDRESS":"同安路１９５巷３９號","OBJECTID":241480},"geometry":{"x":167026.63999999966,"y":2549218.3499999996}},{"attributes":{"ID":241485,"DIS_CODE":0,"TOWNNAME":"安南區","LI":"海東里","LIN":"24鄰","STREET":"同安路","SECT":" ","MAREA":" ","LANE":"１９５巷","ALLEY":" ","HOUSE_NO":"４１號","E_COORD97":167023.14999999999,"N_COORD97":2549220.73,"ADDRESS":"同安路１９５巷４１號","OBJECTID":241481},"geometry":{"x":167023.1500000013,"y":2549220.7300000042}},{"attributes":{"ID":241486,"DIS_CODE":0,"TOWNNAME":"安南區","LI":"海東里","LIN":"24鄰","STREET":"同安路","SECT":" ","MAREA":" ","LANE":"１９５巷","ALLEY":" ","HOUSE_NO":"４３號","E_COORD97":167020.29000000001,"N_COORD97":2549223.5899999999,"ADDRESS":"同安路１９５巷４３號","OBJECTID":241482},"geometry":{"x":167020.29000000097,"y":2549223.5899999999}},{"attributes":{"ID":241487,"DIS_CODE":0,"TOWNNAME":"安南區","LI":"海東里","LIN":"24鄰","STREET":"同安路","SECT":" ","MAREA":" ","LANE":"１９５巷","ALLEY":" ","HOUSE_NO":"４５號","E_COORD97":167016.17000000001,"N_COORD97":2549226.7599999998,"ADDRESS":"同安路１９５巷４５號","OBJECTID":241483},"geometry":{"x":167016.16999999993,"y":2549226.7600000016}},{"attributes":{"ID":241488,"DIS_CODE":0,"TOWNNAME":"安南區","LI":"海東里","LIN":"24鄰","STREET":"同安路","SECT":" ","MAREA":" ","LANE":"１９５巷","ALLEY":" ","HOUSE_NO":"４７號","E_COORD97":167012.20000000001,"N_COORD97":2549228.8300000001,"ADDRESS":"同安路１９５巷４７號","OBJECTID":241484},"geometry":{"x":167012.20000000112,"y":2549228.8300000001}},{"attributes":{"ID":241489,"DIS_CODE":0,"TOWNNAME":"安南區","LI":"海東里","LIN":"24鄰","STREET":"同安路","SECT":" ","MAREA":" ","LANE":"１９５巷","ALLEY":" ","HOUSE_NO":"４９號","E_COORD97":167009.34,"N_COORD97":2549231.6800000002,"ADDRESS":"同安路１９５巷４９號","OBJECTID":241485},"geometry":{"x":167009.34000000078,"y":2549231.6800000016}},{"attributes":{"ID":241490,"DIS_CODE":0,"TOWNNAME":"安南區","LI":"海東里","LIN":"24鄰","STREET":"同安路","SECT":" ","MAREA":" ","LANE":"１９５巷","ALLEY":" ","HOUSE_NO":"５１號","E_COORD97":167005.69,"N_COORD97":2549234.3799999999,"ADDRESS":"同安路１９５巷５１號","OBJECTID":241486},"geometry":{"x":167005.69000000134,"y":2549234.379999999}},{"attributes":{"ID":241491,"DIS_CODE":0,"TOWNNAME":"安南區","LI":"海東里","LIN":"24鄰","STREET":"同安路","SECT":" ","MAREA":" ","LANE":"１９５巷","ALLEY":" ","HOUSE_NO":"５３號","E_COORD97":167001.56,"N_COORD97":2549236.77,"ADDRESS":"同安路１９５巷５３號","OBJECTID":241487},"geometry":{"x":167001.55999999959,"y":2549236.7700000014}},{"attributes":{"ID":241492,"DIS_CODE":0,"TOWNNAME":"中西區","LI":"藥王里","LIN":"14鄰","STREET":"臨安路","SECT":"一段","MAREA":" ","LANE":" ","ALLEY":" ","HOUSE_NO":"７３號六樓之４","E_COORD97":166995.17000000001,"N_COORD97":2544409.9300000002,"ADDRESS":"臨安路一段７３號六樓之４","OBJECTID":241488},"geometry":{"x":166995.17000000086,"y":2544409.9299999997}},{"attributes":{"ID":241493,"DIS_CODE":0,"TOWNNAME":"中西區","LI":"藥王里","LIN":"14鄰","STREET":"臨安路","SECT":"一段","MAREA":" ","LANE":" ","ALLEY":" ","HOUSE_NO":"７３號六樓之５","E_COORD97":166995.17000000001,"N_COORD97":2544409.9300000002,"ADDRESS":"臨安路一段７３號六樓之５","OBJECTID":241489},"geometry":{"x":166995.17000000086,"y":2544409.9299999997}},{"attributes":{"ID":241494,"DIS_CODE":0,"TOWNNAME":"安平區","LI":"怡平里","LIN":"16鄰","STREET":"永華六街","SECT":" ","MAREA":" ","LANE":"１５４巷","ALLEY":" ","HOUSE_NO":"３８號","E_COORD97":165718.92000000001,"N_COORD97":2543937.8999999999,"ADDRESS":"永華六街１５４巷３８號","OBJECTID":241490},"geometry":{"x":165718.92000000086,"y":2543937.9000000022}},{"attributes":{"ID":241495,"DIS_CODE":0,"TOWNNAME":"安平區","LI":"怡平里","LIN":"16鄰","STREET":"永華六街","SECT":" ","MAREA":" ","LANE":"１５４巷","ALLEY":" ","HOUSE_NO":"４０號","E_COORD97":165714.53,"N_COORD97":2543937.8999999999,"ADDRESS":"永華六街１５４巷４０號","OBJECTID":241491},"geometry":{"x":165714.52999999933,"y":2543937.9000000022}},{"attributes":{"ID":241496,"DIS_CODE":0,"TOWNNAME":"安平區","LI":"怡平里","LIN":"16鄰","STREET":"永華六街","SECT":" ","MAREA":" ","LANE":"１５４巷","ALLEY":" ","HOUSE_NO":"４２號","E_COORD97":165710.44,"N_COORD97":2543938.2000000002,"ADDRESS":"永華六街１５４巷４２號","OBJECTID":241492},"geometry":{"x":165710.44000000227,"y":2543938.2000000011}},{"attributes":{"ID":241497,"DIS_CODE":0,"TOWNNAME":"安平區","LI":"怡平里","LIN":"16鄰","STREET":"永華六街","SECT":" ","MAREA":" ","LANE":"１５４巷","ALLEY":" ","HOUSE_NO":"５２號","E_COORD97":165686.06,"N_COORD97":2543944.3799999999,"ADDRESS":"永華六街１５４巷５２號","OBJECTID":241493},"geometry":{"x":165686.05999999959,"y":2543944.379999999}},{"attributes":{"ID":241498,"DIS_CODE":0,"TOWNNAME":"安平區","LI":"怡平里","LIN":"16鄰","STREET":"永華六街","SECT":" ","MAREA":" ","LANE":"１５４巷","ALLEY":" ","HOUSE_NO":"５４之１號","E_COORD97":165683.42999999999,"N_COORD97":2543943.8199999998,"ADDRESS":"永華六街１５４巷５４之１號","OBJECTID":241494},"geometry":{"x":165683.4299999997,"y":2543943.8200000003}},{"attributes":{"ID":241499,"DIS_CODE":0,"TOWNNAME":"安平區","LI":"怡平里","LIN":"16鄰","STREET":"永華六街","SECT":" ","MAREA":" ","LANE":"１５４巷","ALLEY":" ","HOUSE_NO":"５６之１號","E_COORD97":165677.44,"N_COORD97":2543944,"ADDRESS":"永華六街１５４巷５６之１號","OBJECTID":241495},"geometry":{"x":165677.44000000041,"y":2543944.0000000019}},{"attributes":{"ID":241500,"DIS_CODE":0,"TOWNNAME":"安平區","LI":"怡平里","LIN":"16鄰","STREET":"永華六街","SECT":" ","MAREA":" ","LANE":"１５４巷","ALLEY":" ","HOUSE_NO":"５８號","E_COORD97":165675.19,"N_COORD97":2543944.5600000001,"ADDRESS":"永華六街１５４巷５８號","OBJECTID":241496},"geometry":{"x":165675.19000000134,"y":2543944.5600000024}},{"attributes":{"ID":241501,"DIS_CODE":0,"TOWNNAME":"永康區","LI":"五王里","LIN":"27鄰","STREET":"中山東路","SECT":" ","MAREA":" ","LANE":"６８巷","ALLEY":" ","HOUSE_NO":"６２號","E_COORD97":171579.94,"N_COORD97":2545964.5,"ADDRESS":"中山東路６８巷６２號","OBJECTID":241497},"geometry":{"x":171579.94000000134,"y":2545964.5000000019}},{"attributes":{"ID":241502,"DIS_CODE":0,"TOWNNAME":"永康區","LI":"中興里","LIN":"5鄰","STREET":"中華路","SECT":" ","MAREA":" ","LANE":"２１４巷","ALLEY":" ","HOUSE_NO":"９７號","E_COORD97":171912.07000000001,"N_COORD97":2545076.2999999998,"ADDRESS":"中華路２１４巷９７號","OBJECTID":241498},"geometry":{"x":171912.07000000216,"y":2545076.3000000007}},{"attributes":{"ID":241503,"DIS_CODE":0,"TOWNNAME":"安南區","LI":"海東里","LIN":"24鄰","STREET":"同安路","SECT":" ","MAREA":" ","LANE":"１９５巷","ALLEY":" ","HOUSE_NO":"５５號","E_COORD97":166998.85999999999,"N_COORD97":2549238.9900000002,"ADDRESS":"同安路１９５巷５５號","OBJECTID":241499},"geometry":{"x":166998.86000000034,"y":2549238.9900000039}},{"attributes":{"ID":241504,"DIS_CODE":0,"TOWNNAME":"安南區","LI":"海東里","LIN":"24鄰","STREET":"同安路","SECT":" ","MAREA":" ","LANE":"１９５巷","ALLEY":" ","HOUSE_NO":"５７號","E_COORD97":166996,"N_COORD97":2549242,"ADDRESS":"同安路１９５巷５７號","OBJECTID":241500},"geometry":{"x":166996,"y":2549242.0000000037}},{"attributes":{"ID":241505,"DIS_CODE":0,"TOWNNAME":"安南區","LI":"海東里","LIN":"24鄰","STREET":"同安路","SECT":" ","MAREA":" ","LANE":"１９５巷","ALLEY":" ","HOUSE_NO":"５９號","E_COORD97":166992.35000000001,"N_COORD97":2549244.54,"ADDRESS":"同安路１９５巷５９號","OBJECTID":241501},"geometry":{"x":166992.35000000056,"y":2549244.540000001}},{"attributes":{"ID":241506,"DIS_CODE":0,"TOWNNAME":"南區","LI":"建南里","LIN":"23鄰","STREET":"永成路","SECT":"二段","MAREA":" ","LANE":"９８０巷","ALLEY":" ","HOUSE_NO":"２３２號","E_COORD97":167666.270903,"N_COORD97":2540013.7870999998,"ADDRESS":"永成路二段９８０巷２３２號","OBJECTID":241502},"geometry":{"x":167666.27090300154,"y":2540013.7871000022}},{"attributes":{"ID":241507,"DIS_CODE":0,"TOWNNAME":"安南區","LI":"海東里","LIN":"24鄰","STREET":"同安路","SECT":" ","MAREA":" ","LANE":"１９５巷","ALLEY":" ","HOUSE_NO":"６１號","E_COORD97":166989.17999999999,"N_COORD97":2549246.6099999999,"ADDRESS":"同安路１９５巷６１號","OBJECTID":241503},"geometry":{"x":166989.1799999997,"y":2549246.6099999994}},{"attributes":{"ID":241508,"DIS_CODE":0,"TOWNNAME":"安南區","LI":"海東里","LIN":"24鄰","STREET":"同安路","SECT":" ","MAREA":" ","LANE":"１９５巷","ALLEY":" ","HOUSE_NO":"６３號","E_COORD97":166985.53,"N_COORD97":2549249.4700000002,"ADDRESS":"同安路１９５巷６３號","OBJECTID":241504},"geometry":{"x":166985.53000000026,"y":2549249.4699999988}},{"attributes":{"ID":241509,"DIS_CODE":0,"TOWNNAME":"安南區","LI":"海東里","LIN":"24鄰","STREET":"同安路","SECT":" ","MAREA":" ","LANE":"１９５巷","ALLEY":" ","HOUSE_NO":"６５號","E_COORD97":166982.51000000001,"N_COORD97":2549252.3100000001,"ADDRESS":"同安路１９５巷６５號","OBJECTID":241505},"geometry":{"x":166982.51000000071,"y":2549252.3100000024}},{"attributes":{"ID":241510,"DIS_CODE":0,"TOWNNAME":"中西區","LI":"藥王里","LIN":"14鄰","STREET":"臨安路","SECT":"一段","MAREA":" ","LANE":" ","ALLEY":" ","HOUSE_NO":"７３號六樓之６","E_COORD97":166995.17000000001,"N_COORD97":2544409.9300000002,"ADDRESS":"臨安路一段７３號六樓之６","OBJECTID":241506},"geometry":{"x":166995.17000000086,"y":2544409.9299999997}},{"attributes":{"ID":241511,"DIS_CODE":0,"TOWNNAME":"中西區","LI":"藥王里","LIN":"14鄰","STREET":"臨安路","SECT":"一段","MAREA":" ","LANE":" ","ALLEY":" ","HOUSE_NO":"７３號六樓之７","E_COORD97":166995.17000000001,"N_COORD97":2544409.9300000002,"ADDRESS":"臨安路一段７３號六樓之７","OBJECTID":241507},"geometry":{"x":166995.17000000086,"y":2544409.9299999997}},{"attributes":{"ID":241512,"DIS_CODE":0,"TOWNNAME":"中西區","LI":"藥王里","LIN":"14鄰","STREET":"臨安路","SECT":"一段","MAREA":" ","LANE":" ","ALLEY":" ","HOUSE_NO":"７３號六樓之８","E_COORD97":166995.17000000001,"N_COORD97":2544409.9300000002,"ADDRESS":"臨安路一段７３號六樓之８","OBJECTID":241508},"geometry":{"x":166995.17000000086,"y":2544409.9299999997}},{"attributes":{"ID":241513,"DIS_CODE":0,"TOWNNAME":"中西區","LI":"藥王里","LIN":"14鄰","STREET":"臨安路","SECT":"一段","MAREA":" ","LANE":" ","ALLEY":" ","HOUSE_NO":"７３號六樓之９","E_COORD97":166995.17000000001,"N_COORD97":2544409.9300000002,"ADDRESS":"臨安路一段７３號六樓之９","OBJECTID":241509},"geometry":{"x":166995.17000000086,"y":2544409.9299999997}},{"attributes":{"ID":241514,"DIS_CODE":0,"TOWNNAME":"中西區","LI":"藥王里","LIN":"14鄰","STREET":"臨安路","SECT":"一段","MAREA":" ","LANE":" ","ALLEY":" ","HOUSE_NO":"７３號四樓之１","E_COORD97":166995.17000000001,"N_COORD97":2544409.9300000002,"ADDRESS":"臨安路一段７３號四樓之１","OBJECTID":241510},"geometry":{"x":166995.17000000086,"y":2544409.9299999997}},{"attributes":{"ID":241515,"DIS_CODE":0,"TOWNNAME":"中西區","LI":"藥王里","LIN":"14鄰","STREET":"臨安路","SECT":"一段","MAREA":" ","LANE":" ","ALLEY":" ","HOUSE_NO":"７３號四樓之１０","E_COORD97":166995.17000000001,"N_COORD97":2544409.9300000002,"ADDRESS":"臨安路一段７３號四樓之１０","OBJECTID":241511},"geometry":{"x":166995.17000000086,"y":2544409.9299999997}},{"attributes":{"ID":241516,"DIS_CODE":0,"TOWNNAME":"中西區","LI":"藥王里","LIN":"14鄰","STREET":"臨安路","SECT":"一段","MAREA":" ","LANE":" ","ALLEY":" ","HOUSE_NO":"７３號四樓之１１","E_COORD97":166995.17000000001,"N_COORD97":2544409.9300000002,"ADDRESS":"臨安路一段７３號四樓之１１","OBJECTID":241512},"geometry":{"x":166995.17000000086,"y":2544409.9299999997}},{"attributes":{"ID":241517,"DIS_CODE":0,"TOWNNAME":"中西區","LI":"藥王里","LIN":"14鄰","STREET":"臨安路","SECT":"一段","MAREA":" ","LANE":" ","ALLEY":" ","HOUSE_NO":"７３號四樓之１２","E_COORD97":166995.17000000001,"N_COORD97":2544409.9300000002,"ADDRESS":"臨安路一段７３號四樓之１２","OBJECTID":241513},"geometry":{"x":166995.17000000086,"y":2544409.9299999997}},{"attributes":{"ID":241518,"DIS_CODE":0,"TOWNNAME":"中西區","LI":"藥王里","LIN":"14鄰","STREET":"臨安路","SECT":"一段","MAREA":" ","LANE":" ","ALLEY":" ","HOUSE_NO":"７３號四樓之１３","E_COORD97":166995.17000000001,"N_COORD97":2544409.9300000002,"ADDRESS":"臨安路一段７３號四樓之１３","OBJECTID":241514},"geometry":{"x":166995.17000000086,"y":2544409.9299999997}},{"attributes":{"ID":241519,"DIS_CODE":0,"TOWNNAME":"永康區","LI":"中興里","LIN":"18鄰","STREET":"中華二路","SECT":" ","MAREA":" ","LANE":"２１５巷","ALLEY":" ","HOUSE_NO":"３號","E_COORD97":171788.39999999999,"N_COORD97":2545417.8799999999,"ADDRESS":"中華二路２１５巷３號","OBJECTID":241515},"geometry":{"x":171788.4000000013,"y":2545417.8800000008}},{"attributes":{"ID":241520,"DIS_CODE":0,"TOWNNAME":"永康區","LI":"中興里","LIN":"25鄰","STREET":"中華路","SECT":" ","MAREA":" ","LANE":"２８０巷","ALLEY":" ","HOUSE_NO":"２號","E_COORD97":171649.06,"N_COORD97":2545175.25,"ADDRESS":"中華路２８０巷２號","OBJECTID":241516},"geometry":{"x":171649.06000000052,"y":2545175.2500000037}},{"attributes":{"ID":241521,"DIS_CODE":0,"TOWNNAME":"永康區","LI":"大灣里","LIN":"30鄰","STREET":"民族路","SECT":" ","MAREA":" ","LANE":"１２６巷","ALLEY":" ","HOUSE_NO":"４６號","E_COORD97":175387.91,"N_COORD97":2544915.96,"ADDRESS":"民族路１２６巷４６號","OBJECTID":241517},"geometry":{"x":175387.91000000015,"y":2544915.9600000009}},{"attributes":{"ID":241522,"DIS_CODE":0,"TOWNNAME":"永康區","LI":"中興里","LIN":"5鄰","STREET":"中華路","SECT":" ","MAREA":" ","LANE":"２１４巷","ALLEY":" ","HOUSE_NO":"１３號","E_COORD97":171738.19,"N_COORD97":2545063.9199999999,"ADDRESS":"中華路２１４巷１３號","OBJECTID":241518},"geometry":{"x":171738.19000000041,"y":2545063.9199999999}},{"attributes":{"ID":241523,"DIS_CODE":0,"TOWNNAME":"永康區","LI":"大灣里","LIN":"5鄰","STREET":"大民街","SECT":" ","MAREA":" ","LANE":"１２９巷","ALLEY":" ","HOUSE_NO":"１６號","E_COORD97":174893.32000000001,"N_COORD97":2545628.5299999998,"ADDRESS":"大民街１２９巷１６號","OBJECTID":241519},"geometry":{"x":174893.3200000003,"y":2545628.5300000012}},{"attributes":{"ID":241524,"DIS_CODE":0,"TOWNNAME":"永康區","LI":"五王里","LIN":"15鄰","STREET":"成功路","SECT":" ","MAREA":" ","LANE":"１７２巷","ALLEY":" ","HOUSE_NO":"５０號","E_COORD97":171580.72,"N_COORD97":2545707.7400000002,"ADDRESS":"成功路１７２巷５０號","OBJECTID":241520},"geometry":{"x":171580.72000000067,"y":2545707.7400000039}},{"attributes":{"ID":241525,"DIS_CODE":0,"TOWNNAME":"安南區","LI":"海東里","LIN":"24鄰","STREET":"同安路","SECT":" ","MAREA":" ","LANE":"１９５巷","ALLEY":" ","HOUSE_NO":"６７號","E_COORD97":166979.64999999999,"N_COORD97":2549254.3900000001,"ADDRESS":"同安路１９５巷６７號","OBJECTID":241521},"geometry":{"x":166979.65000000037,"y":2549254.3900000025}},{"attributes":{"ID":241526,"DIS_CODE":0,"TOWNNAME":"安南區","LI":"海東里","LIN":"24鄰","STREET":"同安路","SECT":" ","MAREA":" ","LANE":"１９５巷","ALLEY":" ","HOUSE_NO":"６９號","E_COORD97":166975.67999999999,"N_COORD97":2549257.0899999999,"ADDRESS":"同安路１９５巷６９號","OBJECTID":241522},"geometry":{"x":166975.6799999997,"y":2549257.0899999999}},{"attributes":{"ID":241527,"DIS_CODE":0,"TOWNNAME":"安南區","LI":"海東里","LIN":"24鄰","STREET":"同安路","SECT":" ","MAREA":" ","LANE":"１９５巷","ALLEY":" ","HOUSE_NO":"７１號","E_COORD97":166972.35000000001,"N_COORD97":2549259.7799999998,"ADDRESS":"同安路１９５巷７１號","OBJECTID":241523},"geometry":{"x":166972.34999999963,"y":2549259.7800000031}},{"attributes":{"ID":241528,"DIS_CODE":0,"TOWNNAME":"安南區","LI":"海東里","LIN":"24鄰","STREET":"同安路","SECT":" ","MAREA":" ","LANE":"１９５巷","ALLEY":" ","HOUSE_NO":"４２號","E_COORD97":167052.20000000001,"N_COORD97":2549213.5899999999,"ADDRESS":"同安路１９５巷４２號","OBJECTID":241524},"geometry":{"x":167052.20000000019,"y":2549213.5899999999}},{"attributes":{"ID":241529,"DIS_CODE":0,"TOWNNAME":"安南區","LI":"海東里","LIN":"24鄰","STREET":"同安路","SECT":" ","MAREA":" ","LANE":"１９５巷","ALLEY":" ","HOUSE_NO":"４６號","E_COORD97":167048.39000000001,"N_COORD97":2549216.6000000001,"ADDRESS":"同安路１９５巷４６號","OBJECTID":241525},"geometry":{"x":167048.38999999966,"y":2549216.5999999996}},{"attributes":{"ID":241530,"DIS_CODE":0,"TOWNNAME":"安南區","LI":"海東里","LIN":"24鄰","STREET":"同安路","SECT":" ","MAREA":" ","LANE":"１９５巷","ALLEY":" ","HOUSE_NO":"５０號","E_COORD97":167045.06,"N_COORD97":2549218.98,"ADDRESS":"同安路１９５巷５０號","OBJECTID":241526},"geometry":{"x":167045.06000000052,"y":2549218.9800000042}},{"attributes":{"ID":241531,"DIS_CODE":0,"TOWNNAME":"安南區","LI":"海東里","LIN":"24鄰","STREET":"同安路","SECT":" ","MAREA":" ","LANE":"１９５巷","ALLEY":" ","HOUSE_NO":"５２號","E_COORD97":167041.41,"N_COORD97":2549222,"ADDRESS":"同安路１９５巷５２號","OBJECTID":241527},"geometry":{"x":167041.41000000108,"y":2549222.0000000019}},{"attributes":{"ID":241532,"DIS_CODE":0,"TOWNNAME":"安南區","LI":"海東里","LIN":"24鄰","STREET":"同安路","SECT":" ","MAREA":" ","LANE":"１９５巷","ALLEY":" ","HOUSE_NO":"５６號","E_COORD97":167037.91,"N_COORD97":2549224.8599999999,"ADDRESS":"同安路１９５巷５６號","OBJECTID":241528},"geometry":{"x":167037.91000000108,"y":2549224.8599999994}},{"attributes":{"ID":241533,"DIS_CODE":0,"TOWNNAME":"安南區","LI":"海東里","LIN":"24鄰","STREET":"同安路","SECT":" ","MAREA":" ","LANE":"１９５巷","ALLEY":" ","HOUSE_NO":"５８號","E_COORD97":167034.10000000001,"N_COORD97":2549227.3999999999,"ADDRESS":"同安路１９５巷５８號","OBJECTID":241529},"geometry":{"x":167034.10000000149,"y":2549227.4000000022}},{"attributes":{"ID":241534,"DIS_CODE":0,"TOWNNAME":"安南區","LI":"海東里","LIN":"24鄰","STREET":"同安路","SECT":" ","MAREA":" ","LANE":"１９５巷","ALLEY":" ","HOUSE_NO":"６０號","E_COORD97":167029.35000000001,"N_COORD97":2549230.1699999999,"ADDRESS":"同安路１９５巷６０號","OBJECTID":241530},"geometry":{"x":167029.35000000056,"y":2549230.1699999999}},{"attributes":{"ID":241535,"DIS_CODE":0,"TOWNNAME":"安南區","LI":"海東里","LIN":"24鄰","STREET":"同安路","SECT":" ","MAREA":" ","LANE":"１９５巷","ALLEY":" ","HOUSE_NO":"６２號","E_COORD97":167026.70000000001,"N_COORD97":2549232.3900000001,"ADDRESS":"同安路１９５巷６２號","OBJECTID":241531},"geometry":{"x":167026.70000000019,"y":2549232.3900000006}},{"attributes":{"ID":241536,"DIS_CODE":0,"TOWNNAME":"安南區","LI":"海東里","LIN":"24鄰","STREET":"同安路","SECT":" ","MAREA":" ","LANE":"１９５巷","ALLEY":" ","HOUSE_NO":"６６號","E_COORD97":167023.73999999999,"N_COORD97":2549234.6200000001,"ADDRESS":"同安路１９５巷６６號","OBJECTID":241532},"geometry":{"x":167023.74000000115,"y":2549234.620000001}},{"attributes":{"ID":241537,"DIS_CODE":0,"TOWNNAME":"中西區","LI":"藥王里","LIN":"14鄰","STREET":"臨安路","SECT":"一段","MAREA":" ","LANE":" ","ALLEY":" ","HOUSE_NO":"７３號四樓之１４","E_COORD97":166995.17000000001,"N_COORD97":2544409.9300000002,"ADDRESS":"臨安路一段７３號四樓之１４","OBJECTID":241533},"geometry":{"x":166995.17000000086,"y":2544409.9299999997}},{"attributes":{"ID":241538,"DIS_CODE":0,"TOWNNAME":"中西區","LI":"藥王里","LIN":"14鄰","STREET":"臨安路","SECT":"一段","MAREA":" ","LANE":" ","ALLEY":" ","HOUSE_NO":"７３號四樓之２","E_COORD97":166995.17000000001,"N_COORD97":2544409.9300000002,"ADDRESS":"臨安路一段７３號四樓之２","OBJECTID":241534},"geometry":{"x":166995.17000000086,"y":2544409.9299999997}},{"attributes":{"ID":241539,"DIS_CODE":0,"TOWNNAME":"中西區","LI":"藥王里","LIN":"14鄰","STREET":"臨安路","SECT":"一段","MAREA":" ","LANE":" ","ALLEY":" ","HOUSE_NO":"７３號四樓之３","E_COORD97":166995.17000000001,"N_COORD97":2544409.9300000002,"ADDRESS":"臨安路一段７３號四樓之３","OBJECTID":241535},"geometry":{"x":166995.17000000086,"y":2544409.9299999997}},{"attributes":{"ID":241540,"DIS_CODE":0,"TOWNNAME":"中西區","LI":"藥王里","LIN":"14鄰","STREET":"臨安路","SECT":"一段","MAREA":" ","LANE":" ","ALLEY":" ","HOUSE_NO":"７３號四樓之４","E_COORD97":166995.17000000001,"N_COORD97":2544409.9300000002,"ADDRESS":"臨安路一段７３號四樓之４","OBJECTID":241536},"geometry":{"x":166995.17000000086,"y":2544409.9299999997}},{"attributes":{"ID":241541,"DIS_CODE":0,"TOWNNAME":"中西區","LI":"藥王里","LIN":"14鄰","STREET":"臨安路","SECT":"一段","MAREA":" ","LANE":" ","ALLEY":" ","HOUSE_NO":"７３號四樓之５","E_COORD97":166995.17000000001,"N_COORD97":2544409.9300000002,"ADDRESS":"臨安路一段７３號四樓之５","OBJECTID":241537},"geometry":{"x":166995.17000000086,"y":2544409.9299999997}},{"attributes":{"ID":241542,"DIS_CODE":0,"TOWNNAME":"永康區","LI":"中興里","LIN":"25鄰","STREET":"中華路","SECT":" ","MAREA":" ","LANE":"２８０巷","ALLEY":" ","HOUSE_NO":"８號","E_COORD97":171662.82000000001,"N_COORD97":2545176,"ADDRESS":"中華路２８０巷８號","OBJECTID":241538},"geometry":{"x":171662.82000000216,"y":2545176}},{"attributes":{"ID":241543,"DIS_CODE":0,"TOWNNAME":"永康區","LI":"大橋里","LIN":"24鄰","STREET":"大橋一街","SECT":" ","MAREA":" ","LANE":"２２３巷","ALLEY":" ","HOUSE_NO":"７４號","E_COORD97":171174.10000000001,"N_COORD97":2546746,"ADDRESS":"大橋一街２２３巷７４號","OBJECTID":241539},"geometry":{"x":171174.10000000056,"y":2546746}},{"attributes":{"ID":241544,"DIS_CODE":0,"TOWNNAME":"永康區","LI":"五王里","LIN":"37鄰","STREET":"中華路","SECT":" ","MAREA":" ","LANE":"５７８巷","ALLEY":" ","HOUSE_NO":"１５號之４７","E_COORD97":171276.03,"N_COORD97":2545965.79,"ADDRESS":"中華路５７８巷１５號之４７","OBJECTID":241540},"geometry":{"x":171276.03000000026,"y":2545965.7899999991}},{"attributes":{"ID":241545,"DIS_CODE":0,"TOWNNAME":"安南區","LI":"海東里","LIN":"24鄰","STREET":"同安路","SECT":" ","MAREA":" ","LANE":"１９５巷","ALLEY":" ","HOUSE_NO":"６８號","E_COORD97":167019.82000000001,"N_COORD97":2549238.6699999999,"ADDRESS":"同安路１９５巷６８號","OBJECTID":241541},"geometry":{"x":167019.82000000216,"y":2549238.6700000018}},{"attributes":{"ID":241546,"DIS_CODE":0,"TOWNNAME":"安南區","LI":"海東里","LIN":"24鄰","STREET":"同安路","SECT":" ","MAREA":" ","LANE":"１９５巷","ALLEY":" ","HOUSE_NO":"７０號","E_COORD97":167016.01000000001,"N_COORD97":2549240.8900000001,"ADDRESS":"同安路１９５巷７０號","OBJECTID":241542},"geometry":{"x":167016.00999999978,"y":2549240.8900000025}},{"attributes":{"ID":241547,"DIS_CODE":0,"TOWNNAME":"安南區","LI":"海東里","LIN":"24鄰","STREET":"同安路","SECT":" ","MAREA":" ","LANE":"１９５巷","ALLEY":" ","HOUSE_NO":"７２號","E_COORD97":167012.67000000001,"N_COORD97":2549243.1099999999,"ADDRESS":"同安路１９５巷７２號","OBJECTID":241543},"geometry":{"x":167012.67000000086,"y":2549243.1099999994}},{"attributes":{"ID":241548,"DIS_CODE":0,"TOWNNAME":"安南區","LI":"海東里","LIN":"24鄰","STREET":"同安路","SECT":" ","MAREA":" ","LANE":"１９５巷","ALLEY":" ","HOUSE_NO":"７６號","E_COORD97":167008.85999999999,"N_COORD97":2549246.29,"ADDRESS":"同安路１９５巷７６號","OBJECTID":241544},"geometry":{"x":167008.86000000034,"y":2549246.290000001}},{"attributes":{"ID":241549,"DIS_CODE":0,"TOWNNAME":"安南區","LI":"海東里","LIN":"24鄰","STREET":"同安路","SECT":" ","MAREA":" ","LANE":"１９５巷","ALLEY":" ","HOUSE_NO":"７８號","E_COORD97":167006.17000000001,"N_COORD97":2549247.8500000001,"ADDRESS":"同安路１９５巷７８號","OBJECTID":241545},"geometry":{"x":167006.16999999993,"y":2549247.8499999996}},{"attributes":{"ID":241550,"DIS_CODE":0,"TOWNNAME":"安南區","LI":"海東里","LIN":"24鄰","STREET":"同安路","SECT":" ","MAREA":" ","LANE":"１９５巷","ALLEY":" ","HOUSE_NO":"８０號","E_COORD97":167002.67999999999,"N_COORD97":2549250.7000000002,"ADDRESS":"同安路１９５巷８０號","OBJECTID":241546},"geometry":{"x":167002.6799999997,"y":2549250.7000000011}},{"attributes":{"ID":241551,"DIS_CODE":0,"TOWNNAME":"安南區","LI":"海東里","LIN":"24鄰","STREET":"同安路","SECT":" ","MAREA":" ","LANE":"１９５巷","ALLEY":" ","HOUSE_NO":"１００號","E_COORD97":166976.95000000001,"N_COORD97":2549273.4300000002,"ADDRESS":"同安路１９５巷１００號","OBJECTID":241547},"geometry":{"x":166976.95000000112,"y":2549273.4300000016}},{"attributes":{"ID":241552,"DIS_CODE":0,"TOWNNAME":"安南區","LI":"海東里","LIN":"24鄰","STREET":"同安路","SECT":" ","MAREA":" ","LANE":"１９５巷","ALLEY":" ","HOUSE_NO":"８２號","E_COORD97":166998.66,"N_COORD97":2549253.2400000002,"ADDRESS":"同安路１９５巷８２號","OBJECTID":241548},"geometry":{"x":166998.66000000201,"y":2549253.2400000002}},{"attributes":{"ID":241553,"DIS_CODE":0,"TOWNNAME":"中西區","LI":"藥王里","LIN":"14鄰","STREET":"臨安路","SECT":"一段","MAREA":" ","LANE":" ","ALLEY":" ","HOUSE_NO":"７３號四樓之６","E_COORD97":166995.17000000001,"N_COORD97":2544409.9300000002,"ADDRESS":"臨安路一段７３號四樓之６","OBJECTID":241549},"geometry":{"x":166995.17000000086,"y":2544409.9299999997}},{"attributes":{"ID":241554,"DIS_CODE":0,"TOWNNAME":"中西區","LI":"藥王里","LIN":"14鄰","STREET":"臨安路","SECT":"一段","MAREA":" ","LANE":" ","ALLEY":" ","HOUSE_NO":"７３號四樓之７","E_COORD97":166995.17000000001,"N_COORD97":2544409.9300000002,"ADDRESS":"臨安路一段７３號四樓之７","OBJECTID":241550},"geometry":{"x":166995.17000000086,"y":2544409.9299999997}},{"attributes":{"ID":241555,"DIS_CODE":0,"TOWNNAME":"中西區","LI":"藥王里","LIN":"14鄰","STREET":"臨安路","SECT":"一段","MAREA":" ","LANE":" ","ALLEY":" ","HOUSE_NO":"７３號四樓之８","E_COORD97":166995.17000000001,"N_COORD97":2544409.9300000002,"ADDRESS":"臨安路一段７３號四樓之８","OBJECTID":241551},"geometry":{"x":166995.17000000086,"y":2544409.9299999997}},{"attributes":{"ID":241556,"DIS_CODE":0,"TOWNNAME":"學甲區","LI":"宅港里","LIN":"16鄰","STREET":" ","SECT":" ","MAREA":"德安寮","LANE":" ","ALLEY":" ","HOUSE_NO":"１８號","E_COORD97":167279.23999999999,"N_COORD97":2572158.2200000002,"ADDRESS":"德安寮１８號","OBJECTID":241552},"geometry":{"x":167279.24000000022,"y":2572158.2200000025}},{"attributes":{"ID":241557,"DIS_CODE":0,"TOWNNAME":"學甲區","LI":"宅港里","LIN":"16鄰","STREET":" ","SECT":" ","MAREA":"德安寮","LANE":" ","ALLEY":" ","HOUSE_NO":"１９號","E_COORD97":167234.25,"N_COORD97":2572174.3500000001,"ADDRESS":"德安寮１９號","OBJECTID":241553},"geometry":{"x":167234.25000000093,"y":2572174.3499999996}},{"attributes":{"ID":241558,"DIS_CODE":0,"TOWNNAME":"學甲區","LI":"宅港里","LIN":"16鄰","STREET":" ","SECT":" ","MAREA":"德安寮","LANE":" ","ALLEY":" ","HOUSE_NO":"２１號之１","E_COORD97":167190.29999999999,"N_COORD97":2572200.6400000001,"ADDRESS":"德安寮２１號之１","OBJECTID":241554},"geometry":{"x":167190.29999999981,"y":2572200.6400000006}},{"attributes":{"ID":241559,"DIS_CODE":0,"TOWNNAME":"學甲區","LI":"宅港里","LIN":"16鄰","STREET":" ","SECT":" ","MAREA":"德安寮","LANE":" ","ALLEY":" ","HOUSE_NO":"２１號之２","E_COORD97":167191.32999999999,"N_COORD97":2572214.3300000001,"ADDRESS":"德安寮２１號之２","OBJECTID":241555},"geometry":{"x":167191.33000000101,"y":2572214.3300000019}},{"attributes":{"ID":241560,"DIS_CODE":0,"TOWNNAME":"學甲區","LI":"宅港里","LIN":"16鄰","STREET":" ","SECT":" ","MAREA":"德安寮","LANE":" ","ALLEY":" ","HOUSE_NO":"２１號","E_COORD97":167190.39000000001,"N_COORD97":2572211.1299999999,"ADDRESS":"德安寮２１號","OBJECTID":241556},"geometry":{"x":167190.3900000006,"y":2572211.1300000008}},{"attributes":{"ID":241561,"DIS_CODE":0,"TOWNNAME":"學甲區","LI":"宅港里","LIN":"16鄰","STREET":" ","SECT":" ","MAREA":"德安寮","LANE":" ","ALLEY":" ","HOUSE_NO":"２４號","E_COORD97":167265.60000000001,"N_COORD97":2572197.27,"ADDRESS":"德安寮２４號","OBJECTID":241557},"geometry":{"x":167265.59999999963,"y":2572197.2700000014}},{"attributes":{"ID":241562,"DIS_CODE":0,"TOWNNAME":"永康區","LI":"五王里","LIN":"18鄰","STREET":"成功路","SECT":" ","MAREA":" ","LANE":"１８８巷","ALLEY":" ","HOUSE_NO":"６號","E_COORD97":171456.72,"N_COORD97":2545678.5099999998,"ADDRESS":"成功路１８８巷６號","OBJECTID":241558},"geometry":{"x":171456.72000000067,"y":2545678.5100000035}},{"attributes":{"ID":241563,"DIS_CODE":0,"TOWNNAME":"永康區","LI":"中興里","LIN":"25鄰","STREET":"中華路","SECT":" ","MAREA":" ","LANE":"２８０巷","ALLEY":" ","HOUSE_NO":"６號","E_COORD97":171657.98999999999,"N_COORD97":2545175.75,"ADDRESS":"中華路２８０巷６號","OBJECTID":241559},"geometry":{"x":171657.99000000022,"y":2545175.7500000019}},{"attributes":{"ID":241564,"DIS_CODE":0,"TOWNNAME":"安南區","LI":"海東里","LIN":"24鄰","STREET":"同安路","SECT":" ","MAREA":" ","LANE":"１９５巷","ALLEY":" ","HOUSE_NO":"８６號","E_COORD97":166995.79999999999,"N_COORD97":2549255.4700000002,"ADDRESS":"同安路１９５巷８６號","OBJECTID":241560},"geometry":{"x":166995.80000000075,"y":2549255.4700000007}},{"attributes":{"ID":241565,"DIS_CODE":0,"TOWNNAME":"學甲區","LI":"宅港里","LIN":"16鄰","STREET":" ","SECT":" ","MAREA":"德安寮","LANE":" ","ALLEY":" ","HOUSE_NO":"２５號","E_COORD97":167288.75,"N_COORD97":2572196.5299999998,"ADDRESS":"德安寮２５號","OBJECTID":241561},"geometry":{"x":167288.75,"y":2572196.5299999993}},{"attributes":{"ID":241566,"DIS_CODE":0,"TOWNNAME":"安南區","LI":"海東里","LIN":"24鄰","STREET":"同安路","SECT":" ","MAREA":" ","LANE":"１９５巷","ALLEY":" ","HOUSE_NO":"８８號","E_COORD97":166993.37,"N_COORD97":2549257.6899999999,"ADDRESS":"同安路１９５巷８８號","OBJECTID":241562},"geometry":{"x":166993.37000000011,"y":2549257.6900000013}},{"attributes":{"ID":241567,"DIS_CODE":0,"TOWNNAME":"中西區","LI":"藥王里","LIN":"14鄰","STREET":"臨安路","SECT":"一段","MAREA":" ","LANE":" ","ALLEY":" ","HOUSE_NO":"７３號四樓之９","E_COORD97":166995.17000000001,"N_COORD97":2544409.9300000002,"ADDRESS":"臨安路一段７３號四樓之９","OBJECTID":241563},"geometry":{"x":166995.17000000086,"y":2544409.9299999997}},{"attributes":{"ID":241568,"DIS_CODE":0,"TOWNNAME":"學甲區","LI":"宅港里","LIN":"16鄰","STREET":" ","SECT":" ","MAREA":"德安寮","LANE":" ","ALLEY":" ","HOUSE_NO":"２６號","E_COORD97":167336.66,"N_COORD97":2572186.8500000001,"ADDRESS":"德安寮２６號","OBJECTID":241564},"geometry":{"x":167336.66000000108,"y":2572186.8500000015}},{"attributes":{"ID":241569,"DIS_CODE":0,"TOWNNAME":"東區","LI":"中西里","LIN":"14鄰","STREET":"東寧路","SECT":" ","MAREA":" ","LANE":" ","ALLEY":" ","HOUSE_NO":"４６號三樓之１","E_COORD97":170116.17999999999,"N_COORD97":2543599.6699999999,"ADDRESS":"東寧路４６號三樓之１","OBJECTID":241565},"geometry":{"x":170116.18000000063,"y":2543599.6700000018}},{"attributes":{"ID":241570,"DIS_CODE":0,"TOWNNAME":"仁德區","LI":"太子里","LIN":"28鄰","STREET":"太子五街","SECT":" ","MAREA":" ","LANE":" ","ALLEY":" ","HOUSE_NO":"１０號","E_COORD97":173095.356443,"N_COORD97":2543295.0613799999,"ADDRESS":"太子五街１０號","OBJECTID":241566},"geometry":{"x":173095.35644300003,"y":2543295.0613799989}},{"attributes":{"ID":241571,"DIS_CODE":0,"TOWNNAME":"學甲區","LI":"宅港里","LIN":"16鄰","STREET":" ","SECT":" ","MAREA":"德安寮","LANE":" ","ALLEY":" ","HOUSE_NO":"３８號","E_COORD97":166797.23000000001,"N_COORD97":2572933.46,"ADDRESS":"德安寮３８號","OBJECTID":241567},"geometry":{"x":166797.23000000138,"y":2572933.4600000028}},{"attributes":{"ID":241572,"DIS_CODE":0,"TOWNNAME":"永康區","LI":"中興里","LIN":"18鄰","STREET":"中華路","SECT":" ","MAREA":" ","LANE":"２８６巷","ALLEY":" ","HOUSE_NO":"７１號","E_COORD97":171708.91,"N_COORD97":2545335.7400000002,"ADDRESS":"中華路２８６巷７１號","OBJECTID":241568},"geometry":{"x":171708.91000000015,"y":2545335.7400000021}},{"attributes":{"ID":241573,"DIS_CODE":0,"TOWNNAME":"永康區","LI":"三合里","LIN":"24鄰","STREET":"南工街","SECT":" ","MAREA":" ","LANE":"２６７巷","ALLEY":" ","HOUSE_NO":"５６號","E_COORD97":171829.29999999999,"N_COORD97":2545846.2400000002,"ADDRESS":"南工街２６７巷５６號","OBJECTID":241569},"geometry":{"x":171829.30000000075,"y":2545846.2400000002}},{"attributes":{"ID":241574,"DIS_CODE":0,"TOWNNAME":"學甲區","LI":"宅港里","LIN":"16鄰","STREET":" ","SECT":" ","MAREA":"德安寮","LANE":" ","ALLEY":" ","HOUSE_NO":"４０號","E_COORD97":167435.56,"N_COORD97":2572287.3100000001,"ADDRESS":"德安寮４０號","OBJECTID":241570},"geometry":{"x":167435.55999999959,"y":2572287.3100000005}},{"attributes":{"ID":241575,"DIS_CODE":0,"TOWNNAME":"永康區","LI":"大橋里","LIN":"8鄰","STREET":"大橋三街","SECT":" ","MAREA":" ","LANE":"１９９巷","ALLEY":" ","HOUSE_NO":"１１４號","E_COORD97":171016.63,"N_COORD97":2546927.6000000001,"ADDRESS":"大橋三街１９９巷１１４號","OBJECTID":241571},"geometry":{"x":171016.63000000082,"y":2546927.5999999996}},{"attributes":{"ID":241576,"DIS_CODE":0,"TOWNNAME":"永康區","LI":"大橋里","LIN":"7鄰","STREET":"大橋三街","SECT":" ","MAREA":" ","LANE":"１９９巷","ALLEY":" ","HOUSE_NO":"１１１號","E_COORD97":170997.79000000001,"N_COORD97":2546938.5800000001,"ADDRESS":"大橋三街１９９巷１１１號","OBJECTID":241572},"geometry":{"x":170997.79000000004,"y":2546938.5800000001}},{"attributes":{"ID":241577,"DIS_CODE":0,"TOWNNAME":"學甲區","LI":"宅港里","LIN":"16鄰","STREET":" ","SECT":" ","MAREA":"德安寮","LANE":" ","ALLEY":" ","HOUSE_NO":"４１號","E_COORD97":167382.25,"N_COORD97":2572326.2999999998,"ADDRESS":"德安寮４１號","OBJECTID":241573},"geometry":{"x":167382.25,"y":2572326.3000000026}},{"attributes":{"ID":241578,"DIS_CODE":0,"TOWNNAME":"學甲區","LI":"宅港里","LIN":"16鄰","STREET":" ","SECT":" ","MAREA":"德安寮","LANE":" ","ALLEY":" ","HOUSE_NO":"４２號","E_COORD97":167337.88,"N_COORD97":2572365.04,"ADDRESS":"德安寮４２號","OBJECTID":241574},"geometry":{"x":167337.88000000082,"y":2572365.0399999991}},{"attributes":{"ID":241579,"DIS_CODE":0,"TOWNNAME":"東區","LI":"中西里","LIN":"14鄰","STREET":"東寧路","SECT":" ","MAREA":" ","LANE":" ","ALLEY":" ","HOUSE_NO":"４６號三樓之２","E_COORD97":170116.17999999999,"N_COORD97":2543599.6699999999,"ADDRESS":"東寧路４６號三樓之２","OBJECTID":241575},"geometry":{"x":170116.18000000063,"y":2543599.6700000018}},{"attributes":{"ID":241580,"DIS_CODE":0,"TOWNNAME":"學甲區","LI":"宅港里","LIN":"16鄰","STREET":" ","SECT":" ","MAREA":"德安寮","LANE":" ","ALLEY":" ","HOUSE_NO":"４９號","E_COORD97":167017.10999999999,"N_COORD97":2572601.6800000002,"ADDRESS":"德安寮４９號","OBJECTID":241576},"geometry":{"x":167017.11000000034,"y":2572601.6800000016}},{"attributes":{"ID":241581,"DIS_CODE":0,"TOWNNAME":"學甲區","LI":"宅港里","LIN":"16鄰","STREET":" ","SECT":" ","MAREA":"德安寮","LANE":" ","ALLEY":" ","HOUSE_NO":"５１號","E_COORD97":166961.75,"N_COORD97":2572529.1400000001,"ADDRESS":"德安寮５１號","OBJECTID":241577},"geometry":{"x":166961.75,"y":2572529.1400000006}},{"attributes":{"ID":241582,"DIS_CODE":0,"TOWNNAME":"東區","LI":"中西里","LIN":"14鄰","STREET":"東寧路","SECT":" ","MAREA":" ","LANE":" ","ALLEY":" ","HOUSE_NO":"４６號四樓之１","E_COORD97":170116.17999999999,"N_COORD97":2543599.6699999999,"ADDRESS":"東寧路４６號四樓之１","OBJECTID":241578},"geometry":{"x":170116.18000000063,"y":2543599.6700000018}},{"attributes":{"ID":241583,"DIS_CODE":0,"TOWNNAME":"東區","LI":"中西里","LIN":"14鄰","STREET":"東寧路","SECT":" ","MAREA":" ","LANE":" ","ALLEY":" ","HOUSE_NO":"４６號四樓之２","E_COORD97":170116.17999999999,"N_COORD97":2543599.6699999999,"ADDRESS":"東寧路４６號四樓之２","OBJECTID":241579},"geometry":{"x":170116.18000000063,"y":2543599.6700000018}},{"attributes":{"ID":241584,"DIS_CODE":0,"TOWNNAME":"東區","LI":"中西里","LIN":"14鄰","STREET":"東寧路","SECT":" ","MAREA":" ","LANE":" ","ALLEY":" ","HOUSE_NO":"４６號五樓","E_COORD97":170116.17999999999,"N_COORD97":2543599.6699999999,"ADDRESS":"東寧路４６號五樓","OBJECTID":241580},"geometry":{"x":170116.18000000063,"y":2543599.6700000018}},{"attributes":{"ID":241585,"DIS_CODE":0,"TOWNNAME":"關廟區","LI":"埤頭里","LIN":"6鄰","STREET":"關新路","SECT":"二段","MAREA":" ","LANE":" ","ALLEY":" ","HOUSE_NO":"５０號","E_COORD97":179105.15972699999,"N_COORD97":2544131.2927899999,"ADDRESS":"關新路二段５０號","OBJECTID":241581},"geometry":{"x":179105.1597269997,"y":2544131.2927899994}},{"attributes":{"ID":241586,"DIS_CODE":0,"TOWNNAME":"永康區","LI":"大灣里","LIN":"10鄰","STREET":"大民街","SECT":" ","MAREA":" ","LANE":"５８巷","ALLEY":" ","HOUSE_NO":"９號","E_COORD97":174883.95999999999,"N_COORD97":2545410.0499999998,"ADDRESS":"大民街５８巷９號","OBJECTID":241582},"geometry":{"x":174883.95999999996,"y":2545410.0500000007}},{"attributes":{"ID":241587,"DIS_CODE":0,"TOWNNAME":"永康區","LI":"中興里","LIN":"5鄰","STREET":"中華路","SECT":" ","MAREA":" ","LANE":"２１４巷","ALLEY":" ","HOUSE_NO":"２８號","E_COORD97":171766.23999999999,"N_COORD97":2545051.4900000002,"ADDRESS":"中華路２１４巷２８號","OBJECTID":241583},"geometry":{"x":171766.24000000022,"y":2545051.4900000002}},{"attributes":{"ID":241588,"DIS_CODE":0,"TOWNNAME":"學甲區","LI":"平和里","LIN":"16鄰","STREET":" ","SECT":" ","MAREA":"學甲寮","LANE":" ","ALLEY":" ","HOUSE_NO":"１７１號","E_COORD97":169649.03,"N_COORD97":2573181.3300000001,"ADDRESS":"學甲寮１７１號","OBJECTID":241584},"geometry":{"x":169649.03000000026,"y":2573181.3300000001}},{"attributes":{"ID":241589,"DIS_CODE":0,"TOWNNAME":"學甲區","LI":"平和里","LIN":"16鄰","STREET":" ","SECT":" ","MAREA":"學甲寮","LANE":" ","ALLEY":" ","HOUSE_NO":"１７２號","E_COORD97":169637.54999999999,"N_COORD97":2573168.98,"ADDRESS":"學甲寮１７２號","OBJECTID":241585},"geometry":{"x":169637.55000000075,"y":2573168.9800000023}},{"attributes":{"ID":241590,"DIS_CODE":0,"TOWNNAME":"永康區","LI":"中興里","LIN":"5鄰","STREET":"中華路","SECT":" ","MAREA":" ","LANE":"２１４巷","ALLEY":" ","HOUSE_NO":"４９號","E_COORD97":171818.95000000001,"N_COORD97":2545070.6299999999,"ADDRESS":"中華路２１４巷４９號","OBJECTID":241586},"geometry":{"x":171818.95000000019,"y":2545070.6300000008}},{"attributes":{"ID":241591,"DIS_CODE":0,"TOWNNAME":"永康區","LI":"中興里","LIN":"18鄰","STREET":"中華路","SECT":" ","MAREA":" ","LANE":"２８６巷","ALLEY":" ","HOUSE_NO":"５２號","E_COORD97":171702.57999999999,"N_COORD97":2545316.7599999998,"ADDRESS":"中華路２８６巷５２號","OBJECTID":241587},"geometry":{"x":171702.58000000007,"y":2545316.7599999998}},{"attributes":{"ID":241592,"DIS_CODE":0,"TOWNNAME":"永康區","LI":"中興里","LIN":"18鄰","STREET":"中華路","SECT":" ","MAREA":" ","LANE":"２８６巷","ALLEY":" ","HOUSE_NO":"４１號","E_COORD97":171655.39000000001,"N_COORD97":2545350.2400000002,"ADDRESS":"中華路２８６巷４１號","OBJECTID":241588},"geometry":{"x":171655.3900000006,"y":2545350.2400000002}},{"attributes":{"ID":241593,"DIS_CODE":0,"TOWNNAME":"永康區","LI":"大橋里","LIN":"15鄰","STREET":"大橋一街","SECT":" ","MAREA":" ","LANE":"１０３巷","ALLEY":" ","HOUSE_NO":"６５號之１","E_COORD97":170914.41,"N_COORD97":2546568.0600000001,"ADDRESS":"大橋一街１０３巷６５號之１","OBJECTID":241589},"geometry":{"x":170914.40999999922,"y":2546568.0600000024}},{"attributes":{"ID":241594,"DIS_CODE":0,"TOWNNAME":"永康區","LI":"五王里","LIN":"37鄰","STREET":"中華路","SECT":" ","MAREA":" ","LANE":"５７８巷","ALLEY":" ","HOUSE_NO":"１５號之６７","E_COORD97":171276.03,"N_COORD97":2545965.79,"ADDRESS":"中華路５７８巷１５號之６７","OBJECTID":241590},"geometry":{"x":171276.03000000026,"y":2545965.7899999991}},{"attributes":{"ID":241595,"DIS_CODE":0,"TOWNNAME":"南區","LI":"大林里","LIN":"16鄰","STREET":"大林路","SECT":" ","MAREA":" ","LANE":"５５巷","ALLEY":" ","HOUSE_NO":"２號","E_COORD97":169254.56,"N_COORD97":2541773.4500000002,"ADDRESS":"大林路５５巷２號","OBJECTID":241591},"geometry":{"x":169254.55999999959,"y":2541773.4500000011}},{"attributes":{"ID":241596,"DIS_CODE":0,"TOWNNAME":"東區","LI":"中西里","LIN":"14鄰","STREET":"東寧路","SECT":" ","MAREA":" ","LANE":" ","ALLEY":" ","HOUSE_NO":"４６號五樓之１","E_COORD97":170116.17999999999,"N_COORD97":2543599.6699999999,"ADDRESS":"東寧路４６號五樓之１","OBJECTID":241592},"geometry":{"x":170116.18000000063,"y":2543599.6700000018}},{"attributes":{"ID":241597,"DIS_CODE":0,"TOWNNAME":"東區","LI":"中西里","LIN":"14鄰","STREET":"東寧路","SECT":" ","MAREA":" ","LANE":" ","ALLEY":" ","HOUSE_NO":"４６號五樓之２","E_COORD97":170116.17999999999,"N_COORD97":2543599.6699999999,"ADDRESS":"東寧路４６號五樓之２","OBJECTID":241593},"geometry":{"x":170116.18000000063,"y":2543599.6700000018}},{"attributes":{"ID":241598,"DIS_CODE":0,"TOWNNAME":"東區","LI":"中西里","LIN":"14鄰","STREET":"東寧路","SECT":" ","MAREA":" ","LANE":" ","ALLEY":" ","HOUSE_NO":"４６號六樓","E_COORD97":170116.17999999999,"N_COORD97":2543599.6699999999,"ADDRESS":"東寧路４６號六樓","OBJECTID":241594},"geometry":{"x":170116.18000000063,"y":2543599.6700000018}},{"attributes":{"ID":241599,"DIS_CODE":0,"TOWNNAME":"東區","LI":"中西里","LIN":"14鄰","STREET":"東寧路","SECT":" ","MAREA":" ","LANE":" ","ALLEY":" ","HOUSE_NO":"４６號六樓之１","E_COORD97":170116.17999999999,"N_COORD97":2543599.6699999999,"ADDRESS":"東寧路４６號六樓之１","OBJECTID":241595},"geometry":{"x":170116.18000000063,"y":2543599.6700000018}},{"attributes":{"ID":241600,"DIS_CODE":0,"TOWNNAME":"東區","LI":"中西里","LIN":"14鄰","STREET":"東寧路","SECT":" ","MAREA":" ","LANE":" ","ALLEY":" ","HOUSE_NO":"４６號六樓之２","E_COORD97":170116.17999999999,"N_COORD97":2543599.6699999999,"ADDRESS":"東寧路４６號六樓之２","OBJECTID":241596},"geometry":{"x":170116.18000000063,"y":2543599.6700000018}},{"attributes":{"ID":241601,"DIS_CODE":0,"TOWNNAME":"東區","LI":"中西里","LIN":"14鄰","STREET":"東寧路","SECT":" ","MAREA":" ","LANE":" ","ALLEY":" ","HOUSE_NO":"４６號七樓","E_COORD97":170116.17999999999,"N_COORD97":2543599.6699999999,"ADDRESS":"東寧路４６號七樓","OBJECTID":241597},"geometry":{"x":170116.18000000063,"y":2543599.6700000018}},{"attributes":{"ID":241602,"DIS_CODE":0,"TOWNNAME":"東區","LI":"中西里","LIN":"14鄰","STREET":"東寧路","SECT":" ","MAREA":" ","LANE":" ","ALLEY":" ","HOUSE_NO":"４６號七樓之１","E_COORD97":170116.17999999999,"N_COORD97":2543599.6699999999,"ADDRESS":"東寧路４６號七樓之１","OBJECTID":241598},"geometry":{"x":170116.18000000063,"y":2543599.6700000018}},{"attributes":{"ID":241603,"DIS_CODE":0,"TOWNNAME":"東區","LI":"中西里","LIN":"14鄰","STREET":"東寧路","SECT":" ","MAREA":" ","LANE":" ","ALLEY":" ","HOUSE_NO":"４６號七樓之２","E_COORD97":170116.17999999999,"N_COORD97":2543599.6699999999,"ADDRESS":"東寧路４６號七樓之２","OBJECTID":241599},"geometry":{"x":170116.18000000063,"y":2543599.6700000018}},{"attributes":{"ID":241604,"DIS_CODE":0,"TOWNNAME":"東區","LI":"中西里","LIN":"14鄰","STREET":"東寧路","SECT":" ","MAREA":" ","LANE":" ","ALLEY":" ","HOUSE_NO":"４６號八樓","E_COORD97":170116.17999999999,"N_COORD97":2543599.6699999999,"ADDRESS":"東寧路４６號八樓","OBJECTID":241600},"geometry":{"x":170116.18000000063,"y":2543599.6700000018}}]}