{"displayFieldName":"TOWNNAME","fieldAliases":{"ID":"ID","DIS_CODE":"DIS_CODE","TOWNNAME":"TOWNNAME","LI":"LI","LIN":"LIN","STREET":"STREET","SECT":"SECT","MAREA":"MAREA","LANE":"LANE","ALLEY":"ALLEY","HOUSE_NO":"HOUSE_NO","E_COORD97":"E_COORD97","N_COORD97":"N_COORD97","ADDRESS":"ADDRESS","OBJECTID":"OBJECTID"},"geometryType":"esriGeometryPoint","spatialReference":{"wkid":102443,"latestWkid":3826},"fields":[{"name":"ID","type":"esriFieldTypeDouble","alias":"ID"},{"name":"DIS_CODE","type":"esriFieldTypeInteger","alias":"DIS_CODE"},{"name":"TOWNNAME","type":"esriFieldTypeString","alias":"TOWNNAME","length":8},{"name":"LI","type":"esriFieldTypeString","alias":"LI","length":8},{"name":"LIN","type":"esriFieldTypeString","alias":"LIN","length":12},{"name":"STREET","type":"esriFieldTypeString","alias":"STREET","length":20},{"name":"SECT","type":"esriFieldTypeString","alias":"SECT","length":8},{"name":"MAREA","type":"esriFieldTypeString","alias":"MAREA","length":12},{"name":"LANE","type":"esriFieldTypeString","alias":"LANE","length":10},{"name":"ALLEY","type":"esriFieldTypeString","alias":"ALLEY","length":10},{"name":"HOUSE_NO","type":"esriFieldTypeString","alias":"HOUSE_NO","length":20},{"name":"E_COORD97","type":"esriFieldTypeDouble","alias":"E_COORD97"},{"name":"N_COORD97","type":"esriFieldTypeDouble","alias":"N_COORD97"},{"name":"ADDRESS","type":"esriFieldTypeString","alias":"ADDRESS","length":50},{"name":"OBJECTID","type":"esriFieldTypeOID","alias":"OBJECTID"}],"features":[{"attributes":{"ID":113201,"DIS_CODE":0,"TOWNNAME":"佳里區","LI":"鎮山里","LIN":"23鄰","STREET":" ","SECT":" ","MAREA":"鎮山","LANE":" ","ALLEY":" ","HOUSE_NO":"９４號之５１","E_COORD97":166803.66,"N_COORD97":2561271.27,"ADDRESS":"鎮山９４號之５１","OBJECTID":113201},"geometry":{"x":166803.66000000201,"y":2561271.2699999996}},{"attributes":{"ID":113202,"DIS_CODE":0,"TOWNNAME":"佳里區","LI":"鎮山里","LIN":"23鄰","STREET":" ","SECT":" ","MAREA":"鎮山","LANE":" ","ALLEY":" ","HOUSE_NO":"９４號之５２","E_COORD97":167359.67000000001,"N_COORD97":2561449.1400000001,"ADDRESS":"鎮山９４號之５２","OBJECTID":113202},"geometry":{"x":167359.67000000086,"y":2561449.1400000006}},{"attributes":{"ID":113203,"DIS_CODE":0,"TOWNNAME":"佳里區","LI":"鎮山里","LIN":"23鄰","STREET":" ","SECT":" ","MAREA":"鎮山","LANE":" ","ALLEY":" ","HOUSE_NO":"９４號之５３","E_COORD97":167379.03,"N_COORD97":2561637.5600000001,"ADDRESS":"鎮山９４號之５３","OBJECTID":113203},"geometry":{"x":167379.03000000026,"y":2561637.5600000042}},{"attributes":{"ID":113204,"DIS_CODE":0,"TOWNNAME":"佳里區","LI":"鎮山里","LIN":"23鄰","STREET":" ","SECT":" ","MAREA":"鎮山","LANE":" ","ALLEY":" ","HOUSE_NO":"９４號之５４","E_COORD97":166724.10999999999,"N_COORD97":2561120.3900000001,"ADDRESS":"鎮山９４號之５４","OBJECTID":113204},"geometry":{"x":166724.11000000034,"y":2561120.3900000025}},{"attributes":{"ID":113205,"DIS_CODE":0,"TOWNNAME":"佳里區","LI":"鎮山里","LIN":"23鄰","STREET":" ","SECT":" ","MAREA":"鎮山","LANE":" ","ALLEY":" ","HOUSE_NO":"９４號之５５","E_COORD97":166726.70999999999,"N_COORD97":2561112.29,"ADDRESS":"鎮山９４號之５５","OBJECTID":113205},"geometry":{"x":166726.70999999996,"y":2561112.2900000028}},{"attributes":{"ID":113206,"DIS_CODE":0,"TOWNNAME":"佳里區","LI":"鎮山里","LIN":"23鄰","STREET":" ","SECT":" ","MAREA":"鎮山","LANE":" ","ALLEY":" ","HOUSE_NO":"９４號之５７","E_COORD97":166610.09,"N_COORD97":2561056.9399999999,"ADDRESS":"鎮山９４號之５７","OBJECTID":113206},"geometry":{"x":166610.08999999985,"y":2561056.9399999995}},{"attributes":{"ID":113207,"DIS_CODE":0,"TOWNNAME":"佳里區","LI":"鎮山里","LIN":"23鄰","STREET":" ","SECT":" ","MAREA":"鎮山","LANE":" ","ALLEY":" ","HOUSE_NO":"９４號之５８","E_COORD97":166673.66,"N_COORD97":2561421.04,"ADDRESS":"鎮山９４號之５８","OBJECTID":113207},"geometry":{"x":166673.66000000108,"y":2561421.0399999991}},{"attributes":{"ID":113208,"DIS_CODE":0,"TOWNNAME":"佳里區","LI":"鎮山里","LIN":"23鄰","STREET":" ","SECT":" ","MAREA":"鎮山","LANE":" ","ALLEY":" ","HOUSE_NO":"９４號之５９","E_COORD97":166701.98000000001,"N_COORD97":2561399.4300000002,"ADDRESS":"鎮山９４號之５９","OBJECTID":113208},"geometry":{"x":166701.98000000138,"y":2561399.4299999997}},{"attributes":{"ID":113209,"DIS_CODE":0,"TOWNNAME":"佳里區","LI":"鎮山里","LIN":"23鄰","STREET":" ","SECT":" ","MAREA":"鎮山","LANE":" ","ALLEY":" ","HOUSE_NO":"９４號之５","E_COORD97":167548.89999999999,"N_COORD97":2561520.98,"ADDRESS":"鎮山９４號之５","OBJECTID":113209},"geometry":{"x":167548.9000000013,"y":2561520.9800000004}},{"attributes":{"ID":113210,"DIS_CODE":0,"TOWNNAME":"佳里區","LI":"鎮山里","LIN":"23鄰","STREET":" ","SECT":" ","MAREA":"鎮山","LANE":" ","ALLEY":" ","HOUSE_NO":"９４號之６０","E_COORD97":167086.76999999999,"N_COORD97":2561365.8399999999,"ADDRESS":"鎮山９４號之６０","OBJECTID":113210},"geometry":{"x":167086.76999999955,"y":2561365.8399999999}},{"attributes":{"ID":113211,"DIS_CODE":0,"TOWNNAME":"佳里區","LI":"鎮山里","LIN":"23鄰","STREET":" ","SECT":" ","MAREA":"鎮山","LANE":" ","ALLEY":" ","HOUSE_NO":"９４號之６１","E_COORD97":167453.91,"N_COORD97":2561686.5099999998,"ADDRESS":"鎮山９４號之６１","OBJECTID":113211},"geometry":{"x":167453.91000000015,"y":2561686.5099999998}},{"attributes":{"ID":113212,"DIS_CODE":0,"TOWNNAME":"佳里區","LI":"鎮山里","LIN":"23鄰","STREET":" ","SECT":" ","MAREA":"鎮山","LANE":" ","ALLEY":" ","HOUSE_NO":"９４號之６２","E_COORD97":167452.60000000001,"N_COORD97":2561690.27,"ADDRESS":"鎮山９４號之６２","OBJECTID":113212},"geometry":{"x":167452.59999999963,"y":2561690.2700000014}},{"attributes":{"ID":113213,"DIS_CODE":0,"TOWNNAME":"永康區","LI":"西灣里","LIN":"28鄰","STREET":"公園路","SECT":" ","MAREA":" ","LANE":"７巷","ALLEY":"１０弄","HOUSE_NO":"１３號","E_COORD97":174445.07000000001,"N_COORD97":2545951.1299999999,"ADDRESS":"公園路７巷１０弄１３號","OBJECTID":113213},"geometry":{"x":174445.07000000123,"y":2545951.1299999971}},{"attributes":{"ID":113214,"DIS_CODE":0,"TOWNNAME":"永康區","LI":"西灣里","LIN":"28鄰","STREET":"公園路","SECT":" ","MAREA":" ","LANE":"７巷","ALLEY":"３０弄","HOUSE_NO":"３０號","E_COORD97":174387.98000000001,"N_COORD97":2545911.75,"ADDRESS":"公園路７巷３０弄３０號","OBJECTID":113214},"geometry":{"x":174387.98000000138,"y":2545911.7500000019}},{"attributes":{"ID":113215,"DIS_CODE":0,"TOWNNAME":"永康區","LI":"西勢里","LIN":"28鄰","STREET":"廣興街","SECT":" ","MAREA":" ","LANE":"３８巷","ALLEY":"３４弄","HOUSE_NO":"２５號","E_COORD97":176033.32999999999,"N_COORD97":2546373.23,"ADDRESS":"廣興街３８巷３４弄２５號","OBJECTID":113215},"geometry":{"x":176033.33000000101,"y":2546373.2300000023}},{"attributes":{"ID":113216,"DIS_CODE":0,"TOWNNAME":"永康區","LI":"西灣里","LIN":"28鄰","STREET":"公園路","SECT":" ","MAREA":" ","LANE":"７巷","ALLEY":"１０弄","HOUSE_NO":"１１號","E_COORD97":174449.78,"N_COORD97":2545951.8799999999,"ADDRESS":"公園路７巷１０弄１１號","OBJECTID":113216},"geometry":{"x":174449.78000000026,"y":2545951.879999999}},{"attributes":{"ID":113217,"DIS_CODE":0,"TOWNNAME":"永康區","LI":"西灣里","LIN":"28鄰","STREET":"公園路","SECT":" ","MAREA":" ","LANE":"７巷","ALLEY":"１０弄","HOUSE_NO":"１６號","E_COORD97":174441.87,"N_COORD97":2545967.2599999998,"ADDRESS":"公園路７巷１０弄１６號","OBJECTID":113217},"geometry":{"x":174441.87000000011,"y":2545967.2599999998}},{"attributes":{"ID":113218,"DIS_CODE":0,"TOWNNAME":"永康區","LI":"西灣里","LIN":"28鄰","STREET":"公園路","SECT":" ","MAREA":" ","LANE":"７巷","ALLEY":"１０弄","HOUSE_NO":"４２號","E_COORD97":174380.31,"N_COORD97":2545958.7400000002,"ADDRESS":"公園路７巷１０弄４２號","OBJECTID":113218},"geometry":{"x":174380.31000000052,"y":2545958.7400000039}},{"attributes":{"ID":113219,"DIS_CODE":0,"TOWNNAME":"永康區","LI":"西灣里","LIN":"28鄰","STREET":"公園路","SECT":" ","MAREA":" ","LANE":"７巷","ALLEY":"３０弄","HOUSE_NO":"１１號","E_COORD97":174430.73000000001,"N_COORD97":2545906.5699999998,"ADDRESS":"公園路７巷３０弄１１號","OBJECTID":113219},"geometry":{"x":174430.73000000138,"y":2545906.5700000022}},{"attributes":{"ID":113220,"DIS_CODE":0,"TOWNNAME":"永康區","LI":"西灣里","LIN":"28鄰","STREET":"公園路","SECT":" ","MAREA":" ","LANE":"７巷","ALLEY":"４４弄","HOUSE_NO":"２號","E_COORD97":174433.39999999999,"N_COORD97":2545871.8599999999,"ADDRESS":"公園路７巷４４弄２號","OBJECTID":113220},"geometry":{"x":174433.40000000037,"y":2545871.8599999994}},{"attributes":{"ID":113221,"DIS_CODE":0,"TOWNNAME":"永康區","LI":"龍潭里","LIN":"28鄰","STREET":"中山北路","SECT":" ","MAREA":" ","LANE":"３８５巷","ALLEY":"６弄","HOUSE_NO":"５號","E_COORD97":174910.70000000001,"N_COORD97":2547758.0899999999,"ADDRESS":"中山北路３８５巷６弄５號","OBJECTID":113221},"geometry":{"x":174910.70000000019,"y":2547758.0899999999}},{"attributes":{"ID":113222,"DIS_CODE":0,"TOWNNAME":"七股區","LI":"竹港里","LIN":"3鄰","STREET":" ","SECT":" ","MAREA":"竹港","LANE":" ","ALLEY":" ","HOUSE_NO":"３１號","E_COORD97":165114.64000000001,"N_COORD97":2556929.27,"ADDRESS":"竹港３１號","OBJECTID":113222},"geometry":{"x":165114.63999999966,"y":2556929.2700000033}},{"attributes":{"ID":113223,"DIS_CODE":0,"TOWNNAME":"鹽水區","LI":"下林里","LIN":"3鄰","STREET":" ","SECT":" ","MAREA":"下林","LANE":" ","ALLEY":" ","HOUSE_NO":"１２號","E_COORD97":173267.04999999999,"N_COORD97":2573418.75,"ADDRESS":"下林１２號","OBJECTID":113223},"geometry":{"x":173267.04999999981,"y":2573418.7500000019}},{"attributes":{"ID":113224,"DIS_CODE":0,"TOWNNAME":"安南區","LI":"\u25A0南里","LIN":"28鄰","STREET":"環福街","SECT":" ","MAREA":" ","LANE":"２２０巷","ALLEY":"２１弄","HOUSE_NO":"１２號","E_COORD97":170262.13,"N_COORD97":2552747.77,"ADDRESS":"環福街２２０巷２１弄１２號","OBJECTID":113224},"geometry":{"x":170262.13000000082,"y":2552747.7699999996}},{"attributes":{"ID":113225,"DIS_CODE":0,"TOWNNAME":"安南區","LI":"\u25A0南里","LIN":"28鄰","STREET":"環福街","SECT":" ","MAREA":" ","LANE":"２２０巷","ALLEY":"２１弄","HOUSE_NO":"２號","E_COORD97":170280.35999999999,"N_COORD97":2552732.52,"ADDRESS":"環福街２２０巷２１弄２號","OBJECTID":113225},"geometry":{"x":170280.36000000034,"y":2552732.5199999996}},{"attributes":{"ID":113226,"DIS_CODE":0,"TOWNNAME":"安南區","LI":"\u25A0南里","LIN":"28鄰","STREET":"安昌街","SECT":" ","MAREA":" ","LANE":"３００巷","ALLEY":"５１弄","HOUSE_NO":"２１號","E_COORD97":170255.62,"N_COORD97":2552817.8100000001,"ADDRESS":"安昌街３００巷５１弄２１號","OBJECTID":113226},"geometry":{"x":170255.62000000104,"y":2552817.8100000024}},{"attributes":{"ID":113227,"DIS_CODE":0,"TOWNNAME":"東區","LI":"崇誨里","LIN":"28鄰","STREET":"裕豐街","SECT":" ","MAREA":" ","LANE":"１８５巷","ALLEY":"１２弄","HOUSE_NO":"３號","E_COORD97":170732.82999999999,"N_COORD97":2543217.1000000001,"ADDRESS":"裕豐街１８５巷１２弄３號","OBJECTID":113227},"geometry":{"x":170732.83000000007,"y":2543217.1000000015}},{"attributes":{"ID":113228,"DIS_CODE":0,"TOWNNAME":"東區","LI":"崇誨里","LIN":"28鄰","STREET":"裕豐街","SECT":" ","MAREA":" ","LANE":"１８５巷","ALLEY":"１２弄","HOUSE_NO":"５號","E_COORD97":170732.45999999999,"N_COORD97":2543220.48,"ADDRESS":"裕豐街１８５巷１２弄５號","OBJECTID":113228},"geometry":{"x":170732.45999999903,"y":2543220.4800000004}},{"attributes":{"ID":113229,"DIS_CODE":0,"TOWNNAME":"東區","LI":"崇誨里","LIN":"28鄰","STREET":"裕豐街","SECT":" ","MAREA":" ","LANE":"１８５巷","ALLEY":"１２弄","HOUSE_NO":"７號","E_COORD97":170731.32999999999,"N_COORD97":2543224.6200000001,"ADDRESS":"裕豐街１８５巷１２弄７號","OBJECTID":113229},"geometry":{"x":170731.33000000007,"y":2543224.6200000048}},{"attributes":{"ID":113230,"DIS_CODE":0,"TOWNNAME":"東區","LI":"崇誨里","LIN":"28鄰","STREET":"裕豐街","SECT":" ","MAREA":" ","LANE":"１８５巷","ALLEY":"１２弄","HOUSE_NO":"９號","E_COORD97":170730.82999999999,"N_COORD97":2543228.6299999999,"ADDRESS":"裕豐街１８５巷１２弄９號","OBJECTID":113230},"geometry":{"x":170730.83000000101,"y":2543228.629999999}},{"attributes":{"ID":113231,"DIS_CODE":0,"TOWNNAME":"東區","LI":"崇誨里","LIN":"28鄰","STREET":"裕豐街","SECT":" ","MAREA":" ","LANE":"１８５巷","ALLEY":"２６弄","HOUSE_NO":"１０號","E_COORD97":170713.22,"N_COORD97":2543224.4700000002,"ADDRESS":"裕豐街１８５巷２６弄１０號","OBJECTID":113231},"geometry":{"x":170713.21999999974,"y":2543224.4700000007}},{"attributes":{"ID":113232,"DIS_CODE":0,"TOWNNAME":"東區","LI":"崇誨里","LIN":"28鄰","STREET":"裕豐街","SECT":" ","MAREA":" ","LANE":"１８５巷","ALLEY":"２６弄","HOUSE_NO":"１１號","E_COORD97":170689.34,"N_COORD97":2543231.2000000002,"ADDRESS":"裕豐街１８５巷２６弄１１號","OBJECTID":113232},"geometry":{"x":170689.34000000171,"y":2543231.1999999993}},{"attributes":{"ID":113233,"DIS_CODE":0,"TOWNNAME":"東區","LI":"崇誨里","LIN":"28鄰","STREET":"裕豐街","SECT":" ","MAREA":" ","LANE":"１８５巷","ALLEY":"２６弄","HOUSE_NO":"１２號","E_COORD97":170712.26000000001,"N_COORD97":2543228.29,"ADDRESS":"裕豐街１８５巷２６弄１２號","OBJECTID":113233},"geometry":{"x":170712.26000000071,"y":2543228.290000001}},{"attributes":{"ID":113234,"DIS_CODE":0,"TOWNNAME":"安南區","LI":"\u25A0田里","LIN":"1鄰","STREET":"\u25A0田路","SECT":" ","MAREA":" ","LANE":" ","ALLEY":" ","HOUSE_NO":"３８５號","E_COORD97":161854.32000000001,"N_COORD97":2548120.77,"ADDRESS":"\u25A0田路３８５號","OBJECTID":113234},"geometry":{"x":161854.3200000003,"y":2548120.7699999977}},{"attributes":{"ID":113235,"DIS_CODE":0,"TOWNNAME":"東區","LI":"崇誨里","LIN":"28鄰","STREET":"裕豐街","SECT":" ","MAREA":" ","LANE":"１８５巷","ALLEY":"２６弄","HOUSE_NO":"１３號","E_COORD97":170691.84,"N_COORD97":2543241.0600000001,"ADDRESS":"裕豐街１８５巷２６弄１３號","OBJECTID":113235},"geometry":{"x":170691.83999999985,"y":2543241.0599999987}},{"attributes":{"ID":113236,"DIS_CODE":0,"TOWNNAME":"東區","LI":"崇誨里","LIN":"28鄰","STREET":"裕豐街","SECT":" ","MAREA":" ","LANE":"１８５巷","ALLEY":"２６弄","HOUSE_NO":"２號","E_COORD97":170716.79999999999,"N_COORD97":2543208.8399999999,"ADDRESS":"裕豐街１８５巷２６弄２號","OBJECTID":113236},"geometry":{"x":170716.80000000075,"y":2543208.8400000017}},{"attributes":{"ID":113237,"DIS_CODE":0,"TOWNNAME":"東區","LI":"崇誨里","LIN":"28鄰","STREET":"裕豐街","SECT":" ","MAREA":" ","LANE":"１８５巷","ALLEY":"２６弄","HOUSE_NO":"４號","E_COORD97":170715.48999999999,"N_COORD97":2543212.6600000001,"ADDRESS":"裕豐街１８５巷２６弄４號","OBJECTID":113237},"geometry":{"x":170715.49000000022,"y":2543212.6600000001}},{"attributes":{"ID":113238,"DIS_CODE":0,"TOWNNAME":"東區","LI":"崇誨里","LIN":"28鄰","STREET":"裕豐街","SECT":" ","MAREA":" ","LANE":"１８５巷","ALLEY":"２６弄","HOUSE_NO":"６號","E_COORD97":170714.64999999999,"N_COORD97":2543216.8300000001,"ADDRESS":"裕豐街１８５巷２６弄６號","OBJECTID":113238},"geometry":{"x":170714.64999999944,"y":2543216.8300000019}},{"attributes":{"ID":113239,"DIS_CODE":0,"TOWNNAME":"東區","LI":"崇誨里","LIN":"28鄰","STREET":"裕豐街","SECT":" ","MAREA":" ","LANE":"１８５巷","ALLEY":"２６弄","HOUSE_NO":"８號","E_COORD97":170713.94,"N_COORD97":2543220.5299999998,"ADDRESS":"裕豐街１８５巷２６弄８號","OBJECTID":113239},"geometry":{"x":170713.94000000041,"y":2543220.5300000012}},{"attributes":{"ID":113240,"DIS_CODE":0,"TOWNNAME":"東區","LI":"崇誨里","LIN":"28鄰","STREET":"裕豐街","SECT":" ","MAREA":" ","LANE":"１８５巷","ALLEY":"２６弄","HOUSE_NO":"９號","E_COORD97":170689.81,"N_COORD97":2543226.54,"ADDRESS":"裕豐街１８５巷２６弄９號","OBJECTID":113240},"geometry":{"x":170689.81000000052,"y":2543226.5400000028}},{"attributes":{"ID":113241,"DIS_CODE":0,"TOWNNAME":"東區","LI":"崇誨里","LIN":"28鄰","STREET":"裕豐街","SECT":" ","MAREA":" ","LANE":"１８５巷","ALLEY":"１２弄","HOUSE_NO":"１７號","E_COORD97":170725.54999999999,"N_COORD97":2543246.8799999999,"ADDRESS":"裕豐街１８５巷１２弄１７號","OBJECTID":113241},"geometry":{"x":170725.55000000075,"y":2543246.879999999}},{"attributes":{"ID":113242,"DIS_CODE":0,"TOWNNAME":"佳里區","LI":"鎮山里","LIN":"23鄰","STREET":" ","SECT":" ","MAREA":"鎮山","LANE":" ","ALLEY":" ","HOUSE_NO":"９４號之６５","E_COORD97":167448.98000000001,"N_COORD97":2561700.4500000002,"ADDRESS":"鎮山９４號之６５","OBJECTID":113242},"geometry":{"x":167448.98000000045,"y":2561700.4499999993}},{"attributes":{"ID":113243,"DIS_CODE":0,"TOWNNAME":"永康區","LI":"尚頂里","LIN":"28鄰","STREET":"南台街","SECT":" ","MAREA":" ","LANE":"５４巷","ALLEY":"４１弄","HOUSE_NO":"２９號","E_COORD97":170261.62,"N_COORD97":2547028.75,"ADDRESS":"南台街５４巷４１弄２９號","OBJECTID":113243},"geometry":{"x":170261.62000000011,"y":2547028.75}},{"attributes":{"ID":113244,"DIS_CODE":0,"TOWNNAME":"永康區","LI":"尚頂里","LIN":"28鄰","STREET":"南台街","SECT":" ","MAREA":" ","LANE":"５４巷","ALLEY":"４１弄","HOUSE_NO":"４５號","E_COORD97":170298.62,"N_COORD97":2547075,"ADDRESS":"南台街５４巷４１弄４５號","OBJECTID":113244},"geometry":{"x":170298.62000000011,"y":2547075}},{"attributes":{"ID":113245,"DIS_CODE":0,"TOWNNAME":"永康區","LI":"尚頂里","LIN":"28鄰","STREET":"南台街","SECT":" ","MAREA":" ","LANE":"５４巷","ALLEY":"４１弄","HOUSE_NO":"５１號","E_COORD97":170324.67000000001,"N_COORD97":2547073.5,"ADDRESS":"南台街５４巷４１弄５１號","OBJECTID":113245},"geometry":{"x":170324.67000000086,"y":2547073.5000000019}},{"attributes":{"ID":113246,"DIS_CODE":0,"TOWNNAME":"永康區","LI":"尚頂里","LIN":"28鄰","STREET":"南台街","SECT":" ","MAREA":" ","LANE":"５４巷","ALLEY":"４１弄","HOUSE_NO":"３７號","E_COORD97":170262.29999999999,"N_COORD97":2547069.5,"ADDRESS":"南台街５４巷４１弄３７號","OBJECTID":113246},"geometry":{"x":170262.30000000168,"y":2547069.5000000019}},{"attributes":{"ID":113247,"DIS_CODE":0,"TOWNNAME":"永康區","LI":"尚頂里","LIN":"28鄰","STREET":"南台街","SECT":" ","MAREA":" ","LANE":"５４巷","ALLEY":"４１弄","HOUSE_NO":"３２號","E_COORD97":170261.60000000001,"N_COORD97":2547047.75,"ADDRESS":"南台街５４巷４１弄３２號","OBJECTID":113247},"geometry":{"x":170261.5999999987,"y":2547047.7500000019}},{"attributes":{"ID":113248,"DIS_CODE":0,"TOWNNAME":"永康區","LI":"尚頂里","LIN":"28鄰","STREET":"南台街","SECT":" ","MAREA":" ","LANE":"５４巷","ALLEY":"４１弄","HOUSE_NO":"２４號","E_COORD97":170239.70000000001,"N_COORD97":2547063.25,"ADDRESS":"南台街５４巷４１弄２４號","OBJECTID":113248},"geometry":{"x":170239.70000000205,"y":2547063.25}},{"attributes":{"ID":113249,"DIS_CODE":0,"TOWNNAME":"永康區","LI":"尚頂里","LIN":"28鄰","STREET":"南台街","SECT":" ","MAREA":" ","LANE":"５４巷","ALLEY":"４１弄","HOUSE_NO":"４３號","E_COORD97":170290.01000000001,"N_COORD97":2547075.5,"ADDRESS":"南台街５４巷４１弄４３號","OBJECTID":113249},"geometry":{"x":170290.01000000071,"y":2547075.5000000037}},{"attributes":{"ID":113250,"DIS_CODE":0,"TOWNNAME":"永康區","LI":"尚頂里","LIN":"28鄰","STREET":"南台街","SECT":" ","MAREA":" ","LANE":"５４巷","ALLEY":"４１弄","HOUSE_NO":"４９號","E_COORD97":170315.66,"N_COORD97":2547074.5,"ADDRESS":"南台街５４巷４１弄４９號","OBJECTID":113250},"geometry":{"x":170315.66000000015,"y":2547074.5}},{"attributes":{"ID":113251,"DIS_CODE":0,"TOWNNAME":"仁德區","LI":"三甲里","LIN":"1鄰","STREET":" ","SECT":" ","MAREA":"三甲子","LANE":" ","ALLEY":" ","HOUSE_NO":"３之３號","E_COORD97":171936.16,"N_COORD97":2537240.29,"ADDRESS":"三甲子３之３號","OBJECTID":113251},"geometry":{"x":171936.16000000015,"y":2537240.2899999991}},{"attributes":{"ID":113252,"DIS_CODE":0,"TOWNNAME":"仁德區","LI":"中生里","LIN":"1鄰","STREET":" ","SECT":" ","MAREA":"中洲","LANE":" ","ALLEY":" ","HOUSE_NO":"７３之２號","E_COORD97":173159.14000000001,"N_COORD97":2534387.54,"ADDRESS":"中洲７３之２號","OBJECTID":113252},"geometry":{"x":173159.1400000006,"y":2534387.5400000028}},{"attributes":{"ID":113253,"DIS_CODE":0,"TOWNNAME":"佳里區","LI":"鎮山里","LIN":"23鄰","STREET":" ","SECT":" ","MAREA":"鎮山","LANE":" ","ALLEY":" ","HOUSE_NO":"９４號之６６","E_COORD97":166600.13,"N_COORD97":2561069.7599999998,"ADDRESS":"鎮山９４號之６６","OBJECTID":113253},"geometry":{"x":166600.13000000175,"y":2561069.7600000016}},{"attributes":{"ID":113254,"DIS_CODE":0,"TOWNNAME":"仁德區","LI":"上崙里","LIN":"1鄰","STREET":"德崙路","SECT":" ","MAREA":" ","LANE":"７７巷","ALLEY":" ","HOUSE_NO":"１０２號","E_COORD97":173650.01000000001,"N_COORD97":2538467.52,"ADDRESS":"德崙路７７巷１０２號","OBJECTID":113254},"geometry":{"x":173650.01000000071,"y":2538467.5200000014}},{"attributes":{"ID":113255,"DIS_CODE":0,"TOWNNAME":"鹽水區","LI":"大莊里","LIN":"8鄰","STREET":" ","SECT":" ","MAREA":"大莊","LANE":" ","ALLEY":" ","HOUSE_NO":"２０號","E_COORD97":172780.62,"N_COORD97":2576915.79,"ADDRESS":"大莊２０號","OBJECTID":113255},"geometry":{"x":172780.62000000011,"y":2576915.790000001}},{"attributes":{"ID":113256,"DIS_CODE":0,"TOWNNAME":"佳里區","LI":"鎮山里","LIN":"23鄰","STREET":" ","SECT":" ","MAREA":"鎮山","LANE":" ","ALLEY":" ","HOUSE_NO":"９４號之６７","E_COORD97":166595.45000000001,"N_COORD97":2561758.7599999998,"ADDRESS":"鎮山９４號之６７","OBJECTID":113256},"geometry":{"x":166595.45000000112,"y":2561758.7600000016}},{"attributes":{"ID":113257,"DIS_CODE":0,"TOWNNAME":"佳里區","LI":"鎮山里","LIN":"23鄰","STREET":" ","SECT":" ","MAREA":"鎮山","LANE":" ","ALLEY":" ","HOUSE_NO":"９４號之６８","E_COORD97":166791.23999999999,"N_COORD97":2561242.5800000001,"ADDRESS":"鎮山９４號之６８","OBJECTID":113257},"geometry":{"x":166791.23999999929,"y":2561242.5800000001}},{"attributes":{"ID":113258,"DIS_CODE":0,"TOWNNAME":"佳里區","LI":"鎮山里","LIN":"23鄰","STREET":" ","SECT":" ","MAREA":"鎮山","LANE":" ","ALLEY":" ","HOUSE_NO":"９４號之６９","E_COORD97":167319.32999999999,"N_COORD97":2561638.6299999999,"ADDRESS":"鎮山９４號之６９","OBJECTID":113258},"geometry":{"x":167319.33000000007,"y":2561638.6300000027}},{"attributes":{"ID":113259,"DIS_CODE":0,"TOWNNAME":"歸仁區","LI":"歸南里","LIN":"8鄰","STREET":"中正十六街","SECT":" ","MAREA":" ","LANE":" ","ALLEY":" ","HOUSE_NO":"１１號","E_COORD97":176530.16,"N_COORD97":2539861.9500000002,"ADDRESS":"中正十六街１１號","OBJECTID":113259},"geometry":{"x":176530.16000000015,"y":2539861.9500000011}},{"attributes":{"ID":113260,"DIS_CODE":0,"TOWNNAME":"佳里區","LI":"鎮山里","LIN":"23鄰","STREET":" ","SECT":" ","MAREA":"鎮山","LANE":" ","ALLEY":" ","HOUSE_NO":"９４號之６","E_COORD97":166741.82999999999,"N_COORD97":2561300.0600000001,"ADDRESS":"鎮山９４號之６","OBJECTID":113260},"geometry":{"x":166741.83000000101,"y":2561300.0600000024}},{"attributes":{"ID":113261,"DIS_CODE":0,"TOWNNAME":"佳里區","LI":"鎮山里","LIN":"23鄰","STREET":" ","SECT":" ","MAREA":"鎮山","LANE":" ","ALLEY":" ","HOUSE_NO":"９４號之７０","E_COORD97":167160.17000000001,"N_COORD97":2561276.0299999998,"ADDRESS":"鎮山９４號之７０","OBJECTID":113261},"geometry":{"x":167160.17000000086,"y":2561276.0299999993}},{"attributes":{"ID":113262,"DIS_CODE":0,"TOWNNAME":"佳里區","LI":"鎮山里","LIN":"23鄰","STREET":" ","SECT":" ","MAREA":"鎮山","LANE":" ","ALLEY":" ","HOUSE_NO":"９４號之７２","E_COORD97":166724.73000000001,"N_COORD97":2561067.7400000002,"ADDRESS":"鎮山９４號之７２","OBJECTID":113262},"geometry":{"x":166724.73000000045,"y":2561067.7400000021}},{"attributes":{"ID":113263,"DIS_CODE":0,"TOWNNAME":"歸仁區","LI":"媽廟里","LIN":"8鄰","STREET":"和順路","SECT":"一段","MAREA":" ","LANE":" ","ALLEY":" ","HOUSE_NO":"７０號","E_COORD97":177348.57000000001,"N_COORD97":2543740.7200000002,"ADDRESS":"和順路一段７０號","OBJECTID":113263},"geometry":{"x":177348.57000000216,"y":2543740.7200000007}},{"attributes":{"ID":113264,"DIS_CODE":0,"TOWNNAME":"佳里區","LI":"鎮山里","LIN":"23鄰","STREET":" ","SECT":" ","MAREA":"鎮山","LANE":" ","ALLEY":" ","HOUSE_NO":"９４號之７３","E_COORD97":166758.12,"N_COORD97":2560926.9500000002,"ADDRESS":"鎮山９４號之７３","OBJECTID":113264},"geometry":{"x":166758.12000000197,"y":2560926.9499999993}},{"attributes":{"ID":113265,"DIS_CODE":0,"TOWNNAME":"佳里區","LI":"鎮山里","LIN":"23鄰","STREET":" ","SECT":" ","MAREA":"鎮山","LANE":" ","ALLEY":" ","HOUSE_NO":"９４號之７５","E_COORD97":167346.73999999999,"N_COORD97":2561831.6699999999,"ADDRESS":"鎮山９４號之７５","OBJECTID":113265},"geometry":{"x":167346.74000000022,"y":2561831.6699999999}},{"attributes":{"ID":113266,"DIS_CODE":0,"TOWNNAME":"佳里區","LI":"鎮山里","LIN":"23鄰","STREET":" ","SECT":" ","MAREA":"鎮山","LANE":" ","ALLEY":" ","HOUSE_NO":"９４號之７６","E_COORD97":167480.23000000001,"N_COORD97":2561413.1600000001,"ADDRESS":"鎮山９４號之７６","OBJECTID":113266},"geometry":{"x":167480.23000000138,"y":2561413.160000002}},{"attributes":{"ID":113267,"DIS_CODE":0,"TOWNNAME":"新市區","LI":"大營里","LIN":"23鄰","STREET":" ","SECT":" ","MAREA":"大營","LANE":" ","ALLEY":" ","HOUSE_NO":"１３０之１１號","E_COORD97":179238.20999999999,"N_COORD97":2554632.5499999998,"ADDRESS":"大營１３０之１１號","OBJECTID":113267},"geometry":{"x":179238.20999999996,"y":2554632.5500000007}},{"attributes":{"ID":113268,"DIS_CODE":0,"TOWNNAME":"新市區","LI":"大營里","LIN":"23鄰","STREET":" ","SECT":" ","MAREA":"大營","LANE":" ","ALLEY":" ","HOUSE_NO":"１３０之３３號","E_COORD97":179283.89999999999,"N_COORD97":2554615.0499999998,"ADDRESS":"大營１３０之３３號","OBJECTID":113268},"geometry":{"x":179283.90000000224,"y":2554615.0500000007}},{"attributes":{"ID":113269,"DIS_CODE":0,"TOWNNAME":"新市區","LI":"大營里","LIN":"23鄰","STREET":" ","SECT":" ","MAREA":"大營","LANE":" ","ALLEY":" ","HOUSE_NO":"１３０之２４號","E_COORD97":179243.07000000001,"N_COORD97":2554597.0499999998,"ADDRESS":"大營１３０之２４號","OBJECTID":113269},"geometry":{"x":179243.0700000003,"y":2554597.0500000026}},{"attributes":{"ID":113270,"DIS_CODE":0,"TOWNNAME":"歸仁區","LI":"崙頂里","LIN":"8鄰","STREET":"崙頂三街","SECT":" ","MAREA":" ","LANE":" ","ALLEY":" ","HOUSE_NO":"１２０號","E_COORD97":178090.62,"N_COORD97":2539917.6800000002,"ADDRESS":"崙頂三街１２０號","OBJECTID":113270},"geometry":{"x":178090.62000000104,"y":2539917.6800000016}},{"attributes":{"ID":113271,"DIS_CODE":0,"TOWNNAME":"歸仁區","LI":"媽廟里","LIN":"8鄰","STREET":"和順路","SECT":"一段","MAREA":" ","LANE":" ","ALLEY":" ","HOUSE_NO":"６８號","E_COORD97":177345.37,"N_COORD97":2543715.7200000002,"ADDRESS":"和順路一段６８號","OBJECTID":113271},"geometry":{"x":177345.37000000104,"y":2543715.7200000025}},{"attributes":{"ID":113272,"DIS_CODE":0,"TOWNNAME":"歸仁區","LI":"新厝里","LIN":"8鄰","STREET":"中正三街","SECT":" ","MAREA":" ","LANE":" ","ALLEY":" ","HOUSE_NO":"７０號","E_COORD97":177777.70000000001,"N_COORD97":2540553.27,"ADDRESS":"中正三街７０號","OBJECTID":113272},"geometry":{"x":177777.70000000019,"y":2540553.2699999996}},{"attributes":{"ID":113273,"DIS_CODE":0,"TOWNNAME":"歸仁區","LI":"許厝里","LIN":"8鄰","STREET":"仁愛南街","SECT":" ","MAREA":" ","LANE":" ","ALLEY":" ","HOUSE_NO":"６０號","E_COORD97":178261.23000000001,"N_COORD97":2540514.25,"ADDRESS":"仁愛南街６０號","OBJECTID":113273},"geometry":{"x":178261.23000000231,"y":2540514.2500000019}},{"attributes":{"ID":113274,"DIS_CODE":0,"TOWNNAME":"歸仁區","LI":"歸南里","LIN":"8鄰","STREET":"中正十六街","SECT":" ","MAREA":" ","LANE":" ","ALLEY":" ","HOUSE_NO":"３號","E_COORD97":176526.81,"N_COORD97":2539844.9500000002,"ADDRESS":"中正十六街３號","OBJECTID":113274},"geometry":{"x":176526.80999999959,"y":2539844.9500000011}},{"attributes":{"ID":113275,"DIS_CODE":0,"TOWNNAME":"歸仁區","LI":"新厝里","LIN":"8鄰","STREET":"和平南街","SECT":" ","MAREA":" ","LANE":" ","ALLEY":" ","HOUSE_NO":"９０號","E_COORD97":177801.32000000001,"N_COORD97":2540547.27,"ADDRESS":"和平南街９０號","OBJECTID":113275},"geometry":{"x":177801.32000000123,"y":2540547.2700000014}},{"attributes":{"ID":113276,"DIS_CODE":0,"TOWNNAME":"歸仁區","LI":"歸仁里","LIN":"8鄰","STREET":"大通一街","SECT":" ","MAREA":" ","LANE":" ","ALLEY":" ","HOUSE_NO":"９９號","E_COORD97":177895.91,"N_COORD97":2540979.4900000002,"ADDRESS":"大通一街９９號","OBJECTID":113276},"geometry":{"x":177895.91000000108,"y":2540979.4900000002}},{"attributes":{"ID":113277,"DIS_CODE":0,"TOWNNAME":"仁德區","LI":"仁愛里","LIN":"1鄰","STREET":" ","SECT":" ","MAREA":"仁愛","LANE":" ","ALLEY":" ","HOUSE_NO":"１０號","E_COORD97":170297.08360000001,"N_COORD97":2540161.7729400001,"ADDRESS":"仁愛１０號","OBJECTID":113277},"geometry":{"x":170297.08359999955,"y":2540161.772938}},{"attributes":{"ID":113278,"DIS_CODE":0,"TOWNNAME":"仁德區","LI":"中生里","LIN":"1鄰","STREET":" ","SECT":" ","MAREA":"中洲","LANE":" ","ALLEY":" ","HOUSE_NO":"７３號之６","E_COORD97":173154.89000000001,"N_COORD97":2534403.7999999998,"ADDRESS":"中洲７３號之６","OBJECTID":113278},"geometry":{"x":173154.88999999966,"y":2534403.8000000007}},{"attributes":{"ID":113279,"DIS_CODE":0,"TOWNNAME":"仁德區","LI":"仁德里","LIN":"1鄰","STREET":"中正路","SECT":"二段","MAREA":" ","LANE":" ","ALLEY":" ","HOUSE_NO":"６７５號","E_COORD97":173416.13,"N_COORD97":2540049.27,"ADDRESS":"中正路二段６７５號","OBJECTID":113279},"geometry":{"x":173416.12999999989,"y":2540049.2700000014}},{"attributes":{"ID":113280,"DIS_CODE":0,"TOWNNAME":"仁德區","LI":"三甲里","LIN":"1鄰","STREET":" ","SECT":" ","MAREA":"三甲子","LANE":" ","ALLEY":" ","HOUSE_NO":"２號","E_COORD97":171941,"N_COORD97":2537222.5,"ADDRESS":"三甲子２號","OBJECTID":113280},"geometry":{"x":171941.00000000186,"y":2537222.5}},{"attributes":{"ID":113281,"DIS_CODE":0,"TOWNNAME":"仁德區","LI":"中生里","LIN":"1鄰","STREET":" ","SECT":" ","MAREA":"中洲","LANE":" ","ALLEY":" ","HOUSE_NO":"７６號之２４","E_COORD97":173122.59,"N_COORD97":2534449.54,"ADDRESS":"中洲７６號之２４","OBJECTID":113281},"geometry":{"x":173122.59000000078,"y":2534449.540000001}},{"attributes":{"ID":113282,"DIS_CODE":0,"TOWNNAME":"仁德區","LI":"太子里","LIN":"1鄰","STREET":"太子路","SECT":" ","MAREA":" ","LANE":" ","ALLEY":" ","HOUSE_NO":"２２８號","E_COORD97":174180.54000000001,"N_COORD97":2543508.5099999998,"ADDRESS":"太子路２２８號","OBJECTID":113282},"geometry":{"x":174180.54000000097,"y":2543508.5100000035}},{"attributes":{"ID":113283,"DIS_CODE":0,"TOWNNAME":"新市區","LI":"大營里","LIN":"23鄰","STREET":" ","SECT":" ","MAREA":"大營","LANE":" ","ALLEY":" ","HOUSE_NO":"１３０之９號","E_COORD97":179234.67000000001,"N_COORD97":2554635.7999999998,"ADDRESS":"大營１３０之９號","OBJECTID":113283},"geometry":{"x":179234.67000000086,"y":2554635.8000000026}},{"attributes":{"ID":113284,"DIS_CODE":0,"TOWNNAME":"仁德區","LI":"太子里","LIN":"1鄰","STREET":"長興三街","SECT":" ","MAREA":" ","LANE":" ","ALLEY":" ","HOUSE_NO":"１號","E_COORD97":174222.29000000001,"N_COORD97":2543550.2599999998,"ADDRESS":"長興三街１號","OBJECTID":113284},"geometry":{"x":174222.29000000004,"y":2543550.2599999998}},{"attributes":{"ID":113285,"DIS_CODE":0,"TOWNNAME":"新市區","LI":"大營里","LIN":"23鄰","STREET":" ","SECT":" ","MAREA":"大營","LANE":" ","ALLEY":" ","HOUSE_NO":"１３０之２７號","E_COORD97":179258.73000000001,"N_COORD97":2554607.2999999998,"ADDRESS":"大營１３０之２７號","OBJECTID":113285},"geometry":{"x":179258.73000000138,"y":2554607.3000000007}},{"attributes":{"ID":113286,"DIS_CODE":0,"TOWNNAME":"新市區","LI":"大營里","LIN":"23鄰","STREET":" ","SECT":" ","MAREA":"大營","LANE":" ","ALLEY":" ","HOUSE_NO":"１３０之３號","E_COORD97":179228.82000000001,"N_COORD97":2554641.2999999998,"ADDRESS":"大營１３０之３號","OBJECTID":113286},"geometry":{"x":179228.82000000123,"y":2554641.3000000007}},{"attributes":{"ID":113287,"DIS_CODE":0,"TOWNNAME":"永康區","LI":"尚頂里","LIN":"28鄰","STREET":"南台街","SECT":" ","MAREA":" ","LANE":"５４巷","ALLEY":"４１弄","HOUSE_NO":"３９號","E_COORD97":170262.82000000001,"N_COORD97":2547079.2400000002,"ADDRESS":"南台街５４巷４１弄３９號","OBJECTID":113287},"geometry":{"x":170262.82000000123,"y":2547079.2400000021}},{"attributes":{"ID":113288,"DIS_CODE":0,"TOWNNAME":"永康區","LI":"尚頂里","LIN":"28鄰","STREET":"南台街","SECT":" ","MAREA":" ","LANE":"５４巷","ALLEY":"４１弄","HOUSE_NO":"１５號","E_COORD97":170265.59,"N_COORD97":2547093.3799999999,"ADDRESS":"南台街５４巷４１弄１５號","OBJECTID":113288},"geometry":{"x":170265.59000000078,"y":2547093.3800000008}},{"attributes":{"ID":113289,"DIS_CODE":0,"TOWNNAME":"永康區","LI":"尚頂里","LIN":"28鄰","STREET":"南台街","SECT":" ","MAREA":" ","LANE":"５４巷","ALLEY":"４１弄","HOUSE_NO":"２６號","E_COORD97":170236.84,"N_COORD97":2547041.5,"ADDRESS":"南台街５４巷４１弄２６號","OBJECTID":113289},"geometry":{"x":170236.84000000078,"y":2547041.4999999981}},{"attributes":{"ID":113290,"DIS_CODE":0,"TOWNNAME":"永康區","LI":"尚頂里","LIN":"28鄰","STREET":"南台街","SECT":" ","MAREA":" ","LANE":"５４巷","ALLEY":"４１弄","HOUSE_NO":"１７號之２","E_COORD97":170237.59,"N_COORD97":2547105.54,"ADDRESS":"南台街５４巷４１弄１７號之２","OBJECTID":113290},"geometry":{"x":170237.58999999985,"y":2547105.540000001}},{"attributes":{"ID":113291,"DIS_CODE":0,"TOWNNAME":"新市區","LI":"大營里","LIN":"23鄰","STREET":" ","SECT":" ","MAREA":"大營","LANE":" ","ALLEY":" ","HOUSE_NO":"１３０之１４號","E_COORD97":179231.06,"N_COORD97":2554613.2999999998,"ADDRESS":"大營１３０之１４號","OBJECTID":113291},"geometry":{"x":179231.05999999866,"y":2554613.3000000007}},{"attributes":{"ID":113292,"DIS_CODE":0,"TOWNNAME":"新市區","LI":"大營里","LIN":"23鄰","STREET":" ","SECT":" ","MAREA":"大營","LANE":" ","ALLEY":" ","HOUSE_NO":"１３０之２１號","E_COORD97":179250.98000000001,"N_COORD97":2554616.7999999998,"ADDRESS":"大營１３０之２１號","OBJECTID":113292},"geometry":{"x":179250.98000000045,"y":2554616.8000000007}},{"attributes":{"ID":113293,"DIS_CODE":0,"TOWNNAME":"永康區","LI":"尚頂里","LIN":"28鄰","STREET":"南台街","SECT":" ","MAREA":" ","LANE":"５４巷","ALLEY":"４１弄","HOUSE_NO":"３０號","E_COORD97":170261.82000000001,"N_COORD97":2547033.25,"ADDRESS":"南台街５４巷４１弄３０號","OBJECTID":113293},"geometry":{"x":170261.8200000003,"y":2547033.2500000037}},{"attributes":{"ID":113294,"DIS_CODE":0,"TOWNNAME":"永康區","LI":"尚頂里","LIN":"28鄰","STREET":"南台街","SECT":" ","MAREA":" ","LANE":"５４巷","ALLEY":"４１弄","HOUSE_NO":"２１號","E_COORD97":170239.47,"N_COORD97":2547076.75,"ADDRESS":"南台街５４巷４１弄２１號","OBJECTID":113294},"geometry":{"x":170239.47000000067,"y":2547076.75}},{"attributes":{"ID":113295,"DIS_CODE":0,"TOWNNAME":"新市區","LI":"大營里","LIN":"23鄰","STREET":" ","SECT":" ","MAREA":"大營","LANE":" ","ALLEY":" ","HOUSE_NO":"１３０之５號","E_COORD97":179215.09,"N_COORD97":2554623.7999999998,"ADDRESS":"大營１３０之５號","OBJECTID":113295},"geometry":{"x":179215.09000000078,"y":2554623.8000000007}},{"attributes":{"ID":113296,"DIS_CODE":0,"TOWNNAME":"新市區","LI":"大營里","LIN":"23鄰","STREET":" ","SECT":" ","MAREA":"大營","LANE":" ","ALLEY":" ","HOUSE_NO":"１３０之７號","E_COORD97":179207.09,"N_COORD97":2554617.2999999998,"ADDRESS":"大營１３０之７號","OBJECTID":113296},"geometry":{"x":179207.08999999985,"y":2554617.3000000007}},{"attributes":{"ID":113297,"DIS_CODE":0,"TOWNNAME":"新市區","LI":"大營里","LIN":"23鄰","STREET":" ","SECT":" ","MAREA":"大營","LANE":" ","ALLEY":" ","HOUSE_NO":"１３０之１５號","E_COORD97":179243.32000000001,"N_COORD97":2554626.2999999998,"ADDRESS":"大營１３０之１５號","OBJECTID":113297},"geometry":{"x":179243.3200000003,"y":2554626.3000000026}},{"attributes":{"ID":113298,"DIS_CODE":0,"TOWNNAME":"永康區","LI":"尚頂里","LIN":"28鄰","STREET":"南台街","SECT":" ","MAREA":" ","LANE":"５４巷","ALLEY":"４１弄","HOUSE_NO":"５０號","E_COORD97":170320.20999999999,"N_COORD97":2547073.5,"ADDRESS":"南台街５４巷４１弄５０號","OBJECTID":113298},"geometry":{"x":170320.20999999996,"y":2547073.5000000019}},{"attributes":{"ID":113299,"DIS_CODE":0,"TOWNNAME":"新市區","LI":"大營里","LIN":"23鄰","STREET":" ","SECT":" ","MAREA":"大營","LANE":" ","ALLEY":" ","HOUSE_NO":"１３０之２０號","E_COORD97":179238.70999999999,"N_COORD97":2554603.7999999998,"ADDRESS":"大營１３０之２０號","OBJECTID":113299},"geometry":{"x":179238.70999999996,"y":2554603.8000000007}},{"attributes":{"ID":113300,"DIS_CODE":0,"TOWNNAME":"新市區","LI":"大營里","LIN":"23鄰","STREET":" ","SECT":" ","MAREA":"大營","LANE":" ","ALLEY":" ","HOUSE_NO":"１３０之３２號","E_COORD97":179281.10000000001,"N_COORD97":2554611.7999999998,"ADDRESS":"大營１３０之３２號","OBJECTID":113300},"geometry":{"x":179281.09999999963,"y":2554611.8000000026}},{"attributes":{"ID":113301,"DIS_CODE":0,"TOWNNAME":"新市區","LI":"大營里","LIN":"23鄰","STREET":" ","SECT":" ","MAREA":"大營","LANE":" ","ALLEY":" ","HOUSE_NO":"１３０之６號","E_COORD97":179211.09,"N_COORD97":2554620.5499999998,"ADDRESS":"大營１３０之６號","OBJECTID":113301},"geometry":{"x":179211.09000000078,"y":2554620.5500000026}},{"attributes":{"ID":113302,"DIS_CODE":0,"TOWNNAME":"新市區","LI":"大營里","LIN":"23鄰","STREET":" ","SECT":" ","MAREA":"大營","LANE":" ","ALLEY":" ","HOUSE_NO":"１３０之３０號","E_COORD97":179251.48999999999,"N_COORD97":2554588.0499999998,"ADDRESS":"大營１３０之３０號","OBJECTID":113302},"geometry":{"x":179251.49000000115,"y":2554588.0500000007}},{"attributes":{"ID":113303,"DIS_CODE":0,"TOWNNAME":"新市區","LI":"大營里","LIN":"23鄰","STREET":" ","SECT":" ","MAREA":"大營","LANE":" ","ALLEY":" ","HOUSE_NO":"１３０之３７號","E_COORD97":179294.70000000001,"N_COORD97":2554627.5499999998,"ADDRESS":"大營１３０之３７號","OBJECTID":113303},"geometry":{"x":179294.70000000019,"y":2554627.5500000026}},{"attributes":{"ID":113304,"DIS_CODE":0,"TOWNNAME":"新市區","LI":"大營里","LIN":"23鄰","STREET":" ","SECT":" ","MAREA":"大營","LANE":" ","ALLEY":" ","HOUSE_NO":"１３０之１２號","E_COORD97":179228.62,"N_COORD97":2554616.5499999998,"ADDRESS":"大營１３０之１２號","OBJECTID":113304},"geometry":{"x":179228.62000000104,"y":2554616.5500000026}},{"attributes":{"ID":113305,"DIS_CODE":0,"TOWNNAME":"新市區","LI":"大營里","LIN":"23鄰","STREET":" ","SECT":" ","MAREA":"大營","LANE":" ","ALLEY":" ","HOUSE_NO":"１３０之２５號","E_COORD97":179256.12,"N_COORD97":2554610.2999999998,"ADDRESS":"大營１３０之２５號","OBJECTID":113305},"geometry":{"x":179256.12000000011,"y":2554610.3000000007}},{"attributes":{"ID":113306,"DIS_CODE":0,"TOWNNAME":"永康區","LI":"尚頂里","LIN":"28鄰","STREET":"南台街","SECT":" ","MAREA":" ","LANE":"５４巷","ALLEY":"４１弄","HOUSE_NO":"２２號","E_COORD97":170239.75,"N_COORD97":2547072.5,"ADDRESS":"南台街５４巷４１弄２２號","OBJECTID":113306},"geometry":{"x":170239.75000000093,"y":2547072.5000000019}},{"attributes":{"ID":113307,"DIS_CODE":0,"TOWNNAME":"永康區","LI":"西勢里","LIN":"28鄰","STREET":"廣興街","SECT":" ","MAREA":" ","LANE":"３８巷","ALLEY":"３４弄","HOUSE_NO":"１７號","E_COORD97":176042.5,"N_COORD97":2546389.23,"ADDRESS":"廣興街３８巷３４弄１７號","OBJECTID":113307},"geometry":{"x":176042.50000000093,"y":2546389.2300000004}},{"attributes":{"ID":113308,"DIS_CODE":0,"TOWNNAME":"仁德區","LI":"中生里","LIN":"1鄰","STREET":" ","SECT":" ","MAREA":"中洲","LANE":" ","ALLEY":" ","HOUSE_NO":"７６之２８號","E_COORD97":173139.70999999999,"N_COORD97":2534453.04,"ADDRESS":"中洲７６之２８號","OBJECTID":113308},"geometry":{"x":173139.71000000183,"y":2534453.040000001}},{"attributes":{"ID":113309,"DIS_CODE":0,"TOWNNAME":"仁德區","LI":"中生里","LIN":"1鄰","STREET":" ","SECT":" ","MAREA":"中洲","LANE":" ","ALLEY":" ","HOUSE_NO":"７６號之４５","E_COORD97":173160.42000000001,"N_COORD97":2534436.2999999998,"ADDRESS":"中洲７６號之４５","OBJECTID":113309},"geometry":{"x":173160.42000000179,"y":2534436.3000000026}},{"attributes":{"ID":113310,"DIS_CODE":0,"TOWNNAME":"仁德區","LI":"中生里","LIN":"1鄰","STREET":" ","SECT":" ","MAREA":"中洲","LANE":" ","ALLEY":" ","HOUSE_NO":"７６號之２３","E_COORD97":173118.45000000001,"N_COORD97":2534448.79,"ADDRESS":"中洲７６號之２３","OBJECTID":113310},"geometry":{"x":173118.45000000112,"y":2534448.7899999991}},{"attributes":{"ID":113311,"DIS_CODE":0,"TOWNNAME":"仁德區","LI":"太子里","LIN":"1鄰","STREET":"太子北路","SECT":" ","MAREA":" ","LANE":" ","ALLEY":" ","HOUSE_NO":"２號","E_COORD97":174198.35000000001,"N_COORD97":2543538.0099999998,"ADDRESS":"太子北路２號","OBJECTID":113311},"geometry":{"x":174198.35000000056,"y":2543538.0099999998}},{"attributes":{"ID":113312,"DIS_CODE":0,"TOWNNAME":"仁德區","LI":"中洲里","LIN":"1鄰","STREET":" ","SECT":" ","MAREA":"中洲","LANE":" ","ALLEY":" ","HOUSE_NO":"５號之７","E_COORD97":173477.76000000001,"N_COORD97":2534381.29,"ADDRESS":"中洲５號之７","OBJECTID":113312},"geometry":{"x":173477.75999999978,"y":2534381.2899999991}},{"attributes":{"ID":113313,"DIS_CODE":0,"TOWNNAME":"仁德區","LI":"中洲里","LIN":"1鄰","STREET":" ","SECT":" ","MAREA":"中洲","LANE":" ","ALLEY":" ","HOUSE_NO":"１號之５３","E_COORD97":173643.64000000001,"N_COORD97":2534539.5499999998,"ADDRESS":"中洲１號之５３","OBJECTID":113313},"geometry":{"x":173643.6400000006,"y":2534539.5500000026}},{"attributes":{"ID":113314,"DIS_CODE":0,"TOWNNAME":"仁德區","LI":"中生里","LIN":"1鄰","STREET":" ","SECT":" ","MAREA":"中洲","LANE":" ","ALLEY":" ","HOUSE_NO":"７６之１００號","E_COORD97":173091.16,"N_COORD97":2534591.54,"ADDRESS":"中洲７６之１００號","OBJECTID":113314},"geometry":{"x":173091.16000000201,"y":2534591.540000001}},{"attributes":{"ID":113315,"DIS_CODE":0,"TOWNNAME":"仁德區","LI":"中洲里","LIN":"1鄰","STREET":" ","SECT":" ","MAREA":"中洲","LANE":" ","ALLEY":" ","HOUSE_NO":"５號之２８","E_COORD97":173418.38,"N_COORD97":2534389.2999999998,"ADDRESS":"中洲５號之２８","OBJECTID":113315},"geometry":{"x":173418.38000000082,"y":2534389.3000000007}},{"attributes":{"ID":113316,"DIS_CODE":0,"TOWNNAME":"仁德區","LI":"中生里","LIN":"1鄰","STREET":" ","SECT":" ","MAREA":"中洲","LANE":" ","ALLEY":" ","HOUSE_NO":"７５號","E_COORD97":173108.47,"N_COORD97":2534432.75,"ADDRESS":"中洲７５號","OBJECTID":113316},"geometry":{"x":173108.46999999974,"y":2534432.7500000019}},{"attributes":{"ID":113317,"DIS_CODE":0,"TOWNNAME":"佳里區","LI":"溪州里","LIN":"1鄰","STREET":" ","SECT":" ","MAREA":"溪州","LANE":" ","ALLEY":" ","HOUSE_NO":"３號","E_COORD97":166415.78,"N_COORD97":2567267.4300000002,"ADDRESS":"溪州３號","OBJECTID":113317},"geometry":{"x":166415.78000000026,"y":2567267.4299999997}},{"attributes":{"ID":113318,"DIS_CODE":0,"TOWNNAME":"山上區","LI":"明和里","LIN":"23鄰","STREET":" ","SECT":" ","MAREA":"北勢洲","LANE":" ","ALLEY":" ","HOUSE_NO":"５４號","E_COORD97":181795.34,"N_COORD97":2556618.29,"ADDRESS":"北勢洲５４號","OBJECTID":113318},"geometry":{"x":181795.33999999985,"y":2556618.2899999991}},{"attributes":{"ID":113319,"DIS_CODE":0,"TOWNNAME":"仁德區","LI":"仁義里","LIN":"1鄰","STREET":"義林路","SECT":" ","MAREA":" ","LANE":" ","ALLEY":" ","HOUSE_NO":"１６３號","E_COORD97":174432.903162,"N_COORD97":2540782.8849800001,"ADDRESS":"義林路１６３號","OBJECTID":113319},"geometry":{"x":174432.90316199977,"y":2540782.8849769998}},{"attributes":{"ID":113320,"DIS_CODE":0,"TOWNNAME":"山上區","LI":"明和里","LIN":"23鄰","STREET":" ","SECT":" ","MAREA":"北勢洲","LANE":" ","ALLEY":" ","HOUSE_NO":"７６之１號","E_COORD97":181711.14000000001,"N_COORD97":2556474.2999999998,"ADDRESS":"北勢洲７６之１號","OBJECTID":113320},"geometry":{"x":181711.1400000006,"y":2556474.3000000007}},{"attributes":{"ID":113321,"DIS_CODE":0,"TOWNNAME":"永康區","LI":"尚頂里","LIN":"28鄰","STREET":"南台街","SECT":" ","MAREA":" ","LANE":"５４巷","ALLEY":"４１弄","HOUSE_NO":"４１號","E_COORD97":170281.35999999999,"N_COORD97":2547075.75,"ADDRESS":"南台街５４巷４１弄４１號","OBJECTID":113321},"geometry":{"x":170281.36000000127,"y":2547075.75}},{"attributes":{"ID":113322,"DIS_CODE":0,"TOWNNAME":"永康區","LI":"尚頂里","LIN":"28鄰","STREET":"南台街","SECT":" ","MAREA":" ","LANE":"５４巷","ALLEY":"４１弄","HOUSE_NO":"２７號","E_COORD97":170232.54000000001,"N_COORD97":2547034.5,"ADDRESS":"南台街５４巷４１弄２７號","OBJECTID":113322},"geometry":{"x":170232.54000000097,"y":2547034.5}},{"attributes":{"ID":113323,"DIS_CODE":0,"TOWNNAME":"山上區","LI":"明和里","LIN":"23鄰","STREET":" ","SECT":" ","MAREA":"北勢洲","LANE":" ","ALLEY":" ","HOUSE_NO":"６４號","E_COORD97":181852.14000000001,"N_COORD97":2556518.29,"ADDRESS":"北勢洲６４號","OBJECTID":113323},"geometry":{"x":181852.1400000006,"y":2556518.2900000028}},{"attributes":{"ID":113324,"DIS_CODE":0,"TOWNNAME":"永康區","LI":"西勢里","LIN":"28鄰","STREET":"廣興街","SECT":" ","MAREA":" ","LANE":"３８巷","ALLEY":"３４弄","HOUSE_NO":"１９號","E_COORD97":176040.29999999999,"N_COORD97":2546384.98,"ADDRESS":"廣興街３８巷３４弄１９號","OBJECTID":113324},"geometry":{"x":176040.30000000075,"y":2546384.9800000023}},{"attributes":{"ID":113325,"DIS_CODE":0,"TOWNNAME":"七股區","LI":"竹港里","LIN":"3鄰","STREET":" ","SECT":" ","MAREA":"竹港","LANE":" ","ALLEY":" ","HOUSE_NO":"３２號","E_COORD97":165083.70999999999,"N_COORD97":2556914.5299999998,"ADDRESS":"竹港３２號","OBJECTID":113325},"geometry":{"x":165083.70999999996,"y":2556914.5300000012}},{"attributes":{"ID":113326,"DIS_CODE":0,"TOWNNAME":"山上區","LI":"明和里","LIN":"23鄰","STREET":" ","SECT":" ","MAREA":"北勢洲","LANE":" ","ALLEY":" ","HOUSE_NO":"８７號","E_COORD97":181937.34,"N_COORD97":2556072.29,"ADDRESS":"北勢洲８７號","OBJECTID":113326},"geometry":{"x":181937.34000000078,"y":2556072.290000001}},{"attributes":{"ID":113327,"DIS_CODE":0,"TOWNNAME":"永康區","LI":"龍潭里","LIN":"28鄰","STREET":"中山北路","SECT":" ","MAREA":" ","LANE":"３８５巷","ALLEY":"６弄","HOUSE_NO":"１５號之２","E_COORD97":174946.73999999999,"N_COORD97":2547760.46,"ADDRESS":"中山北路３８５巷６弄１５號之２","OBJECTID":113327},"geometry":{"x":174946.74000000022,"y":2547760.4600000009}},{"attributes":{"ID":113328,"DIS_CODE":0,"TOWNNAME":"山上區","LI":"明和里","LIN":"23鄰","STREET":" ","SECT":" ","MAREA":"北勢洲","LANE":" ","ALLEY":" ","HOUSE_NO":"５６號","E_COORD97":181760.34,"N_COORD97":2556583.29,"ADDRESS":"北勢洲５６號","OBJECTID":113328},"geometry":{"x":181760.33999999985,"y":2556583.290000001}},{"attributes":{"ID":113329,"DIS_CODE":0,"TOWNNAME":"山上區","LI":"明和里","LIN":"23鄰","STREET":" ","SECT":" ","MAREA":"北勢洲","LANE":" ","ALLEY":" ","HOUSE_NO":"９０之１號","E_COORD97":182166.44,"N_COORD97":2556272.2999999998,"ADDRESS":"北勢洲９０之１號","OBJECTID":113329},"geometry":{"x":182166.44000000041,"y":2556272.2999999989}},{"attributes":{"ID":113330,"DIS_CODE":0,"TOWNNAME":"山上區","LI":"明和里","LIN":"23鄰","STREET":" ","SECT":" ","MAREA":"北勢洲","LANE":" ","ALLEY":" ","HOUSE_NO":"４８之１號","E_COORD97":181844.14000000001,"N_COORD97":2556660.2999999998,"ADDRESS":"北勢洲４８之１號","OBJECTID":113330},"geometry":{"x":181844.13999999966,"y":2556660.3000000026}},{"attributes":{"ID":113331,"DIS_CODE":0,"TOWNNAME":"山上區","LI":"明和里","LIN":"23鄰","STREET":" ","SECT":" ","MAREA":"北勢洲","LANE":" ","ALLEY":" ","HOUSE_NO":"９３號","E_COORD97":182147.64000000001,"N_COORD97":2555884.29,"ADDRESS":"北勢洲９３號","OBJECTID":113331},"geometry":{"x":182147.63999999966,"y":2555884.2900000028}},{"attributes":{"ID":113332,"DIS_CODE":0,"TOWNNAME":"永康區","LI":"龍潭里","LIN":"28鄰","STREET":"中山北路","SECT":" ","MAREA":" ","LANE":"３８５巷","ALLEY":"６弄","HOUSE_NO":"１３號之１","E_COORD97":174940.32999999999,"N_COORD97":2547758.7999999998,"ADDRESS":"中山北路３８５巷６弄１３號之１","OBJECTID":113332},"geometry":{"x":174940.33000000007,"y":2547758.8000000007}},{"attributes":{"ID":113333,"DIS_CODE":0,"TOWNNAME":"仁德區","LI":"三甲里","LIN":"1鄰","STREET":" ","SECT":" ","MAREA":"三甲子","LANE":" ","ALLEY":" ","HOUSE_NO":"９之１號","E_COORD97":171891.01000000001,"N_COORD97":2537150.04,"ADDRESS":"三甲子９之１號","OBJECTID":113333},"geometry":{"x":171891.00999999978,"y":2537150.0399999991}},{"attributes":{"ID":113334,"DIS_CODE":0,"TOWNNAME":"佳里區","LI":"龍安里","LIN":"1鄰","STREET":" ","SECT":" ","MAREA":"塭子內","LANE":" ","ALLEY":" ","HOUSE_NO":"１２號","E_COORD97":164425.34,"N_COORD97":2558452.8700000001,"ADDRESS":"塭子內１２號","OBJECTID":113334},"geometry":{"x":164425.33999999985,"y":2558452.8700000029}},{"attributes":{"ID":113335,"DIS_CODE":0,"TOWNNAME":"佳里區","LI":"龍安里","LIN":"1鄰","STREET":" ","SECT":" ","MAREA":"塭子內","LANE":" ","ALLEY":" ","HOUSE_NO":"１３號之１","E_COORD97":164419.04000000001,"N_COORD97":2558428.29,"ADDRESS":"塭子內１３號之１","OBJECTID":113335},"geometry":{"x":164419.04000000004,"y":2558428.290000001}},{"attributes":{"ID":113336,"DIS_CODE":0,"TOWNNAME":"佳里區","LI":"龍安里","LIN":"1鄰","STREET":" ","SECT":" ","MAREA":"塭子內","LANE":" ","ALLEY":" ","HOUSE_NO":"１３號之２","E_COORD97":164418.16,"N_COORD97":2558422.6699999999,"ADDRESS":"塭子內１３號之２","OBJECTID":113336},"geometry":{"x":164418.16000000015,"y":2558422.6700000018}},{"attributes":{"ID":113337,"DIS_CODE":0,"TOWNNAME":"永康區","LI":"龍潭里","LIN":"28鄰","STREET":"中山北路","SECT":" ","MAREA":" ","LANE":"３８５巷","ALLEY":"６弄","HOUSE_NO":"７號","E_COORD97":174910.14999999999,"N_COORD97":2547762.0899999999,"ADDRESS":"中山北路３８５巷６弄７號","OBJECTID":113337},"geometry":{"x":174910.15000000037,"y":2547762.0899999999}},{"attributes":{"ID":113338,"DIS_CODE":0,"TOWNNAME":"佳里區","LI":"龍安里","LIN":"1鄰","STREET":" ","SECT":" ","MAREA":"塭子內","LANE":" ","ALLEY":" ","HOUSE_NO":"１３號之３","E_COORD97":164416.94,"N_COORD97":2558418.5800000001,"ADDRESS":"塭子內１３號之３","OBJECTID":113338},"geometry":{"x":164416.94000000227,"y":2558418.5800000001}},{"attributes":{"ID":113339,"DIS_CODE":0,"TOWNNAME":"佳里區","LI":"龍安里","LIN":"1鄰","STREET":" ","SECT":" ","MAREA":"塭子內","LANE":" ","ALLEY":" ","HOUSE_NO":"１３號之４","E_COORD97":164415.88,"N_COORD97":2558415.0099999998,"ADDRESS":"塭子內１３號之４","OBJECTID":113339},"geometry":{"x":164415.88000000082,"y":2558415.0099999998}},{"attributes":{"ID":113340,"DIS_CODE":0,"TOWNNAME":"佳里區","LI":"龍安里","LIN":"1鄰","STREET":" ","SECT":" ","MAREA":"塭子內","LANE":" ","ALLEY":" ","HOUSE_NO":"１３號之５","E_COORD97":164414.79999999999,"N_COORD97":2558411.1899999999,"ADDRESS":"塭子內１３號之５","OBJECTID":113340},"geometry":{"x":164414.79999999981,"y":2558411.1900000032}},{"attributes":{"ID":113341,"DIS_CODE":0,"TOWNNAME":"佳里區","LI":"龍安里","LIN":"1鄰","STREET":" ","SECT":" ","MAREA":"塭子內","LANE":" ","ALLEY":" ","HOUSE_NO":"１３號之６","E_COORD97":164414,"N_COORD97":2558407.6000000001,"ADDRESS":"塭子內１３號之６","OBJECTID":113341},"geometry":{"x":164414,"y":2558407.5999999996}},{"attributes":{"ID":113342,"DIS_CODE":0,"TOWNNAME":"永康區","LI":"龍潭里","LIN":"28鄰","STREET":"中山北路","SECT":" ","MAREA":" ","LANE":"３８５巷","ALLEY":"６弄","HOUSE_NO":"１１號之３","E_COORD97":174932.45999999999,"N_COORD97":2547758.8399999999,"ADDRESS":"中山北路３８５巷６弄１１號之３","OBJECTID":113342},"geometry":{"x":174932.45999999996,"y":2547758.8400000017}},{"attributes":{"ID":113343,"DIS_CODE":0,"TOWNNAME":"佳里區","LI":"龍安里","LIN":"1鄰","STREET":" ","SECT":" ","MAREA":"塭子內","LANE":" ","ALLEY":" ","HOUSE_NO":"１４號之２","E_COORD97":164354.29999999999,"N_COORD97":2558414.1099999999,"ADDRESS":"塭子內１４號之２","OBJECTID":113343},"geometry":{"x":164354.29999999981,"y":2558414.1099999994}},{"attributes":{"ID":113344,"DIS_CODE":0,"TOWNNAME":"佳里區","LI":"龍安里","LIN":"1鄰","STREET":" ","SECT":" ","MAREA":"塭子內","LANE":" ","ALLEY":" ","HOUSE_NO":"１４號之３","E_COORD97":164367.28,"N_COORD97":2558414.25,"ADDRESS":"塭子內１４號之３","OBJECTID":113344},"geometry":{"x":164367.28000000119,"y":2558414.25}},{"attributes":{"ID":113345,"DIS_CODE":0,"TOWNNAME":"佳里區","LI":"建南里","LIN":"1鄰","STREET":"義民街","SECT":" ","MAREA":" ","LANE":" ","ALLEY":" ","HOUSE_NO":"１９１號","E_COORD97":165638.35999999999,"N_COORD97":2562396.7799999998,"ADDRESS":"義民街１９１號","OBJECTID":113345},"geometry":{"x":165638.36000000127,"y":2562396.7799999993}},{"attributes":{"ID":113346,"DIS_CODE":0,"TOWNNAME":"佳里區","LI":"建南里","LIN":"1鄰","STREET":"義民街","SECT":" ","MAREA":" ","LANE":" ","ALLEY":" ","HOUSE_NO":"１９３號","E_COORD97":165634.84,"N_COORD97":2562396.52,"ADDRESS":"義民街１９３號","OBJECTID":113346},"geometry":{"x":165634.84000000078,"y":2562396.5200000014}},{"attributes":{"ID":113347,"DIS_CODE":0,"TOWNNAME":"永康區","LI":"龍潭里","LIN":"28鄰","STREET":"中山北路","SECT":" ","MAREA":" ","LANE":"３８５巷","ALLEY":"６弄","HOUSE_NO":"９號","E_COORD97":174909.64999999999,"N_COORD97":2547766.3399999999,"ADDRESS":"中山北路３８５巷６弄９號","OBJECTID":113347},"geometry":{"x":174909.65000000037,"y":2547766.3400000017}},{"attributes":{"ID":113348,"DIS_CODE":0,"TOWNNAME":"永康區","LI":"龍潭里","LIN":"28鄰","STREET":"中山北路","SECT":" ","MAREA":" ","LANE":"３８５巷","ALLEY":"３弄","HOUSE_NO":"４號","E_COORD97":174857.41,"N_COORD97":2547737.8599999999,"ADDRESS":"中山北路３８５巷３弄４號","OBJECTID":113348},"geometry":{"x":174857.40999999922,"y":2547737.8600000013}},{"attributes":{"ID":113349,"DIS_CODE":0,"TOWNNAME":"佳里區","LI":"營頂里","LIN":"1鄰","STREET":" ","SECT":" ","MAREA":"營頂","LANE":" ","ALLEY":" ","HOUSE_NO":"１０號","E_COORD97":166817.60000000001,"N_COORD97":2566465.1000000001,"ADDRESS":"營頂１０號","OBJECTID":113349},"geometry":{"x":166817.60000000056,"y":2566465.1000000015}},{"attributes":{"ID":113350,"DIS_CODE":0,"TOWNNAME":"佳里區","LI":"營頂里","LIN":"1鄰","STREET":" ","SECT":" ","MAREA":"營頂","LANE":" ","ALLEY":" ","HOUSE_NO":"１２號","E_COORD97":166791.20999999999,"N_COORD97":2566460.2400000002,"ADDRESS":"營頂１２號","OBJECTID":113350},"geometry":{"x":166791.21000000183,"y":2566460.2399999984}},{"attributes":{"ID":113351,"DIS_CODE":0,"TOWNNAME":"佳里區","LI":"營頂里","LIN":"1鄰","STREET":" ","SECT":" ","MAREA":"營頂","LANE":" ","ALLEY":" ","HOUSE_NO":"２號之６","E_COORD97":166868.67000000001,"N_COORD97":2566349.8100000001,"ADDRESS":"營頂２號之６","OBJECTID":113351},"geometry":{"x":166868.66999999993,"y":2566349.8100000024}},{"attributes":{"ID":113352,"DIS_CODE":0,"TOWNNAME":"佳里區","LI":"營頂里","LIN":"1鄰","STREET":" ","SECT":" ","MAREA":"營頂","LANE":" ","ALLEY":" ","HOUSE_NO":"２號之７","E_COORD97":166837.12,"N_COORD97":2566317.5099999998,"ADDRESS":"營頂２號之７","OBJECTID":113352},"geometry":{"x":166837.12000000011,"y":2566317.5099999998}},{"attributes":{"ID":113353,"DIS_CODE":0,"TOWNNAME":"永康區","LI":"龍潭里","LIN":"28鄰","STREET":"中山北路","SECT":" ","MAREA":" ","LANE":"３８５巷","ALLEY":"６弄","HOUSE_NO":"１７號之１","E_COORD97":174952.89999999999,"N_COORD97":2547760.6800000002,"ADDRESS":"中山北路３８５巷６弄１７號之１","OBJECTID":113353},"geometry":{"x":174952.9000000013,"y":2547760.6799999997}},{"attributes":{"ID":113354,"DIS_CODE":0,"TOWNNAME":"永康區","LI":"\u25A0行里","LIN":"28鄰","STREET":"竹林街","SECT":" ","MAREA":" ","LANE":"２８巷","ALLEY":"１３弄","HOUSE_NO":"１４號","E_COORD97":172671.48999999999,"N_COORD97":2548802.5699999998,"ADDRESS":"竹林街２８巷１３弄１４號","OBJECTID":113354},"geometry":{"x":172671.49000000022,"y":2548802.5700000022}},{"attributes":{"ID":113355,"DIS_CODE":0,"TOWNNAME":"佳里區","LI":"營頂里","LIN":"1鄰","STREET":" ","SECT":" ","MAREA":"營頂","LANE":" ","ALLEY":" ","HOUSE_NO":"２號","E_COORD97":166886.51000000001,"N_COORD97":2566352.52,"ADDRESS":"營頂２號","OBJECTID":113355},"geometry":{"x":166886.51000000071,"y":2566352.5199999977}},{"attributes":{"ID":113356,"DIS_CODE":0,"TOWNNAME":"佳里區","LI":"營頂里","LIN":"1鄰","STREET":" ","SECT":" ","MAREA":"營頂","LANE":" ","ALLEY":" ","HOUSE_NO":"３號","E_COORD97":166889.73000000001,"N_COORD97":2566431.1499999999,"ADDRESS":"營頂３號","OBJECTID":113356},"geometry":{"x":166889.73000000045,"y":2566431.1500000022}},{"attributes":{"ID":113357,"DIS_CODE":0,"TOWNNAME":"佳里區","LI":"營頂里","LIN":"1鄰","STREET":" ","SECT":" ","MAREA":"營頂","LANE":" ","ALLEY":" ","HOUSE_NO":"４號","E_COORD97":166874.04000000001,"N_COORD97":2566416.9900000002,"ADDRESS":"營頂４號","OBJECTID":113357},"geometry":{"x":166874.04000000097,"y":2566416.9900000002}},{"attributes":{"ID":113358,"DIS_CODE":0,"TOWNNAME":"佳里區","LI":"營頂里","LIN":"1鄰","STREET":" ","SECT":" ","MAREA":"營頂","LANE":" ","ALLEY":" ","HOUSE_NO":"５號之１","E_COORD97":166869.64999999999,"N_COORD97":2566466.2200000002,"ADDRESS":"營頂５號之１","OBJECTID":113358},"geometry":{"x":166869.65000000037,"y":2566466.2200000007}},{"attributes":{"ID":113359,"DIS_CODE":0,"TOWNNAME":"佳里區","LI":"營頂里","LIN":"1鄰","STREET":" ","SECT":" ","MAREA":"營頂","LANE":" ","ALLEY":" ","HOUSE_NO":"５號之２","E_COORD97":166892.64999999999,"N_COORD97":2566467.7000000002,"ADDRESS":"營頂５號之２","OBJECTID":113359},"geometry":{"x":166892.6500000013,"y":2566467.7000000011}},{"attributes":{"ID":113360,"DIS_CODE":0,"TOWNNAME":"佳里區","LI":"營頂里","LIN":"1鄰","STREET":" ","SECT":" ","MAREA":"營頂","LANE":" ","ALLEY":" ","HOUSE_NO":"５號","E_COORD97":166880.07999999999,"N_COORD97":2566467.7599999998,"ADDRESS":"營頂５號","OBJECTID":113360},"geometry":{"x":166880.08000000007,"y":2566467.7600000016}},{"attributes":{"ID":113361,"DIS_CODE":0,"TOWNNAME":"永康區","LI":"復興里","LIN":"28鄰","STREET":"興國街","SECT":" ","MAREA":" ","LANE":"２３７巷","ALLEY":"１弄","HOUSE_NO":"２號","E_COORD97":172335.57999999999,"N_COORD97":2544955.5,"ADDRESS":"興國街２３７巷１弄２號","OBJECTID":113361},"geometry":{"x":172335.58000000194,"y":2544955.5}},{"attributes":{"ID":113362,"DIS_CODE":0,"TOWNNAME":"佳里區","LI":"營頂里","LIN":"1鄰","STREET":" ","SECT":" ","MAREA":"營頂","LANE":" ","ALLEY":" ","HOUSE_NO":"６號","E_COORD97":166839.97,"N_COORD97":2566466.6200000001,"ADDRESS":"營頂６號","OBJECTID":113362},"geometry":{"x":166839.96999999974,"y":2566466.6200000029}},{"attributes":{"ID":113363,"DIS_CODE":0,"TOWNNAME":"佳里區","LI":"營頂里","LIN":"1鄰","STREET":" ","SECT":" ","MAREA":"營頂","LANE":" ","ALLEY":" ","HOUSE_NO":"７號","E_COORD97":166835.04999999999,"N_COORD97":2566435.7799999998,"ADDRESS":"營頂７號","OBJECTID":113363},"geometry":{"x":166835.05000000075,"y":2566435.7800000012}},{"attributes":{"ID":113364,"DIS_CODE":0,"TOWNNAME":"永康區","LI":"復興里","LIN":"28鄰","STREET":"興國街","SECT":" ","MAREA":" ","LANE":"２３７巷","ALLEY":"１弄","HOUSE_NO":"２２號","E_COORD97":172333.39000000001,"N_COORD97":2544901.9900000002,"ADDRESS":"興國街２３７巷１弄２２號","OBJECTID":113364},"geometry":{"x":172333.3900000006,"y":2544901.9900000002}},{"attributes":{"ID":113365,"DIS_CODE":0,"TOWNNAME":"永康區","LI":"復興里","LIN":"28鄰","STREET":"興國街","SECT":" ","MAREA":" ","LANE":"２３７巷","ALLEY":"１弄","HOUSE_NO":"８號","E_COORD97":172334.67000000001,"N_COORD97":2544942.2400000002,"ADDRESS":"興國街２３７巷１弄８號","OBJECTID":113365},"geometry":{"x":172334.66999999899,"y":2544942.2400000021}},{"attributes":{"ID":113366,"DIS_CODE":0,"TOWNNAME":"永康區","LI":"復興里","LIN":"28鄰","STREET":"興國街","SECT":" ","MAREA":" ","LANE":"２３７巷","ALLEY":"１弄","HOUSE_NO":"１０號","E_COORD97":172335.17000000001,"N_COORD97":2544934.9900000002,"ADDRESS":"興國街２３７巷１弄１０號","OBJECTID":113366},"geometry":{"x":172335.17000000086,"y":2544934.9900000002}},{"attributes":{"ID":113367,"DIS_CODE":0,"TOWNNAME":"永康區","LI":"復興里","LIN":"28鄰","STREET":"興國街","SECT":" ","MAREA":" ","LANE":"２３７巷","ALLEY":"１弄","HOUSE_NO":"２０號","E_COORD97":172333.91,"N_COORD97":2544908.4900000002,"ADDRESS":"興國街２３７巷１弄２０號","OBJECTID":113367},"geometry":{"x":172333.91000000108,"y":2544908.4900000002}},{"attributes":{"ID":113368,"DIS_CODE":0,"TOWNNAME":"永康區","LI":"永康里","LIN":"1鄰","STREET":"永埔街","SECT":" ","MAREA":" ","LANE":" ","ALLEY":" ","HOUSE_NO":"２號","E_COORD97":174057.12,"N_COORD97":2547495.4700000002,"ADDRESS":"永埔街２號","OBJECTID":113368},"geometry":{"x":174057.12000000011,"y":2547495.4700000007}},{"attributes":{"ID":113369,"DIS_CODE":0,"TOWNNAME":"山上區","LI":"明和里","LIN":"23鄰","STREET":" ","SECT":" ","MAREA":"北勢洲","LANE":" ","ALLEY":" ","HOUSE_NO":"５０號","E_COORD97":181769.54000000001,"N_COORD97":2556693.29,"ADDRESS":"北勢洲５０號","OBJECTID":113369},"geometry":{"x":181769.5400000019,"y":2556693.2899999991}},{"attributes":{"ID":113370,"DIS_CODE":0,"TOWNNAME":"山上區","LI":"明和里","LIN":"23鄰","STREET":" ","SECT":" ","MAREA":"明和","LANE":" ","ALLEY":" ","HOUSE_NO":"７６號","E_COORD97":182959.79000000001,"N_COORD97":2556072.25,"ADDRESS":"明和７６號","OBJECTID":113370},"geometry":{"x":182959.79000000097,"y":2556072.2500000019}},{"attributes":{"ID":113371,"DIS_CODE":0,"TOWNNAME":"山上區","LI":"明和里","LIN":"23鄰","STREET":" ","SECT":" ","MAREA":"北勢洲","LANE":" ","ALLEY":" ","HOUSE_NO":"５５號","E_COORD97":181810.94,"N_COORD97":2556586.29,"ADDRESS":"北勢洲５５號","OBJECTID":113371},"geometry":{"x":181810.94000000041,"y":2556586.2900000028}},{"attributes":{"ID":113372,"DIS_CODE":0,"TOWNNAME":"山上區","LI":"明和里","LIN":"23鄰","STREET":" ","SECT":" ","MAREA":"北勢洲","LANE":" ","ALLEY":" ","HOUSE_NO":"４３號","E_COORD97":181793.94,"N_COORD97":2556571.29,"ADDRESS":"北勢洲４３號","OBJECTID":113372},"geometry":{"x":181793.94000000041,"y":2556571.2899999991}},{"attributes":{"ID":113373,"DIS_CODE":0,"TOWNNAME":"安南區","LI":"州南里","LIN":"28鄰","STREET":"安和路","SECT":"五段","MAREA":" ","LANE":"８４巷","ALLEY":"３６弄","HOUSE_NO":"５號","E_COORD97":170054.89000000001,"N_COORD97":2551699.2599999998,"ADDRESS":"安和路五段８４巷３６弄５號","OBJECTID":113373},"geometry":{"x":170054.8900000006,"y":2551699.2600000016}},{"attributes":{"ID":113374,"DIS_CODE":0,"TOWNNAME":"永康區","LI":"復華里","LIN":"1鄰","STREET":"復國二路","SECT":" ","MAREA":" ","LANE":" ","ALLEY":" ","HOUSE_NO":"２３２號","E_COORD97":172983.95000000001,"N_COORD97":2545909.5299999998,"ADDRESS":"復國二路２３２號","OBJECTID":113374},"geometry":{"x":172983.95000000019,"y":2545909.5300000012}},{"attributes":{"ID":113375,"DIS_CODE":0,"TOWNNAME":"永康區","LI":"蔦松里","LIN":"1鄰","STREET":"蔦松二街","SECT":" ","MAREA":" ","LANE":" ","ALLEY":" ","HOUSE_NO":"１１２號","E_COORD97":173773.73999999999,"N_COORD97":2549341.7799999998,"ADDRESS":"蔦松二街１１２號","OBJECTID":113375},"geometry":{"x":173773.73999999929,"y":2549341.7800000012}},{"attributes":{"ID":113376,"DIS_CODE":0,"TOWNNAME":"山上區","LI":"明和里","LIN":"23鄰","STREET":" ","SECT":" ","MAREA":"北勢洲","LANE":" ","ALLEY":" ","HOUSE_NO":"４５號","E_COORD97":181823.23999999999,"N_COORD97":2556589.29,"ADDRESS":"北勢洲４５號","OBJECTID":113376},"geometry":{"x":181823.24000000115,"y":2556589.2899999972}},{"attributes":{"ID":113377,"DIS_CODE":0,"TOWNNAME":"安南區","LI":"州南里","LIN":"28鄰","STREET":"安和路","SECT":"五段","MAREA":" ","LANE":"８４巷","ALLEY":"３６弄","HOUSE_NO":"７號","E_COORD97":170059.98999999999,"N_COORD97":2551700.7999999998,"ADDRESS":"安和路五段８４巷３６弄７號","OBJECTID":113377},"geometry":{"x":170059.99000000115,"y":2551700.8000000007}},{"attributes":{"ID":113378,"DIS_CODE":0,"TOWNNAME":"山上區","LI":"明和里","LIN":"23鄰","STREET":" ","SECT":" ","MAREA":"北勢洲","LANE":" ","ALLEY":" ","HOUSE_NO":"５８之１號","E_COORD97":181963.44,"N_COORD97":2556534.2999999998,"ADDRESS":"北勢洲５８之１號","OBJECTID":113378},"geometry":{"x":181963.44000000041,"y":2556534.3000000026}},{"attributes":{"ID":113379,"DIS_CODE":0,"TOWNNAME":"安南區","LI":"州南里","LIN":"28鄰","STREET":"安和路","SECT":"五段","MAREA":" ","LANE":"８４巷","ALLEY":"３６弄","HOUSE_NO":"９號","E_COORD97":170064.19,"N_COORD97":2551702.4100000001,"ADDRESS":"安和路五段８４巷３６弄９號","OBJECTID":113379},"geometry":{"x":170064.19000000134,"y":2551702.410000002}},{"attributes":{"ID":113380,"DIS_CODE":0,"TOWNNAME":"山上區","LI":"明和里","LIN":"23鄰","STREET":" ","SECT":" ","MAREA":"北勢洲","LANE":" ","ALLEY":" ","HOUSE_NO":"５８之３號","E_COORD97":182003.64000000001,"N_COORD97":2556577.2999999998,"ADDRESS":"北勢洲５８之３號","OBJECTID":113380},"geometry":{"x":182003.63999999966,"y":2556577.2999999989}},{"attributes":{"ID":113381,"DIS_CODE":0,"TOWNNAME":"山上區","LI":"明和里","LIN":"23鄰","STREET":" ","SECT":" ","MAREA":"北勢洲","LANE":" ","ALLEY":" ","HOUSE_NO":"４３之２號","E_COORD97":181777.73999999999,"N_COORD97":2556577.2999999998,"ADDRESS":"北勢洲４３之２號","OBJECTID":113381},"geometry":{"x":181777.74000000022,"y":2556577.2999999989}},{"attributes":{"ID":113382,"DIS_CODE":0,"TOWNNAME":"安南區","LI":"州南里","LIN":"28鄰","STREET":"安和路","SECT":"五段","MAREA":" ","LANE":"８４巷","ALLEY":"３６弄","HOUSE_NO":"１１號","E_COORD97":170068.39000000001,"N_COORD97":2551704.0299999998,"ADDRESS":"安和路五段８４巷３６弄１１號","OBJECTID":113382},"geometry":{"x":170068.3900000006,"y":2551704.0300000012}},{"attributes":{"ID":113383,"DIS_CODE":0,"TOWNNAME":"山上區","LI":"明和里","LIN":"23鄰","STREET":" ","SECT":" ","MAREA":"北勢洲","LANE":" ","ALLEY":" ","HOUSE_NO":"９８號","E_COORD97":182299.54000000001,"N_COORD97":2556715.29,"ADDRESS":"北勢洲９８號","OBJECTID":113383},"geometry":{"x":182299.54000000004,"y":2556715.290000001}},{"attributes":{"ID":113384,"DIS_CODE":0,"TOWNNAME":"安南區","LI":"州南里","LIN":"28鄰","STREET":"安和路","SECT":"五段","MAREA":" ","LANE":"８４巷","ALLEY":"３６弄","HOUSE_NO":"１３號","E_COORD97":170072.59,"N_COORD97":2551705.6499999999,"ADDRESS":"安和路五段８４巷３６弄１３號","OBJECTID":113384},"geometry":{"x":170072.59000000078,"y":2551705.6500000004}},{"attributes":{"ID":113385,"DIS_CODE":0,"TOWNNAME":"安南區","LI":"州南里","LIN":"28鄰","STREET":"安和路","SECT":"五段","MAREA":" ","LANE":"８４巷","ALLEY":"３６弄","HOUSE_NO":"１５號","E_COORD97":170076.79000000001,"N_COORD97":2551707.27,"ADDRESS":"安和路五段８４巷３６弄１５號","OBJECTID":113385},"geometry":{"x":170076.79000000097,"y":2551707.2699999996}},{"attributes":{"ID":113386,"DIS_CODE":0,"TOWNNAME":"安南區","LI":"州南里","LIN":"28鄰","STREET":"安和路","SECT":"五段","MAREA":" ","LANE":"８４巷","ALLEY":"３６弄","HOUSE_NO":"１７號","E_COORD97":170080.98999999999,"N_COORD97":2551708.8799999999,"ADDRESS":"安和路五段８４巷３６弄１７號","OBJECTID":113386},"geometry":{"x":170080.99000000022,"y":2551708.879999999}},{"attributes":{"ID":113387,"DIS_CODE":0,"TOWNNAME":"安南區","LI":"州南里","LIN":"28鄰","STREET":"安和路","SECT":"五段","MAREA":" ","LANE":"８４巷","ALLEY":"３６弄","HOUSE_NO":"１９號","E_COORD97":170085.64000000001,"N_COORD97":2551710.29,"ADDRESS":"安和路五段８４巷３６弄１９號","OBJECTID":113387},"geometry":{"x":170085.6400000006,"y":2551710.2899999991}},{"attributes":{"ID":113388,"DIS_CODE":0,"TOWNNAME":"山上區","LI":"明和里","LIN":"23鄰","STREET":" ","SECT":" ","MAREA":"北勢洲","LANE":" ","ALLEY":" ","HOUSE_NO":"５２號","E_COORD97":181768.84,"N_COORD97":2556662.29,"ADDRESS":"北勢洲５２號","OBJECTID":113388},"geometry":{"x":181768.83999999892,"y":2556662.290000001}},{"attributes":{"ID":113389,"DIS_CODE":0,"TOWNNAME":"安南區","LI":"州南里","LIN":"28鄰","STREET":"安和路","SECT":"五段","MAREA":" ","LANE":"８４巷","ALLEY":"３６弄","HOUSE_NO":"２１號","E_COORD97":170094.70000000001,"N_COORD97":2551706.9100000001,"ADDRESS":"安和路五段８４巷３６弄２１號","OBJECTID":113389},"geometry":{"x":170094.70000000019,"y":2551706.9100000001}},{"attributes":{"ID":113390,"DIS_CODE":0,"TOWNNAME":"安南區","LI":"州南里","LIN":"28鄰","STREET":"安和路","SECT":"五段","MAREA":" ","LANE":"８４巷","ALLEY":"３６弄","HOUSE_NO":"２３號","E_COORD97":170093.14000000001,"N_COORD97":2551717.5699999998,"ADDRESS":"安和路五段８４巷３６弄２３號","OBJECTID":113390},"geometry":{"x":170093.13999999966,"y":2551717.5700000022}},{"attributes":{"ID":113391,"DIS_CODE":0,"TOWNNAME":"安南區","LI":"州南里","LIN":"28鄰","STREET":"安和路","SECT":"五段","MAREA":" ","LANE":"８４巷","ALLEY":"３６弄","HOUSE_NO":"５７號","E_COORD97":170095.26000000001,"N_COORD97":2551683.2200000002,"ADDRESS":"安和路五段８４巷３６弄５７號","OBJECTID":113391},"geometry":{"x":170095.26000000071,"y":2551683.2200000025}},{"attributes":{"ID":113392,"DIS_CODE":0,"TOWNNAME":"安南區","LI":"州南里","LIN":"28鄰","STREET":"安和路","SECT":"五段","MAREA":" ","LANE":"８４巷","ALLEY":"３６弄","HOUSE_NO":"５９號","E_COORD97":170093.76000000001,"N_COORD97":2551691.4500000002,"ADDRESS":"安和路五段８４巷３６弄５９號","OBJECTID":113392},"geometry":{"x":170093.76000000071,"y":2551691.4499999993}},{"attributes":{"ID":113393,"DIS_CODE":0,"TOWNNAME":"山上區","LI":"明和里","LIN":"23鄰","STREET":" ","SECT":" ","MAREA":"北勢洲","LANE":" ","ALLEY":" ","HOUSE_NO":"４８號","E_COORD97":181830.73999999999,"N_COORD97":2556607.29,"ADDRESS":"北勢洲４８號","OBJECTID":113393},"geometry":{"x":181830.74000000022,"y":2556607.290000001}},{"attributes":{"ID":113394,"DIS_CODE":0,"TOWNNAME":"安南區","LI":"州南里","LIN":"28鄰","STREET":"安和路","SECT":"五段","MAREA":" ","LANE":"８４巷","ALLEY":"３６弄","HOUSE_NO":"６１號","E_COORD97":170086.35000000001,"N_COORD97":2551682.5800000001,"ADDRESS":"安和路五段８４巷３６弄６１號","OBJECTID":113394},"geometry":{"x":170086.34999999963,"y":2551682.5800000038}},{"attributes":{"ID":113395,"DIS_CODE":0,"TOWNNAME":"安南區","LI":"州南里","LIN":"28鄰","STREET":"安和路","SECT":"五段","MAREA":" ","LANE":"８４巷","ALLEY":"３６弄","HOUSE_NO":"６３號","E_COORD97":170081.35999999999,"N_COORD97":2551680.23,"ADDRESS":"安和路五段８４巷３６弄６３號","OBJECTID":113395},"geometry":{"x":170081.36000000127,"y":2551680.2300000023}},{"attributes":{"ID":113396,"DIS_CODE":0,"TOWNNAME":"山上區","LI":"明和里","LIN":"23鄰","STREET":" ","SECT":" ","MAREA":"北勢洲","LANE":" ","ALLEY":" ","HOUSE_NO":"５８之７號","E_COORD97":181863.73999999999,"N_COORD97":2556528.2999999998,"ADDRESS":"北勢洲５８之７號","OBJECTID":113396},"geometry":{"x":181863.74000000115,"y":2556528.3000000026}},{"attributes":{"ID":113397,"DIS_CODE":0,"TOWNNAME":"安南區","LI":"州南里","LIN":"28鄰","STREET":"安和路","SECT":"五段","MAREA":" ","LANE":"８４巷","ALLEY":"３６弄","HOUSE_NO":"６５號","E_COORD97":170076.88,"N_COORD97":2551679.6499999999,"ADDRESS":"安和路五段８４巷３６弄６５號","OBJECTID":113397},"geometry":{"x":170076.87999999896,"y":2551679.6500000022}},{"attributes":{"ID":113398,"DIS_CODE":0,"TOWNNAME":"山上區","LI":"明和里","LIN":"23鄰","STREET":" ","SECT":" ","MAREA":"北勢洲","LANE":" ","ALLEY":" ","HOUSE_NO":"６６號","E_COORD97":181783.23999999999,"N_COORD97":2556523.29,"ADDRESS":"北勢洲６６號","OBJECTID":113398},"geometry":{"x":181783.24000000022,"y":2556523.290000001}},{"attributes":{"ID":113399,"DIS_CODE":0,"TOWNNAME":"山上區","LI":"明和里","LIN":"23鄰","STREET":" ","SECT":" ","MAREA":"北勢洲","LANE":" ","ALLEY":" ","HOUSE_NO":"４２號","E_COORD97":181798.73999999999,"N_COORD97":2556546.29,"ADDRESS":"北勢洲４２號","OBJECTID":113399},"geometry":{"x":181798.73999999929,"y":2556546.290000001}},{"attributes":{"ID":113400,"DIS_CODE":0,"TOWNNAME":"安南區","LI":"州南里","LIN":"28鄰","STREET":"安和路","SECT":"五段","MAREA":" ","LANE":"８４巷","ALLEY":"３６弄","HOUSE_NO":"６７號","E_COORD97":170072.69,"N_COORD97":2551678.02,"ADDRESS":"安和路五段８４巷３６弄６７號","OBJECTID":113400},"geometry":{"x":170072.69000000134,"y":2551678.0199999996}}]}