{"displayFieldName":"TOWNNAME","fieldAliases":{"ID":"ID","DIS_CODE":"DIS_CODE","TOWNNAME":"TOWNNAME","LI":"LI","LIN":"LIN","STREET":"STREET","SECT":"SECT","MAREA":"MAREA","LANE":"LANE","ALLEY":"ALLEY","HOUSE_NO":"HOUSE_NO","E_COORD97":"E_COORD97","N_COORD97":"N_COORD97","ADDRESS":"ADDRESS","OBJECTID":"OBJECTID"},"geometryType":"esriGeometryPoint","spatialReference":{"wkid":102443,"latestWkid":3826},"fields":[{"name":"ID","type":"esriFieldTypeDouble","alias":"ID"},{"name":"DIS_CODE","type":"esriFieldTypeInteger","alias":"DIS_CODE"},{"name":"TOWNNAME","type":"esriFieldTypeString","alias":"TOWNNAME","length":8},{"name":"LI","type":"esriFieldTypeString","alias":"LI","length":8},{"name":"LIN","type":"esriFieldTypeString","alias":"LIN","length":12},{"name":"STREET","type":"esriFieldTypeString","alias":"STREET","length":20},{"name":"SECT","type":"esriFieldTypeString","alias":"SECT","length":8},{"name":"MAREA","type":"esriFieldTypeString","alias":"MAREA","length":12},{"name":"LANE","type":"esriFieldTypeString","alias":"LANE","length":10},{"name":"ALLEY","type":"esriFieldTypeString","alias":"ALLEY","length":10},{"name":"HOUSE_NO","type":"esriFieldTypeString","alias":"HOUSE_NO","length":20},{"name":"E_COORD97","type":"esriFieldTypeDouble","alias":"E_COORD97"},{"name":"N_COORD97","type":"esriFieldTypeDouble","alias":"N_COORD97"},{"name":"ADDRESS","type":"esriFieldTypeString","alias":"ADDRESS","length":50},{"name":"OBJECTID","type":"esriFieldTypeOID","alias":"OBJECTID"}],"features":[{"attributes":{"ID":201202,"DIS_CODE":0,"TOWNNAME":"北區","LI":"文成里","LIN":"20鄰","STREET":"海安路","SECT":"三段","MAREA":" ","LANE":"１３５巷","ALLEY":"１２３弄","HOUSE_NO":"１３號","E_COORD97":167593.09,"N_COORD97":2544970.5600000001,"ADDRESS":"海安路三段１３５巷１２３弄１３號","OBJECTID":201201},"geometry":{"x":167593.08999999985,"y":2544970.5600000042}},{"attributes":{"ID":201203,"DIS_CODE":0,"TOWNNAME":"北區","LI":"文成里","LIN":"20鄰","STREET":"海安路","SECT":"三段","MAREA":" ","LANE":"１３５巷","ALLEY":"１２３弄","HOUSE_NO":"１５號","E_COORD97":167598.01000000001,"N_COORD97":2544970.5600000001,"ADDRESS":"海安路三段１３５巷１２３弄１５號","OBJECTID":201202},"geometry":{"x":167598.01000000071,"y":2544970.5600000042}},{"attributes":{"ID":201204,"DIS_CODE":0,"TOWNNAME":"北區","LI":"文成里","LIN":"20鄰","STREET":"海安路","SECT":"三段","MAREA":" ","LANE":"１３５巷","ALLEY":"１２３弄","HOUSE_NO":"１６號","E_COORD97":167603.66,"N_COORD97":2544970.3199999998,"ADDRESS":"海安路三段１３５巷１２３弄１６號","OBJECTID":201203},"geometry":{"x":167603.66000000015,"y":2544970.3200000003}},{"attributes":{"ID":201205,"DIS_CODE":0,"TOWNNAME":"北區","LI":"文成里","LIN":"20鄰","STREET":"海安路","SECT":"三段","MAREA":" ","LANE":"１３５巷","ALLEY":"１２３弄","HOUSE_NO":"１７號","E_COORD97":167609.07000000001,"N_COORD97":2544970.3199999998,"ADDRESS":"海安路三段１３５巷１２３弄１７號","OBJECTID":201204},"geometry":{"x":167609.0700000003,"y":2544970.3200000003}},{"attributes":{"ID":201206,"DIS_CODE":0,"TOWNNAME":"北區","LI":"文成里","LIN":"20鄰","STREET":"海安路","SECT":"三段","MAREA":" ","LANE":"１３５巷","ALLEY":"１２３弄","HOUSE_NO":"１８號","E_COORD97":167613.73999999999,"N_COORD97":2544970.0699999998,"ADDRESS":"海安路三段１３５巷１２３弄１８號","OBJECTID":201205},"geometry":{"x":167613.74000000115,"y":2544970.070000004}},{"attributes":{"ID":201207,"DIS_CODE":0,"TOWNNAME":"北門區","LI":"永隆里","LIN":"3鄰","STREET":" ","SECT":" ","MAREA":"北門","LANE":" ","ALLEY":" ","HOUSE_NO":"４６號","E_COORD97":160302.67000000001,"N_COORD97":2574417.6200000001,"ADDRESS":"北門４６號","OBJECTID":201206},"geometry":{"x":160302.67000000086,"y":2574417.620000001}},{"attributes":{"ID":201208,"DIS_CODE":0,"TOWNNAME":"北區","LI":"文成里","LIN":"20鄰","STREET":"海安路","SECT":"三段","MAREA":" ","LANE":"１３５巷","ALLEY":"１２３弄","HOUSE_NO":"１９號","E_COORD97":167619.39999999999,"N_COORD97":2544970.5600000001,"ADDRESS":"海安路三段１３５巷１２３弄１９號","OBJECTID":201207},"geometry":{"x":167619.40000000224,"y":2544970.5600000042}},{"attributes":{"ID":201209,"DIS_CODE":0,"TOWNNAME":"北區","LI":"文成里","LIN":"20鄰","STREET":"海安路","SECT":"三段","MAREA":" ","LANE":"１３５巷","ALLEY":"１２３弄","HOUSE_NO":"１號","E_COORD97":167638.04000000001,"N_COORD97":2544978.3999999999,"ADDRESS":"海安路三段１３５巷１２３弄１號","OBJECTID":201208},"geometry":{"x":167638.04000000004,"y":2544978.4000000022}},{"attributes":{"ID":201210,"DIS_CODE":0,"TOWNNAME":"北區","LI":"文成里","LIN":"20鄰","STREET":"海安路","SECT":"三段","MAREA":" ","LANE":"１３５巷","ALLEY":"１２３弄","HOUSE_NO":"２０號","E_COORD97":167625.04999999999,"N_COORD97":2544969.8300000001,"ADDRESS":"海安路三段１３５巷１２３弄２０號","OBJECTID":201209},"geometry":{"x":167625.05000000075,"y":2544969.8300000001}},{"attributes":{"ID":201211,"DIS_CODE":0,"TOWNNAME":"北區","LI":"文成里","LIN":"20鄰","STREET":"海安路","SECT":"三段","MAREA":" ","LANE":"１３５巷","ALLEY":"１２３弄","HOUSE_NO":"２１號","E_COORD97":167631.01999999999,"N_COORD97":2544969.5699999998,"ADDRESS":"海安路三段１３５巷１２３弄２１號","OBJECTID":201210},"geometry":{"x":167631.01999999955,"y":2544969.5700000003}},{"attributes":{"ID":201212,"DIS_CODE":0,"TOWNNAME":"永康區","LI":"五王里","LIN":" ","STREET":"成功路","SECT":" ","MAREA":" ","LANE":" ","ALLEY":" ","HOUSE_NO":"２之６號","E_COORD97":171951.79999999999,"N_COORD97":2545467.04,"ADDRESS":"成功路２之６號","OBJECTID":201211},"geometry":{"x":171951.79999999981,"y":2545467.0399999991}},{"attributes":{"ID":201213,"DIS_CODE":0,"TOWNNAME":"南區","LI":"彰南里","LIN":"12鄰","STREET":"新孝路","SECT":" ","MAREA":" ","LANE":" ","ALLEY":" ","HOUSE_NO":"２１３號","E_COORD97":165820.14000000001,"N_COORD97":2542041.9300000002,"ADDRESS":"新孝路２１３號","OBJECTID":201212},"geometry":{"x":165820.14000000153,"y":2542041.9300000016}},{"attributes":{"ID":201214,"DIS_CODE":0,"TOWNNAME":"南區","LI":"彰南里","LIN":"11鄰","STREET":"新孝路","SECT":" ","MAREA":" ","LANE":" ","ALLEY":" ","HOUSE_NO":"２０２號","E_COORD97":166130.98000000001,"N_COORD97":2542143.6899999999,"ADDRESS":"新孝路２０２號","OBJECTID":201213},"geometry":{"x":166130.98000000138,"y":2542143.6899999995}},{"attributes":{"ID":201215,"DIS_CODE":0,"TOWNNAME":"北區","LI":"文成里","LIN":"20鄰","STREET":"海安路","SECT":"三段","MAREA":" ","LANE":"１３５巷","ALLEY":"１２３弄","HOUSE_NO":"２２號","E_COORD97":167637.26000000001,"N_COORD97":2544968.79,"ADDRESS":"海安路三段１３５巷１２３弄２２號","OBJECTID":201214},"geometry":{"x":167637.26000000071,"y":2544968.790000001}},{"attributes":{"ID":201216,"DIS_CODE":0,"TOWNNAME":"北區","LI":"文成里","LIN":"20鄰","STREET":"海安路","SECT":"三段","MAREA":" ","LANE":"１３５巷","ALLEY":"１２３弄","HOUSE_NO":"２３號","E_COORD97":167636.73999999999,"N_COORD97":2544943.1000000001,"ADDRESS":"海安路三段１３５巷１２３弄２３號","OBJECTID":201215},"geometry":{"x":167636.74000000022,"y":2544943.1000000015}},{"attributes":{"ID":201217,"DIS_CODE":0,"TOWNNAME":"北區","LI":"文成里","LIN":"20鄰","STREET":"海安路","SECT":"三段","MAREA":" ","LANE":"１３５巷","ALLEY":"１２３弄","HOUSE_NO":"２５號","E_COORD97":167631.01999999999,"N_COORD97":2544943.8799999999,"ADDRESS":"海安路三段１３５巷１２３弄２５號","OBJECTID":201216},"geometry":{"x":167631.01999999955,"y":2544943.8800000008}},{"attributes":{"ID":201218,"DIS_CODE":0,"TOWNNAME":"北區","LI":"文成里","LIN":"20鄰","STREET":"海安路","SECT":"三段","MAREA":" ","LANE":"１３５巷","ALLEY":"１２３弄","HOUSE_NO":"２６號","E_COORD97":167627.12,"N_COORD97":2544944.3999999999,"ADDRESS":"海安路三段１３５巷１２３弄２６號","OBJECTID":201217},"geometry":{"x":167627.12000000011,"y":2544944.4000000022}},{"attributes":{"ID":201219,"DIS_CODE":0,"TOWNNAME":"北區","LI":"文成里","LIN":"20鄰","STREET":"海安路","SECT":"三段","MAREA":" ","LANE":"１３５巷","ALLEY":"１２３弄","HOUSE_NO":"２７號","E_COORD97":167622.10000000001,"N_COORD97":2544944.79,"ADDRESS":"海安路三段１３５巷１２３弄２７號","OBJECTID":201218},"geometry":{"x":167622.09999999963,"y":2544944.790000001}},{"attributes":{"ID":201220,"DIS_CODE":0,"TOWNNAME":"北區","LI":"文成里","LIN":"20鄰","STREET":"海安路","SECT":"三段","MAREA":" ","LANE":"１３５巷","ALLEY":"１２３弄","HOUSE_NO":"２８號","E_COORD97":167617.42999999999,"N_COORD97":2544944.79,"ADDRESS":"海安路三段１３５巷１２３弄２８號","OBJECTID":201219},"geometry":{"x":167617.43000000063,"y":2544944.790000001}},{"attributes":{"ID":201221,"DIS_CODE":0,"TOWNNAME":"白河區","LI":"關嶺里","LIN":"3鄰","STREET":" ","SECT":" ","MAREA":"關子嶺","LANE":" ","ALLEY":" ","HOUSE_NO":"２８４號","E_COORD97":199021.48999999999,"N_COORD97":2581788.6499999999,"ADDRESS":"關子嶺２８４號","OBJECTID":201220},"geometry":{"x":199021.49000000022,"y":2581788.6500000004}},{"attributes":{"ID":201222,"DIS_CODE":0,"TOWNNAME":"北區","LI":"文成里","LIN":"20鄰","STREET":"海安路","SECT":"三段","MAREA":" ","LANE":"１３５巷","ALLEY":"１２３弄","HOUSE_NO":"２９號","E_COORD97":167613.25,"N_COORD97":2544944.54,"ADDRESS":"海安路三段１３５巷１２３弄２９號","OBJECTID":201221},"geometry":{"x":167613.25000000186,"y":2544944.5399999991}},{"attributes":{"ID":201223,"DIS_CODE":0,"TOWNNAME":"北區","LI":"文成里","LIN":"20鄰","STREET":"海安路","SECT":"三段","MAREA":" ","LANE":"１３５巷","ALLEY":"１２３弄","HOUSE_NO":"２號","E_COORD97":167631.01999999999,"N_COORD97":2544978.3999999999,"ADDRESS":"海安路三段１３５巷１２３弄２號","OBJECTID":201222},"geometry":{"x":167631.01999999955,"y":2544978.4000000022}},{"attributes":{"ID":201224,"DIS_CODE":0,"TOWNNAME":"北區","LI":"文成里","LIN":"20鄰","STREET":"海安路","SECT":"三段","MAREA":" ","LANE":"１３５巷","ALLEY":"１２３弄","HOUSE_NO":"３０號","E_COORD97":167609.32000000001,"N_COORD97":2544945.0299999998,"ADDRESS":"海安路三段１３５巷１２３弄３０號","OBJECTID":201223},"geometry":{"x":167609.3200000003,"y":2544945.0299999993}},{"attributes":{"ID":201225,"DIS_CODE":0,"TOWNNAME":"北區","LI":"文成里","LIN":"20鄰","STREET":"海安路","SECT":"三段","MAREA":" ","LANE":"１３５巷","ALLEY":"１２３弄","HOUSE_NO":"３１號","E_COORD97":167603.91,"N_COORD97":2544945.2799999998,"ADDRESS":"海安路三段１３５巷１２３弄３１號","OBJECTID":201224},"geometry":{"x":167603.91000000201,"y":2544945.2800000012}},{"attributes":{"ID":201226,"DIS_CODE":0,"TOWNNAME":"北區","LI":"文成里","LIN":"20鄰","STREET":"海安路","SECT":"三段","MAREA":" ","LANE":"１３５巷","ALLEY":"１２３弄","HOUSE_NO":"３２號","E_COORD97":167599.98000000001,"N_COORD97":2544945.77,"ADDRESS":"海安路三段１３５巷１２３弄３２號","OBJECTID":201225},"geometry":{"x":167599.98000000045,"y":2544945.7700000014}},{"attributes":{"ID":201227,"DIS_CODE":0,"TOWNNAME":"北區","LI":"文成里","LIN":"20鄰","STREET":"海安路","SECT":"三段","MAREA":" ","LANE":"１３５巷","ALLEY":"１２３弄","HOUSE_NO":"３３號","E_COORD97":167594.81,"N_COORD97":2544945.2799999998,"ADDRESS":"海安路三段１３５巷１２３弄３３號","OBJECTID":201226},"geometry":{"x":167594.80999999959,"y":2544945.2800000012}},{"attributes":{"ID":201228,"DIS_CODE":0,"TOWNNAME":"南區","LI":"彰南里","LIN":"11鄰","STREET":"新孝路","SECT":" ","MAREA":" ","LANE":" ","ALLEY":" ","HOUSE_NO":"２０４號","E_COORD97":166118.39000000001,"N_COORD97":2542145.4900000002,"ADDRESS":"新孝路２０４號","OBJECTID":201227},"geometry":{"x":166118.39000000153,"y":2542145.4900000002}},{"attributes":{"ID":201229,"DIS_CODE":0,"TOWNNAME":"南區","LI":"彰南里","LIN":"14鄰","STREET":"新信路","SECT":" ","MAREA":" ","LANE":" ","ALLEY":" ","HOUSE_NO":"１０號","E_COORD97":166074.39999999999,"N_COORD97":2541613.8199999998,"ADDRESS":"新信路１０號","OBJECTID":201228},"geometry":{"x":166074.40000000037,"y":2541613.8200000003}},{"attributes":{"ID":201230,"DIS_CODE":0,"TOWNNAME":"南區","LI":"彰南里","LIN":"14鄰","STREET":"新信路","SECT":" ","MAREA":" ","LANE":" ","ALLEY":" ","HOUSE_NO":"１２號","E_COORD97":166042.81,"N_COORD97":2541624.77,"ADDRESS":"新信路１２號","OBJECTID":201229},"geometry":{"x":166042.81000000052,"y":2541624.7699999977}},{"attributes":{"ID":201231,"DIS_CODE":0,"TOWNNAME":"南區","LI":"彰南里","LIN":"14鄰","STREET":"新信路","SECT":" ","MAREA":" ","LANE":" ","ALLEY":" ","HOUSE_NO":"１４號","E_COORD97":166015.07999999999,"N_COORD97":2541621.5499999998,"ADDRESS":"新信路１４號","OBJECTID":201230},"geometry":{"x":166015.08000000007,"y":2541621.5500000026}},{"attributes":{"ID":201232,"DIS_CODE":0,"TOWNNAME":"南區","LI":"彰南里","LIN":"14鄰","STREET":"新信路","SECT":" ","MAREA":" ","LANE":" ","ALLEY":" ","HOUSE_NO":"１６號","E_COORD97":165984.13,"N_COORD97":2541617.04,"ADDRESS":"新信路１６號","OBJECTID":201231},"geometry":{"x":165984.12999999989,"y":2541617.040000001}},{"attributes":{"ID":201233,"DIS_CODE":0,"TOWNNAME":"南區","LI":"彰南里","LIN":" ","STREET":"新仁路","SECT":" ","MAREA":" ","LANE":" ","ALLEY":" ","HOUSE_NO":"１３號","E_COORD97":166046.67999999999,"N_COORD97":2541839.52,"ADDRESS":"新仁路１３號","OBJECTID":201232},"geometry":{"x":166046.6799999997,"y":2541839.5199999996}},{"attributes":{"ID":201234,"DIS_CODE":0,"TOWNNAME":"南區","LI":"廣州里","LIN":"4鄰","STREET":"永華路","SECT":"一段","MAREA":" ","LANE":" ","ALLEY":" ","HOUSE_NO":"６１號之１","E_COORD97":167522.12,"N_COORD97":2543106.1200000001,"ADDRESS":"永華路一段６１號之１","OBJECTID":201233},"geometry":{"x":167522.12000000011,"y":2543106.1200000029}},{"attributes":{"ID":201235,"DIS_CODE":0,"TOWNNAME":"北區","LI":"文成里","LIN":"20鄰","STREET":"海安路","SECT":"三段","MAREA":" ","LANE":"１３５巷","ALLEY":"１２３弄","HOUSE_NO":"３５號","E_COORD97":167590.88,"N_COORD97":2544944.79,"ADDRESS":"海安路三段１３５巷１２３弄３５號","OBJECTID":201234},"geometry":{"x":167590.88000000082,"y":2544944.790000001}},{"attributes":{"ID":201236,"DIS_CODE":0,"TOWNNAME":"南區","LI":"廣州里","LIN":"4鄰","STREET":"永華路","SECT":"一段","MAREA":" ","LANE":" ","ALLEY":" ","HOUSE_NO":"６３號","E_COORD97":167518.78,"N_COORD97":2543108.5600000001,"ADDRESS":"永華路一段６３號","OBJECTID":201235},"geometry":{"x":167518.78000000119,"y":2543108.5600000005}},{"attributes":{"ID":201237,"DIS_CODE":0,"TOWNNAME":"南區","LI":"廣州里","LIN":"4鄰","STREET":"永華路","SECT":"一段","MAREA":" ","LANE":" ","ALLEY":" ","HOUSE_NO":"６５號","E_COORD97":167515.67000000001,"N_COORD97":2543106.1200000001,"ADDRESS":"永華路一段６５號","OBJECTID":201236},"geometry":{"x":167515.67000000086,"y":2543106.1200000029}},{"attributes":{"ID":201238,"DIS_CODE":0,"TOWNNAME":"白河區","LI":"關嶺里","LIN":"3鄰","STREET":" ","SECT":" ","MAREA":"關子嶺","LANE":" ","ALLEY":" ","HOUSE_NO":"４３２號","E_COORD97":198998.35999999999,"N_COORD97":2581937.5899999999,"ADDRESS":"關子嶺４３２號","OBJECTID":201237},"geometry":{"x":198998.36000000127,"y":2581937.5899999999}},{"attributes":{"ID":201239,"DIS_CODE":0,"TOWNNAME":"南區","LI":"廣州里","LIN":"4鄰","STREET":"永華路","SECT":"一段","MAREA":" ","LANE":" ","ALLEY":" ","HOUSE_NO":"６５號之１","E_COORD97":167508.10999999999,"N_COORD97":2543105.8999999999,"ADDRESS":"永華路一段６５號之１","OBJECTID":201238},"geometry":{"x":167508.11000000127,"y":2543105.9000000004}},{"attributes":{"ID":201240,"DIS_CODE":0,"TOWNNAME":"南區","LI":"廣州里","LIN":"4鄰","STREET":"永華路","SECT":"一段","MAREA":" ","LANE":" ","ALLEY":" ","HOUSE_NO":"６５號之２","E_COORD97":167507.03,"N_COORD97":2543107.6499999999,"ADDRESS":"永華路一段６５號之２","OBJECTID":201239},"geometry":{"x":167507.03000000119,"y":2543107.6500000004}},{"attributes":{"ID":201241,"DIS_CODE":0,"TOWNNAME":"南區","LI":"彰南里","LIN":" ","STREET":"新義南路","SECT":" ","MAREA":" ","LANE":" ","ALLEY":" ","HOUSE_NO":"９號","E_COORD97":166074.62,"N_COORD97":2541016.6600000001,"ADDRESS":"新義南路９號","OBJECTID":201240},"geometry":{"x":166074.62000000011,"y":2541016.660000002}},{"attributes":{"ID":201242,"DIS_CODE":0,"TOWNNAME":"南區","LI":"廣州里","LIN":"4鄰","STREET":"永華路","SECT":"一段","MAREA":" ","LANE":" ","ALLEY":" ","HOUSE_NO":"６９號","E_COORD97":167492.98999999999,"N_COORD97":2543108.79,"ADDRESS":"永華路一段６９號","OBJECTID":201241},"geometry":{"x":167492.99000000022,"y":2543108.7899999991}},{"attributes":{"ID":201243,"DIS_CODE":0,"TOWNNAME":"北區","LI":"文成里","LIN":"20鄰","STREET":"海安路","SECT":"三段","MAREA":" ","LANE":"１３５巷","ALLEY":"１２３弄","HOUSE_NO":"３６號","E_COORD97":167586.20999999999,"N_COORD97":2544945.52,"ADDRESS":"海安路三段１３５巷１２３弄３６號","OBJECTID":201242},"geometry":{"x":167586.20999999903,"y":2544945.5199999996}},{"attributes":{"ID":201244,"DIS_CODE":0,"TOWNNAME":"北區","LI":"文成里","LIN":"20鄰","STREET":"海安路","SECT":"三段","MAREA":" ","LANE":"１３５巷","ALLEY":"１２３弄","HOUSE_NO":"３７號","E_COORD97":167587.92999999999,"N_COORD97":2544938.8999999999,"ADDRESS":"海安路三段１３５巷１２３弄３７號","OBJECTID":201243},"geometry":{"x":167587.93000000156,"y":2544938.9000000022}},{"attributes":{"ID":201245,"DIS_CODE":0,"TOWNNAME":"北區","LI":"文成里","LIN":"20鄰","STREET":"海安路","SECT":"三段","MAREA":" ","LANE":"１３５巷","ALLEY":"１２３弄","HOUSE_NO":"３８號","E_COORD97":167594.57000000001,"N_COORD97":2544938.8999999999,"ADDRESS":"海安路三段１３５巷１２３弄３８號","OBJECTID":201244},"geometry":{"x":167594.57000000123,"y":2544938.9000000022}},{"attributes":{"ID":201246,"DIS_CODE":0,"TOWNNAME":"北區","LI":"文成里","LIN":"20鄰","STREET":"海安路","SECT":"三段","MAREA":" ","LANE":"１３５巷","ALLEY":"１２３弄","HOUSE_NO":"３９號","E_COORD97":167598.75,"N_COORD97":2544938.3999999999,"ADDRESS":"海安路三段１３５巷１２３弄３９號","OBJECTID":201245},"geometry":{"x":167598.75000000093,"y":2544938.4000000022}},{"attributes":{"ID":201247,"DIS_CODE":0,"TOWNNAME":"北區","LI":"文成里","LIN":"20鄰","STREET":"海安路","SECT":"三段","MAREA":" ","LANE":"１３５巷","ALLEY":"１２３弄","HOUSE_NO":"３號","E_COORD97":167625.79000000001,"N_COORD97":2544978.4199999999,"ADDRESS":"海安路三段１３５巷１２３弄３號","OBJECTID":201246},"geometry":{"x":167625.79000000004,"y":2544978.4200000018}},{"attributes":{"ID":201248,"DIS_CODE":0,"TOWNNAME":"北區","LI":"文成里","LIN":"20鄰","STREET":"海安路","SECT":"三段","MAREA":" ","LANE":"１３５巷","ALLEY":"１２３弄","HOUSE_NO":"４０號","E_COORD97":167604.39999999999,"N_COORD97":2544937.9100000001,"ADDRESS":"海安路三段１３５巷１２３弄４０號","OBJECTID":201247},"geometry":{"x":167604.4000000013,"y":2544937.910000002}},{"attributes":{"ID":201249,"DIS_CODE":0,"TOWNNAME":"北區","LI":"文成里","LIN":"20鄰","STREET":"海安路","SECT":"三段","MAREA":" ","LANE":"１３５巷","ALLEY":"１２３弄","HOUSE_NO":"４１號","E_COORD97":167609.07000000001,"N_COORD97":2544937.9100000001,"ADDRESS":"海安路三段１３５巷１２３弄４１號","OBJECTID":201248},"geometry":{"x":167609.0700000003,"y":2544937.910000002}},{"attributes":{"ID":201250,"DIS_CODE":0,"TOWNNAME":"北區","LI":"文成里","LIN":"20鄰","STREET":"海安路","SECT":"三段","MAREA":" ","LANE":"１３５巷","ALLEY":"１２３弄","HOUSE_NO":"４２號","E_COORD97":167613.25,"N_COORD97":2544937.6699999999,"ADDRESS":"海安路三段１３５巷１２３弄４２號","OBJECTID":201249},"geometry":{"x":167613.25000000186,"y":2544937.6699999999}},{"attributes":{"ID":201251,"DIS_CODE":0,"TOWNNAME":"南區","LI":"彰南里","LIN":" ","STREET":"新樂路","SECT":" ","MAREA":" ","LANE":" ","ALLEY":" ","HOUSE_NO":"６８號之１","E_COORD97":165400.39999999999,"N_COORD97":2541181.9300000002,"ADDRESS":"新樂路６８號之１","OBJECTID":201250},"geometry":{"x":165400.40000000224,"y":2541181.9299999997}},{"attributes":{"ID":201252,"DIS_CODE":0,"TOWNNAME":"南區","LI":"彰南里","LIN":"20鄰","STREET":"新樂路","SECT":" ","MAREA":" ","LANE":" ","ALLEY":" ","HOUSE_NO":"８０號","E_COORD97":165368.75,"N_COORD97":2540832.9199999999,"ADDRESS":"新樂路８０號","OBJECTID":201251},"geometry":{"x":165368.75000000186,"y":2540832.9199999999}},{"attributes":{"ID":201253,"DIS_CODE":0,"TOWNNAME":"南區","LI":"彰南里","LIN":"20鄰","STREET":"新樂路","SECT":" ","MAREA":" ","LANE":" ","ALLEY":" ","HOUSE_NO":"８８號","E_COORD97":165476.14999999999,"N_COORD97":2540628.02,"ADDRESS":"新樂路８８號","OBJECTID":201252},"geometry":{"x":165476.15000000037,"y":2540628.0200000014}},{"attributes":{"ID":201254,"DIS_CODE":0,"TOWNNAME":"北區","LI":"文成里","LIN":"20鄰","STREET":"海安路","SECT":"三段","MAREA":" ","LANE":"１３５巷","ALLEY":"１２３弄","HOUSE_NO":"４３號","E_COORD97":167617.19,"N_COORD97":2544937.6699999999,"ADDRESS":"海安路三段１３５巷１２３弄４３號","OBJECTID":201253},"geometry":{"x":167617.19000000041,"y":2544937.6699999999}},{"attributes":{"ID":201255,"DIS_CODE":0,"TOWNNAME":"北區","LI":"文成里","LIN":"20鄰","STREET":"海安路","SECT":"三段","MAREA":" ","LANE":"１３５巷","ALLEY":"１２３弄","HOUSE_NO":"４５號","E_COORD97":167621.85999999999,"N_COORD97":2544937.1800000002,"ADDRESS":"海安路三段１３５巷１２３弄４５號","OBJECTID":201254},"geometry":{"x":167621.86000000127,"y":2544937.1799999997}},{"attributes":{"ID":201256,"DIS_CODE":0,"TOWNNAME":"北區","LI":"文成里","LIN":"20鄰","STREET":"海安路","SECT":"三段","MAREA":" ","LANE":"１３５巷","ALLEY":"１２３弄","HOUSE_NO":"４６號","E_COORD97":167626.85999999999,"N_COORD97":2544936.6200000001,"ADDRESS":"海安路三段１３５巷１２３弄４６號","OBJECTID":201255},"geometry":{"x":167626.86000000127,"y":2544936.6200000048}},{"attributes":{"ID":201257,"DIS_CODE":0,"TOWNNAME":"北區","LI":"文成里","LIN":"20鄰","STREET":"海安路","SECT":"三段","MAREA":" ","LANE":"１３５巷","ALLEY":"１２３弄","HOUSE_NO":"４７號","E_COORD97":167631.01999999999,"N_COORD97":2544936.1000000001,"ADDRESS":"海安路三段１３５巷１２３弄４７號","OBJECTID":201256},"geometry":{"x":167631.01999999955,"y":2544936.1000000015}},{"attributes":{"ID":201258,"DIS_CODE":0,"TOWNNAME":"北區","LI":"文成里","LIN":"20鄰","STREET":"海安路","SECT":"三段","MAREA":" ","LANE":"１３５巷","ALLEY":"１２３弄","HOUSE_NO":"４８號","E_COORD97":167636.48000000001,"N_COORD97":2544936.1000000001,"ADDRESS":"海安路三段１３５巷１２３弄４８號","OBJECTID":201257},"geometry":{"x":167636.48000000138,"y":2544936.1000000015}},{"attributes":{"ID":201259,"DIS_CODE":0,"TOWNNAME":"北區","LI":"文成里","LIN":"20鄰","STREET":"海安路","SECT":"三段","MAREA":" ","LANE":"１３５巷","ALLEY":"１２３弄","HOUSE_NO":"５號","E_COORD97":167619.64000000001,"N_COORD97":2544978.1699999999,"ADDRESS":"海安路三段１３５巷１２３弄５號","OBJECTID":201258},"geometry":{"x":167619.63999999966,"y":2544978.1699999999}},{"attributes":{"ID":201260,"DIS_CODE":0,"TOWNNAME":"北區","LI":"文成里","LIN":"20鄰","STREET":"海安路","SECT":"三段","MAREA":" ","LANE":"１３５巷","ALLEY":"１２３弄","HOUSE_NO":"６號","E_COORD97":167614.73000000001,"N_COORD97":2544977.9300000002,"ADDRESS":"海安路三段１３５巷１２３弄６號","OBJECTID":201259},"geometry":{"x":167614.73000000045,"y":2544977.9300000016}},{"attributes":{"ID":201261,"DIS_CODE":0,"TOWNNAME":"北區","LI":"文成里","LIN":"20鄰","STREET":"海安路","SECT":"三段","MAREA":" ","LANE":"１３５巷","ALLEY":"１２３弄","HOUSE_NO":"７號","E_COORD97":167609.07000000001,"N_COORD97":2544978.1699999999,"ADDRESS":"海安路三段１３５巷１２３弄７號","OBJECTID":201260},"geometry":{"x":167609.0700000003,"y":2544978.1699999999}},{"attributes":{"ID":201262,"DIS_CODE":0,"TOWNNAME":"北區","LI":"文成里","LIN":"20鄰","STREET":"海安路","SECT":"三段","MAREA":" ","LANE":"１３５巷","ALLEY":"１２３弄","HOUSE_NO":"８號","E_COORD97":167603.42000000001,"N_COORD97":2544978.4199999999,"ADDRESS":"海安路三段１３５巷１２３弄８號","OBJECTID":201261},"geometry":{"x":167603.41999999899,"y":2544978.4200000018}},{"attributes":{"ID":201263,"DIS_CODE":0,"TOWNNAME":"安南區","LI":"佃西里","LIN":"9鄰","STREET":"公學路","SECT":"四段","MAREA":" ","LANE":" ","ALLEY":" ","HOUSE_NO":"４２６號","E_COORD97":165050.76999999999,"N_COORD97":2551729.21,"ADDRESS":"公學路四段４２６號","OBJECTID":201262},"geometry":{"x":165050.76999999955,"y":2551729.2100000009}},{"attributes":{"ID":201264,"DIS_CODE":0,"TOWNNAME":"安南區","LI":"佃西里","LIN":"9鄰","STREET":"公學路","SECT":"四段","MAREA":" ","LANE":" ","ALLEY":" ","HOUSE_NO":"４２４號","E_COORD97":165053.95000000001,"N_COORD97":2551728.4500000002,"ADDRESS":"公學路四段４２４號","OBJECTID":201263},"geometry":{"x":165053.95000000205,"y":2551728.4499999993}},{"attributes":{"ID":201265,"DIS_CODE":0,"TOWNNAME":"永康區","LI":"正強里","LIN":" ","STREET":"正強街","SECT":" ","MAREA":" ","LANE":" ","ALLEY":" ","HOUSE_NO":"１９１號","E_COORD97":173299.54999999999,"N_COORD97":2547650.75,"ADDRESS":"正強街１９１號","OBJECTID":201264},"geometry":{"x":173299.54999999981,"y":2547650.7500000019}},{"attributes":{"ID":201266,"DIS_CODE":0,"TOWNNAME":"永康區","LI":"\u25A0行里","LIN":"17鄰","STREET":"中正南路","SECT":" ","MAREA":" ","LANE":" ","ALLEY":" ","HOUSE_NO":"７０６號","E_COORD97":171673.76999999999,"N_COORD97":2548903,"ADDRESS":"中正南路７０６號","OBJECTID":201265},"geometry":{"x":171673.76999999955,"y":2548903.0000000037}},{"attributes":{"ID":201267,"DIS_CODE":0,"TOWNNAME":"安南區","LI":"安順里","LIN":"9鄰","STREET":"安和路","SECT":"四段","MAREA":" ","LANE":" ","ALLEY":" ","HOUSE_NO":"１２９號","E_COORD97":169906.38,"N_COORD97":2550408.2200000002,"ADDRESS":"安和路四段１２９號","OBJECTID":201266},"geometry":{"x":169906.38000000082,"y":2550408.2200000025}},{"attributes":{"ID":201268,"DIS_CODE":0,"TOWNNAME":"安南區","LI":"淵東里","LIN":"9鄰","STREET":"安中路","SECT":"三段","MAREA":" ","LANE":" ","ALLEY":" ","HOUSE_NO":"４１２號之１","E_COORD97":165386.26999999999,"N_COORD97":2550062.6200000001,"ADDRESS":"安中路三段４１２號之１","OBJECTID":201267},"geometry":{"x":165386.26999999955,"y":2550062.6199999992}},{"attributes":{"ID":201269,"DIS_CODE":0,"TOWNNAME":"安南區","LI":"佃東里","LIN":"9鄰","STREET":"公學路","SECT":"四段","MAREA":" ","LANE":" ","ALLEY":" ","HOUSE_NO":"１９８號","E_COORD97":165544.31,"N_COORD97":2551924.9199999999,"ADDRESS":"公學路四段１９８號","OBJECTID":201268},"geometry":{"x":165544.31000000145,"y":2551924.9200000018}},{"attributes":{"ID":201270,"DIS_CODE":0,"TOWNNAME":"安南區","LI":"佃東里","LIN":"9鄰","STREET":"公學路","SECT":"四段","MAREA":" ","LANE":" ","ALLEY":" ","HOUSE_NO":"２００號","E_COORD97":165538.23000000001,"N_COORD97":2551918.5699999998,"ADDRESS":"公學路四段２００號","OBJECTID":201269},"geometry":{"x":165538.23000000045,"y":2551918.5700000022}},{"attributes":{"ID":201271,"DIS_CODE":0,"TOWNNAME":"南區","LI":"彰南里","LIN":"20鄰","STREET":"新樂路","SECT":" ","MAREA":" ","LANE":" ","ALLEY":" ","HOUSE_NO":"９０號","E_COORD97":165494.47,"N_COORD97":2540589.3799999999,"ADDRESS":"新樂路９０號","OBJECTID":201270},"geometry":{"x":165494.47000000067,"y":2540589.3800000027}},{"attributes":{"ID":201272,"DIS_CODE":0,"TOWNNAME":"南區","LI":"彰南里","LIN":"14鄰","STREET":"新愛路","SECT":" ","MAREA":" ","LANE":" ","ALLEY":" ","HOUSE_NO":"１９號","E_COORD97":165981.54999999999,"N_COORD97":2541697.5699999998,"ADDRESS":"新愛路１９號","OBJECTID":201271},"geometry":{"x":165981.54999999981,"y":2541697.5700000003}},{"attributes":{"ID":201273,"DIS_CODE":0,"TOWNNAME":"南區","LI":"彰南里","LIN":"17鄰","STREET":"新義南路","SECT":" ","MAREA":" ","LANE":" ","ALLEY":" ","HOUSE_NO":"５５號","E_COORD97":165469.73999999999,"N_COORD97":2540971.6099999999,"ADDRESS":"新義南路５５號","OBJECTID":201272},"geometry":{"x":165469.74000000115,"y":2540971.6100000031}},{"attributes":{"ID":201274,"DIS_CODE":0,"TOWNNAME":"北區","LI":"文成里","LIN":"20鄰","STREET":"海安路","SECT":"三段","MAREA":" ","LANE":"１３５巷","ALLEY":"１２３弄","HOUSE_NO":"９號","E_COORD97":167598.75,"N_COORD97":2544978.9100000001,"ADDRESS":"海安路三段１３５巷１２３弄９號","OBJECTID":201273},"geometry":{"x":167598.75000000093,"y":2544978.910000002}},{"attributes":{"ID":201275,"DIS_CODE":0,"TOWNNAME":"七股區","LI":"竹港里","LIN":"9鄰","STREET":" ","SECT":" ","MAREA":"竹港","LANE":" ","ALLEY":" ","HOUSE_NO":"８３號","E_COORD97":165117.59,"N_COORD97":2556176.6699999999,"ADDRESS":"竹港８３號","OBJECTID":201274},"geometry":{"x":165117.59000000078,"y":2556176.6699999999}},{"attributes":{"ID":201276,"DIS_CODE":0,"TOWNNAME":"白河區","LI":"關嶺里","LIN":"3鄰","STREET":" ","SECT":" ","MAREA":"關子嶺","LANE":" ","ALLEY":" ","HOUSE_NO":"３２１號","E_COORD97":198950.64000000001,"N_COORD97":2581821.6400000001,"ADDRESS":"關子嶺３２１號","OBJECTID":201275},"geometry":{"x":198950.63999999966,"y":2581821.6400000006}},{"attributes":{"ID":201277,"DIS_CODE":0,"TOWNNAME":"白河區","LI":"關嶺里","LIN":"3鄰","STREET":" ","SECT":" ","MAREA":"關子嶺","LANE":" ","ALLEY":" ","HOUSE_NO":"４２４之１號","E_COORD97":199000.47,"N_COORD97":2581925.2400000002,"ADDRESS":"關子嶺４２４之１號","OBJECTID":201276},"geometry":{"x":199000.46999999974,"y":2581925.2400000021}},{"attributes":{"ID":201278,"DIS_CODE":0,"TOWNNAME":"白河區","LI":"關嶺里","LIN":"3鄰","STREET":" ","SECT":" ","MAREA":"關子嶺","LANE":" ","ALLEY":" ","HOUSE_NO":"４２４號","E_COORD97":199000.29000000001,"N_COORD97":2581923.0099999998,"ADDRESS":"關子嶺４２４號","OBJECTID":201277},"geometry":{"x":199000.29000000004,"y":2581923.0100000016}},{"attributes":{"ID":201279,"DIS_CODE":0,"TOWNNAME":"白河區","LI":"關嶺里","LIN":"3鄰","STREET":" ","SECT":" ","MAREA":"關子嶺","LANE":" ","ALLEY":" ","HOUSE_NO":"４２５之１號","E_COORD97":199000.04999999999,"N_COORD97":2581920.3999999999,"ADDRESS":"關子嶺４２５之１號","OBJECTID":201278},"geometry":{"x":199000.04999999981,"y":2581920.4000000022}},{"attributes":{"ID":201280,"DIS_CODE":0,"TOWNNAME":"白河區","LI":"關嶺里","LIN":"3鄰","STREET":" ","SECT":" ","MAREA":"關子嶺","LANE":" ","ALLEY":" ","HOUSE_NO":"４２５號","E_COORD97":199000,"N_COORD97":2581918.3599999999,"ADDRESS":"關子嶺４２５號","OBJECTID":201279},"geometry":{"x":199000.00000000093,"y":2581918.3599999994}},{"attributes":{"ID":201281,"DIS_CODE":0,"TOWNNAME":"白河區","LI":"關嶺里","LIN":"3鄰","STREET":" ","SECT":" ","MAREA":"關子嶺","LANE":" ","ALLEY":" ","HOUSE_NO":"４２６之１號","E_COORD97":198998.79000000001,"N_COORD97":2581915.6099999999,"ADDRESS":"關子嶺４２６之１號","OBJECTID":201280},"geometry":{"x":198998.79000000004,"y":2581915.6099999994}},{"attributes":{"ID":201282,"DIS_CODE":0,"TOWNNAME":"白河區","LI":"關嶺里","LIN":"3鄰","STREET":" ","SECT":" ","MAREA":"關子嶺","LANE":" ","ALLEY":" ","HOUSE_NO":"４２７之１號","E_COORD97":198997.47,"N_COORD97":2581910.9300000002,"ADDRESS":"關子嶺４２７之１號","OBJECTID":201281},"geometry":{"x":198997.46999999974,"y":2581910.9299999997}},{"attributes":{"ID":201283,"DIS_CODE":0,"TOWNNAME":"白河區","LI":"關嶺里","LIN":"3鄰","STREET":" ","SECT":" ","MAREA":"關子嶺","LANE":" ","ALLEY":" ","HOUSE_NO":"４２７號","E_COORD97":198996.09,"N_COORD97":2581908.8500000001,"ADDRESS":"關子嶺４２７號","OBJECTID":201282},"geometry":{"x":198996.09000000078,"y":2581908.8500000034}},{"attributes":{"ID":201284,"DIS_CODE":0,"TOWNNAME":"北區","LI":"文成里","LIN":"20鄰","STREET":"臨安路","SECT":"二段","MAREA":" ","LANE":"１４３巷","ALLEY":"２５弄","HOUSE_NO":"３０號","E_COORD97":167674.67999999999,"N_COORD97":2544920.79,"ADDRESS":"臨安路二段１４３巷２５弄３０號","OBJECTID":201283},"geometry":{"x":167674.68000000063,"y":2544920.790000001}},{"attributes":{"ID":201285,"DIS_CODE":0,"TOWNNAME":"北區","LI":"文成里","LIN":"20鄰","STREET":"臨安路","SECT":"二段","MAREA":" ","LANE":"１４３巷","ALLEY":"２５弄","HOUSE_NO":"３２號","E_COORD97":167669.22,"N_COORD97":2544921.2999999998,"ADDRESS":"臨安路二段１４３巷２５弄３２號","OBJECTID":201284},"geometry":{"x":167669.22000000067,"y":2544921.2999999989}},{"attributes":{"ID":201286,"DIS_CODE":0,"TOWNNAME":"北區","LI":"文成里","LIN":"20鄰","STREET":"臨安路","SECT":"二段","MAREA":" ","LANE":"１４３巷","ALLEY":"２５弄","HOUSE_NO":"３６號","E_COORD97":167664.28,"N_COORD97":2544921.2999999998,"ADDRESS":"臨安路二段１４３巷２５弄３６號","OBJECTID":201285},"geometry":{"x":167664.28000000119,"y":2544921.2999999989}},{"attributes":{"ID":201287,"DIS_CODE":0,"TOWNNAME":"北區","LI":"文成里","LIN":"20鄰","STREET":"臨安路","SECT":"二段","MAREA":" ","LANE":"１４３巷","ALLEY":"２５弄","HOUSE_NO":"３８號","E_COORD97":167659.09,"N_COORD97":2544921.2999999998,"ADDRESS":"臨安路二段１４３巷２５弄３８號","OBJECTID":201286},"geometry":{"x":167659.08999999985,"y":2544921.2999999989}},{"attributes":{"ID":201288,"DIS_CODE":0,"TOWNNAME":"北區","LI":"文成里","LIN":"20鄰","STREET":"臨安路","SECT":"二段","MAREA":" ","LANE":"１４３巷","ALLEY":"２５弄","HOUSE_NO":"４０號","E_COORD97":167653.89000000001,"N_COORD97":2544921.04,"ADDRESS":"臨安路二段１４３巷２５弄４０號","OBJECTID":201287},"geometry":{"x":167653.88999999966,"y":2544921.0399999991}},{"attributes":{"ID":201289,"DIS_CODE":0,"TOWNNAME":"北區","LI":"文成里","LIN":"20鄰","STREET":"臨安路","SECT":"二段","MAREA":" ","LANE":"１４３巷","ALLEY":"２５弄","HOUSE_NO":"４２號","E_COORD97":167649.47,"N_COORD97":2544920.79,"ADDRESS":"臨安路二段１４３巷２５弄４２號","OBJECTID":201288},"geometry":{"x":167649.47000000067,"y":2544920.790000001}},{"attributes":{"ID":201290,"DIS_CODE":0,"TOWNNAME":"七股區","LI":"義合里","LIN":"9鄰","STREET":" ","SECT":" ","MAREA":"義合","LANE":" ","ALLEY":" ","HOUSE_NO":"６６號之６","E_COORD97":162286.82000000001,"N_COORD97":2555831.2400000002,"ADDRESS":"義合６６號之６","OBJECTID":201289},"geometry":{"x":162286.82000000216,"y":2555831.2400000002}},{"attributes":{"ID":201291,"DIS_CODE":0,"TOWNNAME":"白河區","LI":"關嶺里","LIN":"3鄰","STREET":" ","SECT":" ","MAREA":"關子嶺","LANE":" ","ALLEY":" ","HOUSE_NO":"４２８之１號","E_COORD97":198993.69,"N_COORD97":2581906.75,"ADDRESS":"關子嶺４２８之１號","OBJECTID":201290},"geometry":{"x":198993.69000000227,"y":2581906.7500000037}},{"attributes":{"ID":201292,"DIS_CODE":0,"TOWNNAME":"白河區","LI":"關嶺里","LIN":"3鄰","STREET":" ","SECT":" ","MAREA":"關子嶺","LANE":" ","ALLEY":" ","HOUSE_NO":"４３１號","E_COORD97":198989.39999999999,"N_COORD97":2581936.9900000002,"ADDRESS":"關子嶺４３１號","OBJECTID":201291},"geometry":{"x":198989.4000000013,"y":2581936.9900000021}},{"attributes":{"ID":201293,"DIS_CODE":0,"TOWNNAME":"北區","LI":"文成里","LIN":"20鄰","STREET":"臨安路","SECT":"二段","MAREA":" ","LANE":"１４３巷","ALLEY":"２７弄","HOUSE_NO":"２５號","E_COORD97":167670.26000000001,"N_COORD97":2544941.7999999998,"ADDRESS":"臨安路二段１４３巷２７弄２５號","OBJECTID":201292},"geometry":{"x":167670.25999999978,"y":2544941.8000000045}},{"attributes":{"ID":201294,"DIS_CODE":0,"TOWNNAME":"北區","LI":"文成里","LIN":"20鄰","STREET":"臨安路","SECT":"二段","MAREA":" ","LANE":"１４３巷","ALLEY":"２７弄","HOUSE_NO":"２７號","E_COORD97":167665.32000000001,"N_COORD97":2544942.3199999998,"ADDRESS":"臨安路二段１４３巷２７弄２７號","OBJECTID":201293},"geometry":{"x":167665.3200000003,"y":2544942.3200000022}},{"attributes":{"ID":201295,"DIS_CODE":0,"TOWNNAME":"北區","LI":"文成里","LIN":"20鄰","STREET":"臨安路","SECT":"二段","MAREA":" ","LANE":"１４３巷","ALLEY":"２７弄","HOUSE_NO":"２９號","E_COORD97":167660.64000000001,"N_COORD97":2544942.3199999998,"ADDRESS":"臨安路二段１４３巷２７弄２９號","OBJECTID":201294},"geometry":{"x":167660.63999999966,"y":2544942.3200000022}},{"attributes":{"ID":201296,"DIS_CODE":0,"TOWNNAME":"北區","LI":"文成里","LIN":"20鄰","STREET":"臨安路","SECT":"二段","MAREA":" ","LANE":"１４３巷","ALLEY":"２７弄","HOUSE_NO":"３１號","E_COORD97":167655.45000000001,"N_COORD97":2544942.3199999998,"ADDRESS":"臨安路二段１４３巷２７弄３１號","OBJECTID":201295},"geometry":{"x":167655.45000000019,"y":2544942.3200000022}},{"attributes":{"ID":201297,"DIS_CODE":0,"TOWNNAME":"北區","LI":"文成里","LIN":"20鄰","STREET":"臨安路","SECT":"二段","MAREA":" ","LANE":"１４３巷","ALLEY":"２７弄","HOUSE_NO":"３３號","E_COORD97":167651.03,"N_COORD97":2544942.3199999998,"ADDRESS":"臨安路二段１４３巷２７弄３３號","OBJECTID":201296},"geometry":{"x":167651.03000000119,"y":2544942.3200000022}},{"attributes":{"ID":201298,"DIS_CODE":0,"TOWNNAME":"北區","LI":"文成里","LIN":"20鄰","STREET":"臨安路","SECT":"二段","MAREA":" ","LANE":"１４３巷","ALLEY":"２７弄","HOUSE_NO":"３８號","E_COORD97":167671.29999999999,"N_COORD97":2544948.29,"ADDRESS":"臨安路二段１４３巷２７弄３８號","OBJECTID":201297},"geometry":{"x":167671.29999999981,"y":2544948.290000001}},{"attributes":{"ID":201299,"DIS_CODE":0,"TOWNNAME":"白河區","LI":"關嶺里","LIN":"3鄰","STREET":" ","SECT":" ","MAREA":"關子嶺","LANE":" ","ALLEY":" ","HOUSE_NO":"４３３號","E_COORD97":199005.42000000001,"N_COORD97":2581936.7400000002,"ADDRESS":"關子嶺４３３號","OBJECTID":201298},"geometry":{"x":199005.42000000086,"y":2581936.7400000002}},{"attributes":{"ID":201300,"DIS_CODE":0,"TOWNNAME":"白河區","LI":"關嶺里","LIN":"3鄰","STREET":" ","SECT":" ","MAREA":"關子嶺","LANE":" ","ALLEY":" ","HOUSE_NO":"４３４號","E_COORD97":199012.04000000001,"N_COORD97":2581935.8900000001,"ADDRESS":"關子嶺４３４號","OBJECTID":201299},"geometry":{"x":199012.04000000097,"y":2581935.8900000006}},{"attributes":{"ID":201301,"DIS_CODE":0,"TOWNNAME":"白河區","LI":"關嶺里","LIN":"3鄰","STREET":" ","SECT":" ","MAREA":"關子嶺","LANE":" ","ALLEY":" ","HOUSE_NO":"４３６號","E_COORD97":199025.44,"N_COORD97":2581933.79,"ADDRESS":"關子嶺４３６號","OBJECTID":201300},"geometry":{"x":199025.44000000041,"y":2581933.790000001}},{"attributes":{"ID":201302,"DIS_CODE":0,"TOWNNAME":"北區","LI":"文成里","LIN":"20鄰","STREET":"臨安路","SECT":"二段","MAREA":" ","LANE":"１４３巷","ALLEY":"２７弄","HOUSE_NO":"４０號","E_COORD97":167666.35999999999,"N_COORD97":2544948.0299999998,"ADDRESS":"臨安路二段１４３巷２７弄４０號","OBJECTID":201301},"geometry":{"x":167666.36000000034,"y":2544948.0299999993}},{"attributes":{"ID":201303,"DIS_CODE":0,"TOWNNAME":"白河區","LI":"關嶺里","LIN":"3鄰","STREET":" ","SECT":" ","MAREA":"關子嶺","LANE":" ","ALLEY":" ","HOUSE_NO":"４３７號","E_COORD97":199029.16,"N_COORD97":2581928.9399999999,"ADDRESS":"關子嶺４３７號","OBJECTID":201302},"geometry":{"x":199029.16000000201,"y":2581928.9400000013}},{"attributes":{"ID":201304,"DIS_CODE":0,"TOWNNAME":"永康區","LI":"\u25A0行里","LIN":"20鄰","STREET":"正南五街","SECT":" ","MAREA":" ","LANE":"４１０巷","ALLEY":" ","HOUSE_NO":"１之１號","E_COORD97":171759.03,"N_COORD97":2548611.0499999998,"ADDRESS":"正南五街４１０巷１之１號","OBJECTID":201303},"geometry":{"x":171759.03000000026,"y":2548611.0500000007}},{"attributes":{"ID":201305,"DIS_CODE":0,"TOWNNAME":"永康區","LI":"正強里","LIN":"40鄰","STREET":"四維街","SECT":" ","MAREA":" ","LANE":" ","ALLEY":" ","HOUSE_NO":"１７９號","E_COORD97":173268.64999999999,"N_COORD97":2548426.8599999999,"ADDRESS":"四維街１７９號","OBJECTID":201304},"geometry":{"x":173268.65000000037,"y":2548426.8600000013}},{"attributes":{"ID":201306,"DIS_CODE":0,"TOWNNAME":"永康區","LI":"正強里","LIN":"40鄰","STREET":"四維街","SECT":" ","MAREA":" ","LANE":" ","ALLEY":" ","HOUSE_NO":"１７１號","E_COORD97":173276.14000000001,"N_COORD97":2548412.6200000001,"ADDRESS":"四維街１７１號","OBJECTID":201305},"geometry":{"x":173276.1400000006,"y":2548412.6200000029}},{"attributes":{"ID":201307,"DIS_CODE":0,"TOWNNAME":"白河區","LI":"關嶺里","LIN":"3鄰","STREET":" ","SECT":" ","MAREA":"關子嶺","LANE":" ","ALLEY":" ","HOUSE_NO":"４３８號","E_COORD97":199033.89999999999,"N_COORD97":2581923.2400000002,"ADDRESS":"關子嶺４３８號","OBJECTID":201306},"geometry":{"x":199033.90000000037,"y":2581923.2400000002}},{"attributes":{"ID":201308,"DIS_CODE":0,"TOWNNAME":"白河區","LI":"關嶺里","LIN":"3鄰","STREET":" ","SECT":" ","MAREA":"關子嶺","LANE":" ","ALLEY":" ","HOUSE_NO":"４３９號","E_COORD97":199057.48999999999,"N_COORD97":2581859.23,"ADDRESS":"關子嶺４３９號","OBJECTID":201307},"geometry":{"x":199057.48999999929,"y":2581859.2300000004}},{"attributes":{"ID":201309,"DIS_CODE":0,"TOWNNAME":"白河區","LI":"關嶺里","LIN":"3鄰","STREET":" ","SECT":" ","MAREA":"關子嶺","LANE":" ","ALLEY":" ","HOUSE_NO":"４４０號","E_COORD97":199057.35999999999,"N_COORD97":2581866.9100000001,"ADDRESS":"關子嶺４４０號","OBJECTID":201308},"geometry":{"x":199057.36000000127,"y":2581866.9100000001}},{"attributes":{"ID":201310,"DIS_CODE":0,"TOWNNAME":"白河區","LI":"關嶺里","LIN":"3鄰","STREET":" ","SECT":" ","MAREA":"關子嶺","LANE":" ","ALLEY":" ","HOUSE_NO":"４４１號","E_COORD97":199063.45999999999,"N_COORD97":2581858.48,"ADDRESS":"關子嶺４４１號","OBJECTID":201309},"geometry":{"x":199063.45999999996,"y":2581858.4800000023}},{"attributes":{"ID":201311,"DIS_CODE":0,"TOWNNAME":"白河區","LI":"關嶺里","LIN":"3鄰","STREET":" ","SECT":" ","MAREA":"關子嶺","LANE":" ","ALLEY":" ","HOUSE_NO":"４４２號","E_COORD97":199066.87,"N_COORD97":2581858.04,"ADDRESS":"關子嶺４４２號","OBJECTID":201310},"geometry":{"x":199066.87000000197,"y":2581858.0399999991}},{"attributes":{"ID":201312,"DIS_CODE":0,"TOWNNAME":"白河區","LI":"關嶺里","LIN":"3鄰","STREET":" ","SECT":" ","MAREA":"關子嶺","LANE":" ","ALLEY":" ","HOUSE_NO":"４４３號","E_COORD97":199072.29000000001,"N_COORD97":2581858.1899999999,"ADDRESS":"關子嶺４４３號","OBJECTID":201311},"geometry":{"x":199072.2900000019,"y":2581858.1899999995}},{"attributes":{"ID":201313,"DIS_CODE":0,"TOWNNAME":"永康區","LI":"北灣里","LIN":"40鄰","STREET":"永大路","SECT":"二段","MAREA":" ","LANE":" ","ALLEY":" ","HOUSE_NO":"８３０號","E_COORD97":174550.57000000001,"N_COORD97":2546073.6099999999,"ADDRESS":"永大路二段８３０號","OBJECTID":201312},"geometry":{"x":174550.57000000123,"y":2546073.6099999994}},{"attributes":{"ID":201314,"DIS_CODE":0,"TOWNNAME":"北區","LI":"文成里","LIN":"20鄰","STREET":"臨安路","SECT":"二段","MAREA":" ","LANE":"１４３巷","ALLEY":"２７弄","HOUSE_NO":"４２號","E_COORD97":167660.64000000001,"N_COORD97":2544948.5499999998,"ADDRESS":"臨安路二段１４３巷２７弄４２號","OBJECTID":201313},"geometry":{"x":167660.63999999966,"y":2544948.5500000026}},{"attributes":{"ID":201315,"DIS_CODE":0,"TOWNNAME":"永康區","LI":"\u25A0行里","LIN":"28鄰","STREET":"中正五街","SECT":" ","MAREA":" ","LANE":" ","ALLEY":" ","HOUSE_NO":"１４６號","E_COORD97":173002.16,"N_COORD97":2548463.7400000002,"ADDRESS":"中正五街１４６號","OBJECTID":201314},"geometry":{"x":173002.16000000015,"y":2548463.7400000002}},{"attributes":{"ID":201316,"DIS_CODE":0,"TOWNNAME":"北區","LI":"文成里","LIN":"20鄰","STREET":"臨安路","SECT":"二段","MAREA":" ","LANE":"１４３巷","ALLEY":"２７弄","HOUSE_NO":"４６號","E_COORD97":167656.23000000001,"N_COORD97":2544948.5499999998,"ADDRESS":"臨安路二段１４３巷２７弄４６號","OBJECTID":201315},"geometry":{"x":167656.23000000231,"y":2544948.5500000026}},{"attributes":{"ID":201317,"DIS_CODE":0,"TOWNNAME":"北區","LI":"文成里","LIN":"20鄰","STREET":"臨安路","SECT":"二段","MAREA":" ","LANE":"１４３巷","ALLEY":"２７弄","HOUSE_NO":"４８號","E_COORD97":167651.03,"N_COORD97":2544948.29,"ADDRESS":"臨安路二段１４３巷２７弄４８號","OBJECTID":201316},"geometry":{"x":167651.03000000119,"y":2544948.290000001}},{"attributes":{"ID":201318,"DIS_CODE":0,"TOWNNAME":"北區","LI":"文成里","LIN":"20鄰","STREET":"臨安路","SECT":"二段","MAREA":" ","LANE":"１４３巷","ALLEY":"２９弄","HOUSE_NO":"３１號","E_COORD97":167668.70000000001,"N_COORD97":2544970.8700000001,"ADDRESS":"臨安路二段１４３巷２９弄３１號","OBJECTID":201317},"geometry":{"x":167668.70000000112,"y":2544970.870000001}},{"attributes":{"ID":201319,"DIS_CODE":0,"TOWNNAME":"北區","LI":"文成里","LIN":"20鄰","STREET":"臨安路","SECT":"二段","MAREA":" ","LANE":"１４３巷","ALLEY":"２９弄","HOUSE_NO":"３３號","E_COORD97":167662.72,"N_COORD97":2544971.1299999999,"ADDRESS":"臨安路二段１４３巷２９弄３３號","OBJECTID":201318},"geometry":{"x":167662.72000000067,"y":2544971.129999999}},{"attributes":{"ID":201320,"DIS_CODE":0,"TOWNNAME":"北區","LI":"文成里","LIN":"20鄰","STREET":"臨安路","SECT":"二段","MAREA":" ","LANE":"１４３巷","ALLEY":"２９弄","HOUSE_NO":"３５號","E_COORD97":167658.31,"N_COORD97":2544970.8700000001,"ADDRESS":"臨安路二段１４３巷２９弄３５號","OBJECTID":201319},"geometry":{"x":167658.31000000052,"y":2544970.870000001}},{"attributes":{"ID":201321,"DIS_CODE":0,"TOWNNAME":"北區","LI":"文成里","LIN":"20鄰","STREET":"臨安路","SECT":"二段","MAREA":" ","LANE":"１４３巷","ALLEY":"２９弄","HOUSE_NO":"３７號","E_COORD97":167651.54999999999,"N_COORD97":2544971.3900000001,"ADDRESS":"臨安路二段１４３巷２９弄３７號","OBJECTID":201320},"geometry":{"x":167651.54999999888,"y":2544971.3899999987}},{"attributes":{"ID":201322,"DIS_CODE":0,"TOWNNAME":"北區","LI":"文成里","LIN":"20鄰","STREET":"臨安路","SECT":"二段","MAREA":" ","LANE":"１４３巷","ALLEY":"２９弄","HOUSE_NO":"３８號","E_COORD97":167673.38,"N_COORD97":2544978.3900000001,"ADDRESS":"臨安路二段１４３巷２９弄３８號","OBJECTID":201321},"geometry":{"x":167673.38000000082,"y":2544978.3900000043}},{"attributes":{"ID":201323,"DIS_CODE":0,"TOWNNAME":"北區","LI":"文成里","LIN":"20鄰","STREET":"臨安路","SECT":"二段","MAREA":" ","LANE":"１４３巷","ALLEY":"２９弄","HOUSE_NO":"４０號","E_COORD97":167668.17999999999,"N_COORD97":2544978.3900000001,"ADDRESS":"臨安路二段１４３巷２９弄４０號","OBJECTID":201322},"geometry":{"x":167668.18000000063,"y":2544978.3900000043}},{"attributes":{"ID":201324,"DIS_CODE":0,"TOWNNAME":"北區","LI":"文成里","LIN":"20鄰","STREET":"臨安路","SECT":"二段","MAREA":" ","LANE":"１４３巷","ALLEY":"２９弄","HOUSE_NO":"４２號","E_COORD97":167662.98000000001,"N_COORD97":2544978.3900000001,"ADDRESS":"臨安路二段１４３巷２９弄４２號","OBJECTID":201323},"geometry":{"x":167662.98000000231,"y":2544978.3900000043}},{"attributes":{"ID":201325,"DIS_CODE":0,"TOWNNAME":"北區","LI":"文成里","LIN":"20鄰","STREET":"臨安路","SECT":"二段","MAREA":" ","LANE":"１４３巷","ALLEY":"２９弄","HOUSE_NO":"４６號","E_COORD97":167657.79000000001,"N_COORD97":2544978.3900000001,"ADDRESS":"臨安路二段１４３巷２９弄４６號","OBJECTID":201324},"geometry":{"x":167657.79000000097,"y":2544978.3900000043}},{"attributes":{"ID":201326,"DIS_CODE":0,"TOWNNAME":"北區","LI":"文成里","LIN":"20鄰","STREET":"臨安路","SECT":"二段","MAREA":" ","LANE":"１４３巷","ALLEY":"２９弄","HOUSE_NO":"４８號","E_COORD97":167652.32999999999,"N_COORD97":2544978.3900000001,"ADDRESS":"臨安路二段１４３巷２９弄４８號","OBJECTID":201325},"geometry":{"x":167652.33000000101,"y":2544978.3900000043}},{"attributes":{"ID":201327,"DIS_CODE":0,"TOWNNAME":"北區","LI":"中樓里","LIN":"20鄰","STREET":"勝利路","SECT":" ","MAREA":" ","LANE":"４６７巷","ALLEY":"５弄","HOUSE_NO":"１０號","E_COORD97":169866.62,"N_COORD97":2545111.7599999998,"ADDRESS":"勝利路４６７巷５弄１０號","OBJECTID":201326},"geometry":{"x":169866.62000000011,"y":2545111.7600000016}},{"attributes":{"ID":201328,"DIS_CODE":0,"TOWNNAME":"北區","LI":"中樓里","LIN":"20鄰","STREET":"勝利路","SECT":" ","MAREA":" ","LANE":"４６７巷","ALLEY":"５弄","HOUSE_NO":"２８號","E_COORD97":169878.07999999999,"N_COORD97":2545092.8100000001,"ADDRESS":"勝利路４６７巷５弄２８號","OBJECTID":201327},"geometry":{"x":169878.08000000101,"y":2545092.8100000005}},{"attributes":{"ID":201329,"DIS_CODE":0,"TOWNNAME":"北區","LI":"中樓里","LIN":"20鄰","STREET":"勝利路","SECT":" ","MAREA":" ","LANE":"４６７巷","ALLEY":"５弄","HOUSE_NO":"２８號之１","E_COORD97":169868.31,"N_COORD97":2545089.8300000001,"ADDRESS":"勝利路４６７巷５弄２８號之１","OBJECTID":201328},"geometry":{"x":169868.30999999959,"y":2545089.8299999982}},{"attributes":{"ID":201330,"DIS_CODE":0,"TOWNNAME":"北區","LI":"中樓里","LIN":"20鄰","STREET":"勝利路","SECT":" ","MAREA":" ","LANE":"４６７巷","ALLEY":"５弄","HOUSE_NO":"２號","E_COORD97":169839.13,"N_COORD97":2545105.4900000002,"ADDRESS":"勝利路４６７巷５弄２號","OBJECTID":201329},"geometry":{"x":169839.12999999989,"y":2545105.4900000002}},{"attributes":{"ID":201331,"DIS_CODE":0,"TOWNNAME":"永康區","LI":"\u25A0行里","LIN":"30鄰","STREET":"中正北路","SECT":" ","MAREA":" ","LANE":" ","ALLEY":" ","HOUSE_NO":"３３９號之９","E_COORD97":173000.28,"N_COORD97":2549141.1800000002,"ADDRESS":"中正北路３３９號之９","OBJECTID":201330},"geometry":{"x":173000.28000000026,"y":2549141.1799999997}},{"attributes":{"ID":201332,"DIS_CODE":0,"TOWNNAME":"七股區","LI":"竹港里","LIN":"9鄰","STREET":" ","SECT":" ","MAREA":"竹港","LANE":" ","ALLEY":" ","HOUSE_NO":"７９號之１５","E_COORD97":165066.10000000001,"N_COORD97":2556532.8500000001,"ADDRESS":"竹港７９號之１５","OBJECTID":201331},"geometry":{"x":165066.10000000056,"y":2556532.8500000015}},{"attributes":{"ID":201333,"DIS_CODE":0,"TOWNNAME":"七股區","LI":"竹港里","LIN":"9鄰","STREET":" ","SECT":" ","MAREA":"竹港","LANE":" ","ALLEY":" ","HOUSE_NO":"８０號之１","E_COORD97":165076.39000000001,"N_COORD97":2556191.5499999998,"ADDRESS":"竹港８０號之１","OBJECTID":201332},"geometry":{"x":165076.3900000006,"y":2556191.5500000007}},{"attributes":{"ID":201334,"DIS_CODE":0,"TOWNNAME":"七股區","LI":"竹港里","LIN":"9鄰","STREET":" ","SECT":" ","MAREA":"竹港","LANE":" ","ALLEY":" ","HOUSE_NO":"８０號","E_COORD97":165088.10000000001,"N_COORD97":2556192.3999999999,"ADDRESS":"竹港８０號","OBJECTID":201333},"geometry":{"x":165088.10000000149,"y":2556192.4000000004}},{"attributes":{"ID":201335,"DIS_CODE":0,"TOWNNAME":"七股區","LI":"竹港里","LIN":"9鄰","STREET":" ","SECT":" ","MAREA":"竹港","LANE":" ","ALLEY":" ","HOUSE_NO":"８４號","E_COORD97":165044.04000000001,"N_COORD97":2556106.3900000001,"ADDRESS":"竹港８４號","OBJECTID":201334},"geometry":{"x":165044.04000000004,"y":2556106.3900000025}},{"attributes":{"ID":201336,"DIS_CODE":0,"TOWNNAME":"北區","LI":"中樓里","LIN":"20鄰","STREET":"勝利路","SECT":" ","MAREA":" ","LANE":"４６７巷","ALLEY":"５弄","HOUSE_NO":"３０號","E_COORD97":169856.88,"N_COORD97":2545087.98,"ADDRESS":"勝利路４６７巷５弄３０號","OBJECTID":201335},"geometry":{"x":169856.88000000082,"y":2545087.9800000004}},{"attributes":{"ID":201337,"DIS_CODE":0,"TOWNNAME":"東區","LI":"裕聖里","LIN":"9鄰","STREET":"裕信路","SECT":" ","MAREA":" ","LANE":" ","ALLEY":" ","HOUSE_NO":"４０７號","E_COORD97":172597.14999999999,"N_COORD97":2541990.9399999999,"ADDRESS":"裕信路４０７號","OBJECTID":201336},"geometry":{"x":172597.1500000013,"y":2541990.9400000013}},{"attributes":{"ID":201338,"DIS_CODE":0,"TOWNNAME":"北區","LI":"中樓里","LIN":"20鄰","STREET":"勝利路","SECT":" ","MAREA":" ","LANE":"４６７巷","ALLEY":"５弄","HOUSE_NO":"４號","E_COORD97":169842.73000000001,"N_COORD97":2545106.52,"ADDRESS":"勝利路４６７巷５弄４號","OBJECTID":201337},"geometry":{"x":169842.73000000045,"y":2545106.5200000014}},{"attributes":{"ID":201339,"DIS_CODE":0,"TOWNNAME":"北區","LI":"中樓里","LIN":"20鄰","STREET":"勝利路","SECT":" ","MAREA":" ","LANE":"４６７巷","ALLEY":"５弄","HOUSE_NO":"６號","E_COORD97":169847.16,"N_COORD97":2545107.4399999999,"ADDRESS":"勝利路４６７巷５弄６號","OBJECTID":201338},"geometry":{"x":169847.16000000108,"y":2545107.4399999995}},{"attributes":{"ID":201340,"DIS_CODE":0,"TOWNNAME":"東區","LI":"裕聖里","LIN":"9鄰","STREET":"裕信路","SECT":" ","MAREA":" ","LANE":" ","ALLEY":" ","HOUSE_NO":"４３７號","E_COORD97":172579,"N_COORD97":2541913.4100000001,"ADDRESS":"裕信路４３７號","OBJECTID":201339},"geometry":{"x":172579.00000000093,"y":2541913.410000002}},{"attributes":{"ID":201341,"DIS_CODE":0,"TOWNNAME":"永康區","LI":"\u25A0行里","LIN":"15鄰","STREET":"中正南路","SECT":" ","MAREA":" ","LANE":" ","ALLEY":" ","HOUSE_NO":"７３６號","E_COORD97":171720.66,"N_COORD97":2548945.9900000002,"ADDRESS":"中正南路７３６號","OBJECTID":201340},"geometry":{"x":171720.66000000015,"y":2548945.9900000002}},{"attributes":{"ID":201342,"DIS_CODE":0,"TOWNNAME":"南區","LI":"彰南里","LIN":"19鄰","STREET":"新樂路","SECT":" ","MAREA":" ","LANE":" ","ALLEY":" ","HOUSE_NO":"６６號之１","E_COORD97":165427.47,"N_COORD97":2541232.5600000001,"ADDRESS":"新樂路６６號之１","OBJECTID":201341},"geometry":{"x":165427.46999999974,"y":2541232.5600000005}},{"attributes":{"ID":201343,"DIS_CODE":0,"TOWNNAME":"南區","LI":"彰南里","LIN":"19鄰","STREET":"新樂路","SECT":" ","MAREA":" ","LANE":" ","ALLEY":" ","HOUSE_NO":"６８號之３","E_COORD97":165400.39999999999,"N_COORD97":2541211.27,"ADDRESS":"新樂路６８號之３","OBJECTID":201342},"geometry":{"x":165400.40000000224,"y":2541211.2700000033}},{"attributes":{"ID":201344,"DIS_CODE":0,"TOWNNAME":"南區","LI":"彰南里","LIN":"19鄰","STREET":"新樂路","SECT":" ","MAREA":" ","LANE":" ","ALLEY":" ","HOUSE_NO":"７０號","E_COORD97":165366.25,"N_COORD97":2541178.4199999999,"ADDRESS":"新樂路７０號","OBJECTID":201343},"geometry":{"x":165366.25,"y":2541178.4200000018}},{"attributes":{"ID":201345,"DIS_CODE":0,"TOWNNAME":"北區","LI":"中樓里","LIN":"20鄰","STREET":"勝利路","SECT":" ","MAREA":" ","LANE":"４６７巷","ALLEY":"５弄","HOUSE_NO":"８號","E_COORD97":169851.79000000001,"N_COORD97":2545108.3700000001,"ADDRESS":"勝利路４６７巷５弄８號","OBJECTID":201344},"geometry":{"x":169851.79000000004,"y":2545108.3700000029}},{"attributes":{"ID":201346,"DIS_CODE":0,"TOWNNAME":"北區","LI":"成德里","LIN":"20鄰","STREET":"文成二路","SECT":" ","MAREA":" ","LANE":"２１２巷","ALLEY":"５弄","HOUSE_NO":"１號","E_COORD97":168463.01000000001,"N_COORD97":2546204.96,"ADDRESS":"文成二路２１２巷５弄１號","OBJECTID":201345},"geometry":{"x":168463.01000000071,"y":2546204.9600000009}},{"attributes":{"ID":201347,"DIS_CODE":0,"TOWNNAME":"北區","LI":"成德里","LIN":"20鄰","STREET":"文成二路","SECT":" ","MAREA":" ","LANE":"２１２巷","ALLEY":"５弄","HOUSE_NO":"２號","E_COORD97":168461.62,"N_COORD97":2546211.1800000002,"ADDRESS":"文成二路２１２巷５弄２號","OBJECTID":201346},"geometry":{"x":168461.62000000011,"y":2546211.1800000016}},{"attributes":{"ID":201348,"DIS_CODE":0,"TOWNNAME":"北區","LI":"成德里","LIN":"20鄰","STREET":"文成二路","SECT":" ","MAREA":" ","LANE":"２１２巷","ALLEY":"５弄","HOUSE_NO":"３號","E_COORD97":168456.54000000001,"N_COORD97":2546205.3399999999,"ADDRESS":"文成二路２１２巷５弄３號","OBJECTID":201347},"geometry":{"x":168456.54000000004,"y":2546205.3400000036}},{"attributes":{"ID":201349,"DIS_CODE":0,"TOWNNAME":"北區","LI":"成德里","LIN":"20鄰","STREET":"文成二路","SECT":" ","MAREA":" ","LANE":"２１２巷","ALLEY":"５弄","HOUSE_NO":"５號","E_COORD97":168450.57000000001,"N_COORD97":2546205.8399999999,"ADDRESS":"文成二路２１２巷５弄５號","OBJECTID":201348},"geometry":{"x":168450.57000000216,"y":2546205.8400000017}},{"attributes":{"ID":201350,"DIS_CODE":0,"TOWNNAME":"北區","LI":"成德里","LIN":"20鄰","STREET":"文成二路","SECT":" ","MAREA":" ","LANE":"２１２巷","ALLEY":"５弄","HOUSE_NO":"６號","E_COORD97":168456.03,"N_COORD97":2546211.5600000001,"ADDRESS":"文成二路２１２巷５弄６號","OBJECTID":201349},"geometry":{"x":168456.03000000119,"y":2546211.5600000024}},{"attributes":{"ID":201351,"DIS_CODE":0,"TOWNNAME":"北區","LI":"成德里","LIN":"20鄰","STREET":"文成二路","SECT":" ","MAREA":" ","LANE":"２１２巷","ALLEY":"５弄","HOUSE_NO":"７號","E_COORD97":168444.22,"N_COORD97":2546206.23,"ADDRESS":"文成二路２１２巷５弄７號","OBJECTID":201350},"geometry":{"x":168444.22000000067,"y":2546206.2300000004}},{"attributes":{"ID":201352,"DIS_CODE":0,"TOWNNAME":"北區","LI":"成德里","LIN":"20鄰","STREET":"文成二路","SECT":" ","MAREA":" ","LANE":"２１２巷","ALLEY":"５弄","HOUSE_NO":"８號","E_COORD97":168450.31,"N_COORD97":2546211.8100000001,"ADDRESS":"文成二路２１２巷５弄８號","OBJECTID":201351},"geometry":{"x":168450.31000000052,"y":2546211.8100000005}},{"attributes":{"ID":201353,"DIS_CODE":0,"TOWNNAME":"北區","LI":"成德里","LIN":"20鄰","STREET":"文成二路","SECT":" ","MAREA":" ","LANE":"２１２巷","ALLEY":"５弄","HOUSE_NO":"９號","E_COORD97":168437.73999999999,"N_COORD97":2546206.1000000001,"ADDRESS":"文成二路２１２巷５弄９號","OBJECTID":201352},"geometry":{"x":168437.74000000115,"y":2546206.0999999996}},{"attributes":{"ID":201354,"DIS_CODE":0,"TOWNNAME":"北區","LI":"成德里","LIN":"20鄰","STREET":"文成二路","SECT":" ","MAREA":" ","LANE":"２１２巷","ALLEY":"５弄","HOUSE_NO":"１０號","E_COORD97":168444.09,"N_COORD97":2546211.8100000001,"ADDRESS":"文成二路２１２巷５弄１０號","OBJECTID":201353},"geometry":{"x":168444.08999999985,"y":2546211.8100000005}},{"attributes":{"ID":201355,"DIS_CODE":0,"TOWNNAME":"南區","LI":"彰南里","LIN":"19鄰","STREET":"新樂路","SECT":" ","MAREA":" ","LANE":" ","ALLEY":" ","HOUSE_NO":"８號","E_COORD97":165694.92000000001,"N_COORD97":2542191.1000000001,"ADDRESS":"新樂路８號","OBJECTID":201354},"geometry":{"x":165694.92000000086,"y":2542191.0999999996}},{"attributes":{"ID":201356,"DIS_CODE":0,"TOWNNAME":"南區","LI":"廣州里","LIN":"4鄰","STREET":"夏林路","SECT":" ","MAREA":" ","LANE":" ","ALLEY":" ","HOUSE_NO":"１號","E_COORD97":167481.20999999999,"N_COORD97":2543100.3500000001,"ADDRESS":"夏林路１號","OBJECTID":201355},"geometry":{"x":167481.21000000183,"y":2543100.3500000015}},{"attributes":{"ID":201357,"DIS_CODE":0,"TOWNNAME":"大內區","LI":"石城里","LIN":"8鄰","STREET":" ","SECT":" ","MAREA":"石子瀨","LANE":" ","ALLEY":" ","HOUSE_NO":"７３號","E_COORD97":184219.12,"N_COORD97":2557868.25,"ADDRESS":"石子瀨７３號","OBJECTID":201356},"geometry":{"x":184219.12000000104,"y":2557868.25}},{"attributes":{"ID":201358,"DIS_CODE":0,"TOWNNAME":"七股區","LI":"竹港里","LIN":"9鄰","STREET":" ","SECT":" ","MAREA":"竹港","LANE":" ","ALLEY":" ","HOUSE_NO":"８５號","E_COORD97":165007.78,"N_COORD97":2556171.7999999998,"ADDRESS":"竹港８５號","OBJECTID":201357},"geometry":{"x":165007.78000000212,"y":2556171.8000000026}},{"attributes":{"ID":201359,"DIS_CODE":0,"TOWNNAME":"東區","LI":"成大里","LIN":"9鄰","STREET":"民族路","SECT":"一段","MAREA":" ","LANE":" ","ALLEY":" ","HOUSE_NO":"２０號","E_COORD97":169533.01000000001,"N_COORD97":2543872.48,"ADDRESS":"民族路一段２０號","OBJECTID":201358},"geometry":{"x":169533.00999999978,"y":2543872.4800000042}},{"attributes":{"ID":201360,"DIS_CODE":0,"TOWNNAME":"北區","LI":"成德里","LIN":"20鄰","STREET":"文成二路","SECT":" ","MAREA":" ","LANE":"２１２巷","ALLEY":"５弄","HOUSE_NO":"１１號","E_COORD97":168430.88,"N_COORD97":2546206.48,"ADDRESS":"文成二路２１２巷５弄１１號","OBJECTID":201359},"geometry":{"x":168430.87999999896,"y":2546206.4800000023}},{"attributes":{"ID":201361,"DIS_CODE":0,"TOWNNAME":"七股區","LI":"義合里","LIN":"9鄰","STREET":" ","SECT":" ","MAREA":"義合","LANE":" ","ALLEY":" ","HOUSE_NO":"６７號之１","E_COORD97":162267.26000000001,"N_COORD97":2555850.96,"ADDRESS":"義合６７號之１","OBJECTID":201360},"geometry":{"x":162267.25999999978,"y":2555850.959999999}},{"attributes":{"ID":201362,"DIS_CODE":0,"TOWNNAME":"七股區","LI":"義合里","LIN":"9鄰","STREET":" ","SECT":" ","MAREA":"義合","LANE":" ","ALLEY":" ","HOUSE_NO":"６８號之２","E_COORD97":162231.03,"N_COORD97":2555702.0299999998,"ADDRESS":"義合６８號之２","OBJECTID":201361},"geometry":{"x":162231.03000000212,"y":2555702.0299999993}},{"attributes":{"ID":201363,"DIS_CODE":0,"TOWNNAME":"七股區","LI":"義合里","LIN":"9鄰","STREET":" ","SECT":" ","MAREA":"義合","LANE":" ","ALLEY":" ","HOUSE_NO":"６９號","E_COORD97":162233.14000000001,"N_COORD97":2555776.2000000002,"ADDRESS":"義合６９號","OBJECTID":201362},"geometry":{"x":162233.14000000153,"y":2555776.1999999993}},{"attributes":{"ID":201364,"DIS_CODE":0,"TOWNNAME":"七股區","LI":"義合里","LIN":"9鄰","STREET":" ","SECT":" ","MAREA":"義合","LANE":" ","ALLEY":" ","HOUSE_NO":"７２號","E_COORD97":162184.28,"N_COORD97":2555819.6800000002,"ADDRESS":"義合７２號","OBJECTID":201363},"geometry":{"x":162184.28000000119,"y":2555819.6799999997}},{"attributes":{"ID":201365,"DIS_CODE":0,"TOWNNAME":"七股區","LI":"義合里","LIN":"9鄰","STREET":" ","SECT":" ","MAREA":"義合","LANE":" ","ALLEY":" ","HOUSE_NO":"７３號之１","E_COORD97":162213,"N_COORD97":2555803.8900000001,"ADDRESS":"義合７３號之１","OBJECTID":201364},"geometry":{"x":162213.00000000093,"y":2555803.8900000043}},{"attributes":{"ID":201366,"DIS_CODE":0,"TOWNNAME":"七股區","LI":"義合里","LIN":"9鄰","STREET":" ","SECT":" ","MAREA":"義合","LANE":" ","ALLEY":" ","HOUSE_NO":"７３號之２","E_COORD97":162215.12,"N_COORD97":2555836.6099999999,"ADDRESS":"義合７３號之２","OBJECTID":201365},"geometry":{"x":162215.12000000197,"y":2555836.6100000013}},{"attributes":{"ID":201367,"DIS_CODE":0,"TOWNNAME":"七股區","LI":"義合里","LIN":"9鄰","STREET":" ","SECT":" ","MAREA":"義合","LANE":" ","ALLEY":" ","HOUSE_NO":"７３號之３","E_COORD97":162219.70999999999,"N_COORD97":2555836.3500000001,"ADDRESS":"義合７３號之３","OBJECTID":201366},"geometry":{"x":162219.71000000089,"y":2555836.3499999996}},{"attributes":{"ID":201368,"DIS_CODE":0,"TOWNNAME":"七股區","LI":"義合里","LIN":"9鄰","STREET":" ","SECT":" ","MAREA":"義合","LANE":" ","ALLEY":" ","HOUSE_NO":"７３號之４","E_COORD97":162224.62,"N_COORD97":2555836.29,"ADDRESS":"義合７３號之４","OBJECTID":201367},"geometry":{"x":162224.62000000011,"y":2555836.2899999991}},{"attributes":{"ID":201369,"DIS_CODE":0,"TOWNNAME":"七股區","LI":"義合里","LIN":"9鄰","STREET":" ","SECT":" ","MAREA":"義合","LANE":" ","ALLEY":" ","HOUSE_NO":"７３號","E_COORD97":162210.04999999999,"N_COORD97":2555836.9900000002,"ADDRESS":"義合７３號","OBJECTID":201368},"geometry":{"x":162210.05000000168,"y":2555836.9900000021}},{"attributes":{"ID":201370,"DIS_CODE":0,"TOWNNAME":"七股區","LI":"義合里","LIN":"9鄰","STREET":" ","SECT":" ","MAREA":"義合","LANE":" ","ALLEY":" ","HOUSE_NO":"７４號之１２","E_COORD97":162255.51999999999,"N_COORD97":2555892.8999999999,"ADDRESS":"義合７４號之１２","OBJECTID":201369},"geometry":{"x":162255.51999999955,"y":2555892.9000000022}},{"attributes":{"ID":201371,"DIS_CODE":0,"TOWNNAME":"七股區","LI":"義合里","LIN":"9鄰","STREET":" ","SECT":" ","MAREA":"義合","LANE":" ","ALLEY":" ","HOUSE_NO":"７４號之１","E_COORD97":162190.98000000001,"N_COORD97":2555859.5699999998,"ADDRESS":"義合７４號之１","OBJECTID":201370},"geometry":{"x":162190.98000000231,"y":2555859.5700000003}},{"attributes":{"ID":201372,"DIS_CODE":0,"TOWNNAME":"七股區","LI":"義合里","LIN":"9鄰","STREET":" ","SECT":" ","MAREA":"義合","LANE":" ","ALLEY":" ","HOUSE_NO":"７４號之２","E_COORD97":162136.20000000001,"N_COORD97":2555864.0600000001,"ADDRESS":"義合７４號之２","OBJECTID":201371},"geometry":{"x":162136.20000000019,"y":2555864.0600000024}},{"attributes":{"ID":201373,"DIS_CODE":0,"TOWNNAME":"七股區","LI":"義合里","LIN":"9鄰","STREET":" ","SECT":" ","MAREA":"義合","LANE":" ","ALLEY":" ","HOUSE_NO":"７４號之５","E_COORD97":162197.44,"N_COORD97":2555859.6000000001,"ADDRESS":"義合７４號之５","OBJECTID":201372},"geometry":{"x":162197.44000000041,"y":2555859.6000000015}},{"attributes":{"ID":201374,"DIS_CODE":0,"TOWNNAME":"七股區","LI":"義合里","LIN":"9鄰","STREET":" ","SECT":" ","MAREA":"義合","LANE":" ","ALLEY":" ","HOUSE_NO":"７４號之６","E_COORD97":162202.81,"N_COORD97":2555859.9700000002,"ADDRESS":"義合７４號之６","OBJECTID":201373},"geometry":{"x":162202.80999999959,"y":2555859.9700000007}},{"attributes":{"ID":201375,"DIS_CODE":0,"TOWNNAME":"北區","LI":"成德里","LIN":"20鄰","STREET":"文成二路","SECT":" ","MAREA":" ","LANE":"２１２巷","ALLEY":"５弄","HOUSE_NO":"１２號","E_COORD97":168437.35999999999,"N_COORD97":2546211.9399999999,"ADDRESS":"文成二路２１２巷５弄１２號","OBJECTID":201374},"geometry":{"x":168437.36000000127,"y":2546211.9400000013}},{"attributes":{"ID":201376,"DIS_CODE":0,"TOWNNAME":"七股區","LI":"義合里","LIN":"9鄰","STREET":" ","SECT":" ","MAREA":"義合","LANE":" ","ALLEY":" ","HOUSE_NO":"７４號之７","E_COORD97":162217.79999999999,"N_COORD97":2555872.5099999998,"ADDRESS":"義合７４號之７","OBJECTID":201375},"geometry":{"x":162217.79999999981,"y":2555872.5099999998}},{"attributes":{"ID":201377,"DIS_CODE":0,"TOWNNAME":"北區","LI":"成德里","LIN":"20鄰","STREET":"文成二路","SECT":" ","MAREA":" ","LANE":"２１２巷","ALLEY":"５弄","HOUSE_NO":"１３號","E_COORD97":168424.28,"N_COORD97":2546206.73,"ADDRESS":"文成二路２１２巷５弄１３號","OBJECTID":201376},"geometry":{"x":168424.28000000119,"y":2546206.7300000042}},{"attributes":{"ID":201378,"DIS_CODE":0,"TOWNNAME":"七股區","LI":"城內里","LIN":"9鄰","STREET":" ","SECT":" ","MAREA":"城內","LANE":" ","ALLEY":" ","HOUSE_NO":"７５號","E_COORD97":161663.23999999999,"N_COORD97":2564382.02,"ADDRESS":"城內７５號","OBJECTID":201377},"geometry":{"x":161663.24000000022,"y":2564382.0199999996}},{"attributes":{"ID":201379,"DIS_CODE":0,"TOWNNAME":"北區","LI":"成德里","LIN":"20鄰","STREET":"文成二路","SECT":" ","MAREA":" ","LANE":"２１２巷","ALLEY":"５弄","HOUSE_NO":"１５號","E_COORD97":168417.29000000001,"N_COORD97":2546206.8599999999,"ADDRESS":"文成二路２１２巷５弄１５號","OBJECTID":201378},"geometry":{"x":168417.29000000097,"y":2546206.8599999994}},{"attributes":{"ID":201380,"DIS_CODE":0,"TOWNNAME":"北區","LI":"成德里","LIN":"20鄰","STREET":"文成二路","SECT":" ","MAREA":" ","LANE":"２１２巷","ALLEY":"５弄","HOUSE_NO":"１６號","E_COORD97":168430.63,"N_COORD97":2546212.1899999999,"ADDRESS":"文成二路２１２巷５弄１６號","OBJECTID":201379},"geometry":{"x":168430.62999999989,"y":2546212.1899999995}},{"attributes":{"ID":201381,"DIS_CODE":0,"TOWNNAME":"七股區","LI":"城內里","LIN":"9鄰","STREET":" ","SECT":" ","MAREA":"城內","LANE":" ","ALLEY":" ","HOUSE_NO":"７６號","E_COORD97":161643.39000000001,"N_COORD97":2564399.04,"ADDRESS":"城內７６號","OBJECTID":201380},"geometry":{"x":161643.3900000006,"y":2564399.0399999972}},{"attributes":{"ID":201382,"DIS_CODE":0,"TOWNNAME":"北區","LI":"成德里","LIN":"20鄰","STREET":"文成二路","SECT":" ","MAREA":" ","LANE":"２１２巷","ALLEY":"５弄","HOUSE_NO":"１７號","E_COORD97":168410.44,"N_COORD97":2546207.3700000001,"ADDRESS":"文成二路２１２巷５弄１７號","OBJECTID":201381},"geometry":{"x":168410.44000000041,"y":2546207.3700000029}},{"attributes":{"ID":201383,"DIS_CODE":0,"TOWNNAME":"北區","LI":"成德里","LIN":"20鄰","STREET":"文成二路","SECT":" ","MAREA":" ","LANE":"２１２巷","ALLEY":"５弄","HOUSE_NO":"１８號","E_COORD97":168424.03,"N_COORD97":2546212.4500000002,"ADDRESS":"文成二路２１２巷５弄１８號","OBJECTID":201382},"geometry":{"x":168424.03000000119,"y":2546212.4499999993}},{"attributes":{"ID":201384,"DIS_CODE":0,"TOWNNAME":"永康區","LI":"\u25A0行里","LIN":"24鄰","STREET":"中正南路","SECT":" ","MAREA":" ","LANE":" ","ALLEY":" ","HOUSE_NO":"６４０號之１","E_COORD97":171508.45000000001,"N_COORD97":2548750.04,"ADDRESS":"中正南路６４０號之１","OBJECTID":201383},"geometry":{"x":171508.45000000019,"y":2548750.040000001}},{"attributes":{"ID":201385,"DIS_CODE":0,"TOWNNAME":"北區","LI":"成德里","LIN":"20鄰","STREET":"文成二路","SECT":" ","MAREA":" ","LANE":"２１２巷","ALLEY":"５弄","HOUSE_NO":"１９號","E_COORD97":168403.07000000001,"N_COORD97":2546207.6200000001,"ADDRESS":"文成二路２１２巷５弄１９號","OBJECTID":201384},"geometry":{"x":168403.07000000216,"y":2546207.620000001}},{"attributes":{"ID":201386,"DIS_CODE":0,"TOWNNAME":"北區","LI":"成德里","LIN":"20鄰","STREET":"文成二路","SECT":" ","MAREA":" ","LANE":"２１２巷","ALLEY":"５弄","HOUSE_NO":"２０號","E_COORD97":168416.91,"N_COORD97":2546212.5800000001,"ADDRESS":"文成二路２１２巷５弄２０號","OBJECTID":201385},"geometry":{"x":168416.91000000015,"y":2546212.5800000001}},{"attributes":{"ID":201387,"DIS_CODE":0,"TOWNNAME":"北區","LI":"成德里","LIN":"20鄰","STREET":"文成二路","SECT":" ","MAREA":" ","LANE":"２１２巷","ALLEY":"５弄","HOUSE_NO":"２２號","E_COORD97":168410.06,"N_COORD97":2546212.8300000001,"ADDRESS":"文成二路２１２巷５弄２２號","OBJECTID":201386},"geometry":{"x":168410.05999999959,"y":2546212.8300000019}},{"attributes":{"ID":201388,"DIS_CODE":0,"TOWNNAME":"北區","LI":"成德里","LIN":"20鄰","STREET":"文成二路","SECT":" ","MAREA":" ","LANE":"２１２巷","ALLEY":"５弄","HOUSE_NO":"２６號","E_COORD97":168402.69,"N_COORD97":2546213.0800000001,"ADDRESS":"文成二路２１２巷５弄２６號","OBJECTID":201387},"geometry":{"x":168402.69000000134,"y":2546213.0800000001}},{"attributes":{"ID":201389,"DIS_CODE":0,"TOWNNAME":"北區","LI":"成德里","LIN":"20鄰","STREET":"文成二路","SECT":" ","MAREA":" ","LANE":"２１２巷","ALLEY":"５弄","HOUSE_NO":"２８號","E_COORD97":168395.70000000001,"N_COORD97":2546213.0800000001,"ADDRESS":"文成二路２１２巷５弄２８號","OBJECTID":201388},"geometry":{"x":168395.70000000112,"y":2546213.0800000001}},{"attributes":{"ID":201390,"DIS_CODE":0,"TOWNNAME":"永康區","LI":"永康里","LIN":"21鄰","STREET":"中山南路","SECT":" ","MAREA":" ","LANE":" ","ALLEY":" ","HOUSE_NO":"９４８號","E_COORD97":173664.17000000001,"N_COORD97":2547028.25,"ADDRESS":"中山南路９４８號","OBJECTID":201389},"geometry":{"x":173664.17000000086,"y":2547028.25}},{"attributes":{"ID":201391,"DIS_CODE":0,"TOWNNAME":"七股區","LI":"義合里","LIN":"9鄰","STREET":" ","SECT":" ","MAREA":"義合","LANE":" ","ALLEY":" ","HOUSE_NO":"６４號之４","E_COORD97":162306.10999999999,"N_COORD97":2555729.1299999999,"ADDRESS":"義合６４號之４","OBJECTID":201390},"geometry":{"x":162306.11000000034,"y":2555729.1300000027}},{"attributes":{"ID":201392,"DIS_CODE":0,"TOWNNAME":"永康區","LI":"甲頂里","LIN":" ","STREET":"大武街","SECT":" ","MAREA":" ","LANE":" ","ALLEY":" ","HOUSE_NO":"３１號","E_COORD97":170299.35999999999,"N_COORD97":2546711.7400000002,"ADDRESS":"大武街３１號","OBJECTID":201391},"geometry":{"x":170299.36000000034,"y":2546711.7400000021}},{"attributes":{"ID":201393,"DIS_CODE":0,"TOWNNAME":"七股區","LI":"義合里","LIN":"9鄰","STREET":" ","SECT":" ","MAREA":"義合","LANE":" ","ALLEY":" ","HOUSE_NO":"６４號之５","E_COORD97":162305.45999999999,"N_COORD97":2555725.2599999998,"ADDRESS":"義合６４號之５","OBJECTID":201392},"geometry":{"x":162305.45999999996,"y":2555725.2599999998}},{"attributes":{"ID":201394,"DIS_CODE":0,"TOWNNAME":"七股區","LI":"義合里","LIN":"9鄰","STREET":" ","SECT":" ","MAREA":"義合","LANE":" ","ALLEY":" ","HOUSE_NO":"６５號之１０","E_COORD97":162328.45999999999,"N_COORD97":2555624.9900000002,"ADDRESS":"義合６５號之１０","OBJECTID":201393},"geometry":{"x":162328.46000000089,"y":2555624.9900000002}},{"attributes":{"ID":201395,"DIS_CODE":0,"TOWNNAME":"七股區","LI":"義合里","LIN":"9鄰","STREET":" ","SECT":" ","MAREA":"義合","LANE":" ","ALLEY":" ","HOUSE_NO":"６５號","E_COORD97":162302.67000000001,"N_COORD97":2555716.9199999999,"ADDRESS":"義合６５號","OBJECTID":201394},"geometry":{"x":162302.67000000179,"y":2555716.9199999999}},{"attributes":{"ID":201396,"DIS_CODE":0,"TOWNNAME":"永康區","LI":"\u25A0行里","LIN":"13鄰","STREET":"中正南路","SECT":" ","MAREA":" ","LANE":" ","ALLEY":" ","HOUSE_NO":"７８２號","E_COORD97":171801.64000000001,"N_COORD97":2549010.25,"ADDRESS":"中正南路７８２號","OBJECTID":201395},"geometry":{"x":171801.63999999966,"y":2549010.2500000019}},{"attributes":{"ID":201397,"DIS_CODE":0,"TOWNNAME":"永康區","LI":"\u25A0洲里","LIN":"7鄰","STREET":"三村二街","SECT":" ","MAREA":" ","LANE":" ","ALLEY":" ","HOUSE_NO":"６２號","E_COORD97":171843.34,"N_COORD97":2549484.2400000002,"ADDRESS":"三村二街６２號","OBJECTID":201396},"geometry":{"x":171843.33999999985,"y":2549484.2400000002}},{"attributes":{"ID":201398,"DIS_CODE":0,"TOWNNAME":"北區","LI":"成德里","LIN":"20鄰","STREET":"文成二路","SECT":" ","MAREA":" ","LANE":"２１２巷","ALLEY":"５弄","HOUSE_NO":"３０號","E_COORD97":168388.85000000001,"N_COORD97":2546213.46,"ADDRESS":"文成二路２１２巷５弄３０號","OBJECTID":201397},"geometry":{"x":168388.85000000056,"y":2546213.4600000028}},{"attributes":{"ID":201399,"DIS_CODE":0,"TOWNNAME":"北區","LI":"成德里","LIN":"20鄰","STREET":"文成二路","SECT":" ","MAREA":" ","LANE":"２１２巷","ALLEY":"９弄","HOUSE_NO":"２號","E_COORD97":168454.76000000001,"N_COORD97":2546239.1200000001,"ADDRESS":"文成二路２１２巷９弄２號","OBJECTID":201398},"geometry":{"x":168454.75999999978,"y":2546239.1200000029}},{"attributes":{"ID":201400,"DIS_CODE":0,"TOWNNAME":"北區","LI":"成德里","LIN":"20鄰","STREET":"文成二路","SECT":" ","MAREA":" ","LANE":"２１２巷","ALLEY":"９弄","HOUSE_NO":"３號","E_COORD97":168450.06,"N_COORD97":2546232.77,"ADDRESS":"文成二路２１２巷９弄３號","OBJECTID":201399},"geometry":{"x":168450.06000000052,"y":2546232.7700000014}},{"attributes":{"ID":201401,"DIS_CODE":0,"TOWNNAME":"永康區","LI":"\u25A0行里","LIN":"16鄰","STREET":"中正六街","SECT":" ","MAREA":" ","LANE":" ","ALLEY":" ","HOUSE_NO":"２５８號","E_COORD97":171923.51999999999,"N_COORD97":2548896.0800000001,"ADDRESS":"中正六街２５８號","OBJECTID":201400},"geometry":{"x":171923.52000000142,"y":2548896.0800000019}}]}