{"displayFieldName":"TOWNNAME","fieldAliases":{"ID":"ID","DIS_CODE":"DIS_CODE","TOWNNAME":"TOWNNAME","LI":"LI","LIN":"LIN","STREET":"STREET","SECT":"SECT","MAREA":"MAREA","LANE":"LANE","ALLEY":"ALLEY","HOUSE_NO":"HOUSE_NO","E_COORD97":"E_COORD97","N_COORD97":"N_COORD97","ADDRESS":"ADDRESS","OBJECTID":"OBJECTID"},"geometryType":"esriGeometryPoint","spatialReference":{"wkid":102443,"latestWkid":3826},"fields":[{"name":"ID","type":"esriFieldTypeDouble","alias":"ID"},{"name":"DIS_CODE","type":"esriFieldTypeInteger","alias":"DIS_CODE"},{"name":"TOWNNAME","type":"esriFieldTypeString","alias":"TOWNNAME","length":8},{"name":"LI","type":"esriFieldTypeString","alias":"LI","length":8},{"name":"LIN","type":"esriFieldTypeString","alias":"LIN","length":12},{"name":"STREET","type":"esriFieldTypeString","alias":"STREET","length":20},{"name":"SECT","type":"esriFieldTypeString","alias":"SECT","length":8},{"name":"MAREA","type":"esriFieldTypeString","alias":"MAREA","length":12},{"name":"LANE","type":"esriFieldTypeString","alias":"LANE","length":10},{"name":"ALLEY","type":"esriFieldTypeString","alias":"ALLEY","length":10},{"name":"HOUSE_NO","type":"esriFieldTypeString","alias":"HOUSE_NO","length":20},{"name":"E_COORD97","type":"esriFieldTypeDouble","alias":"E_COORD97"},{"name":"N_COORD97","type":"esriFieldTypeDouble","alias":"N_COORD97"},{"name":"ADDRESS","type":"esriFieldTypeString","alias":"ADDRESS","length":50},{"name":"OBJECTID","type":"esriFieldTypeOID","alias":"OBJECTID"}],"features":[{"attributes":{"ID":169402,"DIS_CODE":0,"TOWNNAME":"南區","LI":"喜東里","LIN":"4鄰","STREET":"明興路","SECT":" ","MAREA":" ","LANE":" ","ALLEY":" ","HOUSE_NO":"４１８號","E_COORD97":166291.32000000001,"N_COORD97":2538817.0699999998,"ADDRESS":"明興路４１８號","OBJECTID":169401},"geometry":{"x":166291.32000000123,"y":2538817.0700000022}},{"attributes":{"ID":169403,"DIS_CODE":0,"TOWNNAME":"南區","LI":"喜東里","LIN":"4鄰","STREET":"明興路","SECT":" ","MAREA":" ","LANE":" ","ALLEY":" ","HOUSE_NO":"４２０號","E_COORD97":166290.23000000001,"N_COORD97":2538812.7999999998,"ADDRESS":"明興路４２０號","OBJECTID":169402},"geometry":{"x":166290.23000000138,"y":2538812.8000000026}},{"attributes":{"ID":169404,"DIS_CODE":0,"TOWNNAME":"安南區","LI":"新順里","LIN":" ","STREET":"安和路","SECT":"二段","MAREA":" ","LANE":"３１８巷","ALLEY":"３８弄","HOUSE_NO":"６號","E_COORD97":169822.13,"N_COORD97":2549253.5899999999,"ADDRESS":"安和路二段３１８巷３８弄６號","OBJECTID":169403},"geometry":{"x":169822.12999999989,"y":2549253.5899999999}},{"attributes":{"ID":169405,"DIS_CODE":0,"TOWNNAME":"南區","LI":"喜東里","LIN":"4鄰","STREET":"明興路","SECT":" ","MAREA":" ","LANE":" ","ALLEY":" ","HOUSE_NO":"４２２號","E_COORD97":166288.57999999999,"N_COORD97":2538808.6400000001,"ADDRESS":"明興路４２２號","OBJECTID":169404},"geometry":{"x":166288.58000000007,"y":2538808.6400000006}},{"attributes":{"ID":169406,"DIS_CODE":0,"TOWNNAME":"南區","LI":"喜東里","LIN":"4鄰","STREET":"明興路","SECT":" ","MAREA":" ","LANE":" ","ALLEY":" ","HOUSE_NO":"４２４號","E_COORD97":166281.79000000001,"N_COORD97":2538804.7799999998,"ADDRESS":"明興路４２４號","OBJECTID":169405},"geometry":{"x":166281.79000000004,"y":2538804.7800000012}},{"attributes":{"ID":169407,"DIS_CODE":0,"TOWNNAME":"新化區","LI":"北勢里","LIN":"6鄰","STREET":" ","SECT":" ","MAREA":"北勢","LANE":" ","ALLEY":" ","HOUSE_NO":"１１０號","E_COORD97":177271.67999999999,"N_COORD97":2549792.2599999998,"ADDRESS":"北勢１１０號","OBJECTID":169406},"geometry":{"x":177271.68000000063,"y":2549792.2599999998}},{"attributes":{"ID":169408,"DIS_CODE":0,"TOWNNAME":"西港區","LI":"西港里","LIN":"13鄰","STREET":" ","SECT":" ","MAREA":"西港","LANE":" ","ALLEY":" ","HOUSE_NO":"５０號之１６三樓之１","E_COORD97":168633.66,"N_COORD97":2557895.8999999999,"ADDRESS":"西港５０號之１６三樓之１","OBJECTID":169407},"geometry":{"x":168633.66000000015,"y":2557895.9000000022}},{"attributes":{"ID":169409,"DIS_CODE":0,"TOWNNAME":"西港區","LI":"西港里","LIN":"13鄰","STREET":" ","SECT":" ","MAREA":"西港","LANE":" ","ALLEY":" ","HOUSE_NO":"５０號之１６三樓之２","E_COORD97":168633.66,"N_COORD97":2557895.8999999999,"ADDRESS":"西港５０號之１６三樓之２","OBJECTID":169408},"geometry":{"x":168633.66000000015,"y":2557895.9000000022}},{"attributes":{"ID":169410,"DIS_CODE":0,"TOWNNAME":"安南區","LI":"溪心里","LIN":" ","STREET":"海佃路","SECT":"二段","MAREA":" ","LANE":"７７６巷","ALLEY":"２弄","HOUSE_NO":"２號","E_COORD97":166523.97,"N_COORD97":2549581.4100000001,"ADDRESS":"海佃路二段７７６巷２弄２號","OBJECTID":169409},"geometry":{"x":166523.97000000067,"y":2549581.4100000001}},{"attributes":{"ID":169411,"DIS_CODE":0,"TOWNNAME":"安南區","LI":"溪心里","LIN":"6鄰","STREET":"本原街","SECT":"二段","MAREA":" ","LANE":"１１６巷","ALLEY":"４７弄","HOUSE_NO":"２號之１","E_COORD97":166713.23000000001,"N_COORD97":2550986.23,"ADDRESS":"本原街二段１１６巷４７弄２號之１","OBJECTID":169410},"geometry":{"x":166713.23000000045,"y":2550986.2300000004}},{"attributes":{"ID":169412,"DIS_CODE":0,"TOWNNAME":"安南區","LI":"溪心里","LIN":"4鄰","STREET":"本原街","SECT":"二段","MAREA":" ","LANE":"１０６巷","ALLEY":"９７弄","HOUSE_NO":"１７之２號","E_COORD97":167057.59,"N_COORD97":2550991.4100000001,"ADDRESS":"本原街二段１０６巷９７弄１７之２號","OBJECTID":169411},"geometry":{"x":167057.58999999985,"y":2550991.4100000001}},{"attributes":{"ID":169413,"DIS_CODE":0,"TOWNNAME":"安南區","LI":"溪心里","LIN":"14鄰","STREET":"本原街","SECT":"二段","MAREA":" ","LANE":"５１０巷","ALLEY":"８弄","HOUSE_NO":"２號","E_COORD97":165882.39000000001,"N_COORD97":2550563.4900000002,"ADDRESS":"本原街二段５１０巷８弄２號","OBJECTID":169412},"geometry":{"x":165882.38999999966,"y":2550563.4900000002}},{"attributes":{"ID":169414,"DIS_CODE":0,"TOWNNAME":"安南區","LI":"溪心里","LIN":"14鄰","STREET":"本原街","SECT":"二段","MAREA":" ","LANE":"５１０巷","ALLEY":"８弄","HOUSE_NO":"４號","E_COORD97":165885.17999999999,"N_COORD97":2550566.1600000001,"ADDRESS":"本原街二段５１０巷８弄４號","OBJECTID":169413},"geometry":{"x":165885.1799999997,"y":2550566.1600000001}},{"attributes":{"ID":169415,"DIS_CODE":0,"TOWNNAME":"安南區","LI":"溪心里","LIN":"15鄰","STREET":"智安四街","SECT":" ","MAREA":" ","LANE":"１０５巷","ALLEY":"２弄","HOUSE_NO":"１０號","E_COORD97":166025.12,"N_COORD97":2550420.3799999999,"ADDRESS":"智安四街１０５巷２弄１０號","OBJECTID":169414},"geometry":{"x":166025.12000000011,"y":2550420.379999999}},{"attributes":{"ID":169416,"DIS_CODE":0,"TOWNNAME":"安南區","LI":"溪心里","LIN":"15鄰","STREET":"智安四街","SECT":" ","MAREA":" ","LANE":"１０５巷","ALLEY":"２弄","HOUSE_NO":"１２號","E_COORD97":166022.23999999999,"N_COORD97":2550423.54,"ADDRESS":"智安四街１０５巷２弄１２號","OBJECTID":169415},"geometry":{"x":166022.24000000115,"y":2550423.5399999991}},{"attributes":{"ID":169417,"DIS_CODE":0,"TOWNNAME":"安南區","LI":"溪北里","LIN":"13鄰","STREET":"府安路","SECT":"四段","MAREA":" ","LANE":"９１巷","ALLEY":"２２弄","HOUSE_NO":"８１號","E_COORD97":169314.10999999999,"N_COORD97":2547431.9300000002,"ADDRESS":"府安路四段９１巷２２弄８１號","OBJECTID":169416},"geometry":{"x":169314.11000000034,"y":2547431.9300000034}},{"attributes":{"ID":169418,"DIS_CODE":0,"TOWNNAME":"歸仁區","LI":"看東里","LIN":"12鄰","STREET":"忠孝南路","SECT":" ","MAREA":" ","LANE":" ","ALLEY":" ","HOUSE_NO":"４３號","E_COORD97":178522.95000000001,"N_COORD97":2540522.48,"ADDRESS":"忠孝南路４３號","OBJECTID":169417},"geometry":{"x":178522.95000000112,"y":2540522.4800000042}},{"attributes":{"ID":169419,"DIS_CODE":0,"TOWNNAME":"新營區","LI":"忠政里","LIN":"12鄰","STREET":"中正路","SECT":" ","MAREA":" ","LANE":" ","ALLEY":" ","HOUSE_NO":"９１號","E_COORD97":180069.17999999999,"N_COORD97":2579616.71,"ADDRESS":"中正路９１號","OBJECTID":169418},"geometry":{"x":180069.1799999997,"y":2579616.7100000028}},{"attributes":{"ID":169420,"DIS_CODE":0,"TOWNNAME":"南區","LI":"喜東里","LIN":"4鄰","STREET":"明興路","SECT":" ","MAREA":" ","LANE":" ","ALLEY":" ","HOUSE_NO":"５５０號","E_COORD97":166170,"N_COORD97":2538413.3100000001,"ADDRESS":"明興路５５０號","OBJECTID":169419},"geometry":{"x":166170,"y":2538413.3100000024}},{"attributes":{"ID":169421,"DIS_CODE":0,"TOWNNAME":"安南區","LI":"鹿耳里","LIN":"3鄰","STREET":"北汕尾二路","SECT":" ","MAREA":" ","LANE":"６６１巷","ALLEY":"２３弄","HOUSE_NO":"３４號","E_COORD97":160334.581657,"N_COORD97":2548566.6313999998,"ADDRESS":"北汕尾二路６６１巷２３弄３４號","OBJECTID":169420},"geometry":{"x":160334.58165699989,"y":2548566.6313960012}},{"attributes":{"ID":169422,"DIS_CODE":0,"TOWNNAME":"南區","LI":"喜東里","LIN":"5鄰","STREET":"喜樹路","SECT":" ","MAREA":" ","LANE":" ","ALLEY":" ","HOUSE_NO":"５５號","E_COORD97":165909.5,"N_COORD97":2538595.77,"ADDRESS":"喜樹路５５號","OBJECTID":169421},"geometry":{"x":165909.50000000186,"y":2538595.7699999996}},{"attributes":{"ID":169423,"DIS_CODE":0,"TOWNNAME":"南區","LI":"喜東里","LIN":"3鄰","STREET":"喜樹路","SECT":" ","MAREA":" ","LANE":" ","ALLEY":" ","HOUSE_NO":"１５號","E_COORD97":166316.81,"N_COORD97":2539029.75,"ADDRESS":"喜樹路１５號","OBJECTID":169422},"geometry":{"x":166316.80999999959,"y":2539029.7500000019}},{"attributes":{"ID":169424,"DIS_CODE":0,"TOWNNAME":"南區","LI":"喜東里","LIN":" ","STREET":"明興路","SECT":" ","MAREA":" ","LANE":" ","ALLEY":" ","HOUSE_NO":"６３３號","E_COORD97":166066.34,"N_COORD97":2537909.02,"ADDRESS":"明興路６３３號","OBJECTID":169423},"geometry":{"x":166066.33999999892,"y":2537909.0200000014}},{"attributes":{"ID":169425,"DIS_CODE":0,"TOWNNAME":"南區","LI":"喜東里","LIN":"6鄰","STREET":"喜樹路","SECT":" ","MAREA":" ","LANE":" ","ALLEY":" ","HOUSE_NO":"７９號","E_COORD97":165902.56,"N_COORD97":2538351.9399999999,"ADDRESS":"喜樹路７９號","OBJECTID":169424},"geometry":{"x":165902.56000000052,"y":2538351.9400000032}},{"attributes":{"ID":169426,"DIS_CODE":0,"TOWNNAME":"南區","LI":"喜東里","LIN":"6鄰","STREET":"喜樹路","SECT":" ","MAREA":" ","LANE":" ","ALLEY":" ","HOUSE_NO":"７９號之１","E_COORD97":165921.01000000001,"N_COORD97":2538352.4500000002,"ADDRESS":"喜樹路７９號之１","OBJECTID":169425},"geometry":{"x":165921.00999999885,"y":2538352.4500000011}},{"attributes":{"ID":169427,"DIS_CODE":0,"TOWNNAME":"南區","LI":"喜東里","LIN":"6鄰","STREET":"喜樹路","SECT":" ","MAREA":" ","LANE":" ","ALLEY":" ","HOUSE_NO":"８１號之２","E_COORD97":165903.26999999999,"N_COORD97":2538337.3999999999,"ADDRESS":"喜樹路８１號之２","OBJECTID":169426},"geometry":{"x":165903.26999999955,"y":2538337.4000000022}},{"attributes":{"ID":169428,"DIS_CODE":0,"TOWNNAME":"南區","LI":"喜東里","LIN":"6鄰","STREET":"喜樹路","SECT":" ","MAREA":" ","LANE":" ","ALLEY":" ","HOUSE_NO":"９７號","E_COORD97":165903.39000000001,"N_COORD97":2538305.3999999999,"ADDRESS":"喜樹路９７號","OBJECTID":169427},"geometry":{"x":165903.3900000006,"y":2538305.4000000004}},{"attributes":{"ID":169429,"DIS_CODE":0,"TOWNNAME":"南區","LI":"喜東里","LIN":"10鄰","STREET":"明興路","SECT":" ","MAREA":" ","LANE":" ","ALLEY":" ","HOUSE_NO":"６３７號","E_COORD97":166058.04999999999,"N_COORD97":2537887.0499999998,"ADDRESS":"明興路６３７號","OBJECTID":169428},"geometry":{"x":166058.04999999888,"y":2537887.0500000007}},{"attributes":{"ID":169430,"DIS_CODE":0,"TOWNNAME":"南區","LI":"喜東里","LIN":"3鄰","STREET":"喜樹路","SECT":" ","MAREA":" ","LANE":" ","ALLEY":" ","HOUSE_NO":"７號","E_COORD97":166333.64999999999,"N_COORD97":2539031.4300000002,"ADDRESS":"喜樹路７號","OBJECTID":169429},"geometry":{"x":166333.65000000037,"y":2539031.4300000016}},{"attributes":{"ID":169431,"DIS_CODE":0,"TOWNNAME":"南區","LI":"喜東里","LIN":"3鄰","STREET":"喜樹路","SECT":" ","MAREA":" ","LANE":" ","ALLEY":" ","HOUSE_NO":"９號","E_COORD97":166329.20000000001,"N_COORD97":2539031.0699999998,"ADDRESS":"喜樹路９號","OBJECTID":169430},"geometry":{"x":166329.20000000112,"y":2539031.0700000022}},{"attributes":{"ID":169432,"DIS_CODE":0,"TOWNNAME":"南區","LI":"喜東里","LIN":"3鄰","STREET":"明興路","SECT":" ","MAREA":" ","LANE":" ","ALLEY":" ","HOUSE_NO":"３２０號","E_COORD97":166355.48999999999,"N_COORD97":2539038.75,"ADDRESS":"明興路３２０號","OBJECTID":169431},"geometry":{"x":166355.49000000022,"y":2539038.7500000037}},{"attributes":{"ID":169433,"DIS_CODE":0,"TOWNNAME":"安南區","LI":"溪北里","LIN":"14鄰","STREET":"府安路","SECT":"四段","MAREA":" ","LANE":"９１巷","ALLEY":"２２弄","HOUSE_NO":"８０號","E_COORD97":169298.5,"N_COORD97":2547404.5899999999,"ADDRESS":"府安路四段９１巷２２弄８０號","OBJECTID":169432},"geometry":{"x":169298.50000000093,"y":2547404.5900000017}},{"attributes":{"ID":169434,"DIS_CODE":0,"TOWNNAME":"安南區","LI":"溪北里","LIN":"14鄰","STREET":"府安路","SECT":"四段","MAREA":" ","LANE":"９１巷","ALLEY":"２２弄","HOUSE_NO":"９０號","E_COORD97":169328.67000000001,"N_COORD97":2547417.1499999999,"ADDRESS":"府安路四段９１巷２２弄９０號","OBJECTID":169433},"geometry":{"x":169328.66999999993,"y":2547417.1499999985}},{"attributes":{"ID":169435,"DIS_CODE":0,"TOWNNAME":"永康區","LI":"崑山里","LIN":"18鄰","STREET":"大灣路","SECT":" ","MAREA":" ","LANE":"９４２巷","ALLEY":"１６弄","HOUSE_NO":"５號","E_COORD97":173678.92999999999,"N_COORD97":2544487.6600000001,"ADDRESS":"大灣路９４２巷１６弄５號","OBJECTID":169434},"geometry":{"x":173678.93000000063,"y":2544487.6599999983}},{"attributes":{"ID":169436,"DIS_CODE":0,"TOWNNAME":"南區","LI":"喜東里","LIN":" ","STREET":"喜樹路","SECT":" ","MAREA":" ","LANE":" ","ALLEY":" ","HOUSE_NO":"６３號","E_COORD97":165929.88,"N_COORD97":2538540.6299999999,"ADDRESS":"喜樹路６３號","OBJECTID":169435},"geometry":{"x":165929.87999999989,"y":2538540.6300000008}},{"attributes":{"ID":169437,"DIS_CODE":0,"TOWNNAME":"南區","LI":"喜南里","LIN":" ","STREET":"喜樹路","SECT":" ","MAREA":" ","LANE":" ","ALLEY":" ","HOUSE_NO":"１６３號之１","E_COORD97":165736.97,"N_COORD97":2537967.4700000002,"ADDRESS":"喜樹路１６３號之１","OBJECTID":169436},"geometry":{"x":165736.97000000067,"y":2537967.4700000025}},{"attributes":{"ID":169438,"DIS_CODE":0,"TOWNNAME":"南區","LI":"喜南里","LIN":" ","STREET":"喜樹路","SECT":" ","MAREA":" ","LANE":" ","ALLEY":" ","HOUSE_NO":"２５０號","E_COORD97":165690.67999999999,"N_COORD97":2537937.4199999999,"ADDRESS":"喜樹路２５０號","OBJECTID":169437},"geometry":{"x":165690.6799999997,"y":2537937.4199999999}},{"attributes":{"ID":169439,"DIS_CODE":0,"TOWNNAME":"永康區","LI":"南灣里","LIN":"24鄰","STREET":"大灣一街","SECT":" ","MAREA":" ","LANE":" ","ALLEY":" ","HOUSE_NO":"１０１號","E_COORD97":174470.07000000001,"N_COORD97":2544717.6299999999,"ADDRESS":"大灣一街１０１號","OBJECTID":169438},"geometry":{"x":174470.07000000216,"y":2544717.6300000008}},{"attributes":{"ID":169440,"DIS_CODE":0,"TOWNNAME":"新化區","LI":"唪口里","LIN":"8鄰","STREET":" ","SECT":" ","MAREA":"唪口","LANE":" ","ALLEY":" ","HOUSE_NO":"９４號","E_COORD97":177965.79999999999,"N_COORD97":2549101.25,"ADDRESS":"唪口９４號","OBJECTID":169439},"geometry":{"x":177965.80000000075,"y":2549101.2500000037}},{"attributes":{"ID":169441,"DIS_CODE":0,"TOWNNAME":"西港區","LI":"西港里","LIN":"13鄰","STREET":" ","SECT":" ","MAREA":"西港","LANE":" ","ALLEY":" ","HOUSE_NO":"５０號之１６三樓之３","E_COORD97":168633.66,"N_COORD97":2557895.8999999999,"ADDRESS":"西港５０號之１６三樓之３","OBJECTID":169440},"geometry":{"x":168633.66000000015,"y":2557895.9000000022}},{"attributes":{"ID":169442,"DIS_CODE":0,"TOWNNAME":"永康區","LI":"勝利里","LIN":"25鄰","STREET":"中華路","SECT":" ","MAREA":" ","LANE":"１５５巷","ALLEY":"３４弄","HOUSE_NO":"４號","E_COORD97":171442.54000000001,"N_COORD97":2544845.9900000002,"ADDRESS":"中華路１５５巷３４弄４號","OBJECTID":169441},"geometry":{"x":171442.5400000019,"y":2544845.9900000021}},{"attributes":{"ID":169443,"DIS_CODE":0,"TOWNNAME":"永康區","LI":"勝利里","LIN":"24鄰","STREET":"勝利街","SECT":" ","MAREA":" ","LANE":"１１６巷","ALLEY":"１２弄","HOUSE_NO":"１０號","E_COORD97":171405.26999999999,"N_COORD97":2544840.77,"ADDRESS":"勝利街１１６巷１２弄１０號","OBJECTID":169442},"geometry":{"x":171405.27000000048,"y":2544840.7699999996}},{"attributes":{"ID":169444,"DIS_CODE":0,"TOWNNAME":"永康區","LI":"崑山里","LIN":"26鄰","STREET":"大灣路","SECT":" ","MAREA":" ","LANE":"９４２巷","ALLEY":"１６９弄","HOUSE_NO":"９５號","E_COORD97":173546.42999999999,"N_COORD97":2544833.3300000001,"ADDRESS":"大灣路９４２巷１６９弄９５號","OBJECTID":169443},"geometry":{"x":173546.42999999877,"y":2544833.3300000019}},{"attributes":{"ID":169445,"DIS_CODE":0,"TOWNNAME":"永康區","LI":"崑山里","LIN":"42鄰","STREET":"大灣路","SECT":" ","MAREA":" ","LANE":"９４２巷","ALLEY":"２８０弄","HOUSE_NO":"２０號","E_COORD97":173898.54000000001,"N_COORD97":2545155.8599999999,"ADDRESS":"大灣路９４２巷２８０弄２０號","OBJECTID":169444},"geometry":{"x":173898.54000000004,"y":2545155.8599999994}},{"attributes":{"ID":169446,"DIS_CODE":0,"TOWNNAME":"永康區","LI":"崑山里","LIN":"42鄰","STREET":"大灣路","SECT":" ","MAREA":" ","LANE":"９４２巷","ALLEY":"２８０弄","HOUSE_NO":"３４號","E_COORD97":173928.95000000001,"N_COORD97":2545150.3100000001,"ADDRESS":"大灣路９４２巷２８０弄３４號","OBJECTID":169445},"geometry":{"x":173928.95000000112,"y":2545150.3100000005}},{"attributes":{"ID":169447,"DIS_CODE":0,"TOWNNAME":"永康區","LI":"崑山里","LIN":"17鄰","STREET":"大灣路","SECT":" ","MAREA":" ","LANE":"９４２巷","ALLEY":"７１弄","HOUSE_NO":"２９號","E_COORD97":173604.26000000001,"N_COORD97":2544507.7400000002,"ADDRESS":"大灣路９４２巷７１弄２９號","OBJECTID":169446},"geometry":{"x":173604.26000000071,"y":2544507.7400000039}},{"attributes":{"ID":169448,"DIS_CODE":0,"TOWNNAME":"永康區","LI":"崑山里","LIN":"42鄰","STREET":"大灣路","SECT":" ","MAREA":" ","LANE":"９４２巷","ALLEY":"２８０弄","HOUSE_NO":"６號","E_COORD97":173881.01000000001,"N_COORD97":2545162.3799999999,"ADDRESS":"大灣路９４２巷２８０弄６號","OBJECTID":169447},"geometry":{"x":173881.00999999978,"y":2545162.379999999}},{"attributes":{"ID":169449,"DIS_CODE":0,"TOWNNAME":"永康區","LI":"五王里","LIN":" ","STREET":"成功路","SECT":" ","MAREA":" ","LANE":"１７２巷","ALLEY":"８弄","HOUSE_NO":"３９號","E_COORD97":171579.70999999999,"N_COORD97":2545564.0099999998,"ADDRESS":"成功路１７２巷８弄３９號","OBJECTID":169448},"geometry":{"x":171579.70999999996,"y":2545564.0100000016}},{"attributes":{"ID":169450,"DIS_CODE":0,"TOWNNAME":"永康區","LI":"\u25A0洲里","LIN":"18鄰","STREET":"中正南路","SECT":" ","MAREA":" ","LANE":"７７９巷","ALLEY":"２弄","HOUSE_NO":"２０號","E_COORD97":171725.69,"N_COORD97":2549027.75,"ADDRESS":"中正南路７７９巷２弄２０號","OBJECTID":169449},"geometry":{"x":171725.69000000134,"y":2549027.7500000019}},{"attributes":{"ID":169451,"DIS_CODE":0,"TOWNNAME":"永康區","LI":"龍潭里","LIN":"38鄰","STREET":"中山北路","SECT":" ","MAREA":" ","LANE":"１６４巷","ALLEY":"７８弄","HOUSE_NO":"１６號","E_COORD97":174430.17000000001,"N_COORD97":2547358.3100000001,"ADDRESS":"中山北路１６４巷７８弄１６號","OBJECTID":169450},"geometry":{"x":174430.17000000086,"y":2547358.3100000005}},{"attributes":{"ID":169452,"DIS_CODE":0,"TOWNNAME":"永康區","LI":"龍潭里","LIN":"39鄰","STREET":"永明街","SECT":" ","MAREA":" ","LANE":"１７９巷","ALLEY":"１２弄","HOUSE_NO":"２６號","E_COORD97":174501.89999999999,"N_COORD97":2547243.8900000001,"ADDRESS":"永明街１７９巷１２弄２６號","OBJECTID":169451},"geometry":{"x":174501.90000000224,"y":2547243.8900000025}},{"attributes":{"ID":169453,"DIS_CODE":0,"TOWNNAME":"永康區","LI":"\u25A0行里","LIN":" ","STREET":"中正路","SECT":" ","MAREA":" ","LANE":"６２５巷","ALLEY":"１弄","HOUSE_NO":"１９號","E_COORD97":171897.85999999999,"N_COORD97":2548947.5699999998,"ADDRESS":"中正路６２５巷１弄１９號","OBJECTID":169452},"geometry":{"x":171897.86000000034,"y":2548947.5700000022}},{"attributes":{"ID":169454,"DIS_CODE":0,"TOWNNAME":"永康區","LI":"\u25A0行里","LIN":"41鄰","STREET":"永安路","SECT":" ","MAREA":" ","LANE":"１６５巷","ALLEY":"３０弄","HOUSE_NO":"９號之３","E_COORD97":172454.23000000001,"N_COORD97":2549481.8100000001,"ADDRESS":"永安路１６５巷３０弄９號之３","OBJECTID":169453},"geometry":{"x":172454.23000000138,"y":2549481.8100000024}},{"attributes":{"ID":169455,"DIS_CODE":0,"TOWNNAME":"永康區","LI":"成功里","LIN":" ","STREET":"中華路","SECT":" ","MAREA":" ","LANE":"７巷","ALLEY":"２０弄","HOUSE_NO":"４６號","E_COORD97":171511.01999999999,"N_COORD97":2544464.75,"ADDRESS":"中華路７巷２０弄４６號","OBJECTID":169454},"geometry":{"x":171511.01999999955,"y":2544464.7500000019}},{"attributes":{"ID":169456,"DIS_CODE":0,"TOWNNAME":"永康區","LI":"大橋里","LIN":" ","STREET":"大橋一街","SECT":" ","MAREA":" ","LANE":"２３３巷","ALLEY":"３弄","HOUSE_NO":"３１號","E_COORD97":171166.54000000001,"N_COORD97":2546641.5,"ADDRESS":"大橋一街２３３巷３弄３１號","OBJECTID":169455},"geometry":{"x":171166.54000000097,"y":2546641.5000000037}},{"attributes":{"ID":169457,"DIS_CODE":0,"TOWNNAME":"永康區","LI":"中華里","LIN":"18鄰","STREET":"小東路","SECT":" ","MAREA":" ","LANE":"４７７巷","ALLEY":"４６弄","HOUSE_NO":"２號","E_COORD97":171630.39000000001,"N_COORD97":2544512.98,"ADDRESS":"小東路４７７巷４６弄２號","OBJECTID":169456},"geometry":{"x":171630.38999999966,"y":2544512.9800000042}},{"attributes":{"ID":169458,"DIS_CODE":0,"TOWNNAME":"永康區","LI":"龍潭里","LIN":"26鄰","STREET":"中山北路","SECT":" ","MAREA":" ","LANE":"４６１巷","ALLEY":"８弄","HOUSE_NO":"７號","E_COORD97":175137.23000000001,"N_COORD97":2547791.1099999999,"ADDRESS":"中山北路４６１巷８弄７號","OBJECTID":169457},"geometry":{"x":175137.23000000138,"y":2547791.1100000013}},{"attributes":{"ID":169459,"DIS_CODE":0,"TOWNNAME":"永康區","LI":"甲頂里","LIN":" ","STREET":"大武街","SECT":" ","MAREA":" ","LANE":"５９７巷","ALLEY":"２弄","HOUSE_NO":"２２號","E_COORD97":170321.13,"N_COORD97":2546587.7400000002,"ADDRESS":"大武街５９７巷２弄２２號","OBJECTID":169458},"geometry":{"x":170321.13000000175,"y":2546587.7400000002}},{"attributes":{"ID":169460,"DIS_CODE":0,"TOWNNAME":"永康區","LI":"甲頂里","LIN":"5鄰","STREET":"中正南路","SECT":" ","MAREA":" ","LANE":"１６８巷","ALLEY":"２弄","HOUSE_NO":"１１６號","E_COORD97":169865.97,"N_COORD97":2546863.75,"ADDRESS":"中正南路１６８巷２弄１１６號","OBJECTID":169459},"geometry":{"x":169865.96999999881,"y":2546863.7500000037}},{"attributes":{"ID":169461,"DIS_CODE":0,"TOWNNAME":"永康區","LI":"南灣里","LIN":"5鄰","STREET":"南興路","SECT":" ","MAREA":" ","LANE":"１１２巷","ALLEY":"４０弄","HOUSE_NO":"７號","E_COORD97":174579.04000000001,"N_COORD97":2544505.4199999999,"ADDRESS":"南興路１１２巷４０弄７號","OBJECTID":169460},"geometry":{"x":174579.04000000097,"y":2544505.4199999999}},{"attributes":{"ID":169462,"DIS_CODE":0,"TOWNNAME":"永康區","LI":"龍潭里","LIN":"38鄰","STREET":"中山北路","SECT":" ","MAREA":" ","LANE":"１６４巷","ALLEY":"１１０弄","HOUSE_NO":"１２號","E_COORD97":174509.07000000001,"N_COORD97":2547359.9700000002,"ADDRESS":"中山北路１６４巷１１０弄１２號","OBJECTID":169461},"geometry":{"x":174509.07000000216,"y":2547359.9700000007}},{"attributes":{"ID":169463,"DIS_CODE":0,"TOWNNAME":"永康區","LI":"龍潭里","LIN":"39鄰","STREET":"永明街","SECT":" ","MAREA":" ","LANE":"１７９巷","ALLEY":"１２弄","HOUSE_NO":"３號","E_COORD97":174453.5,"N_COORD97":2547265.4199999999,"ADDRESS":"永明街１７９巷１２弄３號","OBJECTID":169462},"geometry":{"x":174453.50000000093,"y":2547265.4199999999}},{"attributes":{"ID":169464,"DIS_CODE":0,"TOWNNAME":"新營區","LI":"南興里","LIN":"12鄰","STREET":"建業路","SECT":" ","MAREA":" ","LANE":" ","ALLEY":" ","HOUSE_NO":"９２號","E_COORD97":179307.32000000001,"N_COORD97":2577498.46,"ADDRESS":"建業路９２號","OBJECTID":169463},"geometry":{"x":179307.3200000003,"y":2577498.459999999}},{"attributes":{"ID":169465,"DIS_CODE":0,"TOWNNAME":"關廟區","LI":"五甲里","LIN":"12鄰","STREET":"東興一街","SECT":" ","MAREA":" ","LANE":" ","ALLEY":" ","HOUSE_NO":"１８號","E_COORD97":181224.57000000001,"N_COORD97":2539585.2400000002,"ADDRESS":"東興一街１８號","OBJECTID":169464},"geometry":{"x":181224.5700000003,"y":2539585.2400000021}},{"attributes":{"ID":169466,"DIS_CODE":0,"TOWNNAME":"永康區","LI":"埔園里","LIN":"26鄰","STREET":"中山路","SECT":" ","MAREA":" ","LANE":" ","ALLEY":" ","HOUSE_NO":"２７０號","E_COORD97":173720.32999999999,"N_COORD97":2548036.3599999999,"ADDRESS":"中山路２７０號","OBJECTID":169465},"geometry":{"x":173720.33000000007,"y":2548036.3600000013}},{"attributes":{"ID":169467,"DIS_CODE":0,"TOWNNAME":"永康區","LI":"埔園里","LIN":"39鄰","STREET":"龍國街","SECT":" ","MAREA":" ","LANE":" ","ALLEY":" ","HOUSE_NO":"１１號","E_COORD97":174017.37,"N_COORD97":2548108.9300000002,"ADDRESS":"龍國街１１號","OBJECTID":169466},"geometry":{"x":174017.37000000104,"y":2548108.9299999997}},{"attributes":{"ID":169468,"DIS_CODE":0,"TOWNNAME":"永康區","LI":"埔園里","LIN":"32鄰","STREET":"永大路","SECT":"三段","MAREA":" ","LANE":" ","ALLEY":" ","HOUSE_NO":"４４１號","E_COORD97":174040.56,"N_COORD97":2548655.02,"ADDRESS":"永大路三段４４１號","OBJECTID":169467},"geometry":{"x":174040.56000000145,"y":2548655.0200000033}},{"attributes":{"ID":169469,"DIS_CODE":0,"TOWNNAME":"永康區","LI":"埔園里","LIN":"14鄰","STREET":"中山路","SECT":" ","MAREA":" ","LANE":" ","ALLEY":" ","HOUSE_NO":"２５３號","E_COORD97":173648.51999999999,"N_COORD97":2548190.25,"ADDRESS":"中山路２５３號","OBJECTID":169468},"geometry":{"x":173648.51999999955,"y":2548190.2500000019}},{"attributes":{"ID":169470,"DIS_CODE":0,"TOWNNAME":"永康區","LI":"埔園里","LIN":"13鄰","STREET":"中山路","SECT":" ","MAREA":" ","LANE":" ","ALLEY":" ","HOUSE_NO":"１９５號","E_COORD97":173681.75,"N_COORD97":2548062.1699999999,"ADDRESS":"中山路１９５號","OBJECTID":169469},"geometry":{"x":173681.75,"y":2548062.1700000018}},{"attributes":{"ID":169471,"DIS_CODE":0,"TOWNNAME":"永康區","LI":"烏竹里","LIN":"17鄰","STREET":"竹園一街","SECT":" ","MAREA":" ","LANE":" ","ALLEY":" ","HOUSE_NO":"４１之１６號","E_COORD97":174451.35999999999,"N_COORD97":2548942.04,"ADDRESS":"竹園一街４１之１６號","OBJECTID":169470},"geometry":{"x":174451.36000000127,"y":2548942.0399999991}},{"attributes":{"ID":169472,"DIS_CODE":0,"TOWNNAME":"西港區","LI":"西港里","LIN":"13鄰","STREET":" ","SECT":" ","MAREA":"西港","LANE":" ","ALLEY":" ","HOUSE_NO":"５０號之１６三樓之５","E_COORD97":168633.66,"N_COORD97":2557895.8999999999,"ADDRESS":"西港５０號之１６三樓之５","OBJECTID":169471},"geometry":{"x":168633.66000000015,"y":2557895.9000000022}},{"attributes":{"ID":169473,"DIS_CODE":0,"TOWNNAME":"新化區","LI":"太平里","LIN":"9鄰","STREET":"中正路","SECT":" ","MAREA":" ","LANE":" ","ALLEY":" ","HOUSE_NO":"６９６號","E_COORD97":178569.60999999999,"N_COORD97":2549660.25,"ADDRESS":"中正路６９６號","OBJECTID":169472},"geometry":{"x":178569.61000000127,"y":2549660.25}},{"attributes":{"ID":169474,"DIS_CODE":0,"TOWNNAME":"永康區","LI":"烏竹里","LIN":"17鄰","STREET":"龍橋街","SECT":" ","MAREA":" ","LANE":" ","ALLEY":" ","HOUSE_NO":"２１１號","E_COORD97":174614.14999999999,"N_COORD97":2548712.0499999998,"ADDRESS":"龍橋街２１１號","OBJECTID":169473},"geometry":{"x":174614.1500000013,"y":2548712.0500000007}},{"attributes":{"ID":169475,"DIS_CODE":0,"TOWNNAME":"永康區","LI":"東灣里","LIN":"25鄰","STREET":"大灣一街","SECT":" ","MAREA":" ","LANE":" ","ALLEY":" ","HOUSE_NO":"１６７號","E_COORD97":174757.20999999999,"N_COORD97":2544621.7400000002,"ADDRESS":"大灣一街１６７號","OBJECTID":169474},"geometry":{"x":174757.21000000089,"y":2544621.7400000002}},{"attributes":{"ID":169476,"DIS_CODE":0,"TOWNNAME":"永康區","LI":"神洲里","LIN":"18鄰","STREET":"忠孝路","SECT":" ","MAREA":" ","LANE":" ","ALLEY":" ","HOUSE_NO":"１１８號","E_COORD97":172094.53,"N_COORD97":2545009.4900000002,"ADDRESS":"忠孝路１１８號","OBJECTID":169475},"geometry":{"x":172094.53000000026,"y":2545009.4900000002}},{"attributes":{"ID":169477,"DIS_CODE":0,"TOWNNAME":"永康區","LI":"神洲里","LIN":"18鄰","STREET":"忠孝路","SECT":" ","MAREA":" ","LANE":" ","ALLEY":" ","HOUSE_NO":"１１４號","E_COORD97":172094.78,"N_COORD97":2545002.5,"ADDRESS":"忠孝路１１４號","OBJECTID":169476},"geometry":{"x":172094.78000000026,"y":2545002.5}},{"attributes":{"ID":169478,"DIS_CODE":0,"TOWNNAME":"永康區","LI":"埔園里","LIN":"32鄰","STREET":"永大路","SECT":"三段","MAREA":" ","LANE":" ","ALLEY":" ","HOUSE_NO":"４３７號","E_COORD97":174042.26999999999,"N_COORD97":2548646.27,"ADDRESS":"永大路三段４３７號","OBJECTID":169477},"geometry":{"x":174042.26999999955,"y":2548646.2699999977}},{"attributes":{"ID":169479,"DIS_CODE":0,"TOWNNAME":"永康區","LI":"埔園里","LIN":"32鄰","STREET":"永大路","SECT":"三段","MAREA":" ","LANE":" ","ALLEY":" ","HOUSE_NO":"４１７號","E_COORD97":174047.73999999999,"N_COORD97":2548557.52,"ADDRESS":"永大路三段４１７號","OBJECTID":169478},"geometry":{"x":174047.74000000022,"y":2548557.5200000014}},{"attributes":{"ID":169480,"DIS_CODE":0,"TOWNNAME":"永康區","LI":"埔園里","LIN":"7鄰","STREET":"中正路","SECT":" ","MAREA":" ","LANE":" ","ALLEY":" ","HOUSE_NO":"５４號","E_COORD97":173666.73000000001,"N_COORD97":2547753.4700000002,"ADDRESS":"中正路５４號","OBJECTID":169479},"geometry":{"x":173666.73000000045,"y":2547753.4700000007}},{"attributes":{"ID":169481,"DIS_CODE":0,"TOWNNAME":"永康區","LI":"埔園里","LIN":"5鄰","STREET":"聖龍街","SECT":" ","MAREA":" ","LANE":" ","ALLEY":" ","HOUSE_NO":"７號","E_COORD97":173803.78,"N_COORD97":2547785.5,"ADDRESS":"聖龍街７號","OBJECTID":169480},"geometry":{"x":173803.78000000026,"y":2547785.5000000019}},{"attributes":{"ID":169482,"DIS_CODE":0,"TOWNNAME":"永康區","LI":"崑山里","LIN":"41鄰","STREET":"國光五街","SECT":" ","MAREA":" ","LANE":" ","ALLEY":" ","HOUSE_NO":"５７號","E_COORD97":174020.09,"N_COORD97":2545110.3799999999,"ADDRESS":"國光五街５７號","OBJECTID":169481},"geometry":{"x":174020.08999999985,"y":2545110.3800000008}},{"attributes":{"ID":169483,"DIS_CODE":0,"TOWNNAME":"永康區","LI":"安康里","LIN":" ","STREET":"中山南路","SECT":" ","MAREA":" ","LANE":"１２３巷","ALLEY":"２１弄","HOUSE_NO":"１１號","E_COORD97":170913.39999999999,"N_COORD97":2545954.7400000002,"ADDRESS":"中山南路１２３巷２１弄１１號","OBJECTID":169482},"geometry":{"x":170913.4000000013,"y":2545954.7400000002}},{"attributes":{"ID":169484,"DIS_CODE":0,"TOWNNAME":"永康區","LI":"永康里","LIN":" ","STREET":"中山南路","SECT":" ","MAREA":" ","LANE":"１１６巷","ALLEY":"４弄","HOUSE_NO":"１０之１號","E_COORD97":173817.57000000001,"N_COORD97":2547272.8599999999,"ADDRESS":"中山南路１１６巷４弄１０之１號","OBJECTID":169483},"geometry":{"x":173817.57000000216,"y":2547272.8600000013}},{"attributes":{"ID":169485,"DIS_CODE":0,"TOWNNAME":"永康區","LI":"正強里","LIN":" ","STREET":"中正路","SECT":" ","MAREA":" ","LANE":"１２７巷","ALLEY":"２４弄","HOUSE_NO":"２１號","E_COORD97":173320.87,"N_COORD97":2547778.0899999999,"ADDRESS":"中正路１２７巷２４弄２１號","OBJECTID":169484},"geometry":{"x":173320.87000000104,"y":2547778.0900000017}},{"attributes":{"ID":169486,"DIS_CODE":0,"TOWNNAME":"永康區","LI":"勝利里","LIN":"4鄰","STREET":"勝利街","SECT":" ","MAREA":" ","LANE":"２巷","ALLEY":"９２弄","HOUSE_NO":"８號","E_COORD97":171061.98999999999,"N_COORD97":2544789.7599999998,"ADDRESS":"勝利街２巷９２弄８號","OBJECTID":169485},"geometry":{"x":171061.99000000115,"y":2544789.7600000016}},{"attributes":{"ID":169487,"DIS_CODE":0,"TOWNNAME":"永康區","LI":"龍潭里","LIN":"38鄰","STREET":"中山北路","SECT":" ","MAREA":" ","LANE":"１６４巷","ALLEY":"７８弄","HOUSE_NO":"３２號","E_COORD97":174429.94,"N_COORD97":2547310.2999999998,"ADDRESS":"中山北路１６４巷７８弄３２號","OBJECTID":169486},"geometry":{"x":174429.94000000041,"y":2547310.3000000007}},{"attributes":{"ID":169488,"DIS_CODE":0,"TOWNNAME":"永康區","LI":"龍潭里","LIN":"36鄰","STREET":"中山北路","SECT":" ","MAREA":" ","LANE":"１６４巷","ALLEY":"１６０弄","HOUSE_NO":"２８號","E_COORD97":174660.98999999999,"N_COORD97":2547352.5499999998,"ADDRESS":"中山北路１６４巷１６０弄２８號","OBJECTID":169487},"geometry":{"x":174660.99000000115,"y":2547352.5500000007}},{"attributes":{"ID":169489,"DIS_CODE":0,"TOWNNAME":"永康區","LI":"北灣里","LIN":"24鄰","STREET":"大灣路","SECT":" ","MAREA":" ","LANE":"３７巷","ALLEY":"２０弄","HOUSE_NO":"１３號","E_COORD97":175411.42999999999,"N_COORD97":2545800,"ADDRESS":"大灣路３７巷２０弄１３號","OBJECTID":169488},"geometry":{"x":175411.43000000063,"y":2545800}},{"attributes":{"ID":169490,"DIS_CODE":0,"TOWNNAME":"永康區","LI":"甲頂里","LIN":" ","STREET":"大武街","SECT":" ","MAREA":" ","LANE":"５９７巷","ALLEY":"５４弄","HOUSE_NO":"１號","E_COORD97":170276.39999999999,"N_COORD97":2546597.9900000002,"ADDRESS":"大武街５９７巷５４弄１號","OBJECTID":169489},"geometry":{"x":170276.4000000013,"y":2546597.9900000039}},{"attributes":{"ID":169491,"DIS_CODE":0,"TOWNNAME":"永康區","LI":"埔園里","LIN":" ","STREET":"八德街","SECT":" ","MAREA":" ","LANE":"３２６巷","ALLEY":"２９弄","HOUSE_NO":"３０號","E_COORD97":173599.88,"N_COORD97":2548729.5899999999,"ADDRESS":"八德街３２６巷２９弄３０號","OBJECTID":169490},"geometry":{"x":173599.88000000082,"y":2548729.5900000036}},{"attributes":{"ID":169492,"DIS_CODE":0,"TOWNNAME":"永康區","LI":"甲頂里","LIN":" ","STREET":"中正南路","SECT":" ","MAREA":" ","LANE":"５２巷","ALLEY":"６８弄","HOUSE_NO":"１０２號","E_COORD97":170133.01000000001,"N_COORD97":2546773.71,"ADDRESS":"中正南路５２巷６８弄１０２號","OBJECTID":169491},"geometry":{"x":170133.00999999978,"y":2546773.7100000028}},{"attributes":{"ID":169493,"DIS_CODE":0,"TOWNNAME":"永康區","LI":"復興里","LIN":"26鄰","STREET":"復興路","SECT":" ","MAREA":" ","LANE":"４２３巷","ALLEY":"８５弄","HOUSE_NO":"２６號","E_COORD97":172272.70999999999,"N_COORD97":2544179.02,"ADDRESS":"復興路４２３巷８５弄２６號","OBJECTID":169492},"geometry":{"x":172272.70999999996,"y":2544179.0199999996}},{"attributes":{"ID":169494,"DIS_CODE":0,"TOWNNAME":"永康區","LI":"五王里","LIN":"25鄰","STREET":"成功路","SECT":" ","MAREA":" ","LANE":"２４４巷","ALLEY":"４９弄","HOUSE_NO":"３號","E_COORD97":171413.98000000001,"N_COORD97":2545896.1099999999,"ADDRESS":"成功路２４４巷４９弄３號","OBJECTID":169493},"geometry":{"x":171413.98000000045,"y":2545896.1099999994}},{"attributes":{"ID":169495,"DIS_CODE":0,"TOWNNAME":"永康區","LI":"建國里","LIN":" ","STREET":"復興路","SECT":" ","MAREA":" ","LANE":"７１巷","ALLEY":"１１２弄","HOUSE_NO":"６２之１號","E_COORD97":172536.29000000001,"N_COORD97":2543718.4199999999,"ADDRESS":"復興路７１巷１１２弄６２之１號","OBJECTID":169494},"geometry":{"x":172536.29000000097,"y":2543718.4199999999}},{"attributes":{"ID":169496,"DIS_CODE":0,"TOWNNAME":"永康區","LI":"龍潭里","LIN":" ","STREET":"中山北路","SECT":" ","MAREA":" ","LANE":"１６４巷","ALLEY":"１１０弄","HOUSE_NO":"１４之４號","E_COORD97":174486.32000000001,"N_COORD97":2547323.27,"ADDRESS":"中山北路１６４巷１１０弄１４之４號","OBJECTID":169495},"geometry":{"x":174486.3200000003,"y":2547323.2699999996}},{"attributes":{"ID":169497,"DIS_CODE":0,"TOWNNAME":"永康區","LI":"北灣里","LIN":"38鄰","STREET":"大灣路","SECT":" ","MAREA":" ","LANE":"４０巷","ALLEY":"１５３弄","HOUSE_NO":"１號","E_COORD97":174901.78,"N_COORD97":2546225.8799999999,"ADDRESS":"大灣路４０巷１５３弄１號","OBJECTID":169496},"geometry":{"x":174901.78000000026,"y":2546225.8800000008}},{"attributes":{"ID":169498,"DIS_CODE":0,"TOWNNAME":"永康區","LI":"西勢里","LIN":"20鄰","STREET":"富強路","SECT":"一段","MAREA":" ","LANE":"１８５巷","ALLEY":"１０弄","HOUSE_NO":"１６號","E_COORD97":175548.87,"N_COORD97":2546470.5699999998,"ADDRESS":"富強路一段１８５巷１０弄１６號","OBJECTID":169497},"geometry":{"x":175548.87000000011,"y":2546470.5700000003}},{"attributes":{"ID":169499,"DIS_CODE":0,"TOWNNAME":"永康區","LI":"龍潭里","LIN":"40鄰","STREET":"永明街","SECT":" ","MAREA":" ","LANE":"３０２巷","ALLEY":"２弄","HOUSE_NO":"１號","E_COORD97":174511.51000000001,"N_COORD97":2547139.25,"ADDRESS":"永明街３０２巷２弄１號","OBJECTID":169498},"geometry":{"x":174511.50999999978,"y":2547139.2500000019}},{"attributes":{"ID":169500,"DIS_CODE":0,"TOWNNAME":"永康區","LI":"南灣里","LIN":"13鄰","STREET":"大灣一街","SECT":" ","MAREA":" ","LANE":" ","ALLEY":" ","HOUSE_NO":"１３５號","E_COORD97":174593.51999999999,"N_COORD97":2544678.1400000001,"ADDRESS":"大灣一街１３５號","OBJECTID":169499},"geometry":{"x":174593.52000000142,"y":2544678.1400000043}},{"attributes":{"ID":169501,"DIS_CODE":0,"TOWNNAME":"新化區","LI":"崙頂里","LIN":"8鄰","STREET":" ","SECT":" ","MAREA":"崙子頂","LANE":" ","ALLEY":" ","HOUSE_NO":"３２０號之１","E_COORD97":176732.85999999999,"N_COORD97":2546958.2599999998,"ADDRESS":"崙子頂３２０號之１","OBJECTID":169500},"geometry":{"x":176732.8599999994,"y":2546958.2600000035}},{"attributes":{"ID":169502,"DIS_CODE":0,"TOWNNAME":"永康區","LI":"二王里","LIN":" ","STREET":"南工街","SECT":" ","MAREA":" ","LANE":"２１２巷","ALLEY":"１３弄","HOUSE_NO":"１８之６號","E_COORD97":172184.97,"N_COORD97":2545927.0499999998,"ADDRESS":"南工街２１２巷１３弄１８之６號","OBJECTID":169501},"geometry":{"x":172184.96999999881,"y":2545927.0500000026}},{"attributes":{"ID":169503,"DIS_CODE":0,"TOWNNAME":"麻豆區","LI":"麻口里","LIN":"12鄰","STREET":" ","SECT":" ","MAREA":"番子寮","LANE":" ","ALLEY":" ","HOUSE_NO":"２８號之１０","E_COORD97":170411.39000000001,"N_COORD97":2563106.8300000001,"ADDRESS":"番子寮２８號之１０","OBJECTID":169502},"geometry":{"x":170411.3900000006,"y":2563106.8300000019}},{"attributes":{"ID":169504,"DIS_CODE":0,"TOWNNAME":"麻豆區","LI":"麻口里","LIN":"12鄰","STREET":" ","SECT":" ","MAREA":"番子寮","LANE":" ","ALLEY":" ","HOUSE_NO":"２８號之１１","E_COORD97":170410.88,"N_COORD97":2563111.96,"ADDRESS":"番子寮２８號之１１","OBJECTID":169503},"geometry":{"x":170410.87999999896,"y":2563111.9600000009}},{"attributes":{"ID":169505,"DIS_CODE":0,"TOWNNAME":"麻豆區","LI":"麻口里","LIN":"12鄰","STREET":" ","SECT":" ","MAREA":"番子寮","LANE":" ","ALLEY":" ","HOUSE_NO":"２８號之１２","E_COORD97":170410.17999999999,"N_COORD97":2563116.5699999998,"ADDRESS":"番子寮２８號之１２","OBJECTID":169504},"geometry":{"x":170410.1799999997,"y":2563116.5700000022}},{"attributes":{"ID":169506,"DIS_CODE":0,"TOWNNAME":"麻豆區","LI":"麻口里","LIN":"12鄰","STREET":" ","SECT":" ","MAREA":"番子寮","LANE":" ","ALLEY":" ","HOUSE_NO":"２８號之１３","E_COORD97":170409.26999999999,"N_COORD97":2563122.4399999999,"ADDRESS":"番子寮２８號之１３","OBJECTID":169505},"geometry":{"x":170409.26999999955,"y":2563122.4400000013}},{"attributes":{"ID":169507,"DIS_CODE":0,"TOWNNAME":"麻豆區","LI":"麻口里","LIN":"12鄰","STREET":" ","SECT":" ","MAREA":"番子寮","LANE":" ","ALLEY":" ","HOUSE_NO":"２８號之１","E_COORD97":170461.45999999999,"N_COORD97":2563091.6200000001,"ADDRESS":"番子寮２８號之１","OBJECTID":169506},"geometry":{"x":170461.46000000183,"y":2563091.620000001}},{"attributes":{"ID":169508,"DIS_CODE":0,"TOWNNAME":"麻豆區","LI":"麻口里","LIN":"12鄰","STREET":" ","SECT":" ","MAREA":"番子寮","LANE":" ","ALLEY":" ","HOUSE_NO":"２８號之２","E_COORD97":170455.32999999999,"N_COORD97":2563124.4100000001,"ADDRESS":"番子寮２８號之２","OBJECTID":169507},"geometry":{"x":170455.33000000007,"y":2563124.410000002}},{"attributes":{"ID":169509,"DIS_CODE":0,"TOWNNAME":"麻豆區","LI":"麻口里","LIN":"12鄰","STREET":" ","SECT":" ","MAREA":"番子寮","LANE":" ","ALLEY":" ","HOUSE_NO":"２８號之３","E_COORD97":170450.41,"N_COORD97":2563123.0800000001,"ADDRESS":"番子寮２８號之３","OBJECTID":169508},"geometry":{"x":170450.41000000108,"y":2563123.0800000019}},{"attributes":{"ID":169510,"DIS_CODE":0,"TOWNNAME":"麻豆區","LI":"麻口里","LIN":"12鄰","STREET":" ","SECT":" ","MAREA":"番子寮","LANE":" ","ALLEY":" ","HOUSE_NO":"２８號之４","E_COORD97":170446.22,"N_COORD97":2563122.0600000001,"ADDRESS":"番子寮２８號之４","OBJECTID":169509},"geometry":{"x":170446.22000000067,"y":2563122.0600000005}},{"attributes":{"ID":169511,"DIS_CODE":0,"TOWNNAME":"歸仁區","LI":"南興里","LIN":"12鄰","STREET":"文化十八街","SECT":" ","MAREA":" ","LANE":" ","ALLEY":" ","HOUSE_NO":"７５號","E_COORD97":175917.09,"N_COORD97":2541362.3300000001,"ADDRESS":"文化十八街７５號","OBJECTID":169510},"geometry":{"x":175917.08999999892,"y":2541362.3300000019}},{"attributes":{"ID":169512,"DIS_CODE":0,"TOWNNAME":"麻豆區","LI":"麻口里","LIN":"12鄰","STREET":" ","SECT":" ","MAREA":"番子寮","LANE":" ","ALLEY":" ","HOUSE_NO":"２８號之５","E_COORD97":170442.64999999999,"N_COORD97":2563121.29,"ADDRESS":"番子寮２８號之５","OBJECTID":169511},"geometry":{"x":170442.6500000013,"y":2563121.2899999991}},{"attributes":{"ID":169513,"DIS_CODE":0,"TOWNNAME":"永康區","LI":"南灣里","LIN":"5鄰","STREET":"南興路","SECT":" ","MAREA":" ","LANE":"１１２巷","ALLEY":"４０弄","HOUSE_NO":"３５號","E_COORD97":174590.97,"N_COORD97":2544463.75,"ADDRESS":"南興路１１２巷４０弄３５號","OBJECTID":169512},"geometry":{"x":174590.97000000067,"y":2544463.7500000019}},{"attributes":{"ID":169514,"DIS_CODE":0,"TOWNNAME":"麻豆區","LI":"麻口里","LIN":"12鄰","STREET":" ","SECT":" ","MAREA":"番子寮","LANE":" ","ALLEY":" ","HOUSE_NO":"２８號之６","E_COORD97":170438.45000000001,"N_COORD97":2563120.0699999998,"ADDRESS":"番子寮２８號之６","OBJECTID":169513},"geometry":{"x":170438.45000000112,"y":2563120.0700000022}},{"attributes":{"ID":169515,"DIS_CODE":0,"TOWNNAME":"歸仁區","LI":"南興里","LIN":"12鄰","STREET":"文化十八街","SECT":" ","MAREA":" ","LANE":" ","ALLEY":" ","HOUSE_NO":"４３號","E_COORD97":175856.39000000001,"N_COORD97":2541317.3300000001,"ADDRESS":"文化十八街４３號","OBJECTID":169514},"geometry":{"x":175856.3900000006,"y":2541317.3300000019}},{"attributes":{"ID":169516,"DIS_CODE":0,"TOWNNAME":"永康區","LI":"\u25A0洲里","LIN":" ","STREET":"中正南路","SECT":" ","MAREA":" ","LANE":"７７９巷","ALLEY":"２弄","HOUSE_NO":"２２號","E_COORD97":171691.32000000001,"N_COORD97":2549039.75,"ADDRESS":"中正南路７７９巷２弄２２號","OBJECTID":169515},"geometry":{"x":171691.3200000003,"y":2549039.75}},{"attributes":{"ID":169517,"DIS_CODE":0,"TOWNNAME":"麻豆區","LI":"麻口里","LIN":"12鄰","STREET":" ","SECT":" ","MAREA":"番子寮","LANE":" ","ALLEY":" ","HOUSE_NO":"２８號之７","E_COORD97":170434.37,"N_COORD97":2563119.0499999998,"ADDRESS":"番子寮２８號之７","OBJECTID":169516},"geometry":{"x":170434.37000000011,"y":2563119.0499999989}},{"attributes":{"ID":169518,"DIS_CODE":0,"TOWNNAME":"永康區","LI":"西勢里","LIN":"18鄰","STREET":"富強路","SECT":"一段","MAREA":" ","LANE":"２巷","ALLEY":"８弄","HOUSE_NO":"３９號","E_COORD97":175464.79000000001,"N_COORD97":2546049.3700000001,"ADDRESS":"富強路一段２巷８弄３９號","OBJECTID":169517},"geometry":{"x":175464.79000000004,"y":2546049.370000001}},{"attributes":{"ID":169519,"DIS_CODE":0,"TOWNNAME":"永康區","LI":"龍潭里","LIN":" ","STREET":"中山北路","SECT":" ","MAREA":" ","LANE":"１６４巷","ALLEY":"１１０弄","HOUSE_NO":"１６之４號","E_COORD97":174486.60999999999,"N_COORD97":2547308.77,"ADDRESS":"中山北路１６４巷１１０弄１６之４號","OBJECTID":169518},"geometry":{"x":174486.61000000034,"y":2547308.7700000014}},{"attributes":{"ID":169520,"DIS_CODE":0,"TOWNNAME":"新化區","LI":"北勢里","LIN":"6鄰","STREET":" ","SECT":" ","MAREA":"北勢","LANE":" ","ALLEY":" ","HOUSE_NO":"１００號之７","E_COORD97":177274.23000000001,"N_COORD97":2549769.2599999998,"ADDRESS":"北勢１００號之７","OBJECTID":169519},"geometry":{"x":177274.23000000045,"y":2549769.2600000016}},{"attributes":{"ID":169521,"DIS_CODE":0,"TOWNNAME":"永康區","LI":"烏竹里","LIN":"18鄰","STREET":"自強路","SECT":" ","MAREA":" ","LANE":"７７３巷","ALLEY":"５弄","HOUSE_NO":"４６號","E_COORD97":174401.76000000001,"N_COORD97":2548555.2400000002,"ADDRESS":"自強路７７３巷５弄４６號","OBJECTID":169520},"geometry":{"x":174401.75999999978,"y":2548555.2400000002}},{"attributes":{"ID":169522,"DIS_CODE":0,"TOWNNAME":"西港區","LI":"西港里","LIN":"13鄰","STREET":" ","SECT":" ","MAREA":"西港","LANE":" ","ALLEY":" ","HOUSE_NO":"５０號之１６三樓之６","E_COORD97":168633.66,"N_COORD97":2557895.8999999999,"ADDRESS":"西港５０號之１６三樓之６","OBJECTID":169521},"geometry":{"x":168633.66000000015,"y":2557895.9000000022}},{"attributes":{"ID":169523,"DIS_CODE":0,"TOWNNAME":"永康區","LI":"崑山里","LIN":"5鄰","STREET":"崑大路","SECT":" ","MAREA":" ","LANE":" ","ALLEY":" ","HOUSE_NO":"２號","E_COORD97":173943.57999999999,"N_COORD97":2544230.4500000002,"ADDRESS":"崑大路２號","OBJECTID":169522},"geometry":{"x":173943.58000000007,"y":2544230.4499999974}},{"attributes":{"ID":169524,"DIS_CODE":0,"TOWNNAME":"西港區","LI":"西港里","LIN":"13鄰","STREET":" ","SECT":" ","MAREA":"西港","LANE":" ","ALLEY":" ","HOUSE_NO":"５０號之１６五樓之１","E_COORD97":168633.66,"N_COORD97":2557895.8999999999,"ADDRESS":"西港５０號之１６五樓之１","OBJECTID":169523},"geometry":{"x":168633.66000000015,"y":2557895.9000000022}},{"attributes":{"ID":169525,"DIS_CODE":0,"TOWNNAME":"西港區","LI":"西港里","LIN":"13鄰","STREET":" ","SECT":" ","MAREA":"西港","LANE":" ","ALLEY":" ","HOUSE_NO":"５０號之１６五樓之２","E_COORD97":168633.66,"N_COORD97":2557895.8999999999,"ADDRESS":"西港５０號之１６五樓之２","OBJECTID":169524},"geometry":{"x":168633.66000000015,"y":2557895.9000000022}},{"attributes":{"ID":169526,"DIS_CODE":0,"TOWNNAME":"西港區","LI":"西港里","LIN":"13鄰","STREET":" ","SECT":" ","MAREA":"西港","LANE":" ","ALLEY":" ","HOUSE_NO":"５０號之１６五樓之３","E_COORD97":168633.66,"N_COORD97":2557895.8999999999,"ADDRESS":"西港５０號之１６五樓之３","OBJECTID":169525},"geometry":{"x":168633.66000000015,"y":2557895.9000000022}},{"attributes":{"ID":169527,"DIS_CODE":0,"TOWNNAME":"西港區","LI":"西港里","LIN":"13鄰","STREET":" ","SECT":" ","MAREA":"西港","LANE":" ","ALLEY":" ","HOUSE_NO":"５０號之１６五樓之５","E_COORD97":168633.66,"N_COORD97":2557895.8999999999,"ADDRESS":"西港５０號之１６五樓之５","OBJECTID":169526},"geometry":{"x":168633.66000000015,"y":2557895.9000000022}},{"attributes":{"ID":169528,"DIS_CODE":0,"TOWNNAME":"永康區","LI":"烏竹里","LIN":"18鄰","STREET":"自強路","SECT":" ","MAREA":" ","LANE":"７７３巷","ALLEY":"５弄","HOUSE_NO":"５０號","E_COORD97":174393.60000000001,"N_COORD97":2548551.4900000002,"ADDRESS":"自強路７７３巷５弄５０號","OBJECTID":169527},"geometry":{"x":174393.60000000056,"y":2548551.4900000021}},{"attributes":{"ID":169529,"DIS_CODE":0,"TOWNNAME":"西港區","LI":"西港里","LIN":"13鄰","STREET":" ","SECT":" ","MAREA":"西港","LANE":" ","ALLEY":" ","HOUSE_NO":"５０號之１６四樓之１","E_COORD97":168633.66,"N_COORD97":2557895.8999999999,"ADDRESS":"西港５０號之１６四樓之１","OBJECTID":169528},"geometry":{"x":168633.66000000015,"y":2557895.9000000022}},{"attributes":{"ID":169530,"DIS_CODE":0,"TOWNNAME":"西港區","LI":"西港里","LIN":"13鄰","STREET":" ","SECT":" ","MAREA":"西港","LANE":" ","ALLEY":" ","HOUSE_NO":"５０號之１６四樓之２","E_COORD97":168633.66,"N_COORD97":2557895.8999999999,"ADDRESS":"西港５０號之１６四樓之２","OBJECTID":169529},"geometry":{"x":168633.66000000015,"y":2557895.9000000022}},{"attributes":{"ID":169531,"DIS_CODE":0,"TOWNNAME":"西港區","LI":"西港里","LIN":"13鄰","STREET":" ","SECT":" ","MAREA":"西港","LANE":" ","ALLEY":" ","HOUSE_NO":"５０號之１６四樓之３","E_COORD97":168633.66,"N_COORD97":2557895.8999999999,"ADDRESS":"西港５０號之１６四樓之３","OBJECTID":169530},"geometry":{"x":168633.66000000015,"y":2557895.9000000022}},{"attributes":{"ID":169532,"DIS_CODE":0,"TOWNNAME":"西港區","LI":"西港里","LIN":"13鄰","STREET":" ","SECT":" ","MAREA":"西港","LANE":" ","ALLEY":" ","HOUSE_NO":"５０號之１６四樓之５","E_COORD97":168633.66,"N_COORD97":2557895.8999999999,"ADDRESS":"西港５０號之１６四樓之５","OBJECTID":169531},"geometry":{"x":168633.66000000015,"y":2557895.9000000022}},{"attributes":{"ID":169533,"DIS_CODE":0,"TOWNNAME":"西港區","LI":"西港里","LIN":"13鄰","STREET":" ","SECT":" ","MAREA":"西港","LANE":" ","ALLEY":" ","HOUSE_NO":"５０號之１６四樓之６","E_COORD97":168633.66,"N_COORD97":2557895.8999999999,"ADDRESS":"西港５０號之１６四樓之６","OBJECTID":169532},"geometry":{"x":168633.66000000015,"y":2557895.9000000022}},{"attributes":{"ID":169534,"DIS_CODE":0,"TOWNNAME":"永康區","LI":"勝利里","LIN":"26鄰","STREET":"中華路","SECT":" ","MAREA":" ","LANE":"１２１巷","ALLEY":"２１弄","HOUSE_NO":"１５號","E_COORD97":171500.10000000001,"N_COORD97":2544689.5,"ADDRESS":"中華路１２１巷２１弄１５號","OBJECTID":169533},"geometry":{"x":171500.09999999963,"y":2544689.5000000019}},{"attributes":{"ID":169535,"DIS_CODE":0,"TOWNNAME":"永康區","LI":"崑山里","LIN":"18鄰","STREET":"大灣路","SECT":" ","MAREA":" ","LANE":"９４２巷","ALLEY":"３４弄","HOUSE_NO":"１１號","E_COORD97":173685.12,"N_COORD97":2544536.4900000002,"ADDRESS":"大灣路９４２巷３４弄１１號","OBJECTID":169534},"geometry":{"x":173685.12000000104,"y":2544536.4900000039}},{"attributes":{"ID":169536,"DIS_CODE":0,"TOWNNAME":"新營區","LI":"土庫里","LIN":"17鄰","STREET":" ","SECT":" ","MAREA":"卯舍","LANE":" ","ALLEY":" ","HOUSE_NO":"３８號","E_COORD97":181489.98999999999,"N_COORD97":2580070.7799999998,"ADDRESS":"卯舍３８號","OBJECTID":169535},"geometry":{"x":181489.99000000022,"y":2580070.7799999993}},{"attributes":{"ID":169537,"DIS_CODE":0,"TOWNNAME":"新市區","LI":"潭頂里","LIN":"13鄰","STREET":" ","SECT":" ","MAREA":"潭頂","LANE":" ","ALLEY":" ","HOUSE_NO":"４８０號","E_COORD97":180375.28,"N_COORD97":2552842,"ADDRESS":"潭頂４８０號","OBJECTID":169536},"geometry":{"x":180375.28000000119,"y":2552842}},{"attributes":{"ID":169538,"DIS_CODE":0,"TOWNNAME":"新市區","LI":"潭頂里","LIN":"13鄰","STREET":" ","SECT":" ","MAREA":"潭頂","LANE":" ","ALLEY":" ","HOUSE_NO":"４７３之２號","E_COORD97":180422.39000000001,"N_COORD97":2552822.7999999998,"ADDRESS":"潭頂４７３之２號","OBJECTID":169537},"geometry":{"x":180422.39000000153,"y":2552822.8000000007}},{"attributes":{"ID":169539,"DIS_CODE":0,"TOWNNAME":"新市區","LI":"潭頂里","LIN":"13鄰","STREET":" ","SECT":" ","MAREA":"潭頂","LANE":" ","ALLEY":" ","HOUSE_NO":"４８４號","E_COORD97":180382.59,"N_COORD97":2552857,"ADDRESS":"潭頂４８４號","OBJECTID":169538},"geometry":{"x":180382.59000000078,"y":2552857.0000000019}},{"attributes":{"ID":169540,"DIS_CODE":0,"TOWNNAME":"永康區","LI":"崑山里","LIN":"18鄰","STREET":"大灣路","SECT":" ","MAREA":" ","LANE":"９４２巷","ALLEY":"１６弄","HOUSE_NO":"１１號","E_COORD97":173713.95000000001,"N_COORD97":2544489.48,"ADDRESS":"大灣路９４２巷１６弄１１號","OBJECTID":169539},"geometry":{"x":173713.95000000019,"y":2544489.4800000042}},{"attributes":{"ID":169541,"DIS_CODE":0,"TOWNNAME":"白河區","LI":"竹門里","LIN":"13鄰","STREET":" ","SECT":" ","MAREA":"番子園","LANE":" ","ALLEY":" ","HOUSE_NO":"１８之２９號","E_COORD97":191712.95000000001,"N_COORD97":2585978.1299999999,"ADDRESS":"番子園１８之２９號","OBJECTID":169540},"geometry":{"x":191712.95000000112,"y":2585978.1300000027}},{"attributes":{"ID":169542,"DIS_CODE":0,"TOWNNAME":"白河區","LI":"竹門里","LIN":"13鄰","STREET":" ","SECT":" ","MAREA":"番子園","LANE":" ","ALLEY":" ","HOUSE_NO":"１８之３５號","E_COORD97":191708.98000000001,"N_COORD97":2585966.3599999999,"ADDRESS":"番子園１８之３５號","OBJECTID":169541},"geometry":{"x":191708.98000000045,"y":2585966.3599999994}},{"attributes":{"ID":169543,"DIS_CODE":0,"TOWNNAME":"北門區","LI":"三光里","LIN":"13鄰","STREET":" ","SECT":" ","MAREA":"蘆竹溝","LANE":" ","ALLEY":" ","HOUSE_NO":"２３０號","E_COORD97":157821.34,"N_COORD97":2570376.8700000001,"ADDRESS":"蘆竹溝２３０號","OBJECTID":169542},"geometry":{"x":157821.34000000078,"y":2570376.8700000029}},{"attributes":{"ID":169544,"DIS_CODE":0,"TOWNNAME":"北門區","LI":"三光里","LIN":"13鄰","STREET":" ","SECT":" ","MAREA":"蘆竹溝","LANE":" ","ALLEY":" ","HOUSE_NO":"２３１號","E_COORD97":157821.37,"N_COORD97":2570380.96,"ADDRESS":"蘆竹溝２３１號","OBJECTID":169543},"geometry":{"x":157821.37000000104,"y":2570380.9600000009}},{"attributes":{"ID":169545,"DIS_CODE":0,"TOWNNAME":"北門區","LI":"三光里","LIN":"13鄰","STREET":" ","SECT":" ","MAREA":"蘆竹溝","LANE":" ","ALLEY":" ","HOUSE_NO":"２３２號","E_COORD97":157821.39999999999,"N_COORD97":2570385.0499999998,"ADDRESS":"蘆竹溝２３２號","OBJECTID":169544},"geometry":{"x":157821.4000000013,"y":2570385.0500000045}},{"attributes":{"ID":169546,"DIS_CODE":0,"TOWNNAME":"北門區","LI":"三光里","LIN":"13鄰","STREET":" ","SECT":" ","MAREA":"蘆竹溝","LANE":" ","ALLEY":" ","HOUSE_NO":"２３３號","E_COORD97":157821.42999999999,"N_COORD97":2570389.1299999999,"ADDRESS":"蘆竹溝２３３號","OBJECTID":169545},"geometry":{"x":157821.4299999997,"y":2570389.1300000027}},{"attributes":{"ID":169547,"DIS_CODE":0,"TOWNNAME":"北門區","LI":"三光里","LIN":"13鄰","STREET":" ","SECT":" ","MAREA":"蘆竹溝","LANE":" ","ALLEY":" ","HOUSE_NO":"２３４號","E_COORD97":157821.47,"N_COORD97":2570393.2200000002,"ADDRESS":"蘆竹溝２３４號","OBJECTID":169546},"geometry":{"x":157821.46999999974,"y":2570393.2200000007}},{"attributes":{"ID":169548,"DIS_CODE":0,"TOWNNAME":"北門區","LI":"三光里","LIN":"13鄰","STREET":" ","SECT":" ","MAREA":"蘆竹溝","LANE":" ","ALLEY":" ","HOUSE_NO":"２４１號","E_COORD97":157821.69,"N_COORD97":2570421.8399999999,"ADDRESS":"蘆竹溝２４１號","OBJECTID":169547},"geometry":{"x":157821.69000000134,"y":2570421.8399999999}},{"attributes":{"ID":169549,"DIS_CODE":0,"TOWNNAME":"歸仁區","LI":"新厝里","LIN":"12鄰","STREET":"公園十街","SECT":" ","MAREA":" ","LANE":" ","ALLEY":" ","HOUSE_NO":"２５號","E_COORD97":177668.72,"N_COORD97":2540475.5899999999,"ADDRESS":"公園十街２５號","OBJECTID":169548},"geometry":{"x":177668.71999999974,"y":2540475.5899999999}},{"attributes":{"ID":169550,"DIS_CODE":0,"TOWNNAME":"歸仁區","LI":"八甲里","LIN":"12鄰","STREET":"大明二街","SECT":" ","MAREA":" ","LANE":" ","ALLEY":" ","HOUSE_NO":"６０號","E_COORD97":177917.62,"N_COORD97":2541965.6099999999,"ADDRESS":"大明二街６０號","OBJECTID":169549},"geometry":{"x":177917.62000000197,"y":2541965.6100000013}},{"attributes":{"ID":169551,"DIS_CODE":0,"TOWNNAME":"歸仁區","LI":"新厝里","LIN":"12鄰","STREET":"中正三街","SECT":" ","MAREA":" ","LANE":" ","ALLEY":" ","HOUSE_NO":"１８號","E_COORD97":177650.60000000001,"N_COORD97":2540566.5899999999,"ADDRESS":"中正三街１８號","OBJECTID":169550},"geometry":{"x":177650.59999999963,"y":2540566.5900000017}},{"attributes":{"ID":169552,"DIS_CODE":0,"TOWNNAME":"永康區","LI":"勝利里","LIN":"25鄰","STREET":"中華路","SECT":" ","MAREA":" ","LANE":"１５５巷","ALLEY":"３４弄","HOUSE_NO":"２４號","E_COORD97":171445.10000000001,"N_COORD97":2544800.9900000002,"ADDRESS":"中華路１５５巷３４弄２４號","OBJECTID":169551},"geometry":{"x":171445.10000000056,"y":2544800.9900000039}},{"attributes":{"ID":169553,"DIS_CODE":0,"TOWNNAME":"永康區","LI":"崑山里","LIN":"5鄰","STREET":"崑大路","SECT":" ","MAREA":" ","LANE":"１５５巷","ALLEY":"７９弄","HOUSE_NO":"１２號","E_COORD97":173657.19,"N_COORD97":2544061.0499999998,"ADDRESS":"崑大路１５５巷７９弄１２號","OBJECTID":169552},"geometry":{"x":173657.19000000041,"y":2544061.0500000007}},{"attributes":{"ID":169554,"DIS_CODE":0,"TOWNNAME":"永康區","LI":"崑山里","LIN":"42鄰","STREET":"大灣路","SECT":" ","MAREA":" ","LANE":"９４２巷","ALLEY":"２８０弄","HOUSE_NO":"４０號","E_COORD97":173939.29000000001,"N_COORD97":2545146.5600000001,"ADDRESS":"大灣路９４２巷２８０弄４０號","OBJECTID":169553},"geometry":{"x":173939.28999999911,"y":2545146.5600000042}},{"attributes":{"ID":169555,"DIS_CODE":0,"TOWNNAME":"永康區","LI":"烏竹里","LIN":"18鄰","STREET":"自強路","SECT":" ","MAREA":" ","LANE":"７７３巷","ALLEY":"５弄","HOUSE_NO":"３８號","E_COORD97":174419.17999999999,"N_COORD97":2548572.1899999999,"ADDRESS":"自強路７７３巷５弄３８號","OBJECTID":169554},"geometry":{"x":174419.1799999997,"y":2548572.1900000032}},{"attributes":{"ID":169556,"DIS_CODE":0,"TOWNNAME":"永康區","LI":"勝利里","LIN":"26鄰","STREET":"中華路","SECT":" ","MAREA":" ","LANE":"１２１巷","ALLEY":"２１弄","HOUSE_NO":"１９號","E_COORD97":171481.98999999999,"N_COORD97":2544686.73,"ADDRESS":"中華路１２１巷２１弄１９號","OBJECTID":169555},"geometry":{"x":171481.99000000209,"y":2544686.7300000004}},{"attributes":{"ID":169557,"DIS_CODE":0,"TOWNNAME":"永康區","LI":"勝利里","LIN":"26鄰","STREET":"中華路","SECT":" ","MAREA":" ","LANE":"１２１巷","ALLEY":"２１弄","HOUSE_NO":"１３號","E_COORD97":171505.17000000001,"N_COORD97":2544689,"ADDRESS":"中華路１２１巷２１弄１３號","OBJECTID":169556},"geometry":{"x":171505.16999999993,"y":2544689.0000000037}},{"attributes":{"ID":169558,"DIS_CODE":0,"TOWNNAME":"永康區","LI":"崑山里","LIN":"18鄰","STREET":"大灣路","SECT":" ","MAREA":" ","LANE":"９４２巷","ALLEY":"３４弄","HOUSE_NO":"７號","E_COORD97":173674.12,"N_COORD97":2544539.7400000002,"ADDRESS":"大灣路９４２巷３４弄７號","OBJECTID":169557},"geometry":{"x":173674.12000000011,"y":2544539.7400000021}},{"attributes":{"ID":169559,"DIS_CODE":0,"TOWNNAME":"永康區","LI":"勝利里","LIN":"25鄰","STREET":"中華路","SECT":" ","MAREA":" ","LANE":"１５５巷","ALLEY":"３４弄","HOUSE_NO":"１１號","E_COORD97":171460.35000000001,"N_COORD97":2544826.3999999999,"ADDRESS":"中華路１５５巷３４弄１１號","OBJECTID":169558},"geometry":{"x":171460.35000000149,"y":2544826.4000000022}},{"attributes":{"ID":169560,"DIS_CODE":0,"TOWNNAME":"永康區","LI":"勝利里","LIN":"25鄰","STREET":"中華路","SECT":" ","MAREA":" ","LANE":"１５５巷","ALLEY":"３４弄","HOUSE_NO":"３１號","E_COORD97":171453.89999999999,"N_COORD97":2544773.4100000001,"ADDRESS":"中華路１５５巷３４弄３１號","OBJECTID":169559},"geometry":{"x":171453.90000000224,"y":2544773.4100000001}},{"attributes":{"ID":169561,"DIS_CODE":0,"TOWNNAME":"歸仁區","LI":"武東里","LIN":"12鄰","STREET":" ","SECT":" ","MAREA":"明德新村","LANE":" ","ALLEY":" ","HOUSE_NO":"１８７號","E_COORD97":175164.94,"N_COORD97":2536106.27,"ADDRESS":"明德新村１８７號","OBJECTID":169560},"geometry":{"x":175164.94000000134,"y":2536106.2700000014}},{"attributes":{"ID":169562,"DIS_CODE":0,"TOWNNAME":"北門區","LI":"三光里","LIN":"13鄰","STREET":" ","SECT":" ","MAREA":"蘆竹溝","LANE":" ","ALLEY":" ","HOUSE_NO":"２４２號","E_COORD97":157821.73000000001,"N_COORD97":2570425.9300000002,"ADDRESS":"蘆竹溝２４２號","OBJECTID":169561},"geometry":{"x":157821.73000000045,"y":2570425.9300000016}},{"attributes":{"ID":169563,"DIS_CODE":0,"TOWNNAME":"北門區","LI":"三光里","LIN":"13鄰","STREET":" ","SECT":" ","MAREA":"蘆竹溝","LANE":" ","ALLEY":" ","HOUSE_NO":"２４３號","E_COORD97":157821.76000000001,"N_COORD97":2570430.02,"ADDRESS":"蘆竹溝２４３號","OBJECTID":169562},"geometry":{"x":157821.76000000071,"y":2570430.0199999996}},{"attributes":{"ID":169564,"DIS_CODE":0,"TOWNNAME":"北門區","LI":"三光里","LIN":"13鄰","STREET":" ","SECT":" ","MAREA":"蘆竹溝","LANE":" ","ALLEY":" ","HOUSE_NO":"２４４號","E_COORD97":157805.13,"N_COORD97":2570431.0600000001,"ADDRESS":"蘆竹溝２４４號","OBJECTID":169563},"geometry":{"x":157805.12999999989,"y":2570431.0600000005}},{"attributes":{"ID":169565,"DIS_CODE":0,"TOWNNAME":"北門區","LI":"三光里","LIN":"13鄰","STREET":" ","SECT":" ","MAREA":"蘆竹溝","LANE":" ","ALLEY":" ","HOUSE_NO":"２４５號","E_COORD97":157805.14000000001,"N_COORD97":2570426.8199999998,"ADDRESS":"蘆竹溝２４５號","OBJECTID":169564},"geometry":{"x":157805.13999999873,"y":2570426.820000004}},{"attributes":{"ID":169566,"DIS_CODE":0,"TOWNNAME":"永康區","LI":"勝利里","LIN":"25鄰","STREET":"中華路","SECT":" ","MAREA":" ","LANE":"１５５巷","ALLEY":"３４弄","HOUSE_NO":"１３號","E_COORD97":171459.64999999999,"N_COORD97":2544820.8999999999,"ADDRESS":"中華路１５５巷３４弄１３號","OBJECTID":169565},"geometry":{"x":171459.6500000013,"y":2544820.9000000004}},{"attributes":{"ID":169567,"DIS_CODE":0,"TOWNNAME":"北門區","LI":"三光里","LIN":"13鄰","STREET":" ","SECT":" ","MAREA":"蘆竹溝","LANE":" ","ALLEY":" ","HOUSE_NO":"２４６號","E_COORD97":157805.14999999999,"N_COORD97":2570422.5699999998,"ADDRESS":"蘆竹溝２４６號","OBJECTID":169566},"geometry":{"x":157805.15000000037,"y":2570422.5700000022}},{"attributes":{"ID":169568,"DIS_CODE":0,"TOWNNAME":"北門區","LI":"三光里","LIN":"13鄰","STREET":" ","SECT":" ","MAREA":"蘆竹溝","LANE":" ","ALLEY":" ","HOUSE_NO":"２４７號","E_COORD97":157805.20000000001,"N_COORD97":2570418.5899999999,"ADDRESS":"蘆竹溝２４７號","OBJECTID":169567},"geometry":{"x":157805.20000000019,"y":2570418.5900000017}},{"attributes":{"ID":169569,"DIS_CODE":0,"TOWNNAME":"北門區","LI":"三光里","LIN":"13鄰","STREET":" ","SECT":" ","MAREA":"蘆竹溝","LANE":" ","ALLEY":" ","HOUSE_NO":"２４８號","E_COORD97":157805.20000000001,"N_COORD97":2570414.73,"ADDRESS":"蘆竹溝２４８號","OBJECTID":169568},"geometry":{"x":157805.20000000019,"y":2570414.7300000023}},{"attributes":{"ID":169570,"DIS_CODE":0,"TOWNNAME":"永康區","LI":"勝利里","LIN":"25鄰","STREET":"中華路","SECT":" ","MAREA":" ","LANE":"１５５巷","ALLEY":"３４弄","HOUSE_NO":"２３號","E_COORD97":171456.42000000001,"N_COORD97":2544794.6600000001,"ADDRESS":"中華路１５５巷３４弄２３號","OBJECTID":169569},"geometry":{"x":171456.41999999993,"y":2544794.6600000001}},{"attributes":{"ID":169571,"DIS_CODE":0,"TOWNNAME":"北門區","LI":"三光里","LIN":"13鄰","STREET":" ","SECT":" ","MAREA":"蘆竹溝","LANE":" ","ALLEY":" ","HOUSE_NO":"２４９號","E_COORD97":157805.16,"N_COORD97":2570410.79,"ADDRESS":"蘆竹溝２４９號","OBJECTID":169570},"geometry":{"x":157805.16000000015,"y":2570410.7899999991}},{"attributes":{"ID":169572,"DIS_CODE":0,"TOWNNAME":"永康區","LI":"勝利里","LIN":"25鄰","STREET":"中華路","SECT":" ","MAREA":" ","LANE":"１５５巷","ALLEY":"３４弄","HOUSE_NO":"１４號","E_COORD97":171447.89999999999,"N_COORD97":2544822.2400000002,"ADDRESS":"中華路１５５巷３４弄１４號","OBJECTID":169571},"geometry":{"x":171447.9000000013,"y":2544822.2400000002}},{"attributes":{"ID":169573,"DIS_CODE":0,"TOWNNAME":"永康區","LI":"勝利里","LIN":"26鄰","STREET":"中華路","SECT":" ","MAREA":" ","LANE":"１２１巷","ALLEY":"２１弄","HOUSE_NO":"２７號","E_COORD97":171462.39999999999,"N_COORD97":2544675.75,"ADDRESS":"中華路１２１巷２１弄２７號","OBJECTID":169572},"geometry":{"x":171462.40000000224,"y":2544675.75}},{"attributes":{"ID":169574,"DIS_CODE":0,"TOWNNAME":"北門區","LI":"三光里","LIN":"13鄰","STREET":" ","SECT":" ","MAREA":"蘆竹溝","LANE":" ","ALLEY":" ","HOUSE_NO":"２５０號","E_COORD97":157801.35000000001,"N_COORD97":2570397.4100000001,"ADDRESS":"蘆竹溝２５０號","OBJECTID":169573},"geometry":{"x":157801.34999999963,"y":2570397.4100000001}},{"attributes":{"ID":169575,"DIS_CODE":0,"TOWNNAME":"歸仁區","LI":"媽廟里","LIN":"12鄰","STREET":"保大路","SECT":"一段","MAREA":" ","LANE":" ","ALLEY":" ","HOUSE_NO":"１８９號","E_COORD97":177570.63,"N_COORD97":2544030.7200000002,"ADDRESS":"保大路一段１８９號","OBJECTID":169574},"geometry":{"x":177570.62999999989,"y":2544030.7200000025}},{"attributes":{"ID":169576,"DIS_CODE":0,"TOWNNAME":"北門區","LI":"三光里","LIN":"13鄰","STREET":" ","SECT":" ","MAREA":"蘆竹溝","LANE":" ","ALLEY":" ","HOUSE_NO":"２５１號","E_COORD97":157801.32999999999,"N_COORD97":2570393.0699999998,"ADDRESS":"蘆竹溝２５１號","OBJECTID":169575},"geometry":{"x":157801.33000000101,"y":2570393.0700000003}},{"attributes":{"ID":169577,"DIS_CODE":0,"TOWNNAME":"北門區","LI":"三光里","LIN":"13鄰","STREET":" ","SECT":" ","MAREA":"蘆竹溝","LANE":" ","ALLEY":" ","HOUSE_NO":"２５２號","E_COORD97":157801.31,"N_COORD97":2570388.7400000002,"ADDRESS":"蘆竹溝２５２號","OBJECTID":169576},"geometry":{"x":157801.31000000052,"y":2570388.7400000002}},{"attributes":{"ID":169578,"DIS_CODE":0,"TOWNNAME":"北門區","LI":"三光里","LIN":"13鄰","STREET":" ","SECT":" ","MAREA":"蘆竹溝","LANE":" ","ALLEY":" ","HOUSE_NO":"２５３號","E_COORD97":157801.29000000001,"N_COORD97":2570384.4100000001,"ADDRESS":"蘆竹溝２５３號","OBJECTID":169577},"geometry":{"x":157801.2900000019,"y":2570384.4100000001}},{"attributes":{"ID":169579,"DIS_CODE":0,"TOWNNAME":"北門區","LI":"三光里","LIN":"13鄰","STREET":" ","SECT":" ","MAREA":"蘆竹溝","LANE":" ","ALLEY":" ","HOUSE_NO":"２５４號","E_COORD97":157801.26999999999,"N_COORD97":2570380.0800000001,"ADDRESS":"蘆竹溝２５４號","OBJECTID":169578},"geometry":{"x":157801.27000000048,"y":2570380.0800000001}},{"attributes":{"ID":169580,"DIS_CODE":0,"TOWNNAME":"北門區","LI":"三光里","LIN":"13鄰","STREET":" ","SECT":" ","MAREA":"蘆竹溝","LANE":" ","ALLEY":" ","HOUSE_NO":"２５５號","E_COORD97":157801.26000000001,"N_COORD97":2570375.75,"ADDRESS":"蘆竹溝２５５號","OBJECTID":169579},"geometry":{"x":157801.26000000164,"y":2570375.7499999981}},{"attributes":{"ID":169581,"DIS_CODE":0,"TOWNNAME":"北門區","LI":"三光里","LIN":"13鄰","STREET":" ","SECT":" ","MAREA":"蘆竹溝","LANE":" ","ALLEY":" ","HOUSE_NO":"２５６號","E_COORD97":157786.09,"N_COORD97":2570376.1499999999,"ADDRESS":"蘆竹溝２５６號","OBJECTID":169580},"geometry":{"x":157786.09000000078,"y":2570376.1500000004}},{"attributes":{"ID":169582,"DIS_CODE":0,"TOWNNAME":"歸仁區","LI":"武東里","LIN":"12鄰","STREET":" ","SECT":" ","MAREA":"明德新村","LANE":" ","ALLEY":" ","HOUSE_NO":"１４６號","E_COORD97":175148.64000000001,"N_COORD97":2536124.27,"ADDRESS":"明德新村１４６號","OBJECTID":169581},"geometry":{"x":175148.63999999873,"y":2536124.2699999996}},{"attributes":{"ID":169583,"DIS_CODE":0,"TOWNNAME":"歸仁區","LI":"武東里","LIN":"12鄰","STREET":" ","SECT":" ","MAREA":"明德新村","LANE":" ","ALLEY":" ","HOUSE_NO":"９２號","E_COORD97":175219.19,"N_COORD97":2536136.27,"ADDRESS":"明德新村９２號","OBJECTID":169582},"geometry":{"x":175219.19000000134,"y":2536136.2700000014}},{"attributes":{"ID":169584,"DIS_CODE":0,"TOWNNAME":"歸仁區","LI":"武東里","LIN":"12鄰","STREET":" ","SECT":" ","MAREA":"明德新村","LANE":" ","ALLEY":" ","HOUSE_NO":"３８號","E_COORD97":175256.19,"N_COORD97":2536149.27,"ADDRESS":"明德新村３８號","OBJECTID":169583},"geometry":{"x":175256.19000000134,"y":2536149.2699999977}},{"attributes":{"ID":169585,"DIS_CODE":0,"TOWNNAME":"歸仁區","LI":"武東里","LIN":"12鄰","STREET":" ","SECT":" ","MAREA":"明德新村","LANE":" ","ALLEY":" ","HOUSE_NO":"４３號","E_COORD97":175221.39000000001,"N_COORD97":2536151.27,"ADDRESS":"明德新村４３號","OBJECTID":169584},"geometry":{"x":175221.38999999966,"y":2536151.2699999996}},{"attributes":{"ID":169586,"DIS_CODE":0,"TOWNNAME":"歸仁區","LI":"武東里","LIN":"12鄰","STREET":" ","SECT":" ","MAREA":"明德新村","LANE":" ","ALLEY":" ","HOUSE_NO":"１３０號","E_COORD97":175263.44,"N_COORD97":2536116.27,"ADDRESS":"明德新村１３０號","OBJECTID":169585},"geometry":{"x":175263.44000000134,"y":2536116.2700000014}},{"attributes":{"ID":169587,"DIS_CODE":0,"TOWNNAME":"歸仁區","LI":"武東里","LIN":"12鄰","STREET":" ","SECT":" ","MAREA":"明德新村","LANE":" ","ALLEY":" ","HOUSE_NO":"３１號","E_COORD97":175306.39000000001,"N_COORD97":2536144.27,"ADDRESS":"明德新村３１號","OBJECTID":169586},"geometry":{"x":175306.39000000153,"y":2536144.2700000014}},{"attributes":{"ID":169588,"DIS_CODE":0,"TOWNNAME":"歸仁區","LI":"武東里","LIN":"12鄰","STREET":" ","SECT":" ","MAREA":"明德新村","LANE":" ","ALLEY":" ","HOUSE_NO":"４５號","E_COORD97":175210.09,"N_COORD97":2536153.27,"ADDRESS":"明德新村４５號","OBJECTID":169587},"geometry":{"x":175210.08999999985,"y":2536153.2700000014}},{"attributes":{"ID":169589,"DIS_CODE":0,"TOWNNAME":"歸仁區","LI":"武東里","LIN":"12鄰","STREET":" ","SECT":" ","MAREA":"明德新村","LANE":" ","ALLEY":" ","HOUSE_NO":"１１號","E_COORD97":175185.59,"N_COORD97":2536188.2599999998,"ADDRESS":"明德新村１１號","OBJECTID":169588},"geometry":{"x":175185.59000000078,"y":2536188.2600000016}},{"attributes":{"ID":169590,"DIS_CODE":0,"TOWNNAME":"新營區","LI":"太北里","LIN":"12鄰","STREET":" ","SECT":" ","MAREA":"太子宮","LANE":" ","ALLEY":" ","HOUSE_NO":"１０１之１號","E_COORD97":176018.63,"N_COORD97":2576954.2000000002,"ADDRESS":"太子宮１０１之１號","OBJECTID":169589},"geometry":{"x":176018.63000000175,"y":2576954.2000000011}},{"attributes":{"ID":169591,"DIS_CODE":0,"TOWNNAME":"歸仁區","LI":"文化里","LIN":"12鄰","STREET":"文化北一街","SECT":" ","MAREA":" ","LANE":" ","ALLEY":" ","HOUSE_NO":"３９號","E_COORD97":177335.60999999999,"N_COORD97":2541448.3399999999,"ADDRESS":"文化北一街３９號","OBJECTID":169590},"geometry":{"x":177335.61000000034,"y":2541448.339999998}},{"attributes":{"ID":169592,"DIS_CODE":0,"TOWNNAME":"北門區","LI":"三光里","LIN":"13鄰","STREET":" ","SECT":" ","MAREA":"蘆竹溝","LANE":" ","ALLEY":" ","HOUSE_NO":"２５７號","E_COORD97":157786,"N_COORD97":2570380.2000000002,"ADDRESS":"蘆竹溝２５７號","OBJECTID":169591},"geometry":{"x":157786,"y":2570380.2000000011}},{"attributes":{"ID":169593,"DIS_CODE":0,"TOWNNAME":"北門區","LI":"三光里","LIN":"13鄰","STREET":" ","SECT":" ","MAREA":"蘆竹溝","LANE":" ","ALLEY":" ","HOUSE_NO":"２５８號","E_COORD97":157786.07000000001,"N_COORD97":2570384.3300000001,"ADDRESS":"蘆竹溝２５８號","OBJECTID":169592},"geometry":{"x":157786.07000000216,"y":2570384.3300000001}},{"attributes":{"ID":169594,"DIS_CODE":0,"TOWNNAME":"北門區","LI":"三光里","LIN":"13鄰","STREET":" ","SECT":" ","MAREA":"蘆竹溝","LANE":" ","ALLEY":" ","HOUSE_NO":"２５９號","E_COORD97":157785.70000000001,"N_COORD97":2570388.8999999999,"ADDRESS":"蘆竹溝２５９號","OBJECTID":169593},"geometry":{"x":157785.70000000112,"y":2570388.9000000041}},{"attributes":{"ID":169595,"DIS_CODE":0,"TOWNNAME":"北門區","LI":"三光里","LIN":"13鄰","STREET":" ","SECT":" ","MAREA":"蘆竹溝","LANE":" ","ALLEY":" ","HOUSE_NO":"２６０號","E_COORD97":157785.29000000001,"N_COORD97":2570393.1299999999,"ADDRESS":"蘆竹溝２６０號","OBJECTID":169594},"geometry":{"x":157785.29000000004,"y":2570393.1300000008}},{"attributes":{"ID":169596,"DIS_CODE":0,"TOWNNAME":"北門區","LI":"三光里","LIN":"13鄰","STREET":" ","SECT":" ","MAREA":"蘆竹溝","LANE":" ","ALLEY":" ","HOUSE_NO":"２６１號","E_COORD97":157785.01000000001,"N_COORD97":2570398.0800000001,"ADDRESS":"蘆竹溝２６１號","OBJECTID":169595},"geometry":{"x":157785.01000000071,"y":2570398.0800000019}},{"attributes":{"ID":169597,"DIS_CODE":0,"TOWNNAME":"永康區","LI":"勝利里","LIN":"26鄰","STREET":"中華路","SECT":" ","MAREA":" ","LANE":"１２１巷","ALLEY":"２１弄","HOUSE_NO":"３１號","E_COORD97":171503.89999999999,"N_COORD97":2544666,"ADDRESS":"中華路１２１巷２１弄３１號","OBJECTID":169596},"geometry":{"x":171503.90000000037,"y":2544666.0000000019}},{"attributes":{"ID":169598,"DIS_CODE":0,"TOWNNAME":"永康區","LI":"勝利里","LIN":"25鄰","STREET":"中華路","SECT":" ","MAREA":" ","LANE":"１５５巷","ALLEY":"３４弄","HOUSE_NO":"１８號","E_COORD97":171446.92999999999,"N_COORD97":2544813.9900000002,"ADDRESS":"中華路１５５巷３４弄１８號","OBJECTID":169597},"geometry":{"x":171446.93000000063,"y":2544813.9900000002}},{"attributes":{"ID":169599,"DIS_CODE":0,"TOWNNAME":"永康區","LI":"勝利里","LIN":"25鄰","STREET":"中華路","SECT":" ","MAREA":" ","LANE":"１５５巷","ALLEY":"３４弄","HOUSE_NO":"３４號","E_COORD97":171442.29000000001,"N_COORD97":2544781.75,"ADDRESS":"中華路１５５巷３４弄３４號","OBJECTID":169598},"geometry":{"x":171442.28999999911,"y":2544781.7499999981}},{"attributes":{"ID":169600,"DIS_CODE":0,"TOWNNAME":"北門區","LI":"三光里","LIN":"13鄰","STREET":" ","SECT":" ","MAREA":"蘆竹溝","LANE":" ","ALLEY":" ","HOUSE_NO":"２６２號","E_COORD97":157786.14999999999,"N_COORD97":2570410.5499999998,"ADDRESS":"蘆竹溝２６２號","OBJECTID":169599},"geometry":{"x":157786.1500000013,"y":2570410.5500000007}},{"attributes":{"ID":169601,"DIS_CODE":0,"TOWNNAME":"永康區","LI":"崑山里","LIN":"5鄰","STREET":"崑大路","SECT":" ","MAREA":" ","LANE":"１５５巷","ALLEY":"７９弄","HOUSE_NO":"１０號","E_COORD97":173650.22,"N_COORD97":2544058.5499999998,"ADDRESS":"崑大路１５５巷７９弄１０號","OBJECTID":169600},"geometry":{"x":173650.22000000067,"y":2544058.5500000045}}]}