{"displayFieldName":"TOWNNAME","fieldAliases":{"ID":"ID","DIS_CODE":"DIS_CODE","TOWNNAME":"TOWNNAME","LI":"LI","LIN":"LIN","STREET":"STREET","SECT":"SECT","MAREA":"MAREA","LANE":"LANE","ALLEY":"ALLEY","HOUSE_NO":"HOUSE_NO","E_COORD97":"E_COORD97","N_COORD97":"N_COORD97","ADDRESS":"ADDRESS","OBJECTID":"OBJECTID"},"geometryType":"esriGeometryPoint","spatialReference":{"wkid":102443,"latestWkid":3826},"fields":[{"name":"ID","type":"esriFieldTypeDouble","alias":"ID"},{"name":"DIS_CODE","type":"esriFieldTypeInteger","alias":"DIS_CODE"},{"name":"TOWNNAME","type":"esriFieldTypeString","alias":"TOWNNAME","length":8},{"name":"LI","type":"esriFieldTypeString","alias":"LI","length":8},{"name":"LIN","type":"esriFieldTypeString","alias":"LIN","length":12},{"name":"STREET","type":"esriFieldTypeString","alias":"STREET","length":20},{"name":"SECT","type":"esriFieldTypeString","alias":"SECT","length":8},{"name":"MAREA","type":"esriFieldTypeString","alias":"MAREA","length":12},{"name":"LANE","type":"esriFieldTypeString","alias":"LANE","length":10},{"name":"ALLEY","type":"esriFieldTypeString","alias":"ALLEY","length":10},{"name":"HOUSE_NO","type":"esriFieldTypeString","alias":"HOUSE_NO","length":20},{"name":"E_COORD97","type":"esriFieldTypeDouble","alias":"E_COORD97"},{"name":"N_COORD97","type":"esriFieldTypeDouble","alias":"N_COORD97"},{"name":"ADDRESS","type":"esriFieldTypeString","alias":"ADDRESS","length":50},{"name":"OBJECTID","type":"esriFieldTypeOID","alias":"OBJECTID"}],"features":[{"attributes":{"ID":448826,"DIS_CODE":0,"TOWNNAME":"東區","LI":"後甲里","LIN":"18鄰","STREET":"建東街","SECT":" ","MAREA":" ","LANE":"４２巷","ALLEY":" ","HOUSE_NO":"１號","E_COORD97":171805.20000000001,"N_COORD97":2543407.25,"ADDRESS":"建東街４２巷１號","OBJECTID":448801},"geometry":{"x":171805.20000000019,"y":2543407.25}},{"attributes":{"ID":448827,"DIS_CODE":0,"TOWNNAME":"東區","LI":"後甲里","LIN":"18鄰","STREET":"建東街","SECT":" ","MAREA":" ","LANE":"４２巷","ALLEY":" ","HOUSE_NO":"２１號","E_COORD97":171844.67000000001,"N_COORD97":2543415.4500000002,"ADDRESS":"建東街４２巷２１號","OBJECTID":448802},"geometry":{"x":171844.66999999993,"y":2543415.4499999993}},{"attributes":{"ID":448828,"DIS_CODE":0,"TOWNNAME":"東區","LI":"後甲里","LIN":"18鄰","STREET":"建東街","SECT":" ","MAREA":" ","LANE":"４２巷","ALLEY":" ","HOUSE_NO":"２３號","E_COORD97":171848.45999999999,"N_COORD97":2543416.3900000001,"ADDRESS":"建東街４２巷２３號","OBJECTID":448803},"geometry":{"x":171848.46000000089,"y":2543416.3900000025}},{"attributes":{"ID":448829,"DIS_CODE":0,"TOWNNAME":"東區","LI":"後甲里","LIN":"18鄰","STREET":"建東街","SECT":" ","MAREA":" ","LANE":"４２巷","ALLEY":" ","HOUSE_NO":"２５號","E_COORD97":171852.88,"N_COORD97":2543416.0800000001,"ADDRESS":"建東街４２巷２５號","OBJECTID":448804},"geometry":{"x":171852.87999999989,"y":2543416.0800000001}},{"attributes":{"ID":448830,"DIS_CODE":0,"TOWNNAME":"東區","LI":"後甲里","LIN":"18鄰","STREET":"建東街","SECT":" ","MAREA":" ","LANE":"４２巷","ALLEY":" ","HOUSE_NO":"２７號","E_COORD97":171856.03,"N_COORD97":2543419.5499999998,"ADDRESS":"建東街４２巷２７號","OBJECTID":448805},"geometry":{"x":171856.03000000026,"y":2543419.5500000007}},{"attributes":{"ID":448831,"DIS_CODE":0,"TOWNNAME":"東區","LI":"後甲里","LIN":"18鄰","STREET":"建東街","SECT":" ","MAREA":" ","LANE":"４２巷","ALLEY":" ","HOUSE_NO":"３１號","E_COORD97":171864.56,"N_COORD97":2543416.71,"ADDRESS":"建東街４２巷３１號","OBJECTID":448806},"geometry":{"x":171864.56000000052,"y":2543416.709999999}},{"attributes":{"ID":448832,"DIS_CODE":0,"TOWNNAME":"東區","LI":"後甲里","LIN":"18鄰","STREET":"建東街","SECT":" ","MAREA":" ","LANE":"４２巷","ALLEY":" ","HOUSE_NO":"３３號","E_COORD97":171868.03,"N_COORD97":2543420.1800000002,"ADDRESS":"建東街４２巷３３號","OBJECTID":448807},"geometry":{"x":171868.03000000026,"y":2543420.1800000016}},{"attributes":{"ID":448833,"DIS_CODE":0,"TOWNNAME":"東區","LI":"後甲里","LIN":"18鄰","STREET":"建東街","SECT":" ","MAREA":" ","LANE":"４２巷","ALLEY":" ","HOUSE_NO":"３５號","E_COORD97":171872.76999999999,"N_COORD97":2543419.23,"ADDRESS":"建東街４２巷３５號","OBJECTID":448808},"geometry":{"x":171872.77000000048,"y":2543419.2300000004}},{"attributes":{"ID":448834,"DIS_CODE":0,"TOWNNAME":"東區","LI":"後甲里","LIN":"18鄰","STREET":"建東街","SECT":" ","MAREA":" ","LANE":"４２巷","ALLEY":" ","HOUSE_NO":"３７號","E_COORD97":171876.87,"N_COORD97":2543419.23,"ADDRESS":"建東街４２巷３７號","OBJECTID":448809},"geometry":{"x":171876.87000000011,"y":2543419.2300000004}},{"attributes":{"ID":448835,"DIS_CODE":0,"TOWNNAME":"東區","LI":"後甲里","LIN":"18鄰","STREET":"建東街","SECT":" ","MAREA":" ","LANE":"４２巷","ALLEY":" ","HOUSE_NO":"３號","E_COORD97":171808.35999999999,"N_COORD97":2543412.29,"ADDRESS":"建東街４２巷３號","OBJECTID":448810},"geometry":{"x":171808.3600000022,"y":2543412.290000001}},{"attributes":{"ID":448836,"DIS_CODE":0,"TOWNNAME":"東區","LI":"後甲里","LIN":"18鄰","STREET":"建東街","SECT":" ","MAREA":" ","LANE":"４２巷","ALLEY":" ","HOUSE_NO":"５號","E_COORD97":171812.78,"N_COORD97":2543409.77,"ADDRESS":"建東街４２巷５號","OBJECTID":448811},"geometry":{"x":171812.78000000119,"y":2543409.7700000014}},{"attributes":{"ID":448837,"DIS_CODE":0,"TOWNNAME":"東區","LI":"後甲里","LIN":"18鄰","STREET":"建東街","SECT":" ","MAREA":" ","LANE":"５２巷","ALLEY":" ","HOUSE_NO":"１０號","E_COORD97":171831.09,"N_COORD97":2543436.5699999998,"ADDRESS":"建東街５２巷１０號","OBJECTID":448812},"geometry":{"x":171831.08999999985,"y":2543436.5700000003}},{"attributes":{"ID":448838,"DIS_CODE":0,"TOWNNAME":"東區","LI":"後甲里","LIN":"18鄰","STREET":"建東街","SECT":" ","MAREA":" ","LANE":"５２巷","ALLEY":" ","HOUSE_NO":"１１號","E_COORD97":171843.72,"N_COORD97":2543436.8900000001,"ADDRESS":"建東街５２巷１１號","OBJECTID":448813},"geometry":{"x":171843.71999999974,"y":2543436.8900000025}},{"attributes":{"ID":448839,"DIS_CODE":0,"TOWNNAME":"東區","LI":"後甲里","LIN":"18鄰","STREET":"建東街","SECT":" ","MAREA":" ","LANE":"５２巷","ALLEY":" ","HOUSE_NO":"１２號","E_COORD97":171850.98000000001,"N_COORD97":2543437.52,"ADDRESS":"建東街５２巷１２號","OBJECTID":448814},"geometry":{"x":171850.98000000045,"y":2543437.5200000014}},{"attributes":{"ID":448840,"DIS_CODE":0,"TOWNNAME":"東區","LI":"後甲里","LIN":"18鄰","STREET":"建東街","SECT":" ","MAREA":" ","LANE":"５２巷","ALLEY":" ","HOUSE_NO":"１３號","E_COORD97":171856.98000000001,"N_COORD97":2543438.1499999999,"ADDRESS":"建東街５２巷１３號","OBJECTID":448815},"geometry":{"x":171856.98000000231,"y":2543438.1500000022}},{"attributes":{"ID":448841,"DIS_CODE":0,"TOWNNAME":"東區","LI":"後甲里","LIN":"18鄰","STREET":"建東街","SECT":" ","MAREA":" ","LANE":"５２巷","ALLEY":" ","HOUSE_NO":"１４號","E_COORD97":171862.98000000001,"N_COORD97":2543438.4700000002,"ADDRESS":"建東街５２巷１４號","OBJECTID":448816},"geometry":{"x":171862.98000000045,"y":2543438.4699999988}},{"attributes":{"ID":448842,"DIS_CODE":0,"TOWNNAME":"東區","LI":"後甲里","LIN":"18鄰","STREET":"建東街","SECT":" ","MAREA":" ","LANE":"５２巷","ALLEY":" ","HOUSE_NO":"１號","E_COORD97":171781.84,"N_COORD97":2543427.1099999999,"ADDRESS":"建東街５２巷１號","OBJECTID":448817},"geometry":{"x":171781.83999999985,"y":2543427.1100000013}},{"attributes":{"ID":448843,"DIS_CODE":0,"TOWNNAME":"東區","LI":"後甲里","LIN":"18鄰","STREET":"建東街","SECT":" ","MAREA":" ","LANE":"５２巷","ALLEY":" ","HOUSE_NO":"２號","E_COORD97":171785.62,"N_COORD97":2543432.48,"ADDRESS":"建東街５２巷２號","OBJECTID":448818},"geometry":{"x":171785.62000000011,"y":2543432.4800000023}},{"attributes":{"ID":448844,"DIS_CODE":0,"TOWNNAME":"東區","LI":"後甲里","LIN":"18鄰","STREET":"建東街","SECT":" ","MAREA":" ","LANE":"５２巷","ALLEY":" ","HOUSE_NO":"４號","E_COORD97":171794.78,"N_COORD97":2543428.3799999999,"ADDRESS":"建東街５２巷４號","OBJECTID":448819},"geometry":{"x":171794.78000000026,"y":2543428.3800000008}},{"attributes":{"ID":448845,"DIS_CODE":0,"TOWNNAME":"東區","LI":"後甲里","LIN":"18鄰","STREET":"建東街","SECT":" ","MAREA":" ","LANE":"５２巷","ALLEY":" ","HOUSE_NO":"５號","E_COORD97":171798.89000000001,"N_COORD97":2543428.0600000001,"ADDRESS":"建東街５２巷５號","OBJECTID":448820},"geometry":{"x":171798.88999999873,"y":2543428.0600000024}},{"attributes":{"ID":448846,"DIS_CODE":0,"TOWNNAME":"東區","LI":"後甲里","LIN":"18鄰","STREET":"建東街","SECT":" ","MAREA":" ","LANE":"５２巷","ALLEY":" ","HOUSE_NO":"６號","E_COORD97":171802.98999999999,"N_COORD97":2543430.5800000001,"ADDRESS":"建東街５２巷６號","OBJECTID":448821},"geometry":{"x":171802.99000000115,"y":2543430.5800000038}},{"attributes":{"ID":448847,"DIS_CODE":0,"TOWNNAME":"安南區","LI":"理想里","LIN":"18鄰","STREET":"大安街","SECT":" ","MAREA":" ","LANE":"２５７巷","ALLEY":" ","HOUSE_NO":"１０號","E_COORD97":167445.89000000001,"N_COORD97":2548475.3199999998,"ADDRESS":"大安街２５７巷１０號","OBJECTID":448822},"geometry":{"x":167445.89000000153,"y":2548475.3200000022}},{"attributes":{"ID":448848,"DIS_CODE":0,"TOWNNAME":"安南區","LI":"理想里","LIN":"18鄰","STREET":"大安街","SECT":" ","MAREA":" ","LANE":"２５７巷","ALLEY":" ","HOUSE_NO":"１４號","E_COORD97":167437.48000000001,"N_COORD97":2548481.23,"ADDRESS":"大安街２５７巷１４號","OBJECTID":448823},"geometry":{"x":167437.48000000231,"y":2548481.2300000004}},{"attributes":{"ID":448849,"DIS_CODE":0,"TOWNNAME":"安南區","LI":"理想里","LIN":"18鄰","STREET":"大安街","SECT":" ","MAREA":" ","LANE":"２５７巷","ALLEY":" ","HOUSE_NO":"６號","E_COORD97":167454.19,"N_COORD97":2548469.6499999999,"ADDRESS":"大安街２５７巷６號","OBJECTID":448824},"geometry":{"x":167454.19000000041,"y":2548469.6500000022}},{"attributes":{"ID":448850,"DIS_CODE":0,"TOWNNAME":"安南區","LI":"理想里","LIN":"18鄰","STREET":"大安街","SECT":" ","MAREA":" ","LANE":"２５７巷","ALLEY":" ","HOUSE_NO":"８號","E_COORD97":167449.79999999999,"N_COORD97":2548472.21,"ADDRESS":"大安街２５７巷８號","OBJECTID":448825},"geometry":{"x":167449.79999999888,"y":2548472.2100000046}},{"attributes":{"ID":448851,"DIS_CODE":0,"TOWNNAME":"安南區","LI":"理想里","LIN":"18鄰","STREET":"大安街","SECT":" ","MAREA":" ","LANE":"２７１巷","ALLEY":" ","HOUSE_NO":"１０號","E_COORD97":167464.57000000001,"N_COORD97":2548504.2400000002,"ADDRESS":"大安街２７１巷１０號","OBJECTID":448826},"geometry":{"x":167464.57000000123,"y":2548504.2400000002}},{"attributes":{"ID":448852,"DIS_CODE":0,"TOWNNAME":"大內區","LI":"環湖里","LIN":"7鄰","STREET":" ","SECT":" ","MAREA":"環湖","LANE":" ","ALLEY":" ","HOUSE_NO":"９１號之８","E_COORD97":190318.0018,"N_COORD97":2560655.9269300001,"ADDRESS":"環湖９１號之８","OBJECTID":448827},"geometry":{"x":190318.00180000067,"y":2560655.9269299991}},{"attributes":{"ID":448853,"DIS_CODE":0,"TOWNNAME":"安南區","LI":"理想里","LIN":"18鄰","STREET":"大安街","SECT":" ","MAREA":" ","LANE":"２７１巷","ALLEY":" ","HOUSE_NO":"１１號","E_COORD97":167444.41,"N_COORD97":2548491.7999999998,"ADDRESS":"大安街２７１巷１１號","OBJECTID":448828},"geometry":{"x":167444.41000000201,"y":2548491.8000000026}},{"attributes":{"ID":448854,"DIS_CODE":0,"TOWNNAME":"安南區","LI":"理想里","LIN":"18鄰","STREET":"大安街","SECT":" ","MAREA":" ","LANE":"２７１巷","ALLEY":" ","HOUSE_NO":"１３號","E_COORD97":167438.92000000001,"N_COORD97":2548495.3900000001,"ADDRESS":"大安街２７１巷１３號","OBJECTID":448829},"geometry":{"x":167438.91999999993,"y":2548495.3900000025}},{"attributes":{"ID":448855,"DIS_CODE":0,"TOWNNAME":"安南區","LI":"理想里","LIN":"18鄰","STREET":"大安街","SECT":" ","MAREA":" ","LANE":"２７１巷","ALLEY":" ","HOUSE_NO":"１４號","E_COORD97":167455.76000000001,"N_COORD97":2548509.8100000001,"ADDRESS":"大安街２７１巷１４號","OBJECTID":448830},"geometry":{"x":167455.76000000071,"y":2548509.8100000024}},{"attributes":{"ID":448856,"DIS_CODE":0,"TOWNNAME":"安南區","LI":"理想里","LIN":"18鄰","STREET":"大安街","SECT":" ","MAREA":" ","LANE":"２７１巷","ALLEY":" ","HOUSE_NO":"１６號","E_COORD97":167451.73000000001,"N_COORD97":2548513.0899999999,"ADDRESS":"大安街２７１巷１６號","OBJECTID":448831},"geometry":{"x":167451.73000000138,"y":2548513.0900000017}},{"attributes":{"ID":448857,"DIS_CODE":0,"TOWNNAME":"安南區","LI":"理想里","LIN":"18鄰","STREET":"大安街","SECT":" ","MAREA":" ","LANE":"２７１巷","ALLEY":" ","HOUSE_NO":"３號","E_COORD97":167464.39999999999,"N_COORD97":2548479.6000000001,"ADDRESS":"大安街２７１巷３號","OBJECTID":448832},"geometry":{"x":167464.40000000037,"y":2548479.6000000015}},{"attributes":{"ID":448858,"DIS_CODE":0,"TOWNNAME":"安南區","LI":"理想里","LIN":"18鄰","STREET":"大安街","SECT":" ","MAREA":" ","LANE":"２７１巷","ALLEY":" ","HOUSE_NO":"４號","E_COORD97":167476.64999999999,"N_COORD97":2548496.3199999998,"ADDRESS":"大安街２７１巷４號","OBJECTID":448833},"geometry":{"x":167476.65000000037,"y":2548496.3200000003}},{"attributes":{"ID":448859,"DIS_CODE":0,"TOWNNAME":"安南區","LI":"理想里","LIN":"18鄰","STREET":"大安街","SECT":" ","MAREA":" ","LANE":"２７１巷","ALLEY":" ","HOUSE_NO":"６號","E_COORD97":167472.75,"N_COORD97":2548498.46,"ADDRESS":"大安街２７１巷６號","OBJECTID":448834},"geometry":{"x":167472.75000000093,"y":2548498.4600000028}},{"attributes":{"ID":448860,"DIS_CODE":0,"TOWNNAME":"安南區","LI":"理想里","LIN":"18鄰","STREET":"大安街","SECT":" ","MAREA":" ","LANE":"２７１巷","ALLEY":" ","HOUSE_NO":"７號","E_COORD97":167454.48000000001,"N_COORD97":2548485.2999999998,"ADDRESS":"大安街２７１巷７號","OBJECTID":448835},"geometry":{"x":167454.48000000231,"y":2548485.3000000026}},{"attributes":{"ID":448861,"DIS_CODE":0,"TOWNNAME":"安南區","LI":"理想里","LIN":"18鄰","STREET":"大安街","SECT":" ","MAREA":" ","LANE":"２７１巷","ALLEY":" ","HOUSE_NO":"８號","E_COORD97":167468.48000000001,"N_COORD97":2548501.75,"ADDRESS":"大安街２７１巷８號","OBJECTID":448836},"geometry":{"x":167468.48000000138,"y":2548501.7500000019}},{"attributes":{"ID":448862,"DIS_CODE":0,"TOWNNAME":"安南區","LI":"理想里","LIN":"18鄰","STREET":"大安街","SECT":" ","MAREA":" ","LANE":"２７１巷","ALLEY":" ","HOUSE_NO":"９號","E_COORD97":167448.98999999999,"N_COORD97":2548488.6299999999,"ADDRESS":"大安街２７１巷９號","OBJECTID":448837},"geometry":{"x":167448.98999999929,"y":2548488.6300000008}},{"attributes":{"ID":448863,"DIS_CODE":0,"TOWNNAME":"安南區","LI":"理想里","LIN":"18鄰","STREET":"大安街","SECT":" ","MAREA":" ","LANE":"２８５巷","ALLEY":" ","HOUSE_NO":"１０號","E_COORD97":167478.35999999999,"N_COORD97":2548534.54,"ADDRESS":"大安街２８５巷１０號","OBJECTID":448838},"geometry":{"x":167478.36000000034,"y":2548534.5399999991}},{"attributes":{"ID":448864,"DIS_CODE":0,"TOWNNAME":"安南區","LI":"理想里","LIN":"18鄰","STREET":"大安街","SECT":" ","MAREA":" ","LANE":"２８５巷","ALLEY":" ","HOUSE_NO":"１１號","E_COORD97":167462.23999999999,"N_COORD97":2548520.4500000002,"ADDRESS":"大安街２８５巷１１號","OBJECTID":448839},"geometry":{"x":167462.24000000022,"y":2548520.4500000011}},{"attributes":{"ID":448865,"DIS_CODE":0,"TOWNNAME":"安南區","LI":"理想里","LIN":"18鄰","STREET":"大安街","SECT":" ","MAREA":" ","LANE":"２８５巷","ALLEY":" ","HOUSE_NO":"１２號","E_COORD97":167473.66,"N_COORD97":2548538.1299999999,"ADDRESS":"大安街２８５巷１２號","OBJECTID":448840},"geometry":{"x":167473.66000000108,"y":2548538.1300000027}},{"attributes":{"ID":448866,"DIS_CODE":0,"TOWNNAME":"安南區","LI":"理想里","LIN":"18鄰","STREET":"大安街","SECT":" ","MAREA":" ","LANE":"２８５巷","ALLEY":" ","HOUSE_NO":"１３號","E_COORD97":167457.60999999999,"N_COORD97":2548524.1000000001,"ADDRESS":"大安街２８５巷１３號","OBJECTID":448841},"geometry":{"x":167457.61000000127,"y":2548524.0999999996}},{"attributes":{"ID":448867,"DIS_CODE":0,"TOWNNAME":"安南區","LI":"理想里","LIN":"18鄰","STREET":"大安街","SECT":" ","MAREA":" ","LANE":"２８５巷","ALLEY":" ","HOUSE_NO":"１５號","E_COORD97":167453.28,"N_COORD97":2548526.9100000001,"ADDRESS":"大安街２８５巷１５號","OBJECTID":448842},"geometry":{"x":167453.28000000026,"y":2548526.9100000001}},{"attributes":{"ID":448868,"DIS_CODE":0,"TOWNNAME":"安南區","LI":"理想里","LIN":"18鄰","STREET":"大安街","SECT":" ","MAREA":" ","LANE":"２８５巷","ALLEY":" ","HOUSE_NO":"１號","E_COORD97":167487.63,"N_COORD97":2548504.2799999998,"ADDRESS":"大安街２８５巷１號","OBJECTID":448843},"geometry":{"x":167487.62999999989,"y":2548504.2800000012}},{"attributes":{"ID":448869,"DIS_CODE":0,"TOWNNAME":"安南區","LI":"理想里","LIN":"18鄰","STREET":"大安街","SECT":" ","MAREA":" ","LANE":"２８５巷","ALLEY":" ","HOUSE_NO":"２號","E_COORD97":167497.76000000001,"N_COORD97":2548521.1000000001,"ADDRESS":"大安街２８５巷２號","OBJECTID":448844},"geometry":{"x":167497.76000000164,"y":2548521.0999999996}},{"attributes":{"ID":448870,"DIS_CODE":0,"TOWNNAME":"安南區","LI":"理想里","LIN":"18鄰","STREET":"大安街","SECT":" ","MAREA":" ","LANE":"２８５巷","ALLEY":" ","HOUSE_NO":"３號","E_COORD97":167482.51000000001,"N_COORD97":2548507.75,"ADDRESS":"大安街２８５巷３號","OBJECTID":448845},"geometry":{"x":167482.51000000071,"y":2548507.7499999981}},{"attributes":{"ID":448871,"DIS_CODE":0,"TOWNNAME":"安南區","LI":"理想里","LIN":"18鄰","STREET":"大安街","SECT":" ","MAREA":" ","LANE":"２８５巷","ALLEY":" ","HOUSE_NO":"４號","E_COORD97":167493.42999999999,"N_COORD97":2548524.9399999999,"ADDRESS":"大安街２８５巷４號","OBJECTID":448846},"geometry":{"x":167493.43000000063,"y":2548524.9399999995}},{"attributes":{"ID":448872,"DIS_CODE":0,"TOWNNAME":"安南區","LI":"理想里","LIN":"18鄰","STREET":"大安街","SECT":" ","MAREA":" ","LANE":"２８５巷","ALLEY":" ","HOUSE_NO":"５號","E_COORD97":167478.29999999999,"N_COORD97":2548511.1000000001,"ADDRESS":"大安街２８５巷５號","OBJECTID":448847},"geometry":{"x":167478.29999999981,"y":2548511.0999999996}},{"attributes":{"ID":448873,"DIS_CODE":0,"TOWNNAME":"安南區","LI":"理想里","LIN":"18鄰","STREET":"大安街","SECT":" ","MAREA":" ","LANE":"２８５巷","ALLEY":" ","HOUSE_NO":"６號","E_COORD97":167488.91,"N_COORD97":2548527.4900000002,"ADDRESS":"大安街２８５巷６號","OBJECTID":448848},"geometry":{"x":167488.91000000108,"y":2548527.4900000021}},{"attributes":{"ID":448874,"DIS_CODE":0,"TOWNNAME":"安南區","LI":"理想里","LIN":"18鄰","STREET":"大安街","SECT":" ","MAREA":" ","LANE":"２８５巷","ALLEY":" ","HOUSE_NO":"７號","E_COORD97":167472.87,"N_COORD97":2548513.7200000002,"ADDRESS":"大安街２８５巷７號","OBJECTID":448849},"geometry":{"x":167472.87000000011,"y":2548513.7200000025}},{"attributes":{"ID":448875,"DIS_CODE":0,"TOWNNAME":"安南區","LI":"理想里","LIN":"18鄰","STREET":"大安街","SECT":" ","MAREA":" ","LANE":"２８５巷","ALLEY":" ","HOUSE_NO":"８號","E_COORD97":167483.48000000001,"N_COORD97":2548531.6800000002,"ADDRESS":"大安街２８５巷８號","OBJECTID":448850},"geometry":{"x":167483.48000000138,"y":2548531.6799999978}},{"attributes":{"ID":448876,"DIS_CODE":0,"TOWNNAME":"安南區","LI":"理想里","LIN":"18鄰","STREET":"大安街","SECT":" ","MAREA":" ","LANE":"２８５巷","ALLEY":" ","HOUSE_NO":"９號","E_COORD97":167467.69,"N_COORD97":2548517.6800000002,"ADDRESS":"大安街２８５巷９號","OBJECTID":448851},"geometry":{"x":167467.69000000041,"y":2548517.6799999997}},{"attributes":{"ID":448877,"DIS_CODE":0,"TOWNNAME":"安南區","LI":"理想里","LIN":"18鄰","STREET":"大安街","SECT":" ","MAREA":" ","LANE":"２９９巷","ALLEY":" ","HOUSE_NO":"１０號","E_COORD97":167489.25,"N_COORD97":2548567.9700000002,"ADDRESS":"大安街２９９巷１０號","OBJECTID":448852},"geometry":{"x":167489.25,"y":2548567.9700000007}},{"attributes":{"ID":448878,"DIS_CODE":0,"TOWNNAME":"安南區","LI":"理想里","LIN":"18鄰","STREET":"大安街","SECT":" ","MAREA":" ","LANE":"２９９巷","ALLEY":" ","HOUSE_NO":"１１號","E_COORD97":167480.5,"N_COORD97":2548548.7799999998,"ADDRESS":"大安街２９９巷１１號","OBJECTID":448853},"geometry":{"x":167480.5,"y":2548548.7800000012}},{"attributes":{"ID":448879,"DIS_CODE":0,"TOWNNAME":"安南區","LI":"理想里","LIN":"18鄰","STREET":"大安街","SECT":" ","MAREA":" ","LANE":"２９９巷","ALLEY":" ","HOUSE_NO":"１２號","E_COORD97":167485.10999999999,"N_COORD97":2548571.0800000001,"ADDRESS":"大安街２９９巷１２號","OBJECTID":448854},"geometry":{"x":167485.11000000034,"y":2548571.0800000019}},{"attributes":{"ID":448880,"DIS_CODE":0,"TOWNNAME":"安南區","LI":"理想里","LIN":"18鄰","STREET":"大安街","SECT":" ","MAREA":" ","LANE":"２９９巷","ALLEY":" ","HOUSE_NO":"１３號","E_COORD97":167476.04999999999,"N_COORD97":2548551.3399999999,"ADDRESS":"大安街２９９巷１３號","OBJECTID":448855},"geometry":{"x":167476.05000000075,"y":2548551.3400000036}},{"attributes":{"ID":448881,"DIS_CODE":0,"TOWNNAME":"安南區","LI":"理想里","LIN":"18鄰","STREET":"大安街","SECT":" ","MAREA":" ","LANE":"２９９巷","ALLEY":" ","HOUSE_NO":"１４號","E_COORD97":167479.70999999999,"N_COORD97":2548574.7400000002,"ADDRESS":"大安街２９９巷１４號","OBJECTID":448856},"geometry":{"x":167479.71000000089,"y":2548574.7400000002}},{"attributes":{"ID":448882,"DIS_CODE":0,"TOWNNAME":"安南區","LI":"理想里","LIN":"18鄰","STREET":"大安街","SECT":" ","MAREA":" ","LANE":"２９９巷","ALLEY":" ","HOUSE_NO":"１５號","E_COORD97":167471.10999999999,"N_COORD97":2548554.8700000001,"ADDRESS":"大安街２９９巷１５號","OBJECTID":448857},"geometry":{"x":167471.11000000127,"y":2548554.870000001}},{"attributes":{"ID":448883,"DIS_CODE":0,"TOWNNAME":"安南區","LI":"理想里","LIN":"18鄰","STREET":"大安街","SECT":" ","MAREA":" ","LANE":"２９９巷","ALLEY":" ","HOUSE_NO":"１號","E_COORD97":167506.5,"N_COORD97":2548532.4700000002,"ADDRESS":"大安街２９９巷１號","OBJECTID":448858},"geometry":{"x":167506.50000000186,"y":2548532.4700000025}},{"attributes":{"ID":448884,"DIS_CODE":0,"TOWNNAME":"安南區","LI":"理想里","LIN":"18鄰","STREET":"大安街","SECT":" ","MAREA":" ","LANE":"２９９巷","ALLEY":" ","HOUSE_NO":"２號","E_COORD97":167510.59,"N_COORD97":2548553.1699999999,"ADDRESS":"大安街２９９巷２號","OBJECTID":448859},"geometry":{"x":167510.58999999985,"y":2548553.1700000018}},{"attributes":{"ID":448885,"DIS_CODE":0,"TOWNNAME":"安南區","LI":"理想里","LIN":"18鄰","STREET":"大安街","SECT":" ","MAREA":" ","LANE":"２９９巷","ALLEY":" ","HOUSE_NO":"３號","E_COORD97":167501.12,"N_COORD97":2548535.1400000001,"ADDRESS":"大安街２９９巷３號","OBJECTID":448860},"geometry":{"x":167501.12000000104,"y":2548535.1400000006}},{"attributes":{"ID":448886,"DIS_CODE":0,"TOWNNAME":"安南區","LI":"理想里","LIN":"18鄰","STREET":"大安街","SECT":" ","MAREA":" ","LANE":"２９９巷","ALLEY":" ","HOUSE_NO":"４號","E_COORD97":167504.26000000001,"N_COORD97":2548557.8700000001,"ADDRESS":"大安街２９９巷４號","OBJECTID":448861},"geometry":{"x":167504.25999999978,"y":2548557.870000001}},{"attributes":{"ID":448887,"DIS_CODE":0,"TOWNNAME":"安南區","LI":"理想里","LIN":"18鄰","STREET":"大安街","SECT":" ","MAREA":" ","LANE":"２９９巷","ALLEY":" ","HOUSE_NO":"５號","E_COORD97":167496.04999999999,"N_COORD97":2548539.7599999998,"ADDRESS":"大安街２９９巷５號","OBJECTID":448862},"geometry":{"x":167496.05000000075,"y":2548539.7600000016}},{"attributes":{"ID":448888,"DIS_CODE":0,"TOWNNAME":"安南區","LI":"理想里","LIN":"18鄰","STREET":"大安街","SECT":" ","MAREA":" ","LANE":"２９９巷","ALLEY":" ","HOUSE_NO":"６號","E_COORD97":167498.53,"N_COORD97":2548560.3599999999,"ADDRESS":"大安街２９９巷６號","OBJECTID":448863},"geometry":{"x":167498.53000000119,"y":2548560.3599999994}},{"attributes":{"ID":448889,"DIS_CODE":0,"TOWNNAME":"永康區","LI":"五王里","LIN":"18鄰","STREET":"成功路","SECT":" ","MAREA":" ","LANE":"１８８巷","ALLEY":" ","HOUSE_NO":"４號","E_COORD97":171446.26999999999,"N_COORD97":2545667.2599999998,"ADDRESS":"成功路１８８巷４號","OBJECTID":448864},"geometry":{"x":171446.26999999955,"y":2545667.2600000016}},{"attributes":{"ID":448890,"DIS_CODE":0,"TOWNNAME":"永康區","LI":"二王里","LIN":"18鄰","STREET":"中山南路","SECT":" ","MAREA":" ","LANE":"６４４巷","ALLEY":" ","HOUSE_NO":"３號","E_COORD97":172403.75,"N_COORD97":2546660.1299999999,"ADDRESS":"中山南路６４４巷３號","OBJECTID":448865},"geometry":{"x":172403.75000000186,"y":2546660.1300000027}},{"attributes":{"ID":448891,"DIS_CODE":0,"TOWNNAME":"永康區","LI":"中興里","LIN":"18鄰","STREET":"中華路","SECT":" ","MAREA":" ","LANE":"２８６巷","ALLEY":" ","HOUSE_NO":"５５號","E_COORD97":171666.94,"N_COORD97":2545322.4900000002,"ADDRESS":"中華路２８６巷５５號","OBJECTID":448866},"geometry":{"x":171666.94000000041,"y":2545322.4900000002}},{"attributes":{"ID":448892,"DIS_CODE":0,"TOWNNAME":"永康區","LI":"五王里","LIN":"18鄰","STREET":"成功路","SECT":" ","MAREA":" ","LANE":"１７２巷","ALLEY":" ","HOUSE_NO":"７１號","E_COORD97":171550.09,"N_COORD97":2545751.6299999999,"ADDRESS":"成功路１７２巷７１號","OBJECTID":448867},"geometry":{"x":171550.08999999985,"y":2545751.6300000008}},{"attributes":{"ID":448893,"DIS_CODE":0,"TOWNNAME":"永康區","LI":"五王里","LIN":"18鄰","STREET":"成功路","SECT":" ","MAREA":" ","LANE":"１７２巷","ALLEY":" ","HOUSE_NO":"８１號","E_COORD97":171543.85999999999,"N_COORD97":2545773.6299999999,"ADDRESS":"成功路１７２巷８１號","OBJECTID":448868},"geometry":{"x":171543.8599999994,"y":2545773.629999999}},{"attributes":{"ID":448894,"DIS_CODE":0,"TOWNNAME":"永康區","LI":"大灣里","LIN":"18鄰","STREET":"大灣路","SECT":" ","MAREA":" ","LANE":"３５６巷","ALLEY":" ","HOUSE_NO":"３６號","E_COORD97":174785.01000000001,"N_COORD97":2545139.6699999999,"ADDRESS":"大灣路３５６巷３６號","OBJECTID":448869},"geometry":{"x":174785.00999999978,"y":2545139.6700000018}},{"attributes":{"ID":448895,"DIS_CODE":0,"TOWNNAME":"永康區","LI":"勝利里","LIN":"18鄰","STREET":"中華一路","SECT":" ","MAREA":" ","LANE":"３２４巷","ALLEY":" ","HOUSE_NO":"３號","E_COORD97":171214.26000000001,"N_COORD97":2545023.4900000002,"ADDRESS":"中華一路３２４巷３號","OBJECTID":448870},"geometry":{"x":171214.26000000071,"y":2545023.4900000002}},{"attributes":{"ID":448896,"DIS_CODE":0,"TOWNNAME":"永康區","LI":"勝利里","LIN":"18鄰","STREET":"中華一路","SECT":" ","MAREA":" ","LANE":"３２４巷","ALLEY":" ","HOUSE_NO":"１６號","E_COORD97":171232.03,"N_COORD97":2545056.3700000001,"ADDRESS":"中華一路３２４巷１６號","OBJECTID":448871},"geometry":{"x":171232.03000000026,"y":2545056.370000001}},{"attributes":{"ID":448897,"DIS_CODE":0,"TOWNNAME":"永康區","LI":"神洲里","LIN":"18鄰","STREET":"忠孝路","SECT":" ","MAREA":" ","LANE":"８６巷","ALLEY":" ","HOUSE_NO":"５號","E_COORD97":172115.19,"N_COORD97":2544945.7400000002,"ADDRESS":"忠孝路８６巷５號","OBJECTID":448872},"geometry":{"x":172115.19000000134,"y":2544945.7400000021}},{"attributes":{"ID":448898,"DIS_CODE":0,"TOWNNAME":"永康區","LI":"勝利里","LIN":"18鄰","STREET":"中華一路","SECT":" ","MAREA":" ","LANE":"３２４巷","ALLEY":" ","HOUSE_NO":"２４號","E_COORD97":171233.73000000001,"N_COORD97":2545075.1299999999,"ADDRESS":"中華一路３２４巷２４號","OBJECTID":448873},"geometry":{"x":171233.73000000138,"y":2545075.129999999}},{"attributes":{"ID":448899,"DIS_CODE":0,"TOWNNAME":"安南區","LI":"安富里","LIN":"18鄰","STREET":"安富街","SECT":" ","MAREA":" ","LANE":"２４５巷","ALLEY":" ","HOUSE_NO":"２１號","E_COORD97":167596.84,"N_COORD97":2547394.9500000002,"ADDRESS":"安富街２４５巷２１號","OBJECTID":448874},"geometry":{"x":167596.83999999985,"y":2547394.9500000011}},{"attributes":{"ID":448900,"DIS_CODE":0,"TOWNNAME":"安南區","LI":"安富里","LIN":"18鄰","STREET":"安富街","SECT":" ","MAREA":" ","LANE":"２４５巷","ALLEY":" ","HOUSE_NO":"２３號","E_COORD97":167598.51999999999,"N_COORD97":2547390.3500000001,"ADDRESS":"安富街２４５巷２３號","OBJECTID":448875},"geometry":{"x":167598.51999999955,"y":2547390.3499999996}},{"attributes":{"ID":448901,"DIS_CODE":0,"TOWNNAME":"安南區","LI":"安富里","LIN":"18鄰","STREET":"安富街","SECT":" ","MAREA":" ","LANE":"２４５巷","ALLEY":" ","HOUSE_NO":"２４號","E_COORD97":167574.76000000001,"N_COORD97":2547389.3700000001,"ADDRESS":"安富街２４５巷２４號","OBJECTID":448876},"geometry":{"x":167574.76000000071,"y":2547389.3700000048}},{"attributes":{"ID":448902,"DIS_CODE":0,"TOWNNAME":"安南區","LI":"安富里","LIN":"18鄰","STREET":"安富街","SECT":" ","MAREA":" ","LANE":"２４５巷","ALLEY":" ","HOUSE_NO":"２６號","E_COORD97":167575.67000000001,"N_COORD97":2547382.7599999998,"ADDRESS":"安富街２４５巷２６號","OBJECTID":448877},"geometry":{"x":167575.66999999993,"y":2547382.7600000016}},{"attributes":{"ID":448903,"DIS_CODE":0,"TOWNNAME":"安南區","LI":"安富里","LIN":"18鄰","STREET":"安富街","SECT":" ","MAREA":" ","LANE":"２４５巷","ALLEY":" ","HOUSE_NO":"２８號","E_COORD97":167575.97,"N_COORD97":2547377.6600000001,"ADDRESS":"安富街２４５巷２８號","OBJECTID":448878},"geometry":{"x":167575.9700000016,"y":2547377.660000002}},{"attributes":{"ID":448904,"DIS_CODE":0,"TOWNNAME":"安南區","LI":"溪東里","LIN":"18鄰","STREET":"北安路","SECT":"二段","MAREA":" ","LANE":"１４７巷","ALLEY":" ","HOUSE_NO":"９號","E_COORD97":168439.45000000001,"N_COORD97":2547580.2799999998,"ADDRESS":"北安路二段１４７巷９號","OBJECTID":448879},"geometry":{"x":168439.45000000112,"y":2547580.2799999993}},{"attributes":{"ID":448905,"DIS_CODE":0,"TOWNNAME":"安南區","LI":"溪東里","LIN":"18鄰","STREET":"北安路","SECT":"二段","MAREA":" ","LANE":"１４７巷","ALLEY":" ","HOUSE_NO":"１１號","E_COORD97":168434.28,"N_COORD97":2547580.5699999998,"ADDRESS":"北安路二段１４７巷１１號","OBJECTID":448880},"geometry":{"x":168434.28000000119,"y":2547580.570000004}},{"attributes":{"ID":448906,"DIS_CODE":0,"TOWNNAME":"安南區","LI":"溪東里","LIN":"18鄰","STREET":"北安路","SECT":"二段","MAREA":" ","LANE":"１４７巷","ALLEY":" ","HOUSE_NO":"１７號","E_COORD97":168402.39999999999,"N_COORD97":2547577.6600000001,"ADDRESS":"北安路二段１４７巷１７號","OBJECTID":448881},"geometry":{"x":168402.40000000037,"y":2547577.660000002}},{"attributes":{"ID":448907,"DIS_CODE":0,"TOWNNAME":"安南區","LI":"溪東里","LIN":"18鄰","STREET":"北安路","SECT":"二段","MAREA":" ","LANE":"１４７巷","ALLEY":" ","HOUSE_NO":"１９號","E_COORD97":168395.5,"N_COORD97":2547576.4900000002,"ADDRESS":"北安路二段１４７巷１９號","OBJECTID":448882},"geometry":{"x":168395.50000000093,"y":2547576.4900000002}},{"attributes":{"ID":448908,"DIS_CODE":0,"TOWNNAME":"安南區","LI":"溪東里","LIN":"18鄰","STREET":"北安路","SECT":"二段","MAREA":" ","LANE":"１４７巷","ALLEY":" ","HOUSE_NO":"１號","E_COORD97":168455.45000000001,"N_COORD97":2547583.29,"ADDRESS":"北安路二段１４７巷１號","OBJECTID":448883},"geometry":{"x":168455.45000000019,"y":2547583.2899999991}},{"attributes":{"ID":448909,"DIS_CODE":0,"TOWNNAME":"安南區","LI":"溪東里","LIN":"18鄰","STREET":"北安路","SECT":"二段","MAREA":" ","LANE":"１４７巷","ALLEY":" ","HOUSE_NO":"２０號","E_COORD97":168391.67999999999,"N_COORD97":2547599.1099999999,"ADDRESS":"北安路二段１４７巷２０號","OBJECTID":448884},"geometry":{"x":168391.68000000063,"y":2547599.1099999994}},{"attributes":{"ID":448910,"DIS_CODE":0,"TOWNNAME":"安南區","LI":"溪東里","LIN":"18鄰","STREET":"北安路","SECT":"二段","MAREA":" ","LANE":"１４７巷","ALLEY":" ","HOUSE_NO":"２３號","E_COORD97":168382.45999999999,"N_COORD97":2547574.5899999999,"ADDRESS":"北安路二段１４７巷２３號","OBJECTID":448885},"geometry":{"x":168382.45999999996,"y":2547574.5900000017}},{"attributes":{"ID":448911,"DIS_CODE":0,"TOWNNAME":"安南區","LI":"溪東里","LIN":"18鄰","STREET":"北安路","SECT":"二段","MAREA":" ","LANE":"１４７巷","ALLEY":" ","HOUSE_NO":"２５號","E_COORD97":168376.31,"N_COORD97":2547574.4199999999,"ADDRESS":"北安路二段１４７巷２５號","OBJECTID":448886},"geometry":{"x":168376.30999999959,"y":2547574.4200000037}},{"attributes":{"ID":448912,"DIS_CODE":0,"TOWNNAME":"安南區","LI":"溪東里","LIN":"18鄰","STREET":"北安路","SECT":"二段","MAREA":" ","LANE":"１４７巷","ALLEY":" ","HOUSE_NO":"２７號","E_COORD97":168369.95999999999,"N_COORD97":2547573.3300000001,"ADDRESS":"北安路二段１４７巷２７號","OBJECTID":448887},"geometry":{"x":168369.96000000089,"y":2547573.3300000019}},{"attributes":{"ID":448913,"DIS_CODE":0,"TOWNNAME":"安南區","LI":"溪東里","LIN":"18鄰","STREET":"北安路","SECT":"二段","MAREA":" ","LANE":"１４７巷","ALLEY":" ","HOUSE_NO":"２８號","E_COORD97":168367.149512,"N_COORD97":2547596.0193699999,"ADDRESS":"北安路二段１４７巷２８號","OBJECTID":448888},"geometry":{"x":168367.14951200038,"y":2547596.0193670001}},{"attributes":{"ID":448914,"DIS_CODE":0,"TOWNNAME":"永康區","LI":"永康里","LIN":"18鄰","STREET":"永華路","SECT":" ","MAREA":" ","LANE":"４８３巷","ALLEY":" ","HOUSE_NO":"６號","E_COORD97":174086.64999999999,"N_COORD97":2547154.9700000002,"ADDRESS":"永華路４８３巷６號","OBJECTID":448889},"geometry":{"x":174086.6500000013,"y":2547154.9700000025}},{"attributes":{"ID":448915,"DIS_CODE":0,"TOWNNAME":"安南區","LI":"溪東里","LIN":"18鄰","STREET":"北安路","SECT":"二段","MAREA":" ","LANE":"１４７巷","ALLEY":" ","HOUSE_NO":"２９號","E_COORD97":168362.39999999999,"N_COORD97":2547572.75,"ADDRESS":"北安路二段１４７巷２９號","OBJECTID":448890},"geometry":{"x":168362.4000000013,"y":2547572.7500000019}},{"attributes":{"ID":448916,"DIS_CODE":0,"TOWNNAME":"安南區","LI":"溪東里","LIN":"18鄰","STREET":"北安路","SECT":"二段","MAREA":" ","LANE":"１４７巷","ALLEY":" ","HOUSE_NO":"３３號","E_COORD97":168350.51999999999,"N_COORD97":2547572.0899999999,"ADDRESS":"北安路二段１４７巷３３號","OBJECTID":448891},"geometry":{"x":168350.52000000048,"y":2547572.0899999999}},{"attributes":{"ID":448917,"DIS_CODE":0,"TOWNNAME":"安南區","LI":"溪東里","LIN":"18鄰","STREET":"北安路","SECT":"二段","MAREA":" ","LANE":"１４７巷","ALLEY":" ","HOUSE_NO":"３４號","E_COORD97":168348.01999999999,"N_COORD97":2547593.1299999999,"ADDRESS":"北安路二段１４７巷３４號","OBJECTID":448892},"geometry":{"x":168348.01999999955,"y":2547593.1300000008}},{"attributes":{"ID":448918,"DIS_CODE":0,"TOWNNAME":"安南區","LI":"溪東里","LIN":"18鄰","STREET":"北安路","SECT":"二段","MAREA":" ","LANE":"１４７巷","ALLEY":" ","HOUSE_NO":"３９號","E_COORD97":168330.95999999999,"N_COORD97":2547568.6099999999,"ADDRESS":"北安路二段１４７巷３９號","OBJECTID":448893},"geometry":{"x":168330.96000000089,"y":2547568.6099999994}},{"attributes":{"ID":448919,"DIS_CODE":0,"TOWNNAME":"安南區","LI":"溪東里","LIN":"18鄰","STREET":"北安路","SECT":"二段","MAREA":" ","LANE":"１４７巷","ALLEY":" ","HOUSE_NO":"３號","E_COORD97":168451.88,"N_COORD97":2547583.1000000001,"ADDRESS":"北安路二段１４７巷３號","OBJECTID":448894},"geometry":{"x":168451.88000000082,"y":2547583.1000000034}},{"attributes":{"ID":448920,"DIS_CODE":0,"TOWNNAME":"安南區","LI":"溪東里","LIN":"18鄰","STREET":"北安路","SECT":"二段","MAREA":" ","LANE":"１４７巷","ALLEY":" ","HOUSE_NO":"４０號","E_COORD97":168327.73000000001,"N_COORD97":2547590.5600000001,"ADDRESS":"北安路二段１４７巷４０號","OBJECTID":448895},"geometry":{"x":168327.73000000138,"y":2547590.5600000005}},{"attributes":{"ID":448921,"DIS_CODE":0,"TOWNNAME":"安南區","LI":"溪東里","LIN":"18鄰","STREET":"北安路","SECT":"二段","MAREA":" ","LANE":"１４７巷","ALLEY":" ","HOUSE_NO":"４５號","E_COORD97":168310.95000000001,"N_COORD97":2547566.8500000001,"ADDRESS":"北安路二段１４７巷４５號","OBJECTID":448896},"geometry":{"x":168310.95000000112,"y":2547566.8499999996}},{"attributes":{"ID":448922,"DIS_CODE":0,"TOWNNAME":"安南區","LI":"溪東里","LIN":"18鄰","STREET":"北安路","SECT":"二段","MAREA":" ","LANE":"１４７巷","ALLEY":" ","HOUSE_NO":"４７號","E_COORD97":168304.56,"N_COORD97":2547564.6200000001,"ADDRESS":"北安路二段１４７巷４７號","OBJECTID":448897},"geometry":{"x":168304.56000000052,"y":2547564.6200000029}},{"attributes":{"ID":448923,"DIS_CODE":0,"TOWNNAME":"安南區","LI":"溪東里","LIN":"18鄰","STREET":"北安路","SECT":"二段","MAREA":" ","LANE":"１４７巷","ALLEY":" ","HOUSE_NO":"５１號","E_COORD97":168287.48999999999,"N_COORD97":2547566.79,"ADDRESS":"北安路二段１４７巷５１號","OBJECTID":448898},"geometry":{"x":168287.49000000022,"y":2547566.7899999991}},{"attributes":{"ID":448924,"DIS_CODE":0,"TOWNNAME":"安南區","LI":"溪東里","LIN":"18鄰","STREET":"北安路","SECT":"二段","MAREA":" ","LANE":"１４７巷","ALLEY":" ","HOUSE_NO":"５２號","E_COORD97":168285.91,"N_COORD97":2547589.3799999999,"ADDRESS":"北安路二段１４７巷５２號","OBJECTID":448899},"geometry":{"x":168285.91000000108,"y":2547589.379999999}},{"attributes":{"ID":448925,"DIS_CODE":0,"TOWNNAME":"安南區","LI":"溪東里","LIN":"18鄰","STREET":"北安路","SECT":"二段","MAREA":" ","LANE":"１４７巷","ALLEY":" ","HOUSE_NO":"５３號","E_COORD97":168283.20000000001,"N_COORD97":2547564.7000000002,"ADDRESS":"北安路二段１４７巷５３號","OBJECTID":448900},"geometry":{"x":168283.20000000019,"y":2547564.6999999993}},{"attributes":{"ID":448926,"DIS_CODE":0,"TOWNNAME":"安南區","LI":"溪東里","LIN":"18鄰","STREET":"北安路","SECT":"二段","MAREA":" ","LANE":"１４７巷","ALLEY":" ","HOUSE_NO":"５４號","E_COORD97":168281.35999999999,"N_COORD97":2547588.5600000001,"ADDRESS":"北安路二段１４７巷５４號","OBJECTID":448901},"geometry":{"x":168281.36000000127,"y":2547588.5600000024}},{"attributes":{"ID":448927,"DIS_CODE":0,"TOWNNAME":"安南區","LI":"溪東里","LIN":"18鄰","STREET":"北安路","SECT":"二段","MAREA":" ","LANE":"１４７巷","ALLEY":" ","HOUSE_NO":"５５號","E_COORD97":168278.14000000001,"N_COORD97":2547565.3599999999,"ADDRESS":"北安路二段１４７巷５５號","OBJECTID":448902},"geometry":{"x":168278.14000000153,"y":2547565.3600000013}},{"attributes":{"ID":448928,"DIS_CODE":0,"TOWNNAME":"安南區","LI":"溪東里","LIN":"18鄰","STREET":"北安路","SECT":"二段","MAREA":" ","LANE":"１４７巷","ALLEY":" ","HOUSE_NO":"５６號","E_COORD97":168276.32999999999,"N_COORD97":2547587.8599999999,"ADDRESS":"北安路二段１４７巷５６號","OBJECTID":448903},"geometry":{"x":168276.33000000101,"y":2547587.8600000031}},{"attributes":{"ID":448929,"DIS_CODE":0,"TOWNNAME":"安南區","LI":"溪東里","LIN":"18鄰","STREET":"北安路","SECT":"二段","MAREA":" ","LANE":"１４７巷","ALLEY":" ","HOUSE_NO":"５８號","E_COORD97":168271.07999999999,"N_COORD97":2547587.7400000002,"ADDRESS":"北安路二段１４７巷５８號","OBJECTID":448904},"geometry":{"x":168271.08000000101,"y":2547587.7400000021}},{"attributes":{"ID":448930,"DIS_CODE":0,"TOWNNAME":"安南區","LI":"溪東里","LIN":"18鄰","STREET":"北安路","SECT":"二段","MAREA":" ","LANE":"１４７巷","ALLEY":" ","HOUSE_NO":"５９號","E_COORD97":168268.89000000001,"N_COORD97":2547565.0800000001,"ADDRESS":"北安路二段１４７巷５９號","OBJECTID":448905},"geometry":{"x":168268.88999999966,"y":2547565.0800000001}},{"attributes":{"ID":448931,"DIS_CODE":0,"TOWNNAME":"安南區","LI":"溪東里","LIN":"18鄰","STREET":"北安路","SECT":"二段","MAREA":" ","LANE":"１４７巷","ALLEY":" ","HOUSE_NO":"５號","E_COORD97":168447.35999999999,"N_COORD97":2547582.6299999999,"ADDRESS":"北安路二段１４７巷５號","OBJECTID":448906},"geometry":{"x":168447.36000000127,"y":2547582.6300000008}},{"attributes":{"ID":448932,"DIS_CODE":0,"TOWNNAME":"安南區","LI":"溪東里","LIN":"18鄰","STREET":"北安路","SECT":"二段","MAREA":" ","LANE":"１４７巷","ALLEY":" ","HOUSE_NO":"６０號","E_COORD97":168265.94,"N_COORD97":2547586.8100000001,"ADDRESS":"北安路二段１４７巷６０號","OBJECTID":448907},"geometry":{"x":168265.94000000041,"y":2547586.8100000024}},{"attributes":{"ID":448933,"DIS_CODE":0,"TOWNNAME":"安南區","LI":"溪東里","LIN":"18鄰","STREET":"北安路","SECT":"二段","MAREA":" ","LANE":"１４７巷","ALLEY":" ","HOUSE_NO":"６１號","E_COORD97":168263.54999999999,"N_COORD97":2547562.3199999998,"ADDRESS":"北安路二段１４７巷６１號","OBJECTID":448908},"geometry":{"x":168263.54999999888,"y":2547562.3200000022}},{"attributes":{"ID":448934,"DIS_CODE":0,"TOWNNAME":"安南區","LI":"溪東里","LIN":"18鄰","STREET":"北安路","SECT":"二段","MAREA":" ","LANE":"１４７巷","ALLEY":" ","HOUSE_NO":"６２號","E_COORD97":168260.57000000001,"N_COORD97":2547586.5800000001,"ADDRESS":"北安路二段１４７巷６２號","OBJECTID":448909},"geometry":{"x":168260.57000000216,"y":2547586.5800000001}},{"attributes":{"ID":448935,"DIS_CODE":0,"TOWNNAME":"安南區","LI":"溪東里","LIN":"18鄰","STREET":"北安路","SECT":"二段","MAREA":" ","LANE":"１４７巷","ALLEY":" ","HOUSE_NO":"７號","E_COORD97":168443.12,"N_COORD97":2547582.0699999998,"ADDRESS":"北安路二段１４７巷７號","OBJECTID":448910},"geometry":{"x":168443.12000000197,"y":2547582.0700000022}},{"attributes":{"ID":448936,"DIS_CODE":0,"TOWNNAME":"永康區","LI":"復華里","LIN":"18鄰","STREET":"國華街","SECT":" ","MAREA":" ","LANE":"１０２巷","ALLEY":" ","HOUSE_NO":"５７號","E_COORD97":172844.91,"N_COORD97":2546104.4700000002,"ADDRESS":"國華街１０２巷５７號","OBJECTID":448911},"geometry":{"x":172844.91000000015,"y":2546104.4700000025}},{"attributes":{"ID":448937,"DIS_CODE":0,"TOWNNAME":"永康區","LI":"崑山里","LIN":"18鄰","STREET":"大灣路","SECT":" ","MAREA":" ","LANE":"８９６巷","ALLEY":" ","HOUSE_NO":"１５號","E_COORD97":173748.20000000001,"N_COORD97":2544537.3199999998,"ADDRESS":"大灣路８９６巷１５號","OBJECTID":448912},"geometry":{"x":173748.20000000019,"y":2544537.3200000003}},{"attributes":{"ID":448938,"DIS_CODE":0,"TOWNNAME":"永康區","LI":"崑山里","LIN":"18鄰","STREET":"大灣路","SECT":" ","MAREA":" ","LANE":"８９６巷","ALLEY":" ","HOUSE_NO":"１２號","E_COORD97":173747.57999999999,"N_COORD97":2544488.0899999999,"ADDRESS":"大灣路８９６巷１２號","OBJECTID":448913},"geometry":{"x":173747.58000000194,"y":2544488.0900000036}},{"attributes":{"ID":448939,"DIS_CODE":0,"TOWNNAME":"永康區","LI":"西橋里","LIN":"18鄰","STREET":"中華西街","SECT":" ","MAREA":" ","LANE":"２６９巷","ALLEY":" ","HOUSE_NO":"７號","E_COORD97":170657.14000000001,"N_COORD97":2546477.2599999998,"ADDRESS":"中華西街２６９巷７號","OBJECTID":448914},"geometry":{"x":170657.1400000006,"y":2546477.2600000016}},{"attributes":{"ID":448940,"DIS_CODE":0,"TOWNNAME":"永康區","LI":"中興里","LIN":"18鄰","STREET":"中華二路","SECT":" ","MAREA":" ","LANE":"２１５巷","ALLEY":" ","HOUSE_NO":"１２號","E_COORD97":171768.09,"N_COORD97":2545391.4500000002,"ADDRESS":"中華二路２１５巷１２號","OBJECTID":448915},"geometry":{"x":171768.09000000078,"y":2545391.4500000011}},{"attributes":{"ID":448941,"DIS_CODE":0,"TOWNNAME":"永康區","LI":"中興里","LIN":"18鄰","STREET":"中華二路","SECT":" ","MAREA":" ","LANE":"２１５巷","ALLEY":" ","HOUSE_NO":"１６號","E_COORD97":171767.44,"N_COORD97":2545385.73,"ADDRESS":"中華二路２１５巷１６號","OBJECTID":448916},"geometry":{"x":171767.44000000134,"y":2545385.7300000004}},{"attributes":{"ID":448942,"DIS_CODE":0,"TOWNNAME":"永康區","LI":"中興里","LIN":"18鄰","STREET":"中華二路","SECT":" ","MAREA":" ","LANE":"２１５巷","ALLEY":" ","HOUSE_NO":"１７號","E_COORD97":171783.39999999999,"N_COORD97":2545367.9300000002,"ADDRESS":"中華二路２１５巷１７號","OBJECTID":448917},"geometry":{"x":171783.4000000013,"y":2545367.9300000016}},{"attributes":{"ID":448943,"DIS_CODE":0,"TOWNNAME":"永康區","LI":"中興里","LIN":"18鄰","STREET":"中華二路","SECT":" ","MAREA":" ","LANE":"２１５巷","ALLEY":" ","HOUSE_NO":"１８號","E_COORD97":171766.44,"N_COORD97":2545379.73,"ADDRESS":"中華二路２１５巷１８號","OBJECTID":448918},"geometry":{"x":171766.44000000041,"y":2545379.7300000023}},{"attributes":{"ID":448944,"DIS_CODE":0,"TOWNNAME":"永康區","LI":"永康里","LIN":"18鄰","STREET":"永華路","SECT":" ","MAREA":" ","LANE":"４８３巷","ALLEY":" ","HOUSE_NO":"３號","E_COORD97":174083.39000000001,"N_COORD97":2547150.0299999998,"ADDRESS":"永華路４８３巷３號","OBJECTID":448919},"geometry":{"x":174083.38999999966,"y":2547150.0300000012}},{"attributes":{"ID":448945,"DIS_CODE":0,"TOWNNAME":"永康區","LI":"永康里","LIN":"18鄰","STREET":"永華路","SECT":" ","MAREA":" ","LANE":"４８３巷","ALLEY":" ","HOUSE_NO":"５號","E_COORD97":174080.25,"N_COORD97":2547151.5699999998,"ADDRESS":"永華路４８３巷５號","OBJECTID":448920},"geometry":{"x":174080.24999999907,"y":2547151.5700000022}},{"attributes":{"ID":448946,"DIS_CODE":0,"TOWNNAME":"永康區","LI":"永康里","LIN":"18鄰","STREET":"永華路","SECT":" ","MAREA":" ","LANE":"４８３巷","ALLEY":" ","HOUSE_NO":"７號","E_COORD97":174077.95000000001,"N_COORD97":2547153.1299999999,"ADDRESS":"永華路４８３巷７號","OBJECTID":448921},"geometry":{"x":174077.95000000112,"y":2547153.1300000008}},{"attributes":{"ID":448947,"DIS_CODE":0,"TOWNNAME":"永康區","LI":"永康里","LIN":"18鄰","STREET":"永華路","SECT":" ","MAREA":" ","LANE":"４８３巷","ALLEY":" ","HOUSE_NO":"８號","E_COORD97":174083.48000000001,"N_COORD97":2547156.9500000002,"ADDRESS":"永華路４８３巷８號","OBJECTID":448922},"geometry":{"x":174083.48000000138,"y":2547156.9500000011}},{"attributes":{"ID":448948,"DIS_CODE":0,"TOWNNAME":"永康區","LI":"永康里","LIN":"18鄰","STREET":"永華路","SECT":" ","MAREA":" ","LANE":"４８３巷","ALLEY":" ","HOUSE_NO":"９號","E_COORD97":174075.35999999999,"N_COORD97":2547155.0299999998,"ADDRESS":"永華路４８３巷９號","OBJECTID":448923},"geometry":{"x":174075.36000000127,"y":2547155.0299999993}},{"attributes":{"ID":448949,"DIS_CODE":0,"TOWNNAME":"永康區","LI":"五王里","LIN":"18鄰","STREET":"成功路","SECT":" ","MAREA":" ","LANE":"１８８巷","ALLEY":" ","HOUSE_NO":"２５號","E_COORD97":171476.07999999999,"N_COORD97":2545706.7999999998,"ADDRESS":"成功路１８８巷２５號","OBJECTID":448924},"geometry":{"x":171476.08000000194,"y":2545706.8000000007}},{"attributes":{"ID":448950,"DIS_CODE":0,"TOWNNAME":"中西區","LI":"西賢里","LIN":"18鄰","STREET":"西賢一街","SECT":" ","MAREA":" ","LANE":"８５巷","ALLEY":" ","HOUSE_NO":"１０號","E_COORD97":165651.45999999999,"N_COORD97":2544695.1200000001,"ADDRESS":"西賢一街８５巷１０號","OBJECTID":448925},"geometry":{"x":165651.45999999996,"y":2544695.120000001}},{"attributes":{"ID":448951,"DIS_CODE":0,"TOWNNAME":"中西區","LI":"西賢里","LIN":"18鄰","STREET":"西賢一街","SECT":" ","MAREA":" ","LANE":"８５巷","ALLEY":" ","HOUSE_NO":"１１號","E_COORD97":165650.25,"N_COORD97":2544667.6299999999,"ADDRESS":"西賢一街８５巷１１號","OBJECTID":448926},"geometry":{"x":165650.25000000186,"y":2544667.6300000008}},{"attributes":{"ID":448952,"DIS_CODE":0,"TOWNNAME":"中西區","LI":"西賢里","LIN":"18鄰","STREET":"西賢一街","SECT":" ","MAREA":" ","LANE":"８５巷","ALLEY":" ","HOUSE_NO":"１２號","E_COORD97":165645.37,"N_COORD97":2544695.1200000001,"ADDRESS":"西賢一街８５巷１２號","OBJECTID":448927},"geometry":{"x":165645.37000000011,"y":2544695.120000001}},{"attributes":{"ID":448953,"DIS_CODE":0,"TOWNNAME":"中西區","LI":"西賢里","LIN":"18鄰","STREET":"西賢一街","SECT":" ","MAREA":" ","LANE":"８５巷","ALLEY":" ","HOUSE_NO":"１３號","E_COORD97":165646.35999999999,"N_COORD97":2544667.6299999999,"ADDRESS":"西賢一街８５巷１３號","OBJECTID":448928},"geometry":{"x":165646.3600000022,"y":2544667.6300000008}},{"attributes":{"ID":448954,"DIS_CODE":0,"TOWNNAME":"中西區","LI":"西賢里","LIN":"18鄰","STREET":"西賢一街","SECT":" ","MAREA":" ","LANE":"８５巷","ALLEY":" ","HOUSE_NO":"１５號","E_COORD97":165642.20999999999,"N_COORD97":2544667.7599999998,"ADDRESS":"西賢一街８５巷１５號","OBJECTID":448929},"geometry":{"x":165642.21000000089,"y":2544667.7600000016}},{"attributes":{"ID":448955,"DIS_CODE":0,"TOWNNAME":"中西區","LI":"西賢里","LIN":"18鄰","STREET":"西賢一街","SECT":" ","MAREA":" ","LANE":"８５巷","ALLEY":" ","HOUSE_NO":"１６號","E_COORD97":165638.75,"N_COORD97":2544695.6499999999,"ADDRESS":"西賢一街８５巷１６號","OBJECTID":448930},"geometry":{"x":165638.75000000093,"y":2544695.6500000022}},{"attributes":{"ID":448956,"DIS_CODE":0,"TOWNNAME":"中西區","LI":"西賢里","LIN":"18鄰","STREET":"西賢一街","SECT":" ","MAREA":" ","LANE":"８５巷","ALLEY":" ","HOUSE_NO":"１７號","E_COORD97":165637.92999999999,"N_COORD97":2544667.7599999998,"ADDRESS":"西賢一街８５巷１７號","OBJECTID":448931},"geometry":{"x":165637.9299999997,"y":2544667.7600000016}},{"attributes":{"ID":448957,"DIS_CODE":0,"TOWNNAME":"中西區","LI":"西賢里","LIN":"18鄰","STREET":"西賢一街","SECT":" ","MAREA":" ","LANE":"８５巷","ALLEY":" ","HOUSE_NO":"１８號","E_COORD97":165632.78,"N_COORD97":2544695.1200000001,"ADDRESS":"西賢一街８５巷１８號","OBJECTID":448932},"geometry":{"x":165632.78000000026,"y":2544695.120000001}},{"attributes":{"ID":448958,"DIS_CODE":0,"TOWNNAME":"中西區","LI":"西賢里","LIN":"18鄰","STREET":"西賢一街","SECT":" ","MAREA":" ","LANE":"８５巷","ALLEY":" ","HOUSE_NO":"１９號","E_COORD97":165633.64999999999,"N_COORD97":2544668.1499999999,"ADDRESS":"西賢一街８５巷１９號","OBJECTID":448933},"geometry":{"x":165633.65000000037,"y":2544668.1500000022}},{"attributes":{"ID":448959,"DIS_CODE":0,"TOWNNAME":"中西區","LI":"西賢里","LIN":"18鄰","STREET":"西賢一街","SECT":" ","MAREA":" ","LANE":"８５巷","ALLEY":" ","HOUSE_NO":"１號","E_COORD97":165673.48000000001,"N_COORD97":2544668.1499999999,"ADDRESS":"西賢一街８５巷１號","OBJECTID":448934},"geometry":{"x":165673.48000000138,"y":2544668.1500000022}},{"attributes":{"ID":448960,"DIS_CODE":0,"TOWNNAME":"中西區","LI":"西賢里","LIN":"18鄰","STREET":"西賢一街","SECT":" ","MAREA":" ","LANE":"８５巷","ALLEY":" ","HOUSE_NO":"２０號","E_COORD97":165625,"N_COORD97":2544694.9900000002,"ADDRESS":"西賢一街８５巷２０號","OBJECTID":448935},"geometry":{"x":165625.00000000093,"y":2544694.9900000002}},{"attributes":{"ID":448961,"DIS_CODE":0,"TOWNNAME":"東區","LI":"德高里","LIN":"18鄰","STREET":"仁和路","SECT":" ","MAREA":" ","LANE":"２４３巷","ALLEY":" ","HOUSE_NO":"５號","E_COORD97":171722.63,"N_COORD97":2540773.71,"ADDRESS":"仁和路２４３巷５號","OBJECTID":448936},"geometry":{"x":171722.62999999989,"y":2540773.7100000028}},{"attributes":{"ID":448962,"DIS_CODE":0,"TOWNNAME":"中西區","LI":"西賢里","LIN":"18鄰","STREET":"西賢一街","SECT":" ","MAREA":" ","LANE":"８５巷","ALLEY":" ","HOUSE_NO":"２１號","E_COORD97":165629.48999999999,"N_COORD97":2544667.7599999998,"ADDRESS":"西賢一街８５巷２１號","OBJECTID":448937},"geometry":{"x":165629.49000000022,"y":2544667.7600000016}},{"attributes":{"ID":448963,"DIS_CODE":0,"TOWNNAME":"中西區","LI":"西賢里","LIN":"18鄰","STREET":"西賢一街","SECT":" ","MAREA":" ","LANE":"８５巷","ALLEY":" ","HOUSE_NO":"２２號","E_COORD97":165620.72,"N_COORD97":2544694.6299999999,"ADDRESS":"西賢一街８５巷２２號","OBJECTID":448938},"geometry":{"x":165620.71999999974,"y":2544694.6300000008}},{"attributes":{"ID":448964,"DIS_CODE":0,"TOWNNAME":"中西區","LI":"西賢里","LIN":"18鄰","STREET":"西賢一街","SECT":" ","MAREA":" ","LANE":"８５巷","ALLEY":" ","HOUSE_NO":"２３號","E_COORD97":165625.47,"N_COORD97":2544667.3700000001,"ADDRESS":"西賢一街８５巷２３號","OBJECTID":448939},"geometry":{"x":165625.47000000067,"y":2544667.3700000029}},{"attributes":{"ID":448965,"DIS_CODE":0,"TOWNNAME":"中西區","LI":"西賢里","LIN":"18鄰","STREET":"西賢一街","SECT":" ","MAREA":" ","LANE":"８５巷","ALLEY":" ","HOUSE_NO":"２５號","E_COORD97":165621.42000000001,"N_COORD97":2544667.48,"ADDRESS":"西賢一街８５巷２５號","OBJECTID":448940},"geometry":{"x":165621.41999999993,"y":2544667.4800000004}},{"attributes":{"ID":448966,"DIS_CODE":0,"TOWNNAME":"中西區","LI":"西賢里","LIN":"18鄰","STREET":"西賢一街","SECT":" ","MAREA":" ","LANE":"８５巷","ALLEY":" ","HOUSE_NO":"２６號","E_COORD97":165614.29999999999,"N_COORD97":2544694.6299999999,"ADDRESS":"西賢一街８５巷２６號","OBJECTID":448941},"geometry":{"x":165614.30000000075,"y":2544694.6300000008}},{"attributes":{"ID":448967,"DIS_CODE":0,"TOWNNAME":"中西區","LI":"西賢里","LIN":"18鄰","STREET":"西賢一街","SECT":" ","MAREA":" ","LANE":"８５巷","ALLEY":" ","HOUSE_NO":"２７號","E_COORD97":165617.82000000001,"N_COORD97":2544667.3700000001,"ADDRESS":"西賢一街８５巷２７號","OBJECTID":448942},"geometry":{"x":165617.82000000216,"y":2544667.3700000029}},{"attributes":{"ID":448968,"DIS_CODE":0,"TOWNNAME":"中西區","LI":"西賢里","LIN":"18鄰","STREET":"西賢一街","SECT":" ","MAREA":" ","LANE":"８５巷","ALLEY":" ","HOUSE_NO":"２８號","E_COORD97":165608.01000000001,"N_COORD97":2544694.9900000002,"ADDRESS":"西賢一街８５巷２８號","OBJECTID":448943},"geometry":{"x":165608.01000000071,"y":2544694.9900000002}},{"attributes":{"ID":448969,"DIS_CODE":0,"TOWNNAME":"中西區","LI":"西賢里","LIN":"18鄰","STREET":"西賢一街","SECT":" ","MAREA":" ","LANE":"８５巷","ALLEY":" ","HOUSE_NO":"２９號","E_COORD97":165613.10000000001,"N_COORD97":2544667.2599999998,"ADDRESS":"西賢一街８５巷２９號","OBJECTID":448944},"geometry":{"x":165613.09999999963,"y":2544667.2600000016}},{"attributes":{"ID":448970,"DIS_CODE":0,"TOWNNAME":"中西區","LI":"西賢里","LIN":"18鄰","STREET":"西賢一街","SECT":" ","MAREA":" ","LANE":"８５巷","ALLEY":" ","HOUSE_NO":"２號","E_COORD97":165671.19,"N_COORD97":2544695.6499999999,"ADDRESS":"西賢一街８５巷２號","OBJECTID":448945},"geometry":{"x":165671.19000000041,"y":2544695.6500000022}},{"attributes":{"ID":448971,"DIS_CODE":0,"TOWNNAME":"中西區","LI":"西賢里","LIN":"18鄰","STREET":"西賢一街","SECT":" ","MAREA":" ","LANE":"８５巷","ALLEY":" ","HOUSE_NO":"３０號","E_COORD97":165602.48000000001,"N_COORD97":2544695.3799999999,"ADDRESS":"西賢一街８５巷３０號","OBJECTID":448946},"geometry":{"x":165602.48000000045,"y":2544695.3800000027}},{"attributes":{"ID":448972,"DIS_CODE":0,"TOWNNAME":"中西區","LI":"西賢里","LIN":"18鄰","STREET":"西賢一街","SECT":" ","MAREA":" ","LANE":"８５巷","ALLEY":" ","HOUSE_NO":"３１號","E_COORD97":165608.14999999999,"N_COORD97":2544666.9199999999,"ADDRESS":"西賢一街８５巷３１號","OBJECTID":448947},"geometry":{"x":165608.15000000037,"y":2544666.9200000018}},{"attributes":{"ID":448973,"DIS_CODE":0,"TOWNNAME":"中西區","LI":"西賢里","LIN":"18鄰","STREET":"西賢一街","SECT":" ","MAREA":" ","LANE":"８５巷","ALLEY":" ","HOUSE_NO":"３２號","E_COORD97":165593.79999999999,"N_COORD97":2544695.5099999998,"ADDRESS":"西賢一街８５巷３２號","OBJECTID":448948},"geometry":{"x":165593.80000000168,"y":2544695.5100000035}},{"attributes":{"ID":448974,"DIS_CODE":0,"TOWNNAME":"中西區","LI":"西賢里","LIN":"18鄰","STREET":"西賢一街","SECT":" ","MAREA":" ","LANE":"８５巷","ALLEY":" ","HOUSE_NO":"３３號","E_COORD97":165604.10000000001,"N_COORD97":2544666.8100000001,"ADDRESS":"西賢一街８５巷３３號","OBJECTID":448949},"geometry":{"x":165604.10000000056,"y":2544666.8100000042}},{"attributes":{"ID":448975,"DIS_CODE":0,"TOWNNAME":"中西區","LI":"西賢里","LIN":"18鄰","STREET":"西賢一街","SECT":" ","MAREA":" ","LANE":"８５巷","ALLEY":" ","HOUSE_NO":"３５號","E_COORD97":165600.60999999999,"N_COORD97":2544666.8100000001,"ADDRESS":"西賢一街８５巷３５號","OBJECTID":448950},"geometry":{"x":165600.6100000022,"y":2544666.8100000042}},{"attributes":{"ID":448976,"DIS_CODE":0,"TOWNNAME":"中西區","LI":"西賢里","LIN":"18鄰","STREET":"西賢一街","SECT":" ","MAREA":" ","LANE":"８５巷","ALLEY":" ","HOUSE_NO":"３６號","E_COORD97":165586.37,"N_COORD97":2544694.9900000002,"ADDRESS":"西賢一街８５巷３６號","OBJECTID":448951},"geometry":{"x":165586.37000000011,"y":2544694.9900000002}},{"attributes":{"ID":448977,"DIS_CODE":0,"TOWNNAME":"中西區","LI":"西賢里","LIN":"18鄰","STREET":"西賢一街","SECT":" ","MAREA":" ","LANE":"８５巷","ALLEY":" ","HOUSE_NO":"３７號","E_COORD97":165596.22,"N_COORD97":2544666.7000000002,"ADDRESS":"西賢一街８５巷３７號","OBJECTID":448952},"geometry":{"x":165596.22000000067,"y":2544666.7000000011}},{"attributes":{"ID":448978,"DIS_CODE":0,"TOWNNAME":"中西區","LI":"西賢里","LIN":"18鄰","STREET":"西賢一街","SECT":" ","MAREA":" ","LANE":"８５巷","ALLEY":" ","HOUSE_NO":"３９號","E_COORD97":165591.72,"N_COORD97":2544666.7000000002,"ADDRESS":"西賢一街８５巷３９號","OBJECTID":448953},"geometry":{"x":165591.71999999974,"y":2544666.7000000011}},{"attributes":{"ID":448979,"DIS_CODE":0,"TOWNNAME":"中西區","LI":"西賢里","LIN":"18鄰","STREET":"西賢一街","SECT":" ","MAREA":" ","LANE":"８５巷","ALLEY":" ","HOUSE_NO":"３號","E_COORD97":165667.25,"N_COORD97":2544667.8900000001,"ADDRESS":"西賢一街８５巷３號","OBJECTID":448954},"geometry":{"x":165667.25000000186,"y":2544667.8900000025}},{"attributes":{"ID":448980,"DIS_CODE":0,"TOWNNAME":"中西區","LI":"西賢里","LIN":"18鄰","STREET":"西賢一街","SECT":" ","MAREA":" ","LANE":"８５巷","ALLEY":" ","HOUSE_NO":"４１號","E_COORD97":165585.76000000001,"N_COORD97":2544666.7000000002,"ADDRESS":"西賢一街８５巷４１號","OBJECTID":448955},"geometry":{"x":165585.76000000071,"y":2544666.7000000011}},{"attributes":{"ID":448981,"DIS_CODE":0,"TOWNNAME":"中西區","LI":"西賢里","LIN":"18鄰","STREET":"西賢一街","SECT":" ","MAREA":" ","LANE":"８５巷","ALLEY":" ","HOUSE_NO":"５號","E_COORD97":165663.35999999999,"N_COORD97":2544667.6299999999,"ADDRESS":"西賢一街８５巷５號","OBJECTID":448956},"geometry":{"x":165663.3600000022,"y":2544667.6300000008}},{"attributes":{"ID":448982,"DIS_CODE":0,"TOWNNAME":"中西區","LI":"西賢里","LIN":"18鄰","STREET":"西賢一街","SECT":" ","MAREA":" ","LANE":"８５巷","ALLEY":" ","HOUSE_NO":"６號","E_COORD97":165663.26999999999,"N_COORD97":2544695.52,"ADDRESS":"西賢一街８５巷６號","OBJECTID":448957},"geometry":{"x":165663.27000000048,"y":2544695.5200000014}},{"attributes":{"ID":448983,"DIS_CODE":0,"TOWNNAME":"中西區","LI":"西賢里","LIN":"18鄰","STREET":"西賢一街","SECT":" ","MAREA":" ","LANE":"８５巷","ALLEY":" ","HOUSE_NO":"７號","E_COORD97":165658.95000000001,"N_COORD97":2544667.6299999999,"ADDRESS":"西賢一街８５巷７號","OBJECTID":448958},"geometry":{"x":165658.95000000019,"y":2544667.6300000008}},{"attributes":{"ID":448984,"DIS_CODE":0,"TOWNNAME":"新市區","LI":"永就里","LIN":"1鄰","STREET":" ","SECT":" ","MAREA":"永就","LANE":" ","ALLEY":" ","HOUSE_NO":"６之２５號","E_COORD97":179344.283421,"N_COORD97":2551394.1373399999,"ADDRESS":"永就６之２５號","OBJECTID":448959},"geometry":{"x":179344.2834210014,"y":2551394.1373380013}},{"attributes":{"ID":448985,"DIS_CODE":0,"TOWNNAME":"中西區","LI":"西賢里","LIN":"18鄰","STREET":"西賢一街","SECT":" ","MAREA":" ","LANE":"８５巷","ALLEY":" ","HOUSE_NO":"８號","E_COORD97":165657.56,"N_COORD97":2544695.52,"ADDRESS":"西賢一街８５巷８號","OBJECTID":448960},"geometry":{"x":165657.55999999959,"y":2544695.5200000014}},{"attributes":{"ID":448986,"DIS_CODE":0,"TOWNNAME":"中西區","LI":"西賢里","LIN":"18鄰","STREET":"西賢一街","SECT":" ","MAREA":" ","LANE":"８５巷","ALLEY":" ","HOUSE_NO":"９號","E_COORD97":165654.67000000001,"N_COORD97":2544667.6299999999,"ADDRESS":"西賢一街８５巷９號","OBJECTID":448961},"geometry":{"x":165654.67000000086,"y":2544667.6300000008}},{"attributes":{"ID":448987,"DIS_CODE":0,"TOWNNAME":"東區","LI":"德高里","LIN":"18鄰","STREET":"仁和路","SECT":" ","MAREA":" ","LANE":"２４３巷","ALLEY":" ","HOUSE_NO":"１號","E_COORD97":171722.04000000001,"N_COORD97":2540764.0299999998,"ADDRESS":"仁和路２４３巷１號","OBJECTID":448962},"geometry":{"x":171722.03999999911,"y":2540764.0299999993}},{"attributes":{"ID":448988,"DIS_CODE":0,"TOWNNAME":"東區","LI":"德高里","LIN":"18鄰","STREET":"仁和路","SECT":" ","MAREA":" ","LANE":"２４３巷","ALLEY":" ","HOUSE_NO":"３號","E_COORD97":171722.04000000001,"N_COORD97":2540768.8700000001,"ADDRESS":"仁和路２４３巷３號","OBJECTID":448963},"geometry":{"x":171722.03999999911,"y":2540768.8700000029}},{"attributes":{"ID":448989,"DIS_CODE":0,"TOWNNAME":"東區","LI":"德高里","LIN":"18鄰","STREET":"仁和路","SECT":" ","MAREA":" ","LANE":"２８６巷","ALLEY":" ","HOUSE_NO":"１３號","E_COORD97":171679.63,"N_COORD97":2540702.6400000001,"ADDRESS":"仁和路２８６巷１３號","OBJECTID":448964},"geometry":{"x":171679.63000000082,"y":2540702.6400000025}},{"attributes":{"ID":448990,"DIS_CODE":0,"TOWNNAME":"東區","LI":"德高里","LIN":"18鄰","STREET":"仁和路","SECT":" ","MAREA":" ","LANE":"２８６巷","ALLEY":" ","HOUSE_NO":"１５號","E_COORD97":171660.56,"N_COORD97":2540716.8500000001,"ADDRESS":"仁和路２８６巷１５號","OBJECTID":448965},"geometry":{"x":171660.56000000145,"y":2540716.8500000015}},{"attributes":{"ID":448991,"DIS_CODE":0,"TOWNNAME":"東區","LI":"德高里","LIN":"18鄰","STREET":"仁和路","SECT":" ","MAREA":" ","LANE":"２８６巷","ALLEY":" ","HOUSE_NO":"１７號","E_COORD97":171656.60000000001,"N_COORD97":2540715.8300000001,"ADDRESS":"仁和路２８６巷１７號","OBJECTID":448966},"geometry":{"x":171656.59999999963,"y":2540715.8300000001}},{"attributes":{"ID":448992,"DIS_CODE":0,"TOWNNAME":"東區","LI":"德高里","LIN":"18鄰","STREET":"仁和路","SECT":" ","MAREA":" ","LANE":"２８６巷","ALLEY":" ","HOUSE_NO":"１９號","E_COORD97":171653.22,"N_COORD97":2540713.04,"ADDRESS":"仁和路２８６巷１９號","OBJECTID":448967},"geometry":{"x":171653.22000000067,"y":2540713.0399999991}},{"attributes":{"ID":448993,"DIS_CODE":0,"TOWNNAME":"東區","LI":"德高里","LIN":"18鄰","STREET":"仁和路","SECT":" ","MAREA":" ","LANE":"２８６巷","ALLEY":" ","HOUSE_NO":"１號","E_COORD97":171684.03,"N_COORD97":2540726.0899999999,"ADDRESS":"仁和路２８６巷１號","OBJECTID":448968},"geometry":{"x":171684.03000000119,"y":2540726.0900000017}},{"attributes":{"ID":448994,"DIS_CODE":0,"TOWNNAME":"東區","LI":"德高里","LIN":"18鄰","STREET":"仁和路","SECT":" ","MAREA":" ","LANE":"２８６巷","ALLEY":" ","HOUSE_NO":"３號","E_COORD97":171677.87,"N_COORD97":2540725.9399999999,"ADDRESS":"仁和路２８６巷３號","OBJECTID":448969},"geometry":{"x":171677.87000000104,"y":2540725.9400000013}},{"attributes":{"ID":448995,"DIS_CODE":0,"TOWNNAME":"東區","LI":"德高里","LIN":"18鄰","STREET":"仁和路","SECT":" ","MAREA":" ","LANE":"２８６巷","ALLEY":" ","HOUSE_NO":"５號","E_COORD97":171674.06,"N_COORD97":2540723.7400000002,"ADDRESS":"仁和路２８６巷５號","OBJECTID":448970},"geometry":{"x":171674.06000000145,"y":2540723.7400000002}},{"attributes":{"ID":448996,"DIS_CODE":0,"TOWNNAME":"東區","LI":"德高里","LIN":"18鄰","STREET":"仁和路","SECT":" ","MAREA":" ","LANE":"２８６巷","ALLEY":" ","HOUSE_NO":"７號","E_COORD97":171669.95000000001,"N_COORD97":2540722.1299999999,"ADDRESS":"仁和路２８６巷７號","OBJECTID":448971},"geometry":{"x":171669.95000000019,"y":2540722.129999999}},{"attributes":{"ID":448997,"DIS_CODE":0,"TOWNNAME":"東區","LI":"德高里","LIN":"18鄰","STREET":"仁和路","SECT":" ","MAREA":" ","LANE":"２８６巷","ALLEY":" ","HOUSE_NO":"９號","E_COORD97":171679.34,"N_COORD97":2540713.48,"ADDRESS":"仁和路２８６巷９號","OBJECTID":448972},"geometry":{"x":171679.34000000078,"y":2540713.4800000023}},{"attributes":{"ID":448998,"DIS_CODE":0,"TOWNNAME":"東區","LI":"德高里","LIN":"18鄰","STREET":"仁和路","SECT":" ","MAREA":" ","LANE":"３０２巷","ALLEY":" ","HOUSE_NO":"１０號","E_COORD97":171700.32000000001,"N_COORD97":2540683.48,"ADDRESS":"仁和路３０２巷１０號","OBJECTID":448973},"geometry":{"x":171700.32000000123,"y":2540683.4800000023}},{"attributes":{"ID":448999,"DIS_CODE":0,"TOWNNAME":"東區","LI":"德高里","LIN":"18鄰","STREET":"仁和路","SECT":" ","MAREA":" ","LANE":"３０２巷","ALLEY":" ","HOUSE_NO":"１２號","E_COORD97":171699.14000000001,"N_COORD97":2540679.96,"ADDRESS":"仁和路３０２巷１２號","OBJECTID":448974},"geometry":{"x":171699.14000000153,"y":2540679.9600000028}},{"attributes":{"ID":449000,"DIS_CODE":0,"TOWNNAME":"東區","LI":"德高里","LIN":"18鄰","STREET":"仁和路","SECT":" ","MAREA":" ","LANE":"３０２巷","ALLEY":" ","HOUSE_NO":"１４號","E_COORD97":171693.85999999999,"N_COORD97":2540663.9500000002,"ADDRESS":"仁和路３０２巷１４號","OBJECTID":448975},"geometry":{"x":171693.86000000127,"y":2540663.950000003}},{"attributes":{"ID":449001,"DIS_CODE":0,"TOWNNAME":"東區","LI":"德高里","LIN":"18鄰","STREET":"仁和路","SECT":" ","MAREA":" ","LANE":"３０２巷","ALLEY":" ","HOUSE_NO":"１６號","E_COORD97":171693.85999999999,"N_COORD97":2540659.5499999998,"ADDRESS":"仁和路３０２巷１６號","OBJECTID":448976},"geometry":{"x":171693.86000000127,"y":2540659.5500000026}},{"attributes":{"ID":449002,"DIS_CODE":0,"TOWNNAME":"東區","LI":"德高里","LIN":"18鄰","STREET":"仁和路","SECT":" ","MAREA":" ","LANE":"３０２巷","ALLEY":" ","HOUSE_NO":"１８號","E_COORD97":171693.13,"N_COORD97":2540655.29,"ADDRESS":"仁和路３０２巷１８號","OBJECTID":448977},"geometry":{"x":171693.13000000082,"y":2540655.290000001}},{"attributes":{"ID":449003,"DIS_CODE":0,"TOWNNAME":"東區","LI":"德高里","LIN":"18鄰","STREET":"仁和路","SECT":" ","MAREA":" ","LANE":"３０２巷","ALLEY":" ","HOUSE_NO":"２０號","E_COORD97":171692.39000000001,"N_COORD97":2540651.9300000002,"ADDRESS":"仁和路３０２巷２０號","OBJECTID":448978},"geometry":{"x":171692.3900000006,"y":2540651.9300000016}},{"attributes":{"ID":449004,"DIS_CODE":0,"TOWNNAME":"東區","LI":"德高里","LIN":"18鄰","STREET":"仁和路","SECT":" ","MAREA":" ","LANE":"３０２巷","ALLEY":" ","HOUSE_NO":"２２號","E_COORD97":171690.92999999999,"N_COORD97":2540647.6800000002,"ADDRESS":"仁和路３０２巷２２號","OBJECTID":448979},"geometry":{"x":171690.93000000063,"y":2540647.6799999997}},{"attributes":{"ID":449005,"DIS_CODE":0,"TOWNNAME":"東區","LI":"德高里","LIN":"18鄰","STREET":"仁和路","SECT":" ","MAREA":" ","LANE":"３０２巷","ALLEY":" ","HOUSE_NO":"２４號","E_COORD97":171689.60999999999,"N_COORD97":2540644.1600000001,"ADDRESS":"仁和路３０２巷２４號","OBJECTID":448980},"geometry":{"x":171689.6099999994,"y":2540644.160000002}},{"attributes":{"ID":449006,"DIS_CODE":0,"TOWNNAME":"東區","LI":"德高里","LIN":"18鄰","STREET":"仁和路","SECT":" ","MAREA":" ","LANE":"３０２巷","ALLEY":" ","HOUSE_NO":"２６號","E_COORD97":171689.45999999999,"N_COORD97":2540639.6200000001,"ADDRESS":"仁和路３０２巷２６號","OBJECTID":448981},"geometry":{"x":171689.46000000089,"y":2540639.620000001}},{"attributes":{"ID":449007,"DIS_CODE":0,"TOWNNAME":"東區","LI":"德高里","LIN":"18鄰","STREET":"仁和路","SECT":" ","MAREA":" ","LANE":"３０２巷","ALLEY":" ","HOUSE_NO":"２８號","E_COORD97":171687.70000000001,"N_COORD97":2540635.6600000001,"ADDRESS":"仁和路３０２巷２８號","OBJECTID":448982},"geometry":{"x":171687.70000000112,"y":2540635.6600000001}},{"attributes":{"ID":449008,"DIS_CODE":0,"TOWNNAME":"東區","LI":"德高里","LIN":"18鄰","STREET":"仁和路","SECT":" ","MAREA":" ","LANE":"３０２巷","ALLEY":" ","HOUSE_NO":"２號","E_COORD97":171702.81,"N_COORD97":2540700.1899999999,"ADDRESS":"仁和路３０２巷２號","OBJECTID":448983},"geometry":{"x":171702.81000000145,"y":2540700.1900000013}},{"attributes":{"ID":449009,"DIS_CODE":0,"TOWNNAME":"東區","LI":"德高里","LIN":"18鄰","STREET":"仁和路","SECT":" ","MAREA":" ","LANE":"３０２巷","ALLEY":" ","HOUSE_NO":"３０號","E_COORD97":171685.94,"N_COORD97":2540632,"ADDRESS":"仁和路３０２巷３０號","OBJECTID":448984},"geometry":{"x":171685.94000000227,"y":2540632.0000000019}},{"attributes":{"ID":449010,"DIS_CODE":0,"TOWNNAME":"東區","LI":"德高里","LIN":"18鄰","STREET":"仁和路","SECT":" ","MAREA":" ","LANE":"３０２巷","ALLEY":" ","HOUSE_NO":"４號","E_COORD97":171702.07999999999,"N_COORD97":2540695.9399999999,"ADDRESS":"仁和路３０２巷４號","OBJECTID":448985},"geometry":{"x":171702.08000000101,"y":2540695.9400000013}},{"attributes":{"ID":449011,"DIS_CODE":0,"TOWNNAME":"東區","LI":"德高里","LIN":"18鄰","STREET":"仁和路","SECT":" ","MAREA":" ","LANE":"３０２巷","ALLEY":" ","HOUSE_NO":"６號","E_COORD97":171703.25,"N_COORD97":2540691.3900000001,"ADDRESS":"仁和路３０２巷６號","OBJECTID":448986},"geometry":{"x":171703.25,"y":2540691.3900000006}},{"attributes":{"ID":449012,"DIS_CODE":0,"TOWNNAME":"東區","LI":"德高里","LIN":"18鄰","STREET":"仁和路","SECT":" ","MAREA":" ","LANE":"３０２巷","ALLEY":" ","HOUSE_NO":"８號","E_COORD97":171701.34,"N_COORD97":2540687.8700000001,"ADDRESS":"仁和路３０２巷８號","OBJECTID":448987},"geometry":{"x":171701.34000000171,"y":2540687.8700000029}},{"attributes":{"ID":449013,"DIS_CODE":0,"TOWNNAME":"東區","LI":"德高里","LIN":"18鄰","STREET":"城東街","SECT":" ","MAREA":" ","LANE":"１２巷","ALLEY":" ","HOUSE_NO":"３７號","E_COORD97":171656.31,"N_COORD97":2540637.7200000002,"ADDRESS":"城東街１２巷３７號","OBJECTID":448988},"geometry":{"x":171656.30999999959,"y":2540637.7200000025}},{"attributes":{"ID":449014,"DIS_CODE":0,"TOWNNAME":"東區","LI":"德高里","LIN":"18鄰","STREET":"城東街","SECT":" ","MAREA":" ","LANE":"１２巷","ALLEY":" ","HOUSE_NO":"４１號","E_COORD97":171649.26000000001,"N_COORD97":2540644.6000000001,"ADDRESS":"城東街１２巷４１號","OBJECTID":448989},"geometry":{"x":171649.26000000164,"y":2540644.6000000015}},{"attributes":{"ID":449015,"DIS_CODE":0,"TOWNNAME":"東區","LI":"德高里","LIN":"18鄰","STREET":"城東街","SECT":" ","MAREA":" ","LANE":"１２巷","ALLEY":" ","HOUSE_NO":"４６號","E_COORD97":171672.44,"N_COORD97":2540639.6200000001,"ADDRESS":"城東街１２巷４６號","OBJECTID":448990},"geometry":{"x":171672.44000000227,"y":2540639.620000001}},{"attributes":{"ID":449016,"DIS_CODE":0,"TOWNNAME":"東區","LI":"德高里","LIN":"18鄰","STREET":"城東街","SECT":" ","MAREA":" ","LANE":"１２巷","ALLEY":" ","HOUSE_NO":"４８號","E_COORD97":171672.44,"N_COORD97":2540646.9500000002,"ADDRESS":"城東街１２巷４８號","OBJECTID":448991},"geometry":{"x":171672.44000000227,"y":2540646.950000003}},{"attributes":{"ID":449017,"DIS_CODE":0,"TOWNNAME":"東區","LI":"德高里","LIN":"18鄰","STREET":"城東街","SECT":" ","MAREA":" ","LANE":"１２巷","ALLEY":" ","HOUSE_NO":"５０號","E_COORD97":171671.85999999999,"N_COORD97":2540651.3500000001,"ADDRESS":"城東街１２巷５０號","OBJECTID":448992},"geometry":{"x":171671.86000000127,"y":2540651.3500000034}},{"attributes":{"ID":449018,"DIS_CODE":0,"TOWNNAME":"東區","LI":"德高里","LIN":"18鄰","STREET":"城東街","SECT":" ","MAREA":" ","LANE":"５２巷","ALLEY":" ","HOUSE_NO":"１０號","E_COORD97":171635.76999999999,"N_COORD97":2540705.5699999998,"ADDRESS":"城東街５２巷１０號","OBJECTID":448993},"geometry":{"x":171635.77000000048,"y":2540705.5700000022}},{"attributes":{"ID":449019,"DIS_CODE":0,"TOWNNAME":"東區","LI":"德高里","LIN":"18鄰","STREET":"城東街","SECT":" ","MAREA":" ","LANE":"５２巷","ALLEY":" ","HOUSE_NO":"１１號","E_COORD97":171665.84,"N_COORD97":2540697.1099999999,"ADDRESS":"城東街５２巷１１號","OBJECTID":448994},"geometry":{"x":171665.84000000078,"y":2540697.1100000031}},{"attributes":{"ID":449020,"DIS_CODE":0,"TOWNNAME":"東區","LI":"德高里","LIN":"18鄰","STREET":"城東街","SECT":" ","MAREA":" ","LANE":"５２巷","ALLEY":" ","HOUSE_NO":"１２號","E_COORD97":171639.29000000001,"N_COORD97":2540708.3500000001,"ADDRESS":"城東街５２巷１２號","OBJECTID":448995},"geometry":{"x":171639.29000000097,"y":2540708.3499999996}},{"attributes":{"ID":449021,"DIS_CODE":0,"TOWNNAME":"東區","LI":"德高里","LIN":"18鄰","STREET":"城東街","SECT":" ","MAREA":" ","LANE":"５２巷","ALLEY":" ","HOUSE_NO":"１３號","E_COORD97":171667.45000000001,"N_COORD97":2540692.5600000001,"ADDRESS":"城東街５２巷１３號","OBJECTID":448996},"geometry":{"x":171667.45000000112,"y":2540692.5600000024}},{"attributes":{"ID":449022,"DIS_CODE":0,"TOWNNAME":"東區","LI":"德高里","LIN":"18鄰","STREET":"城東街","SECT":" ","MAREA":" ","LANE":"５２巷","ALLEY":" ","HOUSE_NO":"１４號","E_COORD97":171643.39999999999,"N_COORD97":2540709.3799999999,"ADDRESS":"城東街５２巷１４號","OBJECTID":448997},"geometry":{"x":171643.40000000037,"y":2540709.3800000008}},{"attributes":{"ID":449023,"DIS_CODE":0,"TOWNNAME":"東區","LI":"德高里","LIN":"18鄰","STREET":"城東街","SECT":" ","MAREA":" ","LANE":"５２巷","ALLEY":" ","HOUSE_NO":"１５號","E_COORD97":171669.95000000001,"N_COORD97":2540688.6099999999,"ADDRESS":"城東街５２巷１５號","OBJECTID":448998},"geometry":{"x":171669.95000000019,"y":2540688.6099999994}},{"attributes":{"ID":449024,"DIS_CODE":0,"TOWNNAME":"東區","LI":"德高里","LIN":"18鄰","STREET":"城東街","SECT":" ","MAREA":" ","LANE":"５２巷","ALLEY":" ","HOUSE_NO":"１６號","E_COORD97":171644.72,"N_COORD97":2540696.6299999999,"ADDRESS":"城東街５２巷１６號","OBJECTID":448999},"geometry":{"x":171644.72000000067,"y":2540696.6300000008}},{"attributes":{"ID":449025,"DIS_CODE":0,"TOWNNAME":"東區","LI":"德高里","LIN":"18鄰","STREET":"城東街","SECT":" ","MAREA":" ","LANE":"５２巷","ALLEY":" ","HOUSE_NO":"１７號","E_COORD97":171679.48000000001,"N_COORD97":2540686.2599999998,"ADDRESS":"城東街５２巷１７號","OBJECTID":449000},"geometry":{"x":171679.48000000138,"y":2540686.2600000035}}]}