{"displayFieldName":"TOWNNAME","fieldAliases":{"ID":"ID","DIS_CODE":"DIS_CODE","TOWNNAME":"TOWNNAME","LI":"LI","LIN":"LIN","STREET":"STREET","SECT":"SECT","MAREA":"MAREA","LANE":"LANE","ALLEY":"ALLEY","HOUSE_NO":"HOUSE_NO","E_COORD97":"E_COORD97","N_COORD97":"N_COORD97","ADDRESS":"ADDRESS","OBJECTID":"OBJECTID"},"geometryType":"esriGeometryPoint","spatialReference":{"wkid":102443,"latestWkid":3826},"fields":[{"name":"ID","type":"esriFieldTypeDouble","alias":"ID"},{"name":"DIS_CODE","type":"esriFieldTypeInteger","alias":"DIS_CODE"},{"name":"TOWNNAME","type":"esriFieldTypeString","alias":"TOWNNAME","length":8},{"name":"LI","type":"esriFieldTypeString","alias":"LI","length":8},{"name":"LIN","type":"esriFieldTypeString","alias":"LIN","length":12},{"name":"STREET","type":"esriFieldTypeString","alias":"STREET","length":20},{"name":"SECT","type":"esriFieldTypeString","alias":"SECT","length":8},{"name":"MAREA","type":"esriFieldTypeString","alias":"MAREA","length":12},{"name":"LANE","type":"esriFieldTypeString","alias":"LANE","length":10},{"name":"ALLEY","type":"esriFieldTypeString","alias":"ALLEY","length":10},{"name":"HOUSE_NO","type":"esriFieldTypeString","alias":"HOUSE_NO","length":20},{"name":"E_COORD97","type":"esriFieldTypeDouble","alias":"E_COORD97"},{"name":"N_COORD97","type":"esriFieldTypeDouble","alias":"N_COORD97"},{"name":"ADDRESS","type":"esriFieldTypeString","alias":"ADDRESS","length":50},{"name":"OBJECTID","type":"esriFieldTypeOID","alias":"OBJECTID"}],"features":[{"attributes":{"ID":41601,"DIS_CODE":0,"TOWNNAME":"歸仁區","LI":"歸南里","LIN":"18鄰","STREET":"民生八街","SECT":" ","MAREA":" ","LANE":"２８巷","ALLEY":"２弄","HOUSE_NO":"１２號","E_COORD97":176141.16,"N_COORD97":2540374.25,"ADDRESS":"民生八街２８巷２弄１２號","OBJECTID":41601},"geometry":{"x":176141.16000000108,"y":2540374.2499999981}},{"attributes":{"ID":41602,"DIS_CODE":0,"TOWNNAME":"北區","LI":"國姓里","LIN":"7鄰","STREET":"小北路","SECT":" ","MAREA":" ","LANE":"２７巷","ALLEY":"２１弄","HOUSE_NO":"１號","E_COORD97":168772.14000000001,"N_COORD97":2545297.3300000001,"ADDRESS":"小北路２７巷２１弄１號","OBJECTID":41602},"geometry":{"x":168772.1400000006,"y":2545297.3300000019}},{"attributes":{"ID":41603,"DIS_CODE":0,"TOWNNAME":"北區","LI":"國姓里","LIN":"7鄰","STREET":"小北路","SECT":" ","MAREA":" ","LANE":"２７巷","ALLEY":"２１弄","HOUSE_NO":"２號","E_COORD97":168773.19,"N_COORD97":2545316.8599999999,"ADDRESS":"小北路２７巷２１弄２號","OBJECTID":41603},"geometry":{"x":168773.19000000041,"y":2545316.8600000013}},{"attributes":{"ID":41604,"DIS_CODE":0,"TOWNNAME":"新市區","LI":"潭頂里","LIN":"8鄰","STREET":" ","SECT":" ","MAREA":"潭頂","LANE":" ","ALLEY":" ","HOUSE_NO":"３２３之８３號","E_COORD97":181180.00898899999,"N_COORD97":2553566.4108600002,"ADDRESS":"潭頂３２３之８３號","OBJECTID":41604},"geometry":{"x":181180.00898900069,"y":2553566.4108560029}},{"attributes":{"ID":41605,"DIS_CODE":0,"TOWNNAME":"下營區","LI":"大屯里","LIN":"12鄰","STREET":" ","SECT":" ","MAREA":"大屯寮","LANE":" ","ALLEY":" ","HOUSE_NO":"９８號","E_COORD97":172242.80676400001,"N_COORD97":2570597.7626399999,"ADDRESS":"大屯寮９８號","OBJECTID":41605},"geometry":{"x":172242.80676400103,"y":2570597.7626370043}},{"attributes":{"ID":41606,"DIS_CODE":0,"TOWNNAME":"北區","LI":"國姓里","LIN":"7鄰","STREET":"小北路","SECT":" ","MAREA":" ","LANE":"２７巷","ALLEY":"２１弄","HOUSE_NO":"３號","E_COORD97":168765.16,"N_COORD97":2545306.0499999998,"ADDRESS":"小北路２７巷２１弄３號","OBJECTID":41606},"geometry":{"x":168765.16000000108,"y":2545306.0499999989}},{"attributes":{"ID":41607,"DIS_CODE":0,"TOWNNAME":"北區","LI":"國姓里","LIN":"7鄰","STREET":"小北路","SECT":" ","MAREA":" ","LANE":"２７巷","ALLEY":"３７弄","HOUSE_NO":"１號","E_COORD97":168795.89000000001,"N_COORD97":2545337.7999999998,"ADDRESS":"小北路２７巷３７弄１號","OBJECTID":41607},"geometry":{"x":168795.8900000006,"y":2545337.8000000007}},{"attributes":{"ID":41608,"DIS_CODE":0,"TOWNNAME":"山上區","LI":"山上里","LIN":"7鄰","STREET":" ","SECT":" ","MAREA":"山上","LANE":" ","ALLEY":" ","HOUSE_NO":"１２５號","E_COORD97":184272.31,"N_COORD97":2555771.25,"ADDRESS":"山上１２５號","OBJECTID":41608},"geometry":{"x":184272.30999999959,"y":2555771.2500000019}},{"attributes":{"ID":41609,"DIS_CODE":0,"TOWNNAME":"北區","LI":"國姓里","LIN":"7鄰","STREET":"小北路","SECT":" ","MAREA":" ","LANE":"２７巷","ALLEY":"３７弄","HOUSE_NO":"２號","E_COORD97":168801.82000000001,"N_COORD97":2545356.6299999999,"ADDRESS":"小北路２７巷３７弄２號","OBJECTID":41609},"geometry":{"x":168801.82000000123,"y":2545356.629999999}},{"attributes":{"ID":41610,"DIS_CODE":0,"TOWNNAME":"北區","LI":"國姓里","LIN":"7鄰","STREET":"小北路","SECT":" ","MAREA":" ","LANE":"２７巷","ALLEY":"３７弄","HOUSE_NO":"３號","E_COORD97":168789.60000000001,"N_COORD97":2545341.6400000001,"ADDRESS":"小北路２７巷３７弄３號","OBJECTID":41610},"geometry":{"x":168789.59999999963,"y":2545341.6400000006}},{"attributes":{"ID":41611,"DIS_CODE":0,"TOWNNAME":"北區","LI":"國姓里","LIN":"7鄰","STREET":"小北路","SECT":" ","MAREA":" ","LANE":"２７巷","ALLEY":"３７弄","HOUSE_NO":"４號","E_COORD97":168797.28,"N_COORD97":2545355.9399999999,"ADDRESS":"小北路２７巷３７弄４號","OBJECTID":41611},"geometry":{"x":168797.28000000119,"y":2545355.9399999995}},{"attributes":{"ID":41612,"DIS_CODE":0,"TOWNNAME":"北區","LI":"國姓里","LIN":"7鄰","STREET":"小北路","SECT":" ","MAREA":" ","LANE":"２７巷","ALLEY":"３７弄","HOUSE_NO":"５號","E_COORD97":168784.70999999999,"N_COORD97":2545344.7799999998,"ADDRESS":"小北路２７巷３７弄５號","OBJECTID":41612},"geometry":{"x":168784.70999999903,"y":2545344.7800000012}},{"attributes":{"ID":41613,"DIS_CODE":0,"TOWNNAME":"北區","LI":"國姓里","LIN":"7鄰","STREET":"小北路","SECT":" ","MAREA":" ","LANE":"２７巷","ALLEY":"３７弄","HOUSE_NO":"６號","E_COORD97":168789.95000000001,"N_COORD97":2545357.3300000001,"ADDRESS":"小北路２７巷３７弄６號","OBJECTID":41613},"geometry":{"x":168789.95000000019,"y":2545357.3300000001}},{"attributes":{"ID":41614,"DIS_CODE":0,"TOWNNAME":"北區","LI":"國姓里","LIN":"7鄰","STREET":"小北路","SECT":" ","MAREA":" ","LANE":"２７巷","ALLEY":"３７弄","HOUSE_NO":"７號","E_COORD97":168772.84,"N_COORD97":2545347.2200000002,"ADDRESS":"小北路２７巷３７弄７號","OBJECTID":41614},"geometry":{"x":168772.83999999985,"y":2545347.2200000025}},{"attributes":{"ID":41615,"DIS_CODE":0,"TOWNNAME":"北區","LI":"國姓里","LIN":"7鄰","STREET":"小北路","SECT":" ","MAREA":" ","LANE":"２７巷","ALLEY":"３７弄","HOUSE_NO":"８號","E_COORD97":168781.92000000001,"N_COORD97":2545360.4700000002,"ADDRESS":"小北路２７巷３７弄８號","OBJECTID":41615},"geometry":{"x":168781.92000000086,"y":2545360.4700000007}},{"attributes":{"ID":41616,"DIS_CODE":0,"TOWNNAME":"南區","LI":"喜東里","LIN":"7鄰","STREET":"喜樹路","SECT":" ","MAREA":" ","LANE":"１５１巷","ALLEY":"９弄","HOUSE_NO":"１號之１","E_COORD97":165825.63,"N_COORD97":2538012.6200000001,"ADDRESS":"喜樹路１５１巷９弄１號之１","OBJECTID":41616},"geometry":{"x":165825.63000000082,"y":2538012.620000001}},{"attributes":{"ID":41617,"DIS_CODE":0,"TOWNNAME":"安南區","LI":"城西里","LIN":"7鄰","STREET":"城西街","SECT":"三段","MAREA":" ","LANE":"五０一巷","ALLEY":" ","HOUSE_NO":"２２１之１號","E_COORD97":157369.29000000001,"N_COORD97":2550114.9199999999,"ADDRESS":"城西街三段五０一巷２２１之１號","OBJECTID":41617},"geometry":{"x":157369.29000000097,"y":2550114.9200000018}},{"attributes":{"ID":41618,"DIS_CODE":0,"TOWNNAME":"山上區","LI":"山上里","LIN":"7鄰","STREET":" ","SECT":" ","MAREA":"山上","LANE":" ","ALLEY":" ","HOUSE_NO":"１２２號","E_COORD97":184218.10999999999,"N_COORD97":2555788.25,"ADDRESS":"山上１２２號","OBJECTID":41618},"geometry":{"x":184218.11000000034,"y":2555788.2500000019}},{"attributes":{"ID":41619,"DIS_CODE":0,"TOWNNAME":"山上區","LI":"玉\u25A0里","LIN":"7鄰","STREET":" ","SECT":" ","MAREA":"牛稠埔","LANE":" ","ALLEY":" ","HOUSE_NO":"１６號","E_COORD97":186076.78719199999,"N_COORD97":2554820.71312,"ADDRESS":"牛稠埔１６號","OBJECTID":41619},"geometry":{"x":186076.78719200101,"y":2554820.7131240014}},{"attributes":{"ID":41620,"DIS_CODE":0,"TOWNNAME":"山上區","LI":"新莊里","LIN":"7鄰","STREET":" ","SECT":" ","MAREA":"大庄","LANE":" ","ALLEY":" ","HOUSE_NO":"１７號","E_COORD97":183856.32000000001,"N_COORD97":2554744.75,"ADDRESS":"大庄１７號","OBJECTID":41620},"geometry":{"x":183856.32000000216,"y":2554744.75}},{"attributes":{"ID":41621,"DIS_CODE":0,"TOWNNAME":"山上區","LI":"玉\u25A0里","LIN":"7鄰","STREET":" ","SECT":" ","MAREA":"牛稠埔","LANE":" ","ALLEY":" ","HOUSE_NO":"１１之３號","E_COORD97":185956.76658699999,"N_COORD97":2554851.0049399999,"ADDRESS":"牛稠埔１１之３號","OBJECTID":41621},"geometry":{"x":185956.76658700127,"y":2554851.0049410015}},{"attributes":{"ID":41622,"DIS_CODE":0,"TOWNNAME":"善化區","LI":"東隆里","LIN":"7鄰","STREET":" ","SECT":" ","MAREA":"東勢寮","LANE":" ","ALLEY":" ","HOUSE_NO":"１８９號之３","E_COORD97":179912.91,"N_COORD97":2561895.77,"ADDRESS":"東勢寮１８９號之３","OBJECTID":41622},"geometry":{"x":179912.91000000108,"y":2561895.7699999977}},{"attributes":{"ID":41623,"DIS_CODE":0,"TOWNNAME":"善化區","LI":"東隆里","LIN":"7鄰","STREET":" ","SECT":" ","MAREA":"東勢寮","LANE":" ","ALLEY":" ","HOUSE_NO":"２００號","E_COORD97":179866.29999999999,"N_COORD97":2561765.2599999998,"ADDRESS":"東勢寮２００號","OBJECTID":41623},"geometry":{"x":179866.30000000075,"y":2561765.2600000016}},{"attributes":{"ID":41624,"DIS_CODE":0,"TOWNNAME":"安南區","LI":"溪心里","LIN":"7鄰","STREET":"本原街","SECT":"二段","MAREA":" ","LANE":" ","ALLEY":" ","HOUSE_NO":"２１５號","E_COORD97":166581.56,"N_COORD97":2550704.98,"ADDRESS":"本原街二段２１５號","OBJECTID":41624},"geometry":{"x":166581.55999999866,"y":2550704.9800000023}},{"attributes":{"ID":41625,"DIS_CODE":0,"TOWNNAME":"安南區","LI":"\u25A0田里","LIN":"7鄰","STREET":"本田路","SECT":"二段","MAREA":" ","LANE":" ","ALLEY":" ","HOUSE_NO":"５１８號","E_COORD97":163735.54000000001,"N_COORD97":2548872.1600000001,"ADDRESS":"本田路二段５１８號","OBJECTID":41625},"geometry":{"x":163735.54000000004,"y":2548872.160000002}},{"attributes":{"ID":41626,"DIS_CODE":0,"TOWNNAME":"安南區","LI":"\u25A0田里","LIN":"7鄰","STREET":"本田路","SECT":"二段","MAREA":" ","LANE":" ","ALLEY":" ","HOUSE_NO":"５０６號","E_COORD97":163617.41483200001,"N_COORD97":2548856.94661,"ADDRESS":"本田路二段５０６號","OBJECTID":41626},"geometry":{"x":163617.41483200062,"y":2548856.9466080014}},{"attributes":{"ID":41627,"DIS_CODE":0,"TOWNNAME":"東區","LI":"裕聖里","LIN":"7鄰","STREET":"裕華三街","SECT":" ","MAREA":" ","LANE":" ","ALLEY":" ","HOUSE_NO":"３７號","E_COORD97":172782.01000000001,"N_COORD97":2542101.6299999999,"ADDRESS":"裕華三街３７號","OBJECTID":41627},"geometry":{"x":172782.01000000071,"y":2542101.629999999}},{"attributes":{"ID":41628,"DIS_CODE":0,"TOWNNAME":"東區","LI":"裕聖里","LIN":"7鄰","STREET":"裕華三街","SECT":" ","MAREA":" ","LANE":" ","ALLEY":" ","HOUSE_NO":"５號","E_COORD97":172783.39000000001,"N_COORD97":2542162.1000000001,"ADDRESS":"裕華三街５號","OBJECTID":41628},"geometry":{"x":172783.38999999966,"y":2542162.1000000034}},{"attributes":{"ID":41629,"DIS_CODE":0,"TOWNNAME":"安平區","LI":"育平里","LIN":"18鄰","STREET":"育平四街","SECT":" ","MAREA":" ","LANE":" ","ALLEY":" ","HOUSE_NO":"３４號","E_COORD97":164649.72,"N_COORD97":2543403.9399999999,"ADDRESS":"育平四街３４號","OBJECTID":41629},"geometry":{"x":164649.71999999974,"y":2543403.9400000013}},{"attributes":{"ID":41630,"DIS_CODE":0,"TOWNNAME":"東區","LI":"崇成里","LIN":"7鄰","STREET":"崇善路","SECT":" ","MAREA":" ","LANE":" ","ALLEY":" ","HOUSE_NO":"５２６號","E_COORD97":171052.39000000001,"N_COORD97":2541313.1800000002,"ADDRESS":"崇善路５２６號","OBJECTID":41630},"geometry":{"x":171052.38999999966,"y":2541313.1799999997}},{"attributes":{"ID":41631,"DIS_CODE":0,"TOWNNAME":"新化區","LI":"東榮里","LIN":"4鄰","STREET":"信義路","SECT":" ","MAREA":" ","LANE":" ","ALLEY":" ","HOUSE_NO":"３１號之１７","E_COORD97":180448.57000000001,"N_COORD97":2548574.2599999998,"ADDRESS":"信義路３１號之１７","OBJECTID":41631},"geometry":{"x":180448.5700000003,"y":2548574.2599999998}},{"attributes":{"ID":41632,"DIS_CODE":0,"TOWNNAME":"新化區","LI":"東榮里","LIN":"20鄰","STREET":"復興路","SECT":" ","MAREA":" ","LANE":" ","ALLEY":" ","HOUSE_NO":"２４２號","E_COORD97":179366.32000000001,"N_COORD97":2548305.25,"ADDRESS":"復興路２４２號","OBJECTID":41632},"geometry":{"x":179366.32000000123,"y":2548305.2500000019}},{"attributes":{"ID":41633,"DIS_CODE":0,"TOWNNAME":"新化區","LI":"東榮里","LIN":"32鄰","STREET":"中正路","SECT":" ","MAREA":" ","LANE":" ","ALLEY":" ","HOUSE_NO":"３７４號","E_COORD97":179103.01000000001,"N_COORD97":2548365.25,"ADDRESS":"中正路３７４號","OBJECTID":41633},"geometry":{"x":179103.01000000164,"y":2548365.25}},{"attributes":{"ID":41634,"DIS_CODE":0,"TOWNNAME":"新化區","LI":"東榮里","LIN":"4鄰","STREET":"信義路","SECT":" ","MAREA":" ","LANE":" ","ALLEY":" ","HOUSE_NO":"３３號之３","E_COORD97":180359.78629799999,"N_COORD97":2548396.3762300001,"ADDRESS":"信義路３３號之３","OBJECTID":41634},"geometry":{"x":180359.78629800119,"y":2548396.3762309998}},{"attributes":{"ID":41635,"DIS_CODE":0,"TOWNNAME":"新化區","LI":"豐榮里","LIN":"13鄰","STREET":"信義路","SECT":" ","MAREA":" ","LANE":" ","ALLEY":" ","HOUSE_NO":"４０３號","E_COORD97":178601.92999999999,"N_COORD97":2548262.25,"ADDRESS":"信義路４０３號","OBJECTID":41635},"geometry":{"x":178601.93000000063,"y":2548262.25}},{"attributes":{"ID":41636,"DIS_CODE":0,"TOWNNAME":"新化區","LI":"豐榮里","LIN":"13鄰","STREET":"信義路","SECT":" ","MAREA":" ","LANE":" ","ALLEY":" ","HOUSE_NO":"３７３號","E_COORD97":178672.32999999999,"N_COORD97":2548265.25,"ADDRESS":"信義路３７３號","OBJECTID":41636},"geometry":{"x":178672.33000000101,"y":2548265.2500000019}},{"attributes":{"ID":41637,"DIS_CODE":0,"TOWNNAME":"歸仁區","LI":"西埔里","LIN":"7鄰","STREET":"西埔一街","SECT":" ","MAREA":" ","LANE":"６５巷","ALLEY":"２５弄","HOUSE_NO":"５號","E_COORD97":177052.17000000001,"N_COORD97":2544254.25,"ADDRESS":"西埔一街６５巷２５弄５號","OBJECTID":41637},"geometry":{"x":177052.16999999993,"y":2544254.2500000019}},{"attributes":{"ID":41638,"DIS_CODE":0,"TOWNNAME":"歸仁區","LI":"歸南里","LIN":"18鄰","STREET":"民生八街","SECT":" ","MAREA":" ","LANE":"２８巷","ALLEY":"２弄","HOUSE_NO":"６號","E_COORD97":176128.60999999999,"N_COORD97":2540374.25,"ADDRESS":"民生八街２８巷２弄６號","OBJECTID":41638},"geometry":{"x":176128.61000000034,"y":2540374.2499999981}},{"attributes":{"ID":41639,"DIS_CODE":0,"TOWNNAME":"歸仁區","LI":"媽廟里","LIN":"7鄰","STREET":"中正北路","SECT":"三段","MAREA":" ","LANE":"２０５巷","ALLEY":"２３弄","HOUSE_NO":"２９號","E_COORD97":177496.45999999999,"N_COORD97":2543813.7200000002,"ADDRESS":"中正北路三段２０５巷２３弄２９號","OBJECTID":41639},"geometry":{"x":177496.46000000183,"y":2543813.7200000025}},{"attributes":{"ID":41640,"DIS_CODE":0,"TOWNNAME":"歸仁區","LI":"看東里","LIN":"7鄰","STREET":"成功路","SECT":"一段","MAREA":" ","LANE":"１５５巷","ALLEY":"１６弄","HOUSE_NO":"１１號","E_COORD97":178579.64999999999,"N_COORD97":2540139.4500000002,"ADDRESS":"成功路一段１５５巷１６弄１１號","OBJECTID":41640},"geometry":{"x":178579.65000000037,"y":2540139.4500000011}},{"attributes":{"ID":41641,"DIS_CODE":0,"TOWNNAME":"歸仁區","LI":"媽廟里","LIN":"7鄰","STREET":"中正北路","SECT":"三段","MAREA":" ","LANE":"２０５巷","ALLEY":"２３弄","HOUSE_NO":"９號","E_COORD97":177503.60999999999,"N_COORD97":2543856.7200000002,"ADDRESS":"中正北路三段２０５巷２３弄９號","OBJECTID":41641},"geometry":{"x":177503.61000000034,"y":2543856.7200000007}},{"attributes":{"ID":41642,"DIS_CODE":0,"TOWNNAME":"歸仁區","LI":"媽廟里","LIN":"7鄰","STREET":"中正北路","SECT":"三段","MAREA":" ","LANE":"２０５巷","ALLEY":"２３弄","HOUSE_NO":"１號","E_COORD97":177506.70999999999,"N_COORD97":2543871.7200000002,"ADDRESS":"中正北路三段２０５巷２３弄１號","OBJECTID":41642},"geometry":{"x":177506.71000000089,"y":2543871.7200000025}},{"attributes":{"ID":41643,"DIS_CODE":0,"TOWNNAME":"歸仁區","LI":"媽廟里","LIN":"7鄰","STREET":"中正北路","SECT":"三段","MAREA":" ","LANE":"２０５巷","ALLEY":"２３弄","HOUSE_NO":"１１號","E_COORD97":177502.85999999999,"N_COORD97":2543851.7200000002,"ADDRESS":"中正北路三段２０５巷２３弄１１號","OBJECTID":41643},"geometry":{"x":177502.86000000127,"y":2543851.7200000025}},{"attributes":{"ID":41644,"DIS_CODE":0,"TOWNNAME":"歸仁區","LI":"媽廟里","LIN":"7鄰","STREET":"中正北路","SECT":"三段","MAREA":" ","LANE":"２０５巷","ALLEY":"２３弄","HOUSE_NO":"１５號","E_COORD97":177501.76000000001,"N_COORD97":2543844.7200000002,"ADDRESS":"中正北路三段２０５巷２３弄１５號","OBJECTID":41644},"geometry":{"x":177501.76000000071,"y":2543844.7200000025}},{"attributes":{"ID":41645,"DIS_CODE":0,"TOWNNAME":"歸仁區","LI":"媽廟里","LIN":"7鄰","STREET":"中正北路","SECT":"三段","MAREA":" ","LANE":"２０５巷","ALLEY":"２３弄","HOUSE_NO":"１９號","E_COORD97":177499.66,"N_COORD97":2543836.7200000002,"ADDRESS":"中正北路三段２０５巷２３弄１９號","OBJECTID":41645},"geometry":{"x":177499.66000000015,"y":2543836.7200000007}},{"attributes":{"ID":41646,"DIS_CODE":0,"TOWNNAME":"歸仁區","LI":"後市里","LIN":"46鄰","STREET":"文化街","SECT":"二段","MAREA":" ","LANE":"１２１巷","ALLEY":"１２弄","HOUSE_NO":"５號","E_COORD97":177175.48999999999,"N_COORD97":2541133.7599999998,"ADDRESS":"文化街二段１２１巷１２弄５號","OBJECTID":41646},"geometry":{"x":177175.49000000022,"y":2541133.7600000035}},{"attributes":{"ID":41647,"DIS_CODE":0,"TOWNNAME":"北區","LI":"正覺里","LIN":"7鄰","STREET":"西門路","SECT":"四段","MAREA":" ","LANE":"４３０巷","ALLEY":"１弄","HOUSE_NO":"１０號","E_COORD97":169132.78,"N_COORD97":2546222.73,"ADDRESS":"西門路四段４３０巷１弄１０號","OBJECTID":41647},"geometry":{"x":169132.78000000119,"y":2546222.7300000004}},{"attributes":{"ID":41648,"DIS_CODE":0,"TOWNNAME":"北區","LI":"正覺里","LIN":"7鄰","STREET":"西門路","SECT":"四段","MAREA":" ","LANE":"４３０巷","ALLEY":"１弄","HOUSE_NO":"１２號","E_COORD97":169136.29000000001,"N_COORD97":2546220.0499999998,"ADDRESS":"西門路四段４３０巷１弄１２號","OBJECTID":41648},"geometry":{"x":169136.29000000004,"y":2546220.0500000007}},{"attributes":{"ID":41649,"DIS_CODE":0,"TOWNNAME":"北區","LI":"正覺里","LIN":"7鄰","STREET":"西門路","SECT":"四段","MAREA":" ","LANE":"４３０巷","ALLEY":"１弄","HOUSE_NO":"１４號","E_COORD97":169139.07000000001,"N_COORD97":2546217.1000000001,"ADDRESS":"西門路四段４３０巷１弄１４號","OBJECTID":41649},"geometry":{"x":169139.07000000123,"y":2546217.1000000015}},{"attributes":{"ID":41650,"DIS_CODE":0,"TOWNNAME":"北區","LI":"正覺里","LIN":"7鄰","STREET":"西門路","SECT":"四段","MAREA":" ","LANE":"４３０巷","ALLEY":"１弄","HOUSE_NO":"１６號","E_COORD97":169147.01000000001,"N_COORD97":2546217.8399999999,"ADDRESS":"西門路四段４３０巷１弄１６號","OBJECTID":41650},"geometry":{"x":169147.01000000164,"y":2546217.8399999999}},{"attributes":{"ID":41651,"DIS_CODE":0,"TOWNNAME":"新化區","LI":"武安里","LIN":"14鄰","STREET":"健康路","SECT":" ","MAREA":" ","LANE":" ","ALLEY":" ","HOUSE_NO":"８９號","E_COORD97":178809.67999999999,"N_COORD97":2548139.2599999998,"ADDRESS":"健康路８９號","OBJECTID":41651},"geometry":{"x":178809.6799999997,"y":2548139.2600000016}},{"attributes":{"ID":41652,"DIS_CODE":0,"TOWNNAME":"善化區","LI":"小新里","LIN":"7鄰","STREET":" ","SECT":" ","MAREA":"小新營","LANE":" ","ALLEY":" ","HOUSE_NO":"５４號之２","E_COORD97":179734.20000000001,"N_COORD97":2558339.27,"ADDRESS":"小新營５４號之２","OBJECTID":41652},"geometry":{"x":179734.20000000019,"y":2558339.2699999977}},{"attributes":{"ID":41653,"DIS_CODE":0,"TOWNNAME":"中西區","LI":"中正里","LIN":"6鄰","STREET":"海安路","SECT":"二段","MAREA":" ","LANE":" ","ALLEY":" ","HOUSE_NO":"７８號","E_COORD97":167638.19,"N_COORD97":2543920.71,"ADDRESS":"海安路二段７８號","OBJECTID":41653},"geometry":{"x":167638.19000000134,"y":2543920.7100000009}},{"attributes":{"ID":41654,"DIS_CODE":0,"TOWNNAME":"安南區","LI":"布袋里","LIN":"6鄰","STREET":"長和路","SECT":"四段","MAREA":" ","LANE":"１６０巷","ALLEY":" ","HOUSE_NO":"１２號","E_COORD97":168979.72,"N_COORD97":2551697.5299999998,"ADDRESS":"長和路四段１６０巷１２號","OBJECTID":41654},"geometry":{"x":168979.72000000067,"y":2551697.5299999993}},{"attributes":{"ID":41655,"DIS_CODE":0,"TOWNNAME":"善化區","LI":"小新里","LIN":"7鄰","STREET":" ","SECT":" ","MAREA":"小新營","LANE":" ","ALLEY":" ","HOUSE_NO":"５６之８５號","E_COORD97":179476.44,"N_COORD97":2558442.27,"ADDRESS":"小新營５６之８５號","OBJECTID":41655},"geometry":{"x":179476.44000000041,"y":2558442.2700000014}},{"attributes":{"ID":41656,"DIS_CODE":0,"TOWNNAME":"善化區","LI":"小新里","LIN":"7鄰","STREET":" ","SECT":" ","MAREA":"小新營","LANE":" ","ALLEY":" ","HOUSE_NO":"５６號之７６","E_COORD97":179543.88,"N_COORD97":2558447.52,"ADDRESS":"小新營５６號之７６","OBJECTID":41656},"geometry":{"x":179543.87999999989,"y":2558447.5200000014}},{"attributes":{"ID":41657,"DIS_CODE":0,"TOWNNAME":"善化區","LI":"胡厝里","LIN":"7鄰","STREET":" ","SECT":" ","MAREA":"胡厝寮","LANE":" ","ALLEY":" ","HOUSE_NO":"１９９號","E_COORD97":175277.23000000001,"N_COORD97":2560453.5,"ADDRESS":"胡厝寮１９９號","OBJECTID":41657},"geometry":{"x":175277.23000000045,"y":2560453.5}},{"attributes":{"ID":41658,"DIS_CODE":0,"TOWNNAME":"麻豆區","LI":"安業里","LIN":"7鄰","STREET":" ","SECT":" ","MAREA":"安業","LANE":" ","ALLEY":" ","HOUSE_NO":"１４６號","E_COORD97":172575.39000000001,"N_COORD97":2562259,"ADDRESS":"安業１４６號","OBJECTID":41658},"geometry":{"x":172575.39000000153,"y":2562259.0000000019}},{"attributes":{"ID":41659,"DIS_CODE":0,"TOWNNAME":"善化區","LI":"胡厝里","LIN":"7鄰","STREET":" ","SECT":" ","MAREA":"胡厝寮","LANE":" ","ALLEY":" ","HOUSE_NO":"２０３號","E_COORD97":175260.16,"N_COORD97":2560415.5,"ADDRESS":"胡厝寮２０３號","OBJECTID":41659},"geometry":{"x":175260.16000000015,"y":2560415.5}},{"attributes":{"ID":41660,"DIS_CODE":0,"TOWNNAME":"新化區","LI":"崙頂里","LIN":"7鄰","STREET":" ","SECT":" ","MAREA":"崙子頂","LANE":" ","ALLEY":" ","HOUSE_NO":"２９４號","E_COORD97":176803.32999999999,"N_COORD97":2547116.25,"ADDRESS":"崙子頂２９４號","OBJECTID":41660},"geometry":{"x":176803.33000000007,"y":2547116.2500000019}},{"attributes":{"ID":41661,"DIS_CODE":0,"TOWNNAME":"北區","LI":"正覺里","LIN":"7鄰","STREET":"西門路","SECT":"四段","MAREA":" ","LANE":"４３０巷","ALLEY":"１弄","HOUSE_NO":"１８號","E_COORD97":169155.60000000001,"N_COORD97":2546229.1000000001,"ADDRESS":"西門路四段４３０巷１弄１８號","OBJECTID":41661},"geometry":{"x":169155.60000000056,"y":2546229.0999999996}},{"attributes":{"ID":41662,"DIS_CODE":0,"TOWNNAME":"北區","LI":"正覺里","LIN":"7鄰","STREET":"西門路","SECT":"四段","MAREA":" ","LANE":"４３０巷","ALLEY":"１弄","HOUSE_NO":"２０號","E_COORD97":169151.82000000001,"N_COORD97":2546232.52,"ADDRESS":"西門路四段４３０巷１弄２０號","OBJECTID":41662},"geometry":{"x":169151.8200000003,"y":2546232.5199999996}},{"attributes":{"ID":41663,"DIS_CODE":0,"TOWNNAME":"北區","LI":"正覺里","LIN":"7鄰","STREET":"西門路","SECT":"四段","MAREA":" ","LANE":"４３０巷","ALLEY":"１弄","HOUSE_NO":"２２號","E_COORD97":169147.84,"N_COORD97":2546235.5600000001,"ADDRESS":"西門路四段４３０巷１弄２２號","OBJECTID":41663},"geometry":{"x":169147.83999999985,"y":2546235.5600000024}},{"attributes":{"ID":41664,"DIS_CODE":0,"TOWNNAME":"北區","LI":"正覺里","LIN":"7鄰","STREET":"西門路","SECT":"四段","MAREA":" ","LANE":"４３０巷","ALLEY":"１弄","HOUSE_NO":"２４號","E_COORD97":169143.5,"N_COORD97":2546238.2400000002,"ADDRESS":"西門路四段４３０巷１弄２４號","OBJECTID":41664},"geometry":{"x":169143.5,"y":2546238.2400000021}},{"attributes":{"ID":41665,"DIS_CODE":0,"TOWNNAME":"北區","LI":"正覺里","LIN":"7鄰","STREET":"西門路","SECT":"四段","MAREA":" ","LANE":"４３０巷","ALLEY":"１弄","HOUSE_NO":"２６號","E_COORD97":169140.54000000001,"N_COORD97":2546240.5499999998,"ADDRESS":"西門路四段４３０巷１弄２６號","OBJECTID":41665},"geometry":{"x":169140.54000000097,"y":2546240.5500000007}},{"attributes":{"ID":41666,"DIS_CODE":0,"TOWNNAME":"北區","LI":"正覺里","LIN":"7鄰","STREET":"西門路","SECT":"四段","MAREA":" ","LANE":"４３０巷","ALLEY":"１弄","HOUSE_NO":"２８號","E_COORD97":169137.76999999999,"N_COORD97":2546242.7599999998,"ADDRESS":"西門路四段４３０巷１弄２８號","OBJECTID":41666},"geometry":{"x":169137.76999999955,"y":2546242.7599999979}},{"attributes":{"ID":41667,"DIS_CODE":0,"TOWNNAME":"北區","LI":"正覺里","LIN":"7鄰","STREET":"西門路","SECT":"四段","MAREA":" ","LANE":"４３０巷","ALLEY":"１弄","HOUSE_NO":"２號","E_COORD97":169114.95000000001,"N_COORD97":2546235.5600000001,"ADDRESS":"西門路四段４３０巷１弄２號","OBJECTID":41667},"geometry":{"x":169114.95000000019,"y":2546235.5600000024}},{"attributes":{"ID":41668,"DIS_CODE":0,"TOWNNAME":"北區","LI":"正覺里","LIN":"7鄰","STREET":"西門路","SECT":"四段","MAREA":" ","LANE":"４３０巷","ALLEY":"１弄","HOUSE_NO":"３０號","E_COORD97":169132.41,"N_COORD97":2546246.27,"ADDRESS":"西門路四段４３０巷１弄３０號","OBJECTID":41668},"geometry":{"x":169132.41000000015,"y":2546246.2700000033}},{"attributes":{"ID":41669,"DIS_CODE":0,"TOWNNAME":"北區","LI":"正覺里","LIN":"7鄰","STREET":"西門路","SECT":"四段","MAREA":" ","LANE":"４３０巷","ALLEY":"１弄","HOUSE_NO":"３２號","E_COORD97":169128.62,"N_COORD97":2546249.9700000002,"ADDRESS":"西門路四段４３０巷１弄３２號","OBJECTID":41669},"geometry":{"x":169128.62000000104,"y":2546249.9700000025}},{"attributes":{"ID":41670,"DIS_CODE":0,"TOWNNAME":"北區","LI":"正覺里","LIN":"7鄰","STREET":"西門路","SECT":"四段","MAREA":" ","LANE":"４３０巷","ALLEY":"１弄","HOUSE_NO":"４號","E_COORD97":169119.39000000001,"N_COORD97":2546231.8700000001,"ADDRESS":"西門路四段４３０巷１弄４號","OBJECTID":41670},"geometry":{"x":169119.3900000006,"y":2546231.870000001}},{"attributes":{"ID":41671,"DIS_CODE":0,"TOWNNAME":"北區","LI":"正覺里","LIN":"7鄰","STREET":"西門路","SECT":"四段","MAREA":" ","LANE":"４３０巷","ALLEY":"１弄","HOUSE_NO":"６號","E_COORD97":169123.73000000001,"N_COORD97":2546229.1899999999,"ADDRESS":"西門路四段４３０巷１弄６號","OBJECTID":41671},"geometry":{"x":169123.73000000045,"y":2546229.1899999995}},{"attributes":{"ID":41672,"DIS_CODE":0,"TOWNNAME":"北區","LI":"正覺里","LIN":"7鄰","STREET":"西門路","SECT":"四段","MAREA":" ","LANE":"４３０巷","ALLEY":"１弄","HOUSE_NO":"８號","E_COORD97":169126.87,"N_COORD97":2546225.5899999999,"ADDRESS":"西門路四段４３０巷１弄８號","OBJECTID":41672},"geometry":{"x":169126.87000000104,"y":2546225.5899999999}},{"attributes":{"ID":41673,"DIS_CODE":0,"TOWNNAME":"歸仁區","LI":"歸南里","LIN":"20鄰","STREET":"民生八街","SECT":" ","MAREA":" ","LANE":"２８巷","ALLEY":"１弄","HOUSE_NO":"５６號","E_COORD97":175991.45999999999,"N_COORD97":2540392.25,"ADDRESS":"民生八街２８巷１弄５６號","OBJECTID":41673},"geometry":{"x":175991.46000000089,"y":2540392.2500000019}},{"attributes":{"ID":41674,"DIS_CODE":0,"TOWNNAME":"新化區","LI":"\u25A0拔里","LIN":"7鄰","STREET":" ","SECT":" ","MAREA":"\u25A0拔林","LANE":" ","ALLEY":" ","HOUSE_NO":"２７１號之１","E_COORD97":183515.95000000001,"N_COORD97":2551871.2599999998,"ADDRESS":"\u25A0拔林２７１號之１","OBJECTID":41674},"geometry":{"x":183515.95000000019,"y":2551871.2600000016}},{"attributes":{"ID":41675,"DIS_CODE":0,"TOWNNAME":"新營區","LI":"南紙里","LIN":"7鄰","STREET":"建業路","SECT":" ","MAREA":" ","LANE":"２６９巷","ALLEY":"２０弄","HOUSE_NO":"１３號","E_COORD97":177946.42999999999,"N_COORD97":2577409.77,"ADDRESS":"建業路２６９巷２０弄１３號","OBJECTID":41675},"geometry":{"x":177946.4299999997,"y":2577409.7699999996}},{"attributes":{"ID":41676,"DIS_CODE":0,"TOWNNAME":"西港區","LI":"營西里","LIN":"7鄰","STREET":" ","SECT":" ","MAREA":"後營","LANE":" ","ALLEY":" ","HOUSE_NO":"６５號之１","E_COORD97":169669.82000000001,"N_COORD97":2560292.71,"ADDRESS":"後營６５號之１","OBJECTID":41676},"geometry":{"x":169669.82000000123,"y":2560292.7100000009}},{"attributes":{"ID":41677,"DIS_CODE":0,"TOWNNAME":"新營區","LI":"新東里","LIN":"7鄰","STREET":"東學路","SECT":" ","MAREA":" ","LANE":"１７６巷","ALLEY":"２弄","HOUSE_NO":"８號","E_COORD97":181183.60999999999,"N_COORD97":2579339.0499999998,"ADDRESS":"東學路１７６巷２弄８號","OBJECTID":41677},"geometry":{"x":181183.61000000127,"y":2579339.0500000045}},{"attributes":{"ID":41678,"DIS_CODE":0,"TOWNNAME":"新營區","LI":"新東里","LIN":"7鄰","STREET":"東學路","SECT":" ","MAREA":" ","LANE":"１７６巷","ALLEY":"２弄","HOUSE_NO":"９號","E_COORD97":181174.20999999999,"N_COORD97":2579318.0499999998,"ADDRESS":"東學路１７６巷２弄９號","OBJECTID":41678},"geometry":{"x":181174.20999999996,"y":2579318.0500000007}},{"attributes":{"ID":41679,"DIS_CODE":0,"TOWNNAME":"新營區","LI":"南紙里","LIN":"7鄰","STREET":"建業路","SECT":" ","MAREA":" ","LANE":"２６９巷","ALLEY":"２０弄","HOUSE_NO":"７號","E_COORD97":177958.5,"N_COORD97":2577409.7000000002,"ADDRESS":"建業路２６９巷２０弄７號","OBJECTID":41679},"geometry":{"x":177958.5,"y":2577409.6999999993}},{"attributes":{"ID":41680,"DIS_CODE":0,"TOWNNAME":"新營區","LI":"新東里","LIN":"7鄰","STREET":"東學路","SECT":" ","MAREA":" ","LANE":"１７６巷","ALLEY":"２弄","HOUSE_NO":"７號","E_COORD97":181179.39000000001,"N_COORD97":2579319.1400000001,"ADDRESS":"東學路１７６巷２弄７號","OBJECTID":41680},"geometry":{"x":181179.38999999966,"y":2579319.1400000025}},{"attributes":{"ID":41681,"DIS_CODE":0,"TOWNNAME":"新營區","LI":"新東里","LIN":"7鄰","STREET":"東學路","SECT":" ","MAREA":" ","LANE":"１７６巷","ALLEY":"２弄","HOUSE_NO":"１０號","E_COORD97":181178.64999999999,"N_COORD97":2579339.0800000001,"ADDRESS":"東學路１７６巷２弄１０號","OBJECTID":41681},"geometry":{"x":181178.65000000037,"y":2579339.0800000019}},{"attributes":{"ID":41682,"DIS_CODE":0,"TOWNNAME":"新化區","LI":"武安里","LIN":"14鄰","STREET":"健康路","SECT":" ","MAREA":" ","LANE":" ","ALLEY":" ","HOUSE_NO":"９１號","E_COORD97":178806.67999999999,"N_COORD97":2548141.2599999998,"ADDRESS":"健康路９１號","OBJECTID":41682},"geometry":{"x":178806.68000000156,"y":2548141.2599999998}},{"attributes":{"ID":41683,"DIS_CODE":0,"TOWNNAME":"安南區","LI":"布袋里","LIN":"6鄰","STREET":"長和路","SECT":"四段","MAREA":" ","LANE":" ","ALLEY":" ","HOUSE_NO":"１５２號","E_COORD97":168958.63,"N_COORD97":2551652.3700000001,"ADDRESS":"長和路四段１５２號","OBJECTID":41683},"geometry":{"x":168958.63000000082,"y":2551652.3700000029}},{"attributes":{"ID":41684,"DIS_CODE":0,"TOWNNAME":"安南區","LI":"砂崙里","LIN":"6鄰","STREET":"城北路","SECT":" ","MAREA":" ","LANE":"７３５巷","ALLEY":" ","HOUSE_NO":"２７８號","E_COORD97":160324.39999999999,"N_COORD97":2552878.8799999999,"ADDRESS":"城北路７３５巷２７８號","OBJECTID":41684},"geometry":{"x":160324.40000000037,"y":2552878.879999999}},{"attributes":{"ID":41685,"DIS_CODE":0,"TOWNNAME":"安南區","LI":"淵中里","LIN":"6鄰","STREET":"本田路","SECT":"三段","MAREA":" ","LANE":" ","ALLEY":" ","HOUSE_NO":"１５１之２號","E_COORD97":164007.840807,"N_COORD97":2549203.5244300002,"ADDRESS":"本田路三段１５１之２號","OBJECTID":41685},"geometry":{"x":164007.84080700111,"y":2549203.5244290009}},{"attributes":{"ID":41686,"DIS_CODE":0,"TOWNNAME":"安南區","LI":"淵中里","LIN":"6鄰","STREET":"本田路","SECT":"三段","MAREA":" ","LANE":" ","ALLEY":" ","HOUSE_NO":"１５１之８號","E_COORD97":164021.81996600001,"N_COORD97":2549212.6260899999,"ADDRESS":"本田路三段１５１之８號","OBJECTID":41686},"geometry":{"x":164021.81996599957,"y":2549212.6260910016}},{"attributes":{"ID":41687,"DIS_CODE":0,"TOWNNAME":"安南區","LI":"淵中里","LIN":"6鄰","STREET":"本田路","SECT":"三段","MAREA":" ","LANE":" ","ALLEY":" ","HOUSE_NO":"１５１之６號","E_COORD97":164014.83038699999,"N_COORD97":2549207.7577599999,"ADDRESS":"本田路三段１５１之６號","OBJECTID":41687},"geometry":{"x":164014.83038699999,"y":2549207.7577599995}},{"attributes":{"ID":41688,"DIS_CODE":0,"TOWNNAME":"安南區","LI":"淵中里","LIN":"6鄰","STREET":"本田路","SECT":"三段","MAREA":" ","LANE":" ","ALLEY":" ","HOUSE_NO":"１５１之１２號","E_COORD97":164033.46926499999,"N_COORD97":2549221.7277500001,"ADDRESS":"本田路三段１５１之１２號","OBJECTID":41688},"geometry":{"x":164033.46926500089,"y":2549221.7277530003}},{"attributes":{"ID":41689,"DIS_CODE":0,"TOWNNAME":"歸仁區","LI":"看西里","LIN":"23鄰","STREET":"成功五街","SECT":" ","MAREA":" ","LANE":"８８巷","ALLEY":"９７弄","HOUSE_NO":"１８號","E_COORD97":178352.103015,"N_COORD97":2539795.6054799999,"ADDRESS":"成功五街８８巷９７弄１８號","OBJECTID":41689},"geometry":{"x":178352.103015,"y":2539795.6054750029}},{"attributes":{"ID":41690,"DIS_CODE":0,"TOWNNAME":"新營區","LI":"南紙里","LIN":"7鄰","STREET":"建業路","SECT":" ","MAREA":" ","LANE":"２６９巷","ALLEY":"２０弄","HOUSE_NO":"１１號","E_COORD97":177951.54000000001,"N_COORD97":2577409.7400000002,"ADDRESS":"建業路２６９巷２０弄１１號","OBJECTID":41690},"geometry":{"x":177951.54000000004,"y":2577409.7400000002}},{"attributes":{"ID":41691,"DIS_CODE":0,"TOWNNAME":"歸仁區","LI":"歸仁里","LIN":"28鄰","STREET":"中山路","SECT":"一段","MAREA":" ","LANE":"２巷","ALLEY":"３弄","HOUSE_NO":"６號","E_COORD97":179637.88,"N_COORD97":2540381.5699999998,"ADDRESS":"中山路一段２巷３弄６號","OBJECTID":41691},"geometry":{"x":179637.88000000175,"y":2540381.5700000003}},{"attributes":{"ID":41692,"DIS_CODE":0,"TOWNNAME":"歸仁區","LI":"大潭里","LIN":"7鄰","STREET":"長榮路","SECT":"一段","MAREA":" ","LANE":"２４５巷","ALLEY":"５弄","HOUSE_NO":"２０號","E_COORD97":175157.92000000001,"N_COORD97":2534608.2799999998,"ADDRESS":"長榮路一段２４５巷５弄２０號","OBJECTID":41692},"geometry":{"x":175157.92000000086,"y":2534608.2799999993}},{"attributes":{"ID":41693,"DIS_CODE":0,"TOWNNAME":"歸仁區","LI":"大潭里","LIN":"7鄰","STREET":"長榮路","SECT":"一段","MAREA":" ","LANE":"２４５巷","ALLEY":"５弄","HOUSE_NO":"２２號","E_COORD97":175147.62,"N_COORD97":2534597.2799999998,"ADDRESS":"長榮路一段２４５巷５弄２２號","OBJECTID":41693},"geometry":{"x":175147.62000000197,"y":2534597.2800000012}},{"attributes":{"ID":41694,"DIS_CODE":0,"TOWNNAME":"歸仁區","LI":"大潭里","LIN":"7鄰","STREET":"中正南路","SECT":"三段","MAREA":" ","LANE":"２８７巷","ALLEY":"２弄","HOUSE_NO":"７號","E_COORD97":175143.51000000001,"N_COORD97":2534627.2799999998,"ADDRESS":"中正南路三段２８７巷２弄７號","OBJECTID":41694},"geometry":{"x":175143.51000000071,"y":2534627.2800000012}},{"attributes":{"ID":41695,"DIS_CODE":0,"TOWNNAME":"歸仁區","LI":"大潭里","LIN":"7鄰","STREET":"中正南路","SECT":"三段","MAREA":" ","LANE":"２８７巷","ALLEY":"２弄","HOUSE_NO":"１號","E_COORD97":175147.70999999999,"N_COORD97":2534640.2799999998,"ADDRESS":"中正南路三段２８７巷２弄１號","OBJECTID":41695},"geometry":{"x":175147.70999999996,"y":2534640.2799999975}},{"attributes":{"ID":41696,"DIS_CODE":0,"TOWNNAME":"歸仁區","LI":"西埔里","LIN":"7鄰","STREET":"保大路","SECT":"二段","MAREA":" ","LANE":"１２２巷","ALLEY":"２０弄","HOUSE_NO":"１５號","E_COORD97":177061.03,"N_COORD97":2544243.25,"ADDRESS":"保大路二段１２２巷２０弄１５號","OBJECTID":41696},"geometry":{"x":177061.03000000119,"y":2544243.2500000019}},{"attributes":{"ID":41697,"DIS_CODE":0,"TOWNNAME":"柳營區","LI":"大農里","LIN":"7鄰","STREET":"義士路","SECT":"一段","MAREA":" ","LANE":"２４７巷","ALLEY":"３８弄","HOUSE_NO":"２號","E_COORD97":186348.48999999999,"N_COORD97":2575733.7000000002,"ADDRESS":"義士路一段２４７巷３８弄２號","OBJECTID":41697},"geometry":{"x":186348.49000000022,"y":2575733.7000000011}},{"attributes":{"ID":41698,"DIS_CODE":0,"TOWNNAME":"柳營區","LI":"大農里","LIN":"7鄰","STREET":"義士路","SECT":"一段","MAREA":" ","LANE":"２４７巷","ALLEY":"３８弄","HOUSE_NO":"６號","E_COORD97":186343.17000000001,"N_COORD97":2575732.79,"ADDRESS":"義士路一段２４７巷３８弄６號","OBJECTID":41698},"geometry":{"x":186343.16999999993,"y":2575732.790000001}},{"attributes":{"ID":41699,"DIS_CODE":0,"TOWNNAME":"柳營區","LI":"大農里","LIN":"7鄰","STREET":"義士路","SECT":"一段","MAREA":" ","LANE":"２４７巷","ALLEY":"７６弄","HOUSE_NO":"２號","E_COORD97":186282.01000000001,"N_COORD97":2575723.4700000002,"ADDRESS":"義士路一段２４７巷７６弄２號","OBJECTID":41699},"geometry":{"x":186282.01000000164,"y":2575723.4700000025}},{"attributes":{"ID":41700,"DIS_CODE":0,"TOWNNAME":"柳營區","LI":"人和里","LIN":"7鄰","STREET":"雙和路","SECT":" ","MAREA":" ","LANE":"１１８巷","ALLEY":"２弄","HOUSE_NO":"２號","E_COORD97":179506.53,"N_COORD97":2576953.9700000002,"ADDRESS":"雙和路１１８巷２弄２號","OBJECTID":41700},"geometry":{"x":179506.53000000026,"y":2576953.9700000025}},{"attributes":{"ID":41701,"DIS_CODE":0,"TOWNNAME":"柳營區","LI":"人和里","LIN":"7鄰","STREET":"雙和路","SECT":" ","MAREA":" ","LANE":"１１８巷","ALLEY":"２弄","HOUSE_NO":"６號","E_COORD97":179517.89000000001,"N_COORD97":2576946.3999999999,"ADDRESS":"雙和路１１８巷２弄６號","OBJECTID":41701},"geometry":{"x":179517.8900000006,"y":2576946.4000000022}},{"attributes":{"ID":41702,"DIS_CODE":0,"TOWNNAME":"歸仁區","LI":"看東里","LIN":"16鄰","STREET":"中山路","SECT":"一段","MAREA":" ","LANE":"１巷","ALLEY":"４６弄","HOUSE_NO":"８號","E_COORD97":179530.73000000001,"N_COORD97":2540210.5699999998,"ADDRESS":"中山路一段１巷４６弄８號","OBJECTID":41702},"geometry":{"x":179530.73000000045,"y":2540210.5700000022}},{"attributes":{"ID":41703,"DIS_CODE":0,"TOWNNAME":"北區","LI":"興南里","LIN":"7鄰","STREET":"公園北路","SECT":" ","MAREA":" ","LANE":"１１６巷","ALLEY":"２弄","HOUSE_NO":"１０號","E_COORD97":169002.39999999999,"N_COORD97":2545067.5899999999,"ADDRESS":"公園北路１１６巷２弄１０號","OBJECTID":41703},"geometry":{"x":169002.40000000037,"y":2545067.5900000036}},{"attributes":{"ID":41704,"DIS_CODE":0,"TOWNNAME":"北區","LI":"興南里","LIN":"7鄰","STREET":"公園北路","SECT":" ","MAREA":" ","LANE":"１１６巷","ALLEY":"２弄","HOUSE_NO":"１２號","E_COORD97":169009.51000000001,"N_COORD97":2545065.98,"ADDRESS":"公園北路１１６巷２弄１２號","OBJECTID":41704},"geometry":{"x":169009.50999999978,"y":2545065.9800000023}},{"attributes":{"ID":41705,"DIS_CODE":0,"TOWNNAME":"北區","LI":"興南里","LIN":"7鄰","STREET":"公園北路","SECT":" ","MAREA":" ","LANE":"１１６巷","ALLEY":"２弄","HOUSE_NO":"１４號","E_COORD97":169016.39000000001,"N_COORD97":2545064.6099999999,"ADDRESS":"公園北路１１６巷２弄１４號","OBJECTID":41705},"geometry":{"x":169016.38999999966,"y":2545064.6100000013}},{"attributes":{"ID":41706,"DIS_CODE":0,"TOWNNAME":"北區","LI":"興南里","LIN":"7鄰","STREET":"公園北路","SECT":" ","MAREA":" ","LANE":"１１６巷","ALLEY":"２弄","HOUSE_NO":"１６號","E_COORD97":169023.26999999999,"N_COORD97":2545062.77,"ADDRESS":"公園北路１１６巷２弄１６號","OBJECTID":41706},"geometry":{"x":169023.27000000048,"y":2545062.7700000033}},{"attributes":{"ID":41707,"DIS_CODE":0,"TOWNNAME":"北區","LI":"興南里","LIN":"7鄰","STREET":"公園北路","SECT":" ","MAREA":" ","LANE":"１１６巷","ALLEY":"２弄","HOUSE_NO":"２號","E_COORD97":168971.42999999999,"N_COORD97":2545074,"ADDRESS":"公園北路１１６巷２弄２號","OBJECTID":41707},"geometry":{"x":168971.43000000063,"y":2545074}},{"attributes":{"ID":41708,"DIS_CODE":0,"TOWNNAME":"北區","LI":"興南里","LIN":"7鄰","STREET":"公園北路","SECT":" ","MAREA":" ","LANE":"１１６巷","ALLEY":"２弄","HOUSE_NO":"４號","E_COORD97":168978.32000000001,"N_COORD97":2545072.8599999999,"ADDRESS":"公園北路１１６巷２弄４號","OBJECTID":41708},"geometry":{"x":168978.32000000123,"y":2545072.8600000013}},{"attributes":{"ID":41709,"DIS_CODE":0,"TOWNNAME":"北區","LI":"興南里","LIN":"7鄰","STREET":"公園北路","SECT":" ","MAREA":" ","LANE":"１１６巷","ALLEY":"２弄","HOUSE_NO":"６號","E_COORD97":168985.89000000001,"N_COORD97":2545071.48,"ADDRESS":"公園北路１１６巷２弄６號","OBJECTID":41709},"geometry":{"x":168985.88999999966,"y":2545071.4800000004}},{"attributes":{"ID":41710,"DIS_CODE":0,"TOWNNAME":"北區","LI":"興南里","LIN":"7鄰","STREET":"公園北路","SECT":" ","MAREA":" ","LANE":"１１６巷","ALLEY":"２弄","HOUSE_NO":"８號","E_COORD97":168992.31,"N_COORD97":2545069.8799999999,"ADDRESS":"公園北路１１６巷２弄８號","OBJECTID":41710},"geometry":{"x":168992.31000000145,"y":2545069.8800000008}},{"attributes":{"ID":41711,"DIS_CODE":0,"TOWNNAME":"北區","LI":"興南里","LIN":"7鄰","STREET":"公園北路","SECT":" ","MAREA":" ","LANE":"１１６巷","ALLEY":"２弄","HOUSE_NO":"１號","E_COORD97":168978.09,"N_COORD97":2545096.1000000001,"ADDRESS":"公園北路１１６巷２弄１號","OBJECTID":41711},"geometry":{"x":168978.08999999985,"y":2545096.1000000015}},{"attributes":{"ID":41712,"DIS_CODE":0,"TOWNNAME":"北區","LI":"興南里","LIN":"7鄰","STREET":"公園北路","SECT":" ","MAREA":" ","LANE":"１１６巷","ALLEY":"２弄","HOUSE_NO":"１號之１","E_COORD97":168975.56,"N_COORD97":2545089.9100000001,"ADDRESS":"公園北路１１６巷２弄１號之１","OBJECTID":41712},"geometry":{"x":168975.56000000052,"y":2545089.910000002}},{"attributes":{"ID":41713,"DIS_CODE":0,"TOWNNAME":"北區","LI":"興南里","LIN":"7鄰","STREET":"公園北路","SECT":" ","MAREA":" ","LANE":"１１６巷","ALLEY":"２弄","HOUSE_NO":"３號","E_COORD97":168987.72,"N_COORD97":2545091.0600000001,"ADDRESS":"公園北路１１６巷２弄３號","OBJECTID":41713},"geometry":{"x":168987.71999999974,"y":2545091.0600000005}},{"attributes":{"ID":41714,"DIS_CODE":0,"TOWNNAME":"北區","LI":"興南里","LIN":"7鄰","STREET":"公園北路","SECT":" ","MAREA":" ","LANE":"１１６巷","ALLEY":"２弄","HOUSE_NO":"３號之１","E_COORD97":168992.76999999999,"N_COORD97":2545090.6000000001,"ADDRESS":"公園北路１１６巷２弄３號之１","OBJECTID":41714},"geometry":{"x":168992.77000000048,"y":2545090.5999999996}},{"attributes":{"ID":41715,"DIS_CODE":0,"TOWNNAME":"北區","LI":"興南里","LIN":"7鄰","STREET":"公園北路","SECT":" ","MAREA":" ","LANE":"１１６巷","ALLEY":"２弄","HOUSE_NO":"５號","E_COORD97":169000.34,"N_COORD97":2545090.3700000001,"ADDRESS":"公園北路１１６巷２弄５號","OBJECTID":41715},"geometry":{"x":169000.33999999985,"y":2545090.370000001}},{"attributes":{"ID":41716,"DIS_CODE":0,"TOWNNAME":"北區","LI":"興南里","LIN":"7鄰","STREET":"公園北路","SECT":" ","MAREA":" ","LANE":"１１６巷","ALLEY":"２弄","HOUSE_NO":"７號","E_COORD97":169008.14000000001,"N_COORD97":2545086.02,"ADDRESS":"公園北路１１６巷２弄７號","OBJECTID":41716},"geometry":{"x":169008.13999999966,"y":2545086.0200000014}},{"attributes":{"ID":41717,"DIS_CODE":0,"TOWNNAME":"北區","LI":"興南里","LIN":"7鄰","STREET":"公園北路","SECT":" ","MAREA":" ","LANE":"１１６巷","ALLEY":"４弄","HOUSE_NO":"１號","E_COORD97":168994.37,"N_COORD97":2545107.1000000001,"ADDRESS":"公園北路１１６巷４弄１號","OBJECTID":41717},"geometry":{"x":168994.37000000104,"y":2545107.0999999996}},{"attributes":{"ID":41718,"DIS_CODE":0,"TOWNNAME":"北區","LI":"興南里","LIN":"7鄰","STREET":"公園北路","SECT":" ","MAREA":" ","LANE":"１１６巷","ALLEY":"４弄","HOUSE_NO":"３號","E_COORD97":169005.60999999999,"N_COORD97":2545106.8700000001,"ADDRESS":"公園北路１１６巷４弄３號","OBJECTID":41718},"geometry":{"x":169005.61000000034,"y":2545106.870000001}},{"attributes":{"ID":41719,"DIS_CODE":0,"TOWNNAME":"歸仁區","LI":"西埔里","LIN":"7鄰","STREET":"保大路","SECT":"二段","MAREA":" ","LANE":"１２２巷","ALLEY":"２０弄","HOUSE_NO":"１３號","E_COORD97":177055.92999999999,"N_COORD97":2544241.25,"ADDRESS":"保大路二段１２２巷２０弄１３號","OBJECTID":41719},"geometry":{"x":177055.93000000063,"y":2544241.25}},{"attributes":{"ID":41720,"DIS_CODE":0,"TOWNNAME":"新化區","LI":"武安里","LIN":"14鄰","STREET":"健康路","SECT":" ","MAREA":" ","LANE":" ","ALLEY":" ","HOUSE_NO":"８０號","E_COORD97":178841.17999999999,"N_COORD97":2548123.2599999998,"ADDRESS":"健康路８０號","OBJECTID":41720},"geometry":{"x":178841.18000000063,"y":2548123.2599999998}},{"attributes":{"ID":41721,"DIS_CODE":0,"TOWNNAME":"新化區","LI":"豐榮里","LIN":"13鄰","STREET":"健康路","SECT":" ","MAREA":" ","LANE":" ","ALLEY":" ","HOUSE_NO":"１０９號","E_COORD97":178793.42999999999,"N_COORD97":2548196.2599999998,"ADDRESS":"健康路１０９號","OBJECTID":41721},"geometry":{"x":178793.43000000063,"y":2548196.2600000016}},{"attributes":{"ID":41722,"DIS_CODE":0,"TOWNNAME":"歸仁區","LI":"西埔里","LIN":"7鄰","STREET":"保大路","SECT":"二段","MAREA":" ","LANE":"１２２巷","ALLEY":"２０弄","HOUSE_NO":"４３號","E_COORD97":177100.73117499999,"N_COORD97":2544268.9610299999,"ADDRESS":"保大路二段１２２巷２０弄４３號","OBJECTID":41722},"geometry":{"x":177100.73117499985,"y":2544268.9610329997}},{"attributes":{"ID":41723,"DIS_CODE":0,"TOWNNAME":"歸仁區","LI":"大潭里","LIN":"7鄰","STREET":"中正南路","SECT":"三段","MAREA":" ","LANE":"２８７巷","ALLEY":"２弄","HOUSE_NO":"９號","E_COORD97":175147.51000000001,"N_COORD97":2534611.2799999998,"ADDRESS":"中正南路三段２８７巷２弄９號","OBJECTID":41723},"geometry":{"x":175147.50999999978,"y":2534611.2800000012}},{"attributes":{"ID":41724,"DIS_CODE":0,"TOWNNAME":"歸仁區","LI":"西埔里","LIN":"7鄰","STREET":"西埔一街","SECT":" ","MAREA":" ","LANE":"６５巷","ALLEY":"２５弄","HOUSE_NO":"３號","E_COORD97":177045.97,"N_COORD97":2544264.25,"ADDRESS":"西埔一街６５巷２５弄３號","OBJECTID":41724},"geometry":{"x":177045.97000000067,"y":2544264.2500000019}},{"attributes":{"ID":41725,"DIS_CODE":0,"TOWNNAME":"關廟區","LI":"北勢里","LIN":"7鄰","STREET":"成功路","SECT":" ","MAREA":" ","LANE":"８６巷","ALLEY":"１７弄","HOUSE_NO":"５號","E_COORD97":181701.67000000001,"N_COORD97":2540479.27,"ADDRESS":"成功路８６巷１７弄５號","OBJECTID":41725},"geometry":{"x":181701.66999999993,"y":2540479.2700000033}},{"attributes":{"ID":41726,"DIS_CODE":0,"TOWNNAME":"關廟區","LI":"東勢里","LIN":"7鄰","STREET":"和平路","SECT":" ","MAREA":" ","LANE":"２２巷","ALLEY":"１６弄","HOUSE_NO":"１號","E_COORD97":181801.04000000001,"N_COORD97":2539368.25,"ADDRESS":"和平路２２巷１６弄１號","OBJECTID":41726},"geometry":{"x":181801.04000000004,"y":2539368.2500000019}},{"attributes":{"ID":41727,"DIS_CODE":0,"TOWNNAME":"關廟區","LI":"關廟里","LIN":"7鄰","STREET":"民生街","SECT":" ","MAREA":" ","LANE":"１６７巷","ALLEY":"１３弄","HOUSE_NO":"３８號","E_COORD97":180802.09,"N_COORD97":2539838.1000000001,"ADDRESS":"民生街１６７巷１３弄３８號","OBJECTID":41727},"geometry":{"x":180802.08999999985,"y":2539838.0999999996}},{"attributes":{"ID":41728,"DIS_CODE":0,"TOWNNAME":"關廟區","LI":"埤頭里","LIN":"7鄰","STREET":"關新路","SECT":"二段","MAREA":" ","LANE":"２３巷","ALLEY":"１弄","HOUSE_NO":"１２號","E_COORD97":178996.47,"N_COORD97":2544080.25,"ADDRESS":"關新路二段２３巷１弄１２號","OBJECTID":41728},"geometry":{"x":178996.47000000067,"y":2544080.2500000037}},{"attributes":{"ID":41729,"DIS_CODE":0,"TOWNNAME":"關廟區","LI":"埤頭里","LIN":"7鄰","STREET":"關新路","SECT":"二段","MAREA":" ","LANE":"２３巷","ALLEY":"１弄","HOUSE_NO":"２６號","E_COORD97":178961.17000000001,"N_COORD97":2544078.25,"ADDRESS":"關新路二段２３巷１弄２６號","OBJECTID":41729},"geometry":{"x":178961.16999999899,"y":2544078.2500000019}},{"attributes":{"ID":41730,"DIS_CODE":0,"TOWNNAME":"關廟區","LI":"北勢里","LIN":"7鄰","STREET":"成功路","SECT":" ","MAREA":" ","LANE":"８６巷","ALLEY":"１７弄","HOUSE_NO":"３號","E_COORD97":181708.17000000001,"N_COORD97":2540478.27,"ADDRESS":"成功路８６巷１７弄３號","OBJECTID":41730},"geometry":{"x":181708.17000000086,"y":2540478.2699999996}},{"attributes":{"ID":41731,"DIS_CODE":0,"TOWNNAME":"北區","LI":"大豐里","LIN":"7鄰","STREET":"文賢路","SECT":" ","MAREA":" ","LANE":"３１３巷","ALLEY":"１１弄","HOUSE_NO":"１０號","E_COORD97":167258.47,"N_COORD97":2545201.8799999999,"ADDRESS":"文賢路３１３巷１１弄１０號","OBJECTID":41731},"geometry":{"x":167258.46999999974,"y":2545201.8800000008}},{"attributes":{"ID":41732,"DIS_CODE":0,"TOWNNAME":"新營區","LI":"新東里","LIN":"7鄰","STREET":"東學路","SECT":" ","MAREA":" ","LANE":"１７６巷","ALLEY":"２弄","HOUSE_NO":"５號","E_COORD97":181183.47,"N_COORD97":2579319.1200000001,"ADDRESS":"東學路１７６巷２弄５號","OBJECTID":41732},"geometry":{"x":181183.47000000067,"y":2579319.1200000029}},{"attributes":{"ID":41733,"DIS_CODE":0,"TOWNNAME":"新營區","LI":"新東里","LIN":"7鄰","STREET":"東學路","SECT":" ","MAREA":" ","LANE":"１７６巷","ALLEY":"４弄","HOUSE_NO":"１３號","E_COORD97":181163.01999999999,"N_COORD97":2579276.0299999998,"ADDRESS":"東學路１７６巷４弄１３號","OBJECTID":41733},"geometry":{"x":181163.02000000048,"y":2579276.0299999993}},{"attributes":{"ID":41734,"DIS_CODE":0,"TOWNNAME":"新營區","LI":"新東里","LIN":"7鄰","STREET":"東學路","SECT":" ","MAREA":" ","LANE":"１７６巷","ALLEY":"４弄","HOUSE_NO":"１０號","E_COORD97":181180.5,"N_COORD97":2579295.8799999999,"ADDRESS":"東學路１７６巷４弄１０號","OBJECTID":41734},"geometry":{"x":181180.50000000093,"y":2579295.879999999}},{"attributes":{"ID":41735,"DIS_CODE":0,"TOWNNAME":"關廟區","LI":"龜洞里","LIN":"7鄰","STREET":"南雄南路","SECT":" ","MAREA":" ","LANE":"７０１巷","ALLEY":"１６弄","HOUSE_NO":"１５號","E_COORD97":183339.94,"N_COORD97":2533386.2999999998,"ADDRESS":"南雄南路７０１巷１６弄１５號","OBJECTID":41735},"geometry":{"x":183339.94000000041,"y":2533386.3000000007}},{"attributes":{"ID":41736,"DIS_CODE":0,"TOWNNAME":"關廟區","LI":"關廟里","LIN":"7鄰","STREET":"民生街","SECT":" ","MAREA":" ","LANE":"１６７巷","ALLEY":"１３弄","HOUSE_NO":"９號","E_COORD97":180818.44,"N_COORD97":2539883.29,"ADDRESS":"民生街１６７巷１３弄９號","OBJECTID":41736},"geometry":{"x":180818.44000000134,"y":2539883.290000001}},{"attributes":{"ID":41737,"DIS_CODE":0,"TOWNNAME":"七股區","LI":"玉成里","LIN":"1鄰","STREET":" ","SECT":" ","MAREA":"玉成","LANE":" ","ALLEY":" ","HOUSE_NO":"５號之４","E_COORD97":161542.04000000001,"N_COORD97":2559898.3999999999,"ADDRESS":"玉成５號之４","OBJECTID":41737},"geometry":{"x":161542.04000000004,"y":2559898.4000000004}},{"attributes":{"ID":41738,"DIS_CODE":0,"TOWNNAME":"關廟區","LI":"關廟里","LIN":"7鄰","STREET":"民生街","SECT":" ","MAREA":" ","LANE":"１６７巷","ALLEY":"１３弄","HOUSE_NO":"７號","E_COORD97":180817.34,"N_COORD97":2539888.29,"ADDRESS":"民生街１６７巷１３弄７號","OBJECTID":41738},"geometry":{"x":180817.33999999985,"y":2539888.2899999972}},{"attributes":{"ID":41739,"DIS_CODE":0,"TOWNNAME":"關廟區","LI":"關廟里","LIN":"7鄰","STREET":"民生街","SECT":" ","MAREA":" ","LANE":"１６７巷","ALLEY":"１３弄","HOUSE_NO":"１號","E_COORD97":180815.34,"N_COORD97":2539901.29,"ADDRESS":"民生街１６７巷１３弄１號","OBJECTID":41739},"geometry":{"x":180815.34000000078,"y":2539901.2899999991}},{"attributes":{"ID":41740,"DIS_CODE":0,"TOWNNAME":"關廟區","LI":"關廟里","LIN":"7鄰","STREET":"民生街","SECT":" ","MAREA":" ","LANE":"１６７巷","ALLEY":"１３弄","HOUSE_NO":"１５號","E_COORD97":180821.59,"N_COORD97":2539869.29,"ADDRESS":"民生街１６７巷１３弄１５號","OBJECTID":41740},"geometry":{"x":180821.59000000078,"y":2539869.290000001}},{"attributes":{"ID":41741,"DIS_CODE":0,"TOWNNAME":"關廟區","LI":"關廟里","LIN":"7鄰","STREET":"民生街","SECT":" ","MAREA":" ","LANE":"１６７巷","ALLEY":"１３弄","HOUSE_NO":"５號","E_COORD97":180815.34,"N_COORD97":2539892.29,"ADDRESS":"民生街１６７巷１３弄５號","OBJECTID":41741},"geometry":{"x":180815.34000000078,"y":2539892.290000001}},{"attributes":{"ID":41742,"DIS_CODE":0,"TOWNNAME":"歸仁區","LI":"後市里","LIN":"44鄰","STREET":"民權北路","SECT":" ","MAREA":" ","LANE":"４８巷","ALLEY":"３弄","HOUSE_NO":"１０號","E_COORD97":177039.17999999999,"N_COORD97":2541044.75,"ADDRESS":"民權北路４８巷３弄１０號","OBJECTID":41742},"geometry":{"x":177039.18000000063,"y":2541044.75}},{"attributes":{"ID":41743,"DIS_CODE":0,"TOWNNAME":"關廟區","LI":"關廟里","LIN":"7鄰","STREET":"民生街","SECT":" ","MAREA":" ","LANE":"１６７巷","ALLEY":"１３弄","HOUSE_NO":"２８號","E_COORD97":180794.79000000001,"N_COORD97":2539858.1000000001,"ADDRESS":"民生街１６７巷１３弄２８號","OBJECTID":41743},"geometry":{"x":180794.7900000019,"y":2539858.0999999996}},{"attributes":{"ID":41744,"DIS_CODE":0,"TOWNNAME":"關廟區","LI":"關廟里","LIN":"7鄰","STREET":"民生街","SECT":" ","MAREA":" ","LANE":"１６７巷","ALLEY":"１３弄","HOUSE_NO":"２６號","E_COORD97":180794.39000000001,"N_COORD97":2539862.1000000001,"ADDRESS":"民生街１６７巷１３弄２６號","OBJECTID":41744},"geometry":{"x":180794.3900000006,"y":2539862.0999999996}},{"attributes":{"ID":41745,"DIS_CODE":0,"TOWNNAME":"關廟區","LI":"關廟里","LIN":"7鄰","STREET":"民生街","SECT":" ","MAREA":" ","LANE":"１６７巷","ALLEY":"１３弄","HOUSE_NO":"２０號","E_COORD97":180794.79000000001,"N_COORD97":2539873.1000000001,"ADDRESS":"民生街１６７巷１３弄２０號","OBJECTID":41745},"geometry":{"x":180794.7900000019,"y":2539873.0999999978}},{"attributes":{"ID":41746,"DIS_CODE":0,"TOWNNAME":"關廟區","LI":"關廟里","LIN":"7鄰","STREET":"民生街","SECT":" ","MAREA":" ","LANE":"１６７巷","ALLEY":"８弄","HOUSE_NO":"１號","E_COORD97":180830.29000000001,"N_COORD97":2539930.2799999998,"ADDRESS":"民生街１６７巷８弄１號","OBJECTID":41746},"geometry":{"x":180830.28999999911,"y":2539930.2800000012}},{"attributes":{"ID":41747,"DIS_CODE":0,"TOWNNAME":"關廟區","LI":"關廟里","LIN":"7鄰","STREET":"民生街","SECT":" ","MAREA":" ","LANE":"１６７巷","ALLEY":"１３弄","HOUSE_NO":"１１號","E_COORD97":180819.69,"N_COORD97":2539879.29,"ADDRESS":"民生街１６７巷１３弄１１號","OBJECTID":41747},"geometry":{"x":180819.69000000227,"y":2539879.290000001}},{"attributes":{"ID":41748,"DIS_CODE":0,"TOWNNAME":"關廟區","LI":"關廟里","LIN":"7鄰","STREET":"民生街","SECT":" ","MAREA":" ","LANE":"１６７巷","ALLEY":"８弄","HOUSE_NO":"３號","E_COORD97":180834.89000000001,"N_COORD97":2539944.29,"ADDRESS":"民生街１６７巷８弄３號","OBJECTID":41748},"geometry":{"x":180834.8900000006,"y":2539944.290000001}},{"attributes":{"ID":41749,"DIS_CODE":0,"TOWNNAME":"關廟區","LI":"關廟里","LIN":"7鄰","STREET":"民生街","SECT":" ","MAREA":" ","LANE":"１６７巷","ALLEY":"１３弄","HOUSE_NO":"１３號","E_COORD97":180820.09,"N_COORD97":2539874.29,"ADDRESS":"民生街１６７巷１３弄１３號","OBJECTID":41749},"geometry":{"x":180820.09000000078,"y":2539874.2899999991}},{"attributes":{"ID":41750,"DIS_CODE":0,"TOWNNAME":"關廟區","LI":"關廟里","LIN":"7鄰","STREET":"民生街","SECT":" ","MAREA":" ","LANE":"１６７巷","ALLEY":"１３弄","HOUSE_NO":"３２號","E_COORD97":180796.69,"N_COORD97":2539849.1000000001,"ADDRESS":"民生街１６７巷１３弄３２號","OBJECTID":41750},"geometry":{"x":180796.69000000041,"y":2539849.0999999996}},{"attributes":{"ID":41751,"DIS_CODE":0,"TOWNNAME":"安平區","LI":"石門里","LIN":"20鄰","STREET":"\u25A0忠街","SECT":" ","MAREA":" ","LANE":" ","ALLEY":" ","HOUSE_NO":"１號之６","E_COORD97":164395.85000000001,"N_COORD97":2544569.7599999998,"ADDRESS":"\u25A0忠街１號之６","OBJECTID":41751},"geometry":{"x":164395.84999999963,"y":2544569.7600000016}},{"attributes":{"ID":41752,"DIS_CODE":0,"TOWNNAME":"西港區","LI":"營西里","LIN":"7鄰","STREET":" ","SECT":" ","MAREA":"後營","LANE":" ","ALLEY":" ","HOUSE_NO":"６５號","E_COORD97":169669.57999999999,"N_COORD97":2560298.9300000002,"ADDRESS":"後營６５號","OBJECTID":41752},"geometry":{"x":169669.58000000101,"y":2560298.9300000016}},{"attributes":{"ID":41753,"DIS_CODE":0,"TOWNNAME":"新化區","LI":"武安里","LIN":"13鄰","STREET":"健康路","SECT":" ","MAREA":" ","LANE":" ","ALLEY":" ","HOUSE_NO":"３號","E_COORD97":178922.03,"N_COORD97":2548008.2599999998,"ADDRESS":"健康路３號","OBJECTID":41753},"geometry":{"x":178922.03000000119,"y":2548008.2599999998}},{"attributes":{"ID":41754,"DIS_CODE":0,"TOWNNAME":"新化區","LI":"武安里","LIN":"14鄰","STREET":"健康路","SECT":" ","MAREA":" ","LANE":" ","ALLEY":" ","HOUSE_NO":"６８號","E_COORD97":178860.57999999999,"N_COORD97":2548104.2599999998,"ADDRESS":"健康路６８號","OBJECTID":41754},"geometry":{"x":178860.58000000101,"y":2548104.2600000035}},{"attributes":{"ID":41755,"DIS_CODE":0,"TOWNNAME":"新化區","LI":"武安里","LIN":"13鄰","STREET":"健康路","SECT":" ","MAREA":" ","LANE":" ","ALLEY":" ","HOUSE_NO":"１２號","E_COORD97":178934.38,"N_COORD97":2548013.2599999998,"ADDRESS":"健康路１２號","OBJECTID":41755},"geometry":{"x":178934.38000000175,"y":2548013.2600000016}},{"attributes":{"ID":41756,"DIS_CODE":0,"TOWNNAME":"新化區","LI":"武安里","LIN":"13鄰","STREET":"健康路","SECT":" ","MAREA":" ","LANE":" ","ALLEY":" ","HOUSE_NO":"３１號","E_COORD97":178883.67999999999,"N_COORD97":2548054.2599999998,"ADDRESS":"健康路３１號","OBJECTID":41756},"geometry":{"x":178883.68000000063,"y":2548054.2600000016}},{"attributes":{"ID":41757,"DIS_CODE":0,"TOWNNAME":"新化區","LI":"武安里","LIN":"13鄰","STREET":"健康路","SECT":" ","MAREA":" ","LANE":" ","ALLEY":" ","HOUSE_NO":"５２號","E_COORD97":178890.48000000001,"N_COORD97":2548067.2599999998,"ADDRESS":"健康路５２號","OBJECTID":41757},"geometry":{"x":178890.48000000138,"y":2548067.2600000016}},{"attributes":{"ID":41758,"DIS_CODE":0,"TOWNNAME":"新化區","LI":"豐榮里","LIN":"13鄰","STREET":"民治路","SECT":" ","MAREA":" ","LANE":" ","ALLEY":" ","HOUSE_NO":"７６號","E_COORD97":178730.16,"N_COORD97":2548073.25,"ADDRESS":"民治路７６號","OBJECTID":41758},"geometry":{"x":178730.16000000108,"y":2548073.25}},{"attributes":{"ID":41759,"DIS_CODE":0,"TOWNNAME":"關廟區","LI":"關廟里","LIN":"7鄰","STREET":"民生街","SECT":" ","MAREA":" ","LANE":"１６７巷","ALLEY":"１３弄","HOUSE_NO":"２２號","E_COORD97":180794.79000000001,"N_COORD97":2539867.1000000001,"ADDRESS":"民生街１６７巷１３弄２２號","OBJECTID":41759},"geometry":{"x":180794.7900000019,"y":2539867.1000000015}},{"attributes":{"ID":41760,"DIS_CODE":0,"TOWNNAME":"關廟區","LI":"關廟里","LIN":"7鄰","STREET":"民生街","SECT":" ","MAREA":" ","LANE":"１６７巷","ALLEY":"１３弄","HOUSE_NO":"１９號","E_COORD97":180811.23000000001,"N_COORD97":2539821.8799999999,"ADDRESS":"民生街１６７巷１３弄１９號","OBJECTID":41760},"geometry":{"x":180811.23000000138,"y":2539821.879999999}},{"attributes":{"ID":41761,"DIS_CODE":0,"TOWNNAME":"關廟區","LI":"關廟里","LIN":"7鄰","STREET":"民生街","SECT":" ","MAREA":" ","LANE":"１６７巷","ALLEY":"１３弄","HOUSE_NO":"３號","E_COORD97":180815.34,"N_COORD97":2539896.29,"ADDRESS":"民生街１６７巷１３弄３號","OBJECTID":41761},"geometry":{"x":180815.34000000078,"y":2539896.290000001}},{"attributes":{"ID":41762,"DIS_CODE":0,"TOWNNAME":"北區","LI":"成功里","LIN":"7鄰","STREET":"北安路","SECT":"一段","MAREA":" ","LANE":"１７６巷","ALLEY":"３９弄","HOUSE_NO":"１０號","E_COORD97":168917.10000000001,"N_COORD97":2546585.0499999998,"ADDRESS":"北安路一段１７６巷３９弄１０號","OBJECTID":41762},"geometry":{"x":168917.09999999963,"y":2546585.0500000026}},{"attributes":{"ID":41763,"DIS_CODE":0,"TOWNNAME":"北區","LI":"成功里","LIN":"7鄰","STREET":"北安路","SECT":"一段","MAREA":" ","LANE":"１７６巷","ALLEY":"３９弄","HOUSE_NO":"１２號","E_COORD97":168913.89000000001,"N_COORD97":2546586.9700000002,"ADDRESS":"北安路一段１７６巷３９弄１２號","OBJECTID":41763},"geometry":{"x":168913.89000000153,"y":2546586.9700000007}},{"attributes":{"ID":41764,"DIS_CODE":0,"TOWNNAME":"北區","LI":"成功里","LIN":"7鄰","STREET":"北安路","SECT":"一段","MAREA":" ","LANE":"１７６巷","ALLEY":"３９弄","HOUSE_NO":"１４號","E_COORD97":168910.04000000001,"N_COORD97":2546589.21,"ADDRESS":"北安路一段１７６巷３９弄１４號","OBJECTID":41764},"geometry":{"x":168910.04000000097,"y":2546589.2100000009}},{"attributes":{"ID":41765,"DIS_CODE":0,"TOWNNAME":"北區","LI":"成功里","LIN":"7鄰","STREET":"北安路","SECT":"一段","MAREA":" ","LANE":"１７６巷","ALLEY":"３９弄","HOUSE_NO":"１６號","E_COORD97":168906.84,"N_COORD97":2546591.1299999999,"ADDRESS":"北安路一段１７６巷３９弄１６號","OBJECTID":41765},"geometry":{"x":168906.83999999985,"y":2546591.129999999}},{"attributes":{"ID":41766,"DIS_CODE":0,"TOWNNAME":"北區","LI":"成功里","LIN":"7鄰","STREET":"北安路","SECT":"一段","MAREA":" ","LANE":"１７６巷","ALLEY":"３９弄","HOUSE_NO":"１８號","E_COORD97":168903.63,"N_COORD97":2546593.0499999998,"ADDRESS":"北安路一段１７６巷３９弄１８號","OBJECTID":41766},"geometry":{"x":168903.62999999989,"y":2546593.0500000007}},{"attributes":{"ID":41767,"DIS_CODE":0,"TOWNNAME":"新化區","LI":"武安里","LIN":"13鄰","STREET":"健康路","SECT":" ","MAREA":" ","LANE":" ","ALLEY":" ","HOUSE_NO":"１７號","E_COORD97":178901.88,"N_COORD97":2548032.2599999998,"ADDRESS":"健康路１７號","OBJECTID":41767},"geometry":{"x":178901.87999999989,"y":2548032.2599999998}},{"attributes":{"ID":41768,"DIS_CODE":0,"TOWNNAME":"新化區","LI":"太平里","LIN":"4鄰","STREET":"民生路","SECT":" ","MAREA":" ","LANE":" ","ALLEY":" ","HOUSE_NO":"２５９號","E_COORD97":179008.51000000001,"N_COORD97":2549051.25,"ADDRESS":"民生路２５９號","OBJECTID":41768},"geometry":{"x":179008.51000000071,"y":2549051.2500000019}},{"attributes":{"ID":41769,"DIS_CODE":0,"TOWNNAME":"西港區","LI":"營西里","LIN":"7鄰","STREET":" ","SECT":" ","MAREA":"後營","LANE":" ","ALLEY":" ","HOUSE_NO":"６６號之１","E_COORD97":169623.14999999999,"N_COORD97":2560282.0099999998,"ADDRESS":"後營６６號之１","OBJECTID":41769},"geometry":{"x":169623.15000000224,"y":2560282.0100000016}},{"attributes":{"ID":41770,"DIS_CODE":0,"TOWNNAME":"西港區","LI":"營西里","LIN":"7鄰","STREET":" ","SECT":" ","MAREA":"後營","LANE":" ","ALLEY":" ","HOUSE_NO":"６６號之２","E_COORD97":169622.92999999999,"N_COORD97":2560286.3599999999,"ADDRESS":"後營６６號之２","OBJECTID":41770},"geometry":{"x":169622.93000000063,"y":2560286.3600000013}},{"attributes":{"ID":41771,"DIS_CODE":0,"TOWNNAME":"北區","LI":"成功里","LIN":"7鄰","STREET":"北安路","SECT":"一段","MAREA":" ","LANE":"１７６巷","ALLEY":"３９弄","HOUSE_NO":"２０號","E_COORD97":168900.42000000001,"N_COORD97":2546594.9700000002,"ADDRESS":"北安路一段１７６巷３９弄２０號","OBJECTID":41771},"geometry":{"x":168900.42000000179,"y":2546594.9700000044}},{"attributes":{"ID":41772,"DIS_CODE":0,"TOWNNAME":"北區","LI":"成功里","LIN":"7鄰","STREET":"北安路","SECT":"一段","MAREA":" ","LANE":"１７６巷","ALLEY":"３９弄","HOUSE_NO":"２２號","E_COORD97":168896.26000000001,"N_COORD97":2546597.2200000002,"ADDRESS":"北安路一段１７６巷３９弄２２號","OBJECTID":41772},"geometry":{"x":168896.26000000164,"y":2546597.2200000025}},{"attributes":{"ID":41773,"DIS_CODE":0,"TOWNNAME":"北區","LI":"成功里","LIN":"7鄰","STREET":"北安路","SECT":"一段","MAREA":" ","LANE":"１７６巷","ALLEY":"３９弄","HOUSE_NO":"２４號","E_COORD97":168892.73000000001,"N_COORD97":2546598.5,"ADDRESS":"北安路一段１７６巷３９弄２４號","OBJECTID":41773},"geometry":{"x":168892.73000000138,"y":2546598.5000000019}},{"attributes":{"ID":41774,"DIS_CODE":0,"TOWNNAME":"北區","LI":"成功里","LIN":"7鄰","STREET":"北安路","SECT":"一段","MAREA":" ","LANE":"１７６巷","ALLEY":"３９弄","HOUSE_NO":"２６號","E_COORD97":168889.20000000001,"N_COORD97":2546600.7400000002,"ADDRESS":"北安路一段１７６巷３９弄２６號","OBJECTID":41774},"geometry":{"x":168889.20000000112,"y":2546600.7400000021}},{"attributes":{"ID":41775,"DIS_CODE":0,"TOWNNAME":"北區","LI":"成功里","LIN":"7鄰","STREET":"北安路","SECT":"一段","MAREA":" ","LANE":"１７６巷","ALLEY":"３９弄","HOUSE_NO":"２８號","E_COORD97":168885.67000000001,"N_COORD97":2546602.6600000001,"ADDRESS":"北安路一段１７６巷３９弄２８號","OBJECTID":41775},"geometry":{"x":168885.67000000086,"y":2546602.6600000001}},{"attributes":{"ID":41776,"DIS_CODE":0,"TOWNNAME":"北區","LI":"成功里","LIN":"7鄰","STREET":"北安路","SECT":"一段","MAREA":" ","LANE":"１７６巷","ALLEY":"３９弄","HOUSE_NO":"２號","E_COORD97":168931.53,"N_COORD97":2546577.6800000002,"ADDRESS":"北安路一段１７６巷３９弄２號","OBJECTID":41776},"geometry":{"x":168931.53000000026,"y":2546577.6799999997}},{"attributes":{"ID":41777,"DIS_CODE":0,"TOWNNAME":"北區","LI":"成功里","LIN":"7鄰","STREET":"北安路","SECT":"一段","MAREA":" ","LANE":"１７６巷","ALLEY":"３９弄","HOUSE_NO":"２號之１","E_COORD97":168927.67999999999,"N_COORD97":2546578.96,"ADDRESS":"北安路一段１７６巷３９弄２號之１","OBJECTID":41777},"geometry":{"x":168927.68000000063,"y":2546578.9600000028}},{"attributes":{"ID":41778,"DIS_CODE":0,"TOWNNAME":"安平區","LI":"漁光里","LIN":"6鄰","STREET":"漁光路","SECT":" ","MAREA":" ","LANE":" ","ALLEY":" ","HOUSE_NO":"７２號之１","E_COORD97":163862.31,"N_COORD97":2542113.0600000001,"ADDRESS":"漁光路７２號之１","OBJECTID":41778},"geometry":{"x":163862.30999999959,"y":2542113.0600000024}},{"attributes":{"ID":41779,"DIS_CODE":0,"TOWNNAME":"中西區","LI":"中正里","LIN":"6鄰","STREET":"正興街","SECT":" ","MAREA":" ","LANE":" ","ALLEY":" ","HOUSE_NO":"１１６號","E_COORD97":167642.94,"N_COORD97":2543883.75,"ADDRESS":"正興街１１６號","OBJECTID":41779},"geometry":{"x":167642.94000000227,"y":2543883.7500000037}},{"attributes":{"ID":41780,"DIS_CODE":0,"TOWNNAME":"安南區","LI":"布袋里","LIN":"6鄰","STREET":"長和路","SECT":"四段","MAREA":" ","LANE":" ","ALLEY":" ","HOUSE_NO":"１１８號","E_COORD97":169049.44,"N_COORD97":2551622.6099999999,"ADDRESS":"長和路四段１１８號","OBJECTID":41780},"geometry":{"x":169049.44000000041,"y":2551622.6099999994}},{"attributes":{"ID":41781,"DIS_CODE":0,"TOWNNAME":"安南區","LI":"布袋里","LIN":"6鄰","STREET":"長和路","SECT":"四段","MAREA":" ","LANE":" ","ALLEY":" ","HOUSE_NO":"１１６號","E_COORD97":169065.95000000001,"N_COORD97":2551618.48,"ADDRESS":"長和路四段１１６號","OBJECTID":41781},"geometry":{"x":169065.95000000019,"y":2551618.4800000004}},{"attributes":{"ID":41782,"DIS_CODE":0,"TOWNNAME":"東區","LI":"裕聖里","LIN":"6鄰","STREET":"裕孝二街","SECT":" ","MAREA":" ","LANE":" ","ALLEY":" ","HOUSE_NO":"１６號","E_COORD97":172468.42999999999,"N_COORD97":2542121.0299999998,"ADDRESS":"裕孝二街１６號","OBJECTID":41782},"geometry":{"x":172468.43000000156,"y":2542121.0299999993}},{"attributes":{"ID":41783,"DIS_CODE":0,"TOWNNAME":"西港區","LI":"營西里","LIN":"7鄰","STREET":" ","SECT":" ","MAREA":"後營","LANE":" ","ALLEY":" ","HOUSE_NO":"６６號之３","E_COORD97":169622.72,"N_COORD97":2560290.7000000002,"ADDRESS":"後營６６號之３","OBJECTID":41783},"geometry":{"x":169622.72000000067,"y":2560290.7000000011}},{"attributes":{"ID":41784,"DIS_CODE":0,"TOWNNAME":"西港區","LI":"營西里","LIN":"7鄰","STREET":" ","SECT":" ","MAREA":"後營","LANE":" ","ALLEY":" ","HOUSE_NO":"６６號之４","E_COORD97":169622.5,"N_COORD97":2560295.0499999998,"ADDRESS":"後營６６號之４","OBJECTID":41784},"geometry":{"x":169622.50000000093,"y":2560295.0500000045}},{"attributes":{"ID":41785,"DIS_CODE":0,"TOWNNAME":"北區","LI":"成功里","LIN":"7鄰","STREET":"北安路","SECT":"一段","MAREA":" ","LANE":"１７６巷","ALLEY":"３９弄","HOUSE_NO":"６號","E_COORD97":168924.79000000001,"N_COORD97":2546581.2000000002,"ADDRESS":"北安路一段１７６巷３９弄６號","OBJECTID":41785},"geometry":{"x":168924.79000000004,"y":2546581.1999999993}},{"attributes":{"ID":41786,"DIS_CODE":0,"TOWNNAME":"北區","LI":"成功里","LIN":"7鄰","STREET":"北安路","SECT":"一段","MAREA":" ","LANE":"１７６巷","ALLEY":"３９弄","HOUSE_NO":"８號","E_COORD97":168920.95000000001,"N_COORD97":2546583.4399999999,"ADDRESS":"北安路一段１７６巷３９弄８號","OBJECTID":41786},"geometry":{"x":168920.95000000112,"y":2546583.4399999995}},{"attributes":{"ID":41787,"DIS_CODE":0,"TOWNNAME":"北區","LI":"成功里","LIN":"7鄰","STREET":"北安路","SECT":"一段","MAREA":" ","LANE":"１７６巷","ALLEY":"５７弄","HOUSE_NO":"１１號","E_COORD97":168925.10999999999,"N_COORD97":2546608.1000000001,"ADDRESS":"北安路一段１７６巷５７弄１１號","OBJECTID":41787},"geometry":{"x":168925.11000000127,"y":2546608.1000000015}},{"attributes":{"ID":41788,"DIS_CODE":0,"TOWNNAME":"北區","LI":"成功里","LIN":"7鄰","STREET":"北安路","SECT":"一段","MAREA":" ","LANE":"１７６巷","ALLEY":"５７弄","HOUSE_NO":"１３號","E_COORD97":168921.91,"N_COORD97":2546610.6699999999,"ADDRESS":"北安路一段１７６巷５７弄１３號","OBJECTID":41788},"geometry":{"x":168921.91000000015,"y":2546610.6700000018}},{"attributes":{"ID":41789,"DIS_CODE":0,"TOWNNAME":"北區","LI":"成功里","LIN":"7鄰","STREET":"北安路","SECT":"一段","MAREA":" ","LANE":"１７６巷","ALLEY":"５７弄","HOUSE_NO":"１５號","E_COORD97":168918.38,"N_COORD97":2546612.27,"ADDRESS":"北安路一段１７６巷５７弄１５號","OBJECTID":41789},"geometry":{"x":168918.37999999989,"y":2546612.2700000033}},{"attributes":{"ID":41790,"DIS_CODE":0,"TOWNNAME":"北區","LI":"成功里","LIN":"7鄰","STREET":"北安路","SECT":"一段","MAREA":" ","LANE":"１７６巷","ALLEY":"５７弄","HOUSE_NO":"１７號","E_COORD97":168915.48999999999,"N_COORD97":2546614.1899999999,"ADDRESS":"北安路一段１７６巷５７弄１７號","OBJECTID":41790},"geometry":{"x":168915.49000000209,"y":2546614.1900000013}},{"attributes":{"ID":41791,"DIS_CODE":0,"TOWNNAME":"北區","LI":"成功里","LIN":"7鄰","STREET":"北安路","SECT":"一段","MAREA":" ","LANE":"１７６巷","ALLEY":"５７弄","HOUSE_NO":"１９號","E_COORD97":168911.32999999999,"N_COORD97":2546616.4300000002,"ADDRESS":"北安路一段１７６巷５７弄１９號","OBJECTID":41791},"geometry":{"x":168911.33000000194,"y":2546616.4299999997}},{"attributes":{"ID":41792,"DIS_CODE":0,"TOWNNAME":"北區","LI":"成功里","LIN":"7鄰","STREET":"北安路","SECT":"一段","MAREA":" ","LANE":"１７６巷","ALLEY":"５７弄","HOUSE_NO":"１號","E_COORD97":168943.07000000001,"N_COORD97":2546598.5,"ADDRESS":"北安路一段１７６巷５７弄１號","OBJECTID":41792},"geometry":{"x":168943.0700000003,"y":2546598.5000000019}},{"attributes":{"ID":41793,"DIS_CODE":0,"TOWNNAME":"北區","LI":"成功里","LIN":"7鄰","STREET":"北安路","SECT":"一段","MAREA":" ","LANE":"１７６巷","ALLEY":"５７弄","HOUSE_NO":"２１號","E_COORD97":168907.79999999999,"N_COORD97":2546617.71,"ADDRESS":"北安路一段１７６巷５７弄２１號","OBJECTID":41793},"geometry":{"x":168907.80000000168,"y":2546617.7100000028}},{"attributes":{"ID":41794,"DIS_CODE":0,"TOWNNAME":"北區","LI":"成功里","LIN":"7鄰","STREET":"北安路","SECT":"一段","MAREA":" ","LANE":"１７６巷","ALLEY":"５７弄","HOUSE_NO":"２３號","E_COORD97":168904.26999999999,"N_COORD97":2546619.3100000001,"ADDRESS":"北安路一段１７６巷５７弄２３號","OBJECTID":41794},"geometry":{"x":168904.27000000142,"y":2546619.3100000005}},{"attributes":{"ID":41795,"DIS_CODE":0,"TOWNNAME":"北區","LI":"成功里","LIN":"7鄰","STREET":"北安路","SECT":"一段","MAREA":" ","LANE":"１７６巷","ALLEY":"５７弄","HOUSE_NO":"２５號","E_COORD97":168901.39000000001,"N_COORD97":2546621.5499999998,"ADDRESS":"北安路一段１７６巷５７弄２５號","OBJECTID":41795},"geometry":{"x":168901.38999999966,"y":2546621.5499999989}},{"attributes":{"ID":41796,"DIS_CODE":0,"TOWNNAME":"北區","LI":"成功里","LIN":"7鄰","STREET":"北安路","SECT":"一段","MAREA":" ","LANE":"１７６巷","ALLEY":"５７弄","HOUSE_NO":"２７號","E_COORD97":168897.85999999999,"N_COORD97":2546623.1600000001,"ADDRESS":"北安路一段１７６巷５７弄２７號","OBJECTID":41796},"geometry":{"x":168897.8600000022,"y":2546623.1600000001}},{"attributes":{"ID":41797,"DIS_CODE":0,"TOWNNAME":"北區","LI":"成功里","LIN":"7鄰","STREET":"北安路","SECT":"一段","MAREA":" ","LANE":"１７６巷","ALLEY":"５７弄","HOUSE_NO":"２９號","E_COORD97":168894.01000000001,"N_COORD97":2546624.7599999998,"ADDRESS":"北安路一段１７６巷５７弄２９號","OBJECTID":41797},"geometry":{"x":168894.00999999978,"y":2546624.7599999998}},{"attributes":{"ID":41798,"DIS_CODE":0,"TOWNNAME":"北區","LI":"成功里","LIN":"7鄰","STREET":"北安路","SECT":"一段","MAREA":" ","LANE":"１７６巷","ALLEY":"５７弄","HOUSE_NO":"３１號","E_COORD97":168890.16,"N_COORD97":2546627.3199999998,"ADDRESS":"北安路一段１７６巷５７弄３１號","OBJECTID":41798},"geometry":{"x":168890.16000000015,"y":2546627.3200000022}},{"attributes":{"ID":41799,"DIS_CODE":0,"TOWNNAME":"北區","LI":"成功里","LIN":"7鄰","STREET":"北安路","SECT":"一段","MAREA":" ","LANE":"１７６巷","ALLEY":"５７弄","HOUSE_NO":"３號","E_COORD97":168939.54000000001,"N_COORD97":2546600.1000000001,"ADDRESS":"北安路一段１７６巷５７弄３號","OBJECTID":41799},"geometry":{"x":168939.54000000004,"y":2546600.1000000034}},{"attributes":{"ID":41800,"DIS_CODE":0,"TOWNNAME":"北區","LI":"成功里","LIN":"7鄰","STREET":"北安路","SECT":"一段","MAREA":" ","LANE":"１７６巷","ALLEY":"５７弄","HOUSE_NO":"５號","E_COORD97":168935.70000000001,"N_COORD97":2546602.3399999999,"ADDRESS":"北安路一段１７６巷５７弄５號","OBJECTID":41800},"geometry":{"x":168935.70000000019,"y":2546602.3400000017}}]}