{"displayFieldName":"TOWNNAME","fieldAliases":{"ID":"ID","DIS_CODE":"DIS_CODE","TOWNNAME":"TOWNNAME","LI":"LI","LIN":"LIN","STREET":"STREET","SECT":"SECT","MAREA":"MAREA","LANE":"LANE","ALLEY":"ALLEY","HOUSE_NO":"HOUSE_NO","E_COORD97":"E_COORD97","N_COORD97":"N_COORD97","ADDRESS":"ADDRESS","OBJECTID":"OBJECTID"},"geometryType":"esriGeometryPoint","spatialReference":{"wkid":102443,"latestWkid":3826},"fields":[{"name":"ID","type":"esriFieldTypeDouble","alias":"ID"},{"name":"DIS_CODE","type":"esriFieldTypeInteger","alias":"DIS_CODE"},{"name":"TOWNNAME","type":"esriFieldTypeString","alias":"TOWNNAME","length":8},{"name":"LI","type":"esriFieldTypeString","alias":"LI","length":8},{"name":"LIN","type":"esriFieldTypeString","alias":"LIN","length":12},{"name":"STREET","type":"esriFieldTypeString","alias":"STREET","length":20},{"name":"SECT","type":"esriFieldTypeString","alias":"SECT","length":8},{"name":"MAREA","type":"esriFieldTypeString","alias":"MAREA","length":12},{"name":"LANE","type":"esriFieldTypeString","alias":"LANE","length":10},{"name":"ALLEY","type":"esriFieldTypeString","alias":"ALLEY","length":10},{"name":"HOUSE_NO","type":"esriFieldTypeString","alias":"HOUSE_NO","length":20},{"name":"E_COORD97","type":"esriFieldTypeDouble","alias":"E_COORD97"},{"name":"N_COORD97","type":"esriFieldTypeDouble","alias":"N_COORD97"},{"name":"ADDRESS","type":"esriFieldTypeString","alias":"ADDRESS","length":50},{"name":"OBJECTID","type":"esriFieldTypeOID","alias":"OBJECTID"}],"features":[{"attributes":{"ID":341410,"DIS_CODE":0,"TOWNNAME":"中西區","LI":"郡王里","LIN":"1鄰","STREET":"健康路","SECT":"一段","MAREA":" ","LANE":"２００巷","ALLEY":" ","HOUSE_NO":"１９號","E_COORD97":168576.92999999999,"N_COORD97":2542527.5299999998,"ADDRESS":"健康路一段２００巷１９號","OBJECTID":341401},"geometry":{"x":168576.93000000063,"y":2542527.5299999993}},{"attributes":{"ID":341411,"DIS_CODE":0,"TOWNNAME":"中西區","LI":"郡王里","LIN":"1鄰","STREET":"健康路","SECT":"一段","MAREA":" ","LANE":"２００巷","ALLEY":" ","HOUSE_NO":"２０號","E_COORD97":168647.48000000001,"N_COORD97":2542519.77,"ADDRESS":"健康路一段２００巷２０號","OBJECTID":341402},"geometry":{"x":168647.48000000045,"y":2542519.7699999977}},{"attributes":{"ID":341412,"DIS_CODE":0,"TOWNNAME":"中西區","LI":"郡王里","LIN":"1鄰","STREET":"健康路","SECT":"一段","MAREA":" ","LANE":"２００巷","ALLEY":" ","HOUSE_NO":"２１號","E_COORD97":168584.67999999999,"N_COORD97":2542527,"ADDRESS":"健康路一段２００巷２１號","OBJECTID":341403},"geometry":{"x":168584.68000000156,"y":2542527.0000000019}},{"attributes":{"ID":341413,"DIS_CODE":0,"TOWNNAME":"中西區","LI":"郡王里","LIN":"1鄰","STREET":"健康路","SECT":"一段","MAREA":" ","LANE":"２００巷","ALLEY":" ","HOUSE_NO":"２２號","E_COORD97":168643.04000000001,"N_COORD97":2542520.7599999998,"ADDRESS":"健康路一段２００巷２２號","OBJECTID":341404},"geometry":{"x":168643.04000000004,"y":2542520.7600000016}},{"attributes":{"ID":341414,"DIS_CODE":0,"TOWNNAME":"中西區","LI":"郡王里","LIN":"1鄰","STREET":"健康路","SECT":"一段","MAREA":" ","LANE":"２００巷","ALLEY":" ","HOUSE_NO":"２３號","E_COORD97":168593.38,"N_COORD97":2542526.5699999998,"ADDRESS":"健康路一段２００巷２３號","OBJECTID":341405},"geometry":{"x":168593.37999999989,"y":2542526.5700000022}},{"attributes":{"ID":341415,"DIS_CODE":0,"TOWNNAME":"中西區","LI":"郡王里","LIN":"1鄰","STREET":"健康路","SECT":"一段","MAREA":" ","LANE":"２００巷","ALLEY":" ","HOUSE_NO":"２４號","E_COORD97":168639.09,"N_COORD97":2542520.52,"ADDRESS":"健康路一段２００巷２４號","OBJECTID":341406},"geometry":{"x":168639.08999999985,"y":2542520.5199999996}},{"attributes":{"ID":341416,"DIS_CODE":0,"TOWNNAME":"中西區","LI":"郡王里","LIN":"1鄰","STREET":"健康路","SECT":"一段","MAREA":" ","LANE":"２００巷","ALLEY":" ","HOUSE_NO":"２５號","E_COORD97":168598.34,"N_COORD97":2542525.8700000001,"ADDRESS":"健康路一段２００巷２５號","OBJECTID":341407},"geometry":{"x":168598.33999999985,"y":2542525.8700000029}},{"attributes":{"ID":341417,"DIS_CODE":0,"TOWNNAME":"中西區","LI":"郡王里","LIN":"1鄰","STREET":"健康路","SECT":"一段","MAREA":" ","LANE":"２００巷","ALLEY":" ","HOUSE_NO":"２６號","E_COORD97":168629.60000000001,"N_COORD97":2542521.3399999999,"ADDRESS":"健康路一段２００巷２６號","OBJECTID":341408},"geometry":{"x":168629.60000000056,"y":2542521.3400000017}},{"attributes":{"ID":341418,"DIS_CODE":0,"TOWNNAME":"中西區","LI":"郡王里","LIN":"1鄰","STREET":"健康路","SECT":"一段","MAREA":" ","LANE":"２００巷","ALLEY":" ","HOUSE_NO":"２７號","E_COORD97":168604.60999999999,"N_COORD97":2542525.1800000002,"ADDRESS":"健康路一段２００巷２７號","OBJECTID":341409},"geometry":{"x":168604.6100000022,"y":2542525.1800000016}},{"attributes":{"ID":341419,"DIS_CODE":0,"TOWNNAME":"中西區","LI":"郡王里","LIN":"1鄰","STREET":"健康路","SECT":"一段","MAREA":" ","LANE":"２００巷","ALLEY":" ","HOUSE_NO":"２９號","E_COORD97":168609.64999999999,"N_COORD97":2542524.8300000001,"ADDRESS":"健康路一段２００巷２９號","OBJECTID":341410},"geometry":{"x":168609.6500000013,"y":2542524.8300000019}},{"attributes":{"ID":341420,"DIS_CODE":0,"TOWNNAME":"中西區","LI":"郡王里","LIN":"1鄰","STREET":"健康路","SECT":"一段","MAREA":" ","LANE":"２００巷","ALLEY":" ","HOUSE_NO":"３０號","E_COORD97":168623.42000000001,"N_COORD97":2542551.1000000001,"ADDRESS":"健康路一段２００巷３０號","OBJECTID":341411},"geometry":{"x":168623.41999999993,"y":2542551.0999999996}},{"attributes":{"ID":341421,"DIS_CODE":0,"TOWNNAME":"中西區","LI":"郡王里","LIN":"1鄰","STREET":"健康路","SECT":"一段","MAREA":" ","LANE":"２００巷","ALLEY":" ","HOUSE_NO":"３１號","E_COORD97":168611.26000000001,"N_COORD97":2542552.0699999998,"ADDRESS":"健康路一段２００巷３１號","OBJECTID":341412},"geometry":{"x":168611.25999999885,"y":2542552.0700000003}},{"attributes":{"ID":341422,"DIS_CODE":0,"TOWNNAME":"中西區","LI":"郡王里","LIN":"1鄰","STREET":"健康路","SECT":"一段","MAREA":" ","LANE":"２００巷","ALLEY":" ","HOUSE_NO":"３３號","E_COORD97":168605.95999999999,"N_COORD97":2542552.7000000002,"ADDRESS":"健康路一段２００巷３３號","OBJECTID":341413},"geometry":{"x":168605.96000000089,"y":2542552.6999999993}},{"attributes":{"ID":341423,"DIS_CODE":0,"TOWNNAME":"中西區","LI":"郡王里","LIN":"1鄰","STREET":"健康路","SECT":"一段","MAREA":" ","LANE":"２００巷","ALLEY":" ","HOUSE_NO":"３５號","E_COORD97":168600.14999999999,"N_COORD97":2542553.0800000001,"ADDRESS":"健康路一段２００巷３５號","OBJECTID":341414},"geometry":{"x":168600.15000000037,"y":2542553.0800000019}},{"attributes":{"ID":341424,"DIS_CODE":0,"TOWNNAME":"中西區","LI":"郡王里","LIN":"1鄰","STREET":"健康路","SECT":"一段","MAREA":" ","LANE":"２００巷","ALLEY":" ","HOUSE_NO":"３７號","E_COORD97":168592.57000000001,"N_COORD97":2542553.96,"ADDRESS":"健康路一段２００巷３７號","OBJECTID":341415},"geometry":{"x":168592.5700000003,"y":2542553.9600000046}},{"attributes":{"ID":341425,"DIS_CODE":0,"TOWNNAME":"中西區","LI":"郡王里","LIN":"1鄰","STREET":"健康路","SECT":"一段","MAREA":" ","LANE":"２００巷","ALLEY":" ","HOUSE_NO":"３９號","E_COORD97":168581.57999999999,"N_COORD97":2542555.3500000001,"ADDRESS":"健康路一段２００巷３９號","OBJECTID":341416},"geometry":{"x":168581.58000000007,"y":2542555.3499999996}},{"attributes":{"ID":341426,"DIS_CODE":0,"TOWNNAME":"中西區","LI":"郡王里","LIN":"1鄰","STREET":"健康路","SECT":"一段","MAREA":" ","LANE":"２００巷","ALLEY":" ","HOUSE_NO":"６號","E_COORD97":168620.06,"N_COORD97":2542512.7799999998,"ADDRESS":"健康路一段２００巷６號","OBJECTID":341417},"geometry":{"x":168620.06000000052,"y":2542512.7799999975}},{"attributes":{"ID":341427,"DIS_CODE":0,"TOWNNAME":"中西區","LI":"郡王里","LIN":"1鄰","STREET":"健康路","SECT":"一段","MAREA":" ","LANE":"２００巷","ALLEY":" ","HOUSE_NO":"７號","E_COORD97":168609.76000000001,"N_COORD97":2542512.5800000001,"ADDRESS":"健康路一段２００巷７號","OBJECTID":341418},"geometry":{"x":168609.76000000164,"y":2542512.5800000019}},{"attributes":{"ID":341428,"DIS_CODE":0,"TOWNNAME":"中西區","LI":"郡王里","LIN":"1鄰","STREET":"健康路","SECT":"一段","MAREA":" ","LANE":"２００巷","ALLEY":" ","HOUSE_NO":"８號","E_COORD97":168627.92000000001,"N_COORD97":2542512.3700000001,"ADDRESS":"健康路一段２００巷８號","OBJECTID":341419},"geometry":{"x":168627.92000000086,"y":2542512.3700000029}},{"attributes":{"ID":341429,"DIS_CODE":0,"TOWNNAME":"中西區","LI":"郡王里","LIN":"1鄰","STREET":"健康路","SECT":"一段","MAREA":" ","LANE":"２００巷","ALLEY":" ","HOUSE_NO":"９號","E_COORD97":168603.87,"N_COORD97":2542513.4199999999,"ADDRESS":"健康路一段２００巷９號","OBJECTID":341420},"geometry":{"x":168603.87000000011,"y":2542513.4200000018}},{"attributes":{"ID":341430,"DIS_CODE":0,"TOWNNAME":"中西區","LI":"大南里","LIN":"1鄰","STREET":"健康路","SECT":"一段","MAREA":" ","LANE":"２９６巷","ALLEY":" ","HOUSE_NO":"１０號","E_COORD97":168318.17000000001,"N_COORD97":2542491.0299999998,"ADDRESS":"健康路一段２９６巷１０號","OBJECTID":341421},"geometry":{"x":168318.16999999993,"y":2542491.0300000031}},{"attributes":{"ID":341431,"DIS_CODE":0,"TOWNNAME":"中西區","LI":"大南里","LIN":"1鄰","STREET":"健康路","SECT":"一段","MAREA":" ","LANE":"２９６巷","ALLEY":" ","HOUSE_NO":"２號","E_COORD97":168316.79000000001,"N_COORD97":2542473.9300000002,"ADDRESS":"健康路一段２９６巷２號","OBJECTID":341422},"geometry":{"x":168316.79000000097,"y":2542473.9299999997}},{"attributes":{"ID":341432,"DIS_CODE":0,"TOWNNAME":"中西區","LI":"大南里","LIN":"1鄰","STREET":"健康路","SECT":"一段","MAREA":" ","LANE":"２９６巷","ALLEY":" ","HOUSE_NO":"４號","E_COORD97":168316.92000000001,"N_COORD97":2542478.0800000001,"ADDRESS":"健康路一段２９６巷４號","OBJECTID":341423},"geometry":{"x":168316.91999999993,"y":2542478.0800000019}},{"attributes":{"ID":341433,"DIS_CODE":0,"TOWNNAME":"將軍區","LI":"廣山里","LIN":"15鄰","STREET":" ","SECT":" ","MAREA":"廣山","LANE":" ","ALLEY":" ","HOUSE_NO":"１４９之１號","E_COORD97":159842.136298,"N_COORD97":2569484.0510399998,"ADDRESS":"廣山１４９之１號","OBJECTID":341424},"geometry":{"x":159842.13629800081,"y":2569484.0510440022}},{"attributes":{"ID":341434,"DIS_CODE":0,"TOWNNAME":"中西區","LI":"大南里","LIN":"1鄰","STREET":"健康路","SECT":"一段","MAREA":" ","LANE":"２９６巷","ALLEY":" ","HOUSE_NO":"６號","E_COORD97":168317.17000000001,"N_COORD97":2542481.8500000001,"ADDRESS":"健康路一段２９６巷６號","OBJECTID":341425},"geometry":{"x":168317.17000000179,"y":2542481.8499999996}},{"attributes":{"ID":341435,"DIS_CODE":0,"TOWNNAME":"中西區","LI":"大南里","LIN":"1鄰","STREET":"健康路","SECT":"一段","MAREA":" ","LANE":"２９６巷","ALLEY":" ","HOUSE_NO":"８號","E_COORD97":168318.29999999999,"N_COORD97":2542485.75,"ADDRESS":"健康路一段２９６巷８號","OBJECTID":341426},"geometry":{"x":168318.30000000075,"y":2542485.75}},{"attributes":{"ID":341436,"DIS_CODE":0,"TOWNNAME":"中西區","LI":"大南里","LIN":"1鄰","STREET":"南門路","SECT":" ","MAREA":" ","LANE":"６８巷","ALLEY":" ","HOUSE_NO":"１１號","E_COORD97":168244.66,"N_COORD97":2542507.71,"ADDRESS":"南門路６８巷１１號","OBJECTID":341427},"geometry":{"x":168244.66000000201,"y":2542507.7100000009}},{"attributes":{"ID":341437,"DIS_CODE":0,"TOWNNAME":"中西區","LI":"大南里","LIN":"1鄰","STREET":"南門路","SECT":" ","MAREA":" ","LANE":"６８巷","ALLEY":" ","HOUSE_NO":"３號","E_COORD97":168306.92000000001,"N_COORD97":2542508.6200000001,"ADDRESS":"南門路６８巷３號","OBJECTID":341428},"geometry":{"x":168306.91999999899,"y":2542508.620000001}},{"attributes":{"ID":341438,"DIS_CODE":0,"TOWNNAME":"中西區","LI":"大南里","LIN":"1鄰","STREET":"南門路","SECT":" ","MAREA":" ","LANE":"６８巷","ALLEY":" ","HOUSE_NO":"５號","E_COORD97":168297.06,"N_COORD97":2542507.5600000001,"ADDRESS":"南門路６８巷５號","OBJECTID":341429},"geometry":{"x":168297.05999999959,"y":2542507.5600000005}},{"attributes":{"ID":341439,"DIS_CODE":0,"TOWNNAME":"中西區","LI":"大南里","LIN":"1鄰","STREET":"南門路","SECT":" ","MAREA":" ","LANE":"６８巷","ALLEY":" ","HOUSE_NO":"７號","E_COORD97":168288.60999999999,"N_COORD97":2542506.8599999999,"ADDRESS":"南門路６８巷７號","OBJECTID":341430},"geometry":{"x":168288.61000000034,"y":2542506.8600000013}},{"attributes":{"ID":341440,"DIS_CODE":0,"TOWNNAME":"中西區","LI":"大南里","LIN":"1鄰","STREET":"南門路","SECT":" ","MAREA":" ","LANE":"６８巷","ALLEY":" ","HOUSE_NO":"７號之１","E_COORD97":168281.91,"N_COORD97":2542507.5600000001,"ADDRESS":"南門路６８巷７號之１","OBJECTID":341431},"geometry":{"x":168281.91000000201,"y":2542507.5600000005}},{"attributes":{"ID":341441,"DIS_CODE":0,"TOWNNAME":"中西區","LI":"大南里","LIN":"1鄰","STREET":"南門路","SECT":" ","MAREA":" ","LANE":"６８巷","ALLEY":" ","HOUSE_NO":"９號","E_COORD97":168273.45999999999,"N_COORD97":2542507.9100000001,"ADDRESS":"南門路６８巷９號","OBJECTID":341432},"geometry":{"x":168273.46000000089,"y":2542507.9100000001}},{"attributes":{"ID":341442,"DIS_CODE":0,"TOWNNAME":"中西區","LI":"大南里","LIN":"1鄰","STREET":"健康路","SECT":"一段","MAREA":" ","LANE":"３１０巷","ALLEY":" ","HOUSE_NO":"５號","E_COORD97":168257.69,"N_COORD97":2542496.1000000001,"ADDRESS":"健康路一段３１０巷５號","OBJECTID":341433},"geometry":{"x":168257.69000000041,"y":2542496.0999999996}},{"attributes":{"ID":341443,"DIS_CODE":0,"TOWNNAME":"中西區","LI":"大南里","LIN":"1鄰","STREET":"健康路","SECT":"一段","MAREA":" ","LANE":"３１０巷","ALLEY":" ","HOUSE_NO":"７號","E_COORD97":168259.10000000001,"N_COORD97":2542501.02,"ADDRESS":"健康路一段３１０巷７號","OBJECTID":341434},"geometry":{"x":168259.09999999963,"y":2542501.0199999996}},{"attributes":{"ID":341444,"DIS_CODE":0,"TOWNNAME":"中西區","LI":"大南里","LIN":"1鄰","STREET":"健康路","SECT":"一段","MAREA":" ","LANE":"３１０巷","ALLEY":" ","HOUSE_NO":"９號","E_COORD97":168255.54999999999,"N_COORD97":2542508.6099999999,"ADDRESS":"健康路一段３１０巷９號","OBJECTID":341435},"geometry":{"x":168255.55000000075,"y":2542508.6100000013}},{"attributes":{"ID":341445,"DIS_CODE":0,"TOWNNAME":"安南區","LI":"溪心里","LIN":"1鄰","STREET":"安中路","SECT":"三段","MAREA":" ","LANE":"１９巷","ALLEY":" ","HOUSE_NO":"１０號","E_COORD97":166300.34,"N_COORD97":2549724.2599999998,"ADDRESS":"安中路三段１９巷１０號","OBJECTID":341436},"geometry":{"x":166300.34000000171,"y":2549724.2599999998}},{"attributes":{"ID":341446,"DIS_CODE":0,"TOWNNAME":"安南區","LI":"溪心里","LIN":"1鄰","STREET":"安中路","SECT":"三段","MAREA":" ","LANE":"１９巷","ALLEY":" ","HOUSE_NO":"１４號","E_COORD97":166288.70999999999,"N_COORD97":2549704.6600000001,"ADDRESS":"安中路三段１９巷１４號","OBJECTID":341437},"geometry":{"x":166288.70999999996,"y":2549704.6600000001}},{"attributes":{"ID":341447,"DIS_CODE":0,"TOWNNAME":"安南區","LI":"溪心里","LIN":"1鄰","STREET":"安中路","SECT":"三段","MAREA":" ","LANE":"１９巷","ALLEY":" ","HOUSE_NO":"１８號","E_COORD97":166275.42999999999,"N_COORD97":2549693.9500000002,"ADDRESS":"安中路三段１９巷１８號","OBJECTID":341438},"geometry":{"x":166275.4299999997,"y":2549693.9500000011}},{"attributes":{"ID":341448,"DIS_CODE":0,"TOWNNAME":"安南區","LI":"溪心里","LIN":"1鄰","STREET":"安中路","SECT":"三段","MAREA":" ","LANE":"１巷","ALLEY":" ","HOUSE_NO":"１０號","E_COORD97":166304.10999999999,"N_COORD97":2549695.1499999999,"ADDRESS":"安中路三段１巷１０號","OBJECTID":341439},"geometry":{"x":166304.1100000022,"y":2549695.1500000004}},{"attributes":{"ID":341449,"DIS_CODE":0,"TOWNNAME":"安南區","LI":"溪心里","LIN":"1鄰","STREET":"安中路","SECT":"三段","MAREA":" ","LANE":"１巷","ALLEY":" ","HOUSE_NO":"８號","E_COORD97":166310.91,"N_COORD97":2549705.1099999999,"ADDRESS":"安中路三段１巷８號","OBJECTID":341440},"geometry":{"x":166310.91000000108,"y":2549705.1100000031}},{"attributes":{"ID":341450,"DIS_CODE":0,"TOWNNAME":"安南區","LI":"溪心里","LIN":"1鄰","STREET":"海佃路","SECT":"二段","MAREA":" ","LANE":"７０５巷","ALLEY":" ","HOUSE_NO":"１０號","E_COORD97":166385.39000000001,"N_COORD97":2549653.1200000001,"ADDRESS":"海佃路二段７０５巷１０號","OBJECTID":341441},"geometry":{"x":166385.3900000006,"y":2549653.1200000029}},{"attributes":{"ID":341451,"DIS_CODE":0,"TOWNNAME":"安南區","LI":"溪心里","LIN":"1鄰","STREET":"海佃路","SECT":"二段","MAREA":" ","LANE":"７０５巷","ALLEY":" ","HOUSE_NO":"１６號","E_COORD97":166367.10999999999,"N_COORD97":2549658.3399999999,"ADDRESS":"海佃路二段７０５巷１６號","OBJECTID":341442},"geometry":{"x":166367.11000000127,"y":2549658.3399999999}},{"attributes":{"ID":341452,"DIS_CODE":0,"TOWNNAME":"安南區","LI":"溪心里","LIN":"1鄰","STREET":"海佃路","SECT":"二段","MAREA":" ","LANE":"７２５巷","ALLEY":" ","HOUSE_NO":"１４號","E_COORD97":166345.76999999999,"N_COORD97":2549692.5899999999,"ADDRESS":"海佃路二段７２５巷１４號","OBJECTID":341443},"geometry":{"x":166345.76999999955,"y":2549692.5900000017}},{"attributes":{"ID":341453,"DIS_CODE":0,"TOWNNAME":"安南區","LI":"溪心里","LIN":"1鄰","STREET":"海佃路","SECT":"二段","MAREA":" ","LANE":"７２５巷","ALLEY":" ","HOUSE_NO":"２０號","E_COORD97":166331.28,"N_COORD97":2549685.9500000002,"ADDRESS":"海佃路二段７２５巷２０號","OBJECTID":341444},"geometry":{"x":166331.28000000026,"y":2549685.950000003}},{"attributes":{"ID":341454,"DIS_CODE":0,"TOWNNAME":"安南區","LI":"溪心里","LIN":"1鄰","STREET":"海佃路","SECT":"二段","MAREA":" ","LANE":"７２５巷","ALLEY":" ","HOUSE_NO":"２４號","E_COORD97":166330.13,"N_COORD97":2549670.73,"ADDRESS":"海佃路二段７２５巷２４號","OBJECTID":341445},"geometry":{"x":166330.12999999989,"y":2549670.7300000004}},{"attributes":{"ID":341455,"DIS_CODE":0,"TOWNNAME":"安南區","LI":"溪心里","LIN":"1鄰","STREET":"海佃路","SECT":"二段","MAREA":" ","LANE":"７２５巷","ALLEY":" ","HOUSE_NO":"２５號","E_COORD97":166343.56,"N_COORD97":2549651.2599999998,"ADDRESS":"海佃路二段７２５巷２５號","OBJECTID":341446},"geometry":{"x":166343.55999999959,"y":2549651.2600000016}},{"attributes":{"ID":341456,"DIS_CODE":0,"TOWNNAME":"安南區","LI":"溪心里","LIN":"1鄰","STREET":"海佃路","SECT":"二段","MAREA":" ","LANE":"７２５巷","ALLEY":" ","HOUSE_NO":"３２號","E_COORD97":166316.67999999999,"N_COORD97":2549656.0499999998,"ADDRESS":"海佃路二段７２５巷３２號","OBJECTID":341447},"geometry":{"x":166316.68000000156,"y":2549656.0500000045}},{"attributes":{"ID":341457,"DIS_CODE":0,"TOWNNAME":"安南區","LI":"溪心里","LIN":"1鄰","STREET":"海佃路","SECT":"二段","MAREA":" ","LANE":"７２５巷","ALLEY":" ","HOUSE_NO":"３４號","E_COORD97":166311.85999999999,"N_COORD97":2549653.5699999998,"ADDRESS":"海佃路二段７２５巷３４號","OBJECTID":341448},"geometry":{"x":166311.86000000034,"y":2549653.5700000022}},{"attributes":{"ID":341458,"DIS_CODE":0,"TOWNNAME":"鹽水區","LI":"岸內里","LIN":"5鄰","STREET":" ","SECT":" ","MAREA":"岸內","LANE":" ","ALLEY":" ","HOUSE_NO":"６１號","E_COORD97":174830.35000000001,"N_COORD97":2581300.9199999999,"ADDRESS":"岸內６１號","OBJECTID":341449},"geometry":{"x":174830.35000000149,"y":2581300.9199999999}},{"attributes":{"ID":341459,"DIS_CODE":0,"TOWNNAME":"安南區","LI":"溪心里","LIN":"1鄰","STREET":"海佃路","SECT":"二段","MAREA":" ","LANE":"７２５巷","ALLEY":" ","HOUSE_NO":"３８號","E_COORD97":166305.51000000001,"N_COORD97":2549646.96,"ADDRESS":"海佃路二段７２５巷３８號","OBJECTID":341450},"geometry":{"x":166305.50999999978,"y":2549646.9600000046}},{"attributes":{"ID":341460,"DIS_CODE":0,"TOWNNAME":"安南區","LI":"溪心里","LIN":"1鄰","STREET":"海佃路","SECT":"二段","MAREA":" ","LANE":"７２５巷","ALLEY":" ","HOUSE_NO":"４６號","E_COORD97":166282.81,"N_COORD97":2549641.71,"ADDRESS":"海佃路二段７２５巷４６號","OBJECTID":341451},"geometry":{"x":166282.80999999959,"y":2549641.7100000046}},{"attributes":{"ID":341461,"DIS_CODE":0,"TOWNNAME":"安南區","LI":"溪心里","LIN":"1鄰","STREET":"海佃路","SECT":"二段","MAREA":" ","LANE":"７２５巷","ALLEY":" ","HOUSE_NO":"８號","E_COORD97":166351.81,"N_COORD97":2549703.8999999999,"ADDRESS":"海佃路二段７２５巷８號","OBJECTID":341452},"geometry":{"x":166351.81000000052,"y":2549703.9000000004}},{"attributes":{"ID":341462,"DIS_CODE":0,"TOWNNAME":"安南區","LI":"溪心里","LIN":"1鄰","STREET":"海環街","SECT":" ","MAREA":" ","LANE":"７１５巷","ALLEY":" ","HOUSE_NO":"１１４號","E_COORD97":166357.97,"N_COORD97":2549557.02,"ADDRESS":"海環街７１５巷１１４號","OBJECTID":341453},"geometry":{"x":166357.96999999974,"y":2549557.0200000014}},{"attributes":{"ID":341463,"DIS_CODE":0,"TOWNNAME":"安南區","LI":"溪心里","LIN":"1鄰","STREET":"海環街","SECT":" ","MAREA":" ","LANE":"７１５巷","ALLEY":" ","HOUSE_NO":"１２０號","E_COORD97":166343.48000000001,"N_COORD97":2549570.8500000001,"ADDRESS":"海環街７１５巷１２０號","OBJECTID":341454},"geometry":{"x":166343.48000000045,"y":2549570.8499999996}},{"attributes":{"ID":341464,"DIS_CODE":0,"TOWNNAME":"安南區","LI":"溪心里","LIN":"1鄰","STREET":"海環街","SECT":" ","MAREA":" ","LANE":"７１５巷","ALLEY":" ","HOUSE_NO":"１３２號","E_COORD97":166308.45999999999,"N_COORD97":2549586.27,"ADDRESS":"海環街７１５巷１３２號","OBJECTID":341455},"geometry":{"x":166308.46000000089,"y":2549586.2700000014}},{"attributes":{"ID":341465,"DIS_CODE":0,"TOWNNAME":"安南區","LI":"佃東里","LIN":"1鄰","STREET":"海佃路","SECT":"四段","MAREA":" ","LANE":"３５０巷","ALLEY":" ","HOUSE_NO":"１８號","E_COORD97":165660.57999999999,"N_COORD97":2551414.2999999998,"ADDRESS":"海佃路四段３５０巷１８號","OBJECTID":341456},"geometry":{"x":165660.58000000101,"y":2551414.3000000026}},{"attributes":{"ID":341466,"DIS_CODE":0,"TOWNNAME":"安南區","LI":"佃東里","LIN":"1鄰","STREET":"海佃路","SECT":"四段","MAREA":" ","LANE":"３５０巷","ALLEY":" ","HOUSE_NO":"２２號","E_COORD97":165690.57999999999,"N_COORD97":2551424.0699999998,"ADDRESS":"海佃路四段３５０巷２２號","OBJECTID":341457},"geometry":{"x":165690.58000000101,"y":2551424.0700000003}},{"attributes":{"ID":341467,"DIS_CODE":0,"TOWNNAME":"安南區","LI":"\u25A0南里","LIN":"1鄰","STREET":"環福街","SECT":" ","MAREA":" ","LANE":"１８巷","ALLEY":" ","HOUSE_NO":"１６號","E_COORD97":170146.32999999999,"N_COORD97":2552410.0800000001,"ADDRESS":"環福街１８巷１６號","OBJECTID":341458},"geometry":{"x":170146.33000000007,"y":2552410.0800000001}},{"attributes":{"ID":341468,"DIS_CODE":0,"TOWNNAME":"安南區","LI":"\u25A0南里","LIN":"1鄰","STREET":"環福街","SECT":" ","MAREA":" ","LANE":"１８巷","ALLEY":" ","HOUSE_NO":"３號","E_COORD97":170167.62,"N_COORD97":2552435.9900000002,"ADDRESS":"環福街１８巷３號","OBJECTID":341459},"geometry":{"x":170167.62000000104,"y":2552435.9900000039}},{"attributes":{"ID":341469,"DIS_CODE":0,"TOWNNAME":"安南區","LI":"\u25A0南里","LIN":"1鄰","STREET":"環福街","SECT":" ","MAREA":" ","LANE":"１８巷","ALLEY":" ","HOUSE_NO":"６號","E_COORD97":170148.29000000001,"N_COORD97":2552438.6800000002,"ADDRESS":"環福街１８巷６號","OBJECTID":341460},"geometry":{"x":170148.29000000004,"y":2552438.6800000016}},{"attributes":{"ID":341470,"DIS_CODE":0,"TOWNNAME":"安南區","LI":"\u25A0南里","LIN":"1鄰","STREET":"環福街","SECT":" ","MAREA":" ","LANE":"５０巷","ALLEY":" ","HOUSE_NO":"２號","E_COORD97":170226.12,"N_COORD97":2552438.9199999999,"ADDRESS":"環福街５０巷２號","OBJECTID":341461},"geometry":{"x":170226.12000000011,"y":2552438.9199999999}},{"attributes":{"ID":341471,"DIS_CODE":0,"TOWNNAME":"安南區","LI":"\u25A0南里","LIN":"1鄰","STREET":"環福街","SECT":" ","MAREA":" ","LANE":"５０巷","ALLEY":" ","HOUSE_NO":"３號","E_COORD97":170252.45999999999,"N_COORD97":2552434.4199999999,"ADDRESS":"環福街５０巷３號","OBJECTID":341462},"geometry":{"x":170252.45999999996,"y":2552434.4200000018}},{"attributes":{"ID":341472,"DIS_CODE":0,"TOWNNAME":"下營區","LI":"西連里","LIN":"5鄰","STREET":" ","SECT":" ","MAREA":"西寮","LANE":" ","ALLEY":" ","HOUSE_NO":"１２號","E_COORD97":174498.95000000001,"N_COORD97":2567543.3500000001,"ADDRESS":"西寮１２號","OBJECTID":341463},"geometry":{"x":174498.95000000019,"y":2567543.3499999996}},{"attributes":{"ID":341473,"DIS_CODE":0,"TOWNNAME":"南區","LI":"國宅里","LIN":"1鄰","STREET":"金華路","SECT":"二段","MAREA":" ","LANE":"３巷","ALLEY":" ","HOUSE_NO":"１號","E_COORD97":166972.26999999999,"N_COORD97":2541800.4199999999,"ADDRESS":"金華路二段３巷１號","OBJECTID":341464},"geometry":{"x":166972.27000000048,"y":2541800.4199999981}},{"attributes":{"ID":341474,"DIS_CODE":0,"TOWNNAME":"南區","LI":"國宅里","LIN":"1鄰","STREET":"金華路","SECT":"二段","MAREA":" ","LANE":"３巷","ALLEY":" ","HOUSE_NO":"３號","E_COORD97":166962.26999999999,"N_COORD97":2541801.8700000001,"ADDRESS":"金華路二段３巷３號","OBJECTID":341465},"geometry":{"x":166962.27000000048,"y":2541801.8699999992}},{"attributes":{"ID":341475,"DIS_CODE":0,"TOWNNAME":"南區","LI":"國宅里","LIN":"1鄰","STREET":"金華路","SECT":"二段","MAREA":" ","LANE":"３巷","ALLEY":" ","HOUSE_NO":"７號","E_COORD97":166942.26000000001,"N_COORD97":2541802.9100000001,"ADDRESS":"金華路二段３巷７號","OBJECTID":341466},"geometry":{"x":166942.26000000071,"y":2541802.9100000001}},{"attributes":{"ID":341476,"DIS_CODE":0,"TOWNNAME":"南區","LI":"喜北里","LIN":"1鄰","STREET":"喜樹路","SECT":" ","MAREA":" ","LANE":"２４巷","ALLEY":" ","HOUSE_NO":"３號","E_COORD97":165846.04000000001,"N_COORD97":2538618.1200000001,"ADDRESS":"喜樹路２４巷３號","OBJECTID":341467},"geometry":{"x":165846.04000000004,"y":2538618.1200000029}},{"attributes":{"ID":341477,"DIS_CODE":0,"TOWNNAME":"南區","LI":"喜北里","LIN":"1鄰","STREET":"喜樹路","SECT":" ","MAREA":" ","LANE":"２４巷","ALLEY":" ","HOUSE_NO":"５號","E_COORD97":165840.84,"N_COORD97":2538618.1800000002,"ADDRESS":"喜樹路２４巷５號","OBJECTID":341468},"geometry":{"x":165840.83999999892,"y":2538618.1799999978}},{"attributes":{"ID":341478,"DIS_CODE":0,"TOWNNAME":"南區","LI":"喜北里","LIN":"1鄰","STREET":"喜樹路","SECT":" ","MAREA":" ","LANE":"２４巷","ALLEY":" ","HOUSE_NO":"７號","E_COORD97":165835.79000000001,"N_COORD97":2538618.3700000001,"ADDRESS":"喜樹路２４巷７號","OBJECTID":341469},"geometry":{"x":165835.79000000004,"y":2538618.3699999992}},{"attributes":{"ID":341479,"DIS_CODE":0,"TOWNNAME":"南區","LI":"大成里","LIN":"5鄰","STREET":"健康路","SECT":"一段","MAREA":" ","LANE":"３３３巷","ALLEY":" ","HOUSE_NO":"７號四樓","E_COORD97":168061.57000000001,"N_COORD97":2542305.5600000001,"ADDRESS":"健康路一段３３３巷７號四樓","OBJECTID":341470},"geometry":{"x":168061.5700000003,"y":2542305.5600000042}},{"attributes":{"ID":341480,"DIS_CODE":0,"TOWNNAME":"南區","LI":"大成里","LIN":"5鄰","STREET":"健康路","SECT":"一段","MAREA":" ","LANE":"３３３巷","ALLEY":" ","HOUSE_NO":"９號二樓","E_COORD97":168062.01999999999,"N_COORD97":2542316.3799999999,"ADDRESS":"健康路一段３３３巷９號二樓","OBJECTID":341471},"geometry":{"x":168062.02000000048,"y":2542316.3800000008}},{"attributes":{"ID":341481,"DIS_CODE":0,"TOWNNAME":"南區","LI":"大成里","LIN":"5鄰","STREET":"健康路","SECT":"一段","MAREA":" ","LANE":"３３３巷","ALLEY":" ","HOUSE_NO":"９號三樓","E_COORD97":168062.01999999999,"N_COORD97":2542316.3799999999,"ADDRESS":"健康路一段３３３巷９號三樓","OBJECTID":341472},"geometry":{"x":168062.02000000048,"y":2542316.3800000008}},{"attributes":{"ID":341482,"DIS_CODE":0,"TOWNNAME":"南區","LI":"大成里","LIN":"5鄰","STREET":"健康路","SECT":"一段","MAREA":" ","LANE":"３３３巷","ALLEY":" ","HOUSE_NO":"９號五樓","E_COORD97":168062.01999999999,"N_COORD97":2542316.3799999999,"ADDRESS":"健康路一段３３３巷９號五樓","OBJECTID":341473},"geometry":{"x":168062.02000000048,"y":2542316.3800000008}},{"attributes":{"ID":341483,"DIS_CODE":0,"TOWNNAME":"南區","LI":"大成里","LIN":"5鄰","STREET":"健康路","SECT":"一段","MAREA":" ","LANE":"３３３巷","ALLEY":" ","HOUSE_NO":"９號四樓","E_COORD97":168062.01999999999,"N_COORD97":2542316.3799999999,"ADDRESS":"健康路一段３３３巷９號四樓","OBJECTID":341474},"geometry":{"x":168062.02000000048,"y":2542316.3800000008}},{"attributes":{"ID":341484,"DIS_CODE":0,"TOWNNAME":"新營區","LI":"民權里","LIN":"5鄰","STREET":"信義街","SECT":" ","MAREA":" ","LANE":"７２巷","ALLEY":" ","HOUSE_NO":"１０號十樓之１","E_COORD97":180002.19,"N_COORD97":2578521.8399999999,"ADDRESS":"信義街７２巷１０號十樓之１","OBJECTID":341475},"geometry":{"x":180002.19000000041,"y":2578521.8399999999}},{"attributes":{"ID":341485,"DIS_CODE":0,"TOWNNAME":"新營區","LI":"民權里","LIN":"5鄰","STREET":"信義街","SECT":" ","MAREA":" ","LANE":"７２巷","ALLEY":" ","HOUSE_NO":"１０號八樓之２","E_COORD97":180002.32000000001,"N_COORD97":2578521.8399999999,"ADDRESS":"信義街７２巷１０號八樓之２","OBJECTID":341476},"geometry":{"x":180002.32000000123,"y":2578521.8399999999}},{"attributes":{"ID":341486,"DIS_CODE":0,"TOWNNAME":"新營區","LI":"民權里","LIN":"5鄰","STREET":"信義街","SECT":" ","MAREA":" ","LANE":"７２巷","ALLEY":" ","HOUSE_NO":"１０號七樓之５","E_COORD97":180002.34,"N_COORD97":2578521.8399999999,"ADDRESS":"信義街７２巷１０號七樓之５","OBJECTID":341477},"geometry":{"x":180002.33999999985,"y":2578521.8399999999}},{"attributes":{"ID":341487,"DIS_CODE":0,"TOWNNAME":"南區","LI":"喜北里","LIN":"1鄰","STREET":"喜樹路","SECT":" ","MAREA":" ","LANE":"２４巷","ALLEY":" ","HOUSE_NO":"９號","E_COORD97":165830.35000000001,"N_COORD97":2538618.3700000001,"ADDRESS":"喜樹路２４巷９號","OBJECTID":341478},"geometry":{"x":165830.34999999963,"y":2538618.3699999992}},{"attributes":{"ID":341488,"DIS_CODE":0,"TOWNNAME":"南區","LI":"喜北里","LIN":"1鄰","STREET":"喜樹路","SECT":" ","MAREA":" ","LANE":"２４巷","ALLEY":" ","HOUSE_NO":"１１號","E_COORD97":165824.73000000001,"N_COORD97":2538618.4300000002,"ADDRESS":"喜樹路２４巷１１號","OBJECTID":341479},"geometry":{"x":165824.73000000045,"y":2538618.4300000016}},{"attributes":{"ID":341489,"DIS_CODE":0,"TOWNNAME":"南區","LI":"喜北里","LIN":"1鄰","STREET":"喜樹路","SECT":" ","MAREA":" ","LANE":"２４巷","ALLEY":" ","HOUSE_NO":"１３號","E_COORD97":165819.79999999999,"N_COORD97":2538618.5,"ADDRESS":"喜樹路２４巷１３號","OBJECTID":341480},"geometry":{"x":165819.80000000075,"y":2538618.5}},{"attributes":{"ID":341490,"DIS_CODE":0,"TOWNNAME":"南區","LI":"喜北里","LIN":"1鄰","STREET":"喜樹路","SECT":" ","MAREA":" ","LANE":"２４巷","ALLEY":" ","HOUSE_NO":"１７號","E_COORD97":165808.81,"N_COORD97":2538618.9399999999,"ADDRESS":"喜樹路２４巷１７號","OBJECTID":341481},"geometry":{"x":165808.81000000145,"y":2538618.9399999995}},{"attributes":{"ID":341491,"DIS_CODE":0,"TOWNNAME":"南區","LI":"喜北里","LIN":"1鄰","STREET":"喜樹路","SECT":" ","MAREA":" ","LANE":"２４巷","ALLEY":" ","HOUSE_NO":"１９號","E_COORD97":165803.57000000001,"N_COORD97":2538618.6200000001,"ADDRESS":"喜樹路２４巷１９號","OBJECTID":341482},"geometry":{"x":165803.5700000003,"y":2538618.620000001}},{"attributes":{"ID":341492,"DIS_CODE":0,"TOWNNAME":"南區","LI":"喜北里","LIN":"1鄰","STREET":"喜樹路","SECT":" ","MAREA":" ","LANE":"２４巷","ALLEY":" ","HOUSE_NO":"２１號","E_COORD97":165798.32000000001,"N_COORD97":2538619,"ADDRESS":"喜樹路２４巷２１號","OBJECTID":341483},"geometry":{"x":165798.32000000123,"y":2538619}},{"attributes":{"ID":341493,"DIS_CODE":0,"TOWNNAME":"南區","LI":"喜北里","LIN":"1鄰","STREET":"喜樹路","SECT":" ","MAREA":" ","LANE":"２４巷","ALLEY":" ","HOUSE_NO":"２３號","E_COORD97":165792.57000000001,"N_COORD97":2538618.8100000001,"ADDRESS":"喜樹路２４巷２３號","OBJECTID":341484},"geometry":{"x":165792.57000000123,"y":2538618.8100000024}},{"attributes":{"ID":341494,"DIS_CODE":0,"TOWNNAME":"南區","LI":"喜北里","LIN":"1鄰","STREET":"喜樹路","SECT":" ","MAREA":" ","LANE":"２４巷","ALLEY":" ","HOUSE_NO":"２５號","E_COORD97":165779.17999999999,"N_COORD97":2538617.73,"ADDRESS":"喜樹路２４巷２５號","OBJECTID":341485},"geometry":{"x":165779.18000000156,"y":2538617.7300000004}},{"attributes":{"ID":341495,"DIS_CODE":0,"TOWNNAME":"南區","LI":"喜北里","LIN":"1鄰","STREET":"喜樹路","SECT":" ","MAREA":" ","LANE":"２４巷","ALLEY":" ","HOUSE_NO":"２７號","E_COORD97":165773.17000000001,"N_COORD97":2538617.6699999999,"ADDRESS":"喜樹路２４巷２７號","OBJECTID":341486},"geometry":{"x":165773.17000000086,"y":2538617.6699999999}},{"attributes":{"ID":341496,"DIS_CODE":0,"TOWNNAME":"南區","LI":"喜北里","LIN":"1鄰","STREET":"喜樹路","SECT":" ","MAREA":" ","LANE":"２４巷","ALLEY":" ","HOUSE_NO":"２９號","E_COORD97":165767.67999999999,"N_COORD97":2538617.9900000002,"ADDRESS":"喜樹路２４巷２９號","OBJECTID":341487},"geometry":{"x":165767.68000000063,"y":2538617.9900000021}},{"attributes":{"ID":341497,"DIS_CODE":0,"TOWNNAME":"南區","LI":"喜北里","LIN":"1鄰","STREET":"喜樹路","SECT":" ","MAREA":" ","LANE":"２４巷","ALLEY":" ","HOUSE_NO":"３１號","E_COORD97":165762.31,"N_COORD97":2538617.9900000002,"ADDRESS":"喜樹路２４巷３１號","OBJECTID":341488},"geometry":{"x":165762.30999999959,"y":2538617.9900000021}},{"attributes":{"ID":341498,"DIS_CODE":0,"TOWNNAME":"南區","LI":"喜北里","LIN":"1鄰","STREET":"喜樹路","SECT":" ","MAREA":" ","LANE":"２４巷","ALLEY":" ","HOUSE_NO":"３３號","E_COORD97":165756.87,"N_COORD97":2538617.6699999999,"ADDRESS":"喜樹路２４巷３３號","OBJECTID":341489},"geometry":{"x":165756.87000000104,"y":2538617.6699999999}},{"attributes":{"ID":341499,"DIS_CODE":0,"TOWNNAME":"南區","LI":"喜北里","LIN":"1鄰","STREET":"喜樹路","SECT":" ","MAREA":" ","LANE":"２４巷","ALLEY":" ","HOUSE_NO":"３５號","E_COORD97":165751.12,"N_COORD97":2538617.8599999999,"ADDRESS":"喜樹路２４巷３５號","OBJECTID":341490},"geometry":{"x":165751.11999999918,"y":2538617.8600000013}},{"attributes":{"ID":341500,"DIS_CODE":0,"TOWNNAME":"南區","LI":"喜北里","LIN":"1鄰","STREET":"喜樹路","SECT":" ","MAREA":" ","LANE":"２４巷","ALLEY":" ","HOUSE_NO":"３７號","E_COORD97":165745.88,"N_COORD97":2538617.9900000002,"ADDRESS":"喜樹路２４巷３７號","OBJECTID":341491},"geometry":{"x":165745.88000000175,"y":2538617.9900000021}},{"attributes":{"ID":341501,"DIS_CODE":0,"TOWNNAME":"白河區","LI":"外角里","LIN":"8鄰","STREET":"光明街","SECT":" ","MAREA":" ","LANE":" ","ALLEY":" ","HOUSE_NO":"７５號","E_COORD97":190549.35000000001,"N_COORD97":2583420.77,"ADDRESS":"光明街７５號","OBJECTID":341492},"geometry":{"x":190549.34999999963,"y":2583420.7699999996}},{"attributes":{"ID":341502,"DIS_CODE":0,"TOWNNAME":"白河區","LI":"外角里","LIN":"8鄰","STREET":"光明街","SECT":" ","MAREA":" ","LANE":" ","ALLEY":" ","HOUSE_NO":"７６號","E_COORD97":190566.59,"N_COORD97":2583423.52,"ADDRESS":"光明街７６號","OBJECTID":341493},"geometry":{"x":190566.58999999985,"y":2583423.5200000014}},{"attributes":{"ID":341503,"DIS_CODE":0,"TOWNNAME":"白河區","LI":"外角里","LIN":"8鄰","STREET":"光明街","SECT":" ","MAREA":" ","LANE":" ","ALLEY":" ","HOUSE_NO":"７７號","E_COORD97":190549.67000000001,"N_COORD97":2583424.6400000001,"ADDRESS":"光明街７７號","OBJECTID":341494},"geometry":{"x":190549.67000000179,"y":2583424.6400000025}},{"attributes":{"ID":341504,"DIS_CODE":0,"TOWNNAME":"白河區","LI":"外角里","LIN":"8鄰","STREET":"光明街","SECT":" ","MAREA":" ","LANE":" ","ALLEY":" ","HOUSE_NO":"７８號","E_COORD97":190567.54000000001,"N_COORD97":2583427.96,"ADDRESS":"光明街７８號","OBJECTID":341495},"geometry":{"x":190567.5400000019,"y":2583427.9600000009}},{"attributes":{"ID":341505,"DIS_CODE":0,"TOWNNAME":"白河區","LI":"外角里","LIN":"8鄰","STREET":"光明街","SECT":" ","MAREA":" ","LANE":" ","ALLEY":" ","HOUSE_NO":"７９號","E_COORD97":190550.17999999999,"N_COORD97":2583428.77,"ADDRESS":"光明街７９號","OBJECTID":341496},"geometry":{"x":190550.1799999997,"y":2583428.7700000014}},{"attributes":{"ID":341506,"DIS_CODE":0,"TOWNNAME":"白河區","LI":"外角里","LIN":"8鄰","STREET":"光明街","SECT":" ","MAREA":" ","LANE":" ","ALLEY":" ","HOUSE_NO":"８０號","E_COORD97":190568.01999999999,"N_COORD97":2583432.0099999998,"ADDRESS":"光明街８０號","OBJECTID":341497},"geometry":{"x":190568.01999999955,"y":2583432.0099999998}},{"attributes":{"ID":341507,"DIS_CODE":0,"TOWNNAME":"永康區","LI":"永康里","LIN":"8鄰","STREET":"永康街","SECT":" ","MAREA":" ","LANE":" ","ALLEY":" ","HOUSE_NO":"３７號","E_COORD97":173816.23000000001,"N_COORD97":2547239.5,"ADDRESS":"永康街３７號","OBJECTID":341498},"geometry":{"x":173816.23000000045,"y":2547239.5000000019}},{"attributes":{"ID":341508,"DIS_CODE":0,"TOWNNAME":"永康區","LI":"正強里","LIN":"8鄰","STREET":"正義街","SECT":" ","MAREA":" ","LANE":" ","ALLEY":" ","HOUSE_NO":"８１號","E_COORD97":173474.47,"N_COORD97":2547576.3199999998,"ADDRESS":"正義街８１號","OBJECTID":341499},"geometry":{"x":173474.46999999974,"y":2547576.3200000022}},{"attributes":{"ID":341509,"DIS_CODE":0,"TOWNNAME":"佳里區","LI":"鎮山里","LIN":"8鄰","STREET":"佳東路","SECT":" ","MAREA":" ","LANE":" ","ALLEY":" ","HOUSE_NO":"６９號","E_COORD97":166436.72,"N_COORD97":2561513.0699999998,"ADDRESS":"佳東路６９號","OBJECTID":341500},"geometry":{"x":166436.7200000016,"y":2561513.0700000022}},{"attributes":{"ID":341510,"DIS_CODE":0,"TOWNNAME":"永康區","LI":"永康里","LIN":"8鄰","STREET":"永中街","SECT":" ","MAREA":" ","LANE":" ","ALLEY":" ","HOUSE_NO":"５７號","E_COORD97":173927.03,"N_COORD97":2547211.9900000002,"ADDRESS":"永中街５７號","OBJECTID":341501},"geometry":{"x":173927.03000000026,"y":2547211.9900000021}},{"attributes":{"ID":341511,"DIS_CODE":0,"TOWNNAME":"南區","LI":"喜北里","LIN":"1鄰","STREET":"喜樹路","SECT":" ","MAREA":" ","LANE":"２４巷","ALLEY":" ","HOUSE_NO":"３９號","E_COORD97":165740.26000000001,"N_COORD97":2538618.2400000002,"ADDRESS":"喜樹路２４巷３９號","OBJECTID":341502},"geometry":{"x":165740.26000000071,"y":2538618.2400000002}},{"attributes":{"ID":341512,"DIS_CODE":0,"TOWNNAME":"南區","LI":"喜北里","LIN":"1鄰","STREET":"喜樹路","SECT":" ","MAREA":" ","LANE":"２４巷","ALLEY":" ","HOUSE_NO":"４１號","E_COORD97":165734.51000000001,"N_COORD97":2538617.9900000002,"ADDRESS":"喜樹路２４巷４１號","OBJECTID":341503},"geometry":{"x":165734.50999999885,"y":2538617.9900000021}},{"attributes":{"ID":341513,"DIS_CODE":0,"TOWNNAME":"南區","LI":"喜北里","LIN":"1鄰","STREET":"喜樹路","SECT":" ","MAREA":" ","LANE":"４０巷","ALLEY":" ","HOUSE_NO":"２號","E_COORD97":165852.04999999999,"N_COORD97":2538605.2400000002,"ADDRESS":"喜樹路４０巷２號","OBJECTID":341504},"geometry":{"x":165852.05000000075,"y":2538605.2400000039}},{"attributes":{"ID":341514,"DIS_CODE":0,"TOWNNAME":"南區","LI":"喜北里","LIN":"1鄰","STREET":"喜樹路","SECT":" ","MAREA":" ","LANE":"４０巷","ALLEY":" ","HOUSE_NO":"４號","E_COORD97":165846.04000000001,"N_COORD97":2538605.3700000001,"ADDRESS":"喜樹路４０巷４號","OBJECTID":341505},"geometry":{"x":165846.04000000004,"y":2538605.3700000029}},{"attributes":{"ID":341515,"DIS_CODE":0,"TOWNNAME":"南區","LI":"喜北里","LIN":"1鄰","STREET":"喜樹路","SECT":" ","MAREA":" ","LANE":"４０巷","ALLEY":" ","HOUSE_NO":"６號","E_COORD97":165840.73999999999,"N_COORD97":2538605.4300000002,"ADDRESS":"喜樹路４０巷６號","OBJECTID":341506},"geometry":{"x":165840.74000000115,"y":2538605.4299999997}},{"attributes":{"ID":341516,"DIS_CODE":0,"TOWNNAME":"南區","LI":"喜北里","LIN":"1鄰","STREET":"喜樹路","SECT":" ","MAREA":" ","LANE":"４０巷","ALLEY":" ","HOUSE_NO":"８號","E_COORD97":165835.37,"N_COORD97":2538605.4300000002,"ADDRESS":"喜樹路４０巷８號","OBJECTID":341507},"geometry":{"x":165835.37000000011,"y":2538605.4299999997}},{"attributes":{"ID":341517,"DIS_CODE":0,"TOWNNAME":"南區","LI":"喜北里","LIN":"1鄰","STREET":"喜樹路","SECT":" ","MAREA":" ","LANE":"４０巷","ALLEY":" ","HOUSE_NO":"１０號","E_COORD97":165829.87,"N_COORD97":2538605.4900000002,"ADDRESS":"喜樹路４０巷１０號","OBJECTID":341508},"geometry":{"x":165829.87000000104,"y":2538605.4900000002}},{"attributes":{"ID":341518,"DIS_CODE":0,"TOWNNAME":"南區","LI":"喜北里","LIN":"1鄰","STREET":"喜樹路","SECT":" ","MAREA":" ","LANE":"４０巷","ALLEY":" ","HOUSE_NO":"１２號","E_COORD97":165824.75,"N_COORD97":2538605.6200000001,"ADDRESS":"喜樹路４０巷１２號","OBJECTID":341509},"geometry":{"x":165824.75000000186,"y":2538605.620000001}},{"attributes":{"ID":341519,"DIS_CODE":0,"TOWNNAME":"南區","LI":"喜北里","LIN":"1鄰","STREET":"喜樹路","SECT":" ","MAREA":" ","LANE":"４０巷","ALLEY":" ","HOUSE_NO":"１４號","E_COORD97":165819.26000000001,"N_COORD97":2538605.5600000001,"ADDRESS":"喜樹路４０巷１４號","OBJECTID":341510},"geometry":{"x":165819.25999999885,"y":2538605.5600000005}},{"attributes":{"ID":341520,"DIS_CODE":0,"TOWNNAME":"南區","LI":"喜北里","LIN":"1鄰","STREET":"喜樹路","SECT":" ","MAREA":" ","LANE":"４０巷","ALLEY":" ","HOUSE_NO":"１６號","E_COORD97":165814.26000000001,"N_COORD97":2538605.3700000001,"ADDRESS":"喜樹路４０巷１６號","OBJECTID":341511},"geometry":{"x":165814.26000000164,"y":2538605.3700000029}},{"attributes":{"ID":341521,"DIS_CODE":0,"TOWNNAME":"南區","LI":"喜北里","LIN":"1鄰","STREET":"喜樹路","SECT":" ","MAREA":" ","LANE":"４０巷","ALLEY":" ","HOUSE_NO":"１８號","E_COORD97":165808.60999999999,"N_COORD97":2538605.0499999998,"ADDRESS":"喜樹路４０巷１８號","OBJECTID":341512},"geometry":{"x":165808.61000000034,"y":2538605.0500000026}},{"attributes":{"ID":341522,"DIS_CODE":0,"TOWNNAME":"南區","LI":"喜北里","LIN":"1鄰","STREET":"喜樹路","SECT":" ","MAREA":" ","LANE":"４０巷","ALLEY":" ","HOUSE_NO":"２０號","E_COORD97":165803.94,"N_COORD97":2538605.2999999998,"ADDRESS":"喜樹路４０巷２０號","OBJECTID":341513},"geometry":{"x":165803.94000000134,"y":2538605.3000000045}},{"attributes":{"ID":341523,"DIS_CODE":0,"TOWNNAME":"南區","LI":"喜北里","LIN":"1鄰","STREET":"喜樹路","SECT":" ","MAREA":" ","LANE":"４０巷","ALLEY":" ","HOUSE_NO":"２２號","E_COORD97":165798.82000000001,"N_COORD97":2538605.0499999998,"ADDRESS":"喜樹路４０巷２２號","OBJECTID":341514},"geometry":{"x":165798.8200000003,"y":2538605.0500000026}},{"attributes":{"ID":341524,"DIS_CODE":0,"TOWNNAME":"南區","LI":"喜北里","LIN":"1鄰","STREET":"喜樹路","SECT":" ","MAREA":" ","LANE":"４０巷","ALLEY":" ","HOUSE_NO":"２４號","E_COORD97":165792.76000000001,"N_COORD97":2538604.98,"ADDRESS":"喜樹路４０巷２４號","OBJECTID":341515},"geometry":{"x":165792.76000000071,"y":2538604.9800000023}},{"attributes":{"ID":341525,"DIS_CODE":0,"TOWNNAME":"南區","LI":"喜北里","LIN":"1鄰","STREET":"喜樹路","SECT":" ","MAREA":" ","LANE":"４０巷","ALLEY":" ","HOUSE_NO":"２６號","E_COORD97":165779.10999999999,"N_COORD97":2538605.9300000002,"ADDRESS":"喜樹路４０巷２６號","OBJECTID":341516},"geometry":{"x":165779.11000000127,"y":2538605.9299999997}},{"attributes":{"ID":341526,"DIS_CODE":0,"TOWNNAME":"南區","LI":"喜北里","LIN":"1鄰","STREET":"喜樹路","SECT":" ","MAREA":" ","LANE":"４０巷","ALLEY":" ","HOUSE_NO":"２８號","E_COORD97":165773.48999999999,"N_COORD97":2538605.6800000002,"ADDRESS":"喜樹路４０巷２８號","OBJECTID":341517},"geometry":{"x":165773.49000000022,"y":2538605.6800000016}},{"attributes":{"ID":341527,"DIS_CODE":0,"TOWNNAME":"南區","LI":"喜北里","LIN":"1鄰","STREET":"喜樹路","SECT":" ","MAREA":" ","LANE":"４０巷","ALLEY":" ","HOUSE_NO":"３０號","E_COORD97":165767.48999999999,"N_COORD97":2538605.9300000002,"ADDRESS":"喜樹路４０巷３０號","OBJECTID":341518},"geometry":{"x":165767.49000000209,"y":2538605.9299999997}},{"attributes":{"ID":341528,"DIS_CODE":0,"TOWNNAME":"南區","LI":"喜北里","LIN":"1鄰","STREET":"喜樹路","SECT":" ","MAREA":" ","LANE":"４０巷","ALLEY":" ","HOUSE_NO":"３２號","E_COORD97":165762.04999999999,"N_COORD97":2538606.0499999998,"ADDRESS":"喜樹路４０巷３２號","OBJECTID":341519},"geometry":{"x":165762.05000000075,"y":2538606.0500000007}},{"attributes":{"ID":341529,"DIS_CODE":0,"TOWNNAME":"南區","LI":"喜北里","LIN":"1鄰","STREET":"喜樹路","SECT":" ","MAREA":" ","LANE":"４０巷","ALLEY":" ","HOUSE_NO":"３４號","E_COORD97":165756.62,"N_COORD97":2538605.7400000002,"ADDRESS":"喜樹路４０巷３４號","OBJECTID":341520},"geometry":{"x":165756.62000000104,"y":2538605.7400000021}},{"attributes":{"ID":341530,"DIS_CODE":0,"TOWNNAME":"南區","LI":"喜北里","LIN":"1鄰","STREET":"喜樹路","SECT":" ","MAREA":" ","LANE":"４０巷","ALLEY":" ","HOUSE_NO":"３６號","E_COORD97":165751.12,"N_COORD97":2538605.7400000002,"ADDRESS":"喜樹路４０巷３６號","OBJECTID":341521},"geometry":{"x":165751.11999999918,"y":2538605.7400000021}},{"attributes":{"ID":341531,"DIS_CODE":0,"TOWNNAME":"南區","LI":"喜北里","LIN":"1鄰","STREET":"喜樹路","SECT":" ","MAREA":" ","LANE":"４０巷","ALLEY":" ","HOUSE_NO":"３８號","E_COORD97":165745.5,"N_COORD97":2538605.8700000001,"ADDRESS":"喜樹路４０巷３８號","OBJECTID":341522},"geometry":{"x":165745.50000000093,"y":2538605.8700000029}},{"attributes":{"ID":341532,"DIS_CODE":0,"TOWNNAME":"南區","LI":"喜北里","LIN":"1鄰","STREET":"喜樹路","SECT":" ","MAREA":" ","LANE":"４０巷","ALLEY":" ","HOUSE_NO":"４０號","E_COORD97":165739.88,"N_COORD97":2538605.8700000001,"ADDRESS":"喜樹路４０巷４０號","OBJECTID":341523},"geometry":{"x":165739.87999999989,"y":2538605.8700000029}},{"attributes":{"ID":341533,"DIS_CODE":0,"TOWNNAME":"南區","LI":"喜北里","LIN":"1鄰","STREET":"喜樹路","SECT":" ","MAREA":" ","LANE":"４０巷","ALLEY":" ","HOUSE_NO":"４２號","E_COORD97":165734.32000000001,"N_COORD97":2538605.7400000002,"ADDRESS":"喜樹路４０巷４２號","OBJECTID":341524},"geometry":{"x":165734.3200000003,"y":2538605.7400000021}},{"attributes":{"ID":341534,"DIS_CODE":0,"TOWNNAME":"南區","LI":"喜北里","LIN":"1鄰","STREET":"喜樹路","SECT":" ","MAREA":" ","LANE":"２４巷","ALLEY":" ","HOUSE_NO":"１５號","E_COORD97":165814.31,"N_COORD97":2538618.6899999999,"ADDRESS":"喜樹路２４巷１５號","OBJECTID":341525},"geometry":{"x":165814.31000000052,"y":2538618.6900000013}},{"attributes":{"ID":341535,"DIS_CODE":0,"TOWNNAME":"南區","LI":"喜東里","LIN":"1鄰","STREET":"明興路","SECT":" ","MAREA":" ","LANE":"３２１巷","ALLEY":" ","HOUSE_NO":"２２號","E_COORD97":166583.85999999999,"N_COORD97":2538915.8999999999,"ADDRESS":"明興路３２１巷２２號","OBJECTID":341526},"geometry":{"x":166583.8600000022,"y":2538915.9000000041}},{"attributes":{"ID":341536,"DIS_CODE":0,"TOWNNAME":"南區","LI":"喜東里","LIN":"1鄰","STREET":"明興路","SECT":" ","MAREA":" ","LANE":"３２１巷","ALLEY":" ","HOUSE_NO":"２２號之１","E_COORD97":166569.48000000001,"N_COORD97":2538975.6000000001,"ADDRESS":"明興路３２１巷２２號之１","OBJECTID":341527},"geometry":{"x":166569.47999999952,"y":2538975.6000000015}},{"attributes":{"ID":341537,"DIS_CODE":0,"TOWNNAME":"南區","LI":"喜東里","LIN":"1鄰","STREET":"明興路","SECT":" ","MAREA":" ","LANE":"３２１巷","ALLEY":" ","HOUSE_NO":"２２號之２","E_COORD97":166535.94,"N_COORD97":2538995.8500000001,"ADDRESS":"明興路３２１巷２２號之２","OBJECTID":341528},"geometry":{"x":166535.94000000227,"y":2538995.8499999996}},{"attributes":{"ID":341538,"DIS_CODE":0,"TOWNNAME":"南區","LI":"喜東里","LIN":"1鄰","STREET":"明興路","SECT":" ","MAREA":" ","LANE":"３２１巷","ALLEY":" ","HOUSE_NO":"２４號","E_COORD97":166568.51999999999,"N_COORD97":2538909.1899999999,"ADDRESS":"明興路３２１巷２４號","OBJECTID":341529},"geometry":{"x":166568.52000000048,"y":2538909.1899999995}},{"attributes":{"ID":341539,"DIS_CODE":0,"TOWNNAME":"南區","LI":"喜東里","LIN":"1鄰","STREET":"明興路","SECT":" ","MAREA":" ","LANE":"３２１巷","ALLEY":" ","HOUSE_NO":"２８號之１","E_COORD97":166596.01000000001,"N_COORD97":2538875.6699999999,"ADDRESS":"明興路３２１巷２８號之１","OBJECTID":341530},"geometry":{"x":166596.01000000071,"y":2538875.6699999999}},{"attributes":{"ID":341540,"DIS_CODE":0,"TOWNNAME":"南區","LI":"喜東里","LIN":"1鄰","STREET":"明興路","SECT":" ","MAREA":" ","LANE":"３２１巷","ALLEY":" ","HOUSE_NO":"２號","E_COORD97":166414.42000000001,"N_COORD97":2539044.6499999999,"ADDRESS":"明興路３２１巷２號","OBJECTID":341531},"geometry":{"x":166414.41999999993,"y":2539044.6500000022}},{"attributes":{"ID":341541,"DIS_CODE":0,"TOWNNAME":"南區","LI":"喜東里","LIN":"1鄰","STREET":"明興路","SECT":" ","MAREA":" ","LANE":"３２１巷","ALLEY":" ","HOUSE_NO":"５０號","E_COORD97":166809.78,"N_COORD97":2538889.9500000002,"ADDRESS":"明興路３２１巷５０號","OBJECTID":341532},"geometry":{"x":166809.78000000212,"y":2538889.9499999993}},{"attributes":{"ID":341542,"DIS_CODE":0,"TOWNNAME":"南區","LI":"喜南里","LIN":"1鄰","STREET":"喜樹路","SECT":" ","MAREA":" ","LANE":"３０２巷","ALLEY":" ","HOUSE_NO":"９號","E_COORD97":165671.26999999999,"N_COORD97":2537806.23,"ADDRESS":"喜樹路３０２巷９號","OBJECTID":341533},"geometry":{"x":165671.26999999955,"y":2537806.2300000023}},{"attributes":{"ID":341543,"DIS_CODE":0,"TOWNNAME":"南區","LI":"喜南里","LIN":"1鄰","STREET":"喜樹路","SECT":" ","MAREA":" ","LANE":"３０２巷","ALLEY":" ","HOUSE_NO":"１１號","E_COORD97":165672.72,"N_COORD97":2537801.6600000001,"ADDRESS":"喜樹路３０２巷１１號","OBJECTID":341534},"geometry":{"x":165672.72000000067,"y":2537801.6600000001}},{"attributes":{"ID":341544,"DIS_CODE":0,"TOWNNAME":"南區","LI":"喜南里","LIN":"1鄰","STREET":"喜樹路","SECT":" ","MAREA":" ","LANE":"３１６巷","ALLEY":" ","HOUSE_NO":"１號","E_COORD97":165721.39000000001,"N_COORD97":2537777.71,"ADDRESS":"喜樹路３１６巷１號","OBJECTID":341535},"geometry":{"x":165721.38999999966,"y":2537777.7100000009}},{"attributes":{"ID":341545,"DIS_CODE":0,"TOWNNAME":"南區","LI":"喜南里","LIN":"1鄰","STREET":"喜樹路","SECT":" ","MAREA":" ","LANE":"３１６巷","ALLEY":" ","HOUSE_NO":"２號","E_COORD97":165720.82999999999,"N_COORD97":2537781.6200000001,"ADDRESS":"喜樹路３１６巷２號","OBJECTID":341536},"geometry":{"x":165720.82999999914,"y":2537781.620000001}},{"attributes":{"ID":341546,"DIS_CODE":0,"TOWNNAME":"南區","LI":"喜南里","LIN":"1鄰","STREET":"喜樹路","SECT":" ","MAREA":" ","LANE":"３１６巷","ALLEY":" ","HOUSE_NO":"３號","E_COORD97":165716.17000000001,"N_COORD97":2537776.4100000001,"ADDRESS":"喜樹路３１６巷３號","OBJECTID":341537},"geometry":{"x":165716.16999999993,"y":2537776.4099999983}},{"attributes":{"ID":341547,"DIS_CODE":0,"TOWNNAME":"南區","LI":"喜南里","LIN":"1鄰","STREET":"喜樹路","SECT":" ","MAREA":" ","LANE":"３１６巷","ALLEY":" ","HOUSE_NO":"４號","E_COORD97":165716.78,"N_COORD97":2537781.27,"ADDRESS":"喜樹路３１６巷４號","OBJECTID":341538},"geometry":{"x":165716.78000000119,"y":2537781.2700000014}},{"attributes":{"ID":341548,"DIS_CODE":0,"TOWNNAME":"南區","LI":"喜南里","LIN":"1鄰","STREET":"喜樹路","SECT":" ","MAREA":" ","LANE":"３１６巷","ALLEY":" ","HOUSE_NO":"５號","E_COORD97":165710.57999999999,"N_COORD97":2537776.4100000001,"ADDRESS":"喜樹路３１６巷５號","OBJECTID":341539},"geometry":{"x":165710.58000000007,"y":2537776.4099999983}},{"attributes":{"ID":341549,"DIS_CODE":0,"TOWNNAME":"南區","LI":"喜南里","LIN":"1鄰","STREET":"喜樹路","SECT":" ","MAREA":" ","LANE":"３１６巷","ALLEY":" ","HOUSE_NO":"６號","E_COORD97":165712.84,"N_COORD97":2537781.0800000001,"ADDRESS":"喜樹路３１６巷６號","OBJECTID":341540},"geometry":{"x":165712.84000000078,"y":2537781.0800000001}},{"attributes":{"ID":341550,"DIS_CODE":0,"TOWNNAME":"南區","LI":"喜南里","LIN":"1鄰","STREET":"喜樹路","SECT":" ","MAREA":" ","LANE":"３１６巷","ALLEY":" ","HOUSE_NO":"７號","E_COORD97":165711.25,"N_COORD97":2537765.4399999999,"ADDRESS":"喜樹路３１６巷７號","OBJECTID":341541},"geometry":{"x":165711.25000000186,"y":2537765.4400000032}},{"attributes":{"ID":341551,"DIS_CODE":0,"TOWNNAME":"南區","LI":"喜南里","LIN":"1鄰","STREET":"喜樹路","SECT":" ","MAREA":" ","LANE":"３１６巷","ALLEY":" ","HOUSE_NO":"８號","E_COORD97":165709.09,"N_COORD97":2537780.5499999998,"ADDRESS":"喜樹路３１６巷８號","OBJECTID":341542},"geometry":{"x":165709.09000000078,"y":2537780.5500000026}},{"attributes":{"ID":341552,"DIS_CODE":0,"TOWNNAME":"南區","LI":"喜南里","LIN":"1鄰","STREET":"喜樹路","SECT":" ","MAREA":" ","LANE":"３１６巷","ALLEY":" ","HOUSE_NO":"１０號","E_COORD97":165694.95999999999,"N_COORD97":2537776.3599999999,"ADDRESS":"喜樹路３１６巷１０號","OBJECTID":341543},"geometry":{"x":165694.96000000089,"y":2537776.3600000031}},{"attributes":{"ID":341553,"DIS_CODE":0,"TOWNNAME":"南區","LI":"喜南里","LIN":"1鄰","STREET":"喜樹路","SECT":" ","MAREA":" ","LANE":"３１６巷","ALLEY":" ","HOUSE_NO":"１２號","E_COORD97":165700.78,"N_COORD97":2537772.48,"ADDRESS":"喜樹路３１６巷１２號","OBJECTID":341544},"geometry":{"x":165700.78000000026,"y":2537772.4800000004}},{"attributes":{"ID":341554,"DIS_CODE":0,"TOWNNAME":"南區","LI":"喜南里","LIN":"1鄰","STREET":"喜樹路","SECT":" ","MAREA":" ","LANE":"３１６巷","ALLEY":" ","HOUSE_NO":"１４號","E_COORD97":165683.47,"N_COORD97":2537773.8700000001,"ADDRESS":"喜樹路３１６巷１４號","OBJECTID":341545},"geometry":{"x":165683.46999999974,"y":2537773.870000001}},{"attributes":{"ID":341555,"DIS_CODE":0,"TOWNNAME":"南區","LI":"喜南里","LIN":"1鄰","STREET":"喜樹路","SECT":" ","MAREA":" ","LANE":"３１６巷","ALLEY":" ","HOUSE_NO":"１６號","E_COORD97":165683.47,"N_COORD97":2537769.2999999998,"ADDRESS":"喜樹路３１６巷１６號","OBJECTID":341546},"geometry":{"x":165683.46999999974,"y":2537769.3000000026}},{"attributes":{"ID":341556,"DIS_CODE":0,"TOWNNAME":"南區","LI":"喜南里","LIN":"1鄰","STREET":"喜樹路","SECT":" ","MAREA":" ","LANE":"３１６巷","ALLEY":" ","HOUSE_NO":"２２號","E_COORD97":165686.94,"N_COORD97":2537764.8700000001,"ADDRESS":"喜樹路３１６巷２２號","OBJECTID":341547},"geometry":{"x":165686.94000000134,"y":2537764.8700000029}},{"attributes":{"ID":341557,"DIS_CODE":0,"TOWNNAME":"南區","LI":"喜南里","LIN":"1鄰","STREET":"喜樹路","SECT":" ","MAREA":" ","LANE":"３１６巷","ALLEY":" ","HOUSE_NO":"２４號","E_COORD97":165688.32000000001,"N_COORD97":2537758.6499999999,"ADDRESS":"喜樹路３１６巷２４號","OBJECTID":341548},"geometry":{"x":165688.3200000003,"y":2537758.6500000022}},{"attributes":{"ID":341558,"DIS_CODE":0,"TOWNNAME":"南區","LI":"喜南里","LIN":"1鄰","STREET":"喜樹路","SECT":" ","MAREA":" ","LANE":"３１６巷","ALLEY":" ","HOUSE_NO":"２６號","E_COORD97":165701.78,"N_COORD97":2537752.2400000002,"ADDRESS":"喜樹路３１６巷２６號","OBJECTID":341549},"geometry":{"x":165701.78000000119,"y":2537752.2400000021}},{"attributes":{"ID":341559,"DIS_CODE":0,"TOWNNAME":"南區","LI":"喜南里","LIN":"1鄰","STREET":"喜樹路","SECT":" ","MAREA":" ","LANE":"３１６巷","ALLEY":" ","HOUSE_NO":"２８號","E_COORD97":165700.78,"N_COORD97":2537746.8199999998,"ADDRESS":"喜樹路３１６巷２８號","OBJECTID":341550},"geometry":{"x":165700.78000000026,"y":2537746.820000004}},{"attributes":{"ID":341560,"DIS_CODE":0,"TOWNNAME":"南區","LI":"喜南里","LIN":"1鄰","STREET":"喜樹路","SECT":" ","MAREA":" ","LANE":"３１６巷","ALLEY":" ","HOUSE_NO":"３０號","E_COORD97":165686.73000000001,"N_COORD97":2537753.8399999999,"ADDRESS":"喜樹路３１６巷３０號","OBJECTID":341551},"geometry":{"x":165686.73000000138,"y":2537753.8400000017}},{"attributes":{"ID":341561,"DIS_CODE":0,"TOWNNAME":"南區","LI":"喜南里","LIN":"1鄰","STREET":"喜樹路","SECT":" ","MAREA":" ","LANE":"３１６巷","ALLEY":" ","HOUSE_NO":"３２號","E_COORD97":165689.14000000001,"N_COORD97":2537743.2200000002,"ADDRESS":"喜樹路３１６巷３２號","OBJECTID":341552},"geometry":{"x":165689.13999999966,"y":2537743.2200000007}},{"attributes":{"ID":341562,"DIS_CODE":0,"TOWNNAME":"永康區","LI":"烏竹里","LIN":"1鄰","STREET":"烏竹北街","SECT":" ","MAREA":" ","LANE":"９８巷","ALLEY":" ","HOUSE_NO":"６１號","E_COORD97":174515.29999999999,"N_COORD97":2549621.5299999998,"ADDRESS":"烏竹北街９８巷６１號","OBJECTID":341553},"geometry":{"x":174515.29999999981,"y":2549621.5300000012}},{"attributes":{"ID":341563,"DIS_CODE":0,"TOWNNAME":"永康區","LI":"埔園里","LIN":"1鄰","STREET":"埔聖街","SECT":" ","MAREA":" ","LANE":"８１巷","ALLEY":" ","HOUSE_NO":"２３號","E_COORD97":174072.25,"N_COORD97":2547688.8900000001,"ADDRESS":"埔聖街８１巷２３號","OBJECTID":341554},"geometry":{"x":174072.25000000093,"y":2547688.8900000025}},{"attributes":{"ID":341564,"DIS_CODE":0,"TOWNNAME":"永康區","LI":"神洲里","LIN":"1鄰","STREET":"忠孝路","SECT":" ","MAREA":" ","LANE":"６巷","ALLEY":" ","HOUSE_NO":"２０號","E_COORD97":172167.38,"N_COORD97":2544570.25,"ADDRESS":"忠孝路６巷２０號","OBJECTID":341555},"geometry":{"x":172167.38000000082,"y":2544570.25}},{"attributes":{"ID":341565,"DIS_CODE":0,"TOWNNAME":"永康區","LI":"埔園里","LIN":"1鄰","STREET":"埔聖街","SECT":" ","MAREA":" ","LANE":"８１巷","ALLEY":" ","HOUSE_NO":"９號","E_COORD97":174085.34,"N_COORD97":2547663.3900000001,"ADDRESS":"埔聖街８１巷９號","OBJECTID":341556},"geometry":{"x":174085.34000000078,"y":2547663.3900000043}},{"attributes":{"ID":341566,"DIS_CODE":0,"TOWNNAME":"永康區","LI":"神洲里","LIN":"1鄰","STREET":"忠孝路","SECT":" ","MAREA":" ","LANE":"２２巷","ALLEY":" ","HOUSE_NO":"２號","E_COORD97":172098.37,"N_COORD97":2544603.2400000002,"ADDRESS":"忠孝路２２巷２號","OBJECTID":341557},"geometry":{"x":172098.37000000104,"y":2544603.2400000021}},{"attributes":{"ID":341567,"DIS_CODE":0,"TOWNNAME":"永康區","LI":"埔園里","LIN":"1鄰","STREET":"埔聖街","SECT":" ","MAREA":" ","LANE":"１３巷","ALLEY":" ","HOUSE_NO":"１６號","E_COORD97":173854.54999999999,"N_COORD97":2547641.2400000002,"ADDRESS":"埔聖街１３巷１６號","OBJECTID":341558},"geometry":{"x":173854.55000000075,"y":2547641.2400000021}},{"attributes":{"ID":341568,"DIS_CODE":0,"TOWNNAME":"永康區","LI":"烏竹里","LIN":"1鄰","STREET":"烏竹北街","SECT":" ","MAREA":" ","LANE":"９８巷","ALLEY":" ","HOUSE_NO":"４９號","E_COORD97":174502.10000000001,"N_COORD97":2549595.7400000002,"ADDRESS":"烏竹北街９８巷４９號","OBJECTID":341559},"geometry":{"x":174502.10000000056,"y":2549595.7400000002}},{"attributes":{"ID":341569,"DIS_CODE":0,"TOWNNAME":"永康區","LI":"神洲里","LIN":"1鄰","STREET":"忠孝路","SECT":" ","MAREA":" ","LANE":"６巷","ALLEY":" ","HOUSE_NO":"１３號","E_COORD97":172157.89000000001,"N_COORD97":2544582,"ADDRESS":"忠孝路６巷１３號","OBJECTID":341560},"geometry":{"x":172157.88999999966,"y":2544582}},{"attributes":{"ID":341570,"DIS_CODE":0,"TOWNNAME":"永康區","LI":"埔園里","LIN":"1鄰","STREET":"永埔街","SECT":" ","MAREA":" ","LANE":"６３巷","ALLEY":" ","HOUSE_NO":"２號","E_COORD97":173943.04000000001,"N_COORD97":2547647.5,"ADDRESS":"永埔街６３巷２號","OBJECTID":341561},"geometry":{"x":173943.04000000097,"y":2547647.5}},{"attributes":{"ID":341571,"DIS_CODE":0,"TOWNNAME":"永康區","LI":"烏竹里","LIN":"1鄰","STREET":"烏竹北街","SECT":" ","MAREA":" ","LANE":"２０巷","ALLEY":" ","HOUSE_NO":"６６號","E_COORD97":174569.45000000001,"N_COORD97":2549560.54,"ADDRESS":"烏竹北街２０巷６６號","OBJECTID":341562},"geometry":{"x":174569.45000000112,"y":2549560.540000001}},{"attributes":{"ID":341572,"DIS_CODE":0,"TOWNNAME":"永康區","LI":"烏竹里","LIN":"1鄰","STREET":"烏竹北街","SECT":" ","MAREA":" ","LANE":"９８巷","ALLEY":" ","HOUSE_NO":"２１號","E_COORD97":174478.17000000001,"N_COORD97":2549562.5,"ADDRESS":"烏竹北街９８巷２１號","OBJECTID":341563},"geometry":{"x":174478.17000000086,"y":2549562.5}},{"attributes":{"ID":341573,"DIS_CODE":0,"TOWNNAME":"永康區","LI":"烏竹里","LIN":"1鄰","STREET":"烏竹北街","SECT":" ","MAREA":" ","LANE":"９８巷","ALLEY":" ","HOUSE_NO":"３１號","E_COORD97":174465.12,"N_COORD97":2549578.7400000002,"ADDRESS":"烏竹北街９８巷３１號","OBJECTID":341564},"geometry":{"x":174465.12000000104,"y":2549578.7400000002}},{"attributes":{"ID":341574,"DIS_CODE":0,"TOWNNAME":"永康區","LI":"神洲里","LIN":"1鄰","STREET":"忠孝路","SECT":" ","MAREA":" ","LANE":"６巷","ALLEY":" ","HOUSE_NO":"２６號","E_COORD97":172186.67999999999,"N_COORD97":2544567.75,"ADDRESS":"忠孝路６巷２６號","OBJECTID":341565},"geometry":{"x":172186.6799999997,"y":2544567.75}},{"attributes":{"ID":341575,"DIS_CODE":0,"TOWNNAME":"永康區","LI":"埔園里","LIN":"1鄰","STREET":"中山路","SECT":" ","MAREA":" ","LANE":"９４巷","ALLEY":" ","HOUSE_NO":"１０號之１","E_COORD97":173941.47,"N_COORD97":2547665.2999999998,"ADDRESS":"中山路９４巷１０號之１","OBJECTID":341566},"geometry":{"x":173941.47000000067,"y":2547665.3000000026}},{"attributes":{"ID":341576,"DIS_CODE":0,"TOWNNAME":"永康區","LI":"埔園里","LIN":"1鄰","STREET":"永埔街","SECT":" ","MAREA":" ","LANE":"６３巷","ALLEY":" ","HOUSE_NO":"５號","E_COORD97":173941.87,"N_COORD97":2547630.4900000002,"ADDRESS":"永埔街６３巷５號","OBJECTID":341567},"geometry":{"x":173941.87000000011,"y":2547630.4900000002}},{"attributes":{"ID":341577,"DIS_CODE":0,"TOWNNAME":"永康區","LI":"埔園里","LIN":"1鄰","STREET":"永埔街","SECT":" ","MAREA":" ","LANE":"６３巷","ALLEY":" ","HOUSE_NO":"１號","E_COORD97":173960.56,"N_COORD97":2547634.4900000002,"ADDRESS":"永埔街６３巷１號","OBJECTID":341568},"geometry":{"x":173960.55999999959,"y":2547634.4900000002}},{"attributes":{"ID":341578,"DIS_CODE":0,"TOWNNAME":"永康區","LI":"烏竹里","LIN":"1鄰","STREET":"烏竹北街","SECT":" ","MAREA":" ","LANE":"２０巷","ALLEY":" ","HOUSE_NO":"６０號","E_COORD97":174575.01000000001,"N_COORD97":2549542.0800000001,"ADDRESS":"烏竹北街２０巷６０號","OBJECTID":341569},"geometry":{"x":174575.01000000164,"y":2549542.0800000001}},{"attributes":{"ID":341579,"DIS_CODE":0,"TOWNNAME":"永康區","LI":"烏竹里","LIN":"1鄰","STREET":"烏竹北街","SECT":" ","MAREA":" ","LANE":"９８巷","ALLEY":" ","HOUSE_NO":"３９號","E_COORD97":174481.85000000001,"N_COORD97":2549582.9900000002,"ADDRESS":"烏竹北街９８巷３９號","OBJECTID":341570},"geometry":{"x":174481.85000000056,"y":2549582.9900000021}},{"attributes":{"ID":341580,"DIS_CODE":0,"TOWNNAME":"永康區","LI":"烏竹里","LIN":"1鄰","STREET":"烏竹北街","SECT":" ","MAREA":" ","LANE":"９８巷","ALLEY":" ","HOUSE_NO":"４１號","E_COORD97":174479.09,"N_COORD97":2549585.7400000002,"ADDRESS":"烏竹北街９８巷４１號","OBJECTID":341571},"geometry":{"x":174479.08999999985,"y":2549585.7400000002}},{"attributes":{"ID":341581,"DIS_CODE":0,"TOWNNAME":"永康區","LI":"烏竹里","LIN":"1鄰","STREET":"烏竹北街","SECT":" ","MAREA":" ","LANE":"９８巷","ALLEY":" ","HOUSE_NO":"３５號","E_COORD97":174487.54999999999,"N_COORD97":2549576.9900000002,"ADDRESS":"烏竹北街９８巷３５號","OBJECTID":341572},"geometry":{"x":174487.54999999981,"y":2549576.9900000002}},{"attributes":{"ID":341582,"DIS_CODE":0,"TOWNNAME":"永康區","LI":"烏竹里","LIN":"1鄰","STREET":"烏竹北街","SECT":" ","MAREA":" ","LANE":"９８巷","ALLEY":" ","HOUSE_NO":"１９號","E_COORD97":174448.45000000001,"N_COORD97":2549564.7400000002,"ADDRESS":"烏竹北街９８巷１９號","OBJECTID":341573},"geometry":{"x":174448.45000000019,"y":2549564.7400000002}},{"attributes":{"ID":341583,"DIS_CODE":0,"TOWNNAME":"永康區","LI":"神洲里","LIN":"1鄰","STREET":"忠孝路","SECT":" ","MAREA":" ","LANE":"２２巷","ALLEY":" ","HOUSE_NO":"１２號","E_COORD97":172130.57000000001,"N_COORD97":2544603.7400000002,"ADDRESS":"忠孝路２２巷１２號","OBJECTID":341574},"geometry":{"x":172130.5700000003,"y":2544603.7400000021}},{"attributes":{"ID":341584,"DIS_CODE":0,"TOWNNAME":"永康區","LI":"神洲里","LIN":"1鄰","STREET":"忠孝路","SECT":" ","MAREA":" ","LANE":"２２巷","ALLEY":" ","HOUSE_NO":"４號","E_COORD97":172105.20999999999,"N_COORD97":2544602.2400000002,"ADDRESS":"忠孝路２２巷４號","OBJECTID":341575},"geometry":{"x":172105.20999999996,"y":2544602.2400000002}},{"attributes":{"ID":341585,"DIS_CODE":0,"TOWNNAME":"永康區","LI":"神洲里","LIN":"1鄰","STREET":"忠孝路","SECT":" ","MAREA":" ","LANE":"６巷","ALLEY":" ","HOUSE_NO":"２２號","E_COORD97":172174.23000000001,"N_COORD97":2544570,"ADDRESS":"忠孝路６巷２２號","OBJECTID":341576},"geometry":{"x":172174.23000000138,"y":2544570.0000000037}},{"attributes":{"ID":341586,"DIS_CODE":0,"TOWNNAME":"永康區","LI":"烏竹里","LIN":"1鄰","STREET":"烏竹北街","SECT":" ","MAREA":" ","LANE":"９８巷","ALLEY":" ","HOUSE_NO":"４５號","E_COORD97":174507.92000000001,"N_COORD97":2549588.9900000002,"ADDRESS":"烏竹北街９８巷４５號","OBJECTID":341577},"geometry":{"x":174507.91999999899,"y":2549588.9900000021}},{"attributes":{"ID":341587,"DIS_CODE":0,"TOWNNAME":"永康區","LI":"烏竹里","LIN":"1鄰","STREET":"龍橋街","SECT":" ","MAREA":" ","LANE":"４８６巷","ALLEY":" ","HOUSE_NO":"１１號","E_COORD97":174457.04000000001,"N_COORD97":2549378.1699999999,"ADDRESS":"龍橋街４８６巷１１號","OBJECTID":341578},"geometry":{"x":174457.04000000097,"y":2549378.1699999999}},{"attributes":{"ID":341588,"DIS_CODE":0,"TOWNNAME":"永康區","LI":"烏竹里","LIN":"1鄰","STREET":"烏竹北街","SECT":" ","MAREA":" ","LANE":"９８巷","ALLEY":" ","HOUSE_NO":"１３號","E_COORD97":174456.29000000001,"N_COORD97":2549555.5,"ADDRESS":"烏竹北街９８巷１３號","OBJECTID":341579},"geometry":{"x":174456.29000000004,"y":2549555.5000000019}},{"attributes":{"ID":341589,"DIS_CODE":0,"TOWNNAME":"永康區","LI":"神洲里","LIN":"1鄰","STREET":"忠孝路","SECT":" ","MAREA":" ","LANE":"２２巷","ALLEY":" ","HOUSE_NO":"６號","E_COORD97":172110.54000000001,"N_COORD97":2544602.9900000002,"ADDRESS":"忠孝路２２巷６號","OBJECTID":341580},"geometry":{"x":172110.54000000097,"y":2544602.9900000002}},{"attributes":{"ID":341590,"DIS_CODE":0,"TOWNNAME":"永康區","LI":"烏竹里","LIN":"1鄰","STREET":"烏竹北街","SECT":" ","MAREA":" ","LANE":"９８巷","ALLEY":" ","HOUSE_NO":"３７號","E_COORD97":174484.29000000001,"N_COORD97":2549579.4900000002,"ADDRESS":"烏竹北街９８巷３７號","OBJECTID":341581},"geometry":{"x":174484.29000000097,"y":2549579.4900000021}},{"attributes":{"ID":341591,"DIS_CODE":0,"TOWNNAME":"永康區","LI":"東橋里","LIN":"1鄰","STREET":"中山南路","SECT":" ","MAREA":" ","LANE":"１９５巷","ALLEY":" ","HOUSE_NO":"８２號","E_COORD97":171352.04999999999,"N_COORD97":2546561.5299999998,"ADDRESS":"中山南路１９５巷８２號","OBJECTID":341582},"geometry":{"x":171352.04999999981,"y":2546561.5299999993}},{"attributes":{"ID":341592,"DIS_CODE":0,"TOWNNAME":"永康區","LI":"南灣里","LIN":"1鄰","STREET":"大灣路","SECT":" ","MAREA":" ","LANE":"４３５巷","ALLEY":" ","HOUSE_NO":"６號","E_COORD97":174722.01000000001,"N_COORD97":2544753.6899999999,"ADDRESS":"大灣路４３５巷６號","OBJECTID":341583},"geometry":{"x":174722.00999999978,"y":2544753.6899999995}},{"attributes":{"ID":341593,"DIS_CODE":0,"TOWNNAME":"永康區","LI":"烏竹里","LIN":"1鄰","STREET":"烏竹北街","SECT":" ","MAREA":" ","LANE":"９８巷","ALLEY":" ","HOUSE_NO":"５３號","E_COORD97":174496.48999999999,"N_COORD97":2549601.4900000002,"ADDRESS":"烏竹北街９８巷５３號","OBJECTID":341584},"geometry":{"x":174496.49000000115,"y":2549601.4899999984}},{"attributes":{"ID":341594,"DIS_CODE":0,"TOWNNAME":"南區","LI":"新興里","LIN":"1鄰","STREET":"五妃街","SECT":" ","MAREA":" ","LANE":"３９７巷","ALLEY":" ","HOUSE_NO":"７號","E_COORD97":167649.26999999999,"N_COORD97":2542561.6899999999,"ADDRESS":"五妃街３９７巷７號","OBJECTID":341585},"geometry":{"x":167649.26999999955,"y":2542561.6900000013}},{"attributes":{"ID":341595,"DIS_CODE":0,"TOWNNAME":"永康區","LI":"烏竹里","LIN":"1鄰","STREET":"烏竹北街","SECT":" ","MAREA":" ","LANE":"９８巷","ALLEY":" ","HOUSE_NO":"７１號","E_COORD97":174533.79999999999,"N_COORD97":2549606.9199999999,"ADDRESS":"烏竹北街９８巷７１號","OBJECTID":341586},"geometry":{"x":174533.79999999981,"y":2549606.9200000018}},{"attributes":{"ID":341596,"DIS_CODE":0,"TOWNNAME":"永康區","LI":"埔園里","LIN":"1鄰","STREET":"埔聖街","SECT":" ","MAREA":" ","LANE":"１３巷","ALLEY":" ","HOUSE_NO":"９號","E_COORD97":173858.29000000001,"N_COORD97":2547623.9900000002,"ADDRESS":"埔聖街１３巷９號","OBJECTID":341587},"geometry":{"x":173858.29000000097,"y":2547623.9900000002}},{"attributes":{"ID":341597,"DIS_CODE":0,"TOWNNAME":"永康區","LI":"神洲里","LIN":"1鄰","STREET":"忠孝路","SECT":" ","MAREA":" ","LANE":"６巷","ALLEY":" ","HOUSE_NO":"９號","E_COORD97":172128.07000000001,"N_COORD97":2544583.75,"ADDRESS":"忠孝路６巷９號","OBJECTID":341588},"geometry":{"x":172128.07000000123,"y":2544583.75}},{"attributes":{"ID":341598,"DIS_CODE":0,"TOWNNAME":"永康區","LI":"東灣里","LIN":"1鄰","STREET":"南灣街","SECT":" ","MAREA":" ","LANE":"６０巷","ALLEY":" ","HOUSE_NO":"４號","E_COORD97":174557.07000000001,"N_COORD97":2544959.3399999999,"ADDRESS":"南灣街６０巷４號","OBJECTID":341589},"geometry":{"x":174557.07000000123,"y":2544959.3399999999}},{"attributes":{"ID":341599,"DIS_CODE":0,"TOWNNAME":"永康區","LI":"東橋里","LIN":"1鄰","STREET":"中山南路","SECT":" ","MAREA":" ","LANE":"１９５巷","ALLEY":" ","HOUSE_NO":"５３號","E_COORD97":171389.42999999999,"N_COORD97":2546483.2400000002,"ADDRESS":"中山南路１９５巷５３號","OBJECTID":341590},"geometry":{"x":171389.4299999997,"y":2546483.2400000002}},{"attributes":{"ID":341600,"DIS_CODE":0,"TOWNNAME":"永康區","LI":"埔園里","LIN":"1鄰","STREET":"埔聖街","SECT":" ","MAREA":" ","LANE":"８１巷","ALLEY":" ","HOUSE_NO":"２１號","E_COORD97":174073.95000000001,"N_COORD97":2547685.3900000001,"ADDRESS":"埔聖街８１巷２１號","OBJECTID":341591},"geometry":{"x":174073.95000000019,"y":2547685.3900000025}},{"attributes":{"ID":341601,"DIS_CODE":0,"TOWNNAME":"永康區","LI":"埔園里","LIN":"1鄰","STREET":"埔聖街","SECT":" ","MAREA":" ","LANE":"８１巷","ALLEY":" ","HOUSE_NO":"１９號","E_COORD97":174076.14000000001,"N_COORD97":2547681.8900000001,"ADDRESS":"埔聖街８１巷１９號","OBJECTID":341592},"geometry":{"x":174076.1400000006,"y":2547681.8900000025}},{"attributes":{"ID":341602,"DIS_CODE":0,"TOWNNAME":"永康區","LI":"烏竹里","LIN":"1鄰","STREET":"烏竹街","SECT":" ","MAREA":" ","LANE":"１５２巷","ALLEY":" ","HOUSE_NO":"７號","E_COORD97":174422.95000000001,"N_COORD97":2549531.75,"ADDRESS":"烏竹街１５２巷７號","OBJECTID":341593},"geometry":{"x":174422.95000000019,"y":2549531.7499999981}},{"attributes":{"ID":341603,"DIS_CODE":0,"TOWNNAME":"永康區","LI":"埔園里","LIN":"1鄰","STREET":"埔聖街","SECT":" ","MAREA":" ","LANE":"８１巷","ALLEY":" ","HOUSE_NO":"１３號","E_COORD97":174082.44,"N_COORD97":2547670.6400000001,"ADDRESS":"埔聖街８１巷１３號","OBJECTID":341594},"geometry":{"x":174082.44000000041,"y":2547670.6400000006}},{"attributes":{"ID":341604,"DIS_CODE":0,"TOWNNAME":"永康區","LI":"烏竹里","LIN":"1鄰","STREET":"烏竹北街","SECT":" ","MAREA":" ","LANE":"９８巷","ALLEY":" ","HOUSE_NO":"５５號","E_COORD97":174493.73999999999,"N_COORD97":2549604.4900000002,"ADDRESS":"烏竹北街９８巷５５號","OBJECTID":341595},"geometry":{"x":174493.74000000022,"y":2549604.4900000002}},{"attributes":{"ID":341605,"DIS_CODE":0,"TOWNNAME":"永康區","LI":"東灣里","LIN":"1鄰","STREET":"南灣街","SECT":" ","MAREA":" ","LANE":"６０巷","ALLEY":" ","HOUSE_NO":"２號","E_COORD97":174553.03,"N_COORD97":2544949.0800000001,"ADDRESS":"南灣街６０巷２號","OBJECTID":341596},"geometry":{"x":174553.03000000026,"y":2544949.0800000001}},{"attributes":{"ID":341606,"DIS_CODE":0,"TOWNNAME":"永康區","LI":"烏竹里","LIN":"1鄰","STREET":"烏竹街","SECT":" ","MAREA":" ","LANE":"１５２巷","ALLEY":" ","HOUSE_NO":"９號","E_COORD97":174432.29999999999,"N_COORD97":2549537.75,"ADDRESS":"烏竹街１５２巷９號","OBJECTID":341597},"geometry":{"x":174432.29999999888,"y":2549537.75}},{"attributes":{"ID":341607,"DIS_CODE":0,"TOWNNAME":"永康區","LI":"埔園里","LIN":"1鄰","STREET":"埔聖街","SECT":" ","MAREA":" ","LANE":"２５巷","ALLEY":" ","HOUSE_NO":"１８號","E_COORD97":173894.38,"N_COORD97":2547639.2400000002,"ADDRESS":"埔聖街２５巷１８號","OBJECTID":341598},"geometry":{"x":173894.37999999989,"y":2547639.2400000002}},{"attributes":{"ID":341608,"DIS_CODE":0,"TOWNNAME":"永康區","LI":"烏竹里","LIN":"1鄰","STREET":"烏竹北街","SECT":" ","MAREA":" ","LANE":"９８巷","ALLEY":" ","HOUSE_NO":"６３號","E_COORD97":174518.28,"N_COORD97":2549624.2799999998,"ADDRESS":"烏竹北街９８巷６３號","OBJECTID":341599},"geometry":{"x":174518.28000000119,"y":2549624.2799999993}},{"attributes":{"ID":341609,"DIS_CODE":0,"TOWNNAME":"永康區","LI":"烏竹里","LIN":"1鄰","STREET":"烏竹北街","SECT":" ","MAREA":" ","LANE":"９８巷","ALLEY":" ","HOUSE_NO":"５９號","E_COORD97":174511.79999999999,"N_COORD97":2549619.0299999998,"ADDRESS":"烏竹北街９８巷５９號","OBJECTID":341600},"geometry":{"x":174511.79999999981,"y":2549619.0300000012}}]}