{"displayFieldName":"TOWNNAME","fieldAliases":{"ID":"ID","DIS_CODE":"DIS_CODE","TOWNNAME":"TOWNNAME","LI":"LI","LIN":"LIN","STREET":"STREET","SECT":"SECT","MAREA":"MAREA","LANE":"LANE","ALLEY":"ALLEY","HOUSE_NO":"HOUSE_NO","E_COORD97":"E_COORD97","N_COORD97":"N_COORD97","ADDRESS":"ADDRESS","OBJECTID":"OBJECTID"},"geometryType":"esriGeometryPoint","spatialReference":{"wkid":102443,"latestWkid":3826},"fields":[{"name":"ID","type":"esriFieldTypeDouble","alias":"ID"},{"name":"DIS_CODE","type":"esriFieldTypeInteger","alias":"DIS_CODE"},{"name":"TOWNNAME","type":"esriFieldTypeString","alias":"TOWNNAME","length":8},{"name":"LI","type":"esriFieldTypeString","alias":"LI","length":8},{"name":"LIN","type":"esriFieldTypeString","alias":"LIN","length":12},{"name":"STREET","type":"esriFieldTypeString","alias":"STREET","length":20},{"name":"SECT","type":"esriFieldTypeString","alias":"SECT","length":8},{"name":"MAREA","type":"esriFieldTypeString","alias":"MAREA","length":12},{"name":"LANE","type":"esriFieldTypeString","alias":"LANE","length":10},{"name":"ALLEY","type":"esriFieldTypeString","alias":"ALLEY","length":10},{"name":"HOUSE_NO","type":"esriFieldTypeString","alias":"HOUSE_NO","length":20},{"name":"E_COORD97","type":"esriFieldTypeDouble","alias":"E_COORD97"},{"name":"N_COORD97","type":"esriFieldTypeDouble","alias":"N_COORD97"},{"name":"ADDRESS","type":"esriFieldTypeString","alias":"ADDRESS","length":50},{"name":"OBJECTID","type":"esriFieldTypeOID","alias":"OBJECTID"}],"features":[{"attributes":{"ID":436826,"DIS_CODE":0,"TOWNNAME":"新營區","LI":"民榮里","LIN":"18鄰","STREET":"裕民路","SECT":" ","MAREA":" ","LANE":"５８巷","ALLEY":" ","HOUSE_NO":"４４號","E_COORD97":179021.62,"N_COORD97":2577838.7000000002,"ADDRESS":"裕民路５８巷４４號","OBJECTID":436801},"geometry":{"x":179021.62000000104,"y":2577838.7000000011}},{"attributes":{"ID":436827,"DIS_CODE":0,"TOWNNAME":"山上區","LI":"明和里","LIN":"19鄰","STREET":" ","SECT":" ","MAREA":"明和","LANE":" ","ALLEY":" ","HOUSE_NO":"５２號之６","E_COORD97":183277.49120799999,"N_COORD97":2555947.6064200001,"ADDRESS":"明和５２號之６","OBJECTID":436802},"geometry":{"x":183277.49120800104,"y":2555947.6064230017}},{"attributes":{"ID":436828,"DIS_CODE":0,"TOWNNAME":"新營區","LI":"南興里","LIN":"25鄰","STREET":"和平路","SECT":" ","MAREA":" ","LANE":"９５巷","ALLEY":" ","HOUSE_NO":"４０號之１","E_COORD97":179555.51000000001,"N_COORD97":2577591.4700000002,"ADDRESS":"和平路９５巷４０號之１","OBJECTID":436803},"geometry":{"x":179555.51000000164,"y":2577591.4700000025}},{"attributes":{"ID":436829,"DIS_CODE":0,"TOWNNAME":"新營區","LI":"南興里","LIN":"10鄰","STREET":"和平路","SECT":" ","MAREA":" ","LANE":"１０４巷","ALLEY":" ","HOUSE_NO":"６號之２","E_COORD97":179386.67999999999,"N_COORD97":2577565.6800000002,"ADDRESS":"和平路１０４巷６之２號","OBJECTID":436804},"geometry":{"x":179386.68000000063,"y":2577565.6799999997}},{"attributes":{"ID":436830,"DIS_CODE":0,"TOWNNAME":"新營區","LI":"民榮里","LIN":" ","STREET":"裕民路","SECT":" ","MAREA":" ","LANE":"５８巷","ALLEY":" ","HOUSE_NO":"４４之２號","E_COORD97":179017.98000000001,"N_COORD97":2577838.7799999998,"ADDRESS":"裕民路５８巷４４之２號","OBJECTID":436805},"geometry":{"x":179017.98000000138,"y":2577838.7800000012}},{"attributes":{"ID":436831,"DIS_CODE":0,"TOWNNAME":"新營區","LI":"忠政里","LIN":"20鄰","STREET":"府西路","SECT":" ","MAREA":" ","LANE":"２５７巷","ALLEY":" ","HOUSE_NO":"３號","E_COORD97":179767.60999999999,"N_COORD97":2579671.2999999998,"ADDRESS":"府西路２５７巷３號","OBJECTID":436806},"geometry":{"x":179767.61000000127,"y":2579671.3000000007}},{"attributes":{"ID":436832,"DIS_CODE":0,"TOWNNAME":"新營區","LI":"南興里","LIN":"26鄰","STREET":"和平路","SECT":" ","MAREA":" ","LANE":"１０４巷","ALLEY":" ","HOUSE_NO":"５號","E_COORD97":179381.04000000001,"N_COORD97":2577549.04,"ADDRESS":"和平路１０４巷５號","OBJECTID":436807},"geometry":{"x":179381.0400000019,"y":2577549.0399999991}},{"attributes":{"ID":436833,"DIS_CODE":0,"TOWNNAME":"新營區","LI":"埤寮里","LIN":"13鄰","STREET":"中正路","SECT":" ","MAREA":" ","LANE":"４７９巷","ALLEY":" ","HOUSE_NO":"２號","E_COORD97":179834.89999999999,"N_COORD97":2580492.71,"ADDRESS":"中正路４７９巷２號","OBJECTID":436808},"geometry":{"x":179834.90000000224,"y":2580492.7100000009}},{"attributes":{"ID":436834,"DIS_CODE":0,"TOWNNAME":"新營區","LI":"南興里","LIN":"4鄰","STREET":"和平路","SECT":" ","MAREA":" ","LANE":"９５巷","ALLEY":" ","HOUSE_NO":"３６號之３","E_COORD97":179533.39000000001,"N_COORD97":2577592.6800000002,"ADDRESS":"和平路９５巷３６之３號","OBJECTID":436809},"geometry":{"x":179533.38999999966,"y":2577592.6799999997}},{"attributes":{"ID":436835,"DIS_CODE":0,"TOWNNAME":"新營區","LI":"民生里","LIN":" ","STREET":"三民路","SECT":" ","MAREA":" ","LANE":"１８６巷","ALLEY":" ","HOUSE_NO":"２之９號","E_COORD97":179204.76000000001,"N_COORD97":2578228.8100000001,"ADDRESS":"三民路１８６巷２之９號","OBJECTID":436810},"geometry":{"x":179204.76000000071,"y":2578228.8100000024}},{"attributes":{"ID":436836,"DIS_CODE":0,"TOWNNAME":"新營區","LI":"忠政里","LIN":"14鄰","STREET":"府西路","SECT":" ","MAREA":" ","LANE":"２３０巷","ALLEY":" ","HOUSE_NO":"６號","E_COORD97":179834.69,"N_COORD97":2579598.9900000002,"ADDRESS":"府西路２３０巷６號","OBJECTID":436811},"geometry":{"x":179834.69000000227,"y":2579598.9900000002}},{"attributes":{"ID":436837,"DIS_CODE":0,"TOWNNAME":"新營區","LI":"興業里","LIN":" ","STREET":"公誠街","SECT":" ","MAREA":" ","LANE":"１７巷","ALLEY":" ","HOUSE_NO":"２之４號","E_COORD97":180301.84,"N_COORD97":2577913.5299999998,"ADDRESS":"公誠街１７巷２之４號","OBJECTID":436812},"geometry":{"x":180301.83999999985,"y":2577913.5300000031}},{"attributes":{"ID":436838,"DIS_CODE":0,"TOWNNAME":"新化區","LI":"武安里","LIN":"8鄰","STREET":"和平街","SECT":" ","MAREA":" ","LANE":"１４０巷","ALLEY":" ","HOUSE_NO":"１號","E_COORD97":178926.32000000001,"N_COORD97":2548207.25,"ADDRESS":"和平街１４０巷１號","OBJECTID":436813},"geometry":{"x":178926.3200000003,"y":2548207.2500000019}},{"attributes":{"ID":436839,"DIS_CODE":0,"TOWNNAME":"新營區","LI":"南興里","LIN":" ","STREET":"興農街","SECT":" ","MAREA":" ","LANE":"１４０巷","ALLEY":" ","HOUSE_NO":"９之２號","E_COORD97":179214.59,"N_COORD97":2577524.4199999999,"ADDRESS":"興農街１４０巷９之２號","OBJECTID":436814},"geometry":{"x":179214.59000000078,"y":2577524.4199999999}},{"attributes":{"ID":436840,"DIS_CODE":0,"TOWNNAME":"新營區","LI":"南興里","LIN":" ","STREET":"興農街","SECT":" ","MAREA":" ","LANE":"１４０巷","ALLEY":" ","HOUSE_NO":"５之４號","E_COORD97":179231,"N_COORD97":2577524.3500000001,"ADDRESS":"興農街１４０巷５之４號","OBJECTID":436815},"geometry":{"x":179231.00000000093,"y":2577524.3499999996}},{"attributes":{"ID":436841,"DIS_CODE":0,"TOWNNAME":"新營區","LI":"民生里","LIN":"26鄰","STREET":"民生路","SECT":" ","MAREA":" ","LANE":"１６３巷","ALLEY":" ","HOUSE_NO":"３１號","E_COORD97":179120.57000000001,"N_COORD97":2578634.4900000002,"ADDRESS":"民生路１６３巷３１號","OBJECTID":436816},"geometry":{"x":179120.57000000123,"y":2578634.4900000021}},{"attributes":{"ID":436842,"DIS_CODE":0,"TOWNNAME":"新營區","LI":"民權里","LIN":"4鄰","STREET":"中正路","SECT":" ","MAREA":" ","LANE":"９巷","ALLEY":" ","HOUSE_NO":"１８號之３","E_COORD97":179948.12,"N_COORD97":2578413.5499999998,"ADDRESS":"中正路９巷１８號之３","OBJECTID":436817},"geometry":{"x":179948.12000000011,"y":2578413.5500000045}},{"attributes":{"ID":436843,"DIS_CODE":0,"TOWNNAME":"新營區","LI":"興業里","LIN":"10鄰","STREET":"公誠街","SECT":" ","MAREA":" ","LANE":"６巷","ALLEY":" ","HOUSE_NO":"１號之１","E_COORD97":180280.70000000001,"N_COORD97":2578000.0099999998,"ADDRESS":"公誠街６巷１號之１","OBJECTID":436818},"geometry":{"x":180280.70000000112,"y":2578000.0100000016}},{"attributes":{"ID":436844,"DIS_CODE":0,"TOWNNAME":"新營區","LI":"民生里","LIN":"26鄰","STREET":"民生路","SECT":" ","MAREA":" ","LANE":"１６３巷","ALLEY":" ","HOUSE_NO":"２９號","E_COORD97":179131.79999999999,"N_COORD97":2578633.3300000001,"ADDRESS":"民生路１６３巷２９號","OBJECTID":436819},"geometry":{"x":179131.80000000075,"y":2578633.3300000001}},{"attributes":{"ID":436845,"DIS_CODE":0,"TOWNNAME":"新營區","LI":"興業里","LIN":" ","STREET":"中興路","SECT":" ","MAREA":" ","LANE":"１５巷","ALLEY":" ","HOUSE_NO":"１７之２號","E_COORD97":180230.5,"N_COORD97":2577934.9100000001,"ADDRESS":"中興路１５巷１７之２號","OBJECTID":436820},"geometry":{"x":180230.50000000186,"y":2577934.9100000001}},{"attributes":{"ID":436846,"DIS_CODE":0,"TOWNNAME":"新營區","LI":"興業里","LIN":" ","STREET":"新進路","SECT":" ","MAREA":" ","LANE":"２２２巷","ALLEY":" ","HOUSE_NO":"８號","E_COORD97":180409.98000000001,"N_COORD97":2577949.5,"ADDRESS":"新進路２２２巷８號","OBJECTID":436821},"geometry":{"x":180409.98000000045,"y":2577949.5000000019}},{"attributes":{"ID":436847,"DIS_CODE":0,"TOWNNAME":"新營區","LI":"興業里","LIN":" ","STREET":"公誠街","SECT":" ","MAREA":" ","LANE":"１１巷","ALLEY":" ","HOUSE_NO":"２之１號","E_COORD97":180303.09,"N_COORD97":2577960.0299999998,"ADDRESS":"公誠街１１巷２之１號","OBJECTID":436822},"geometry":{"x":180303.09000000078,"y":2577960.0299999993}},{"attributes":{"ID":436848,"DIS_CODE":0,"TOWNNAME":"新營區","LI":"興業里","LIN":" ","STREET":"公誠街","SECT":" ","MAREA":" ","LANE":"１７巷","ALLEY":" ","HOUSE_NO":"６之１號","E_COORD97":180316.14000000001,"N_COORD97":2577921.21,"ADDRESS":"公誠街１７巷６之１號","OBJECTID":436823},"geometry":{"x":180316.1400000006,"y":2577921.2100000028}},{"attributes":{"ID":436849,"DIS_CODE":0,"TOWNNAME":"新營區","LI":"民權里","LIN":"5鄰","STREET":"信義街","SECT":" ","MAREA":" ","LANE":"７２巷","ALLEY":" ","HOUSE_NO":"２號之１","E_COORD97":179936.19,"N_COORD97":2578540.96,"ADDRESS":"信義街７２巷２號之１","OBJECTID":436824},"geometry":{"x":179936.19000000041,"y":2578540.9600000028}},{"attributes":{"ID":436850,"DIS_CODE":0,"TOWNNAME":"新營區","LI":"民榮里","LIN":" ","STREET":"裕民路","SECT":" ","MAREA":" ","LANE":"５８巷","ALLEY":" ","HOUSE_NO":"３４之１號","E_COORD97":179037.5,"N_COORD97":2577853.0800000001,"ADDRESS":"裕民路５８巷３４之１號","OBJECTID":436825},"geometry":{"x":179037.50000000093,"y":2577853.0800000038}},{"attributes":{"ID":436851,"DIS_CODE":0,"TOWNNAME":"新營區","LI":"興業里","LIN":" ","STREET":"公誠街","SECT":" ","MAREA":" ","LANE":"９巷","ALLEY":" ","HOUSE_NO":"３之２號","E_COORD97":180312.57999999999,"N_COORD97":2578018.6800000002,"ADDRESS":"公誠街９巷３之２號","OBJECTID":436826},"geometry":{"x":180312.58000000007,"y":2578018.6800000016}},{"attributes":{"ID":436852,"DIS_CODE":0,"TOWNNAME":"新營區","LI":"民榮里","LIN":" ","STREET":"裕民路","SECT":" ","MAREA":" ","LANE":"５８巷","ALLEY":" ","HOUSE_NO":"３０之１號","E_COORD97":179048.75,"N_COORD97":2577853.0299999998,"ADDRESS":"裕民路５８巷３０之１號","OBJECTID":436827},"geometry":{"x":179048.75,"y":2577853.0300000012}},{"attributes":{"ID":436853,"DIS_CODE":0,"TOWNNAME":"新營區","LI":"民權里","LIN":"4鄰","STREET":"中正路","SECT":" ","MAREA":" ","LANE":"９巷","ALLEY":" ","HOUSE_NO":"３８號","E_COORD97":179989.04999999999,"N_COORD97":2578435.4500000002,"ADDRESS":"中正路９巷３８號","OBJECTID":436828},"geometry":{"x":179989.04999999981,"y":2578435.4499999993}},{"attributes":{"ID":436854,"DIS_CODE":0,"TOWNNAME":"新營區","LI":"民權里","LIN":"4鄰","STREET":"中正路","SECT":" ","MAREA":" ","LANE":"９巷","ALLEY":" ","HOUSE_NO":"２０號","E_COORD97":179960.32000000001,"N_COORD97":2578420.0800000001,"ADDRESS":"中正路９巷２０號","OBJECTID":436829},"geometry":{"x":179960.3200000003,"y":2578420.0800000019}},{"attributes":{"ID":436855,"DIS_CODE":0,"TOWNNAME":"新營區","LI":"民榮里","LIN":" ","STREET":"裕民路","SECT":" ","MAREA":" ","LANE":"５８巷","ALLEY":" ","HOUSE_NO":"３２之１號","E_COORD97":179049.70999999999,"N_COORD97":2577838.6299999999,"ADDRESS":"裕民路５８巷３２之１號","OBJECTID":436830},"geometry":{"x":179049.71000000089,"y":2577838.6300000008}},{"attributes":{"ID":436856,"DIS_CODE":0,"TOWNNAME":"新營區","LI":"民生里","LIN":"25鄰","STREET":"民生路","SECT":" ","MAREA":" ","LANE":"１６３巷","ALLEY":" ","HOUSE_NO":"１７號","E_COORD97":179161.45000000001,"N_COORD97":2578646.4700000002,"ADDRESS":"民生路１６３巷１７號","OBJECTID":436831},"geometry":{"x":179161.45000000205,"y":2578646.4700000007}},{"attributes":{"ID":436857,"DIS_CODE":0,"TOWNNAME":"新營區","LI":"民權里","LIN":"4鄰","STREET":"中正路","SECT":" ","MAREA":" ","LANE":"９巷","ALLEY":" ","HOUSE_NO":"３６號","E_COORD97":179993.10000000001,"N_COORD97":2578425.46,"ADDRESS":"中正路９巷３６號","OBJECTID":436832},"geometry":{"x":179993.09999999963,"y":2578425.4600000028}},{"attributes":{"ID":436858,"DIS_CODE":0,"TOWNNAME":"新營區","LI":"忠政里","LIN":" ","STREET":"中正路","SECT":" ","MAREA":" ","LANE":"３７巷","ALLEY":" ","HOUSE_NO":"１５２之１號","E_COORD97":179880.47,"N_COORD97":2579142.5800000001,"ADDRESS":"中正路３７巷１５２之１號","OBJECTID":436833},"geometry":{"x":179880.46999999974,"y":2579142.5800000019}},{"attributes":{"ID":436859,"DIS_CODE":0,"TOWNNAME":"新營區","LI":"南興里","LIN":" ","STREET":"興農街","SECT":" ","MAREA":" ","LANE":"１４０巷","ALLEY":" ","HOUSE_NO":"２３之３號","E_COORD97":179155.59,"N_COORD97":2577526.9300000002,"ADDRESS":"興農街１４０巷２３之３號","OBJECTID":436834},"geometry":{"x":179155.59000000078,"y":2577526.9299999997}},{"attributes":{"ID":436860,"DIS_CODE":0,"TOWNNAME":"新營區","LI":"民榮里","LIN":"5鄰","STREET":"興農街","SECT":" ","MAREA":" ","LANE":"４７巷","ALLEY":" ","HOUSE_NO":"１５號","E_COORD97":179279.32999999999,"N_COORD97":2577843,"ADDRESS":"興農街４７巷１５號","OBJECTID":436835},"geometry":{"x":179279.33000000101,"y":2577843}},{"attributes":{"ID":436861,"DIS_CODE":0,"TOWNNAME":"新營區","LI":"三仙里","LIN":"14鄰","STREET":"中華路","SECT":" ","MAREA":" ","LANE":"５２巷","ALLEY":" ","HOUSE_NO":"２１號","E_COORD97":179504.41,"N_COORD97":2578267.1899999999,"ADDRESS":"中華路５２巷２１號","OBJECTID":436836},"geometry":{"x":179504.41000000108,"y":2578267.1899999995}},{"attributes":{"ID":436862,"DIS_CODE":0,"TOWNNAME":"新營區","LI":"南興里","LIN":" ","STREET":"興農街","SECT":" ","MAREA":" ","LANE":"１４０巷","ALLEY":" ","HOUSE_NO":"３之２號","E_COORD97":179243.35000000001,"N_COORD97":2577524.29,"ADDRESS":"興農街１４０巷３之２號","OBJECTID":436837},"geometry":{"x":179243.35000000056,"y":2577524.2899999991}},{"attributes":{"ID":436863,"DIS_CODE":0,"TOWNNAME":"新營區","LI":"南興里","LIN":" ","STREET":"興農街","SECT":" ","MAREA":" ","LANE":"１４０巷","ALLEY":" ","HOUSE_NO":"２３之２號","E_COORD97":179155.59,"N_COORD97":2577526.9300000002,"ADDRESS":"興農街１４０巷２３之２號","OBJECTID":436838},"geometry":{"x":179155.59000000078,"y":2577526.9299999997}},{"attributes":{"ID":436864,"DIS_CODE":0,"TOWNNAME":"新營區","LI":"民榮里","LIN":" ","STREET":"興農街","SECT":" ","MAREA":" ","LANE":"４７巷","ALLEY":" ","HOUSE_NO":"４７號","E_COORD97":179291.06,"N_COORD97":2577710.0600000001,"ADDRESS":"興農街４７巷４７號","OBJECTID":436839},"geometry":{"x":179291.06000000052,"y":2577710.0600000005}},{"attributes":{"ID":436865,"DIS_CODE":0,"TOWNNAME":"新營區","LI":"新北里","LIN":"20鄰","STREET":"民生路","SECT":" ","MAREA":" ","LANE":"３３０巷","ALLEY":" ","HOUSE_NO":"１３號","E_COORD97":178971.70999999999,"N_COORD97":2579180.0699999998,"ADDRESS":"民生路３３０巷１３號","OBJECTID":436840},"geometry":{"x":178971.71000000089,"y":2579180.0700000022}},{"attributes":{"ID":436866,"DIS_CODE":0,"TOWNNAME":"新營區","LI":"興業里","LIN":" ","STREET":"中興路","SECT":" ","MAREA":" ","LANE":"１５巷","ALLEY":" ","HOUSE_NO":"３之１號","E_COORD97":180156.73000000001,"N_COORD97":2577938.5699999998,"ADDRESS":"中興路１５巷３之１號","OBJECTID":436841},"geometry":{"x":180156.73000000138,"y":2577938.5700000022}},{"attributes":{"ID":436867,"DIS_CODE":0,"TOWNNAME":"新營區","LI":"興業里","LIN":" ","STREET":"公誠街","SECT":" ","MAREA":" ","LANE":"９巷","ALLEY":" ","HOUSE_NO":"４之２號","E_COORD97":180312.51000000001,"N_COORD97":2578004.29,"ADDRESS":"公誠街９巷４之２號","OBJECTID":436842},"geometry":{"x":180312.50999999978,"y":2578004.290000001}},{"attributes":{"ID":436868,"DIS_CODE":0,"TOWNNAME":"新營區","LI":"民權里","LIN":"5鄰","STREET":"信義街","SECT":" ","MAREA":" ","LANE":"７２巷","ALLEY":" ","HOUSE_NO":"４號之２","E_COORD97":179946.57000000001,"N_COORD97":2578540.9100000001,"ADDRESS":"信義街７２巷４號之２","OBJECTID":436843},"geometry":{"x":179946.5700000003,"y":2578540.9100000001}},{"attributes":{"ID":436869,"DIS_CODE":0,"TOWNNAME":"新營區","LI":"民榮里","LIN":" ","STREET":"興農街","SECT":" ","MAREA":" ","LANE":"４７巷","ALLEY":" ","HOUSE_NO":"４９號","E_COORD97":179291.03,"N_COORD97":2577705.6299999999,"ADDRESS":"興農街４７巷４９號","OBJECTID":436844},"geometry":{"x":179291.03000000026,"y":2577705.6300000027}},{"attributes":{"ID":436870,"DIS_CODE":0,"TOWNNAME":"新營區","LI":"興業里","LIN":" ","STREET":"公誠街","SECT":" ","MAREA":" ","LANE":"９巷","ALLEY":" ","HOUSE_NO":"４之３號","E_COORD97":180312.51000000001,"N_COORD97":2578004.29,"ADDRESS":"公誠街９巷４之３號","OBJECTID":436845},"geometry":{"x":180312.50999999978,"y":2578004.290000001}},{"attributes":{"ID":436871,"DIS_CODE":0,"TOWNNAME":"新營區","LI":"興業里","LIN":" ","STREET":"公誠街","SECT":" ","MAREA":" ","LANE":"１１巷","ALLEY":" ","HOUSE_NO":"４之３號","E_COORD97":180313.32000000001,"N_COORD97":2577959.98,"ADDRESS":"公誠街１１巷４之３號","OBJECTID":436846},"geometry":{"x":180313.31999999937,"y":2577959.9800000023}},{"attributes":{"ID":436872,"DIS_CODE":0,"TOWNNAME":"新營區","LI":"興業里","LIN":" ","STREET":"中興路","SECT":" ","MAREA":" ","LANE":"１５巷","ALLEY":" ","HOUSE_NO":"１７之３號","E_COORD97":180230.5,"N_COORD97":2577934.9100000001,"ADDRESS":"中興路１５巷１７之３號","OBJECTID":436847},"geometry":{"x":180230.50000000186,"y":2577934.9100000001}},{"attributes":{"ID":436873,"DIS_CODE":0,"TOWNNAME":"新營區","LI":"興業里","LIN":" ","STREET":"公誠街","SECT":" ","MAREA":" ","LANE":"１１巷","ALLEY":" ","HOUSE_NO":"４之２號","E_COORD97":180313.32000000001,"N_COORD97":2577959.98,"ADDRESS":"公誠街１１巷４之２號","OBJECTID":436848},"geometry":{"x":180313.31999999937,"y":2577959.9800000023}},{"attributes":{"ID":436874,"DIS_CODE":0,"TOWNNAME":"新營區","LI":"興業里","LIN":" ","STREET":"公誠街","SECT":" ","MAREA":" ","LANE":"１１巷","ALLEY":" ","HOUSE_NO":"４之４號","E_COORD97":180313.32000000001,"N_COORD97":2577959.98,"ADDRESS":"公誠街１１巷４之４號","OBJECTID":436849},"geometry":{"x":180313.31999999937,"y":2577959.9800000023}},{"attributes":{"ID":436875,"DIS_CODE":0,"TOWNNAME":"新營區","LI":"民榮里","LIN":"13鄰","STREET":"興農街","SECT":" ","MAREA":" ","LANE":"４７巷","ALLEY":" ","HOUSE_NO":"１６號","E_COORD97":179270.42000000001,"N_COORD97":2577690.2200000002,"ADDRESS":"興農街４７巷１６號","OBJECTID":436850},"geometry":{"x":179270.42000000086,"y":2577690.2200000025}},{"attributes":{"ID":436876,"DIS_CODE":0,"TOWNNAME":"新營區","LI":"南興里","LIN":"17鄰","STREET":"興農街","SECT":" ","MAREA":" ","LANE":"１４０巷","ALLEY":" ","HOUSE_NO":"２３號","E_COORD97":179160.25,"N_COORD97":2577526.8399999999,"ADDRESS":"興農街１４０巷２３號","OBJECTID":436851},"geometry":{"x":179160.25,"y":2577526.8400000017}},{"attributes":{"ID":436877,"DIS_CODE":0,"TOWNNAME":"新營區","LI":"民榮里","LIN":" ","STREET":"興農街","SECT":" ","MAREA":" ","LANE":"２５巷","ALLEY":" ","HOUSE_NO":"５號","E_COORD97":179284.66,"N_COORD97":2577930.46,"ADDRESS":"興農街２５巷５號","OBJECTID":436852},"geometry":{"x":179284.66000000015,"y":2577930.4600000028}},{"attributes":{"ID":436878,"DIS_CODE":0,"TOWNNAME":"新營區","LI":"興業里","LIN":" ","STREET":"公誠街","SECT":" ","MAREA":" ","LANE":"９巷","ALLEY":" ","HOUSE_NO":"４之１號","E_COORD97":180312.51000000001,"N_COORD97":2578004.29,"ADDRESS":"公誠街９巷４之１號","OBJECTID":436853},"geometry":{"x":180312.50999999978,"y":2578004.290000001}},{"attributes":{"ID":436879,"DIS_CODE":0,"TOWNNAME":"新營區","LI":"民權里","LIN":" ","STREET":"信義街","SECT":" ","MAREA":" ","LANE":"７２巷","ALLEY":" ","HOUSE_NO":"６之１號","E_COORD97":179961,"N_COORD97":2578529.77,"ADDRESS":"信義街７２巷６之１號","OBJECTID":436854},"geometry":{"x":179961.00000000186,"y":2578529.7700000014}},{"attributes":{"ID":436880,"DIS_CODE":0,"TOWNNAME":"新營區","LI":"新北里","LIN":" ","STREET":"民治路","SECT":" ","MAREA":" ","LANE":"１５６巷","ALLEY":" ","HOUSE_NO":"４８號","E_COORD97":179113.17000000001,"N_COORD97":2578799.5299999998,"ADDRESS":"民治路１５６巷４８號","OBJECTID":436855},"geometry":{"x":179113.16999999993,"y":2578799.5300000012}},{"attributes":{"ID":436881,"DIS_CODE":0,"TOWNNAME":"新營區","LI":"民榮里","LIN":" ","STREET":"裕民路","SECT":" ","MAREA":" ","LANE":"５８巷","ALLEY":" ","HOUSE_NO":"２８之３號","E_COORD97":179052.75,"N_COORD97":2577838.6099999999,"ADDRESS":"裕民路５８巷２８之３號","OBJECTID":436856},"geometry":{"x":179052.75000000093,"y":2577838.6100000031}},{"attributes":{"ID":436882,"DIS_CODE":0,"TOWNNAME":"新營區","LI":"延平里","LIN":"17鄰","STREET":"長春街","SECT":" ","MAREA":" ","LANE":"１３４巷","ALLEY":" ","HOUSE_NO":"３６號之１","E_COORD97":179511.32999999999,"N_COORD97":2577900.6600000001,"ADDRESS":"長春街１３４巷３６號之１","OBJECTID":436857},"geometry":{"x":179511.33000000194,"y":2577900.660000002}},{"attributes":{"ID":436883,"DIS_CODE":0,"TOWNNAME":"新營區","LI":"新東里","LIN":"24鄰","STREET":"民治路","SECT":" ","MAREA":" ","LANE":" ","ALLEY":" ","HOUSE_NO":"６之６１號","E_COORD97":180606.14999999999,"N_COORD97":2579072.71,"ADDRESS":"民治路６之６１號","OBJECTID":436858},"geometry":{"x":180606.15000000224,"y":2579072.7100000009}},{"attributes":{"ID":436884,"DIS_CODE":0,"TOWNNAME":"新營區","LI":"興業里","LIN":" ","STREET":"中興路","SECT":" ","MAREA":" ","LANE":"１５巷","ALLEY":" ","HOUSE_NO":"９之３號","E_COORD97":180188.31,"N_COORD97":2577937.3100000001,"ADDRESS":"中興路１５巷９之３號","OBJECTID":436859},"geometry":{"x":180188.30999999959,"y":2577937.3100000024}},{"attributes":{"ID":436885,"DIS_CODE":0,"TOWNNAME":"新營區","LI":"忠政里","LIN":"26鄰","STREET":"府西路","SECT":" ","MAREA":" ","LANE":"１５９巷","ALLEY":" ","HOUSE_NO":"９號","E_COORD97":179759,"N_COORD97":2579391.1499999999,"ADDRESS":"府西路１５９巷９號","OBJECTID":436860},"geometry":{"x":179759,"y":2579391.1500000004}},{"attributes":{"ID":436886,"DIS_CODE":0,"TOWNNAME":"新營區","LI":"民生里","LIN":"25鄰","STREET":"民生路","SECT":" ","MAREA":" ","LANE":"１３９巷","ALLEY":" ","HOUSE_NO":"１２號","E_COORD97":179193.98000000001,"N_COORD97":2578605.3399999999,"ADDRESS":"民生路１３９巷１２號","OBJECTID":436861},"geometry":{"x":179193.98000000138,"y":2578605.3400000017}},{"attributes":{"ID":436887,"DIS_CODE":0,"TOWNNAME":"新營區","LI":"興業里","LIN":" ","STREET":"中興路","SECT":" ","MAREA":" ","LANE":"１５巷","ALLEY":" ","HOUSE_NO":"１１之３號","E_COORD97":180199.82999999999,"N_COORD97":2577937.27,"ADDRESS":"中興路１５巷１１之３號","OBJECTID":436862},"geometry":{"x":180199.83000000101,"y":2577937.2700000014}},{"attributes":{"ID":436888,"DIS_CODE":0,"TOWNNAME":"新營區","LI":"興業里","LIN":" ","STREET":"中興路","SECT":" ","MAREA":" ","LANE":"１３巷","ALLEY":" ","HOUSE_NO":"４之１號","E_COORD97":180155.82000000001,"N_COORD97":2577964.04,"ADDRESS":"中興路１３巷４之１號","OBJECTID":436863},"geometry":{"x":180155.82000000216,"y":2577964.0400000028}},{"attributes":{"ID":436889,"DIS_CODE":0,"TOWNNAME":"新營區","LI":"新東里","LIN":"25鄰","STREET":"民族路","SECT":" ","MAREA":" ","LANE":"１５０巷","ALLEY":" ","HOUSE_NO":"６２號","E_COORD97":180622.16,"N_COORD97":2579316.21,"ADDRESS":"民族路１５０巷６２號","OBJECTID":436864},"geometry":{"x":180622.16000000015,"y":2579316.2100000009}},{"attributes":{"ID":436890,"DIS_CODE":0,"TOWNNAME":"新營區","LI":"埤寮里","LIN":"13鄰","STREET":"中正路","SECT":" ","MAREA":" ","LANE":"４０３巷","ALLEY":" ","HOUSE_NO":"９－６號","E_COORD97":179953.56,"N_COORD97":2580183.6800000002,"ADDRESS":"中正路４０３巷９－６號","OBJECTID":436865},"geometry":{"x":179953.56000000052,"y":2580183.6799999997}},{"attributes":{"ID":436891,"DIS_CODE":0,"TOWNNAME":"新營區","LI":"埤寮里","LIN":"14鄰","STREET":"中正路","SECT":" ","MAREA":" ","LANE":"４３０巷","ALLEY":" ","HOUSE_NO":"１２５－１２號","E_COORD97":180915.01000000001,"N_COORD97":2580399.77,"ADDRESS":"中正路４３０巷１２５－１２號","OBJECTID":436866},"geometry":{"x":180915.01000000164,"y":2580399.7699999996}},{"attributes":{"ID":436892,"DIS_CODE":0,"TOWNNAME":"楠西區","LI":"楠西里","LIN":"4鄰","STREET":"民族路","SECT":" ","MAREA":" ","LANE":"１１９巷","ALLEY":" ","HOUSE_NO":"１３號","E_COORD97":197107.95000000001,"N_COORD97":2564281.9300000002,"ADDRESS":"民族路１１９巷１３號","OBJECTID":436867},"geometry":{"x":197107.95000000019,"y":2564281.9300000034}},{"attributes":{"ID":436893,"DIS_CODE":0,"TOWNNAME":"新營區","LI":"埤寮里","LIN":"14鄰","STREET":"中正路","SECT":" ","MAREA":" ","LANE":"４３０巷","ALLEY":" ","HOUSE_NO":"９８－５０號","E_COORD97":180725.07999999999,"N_COORD97":2580239.1400000001,"ADDRESS":"中正路４３０巷９８－５０號","OBJECTID":436868},"geometry":{"x":180725.08000000194,"y":2580239.1400000006}},{"attributes":{"ID":436894,"DIS_CODE":0,"TOWNNAME":"新營區","LI":"王公里","LIN":"33鄰","STREET":"民族路","SECT":" ","MAREA":" ","LANE":"３０８巷","ALLEY":" ","HOUSE_NO":"１５號","E_COORD97":180445.23999999999,"N_COORD97":2579763.2400000002,"ADDRESS":"民族路３０８巷１５號","OBJECTID":436869},"geometry":{"x":180445.24000000115,"y":2579763.2400000002}},{"attributes":{"ID":436895,"DIS_CODE":0,"TOWNNAME":"新營區","LI":"王公里","LIN":"33鄰","STREET":"民族路","SECT":" ","MAREA":" ","LANE":"３０８巷","ALLEY":" ","HOUSE_NO":"４５號","E_COORD97":180533.20999999999,"N_COORD97":2579758.1699999999,"ADDRESS":"民族路３０８巷４５號","OBJECTID":436870},"geometry":{"x":180533.21000000089,"y":2579758.1700000018}},{"attributes":{"ID":436896,"DIS_CODE":0,"TOWNNAME":"新營區","LI":"新東里","LIN":"20鄰","STREET":"東明街","SECT":" ","MAREA":" ","LANE":"２８巷","ALLEY":" ","HOUSE_NO":"１０號","E_COORD97":180836.03,"N_COORD97":2579586.1400000001,"ADDRESS":"東明街２８巷１０號","OBJECTID":436871},"geometry":{"x":180836.03000000119,"y":2579586.1400000025}},{"attributes":{"ID":436897,"DIS_CODE":0,"TOWNNAME":"新營區","LI":"新東里","LIN":"10鄰","STREET":"東昌街","SECT":" ","MAREA":" ","LANE":"５６巷","ALLEY":" ","HOUSE_NO":"１０號","E_COORD97":181363.32000000001,"N_COORD97":2579537.0600000001,"ADDRESS":"東昌街５６巷１０號","OBJECTID":436872},"geometry":{"x":181363.32000000123,"y":2579537.0600000005}},{"attributes":{"ID":436898,"DIS_CODE":0,"TOWNNAME":"新營區","LI":"新東里","LIN":"10鄰","STREET":"東昌街","SECT":" ","MAREA":" ","LANE":"５６巷","ALLEY":" ","HOUSE_NO":"１１號","E_COORD97":181369.45999999999,"N_COORD97":2579523.6099999999,"ADDRESS":"東昌街５６巷１１號","OBJECTID":436873},"geometry":{"x":181369.45999999996,"y":2579523.6100000031}},{"attributes":{"ID":436899,"DIS_CODE":0,"TOWNNAME":"新營區","LI":"新東里","LIN":"10鄰","STREET":"東昌街","SECT":" ","MAREA":" ","LANE":"５６巷","ALLEY":" ","HOUSE_NO":"１２號","E_COORD97":181360.89000000001,"N_COORD97":2579531.75,"ADDRESS":"東昌街５６巷１２號","OBJECTID":436874},"geometry":{"x":181360.88999999966,"y":2579531.75}},{"attributes":{"ID":436900,"DIS_CODE":0,"TOWNNAME":"新營區","LI":"新東里","LIN":"10鄰","STREET":"東昌街","SECT":" ","MAREA":" ","LANE":"５６巷","ALLEY":" ","HOUSE_NO":"１３號","E_COORD97":181366.06,"N_COORD97":2579518.2200000002,"ADDRESS":"東昌街５６巷１３號","OBJECTID":436875},"geometry":{"x":181366.06000000052,"y":2579518.2200000025}},{"attributes":{"ID":436901,"DIS_CODE":0,"TOWNNAME":"新營區","LI":"新東里","LIN":"10鄰","STREET":"東昌街","SECT":" ","MAREA":" ","LANE":"５６巷","ALLEY":" ","HOUSE_NO":"１５號","E_COORD97":181364.51999999999,"N_COORD97":2579512.75,"ADDRESS":"東昌街５６巷１５號","OBJECTID":436876},"geometry":{"x":181364.52000000048,"y":2579512.75}},{"attributes":{"ID":436902,"DIS_CODE":0,"TOWNNAME":"新營區","LI":"新東里","LIN":"10鄰","STREET":"東昌街","SECT":" ","MAREA":" ","LANE":"５６巷","ALLEY":" ","HOUSE_NO":"１６號","E_COORD97":181358.67000000001,"N_COORD97":2579526.6200000001,"ADDRESS":"東昌街５６巷１６號","OBJECTID":436877},"geometry":{"x":181358.67000000086,"y":2579526.6200000029}},{"attributes":{"ID":436903,"DIS_CODE":0,"TOWNNAME":"新營區","LI":"新東里","LIN":"10鄰","STREET":"東昌街","SECT":" ","MAREA":" ","LANE":"５６巷","ALLEY":" ","HOUSE_NO":"１７號","E_COORD97":181362.37,"N_COORD97":2579507.6699999999,"ADDRESS":"東昌街５６巷１７號","OBJECTID":436878},"geometry":{"x":181362.37000000104,"y":2579507.6700000018}},{"attributes":{"ID":436904,"DIS_CODE":0,"TOWNNAME":"新營區","LI":"新東里","LIN":"10鄰","STREET":"東昌街","SECT":" ","MAREA":" ","LANE":"５６巷","ALLEY":" ","HOUSE_NO":"１８號","E_COORD97":181356.35999999999,"N_COORD97":2579521.5299999998,"ADDRESS":"東昌街５６巷１８號","OBJECTID":436879},"geometry":{"x":181356.36000000127,"y":2579521.5300000012}},{"attributes":{"ID":436905,"DIS_CODE":0,"TOWNNAME":"新營區","LI":"新東里","LIN":"8鄰","STREET":"東泰路","SECT":" ","MAREA":" ","LANE":"１６巷","ALLEY":" ","HOUSE_NO":"１２號","E_COORD97":181177.01000000001,"N_COORD97":2579474,"ADDRESS":"東泰路１６巷１２號","OBJECTID":436880},"geometry":{"x":181177.00999999978,"y":2579474.0000000037}},{"attributes":{"ID":436906,"DIS_CODE":0,"TOWNNAME":"新營區","LI":"新東里","LIN":"8鄰","STREET":"東泰路","SECT":" ","MAREA":" ","LANE":"１６巷","ALLEY":" ","HOUSE_NO":"１６號","E_COORD97":181184.35000000001,"N_COORD97":2579474.3100000001,"ADDRESS":"東泰路１６巷１６號","OBJECTID":436881},"geometry":{"x":181184.35000000056,"y":2579474.3100000005}},{"attributes":{"ID":436907,"DIS_CODE":0,"TOWNNAME":"新營區","LI":"新東里","LIN":"26鄰","STREET":"東興五街","SECT":" ","MAREA":" ","LANE":"２１巷","ALLEY":" ","HOUSE_NO":"１號","E_COORD97":180718.39999999999,"N_COORD97":2579499.48,"ADDRESS":"東興五街２１巷１號","OBJECTID":436882},"geometry":{"x":180718.4000000013,"y":2579499.4800000023}},{"attributes":{"ID":436908,"DIS_CODE":0,"TOWNNAME":"新營區","LI":"新東里","LIN":"26鄰","STREET":"東興五街","SECT":" ","MAREA":" ","LANE":"２１巷","ALLEY":" ","HOUSE_NO":"３號","E_COORD97":180718.48999999999,"N_COORD97":2579493.8300000001,"ADDRESS":"東興五街２１巷３號","OBJECTID":436883},"geometry":{"x":180718.49000000022,"y":2579493.8300000019}},{"attributes":{"ID":436909,"DIS_CODE":0,"TOWNNAME":"新營區","LI":"興業里","LIN":"4鄰","STREET":"公誠街","SECT":" ","MAREA":" ","LANE":"７巷","ALLEY":" ","HOUSE_NO":"１２之１號","E_COORD97":180345.60999999999,"N_COORD97":2578038.9399999999,"ADDRESS":"公誠街７巷１２之１號","OBJECTID":436884},"geometry":{"x":180345.61000000127,"y":2578038.9399999995}},{"attributes":{"ID":436910,"DIS_CODE":0,"TOWNNAME":"楠西區","LI":"楠西里","LIN":"26鄰","STREET":"博愛路","SECT":" ","MAREA":" ","LANE":"２３３巷","ALLEY":" ","HOUSE_NO":"１３號","E_COORD97":197087.01999999999,"N_COORD97":2563619.2799999998,"ADDRESS":"博愛路２３３巷１３號","OBJECTID":436885},"geometry":{"x":197087.02000000048,"y":2563619.2800000012}},{"attributes":{"ID":436911,"DIS_CODE":0,"TOWNNAME":"楠西區","LI":"楠西里","LIN":"4鄰","STREET":"中華路","SECT":" ","MAREA":" ","LANE":"１５０巷","ALLEY":" ","HOUSE_NO":"４３號","E_COORD97":197134.12,"N_COORD97":2564294.8900000001,"ADDRESS":"中華路１５０巷４３號","OBJECTID":436886},"geometry":{"x":197134.11999999918,"y":2564294.8900000025}},{"attributes":{"ID":436912,"DIS_CODE":0,"TOWNNAME":"楠西區","LI":"東勢里","LIN":"18鄰","STREET":"東勢路","SECT":" ","MAREA":" ","LANE":"２６巷","ALLEY":" ","HOUSE_NO":"３８號","E_COORD97":197695.57000000001,"N_COORD97":2564138.29,"ADDRESS":"東勢路２６巷３８號","OBJECTID":436887},"geometry":{"x":197695.5700000003,"y":2564138.2899999991}},{"attributes":{"ID":436913,"DIS_CODE":0,"TOWNNAME":"楠西區","LI":"楠西里","LIN":"20鄰","STREET":"中興南路","SECT":" ","MAREA":" ","LANE":"８５巷","ALLEY":" ","HOUSE_NO":"５號","E_COORD97":197135.85999999999,"N_COORD97":2563995.25,"ADDRESS":"中興南路８５巷５號","OBJECTID":436888},"geometry":{"x":197135.86000000034,"y":2563995.2500000037}},{"attributes":{"ID":436914,"DIS_CODE":0,"TOWNNAME":"楠西區","LI":"楠西里","LIN":"25鄰","STREET":"四維路","SECT":" ","MAREA":" ","LANE":"１９巷","ALLEY":" ","HOUSE_NO":"１１號","E_COORD97":197288.66,"N_COORD97":2563509.25,"ADDRESS":"四維路１９巷１１號","OBJECTID":436889},"geometry":{"x":197288.66000000108,"y":2563509.25}},{"attributes":{"ID":436915,"DIS_CODE":0,"TOWNNAME":"楠西區","LI":"楠西里","LIN":"20鄰","STREET":"民族路","SECT":" ","MAREA":" ","LANE":"３５巷","ALLEY":" ","HOUSE_NO":"１１號","E_COORD97":197079.89000000001,"N_COORD97":2563908.29,"ADDRESS":"民族路３５巷１１號","OBJECTID":436890},"geometry":{"x":197079.8900000006,"y":2563908.2899999991}},{"attributes":{"ID":436916,"DIS_CODE":0,"TOWNNAME":"楠西區","LI":"楠西里","LIN":"20鄰","STREET":"民族路","SECT":" ","MAREA":" ","LANE":"５３巷","ALLEY":" ","HOUSE_NO":"８號","E_COORD97":197067.44,"N_COORD97":2563941.29,"ADDRESS":"民族路５３巷８號","OBJECTID":436891},"geometry":{"x":197067.44000000041,"y":2563941.290000001}},{"attributes":{"ID":436917,"DIS_CODE":0,"TOWNNAME":"楠西區","LI":"楠西里","LIN":"26鄰","STREET":"茄拔路","SECT":" ","MAREA":" ","LANE":"２巷","ALLEY":" ","HOUSE_NO":"１１１號","E_COORD97":197031.64000000001,"N_COORD97":2563555.2799999998,"ADDRESS":"茄拔路２巷１１１號","OBJECTID":436892},"geometry":{"x":197031.63999999966,"y":2563555.2800000012}},{"attributes":{"ID":436918,"DIS_CODE":0,"TOWNNAME":"楠西區","LI":"楠西里","LIN":"25鄰","STREET":"茄拔路","SECT":" ","MAREA":" ","LANE":"５２巷","ALLEY":" ","HOUSE_NO":"１２號","E_COORD97":197157.34,"N_COORD97":2563744.2799999998,"ADDRESS":"茄拔路５２巷１２號","OBJECTID":436893},"geometry":{"x":197157.33999999985,"y":2563744.2800000012}},{"attributes":{"ID":436919,"DIS_CODE":0,"TOWNNAME":"楠西區","LI":"楠西里","LIN":"13鄰","STREET":"中正路","SECT":" ","MAREA":" ","LANE":"２２巷","ALLEY":" ","HOUSE_NO":"２號","E_COORD97":197124.91,"N_COORD97":2564065.25,"ADDRESS":"中正路２２巷２號","OBJECTID":436894},"geometry":{"x":197124.91000000015,"y":2564065.25}},{"attributes":{"ID":436920,"DIS_CODE":0,"TOWNNAME":"楠西區","LI":"楠西里","LIN":"4鄰","STREET":"民族路","SECT":" ","MAREA":" ","LANE":"１１５巷","ALLEY":" ","HOUSE_NO":"６號","E_COORD97":197101.69,"N_COORD97":2564242.29,"ADDRESS":"民族路１１５巷６號","OBJECTID":436895},"geometry":{"x":197101.69000000041,"y":2564242.290000001}},{"attributes":{"ID":436921,"DIS_CODE":0,"TOWNNAME":"楠西區","LI":"楠西里","LIN":"4鄰","STREET":"民族路","SECT":" ","MAREA":" ","LANE":"１１７巷","ALLEY":" ","HOUSE_NO":"２號","E_COORD97":197078.39000000001,"N_COORD97":2564257.29,"ADDRESS":"民族路１１７巷２號","OBJECTID":436896},"geometry":{"x":197078.3900000006,"y":2564257.2899999991}},{"attributes":{"ID":436922,"DIS_CODE":0,"TOWNNAME":"楠西區","LI":"楠西里","LIN":"4鄰","STREET":"民族路","SECT":" ","MAREA":" ","LANE":"１２１巷","ALLEY":" ","HOUSE_NO":"６號","E_COORD97":197113.60000000001,"N_COORD97":2564289.9300000002,"ADDRESS":"民族路１２１巷６號","OBJECTID":436897},"geometry":{"x":197113.60000000149,"y":2564289.9300000016}},{"attributes":{"ID":436923,"DIS_CODE":0,"TOWNNAME":"楠西區","LI":"楠西里","LIN":"18鄰","STREET":"中正路","SECT":" ","MAREA":" ","LANE":"８４巷","ALLEY":" ","HOUSE_NO":"１６號","E_COORD97":197199.35999999999,"N_COORD97":2563997.25,"ADDRESS":"中正路８４巷１６號","OBJECTID":436898},"geometry":{"x":197199.36000000127,"y":2563997.25}},{"attributes":{"ID":436924,"DIS_CODE":0,"TOWNNAME":"楠西區","LI":"楠西里","LIN":"18鄰","STREET":"中正路","SECT":" ","MAREA":" ","LANE":"８４巷","ALLEY":" ","HOUSE_NO":"４號","E_COORD97":197221.31,"N_COORD97":2564000.25,"ADDRESS":"中正路８４巷４號","OBJECTID":436899},"geometry":{"x":197221.31000000052,"y":2564000.2500000019}},{"attributes":{"ID":436925,"DIS_CODE":0,"TOWNNAME":"楠西區","LI":"楠西里","LIN":"4鄰","STREET":"民族路","SECT":" ","MAREA":" ","LANE":"１１７巷","ALLEY":" ","HOUSE_NO":"８號","E_COORD97":197096.98999999999,"N_COORD97":2564256.29,"ADDRESS":"民族路１１７巷８號","OBJECTID":436900},"geometry":{"x":197096.99000000115,"y":2564256.290000001}},{"attributes":{"ID":436926,"DIS_CODE":0,"TOWNNAME":"楠西區","LI":"楠西里","LIN":"4鄰","STREET":"民族路","SECT":" ","MAREA":" ","LANE":"１１５巷","ALLEY":" ","HOUSE_NO":"１號","E_COORD97":197077.19,"N_COORD97":2564244.29,"ADDRESS":"民族路１１５巷１號","OBJECTID":436901},"geometry":{"x":197077.19000000134,"y":2564244.2899999991}},{"attributes":{"ID":436927,"DIS_CODE":0,"TOWNNAME":"楠西區","LI":"楠西里","LIN":"25鄰","STREET":"四維路","SECT":" ","MAREA":" ","LANE":"１９巷","ALLEY":" ","HOUSE_NO":"１５號","E_COORD97":197282.85999999999,"N_COORD97":2563509.25,"ADDRESS":"四維路１９巷１５號","OBJECTID":436902},"geometry":{"x":197282.86000000127,"y":2563509.25}},{"attributes":{"ID":436928,"DIS_CODE":0,"TOWNNAME":"楠西區","LI":"楠西里","LIN":"25鄰","STREET":"四維路","SECT":" ","MAREA":" ","LANE":"１９巷","ALLEY":" ","HOUSE_NO":"７號","E_COORD97":197293.41,"N_COORD97":2563509.25,"ADDRESS":"四維路１９巷７號","OBJECTID":436903},"geometry":{"x":197293.41000000201,"y":2563509.25}},{"attributes":{"ID":436929,"DIS_CODE":0,"TOWNNAME":"楠西區","LI":"楠西里","LIN":"26鄰","STREET":"茄拔路","SECT":" ","MAREA":" ","LANE":"２巷","ALLEY":" ","HOUSE_NO":"１４７號","E_COORD97":197101.73999999999,"N_COORD97":2563470.2799999998,"ADDRESS":"茄拔路２巷１４７號","OBJECTID":436904},"geometry":{"x":197101.74000000115,"y":2563470.2800000012}},{"attributes":{"ID":436930,"DIS_CODE":0,"TOWNNAME":"楠西區","LI":"楠西里","LIN":"26鄰","STREET":"博愛路","SECT":" ","MAREA":" ","LANE":"１２９巷","ALLEY":" ","HOUSE_NO":"８６號","E_COORD97":197049.42000000001,"N_COORD97":2563453.2799999998,"ADDRESS":"博愛路１２９巷８６號","OBJECTID":436905},"geometry":{"x":197049.42000000086,"y":2563453.2800000012}},{"attributes":{"ID":436931,"DIS_CODE":0,"TOWNNAME":"楠西區","LI":"楠西里","LIN":"20鄰","STREET":"民族路","SECT":" ","MAREA":" ","LANE":"３５巷","ALLEY":" ","HOUSE_NO":"１９號","E_COORD97":197099.69,"N_COORD97":2563907.29,"ADDRESS":"民族路３５巷１９號","OBJECTID":436906},"geometry":{"x":197099.69000000041,"y":2563907.290000001}},{"attributes":{"ID":436932,"DIS_CODE":0,"TOWNNAME":"楠西區","LI":"東勢里","LIN":"14鄰","STREET":"茄拔路","SECT":" ","MAREA":" ","LANE":"１６９巷","ALLEY":" ","HOUSE_NO":"９號","E_COORD97":197415.17999999999,"N_COORD97":2563842.2000000002,"ADDRESS":"茄拔路１６９巷９號","OBJECTID":436907},"geometry":{"x":197415.18000000063,"y":2563842.200000003}},{"attributes":{"ID":436933,"DIS_CODE":0,"TOWNNAME":"楠西區","LI":"東勢里","LIN":"14鄰","STREET":"茄拔路","SECT":" ","MAREA":" ","LANE":"１７７巷","ALLEY":" ","HOUSE_NO":"２０號","E_COORD97":197450.73000000001,"N_COORD97":2563815.2000000002,"ADDRESS":"茄拔路１７７巷２０號","OBJECTID":436908},"geometry":{"x":197450.72999999952,"y":2563815.200000003}},{"attributes":{"ID":436934,"DIS_CODE":0,"TOWNNAME":"楠西區","LI":"東勢里","LIN":"18鄰","STREET":"東勢路","SECT":" ","MAREA":" ","LANE":"２６巷","ALLEY":" ","HOUSE_NO":"２２號","E_COORD97":197696.97,"N_COORD97":2564116.29,"ADDRESS":"東勢路２６巷２２號","OBJECTID":436909},"geometry":{"x":197696.96999999974,"y":2564116.2900000028}},{"attributes":{"ID":436935,"DIS_CODE":0,"TOWNNAME":"楠西區","LI":"東勢里","LIN":"20鄰","STREET":"忠孝路","SECT":" ","MAREA":" ","LANE":"９３巷","ALLEY":" ","HOUSE_NO":"２號","E_COORD97":197617.79000000001,"N_COORD97":2564204.25,"ADDRESS":"忠孝路９３巷２號","OBJECTID":436910},"geometry":{"x":197617.7900000019,"y":2564204.25}},{"attributes":{"ID":436936,"DIS_CODE":0,"TOWNNAME":"楠西區","LI":"東勢里","LIN":"14鄰","STREET":"茄拔路","SECT":" ","MAREA":" ","LANE":"１７７巷","ALLEY":" ","HOUSE_NO":"１５號","E_COORD97":197439.73000000001,"N_COORD97":2563811.2000000002,"ADDRESS":"茄拔路１７７巷１５號","OBJECTID":436911},"geometry":{"x":197439.73000000138,"y":2563811.1999999993}},{"attributes":{"ID":436937,"DIS_CODE":0,"TOWNNAME":"楠西區","LI":"楠西里","LIN":"24鄰","STREET":"中興路","SECT":" ","MAREA":" ","LANE":"６３巷","ALLEY":" ","HOUSE_NO":"９號","E_COORD97":197150.22,"N_COORD97":2564363.8900000001,"ADDRESS":"中興路６３巷９號","OBJECTID":436912},"geometry":{"x":197150.2200000016,"y":2564363.8900000006}},{"attributes":{"ID":436938,"DIS_CODE":0,"TOWNNAME":"楠西區","LI":"楠西里","LIN":"4鄰","STREET":"民族路","SECT":" ","MAREA":" ","LANE":"１１７巷","ALLEY":" ","HOUSE_NO":"３號","E_COORD97":197093.39000000001,"N_COORD97":2564261.2799999998,"ADDRESS":"民族路１１７巷３號","OBJECTID":436913},"geometry":{"x":197093.3900000006,"y":2564261.2799999993}},{"attributes":{"ID":436939,"DIS_CODE":0,"TOWNNAME":"楠西區","LI":"東勢里","LIN":"18鄰","STREET":"忠孝路","SECT":" ","MAREA":" ","LANE":"５１巷","ALLEY":" ","HOUSE_NO":"２７號","E_COORD97":197676.73999999999,"N_COORD97":2564125.25,"ADDRESS":"忠孝路５１巷２７號","OBJECTID":436914},"geometry":{"x":197676.74000000115,"y":2564125.2500000019}},{"attributes":{"ID":436940,"DIS_CODE":0,"TOWNNAME":"楠西區","LI":"楠西里","LIN":"20鄰","STREET":"中興南路","SECT":" ","MAREA":" ","LANE":"８５巷","ALLEY":" ","HOUSE_NO":"３號","E_COORD97":197141.66,"N_COORD97":2563991.25,"ADDRESS":"中興南路８５巷３號","OBJECTID":436915},"geometry":{"x":197141.66000000015,"y":2563991.25}},{"attributes":{"ID":436941,"DIS_CODE":0,"TOWNNAME":"楠西區","LI":"東勢里","LIN":"14鄰","STREET":"茄拔路","SECT":" ","MAREA":" ","LANE":"１７７巷","ALLEY":" ","HOUSE_NO":"６號","E_COORD97":197441.67999999999,"N_COORD97":2563789.2000000002,"ADDRESS":"茄拔路１７７巷６號","OBJECTID":436916},"geometry":{"x":197441.6799999997,"y":2563789.2000000011}},{"attributes":{"ID":436942,"DIS_CODE":0,"TOWNNAME":"楠西區","LI":"東勢里","LIN":"14鄰","STREET":"茄拔路","SECT":" ","MAREA":" ","LANE":"１６９巷","ALLEY":" ","HOUSE_NO":"２號","E_COORD97":197421.38,"N_COORD97":2563826.2000000002,"ADDRESS":"茄拔路１６９巷２號","OBJECTID":436917},"geometry":{"x":197421.37999999989,"y":2563826.2000000011}},{"attributes":{"ID":436943,"DIS_CODE":0,"TOWNNAME":"楠西區","LI":"楠西里","LIN":"14鄰","STREET":"中興南路","SECT":" ","MAREA":" ","LANE":"８５巷","ALLEY":" ","HOUSE_NO":"４０號","E_COORD97":197089.81,"N_COORD97":2564015.25,"ADDRESS":"中興南路８５巷４０號","OBJECTID":436918},"geometry":{"x":197089.80999999959,"y":2564015.25}},{"attributes":{"ID":436944,"DIS_CODE":0,"TOWNNAME":"楠西區","LI":"楠西里","LIN":"24鄰","STREET":"中興路","SECT":" ","MAREA":" ","LANE":"６３巷","ALLEY":" ","HOUSE_NO":"２１號","E_COORD97":197129.67000000001,"N_COORD97":2564367.8900000001,"ADDRESS":"中興路６３巷２１號","OBJECTID":436919},"geometry":{"x":197129.66999999993,"y":2564367.8900000043}},{"attributes":{"ID":436945,"DIS_CODE":0,"TOWNNAME":"楠西區","LI":"楠西里","LIN":"24鄰","STREET":"中興路","SECT":" ","MAREA":" ","LANE":"６３巷","ALLEY":" ","HOUSE_NO":"１７號","E_COORD97":197138.87,"N_COORD97":2564365.8900000001,"ADDRESS":"中興路６３巷１７號","OBJECTID":436920},"geometry":{"x":197138.87000000011,"y":2564365.8900000025}},{"attributes":{"ID":436946,"DIS_CODE":0,"TOWNNAME":"東山區","LI":"東中里","LIN":"24鄰","STREET":"東仁街","SECT":" ","MAREA":" ","LANE":"８１巷","ALLEY":" ","HOUSE_NO":"１０號","E_COORD97":188675.29999999999,"N_COORD97":2579828.1400000001,"ADDRESS":"東仁街８１巷１０號","OBJECTID":436921},"geometry":{"x":188675.29999999888,"y":2579828.1400000006}},{"attributes":{"ID":436947,"DIS_CODE":0,"TOWNNAME":"東山區","LI":"東中里","LIN":"24鄰","STREET":"東仁街","SECT":" ","MAREA":" ","LANE":"８１巷","ALLEY":" ","HOUSE_NO":"２號","E_COORD97":188678.17999999999,"N_COORD97":2579850.9300000002,"ADDRESS":"東仁街８１巷２號","OBJECTID":436922},"geometry":{"x":188678.18000000063,"y":2579850.9300000016}},{"attributes":{"ID":436948,"DIS_CODE":0,"TOWNNAME":"東山區","LI":"東中里","LIN":"24鄰","STREET":"東仁街","SECT":" ","MAREA":" ","LANE":"８１巷","ALLEY":" ","HOUSE_NO":"６號","E_COORD97":188675.92000000001,"N_COORD97":2579844.2999999998,"ADDRESS":"東仁街８１巷６號","OBJECTID":436923},"geometry":{"x":188675.91999999993,"y":2579844.3000000007}},{"attributes":{"ID":436949,"DIS_CODE":0,"TOWNNAME":"東山區","LI":"東中里","LIN":"24鄰","STREET":"東仁街","SECT":" ","MAREA":" ","LANE":"８１巷","ALLEY":" ","HOUSE_NO":"８號","E_COORD97":188677.67999999999,"N_COORD97":2579835.75,"ADDRESS":"東仁街８１巷８號","OBJECTID":436924},"geometry":{"x":188677.67999999877,"y":2579835.7500000019}},{"attributes":{"ID":436950,"DIS_CODE":0,"TOWNNAME":"東山區","LI":"東中里","LIN":"4鄰","STREET":"忠孝街","SECT":" ","MAREA":" ","LANE":"１５巷","ALLEY":" ","HOUSE_NO":"１號","E_COORD97":188847.79999999999,"N_COORD97":2580269.0699999998,"ADDRESS":"忠孝街１５巷１號","OBJECTID":436925},"geometry":{"x":188847.79999999981,"y":2580269.0700000003}},{"attributes":{"ID":436951,"DIS_CODE":0,"TOWNNAME":"東山區","LI":"東中里","LIN":"4鄰","STREET":"忠孝街","SECT":" ","MAREA":" ","LANE":"１５巷","ALLEY":" ","HOUSE_NO":"２號","E_COORD97":188847.64000000001,"N_COORD97":2580263.2999999998,"ADDRESS":"忠孝街１５巷２號","OBJECTID":436926},"geometry":{"x":188847.64000000153,"y":2580263.3000000026}},{"attributes":{"ID":436952,"DIS_CODE":0,"TOWNNAME":"東山區","LI":"東中里","LIN":"4鄰","STREET":"忠孝街","SECT":" ","MAREA":" ","LANE":"１５巷","ALLEY":" ","HOUSE_NO":"３號","E_COORD97":188847.28,"N_COORD97":2580257.0099999998,"ADDRESS":"忠孝街１５巷３號","OBJECTID":436927},"geometry":{"x":188847.28000000212,"y":2580257.0100000035}},{"attributes":{"ID":436953,"DIS_CODE":0,"TOWNNAME":"東山區","LI":"東中里","LIN":"4鄰","STREET":"忠孝街","SECT":" ","MAREA":" ","LANE":"１５巷","ALLEY":" ","HOUSE_NO":"５號","E_COORD97":188847.35000000001,"N_COORD97":2580252.79,"ADDRESS":"忠孝街１５巷５號","OBJECTID":436928},"geometry":{"x":188847.34999999963,"y":2580252.7899999991}},{"attributes":{"ID":436954,"DIS_CODE":0,"TOWNNAME":"東山區","LI":"東中里","LIN":"26鄰","STREET":"東仁街","SECT":" ","MAREA":" ","LANE":"３８巷","ALLEY":" ","HOUSE_NO":"３號","E_COORD97":188845.53,"N_COORD97":2579853.5499999998,"ADDRESS":"東仁街３８巷３號","OBJECTID":436929},"geometry":{"x":188845.53000000212,"y":2579853.5500000007}},{"attributes":{"ID":436955,"DIS_CODE":0,"TOWNNAME":"東山區","LI":"東中里","LIN":"26鄰","STREET":"東仁街","SECT":" ","MAREA":" ","LANE":"３８巷","ALLEY":" ","HOUSE_NO":"５號","E_COORD97":188846.45000000001,"N_COORD97":2579857.6499999999,"ADDRESS":"東仁街３８巷５號","OBJECTID":436930},"geometry":{"x":188846.45000000112,"y":2579857.6500000022}},{"attributes":{"ID":436956,"DIS_CODE":0,"TOWNNAME":"東山區","LI":"東中里","LIN":"26鄰","STREET":"東仁街","SECT":" ","MAREA":" ","LANE":"３８巷","ALLEY":" ","HOUSE_NO":"７號","E_COORD97":188847.79000000001,"N_COORD97":2579861.5499999998,"ADDRESS":"東仁街３８巷７號","OBJECTID":436931},"geometry":{"x":188847.79000000004,"y":2579861.5500000026}},{"attributes":{"ID":436957,"DIS_CODE":0,"TOWNNAME":"東山區","LI":"東中里","LIN":"26鄰","STREET":"東仁街","SECT":" ","MAREA":" ","LANE":"３８巷","ALLEY":" ","HOUSE_NO":"９號","E_COORD97":188849.45999999999,"N_COORD97":2579865.8500000001,"ADDRESS":"東仁街３８巷９號","OBJECTID":436932},"geometry":{"x":188849.46000000089,"y":2579865.8500000015}},{"attributes":{"ID":436958,"DIS_CODE":0,"TOWNNAME":"東山區","LI":"東中里","LIN":"25鄰","STREET":"東仁街","SECT":" ","MAREA":" ","LANE":"３８巷","ALLEY":" ","HOUSE_NO":"１０號","E_COORD97":188860.26000000001,"N_COORD97":2579857.71,"ADDRESS":"東仁街３８巷１０號","OBJECTID":436933},"geometry":{"x":188860.25999999978,"y":2579857.7100000028}},{"attributes":{"ID":436959,"DIS_CODE":0,"TOWNNAME":"東山區","LI":"東中里","LIN":"25鄰","STREET":"東仁街","SECT":" ","MAREA":" ","LANE":"３８巷","ALLEY":" ","HOUSE_NO":"１２號","E_COORD97":188862.20999999999,"N_COORD97":2579862.0299999998,"ADDRESS":"東仁街３８巷１２號","OBJECTID":436934},"geometry":{"x":188862.20999999996,"y":2579862.0299999993}},{"attributes":{"ID":436960,"DIS_CODE":0,"TOWNNAME":"東山區","LI":"東中里","LIN":"25鄰","STREET":"東仁街","SECT":" ","MAREA":" ","LANE":"３８巷","ALLEY":" ","HOUSE_NO":"２號","E_COORD97":188855.92999999999,"N_COORD97":2579845.2200000002,"ADDRESS":"東仁街３８巷２號","OBJECTID":436935},"geometry":{"x":188855.93000000063,"y":2579845.2200000007}},{"attributes":{"ID":436961,"DIS_CODE":0,"TOWNNAME":"東山區","LI":"東中里","LIN":"25鄰","STREET":"東仁街","SECT":" ","MAREA":" ","LANE":"３８巷","ALLEY":" ","HOUSE_NO":"６號","E_COORD97":188855.94,"N_COORD97":2579849.6600000001,"ADDRESS":"東仁街３８巷６號","OBJECTID":436936},"geometry":{"x":188855.94000000041,"y":2579849.6600000039}},{"attributes":{"ID":436962,"DIS_CODE":0,"TOWNNAME":"東山區","LI":"東中里","LIN":"4鄰","STREET":"新東路","SECT":"一段","MAREA":" ","LANE":"１２巷","ALLEY":" ","HOUSE_NO":"１０號","E_COORD97":188934.07999999999,"N_COORD97":2580211.6200000001,"ADDRESS":"新東路一段１２巷１０號","OBJECTID":436937},"geometry":{"x":188934.08000000007,"y":2580211.6200000029}},{"attributes":{"ID":436963,"DIS_CODE":0,"TOWNNAME":"東山區","LI":"東中里","LIN":"4鄰","STREET":"新東路","SECT":"一段","MAREA":" ","LANE":"１２巷","ALLEY":" ","HOUSE_NO":"１１號","E_COORD97":188929.82999999999,"N_COORD97":2580210.0699999998,"ADDRESS":"新東路一段１２巷１１號","OBJECTID":436938},"geometry":{"x":188929.83000000194,"y":2580210.0700000022}},{"attributes":{"ID":436964,"DIS_CODE":0,"TOWNNAME":"東山區","LI":"東中里","LIN":"4鄰","STREET":"新東路","SECT":"一段","MAREA":" ","LANE":"１２巷","ALLEY":" ","HOUSE_NO":"１２號","E_COORD97":188922.73000000001,"N_COORD97":2580207.9700000002,"ADDRESS":"新東路一段１２巷１２號","OBJECTID":436939},"geometry":{"x":188922.73000000138,"y":2580207.9700000025}},{"attributes":{"ID":436965,"DIS_CODE":0,"TOWNNAME":"東山區","LI":"東中里","LIN":"4鄰","STREET":"新東路","SECT":"一段","MAREA":" ","LANE":"１２巷","ALLEY":" ","HOUSE_NO":"９號","E_COORD97":188937.64999999999,"N_COORD97":2580212.5299999998,"ADDRESS":"新東路一段１２巷９號","OBJECTID":436940},"geometry":{"x":188937.65000000037,"y":2580212.5300000012}},{"attributes":{"ID":436966,"DIS_CODE":0,"TOWNNAME":"新化區","LI":"東榮里","LIN":"18鄰","STREET":"中興路","SECT":" ","MAREA":" ","LANE":"６８５巷","ALLEY":" ","HOUSE_NO":"６３號","E_COORD97":179549.26000000001,"N_COORD97":2547992.25,"ADDRESS":"中興路６８５巷６３號","OBJECTID":436941},"geometry":{"x":179549.26000000071,"y":2547992.25}},{"attributes":{"ID":436967,"DIS_CODE":0,"TOWNNAME":"新化區","LI":"太平里","LIN":"13鄰","STREET":"太平街","SECT":" ","MAREA":" ","LANE":"４８巷","ALLEY":" ","HOUSE_NO":"１０號","E_COORD97":178799.42000000001,"N_COORD97":2548853.25,"ADDRESS":"太平街４８巷１０號","OBJECTID":436942},"geometry":{"x":178799.41999999993,"y":2548853.25}},{"attributes":{"ID":436968,"DIS_CODE":0,"TOWNNAME":"新化區","LI":"太平里","LIN":"4鄰","STREET":"中正路","SECT":" ","MAREA":" ","LANE":"５８４巷","ALLEY":" ","HOUSE_NO":"２７號","E_COORD97":178975.26000000001,"N_COORD97":2549091.25,"ADDRESS":"中正路５８４巷２７號","OBJECTID":436943},"geometry":{"x":178975.25999999978,"y":2549091.2500000037}},{"attributes":{"ID":436969,"DIS_CODE":0,"TOWNNAME":"新化區","LI":"豐榮里","LIN":"13鄰","STREET":"民治路","SECT":" ","MAREA":" ","LANE":"１３巷","ALLEY":" ","HOUSE_NO":"１２號","E_COORD97":178691.51000000001,"N_COORD97":2547995.25,"ADDRESS":"民治路１３巷１２號","OBJECTID":436944},"geometry":{"x":178691.51000000071,"y":2547995.25}},{"attributes":{"ID":436970,"DIS_CODE":0,"TOWNNAME":"新化區","LI":"東榮里","LIN":"18鄰","STREET":"中興路","SECT":" ","MAREA":" ","LANE":"６８５巷","ALLEY":" ","HOUSE_NO":"８號","E_COORD97":179584.41,"N_COORD97":2548057.25,"ADDRESS":"中興路６８５巷８號","OBJECTID":436945},"geometry":{"x":179584.41000000108,"y":2548057.2500000037}},{"attributes":{"ID":436971,"DIS_CODE":0,"TOWNNAME":"新化區","LI":"太平里","LIN":" ","STREET":"中正路","SECT":" ","MAREA":" ","LANE":"７４７巷","ALLEY":" ","HOUSE_NO":"５號","E_COORD97":178709.91,"N_COORD97":2549245.25,"ADDRESS":"中正路７４７巷５號","OBJECTID":436946},"geometry":{"x":178709.91000000015,"y":2549245.2500000019}},{"attributes":{"ID":436972,"DIS_CODE":0,"TOWNNAME":"新化區","LI":"武安里","LIN":"14鄰","STREET":"健康路","SECT":" ","MAREA":" ","LANE":"１０２巷","ALLEY":" ","HOUSE_NO":"１號","E_COORD97":178830.42999999999,"N_COORD97":2548164.2599999998,"ADDRESS":"健康路１０２巷１號","OBJECTID":436947},"geometry":{"x":178830.43000000156,"y":2548164.2599999998}},{"attributes":{"ID":436973,"DIS_CODE":0,"TOWNNAME":"新化區","LI":"太平里","LIN":"4鄰","STREET":"民生路","SECT":" ","MAREA":" ","LANE":"１８６巷","ALLEY":" ","HOUSE_NO":"１７號","E_COORD97":179124.06,"N_COORD97":2548973.25,"ADDRESS":"民生路１８６巷１７號","OBJECTID":436948},"geometry":{"x":179124.05999999959,"y":2548973.2500000019}},{"attributes":{"ID":436974,"DIS_CODE":0,"TOWNNAME":"新化區","LI":"豐榮里","LIN":"13鄰","STREET":"民治路","SECT":" ","MAREA":" ","LANE":"１３巷","ALLEY":" ","HOUSE_NO":"３號","E_COORD97":178708.85999999999,"N_COORD97":2547973.25,"ADDRESS":"民治路１３巷３號","OBJECTID":436949},"geometry":{"x":178708.86000000034,"y":2547973.2500000019}},{"attributes":{"ID":436975,"DIS_CODE":0,"TOWNNAME":"新化區","LI":"護國里","LIN":"4鄰","STREET":"中山路","SECT":" ","MAREA":" ","LANE":"１９４巷","ALLEY":" ","HOUSE_NO":"１號","E_COORD97":179173.01000000001,"N_COORD97":2548477.25,"ADDRESS":"中山路１９４巷１號","OBJECTID":436950},"geometry":{"x":179173.01000000071,"y":2548477.2499999981}},{"attributes":{"ID":436976,"DIS_CODE":0,"TOWNNAME":"新化區","LI":"太平里","LIN":"4鄰","STREET":"民生路","SECT":" ","MAREA":" ","LANE":"２１７巷","ALLEY":" ","HOUSE_NO":"１１號","E_COORD97":179041.16,"N_COORD97":2548920.25,"ADDRESS":"民生路２１７巷１１號","OBJECTID":436951},"geometry":{"x":179041.15999999922,"y":2548920.25}},{"attributes":{"ID":436977,"DIS_CODE":0,"TOWNNAME":"新化區","LI":"清水里","LIN":"8鄰","STREET":"民權街","SECT":" ","MAREA":" ","LANE":"６１巷","ALLEY":" ","HOUSE_NO":"８號","E_COORD97":178699.35999999999,"N_COORD97":2548588.25,"ADDRESS":"民權街６１巷８號","OBJECTID":436952},"geometry":{"x":178699.3600000022,"y":2548588.25}},{"attributes":{"ID":436978,"DIS_CODE":0,"TOWNNAME":"新化區","LI":"護國里","LIN":"7鄰","STREET":"復興路","SECT":" ","MAREA":" ","LANE":"２９０巷","ALLEY":" ","HOUSE_NO":"２３號","E_COORD97":179391.76999999999,"N_COORD97":2548451.25,"ADDRESS":"復興路２９０巷２３號","OBJECTID":436953},"geometry":{"x":179391.76999999955,"y":2548451.2500000019}},{"attributes":{"ID":436979,"DIS_CODE":0,"TOWNNAME":"新化區","LI":"太平里","LIN":"4鄰","STREET":"中正路","SECT":" ","MAREA":" ","LANE":"５８４巷","ALLEY":" ","HOUSE_NO":"３號","E_COORD97":178916.49163900001,"N_COORD97":2549110.9098999999,"ADDRESS":"中正路５８４巷３號","OBJECTID":436954},"geometry":{"x":178916.49163900036,"y":2549110.9098959994}},{"attributes":{"ID":436980,"DIS_CODE":0,"TOWNNAME":"新化區","LI":"協興里","LIN":"8鄰","STREET":"太平街","SECT":" ","MAREA":" ","LANE":"１５０巷","ALLEY":" ","HOUSE_NO":"６號","E_COORD97":178350.12,"N_COORD97":2548721.25,"ADDRESS":"太平街１５０巷６號","OBJECTID":436955},"geometry":{"x":178350.12000000104,"y":2548721.25}},{"attributes":{"ID":436981,"DIS_CODE":0,"TOWNNAME":"新化區","LI":"太平里","LIN":"7鄰","STREET":"民生路","SECT":" ","MAREA":" ","LANE":"３１４巷","ALLEY":" ","HOUSE_NO":"７５號","E_COORD97":179093.66,"N_COORD97":2549262.25,"ADDRESS":"民生路３１４巷７５號","OBJECTID":436956},"geometry":{"x":179093.65999999922,"y":2549262.2500000019}},{"attributes":{"ID":436982,"DIS_CODE":0,"TOWNNAME":"新化區","LI":"太平里","LIN":"4鄰","STREET":"民生路","SECT":" ","MAREA":" ","LANE":"２１７巷","ALLEY":" ","HOUSE_NO":"２３號","E_COORD97":179003.76000000001,"N_COORD97":2548927.25,"ADDRESS":"民生路２１７巷２３號","OBJECTID":436957},"geometry":{"x":179003.75999999978,"y":2548927.25}},{"attributes":{"ID":436983,"DIS_CODE":0,"TOWNNAME":"新化區","LI":"協興里","LIN":"4鄰","STREET":"正新路","SECT":" ","MAREA":" ","LANE":"２４７巷","ALLEY":" ","HOUSE_NO":"１號","E_COORD97":178537.82000000001,"N_COORD97":2548488.25,"ADDRESS":"正新路２４７巷１號","OBJECTID":436958},"geometry":{"x":178537.8200000003,"y":2548488.2500000019}},{"attributes":{"ID":436984,"DIS_CODE":0,"TOWNNAME":"新化區","LI":"武安里","LIN":"4鄰","STREET":"中正路","SECT":" ","MAREA":" ","LANE":"３４１巷","ALLEY":" ","HOUSE_NO":"１９號","E_COORD97":179060.85999999999,"N_COORD97":2548180.25,"ADDRESS":"中正路３４１巷１９號","OBJECTID":436959},"geometry":{"x":179060.86000000127,"y":2548180.2500000019}},{"attributes":{"ID":436985,"DIS_CODE":0,"TOWNNAME":"新化區","LI":"東榮里","LIN":"13鄰","STREET":"中興路","SECT":" ","MAREA":" ","LANE":"５５４巷","ALLEY":" ","HOUSE_NO":"３７號","E_COORD97":179910.06,"N_COORD97":2548037.25,"ADDRESS":"中興路５５４巷３７號","OBJECTID":436960},"geometry":{"x":179910.06000000052,"y":2548037.2500000019}},{"attributes":{"ID":436986,"DIS_CODE":0,"TOWNNAME":"新化區","LI":"清水里","LIN":"8鄰","STREET":"民權街","SECT":" ","MAREA":" ","LANE":"６１巷","ALLEY":" ","HOUSE_NO":"１７號","E_COORD97":178704.20999999999,"N_COORD97":2548547.25,"ADDRESS":"民權街６１巷１７號","OBJECTID":436961},"geometry":{"x":178704.21000000089,"y":2548547.25}},{"attributes":{"ID":436987,"DIS_CODE":0,"TOWNNAME":"新化區","LI":"協興里","LIN":"4鄰","STREET":"正新路","SECT":" ","MAREA":" ","LANE":"２５１巷","ALLEY":" ","HOUSE_NO":"２３號","E_COORD97":178491.37,"N_COORD97":2548510.25,"ADDRESS":"正新路２５１巷２３號","OBJECTID":436962},"geometry":{"x":178491.37000000104,"y":2548510.25}},{"attributes":{"ID":436988,"DIS_CODE":0,"TOWNNAME":"新化區","LI":"武安里","LIN":"14鄰","STREET":"健康路","SECT":" ","MAREA":" ","LANE":"１０１巷","ALLEY":" ","HOUSE_NO":"９號","E_COORD97":178771.23000000001,"N_COORD97":2548139.2599999998,"ADDRESS":"健康路１０１巷９號","OBJECTID":436963},"geometry":{"x":178771.23000000045,"y":2548139.2600000016}},{"attributes":{"ID":436989,"DIS_CODE":0,"TOWNNAME":"新化區","LI":"東榮里","LIN":"14鄰","STREET":"中興路","SECT":" ","MAREA":" ","LANE":"５８０巷","ALLEY":" ","HOUSE_NO":"２７號","E_COORD97":179847.16,"N_COORD97":2548036.25,"ADDRESS":"中興路５８０巷２７號","OBJECTID":436964},"geometry":{"x":179847.16000000108,"y":2548036.25}},{"attributes":{"ID":436990,"DIS_CODE":0,"TOWNNAME":"新化區","LI":"太平里","LIN":"4鄰","STREET":"民生路","SECT":" ","MAREA":" ","LANE":"２１７巷","ALLEY":" ","HOUSE_NO":"１６號","E_COORD97":179030.26000000001,"N_COORD97":2548949.25,"ADDRESS":"民生路２１７巷１６號","OBJECTID":436965},"geometry":{"x":179030.26000000071,"y":2548949.2500000019}},{"attributes":{"ID":436991,"DIS_CODE":0,"TOWNNAME":"新化區","LI":"東榮里","LIN":"4鄰","STREET":"信義路","SECT":" ","MAREA":" ","LANE":"９３巷","ALLEY":" ","HOUSE_NO":"７號","E_COORD97":179847.07999999999,"N_COORD97":2548661.25,"ADDRESS":"信義路９３巷７號","OBJECTID":436966},"geometry":{"x":179847.08000000101,"y":2548661.2500000019}},{"attributes":{"ID":436992,"DIS_CODE":0,"TOWNNAME":"新化區","LI":"東榮里","LIN":"4鄰","STREET":"信義路","SECT":" ","MAREA":" ","LANE":"９３巷","ALLEY":" ","HOUSE_NO":"１５號","E_COORD97":179869.73000000001,"N_COORD97":2548663.25,"ADDRESS":"信義路９３巷１５號","OBJECTID":436967},"geometry":{"x":179869.73000000045,"y":2548663.25}},{"attributes":{"ID":436993,"DIS_CODE":0,"TOWNNAME":"新化區","LI":"太平里","LIN":"4鄰","STREET":"中正路","SECT":" ","MAREA":" ","LANE":"５８０巷","ALLEY":" ","HOUSE_NO":"２號之１０９","E_COORD97":179007.25,"N_COORD97":2549025.2599999998,"ADDRESS":"中正路５８０巷２號之１０９","OBJECTID":436968},"geometry":{"x":179007.25000000093,"y":2549025.2599999998}},{"attributes":{"ID":436994,"DIS_CODE":0,"TOWNNAME":"新化區","LI":"觀音里","LIN":"4鄰","STREET":"仁愛街","SECT":" ","MAREA":" ","LANE":"６５巷","ALLEY":" ","HOUSE_NO":"３１號","E_COORD97":178972.42999999999,"N_COORD97":2548513.25,"ADDRESS":"仁愛街６５巷３１號","OBJECTID":436969},"geometry":{"x":178972.4299999997,"y":2548513.25}},{"attributes":{"ID":436995,"DIS_CODE":0,"TOWNNAME":"新化區","LI":"東榮里","LIN":"13鄰","STREET":"中興路","SECT":" ","MAREA":" ","LANE":"５８０巷","ALLEY":" ","HOUSE_NO":"２２號","E_COORD97":179857.66,"N_COORD97":2548024.25,"ADDRESS":"中興路５８０巷２２號","OBJECTID":436970},"geometry":{"x":179857.66000000015,"y":2548024.2500000019}},{"attributes":{"ID":436996,"DIS_CODE":0,"TOWNNAME":"新化區","LI":"太平里","LIN":"4鄰","STREET":"中正路","SECT":" ","MAREA":" ","LANE":"５８０巷","ALLEY":" ","HOUSE_NO":"２號之１０３","E_COORD97":178984.85999999999,"N_COORD97":2549013.2599999998,"ADDRESS":"中正路５８０巷２號之１０３","OBJECTID":436971},"geometry":{"x":178984.86000000127,"y":2549013.2600000016}},{"attributes":{"ID":436997,"DIS_CODE":0,"TOWNNAME":"新化區","LI":"協興里","LIN":"4鄰","STREET":"正新路","SECT":" ","MAREA":" ","LANE":"２４７巷","ALLEY":" ","HOUSE_NO":"１１號","E_COORD97":178516.97,"N_COORD97":2548490.25,"ADDRESS":"正新路２４７巷１１號","OBJECTID":436972},"geometry":{"x":178516.97000000067,"y":2548490.25}},{"attributes":{"ID":436998,"DIS_CODE":0,"TOWNNAME":"新化區","LI":"東榮里","LIN":"8鄰","STREET":"信義路","SECT":" ","MAREA":" ","LANE":"１１７巷","ALLEY":" ","HOUSE_NO":"２８號之５０","E_COORD97":179799.67000000001,"N_COORD97":2548294.2599999998,"ADDRESS":"信義路１１７巷２８號之５０","OBJECTID":436973},"geometry":{"x":179799.66999999993,"y":2548294.2600000035}},{"attributes":{"ID":436999,"DIS_CODE":0,"TOWNNAME":"新化區","LI":"武安里","LIN":"4鄰","STREET":"中正路","SECT":" ","MAREA":" ","LANE":"３４１巷","ALLEY":" ","HOUSE_NO":"１７號","E_COORD97":179079.56,"N_COORD97":2548190.25,"ADDRESS":"中正路３４１巷１７號","OBJECTID":436974},"geometry":{"x":179079.55999999959,"y":2548190.2500000019}},{"attributes":{"ID":437000,"DIS_CODE":0,"TOWNNAME":"新化區","LI":"觀音里","LIN":"4鄰","STREET":"仁愛街","SECT":" ","MAREA":" ","LANE":"６５巷","ALLEY":" ","HOUSE_NO":"２１號","E_COORD97":178994.73000000001,"N_COORD97":2548533.25,"ADDRESS":"仁愛街６５巷２１號","OBJECTID":436975},"geometry":{"x":178994.73000000045,"y":2548533.2500000019}},{"attributes":{"ID":437001,"DIS_CODE":0,"TOWNNAME":"新化區","LI":"護國里","LIN":"4鄰","STREET":"中山路","SECT":" ","MAREA":" ","LANE":"１９４巷","ALLEY":" ","HOUSE_NO":"９號","E_COORD97":179171.01000000001,"N_COORD97":2548493.25,"ADDRESS":"中山路１９４巷９號","OBJECTID":436976},"geometry":{"x":179171.01000000071,"y":2548493.25}},{"attributes":{"ID":437002,"DIS_CODE":0,"TOWNNAME":"新化區","LI":"太平里","LIN":"4鄰","STREET":"民生路","SECT":" ","MAREA":" ","LANE":"２１７巷","ALLEY":" ","HOUSE_NO":"７號","E_COORD97":179035.91,"N_COORD97":2548937.25,"ADDRESS":"民生路２１７巷７號","OBJECTID":436977},"geometry":{"x":179035.91000000015,"y":2548937.25}},{"attributes":{"ID":437003,"DIS_CODE":0,"TOWNNAME":"新化區","LI":"東榮里","LIN":"13鄰","STREET":"中興路","SECT":" ","MAREA":" ","LANE":"５８０巷","ALLEY":" ","HOUSE_NO":"３４號","E_COORD97":179855.66,"N_COORD97":2548050.25,"ADDRESS":"中興路５８０巷３４號","OBJECTID":436978},"geometry":{"x":179855.66000000108,"y":2548050.2500000037}},{"attributes":{"ID":437004,"DIS_CODE":0,"TOWNNAME":"新化區","LI":"東榮里","LIN":"14鄰","STREET":"復興路","SECT":" ","MAREA":" ","LANE":"１１４巷","ALLEY":" ","HOUSE_NO":"３７號","E_COORD97":179843.97,"N_COORD97":2547782.25,"ADDRESS":"復興路１１４巷３７號","OBJECTID":436979},"geometry":{"x":179843.9700000016,"y":2547782.2499999981}},{"attributes":{"ID":437005,"DIS_CODE":0,"TOWNNAME":"新化區","LI":"清水里","LIN":"4鄰","STREET":"民權街","SECT":" ","MAREA":" ","LANE":"７巷","ALLEY":" ","HOUSE_NO":"９號","E_COORD97":178723.51000000001,"N_COORD97":2548443.25,"ADDRESS":"民權街７巷９號","OBJECTID":436980},"geometry":{"x":178723.51000000071,"y":2548443.25}},{"attributes":{"ID":437006,"DIS_CODE":0,"TOWNNAME":"新化區","LI":"東榮里","LIN":"26鄰","STREET":"和平街","SECT":" ","MAREA":" ","LANE":"４５巷","ALLEY":" ","HOUSE_NO":"３６號","E_COORD97":179206.12,"N_COORD97":2548060.25,"ADDRESS":"和平街４５巷３６號","OBJECTID":436981},"geometry":{"x":179206.12000000104,"y":2548060.2499999981}},{"attributes":{"ID":437007,"DIS_CODE":0,"TOWNNAME":"新化區","LI":"太平里","LIN":"8鄰","STREET":"中正路","SECT":" ","MAREA":" ","LANE":"６６２巷","ALLEY":" ","HOUSE_NO":"２１號","E_COORD97":178716.16,"N_COORD97":2549491.25,"ADDRESS":"中正路６６２巷２１號","OBJECTID":436982},"geometry":{"x":178716.16000000108,"y":2549491.2500000037}},{"attributes":{"ID":437008,"DIS_CODE":0,"TOWNNAME":"新化區","LI":"協興里","LIN":"13鄰","STREET":"太平街","SECT":" ","MAREA":" ","LANE":"１５０巷","ALLEY":" ","HOUSE_NO":"７７號","E_COORD97":178288.07000000001,"N_COORD97":2548788.25,"ADDRESS":"太平街１５０巷７７號","OBJECTID":436983},"geometry":{"x":178288.07000000123,"y":2548788.25}},{"attributes":{"ID":437009,"DIS_CODE":0,"TOWNNAME":"新化區","LI":"協興里","LIN":"13鄰","STREET":"太平街","SECT":" ","MAREA":" ","LANE":"１５０巷","ALLEY":" ","HOUSE_NO":"１０７號","E_COORD97":178269.92000000001,"N_COORD97":2548820.25,"ADDRESS":"太平街１５０巷１０７號","OBJECTID":436984},"geometry":{"x":178269.92000000086,"y":2548820.2500000019}},{"attributes":{"ID":437010,"DIS_CODE":0,"TOWNNAME":"新化區","LI":"太平里","LIN":"4鄰","STREET":"民生路","SECT":" ","MAREA":" ","LANE":"２９５巷","ALLEY":" ","HOUSE_NO":"７號","E_COORD97":178907.51000000001,"N_COORD97":2549140.25,"ADDRESS":"民生路２９５巷７號","OBJECTID":436985},"geometry":{"x":178907.50999999978,"y":2549140.2500000019}},{"attributes":{"ID":437011,"DIS_CODE":0,"TOWNNAME":"新化區","LI":"知義里","LIN":"14鄰","STREET":"中正路","SECT":" ","MAREA":" ","LANE":"２００巷","ALLEY":" ","HOUSE_NO":"６８號","E_COORD97":179200.66,"N_COORD97":2547194.25,"ADDRESS":"中正路２００巷６８號","OBJECTID":436986},"geometry":{"x":179200.66000000201,"y":2547194.2500000019}},{"attributes":{"ID":437012,"DIS_CODE":0,"TOWNNAME":"新化區","LI":"東榮里","LIN":"14鄰","STREET":"中興路","SECT":" ","MAREA":" ","LANE":"５８０巷","ALLEY":" ","HOUSE_NO":"３７號","E_COORD97":179845.76000000001,"N_COORD97":2548057.25,"ADDRESS":"中興路５８０巷３７號","OBJECTID":436987},"geometry":{"x":179845.76000000071,"y":2548057.2500000037}},{"attributes":{"ID":437013,"DIS_CODE":0,"TOWNNAME":"新化區","LI":"東榮里","LIN":"17鄰","STREET":"中興路","SECT":" ","MAREA":" ","LANE":"６７７巷","ALLEY":" ","HOUSE_NO":"３６號","E_COORD97":179589.56,"N_COORD97":2547953.25,"ADDRESS":"中興路６７７巷３６號","OBJECTID":436988},"geometry":{"x":179589.56000000052,"y":2547953.2500000019}},{"attributes":{"ID":437014,"DIS_CODE":0,"TOWNNAME":"新化區","LI":"觀音里","LIN":"4鄰","STREET":"仁愛街","SECT":" ","MAREA":" ","LANE":"６５巷","ALLEY":" ","HOUSE_NO":"２７號","E_COORD97":178971.73000000001,"N_COORD97":2548521.25,"ADDRESS":"仁愛街６５巷２７號","OBJECTID":436989},"geometry":{"x":178971.73000000138,"y":2548521.25}},{"attributes":{"ID":437015,"DIS_CODE":0,"TOWNNAME":"新化區","LI":"協興里","LIN":"14鄰","STREET":"太平街","SECT":" ","MAREA":" ","LANE":"１５０巷","ALLEY":" ","HOUSE_NO":"６９號之２","E_COORD97":178284.23000000001,"N_COORD97":2548758.2599999998,"ADDRESS":"太平街１５０巷６９號之２","OBJECTID":436990},"geometry":{"x":178284.23000000045,"y":2548758.2599999998}},{"attributes":{"ID":437016,"DIS_CODE":0,"TOWNNAME":"新化區","LI":"太平里","LIN":"4鄰","STREET":"民生路","SECT":" ","MAREA":" ","LANE":"１８６巷","ALLEY":" ","HOUSE_NO":"２９號","E_COORD97":179154.35999999999,"N_COORD97":2549007.25,"ADDRESS":"民生路１８６巷２９號","OBJECTID":436991},"geometry":{"x":179154.36000000127,"y":2549007.2500000019}},{"attributes":{"ID":437017,"DIS_CODE":0,"TOWNNAME":"新化區","LI":"東榮里","LIN":"14鄰","STREET":"中興路","SECT":" ","MAREA":" ","LANE":"５９５巷","ALLEY":" ","HOUSE_NO":"３９號","E_COORD97":179841.95999999999,"N_COORD97":2547822.25,"ADDRESS":"中興路５９５巷３９號","OBJECTID":436992},"geometry":{"x":179841.95999999996,"y":2547822.25}},{"attributes":{"ID":437018,"DIS_CODE":0,"TOWNNAME":"新化區","LI":"協興里","LIN":"4鄰","STREET":"正新路","SECT":" ","MAREA":" ","LANE":"２５１巷","ALLEY":" ","HOUSE_NO":"３號","E_COORD97":178540.32000000001,"N_COORD97":2548506.25,"ADDRESS":"正新路２５１巷３號","OBJECTID":436993},"geometry":{"x":178540.32000000216,"y":2548506.2500000019}},{"attributes":{"ID":437019,"DIS_CODE":0,"TOWNNAME":"新化區","LI":"護國里","LIN":"4鄰","STREET":"建國街","SECT":" ","MAREA":" ","LANE":"９巷","ALLEY":" ","HOUSE_NO":"７號","E_COORD97":179168.42999999999,"N_COORD97":2548517.2599999998,"ADDRESS":"建國街９巷７號","OBJECTID":436994},"geometry":{"x":179168.43000000063,"y":2548517.2599999998}},{"attributes":{"ID":437020,"DIS_CODE":0,"TOWNNAME":"新化區","LI":"清水里","LIN":"4鄰","STREET":"民權街","SECT":" ","MAREA":" ","LANE":"７巷","ALLEY":" ","HOUSE_NO":"１０號","E_COORD97":178710.16,"N_COORD97":2548454.25,"ADDRESS":"民權街７巷１０號","OBJECTID":436995},"geometry":{"x":178710.16000000015,"y":2548454.2500000019}},{"attributes":{"ID":437021,"DIS_CODE":0,"TOWNNAME":"新化區","LI":"清水里","LIN":"4鄰","STREET":"民權街","SECT":" ","MAREA":" ","LANE":"７巷","ALLEY":" ","HOUSE_NO":"１號","E_COORD97":178740.51000000001,"N_COORD97":2548443.25,"ADDRESS":"民權街７巷１號","OBJECTID":436996},"geometry":{"x":178740.51000000071,"y":2548443.25}},{"attributes":{"ID":437022,"DIS_CODE":0,"TOWNNAME":"新化區","LI":"東榮里","LIN":"26鄰","STREET":"和平街","SECT":" ","MAREA":" ","LANE":"４５巷","ALLEY":" ","HOUSE_NO":"１１號","E_COORD97":179247.01999999999,"N_COORD97":2548112.25,"ADDRESS":"和平街４５巷１１號","OBJECTID":436997},"geometry":{"x":179247.02000000048,"y":2548112.2500000019}},{"attributes":{"ID":437023,"DIS_CODE":0,"TOWNNAME":"新化區","LI":"東榮里","LIN":"18鄰","STREET":"中興路","SECT":" ","MAREA":" ","LANE":"６８５巷","ALLEY":" ","HOUSE_NO":"４９號","E_COORD97":179576.85999999999,"N_COORD97":2548015.25,"ADDRESS":"中興路６８５巷４９號","OBJECTID":436998},"geometry":{"x":179576.86000000034,"y":2548015.25}},{"attributes":{"ID":437024,"DIS_CODE":0,"TOWNNAME":"新化區","LI":"東榮里","LIN":"8鄰","STREET":"信義路","SECT":" ","MAREA":" ","LANE":"１１７巷","ALLEY":" ","HOUSE_NO":"２８號之５６","E_COORD97":179772.67999999999,"N_COORD97":2548265.2599999998,"ADDRESS":"信義路１１７巷２８號之５６","OBJECTID":436999},"geometry":{"x":179772.6799999997,"y":2548265.2600000016}},{"attributes":{"ID":437025,"DIS_CODE":0,"TOWNNAME":"新化區","LI":"豐榮里","LIN":"13鄰","STREET":"民治路","SECT":" ","MAREA":" ","LANE":"１３巷","ALLEY":" ","HOUSE_NO":"１１號","E_COORD97":178689.20999999999,"N_COORD97":2547978.25,"ADDRESS":"民治路１３巷１１號","OBJECTID":437000},"geometry":{"x":178689.20999999996,"y":2547978.25}}]}