{"displayFieldName":"TOWNNAME","fieldAliases":{"ID":"ID","DIS_CODE":"DIS_CODE","TOWNNAME":"TOWNNAME","LI":"LI","LIN":"LIN","STREET":"STREET","SECT":"SECT","MAREA":"MAREA","LANE":"LANE","ALLEY":"ALLEY","HOUSE_NO":"HOUSE_NO","E_COORD97":"E_COORD97","N_COORD97":"N_COORD97","ADDRESS":"ADDRESS","OBJECTID":"OBJECTID"},"geometryType":"esriGeometryPoint","spatialReference":{"wkid":102443,"latestWkid":3826},"fields":[{"name":"ID","type":"esriFieldTypeDouble","alias":"ID"},{"name":"DIS_CODE","type":"esriFieldTypeInteger","alias":"DIS_CODE"},{"name":"TOWNNAME","type":"esriFieldTypeString","alias":"TOWNNAME","length":8},{"name":"LI","type":"esriFieldTypeString","alias":"LI","length":8},{"name":"LIN","type":"esriFieldTypeString","alias":"LIN","length":12},{"name":"STREET","type":"esriFieldTypeString","alias":"STREET","length":20},{"name":"SECT","type":"esriFieldTypeString","alias":"SECT","length":8},{"name":"MAREA","type":"esriFieldTypeString","alias":"MAREA","length":12},{"name":"LANE","type":"esriFieldTypeString","alias":"LANE","length":10},{"name":"ALLEY","type":"esriFieldTypeString","alias":"ALLEY","length":10},{"name":"HOUSE_NO","type":"esriFieldTypeString","alias":"HOUSE_NO","length":20},{"name":"E_COORD97","type":"esriFieldTypeDouble","alias":"E_COORD97"},{"name":"N_COORD97","type":"esriFieldTypeDouble","alias":"N_COORD97"},{"name":"ADDRESS","type":"esriFieldTypeString","alias":"ADDRESS","length":50},{"name":"OBJECTID","type":"esriFieldTypeOID","alias":"OBJECTID"}],"features":[{"attributes":{"ID":533028,"DIS_CODE":0,"TOWNNAME":"永康區","LI":"西灣里","LIN":"30鄰","STREET":"大勇路","SECT":" ","MAREA":" ","LANE":" ","ALLEY":" ","HOUSE_NO":"２１９號","E_COORD97":174300.92000000001,"N_COORD97":2545824.77,"ADDRESS":"大勇路２１９號","OBJECTID":533001},"geometry":{"x":174300.91999999993,"y":2545824.7699999996}},{"attributes":{"ID":533029,"DIS_CODE":0,"TOWNNAME":"永康區","LI":"西灣里","LIN":"30鄰","STREET":"大勇路","SECT":" ","MAREA":" ","LANE":" ","ALLEY":" ","HOUSE_NO":"２２５號","E_COORD97":174300.51000000001,"N_COORD97":2545837.5099999998,"ADDRESS":"大勇路２２５號","OBJECTID":533002},"geometry":{"x":174300.51000000164,"y":2545837.5099999998}},{"attributes":{"ID":533030,"DIS_CODE":0,"TOWNNAME":"永康區","LI":"西灣里","LIN":"30鄰","STREET":"大勇路","SECT":" ","MAREA":" ","LANE":" ","ALLEY":" ","HOUSE_NO":"２３３號","E_COORD97":174292.22,"N_COORD97":2545859.7200000002,"ADDRESS":"大勇路２３３號","OBJECTID":533003},"geometry":{"x":174292.2200000016,"y":2545859.7200000007}},{"attributes":{"ID":533031,"DIS_CODE":0,"TOWNNAME":"南區","LI":"金華里","LIN":"30鄰","STREET":"新孝路","SECT":" ","MAREA":" ","LANE":" ","ALLEY":" ","HOUSE_NO":"１３８之１號","E_COORD97":166552.17999999999,"N_COORD97":2542073.73,"ADDRESS":"新孝路１３８之１號","OBJECTID":533004},"geometry":{"x":166552.18000000156,"y":2542073.7300000042}},{"attributes":{"ID":533032,"DIS_CODE":0,"TOWNNAME":"仁德區","LI":"仁義里","LIN":"30鄰","STREET":"中清二街","SECT":" ","MAREA":" ","LANE":" ","ALLEY":" ","HOUSE_NO":"４２之１號","E_COORD97":173580.53,"N_COORD97":2541508.5600000001,"ADDRESS":"中清二街４２之１號","OBJECTID":533005},"geometry":{"x":173580.53000000119,"y":2541508.5599999987}},{"attributes":{"ID":533033,"DIS_CODE":0,"TOWNNAME":"仁德區","LI":"仁義里","LIN":"30鄰","STREET":"中清二街","SECT":" ","MAREA":" ","LANE":" ","ALLEY":" ","HOUSE_NO":"３６號","E_COORD97":173576.64999999999,"N_COORD97":2541491.29,"ADDRESS":"中清二街３６號","OBJECTID":533006},"geometry":{"x":173576.6500000013,"y":2541491.2899999991}},{"attributes":{"ID":533034,"DIS_CODE":0,"TOWNNAME":"仁德區","LI":"仁義里","LIN":"30鄰","STREET":"中清二街","SECT":" ","MAREA":" ","LANE":" ","ALLEY":" ","HOUSE_NO":"４２號","E_COORD97":173577.87,"N_COORD97":2541504.54,"ADDRESS":"中清二街４２號","OBJECTID":533007},"geometry":{"x":173577.87000000197,"y":2541504.540000001}},{"attributes":{"ID":533035,"DIS_CODE":0,"TOWNNAME":"仁德區","LI":"仁義里","LIN":"30鄰","STREET":"中清二街","SECT":" ","MAREA":" ","LANE":" ","ALLEY":" ","HOUSE_NO":"４８號","E_COORD97":173578.79999999999,"N_COORD97":2541517.04,"ADDRESS":"中清二街４８號","OBJECTID":533008},"geometry":{"x":173578.80000000075,"y":2541517.0399999991}},{"attributes":{"ID":533036,"DIS_CODE":0,"TOWNNAME":"仁德區","LI":"仁義里","LIN":"30鄰","STREET":"中清二街","SECT":" ","MAREA":" ","LANE":" ","ALLEY":" ","HOUSE_NO":"５０號","E_COORD97":173579.31,"N_COORD97":2541521.54,"ADDRESS":"中清二街５０號","OBJECTID":533009},"geometry":{"x":173579.30999999866,"y":2541521.540000001}},{"attributes":{"ID":533037,"DIS_CODE":0,"TOWNNAME":"仁德區","LI":"仁義里","LIN":"30鄰","STREET":"中清二街","SECT":" ","MAREA":" ","LANE":" ","ALLEY":" ","HOUSE_NO":"３８號","E_COORD97":173577.23999999999,"N_COORD97":2541495.79,"ADDRESS":"中清二街３８號","OBJECTID":533010},"geometry":{"x":173577.24000000209,"y":2541495.790000001}},{"attributes":{"ID":533038,"DIS_CODE":0,"TOWNNAME":"仁德區","LI":"仁義里","LIN":"30鄰","STREET":"中清二街","SECT":" ","MAREA":" ","LANE":" ","ALLEY":" ","HOUSE_NO":"４６號","E_COORD97":173578.64999999999,"N_COORD97":2541512.79,"ADDRESS":"中清二街４６號","OBJECTID":533011},"geometry":{"x":173578.6500000013,"y":2541512.790000001}},{"attributes":{"ID":533039,"DIS_CODE":0,"TOWNNAME":"仁德區","LI":"仁義里","LIN":"30鄰","STREET":"中清一街","SECT":" ","MAREA":" ","LANE":" ","ALLEY":" ","HOUSE_NO":"４９號","E_COORD97":173632.09,"N_COORD97":2541464.5499999998,"ADDRESS":"中清一街４９號","OBJECTID":533012},"geometry":{"x":173632.09000000171,"y":2541464.5500000007}},{"attributes":{"ID":533040,"DIS_CODE":0,"TOWNNAME":"東區","LI":"中西里","LIN":"30鄰","STREET":"東寧路","SECT":" ","MAREA":" ","LANE":" ","ALLEY":" ","HOUSE_NO":"１８８號","E_COORD97":170446.17999999999,"N_COORD97":2543470.96,"ADDRESS":"東寧路１８８號","OBJECTID":533013},"geometry":{"x":170446.18000000063,"y":2543470.9600000028}},{"attributes":{"ID":533041,"DIS_CODE":0,"TOWNNAME":"東區","LI":"崇文里","LIN":"30鄰","STREET":"崇德二十五街","SECT":" ","MAREA":" ","LANE":" ","ALLEY":" ","HOUSE_NO":"５７號","E_COORD97":170960.03,"N_COORD97":2540670.3300000001,"ADDRESS":"崇德二十五街５７號","OBJECTID":533014},"geometry":{"x":170960.03000000119,"y":2540670.3300000019}},{"attributes":{"ID":533042,"DIS_CODE":0,"TOWNNAME":"東區","LI":"崇文里","LIN":"30鄰","STREET":"崇德二十五街","SECT":" ","MAREA":" ","LANE":" ","ALLEY":" ","HOUSE_NO":"５９號","E_COORD97":170963.94,"N_COORD97":2540670.7000000002,"ADDRESS":"崇德二十五街５９號","OBJECTID":533015},"geometry":{"x":170963.94000000134,"y":2540670.7000000011}},{"attributes":{"ID":533043,"DIS_CODE":0,"TOWNNAME":"東區","LI":"崇文里","LIN":"30鄰","STREET":"崇德二十五街","SECT":" ","MAREA":" ","LANE":" ","ALLEY":" ","HOUSE_NO":"６１號","E_COORD97":170968.95999999999,"N_COORD97":2540669.9500000002,"ADDRESS":"崇德二十五街６１號","OBJECTID":533016},"geometry":{"x":170968.96000000089,"y":2540669.9499999993}},{"attributes":{"ID":533044,"DIS_CODE":0,"TOWNNAME":"東區","LI":"崇文里","LIN":"30鄰","STREET":"崇德二十五街","SECT":" ","MAREA":" ","LANE":" ","ALLEY":" ","HOUSE_NO":"６３號","E_COORD97":170973.23999999999,"N_COORD97":2540670.7000000002,"ADDRESS":"崇德二十五街６３號","OBJECTID":533017},"geometry":{"x":170973.23999999929,"y":2540670.7000000011}},{"attributes":{"ID":533045,"DIS_CODE":0,"TOWNNAME":"東區","LI":"崇文里","LIN":"30鄰","STREET":"崇德二十四街","SECT":" ","MAREA":" ","LANE":" ","ALLEY":" ","HOUSE_NO":"６２號","E_COORD97":170965.06,"N_COORD97":2540694.8799999999,"ADDRESS":"崇德二十四街６２號","OBJECTID":533018},"geometry":{"x":170965.05999999959,"y":2540694.8800000027}},{"attributes":{"ID":533046,"DIS_CODE":0,"TOWNNAME":"東區","LI":"崇文里","LIN":"30鄰","STREET":"崇德二十四街","SECT":" ","MAREA":" ","LANE":" ","ALLEY":" ","HOUSE_NO":"６６號","E_COORD97":170973.06,"N_COORD97":2540695.8100000001,"ADDRESS":"崇德二十四街６６號","OBJECTID":533019},"geometry":{"x":170973.06000000052,"y":2540695.8100000005}},{"attributes":{"ID":533047,"DIS_CODE":0,"TOWNNAME":"東區","LI":"忠孝里","LIN":"30鄰","STREET":"崇明十街","SECT":" ","MAREA":" ","LANE":" ","ALLEY":" ","HOUSE_NO":"２８之１號","E_COORD97":170081.07000000001,"N_COORD97":2541764.7599999998,"ADDRESS":"崇明十街２８之１號","OBJECTID":533020},"geometry":{"x":170081.0700000003,"y":2541764.7600000016}},{"attributes":{"ID":533048,"DIS_CODE":0,"TOWNNAME":"永康區","LI":"尚頂里","LIN":"30鄰","STREET":"中正南路","SECT":" ","MAREA":" ","LANE":" ","ALLEY":" ","HOUSE_NO":"１７５號","E_COORD97":169896.23000000001,"N_COORD97":2547169.75,"ADDRESS":"中正南路１７５號","OBJECTID":533021},"geometry":{"x":169896.23000000138,"y":2547169.7500000019}},{"attributes":{"ID":533049,"DIS_CODE":0,"TOWNNAME":"永康區","LI":"尚頂里","LIN":"30鄰","STREET":"中正南路","SECT":" ","MAREA":" ","LANE":" ","ALLEY":" ","HOUSE_NO":"１７１號","E_COORD97":169847.69,"N_COORD97":2547141,"ADDRESS":"中正南路１７１號","OBJECTID":533022},"geometry":{"x":169847.69000000041,"y":2547141.0000000019}},{"attributes":{"ID":533050,"DIS_CODE":0,"TOWNNAME":"永康區","LI":"西灣里","LIN":"30鄰","STREET":"大勇路","SECT":" ","MAREA":" ","LANE":" ","ALLEY":" ","HOUSE_NO":"２２９號","E_COORD97":174299.87,"N_COORD97":2545846.5099999998,"ADDRESS":"大勇路２２９號","OBJECTID":533023},"geometry":{"x":174299.87000000011,"y":2545846.5099999998}},{"attributes":{"ID":533051,"DIS_CODE":0,"TOWNNAME":"永康區","LI":"\u25A0行里","LIN":"30鄰","STREET":"中正北路","SECT":" ","MAREA":" ","LANE":" ","ALLEY":" ","HOUSE_NO":"３２７號","E_COORD97":172926.92999999999,"N_COORD97":2549138.75,"ADDRESS":"中正北路３２７號","OBJECTID":533024},"geometry":{"x":172926.93000000063,"y":2549138.7500000037}},{"attributes":{"ID":533052,"DIS_CODE":0,"TOWNNAME":"永康區","LI":"\u25A0行里","LIN":"30鄰","STREET":"中正北路","SECT":" ","MAREA":" ","LANE":" ","ALLEY":" ","HOUSE_NO":"３３９號之１","E_COORD97":172967.35000000001,"N_COORD97":2549139.4300000002,"ADDRESS":"中正北路３３９號之１","OBJECTID":533025},"geometry":{"x":172967.35000000149,"y":2549139.4299999997}},{"attributes":{"ID":533053,"DIS_CODE":0,"TOWNNAME":"永康區","LI":"龍潭里","LIN":"30鄰","STREET":"龍國街","SECT":" ","MAREA":" ","LANE":" ","ALLEY":" ","HOUSE_NO":"５６２號","E_COORD97":175218.13,"N_COORD97":2547995.3900000001,"ADDRESS":"龍國街５６２號","OBJECTID":533026},"geometry":{"x":175218.12999999989,"y":2547995.3900000006}},{"attributes":{"ID":533054,"DIS_CODE":0,"TOWNNAME":"永康區","LI":"龍潭里","LIN":"30鄰","STREET":"龍國街","SECT":" ","MAREA":" ","LANE":" ","ALLEY":" ","HOUSE_NO":"４７０號","E_COORD97":174968.31,"N_COORD97":2547971.77,"ADDRESS":"龍國街４７０號","OBJECTID":533027},"geometry":{"x":174968.31000000052,"y":2547971.7700000033}},{"attributes":{"ID":533055,"DIS_CODE":0,"TOWNNAME":"新化區","LI":"東榮里","LIN":"30鄰","STREET":"信義路","SECT":" ","MAREA":" ","LANE":" ","ALLEY":" ","HOUSE_NO":"１６９號","E_COORD97":179253.92999999999,"N_COORD97":2548354.25,"ADDRESS":"信義路１６９號","OBJECTID":533028},"geometry":{"x":179253.9299999997,"y":2548354.25}},{"attributes":{"ID":533056,"DIS_CODE":0,"TOWNNAME":"新化區","LI":"東榮里","LIN":"30鄰","STREET":"信義路","SECT":" ","MAREA":" ","LANE":" ","ALLEY":" ","HOUSE_NO":"１７３號之６","E_COORD97":179255.28,"N_COORD97":2548316.2599999998,"ADDRESS":"信義路１７３號之６","OBJECTID":533029},"geometry":{"x":179255.28000000026,"y":2548316.2599999998}},{"attributes":{"ID":533057,"DIS_CODE":0,"TOWNNAME":"新化區","LI":"東榮里","LIN":"30鄰","STREET":"信義路","SECT":" ","MAREA":" ","LANE":" ","ALLEY":" ","HOUSE_NO":"１７１號之９","E_COORD97":179266.97,"N_COORD97":2548307.2599999998,"ADDRESS":"信義路１７１號之９","OBJECTID":533030},"geometry":{"x":179266.96999999974,"y":2548307.2599999998}},{"attributes":{"ID":533058,"DIS_CODE":0,"TOWNNAME":"新化區","LI":"東榮里","LIN":"30鄰","STREET":"信義路","SECT":" ","MAREA":" ","LANE":" ","ALLEY":" ","HOUSE_NO":"１７１號之８","E_COORD97":179265.29000000001,"N_COORD97":2548312.2599999998,"ADDRESS":"信義路１７１號之８","OBJECTID":533031},"geometry":{"x":179265.29000000004,"y":2548312.2600000016}},{"attributes":{"ID":533059,"DIS_CODE":0,"TOWNNAME":"新化區","LI":"東榮里","LIN":"30鄰","STREET":"信義路","SECT":" ","MAREA":" ","LANE":" ","ALLEY":" ","HOUSE_NO":"１７１號之１","E_COORD97":179273.56,"N_COORD97":2548346.2599999998,"ADDRESS":"信義路１７１號之１","OBJECTID":533032},"geometry":{"x":179273.56000000145,"y":2548346.2600000016}},{"attributes":{"ID":533060,"DIS_CODE":0,"TOWNNAME":"永康區","LI":"\u25A0行里","LIN":"30鄰","STREET":"中正北路","SECT":" ","MAREA":" ","LANE":" ","ALLEY":" ","HOUSE_NO":"３４７號","E_COORD97":173046.38,"N_COORD97":2549142.75,"ADDRESS":"中正北路３４７號","OBJECTID":533033},"geometry":{"x":173046.37999999989,"y":2549142.7500000019}},{"attributes":{"ID":533061,"DIS_CODE":0,"TOWNNAME":"永康區","LI":"龍潭里","LIN":"30鄰","STREET":"龍國街","SECT":" ","MAREA":" ","LANE":" ","ALLEY":" ","HOUSE_NO":"４６６號","E_COORD97":174943.07000000001,"N_COORD97":2547991.6000000001,"ADDRESS":"龍國街４６６號","OBJECTID":533034},"geometry":{"x":174943.07000000216,"y":2547991.6000000015}},{"attributes":{"ID":533062,"DIS_CODE":0,"TOWNNAME":"永康區","LI":"\u25A0行里","LIN":"30鄰","STREET":"中正北路","SECT":" ","MAREA":" ","LANE":" ","ALLEY":" ","HOUSE_NO":"３１２號之１","E_COORD97":172859.73999999999,"N_COORD97":2549087.2200000002,"ADDRESS":"中正北路３１２號之１","OBJECTID":533035},"geometry":{"x":172859.74000000022,"y":2549087.2200000007}},{"attributes":{"ID":533063,"DIS_CODE":0,"TOWNNAME":"永康區","LI":"龍潭里","LIN":"30鄰","STREET":"龍國街","SECT":" ","MAREA":" ","LANE":" ","ALLEY":" ","HOUSE_NO":"４００號","E_COORD97":174829.63,"N_COORD97":2547979.4199999999,"ADDRESS":"龍國街４００號","OBJECTID":533036},"geometry":{"x":174829.62999999989,"y":2547979.4200000018}},{"attributes":{"ID":533064,"DIS_CODE":0,"TOWNNAME":"永康區","LI":"\u25A0行里","LIN":"30鄰","STREET":"中正北路","SECT":" ","MAREA":" ","LANE":" ","ALLEY":" ","HOUSE_NO":"３３９號之５","E_COORD97":172984.39000000001,"N_COORD97":2549140.4300000002,"ADDRESS":"中正北路３３９號之５","OBJECTID":533037},"geometry":{"x":172984.3900000006,"y":2549140.4300000034}},{"attributes":{"ID":533065,"DIS_CODE":0,"TOWNNAME":"永康區","LI":"龍潭里","LIN":"30鄰","STREET":"龍潭街","SECT":" ","MAREA":" ","LANE":" ","ALLEY":" ","HOUSE_NO":"７８號","E_COORD97":174792.92999999999,"N_COORD97":2547929.0299999998,"ADDRESS":"龍潭街７８號","OBJECTID":533038},"geometry":{"x":174792.93000000063,"y":2547929.0300000031}},{"attributes":{"ID":533066,"DIS_CODE":0,"TOWNNAME":"永康區","LI":"\u25A0行里","LIN":"30鄰","STREET":"中正北路","SECT":" ","MAREA":" ","LANE":" ","ALLEY":" ","HOUSE_NO":"１６８號","E_COORD97":172443.41,"N_COORD97":2549074.2599999998,"ADDRESS":"中正北路１６８號","OBJECTID":533039},"geometry":{"x":172443.41000000015,"y":2549074.2600000016}},{"attributes":{"ID":533067,"DIS_CODE":0,"TOWNNAME":"永康區","LI":"龍潭里","LIN":"30鄰","STREET":"龍潭街","SECT":" ","MAREA":" ","LANE":" ","ALLEY":" ","HOUSE_NO":"７２號","E_COORD97":174788.53,"N_COORD97":2547918.0299999998,"ADDRESS":"龍潭街７２號","OBJECTID":533040},"geometry":{"x":174788.53000000026,"y":2547918.0299999993}},{"attributes":{"ID":533068,"DIS_CODE":0,"TOWNNAME":"仁德區","LI":"仁義里","LIN":"30鄰","STREET":"中清一街","SECT":" ","MAREA":" ","LANE":" ","ALLEY":" ","HOUSE_NO":"６９號","E_COORD97":173635.95999999999,"N_COORD97":2541509.79,"ADDRESS":"中清一街６９號","OBJECTID":533041},"geometry":{"x":173635.95999999996,"y":2541509.790000001}},{"attributes":{"ID":533069,"DIS_CODE":0,"TOWNNAME":"仁德區","LI":"太子里","LIN":"30鄰","STREET":"中正路","SECT":"三段","MAREA":" ","LANE":" ","ALLEY":" ","HOUSE_NO":"５６０號","E_COORD97":173914.16,"N_COORD97":2543204.5299999998,"ADDRESS":"中正路三段５６０號","OBJECTID":533042},"geometry":{"x":173914.16000000015,"y":2543204.5300000012}},{"attributes":{"ID":533070,"DIS_CODE":0,"TOWNNAME":"仁德區","LI":"仁義里","LIN":"30鄰","STREET":"中清一街","SECT":" ","MAREA":" ","LANE":" ","ALLEY":" ","HOUSE_NO":"５５號","E_COORD97":173633.35000000001,"N_COORD97":2541478.5499999998,"ADDRESS":"中清一街５５號","OBJECTID":533043},"geometry":{"x":173633.3499999987,"y":2541478.5500000045}},{"attributes":{"ID":533071,"DIS_CODE":0,"TOWNNAME":"仁德區","LI":"仁義里","LIN":"30鄰","STREET":"中清一街","SECT":" ","MAREA":" ","LANE":" ","ALLEY":" ","HOUSE_NO":"６３號","E_COORD97":173634.76000000001,"N_COORD97":2541496.54,"ADDRESS":"中清一街６３號","OBJECTID":533044},"geometry":{"x":173634.76000000071,"y":2541496.5399999991}},{"attributes":{"ID":533072,"DIS_CODE":0,"TOWNNAME":"仁德區","LI":"太子里","LIN":"30鄰","STREET":"中正路","SECT":"三段","MAREA":" ","LANE":" ","ALLEY":" ","HOUSE_NO":"５５８號","E_COORD97":173917.04000000001,"N_COORD97":2543201.2799999998,"ADDRESS":"中正路三段５５８號","OBJECTID":533045},"geometry":{"x":173917.04000000004,"y":2543201.2800000031}},{"attributes":{"ID":533073,"DIS_CODE":0,"TOWNNAME":"仁德區","LI":"太子里","LIN":"30鄰","STREET":"太子路","SECT":" ","MAREA":" ","LANE":" ","ALLEY":" ","HOUSE_NO":"５８７號","E_COORD97":173801.22,"N_COORD97":2543511.2599999998,"ADDRESS":"太子路５８７號","OBJECTID":533046},"geometry":{"x":173801.22000000067,"y":2543511.2600000016}},{"attributes":{"ID":533074,"DIS_CODE":0,"TOWNNAME":"仁德區","LI":"仁義里","LIN":"30鄰","STREET":"正義路","SECT":" ","MAREA":" ","LANE":" ","ALLEY":" ","HOUSE_NO":"１１１號","E_COORD97":173635.56,"N_COORD97":2541440.27,"ADDRESS":"正義路１１１號","OBJECTID":533047},"geometry":{"x":173635.56000000052,"y":2541440.2699999996}},{"attributes":{"ID":533075,"DIS_CODE":0,"TOWNNAME":"仁德區","LI":"太子里","LIN":"30鄰","STREET":"中正路","SECT":"三段","MAREA":" ","LANE":" ","ALLEY":" ","HOUSE_NO":"６２６號","E_COORD97":173810.89000000001,"N_COORD97":2543331.2799999998,"ADDRESS":"中正路三段６２６號","OBJECTID":533048},"geometry":{"x":173810.88999999966,"y":2543331.2800000012}},{"attributes":{"ID":533076,"DIS_CODE":0,"TOWNNAME":"仁德區","LI":"仁義里","LIN":"30鄰","STREET":"中清二街","SECT":" ","MAREA":" ","LANE":" ","ALLEY":" ","HOUSE_NO":"２６號","E_COORD97":173574.95999999999,"N_COORD97":2541469.5499999998,"ADDRESS":"中清二街２６號","OBJECTID":533049},"geometry":{"x":173574.95999999996,"y":2541469.5500000026}},{"attributes":{"ID":533077,"DIS_CODE":0,"TOWNNAME":"仁德區","LI":"太子里","LIN":"30鄰","STREET":"中正路","SECT":"三段","MAREA":" ","LANE":" ","ALLEY":" ","HOUSE_NO":"５５６號","E_COORD97":173920.12,"N_COORD97":2543197.5299999998,"ADDRESS":"中正路三段５５６號","OBJECTID":533050},"geometry":{"x":173920.12000000011,"y":2543197.5300000012}},{"attributes":{"ID":533078,"DIS_CODE":0,"TOWNNAME":"仁德區","LI":"太子里","LIN":"30鄰","STREET":"中正路","SECT":"三段","MAREA":" ","LANE":" ","ALLEY":" ","HOUSE_NO":"５６２號","E_COORD97":173911.51000000001,"N_COORD97":2543208.2799999998,"ADDRESS":"中正路三段５６２號","OBJECTID":533051},"geometry":{"x":173911.50999999978,"y":2543208.2800000012}},{"attributes":{"ID":533079,"DIS_CODE":0,"TOWNNAME":"仁德區","LI":"太子里","LIN":"30鄰","STREET":"中正路","SECT":"三段","MAREA":" ","LANE":" ","ALLEY":" ","HOUSE_NO":"５４０號","E_COORD97":173937.39999999999,"N_COORD97":2543175.77,"ADDRESS":"中正路三段５４０號","OBJECTID":533052},"geometry":{"x":173937.40000000224,"y":2543175.7700000014}},{"attributes":{"ID":533080,"DIS_CODE":0,"TOWNNAME":"仁德區","LI":"太子里","LIN":"30鄰","STREET":"太子路","SECT":" ","MAREA":" ","LANE":" ","ALLEY":" ","HOUSE_NO":"６０７號","E_COORD97":173741.85000000001,"N_COORD97":2543514.0099999998,"ADDRESS":"太子路６０７號","OBJECTID":533053},"geometry":{"x":173741.8499999987,"y":2543514.0099999998}},{"attributes":{"ID":533081,"DIS_CODE":0,"TOWNNAME":"仁德區","LI":"太子里","LIN":"30鄰","STREET":"太子路","SECT":" ","MAREA":" ","LANE":" ","ALLEY":" ","HOUSE_NO":"６０３號","E_COORD97":173754.17999999999,"N_COORD97":2543513.7599999998,"ADDRESS":"太子路６０３號","OBJECTID":533054},"geometry":{"x":173754.18000000063,"y":2543513.7600000035}},{"attributes":{"ID":533082,"DIS_CODE":0,"TOWNNAME":"仁德區","LI":"太子里","LIN":"30鄰","STREET":"中正路","SECT":"三段","MAREA":" ","LANE":" ","ALLEY":" ","HOUSE_NO":"５３８號","E_COORD97":173940.37,"N_COORD97":2543172.27,"ADDRESS":"中正路三段５３８號","OBJECTID":533055},"geometry":{"x":173940.37000000011,"y":2543172.2700000014}},{"attributes":{"ID":533083,"DIS_CODE":0,"TOWNNAME":"仁德區","LI":"太子里","LIN":"30鄰","STREET":"太子路","SECT":" ","MAREA":" ","LANE":" ","ALLEY":" ","HOUSE_NO":"５９７號","E_COORD97":173769.23000000001,"N_COORD97":2543513.2599999998,"ADDRESS":"太子路５９７號","OBJECTID":533056},"geometry":{"x":173769.23000000138,"y":2543513.2599999998}},{"attributes":{"ID":533084,"DIS_CODE":0,"TOWNNAME":"仁德區","LI":"仁義里","LIN":"30鄰","STREET":"中清一街","SECT":" ","MAREA":" ","LANE":" ","ALLEY":" ","HOUSE_NO":"５３號","E_COORD97":173632.89999999999,"N_COORD97":2541474.2999999998,"ADDRESS":"中清一街５３號","OBJECTID":533057},"geometry":{"x":173632.9000000013,"y":2541474.3000000026}},{"attributes":{"ID":533085,"DIS_CODE":0,"TOWNNAME":"仁德區","LI":"太子里","LIN":"30鄰","STREET":"中正路","SECT":"三段","MAREA":" ","LANE":" ","ALLEY":" ","HOUSE_NO":"５４２號","E_COORD97":173934.26000000001,"N_COORD97":2543179.52,"ADDRESS":"中正路三段５４２號","OBJECTID":533058},"geometry":{"x":173934.26000000164,"y":2543179.5200000033}},{"attributes":{"ID":533086,"DIS_CODE":0,"TOWNNAME":"仁德區","LI":"太子里","LIN":"30鄰","STREET":"太子路","SECT":" ","MAREA":" ","LANE":" ","ALLEY":" ","HOUSE_NO":"６０５號","E_COORD97":173748.28,"N_COORD97":2543513.5099999998,"ADDRESS":"太子路６０５號","OBJECTID":533059},"geometry":{"x":173748.28000000212,"y":2543513.5100000016}},{"attributes":{"ID":533087,"DIS_CODE":0,"TOWNNAME":"仁德區","LI":"太子里","LIN":"30鄰","STREET":"中正路","SECT":"三段","MAREA":" ","LANE":" ","ALLEY":" ","HOUSE_NO":"６３４號","E_COORD97":173798.23999999999,"N_COORD97":2543348.52,"ADDRESS":"中正路三段６３４號","OBJECTID":533060},"geometry":{"x":173798.24000000115,"y":2543348.5199999996}},{"attributes":{"ID":533088,"DIS_CODE":0,"TOWNNAME":"仁德區","LI":"太子里","LIN":"30鄰","STREET":"中正路","SECT":"三段","MAREA":" ","LANE":" ","ALLEY":" ","HOUSE_NO":"６３２號","E_COORD97":173801.44,"N_COORD97":2543342.5299999998,"ADDRESS":"中正路三段６３２號","OBJECTID":533061},"geometry":{"x":173801.44000000227,"y":2543342.5300000012}},{"attributes":{"ID":533089,"DIS_CODE":0,"TOWNNAME":"仁德區","LI":"太子里","LIN":"30鄰","STREET":"中正路","SECT":"三段","MAREA":" ","LANE":" ","ALLEY":" ","HOUSE_NO":"５５２號","E_COORD97":173923.35000000001,"N_COORD97":2543193.5299999998,"ADDRESS":"中正路三段５５２號","OBJECTID":533062},"geometry":{"x":173923.35000000149,"y":2543193.5300000012}},{"attributes":{"ID":533090,"DIS_CODE":0,"TOWNNAME":"仁德區","LI":"太子里","LIN":"30鄰","STREET":"中正路","SECT":"三段","MAREA":" ","LANE":" ","ALLEY":" ","HOUSE_NO":"５４６號","E_COORD97":173931.57999999999,"N_COORD97":2543182.77,"ADDRESS":"中正路三段５４６號","OBJECTID":533063},"geometry":{"x":173931.58000000007,"y":2543182.7700000014}},{"attributes":{"ID":533091,"DIS_CODE":0,"TOWNNAME":"仁德區","LI":"太子里","LIN":"30鄰","STREET":"中正路","SECT":"三段","MAREA":" ","LANE":" ","ALLEY":" ","HOUSE_NO":"６４０號","E_COORD97":173772.72249700001,"N_COORD97":2543365.4670299999,"ADDRESS":"中正路三段６４０號","OBJECTID":533064},"geometry":{"x":173772.72249700222,"y":2543365.4670270048}},{"attributes":{"ID":533092,"DIS_CODE":0,"TOWNNAME":"仁德區","LI":"太子里","LIN":"30鄰","STREET":"中正路","SECT":"三段","MAREA":" ","LANE":" ","ALLEY":" ","HOUSE_NO":"６４６號","E_COORD97":173766.58111,"N_COORD97":2543372.34619,"ADDRESS":"中正路三段６４６號","OBJECTID":533065},"geometry":{"x":173766.58110999968,"y":2543372.3461900018}},{"attributes":{"ID":533093,"DIS_CODE":0,"TOWNNAME":"仁德區","LI":"太子里","LIN":"30鄰","STREET":"中正路","SECT":"三段","MAREA":" ","LANE":" ","ALLEY":" ","HOUSE_NO":"６４８號","E_COORD97":173762.98098600001,"N_COORD97":2543377.3203500002,"ADDRESS":"中正路三段６４８號","OBJECTID":533066},"geometry":{"x":173762.98098600097,"y":2543377.3203539997}},{"attributes":{"ID":533094,"DIS_CODE":0,"TOWNNAME":"仁德區","LI":"太子里","LIN":"30鄰","STREET":"太子路","SECT":" ","MAREA":" ","LANE":" ","ALLEY":" ","HOUSE_NO":"５８９號","E_COORD97":173796.10000000001,"N_COORD97":2543511.5099999998,"ADDRESS":"太子路５８９號","OBJECTID":533067},"geometry":{"x":173796.0999999987,"y":2543511.5099999998}},{"attributes":{"ID":533095,"DIS_CODE":0,"TOWNNAME":"仁德區","LI":"太子里","LIN":"30鄰","STREET":"中正路","SECT":"三段","MAREA":" ","LANE":" ","ALLEY":" ","HOUSE_NO":"６２８號","E_COORD97":173807.20999999999,"N_COORD97":2543335.7799999998,"ADDRESS":"中正路三段６２８號","OBJECTID":533068},"geometry":{"x":173807.20999999996,"y":2543335.7799999993}},{"attributes":{"ID":533096,"DIS_CODE":0,"TOWNNAME":"仁德區","LI":"仁義里","LIN":"30鄰","STREET":"正義路","SECT":" ","MAREA":" ","LANE":" ","ALLEY":" ","HOUSE_NO":"１０１號","E_COORD97":173611.75,"N_COORD97":2541441.52,"ADDRESS":"正義路１０１號","OBJECTID":533069},"geometry":{"x":173611.75,"y":2541441.5200000014}},{"attributes":{"ID":533097,"DIS_CODE":0,"TOWNNAME":"仁德區","LI":"仁義里","LIN":"30鄰","STREET":"正義路","SECT":" ","MAREA":" ","LANE":" ","ALLEY":" ","HOUSE_NO":"９３號","E_COORD97":173593.62,"N_COORD97":2541443.77,"ADDRESS":"正義路９３號","OBJECTID":533070},"geometry":{"x":173593.62000000104,"y":2541443.7699999996}},{"attributes":{"ID":533098,"DIS_CODE":0,"TOWNNAME":"東區","LI":"泉南里","LIN":"30鄰","STREET":"府連路","SECT":" ","MAREA":" ","LANE":" ","ALLEY":" ","HOUSE_NO":"２６３號","E_COORD97":169457.47,"N_COORD97":2542894.1400000001,"ADDRESS":"府連路２６３號","OBJECTID":533071},"geometry":{"x":169457.4700000016,"y":2542894.1400000006}},{"attributes":{"ID":533099,"DIS_CODE":0,"TOWNNAME":"東區","LI":"泉南里","LIN":"30鄰","STREET":"府連路","SECT":" ","MAREA":" ","LANE":" ","ALLEY":" ","HOUSE_NO":"２６９號","E_COORD97":169470.79000000001,"N_COORD97":2542887.5800000001,"ADDRESS":"府連路２６９號","OBJECTID":533072},"geometry":{"x":169470.78999999911,"y":2542887.5800000001}},{"attributes":{"ID":533100,"DIS_CODE":0,"TOWNNAME":"東區","LI":"泉南里","LIN":"30鄰","STREET":"府連路","SECT":" ","MAREA":" ","LANE":" ","ALLEY":" ","HOUSE_NO":"２７３號","E_COORD97":169478.98999999999,"N_COORD97":2542885.54,"ADDRESS":"府連路２７３號","OBJECTID":533073},"geometry":{"x":169478.99000000115,"y":2542885.540000001}},{"attributes":{"ID":533101,"DIS_CODE":0,"TOWNNAME":"東區","LI":"泉南里","LIN":"30鄰","STREET":"府連路","SECT":" ","MAREA":" ","LANE":" ","ALLEY":" ","HOUSE_NO":"２９７號","E_COORD97":169523.67999999999,"N_COORD97":2542871.2000000002,"ADDRESS":"府連路２９７號","OBJECTID":533074},"geometry":{"x":169523.6799999997,"y":2542871.1999999993}},{"attributes":{"ID":533102,"DIS_CODE":0,"TOWNNAME":"東區","LI":"泉南里","LIN":"30鄰","STREET":"府連路","SECT":" ","MAREA":" ","LANE":" ","ALLEY":" ","HOUSE_NO":"２９９號","E_COORD97":169529.22,"N_COORD97":2542869.1499999999,"ADDRESS":"府連路２９９號","OBJECTID":533075},"geometry":{"x":169529.22000000067,"y":2542869.1500000022}},{"attributes":{"ID":533103,"DIS_CODE":0,"TOWNNAME":"東區","LI":"泉南里","LIN":"30鄰","STREET":"府連路","SECT":" ","MAREA":" ","LANE":" ","ALLEY":" ","HOUSE_NO":"３０１號","E_COORD97":169533.32000000001,"N_COORD97":2542868.1299999999,"ADDRESS":"府連路３０１號","OBJECTID":533076},"geometry":{"x":169533.3200000003,"y":2542868.129999999}},{"attributes":{"ID":533104,"DIS_CODE":0,"TOWNNAME":"東區","LI":"泉南里","LIN":"30鄰","STREET":"府連路","SECT":" ","MAREA":" ","LANE":" ","ALLEY":" ","HOUSE_NO":"３０３號","E_COORD97":169537.42000000001,"N_COORD97":2542866.4900000002,"ADDRESS":"府連路３０３號","OBJECTID":533077},"geometry":{"x":169537.41999999993,"y":2542866.4900000021}},{"attributes":{"ID":533105,"DIS_CODE":0,"TOWNNAME":"東區","LI":"泉南里","LIN":"30鄰","STREET":"府連路","SECT":" ","MAREA":" ","LANE":" ","ALLEY":" ","HOUSE_NO":"３０５號","E_COORD97":169541.92999999999,"N_COORD97":2542865.46,"ADDRESS":"府連路３０５號","OBJECTID":533078},"geometry":{"x":169541.9299999997,"y":2542865.4600000009}},{"attributes":{"ID":533106,"DIS_CODE":0,"TOWNNAME":"東區","LI":"泉南里","LIN":"30鄰","STREET":"府連路","SECT":" ","MAREA":" ","LANE":" ","ALLEY":" ","HOUSE_NO":"３０７號","E_COORD97":169546.23000000001,"N_COORD97":2542864.4399999999,"ADDRESS":"府連路３０７號","OBJECTID":533079},"geometry":{"x":169546.22999999952,"y":2542864.4399999976}},{"attributes":{"ID":533107,"DIS_CODE":0,"TOWNNAME":"東區","LI":"泉南里","LIN":"30鄰","STREET":"府連路","SECT":" ","MAREA":" ","LANE":" ","ALLEY":" ","HOUSE_NO":"３０９號","E_COORD97":169551.35999999999,"N_COORD97":2542862.6000000001,"ADDRESS":"府連路３０９號","OBJECTID":533080},"geometry":{"x":169551.36000000034,"y":2542862.5999999996}},{"attributes":{"ID":533108,"DIS_CODE":0,"TOWNNAME":"安南區","LI":"安慶里","LIN":"30鄰","STREET":"培安路","SECT":" ","MAREA":" ","LANE":" ","ALLEY":" ","HOUSE_NO":"４６０號","E_COORD97":169346.03,"N_COORD97":2548654.1899999999,"ADDRESS":"培安路４６０號","OBJECTID":533081},"geometry":{"x":169346.03000000119,"y":2548654.1900000013}},{"attributes":{"ID":533109,"DIS_CODE":0,"TOWNNAME":"永康區","LI":"\u25A0行里","LIN":"30鄰","STREET":"永安路","SECT":" ","MAREA":" ","LANE":" ","ALLEY":" ","HOUSE_NO":"２４２號","E_COORD97":172383.32000000001,"N_COORD97":2549785.8100000001,"ADDRESS":"永安路２４２號","OBJECTID":533082},"geometry":{"x":172383.32000000216,"y":2549785.8100000005}},{"attributes":{"ID":533110,"DIS_CODE":0,"TOWNNAME":"永康區","LI":"\u25A0洲里","LIN":"30鄰","STREET":"洲尾街","SECT":" ","MAREA":" ","LANE":" ","ALLEY":" ","HOUSE_NO":"３０５號","E_COORD97":171083.28,"N_COORD97":2549155.1899999999,"ADDRESS":"洲尾街３０５號","OBJECTID":533083},"geometry":{"x":171083.28000000212,"y":2549155.1899999976}},{"attributes":{"ID":533111,"DIS_CODE":0,"TOWNNAME":"永康區","LI":"\u25A0洲里","LIN":"30鄰","STREET":"洲尾街","SECT":" ","MAREA":" ","LANE":" ","ALLEY":" ","HOUSE_NO":"３２１號","E_COORD97":171133.88,"N_COORD97":2549159.6299999999,"ADDRESS":"洲尾街３２１號","OBJECTID":533084},"geometry":{"x":171133.88000000082,"y":2549159.6300000008}},{"attributes":{"ID":533112,"DIS_CODE":0,"TOWNNAME":"永康區","LI":"\u25A0洲里","LIN":"30鄰","STREET":"洲尾街","SECT":" ","MAREA":" ","LANE":" ","ALLEY":" ","HOUSE_NO":"２８３號","E_COORD97":171041.06,"N_COORD97":2549141.2000000002,"ADDRESS":"洲尾街２８３號","OBJECTID":533085},"geometry":{"x":171041.05999999959,"y":2549141.1999999993}},{"attributes":{"ID":533113,"DIS_CODE":0,"TOWNNAME":"永康區","LI":"\u25A0洲里","LIN":"30鄰","STREET":"洲尾街","SECT":" ","MAREA":" ","LANE":" ","ALLEY":" ","HOUSE_NO":"２８１號","E_COORD97":171037.28,"N_COORD97":2549139.9500000002,"ADDRESS":"洲尾街２８１號","OBJECTID":533086},"geometry":{"x":171037.28000000026,"y":2549139.950000003}},{"attributes":{"ID":533114,"DIS_CODE":0,"TOWNNAME":"永康區","LI":"\u25A0洲里","LIN":"30鄰","STREET":"洲尾街","SECT":" ","MAREA":" ","LANE":" ","ALLEY":" ","HOUSE_NO":"２７３號","E_COORD97":171021.76999999999,"N_COORD97":2549136.7000000002,"ADDRESS":"洲尾街２７３號","OBJECTID":533087},"geometry":{"x":171021.77000000048,"y":2549136.6999999993}},{"attributes":{"ID":533115,"DIS_CODE":0,"TOWNNAME":"永康區","LI":"\u25A0洲里","LIN":"30鄰","STREET":"洲尾街","SECT":" ","MAREA":" ","LANE":" ","ALLEY":" ","HOUSE_NO":"３１３號","E_COORD97":171098.17000000001,"N_COORD97":2549160.6899999999,"ADDRESS":"洲尾街３１３號","OBJECTID":533088},"geometry":{"x":171098.16999999993,"y":2549160.6899999995}},{"attributes":{"ID":533116,"DIS_CODE":0,"TOWNNAME":"永康區","LI":"\u25A0洲里","LIN":"30鄰","STREET":"洲尾街","SECT":" ","MAREA":" ","LANE":" ","ALLEY":" ","HOUSE_NO":"３０１號","E_COORD97":171075.67000000001,"N_COORD97":2549152.2000000002,"ADDRESS":"洲尾街３０１號","OBJECTID":533089},"geometry":{"x":171075.67000000086,"y":2549152.2000000011}},{"attributes":{"ID":533117,"DIS_CODE":0,"TOWNNAME":"永康區","LI":"\u25A0洲里","LIN":"30鄰","STREET":"洲尾街","SECT":" ","MAREA":" ","LANE":" ","ALLEY":" ","HOUSE_NO":"２８７號","E_COORD97":171048.82999999999,"N_COORD97":2549143.2000000002,"ADDRESS":"洲尾街２８７號","OBJECTID":533090},"geometry":{"x":171048.83000000194,"y":2549143.2000000011}},{"attributes":{"ID":533118,"DIS_CODE":0,"TOWNNAME":"永康區","LI":"\u25A0洲里","LIN":"30鄰","STREET":"洲尾街","SECT":" ","MAREA":" ","LANE":" ","ALLEY":" ","HOUSE_NO":"２９５號","E_COORD97":171064.22,"N_COORD97":2549147.9500000002,"ADDRESS":"洲尾街２９５號","OBJECTID":533091},"geometry":{"x":171064.21999999974,"y":2549147.9500000011}},{"attributes":{"ID":533119,"DIS_CODE":0,"TOWNNAME":"永康區","LI":"\u25A0洲里","LIN":"30鄰","STREET":"洲尾街","SECT":" ","MAREA":" ","LANE":" ","ALLEY":" ","HOUSE_NO":"２７９號","E_COORD97":171033.63,"N_COORD97":2549139.2000000002,"ADDRESS":"洲尾街２７９號","OBJECTID":533092},"geometry":{"x":171033.63000000082,"y":2549139.2000000011}},{"attributes":{"ID":533120,"DIS_CODE":0,"TOWNNAME":"永康區","LI":"\u25A0洲里","LIN":"30鄰","STREET":"洲尾街","SECT":" ","MAREA":" ","LANE":" ","ALLEY":" ","HOUSE_NO":"３１７號","E_COORD97":171106.35000000001,"N_COORD97":2549164.79,"ADDRESS":"洲尾街３１７號","OBJECTID":533093},"geometry":{"x":171106.35000000056,"y":2549164.7900000028}},{"attributes":{"ID":533121,"DIS_CODE":0,"TOWNNAME":"永康區","LI":"\u25A0洲里","LIN":"30鄰","STREET":"洲尾街","SECT":" ","MAREA":" ","LANE":" ","ALLEY":" ","HOUSE_NO":"２９９號","E_COORD97":171071.76999999999,"N_COORD97":2549150.7000000002,"ADDRESS":"洲尾街２９９號","OBJECTID":533094},"geometry":{"x":171071.76999999955,"y":2549150.6999999993}},{"attributes":{"ID":533122,"DIS_CODE":0,"TOWNNAME":"永康區","LI":"\u25A0洲里","LIN":"30鄰","STREET":"洲尾街","SECT":" ","MAREA":" ","LANE":" ","ALLEY":" ","HOUSE_NO":"２９１號","E_COORD97":171056.57000000001,"N_COORD97":2549145.4500000002,"ADDRESS":"洲尾街２９１號","OBJECTID":533095},"geometry":{"x":171056.57000000123,"y":2549145.4499999993}},{"attributes":{"ID":533123,"DIS_CODE":0,"TOWNNAME":"永康區","LI":"\u25A0洲里","LIN":"30鄰","STREET":"洲尾街","SECT":" ","MAREA":" ","LANE":" ","ALLEY":" ","HOUSE_NO":"３１１號","E_COORD97":171094.62,"N_COORD97":2549159.4399999999,"ADDRESS":"洲尾街３１１號","OBJECTID":533096},"geometry":{"x":171094.62000000104,"y":2549159.4399999995}},{"attributes":{"ID":533124,"DIS_CODE":0,"TOWNNAME":"永康區","LI":"\u25A0洲里","LIN":"30鄰","STREET":"洲尾街","SECT":" ","MAREA":" ","LANE":" ","ALLEY":" ","HOUSE_NO":"２８９號","E_COORD97":171052.76000000001,"N_COORD97":2549144.2000000002,"ADDRESS":"洲尾街２８９號","OBJECTID":533097},"geometry":{"x":171052.76000000071,"y":2549144.1999999993}},{"attributes":{"ID":533125,"DIS_CODE":0,"TOWNNAME":"新營區","LI":"忠政里","LIN":"30鄰","STREET":"府西路","SECT":" ","MAREA":" ","LANE":" ","ALLEY":" ","HOUSE_NO":"５７號","E_COORD97":179780.23999999999,"N_COORD97":2579066.5699999998,"ADDRESS":"府西路５７號","OBJECTID":533098},"geometry":{"x":179780.24000000115,"y":2579066.5700000003}},{"attributes":{"ID":533126,"DIS_CODE":0,"TOWNNAME":"永康區","LI":"龍潭里","LIN":"30鄰","STREET":"龍昌街","SECT":" ","MAREA":" ","LANE":" ","ALLEY":" ","HOUSE_NO":"５５號","E_COORD97":174989.47,"N_COORD97":2547922.2000000002,"ADDRESS":"龍昌街５５號","OBJECTID":533099},"geometry":{"x":174989.47000000067,"y":2547922.2000000011}},{"attributes":{"ID":533127,"DIS_CODE":0,"TOWNNAME":"永康區","LI":"龍潭里","LIN":"30鄰","STREET":"龍昌街","SECT":" ","MAREA":" ","LANE":" ","ALLEY":" ","HOUSE_NO":"７２號","E_COORD97":175011.10000000001,"N_COORD97":2547927.52,"ADDRESS":"龍昌街７２號","OBJECTID":533100},"geometry":{"x":175011.09999999963,"y":2547927.5200000014}},{"attributes":{"ID":533128,"DIS_CODE":0,"TOWNNAME":"永康區","LI":"\u25A0行里","LIN":"30鄰","STREET":"中正北路","SECT":" ","MAREA":" ","LANE":" ","ALLEY":" ","HOUSE_NO":"２０２號","E_COORD97":172498.47,"N_COORD97":2549076.4500000002,"ADDRESS":"中正北路２０２號","OBJECTID":533101},"geometry":{"x":172498.46999999974,"y":2549076.4500000011}},{"attributes":{"ID":533129,"DIS_CODE":0,"TOWNNAME":"永康區","LI":"龍潭里","LIN":"30鄰","STREET":"龍昌街","SECT":" ","MAREA":" ","LANE":" ","ALLEY":" ","HOUSE_NO":"６８號","E_COORD97":175012.25,"N_COORD97":2547917.27,"ADDRESS":"龍昌街６８號","OBJECTID":533102},"geometry":{"x":175012.25,"y":2547917.2699999977}},{"attributes":{"ID":533130,"DIS_CODE":0,"TOWNNAME":"永康區","LI":"\u25A0行里","LIN":"30鄰","STREET":"中正北路","SECT":" ","MAREA":" ","LANE":" ","ALLEY":" ","HOUSE_NO":"３００號","E_COORD97":172738.32000000001,"N_COORD97":2549081.2400000002,"ADDRESS":"中正北路３００號","OBJECTID":533103},"geometry":{"x":172738.32000000123,"y":2549081.2400000039}},{"attributes":{"ID":533131,"DIS_CODE":0,"TOWNNAME":"永康區","LI":"龍潭里","LIN":"30鄰","STREET":"龍潭街","SECT":" ","MAREA":" ","LANE":" ","ALLEY":" ","HOUSE_NO":"１１４號","E_COORD97":174862.87,"N_COORD97":2548035.8100000001,"ADDRESS":"龍潭街１１４號","OBJECTID":533104},"geometry":{"x":174862.87000000197,"y":2548035.8100000005}},{"attributes":{"ID":533132,"DIS_CODE":0,"TOWNNAME":"永康區","LI":"龍潭里","LIN":"30鄰","STREET":"龍昌街","SECT":" ","MAREA":" ","LANE":" ","ALLEY":" ","HOUSE_NO":"７０號","E_COORD97":175011.54999999999,"N_COORD97":2547923.02,"ADDRESS":"龍昌街７０號","OBJECTID":533105},"geometry":{"x":175011.54999999981,"y":2547923.0200000014}},{"attributes":{"ID":533133,"DIS_CODE":0,"TOWNNAME":"永康區","LI":"龍潭里","LIN":"30鄰","STREET":"龍昌街","SECT":" ","MAREA":" ","LANE":" ","ALLEY":" ","HOUSE_NO":"７８號","E_COORD97":175009.94,"N_COORD97":2547940.02,"ADDRESS":"龍昌街７８號","OBJECTID":533106},"geometry":{"x":175009.94000000041,"y":2547940.0200000014}},{"attributes":{"ID":533134,"DIS_CODE":0,"TOWNNAME":"永康區","LI":"龍潭里","LIN":"30鄰","STREET":"龍潭街","SECT":" ","MAREA":" ","LANE":" ","ALLEY":" ","HOUSE_NO":"８４號","E_COORD97":174795.92999999999,"N_COORD97":2547942.5299999998,"ADDRESS":"龍潭街８４號","OBJECTID":533107},"geometry":{"x":174795.93000000156,"y":2547942.5300000031}},{"attributes":{"ID":533135,"DIS_CODE":0,"TOWNNAME":"永康區","LI":"\u25A0行里","LIN":"30鄰","STREET":"中正北路","SECT":" ","MAREA":" ","LANE":" ","ALLEY":" ","HOUSE_NO":"２７１號","E_COORD97":172695.13,"N_COORD97":2549124.23,"ADDRESS":"中正北路２７１號","OBJECTID":533108},"geometry":{"x":172695.13000000082,"y":2549124.2300000004}},{"attributes":{"ID":533136,"DIS_CODE":0,"TOWNNAME":"永康區","LI":"龍潭里","LIN":"30鄰","STREET":"龍昌街","SECT":" ","MAREA":" ","LANE":" ","ALLEY":" ","HOUSE_NO":"８０號","E_COORD97":175009.45999999999,"N_COORD97":2547944.52,"ADDRESS":"龍昌街８０號","OBJECTID":533109},"geometry":{"x":175009.45999999903,"y":2547944.5200000014}},{"attributes":{"ID":533137,"DIS_CODE":0,"TOWNNAME":"永康區","LI":"\u25A0行里","LIN":"30鄰","STREET":"中正北路","SECT":" ","MAREA":" ","LANE":" ","ALLEY":" ","HOUSE_NO":"３０２號","E_COORD97":172756.97,"N_COORD97":2549084.4900000002,"ADDRESS":"中正北路３０２號","OBJECTID":533110},"geometry":{"x":172756.97000000067,"y":2549084.4900000021}},{"attributes":{"ID":533138,"DIS_CODE":0,"TOWNNAME":"永康區","LI":"龍潭里","LIN":"30鄰","STREET":"龍昌街","SECT":" ","MAREA":" ","LANE":" ","ALLEY":" ","HOUSE_NO":"６１號","E_COORD97":174982.22,"N_COORD97":2547997.8900000001,"ADDRESS":"龍昌街６１號","OBJECTID":533111},"geometry":{"x":174982.2200000016,"y":2547997.8900000006}},{"attributes":{"ID":533139,"DIS_CODE":0,"TOWNNAME":"永康區","LI":"\u25A0行里","LIN":"30鄰","STREET":"中正北路","SECT":" ","MAREA":" ","LANE":" ","ALLEY":" ","HOUSE_NO":"２５３號","E_COORD97":172670.88,"N_COORD97":2549118.48,"ADDRESS":"中正北路２５３號","OBJECTID":533112},"geometry":{"x":172670.88000000082,"y":2549118.4800000023}},{"attributes":{"ID":533140,"DIS_CODE":0,"TOWNNAME":"永康區","LI":"\u25A0行里","LIN":"30鄰","STREET":"中正北路","SECT":" ","MAREA":" ","LANE":" ","ALLEY":" ","HOUSE_NO":"２９９號","E_COORD97":172824.82999999999,"N_COORD97":2549134.5,"ADDRESS":"中正北路２９９號","OBJECTID":533113},"geometry":{"x":172824.83000000007,"y":2549134.5000000019}},{"attributes":{"ID":533141,"DIS_CODE":0,"TOWNNAME":"永康區","LI":"\u25A0行里","LIN":"30鄰","STREET":"中正北路","SECT":" ","MAREA":" ","LANE":" ","ALLEY":" ","HOUSE_NO":"３０６號","E_COORD97":172805.63,"N_COORD97":2549045.7400000002,"ADDRESS":"中正北路３０６號","OBJECTID":533114},"geometry":{"x":172805.62999999989,"y":2549045.7400000002}},{"attributes":{"ID":533142,"DIS_CODE":0,"TOWNNAME":"永康區","LI":"龍潭里","LIN":"30鄰","STREET":"龍國街","SECT":" ","MAREA":" ","LANE":" ","ALLEY":" ","HOUSE_NO":"３８７號","E_COORD97":174893.85999999999,"N_COORD97":2548035.3900000001,"ADDRESS":"龍國街３８７號","OBJECTID":533115},"geometry":{"x":174893.86000000127,"y":2548035.3900000006}},{"attributes":{"ID":533143,"DIS_CODE":0,"TOWNNAME":"永康區","LI":"\u25A0行里","LIN":"30鄰","STREET":"中正北路","SECT":" ","MAREA":" ","LANE":" ","ALLEY":" ","HOUSE_NO":"１６２號","E_COORD97":172429.56,"N_COORD97":2549073.29,"ADDRESS":"中正北路１６２號","OBJECTID":533116},"geometry":{"x":172429.55999999959,"y":2549073.290000001}},{"attributes":{"ID":533144,"DIS_CODE":0,"TOWNNAME":"永康區","LI":"永康里","LIN":"30鄰","STREET":"永明街","SECT":" ","MAREA":" ","LANE":" ","ALLEY":" ","HOUSE_NO":"１３８號","E_COORD97":174210.35000000001,"N_COORD97":2547200.5099999998,"ADDRESS":"永明街１３８號","OBJECTID":533117},"geometry":{"x":174210.35000000056,"y":2547200.5099999979}},{"attributes":{"ID":533145,"DIS_CODE":0,"TOWNNAME":"永康區","LI":"永康里","LIN":"30鄰","STREET":"永大路","SECT":"二段","MAREA":" ","LANE":" ","ALLEY":" ","HOUSE_NO":"９１９號","E_COORD97":174239.04999999999,"N_COORD97":2547089.3599999999,"ADDRESS":"永大路二段９１９號","OBJECTID":533118},"geometry":{"x":174239.04999999888,"y":2547089.3600000031}},{"attributes":{"ID":533146,"DIS_CODE":0,"TOWNNAME":"東區","LI":"崇文里","LIN":"30鄰","STREET":"崇德二十五街","SECT":" ","MAREA":" ","LANE":" ","ALLEY":" ","HOUSE_NO":"２３號","E_COORD97":170883.5,"N_COORD97":2540673.4700000002,"ADDRESS":"崇德二十五街２３號","OBJECTID":533119},"geometry":{"x":170883.50000000093,"y":2540673.4700000025}},{"attributes":{"ID":533147,"DIS_CODE":0,"TOWNNAME":"東區","LI":"崇文里","LIN":"30鄰","STREET":"崇德二十五街","SECT":" ","MAREA":" ","LANE":" ","ALLEY":" ","HOUSE_NO":"２５號","E_COORD97":170887.98000000001,"N_COORD97":2540673.4700000002,"ADDRESS":"崇德二十五街２５號","OBJECTID":533120},"geometry":{"x":170887.98000000138,"y":2540673.4700000025}},{"attributes":{"ID":533148,"DIS_CODE":0,"TOWNNAME":"東區","LI":"崇文里","LIN":"30鄰","STREET":"崇德二十五街","SECT":" ","MAREA":" ","LANE":" ","ALLEY":" ","HOUSE_NO":"２７號","E_COORD97":170892.26000000001,"N_COORD97":2540673.4700000002,"ADDRESS":"崇德二十五街２７號","OBJECTID":533121},"geometry":{"x":170892.25999999978,"y":2540673.4700000025}},{"attributes":{"ID":533149,"DIS_CODE":0,"TOWNNAME":"東區","LI":"崇文里","LIN":"30鄰","STREET":"崇德二十五街","SECT":" ","MAREA":" ","LANE":" ","ALLEY":" ","HOUSE_NO":"２９號","E_COORD97":170896.84,"N_COORD97":2540673.4700000002,"ADDRESS":"崇德二十五街２９號","OBJECTID":533122},"geometry":{"x":170896.84000000078,"y":2540673.4700000025}},{"attributes":{"ID":533150,"DIS_CODE":0,"TOWNNAME":"東區","LI":"崇文里","LIN":"30鄰","STREET":"崇德二十五街","SECT":" ","MAREA":" ","LANE":" ","ALLEY":" ","HOUSE_NO":"３１號","E_COORD97":170901.12,"N_COORD97":2540673.3700000001,"ADDRESS":"崇德二十五街３１號","OBJECTID":533123},"geometry":{"x":170901.12000000197,"y":2540673.3700000048}},{"attributes":{"ID":533151,"DIS_CODE":0,"TOWNNAME":"東區","LI":"崇文里","LIN":"30鄰","STREET":"崇德二十五街","SECT":" ","MAREA":" ","LANE":" ","ALLEY":" ","HOUSE_NO":"３３號","E_COORD97":170905.60000000001,"N_COORD97":2540673.3700000001,"ADDRESS":"崇德二十五街３３號","OBJECTID":533124},"geometry":{"x":170905.59999999963,"y":2540673.3700000048}},{"attributes":{"ID":533152,"DIS_CODE":0,"TOWNNAME":"東區","LI":"崇文里","LIN":"30鄰","STREET":"崇德二十五街","SECT":" ","MAREA":" ","LANE":" ","ALLEY":" ","HOUSE_NO":"３５號","E_COORD97":170910.47,"N_COORD97":2540673.27,"ADDRESS":"崇德二十五街３５號","OBJECTID":533125},"geometry":{"x":170910.47000000067,"y":2540673.2700000014}},{"attributes":{"ID":533153,"DIS_CODE":0,"TOWNNAME":"東區","LI":"崇文里","LIN":"30鄰","STREET":"崇德二十五街","SECT":" ","MAREA":" ","LANE":" ","ALLEY":" ","HOUSE_NO":"３７號","E_COORD97":170914.64999999999,"N_COORD97":2540673.3700000001,"ADDRESS":"崇德二十五街３７號","OBJECTID":533126},"geometry":{"x":170914.65000000037,"y":2540673.3700000048}},{"attributes":{"ID":533154,"DIS_CODE":0,"TOWNNAME":"東區","LI":"崇文里","LIN":"30鄰","STREET":"崇德二十五街","SECT":" ","MAREA":" ","LANE":" ","ALLEY":" ","HOUSE_NO":"４７號","E_COORD97":170937.19,"N_COORD97":2540673.27,"ADDRESS":"崇德二十五街４７號","OBJECTID":533127},"geometry":{"x":170937.19000000134,"y":2540673.2700000014}},{"attributes":{"ID":533155,"DIS_CODE":0,"TOWNNAME":"東區","LI":"崇文里","LIN":"30鄰","STREET":"崇德二十五街","SECT":" ","MAREA":" ","LANE":" ","ALLEY":" ","HOUSE_NO":"４９號","E_COORD97":170941.17000000001,"N_COORD97":2540673.27,"ADDRESS":"崇德二十五街４９號","OBJECTID":533128},"geometry":{"x":170941.16999999993,"y":2540673.2700000014}},{"attributes":{"ID":533156,"DIS_CODE":0,"TOWNNAME":"東區","LI":"崇文里","LIN":"30鄰","STREET":"崇德二十五街","SECT":" ","MAREA":" ","LANE":" ","ALLEY":" ","HOUSE_NO":"５１號","E_COORD97":170945.95000000001,"N_COORD97":2540673.3700000001,"ADDRESS":"崇德二十五街５１號","OBJECTID":533129},"geometry":{"x":170945.95000000019,"y":2540673.3700000048}},{"attributes":{"ID":533157,"DIS_CODE":0,"TOWNNAME":"東區","LI":"崇文里","LIN":"30鄰","STREET":"崇德二十五街","SECT":" ","MAREA":" ","LANE":" ","ALLEY":" ","HOUSE_NO":"５３號","E_COORD97":170950.13,"N_COORD97":2540673.3700000001,"ADDRESS":"崇德二十五街５３號","OBJECTID":533130},"geometry":{"x":170950.13000000175,"y":2540673.3700000048}},{"attributes":{"ID":533158,"DIS_CODE":0,"TOWNNAME":"東區","LI":"崇文里","LIN":"30鄰","STREET":"崇德二十五街","SECT":" ","MAREA":" ","LANE":" ","ALLEY":" ","HOUSE_NO":"５５號","E_COORD97":170955.01000000001,"N_COORD97":2540673.27,"ADDRESS":"崇德二十五街５５號","OBJECTID":533131},"geometry":{"x":170955.00999999978,"y":2540673.2700000014}},{"attributes":{"ID":533159,"DIS_CODE":0,"TOWNNAME":"東區","LI":"崇文里","LIN":"30鄰","STREET":"崇德二十五街","SECT":" ","MAREA":" ","LANE":" ","ALLEY":" ","HOUSE_NO":"６２號","E_COORD97":170960.78,"N_COORD97":2540646.0600000001,"ADDRESS":"崇德二十五街６２號","OBJECTID":533132},"geometry":{"x":170960.78000000026,"y":2540646.0600000005}},{"attributes":{"ID":533160,"DIS_CODE":0,"TOWNNAME":"東區","LI":"崇文里","LIN":"30鄰","STREET":"崇德二十五街","SECT":" ","MAREA":" ","LANE":" ","ALLEY":" ","HOUSE_NO":"６４號","E_COORD97":170965.45999999999,"N_COORD97":2540646.0600000001,"ADDRESS":"崇德二十五街６４號","OBJECTID":533133},"geometry":{"x":170965.46000000089,"y":2540646.0600000005}},{"attributes":{"ID":533161,"DIS_CODE":0,"TOWNNAME":"東區","LI":"崇文里","LIN":"30鄰","STREET":"崇德二十五街","SECT":" ","MAREA":" ","LANE":" ","ALLEY":" ","HOUSE_NO":"７０號","E_COORD97":170979.79000000001,"N_COORD97":2540646.5499999998,"ADDRESS":"崇德二十五街７０號","OBJECTID":533134},"geometry":{"x":170979.79000000097,"y":2540646.5500000007}},{"attributes":{"ID":533162,"DIS_CODE":0,"TOWNNAME":"東區","LI":"崇文里","LIN":"30鄰","STREET":"崇德二十四街","SECT":" ","MAREA":" ","LANE":" ","ALLEY":" ","HOUSE_NO":"２２號","E_COORD97":170878.82999999999,"N_COORD97":2540694.1499999999,"ADDRESS":"崇德二十四街２２號","OBJECTID":533135},"geometry":{"x":170878.83000000007,"y":2540694.1500000041}},{"attributes":{"ID":533163,"DIS_CODE":0,"TOWNNAME":"東區","LI":"崇文里","LIN":"30鄰","STREET":"崇德二十四街","SECT":" ","MAREA":" ","LANE":" ","ALLEY":" ","HOUSE_NO":"２４號","E_COORD97":170883.70000000001,"N_COORD97":2540694.1499999999,"ADDRESS":"崇德二十四街２４號","OBJECTID":533136},"geometry":{"x":170883.70000000205,"y":2540694.1500000041}},{"attributes":{"ID":533164,"DIS_CODE":0,"TOWNNAME":"東區","LI":"崇文里","LIN":"30鄰","STREET":"崇德二十四街","SECT":" ","MAREA":" ","LANE":" ","ALLEY":" ","HOUSE_NO":"５０號","E_COORD97":170937.06,"N_COORD97":2540693.96,"ADDRESS":"崇德二十四街５０號","OBJECTID":533137},"geometry":{"x":170937.06000000052,"y":2540693.9600000028}},{"attributes":{"ID":533165,"DIS_CODE":0,"TOWNNAME":"東區","LI":"崇文里","LIN":"30鄰","STREET":"崇德二十四街","SECT":" ","MAREA":" ","LANE":" ","ALLEY":" ","HOUSE_NO":"５２號","E_COORD97":170941.73999999999,"N_COORD97":2540693.96,"ADDRESS":"崇德二十四街５２號","OBJECTID":533138},"geometry":{"x":170941.74000000115,"y":2540693.9600000028}},{"attributes":{"ID":533166,"DIS_CODE":0,"TOWNNAME":"東區","LI":"崇文里","LIN":"30鄰","STREET":"崇德二十四街","SECT":" ","MAREA":" ","LANE":" ","ALLEY":" ","HOUSE_NO":"５４號","E_COORD97":170946.22,"N_COORD97":2540693.96,"ADDRESS":"崇德二十四街５４號","OBJECTID":533139},"geometry":{"x":170946.22000000067,"y":2540693.9600000028}},{"attributes":{"ID":533167,"DIS_CODE":0,"TOWNNAME":"東區","LI":"崇文里","LIN":"30鄰","STREET":"崇德二十四街","SECT":" ","MAREA":" ","LANE":" ","ALLEY":" ","HOUSE_NO":"５６號","E_COORD97":170950.5,"N_COORD97":2540693.8599999999,"ADDRESS":"崇德二十四街５６號","OBJECTID":533140},"geometry":{"x":170950.5,"y":2540693.8599999994}},{"attributes":{"ID":533168,"DIS_CODE":0,"TOWNNAME":"東區","LI":"崇文里","LIN":"30鄰","STREET":"崇德二十四街","SECT":" ","MAREA":" ","LANE":" ","ALLEY":" ","HOUSE_NO":"５８號","E_COORD97":170955.07999999999,"N_COORD97":2540693.9500000002,"ADDRESS":"崇德二十四街５８號","OBJECTID":533141},"geometry":{"x":170955.08000000007,"y":2540693.9499999993}},{"attributes":{"ID":533169,"DIS_CODE":0,"TOWNNAME":"東區","LI":"崇文里","LIN":"30鄰","STREET":"崇德二十四街","SECT":" ","MAREA":" ","LANE":" ","ALLEY":" ","HOUSE_NO":"６０號","E_COORD97":170960.06,"N_COORD97":2540693.7599999998,"ADDRESS":"崇德二十四街６０號","OBJECTID":533142},"geometry":{"x":170960.05999999959,"y":2540693.7600000016}},{"attributes":{"ID":533170,"DIS_CODE":0,"TOWNNAME":"東區","LI":"崇文里","LIN":"30鄰","STREET":"崇德二十四街","SECT":" ","MAREA":" ","LANE":" ","ALLEY":" ","HOUSE_NO":"６８號","E_COORD97":170979.16,"N_COORD97":2540692.5600000001,"ADDRESS":"崇德二十四街６８號","OBJECTID":533143},"geometry":{"x":170979.16000000108,"y":2540692.5600000024}},{"attributes":{"ID":533171,"DIS_CODE":0,"TOWNNAME":"東區","LI":"崇文里","LIN":"30鄰","STREET":"崇德路","SECT":" ","MAREA":" ","LANE":" ","ALLEY":" ","HOUSE_NO":"８２７號","E_COORD97":170822.20000000001,"N_COORD97":2540687.0600000001,"ADDRESS":"崇德路８２７號","OBJECTID":533144},"geometry":{"x":170822.20000000019,"y":2540687.0600000005}},{"attributes":{"ID":533172,"DIS_CODE":0,"TOWNNAME":"永康區","LI":"龍潭里","LIN":"30鄰","STREET":"龍潭街","SECT":" ","MAREA":" ","LANE":" ","ALLEY":" ","HOUSE_NO":"１１０號","E_COORD97":174826.48999999999,"N_COORD97":2548024.9199999999,"ADDRESS":"龍潭街１１０號","OBJECTID":533145},"geometry":{"x":174826.49000000209,"y":2548024.9199999999}},{"attributes":{"ID":533173,"DIS_CODE":0,"TOWNNAME":"永康區","LI":"龍潭里","LIN":"30鄰","STREET":"龍昌街","SECT":" ","MAREA":" ","LANE":" ","ALLEY":" ","HOUSE_NO":"７４號","E_COORD97":175010.76000000001,"N_COORD97":2547931.77,"ADDRESS":"龍昌街７４號","OBJECTID":533146},"geometry":{"x":175010.76000000164,"y":2547931.7700000014}},{"attributes":{"ID":533174,"DIS_CODE":0,"TOWNNAME":"永康區","LI":"\u25A0行里","LIN":"30鄰","STREET":"中正北路","SECT":" ","MAREA":" ","LANE":" ","ALLEY":" ","HOUSE_NO":"３２０號","E_COORD97":172948.84,"N_COORD97":2549075.3300000001,"ADDRESS":"中正北路３２０號","OBJECTID":533147},"geometry":{"x":172948.84000000171,"y":2549075.3300000019}},{"attributes":{"ID":533175,"DIS_CODE":0,"TOWNNAME":"新營區","LI":"大宏里","LIN":"30鄰","STREET":"大同路","SECT":" ","MAREA":" ","LANE":" ","ALLEY":" ","HOUSE_NO":"６號之４","E_COORD97":180724.10000000001,"N_COORD97":2578612.5499999998,"ADDRESS":"大同路６號之４","OBJECTID":533148},"geometry":{"x":180724.09999999963,"y":2578612.5500000007}},{"attributes":{"ID":533176,"DIS_CODE":0,"TOWNNAME":"永康區","LI":"\u25A0行里","LIN":"30鄰","STREET":"中正北路","SECT":" ","MAREA":" ","LANE":" ","ALLEY":" ","HOUSE_NO":"３３９號之７","E_COORD97":172992.28,"N_COORD97":2549140.9300000002,"ADDRESS":"中正北路３３９號之７","OBJECTID":533149},"geometry":{"x":172992.28000000119,"y":2549140.9300000016}},{"attributes":{"ID":533177,"DIS_CODE":0,"TOWNNAME":"永康區","LI":"\u25A0行里","LIN":"30鄰","STREET":"中正北路","SECT":" ","MAREA":" ","LANE":" ","ALLEY":" ","HOUSE_NO":"１２６號","E_COORD97":172364.54000000001,"N_COORD97":2549069.4900000002,"ADDRESS":"中正北路１２６號","OBJECTID":533150},"geometry":{"x":172364.5400000019,"y":2549069.4900000039}},{"attributes":{"ID":533178,"DIS_CODE":0,"TOWNNAME":"永康區","LI":"永康里","LIN":"30鄰","STREET":"永華路","SECT":" ","MAREA":" ","LANE":" ","ALLEY":" ","HOUSE_NO":"７４６號","E_COORD97":174126.76999999999,"N_COORD97":2547150.5800000001,"ADDRESS":"永華路７４６號","OBJECTID":533151},"geometry":{"x":174126.76999999955,"y":2547150.5800000019}},{"attributes":{"ID":533179,"DIS_CODE":0,"TOWNNAME":"新營區","LI":"民生里","LIN":"30鄰","STREET":"民治路","SECT":" ","MAREA":" ","LANE":" ","ALLEY":" ","HOUSE_NO":"２４９號","E_COORD97":178750.92999999999,"N_COORD97":2578299.6000000001,"ADDRESS":"民治路２４９號","OBJECTID":533152},"geometry":{"x":178750.93000000063,"y":2578299.5999999996}},{"attributes":{"ID":533180,"DIS_CODE":0,"TOWNNAME":"新營區","LI":"民生里","LIN":"30鄰","STREET":"民治路","SECT":" ","MAREA":" ","LANE":" ","ALLEY":" ","HOUSE_NO":"２６１號","E_COORD97":178739.57000000001,"N_COORD97":2578275.29,"ADDRESS":"民治路２６１號","OBJECTID":533153},"geometry":{"x":178739.5700000003,"y":2578275.290000001}},{"attributes":{"ID":533181,"DIS_CODE":0,"TOWNNAME":"歸仁區","LI":"許厝里","LIN":"30鄰","STREET":"中山路","SECT":"一段","MAREA":" ","LANE":" ","ALLEY":" ","HOUSE_NO":"５３７號","E_COORD97":177893.60999999999,"N_COORD97":2540727.25,"ADDRESS":"中山路一段５３７號","OBJECTID":533154},"geometry":{"x":177893.61000000034,"y":2540727.2500000037}},{"attributes":{"ID":533182,"DIS_CODE":0,"TOWNNAME":"玉井區","LI":"玉田里","LIN":"30鄰","STREET":"仁愛街","SECT":" ","MAREA":" ","LANE":" ","ALLEY":" ","HOUSE_NO":"２５號","E_COORD97":195476.73000000001,"N_COORD97":2557638.2799999998,"ADDRESS":"仁愛街２５號","OBJECTID":533155},"geometry":{"x":195476.73000000138,"y":2557638.2800000012}},{"attributes":{"ID":533183,"DIS_CODE":0,"TOWNNAME":"玉井區","LI":"玉田里","LIN":"30鄰","STREET":"中華路","SECT":" ","MAREA":" ","LANE":" ","ALLEY":" ","HOUSE_NO":"３５５號","E_COORD97":195427.76000000001,"N_COORD97":2557626.25,"ADDRESS":"中華路３５５號","OBJECTID":533156},"geometry":{"x":195427.76000000071,"y":2557626.2500000019}},{"attributes":{"ID":533184,"DIS_CODE":0,"TOWNNAME":"新營區","LI":"三仙里","LIN":"30鄰","STREET":"育德九街","SECT":" ","MAREA":" ","LANE":" ","ALLEY":" ","HOUSE_NO":"１１號","E_COORD97":179551.62,"N_COORD97":2579173.9700000002,"ADDRESS":"育德九街１１號","OBJECTID":533157},"geometry":{"x":179551.61999999918,"y":2579173.9700000025}},{"attributes":{"ID":533185,"DIS_CODE":0,"TOWNNAME":"新營區","LI":"三仙里","LIN":"30鄰","STREET":"育德九街","SECT":" ","MAREA":" ","LANE":" ","ALLEY":" ","HOUSE_NO":"２０號","E_COORD97":179540.48999999999,"N_COORD97":2579185.1000000001,"ADDRESS":"育德九街２０號","OBJECTID":533158},"geometry":{"x":179540.49000000022,"y":2579185.1000000015}},{"attributes":{"ID":533186,"DIS_CODE":0,"TOWNNAME":"新營區","LI":"三仙里","LIN":"30鄰","STREET":"育德九街","SECT":" ","MAREA":" ","LANE":" ","ALLEY":" ","HOUSE_NO":"２９號","E_COORD97":179510.75,"N_COORD97":2579167.5299999998,"ADDRESS":"育德九街２９號","OBJECTID":533159},"geometry":{"x":179510.75000000093,"y":2579167.5299999993}},{"attributes":{"ID":533187,"DIS_CODE":0,"TOWNNAME":"新營區","LI":"新北里","LIN":"30鄰","STREET":"新北四街","SECT":" ","MAREA":" ","LANE":" ","ALLEY":" ","HOUSE_NO":"２０號","E_COORD97":178758.81,"N_COORD97":2578919.73,"ADDRESS":"新北四街２０號","OBJECTID":533160},"geometry":{"x":178758.81000000052,"y":2578919.7300000004}},{"attributes":{"ID":533188,"DIS_CODE":0,"TOWNNAME":"新營區","LI":"民生里","LIN":"30鄰","STREET":"民治路","SECT":" ","MAREA":" ","LANE":" ","ALLEY":" ","HOUSE_NO":"２２７號","E_COORD97":178768.17000000001,"N_COORD97":2578353.5600000001,"ADDRESS":"民治路２２７號","OBJECTID":533161},"geometry":{"x":178768.17000000086,"y":2578353.5600000024}},{"attributes":{"ID":533189,"DIS_CODE":0,"TOWNNAME":"新營區","LI":"新北里","LIN":"30鄰","STREET":"新北四街","SECT":" ","MAREA":" ","LANE":" ","ALLEY":" ","HOUSE_NO":"３５號","E_COORD97":178747.67000000001,"N_COORD97":2578938.6099999999,"ADDRESS":"新北四街３５號","OBJECTID":533162},"geometry":{"x":178747.67000000179,"y":2578938.6100000013}},{"attributes":{"ID":533190,"DIS_CODE":0,"TOWNNAME":"安平區","LI":"華平里","LIN":"30鄰","STREET":"永華八街","SECT":" ","MAREA":" ","LANE":" ","ALLEY":" ","HOUSE_NO":"１３７號","E_COORD97":165132.48999999999,"N_COORD97":2543606.9500000002,"ADDRESS":"永華八街１３７號","OBJECTID":533163},"geometry":{"x":165132.49000000115,"y":2543606.950000003}},{"attributes":{"ID":533191,"DIS_CODE":0,"TOWNNAME":"安平區","LI":"華平里","LIN":"30鄰","STREET":"永華八街","SECT":" ","MAREA":" ","LANE":" ","ALLEY":" ","HOUSE_NO":"１３９號","E_COORD97":165133.45999999999,"N_COORD97":2543611.3700000001,"ADDRESS":"永華八街１３９號","OBJECTID":533164},"geometry":{"x":165133.46000000183,"y":2543611.370000001}},{"attributes":{"ID":533192,"DIS_CODE":0,"TOWNNAME":"安平區","LI":"華平里","LIN":"30鄰","STREET":"永華八街","SECT":" ","MAREA":" ","LANE":" ","ALLEY":" ","HOUSE_NO":"１４１號","E_COORD97":165134.57000000001,"N_COORD97":2543616.3300000001,"ADDRESS":"永華八街１４１號","OBJECTID":533165},"geometry":{"x":165134.56999999937,"y":2543616.3300000019}},{"attributes":{"ID":533193,"DIS_CODE":0,"TOWNNAME":"安平區","LI":"華平里","LIN":"30鄰","STREET":"永華八街","SECT":" ","MAREA":" ","LANE":" ","ALLEY":" ","HOUSE_NO":"１４３號","E_COORD97":165134.98000000001,"N_COORD97":2543620.8900000001,"ADDRESS":"永華八街１４３號","OBJECTID":533166},"geometry":{"x":165134.98000000045,"y":2543620.8900000006}},{"attributes":{"ID":533194,"DIS_CODE":0,"TOWNNAME":"安平區","LI":"華平里","LIN":"30鄰","STREET":"永華八街","SECT":" ","MAREA":" ","LANE":" ","ALLEY":" ","HOUSE_NO":"１４５號","E_COORD97":165135.26000000001,"N_COORD97":2543624.75,"ADDRESS":"永華八街１４５號","OBJECTID":533167},"geometry":{"x":165135.26000000071,"y":2543624.75}},{"attributes":{"ID":533195,"DIS_CODE":0,"TOWNNAME":"安平區","LI":"華平里","LIN":"30鄰","STREET":"永華八街","SECT":" ","MAREA":" ","LANE":" ","ALLEY":" ","HOUSE_NO":"１４７號","E_COORD97":165135.95000000001,"N_COORD97":2543628.8999999999,"ADDRESS":"永華八街１４７號","OBJECTID":533168},"geometry":{"x":165135.95000000112,"y":2543628.9000000041}},{"attributes":{"ID":533196,"DIS_CODE":0,"TOWNNAME":"北區","LI":"大豐里","LIN":"30鄰","STREET":"文賢路","SECT":" ","MAREA":" ","LANE":" ","ALLEY":" ","HOUSE_NO":"４１５號","E_COORD97":167349.79000000001,"N_COORD97":2545550.7200000002,"ADDRESS":"文賢路４１５號","OBJECTID":533169},"geometry":{"x":167349.79000000004,"y":2545550.7200000025}},{"attributes":{"ID":533197,"DIS_CODE":0,"TOWNNAME":"新營區","LI":"大宏里","LIN":"30鄰","STREET":"大同路","SECT":" ","MAREA":" ","LANE":" ","ALLEY":" ","HOUSE_NO":"６之６號","E_COORD97":180724.47,"N_COORD97":2578620.3100000001,"ADDRESS":"大同路６之６號","OBJECTID":533170},"geometry":{"x":180724.47000000067,"y":2578620.3100000005}},{"attributes":{"ID":533198,"DIS_CODE":0,"TOWNNAME":"新營區","LI":"南興里","LIN":"30鄰","STREET":"建業路","SECT":" ","MAREA":" ","LANE":" ","ALLEY":" ","HOUSE_NO":"１４９號","E_COORD97":178416.54000000001,"N_COORD97":2577485.02,"ADDRESS":"建業路１４９號","OBJECTID":533171},"geometry":{"x":178416.5400000019,"y":2577485.0199999996}},{"attributes":{"ID":533199,"DIS_CODE":0,"TOWNNAME":"新營區","LI":"民榮里","LIN":"30鄰","STREET":"太子路","SECT":" ","MAREA":" ","LANE":" ","ALLEY":" ","HOUSE_NO":"１２６號","E_COORD97":178101.85999999999,"N_COORD97":2577984.8900000001,"ADDRESS":"太子路１２６號","OBJECTID":533172},"geometry":{"x":178101.86000000034,"y":2577984.8900000025}},{"attributes":{"ID":533200,"DIS_CODE":0,"TOWNNAME":"新營區","LI":"新北里","LIN":"30鄰","STREET":"新北六街","SECT":" ","MAREA":" ","LANE":" ","ALLEY":" ","HOUSE_NO":"５６之２號","E_COORD97":178780.09,"N_COORD97":2579007.1800000002,"ADDRESS":"新北六街５６之２號","OBJECTID":533173},"geometry":{"x":178780.08999999985,"y":2579007.1799999997}},{"attributes":{"ID":533201,"DIS_CODE":0,"TOWNNAME":"新營區","LI":"新南里","LIN":"30鄰","STREET":"長榮路","SECT":"二段","MAREA":" ","LANE":" ","ALLEY":" ","HOUSE_NO":"９９３號","E_COORD97":178154.41,"N_COORD97":2578912.6899999999,"ADDRESS":"長榮路二段９９３號","OBJECTID":533174},"geometry":{"x":178154.41000000015,"y":2578912.6900000032}},{"attributes":{"ID":533202,"DIS_CODE":0,"TOWNNAME":"新營區","LI":"新北里","LIN":"30鄰","STREET":"新北六街","SECT":" ","MAREA":" ","LANE":" ","ALLEY":" ","HOUSE_NO":"２６之１號","E_COORD97":178731.07000000001,"N_COORD97":2579011.8399999999,"ADDRESS":"新北六街２６之１號","OBJECTID":533175},"geometry":{"x":178731.0700000003,"y":2579011.8400000017}},{"attributes":{"ID":533203,"DIS_CODE":0,"TOWNNAME":"新營區","LI":"新北里","LIN":"30鄰","STREET":"新北街","SECT":" ","MAREA":" ","LANE":" ","ALLEY":" ","HOUSE_NO":"１７２之１號","E_COORD97":178674.88,"N_COORD97":2578994.3999999999,"ADDRESS":"新北街１７２之１號","OBJECTID":533176},"geometry":{"x":178674.87999999896,"y":2578994.4000000022}},{"attributes":{"ID":533204,"DIS_CODE":0,"TOWNNAME":"新營區","LI":"王公里","LIN":"30鄰","STREET":"民族路","SECT":" ","MAREA":" ","LANE":" ","ALLEY":" ","HOUSE_NO":"２５０號","E_COORD97":180392.28,"N_COORD97":2579526.6000000001,"ADDRESS":"民族路２５０號","OBJECTID":533177},"geometry":{"x":180392.28000000119,"y":2579526.5999999996}},{"attributes":{"ID":533205,"DIS_CODE":0,"TOWNNAME":"新營區","LI":"三仙里","LIN":"30鄰","STREET":"育德九街","SECT":" ","MAREA":" ","LANE":" ","ALLEY":" ","HOUSE_NO":"２７號之２","E_COORD97":179519.04000000001,"N_COORD97":2579143.1899999999,"ADDRESS":"育德九街２７號之２","OBJECTID":533178},"geometry":{"x":179519.04000000097,"y":2579143.1899999976}},{"attributes":{"ID":533206,"DIS_CODE":0,"TOWNNAME":"新營區","LI":"三仙里","LIN":"30鄰","STREET":"育德九街","SECT":" ","MAREA":" ","LANE":" ","ALLEY":" ","HOUSE_NO":"１９號","E_COORD97":179534.22,"N_COORD97":2579171.8399999999,"ADDRESS":"育德九街１９號","OBJECTID":533179},"geometry":{"x":179534.22000000067,"y":2579171.8399999999}},{"attributes":{"ID":533207,"DIS_CODE":0,"TOWNNAME":"新營區","LI":"新北里","LIN":"30鄰","STREET":"新北四街","SECT":" ","MAREA":" ","LANE":" ","ALLEY":" ","HOUSE_NO":"３３號","E_COORD97":178745.60999999999,"N_COORD97":2578935.2999999998,"ADDRESS":"新北四街３３號","OBJECTID":533180},"geometry":{"x":178745.61000000127,"y":2578935.3000000026}},{"attributes":{"ID":533208,"DIS_CODE":0,"TOWNNAME":"新營區","LI":"王公里","LIN":"30鄰","STREET":"大德街","SECT":" ","MAREA":" ","LANE":" ","ALLEY":" ","HOUSE_NO":"８５號","E_COORD97":180454.41,"N_COORD97":2579518.5499999998,"ADDRESS":"大德街８５號","OBJECTID":533181},"geometry":{"x":180454.41000000015,"y":2579518.5500000045}},{"attributes":{"ID":533209,"DIS_CODE":0,"TOWNNAME":"新營區","LI":"大宏里","LIN":"30鄰","STREET":"大同路","SECT":" ","MAREA":" ","LANE":" ","ALLEY":" ","HOUSE_NO":"１４號之８","E_COORD97":180757.01000000001,"N_COORD97":2578578.0800000001,"ADDRESS":"大同路１４號之８","OBJECTID":533182},"geometry":{"x":180757.00999999978,"y":2578578.0800000001}},{"attributes":{"ID":533210,"DIS_CODE":0,"TOWNNAME":"新營區","LI":"三仙里","LIN":"30鄰","STREET":"育德九街","SECT":" ","MAREA":" ","LANE":" ","ALLEY":" ","HOUSE_NO":"３８號","E_COORD97":179496.48999999999,"N_COORD97":2579177.5600000001,"ADDRESS":"育德九街３８號","OBJECTID":533183},"geometry":{"x":179496.49000000022,"y":2579177.5600000005}},{"attributes":{"ID":533211,"DIS_CODE":0,"TOWNNAME":"安平區","LI":"億載里","LIN":"15鄰","STREET":"光州三街","SECT":" ","MAREA":" ","LANE":" ","ALLEY":" ","HOUSE_NO":"２９－１號","E_COORD97":164061.62,"N_COORD97":2543154.77,"ADDRESS":"光州三街２９－１號","OBJECTID":533184},"geometry":{"x":164061.62000000104,"y":2543154.7700000014}},{"attributes":{"ID":533212,"DIS_CODE":0,"TOWNNAME":"南區","LI":"文南里","LIN":"19鄰","STREET":"建南路","SECT":" ","MAREA":" ","LANE":" ","ALLEY":" ","HOUSE_NO":"３０１號","E_COORD97":166499.37,"N_COORD97":2542880.96,"ADDRESS":"建南路３０１號","OBJECTID":533185},"geometry":{"x":166499.37000000104,"y":2542880.9600000028}},{"attributes":{"ID":533213,"DIS_CODE":0,"TOWNNAME":"安平區","LI":"西門里","LIN":"19鄰","STREET":"安平路","SECT":" ","MAREA":" ","LANE":" ","ALLEY":" ","HOUSE_NO":"９８６號","E_COORD97":163296.37,"N_COORD97":2544428.2000000002,"ADDRESS":"安平路９８６號","OBJECTID":533186},"geometry":{"x":163296.37000000011,"y":2544428.1999999993}},{"attributes":{"ID":533214,"DIS_CODE":0,"TOWNNAME":"北區","LI":"成德里","LIN":"19鄰","STREET":"育成路","SECT":" ","MAREA":" ","LANE":" ","ALLEY":" ","HOUSE_NO":"４２號","E_COORD97":168963.64000000001,"N_COORD97":2546350.3199999998,"ADDRESS":"育成路４２號","OBJECTID":533187},"geometry":{"x":168963.6400000006,"y":2546350.3200000003}},{"attributes":{"ID":533215,"DIS_CODE":0,"TOWNNAME":"北區","LI":"成德里","LIN":"19鄰","STREET":"育成路","SECT":" ","MAREA":" ","LANE":" ","ALLEY":" ","HOUSE_NO":"４３號","E_COORD97":168955.88,"N_COORD97":2546318.23,"ADDRESS":"育成路４３號","OBJECTID":533188},"geometry":{"x":168955.87999999989,"y":2546318.2299999986}},{"attributes":{"ID":533216,"DIS_CODE":0,"TOWNNAME":"北區","LI":"成德里","LIN":"19鄰","STREET":"育成路","SECT":" ","MAREA":" ","LANE":" ","ALLEY":" ","HOUSE_NO":"４７號","E_COORD97":168948.97,"N_COORD97":2546323.79,"ADDRESS":"育成路４７號","OBJECTID":533189},"geometry":{"x":168948.9700000016,"y":2546323.790000001}},{"attributes":{"ID":533217,"DIS_CODE":0,"TOWNNAME":"北區","LI":"成德里","LIN":"19鄰","STREET":"西門路","SECT":"四段","MAREA":" ","LANE":" ","ALLEY":" ","HOUSE_NO":"３６７號地下二層","E_COORD97":169052.76999999999,"N_COORD97":2546294.5299999998,"ADDRESS":"西門路四段３６７號地下二層","OBJECTID":533190},"geometry":{"x":169052.76999999955,"y":2546294.5299999993}},{"attributes":{"ID":533218,"DIS_CODE":0,"TOWNNAME":"北區","LI":"成德里","LIN":"19鄰","STREET":"育成路","SECT":" ","MAREA":" ","LANE":" ","ALLEY":" ","HOUSE_NO":"１０號","E_COORD97":169009.48000000001,"N_COORD97":2546314.8799999999,"ADDRESS":"育成路１０號","OBJECTID":533191},"geometry":{"x":169009.48000000138,"y":2546314.879999999}},{"attributes":{"ID":533219,"DIS_CODE":0,"TOWNNAME":"北區","LI":"成德里","LIN":"19鄰","STREET":"育成路","SECT":" ","MAREA":" ","LANE":" ","ALLEY":" ","HOUSE_NO":"１２號","E_COORD97":169006.03,"N_COORD97":2546317.75,"ADDRESS":"育成路１２號","OBJECTID":533192},"geometry":{"x":169006.03000000026,"y":2546317.7500000037}},{"attributes":{"ID":533220,"DIS_CODE":0,"TOWNNAME":"北區","LI":"公園里","LIN":"19鄰","STREET":"公園路","SECT":" ","MAREA":" ","LANE":" ","ALLEY":" ","HOUSE_NO":"１２６號之３","E_COORD97":168738.45999999999,"N_COORD97":2544328.2200000002,"ADDRESS":"公園路１２６號之３","OBJECTID":533193},"geometry":{"x":168738.45999999996,"y":2544328.2200000007}},{"attributes":{"ID":533221,"DIS_CODE":0,"TOWNNAME":"北區","LI":"公園里","LIN":"19鄰","STREET":"公園路","SECT":" ","MAREA":" ","LANE":" ","ALLEY":" ","HOUSE_NO":"１２６號之４","E_COORD97":168741.28,"N_COORD97":2544333.2400000002,"ADDRESS":"公園路１２６號之４","OBJECTID":533194},"geometry":{"x":168741.28000000119,"y":2544333.2400000002}},{"attributes":{"ID":533222,"DIS_CODE":0,"TOWNNAME":"北區","LI":"公園里","LIN":"19鄰","STREET":"公園路","SECT":" ","MAREA":" ","LANE":" ","ALLEY":" ","HOUSE_NO":"１２８號","E_COORD97":168771.01999999999,"N_COORD97":2544380.0600000001,"ADDRESS":"公園路１２８號","OBJECTID":533195},"geometry":{"x":168771.02000000048,"y":2544380.0600000005}},{"attributes":{"ID":533223,"DIS_CODE":0,"TOWNNAME":"北區","LI":"公園里","LIN":"19鄰","STREET":"公園路","SECT":" ","MAREA":" ","LANE":" ","ALLEY":" ","HOUSE_NO":"１２８號之１０","E_COORD97":168759.56,"N_COORD97":2544361.9900000002,"ADDRESS":"公園路１２８號之１０","OBJECTID":533196},"geometry":{"x":168759.55999999959,"y":2544361.9900000002}},{"attributes":{"ID":533224,"DIS_CODE":0,"TOWNNAME":"北區","LI":"公園里","LIN":"19鄰","STREET":"公園路","SECT":" ","MAREA":" ","LANE":" ","ALLEY":" ","HOUSE_NO":"１２８號之１１","E_COORD97":168790.92000000001,"N_COORD97":2544374.6400000001,"ADDRESS":"公園路１２８號之１１","OBJECTID":533197},"geometry":{"x":168790.92000000086,"y":2544374.6400000025}},{"attributes":{"ID":533225,"DIS_CODE":0,"TOWNNAME":"北區","LI":"公園里","LIN":"19鄰","STREET":"公園路","SECT":" ","MAREA":" ","LANE":" ","ALLEY":" ","HOUSE_NO":"１２８號之１２","E_COORD97":168794.94,"N_COORD97":2544374.2400000002,"ADDRESS":"公園路１２８號之１２","OBJECTID":533198},"geometry":{"x":168794.94000000041,"y":2544374.2400000002}},{"attributes":{"ID":533226,"DIS_CODE":0,"TOWNNAME":"北區","LI":"公園里","LIN":"19鄰","STREET":"公園路","SECT":" ","MAREA":" ","LANE":" ","ALLEY":" ","HOUSE_NO":"１２８號之１３","E_COORD97":168799.35999999999,"N_COORD97":2544373.8399999999,"ADDRESS":"公園路１２８號之１３","OBJECTID":533199},"geometry":{"x":168799.3599999994,"y":2544373.8399999999}},{"attributes":{"ID":533227,"DIS_CODE":0,"TOWNNAME":"北區","LI":"公園里","LIN":"19鄰","STREET":"公園路","SECT":" ","MAREA":" ","LANE":" ","ALLEY":" ","HOUSE_NO":"１２８號之１４","E_COORD97":168804.38,"N_COORD97":2544372.8300000001,"ADDRESS":"公園路１２８號之１４","OBJECTID":533200},"geometry":{"x":168804.38000000082,"y":2544372.8300000019}}]}