{"displayFieldName":"TOWNNAME","fieldAliases":{"ID":"ID","DIS_CODE":"DIS_CODE","TOWNNAME":"TOWNNAME","LI":"LI","LIN":"LIN","STREET":"STREET","SECT":"SECT","MAREA":"MAREA","LANE":"LANE","ALLEY":"ALLEY","HOUSE_NO":"HOUSE_NO","E_COORD97":"E_COORD97","N_COORD97":"N_COORD97","ADDRESS":"ADDRESS","OBJECTID":"OBJECTID"},"geometryType":"esriGeometryPoint","spatialReference":{"wkid":102443,"latestWkid":3826},"fields":[{"name":"ID","type":"esriFieldTypeDouble","alias":"ID"},{"name":"DIS_CODE","type":"esriFieldTypeInteger","alias":"DIS_CODE"},{"name":"TOWNNAME","type":"esriFieldTypeString","alias":"TOWNNAME","length":8},{"name":"LI","type":"esriFieldTypeString","alias":"LI","length":8},{"name":"LIN","type":"esriFieldTypeString","alias":"LIN","length":12},{"name":"STREET","type":"esriFieldTypeString","alias":"STREET","length":20},{"name":"SECT","type":"esriFieldTypeString","alias":"SECT","length":8},{"name":"MAREA","type":"esriFieldTypeString","alias":"MAREA","length":12},{"name":"LANE","type":"esriFieldTypeString","alias":"LANE","length":10},{"name":"ALLEY","type":"esriFieldTypeString","alias":"ALLEY","length":10},{"name":"HOUSE_NO","type":"esriFieldTypeString","alias":"HOUSE_NO","length":20},{"name":"E_COORD97","type":"esriFieldTypeDouble","alias":"E_COORD97"},{"name":"N_COORD97","type":"esriFieldTypeDouble","alias":"N_COORD97"},{"name":"ADDRESS","type":"esriFieldTypeString","alias":"ADDRESS","length":50},{"name":"OBJECTID","type":"esriFieldTypeOID","alias":"OBJECTID"}],"features":[{"attributes":{"ID":258005,"DIS_CODE":0,"TOWNNAME":"東區","LI":"後甲里","LIN":"17鄰","STREET":"建東街","SECT":" ","MAREA":" ","LANE":"５４巷","ALLEY":" ","HOUSE_NO":"２２號","E_COORD97":171826.98999999999,"N_COORD97":2543448.5600000001,"ADDRESS":"建東街５４巷２２號","OBJECTID":258001},"geometry":{"x":171826.99000000022,"y":2543448.5600000024}},{"attributes":{"ID":258006,"DIS_CODE":0,"TOWNNAME":"東區","LI":"後甲里","LIN":"17鄰","STREET":"建東街","SECT":" ","MAREA":" ","LANE":"５４巷","ALLEY":" ","HOUSE_NO":"２３號","E_COORD97":171829.51000000001,"N_COORD97":2543469.48,"ADDRESS":"建東街５４巷２３號","OBJECTID":258002},"geometry":{"x":171829.51000000071,"y":2543469.4800000023}},{"attributes":{"ID":258007,"DIS_CODE":0,"TOWNNAME":"東區","LI":"後甲里","LIN":"17鄰","STREET":"建東街","SECT":" ","MAREA":" ","LANE":"５４巷","ALLEY":" ","HOUSE_NO":"２４號","E_COORD97":171831.72,"N_COORD97":2543451.71,"ADDRESS":"建東街５４巷２４號","OBJECTID":258003},"geometry":{"x":171831.71999999974,"y":2543451.7100000028}},{"attributes":{"ID":258008,"DIS_CODE":0,"TOWNNAME":"東區","LI":"後甲里","LIN":"17鄰","STREET":"建東街","SECT":" ","MAREA":" ","LANE":"５４巷","ALLEY":" ","HOUSE_NO":"２５號","E_COORD97":171834.25,"N_COORD97":2543470.4199999999,"ADDRESS":"建東街５４巷２５號","OBJECTID":258004},"geometry":{"x":171834.25000000186,"y":2543470.4199999999}},{"attributes":{"ID":258009,"DIS_CODE":0,"TOWNNAME":"仁德區","LI":"仁義里","LIN":"53鄰","STREET":"仁義三街","SECT":" ","MAREA":" ","LANE":" ","ALLEY":" ","HOUSE_NO":"６８號","E_COORD97":173458.06,"N_COORD97":2541124.77,"ADDRESS":"仁義三街６８號","OBJECTID":258005},"geometry":{"x":173458.06000000052,"y":2541124.7700000014}},{"attributes":{"ID":258010,"DIS_CODE":0,"TOWNNAME":"歸仁區","LI":"辜厝里","LIN":"53鄰","STREET":"民權南路","SECT":" ","MAREA":" ","LANE":" ","ALLEY":" ","HOUSE_NO":"３１７號","E_COORD97":176966.92000000001,"N_COORD97":2540230.5899999999,"ADDRESS":"民權南路３１７號","OBJECTID":258006},"geometry":{"x":176966.91999999993,"y":2540230.5900000017}},{"attributes":{"ID":258011,"DIS_CODE":0,"TOWNNAME":"歸仁區","LI":"辜厝里","LIN":"53鄰","STREET":"民權南路","SECT":" ","MAREA":" ","LANE":" ","ALLEY":" ","HOUSE_NO":"３２１號","E_COORD97":176966.82000000001,"N_COORD97":2540223.5899999999,"ADDRESS":"民權南路３２１號","OBJECTID":258007},"geometry":{"x":176966.8200000003,"y":2540223.5900000017}},{"attributes":{"ID":258012,"DIS_CODE":0,"TOWNNAME":"歸仁區","LI":"南保里","LIN":"53鄰","STREET":"大順街","SECT":" ","MAREA":" ","LANE":" ","ALLEY":" ","HOUSE_NO":"２３１號","E_COORD97":176797.07000000001,"N_COORD97":2540597.25,"ADDRESS":"大順街２３１號","OBJECTID":258008},"geometry":{"x":176797.0700000003,"y":2540597.25}},{"attributes":{"ID":258013,"DIS_CODE":0,"TOWNNAME":"歸仁區","LI":"辜厝里","LIN":"53鄰","STREET":"中正十街","SECT":" ","MAREA":" ","LANE":" ","ALLEY":" ","HOUSE_NO":"２９號","E_COORD97":177007.45999999999,"N_COORD97":2540229.25,"ADDRESS":"中正十街２９號","OBJECTID":258009},"geometry":{"x":177007.45999999996,"y":2540229.2500000019}},{"attributes":{"ID":258014,"DIS_CODE":0,"TOWNNAME":"歸仁區","LI":"辜厝里","LIN":"53鄰","STREET":"民權南路","SECT":" ","MAREA":" ","LANE":" ","ALLEY":" ","HOUSE_NO":"３２７號","E_COORD97":176973.70000000001,"N_COORD97":2540212.6200000001,"ADDRESS":"民權南路３２７號","OBJECTID":258010},"geometry":{"x":176973.70000000112,"y":2540212.620000001}},{"attributes":{"ID":258015,"DIS_CODE":0,"TOWNNAME":"歸仁區","LI":"南保里","LIN":"53鄰","STREET":"大順街","SECT":" ","MAREA":" ","LANE":" ","ALLEY":" ","HOUSE_NO":"２２９號","E_COORD97":176801.17000000001,"N_COORD97":2540597.25,"ADDRESS":"大順街２２９號","OBJECTID":258011},"geometry":{"x":176801.16999999993,"y":2540597.25}},{"attributes":{"ID":258016,"DIS_CODE":0,"TOWNNAME":"東區","LI":"關聖里","LIN":"3鄰","STREET":"富農街","SECT":"二段","MAREA":" ","LANE":"１０８巷","ALLEY":" ","HOUSE_NO":"２０號","E_COORD97":171719.75399,"N_COORD97":2543083.4345800001,"ADDRESS":"富農街二段１０８巷２０號","OBJECTID":258012},"geometry":{"x":171719.75399000105,"y":2543083.4345760047}},{"attributes":{"ID":258017,"DIS_CODE":0,"TOWNNAME":"永康區","LI":"復華里","LIN":"27鄰","STREET":"復華八街","SECT":" ","MAREA":" ","LANE":"５１巷","ALLEY":" ","HOUSE_NO":"３５號二樓之５","E_COORD97":172703.04000000001,"N_COORD97":2546429.1400000001,"ADDRESS":"復華八街５１巷３５號二樓之５","OBJECTID":258013},"geometry":{"x":172703.04000000004,"y":2546429.1400000025}},{"attributes":{"ID":258018,"DIS_CODE":0,"TOWNNAME":"永康區","LI":"復華里","LIN":"27鄰","STREET":"復華八街","SECT":" ","MAREA":" ","LANE":"５１巷","ALLEY":" ","HOUSE_NO":"３９號二樓之６","E_COORD97":172687.95000000001,"N_COORD97":2546429.1400000001,"ADDRESS":"復華八街５１巷３９號二樓之６","OBJECTID":258014},"geometry":{"x":172687.95000000112,"y":2546429.1400000025}},{"attributes":{"ID":258019,"DIS_CODE":0,"TOWNNAME":"東區","LI":"後甲里","LIN":"17鄰","STREET":"建東街","SECT":" ","MAREA":" ","LANE":"５４巷","ALLEY":" ","HOUSE_NO":"２６號","E_COORD97":171836.14000000001,"N_COORD97":2543451.71,"ADDRESS":"建東街５４巷２６號","OBJECTID":258015},"geometry":{"x":171836.13999999966,"y":2543451.7100000028}},{"attributes":{"ID":258020,"DIS_CODE":0,"TOWNNAME":"東區","LI":"後甲里","LIN":"17鄰","STREET":"建東街","SECT":" ","MAREA":" ","LANE":"５４巷","ALLEY":" ","HOUSE_NO":"２７號","E_COORD97":171838.98000000001,"N_COORD97":2543469.1600000001,"ADDRESS":"建東街５４巷２７號","OBJECTID":258016},"geometry":{"x":171838.98000000138,"y":2543469.1600000001}},{"attributes":{"ID":258021,"DIS_CODE":0,"TOWNNAME":"東區","LI":"後甲里","LIN":"17鄰","STREET":"建東街","SECT":" ","MAREA":" ","LANE":"５４巷","ALLEY":" ","HOUSE_NO":"２８號","E_COORD97":171840.88,"N_COORD97":2543448.8700000001,"ADDRESS":"建東街５４巷２８號","OBJECTID":258017},"geometry":{"x":171840.87999999989,"y":2543448.870000001}},{"attributes":{"ID":258022,"DIS_CODE":0,"TOWNNAME":"仁德區","LI":"新田里","LIN":"17鄰","STREET":"民安路","SECT":"二段","MAREA":" ","LANE":"６３巷","ALLEY":" ","HOUSE_NO":"４２號","E_COORD97":173494.26000000001,"N_COORD97":2539265.3199999998,"ADDRESS":"民安路二段６３巷４２號","OBJECTID":258018},"geometry":{"x":173494.26000000071,"y":2539265.3200000003}},{"attributes":{"ID":258023,"DIS_CODE":0,"TOWNNAME":"仁德區","LI":"新田里","LIN":"17鄰","STREET":"民安路","SECT":"二段","MAREA":" ","LANE":"６３巷","ALLEY":" ","HOUSE_NO":"１６號","E_COORD97":173487.09,"N_COORD97":2539233.0600000001,"ADDRESS":"民安路二段６３巷１６號","OBJECTID":258019},"geometry":{"x":173487.09000000078,"y":2539233.0600000005}},{"attributes":{"ID":258024,"DIS_CODE":0,"TOWNNAME":"仁德區","LI":"新田里","LIN":"17鄰","STREET":"民安路","SECT":"二段","MAREA":" ","LANE":"６３巷","ALLEY":" ","HOUSE_NO":"２６號","E_COORD97":173481.76000000001,"N_COORD97":2539249.3100000001,"ADDRESS":"民安路二段６３巷２６號","OBJECTID":258020},"geometry":{"x":173481.76000000164,"y":2539249.3100000042}},{"attributes":{"ID":258025,"DIS_CODE":0,"TOWNNAME":"仁德區","LI":"新田里","LIN":"17鄰","STREET":"民安路","SECT":"二段","MAREA":" ","LANE":"６３巷","ALLEY":" ","HOUSE_NO":"４６號","E_COORD97":173497.42999999999,"N_COORD97":2539262.8199999998,"ADDRESS":"民安路二段６３巷４６號","OBJECTID":258021},"geometry":{"x":173497.43000000156,"y":2539262.8200000022}},{"attributes":{"ID":258026,"DIS_CODE":0,"TOWNNAME":"仁德區","LI":"保安里","LIN":"17鄰","STREET":"中正路","SECT":"一段","MAREA":" ","LANE":"７０巷","ALLEY":" ","HOUSE_NO":"２２號","E_COORD97":170941.51999999999,"N_COORD97":2535465.2799999998,"ADDRESS":"中正路一段７０巷２２號","OBJECTID":258022},"geometry":{"x":170941.51999999955,"y":2535465.2800000012}},{"attributes":{"ID":258027,"DIS_CODE":0,"TOWNNAME":"仁德區","LI":"新田里","LIN":"17鄰","STREET":"民安路","SECT":"二段","MAREA":" ","LANE":"６３巷","ALLEY":" ","HOUSE_NO":"４８號","E_COORD97":173501.10000000001,"N_COORD97":2539260.5699999998,"ADDRESS":"民安路二段６３巷４８號","OBJECTID":258023},"geometry":{"x":173501.0999999987,"y":2539260.570000004}},{"attributes":{"ID":258028,"DIS_CODE":0,"TOWNNAME":"仁德區","LI":"新田里","LIN":"17鄰","STREET":"民安路","SECT":"二段","MAREA":" ","LANE":"６３巷","ALLEY":" ","HOUSE_NO":"３８號","E_COORD97":173490.51999999999,"N_COORD97":2539267.3199999998,"ADDRESS":"民安路二段６３巷３８號","OBJECTID":258024},"geometry":{"x":173490.52000000048,"y":2539267.3200000022}},{"attributes":{"ID":258029,"DIS_CODE":0,"TOWNNAME":"仁德區","LI":"新田里","LIN":"17鄰","STREET":"民安路","SECT":"二段","MAREA":" ","LANE":"６３巷","ALLEY":" ","HOUSE_NO":"２０號","E_COORD97":173488.87,"N_COORD97":2539245.0600000001,"ADDRESS":"民安路二段６３巷２０號","OBJECTID":258025},"geometry":{"x":173488.87000000104,"y":2539245.0600000024}},{"attributes":{"ID":258030,"DIS_CODE":0,"TOWNNAME":"仁德區","LI":"保安里","LIN":"17鄰","STREET":"中正路","SECT":"一段","MAREA":" ","LANE":"７０巷","ALLEY":" ","HOUSE_NO":"９號","E_COORD97":170939.92999999999,"N_COORD97":2535484.52,"ADDRESS":"中正路一段７０巷９號","OBJECTID":258026},"geometry":{"x":170939.93000000063,"y":2535484.5200000014}},{"attributes":{"ID":258031,"DIS_CODE":0,"TOWNNAME":"仁德區","LI":"保安里","LIN":"17鄰","STREET":"中正路","SECT":"一段","MAREA":" ","LANE":"７０巷","ALLEY":" ","HOUSE_NO":"２０號","E_COORD97":170939.42999999999,"N_COORD97":2535469.0299999998,"ADDRESS":"中正路一段７０巷２０號","OBJECTID":258027},"geometry":{"x":170939.43000000156,"y":2535469.0299999993}},{"attributes":{"ID":258032,"DIS_CODE":0,"TOWNNAME":"新營區","LI":"民生里","LIN":" ","STREET":"復興路","SECT":" ","MAREA":" ","LANE":" ","ALLEY":" ","HOUSE_NO":"１５０之５號","E_COORD97":179233.85000000001,"N_COORD97":2578030.4500000002,"ADDRESS":"復興路１５０之５號","OBJECTID":258028},"geometry":{"x":179233.84999999963,"y":2578030.4500000011}},{"attributes":{"ID":258033,"DIS_CODE":0,"TOWNNAME":"佳里區","LI":"安西里","LIN":"53鄰","STREET":"佳安南路","SECT":" ","MAREA":" ","LANE":" ","ALLEY":" ","HOUSE_NO":"１５２號","E_COORD97":163589.73000000001,"N_COORD97":2562195.9300000002,"ADDRESS":"佳安南路１５２號","OBJECTID":258029},"geometry":{"x":163589.73000000138,"y":2562195.9299999997}},{"attributes":{"ID":258034,"DIS_CODE":0,"TOWNNAME":"佳里區","LI":"安西里","LIN":"53鄰","STREET":"佳安南路","SECT":" ","MAREA":" ","LANE":" ","ALLEY":" ","HOUSE_NO":"１５６號","E_COORD97":163585.32999999999,"N_COORD97":2562195.8399999999,"ADDRESS":"佳安南路１５６號","OBJECTID":258030},"geometry":{"x":163585.33000000101,"y":2562195.8400000017}},{"attributes":{"ID":258035,"DIS_CODE":0,"TOWNNAME":"佳里區","LI":"安西里","LIN":"53鄰","STREET":"佳安南路","SECT":" ","MAREA":" ","LANE":" ","ALLEY":" ","HOUSE_NO":"１５８號","E_COORD97":163580.92000000001,"N_COORD97":2562196.0800000001,"ADDRESS":"佳安南路１５８號","OBJECTID":258031},"geometry":{"x":163580.92000000179,"y":2562196.0800000038}},{"attributes":{"ID":258036,"DIS_CODE":0,"TOWNNAME":"仁德區","LI":"新田里","LIN":"17鄰","STREET":"民安路","SECT":"二段","MAREA":" ","LANE":"６３巷","ALLEY":" ","HOUSE_NO":"２號","E_COORD97":173467.32000000001,"N_COORD97":2539243.8100000001,"ADDRESS":"民安路二段６３巷２號","OBJECTID":258032},"geometry":{"x":173467.32000000123,"y":2539243.8100000024}},{"attributes":{"ID":258037,"DIS_CODE":0,"TOWNNAME":"仁德區","LI":"成功里","LIN":"17鄰","STREET":"全福路","SECT":" ","MAREA":" ","LANE":"８０巷","ALLEY":" ","HOUSE_NO":"１１號","E_COORD97":171035.56,"N_COORD97":2539272,"ADDRESS":"全福路８０巷１１號","OBJECTID":258033},"geometry":{"x":171035.56000000052,"y":2539272.0000000019}},{"attributes":{"ID":258038,"DIS_CODE":0,"TOWNNAME":"仁德區","LI":"後壁里","LIN":"17鄰","STREET":"德善路","SECT":" ","MAREA":" ","LANE":"３２巷","ALLEY":" ","HOUSE_NO":"１６號","E_COORD97":173292.76999999999,"N_COORD97":2538853.02,"ADDRESS":"德善路３２巷１６號","OBJECTID":258034},"geometry":{"x":173292.76999999955,"y":2538853.0199999996}},{"attributes":{"ID":258039,"DIS_CODE":0,"TOWNNAME":"仁德區","LI":"新田里","LIN":"17鄰","STREET":"民安路","SECT":"二段","MAREA":" ","LANE":"６３巷","ALLEY":" ","HOUSE_NO":"２８號","E_COORD97":173477.69,"N_COORD97":2539251.8100000001,"ADDRESS":"民安路二段６３巷２８號","OBJECTID":258035},"geometry":{"x":173477.69000000227,"y":2539251.8100000005}},{"attributes":{"ID":258040,"DIS_CODE":0,"TOWNNAME":"仁德區","LI":"保安里","LIN":"17鄰","STREET":"中正路","SECT":"一段","MAREA":" ","LANE":"７０巷","ALLEY":" ","HOUSE_NO":"１０號","E_COORD97":170929.63,"N_COORD97":2535486.27,"ADDRESS":"中正路一段７０巷１０號","OBJECTID":258036},"geometry":{"x":170929.63000000175,"y":2535486.2700000014}},{"attributes":{"ID":258041,"DIS_CODE":0,"TOWNNAME":"仁德區","LI":"成功里","LIN":"17鄰","STREET":"全福路","SECT":" ","MAREA":" ","LANE":"８０巷","ALLEY":" ","HOUSE_NO":"１９號","E_COORD97":171031.42999999999,"N_COORD97":2539244.2400000002,"ADDRESS":"全福路８０巷１９號","OBJECTID":258037},"geometry":{"x":171031.43000000063,"y":2539244.2400000002}},{"attributes":{"ID":258042,"DIS_CODE":0,"TOWNNAME":"仁德區","LI":"新田里","LIN":"17鄰","STREET":"民安路","SECT":"二段","MAREA":" ","LANE":"６３巷","ALLEY":" ","HOUSE_NO":"８號","E_COORD97":173474.54999999999,"N_COORD97":2539239.5600000001,"ADDRESS":"民安路二段６３巷８號","OBJECTID":258038},"geometry":{"x":173474.54999999888,"y":2539239.5600000005}},{"attributes":{"ID":258043,"DIS_CODE":0,"TOWNNAME":"仁德區","LI":"後壁里","LIN":"17鄰","STREET":"德善路","SECT":" ","MAREA":" ","LANE":"３２巷","ALLEY":" ","HOUSE_NO":"１２號","E_COORD97":173299.88,"N_COORD97":2538881.52,"ADDRESS":"德善路３２巷１２號","OBJECTID":258039},"geometry":{"x":173299.88000000082,"y":2538881.5200000014}},{"attributes":{"ID":258044,"DIS_CODE":0,"TOWNNAME":"仁德區","LI":"後壁里","LIN":"17鄰","STREET":"德善路","SECT":" ","MAREA":" ","LANE":"３２巷","ALLEY":" ","HOUSE_NO":"１４號","E_COORD97":173296.16,"N_COORD97":2538862.27,"ADDRESS":"德善路３２巷１４號","OBJECTID":258040},"geometry":{"x":173296.15999999922,"y":2538862.2700000014}},{"attributes":{"ID":258045,"DIS_CODE":0,"TOWNNAME":"仁德區","LI":"成功里","LIN":"17鄰","STREET":"全福路","SECT":" ","MAREA":" ","LANE":"８０巷","ALLEY":" ","HOUSE_NO":"１５號","E_COORD97":171032.34,"N_COORD97":2539255.7400000002,"ADDRESS":"全福路８０巷１５號","OBJECTID":258041},"geometry":{"x":171032.34000000078,"y":2539255.7399999984}},{"attributes":{"ID":258046,"DIS_CODE":0,"TOWNNAME":"安南區","LI":"梅花里","LIN":"17鄰","STREET":"同安路","SECT":" ","MAREA":" ","LANE":"３８２巷","ALLEY":" ","HOUSE_NO":"１１號","E_COORD97":167362.23999999999,"N_COORD97":2549345.8300000001,"ADDRESS":"同安路３８２巷１１號","OBJECTID":258042},"geometry":{"x":167362.24000000022,"y":2549345.8300000019}},{"attributes":{"ID":258047,"DIS_CODE":0,"TOWNNAME":"安南區","LI":"梅花里","LIN":"17鄰","STREET":"同安路","SECT":" ","MAREA":" ","LANE":"３８２巷","ALLEY":" ","HOUSE_NO":"１３號","E_COORD97":167366.29000000001,"N_COORD97":2549344.5600000001,"ADDRESS":"同安路３８２巷１３號","OBJECTID":258043},"geometry":{"x":167366.29000000097,"y":2549344.5600000024}},{"attributes":{"ID":258048,"DIS_CODE":0,"TOWNNAME":"永康區","LI":"復華里","LIN":"27鄰","STREET":"復華八街","SECT":" ","MAREA":" ","LANE":"５１巷","ALLEY":" ","HOUSE_NO":"３５號六樓之１","E_COORD97":172702.89000000001,"N_COORD97":2546429.1400000001,"ADDRESS":"復華八街５１巷３５號六樓之１","OBJECTID":258044},"geometry":{"x":172702.8900000006,"y":2546429.1400000025}},{"attributes":{"ID":258049,"DIS_CODE":0,"TOWNNAME":"永康區","LI":"復華里","LIN":"27鄰","STREET":"復華八街","SECT":" ","MAREA":" ","LANE":"５１巷","ALLEY":" ","HOUSE_NO":"３５號三樓之２","E_COORD97":172703.01999999999,"N_COORD97":2546429.1400000001,"ADDRESS":"復華八街５１巷３５號三樓之２","OBJECTID":258045},"geometry":{"x":172703.01999999955,"y":2546429.1400000025}},{"attributes":{"ID":258050,"DIS_CODE":0,"TOWNNAME":"仁德區","LI":"後壁里","LIN":"27鄰","STREET":"中正路","SECT":"二段","MAREA":" ","LANE":"３０１巷","ALLEY":" ","HOUSE_NO":"３４號","E_COORD97":173182.16,"N_COORD97":2539130.02,"ADDRESS":"中正路二段３０１巷３４號","OBJECTID":258046},"geometry":{"x":173182.16000000015,"y":2539130.0199999996}},{"attributes":{"ID":258051,"DIS_CODE":0,"TOWNNAME":"永康區","LI":"勝利里","LIN":"27鄰","STREET":"勝利街","SECT":" ","MAREA":" ","LANE":"５８巷","ALLEY":" ","HOUSE_NO":"８號","E_COORD97":171368.60000000001,"N_COORD97":2544667.1699999999,"ADDRESS":"勝利街５８巷８號","OBJECTID":258047},"geometry":{"x":171368.5999999987,"y":2544667.1700000037}},{"attributes":{"ID":258052,"DIS_CODE":0,"TOWNNAME":"永康區","LI":"勝利里","LIN":"27鄰","STREET":"勝利街","SECT":" ","MAREA":" ","LANE":"５８巷","ALLEY":" ","HOUSE_NO":"３４號","E_COORD97":171434.70999999999,"N_COORD97":2544657.9300000002,"ADDRESS":"勝利街５８巷３４號","OBJECTID":258048},"geometry":{"x":171434.71000000089,"y":2544657.9299999997}},{"attributes":{"ID":258053,"DIS_CODE":0,"TOWNNAME":"永康區","LI":"勝利里","LIN":"27鄰","STREET":"勝利街","SECT":" ","MAREA":" ","LANE":"５８巷","ALLEY":" ","HOUSE_NO":"２５號","E_COORD97":171447.01000000001,"N_COORD97":2544675.2599999998,"ADDRESS":"勝利街５８巷２５號","OBJECTID":258049},"geometry":{"x":171447.00999999978,"y":2544675.2599999998}},{"attributes":{"ID":258054,"DIS_CODE":0,"TOWNNAME":"永康區","LI":"勝利里","LIN":"27鄰","STREET":"勝利街","SECT":" ","MAREA":" ","LANE":"５８巷","ALLEY":" ","HOUSE_NO":"１１號","E_COORD97":171391.10000000001,"N_COORD97":2544680.5,"ADDRESS":"勝利街５８巷１１號","OBJECTID":258050},"geometry":{"x":171391.10000000056,"y":2544680.5}},{"attributes":{"ID":258055,"DIS_CODE":0,"TOWNNAME":"安南區","LI":"梅花里","LIN":"17鄰","STREET":"同安路","SECT":" ","MAREA":" ","LANE":"３８２巷","ALLEY":" ","HOUSE_NO":"１７號","E_COORD97":167373.73000000001,"N_COORD97":2549338.8199999998,"ADDRESS":"同安路３８２巷１７號","OBJECTID":258051},"geometry":{"x":167373.73000000138,"y":2549338.8200000022}},{"attributes":{"ID":258056,"DIS_CODE":0,"TOWNNAME":"安南區","LI":"梅花里","LIN":"17鄰","STREET":"同安路","SECT":" ","MAREA":" ","LANE":"３８２巷","ALLEY":" ","HOUSE_NO":"１９號","E_COORD97":167377.56,"N_COORD97":2549336.8999999999,"ADDRESS":"同安路３８２巷１９號","OBJECTID":258052},"geometry":{"x":167377.56000000052,"y":2549336.9000000004}},{"attributes":{"ID":258057,"DIS_CODE":0,"TOWNNAME":"安南區","LI":"梅花里","LIN":"17鄰","STREET":"同安路","SECT":" ","MAREA":" ","LANE":"３８２巷","ALLEY":" ","HOUSE_NO":"１號","E_COORD97":167342.06,"N_COORD97":2549356.2400000002,"ADDRESS":"同安路３８２巷１號","OBJECTID":258053},"geometry":{"x":167342.05999999959,"y":2549356.2400000021}},{"attributes":{"ID":258058,"DIS_CODE":0,"TOWNNAME":"安南區","LI":"梅花里","LIN":"17鄰","STREET":"同安路","SECT":" ","MAREA":" ","LANE":"３８２巷","ALLEY":" ","HOUSE_NO":"３號","E_COORD97":167345.25,"N_COORD97":2549352.21,"ADDRESS":"同安路３８２巷３號","OBJECTID":258054},"geometry":{"x":167345.24999999907,"y":2549352.2100000009}},{"attributes":{"ID":258059,"DIS_CODE":0,"TOWNNAME":"安南區","LI":"梅花里","LIN":"17鄰","STREET":"同安路","SECT":" ","MAREA":" ","LANE":"３８２巷","ALLEY":" ","HOUSE_NO":"５號","E_COORD97":167349.29000000001,"N_COORD97":2549351.79,"ADDRESS":"同安路３８２巷５號","OBJECTID":258055},"geometry":{"x":167349.29000000097,"y":2549351.790000001}},{"attributes":{"ID":258060,"DIS_CODE":0,"TOWNNAME":"安南區","LI":"理想里","LIN":"17鄰","STREET":"大安街","SECT":" ","MAREA":" ","LANE":"２０１巷","ALLEY":" ","HOUSE_NO":"１０號","E_COORD97":167366.42999999999,"N_COORD97":2548351.73,"ADDRESS":"大安街２０１巷１０號","OBJECTID":258056},"geometry":{"x":167366.43000000063,"y":2548351.7300000004}},{"attributes":{"ID":258061,"DIS_CODE":0,"TOWNNAME":"安南區","LI":"理想里","LIN":"17鄰","STREET":"大安街","SECT":" ","MAREA":" ","LANE":"２０１巷","ALLEY":" ","HOUSE_NO":"１２號","E_COORD97":167360.45000000001,"N_COORD97":2548353.6800000002,"ADDRESS":"大安街２０１巷１２號","OBJECTID":258057},"geometry":{"x":167360.45000000019,"y":2548353.6800000016}},{"attributes":{"ID":258062,"DIS_CODE":0,"TOWNNAME":"佳里區","LI":"安西里","LIN":"53鄰","STREET":"佳安南路","SECT":" ","MAREA":" ","LANE":" ","ALLEY":" ","HOUSE_NO":"１６０號","E_COORD97":163576.78,"N_COORD97":2562195.96,"ADDRESS":"佳安南路１６０號","OBJECTID":258058},"geometry":{"x":163576.78000000026,"y":2562195.9600000028}},{"attributes":{"ID":258063,"DIS_CODE":0,"TOWNNAME":"佳里區","LI":"安西里","LIN":"53鄰","STREET":"佳安南路","SECT":" ","MAREA":" ","LANE":" ","ALLEY":" ","HOUSE_NO":"１６２號","E_COORD97":163572.35999999999,"N_COORD97":2562196.2799999998,"ADDRESS":"佳安南路１６２號","OBJECTID":258059},"geometry":{"x":163572.36000000034,"y":2562196.2799999993}},{"attributes":{"ID":258064,"DIS_CODE":0,"TOWNNAME":"佳里區","LI":"安西里","LIN":"53鄰","STREET":"佳安南路","SECT":" ","MAREA":" ","LANE":" ","ALLEY":" ","HOUSE_NO":"１６６號","E_COORD97":163568.23000000001,"N_COORD97":2562196.1000000001,"ADDRESS":"佳安南路１６６號","OBJECTID":258060},"geometry":{"x":163568.23000000138,"y":2562196.1000000015}},{"attributes":{"ID":258065,"DIS_CODE":0,"TOWNNAME":"佳里區","LI":"安西里","LIN":"53鄰","STREET":"佳安南路","SECT":" ","MAREA":" ","LANE":" ","ALLEY":" ","HOUSE_NO":"１６８號","E_COORD97":163563.26000000001,"N_COORD97":2562196.4900000002,"ADDRESS":"佳安南路１６８號","OBJECTID":258061},"geometry":{"x":163563.26000000071,"y":2562196.4900000002}},{"attributes":{"ID":258066,"DIS_CODE":0,"TOWNNAME":"佳里區","LI":"安西里","LIN":"53鄰","STREET":"佳安南路","SECT":" ","MAREA":" ","LANE":" ","ALLEY":" ","HOUSE_NO":"１７０號","E_COORD97":163559.35000000001,"N_COORD97":2562196.3900000001,"ADDRESS":"佳安南路１７０號","OBJECTID":258062},"geometry":{"x":163559.35000000056,"y":2562196.3900000006}},{"attributes":{"ID":258067,"DIS_CODE":0,"TOWNNAME":"歸仁區","LI":"辜厝里","LIN":"53鄰","STREET":"中正十街","SECT":" ","MAREA":" ","LANE":" ","ALLEY":" ","HOUSE_NO":"２１號","E_COORD97":177001.37,"N_COORD97":2540204.5800000001,"ADDRESS":"中正十街２１號","OBJECTID":258063},"geometry":{"x":177001.37000000011,"y":2540204.5800000001}},{"attributes":{"ID":258068,"DIS_CODE":0,"TOWNNAME":"歸仁區","LI":"南保里","LIN":"53鄰","STREET":"大順五街","SECT":" ","MAREA":" ","LANE":" ","ALLEY":" ","HOUSE_NO":"２４號","E_COORD97":176811.17000000001,"N_COORD97":2540551.25,"ADDRESS":"大順五街２４號","OBJECTID":258064},"geometry":{"x":176811.16999999993,"y":2540551.2500000019}},{"attributes":{"ID":258069,"DIS_CODE":0,"TOWNNAME":"歸仁區","LI":"南保里","LIN":"53鄰","STREET":"大順五街","SECT":" ","MAREA":" ","LANE":" ","ALLEY":" ","HOUSE_NO":"２２號","E_COORD97":176816.26999999999,"N_COORD97":2540551.25,"ADDRESS":"大順五街２２號","OBJECTID":258065},"geometry":{"x":176816.27000000048,"y":2540551.2500000019}},{"attributes":{"ID":258070,"DIS_CODE":0,"TOWNNAME":"永康區","LI":"勝利里","LIN":"27鄰","STREET":"勝利街","SECT":" ","MAREA":" ","LANE":" ","ALLEY":" ","HOUSE_NO":"７０號","E_COORD97":171350.70999999999,"N_COORD97":2544702.9700000002,"ADDRESS":"勝利街７０號","OBJECTID":258066},"geometry":{"x":171350.70999999996,"y":2544702.9699999988}},{"attributes":{"ID":258071,"DIS_CODE":0,"TOWNNAME":"永康區","LI":"大灣里","LIN":"27鄰","STREET":"大灣六街","SECT":" ","MAREA":" ","LANE":"８０巷","ALLEY":" ","HOUSE_NO":"６８號","E_COORD97":175315.98999999999,"N_COORD97":2545303.8799999999,"ADDRESS":"大灣六街８０巷６８號","OBJECTID":258067},"geometry":{"x":175315.99000000022,"y":2545303.879999999}},{"attributes":{"ID":258072,"DIS_CODE":0,"TOWNNAME":"永康區","LI":"五王里","LIN":"27鄰","STREET":"五福街","SECT":" ","MAREA":" ","LANE":"１１０巷","ALLEY":" ","HOUSE_NO":"４０號","E_COORD97":171563.53,"N_COORD97":2545929.71,"ADDRESS":"五福街１１０巷４０號","OBJECTID":258068},"geometry":{"x":171563.53000000119,"y":2545929.7100000028}},{"attributes":{"ID":258073,"DIS_CODE":0,"TOWNNAME":"永康區","LI":"大灣里","LIN":"27鄰","STREET":"大灣六街","SECT":" ","MAREA":" ","LANE":"８０巷","ALLEY":" ","HOUSE_NO":"７０號","E_COORD97":175320.47,"N_COORD97":2545303.8799999999,"ADDRESS":"大灣六街８０巷７０號","OBJECTID":258069},"geometry":{"x":175320.46999999974,"y":2545303.879999999}},{"attributes":{"ID":258074,"DIS_CODE":0,"TOWNNAME":"永康區","LI":"五王里","LIN":"27鄰","STREET":"五福街","SECT":" ","MAREA":" ","LANE":"１１０巷","ALLEY":" ","HOUSE_NO":"２６號","E_COORD97":171537.79999999999,"N_COORD97":2545935,"ADDRESS":"五福街１１０巷２６號","OBJECTID":258070},"geometry":{"x":171537.80000000075,"y":2545935}},{"attributes":{"ID":258075,"DIS_CODE":0,"TOWNNAME":"永康區","LI":"五王里","LIN":"27鄰","STREET":"五福街","SECT":" ","MAREA":" ","LANE":"１１０巷","ALLEY":" ","HOUSE_NO":"５６號","E_COORD97":171571.51999999999,"N_COORD97":2545912.8199999998,"ADDRESS":"五福街１１０巷５６號","OBJECTID":258071},"geometry":{"x":171571.52000000048,"y":2545912.8200000003}},{"attributes":{"ID":258076,"DIS_CODE":0,"TOWNNAME":"永康區","LI":"五王里","LIN":"27鄰","STREET":"五福街","SECT":" ","MAREA":" ","LANE":"１１０巷","ALLEY":" ","HOUSE_NO":"３０號","E_COORD97":171555.91,"N_COORD97":2545944.4500000002,"ADDRESS":"五福街１１０巷３０號","OBJECTID":258072},"geometry":{"x":171555.91000000108,"y":2545944.4499999993}},{"attributes":{"ID":258077,"DIS_CODE":0,"TOWNNAME":"永康區","LI":"大灣里","LIN":"27鄰","STREET":"大灣六街","SECT":" ","MAREA":" ","LANE":"８０巷","ALLEY":" ","HOUSE_NO":"７２號","E_COORD97":175324.88,"N_COORD97":2545303.8799999999,"ADDRESS":"大灣六街８０巷７２號","OBJECTID":258073},"geometry":{"x":175324.87999999989,"y":2545303.879999999}},{"attributes":{"ID":258078,"DIS_CODE":0,"TOWNNAME":"永康區","LI":"五王里","LIN":"27鄰","STREET":"五福街","SECT":" ","MAREA":" ","LANE":"１１０巷","ALLEY":" ","HOUSE_NO":"２９號","E_COORD97":171591.75,"N_COORD97":2545906.3500000001,"ADDRESS":"五福街１１０巷２９號","OBJECTID":258074},"geometry":{"x":171591.75000000186,"y":2545906.3499999978}},{"attributes":{"ID":258079,"DIS_CODE":0,"TOWNNAME":"東區","LI":"裕農里","LIN":"27鄰","STREET":"東寧路","SECT":" ","MAREA":" ","LANE":"４２８巷","ALLEY":" ","HOUSE_NO":"４號","E_COORD97":170953.57000000001,"N_COORD97":2543287.6699999999,"ADDRESS":"東寧路４２８巷４號","OBJECTID":258075},"geometry":{"x":170953.5700000003,"y":2543287.6700000018}},{"attributes":{"ID":258080,"DIS_CODE":0,"TOWNNAME":"安南區","LI":"理想里","LIN":"17鄰","STREET":"大安街","SECT":" ","MAREA":" ","LANE":"２０１巷","ALLEY":" ","HOUSE_NO":"１４號","E_COORD97":167358.42000000001,"N_COORD97":2548358.8399999999,"ADDRESS":"大安街２０１巷１４號","OBJECTID":258076},"geometry":{"x":167358.42000000086,"y":2548358.8400000017}},{"attributes":{"ID":258081,"DIS_CODE":0,"TOWNNAME":"安南區","LI":"理想里","LIN":"17鄰","STREET":"大安街","SECT":" ","MAREA":" ","LANE":"２０１巷","ALLEY":" ","HOUSE_NO":"２號","E_COORD97":167382.53,"N_COORD97":2548340.46,"ADDRESS":"大安街２０１巷２號","OBJECTID":258077},"geometry":{"x":167382.53000000026,"y":2548340.4600000009}},{"attributes":{"ID":258082,"DIS_CODE":0,"TOWNNAME":"安南區","LI":"理想里","LIN":"17鄰","STREET":"大安街","SECT":" ","MAREA":" ","LANE":"２０１巷","ALLEY":" ","HOUSE_NO":"４號","E_COORD97":167378.20000000001,"N_COORD97":2548342.3500000001,"ADDRESS":"大安街２０１巷４號","OBJECTID":258078},"geometry":{"x":167378.20000000205,"y":2548342.3500000015}},{"attributes":{"ID":258083,"DIS_CODE":0,"TOWNNAME":"安南區","LI":"理想里","LIN":"17鄰","STREET":"大安街","SECT":" ","MAREA":" ","LANE":"２０１巷","ALLEY":" ","HOUSE_NO":"６號","E_COORD97":167373.69,"N_COORD97":2548345.3999999999,"ADDRESS":"大安街２０１巷６號","OBJECTID":258079},"geometry":{"x":167373.69000000134,"y":2548345.4000000022}},{"attributes":{"ID":258084,"DIS_CODE":0,"TOWNNAME":"安南區","LI":"理想里","LIN":"17鄰","STREET":"大安街","SECT":" ","MAREA":" ","LANE":"２０１巷","ALLEY":" ","HOUSE_NO":"８號","E_COORD97":167369.42000000001,"N_COORD97":2548348.5,"ADDRESS":"大安街２０１巷８號","OBJECTID":258080},"geometry":{"x":167369.41999999993,"y":2548348.5000000019}},{"attributes":{"ID":258085,"DIS_CODE":0,"TOWNNAME":"新營區","LI":"民榮里","LIN":"26鄰","STREET":"復興路","SECT":" ","MAREA":" ","LANE":"３０５巷","ALLEY":" ","HOUSE_NO":"３０號","E_COORD97":178513.38,"N_COORD97":2578079.2400000002,"ADDRESS":"復興路３０５巷３０號","OBJECTID":258081},"geometry":{"x":178513.37999999989,"y":2578079.2400000039}},{"attributes":{"ID":258086,"DIS_CODE":0,"TOWNNAME":"安南區","LI":"理想里","LIN":"17鄰","STREET":"大安街","SECT":" ","MAREA":" ","LANE":"２１５巷","ALLEY":" ","HOUSE_NO":"１１號","E_COORD97":167363.16,"N_COORD97":2548366.0299999998,"ADDRESS":"大安街２１５巷１１號","OBJECTID":258082},"geometry":{"x":167363.16000000201,"y":2548366.0299999993}},{"attributes":{"ID":258087,"DIS_CODE":0,"TOWNNAME":"安南區","LI":"理想里","LIN":"17鄰","STREET":"大安街","SECT":" ","MAREA":" ","LANE":"２１５巷","ALLEY":" ","HOUSE_NO":"１３號","E_COORD97":167358.39999999999,"N_COORD97":2548369.3799999999,"ADDRESS":"大安街２１５巷１３號","OBJECTID":258083},"geometry":{"x":167358.40000000224,"y":2548369.379999999}},{"attributes":{"ID":258088,"DIS_CODE":0,"TOWNNAME":"安南區","LI":"理想里","LIN":"17鄰","STREET":"大安街","SECT":" ","MAREA":" ","LANE":"２１５巷","ALLEY":" ","HOUSE_NO":"１號","E_COORD97":167388.63,"N_COORD97":2548351.5299999998,"ADDRESS":"大安街２１５巷１號","OBJECTID":258084},"geometry":{"x":167388.63000000082,"y":2548351.5299999993}},{"attributes":{"ID":258089,"DIS_CODE":0,"TOWNNAME":"歸仁區","LI":"南保里","LIN":"53鄰","STREET":"大順街","SECT":" ","MAREA":" ","LANE":" ","ALLEY":" ","HOUSE_NO":"２２７號","E_COORD97":176805.26999999999,"N_COORD97":2540597.25,"ADDRESS":"大順街２２７號","OBJECTID":258085},"geometry":{"x":176805.26999999955,"y":2540597.25}},{"attributes":{"ID":258090,"DIS_CODE":0,"TOWNNAME":"歸仁區","LI":"南保里","LIN":"53鄰","STREET":"大順街","SECT":" ","MAREA":" ","LANE":" ","ALLEY":" ","HOUSE_NO":"２１９號","E_COORD97":176821.67000000001,"N_COORD97":2540597.25,"ADDRESS":"大順街２１９號","OBJECTID":258086},"geometry":{"x":176821.66999999993,"y":2540597.25}},{"attributes":{"ID":258091,"DIS_CODE":0,"TOWNNAME":"歸仁區","LI":"南保里","LIN":"53鄰","STREET":"大順五街","SECT":" ","MAREA":" ","LANE":" ","ALLEY":" ","HOUSE_NO":"１２號","E_COORD97":176836.87,"N_COORD97":2540552.25,"ADDRESS":"大順五街１２號","OBJECTID":258087},"geometry":{"x":176836.87000000104,"y":2540552.2500000019}},{"attributes":{"ID":258092,"DIS_CODE":0,"TOWNNAME":"歸仁區","LI":"南保里","LIN":"53鄰","STREET":"大順街","SECT":" ","MAREA":" ","LANE":" ","ALLEY":" ","HOUSE_NO":"２２１號","E_COORD97":176817.57000000001,"N_COORD97":2540597.25,"ADDRESS":"大順街２２１號","OBJECTID":258088},"geometry":{"x":176817.5700000003,"y":2540597.25}},{"attributes":{"ID":258093,"DIS_CODE":0,"TOWNNAME":"歸仁區","LI":"南保里","LIN":"53鄰","STREET":"大順街","SECT":" ","MAREA":" ","LANE":" ","ALLEY":" ","HOUSE_NO":"２１１號","E_COORD97":176837.07000000001,"N_COORD97":2540596.25,"ADDRESS":"大順街２１１號","OBJECTID":258089},"geometry":{"x":176837.07000000123,"y":2540596.2500000019}},{"attributes":{"ID":258094,"DIS_CODE":0,"TOWNNAME":"歸仁區","LI":"南保里","LIN":"53鄰","STREET":"大順街","SECT":" ","MAREA":" ","LANE":" ","ALLEY":" ","HOUSE_NO":"２２５號","E_COORD97":176808.37,"N_COORD97":2540597.25,"ADDRESS":"大順街２２５號","OBJECTID":258090},"geometry":{"x":176808.37000000011,"y":2540597.25}},{"attributes":{"ID":258095,"DIS_CODE":0,"TOWNNAME":"歸仁區","LI":"南保里","LIN":"53鄰","STREET":"大順五街","SECT":" ","MAREA":" ","LANE":" ","ALLEY":" ","HOUSE_NO":"２６號","E_COORD97":176808.07000000001,"N_COORD97":2540551.25,"ADDRESS":"大順五街２６號","OBJECTID":258091},"geometry":{"x":176808.07000000123,"y":2540551.2500000019}},{"attributes":{"ID":258096,"DIS_CODE":0,"TOWNNAME":"歸仁區","LI":"南保里","LIN":"53鄰","STREET":"大順五街","SECT":" ","MAREA":" ","LANE":" ","ALLEY":" ","HOUSE_NO":"１４號","E_COORD97":176832.76999999999,"N_COORD97":2540552.25,"ADDRESS":"大順五街１４號","OBJECTID":258092},"geometry":{"x":176832.77000000142,"y":2540552.2500000019}},{"attributes":{"ID":258097,"DIS_CODE":0,"TOWNNAME":"歸仁區","LI":"南保里","LIN":"53鄰","STREET":"大順街","SECT":" ","MAREA":" ","LANE":" ","ALLEY":" ","HOUSE_NO":"２１５號","E_COORD97":176828.87,"N_COORD97":2540598.25,"ADDRESS":"大順街２１５號","OBJECTID":258093},"geometry":{"x":176828.87000000011,"y":2540598.2500000037}},{"attributes":{"ID":258098,"DIS_CODE":0,"TOWNNAME":"歸仁區","LI":"南保里","LIN":"53鄰","STREET":"大順街","SECT":" ","MAREA":" ","LANE":" ","ALLEY":" ","HOUSE_NO":"２１７號","E_COORD97":176824.76999999999,"N_COORD97":2540596.25,"ADDRESS":"大順街２１７號","OBJECTID":258094},"geometry":{"x":176824.77000000048,"y":2540596.2500000019}},{"attributes":{"ID":258099,"DIS_CODE":0,"TOWNNAME":"永康區","LI":"五王里","LIN":"27鄰","STREET":"五福街","SECT":" ","MAREA":" ","LANE":"１１０巷","ALLEY":" ","HOUSE_NO":"２２號","E_COORD97":171533.57000000001,"N_COORD97":2545933.25,"ADDRESS":"五福街１１０巷２２號","OBJECTID":258095},"geometry":{"x":171533.5700000003,"y":2545933.25}},{"attributes":{"ID":258100,"DIS_CODE":0,"TOWNNAME":"永康區","LI":"大橋里","LIN":"27鄰","STREET":"大橋一街","SECT":" ","MAREA":" ","LANE":"２４７巷","ALLEY":" ","HOUSE_NO":"１４號","E_COORD97":171282.20000000001,"N_COORD97":2546705.2400000002,"ADDRESS":"大橋一街２４７巷１４號","OBJECTID":258096},"geometry":{"x":171282.20000000205,"y":2546705.2400000021}},{"attributes":{"ID":258101,"DIS_CODE":0,"TOWNNAME":"永康區","LI":"大橋里","LIN":"27鄰","STREET":"大橋一街","SECT":" ","MAREA":" ","LANE":"２４７巷","ALLEY":" ","HOUSE_NO":"６號","E_COORD97":171290.57999999999,"N_COORD97":2546689.7400000002,"ADDRESS":"大橋一街２４７巷６號","OBJECTID":258097},"geometry":{"x":171290.58000000007,"y":2546689.7400000002}},{"attributes":{"ID":258102,"DIS_CODE":0,"TOWNNAME":"永康區","LI":"大橋里","LIN":"27鄰","STREET":"大橋一街","SECT":" ","MAREA":" ","LANE":"２４７巷","ALLEY":" ","HOUSE_NO":"１６號","E_COORD97":171279.72,"N_COORD97":2546709.7400000002,"ADDRESS":"大橋一街２４７巷１６號","OBJECTID":258098},"geometry":{"x":171279.71999999881,"y":2546709.7400000002}},{"attributes":{"ID":258103,"DIS_CODE":0,"TOWNNAME":"永康區","LI":"勝利里","LIN":"27鄰","STREET":"勝利街","SECT":" ","MAREA":" ","LANE":"５８巷","ALLEY":" ","HOUSE_NO":"２３號","E_COORD97":171438.45999999999,"N_COORD97":2544676.0099999998,"ADDRESS":"勝利街５８巷２３號","OBJECTID":258099},"geometry":{"x":171438.46000000089,"y":2544676.0100000016}},{"attributes":{"ID":258104,"DIS_CODE":0,"TOWNNAME":"永康區","LI":"勝利里","LIN":"27鄰","STREET":"勝利街","SECT":" ","MAREA":" ","LANE":"５８巷","ALLEY":" ","HOUSE_NO":"１３號","E_COORD97":171397.42999999999,"N_COORD97":2544679.7599999998,"ADDRESS":"勝利街５８巷１３號","OBJECTID":258100},"geometry":{"x":171397.43000000063,"y":2544679.7599999979}},{"attributes":{"ID":258105,"DIS_CODE":0,"TOWNNAME":"仁德區","LI":"太子里","LIN":"27鄰","STREET":"大吉路","SECT":" ","MAREA":" ","LANE":"２０２巷","ALLEY":" ","HOUSE_NO":"２號","E_COORD97":173360.99799999999,"N_COORD97":2543370.3352999999,"ADDRESS":"大吉路２０２巷２號","OBJECTID":258101},"geometry":{"x":173360.99799999967,"y":2543370.3352969997}},{"attributes":{"ID":258106,"DIS_CODE":0,"TOWNNAME":"仁德區","LI":"仁愛里","LIN":"27鄰","STREET":"亞航街","SECT":" ","MAREA":" ","LANE":"２５巷","ALLEY":" ","HOUSE_NO":"１５０號","E_COORD97":169839.92000000001,"N_COORD97":2539563.02,"ADDRESS":"亞航街２５巷１５０號","OBJECTID":258102},"geometry":{"x":169839.92000000086,"y":2539563.0200000014}},{"attributes":{"ID":258107,"DIS_CODE":0,"TOWNNAME":"仁德區","LI":"太子里","LIN":"27鄰","STREET":"大吉路","SECT":" ","MAREA":" ","LANE":"１９２巷","ALLEY":" ","HOUSE_NO":"８號","E_COORD97":173365.5,"N_COORD97":2543357.9900000002,"ADDRESS":"大吉路１９２巷８號","OBJECTID":258103},"geometry":{"x":173365.50000000093,"y":2543357.9900000021}},{"attributes":{"ID":258108,"DIS_CODE":0,"TOWNNAME":"永康區","LI":"中興里","LIN":"27鄰","STREET":"中山東路","SECT":" ","MAREA":" ","LANE":" ","ALLEY":" ","HOUSE_NO":"３２７號","E_COORD97":171905.13,"N_COORD97":2545317.2599999998,"ADDRESS":"中山東路３２７號","OBJECTID":258104},"geometry":{"x":171905.13000000082,"y":2545317.2600000035}},{"attributes":{"ID":258109,"DIS_CODE":0,"TOWNNAME":"新市區","LI":"大社里","LIN":"27鄰","STREET":" ","SECT":" ","MAREA":"大社","LANE":" ","ALLEY":" ","HOUSE_NO":"７２３號","E_COORD97":180042.39999999999,"N_COORD97":2554266.25,"ADDRESS":"大社７２３號","OBJECTID":258105},"geometry":{"x":180042.4000000013,"y":2554266.2500000019}},{"attributes":{"ID":258110,"DIS_CODE":0,"TOWNNAME":"新市區","LI":"大社里","LIN":"27鄰","STREET":" ","SECT":" ","MAREA":"大社","LANE":" ","ALLEY":" ","HOUSE_NO":"７２７號","E_COORD97":179973.70999999999,"N_COORD97":2554259.25,"ADDRESS":"大社７２７號","OBJECTID":258106},"geometry":{"x":179973.71000000089,"y":2554259.2500000019}},{"attributes":{"ID":258111,"DIS_CODE":0,"TOWNNAME":"永康區","LI":"大橋里","LIN":"27鄰","STREET":"大橋一街","SECT":" ","MAREA":" ","LANE":" ","ALLEY":" ","HOUSE_NO":"３２２號","E_COORD97":171307.59,"N_COORD97":2546676.2400000002,"ADDRESS":"大橋一街３２２號","OBJECTID":258107},"geometry":{"x":171307.58999999985,"y":2546676.2400000002}},{"attributes":{"ID":258112,"DIS_CODE":0,"TOWNNAME":"新市區","LI":"大社里","LIN":"27鄰","STREET":" ","SECT":" ","MAREA":"大社","LANE":" ","ALLEY":" ","HOUSE_NO":"７２６號","E_COORD97":180007.98000000001,"N_COORD97":2554246.75,"ADDRESS":"大社７２６號","OBJECTID":258108},"geometry":{"x":180007.98000000138,"y":2554246.75}},{"attributes":{"ID":258113,"DIS_CODE":0,"TOWNNAME":"仁德區","LI":"太子里","LIN":"27鄰","STREET":"太子路","SECT":" ","MAREA":" ","LANE":" ","ALLEY":" ","HOUSE_NO":"６９５號","E_COORD97":173361.67999999999,"N_COORD97":2543513.0099999998,"ADDRESS":"太子路６９５號","OBJECTID":258109},"geometry":{"x":173361.67999999877,"y":2543513.0100000016}},{"attributes":{"ID":258114,"DIS_CODE":0,"TOWNNAME":"仁德區","LI":"太子里","LIN":"27鄰","STREET":"大吉路","SECT":" ","MAREA":" ","LANE":" ","ALLEY":" ","HOUSE_NO":"１７０號","E_COORD97":173385.75,"N_COORD97":2543342.25,"ADDRESS":"大吉路１７０號","OBJECTID":258110},"geometry":{"x":173385.75000000093,"y":2543342.2500000019}},{"attributes":{"ID":258115,"DIS_CODE":0,"TOWNNAME":"仁德區","LI":"太子里","LIN":"27鄰","STREET":"大利路","SECT":" ","MAREA":" ","LANE":" ","ALLEY":" ","HOUSE_NO":"７８號","E_COORD97":173566.01000000001,"N_COORD97":2543229.75,"ADDRESS":"大利路７８號","OBJECTID":258111},"geometry":{"x":173566.00999999978,"y":2543229.7500000019}},{"attributes":{"ID":258116,"DIS_CODE":0,"TOWNNAME":"仁德區","LI":"太子里","LIN":"27鄰","STREET":"大吉路","SECT":" ","MAREA":" ","LANE":" ","ALLEY":" ","HOUSE_NO":"１５８號","E_COORD97":173423.60999999999,"N_COORD97":2543342.75,"ADDRESS":"大吉路１５８號","OBJECTID":258112},"geometry":{"x":173423.61000000034,"y":2543342.7500000019}},{"attributes":{"ID":258117,"DIS_CODE":0,"TOWNNAME":"仁德區","LI":"太子里","LIN":"27鄰","STREET":"太子路","SECT":" ","MAREA":" ","LANE":" ","ALLEY":" ","HOUSE_NO":"７０７之３號","E_COORD97":173232.31,"N_COORD97":2543495.54,"ADDRESS":"太子路７０７之３號","OBJECTID":258113},"geometry":{"x":173232.31000000052,"y":2543495.540000001}},{"attributes":{"ID":258118,"DIS_CODE":0,"TOWNNAME":"仁德區","LI":"太子里","LIN":"27鄰","STREET":"太子路","SECT":" ","MAREA":" ","LANE":" ","ALLEY":" ","HOUSE_NO":"７０７之１號","E_COORD97":173250.44,"N_COORD97":2543499.54,"ADDRESS":"太子路７０７之１號","OBJECTID":258114},"geometry":{"x":173250.43999999948,"y":2543499.5399999991}},{"attributes":{"ID":258119,"DIS_CODE":0,"TOWNNAME":"仁德區","LI":"太子里","LIN":"27鄰","STREET":"大吉路","SECT":" ","MAREA":" ","LANE":" ","ALLEY":" ","HOUSE_NO":"７１號","E_COORD97":173574.98999999999,"N_COORD97":2543330.5,"ADDRESS":"大吉路７１號","OBJECTID":258115},"geometry":{"x":173574.99000000022,"y":2543330.5000000019}},{"attributes":{"ID":258120,"DIS_CODE":0,"TOWNNAME":"仁德區","LI":"太子里","LIN":"27鄰","STREET":"大利路","SECT":" ","MAREA":" ","LANE":" ","ALLEY":" ","HOUSE_NO":"７６號","E_COORD97":173566.42999999999,"N_COORD97":2543213.5,"ADDRESS":"大利路７６號","OBJECTID":258116},"geometry":{"x":173566.4299999997,"y":2543213.5}},{"attributes":{"ID":258121,"DIS_CODE":0,"TOWNNAME":"新市區","LI":"港墘里","LIN":"27鄰","STREET":"南昌街","SECT":" ","MAREA":" ","LANE":" ","ALLEY":" ","HOUSE_NO":"４８號","E_COORD97":178018.79999999999,"N_COORD97":2553000.5,"ADDRESS":"南昌街４８號","OBJECTID":258117},"geometry":{"x":178018.79999999981,"y":2553000.5}},{"attributes":{"ID":258122,"DIS_CODE":0,"TOWNNAME":"安南區","LI":"理想里","LIN":"17鄰","STREET":"大安街","SECT":" ","MAREA":" ","LANE":"２１５巷","ALLEY":" ","HOUSE_NO":"３號","E_COORD97":167383.37,"N_COORD97":2548354.8100000001,"ADDRESS":"大安街２１５巷３號","OBJECTID":258118},"geometry":{"x":167383.37000000011,"y":2548354.8100000005}},{"attributes":{"ID":258123,"DIS_CODE":0,"TOWNNAME":"安南區","LI":"理想里","LIN":"17鄰","STREET":"大安街","SECT":" ","MAREA":" ","LANE":"２１５巷","ALLEY":" ","HOUSE_NO":"５號","E_COORD97":167379.10999999999,"N_COORD97":2548357,"ADDRESS":"大安街２１５巷５號","OBJECTID":258119},"geometry":{"x":167379.11000000127,"y":2548356.9999999981}},{"attributes":{"ID":258124,"DIS_CODE":0,"TOWNNAME":"安南區","LI":"理想里","LIN":"17鄰","STREET":"大安街","SECT":" ","MAREA":" ","LANE":"２１５巷","ALLEY":" ","HOUSE_NO":"７號","E_COORD97":167372.91,"N_COORD97":2548361.7000000002,"ADDRESS":"大安街２１５巷７號","OBJECTID":258120},"geometry":{"x":167372.91000000015,"y":2548361.700000003}},{"attributes":{"ID":258125,"DIS_CODE":0,"TOWNNAME":"安南區","LI":"理想里","LIN":"17鄰","STREET":"大安街","SECT":" ","MAREA":" ","LANE":"２１５巷","ALLEY":" ","HOUSE_NO":"９號","E_COORD97":167368.16,"N_COORD97":2548363.29,"ADDRESS":"大安街２１５巷９號","OBJECTID":258121},"geometry":{"x":167368.16000000201,"y":2548363.2899999991}},{"attributes":{"ID":258126,"DIS_CODE":0,"TOWNNAME":"安南區","LI":"理想里","LIN":"17鄰","STREET":"大安街","SECT":" ","MAREA":" ","LANE":"２２９巷","ALLEY":" ","HOUSE_NO":"８號","E_COORD97":167399.34,"N_COORD97":2548407.9399999999,"ADDRESS":"大安街２２９巷８號","OBJECTID":258122},"geometry":{"x":167399.34000000078,"y":2548407.9400000032}},{"attributes":{"ID":258127,"DIS_CODE":0,"TOWNNAME":"安南區","LI":"理想里","LIN":"17鄰","STREET":"大安街","SECT":" ","MAREA":" ","LANE":"２４３巷","ALLEY":" ","HOUSE_NO":"１５號","E_COORD97":167404.67000000001,"N_COORD97":2548430.5,"ADDRESS":"大安街２４３巷１５號","OBJECTID":258123},"geometry":{"x":167404.66999999993,"y":2548430.5}},{"attributes":{"ID":258128,"DIS_CODE":0,"TOWNNAME":"安南區","LI":"理想里","LIN":"17鄰","STREET":"大安街","SECT":" ","MAREA":" ","LANE":"２４３巷","ALLEY":" ","HOUSE_NO":"１６號","E_COORD97":167414.72,"N_COORD97":2548445.98,"ADDRESS":"大安街２４３巷１６號","OBJECTID":258124},"geometry":{"x":167414.71999999881,"y":2548445.9800000042}},{"attributes":{"ID":258129,"DIS_CODE":0,"TOWNNAME":"安南區","LI":"理想里","LIN":"17鄰","STREET":"大安街","SECT":" ","MAREA":" ","LANE":"２４３巷","ALLEY":" ","HOUSE_NO":"１８號","E_COORD97":167411.54999999999,"N_COORD97":2548448.9100000001,"ADDRESS":"大安街２４３巷１８號","OBJECTID":258125},"geometry":{"x":167411.55000000075,"y":2548448.9100000001}},{"attributes":{"ID":258130,"DIS_CODE":0,"TOWNNAME":"安南區","LI":"理想里","LIN":"17鄰","STREET":"大安街","SECT":" ","MAREA":" ","LANE":"２４３巷","ALLEY":" ","HOUSE_NO":"１９號","E_COORD97":167394.67000000001,"N_COORD97":2548432.6899999999,"ADDRESS":"大安街２４３巷１９號","OBJECTID":258126},"geometry":{"x":167394.66999999993,"y":2548432.6899999995}},{"attributes":{"ID":258131,"DIS_CODE":0,"TOWNNAME":"安南區","LI":"理想里","LIN":"17鄰","STREET":"大安街","SECT":" ","MAREA":" ","LANE":"２４３巷","ALLEY":" ","HOUSE_NO":"１號","E_COORD97":167429.01999999999,"N_COORD97":2548412.1200000001,"ADDRESS":"大安街２４３巷１號","OBJECTID":258127},"geometry":{"x":167429.01999999955,"y":2548412.1200000029}},{"attributes":{"ID":258132,"DIS_CODE":0,"TOWNNAME":"安南區","LI":"理想里","LIN":"17鄰","STREET":"大安街","SECT":" ","MAREA":" ","LANE":"２４３巷","ALLEY":" ","HOUSE_NO":"２０號","E_COORD97":167407.22,"N_COORD97":2548451.3399999999,"ADDRESS":"大安街２４３巷２０號","OBJECTID":258128},"geometry":{"x":167407.21999999974,"y":2548451.3399999999}},{"attributes":{"ID":258133,"DIS_CODE":0,"TOWNNAME":"安南區","LI":"理想里","LIN":"17鄰","STREET":"大安街","SECT":" ","MAREA":" ","LANE":"２４３巷","ALLEY":" ","HOUSE_NO":"２號","E_COORD97":167440.17999999999,"N_COORD97":2548429.3599999999,"ADDRESS":"大安街２４３巷２號","OBJECTID":258129},"geometry":{"x":167440.1799999997,"y":2548429.3600000013}},{"attributes":{"ID":258134,"DIS_CODE":0,"TOWNNAME":"安南區","LI":"理想里","LIN":"17鄰","STREET":"大安街","SECT":" ","MAREA":" ","LANE":"２４３巷","ALLEY":" ","HOUSE_NO":"３號","E_COORD97":167424.63,"N_COORD97":2548413.8199999998,"ADDRESS":"大安街２４３巷３號","OBJECTID":258130},"geometry":{"x":167424.63000000082,"y":2548413.8200000022}},{"attributes":{"ID":258135,"DIS_CODE":0,"TOWNNAME":"安南區","LI":"理想里","LIN":"17鄰","STREET":"大安街","SECT":" ","MAREA":" ","LANE":"２４３巷","ALLEY":" ","HOUSE_NO":"５號","E_COORD97":167421.39000000001,"N_COORD97":2548416.2000000002,"ADDRESS":"大安街２４３巷５號","OBJECTID":258131},"geometry":{"x":167421.38999999966,"y":2548416.200000003}},{"attributes":{"ID":258136,"DIS_CODE":0,"TOWNNAME":"安南區","LI":"理想里","LIN":"17鄰","STREET":"大安街","SECT":" ","MAREA":" ","LANE":"２４３巷","ALLEY":" ","HOUSE_NO":"６號","E_COORD97":167432.70999999999,"N_COORD97":2548434.5899999999,"ADDRESS":"大安街２４３巷６號","OBJECTID":258132},"geometry":{"x":167432.71000000089,"y":2548434.5900000036}},{"attributes":{"ID":258137,"DIS_CODE":0,"TOWNNAME":"安南區","LI":"理想里","LIN":"17鄰","STREET":"大安街","SECT":" ","MAREA":" ","LANE":"２４３巷","ALLEY":" ","HOUSE_NO":"７號","E_COORD97":167418.04000000001,"N_COORD97":2548418.3300000001,"ADDRESS":"大安街２４３巷７號","OBJECTID":258133},"geometry":{"x":167418.0400000019,"y":2548418.3300000001}},{"attributes":{"ID":258138,"DIS_CODE":0,"TOWNNAME":"安南區","LI":"理想里","LIN":"17鄰","STREET":"大安街","SECT":" ","MAREA":" ","LANE":"２４３巷","ALLEY":" ","HOUSE_NO":"８號","E_COORD97":167429.23000000001,"N_COORD97":2548436.9700000002,"ADDRESS":"大安街２４３巷８號","OBJECTID":258134},"geometry":{"x":167429.23000000138,"y":2548436.9700000025}},{"attributes":{"ID":258139,"DIS_CODE":0,"TOWNNAME":"安南區","LI":"理想里","LIN":"17鄰","STREET":"大安街","SECT":" ","MAREA":" ","LANE":"２４３巷","ALLEY":" ","HOUSE_NO":"９號","E_COORD97":167415.35000000001,"N_COORD97":2548422.1699999999,"ADDRESS":"大安街２４３巷９號","OBJECTID":258135},"geometry":{"x":167415.34999999963,"y":2548422.1699999999}},{"attributes":{"ID":258140,"DIS_CODE":0,"TOWNNAME":"安南區","LI":"理想里","LIN":"17鄰","STREET":"大安街","SECT":" ","MAREA":" ","LANE":"２５７巷","ALLEY":" ","HOUSE_NO":"１１號","E_COORD97":167429.38,"N_COORD97":2548461.1299999999,"ADDRESS":"大安街２５７巷１１號","OBJECTID":258136},"geometry":{"x":167429.38000000082,"y":2548461.1300000008}},{"attributes":{"ID":258141,"DIS_CODE":0,"TOWNNAME":"新營區","LI":"土庫里","LIN":"18鄰","STREET":"開元路","SECT":" ","MAREA":" ","LANE":"２８３巷","ALLEY":" ","HOUSE_NO":"７號","E_COORD97":181929.88,"N_COORD97":2579932.52,"ADDRESS":"開元路２８３巷７號","OBJECTID":258137},"geometry":{"x":181929.88000000175,"y":2579932.5200000014}},{"attributes":{"ID":258142,"DIS_CODE":0,"TOWNNAME":"安南區","LI":"理想里","LIN":"17鄰","STREET":"大安街","SECT":" ","MAREA":" ","LANE":"２５７巷","ALLEY":" ","HOUSE_NO":"１５號","E_COORD97":167421.51999999999,"N_COORD97":2548466.7400000002,"ADDRESS":"大安街２５７巷１５號","OBJECTID":258138},"geometry":{"x":167421.52000000048,"y":2548466.7400000002}},{"attributes":{"ID":258143,"DIS_CODE":0,"TOWNNAME":"安南區","LI":"理想里","LIN":"17鄰","STREET":"大安街","SECT":" ","MAREA":" ","LANE":"２５７巷","ALLEY":" ","HOUSE_NO":"１號","E_COORD97":167451.79000000001,"N_COORD97":2548447.4700000002,"ADDRESS":"大安街２５７巷１號","OBJECTID":258139},"geometry":{"x":167451.79000000004,"y":2548447.4700000025}},{"attributes":{"ID":258144,"DIS_CODE":0,"TOWNNAME":"安南區","LI":"理想里","LIN":"17鄰","STREET":"大安街","SECT":" ","MAREA":" ","LANE":"２５７巷","ALLEY":" ","HOUSE_NO":"３號","E_COORD97":167447.14999999999,"N_COORD97":2548449.7200000002,"ADDRESS":"大安街２５７巷３號","OBJECTID":258140},"geometry":{"x":167447.1500000013,"y":2548449.7200000007}},{"attributes":{"ID":258145,"DIS_CODE":0,"TOWNNAME":"安南區","LI":"理想里","LIN":"17鄰","STREET":"大安街","SECT":" ","MAREA":" ","LANE":"２５７巷","ALLEY":" ","HOUSE_NO":"７號","E_COORD97":167438.37,"N_COORD97":2548455.4500000002,"ADDRESS":"大安街２５７巷７號","OBJECTID":258141},"geometry":{"x":167438.37000000104,"y":2548455.4500000011}},{"attributes":{"ID":258146,"DIS_CODE":0,"TOWNNAME":"歸仁區","LI":"南興里","LIN":"19鄰","STREET":"南興一街","SECT":" ","MAREA":" ","LANE":"２４巷","ALLEY":" ","HOUSE_NO":"７號","E_COORD97":175699.41550500001,"N_COORD97":2541305.7564900001,"ADDRESS":"南興一街２４巷７號","OBJECTID":258142},"geometry":{"x":175699.41550500039,"y":2541305.7564910017}},{"attributes":{"ID":258147,"DIS_CODE":0,"TOWNNAME":"安南區","LI":"理想里","LIN":"17鄰","STREET":"大安街","SECT":" ","MAREA":" ","LANE":"２５７巷","ALLEY":" ","HOUSE_NO":"９號","E_COORD97":167434.41,"N_COORD97":2548458.0699999998,"ADDRESS":"大安街２５７巷９號","OBJECTID":258143},"geometry":{"x":167434.41000000201,"y":2548458.0700000003}},{"attributes":{"ID":258148,"DIS_CODE":0,"TOWNNAME":"東區","LI":"大智里","LIN":"27鄰","STREET":"德東街","SECT":" ","MAREA":" ","LANE":"２３５巷","ALLEY":" ","HOUSE_NO":"３８號","E_COORD97":171477.69,"N_COORD97":2540299.4300000002,"ADDRESS":"德東街２３５巷３８號","OBJECTID":258144},"geometry":{"x":171477.69000000134,"y":2540299.4300000016}},{"attributes":{"ID":258149,"DIS_CODE":0,"TOWNNAME":"安南區","LI":"理想里","LIN":"17鄰","STREET":"大安街","SECT":" ","MAREA":" ","LANE":"２４３巷","ALLEY":" ","HOUSE_NO":"１３號","E_COORD97":167408.14999999999,"N_COORD97":2548427.8799999999,"ADDRESS":"大安街２４３巷１３號","OBJECTID":258145},"geometry":{"x":167408.1500000013,"y":2548427.8799999971}},{"attributes":{"ID":258150,"DIS_CODE":0,"TOWNNAME":"安南區","LI":"理想里","LIN":"17鄰","STREET":"大安街","SECT":" ","MAREA":" ","LANE":"２５７巷","ALLEY":" ","HOUSE_NO":"１３號","E_COORD97":167425.78,"N_COORD97":2548463.5099999998,"ADDRESS":"大安街２５７巷１３號","OBJECTID":258146},"geometry":{"x":167425.78000000119,"y":2548463.5100000016}},{"attributes":{"ID":258151,"DIS_CODE":0,"TOWNNAME":"安南區","LI":"理想里","LIN":"17鄰","STREET":"大安街","SECT":" ","MAREA":" ","LANE":"２５７巷","ALLEY":" ","HOUSE_NO":"５號","E_COORD97":167443.31,"N_COORD97":2548451.9700000002,"ADDRESS":"大安街２５７巷５號","OBJECTID":258147},"geometry":{"x":167443.31000000052,"y":2548451.9700000007}},{"attributes":{"ID":258152,"DIS_CODE":0,"TOWNNAME":"安南區","LI":"海南里","LIN":"17鄰","STREET":"國安街","SECT":" ","MAREA":" ","LANE":"２３３巷","ALLEY":" ","HOUSE_NO":"１３號","E_COORD97":166567.60000000001,"N_COORD97":2546867.0099999998,"ADDRESS":"國安街２３３巷１３號","OBJECTID":258148},"geometry":{"x":166567.59999999963,"y":2546867.0099999998}},{"attributes":{"ID":258153,"DIS_CODE":0,"TOWNNAME":"安南區","LI":"海南里","LIN":"17鄰","STREET":"國安街","SECT":" ","MAREA":" ","LANE":"２３３巷","ALLEY":" ","HOUSE_NO":"１號","E_COORD97":166563.94,"N_COORD97":2546893.1800000002,"ADDRESS":"國安街２３３巷１號","OBJECTID":258149},"geometry":{"x":166563.94000000041,"y":2546893.1799999997}},{"attributes":{"ID":258154,"DIS_CODE":0,"TOWNNAME":"永康區","LI":"中興里","LIN":"17鄰","STREET":"中華路","SECT":" ","MAREA":" ","LANE":"２８６巷","ALLEY":" ","HOUSE_NO":"１０號","E_COORD97":171602.81,"N_COORD97":2545307.0899999999,"ADDRESS":"中華路２８６巷１０號","OBJECTID":258150},"geometry":{"x":171602.81000000145,"y":2545307.0899999999}},{"attributes":{"ID":258155,"DIS_CODE":0,"TOWNNAME":"永康區","LI":"五王里","LIN":"17鄰","STREET":"成功路","SECT":" ","MAREA":" ","LANE":"２０４巷","ALLEY":" ","HOUSE_NO":"２８號","E_COORD97":171460.39000000001,"N_COORD97":2545729.9399999999,"ADDRESS":"成功路２０４巷２８號","OBJECTID":258151},"geometry":{"x":171460.3900000006,"y":2545729.9400000013}},{"attributes":{"ID":258156,"DIS_CODE":0,"TOWNNAME":"永康區","LI":"五王里","LIN":"17鄰","STREET":"成功路","SECT":" ","MAREA":" ","LANE":"１７２巷","ALLEY":" ","HOUSE_NO":"８０號","E_COORD97":171558.56,"N_COORD97":2545784.9399999999,"ADDRESS":"成功路１７２巷８０號","OBJECTID":258152},"geometry":{"x":171558.55999999959,"y":2545784.9400000013}},{"attributes":{"ID":258157,"DIS_CODE":0,"TOWNNAME":"永康區","LI":"中興里","LIN":"17鄰","STREET":"中華二路","SECT":" ","MAREA":" ","LANE":"２８３巷","ALLEY":" ","HOUSE_NO":"１０號","E_COORD97":171544.39999999999,"N_COORD97":2545384.25,"ADDRESS":"中華二路２８３巷１０號","OBJECTID":258153},"geometry":{"x":171544.4000000013,"y":2545384.25}},{"attributes":{"ID":258158,"DIS_CODE":0,"TOWNNAME":"永康區","LI":"大橋里","LIN":"17鄰","STREET":"大橋一街","SECT":" ","MAREA":" ","LANE":"１０３巷","ALLEY":" ","HOUSE_NO":"４０號","E_COORD97":170977.75,"N_COORD97":2546547.75,"ADDRESS":"大橋一街１０３巷４０號","OBJECTID":258154},"geometry":{"x":170977.75,"y":2546547.75}},{"attributes":{"ID":258159,"DIS_CODE":0,"TOWNNAME":"永康區","LI":"五王里","LIN":"17鄰","STREET":"成功路","SECT":" ","MAREA":" ","LANE":"２０４巷","ALLEY":" ","HOUSE_NO":"２４號","E_COORD97":171452.09,"N_COORD97":2545724.2000000002,"ADDRESS":"成功路２０４巷２４號","OBJECTID":258155},"geometry":{"x":171452.09000000171,"y":2545724.200000003}},{"attributes":{"ID":258160,"DIS_CODE":0,"TOWNNAME":"永康區","LI":"五王里","LIN":"17鄰","STREET":"成功路","SECT":" ","MAREA":" ","LANE":"２０４巷","ALLEY":" ","HOUSE_NO":"３０號","E_COORD97":171464.53,"N_COORD97":2545733.1899999999,"ADDRESS":"成功路２０４巷３０號","OBJECTID":258156},"geometry":{"x":171464.53000000026,"y":2545733.1899999995}},{"attributes":{"ID":258161,"DIS_CODE":0,"TOWNNAME":"永康區","LI":"大橋里","LIN":"17鄰","STREET":"大橋一街","SECT":" ","MAREA":" ","LANE":"１０３巷","ALLEY":" ","HOUSE_NO":"４２號","E_COORD97":170972.19,"N_COORD97":2546543.75,"ADDRESS":"大橋一街１０３巷４２號","OBJECTID":258157},"geometry":{"x":170972.19000000227,"y":2546543.75}},{"attributes":{"ID":258162,"DIS_CODE":0,"TOWNNAME":"永康區","LI":"大橋里","LIN":"17鄰","STREET":"大橋一街","SECT":" ","MAREA":" ","LANE":"１０３巷","ALLEY":" ","HOUSE_NO":"４８號","E_COORD97":170951.51999999999,"N_COORD97":2546543.75,"ADDRESS":"大橋一街１０３巷４８號","OBJECTID":258158},"geometry":{"x":170951.51999999955,"y":2546543.75}},{"attributes":{"ID":258163,"DIS_CODE":0,"TOWNNAME":"永康區","LI":"大橋里","LIN":"17鄰","STREET":"大橋一街","SECT":" ","MAREA":" ","LANE":"１０３巷","ALLEY":" ","HOUSE_NO":"１０號","E_COORD97":170978.97,"N_COORD97":2546498.7400000002,"ADDRESS":"大橋一街１０３巷１０號","OBJECTID":258159},"geometry":{"x":170978.96999999974,"y":2546498.7400000021}},{"attributes":{"ID":258164,"DIS_CODE":0,"TOWNNAME":"永康區","LI":"中興里","LIN":"17鄰","STREET":"中華路","SECT":" ","MAREA":" ","LANE":"２８６巷","ALLEY":" ","HOUSE_NO":"１８號","E_COORD97":171618.85999999999,"N_COORD97":2545307.0899999999,"ADDRESS":"中華路２８６巷１８號","OBJECTID":258160},"geometry":{"x":171618.86000000127,"y":2545307.0899999999}},{"attributes":{"ID":258165,"DIS_CODE":0,"TOWNNAME":"新營區","LI":"民生里","LIN":"20鄰","STREET":"進修街","SECT":" ","MAREA":" ","LANE":"２９巷","ALLEY":" ","HOUSE_NO":"５０號","E_COORD97":178881.42999999999,"N_COORD97":2578480.5899999999,"ADDRESS":"進修街２９巷５０號","OBJECTID":258161},"geometry":{"x":178881.43000000063,"y":2578480.5900000017}},{"attributes":{"ID":258166,"DIS_CODE":0,"TOWNNAME":"新營區","LI":"民生里","LIN":"24鄰","STREET":"民生路","SECT":" ","MAREA":" ","LANE":"１３９巷","ALLEY":" ","HOUSE_NO":"２１號","E_COORD97":179136.60000000001,"N_COORD97":2578567.96,"ADDRESS":"民生路１３９巷２１號","OBJECTID":258162},"geometry":{"x":179136.60000000056,"y":2578567.9600000028}},{"attributes":{"ID":258167,"DIS_CODE":0,"TOWNNAME":"永康區","LI":"中興里","LIN":"17鄰","STREET":"中華路","SECT":" ","MAREA":" ","LANE":"２８６巷","ALLEY":" ","HOUSE_NO":"１２號","E_COORD97":171606.51999999999,"N_COORD97":2545307.0899999999,"ADDRESS":"中華路２８６巷１２號","OBJECTID":258163},"geometry":{"x":171606.52000000142,"y":2545307.0899999999}},{"attributes":{"ID":258168,"DIS_CODE":0,"TOWNNAME":"永康區","LI":"五王里","LIN":"17鄰","STREET":"成功路","SECT":" ","MAREA":" ","LANE":"２０４巷","ALLEY":" ","HOUSE_NO":"１９號","E_COORD97":171444.62,"N_COORD97":2545739.1299999999,"ADDRESS":"成功路２０４巷１９號","OBJECTID":258164},"geometry":{"x":171444.62000000011,"y":2545739.1300000008}},{"attributes":{"ID":258169,"DIS_CODE":0,"TOWNNAME":"永康區","LI":"大橋里","LIN":"17鄰","STREET":"大橋一街","SECT":" ","MAREA":" ","LANE":"１０３巷","ALLEY":" ","HOUSE_NO":"１８號","E_COORD97":170969.98000000001,"N_COORD97":2546512.75,"ADDRESS":"大橋一街１０３巷１８號","OBJECTID":258165},"geometry":{"x":170969.98000000045,"y":2546512.7500000019}},{"attributes":{"ID":258170,"DIS_CODE":0,"TOWNNAME":"永康區","LI":"大橋里","LIN":"17鄰","STREET":"大橋一街","SECT":" ","MAREA":" ","LANE":"１０３巷","ALLEY":" ","HOUSE_NO":"１４號","E_COORD97":170974.32000000001,"N_COORD97":2546505.7400000002,"ADDRESS":"大橋一街１０３巷１４號","OBJECTID":258166},"geometry":{"x":170974.3200000003,"y":2546505.7400000021}},{"attributes":{"ID":258171,"DIS_CODE":0,"TOWNNAME":"永康區","LI":"五王里","LIN":"17鄰","STREET":"成功路","SECT":" ","MAREA":" ","LANE":"２０４巷","ALLEY":" ","HOUSE_NO":"２２號","E_COORD97":171448.20000000001,"N_COORD97":2545720.9199999999,"ADDRESS":"成功路２０４巷２２號","OBJECTID":258167},"geometry":{"x":171448.20000000205,"y":2545720.9200000018}},{"attributes":{"ID":258172,"DIS_CODE":0,"TOWNNAME":"永康區","LI":"大橋里","LIN":"17鄰","STREET":"大橋一街","SECT":" ","MAREA":" ","LANE":"１０３巷","ALLEY":" ","HOUSE_NO":"３４號","E_COORD97":170971.57999999999,"N_COORD97":2546532.25,"ADDRESS":"大橋一街１０３巷３４號","OBJECTID":258168},"geometry":{"x":170971.58000000101,"y":2546532.2500000019}},{"attributes":{"ID":258173,"DIS_CODE":0,"TOWNNAME":"永康區","LI":"大灣里","LIN":"17鄰","STREET":"大灣路","SECT":" ","MAREA":" ","LANE":"３５６巷","ALLEY":" ","HOUSE_NO":"１２號","E_COORD97":174810.79999999999,"N_COORD97":2545131.0600000001,"ADDRESS":"大灣路３５６巷１２號","OBJECTID":258169},"geometry":{"x":174810.80000000075,"y":2545131.0600000024}},{"attributes":{"ID":258174,"DIS_CODE":0,"TOWNNAME":"永康區","LI":"大橋里","LIN":"17鄰","STREET":"大橋一街","SECT":" ","MAREA":" ","LANE":"１０３巷","ALLEY":" ","HOUSE_NO":"３６號","E_COORD97":170977.32999999999,"N_COORD97":2546536,"ADDRESS":"大橋一街１０３巷３６號","OBJECTID":258170},"geometry":{"x":170977.33000000007,"y":2546536}},{"attributes":{"ID":258175,"DIS_CODE":0,"TOWNNAME":"永康區","LI":"五王里","LIN":"17鄰","STREET":"成功路","SECT":" ","MAREA":" ","LANE":"２０４巷","ALLEY":" ","HOUSE_NO":"１５號","E_COORD97":171433.19,"N_COORD97":2545730.3799999999,"ADDRESS":"成功路２０４巷１５號","OBJECTID":258171},"geometry":{"x":171433.18999999948,"y":2545730.3800000008}},{"attributes":{"ID":258176,"DIS_CODE":0,"TOWNNAME":"永康區","LI":"大灣里","LIN":"17鄰","STREET":"大灣路","SECT":" ","MAREA":" ","LANE":"３５６巷","ALLEY":" ","HOUSE_NO":"２２號","E_COORD97":174812.53,"N_COORD97":2545152.5899999999,"ADDRESS":"大灣路３５６巷２２號","OBJECTID":258172},"geometry":{"x":174812.53000000026,"y":2545152.5900000036}},{"attributes":{"ID":258177,"DIS_CODE":0,"TOWNNAME":"永康區","LI":"中興里","LIN":"17鄰","STREET":"中華路","SECT":" ","MAREA":" ","LANE":"２８６巷","ALLEY":" ","HOUSE_NO":"１６號","E_COORD97":171614.81,"N_COORD97":2545307.3399999999,"ADDRESS":"中華路２８６巷１６號","OBJECTID":258173},"geometry":{"x":171614.81000000145,"y":2545307.3400000017}},{"attributes":{"ID":258178,"DIS_CODE":0,"TOWNNAME":"永康區","LI":"中興里","LIN":"17鄰","STREET":"中華路","SECT":" ","MAREA":" ","LANE":"２８６巷","ALLEY":" ","HOUSE_NO":"１３號","E_COORD97":171600.85999999999,"N_COORD97":2545322.5,"ADDRESS":"中華路２８６巷１３號","OBJECTID":258174},"geometry":{"x":171600.86000000034,"y":2545322.4999999981}},{"attributes":{"ID":258179,"DIS_CODE":0,"TOWNNAME":"歸仁區","LI":"南保里","LIN":"53鄰","STREET":"大順五街","SECT":" ","MAREA":" ","LANE":" ","ALLEY":" ","HOUSE_NO":"３２號","E_COORD97":176794.76999999999,"N_COORD97":2540552.25,"ADDRESS":"大順五街３２號","OBJECTID":258175},"geometry":{"x":176794.76999999955,"y":2540552.2500000019}},{"attributes":{"ID":258180,"DIS_CODE":0,"TOWNNAME":"永康區","LI":"大橋里","LIN":"27鄰","STREET":"大橋一街","SECT":" ","MAREA":" ","LANE":"２４７巷","ALLEY":" ","HOUSE_NO":"１０號","E_COORD97":171286.79000000001,"N_COORD97":2546697.7400000002,"ADDRESS":"大橋一街２４７巷１０號","OBJECTID":258176},"geometry":{"x":171286.79000000097,"y":2546697.7400000039}},{"attributes":{"ID":258181,"DIS_CODE":0,"TOWNNAME":"永康區","LI":"大橋里","LIN":"27鄰","STREET":"大橋一街","SECT":" ","MAREA":" ","LANE":"２４７巷","ALLEY":" ","HOUSE_NO":"２６號","E_COORD97":171267.09,"N_COORD97":2546728.25,"ADDRESS":"大橋一街２４７巷２６號","OBJECTID":258177},"geometry":{"x":171267.08999999985,"y":2546728.2500000037}},{"attributes":{"ID":258182,"DIS_CODE":0,"TOWNNAME":"永康區","LI":"大橋里","LIN":"27鄰","STREET":"大橋一街","SECT":" ","MAREA":" ","LANE":"２４７巷","ALLEY":" ","HOUSE_NO":"３２號","E_COORD97":171259.84,"N_COORD97":2546739.75,"ADDRESS":"大橋一街２４７巷３２號","OBJECTID":258178},"geometry":{"x":171259.83999999985,"y":2546739.7500000019}},{"attributes":{"ID":258183,"DIS_CODE":0,"TOWNNAME":"南區","LI":"郡南里","LIN":"9鄰","STREET":"永成路","SECT":"三段","MAREA":" ","LANE":"１３７巷","ALLEY":" ","HOUSE_NO":"２６號","E_COORD97":167439.526094,"N_COORD97":2540756.5364000001,"ADDRESS":"永成路三段１３７巷２６號","OBJECTID":258179},"geometry":{"x":167439.52609399986,"y":2540756.5364040006}},{"attributes":{"ID":258184,"DIS_CODE":0,"TOWNNAME":"永康區","LI":"五王里","LIN":"27鄰","STREET":"五福街","SECT":" ","MAREA":" ","LANE":"１１０巷","ALLEY":" ","HOUSE_NO":"２８號","E_COORD97":171542.12,"N_COORD97":2545937,"ADDRESS":"五福街１１０巷２８號","OBJECTID":258180},"geometry":{"x":171542.12000000104,"y":2545937.0000000019}},{"attributes":{"ID":258185,"DIS_CODE":0,"TOWNNAME":"永康區","LI":"大橋里","LIN":"27鄰","STREET":"大橋一街","SECT":" ","MAREA":" ","LANE":"２４７巷","ALLEY":" ","HOUSE_NO":"２４號","E_COORD97":171269.82999999999,"N_COORD97":2546724.75,"ADDRESS":"大橋一街２４７巷２４號","OBJECTID":258181},"geometry":{"x":171269.83000000101,"y":2546724.7500000037}},{"attributes":{"ID":258186,"DIS_CODE":0,"TOWNNAME":"永康區","LI":"五王里","LIN":"17鄰","STREET":"成功路","SECT":" ","MAREA":" ","LANE":"２０４巷","ALLEY":" ","HOUSE_NO":"１８號","E_COORD97":171439.70000000001,"N_COORD97":2545715.4199999999,"ADDRESS":"成功路２０４巷１８號","OBJECTID":258182},"geometry":{"x":171439.69999999925,"y":2545715.4199999999}},{"attributes":{"ID":258187,"DIS_CODE":0,"TOWNNAME":"永康區","LI":"五王里","LIN":"17鄰","STREET":"成功路","SECT":" ","MAREA":" ","LANE":"２０４巷","ALLEY":" ","HOUSE_NO":"２０號","E_COORD97":171443.79999999999,"N_COORD97":2545717.9199999999,"ADDRESS":"成功路２０４巷２０號","OBJECTID":258183},"geometry":{"x":171443.80000000168,"y":2545717.9200000018}},{"attributes":{"ID":258188,"DIS_CODE":0,"TOWNNAME":"永康區","LI":"五王里","LIN":"17鄰","STREET":"成功路","SECT":" ","MAREA":" ","LANE":"２０４巷","ALLEY":" ","HOUSE_NO":"２５號","E_COORD97":171462.57000000001,"N_COORD97":2545750.8799999999,"ADDRESS":"成功路２０４巷２５號","OBJECTID":258184},"geometry":{"x":171462.5700000003,"y":2545750.8800000008}},{"attributes":{"ID":258189,"DIS_CODE":0,"TOWNNAME":"永康區","LI":"五王里","LIN":"17鄰","STREET":"成功路","SECT":" ","MAREA":" ","LANE":"２０４巷","ALLEY":" ","HOUSE_NO":"２１號","E_COORD97":171451.12,"N_COORD97":2545743.8799999999,"ADDRESS":"成功路２０４巷２１號","OBJECTID":258185},"geometry":{"x":171451.12000000104,"y":2545743.8800000008}},{"attributes":{"ID":258190,"DIS_CODE":0,"TOWNNAME":"永康區","LI":"中興里","LIN":"17鄰","STREET":"中華路","SECT":" ","MAREA":" ","LANE":"２８６巷","ALLEY":" ","HOUSE_NO":"１７號","E_COORD97":171609.04999999999,"N_COORD97":2545322.25,"ADDRESS":"中華路２８６巷１７號","OBJECTID":258186},"geometry":{"x":171609.05000000075,"y":2545322.2500000019}},{"attributes":{"ID":258191,"DIS_CODE":0,"TOWNNAME":"永康區","LI":"五王里","LIN":"17鄰","STREET":"成功路","SECT":" ","MAREA":" ","LANE":"２０４巷","ALLEY":" ","HOUSE_NO":"４５號","E_COORD97":171498.85000000001,"N_COORD97":2545777.0099999998,"ADDRESS":"成功路２０４巷４５號","OBJECTID":258187},"geometry":{"x":171498.84999999963,"y":2545777.0100000035}},{"attributes":{"ID":258192,"DIS_CODE":0,"TOWNNAME":"永康區","LI":"中興里","LIN":"17鄰","STREET":"中華路","SECT":" ","MAREA":" ","LANE":"２８６巷","ALLEY":" ","HOUSE_NO":"３號","E_COORD97":171579.31,"N_COORD97":2545322,"ADDRESS":"中華路２８６巷３號","OBJECTID":258188},"geometry":{"x":171579.31000000052,"y":2545322}},{"attributes":{"ID":258193,"DIS_CODE":0,"TOWNNAME":"永康區","LI":"中興里","LIN":"17鄰","STREET":"中華路","SECT":" ","MAREA":" ","LANE":"２８６巷","ALLEY":" ","HOUSE_NO":"１號","E_COORD97":171573.91,"N_COORD97":2545322.0699999998,"ADDRESS":"中華路２８６巷１號","OBJECTID":258189},"geometry":{"x":171573.91000000201,"y":2545322.0700000003}},{"attributes":{"ID":258194,"DIS_CODE":0,"TOWNNAME":"永康區","LI":"中興里","LIN":"17鄰","STREET":"中華路","SECT":" ","MAREA":" ","LANE":"２８６巷","ALLEY":" ","HOUSE_NO":"１４號","E_COORD97":171610.44,"N_COORD97":2545307.3399999999,"ADDRESS":"中華路２８６巷１４號","OBJECTID":258190},"geometry":{"x":171610.44000000134,"y":2545307.3400000017}},{"attributes":{"ID":258195,"DIS_CODE":0,"TOWNNAME":"歸仁區","LI":"南保里","LIN":"53鄰","STREET":"大順街","SECT":" ","MAREA":" ","LANE":" ","ALLEY":" ","HOUSE_NO":"２２３號","E_COORD97":176812.47,"N_COORD97":2540597.25,"ADDRESS":"大順街２２３號","OBJECTID":258191},"geometry":{"x":176812.46999999974,"y":2540597.25}},{"attributes":{"ID":258196,"DIS_CODE":0,"TOWNNAME":"新營區","LI":"王公里","LIN":"4鄰","STREET":"民族路","SECT":" ","MAREA":" ","LANE":" ","ALLEY":" ","HOUSE_NO":"８０號之６","E_COORD97":180330.57999999999,"N_COORD97":2578973.2200000002,"ADDRESS":"民族路８０號之６","OBJECTID":258192},"geometry":{"x":180330.58000000101,"y":2578973.2200000007}},{"attributes":{"ID":258197,"DIS_CODE":0,"TOWNNAME":"新營區","LI":"新北里","LIN":"32鄰","STREET":"新北街","SECT":" ","MAREA":" ","LANE":" ","ALLEY":" ","HOUSE_NO":"２３６號","E_COORD97":178638.41,"N_COORD97":2579147.3500000001,"ADDRESS":"新北街２３６號","OBJECTID":258193},"geometry":{"x":178638.41000000108,"y":2579147.3500000015}},{"attributes":{"ID":258198,"DIS_CODE":0,"TOWNNAME":"歸仁區","LI":"南保里","LIN":"53鄰","STREET":"大順五街","SECT":" ","MAREA":" ","LANE":" ","ALLEY":" ","HOUSE_NO":"１６號","E_COORD97":176828.67000000001,"N_COORD97":2540552.25,"ADDRESS":"大順五街１６號","OBJECTID":258194},"geometry":{"x":176828.67000000179,"y":2540552.2500000019}},{"attributes":{"ID":258199,"DIS_CODE":0,"TOWNNAME":"歸仁區","LI":"南保里","LIN":"53鄰","STREET":"大順五街","SECT":" ","MAREA":" ","LANE":" ","ALLEY":" ","HOUSE_NO":"６號","E_COORD97":176843.92000000001,"N_COORD97":2540573.25,"ADDRESS":"大順五街６號","OBJECTID":258195},"geometry":{"x":176843.92000000179,"y":2540573.25}},{"attributes":{"ID":258200,"DIS_CODE":0,"TOWNNAME":"歸仁區","LI":"南保里","LIN":"53鄰","STREET":"大順五街","SECT":" ","MAREA":" ","LANE":" ","ALLEY":" ","HOUSE_NO":"１８號","E_COORD97":176824.47,"N_COORD97":2540552.25,"ADDRESS":"大順五街１８號","OBJECTID":258196},"geometry":{"x":176824.46999999974,"y":2540552.2500000019}},{"attributes":{"ID":258201,"DIS_CODE":0,"TOWNNAME":"永康區","LI":"大橋里","LIN":"27鄰","STREET":"大橋一街","SECT":" ","MAREA":" ","LANE":"２４７巷","ALLEY":" ","HOUSE_NO":"２８號","E_COORD97":171264.79000000001,"N_COORD97":2546732,"ADDRESS":"大橋一街２４７巷２８號","OBJECTID":258197},"geometry":{"x":171264.79000000097,"y":2546732}},{"attributes":{"ID":258202,"DIS_CODE":0,"TOWNNAME":"永康區","LI":"大灣里","LIN":"27鄰","STREET":"大灣六街","SECT":" ","MAREA":" ","LANE":"８０巷","ALLEY":" ","HOUSE_NO":"５０號","E_COORD97":175284.26000000001,"N_COORD97":2545304.3799999999,"ADDRESS":"大灣六街８０巷５０號","OBJECTID":258198},"geometry":{"x":175284.26000000071,"y":2545304.379999999}},{"attributes":{"ID":258203,"DIS_CODE":0,"TOWNNAME":"永康區","LI":"大橋里","LIN":"27鄰","STREET":"大橋一街","SECT":" ","MAREA":" ","LANE":"２４７巷","ALLEY":" ","HOUSE_NO":"２號","E_COORD97":171295.63,"N_COORD97":2546682.4900000002,"ADDRESS":"大橋一街２４７巷２號","OBJECTID":258199},"geometry":{"x":171295.62999999989,"y":2546682.4900000039}},{"attributes":{"ID":258204,"DIS_CODE":0,"TOWNNAME":"永康區","LI":"大橋里","LIN":"27鄰","STREET":"大橋一街","SECT":" ","MAREA":" ","LANE":"２４７巷","ALLEY":" ","HOUSE_NO":"２０號","E_COORD97":171274.67999999999,"N_COORD97":2546717,"ADDRESS":"大橋一街２４７巷２０號","OBJECTID":258200},"geometry":{"x":171274.6799999997,"y":2546717.0000000019}}]}