{"displayFieldName":"TOWNNAME","fieldAliases":{"ID":"ID","DIS_CODE":"DIS_CODE","TOWNNAME":"TOWNNAME","LI":"LI","LIN":"LIN","STREET":"STREET","SECT":"SECT","MAREA":"MAREA","LANE":"LANE","ALLEY":"ALLEY","HOUSE_NO":"HOUSE_NO","E_COORD97":"E_COORD97","N_COORD97":"N_COORD97","ADDRESS":"ADDRESS","OBJECTID":"OBJECTID"},"geometryType":"esriGeometryPoint","spatialReference":{"wkid":102443,"latestWkid":3826},"fields":[{"name":"ID","type":"esriFieldTypeDouble","alias":"ID"},{"name":"DIS_CODE","type":"esriFieldTypeInteger","alias":"DIS_CODE"},{"name":"TOWNNAME","type":"esriFieldTypeString","alias":"TOWNNAME","length":8},{"name":"LI","type":"esriFieldTypeString","alias":"LI","length":8},{"name":"LIN","type":"esriFieldTypeString","alias":"LIN","length":12},{"name":"STREET","type":"esriFieldTypeString","alias":"STREET","length":20},{"name":"SECT","type":"esriFieldTypeString","alias":"SECT","length":8},{"name":"MAREA","type":"esriFieldTypeString","alias":"MAREA","length":12},{"name":"LANE","type":"esriFieldTypeString","alias":"LANE","length":10},{"name":"ALLEY","type":"esriFieldTypeString","alias":"ALLEY","length":10},{"name":"HOUSE_NO","type":"esriFieldTypeString","alias":"HOUSE_NO","length":20},{"name":"E_COORD97","type":"esriFieldTypeDouble","alias":"E_COORD97"},{"name":"N_COORD97","type":"esriFieldTypeDouble","alias":"N_COORD97"},{"name":"ADDRESS","type":"esriFieldTypeString","alias":"ADDRESS","length":50},{"name":"OBJECTID","type":"esriFieldTypeOID","alias":"OBJECTID"}],"features":[{"attributes":{"ID":211602,"DIS_CODE":0,"TOWNNAME":"永康區","LI":"北灣里","LIN":"13鄰","STREET":"大灣路","SECT":" ","MAREA":" ","LANE":"４４巷","ALLEY":"３５弄","HOUSE_NO":"１１號","E_COORD97":175109.60999999999,"N_COORD97":2545854.23,"ADDRESS":"大灣路４４巷３５弄１１號","OBJECTID":211601},"geometry":{"x":175109.61000000127,"y":2545854.2300000042}},{"attributes":{"ID":211603,"DIS_CODE":0,"TOWNNAME":"永康區","LI":"北灣里","LIN":"13鄰","STREET":"大灣路","SECT":" ","MAREA":" ","LANE":"４４巷","ALLEY":"３５弄","HOUSE_NO":"５號","E_COORD97":175109.47,"N_COORD97":2545866.73,"ADDRESS":"大灣路４４巷３５弄５號","OBJECTID":211602},"geometry":{"x":175109.47000000067,"y":2545866.7300000004}},{"attributes":{"ID":211604,"DIS_CODE":0,"TOWNNAME":"永康區","LI":"五王里","LIN":"13鄰","STREET":"成功路","SECT":" ","MAREA":" ","LANE":"１７２巷","ALLEY":"６２弄","HOUSE_NO":"１６號","E_COORD97":171635.59,"N_COORD97":2545745.3799999999,"ADDRESS":"成功路１７２巷６２弄１６號","OBJECTID":211603},"geometry":{"x":171635.59000000078,"y":2545745.379999999}},{"attributes":{"ID":211605,"DIS_CODE":0,"TOWNNAME":"永康區","LI":"北灣里","LIN":"13鄰","STREET":"大灣路","SECT":" ","MAREA":" ","LANE":"４４巷","ALLEY":"３５弄","HOUSE_NO":"７號","E_COORD97":175109.13,"N_COORD97":2545862.48,"ADDRESS":"大灣路４４巷３５弄７號","OBJECTID":211604},"geometry":{"x":175109.13000000082,"y":2545862.4800000042}},{"attributes":{"ID":211606,"DIS_CODE":0,"TOWNNAME":"南化區","LI":"北平里","LIN":"9鄰","STREET":" ","SECT":" ","MAREA":"北平","LANE":" ","ALLEY":" ","HOUSE_NO":"１０５號","E_COORD97":193674.44,"N_COORD97":2551006.75,"ADDRESS":"北平１０５號","OBJECTID":211605},"geometry":{"x":193674.44000000134,"y":2551006.7500000037}},{"attributes":{"ID":211607,"DIS_CODE":0,"TOWNNAME":"南化區","LI":"中坑里","LIN":"9鄰","STREET":" ","SECT":" ","MAREA":"中坑","LANE":" ","ALLEY":" ","HOUSE_NO":"８３號","E_COORD97":193113.85999999999,"N_COORD97":2549748.7799999998,"ADDRESS":"中坑８３號","OBJECTID":211606},"geometry":{"x":193113.86000000127,"y":2549748.7800000012}},{"attributes":{"ID":211608,"DIS_CODE":0,"TOWNNAME":"南化區","LI":"南化里","LIN":"9鄰","STREET":" ","SECT":" ","MAREA":"南化","LANE":" ","ALLEY":" ","HOUSE_NO":"１８２號","E_COORD97":196500.44,"N_COORD97":2549080.75,"ADDRESS":"南化１８２號","OBJECTID":211607},"geometry":{"x":196500.44000000134,"y":2549080.7499999981}},{"attributes":{"ID":211609,"DIS_CODE":0,"TOWNNAME":"永康區","LI":"王行里","LIN":"13鄰","STREET":"王行路","SECT":" ","MAREA":" ","LANE":"１０１８巷","ALLEY":"４９弄","HOUSE_NO":"２號","E_COORD97":175788.60999999999,"N_COORD97":2550178.8100000001,"ADDRESS":"王行路１０１８巷４９弄２號","OBJECTID":211608},"geometry":{"x":175788.6099999994,"y":2550178.8100000005}},{"attributes":{"ID":211610,"DIS_CODE":0,"TOWNNAME":"安南區","LI":"頂安里","LIN":"13鄰","STREET":"安中路","SECT":"一段","MAREA":" ","LANE":"３５４巷","ALLEY":"３２弄","HOUSE_NO":"１號","E_COORD97":168433.09,"N_COORD97":2548812.46,"ADDRESS":"安中路一段３５４巷３２弄３號","OBJECTID":211609},"geometry":{"x":168433.09000000078,"y":2548812.459999999}},{"attributes":{"ID":211611,"DIS_CODE":0,"TOWNNAME":"安南區","LI":"頂安里","LIN":"13鄰","STREET":"安中路","SECT":"一段","MAREA":" ","LANE":"３５４巷","ALLEY":"３２弄","HOUSE_NO":"４號","E_COORD97":168453.91,"N_COORD97":2548810.4500000002,"ADDRESS":"安中路一段３５４巷３２弄４號","OBJECTID":211610},"geometry":{"x":168453.91000000108,"y":2548810.4499999993}},{"attributes":{"ID":211612,"DIS_CODE":0,"TOWNNAME":"安南區","LI":"頂安里","LIN":"13鄰","STREET":"安中路","SECT":"一段","MAREA":" ","LANE":"３５４巷","ALLEY":"３２弄","HOUSE_NO":"６號","E_COORD97":168455.92000000001,"N_COORD97":2548815.8199999998,"ADDRESS":"安中路一段３５４巷３２弄６號","OBJECTID":211611},"geometry":{"x":168455.91999999993,"y":2548815.8200000003}},{"attributes":{"ID":211613,"DIS_CODE":0,"TOWNNAME":"安南區","LI":"頂安里","LIN":"13鄰","STREET":"安中路","SECT":"一段","MAREA":" ","LANE":"３５４巷","ALLEY":"３２弄","HOUSE_NO":"８號","E_COORD97":168458.28,"N_COORD97":2548821.8500000001,"ADDRESS":"安中路一段３５４巷３２弄８號","OBJECTID":211612},"geometry":{"x":168458.28000000119,"y":2548821.8499999996}},{"attributes":{"ID":211614,"DIS_CODE":0,"TOWNNAME":"安南區","LI":"長安里","LIN":"13鄰","STREET":"公學路","SECT":"二段","MAREA":" ","LANE":"１２５巷","ALLEY":"４１弄","HOUSE_NO":"１號","E_COORD97":167750.67999999999,"N_COORD97":2552209.4199999999,"ADDRESS":"公學路二段１２５巷４１弄１號","OBJECTID":211613},"geometry":{"x":167750.68000000156,"y":2552209.4200000018}},{"attributes":{"ID":211615,"DIS_CODE":0,"TOWNNAME":"安南區","LI":"長安里","LIN":"13鄰","STREET":"公學路","SECT":"二段","MAREA":" ","LANE":"１２５巷","ALLEY":"４１弄","HOUSE_NO":"２１號","E_COORD97":167781.48999999999,"N_COORD97":2552233.1800000002,"ADDRESS":"公學路二段１２５巷４１弄２１號","OBJECTID":211614},"geometry":{"x":167781.49000000115,"y":2552233.1799999997}},{"attributes":{"ID":211616,"DIS_CODE":0,"TOWNNAME":"安南區","LI":"長安里","LIN":"13鄰","STREET":"公學路","SECT":"二段","MAREA":" ","LANE":"１２５巷","ALLEY":"４１弄","HOUSE_NO":"３號","E_COORD97":167771.73000000001,"N_COORD97":2552211.27,"ADDRESS":"公學路二段１２５巷４１弄３號","OBJECTID":211615},"geometry":{"x":167771.73000000138,"y":2552211.2700000014}},{"attributes":{"ID":211617,"DIS_CODE":0,"TOWNNAME":"安南區","LI":"長安里","LIN":"13鄰","STREET":"公學路","SECT":"二段","MAREA":" ","LANE":"１２５巷","ALLEY":"４１弄","HOUSE_NO":"６５號","E_COORD97":167796.48000000001,"N_COORD97":2552286.96,"ADDRESS":"公學路二段１２５巷４１弄６５號","OBJECTID":211616},"geometry":{"x":167796.48000000045,"y":2552286.9600000009}},{"attributes":{"ID":211618,"DIS_CODE":0,"TOWNNAME":"安南區","LI":"長安里","LIN":"13鄰","STREET":"公學路","SECT":"二段","MAREA":" ","LANE":"１２５巷","ALLEY":"４１弄","HOUSE_NO":"６７號","E_COORD97":167812,"N_COORD97":2552297.54,"ADDRESS":"公學路二段１２５巷４１弄６７號","OBJECTID":211617},"geometry":{"x":167812.00000000093,"y":2552297.5399999991}},{"attributes":{"ID":211619,"DIS_CODE":0,"TOWNNAME":"永康區","LI":"龍潭里","LIN":"13鄰","STREET":"龍橋街","SECT":" ","MAREA":" ","LANE":"５３巷","ALLEY":"３６弄","HOUSE_NO":"２號","E_COORD97":174736.26999999999,"N_COORD97":2548330.54,"ADDRESS":"龍橋街５３巷３６弄２號","OBJECTID":211618},"geometry":{"x":174736.27000000048,"y":2548330.5399999991}},{"attributes":{"ID":211620,"DIS_CODE":0,"TOWNNAME":"永康區","LI":"尚頂里","LIN":"13鄰","STREET":"正南一街","SECT":" ","MAREA":" ","LANE":"１０７巷","ALLEY":"１３弄","HOUSE_NO":"１３號","E_COORD97":170971.39000000001,"N_COORD97":2547127.4900000002,"ADDRESS":"正南一街１０７巷１３弄１３號","OBJECTID":211619},"geometry":{"x":170971.38999999966,"y":2547127.4900000021}},{"attributes":{"ID":211621,"DIS_CODE":0,"TOWNNAME":"南化區","LI":"北寮里","LIN":"9鄰","STREET":" ","SECT":" ","MAREA":"北寮","LANE":" ","ALLEY":" ","HOUSE_NO":"１４０號","E_COORD97":198041.73999999999,"N_COORD97":2553202.75,"ADDRESS":"北寮１４０號","OBJECTID":211620},"geometry":{"x":198041.74000000022,"y":2553202.75}},{"attributes":{"ID":211622,"DIS_CODE":0,"TOWNNAME":"關廟區","LI":"五甲里","LIN":"15鄰","STREET":"東興二街","SECT":" ","MAREA":" ","LANE":" ","ALLEY":" ","HOUSE_NO":"９５號","E_COORD97":181328.57000000001,"N_COORD97":2539424.25,"ADDRESS":"東興二街９５號","OBJECTID":211621},"geometry":{"x":181328.5700000003,"y":2539424.25}},{"attributes":{"ID":211623,"DIS_CODE":0,"TOWNNAME":"永康區","LI":"永康里","LIN":"13鄰","STREET":"永康街","SECT":" ","MAREA":" ","LANE":"１３６巷","ALLEY":"１３弄","HOUSE_NO":"２６號","E_COORD97":173967.60000000001,"N_COORD97":2546997.3700000001,"ADDRESS":"永康街１３６巷１３弄２６號","OBJECTID":211622},"geometry":{"x":173967.60000000056,"y":2546997.3700000029}},{"attributes":{"ID":211624,"DIS_CODE":0,"TOWNNAME":"後壁區","LI":"新東里","LIN":"2鄰","STREET":" ","SECT":" ","MAREA":"新港東","LANE":" ","ALLEY":" ","HOUSE_NO":"１８號","E_COORD97":181370.01999999999,"N_COORD97":2581970.3100000001,"ADDRESS":"新港東１８號","OBJECTID":211623},"geometry":{"x":181370.01999999955,"y":2581970.3100000005}},{"attributes":{"ID":211625,"DIS_CODE":0,"TOWNNAME":"後壁區","LI":"新東里","LIN":"2鄰","STREET":" ","SECT":" ","MAREA":"新港東","LANE":" ","ALLEY":" ","HOUSE_NO":"１９號","E_COORD97":181361,"N_COORD97":2581943.29,"ADDRESS":"新港東１９號","OBJECTID":211624},"geometry":{"x":181361,"y":2581943.290000001}},{"attributes":{"ID":211626,"DIS_CODE":0,"TOWNNAME":"永康區","LI":"正強里","LIN":"13鄰","STREET":"正強街","SECT":" ","MAREA":" ","LANE":"１１１巷","ALLEY":"１６弄","HOUSE_NO":"１０號","E_COORD97":173284.04000000001,"N_COORD97":2547432.7400000002,"ADDRESS":"正強街１１１巷１６弄１０號","OBJECTID":211625},"geometry":{"x":173284.04000000097,"y":2547432.7400000002}},{"attributes":{"ID":211627,"DIS_CODE":0,"TOWNNAME":"後壁區","LI":"新東里","LIN":"2鄰","STREET":" ","SECT":" ","MAREA":"新港東","LANE":" ","ALLEY":" ","HOUSE_NO":"２０號之１２","E_COORD97":180879.07000000001,"N_COORD97":2581391.8599999999,"ADDRESS":"新港東２０號之１２","OBJECTID":211626},"geometry":{"x":180879.0700000003,"y":2581391.8599999994}},{"attributes":{"ID":211628,"DIS_CODE":0,"TOWNNAME":"永康區","LI":"正強里","LIN":"13鄰","STREET":"正強街","SECT":" ","MAREA":" ","LANE":"１１１巷","ALLEY":"１６弄","HOUSE_NO":"５號","E_COORD97":173262.04000000001,"N_COORD97":2547421.3700000001,"ADDRESS":"正強街１１１巷１６弄５號","OBJECTID":211627},"geometry":{"x":173262.04000000097,"y":2547421.3700000029}},{"attributes":{"ID":211629,"DIS_CODE":0,"TOWNNAME":"後壁區","LI":"新東里","LIN":"2鄰","STREET":" ","SECT":" ","MAREA":"新港東","LANE":" ","ALLEY":" ","HOUSE_NO":"２０號之１５","E_COORD97":181001.45999999999,"N_COORD97":2581378,"ADDRESS":"新港東２０號之１５","OBJECTID":211628},"geometry":{"x":181001.45999999996,"y":2581378}},{"attributes":{"ID":211630,"DIS_CODE":0,"TOWNNAME":"後壁區","LI":"新東里","LIN":"2鄰","STREET":" ","SECT":" ","MAREA":"新港東","LANE":" ","ALLEY":" ","HOUSE_NO":"２０號之９","E_COORD97":181140.60000000001,"N_COORD97":2581397.1299999999,"ADDRESS":"新港東２０號之９","OBJECTID":211629},"geometry":{"x":181140.59999999963,"y":2581397.129999999}},{"attributes":{"ID":211631,"DIS_CODE":0,"TOWNNAME":"永康區","LI":"永康里","LIN":"13鄰","STREET":"永康街","SECT":" ","MAREA":" ","LANE":"１３６巷","ALLEY":"１３弄","HOUSE_NO":"３２號","E_COORD97":173978.45000000001,"N_COORD97":2546992.1200000001,"ADDRESS":"永康街１３６巷１３弄３２號","OBJECTID":211630},"geometry":{"x":173978.45000000019,"y":2546992.1200000029}},{"attributes":{"ID":211632,"DIS_CODE":0,"TOWNNAME":"永康區","LI":"北灣里","LIN":"13鄰","STREET":"大灣路","SECT":" ","MAREA":" ","LANE":"４４巷","ALLEY":"３５弄","HOUSE_NO":"３號","E_COORD97":175109.67000000001,"N_COORD97":2545870.73,"ADDRESS":"大灣路４４巷３５弄３號","OBJECTID":211631},"geometry":{"x":175109.66999999899,"y":2545870.7299999986}},{"attributes":{"ID":211633,"DIS_CODE":0,"TOWNNAME":"永康區","LI":"正強里","LIN":"13鄰","STREET":"自強路","SECT":" ","MAREA":" ","LANE":"１８８巷","ALLEY":"２３弄","HOUSE_NO":"５號","E_COORD97":173243.32999999999,"N_COORD97":2547431.4900000002,"ADDRESS":"自強路１８８巷２３弄５號","OBJECTID":211632},"geometry":{"x":173243.33000000007,"y":2547431.4900000002}},{"attributes":{"ID":211634,"DIS_CODE":0,"TOWNNAME":"永康區","LI":"尚頂里","LIN":"13鄰","STREET":"正南一街","SECT":" ","MAREA":" ","LANE":"１０７巷","ALLEY":"１３弄","HOUSE_NO":"１９號","E_COORD97":170989.76999999999,"N_COORD97":2547111.9900000002,"ADDRESS":"正南一街１０７巷１３弄１９號","OBJECTID":211633},"geometry":{"x":170989.77000000048,"y":2547111.9900000002}},{"attributes":{"ID":211635,"DIS_CODE":0,"TOWNNAME":"安南區","LI":"長安里","LIN":"13鄰","STREET":"公學路","SECT":"二段","MAREA":" ","LANE":"１２３巷","ALLEY":"４６弄","HOUSE_NO":"１號","E_COORD97":167766.45999999999,"N_COORD97":2552293.04,"ADDRESS":"公學路二段１２３巷４６弄１號","OBJECTID":211634},"geometry":{"x":167766.46000000089,"y":2552293.040000001}},{"attributes":{"ID":211636,"DIS_CODE":0,"TOWNNAME":"安南區","LI":"長安里","LIN":"13鄰","STREET":"公學路","SECT":"二段","MAREA":" ","LANE":"１２３巷","ALLEY":"４６弄","HOUSE_NO":"２７號","E_COORD97":167797.95999999999,"N_COORD97":2552242.0800000001,"ADDRESS":"公學路二段１２３巷４６弄２７號","OBJECTID":211635},"geometry":{"x":167797.95999999996,"y":2552242.0800000038}},{"attributes":{"ID":211637,"DIS_CODE":0,"TOWNNAME":"安南區","LI":"長安里","LIN":"13鄰","STREET":"公學路","SECT":"二段","MAREA":" ","LANE":"１２３巷","ALLEY":"４６弄","HOUSE_NO":"２９號","E_COORD97":167800.37,"N_COORD97":2552238.5699999998,"ADDRESS":"公學路二段１２３巷４６弄２９號","OBJECTID":211636},"geometry":{"x":167800.37000000011,"y":2552238.5700000003}},{"attributes":{"ID":211638,"DIS_CODE":0,"TOWNNAME":"安南區","LI":"長安里","LIN":"13鄰","STREET":"公學路","SECT":"二段","MAREA":" ","LANE":"１２３巷","ALLEY":"４６弄","HOUSE_NO":"３１號","E_COORD97":167808.20999999999,"N_COORD97":2552226.1200000001,"ADDRESS":"公學路二段１２３巷４６弄３１號","OBJECTID":211637},"geometry":{"x":167808.20999999996,"y":2552226.1200000048}},{"attributes":{"ID":211639,"DIS_CODE":0,"TOWNNAME":"安南區","LI":"長安里","LIN":"13鄰","STREET":"公學路","SECT":"二段","MAREA":" ","LANE":"１２３巷","ALLEY":"４６弄","HOUSE_NO":"３３號","E_COORD97":167810.92000000001,"N_COORD97":2552222.0299999998,"ADDRESS":"公學路二段１２３巷４６弄３３號","OBJECTID":211638},"geometry":{"x":167810.92000000086,"y":2552222.0300000012}},{"attributes":{"ID":211640,"DIS_CODE":0,"TOWNNAME":"安南區","LI":"長安里","LIN":"13鄰","STREET":"公學路","SECT":"二段","MAREA":" ","LANE":"１２３巷","ALLEY":"４６弄","HOUSE_NO":"３５號","E_COORD97":167813.10999999999,"N_COORD97":2552218.3100000001,"ADDRESS":"公學路二段１２３巷４６弄３５號","OBJECTID":211639},"geometry":{"x":167813.11000000127,"y":2552218.3100000024}},{"attributes":{"ID":211641,"DIS_CODE":0,"TOWNNAME":"安南區","LI":"長安里","LIN":"13鄰","STREET":"公學路","SECT":"二段","MAREA":" ","LANE":"１２３巷","ALLEY":"４６弄","HOUSE_NO":"３７號","E_COORD97":167815.45999999999,"N_COORD97":2552215.1499999999,"ADDRESS":"公學路二段１２３巷４６弄３７號","OBJECTID":211640},"geometry":{"x":167815.46000000089,"y":2552215.1500000022}},{"attributes":{"ID":211642,"DIS_CODE":0,"TOWNNAME":"安南區","LI":"長安里","LIN":"13鄰","STREET":"公學路","SECT":"二段","MAREA":" ","LANE":"１２３巷","ALLEY":"４６弄","HOUSE_NO":"３９號","E_COORD97":167817.51000000001,"N_COORD97":2552211.4900000002,"ADDRESS":"公學路二段１２３巷４６弄３９號","OBJECTID":211641},"geometry":{"x":167817.50999999978,"y":2552211.4900000002}},{"attributes":{"ID":211643,"DIS_CODE":0,"TOWNNAME":"安南區","LI":"長安里","LIN":"13鄰","STREET":"公學路","SECT":"二段","MAREA":" ","LANE":"１２３巷","ALLEY":"４６弄","HOUSE_NO":"３號","E_COORD97":167769.63,"N_COORD97":2552295.9900000002,"ADDRESS":"公學路二段１２３巷４６弄３號","OBJECTID":211642},"geometry":{"x":167769.62999999989,"y":2552295.9900000002}},{"attributes":{"ID":211644,"DIS_CODE":0,"TOWNNAME":"安南區","LI":"長安里","LIN":"13鄰","STREET":"公學路","SECT":"二段","MAREA":" ","LANE":"１２３巷","ALLEY":"４６弄","HOUSE_NO":"４１號","E_COORD97":167819.85000000001,"N_COORD97":2552208.3500000001,"ADDRESS":"公學路二段１２３巷４６弄４１號","OBJECTID":211643},"geometry":{"x":167819.84999999963,"y":2552208.3499999996}},{"attributes":{"ID":211645,"DIS_CODE":0,"TOWNNAME":"安南區","LI":"長安里","LIN":"13鄰","STREET":"公學路","SECT":"二段","MAREA":" ","LANE":"１２３巷","ALLEY":"４６弄","HOUSE_NO":"５號","E_COORD97":167773.39999999999,"N_COORD97":2552297.6299999999,"ADDRESS":"公學路二段１２３巷４６弄５號","OBJECTID":211644},"geometry":{"x":167773.40000000037,"y":2552297.629999999}},{"attributes":{"ID":211646,"DIS_CODE":0,"TOWNNAME":"永康區","LI":"東橋里","LIN":" ","STREET":"自強路","SECT":" ","MAREA":" ","LANE":"２２巷","ALLEY":" ","HOUSE_NO":"１１號","E_COORD97":172763.07999999999,"N_COORD97":2547109.9900000002,"ADDRESS":"自強路２２巷１１號","OBJECTID":211645},"geometry":{"x":172763.08000000101,"y":2547109.9900000039}},{"attributes":{"ID":211647,"DIS_CODE":0,"TOWNNAME":"關廟區","LI":"松腳里","LIN":"15鄰","STREET":"和平路","SECT":" ","MAREA":" ","LANE":" ","ALLEY":" ","HOUSE_NO":"１５１號","E_COORD97":181677.04000000001,"N_COORD97":2539680.25,"ADDRESS":"和平路１５１號","OBJECTID":211646},"geometry":{"x":181677.04000000097,"y":2539680.2500000019}},{"attributes":{"ID":211648,"DIS_CODE":0,"TOWNNAME":"關廟區","LI":"五甲里","LIN":"15鄰","STREET":"東興一街","SECT":" ","MAREA":" ","LANE":" ","ALLEY":" ","HOUSE_NO":"９０號","E_COORD97":181280.17000000001,"N_COORD97":2539435.25,"ADDRESS":"東興一街９０號","OBJECTID":211647},"geometry":{"x":181280.16999999899,"y":2539435.2500000037}},{"attributes":{"ID":211649,"DIS_CODE":0,"TOWNNAME":"關廟區","LI":"松腳里","LIN":"15鄰","STREET":"民權街","SECT":" ","MAREA":" ","LANE":" ","ALLEY":" ","HOUSE_NO":"４３號","E_COORD97":181587.84,"N_COORD97":2539708.29,"ADDRESS":"民權街４３號","OBJECTID":211648},"geometry":{"x":181587.84000000078,"y":2539708.2899999991}},{"attributes":{"ID":211650,"DIS_CODE":0,"TOWNNAME":"關廟區","LI":"香洋里","LIN":"15鄰","STREET":"中央路","SECT":" ","MAREA":" ","LANE":" ","ALLEY":" ","HOUSE_NO":"１４６號","E_COORD97":181408.26000000001,"N_COORD97":2540053.3199999998,"ADDRESS":"中央路１４６號","OBJECTID":211649},"geometry":{"x":181408.25999999885,"y":2540053.3200000022}},{"attributes":{"ID":211651,"DIS_CODE":0,"TOWNNAME":"新營區","LI":"新東里","LIN":"9鄰","STREET":"東泰二街","SECT":" ","MAREA":" ","LANE":" ","ALLEY":" ","HOUSE_NO":"２１號","E_COORD97":181208.35999999999,"N_COORD97":2579552.6899999999,"ADDRESS":"東泰二街２１號","OBJECTID":211650},"geometry":{"x":181208.3600000022,"y":2579552.6899999995}},{"attributes":{"ID":211652,"DIS_CODE":0,"TOWNNAME":"安南區","LI":"長安里","LIN":"13鄰","STREET":"公學路","SECT":"二段","MAREA":" ","LANE":"１２３巷","ALLEY":"４６弄","HOUSE_NO":"７號","E_COORD97":167776.63,"N_COORD97":2552300.5499999998,"ADDRESS":"公學路二段１２３巷４６弄７號","OBJECTID":211651},"geometry":{"x":167776.63000000175,"y":2552300.5500000045}},{"attributes":{"ID":211653,"DIS_CODE":0,"TOWNNAME":"新營區","LI":"新東里","LIN":"9鄰","STREET":"東泰二街","SECT":" ","MAREA":" ","LANE":" ","ALLEY":" ","HOUSE_NO":"３１號","E_COORD97":181230.87,"N_COORD97":2579550.3700000001,"ADDRESS":"東泰二街３１號","OBJECTID":211652},"geometry":{"x":181230.87000000011,"y":2579550.3699999992}},{"attributes":{"ID":211654,"DIS_CODE":0,"TOWNNAME":"新營區","LI":"永生里","LIN":"9鄰","STREET":"康樂街","SECT":" ","MAREA":" ","LANE":" ","ALLEY":" ","HOUSE_NO":"１號","E_COORD97":180106.01000000001,"N_COORD97":2577925.46,"ADDRESS":"康樂街１號","OBJECTID":211653},"geometry":{"x":180106.00999999978,"y":2577925.4600000009}},{"attributes":{"ID":211655,"DIS_CODE":0,"TOWNNAME":"下營區","LI":"宅內里","LIN":"13鄰","STREET":"人和三街","SECT":" ","MAREA":" ","LANE":"７１巷","ALLEY":"４７弄","HOUSE_NO":"１號","E_COORD97":174274.26999999999,"N_COORD97":2570559.96,"ADDRESS":"人和三街７１巷４７弄１號","OBJECTID":211654},"geometry":{"x":174274.26999999955,"y":2570559.9600000028}},{"attributes":{"ID":211656,"DIS_CODE":0,"TOWNNAME":"下營區","LI":"宅內里","LIN":"13鄰","STREET":"人和三街","SECT":" ","MAREA":" ","LANE":"７１巷","ALLEY":"４７弄","HOUSE_NO":"３號","E_COORD97":174279.62,"N_COORD97":2570561.1699999999,"ADDRESS":"人和三街７１巷４７弄３號","OBJECTID":211655},"geometry":{"x":174279.61999999918,"y":2570561.1700000018}},{"attributes":{"ID":211657,"DIS_CODE":0,"TOWNNAME":"安平區","LI":"文平里","LIN":"24鄰","STREET":"建平二街","SECT":" ","MAREA":" ","LANE":" ","ALLEY":" ","HOUSE_NO":"３０號","E_COORD97":166258.45000000001,"N_COORD97":2542818.7400000002,"ADDRESS":"建平二街３０號","OBJECTID":211656},"geometry":{"x":166258.45000000019,"y":2542818.7400000002}},{"attributes":{"ID":211658,"DIS_CODE":0,"TOWNNAME":"下營區","LI":"宅內里","LIN":"13鄰","STREET":"人和三街","SECT":" ","MAREA":" ","LANE":"７１巷","ALLEY":"４７弄","HOUSE_NO":"５號","E_COORD97":174297.70000000001,"N_COORD97":2570560.0800000001,"ADDRESS":"人和三街７１巷４７弄５號","OBJECTID":211657},"geometry":{"x":174297.70000000019,"y":2570560.0799999982}},{"attributes":{"ID":211659,"DIS_CODE":0,"TOWNNAME":"新市區","LI":"新市里","LIN":"13鄰","STREET":"中正路","SECT":" ","MAREA":" ","LANE":"３０１巷","ALLEY":"１５弄","HOUSE_NO":"２號","E_COORD97":177560.85000000001,"N_COORD97":2553295.25,"ADDRESS":"中正路３０１巷１５弄２號","OBJECTID":211658},"geometry":{"x":177560.84999999963,"y":2553295.2500000037}},{"attributes":{"ID":211660,"DIS_CODE":0,"TOWNNAME":"安南區","LI":"城南里","LIN":"13鄰","STREET":"城西街","SECT":"二段","MAREA":" ","LANE":"２９１巷","ALLEY":"３５弄","HOUSE_NO":"６號","E_COORD97":159612.54000000001,"N_COORD97":2550838.2599999998,"ADDRESS":"城西街二段２９１巷３５弄６號","OBJECTID":211659},"geometry":{"x":159612.54000000004,"y":2550838.2600000016}},{"attributes":{"ID":211661,"DIS_CODE":0,"TOWNNAME":"安南區","LI":"城南里","LIN":"13鄰","STREET":"城西街","SECT":"二段","MAREA":" ","LANE":"２９１巷","ALLEY":"３５弄","HOUSE_NO":"８號","E_COORD97":159614.54000000001,"N_COORD97":2550834.02,"ADDRESS":"城西街二段２９１巷３５弄８號","OBJECTID":211660},"geometry":{"x":159614.54000000004,"y":2550834.0199999996}},{"attributes":{"ID":211662,"DIS_CODE":0,"TOWNNAME":"安南區","LI":"城南里","LIN":"13鄰","STREET":"城西街","SECT":"二段","MAREA":" ","LANE":"２９１巷","ALLEY":"３５弄","HOUSE_NO":"１０號","E_COORD97":159614.29000000001,"N_COORD97":2550828.52,"ADDRESS":"城西街二段２９１巷３５弄１０號","OBJECTID":211661},"geometry":{"x":159614.29000000004,"y":2550828.5200000014}},{"attributes":{"ID":211663,"DIS_CODE":0,"TOWNNAME":"安南區","LI":"城南里","LIN":"13鄰","STREET":"城西街","SECT":"二段","MAREA":" ","LANE":"２９１巷","ALLEY":"３５弄","HOUSE_NO":"１２號","E_COORD97":159613.79000000001,"N_COORD97":2550823.0299999998,"ADDRESS":"城西街二段２９１巷３５弄１２號","OBJECTID":211662},"geometry":{"x":159613.79000000097,"y":2550823.0299999993}},{"attributes":{"ID":211664,"DIS_CODE":0,"TOWNNAME":"安南區","LI":"城南里","LIN":"13鄰","STREET":"城西街","SECT":"二段","MAREA":" ","LANE":"２９１巷","ALLEY":"３５弄","HOUSE_NO":"２號","E_COORD97":159613.79000000001,"N_COORD97":2550843.0099999998,"ADDRESS":"城西街二段２９１巷３５弄２號","OBJECTID":211663},"geometry":{"x":159613.79000000097,"y":2550843.0100000016}},{"attributes":{"ID":211665,"DIS_CODE":0,"TOWNNAME":"安南區","LI":"城南里","LIN":"13鄰","STREET":"城西街","SECT":"二段","MAREA":" ","LANE":"２９１巷","ALLEY":"３５弄","HOUSE_NO":"１６號","E_COORD97":159614.79000000001,"N_COORD97":2550818.52,"ADDRESS":"城西街二段２９１巷３５弄１６號","OBJECTID":211664},"geometry":{"x":159614.79000000004,"y":2550818.5200000014}},{"attributes":{"ID":211666,"DIS_CODE":0,"TOWNNAME":"安南區","LI":"城南里","LIN":"13鄰","STREET":"城西街","SECT":"二段","MAREA":" ","LANE":"２９１巷","ALLEY":"３５弄","HOUSE_NO":"１８號","E_COORD97":159614.54000000001,"N_COORD97":2550813.7799999998,"ADDRESS":"城西街二段２９１巷３５弄１８號","OBJECTID":211665},"geometry":{"x":159614.54000000004,"y":2550813.7800000012}},{"attributes":{"ID":211667,"DIS_CODE":0,"TOWNNAME":"安南區","LI":"城南里","LIN":"13鄰","STREET":"城西街","SECT":"二段","MAREA":" ","LANE":"２９１巷","ALLEY":"３５弄","HOUSE_NO":"２０號","E_COORD97":159614.29000000001,"N_COORD97":2550808.7799999998,"ADDRESS":"城西街二段２９１巷３５弄２０號","OBJECTID":211666},"geometry":{"x":159614.29000000004,"y":2550808.7799999993}},{"attributes":{"ID":211668,"DIS_CODE":0,"TOWNNAME":"新營區","LI":"五興里","LIN":"9鄰","STREET":" ","SECT":" ","MAREA":"五間厝","LANE":" ","ALLEY":" ","HOUSE_NO":"１０１之１１號","E_COORD97":175622.85000000001,"N_COORD97":2574891.8900000001,"ADDRESS":"五間厝１０１之１１號","OBJECTID":211667},"geometry":{"x":175622.84999999963,"y":2574891.8900000043}},{"attributes":{"ID":211669,"DIS_CODE":0,"TOWNNAME":"新營區","LI":"姑爺里","LIN":"9鄰","STREET":" ","SECT":" ","MAREA":"挖仔","LANE":" ","ALLEY":" ","HOUSE_NO":"２７號","E_COORD97":173839.20000000001,"N_COORD97":2575384.8199999998,"ADDRESS":"挖仔２７號","OBJECTID":211668},"geometry":{"x":173839.20000000112,"y":2575384.8200000022}},{"attributes":{"ID":211670,"DIS_CODE":0,"TOWNNAME":"安南區","LI":"城南里","LIN":"13鄰","STREET":"城西街","SECT":"二段","MAREA":" ","LANE":"２９１巷","ALLEY":"３５弄","HOUSE_NO":"２２號","E_COORD97":159613.54000000001,"N_COORD97":2550805.04,"ADDRESS":"城西街二段２９１巷３５弄２２號","OBJECTID":211669},"geometry":{"x":159613.54000000097,"y":2550805.040000001}},{"attributes":{"ID":211671,"DIS_CODE":0,"TOWNNAME":"永康區","LI":"南灣里","LIN":" ","STREET":"立興街","SECT":" ","MAREA":" ","LANE":" ","ALLEY":" ","HOUSE_NO":"７７號","E_COORD97":174585.45000000001,"N_COORD97":2544761.4300000002,"ADDRESS":"立興街７７號","OBJECTID":211670},"geometry":{"x":174585.45000000019,"y":2544761.4300000016}},{"attributes":{"ID":211672,"DIS_CODE":0,"TOWNNAME":"新營區","LI":"姑爺里","LIN":"9鄰","STREET":" ","SECT":" ","MAREA":"挖仔","LANE":" ","ALLEY":" ","HOUSE_NO":"２６號","E_COORD97":173822.85999999999,"N_COORD97":2575391.5499999998,"ADDRESS":"挖仔２６號","OBJECTID":211671},"geometry":{"x":173822.86000000127,"y":2575391.5500000007}},{"attributes":{"ID":211673,"DIS_CODE":0,"TOWNNAME":"新營區","LI":"姑爺里","LIN":"9鄰","STREET":" ","SECT":" ","MAREA":"挖仔","LANE":" ","ALLEY":" ","HOUSE_NO":"２３號","E_COORD97":173809.76999999999,"N_COORD97":2575431.4900000002,"ADDRESS":"挖仔２３號","OBJECTID":211672},"geometry":{"x":173809.76999999955,"y":2575431.4900000002}},{"attributes":{"ID":211674,"DIS_CODE":0,"TOWNNAME":"新營區","LI":"姑爺里","LIN":"9鄰","STREET":" ","SECT":" ","MAREA":"挖仔","LANE":" ","ALLEY":" ","HOUSE_NO":"２２號","E_COORD97":173834.23000000001,"N_COORD97":2575414.7599999998,"ADDRESS":"挖仔２２號","OBJECTID":211673},"geometry":{"x":173834.23000000138,"y":2575414.7600000016}},{"attributes":{"ID":211675,"DIS_CODE":0,"TOWNNAME":"新營區","LI":"姑爺里","LIN":"9鄰","STREET":" ","SECT":" ","MAREA":"挖仔","LANE":" ","ALLEY":" ","HOUSE_NO":"２０號","E_COORD97":173800.64000000001,"N_COORD97":2575447.04,"ADDRESS":"挖仔２０號","OBJECTID":211674},"geometry":{"x":173800.63999999966,"y":2575447.0399999991}},{"attributes":{"ID":211676,"DIS_CODE":0,"TOWNNAME":"新營區","LI":"姑爺里","LIN":"9鄰","STREET":" ","SECT":" ","MAREA":"挖仔","LANE":" ","ALLEY":" ","HOUSE_NO":"２４號","E_COORD97":173784.14999999999,"N_COORD97":2575422.7599999998,"ADDRESS":"挖仔２４號","OBJECTID":211675},"geometry":{"x":173784.15000000037,"y":2575422.7599999998}},{"attributes":{"ID":211677,"DIS_CODE":0,"TOWNNAME":"後壁區","LI":"新東里","LIN":"2鄰","STREET":" ","SECT":" ","MAREA":"新港東","LANE":" ","ALLEY":" ","HOUSE_NO":"２０號","E_COORD97":181358.04999999999,"N_COORD97":2581924.3399999999,"ADDRESS":"新港東２０號","OBJECTID":211676},"geometry":{"x":181358.05000000075,"y":2581924.3400000017}},{"attributes":{"ID":211678,"DIS_CODE":0,"TOWNNAME":"後壁區","LI":"新東里","LIN":"2鄰","STREET":" ","SECT":" ","MAREA":"新港東","LANE":" ","ALLEY":" ","HOUSE_NO":"２３號之１２","E_COORD97":181172.73999999999,"N_COORD97":2581863.3799999999,"ADDRESS":"新港東２３號之１２","OBJECTID":211677},"geometry":{"x":181172.74000000022,"y":2581863.379999999}},{"attributes":{"ID":211679,"DIS_CODE":0,"TOWNNAME":"新化區","LI":"豐榮里","LIN":"9鄰","STREET":"大智路","SECT":" ","MAREA":" ","LANE":" ","ALLEY":" ","HOUSE_NO":"４１號","E_COORD97":178318.38,"N_COORD97":2548361.25,"ADDRESS":"大智路４１號","OBJECTID":211678},"geometry":{"x":178318.37999999989,"y":2548361.25}},{"attributes":{"ID":211680,"DIS_CODE":0,"TOWNNAME":"永康區","LI":"王行里","LIN":" ","STREET":"育樂街","SECT":" ","MAREA":" ","LANE":" ","ALLEY":" ","HOUSE_NO":"１３７號","E_COORD97":175126.76000000001,"N_COORD97":2548341.5499999998,"ADDRESS":"育樂街１３７號","OBJECTID":211679},"geometry":{"x":175126.76000000071,"y":2548341.5500000026}},{"attributes":{"ID":211681,"DIS_CODE":0,"TOWNNAME":"安南區","LI":"城南里","LIN":"13鄰","STREET":"城西街","SECT":"二段","MAREA":" ","LANE":"２９１巷","ALLEY":"３５弄","HOUSE_NO":"２６號","E_COORD97":159610.54000000001,"N_COORD97":2550860.4900000002,"ADDRESS":"城西街二段２９１巷３５弄２６號","OBJECTID":211680},"geometry":{"x":159610.54000000097,"y":2550860.4900000021}},{"attributes":{"ID":211682,"DIS_CODE":0,"TOWNNAME":"安南區","LI":"城南里","LIN":"13鄰","STREET":"城西街","SECT":"二段","MAREA":" ","LANE":"２９１巷","ALLEY":"３５弄","HOUSE_NO":"２８號","E_COORD97":159614.54000000001,"N_COORD97":2550857.7400000002,"ADDRESS":"城西街二段２９１巷３５弄２８號","OBJECTID":211681},"geometry":{"x":159614.54000000004,"y":2550857.7400000039}},{"attributes":{"ID":211683,"DIS_CODE":0,"TOWNNAME":"安南區","LI":"城南里","LIN":"13鄰","STREET":"城西街","SECT":"二段","MAREA":" ","LANE":"２９１巷","ALLEY":"３５弄","HOUSE_NO":"３０號","E_COORD97":159619.04000000001,"N_COORD97":2550856.2400000002,"ADDRESS":"城西街二段２９１巷３５弄３０號","OBJECTID":211682},"geometry":{"x":159619.04000000097,"y":2550856.2400000002}},{"attributes":{"ID":211684,"DIS_CODE":0,"TOWNNAME":"安南區","LI":"城南里","LIN":"13鄰","STREET":"城西街","SECT":"二段","MAREA":" ","LANE":"２９１巷","ALLEY":"３５弄","HOUSE_NO":"３２號","E_COORD97":159623.54000000001,"N_COORD97":2550857.7400000002,"ADDRESS":"城西街二段２９１巷３５弄３２號","OBJECTID":211683},"geometry":{"x":159623.5400000019,"y":2550857.7400000039}},{"attributes":{"ID":211685,"DIS_CODE":0,"TOWNNAME":"安南區","LI":"城南里","LIN":"13鄰","STREET":"城西街","SECT":"二段","MAREA":" ","LANE":"２９１巷","ALLEY":"３５弄","HOUSE_NO":"３６號","E_COORD97":159627.98000000001,"N_COORD97":2550860.3100000001,"ADDRESS":"城西街二段２９１巷３５弄３６號","OBJECTID":211684},"geometry":{"x":159627.98000000138,"y":2550860.3100000005}},{"attributes":{"ID":211686,"DIS_CODE":0,"TOWNNAME":"安南區","LI":"城南里","LIN":"13鄰","STREET":"城西街","SECT":"二段","MAREA":" ","LANE":"２９１巷","ALLEY":"３５弄","HOUSE_NO":"３８號","E_COORD97":159632.56,"N_COORD97":2550857.5699999998,"ADDRESS":"城西街二段２９１巷３５弄３８號","OBJECTID":211685},"geometry":{"x":159632.55999999959,"y":2550857.5700000003}},{"attributes":{"ID":211687,"DIS_CODE":0,"TOWNNAME":"安南區","LI":"城南里","LIN":"13鄰","STREET":"城西街","SECT":"二段","MAREA":" ","LANE":"２６３巷","ALLEY":"７０弄","HOUSE_NO":"１５號","E_COORD97":159629.20000000001,"N_COORD97":2550843.96,"ADDRESS":"城西街二段２６３巷７０弄１５號","OBJECTID":211686},"geometry":{"x":159629.20000000019,"y":2550843.9600000028}},{"attributes":{"ID":211688,"DIS_CODE":0,"TOWNNAME":"安南區","LI":"城南里","LIN":"13鄰","STREET":"城西街","SECT":"二段","MAREA":" ","LANE":"２６３巷","ALLEY":"７０弄","HOUSE_NO":"３號","E_COORD97":159628.59,"N_COORD97":2550814.4300000002,"ADDRESS":"城西街二段２６３巷７０弄３號","OBJECTID":211687},"geometry":{"x":159628.59000000078,"y":2550814.4299999997}},{"attributes":{"ID":211689,"DIS_CODE":0,"TOWNNAME":"永康區","LI":"大灣里","LIN":" ","STREET":"大灣路","SECT":" ","MAREA":" ","LANE":" ","ALLEY":" ","HOUSE_NO":"２５５號","E_COORD97":174918.64999999999,"N_COORD97":2545209.6899999999,"ADDRESS":"大灣路２５５號","OBJECTID":211688},"geometry":{"x":174918.65000000037,"y":2545209.6900000013}},{"attributes":{"ID":211690,"DIS_CODE":0,"TOWNNAME":"永康區","LI":"大橋里","LIN":" ","STREET":"大橋二街","SECT":" ","MAREA":" ","LANE":" ","ALLEY":" ","HOUSE_NO":"１３５之１號","E_COORD97":170855.16,"N_COORD97":2546634.8100000001,"ADDRESS":"大橋二街１３５之１號","OBJECTID":211689},"geometry":{"x":170855.16000000201,"y":2546634.8100000024}},{"attributes":{"ID":211691,"DIS_CODE":0,"TOWNNAME":"永康區","LI":"永康里","LIN":" ","STREET":"中山路","SECT":" ","MAREA":" ","LANE":" ","ALLEY":" ","HOUSE_NO":"３０號","E_COORD97":173860.89000000001,"N_COORD97":2547457.1600000001,"ADDRESS":"中山路３０號","OBJECTID":211690},"geometry":{"x":173860.8900000006,"y":2547457.1600000001}},{"attributes":{"ID":211692,"DIS_CODE":0,"TOWNNAME":"永康區","LI":"\u25A0行里","LIN":"31鄰","STREET":"仁愛街","SECT":" ","MAREA":" ","LANE":" ","ALLEY":" ","HOUSE_NO":"５０號之５","E_COORD97":171965.42999999999,"N_COORD97":2549235.1400000001,"ADDRESS":"仁愛街５０號之５","OBJECTID":211691},"geometry":{"x":171965.43000000063,"y":2549235.1400000043}},{"attributes":{"ID":211693,"DIS_CODE":0,"TOWNNAME":"永康區","LI":"\u25A0行里","LIN":"12鄰","STREET":"中正路","SECT":" ","MAREA":" ","LANE":" ","ALLEY":" ","HOUSE_NO":"５８９號","E_COORD97":171919.28,"N_COORD97":2548953.5899999999,"ADDRESS":"中正路５８９號","OBJECTID":211692},"geometry":{"x":171919.28000000119,"y":2548953.5900000017}},{"attributes":{"ID":211694,"DIS_CODE":0,"TOWNNAME":"南區","LI":"佛壇里","LIN":"9鄰","STREET":"明興路","SECT":" ","MAREA":" ","LANE":" ","ALLEY":" ","HOUSE_NO":"１３５８號","E_COORD97":166354.92999999999,"N_COORD97":2535924.3700000001,"ADDRESS":"明興路１３５８號","OBJECTID":211693},"geometry":{"x":166354.9299999997,"y":2535924.3700000029}},{"attributes":{"ID":211695,"DIS_CODE":0,"TOWNNAME":"麻豆區","LI":"大埕里","LIN":"9鄰","STREET":" ","SECT":" ","MAREA":"大埕","LANE":" ","ALLEY":" ","HOUSE_NO":"２３號","E_COORD97":173106.01999999999,"N_COORD97":2565191.9900000002,"ADDRESS":"大埕２３號","OBJECTID":211694},"geometry":{"x":173106.01999999955,"y":2565191.9900000021}},{"attributes":{"ID":211696,"DIS_CODE":0,"TOWNNAME":"後壁區","LI":"新東里","LIN":"2鄰","STREET":" ","SECT":" ","MAREA":"新港東","LANE":" ","ALLEY":" ","HOUSE_NO":"２３號之５","E_COORD97":181242.29000000001,"N_COORD97":2581755.1600000001,"ADDRESS":"新港東２３號之５","OBJECTID":211695},"geometry":{"x":181242.2900000019,"y":2581755.160000002}},{"attributes":{"ID":211697,"DIS_CODE":0,"TOWNNAME":"後壁區","LI":"新東里","LIN":"2鄰","STREET":" ","SECT":" ","MAREA":"新港東","LANE":" ","ALLEY":" ","HOUSE_NO":"２３號之８","E_COORD97":181186.25,"N_COORD97":2581904.3100000001,"ADDRESS":"新港東２３號之８","OBJECTID":211696},"geometry":{"x":181186.25,"y":2581904.3100000024}},{"attributes":{"ID":211698,"DIS_CODE":0,"TOWNNAME":"後壁區","LI":"新東里","LIN":"2鄰","STREET":" ","SECT":" ","MAREA":"新港東","LANE":" ","ALLEY":" ","HOUSE_NO":"２３號","E_COORD97":181375.98000000001,"N_COORD97":2581907.1000000001,"ADDRESS":"新港東２３號","OBJECTID":211697},"geometry":{"x":181375.98000000138,"y":2581907.0999999978}},{"attributes":{"ID":211699,"DIS_CODE":0,"TOWNNAME":"後壁區","LI":"新東里","LIN":"2鄰","STREET":" ","SECT":" ","MAREA":"新港東","LANE":" ","ALLEY":" ","HOUSE_NO":"２４號之１","E_COORD97":181387.04999999999,"N_COORD97":2581955.0299999998,"ADDRESS":"新港東２４號之１","OBJECTID":211698},"geometry":{"x":181387.04999999981,"y":2581955.0300000031}},{"attributes":{"ID":211700,"DIS_CODE":0,"TOWNNAME":"後壁區","LI":"新東里","LIN":"2鄰","STREET":" ","SECT":" ","MAREA":"新港東","LANE":" ","ALLEY":" ","HOUSE_NO":"２５號之５","E_COORD97":181398.44,"N_COORD97":2581974,"ADDRESS":"新港東２５號之５","OBJECTID":211699},"geometry":{"x":181398.44000000134,"y":2581974.0000000019}},{"attributes":{"ID":211701,"DIS_CODE":0,"TOWNNAME":"後壁區","LI":"新東里","LIN":"2鄰","STREET":" ","SECT":" ","MAREA":"新港東","LANE":" ","ALLEY":" ","HOUSE_NO":"２５號之７","E_COORD97":181389.70999999999,"N_COORD97":2581977.0600000001,"ADDRESS":"新港東２５號之７","OBJECTID":211700},"geometry":{"x":181389.70999999996,"y":2581977.0600000024}},{"attributes":{"ID":211702,"DIS_CODE":0,"TOWNNAME":"後壁區","LI":"平安里","LIN":"2鄰","STREET":" ","SECT":" ","MAREA":"葯店口","LANE":" ","ALLEY":" ","HOUSE_NO":"１９號之１","E_COORD97":182002.53,"N_COORD97":2584928.5600000001,"ADDRESS":"葯店口１９號之１","OBJECTID":211701},"geometry":{"x":182002.53000000119,"y":2584928.5600000005}},{"attributes":{"ID":211703,"DIS_CODE":0,"TOWNNAME":"後壁區","LI":"平安里","LIN":"2鄰","STREET":" ","SECT":" ","MAREA":"葯店口","LANE":" ","ALLEY":" ","HOUSE_NO":"１９號之２","E_COORD97":182013.29999999999,"N_COORD97":2584926.3100000001,"ADDRESS":"葯店口１９號之２","OBJECTID":211702},"geometry":{"x":182013.30000000168,"y":2584926.3100000005}},{"attributes":{"ID":211704,"DIS_CODE":0,"TOWNNAME":"後壁區","LI":"平安里","LIN":"2鄰","STREET":" ","SECT":" ","MAREA":"葯店口","LANE":" ","ALLEY":" ","HOUSE_NO":"１９號之７","E_COORD97":182097.64000000001,"N_COORD97":2584960.71,"ADDRESS":"葯店口１９號之７","OBJECTID":211703},"geometry":{"x":182097.6400000006,"y":2584960.7100000028}},{"attributes":{"ID":211705,"DIS_CODE":0,"TOWNNAME":"後壁區","LI":"平安里","LIN":"2鄰","STREET":" ","SECT":" ","MAREA":"葯店口","LANE":" ","ALLEY":" ","HOUSE_NO":"１９號","E_COORD97":181985.81,"N_COORD97":2584940.8399999999,"ADDRESS":"葯店口１９號","OBJECTID":211704},"geometry":{"x":181985.81000000145,"y":2584940.8400000017}},{"attributes":{"ID":211706,"DIS_CODE":0,"TOWNNAME":"後壁區","LI":"平安里","LIN":"2鄰","STREET":" ","SECT":" ","MAREA":"葯店口","LANE":" ","ALLEY":" ","HOUSE_NO":"２０號之１","E_COORD97":181985.45999999999,"N_COORD97":2584905.5299999998,"ADDRESS":"葯店口２０號之１","OBJECTID":211705},"geometry":{"x":181985.46000000089,"y":2584905.5300000012}},{"attributes":{"ID":211707,"DIS_CODE":0,"TOWNNAME":"後壁區","LI":"平安里","LIN":"2鄰","STREET":" ","SECT":" ","MAREA":"葯店口","LANE":" ","ALLEY":" ","HOUSE_NO":"２０號之２","E_COORD97":181975.67999999999,"N_COORD97":2584877.4399999999,"ADDRESS":"葯店口２０號之２","OBJECTID":211706},"geometry":{"x":181975.68000000063,"y":2584877.4399999995}},{"attributes":{"ID":211708,"DIS_CODE":0,"TOWNNAME":"後壁區","LI":"平安里","LIN":"2鄰","STREET":" ","SECT":" ","MAREA":"葯店口","LANE":" ","ALLEY":" ","HOUSE_NO":"２０號","E_COORD97":181981.17999999999,"N_COORD97":2584891.46,"ADDRESS":"葯店口２０號","OBJECTID":211707},"geometry":{"x":181981.1799999997,"y":2584891.4600000009}},{"attributes":{"ID":211709,"DIS_CODE":0,"TOWNNAME":"後壁區","LI":"平安里","LIN":"2鄰","STREET":" ","SECT":" ","MAREA":"葯店口","LANE":" ","ALLEY":" ","HOUSE_NO":"２１號之１","E_COORD97":182015.70999999999,"N_COORD97":2584885.3799999999,"ADDRESS":"葯店口２１號之１","OBJECTID":211708},"geometry":{"x":182015.71000000183,"y":2584885.3800000008}},{"attributes":{"ID":211710,"DIS_CODE":0,"TOWNNAME":"後壁區","LI":"平安里","LIN":"2鄰","STREET":" ","SECT":" ","MAREA":"葯店口","LANE":" ","ALLEY":" ","HOUSE_NO":"２１號","E_COORD97":182014.26999999999,"N_COORD97":2584901.77,"ADDRESS":"葯店口２１號","OBJECTID":211709},"geometry":{"x":182014.26999999955,"y":2584901.7699999996}},{"attributes":{"ID":211711,"DIS_CODE":0,"TOWNNAME":"後壁區","LI":"平安里","LIN":"2鄰","STREET":" ","SECT":" ","MAREA":"葯店口","LANE":" ","ALLEY":" ","HOUSE_NO":"２２號之１","E_COORD97":181955.5,"N_COORD97":2584857.9399999999,"ADDRESS":"葯店口２２號之１","OBJECTID":211710},"geometry":{"x":181955.5,"y":2584857.9400000032}},{"attributes":{"ID":211712,"DIS_CODE":0,"TOWNNAME":"後壁區","LI":"平安里","LIN":"2鄰","STREET":" ","SECT":" ","MAREA":"葯店口","LANE":" ","ALLEY":" ","HOUSE_NO":"２２號之２","E_COORD97":181961.89999999999,"N_COORD97":2584857.52,"ADDRESS":"葯店口２２號之２","OBJECTID":211711},"geometry":{"x":181961.90000000037,"y":2584857.5200000033}},{"attributes":{"ID":211713,"DIS_CODE":0,"TOWNNAME":"後壁區","LI":"平安里","LIN":"2鄰","STREET":" ","SECT":" ","MAREA":"葯店口","LANE":" ","ALLEY":" ","HOUSE_NO":"２２號之３","E_COORD97":182001.29999999999,"N_COORD97":2584862.75,"ADDRESS":"葯店口２２號之３","OBJECTID":211712},"geometry":{"x":182001.29999999981,"y":2584862.75}},{"attributes":{"ID":211714,"DIS_CODE":0,"TOWNNAME":"後壁區","LI":"平安里","LIN":"2鄰","STREET":" ","SECT":" ","MAREA":"葯店口","LANE":" ","ALLEY":" ","HOUSE_NO":"２２號","E_COORD97":181982.29999999999,"N_COORD97":2584861.52,"ADDRESS":"葯店口２２號","OBJECTID":211713},"geometry":{"x":181982.29999999981,"y":2584861.5200000014}},{"attributes":{"ID":211715,"DIS_CODE":0,"TOWNNAME":"後壁區","LI":"平安里","LIN":"2鄰","STREET":" ","SECT":" ","MAREA":"葯店口","LANE":" ","ALLEY":" ","HOUSE_NO":"２３號之１０","E_COORD97":182109.10999999999,"N_COORD97":2584837.54,"ADDRESS":"葯店口２３號之１０","OBJECTID":211714},"geometry":{"x":182109.11000000127,"y":2584837.540000001}},{"attributes":{"ID":211716,"DIS_CODE":0,"TOWNNAME":"後壁區","LI":"平安里","LIN":"2鄰","STREET":" ","SECT":" ","MAREA":"葯店口","LANE":" ","ALLEY":" ","HOUSE_NO":"２３號之１１","E_COORD97":182175.22,"N_COORD97":2584865.71,"ADDRESS":"葯店口２３號之１１","OBJECTID":211715},"geometry":{"x":182175.22000000067,"y":2584865.7100000028}},{"attributes":{"ID":211717,"DIS_CODE":0,"TOWNNAME":"後壁區","LI":"平安里","LIN":"2鄰","STREET":" ","SECT":" ","MAREA":"葯店口","LANE":" ","ALLEY":" ","HOUSE_NO":"２３號之２","E_COORD97":182076.91,"N_COORD97":2584866.29,"ADDRESS":"葯店口２３號之２","OBJECTID":211716},"geometry":{"x":182076.91000000015,"y":2584866.290000001}},{"attributes":{"ID":211718,"DIS_CODE":0,"TOWNNAME":"南區","LI":"佛壇里","LIN":"9鄰","STREET":"明興路","SECT":" ","MAREA":" ","LANE":" ","ALLEY":" ","HOUSE_NO":"１３８０號","E_COORD97":166350.23999999999,"N_COORD97":2535877.0800000001,"ADDRESS":"明興路１３８０號","OBJECTID":211717},"geometry":{"x":166350.24000000022,"y":2535877.0800000019}},{"attributes":{"ID":211719,"DIS_CODE":0,"TOWNNAME":"南區","LI":"佛壇里","LIN":"9鄰","STREET":"明興路","SECT":" ","MAREA":" ","LANE":" ","ALLEY":" ","HOUSE_NO":"１３８２號","E_COORD97":166351.29999999999,"N_COORD97":2535871.96,"ADDRESS":"明興路１３８２號","OBJECTID":211718},"geometry":{"x":166351.29999999981,"y":2535871.9600000028}},{"attributes":{"ID":211720,"DIS_CODE":0,"TOWNNAME":"南區","LI":"佛壇里","LIN":"9鄰","STREET":"明興路","SECT":" ","MAREA":" ","LANE":" ","ALLEY":" ","HOUSE_NO":"１３８４號","E_COORD97":166350.66,"N_COORD97":2535868.1299999999,"ADDRESS":"明興路１３８４號","OBJECTID":211719},"geometry":{"x":166350.66000000015,"y":2535868.1299999971}},{"attributes":{"ID":211721,"DIS_CODE":0,"TOWNNAME":"安南區","LI":"城南里","LIN":"13鄰","STREET":"城西街","SECT":"二段","MAREA":" ","LANE":"２６３巷","ALLEY":"７０弄","HOUSE_NO":"５號","E_COORD97":159628.89999999999,"N_COORD97":2550820.21,"ADDRESS":"城西街二段２６３巷７０弄５號","OBJECTID":211720},"geometry":{"x":159628.9000000013,"y":2550820.2100000009}},{"attributes":{"ID":211722,"DIS_CODE":0,"TOWNNAME":"後壁區","LI":"平安里","LIN":"2鄰","STREET":" ","SECT":" ","MAREA":"葯店口","LANE":" ","ALLEY":" ","HOUSE_NO":"２３號之３","E_COORD97":182043.84,"N_COORD97":2584871.7599999998,"ADDRESS":"葯店口２３號之３","OBJECTID":211721},"geometry":{"x":182043.84000000078,"y":2584871.7599999998}},{"attributes":{"ID":211723,"DIS_CODE":0,"TOWNNAME":"安南區","LI":"城南里","LIN":"13鄰","STREET":"城西街","SECT":"二段","MAREA":" ","LANE":"２６３巷","ALLEY":"７０弄","HOUSE_NO":"７號","E_COORD97":159628.29000000001,"N_COORD97":2550825.0800000001,"ADDRESS":"城西街二段２６３巷７０弄７號","OBJECTID":211722},"geometry":{"x":159628.29000000004,"y":2550825.0800000038}},{"attributes":{"ID":211724,"DIS_CODE":0,"TOWNNAME":"後壁區","LI":"平安里","LIN":"2鄰","STREET":" ","SECT":" ","MAREA":"葯店口","LANE":" ","ALLEY":" ","HOUSE_NO":"２３號之５附１","E_COORD97":182119.94,"N_COORD97":2584885.4399999999,"ADDRESS":"葯店口２３號之５附１","OBJECTID":211723},"geometry":{"x":182119.94000000134,"y":2584885.4400000013}},{"attributes":{"ID":211725,"DIS_CODE":0,"TOWNNAME":"安南區","LI":"城南里","LIN":"13鄰","STREET":"城西街","SECT":"二段","MAREA":" ","LANE":"２６３巷","ALLEY":"７０弄","HOUSE_NO":"９號","E_COORD97":159629.51000000001,"N_COORD97":2550829.6499999999,"ADDRESS":"城西街二段２６３巷７０弄９號","OBJECTID":211724},"geometry":{"x":159629.50999999978,"y":2550829.6500000022}},{"attributes":{"ID":211726,"DIS_CODE":0,"TOWNNAME":"安南區","LI":"城南里","LIN":"13鄰","STREET":"城西街","SECT":"二段","MAREA":" ","LANE":"２６３巷","ALLEY":"７０弄","HOUSE_NO":"１１號","E_COORD97":159629.51000000001,"N_COORD97":2550833.9100000001,"ADDRESS":"城西街二段２６３巷７０弄１１號","OBJECTID":211725},"geometry":{"x":159629.50999999978,"y":2550833.910000002}},{"attributes":{"ID":211727,"DIS_CODE":0,"TOWNNAME":"後壁區","LI":"平安里","LIN":"2鄰","STREET":" ","SECT":" ","MAREA":"葯店口","LANE":" ","ALLEY":" ","HOUSE_NO":"２３號之５","E_COORD97":182115.85000000001,"N_COORD97":2584891.4300000002,"ADDRESS":"葯店口２３號之５","OBJECTID":211726},"geometry":{"x":182115.84999999963,"y":2584891.4299999997}},{"attributes":{"ID":211728,"DIS_CODE":0,"TOWNNAME":"後壁區","LI":"平安里","LIN":"2鄰","STREET":" ","SECT":" ","MAREA":"葯店口","LANE":" ","ALLEY":" ","HOUSE_NO":"２３號之６","E_COORD97":182104.75,"N_COORD97":2584865.0299999998,"ADDRESS":"葯店口２３號之６","OBJECTID":211727},"geometry":{"x":182104.75,"y":2584865.0300000012}},{"attributes":{"ID":211729,"DIS_CODE":0,"TOWNNAME":"安南區","LI":"城南里","LIN":"13鄰","STREET":"城西街","SECT":"二段","MAREA":" ","LANE":"２６３巷","ALLEY":"７０弄","HOUSE_NO":"１３號","E_COORD97":159628.89999999999,"N_COORD97":2550839.3999999999,"ADDRESS":"城西街二段２６３巷７０弄１３號","OBJECTID":211728},"geometry":{"x":159628.9000000013,"y":2550839.4000000004}},{"attributes":{"ID":211730,"DIS_CODE":0,"TOWNNAME":"後壁區","LI":"平安里","LIN":"2鄰","STREET":" ","SECT":" ","MAREA":"葯店口","LANE":" ","ALLEY":" ","HOUSE_NO":"２３號之７","E_COORD97":182114.82000000001,"N_COORD97":2584848.9199999999,"ADDRESS":"葯店口２３號之７","OBJECTID":211729},"geometry":{"x":182114.8200000003,"y":2584848.9200000018}},{"attributes":{"ID":211731,"DIS_CODE":0,"TOWNNAME":"後壁區","LI":"平安里","LIN":"2鄰","STREET":" ","SECT":" ","MAREA":"葯店口","LANE":" ","ALLEY":" ","HOUSE_NO":"２３號之８","E_COORD97":182106.70000000001,"N_COORD97":2584825,"ADDRESS":"葯店口２３號之８","OBJECTID":211730},"geometry":{"x":182106.70000000112,"y":2584825.0000000019}},{"attributes":{"ID":211732,"DIS_CODE":0,"TOWNNAME":"後壁區","LI":"平安里","LIN":"2鄰","STREET":" ","SECT":" ","MAREA":"葯店口","LANE":" ","ALLEY":" ","HOUSE_NO":"２３號","E_COORD97":182037.29000000001,"N_COORD97":2584875.6299999999,"ADDRESS":"葯店口２３號","OBJECTID":211731},"geometry":{"x":182037.2900000019,"y":2584875.629999999}},{"attributes":{"ID":211733,"DIS_CODE":0,"TOWNNAME":"後壁區","LI":"平安里","LIN":"2鄰","STREET":" ","SECT":" ","MAREA":"葯店口","LANE":" ","ALLEY":" ","HOUSE_NO":"２４號","E_COORD97":182042.41,"N_COORD97":2584838.25,"ADDRESS":"葯店口２４號","OBJECTID":211732},"geometry":{"x":182042.41000000108,"y":2584838.25}},{"attributes":{"ID":211734,"DIS_CODE":0,"TOWNNAME":"後壁區","LI":"平安里","LIN":"2鄰","STREET":" ","SECT":" ","MAREA":"葯店口","LANE":" ","ALLEY":" ","HOUSE_NO":"２６號之２","E_COORD97":182078.03,"N_COORD97":2584852.7200000002,"ADDRESS":"葯店口２６號之２","OBJECTID":211733},"geometry":{"x":182078.03000000026,"y":2584852.7200000007}},{"attributes":{"ID":211735,"DIS_CODE":0,"TOWNNAME":"後壁區","LI":"平安里","LIN":"2鄰","STREET":" ","SECT":" ","MAREA":"葯店口","LANE":" ","ALLEY":" ","HOUSE_NO":"２６號之４","E_COORD97":182086.16,"N_COORD97":2584853.9900000002,"ADDRESS":"葯店口２６號之４","OBJECTID":211734},"geometry":{"x":182086.16000000108,"y":2584853.9900000002}},{"attributes":{"ID":211736,"DIS_CODE":0,"TOWNNAME":"後壁區","LI":"平安里","LIN":"2鄰","STREET":" ","SECT":" ","MAREA":"葯店口","LANE":" ","ALLEY":" ","HOUSE_NO":"２６號","E_COORD97":182064.95999999999,"N_COORD97":2584841.1299999999,"ADDRESS":"葯店口２６號","OBJECTID":211735},"geometry":{"x":182064.96000000183,"y":2584841.129999999}},{"attributes":{"ID":211737,"DIS_CODE":0,"TOWNNAME":"後壁區","LI":"平安里","LIN":"2鄰","STREET":" ","SECT":" ","MAREA":"葯店口","LANE":" ","ALLEY":" ","HOUSE_NO":"２７號之１","E_COORD97":182094.88,"N_COORD97":2584799.1299999999,"ADDRESS":"葯店口２７號之１","OBJECTID":211736},"geometry":{"x":182094.88000000082,"y":2584799.1300000008}},{"attributes":{"ID":211738,"DIS_CODE":0,"TOWNNAME":"後壁區","LI":"平安里","LIN":"2鄰","STREET":" ","SECT":" ","MAREA":"葯店口","LANE":" ","ALLEY":" ","HOUSE_NO":"２７號之２","E_COORD97":182042.14000000001,"N_COORD97":2584801.3599999999,"ADDRESS":"葯店口２７號之２","OBJECTID":211737},"geometry":{"x":182042.1400000006,"y":2584801.3600000013}},{"attributes":{"ID":211739,"DIS_CODE":0,"TOWNNAME":"後壁區","LI":"平安里","LIN":"2鄰","STREET":" ","SECT":" ","MAREA":"葯店口","LANE":" ","ALLEY":" ","HOUSE_NO":"２７號之３","E_COORD97":182065.76999999999,"N_COORD97":2584822.79,"ADDRESS":"葯店口２７號之３","OBJECTID":211738},"geometry":{"x":182065.77000000142,"y":2584822.790000001}},{"attributes":{"ID":211740,"DIS_CODE":0,"TOWNNAME":"後壁區","LI":"平安里","LIN":"2鄰","STREET":" ","SECT":" ","MAREA":"葯店口","LANE":" ","ALLEY":" ","HOUSE_NO":"２８號","E_COORD97":182022.75,"N_COORD97":2584805.7799999998,"ADDRESS":"葯店口２８號","OBJECTID":211739},"geometry":{"x":182022.75000000093,"y":2584805.7800000012}},{"attributes":{"ID":211741,"DIS_CODE":0,"TOWNNAME":"後壁區","LI":"平安里","LIN":"2鄰","STREET":" ","SECT":" ","MAREA":"葯店口","LANE":" ","ALLEY":" ","HOUSE_NO":"２９號","E_COORD97":182002.32000000001,"N_COORD97":2584807.54,"ADDRESS":"葯店口２９號","OBJECTID":211740},"geometry":{"x":182002.32000000123,"y":2584807.540000001}},{"attributes":{"ID":211742,"DIS_CODE":0,"TOWNNAME":"後壁區","LI":"平安里","LIN":"2鄰","STREET":" ","SECT":" ","MAREA":"葯店口","LANE":" ","ALLEY":" ","HOUSE_NO":"３０之２號","E_COORD97":182013.23000000001,"N_COORD97":2584829.75,"ADDRESS":"葯店口３０之２號","OBJECTID":211741},"geometry":{"x":182013.23000000138,"y":2584829.7500000019}},{"attributes":{"ID":211743,"DIS_CODE":0,"TOWNNAME":"後壁區","LI":"平安里","LIN":"2鄰","STREET":" ","SECT":" ","MAREA":"葯店口","LANE":" ","ALLEY":" ","HOUSE_NO":"３０號之２","E_COORD97":182013.23000000001,"N_COORD97":2584829.75,"ADDRESS":"葯店口３０號之２","OBJECTID":211742},"geometry":{"x":182013.23000000138,"y":2584829.7500000019}},{"attributes":{"ID":211744,"DIS_CODE":0,"TOWNNAME":"後壁區","LI":"平安里","LIN":"2鄰","STREET":" ","SECT":" ","MAREA":"葯店口","LANE":" ","ALLEY":" ","HOUSE_NO":"３０號之３","E_COORD97":181999.20999999999,"N_COORD97":2584828.04,"ADDRESS":"葯店口３０號之３","OBJECTID":211743},"geometry":{"x":181999.21000000089,"y":2584828.0399999991}},{"attributes":{"ID":211745,"DIS_CODE":0,"TOWNNAME":"後壁區","LI":"平安里","LIN":"2鄰","STREET":" ","SECT":" ","MAREA":"葯店口","LANE":" ","ALLEY":" ","HOUSE_NO":"３０號之５","E_COORD97":182026.25,"N_COORD97":2584837.7799999998,"ADDRESS":"葯店口３０號之５","OBJECTID":211744},"geometry":{"x":182026.25000000093,"y":2584837.7799999993}},{"attributes":{"ID":211746,"DIS_CODE":0,"TOWNNAME":"後壁區","LI":"平安里","LIN":"2鄰","STREET":" ","SECT":" ","MAREA":"葯店口","LANE":" ","ALLEY":" ","HOUSE_NO":"３０號之６","E_COORD97":182030.88,"N_COORD97":2584837.8999999999,"ADDRESS":"葯店口３０號之６","OBJECTID":211745},"geometry":{"x":182030.87999999989,"y":2584837.9000000004}},{"attributes":{"ID":211747,"DIS_CODE":0,"TOWNNAME":"南區","LI":"廣州里","LIN":"9鄰","STREET":"福吉路","SECT":" ","MAREA":" ","LANE":" ","ALLEY":" ","HOUSE_NO":"３號","E_COORD97":167420.57000000001,"N_COORD97":2542633.6299999999,"ADDRESS":"福吉路３號","OBJECTID":211746},"geometry":{"x":167420.57000000123,"y":2542633.6300000008}},{"attributes":{"ID":211748,"DIS_CODE":0,"TOWNNAME":"麻豆區","LI":"大埕里","LIN":"9鄰","STREET":" ","SECT":" ","MAREA":"大埕","LANE":" ","ALLEY":" ","HOUSE_NO":"２４號之１","E_COORD97":173079.23000000001,"N_COORD97":2565214.9500000002,"ADDRESS":"大埕２４號之１","OBJECTID":211747},"geometry":{"x":173079.23000000231,"y":2565214.9500000011}},{"attributes":{"ID":211749,"DIS_CODE":0,"TOWNNAME":"後壁區","LI":"平安里","LIN":"2鄰","STREET":" ","SECT":" ","MAREA":"葯店口","LANE":" ","ALLEY":" ","HOUSE_NO":"３０號","E_COORD97":181982.87,"N_COORD97":2584838.8100000001,"ADDRESS":"葯店口３０號","OBJECTID":211748},"geometry":{"x":181982.87000000104,"y":2584838.8100000005}},{"attributes":{"ID":211750,"DIS_CODE":0,"TOWNNAME":"後壁區","LI":"平安里","LIN":"2鄰","STREET":" ","SECT":" ","MAREA":"葯店口","LANE":" ","ALLEY":" ","HOUSE_NO":"３１號","E_COORD97":181952.22,"N_COORD97":2584818.6299999999,"ADDRESS":"葯店口３１號","OBJECTID":211749},"geometry":{"x":181952.21999999974,"y":2584818.6300000027}},{"attributes":{"ID":211751,"DIS_CODE":0,"TOWNNAME":"後壁區","LI":"平安里","LIN":"2鄰","STREET":" ","SECT":" ","MAREA":"葯店口","LANE":" ","ALLEY":" ","HOUSE_NO":"３２號之１","E_COORD97":181925.37,"N_COORD97":2584798.79,"ADDRESS":"葯店口３２號之１","OBJECTID":211750},"geometry":{"x":181925.37000000104,"y":2584798.790000001}},{"attributes":{"ID":211752,"DIS_CODE":0,"TOWNNAME":"後壁區","LI":"平安里","LIN":"2鄰","STREET":" ","SECT":" ","MAREA":"葯店口","LANE":" ","ALLEY":" ","HOUSE_NO":"３２號之２","E_COORD97":181921.20000000001,"N_COORD97":2584807.98,"ADDRESS":"葯店口３２號之２","OBJECTID":211751},"geometry":{"x":181921.20000000205,"y":2584807.9800000042}},{"attributes":{"ID":211753,"DIS_CODE":0,"TOWNNAME":"後壁區","LI":"平安里","LIN":"2鄰","STREET":" ","SECT":" ","MAREA":"葯店口","LANE":" ","ALLEY":" ","HOUSE_NO":"３４號","E_COORD97":181937.54000000001,"N_COORD97":2584823.3799999999,"ADDRESS":"葯店口３４號","OBJECTID":211752},"geometry":{"x":181937.54000000097,"y":2584823.379999999}},{"attributes":{"ID":211754,"DIS_CODE":0,"TOWNNAME":"安南區","LI":"長安里","LIN":"13鄰","STREET":"公學路","SECT":"二段","MAREA":" ","LANE":"１２３巷","ALLEY":"４６弄","HOUSE_NO":"６２號","E_COORD97":167828.63,"N_COORD97":2552143.21,"ADDRESS":"公學路二段１２３巷４６弄６２號","OBJECTID":211753},"geometry":{"x":167828.62999999989,"y":2552143.2100000009}},{"attributes":{"ID":211755,"DIS_CODE":0,"TOWNNAME":"安南區","LI":"長安里","LIN":"13鄰","STREET":"公學路","SECT":"二段","MAREA":" ","LANE":"１２３巷","ALLEY":"４６弄","HOUSE_NO":"６６號","E_COORD97":167831.23999999999,"N_COORD97":2552140.0499999998,"ADDRESS":"公學路二段１２３巷４６弄６６號","OBJECTID":211754},"geometry":{"x":167831.24000000115,"y":2552140.0500000007}},{"attributes":{"ID":211756,"DIS_CODE":0,"TOWNNAME":"安南區","LI":"長安里","LIN":"13鄰","STREET":"公學路","SECT":"二段","MAREA":" ","LANE":"１２３巷","ALLEY":"４６弄","HOUSE_NO":"６８號","E_COORD97":167833.14000000001,"N_COORD97":2552136.71,"ADDRESS":"公學路二段１２３巷４６弄６８號","OBJECTID":211755},"geometry":{"x":167833.13999999966,"y":2552136.709999999}},{"attributes":{"ID":211757,"DIS_CODE":0,"TOWNNAME":"七股區","LI":"七股里","LIN":"2鄰","STREET":" ","SECT":" ","MAREA":"七股","LANE":" ","ALLEY":" ","HOUSE_NO":"１３號之１","E_COORD97":161084.41,"N_COORD97":2559402.1200000001,"ADDRESS":"七股１３號之１","OBJECTID":211756},"geometry":{"x":161084.41000000108,"y":2559402.120000001}},{"attributes":{"ID":211758,"DIS_CODE":0,"TOWNNAME":"安南區","LI":"長安里","LIN":"13鄰","STREET":"公學路","SECT":"二段","MAREA":" ","LANE":"１２３巷","ALLEY":"４６弄","HOUSE_NO":"７０號","E_COORD97":167835.20000000001,"N_COORD97":2552133,"ADDRESS":"公學路二段１２３巷４６弄７０號","OBJECTID":211757},"geometry":{"x":167835.20000000019,"y":2552133}},{"attributes":{"ID":211759,"DIS_CODE":0,"TOWNNAME":"安南區","LI":"長安里","LIN":"13鄰","STREET":"公學路","SECT":"二段","MAREA":" ","LANE":"１２３巷","ALLEY":"４６弄","HOUSE_NO":"７２號","E_COORD97":167837.89000000001,"N_COORD97":2552130,"ADDRESS":"公學路二段１２３巷４６弄７２號","OBJECTID":211758},"geometry":{"x":167837.8900000006,"y":2552130}},{"attributes":{"ID":211760,"DIS_CODE":0,"TOWNNAME":"七股區","LI":"七股里","LIN":"2鄰","STREET":" ","SECT":" ","MAREA":"七股","LANE":" ","ALLEY":" ","HOUSE_NO":"１３號","E_COORD97":161073.91,"N_COORD97":2559409.3399999999,"ADDRESS":"七股１３號","OBJECTID":211759},"geometry":{"x":161073.91000000201,"y":2559409.3399999999}},{"attributes":{"ID":211761,"DIS_CODE":0,"TOWNNAME":"安南區","LI":"國安里","LIN":"13鄰","STREET":"國安街","SECT":" ","MAREA":" ","LANE":"２１０巷","ALLEY":"１０５弄","HOUSE_NO":"１０號","E_COORD97":166523.73999999999,"N_COORD97":2547226.02,"ADDRESS":"國安街２１０巷１０５弄１０號","OBJECTID":211760},"geometry":{"x":166523.74000000115,"y":2547226.0199999996}},{"attributes":{"ID":211762,"DIS_CODE":0,"TOWNNAME":"七股區","LI":"七股里","LIN":"2鄰","STREET":" ","SECT":" ","MAREA":"七股","LANE":" ","ALLEY":" ","HOUSE_NO":"１４號之１","E_COORD97":161056.5,"N_COORD97":2559407.4199999999,"ADDRESS":"七股１４號之１","OBJECTID":211761},"geometry":{"x":161056.50000000093,"y":2559407.4200000018}},{"attributes":{"ID":211763,"DIS_CODE":0,"TOWNNAME":"七股區","LI":"七股里","LIN":"2鄰","STREET":" ","SECT":" ","MAREA":"七股","LANE":" ","ALLEY":" ","HOUSE_NO":"１４號","E_COORD97":161063.79999999999,"N_COORD97":2559407.2400000002,"ADDRESS":"七股１４號","OBJECTID":211762},"geometry":{"x":161063.79999999981,"y":2559407.2400000002}},{"attributes":{"ID":211764,"DIS_CODE":0,"TOWNNAME":"七股區","LI":"七股里","LIN":"2鄰","STREET":" ","SECT":" ","MAREA":"七股","LANE":" ","ALLEY":" ","HOUSE_NO":"１５號","E_COORD97":161042.12,"N_COORD97":2559386.8500000001,"ADDRESS":"七股１５號","OBJECTID":211763},"geometry":{"x":161042.12000000104,"y":2559386.8500000034}},{"attributes":{"ID":211765,"DIS_CODE":0,"TOWNNAME":"七股區","LI":"七股里","LIN":"2鄰","STREET":" ","SECT":" ","MAREA":"七股","LANE":" ","ALLEY":" ","HOUSE_NO":"１７號之１","E_COORD97":161072.78,"N_COORD97":2559378.7200000002,"ADDRESS":"七股１７號之１","OBJECTID":211764},"geometry":{"x":161072.78000000026,"y":2559378.7200000044}},{"attributes":{"ID":211766,"DIS_CODE":0,"TOWNNAME":"七股區","LI":"七股里","LIN":"2鄰","STREET":" ","SECT":" ","MAREA":"七股","LANE":" ","ALLEY":" ","HOUSE_NO":"１７號","E_COORD97":161080.73999999999,"N_COORD97":2559379.8999999999,"ADDRESS":"七股１７號","OBJECTID":211765},"geometry":{"x":161080.74000000115,"y":2559379.9000000004}},{"attributes":{"ID":211767,"DIS_CODE":0,"TOWNNAME":"七股區","LI":"七股里","LIN":"2鄰","STREET":" ","SECT":" ","MAREA":"七股","LANE":" ","ALLEY":" ","HOUSE_NO":"１８號","E_COORD97":161096.38,"N_COORD97":2559357.6899999999,"ADDRESS":"七股１８號","OBJECTID":211766},"geometry":{"x":161096.38000000082,"y":2559357.6900000013}},{"attributes":{"ID":211768,"DIS_CODE":0,"TOWNNAME":"南區","LI":"大恩里","LIN":"18鄰","STREET":"國民路","SECT":" ","MAREA":" ","LANE":"１６５巷","ALLEY":"２１弄","HOUSE_NO":"８號","E_COORD97":169206.79000000001,"N_COORD97":2540795.9500000002,"ADDRESS":"國民路１６５巷２１弄８號","OBJECTID":211767},"geometry":{"x":169206.79000000097,"y":2540795.9499999974}},{"attributes":{"ID":211769,"DIS_CODE":0,"TOWNNAME":"七股區","LI":"七股里","LIN":"2鄰","STREET":" ","SECT":" ","MAREA":"七股","LANE":" ","ALLEY":" ","HOUSE_NO":"１９號之１","E_COORD97":161071.07000000001,"N_COORD97":2559305.4700000002,"ADDRESS":"七股１９號之１","OBJECTID":211768},"geometry":{"x":161071.0700000003,"y":2559305.4700000044}},{"attributes":{"ID":211770,"DIS_CODE":0,"TOWNNAME":"七股區","LI":"七股里","LIN":"2鄰","STREET":" ","SECT":" ","MAREA":"七股","LANE":" ","ALLEY":" ","HOUSE_NO":"１９號","E_COORD97":161073.20999999999,"N_COORD97":2559334.9100000001,"ADDRESS":"七股１９號","OBJECTID":211769},"geometry":{"x":161073.20999999996,"y":2559334.9100000001}},{"attributes":{"ID":211771,"DIS_CODE":0,"TOWNNAME":"七股區","LI":"七股里","LIN":"2鄰","STREET":" ","SECT":" ","MAREA":"七股","LANE":" ","ALLEY":" ","HOUSE_NO":"２０號","E_COORD97":161060.82999999999,"N_COORD97":2559329.8700000001,"ADDRESS":"七股２０號","OBJECTID":211770},"geometry":{"x":161060.83000000194,"y":2559329.870000001}},{"attributes":{"ID":211772,"DIS_CODE":0,"TOWNNAME":"佳里區","LI":"子龍里","LIN":"2鄰","STREET":" ","SECT":" ","MAREA":"子良廟","LANE":" ","ALLEY":" ","HOUSE_NO":"２３號","E_COORD97":168856.47,"N_COORD97":2564007.7000000002,"ADDRESS":"子良廟２３號","OBJECTID":211771},"geometry":{"x":168856.47000000067,"y":2564007.6999999993}},{"attributes":{"ID":211773,"DIS_CODE":0,"TOWNNAME":"新化區","LI":"山\u25A0里","LIN":"2鄰","STREET":" ","SECT":" ","MAREA":"頂山\u25A0","LANE":" ","ALLEY":" ","HOUSE_NO":"５４號之１７９","E_COORD97":179256.12,"N_COORD97":2546209.2599999998,"ADDRESS":"頂山\u25A0５４號之１７９","OBJECTID":211772},"geometry":{"x":179256.12000000011,"y":2546209.2600000035}},{"attributes":{"ID":211774,"DIS_CODE":0,"TOWNNAME":"安南區","LI":"國安里","LIN":"13鄰","STREET":"國安街","SECT":" ","MAREA":" ","LANE":"２１０巷","ALLEY":"１０５弄","HOUSE_NO":"１號","E_COORD97":166551.97,"N_COORD97":2547209.77,"ADDRESS":"國安街２１０巷１０５弄１號","OBJECTID":211773},"geometry":{"x":166551.9700000016,"y":2547209.7700000014}},{"attributes":{"ID":211775,"DIS_CODE":0,"TOWNNAME":"南區","LI":"廣州里","LIN":"9鄰","STREET":"健康路","SECT":"二段","MAREA":" ","LANE":"１１６巷","ALLEY":" ","HOUSE_NO":"２６號","E_COORD97":167415.64000000001,"N_COORD97":2542569.9399999999,"ADDRESS":"健康路二段１１６巷２６號","OBJECTID":211774},"geometry":{"x":167415.6400000006,"y":2542569.9400000013}},{"attributes":{"ID":211776,"DIS_CODE":0,"TOWNNAME":"安平區","LI":"文平里","LIN":"24鄰","STREET":"建平三街","SECT":" ","MAREA":" ","LANE":" ","ALLEY":" ","HOUSE_NO":"３之３號","E_COORD97":166269.57000000001,"N_COORD97":2542855.4500000002,"ADDRESS":"建平三街３之３號","OBJECTID":211775},"geometry":{"x":166269.57000000123,"y":2542855.4500000011}},{"attributes":{"ID":211777,"DIS_CODE":0,"TOWNNAME":"安平區","LI":"文平里","LIN":"24鄰","STREET":"建平三街","SECT":" ","MAREA":" ","LANE":" ","ALLEY":" ","HOUSE_NO":"３之２號","E_COORD97":166273.54000000001,"N_COORD97":2542854.6600000001,"ADDRESS":"建平三街３之２號","OBJECTID":211776},"geometry":{"x":166273.54000000004,"y":2542854.660000002}},{"attributes":{"ID":211778,"DIS_CODE":0,"TOWNNAME":"安平區","LI":"文平里","LIN":"24鄰","STREET":"建平三街","SECT":" ","MAREA":" ","LANE":" ","ALLEY":" ","HOUSE_NO":"３之１號","E_COORD97":166279.10000000001,"N_COORD97":2542854.3399999999,"ADDRESS":"建平三街３之１號","OBJECTID":211777},"geometry":{"x":166279.09999999963,"y":2542854.3399999999}},{"attributes":{"ID":211779,"DIS_CODE":0,"TOWNNAME":"安平區","LI":"文平里","LIN":"24鄰","STREET":"建平三街","SECT":" ","MAREA":" ","LANE":" ","ALLEY":" ","HOUSE_NO":"８號","E_COORD97":166306.07999999999,"N_COORD97":2542868.79,"ADDRESS":"建平三街８號","OBJECTID":211778},"geometry":{"x":166306.08000000101,"y":2542868.7900000028}},{"attributes":{"ID":211780,"DIS_CODE":0,"TOWNNAME":"安平區","LI":"文平里","LIN":"24鄰","STREET":"建平三街","SECT":" ","MAREA":" ","LANE":" ","ALLEY":" ","HOUSE_NO":"３０號","E_COORD97":166259.89000000001,"N_COORD97":2542872.7599999998,"ADDRESS":"建平三街３０號","OBJECTID":211779},"geometry":{"x":166259.8900000006,"y":2542872.7599999979}},{"attributes":{"ID":211781,"DIS_CODE":0,"TOWNNAME":"安南區","LI":"國安里","LIN":"13鄰","STREET":"國安街","SECT":" ","MAREA":" ","LANE":"２１０巷","ALLEY":"１０５弄","HOUSE_NO":"２號","E_COORD97":166545.66,"N_COORD97":2547232.1000000001,"ADDRESS":"國安街２１０巷１０５弄２號","OBJECTID":211780},"geometry":{"x":166545.66000000015,"y":2547232.1000000015}},{"attributes":{"ID":211782,"DIS_CODE":0,"TOWNNAME":"安南區","LI":"國安里","LIN":"13鄰","STREET":"國安街","SECT":" ","MAREA":" ","LANE":"２１０巷","ALLEY":"１０５弄","HOUSE_NO":"３號","E_COORD97":166545.63,"N_COORD97":2547208.7200000002,"ADDRESS":"國安街２１０巷１０５弄３號","OBJECTID":211781},"geometry":{"x":166545.62999999989,"y":2547208.7200000025}},{"attributes":{"ID":211783,"DIS_CODE":0,"TOWNNAME":"安南區","LI":"國安里","LIN":"13鄰","STREET":"國安街","SECT":" ","MAREA":" ","LANE":"２１０巷","ALLEY":"１０５弄","HOUSE_NO":"７號","E_COORD97":166536.34,"N_COORD97":2547207.2400000002,"ADDRESS":"國安街２１０巷１０５弄７號","OBJECTID":211782},"geometry":{"x":166536.34000000078,"y":2547207.2400000021}},{"attributes":{"ID":211784,"DIS_CODE":0,"TOWNNAME":"安南區","LI":"國安里","LIN":"13鄰","STREET":"國安街","SECT":" ","MAREA":" ","LANE":"２１０巷","ALLEY":"１０５弄","HOUSE_NO":"８號","E_COORD97":166531.70000000001,"N_COORD97":2547228.4500000002,"ADDRESS":"國安街２１０巷１０５弄８號","OBJECTID":211783},"geometry":{"x":166531.70000000019,"y":2547228.4500000011}},{"attributes":{"ID":211785,"DIS_CODE":0,"TOWNNAME":"安南區","LI":"國安里","LIN":"13鄰","STREET":"國安街","SECT":" ","MAREA":" ","LANE":"２１０巷","ALLEY":"１０５弄","HOUSE_NO":"９號","E_COORD97":166529.17000000001,"N_COORD97":2547206.8199999998,"ADDRESS":"國安街２１０巷１０５弄９號","OBJECTID":211784},"geometry":{"x":166529.17000000086,"y":2547206.8200000022}},{"attributes":{"ID":211786,"DIS_CODE":0,"TOWNNAME":"南區","LI":"大恩里","LIN":"17鄰","STREET":"國民路","SECT":" ","MAREA":" ","LANE":"１６５巷","ALLEY":"２１弄","HOUSE_NO":"９號","E_COORD97":169217.64000000001,"N_COORD97":2540814.2200000002,"ADDRESS":"國民路１６５巷２１弄９號","OBJECTID":211785},"geometry":{"x":169217.6400000006,"y":2540814.2200000025}},{"attributes":{"ID":211787,"DIS_CODE":0,"TOWNNAME":"新營區","LI":"南紙里","LIN":"13鄰","STREET":"太子路","SECT":" ","MAREA":" ","LANE":"２３８巷","ALLEY":"４０弄","HOUSE_NO":"７號","E_COORD97":177788.34,"N_COORD97":2577966.4700000002,"ADDRESS":"太子路２３８巷４０弄７號","OBJECTID":211786},"geometry":{"x":177788.33999999985,"y":2577966.4700000044}},{"attributes":{"ID":211788,"DIS_CODE":0,"TOWNNAME":"永康區","LI":"復華里","LIN":"13鄰","STREET":"國華街","SECT":" ","MAREA":" ","LANE":"９６巷","ALLEY":"１５弄","HOUSE_NO":"８號","E_COORD97":172924.26000000001,"N_COORD97":2545958.9900000002,"ADDRESS":"國華街９６巷１５弄８號","OBJECTID":211787},"geometry":{"x":172924.26000000071,"y":2545958.9900000002}},{"attributes":{"ID":211789,"DIS_CODE":0,"TOWNNAME":"永康區","LI":"安康里","LIN":"13鄰","STREET":"中華路","SECT":" ","MAREA":" ","LANE":"６１９巷","ALLEY":"８８弄","HOUSE_NO":"１９號","E_COORD97":170842.70999999999,"N_COORD97":2546039,"ADDRESS":"中華路６１９巷８８弄１９號","OBJECTID":211788},"geometry":{"x":170842.71000000183,"y":2546039.0000000019}},{"attributes":{"ID":211790,"DIS_CODE":0,"TOWNNAME":"永康區","LI":"\u25A0洲里","LIN":"40鄰","STREET":"洲尾街","SECT":" ","MAREA":" ","LANE":" ","ALLEY":" ","HOUSE_NO":"７２號之９","E_COORD97":170957.38,"N_COORD97":2548898.71,"ADDRESS":"洲尾街７２號之９","OBJECTID":211789},"geometry":{"x":170957.38000000082,"y":2548898.7100000009}},{"attributes":{"ID":211791,"DIS_CODE":0,"TOWNNAME":"永康區","LI":"大橋里","LIN":"13鄰","STREET":"大橋二街","SECT":" ","MAREA":" ","LANE":"２３９巷","ALLEY":"２２弄","HOUSE_NO":"８號","E_COORD97":171106.60000000001,"N_COORD97":2546863.75,"ADDRESS":"大橋二街２３９巷２２弄８號","OBJECTID":211790},"geometry":{"x":171106.60000000056,"y":2546863.7500000037}},{"attributes":{"ID":211792,"DIS_CODE":0,"TOWNNAME":"永康區","LI":"永康里","LIN":"13鄰","STREET":"永康街","SECT":" ","MAREA":" ","LANE":"１３６巷","ALLEY":"１３弄","HOUSE_NO":"９號","E_COORD97":173943.54000000001,"N_COORD97":2547027.77,"ADDRESS":"永康街１３６巷１３弄９號","OBJECTID":211791},"geometry":{"x":173943.54000000097,"y":2547027.7699999996}},{"attributes":{"ID":211793,"DIS_CODE":0,"TOWNNAME":"永康區","LI":"東橋里","LIN":"13鄰","STREET":"中山南路","SECT":" ","MAREA":" ","LANE":"２３１巷","ALLEY":"２弄","HOUSE_NO":"９號","E_COORD97":171653.75,"N_COORD97":2546253.7999999998,"ADDRESS":"中山南路２３１巷２弄９號","OBJECTID":211792},"geometry":{"x":171653.75,"y":2546253.8000000045}},{"attributes":{"ID":211794,"DIS_CODE":0,"TOWNNAME":"永康區","LI":"中華里","LIN":"19鄰","STREET":"華興街","SECT":" ","MAREA":" ","LANE":" ","ALLEY":" ","HOUSE_NO":"１２５號","E_COORD97":171693.14000000001,"N_COORD97":2544560.8300000001,"ADDRESS":"華興街１２５號","OBJECTID":211793},"geometry":{"x":171693.13999999966,"y":2544560.8300000001}},{"attributes":{"ID":211795,"DIS_CODE":0,"TOWNNAME":"永康區","LI":"南灣里","LIN":"12鄰","STREET":"立興街","SECT":" ","MAREA":" ","LANE":" ","ALLEY":" ","HOUSE_NO":"４３號","E_COORD97":174602.07000000001,"N_COORD97":2544842.4900000002,"ADDRESS":"立興街４３號","OBJECTID":211794},"geometry":{"x":174602.0700000003,"y":2544842.4900000021}},{"attributes":{"ID":211796,"DIS_CODE":0,"TOWNNAME":"歸仁區","LI":"文化里","LIN":"9鄰","STREET":"民權一街","SECT":" ","MAREA":" ","LANE":" ","ALLEY":" ","HOUSE_NO":"２３號","E_COORD97":177115.81,"N_COORD97":2541359.25,"ADDRESS":"民權一街２３號","OBJECTID":211795},"geometry":{"x":177115.81000000052,"y":2541359.2500000019}},{"attributes":{"ID":211797,"DIS_CODE":0,"TOWNNAME":"歸仁區","LI":"西埔里","LIN":"9鄰","STREET":"西埔一街","SECT":" ","MAREA":" ","LANE":" ","ALLEY":" ","HOUSE_NO":"１２９號","E_COORD97":177056.10999999999,"N_COORD97":2544519.25,"ADDRESS":"西埔一街１２９號","OBJECTID":211796},"geometry":{"x":177056.11000000034,"y":2544519.25}},{"attributes":{"ID":211798,"DIS_CODE":0,"TOWNNAME":"歸仁區","LI":"大潭里","LIN":"9鄰","STREET":"長榮路","SECT":"一段","MAREA":" ","LANE":" ","ALLEY":" ","HOUSE_NO":"２號","E_COORD97":174711.47,"N_COORD97":2534487.2799999998,"ADDRESS":"長榮路一段２號","OBJECTID":211797},"geometry":{"x":174711.47000000067,"y":2534487.2799999993}},{"attributes":{"ID":211799,"DIS_CODE":0,"TOWNNAME":"歸仁區","LI":"大潭里","LIN":"9鄰","STREET":"長榮路","SECT":"一段","MAREA":" ","LANE":" ","ALLEY":" ","HOUSE_NO":"１０８號","E_COORD97":174848.57000000001,"N_COORD97":2534514.2799999998,"ADDRESS":"長榮路一段１０８號","OBJECTID":211798},"geometry":{"x":174848.57000000123,"y":2534514.2799999993}},{"attributes":{"ID":211800,"DIS_CODE":0,"TOWNNAME":"新化區","LI":"山\u25A0里","LIN":"2鄰","STREET":" ","SECT":" ","MAREA":"頂山\u25A0","LANE":" ","ALLEY":" ","HOUSE_NO":"５４號之２００","E_COORD97":179215.62,"N_COORD97":2546205.2599999998,"ADDRESS":"頂山\u25A0５４號之２００","OBJECTID":211799},"geometry":{"x":179215.62000000011,"y":2546205.2599999998}},{"attributes":{"ID":211801,"DIS_CODE":0,"TOWNNAME":"新化區","LI":"\u25A0拔里","LIN":"2鄰","STREET":" ","SECT":" ","MAREA":"\u25A0拔林","LANE":" ","ALLEY":" ","HOUSE_NO":"９３號","E_COORD97":183501.87,"N_COORD97":2552133.25,"ADDRESS":"\u25A0拔林９３號","OBJECTID":211800},"geometry":{"x":183501.87000000104,"y":2552133.2500000019}}]}