{"displayFieldName":"TOWNNAME","fieldAliases":{"ID":"ID","DIS_CODE":"DIS_CODE","TOWNNAME":"TOWNNAME","LI":"LI","LIN":"LIN","STREET":"STREET","SECT":"SECT","MAREA":"MAREA","LANE":"LANE","ALLEY":"ALLEY","HOUSE_NO":"HOUSE_NO","E_COORD97":"E_COORD97","N_COORD97":"N_COORD97","ADDRESS":"ADDRESS","OBJECTID":"OBJECTID"},"geometryType":"esriGeometryPoint","spatialReference":{"wkid":102443,"latestWkid":3826},"fields":[{"name":"ID","type":"esriFieldTypeDouble","alias":"ID"},{"name":"DIS_CODE","type":"esriFieldTypeInteger","alias":"DIS_CODE"},{"name":"TOWNNAME","type":"esriFieldTypeString","alias":"TOWNNAME","length":8},{"name":"LI","type":"esriFieldTypeString","alias":"LI","length":8},{"name":"LIN","type":"esriFieldTypeString","alias":"LIN","length":12},{"name":"STREET","type":"esriFieldTypeString","alias":"STREET","length":20},{"name":"SECT","type":"esriFieldTypeString","alias":"SECT","length":8},{"name":"MAREA","type":"esriFieldTypeString","alias":"MAREA","length":12},{"name":"LANE","type":"esriFieldTypeString","alias":"LANE","length":10},{"name":"ALLEY","type":"esriFieldTypeString","alias":"ALLEY","length":10},{"name":"HOUSE_NO","type":"esriFieldTypeString","alias":"HOUSE_NO","length":20},{"name":"E_COORD97","type":"esriFieldTypeDouble","alias":"E_COORD97"},{"name":"N_COORD97","type":"esriFieldTypeDouble","alias":"N_COORD97"},{"name":"ADDRESS","type":"esriFieldTypeString","alias":"ADDRESS","length":50},{"name":"OBJECTID","type":"esriFieldTypeOID","alias":"OBJECTID"}],"features":[{"attributes":{"ID":341210,"DIS_CODE":0,"TOWNNAME":"南區","LI":"明德里","LIN":"1鄰","STREET":"大成路","SECT":"一段","MAREA":" ","LANE":"１６８巷","ALLEY":" ","HOUSE_NO":"１４號","E_COORD97":167880.03,"N_COORD97":2541778.6800000002,"ADDRESS":"大成路一段１６８巷１４號","OBJECTID":341201},"geometry":{"x":167880.03000000119,"y":2541778.6800000016}},{"attributes":{"ID":341211,"DIS_CODE":0,"TOWNNAME":"南區","LI":"金華里","LIN":"1鄰","STREET":"金華路","SECT":"二段","MAREA":" ","LANE":"５１巷","ALLEY":" ","HOUSE_NO":"２２號","E_COORD97":167003.98999999999,"N_COORD97":2542088.6800000002,"ADDRESS":"金華路二段５１巷２２號","OBJECTID":341202},"geometry":{"x":167003.99000000115,"y":2542088.6799999997}},{"attributes":{"ID":341212,"DIS_CODE":0,"TOWNNAME":"南區","LI":"金華里","LIN":"1鄰","STREET":"金華路","SECT":"二段","MAREA":" ","LANE":"５１巷","ALLEY":" ","HOUSE_NO":"３號","E_COORD97":167053.97,"N_COORD97":2542065.9399999999,"ADDRESS":"金華路二段５１巷３號","OBJECTID":341203},"geometry":{"x":167053.97000000067,"y":2542065.9400000013}},{"attributes":{"ID":341213,"DIS_CODE":0,"TOWNNAME":"南區","LI":"金華里","LIN":"1鄰","STREET":"金華路","SECT":"二段","MAREA":" ","LANE":"５１巷","ALLEY":" ","HOUSE_NO":"５號","E_COORD97":167050.09,"N_COORD97":2542068.1200000001,"ADDRESS":"金華路二段５１巷５號","OBJECTID":341204},"geometry":{"x":167050.09000000078,"y":2542068.1199999992}},{"attributes":{"ID":341214,"DIS_CODE":0,"TOWNNAME":"南區","LI":"金華里","LIN":"1鄰","STREET":"金華路","SECT":"二段","MAREA":" ","LANE":"５１巷","ALLEY":" ","HOUSE_NO":"６號","E_COORD97":167051.35999999999,"N_COORD97":2542086.2000000002,"ADDRESS":"金華路二段５１巷６號","OBJECTID":341205},"geometry":{"x":167051.36000000034,"y":2542086.200000003}},{"attributes":{"ID":341215,"DIS_CODE":0,"TOWNNAME":"南區","LI":"金華里","LIN":"1鄰","STREET":"金華路","SECT":"二段","MAREA":" ","LANE":"５１巷","ALLEY":" ","HOUSE_NO":"７號","E_COORD97":167045.20000000001,"N_COORD97":2542068.6400000001,"ADDRESS":"金華路二段５１巷７號","OBJECTID":341206},"geometry":{"x":167045.20000000019,"y":2542068.6400000025}},{"attributes":{"ID":341216,"DIS_CODE":0,"TOWNNAME":"南區","LI":"金華里","LIN":"1鄰","STREET":"金華路","SECT":"二段","MAREA":" ","LANE":"５１巷","ALLEY":" ","HOUSE_NO":"８號","E_COORD97":167045.85000000001,"N_COORD97":2542086.2000000002,"ADDRESS":"金華路二段５１巷８號","OBJECTID":341207},"geometry":{"x":167045.8499999987,"y":2542086.200000003}},{"attributes":{"ID":341217,"DIS_CODE":0,"TOWNNAME":"南區","LI":"金華里","LIN":"1鄰","STREET":"金華路","SECT":"二段","MAREA":" ","LANE":"５１巷","ALLEY":" ","HOUSE_NO":"１０號","E_COORD97":167041.54000000001,"N_COORD97":2542086.6899999999,"ADDRESS":"金華路二段５１巷１０號","OBJECTID":341208},"geometry":{"x":167041.54000000004,"y":2542086.6900000032}},{"attributes":{"ID":341218,"DIS_CODE":0,"TOWNNAME":"南區","LI":"金華里","LIN":"1鄰","STREET":"金華路","SECT":"二段","MAREA":" ","LANE":"５１巷","ALLEY":" ","HOUSE_NO":"１１號","E_COORD97":167035.59,"N_COORD97":2542068.7000000002,"ADDRESS":"金華路二段５１巷１１號","OBJECTID":341209},"geometry":{"x":167035.58999999985,"y":2542068.6999999993}},{"attributes":{"ID":341219,"DIS_CODE":0,"TOWNNAME":"南區","LI":"金華里","LIN":"1鄰","STREET":"金華路","SECT":"二段","MAREA":" ","LANE":"５１巷","ALLEY":" ","HOUSE_NO":"１２號","E_COORD97":167037.44,"N_COORD97":2542087.3599999999,"ADDRESS":"金華路二段５１巷１２號","OBJECTID":341210},"geometry":{"x":167037.44000000041,"y":2542087.3599999994}},{"attributes":{"ID":341220,"DIS_CODE":0,"TOWNNAME":"南區","LI":"金華里","LIN":"1鄰","STREET":"金華路","SECT":"二段","MAREA":" ","LANE":"５１巷","ALLEY":" ","HOUSE_NO":"１３號","E_COORD97":167030.85999999999,"N_COORD97":2542068.2200000002,"ADDRESS":"金華路二段５１巷１３號","OBJECTID":341211},"geometry":{"x":167030.86000000034,"y":2542068.2200000025}},{"attributes":{"ID":341221,"DIS_CODE":0,"TOWNNAME":"南區","LI":"金華里","LIN":"1鄰","STREET":"金華路","SECT":"二段","MAREA":" ","LANE":"５１巷","ALLEY":" ","HOUSE_NO":"１４號","E_COORD97":167032.32000000001,"N_COORD97":2542087.77,"ADDRESS":"金華路二段５１巷１４號","OBJECTID":341212},"geometry":{"x":167032.32000000123,"y":2542087.7699999996}},{"attributes":{"ID":341222,"DIS_CODE":0,"TOWNNAME":"南區","LI":"金華里","LIN":"1鄰","STREET":"金華路","SECT":"二段","MAREA":" ","LANE":"５１巷","ALLEY":" ","HOUSE_NO":"１５號","E_COORD97":167026.57000000001,"N_COORD97":2542069.02,"ADDRESS":"金華路二段５１巷１５號","OBJECTID":341213},"geometry":{"x":167026.57000000216,"y":2542069.0200000014}},{"attributes":{"ID":341223,"DIS_CODE":0,"TOWNNAME":"南區","LI":"金華里","LIN":"1鄰","STREET":"金華路","SECT":"二段","MAREA":" ","LANE":"５１巷","ALLEY":" ","HOUSE_NO":"１６號","E_COORD97":167027.32999999999,"N_COORD97":2542087.02,"ADDRESS":"金華路二段５１巷１６號","OBJECTID":341214},"geometry":{"x":167027.33000000007,"y":2542087.0199999996}},{"attributes":{"ID":341224,"DIS_CODE":0,"TOWNNAME":"南區","LI":"金華里","LIN":"1鄰","STREET":"金華路","SECT":"二段","MAREA":" ","LANE":"５１巷","ALLEY":" ","HOUSE_NO":"１７號","E_COORD97":167020.94,"N_COORD97":2542068.7599999998,"ADDRESS":"金華路二段５１巷１７號","OBJECTID":341215},"geometry":{"x":167020.94000000134,"y":2542068.7599999998}},{"attributes":{"ID":341225,"DIS_CODE":0,"TOWNNAME":"南區","LI":"金華里","LIN":"1鄰","STREET":"金華路","SECT":"二段","MAREA":" ","LANE":"５１巷","ALLEY":" ","HOUSE_NO":"１８號","E_COORD97":167023.01000000001,"N_COORD97":2542087.8500000001,"ADDRESS":"金華路二段５１巷１８號","OBJECTID":341216},"geometry":{"x":167023.01000000164,"y":2542087.8499999996}},{"attributes":{"ID":341226,"DIS_CODE":0,"TOWNNAME":"南區","LI":"金華里","LIN":"1鄰","STREET":"金華路","SECT":"二段","MAREA":" ","LANE":"５１巷","ALLEY":" ","HOUSE_NO":"１９號","E_COORD97":167015.57000000001,"N_COORD97":2542067.9500000002,"ADDRESS":"金華路二段５１巷１９號","OBJECTID":341217},"geometry":{"x":167015.5700000003,"y":2542067.9500000011}},{"attributes":{"ID":341227,"DIS_CODE":0,"TOWNNAME":"南區","LI":"金華里","LIN":"1鄰","STREET":"金華路","SECT":"二段","MAREA":" ","LANE":"５１巷","ALLEY":" ","HOUSE_NO":"２０號","E_COORD97":167017.44,"N_COORD97":2542087.77,"ADDRESS":"金華路二段５１巷２０號","OBJECTID":341218},"geometry":{"x":167017.44000000227,"y":2542087.7699999996}},{"attributes":{"ID":341228,"DIS_CODE":0,"TOWNNAME":"南區","LI":"金華里","LIN":"1鄰","STREET":"金華路","SECT":"二段","MAREA":" ","LANE":"５１巷","ALLEY":" ","HOUSE_NO":"２１號","E_COORD97":167001.89000000001,"N_COORD97":2542069.5600000001,"ADDRESS":"金華路二段５１巷２１號","OBJECTID":341219},"geometry":{"x":167001.8900000006,"y":2542069.5600000024}},{"attributes":{"ID":341229,"DIS_CODE":0,"TOWNNAME":"南區","LI":"金華里","LIN":"1鄰","STREET":"金華路","SECT":"二段","MAREA":" ","LANE":"５１巷","ALLEY":" ","HOUSE_NO":"２３號","E_COORD97":166996.26000000001,"N_COORD97":2542070.6299999999,"ADDRESS":"金華路二段５１巷２３號","OBJECTID":341220},"geometry":{"x":166996.26000000071,"y":2542070.6300000008}},{"attributes":{"ID":341230,"DIS_CODE":0,"TOWNNAME":"南區","LI":"金華里","LIN":"1鄰","STREET":"金華路","SECT":"二段","MAREA":" ","LANE":"５１巷","ALLEY":" ","HOUSE_NO":"２５號","E_COORD97":166991.97,"N_COORD97":2542071.1699999999,"ADDRESS":"金華路二段５１巷２５號","OBJECTID":341221},"geometry":{"x":166991.96999999974,"y":2542071.1700000018}},{"attributes":{"ID":341231,"DIS_CODE":0,"TOWNNAME":"南區","LI":"金華里","LIN":"1鄰","STREET":"金華路","SECT":"二段","MAREA":" ","LANE":"５１巷","ALLEY":" ","HOUSE_NO":"２６號","E_COORD97":166993.57999999999,"N_COORD97":2542091.3999999999,"ADDRESS":"金華路二段５１巷２６號","OBJECTID":341222},"geometry":{"x":166993.58000000007,"y":2542091.4000000004}},{"attributes":{"ID":341232,"DIS_CODE":0,"TOWNNAME":"南區","LI":"金華里","LIN":"1鄰","STREET":"金華路","SECT":"二段","MAREA":" ","LANE":"５１巷","ALLEY":" ","HOUSE_NO":"２７號","E_COORD97":166986.87,"N_COORD97":2542071.7000000002,"ADDRESS":"金華路二段５１巷２７號","OBJECTID":341223},"geometry":{"x":166986.86999999918,"y":2542071.6999999993}},{"attributes":{"ID":341233,"DIS_CODE":0,"TOWNNAME":"南區","LI":"金華里","LIN":"1鄰","STREET":"金華路","SECT":"二段","MAREA":" ","LANE":"５１巷","ALLEY":" ","HOUSE_NO":"２８號","E_COORD97":166989.12,"N_COORD97":2542090.4100000001,"ADDRESS":"金華路二段５１巷２８號","OBJECTID":341224},"geometry":{"x":166989.12000000104,"y":2542090.410000002}},{"attributes":{"ID":341234,"DIS_CODE":0,"TOWNNAME":"南區","LI":"金華里","LIN":"1鄰","STREET":"金華路","SECT":"二段","MAREA":" ","LANE":"５１巷","ALLEY":" ","HOUSE_NO":"２９號","E_COORD97":166981.78,"N_COORD97":2542071.7000000002,"ADDRESS":"金華路二段５１巷２９號","OBJECTID":341225},"geometry":{"x":166981.78000000119,"y":2542071.6999999993}},{"attributes":{"ID":341235,"DIS_CODE":0,"TOWNNAME":"白河區","LI":"外角里","LIN":"8鄰","STREET":"光明街","SECT":" ","MAREA":" ","LANE":" ","ALLEY":" ","HOUSE_NO":"７０號","E_COORD97":190565.97,"N_COORD97":2583410.8300000001,"ADDRESS":"光明街７０號","OBJECTID":341226},"geometry":{"x":190565.9700000016,"y":2583410.8300000001}},{"attributes":{"ID":341236,"DIS_CODE":0,"TOWNNAME":"下營區","LI":"西連里","LIN":"5鄰","STREET":" ","SECT":" ","MAREA":"西寮","LANE":" ","ALLEY":" ","HOUSE_NO":"１０號","E_COORD97":174502.39000000001,"N_COORD97":2567493,"ADDRESS":"西寮１０號","OBJECTID":341227},"geometry":{"x":174502.38999999966,"y":2567493.0000000019}},{"attributes":{"ID":341237,"DIS_CODE":0,"TOWNNAME":"白河區","LI":"外角里","LIN":"8鄰","STREET":"光明街","SECT":" ","MAREA":" ","LANE":" ","ALLEY":" ","HOUSE_NO":"７３號","E_COORD97":190550.42999999999,"N_COORD97":2583408.1299999999,"ADDRESS":"光明街７３號","OBJECTID":341228},"geometry":{"x":190550.4299999997,"y":2583408.1299999971}},{"attributes":{"ID":341238,"DIS_CODE":0,"TOWNNAME":"南區","LI":"金華里","LIN":"1鄰","STREET":"金華路","SECT":"二段","MAREA":" ","LANE":"５１巷","ALLEY":" ","HOUSE_NO":"３０號","E_COORD97":166983.42000000001,"N_COORD97":2542091.3999999999,"ADDRESS":"金華路二段５１巷３０號","OBJECTID":341229},"geometry":{"x":166983.42000000086,"y":2542091.4000000004}},{"attributes":{"ID":341239,"DIS_CODE":0,"TOWNNAME":"南區","LI":"金華里","LIN":"1鄰","STREET":"金華路","SECT":"二段","MAREA":" ","LANE":"５１巷","ALLEY":" ","HOUSE_NO":"３１號","E_COORD97":166975.88,"N_COORD97":2542071.4300000002,"ADDRESS":"金華路二段５１巷３１號","OBJECTID":341230},"geometry":{"x":166975.87999999989,"y":2542071.4300000034}},{"attributes":{"ID":341240,"DIS_CODE":0,"TOWNNAME":"南區","LI":"金華里","LIN":"1鄰","STREET":"金華路","SECT":"二段","MAREA":" ","LANE":"５１巷","ALLEY":" ","HOUSE_NO":"３２號","E_COORD97":166977.72,"N_COORD97":2542091.3999999999,"ADDRESS":"金華路二段５１巷３２號","OBJECTID":341231},"geometry":{"x":166977.72000000067,"y":2542091.4000000004}},{"attributes":{"ID":341241,"DIS_CODE":0,"TOWNNAME":"南區","LI":"金華里","LIN":"1鄰","STREET":"金華路","SECT":"二段","MAREA":" ","LANE":"５１巷","ALLEY":" ","HOUSE_NO":"３３號","E_COORD97":166970.51000000001,"N_COORD97":2542072.77,"ADDRESS":"金華路二段５１巷３３號","OBJECTID":341232},"geometry":{"x":166970.51000000164,"y":2542072.7700000014}},{"attributes":{"ID":341242,"DIS_CODE":0,"TOWNNAME":"南區","LI":"金華里","LIN":"1鄰","STREET":"金華路","SECT":"二段","MAREA":" ","LANE":"５１巷","ALLEY":" ","HOUSE_NO":"３４號","E_COORD97":166972.51999999999,"N_COORD97":2542091.3999999999,"ADDRESS":"金華路二段５１巷３４號","OBJECTID":341233},"geometry":{"x":166972.52000000048,"y":2542091.4000000004}},{"attributes":{"ID":341243,"DIS_CODE":0,"TOWNNAME":"南區","LI":"金華里","LIN":"1鄰","STREET":"金華路","SECT":"二段","MAREA":" ","LANE":"５１巷","ALLEY":" ","HOUSE_NO":"３５號","E_COORD97":166965.69,"N_COORD97":2542072.2400000002,"ADDRESS":"金華路二段５１巷３５號","OBJECTID":341234},"geometry":{"x":166965.69000000041,"y":2542072.2400000002}},{"attributes":{"ID":341244,"DIS_CODE":0,"TOWNNAME":"南區","LI":"金華里","LIN":"1鄰","STREET":"金華路","SECT":"二段","MAREA":" ","LANE":"５１巷","ALLEY":" ","HOUSE_NO":"３６號","E_COORD97":166967.32000000001,"N_COORD97":2542092.3900000001,"ADDRESS":"金華路二段５１巷３６號","OBJECTID":341235},"geometry":{"x":166967.32000000123,"y":2542092.3900000006}},{"attributes":{"ID":341245,"DIS_CODE":0,"TOWNNAME":"南區","LI":"金華里","LIN":"1鄰","STREET":"金華路","SECT":"二段","MAREA":" ","LANE":"５１巷","ALLEY":" ","HOUSE_NO":"３７號","E_COORD97":166959.51999999999,"N_COORD97":2542072.2400000002,"ADDRESS":"金華路二段５１巷３７號","OBJECTID":341236},"geometry":{"x":166959.51999999955,"y":2542072.2400000002}},{"attributes":{"ID":341246,"DIS_CODE":0,"TOWNNAME":"南區","LI":"建南里","LIN":"1鄰","STREET":"中華南路","SECT":"二段","MAREA":" ","LANE":"５３巷","ALLEY":" ","HOUSE_NO":"１０２號","E_COORD97":167358.54999999999,"N_COORD97":2540083.1200000001,"ADDRESS":"中華南路二段５３巷１０２號","OBJECTID":341237},"geometry":{"x":167358.55000000075,"y":2540083.1200000029}},{"attributes":{"ID":341247,"DIS_CODE":0,"TOWNNAME":"南區","LI":"建南里","LIN":"1鄰","STREET":"中華南路","SECT":"二段","MAREA":" ","LANE":"５３巷","ALLEY":" ","HOUSE_NO":"１０６號","E_COORD97":167357.17000000001,"N_COORD97":2540074.3399999999,"ADDRESS":"中華南路二段５３巷１０６號","OBJECTID":341238},"geometry":{"x":167357.16999999993,"y":2540074.3399999999}},{"attributes":{"ID":341248,"DIS_CODE":0,"TOWNNAME":"南區","LI":"建南里","LIN":"1鄰","STREET":"中華南路","SECT":"二段","MAREA":" ","LANE":"５３巷","ALLEY":" ","HOUSE_NO":"１０８號","E_COORD97":167357.45000000001,"N_COORD97":2540069.9500000002,"ADDRESS":"中華南路二段５３巷１０８號","OBJECTID":341239},"geometry":{"x":167357.45000000019,"y":2540069.9499999993}},{"attributes":{"ID":341249,"DIS_CODE":0,"TOWNNAME":"南區","LI":"建南里","LIN":"1鄰","STREET":"中華南路","SECT":"二段","MAREA":" ","LANE":"５３巷","ALLEY":" ","HOUSE_NO":"１１０號","E_COORD97":167358.26999999999,"N_COORD97":2540065.5600000001,"ADDRESS":"中華南路二段５３巷１１０號","OBJECTID":341240},"geometry":{"x":167358.27000000142,"y":2540065.5600000024}},{"attributes":{"ID":341250,"DIS_CODE":0,"TOWNNAME":"下營區","LI":"西連里","LIN":"5鄰","STREET":" ","SECT":" ","MAREA":"西寮","LANE":" ","ALLEY":" ","HOUSE_NO":"１２號之１","E_COORD97":174482.01999999999,"N_COORD97":2567488.7599999998,"ADDRESS":"西寮１２號之１","OBJECTID":341241},"geometry":{"x":174482.02000000048,"y":2567488.7599999998}},{"attributes":{"ID":341251,"DIS_CODE":0,"TOWNNAME":"南區","LI":"建南里","LIN":"1鄰","STREET":"中華南路","SECT":"二段","MAREA":" ","LANE":"５３巷","ALLEY":" ","HOUSE_NO":"１１１號","E_COORD97":167380.57999999999,"N_COORD97":2540057.6899999999,"ADDRESS":"中華南路二段５３巷１１１號","OBJECTID":341242},"geometry":{"x":167380.58000000194,"y":2540057.6899999995}},{"attributes":{"ID":341252,"DIS_CODE":0,"TOWNNAME":"南區","LI":"建南里","LIN":"1鄰","STREET":"中華南路","SECT":"二段","MAREA":" ","LANE":"５３巷","ALLEY":" ","HOUSE_NO":"１１２號","E_COORD97":167357.72,"N_COORD97":2540061.1699999999,"ADDRESS":"中華南路二段５３巷１１２號","OBJECTID":341243},"geometry":{"x":167357.72000000067,"y":2540061.1700000018}},{"attributes":{"ID":341253,"DIS_CODE":0,"TOWNNAME":"南區","LI":"建南里","LIN":"1鄰","STREET":"中華南路","SECT":"二段","MAREA":" ","LANE":"５３巷","ALLEY":" ","HOUSE_NO":"１１３號","E_COORD97":167380.07999999999,"N_COORD97":2540052.23,"ADDRESS":"中華南路二段５３巷１１３號","OBJECTID":341244},"geometry":{"x":167380.08000000007,"y":2540052.2300000004}},{"attributes":{"ID":341254,"DIS_CODE":0,"TOWNNAME":"南區","LI":"建南里","LIN":"1鄰","STREET":"中華南路","SECT":"二段","MAREA":" ","LANE":"５３巷","ALLEY":" ","HOUSE_NO":"１１４號","E_COORD97":167358,"N_COORD97":2540056.23,"ADDRESS":"中華南路二段５３巷１１４號","OBJECTID":341245},"geometry":{"x":167358.00000000093,"y":2540056.2299999986}},{"attributes":{"ID":341255,"DIS_CODE":0,"TOWNNAME":"南區","LI":"建南里","LIN":"1鄰","STREET":"中華南路","SECT":"二段","MAREA":" ","LANE":"５３巷","ALLEY":" ","HOUSE_NO":"１１５號","E_COORD97":167380.07999999999,"N_COORD97":2540047.52,"ADDRESS":"中華南路二段５３巷１１５號","OBJECTID":341246},"geometry":{"x":167380.08000000007,"y":2540047.5200000014}},{"attributes":{"ID":341256,"DIS_CODE":0,"TOWNNAME":"南區","LI":"建南里","LIN":"1鄰","STREET":"中華南路","SECT":"二段","MAREA":" ","LANE":"５３巷","ALLEY":" ","HOUSE_NO":"１１６號","E_COORD97":167357.72,"N_COORD97":2540051.5600000001,"ADDRESS":"中華南路二段５３巷１１６號","OBJECTID":341247},"geometry":{"x":167357.72000000067,"y":2540051.5600000024}},{"attributes":{"ID":341257,"DIS_CODE":0,"TOWNNAME":"南區","LI":"建南里","LIN":"1鄰","STREET":"中華南路","SECT":"二段","MAREA":" ","LANE":"５３巷","ALLEY":" ","HOUSE_NO":"１１７號","E_COORD97":167379.82999999999,"N_COORD97":2540042.7999999998,"ADDRESS":"中華南路二段５３巷１１７號","OBJECTID":341248},"geometry":{"x":167379.83000000007,"y":2540042.8000000045}},{"attributes":{"ID":341258,"DIS_CODE":0,"TOWNNAME":"南區","LI":"建南里","LIN":"1鄰","STREET":"中華南路","SECT":"二段","MAREA":" ","LANE":"５３巷","ALLEY":" ","HOUSE_NO":"１１８號","E_COORD97":167358.26999999999,"N_COORD97":2540046.8999999999,"ADDRESS":"中華南路二段５３巷１１８號","OBJECTID":341249},"geometry":{"x":167358.27000000142,"y":2540046.9000000004}},{"attributes":{"ID":341259,"DIS_CODE":0,"TOWNNAME":"南區","LI":"建南里","LIN":"1鄰","STREET":"中華南路","SECT":"二段","MAREA":" ","LANE":"５３巷","ALLEY":" ","HOUSE_NO":"１１９號","E_COORD97":167379.59,"N_COORD97":2540038.8300000001,"ADDRESS":"中華南路二段５３巷１１９號","OBJECTID":341250},"geometry":{"x":167379.58999999985,"y":2540038.8300000019}},{"attributes":{"ID":341260,"DIS_CODE":0,"TOWNNAME":"南區","LI":"建南里","LIN":"1鄰","STREET":"中華南路","SECT":"二段","MAREA":" ","LANE":"５３巷","ALLEY":" ","HOUSE_NO":"１２０號","E_COORD97":167358.54999999999,"N_COORD97":2540042.23,"ADDRESS":"中華南路二段５３巷１２０號","OBJECTID":341251},"geometry":{"x":167358.55000000075,"y":2540042.2300000004}},{"attributes":{"ID":341261,"DIS_CODE":0,"TOWNNAME":"南區","LI":"建南里","LIN":"1鄰","STREET":"中華南路","SECT":"二段","MAREA":" ","LANE":"５３巷","ALLEY":" ","HOUSE_NO":"１２１號","E_COORD97":167379.59,"N_COORD97":2540033.8599999999,"ADDRESS":"中華南路二段５３巷１２１號","OBJECTID":341252},"geometry":{"x":167379.58999999985,"y":2540033.8599999975}},{"attributes":{"ID":341262,"DIS_CODE":0,"TOWNNAME":"南區","LI":"建南里","LIN":"1鄰","STREET":"中華南路","SECT":"二段","MAREA":" ","LANE":"５３巷","ALLEY":" ","HOUSE_NO":"１２２號","E_COORD97":167359.37,"N_COORD97":2540037.5699999998,"ADDRESS":"中華南路二段５３巷１２２號","OBJECTID":341253},"geometry":{"x":167359.37000000011,"y":2540037.5700000022}},{"attributes":{"ID":341263,"DIS_CODE":0,"TOWNNAME":"南區","LI":"建南里","LIN":"1鄰","STREET":"中華南路","SECT":"二段","MAREA":" ","LANE":"５３巷","ALLEY":" ","HOUSE_NO":"１２８號","E_COORD97":167358.81,"N_COORD97":2540023.7400000002,"ADDRESS":"中華南路二段５３巷１２８號","OBJECTID":341254},"geometry":{"x":167358.81000000052,"y":2540023.7400000021}},{"attributes":{"ID":341264,"DIS_CODE":0,"TOWNNAME":"南區","LI":"建南里","LIN":"1鄰","STREET":"中華南路","SECT":"二段","MAREA":" ","LANE":"５３巷","ALLEY":" ","HOUSE_NO":"１２９號","E_COORD97":167379.82999999999,"N_COORD97":2540015.7599999998,"ADDRESS":"中華南路二段５３巷１２９號","OBJECTID":341255},"geometry":{"x":167379.83000000007,"y":2540015.7600000016}},{"attributes":{"ID":341265,"DIS_CODE":0,"TOWNNAME":"南區","LI":"建南里","LIN":"1鄰","STREET":"中華南路","SECT":"二段","MAREA":" ","LANE":"５３巷","ALLEY":" ","HOUSE_NO":"１３０號","E_COORD97":167359.09,"N_COORD97":2540019.8999999999,"ADDRESS":"中華南路二段５３巷１３０號","OBJECTID":341256},"geometry":{"x":167359.08999999985,"y":2540019.9000000004}},{"attributes":{"ID":341266,"DIS_CODE":0,"TOWNNAME":"南區","LI":"建南里","LIN":"1鄰","STREET":"中華南路","SECT":"二段","MAREA":" ","LANE":"５３巷","ALLEY":" ","HOUSE_NO":"１３１號","E_COORD97":167379.82999999999,"N_COORD97":2540011.29,"ADDRESS":"中華南路二段５３巷１３１號","OBJECTID":341257},"geometry":{"x":167379.83000000007,"y":2540011.290000001}},{"attributes":{"ID":341267,"DIS_CODE":0,"TOWNNAME":"南區","LI":"建南里","LIN":"1鄰","STREET":"中華南路","SECT":"二段","MAREA":" ","LANE":"５３巷","ALLEY":" ","HOUSE_NO":"１３２號","E_COORD97":167358.81,"N_COORD97":2540015.5099999998,"ADDRESS":"中華南路二段５３巷１３２號","OBJECTID":341258},"geometry":{"x":167358.81000000052,"y":2540015.5099999998}},{"attributes":{"ID":341268,"DIS_CODE":0,"TOWNNAME":"南區","LI":"建南里","LIN":"1鄰","STREET":"中華南路","SECT":"二段","MAREA":" ","LANE":"５３巷","ALLEY":" ","HOUSE_NO":"１３３號","E_COORD97":167379.34,"N_COORD97":2540007.0699999998,"ADDRESS":"中華南路二段５３巷１３３號","OBJECTID":341259},"geometry":{"x":167379.34000000078,"y":2540007.0700000022}},{"attributes":{"ID":341269,"DIS_CODE":0,"TOWNNAME":"南區","LI":"建南里","LIN":"1鄰","STREET":"中華南路","SECT":"二段","MAREA":" ","LANE":"５３巷","ALLEY":" ","HOUSE_NO":"１３４號","E_COORD97":167358.81,"N_COORD97":2540010.8399999999,"ADDRESS":"中華南路二段５３巷１３４號","OBJECTID":341260},"geometry":{"x":167358.81000000052,"y":2540010.8400000036}},{"attributes":{"ID":341270,"DIS_CODE":0,"TOWNNAME":"南區","LI":"建南里","LIN":"1鄰","STREET":"中華南路","SECT":"二段","MAREA":" ","LANE":"５３巷","ALLEY":" ","HOUSE_NO":"１３６號","E_COORD97":167359.35999999999,"N_COORD97":2540006.1800000002,"ADDRESS":"中華南路二段５３巷１３６號","OBJECTID":341261},"geometry":{"x":167359.36000000127,"y":2540006.1800000016}},{"attributes":{"ID":341271,"DIS_CODE":0,"TOWNNAME":"南區","LI":"建南里","LIN":"1鄰","STREET":"中華南路","SECT":"二段","MAREA":" ","LANE":"５３巷","ALLEY":" ","HOUSE_NO":"１３８號","E_COORD97":167359.35999999999,"N_COORD97":2540001.2400000002,"ADDRESS":"中華南路二段５３巷１３８號","OBJECTID":341262},"geometry":{"x":167359.36000000127,"y":2540001.2400000002}},{"attributes":{"ID":341272,"DIS_CODE":0,"TOWNNAME":"南區","LI":"建南里","LIN":"1鄰","STREET":"中華南路","SECT":"二段","MAREA":" ","LANE":"５３巷","ALLEY":" ","HOUSE_NO":"１４０號","E_COORD97":167359.09,"N_COORD97":2539997.3999999999,"ADDRESS":"中華南路二段５３巷１４０號","OBJECTID":341263},"geometry":{"x":167359.08999999985,"y":2539997.3999999985}},{"attributes":{"ID":341273,"DIS_CODE":0,"TOWNNAME":"南區","LI":"建南里","LIN":"1鄰","STREET":"中華南路","SECT":"二段","MAREA":" ","LANE":"５３巷","ALLEY":" ","HOUSE_NO":"１４２號","E_COORD97":167359.09,"N_COORD97":2539993.0099999998,"ADDRESS":"中華南路二段５３巷１４２號","OBJECTID":341264},"geometry":{"x":167359.08999999985,"y":2539993.0100000035}},{"attributes":{"ID":341274,"DIS_CODE":0,"TOWNNAME":"南區","LI":"建南里","LIN":"1鄰","STREET":"中華南路","SECT":"二段","MAREA":" ","LANE":"５３巷","ALLEY":" ","HOUSE_NO":"１４４號","E_COORD97":167360.19,"N_COORD97":2539987.79,"ADDRESS":"中華南路二段５３巷１４４號","OBJECTID":341265},"geometry":{"x":167360.19000000134,"y":2539987.790000001}},{"attributes":{"ID":341275,"DIS_CODE":0,"TOWNNAME":"南區","LI":"建南里","LIN":"1鄰","STREET":"中華南路","SECT":"二段","MAREA":" ","LANE":"５３巷","ALLEY":" ","HOUSE_NO":"１４６號","E_COORD97":167360.19,"N_COORD97":2539983.9500000002,"ADDRESS":"中華南路二段５３巷１４６號","OBJECTID":341266},"geometry":{"x":167360.19000000134,"y":2539983.9500000011}},{"attributes":{"ID":341276,"DIS_CODE":0,"TOWNNAME":"南區","LI":"建南里","LIN":"1鄰","STREET":"中華南路","SECT":"二段","MAREA":" ","LANE":"５３巷","ALLEY":" ","HOUSE_NO":"１０４號","E_COORD97":167357.17000000001,"N_COORD97":2540078.4500000002,"ADDRESS":"中華南路二段５３巷１０４號","OBJECTID":341267},"geometry":{"x":167357.16999999993,"y":2540078.4500000011}},{"attributes":{"ID":341277,"DIS_CODE":0,"TOWNNAME":"南區","LI":"喜東里","LIN":"1鄰","STREET":"明興路","SECT":" ","MAREA":" ","LANE":"３２１巷","ALLEY":" ","HOUSE_NO":"１０號","E_COORD97":166448.51999999999,"N_COORD97":2539048.9100000001,"ADDRESS":"明興路３２１巷１０號","OBJECTID":341268},"geometry":{"x":166448.52000000048,"y":2539048.910000002}},{"attributes":{"ID":341278,"DIS_CODE":0,"TOWNNAME":"南區","LI":"喜東里","LIN":"1鄰","STREET":"明興路","SECT":" ","MAREA":" ","LANE":"３２１巷","ALLEY":" ","HOUSE_NO":"３８號","E_COORD97":166659.14999999999,"N_COORD97":2539061.8700000001,"ADDRESS":"明興路３２１巷３８號","OBJECTID":341269},"geometry":{"x":166659.15000000037,"y":2539061.870000001}},{"attributes":{"ID":341279,"DIS_CODE":0,"TOWNNAME":"南區","LI":"省躬里","LIN":"1鄰","STREET":"灣裡路","SECT":" ","MAREA":" ","LANE":"８８巷","ALLEY":" ","HOUSE_NO":"７１號","E_COORD97":165868.47,"N_COORD97":2536754.7400000002,"ADDRESS":"灣裡路８８巷７１號","OBJECTID":341270},"geometry":{"x":165868.46999999974,"y":2536754.7400000021}},{"attributes":{"ID":341280,"DIS_CODE":0,"TOWNNAME":"南區","LI":"省躬里","LIN":"1鄰","STREET":"灣裡路","SECT":" ","MAREA":" ","LANE":"８８巷","ALLEY":" ","HOUSE_NO":"７３號","E_COORD97":165898.70000000001,"N_COORD97":2536753.6499999999,"ADDRESS":"灣裡路８８巷７３號","OBJECTID":341271},"geometry":{"x":165898.70000000112,"y":2536753.6500000004}},{"attributes":{"ID":341281,"DIS_CODE":0,"TOWNNAME":"南區","LI":"省躬里","LIN":"1鄰","STREET":"灣裡路","SECT":" ","MAREA":" ","LANE":"８８巷","ALLEY":" ","HOUSE_NO":"７７號","E_COORD97":165869.56,"N_COORD97":2536745.2200000002,"ADDRESS":"灣裡路８８巷７７號","OBJECTID":341272},"geometry":{"x":165869.55999999959,"y":2536745.2200000025}},{"attributes":{"ID":341282,"DIS_CODE":0,"TOWNNAME":"南區","LI":"省躬里","LIN":"1鄰","STREET":"灣裡路","SECT":" ","MAREA":" ","LANE":"８８巷","ALLEY":" ","HOUSE_NO":"７９號","E_COORD97":165872.54999999999,"N_COORD97":2536735.23,"ADDRESS":"灣裡路８８巷７９號","OBJECTID":341273},"geometry":{"x":165872.55000000075,"y":2536735.2300000023}},{"attributes":{"ID":341283,"DIS_CODE":0,"TOWNNAME":"南區","LI":"省躬里","LIN":"1鄰","STREET":"灣裡路","SECT":" ","MAREA":" ","LANE":"８８巷","ALLEY":" ","HOUSE_NO":"８１號","E_COORD97":165889.16,"N_COORD97":2536736.8599999999,"ADDRESS":"灣裡路８８巷８１號","OBJECTID":341274},"geometry":{"x":165889.16000000015,"y":2536736.8600000013}},{"attributes":{"ID":341284,"DIS_CODE":0,"TOWNNAME":"南區","LI":"省躬里","LIN":"1鄰","STREET":"灣裡路","SECT":" ","MAREA":" ","LANE":"８８巷","ALLEY":" ","HOUSE_NO":"８３號","E_COORD97":165908.76999999999,"N_COORD97":2536724.3500000001,"ADDRESS":"灣裡路８８巷８３號","OBJECTID":341275},"geometry":{"x":165908.76999999955,"y":2536724.3499999996}},{"attributes":{"ID":341285,"DIS_CODE":0,"TOWNNAME":"南區","LI":"省躬里","LIN":"1鄰","STREET":"灣裡路","SECT":" ","MAREA":" ","LANE":"８８巷","ALLEY":" ","HOUSE_NO":"８５號","E_COORD97":165889.70999999999,"N_COORD97":2536721.0899999999,"ADDRESS":"灣裡路８８巷８５號","OBJECTID":341276},"geometry":{"x":165889.71000000089,"y":2536721.0900000017}},{"attributes":{"ID":341286,"DIS_CODE":0,"TOWNNAME":"南區","LI":"省躬里","LIN":"1鄰","STREET":"灣裡路","SECT":" ","MAREA":" ","LANE":"８８巷","ALLEY":" ","HOUSE_NO":"８７號","E_COORD97":165869.92999999999,"N_COORD97":2536692.3100000001,"ADDRESS":"灣裡路８８巷８７號","OBJECTID":341277},"geometry":{"x":165869.9299999997,"y":2536692.3100000005}},{"attributes":{"ID":341287,"DIS_CODE":0,"TOWNNAME":"新化區","LI":"豐榮里","LIN":"1鄰","STREET":"大智路","SECT":" ","MAREA":" ","LANE":"２８巷","ALLEY":" ","HOUSE_NO":"７號","E_COORD97":178257.67999999999,"N_COORD97":2548411.25,"ADDRESS":"大智路２８巷７號","OBJECTID":341278},"geometry":{"x":178257.68000000063,"y":2548411.2500000019}},{"attributes":{"ID":341288,"DIS_CODE":0,"TOWNNAME":"新化區","LI":"豐榮里","LIN":"1鄰","STREET":"大智路","SECT":" ","MAREA":" ","LANE":"２８巷","ALLEY":" ","HOUSE_NO":"１０號","E_COORD97":178268.03,"N_COORD97":2548418.25,"ADDRESS":"大智路２８巷１０號","OBJECTID":341279},"geometry":{"x":178268.03000000119,"y":2548418.25}},{"attributes":{"ID":341289,"DIS_CODE":0,"TOWNNAME":"新化區","LI":"豐榮里","LIN":"1鄰","STREET":"中山路","SECT":" ","MAREA":" ","LANE":"６２７巷","ALLEY":" ","HOUSE_NO":"７號","E_COORD97":178214.31,"N_COORD97":2548455.25,"ADDRESS":"中山路６２７巷７號","OBJECTID":341280},"geometry":{"x":178214.31000000052,"y":2548455.2500000019}},{"attributes":{"ID":341290,"DIS_CODE":0,"TOWNNAME":"新化區","LI":"豐榮里","LIN":"1鄰","STREET":"中山路","SECT":" ","MAREA":" ","LANE":"６２７巷","ALLEY":" ","HOUSE_NO":"６號","E_COORD97":178204.70999999999,"N_COORD97":2548473.25,"ADDRESS":"中山路６２７巷６號","OBJECTID":341281},"geometry":{"x":178204.70999999996,"y":2548473.25}},{"attributes":{"ID":341291,"DIS_CODE":0,"TOWNNAME":"新化區","LI":"豐榮里","LIN":"1鄰","STREET":"中山路","SECT":" ","MAREA":" ","LANE":"６２７巷","ALLEY":" ","HOUSE_NO":"９號","E_COORD97":178214.20999999999,"N_COORD97":2548451.25,"ADDRESS":"中山路６２７巷９號","OBJECTID":341282},"geometry":{"x":178214.21000000089,"y":2548451.2500000019}},{"attributes":{"ID":341292,"DIS_CODE":0,"TOWNNAME":"新化區","LI":"豐榮里","LIN":"1鄰","STREET":"中山路","SECT":" ","MAREA":" ","LANE":"６２７巷","ALLEY":" ","HOUSE_NO":"４號","E_COORD97":178205.10999999999,"N_COORD97":2548477.25,"ADDRESS":"中山路６２７巷４號","OBJECTID":341283},"geometry":{"x":178205.11000000127,"y":2548477.2499999981}},{"attributes":{"ID":341293,"DIS_CODE":0,"TOWNNAME":"新化區","LI":"豐榮里","LIN":"1鄰","STREET":"中山路","SECT":" ","MAREA":" ","LANE":"６２７巷","ALLEY":" ","HOUSE_NO":"５號","E_COORD97":178214.70999999999,"N_COORD97":2548459.25,"ADDRESS":"中山路６２７巷５號","OBJECTID":341284},"geometry":{"x":178214.70999999996,"y":2548459.25}},{"attributes":{"ID":341294,"DIS_CODE":0,"TOWNNAME":"新化區","LI":"豐榮里","LIN":"1鄰","STREET":"大智路","SECT":" ","MAREA":" ","LANE":"２８巷","ALLEY":" ","HOUSE_NO":"１６號","E_COORD97":178256.82999999999,"N_COORD97":2548427.25,"ADDRESS":"大智路２８巷１６號","OBJECTID":341285},"geometry":{"x":178256.83000000194,"y":2548427.2500000019}},{"attributes":{"ID":341295,"DIS_CODE":0,"TOWNNAME":"新化區","LI":"豐榮里","LIN":"1鄰","STREET":"大智路","SECT":" ","MAREA":" ","LANE":"２８巷","ALLEY":" ","HOUSE_NO":"１２號","E_COORD97":178264.73000000001,"N_COORD97":2548420.25,"ADDRESS":"大智路２８巷１２號","OBJECTID":341286},"geometry":{"x":178264.73000000231,"y":2548420.2500000019}},{"attributes":{"ID":341296,"DIS_CODE":0,"TOWNNAME":"新化區","LI":"東榮里","LIN":"1鄰","STREET":"中興路","SECT":" ","MAREA":" ","LANE":"１０４巷","ALLEY":" ","HOUSE_NO":"９號","E_COORD97":181856.41,"N_COORD97":2547342.25,"ADDRESS":"中興路１０４巷９號","OBJECTID":341287},"geometry":{"x":181856.41000000015,"y":2547342.2500000019}},{"attributes":{"ID":341297,"DIS_CODE":0,"TOWNNAME":"新化區","LI":"豐榮里","LIN":"1鄰","STREET":"中山路","SECT":" ","MAREA":" ","LANE":"６２７巷","ALLEY":" ","HOUSE_NO":"２號","E_COORD97":178205.31,"N_COORD97":2548481.25,"ADDRESS":"中山路６２７巷２號","OBJECTID":341288},"geometry":{"x":178205.30999999959,"y":2548481.2500000019}},{"attributes":{"ID":341298,"DIS_CODE":0,"TOWNNAME":"東區","LI":"仁和里","LIN":"1鄰","STREET":"仁和路","SECT":" ","MAREA":" ","LANE":"１０７巷","ALLEY":" ","HOUSE_NO":"１０號","E_COORD97":171394.45000000001,"N_COORD97":2541349.8399999999,"ADDRESS":"仁和路１０７巷１０號","OBJECTID":341289},"geometry":{"x":171394.45000000112,"y":2541349.8399999999}},{"attributes":{"ID":341299,"DIS_CODE":0,"TOWNNAME":"東區","LI":"仁和里","LIN":"1鄰","STREET":"仁和路","SECT":" ","MAREA":" ","LANE":"１０７巷","ALLEY":" ","HOUSE_NO":"４３號","E_COORD97":171462.03,"N_COORD97":2541369.3100000001,"ADDRESS":"仁和路１０７巷４３號","OBJECTID":341290},"geometry":{"x":171462.03000000119,"y":2541369.3100000024}},{"attributes":{"ID":341300,"DIS_CODE":0,"TOWNNAME":"東區","LI":"仁和里","LIN":"1鄰","STREET":"仁和路","SECT":" ","MAREA":" ","LANE":"１０７巷","ALLEY":" ","HOUSE_NO":"２８號","E_COORD97":171433.62,"N_COORD97":2541351.3199999998,"ADDRESS":"仁和路１０７巷２８號","OBJECTID":341291},"geometry":{"x":171433.62000000104,"y":2541351.3200000022}},{"attributes":{"ID":341301,"DIS_CODE":0,"TOWNNAME":"東區","LI":"仁和里","LIN":"1鄰","STREET":"仁和路","SECT":" ","MAREA":" ","LANE":"１０７巷","ALLEY":" ","HOUSE_NO":"８號","E_COORD97":171390.54999999999,"N_COORD97":2541351.8799999999,"ADDRESS":"仁和路１０７巷８號","OBJECTID":341292},"geometry":{"x":171390.54999999981,"y":2541351.879999999}},{"attributes":{"ID":341302,"DIS_CODE":0,"TOWNNAME":"東區","LI":"仁和里","LIN":"1鄰","STREET":"仁和路","SECT":" ","MAREA":" ","LANE":"１０７巷","ALLEY":" ","HOUSE_NO":"１２號","E_COORD97":171398.17000000001,"N_COORD97":2541352.25,"ADDRESS":"仁和路１０７巷１２號","OBJECTID":341293},"geometry":{"x":171398.17000000086,"y":2541352.2500000019}},{"attributes":{"ID":341303,"DIS_CODE":0,"TOWNNAME":"東區","LI":"仁和里","LIN":"1鄰","STREET":"仁和路","SECT":" ","MAREA":" ","LANE":"１０７巷","ALLEY":" ","HOUSE_NO":"１４號","E_COORD97":171401.14000000001,"N_COORD97":2541349.4700000002,"ADDRESS":"仁和路１０７巷１４號","OBJECTID":341294},"geometry":{"x":171401.1400000006,"y":2541349.4700000007}},{"attributes":{"ID":341304,"DIS_CODE":0,"TOWNNAME":"東區","LI":"仁和里","LIN":"1鄰","STREET":"仁和路","SECT":" ","MAREA":" ","LANE":"１０７巷","ALLEY":" ","HOUSE_NO":"１６號","E_COORD97":171404.85000000001,"N_COORD97":2541351.5099999998,"ADDRESS":"仁和路１０７巷１６號","OBJECTID":341295},"geometry":{"x":171404.85000000056,"y":2541351.5099999998}},{"attributes":{"ID":341305,"DIS_CODE":0,"TOWNNAME":"東區","LI":"仁和里","LIN":"1鄰","STREET":"仁和路","SECT":" ","MAREA":" ","LANE":"１０７巷","ALLEY":" ","HOUSE_NO":"１８號","E_COORD97":171408.75,"N_COORD97":2541349.4700000002,"ADDRESS":"仁和路１０７巷１８號","OBJECTID":341296},"geometry":{"x":171408.75000000186,"y":2541349.4700000007}},{"attributes":{"ID":341306,"DIS_CODE":0,"TOWNNAME":"東山區","LI":"科里里","LIN":"13鄰","STREET":" ","SECT":" ","MAREA":"枋子林","LANE":" ","ALLEY":" ","HOUSE_NO":"１號之１３","E_COORD97":187910.25790999999,"N_COORD97":2576880.3807899999,"ADDRESS":"枋子林１號之１３","OBJECTID":341297},"geometry":{"x":187910.25791000016,"y":2576880.3807899989}},{"attributes":{"ID":341307,"DIS_CODE":0,"TOWNNAME":"東區","LI":"仁和里","LIN":"1鄰","STREET":"仁和路","SECT":" ","MAREA":" ","LANE":"１０７巷","ALLEY":" ","HOUSE_NO":"２０號","E_COORD97":171412.45999999999,"N_COORD97":2541351.6899999999,"ADDRESS":"仁和路１０７巷２０號","OBJECTID":341298},"geometry":{"x":171412.46000000183,"y":2541351.6900000013}},{"attributes":{"ID":341308,"DIS_CODE":0,"TOWNNAME":"東區","LI":"仁和里","LIN":"1鄰","STREET":"仁和路","SECT":" ","MAREA":" ","LANE":"１０７巷","ALLEY":" ","HOUSE_NO":"２２號","E_COORD97":171415.98999999999,"N_COORD97":2541349.4700000002,"ADDRESS":"仁和路１０７巷２２號","OBJECTID":341299},"geometry":{"x":171415.99000000115,"y":2541349.4700000007}},{"attributes":{"ID":341309,"DIS_CODE":0,"TOWNNAME":"東區","LI":"仁和里","LIN":"1鄰","STREET":"仁和路","SECT":" ","MAREA":" ","LANE":"１０７巷","ALLEY":" ","HOUSE_NO":"２４號","E_COORD97":171418.95999999999,"N_COORD97":2541350.9500000002,"ADDRESS":"仁和路１０７巷２４號","OBJECTID":341300},"geometry":{"x":171418.95999999996,"y":2541350.9499999993}},{"attributes":{"ID":341310,"DIS_CODE":0,"TOWNNAME":"東區","LI":"仁和里","LIN":"1鄰","STREET":"仁和路","SECT":" ","MAREA":" ","LANE":"１０７巷","ALLEY":" ","HOUSE_NO":"２６號","E_COORD97":171423.04000000001,"N_COORD97":2541353.1699999999,"ADDRESS":"仁和路１０７巷２６號","OBJECTID":341301},"geometry":{"x":171423.04000000004,"y":2541353.1699999999}},{"attributes":{"ID":341311,"DIS_CODE":0,"TOWNNAME":"東區","LI":"仁和里","LIN":"1鄰","STREET":"仁和路","SECT":" ","MAREA":" ","LANE":"１０７巷","ALLEY":" ","HOUSE_NO":"７號","E_COORD97":171377.75,"N_COORD97":2541366.8999999999,"ADDRESS":"仁和路１０７巷７號","OBJECTID":341302},"geometry":{"x":171377.75,"y":2541366.9000000004}},{"attributes":{"ID":341312,"DIS_CODE":0,"TOWNNAME":"東區","LI":"仁和里","LIN":"1鄰","STREET":"仁和路","SECT":" ","MAREA":" ","LANE":"１０７巷","ALLEY":" ","HOUSE_NO":"９號","E_COORD97":171381.45999999999,"N_COORD97":2541367.6400000001,"ADDRESS":"仁和路１０７巷９號","OBJECTID":341303},"geometry":{"x":171381.45999999996,"y":2541367.6400000006}},{"attributes":{"ID":341313,"DIS_CODE":0,"TOWNNAME":"東區","LI":"仁和里","LIN":"1鄰","STREET":"仁和路","SECT":" ","MAREA":" ","LANE":"１０７巷","ALLEY":" ","HOUSE_NO":"１１號","E_COORD97":171384.98999999999,"N_COORD97":2541367.8300000001,"ADDRESS":"仁和路１０７巷１１號","OBJECTID":341304},"geometry":{"x":171384.99000000022,"y":2541367.8300000019}},{"attributes":{"ID":341314,"DIS_CODE":0,"TOWNNAME":"東區","LI":"仁和里","LIN":"1鄰","STREET":"仁和路","SECT":" ","MAREA":" ","LANE":"１０７巷","ALLEY":" ","HOUSE_NO":"１３號","E_COORD97":171388.51000000001,"N_COORD97":2541368.75,"ADDRESS":"仁和路１０７巷１３號","OBJECTID":341305},"geometry":{"x":171388.51000000071,"y":2541368.7500000019}},{"attributes":{"ID":341315,"DIS_CODE":0,"TOWNNAME":"東區","LI":"仁和里","LIN":"1鄰","STREET":"仁和路","SECT":" ","MAREA":" ","LANE":"１０７巷","ALLEY":" ","HOUSE_NO":"１５號","E_COORD97":171392.04000000001,"N_COORD97":2541368.3799999999,"ADDRESS":"仁和路１０７巷１５號","OBJECTID":341306},"geometry":{"x":171392.04000000097,"y":2541368.379999999}},{"attributes":{"ID":341316,"DIS_CODE":0,"TOWNNAME":"東區","LI":"仁和里","LIN":"1鄰","STREET":"仁和路","SECT":" ","MAREA":" ","LANE":"１０７巷","ALLEY":" ","HOUSE_NO":"１７號","E_COORD97":171395.54000000001,"N_COORD97":2541368.5800000001,"ADDRESS":"仁和路１０７巷１７號","OBJECTID":341307},"geometry":{"x":171395.54000000097,"y":2541368.5800000001}},{"attributes":{"ID":341317,"DIS_CODE":0,"TOWNNAME":"東區","LI":"仁和里","LIN":"1鄰","STREET":"仁和路","SECT":" ","MAREA":" ","LANE":"１０７巷","ALLEY":" ","HOUSE_NO":"１９號","E_COORD97":171399.48999999999,"N_COORD97":2541368.2200000002,"ADDRESS":"仁和路１０７巷１９號","OBJECTID":341308},"geometry":{"x":171399.49000000115,"y":2541368.2200000007}},{"attributes":{"ID":341318,"DIS_CODE":0,"TOWNNAME":"東區","LI":"仁和里","LIN":"1鄰","STREET":"仁和路","SECT":" ","MAREA":" ","LANE":"１０７巷","ALLEY":" ","HOUSE_NO":"２１號","E_COORD97":171403.09,"N_COORD97":2541368.5800000001,"ADDRESS":"仁和路１０７巷２１號","OBJECTID":341309},"geometry":{"x":171403.09000000078,"y":2541368.5800000001}},{"attributes":{"ID":341319,"DIS_CODE":0,"TOWNNAME":"東區","LI":"仁和里","LIN":"1鄰","STREET":"仁和路","SECT":" ","MAREA":" ","LANE":"１０７巷","ALLEY":" ","HOUSE_NO":"２３號","E_COORD97":171412.09,"N_COORD97":2541369.6800000002,"ADDRESS":"仁和路１０７巷２３號","OBJECTID":341310},"geometry":{"x":171412.09000000078,"y":2541369.6800000016}},{"attributes":{"ID":341320,"DIS_CODE":0,"TOWNNAME":"東區","LI":"仁和里","LIN":"1鄰","STREET":"仁和路","SECT":" ","MAREA":" ","LANE":"１０７巷","ALLEY":" ","HOUSE_NO":"２５號","E_COORD97":171417.10000000001,"N_COORD97":2541368.3799999999,"ADDRESS":"仁和路１０７巷２５號","OBJECTID":341311},"geometry":{"x":171417.09999999963,"y":2541368.379999999}},{"attributes":{"ID":341321,"DIS_CODE":0,"TOWNNAME":"東區","LI":"仁和里","LIN":"1鄰","STREET":"仁和路","SECT":" ","MAREA":" ","LANE":"１０７巷","ALLEY":" ","HOUSE_NO":"２７號","E_COORD97":171422.10999999999,"N_COORD97":2541370.4199999999,"ADDRESS":"仁和路１０７巷２７號","OBJECTID":341312},"geometry":{"x":171422.11000000127,"y":2541370.4200000018}},{"attributes":{"ID":341322,"DIS_CODE":0,"TOWNNAME":"東區","LI":"仁和里","LIN":"1鄰","STREET":"仁和路","SECT":" ","MAREA":" ","LANE":"１０７巷","ALLEY":" ","HOUSE_NO":"２９號","E_COORD97":171427.13,"N_COORD97":2541368.5699999998,"ADDRESS":"仁和路１０７巷２９號","OBJECTID":341313},"geometry":{"x":171427.13000000082,"y":2541368.5700000003}},{"attributes":{"ID":341323,"DIS_CODE":0,"TOWNNAME":"東區","LI":"仁和里","LIN":"1鄰","STREET":"仁和路","SECT":" ","MAREA":" ","LANE":"１０７巷","ALLEY":" ","HOUSE_NO":"３１號","E_COORD97":171431.95000000001,"N_COORD97":2541368.3799999999,"ADDRESS":"仁和路１０７巷３１號","OBJECTID":341314},"geometry":{"x":171431.95000000112,"y":2541368.379999999}},{"attributes":{"ID":341324,"DIS_CODE":0,"TOWNNAME":"東區","LI":"仁和里","LIN":"1鄰","STREET":"仁和路","SECT":" ","MAREA":" ","LANE":"１０７巷","ALLEY":" ","HOUSE_NO":"３３號","E_COORD97":171437.34,"N_COORD97":2541369.3100000001,"ADDRESS":"仁和路１０７巷３３號","OBJECTID":341315},"geometry":{"x":171437.34000000078,"y":2541369.3100000024}},{"attributes":{"ID":341325,"DIS_CODE":0,"TOWNNAME":"東區","LI":"仁和里","LIN":"1鄰","STREET":"仁和路","SECT":" ","MAREA":" ","LANE":"１０７巷","ALLEY":" ","HOUSE_NO":"３５號","E_COORD97":171441.42000000001,"N_COORD97":2541368.5699999998,"ADDRESS":"仁和路１０７巷３５號","OBJECTID":341316},"geometry":{"x":171441.42000000179,"y":2541368.5700000003}},{"attributes":{"ID":341326,"DIS_CODE":0,"TOWNNAME":"東區","LI":"仁和里","LIN":"1鄰","STREET":"仁和路","SECT":" ","MAREA":" ","LANE":"１０７巷","ALLEY":" ","HOUSE_NO":"３７號","E_COORD97":171446.79999999999,"N_COORD97":2541369.5,"ADDRESS":"仁和路１０７巷３７號","OBJECTID":341317},"geometry":{"x":171446.79999999981,"y":2541369.5000000037}},{"attributes":{"ID":341327,"DIS_CODE":0,"TOWNNAME":"東區","LI":"仁和里","LIN":"1鄰","STREET":"仁和路","SECT":" ","MAREA":" ","LANE":"１０７巷","ALLEY":" ","HOUSE_NO":"３９號","E_COORD97":171451.63,"N_COORD97":2541368.2000000002,"ADDRESS":"仁和路１０７巷３９號","OBJECTID":341318},"geometry":{"x":171451.62999999989,"y":2541368.2000000011}},{"attributes":{"ID":341328,"DIS_CODE":0,"TOWNNAME":"東區","LI":"仁和里","LIN":"1鄰","STREET":"仁和路","SECT":" ","MAREA":" ","LANE":"１０７巷","ALLEY":" ","HOUSE_NO":"４１號","E_COORD97":171456.82999999999,"N_COORD97":2541368.75,"ADDRESS":"仁和路１０７巷４１號","OBJECTID":341319},"geometry":{"x":171456.83000000007,"y":2541368.7500000019}},{"attributes":{"ID":341329,"DIS_CODE":0,"TOWNNAME":"東區","LI":"仁和里","LIN":"1鄰","STREET":"仁和路","SECT":" ","MAREA":" ","LANE":"１０７巷","ALLEY":" ","HOUSE_NO":"４５號","E_COORD97":171466.85000000001,"N_COORD97":2541368.2000000002,"ADDRESS":"仁和路１０７巷４５號","OBJECTID":341320},"geometry":{"x":171466.84999999963,"y":2541368.2000000011}},{"attributes":{"ID":341330,"DIS_CODE":0,"TOWNNAME":"東區","LI":"仁和里","LIN":"1鄰","STREET":"仁和路","SECT":" ","MAREA":" ","LANE":"１０７巷","ALLEY":" ","HOUSE_NO":"３０號","E_COORD97":171437.14999999999,"N_COORD97":2541352.9900000002,"ADDRESS":"仁和路１０７巷３０號","OBJECTID":341321},"geometry":{"x":171437.1500000013,"y":2541352.9900000039}},{"attributes":{"ID":341331,"DIS_CODE":0,"TOWNNAME":"東區","LI":"仁和里","LIN":"1鄰","STREET":"仁和路","SECT":" ","MAREA":" ","LANE":"１０７巷","ALLEY":" ","HOUSE_NO":"３２號","E_COORD97":171440.85999999999,"N_COORD97":2541351.1299999999,"ADDRESS":"仁和路１０７巷３２號","OBJECTID":341322},"geometry":{"x":171440.86000000127,"y":2541351.1300000008}},{"attributes":{"ID":341332,"DIS_CODE":0,"TOWNNAME":"東區","LI":"仁和里","LIN":"1鄰","STREET":"仁和路","SECT":" ","MAREA":" ","LANE":"１０７巷","ALLEY":" ","HOUSE_NO":"３４號","E_COORD97":171444.20999999999,"N_COORD97":2541349.0899999999,"ADDRESS":"仁和路１０７巷３４號","OBJECTID":341323},"geometry":{"x":171444.20999999996,"y":2541349.0900000017}},{"attributes":{"ID":341333,"DIS_CODE":0,"TOWNNAME":"東區","LI":"仁和里","LIN":"1鄰","STREET":"仁和路","SECT":" ","MAREA":" ","LANE":"１０７巷","ALLEY":" ","HOUSE_NO":"３６號","E_COORD97":171448.48000000001,"N_COORD97":2541352.0600000001,"ADDRESS":"仁和路１０７巷３６號","OBJECTID":341324},"geometry":{"x":171448.48000000138,"y":2541352.0600000005}},{"attributes":{"ID":341334,"DIS_CODE":0,"TOWNNAME":"東區","LI":"仁和里","LIN":"1鄰","STREET":"仁和路","SECT":" ","MAREA":" ","LANE":"１０７巷","ALLEY":" ","HOUSE_NO":"３８號","E_COORD97":171451.45000000001,"N_COORD97":2541349.8399999999,"ADDRESS":"仁和路１０７巷３８號","OBJECTID":341325},"geometry":{"x":171451.45000000019,"y":2541349.8399999999}},{"attributes":{"ID":341335,"DIS_CODE":0,"TOWNNAME":"東區","LI":"仁和里","LIN":"1鄰","STREET":"仁和路","SECT":" ","MAREA":" ","LANE":"１０７巷","ALLEY":" ","HOUSE_NO":"４０號","E_COORD97":171454.97,"N_COORD97":2541351.8799999999,"ADDRESS":"仁和路１０７巷４０號","OBJECTID":341326},"geometry":{"x":171454.97000000067,"y":2541351.879999999}},{"attributes":{"ID":341336,"DIS_CODE":0,"TOWNNAME":"東區","LI":"仁和里","LIN":"1鄰","STREET":"仁和路","SECT":" ","MAREA":" ","LANE":"１０７巷","ALLEY":" ","HOUSE_NO":"４２號","E_COORD97":171458.31,"N_COORD97":2541350.3900000001,"ADDRESS":"仁和路１０７巷４２號","OBJECTID":341327},"geometry":{"x":171458.30999999959,"y":2541350.3899999987}},{"attributes":{"ID":341337,"DIS_CODE":0,"TOWNNAME":"東區","LI":"仁和里","LIN":"1鄰","STREET":"仁和路","SECT":" ","MAREA":" ","LANE":"１０７巷","ALLEY":" ","HOUSE_NO":"４６號","E_COORD97":171466.10999999999,"N_COORD97":2541350.3900000001,"ADDRESS":"仁和路１０７巷４６號","OBJECTID":341328},"geometry":{"x":171466.1100000022,"y":2541350.3899999987}},{"attributes":{"ID":341338,"DIS_CODE":0,"TOWNNAME":"東區","LI":"東明里","LIN":"1鄰","STREET":"東興路","SECT":" ","MAREA":" ","LANE":"３１巷","ALLEY":" ","HOUSE_NO":"１之１號","E_COORD97":170890.70000000001,"N_COORD97":2543468.2999999998,"ADDRESS":"東興路３１巷１之１號","OBJECTID":341329},"geometry":{"x":170890.70000000112,"y":2543468.3000000026}},{"attributes":{"ID":341339,"DIS_CODE":0,"TOWNNAME":"東區","LI":"東明里","LIN":"1鄰","STREET":"東興路","SECT":" ","MAREA":" ","LANE":"３１巷","ALLEY":" ","HOUSE_NO":"３號之３","E_COORD97":170880.10999999999,"N_COORD97":2543471.6000000001,"ADDRESS":"東興路３１巷３號之３","OBJECTID":341330},"geometry":{"x":170880.11000000127,"y":2543471.6000000015}},{"attributes":{"ID":341340,"DIS_CODE":0,"TOWNNAME":"東區","LI":"南聖里","LIN":"1鄰","STREET":"裕農路","SECT":" ","MAREA":" ","LANE":"６６８巷","ALLEY":" ","HOUSE_NO":"１３號","E_COORD97":171737.76999999999,"N_COORD97":2543170.1499999999,"ADDRESS":"裕農路６６８巷１３號","OBJECTID":341331},"geometry":{"x":171737.77000000048,"y":2543170.1500000022}},{"attributes":{"ID":341341,"DIS_CODE":0,"TOWNNAME":"新市區","LI":"港墘里","LIN":"1鄰","STREET":"中山路","SECT":" ","MAREA":" ","LANE":"１３巷","ALLEY":" ","HOUSE_NO":"３７號","E_COORD97":179410.59,"N_COORD97":2553863,"ADDRESS":"中山路１３巷３７號","OBJECTID":341332},"geometry":{"x":179410.58999999985,"y":2553863.0000000037}},{"attributes":{"ID":341342,"DIS_CODE":0,"TOWNNAME":"安南區","LI":"原佃里","LIN":"1鄰","STREET":"本原街","SECT":"一段","MAREA":" ","LANE":"９７巷","ALLEY":" ","HOUSE_NO":"１１０號","E_COORD97":167865.41,"N_COORD97":2549997.9300000002,"ADDRESS":"本原街一段９７巷１１０號","OBJECTID":341333},"geometry":{"x":167865.41000000108,"y":2549997.9299999997}},{"attributes":{"ID":341343,"DIS_CODE":0,"TOWNNAME":"安南區","LI":"原佃里","LIN":"1鄰","STREET":"本原街","SECT":"一段","MAREA":" ","LANE":"９７巷","ALLEY":" ","HOUSE_NO":"８０號","E_COORD97":167908.95000000001,"N_COORD97":2549978.8300000001,"ADDRESS":"本原街一段９７巷８０號","OBJECTID":341334},"geometry":{"x":167908.95000000112,"y":2549978.8299999982}},{"attributes":{"ID":341344,"DIS_CODE":0,"TOWNNAME":"安南區","LI":"原佃里","LIN":"1鄰","STREET":"本原街","SECT":"一段","MAREA":" ","LANE":"９７巷","ALLEY":" ","HOUSE_NO":"８６號","E_COORD97":167892.76999999999,"N_COORD97":2549974.8500000001,"ADDRESS":"本原街一段９７巷８６號","OBJECTID":341335},"geometry":{"x":167892.77000000048,"y":2549974.8500000034}},{"attributes":{"ID":341345,"DIS_CODE":0,"TOWNNAME":"中西區","LI":"五妃里","LIN":"1鄰","STREET":"南門路","SECT":" ","MAREA":" ","LANE":"２５９巷","ALLEY":" ","HOUSE_NO":"１０號","E_COORD97":168425.95999999999,"N_COORD97":2542485.9199999999,"ADDRESS":"南門路２５９巷１０號","OBJECTID":341336},"geometry":{"x":168425.96000000089,"y":2542485.9200000018}},{"attributes":{"ID":341346,"DIS_CODE":0,"TOWNNAME":"中西區","LI":"五妃里","LIN":"1鄰","STREET":"南門路","SECT":" ","MAREA":" ","LANE":"２５９巷","ALLEY":" ","HOUSE_NO":"１２號","E_COORD97":168430.57000000001,"N_COORD97":2542485.6299999999,"ADDRESS":"南門路２５９巷１２號","OBJECTID":341337},"geometry":{"x":168430.57000000123,"y":2542485.629999999}},{"attributes":{"ID":341347,"DIS_CODE":0,"TOWNNAME":"中西區","LI":"五妃里","LIN":"1鄰","STREET":"南門路","SECT":" ","MAREA":" ","LANE":"２５９巷","ALLEY":" ","HOUSE_NO":"１４號","E_COORD97":168434.45000000001,"N_COORD97":2542485.5099999998,"ADDRESS":"南門路２５９巷１４號","OBJECTID":341338},"geometry":{"x":168434.45000000112,"y":2542485.5100000016}},{"attributes":{"ID":341348,"DIS_CODE":0,"TOWNNAME":"中西區","LI":"五妃里","LIN":"1鄰","STREET":"南門路","SECT":" ","MAREA":" ","LANE":"２５９巷","ALLEY":" ","HOUSE_NO":"１６號","E_COORD97":168437.85000000001,"N_COORD97":2542485.8700000001,"ADDRESS":"南門路２５９巷１６號","OBJECTID":341339},"geometry":{"x":168437.85000000056,"y":2542485.870000001}},{"attributes":{"ID":341349,"DIS_CODE":0,"TOWNNAME":"中西區","LI":"五妃里","LIN":"1鄰","STREET":"南門路","SECT":" ","MAREA":" ","LANE":"２５９巷","ALLEY":" ","HOUSE_NO":"１８號","E_COORD97":168441.25,"N_COORD97":2542485.8700000001,"ADDRESS":"南門路２５９巷１８號","OBJECTID":341340},"geometry":{"x":168441.25000000093,"y":2542485.870000001}},{"attributes":{"ID":341350,"DIS_CODE":0,"TOWNNAME":"中西區","LI":"五妃里","LIN":"1鄰","STREET":"南門路","SECT":" ","MAREA":" ","LANE":"２５９巷","ALLEY":" ","HOUSE_NO":"１號","E_COORD97":168395.37,"N_COORD97":2542495,"ADDRESS":"南門路２５９巷１號","OBJECTID":341341},"geometry":{"x":168395.37000000011,"y":2542494.9999999981}},{"attributes":{"ID":341351,"DIS_CODE":0,"TOWNNAME":"中西區","LI":"五妃里","LIN":"1鄰","STREET":"南門路","SECT":" ","MAREA":" ","LANE":"２５９巷","ALLEY":" ","HOUSE_NO":"２０號","E_COORD97":168444.39999999999,"N_COORD97":2542485.1400000001,"ADDRESS":"南門路２５９巷２０號","OBJECTID":341342},"geometry":{"x":168444.40000000037,"y":2542485.1400000025}},{"attributes":{"ID":341352,"DIS_CODE":0,"TOWNNAME":"中西區","LI":"五妃里","LIN":"1鄰","STREET":"南門路","SECT":" ","MAREA":" ","LANE":"２５９巷","ALLEY":" ","HOUSE_NO":"３號","E_COORD97":168405.81,"N_COORD97":2542498.0299999998,"ADDRESS":"南門路２５９巷３號","OBJECTID":341343},"geometry":{"x":168405.81000000145,"y":2542498.0300000012}},{"attributes":{"ID":341353,"DIS_CODE":0,"TOWNNAME":"中西區","LI":"五妃里","LIN":"1鄰","STREET":"南門路","SECT":" ","MAREA":" ","LANE":"２５９巷","ALLEY":" ","HOUSE_NO":"５號","E_COORD97":168429.70999999999,"N_COORD97":2542496.6699999999,"ADDRESS":"南門路２５９巷５號","OBJECTID":341344},"geometry":{"x":168429.70999999996,"y":2542496.6699999999}},{"attributes":{"ID":341354,"DIS_CODE":0,"TOWNNAME":"中西區","LI":"五妃里","LIN":"1鄰","STREET":"南門路","SECT":" ","MAREA":" ","LANE":"２５９巷","ALLEY":" ","HOUSE_NO":"７號","E_COORD97":168437.48000000001,"N_COORD97":2542496.1899999999,"ADDRESS":"南門路２５９巷７號","OBJECTID":341345},"geometry":{"x":168437.48000000045,"y":2542496.1899999995}},{"attributes":{"ID":341355,"DIS_CODE":0,"TOWNNAME":"中西區","LI":"五妃里","LIN":"1鄰","STREET":"南門路","SECT":" ","MAREA":" ","LANE":"２５９巷","ALLEY":" ","HOUSE_NO":"９號","E_COORD97":168442.94,"N_COORD97":2542495.9399999999,"ADDRESS":"南門路２５９巷９號","OBJECTID":341346},"geometry":{"x":168442.94000000227,"y":2542495.9400000013}},{"attributes":{"ID":341356,"DIS_CODE":0,"TOWNNAME":"中西區","LI":"小西里","LIN":"1鄰","STREET":"永福路","SECT":"一段","MAREA":" ","LANE":"２５７巷","ALLEY":" ","HOUSE_NO":"１號","E_COORD97":168000.56,"N_COORD97":2543299.6800000002,"ADDRESS":"永福路一段２５７巷１號","OBJECTID":341347},"geometry":{"x":168000.56000000145,"y":2543299.6799999997}},{"attributes":{"ID":341357,"DIS_CODE":0,"TOWNNAME":"中西區","LI":"小西里","LIN":"1鄰","STREET":"永福路","SECT":"一段","MAREA":" ","LANE":"２５７巷","ALLEY":" ","HOUSE_NO":"２０號","E_COORD97":167940.82999999999,"N_COORD97":2543329.8900000001,"ADDRESS":"永福路一段２５７巷２０號","OBJECTID":341348},"geometry":{"x":167940.83000000007,"y":2543329.8900000006}},{"attributes":{"ID":341358,"DIS_CODE":0,"TOWNNAME":"中西區","LI":"小西里","LIN":"1鄰","STREET":"永福路","SECT":"一段","MAREA":" ","LANE":"２５７巷","ALLEY":" ","HOUSE_NO":"２號","E_COORD97":167996.32999999999,"N_COORD97":2543324.79,"ADDRESS":"永福路一段２５７巷２號","OBJECTID":341349},"geometry":{"x":167996.33000000101,"y":2543324.7899999991}},{"attributes":{"ID":341359,"DIS_CODE":0,"TOWNNAME":"中西區","LI":"小西里","LIN":"1鄰","STREET":"永福路","SECT":"一段","MAREA":" ","LANE":"２５７巷","ALLEY":" ","HOUSE_NO":"３號","E_COORD97":167991.44,"N_COORD97":2543307.27,"ADDRESS":"永福路一段２５７巷３號","OBJECTID":341350},"geometry":{"x":167991.44000000041,"y":2543307.2700000014}},{"attributes":{"ID":341360,"DIS_CODE":0,"TOWNNAME":"中西區","LI":"小西里","LIN":"1鄰","STREET":"永福路","SECT":"一段","MAREA":" ","LANE":"２５７巷","ALLEY":" ","HOUSE_NO":"４號","E_COORD97":167990.45999999999,"N_COORD97":2543324.6800000002,"ADDRESS":"永福路一段２５７巷４號","OBJECTID":341351},"geometry":{"x":167990.46000000089,"y":2543324.6800000016}},{"attributes":{"ID":341361,"DIS_CODE":0,"TOWNNAME":"中西區","LI":"小西里","LIN":"1鄰","STREET":"永福路","SECT":"一段","MAREA":" ","LANE":"２５７巷","ALLEY":" ","HOUSE_NO":"５號","E_COORD97":167982.32000000001,"N_COORD97":2543308.5699999998,"ADDRESS":"永福路一段２５７巷５號","OBJECTID":341352},"geometry":{"x":167982.3200000003,"y":2543308.5699999984}},{"attributes":{"ID":341362,"DIS_CODE":0,"TOWNNAME":"中西區","LI":"小西里","LIN":"1鄰","STREET":"永福路","SECT":"一段","MAREA":" ","LANE":"２５７巷","ALLEY":" ","HOUSE_NO":"６號","E_COORD97":167983.84,"N_COORD97":2543325.3300000001,"ADDRESS":"永福路一段２５７巷６號","OBJECTID":341353},"geometry":{"x":167983.84000000078,"y":2543325.3300000019}},{"attributes":{"ID":341363,"DIS_CODE":0,"TOWNNAME":"中西區","LI":"小西里","LIN":"1鄰","STREET":"永福路","SECT":"一段","MAREA":" ","LANE":"２５７巷","ALLEY":" ","HOUSE_NO":"７號","E_COORD97":167974.92999999999,"N_COORD97":2543309.1200000001,"ADDRESS":"永福路一段２５７巷７號","OBJECTID":341354},"geometry":{"x":167974.93000000063,"y":2543309.1200000048}},{"attributes":{"ID":341364,"DIS_CODE":0,"TOWNNAME":"中西區","LI":"小西里","LIN":"1鄰","STREET":"永福路","SECT":"一段","MAREA":" ","LANE":"２５７巷","ALLEY":" ","HOUSE_NO":"８號","E_COORD97":167978.51999999999,"N_COORD97":2543326.2000000002,"ADDRESS":"永福路一段２５７巷８號","OBJECTID":341355},"geometry":{"x":167978.51999999955,"y":2543326.1999999993}},{"attributes":{"ID":341365,"DIS_CODE":0,"TOWNNAME":"中西區","LI":"小西里","LIN":"1鄰","STREET":"永福路","SECT":"一段","MAREA":" ","LANE":"２５７巷","ALLEY":" ","HOUSE_NO":"９號","E_COORD97":167960.82000000001,"N_COORD97":2543309.5499999998,"ADDRESS":"永福路一段２５７巷９號","OBJECTID":341356},"geometry":{"x":167960.82000000123,"y":2543309.5500000045}},{"attributes":{"ID":341366,"DIS_CODE":0,"TOWNNAME":"中西區","LI":"小西里","LIN":"1鄰","STREET":"永福路","SECT":"一段","MAREA":" ","LANE":"２７５巷","ALLEY":" ","HOUSE_NO":"１０號","E_COORD97":167973.41,"N_COORD97":2543364.3500000001,"ADDRESS":"永福路一段２７５巷１０號","OBJECTID":341357},"geometry":{"x":167973.41000000201,"y":2543364.3500000015}},{"attributes":{"ID":341367,"DIS_CODE":0,"TOWNNAME":"中西區","LI":"小西里","LIN":"1鄰","STREET":"永福路","SECT":"一段","MAREA":" ","LANE":"２７５巷","ALLEY":" ","HOUSE_NO":"１１號","E_COORD97":167957.56,"N_COORD97":2543348.29,"ADDRESS":"永福路一段２７５巷１１號","OBJECTID":341358},"geometry":{"x":167957.55999999959,"y":2543348.290000001}},{"attributes":{"ID":341368,"DIS_CODE":0,"TOWNNAME":"中西區","LI":"小西里","LIN":"1鄰","STREET":"永福路","SECT":"一段","MAREA":" ","LANE":"２７５巷","ALLEY":" ","HOUSE_NO":"１２號","E_COORD97":167971.01999999999,"N_COORD97":2543365.3300000001,"ADDRESS":"永福路一段２７５巷１２號","OBJECTID":341359},"geometry":{"x":167971.02000000048,"y":2543365.3300000019}},{"attributes":{"ID":341369,"DIS_CODE":0,"TOWNNAME":"中西區","LI":"小西里","LIN":"1鄰","STREET":"永福路","SECT":"一段","MAREA":" ","LANE":"２７５巷","ALLEY":" ","HOUSE_NO":"１３號","E_COORD97":167949.09,"N_COORD97":2543349.0600000001,"ADDRESS":"永福路一段２７５巷１３號","OBJECTID":341360},"geometry":{"x":167949.08999999985,"y":2543349.0600000005}},{"attributes":{"ID":341370,"DIS_CODE":0,"TOWNNAME":"中西區","LI":"小西里","LIN":"1鄰","STREET":"永福路","SECT":"一段","MAREA":" ","LANE":"２７５巷","ALLEY":" ","HOUSE_NO":"１４號","E_COORD97":167964.39999999999,"N_COORD97":2543361.9700000002,"ADDRESS":"永福路一段２７５巷１４號","OBJECTID":341361},"geometry":{"x":167964.40000000037,"y":2543361.9700000025}},{"attributes":{"ID":341371,"DIS_CODE":0,"TOWNNAME":"中西區","LI":"小西里","LIN":"1鄰","STREET":"永福路","SECT":"一段","MAREA":" ","LANE":"２７５巷","ALLEY":" ","HOUSE_NO":"１５號","E_COORD97":167941.26999999999,"N_COORD97":2543349.9300000002,"ADDRESS":"永福路一段２７５巷１５號","OBJECTID":341362},"geometry":{"x":167941.26999999955,"y":2543349.9300000034}},{"attributes":{"ID":341372,"DIS_CODE":0,"TOWNNAME":"中西區","LI":"小西里","LIN":"1鄰","STREET":"永福路","SECT":"一段","MAREA":" ","LANE":"２７５巷","ALLEY":" ","HOUSE_NO":"１６號","E_COORD97":167957.34,"N_COORD97":2543363.1600000001,"ADDRESS":"永福路一段２７５巷１６號","OBJECTID":341363},"geometry":{"x":167957.34000000078,"y":2543363.160000002}},{"attributes":{"ID":341373,"DIS_CODE":0,"TOWNNAME":"中西區","LI":"小西里","LIN":"1鄰","STREET":"永福路","SECT":"一段","MAREA":" ","LANE":"２７５巷","ALLEY":" ","HOUSE_NO":"１８號","E_COORD97":167951.79999999999,"N_COORD97":2543363.6000000001,"ADDRESS":"永福路一段２７５巷１８號","OBJECTID":341364},"geometry":{"x":167951.80000000168,"y":2543363.6000000015}},{"attributes":{"ID":341374,"DIS_CODE":0,"TOWNNAME":"中西區","LI":"小西里","LIN":"1鄰","STREET":"永福路","SECT":"一段","MAREA":" ","LANE":"２７５巷","ALLEY":" ","HOUSE_NO":"１號","E_COORD97":167999.48000000001,"N_COORD97":2543343.3999999999,"ADDRESS":"永福路一段２７５巷１號","OBJECTID":341365},"geometry":{"x":167999.48000000045,"y":2543343.4000000004}},{"attributes":{"ID":341375,"DIS_CODE":0,"TOWNNAME":"中西區","LI":"小西里","LIN":"1鄰","STREET":"永福路","SECT":"一段","MAREA":" ","LANE":"２７５巷","ALLEY":" ","HOUSE_NO":"２０號","E_COORD97":167946.70000000001,"N_COORD97":2543363.27,"ADDRESS":"永福路一段２７５巷２０號","OBJECTID":341366},"geometry":{"x":167946.70000000112,"y":2543363.2699999996}},{"attributes":{"ID":341376,"DIS_CODE":0,"TOWNNAME":"中西區","LI":"小西里","LIN":"1鄰","STREET":"永福路","SECT":"一段","MAREA":" ","LANE":"２７５巷","ALLEY":" ","HOUSE_NO":"２２號","E_COORD97":167941.48999999999,"N_COORD97":2543363.7000000002,"ADDRESS":"永福路一段２７５巷２２號","OBJECTID":341367},"geometry":{"x":167941.49000000115,"y":2543363.6999999993}},{"attributes":{"ID":341377,"DIS_CODE":0,"TOWNNAME":"中西區","LI":"小西里","LIN":"1鄰","STREET":"永福路","SECT":"一段","MAREA":" ","LANE":"２７５巷","ALLEY":" ","HOUSE_NO":"２號","E_COORD97":167999.04000000001,"N_COORD97":2543361.75,"ADDRESS":"永福路一段２７５巷２號","OBJECTID":341368},"geometry":{"x":167999.04000000004,"y":2543361.7500000019}},{"attributes":{"ID":341378,"DIS_CODE":0,"TOWNNAME":"中西區","LI":"小西里","LIN":"1鄰","STREET":"永福路","SECT":"一段","MAREA":" ","LANE":"２７５巷","ALLEY":" ","HOUSE_NO":"３號","E_COORD97":167993.39000000001,"N_COORD97":2543343.3999999999,"ADDRESS":"永福路一段２７５巷３號","OBJECTID":341369},"geometry":{"x":167993.39000000153,"y":2543343.4000000004}},{"attributes":{"ID":341379,"DIS_CODE":0,"TOWNNAME":"中西區","LI":"小西里","LIN":"1鄰","STREET":"永福路","SECT":"一段","MAREA":" ","LANE":"２７５巷","ALLEY":" ","HOUSE_NO":"４號","E_COORD97":167992.85000000001,"N_COORD97":2543361.75,"ADDRESS":"永福路一段２７５巷４號","OBJECTID":341370},"geometry":{"x":167992.84999999963,"y":2543361.7500000019}},{"attributes":{"ID":341380,"DIS_CODE":0,"TOWNNAME":"中西區","LI":"小西里","LIN":"1鄰","STREET":"永福路","SECT":"一段","MAREA":" ","LANE":"２７５巷","ALLEY":" ","HOUSE_NO":"５號","E_COORD97":167986.34,"N_COORD97":2543344.0499999998,"ADDRESS":"永福路一段２７５巷５號","OBJECTID":341371},"geometry":{"x":167986.33999999985,"y":2543344.0500000026}},{"attributes":{"ID":341381,"DIS_CODE":0,"TOWNNAME":"中西區","LI":"小西里","LIN":"1鄰","STREET":"永福路","SECT":"一段","MAREA":" ","LANE":"２７５巷","ALLEY":" ","HOUSE_NO":"６號","E_COORD97":167986.23000000001,"N_COORD97":2543362.6200000001,"ADDRESS":"永福路一段２７５巷６號","OBJECTID":341372},"geometry":{"x":167986.23000000045,"y":2543362.620000001}},{"attributes":{"ID":341382,"DIS_CODE":0,"TOWNNAME":"中西區","LI":"小西里","LIN":"1鄰","STREET":"永福路","SECT":"一段","MAREA":" ","LANE":"２７５巷","ALLEY":" ","HOUSE_NO":"８號","E_COORD97":167980.57999999999,"N_COORD97":2543362.6200000001,"ADDRESS":"永福路一段２７５巷８號","OBJECTID":341373},"geometry":{"x":167980.58000000194,"y":2543362.620000001}},{"attributes":{"ID":341383,"DIS_CODE":0,"TOWNNAME":"中西區","LI":"小西里","LIN":"1鄰","STREET":"永福路","SECT":"一段","MAREA":" ","LANE":"２７５巷","ALLEY":" ","HOUSE_NO":"９號","E_COORD97":167964.39999999999,"N_COORD97":2543347.6499999999,"ADDRESS":"永福路一段２７５巷９號","OBJECTID":341374},"geometry":{"x":167964.40000000037,"y":2543347.6500000004}},{"attributes":{"ID":341384,"DIS_CODE":0,"TOWNNAME":"中西區","LI":"小西里","LIN":"1鄰","STREET":"永福路","SECT":"一段","MAREA":" ","LANE":"２７５巷","ALLEY":" ","HOUSE_NO":"７號","E_COORD97":167979.28,"N_COORD97":2543345.5699999998,"ADDRESS":"永福路一段２７５巷７號","OBJECTID":341375},"geometry":{"x":167979.28000000026,"y":2543345.5700000003}},{"attributes":{"ID":341385,"DIS_CODE":0,"TOWNNAME":"中西區","LI":"福安里","LIN":"1鄰","STREET":"府前路","SECT":"一段","MAREA":" ","LANE":"３０４巷","ALLEY":" ","HOUSE_NO":"２７號","E_COORD97":167877.95999999999,"N_COORD97":2543519.8500000001,"ADDRESS":"府前路一段３０４巷２７號","OBJECTID":341376},"geometry":{"x":167877.96000000183,"y":2543519.8500000034}},{"attributes":{"ID":341386,"DIS_CODE":0,"TOWNNAME":"中西區","LI":"福安里","LIN":"1鄰","STREET":"府前路","SECT":"一段","MAREA":" ","LANE":"３０４巷","ALLEY":" ","HOUSE_NO":"２９號","E_COORD97":167879.29000000001,"N_COORD97":2543524.3700000001,"ADDRESS":"府前路一段３０４巷２９號","OBJECTID":341377},"geometry":{"x":167879.29000000097,"y":2543524.3700000048}},{"attributes":{"ID":341387,"DIS_CODE":0,"TOWNNAME":"中西區","LI":"福安里","LIN":"1鄰","STREET":"府前路","SECT":"一段","MAREA":" ","LANE":"３０４巷","ALLEY":" ","HOUSE_NO":"３１號","E_COORD97":167879.54999999999,"N_COORD97":2543527.29,"ADDRESS":"府前路一段３０４巷３１號","OBJECTID":341378},"geometry":{"x":167879.55000000075,"y":2543527.290000001}},{"attributes":{"ID":341388,"DIS_CODE":0,"TOWNNAME":"中西區","LI":"福安里","LIN":"1鄰","STREET":"府前路","SECT":"一段","MAREA":" ","LANE":"３０４巷","ALLEY":" ","HOUSE_NO":"３３號","E_COORD97":167880.35000000001,"N_COORD97":2543530.8700000001,"ADDRESS":"府前路一段３０４巷３３號","OBJECTID":341379},"geometry":{"x":167880.35000000056,"y":2543530.870000001}},{"attributes":{"ID":341389,"DIS_CODE":0,"TOWNNAME":"中西區","LI":"福安里","LIN":"1鄰","STREET":"府前路","SECT":"一段","MAREA":" ","LANE":"３０４巷","ALLEY":" ","HOUSE_NO":"３５號","E_COORD97":167882.20999999999,"N_COORD97":2543534.8599999999,"ADDRESS":"府前路一段３０４巷３５號","OBJECTID":341380},"geometry":{"x":167882.20999999996,"y":2543534.8599999994}},{"attributes":{"ID":341390,"DIS_CODE":0,"TOWNNAME":"中西區","LI":"福安里","LIN":"1鄰","STREET":"府前路","SECT":"一段","MAREA":" ","LANE":"３０４巷","ALLEY":" ","HOUSE_NO":"３７號","E_COORD97":167884.26000000001,"N_COORD97":2543540.5299999998,"ADDRESS":"府前路一段３０４巷３７號","OBJECTID":341381},"geometry":{"x":167884.26000000164,"y":2543540.5299999993}},{"attributes":{"ID":341391,"DIS_CODE":0,"TOWNNAME":"中西區","LI":"福安里","LIN":"1鄰","STREET":"府前路","SECT":"一段","MAREA":" ","LANE":"３０４巷","ALLEY":" ","HOUSE_NO":"３９號","E_COORD97":167883.54000000001,"N_COORD97":2543544.02,"ADDRESS":"府前路一段３０４巷３９號","OBJECTID":341382},"geometry":{"x":167883.54000000004,"y":2543544.0199999996}},{"attributes":{"ID":341392,"DIS_CODE":0,"TOWNNAME":"下營區","LI":"西連里","LIN":"5鄰","STREET":" ","SECT":" ","MAREA":"西寮","LANE":" ","ALLEY":" ","HOUSE_NO":"１２號之６","E_COORD97":174447.03,"N_COORD97":2567550.1600000001,"ADDRESS":"西寮１２號之６","OBJECTID":341383},"geometry":{"x":174447.03000000119,"y":2567550.160000002}},{"attributes":{"ID":341393,"DIS_CODE":0,"TOWNNAME":"中西區","LI":"福安里","LIN":"1鄰","STREET":"府前路","SECT":"一段","MAREA":" ","LANE":"３０４巷","ALLEY":" ","HOUSE_NO":"４１號","E_COORD97":167884.20999999999,"N_COORD97":2543547.7400000002,"ADDRESS":"府前路一段３０４巷４１號","OBJECTID":341384},"geometry":{"x":167884.20999999996,"y":2543547.7400000002}},{"attributes":{"ID":341394,"DIS_CODE":0,"TOWNNAME":"中西區","LI":"福安里","LIN":"1鄰","STREET":"府前路","SECT":"一段","MAREA":" ","LANE":"３０４巷","ALLEY":" ","HOUSE_NO":"４３號","E_COORD97":167884.73999999999,"N_COORD97":2543552.8799999999,"ADDRESS":"府前路一段３０４巷４３號","OBJECTID":341385},"geometry":{"x":167884.74000000209,"y":2543552.8800000027}},{"attributes":{"ID":341395,"DIS_CODE":0,"TOWNNAME":"中西區","LI":"福安里","LIN":"1鄰","STREET":"府前路","SECT":"一段","MAREA":" ","LANE":"３０４巷","ALLEY":" ","HOUSE_NO":"４５號","E_COORD97":167885.04000000001,"N_COORD97":2543557.02,"ADDRESS":"府前路一段３０４巷４５號","OBJECTID":341386},"geometry":{"x":167885.04000000097,"y":2543557.0200000014}},{"attributes":{"ID":341396,"DIS_CODE":0,"TOWNNAME":"中西區","LI":"福安里","LIN":"1鄰","STREET":"府前路","SECT":"一段","MAREA":" ","LANE":"３０４巷","ALLEY":" ","HOUSE_NO":"４７號","E_COORD97":167884.87,"N_COORD97":2543560.3399999999,"ADDRESS":"府前路一段３０４巷４７號","OBJECTID":341387},"geometry":{"x":167884.87000000011,"y":2543560.3399999999}},{"attributes":{"ID":341397,"DIS_CODE":0,"TOWNNAME":"中西區","LI":"福安里","LIN":"1鄰","STREET":"府前路","SECT":"一段","MAREA":" ","LANE":"３４２巷","ALLEY":" ","HOUSE_NO":"１０號","E_COORD97":167830.5,"N_COORD97":2543513.3399999999,"ADDRESS":"府前路一段３４２巷１０號","OBJECTID":341388},"geometry":{"x":167830.50000000093,"y":2543513.3400000036}},{"attributes":{"ID":341398,"DIS_CODE":0,"TOWNNAME":"中西區","LI":"福安里","LIN":"1鄰","STREET":"府前路","SECT":"一段","MAREA":" ","LANE":"３４２巷","ALLEY":" ","HOUSE_NO":"１２號","E_COORD97":167832.10000000001,"N_COORD97":2543519.3199999998,"ADDRESS":"府前路一段３４２巷１２號","OBJECTID":341389},"geometry":{"x":167832.09999999963,"y":2543519.3200000003}},{"attributes":{"ID":341399,"DIS_CODE":0,"TOWNNAME":"中西區","LI":"福安里","LIN":"1鄰","STREET":"府前路","SECT":"一段","MAREA":" ","LANE":"３４２巷","ALLEY":" ","HOUSE_NO":"８號","E_COORD97":167827.45000000001,"N_COORD97":2543506.04,"ADDRESS":"府前路一段３４２巷８號","OBJECTID":341390},"geometry":{"x":167827.45000000205,"y":2543506.0399999991}},{"attributes":{"ID":341400,"DIS_CODE":0,"TOWNNAME":"中西區","LI":"郡王里","LIN":"1鄰","STREET":"健康路","SECT":"一段","MAREA":" ","LANE":"２００巷","ALLEY":" ","HOUSE_NO":"２８號","E_COORD97":168620.72,"N_COORD97":2542522.0699999998,"ADDRESS":"健康路一段２００巷２８號","OBJECTID":341391},"geometry":{"x":168620.72000000067,"y":2542522.070000004}},{"attributes":{"ID":341401,"DIS_CODE":0,"TOWNNAME":"中西區","LI":"郡王里","LIN":"1鄰","STREET":"健康路","SECT":"一段","MAREA":" ","LANE":"２００巷","ALLEY":" ","HOUSE_NO":"１５號","E_COORD97":168586.06,"N_COORD97":2542513.7400000002,"ADDRESS":"健康路一段２００巷１５號","OBJECTID":341392},"geometry":{"x":168586.06000000052,"y":2542513.7400000002}},{"attributes":{"ID":341402,"DIS_CODE":0,"TOWNNAME":"中西區","LI":"郡王里","LIN":"1鄰","STREET":"健康路","SECT":"一段","MAREA":" ","LANE":"２００巷","ALLEY":" ","HOUSE_NO":"１０號","E_COORD97":168633.98000000001,"N_COORD97":2542511.96,"ADDRESS":"健康路一段２００巷１０號","OBJECTID":341393},"geometry":{"x":168633.98000000045,"y":2542511.9600000009}},{"attributes":{"ID":341403,"DIS_CODE":0,"TOWNNAME":"中西區","LI":"郡王里","LIN":"1鄰","STREET":"健康路","SECT":"一段","MAREA":" ","LANE":"２００巷","ALLEY":" ","HOUSE_NO":"１１號","E_COORD97":168597.98999999999,"N_COORD97":2542513.4700000002,"ADDRESS":"健康路一段２００巷１１號","OBJECTID":341394},"geometry":{"x":168597.99000000022,"y":2542513.4700000025}},{"attributes":{"ID":341404,"DIS_CODE":0,"TOWNNAME":"中西區","LI":"郡王里","LIN":"1鄰","STREET":"健康路","SECT":"一段","MAREA":" ","LANE":"２００巷","ALLEY":" ","HOUSE_NO":"１２號","E_COORD97":168639.38,"N_COORD97":2542511.1400000001,"ADDRESS":"健康路一段２００巷１２號","OBJECTID":341395},"geometry":{"x":168639.37999999896,"y":2542511.1400000006}},{"attributes":{"ID":341405,"DIS_CODE":0,"TOWNNAME":"中西區","LI":"郡王里","LIN":"1鄰","STREET":"健康路","SECT":"一段","MAREA":" ","LANE":"２００巷","ALLEY":" ","HOUSE_NO":"１３號","E_COORD97":168592.20999999999,"N_COORD97":2542513.3999999999,"ADDRESS":"健康路一段２００巷１３號","OBJECTID":341396},"geometry":{"x":168592.21000000089,"y":2542513.4000000041}},{"attributes":{"ID":341406,"DIS_CODE":0,"TOWNNAME":"中西區","LI":"郡王里","LIN":"1鄰","STREET":"健康路","SECT":"一段","MAREA":" ","LANE":"２００巷","ALLEY":" ","HOUSE_NO":"１４號","E_COORD97":168644.79000000001,"N_COORD97":2542510.8999999999,"ADDRESS":"健康路一段２００巷１４號","OBJECTID":341397},"geometry":{"x":168644.79000000004,"y":2542510.9000000022}},{"attributes":{"ID":341407,"DIS_CODE":0,"TOWNNAME":"中西區","LI":"郡王里","LIN":"1鄰","STREET":"健康路","SECT":"一段","MAREA":" ","LANE":"２００巷","ALLEY":" ","HOUSE_NO":"１６號","E_COORD97":168650.12,"N_COORD97":2542510.48,"ADDRESS":"健康路一段２００巷１６號","OBJECTID":341398},"geometry":{"x":168650.12000000104,"y":2542510.4800000023}},{"attributes":{"ID":341408,"DIS_CODE":0,"TOWNNAME":"中西區","LI":"郡王里","LIN":"1鄰","STREET":"健康路","SECT":"一段","MAREA":" ","LANE":"２００巷","ALLEY":" ","HOUSE_NO":"１７號","E_COORD97":168577.54999999999,"N_COORD97":2542514.9399999999,"ADDRESS":"健康路一段２００巷１７號","OBJECTID":341399},"geometry":{"x":168577.55000000075,"y":2542514.9399999995}},{"attributes":{"ID":341409,"DIS_CODE":0,"TOWNNAME":"中西區","LI":"郡王里","LIN":"1鄰","STREET":"健康路","SECT":"一段","MAREA":" ","LANE":"２００巷","ALLEY":" ","HOUSE_NO":"１８號","E_COORD97":168653.23999999999,"N_COORD97":2542518.79,"ADDRESS":"健康路一段２００巷１８號","OBJECTID":341400},"geometry":{"x":168653.24000000115,"y":2542518.7899999991}}]}