{"displayFieldName":"TOWNNAME","fieldAliases":{"ID":"ID","DIS_CODE":"DIS_CODE","TOWNNAME":"TOWNNAME","LI":"LI","LIN":"LIN","STREET":"STREET","SECT":"SECT","MAREA":"MAREA","LANE":"LANE","ALLEY":"ALLEY","HOUSE_NO":"HOUSE_NO","E_COORD97":"E_COORD97","N_COORD97":"N_COORD97","ADDRESS":"ADDRESS","OBJECTID":"OBJECTID"},"geometryType":"esriGeometryPoint","spatialReference":{"wkid":102443,"latestWkid":3826},"fields":[{"name":"ID","type":"esriFieldTypeDouble","alias":"ID"},{"name":"DIS_CODE","type":"esriFieldTypeInteger","alias":"DIS_CODE"},{"name":"TOWNNAME","type":"esriFieldTypeString","alias":"TOWNNAME","length":8},{"name":"LI","type":"esriFieldTypeString","alias":"LI","length":8},{"name":"LIN","type":"esriFieldTypeString","alias":"LIN","length":12},{"name":"STREET","type":"esriFieldTypeString","alias":"STREET","length":20},{"name":"SECT","type":"esriFieldTypeString","alias":"SECT","length":8},{"name":"MAREA","type":"esriFieldTypeString","alias":"MAREA","length":12},{"name":"LANE","type":"esriFieldTypeString","alias":"LANE","length":10},{"name":"ALLEY","type":"esriFieldTypeString","alias":"ALLEY","length":10},{"name":"HOUSE_NO","type":"esriFieldTypeString","alias":"HOUSE_NO","length":20},{"name":"E_COORD97","type":"esriFieldTypeDouble","alias":"E_COORD97"},{"name":"N_COORD97","type":"esriFieldTypeDouble","alias":"N_COORD97"},{"name":"ADDRESS","type":"esriFieldTypeString","alias":"ADDRESS","length":50},{"name":"OBJECTID","type":"esriFieldTypeOID","alias":"OBJECTID"}],"features":[{"attributes":{"ID":136401,"DIS_CODE":0,"TOWNNAME":"東區","LI":"小東里","LIN":"27鄰","STREET":"小東路","SECT":" ","MAREA":" ","LANE":"１９８巷","ALLEY":"４０弄","HOUSE_NO":"２５號","E_COORD97":170763.87,"N_COORD97":2544358,"ADDRESS":"小東路１９８巷４０弄２５號","OBJECTID":136401},"geometry":{"x":170763.87000000197,"y":2544358.0000000019}},{"attributes":{"ID":136402,"DIS_CODE":0,"TOWNNAME":"東區","LI":"小東里","LIN":"27鄰","STREET":"小東路","SECT":" ","MAREA":" ","LANE":"１９８巷","ALLEY":"４０弄","HOUSE_NO":"２９號","E_COORD97":170756.56,"N_COORD97":2544358,"ADDRESS":"小東路１９８巷４０弄２９號","OBJECTID":136402},"geometry":{"x":170756.55999999959,"y":2544358.0000000019}},{"attributes":{"ID":136403,"DIS_CODE":0,"TOWNNAME":"安平區","LI":"漁光里","LIN":"6鄰","STREET":"漁光路","SECT":" ","MAREA":" ","LANE":" ","ALLEY":" ","HOUSE_NO":"６４號","E_COORD97":163871.28,"N_COORD97":2542048.7599999998,"ADDRESS":"漁光路６４號","OBJECTID":136403},"geometry":{"x":163871.28000000026,"y":2542048.7599999998}},{"attributes":{"ID":136404,"DIS_CODE":0,"TOWNNAME":"東區","LI":"小東里","LIN":"27鄰","STREET":"小東路","SECT":" ","MAREA":" ","LANE":"１９８巷","ALLEY":"４０弄","HOUSE_NO":"３１號","E_COORD97":170752.60999999999,"N_COORD97":2544358,"ADDRESS":"小東路１９８巷４０弄３１號","OBJECTID":136404},"geometry":{"x":170752.61000000127,"y":2544358.0000000019}},{"attributes":{"ID":136405,"DIS_CODE":0,"TOWNNAME":"東區","LI":"小東里","LIN":"27鄰","STREET":"小東路","SECT":" ","MAREA":" ","LANE":"１９８巷","ALLEY":"４０弄","HOUSE_NO":"３號","E_COORD97":170808.20999999999,"N_COORD97":2544357.8799999999,"ADDRESS":"小東路１９８巷４０弄３號","OBJECTID":136405},"geometry":{"x":170808.20999999996,"y":2544357.8800000008}},{"attributes":{"ID":136406,"DIS_CODE":0,"TOWNNAME":"東區","LI":"小東里","LIN":"27鄰","STREET":"小東路","SECT":" ","MAREA":" ","LANE":"１９８巷","ALLEY":"４０弄","HOUSE_NO":"５號","E_COORD97":170804.38,"N_COORD97":2544358,"ADDRESS":"小東路１９８巷４０弄５號","OBJECTID":136406},"geometry":{"x":170804.38000000175,"y":2544358.0000000019}},{"attributes":{"ID":136407,"DIS_CODE":0,"TOWNNAME":"後壁區","LI":"後部里","LIN":" ","STREET":" ","SECT":" ","MAREA":"後部","LANE":" ","ALLEY":" ","HOUSE_NO":"２５之１號","E_COORD97":182110.59,"N_COORD97":2586883.3300000001,"ADDRESS":"後部２５之１號","OBJECTID":136407},"geometry":{"x":182110.58999999985,"y":2586883.3300000038}},{"attributes":{"ID":136408,"DIS_CODE":0,"TOWNNAME":"後壁區","LI":"後部里","LIN":" ","STREET":" ","SECT":" ","MAREA":"後部","LANE":" ","ALLEY":" ","HOUSE_NO":"２８之２號","E_COORD97":182120.34,"N_COORD97":2586836.7000000002,"ADDRESS":"後部２８之２號","OBJECTID":136408},"geometry":{"x":182120.34000000078,"y":2586836.7000000011}},{"attributes":{"ID":136409,"DIS_CODE":0,"TOWNNAME":"後壁區","LI":"後部里","LIN":" ","STREET":" ","SECT":" ","MAREA":"後部","LANE":" ","ALLEY":" ","HOUSE_NO":"３２之４號","E_COORD97":182037,"N_COORD97":2586640.7200000002,"ADDRESS":"後部３２之４號","OBJECTID":136409},"geometry":{"x":182037,"y":2586640.7200000044}},{"attributes":{"ID":136410,"DIS_CODE":0,"TOWNNAME":"後壁區","LI":"後部里","LIN":" ","STREET":" ","SECT":" ","MAREA":"後部","LANE":" ","ALLEY":" ","HOUSE_NO":"３２之５號","E_COORD97":182038.14999999999,"N_COORD97":2586644.4399999999,"ADDRESS":"後部３２之５號","OBJECTID":136410},"geometry":{"x":182038.15000000037,"y":2586644.4400000032}},{"attributes":{"ID":136411,"DIS_CODE":0,"TOWNNAME":"後壁區","LI":"後部里","LIN":" ","STREET":" ","SECT":" ","MAREA":"後部","LANE":" ","ALLEY":" ","HOUSE_NO":"３３號","E_COORD97":182024.26000000001,"N_COORD97":2586713.6200000001,"ADDRESS":"後部３３號","OBJECTID":136411},"geometry":{"x":182024.26000000071,"y":2586713.6200000029}},{"attributes":{"ID":136412,"DIS_CODE":0,"TOWNNAME":"安平區","LI":"漁光里","LIN":"6鄰","STREET":"漁光路","SECT":" ","MAREA":" ","LANE":" ","ALLEY":" ","HOUSE_NO":"５８號","E_COORD97":163890.85999999999,"N_COORD97":2542036.1200000001,"ADDRESS":"漁光路５８號","OBJECTID":136412},"geometry":{"x":163890.86000000127,"y":2542036.120000001}},{"attributes":{"ID":136413,"DIS_CODE":0,"TOWNNAME":"安平區","LI":"億載里","LIN":"6鄰","STREET":"平豐路","SECT":" ","MAREA":" ","LANE":" ","ALLEY":" ","HOUSE_NO":"２５７號","E_COORD97":164273.12,"N_COORD97":2543710.3199999998,"ADDRESS":"平豐路２５７號","OBJECTID":136413},"geometry":{"x":164273.12000000197,"y":2543710.3199999984}},{"attributes":{"ID":136414,"DIS_CODE":0,"TOWNNAME":"安平區","LI":"文平里","LIN":"6鄰","STREET":"永華二街","SECT":" ","MAREA":" ","LANE":" ","ALLEY":" ","HOUSE_NO":"１００號","E_COORD97":166375.92000000001,"N_COORD97":2543013.8700000001,"ADDRESS":"永華二街１００號","OBJECTID":136414},"geometry":{"x":166375.91999999993,"y":2543013.8700000029}},{"attributes":{"ID":136415,"DIS_CODE":0,"TOWNNAME":"東區","LI":"小東里","LIN":"27鄰","STREET":"小東路","SECT":" ","MAREA":" ","LANE":"１９８巷","ALLEY":"４０弄","HOUSE_NO":"７號","E_COORD97":170800.17999999999,"N_COORD97":2544358,"ADDRESS":"小東路１９８巷４０弄７號","OBJECTID":136415},"geometry":{"x":170800.1799999997,"y":2544358.0000000019}},{"attributes":{"ID":136416,"DIS_CODE":0,"TOWNNAME":"歸仁區","LI":"看東里","LIN":"6鄰","STREET":"成功一街","SECT":" ","MAREA":" ","LANE":" ","ALLEY":" ","HOUSE_NO":"１２２號","E_COORD97":178494.99663000001,"N_COORD97":2539997.6393900001,"ADDRESS":"成功一街１２２號","OBJECTID":136416},"geometry":{"x":178494.99663000181,"y":2539997.6393900011}},{"attributes":{"ID":136417,"DIS_CODE":0,"TOWNNAME":"安平區","LI":"華平里","LIN":"6鄰","STREET":"怡平路","SECT":" ","MAREA":" ","LANE":"４１０巷","ALLEY":" ","HOUSE_NO":"１０１號","E_COORD97":165429.29999999999,"N_COORD97":2544078.1200000001,"ADDRESS":"怡平路４１０巷１０１號","OBJECTID":136417},"geometry":{"x":165429.30000000168,"y":2544078.120000001}},{"attributes":{"ID":136418,"DIS_CODE":0,"TOWNNAME":"安平區","LI":"建平里","LIN":"6鄰","STREET":"慶平路","SECT":" ","MAREA":" ","LANE":" ","ALLEY":" ","HOUSE_NO":"１８８之２號","E_COORD97":165889.909568,"N_COORD97":2544206.8473499999,"ADDRESS":"慶平路１８８之２號","OBJECTID":136418},"geometry":{"x":165889.90956799965,"y":2544206.8473460004}},{"attributes":{"ID":136419,"DIS_CODE":0,"TOWNNAME":"後壁區","LI":"後部里","LIN":" ","STREET":" ","SECT":" ","MAREA":"後部","LANE":" ","ALLEY":" ","HOUSE_NO":"３６之１號","E_COORD97":182032.47,"N_COORD97":2586740.5699999998,"ADDRESS":"後部３６之１號","OBJECTID":136419},"geometry":{"x":182032.4700000016,"y":2586740.5700000022}},{"attributes":{"ID":136420,"DIS_CODE":0,"TOWNNAME":"後壁區","LI":"後部里","LIN":" ","STREET":" ","SECT":" ","MAREA":"後部","LANE":" ","ALLEY":" ","HOUSE_NO":"４８之１號","E_COORD97":182058.76999999999,"N_COORD97":2586893.7000000002,"ADDRESS":"後部４８之１號","OBJECTID":136420},"geometry":{"x":182058.76999999955,"y":2586893.700000003}},{"attributes":{"ID":136421,"DIS_CODE":0,"TOWNNAME":"後壁區","LI":"後部里","LIN":" ","STREET":" ","SECT":" ","MAREA":"後部","LANE":" ","ALLEY":" ","HOUSE_NO":"４８之２號","E_COORD97":182058.92999999999,"N_COORD97":2586897.0299999998,"ADDRESS":"後部４８之２號","OBJECTID":136421},"geometry":{"x":182058.9299999997,"y":2586897.0299999993}},{"attributes":{"ID":136422,"DIS_CODE":0,"TOWNNAME":"後壁區","LI":"後部里","LIN":" ","STREET":" ","SECT":" ","MAREA":"後部","LANE":" ","ALLEY":" ","HOUSE_NO":"５１號","E_COORD97":182078.14999999999,"N_COORD97":2586965.1400000001,"ADDRESS":"後部５１號","OBJECTID":136422},"geometry":{"x":182078.1500000013,"y":2586965.1400000006}},{"attributes":{"ID":136423,"DIS_CODE":0,"TOWNNAME":"後壁區","LI":"後部里","LIN":" ","STREET":" ","SECT":" ","MAREA":"後部","LANE":" ","ALLEY":" ","HOUSE_NO":"５４之３號","E_COORD97":182133.69,"N_COORD97":2586931.8799999999,"ADDRESS":"後部５４之３號","OBJECTID":136423},"geometry":{"x":182133.69000000134,"y":2586931.879999999}},{"attributes":{"ID":136424,"DIS_CODE":0,"TOWNNAME":"後壁區","LI":"後部里","LIN":" ","STREET":" ","SECT":" ","MAREA":"後部","LANE":" ","ALLEY":" ","HOUSE_NO":"５６之１號","E_COORD97":182118.26999999999,"N_COORD97":2586982.1800000002,"ADDRESS":"後部５６之１號","OBJECTID":136424},"geometry":{"x":182118.27000000142,"y":2586982.1800000034}},{"attributes":{"ID":136425,"DIS_CODE":0,"TOWNNAME":"後壁區","LI":"後部里","LIN":" ","STREET":" ","SECT":" ","MAREA":"後部","LANE":" ","ALLEY":" ","HOUSE_NO":"７３號","E_COORD97":182233.73000000001,"N_COORD97":2586946.96,"ADDRESS":"後部７３號","OBJECTID":136425},"geometry":{"x":182233.73000000138,"y":2586946.9600000009}},{"attributes":{"ID":136426,"DIS_CODE":0,"TOWNNAME":"東區","LI":"小東里","LIN":"27鄰","STREET":"小東路","SECT":" ","MAREA":" ","LANE":"１９８巷","ALLEY":"４０弄","HOUSE_NO":"９號","E_COORD97":170796.10999999999,"N_COORD97":2544358,"ADDRESS":"小東路１９８巷４０弄９號","OBJECTID":136426},"geometry":{"x":170796.11000000034,"y":2544358.0000000019}},{"attributes":{"ID":136427,"DIS_CODE":0,"TOWNNAME":"東區","LI":"小東里","LIN":"27鄰","STREET":"小東路","SECT":" ","MAREA":" ","LANE":"１９８巷","ALLEY":"４０弄","HOUSE_NO":"１１號","E_COORD97":170791.91,"N_COORD97":2544358,"ADDRESS":"小東路１９８巷４０弄１１號","OBJECTID":136427},"geometry":{"x":170791.91000000015,"y":2544358.0000000019}},{"attributes":{"ID":136428,"DIS_CODE":0,"TOWNNAME":"東區","LI":"小東里","LIN":"27鄰","STREET":"小東路","SECT":" ","MAREA":" ","LANE":"１９８巷","ALLEY":"４０弄","HOUSE_NO":"５１號","E_COORD97":170688.5,"N_COORD97":2544357.25,"ADDRESS":"小東路１９８巷４０弄５１號","OBJECTID":136428},"geometry":{"x":170688.50000000093,"y":2544357.25}},{"attributes":{"ID":136429,"DIS_CODE":0,"TOWNNAME":"東區","LI":"小東里","LIN":"27鄰","STREET":"小東路","SECT":" ","MAREA":" ","LANE":"１９８巷","ALLEY":"４０弄","HOUSE_NO":"４４號","E_COORD97":170692.92999999999,"N_COORD97":2544369.2599999998,"ADDRESS":"小東路１９８巷４０弄４４號","OBJECTID":136429},"geometry":{"x":170692.9299999997,"y":2544369.2600000016}},{"attributes":{"ID":136430,"DIS_CODE":0,"TOWNNAME":"東區","LI":"小東里","LIN":"27鄰","STREET":"小東路","SECT":" ","MAREA":" ","LANE":"１９８巷","ALLEY":"４０弄","HOUSE_NO":"４６號","E_COORD97":170688.26000000001,"N_COORD97":2544369.6200000001,"ADDRESS":"小東路１９８巷４０弄４６號","OBJECTID":136430},"geometry":{"x":170688.26000000071,"y":2544369.620000001}},{"attributes":{"ID":136431,"DIS_CODE":0,"TOWNNAME":"東區","LI":"小東里","LIN":"27鄰","STREET":"小東路","SECT":" ","MAREA":" ","LANE":"１９８巷","ALLEY":"４０弄","HOUSE_NO":"４８號","E_COORD97":170684.06,"N_COORD97":2544369.7400000002,"ADDRESS":"小東路１９８巷４０弄４８號","OBJECTID":136431},"geometry":{"x":170684.06000000145,"y":2544369.7400000021}},{"attributes":{"ID":136432,"DIS_CODE":0,"TOWNNAME":"東區","LI":"小東里","LIN":"27鄰","STREET":"小東路","SECT":" ","MAREA":" ","LANE":"１９８巷","ALLEY":"４０弄","HOUSE_NO":"５０號","E_COORD97":170679.39000000001,"N_COORD97":2544369.5,"ADDRESS":"小東路１９８巷４０弄５０號","OBJECTID":136432},"geometry":{"x":170679.38999999966,"y":2544369.5}},{"attributes":{"ID":136433,"DIS_CODE":0,"TOWNNAME":"東區","LI":"小東里","LIN":"27鄰","STREET":"小東路","SECT":" ","MAREA":" ","LANE":"１９８巷","ALLEY":"４０弄","HOUSE_NO":"４９號","E_COORD97":170692.92999999999,"N_COORD97":2544356.8900000001,"ADDRESS":"小東路１９８巷４０弄４９號","OBJECTID":136433},"geometry":{"x":170692.9299999997,"y":2544356.8900000006}},{"attributes":{"ID":136434,"DIS_CODE":0,"TOWNNAME":"東區","LI":"小東里","LIN":"27鄰","STREET":"小東路","SECT":" ","MAREA":" ","LANE":"１９８巷","ALLEY":"４０弄","HOUSE_NO":"５３號","E_COORD97":170683.59,"N_COORD97":2544357.1299999999,"ADDRESS":"小東路１９８巷４０弄５３號","OBJECTID":136434},"geometry":{"x":170683.58999999985,"y":2544357.129999999}},{"attributes":{"ID":136435,"DIS_CODE":0,"TOWNNAME":"東區","LI":"小東里","LIN":"27鄰","STREET":"小東路","SECT":" ","MAREA":" ","LANE":"１９８巷","ALLEY":"４０弄","HOUSE_NO":"５５號","E_COORD97":170679.03,"N_COORD97":2544357.3700000001,"ADDRESS":"小東路１９８巷４０弄５５號","OBJECTID":136435},"geometry":{"x":170679.03000000026,"y":2544357.370000001}},{"attributes":{"ID":136436,"DIS_CODE":0,"TOWNNAME":"東區","LI":"富強里","LIN":"27鄰","STREET":"裕農路","SECT":" ","MAREA":" ","LANE":"２８８巷","ALLEY":"７０弄","HOUSE_NO":"１９號","E_COORD97":170954.62,"N_COORD97":2542873.0699999998,"ADDRESS":"裕農路２８８巷７０弄１９號","OBJECTID":136436},"geometry":{"x":170954.62000000011,"y":2542873.0700000003}},{"attributes":{"ID":136437,"DIS_CODE":0,"TOWNNAME":"東區","LI":"小東里","LIN":"27鄰","STREET":"小東路","SECT":" ","MAREA":" ","LANE":"１９８巷","ALLEY":"４０弄","HOUSE_NO":"４５號","E_COORD97":170704.07999999999,"N_COORD97":2544356.1800000002,"ADDRESS":"小東路１９８巷４０弄４５號","OBJECTID":136437},"geometry":{"x":170704.08000000007,"y":2544356.1800000016}},{"attributes":{"ID":136438,"DIS_CODE":0,"TOWNNAME":"後壁區","LI":"後部里","LIN":" ","STREET":" ","SECT":" ","MAREA":"後部","LANE":" ","ALLEY":" ","HOUSE_NO":"８２之１號","E_COORD97":182241.54999999999,"N_COORD97":2586811.46,"ADDRESS":"後部８２之１號","OBJECTID":136438},"geometry":{"x":182241.54999999981,"y":2586811.4600000009}},{"attributes":{"ID":136439,"DIS_CODE":0,"TOWNNAME":"安平區","LI":"平安里","LIN":"6鄰","STREET":"安平路","SECT":" ","MAREA":" ","LANE":" ","ALLEY":" ","HOUSE_NO":"３７６號","E_COORD97":165489.85000000001,"N_COORD97":2544333.8199999998,"ADDRESS":"安平路３７６號","OBJECTID":136439},"geometry":{"x":165489.85000000149,"y":2544333.8200000003}},{"attributes":{"ID":136440,"DIS_CODE":0,"TOWNNAME":"後壁區","LI":"後壁里","LIN":" ","STREET":" ","SECT":" ","MAREA":"後壁","LANE":" ","ALLEY":" ","HOUSE_NO":"１０１號","E_COORD97":184725.12,"N_COORD97":2585017.1299999999,"ADDRESS":"後壁１０１號","OBJECTID":136440},"geometry":{"x":184725.12000000011,"y":2585017.129999999}},{"attributes":{"ID":136441,"DIS_CODE":0,"TOWNNAME":"後壁區","LI":"後壁里","LIN":" ","STREET":" ","SECT":" ","MAREA":"後壁","LANE":" ","ALLEY":" ","HOUSE_NO":"１１３號","E_COORD97":184710.62,"N_COORD97":2584980.1899999999,"ADDRESS":"後壁１１３號","OBJECTID":136441},"geometry":{"x":184710.62000000104,"y":2584980.1899999995}},{"attributes":{"ID":136442,"DIS_CODE":0,"TOWNNAME":"鹽水區","LI":"義稠里","LIN":"6鄰","STREET":" ","SECT":" ","MAREA":"義稠","LANE":" ","ALLEY":" ","HOUSE_NO":"８４號","E_COORD97":174053.14000000001,"N_COORD97":2580774.7799999998,"ADDRESS":"義稠８４號","OBJECTID":136442},"geometry":{"x":174053.13999999966,"y":2580774.7800000012}},{"attributes":{"ID":136443,"DIS_CODE":0,"TOWNNAME":"東區","LI":"小東里","LIN":"27鄰","STREET":"小東路","SECT":" ","MAREA":" ","LANE":"１９８巷","ALLEY":"４０弄","HOUSE_NO":"５２號","E_COORD97":170693.72,"N_COORD97":2544393.6000000001,"ADDRESS":"小東路１９８巷４０弄５２號","OBJECTID":136443},"geometry":{"x":170693.72000000067,"y":2544393.6000000015}},{"attributes":{"ID":136444,"DIS_CODE":0,"TOWNNAME":"東區","LI":"小東里","LIN":"27鄰","STREET":"小東路","SECT":" ","MAREA":" ","LANE":"１９８巷","ALLEY":"４０弄","HOUSE_NO":"４３號","E_COORD97":170710.42999999999,"N_COORD97":2544356.0600000001,"ADDRESS":"小東路１９８巷４０弄４３號","OBJECTID":136444},"geometry":{"x":170710.43000000156,"y":2544356.0600000005}},{"attributes":{"ID":136445,"DIS_CODE":0,"TOWNNAME":"東區","LI":"小東里","LIN":"27鄰","STREET":"小東路","SECT":" ","MAREA":" ","LANE":"１９８巷","ALLEY":"４０弄","HOUSE_NO":"３９號","E_COORD97":170722.76999999999,"N_COORD97":2544356.5299999998,"ADDRESS":"小東路１９８巷４０弄３９號","OBJECTID":136445},"geometry":{"x":170722.76999999955,"y":2544356.5300000012}},{"attributes":{"ID":136446,"DIS_CODE":0,"TOWNNAME":"後壁區","LI":"後壁里","LIN":"12鄰","STREET":" ","SECT":" ","MAREA":"後壁","LANE":" ","ALLEY":" ","HOUSE_NO":"１９９號之１２０","E_COORD97":186016.791968,"N_COORD97":2584528.7891299999,"ADDRESS":"後壁１９９號之１２０","OBJECTID":136446},"geometry":{"x":186016.79196800105,"y":2584528.7891310025}},{"attributes":{"ID":136447,"DIS_CODE":0,"TOWNNAME":"後壁區","LI":"後壁里","LIN":" ","STREET":" ","SECT":" ","MAREA":"後壁","LANE":" ","ALLEY":" ","HOUSE_NO":"１２１號","E_COORD97":184725.89999999999,"N_COORD97":2584962.4199999999,"ADDRESS":"後壁１２１號","OBJECTID":136447},"geometry":{"x":184725.9000000013,"y":2584962.4199999999}},{"attributes":{"ID":136448,"DIS_CODE":0,"TOWNNAME":"後壁區","LI":"後壁里","LIN":" ","STREET":" ","SECT":" ","MAREA":"後壁","LANE":" ","ALLEY":" ","HOUSE_NO":"１３２之７號","E_COORD97":184832.98000000001,"N_COORD97":2584970.6400000001,"ADDRESS":"後壁１３２之７號","OBJECTID":136448},"geometry":{"x":184832.98000000045,"y":2584970.6400000025}},{"attributes":{"ID":136449,"DIS_CODE":0,"TOWNNAME":"後壁區","LI":"後壁里","LIN":" ","STREET":" ","SECT":" ","MAREA":"後壁","LANE":" ","ALLEY":" ","HOUSE_NO":"１４２號","E_COORD97":184884.62,"N_COORD97":2585014.6200000001,"ADDRESS":"後壁１４２號","OBJECTID":136449},"geometry":{"x":184884.62000000011,"y":2585014.6200000029}},{"attributes":{"ID":136450,"DIS_CODE":0,"TOWNNAME":"後壁區","LI":"後壁里","LIN":" ","STREET":" ","SECT":" ","MAREA":"後壁","LANE":" ","ALLEY":" ","HOUSE_NO":"１４７之４３號","E_COORD97":184845.51999999999,"N_COORD97":2585135.4399999999,"ADDRESS":"後壁１４７之４３號","OBJECTID":136450},"geometry":{"x":184845.51999999955,"y":2585135.4399999995}},{"attributes":{"ID":136451,"DIS_CODE":0,"TOWNNAME":"後壁區","LI":"後壁里","LIN":" ","STREET":" ","SECT":" ","MAREA":"後壁","LANE":" ","ALLEY":" ","HOUSE_NO":"１４７號","E_COORD97":184830.76000000001,"N_COORD97":2585027.54,"ADDRESS":"後壁１４７號","OBJECTID":136451},"geometry":{"x":184830.75999999978,"y":2585027.540000001}},{"attributes":{"ID":136452,"DIS_CODE":0,"TOWNNAME":"後壁區","LI":"後壁里","LIN":" ","STREET":" ","SECT":" ","MAREA":"後壁","LANE":" ","ALLEY":" ","HOUSE_NO":"１５８之１號","E_COORD97":185030.07999999999,"N_COORD97":2585040.4300000002,"ADDRESS":"後壁１５８之１號","OBJECTID":136452},"geometry":{"x":185030.08000000007,"y":2585040.4299999997}},{"attributes":{"ID":136453,"DIS_CODE":0,"TOWNNAME":"後壁區","LI":"後壁里","LIN":" ","STREET":" ","SECT":" ","MAREA":"後壁","LANE":" ","ALLEY":" ","HOUSE_NO":"１６１號","E_COORD97":184975.95999999999,"N_COORD97":2585012.3100000001,"ADDRESS":"後壁１６１號","OBJECTID":136453},"geometry":{"x":184975.96000000089,"y":2585012.3100000042}},{"attributes":{"ID":136454,"DIS_CODE":0,"TOWNNAME":"後壁區","LI":"後壁里","LIN":" ","STREET":" ","SECT":" ","MAREA":"後壁","LANE":" ","ALLEY":" ","HOUSE_NO":"１８９之２號","E_COORD97":185140.85000000001,"N_COORD97":2585071.5299999998,"ADDRESS":"後壁１８９之２號","OBJECTID":136454},"geometry":{"x":185140.85000000056,"y":2585071.5300000012}},{"attributes":{"ID":136455,"DIS_CODE":0,"TOWNNAME":"後壁區","LI":"後壁里","LIN":" ","STREET":" ","SECT":" ","MAREA":"後壁","LANE":" ","ALLEY":" ","HOUSE_NO":"１９９之３號","E_COORD97":185338.42000000001,"N_COORD97":2584905.1299999999,"ADDRESS":"後壁１９９之３號","OBJECTID":136455},"geometry":{"x":185338.41999999993,"y":2584905.1300000008}},{"attributes":{"ID":136456,"DIS_CODE":0,"TOWNNAME":"後壁區","LI":"後壁里","LIN":" ","STREET":" ","SECT":" ","MAREA":"後壁","LANE":" ","ALLEY":" ","HOUSE_NO":"２０３之３號","E_COORD97":185501.94,"N_COORD97":2585001.5899999999,"ADDRESS":"後壁２０３之３號","OBJECTID":136456},"geometry":{"x":185501.94000000134,"y":2585001.5899999999}},{"attributes":{"ID":136457,"DIS_CODE":0,"TOWNNAME":"東區","LI":"小東里","LIN":"27鄰","STREET":"小東路","SECT":" ","MAREA":" ","LANE":"１９８巷","ALLEY":"４０弄","HOUSE_NO":"４１號","E_COORD97":170716.54000000001,"N_COORD97":2544356.4100000001,"ADDRESS":"小東路１９８巷４０弄４１號","OBJECTID":136457},"geometry":{"x":170716.54000000004,"y":2544356.4100000001}},{"attributes":{"ID":136458,"DIS_CODE":0,"TOWNNAME":"東區","LI":"小東里","LIN":"27鄰","STREET":"小東路","SECT":" ","MAREA":" ","LANE":"１９８巷","ALLEY":"４０弄","HOUSE_NO":"４０號","E_COORD97":170705.16,"N_COORD97":2544369.6200000001,"ADDRESS":"小東路１９８巷４０弄４０號","OBJECTID":136458},"geometry":{"x":170705.16000000015,"y":2544369.620000001}},{"attributes":{"ID":136459,"DIS_CODE":0,"TOWNNAME":"鹽水區","LI":"後宅里","LIN":"6鄰","STREET":" ","SECT":" ","MAREA":"後寮","LANE":" ","ALLEY":" ","HOUSE_NO":"４５號之４","E_COORD97":173456.09,"N_COORD97":2578661.5899999999,"ADDRESS":"後寮４５號之４","OBJECTID":136459},"geometry":{"x":173456.09000000078,"y":2578661.5899999999}},{"attributes":{"ID":136460,"DIS_CODE":0,"TOWNNAME":"鹽水區","LI":"後宅里","LIN":"6鄰","STREET":" ","SECT":" ","MAREA":"後寮","LANE":" ","ALLEY":" ","HOUSE_NO":"４５號之５","E_COORD97":173481.10999999999,"N_COORD97":2578665.2999999998,"ADDRESS":"後寮４５號之５","OBJECTID":136460},"geometry":{"x":173481.11000000034,"y":2578665.3000000007}},{"attributes":{"ID":136461,"DIS_CODE":0,"TOWNNAME":"鹽水區","LI":"後宅里","LIN":"6鄰","STREET":" ","SECT":" ","MAREA":"後寮","LANE":" ","ALLEY":" ","HOUSE_NO":"４５號之６","E_COORD97":173456.19,"N_COORD97":2578601.6699999999,"ADDRESS":"後寮４５號之６","OBJECTID":136461},"geometry":{"x":173456.19000000134,"y":2578601.6700000037}},{"attributes":{"ID":136462,"DIS_CODE":0,"TOWNNAME":"東區","LI":"小東里","LIN":"27鄰","STREET":"小東路","SECT":" ","MAREA":" ","LANE":"１９８巷","ALLEY":"４０弄","HOUSE_NO":"３６號","E_COORD97":170716.78,"N_COORD97":2544368.5499999998,"ADDRESS":"小東路１９８巷４０弄３６號","OBJECTID":136462},"geometry":{"x":170716.78000000026,"y":2544368.5500000026}},{"attributes":{"ID":136463,"DIS_CODE":0,"TOWNNAME":"永康區","LI":"西灣里","LIN":"27鄰","STREET":"公園路","SECT":" ","MAREA":" ","LANE":"７巷","ALLEY":"４４弄","HOUSE_NO":"７號","E_COORD97":174427.10999999999,"N_COORD97":2545856.7400000002,"ADDRESS":"公園路７巷４４弄７號","OBJECTID":136463},"geometry":{"x":174427.11000000034,"y":2545856.7400000002}},{"attributes":{"ID":136464,"DIS_CODE":0,"TOWNNAME":"永康區","LI":"西勢里","LIN":"27鄰","STREET":"廣興街","SECT":" ","MAREA":" ","LANE":"３８巷","ALLEY":"２６弄","HOUSE_NO":"１９號","E_COORD97":175991.20999999999,"N_COORD97":2546423.5499999998,"ADDRESS":"廣興街３８巷２６弄１９號","OBJECTID":136464},"geometry":{"x":175991.21000000089,"y":2546423.5500000007}},{"attributes":{"ID":136465,"DIS_CODE":0,"TOWNNAME":"永康區","LI":"西勢里","LIN":"27鄰","STREET":"廣興街","SECT":" ","MAREA":" ","LANE":"３８巷","ALLEY":"３４弄","HOUSE_NO":"２之１號","E_COORD97":176046.03,"N_COORD97":2546423.6099999999,"ADDRESS":"廣興街３８巷３４弄２之１號","OBJECTID":136465},"geometry":{"x":176046.03000000026,"y":2546423.6100000013}},{"attributes":{"ID":136466,"DIS_CODE":0,"TOWNNAME":"鹽水區","LI":"後宅里","LIN":"6鄰","STREET":" ","SECT":" ","MAREA":"後寮","LANE":" ","ALLEY":" ","HOUSE_NO":"４５號之７","E_COORD97":173451.76000000001,"N_COORD97":2578602.27,"ADDRESS":"後寮４５號之７","OBJECTID":136466},"geometry":{"x":173451.76000000071,"y":2578602.2699999996}},{"attributes":{"ID":136467,"DIS_CODE":0,"TOWNNAME":"鹽水區","LI":"後宅里","LIN":"6鄰","STREET":" ","SECT":" ","MAREA":"後寮","LANE":" ","ALLEY":" ","HOUSE_NO":"４５號之８","E_COORD97":173447.85000000001,"N_COORD97":2578603.04,"ADDRESS":"後寮４５號之８","OBJECTID":136467},"geometry":{"x":173447.84999999963,"y":2578603.040000001}},{"attributes":{"ID":136468,"DIS_CODE":0,"TOWNNAME":"鹽水區","LI":"後宅里","LIN":"6鄰","STREET":" ","SECT":" ","MAREA":"後寮","LANE":" ","ALLEY":" ","HOUSE_NO":"４５號之９","E_COORD97":173443.57000000001,"N_COORD97":2578603.3199999998,"ADDRESS":"後寮４５號之９","OBJECTID":136468},"geometry":{"x":173443.57000000123,"y":2578603.3200000003}},{"attributes":{"ID":136469,"DIS_CODE":0,"TOWNNAME":"永康區","LI":"西灣里","LIN":"27鄰","STREET":"公園路","SECT":" ","MAREA":" ","LANE":"７巷","ALLEY":"４４弄","HOUSE_NO":"５號","E_COORD97":174431.81,"N_COORD97":2545857.4900000002,"ADDRESS":"公園路７巷４４弄５號","OBJECTID":136469},"geometry":{"x":174431.80999999959,"y":2545857.4900000002}},{"attributes":{"ID":136470,"DIS_CODE":0,"TOWNNAME":"永康區","LI":"西勢里","LIN":"27鄰","STREET":"廣興街","SECT":" ","MAREA":" ","LANE":"３８巷","ALLEY":"２６弄","HOUSE_NO":"１５號","E_COORD97":175995.29999999999,"N_COORD97":2546430.5499999998,"ADDRESS":"廣興街３８巷２６弄１５號","OBJECTID":136470},"geometry":{"x":175995.29999999888,"y":2546430.5500000007}},{"attributes":{"ID":136471,"DIS_CODE":0,"TOWNNAME":"永康區","LI":"龍潭里","LIN":"27鄰","STREET":"中山北路","SECT":" ","MAREA":" ","LANE":"４６１巷","ALLEY":"２９弄","HOUSE_NO":"１號","E_COORD97":175082.66,"N_COORD97":2547854.9199999999,"ADDRESS":"中山北路４６１巷２９弄１號","OBJECTID":136471},"geometry":{"x":175082.66000000015,"y":2547854.9199999999}},{"attributes":{"ID":136472,"DIS_CODE":0,"TOWNNAME":"鹽水區","LI":"後宅里","LIN":"6鄰","STREET":" ","SECT":" ","MAREA":"後寮","LANE":" ","ALLEY":" ","HOUSE_NO":"４５號","E_COORD97":173383.47,"N_COORD97":2578538.2999999998,"ADDRESS":"後寮４５號","OBJECTID":136472},"geometry":{"x":173383.46999999881,"y":2578538.3000000026}},{"attributes":{"ID":136473,"DIS_CODE":0,"TOWNNAME":"鹽水區","LI":"後宅里","LIN":"6鄰","STREET":" ","SECT":" ","MAREA":"後寮","LANE":" ","ALLEY":" ","HOUSE_NO":"４６號","E_COORD97":173377.78,"N_COORD97":2578523.3999999999,"ADDRESS":"後寮４６號","OBJECTID":136473},"geometry":{"x":173377.78000000026,"y":2578523.4000000022}},{"attributes":{"ID":136474,"DIS_CODE":0,"TOWNNAME":"鹽水區","LI":"後宅里","LIN":"6鄰","STREET":" ","SECT":" ","MAREA":"後寮","LANE":" ","ALLEY":" ","HOUSE_NO":"５５號之８","E_COORD97":173248.85000000001,"N_COORD97":2578561.8300000001,"ADDRESS":"後寮５５號之８","OBJECTID":136474},"geometry":{"x":173248.85000000056,"y":2578561.8300000001}},{"attributes":{"ID":136475,"DIS_CODE":0,"TOWNNAME":"鹽水區","LI":"後宅里","LIN":"6鄰","STREET":" ","SECT":" ","MAREA":"後寮","LANE":" ","ALLEY":" ","HOUSE_NO":"５５號之９","E_COORD97":173248.35999999999,"N_COORD97":2578566.04,"ADDRESS":"後寮５５號之９","OBJECTID":136475},"geometry":{"x":173248.36000000127,"y":2578566.0399999991}},{"attributes":{"ID":136476,"DIS_CODE":0,"TOWNNAME":"鹽水區","LI":"後宅里","LIN":"6鄰","STREET":" ","SECT":" ","MAREA":"後寮","LANE":" ","ALLEY":" ","HOUSE_NO":"５５號","E_COORD97":173233.13,"N_COORD97":2578536.79,"ADDRESS":"後寮５５號","OBJECTID":136476},"geometry":{"x":173233.12999999989,"y":2578536.790000001}},{"attributes":{"ID":136477,"DIS_CODE":0,"TOWNNAME":"鹽水區","LI":"孫厝里","LIN":"6鄰","STREET":" ","SECT":" ","MAREA":"孫厝寮","LANE":" ","ALLEY":" ","HOUSE_NO":"３８號","E_COORD97":170205.62,"N_COORD97":2576773.0699999998,"ADDRESS":"孫厝寮３８號","OBJECTID":136477},"geometry":{"x":170205.62000000011,"y":2576773.0700000022}},{"attributes":{"ID":136478,"DIS_CODE":0,"TOWNNAME":"鹽水區","LI":"孫厝里","LIN":"6鄰","STREET":" ","SECT":" ","MAREA":"孫厝寮","LANE":" ","ALLEY":" ","HOUSE_NO":"３９號","E_COORD97":170217.47,"N_COORD97":2576753.0800000001,"ADDRESS":"孫厝寮３９號","OBJECTID":136478},"geometry":{"x":170217.47000000067,"y":2576753.0800000001}},{"attributes":{"ID":136479,"DIS_CODE":0,"TOWNNAME":"鹽水區","LI":"孫厝里","LIN":"6鄰","STREET":" ","SECT":" ","MAREA":"孫厝寮","LANE":" ","ALLEY":" ","HOUSE_NO":"４０號","E_COORD97":170220.04999999999,"N_COORD97":2576774.3199999998,"ADDRESS":"孫厝寮４０號","OBJECTID":136479},"geometry":{"x":170220.05000000075,"y":2576774.3200000022}},{"attributes":{"ID":136480,"DIS_CODE":0,"TOWNNAME":"鹽水區","LI":"孫厝里","LIN":"6鄰","STREET":" ","SECT":" ","MAREA":"孫厝寮","LANE":" ","ALLEY":" ","HOUSE_NO":"４１號","E_COORD97":170224.23000000001,"N_COORD97":2576791.1600000001,"ADDRESS":"孫厝寮４１號","OBJECTID":136480},"geometry":{"x":170224.23000000045,"y":2576791.1599999983}},{"attributes":{"ID":136481,"DIS_CODE":0,"TOWNNAME":"永康區","LI":"龍潭里","LIN":"27鄰","STREET":"中山北路","SECT":" ","MAREA":" ","LANE":"４６１巷","ALLEY":"２９弄","HOUSE_NO":"８號","E_COORD97":175095.14999999999,"N_COORD97":2547870.5299999998,"ADDRESS":"中山北路４６１巷２９弄８號","OBJECTID":136481},"geometry":{"x":175095.15000000224,"y":2547870.5299999993}},{"attributes":{"ID":136482,"DIS_CODE":0,"TOWNNAME":"永康區","LI":"龍潭里","LIN":"27鄰","STREET":"中山北路","SECT":" ","MAREA":" ","LANE":"４６１巷","ALLEY":"２９弄","HOUSE_NO":"１２號","E_COORD97":175088.10999999999,"N_COORD97":2547870.25,"ADDRESS":"中山北路４６１巷２９弄１２號","OBJECTID":136482},"geometry":{"x":175088.11000000034,"y":2547870.25}},{"attributes":{"ID":136483,"DIS_CODE":0,"TOWNNAME":"永康區","LI":"龍潭里","LIN":"27鄰","STREET":"中山北路","SECT":" ","MAREA":" ","LANE":"４６１巷","ALLEY":"２９弄","HOUSE_NO":"２４號","E_COORD97":175060.54000000001,"N_COORD97":2547870.0699999998,"ADDRESS":"中山北路４６１巷２９弄２４號","OBJECTID":136483},"geometry":{"x":175060.54000000097,"y":2547870.0700000022}},{"attributes":{"ID":136484,"DIS_CODE":0,"TOWNNAME":"永康區","LI":"龍潭里","LIN":"27鄰","STREET":"中山北路","SECT":" ","MAREA":" ","LANE":"４６１巷","ALLEY":"２９弄","HOUSE_NO":"３４號","E_COORD97":175038.64000000001,"N_COORD97":2547868.9199999999,"ADDRESS":"中山北路４６１巷２９弄３４號","OBJECTID":136484},"geometry":{"x":175038.64000000153,"y":2547868.9199999999}},{"attributes":{"ID":136485,"DIS_CODE":0,"TOWNNAME":"永康區","LI":"龍潭里","LIN":"27鄰","STREET":"中山北路","SECT":" ","MAREA":" ","LANE":"４６１巷","ALLEY":"１１弄","HOUSE_NO":"５號","E_COORD97":175090.41,"N_COORD97":2547809.3700000001,"ADDRESS":"中山北路４６１巷１１弄５號","OBJECTID":136485},"geometry":{"x":175090.41000000108,"y":2547809.370000001}},{"attributes":{"ID":136486,"DIS_CODE":0,"TOWNNAME":"永康區","LI":"龍潭里","LIN":"27鄰","STREET":"中山北路","SECT":" ","MAREA":" ","LANE":"４６１巷","ALLEY":"２９弄","HOUSE_NO":"２８號","E_COORD97":175052.10000000001,"N_COORD97":2547869.3199999998,"ADDRESS":"中山北路４６１巷２９弄２８號","OBJECTID":136486},"geometry":{"x":175052.09999999963,"y":2547869.3200000003}},{"attributes":{"ID":136487,"DIS_CODE":0,"TOWNNAME":"永康區","LI":"龍潭里","LIN":"27鄰","STREET":"中山北路","SECT":" ","MAREA":" ","LANE":"４６１巷","ALLEY":"１１弄","HOUSE_NO":"９號","E_COORD97":175082.5,"N_COORD97":2547808.6200000001,"ADDRESS":"中山北路４６１巷１１弄９號","OBJECTID":136487},"geometry":{"x":175082.50000000093,"y":2547808.6200000029}},{"attributes":{"ID":136488,"DIS_CODE":0,"TOWNNAME":"永康區","LI":"龍潭里","LIN":"27鄰","STREET":"中山北路","SECT":" ","MAREA":" ","LANE":"４６１巷","ALLEY":"１１弄","HOUSE_NO":"８號","E_COORD97":175071.28,"N_COORD97":2547823.8700000001,"ADDRESS":"中山北路４６１巷１１弄８號","OBJECTID":136488},"geometry":{"x":175071.28000000026,"y":2547823.8700000029}},{"attributes":{"ID":136489,"DIS_CODE":0,"TOWNNAME":"永康區","LI":"龍潭里","LIN":"27鄰","STREET":"中山北路","SECT":" ","MAREA":" ","LANE":"４６１巷","ALLEY":"１１弄","HOUSE_NO":"１７號","E_COORD97":175064.79999999999,"N_COORD97":2547802.6200000001,"ADDRESS":"中山北路４６１巷１１弄１７號","OBJECTID":136489},"geometry":{"x":175064.80000000168,"y":2547802.6200000029}},{"attributes":{"ID":136490,"DIS_CODE":0,"TOWNNAME":"永康區","LI":"龍潭里","LIN":"27鄰","STREET":"中山北路","SECT":" ","MAREA":" ","LANE":"４６１巷","ALLEY":"１１弄","HOUSE_NO":"２之１號","E_COORD97":175084.60000000001,"N_COORD97":2547819.5899999999,"ADDRESS":"中山北路４６１巷１１弄２之１號","OBJECTID":136490},"geometry":{"x":175084.60000000149,"y":2547819.5899999999}},{"attributes":{"ID":136491,"DIS_CODE":0,"TOWNNAME":"新化區","LI":"唪口里","LIN":"6鄰","STREET":" ","SECT":" ","MAREA":"唪口","LANE":" ","ALLEY":" ","HOUSE_NO":"８５號之２","E_COORD97":177993.75,"N_COORD97":2549087.2599999998,"ADDRESS":"唪口８５號之２","OBJECTID":136491},"geometry":{"x":177993.75,"y":2549087.2599999979}},{"attributes":{"ID":136492,"DIS_CODE":0,"TOWNNAME":"新化區","LI":"崙頂里","LIN":"6鄰","STREET":" ","SECT":" ","MAREA":"崙子頂","LANE":" ","ALLEY":" ","HOUSE_NO":"２６７號","E_COORD97":176765.42999999999,"N_COORD97":2547027.25,"ADDRESS":"崙子頂２６７號","OBJECTID":136492},"geometry":{"x":176765.4299999997,"y":2547027.2500000019}},{"attributes":{"ID":136493,"DIS_CODE":0,"TOWNNAME":"新化區","LI":"羊林里","LIN":"6鄰","STREET":" ","SECT":" ","MAREA":"\u25A0拔林","LANE":" ","ALLEY":" ","HOUSE_NO":"４８７號之２６","E_COORD97":183379.92000000001,"N_COORD97":2551753.2599999998,"ADDRESS":"\u25A0拔林４８７號之２６","OBJECTID":136493},"geometry":{"x":183379.91999999993,"y":2551753.2600000016}},{"attributes":{"ID":136494,"DIS_CODE":0,"TOWNNAME":"新化區","LI":"豐榮里","LIN":"6鄰","STREET":" ","SECT":" ","MAREA":"洋子","LANE":" ","ALLEY":" ","HOUSE_NO":"１１１號","E_COORD97":177927.48000000001,"N_COORD97":2548194.25,"ADDRESS":"洋子１１１號","OBJECTID":136494},"geometry":{"x":177927.48000000231,"y":2548194.2500000019}},{"attributes":{"ID":136495,"DIS_CODE":0,"TOWNNAME":"將軍區","LI":"長沙里","LIN":"5鄰","STREET":" ","SECT":" ","MAREA":"長沙","LANE":" ","ALLEY":" ","HOUSE_NO":"４４號","E_COORD97":157273.03,"N_COORD97":2568686.8300000001,"ADDRESS":"長沙４４號","OBJECTID":136495},"geometry":{"x":157273.03000000119,"y":2568686.8299999982}},{"attributes":{"ID":136496,"DIS_CODE":0,"TOWNNAME":"後壁區","LI":"後壁里","LIN":" ","STREET":" ","SECT":" ","MAREA":"後壁","LANE":" ","ALLEY":" ","HOUSE_NO":"３８之１號","E_COORD97":184705.23000000001,"N_COORD97":2584830.3999999999,"ADDRESS":"後壁３８之１號","OBJECTID":136496},"geometry":{"x":184705.23000000138,"y":2584830.4000000004}},{"attributes":{"ID":136497,"DIS_CODE":0,"TOWNNAME":"後壁區","LI":"後壁里","LIN":" ","STREET":" ","SECT":" ","MAREA":"後壁","LANE":" ","ALLEY":" ","HOUSE_NO":"４３之３號","E_COORD97":184629.64999999999,"N_COORD97":2584721.2799999998,"ADDRESS":"後壁４３之３號","OBJECTID":136497},"geometry":{"x":184629.6500000013,"y":2584721.2800000012}},{"attributes":{"ID":136498,"DIS_CODE":0,"TOWNNAME":"後壁區","LI":"後壁里","LIN":" ","STREET":" ","SECT":" ","MAREA":"後壁","LANE":" ","ALLEY":" ","HOUSE_NO":"９９之２號","E_COORD97":184732.47,"N_COORD97":2585037.75,"ADDRESS":"後壁９９之２號","OBJECTID":136498},"geometry":{"x":184732.46999999974,"y":2585037.75}},{"attributes":{"ID":136499,"DIS_CODE":0,"TOWNNAME":"後壁區","LI":"侯伯里","LIN":" ","STREET":" ","SECT":" ","MAREA":"後壁寮","LANE":" ","ALLEY":" ","HOUSE_NO":"１０８號","E_COORD97":185062.35999999999,"N_COORD97":2585463.1400000001,"ADDRESS":"後壁寮１０８號","OBJECTID":136499},"geometry":{"x":185062.36000000034,"y":2585463.1400000006}},{"attributes":{"ID":136500,"DIS_CODE":0,"TOWNNAME":"後壁區","LI":"侯伯里","LIN":" ","STREET":" ","SECT":" ","MAREA":"後壁寮","LANE":" ","ALLEY":" ","HOUSE_NO":"１１０號","E_COORD97":185175.75,"N_COORD97":2585391.8900000001,"ADDRESS":"後壁寮１１０號","OBJECTID":136500},"geometry":{"x":185175.75000000093,"y":2585391.8900000043}},{"attributes":{"ID":136501,"DIS_CODE":0,"TOWNNAME":"永康區","LI":"龍潭里","LIN":"27鄰","STREET":"中山北路","SECT":" ","MAREA":" ","LANE":"４６１巷","ALLEY":"１１弄","HOUSE_NO":"１４號","E_COORD97":175059.67000000001,"N_COORD97":2547822.8700000001,"ADDRESS":"中山北路４６１巷１１弄１４號","OBJECTID":136501},"geometry":{"x":175059.67000000086,"y":2547822.870000001}},{"attributes":{"ID":136502,"DIS_CODE":0,"TOWNNAME":"永康區","LI":"龍潭里","LIN":"27鄰","STREET":"中山北路","SECT":" ","MAREA":" ","LANE":"４６１巷","ALLEY":"１１弄","HOUSE_NO":"２１號","E_COORD97":175054.41,"N_COORD97":2547801.6299999999,"ADDRESS":"中山北路４６１巷１１弄２１號","OBJECTID":136502},"geometry":{"x":175054.41000000108,"y":2547801.629999999}},{"attributes":{"ID":136503,"DIS_CODE":0,"TOWNNAME":"永康區","LI":"龍潭里","LIN":"27鄰","STREET":"中山北路","SECT":" ","MAREA":" ","LANE":"４６１巷","ALLEY":"２９弄","HOUSE_NO":"１８號","E_COORD97":175073.95999999999,"N_COORD97":2547871.8300000001,"ADDRESS":"中山北路４６１巷２９弄１８號","OBJECTID":136503},"geometry":{"x":175073.96000000183,"y":2547871.8300000019}},{"attributes":{"ID":136504,"DIS_CODE":0,"TOWNNAME":"北區","LI":"文元里","LIN":"6鄰","STREET":"文賢二街","SECT":" ","MAREA":" ","LANE":"４３１巷","ALLEY":" ","HOUSE_NO":"１號","E_COORD97":167677.82000000001,"N_COORD97":2546074.4100000001,"ADDRESS":"文賢二街４３１巷１號","OBJECTID":136504},"geometry":{"x":167677.82000000123,"y":2546074.410000002}},{"attributes":{"ID":136505,"DIS_CODE":0,"TOWNNAME":"安平區","LI":"億載里","LIN":"15鄰","STREET":"光州三街","SECT":" ","MAREA":" ","LANE":" ","ALLEY":" ","HOUSE_NO":"２３號","E_COORD97":164033.01000000001,"N_COORD97":2543150.8300000001,"ADDRESS":"光州三街２３號","OBJECTID":136505},"geometry":{"x":164033.01000000071,"y":2543150.8300000038}},{"attributes":{"ID":136506,"DIS_CODE":0,"TOWNNAME":"安平區","LI":"億載里","LIN":"15鄰","STREET":"光州三街","SECT":" ","MAREA":" ","LANE":" ","ALLEY":" ","HOUSE_NO":"２４號","E_COORD97":164037.89999999999,"N_COORD97":2543137.79,"ADDRESS":"光州三街２４號","OBJECTID":136506},"geometry":{"x":164037.9000000013,"y":2543137.790000001}},{"attributes":{"ID":136507,"DIS_CODE":0,"TOWNNAME":"安平區","LI":"億載里","LIN":"15鄰","STREET":"光州三街","SECT":" ","MAREA":" ","LANE":" ","ALLEY":" ","HOUSE_NO":"２５號","E_COORD97":164038.31,"N_COORD97":2543151.23,"ADDRESS":"光州三街２５號","OBJECTID":136507},"geometry":{"x":164038.30999999959,"y":2543151.2300000004}},{"attributes":{"ID":136508,"DIS_CODE":0,"TOWNNAME":"安平區","LI":"億載里","LIN":"15鄰","STREET":"光州三街","SECT":" ","MAREA":" ","LANE":" ","ALLEY":" ","HOUSE_NO":"２６號","E_COORD97":164043.20999999999,"N_COORD97":2543137.3799999999,"ADDRESS":"光州三街２６號","OBJECTID":136508},"geometry":{"x":164043.20999999996,"y":2543137.379999999}},{"attributes":{"ID":136509,"DIS_CODE":0,"TOWNNAME":"安平區","LI":"億載里","LIN":"15鄰","STREET":"光州三街","SECT":" ","MAREA":" ","LANE":" ","ALLEY":" ","HOUSE_NO":"３８號","E_COORD97":164110.89999999999,"N_COORD97":2543145.5299999998,"ADDRESS":"光州三街３８號","OBJECTID":136509},"geometry":{"x":164110.9000000013,"y":2543145.5300000012}},{"attributes":{"ID":136510,"DIS_CODE":0,"TOWNNAME":"安平區","LI":"億載里","LIN":"15鄰","STREET":"光州三街","SECT":" ","MAREA":" ","LANE":" ","ALLEY":" ","HOUSE_NO":"４３號","E_COORD97":164121.5,"N_COORD97":2543158.1600000001,"ADDRESS":"光州三街４３號","OBJECTID":136510},"geometry":{"x":164121.50000000093,"y":2543158.1600000001}},{"attributes":{"ID":136511,"DIS_CODE":0,"TOWNNAME":"安平區","LI":"億載里","LIN":"15鄰","STREET":"光州三街","SECT":" ","MAREA":" ","LANE":" ","ALLEY":" ","HOUSE_NO":"４５號","E_COORD97":164126.79999999999,"N_COORD97":2543158.5699999998,"ADDRESS":"光州三街４５號","OBJECTID":136511},"geometry":{"x":164126.79999999981,"y":2543158.5700000003}},{"attributes":{"ID":136512,"DIS_CODE":0,"TOWNNAME":"安平區","LI":"億載里","LIN":"15鄰","STREET":"光州三街","SECT":" ","MAREA":" ","LANE":" ","ALLEY":" ","HOUSE_NO":"４９號","E_COORD97":164135.76999999999,"N_COORD97":2543159.3799999999,"ADDRESS":"光州三街４９號","OBJECTID":136512},"geometry":{"x":164135.77000000142,"y":2543159.3800000027}},{"attributes":{"ID":136513,"DIS_CODE":0,"TOWNNAME":"永康區","LI":"龍潭里","LIN":"27鄰","STREET":"中山北路","SECT":" ","MAREA":" ","LANE":"４６１巷","ALLEY":"２９弄","HOUSE_NO":"１０號","E_COORD97":175092.60000000001,"N_COORD97":2547870.2799999998,"ADDRESS":"中山北路４６１巷２９弄１０號","OBJECTID":136513},"geometry":{"x":175092.59999999963,"y":2547870.2800000012}},{"attributes":{"ID":136514,"DIS_CODE":0,"TOWNNAME":"永康區","LI":"西勢里","LIN":"27鄰","STREET":"廣興街","SECT":" ","MAREA":" ","LANE":"３８巷","ALLEY":"３４弄","HOUSE_NO":"１４號","E_COORD97":176035.28,"N_COORD97":2546405.5600000001,"ADDRESS":"廣興街３８巷３４弄１４號","OBJECTID":136514},"geometry":{"x":176035.28000000119,"y":2546405.5600000024}},{"attributes":{"ID":136515,"DIS_CODE":0,"TOWNNAME":"永康區","LI":"西勢里","LIN":"27鄰","STREET":"廣興街","SECT":" ","MAREA":" ","LANE":"３８巷","ALLEY":"３４弄","HOUSE_NO":"１８號","E_COORD97":176031.23000000001,"N_COORD97":2546397.5499999998,"ADDRESS":"廣興街３８巷３４弄１８號","OBJECTID":136515},"geometry":{"x":176031.23000000138,"y":2546397.5500000007}},{"attributes":{"ID":136516,"DIS_CODE":0,"TOWNNAME":"永康區","LI":"西灣里","LIN":"27鄰","STREET":"國光八街","SECT":" ","MAREA":" ","LANE":"１２巷","ALLEY":"３弄","HOUSE_NO":"１７號","E_COORD97":174383.45999999999,"N_COORD97":2545803.25,"ADDRESS":"國光八街１２巷３弄１７號","OBJECTID":136516},"geometry":{"x":174383.45999999996,"y":2545803.2500000019}},{"attributes":{"ID":136517,"DIS_CODE":0,"TOWNNAME":"永康區","LI":"西勢里","LIN":"27鄰","STREET":"廣興街","SECT":" ","MAREA":" ","LANE":"３８巷","ALLEY":"３４弄","HOUSE_NO":"２０號","E_COORD97":176028.47,"N_COORD97":2546393.5499999998,"ADDRESS":"廣興街３８巷３４弄２０號","OBJECTID":136517},"geometry":{"x":176028.47000000067,"y":2546393.5500000007}},{"attributes":{"ID":136518,"DIS_CODE":0,"TOWNNAME":"新化區","LI":"羊林里","LIN":"6鄰","STREET":" ","SECT":" ","MAREA":"\u25A0拔林","LANE":" ","ALLEY":" ","HOUSE_NO":"４８４號之１","E_COORD97":183478.25,"N_COORD97":2551696.2599999998,"ADDRESS":"\u25A0拔林４８４號之１","OBJECTID":136518},"geometry":{"x":183478.25,"y":2551696.2600000016}},{"attributes":{"ID":136519,"DIS_CODE":0,"TOWNNAME":"永康區","LI":"龍潭里","LIN":"27鄰","STREET":"中山北路","SECT":" ","MAREA":" ","LANE":"４６１巷","ALLEY":"３０弄","HOUSE_NO":"２號","E_COORD97":175115.35999999999,"N_COORD97":2547859.6899999999,"ADDRESS":"中山北路４６１巷３０弄２號","OBJECTID":136519},"geometry":{"x":175115.36000000034,"y":2547859.6899999995}},{"attributes":{"ID":136520,"DIS_CODE":0,"TOWNNAME":"永康區","LI":"龍潭里","LIN":"27鄰","STREET":"中山北路","SECT":" ","MAREA":" ","LANE":"４６１巷","ALLEY":"２９弄","HOUSE_NO":"２６號","E_COORD97":175056.44,"N_COORD97":2547869.5699999998,"ADDRESS":"中山北路４６１巷２９弄２６號","OBJECTID":136520},"geometry":{"x":175056.44000000134,"y":2547869.5700000022}},{"attributes":{"ID":136521,"DIS_CODE":0,"TOWNNAME":"新化區","LI":"豐榮里","LIN":"6鄰","STREET":" ","SECT":" ","MAREA":"洋子","LANE":" ","ALLEY":" ","HOUSE_NO":"１５１號之５","E_COORD97":177727.94,"N_COORD97":2548010.2599999998,"ADDRESS":"洋子１５１號之５","OBJECTID":136521},"geometry":{"x":177727.94000000134,"y":2548010.2600000016}},{"attributes":{"ID":136522,"DIS_CODE":0,"TOWNNAME":"新化區","LI":"知義里","LIN":"6鄰","STREET":" ","SECT":" ","MAREA":"新和庄","LANE":" ","ALLEY":" ","HOUSE_NO":"１０號之１","E_COORD97":181237.31504300001,"N_COORD97":2546908.3728399999,"ADDRESS":"新和庄１０號之１","OBJECTID":136522},"geometry":{"x":181237.31504299957,"y":2546908.3728430029}},{"attributes":{"ID":136523,"DIS_CODE":0,"TOWNNAME":"永康區","LI":"龍潭里","LIN":"27鄰","STREET":"中山北路","SECT":" ","MAREA":" ","LANE":"４６１巷","ALLEY":"１１弄","HOUSE_NO":"２０號","E_COORD97":175047.38,"N_COORD97":2547819.98,"ADDRESS":"中山北路４６１巷１１弄２０號","OBJECTID":136523},"geometry":{"x":175047.38000000175,"y":2547819.9800000023}},{"attributes":{"ID":136524,"DIS_CODE":0,"TOWNNAME":"新化區","LI":"唪口里","LIN":"6鄰","STREET":" ","SECT":" ","MAREA":"唪口","LANE":" ","ALLEY":" ","HOUSE_NO":"７２號","E_COORD97":178052.20000000001,"N_COORD97":2549024.25,"ADDRESS":"唪口７２號","OBJECTID":136524},"geometry":{"x":178052.20000000019,"y":2549024.2500000019}},{"attributes":{"ID":136525,"DIS_CODE":0,"TOWNNAME":"永康區","LI":"龍潭里","LIN":"27鄰","STREET":"中山北路","SECT":" ","MAREA":" ","LANE":"４６１巷","ALLEY":"１１弄","HOUSE_NO":"１６號","E_COORD97":175055.63,"N_COORD97":2547822.6200000001,"ADDRESS":"中山北路４６１巷１１弄１６號","OBJECTID":136525},"geometry":{"x":175055.62999999989,"y":2547822.6200000029}},{"attributes":{"ID":136526,"DIS_CODE":0,"TOWNNAME":"新化區","LI":"豐榮里","LIN":"6鄰","STREET":" ","SECT":" ","MAREA":"洋子","LANE":" ","ALLEY":" ","HOUSE_NO":"１０９號之３","E_COORD97":177885.13,"N_COORD97":2548215.2599999998,"ADDRESS":"洋子１０９號之３","OBJECTID":136526},"geometry":{"x":177885.13000000175,"y":2548215.2599999998}},{"attributes":{"ID":136527,"DIS_CODE":0,"TOWNNAME":"永康區","LI":"龍潭里","LIN":"27鄰","STREET":"中山北路","SECT":" ","MAREA":" ","LANE":"４６１巷","ALLEY":"１１弄","HOUSE_NO":"７號","E_COORD97":175086.45000000001,"N_COORD97":2547809.1200000001,"ADDRESS":"中山北路４６１巷１１弄７號","OBJECTID":136527},"geometry":{"x":175086.45000000112,"y":2547809.1200000029}},{"attributes":{"ID":136528,"DIS_CODE":0,"TOWNNAME":"永康區","LI":"龍潭里","LIN":"27鄰","STREET":"中山北路","SECT":" ","MAREA":" ","LANE":"４６１巷","ALLEY":"２９弄","HOUSE_NO":"１６號","E_COORD97":175080.14999999999,"N_COORD97":2547869.9700000002,"ADDRESS":"中山北路４６１巷２９弄１６號","OBJECTID":136528},"geometry":{"x":175080.1500000013,"y":2547869.9700000044}},{"attributes":{"ID":136529,"DIS_CODE":0,"TOWNNAME":"永康區","LI":"龍潭里","LIN":"27鄰","STREET":"中山北路","SECT":" ","MAREA":" ","LANE":"４６１巷","ALLEY":"２９弄","HOUSE_NO":"２１號","E_COORD97":175040.94,"N_COORD97":2547847.2999999998,"ADDRESS":"中山北路４６１巷２９弄２１號","OBJECTID":136529},"geometry":{"x":175040.94000000134,"y":2547847.3000000045}},{"attributes":{"ID":136530,"DIS_CODE":0,"TOWNNAME":"永康區","LI":"龍潭里","LIN":"27鄰","STREET":"中山北路","SECT":" ","MAREA":" ","LANE":"４６１巷","ALLEY":"１１弄","HOUSE_NO":"１２號","E_COORD97":175064.22,"N_COORD97":2547822.8700000001,"ADDRESS":"中山北路４６１巷１１弄１２號","OBJECTID":136530},"geometry":{"x":175064.22000000067,"y":2547822.870000001}},{"attributes":{"ID":136531,"DIS_CODE":0,"TOWNNAME":"永康區","LI":"龍潭里","LIN":"27鄰","STREET":"中山北路","SECT":" ","MAREA":" ","LANE":"４６１巷","ALLEY":"２９弄","HOUSE_NO":"３號","E_COORD97":175078.54000000001,"N_COORD97":2547854.8100000001,"ADDRESS":"中山北路４６１巷２９弄３號","OBJECTID":136531},"geometry":{"x":175078.5400000019,"y":2547854.8100000024}},{"attributes":{"ID":136532,"DIS_CODE":0,"TOWNNAME":"永康區","LI":"龍潭里","LIN":"27鄰","STREET":"中山北路","SECT":" ","MAREA":" ","LANE":"４６１巷","ALLEY":"１１弄","HOUSE_NO":"２３號","E_COORD97":175046.92000000001,"N_COORD97":2547794.46,"ADDRESS":"中山北路４６１巷１１弄２３號","OBJECTID":136532},"geometry":{"x":175046.91999999993,"y":2547794.4600000009}},{"attributes":{"ID":136533,"DIS_CODE":0,"TOWNNAME":"新化區","LI":"豐榮里","LIN":"6鄰","STREET":" ","SECT":" ","MAREA":"洋子","LANE":" ","ALLEY":" ","HOUSE_NO":"１０２號","E_COORD97":177958.67999999999,"N_COORD97":2548171.25,"ADDRESS":"洋子１０２號","OBJECTID":136533},"geometry":{"x":177958.6799999997,"y":2548171.25}},{"attributes":{"ID":136534,"DIS_CODE":0,"TOWNNAME":"新化區","LI":"北勢里","LIN":"6鄰","STREET":" ","SECT":" ","MAREA":"北勢","LANE":" ","ALLEY":" ","HOUSE_NO":"１０８號","E_COORD97":177176.17999999999,"N_COORD97":2549722.2599999998,"ADDRESS":"北勢１０８號","OBJECTID":136534},"geometry":{"x":177176.18000000063,"y":2549722.2600000016}},{"attributes":{"ID":136535,"DIS_CODE":0,"TOWNNAME":"新化區","LI":"唪口里","LIN":"6鄰","STREET":" ","SECT":" ","MAREA":"唪口","LANE":" ","ALLEY":" ","HOUSE_NO":"８５號","E_COORD97":177993.10000000001,"N_COORD97":2549113.25,"ADDRESS":"唪口８５號","OBJECTID":136535},"geometry":{"x":177993.09999999963,"y":2549113.25}},{"attributes":{"ID":136536,"DIS_CODE":0,"TOWNNAME":"新化區","LI":"唪口里","LIN":"6鄰","STREET":" ","SECT":" ","MAREA":"唪口","LANE":" ","ALLEY":" ","HOUSE_NO":"６９號","E_COORD97":178063.70000000001,"N_COORD97":2548974.25,"ADDRESS":"唪口６９號","OBJECTID":136536},"geometry":{"x":178063.70000000112,"y":2548974.25}},{"attributes":{"ID":136537,"DIS_CODE":0,"TOWNNAME":"後壁區","LI":"侯伯里","LIN":" ","STREET":" ","SECT":" ","MAREA":"後壁寮","LANE":" ","ALLEY":" ","HOUSE_NO":"１１４之４號","E_COORD97":185268.98999999999,"N_COORD97":2585400.3399999999,"ADDRESS":"後壁寮１１４之４號","OBJECTID":136537},"geometry":{"x":185268.99000000209,"y":2585400.3399999999}},{"attributes":{"ID":136538,"DIS_CODE":0,"TOWNNAME":"永康區","LI":"龍潭里","LIN":"27鄰","STREET":"中山北路","SECT":" ","MAREA":" ","LANE":"４６１巷","ALLEY":"３０弄","HOUSE_NO":"１號","E_COORD97":175110.63,"N_COORD97":2547872.2799999998,"ADDRESS":"中山北路４６１巷３０弄１號","OBJECTID":136538},"geometry":{"x":175110.63000000082,"y":2547872.2799999993}},{"attributes":{"ID":136539,"DIS_CODE":0,"TOWNNAME":"永康區","LI":"龍潭里","LIN":"27鄰","STREET":"中山北路","SECT":" ","MAREA":" ","LANE":"４６１巷","ALLEY":"１１弄","HOUSE_NO":"２號","E_COORD97":175086.29000000001,"N_COORD97":2547820.0499999998,"ADDRESS":"中山北路４６１巷１１弄２號","OBJECTID":136539},"geometry":{"x":175086.29000000004,"y":2547820.0500000026}},{"attributes":{"ID":136540,"DIS_CODE":0,"TOWNNAME":"永康區","LI":"龍潭里","LIN":"27鄰","STREET":"中山北路","SECT":" ","MAREA":" ","LANE":"４６１巷","ALLEY":"２９弄","HOUSE_NO":"６號","E_COORD97":175098.79000000001,"N_COORD97":2547871.0299999998,"ADDRESS":"中山北路４６１巷２９弄６號","OBJECTID":136540},"geometry":{"x":175098.79000000004,"y":2547871.0299999993}},{"attributes":{"ID":136541,"DIS_CODE":0,"TOWNNAME":"永康區","LI":"龍潭里","LIN":"27鄰","STREET":"中山北路","SECT":" ","MAREA":" ","LANE":"４６１巷","ALLEY":"１１弄","HOUSE_NO":"１９號","E_COORD97":175059.91,"N_COORD97":2547802.1099999999,"ADDRESS":"中山北路４６１巷１１弄１９號","OBJECTID":136541},"geometry":{"x":175059.91000000108,"y":2547802.1099999994}},{"attributes":{"ID":136542,"DIS_CODE":0,"TOWNNAME":"永康區","LI":"龍潭里","LIN":"27鄰","STREET":"中山北路","SECT":" ","MAREA":" ","LANE":"４６１巷","ALLEY":"１１弄","HOUSE_NO":"１號","E_COORD97":175099.04000000001,"N_COORD97":2547810.1200000001,"ADDRESS":"中山北路４６１巷１１弄１號","OBJECTID":136542},"geometry":{"x":175099.0400000019,"y":2547810.120000001}},{"attributes":{"ID":136543,"DIS_CODE":0,"TOWNNAME":"永康區","LI":"龍潭里","LIN":"27鄰","STREET":"中山北路","SECT":" ","MAREA":" ","LANE":"４６１巷","ALLEY":"３０弄","HOUSE_NO":"４號","E_COORD97":175120.35000000001,"N_COORD97":2547859.9399999999,"ADDRESS":"中山北路４６１巷３０弄４號","OBJECTID":136543},"geometry":{"x":175120.35000000056,"y":2547859.9400000013}},{"attributes":{"ID":136544,"DIS_CODE":0,"TOWNNAME":"永康區","LI":"復興里","LIN":"27鄰","STREET":"復興路","SECT":" ","MAREA":" ","LANE":"２７７巷","ALLEY":"２８弄","HOUSE_NO":"１１號","E_COORD97":172289.70999999999,"N_COORD97":2544186.27,"ADDRESS":"復興路２７７巷２８弄１１號","OBJECTID":136544},"geometry":{"x":172289.70999999996,"y":2544186.2700000014}},{"attributes":{"ID":136545,"DIS_CODE":0,"TOWNNAME":"永康區","LI":"復興里","LIN":"27鄰","STREET":"復興路","SECT":" ","MAREA":" ","LANE":"２７７巷","ALLEY":"２８弄","HOUSE_NO":"９號","E_COORD97":172295.78,"N_COORD97":2544186.52,"ADDRESS":"復興路２７７巷２８弄９號","OBJECTID":136545},"geometry":{"x":172295.78000000119,"y":2544186.5200000033}},{"attributes":{"ID":136546,"DIS_CODE":0,"TOWNNAME":"永康區","LI":"\u25A0行里","LIN":"27鄰","STREET":"中正南路","SECT":" ","MAREA":" ","LANE":"３６０巷","ALLEY":"１１弄","HOUSE_NO":"４號","E_COORD97":171132.48999999999,"N_COORD97":2548196.75,"ADDRESS":"中正南路３６０巷１１弄４號","OBJECTID":136546},"geometry":{"x":171132.49000000022,"y":2548196.7500000019}},{"attributes":{"ID":136547,"DIS_CODE":0,"TOWNNAME":"永康區","LI":"復興里","LIN":"27鄰","STREET":"復興路","SECT":" ","MAREA":" ","LANE":"２７７巷","ALLEY":"３４弄","HOUSE_NO":"９號","E_COORD97":172303.89999999999,"N_COORD97":2544169.0299999998,"ADDRESS":"復興路２７７巷３４弄９號","OBJECTID":136547},"geometry":{"x":172303.9000000013,"y":2544169.0300000031}},{"attributes":{"ID":136548,"DIS_CODE":0,"TOWNNAME":"永康區","LI":"\u25A0行里","LIN":"27鄰","STREET":"中正南路","SECT":" ","MAREA":" ","LANE":"３６０巷","ALLEY":"１１弄","HOUSE_NO":"３號","E_COORD97":171129.67999999999,"N_COORD97":2548188.75,"ADDRESS":"中正南路３６０巷１１弄３號","OBJECTID":136548},"geometry":{"x":171129.68000000063,"y":2548188.75}},{"attributes":{"ID":136549,"DIS_CODE":0,"TOWNNAME":"永康區","LI":"復興里","LIN":"27鄰","STREET":"復興路","SECT":" ","MAREA":" ","LANE":"２７７巷","ALLEY":"２８弄","HOUSE_NO":"８號","E_COORD97":172302.94,"N_COORD97":2544194.02,"ADDRESS":"復興路２７７巷２８弄８號","OBJECTID":136549},"geometry":{"x":172302.94000000227,"y":2544194.0200000014}},{"attributes":{"ID":136550,"DIS_CODE":0,"TOWNNAME":"永康區","LI":"復興里","LIN":"27鄰","STREET":"復興路","SECT":" ","MAREA":" ","LANE":"２７７巷","ALLEY":"２８弄","HOUSE_NO":"３號","E_COORD97":172316.23000000001,"N_COORD97":2544187.27,"ADDRESS":"復興路２７７巷２８弄３號","OBJECTID":136550},"geometry":{"x":172316.23000000231,"y":2544187.2699999996}},{"attributes":{"ID":136551,"DIS_CODE":0,"TOWNNAME":"永康區","LI":"復興里","LIN":"27鄰","STREET":"復興路","SECT":" ","MAREA":" ","LANE":"２７７巷","ALLEY":"２８弄","HOUSE_NO":"４號","E_COORD97":172316.29000000001,"N_COORD97":2544194.52,"ADDRESS":"復興路２７７巷２８弄４號","OBJECTID":136551},"geometry":{"x":172316.29000000004,"y":2544194.5200000014}},{"attributes":{"ID":136552,"DIS_CODE":0,"TOWNNAME":"永康區","LI":"復興里","LIN":"27鄰","STREET":"復興路","SECT":" ","MAREA":" ","LANE":"２７７巷","ALLEY":"２２弄","HOUSE_NO":"８號","E_COORD97":172298.57999999999,"N_COORD97":2544212.0299999998,"ADDRESS":"復興路２７７巷２２弄８號","OBJECTID":136552},"geometry":{"x":172298.58000000101,"y":2544212.0299999993}},{"attributes":{"ID":136553,"DIS_CODE":0,"TOWNNAME":"永康區","LI":"復興里","LIN":"27鄰","STREET":"復興路","SECT":" ","MAREA":" ","LANE":"２７７巷","ALLEY":"３４弄","HOUSE_NO":"７號","E_COORD97":172311.39999999999,"N_COORD97":2544169.2799999998,"ADDRESS":"復興路２７７巷３４弄７號","OBJECTID":136553},"geometry":{"x":172311.40000000037,"y":2544169.2799999993}},{"attributes":{"ID":136554,"DIS_CODE":0,"TOWNNAME":"永康區","LI":"復興里","LIN":"27鄰","STREET":"復興路","SECT":" ","MAREA":" ","LANE":"２７７巷","ALLEY":"２２弄","HOUSE_NO":"３號","E_COORD97":172316.14999999999,"N_COORD97":2544204.77,"ADDRESS":"復興路２７７巷２２弄３號","OBJECTID":136554},"geometry":{"x":172316.15000000037,"y":2544204.7699999977}},{"attributes":{"ID":136555,"DIS_CODE":0,"TOWNNAME":"永康區","LI":"復興里","LIN":"27鄰","STREET":"復興路","SECT":" ","MAREA":" ","LANE":"２７７巷","ALLEY":"３４弄","HOUSE_NO":"３號","E_COORD97":172326.48999999999,"N_COORD97":2544169.7799999998,"ADDRESS":"復興路２７７巷３４弄３號","OBJECTID":136555},"geometry":{"x":172326.49000000115,"y":2544169.7799999993}},{"attributes":{"ID":136556,"DIS_CODE":0,"TOWNNAME":"永康區","LI":"復興里","LIN":"27鄰","STREET":"復興路","SECT":" ","MAREA":" ","LANE":"２７７巷","ALLEY":"３４弄","HOUSE_NO":"２號","E_COORD97":172325.20000000001,"N_COORD97":2544178.02,"ADDRESS":"復興路２７７巷３４弄２號","OBJECTID":136556},"geometry":{"x":172325.20000000112,"y":2544178.0199999996}},{"attributes":{"ID":136557,"DIS_CODE":0,"TOWNNAME":"永康區","LI":"復興里","LIN":"27鄰","STREET":"復興路","SECT":" ","MAREA":" ","LANE":"２７７巷","ALLEY":"２２弄","HOUSE_NO":"２號","E_COORD97":172321.47,"N_COORD97":2544212.2799999998,"ADDRESS":"復興路２７７巷２２弄２號","OBJECTID":136557},"geometry":{"x":172321.47000000067,"y":2544212.2800000012}},{"attributes":{"ID":136558,"DIS_CODE":0,"TOWNNAME":"永康區","LI":"復興里","LIN":"27鄰","STREET":"復興路","SECT":" ","MAREA":" ","LANE":"２７７巷","ALLEY":"３４弄","HOUSE_NO":"５號","E_COORD97":172319.19,"N_COORD97":2544169.5299999998,"ADDRESS":"復興路２７７巷３４弄５號","OBJECTID":136558},"geometry":{"x":172319.19000000041,"y":2544169.5300000012}},{"attributes":{"ID":136559,"DIS_CODE":0,"TOWNNAME":"永康區","LI":"復興里","LIN":"27鄰","STREET":"復興路","SECT":" ","MAREA":" ","LANE":"２７７巷","ALLEY":"２２弄","HOUSE_NO":"６號","E_COORD97":172305.78,"N_COORD97":2544212.2799999998,"ADDRESS":"復興路２７７巷２２弄６號","OBJECTID":136559},"geometry":{"x":172305.78000000119,"y":2544212.2800000012}},{"attributes":{"ID":136560,"DIS_CODE":0,"TOWNNAME":"永康區","LI":"復興里","LIN":"27鄰","STREET":"復興路","SECT":" ","MAREA":" ","LANE":"２７７巷","ALLEY":"３４弄","HOUSE_NO":"１５號","E_COORD97":172289.35999999999,"N_COORD97":2544168.5299999998,"ADDRESS":"復興路２７７巷３４弄１５號","OBJECTID":136560},"geometry":{"x":172289.36000000034,"y":2544168.5299999993}},{"attributes":{"ID":136561,"DIS_CODE":0,"TOWNNAME":"永康區","LI":"復興里","LIN":"27鄰","STREET":"復興路","SECT":" ","MAREA":" ","LANE":"２７７巷","ALLEY":"３４弄","HOUSE_NO":"８號","E_COORD97":172303.95000000001,"N_COORD97":2544177.27,"ADDRESS":"復興路２７７巷３４弄８號","OBJECTID":136561},"geometry":{"x":172303.95000000019,"y":2544177.2699999996}},{"attributes":{"ID":136562,"DIS_CODE":0,"TOWNNAME":"安平區","LI":"億載里","LIN":"15鄰","STREET":"光州三街","SECT":" ","MAREA":" ","LANE":" ","ALLEY":" ","HOUSE_NO":"５７號","E_COORD97":164155.76000000001,"N_COORD97":2543161.4199999999,"ADDRESS":"光州三街５７號","OBJECTID":136562},"geometry":{"x":164155.75999999978,"y":2543161.4200000018}},{"attributes":{"ID":136563,"DIS_CODE":0,"TOWNNAME":"安平區","LI":"億載里","LIN":"15鄰","STREET":"光州三街","SECT":" ","MAREA":" ","LANE":" ","ALLEY":" ","HOUSE_NO":"５９號","E_COORD97":164160.64999999999,"N_COORD97":2543161.4199999999,"ADDRESS":"光州三街５９號","OBJECTID":136563},"geometry":{"x":164160.65000000037,"y":2543161.4200000018}},{"attributes":{"ID":136564,"DIS_CODE":0,"TOWNNAME":"安平區","LI":"億載里","LIN":"15鄰","STREET":"光州四街","SECT":" ","MAREA":" ","LANE":" ","ALLEY":" ","HOUSE_NO":"２２號","E_COORD97":164005.54999999999,"N_COORD97":2543187.0600000001,"ADDRESS":"光州四街２２號","OBJECTID":136564},"geometry":{"x":164005.55000000075,"y":2543187.0600000042}},{"attributes":{"ID":136565,"DIS_CODE":0,"TOWNNAME":"安平區","LI":"億載里","LIN":"15鄰","STREET":"光州四街","SECT":" ","MAREA":" ","LANE":" ","ALLEY":" ","HOUSE_NO":"９２號","E_COORD97":164146.66128599999,"N_COORD97":2543187.7611500002,"ADDRESS":"光州四街９２號","OBJECTID":136565},"geometry":{"x":164146.66128600016,"y":2543187.7611459997}},{"attributes":{"ID":136566,"DIS_CODE":0,"TOWNNAME":"安平區","LI":"億載里","LIN":"15鄰","STREET":"府平路","SECT":" ","MAREA":" ","LANE":" ","ALLEY":" ","HOUSE_NO":"５３６號","E_COORD97":164141.18689899999,"N_COORD97":2543107.11619,"ADDRESS":"府平路５３６號","OBJECTID":136566},"geometry":{"x":164141.18689900078,"y":2543107.1161890011}},{"attributes":{"ID":136567,"DIS_CODE":0,"TOWNNAME":"安平區","LI":"億載里","LIN":"15鄰","STREET":"府平路","SECT":" ","MAREA":" ","LANE":" ","ALLEY":" ","HOUSE_NO":"５３８號","E_COORD97":164134.61776600001,"N_COORD97":2543107.5395200001,"ADDRESS":"府平路５３８號","OBJECTID":136567},"geometry":{"x":164134.61776600219,"y":2543107.5395230018}},{"attributes":{"ID":136568,"DIS_CODE":0,"TOWNNAME":"安平區","LI":"億載里","LIN":"15鄰","STREET":"府平路","SECT":" ","MAREA":" ","LANE":" ","ALLEY":" ","HOUSE_NO":"５６２號","E_COORD97":164048.987158,"N_COORD97":2543095.6688000001,"ADDRESS":"府平路５６２號","OBJECTID":136568},"geometry":{"x":164048.9871580014,"y":2543095.6687979996}},{"attributes":{"ID":136569,"DIS_CODE":0,"TOWNNAME":"安平區","LI":"石門里","LIN":"15鄰","STREET":"民權路","SECT":"四段","MAREA":" ","LANE":" ","ALLEY":" ","HOUSE_NO":"８９９號","E_COORD97":164368.95000000001,"N_COORD97":2544808.9900000002,"ADDRESS":"民權路四段８９９號","OBJECTID":136569},"geometry":{"x":164368.95000000019,"y":2544808.9900000021}},{"attributes":{"ID":136570,"DIS_CODE":0,"TOWNNAME":"關廟區","LI":"關廟里","LIN":"6鄰","STREET":"民生街","SECT":" ","MAREA":" ","LANE":" ","ALLEY":" ","HOUSE_NO":"２１１號","E_COORD97":180876.29000000001,"N_COORD97":2540002.29,"ADDRESS":"民生街２１１號","OBJECTID":136570},"geometry":{"x":180876.29000000097,"y":2540002.2899999991}},{"attributes":{"ID":136571,"DIS_CODE":0,"TOWNNAME":"關廟區","LI":"關廟里","LIN":"6鄰","STREET":"民生街","SECT":" ","MAREA":" ","LANE":" ","ALLEY":" ","HOUSE_NO":"１９５號","E_COORD97":180888.59,"N_COORD97":2539960.29,"ADDRESS":"民生街１９５號","OBJECTID":136571},"geometry":{"x":180888.58999999985,"y":2539960.290000001}},{"attributes":{"ID":136572,"DIS_CODE":0,"TOWNNAME":"永康區","LI":"復興里","LIN":"27鄰","STREET":"復興路","SECT":" ","MAREA":" ","LANE":"２７７巷","ALLEY":"２８弄","HOUSE_NO":"７號","E_COORD97":172302.92999999999,"N_COORD97":2544187.02,"ADDRESS":"復興路２７７巷２８弄７號","OBJECTID":136572},"geometry":{"x":172302.93000000063,"y":2544187.0200000014}},{"attributes":{"ID":136573,"DIS_CODE":0,"TOWNNAME":"永康區","LI":"復興里","LIN":"27鄰","STREET":"復興路","SECT":" ","MAREA":" ","LANE":"２７７巷","ALLEY":"２２弄","HOUSE_NO":"１１號","E_COORD97":172290.44,"N_COORD97":2544203.77,"ADDRESS":"復興路２７７巷２２弄１１號","OBJECTID":136573},"geometry":{"x":172290.44000000041,"y":2544203.7699999996}},{"attributes":{"ID":136574,"DIS_CODE":0,"TOWNNAME":"東區","LI":"泉南里","LIN":"27鄰","STREET":"府連路","SECT":" ","MAREA":" ","LANE":"２６０巷","ALLEY":"２弄","HOUSE_NO":"１０號","E_COORD97":169430.34,"N_COORD97":2542853.1000000001,"ADDRESS":"府連路２６０巷２弄１０號","OBJECTID":136574},"geometry":{"x":169430.34000000078,"y":2542853.0999999996}},{"attributes":{"ID":136575,"DIS_CODE":0,"TOWNNAME":"東區","LI":"泉南里","LIN":"27鄰","STREET":"府連路","SECT":" ","MAREA":" ","LANE":"２６０巷","ALLEY":"２弄","HOUSE_NO":"１２號","E_COORD97":169426.34,"N_COORD97":2542851.6200000001,"ADDRESS":"府連路２６０巷２弄１２號","OBJECTID":136575},"geometry":{"x":169426.34000000171,"y":2542851.6200000048}},{"attributes":{"ID":136576,"DIS_CODE":0,"TOWNNAME":"東區","LI":"泉南里","LIN":"27鄰","STREET":"府連路","SECT":" ","MAREA":" ","LANE":"２６０巷","ALLEY":"２弄","HOUSE_NO":"１３號","E_COORD97":169438.16,"N_COORD97":2542798.7999999998,"ADDRESS":"府連路２６０巷２弄１３號","OBJECTID":136576},"geometry":{"x":169438.16000000108,"y":2542798.8000000007}},{"attributes":{"ID":136577,"DIS_CODE":0,"TOWNNAME":"東區","LI":"泉南里","LIN":"27鄰","STREET":"府連路","SECT":" ","MAREA":" ","LANE":"２６０巷","ALLEY":"２弄","HOUSE_NO":"１４號","E_COORD97":169422.34,"N_COORD97":2542850.8799999999,"ADDRESS":"府連路２６０巷２弄１４號","OBJECTID":136577},"geometry":{"x":169422.33999999985,"y":2542850.8800000027}},{"attributes":{"ID":136578,"DIS_CODE":0,"TOWNNAME":"東區","LI":"泉南里","LIN":"27鄰","STREET":"府連路","SECT":" ","MAREA":" ","LANE":"２６０巷","ALLEY":"２弄","HOUSE_NO":"１５號","E_COORD97":169438.73999999999,"N_COORD97":2542794,"ADDRESS":"府連路２６０巷２弄１５號","OBJECTID":136578},"geometry":{"x":169438.74000000022,"y":2542794.0000000019}},{"attributes":{"ID":136579,"DIS_CODE":0,"TOWNNAME":"東區","LI":"泉南里","LIN":"27鄰","STREET":"府連路","SECT":" ","MAREA":" ","LANE":"２６０巷","ALLEY":"２弄","HOUSE_NO":"１６號","E_COORD97":169418.64000000001,"N_COORD97":2542850.1400000001,"ADDRESS":"府連路２６０巷２弄１６號","OBJECTID":136579},"geometry":{"x":169418.63999999966,"y":2542850.1400000006}},{"attributes":{"ID":136580,"DIS_CODE":0,"TOWNNAME":"東區","LI":"泉南里","LIN":"27鄰","STREET":"府連路","SECT":" ","MAREA":" ","LANE":"２６０巷","ALLEY":"２弄","HOUSE_NO":"１７號","E_COORD97":169440.47,"N_COORD97":2542791.1099999999,"ADDRESS":"府連路２６０巷２弄１７號","OBJECTID":136580},"geometry":{"x":169440.46999999881,"y":2542791.1099999994}},{"attributes":{"ID":136581,"DIS_CODE":0,"TOWNNAME":"東區","LI":"泉南里","LIN":"27鄰","STREET":"府連路","SECT":" ","MAREA":" ","LANE":"２６０巷","ALLEY":"２弄","HOUSE_NO":"１８號","E_COORD97":169414.19,"N_COORD97":2542848.6600000001,"ADDRESS":"府連路２６０巷２弄１８號","OBJECTID":136581},"geometry":{"x":169414.19000000041,"y":2542848.6600000001}},{"attributes":{"ID":136582,"DIS_CODE":0,"TOWNNAME":"東區","LI":"泉南里","LIN":"27鄰","STREET":"府連路","SECT":" ","MAREA":" ","LANE":"２６０巷","ALLEY":"２弄","HOUSE_NO":"１９號","E_COORD97":169441.04999999999,"N_COORD97":2542786.3100000001,"ADDRESS":"府連路２６０巷２弄１９號","OBJECTID":136582},"geometry":{"x":169441.04999999981,"y":2542786.3100000024}},{"attributes":{"ID":136583,"DIS_CODE":0,"TOWNNAME":"東區","LI":"泉南里","LIN":"27鄰","STREET":"府連路","SECT":" ","MAREA":" ","LANE":"２６０巷","ALLEY":"２弄","HOUSE_NO":"１號","E_COORD97":169425.28,"N_COORD97":2542841.46,"ADDRESS":"府連路２６０巷２弄１號","OBJECTID":136583},"geometry":{"x":169425.28000000026,"y":2542841.4600000009}},{"attributes":{"ID":136584,"DIS_CODE":0,"TOWNNAME":"南化區","LI":"玉山里","LIN":"6鄰","STREET":" ","SECT":" ","MAREA":"玉山","LANE":" ","ALLEY":" ","HOUSE_NO":"５７號之５","E_COORD97":200755.16,"N_COORD97":2552715.7999999998,"ADDRESS":"玉山５７號之５","OBJECTID":136584},"geometry":{"x":200755.16000000108,"y":2552715.8000000045}},{"attributes":{"ID":136585,"DIS_CODE":0,"TOWNNAME":"東區","LI":"泉南里","LIN":"27鄰","STREET":"府連路","SECT":" ","MAREA":" ","LANE":"２６０巷","ALLEY":"２弄","HOUSE_NO":"２０號","E_COORD97":169408.26999999999,"N_COORD97":2542846.4300000002,"ADDRESS":"府連路２６０巷２弄２０號","OBJECTID":136585},"geometry":{"x":169408.27000000048,"y":2542846.4299999997}},{"attributes":{"ID":136586,"DIS_CODE":0,"TOWNNAME":"東區","LI":"泉南里","LIN":"27鄰","STREET":"府連路","SECT":" ","MAREA":" ","LANE":"２６０巷","ALLEY":"２弄","HOUSE_NO":"２２號","E_COORD97":169400.85999999999,"N_COORD97":2542845.25,"ADDRESS":"府連路２６０巷２弄２２號","OBJECTID":136586},"geometry":{"x":169400.86000000034,"y":2542845.25}},{"attributes":{"ID":136587,"DIS_CODE":0,"TOWNNAME":"東區","LI":"泉南里","LIN":"27鄰","STREET":"府連路","SECT":" ","MAREA":" ","LANE":"２６０巷","ALLEY":"２弄","HOUSE_NO":"２３號","E_COORD97":169423.16,"N_COORD97":2542796.2999999998,"ADDRESS":"府連路２６０巷２弄２３號","OBJECTID":136587},"geometry":{"x":169423.16000000108,"y":2542796.3000000026}},{"attributes":{"ID":136588,"DIS_CODE":0,"TOWNNAME":"南化區","LI":"西埔里","LIN":"6鄰","STREET":" ","SECT":" ","MAREA":"西埔","LANE":" ","ALLEY":" ","HOUSE_NO":"５１號","E_COORD97":194375.84,"N_COORD97":2548208.75,"ADDRESS":"西埔５１號","OBJECTID":136588},"geometry":{"x":194375.83999999985,"y":2548208.75}},{"attributes":{"ID":136589,"DIS_CODE":0,"TOWNNAME":"南化區","LI":"南化里","LIN":"6鄰","STREET":" ","SECT":" ","MAREA":"南化","LANE":" ","ALLEY":" ","HOUSE_NO":"７８號","E_COORD97":196371.69,"N_COORD97":2549094.75,"ADDRESS":"南化７８號","OBJECTID":136589},"geometry":{"x":196371.69000000134,"y":2549094.7500000037}},{"attributes":{"ID":136590,"DIS_CODE":0,"TOWNNAME":"關廟區","LI":"埤頭里","LIN":"6鄰","STREET":"保東路","SECT":" ","MAREA":" ","LANE":" ","ALLEY":" ","HOUSE_NO":"６１號","E_COORD97":178950.67000000001,"N_COORD97":2544013.2999999998,"ADDRESS":"保東路６１號","OBJECTID":136590},"geometry":{"x":178950.66999999993,"y":2544013.3000000026}},{"attributes":{"ID":136591,"DIS_CODE":0,"TOWNNAME":"南化區","LI":"北寮里","LIN":"6鄰","STREET":" ","SECT":" ","MAREA":"北寮","LANE":" ","ALLEY":" ","HOUSE_NO":"８３號","E_COORD97":197788.79000000001,"N_COORD97":2553109.75,"ADDRESS":"北寮８３號","OBJECTID":136591},"geometry":{"x":197788.79000000004,"y":2553109.7500000019}},{"attributes":{"ID":136592,"DIS_CODE":0,"TOWNNAME":"南化區","LI":"玉山里","LIN":"6鄰","STREET":" ","SECT":" ","MAREA":"玉山","LANE":" ","ALLEY":" ","HOUSE_NO":"６２號","E_COORD97":200819.17000000001,"N_COORD97":2552745.75,"ADDRESS":"玉山６２號","OBJECTID":136592},"geometry":{"x":200819.17000000179,"y":2552745.7499999981}},{"attributes":{"ID":136593,"DIS_CODE":0,"TOWNNAME":"南化區","LI":"玉山里","LIN":"6鄰","STREET":" ","SECT":" ","MAREA":"玉山","LANE":" ","ALLEY":" ","HOUSE_NO":"６７號之１","E_COORD97":200781.20000000001,"N_COORD97":2552775.7999999998,"ADDRESS":"玉山６７號之１","OBJECTID":136593},"geometry":{"x":200781.20000000019,"y":2552775.8000000007}},{"attributes":{"ID":136594,"DIS_CODE":0,"TOWNNAME":"後壁區","LI":"侯伯里","LIN":" ","STREET":" ","SECT":" ","MAREA":"後壁寮","LANE":" ","ALLEY":" ","HOUSE_NO":"３３之２號","E_COORD97":185383.23999999999,"N_COORD97":2585326.96,"ADDRESS":"後壁寮３３之２號","OBJECTID":136594},"geometry":{"x":185383.24000000115,"y":2585326.9600000046}},{"attributes":{"ID":136595,"DIS_CODE":0,"TOWNNAME":"南化區","LI":"關山里","LIN":"6鄰","STREET":" ","SECT":" ","MAREA":"西阿里關","LANE":" ","ALLEY":" ","HOUSE_NO":"１３２之５號","E_COORD97":209735.19,"N_COORD97":2566419.7999999998,"ADDRESS":"西阿里關１３２之５號","OBJECTID":136595},"geometry":{"x":209735.19000000134,"y":2566419.8000000045}},{"attributes":{"ID":136596,"DIS_CODE":0,"TOWNNAME":"南化區","LI":"小崙里","LIN":"6鄰","STREET":" ","SECT":" ","MAREA":"小崙","LANE":" ","ALLEY":" ","HOUSE_NO":"６０之２號","E_COORD97":197557.37,"N_COORD97":2549989.7999999998,"ADDRESS":"小崙６０之２號","OBJECTID":136596},"geometry":{"x":197557.37000000011,"y":2549989.7999999989}},{"attributes":{"ID":136597,"DIS_CODE":0,"TOWNNAME":"東區","LI":"泉南里","LIN":"27鄰","STREET":"府連路","SECT":" ","MAREA":" ","LANE":"２６０巷","ALLEY":"２弄","HOUSE_NO":"２９號","E_COORD97":169419.89000000001,"N_COORD97":2542809.75,"ADDRESS":"府連路２６０巷２弄２９號","OBJECTID":136597},"geometry":{"x":169419.88999999966,"y":2542809.7500000019}},{"attributes":{"ID":136598,"DIS_CODE":0,"TOWNNAME":"東區","LI":"泉南里","LIN":"27鄰","STREET":"府連路","SECT":" ","MAREA":" ","LANE":"２６０巷","ALLEY":"２弄","HOUSE_NO":"３５號","E_COORD97":169416.04000000001,"N_COORD97":2542823.21,"ADDRESS":"府連路２６０巷２弄３５號","OBJECTID":136598},"geometry":{"x":169416.04000000004,"y":2542823.2100000009}},{"attributes":{"ID":136599,"DIS_CODE":0,"TOWNNAME":"東區","LI":"泉南里","LIN":"27鄰","STREET":"府連路","SECT":" ","MAREA":" ","LANE":"２６０巷","ALLEY":"２弄","HOUSE_NO":"３９號","E_COORD97":169412.20000000001,"N_COORD97":2542833.9700000002,"ADDRESS":"府連路２６０巷２弄３９號","OBJECTID":136599},"geometry":{"x":169412.20000000019,"y":2542833.9700000007}},{"attributes":{"ID":136600,"DIS_CODE":0,"TOWNNAME":"東區","LI":"泉南里","LIN":"27鄰","STREET":"府連路","SECT":" ","MAREA":" ","LANE":"２６０巷","ALLEY":"２弄","HOUSE_NO":"４１號","E_COORD97":169407.97,"N_COORD97":2542835.3100000001,"ADDRESS":"府連路２６０巷２弄４１號","OBJECTID":136600},"geometry":{"x":169407.96999999974,"y":2542835.3100000005}}]}