{"displayFieldName":"TOWNNAME","fieldAliases":{"ID":"ID","DIS_CODE":"DIS_CODE","TOWNNAME":"TOWNNAME","LI":"LI","LIN":"LIN","STREET":"STREET","SECT":"SECT","MAREA":"MAREA","LANE":"LANE","ALLEY":"ALLEY","HOUSE_NO":"HOUSE_NO","E_COORD97":"E_COORD97","N_COORD97":"N_COORD97","ADDRESS":"ADDRESS","OBJECTID":"OBJECTID"},"geometryType":"esriGeometryPoint","spatialReference":{"wkid":102443,"latestWkid":3826},"fields":[{"name":"ID","type":"esriFieldTypeDouble","alias":"ID"},{"name":"DIS_CODE","type":"esriFieldTypeInteger","alias":"DIS_CODE"},{"name":"TOWNNAME","type":"esriFieldTypeString","alias":"TOWNNAME","length":8},{"name":"LI","type":"esriFieldTypeString","alias":"LI","length":8},{"name":"LIN","type":"esriFieldTypeString","alias":"LIN","length":12},{"name":"STREET","type":"esriFieldTypeString","alias":"STREET","length":20},{"name":"SECT","type":"esriFieldTypeString","alias":"SECT","length":8},{"name":"MAREA","type":"esriFieldTypeString","alias":"MAREA","length":12},{"name":"LANE","type":"esriFieldTypeString","alias":"LANE","length":10},{"name":"ALLEY","type":"esriFieldTypeString","alias":"ALLEY","length":10},{"name":"HOUSE_NO","type":"esriFieldTypeString","alias":"HOUSE_NO","length":20},{"name":"E_COORD97","type":"esriFieldTypeDouble","alias":"E_COORD97"},{"name":"N_COORD97","type":"esriFieldTypeDouble","alias":"N_COORD97"},{"name":"ADDRESS","type":"esriFieldTypeString","alias":"ADDRESS","length":50},{"name":"OBJECTID","type":"esriFieldTypeOID","alias":"OBJECTID"}],"features":[{"attributes":{"ID":8801,"DIS_CODE":0,"TOWNNAME":"安南區","LI":"淵西里","LIN":"13鄰","STREET":"安中路","SECT":"四段","MAREA":" ","LANE":"３２０巷","ALLEY":"９７弄","HOUSE_NO":"３９號","E_COORD97":164652.47,"N_COORD97":2550518.0099999998,"ADDRESS":"安中路四段３２０巷９７弄３９號","OBJECTID":8801},"geometry":{"x":164652.47000000067,"y":2550518.0100000016}},{"attributes":{"ID":8802,"DIS_CODE":0,"TOWNNAME":"安南區","LI":"淵西里","LIN":"13鄰","STREET":"安中路","SECT":"四段","MAREA":" ","LANE":"３２０巷","ALLEY":"９７弄","HOUSE_NO":"３９號之１","E_COORD97":164653.64999999999,"N_COORD97":2550521.3399999999,"ADDRESS":"安中路四段３２０巷９７弄３９號之１","OBJECTID":8802},"geometry":{"x":164653.65000000037,"y":2550521.3400000036}},{"attributes":{"ID":8803,"DIS_CODE":0,"TOWNNAME":"安南區","LI":"淵西里","LIN":"13鄰","STREET":"安中路","SECT":"四段","MAREA":" ","LANE":"３２０巷","ALLEY":"９７弄","HOUSE_NO":"３９號之１０","E_COORD97":164637.54000000001,"N_COORD97":2550538.4199999999,"ADDRESS":"安中路四段３２０巷９７弄３９號之１０","OBJECTID":8803},"geometry":{"x":164637.54000000004,"y":2550538.4200000018}},{"attributes":{"ID":8804,"DIS_CODE":0,"TOWNNAME":"安南區","LI":"淵西里","LIN":"13鄰","STREET":"安中路","SECT":"四段","MAREA":" ","LANE":"３２０巷","ALLEY":"９７弄","HOUSE_NO":"３９號之１１","E_COORD97":164633.60999999999,"N_COORD97":2550538.4199999999,"ADDRESS":"安中路四段３２０巷９７弄３９號之１１","OBJECTID":8804},"geometry":{"x":164633.61000000034,"y":2550538.4200000018}},{"attributes":{"ID":8805,"DIS_CODE":0,"TOWNNAME":"安南區","LI":"淵西里","LIN":"13鄰","STREET":"安中路","SECT":"四段","MAREA":" ","LANE":"３２０巷","ALLEY":"９７弄","HOUSE_NO":"３９號之１２","E_COORD97":164629.09,"N_COORD97":2550538.8100000001,"ADDRESS":"安中路四段３２０巷９７弄３９號之１２","OBJECTID":8805},"geometry":{"x":164629.09000000078,"y":2550538.8099999987}},{"attributes":{"ID":8806,"DIS_CODE":0,"TOWNNAME":"安南區","LI":"淵西里","LIN":"13鄰","STREET":"安中路","SECT":"四段","MAREA":" ","LANE":"３２０巷","ALLEY":"９７弄","HOUSE_NO":"３９號之１３","E_COORD97":164625.35000000001,"N_COORD97":2550538.8100000001,"ADDRESS":"安中路四段３２０巷９７弄３９號之１３","OBJECTID":8806},"geometry":{"x":164625.35000000056,"y":2550538.8099999987}},{"attributes":{"ID":8807,"DIS_CODE":0,"TOWNNAME":"安南區","LI":"淵西里","LIN":"13鄰","STREET":"安中路","SECT":"四段","MAREA":" ","LANE":"３２０巷","ALLEY":"９７弄","HOUSE_NO":"３９號之１５","E_COORD97":164621.82000000001,"N_COORD97":2550539.21,"ADDRESS":"安中路四段３２０巷９７弄３９號之１５","OBJECTID":8807},"geometry":{"x":164621.82000000123,"y":2550539.2100000009}},{"attributes":{"ID":8808,"DIS_CODE":0,"TOWNNAME":"安南區","LI":"淵西里","LIN":"13鄰","STREET":"安中路","SECT":"四段","MAREA":" ","LANE":"３２０巷","ALLEY":"９７弄","HOUSE_NO":"３９號之１６","E_COORD97":164617.48999999999,"N_COORD97":2550539.79,"ADDRESS":"安中路四段３２０巷９７弄３９號之１６","OBJECTID":8808},"geometry":{"x":164617.49000000022,"y":2550539.7899999991}},{"attributes":{"ID":8809,"DIS_CODE":0,"TOWNNAME":"安南區","LI":"淵西里","LIN":"13鄰","STREET":"安中路","SECT":"四段","MAREA":" ","LANE":"３２０巷","ALLEY":"９７弄","HOUSE_NO":"３９號之１７","E_COORD97":164612.97,"N_COORD97":2550540.1899999999,"ADDRESS":"安中路四段３２０巷９７弄３９號之１７","OBJECTID":8809},"geometry":{"x":164612.97000000067,"y":2550540.1900000013}},{"attributes":{"ID":8810,"DIS_CODE":0,"TOWNNAME":"六甲區","LI":"中社里","LIN":"13鄰","STREET":" ","SECT":" ","MAREA":"港子頭","LANE":" ","ALLEY":" ","HOUSE_NO":"３７號之１","E_COORD97":180854.57000000001,"N_COORD97":2571339.3999999999,"ADDRESS":"港子頭３７號之１","OBJECTID":8810},"geometry":{"x":180854.57000000123,"y":2571339.4000000022}},{"attributes":{"ID":8811,"DIS_CODE":0,"TOWNNAME":"東區","LI":"文聖里","LIN":"20鄰","STREET":"裕信二街","SECT":" ","MAREA":" ","LANE":" ","ALLEY":" ","HOUSE_NO":"８８號","E_COORD97":172789.60999999999,"N_COORD97":2542744.1600000001,"ADDRESS":"裕信二街８８號","OBJECTID":8811},"geometry":{"x":172789.61000000034,"y":2542744.1600000001}},{"attributes":{"ID":8812,"DIS_CODE":0,"TOWNNAME":"安南區","LI":"淵西里","LIN":"13鄰","STREET":"安中路","SECT":"四段","MAREA":" ","LANE":"３２０巷","ALLEY":"９７弄","HOUSE_NO":"３９號之１８","E_COORD97":164608.85000000001,"N_COORD97":2550540.3799999999,"ADDRESS":"安中路四段３２０巷９７弄３９號之１８","OBJECTID":8812},"geometry":{"x":164608.85000000056,"y":2550540.3800000027}},{"attributes":{"ID":8813,"DIS_CODE":0,"TOWNNAME":"安南區","LI":"淵西里","LIN":"13鄰","STREET":"安中路","SECT":"四段","MAREA":" ","LANE":"３２０巷","ALLEY":"９７弄","HOUSE_NO":"３９號之１９","E_COORD97":164605.10999999999,"N_COORD97":2550540.9700000002,"ADDRESS":"安中路四段３２０巷９７弄３９號之１９","OBJECTID":8813},"geometry":{"x":164605.11000000034,"y":2550540.9700000007}},{"attributes":{"ID":8814,"DIS_CODE":0,"TOWNNAME":"安南區","LI":"淵西里","LIN":"13鄰","STREET":"安中路","SECT":"四段","MAREA":" ","LANE":"３２０巷","ALLEY":"９７弄","HOUSE_NO":"３９號之２","E_COORD97":164667.60999999999,"N_COORD97":2550533.1200000001,"ADDRESS":"安中路四段３２０巷９７弄３９號之２","OBJECTID":8814},"geometry":{"x":164667.61000000034,"y":2550533.120000001}},{"attributes":{"ID":8815,"DIS_CODE":0,"TOWNNAME":"安南區","LI":"淵西里","LIN":"13鄰","STREET":"安中路","SECT":"四段","MAREA":" ","LANE":"３２０巷","ALLEY":"９７弄","HOUSE_NO":"３９號之２０","E_COORD97":164600.69,"N_COORD97":2550541.3599999999,"ADDRESS":"安中路四段３２０巷９７弄３９號之２０","OBJECTID":8815},"geometry":{"x":164600.69000000134,"y":2550541.3600000013}},{"attributes":{"ID":8816,"DIS_CODE":0,"TOWNNAME":"安南區","LI":"淵西里","LIN":"13鄰","STREET":"安中路","SECT":"四段","MAREA":" ","LANE":"３２０巷","ALLEY":"９７弄","HOUSE_NO":"３９號之２１","E_COORD97":164596.76000000001,"N_COORD97":2550541.9500000002,"ADDRESS":"安中路四段３２０巷９７弄３９號之２１","OBJECTID":8816},"geometry":{"x":164596.75999999978,"y":2550541.9499999993}},{"attributes":{"ID":8817,"DIS_CODE":0,"TOWNNAME":"安南區","LI":"淵西里","LIN":"13鄰","STREET":"安中路","SECT":"四段","MAREA":" ","LANE":"３２０巷","ALLEY":"９７弄","HOUSE_NO":"３９號之２２","E_COORD97":164592.23999999999,"N_COORD97":2550542.54,"ADDRESS":"安中路四段３２０巷９７弄３９號之２２","OBJECTID":8817},"geometry":{"x":164592.24000000022,"y":2550542.5399999972}},{"attributes":{"ID":8818,"DIS_CODE":0,"TOWNNAME":"安南區","LI":"淵西里","LIN":"13鄰","STREET":"安中路","SECT":"四段","MAREA":" ","LANE":"３２０巷","ALLEY":"９７弄","HOUSE_NO":"３９號之２３","E_COORD97":164587.72,"N_COORD97":2550542.54,"ADDRESS":"安中路四段３２０巷９７弄３９號之２３","OBJECTID":8818},"geometry":{"x":164587.72000000067,"y":2550542.5399999972}},{"attributes":{"ID":8819,"DIS_CODE":0,"TOWNNAME":"安南區","LI":"淵西里","LIN":"13鄰","STREET":"安中路","SECT":"四段","MAREA":" ","LANE":"３２０巷","ALLEY":"９７弄","HOUSE_NO":"３９號之２５","E_COORD97":164584.76999999999,"N_COORD97":2550543.52,"ADDRESS":"安中路四段３２０巷９７弄３９號之２５","OBJECTID":8819},"geometry":{"x":164584.76999999955,"y":2550543.5200000033}},{"attributes":{"ID":8820,"DIS_CODE":0,"TOWNNAME":"安南區","LI":"淵西里","LIN":"13鄰","STREET":"安中路","SECT":"四段","MAREA":" ","LANE":"３２０巷","ALLEY":"９７弄","HOUSE_NO":"３９號之２６","E_COORD97":164580.25,"N_COORD97":2550542.7400000002,"ADDRESS":"安中路四段３２０巷９７弄３９號之２６","OBJECTID":8820},"geometry":{"x":164580.25,"y":2550542.7400000039}},{"attributes":{"ID":8821,"DIS_CODE":0,"TOWNNAME":"安南區","LI":"淵西里","LIN":"13鄰","STREET":"安中路","SECT":"四段","MAREA":" ","LANE":"３２０巷","ALLEY":"９７弄","HOUSE_NO":"３９號之２７","E_COORD97":164576.51999999999,"N_COORD97":2550543.1299999999,"ADDRESS":"安中路四段３２０巷９７弄３９號之２７","OBJECTID":8821},"geometry":{"x":164576.52000000142,"y":2550543.1300000008}},{"attributes":{"ID":8822,"DIS_CODE":0,"TOWNNAME":"安南區","LI":"淵西里","LIN":"13鄰","STREET":"安中路","SECT":"四段","MAREA":" ","LANE":"３２０巷","ALLEY":"９７弄","HOUSE_NO":"３９號之２８","E_COORD97":164572.78,"N_COORD97":2550543.9199999999,"ADDRESS":"安中路四段３２０巷９７弄３９號之２８","OBJECTID":8822},"geometry":{"x":164572.78000000119,"y":2550543.9199999999}},{"attributes":{"ID":8823,"DIS_CODE":0,"TOWNNAME":"安南區","LI":"淵西里","LIN":"13鄰","STREET":"安中路","SECT":"四段","MAREA":" ","LANE":"３２０巷","ALLEY":"９７弄","HOUSE_NO":"３９號之２９","E_COORD97":164567.28,"N_COORD97":2550543.7200000002,"ADDRESS":"安中路四段３２０巷９７弄３９號之２９","OBJECTID":8823},"geometry":{"x":164567.28000000119,"y":2550543.7200000025}},{"attributes":{"ID":8824,"DIS_CODE":0,"TOWNNAME":"安南區","LI":"淵西里","LIN":"13鄰","STREET":"安中路","SECT":"四段","MAREA":" ","LANE":"３２０巷","ALLEY":"９７弄","HOUSE_NO":"３９號之３","E_COORD97":164661.51000000001,"N_COORD97":2550534.8900000001,"ADDRESS":"安中路四段３２０巷９７弄３９號之３","OBJECTID":8824},"geometry":{"x":164661.51000000164,"y":2550534.8899999987}},{"attributes":{"ID":8825,"DIS_CODE":0,"TOWNNAME":"安南區","LI":"淵西里","LIN":"13鄰","STREET":"安中路","SECT":"四段","MAREA":" ","LANE":"３２０巷","ALLEY":"９７弄","HOUSE_NO":"３９號之５","E_COORD97":164656.60000000001,"N_COORD97":2550535.8700000001,"ADDRESS":"安中路四段３２０巷９７弄３９號之５","OBJECTID":8825},"geometry":{"x":164656.59999999963,"y":2550535.8700000048}},{"attributes":{"ID":8826,"DIS_CODE":0,"TOWNNAME":"安南區","LI":"淵西里","LIN":"13鄰","STREET":"安中路","SECT":"四段","MAREA":" ","LANE":"３２０巷","ALLEY":"９７弄","HOUSE_NO":"３９號之６","E_COORD97":164652.87,"N_COORD97":2550537.0499999998,"ADDRESS":"安中路四段３２０巷９７弄３９號之６","OBJECTID":8826},"geometry":{"x":164652.87000000104,"y":2550537.0500000007}},{"attributes":{"ID":8827,"DIS_CODE":0,"TOWNNAME":"六甲區","LI":"甲東里","LIN":"24鄰","STREET":"裕農街","SECT":" ","MAREA":" ","LANE":"２巷","ALLEY":"２１弄","HOUSE_NO":"１號","E_COORD97":183911.09,"N_COORD97":2569556.4199999999,"ADDRESS":"裕農街２巷２１弄１號","OBJECTID":8827},"geometry":{"x":183911.08999999985,"y":2569556.4199999999}},{"attributes":{"ID":8828,"DIS_CODE":0,"TOWNNAME":"安南區","LI":"淵西里","LIN":"13鄰","STREET":"安中路","SECT":"四段","MAREA":" ","LANE":"３２０巷","ALLEY":"９７弄","HOUSE_NO":"３９號之７","E_COORD97":164649.72,"N_COORD97":2550537.8300000001,"ADDRESS":"安中路四段３２０巷９７弄３９號之７","OBJECTID":8828},"geometry":{"x":164649.71999999974,"y":2550537.8300000001}},{"attributes":{"ID":8829,"DIS_CODE":0,"TOWNNAME":"左鎮區","LI":"榮和里","LIN":"13鄰","STREET":" ","SECT":" ","MAREA":"菜寮","LANE":" ","ALLEY":" ","HOUSE_NO":"５７號","E_COORD97":187138.54000000001,"N_COORD97":2551579.25,"ADDRESS":"菜寮５７號","OBJECTID":8829},"geometry":{"x":187138.54000000097,"y":2551579.25}},{"attributes":{"ID":8830,"DIS_CODE":0,"TOWNNAME":"安南區","LI":"淵西里","LIN":"13鄰","STREET":"安中路","SECT":"四段","MAREA":" ","LANE":"３２０巷","ALLEY":"９７弄","HOUSE_NO":"３９號之８","E_COORD97":164645.60000000001,"N_COORD97":2550537.8300000001,"ADDRESS":"安中路四段３２０巷９７弄３９號之８","OBJECTID":8830},"geometry":{"x":164645.60000000149,"y":2550537.8300000001}},{"attributes":{"ID":8831,"DIS_CODE":0,"TOWNNAME":"官田區","LI":"二鎮里","LIN":"14鄰","STREET":" ","SECT":" ","MAREA":"程泰","LANE":" ","ALLEY":" ","HOUSE_NO":"２６號","E_COORD97":181692.22,"N_COORD97":2566435.2200000002,"ADDRESS":"程泰２６號","OBJECTID":8831},"geometry":{"x":181692.22000000067,"y":2566435.2200000025}},{"attributes":{"ID":8832,"DIS_CODE":0,"TOWNNAME":"安南區","LI":"淵西里","LIN":"13鄰","STREET":"安中路","SECT":"四段","MAREA":" ","LANE":"３２０巷","ALLEY":"９７弄","HOUSE_NO":"３９號之９","E_COORD97":164641.66,"N_COORD97":2550538.0299999998,"ADDRESS":"安中路四段３２０巷９７弄３９號之９","OBJECTID":8832},"geometry":{"x":164641.66000000015,"y":2550538.0299999993}},{"attributes":{"ID":8833,"DIS_CODE":0,"TOWNNAME":"安南區","LI":"淵西里","LIN":"13鄰","STREET":"安中路","SECT":"四段","MAREA":" ","LANE":"３２０巷","ALLEY":"９７弄","HOUSE_NO":"３號","E_COORD97":164606.19,"N_COORD97":2550433.2200000002,"ADDRESS":"安中路四段３２０巷９７弄３號","OBJECTID":8833},"geometry":{"x":164606.19000000041,"y":2550433.2200000007}},{"attributes":{"ID":8834,"DIS_CODE":0,"TOWNNAME":"安南區","LI":"淵西里","LIN":"13鄰","STREET":"安中路","SECT":"四段","MAREA":" ","LANE":"３２０巷","ALLEY":"９７弄","HOUSE_NO":"４１號","E_COORD97":164652.57000000001,"N_COORD97":2550559.9199999999,"ADDRESS":"安中路四段３２０巷９７弄４１號","OBJECTID":8834},"geometry":{"x":164652.5700000003,"y":2550559.9199999999}},{"attributes":{"ID":8835,"DIS_CODE":0,"TOWNNAME":"安南區","LI":"淵西里","LIN":"13鄰","STREET":"安中路","SECT":"四段","MAREA":" ","LANE":"３２０巷","ALLEY":"９７弄","HOUSE_NO":"４２號","E_COORD97":164680.17999999999,"N_COORD97":2550508.1899999999,"ADDRESS":"安中路四段３２０巷９７弄４２號","OBJECTID":8835},"geometry":{"x":164680.1799999997,"y":2550508.1900000032}},{"attributes":{"ID":8836,"DIS_CODE":0,"TOWNNAME":"安南區","LI":"淵西里","LIN":"13鄰","STREET":"安中路","SECT":"四段","MAREA":" ","LANE":"３２０巷","ALLEY":"９７弄","HOUSE_NO":"４３號","E_COORD97":164653.51000000001,"N_COORD97":2550566.8300000001,"ADDRESS":"安中路四段３２０巷９７弄４３號","OBJECTID":8836},"geometry":{"x":164653.51000000071,"y":2550566.8300000019}},{"attributes":{"ID":8837,"DIS_CODE":0,"TOWNNAME":"安南區","LI":"淵西里","LIN":"13鄰","STREET":"安中路","SECT":"四段","MAREA":" ","LANE":"３２０巷","ALLEY":"９７弄","HOUSE_NO":"４５號","E_COORD97":164654.44,"N_COORD97":2550572.9900000002,"ADDRESS":"安中路四段３２０巷９７弄４５號","OBJECTID":8837},"geometry":{"x":164654.44000000134,"y":2550572.9900000021}},{"attributes":{"ID":8838,"DIS_CODE":0,"TOWNNAME":"安南區","LI":"淵西里","LIN":"13鄰","STREET":"安中路","SECT":"四段","MAREA":" ","LANE":"３２０巷","ALLEY":"９７弄","HOUSE_NO":"４６號","E_COORD97":164691.19,"N_COORD97":2550524.8799999999,"ADDRESS":"安中路四段３２０巷９７弄４６號","OBJECTID":8838},"geometry":{"x":164691.19000000041,"y":2550524.8800000008}},{"attributes":{"ID":8839,"DIS_CODE":0,"TOWNNAME":"南區","LI":"建南里","LIN":"24鄰","STREET":"明興路","SECT":" ","MAREA":" ","LANE":" ","ALLEY":" ","HOUSE_NO":"１０３號","E_COORD97":166632.73999999999,"N_COORD97":2539893.1499999999,"ADDRESS":"明興路１０３號","OBJECTID":8839},"geometry":{"x":166632.74000000115,"y":2539893.1500000004}},{"attributes":{"ID":8840,"DIS_CODE":0,"TOWNNAME":"六甲區","LI":"中社里","LIN":"13鄰","STREET":" ","SECT":" ","MAREA":"港子頭","LANE":" ","ALLEY":" ","HOUSE_NO":"３７號之２","E_COORD97":180855.44,"N_COORD97":2571335.2400000002,"ADDRESS":"港子頭３７號之２","OBJECTID":8840},"geometry":{"x":180855.44000000134,"y":2571335.2400000002}},{"attributes":{"ID":8841,"DIS_CODE":0,"TOWNNAME":"安南區","LI":"淵西里","LIN":"13鄰","STREET":"安中路","SECT":"四段","MAREA":" ","LANE":"３２０巷","ALLEY":"９７弄","HOUSE_NO":"４７號","E_COORD97":164656.31,"N_COORD97":2550579.3399999999,"ADDRESS":"安中路四段３２０巷９７弄４７號","OBJECTID":8841},"geometry":{"x":164656.31000000052,"y":2550579.3400000017}},{"attributes":{"ID":8842,"DIS_CODE":0,"TOWNNAME":"安南區","LI":"淵西里","LIN":"13鄰","STREET":"安中路","SECT":"四段","MAREA":" ","LANE":"３２０巷","ALLEY":"９７弄","HOUSE_NO":"５號","E_COORD97":164607.17000000001,"N_COORD97":2550437.3399999999,"ADDRESS":"安中路四段３２０巷９７弄５號","OBJECTID":8842},"geometry":{"x":164607.17000000086,"y":2550437.3400000017}},{"attributes":{"ID":8843,"DIS_CODE":0,"TOWNNAME":"安南區","LI":"淵西里","LIN":"13鄰","STREET":"安中路","SECT":"四段","MAREA":" ","LANE":"３２０巷","ALLEY":"９７弄","HOUSE_NO":"６號","E_COORD97":164635.38,"N_COORD97":2550429.29,"ADDRESS":"安中路四段３２０巷９７弄６號","OBJECTID":8843},"geometry":{"x":164635.37999999896,"y":2550429.2900000028}},{"attributes":{"ID":8844,"DIS_CODE":0,"TOWNNAME":"安南區","LI":"淵西里","LIN":"13鄰","STREET":"安中路","SECT":"四段","MAREA":" ","LANE":"３２０巷","ALLEY":"９７弄","HOUSE_NO":"７號","E_COORD97":164609.53,"N_COORD97":2550440.0899999999,"ADDRESS":"安中路四段３２０巷９７弄７號","OBJECTID":8844},"geometry":{"x":164609.53000000212,"y":2550440.0899999999}},{"attributes":{"ID":8845,"DIS_CODE":0,"TOWNNAME":"安南區","LI":"淵西里","LIN":"13鄰","STREET":"安中路","SECT":"四段","MAREA":" ","LANE":"３２０巷","ALLEY":"９７弄","HOUSE_NO":"８號","E_COORD97":164638.51999999999,"N_COORD97":2550433.8100000001,"ADDRESS":"安中路四段３２０巷９７弄８號","OBJECTID":8845},"geometry":{"x":164638.51999999955,"y":2550433.8100000042}},{"attributes":{"ID":8846,"DIS_CODE":0,"TOWNNAME":"安南區","LI":"淵西里","LIN":"13鄰","STREET":"安中路","SECT":"四段","MAREA":" ","LANE":"３２０巷","ALLEY":"９７弄","HOUSE_NO":"９號","E_COORD97":164611.69,"N_COORD97":2550444.0099999998,"ADDRESS":"安中路四段３２０巷９７弄９號","OBJECTID":8846},"geometry":{"x":164611.69000000041,"y":2550444.0099999998}},{"attributes":{"ID":8847,"DIS_CODE":0,"TOWNNAME":"永康區","LI":"永康里","LIN":"13鄰","STREET":"永康街","SECT":" ","MAREA":" ","LANE":"１３６巷","ALLEY":"１３弄","HOUSE_NO":"１０號","E_COORD97":173944.53,"N_COORD97":2547007.1200000001,"ADDRESS":"永康街１３６巷１３弄１０號","OBJECTID":8847},"geometry":{"x":173944.53000000026,"y":2547007.120000001}},{"attributes":{"ID":8848,"DIS_CODE":0,"TOWNNAME":"永康區","LI":"正強里","LIN":"13鄰","STREET":"正強街","SECT":" ","MAREA":" ","LANE":"１１１巷","ALLEY":"１６弄","HOUSE_NO":"１３號","E_COORD97":173260.59,"N_COORD97":2547437.3700000001,"ADDRESS":"正強街１１１巷１６弄１３號","OBJECTID":8848},"geometry":{"x":173260.58999999985,"y":2547437.3700000029}},{"attributes":{"ID":8849,"DIS_CODE":0,"TOWNNAME":"永康區","LI":"成功里","LIN":"13鄰","STREET":"忠孝路","SECT":" ","MAREA":" ","LANE":"２０３巷","ALLEY":"２４弄","HOUSE_NO":"６號","E_COORD97":172037.01999999999,"N_COORD97":2544896.8399999999,"ADDRESS":"忠孝路２０３巷２４弄６號","OBJECTID":8849},"geometry":{"x":172037.02000000142,"y":2544896.8400000017}},{"attributes":{"ID":8850,"DIS_CODE":0,"TOWNNAME":"永康區","LI":"成功里","LIN":"13鄰","STREET":"忠孝路","SECT":" ","MAREA":" ","LANE":"２０３巷","ALLEY":"２４弄","HOUSE_NO":"２號","E_COORD97":172037.01999999999,"N_COORD97":2544890.8399999999,"ADDRESS":"忠孝路２０３巷２４弄２號","OBJECTID":8850},"geometry":{"x":172037.02000000142,"y":2544890.8400000017}},{"attributes":{"ID":8851,"DIS_CODE":0,"TOWNNAME":"安南區","LI":"安東里","LIN":"13鄰","STREET":"安和路","SECT":"一段","MAREA":" ","LANE":"２２０巷","ALLEY":"６６弄","HOUSE_NO":"１１號","E_COORD97":169522.98999999999,"N_COORD97":2547997.2999999998,"ADDRESS":"安和路一段２２０巷６６弄１１號","OBJECTID":8851},"geometry":{"x":169522.99000000115,"y":2547997.3000000026}},{"attributes":{"ID":8852,"DIS_CODE":0,"TOWNNAME":"安南區","LI":"安東里","LIN":"13鄰","STREET":"安和路","SECT":"一段","MAREA":" ","LANE":"２２０巷","ALLEY":"６６弄","HOUSE_NO":"２３號","E_COORD97":169554.84,"N_COORD97":2548000.2999999998,"ADDRESS":"安和路一段２２０巷６６弄２３號","OBJECTID":8852},"geometry":{"x":169554.83999999985,"y":2548000.3000000026}},{"attributes":{"ID":8853,"DIS_CODE":0,"TOWNNAME":"安南區","LI":"安東里","LIN":"13鄰","STREET":"安和路","SECT":"一段","MAREA":" ","LANE":"２２０巷","ALLEY":"６６弄","HOUSE_NO":"２７號","E_COORD97":169561.73000000001,"N_COORD97":2547989.4399999999,"ADDRESS":"安和路一段２２０巷６６弄２７號","OBJECTID":8853},"geometry":{"x":169561.73000000138,"y":2547989.4399999995}},{"attributes":{"ID":8854,"DIS_CODE":0,"TOWNNAME":"安南區","LI":"安東里","LIN":"13鄰","STREET":"安和路","SECT":"一段","MAREA":" ","LANE":"２２０巷","ALLEY":"６６弄","HOUSE_NO":"２９號","E_COORD97":169564.67000000001,"N_COORD97":2547981.27,"ADDRESS":"安和路一段２２０巷６６弄２９號","OBJECTID":8854},"geometry":{"x":169564.66999999993,"y":2547981.2699999996}},{"attributes":{"ID":8855,"DIS_CODE":0,"TOWNNAME":"安南區","LI":"安東里","LIN":"13鄰","STREET":"安和路","SECT":"一段","MAREA":" ","LANE":"２２０巷","ALLEY":"６６弄","HOUSE_NO":"３號","E_COORD97":169514.45999999999,"N_COORD97":2548010.9900000002,"ADDRESS":"安和路一段２２０巷６６弄３號","OBJECTID":8855},"geometry":{"x":169514.46000000089,"y":2548010.9900000002}},{"attributes":{"ID":8856,"DIS_CODE":0,"TOWNNAME":"安南區","LI":"安東里","LIN":"13鄰","STREET":"安和路","SECT":"一段","MAREA":" ","LANE":"２２０巷","ALLEY":"６６弄","HOUSE_NO":"５號","E_COORD97":169518.64999999999,"N_COORD97":2548007.9199999999,"ADDRESS":"安和路一段２２０巷６６弄５號","OBJECTID":8856},"geometry":{"x":169518.6500000013,"y":2548007.9199999999}},{"attributes":{"ID":8857,"DIS_CODE":0,"TOWNNAME":"安南區","LI":"安東里","LIN":"13鄰","STREET":"安和路","SECT":"一段","MAREA":" ","LANE":"２２０巷","ALLEY":"５４弄","HOUSE_NO":"１９號之５","E_COORD97":169526.29999999999,"N_COORD97":2547972.8900000001,"ADDRESS":"安和路一段２２０巷５４弄１９號之５","OBJECTID":8857},"geometry":{"x":169526.29999999981,"y":2547972.8900000025}},{"attributes":{"ID":8858,"DIS_CODE":0,"TOWNNAME":"安南區","LI":"安東里","LIN":"13鄰","STREET":"安和路","SECT":"一段","MAREA":" ","LANE":"２２０巷","ALLEY":"８６弄","HOUSE_NO":"７號","E_COORD97":169552.19,"N_COORD97":2548031.29,"ADDRESS":"安和路一段２２０巷８６弄７號","OBJECTID":8858},"geometry":{"x":169552.19000000134,"y":2548031.2899999991}},{"attributes":{"ID":8859,"DIS_CODE":0,"TOWNNAME":"安南區","LI":"安西里","LIN":"13鄰","STREET":"安和路","SECT":"一段","MAREA":" ","LANE":"１５９巷","ALLEY":"４２弄","HOUSE_NO":"１號","E_COORD97":169266.76999999999,"N_COORD97":2547825.1800000002,"ADDRESS":"安和路一段１５９巷４２弄１號","OBJECTID":8859},"geometry":{"x":169266.76999999955,"y":2547825.1799999997}},{"attributes":{"ID":8860,"DIS_CODE":0,"TOWNNAME":"安南區","LI":"安西里","LIN":"13鄰","STREET":"安和路","SECT":"一段","MAREA":" ","LANE":"１５９巷","ALLEY":"４２弄","HOUSE_NO":"３號","E_COORD97":169271.07999999999,"N_COORD97":2547827.52,"ADDRESS":"安和路一段１５９巷４２弄３號","OBJECTID":8860},"geometry":{"x":169271.08000000101,"y":2547827.5200000033}},{"attributes":{"ID":8861,"DIS_CODE":0,"TOWNNAME":"六甲區","LI":"甲東里","LIN":"24鄰","STREET":"裕農街","SECT":" ","MAREA":" ","LANE":"２巷","ALLEY":"２１弄","HOUSE_NO":"７號","E_COORD97":183929.85999999999,"N_COORD97":2569545.75,"ADDRESS":"裕農街２巷２１弄７號","OBJECTID":8861},"geometry":{"x":183929.86000000034,"y":2569545.7500000019}},{"attributes":{"ID":8862,"DIS_CODE":0,"TOWNNAME":"安南區","LI":"安西里","LIN":"13鄰","STREET":"安和路","SECT":"一段","MAREA":" ","LANE":"１５９巷","ALLEY":"４２弄","HOUSE_NO":"５號","E_COORD97":169275.76999999999,"N_COORD97":2547829.48,"ADDRESS":"安和路一段１５９巷４２弄５號","OBJECTID":8862},"geometry":{"x":169275.77000000048,"y":2547829.4800000023}},{"attributes":{"ID":8863,"DIS_CODE":0,"TOWNNAME":"安南區","LI":"安和里","LIN":"13鄰","STREET":"安和路","SECT":"一段","MAREA":" ","LANE":"９６巷","ALLEY":"３２弄","HOUSE_NO":"１０號","E_COORD97":169589.87,"N_COORD97":2547635.6499999999,"ADDRESS":"安和路一段９６巷３２弄１０號","OBJECTID":8863},"geometry":{"x":169589.87000000104,"y":2547635.6500000022}},{"attributes":{"ID":8864,"DIS_CODE":0,"TOWNNAME":"安南區","LI":"安和里","LIN":"13鄰","STREET":"安和路","SECT":"一段","MAREA":" ","LANE":"９６巷","ALLEY":"３２弄","HOUSE_NO":"１１號","E_COORD97":169607.32000000001,"N_COORD97":2547648.8799999999,"ADDRESS":"安和路一段９６巷３２弄１１號","OBJECTID":8864},"geometry":{"x":169607.32000000123,"y":2547648.8800000008}},{"attributes":{"ID":8865,"DIS_CODE":0,"TOWNNAME":"安南區","LI":"安和里","LIN":"13鄰","STREET":"安和路","SECT":"一段","MAREA":" ","LANE":"９６巷","ALLEY":"３２弄","HOUSE_NO":"１２號","E_COORD97":169594.67999999999,"N_COORD97":2547632.0499999998,"ADDRESS":"安和路一段９６巷３２弄１２號","OBJECTID":8865},"geometry":{"x":169594.6799999997,"y":2547632.0500000045}},{"attributes":{"ID":8866,"DIS_CODE":0,"TOWNNAME":"安南區","LI":"安和里","LIN":"13鄰","STREET":"安和路","SECT":"一段","MAREA":" ","LANE":"９６巷","ALLEY":"３２弄","HOUSE_NO":"１３號","E_COORD97":169613.32999999999,"N_COORD97":2547644.3700000001,"ADDRESS":"安和路一段９６巷３２弄１３號","OBJECTID":8866},"geometry":{"x":169613.33000000101,"y":2547644.3700000029}},{"attributes":{"ID":8867,"DIS_CODE":0,"TOWNNAME":"安南區","LI":"安和里","LIN":"13鄰","STREET":"安和路","SECT":"一段","MAREA":" ","LANE":"９６巷","ALLEY":"３２弄","HOUSE_NO":"１５號","E_COORD97":169618.14999999999,"N_COORD97":2547640.7599999998,"ADDRESS":"安和路一段９６巷３２弄１５號","OBJECTID":8867},"geometry":{"x":169618.1500000013,"y":2547640.7600000016}},{"attributes":{"ID":8868,"DIS_CODE":0,"TOWNNAME":"安南區","LI":"安和里","LIN":"13鄰","STREET":"安和路","SECT":"一段","MAREA":" ","LANE":"９６巷","ALLEY":"３２弄","HOUSE_NO":"１６號","E_COORD97":169604.31,"N_COORD97":2547625.7400000002,"ADDRESS":"安和路一段９６巷３２弄１６號","OBJECTID":8868},"geometry":{"x":169604.31000000145,"y":2547625.7400000002}},{"attributes":{"ID":8869,"DIS_CODE":0,"TOWNNAME":"安南區","LI":"安和里","LIN":"13鄰","STREET":"安和路","SECT":"一段","MAREA":" ","LANE":"９６巷","ALLEY":"３２弄","HOUSE_NO":"１８號","E_COORD97":169609.72,"N_COORD97":2547622.1299999999,"ADDRESS":"安和路一段９６巷３２弄１８號","OBJECTID":8869},"geometry":{"x":169609.71999999974,"y":2547622.129999999}},{"attributes":{"ID":8870,"DIS_CODE":0,"TOWNNAME":"安南區","LI":"安和里","LIN":"13鄰","STREET":"安和路","SECT":"一段","MAREA":" ","LANE":"９６巷","ALLEY":"３２弄","HOUSE_NO":"１９號","E_COORD97":169628.87,"N_COORD97":2547634.1699999999,"ADDRESS":"安和路一段９６巷３２弄１９號","OBJECTID":8870},"geometry":{"x":169628.87000000104,"y":2547634.1700000018}},{"attributes":{"ID":8871,"DIS_CODE":0,"TOWNNAME":"安南區","LI":"安和里","LIN":"13鄰","STREET":"安和路","SECT":"一段","MAREA":" ","LANE":"９６巷","ALLEY":"３２弄","HOUSE_NO":"１號","E_COORD97":169580.84,"N_COORD97":2547664.8100000001,"ADDRESS":"安和路一段９６巷３２弄１號","OBJECTID":8871},"geometry":{"x":169580.84000000078,"y":2547664.8100000024}},{"attributes":{"ID":8872,"DIS_CODE":0,"TOWNNAME":"安南區","LI":"安和里","LIN":"13鄰","STREET":"安和路","SECT":"一段","MAREA":" ","LANE":"９６巷","ALLEY":"３２弄","HOUSE_NO":"２０號","E_COORD97":169615.14000000001,"N_COORD97":2547618.8199999998,"ADDRESS":"安和路一段９６巷３２弄２０號","OBJECTID":8872},"geometry":{"x":169615.13999999966,"y":2547618.8200000003}},{"attributes":{"ID":8873,"DIS_CODE":0,"TOWNNAME":"安南區","LI":"安和里","LIN":"13鄰","STREET":"安和路","SECT":"一段","MAREA":" ","LANE":"９６巷","ALLEY":"３２弄","HOUSE_NO":"２３號","E_COORD97":169638.64000000001,"N_COORD97":2547625.3799999999,"ADDRESS":"安和路一段９６巷３２弄２３號","OBJECTID":8873},"geometry":{"x":169638.63999999966,"y":2547625.3800000008}},{"attributes":{"ID":8874,"DIS_CODE":0,"TOWNNAME":"安南區","LI":"安和里","LIN":"13鄰","STREET":"安和路","SECT":"一段","MAREA":" ","LANE":"９６巷","ALLEY":"３２弄","HOUSE_NO":"２４號","E_COORD97":169626.26999999999,"N_COORD97":2547611.0099999998,"ADDRESS":"安和路一段９６巷３２弄２４號","OBJECTID":8874},"geometry":{"x":169626.26999999955,"y":2547611.0100000035}},{"attributes":{"ID":8875,"DIS_CODE":0,"TOWNNAME":"安南區","LI":"安和里","LIN":"13鄰","STREET":"安和路","SECT":"一段","MAREA":" ","LANE":"９６巷","ALLEY":"３２弄","HOUSE_NO":"２５號","E_COORD97":169644.51000000001,"N_COORD97":2547621.4700000002,"ADDRESS":"安和路一段９６巷３２弄２５號","OBJECTID":8875},"geometry":{"x":169644.51000000071,"y":2547621.4700000007}},{"attributes":{"ID":8876,"DIS_CODE":0,"TOWNNAME":"安南區","LI":"安和里","LIN":"13鄰","STREET":"安和路","SECT":"一段","MAREA":" ","LANE":"９６巷","ALLEY":"３２弄","HOUSE_NO":"２６號","E_COORD97":169632.03,"N_COORD97":2547607.2599999998,"ADDRESS":"安和路一段９６巷３２弄２６號","OBJECTID":8876},"geometry":{"x":169632.03000000026,"y":2547607.2600000016}},{"attributes":{"ID":8877,"DIS_CODE":0,"TOWNNAME":"安南區","LI":"安和里","LIN":"13鄰","STREET":"安和路","SECT":"一段","MAREA":" ","LANE":"９６巷","ALLEY":"３２弄","HOUSE_NO":"２７號","E_COORD97":169650.04000000001,"N_COORD97":2547618.8700000001,"ADDRESS":"安和路一段９６巷３２弄２７號","OBJECTID":8877},"geometry":{"x":169650.04000000004,"y":2547618.870000001}},{"attributes":{"ID":8878,"DIS_CODE":0,"TOWNNAME":"安南區","LI":"安和里","LIN":"13鄰","STREET":"安和路","SECT":"一段","MAREA":" ","LANE":"９６巷","ALLEY":"３２弄","HOUSE_NO":"２８號","E_COORD97":169636.09,"N_COORD97":2547604.0099999998,"ADDRESS":"安和路一段９６巷３２弄２８號","OBJECTID":8878},"geometry":{"x":169636.08999999985,"y":2547604.0099999979}},{"attributes":{"ID":8879,"DIS_CODE":0,"TOWNNAME":"安南區","LI":"安和里","LIN":"13鄰","STREET":"安和路","SECT":"一段","MAREA":" ","LANE":"９６巷","ALLEY":"３２弄","HOUSE_NO":"２９號","E_COORD97":169655.91,"N_COORD97":2547615.9399999999,"ADDRESS":"安和路一段９６巷３２弄２９號","OBJECTID":8879},"geometry":{"x":169655.91000000015,"y":2547615.9400000013}},{"attributes":{"ID":8880,"DIS_CODE":0,"TOWNNAME":"安南區","LI":"安和里","LIN":"13鄰","STREET":"安和路","SECT":"一段","MAREA":" ","LANE":"９６巷","ALLEY":"３２弄","HOUSE_NO":"３０號","E_COORD97":169641.51999999999,"N_COORD97":2547601.2999999998,"ADDRESS":"安和路一段９６巷３２弄３０號","OBJECTID":8880},"geometry":{"x":169641.51999999955,"y":2547601.3000000026}},{"attributes":{"ID":8881,"DIS_CODE":0,"TOWNNAME":"安南區","LI":"安和里","LIN":"13鄰","STREET":"安和路","SECT":"一段","MAREA":" ","LANE":"９６巷","ALLEY":"３２弄","HOUSE_NO":"３１號","E_COORD97":169661.44,"N_COORD97":2547613.6600000001,"ADDRESS":"安和路一段９６巷３２弄３１號","OBJECTID":8881},"geometry":{"x":169661.44000000041,"y":2547613.6600000039}},{"attributes":{"ID":8882,"DIS_CODE":0,"TOWNNAME":"安南區","LI":"安和里","LIN":"13鄰","STREET":"安和路","SECT":"一段","MAREA":" ","LANE":"９６巷","ALLEY":"３２弄","HOUSE_NO":"３２號","E_COORD97":169645.85000000001,"N_COORD97":2547598.3199999998,"ADDRESS":"安和路一段９６巷３２弄３２號","OBJECTID":8882},"geometry":{"x":169645.84999999963,"y":2547598.3200000003}},{"attributes":{"ID":8883,"DIS_CODE":0,"TOWNNAME":"安南區","LI":"安和里","LIN":"13鄰","STREET":"安和路","SECT":"一段","MAREA":" ","LANE":"９６巷","ALLEY":"３２弄","HOUSE_NO":"３３號","E_COORD97":169666.32999999999,"N_COORD97":2547611.0600000001,"ADDRESS":"安和路一段９６巷３２弄３３號","OBJECTID":8883},"geometry":{"x":169666.33000000101,"y":2547611.0600000005}},{"attributes":{"ID":8884,"DIS_CODE":0,"TOWNNAME":"安南區","LI":"安和里","LIN":"13鄰","STREET":"安和路","SECT":"一段","MAREA":" ","LANE":"９６巷","ALLEY":"３２弄","HOUSE_NO":"３４號","E_COORD97":169651,"N_COORD97":2547596.1600000001,"ADDRESS":"安和路一段９６巷３２弄３４號","OBJECTID":8884},"geometry":{"x":169651.00000000093,"y":2547596.1600000001}},{"attributes":{"ID":8885,"DIS_CODE":0,"TOWNNAME":"安南區","LI":"安和里","LIN":"13鄰","STREET":"安和路","SECT":"一段","MAREA":" ","LANE":"９６巷","ALLEY":"３２弄","HOUSE_NO":"３５號","E_COORD97":169672.51999999999,"N_COORD97":2547607.48,"ADDRESS":"安和路一段９６巷３２弄３５號","OBJECTID":8885},"geometry":{"x":169672.52000000048,"y":2547607.4800000004}},{"attributes":{"ID":8886,"DIS_CODE":0,"TOWNNAME":"安南區","LI":"安和里","LIN":"13鄰","STREET":"安和路","SECT":"一段","MAREA":" ","LANE":"９６巷","ALLEY":"３２弄","HOUSE_NO":"３６號","E_COORD97":169655.88,"N_COORD97":2547593.1800000002,"ADDRESS":"安和路一段９６巷３２弄３６號","OBJECTID":8886},"geometry":{"x":169655.87999999989,"y":2547593.1800000016}},{"attributes":{"ID":8887,"DIS_CODE":0,"TOWNNAME":"安南區","LI":"安和里","LIN":"13鄰","STREET":"安和路","SECT":"一段","MAREA":" ","LANE":"９６巷","ALLEY":"３２弄","HOUSE_NO":"３７號","E_COORD97":169679.67999999999,"N_COORD97":2547604.8799999999,"ADDRESS":"安和路一段９６巷３２弄３７號","OBJECTID":8887},"geometry":{"x":169679.67999999877,"y":2547604.8800000008}},{"attributes":{"ID":8888,"DIS_CODE":0,"TOWNNAME":"安南區","LI":"安和里","LIN":"13鄰","STREET":"安和路","SECT":"一段","MAREA":" ","LANE":"９６巷","ALLEY":"３２弄","HOUSE_NO":"４０號","E_COORD97":169666.17999999999,"N_COORD97":2547590.4700000002,"ADDRESS":"安和路一段９６巷３２弄４０號","OBJECTID":8888},"geometry":{"x":169666.18000000156,"y":2547590.4700000007}},{"attributes":{"ID":8889,"DIS_CODE":0,"TOWNNAME":"安南區","LI":"安和里","LIN":"13鄰","STREET":"安和路","SECT":"一段","MAREA":" ","LANE":"９６巷","ALLEY":"３２弄","HOUSE_NO":"４號","E_COORD97":169573.92000000001,"N_COORD97":2547647.0800000001,"ADDRESS":"安和路一段９６巷３２弄４號","OBJECTID":8889},"geometry":{"x":169573.92000000086,"y":2547647.0800000001}},{"attributes":{"ID":8890,"DIS_CODE":0,"TOWNNAME":"安南區","LI":"安和里","LIN":"13鄰","STREET":"安和路","SECT":"一段","MAREA":" ","LANE":"９６巷","ALLEY":"３２弄","HOUSE_NO":"５號","E_COORD97":169590.76999999999,"N_COORD97":2547658.7999999998,"ADDRESS":"安和路一段９６巷３２弄５號","OBJECTID":8890},"geometry":{"x":169590.76999999862,"y":2547658.8000000026}},{"attributes":{"ID":8891,"DIS_CODE":0,"TOWNNAME":"安南區","LI":"安和里","LIN":"13鄰","STREET":"安和路","SECT":"一段","MAREA":" ","LANE":"９６巷","ALLEY":"３２弄","HOUSE_NO":"６號","E_COORD97":169578.44,"N_COORD97":2547642.27,"ADDRESS":"安和路一段９６巷３２弄６號","OBJECTID":8891},"geometry":{"x":169578.44000000041,"y":2547642.2699999996}},{"attributes":{"ID":8892,"DIS_CODE":0,"TOWNNAME":"安南區","LI":"安和里","LIN":"13鄰","STREET":"安和路","SECT":"一段","MAREA":" ","LANE":"９６巷","ALLEY":"３２弄","HOUSE_NO":"７號","E_COORD97":169596.79000000001,"N_COORD97":2547655.1899999999,"ADDRESS":"安和路一段９６巷３２弄７號","OBJECTID":8892},"geometry":{"x":169596.79000000097,"y":2547655.1900000013}},{"attributes":{"ID":8893,"DIS_CODE":0,"TOWNNAME":"安南區","LI":"安和里","LIN":"13鄰","STREET":"安和路","SECT":"一段","MAREA":" ","LANE":"９６巷","ALLEY":"３２弄","HOUSE_NO":"９號","E_COORD97":169601.60000000001,"N_COORD97":2547651.5800000001,"ADDRESS":"安和路一段９６巷３２弄９號","OBJECTID":8893},"geometry":{"x":169601.59999999963,"y":2547651.5800000038}},{"attributes":{"ID":8894,"DIS_CODE":0,"TOWNNAME":"新營區","LI":"南紙里","LIN":"13鄰","STREET":"太子路","SECT":" ","MAREA":" ","LANE":"２００巷","ALLEY":"１７弄","HOUSE_NO":"２號","E_COORD97":177861.84,"N_COORD97":2577927.3599999999,"ADDRESS":"太子路２００巷１７弄２號","OBJECTID":8894},"geometry":{"x":177861.84000000078,"y":2577927.3599999994}},{"attributes":{"ID":8895,"DIS_CODE":0,"TOWNNAME":"新營區","LI":"新北里","LIN":"13鄰","STREET":"周武街","SECT":" ","MAREA":" ","LANE":"７９巷","ALLEY":"２１弄","HOUSE_NO":"６號","E_COORD97":179270.53,"N_COORD97":2579042.4199999999,"ADDRESS":"周武街７９巷２１弄６號","OBJECTID":8895},"geometry":{"x":179270.53000000026,"y":2579042.4199999999}},{"attributes":{"ID":8896,"DIS_CODE":0,"TOWNNAME":"安平區","LI":"文平里","LIN":"13鄰","STREET":"建平五街","SECT":" ","MAREA":" ","LANE":"２２巷","ALLEY":"３６弄","HOUSE_NO":"４０號","E_COORD97":166035.06,"N_COORD97":2543229.9199999999,"ADDRESS":"建平五街２２巷３６弄４０號","OBJECTID":8896},"geometry":{"x":166035.05999999959,"y":2543229.9199999999}},{"attributes":{"ID":8897,"DIS_CODE":0,"TOWNNAME":"安平區","LI":"文平里","LIN":"13鄰","STREET":"建平五街","SECT":" ","MAREA":" ","LANE":"２２巷","ALLEY":"３６弄","HOUSE_NO":"４１號","E_COORD97":166027.60000000001,"N_COORD97":2543208.6200000001,"ADDRESS":"建平五街２２巷３６弄４１號","OBJECTID":8897},"geometry":{"x":166027.60000000056,"y":2543208.6200000029}},{"attributes":{"ID":8898,"DIS_CODE":0,"TOWNNAME":"安平區","LI":"文平里","LIN":"13鄰","STREET":"建平五街","SECT":" ","MAREA":" ","LANE":"２２巷","ALLEY":"３６弄","HOUSE_NO":"４２號","E_COORD97":166030.76999999999,"N_COORD97":2543230.8100000001,"ADDRESS":"建平五街２２巷３６弄４２號","OBJECTID":8898},"geometry":{"x":166030.76999999955,"y":2543230.8100000024}},{"attributes":{"ID":8899,"DIS_CODE":0,"TOWNNAME":"安平區","LI":"文平里","LIN":"13鄰","STREET":"建平五街","SECT":" ","MAREA":" ","LANE":"２２巷","ALLEY":"３６弄","HOUSE_NO":"４２號之１","E_COORD97":166026.48000000001,"N_COORD97":2543230.8199999998,"ADDRESS":"建平五街２２巷３６弄４２號之１","OBJECTID":8899},"geometry":{"x":166026.48000000045,"y":2543230.8200000003}},{"attributes":{"ID":8900,"DIS_CODE":0,"TOWNNAME":"安平區","LI":"文平里","LIN":"13鄰","STREET":"建平五街","SECT":" ","MAREA":" ","LANE":"２２巷","ALLEY":"３６弄","HOUSE_NO":"４３號","E_COORD97":166023.92999999999,"N_COORD97":2543208.8799999999,"ADDRESS":"建平五街２２巷３６弄４３號","OBJECTID":8900},"geometry":{"x":166023.93000000063,"y":2543208.879999999}},{"attributes":{"ID":8901,"DIS_CODE":0,"TOWNNAME":"六甲區","LI":"中社里","LIN":"13鄰","STREET":" ","SECT":" ","MAREA":"港子頭","LANE":" ","ALLEY":" ","HOUSE_NO":"３７號之３","E_COORD97":180857.54000000001,"N_COORD97":2571329.0699999998,"ADDRESS":"港子頭３７號之３","OBJECTID":8901},"geometry":{"x":180857.5400000019,"y":2571329.0700000003}},{"attributes":{"ID":8902,"DIS_CODE":0,"TOWNNAME":"六甲區","LI":"中社里","LIN":"13鄰","STREET":" ","SECT":" ","MAREA":"港子頭","LANE":" ","ALLEY":" ","HOUSE_NO":"３７號之４","E_COORD97":180859.32000000001,"N_COORD97":2571322.4700000002,"ADDRESS":"港子頭３７號之４","OBJECTID":8902},"geometry":{"x":180859.32000000216,"y":2571322.4700000025}},{"attributes":{"ID":8903,"DIS_CODE":0,"TOWNNAME":"六甲區","LI":"中社里","LIN":"13鄰","STREET":" ","SECT":" ","MAREA":"港子頭","LANE":" ","ALLEY":" ","HOUSE_NO":"３７號之５","E_COORD97":180860.94,"N_COORD97":2571318.29,"ADDRESS":"港子頭３７號之５","OBJECTID":8903},"geometry":{"x":180860.94000000134,"y":2571318.290000001}},{"attributes":{"ID":8904,"DIS_CODE":0,"TOWNNAME":"六甲區","LI":"中社里","LIN":"13鄰","STREET":" ","SECT":" ","MAREA":"港子頭","LANE":" ","ALLEY":" ","HOUSE_NO":"３７號之６","E_COORD97":180862.17000000001,"N_COORD97":2571313.9500000002,"ADDRESS":"港子頭３７號之６","OBJECTID":8904},"geometry":{"x":180862.17000000086,"y":2571313.9500000011}},{"attributes":{"ID":8905,"DIS_CODE":0,"TOWNNAME":"六甲區","LI":"中社里","LIN":"13鄰","STREET":" ","SECT":" ","MAREA":"港子頭","LANE":" ","ALLEY":" ","HOUSE_NO":"４０號","E_COORD97":180900.26999999999,"N_COORD97":2571363.2400000002,"ADDRESS":"港子頭４０號","OBJECTID":8905},"geometry":{"x":180900.27000000048,"y":2571363.2400000021}},{"attributes":{"ID":8906,"DIS_CODE":0,"TOWNNAME":"六甲區","LI":"中社里","LIN":"13鄰","STREET":" ","SECT":" ","MAREA":"港子頭","LANE":" ","ALLEY":" ","HOUSE_NO":"４１號","E_COORD97":180856.12478400001,"N_COORD97":2571288.27593,"ADDRESS":"港子頭４１號","OBJECTID":8906},"geometry":{"x":180856.12478400022,"y":2571288.2759319991}},{"attributes":{"ID":8907,"DIS_CODE":0,"TOWNNAME":"六甲區","LI":"中社里","LIN":"13鄰","STREET":" ","SECT":" ","MAREA":"港子頭","LANE":" ","ALLEY":" ","HOUSE_NO":"４３號","E_COORD97":180866.79000000001,"N_COORD97":2571270.52,"ADDRESS":"港子頭４３號","OBJECTID":8907},"geometry":{"x":180866.79000000097,"y":2571270.5199999996}},{"attributes":{"ID":8908,"DIS_CODE":0,"TOWNNAME":"六甲區","LI":"中社里","LIN":"13鄰","STREET":" ","SECT":" ","MAREA":"港子頭","LANE":" ","ALLEY":" ","HOUSE_NO":"４５號","E_COORD97":180823.60999999999,"N_COORD97":2571280.2999999998,"ADDRESS":"港子頭４５號","OBJECTID":8908},"geometry":{"x":180823.61000000127,"y":2571280.3000000007}},{"attributes":{"ID":8909,"DIS_CODE":0,"TOWNNAME":"柳營區","LI":"人和里","LIN":"13鄰","STREET":" ","SECT":" ","MAREA":"橋南","LANE":" ","ALLEY":" ","HOUSE_NO":"２１９號之１","E_COORD97":179404.34,"N_COORD97":2576595.7000000002,"ADDRESS":"橋南２１９號之１","OBJECTID":8909},"geometry":{"x":179404.34000000078,"y":2576595.6999999993}},{"attributes":{"ID":8910,"DIS_CODE":0,"TOWNNAME":"柳營區","LI":"人和里","LIN":"13鄰","STREET":" ","SECT":" ","MAREA":"橋南","LANE":" ","ALLEY":" ","HOUSE_NO":"２２１號","E_COORD97":179402.07000000001,"N_COORD97":2576571.9900000002,"ADDRESS":"橋南２２１號","OBJECTID":8910},"geometry":{"x":179402.07000000123,"y":2576571.9899999984}},{"attributes":{"ID":8911,"DIS_CODE":0,"TOWNNAME":"柳營區","LI":"人和里","LIN":"13鄰","STREET":" ","SECT":" ","MAREA":"橋南","LANE":" ","ALLEY":" ","HOUSE_NO":"２２５號","E_COORD97":179399.35000000001,"N_COORD97":2576530.5299999998,"ADDRESS":"橋南２２５號","OBJECTID":8911},"geometry":{"x":179399.35000000056,"y":2576530.5300000031}},{"attributes":{"ID":8912,"DIS_CODE":0,"TOWNNAME":"柳營區","LI":"人和里","LIN":"13鄰","STREET":" ","SECT":" ","MAREA":"橋南","LANE":" ","ALLEY":" ","HOUSE_NO":"２２６之５號","E_COORD97":179269.98000000001,"N_COORD97":2576382.9100000001,"ADDRESS":"橋南２２６之５號","OBJECTID":8912},"geometry":{"x":179269.98000000231,"y":2576382.9100000039}},{"attributes":{"ID":8913,"DIS_CODE":0,"TOWNNAME":"柳營區","LI":"人和里","LIN":"13鄰","STREET":" ","SECT":" ","MAREA":"橋南","LANE":" ","ALLEY":" ","HOUSE_NO":"２２６號之５","E_COORD97":179269.98000000001,"N_COORD97":2576382.9100000001,"ADDRESS":"橋南２２６號之５","OBJECTID":8913},"geometry":{"x":179269.98000000231,"y":2576382.9100000039}},{"attributes":{"ID":8914,"DIS_CODE":0,"TOWNNAME":"柳營區","LI":"人和里","LIN":"13鄰","STREET":" ","SECT":" ","MAREA":"橋南","LANE":" ","ALLEY":" ","HOUSE_NO":"２２６之７號","E_COORD97":179211.69,"N_COORD97":2576380.2200000002,"ADDRESS":"橋南２２６之７號","OBJECTID":8914},"geometry":{"x":179211.69000000041,"y":2576380.2200000007}},{"attributes":{"ID":8915,"DIS_CODE":0,"TOWNNAME":"柳營區","LI":"人和里","LIN":"13鄰","STREET":" ","SECT":" ","MAREA":"橋南","LANE":" ","ALLEY":" ","HOUSE_NO":"２２６之８號","E_COORD97":179110.60999999999,"N_COORD97":2576391.5099999998,"ADDRESS":"橋南２２６之８號","OBJECTID":8915},"geometry":{"x":179110.61000000034,"y":2576391.5099999998}},{"attributes":{"ID":8916,"DIS_CODE":0,"TOWNNAME":"柳營區","LI":"人和里","LIN":"13鄰","STREET":" ","SECT":" ","MAREA":"橋南","LANE":" ","ALLEY":" ","HOUSE_NO":"２２６號","E_COORD97":179397.95999999999,"N_COORD97":2576519.6499999999,"ADDRESS":"橋南２２６號","OBJECTID":8916},"geometry":{"x":179397.95999999996,"y":2576519.6500000004}},{"attributes":{"ID":8917,"DIS_CODE":0,"TOWNNAME":"六甲區","LI":"龜港里","LIN":"13鄰","STREET":" ","SECT":" ","MAREA":"龜子港","LANE":" ","ALLEY":" ","HOUSE_NO":"２８０號","E_COORD97":179676.04999999999,"N_COORD97":2572999.9300000002,"ADDRESS":"龜子港２８０號","OBJECTID":8917},"geometry":{"x":179676.05000000075,"y":2572999.9300000016}},{"attributes":{"ID":8918,"DIS_CODE":0,"TOWNNAME":"東山區","LI":"南勢里","LIN":"13鄰","STREET":" ","SECT":" ","MAREA":"南勢庄","LANE":" ","ALLEY":" ","HOUSE_NO":"４２號","E_COORD97":195807.85999999999,"N_COORD97":2570812.6200000001,"ADDRESS":"南勢庄４２號","OBJECTID":8918},"geometry":{"x":195807.86000000127,"y":2570812.6200000029}},{"attributes":{"ID":8919,"DIS_CODE":0,"TOWNNAME":"六甲區","LI":"龜港里","LIN":"13鄰","STREET":" ","SECT":" ","MAREA":"龜子港","LANE":" ","ALLEY":" ","HOUSE_NO":"２５２號","E_COORD97":179676.82000000001,"N_COORD97":2572926.6899999999,"ADDRESS":"龜子港２５２號","OBJECTID":8919},"geometry":{"x":179676.82000000123,"y":2572926.6900000013}},{"attributes":{"ID":8920,"DIS_CODE":0,"TOWNNAME":"六甲區","LI":"龜港里","LIN":"13鄰","STREET":" ","SECT":" ","MAREA":"龜子港","LANE":" ","ALLEY":" ","HOUSE_NO":"２５４號","E_COORD97":179677.32999999999,"N_COORD97":2572933.77,"ADDRESS":"龜子港２５４號","OBJECTID":8920},"geometry":{"x":179677.32999999914,"y":2572933.7699999996}},{"attributes":{"ID":8921,"DIS_CODE":0,"TOWNNAME":"六甲區","LI":"龜港里","LIN":"13鄰","STREET":" ","SECT":" ","MAREA":"龜子港","LANE":" ","ALLEY":" ","HOUSE_NO":"２５８號","E_COORD97":179669.51999999999,"N_COORD97":2572953.6899999999,"ADDRESS":"龜子港２５８號","OBJECTID":8921},"geometry":{"x":179669.52000000048,"y":2572953.6900000013}},{"attributes":{"ID":8922,"DIS_CODE":0,"TOWNNAME":"六甲區","LI":"龜港里","LIN":"13鄰","STREET":" ","SECT":" ","MAREA":"龜子港","LANE":" ","ALLEY":" ","HOUSE_NO":"２６０號","E_COORD97":179669.64999999999,"N_COORD97":2572959.23,"ADDRESS":"龜子港２６０號","OBJECTID":8922},"geometry":{"x":179669.65000000037,"y":2572959.2300000004}},{"attributes":{"ID":8923,"DIS_CODE":0,"TOWNNAME":"六甲區","LI":"龜港里","LIN":"13鄰","STREET":" ","SECT":" ","MAREA":"龜子港","LANE":" ","ALLEY":" ","HOUSE_NO":"２６２號","E_COORD97":179670.14000000001,"N_COORD97":2572963.3599999999,"ADDRESS":"龜子港２６２號","OBJECTID":8923},"geometry":{"x":179670.1400000006,"y":2572963.3599999994}},{"attributes":{"ID":8924,"DIS_CODE":0,"TOWNNAME":"六甲區","LI":"龜港里","LIN":"13鄰","STREET":" ","SECT":" ","MAREA":"龜子港","LANE":" ","ALLEY":" ","HOUSE_NO":"２６４號","E_COORD97":179670.32000000001,"N_COORD97":2572967.4700000002,"ADDRESS":"龜子港２６４號","OBJECTID":8924},"geometry":{"x":179670.3200000003,"y":2572967.4700000007}},{"attributes":{"ID":8925,"DIS_CODE":0,"TOWNNAME":"六甲區","LI":"龜港里","LIN":"13鄰","STREET":" ","SECT":" ","MAREA":"龜子港","LANE":" ","ALLEY":" ","HOUSE_NO":"２６６號","E_COORD97":179670.79000000001,"N_COORD97":2572971.3799999999,"ADDRESS":"龜子港２６６號","OBJECTID":8925},"geometry":{"x":179670.7900000019,"y":2572971.3800000008}},{"attributes":{"ID":8926,"DIS_CODE":0,"TOWNNAME":"安平區","LI":"文平里","LIN":"13鄰","STREET":"建平五街","SECT":" ","MAREA":" ","LANE":"２２巷","ALLEY":"３６弄","HOUSE_NO":"４５號","E_COORD97":166019.20000000001,"N_COORD97":2543209.6699999999,"ADDRESS":"建平五街２２巷３６弄４５號","OBJECTID":8926},"geometry":{"x":166019.20000000112,"y":2543209.6700000018}},{"attributes":{"ID":8927,"DIS_CODE":0,"TOWNNAME":"六甲區","LI":"龜港里","LIN":"13鄰","STREET":" ","SECT":" ","MAREA":"龜子港","LANE":" ","ALLEY":" ","HOUSE_NO":"２６８號","E_COORD97":179671.12,"N_COORD97":2572975.54,"ADDRESS":"龜子港２６８號","OBJECTID":8927},"geometry":{"x":179671.12000000104,"y":2572975.5399999991}},{"attributes":{"ID":8928,"DIS_CODE":0,"TOWNNAME":"六甲區","LI":"龜港里","LIN":"13鄰","STREET":" ","SECT":" ","MAREA":"龜子港","LANE":" ","ALLEY":" ","HOUSE_NO":"２７０號","E_COORD97":179671.66,"N_COORD97":2572979.5499999998,"ADDRESS":"龜子港２７０號","OBJECTID":8928},"geometry":{"x":179671.66000000015,"y":2572979.5500000026}},{"attributes":{"ID":8929,"DIS_CODE":0,"TOWNNAME":"六甲區","LI":"龜港里","LIN":"13鄰","STREET":" ","SECT":" ","MAREA":"龜子港","LANE":" ","ALLEY":" ","HOUSE_NO":"２７２號","E_COORD97":179671.95000000001,"N_COORD97":2572983.8999999999,"ADDRESS":"龜子港２７２號","OBJECTID":8929},"geometry":{"x":179671.95000000112,"y":2572983.9000000022}},{"attributes":{"ID":8930,"DIS_CODE":0,"TOWNNAME":"六甲區","LI":"龜港里","LIN":"13鄰","STREET":" ","SECT":" ","MAREA":"龜子港","LANE":" ","ALLEY":" ","HOUSE_NO":"２７６號","E_COORD97":179675.23999999999,"N_COORD97":2572990.8900000001,"ADDRESS":"龜子港２７６號","OBJECTID":8930},"geometry":{"x":179675.24000000115,"y":2572990.8900000025}},{"attributes":{"ID":8931,"DIS_CODE":0,"TOWNNAME":"六甲區","LI":"龜港里","LIN":"13鄰","STREET":" ","SECT":" ","MAREA":"龜子港","LANE":" ","ALLEY":" ","HOUSE_NO":"２７８號","E_COORD97":179675.60000000001,"N_COORD97":2572995.5899999999,"ADDRESS":"龜子港２７８號","OBJECTID":8931},"geometry":{"x":179675.60000000056,"y":2572995.5900000017}},{"attributes":{"ID":8932,"DIS_CODE":0,"TOWNNAME":"六甲區","LI":"龜港里","LIN":"13鄰","STREET":" ","SECT":" ","MAREA":"龜子港","LANE":" ","ALLEY":" ","HOUSE_NO":"１０４號","E_COORD97":179690.95000000001,"N_COORD97":2572449.9199999999,"ADDRESS":"龜子港１０４號","OBJECTID":8932},"geometry":{"x":179690.95000000112,"y":2572449.9200000018}},{"attributes":{"ID":8933,"DIS_CODE":0,"TOWNNAME":"六甲區","LI":"龜港里","LIN":"13鄰","STREET":" ","SECT":" ","MAREA":"龜子港","LANE":" ","ALLEY":" ","HOUSE_NO":"１０６號","E_COORD97":179686.45999999999,"N_COORD97":2572456.1299999999,"ADDRESS":"龜子港１０６號","OBJECTID":8933},"geometry":{"x":179686.45999999903,"y":2572456.129999999}},{"attributes":{"ID":8934,"DIS_CODE":0,"TOWNNAME":"六甲區","LI":"龜港里","LIN":"13鄰","STREET":" ","SECT":" ","MAREA":"龜子港","LANE":" ","ALLEY":" ","HOUSE_NO":"２８６號","E_COORD97":179676.85000000001,"N_COORD97":2573012.6400000001,"ADDRESS":"龜子港２８６號","OBJECTID":8934},"geometry":{"x":179676.85000000149,"y":2573012.6400000025}},{"attributes":{"ID":8935,"DIS_CODE":0,"TOWNNAME":"六甲區","LI":"龜港里","LIN":"13鄰","STREET":" ","SECT":" ","MAREA":"龜子港","LANE":" ","ALLEY":" ","HOUSE_NO":"９０號","E_COORD97":179718.07999999999,"N_COORD97":2572434.1400000001,"ADDRESS":"龜子港９０號","OBJECTID":8935},"geometry":{"x":179718.08000000194,"y":2572434.1400000006}},{"attributes":{"ID":8936,"DIS_CODE":0,"TOWNNAME":"六甲區","LI":"龜港里","LIN":"13鄰","STREET":" ","SECT":" ","MAREA":"龜子港","LANE":" ","ALLEY":" ","HOUSE_NO":"９２號","E_COORD97":179717.60999999999,"N_COORD97":2572439.0099999998,"ADDRESS":"龜子港９２號","OBJECTID":8936},"geometry":{"x":179717.61000000034,"y":2572439.0100000016}},{"attributes":{"ID":8937,"DIS_CODE":0,"TOWNNAME":"六甲區","LI":"龜港里","LIN":"13鄰","STREET":" ","SECT":" ","MAREA":"龜子港","LANE":" ","ALLEY":" ","HOUSE_NO":"９８號","E_COORD97":179678.48000000001,"N_COORD97":2572447.3799999999,"ADDRESS":"龜子港９８號","OBJECTID":8937},"geometry":{"x":179678.48000000231,"y":2572447.379999999}},{"attributes":{"ID":8938,"DIS_CODE":0,"TOWNNAME":"東山區","LI":"東中里","LIN":"13鄰","STREET":" ","SECT":" ","MAREA":"北馬","LANE":" ","ALLEY":" ","HOUSE_NO":"１號","E_COORD97":188719.87,"N_COORD97":2578687.02,"ADDRESS":"北馬１號","OBJECTID":8938},"geometry":{"x":188719.87000000104,"y":2578687.0200000033}},{"attributes":{"ID":8939,"DIS_CODE":0,"TOWNNAME":"東山區","LI":"東中里","LIN":"13鄰","STREET":" ","SECT":" ","MAREA":"北馬","LANE":" ","ALLEY":" ","HOUSE_NO":"２號","E_COORD97":188739.26999999999,"N_COORD97":2578655.7000000002,"ADDRESS":"北馬２號","OBJECTID":8939},"geometry":{"x":188739.26999999955,"y":2578655.7000000011}},{"attributes":{"ID":8940,"DIS_CODE":0,"TOWNNAME":"東山區","LI":"東中里","LIN":"13鄰","STREET":" ","SECT":" ","MAREA":"北馬","LANE":" ","ALLEY":" ","HOUSE_NO":"３號","E_COORD97":188695.07000000001,"N_COORD97":2578659.5800000001,"ADDRESS":"北馬３號","OBJECTID":8940},"geometry":{"x":188695.07000000123,"y":2578659.5800000001}},{"attributes":{"ID":8941,"DIS_CODE":0,"TOWNNAME":"東山區","LI":"東中里","LIN":"13鄰","STREET":" ","SECT":" ","MAREA":"北馬","LANE":" ","ALLEY":" ","HOUSE_NO":"４號之１","E_COORD97":188727.69,"N_COORD97":2578653.3100000001,"ADDRESS":"北馬４號之１","OBJECTID":8941},"geometry":{"x":188727.69000000227,"y":2578653.3100000024}},{"attributes":{"ID":8942,"DIS_CODE":0,"TOWNNAME":"東山區","LI":"東中里","LIN":"13鄰","STREET":" ","SECT":" ","MAREA":"北馬","LANE":" ","ALLEY":" ","HOUSE_NO":"４號之２","E_COORD97":188732.98999999999,"N_COORD97":2578654.8599999999,"ADDRESS":"北馬４號之２","OBJECTID":8942},"geometry":{"x":188732.99000000115,"y":2578654.8600000013}},{"attributes":{"ID":8943,"DIS_CODE":0,"TOWNNAME":"東山區","LI":"東中里","LIN":"13鄰","STREET":" ","SECT":" ","MAREA":"北馬","LANE":" ","ALLEY":" ","HOUSE_NO":"４號","E_COORD97":188716.95999999999,"N_COORD97":2578645.48,"ADDRESS":"北馬４號","OBJECTID":8943},"geometry":{"x":188716.96000000183,"y":2578645.4800000023}},{"attributes":{"ID":8944,"DIS_CODE":0,"TOWNNAME":"東山區","LI":"東中里","LIN":"13鄰","STREET":" ","SECT":" ","MAREA":"北馬","LANE":" ","ALLEY":" ","HOUSE_NO":"５號之１","E_COORD97":188687.32999999999,"N_COORD97":2578598.2599999998,"ADDRESS":"北馬５號之１","OBJECTID":8944},"geometry":{"x":188687.33000000194,"y":2578598.2600000016}},{"attributes":{"ID":8945,"DIS_CODE":0,"TOWNNAME":"東山區","LI":"東中里","LIN":"13鄰","STREET":" ","SECT":" ","MAREA":"北馬","LANE":" ","ALLEY":" ","HOUSE_NO":"５號之２","E_COORD97":188707.44,"N_COORD97":2578600.9199999999,"ADDRESS":"北馬５號之２","OBJECTID":8945},"geometry":{"x":188707.44000000134,"y":2578600.9200000018}},{"attributes":{"ID":8946,"DIS_CODE":0,"TOWNNAME":"東山區","LI":"東中里","LIN":"13鄰","STREET":" ","SECT":" ","MAREA":"北馬","LANE":" ","ALLEY":" ","HOUSE_NO":"５號之３","E_COORD97":188672.82999999999,"N_COORD97":2578579.5099999998,"ADDRESS":"北馬５號之３","OBJECTID":8946},"geometry":{"x":188672.83000000101,"y":2578579.5100000016}},{"attributes":{"ID":8947,"DIS_CODE":0,"TOWNNAME":"東山區","LI":"東中里","LIN":"13鄰","STREET":" ","SECT":" ","MAREA":"北馬","LANE":" ","ALLEY":" ","HOUSE_NO":"５號之４","E_COORD97":188743.39000000001,"N_COORD97":2578605.3399999999,"ADDRESS":"北馬５號之４","OBJECTID":8947},"geometry":{"x":188743.38999999966,"y":2578605.3400000017}},{"attributes":{"ID":8948,"DIS_CODE":0,"TOWNNAME":"東山區","LI":"東中里","LIN":"13鄰","STREET":" ","SECT":" ","MAREA":"北馬","LANE":" ","ALLEY":" ","HOUSE_NO":"５號","E_COORD97":188734.70000000001,"N_COORD97":2578613.7599999998,"ADDRESS":"北馬５號","OBJECTID":8948},"geometry":{"x":188734.70000000112,"y":2578613.7599999998}},{"attributes":{"ID":8949,"DIS_CODE":0,"TOWNNAME":"東山區","LI":"東中里","LIN":"13鄰","STREET":" ","SECT":" ","MAREA":"北馬","LANE":" ","ALLEY":" ","HOUSE_NO":"６號之１１","E_COORD97":188626.62,"N_COORD97":2578622.2400000002,"ADDRESS":"北馬６號之１１","OBJECTID":8949},"geometry":{"x":188626.62000000104,"y":2578622.2400000021}},{"attributes":{"ID":8950,"DIS_CODE":0,"TOWNNAME":"東山區","LI":"東中里","LIN":"13鄰","STREET":" ","SECT":" ","MAREA":"北馬","LANE":" ","ALLEY":" ","HOUSE_NO":"６號之１２","E_COORD97":188627.73000000001,"N_COORD97":2578618.04,"ADDRESS":"北馬６號之１２","OBJECTID":8950},"geometry":{"x":188627.73000000138,"y":2578618.0399999991}},{"attributes":{"ID":8951,"DIS_CODE":0,"TOWNNAME":"東山區","LI":"東中里","LIN":"13鄰","STREET":" ","SECT":" ","MAREA":"北馬","LANE":" ","ALLEY":" ","HOUSE_NO":"６號之１３","E_COORD97":188628.91,"N_COORD97":2578614.29,"ADDRESS":"北馬６號之１３","OBJECTID":8951},"geometry":{"x":188628.91000000015,"y":2578614.290000001}},{"attributes":{"ID":8952,"DIS_CODE":0,"TOWNNAME":"東山區","LI":"東中里","LIN":"13鄰","STREET":" ","SECT":" ","MAREA":"北馬","LANE":" ","ALLEY":" ","HOUSE_NO":"６號之３","E_COORD97":188617.98999999999,"N_COORD97":2578663.3900000001,"ADDRESS":"北馬６號之３","OBJECTID":8952},"geometry":{"x":188617.99000000022,"y":2578663.3900000025}},{"attributes":{"ID":8953,"DIS_CODE":0,"TOWNNAME":"東山區","LI":"東中里","LIN":"13鄰","STREET":" ","SECT":" ","MAREA":"北馬","LANE":" ","ALLEY":" ","HOUSE_NO":"６號之４","E_COORD97":188617.14000000001,"N_COORD97":2578659.2200000002,"ADDRESS":"北馬６號之４","OBJECTID":8953},"geometry":{"x":188617.1400000006,"y":2578659.2200000007}},{"attributes":{"ID":8954,"DIS_CODE":0,"TOWNNAME":"東山區","LI":"東中里","LIN":"13鄰","STREET":" ","SECT":" ","MAREA":"北馬","LANE":" ","ALLEY":" ","HOUSE_NO":"６號之５","E_COORD97":188616.48000000001,"N_COORD97":2578654.7799999998,"ADDRESS":"北馬６號之５","OBJECTID":8954},"geometry":{"x":188616.48000000045,"y":2578654.7800000012}},{"attributes":{"ID":8955,"DIS_CODE":0,"TOWNNAME":"東山區","LI":"東中里","LIN":"13鄰","STREET":" ","SECT":" ","MAREA":"北馬","LANE":" ","ALLEY":" ","HOUSE_NO":"６號之８","E_COORD97":188615.92000000001,"N_COORD97":2578635.6200000001,"ADDRESS":"北馬６號之８","OBJECTID":8955},"geometry":{"x":188615.92000000086,"y":2578635.620000001}},{"attributes":{"ID":8956,"DIS_CODE":0,"TOWNNAME":"東山區","LI":"東中里","LIN":"13鄰","STREET":" ","SECT":" ","MAREA":"北馬","LANE":" ","ALLEY":" ","HOUSE_NO":"６號之９","E_COORD97":188617.82999999999,"N_COORD97":2578630.8599999999,"ADDRESS":"北馬６號之９","OBJECTID":8956},"geometry":{"x":188617.83000000194,"y":2578630.8600000013}},{"attributes":{"ID":8957,"DIS_CODE":0,"TOWNNAME":"東山區","LI":"東中里","LIN":"13鄰","STREET":" ","SECT":" ","MAREA":"北馬","LANE":" ","ALLEY":" ","HOUSE_NO":"６號","E_COORD97":188634.16,"N_COORD97":2578641.04,"ADDRESS":"北馬６號","OBJECTID":8957},"geometry":{"x":188634.16000000015,"y":2578641.0399999991}},{"attributes":{"ID":8958,"DIS_CODE":0,"TOWNNAME":"東山區","LI":"東河里","LIN":"13鄰","STREET":" ","SECT":" ","MAREA":"吉貝耍","LANE":" ","ALLEY":" ","HOUSE_NO":"１１８號","E_COORD97":186798.09,"N_COORD97":2577089.7400000002,"ADDRESS":"吉貝耍１１８號","OBJECTID":8958},"geometry":{"x":186798.08999999985,"y":2577089.7400000021}},{"attributes":{"ID":8959,"DIS_CODE":0,"TOWNNAME":"東山區","LI":"南勢里","LIN":"13鄰","STREET":" ","SECT":" ","MAREA":"南勢庄","LANE":" ","ALLEY":" ","HOUSE_NO":"４０號","E_COORD97":196394.88,"N_COORD97":2570783.1600000001,"ADDRESS":"南勢庄４０號","OBJECTID":8959},"geometry":{"x":196394.88000000175,"y":2570783.1600000001}},{"attributes":{"ID":8960,"DIS_CODE":0,"TOWNNAME":"東山區","LI":"東河里","LIN":"13鄰","STREET":" ","SECT":" ","MAREA":"吉貝耍","LANE":" ","ALLEY":" ","HOUSE_NO":"１１９號之１","E_COORD97":186773.10999999999,"N_COORD97":2577086.3399999999,"ADDRESS":"吉貝耍１１９號之１","OBJECTID":8960},"geometry":{"x":186773.11000000034,"y":2577086.3400000017}},{"attributes":{"ID":8961,"DIS_CODE":0,"TOWNNAME":"東山區","LI":"東河里","LIN":"13鄰","STREET":" ","SECT":" ","MAREA":"吉貝耍","LANE":" ","ALLEY":" ","HOUSE_NO":"１２０號之１","E_COORD97":186727.89999999999,"N_COORD97":2577056.5899999999,"ADDRESS":"吉貝耍１２０號之１","OBJECTID":8961},"geometry":{"x":186727.9000000013,"y":2577056.5900000017}},{"attributes":{"ID":8962,"DIS_CODE":0,"TOWNNAME":"東山區","LI":"聖賢里","LIN":"13鄰","STREET":" ","SECT":" ","MAREA":"田尾","LANE":" ","ALLEY":" ","HOUSE_NO":"３０號之１","E_COORD97":184691.69,"N_COORD97":2578288.1899999999,"ADDRESS":"田尾３０號之１","OBJECTID":8962},"geometry":{"x":184691.69000000134,"y":2578288.1899999995}},{"attributes":{"ID":8963,"DIS_CODE":0,"TOWNNAME":"東山區","LI":"聖賢里","LIN":"13鄰","STREET":" ","SECT":" ","MAREA":"田尾","LANE":" ","ALLEY":" ","HOUSE_NO":"３０號之２","E_COORD97":184691.45999999999,"N_COORD97":2578292.52,"ADDRESS":"田尾３０號之２","OBJECTID":8963},"geometry":{"x":184691.46000000089,"y":2578292.5199999996}},{"attributes":{"ID":8964,"DIS_CODE":0,"TOWNNAME":"東山區","LI":"聖賢里","LIN":"13鄰","STREET":" ","SECT":" ","MAREA":"田尾","LANE":" ","ALLEY":" ","HOUSE_NO":"３１號之２","E_COORD97":184678.34,"N_COORD97":2578282.9700000002,"ADDRESS":"田尾３１號之２","OBJECTID":8964},"geometry":{"x":184678.34000000078,"y":2578282.9700000025}},{"attributes":{"ID":8965,"DIS_CODE":0,"TOWNNAME":"東山區","LI":"聖賢里","LIN":"13鄰","STREET":" ","SECT":" ","MAREA":"田尾","LANE":" ","ALLEY":" ","HOUSE_NO":"３２號","E_COORD97":184699.34,"N_COORD97":2578309.1200000001,"ADDRESS":"田尾３２號","OBJECTID":8965},"geometry":{"x":184699.33999999985,"y":2578309.1200000029}},{"attributes":{"ID":8966,"DIS_CODE":0,"TOWNNAME":"東山區","LI":"聖賢里","LIN":"13鄰","STREET":" ","SECT":" ","MAREA":"田尾","LANE":" ","ALLEY":" ","HOUSE_NO":"３３號之１","E_COORD97":184700.13,"N_COORD97":2578337.3300000001,"ADDRESS":"田尾３３號之１","OBJECTID":8966},"geometry":{"x":184700.13000000082,"y":2578337.3300000019}},{"attributes":{"ID":8967,"DIS_CODE":0,"TOWNNAME":"東山區","LI":"聖賢里","LIN":"13鄰","STREET":" ","SECT":" ","MAREA":"田尾","LANE":" ","ALLEY":" ","HOUSE_NO":"３３號之２","E_COORD97":184688.97,"N_COORD97":2578326.6200000001,"ADDRESS":"田尾３３號之２","OBJECTID":8967},"geometry":{"x":184688.97000000067,"y":2578326.6200000029}},{"attributes":{"ID":8968,"DIS_CODE":0,"TOWNNAME":"東山區","LI":"聖賢里","LIN":"13鄰","STREET":" ","SECT":" ","MAREA":"田尾","LANE":" ","ALLEY":" ","HOUSE_NO":"３３號","E_COORD97":184667.14999999999,"N_COORD97":2578317.27,"ADDRESS":"田尾３３號","OBJECTID":8968},"geometry":{"x":184667.15000000037,"y":2578317.2700000014}},{"attributes":{"ID":8969,"DIS_CODE":0,"TOWNNAME":"東山區","LI":"聖賢里","LIN":"13鄰","STREET":" ","SECT":" ","MAREA":"田尾","LANE":" ","ALLEY":" ","HOUSE_NO":"３５號","E_COORD97":184642.45000000001,"N_COORD97":2578314.4700000002,"ADDRESS":"田尾３５號","OBJECTID":8969},"geometry":{"x":184642.45000000112,"y":2578314.4700000007}},{"attributes":{"ID":8970,"DIS_CODE":0,"TOWNNAME":"東山區","LI":"聖賢里","LIN":"13鄰","STREET":" ","SECT":" ","MAREA":"田尾","LANE":" ","ALLEY":" ","HOUSE_NO":"３６號之１","E_COORD97":184645.51999999999,"N_COORD97":2578345.5299999998,"ADDRESS":"田尾３６號之１","OBJECTID":8970},"geometry":{"x":184645.51999999955,"y":2578345.5300000012}},{"attributes":{"ID":8971,"DIS_CODE":0,"TOWNNAME":"東山區","LI":"聖賢里","LIN":"13鄰","STREET":" ","SECT":" ","MAREA":"田尾","LANE":" ","ALLEY":" ","HOUSE_NO":"３６號之３","E_COORD97":184654.60000000001,"N_COORD97":2578331.1299999999,"ADDRESS":"田尾３６號之３","OBJECTID":8971},"geometry":{"x":184654.60000000056,"y":2578331.1300000008}},{"attributes":{"ID":8972,"DIS_CODE":0,"TOWNNAME":"東山區","LI":"聖賢里","LIN":"13鄰","STREET":" ","SECT":" ","MAREA":"田尾","LANE":" ","ALLEY":" ","HOUSE_NO":"３６號","E_COORD97":184632.64999999999,"N_COORD97":2578313.2200000002,"ADDRESS":"田尾３６號","OBJECTID":8972},"geometry":{"x":184632.6500000013,"y":2578313.2200000007}},{"attributes":{"ID":8973,"DIS_CODE":0,"TOWNNAME":"東山區","LI":"聖賢里","LIN":"13鄰","STREET":" ","SECT":" ","MAREA":"田尾","LANE":" ","ALLEY":" ","HOUSE_NO":"３７號之４","E_COORD97":184590.82000000001,"N_COORD97":2578299.1600000001,"ADDRESS":"田尾３７號之４","OBJECTID":8973},"geometry":{"x":184590.82000000123,"y":2578299.1600000001}},{"attributes":{"ID":8974,"DIS_CODE":0,"TOWNNAME":"東山區","LI":"聖賢里","LIN":"13鄰","STREET":" ","SECT":" ","MAREA":"田尾","LANE":" ","ALLEY":" ","HOUSE_NO":"３７號之５","E_COORD97":184585.09,"N_COORD97":2578280.2000000002,"ADDRESS":"田尾３７號之５","OBJECTID":8974},"geometry":{"x":184585.09000000078,"y":2578280.1999999993}},{"attributes":{"ID":8975,"DIS_CODE":0,"TOWNNAME":"東山區","LI":"聖賢里","LIN":"13鄰","STREET":" ","SECT":" ","MAREA":"田尾","LANE":" ","ALLEY":" ","HOUSE_NO":"３７號之６","E_COORD97":184586.31,"N_COORD97":2578275.2400000002,"ADDRESS":"田尾３７號之６","OBJECTID":8975},"geometry":{"x":184586.31000000145,"y":2578275.2400000002}},{"attributes":{"ID":8976,"DIS_CODE":0,"TOWNNAME":"東山區","LI":"聖賢里","LIN":"13鄰","STREET":" ","SECT":" ","MAREA":"田尾","LANE":" ","ALLEY":" ","HOUSE_NO":"３７號","E_COORD97":184638.5,"N_COORD97":2578279.6600000001,"ADDRESS":"田尾３７號","OBJECTID":8976},"geometry":{"x":184638.50000000093,"y":2578279.6600000039}},{"attributes":{"ID":8977,"DIS_CODE":0,"TOWNNAME":"東山區","LI":"聖賢里","LIN":"13鄰","STREET":" ","SECT":" ","MAREA":"田尾","LANE":" ","ALLEY":" ","HOUSE_NO":"３８號","E_COORD97":184634.45000000001,"N_COORD97":2578332.1600000001,"ADDRESS":"田尾３８號","OBJECTID":8977},"geometry":{"x":184634.45000000019,"y":2578332.160000002}},{"attributes":{"ID":8978,"DIS_CODE":0,"TOWNNAME":"東山區","LI":"聖賢里","LIN":"13鄰","STREET":" ","SECT":" ","MAREA":"田尾","LANE":" ","ALLEY":" ","HOUSE_NO":"３９號","E_COORD97":184613.94,"N_COORD97":2578337.8300000001,"ADDRESS":"田尾３９號","OBJECTID":8978},"geometry":{"x":184613.94000000134,"y":2578337.8300000001}},{"attributes":{"ID":8979,"DIS_CODE":0,"TOWNNAME":"東山區","LI":"聖賢里","LIN":"13鄰","STREET":" ","SECT":" ","MAREA":"田尾","LANE":" ","ALLEY":" ","HOUSE_NO":"４０之１１號","E_COORD97":184182.92000000001,"N_COORD97":2578549.5,"ADDRESS":"田尾４０之１１號","OBJECTID":8979},"geometry":{"x":184182.92000000086,"y":2578549.5000000019}},{"attributes":{"ID":8980,"DIS_CODE":0,"TOWNNAME":"東山區","LI":"聖賢里","LIN":"13鄰","STREET":" ","SECT":" ","MAREA":"田尾","LANE":" ","ALLEY":" ","HOUSE_NO":"４０號之１","E_COORD97":184241.69,"N_COORD97":2578697.02,"ADDRESS":"田尾４０號之１","OBJECTID":8980},"geometry":{"x":184241.69000000041,"y":2578697.0200000033}},{"attributes":{"ID":8981,"DIS_CODE":0,"TOWNNAME":"東山區","LI":"聖賢里","LIN":"13鄰","STREET":" ","SECT":" ","MAREA":"田尾","LANE":" ","ALLEY":" ","HOUSE_NO":"４０號之２","E_COORD97":184044.97,"N_COORD97":2578680.8100000001,"ADDRESS":"田尾４０號之２","OBJECTID":8981},"geometry":{"x":184044.97000000067,"y":2578680.8100000024}},{"attributes":{"ID":8982,"DIS_CODE":0,"TOWNNAME":"東山區","LI":"聖賢里","LIN":"13鄰","STREET":" ","SECT":" ","MAREA":"田尾","LANE":" ","ALLEY":" ","HOUSE_NO":"４０號之６","E_COORD97":184060.41,"N_COORD97":2578393.8700000001,"ADDRESS":"田尾４０號之６","OBJECTID":8982},"geometry":{"x":184060.41000000015,"y":2578393.870000001}},{"attributes":{"ID":8983,"DIS_CODE":0,"TOWNNAME":"東山區","LI":"聖賢里","LIN":"13鄰","STREET":" ","SECT":" ","MAREA":"田尾","LANE":" ","ALLEY":" ","HOUSE_NO":"４０號","E_COORD97":184594.59,"N_COORD97":2578347.7799999998,"ADDRESS":"田尾４０號","OBJECTID":8983},"geometry":{"x":184594.58999999985,"y":2578347.7799999993}},{"attributes":{"ID":8984,"DIS_CODE":0,"TOWNNAME":"東山區","LI":"聖賢里","LIN":"13鄰","STREET":" ","SECT":" ","MAREA":"田尾","LANE":" ","ALLEY":" ","HOUSE_NO":"４１號之１","E_COORD97":184554.63,"N_COORD97":2578310.3799999999,"ADDRESS":"田尾４１號之１","OBJECTID":8984},"geometry":{"x":184554.63000000082,"y":2578310.379999999}},{"attributes":{"ID":8985,"DIS_CODE":0,"TOWNNAME":"東山區","LI":"聖賢里","LIN":"13鄰","STREET":" ","SECT":" ","MAREA":"田尾","LANE":" ","ALLEY":" ","HOUSE_NO":"４１號之２","E_COORD97":184500.75,"N_COORD97":2578360.4199999999,"ADDRESS":"田尾４１號之２","OBJECTID":8985},"geometry":{"x":184500.75000000186,"y":2578360.4200000018}},{"attributes":{"ID":8986,"DIS_CODE":0,"TOWNNAME":"東山區","LI":"聖賢里","LIN":"13鄰","STREET":" ","SECT":" ","MAREA":"田尾","LANE":" ","ALLEY":" ","HOUSE_NO":"４１號","E_COORD97":184558.01999999999,"N_COORD97":2578347.7599999998,"ADDRESS":"田尾４１號","OBJECTID":8986},"geometry":{"x":184558.02000000048,"y":2578347.7600000016}},{"attributes":{"ID":8987,"DIS_CODE":0,"TOWNNAME":"東山區","LI":"東河里","LIN":"13鄰","STREET":" ","SECT":" ","MAREA":"吉貝耍","LANE":" ","ALLEY":" ","HOUSE_NO":"１２０號","E_COORD97":186748.12,"N_COORD97":2577065.7799999998,"ADDRESS":"吉貝耍１２０號","OBJECTID":8987},"geometry":{"x":186748.12000000104,"y":2577065.7800000012}},{"attributes":{"ID":8988,"DIS_CODE":0,"TOWNNAME":"東山區","LI":"東河里","LIN":"13鄰","STREET":" ","SECT":" ","MAREA":"吉貝耍","LANE":" ","ALLEY":" ","HOUSE_NO":"１２１號","E_COORD97":186766.85000000001,"N_COORD97":2577049.3399999999,"ADDRESS":"吉貝耍１２１號","OBJECTID":8988},"geometry":{"x":186766.85000000056,"y":2577049.3399999999}},{"attributes":{"ID":8989,"DIS_CODE":0,"TOWNNAME":"東山區","LI":"東河里","LIN":"13鄰","STREET":" ","SECT":" ","MAREA":"吉貝耍","LANE":" ","ALLEY":" ","HOUSE_NO":"１２２號","E_COORD97":186780.12,"N_COORD97":2577049.0600000001,"ADDRESS":"吉貝耍１２２號","OBJECTID":8989},"geometry":{"x":186780.12000000197,"y":2577049.0600000005}},{"attributes":{"ID":8990,"DIS_CODE":0,"TOWNNAME":"東山區","LI":"東河里","LIN":"13鄰","STREET":" ","SECT":" ","MAREA":"吉貝耍","LANE":" ","ALLEY":" ","HOUSE_NO":"１４８號","E_COORD97":186814.23999999999,"N_COORD97":2577160.96,"ADDRESS":"吉貝耍１４８號","OBJECTID":8990},"geometry":{"x":186814.24000000022,"y":2577160.9600000028}},{"attributes":{"ID":8991,"DIS_CODE":0,"TOWNNAME":"東山區","LI":"東河里","LIN":"13鄰","STREET":" ","SECT":" ","MAREA":"吉貝耍","LANE":" ","ALLEY":" ","HOUSE_NO":"１４９號之１","E_COORD97":186785.14999999999,"N_COORD97":2577134.1699999999,"ADDRESS":"吉貝耍１４９號之１","OBJECTID":8991},"geometry":{"x":186785.15000000224,"y":2577134.1700000018}},{"attributes":{"ID":8992,"DIS_CODE":0,"TOWNNAME":"東山區","LI":"東河里","LIN":"13鄰","STREET":" ","SECT":" ","MAREA":"吉貝耍","LANE":" ","ALLEY":" ","HOUSE_NO":"１４９號之２","E_COORD97":186814.79999999999,"N_COORD97":2577127.4100000001,"ADDRESS":"吉貝耍１４９號之２","OBJECTID":8992},"geometry":{"x":186814.80000000075,"y":2577127.4100000001}},{"attributes":{"ID":8993,"DIS_CODE":0,"TOWNNAME":"東山區","LI":"東河里","LIN":"13鄰","STREET":" ","SECT":" ","MAREA":"吉貝耍","LANE":" ","ALLEY":" ","HOUSE_NO":"１４９號","E_COORD97":186814.25,"N_COORD97":2577135.3700000001,"ADDRESS":"吉貝耍１４９號","OBJECTID":8993},"geometry":{"x":186814.25,"y":2577135.370000001}},{"attributes":{"ID":8994,"DIS_CODE":0,"TOWNNAME":"東山區","LI":"東河里","LIN":"13鄰","STREET":" ","SECT":" ","MAREA":"吉貝耍","LANE":" ","ALLEY":" ","HOUSE_NO":"１５０號之３","E_COORD97":186786.29999999999,"N_COORD97":2577122.1099999999,"ADDRESS":"吉貝耍１５０號之３","OBJECTID":8994},"geometry":{"x":186786.29999999981,"y":2577122.1099999994}},{"attributes":{"ID":8995,"DIS_CODE":0,"TOWNNAME":"東山區","LI":"東河里","LIN":"13鄰","STREET":" ","SECT":" ","MAREA":"吉貝耍","LANE":" ","ALLEY":" ","HOUSE_NO":"１５０號","E_COORD97":186805.20000000001,"N_COORD97":2577120.8599999999,"ADDRESS":"吉貝耍１５０號","OBJECTID":8995},"geometry":{"x":186805.20000000112,"y":2577120.8599999994}},{"attributes":{"ID":8996,"DIS_CODE":0,"TOWNNAME":"東山區","LI":"東河里","LIN":"13鄰","STREET":" ","SECT":" ","MAREA":"吉貝耍","LANE":" ","ALLEY":" ","HOUSE_NO":"１５１號","E_COORD97":186810.66,"N_COORD97":2577115.48,"ADDRESS":"吉貝耍１５１號","OBJECTID":8996},"geometry":{"x":186810.66000000108,"y":2577115.4800000023}},{"attributes":{"ID":8997,"DIS_CODE":0,"TOWNNAME":"東山區","LI":"南勢里","LIN":"13鄰","STREET":" ","SECT":" ","MAREA":"南勢庄","LANE":" ","ALLEY":" ","HOUSE_NO":"３８號","E_COORD97":196414.13,"N_COORD97":2570665.9100000001,"ADDRESS":"南勢庄３８號","OBJECTID":8997},"geometry":{"x":196414.13000000082,"y":2570665.9100000001}},{"attributes":{"ID":8998,"DIS_CODE":0,"TOWNNAME":"東山區","LI":"南勢里","LIN":"13鄰","STREET":" ","SECT":" ","MAREA":"南勢庄","LANE":" ","ALLEY":" ","HOUSE_NO":"４１號","E_COORD97":196402.79000000001,"N_COORD97":2570727.8300000001,"ADDRESS":"南勢庄４１號","OBJECTID":8998},"geometry":{"x":196402.79000000097,"y":2570727.8299999982}},{"attributes":{"ID":8999,"DIS_CODE":0,"TOWNNAME":"東山區","LI":"南勢里","LIN":"13鄰","STREET":" ","SECT":" ","MAREA":"南勢庄","LANE":" ","ALLEY":" ","HOUSE_NO":"４２號之１","E_COORD97":195799.97,"N_COORD97":2570813.4700000002,"ADDRESS":"南勢庄４２號之１","OBJECTID":8999},"geometry":{"x":195799.96999999974,"y":2570813.4700000025}},{"attributes":{"ID":9000,"DIS_CODE":0,"TOWNNAME":"東山區","LI":"南勢里","LIN":"13鄰","STREET":" ","SECT":" ","MAREA":"南勢庄","LANE":" ","ALLEY":" ","HOUSE_NO":"４６號","E_COORD97":195808.98999999999,"N_COORD97":2570828.3599999999,"ADDRESS":"南勢庄４６號","OBJECTID":9000},"geometry":{"x":195808.99000000022,"y":2570828.3599999994}}]}