{"displayFieldName":"TOWNNAME","fieldAliases":{"ID":"ID","DIS_CODE":"DIS_CODE","TOWNNAME":"TOWNNAME","LI":"LI","LIN":"LIN","STREET":"STREET","SECT":"SECT","MAREA":"MAREA","LANE":"LANE","ALLEY":"ALLEY","HOUSE_NO":"HOUSE_NO","E_COORD97":"E_COORD97","N_COORD97":"N_COORD97","ADDRESS":"ADDRESS","OBJECTID":"OBJECTID"},"geometryType":"esriGeometryPoint","spatialReference":{"wkid":102443,"latestWkid":3826},"fields":[{"name":"ID","type":"esriFieldTypeDouble","alias":"ID"},{"name":"DIS_CODE","type":"esriFieldTypeInteger","alias":"DIS_CODE"},{"name":"TOWNNAME","type":"esriFieldTypeString","alias":"TOWNNAME","length":8},{"name":"LI","type":"esriFieldTypeString","alias":"LI","length":8},{"name":"LIN","type":"esriFieldTypeString","alias":"LIN","length":12},{"name":"STREET","type":"esriFieldTypeString","alias":"STREET","length":20},{"name":"SECT","type":"esriFieldTypeString","alias":"SECT","length":8},{"name":"MAREA","type":"esriFieldTypeString","alias":"MAREA","length":12},{"name":"LANE","type":"esriFieldTypeString","alias":"LANE","length":10},{"name":"ALLEY","type":"esriFieldTypeString","alias":"ALLEY","length":10},{"name":"HOUSE_NO","type":"esriFieldTypeString","alias":"HOUSE_NO","length":20},{"name":"E_COORD97","type":"esriFieldTypeDouble","alias":"E_COORD97"},{"name":"N_COORD97","type":"esriFieldTypeDouble","alias":"N_COORD97"},{"name":"ADDRESS","type":"esriFieldTypeString","alias":"ADDRESS","length":50},{"name":"OBJECTID","type":"esriFieldTypeOID","alias":"OBJECTID"}],"features":[{"attributes":{"ID":261405,"DIS_CODE":0,"TOWNNAME":"安定區","LI":"海寮里","LIN":"18鄰","STREET":" ","SECT":" ","MAREA":"海寮","LANE":" ","ALLEY":" ","HOUSE_NO":"１７１之３號","E_COORD97":169310.34,"N_COORD97":2555507.2999999998,"ADDRESS":"海寮１７１之３號","OBJECTID":261401},"geometry":{"x":169310.33999999985,"y":2555507.3000000026}},{"attributes":{"ID":261406,"DIS_CODE":0,"TOWNNAME":"安定區","LI":"蘇林里","LIN":"14鄰","STREET":" ","SECT":" ","MAREA":"蘇厝","LANE":" ","ALLEY":" ","HOUSE_NO":"１５８之１號","E_COORD97":173449.51999999999,"N_COORD97":2558816.2999999998,"ADDRESS":"蘇厝１５８之１號","OBJECTID":261402},"geometry":{"x":173449.52000000048,"y":2558816.3000000026}},{"attributes":{"ID":261407,"DIS_CODE":0,"TOWNNAME":"安定區","LI":"安加里","LIN":"14鄰","STREET":" ","SECT":" ","MAREA":"安定","LANE":" ","ALLEY":" ","HOUSE_NO":"３０６號","E_COORD97":171672.12,"N_COORD97":2557520.3199999998,"ADDRESS":"安定３０６號","OBJECTID":261403},"geometry":{"x":171672.12000000011,"y":2557520.3200000022}},{"attributes":{"ID":261408,"DIS_CODE":0,"TOWNNAME":"新營區","LI":"大宏里","LIN":"3鄰","STREET":"民族路","SECT":" ","MAREA":" ","LANE":" ","ALLEY":" ","HOUSE_NO":"３６號之１","E_COORD97":180294.70613000001,"N_COORD97":2578698.4888399998,"ADDRESS":"民族路３６號之１","OBJECTID":261404},"geometry":{"x":180294.70613000076,"y":2578698.4888399988}},{"attributes":{"ID":261409,"DIS_CODE":0,"TOWNNAME":"新營區","LI":"大宏里","LIN":"3鄰","STREET":"綠川北街","SECT":" ","MAREA":" ","LANE":" ","ALLEY":" ","HOUSE_NO":"１０５號","E_COORD97":180342.941139,"N_COORD97":2578716.5863399999,"ADDRESS":"綠川北街１０５號","OBJECTID":261405},"geometry":{"x":180342.9411390014,"y":2578716.5863390006}},{"attributes":{"ID":261410,"DIS_CODE":0,"TOWNNAME":"新營區","LI":"大宏里","LIN":"3鄰","STREET":"綠川北街","SECT":" ","MAREA":" ","LANE":" ","ALLEY":" ","HOUSE_NO":"１０２號","E_COORD97":180344.42529300001,"N_COORD97":2578708.4371799999,"ADDRESS":"綠川北街１０２號","OBJECTID":261406},"geometry":{"x":180344.42529300135,"y":2578708.4371760022}},{"attributes":{"ID":261411,"DIS_CODE":0,"TOWNNAME":"中西區","LI":"銀同里","LIN":"1鄰","STREET":"城隍街","SECT":" ","MAREA":" ","LANE":" ","ALLEY":" ","HOUSE_NO":"９號","E_COORD97":168802.26999999999,"N_COORD97":2543337.46,"ADDRESS":"城隍街９號","OBJECTID":261407},"geometry":{"x":168802.26999999955,"y":2543337.4600000046}},{"attributes":{"ID":261412,"DIS_CODE":0,"TOWNNAME":"新化區","LI":"護國里","LIN":"10鄰","STREET":"中山路","SECT":" ","MAREA":" ","LANE":" ","ALLEY":" ","HOUSE_NO":"１００號之１５","E_COORD97":179496.22,"N_COORD97":2549126.2599999998,"ADDRESS":"中山路１００號之１５","OBJECTID":261408},"geometry":{"x":179496.21999999974,"y":2549126.2600000016}},{"attributes":{"ID":261413,"DIS_CODE":0,"TOWNNAME":"新化區","LI":"崙頂里","LIN":"10鄰","STREET":" ","SECT":" ","MAREA":"崙子頂","LANE":" ","ALLEY":" ","HOUSE_NO":"３７０號之１","E_COORD97":176827.85999999999,"N_COORD97":2546880.2599999998,"ADDRESS":"崙子頂３７０號之１","OBJECTID":261409},"geometry":{"x":176827.8600000022,"y":2546880.2600000035}},{"attributes":{"ID":261414,"DIS_CODE":0,"TOWNNAME":"新化區","LI":"武安里","LIN":"10鄰","STREET":"和平街","SECT":" ","MAREA":" ","LANE":" ","ALLEY":" ","HOUSE_NO":"１３７號","E_COORD97":178904.32000000001,"N_COORD97":2548166.25,"ADDRESS":"和平街１３７號","OBJECTID":261410},"geometry":{"x":178904.3200000003,"y":2548166.2500000019}},{"attributes":{"ID":261415,"DIS_CODE":0,"TOWNNAME":"新營區","LI":"大宏里","LIN":"3鄰","STREET":"綠川北街","SECT":" ","MAREA":" ","LANE":" ","ALLEY":" ","HOUSE_NO":"１０１號","E_COORD97":180345.59141399999,"N_COORD97":2578704.8388499999,"ADDRESS":"綠川北街１０１號","OBJECTID":261411},"geometry":{"x":180345.59141400084,"y":2578704.8388449997}},{"attributes":{"ID":261416,"DIS_CODE":0,"TOWNNAME":"新化區","LI":"護國里","LIN":"10鄰","STREET":"中山路","SECT":" ","MAREA":" ","LANE":" ","ALLEY":" ","HOUSE_NO":"１００號之２８","E_COORD97":179486.22,"N_COORD97":2549187.2599999998,"ADDRESS":"中山路１００號之２８","OBJECTID":261412},"geometry":{"x":179486.2200000016,"y":2549187.2600000016}},{"attributes":{"ID":261417,"DIS_CODE":0,"TOWNNAME":"新化區","LI":"護國里","LIN":"10鄰","STREET":"中山路","SECT":" ","MAREA":" ","LANE":" ","ALLEY":" ","HOUSE_NO":"９８號之３４","E_COORD97":179476.04000000001,"N_COORD97":2549066.2599999998,"ADDRESS":"中山路９８號之３４","OBJECTID":261413},"geometry":{"x":179476.0400000019,"y":2549066.2599999998}},{"attributes":{"ID":261418,"DIS_CODE":0,"TOWNNAME":"新營區","LI":"大宏里","LIN":"4鄰","STREET":"民族路","SECT":" ","MAREA":" ","LANE":" ","ALLEY":" ","HOUSE_NO":"１３號之４","E_COORD97":180285.58918000001,"N_COORD97":2578552.38601,"ADDRESS":"民族路１３號之４","OBJECTID":261414},"geometry":{"x":180285.58918000013,"y":2578552.3860100023}},{"attributes":{"ID":261419,"DIS_CODE":0,"TOWNNAME":"新營區","LI":"大宏里","LIN":"4鄰","STREET":"民族路","SECT":" ","MAREA":" ","LANE":" ","ALLEY":" ","HOUSE_NO":"１３號之５","E_COORD97":180285.48316999999,"N_COORD97":2578557.4000400002,"ADDRESS":"民族路１３號之５","OBJECTID":261415},"geometry":{"x":180285.4831699999,"y":2578557.4000400007}},{"attributes":{"ID":261420,"DIS_CODE":0,"TOWNNAME":"新營區","LI":"大宏里","LIN":"4鄰","STREET":"民族路","SECT":" ","MAREA":" ","LANE":" ","ALLEY":" ","HOUSE_NO":"１３號之７","E_COORD97":180285.48316999999,"N_COORD97":2578565.28462,"ADDRESS":"民族路１３號之７","OBJECTID":261416},"geometry":{"x":180285.4831699999,"y":2578565.2846200038}},{"attributes":{"ID":261421,"DIS_CODE":0,"TOWNNAME":"新營區","LI":"大宏里","LIN":"4鄰","STREET":"民族路","SECT":" ","MAREA":" ","LANE":" ","ALLEY":" ","HOUSE_NO":"１３號之８","E_COORD97":180285.37716,"N_COORD97":2578569.09461,"ADDRESS":"民族路１３號之８","OBJECTID":261417},"geometry":{"x":180285.37716000061,"y":2578569.09461}},{"attributes":{"ID":261422,"DIS_CODE":0,"TOWNNAME":"中西區","LI":"進學里","LIN":"8鄰","STREET":"忠義路","SECT":"一段","MAREA":" ","LANE":" ","ALLEY":" ","HOUSE_NO":"６７號","E_COORD97":168159.55409799999,"N_COORD97":2543036.8148699999,"ADDRESS":"忠義路一段６７號","OBJECTID":261418},"geometry":{"x":168159.55409799982,"y":2543036.814867001}},{"attributes":{"ID":261423,"DIS_CODE":0,"TOWNNAME":"中西區","LI":"進學里","LIN":"8鄰","STREET":"忠義路","SECT":"一段","MAREA":" ","LANE":" ","ALLEY":" ","HOUSE_NO":"７１號","E_COORD97":168127.352411,"N_COORD97":2543024.1148700002,"ADDRESS":"忠義路一段７１號","OBJECTID":261419},"geometry":{"x":168127.35241100006,"y":2543024.1148729995}},{"attributes":{"ID":261424,"DIS_CODE":0,"TOWNNAME":"新化區","LI":"太平里","LIN":"10鄰","STREET":"中正路","SECT":" ","MAREA":" ","LANE":" ","ALLEY":" ","HOUSE_NO":"８５９號","E_COORD97":178600.41,"N_COORD97":2549529.25,"ADDRESS":"中正路８５９號","OBJECTID":261420},"geometry":{"x":178600.40999999922,"y":2549529.2500000019}},{"attributes":{"ID":261425,"DIS_CODE":0,"TOWNNAME":"中西區","LI":"進學里","LIN":"8鄰","STREET":"忠義路","SECT":"一段","MAREA":" ","LANE":" ","ALLEY":" ","HOUSE_NO":"６９號","E_COORD97":168135.19097900001,"N_COORD97":2543023.2682099999,"ADDRESS":"忠義路一段６９號","OBJECTID":261421},"geometry":{"x":168135.19097900111,"y":2543023.2682070024}},{"attributes":{"ID":261426,"DIS_CODE":0,"TOWNNAME":"仁德區","LI":"太子里","LIN":"27鄰","STREET":"大吉路","SECT":" ","MAREA":" ","LANE":" ","ALLEY":" ","HOUSE_NO":"３號","E_COORD97":173740.01704999999,"N_COORD97":2543332.6321899998,"ADDRESS":"大吉路３號","OBJECTID":261422},"geometry":{"x":173740.01705000177,"y":2543332.6321930028}},{"attributes":{"ID":261427,"DIS_CODE":0,"TOWNNAME":"歸仁區","LI":"西埔里","LIN":"15鄰","STREET":"保吉路","SECT":" ","MAREA":" ","LANE":" ","ALLEY":" ","HOUSE_NO":"３４５號","E_COORD97":176427.65405799999,"N_COORD97":2545178.9659099998,"ADDRESS":"保吉路３４５號","OBJECTID":261423},"geometry":{"x":176427.65405800007,"y":2545178.965911001}},{"attributes":{"ID":261428,"DIS_CODE":0,"TOWNNAME":"仁德區","LI":"仁和里","LIN":"2鄰","STREET":"和愛街","SECT":" ","MAREA":" ","LANE":" ","ALLEY":" ","HOUSE_NO":"３號二樓之５","E_COORD97":170387.54999999999,"N_COORD97":2540119.5299999998,"ADDRESS":"和愛街３號二樓之５","OBJECTID":261424},"geometry":{"x":170387.54999999981,"y":2540119.5299999993}},{"attributes":{"ID":261429,"DIS_CODE":0,"TOWNNAME":"永康區","LI":"安康里","LIN":"22鄰","STREET":"中華西街","SECT":" ","MAREA":" ","LANE":" ","ALLEY":" ","HOUSE_NO":"１３８號之２","E_COORD97":170696.01999999999,"N_COORD97":2546179.1200000001,"ADDRESS":"中華西街１３８號之２","OBJECTID":261425},"geometry":{"x":170696.01999999862,"y":2546179.1200000029}},{"attributes":{"ID":261430,"DIS_CODE":0,"TOWNNAME":"仁德區","LI":"太子里","LIN":"27鄰","STREET":"大利路","SECT":" ","MAREA":" ","LANE":" ","ALLEY":" ","HOUSE_NO":"５３號","E_COORD97":173543.492638,"N_COORD97":2543152.0806200001,"ADDRESS":"大利路５３號","OBJECTID":261426},"geometry":{"x":173543.49263800215,"y":2543152.0806239992}},{"attributes":{"ID":261431,"DIS_CODE":0,"TOWNNAME":"中西區","LI":"銀同里","LIN":"5鄰","STREET":"開山路","SECT":" ","MAREA":" ","LANE":" ","ALLEY":" ","HOUSE_NO":"７７號","E_COORD97":168687.84,"N_COORD97":2543413.2200000002,"ADDRESS":"開山路７７號","OBJECTID":261427},"geometry":{"x":168687.84000000078,"y":2543413.2200000044}},{"attributes":{"ID":261432,"DIS_CODE":0,"TOWNNAME":"中西區","LI":"銀同里","LIN":"5鄰","STREET":"開山路","SECT":" ","MAREA":" ","LANE":" ","ALLEY":" ","HOUSE_NO":"７９號","E_COORD97":168692.48999999999,"N_COORD97":2543409.5699999998,"ADDRESS":"開山路７９號","OBJECTID":261428},"geometry":{"x":168692.49000000115,"y":2543409.5700000003}},{"attributes":{"ID":261433,"DIS_CODE":0,"TOWNNAME":"仁德區","LI":"仁和里","LIN":"2鄰","STREET":"和愛街","SECT":" ","MAREA":" ","LANE":" ","ALLEY":" ","HOUSE_NO":"３號七樓之５","E_COORD97":170387.54999999999,"N_COORD97":2540119.5299999998,"ADDRESS":"和愛街３號七樓之５","OBJECTID":261429},"geometry":{"x":170387.54999999981,"y":2540119.5299999993}},{"attributes":{"ID":261434,"DIS_CODE":0,"TOWNNAME":"中西區","LI":"銀同里","LIN":"5鄰","STREET":"開山路","SECT":" ","MAREA":" ","LANE":" ","ALLEY":" ","HOUSE_NO":"８１號","E_COORD97":168694.82000000001,"N_COORD97":2543405.2599999998,"ADDRESS":"開山路８１號","OBJECTID":261430},"geometry":{"x":168694.82000000123,"y":2543405.2600000035}},{"attributes":{"ID":261435,"DIS_CODE":0,"TOWNNAME":"仁德區","LI":"仁和里","LIN":"2鄰","STREET":"和愛街","SECT":" ","MAREA":" ","LANE":" ","ALLEY":" ","HOUSE_NO":"３號八樓之１","E_COORD97":170387.54999999999,"N_COORD97":2540119.5299999998,"ADDRESS":"和愛街３號八樓之１","OBJECTID":261431},"geometry":{"x":170387.54999999981,"y":2540119.5299999993}},{"attributes":{"ID":261436,"DIS_CODE":0,"TOWNNAME":"中西區","LI":"銀同里","LIN":"5鄰","STREET":"開山路","SECT":" ","MAREA":" ","LANE":" ","ALLEY":" ","HOUSE_NO":"８１號之１","E_COORD97":168697.64000000001,"N_COORD97":2543402.4399999999,"ADDRESS":"開山路８１號之１","OBJECTID":261432},"geometry":{"x":168697.6400000006,"y":2543402.4399999995}},{"attributes":{"ID":261437,"DIS_CODE":0,"TOWNNAME":"中西區","LI":"銀同里","LIN":"5鄰","STREET":"開山路","SECT":" ","MAREA":" ","LANE":" ","ALLEY":" ","HOUSE_NO":"８１號之２","E_COORD97":168700.84,"N_COORD97":2543398.7000000002,"ADDRESS":"開山路８１號之２","OBJECTID":261433},"geometry":{"x":168700.84000000171,"y":2543398.7000000011}},{"attributes":{"ID":261438,"DIS_CODE":0,"TOWNNAME":"永康區","LI":"安康里","LIN":"22鄰","STREET":"中華西街","SECT":" ","MAREA":" ","LANE":" ","ALLEY":" ","HOUSE_NO":"１３８號之１","E_COORD97":170697.48999999999,"N_COORD97":2546175.8799999999,"ADDRESS":"中華西街１３８號之１","OBJECTID":261434},"geometry":{"x":170697.49000000115,"y":2546175.879999999}},{"attributes":{"ID":261439,"DIS_CODE":0,"TOWNNAME":"新營區","LI":"新北里","LIN":"1鄰","STREET":"周武街","SECT":" ","MAREA":" ","LANE":" ","ALLEY":" ","HOUSE_NO":"３５號","E_COORD97":179375.48415400001,"N_COORD97":2578885.0451500001,"ADDRESS":"周武街３５號","OBJECTID":261435},"geometry":{"x":179375.48415399995,"y":2578885.0451529995}},{"attributes":{"ID":261440,"DIS_CODE":0,"TOWNNAME":"麻豆區","LI":"\u25A0江里","LIN":"13鄰","STREET":"民權路","SECT":" ","MAREA":" ","LANE":" ","ALLEY":" ","HOUSE_NO":"８１號之５","E_COORD97":173550.079471,"N_COORD97":2564420.1030299999,"ADDRESS":"民權路８１號之５","OBJECTID":261436},"geometry":{"x":173550.0794710014,"y":2564420.1030310001}},{"attributes":{"ID":261441,"DIS_CODE":0,"TOWNNAME":"麻豆區","LI":"\u25A0江里","LIN":"17鄰","STREET":"民權路","SECT":" ","MAREA":" ","LANE":" ","ALLEY":" ","HOUSE_NO":"３１號之１","E_COORD97":173427.82917800001,"N_COORD97":2564658.12207,"ADDRESS":"民權路３１號之１","OBJECTID":261437},"geometry":{"x":173427.8291780008,"y":2564658.1220689993}},{"attributes":{"ID":261442,"DIS_CODE":0,"TOWNNAME":"安南區","LI":"四草里","LIN":"7鄰","STREET":"四草大道","SECT":" ","MAREA":" ","LANE":" ","ALLEY":" ","HOUSE_NO":"４８２之１號","E_COORD97":161139.50222600001,"N_COORD97":2545708.3869599998,"ADDRESS":"四草大道４８２之１號","OBJECTID":261438},"geometry":{"x":161139.50222600158,"y":2545708.3869560007}},{"attributes":{"ID":261443,"DIS_CODE":0,"TOWNNAME":"仁德區","LI":"後壁里","LIN":"5鄰","STREET":"德善一街","SECT":" ","MAREA":" ","LANE":" ","ALLEY":" ","HOUSE_NO":"２之１號","E_COORD97":173374.12065900001,"N_COORD97":2538901.1578299999,"ADDRESS":"德善一街２之１號","OBJECTID":261439},"geometry":{"x":173374.12065900117,"y":2538901.157825999}},{"attributes":{"ID":261444,"DIS_CODE":0,"TOWNNAME":"仁德區","LI":"後壁里","LIN":"5鄰","STREET":"德善一街","SECT":" ","MAREA":" ","LANE":" ","ALLEY":" ","HOUSE_NO":"２之２號","E_COORD97":173376.453186,"N_COORD97":2538904.3328200001,"ADDRESS":"德善一街２之２號","OBJECTID":261440},"geometry":{"x":173376.4531860007,"y":2538904.3328249995}},{"attributes":{"ID":261445,"DIS_CODE":0,"TOWNNAME":"仁德區","LI":"後壁里","LIN":"5鄰","STREET":"德善一街","SECT":" ","MAREA":" ","LANE":" ","ALLEY":" ","HOUSE_NO":"２之３號","E_COORD97":173379.633905,"N_COORD97":2538907.0844899998,"ADDRESS":"德善一街２之３號","OBJECTID":261441},"geometry":{"x":173379.63390500005,"y":2538907.0844899993}},{"attributes":{"ID":261446,"DIS_CODE":0,"TOWNNAME":"麻豆區","LI":"\u25A0江里","LIN":"19鄰","STREET":"興南路","SECT":" ","MAREA":" ","LANE":" ","ALLEY":" ","HOUSE_NO":"１９３號","E_COORD97":173568.16360699999,"N_COORD97":2564759.6748600001,"ADDRESS":"興南路１９３號","OBJECTID":261442},"geometry":{"x":173568.1636070013,"y":2564759.6748600006}},{"attributes":{"ID":261447,"DIS_CODE":0,"TOWNNAME":"新營區","LI":"新北里","LIN":"1鄰","STREET":"三興街","SECT":" ","MAREA":" ","LANE":" ","ALLEY":" ","HOUSE_NO":"５１號３","E_COORD97":179419.33783999999,"N_COORD97":2578888.2758300002,"ADDRESS":"三興街５１號３","OBJECTID":261443},"geometry":{"x":179419.33784000017,"y":2578888.2758270018}},{"attributes":{"ID":261448,"DIS_CODE":0,"TOWNNAME":"新營區","LI":"新北里","LIN":"1鄰","STREET":"周武街","SECT":" ","MAREA":" ","LANE":" ","ALLEY":" ","HOUSE_NO":"１０號","E_COORD97":179417.64311899999,"N_COORD97":2578841.60335,"ADDRESS":"周武街１０號","OBJECTID":261444},"geometry":{"x":179417.6431189999,"y":2578841.6033519972}},{"attributes":{"ID":261449,"DIS_CODE":0,"TOWNNAME":"永康區","LI":"安康里","LIN":"22鄰","STREET":"中華西街","SECT":" ","MAREA":" ","LANE":" ","ALLEY":" ","HOUSE_NO":"１４８號","E_COORD97":170675.67999999999,"N_COORD97":2546210.6400000001,"ADDRESS":"中華西街１４８號","OBJECTID":261445},"geometry":{"x":170675.68000000063,"y":2546210.6400000043}},{"attributes":{"ID":261450,"DIS_CODE":0,"TOWNNAME":"仁德區","LI":"仁義里","LIN":"13鄰","STREET":"中山路","SECT":" ","MAREA":" ","LANE":" ","ALLEY":" ","HOUSE_NO":"１８０之１號","E_COORD97":174483.11528100001,"N_COORD97":2541203.3388200002,"ADDRESS":"中山路１８０之１號","OBJECTID":261446},"geometry":{"x":174483.11528099887,"y":2541203.3388190009}},{"attributes":{"ID":261451,"DIS_CODE":0,"TOWNNAME":"新營區","LI":"大宏里","LIN":"6鄰","STREET":"三民路","SECT":" ","MAREA":" ","LANE":" ","ALLEY":" ","HOUSE_NO":"２６號之３","E_COORD97":180481.12646999999,"N_COORD97":2578502.6313200002,"ADDRESS":"三民路２６號之３","OBJECTID":261447},"geometry":{"x":180481.12647000048,"y":2578502.6313200016}},{"attributes":{"ID":261452,"DIS_CODE":0,"TOWNNAME":"新營區","LI":"大宏里","LIN":"5鄰","STREET":"中正路","SECT":" ","MAREA":" ","LANE":" ","ALLEY":" ","HOUSE_NO":"６之３號","E_COORD97":180063.70816099999,"N_COORD97":2578509.0077800001,"ADDRESS":"中正路６之３號","OBJECTID":261448},"geometry":{"x":180063.70816100016,"y":2578509.0077760015}},{"attributes":{"ID":261453,"DIS_CODE":0,"TOWNNAME":"新營區","LI":"大宏里","LIN":"6鄰","STREET":"三民路","SECT":" ","MAREA":" ","LANE":" ","ALLEY":" ","HOUSE_NO":"２６號","E_COORD97":180494.80189800001,"N_COORD97":2578504.4304900002,"ADDRESS":"三民路２６號","OBJECTID":261449},"geometry":{"x":180494.80189800076,"y":2578504.4304870013}},{"attributes":{"ID":261454,"DIS_CODE":0,"TOWNNAME":"新營區","LI":"大宏里","LIN":"6鄰","STREET":"三民路","SECT":" ","MAREA":" ","LANE":" ","ALLEY":" ","HOUSE_NO":"２４號之１","E_COORD97":180500.10243999999,"N_COORD97":2578504.6421500002,"ADDRESS":"三民路２４號之１","OBJECTID":261450},"geometry":{"x":180500.10244000051,"y":2578504.6421499997}},{"attributes":{"ID":261455,"DIS_CODE":0,"TOWNNAME":"安南區","LI":"四草里","LIN":"8鄰","STREET":"四草大道","SECT":" ","MAREA":" ","LANE":" ","ALLEY":" ","HOUSE_NO":"２６１號","E_COORD97":161005.112956,"N_COORD97":2545534.96368,"ADDRESS":"四草大道２６１號","OBJECTID":261451},"geometry":{"x":161005.11295600049,"y":2545534.9636770003}},{"attributes":{"ID":261456,"DIS_CODE":0,"TOWNNAME":"仁德區","LI":"仁義里","LIN":"14鄰","STREET":"林頂街","SECT":" ","MAREA":" ","LANE":" ","ALLEY":" ","HOUSE_NO":"１１８號","E_COORD97":174620.088835,"N_COORD97":2541345.7591400002,"ADDRESS":"林頂街１１８號","OBJECTID":261452},"geometry":{"x":174620.08883500099,"y":2541345.7591400035}},{"attributes":{"ID":261457,"DIS_CODE":0,"TOWNNAME":"仁德區","LI":"仁德里","LIN":"4鄰","STREET":"中正路","SECT":"二段","MAREA":" ","LANE":" ","ALLEY":" ","HOUSE_NO":"８４７號","E_COORD97":173425.21224699999,"N_COORD97":2540518.4616299998,"ADDRESS":"中正路二段８４７號","OBJECTID":261453},"geometry":{"x":173425.21224700194,"y":2540518.4616330042}},{"attributes":{"ID":261458,"DIS_CODE":0,"TOWNNAME":"新化區","LI":"東榮里","LIN":"22鄰","STREET":"中興路","SECT":" ","MAREA":" ","LANE":" ","ALLEY":" ","HOUSE_NO":"７７７號","E_COORD97":179281.91,"N_COORD97":2548242.25,"ADDRESS":"中興路７７７號","OBJECTID":261454},"geometry":{"x":179281.91000000201,"y":2548242.25}},{"attributes":{"ID":261459,"DIS_CODE":0,"TOWNNAME":"新化區","LI":"東榮里","LIN":"22鄰","STREET":"復興路","SECT":" ","MAREA":" ","LANE":" ","ALLEY":" ","HOUSE_NO":"２０７號","E_COORD97":179403.62,"N_COORD97":2548036.25,"ADDRESS":"復興路２０７號","OBJECTID":261455},"geometry":{"x":179403.62000000011,"y":2548036.25}},{"attributes":{"ID":261460,"DIS_CODE":0,"TOWNNAME":"新化區","LI":"東榮里","LIN":"22鄰","STREET":"中興路","SECT":" ","MAREA":" ","LANE":" ","ALLEY":" ","HOUSE_NO":"７７９號","E_COORD97":179276.20999999999,"N_COORD97":2548242.25,"ADDRESS":"中興路７７９號","OBJECTID":261456},"geometry":{"x":179276.20999999903,"y":2548242.25}},{"attributes":{"ID":261461,"DIS_CODE":0,"TOWNNAME":"安南區","LI":"四草里","LIN":"5鄰","STREET":"大眾五街","SECT":" ","MAREA":" ","LANE":" ","ALLEY":" ","HOUSE_NO":"９０號","E_COORD97":160882.20541200001,"N_COORD97":2546160.6659300001,"ADDRESS":"大眾五街９０號","OBJECTID":261457},"geometry":{"x":160882.20541200135,"y":2546160.6659330018}},{"attributes":{"ID":261462,"DIS_CODE":0,"TOWNNAME":"安南區","LI":"四草里","LIN":"5鄰","STREET":"大眾六街","SECT":" ","MAREA":" ","LANE":" ","ALLEY":" ","HOUSE_NO":"７號","E_COORD97":160696.153983,"N_COORD97":2546380.4666599999,"ADDRESS":"大眾六街７號","OBJECTID":261458},"geometry":{"x":160696.15398300067,"y":2546380.4666630011}},{"attributes":{"ID":261463,"DIS_CODE":0,"TOWNNAME":"仁德區","LI":"一甲里","LIN":"2鄰","STREET":"中正路","SECT":"三段","MAREA":" ","LANE":" ","ALLEY":" ","HOUSE_NO":"２３３號","E_COORD97":173601.85350900001,"N_COORD97":2542099.01419,"ADDRESS":"中正路三段２３３號","OBJECTID":261459},"geometry":{"x":173601.85350899957,"y":2542099.0141930021}},{"attributes":{"ID":261464,"DIS_CODE":0,"TOWNNAME":"安南區","LI":"四草里","LIN":"5鄰","STREET":"大眾五街","SECT":" ","MAREA":" ","LANE":" ","ALLEY":" ","HOUSE_NO":"９５號","E_COORD97":160907.31021,"N_COORD97":2546152.1842800002,"ADDRESS":"大眾五街９５號","OBJECTID":261460},"geometry":{"x":160907.31020999886,"y":2546152.1842800006}},{"attributes":{"ID":261465,"DIS_CODE":0,"TOWNNAME":"新化區","LI":"東榮里","LIN":"22鄰","STREET":"復興路","SECT":" ","MAREA":" ","LANE":" ","ALLEY":" ","HOUSE_NO":"２３７號","E_COORD97":179367.01999999999,"N_COORD97":2548154.25,"ADDRESS":"復興路２３７號","OBJECTID":261461},"geometry":{"x":179367.02000000142,"y":2548154.25}},{"attributes":{"ID":261466,"DIS_CODE":0,"TOWNNAME":"新化區","LI":"東榮里","LIN":"22鄰","STREET":"護安街","SECT":" ","MAREA":" ","LANE":" ","ALLEY":" ","HOUSE_NO":"６號","E_COORD97":179291.63,"N_COORD97":2548208.2599999998,"ADDRESS":"護安街６號","OBJECTID":261462},"geometry":{"x":179291.62999999989,"y":2548208.2599999998}},{"attributes":{"ID":261467,"DIS_CODE":0,"TOWNNAME":"新化區","LI":"東榮里","LIN":"22鄰","STREET":"復興路","SECT":" ","MAREA":" ","LANE":" ","ALLEY":" ","HOUSE_NO":"２３３號","E_COORD97":179369.62,"N_COORD97":2548144.25,"ADDRESS":"復興路２３３號","OBJECTID":261463},"geometry":{"x":179369.62000000011,"y":2548144.25}},{"attributes":{"ID":261468,"DIS_CODE":0,"TOWNNAME":"安南區","LI":"海佃里","LIN":"22鄰","STREET":"海佃路","SECT":"一段","MAREA":" ","LANE":" ","ALLEY":" ","HOUSE_NO":"３２９號","E_COORD97":167012.22,"N_COORD97":2547421.4500000002,"ADDRESS":"海佃路一段３２９號","OBJECTID":261464},"geometry":{"x":167012.21999999974,"y":2547421.4500000011}},{"attributes":{"ID":261469,"DIS_CODE":0,"TOWNNAME":"安南區","LI":"四草里","LIN":"1鄰","STREET":"大眾六街","SECT":" ","MAREA":" ","LANE":" ","ALLEY":" ","HOUSE_NO":"９５號","E_COORD97":160463.83358000001,"N_COORD97":2546578.8965599998,"ADDRESS":"大眾六街９５號","OBJECTID":261465},"geometry":{"x":160463.83358000126,"y":2546578.8965600021}},{"attributes":{"ID":261470,"DIS_CODE":0,"TOWNNAME":"安定區","LI":"港口里","LIN":"22鄰","STREET":" ","SECT":" ","MAREA":"港口","LANE":" ","ALLEY":" ","HOUSE_NO":"４１４之９號","E_COORD97":171489.98999999999,"N_COORD97":2555320.2999999998,"ADDRESS":"港口４１４之９號","OBJECTID":261466},"geometry":{"x":171489.99000000022,"y":2555320.3000000026}},{"attributes":{"ID":261471,"DIS_CODE":0,"TOWNNAME":"安定區","LI":"港南里","LIN":"22鄰","STREET":" ","SECT":" ","MAREA":"港口","LANE":" ","ALLEY":" ","HOUSE_NO":"１８１號","E_COORD97":171370.392796,"N_COORD97":2554514.85665,"ADDRESS":"港口１８１號","OBJECTID":261467},"geometry":{"x":171370.3927960014,"y":2554514.8566550035}},{"attributes":{"ID":261472,"DIS_CODE":0,"TOWNNAME":"安南區","LI":"州北里","LIN":"22鄰","STREET":"北安路","SECT":"四段","MAREA":" ","LANE":" ","ALLEY":" ","HOUSE_NO":"５５３號之１","E_COORD97":169505.79999999999,"N_COORD97":2551929.54,"ADDRESS":"北安路四段５５３號之１","OBJECTID":261468},"geometry":{"x":169505.79999999981,"y":2551929.5400000028}},{"attributes":{"ID":261473,"DIS_CODE":0,"TOWNNAME":"安定區","LI":"蘇厝里","LIN":"22鄰","STREET":" ","SECT":" ","MAREA":"蘇厝","LANE":" ","ALLEY":" ","HOUSE_NO":"４９９號","E_COORD97":172954.01999999999,"N_COORD97":2558953.25,"ADDRESS":"蘇厝４９９號","OBJECTID":261469},"geometry":{"x":172954.01999999862,"y":2558953.25}},{"attributes":{"ID":261474,"DIS_CODE":0,"TOWNNAME":"安定區","LI":"港南里","LIN":"22鄰","STREET":" ","SECT":" ","MAREA":"港口","LANE":" ","ALLEY":" ","HOUSE_NO":"１９３號","E_COORD97":171357.85358699999,"N_COORD97":2554505.98367,"ADDRESS":"港口１９３號","OBJECTID":261470},"geometry":{"x":171357.85358700063,"y":2554505.9836700037}},{"attributes":{"ID":261475,"DIS_CODE":0,"TOWNNAME":"安定區","LI":"港口里","LIN":"22鄰","STREET":" ","SECT":" ","MAREA":"港口","LANE":" ","ALLEY":" ","HOUSE_NO":"４２１號","E_COORD97":172078.09,"N_COORD97":2555431.25,"ADDRESS":"港口４２１號","OBJECTID":261471},"geometry":{"x":172078.09000000078,"y":2555431.2500000037}},{"attributes":{"ID":261476,"DIS_CODE":0,"TOWNNAME":"安定區","LI":"港口里","LIN":"22鄰","STREET":" ","SECT":" ","MAREA":"港口","LANE":" ","ALLEY":" ","HOUSE_NO":"４１７號","E_COORD97":171726.69,"N_COORD97":2555012.25,"ADDRESS":"港口４１７號","OBJECTID":261472},"geometry":{"x":171726.69000000227,"y":2555012.2500000019}},{"attributes":{"ID":261477,"DIS_CODE":0,"TOWNNAME":"安定區","LI":"港口里","LIN":"22鄰","STREET":" ","SECT":" ","MAREA":"港口","LANE":" ","ALLEY":" ","HOUSE_NO":"４０８號之５","E_COORD97":171637.88,"N_COORD97":2555076.2999999998,"ADDRESS":"港口４０８號之５","OBJECTID":261473},"geometry":{"x":171637.87999999989,"y":2555076.3000000026}},{"attributes":{"ID":261478,"DIS_CODE":0,"TOWNNAME":"安定區","LI":"蘇厝里","LIN":"22鄰","STREET":" ","SECT":" ","MAREA":"蘇厝","LANE":" ","ALLEY":" ","HOUSE_NO":"５０３號之１","E_COORD97":172811.64999999999,"N_COORD97":2558901.2999999998,"ADDRESS":"蘇厝５０３號之１","OBJECTID":261474},"geometry":{"x":172811.64999999944,"y":2558901.3000000026}},{"attributes":{"ID":261479,"DIS_CODE":0,"TOWNNAME":"仁德區","LI":"後壁里","LIN":"33鄰","STREET":"文華路","SECT":"二段","MAREA":" ","LANE":" ","ALLEY":" ","HOUSE_NO":"１４８２號","E_COORD97":172117.38300100001,"N_COORD97":2539923.6486900002,"ADDRESS":"文華路二段１４８２號","OBJECTID":261475},"geometry":{"x":172117.38300100062,"y":2539923.6486879997}},{"attributes":{"ID":261480,"DIS_CODE":0,"TOWNNAME":"安定區","LI":"港口里","LIN":"22鄰","STREET":" ","SECT":" ","MAREA":"港口","LANE":" ","ALLEY":" ","HOUSE_NO":"４２３號","E_COORD97":172096.903616,"N_COORD97":2555430.4873899999,"ADDRESS":"港口４２３號","OBJECTID":261476},"geometry":{"x":172096.90361599997,"y":2555430.487385001}},{"attributes":{"ID":261481,"DIS_CODE":0,"TOWNNAME":"仁德區","LI":"一甲里","LIN":"8鄰","STREET":"中正路","SECT":"三段","MAREA":" ","LANE":" ","ALLEY":" ","HOUSE_NO":"１７８之１號","E_COORD97":173506.706741,"N_COORD97":2541802.4693499999,"ADDRESS":"中正路三段１７８之１號","OBJECTID":261477},"geometry":{"x":173506.70674099959,"y":2541802.4693529997}},{"attributes":{"ID":261482,"DIS_CODE":0,"TOWNNAME":"安南區","LI":"四草里","LIN":"1鄰","STREET":"大眾六街","SECT":" ","MAREA":" ","LANE":" ","ALLEY":" ","HOUSE_NO":"９２號","E_COORD97":160488.09122,"N_COORD97":2546581.1644899999,"ADDRESS":"大眾六街９２號","OBJECTID":261478},"geometry":{"x":160488.09122000169,"y":2546581.1644870043}},{"attributes":{"ID":261483,"DIS_CODE":0,"TOWNNAME":"仁德區","LI":"一甲里","LIN":"1鄰","STREET":"中正路","SECT":"三段","MAREA":" ","LANE":" ","ALLEY":" ","HOUSE_NO":"１０１號","E_COORD97":173393.12396299999,"N_COORD97":2541657.5836,"ADDRESS":"中正路三段１０１號","OBJECTID":261479},"geometry":{"x":173393.12396300118,"y":2541657.5835980009}},{"attributes":{"ID":261484,"DIS_CODE":0,"TOWNNAME":"安南區","LI":"四草里","LIN":"1鄰","STREET":"大眾六街","SECT":" ","MAREA":" ","LANE":" ","ALLEY":" ","HOUSE_NO":"６５號","E_COORD97":160513.25163099999,"N_COORD97":2546523.86179,"ADDRESS":"大眾六街６５號","OBJECTID":261480},"geometry":{"x":160513.25163100194,"y":2546523.8617880046}},{"attributes":{"ID":261485,"DIS_CODE":0,"TOWNNAME":"安南區","LI":"四草里","LIN":"1鄰","STREET":"大眾六街","SECT":" ","MAREA":" ","LANE":" ","ALLEY":" ","HOUSE_NO":"６３號","E_COORD97":160512.828048,"N_COORD97":2546519.4167900002,"ADDRESS":"大眾六街６３號","OBJECTID":261481},"geometry":{"x":160512.82804800011,"y":2546519.4167900011}},{"attributes":{"ID":261486,"DIS_CODE":0,"TOWNNAME":"安南區","LI":"四草里","LIN":"2鄰","STREET":"大眾六街","SECT":" ","MAREA":" ","LANE":" ","ALLEY":" ","HOUSE_NO":"１４９號","E_COORD97":160362.244217,"N_COORD97":2546677.4258699999,"ADDRESS":"大眾六街１４９號","OBJECTID":261482},"geometry":{"x":160362.2442170009,"y":2546677.4258719999}},{"attributes":{"ID":261487,"DIS_CODE":0,"TOWNNAME":"安南區","LI":"四草里","LIN":"2鄰","STREET":"大眾六街","SECT":" ","MAREA":" ","LANE":" ","ALLEY":" ","HOUSE_NO":"１５０號","E_COORD97":160376.43425399999,"N_COORD97":2546702.40252,"ADDRESS":"大眾六街１５０號","OBJECTID":261483},"geometry":{"x":160376.43425399996,"y":2546702.4025250003}},{"attributes":{"ID":261488,"DIS_CODE":0,"TOWNNAME":"安南區","LI":"四草里","LIN":"2鄰","STREET":"大眾六街","SECT":" ","MAREA":" ","LANE":" ","ALLEY":" ","HOUSE_NO":"１５２號","E_COORD97":160371.35125599999,"N_COORD97":2546711.9275199999,"ADDRESS":"大眾六街１５２號","OBJECTID":261484},"geometry":{"x":160371.35125599988,"y":2546711.9275199994}},{"attributes":{"ID":261489,"DIS_CODE":0,"TOWNNAME":"安南區","LI":"四草里","LIN":"2鄰","STREET":"大眾六街","SECT":" ","MAREA":" ","LANE":" ","ALLEY":" ","HOUSE_NO":"１５１號","E_COORD97":160358.220176,"N_COORD97":2546689.4908699999,"ADDRESS":"大眾六街１５１號","OBJECTID":261485},"geometry":{"x":160358.22017600108,"y":2546689.4908650015}},{"attributes":{"ID":261490,"DIS_CODE":0,"TOWNNAME":"仁德區","LI":"一甲里","LIN":"10鄰","STREET":"忠義路","SECT":" ","MAREA":" ","LANE":" ","ALLEY":" ","HOUSE_NO":"２４６號","E_COORD97":173622.01000000001,"N_COORD97":2541884.02,"ADDRESS":"忠義路２４６號","OBJECTID":261486},"geometry":{"x":173622.00999999978,"y":2541884.0199999996}},{"attributes":{"ID":261491,"DIS_CODE":0,"TOWNNAME":"仁德區","LI":"一甲里","LIN":"11鄰","STREET":"忠義路","SECT":" ","MAREA":" ","LANE":" ","ALLEY":" ","HOUSE_NO":"１７８號","E_COORD97":173896.40586299999,"N_COORD97":2541859.40766,"ADDRESS":"忠義路１７８號","OBJECTID":261487},"geometry":{"x":173896.40586300008,"y":2541859.4076560009}},{"attributes":{"ID":261492,"DIS_CODE":0,"TOWNNAME":"仁德區","LI":"一甲里","LIN":"11鄰","STREET":"忠義路","SECT":" ","MAREA":" ","LANE":" ","ALLEY":" ","HOUSE_NO":"１９６號","E_COORD97":173813.01999900001,"N_COORD97":2541865.3872400001,"ADDRESS":"忠義路１９６號","OBJECTID":261488},"geometry":{"x":173813.01999900024,"y":2541865.387236001}},{"attributes":{"ID":261493,"DIS_CODE":0,"TOWNNAME":"仁德區","LI":"一甲里","LIN":"11鄰","STREET":"忠義路","SECT":" ","MAREA":" ","LANE":" ","ALLEY":" ","HOUSE_NO":"８０號","E_COORD97":174389.834034,"N_COORD97":2541801.6756000002,"ADDRESS":"忠義路８０號","OBJECTID":261489},"geometry":{"x":174389.83403399959,"y":2541801.6756040007}},{"attributes":{"ID":261494,"DIS_CODE":0,"TOWNNAME":"安南區","LI":"海東里","LIN":"11鄰","STREET":"海中街","SECT":" ","MAREA":" ","LANE":" ","ALLEY":" ","HOUSE_NO":"６８號","E_COORD97":166420.156071,"N_COORD97":2548931.7422400001,"ADDRESS":"海中街６８號","OBJECTID":261490},"geometry":{"x":166420.15607099887,"y":2548931.7422390021}},{"attributes":{"ID":261495,"DIS_CODE":0,"TOWNNAME":"安南區","LI":"四草里","LIN":"4鄰","STREET":"大眾路","SECT":" ","MAREA":" ","LANE":" ","ALLEY":" ","HOUSE_NO":"６５０號","E_COORD97":160655.46844900001,"N_COORD97":2546425.2191599999,"ADDRESS":"大眾路６５０號","OBJECTID":261491},"geometry":{"x":160655.4684490012,"y":2546425.2191550024}},{"attributes":{"ID":261496,"DIS_CODE":0,"TOWNNAME":"安南區","LI":"四草里","LIN":"4鄰","STREET":"大眾路","SECT":" ","MAREA":" ","LANE":" ","ALLEY":" ","HOUSE_NO":"６５６號","E_COORD97":160640.12361899999,"N_COORD97":2546407.58195,"ADDRESS":"大眾路６５６號","OBJECTID":261492},"geometry":{"x":160640.12361900043,"y":2546407.5819480009}},{"attributes":{"ID":261497,"DIS_CODE":0,"TOWNNAME":"安南區","LI":"海東里","LIN":"3鄰","STREET":"海環街","SECT":" ","MAREA":" ","LANE":" ","ALLEY":" ","HOUSE_NO":"５７０號","E_COORD97":166361.48596600001,"N_COORD97":2549249.6653999998,"ADDRESS":"海環街５７０號","OBJECTID":261493},"geometry":{"x":166361.48596599884,"y":2549249.6654010005}},{"attributes":{"ID":261498,"DIS_CODE":0,"TOWNNAME":"安南區","LI":"海東里","LIN":"20鄰","STREET":"海佃路","SECT":"二段","MAREA":" ","LANE":" ","ALLEY":" ","HOUSE_NO":"１１３號","E_COORD97":166947.763404,"N_COORD97":2548191.12097,"ADDRESS":"海佃路二段１１３號","OBJECTID":261494},"geometry":{"x":166947.76340400055,"y":2548191.1209730003}},{"attributes":{"ID":261499,"DIS_CODE":0,"TOWNNAME":"新營區","LI":"王公里","LIN":"15鄰","STREET":"大勇街","SECT":" ","MAREA":" ","LANE":" ","ALLEY":" ","HOUSE_NO":"５２號","E_COORD97":180303.41614700001,"N_COORD97":2579429.5639599999,"ADDRESS":"大勇街５２號","OBJECTID":261495},"geometry":{"x":180303.41614700016,"y":2579429.5639600009}},{"attributes":{"ID":261500,"DIS_CODE":0,"TOWNNAME":"新營區","LI":"大宏里","LIN":"15鄰","STREET":"綠川北街","SECT":" ","MAREA":" ","LANE":" ","ALLEY":" ","HOUSE_NO":"４１號","E_COORD97":180636.04776700001,"N_COORD97":2578764.6611000001,"ADDRESS":"綠川北街４１號","OBJECTID":261496},"geometry":{"x":180636.04776700027,"y":2578764.6611040011}},{"attributes":{"ID":261501,"DIS_CODE":0,"TOWNNAME":"新營區","LI":"大宏里","LIN":"15鄰","STREET":"綠川北街","SECT":" ","MAREA":" ","LANE":" ","ALLEY":" ","HOUSE_NO":"４２號","E_COORD97":180631.17126100001,"N_COORD97":2578762.2004800001,"ADDRESS":"綠川北街４２號","OBJECTID":261497},"geometry":{"x":180631.17126100045,"y":2578762.2004810013}},{"attributes":{"ID":261502,"DIS_CODE":0,"TOWNNAME":"南區","LI":"府南里","LIN":"27鄰","STREET":"永成路","SECT":"三段","MAREA":" ","LANE":" ","ALLEY":" ","HOUSE_NO":"４７３號","E_COORD97":167485.62763,"N_COORD97":2541533.6283800001,"ADDRESS":"永成路三段４７３號","OBJECTID":261498},"geometry":{"x":167485.62763,"y":2541533.6283800006}},{"attributes":{"ID":261503,"DIS_CODE":0,"TOWNNAME":"南區","LI":"府南里","LIN":"27鄰","STREET":"永成路","SECT":"三段","MAREA":" ","LANE":" ","ALLEY":" ","HOUSE_NO":"４７１號","E_COORD97":167486.051179,"N_COORD97":2541529.7125499998,"ADDRESS":"永成路三段４７１號","OBJECTID":261499},"geometry":{"x":167486.05117900111,"y":2541529.7125490047}},{"attributes":{"ID":261504,"DIS_CODE":0,"TOWNNAME":"南區","LI":"府南里","LIN":"27鄰","STREET":"永成路","SECT":"三段","MAREA":" ","LANE":" ","ALLEY":" ","HOUSE_NO":"４７５號","E_COORD97":167485.41585600001,"N_COORD97":2541537.7558800001,"ADDRESS":"永成路三段４７５號","OBJECTID":261500},"geometry":{"x":167485.4158560019,"y":2541537.7558780015}},{"attributes":{"ID":261505,"DIS_CODE":0,"TOWNNAME":"關廟區","LI":"龜洞里","LIN":"7鄰","STREET":"南雄南路","SECT":" ","MAREA":" ","LANE":" ","ALLEY":" ","HOUSE_NO":"７３５號","E_COORD97":183274.64000000001,"N_COORD97":2533396.2999999998,"ADDRESS":"南雄南路７３５號","OBJECTID":261501},"geometry":{"x":183274.63999999966,"y":2533396.3000000007}},{"attributes":{"ID":261506,"DIS_CODE":0,"TOWNNAME":"南區","LI":"府南里","LIN":"11鄰","STREET":"永成路","SECT":"三段","MAREA":" ","LANE":" ","ALLEY":" ","HOUSE_NO":"６１８號","E_COORD97":167510.193421,"N_COORD97":2541599.5625100001,"ADDRESS":"永成路三段６１８號","OBJECTID":261502},"geometry":{"x":167510.19342100061,"y":2541599.5625110008}},{"attributes":{"ID":261507,"DIS_CODE":0,"TOWNNAME":"南區","LI":"府南里","LIN":"27鄰","STREET":"永成路","SECT":"三段","MAREA":" ","LANE":" ","ALLEY":" ","HOUSE_NO":"４６７號","E_COORD97":167486.15706600001,"N_COORD97":2541522.8862999999,"ADDRESS":"永成路三段４６７號","OBJECTID":261503},"geometry":{"x":167486.15706599969,"y":2541522.8863030002}},{"attributes":{"ID":261508,"DIS_CODE":0,"TOWNNAME":"南區","LI":"府南里","LIN":"11鄰","STREET":"永成路","SECT":"三段","MAREA":" ","LANE":" ","ALLEY":" ","HOUSE_NO":"６０６號","E_COORD97":167510.29930799999,"N_COORD97":2541575.6441899999,"ADDRESS":"永成路三段６０６號","OBJECTID":261504},"geometry":{"x":167510.2993079992,"y":2541575.6441910025}},{"attributes":{"ID":261509,"DIS_CODE":0,"TOWNNAME":"安南區","LI":"顯宮里","LIN":"4鄰","STREET":"媽祖宮二街","SECT":" ","MAREA":" ","LANE":" ","ALLEY":" ","HOUSE_NO":"２６號","E_COORD97":160737.53236099999,"N_COORD97":2548987.5514500001,"ADDRESS":"媽祖宮二街２６號","OBJECTID":261505},"geometry":{"x":160737.53236099984,"y":2548987.551454002}},{"attributes":{"ID":261510,"DIS_CODE":0,"TOWNNAME":"安南區","LI":"顯宮里","LIN":"4鄰","STREET":"媽祖宮二街","SECT":" ","MAREA":" ","LANE":" ","ALLEY":" ","HOUSE_NO":"２８號","E_COORD97":160732.44993999999,"N_COORD97":2548997.2881100001,"ADDRESS":"媽祖宮二街２８號","OBJECTID":261506},"geometry":{"x":160732.44993999973,"y":2548997.288110001}},{"attributes":{"ID":261511,"DIS_CODE":0,"TOWNNAME":"仁德區","LI":"仁愛里","LIN":"22鄰","STREET":" ","SECT":" ","MAREA":"仁愛","LANE":" ","ALLEY":" ","HOUSE_NO":"４７１號","E_COORD97":170093.77484999999,"N_COORD97":2540095.5499999998,"ADDRESS":"仁愛４７１號","OBJECTID":261507},"geometry":{"x":170093.77485000063,"y":2540095.5500000026}},{"attributes":{"ID":261512,"DIS_CODE":0,"TOWNNAME":"仁德區","LI":"仁愛里","LIN":"22鄰","STREET":" ","SECT":" ","MAREA":"仁愛","LANE":" ","ALLEY":" ","HOUSE_NO":"４６６號","E_COORD97":170118.35230900001,"N_COORD97":2540095.5499999998,"ADDRESS":"仁愛４６６號","OBJECTID":261508},"geometry":{"x":170118.35230900068,"y":2540095.5500000026}},{"attributes":{"ID":261513,"DIS_CODE":0,"TOWNNAME":"仁德區","LI":"仁愛里","LIN":"22鄰","STREET":" ","SECT":" ","MAREA":"仁愛","LANE":" ","ALLEY":" ","HOUSE_NO":"４７６號","E_COORD97":170077.53857999999,"N_COORD97":2540123.9682900002,"ADDRESS":"仁愛４７６號","OBJECTID":261509},"geometry":{"x":170077.53858000133,"y":2540123.9682900049}},{"attributes":{"ID":261514,"DIS_CODE":0,"TOWNNAME":"東區","LI":"關聖里","LIN":"22鄰","STREET":"裕和三街","SECT":" ","MAREA":" ","LANE":" ","ALLEY":" ","HOUSE_NO":"４３號","E_COORD97":172678.51999999999,"N_COORD97":2542902.0899999999,"ADDRESS":"裕和三街４３號","OBJECTID":261510},"geometry":{"x":172678.52000000048,"y":2542902.0900000017}},{"attributes":{"ID":261515,"DIS_CODE":0,"TOWNNAME":"安南區","LI":"顯宮里","LIN":"4鄰","STREET":"媽祖宮二街","SECT":" ","MAREA":" ","LANE":" ","ALLEY":" ","HOUSE_NO":"５２號","E_COORD97":160691.15532600001,"N_COORD97":2548966.5964700002,"ADDRESS":"媽祖宮二街５２號","OBJECTID":261511},"geometry":{"x":160691.15532600135,"y":2548966.5964650009}},{"attributes":{"ID":261516,"DIS_CODE":0,"TOWNNAME":"安南區","LI":"顯宮里","LIN":"4鄰","STREET":"媽祖宮路","SECT":" ","MAREA":" ","LANE":" ","ALLEY":" ","HOUSE_NO":"６０號","E_COORD97":160768.662152,"N_COORD97":2548949.0281400001,"ADDRESS":"媽祖宮路６０號","OBJECTID":261512},"geometry":{"x":160768.66215199977,"y":2548949.0281419996}},{"attributes":{"ID":261517,"DIS_CODE":0,"TOWNNAME":"安南區","LI":"顯宮里","LIN":"4鄰","STREET":"媽祖宮路","SECT":" ","MAREA":" ","LANE":" ","ALLEY":" ","HOUSE_NO":"６６號","E_COORD97":160760.61499500001,"N_COORD97":2548943.1014800002,"ADDRESS":"媽祖宮路６６號","OBJECTID":261513},"geometry":{"x":160760.61499500088,"y":2548943.1014780011}},{"attributes":{"ID":261518,"DIS_CODE":0,"TOWNNAME":"安南區","LI":"顯宮里","LIN":"4鄰","STREET":"媽祖宮路","SECT":" ","MAREA":" ","LANE":" ","ALLEY":" ","HOUSE_NO":"７６號","E_COORD97":160747.273656,"N_COORD97":2548931.45982,"ADDRESS":"媽祖宮路７６號","OBJECTID":261514},"geometry":{"x":160747.27365600131,"y":2548931.459818}},{"attributes":{"ID":261519,"DIS_CODE":0,"TOWNNAME":"安南區","LI":"顯宮里","LIN":"5鄰","STREET":"媽祖宮路","SECT":" ","MAREA":" ","LANE":" ","ALLEY":" ","HOUSE_NO":"１２０號","E_COORD97":160700.04955200001,"N_COORD97":2548895.68817,"ADDRESS":"媽祖宮路１２０號","OBJECTID":261515},"geometry":{"x":160700.04955200106,"y":2548895.6881700009}},{"attributes":{"ID":261520,"DIS_CODE":0,"TOWNNAME":"安南區","LI":"顯宮里","LIN":"5鄰","STREET":"媽祖宮路","SECT":" ","MAREA":" ","LANE":" ","ALLEY":" ","HOUSE_NO":"１２６號","E_COORD97":160694.12006799999,"N_COORD97":2548891.4548399998,"ADDRESS":"媽祖宮路１２６號","OBJECTID":261516},"geometry":{"x":160694.1200679997,"y":2548891.4548390023}},{"attributes":{"ID":261521,"DIS_CODE":0,"TOWNNAME":"安南區","LI":"顯宮里","LIN":"5鄰","STREET":"媽祖宮路","SECT":" ","MAREA":" ","LANE":" ","ALLEY":" ","HOUSE_NO":"１３２號","E_COORD97":160687.55528199999,"N_COORD97":2548890.1848399998,"ADDRESS":"媽祖宮路１３２號","OBJECTID":261517},"geometry":{"x":160687.55528200045,"y":2548890.1848399993}},{"attributes":{"ID":261522,"DIS_CODE":0,"TOWNNAME":"仁德區","LI":"仁義里","LIN":"22鄰","STREET":"中清一街","SECT":" ","MAREA":" ","LANE":" ","ALLEY":" ","HOUSE_NO":"４２號","E_COORD97":173648.01999999999,"N_COORD97":2541399.79,"ADDRESS":"中清一街４２號","OBJECTID":261518},"geometry":{"x":173648.02000000048,"y":2541399.7899999991}},{"attributes":{"ID":261523,"DIS_CODE":0,"TOWNNAME":"安南區","LI":"顯宮里","LIN":"6鄰","STREET":"媽祖宮路","SECT":" ","MAREA":" ","LANE":" ","ALLEY":" ","HOUSE_NO":"１５２號","E_COORD97":160656.82972000001,"N_COORD97":2548864.2100800001,"ADDRESS":"媽祖宮路１５２號","OBJECTID":261519},"geometry":{"x":160656.82971999981,"y":2548864.2100799996}},{"attributes":{"ID":261524,"DIS_CODE":0,"TOWNNAME":"仁德區","LI":"後壁里","LIN":"22鄰","STREET":"中正路","SECT":"二段","MAREA":" ","LANE":" ","ALLEY":" ","HOUSE_NO":"２０５號","E_COORD97":173207.76000000001,"N_COORD97":2538740.0299999998,"ADDRESS":"中正路二段２０５號","OBJECTID":261520},"geometry":{"x":173207.76000000071,"y":2538740.0299999993}},{"attributes":{"ID":261525,"DIS_CODE":0,"TOWNNAME":"仁德區","LI":"土庫里","LIN":"22鄰","STREET":"太子二街","SECT":" ","MAREA":" ","LANE":" ","ALLEY":" ","HOUSE_NO":"１０９號","E_COORD97":174442.88,"N_COORD97":2543328.5099999998,"ADDRESS":"太子二街１０９號","OBJECTID":261521},"geometry":{"x":174442.88000000082,"y":2543328.5099999998}},{"attributes":{"ID":261526,"DIS_CODE":0,"TOWNNAME":"仁德區","LI":"仁和里","LIN":"22鄰","STREET":" ","SECT":" ","MAREA":"仁和","LANE":" ","ALLEY":" ","HOUSE_NO":"４３９號","E_COORD97":170427.64788599999,"N_COORD97":2539815.5499999998,"ADDRESS":"仁和４３９號","OBJECTID":261522},"geometry":{"x":170427.6478860015,"y":2539815.5500000007}},{"attributes":{"ID":261527,"DIS_CODE":0,"TOWNNAME":"仁德區","LI":"仁和里","LIN":"22鄰","STREET":" ","SECT":" ","MAREA":"仁和","LANE":" ","ALLEY":" ","HOUSE_NO":"４４４號","E_COORD97":170412.65775400001,"N_COORD97":2539808.5499999998,"ADDRESS":"仁和４４４號","OBJECTID":261523},"geometry":{"x":170412.65775400028,"y":2539808.5500000026}},{"attributes":{"ID":261528,"DIS_CODE":0,"TOWNNAME":"仁德區","LI":"仁和里","LIN":"22鄰","STREET":" ","SECT":" ","MAREA":"仁和","LANE":" ","ALLEY":" ","HOUSE_NO":"４４８號","E_COORD97":170424.46976000001,"N_COORD97":2539808.5499999998,"ADDRESS":"仁和４４８號","OBJECTID":261524},"geometry":{"x":170424.46975999884,"y":2539808.5500000026}},{"attributes":{"ID":261529,"DIS_CODE":0,"TOWNNAME":"仁德區","LI":"仁愛里","LIN":"22鄰","STREET":" ","SECT":" ","MAREA":"仁愛","LANE":" ","ALLEY":" ","HOUSE_NO":"４５８號","E_COORD97":170144.46585899999,"N_COORD97":2540061.8502500001,"ADDRESS":"仁愛４５８號","OBJECTID":261525},"geometry":{"x":170144.46585899964,"y":2540061.8502489999}},{"attributes":{"ID":261530,"DIS_CODE":0,"TOWNNAME":"仁德區","LI":"仁和里","LIN":"22鄰","STREET":" ","SECT":" ","MAREA":"仁和","LANE":" ","ALLEY":" ","HOUSE_NO":"４３６號","E_COORD97":170418.16649500001,"N_COORD97":2539815.5499999998,"ADDRESS":"仁和４３６號","OBJECTID":261526},"geometry":{"x":170418.16649500094,"y":2539815.5500000007}},{"attributes":{"ID":261531,"DIS_CODE":0,"TOWNNAME":"安南區","LI":"顯宮里","LIN":"6鄰","STREET":"媽祖宮路","SECT":" ","MAREA":" ","LANE":" ","ALLEY":" ","HOUSE_NO":"１６２號","E_COORD97":160655.347354,"N_COORD97":2548862.9400800001,"ADDRESS":"媽祖宮路１６２號","OBJECTID":261527},"geometry":{"x":160655.34735400137,"y":2548862.9400850013}},{"attributes":{"ID":261532,"DIS_CODE":0,"TOWNNAME":"仁德區","LI":"保安里","LIN":"22鄰","STREET":"文賢路","SECT":"一段","MAREA":" ","LANE":" ","ALLEY":" ","HOUSE_NO":"７１２號","E_COORD97":171265.89999999999,"N_COORD97":2536426.5699999998,"ADDRESS":"文賢路一段７１２號","OBJECTID":261528},"geometry":{"x":171265.9000000013,"y":2536426.5700000022}},{"attributes":{"ID":261533,"DIS_CODE":0,"TOWNNAME":"安南區","LI":"顯宮里","LIN":"6鄰","STREET":"媽祖宮路","SECT":" ","MAREA":" ","LANE":" ","ALLEY":" ","HOUSE_NO":"１６６號","E_COORD97":160652.726734,"N_COORD97":2548861.5113400002,"ADDRESS":"媽祖宮路１６６號","OBJECTID":261529},"geometry":{"x":160652.72673400026,"y":2548861.5113360025}},{"attributes":{"ID":261534,"DIS_CODE":0,"TOWNNAME":"安南區","LI":"顯宮里","LIN":"6鄰","STREET":"媽祖宮路","SECT":" ","MAREA":" ","LANE":" ","ALLEY":" ","HOUSE_NO":"１６８號","E_COORD97":160649.33845700001,"N_COORD97":2548860.6646699999,"ADDRESS":"媽祖宮路１６８號","OBJECTID":261530},"geometry":{"x":160649.33845700044,"y":2548860.6646699999}},{"attributes":{"ID":261535,"DIS_CODE":0,"TOWNNAME":"安南區","LI":"顯宮里","LIN":"6鄰","STREET":"媽祖宮路","SECT":" ","MAREA":" ","LANE":" ","ALLEY":" ","HOUSE_NO":"１７２號","E_COORD97":160647.009017,"N_COORD97":2548859.1830000002,"ADDRESS":"媽祖宮路１７２號","OBJECTID":261531},"geometry":{"x":160647.00901699997,"y":2548859.1830039993}},{"attributes":{"ID":261536,"DIS_CODE":0,"TOWNNAME":"新營區","LI":"王公里","LIN":"25鄰","STREET":"中正路","SECT":" ","MAREA":" ","LANE":" ","ALLEY":" ","HOUSE_NO":"１３６之７號","E_COORD97":180095.98345,"N_COORD97":2579618.4647900001,"ADDRESS":"中正路１３６之７號","OBJECTID":261532},"geometry":{"x":180095.98345000111,"y":2579618.4647900015}},{"attributes":{"ID":261537,"DIS_CODE":0,"TOWNNAME":"永康區","LI":"龍潭里","LIN":"35鄰","STREET":"龍橋街","SECT":" ","MAREA":" ","LANE":" ","ALLEY":" ","HOUSE_NO":"１１６號","E_COORD97":174653.311801,"N_COORD97":2548555.4691099999,"ADDRESS":"龍橋街１１６號","OBJECTID":261533},"geometry":{"x":174653.31180099957,"y":2548555.469114}},{"attributes":{"ID":261538,"DIS_CODE":0,"TOWNNAME":"安南區","LI":"總頭里","LIN":"4鄰","STREET":"長溪路","SECT":"二段","MAREA":" ","LANE":" ","ALLEY":" ","HOUSE_NO":"５９６號","E_COORD97":168252.563077,"N_COORD97":2550686.3977199998,"ADDRESS":"長溪路二段５９６號","OBJECTID":261534},"geometry":{"x":168252.56307700183,"y":2550686.3977150042}},{"attributes":{"ID":261539,"DIS_CODE":0,"TOWNNAME":"仁德區","LI":"土庫里","LIN":"22鄰","STREET":"太子二街","SECT":" ","MAREA":" ","LANE":" ","ALLEY":" ","HOUSE_NO":"４３號","E_COORD97":174308.35999999999,"N_COORD97":2543389,"ADDRESS":"太子二街４３號","OBJECTID":261535},"geometry":{"x":174308.36000000034,"y":2543389}},{"attributes":{"ID":261540,"DIS_CODE":0,"TOWNNAME":"仁德區","LI":"仁義里","LIN":"22鄰","STREET":"正義路","SECT":" ","MAREA":" ","LANE":" ","ALLEY":" ","HOUSE_NO":"１３２號","E_COORD97":173754.62,"N_COORD97":2541405.7599999998,"ADDRESS":"正義路１３２號","OBJECTID":261536},"geometry":{"x":173754.62000000104,"y":2541405.7600000016}},{"attributes":{"ID":261541,"DIS_CODE":0,"TOWNNAME":"關廟區","LI":"新光里","LIN":"10鄰","STREET":"新光街","SECT":" ","MAREA":" ","LANE":" ","ALLEY":" ","HOUSE_NO":"２８６號","E_COORD97":184362.06557000001,"N_COORD97":2541892.3535199999,"ADDRESS":"新光街２８６號","OBJECTID":261537},"geometry":{"x":184362.06556999963,"y":2541892.3535200004}},{"attributes":{"ID":261542,"DIS_CODE":0,"TOWNNAME":"安南區","LI":"總頭里","LIN":"4鄰","STREET":"長溪路","SECT":"二段","MAREA":" ","LANE":" ","ALLEY":" ","HOUSE_NO":"５７３號","E_COORD97":168235.18994899999,"N_COORD97":2550650.8377399999,"ADDRESS":"長溪路二段５７３號","OBJECTID":261538},"geometry":{"x":168235.18994900025,"y":2550650.8377349991}},{"attributes":{"ID":261543,"DIS_CODE":0,"TOWNNAME":"安南區","LI":"總頭里","LIN":"11鄰","STREET":"長溪路","SECT":"二段","MAREA":" ","LANE":" ","ALLEY":" ","HOUSE_NO":"５７７號","E_COORD97":168225.02031299999,"N_COORD97":2550659.3043999998,"ADDRESS":"長溪路二段５７７號","OBJECTID":261539},"geometry":{"x":168225.02031300031,"y":2550659.304397}},{"attributes":{"ID":261544,"DIS_CODE":0,"TOWNNAME":"新營區","LI":"王公里","LIN":"31鄰","STREET":"大勇街","SECT":" ","MAREA":" ","LANE":" ","ALLEY":" ","HOUSE_NO":"１５號","E_COORD97":180217.67999999999,"N_COORD97":2579436.6000000001,"ADDRESS":"大勇街１５號","OBJECTID":261540},"geometry":{"x":180217.68000000063,"y":2579436.6000000015}},{"attributes":{"ID":261545,"DIS_CODE":0,"TOWNNAME":"安南區","LI":"總頭里","LIN":"14鄰","STREET":"長溪路","SECT":"二段","MAREA":" ","LANE":" ","ALLEY":" ","HOUSE_NO":"２９０號之２０","E_COORD97":168344.30166999999,"N_COORD97":2550015.2030799999,"ADDRESS":"長溪路二段２９０號之２０","OBJECTID":261541},"geometry":{"x":168344.30167000182,"y":2550015.2030779999}},{"attributes":{"ID":261546,"DIS_CODE":0,"TOWNNAME":"關廟區","LI":"新光里","LIN":"6鄰","STREET":"新光街","SECT":" ","MAREA":" ","LANE":" ","ALLEY":" ","HOUSE_NO":"２１１號","E_COORD97":184226.78513500001,"N_COORD97":2541812.87274,"ADDRESS":"新光街２１１號","OBJECTID":261542},"geometry":{"x":184226.78513500094,"y":2541812.872738}},{"attributes":{"ID":261547,"DIS_CODE":0,"TOWNNAME":"新營區","LI":"王公里","LIN":"15鄰","STREET":"大勇街","SECT":" ","MAREA":" ","LANE":" ","ALLEY":" ","HOUSE_NO":"４６號","E_COORD97":180290.27944899999,"N_COORD97":2579428.7172900001,"ADDRESS":"大勇街４６號","OBJECTID":261543},"geometry":{"x":180290.27944900189,"y":2579428.7172940001}},{"attributes":{"ID":261548,"DIS_CODE":0,"TOWNNAME":"關廟區","LI":"新光里","LIN":"6鄰","STREET":"新光街","SECT":" ","MAREA":" ","LANE":" ","ALLEY":" ","HOUSE_NO":"２０９號","E_COORD97":184212.90750199999,"N_COORD97":2541788.9544199998,"ADDRESS":"新光街２０９號","OBJECTID":261544},"geometry":{"x":184212.90750200115,"y":2541788.9544179998}},{"attributes":{"ID":261549,"DIS_CODE":0,"TOWNNAME":"新營區","LI":"王公里","LIN":"15鄰","STREET":"大勇街","SECT":" ","MAREA":" ","LANE":" ","ALLEY":" ","HOUSE_NO":"４８號","E_COORD97":180295.36462199999,"N_COORD97":2579428.50563,"ADDRESS":"大勇街４８號","OBJECTID":261545},"geometry":{"x":180295.36462200154,"y":2579428.5056269988}},{"attributes":{"ID":261550,"DIS_CODE":0,"TOWNNAME":"新營區","LI":"王公里","LIN":"15鄰","STREET":"大勇街","SECT":" ","MAREA":" ","LANE":" ","ALLEY":" ","HOUSE_NO":"５０號","E_COORD97":180298.96661999999,"N_COORD97":2579429.5639599999,"ADDRESS":"大勇街５０號","OBJECTID":261546},"geometry":{"x":180298.96662000101,"y":2579429.5639600009}},{"attributes":{"ID":261551,"DIS_CODE":0,"TOWNNAME":"安南區","LI":"總頭里","LIN":"8鄰","STREET":"長溪路","SECT":"二段","MAREA":" ","LANE":" ","ALLEY":" ","HOUSE_NO":"６５０號之１","E_COORD97":168231.58820299999,"N_COORD97":2550877.3738600002,"ADDRESS":"長溪路二段６５０號之１","OBJECTID":261547},"geometry":{"x":168231.58820300084,"y":2550877.3738620039}},{"attributes":{"ID":261552,"DIS_CODE":0,"TOWNNAME":"新營區","LI":"王公里","LIN":"31鄰","STREET":"大勇街","SECT":" ","MAREA":" ","LANE":" ","ALLEY":" ","HOUSE_NO":"２５號","E_COORD97":180258.92087999999,"N_COORD97":2579439.3006199999,"ADDRESS":"大勇街２５號","OBJECTID":261548},"geometry":{"x":180258.92088000011,"y":2579439.300621001}},{"attributes":{"ID":261553,"DIS_CODE":0,"TOWNNAME":"歸仁區","LI":"看東里","LIN":"2鄰","STREET":"忠孝南路","SECT":" ","MAREA":" ","LANE":" ","ALLEY":" ","HOUSE_NO":"１１８號","E_COORD97":178532.21621899999,"N_COORD97":2540344.51541,"ADDRESS":"忠孝南路１１８號","OBJECTID":261549},"geometry":{"x":178532.21621900052,"y":2540344.5154059995}},{"attributes":{"ID":261554,"DIS_CODE":0,"TOWNNAME":"新營區","LI":"王公里","LIN":"26鄰","STREET":"大公街","SECT":" ","MAREA":" ","LANE":" ","ALLEY":" ","HOUSE_NO":"１２號","E_COORD97":180141.96189400001,"N_COORD97":2579663.8788299998,"ADDRESS":"大公街１２號","OBJECTID":261550},"geometry":{"x":180141.96189399995,"y":2579663.8788330015}},{"attributes":{"ID":261555,"DIS_CODE":0,"TOWNNAME":"安南區","LI":"海東里","LIN":"20鄰","STREET":"海佃路","SECT":"二段","MAREA":" ","LANE":" ","ALLEY":" ","HOUSE_NO":"１６３號之１","E_COORD97":166922.72076,"N_COORD97":2548262.7115500001,"ADDRESS":"海佃路二段１６３號之１","OBJECTID":261551},"geometry":{"x":166922.72075999994,"y":2548262.7115519997}},{"attributes":{"ID":261556,"DIS_CODE":0,"TOWNNAME":"新營區","LI":"王公里","LIN":"24鄰","STREET":"公正街","SECT":" ","MAREA":" ","LANE":" ","ALLEY":" ","HOUSE_NO":"７４號","E_COORD97":180171.943229,"N_COORD97":2579410.0377199999,"ADDRESS":"公正街７４號","OBJECTID":261552},"geometry":{"x":180171.94322900102,"y":2579410.0377200004}},{"attributes":{"ID":261557,"DIS_CODE":0,"TOWNNAME":"永康區","LI":"復華里","LIN":"31鄰","STREET":"復華十街","SECT":" ","MAREA":" ","LANE":" ","ALLEY":" ","HOUSE_NO":"４７號","E_COORD97":172634.74575599999,"N_COORD97":2546404.2289499999,"ADDRESS":"復華十街４７號","OBJECTID":261553},"geometry":{"x":172634.74575600028,"y":2546404.2289539985}},{"attributes":{"ID":261558,"DIS_CODE":0,"TOWNNAME":"善化區","LI":"文昌里","LIN":"15鄰","STREET":"永福路","SECT":" ","MAREA":" ","LANE":" ","ALLEY":" ","HOUSE_NO":"１７號","E_COORD97":177606.39999999999,"N_COORD97":2558895.25,"ADDRESS":"永福路１７號","OBJECTID":261554},"geometry":{"x":177606.4000000013,"y":2558895.25}},{"attributes":{"ID":261559,"DIS_CODE":0,"TOWNNAME":"善化區","LI":"文昌里","LIN":"15鄰","STREET":"永福路","SECT":" ","MAREA":" ","LANE":" ","ALLEY":" ","HOUSE_NO":"３９號","E_COORD97":177571.04999999999,"N_COORD97":2558870.75,"ADDRESS":"永福路３９號","OBJECTID":261555},"geometry":{"x":177571.05000000075,"y":2558870.75}},{"attributes":{"ID":261560,"DIS_CODE":0,"TOWNNAME":"善化區","LI":"文昌里","LIN":"15鄰","STREET":"永福路","SECT":" ","MAREA":" ","LANE":" ","ALLEY":" ","HOUSE_NO":"１１號","E_COORD97":177618.42000000001,"N_COORD97":2558900.5,"ADDRESS":"永福路１１號","OBJECTID":261556},"geometry":{"x":177618.41999999993,"y":2558900.5}},{"attributes":{"ID":261561,"DIS_CODE":0,"TOWNNAME":"善化區","LI":"文昌里","LIN":"15鄰","STREET":"大信路","SECT":" ","MAREA":" ","LANE":" ","ALLEY":" ","HOUSE_NO":"７１號","E_COORD97":177613.51000000001,"N_COORD97":2558770.25,"ADDRESS":"大信路７１號","OBJECTID":261557},"geometry":{"x":177613.51000000071,"y":2558770.25}},{"attributes":{"ID":261562,"DIS_CODE":0,"TOWNNAME":"善化區","LI":"光文里","LIN":"15鄰","STREET":"樹人路","SECT":" ","MAREA":" ","LANE":" ","ALLEY":" ","HOUSE_NO":"１７號","E_COORD97":178378.35000000001,"N_COORD97":2558924.75,"ADDRESS":"樹人路１７號","OBJECTID":261558},"geometry":{"x":178378.35000000149,"y":2558924.7500000019}},{"attributes":{"ID":261563,"DIS_CODE":0,"TOWNNAME":"善化區","LI":"文昌里","LIN":"15鄰","STREET":"永福路","SECT":" ","MAREA":" ","LANE":" ","ALLEY":" ","HOUSE_NO":"３７號","E_COORD97":177575.19,"N_COORD97":2558884.25,"ADDRESS":"永福路３７號","OBJECTID":261559},"geometry":{"x":177575.19000000134,"y":2558884.2500000019}},{"attributes":{"ID":261564,"DIS_CODE":0,"TOWNNAME":"善化區","LI":"文昌里","LIN":"15鄰","STREET":"永福路","SECT":" ","MAREA":" ","LANE":" ","ALLEY":" ","HOUSE_NO":"３１號","E_COORD97":177588.42000000001,"N_COORD97":2558888.75,"ADDRESS":"永福路３１號","OBJECTID":261560},"geometry":{"x":177588.42000000086,"y":2558888.75}},{"attributes":{"ID":261565,"DIS_CODE":0,"TOWNNAME":"善化區","LI":"文昌里","LIN":"15鄰","STREET":"文昌路","SECT":" ","MAREA":" ","LANE":" ","ALLEY":" ","HOUSE_NO":"２３號","E_COORD97":177487.14999999999,"N_COORD97":2558758.5299999998,"ADDRESS":"文昌路２３號","OBJECTID":261561},"geometry":{"x":177487.15000000224,"y":2558758.5300000012}},{"attributes":{"ID":261566,"DIS_CODE":0,"TOWNNAME":"永康區","LI":"復華里","LIN":"31鄰","STREET":"復華十街","SECT":" ","MAREA":" ","LANE":" ","ALLEY":" ","HOUSE_NO":"４９號","E_COORD97":172630.719644,"N_COORD97":2546411.84895,"ADDRESS":"復華十街４９號","OBJECTID":261562},"geometry":{"x":172630.71964400075,"y":2546411.8489500023}},{"attributes":{"ID":261567,"DIS_CODE":0,"TOWNNAME":"仁德區","LI":"仁德里","LIN":"39鄰","STREET":"文宏路","SECT":" ","MAREA":" ","LANE":" ","ALLEY":" ","HOUSE_NO":"１７２號","E_COORD97":172454.52284399999,"N_COORD97":2541854.1495500002,"ADDRESS":"文宏路１７２號","OBJECTID":261563},"geometry":{"x":172454.52284400072,"y":2541854.1495500021}},{"attributes":{"ID":261568,"DIS_CODE":0,"TOWNNAME":"麻豆區","LI":"莊禮里","LIN":"5鄰","STREET":" ","SECT":" ","MAREA":"莊禮寮","LANE":" ","ALLEY":" ","HOUSE_NO":"６５號之１０","E_COORD97":169402.47162,"N_COORD97":2565957.5632799999,"ADDRESS":"莊禮寮６５號之１０","OBJECTID":261564},"geometry":{"x":169402.47161999997,"y":2565957.5632800013}},{"attributes":{"ID":261569,"DIS_CODE":0,"TOWNNAME":"永康區","LI":"永康里","LIN":"22鄰","STREET":"中山南路","SECT":" ","MAREA":" ","LANE":"５１７巷","ALLEY":" ","HOUSE_NO":"８號","E_COORD97":173298.72,"N_COORD97":2547089.2400000002,"ADDRESS":"中山南路５１７巷８號","OBJECTID":261565},"geometry":{"x":173298.71999999881,"y":2547089.2400000021}},{"attributes":{"ID":261570,"DIS_CODE":0,"TOWNNAME":"善化區","LI":"文昌里","LIN":"15鄰","STREET":"文賢街","SECT":" ","MAREA":" ","LANE":" ","ALLEY":" ","HOUSE_NO":"１０號","E_COORD97":177648.34,"N_COORD97":2558893.7799999998,"ADDRESS":"文賢街１０號","OBJECTID":261566},"geometry":{"x":177648.34000000078,"y":2558893.7799999993}},{"attributes":{"ID":261571,"DIS_CODE":0,"TOWNNAME":"永康區","LI":"建國里","LIN":"22鄰","STREET":"興國街","SECT":" ","MAREA":" ","LANE":" ","ALLEY":" ","HOUSE_NO":"１３號","E_COORD97":172594.48999999999,"N_COORD97":2544679.75,"ADDRESS":"興國街１３號","OBJECTID":261567},"geometry":{"x":172594.49000000115,"y":2544679.75}},{"attributes":{"ID":261572,"DIS_CODE":0,"TOWNNAME":"新營區","LI":"大宏里","LIN":"19鄰","STREET":"三民路","SECT":" ","MAREA":" ","LANE":" ","ALLEY":" ","HOUSE_NO":"３６之４９號","E_COORD97":180402.10834899999,"N_COORD97":2578525.70297,"ADDRESS":"三民路３６之４９號","OBJECTID":261568},"geometry":{"x":180402.1083490001,"y":2578525.7029749993}},{"attributes":{"ID":261573,"DIS_CODE":0,"TOWNNAME":"永康區","LI":"埔園里","LIN":"22鄰","STREET":"四維街","SECT":" ","MAREA":" ","LANE":" ","ALLEY":" ","HOUSE_NO":"６４號","E_COORD97":173412.45000000001,"N_COORD97":2548081.7000000002,"ADDRESS":"四維街６４號","OBJECTID":261569},"geometry":{"x":173412.45000000019,"y":2548081.7000000011}},{"attributes":{"ID":261574,"DIS_CODE":0,"TOWNNAME":"新營區","LI":"大宏里","LIN":"19鄰","STREET":"三民路","SECT":" ","MAREA":" ","LANE":" ","ALLEY":" ","HOUSE_NO":"３６號之３９","E_COORD97":180386.20668999999,"N_COORD97":2578532.2646300001,"ADDRESS":"三民路３６號之３９","OBJECTID":261570},"geometry":{"x":180386.2066900013,"y":2578532.264630001}},{"attributes":{"ID":261575,"DIS_CODE":0,"TOWNNAME":"新營區","LI":"大宏里","LIN":"19鄰","STREET":"三民路","SECT":" ","MAREA":" ","LANE":" ","ALLEY":" ","HOUSE_NO":"３６號之３７","E_COORD97":180385.88866,"N_COORD97":2578527.9254700001,"ADDRESS":"三民路３６號之３７","OBJECTID":261571},"geometry":{"x":180385.88866000064,"y":2578527.9254700001}},{"attributes":{"ID":261576,"DIS_CODE":0,"TOWNNAME":"新營區","LI":"大宏里","LIN":"19鄰","STREET":"三民路","SECT":" ","MAREA":" ","LANE":" ","ALLEY":" ","HOUSE_NO":"３６號之３５","E_COORD97":180385.99466999999,"N_COORD97":2578524.7504699999,"ADDRESS":"三民路３６號之３５","OBJECTID":261572},"geometry":{"x":180385.99467000086,"y":2578524.7504700013}},{"attributes":{"ID":261577,"DIS_CODE":0,"TOWNNAME":"仁德區","LI":"大甲里","LIN":"13鄰","STREET":"行大一街","SECT":" ","MAREA":" ","LANE":" ","ALLEY":" ","HOUSE_NO":"３１８號","E_COORD97":169564.25437800001,"N_COORD97":2535112.2801199998,"ADDRESS":"行大一街３１８號","OBJECTID":261573},"geometry":{"x":169564.25437800121,"y":2535112.280120004}},{"attributes":{"ID":261578,"DIS_CODE":0,"TOWNNAME":"仁德區","LI":"大甲里","LIN":"15鄰","STREET":"行大一街","SECT":" ","MAREA":" ","LANE":" ","ALLEY":" ","HOUSE_NO":"３５６號","E_COORD97":169522.07472999999,"N_COORD97":2535192.2900800002,"ADDRESS":"行大一街３５６號","OBJECTID":261574},"geometry":{"x":169522.07473000046,"y":2535192.2900770027}},{"attributes":{"ID":261579,"DIS_CODE":0,"TOWNNAME":"永康區","LI":"復華里","LIN":"33鄰","STREET":"復國一路","SECT":" ","MAREA":" ","LANE":" ","ALLEY":" ","HOUSE_NO":"５４５號","E_COORD97":172459.47781099999,"N_COORD97":2546316.3607600001,"ADDRESS":"復國一路５４５號","OBJECTID":261575},"geometry":{"x":172459.47781100031,"y":2546316.3607560005}},{"attributes":{"ID":261580,"DIS_CODE":0,"TOWNNAME":"新營區","LI":"南興里","LIN":"1鄰","STREET":"南昌街","SECT":" ","MAREA":" ","LANE":" ","ALLEY":" ","HOUSE_NO":"５之３號","E_COORD97":179677.77426199999,"N_COORD97":2577634.6232099999,"ADDRESS":"南昌街５之３號","OBJECTID":261576},"geometry":{"x":179677.77426200081,"y":2577634.6232130043}},{"attributes":{"ID":261581,"DIS_CODE":0,"TOWNNAME":"新營區","LI":"南興里","LIN":"1鄰","STREET":"南昌街","SECT":" ","MAREA":" ","LANE":" ","ALLEY":" ","HOUSE_NO":"５號之２","E_COORD97":179682.011906,"N_COORD97":2577635.6815499999,"ADDRESS":"南昌街５號之２","OBJECTID":261577},"geometry":{"x":179682.01190600079,"y":2577635.6815460026}},{"attributes":{"ID":261582,"DIS_CODE":0,"TOWNNAME":"仁德區","LI":"太子里","LIN":"27鄰","STREET":"太子四街","SECT":" ","MAREA":" ","LANE":" ","ALLEY":" ","HOUSE_NO":"１號","E_COORD97":173170.46935299999,"N_COORD97":2543377.0425100001,"ADDRESS":"太子四街１號","OBJECTID":261578},"geometry":{"x":173170.46935300063,"y":2543377.0425110012}},{"attributes":{"ID":261583,"DIS_CODE":0,"TOWNNAME":"新營區","LI":"南興里","LIN":"2鄰","STREET":"建業路","SECT":" ","MAREA":" ","LANE":" ","ALLEY":" ","HOUSE_NO":"２號之１","E_COORD97":179707.22589100001,"N_COORD97":2577598.3223999999,"ADDRESS":"建業路２號之１","OBJECTID":261579},"geometry":{"x":179707.22589100152,"y":2577598.3223989997}},{"attributes":{"ID":261584,"DIS_CODE":0,"TOWNNAME":"仁德區","LI":"太子里","LIN":"27鄰","STREET":"大吉路","SECT":" ","MAREA":" ","LANE":" ","ALLEY":" ","HOUSE_NO":"４１號","E_COORD97":173643.250333,"N_COORD97":2543298.7788,"ADDRESS":"大吉路４１號","OBJECTID":261580},"geometry":{"x":173643.25033299997,"y":2543298.7788040023}},{"attributes":{"ID":261585,"DIS_CODE":0,"TOWNNAME":"安南區","LI":"州南里","LIN":"3鄰","STREET":"北安路","SECT":"四段","MAREA":" ","LANE":" ","ALLEY":" ","HOUSE_NO":"１７１之５號","E_COORD97":169487.284461,"N_COORD97":2551347.15545,"ADDRESS":"北安路四段１７１之５號","OBJECTID":261581},"geometry":{"x":169487.28446100093,"y":2551347.1554540005}},{"attributes":{"ID":261586,"DIS_CODE":0,"TOWNNAME":"仁德區","LI":"大甲里","LIN":"15鄰","STREET":"行大街","SECT":" ","MAREA":" ","LANE":" ","ALLEY":" ","HOUSE_NO":"３８７號","E_COORD97":169519.001338,"N_COORD97":2535215.9967299998,"ADDRESS":"行大街３８７號","OBJECTID":261582},"geometry":{"x":169519.00133800041,"y":2535215.9967300016}},{"attributes":{"ID":261587,"DIS_CODE":0,"TOWNNAME":"安南區","LI":"安東里","LIN":"22鄰","STREET":"安和路","SECT":"二段","MAREA":" ","LANE":" ","ALLEY":" ","HOUSE_NO":"１３０號之９","E_COORD97":169573.22604400001,"N_COORD97":2548886.5255700001,"ADDRESS":"安和路二段１３０號之９","OBJECTID":261583},"geometry":{"x":169573.22604400013,"y":2548886.5255689994}},{"attributes":{"ID":261588,"DIS_CODE":0,"TOWNNAME":"新營區","LI":"南興里","LIN":"2鄰","STREET":"建業路","SECT":" ","MAREA":" ","LANE":" ","ALLEY":" ","HOUSE_NO":"２號之１０","E_COORD97":179659.340509,"N_COORD97":2577583.2940699998,"ADDRESS":"建業路２號之１０","OBJECTID":261584},"geometry":{"x":179659.34050900023,"y":2577583.2940740008}},{"attributes":{"ID":261589,"DIS_CODE":0,"TOWNNAME":"仁德區","LI":"太子里","LIN":"27鄰","STREET":"太子路","SECT":" ","MAREA":" ","LANE":" ","ALLEY":" ","HOUSE_NO":"４５６號","E_COORD97":173414.510167,"N_COORD97":2543559.3006699998,"ADDRESS":"太子路４５６號","OBJECTID":261585},"geometry":{"x":173414.51016700082,"y":2543559.3006720021}},{"attributes":{"ID":261590,"DIS_CODE":0,"TOWNNAME":"仁德區","LI":"大甲里","LIN":"15鄰","STREET":"行大街","SECT":" ","MAREA":" ","LANE":" ","ALLEY":" ","HOUSE_NO":"３８９號","E_COORD97":169514.974135,"N_COORD97":2535218.0075599998,"ADDRESS":"行大街３８９號","OBJECTID":261586},"geometry":{"x":169514.97413500026,"y":2535218.0075630005}},{"attributes":{"ID":261591,"DIS_CODE":0,"TOWNNAME":"仁德區","LI":"太子里","LIN":"27鄰","STREET":"太子路","SECT":" ","MAREA":" ","LANE":" ","ALLEY":" ","HOUSE_NO":"４５０號","E_COORD97":173443.73470199999,"N_COORD97":2543563.32234,"ADDRESS":"太子路４５０號","OBJECTID":261587},"geometry":{"x":173443.73470200039,"y":2543563.3223370016}},{"attributes":{"ID":261592,"DIS_CODE":0,"TOWNNAME":"安南區","LI":"州南里","LIN":"12鄰","STREET":"安和路","SECT":"五段","MAREA":" ","LANE":" ","ALLEY":" ","HOUSE_NO":"３號","E_COORD97":169925.14356299999,"N_COORD97":2551526.8603599998,"ADDRESS":"安和路五段３號","OBJECTID":261588},"geometry":{"x":169925.14356299955,"y":2551526.8603570014}},{"attributes":{"ID":261593,"DIS_CODE":0,"TOWNNAME":"仁德區","LI":"大甲里","LIN":"16鄰","STREET":"行大一街","SECT":" ","MAREA":" ","LANE":" ","ALLEY":" ","HOUSE_NO":"４４０之１號","E_COORD97":169396.913512,"N_COORD97":2535209.2234,"ADDRESS":"行大一街４４０之１號","OBJECTID":261589},"geometry":{"x":169396.91351199988,"y":2535209.2234009989}},{"attributes":{"ID":261594,"DIS_CODE":0,"TOWNNAME":"仁德區","LI":"太子里","LIN":"27鄰","STREET":"太子路","SECT":" ","MAREA":" ","LANE":" ","ALLEY":" ","HOUSE_NO":"６８９號","E_COORD97":173419.38092200001,"N_COORD97":2543484.9528000001,"ADDRESS":"太子路６８９號","OBJECTID":261590},"geometry":{"x":173419.38092199992,"y":2543484.9527960028}},{"attributes":{"ID":261595,"DIS_CODE":0,"TOWNNAME":"仁德區","LI":"大甲里","LIN":"17鄰","STREET":"行大街","SECT":" ","MAREA":" ","LANE":" ","ALLEY":" ","HOUSE_NO":"４２７號","E_COORD97":169464.740082,"N_COORD97":2535265.7383699999,"ADDRESS":"行大街４２７號","OBJECTID":261591},"geometry":{"x":169464.74008200038,"y":2535265.7383699995}},{"attributes":{"ID":261596,"DIS_CODE":0,"TOWNNAME":"仁德區","LI":"大甲里","LIN":"17鄰","STREET":"行大街","SECT":" ","MAREA":" ","LANE":" ","ALLEY":" ","HOUSE_NO":"４３１號","E_COORD97":169456.049803,"N_COORD97":2535273.6758699999,"ADDRESS":"行大街４３１號","OBJECTID":261592},"geometry":{"x":169456.04980300087,"y":2535273.6758659985}},{"attributes":{"ID":261597,"DIS_CODE":0,"TOWNNAME":"仁德區","LI":"大甲里","LIN":"18鄰","STREET":"行大一街","SECT":" ","MAREA":" ","LANE":" ","ALLEY":" ","HOUSE_NO":"４８９號","E_COORD97":169240.276526,"N_COORD97":2535251.7683799998,"ADDRESS":"行大一街４８９號","OBJECTID":261593},"geometry":{"x":169240.27652600128,"y":2535251.7683780007}},{"attributes":{"ID":261598,"DIS_CODE":0,"TOWNNAME":"仁德區","LI":"大甲里","LIN":"18鄰","STREET":"行大一街","SECT":" ","MAREA":" ","LANE":" ","ALLEY":" ","HOUSE_NO":"５１６號","E_COORD97":169294.74974,"N_COORD97":2535258.1183699998,"ADDRESS":"行大一街５１６號","OBJECTID":261594},"geometry":{"x":169294.74974000081,"y":2535258.1183739994}},{"attributes":{"ID":261599,"DIS_CODE":0,"TOWNNAME":"仁德區","LI":"仁德里","LIN":"33鄰","STREET":"文德路","SECT":" ","MAREA":" ","LANE":" ","ALLEY":" ","HOUSE_NO":"６６號","E_COORD97":172952.60277,"N_COORD97":2541561.9535699999,"ADDRESS":"文德路６６號","OBJECTID":261595},"geometry":{"x":172952.6027700007,"y":2541561.9535670001}},{"attributes":{"ID":261600,"DIS_CODE":0,"TOWNNAME":"仁德區","LI":"仁德里","LIN":"33鄰","STREET":"文德路","SECT":" ","MAREA":" ","LANE":" ","ALLEY":" ","HOUSE_NO":"６２號","E_COORD97":172952.60277,"N_COORD97":2541557.7202400002,"ADDRESS":"文德路６２號","OBJECTID":261596},"geometry":{"x":172952.6027700007,"y":2541557.7202360015}},{"attributes":{"ID":261601,"DIS_CODE":0,"TOWNNAME":"仁德區","LI":"仁德里","LIN":"33鄰","STREET":"文德路","SECT":" ","MAREA":" ","LANE":" ","ALLEY":" ","HOUSE_NO":"６０號","E_COORD97":172953.026422,"N_COORD97":2541552.42857,"ADDRESS":"文德路６０號","OBJECTID":261597},"geometry":{"x":172953.02642199956,"y":2541552.4285720009}},{"attributes":{"ID":261602,"DIS_CODE":0,"TOWNNAME":"仁德區","LI":"仁德里","LIN":"33鄰","STREET":"文德路","SECT":" ","MAREA":" ","LANE":" ","ALLEY":" ","HOUSE_NO":"５８號","E_COORD97":172951.755466,"N_COORD97":2541546.7135700001,"ADDRESS":"文德路５８號","OBJECTID":261598},"geometry":{"x":172951.75546600111,"y":2541546.7135750037}},{"attributes":{"ID":261603,"DIS_CODE":0,"TOWNNAME":"仁德區","LI":"仁德里","LIN":"33鄰","STREET":"文德路","SECT":" ","MAREA":" ","LANE":" ","ALLEY":" ","HOUSE_NO":"５６號","E_COORD97":172951.54363999999,"N_COORD97":2541541.6335800001,"ADDRESS":"文德路５６號","OBJECTID":261599},"geometry":{"x":172951.54364000075,"y":2541541.6335780043}},{"attributes":{"ID":261604,"DIS_CODE":0,"TOWNNAME":"仁德區","LI":"仁德里","LIN":"33鄰","STREET":"文德路","SECT":" ","MAREA":" ","LANE":" ","ALLEY":" ","HOUSE_NO":"５２號","E_COORD97":172950.69633499999,"N_COORD97":2541535.7069100002,"ADDRESS":"文德路５２號","OBJECTID":261600},"geometry":{"x":172950.69633500092,"y":2541535.7069140039}}]}